{"displayFieldName":"TOWNNAME","fieldAliases":{"ID":"ID","DIS_CODE":"DIS_CODE","TOWNNAME":"TOWNNAME","LI":"LI","LIN":"LIN","STREET":"STREET","SECT":"SECT","MAREA":"MAREA","LANE":"LANE","ALLEY":"ALLEY","HOUSE_NO":"HOUSE_NO","E_COORD97":"E_COORD97","N_COORD97":"N_COORD97","ADDRESS":"ADDRESS","OBJECTID":"OBJECTID"},"geometryType":"esriGeometryPoint","spatialReference":{"wkid":102443,"latestWkid":3826},"fields":[{"name":"ID","type":"esriFieldTypeDouble","alias":"ID"},{"name":"DIS_CODE","type":"esriFieldTypeInteger","alias":"DIS_CODE"},{"name":"TOWNNAME","type":"esriFieldTypeString","alias":"TOWNNAME","length":8},{"name":"LI","type":"esriFieldTypeString","alias":"LI","length":8},{"name":"LIN","type":"esriFieldTypeString","alias":"LIN","length":12},{"name":"STREET","type":"esriFieldTypeString","alias":"STREET","length":20},{"name":"SECT","type":"esriFieldTypeString","alias":"SECT","length":8},{"name":"MAREA","type":"esriFieldTypeString","alias":"MAREA","length":12},{"name":"LANE","type":"esriFieldTypeString","alias":"LANE","length":10},{"name":"ALLEY","type":"esriFieldTypeString","alias":"ALLEY","length":10},{"name":"HOUSE_NO","type":"esriFieldTypeString","alias":"HOUSE_NO","length":20},{"name":"E_COORD97","type":"esriFieldTypeDouble","alias":"E_COORD97"},{"name":"N_COORD97","type":"esriFieldTypeDouble","alias":"N_COORD97"},{"name":"ADDRESS","type":"esriFieldTypeString","alias":"ADDRESS","length":50},{"name":"OBJECTID","type":"esriFieldTypeOID","alias":"OBJECTID"}],"features":[{"attributes":{"ID":378411,"DIS_CODE":0,"TOWNNAME":"東區","LI":"德光里","LIN":"21鄰","STREET":"崇明路","SECT":" ","MAREA":" ","LANE":"１８７巷","ALLEY":" ","HOUSE_NO":"２３號三樓","E_COORD97":169982.89000000001,"N_COORD97":2542161.5499999998,"ADDRESS":"崇明路１８７巷２３號三樓","OBJECTID":378401},"geometry":{"x":169982.88999999966,"y":2542161.5500000026}},{"attributes":{"ID":378412,"DIS_CODE":0,"TOWNNAME":"東區","LI":"德光里","LIN":"21鄰","STREET":"崇明路","SECT":" ","MAREA":" ","LANE":"１８７巷","ALLEY":" ","HOUSE_NO":"２３號五樓","E_COORD97":169982.89000000001,"N_COORD97":2542161.5499999998,"ADDRESS":"崇明路１８７巷２３號五樓","OBJECTID":378402},"geometry":{"x":169982.88999999966,"y":2542161.5500000026}},{"attributes":{"ID":378413,"DIS_CODE":0,"TOWNNAME":"東區","LI":"德光里","LIN":"21鄰","STREET":"崇明路","SECT":" ","MAREA":" ","LANE":"１８７巷","ALLEY":" ","HOUSE_NO":"２３號六樓","E_COORD97":169982.89000000001,"N_COORD97":2542161.5499999998,"ADDRESS":"崇明路１８７巷２３號六樓","OBJECTID":378403},"geometry":{"x":169982.88999999966,"y":2542161.5500000026}},{"attributes":{"ID":378414,"DIS_CODE":0,"TOWNNAME":"東區","LI":"德光里","LIN":"21鄰","STREET":"崇明路","SECT":" ","MAREA":" ","LANE":"１８７巷","ALLEY":" ","HOUSE_NO":"２３號四樓","E_COORD97":169982.89000000001,"N_COORD97":2542161.5499999998,"ADDRESS":"崇明路１８７巷２３號四樓","OBJECTID":378404},"geometry":{"x":169982.88999999966,"y":2542161.5500000026}},{"attributes":{"ID":378415,"DIS_CODE":0,"TOWNNAME":"東區","LI":"德光里","LIN":"21鄰","STREET":"崇明路","SECT":" ","MAREA":" ","LANE":"１８７巷","ALLEY":" ","HOUSE_NO":"２５號七樓","E_COORD97":170005.45999999999,"N_COORD97":2542187.9199999999,"ADDRESS":"崇明路１８７巷２５號七樓","OBJECTID":378405},"geometry":{"x":170005.46000000183,"y":2542187.9200000018}},{"attributes":{"ID":378416,"DIS_CODE":0,"TOWNNAME":"東區","LI":"德光里","LIN":"21鄰","STREET":"崇明路","SECT":" ","MAREA":" ","LANE":"１８７巷","ALLEY":" ","HOUSE_NO":"２５號七樓之１","E_COORD97":170005.45999999999,"N_COORD97":2542187.9199999999,"ADDRESS":"崇明路１８７巷２５號七樓之１","OBJECTID":378406},"geometry":{"x":170005.46000000183,"y":2542187.9200000018}},{"attributes":{"ID":378417,"DIS_CODE":0,"TOWNNAME":"東區","LI":"德光里","LIN":"21鄰","STREET":"崇明路","SECT":" ","MAREA":" ","LANE":"１８７巷","ALLEY":" ","HOUSE_NO":"２５號八樓","E_COORD97":170005.45999999999,"N_COORD97":2542187.9199999999,"ADDRESS":"崇明路１８７巷２５號八樓","OBJECTID":378407},"geometry":{"x":170005.46000000183,"y":2542187.9200000018}},{"attributes":{"ID":378418,"DIS_CODE":0,"TOWNNAME":"東區","LI":"德光里","LIN":"21鄰","STREET":"崇明路","SECT":" ","MAREA":" ","LANE":"１８７巷","ALLEY":" ","HOUSE_NO":"２５號八樓之１","E_COORD97":170005.45999999999,"N_COORD97":2542187.9199999999,"ADDRESS":"崇明路１８７巷２５號八樓之１","OBJECTID":378408},"geometry":{"x":170005.46000000183,"y":2542187.9200000018}},{"attributes":{"ID":378419,"DIS_CODE":0,"TOWNNAME":"東區","LI":"德光里","LIN":"21鄰","STREET":"崇明路","SECT":" ","MAREA":" ","LANE":"１８７巷","ALLEY":" ","HOUSE_NO":"２５號五樓","E_COORD97":170005.45999999999,"N_COORD97":2542187.9199999999,"ADDRESS":"崇明路１８７巷２５號五樓","OBJECTID":378409},"geometry":{"x":170005.46000000183,"y":2542187.9200000018}},{"attributes":{"ID":378420,"DIS_CODE":0,"TOWNNAME":"東區","LI":"德光里","LIN":"21鄰","STREET":"崇明路","SECT":" ","MAREA":" ","LANE":"１８７巷","ALLEY":" ","HOUSE_NO":"２５號五樓之１","E_COORD97":170005.45999999999,"N_COORD97":2542187.9199999999,"ADDRESS":"崇明路１８７巷２５號五樓之１","OBJECTID":378410},"geometry":{"x":170005.46000000183,"y":2542187.9200000018}},{"attributes":{"ID":378421,"DIS_CODE":0,"TOWNNAME":"東區","LI":"德光里","LIN":"21鄰","STREET":"崇明路","SECT":" ","MAREA":" ","LANE":"１８７巷","ALLEY":" ","HOUSE_NO":"２５號六樓","E_COORD97":170005.45999999999,"N_COORD97":2542187.9199999999,"ADDRESS":"崇明路１８７巷２５號六樓","OBJECTID":378411},"geometry":{"x":170005.46000000183,"y":2542187.9200000018}},{"attributes":{"ID":378422,"DIS_CODE":0,"TOWNNAME":"東區","LI":"德光里","LIN":"21鄰","STREET":"崇明路","SECT":" ","MAREA":" ","LANE":"１８７巷","ALLEY":" ","HOUSE_NO":"２５號六樓之１","E_COORD97":170005.45999999999,"N_COORD97":2542187.9199999999,"ADDRESS":"崇明路１８７巷２５號六樓之１","OBJECTID":378412},"geometry":{"x":170005.46000000183,"y":2542187.9200000018}},{"attributes":{"ID":378423,"DIS_CODE":0,"TOWNNAME":"東區","LI":"德光里","LIN":"21鄰","STREET":"崇明路","SECT":" ","MAREA":" ","LANE":"１８７巷","ALLEY":" ","HOUSE_NO":"２５號四樓","E_COORD97":170005.45999999999,"N_COORD97":2542187.9199999999,"ADDRESS":"崇明路１８７巷２５號四樓","OBJECTID":378413},"geometry":{"x":170005.46000000183,"y":2542187.9200000018}},{"attributes":{"ID":378424,"DIS_CODE":0,"TOWNNAME":"東區","LI":"德光里","LIN":"21鄰","STREET":"崇明路","SECT":" ","MAREA":" ","LANE":"１８７巷","ALLEY":" ","HOUSE_NO":"２５號四樓之１","E_COORD97":170005.45999999999,"N_COORD97":2542187.9199999999,"ADDRESS":"崇明路１８７巷２５號四樓之１","OBJECTID":378414},"geometry":{"x":170005.46000000183,"y":2542187.9200000018}},{"attributes":{"ID":378425,"DIS_CODE":0,"TOWNNAME":"東區","LI":"德光里","LIN":"21鄰","STREET":"崇明路","SECT":" ","MAREA":" ","LANE":"１８７巷","ALLEY":" ","HOUSE_NO":"３號七樓","E_COORD97":169977.32999999999,"N_COORD97":2542141.6299999999,"ADDRESS":"崇明路１８７巷３號七樓","OBJECTID":378415},"geometry":{"x":169977.33000000007,"y":2542141.6300000008}},{"attributes":{"ID":378426,"DIS_CODE":0,"TOWNNAME":"永康區","LI":"西勢里","LIN":"21鄰","STREET":"富強路","SECT":"一段","MAREA":" ","LANE":"１４９巷","ALLEY":" ","HOUSE_NO":"２２號","E_COORD97":175517.62,"N_COORD97":2546375.9900000002,"ADDRESS":"富強路一段１４９巷２２號","OBJECTID":378416},"geometry":{"x":175517.62000000104,"y":2546375.9900000002}},{"attributes":{"ID":378427,"DIS_CODE":0,"TOWNNAME":"東區","LI":"德光里","LIN":"21鄰","STREET":"崇明路","SECT":" ","MAREA":" ","LANE":"１８７巷","ALLEY":" ","HOUSE_NO":"３號七樓之１","E_COORD97":169977.32999999999,"N_COORD97":2542141.6299999999,"ADDRESS":"崇明路１８７巷３號七樓之１","OBJECTID":378417},"geometry":{"x":169977.33000000007,"y":2542141.6300000008}},{"attributes":{"ID":378428,"DIS_CODE":0,"TOWNNAME":"東區","LI":"德光里","LIN":"21鄰","STREET":"崇明路","SECT":" ","MAREA":" ","LANE":"１８７巷","ALLEY":" ","HOUSE_NO":"３號八樓","E_COORD97":169977.32999999999,"N_COORD97":2542141.6299999999,"ADDRESS":"崇明路１８７巷３號八樓","OBJECTID":378418},"geometry":{"x":169977.33000000007,"y":2542141.6300000008}},{"attributes":{"ID":378429,"DIS_CODE":0,"TOWNNAME":"東區","LI":"德光里","LIN":"21鄰","STREET":"崇明路","SECT":" ","MAREA":" ","LANE":"１８７巷","ALLEY":" ","HOUSE_NO":"１１號八樓","E_COORD97":169977.32999999999,"N_COORD97":2542141.6299999999,"ADDRESS":"崇明路１８７巷１１號八樓","OBJECTID":378419},"geometry":{"x":169977.33000000007,"y":2542141.6300000008}},{"attributes":{"ID":378430,"DIS_CODE":0,"TOWNNAME":"東區","LI":"德光里","LIN":"21鄰","STREET":"崇明路","SECT":" ","MAREA":" ","LANE":"１８７巷","ALLEY":" ","HOUSE_NO":"３號五樓","E_COORD97":169977.32999999999,"N_COORD97":2542141.6299999999,"ADDRESS":"崇明路１８７巷３號五樓","OBJECTID":378420},"geometry":{"x":169977.33000000007,"y":2542141.6300000008}},{"attributes":{"ID":378431,"DIS_CODE":0,"TOWNNAME":"東區","LI":"德光里","LIN":"21鄰","STREET":"崇明路","SECT":" ","MAREA":" ","LANE":"１８７巷","ALLEY":" ","HOUSE_NO":"３號五樓之１","E_COORD97":169977.32999999999,"N_COORD97":2542141.6299999999,"ADDRESS":"崇明路１８７巷３號五樓之１","OBJECTID":378421},"geometry":{"x":169977.33000000007,"y":2542141.6300000008}},{"attributes":{"ID":378432,"DIS_CODE":0,"TOWNNAME":"東區","LI":"德光里","LIN":"21鄰","STREET":"崇明路","SECT":" ","MAREA":" ","LANE":"１８７巷","ALLEY":" ","HOUSE_NO":"３號六樓","E_COORD97":169977.32999999999,"N_COORD97":2542141.6299999999,"ADDRESS":"崇明路１８７巷３號六樓","OBJECTID":378422},"geometry":{"x":169977.33000000007,"y":2542141.6300000008}},{"attributes":{"ID":378433,"DIS_CODE":0,"TOWNNAME":"東區","LI":"德光里","LIN":"21鄰","STREET":"崇明路","SECT":" ","MAREA":" ","LANE":"１８７巷","ALLEY":" ","HOUSE_NO":"３號六樓之１","E_COORD97":169977.32999999999,"N_COORD97":2542141.6299999999,"ADDRESS":"崇明路１８７巷３號六樓之１","OBJECTID":378423},"geometry":{"x":169977.33000000007,"y":2542141.6300000008}},{"attributes":{"ID":378434,"DIS_CODE":0,"TOWNNAME":"東區","LI":"德光里","LIN":"21鄰","STREET":"崇明路","SECT":" ","MAREA":" ","LANE":"１８７巷","ALLEY":" ","HOUSE_NO":"３號四樓","E_COORD97":169977.32999999999,"N_COORD97":2542141.6299999999,"ADDRESS":"崇明路１８７巷３號四樓","OBJECTID":378424},"geometry":{"x":169977.33000000007,"y":2542141.6300000008}},{"attributes":{"ID":378435,"DIS_CODE":0,"TOWNNAME":"東區","LI":"德光里","LIN":"21鄰","STREET":"崇明路","SECT":" ","MAREA":" ","LANE":"１８７巷","ALLEY":" ","HOUSE_NO":"３號四樓之１","E_COORD97":169977.32999999999,"N_COORD97":2542141.6299999999,"ADDRESS":"崇明路１８７巷３號四樓之１","OBJECTID":378425},"geometry":{"x":169977.33000000007,"y":2542141.6300000008}},{"attributes":{"ID":378436,"DIS_CODE":0,"TOWNNAME":"永康區","LI":"西勢里","LIN":"24鄰","STREET":"廣興街","SECT":" ","MAREA":" ","LANE":"３８巷","ALLEY":" ","HOUSE_NO":"８號之１","E_COORD97":175929.09,"N_COORD97":2546536.1499999999,"ADDRESS":"廣興街３８巷８號之１","OBJECTID":378426},"geometry":{"x":175929.09000000171,"y":2546536.1500000041}},{"attributes":{"ID":378437,"DIS_CODE":0,"TOWNNAME":"永康區","LI":"西勢里","LIN":"8鄰","STREET":"富強路","SECT":"一段","MAREA":" ","LANE":"３２０巷","ALLEY":" ","HOUSE_NO":"１０號之１","E_COORD97":175785.09,"N_COORD97":2546691.04,"ADDRESS":"富強路一段３２０巷１０號之１","OBJECTID":378427},"geometry":{"x":175785.09000000078,"y":2546691.0399999972}},{"attributes":{"ID":378438,"DIS_CODE":0,"TOWNNAME":"永康區","LI":"西灣里","LIN":"6鄰","STREET":"大灣五街","SECT":" ","MAREA":" ","LANE":"９３巷","ALLEY":" ","HOUSE_NO":"５７號","E_COORD97":174591.62,"N_COORD97":2545201.25,"ADDRESS":"大灣五街９３巷５７號","OBJECTID":378428},"geometry":{"x":174591.62000000197,"y":2545201.25}},{"attributes":{"ID":378439,"DIS_CODE":0,"TOWNNAME":"永康區","LI":"安康里","LIN":"21鄰","STREET":"中華路","SECT":" ","MAREA":" ","LANE":"６６１巷","ALLEY":" ","HOUSE_NO":"２號四樓之１","E_COORD97":170973.84,"N_COORD97":2546231.5499999998,"ADDRESS":"中華路６６１巷２號四樓之１","OBJECTID":378429},"geometry":{"x":170973.83999999985,"y":2546231.5500000007}},{"attributes":{"ID":378440,"DIS_CODE":0,"TOWNNAME":"南區","LI":"明興里","LIN":"21鄰","STREET":"金華路","SECT":"一段","MAREA":" ","LANE":"１５４巷","ALLEY":" ","HOUSE_NO":"３６號三樓之１","E_COORD97":167048.17999999999,"N_COORD97":2540626.75,"ADDRESS":"金華路一段１５４巷３６號三樓之１","OBJECTID":378430},"geometry":{"x":167048.1799999997,"y":2540626.7500000019}},{"attributes":{"ID":378441,"DIS_CODE":0,"TOWNNAME":"永康區","LI":"甲頂里","LIN":"13鄰","STREET":"正新街","SECT":" ","MAREA":" ","LANE":"１７巷","ALLEY":" ","HOUSE_NO":"２３號","E_COORD97":170352.92999999999,"N_COORD97":2546541.0099999998,"ADDRESS":"正新街１７巷２３號","OBJECTID":378431},"geometry":{"x":170352.93000000063,"y":2546541.0100000016}},{"attributes":{"ID":378442,"DIS_CODE":0,"TOWNNAME":"南區","LI":"明興里","LIN":"21鄰","STREET":"金華路","SECT":"一段","MAREA":" ","LANE":"１５４巷","ALLEY":" ","HOUSE_NO":"３６號三樓之２","E_COORD97":167048.17999999999,"N_COORD97":2540626.75,"ADDRESS":"金華路一段１５４巷３６號三樓之２","OBJECTID":378432},"geometry":{"x":167048.1799999997,"y":2540626.7500000019}},{"attributes":{"ID":378443,"DIS_CODE":0,"TOWNNAME":"南區","LI":"明興里","LIN":"21鄰","STREET":"金華路","SECT":"一段","MAREA":" ","LANE":"１５４巷","ALLEY":" ","HOUSE_NO":"３６號三樓之３","E_COORD97":167048.17999999999,"N_COORD97":2540626.75,"ADDRESS":"金華路一段１５４巷３６號三樓之３","OBJECTID":378433},"geometry":{"x":167048.1799999997,"y":2540626.7500000019}},{"attributes":{"ID":378444,"DIS_CODE":0,"TOWNNAME":"南區","LI":"明興里","LIN":"21鄰","STREET":"金華路","SECT":"一段","MAREA":" ","LANE":"１５４巷","ALLEY":" ","HOUSE_NO":"３８號二樓之１","E_COORD97":167062.75,"N_COORD97":2540626.4300000002,"ADDRESS":"金華路一段１５４巷３８號二樓之１","OBJECTID":378434},"geometry":{"x":167062.75000000093,"y":2540626.4299999997}},{"attributes":{"ID":378445,"DIS_CODE":0,"TOWNNAME":"南區","LI":"明興里","LIN":"21鄰","STREET":"金華路","SECT":"一段","MAREA":" ","LANE":"１５４巷","ALLEY":" ","HOUSE_NO":"３８號二樓之２","E_COORD97":167062.75,"N_COORD97":2540626.4300000002,"ADDRESS":"金華路一段１５４巷３８號二樓之２","OBJECTID":378435},"geometry":{"x":167062.75000000093,"y":2540626.4299999997}},{"attributes":{"ID":378446,"DIS_CODE":0,"TOWNNAME":"南區","LI":"明興里","LIN":"21鄰","STREET":"金華路","SECT":"一段","MAREA":" ","LANE":"１５４巷","ALLEY":" ","HOUSE_NO":"３８號三樓之１","E_COORD97":167062.75,"N_COORD97":2540626.4300000002,"ADDRESS":"金華路一段１５４巷３８號三樓之１","OBJECTID":378436},"geometry":{"x":167062.75000000093,"y":2540626.4299999997}},{"attributes":{"ID":378447,"DIS_CODE":0,"TOWNNAME":"南區","LI":"明興里","LIN":"21鄰","STREET":"金華路","SECT":"一段","MAREA":" ","LANE":"１５４巷","ALLEY":" ","HOUSE_NO":"３８號三樓之２","E_COORD97":167062.75,"N_COORD97":2540626.4300000002,"ADDRESS":"金華路一段１５４巷３８號三樓之２","OBJECTID":378437},"geometry":{"x":167062.75000000093,"y":2540626.4299999997}},{"attributes":{"ID":378448,"DIS_CODE":0,"TOWNNAME":"南區","LI":"明興里","LIN":"21鄰","STREET":"金華路","SECT":"一段","MAREA":" ","LANE":"１５４巷","ALLEY":" ","HOUSE_NO":"４０號三樓之１","E_COORD97":167042.95000000001,"N_COORD97":2540634.4100000001,"ADDRESS":"金華路一段１５４巷４０號三樓之１","OBJECTID":378438},"geometry":{"x":167042.95000000112,"y":2540634.4099999983}},{"attributes":{"ID":378449,"DIS_CODE":0,"TOWNNAME":"南區","LI":"明興里","LIN":"21鄰","STREET":"金華路","SECT":"一段","MAREA":" ","LANE":"１５４巷","ALLEY":" ","HOUSE_NO":"４０號三樓之２","E_COORD97":167042.95000000001,"N_COORD97":2540634.4100000001,"ADDRESS":"金華路一段１５４巷４０號三樓之２","OBJECTID":378439},"geometry":{"x":167042.95000000112,"y":2540634.4099999983}},{"attributes":{"ID":378450,"DIS_CODE":0,"TOWNNAME":"南區","LI":"明興里","LIN":"21鄰","STREET":"金華路","SECT":"一段","MAREA":" ","LANE":"１５４巷","ALLEY":" ","HOUSE_NO":"４０號四樓之１","E_COORD97":167042.95000000001,"N_COORD97":2540634.4100000001,"ADDRESS":"金華路一段１５４巷４０號四樓之１","OBJECTID":378440},"geometry":{"x":167042.95000000112,"y":2540634.4099999983}},{"attributes":{"ID":378451,"DIS_CODE":0,"TOWNNAME":"南區","LI":"明興里","LIN":"21鄰","STREET":"金華路","SECT":"一段","MAREA":" ","LANE":"１５４巷","ALLEY":" ","HOUSE_NO":"４０號四樓之４","E_COORD97":167042.95000000001,"N_COORD97":2540634.4100000001,"ADDRESS":"金華路一段１５４巷４０號四樓之４","OBJECTID":378441},"geometry":{"x":167042.95000000112,"y":2540634.4099999983}},{"attributes":{"ID":378452,"DIS_CODE":0,"TOWNNAME":"南區","LI":"明興里","LIN":"21鄰","STREET":"金華路","SECT":"一段","MAREA":" ","LANE":"１５４巷","ALLEY":" ","HOUSE_NO":"４０號五樓之１","E_COORD97":167042.95000000001,"N_COORD97":2540634.4100000001,"ADDRESS":"金華路一段１５４巷４０號五樓之１","OBJECTID":378442},"geometry":{"x":167042.95000000112,"y":2540634.4099999983}},{"attributes":{"ID":378453,"DIS_CODE":0,"TOWNNAME":"南區","LI":"明興里","LIN":"21鄰","STREET":"金華路","SECT":"一段","MAREA":" ","LANE":"１５４巷","ALLEY":" ","HOUSE_NO":"４０號五樓之２","E_COORD97":167042.95000000001,"N_COORD97":2540634.4100000001,"ADDRESS":"金華路一段１５４巷４０號五樓之２","OBJECTID":378443},"geometry":{"x":167042.95000000112,"y":2540634.4099999983}},{"attributes":{"ID":378454,"DIS_CODE":0,"TOWNNAME":"南區","LI":"明興里","LIN":"21鄰","STREET":"金華路","SECT":"一段","MAREA":" ","LANE":"１５４巷","ALLEY":" ","HOUSE_NO":"４２號一樓","E_COORD97":167048.29999999999,"N_COORD97":2540634.3300000001,"ADDRESS":"金華路一段１５４巷４２號一樓","OBJECTID":378444},"geometry":{"x":167048.30000000168,"y":2540634.3300000001}},{"attributes":{"ID":378455,"DIS_CODE":0,"TOWNNAME":"南區","LI":"明興里","LIN":"21鄰","STREET":"金華路","SECT":"一段","MAREA":" ","LANE":"１５４巷","ALLEY":" ","HOUSE_NO":"４２號三樓之１","E_COORD97":167048.29999999999,"N_COORD97":2540634.3300000001,"ADDRESS":"金華路一段１５４巷４２號三樓之１","OBJECTID":378445},"geometry":{"x":167048.30000000168,"y":2540634.3300000001}},{"attributes":{"ID":378456,"DIS_CODE":0,"TOWNNAME":"南區","LI":"明興里","LIN":"21鄰","STREET":"金華路","SECT":"一段","MAREA":" ","LANE":"１５４巷","ALLEY":" ","HOUSE_NO":"４２號三樓之２","E_COORD97":167048.29999999999,"N_COORD97":2540634.3300000001,"ADDRESS":"金華路一段１５４巷４２號三樓之２","OBJECTID":378446},"geometry":{"x":167048.30000000168,"y":2540634.3300000001}},{"attributes":{"ID":378457,"DIS_CODE":0,"TOWNNAME":"南區","LI":"明興里","LIN":"21鄰","STREET":"金華路","SECT":"一段","MAREA":" ","LANE":"１５４巷","ALLEY":" ","HOUSE_NO":"４２號五樓之１","E_COORD97":167048.29999999999,"N_COORD97":2540634.3300000001,"ADDRESS":"金華路一段１５４巷４２號五樓之１","OBJECTID":378447},"geometry":{"x":167048.30000000168,"y":2540634.3300000001}},{"attributes":{"ID":378458,"DIS_CODE":0,"TOWNNAME":"南區","LI":"明興里","LIN":"21鄰","STREET":"金華路","SECT":"一段","MAREA":" ","LANE":"１５４巷","ALLEY":" ","HOUSE_NO":"４２號五樓之２","E_COORD97":167048.29999999999,"N_COORD97":2540634.3300000001,"ADDRESS":"金華路一段１５４巷４２號五樓之２","OBJECTID":378448},"geometry":{"x":167048.30000000168,"y":2540634.3300000001}},{"attributes":{"ID":378459,"DIS_CODE":0,"TOWNNAME":"南區","LI":"明興里","LIN":"21鄰","STREET":"金華路","SECT":"一段","MAREA":" ","LANE":"１５４巷","ALLEY":" ","HOUSE_NO":"４６號二樓之１","E_COORD97":167063.67999999999,"N_COORD97":2540641.96,"ADDRESS":"金華路一段１５４巷４６號二樓之１","OBJECTID":378449},"geometry":{"x":167063.6799999997,"y":2540641.9600000046}},{"attributes":{"ID":378460,"DIS_CODE":0,"TOWNNAME":"南區","LI":"明興里","LIN":"21鄰","STREET":"金華路","SECT":"一段","MAREA":" ","LANE":"１５４巷","ALLEY":" ","HOUSE_NO":"４６號三樓之１","E_COORD97":167063.67999999999,"N_COORD97":2540641.96,"ADDRESS":"金華路一段１５４巷４６號三樓之１","OBJECTID":378450},"geometry":{"x":167063.6799999997,"y":2540641.9600000046}},{"attributes":{"ID":378461,"DIS_CODE":0,"TOWNNAME":"南區","LI":"明興里","LIN":"21鄰","STREET":"金華路","SECT":"一段","MAREA":" ","LANE":"１５４巷","ALLEY":" ","HOUSE_NO":"４６號三樓之２","E_COORD97":167063.67999999999,"N_COORD97":2540641.96,"ADDRESS":"金華路一段１５４巷４６號三樓之２","OBJECTID":378451},"geometry":{"x":167063.6799999997,"y":2540641.9600000046}},{"attributes":{"ID":378462,"DIS_CODE":0,"TOWNNAME":"南區","LI":"明興里","LIN":"21鄰","STREET":"金華路","SECT":"一段","MAREA":" ","LANE":"１５４巷","ALLEY":" ","HOUSE_NO":"４６號四樓之１","E_COORD97":167063.67999999999,"N_COORD97":2540641.96,"ADDRESS":"金華路一段１５４巷４６號四樓之１","OBJECTID":378452},"geometry":{"x":167063.6799999997,"y":2540641.9600000046}},{"attributes":{"ID":378463,"DIS_CODE":0,"TOWNNAME":"永康區","LI":"西勢里","LIN":"10鄰","STREET":"廣盛街","SECT":" ","MAREA":" ","LANE":"１５３巷","ALLEY":" ","HOUSE_NO":"５號","E_COORD97":176049.09,"N_COORD97":2546699.4700000002,"ADDRESS":"廣盛街１５３巷５號","OBJECTID":378453},"geometry":{"x":176049.08999999985,"y":2546699.4700000007}},{"attributes":{"ID":378464,"DIS_CODE":0,"TOWNNAME":"南區","LI":"明興里","LIN":"21鄰","STREET":"金華路","SECT":"一段","MAREA":" ","LANE":"１５４巷","ALLEY":" ","HOUSE_NO":"４６號四樓之２","E_COORD97":167063.67999999999,"N_COORD97":2540641.96,"ADDRESS":"金華路一段１５４巷４６號四樓之２","OBJECTID":378454},"geometry":{"x":167063.6799999997,"y":2540641.9600000046}},{"attributes":{"ID":378465,"DIS_CODE":0,"TOWNNAME":"南區","LI":"明興里","LIN":"21鄰","STREET":"金華路","SECT":"一段","MAREA":" ","LANE":"１５４巷","ALLEY":" ","HOUSE_NO":"４６號五樓之１","E_COORD97":167063.67999999999,"N_COORD97":2540641.96,"ADDRESS":"金華路一段１５４巷４６號五樓之１","OBJECTID":378455},"geometry":{"x":167063.6799999997,"y":2540641.9600000046}},{"attributes":{"ID":378466,"DIS_CODE":0,"TOWNNAME":"南區","LI":"明興里","LIN":"21鄰","STREET":"金華路","SECT":"一段","MAREA":" ","LANE":"１５４巷","ALLEY":" ","HOUSE_NO":"４６號五樓之２","E_COORD97":167063.67999999999,"N_COORD97":2540641.96,"ADDRESS":"金華路一段１５４巷４６號五樓之２","OBJECTID":378456},"geometry":{"x":167063.6799999997,"y":2540641.9600000046}},{"attributes":{"ID":378467,"DIS_CODE":0,"TOWNNAME":"南區","LI":"明興里","LIN":"21鄰","STREET":"金華路","SECT":"一段","MAREA":" ","LANE":"１５４巷","ALLEY":" ","HOUSE_NO":"４６號五樓之３","E_COORD97":167063.67999999999,"N_COORD97":2540641.96,"ADDRESS":"金華路一段１５４巷４６號五樓之３","OBJECTID":378457},"geometry":{"x":167063.6799999997,"y":2540641.9600000046}},{"attributes":{"ID":378468,"DIS_CODE":0,"TOWNNAME":"南區","LI":"明興里","LIN":"21鄰","STREET":"金華路","SECT":"一段","MAREA":" ","LANE":"１５４巷","ALLEY":" ","HOUSE_NO":"４８號二樓之１","E_COORD97":167068.87,"N_COORD97":2540641.54,"ADDRESS":"金華路一段１５４巷４８號二樓之１","OBJECTID":378458},"geometry":{"x":167068.87000000104,"y":2540641.5399999991}},{"attributes":{"ID":378469,"DIS_CODE":0,"TOWNNAME":"南區","LI":"明興里","LIN":"21鄰","STREET":"金華路","SECT":"一段","MAREA":" ","LANE":"１５４巷","ALLEY":" ","HOUSE_NO":"４８號三樓之１","E_COORD97":167068.87,"N_COORD97":2540641.54,"ADDRESS":"金華路一段１５４巷４８號三樓之１","OBJECTID":378459},"geometry":{"x":167068.87000000104,"y":2540641.5399999991}},{"attributes":{"ID":378470,"DIS_CODE":0,"TOWNNAME":"南區","LI":"明興里","LIN":"21鄰","STREET":"金華路","SECT":"一段","MAREA":" ","LANE":"１５４巷","ALLEY":" ","HOUSE_NO":"４８號三樓之２","E_COORD97":167068.87,"N_COORD97":2540641.54,"ADDRESS":"金華路一段１５４巷４８號三樓之２","OBJECTID":378460},"geometry":{"x":167068.87000000104,"y":2540641.5399999991}},{"attributes":{"ID":378471,"DIS_CODE":0,"TOWNNAME":"南區","LI":"明興里","LIN":"21鄰","STREET":"金華路","SECT":"一段","MAREA":" ","LANE":"１５４巷","ALLEY":" ","HOUSE_NO":"４８號五樓","E_COORD97":167068.87,"N_COORD97":2540641.54,"ADDRESS":"金華路一段１５４巷４８號五樓","OBJECTID":378461},"geometry":{"x":167068.87000000104,"y":2540641.5399999991}},{"attributes":{"ID":378472,"DIS_CODE":0,"TOWNNAME":"南區","LI":"明興里","LIN":"21鄰","STREET":"金華路","SECT":"一段","MAREA":" ","LANE":"１５４巷","ALLEY":" ","HOUSE_NO":"４４號二樓","E_COORD97":167053.73999999999,"N_COORD97":2540642.1299999999,"ADDRESS":"金華路一段１５４巷４４號二樓","OBJECTID":378462},"geometry":{"x":167053.74000000022,"y":2540642.1300000027}},{"attributes":{"ID":378473,"DIS_CODE":0,"TOWNNAME":"南區","LI":"明興里","LIN":"21鄰","STREET":"金華路","SECT":"一段","MAREA":" ","LANE":"１５４巷","ALLEY":" ","HOUSE_NO":"４４號三樓之１","E_COORD97":167053.73999999999,"N_COORD97":2540642.1299999999,"ADDRESS":"金華路一段１５４巷４４號三樓之１","OBJECTID":378463},"geometry":{"x":167053.74000000022,"y":2540642.1300000027}},{"attributes":{"ID":378474,"DIS_CODE":0,"TOWNNAME":"南區","LI":"明興里","LIN":"21鄰","STREET":"金華路","SECT":"一段","MAREA":" ","LANE":"１５４巷","ALLEY":" ","HOUSE_NO":"４４號四樓之３","E_COORD97":167053.73999999999,"N_COORD97":2540642.1299999999,"ADDRESS":"金華路一段１５４巷４４號四樓之３","OBJECTID":378464},"geometry":{"x":167053.74000000022,"y":2540642.1300000027}},{"attributes":{"ID":378475,"DIS_CODE":0,"TOWNNAME":"南區","LI":"明興里","LIN":"21鄰","STREET":"金華路","SECT":"一段","MAREA":" ","LANE":"１５４巷","ALLEY":" ","HOUSE_NO":"４４號五樓之１","E_COORD97":167053.73999999999,"N_COORD97":2540642.1299999999,"ADDRESS":"金華路一段１５４巷４４號五樓之１","OBJECTID":378465},"geometry":{"x":167053.74000000022,"y":2540642.1300000027}},{"attributes":{"ID":378476,"DIS_CODE":0,"TOWNNAME":"南區","LI":"明興里","LIN":"21鄰","STREET":"金華路","SECT":"一段","MAREA":" ","LANE":"１５４巷","ALLEY":" ","HOUSE_NO":"４４號五樓之２","E_COORD97":167053.73999999999,"N_COORD97":2540642.1299999999,"ADDRESS":"金華路一段１５４巷４４號五樓之２","OBJECTID":378466},"geometry":{"x":167053.74000000022,"y":2540642.1300000027}},{"attributes":{"ID":378477,"DIS_CODE":0,"TOWNNAME":"中西區","LI":"仙草里","LIN":"21鄰","STREET":"健康路","SECT":"一段","MAREA":" ","LANE":"４１０巷","ALLEY":" ","HOUSE_NO":"３１號五樓之３","E_COORD97":167804.48999999999,"N_COORD97":2542549.0600000001,"ADDRESS":"健康路一段４１０巷３１號五樓之３","OBJECTID":378467},"geometry":{"x":167804.49000000022,"y":2542549.0600000005}},{"attributes":{"ID":378478,"DIS_CODE":0,"TOWNNAME":"永康區","LI":"西勢里","LIN":"16鄰","STREET":"西勢路","SECT":" ","MAREA":" ","LANE":"８２巷","ALLEY":" ","HOUSE_NO":"２６號","E_COORD97":176104.78,"N_COORD97":2546843.04,"ADDRESS":"西勢路８２巷２６號","OBJECTID":378468},"geometry":{"x":176104.78000000119,"y":2546843.0399999991}},{"attributes":{"ID":378479,"DIS_CODE":0,"TOWNNAME":"永康區","LI":"東橋里","LIN":"4鄰","STREET":"大橋一街","SECT":" ","MAREA":" ","LANE":"３２４巷","ALLEY":" ","HOUSE_NO":"３９號","E_COORD97":171372.85000000001,"N_COORD97":2546593.7799999998,"ADDRESS":"大橋一街３２４巷３９號","OBJECTID":378469},"geometry":{"x":171372.85000000056,"y":2546593.7799999993}},{"attributes":{"ID":378480,"DIS_CODE":0,"TOWNNAME":"永康區","LI":"甲頂里","LIN":"13鄰","STREET":"大武街","SECT":" ","MAREA":" ","LANE":"１８巷","ALLEY":" ","HOUSE_NO":"５０號","E_COORD97":170410.04999999999,"N_COORD97":2546581.9900000002,"ADDRESS":"大武街１８巷５０號","OBJECTID":378470},"geometry":{"x":170410.05000000075,"y":2546581.9900000021}},{"attributes":{"ID":378481,"DIS_CODE":0,"TOWNNAME":"中西區","LI":"仙草里","LIN":"21鄰","STREET":"健康路","SECT":"一段","MAREA":" ","LANE":"４１０巷","ALLEY":" ","HOUSE_NO":"３１號五樓之４","E_COORD97":167804.48999999999,"N_COORD97":2542549.0600000001,"ADDRESS":"健康路一段４１０巷３１號五樓之４","OBJECTID":378471},"geometry":{"x":167804.49000000022,"y":2542549.0600000005}},{"attributes":{"ID":378482,"DIS_CODE":0,"TOWNNAME":"中西區","LI":"永華里","LIN":"21鄰","STREET":"忠義路","SECT":"二段","MAREA":" ","LANE":"３８巷","ALLEY":" ","HOUSE_NO":"６號五樓之４","E_COORD97":168347.29999999999,"N_COORD97":2543683.2599999998,"ADDRESS":"忠義路二段３８巷６號五樓之４","OBJECTID":378472},"geometry":{"x":168347.30000000075,"y":2543683.2600000035}},{"attributes":{"ID":378483,"DIS_CODE":0,"TOWNNAME":"中西區","LI":"仙草里","LIN":"21鄰","STREET":"健康路","SECT":"一段","MAREA":" ","LANE":"４１０巷","ALLEY":" ","HOUSE_NO":"３１號六樓之１","E_COORD97":167804.48999999999,"N_COORD97":2542549.0600000001,"ADDRESS":"健康路一段４１０巷３１號六樓之１","OBJECTID":378473},"geometry":{"x":167804.49000000022,"y":2542549.0600000005}},{"attributes":{"ID":378484,"DIS_CODE":0,"TOWNNAME":"中西區","LI":"仙草里","LIN":"21鄰","STREET":"健康路","SECT":"一段","MAREA":" ","LANE":"４１０巷","ALLEY":" ","HOUSE_NO":"３１號六樓之２","E_COORD97":167804.48999999999,"N_COORD97":2542549.0600000001,"ADDRESS":"健康路一段４１０巷３１號六樓之２","OBJECTID":378474},"geometry":{"x":167804.49000000022,"y":2542549.0600000005}},{"attributes":{"ID":378485,"DIS_CODE":0,"TOWNNAME":"中西區","LI":"仙草里","LIN":"21鄰","STREET":"健康路","SECT":"一段","MAREA":" ","LANE":"４１０巷","ALLEY":" ","HOUSE_NO":"３１號六樓之３","E_COORD97":167804.48999999999,"N_COORD97":2542549.0600000001,"ADDRESS":"健康路一段４１０巷３１號六樓之３","OBJECTID":378475},"geometry":{"x":167804.49000000022,"y":2542549.0600000005}},{"attributes":{"ID":378486,"DIS_CODE":0,"TOWNNAME":"中西區","LI":"仙草里","LIN":"21鄰","STREET":"健康路","SECT":"一段","MAREA":" ","LANE":"４１０巷","ALLEY":" ","HOUSE_NO":"３１號六樓之４","E_COORD97":167804.48999999999,"N_COORD97":2542549.0600000001,"ADDRESS":"健康路一段４１０巷３１號六樓之４","OBJECTID":378476},"geometry":{"x":167804.49000000022,"y":2542549.0600000005}},{"attributes":{"ID":378487,"DIS_CODE":0,"TOWNNAME":"中西區","LI":"仙草里","LIN":"21鄰","STREET":"健康路","SECT":"一段","MAREA":" ","LANE":"４１０巷","ALLEY":" ","HOUSE_NO":"３１號四樓之１","E_COORD97":167804.48999999999,"N_COORD97":2542549.0600000001,"ADDRESS":"健康路一段４１０巷３１號四樓之１","OBJECTID":378477},"geometry":{"x":167804.49000000022,"y":2542549.0600000005}},{"attributes":{"ID":378488,"DIS_CODE":0,"TOWNNAME":"中西區","LI":"仙草里","LIN":"21鄰","STREET":"健康路","SECT":"一段","MAREA":" ","LANE":"４１０巷","ALLEY":" ","HOUSE_NO":"３１號四樓之２","E_COORD97":167804.48999999999,"N_COORD97":2542549.0600000001,"ADDRESS":"健康路一段４１０巷３１號四樓之２","OBJECTID":378478},"geometry":{"x":167804.49000000022,"y":2542549.0600000005}},{"attributes":{"ID":378489,"DIS_CODE":0,"TOWNNAME":"中西區","LI":"仙草里","LIN":"21鄰","STREET":"健康路","SECT":"一段","MAREA":" ","LANE":"４１０巷","ALLEY":" ","HOUSE_NO":"３１號四樓之３","E_COORD97":167804.48999999999,"N_COORD97":2542549.0600000001,"ADDRESS":"健康路一段４１０巷３１號四樓之３","OBJECTID":378479},"geometry":{"x":167804.49000000022,"y":2542549.0600000005}},{"attributes":{"ID":378490,"DIS_CODE":0,"TOWNNAME":"中西區","LI":"仙草里","LIN":"21鄰","STREET":"健康路","SECT":"一段","MAREA":" ","LANE":"４１０巷","ALLEY":" ","HOUSE_NO":"３１號四樓之４","E_COORD97":167804.48999999999,"N_COORD97":2542549.0600000001,"ADDRESS":"健康路一段４１０巷３１號四樓之４","OBJECTID":378480},"geometry":{"x":167804.49000000022,"y":2542549.0600000005}},{"attributes":{"ID":378491,"DIS_CODE":0,"TOWNNAME":"中西區","LI":"永華里","LIN":"21鄰","STREET":"忠義路","SECT":"二段","MAREA":" ","LANE":"３８巷","ALLEY":" ","HOUSE_NO":"６號一樓之４","E_COORD97":168364.31,"N_COORD97":2543681.5899999999,"ADDRESS":"忠義路二段３８巷６號一樓之４","OBJECTID":378481},"geometry":{"x":168364.30999999959,"y":2543681.5900000017}},{"attributes":{"ID":378492,"DIS_CODE":0,"TOWNNAME":"安南區","LI":"安順里","LIN":"13鄰","STREET":"育安街","SECT":" ","MAREA":" ","LANE":" ","ALLEY":" ","HOUSE_NO":"２９８號","E_COORD97":169613.14999999999,"N_COORD97":2550169,"ADDRESS":"育安街２９８號","OBJECTID":378482},"geometry":{"x":169613.1500000013,"y":2550169.0000000019}},{"attributes":{"ID":378493,"DIS_CODE":0,"TOWNNAME":"中西區","LI":"永華里","LIN":"21鄰","STREET":"忠義路","SECT":"二段","MAREA":" ","LANE":"３８巷","ALLEY":" ","HOUSE_NO":"６號一樓之５","E_COORD97":168372.26000000001,"N_COORD97":2543681.25,"ADDRESS":"忠義路二段３８巷６號一樓之５","OBJECTID":378483},"geometry":{"x":168372.25999999885,"y":2543681.2500000019}},{"attributes":{"ID":378494,"DIS_CODE":0,"TOWNNAME":"中西區","LI":"永華里","LIN":"21鄰","STREET":"忠義路","SECT":"二段","MAREA":" ","LANE":"３８巷","ALLEY":" ","HOUSE_NO":"６號二樓之１","E_COORD97":168347.29999999999,"N_COORD97":2543683.2599999998,"ADDRESS":"忠義路二段３８巷６號二樓之１","OBJECTID":378484},"geometry":{"x":168347.30000000075,"y":2543683.2600000035}},{"attributes":{"ID":378495,"DIS_CODE":0,"TOWNNAME":"中西區","LI":"永華里","LIN":"21鄰","STREET":"忠義路","SECT":"二段","MAREA":" ","LANE":"３８巷","ALLEY":" ","HOUSE_NO":"６號二樓之２","E_COORD97":168347.29999999999,"N_COORD97":2543683.2599999998,"ADDRESS":"忠義路二段３８巷６號二樓之２","OBJECTID":378485},"geometry":{"x":168347.30000000075,"y":2543683.2600000035}},{"attributes":{"ID":378496,"DIS_CODE":0,"TOWNNAME":"中西區","LI":"永華里","LIN":"21鄰","STREET":"忠義路","SECT":"二段","MAREA":" ","LANE":"３８巷","ALLEY":" ","HOUSE_NO":"６號二樓之３","E_COORD97":168347.29999999999,"N_COORD97":2543683.2599999998,"ADDRESS":"忠義路二段３８巷６號二樓之３","OBJECTID":378486},"geometry":{"x":168347.30000000075,"y":2543683.2600000035}},{"attributes":{"ID":378497,"DIS_CODE":0,"TOWNNAME":"中西區","LI":"永華里","LIN":"21鄰","STREET":"忠義路","SECT":"二段","MAREA":" ","LANE":"３８巷","ALLEY":" ","HOUSE_NO":"６號二樓之４","E_COORD97":168347.29999999999,"N_COORD97":2543683.2599999998,"ADDRESS":"忠義路二段３８巷６號二樓之４","OBJECTID":378487},"geometry":{"x":168347.30000000075,"y":2543683.2600000035}},{"attributes":{"ID":378498,"DIS_CODE":0,"TOWNNAME":"中西區","LI":"永華里","LIN":"21鄰","STREET":"忠義路","SECT":"二段","MAREA":" ","LANE":"３８巷","ALLEY":" ","HOUSE_NO":"６號二樓之５","E_COORD97":168347.29999999999,"N_COORD97":2543683.2599999998,"ADDRESS":"忠義路二段３８巷６號二樓之５","OBJECTID":378488},"geometry":{"x":168347.30000000075,"y":2543683.2600000035}},{"attributes":{"ID":378499,"DIS_CODE":0,"TOWNNAME":"中西區","LI":"永華里","LIN":"21鄰","STREET":"忠義路","SECT":"二段","MAREA":" ","LANE":"３８巷","ALLEY":" ","HOUSE_NO":"６號二樓之６","E_COORD97":168347.29999999999,"N_COORD97":2543683.2599999998,"ADDRESS":"忠義路二段３８巷６號二樓之６","OBJECTID":378489},"geometry":{"x":168347.30000000075,"y":2543683.2600000035}},{"attributes":{"ID":378500,"DIS_CODE":0,"TOWNNAME":"中西區","LI":"永華里","LIN":"21鄰","STREET":"忠義路","SECT":"二段","MAREA":" ","LANE":"３８巷","ALLEY":" ","HOUSE_NO":"６號二樓之７","E_COORD97":168347.29999999999,"N_COORD97":2543683.2599999998,"ADDRESS":"忠義路二段３８巷６號二樓之７","OBJECTID":378490},"geometry":{"x":168347.30000000075,"y":2543683.2600000035}},{"attributes":{"ID":378501,"DIS_CODE":0,"TOWNNAME":"中西區","LI":"永華里","LIN":"21鄰","STREET":"忠義路","SECT":"二段","MAREA":" ","LANE":"３８巷","ALLEY":" ","HOUSE_NO":"６號三樓之１","E_COORD97":168347.29999999999,"N_COORD97":2543683.2599999998,"ADDRESS":"忠義路二段３８巷６號三樓之１","OBJECTID":378491},"geometry":{"x":168347.30000000075,"y":2543683.2600000035}},{"attributes":{"ID":378502,"DIS_CODE":0,"TOWNNAME":"中西區","LI":"永華里","LIN":"21鄰","STREET":"忠義路","SECT":"二段","MAREA":" ","LANE":"３８巷","ALLEY":" ","HOUSE_NO":"６號三樓之２","E_COORD97":168347.29999999999,"N_COORD97":2543683.2599999998,"ADDRESS":"忠義路二段３８巷６號三樓之２","OBJECTID":378492},"geometry":{"x":168347.30000000075,"y":2543683.2600000035}},{"attributes":{"ID":378503,"DIS_CODE":0,"TOWNNAME":"中西區","LI":"永華里","LIN":"21鄰","STREET":"忠義路","SECT":"二段","MAREA":" ","LANE":"３８巷","ALLEY":" ","HOUSE_NO":"６號三樓之３","E_COORD97":168347.29999999999,"N_COORD97":2543683.2599999998,"ADDRESS":"忠義路二段３８巷６號三樓之３","OBJECTID":378493},"geometry":{"x":168347.30000000075,"y":2543683.2600000035}},{"attributes":{"ID":378504,"DIS_CODE":0,"TOWNNAME":"中西區","LI":"永華里","LIN":"21鄰","STREET":"忠義路","SECT":"二段","MAREA":" ","LANE":"３８巷","ALLEY":" ","HOUSE_NO":"６號三樓之４","E_COORD97":168347.29999999999,"N_COORD97":2543683.2599999998,"ADDRESS":"忠義路二段３８巷６號三樓之４","OBJECTID":378494},"geometry":{"x":168347.30000000075,"y":2543683.2600000035}},{"attributes":{"ID":378505,"DIS_CODE":0,"TOWNNAME":"中西區","LI":"永華里","LIN":"21鄰","STREET":"忠義路","SECT":"二段","MAREA":" ","LANE":"３８巷","ALLEY":" ","HOUSE_NO":"６號三樓之５","E_COORD97":168347.29999999999,"N_COORD97":2543683.2599999998,"ADDRESS":"忠義路二段３８巷６號三樓之５","OBJECTID":378495},"geometry":{"x":168347.30000000075,"y":2543683.2600000035}},{"attributes":{"ID":378506,"DIS_CODE":0,"TOWNNAME":"中西區","LI":"永華里","LIN":"21鄰","STREET":"忠義路","SECT":"二段","MAREA":" ","LANE":"３８巷","ALLEY":" ","HOUSE_NO":"６號三樓之６","E_COORD97":168347.29999999999,"N_COORD97":2543683.2599999998,"ADDRESS":"忠義路二段３８巷６號三樓之６","OBJECTID":378496},"geometry":{"x":168347.30000000075,"y":2543683.2600000035}},{"attributes":{"ID":378507,"DIS_CODE":0,"TOWNNAME":"中西區","LI":"永華里","LIN":"21鄰","STREET":"忠義路","SECT":"二段","MAREA":" ","LANE":"３８巷","ALLEY":" ","HOUSE_NO":"６號五樓之１","E_COORD97":168347.29999999999,"N_COORD97":2543683.2599999998,"ADDRESS":"忠義路二段３８巷６號五樓之１","OBJECTID":378497},"geometry":{"x":168347.30000000075,"y":2543683.2600000035}},{"attributes":{"ID":378508,"DIS_CODE":0,"TOWNNAME":"中西區","LI":"永華里","LIN":"21鄰","STREET":"忠義路","SECT":"二段","MAREA":" ","LANE":"３８巷","ALLEY":" ","HOUSE_NO":"６號五樓之２","E_COORD97":168347.29999999999,"N_COORD97":2543683.2599999998,"ADDRESS":"忠義路二段３８巷６號五樓之２","OBJECTID":378498},"geometry":{"x":168347.30000000075,"y":2543683.2600000035}},{"attributes":{"ID":378509,"DIS_CODE":0,"TOWNNAME":"中西區","LI":"永華里","LIN":"21鄰","STREET":"忠義路","SECT":"二段","MAREA":" ","LANE":"３８巷","ALLEY":" ","HOUSE_NO":"６號五樓之３","E_COORD97":168347.29999999999,"N_COORD97":2543683.2599999998,"ADDRESS":"忠義路二段３８巷６號五樓之３","OBJECTID":378499},"geometry":{"x":168347.30000000075,"y":2543683.2600000035}},{"attributes":{"ID":378510,"DIS_CODE":0,"TOWNNAME":"中西區","LI":"永華里","LIN":"21鄰","STREET":"忠義路","SECT":"二段","MAREA":" ","LANE":"３８巷","ALLEY":" ","HOUSE_NO":"６號五樓之５","E_COORD97":168347.29999999999,"N_COORD97":2543683.2599999998,"ADDRESS":"忠義路二段３８巷６號五樓之５","OBJECTID":378500},"geometry":{"x":168347.30000000075,"y":2543683.2600000035}},{"attributes":{"ID":378511,"DIS_CODE":0,"TOWNNAME":"中西區","LI":"永華里","LIN":"21鄰","STREET":"忠義路","SECT":"二段","MAREA":" ","LANE":"３８巷","ALLEY":" ","HOUSE_NO":"６號五樓之６","E_COORD97":168347.29999999999,"N_COORD97":2543683.2599999998,"ADDRESS":"忠義路二段３８巷６號五樓之６","OBJECTID":378501},"geometry":{"x":168347.30000000075,"y":2543683.2600000035}},{"attributes":{"ID":378512,"DIS_CODE":0,"TOWNNAME":"中西區","LI":"永華里","LIN":"21鄰","STREET":"忠義路","SECT":"二段","MAREA":" ","LANE":"３８巷","ALLEY":" ","HOUSE_NO":"６號五樓之７","E_COORD97":168347.29999999999,"N_COORD97":2543683.2599999998,"ADDRESS":"忠義路二段３８巷６號五樓之７","OBJECTID":378502},"geometry":{"x":168347.30000000075,"y":2543683.2600000035}},{"attributes":{"ID":378513,"DIS_CODE":0,"TOWNNAME":"中西區","LI":"永華里","LIN":"21鄰","STREET":"忠義路","SECT":"二段","MAREA":" ","LANE":"３８巷","ALLEY":" ","HOUSE_NO":"６號五樓之８","E_COORD97":168347.29999999999,"N_COORD97":2543683.2599999998,"ADDRESS":"忠義路二段３８巷６號五樓之８","OBJECTID":378503},"geometry":{"x":168347.30000000075,"y":2543683.2600000035}},{"attributes":{"ID":378514,"DIS_CODE":0,"TOWNNAME":"中西區","LI":"永華里","LIN":"21鄰","STREET":"忠義路","SECT":"二段","MAREA":" ","LANE":"３８巷","ALLEY":" ","HOUSE_NO":"６號五樓之９","E_COORD97":168347.29999999999,"N_COORD97":2543683.2599999998,"ADDRESS":"忠義路二段３８巷６號五樓之９","OBJECTID":378504},"geometry":{"x":168347.30000000075,"y":2543683.2600000035}},{"attributes":{"ID":378515,"DIS_CODE":0,"TOWNNAME":"中西區","LI":"永華里","LIN":"21鄰","STREET":"忠義路","SECT":"二段","MAREA":" ","LANE":"３８巷","ALLEY":" ","HOUSE_NO":"６號六樓之１","E_COORD97":168347.29999999999,"N_COORD97":2543683.2599999998,"ADDRESS":"忠義路二段３８巷６號六樓之１","OBJECTID":378505},"geometry":{"x":168347.30000000075,"y":2543683.2600000035}},{"attributes":{"ID":378516,"DIS_CODE":0,"TOWNNAME":"中西區","LI":"永華里","LIN":"21鄰","STREET":"忠義路","SECT":"二段","MAREA":" ","LANE":"３８巷","ALLEY":" ","HOUSE_NO":"６號六樓之１０","E_COORD97":168347.29999999999,"N_COORD97":2543683.2599999998,"ADDRESS":"忠義路二段３８巷６號六樓之１０","OBJECTID":378506},"geometry":{"x":168347.30000000075,"y":2543683.2600000035}},{"attributes":{"ID":378517,"DIS_CODE":0,"TOWNNAME":"中西區","LI":"永華里","LIN":"21鄰","STREET":"忠義路","SECT":"二段","MAREA":" ","LANE":"３８巷","ALLEY":" ","HOUSE_NO":"６號六樓之２","E_COORD97":168347.29999999999,"N_COORD97":2543683.2599999998,"ADDRESS":"忠義路二段３８巷６號六樓之２","OBJECTID":378507},"geometry":{"x":168347.30000000075,"y":2543683.2600000035}},{"attributes":{"ID":378518,"DIS_CODE":0,"TOWNNAME":"中西區","LI":"永華里","LIN":"21鄰","STREET":"忠義路","SECT":"二段","MAREA":" ","LANE":"３８巷","ALLEY":" ","HOUSE_NO":"６號六樓之３","E_COORD97":168347.29999999999,"N_COORD97":2543683.2599999998,"ADDRESS":"忠義路二段３８巷６號六樓之３","OBJECTID":378508},"geometry":{"x":168347.30000000075,"y":2543683.2600000035}},{"attributes":{"ID":378519,"DIS_CODE":0,"TOWNNAME":"中西區","LI":"永華里","LIN":"21鄰","STREET":"忠義路","SECT":"二段","MAREA":" ","LANE":"３８巷","ALLEY":" ","HOUSE_NO":"６號六樓之４","E_COORD97":168347.29999999999,"N_COORD97":2543683.2599999998,"ADDRESS":"忠義路二段３８巷６號六樓之４","OBJECTID":378509},"geometry":{"x":168347.30000000075,"y":2543683.2600000035}},{"attributes":{"ID":378520,"DIS_CODE":0,"TOWNNAME":"中西區","LI":"永華里","LIN":"21鄰","STREET":"忠義路","SECT":"二段","MAREA":" ","LANE":"３８巷","ALLEY":" ","HOUSE_NO":"６號六樓之５","E_COORD97":168347.29999999999,"N_COORD97":2543683.2599999998,"ADDRESS":"忠義路二段３８巷６號六樓之５","OBJECTID":378510},"geometry":{"x":168347.30000000075,"y":2543683.2600000035}},{"attributes":{"ID":378521,"DIS_CODE":0,"TOWNNAME":"中西區","LI":"永華里","LIN":"21鄰","STREET":"忠義路","SECT":"二段","MAREA":" ","LANE":"３８巷","ALLEY":" ","HOUSE_NO":"６號六樓之６","E_COORD97":168347.29999999999,"N_COORD97":2543683.2599999998,"ADDRESS":"忠義路二段３８巷６號六樓之６","OBJECTID":378511},"geometry":{"x":168347.30000000075,"y":2543683.2600000035}},{"attributes":{"ID":378522,"DIS_CODE":0,"TOWNNAME":"中西區","LI":"永華里","LIN":"21鄰","STREET":"忠義路","SECT":"二段","MAREA":" ","LANE":"３８巷","ALLEY":" ","HOUSE_NO":"６號六樓之７","E_COORD97":168347.29999999999,"N_COORD97":2543683.2599999998,"ADDRESS":"忠義路二段３８巷６號六樓之７","OBJECTID":378512},"geometry":{"x":168347.30000000075,"y":2543683.2600000035}},{"attributes":{"ID":378523,"DIS_CODE":0,"TOWNNAME":"中西區","LI":"永華里","LIN":"21鄰","STREET":"忠義路","SECT":"二段","MAREA":" ","LANE":"３８巷","ALLEY":" ","HOUSE_NO":"６號六樓之８","E_COORD97":168347.29999999999,"N_COORD97":2543683.2599999998,"ADDRESS":"忠義路二段３８巷６號六樓之８","OBJECTID":378513},"geometry":{"x":168347.30000000075,"y":2543683.2600000035}},{"attributes":{"ID":378524,"DIS_CODE":0,"TOWNNAME":"中西區","LI":"永華里","LIN":"21鄰","STREET":"忠義路","SECT":"二段","MAREA":" ","LANE":"３８巷","ALLEY":" ","HOUSE_NO":"６號六樓之９","E_COORD97":168347.29999999999,"N_COORD97":2543683.2599999998,"ADDRESS":"忠義路二段３８巷６號六樓之９","OBJECTID":378514},"geometry":{"x":168347.30000000075,"y":2543683.2600000035}},{"attributes":{"ID":378525,"DIS_CODE":0,"TOWNNAME":"中西區","LI":"永華里","LIN":"21鄰","STREET":"忠義路","SECT":"二段","MAREA":" ","LANE":"３８巷","ALLEY":" ","HOUSE_NO":"６號四樓之１","E_COORD97":168347.29999999999,"N_COORD97":2543683.2599999998,"ADDRESS":"忠義路二段３８巷６號四樓之１","OBJECTID":378515},"geometry":{"x":168347.30000000075,"y":2543683.2600000035}},{"attributes":{"ID":378526,"DIS_CODE":0,"TOWNNAME":"中西區","LI":"永華里","LIN":"21鄰","STREET":"忠義路","SECT":"二段","MAREA":" ","LANE":"３８巷","ALLEY":" ","HOUSE_NO":"６號四樓之２","E_COORD97":168347.29999999999,"N_COORD97":2543683.2599999998,"ADDRESS":"忠義路二段３８巷６號四樓之２","OBJECTID":378516},"geometry":{"x":168347.30000000075,"y":2543683.2600000035}},{"attributes":{"ID":378527,"DIS_CODE":0,"TOWNNAME":"中西區","LI":"永華里","LIN":"21鄰","STREET":"忠義路","SECT":"二段","MAREA":" ","LANE":"３８巷","ALLEY":" ","HOUSE_NO":"６號四樓之３","E_COORD97":168347.29999999999,"N_COORD97":2543683.2599999998,"ADDRESS":"忠義路二段３８巷６號四樓之３","OBJECTID":378517},"geometry":{"x":168347.30000000075,"y":2543683.2600000035}},{"attributes":{"ID":378528,"DIS_CODE":0,"TOWNNAME":"中西區","LI":"永華里","LIN":"21鄰","STREET":"忠義路","SECT":"二段","MAREA":" ","LANE":"３８巷","ALLEY":" ","HOUSE_NO":"６號四樓之４","E_COORD97":168347.29999999999,"N_COORD97":2543683.2599999998,"ADDRESS":"忠義路二段３８巷６號四樓之４","OBJECTID":378518},"geometry":{"x":168347.30000000075,"y":2543683.2600000035}},{"attributes":{"ID":378529,"DIS_CODE":0,"TOWNNAME":"中西區","LI":"永華里","LIN":"21鄰","STREET":"忠義路","SECT":"二段","MAREA":" ","LANE":"３８巷","ALLEY":" ","HOUSE_NO":"６號四樓之５","E_COORD97":168347.29999999999,"N_COORD97":2543683.2599999998,"ADDRESS":"忠義路二段３８巷６號四樓之５","OBJECTID":378519},"geometry":{"x":168347.30000000075,"y":2543683.2600000035}},{"attributes":{"ID":378530,"DIS_CODE":0,"TOWNNAME":"永康區","LI":"西勢里","LIN":"25鄰","STREET":"廣興街","SECT":" ","MAREA":" ","LANE":"２６巷","ALLEY":" ","HOUSE_NO":"３６號","E_COORD97":175940.45999999999,"N_COORD97":2546442.25,"ADDRESS":"廣興街２６巷３６號","OBJECTID":378520},"geometry":{"x":175940.46000000089,"y":2546442.25}},{"attributes":{"ID":378531,"DIS_CODE":0,"TOWNNAME":"永康區","LI":"西勢里","LIN":"25鄰","STREET":"廣興街","SECT":" ","MAREA":" ","LANE":"２６巷","ALLEY":" ","HOUSE_NO":"３０號","E_COORD97":175932.10000000001,"N_COORD97":2546451.25,"ADDRESS":"廣興街２６巷３０號","OBJECTID":378521},"geometry":{"x":175932.10000000149,"y":2546451.2500000019}},{"attributes":{"ID":378532,"DIS_CODE":0,"TOWNNAME":"中西區","LI":"永華里","LIN":"21鄰","STREET":"忠義路","SECT":"二段","MAREA":" ","LANE":"３８巷","ALLEY":" ","HOUSE_NO":"６號四樓之７","E_COORD97":168347.29999999999,"N_COORD97":2543683.2599999998,"ADDRESS":"忠義路二段３８巷６號四樓之７","OBJECTID":378522},"geometry":{"x":168347.30000000075,"y":2543683.2600000035}},{"attributes":{"ID":378533,"DIS_CODE":0,"TOWNNAME":"中西區","LI":"永華里","LIN":"21鄰","STREET":"忠義路","SECT":"二段","MAREA":" ","LANE":"３８巷","ALLEY":" ","HOUSE_NO":"６號四樓之８","E_COORD97":168347.29999999999,"N_COORD97":2543683.2599999998,"ADDRESS":"忠義路二段３８巷６號四樓之８","OBJECTID":378523},"geometry":{"x":168347.30000000075,"y":2543683.2600000035}},{"attributes":{"ID":378534,"DIS_CODE":0,"TOWNNAME":"中西區","LI":"永華里","LIN":"21鄰","STREET":"忠義路","SECT":"二段","MAREA":" ","LANE":"３８巷","ALLEY":" ","HOUSE_NO":"６號四樓之９","E_COORD97":168347.29999999999,"N_COORD97":2543683.2599999998,"ADDRESS":"忠義路二段３８巷６號四樓之９","OBJECTID":378524},"geometry":{"x":168347.30000000075,"y":2543683.2600000035}},{"attributes":{"ID":378535,"DIS_CODE":0,"TOWNNAME":"永康區","LI":"光復里","LIN":"16鄰","STREET":"復興路","SECT":" ","MAREA":" ","LANE":"１２８巷","ALLEY":" ","HOUSE_NO":"４８號","E_COORD97":172657.13,"N_COORD97":2544397.77,"ADDRESS":"復興路１２８巷４８號","OBJECTID":378525},"geometry":{"x":172657.13000000175,"y":2544397.7699999996}},{"attributes":{"ID":378536,"DIS_CODE":0,"TOWNNAME":"永康區","LI":"甲頂里","LIN":"12鄰","STREET":"中正南路","SECT":" ","MAREA":" ","LANE":"５２巷","ALLEY":" ","HOUSE_NO":"９６號","E_COORD97":170120.70999999999,"N_COORD97":2546794.6000000001,"ADDRESS":"中正南路５２巷９６號","OBJECTID":378526},"geometry":{"x":170120.71000000183,"y":2546794.6000000015}},{"attributes":{"ID":378537,"DIS_CODE":0,"TOWNNAME":"中西區","LI":"永福里","LIN":"21鄰","STREET":"忠義路","SECT":"二段","MAREA":" ","LANE":"１４７巷","ALLEY":" ","HOUSE_NO":"１０號一樓之１","E_COORD97":168348.38,"N_COORD97":2544053.73,"ADDRESS":"忠義路二段１４７巷１０號一樓之１","OBJECTID":378527},"geometry":{"x":168348.38000000082,"y":2544053.7300000042}},{"attributes":{"ID":378538,"DIS_CODE":0,"TOWNNAME":"中西區","LI":"永福里","LIN":"21鄰","STREET":"忠義路","SECT":"二段","MAREA":" ","LANE":"１４７巷","ALLEY":" ","HOUSE_NO":"１０號一樓之２","E_COORD97":168352.60999999999,"N_COORD97":2544064.3100000001,"ADDRESS":"忠義路二段１４７巷１０號一樓之２","OBJECTID":378528},"geometry":{"x":168352.61000000127,"y":2544064.3100000024}},{"attributes":{"ID":378539,"DIS_CODE":0,"TOWNNAME":"中西區","LI":"永福里","LIN":"21鄰","STREET":"忠義路","SECT":"二段","MAREA":" ","LANE":"１４７巷","ALLEY":" ","HOUSE_NO":"１０號二樓之１","E_COORD97":168350.12,"N_COORD97":2544060.9500000002,"ADDRESS":"忠義路二段１４７巷１０號二樓之１","OBJECTID":378529},"geometry":{"x":168350.12000000104,"y":2544060.9499999974}},{"attributes":{"ID":378540,"DIS_CODE":0,"TOWNNAME":"中西區","LI":"永福里","LIN":"21鄰","STREET":"忠義路","SECT":"二段","MAREA":" ","LANE":"１４７巷","ALLEY":" ","HOUSE_NO":"１０號二樓之２","E_COORD97":168350.12,"N_COORD97":2544060.9500000002,"ADDRESS":"忠義路二段１４７巷１０號二樓之２","OBJECTID":378530},"geometry":{"x":168350.12000000104,"y":2544060.9499999974}},{"attributes":{"ID":378541,"DIS_CODE":0,"TOWNNAME":"中西區","LI":"永福里","LIN":"21鄰","STREET":"忠義路","SECT":"二段","MAREA":" ","LANE":"１４７巷","ALLEY":" ","HOUSE_NO":"１２號一樓之１","E_COORD97":168341.78,"N_COORD97":2544056.1000000001,"ADDRESS":"忠義路二段１４７巷１２號一樓之１","OBJECTID":378531},"geometry":{"x":168341.78000000026,"y":2544056.0999999996}},{"attributes":{"ID":378542,"DIS_CODE":0,"TOWNNAME":"中西區","LI":"永福里","LIN":"21鄰","STREET":"忠義路","SECT":"二段","MAREA":" ","LANE":"１４７巷","ALLEY":" ","HOUSE_NO":"１２號一樓之２","E_COORD97":168345.51000000001,"N_COORD97":2544066.9199999999,"ADDRESS":"忠義路二段１４７巷１２號一樓之２","OBJECTID":378532},"geometry":{"x":168345.51000000071,"y":2544066.9200000018}},{"attributes":{"ID":378543,"DIS_CODE":0,"TOWNNAME":"中西區","LI":"永福里","LIN":"21鄰","STREET":"忠義路","SECT":"二段","MAREA":" ","LANE":"１４７巷","ALLEY":" ","HOUSE_NO":"１２號一樓之３","E_COORD97":168342.01000000001,"N_COORD97":2544071.7000000002,"ADDRESS":"忠義路二段１４７巷１２號一樓之３","OBJECTID":378533},"geometry":{"x":168342.01000000071,"y":2544071.6999999993}},{"attributes":{"ID":378544,"DIS_CODE":0,"TOWNNAME":"中西區","LI":"永福里","LIN":"21鄰","STREET":"忠義路","SECT":"二段","MAREA":" ","LANE":"１４７巷","ALLEY":" ","HOUSE_NO":"１２號二樓之１","E_COORD97":168345.14000000001,"N_COORD97":2544062.6899999999,"ADDRESS":"忠義路二段１４７巷１２號二樓之１","OBJECTID":378534},"geometry":{"x":168345.13999999966,"y":2544062.6899999995}},{"attributes":{"ID":378545,"DIS_CODE":0,"TOWNNAME":"中西區","LI":"永福里","LIN":"21鄰","STREET":"忠義路","SECT":"二段","MAREA":" ","LANE":"１４７巷","ALLEY":" ","HOUSE_NO":"１２號二樓之２","E_COORD97":168345.14000000001,"N_COORD97":2544062.6899999999,"ADDRESS":"忠義路二段１４７巷１２號二樓之２","OBJECTID":378535},"geometry":{"x":168345.13999999966,"y":2544062.6899999995}},{"attributes":{"ID":378546,"DIS_CODE":0,"TOWNNAME":"中西區","LI":"永福里","LIN":"21鄰","STREET":"忠義路","SECT":"二段","MAREA":" ","LANE":"１４７巷","ALLEY":" ","HOUSE_NO":"１２號二樓之３","E_COORD97":168345.14000000001,"N_COORD97":2544062.6899999999,"ADDRESS":"忠義路二段１４７巷１２號二樓之３","OBJECTID":378536},"geometry":{"x":168345.13999999966,"y":2544062.6899999995}},{"attributes":{"ID":378547,"DIS_CODE":0,"TOWNNAME":"中西區","LI":"永福里","LIN":"21鄰","STREET":"忠義路","SECT":"二段","MAREA":" ","LANE":"１４７巷","ALLEY":" ","HOUSE_NO":"１２號二樓之４","E_COORD97":168345.14000000001,"N_COORD97":2544062.6899999999,"ADDRESS":"忠義路二段１４７巷１２號二樓之４","OBJECTID":378537},"geometry":{"x":168345.13999999966,"y":2544062.6899999995}},{"attributes":{"ID":378548,"DIS_CODE":0,"TOWNNAME":"安南區","LI":"安順里","LIN":"13鄰","STREET":"育安街","SECT":" ","MAREA":" ","LANE":" ","ALLEY":" ","HOUSE_NO":"３００號","E_COORD97":169613.31,"N_COORD97":2550175.2200000002,"ADDRESS":"育安街３００號","OBJECTID":378538},"geometry":{"x":169613.31000000052,"y":2550175.2200000025}},{"attributes":{"ID":378549,"DIS_CODE":0,"TOWNNAME":"中西區","LI":"永福里","LIN":"21鄰","STREET":"忠義路","SECT":"二段","MAREA":" ","LANE":"１４７巷","ALLEY":" ","HOUSE_NO":"１２號三樓之１","E_COORD97":168345.14000000001,"N_COORD97":2544062.6899999999,"ADDRESS":"忠義路二段１４７巷１２號三樓之１","OBJECTID":378539},"geometry":{"x":168345.13999999966,"y":2544062.6899999995}},{"attributes":{"ID":378550,"DIS_CODE":0,"TOWNNAME":"中西區","LI":"永福里","LIN":"21鄰","STREET":"忠義路","SECT":"二段","MAREA":" ","LANE":"１４７巷","ALLEY":" ","HOUSE_NO":"１２號三樓之２","E_COORD97":168345.14000000001,"N_COORD97":2544062.6899999999,"ADDRESS":"忠義路二段１４７巷１２號三樓之２","OBJECTID":378540},"geometry":{"x":168345.13999999966,"y":2544062.6899999995}},{"attributes":{"ID":378551,"DIS_CODE":0,"TOWNNAME":"中西區","LI":"永福里","LIN":"21鄰","STREET":"忠義路","SECT":"二段","MAREA":" ","LANE":"１４７巷","ALLEY":" ","HOUSE_NO":"１２號五樓之１","E_COORD97":168345.14000000001,"N_COORD97":2544062.6899999999,"ADDRESS":"忠義路二段１４７巷１２號五樓之１","OBJECTID":378541},"geometry":{"x":168345.13999999966,"y":2544062.6899999995}},{"attributes":{"ID":378552,"DIS_CODE":0,"TOWNNAME":"永康區","LI":"\u25A0行里","LIN":"47鄰","STREET":"新行街","SECT":" ","MAREA":" ","LANE":"４巷","ALLEY":" ","HOUSE_NO":"４５號","E_COORD97":172322.85000000001,"N_COORD97":2548841.7200000002,"ADDRESS":"新行街４巷４５號","OBJECTID":378542},"geometry":{"x":172322.84999999963,"y":2548841.7200000025}},{"attributes":{"ID":378553,"DIS_CODE":0,"TOWNNAME":"永康區","LI":"西灣里","LIN":"38鄰","STREET":"大勇路","SECT":" ","MAREA":" ","LANE":"１３５巷","ALLEY":" ","HOUSE_NO":"２５號","E_COORD97":174184.73999999999,"N_COORD97":2545634.3599999999,"ADDRESS":"大勇路１３５巷２５號","OBJECTID":378543},"geometry":{"x":174184.74000000115,"y":2545634.3599999994}},{"attributes":{"ID":378554,"DIS_CODE":0,"TOWNNAME":"中西區","LI":"法華里","LIN":"21鄰","STREET":"健康路","SECT":"一段","MAREA":" ","LANE":"１４０巷","ALLEY":" ","HOUSE_NO":"１號四樓之１","E_COORD97":168801.04000000001,"N_COORD97":2542467.71,"ADDRESS":"健康路一段１４０巷１號四樓之１","OBJECTID":378544},"geometry":{"x":168801.04000000004,"y":2542467.7100000046}},{"attributes":{"ID":378555,"DIS_CODE":0,"TOWNNAME":"中西區","LI":"法華里","LIN":"21鄰","STREET":"健康路","SECT":"一段","MAREA":" ","LANE":"１４０巷","ALLEY":" ","HOUSE_NO":"１號四樓之２","E_COORD97":168801.04000000001,"N_COORD97":2542467.71,"ADDRESS":"健康路一段１４０巷１號四樓之２","OBJECTID":378545},"geometry":{"x":168801.04000000004,"y":2542467.7100000046}},{"attributes":{"ID":378556,"DIS_CODE":0,"TOWNNAME":"中西區","LI":"法華里","LIN":"21鄰","STREET":"健康路","SECT":"一段","MAREA":" ","LANE":"１４０巷","ALLEY":" ","HOUSE_NO":"１號四樓之３","E_COORD97":168801.04000000001,"N_COORD97":2542467.71,"ADDRESS":"健康路一段１４０巷１號四樓之３","OBJECTID":378546},"geometry":{"x":168801.04000000004,"y":2542467.7100000046}},{"attributes":{"ID":378557,"DIS_CODE":0,"TOWNNAME":"中西區","LI":"法華里","LIN":"21鄰","STREET":"健康路","SECT":"一段","MAREA":" ","LANE":"１５０巷","ALLEY":" ","HOUSE_NO":"１號二樓之１","E_COORD97":168765.04000000001,"N_COORD97":2542482.3100000001,"ADDRESS":"健康路一段１５０巷１號二樓之１","OBJECTID":378547},"geometry":{"x":168765.04000000004,"y":2542482.3100000005}},{"attributes":{"ID":378558,"DIS_CODE":0,"TOWNNAME":"中西區","LI":"法華里","LIN":"21鄰","STREET":"健康路","SECT":"一段","MAREA":" ","LANE":"１５０巷","ALLEY":" ","HOUSE_NO":"１號二樓之２","E_COORD97":168765.04000000001,"N_COORD97":2542482.3100000001,"ADDRESS":"健康路一段１５０巷１號二樓之２","OBJECTID":378548},"geometry":{"x":168765.04000000004,"y":2542482.3100000005}},{"attributes":{"ID":378559,"DIS_CODE":0,"TOWNNAME":"永康區","LI":"西灣里","LIN":"11鄰","STREET":"大灣五街","SECT":" ","MAREA":" ","LANE":"９３巷","ALLEY":" ","HOUSE_NO":"３０號","E_COORD97":174551.04000000001,"N_COORD97":2545256.3599999999,"ADDRESS":"大灣五街９３巷３０號","OBJECTID":378549},"geometry":{"x":174551.04000000004,"y":2545256.3600000013}},{"attributes":{"ID":378560,"DIS_CODE":0,"TOWNNAME":"永康區","LI":"安康里","LIN":"20鄰","STREET":"中華西街","SECT":" ","MAREA":" ","LANE":"１２２巷","ALLEY":" ","HOUSE_NO":"７２號","E_COORD97":170873.38,"N_COORD97":2546223.5,"ADDRESS":"中華西街１２２巷７２號","OBJECTID":378550},"geometry":{"x":170873.37999999989,"y":2546223.5}},{"attributes":{"ID":378561,"DIS_CODE":0,"TOWNNAME":"中西區","LI":"法華里","LIN":"21鄰","STREET":"健康路","SECT":"一段","MAREA":" ","LANE":"１５０巷","ALLEY":" ","HOUSE_NO":"１號三樓之２","E_COORD97":168765.04000000001,"N_COORD97":2542482.3100000001,"ADDRESS":"健康路一段１５０巷１號三樓之２","OBJECTID":378551},"geometry":{"x":168765.04000000004,"y":2542482.3100000005}},{"attributes":{"ID":378562,"DIS_CODE":0,"TOWNNAME":"中西區","LI":"法華里","LIN":"21鄰","STREET":"健康路","SECT":"一段","MAREA":" ","LANE":"１５０巷","ALLEY":" ","HOUSE_NO":"１號五樓之１","E_COORD97":168765.04000000001,"N_COORD97":2542482.3100000001,"ADDRESS":"健康路一段１５０巷１號五樓之１","OBJECTID":378552},"geometry":{"x":168765.04000000004,"y":2542482.3100000005}},{"attributes":{"ID":378563,"DIS_CODE":0,"TOWNNAME":"中西區","LI":"法華里","LIN":"21鄰","STREET":"健康路","SECT":"一段","MAREA":" ","LANE":"１５０巷","ALLEY":" ","HOUSE_NO":"１號五樓之２","E_COORD97":168765.04000000001,"N_COORD97":2542482.3100000001,"ADDRESS":"健康路一段１５０巷１號五樓之２","OBJECTID":378553},"geometry":{"x":168765.04000000004,"y":2542482.3100000005}},{"attributes":{"ID":378564,"DIS_CODE":0,"TOWNNAME":"中西區","LI":"法華里","LIN":"21鄰","STREET":"健康路","SECT":"一段","MAREA":" ","LANE":"１５０巷","ALLEY":" ","HOUSE_NO":"１號六樓之１","E_COORD97":168765.04000000001,"N_COORD97":2542482.3100000001,"ADDRESS":"健康路一段１５０巷１號六樓之１","OBJECTID":378554},"geometry":{"x":168765.04000000004,"y":2542482.3100000005}},{"attributes":{"ID":378565,"DIS_CODE":0,"TOWNNAME":"中西區","LI":"法華里","LIN":"21鄰","STREET":"健康路","SECT":"一段","MAREA":" ","LANE":"１５０巷","ALLEY":" ","HOUSE_NO":"１號六樓之２","E_COORD97":168765.04000000001,"N_COORD97":2542482.3100000001,"ADDRESS":"健康路一段１５０巷１號六樓之２","OBJECTID":378555},"geometry":{"x":168765.04000000004,"y":2542482.3100000005}},{"attributes":{"ID":378566,"DIS_CODE":0,"TOWNNAME":"中西區","LI":"法華里","LIN":"21鄰","STREET":"健康路","SECT":"一段","MAREA":" ","LANE":"１５０巷","ALLEY":" ","HOUSE_NO":"１號四樓之１","E_COORD97":168765.04000000001,"N_COORD97":2542482.3100000001,"ADDRESS":"健康路一段１５０巷１號四樓之１","OBJECTID":378556},"geometry":{"x":168765.04000000004,"y":2542482.3100000005}},{"attributes":{"ID":378567,"DIS_CODE":0,"TOWNNAME":"中西區","LI":"法華里","LIN":"21鄰","STREET":"健康路","SECT":"一段","MAREA":" ","LANE":"１５０巷","ALLEY":" ","HOUSE_NO":"１號四樓之２","E_COORD97":168765.04000000001,"N_COORD97":2542482.3100000001,"ADDRESS":"健康路一段１５０巷１號四樓之２","OBJECTID":378557},"geometry":{"x":168765.04000000004,"y":2542482.3100000005}},{"attributes":{"ID":378568,"DIS_CODE":0,"TOWNNAME":"中西區","LI":"法華里","LIN":"21鄰","STREET":"健康路","SECT":"一段","MAREA":" ","LANE":"１５０巷","ALLEY":" ","HOUSE_NO":"３號二樓之１","E_COORD97":168766.16,"N_COORD97":2542491.02,"ADDRESS":"健康路一段１５０巷３號二樓之１","OBJECTID":378558},"geometry":{"x":168766.16000000015,"y":2542491.0199999977}},{"attributes":{"ID":378569,"DIS_CODE":0,"TOWNNAME":"中西區","LI":"法華里","LIN":"21鄰","STREET":"健康路","SECT":"一段","MAREA":" ","LANE":"１５０巷","ALLEY":" ","HOUSE_NO":"３號二樓之２","E_COORD97":168766.16,"N_COORD97":2542491.02,"ADDRESS":"健康路一段１５０巷３號二樓之２","OBJECTID":378559},"geometry":{"x":168766.16000000015,"y":2542491.0199999977}},{"attributes":{"ID":378570,"DIS_CODE":0,"TOWNNAME":"中西區","LI":"法華里","LIN":"21鄰","STREET":"健康路","SECT":"一段","MAREA":" ","LANE":"１５０巷","ALLEY":" ","HOUSE_NO":"３號三樓之１","E_COORD97":168766.16,"N_COORD97":2542491.02,"ADDRESS":"健康路一段１５０巷３號三樓之１","OBJECTID":378560},"geometry":{"x":168766.16000000015,"y":2542491.0199999977}},{"attributes":{"ID":378571,"DIS_CODE":0,"TOWNNAME":"中西區","LI":"法華里","LIN":"21鄰","STREET":"健康路","SECT":"一段","MAREA":" ","LANE":"１５０巷","ALLEY":" ","HOUSE_NO":"３號三樓之２","E_COORD97":168766.16,"N_COORD97":2542491.02,"ADDRESS":"健康路一段１５０巷３號三樓之２","OBJECTID":378561},"geometry":{"x":168766.16000000015,"y":2542491.0199999977}},{"attributes":{"ID":378572,"DIS_CODE":0,"TOWNNAME":"中西區","LI":"法華里","LIN":"21鄰","STREET":"健康路","SECT":"一段","MAREA":" ","LANE":"１５０巷","ALLEY":" ","HOUSE_NO":"３號五樓之１","E_COORD97":168766.16,"N_COORD97":2542491.02,"ADDRESS":"健康路一段１５０巷３號五樓之１","OBJECTID":378562},"geometry":{"x":168766.16000000015,"y":2542491.0199999977}},{"attributes":{"ID":378573,"DIS_CODE":0,"TOWNNAME":"中西區","LI":"法華里","LIN":"21鄰","STREET":"健康路","SECT":"一段","MAREA":" ","LANE":"１５０巷","ALLEY":" ","HOUSE_NO":"３號五樓之２","E_COORD97":168766.16,"N_COORD97":2542491.02,"ADDRESS":"健康路一段１５０巷３號五樓之２","OBJECTID":378563},"geometry":{"x":168766.16000000015,"y":2542491.0199999977}},{"attributes":{"ID":378574,"DIS_CODE":0,"TOWNNAME":"中西區","LI":"法華里","LIN":"21鄰","STREET":"健康路","SECT":"一段","MAREA":" ","LANE":"１５０巷","ALLEY":" ","HOUSE_NO":"３號六樓之１","E_COORD97":168766.16,"N_COORD97":2542491.02,"ADDRESS":"健康路一段１５０巷３號六樓之１","OBJECTID":378564},"geometry":{"x":168766.16000000015,"y":2542491.0199999977}},{"attributes":{"ID":378575,"DIS_CODE":0,"TOWNNAME":"中西區","LI":"法華里","LIN":"21鄰","STREET":"健康路","SECT":"一段","MAREA":" ","LANE":"１５０巷","ALLEY":" ","HOUSE_NO":"３號六樓之２","E_COORD97":168766.16,"N_COORD97":2542491.02,"ADDRESS":"健康路一段１５０巷３號六樓之２","OBJECTID":378565},"geometry":{"x":168766.16000000015,"y":2542491.0199999977}},{"attributes":{"ID":378576,"DIS_CODE":0,"TOWNNAME":"中西區","LI":"法華里","LIN":"21鄰","STREET":"健康路","SECT":"一段","MAREA":" ","LANE":"１５０巷","ALLEY":" ","HOUSE_NO":"３號四樓之１","E_COORD97":168766.16,"N_COORD97":2542491.02,"ADDRESS":"健康路一段１５０巷３號四樓之１","OBJECTID":378566},"geometry":{"x":168766.16000000015,"y":2542491.0199999977}},{"attributes":{"ID":378577,"DIS_CODE":0,"TOWNNAME":"中西區","LI":"法華里","LIN":"21鄰","STREET":"健康路","SECT":"一段","MAREA":" ","LANE":"１５０巷","ALLEY":" ","HOUSE_NO":"３號四樓之２","E_COORD97":168766.16,"N_COORD97":2542491.02,"ADDRESS":"健康路一段１５０巷３號四樓之２","OBJECTID":378567},"geometry":{"x":168766.16000000015,"y":2542491.0199999977}},{"attributes":{"ID":378578,"DIS_CODE":0,"TOWNNAME":"永康區","LI":"甲頂里","LIN":"13鄰","STREET":"正新街","SECT":" ","MAREA":" ","LANE":"１７巷","ALLEY":" ","HOUSE_NO":"１號","E_COORD97":170382.45000000001,"N_COORD97":2546584.9900000002,"ADDRESS":"正新街１７巷１號","OBJECTID":378568},"geometry":{"x":170382.45000000112,"y":2546584.9900000021}},{"attributes":{"ID":378579,"DIS_CODE":0,"TOWNNAME":"永康區","LI":"甲頂里","LIN":"21鄰","STREET":"中正南路","SECT":" ","MAREA":" ","LANE":"５２巷","ALLEY":" ","HOUSE_NO":"２６號","E_COORD97":169756.67000000001,"N_COORD97":2546766.2599999998,"ADDRESS":"中正南路５２巷２６號","OBJECTID":378569},"geometry":{"x":169756.67000000086,"y":2546766.2600000016}},{"attributes":{"ID":378580,"DIS_CODE":0,"TOWNNAME":"永康區","LI":"西勢里","LIN":"21鄰","STREET":"富強路","SECT":"一段","MAREA":" ","LANE":"１４９巷","ALLEY":" ","HOUSE_NO":"３２號","E_COORD97":175496.32000000001,"N_COORD97":2546395.1499999999,"ADDRESS":"富強路一段１４９巷３２號","OBJECTID":378570},"geometry":{"x":175496.32000000123,"y":2546395.1500000022}},{"attributes":{"ID":378581,"DIS_CODE":0,"TOWNNAME":"永康區","LI":"\u25A0行里","LIN":"20鄰","STREET":"正南五街","SECT":" ","MAREA":" ","LANE":"２８９巷","ALLEY":" ","HOUSE_NO":"１０６號","E_COORD97":171823.39999999999,"N_COORD97":2548320.3399999999,"ADDRESS":"正南五街２８９巷１０６號","OBJECTID":378571},"geometry":{"x":171823.40000000224,"y":2548320.3399999999}},{"attributes":{"ID":378582,"DIS_CODE":0,"TOWNNAME":"永康區","LI":"西灣里","LIN":"8鄰","STREET":"大灣五街","SECT":" ","MAREA":" ","LANE":"９３巷","ALLEY":" ","HOUSE_NO":"１０７號","E_COORD97":174475.01999999999,"N_COORD97":2545205.25,"ADDRESS":"大灣五街９３巷１０７號","OBJECTID":378572},"geometry":{"x":174475.02000000048,"y":2545205.25}},{"attributes":{"ID":378583,"DIS_CODE":0,"TOWNNAME":"永康區","LI":"西勢里","LIN":"6鄰","STREET":"富強路","SECT":"一段","MAREA":" ","LANE":"３２１巷","ALLEY":" ","HOUSE_NO":"１１號","E_COORD97":175663.22,"N_COORD97":2546709.52,"ADDRESS":"富強路一段３２１巷１１號","OBJECTID":378573},"geometry":{"x":175663.21999999974,"y":2546709.5200000014}},{"attributes":{"ID":378584,"DIS_CODE":0,"TOWNNAME":"永康區","LI":"西勢里","LIN":"12鄰","STREET":"廣盛街","SECT":" ","MAREA":" ","LANE":"１４２巷","ALLEY":" ","HOUSE_NO":"１號","E_COORD97":176104.04000000001,"N_COORD97":2546645.1299999999,"ADDRESS":"廣盛街１４２巷１號","OBJECTID":378574},"geometry":{"x":176104.04000000004,"y":2546645.129999999}},{"attributes":{"ID":378585,"DIS_CODE":0,"TOWNNAME":"永康區","LI":"西勢里","LIN":"21鄰","STREET":"富強路","SECT":"一段","MAREA":" ","LANE":"１４９巷","ALLEY":" ","HOUSE_NO":"２５號","E_COORD97":175491.23000000001,"N_COORD97":2546380.8999999999,"ADDRESS":"富強路一段１４９巷２５號","OBJECTID":378575},"geometry":{"x":175491.22999999952,"y":2546380.9000000004}},{"attributes":{"ID":378586,"DIS_CODE":0,"TOWNNAME":"永康區","LI":"西勢里","LIN":"24鄰","STREET":"廣興街","SECT":" ","MAREA":" ","LANE":"２６巷","ALLEY":" ","HOUSE_NO":"５號","E_COORD97":175897.06,"N_COORD97":2546528.6800000002,"ADDRESS":"廣興街２６巷５號","OBJECTID":378576},"geometry":{"x":175897.06000000052,"y":2546528.6800000016}},{"attributes":{"ID":378587,"DIS_CODE":0,"TOWNNAME":"永康區","LI":"龍潭里","LIN":"14鄰","STREET":"龍埔街","SECT":" ","MAREA":" ","LANE":"７８巷","ALLEY":" ","HOUSE_NO":"８號","E_COORD97":174649.89000000001,"N_COORD97":2548308.25,"ADDRESS":"龍埔街７８巷８號","OBJECTID":378577},"geometry":{"x":174649.88999999966,"y":2548308.2500000037}},{"attributes":{"ID":378588,"DIS_CODE":0,"TOWNNAME":"永康區","LI":"網寮里","LIN":"21鄰","STREET":"文化路","SECT":" ","MAREA":" ","LANE":"２４２巷","ALLEY":" ","HOUSE_NO":"１號七樓之２","E_COORD97":173565.57000000001,"N_COORD97":2546139.8399999999,"ADDRESS":"文化路２４２巷１號七樓之２","OBJECTID":378578},"geometry":{"x":173565.57000000123,"y":2546139.8399999999}},{"attributes":{"ID":378589,"DIS_CODE":0,"TOWNNAME":"中西區","LI":"西湖里","LIN":"21鄰","STREET":"湖美街","SECT":" ","MAREA":" ","LANE":"２２巷","ALLEY":" ","HOUSE_NO":"３號","E_COORD97":165971.48000000001,"N_COORD97":2544533.04,"ADDRESS":"湖美街２２巷３號","OBJECTID":378579},"geometry":{"x":165971.48000000138,"y":2544533.040000001}},{"attributes":{"ID":378590,"DIS_CODE":0,"TOWNNAME":"永康區","LI":"網寮里","LIN":"21鄰","STREET":"文化路","SECT":" ","MAREA":" ","LANE":"２４２巷","ALLEY":" ","HOUSE_NO":"２號八樓之２","E_COORD97":173583.72,"N_COORD97":2546149.8399999999,"ADDRESS":"文化路２４２巷２號八樓之２","OBJECTID":378580},"geometry":{"x":173583.7200000016,"y":2546149.8399999999}},{"attributes":{"ID":378591,"DIS_CODE":0,"TOWNNAME":"永康區","LI":"網寮里","LIN":"21鄰","STREET":"文化路","SECT":" ","MAREA":" ","LANE":"２４２巷","ALLEY":" ","HOUSE_NO":"２號五樓之２","E_COORD97":173583.72,"N_COORD97":2546149.8399999999,"ADDRESS":"文化路２４２巷２號五樓之２","OBJECTID":378581},"geometry":{"x":173583.7200000016,"y":2546149.8399999999}},{"attributes":{"ID":378592,"DIS_CODE":0,"TOWNNAME":"永康區","LI":"網寮里","LIN":"21鄰","STREET":"文化路","SECT":" ","MAREA":" ","LANE":"２４２巷","ALLEY":" ","HOUSE_NO":"１０號八樓","E_COORD97":173579.89999999999,"N_COORD97":2546161.8399999999,"ADDRESS":"文化路２４２巷１０號八樓","OBJECTID":378582},"geometry":{"x":173579.9000000013,"y":2546161.8400000017}},{"attributes":{"ID":378593,"DIS_CODE":0,"TOWNNAME":"永康區","LI":"網寮里","LIN":"21鄰","STREET":"文化路","SECT":" ","MAREA":" ","LANE":"２４２巷","ALLEY":" ","HOUSE_NO":"１０號三樓之１","E_COORD97":173582.04000000001,"N_COORD97":2546161.8399999999,"ADDRESS":"文化路２４２巷１０號三樓之１","OBJECTID":378583},"geometry":{"x":173582.04000000097,"y":2546161.8400000017}},{"attributes":{"ID":378594,"DIS_CODE":0,"TOWNNAME":"永康區","LI":"網寮里","LIN":"21鄰","STREET":"文化路","SECT":" ","MAREA":" ","LANE":"２４２巷","ALLEY":" ","HOUSE_NO":"７號八樓之２","E_COORD97":173560.51000000001,"N_COORD97":2546162.9900000002,"ADDRESS":"文化路２４２巷７號八樓之２","OBJECTID":378584},"geometry":{"x":173560.50999999978,"y":2546162.9900000002}},{"attributes":{"ID":378595,"DIS_CODE":0,"TOWNNAME":"永康區","LI":"網寮里","LIN":"21鄰","STREET":"文化路","SECT":" ","MAREA":" ","LANE":"２４２巷","ALLEY":" ","HOUSE_NO":"７號三樓","E_COORD97":173558.23999999999,"N_COORD97":2546162.9900000002,"ADDRESS":"文化路２４２巷７號三樓","OBJECTID":378585},"geometry":{"x":173558.24000000022,"y":2546162.9900000002}},{"attributes":{"ID":378596,"DIS_CODE":0,"TOWNNAME":"仁德區","LI":"成功里","LIN":"21鄰","STREET":"保生路","SECT":" ","MAREA":" ","LANE":"６５巷","ALLEY":" ","HOUSE_NO":"１６號","E_COORD97":170702.88,"N_COORD97":2539745.2400000002,"ADDRESS":"保生路６５巷１６號","OBJECTID":378586},"geometry":{"x":170702.88000000082,"y":2539745.2400000021}},{"attributes":{"ID":378597,"DIS_CODE":0,"TOWNNAME":"仁德區","LI":"成功里","LIN":"21鄰","STREET":"保生路","SECT":" ","MAREA":" ","LANE":"６５巷","ALLEY":" ","HOUSE_NO":"１８號","E_COORD97":170700.89000000001,"N_COORD97":2539737.4900000002,"ADDRESS":"保生路６５巷１８號","OBJECTID":378587},"geometry":{"x":170700.8900000006,"y":2539737.4900000002}},{"attributes":{"ID":378598,"DIS_CODE":0,"TOWNNAME":"永康區","LI":"\u25A0行里","LIN":"20鄰","STREET":"正南五街","SECT":" ","MAREA":" ","LANE":"２８９巷","ALLEY":" ","HOUSE_NO":"８０號","E_COORD97":171802.79999999999,"N_COORD97":2548315.1099999999,"ADDRESS":"正南五街２８９巷８０號","OBJECTID":378588},"geometry":{"x":171802.79999999981,"y":2548315.1100000031}},{"attributes":{"ID":378599,"DIS_CODE":0,"TOWNNAME":"永康區","LI":"二王里","LIN":"39鄰","STREET":"中山南路","SECT":" ","MAREA":" ","LANE":"３１６巷","ALLEY":" ","HOUSE_NO":"７５號","E_COORD97":172160.37,"N_COORD97":2546171.8900000001,"ADDRESS":"中山南路３１６巷７５號","OBJECTID":378589},"geometry":{"x":172160.37000000011,"y":2546171.8900000043}},{"attributes":{"ID":378600,"DIS_CODE":0,"TOWNNAME":"永康區","LI":"\u25A0行里","LIN":"38鄰","STREET":"仁愛街","SECT":" ","MAREA":" ","LANE":"１３８巷","ALLEY":" ","HOUSE_NO":"１４號","E_COORD97":172235.60000000001,"N_COORD97":2549635.5299999998,"ADDRESS":"仁愛街１３８巷１４號","OBJECTID":378590},"geometry":{"x":172235.60000000056,"y":2549635.5300000012}},{"attributes":{"ID":378601,"DIS_CODE":0,"TOWNNAME":"永康區","LI":"龍潭里","LIN":"42鄰","STREET":"永明街","SECT":" ","MAREA":" ","LANE":"３０２巷","ALLEY":" ","HOUSE_NO":"４０號","E_COORD97":174532.89999999999,"N_COORD97":2547078.9500000002,"ADDRESS":"永明街３０２巷４０號","OBJECTID":378591},"geometry":{"x":174532.9000000013,"y":2547078.9500000011}},{"attributes":{"ID":378602,"DIS_CODE":0,"TOWNNAME":"永康區","LI":"\u25A0行里","LIN":"41鄰","STREET":"永安路","SECT":" ","MAREA":" ","LANE":"１６５巷","ALLEY":" ","HOUSE_NO":"１４０號","E_COORD97":172416.17999999999,"N_COORD97":2549450.0699999998,"ADDRESS":"永安路１６５巷１４０號","OBJECTID":378592},"geometry":{"x":172416.18000000063,"y":2549450.0700000022}},{"attributes":{"ID":378603,"DIS_CODE":0,"TOWNNAME":"永康區","LI":"\u25A0行里","LIN":"35鄰","STREET":"中正北路","SECT":" ","MAREA":" ","LANE":"１７７巷","ALLEY":" ","HOUSE_NO":"１５號","E_COORD97":172385.79000000001,"N_COORD97":2549173.71,"ADDRESS":"中正北路１７７巷１５號","OBJECTID":378593},"geometry":{"x":172385.79000000004,"y":2549173.7100000046}},{"attributes":{"ID":378604,"DIS_CODE":0,"TOWNNAME":"永康區","LI":"龍潭里","LIN":"30鄰","STREET":"龍國街","SECT":" ","MAREA":" ","LANE":"４２０巷","ALLEY":" ","HOUSE_NO":"２５號","E_COORD97":174865.76000000001,"N_COORD97":2547944.3599999999,"ADDRESS":"龍國街４２０巷２５號","OBJECTID":378594},"geometry":{"x":174865.76000000071,"y":2547944.3600000013}},{"attributes":{"ID":378605,"DIS_CODE":0,"TOWNNAME":"永康區","LI":"網寮里","LIN":"21鄰","STREET":"文化路","SECT":" ","MAREA":" ","LANE":"２４２巷","ALLEY":" ","HOUSE_NO":"２８之３號","E_COORD97":173612.07999999999,"N_COORD97":2546182.3300000001,"ADDRESS":"文化路２４２巷２８之３號","OBJECTID":378595},"geometry":{"x":173612.08000000194,"y":2546182.3300000019}},{"attributes":{"ID":378606,"DIS_CODE":0,"TOWNNAME":"永康區","LI":"\u25A0行里","LIN":"27鄰","STREET":"中正南路","SECT":" ","MAREA":" ","LANE":"３４４巷","ALLEY":" ","HOUSE_NO":"３號","E_COORD97":170925.57999999999,"N_COORD97":2548007.25,"ADDRESS":"中正南路３４４巷３號","OBJECTID":378596},"geometry":{"x":170925.58000000101,"y":2548007.2500000019}},{"attributes":{"ID":378607,"DIS_CODE":0,"TOWNNAME":"永康區","LI":"\u25A0行里","LIN":"38鄰","STREET":"仁愛街","SECT":" ","MAREA":" ","LANE":"１３８巷","ALLEY":" ","HOUSE_NO":"３０號","E_COORD97":172282.14000000001,"N_COORD97":2549641.0299999998,"ADDRESS":"仁愛街１３８巷３０號","OBJECTID":378597},"geometry":{"x":172282.14000000153,"y":2549641.0299999975}},{"attributes":{"ID":378608,"DIS_CODE":0,"TOWNNAME":"白河區","LI":"外角里","LIN":"13鄰","STREET":"三民路","SECT":" ","MAREA":" ","LANE":" ","ALLEY":" ","HOUSE_NO":"１８３號","E_COORD97":190840.35000000001,"N_COORD97":2583290.77,"ADDRESS":"三民路１８３號","OBJECTID":378598},"geometry":{"x":190840.35000000056,"y":2583290.7700000014}},{"attributes":{"ID":378609,"DIS_CODE":0,"TOWNNAME":"永康區","LI":"龍潭里","LIN":"42鄰","STREET":"國民路","SECT":" ","MAREA":" ","LANE":"２０１巷","ALLEY":" ","HOUSE_NO":"１２號","E_COORD97":174519.14000000001,"N_COORD97":2547086.3700000001,"ADDRESS":"國民路２０１巷１２號","OBJECTID":378599},"geometry":{"x":174519.13999999966,"y":2547086.370000001}},{"attributes":{"ID":378610,"DIS_CODE":0,"TOWNNAME":"永康區","LI":"網寮里","LIN":"21鄰","STREET":"文化路","SECT":" ","MAREA":" ","LANE":"２４２巷","ALLEY":" ","HOUSE_NO":"３２之６號","E_COORD97":173562.17999999999,"N_COORD97":2546197.79,"ADDRESS":"文化路２４２巷３２之６號","OBJECTID":378600},"geometry":{"x":173562.18000000063,"y":2546197.7899999972}}]}