{"displayFieldName":"TOWNNAME","fieldAliases":{"ID":"ID","DIS_CODE":"DIS_CODE","TOWNNAME":"TOWNNAME","LI":"LI","LIN":"LIN","STREET":"STREET","SECT":"SECT","MAREA":"MAREA","LANE":"LANE","ALLEY":"ALLEY","HOUSE_NO":"HOUSE_NO","E_COORD97":"E_COORD97","N_COORD97":"N_COORD97","ADDRESS":"ADDRESS","OBJECTID":"OBJECTID"},"geometryType":"esriGeometryPoint","spatialReference":{"wkid":102443,"latestWkid":3826},"fields":[{"name":"ID","type":"esriFieldTypeDouble","alias":"ID"},{"name":"DIS_CODE","type":"esriFieldTypeInteger","alias":"DIS_CODE"},{"name":"TOWNNAME","type":"esriFieldTypeString","alias":"TOWNNAME","length":8},{"name":"LI","type":"esriFieldTypeString","alias":"LI","length":8},{"name":"LIN","type":"esriFieldTypeString","alias":"LIN","length":12},{"name":"STREET","type":"esriFieldTypeString","alias":"STREET","length":20},{"name":"SECT","type":"esriFieldTypeString","alias":"SECT","length":8},{"name":"MAREA","type":"esriFieldTypeString","alias":"MAREA","length":12},{"name":"LANE","type":"esriFieldTypeString","alias":"LANE","length":10},{"name":"ALLEY","type":"esriFieldTypeString","alias":"ALLEY","length":10},{"name":"HOUSE_NO","type":"esriFieldTypeString","alias":"HOUSE_NO","length":20},{"name":"E_COORD97","type":"esriFieldTypeDouble","alias":"E_COORD97"},{"name":"N_COORD97","type":"esriFieldTypeDouble","alias":"N_COORD97"},{"name":"ADDRESS","type":"esriFieldTypeString","alias":"ADDRESS","length":50},{"name":"OBJECTID","type":"esriFieldTypeOID","alias":"OBJECTID"}],"features":[{"attributes":{"ID":506028,"DIS_CODE":0,"TOWNNAME":"永康區","LI":"埔園里","LIN":"15鄰","STREET":"中山路","SECT":" ","MAREA":" ","LANE":" ","ALLEY":" ","HOUSE_NO":"３２５號","E_COORD97":173596.63,"N_COORD97":2548395.25,"ADDRESS":"中山路３２５號","OBJECTID":506001},"geometry":{"x":173596.63000000082,"y":2548395.25}},{"attributes":{"ID":506029,"DIS_CODE":0,"TOWNNAME":"永康區","LI":"勝利里","LIN":"15鄰","STREET":"勝利街","SECT":" ","MAREA":" ","LANE":" ","ALLEY":" ","HOUSE_NO":"１０３號","E_COORD97":171346.32000000001,"N_COORD97":2544882.0099999998,"ADDRESS":"勝利街１０３號","OBJECTID":506002},"geometry":{"x":171346.32000000123,"y":2544882.0100000016}},{"attributes":{"ID":506030,"DIS_CODE":0,"TOWNNAME":"永康區","LI":"埔園里","LIN":"15鄰","STREET":"中山路","SECT":" ","MAREA":" ","LANE":" ","ALLEY":" ","HOUSE_NO":"３２３號","E_COORD97":173596.79000000001,"N_COORD97":2548390.4700000002,"ADDRESS":"中山路３２３號","OBJECTID":506003},"geometry":{"x":173596.79000000004,"y":2548390.4700000007}},{"attributes":{"ID":506031,"DIS_CODE":0,"TOWNNAME":"永康區","LI":"埔園里","LIN":"15鄰","STREET":"中山路","SECT":" ","MAREA":" ","LANE":" ","ALLEY":" ","HOUSE_NO":"３６７號","E_COORD97":173568.38,"N_COORD97":2548494.5699999998,"ADDRESS":"中山路３６７號","OBJECTID":506004},"geometry":{"x":173568.37999999989,"y":2548494.5700000003}},{"attributes":{"ID":506032,"DIS_CODE":0,"TOWNNAME":"永康區","LI":"東橋里","LIN":"15鄰","STREET":"東橋七路","SECT":" ","MAREA":" ","LANE":" ","ALLEY":" ","HOUSE_NO":"１５１號","E_COORD97":171822.03,"N_COORD97":2546734.5699999998,"ADDRESS":"東橋七路１５１號","OBJECTID":506005},"geometry":{"x":171822.03000000026,"y":2546734.5700000022}},{"attributes":{"ID":506033,"DIS_CODE":0,"TOWNNAME":"永康區","LI":"東橋里","LIN":"15鄰","STREET":"東橋七路","SECT":" ","MAREA":" ","LANE":" ","ALLEY":" ","HOUSE_NO":"１５３號","E_COORD97":171820.39000000001,"N_COORD97":2546740.1299999999,"ADDRESS":"東橋七路１５３號","OBJECTID":506006},"geometry":{"x":171820.38999999966,"y":2546740.129999999}},{"attributes":{"ID":506034,"DIS_CODE":0,"TOWNNAME":"永康區","LI":"東橋里","LIN":"15鄰","STREET":"東橋七路","SECT":" ","MAREA":" ","LANE":" ","ALLEY":" ","HOUSE_NO":"１５５號","E_COORD97":171818.45999999999,"N_COORD97":2546746.02,"ADDRESS":"東橋七路１５５號","OBJECTID":506007},"geometry":{"x":171818.45999999996,"y":2546746.0200000033}},{"attributes":{"ID":506035,"DIS_CODE":0,"TOWNNAME":"永康區","LI":"東橋里","LIN":"15鄰","STREET":"東橋七路","SECT":" ","MAREA":" ","LANE":" ","ALLEY":" ","HOUSE_NO":"１５７號","E_COORD97":171816.13,"N_COORD97":2546751.04,"ADDRESS":"東橋七路１５７號","OBJECTID":506008},"geometry":{"x":171816.12999999989,"y":2546751.0399999991}},{"attributes":{"ID":506036,"DIS_CODE":0,"TOWNNAME":"永康區","LI":"東橋里","LIN":"15鄰","STREET":"東橋七路","SECT":" ","MAREA":" ","LANE":" ","ALLEY":" ","HOUSE_NO":"１５９號","E_COORD97":171813.73999999999,"N_COORD97":2546756.7000000002,"ADDRESS":"東橋七路１５９號","OBJECTID":506009},"geometry":{"x":171813.74000000022,"y":2546756.6999999993}},{"attributes":{"ID":506037,"DIS_CODE":0,"TOWNNAME":"永康區","LI":"東橋里","LIN":"15鄰","STREET":"東橋七路","SECT":" ","MAREA":" ","LANE":" ","ALLEY":" ","HOUSE_NO":"１６１號","E_COORD97":171811.82000000001,"N_COORD97":2546762.6800000002,"ADDRESS":"東橋七路１６１號","OBJECTID":506010},"geometry":{"x":171811.8200000003,"y":2546762.6800000016}},{"attributes":{"ID":506038,"DIS_CODE":0,"TOWNNAME":"永康區","LI":"東橋里","LIN":"15鄰","STREET":"東橋七路","SECT":" ","MAREA":" ","LANE":" ","ALLEY":" ","HOUSE_NO":"１６５號","E_COORD97":171808.10000000001,"N_COORD97":2546771.4500000002,"ADDRESS":"東橋七路１６５號","OBJECTID":506011},"geometry":{"x":171808.10000000056,"y":2546771.4500000011}},{"attributes":{"ID":506039,"DIS_CODE":0,"TOWNNAME":"永康區","LI":"東橋里","LIN":"15鄰","STREET":"東橋七路","SECT":" ","MAREA":" ","LANE":" ","ALLEY":" ","HOUSE_NO":"１６７號","E_COORD97":171806.10000000001,"N_COORD97":2546775.9199999999,"ADDRESS":"東橋七路１６７號","OBJECTID":506012},"geometry":{"x":171806.10000000149,"y":2546775.9200000018}},{"attributes":{"ID":506040,"DIS_CODE":0,"TOWNNAME":"永康區","LI":"東橋里","LIN":"15鄰","STREET":"東橋七路","SECT":" ","MAREA":" ","LANE":" ","ALLEY":" ","HOUSE_NO":"１６９號","E_COORD97":171804.57000000001,"N_COORD97":2546780.4300000002,"ADDRESS":"東橋七路１６９號","OBJECTID":506013},"geometry":{"x":171804.5700000003,"y":2546780.4299999997}},{"attributes":{"ID":506041,"DIS_CODE":0,"TOWNNAME":"永康區","LI":"東橋里","LIN":"15鄰","STREET":"東橋七路","SECT":" ","MAREA":" ","LANE":" ","ALLEY":" ","HOUSE_NO":"１７１號","E_COORD97":171802.82000000001,"N_COORD97":2546784.71,"ADDRESS":"東橋七路１７１號","OBJECTID":506014},"geometry":{"x":171802.8200000003,"y":2546784.7100000028}},{"attributes":{"ID":506042,"DIS_CODE":0,"TOWNNAME":"安南區","LI":"溪心里","LIN":"15鄰","STREET":"功安四街","SECT":" ","MAREA":" ","LANE":" ","ALLEY":" ","HOUSE_NO":"１７３號","E_COORD97":166056.14000000001,"N_COORD97":2550317.04,"ADDRESS":"功安四街１７３號","OBJECTID":506015},"geometry":{"x":166056.1400000006,"y":2550317.040000001}},{"attributes":{"ID":506043,"DIS_CODE":0,"TOWNNAME":"安南區","LI":"溪心里","LIN":"15鄰","STREET":"功安四街","SECT":" ","MAREA":" ","LANE":" ","ALLEY":" ","HOUSE_NO":"１７５號","E_COORD97":166053.41,"N_COORD97":2550320.5899999999,"ADDRESS":"功安四街１７５號","OBJECTID":506016},"geometry":{"x":166053.41000000108,"y":2550320.5900000017}},{"attributes":{"ID":506044,"DIS_CODE":0,"TOWNNAME":"安南區","LI":"溪心里","LIN":"15鄰","STREET":"功安四街","SECT":" ","MAREA":" ","LANE":" ","ALLEY":" ","HOUSE_NO":"１７７號","E_COORD97":166048.92999999999,"N_COORD97":2550322.6400000001,"ADDRESS":"功安四街１７７號","OBJECTID":506017},"geometry":{"x":166048.93000000063,"y":2550322.6400000006}},{"attributes":{"ID":506045,"DIS_CODE":0,"TOWNNAME":"安南區","LI":"溪心里","LIN":"15鄰","STREET":"功安四街","SECT":" ","MAREA":" ","LANE":" ","ALLEY":" ","HOUSE_NO":"１７９號","E_COORD97":166045.26000000001,"N_COORD97":2550325.6200000001,"ADDRESS":"功安四街１７９號","OBJECTID":506018},"geometry":{"x":166045.26000000071,"y":2550325.620000001}},{"attributes":{"ID":506046,"DIS_CODE":0,"TOWNNAME":"安南區","LI":"溪心里","LIN":"15鄰","STREET":"仁安路","SECT":" ","MAREA":" ","LANE":" ","ALLEY":" ","HOUSE_NO":"２２３號","E_COORD97":166057.01000000001,"N_COORD97":2550304.0600000001,"ADDRESS":"仁安路２２３號","OBJECTID":506019},"geometry":{"x":166057.01000000071,"y":2550304.0600000024}},{"attributes":{"ID":506047,"DIS_CODE":0,"TOWNNAME":"安南區","LI":"溪心里","LIN":"15鄰","STREET":"仁安路","SECT":" ","MAREA":" ","LANE":" ","ALLEY":" ","HOUSE_NO":"２２５號","E_COORD97":166061.73999999999,"N_COORD97":2550305.98,"ADDRESS":"仁安路２２５號","OBJECTID":506020},"geometry":{"x":166061.74000000022,"y":2550305.9800000004}},{"attributes":{"ID":506048,"DIS_CODE":0,"TOWNNAME":"安南區","LI":"溪心里","LIN":"15鄰","STREET":"仁安路","SECT":" ","MAREA":" ","LANE":" ","ALLEY":" ","HOUSE_NO":"２２７號","E_COORD97":166065.28,"N_COORD97":2550308.2799999998,"ADDRESS":"仁安路２２７號","OBJECTID":506021},"geometry":{"x":166065.28000000026,"y":2550308.2800000012}},{"attributes":{"ID":506049,"DIS_CODE":0,"TOWNNAME":"安南區","LI":"溪心里","LIN":"15鄰","STREET":"仁安路","SECT":" ","MAREA":" ","LANE":" ","ALLEY":" ","HOUSE_NO":"２２９號","E_COORD97":166069.01999999999,"N_COORD97":2550311.9500000002,"ADDRESS":"仁安路２２９號","OBJECTID":506022},"geometry":{"x":166069.02000000048,"y":2550311.9499999993}},{"attributes":{"ID":506050,"DIS_CODE":0,"TOWNNAME":"安南區","LI":"溪心里","LIN":"15鄰","STREET":"功安三街","SECT":" ","MAREA":" ","LANE":" ","ALLEY":" ","HOUSE_NO":"１７０號","E_COORD97":166016.60000000001,"N_COORD97":2550309.7799999998,"ADDRESS":"功安三街１７０號","OBJECTID":506023},"geometry":{"x":166016.59999999963,"y":2550309.7799999993}},{"attributes":{"ID":506051,"DIS_CODE":0,"TOWNNAME":"安南區","LI":"溪心里","LIN":"15鄰","STREET":"功安三街","SECT":" ","MAREA":" ","LANE":" ","ALLEY":" ","HOUSE_NO":"１７２號","E_COORD97":166013.70999999999,"N_COORD97":2550313.46,"ADDRESS":"功安三街１７２號","OBJECTID":506024},"geometry":{"x":166013.71000000089,"y":2550313.4600000009}},{"attributes":{"ID":506052,"DIS_CODE":0,"TOWNNAME":"安南區","LI":"安順里","LIN":"15鄰","STREET":"育安一街","SECT":" ","MAREA":" ","LANE":" ","ALLEY":" ","HOUSE_NO":"１４３號","E_COORD97":169479.88,"N_COORD97":2550054.98,"ADDRESS":"育安一街１４３號","OBJECTID":506025},"geometry":{"x":169479.87999999989,"y":2550054.9800000004}},{"attributes":{"ID":506053,"DIS_CODE":0,"TOWNNAME":"中西區","LI":"建國里","LIN":"15鄰","STREET":"新美街","SECT":" ","MAREA":" ","LANE":" ","ALLEY":" ","HOUSE_NO":"２１號","E_COORD97":167991.67999999999,"N_COORD97":2543920.7599999998,"ADDRESS":"新美街２１號","OBJECTID":506026},"geometry":{"x":167991.68000000063,"y":2543920.7600000035}},{"attributes":{"ID":506054,"DIS_CODE":0,"TOWNNAME":"中西區","LI":"建國里","LIN":"15鄰","STREET":"新美街","SECT":" ","MAREA":" ","LANE":" ","ALLEY":" ","HOUSE_NO":"２３號","E_COORD97":167992.95000000001,"N_COORD97":2543924.3500000001,"ADDRESS":"新美街２３號","OBJECTID":506027},"geometry":{"x":167992.95000000019,"y":2543924.3500000015}},{"attributes":{"ID":506055,"DIS_CODE":0,"TOWNNAME":"中西區","LI":"建國里","LIN":"15鄰","STREET":"新美街","SECT":" ","MAREA":" ","LANE":" ","ALLEY":" ","HOUSE_NO":"２５號","E_COORD97":167996.17000000001,"N_COORD97":2543933.79,"ADDRESS":"新美街２５號","OBJECTID":506028},"geometry":{"x":167996.16999999993,"y":2543933.790000001}},{"attributes":{"ID":506056,"DIS_CODE":0,"TOWNNAME":"中西區","LI":"建國里","LIN":"15鄰","STREET":"新美街","SECT":" ","MAREA":" ","LANE":" ","ALLEY":" ","HOUSE_NO":"２９號","E_COORD97":167997.57000000001,"N_COORD97":2543940.3799999999,"ADDRESS":"新美街２９號","OBJECTID":506029},"geometry":{"x":167997.5700000003,"y":2543940.3800000008}},{"attributes":{"ID":506057,"DIS_CODE":0,"TOWNNAME":"中西區","LI":"建國里","LIN":"15鄰","STREET":"新美街","SECT":" ","MAREA":" ","LANE":" ","ALLEY":" ","HOUSE_NO":"３１號","E_COORD97":167998.62,"N_COORD97":2543946.4199999999,"ADDRESS":"新美街３１號","OBJECTID":506030},"geometry":{"x":167998.62000000011,"y":2543946.4199999999}},{"attributes":{"ID":506058,"DIS_CODE":0,"TOWNNAME":"中西區","LI":"建國里","LIN":"15鄰","STREET":"新美街","SECT":" ","MAREA":" ","LANE":" ","ALLEY":" ","HOUSE_NO":"３３號","E_COORD97":168000.45999999999,"N_COORD97":2543950.5800000001,"ADDRESS":"新美街３３號","OBJECTID":506031},"geometry":{"x":168000.46000000089,"y":2543950.5800000019}},{"attributes":{"ID":506059,"DIS_CODE":0,"TOWNNAME":"中西區","LI":"建國里","LIN":"15鄰","STREET":"新美街","SECT":" ","MAREA":" ","LANE":" ","ALLEY":" ","HOUSE_NO":"３５號","E_COORD97":168003.04999999999,"N_COORD97":2543956.9300000002,"ADDRESS":"新美街３５號","OBJECTID":506032},"geometry":{"x":168003.05000000075,"y":2543956.9300000016}},{"attributes":{"ID":506060,"DIS_CODE":0,"TOWNNAME":"中西區","LI":"建國里","LIN":"15鄰","STREET":"新美街","SECT":" ","MAREA":" ","LANE":" ","ALLEY":" ","HOUSE_NO":"３７號","E_COORD97":168004.09,"N_COORD97":2543962.5699999998,"ADDRESS":"新美街３７號","OBJECTID":506033},"geometry":{"x":168004.09000000171,"y":2543962.5700000003}},{"attributes":{"ID":506061,"DIS_CODE":0,"TOWNNAME":"中西區","LI":"建國里","LIN":"15鄰","STREET":"新美街","SECT":" ","MAREA":" ","LANE":" ","ALLEY":" ","HOUSE_NO":"３９號","E_COORD97":168004.64999999999,"N_COORD97":2543970.3300000001,"ADDRESS":"新美街３９號","OBJECTID":506034},"geometry":{"x":168004.6500000013,"y":2543970.3300000001}},{"attributes":{"ID":506062,"DIS_CODE":0,"TOWNNAME":"中西區","LI":"建國里","LIN":"15鄰","STREET":"新美街","SECT":" ","MAREA":" ","LANE":" ","ALLEY":" ","HOUSE_NO":"３號","E_COORD97":167981.57999999999,"N_COORD97":2543892.6699999999,"ADDRESS":"新美街３號","OBJECTID":506035},"geometry":{"x":167981.58000000007,"y":2543892.6699999999}},{"attributes":{"ID":506063,"DIS_CODE":0,"TOWNNAME":"中西區","LI":"建國里","LIN":"15鄰","STREET":"新美街","SECT":" ","MAREA":" ","LANE":" ","ALLEY":" ","HOUSE_NO":"５號","E_COORD97":167982.98000000001,"N_COORD97":2543895.8599999999,"ADDRESS":"新美街５號","OBJECTID":506036},"geometry":{"x":167982.98000000045,"y":2543895.8600000031}},{"attributes":{"ID":506064,"DIS_CODE":0,"TOWNNAME":"中西區","LI":"建國里","LIN":"15鄰","STREET":"新美街","SECT":" ","MAREA":" ","LANE":" ","ALLEY":" ","HOUSE_NO":"７號","E_COORD97":167984.17999999999,"N_COORD97":2543899.8500000001,"ADDRESS":"新美街７號","OBJECTID":506037},"geometry":{"x":167984.1799999997,"y":2543899.8500000015}},{"attributes":{"ID":506065,"DIS_CODE":0,"TOWNNAME":"中西區","LI":"建國里","LIN":"15鄰","STREET":"新美街","SECT":" ","MAREA":" ","LANE":" ","ALLEY":" ","HOUSE_NO":"９號","E_COORD97":167985.38,"N_COORD97":2543903.25,"ADDRESS":"新美街９號","OBJECTID":506038},"geometry":{"x":167985.38000000082,"y":2543903.25}},{"attributes":{"ID":506066,"DIS_CODE":0,"TOWNNAME":"中西區","LI":"建國里","LIN":"15鄰","STREET":"民生路","SECT":"一段","MAREA":" ","LANE":" ","ALLEY":" ","HOUSE_NO":"１７０號","E_COORD97":167980.17999999999,"N_COORD97":2543884.3500000001,"ADDRESS":"民生路一段１７０號","OBJECTID":506039},"geometry":{"x":167980.18000000063,"y":2543884.3499999996}},{"attributes":{"ID":506067,"DIS_CODE":0,"TOWNNAME":"中西區","LI":"建國里","LIN":"15鄰","STREET":"民生路","SECT":"一段","MAREA":" ","LANE":" ","ALLEY":" ","HOUSE_NO":"１７２號","E_COORD97":167973.17999999999,"N_COORD97":2543886.1499999999,"ADDRESS":"民生路一段１７２號","OBJECTID":506040},"geometry":{"x":167973.18000000063,"y":2543886.1500000022}},{"attributes":{"ID":506068,"DIS_CODE":0,"TOWNNAME":"中西區","LI":"永福里","LIN":"15鄰","STREET":"忠義路","SECT":"二段","MAREA":" ","LANE":" ","ALLEY":" ","HOUSE_NO":"８１號","E_COORD97":168270.26000000001,"N_COORD97":2543685.75,"ADDRESS":"忠義路二段８１號","OBJECTID":506041},"geometry":{"x":168270.25999999978,"y":2543685.75}},{"attributes":{"ID":506069,"DIS_CODE":0,"TOWNNAME":"中西區","LI":"永福里","LIN":"15鄰","STREET":"忠義路","SECT":"二段","MAREA":" ","LANE":" ","ALLEY":" ","HOUSE_NO":"８３號","E_COORD97":168272.07000000001,"N_COORD97":2543691.1499999999,"ADDRESS":"忠義路二段８３號","OBJECTID":506042},"geometry":{"x":168272.0700000003,"y":2543691.1499999985}},{"attributes":{"ID":506070,"DIS_CODE":0,"TOWNNAME":"中西區","LI":"永福里","LIN":"15鄰","STREET":"忠義路","SECT":"二段","MAREA":" ","LANE":" ","ALLEY":" ","HOUSE_NO":"８５號","E_COORD97":168273.04000000001,"N_COORD97":2543695.2999999998,"ADDRESS":"忠義路二段８５號","OBJECTID":506043},"geometry":{"x":168273.04000000097,"y":2543695.3000000026}},{"attributes":{"ID":506071,"DIS_CODE":0,"TOWNNAME":"中西區","LI":"永福里","LIN":"15鄰","STREET":"民生路","SECT":"一段","MAREA":" ","LANE":" ","ALLEY":" ","HOUSE_NO":"６７號","E_COORD97":168283.01000000001,"N_COORD97":2543757.7799999998,"ADDRESS":"民生路一段６７號","OBJECTID":506044},"geometry":{"x":168283.01000000071,"y":2543757.7800000012}},{"attributes":{"ID":506072,"DIS_CODE":0,"TOWNNAME":"中西區","LI":"永福里","LIN":"15鄰","STREET":"民生路","SECT":"一段","MAREA":" ","LANE":" ","ALLEY":" ","HOUSE_NO":"６９號","E_COORD97":168278.51999999999,"N_COORD97":2543759.27,"ADDRESS":"民生路一段６９號","OBJECTID":506045},"geometry":{"x":168278.51999999955,"y":2543759.2699999996}},{"attributes":{"ID":506073,"DIS_CODE":0,"TOWNNAME":"中西區","LI":"永福里","LIN":"15鄰","STREET":"民生路","SECT":"一段","MAREA":" ","LANE":" ","ALLEY":" ","HOUSE_NO":"７１號","E_COORD97":168273.76999999999,"N_COORD97":2543759.8399999999,"ADDRESS":"民生路一段７１號","OBJECTID":506046},"geometry":{"x":168273.77000000142,"y":2543759.8399999999}},{"attributes":{"ID":506074,"DIS_CODE":0,"TOWNNAME":"中西區","LI":"永福里","LIN":"15鄰","STREET":"民生路","SECT":"一段","MAREA":" ","LANE":" ","ALLEY":" ","HOUSE_NO":"７３號","E_COORD97":168269.59,"N_COORD97":2543760.8799999999,"ADDRESS":"民生路一段７３號","OBJECTID":506047},"geometry":{"x":168269.58999999985,"y":2543760.8800000008}},{"attributes":{"ID":506075,"DIS_CODE":0,"TOWNNAME":"安南區","LI":"海佃里","LIN":"20鄰","STREET":"海佃路","SECT":"一段","MAREA":" ","LANE":" ","ALLEY":" ","HOUSE_NO":"２２９號","E_COORD97":167087.85000000001,"N_COORD97":2547317.1499999999,"ADDRESS":"海佃路一段２２９號","OBJECTID":506048},"geometry":{"x":167087.84999999963,"y":2547317.1500000022}},{"attributes":{"ID":506076,"DIS_CODE":0,"TOWNNAME":"安南區","LI":"海佃里","LIN":"20鄰","STREET":"海佃路","SECT":"一段","MAREA":" ","LANE":" ","ALLEY":" ","HOUSE_NO":"２３１號","E_COORD97":167088.51999999999,"N_COORD97":2547322.4700000002,"ADDRESS":"海佃路一段２３１號","OBJECTID":506049},"geometry":{"x":167088.51999999955,"y":2547322.4700000007}},{"attributes":{"ID":506077,"DIS_CODE":0,"TOWNNAME":"安南區","LI":"海佃里","LIN":"20鄰","STREET":"海佃路","SECT":"一段","MAREA":" ","LANE":" ","ALLEY":" ","HOUSE_NO":"２３３號","E_COORD97":167087.19,"N_COORD97":2547326.4500000002,"ADDRESS":"海佃路一段２３３號","OBJECTID":506050},"geometry":{"x":167087.19000000134,"y":2547326.4500000011}},{"attributes":{"ID":506078,"DIS_CODE":0,"TOWNNAME":"安南區","LI":"溪墘里","LIN":"20鄰","STREET":"海佃路","SECT":"一段","MAREA":" ","LANE":" ","ALLEY":" ","HOUSE_NO":"４０４號","E_COORD97":167071.19,"N_COORD97":2547673.5299999998,"ADDRESS":"海佃路一段４０４號","OBJECTID":506051},"geometry":{"x":167071.19000000041,"y":2547673.5299999993}},{"attributes":{"ID":506079,"DIS_CODE":0,"TOWNNAME":"安南區","LI":"海東里","LIN":"20鄰","STREET":"海佃路","SECT":"二段","MAREA":" ","LANE":" ","ALLEY":" ","HOUSE_NO":"３０１號","E_COORD97":166794.82000000001,"N_COORD97":2548685.52,"ADDRESS":"海佃路二段３０１號","OBJECTID":506052},"geometry":{"x":166794.82000000123,"y":2548685.5200000033}},{"attributes":{"ID":506080,"DIS_CODE":0,"TOWNNAME":"安南區","LI":"海東里","LIN":"20鄰","STREET":"海佃路","SECT":"二段","MAREA":" ","LANE":" ","ALLEY":" ","HOUSE_NO":"２０５號","E_COORD97":166886.60999999999,"N_COORD97":2548387.1800000002,"ADDRESS":"海佃路二段２０５號","OBJECTID":506053},"geometry":{"x":166886.61000000034,"y":2548387.1800000016}},{"attributes":{"ID":506081,"DIS_CODE":0,"TOWNNAME":"安南區","LI":"海東里","LIN":"20鄰","STREET":"海佃路","SECT":"二段","MAREA":" ","LANE":" ","ALLEY":" ","HOUSE_NO":"２７１號","E_COORD97":166813.35000000001,"N_COORD97":2548614.8999999999,"ADDRESS":"海佃路二段２７１號","OBJECTID":506054},"geometry":{"x":166813.34999999963,"y":2548614.9000000004}},{"attributes":{"ID":506082,"DIS_CODE":0,"TOWNNAME":"安南區","LI":"海東里","LIN":"20鄰","STREET":"海佃路","SECT":"二段","MAREA":" ","LANE":" ","ALLEY":" ","HOUSE_NO":"２７７號","E_COORD97":166804.45000000001,"N_COORD97":2548626.6299999999,"ADDRESS":"海佃路二段２７７號","OBJECTID":506055},"geometry":{"x":166804.45000000019,"y":2548626.6300000027}},{"attributes":{"ID":506083,"DIS_CODE":0,"TOWNNAME":"安南區","LI":"海東里","LIN":"20鄰","STREET":"海佃路","SECT":"二段","MAREA":" ","LANE":" ","ALLEY":" ","HOUSE_NO":"２７９號","E_COORD97":166807.95999999999,"N_COORD97":2548632.1400000001,"ADDRESS":"海佃路二段２７９號","OBJECTID":506056},"geometry":{"x":166807.95999999996,"y":2548632.1400000025}},{"attributes":{"ID":506084,"DIS_CODE":0,"TOWNNAME":"安南區","LI":"海東里","LIN":"20鄰","STREET":"海佃路","SECT":"二段","MAREA":" ","LANE":" ","ALLEY":" ","HOUSE_NO":"２８１號","E_COORD97":166807.04999999999,"N_COORD97":2548636.5099999998,"ADDRESS":"海佃路二段２８１號","OBJECTID":506057},"geometry":{"x":166807.04999999981,"y":2548636.5100000016}},{"attributes":{"ID":506085,"DIS_CODE":0,"TOWNNAME":"安南區","LI":"海東里","LIN":"20鄰","STREET":"海佃路","SECT":"二段","MAREA":" ","LANE":" ","ALLEY":" ","HOUSE_NO":"２８３號","E_COORD97":166805.35000000001,"N_COORD97":2548640.77,"ADDRESS":"海佃路二段２８３號","OBJECTID":506058},"geometry":{"x":166805.35000000149,"y":2548640.7700000014}},{"attributes":{"ID":506086,"DIS_CODE":0,"TOWNNAME":"安南區","LI":"海東里","LIN":"20鄰","STREET":"海佃路","SECT":"二段","MAREA":" ","LANE":" ","ALLEY":" ","HOUSE_NO":"２８７號","E_COORD97":166803.34,"N_COORD97":2548649.7799999998,"ADDRESS":"海佃路二段２８７號","OBJECTID":506059},"geometry":{"x":166803.33999999985,"y":2548649.7800000031}},{"attributes":{"ID":506087,"DIS_CODE":0,"TOWNNAME":"安南區","LI":"海東里","LIN":"20鄰","STREET":"海佃路","SECT":"二段","MAREA":" ","LANE":" ","ALLEY":" ","HOUSE_NO":"２８９號","E_COORD97":166800.95000000001,"N_COORD97":2548653.3300000001,"ADDRESS":"海佃路二段２８９號","OBJECTID":506060},"geometry":{"x":166800.95000000019,"y":2548653.3300000038}},{"attributes":{"ID":506088,"DIS_CODE":0,"TOWNNAME":"安南區","LI":"海東里","LIN":"20鄰","STREET":"海佃路","SECT":"二段","MAREA":" ","LANE":" ","ALLEY":" ","HOUSE_NO":"２９１號","E_COORD97":166800.5,"N_COORD97":2548657.9900000002,"ADDRESS":"海佃路二段２９１號","OBJECTID":506061},"geometry":{"x":166800.5,"y":2548657.9900000002}},{"attributes":{"ID":506089,"DIS_CODE":0,"TOWNNAME":"安南區","LI":"海東里","LIN":"20鄰","STREET":"海佃路","SECT":"二段","MAREA":" ","LANE":" ","ALLEY":" ","HOUSE_NO":"２９５號","E_COORD97":166798.20999999999,"N_COORD97":2548666.5699999998,"ADDRESS":"海佃路二段２９５號","OBJECTID":506062},"geometry":{"x":166798.21000000089,"y":2548666.5700000022}},{"attributes":{"ID":506090,"DIS_CODE":0,"TOWNNAME":"安南區","LI":"海東里","LIN":"20鄰","STREET":"海佃路","SECT":"二段","MAREA":" ","LANE":" ","ALLEY":" ","HOUSE_NO":"２９７號","E_COORD97":166800.06,"N_COORD97":2548672.0600000001,"ADDRESS":"海佃路二段２９７號","OBJECTID":506063},"geometry":{"x":166800.05999999959,"y":2548672.0600000005}},{"attributes":{"ID":506091,"DIS_CODE":0,"TOWNNAME":"安南區","LI":"海東里","LIN":"20鄰","STREET":"海佃路","SECT":"二段","MAREA":" ","LANE":" ","ALLEY":" ","HOUSE_NO":"２９９號","E_COORD97":166797.62,"N_COORD97":2548679.3900000001,"ADDRESS":"海佃路二段２９９號","OBJECTID":506064},"geometry":{"x":166797.62000000104,"y":2548679.3900000006}},{"attributes":{"ID":506092,"DIS_CODE":0,"TOWNNAME":"安南區","LI":"\u25A0南里","LIN":"20鄰","STREET":"環福街","SECT":" ","MAREA":" ","LANE":" ","ALLEY":" ","HOUSE_NO":"１５８號","E_COORD97":170384.64999999999,"N_COORD97":2552577.8399999999,"ADDRESS":"環福街１５８號","OBJECTID":506065},"geometry":{"x":170384.6500000013,"y":2552577.8399999999}},{"attributes":{"ID":506093,"DIS_CODE":0,"TOWNNAME":"南區","LI":"郡南里","LIN":"20鄰","STREET":"中華南路","SECT":"一段","MAREA":" ","LANE":" ","ALLEY":" ","HOUSE_NO":"１０００號","E_COORD97":167613.95000000001,"N_COORD97":2540395.1600000001,"ADDRESS":"中華南路一段１０００號","OBJECTID":506066},"geometry":{"x":167613.95000000112,"y":2540395.1600000001}},{"attributes":{"ID":506094,"DIS_CODE":0,"TOWNNAME":"南區","LI":"郡南里","LIN":"20鄰","STREET":"中華南路","SECT":"二段","MAREA":" ","LANE":" ","ALLEY":" ","HOUSE_NO":"２２號","E_COORD97":167454.26999999999,"N_COORD97":2540347.54,"ADDRESS":"中華南路二段２２號","OBJECTID":506067},"geometry":{"x":167454.26999999955,"y":2540347.5399999991}},{"attributes":{"ID":506095,"DIS_CODE":0,"TOWNNAME":"南區","LI":"郡南里","LIN":"20鄰","STREET":"中華南路","SECT":"二段","MAREA":" ","LANE":" ","ALLEY":" ","HOUSE_NO":"３２號","E_COORD97":167428.54999999999,"N_COORD97":2540343.9700000002,"ADDRESS":"中華南路二段３２號","OBJECTID":506068},"geometry":{"x":167428.55000000075,"y":2540343.9700000025}},{"attributes":{"ID":506096,"DIS_CODE":0,"TOWNNAME":"南區","LI":"郡南里","LIN":"20鄰","STREET":"中華南路","SECT":"二段","MAREA":" ","LANE":" ","ALLEY":" ","HOUSE_NO":"３４號","E_COORD97":167423.63,"N_COORD97":2540343.3300000001,"ADDRESS":"中華南路二段３４號","OBJECTID":506069},"geometry":{"x":167423.62999999989,"y":2540343.3299999982}},{"attributes":{"ID":506097,"DIS_CODE":0,"TOWNNAME":"南區","LI":"郡南里","LIN":"20鄰","STREET":"中華南路","SECT":"二段","MAREA":" ","LANE":" ","ALLEY":" ","HOUSE_NO":"３６號","E_COORD97":167419.19,"N_COORD97":2540342.0600000001,"ADDRESS":"中華南路二段３６號","OBJECTID":506070},"geometry":{"x":167419.19000000227,"y":2540342.0600000005}},{"attributes":{"ID":506098,"DIS_CODE":0,"TOWNNAME":"南區","LI":"郡南里","LIN":"20鄰","STREET":"中華南路","SECT":"二段","MAREA":" ","LANE":" ","ALLEY":" ","HOUSE_NO":"７６號","E_COORD97":167320.42999999999,"N_COORD97":2540324.2799999998,"ADDRESS":"中華南路二段７６號","OBJECTID":506071},"geometry":{"x":167320.43000000063,"y":2540324.2800000012}},{"attributes":{"ID":506099,"DIS_CODE":0,"TOWNNAME":"南區","LI":"郡南里","LIN":"20鄰","STREET":"中華南路","SECT":"二段","MAREA":" ","LANE":" ","ALLEY":" ","HOUSE_NO":"８０號","E_COORD97":167316.89999999999,"N_COORD97":2540322.71,"ADDRESS":"中華南路二段８０號","OBJECTID":506072},"geometry":{"x":167316.90000000037,"y":2540322.7100000028}},{"attributes":{"ID":506100,"DIS_CODE":0,"TOWNNAME":"南區","LI":"郡南里","LIN":"20鄰","STREET":"中華南路","SECT":"二段","MAREA":" ","LANE":" ","ALLEY":" ","HOUSE_NO":"８２號","E_COORD97":167313.95000000001,"N_COORD97":2540321.9300000002,"ADDRESS":"中華南路二段８２號","OBJECTID":506073},"geometry":{"x":167313.95000000112,"y":2540321.9299999978}},{"attributes":{"ID":506101,"DIS_CODE":0,"TOWNNAME":"南區","LI":"郡南里","LIN":"20鄰","STREET":"中華南路","SECT":"二段","MAREA":" ","LANE":" ","ALLEY":" ","HOUSE_NO":"８４號","E_COORD97":167308.66,"N_COORD97":2540320.9500000002,"ADDRESS":"中華南路二段８４號","OBJECTID":506074},"geometry":{"x":167308.66000000015,"y":2540320.9499999993}},{"attributes":{"ID":506102,"DIS_CODE":0,"TOWNNAME":"南區","LI":"郡南里","LIN":"20鄰","STREET":"中華南路","SECT":"二段","MAREA":" ","LANE":" ","ALLEY":" ","HOUSE_NO":"８６號","E_COORD97":167305.51999999999,"N_COORD97":2540320.1600000001,"ADDRESS":"中華南路二段８６號","OBJECTID":506075},"geometry":{"x":167305.51999999955,"y":2540320.1600000001}},{"attributes":{"ID":506103,"DIS_CODE":0,"TOWNNAME":"南區","LI":"郡南里","LIN":"20鄰","STREET":"中華南路","SECT":"二段","MAREA":" ","LANE":" ","ALLEY":" ","HOUSE_NO":"８８號","E_COORD97":167301.01000000001,"N_COORD97":2540318.9900000002,"ADDRESS":"中華南路二段８８號","OBJECTID":506076},"geometry":{"x":167301.01000000164,"y":2540318.9900000039}},{"attributes":{"ID":506104,"DIS_CODE":0,"TOWNNAME":"南區","LI":"郡南里","LIN":"20鄰","STREET":"中華南路","SECT":"二段","MAREA":" ","LANE":" ","ALLEY":" ","HOUSE_NO":"９０號","E_COORD97":167297.67999999999,"N_COORD97":2540317.23,"ADDRESS":"中華南路二段９０號","OBJECTID":506077},"geometry":{"x":167297.6799999997,"y":2540317.2299999986}},{"attributes":{"ID":506105,"DIS_CODE":0,"TOWNNAME":"東區","LI":"文聖里","LIN":"20鄰","STREET":"裕信二街","SECT":" ","MAREA":" ","LANE":" ","ALLEY":" ","HOUSE_NO":"８５號","E_COORD97":172830.70000000001,"N_COORD97":2542677.48,"ADDRESS":"裕信二街８５號","OBJECTID":506078},"geometry":{"x":172830.70000000019,"y":2542677.4800000004}},{"attributes":{"ID":506106,"DIS_CODE":0,"TOWNNAME":"東區","LI":"文聖里","LIN":"20鄰","STREET":"裕信二街","SECT":" ","MAREA":" ","LANE":" ","ALLEY":" ","HOUSE_NO":"８７號","E_COORD97":172838.01000000001,"N_COORD97":2542677.3700000001,"ADDRESS":"裕信二街８７號","OBJECTID":506079},"geometry":{"x":172838.01000000071,"y":2542677.3700000029}},{"attributes":{"ID":506107,"DIS_CODE":0,"TOWNNAME":"東區","LI":"文聖里","LIN":"20鄰","STREET":"裕信二街","SECT":" ","MAREA":" ","LANE":" ","ALLEY":" ","HOUSE_NO":"８９號","E_COORD97":172844.04999999999,"N_COORD97":2542676.7999999998,"ADDRESS":"裕信二街８９號","OBJECTID":506080},"geometry":{"x":172844.05000000168,"y":2542676.7999999989}},{"attributes":{"ID":506108,"DIS_CODE":0,"TOWNNAME":"東區","LI":"文聖里","LIN":"20鄰","STREET":"裕信二街","SECT":" ","MAREA":" ","LANE":" ","ALLEY":" ","HOUSE_NO":"９１號","E_COORD97":172844.62,"N_COORD97":2542664.3599999999,"ADDRESS":"裕信二街９１號","OBJECTID":506081},"geometry":{"x":172844.62000000104,"y":2542664.3599999994}},{"attributes":{"ID":506109,"DIS_CODE":0,"TOWNNAME":"東區","LI":"文聖里","LIN":"20鄰","STREET":"裕文一街","SECT":" ","MAREA":" ","LANE":" ","ALLEY":" ","HOUSE_NO":"２２之１號","E_COORD97":172757.57999999999,"N_COORD97":2542577.3799999999,"ADDRESS":"裕文一街２２之１號","OBJECTID":506082},"geometry":{"x":172757.58000000194,"y":2542577.3800000008}},{"attributes":{"ID":506110,"DIS_CODE":0,"TOWNNAME":"東區","LI":"文聖里","LIN":"20鄰","STREET":"裕文一街","SECT":" ","MAREA":" ","LANE":" ","ALLEY":" ","HOUSE_NO":"２２之２號","E_COORD97":172762.89000000001,"N_COORD97":2542577.3799999999,"ADDRESS":"裕文一街２２之２號","OBJECTID":506083},"geometry":{"x":172762.88999999966,"y":2542577.3800000008}},{"attributes":{"ID":506111,"DIS_CODE":0,"TOWNNAME":"東區","LI":"文聖里","LIN":"20鄰","STREET":"裕文一街","SECT":" ","MAREA":" ","LANE":" ","ALLEY":" ","HOUSE_NO":"２２之３號","E_COORD97":172768.67999999999,"N_COORD97":2542577.3799999999,"ADDRESS":"裕文一街２２之３號","OBJECTID":506084},"geometry":{"x":172768.68000000063,"y":2542577.3800000008}},{"attributes":{"ID":506112,"DIS_CODE":0,"TOWNNAME":"東區","LI":"文聖里","LIN":"20鄰","STREET":"裕文一街","SECT":" ","MAREA":" ","LANE":" ","ALLEY":" ","HOUSE_NO":"２２號","E_COORD97":172750.57000000001,"N_COORD97":2542577.6299999999,"ADDRESS":"裕文一街２２號","OBJECTID":506085},"geometry":{"x":172750.5700000003,"y":2542577.629999999}},{"attributes":{"ID":506113,"DIS_CODE":0,"TOWNNAME":"東區","LI":"文聖里","LIN":"20鄰","STREET":"裕文一街","SECT":" ","MAREA":" ","LANE":" ","ALLEY":" ","HOUSE_NO":"２６號","E_COORD97":172744.06,"N_COORD97":2542587.2799999998,"ADDRESS":"裕文一街２６號","OBJECTID":506086},"geometry":{"x":172744.06000000052,"y":2542587.2799999975}},{"attributes":{"ID":506114,"DIS_CODE":0,"TOWNNAME":"東區","LI":"文聖里","LIN":"20鄰","STREET":"裕文一街","SECT":" ","MAREA":" ","LANE":" ","ALLEY":" ","HOUSE_NO":"２８號","E_COORD97":172750.32999999999,"N_COORD97":2542586.7999999998,"ADDRESS":"裕文一街２８號","OBJECTID":506087},"geometry":{"x":172750.33000000007,"y":2542586.8000000026}},{"attributes":{"ID":506115,"DIS_CODE":0,"TOWNNAME":"東區","LI":"文聖里","LIN":"20鄰","STREET":"裕文一街","SECT":" ","MAREA":" ","LANE":" ","ALLEY":" ","HOUSE_NO":"２８之１號","E_COORD97":172755.89000000001,"N_COORD97":2542586.5600000001,"ADDRESS":"裕文一街２８之１號","OBJECTID":506088},"geometry":{"x":172755.8900000006,"y":2542586.5600000005}},{"attributes":{"ID":506116,"DIS_CODE":0,"TOWNNAME":"東區","LI":"文聖里","LIN":"20鄰","STREET":"裕文一街","SECT":" ","MAREA":" ","LANE":" ","ALLEY":" ","HOUSE_NO":"２８之２號","E_COORD97":172761.92000000001,"N_COORD97":2542586.7999999998,"ADDRESS":"裕文一街２８之２號","OBJECTID":506089},"geometry":{"x":172761.92000000179,"y":2542586.8000000026}},{"attributes":{"ID":506117,"DIS_CODE":0,"TOWNNAME":"東區","LI":"文聖里","LIN":"20鄰","STREET":"裕文一街","SECT":" ","MAREA":" ","LANE":" ","ALLEY":" ","HOUSE_NO":"２８之３號","E_COORD97":172768.44,"N_COORD97":2542586.7999999998,"ADDRESS":"裕文一街２８之３號","OBJECTID":506090},"geometry":{"x":172768.44000000041,"y":2542586.8000000026}},{"attributes":{"ID":506118,"DIS_CODE":0,"TOWNNAME":"東區","LI":"文聖里","LIN":"20鄰","STREET":"裕文路","SECT":" ","MAREA":" ","LANE":" ","ALLEY":" ","HOUSE_NO":"３１５號","E_COORD97":172744.29999999999,"N_COORD97":2542540.2000000002,"ADDRESS":"裕文路３１５號","OBJECTID":506091},"geometry":{"x":172744.30000000075,"y":2542540.1999999993}},{"attributes":{"ID":506119,"DIS_CODE":0,"TOWNNAME":"東區","LI":"文聖里","LIN":"20鄰","STREET":"裕文路","SECT":" ","MAREA":" ","LANE":" ","ALLEY":" ","HOUSE_NO":"３１７號","E_COORD97":172748.39999999999,"N_COORD97":2542537.79,"ADDRESS":"裕文路３１７號","OBJECTID":506092},"geometry":{"x":172748.40000000037,"y":2542537.790000001}},{"attributes":{"ID":506120,"DIS_CODE":0,"TOWNNAME":"東區","LI":"文聖里","LIN":"20鄰","STREET":"裕文路","SECT":" ","MAREA":" ","LANE":" ","ALLEY":" ","HOUSE_NO":"３１９號","E_COORD97":172754.20000000001,"N_COORD97":2542538.7599999998,"ADDRESS":"裕文路３１９號","OBJECTID":506093},"geometry":{"x":172754.20000000112,"y":2542538.7600000016}},{"attributes":{"ID":506121,"DIS_CODE":0,"TOWNNAME":"東區","LI":"關聖里","LIN":"20鄰","STREET":"裕平路","SECT":" ","MAREA":" ","LANE":" ","ALLEY":" ","HOUSE_NO":"２２１號","E_COORD97":172522.70999999999,"N_COORD97":2542841.5,"ADDRESS":"裕平路２２１號","OBJECTID":506094},"geometry":{"x":172522.71000000183,"y":2542841.5000000019}},{"attributes":{"ID":506122,"DIS_CODE":0,"TOWNNAME":"東區","LI":"關聖里","LIN":"20鄰","STREET":"裕平路","SECT":" ","MAREA":" ","LANE":" ","ALLEY":" ","HOUSE_NO":"２３３號","E_COORD97":172555.45999999999,"N_COORD97":2542841.1699999999,"ADDRESS":"裕平路２３３號","OBJECTID":506095},"geometry":{"x":172555.46000000089,"y":2542841.1700000018}},{"attributes":{"ID":506123,"DIS_CODE":0,"TOWNNAME":"東區","LI":"關聖里","LIN":"20鄰","STREET":"裕平路","SECT":" ","MAREA":" ","LANE":" ","ALLEY":" ","HOUSE_NO":"２２３號","E_COORD97":172527.62,"N_COORD97":2542841.8300000001,"ADDRESS":"裕平路２２３號","OBJECTID":506096},"geometry":{"x":172527.62000000104,"y":2542841.8300000001}},{"attributes":{"ID":506124,"DIS_CODE":0,"TOWNNAME":"東區","LI":"關聖里","LIN":"20鄰","STREET":"裕平路","SECT":" ","MAREA":" ","LANE":" ","ALLEY":" ","HOUSE_NO":"２２５號","E_COORD97":172532.85999999999,"N_COORD97":2542841.8300000001,"ADDRESS":"裕平路２２５號","OBJECTID":506097},"geometry":{"x":172532.86000000127,"y":2542841.8300000001}},{"attributes":{"ID":506125,"DIS_CODE":0,"TOWNNAME":"東區","LI":"關聖里","LIN":"20鄰","STREET":"裕平路","SECT":" ","MAREA":" ","LANE":" ","ALLEY":" ","HOUSE_NO":"２２７號","E_COORD97":172539.09,"N_COORD97":2542841.8300000001,"ADDRESS":"裕平路２２７號","OBJECTID":506098},"geometry":{"x":172539.09000000078,"y":2542841.8300000001}},{"attributes":{"ID":506126,"DIS_CODE":0,"TOWNNAME":"東區","LI":"關聖里","LIN":"20鄰","STREET":"裕平路","SECT":" ","MAREA":" ","LANE":" ","ALLEY":" ","HOUSE_NO":"２２９號","E_COORD97":172544.32000000001,"N_COORD97":2542841.5,"ADDRESS":"裕平路２２９號","OBJECTID":506099},"geometry":{"x":172544.32000000216,"y":2542841.5000000019}},{"attributes":{"ID":506127,"DIS_CODE":0,"TOWNNAME":"東區","LI":"關聖里","LIN":"20鄰","STREET":"裕平路","SECT":" ","MAREA":" ","LANE":" ","ALLEY":" ","HOUSE_NO":"２３１號","E_COORD97":172549.89000000001,"N_COORD97":2542841.5,"ADDRESS":"裕平路２３１號","OBJECTID":506100},"geometry":{"x":172549.88999999873,"y":2542841.5000000019}},{"attributes":{"ID":506128,"DIS_CODE":0,"TOWNNAME":"東區","LI":"關聖里","LIN":"20鄰","STREET":"裕平路","SECT":" ","MAREA":" ","LANE":" ","ALLEY":" ","HOUSE_NO":"２３５號","E_COORD97":172560.98999999999,"N_COORD97":2542841.1499999999,"ADDRESS":"裕平路２３５號","OBJECTID":506101},"geometry":{"x":172560.99000000022,"y":2542841.1500000022}},{"attributes":{"ID":506129,"DIS_CODE":0,"TOWNNAME":"東區","LI":"關聖里","LIN":"20鄰","STREET":"裕平路","SECT":" ","MAREA":" ","LANE":" ","ALLEY":" ","HOUSE_NO":"２３７號","E_COORD97":172566.14999999999,"N_COORD97":2542841.3999999999,"ADDRESS":"裕平路２３７號","OBJECTID":506102},"geometry":{"x":172566.1500000013,"y":2542841.4000000004}},{"attributes":{"ID":506130,"DIS_CODE":0,"TOWNNAME":"東區","LI":"關聖里","LIN":"20鄰","STREET":"裕平路","SECT":" ","MAREA":" ","LANE":" ","ALLEY":" ","HOUSE_NO":"２３９號","E_COORD97":172571.94,"N_COORD97":2542841.2799999998,"ADDRESS":"裕平路２３９號","OBJECTID":506103},"geometry":{"x":172571.94000000041,"y":2542841.2799999993}},{"attributes":{"ID":506131,"DIS_CODE":0,"TOWNNAME":"東區","LI":"關聖里","LIN":"20鄰","STREET":"裕平路","SECT":" ","MAREA":" ","LANE":" ","ALLEY":" ","HOUSE_NO":"２４１號","E_COORD97":172576.70999999999,"N_COORD97":2542840.9399999999,"ADDRESS":"裕平路２４１號","OBJECTID":506104},"geometry":{"x":172576.70999999996,"y":2542840.9400000032}},{"attributes":{"ID":506132,"DIS_CODE":0,"TOWNNAME":"東區","LI":"關聖里","LIN":"20鄰","STREET":"裕平路","SECT":" ","MAREA":" ","LANE":" ","ALLEY":" ","HOUSE_NO":"２４３號","E_COORD97":172581.23999999999,"N_COORD97":2542840.8999999999,"ADDRESS":"裕平路２４３號","OBJECTID":506105},"geometry":{"x":172581.24000000115,"y":2542840.9000000004}},{"attributes":{"ID":506133,"DIS_CODE":0,"TOWNNAME":"東區","LI":"關聖里","LIN":"20鄰","STREET":"裕平路","SECT":" ","MAREA":" ","LANE":" ","ALLEY":" ","HOUSE_NO":"２４５號","E_COORD97":172585.91,"N_COORD97":2542841.1699999999,"ADDRESS":"裕平路２４５號","OBJECTID":506106},"geometry":{"x":172585.91000000201,"y":2542841.1700000018}},{"attributes":{"ID":506134,"DIS_CODE":0,"TOWNNAME":"東區","LI":"關聖里","LIN":"20鄰","STREET":"裕平路","SECT":" ","MAREA":" ","LANE":" ","ALLEY":" ","HOUSE_NO":"２４７號","E_COORD97":172589.56,"N_COORD97":2542840.9399999999,"ADDRESS":"裕平路２４７號","OBJECTID":506107},"geometry":{"x":172589.56000000145,"y":2542840.9400000032}},{"attributes":{"ID":506135,"DIS_CODE":0,"TOWNNAME":"東區","LI":"文聖里","LIN":"20鄰","STREET":"裕平路","SECT":" ","MAREA":" ","LANE":" ","ALLEY":" ","HOUSE_NO":"３６８號","E_COORD97":172748,"N_COORD97":2542806.1299999999,"ADDRESS":"裕平路３６８號","OBJECTID":506108},"geometry":{"x":172748.00000000186,"y":2542806.1300000008}},{"attributes":{"ID":506136,"DIS_CODE":0,"TOWNNAME":"東區","LI":"文聖里","LIN":"20鄰","STREET":"裕正街","SECT":" ","MAREA":" ","LANE":" ","ALLEY":" ","HOUSE_NO":"２３號","E_COORD97":172801.07999999999,"N_COORD97":2542653.0299999998,"ADDRESS":"裕正街２３號","OBJECTID":506109},"geometry":{"x":172801.08000000007,"y":2542653.0299999993}},{"attributes":{"ID":506137,"DIS_CODE":0,"TOWNNAME":"東區","LI":"裕聖里","LIN":"20鄰","STREET":"裕忠路","SECT":" ","MAREA":" ","LANE":" ","ALLEY":" ","HOUSE_NO":"３０１號","E_COORD97":172273.35999999999,"N_COORD97":2542328.3399999999,"ADDRESS":"裕忠路３０１號","OBJECTID":506110},"geometry":{"x":172273.36000000127,"y":2542328.3399999999}},{"attributes":{"ID":506138,"DIS_CODE":0,"TOWNNAME":"東區","LI":"裕聖里","LIN":"20鄰","STREET":"裕忠路","SECT":" ","MAREA":" ","LANE":" ","ALLEY":" ","HOUSE_NO":"３０３號","E_COORD97":172272.95999999999,"N_COORD97":2542324.3399999999,"ADDRESS":"裕忠路３０３號","OBJECTID":506111},"geometry":{"x":172272.95999999996,"y":2542324.3400000017}},{"attributes":{"ID":506139,"DIS_CODE":0,"TOWNNAME":"東區","LI":"裕聖里","LIN":"20鄰","STREET":"裕忠路","SECT":" ","MAREA":" ","LANE":" ","ALLEY":" ","HOUSE_NO":"３０５號","E_COORD97":172273.23000000001,"N_COORD97":2542319.7999999998,"ADDRESS":"裕忠路３０５號","OBJECTID":506112},"geometry":{"x":172273.23000000045,"y":2542319.8000000007}},{"attributes":{"ID":506140,"DIS_CODE":0,"TOWNNAME":"東區","LI":"裕聖里","LIN":"20鄰","STREET":"裕忠路","SECT":" ","MAREA":" ","LANE":" ","ALLEY":" ","HOUSE_NO":"３０７號","E_COORD97":172272.69,"N_COORD97":2542314.7200000002,"ADDRESS":"裕忠路３０７號","OBJECTID":506113},"geometry":{"x":172272.69000000134,"y":2542314.7200000044}},{"attributes":{"ID":506141,"DIS_CODE":0,"TOWNNAME":"東區","LI":"裕聖里","LIN":"20鄰","STREET":"裕忠路","SECT":" ","MAREA":" ","LANE":" ","ALLEY":" ","HOUSE_NO":"３０９之７號","E_COORD97":172308.60000000001,"N_COORD97":2542317.5299999998,"ADDRESS":"裕忠路３０９之７號","OBJECTID":506114},"geometry":{"x":172308.60000000056,"y":2542317.5299999993}},{"attributes":{"ID":506142,"DIS_CODE":0,"TOWNNAME":"東區","LI":"裕聖里","LIN":"20鄰","STREET":"裕忠路","SECT":" ","MAREA":" ","LANE":" ","ALLEY":" ","HOUSE_NO":"３０９之１０號","E_COORD97":172323.56,"N_COORD97":2542315.9199999999,"ADDRESS":"裕忠路３０９之１０號","OBJECTID":506115},"geometry":{"x":172323.56000000052,"y":2542315.9200000037}},{"attributes":{"ID":506143,"DIS_CODE":0,"TOWNNAME":"東區","LI":"文聖里","LIN":"20鄰","STREET":"裕信二街","SECT":" ","MAREA":" ","LANE":" ","ALLEY":" ","HOUSE_NO":"１２８號","E_COORD97":172800.01999999999,"N_COORD97":2542668.54,"ADDRESS":"裕信二街１２８號","OBJECTID":506116},"geometry":{"x":172800.02000000048,"y":2542668.540000001}},{"attributes":{"ID":506144,"DIS_CODE":0,"TOWNNAME":"東區","LI":"裕聖里","LIN":"20鄰","STREET":"裕忠路","SECT":" ","MAREA":" ","LANE":" ","ALLEY":" ","HOUSE_NO":"３０９之１１號","E_COORD97":172329.16,"N_COORD97":2542315.79,"ADDRESS":"裕忠路３０９之１１號","OBJECTID":506117},"geometry":{"x":172329.16000000015,"y":2542315.7899999972}},{"attributes":{"ID":506145,"DIS_CODE":0,"TOWNNAME":"東區","LI":"裕聖里","LIN":"20鄰","STREET":"裕忠路","SECT":" ","MAREA":" ","LANE":" ","ALLEY":" ","HOUSE_NO":"３０９之１２號","E_COORD97":172334.76999999999,"N_COORD97":2542315.6600000001,"ADDRESS":"裕忠路３０９之１２號","OBJECTID":506118},"geometry":{"x":172334.76999999955,"y":2542315.660000002}},{"attributes":{"ID":506146,"DIS_CODE":0,"TOWNNAME":"東區","LI":"裕聖里","LIN":"20鄰","STREET":"裕忠路","SECT":" ","MAREA":" ","LANE":" ","ALLEY":" ","HOUSE_NO":"３０９之１３號","E_COORD97":172339.84,"N_COORD97":2542315.9199999999,"ADDRESS":"裕忠路３０９之１３號","OBJECTID":506119},"geometry":{"x":172339.83999999985,"y":2542315.9200000037}},{"attributes":{"ID":506147,"DIS_CODE":0,"TOWNNAME":"東區","LI":"裕聖里","LIN":"20鄰","STREET":"裕忠路","SECT":" ","MAREA":" ","LANE":" ","ALLEY":" ","HOUSE_NO":"３０９之１５號","E_COORD97":172345.32000000001,"N_COORD97":2542315.79,"ADDRESS":"裕忠路３０９之１５號","OBJECTID":506120},"geometry":{"x":172345.3200000003,"y":2542315.7899999972}},{"attributes":{"ID":506148,"DIS_CODE":0,"TOWNNAME":"東區","LI":"裕聖里","LIN":"20鄰","STREET":"裕忠路","SECT":" ","MAREA":" ","LANE":" ","ALLEY":" ","HOUSE_NO":"３０９之１號","E_COORD97":172283.91,"N_COORD97":2542317.3900000001,"ADDRESS":"裕忠路３０９之１號","OBJECTID":506121},"geometry":{"x":172283.91000000015,"y":2542317.3900000025}},{"attributes":{"ID":506149,"DIS_CODE":0,"TOWNNAME":"東區","LI":"裕聖里","LIN":"20鄰","STREET":"裕忠路","SECT":" ","MAREA":" ","LANE":" ","ALLEY":" ","HOUSE_NO":"３０９之６號","E_COORD97":172303.13,"N_COORD97":2542317.5299999998,"ADDRESS":"裕忠路３０９之６號","OBJECTID":506122},"geometry":{"x":172303.13000000082,"y":2542317.5299999993}},{"attributes":{"ID":506150,"DIS_CODE":0,"TOWNNAME":"東區","LI":"裕聖里","LIN":"20鄰","STREET":"裕忠路","SECT":" ","MAREA":" ","LANE":" ","ALLEY":" ","HOUSE_NO":"３０９之５號","E_COORD97":172297.51999999999,"N_COORD97":2542317.5299999998,"ADDRESS":"裕忠路３０９之５號","OBJECTID":506123},"geometry":{"x":172297.51999999955,"y":2542317.5299999993}},{"attributes":{"ID":506151,"DIS_CODE":0,"TOWNNAME":"南區","LI":"文南里","LIN":"20鄰","STREET":"仁南三街","SECT":" ","MAREA":" ","LANE":" ","ALLEY":" ","HOUSE_NO":"２７號","E_COORD97":166489.57000000001,"N_COORD97":2542718.5800000001,"ADDRESS":"仁南三街２７號","OBJECTID":506124},"geometry":{"x":166489.57000000123,"y":2542718.5800000038}},{"attributes":{"ID":506152,"DIS_CODE":0,"TOWNNAME":"東區","LI":"裕聖里","LIN":"20鄰","STREET":"裕忠路","SECT":" ","MAREA":" ","LANE":" ","ALLEY":" ","HOUSE_NO":"３０９之２號","E_COORD97":172288.57999999999,"N_COORD97":2542317.3900000001,"ADDRESS":"裕忠路３０９之２號","OBJECTID":506125},"geometry":{"x":172288.58000000101,"y":2542317.3900000025}},{"attributes":{"ID":506153,"DIS_CODE":0,"TOWNNAME":"東區","LI":"裕聖里","LIN":"20鄰","STREET":"裕忠路","SECT":" ","MAREA":" ","LANE":" ","ALLEY":" ","HOUSE_NO":"３０９之３號","E_COORD97":172293.12,"N_COORD97":2542317.5299999998,"ADDRESS":"裕忠路３０９之３號","OBJECTID":506126},"geometry":{"x":172293.12000000104,"y":2542317.5299999993}},{"attributes":{"ID":506154,"DIS_CODE":0,"TOWNNAME":"東區","LI":"裕聖里","LIN":"20鄰","STREET":"裕忠路","SECT":" ","MAREA":" ","LANE":" ","ALLEY":" ","HOUSE_NO":"３０９之８號","E_COORD97":172313.01000000001,"N_COORD97":2542316.73,"ADDRESS":"裕忠路３０９之８號","OBJECTID":506127},"geometry":{"x":172313.00999999978,"y":2542316.7300000004}},{"attributes":{"ID":506155,"DIS_CODE":0,"TOWNNAME":"東區","LI":"裕聖里","LIN":"20鄰","STREET":"裕忠路","SECT":" ","MAREA":" ","LANE":" ","ALLEY":" ","HOUSE_NO":"３０９之９號","E_COORD97":172318.35000000001,"N_COORD97":2542315.9199999999,"ADDRESS":"裕忠路３０９之９號","OBJECTID":506128},"geometry":{"x":172318.35000000056,"y":2542315.9200000037}},{"attributes":{"ID":506156,"DIS_CODE":0,"TOWNNAME":"東區","LI":"裕聖里","LIN":"20鄰","STREET":"裕忠路","SECT":" ","MAREA":" ","LANE":" ","ALLEY":" ","HOUSE_NO":"３０９號","E_COORD97":172278.82999999999,"N_COORD97":2542317.6600000001,"ADDRESS":"裕忠路３０９號","OBJECTID":506129},"geometry":{"x":172278.83000000007,"y":2542317.6600000001}},{"attributes":{"ID":506157,"DIS_CODE":0,"TOWNNAME":"東區","LI":"裕聖里","LIN":"20鄰","STREET":"裕忠路","SECT":" ","MAREA":" ","LANE":" ","ALLEY":" ","HOUSE_NO":"３１１之１０號","E_COORD97":172323.42000000001,"N_COORD97":2542300.8399999999,"ADDRESS":"裕忠路３１１之１０號","OBJECTID":506130},"geometry":{"x":172323.42000000086,"y":2542300.8400000017}},{"attributes":{"ID":506158,"DIS_CODE":0,"TOWNNAME":"東區","LI":"裕聖里","LIN":"20鄰","STREET":"裕忠路","SECT":" ","MAREA":" ","LANE":" ","ALLEY":" ","HOUSE_NO":"３１１之１１號","E_COORD97":172327.42999999999,"N_COORD97":2542298.8399999999,"ADDRESS":"裕忠路３１１之１１號","OBJECTID":506131},"geometry":{"x":172327.4299999997,"y":2542298.8399999999}},{"attributes":{"ID":506159,"DIS_CODE":0,"TOWNNAME":"東區","LI":"裕聖里","LIN":"20鄰","STREET":"裕忠路","SECT":" ","MAREA":" ","LANE":" ","ALLEY":" ","HOUSE_NO":"３１１之１２號","E_COORD97":172333.29999999999,"N_COORD97":2542300.71,"ADDRESS":"裕忠路３１１之１２號","OBJECTID":506132},"geometry":{"x":172333.29999999981,"y":2542300.7100000009}},{"attributes":{"ID":506160,"DIS_CODE":0,"TOWNNAME":"東區","LI":"裕聖里","LIN":"20鄰","STREET":"裕忠路","SECT":" ","MAREA":" ","LANE":" ","ALLEY":" ","HOUSE_NO":"３１１之１３號","E_COORD97":172337.70999999999,"N_COORD97":2542298.4399999999,"ADDRESS":"裕忠路３１１之１３號","OBJECTID":506133},"geometry":{"x":172337.70999999996,"y":2542298.4400000032}},{"attributes":{"ID":506161,"DIS_CODE":0,"TOWNNAME":"東區","LI":"裕聖里","LIN":"20鄰","STREET":"裕忠路","SECT":" ","MAREA":" ","LANE":" ","ALLEY":" ","HOUSE_NO":"３１１之１５號","E_COORD97":172344.12,"N_COORD97":2542300.71,"ADDRESS":"裕忠路３１１之１５號","OBJECTID":506134},"geometry":{"x":172344.12000000104,"y":2542300.7100000009}},{"attributes":{"ID":506162,"DIS_CODE":0,"TOWNNAME":"東區","LI":"裕聖里","LIN":"20鄰","STREET":"裕忠路","SECT":" ","MAREA":" ","LANE":" ","ALLEY":" ","HOUSE_NO":"３１１之１號","E_COORD97":172284.04000000001,"N_COORD97":2542301.2400000002,"ADDRESS":"裕忠路３１１之１號","OBJECTID":506135},"geometry":{"x":172284.04000000097,"y":2542301.2400000021}},{"attributes":{"ID":506163,"DIS_CODE":0,"TOWNNAME":"東區","LI":"裕聖里","LIN":"20鄰","STREET":"裕忠路","SECT":" ","MAREA":" ","LANE":" ","ALLEY":" ","HOUSE_NO":"３１１之２號","E_COORD97":172288.31,"N_COORD97":2542299.5,"ADDRESS":"裕忠路３１１之２號","OBJECTID":506136},"geometry":{"x":172288.31000000052,"y":2542299.5000000019}},{"attributes":{"ID":506164,"DIS_CODE":0,"TOWNNAME":"東區","LI":"裕聖里","LIN":"20鄰","STREET":"裕忠路","SECT":" ","MAREA":" ","LANE":" ","ALLEY":" ","HOUSE_NO":"３１１之３號","E_COORD97":172292.85000000001,"N_COORD97":2542300.9700000002,"ADDRESS":"裕忠路３１１之３號","OBJECTID":506137},"geometry":{"x":172292.85000000056,"y":2542300.9700000025}},{"attributes":{"ID":506165,"DIS_CODE":0,"TOWNNAME":"東區","LI":"裕聖里","LIN":"20鄰","STREET":"裕忠路","SECT":" ","MAREA":" ","LANE":" ","ALLEY":" ","HOUSE_NO":"３１１之５號","E_COORD97":172296.59,"N_COORD97":2542299.2400000002,"ADDRESS":"裕忠路３１１之５號","OBJECTID":506138},"geometry":{"x":172296.59000000078,"y":2542299.2400000002}},{"attributes":{"ID":506166,"DIS_CODE":0,"TOWNNAME":"東區","LI":"裕聖里","LIN":"20鄰","STREET":"裕忠路","SECT":" ","MAREA":" ","LANE":" ","ALLEY":" ","HOUSE_NO":"３１１之６號","E_COORD97":172302.32999999999,"N_COORD97":2542300.9700000002,"ADDRESS":"裕忠路３１１之６號","OBJECTID":506139},"geometry":{"x":172302.33000000101,"y":2542300.9700000025}},{"attributes":{"ID":506167,"DIS_CODE":0,"TOWNNAME":"東區","LI":"裕聖里","LIN":"20鄰","STREET":"裕忠路","SECT":" ","MAREA":" ","LANE":" ","ALLEY":" ","HOUSE_NO":"３１１之７號","E_COORD97":172307.39999999999,"N_COORD97":2542298.8399999999,"ADDRESS":"裕忠路３１１之７號","OBJECTID":506140},"geometry":{"x":172307.4000000013,"y":2542298.8399999999}},{"attributes":{"ID":506168,"DIS_CODE":0,"TOWNNAME":"東區","LI":"裕聖里","LIN":"20鄰","STREET":"裕忠路","SECT":" ","MAREA":" ","LANE":" ","ALLEY":" ","HOUSE_NO":"３１１之８號","E_COORD97":172311.54000000001,"N_COORD97":2542300.5699999998,"ADDRESS":"裕忠路３１１之８號","OBJECTID":506141},"geometry":{"x":172311.54000000004,"y":2542300.5700000003}},{"attributes":{"ID":506169,"DIS_CODE":0,"TOWNNAME":"東區","LI":"裕聖里","LIN":"20鄰","STREET":"裕忠路","SECT":" ","MAREA":" ","LANE":" ","ALLEY":" ","HOUSE_NO":"３１１之９號","E_COORD97":172316.88,"N_COORD97":2542298.5699999998,"ADDRESS":"裕忠路３１１之９號","OBJECTID":506142},"geometry":{"x":172316.88000000082,"y":2542298.570000004}},{"attributes":{"ID":506170,"DIS_CODE":0,"TOWNNAME":"東區","LI":"裕聖里","LIN":"20鄰","STREET":"裕忠路","SECT":" ","MAREA":" ","LANE":" ","ALLEY":" ","HOUSE_NO":"３１３號","E_COORD97":172272.82999999999,"N_COORD97":2542301.3700000001,"ADDRESS":"裕忠路３１３號","OBJECTID":506143},"geometry":{"x":172272.83000000194,"y":2542301.3700000029}},{"attributes":{"ID":506171,"DIS_CODE":0,"TOWNNAME":"東區","LI":"裕聖里","LIN":"20鄰","STREET":"裕忠路","SECT":" ","MAREA":" ","LANE":" ","ALLEY":" ","HOUSE_NO":"３１５號","E_COORD97":172272.82999999999,"N_COORD97":2542295.6299999999,"ADDRESS":"裕忠路３１５號","OBJECTID":506144},"geometry":{"x":172272.83000000194,"y":2542295.629999999}},{"attributes":{"ID":506172,"DIS_CODE":0,"TOWNNAME":"東區","LI":"裕聖里","LIN":"20鄰","STREET":"裕忠路","SECT":" ","MAREA":" ","LANE":" ","ALLEY":" ","HOUSE_NO":"３１７號","E_COORD97":172272.82999999999,"N_COORD97":2542290.6899999999,"ADDRESS":"裕忠路３１７號","OBJECTID":506145},"geometry":{"x":172272.83000000194,"y":2542290.6900000013}},{"attributes":{"ID":506173,"DIS_CODE":0,"TOWNNAME":"東區","LI":"裕聖里","LIN":"20鄰","STREET":"裕忠路","SECT":" ","MAREA":" ","LANE":" ","ALLEY":" ","HOUSE_NO":"３１９號","E_COORD97":172272.82999999999,"N_COORD97":2542285.75,"ADDRESS":"裕忠路３１９號","OBJECTID":506146},"geometry":{"x":172272.83000000194,"y":2542285.75}},{"attributes":{"ID":506174,"DIS_CODE":0,"TOWNNAME":"東區","LI":"文聖里","LIN":"20鄰","STREET":"裕信二街","SECT":" ","MAREA":" ","LANE":" ","ALLEY":" ","HOUSE_NO":"１００號","E_COORD97":172798.32999999999,"N_COORD97":2542717.0600000001,"ADDRESS":"裕信二街１００號","OBJECTID":506147},"geometry":{"x":172798.33000000194,"y":2542717.0600000024}},{"attributes":{"ID":506175,"DIS_CODE":0,"TOWNNAME":"東區","LI":"文聖里","LIN":"20鄰","STREET":"裕信二街","SECT":" ","MAREA":" ","LANE":" ","ALLEY":" ","HOUSE_NO":"１０２號","E_COORD97":172798.64000000001,"N_COORD97":2542713.3900000001,"ADDRESS":"裕信二街１０２號","OBJECTID":506148},"geometry":{"x":172798.63999999966,"y":2542713.3899999987}},{"attributes":{"ID":506176,"DIS_CODE":0,"TOWNNAME":"東區","LI":"和平里","LIN":"20鄰","STREET":"仁和路","SECT":" ","MAREA":" ","LANE":" ","ALLEY":" ","HOUSE_NO":"４５之３３號","E_COORD97":171096,"N_COORD97":2541928.1200000001,"ADDRESS":"仁和路４５之３３號","OBJECTID":506149},"geometry":{"x":171096,"y":2541928.120000001}},{"attributes":{"ID":506177,"DIS_CODE":0,"TOWNNAME":"東區","LI":"和平里","LIN":"20鄰","STREET":"仁和路","SECT":" ","MAREA":" ","LANE":" ","ALLEY":" ","HOUSE_NO":"６５號之２","E_COORD97":171349.69,"N_COORD97":2541678.6400000001,"ADDRESS":"仁和路６５號之２","OBJECTID":506150},"geometry":{"x":171349.69000000041,"y":2541678.6400000025}},{"attributes":{"ID":506178,"DIS_CODE":0,"TOWNNAME":"東區","LI":"和平里","LIN":"20鄰","STREET":"仁和路","SECT":" ","MAREA":" ","LANE":" ","ALLEY":" ","HOUSE_NO":"３９之１２號","E_COORD97":171085.23999999999,"N_COORD97":2541985.9500000002,"ADDRESS":"仁和路３９之１２號","OBJECTID":506151},"geometry":{"x":171085.24000000209,"y":2541985.9499999974}},{"attributes":{"ID":506179,"DIS_CODE":0,"TOWNNAME":"東區","LI":"和平里","LIN":"20鄰","STREET":"仁和路","SECT":" ","MAREA":" ","LANE":" ","ALLEY":" ","HOUSE_NO":"３９之１１號","E_COORD97":171084.70000000001,"N_COORD97":2541989.8100000001,"ADDRESS":"仁和路３９之１１號","OBJECTID":506152},"geometry":{"x":171084.70000000019,"y":2541989.8100000024}},{"attributes":{"ID":506180,"DIS_CODE":0,"TOWNNAME":"東區","LI":"和平里","LIN":"20鄰","STREET":"仁和路","SECT":" ","MAREA":" ","LANE":" ","ALLEY":" ","HOUSE_NO":"３９之１０號","E_COORD97":171084.04999999999,"N_COORD97":2541994.0600000001,"ADDRESS":"仁和路３９之１０號","OBJECTID":506153},"geometry":{"x":171084.04999999981,"y":2541994.0600000024}},{"attributes":{"ID":506181,"DIS_CODE":0,"TOWNNAME":"東區","LI":"和平里","LIN":"20鄰","STREET":"仁和路","SECT":" ","MAREA":" ","LANE":" ","ALLEY":" ","HOUSE_NO":"３９之１號","E_COORD97":171077.60000000001,"N_COORD97":2542025.8399999999,"ADDRESS":"仁和路３９之１號","OBJECTID":506154},"geometry":{"x":171077.60000000056,"y":2542025.8400000017}},{"attributes":{"ID":506182,"DIS_CODE":0,"TOWNNAME":"東區","LI":"和平里","LIN":"20鄰","STREET":"仁和路","SECT":" ","MAREA":" ","LANE":" ","ALLEY":" ","HOUSE_NO":"３９之２號","E_COORD97":171081.26000000001,"N_COORD97":2542023.5299999998,"ADDRESS":"仁和路３９之２號","OBJECTID":506155},"geometry":{"x":171081.26000000164,"y":2542023.5300000012}},{"attributes":{"ID":506183,"DIS_CODE":0,"TOWNNAME":"東區","LI":"和平里","LIN":"20鄰","STREET":"仁和路","SECT":" ","MAREA":" ","LANE":" ","ALLEY":" ","HOUSE_NO":"３９之３號","E_COORD97":171081.59,"N_COORD97":2542019.9300000002,"ADDRESS":"仁和路３９之３號","OBJECTID":506156},"geometry":{"x":171081.59000000078,"y":2542019.9299999997}},{"attributes":{"ID":506184,"DIS_CODE":0,"TOWNNAME":"東區","LI":"和平里","LIN":"20鄰","STREET":"仁和路","SECT":" ","MAREA":" ","LANE":" ","ALLEY":" ","HOUSE_NO":"３９之５號","E_COORD97":171082.07999999999,"N_COORD97":2542015.6800000002,"ADDRESS":"仁和路３９之５號","OBJECTID":506157},"geometry":{"x":171082.08000000007,"y":2542015.6800000034}},{"attributes":{"ID":506185,"DIS_CODE":0,"TOWNNAME":"東區","LI":"和平里","LIN":"20鄰","STREET":"仁和路","SECT":" ","MAREA":" ","LANE":" ","ALLEY":" ","HOUSE_NO":"３９之６號","E_COORD97":171080.14999999999,"N_COORD97":2542009.7200000002,"ADDRESS":"仁和路３９之６號","OBJECTID":506158},"geometry":{"x":171080.15000000037,"y":2542009.7200000044}},{"attributes":{"ID":506186,"DIS_CODE":0,"TOWNNAME":"東區","LI":"和平里","LIN":"20鄰","STREET":"仁和路","SECT":" ","MAREA":" ","LANE":" ","ALLEY":" ","HOUSE_NO":"３９之７號","E_COORD97":171080.14999999999,"N_COORD97":2542006.6000000001,"ADDRESS":"仁和路３９之７號","OBJECTID":506159},"geometry":{"x":171080.15000000037,"y":2542006.6000000015}},{"attributes":{"ID":506187,"DIS_CODE":0,"TOWNNAME":"東區","LI":"和平里","LIN":"20鄰","STREET":"仁和路","SECT":" ","MAREA":" ","LANE":" ","ALLEY":" ","HOUSE_NO":"３９之８號","E_COORD97":171082.57000000001,"N_COORD97":2542002.4100000001,"ADDRESS":"仁和路３９之８號","OBJECTID":506160},"geometry":{"x":171082.5700000003,"y":2542002.410000002}},{"attributes":{"ID":506188,"DIS_CODE":0,"TOWNNAME":"東區","LI":"和平里","LIN":"20鄰","STREET":"仁和路","SECT":" ","MAREA":" ","LANE":" ","ALLEY":" ","HOUSE_NO":"３９之９號","E_COORD97":171084.20999999999,"N_COORD97":2541998.1600000001,"ADDRESS":"仁和路３９之９號","OBJECTID":506161},"geometry":{"x":171084.21000000089,"y":2541998.1600000001}},{"attributes":{"ID":506189,"DIS_CODE":0,"TOWNNAME":"東區","LI":"和平里","LIN":"20鄰","STREET":"仁和路","SECT":" ","MAREA":" ","LANE":" ","ALLEY":" ","HOUSE_NO":"３９號","E_COORD97":171077.32000000001,"N_COORD97":2542032.0699999998,"ADDRESS":"仁和路３９號","OBJECTID":506162},"geometry":{"x":171077.3200000003,"y":2542032.0700000022}},{"attributes":{"ID":506190,"DIS_CODE":0,"TOWNNAME":"東區","LI":"文聖里","LIN":"20鄰","STREET":"裕文路","SECT":" ","MAREA":" ","LANE":" ","ALLEY":" ","HOUSE_NO":"３５３號","E_COORD97":172826.91,"N_COORD97":2542538.4399999999,"ADDRESS":"裕文路３５３號","OBJECTID":506163},"geometry":{"x":172826.91000000108,"y":2542538.4399999995}},{"attributes":{"ID":506191,"DIS_CODE":0,"TOWNNAME":"東區","LI":"文聖里","LIN":"20鄰","STREET":"裕文路","SECT":" ","MAREA":" ","LANE":" ","ALLEY":" ","HOUSE_NO":"３５５號","E_COORD97":172831.5,"N_COORD97":2542537.79,"ADDRESS":"裕文路３５５號","OBJECTID":506164},"geometry":{"x":172831.50000000093,"y":2542537.790000001}},{"attributes":{"ID":506192,"DIS_CODE":0,"TOWNNAME":"東區","LI":"文聖里","LIN":"20鄰","STREET":"裕文路","SECT":" ","MAREA":" ","LANE":" ","ALLEY":" ","HOUSE_NO":"３５７號","E_COORD97":172836.41,"N_COORD97":2542538.1099999999,"ADDRESS":"裕文路３５７號","OBJECTID":506165},"geometry":{"x":172836.41000000015,"y":2542538.1100000031}},{"attributes":{"ID":506193,"DIS_CODE":0,"TOWNNAME":"東區","LI":"文聖里","LIN":"20鄰","STREET":"裕信二街","SECT":" ","MAREA":" ","LANE":" ","ALLEY":" ","HOUSE_NO":"１９１號","E_COORD97":172820.69,"N_COORD97":2542554.4900000002,"ADDRESS":"裕信二街１９１號","OBJECTID":506166},"geometry":{"x":172820.69000000134,"y":2542554.4900000021}},{"attributes":{"ID":506194,"DIS_CODE":0,"TOWNNAME":"東區","LI":"文聖里","LIN":"20鄰","STREET":"裕信二街","SECT":" ","MAREA":" ","LANE":" ","ALLEY":" ","HOUSE_NO":"１９３號","E_COORD97":172821.35000000001,"N_COORD97":2542547.2799999998,"ADDRESS":"裕信二街１９３號","OBJECTID":506167},"geometry":{"x":172821.3499999987,"y":2542547.2800000012}},{"attributes":{"ID":506195,"DIS_CODE":0,"TOWNNAME":"東區","LI":"文聖里","LIN":"20鄰","STREET":"裕信二街","SECT":" ","MAREA":" ","LANE":" ","ALLEY":" ","HOUSE_NO":"７６號","E_COORD97":172767.79999999999,"N_COORD97":2542744.1699999999,"ADDRESS":"裕信二街７６號","OBJECTID":506168},"geometry":{"x":172767.80000000168,"y":2542744.1699999999}},{"attributes":{"ID":506196,"DIS_CODE":0,"TOWNNAME":"東區","LI":"大智里","LIN":"20鄰","STREET":"崇善十五街","SECT":" ","MAREA":" ","LANE":" ","ALLEY":" ","HOUSE_NO":"１２之１號","E_COORD97":171399.38,"N_COORD97":2540569.8900000001,"ADDRESS":"崇善十五街１２之１號","OBJECTID":506169},"geometry":{"x":171399.38000000175,"y":2540569.8900000006}},{"attributes":{"ID":506197,"DIS_CODE":0,"TOWNNAME":"東區","LI":"和平里","LIN":"20鄰","STREET":"文化五街","SECT":" ","MAREA":" ","LANE":" ","ALLEY":" ","HOUSE_NO":"１１號","E_COORD97":171164.19,"N_COORD97":2541766.77,"ADDRESS":"文化五街１１號","OBJECTID":506170},"geometry":{"x":171164.19000000134,"y":2541766.7699999996}},{"attributes":{"ID":506198,"DIS_CODE":0,"TOWNNAME":"東區","LI":"和平里","LIN":"20鄰","STREET":"文化五街","SECT":" ","MAREA":" ","LANE":" ","ALLEY":" ","HOUSE_NO":"１３號","E_COORD97":171167.79000000001,"N_COORD97":2541768.7400000002,"ADDRESS":"文化五街１３號","OBJECTID":506171},"geometry":{"x":171167.7900000019,"y":2541768.7400000021}},{"attributes":{"ID":506199,"DIS_CODE":0,"TOWNNAME":"東區","LI":"和平里","LIN":"20鄰","STREET":"文化五街","SECT":" ","MAREA":" ","LANE":" ","ALLEY":" ","HOUSE_NO":"５號","E_COORD97":171153.53,"N_COORD97":2541765.5499999998,"ADDRESS":"文化五街５號","OBJECTID":506172},"geometry":{"x":171153.53000000119,"y":2541765.5500000007}},{"attributes":{"ID":506200,"DIS_CODE":0,"TOWNNAME":"東區","LI":"和平里","LIN":"20鄰","STREET":"文化五街","SECT":" ","MAREA":" ","LANE":" ","ALLEY":" ","HOUSE_NO":"１５號","E_COORD97":171172.54000000001,"N_COORD97":2541769.5499999998,"ADDRESS":"文化五街１５號","OBJECTID":506173},"geometry":{"x":171172.54000000004,"y":2541769.5500000007}},{"attributes":{"ID":506201,"DIS_CODE":0,"TOWNNAME":"東區","LI":"和平里","LIN":"20鄰","STREET":"文化五街","SECT":" ","MAREA":" ","LANE":" ","ALLEY":" ","HOUSE_NO":"１７號","E_COORD97":171176.47,"N_COORD97":2541771.8500000001,"ADDRESS":"文化五街１７號","OBJECTID":506174},"geometry":{"x":171176.4700000016,"y":2541771.8500000015}},{"attributes":{"ID":506202,"DIS_CODE":0,"TOWNNAME":"東區","LI":"和平里","LIN":"20鄰","STREET":"文化五街","SECT":" ","MAREA":" ","LANE":" ","ALLEY":" ","HOUSE_NO":"１９號","E_COORD97":171181.54999999999,"N_COORD97":2541772.5,"ADDRESS":"文化五街１９號","OBJECTID":506175},"geometry":{"x":171181.55000000075,"y":2541772.5}},{"attributes":{"ID":506203,"DIS_CODE":0,"TOWNNAME":"東區","LI":"和平里","LIN":"20鄰","STREET":"文化五街","SECT":" ","MAREA":" ","LANE":" ","ALLEY":" ","HOUSE_NO":"２１號","E_COORD97":171186.45999999999,"N_COORD97":2541774.2999999998,"ADDRESS":"文化五街２１號","OBJECTID":506176},"geometry":{"x":171186.45999999996,"y":2541774.3000000007}},{"attributes":{"ID":506204,"DIS_CODE":0,"TOWNNAME":"東區","LI":"和平里","LIN":"20鄰","STREET":"文化五街","SECT":" ","MAREA":" ","LANE":" ","ALLEY":" ","HOUSE_NO":"２５號","E_COORD97":171194.48000000001,"N_COORD97":2541778.0699999998,"ADDRESS":"文化五街２５號","OBJECTID":506177},"geometry":{"x":171194.48000000138,"y":2541778.0700000003}},{"attributes":{"ID":506205,"DIS_CODE":0,"TOWNNAME":"東區","LI":"和平里","LIN":"20鄰","STREET":"文化五街","SECT":" ","MAREA":" ","LANE":" ","ALLEY":" ","HOUSE_NO":"２７號","E_COORD97":171202.17999999999,"N_COORD97":2541780.3599999999,"ADDRESS":"文化五街２７號","OBJECTID":506178},"geometry":{"x":171202.18000000156,"y":2541780.3600000031}},{"attributes":{"ID":506206,"DIS_CODE":0,"TOWNNAME":"東區","LI":"和平里","LIN":"20鄰","STREET":"文化五街","SECT":" ","MAREA":" ","LANE":" ","ALLEY":" ","HOUSE_NO":"２９號","E_COORD97":171209.22,"N_COORD97":2541782.98,"ADDRESS":"文化五街２９號","OBJECTID":506179},"geometry":{"x":171209.22000000067,"y":2541782.9800000004}},{"attributes":{"ID":506207,"DIS_CODE":0,"TOWNNAME":"東區","LI":"和平里","LIN":"20鄰","STREET":"文化五街","SECT":" ","MAREA":" ","LANE":" ","ALLEY":" ","HOUSE_NO":"３１號","E_COORD97":171216.42000000001,"N_COORD97":2541785.4399999999,"ADDRESS":"文化五街３１號","OBJECTID":506180},"geometry":{"x":171216.42000000086,"y":2541785.4399999995}},{"attributes":{"ID":506208,"DIS_CODE":0,"TOWNNAME":"東區","LI":"和平里","LIN":"20鄰","STREET":"文化五街","SECT":" ","MAREA":" ","LANE":" ","ALLEY":" ","HOUSE_NO":"３３號","E_COORD97":171222.32000000001,"N_COORD97":2541787.3999999999,"ADDRESS":"文化五街３３號","OBJECTID":506181},"geometry":{"x":171222.32000000123,"y":2541787.3999999985}},{"attributes":{"ID":506209,"DIS_CODE":0,"TOWNNAME":"東區","LI":"和平里","LIN":"20鄰","STREET":"文化五街","SECT":" ","MAREA":" ","LANE":" ","ALLEY":" ","HOUSE_NO":"３５號","E_COORD97":171226.89999999999,"N_COORD97":2541790.1800000002,"ADDRESS":"文化五街３５號","OBJECTID":506182},"geometry":{"x":171226.9000000013,"y":2541790.1799999997}},{"attributes":{"ID":506210,"DIS_CODE":0,"TOWNNAME":"東區","LI":"和平里","LIN":"20鄰","STREET":"文化五街","SECT":" ","MAREA":" ","LANE":" ","ALLEY":" ","HOUSE_NO":"３７號","E_COORD97":171232.79000000001,"N_COORD97":2541792.48,"ADDRESS":"文化五街３７號","OBJECTID":506183},"geometry":{"x":171232.79000000097,"y":2541792.4800000004}},{"attributes":{"ID":506211,"DIS_CODE":0,"TOWNNAME":"安南區","LI":"長安里","LIN":"20鄰","STREET":"長溪路","SECT":"三段","MAREA":" ","LANE":" ","ALLEY":" ","HOUSE_NO":"３８２號","E_COORD97":167688.76999999999,"N_COORD97":2552036.1699999999,"ADDRESS":"長溪路三段３８２號","OBJECTID":506184},"geometry":{"x":167688.76999999862,"y":2552036.1700000018}},{"attributes":{"ID":506212,"DIS_CODE":0,"TOWNNAME":"安南區","LI":"長安里","LIN":"20鄰","STREET":"長溪路","SECT":"三段","MAREA":" ","LANE":" ","ALLEY":" ","HOUSE_NO":"３８４號","E_COORD97":167690.5,"N_COORD97":2552044.23,"ADDRESS":"長溪路三段３８４號","OBJECTID":506185},"geometry":{"x":167690.5,"y":2552044.2300000004}},{"attributes":{"ID":506213,"DIS_CODE":0,"TOWNNAME":"安南區","LI":"長安里","LIN":"20鄰","STREET":"長溪路","SECT":"三段","MAREA":" ","LANE":" ","ALLEY":" ","HOUSE_NO":"３８６號","E_COORD97":167687.20000000001,"N_COORD97":2552047.2799999998,"ADDRESS":"長溪路三段３８６號","OBJECTID":506186},"geometry":{"x":167687.20000000112,"y":2552047.2800000012}},{"attributes":{"ID":506214,"DIS_CODE":0,"TOWNNAME":"安南區","LI":"長安里","LIN":"20鄰","STREET":"長溪路","SECT":"三段","MAREA":" ","LANE":" ","ALLEY":" ","HOUSE_NO":"４０８號","E_COORD97":167666.39000000001,"N_COORD97":2552061.0699999998,"ADDRESS":"長溪路三段４０８號","OBJECTID":506187},"geometry":{"x":167666.3900000006,"y":2552061.0700000003}},{"attributes":{"ID":506215,"DIS_CODE":0,"TOWNNAME":"安南區","LI":"長安里","LIN":"20鄰","STREET":"長溪路","SECT":"三段","MAREA":" ","LANE":" ","ALLEY":" ","HOUSE_NO":"４１４號","E_COORD97":167656.5,"N_COORD97":2552077.48,"ADDRESS":"長溪路三段４１４號","OBJECTID":506188},"geometry":{"x":167656.5,"y":2552077.4800000023}},{"attributes":{"ID":506216,"DIS_CODE":0,"TOWNNAME":"南區","LI":"郡南里","LIN":"20鄰","STREET":"中華南路","SECT":"二段","MAREA":" ","LANE":" ","ALLEY":" ","HOUSE_NO":"７８號","E_COORD97":167318.25,"N_COORD97":2540323.8199999998,"ADDRESS":"中華南路二段７８號","OBJECTID":506189},"geometry":{"x":167318.25000000186,"y":2540323.8200000022}},{"attributes":{"ID":506217,"DIS_CODE":0,"TOWNNAME":"南區","LI":"大林里","LIN":"20鄰","STREET":"大林路","SECT":" ","MAREA":" ","LANE":" ","ALLEY":" ","HOUSE_NO":"１２１號","E_COORD97":169097.34,"N_COORD97":2541766.4199999999,"ADDRESS":"大林路１２１號","OBJECTID":506190},"geometry":{"x":169097.33999999892,"y":2541766.4199999999}},{"attributes":{"ID":506218,"DIS_CODE":0,"TOWNNAME":"南區","LI":"文南里","LIN":"20鄰","STREET":"仁南二街","SECT":" ","MAREA":" ","LANE":" ","ALLEY":" ","HOUSE_NO":"３１號","E_COORD97":166450.70000000001,"N_COORD97":2542674.3900000001,"ADDRESS":"仁南二街３１號","OBJECTID":506191},"geometry":{"x":166450.70000000019,"y":2542674.3900000025}},{"attributes":{"ID":506219,"DIS_CODE":0,"TOWNNAME":"南區","LI":"文南里","LIN":"20鄰","STREET":"仁南三街","SECT":" ","MAREA":" ","LANE":" ","ALLEY":" ","HOUSE_NO":"２５號","E_COORD97":166481.47,"N_COORD97":2542719.2200000002,"ADDRESS":"仁南三街２５號","OBJECTID":506192},"geometry":{"x":166481.47000000067,"y":2542719.2200000025}},{"attributes":{"ID":506220,"DIS_CODE":0,"TOWNNAME":"南區","LI":"文南里","LIN":"20鄰","STREET":"南功街","SECT":" ","MAREA":" ","LANE":" ","ALLEY":" ","HOUSE_NO":"３９號","E_COORD97":166498.78,"N_COORD97":2542729.77,"ADDRESS":"南功街３９號","OBJECTID":506193},"geometry":{"x":166498.78000000026,"y":2542729.7699999996}},{"attributes":{"ID":506221,"DIS_CODE":0,"TOWNNAME":"南區","LI":"文南里","LIN":"20鄰","STREET":"仁南三街","SECT":" ","MAREA":" ","LANE":" ","ALLEY":" ","HOUSE_NO":"３６號","E_COORD97":166464.23999999999,"N_COORD97":2542700.5299999998,"ADDRESS":"仁南三街３６號","OBJECTID":506194},"geometry":{"x":166464.24000000209,"y":2542700.5299999993}},{"attributes":{"ID":506222,"DIS_CODE":0,"TOWNNAME":"安南區","LI":"安順里","LIN":"20鄰","STREET":"育安一街","SECT":" ","MAREA":" ","LANE":" ","ALLEY":" ","HOUSE_NO":"１４２號","E_COORD97":169505.57999999999,"N_COORD97":2549963.0699999998,"ADDRESS":"育安一街１４２號","OBJECTID":506195},"geometry":{"x":169505.58000000007,"y":2549963.0700000003}},{"attributes":{"ID":506223,"DIS_CODE":0,"TOWNNAME":"安南區","LI":"安順里","LIN":"20鄰","STREET":"育安一街","SECT":" ","MAREA":" ","LANE":" ","ALLEY":" ","HOUSE_NO":"１４６號","E_COORD97":169505.42999999999,"N_COORD97":2549971.6699999999,"ADDRESS":"育安一街１４６號","OBJECTID":506196},"geometry":{"x":169505.43000000063,"y":2549971.6699999999}},{"attributes":{"ID":506224,"DIS_CODE":0,"TOWNNAME":"安南區","LI":"安順里","LIN":"20鄰","STREET":"育安一街","SECT":" ","MAREA":" ","LANE":" ","ALLEY":" ","HOUSE_NO":"１４８號","E_COORD97":169504.89999999999,"N_COORD97":2549975.7799999998,"ADDRESS":"育安一街１４８號","OBJECTID":506197},"geometry":{"x":169504.9000000013,"y":2549975.7800000012}},{"attributes":{"ID":506225,"DIS_CODE":0,"TOWNNAME":"安南區","LI":"安順里","LIN":"20鄰","STREET":"育安街","SECT":" ","MAREA":" ","LANE":" ","ALLEY":" ","HOUSE_NO":"１５１號","E_COORD97":169562.32000000001,"N_COORD97":2549938.6899999999,"ADDRESS":"育安街１５１號","OBJECTID":506198},"geometry":{"x":169562.3200000003,"y":2549938.6900000032}},{"attributes":{"ID":506226,"DIS_CODE":0,"TOWNNAME":"安南區","LI":"安順里","LIN":"20鄰","STREET":"育安街","SECT":" ","MAREA":" ","LANE":" ","ALLEY":" ","HOUSE_NO":"１５３號","E_COORD97":169560.73999999999,"N_COORD97":2549943.4100000001,"ADDRESS":"育安街１５３號","OBJECTID":506199},"geometry":{"x":169560.74000000022,"y":2549943.4100000001}},{"attributes":{"ID":506227,"DIS_CODE":0,"TOWNNAME":"安南區","LI":"安順里","LIN":"20鄰","STREET":"育安街","SECT":" ","MAREA":" ","LANE":" ","ALLEY":" ","HOUSE_NO":"１５５號","E_COORD97":169560.73999999999,"N_COORD97":2549947.3500000001,"ADDRESS":"育安街１５５號","OBJECTID":506200},"geometry":{"x":169560.74000000022,"y":2549947.3499999996}}]}