{"displayFieldName":"TOWNNAME","fieldAliases":{"ID":"ID","DIS_CODE":"DIS_CODE","TOWNNAME":"TOWNNAME","LI":"LI","LIN":"LIN","STREET":"STREET","SECT":"SECT","MAREA":"MAREA","LANE":"LANE","ALLEY":"ALLEY","HOUSE_NO":"HOUSE_NO","E_COORD97":"E_COORD97","N_COORD97":"N_COORD97","ADDRESS":"ADDRESS","OBJECTID":"OBJECTID"},"geometryType":"esriGeometryPoint","spatialReference":{"wkid":102443,"latestWkid":3826},"fields":[{"name":"ID","type":"esriFieldTypeDouble","alias":"ID"},{"name":"DIS_CODE","type":"esriFieldTypeInteger","alias":"DIS_CODE"},{"name":"TOWNNAME","type":"esriFieldTypeString","alias":"TOWNNAME","length":8},{"name":"LI","type":"esriFieldTypeString","alias":"LI","length":8},{"name":"LIN","type":"esriFieldTypeString","alias":"LIN","length":12},{"name":"STREET","type":"esriFieldTypeString","alias":"STREET","length":20},{"name":"SECT","type":"esriFieldTypeString","alias":"SECT","length":8},{"name":"MAREA","type":"esriFieldTypeString","alias":"MAREA","length":12},{"name":"LANE","type":"esriFieldTypeString","alias":"LANE","length":10},{"name":"ALLEY","type":"esriFieldTypeString","alias":"ALLEY","length":10},{"name":"HOUSE_NO","type":"esriFieldTypeString","alias":"HOUSE_NO","length":20},{"name":"E_COORD97","type":"esriFieldTypeDouble","alias":"E_COORD97"},{"name":"N_COORD97","type":"esriFieldTypeDouble","alias":"N_COORD97"},{"name":"ADDRESS","type":"esriFieldTypeString","alias":"ADDRESS","length":50},{"name":"OBJECTID","type":"esriFieldTypeOID","alias":"OBJECTID"}],"features":[{"attributes":{"ID":529028,"DIS_CODE":0,"TOWNNAME":"南區","LI":"郡南里","LIN":"6鄰","STREET":"德興路","SECT":" ","MAREA":" ","LANE":" ","ALLEY":" ","HOUSE_NO":"１１１號","E_COORD97":167219.14000000001,"N_COORD97":2540549.4199999999,"ADDRESS":"德興路１１１號","OBJECTID":529001},"geometry":{"x":167219.1400000006,"y":2540549.4199999981}},{"attributes":{"ID":529029,"DIS_CODE":0,"TOWNNAME":"南區","LI":"郡南里","LIN":"6鄰","STREET":"德興路","SECT":" ","MAREA":" ","LANE":" ","ALLEY":" ","HOUSE_NO":"１１３號","E_COORD97":167218.84,"N_COORD97":2540545,"ADDRESS":"德興路１１３號","OBJECTID":529002},"geometry":{"x":167218.83999999985,"y":2540545}},{"attributes":{"ID":529030,"DIS_CODE":0,"TOWNNAME":"南區","LI":"郡南里","LIN":"6鄰","STREET":"德興路","SECT":" ","MAREA":" ","LANE":" ","ALLEY":" ","HOUSE_NO":"１１５號","E_COORD97":167218.84,"N_COORD97":2540539.9900000002,"ADDRESS":"德興路１１５號","OBJECTID":529003},"geometry":{"x":167218.83999999985,"y":2540539.9900000021}},{"attributes":{"ID":529031,"DIS_CODE":0,"TOWNNAME":"南區","LI":"郡南里","LIN":"6鄰","STREET":"德興路","SECT":" ","MAREA":" ","LANE":" ","ALLEY":" ","HOUSE_NO":"１１７號","E_COORD97":167217.95999999999,"N_COORD97":2540536.46,"ADDRESS":"德興路１１７號","OBJECTID":529004},"geometry":{"x":167217.95999999996,"y":2540536.4600000009}},{"attributes":{"ID":529032,"DIS_CODE":0,"TOWNNAME":"安南區","LI":"\u25A0南里","LIN":"6鄰","STREET":"安昌街","SECT":" ","MAREA":" ","LANE":" ","ALLEY":" ","HOUSE_NO":"１８５號","E_COORD97":170111.10999999999,"N_COORD97":2552480.4900000002,"ADDRESS":"安昌街１８５號","OBJECTID":529005},"geometry":{"x":170111.11000000034,"y":2552480.4900000021}},{"attributes":{"ID":529033,"DIS_CODE":0,"TOWNNAME":"安南區","LI":"\u25A0南里","LIN":"6鄰","STREET":"安昌街","SECT":" ","MAREA":" ","LANE":" ","ALLEY":" ","HOUSE_NO":"１９７號","E_COORD97":170110.70000000001,"N_COORD97":2552490.8199999998,"ADDRESS":"安昌街１９７號","OBJECTID":529006},"geometry":{"x":170110.70000000205,"y":2552490.8200000003}},{"attributes":{"ID":529034,"DIS_CODE":0,"TOWNNAME":"安南區","LI":"\u25A0南里","LIN":"6鄰","STREET":"安昌街","SECT":" ","MAREA":" ","LANE":" ","ALLEY":" ","HOUSE_NO":"２０１號","E_COORD97":170110.70000000001,"N_COORD97":2552498.7599999998,"ADDRESS":"安昌街２０１號","OBJECTID":529007},"geometry":{"x":170110.70000000205,"y":2552498.7600000016}},{"attributes":{"ID":529035,"DIS_CODE":0,"TOWNNAME":"安南區","LI":"\u25A0南里","LIN":"6鄰","STREET":"安昌街","SECT":" ","MAREA":" ","LANE":" ","ALLEY":" ","HOUSE_NO":"２０５號","E_COORD97":170110.70000000001,"N_COORD97":2552505.6499999999,"ADDRESS":"安昌街２０５號","OBJECTID":529008},"geometry":{"x":170110.70000000205,"y":2552505.6500000004}},{"attributes":{"ID":529036,"DIS_CODE":0,"TOWNNAME":"安南區","LI":"\u25A0南里","LIN":"6鄰","STREET":"安昌街","SECT":" ","MAREA":" ","LANE":" ","ALLEY":" ","HOUSE_NO":"２０９號","E_COORD97":170110.25,"N_COORD97":2552513.1400000001,"ADDRESS":"安昌街２０９號","OBJECTID":529009},"geometry":{"x":170110.25000000186,"y":2552513.1400000006}},{"attributes":{"ID":529037,"DIS_CODE":0,"TOWNNAME":"南區","LI":"喜北里","LIN":"6鄰","STREET":"喜樹路","SECT":" ","MAREA":" ","LANE":" ","ALLEY":" ","HOUSE_NO":"９０號之１","E_COORD97":165872.29000000001,"N_COORD97":2538407.0600000001,"ADDRESS":"喜樹路９０號之１","OBJECTID":529010},"geometry":{"x":165872.29000000097,"y":2538407.0600000024}},{"attributes":{"ID":529038,"DIS_CODE":0,"TOWNNAME":"南區","LI":"喜東里","LIN":"6鄰","STREET":"喜樹路","SECT":" ","MAREA":" ","LANE":" ","ALLEY":" ","HOUSE_NO":"１０９號","E_COORD97":165903.09,"N_COORD97":2538266.0099999998,"ADDRESS":"喜樹路１０９號","OBJECTID":529011},"geometry":{"x":165903.08999999985,"y":2538266.0099999998}},{"attributes":{"ID":529039,"DIS_CODE":0,"TOWNNAME":"南區","LI":"喜東里","LIN":"6鄰","STREET":"喜樹路","SECT":" ","MAREA":" ","LANE":" ","ALLEY":" ","HOUSE_NO":"１１３號","E_COORD97":165901.35000000001,"N_COORD97":2538251.1400000001,"ADDRESS":"喜樹路１１３號","OBJECTID":529012},"geometry":{"x":165901.34999999963,"y":2538251.1400000025}},{"attributes":{"ID":529040,"DIS_CODE":0,"TOWNNAME":"南區","LI":"喜東里","LIN":"6鄰","STREET":"喜樹路","SECT":" ","MAREA":" ","LANE":" ","ALLEY":" ","HOUSE_NO":"１１７號之１","E_COORD97":165900.54000000001,"N_COORD97":2538233.6899999999,"ADDRESS":"喜樹路１１７號之１","OBJECTID":529013},"geometry":{"x":165900.54000000004,"y":2538233.6899999995}},{"attributes":{"ID":529041,"DIS_CODE":0,"TOWNNAME":"南區","LI":"喜東里","LIN":"6鄰","STREET":"喜樹路","SECT":" ","MAREA":" ","LANE":" ","ALLEY":" ","HOUSE_NO":"１２１號","E_COORD97":165900.54000000001,"N_COORD97":2538218.8199999998,"ADDRESS":"喜樹路１２１號","OBJECTID":529014},"geometry":{"x":165900.54000000004,"y":2538218.8200000022}},{"attributes":{"ID":529042,"DIS_CODE":0,"TOWNNAME":"南區","LI":"喜東里","LIN":"6鄰","STREET":"喜樹路","SECT":" ","MAREA":" ","LANE":" ","ALLEY":" ","HOUSE_NO":"１２３號","E_COORD97":165900.64000000001,"N_COORD97":2538214.1299999999,"ADDRESS":"喜樹路１２３號","OBJECTID":529015},"geometry":{"x":165900.63999999966,"y":2538214.129999999}},{"attributes":{"ID":529043,"DIS_CODE":0,"TOWNNAME":"永康區","LI":"埔園里","LIN":"6鄰","STREET":"中山路","SECT":" ","MAREA":" ","LANE":" ","ALLEY":" ","HOUSE_NO":"１６０號","E_COORD97":173774.81,"N_COORD97":2547810.4199999999,"ADDRESS":"中山路１６０號","OBJECTID":529016},"geometry":{"x":173774.81000000052,"y":2547810.4199999999}},{"attributes":{"ID":529044,"DIS_CODE":0,"TOWNNAME":"永康區","LI":"烏竹里","LIN":"6鄰","STREET":"龍橋街","SECT":" ","MAREA":" ","LANE":" ","ALLEY":" ","HOUSE_NO":"４３９號","E_COORD97":174401.84,"N_COORD97":2549288.2000000002,"ADDRESS":"龍橋街４３９號","OBJECTID":529017},"geometry":{"x":174401.84000000078,"y":2549288.2000000011}},{"attributes":{"ID":529045,"DIS_CODE":0,"TOWNNAME":"永康區","LI":"烏竹里","LIN":"6鄰","STREET":"龍橋街","SECT":" ","MAREA":" ","LANE":" ","ALLEY":" ","HOUSE_NO":"４５２號","E_COORD97":174453.75,"N_COORD97":2549305.27,"ADDRESS":"龍橋街４５２號","OBJECTID":529018},"geometry":{"x":174453.75000000093,"y":2549305.2700000014}},{"attributes":{"ID":529046,"DIS_CODE":0,"TOWNNAME":"永康區","LI":"埔園里","LIN":"6鄰","STREET":"中山路","SECT":" ","MAREA":" ","LANE":" ","ALLEY":" ","HOUSE_NO":"２０２之１號","E_COORD97":173746.26999999999,"N_COORD97":2547899,"ADDRESS":"中山路２０２之１號","OBJECTID":529019},"geometry":{"x":173746.27000000048,"y":2547899}},{"attributes":{"ID":529047,"DIS_CODE":0,"TOWNNAME":"永康區","LI":"神洲里","LIN":"6鄰","STREET":"忠孝路","SECT":" ","MAREA":" ","LANE":" ","ALLEY":" ","HOUSE_NO":"５２號","E_COORD97":172096.23000000001,"N_COORD97":2544748.3900000001,"ADDRESS":"忠孝路５２號","OBJECTID":529020},"geometry":{"x":172096.23000000138,"y":2544748.3900000025}},{"attributes":{"ID":529048,"DIS_CODE":0,"TOWNNAME":"永康區","LI":"埔園里","LIN":"6鄰","STREET":"中山路","SECT":" ","MAREA":" ","LANE":" ","ALLEY":" ","HOUSE_NO":"１６２號","E_COORD97":173773.51999999999,"N_COORD97":2547816.1699999999,"ADDRESS":"中山路１６２號","OBJECTID":529021},"geometry":{"x":173773.52000000048,"y":2547816.1699999999}},{"attributes":{"ID":529049,"DIS_CODE":0,"TOWNNAME":"永康區","LI":"埔園里","LIN":"6鄰","STREET":"中山路","SECT":" ","MAREA":" ","LANE":" ","ALLEY":" ","HOUSE_NO":"１８０號","E_COORD97":173768.88,"N_COORD97":2547865,"ADDRESS":"中山路１８０號","OBJECTID":529022},"geometry":{"x":173768.87999999989,"y":2547865}},{"attributes":{"ID":529050,"DIS_CODE":0,"TOWNNAME":"永康區","LI":"勝利里","LIN":"6鄰","STREET":"勝利街","SECT":" ","MAREA":" ","LANE":" ","ALLEY":" ","HOUSE_NO":"８號","E_COORD97":171188.01000000001,"N_COORD97":2544570.2599999998,"ADDRESS":"勝利街８號","OBJECTID":529023},"geometry":{"x":171188.01000000164,"y":2544570.2599999998}},{"attributes":{"ID":529051,"DIS_CODE":0,"TOWNNAME":"麻豆區","LI":"中興里","LIN":"6鄰","STREET":"中興街","SECT":" ","MAREA":" ","LANE":" ","ALLEY":" ","HOUSE_NO":"４３號","E_COORD97":172909.84,"N_COORD97":2564543.75,"ADDRESS":"中興街４３號","OBJECTID":529024},"geometry":{"x":172909.84000000171,"y":2564543.75}},{"attributes":{"ID":529052,"DIS_CODE":0,"TOWNNAME":"永康區","LI":"烏竹里","LIN":"6鄰","STREET":"龍橋街","SECT":" ","MAREA":" ","LANE":" ","ALLEY":" ","HOUSE_NO":"４２８號","E_COORD97":174437.45999999999,"N_COORD97":2549235.1000000001,"ADDRESS":"龍橋街４２８號","OBJECTID":529025},"geometry":{"x":174437.45999999996,"y":2549235.1000000015}},{"attributes":{"ID":529053,"DIS_CODE":0,"TOWNNAME":"麻豆區","LI":"中興里","LIN":"6鄰","STREET":"中興街","SECT":" ","MAREA":" ","LANE":" ","ALLEY":" ","HOUSE_NO":"４５號","E_COORD97":172910.53,"N_COORD97":2564539.5899999999,"ADDRESS":"中興街４５號","OBJECTID":529026},"geometry":{"x":172910.53000000026,"y":2564539.5900000017}},{"attributes":{"ID":529054,"DIS_CODE":0,"TOWNNAME":"麻豆區","LI":"中興里","LIN":"6鄰","STREET":"中興街","SECT":" ","MAREA":" ","LANE":" ","ALLEY":" ","HOUSE_NO":"４９號","E_COORD97":172912.10999999999,"N_COORD97":2564528.6099999999,"ADDRESS":"中興街４９號","OBJECTID":529027},"geometry":{"x":172912.1100000022,"y":2564528.6100000013}},{"attributes":{"ID":529055,"DIS_CODE":0,"TOWNNAME":"永康區","LI":"烏竹里","LIN":"6鄰","STREET":"龍橋街","SECT":" ","MAREA":" ","LANE":" ","ALLEY":" ","HOUSE_NO":"４３０號","E_COORD97":174434.95999999999,"N_COORD97":2549241.3900000001,"ADDRESS":"龍橋街４３０號","OBJECTID":529028},"geometry":{"x":174434.96000000183,"y":2549241.3900000025}},{"attributes":{"ID":529056,"DIS_CODE":0,"TOWNNAME":"永康區","LI":"埔園里","LIN":"6鄰","STREET":"中山路","SECT":" ","MAREA":" ","LANE":" ","ALLEY":" ","HOUSE_NO":"２０２號","E_COORD97":173747.42999999999,"N_COORD97":2547894.75,"ADDRESS":"中山路２０２號","OBJECTID":529029},"geometry":{"x":173747.4299999997,"y":2547894.7500000019}},{"attributes":{"ID":529057,"DIS_CODE":0,"TOWNNAME":"永康區","LI":"烏竹里","LIN":"6鄰","STREET":"龍橋街","SECT":" ","MAREA":" ","LANE":" ","ALLEY":" ","HOUSE_NO":"４２５號","E_COORD97":174410.01999999999,"N_COORD97":2549242.8700000001,"ADDRESS":"龍橋街４２５號","OBJECTID":529030},"geometry":{"x":174410.01999999955,"y":2549242.870000001}},{"attributes":{"ID":529058,"DIS_CODE":0,"TOWNNAME":"安南區","LI":"淵東里","LIN":"6鄰","STREET":"本原街","SECT":"三段","MAREA":" ","LANE":" ","ALLEY":" ","HOUSE_NO":"１７６號","E_COORD97":165487.32999999999,"N_COORD97":2550356.3399999999,"ADDRESS":"本原街三段１７６號","OBJECTID":529031},"geometry":{"x":165487.33000000101,"y":2550356.3400000017}},{"attributes":{"ID":529059,"DIS_CODE":0,"TOWNNAME":"安南區","LI":"淵東里","LIN":"6鄰","STREET":"本原街","SECT":"三段","MAREA":" ","LANE":" ","ALLEY":" ","HOUSE_NO":"１９４號","E_COORD97":165463.84,"N_COORD97":2550351.1699999999,"ADDRESS":"本原街三段１９４號","OBJECTID":529032},"geometry":{"x":165463.83999999985,"y":2550351.1699999999}},{"attributes":{"ID":529060,"DIS_CODE":0,"TOWNNAME":"安南區","LI":"淵東里","LIN":"6鄰","STREET":"本原街","SECT":"三段","MAREA":" ","LANE":" ","ALLEY":" ","HOUSE_NO":"１９８號","E_COORD97":165454.57000000001,"N_COORD97":2550349.02,"ADDRESS":"本原街三段１９８號","OBJECTID":529033},"geometry":{"x":165454.5700000003,"y":2550349.0199999996}},{"attributes":{"ID":529061,"DIS_CODE":0,"TOWNNAME":"安南區","LI":"淵東里","LIN":"6鄰","STREET":"本原街","SECT":"三段","MAREA":" ","LANE":" ","ALLEY":" ","HOUSE_NO":"２０２號","E_COORD97":165439.12,"N_COORD97":2550358.8500000001,"ADDRESS":"本原街三段２０２號","OBJECTID":529034},"geometry":{"x":165439.12000000011,"y":2550358.8500000015}},{"attributes":{"ID":529062,"DIS_CODE":0,"TOWNNAME":"安南區","LI":"淵東里","LIN":"6鄰","STREET":"本原街","SECT":"三段","MAREA":" ","LANE":" ","ALLEY":" ","HOUSE_NO":"２０６號","E_COORD97":165429.87,"N_COORD97":2550341.8900000001,"ADDRESS":"本原街三段２０６號","OBJECTID":529035},"geometry":{"x":165429.87000000104,"y":2550341.8900000043}},{"attributes":{"ID":529063,"DIS_CODE":0,"TOWNNAME":"安南區","LI":"淵東里","LIN":"6鄰","STREET":"本原街","SECT":"三段","MAREA":" ","LANE":" ","ALLEY":" ","HOUSE_NO":"２０８號","E_COORD97":165423.26999999999,"N_COORD97":2550338.8799999999,"ADDRESS":"本原街三段２０８號","OBJECTID":529036},"geometry":{"x":165423.26999999955,"y":2550338.879999999}},{"attributes":{"ID":529064,"DIS_CODE":0,"TOWNNAME":"安南區","LI":"淵東里","LIN":"6鄰","STREET":"本原街","SECT":"三段","MAREA":" ","LANE":" ","ALLEY":" ","HOUSE_NO":"２１０號","E_COORD97":165407.23000000001,"N_COORD97":2550354.3300000001,"ADDRESS":"本原街三段２１０號","OBJECTID":529037},"geometry":{"x":165407.23000000138,"y":2550354.3300000001}},{"attributes":{"ID":529065,"DIS_CODE":0,"TOWNNAME":"安南區","LI":"淵東里","LIN":"6鄰","STREET":"本原街","SECT":"三段","MAREA":" ","LANE":" ","ALLEY":" ","HOUSE_NO":"２１２號","E_COORD97":165402.32000000001,"N_COORD97":2550352.8199999998,"ADDRESS":"本原街三段２１２號","OBJECTID":529038},"geometry":{"x":165402.3200000003,"y":2550352.8200000022}},{"attributes":{"ID":529066,"DIS_CODE":0,"TOWNNAME":"安南區","LI":"淵東里","LIN":"6鄰","STREET":"本原街","SECT":"三段","MAREA":" ","LANE":" ","ALLEY":" ","HOUSE_NO":"２２０號","E_COORD97":165397.43622199999,"N_COORD97":2550327.35825,"ADDRESS":"本原街三段２２０號","OBJECTID":529039},"geometry":{"x":165397.43622200098,"y":2550327.3582509998}},{"attributes":{"ID":529067,"DIS_CODE":0,"TOWNNAME":"安南區","LI":"淵東里","LIN":"6鄰","STREET":"本原街","SECT":"三段","MAREA":" ","LANE":" ","ALLEY":" ","HOUSE_NO":"２２６號","E_COORD97":165379.215624,"N_COORD97":2550314.3407600001,"ADDRESS":"本原街三段２２６號","OBJECTID":529040},"geometry":{"x":165379.21562399995,"y":2550314.3407579996}},{"attributes":{"ID":529068,"DIS_CODE":0,"TOWNNAME":"新市區","LI":"新和里","LIN":"6鄰","STREET":"富強路","SECT":" ","MAREA":" ","LANE":" ","ALLEY":" ","HOUSE_NO":"３９號","E_COORD97":177303.37,"N_COORD97":2552430.75,"ADDRESS":"富強路３９號","OBJECTID":529041},"geometry":{"x":177303.37000000011,"y":2552430.7500000037}},{"attributes":{"ID":529069,"DIS_CODE":0,"TOWNNAME":"新市區","LI":"新和里","LIN":"6鄰","STREET":"富強路","SECT":" ","MAREA":" ","LANE":" ","ALLEY":" ","HOUSE_NO":"３３號","E_COORD97":177316.70999999999,"N_COORD97":2552436.75,"ADDRESS":"富強路３３號","OBJECTID":529042},"geometry":{"x":177316.71000000183,"y":2552436.75}},{"attributes":{"ID":529070,"DIS_CODE":0,"TOWNNAME":"新市區","LI":"永就里","LIN":"6鄰","STREET":"中華路","SECT":" ","MAREA":" ","LANE":" ","ALLEY":" ","HOUSE_NO":"１３８號","E_COORD97":177707.48999999999,"N_COORD97":2551552.5,"ADDRESS":"中華路１３８號","OBJECTID":529043},"geometry":{"x":177707.49000000115,"y":2551552.5000000019}},{"attributes":{"ID":529071,"DIS_CODE":0,"TOWNNAME":"新市區","LI":"新和里","LIN":"6鄰","STREET":"富強路","SECT":" ","MAREA":" ","LANE":" ","ALLEY":" ","HOUSE_NO":"６之２號","E_COORD97":177383.10000000001,"N_COORD97":2552500.2999999998,"ADDRESS":"富強路６之２號","OBJECTID":529044},"geometry":{"x":177383.0999999987,"y":2552500.3000000026}},{"attributes":{"ID":529072,"DIS_CODE":0,"TOWNNAME":"新市區","LI":"新和里","LIN":"6鄰","STREET":"富強路","SECT":" ","MAREA":" ","LANE":" ","ALLEY":" ","HOUSE_NO":"１２號","E_COORD97":177310.59,"N_COORD97":2552486.5,"ADDRESS":"富強路１２號","OBJECTID":529045},"geometry":{"x":177310.59000000171,"y":2552486.5000000037}},{"attributes":{"ID":529073,"DIS_CODE":0,"TOWNNAME":"南區","LI":"再興里","LIN":"17鄰","STREET":"金華路","SECT":"二段","MAREA":" ","LANE":" ","ALLEY":" ","HOUSE_NO":"１５２號","E_COORD97":167098.12,"N_COORD97":2542218.7200000002,"ADDRESS":"金華路二段１５２號","OBJECTID":529046},"geometry":{"x":167098.12000000011,"y":2542218.7200000007}},{"attributes":{"ID":529074,"DIS_CODE":0,"TOWNNAME":"南區","LI":"再興里","LIN":"17鄰","STREET":"金華路","SECT":"二段","MAREA":" ","LANE":" ","ALLEY":" ","HOUSE_NO":"１５４號","E_COORD97":167098.44,"N_COORD97":2542223.4300000002,"ADDRESS":"金華路二段１５４號","OBJECTID":529047},"geometry":{"x":167098.44000000041,"y":2542223.4299999997}},{"attributes":{"ID":529075,"DIS_CODE":0,"TOWNNAME":"南區","LI":"再興里","LIN":"17鄰","STREET":"金華路","SECT":"二段","MAREA":" ","LANE":" ","ALLEY":" ","HOUSE_NO":"１５８號","E_COORD97":167099.17000000001,"N_COORD97":2542231.5899999999,"ADDRESS":"金華路二段１５８號","OBJECTID":529048},"geometry":{"x":167099.17000000086,"y":2542231.5900000017}},{"attributes":{"ID":529076,"DIS_CODE":0,"TOWNNAME":"南區","LI":"再興里","LIN":"17鄰","STREET":"金華路","SECT":"二段","MAREA":" ","LANE":" ","ALLEY":" ","HOUSE_NO":"１６０號","E_COORD97":167099.38,"N_COORD97":2542235.7799999998,"ADDRESS":"金華路二段１６０號","OBJECTID":529049},"geometry":{"x":167099.38000000082,"y":2542235.7800000012}},{"attributes":{"ID":529077,"DIS_CODE":0,"TOWNNAME":"南區","LI":"再興里","LIN":"20鄰","STREET":"金華路","SECT":"二段","MAREA":" ","LANE":" ","ALLEY":" ","HOUSE_NO":"６６號","E_COORD97":167079.59,"N_COORD97":2541990.6699999999,"ADDRESS":"金華路二段６６號","OBJECTID":529050},"geometry":{"x":167079.58999999985,"y":2541990.6699999999}},{"attributes":{"ID":529078,"DIS_CODE":0,"TOWNNAME":"南區","LI":"再興里","LIN":"20鄰","STREET":"金華路","SECT":"二段","MAREA":" ","LANE":" ","ALLEY":" ","HOUSE_NO":"６８號","E_COORD97":167080.73000000001,"N_COORD97":2541996.4700000002,"ADDRESS":"金華路二段６８號","OBJECTID":529051},"geometry":{"x":167080.73000000045,"y":2541996.4700000007}},{"attributes":{"ID":529079,"DIS_CODE":0,"TOWNNAME":"南區","LI":"再興里","LIN":"20鄰","STREET":"金華路","SECT":"二段","MAREA":" ","LANE":" ","ALLEY":" ","HOUSE_NO":"７０號","E_COORD97":167080.94,"N_COORD97":2542008.1899999999,"ADDRESS":"金華路二段７０號","OBJECTID":529052},"geometry":{"x":167080.94000000041,"y":2542008.1899999995}},{"attributes":{"ID":529080,"DIS_CODE":0,"TOWNNAME":"南區","LI":"再興里","LIN":"20鄰","STREET":"金華路","SECT":"二段","MAREA":" ","LANE":" ","ALLEY":" ","HOUSE_NO":"７２號","E_COORD97":167081.67000000001,"N_COORD97":2542012.8999999999,"ADDRESS":"金華路二段７２號","OBJECTID":529053},"geometry":{"x":167081.67000000086,"y":2542012.9000000022}},{"attributes":{"ID":529081,"DIS_CODE":0,"TOWNNAME":"南區","LI":"再興里","LIN":"20鄰","STREET":"金華路","SECT":"二段","MAREA":" ","LANE":" ","ALLEY":" ","HOUSE_NO":"７４號","E_COORD97":167082.19,"N_COORD97":2542020.96,"ADDRESS":"金華路二段７４號","OBJECTID":529054},"geometry":{"x":167082.19000000134,"y":2542020.9600000009}},{"attributes":{"ID":529082,"DIS_CODE":0,"TOWNNAME":"南區","LI":"再興里","LIN":"20鄰","STREET":"金華路","SECT":"二段","MAREA":" ","LANE":" ","ALLEY":" ","HOUSE_NO":"７６號","E_COORD97":167082.82000000001,"N_COORD97":2542027.4500000002,"ADDRESS":"金華路二段７６號","OBJECTID":529055},"geometry":{"x":167082.82000000123,"y":2542027.4500000011}},{"attributes":{"ID":529083,"DIS_CODE":0,"TOWNNAME":"東區","LI":"成大里","LIN":"6鄰","STREET":"民族路","SECT":"一段","MAREA":" ","LANE":" ","ALLEY":" ","HOUSE_NO":"１９之２號","E_COORD97":169527.47,"N_COORD97":2543830.1400000001,"ADDRESS":"民族路一段１９之２號","OBJECTID":529056},"geometry":{"x":169527.47000000067,"y":2543830.1400000006}},{"attributes":{"ID":529084,"DIS_CODE":0,"TOWNNAME":"東區","LI":"成大里","LIN":"6鄰","STREET":"民族路","SECT":"一段","MAREA":" ","LANE":" ","ALLEY":" ","HOUSE_NO":"１９之３號","E_COORD97":169527.47,"N_COORD97":2543826.4700000002,"ADDRESS":"民族路一段１９之３號","OBJECTID":529057},"geometry":{"x":169527.47000000067,"y":2543826.4700000025}},{"attributes":{"ID":529085,"DIS_CODE":0,"TOWNNAME":"東區","LI":"成大里","LIN":"6鄰","STREET":"民族路","SECT":"一段","MAREA":" ","LANE":" ","ALLEY":" ","HOUSE_NO":"１９之５號","E_COORD97":169527.47,"N_COORD97":2543823.29,"ADDRESS":"民族路一段１９之５號","OBJECTID":529058},"geometry":{"x":169527.47000000067,"y":2543823.2899999991}},{"attributes":{"ID":529086,"DIS_CODE":0,"TOWNNAME":"東區","LI":"成大里","LIN":"6鄰","STREET":"民族路","SECT":"一段","MAREA":" ","LANE":" ","ALLEY":" ","HOUSE_NO":"１９之６號","E_COORD97":169527.22,"N_COORD97":2543819.3799999999,"ADDRESS":"民族路一段１９之６號","OBJECTID":529059},"geometry":{"x":169527.22000000067,"y":2543819.379999999}},{"attributes":{"ID":529087,"DIS_CODE":0,"TOWNNAME":"東區","LI":"成大里","LIN":"6鄰","STREET":"民族路","SECT":"一段","MAREA":" ","LANE":" ","ALLEY":" ","HOUSE_NO":"１９之７號","E_COORD97":169526.98000000001,"N_COORD97":2543814.98,"ADDRESS":"民族路一段１９之７號","OBJECTID":529060},"geometry":{"x":169526.98000000045,"y":2543814.9800000023}},{"attributes":{"ID":529088,"DIS_CODE":0,"TOWNNAME":"東區","LI":"成大里","LIN":"6鄰","STREET":"民族路","SECT":"一段","MAREA":" ","LANE":" ","ALLEY":" ","HOUSE_NO":"１９之８號","E_COORD97":169525.26999999999,"N_COORD97":2543811.7999999998,"ADDRESS":"民族路一段１９之８號","OBJECTID":529061},"geometry":{"x":169525.27000000048,"y":2543811.8000000007}},{"attributes":{"ID":529089,"DIS_CODE":0,"TOWNNAME":"東區","LI":"成大里","LIN":"6鄰","STREET":"育樂街","SECT":" ","MAREA":" ","LANE":" ","ALLEY":" ","HOUSE_NO":"１７５號","E_COORD97":169497.43112699999,"N_COORD97":2543838.7532500001,"ADDRESS":"育樂街１７５號","OBJECTID":529062},"geometry":{"x":169497.4311270006,"y":2543838.7532550022}},{"attributes":{"ID":529090,"DIS_CODE":0,"TOWNNAME":"東區","LI":"成大里","LIN":"6鄰","STREET":"育樂街","SECT":" ","MAREA":" ","LANE":" ","ALLEY":" ","HOUSE_NO":"１７７號","E_COORD97":169496.17999999999,"N_COORD97":2543829.8900000001,"ADDRESS":"育樂街１７７號","OBJECTID":529063},"geometry":{"x":169496.1799999997,"y":2543829.8900000025}},{"attributes":{"ID":529091,"DIS_CODE":0,"TOWNNAME":"東區","LI":"成大里","LIN":"6鄰","STREET":"育樂街","SECT":" ","MAREA":" ","LANE":" ","ALLEY":" ","HOUSE_NO":"１７９號","E_COORD97":169496.17999999999,"N_COORD97":2543827.2000000002,"ADDRESS":"育樂街１７９號","OBJECTID":529064},"geometry":{"x":169496.1799999997,"y":2543827.1999999993}},{"attributes":{"ID":529092,"DIS_CODE":0,"TOWNNAME":"東區","LI":"成大里","LIN":"6鄰","STREET":"育樂街","SECT":" ","MAREA":" ","LANE":" ","ALLEY":" ","HOUSE_NO":"１８１號","E_COORD97":169495.45000000001,"N_COORD97":2543824.27,"ADDRESS":"育樂街１８１號","OBJECTID":529065},"geometry":{"x":169495.45000000205,"y":2543824.2699999996}},{"attributes":{"ID":529093,"DIS_CODE":0,"TOWNNAME":"東區","LI":"成大里","LIN":"6鄰","STREET":"育樂街","SECT":" ","MAREA":" ","LANE":" ","ALLEY":" ","HOUSE_NO":"１８３號","E_COORD97":169494.47,"N_COORD97":2543820.1099999999,"ADDRESS":"育樂街１８３號","OBJECTID":529066},"geometry":{"x":169494.46999999974,"y":2543820.1100000013}},{"attributes":{"ID":529094,"DIS_CODE":0,"TOWNNAME":"東區","LI":"成大里","LIN":"6鄰","STREET":"育樂街","SECT":" ","MAREA":" ","LANE":" ","ALLEY":" ","HOUSE_NO":"１８５號","E_COORD97":169494.47,"N_COORD97":2543816.2000000002,"ADDRESS":"育樂街１８５號","OBJECTID":529067},"geometry":{"x":169494.46999999974,"y":2543816.2000000011}},{"attributes":{"ID":529095,"DIS_CODE":0,"TOWNNAME":"東區","LI":"成大里","LIN":"6鄰","STREET":"東寧路","SECT":"西段","MAREA":" ","LANE":" ","ALLEY":" ","HOUSE_NO":"１０２號","E_COORD97":169448.67000000001,"N_COORD97":2543823.1699999999,"ADDRESS":"東寧路西段１０２號","OBJECTID":529068},"geometry":{"x":169448.67000000086,"y":2543823.1700000037}},{"attributes":{"ID":529096,"DIS_CODE":0,"TOWNNAME":"東區","LI":"崇文里","LIN":"6鄰","STREET":"崇德路","SECT":" ","MAREA":" ","LANE":" ","ALLEY":" ","HOUSE_NO":"６５９之１３號","E_COORD97":170804.23999999999,"N_COORD97":2541152.1899999999,"ADDRESS":"崇德路６５９之１３號","OBJECTID":529069},"geometry":{"x":170804.24000000115,"y":2541152.1900000013}},{"attributes":{"ID":529097,"DIS_CODE":0,"TOWNNAME":"東區","LI":"崇文里","LIN":"6鄰","STREET":"崇德路","SECT":" ","MAREA":" ","LANE":" ","ALLEY":" ","HOUSE_NO":"６６３之１號","E_COORD97":170804.23999999999,"N_COORD97":2541121.4100000001,"ADDRESS":"崇德路６６３之１號","OBJECTID":529070},"geometry":{"x":170804.24000000115,"y":2541121.4100000001}},{"attributes":{"ID":529098,"DIS_CODE":0,"TOWNNAME":"東區","LI":"崇文里","LIN":"6鄰","STREET":"崇德路","SECT":" ","MAREA":" ","LANE":" ","ALLEY":" ","HOUSE_NO":"６６３之２號","E_COORD97":170804.39999999999,"N_COORD97":2541118.46,"ADDRESS":"崇德路６６３之２號","OBJECTID":529071},"geometry":{"x":170804.40000000037,"y":2541118.4600000009}},{"attributes":{"ID":529099,"DIS_CODE":0,"TOWNNAME":"東區","LI":"崇文里","LIN":"6鄰","STREET":"崇德路","SECT":" ","MAREA":" ","LANE":" ","ALLEY":" ","HOUSE_NO":"６６５之１號","E_COORD97":170803.73999999999,"N_COORD97":2541109.6200000001,"ADDRESS":"崇德路６６５之１號","OBJECTID":529072},"geometry":{"x":170803.73999999929,"y":2541109.6200000029}},{"attributes":{"ID":529100,"DIS_CODE":0,"TOWNNAME":"東區","LI":"崇文里","LIN":"6鄰","STREET":"崇德路","SECT":" ","MAREA":" ","LANE":" ","ALLEY":" ","HOUSE_NO":"６６５之２號","E_COORD97":170804.23999999999,"N_COORD97":2541105.5299999998,"ADDRESS":"崇德路６６５之２號","OBJECTID":529073},"geometry":{"x":170804.24000000115,"y":2541105.5300000012}},{"attributes":{"ID":529101,"DIS_CODE":0,"TOWNNAME":"東區","LI":"崇文里","LIN":"6鄰","STREET":"崇德路","SECT":" ","MAREA":" ","LANE":" ","ALLEY":" ","HOUSE_NO":"６６５之３號","E_COORD97":170803.73999999999,"N_COORD97":2541101.6000000001,"ADDRESS":"崇德路６６５之３號","OBJECTID":529074},"geometry":{"x":170803.73999999929,"y":2541101.6000000015}},{"attributes":{"ID":529102,"DIS_CODE":0,"TOWNNAME":"東區","LI":"崇善里","LIN":"6鄰","STREET":"崇善六街","SECT":" ","MAREA":" ","LANE":" ","ALLEY":" ","HOUSE_NO":"３７號","E_COORD97":171115.07000000001,"N_COORD97":2541541.27,"ADDRESS":"崇善六街３７號","OBJECTID":529075},"geometry":{"x":171115.0700000003,"y":2541541.2700000014}},{"attributes":{"ID":529103,"DIS_CODE":0,"TOWNNAME":"東區","LI":"崇善里","LIN":"6鄰","STREET":"崇善六街","SECT":" ","MAREA":" ","LANE":" ","ALLEY":" ","HOUSE_NO":"３９號","E_COORD97":171121.69,"N_COORD97":2541544.71,"ADDRESS":"崇善六街３９號","OBJECTID":529076},"geometry":{"x":171121.69000000134,"y":2541544.7100000009}},{"attributes":{"ID":529104,"DIS_CODE":0,"TOWNNAME":"東區","LI":"崇文里","LIN":"6鄰","STREET":"崇德十七街","SECT":" ","MAREA":" ","LANE":" ","ALLEY":" ","HOUSE_NO":"１１號","E_COORD97":170848.20000000001,"N_COORD97":2541089.7999999998,"ADDRESS":"崇德十七街１１號","OBJECTID":529077},"geometry":{"x":170848.20000000205,"y":2541089.8000000007}},{"attributes":{"ID":529105,"DIS_CODE":0,"TOWNNAME":"東區","LI":"崇文里","LIN":"6鄰","STREET":"崇德十七街","SECT":" ","MAREA":" ","LANE":" ","ALLEY":" ","HOUSE_NO":"９號","E_COORD97":170843.44,"N_COORD97":2541090.1400000001,"ADDRESS":"崇德十七街９號","OBJECTID":529078},"geometry":{"x":170843.44000000227,"y":2541090.1400000006}},{"attributes":{"ID":529106,"DIS_CODE":0,"TOWNNAME":"東區","LI":"崇文里","LIN":"6鄰","STREET":"崇德十七街","SECT":" ","MAREA":" ","LANE":" ","ALLEY":" ","HOUSE_NO":"７號","E_COORD97":170839.03,"N_COORD97":2541090.1400000001,"ADDRESS":"崇德十七街７號","OBJECTID":529079},"geometry":{"x":170839.03000000026,"y":2541090.1400000006}},{"attributes":{"ID":529107,"DIS_CODE":0,"TOWNNAME":"東區","LI":"崇文里","LIN":"6鄰","STREET":"崇德十七街","SECT":" ","MAREA":" ","LANE":" ","ALLEY":" ","HOUSE_NO":"５３號","E_COORD97":170920.17000000001,"N_COORD97":2541090.8199999998,"ADDRESS":"崇德十七街５３號","OBJECTID":529080},"geometry":{"x":170920.16999999993,"y":2541090.8200000022}},{"attributes":{"ID":529108,"DIS_CODE":0,"TOWNNAME":"東區","LI":"崇文里","LIN":"6鄰","STREET":"崇德十七街","SECT":" ","MAREA":" ","LANE":" ","ALLEY":" ","HOUSE_NO":"５５號","E_COORD97":170925.60000000001,"N_COORD97":2541091.4900000002,"ADDRESS":"崇德十七街５５號","OBJECTID":529081},"geometry":{"x":170925.59999999963,"y":2541091.4900000002}},{"attributes":{"ID":529109,"DIS_CODE":0,"TOWNNAME":"東區","LI":"崇文里","LIN":"6鄰","STREET":"崇德十七街","SECT":" ","MAREA":" ","LANE":" ","ALLEY":" ","HOUSE_NO":"６３號","E_COORD97":170943.26000000001,"N_COORD97":2541093.1899999999,"ADDRESS":"崇德十七街６３號","OBJECTID":529082},"geometry":{"x":170943.25999999978,"y":2541093.1900000032}},{"attributes":{"ID":529110,"DIS_CODE":0,"TOWNNAME":"東區","LI":"崇文里","LIN":"6鄰","STREET":"崇德十七街","SECT":" ","MAREA":" ","LANE":" ","ALLEY":" ","HOUSE_NO":"６５號","E_COORD97":170948.01000000001,"N_COORD97":2541093.5299999998,"ADDRESS":"崇德十七街６５號","OBJECTID":529083},"geometry":{"x":170948.01000000071,"y":2541093.5299999993}},{"attributes":{"ID":529111,"DIS_CODE":0,"TOWNNAME":"東區","LI":"崇文里","LIN":"6鄰","STREET":"崇德十七街","SECT":" ","MAREA":" ","LANE":" ","ALLEY":" ","HOUSE_NO":"６７號","E_COORD97":170954.12,"N_COORD97":2541093.5299999998,"ADDRESS":"崇德十七街６７號","OBJECTID":529084},"geometry":{"x":170954.12000000104,"y":2541093.5299999993}},{"attributes":{"ID":529112,"DIS_CODE":0,"TOWNNAME":"東區","LI":"裕聖里","LIN":"6鄰","STREET":"裕孝一街","SECT":" ","MAREA":" ","LANE":" ","ALLEY":" ","HOUSE_NO":"１號","E_COORD97":172446.63,"N_COORD97":2542202.1699999999,"ADDRESS":"裕孝一街１號","OBJECTID":529085},"geometry":{"x":172446.62999999989,"y":2542202.1699999981}},{"attributes":{"ID":529113,"DIS_CODE":0,"TOWNNAME":"東區","LI":"裕聖里","LIN":"6鄰","STREET":"裕孝一街","SECT":" ","MAREA":" ","LANE":" ","ALLEY":" ","HOUSE_NO":"１１號","E_COORD97":172476.28,"N_COORD97":2542201.71,"ADDRESS":"裕孝一街１１號","OBJECTID":529086},"geometry":{"x":172476.28000000026,"y":2542201.7100000009}},{"attributes":{"ID":529114,"DIS_CODE":0,"TOWNNAME":"東區","LI":"裕聖里","LIN":"6鄰","STREET":"裕孝一街","SECT":" ","MAREA":" ","LANE":" ","ALLEY":" ","HOUSE_NO":"３號","E_COORD97":172451.84,"N_COORD97":2542201.9399999999,"ADDRESS":"裕孝一街３號","OBJECTID":529087},"geometry":{"x":172451.83999999985,"y":2542201.9399999995}},{"attributes":{"ID":529115,"DIS_CODE":0,"TOWNNAME":"東區","LI":"裕聖里","LIN":"6鄰","STREET":"裕孝一街","SECT":" ","MAREA":" ","LANE":" ","ALLEY":" ","HOUSE_NO":"７號","E_COORD97":172463.60999999999,"N_COORD97":2542202.1699999999,"ADDRESS":"裕孝一街７號","OBJECTID":529088},"geometry":{"x":172463.61000000034,"y":2542202.1699999981}},{"attributes":{"ID":529116,"DIS_CODE":0,"TOWNNAME":"東區","LI":"裕聖里","LIN":"6鄰","STREET":"裕孝一街","SECT":" ","MAREA":" ","LANE":" ","ALLEY":" ","HOUSE_NO":"９號","E_COORD97":172469.94,"N_COORD97":2542202.1699999999,"ADDRESS":"裕孝一街９號","OBJECTID":529089},"geometry":{"x":172469.94000000041,"y":2542202.1699999981}},{"attributes":{"ID":529117,"DIS_CODE":0,"TOWNNAME":"善化區","LI":"東關里","LIN":"6鄰","STREET":"中山路","SECT":" ","MAREA":" ","LANE":" ","ALLEY":" ","HOUSE_NO":"４５４號","E_COORD97":177323.22,"N_COORD97":2559130.5,"ADDRESS":"中山路４５４號","OBJECTID":529090},"geometry":{"x":177323.2200000016,"y":2559130.5}},{"attributes":{"ID":529118,"DIS_CODE":0,"TOWNNAME":"善化區","LI":"文昌里","LIN":"6鄰","STREET":"永福路","SECT":" ","MAREA":" ","LANE":" ","ALLEY":" ","HOUSE_NO":"１３６號","E_COORD97":177233.48999999999,"N_COORD97":2558785.25,"ADDRESS":"永福路１３６號","OBJECTID":529091},"geometry":{"x":177233.49000000022,"y":2558785.2500000019}},{"attributes":{"ID":529119,"DIS_CODE":0,"TOWNNAME":"善化區","LI":"南關里","LIN":"6鄰","STREET":"文昌路","SECT":" ","MAREA":" ","LANE":" ","ALLEY":" ","HOUSE_NO":"５２之２號","E_COORD97":177146.28,"N_COORD97":2558688.5899999999,"ADDRESS":"文昌路５２之２號","OBJECTID":529092},"geometry":{"x":177146.28000000026,"y":2558688.5899999999}},{"attributes":{"ID":529120,"DIS_CODE":0,"TOWNNAME":"善化區","LI":"坐駕里","LIN":"6鄰","STREET":"民生路","SECT":" ","MAREA":" ","LANE":" ","ALLEY":" ","HOUSE_NO":"４１０號","E_COORD97":177870.26999999999,"N_COORD97":2558878.0099999998,"ADDRESS":"民生路４１０號","OBJECTID":529093},"geometry":{"x":177870.27000000142,"y":2558878.0100000016}},{"attributes":{"ID":529121,"DIS_CODE":0,"TOWNNAME":"善化區","LI":"南關里","LIN":"6鄰","STREET":"永安路","SECT":" ","MAREA":" ","LANE":" ","ALLEY":" ","HOUSE_NO":"３４號","E_COORD97":177117.25,"N_COORD97":2558627.27,"ADDRESS":"永安路３４號","OBJECTID":529094},"geometry":{"x":177117.25000000093,"y":2558627.2699999996}},{"attributes":{"ID":529122,"DIS_CODE":0,"TOWNNAME":"善化區","LI":"坐駕里","LIN":"6鄰","STREET":"青年路","SECT":" ","MAREA":" ","LANE":" ","ALLEY":" ","HOUSE_NO":"１６４號","E_COORD97":177848.48000000001,"N_COORD97":2558892.75,"ADDRESS":"青年路１６４號","OBJECTID":529095},"geometry":{"x":177848.48000000138,"y":2558892.7500000037}},{"attributes":{"ID":529123,"DIS_CODE":0,"TOWNNAME":"善化區","LI":"西關里","LIN":"6鄰","STREET":"三民路","SECT":" ","MAREA":" ","LANE":" ","ALLEY":" ","HOUSE_NO":"７１號","E_COORD97":177101.42000000001,"N_COORD97":2559095.2599999998,"ADDRESS":"三民路７１號","OBJECTID":529096},"geometry":{"x":177101.41999999993,"y":2559095.2599999998}},{"attributes":{"ID":529124,"DIS_CODE":0,"TOWNNAME":"仁德區","LI":"田厝里","LIN":"6鄰","STREET":"田厝三街","SECT":" ","MAREA":" ","LANE":" ","ALLEY":" ","HOUSE_NO":"９０號","E_COORD97":172612.97,"N_COORD97":2537416.75,"ADDRESS":"田厝三街９０號","OBJECTID":529097},"geometry":{"x":172612.97000000067,"y":2537416.75}},{"attributes":{"ID":529125,"DIS_CODE":0,"TOWNNAME":"仁德區","LI":"仁德里","LIN":"6鄰","STREET":"中正路","SECT":"二段","MAREA":" ","LANE":" ","ALLEY":" ","HOUSE_NO":"１１１５號","E_COORD97":173350.10000000001,"N_COORD97":2540939.2799999998,"ADDRESS":"中正路二段１１１５號","OBJECTID":529098},"geometry":{"x":173350.09999999963,"y":2540939.2799999993}},{"attributes":{"ID":529126,"DIS_CODE":0,"TOWNNAME":"仁德區","LI":"保安里","LIN":"6鄰","STREET":"文賢路","SECT":"一段","MAREA":" ","LANE":" ","ALLEY":" ","HOUSE_NO":"７３９號","E_COORD97":171464.95999999999,"N_COORD97":2536227.3199999998,"ADDRESS":"文賢路一段７３９號","OBJECTID":529099},"geometry":{"x":171464.96000000183,"y":2536227.3200000003}},{"attributes":{"ID":529127,"DIS_CODE":0,"TOWNNAME":"仁德區","LI":"後壁里","LIN":"6鄰","STREET":"德安路","SECT":" ","MAREA":" ","LANE":" ","ALLEY":" ","HOUSE_NO":"１８８號","E_COORD97":173636.87,"N_COORD97":2538819.8399999999,"ADDRESS":"德安路１８８號","OBJECTID":529100},"geometry":{"x":173636.87000000011,"y":2538819.8399999999}},{"attributes":{"ID":529128,"DIS_CODE":0,"TOWNNAME":"仁德區","LI":"成功里","LIN":"6鄰","STREET":"成功三街","SECT":" ","MAREA":" ","LANE":" ","ALLEY":" ","HOUSE_NO":"７號","E_COORD97":171170.04999999999,"N_COORD97":2540024.77,"ADDRESS":"成功三街７號","OBJECTID":529101},"geometry":{"x":171170.04999999981,"y":2540024.7700000033}},{"attributes":{"ID":529129,"DIS_CODE":0,"TOWNNAME":"仁德區","LI":"新田里","LIN":"6鄰","STREET":"勝利路","SECT":" ","MAREA":" ","LANE":" ","ALLEY":" ","HOUSE_NO":"３６１號","E_COORD97":175147.5,"N_COORD97":2539377.5099999998,"ADDRESS":"勝利路３６１號","OBJECTID":529102},"geometry":{"x":175147.5,"y":2539377.5099999998}},{"attributes":{"ID":529130,"DIS_CODE":0,"TOWNNAME":"仁德區","LI":"保安里","LIN":"6鄰","STREET":"文賢路","SECT":"一段","MAREA":" ","LANE":" ","ALLEY":" ","HOUSE_NO":"７２９號","E_COORD97":171452.82000000001,"N_COORD97":2536256.3300000001,"ADDRESS":"文賢路一段７２９號","OBJECTID":529103},"geometry":{"x":171452.82000000123,"y":2536256.3300000019}},{"attributes":{"ID":529131,"DIS_CODE":0,"TOWNNAME":"仁德區","LI":"成功里","LIN":"6鄰","STREET":"成功三街","SECT":" ","MAREA":" ","LANE":" ","ALLEY":" ","HOUSE_NO":"２９號","E_COORD97":171174.48999999999,"N_COORD97":2539969.5099999998,"ADDRESS":"成功三街２９號","OBJECTID":529104},"geometry":{"x":171174.49000000022,"y":2539969.5100000016}},{"attributes":{"ID":529132,"DIS_CODE":0,"TOWNNAME":"仁德區","LI":"仁德里","LIN":"6鄰","STREET":"中正路","SECT":"二段","MAREA":" ","LANE":" ","ALLEY":" ","HOUSE_NO":"１１２３號","E_COORD97":173354.60999999999,"N_COORD97":2540964.6800000002,"ADDRESS":"中正路二段１１２３號","OBJECTID":529105},"geometry":{"x":173354.61000000127,"y":2540964.6800000034}},{"attributes":{"ID":529133,"DIS_CODE":0,"TOWNNAME":"仁德區","LI":"二行里","LIN":"6鄰","STREET":"二行一路","SECT":" ","MAREA":" ","LANE":" ","ALLEY":" ","HOUSE_NO":"７８號","E_COORD97":170485.17000000001,"N_COORD97":2535405.2400000002,"ADDRESS":"二行一路７８號","OBJECTID":529106},"geometry":{"x":170485.16999999993,"y":2535405.2400000021}},{"attributes":{"ID":529134,"DIS_CODE":0,"TOWNNAME":"仁德區","LI":"二行里","LIN":"6鄰","STREET":"中正西路","SECT":" ","MAREA":" ","LANE":" ","ALLEY":" ","HOUSE_NO":"７號","E_COORD97":170525.32000000001,"N_COORD97":2535452.25,"ADDRESS":"中正西路７號","OBJECTID":529107},"geometry":{"x":170525.32000000216,"y":2535452.2500000019}},{"attributes":{"ID":529135,"DIS_CODE":0,"TOWNNAME":"仁德區","LI":"二行里","LIN":"6鄰","STREET":"二仁路","SECT":"一段","MAREA":" ","LANE":" ","ALLEY":" ","HOUSE_NO":"８７號","E_COORD97":170560.34,"N_COORD97":2535436.0299999998,"ADDRESS":"二仁路一段８７號","OBJECTID":529108},"geometry":{"x":170560.34000000171,"y":2535436.0300000012}},{"attributes":{"ID":529136,"DIS_CODE":0,"TOWNNAME":"仁德區","LI":"二行里","LIN":"6鄰","STREET":"二仁路","SECT":"一段","MAREA":" ","LANE":" ","ALLEY":" ","HOUSE_NO":"５９號","E_COORD97":170563.29000000001,"N_COORD97":2535372.52,"ADDRESS":"二仁路一段５９號","OBJECTID":529109},"geometry":{"x":170563.29000000097,"y":2535372.5200000014}},{"attributes":{"ID":529137,"DIS_CODE":0,"TOWNNAME":"仁德區","LI":"二行里","LIN":"6鄰","STREET":"二行一路","SECT":" ","MAREA":" ","LANE":" ","ALLEY":" ","HOUSE_NO":"６８號","E_COORD97":170474.35999999999,"N_COORD97":2535385.7400000002,"ADDRESS":"二行一路６８號","OBJECTID":529110},"geometry":{"x":170474.3600000022,"y":2535385.7400000021}},{"attributes":{"ID":529138,"DIS_CODE":0,"TOWNNAME":"仁德區","LI":"二行里","LIN":"6鄰","STREET":"二行一路","SECT":" ","MAREA":" ","LANE":" ","ALLEY":" ","HOUSE_NO":"８４號","E_COORD97":170490.70999999999,"N_COORD97":2535417.9900000002,"ADDRESS":"二行一路８４號","OBJECTID":529111},"geometry":{"x":170490.71000000089,"y":2535417.9900000021}},{"attributes":{"ID":529139,"DIS_CODE":0,"TOWNNAME":"仁德區","LI":"二行里","LIN":"6鄰","STREET":"二仁路","SECT":"一段","MAREA":" ","LANE":" ","ALLEY":" ","HOUSE_NO":"６５號","E_COORD97":170562.37,"N_COORD97":2535388.02,"ADDRESS":"二仁路一段６５號","OBJECTID":529112},"geometry":{"x":170562.37000000104,"y":2535388.0199999996}},{"attributes":{"ID":529140,"DIS_CODE":0,"TOWNNAME":"仁德區","LI":"二行里","LIN":"6鄰","STREET":"二行一路","SECT":" ","MAREA":" ","LANE":" ","ALLEY":" ","HOUSE_NO":"１１８號","E_COORD97":170528.14999999999,"N_COORD97":2535555,"ADDRESS":"二行一路１１８號","OBJECTID":529113},"geometry":{"x":170528.15000000037,"y":2535555.0000000037}},{"attributes":{"ID":529141,"DIS_CODE":0,"TOWNNAME":"仁德區","LI":"二行里","LIN":"6鄰","STREET":"二行一路","SECT":" ","MAREA":" ","LANE":" ","ALLEY":" ","HOUSE_NO":"５０號","E_COORD97":170454.53,"N_COORD97":2535347.75,"ADDRESS":"二行一路５０號","OBJECTID":529114},"geometry":{"x":170454.53000000212,"y":2535347.7500000019}},{"attributes":{"ID":529142,"DIS_CODE":0,"TOWNNAME":"仁德區","LI":"二行里","LIN":"6鄰","STREET":"中正西路","SECT":" ","MAREA":" ","LANE":" ","ALLEY":" ","HOUSE_NO":"１３號","E_COORD97":170515.44,"N_COORD97":2535448,"ADDRESS":"中正西路１３號","OBJECTID":529115},"geometry":{"x":170515.44000000041,"y":2535448.0000000019}},{"attributes":{"ID":529143,"DIS_CODE":0,"TOWNNAME":"仁德區","LI":"二行里","LIN":"6鄰","STREET":"二行一路","SECT":" ","MAREA":" ","LANE":" ","ALLEY":" ","HOUSE_NO":"６４號","E_COORD97":170470.20000000001,"N_COORD97":2535377.7400000002,"ADDRESS":"二行一路６４號","OBJECTID":529116},"geometry":{"x":170470.20000000205,"y":2535377.7400000021}},{"attributes":{"ID":529144,"DIS_CODE":0,"TOWNNAME":"仁德區","LI":"二行里","LIN":"6鄰","STREET":"二仁路","SECT":"一段","MAREA":" ","LANE":" ","ALLEY":" ","HOUSE_NO":"９３號","E_COORD97":170559.79000000001,"N_COORD97":2535450.0299999998,"ADDRESS":"二仁路一段９３號","OBJECTID":529117},"geometry":{"x":170559.79000000097,"y":2535450.0300000012}},{"attributes":{"ID":529145,"DIS_CODE":0,"TOWNNAME":"仁德區","LI":"上崙里","LIN":"6鄰","STREET":"德南路","SECT":" ","MAREA":" ","LANE":" ","ALLEY":" ","HOUSE_NO":"４０７號","E_COORD97":173930.78,"N_COORD97":2538227.02,"ADDRESS":"德南路４０７號","OBJECTID":529118},"geometry":{"x":173930.78000000026,"y":2538227.0200000014}},{"attributes":{"ID":529146,"DIS_CODE":0,"TOWNNAME":"仁德區","LI":"二行里","LIN":"6鄰","STREET":"二行一路","SECT":" ","MAREA":" ","LANE":" ","ALLEY":" ","HOUSE_NO":"５８號","E_COORD97":170462.45999999999,"N_COORD97":2535366.25,"ADDRESS":"二行一路５８號","OBJECTID":529119},"geometry":{"x":170462.45999999996,"y":2535366.25}},{"attributes":{"ID":529147,"DIS_CODE":0,"TOWNNAME":"仁德區","LI":"二行里","LIN":"6鄰","STREET":"二行一路","SECT":" ","MAREA":" ","LANE":" ","ALLEY":" ","HOUSE_NO":"６２號","E_COORD97":170466.29000000001,"N_COORD97":2535374.2400000002,"ADDRESS":"二行一路６２號","OBJECTID":529120},"geometry":{"x":170466.29000000097,"y":2535374.2400000039}},{"attributes":{"ID":529148,"DIS_CODE":0,"TOWNNAME":"仁德區","LI":"二行里","LIN":"6鄰","STREET":"二行一路","SECT":" ","MAREA":" ","LANE":" ","ALLEY":" ","HOUSE_NO":"１３６號","E_COORD97":170531.07999999999,"N_COORD97":2535602.7400000002,"ADDRESS":"二行一路１３６號","OBJECTID":529121},"geometry":{"x":170531.08000000007,"y":2535602.7400000021}},{"attributes":{"ID":529149,"DIS_CODE":0,"TOWNNAME":"仁德區","LI":"二行里","LIN":"6鄰","STREET":"二仁路","SECT":"一段","MAREA":" ","LANE":" ","ALLEY":" ","HOUSE_NO":"８５號","E_COORD97":170560.45000000001,"N_COORD97":2535431.2799999998,"ADDRESS":"二仁路一段８５號","OBJECTID":529122},"geometry":{"x":170560.45000000112,"y":2535431.2800000012}},{"attributes":{"ID":529150,"DIS_CODE":0,"TOWNNAME":"仁德區","LI":"二行里","LIN":"6鄰","STREET":"二行一路","SECT":" ","MAREA":" ","LANE":" ","ALLEY":" ","HOUSE_NO":"１３４號","E_COORD97":170531.12,"N_COORD97":2535596.7400000002,"ADDRESS":"二行一路１３４號","OBJECTID":529123},"geometry":{"x":170531.12000000011,"y":2535596.7400000002}},{"attributes":{"ID":529151,"DIS_CODE":0,"TOWNNAME":"仁德區","LI":"二行里","LIN":"6鄰","STREET":"二行一路","SECT":" ","MAREA":" ","LANE":" ","ALLEY":" ","HOUSE_NO":"８２號","E_COORD97":170489.14999999999,"N_COORD97":2535413.4900000002,"ADDRESS":"二行一路８２號","OBJECTID":529124},"geometry":{"x":170489.15000000037,"y":2535413.4900000021}},{"attributes":{"ID":529152,"DIS_CODE":0,"TOWNNAME":"仁德區","LI":"二行里","LIN":"6鄰","STREET":"二行一路","SECT":" ","MAREA":" ","LANE":" ","ALLEY":" ","HOUSE_NO":"９２號","E_COORD97":170506.14000000001,"N_COORD97":2535475,"ADDRESS":"二行一路９２號","OBJECTID":529125},"geometry":{"x":170506.1400000006,"y":2535475.0000000019}},{"attributes":{"ID":529153,"DIS_CODE":0,"TOWNNAME":"仁德區","LI":"二行里","LIN":"6鄰","STREET":"二行一路","SECT":" ","MAREA":" ","LANE":" ","ALLEY":" ","HOUSE_NO":"１２４號","E_COORD97":170530.01000000001,"N_COORD97":2535568.75,"ADDRESS":"二行一路１２４號","OBJECTID":529126},"geometry":{"x":170530.00999999978,"y":2535568.75}},{"attributes":{"ID":529154,"DIS_CODE":0,"TOWNNAME":"仁德區","LI":"上崙里","LIN":"6鄰","STREET":"德南路","SECT":" ","MAREA":" ","LANE":" ","ALLEY":" ","HOUSE_NO":"３２２號","E_COORD97":173915.39000000001,"N_COORD97":2538240.02,"ADDRESS":"德南路３２２號","OBJECTID":529127},"geometry":{"x":173915.3900000006,"y":2538240.0200000014}},{"attributes":{"ID":529155,"DIS_CODE":0,"TOWNNAME":"仁德區","LI":"二行里","LIN":"6鄰","STREET":"二仁路","SECT":"一段","MAREA":" ","LANE":" ","ALLEY":" ","HOUSE_NO":"１１１號","E_COORD97":170555.97,"N_COORD97":2535516.02,"ADDRESS":"二仁路一段１１１號","OBJECTID":529128},"geometry":{"x":170555.9700000016,"y":2535516.0199999996}},{"attributes":{"ID":529156,"DIS_CODE":0,"TOWNNAME":"仁德區","LI":"二行里","LIN":"6鄰","STREET":"二行一路","SECT":" ","MAREA":" ","LANE":" ","ALLEY":" ","HOUSE_NO":"８０號","E_COORD97":170487.70999999999,"N_COORD97":2535408.9900000002,"ADDRESS":"二行一路８０號","OBJECTID":529129},"geometry":{"x":170487.70999999996,"y":2535408.9900000002}},{"attributes":{"ID":529157,"DIS_CODE":0,"TOWNNAME":"仁德區","LI":"二行里","LIN":"6鄰","STREET":"二行一路","SECT":" ","MAREA":" ","LANE":" ","ALLEY":" ","HOUSE_NO":"１０８號","E_COORD97":170518.98000000001,"N_COORD97":2535508.7400000002,"ADDRESS":"二行一路１０８號","OBJECTID":529130},"geometry":{"x":170518.98000000045,"y":2535508.7400000002}},{"attributes":{"ID":529158,"DIS_CODE":0,"TOWNNAME":"仁德區","LI":"二行里","LIN":"6鄰","STREET":"二行一路","SECT":" ","MAREA":" ","LANE":" ","ALLEY":" ","HOUSE_NO":"１１０號","E_COORD97":170518.31,"N_COORD97":2535514.9900000002,"ADDRESS":"二行一路１１０號","OBJECTID":529131},"geometry":{"x":170518.31000000052,"y":2535514.9900000021}},{"attributes":{"ID":529159,"DIS_CODE":0,"TOWNNAME":"仁德區","LI":"二行里","LIN":"6鄰","STREET":"二行一路","SECT":" ","MAREA":" ","LANE":" ","ALLEY":" ","HOUSE_NO":"７４號","E_COORD97":170481.64000000001,"N_COORD97":2535396.9900000002,"ADDRESS":"二行一路７４號","OBJECTID":529132},"geometry":{"x":170481.63999999966,"y":2535396.9900000021}},{"attributes":{"ID":529160,"DIS_CODE":0,"TOWNNAME":"仁德區","LI":"二行里","LIN":"6鄰","STREET":"二仁路","SECT":"一段","MAREA":" ","LANE":" ","ALLEY":" ","HOUSE_NO":"９１號","E_COORD97":170559.79000000001,"N_COORD97":2535445.5299999998,"ADDRESS":"二仁路一段９１號","OBJECTID":529133},"geometry":{"x":170559.79000000097,"y":2535445.5299999975}},{"attributes":{"ID":529161,"DIS_CODE":0,"TOWNNAME":"仁德區","LI":"二行里","LIN":"6鄰","STREET":"二仁路","SECT":"一段","MAREA":" ","LANE":" ","ALLEY":" ","HOUSE_NO":"８３號","E_COORD97":170560.45000000001,"N_COORD97":2535427.2799999998,"ADDRESS":"二仁路一段８３號","OBJECTID":529134},"geometry":{"x":170560.45000000112,"y":2535427.2800000031}},{"attributes":{"ID":529162,"DIS_CODE":0,"TOWNNAME":"仁德區","LI":"二行里","LIN":"6鄰","STREET":"二行一路","SECT":" ","MAREA":" ","LANE":" ","ALLEY":" ","HOUSE_NO":"１００號","E_COORD97":170512.26000000001,"N_COORD97":2535492.7400000002,"ADDRESS":"二行一路１００號","OBJECTID":529135},"geometry":{"x":170512.26000000071,"y":2535492.7400000039}},{"attributes":{"ID":529163,"DIS_CODE":0,"TOWNNAME":"仁德區","LI":"二行里","LIN":"6鄰","STREET":"中正西路","SECT":" ","MAREA":" ","LANE":" ","ALLEY":" ","HOUSE_NO":"５號","E_COORD97":170530.01999999999,"N_COORD97":2535454,"ADDRESS":"中正西路５號","OBJECTID":529136},"geometry":{"x":170530.02000000142,"y":2535454.0000000019}},{"attributes":{"ID":529164,"DIS_CODE":0,"TOWNNAME":"仁德區","LI":"二行里","LIN":"6鄰","STREET":"中正西路","SECT":" ","MAREA":" ","LANE":" ","ALLEY":" ","HOUSE_NO":"９號","E_COORD97":170520.41,"N_COORD97":2535450.75,"ADDRESS":"中正西路９號","OBJECTID":529137},"geometry":{"x":170520.41000000015,"y":2535450.75}},{"attributes":{"ID":529165,"DIS_CODE":0,"TOWNNAME":"仁德區","LI":"二行里","LIN":"6鄰","STREET":"二行一路","SECT":" ","MAREA":" ","LANE":" ","ALLEY":" ","HOUSE_NO":"７６號","E_COORD97":170483.20000000001,"N_COORD97":2535401.4900000002,"ADDRESS":"二行一路７６號","OBJECTID":529138},"geometry":{"x":170483.20000000019,"y":2535401.4900000002}},{"attributes":{"ID":529166,"DIS_CODE":0,"TOWNNAME":"仁德區","LI":"二行里","LIN":"6鄰","STREET":"二仁路","SECT":"一段","MAREA":" ","LANE":" ","ALLEY":" ","HOUSE_NO":"７１號","E_COORD97":170562.04000000001,"N_COORD97":2535401.27,"ADDRESS":"二仁路一段７１號","OBJECTID":529139},"geometry":{"x":170562.04000000004,"y":2535401.2700000014}},{"attributes":{"ID":529167,"DIS_CODE":0,"TOWNNAME":"仁德區","LI":"二行里","LIN":"6鄰","STREET":"二仁路","SECT":"一段","MAREA":" ","LANE":" ","ALLEY":" ","HOUSE_NO":"５５號","E_COORD97":170563.19,"N_COORD97":2535362.7799999998,"ADDRESS":"二仁路一段５５號","OBJECTID":529140},"geometry":{"x":170563.19000000041,"y":2535362.7800000031}},{"attributes":{"ID":529168,"DIS_CODE":0,"TOWNNAME":"仁德區","LI":"二行里","LIN":"6鄰","STREET":"二行一路","SECT":" ","MAREA":" ","LANE":" ","ALLEY":" ","HOUSE_NO":"１０４號","E_COORD97":170516.89000000001,"N_COORD97":2535500.4900000002,"ADDRESS":"二行一路１０４號","OBJECTID":529141},"geometry":{"x":170516.88999999966,"y":2535500.4900000002}},{"attributes":{"ID":529169,"DIS_CODE":0,"TOWNNAME":"仁德區","LI":"二行里","LIN":"6鄰","STREET":"中正西路","SECT":" ","MAREA":" ","LANE":" ","ALLEY":" ","HOUSE_NO":"８號","E_COORD97":170520.79000000001,"N_COORD97":2535474.75,"ADDRESS":"中正西路８號","OBJECTID":529142},"geometry":{"x":170520.79000000097,"y":2535474.75}},{"attributes":{"ID":529170,"DIS_CODE":0,"TOWNNAME":"仁德區","LI":"二行里","LIN":"6鄰","STREET":"二仁路","SECT":"一段","MAREA":" ","LANE":" ","ALLEY":" ","HOUSE_NO":"１１７號","E_COORD97":170540.95999999999,"N_COORD97":2535538.2799999998,"ADDRESS":"二仁路一段１１７號","OBJECTID":529143},"geometry":{"x":170540.95999999903,"y":2535538.2799999993}},{"attributes":{"ID":529171,"DIS_CODE":0,"TOWNNAME":"仁德區","LI":"二行里","LIN":"6鄰","STREET":"二行一路","SECT":" ","MAREA":" ","LANE":" ","ALLEY":" ","HOUSE_NO":"１１０之１號","E_COORD97":170522.10000000001,"N_COORD97":2535522.29,"ADDRESS":"二行一路１１０之１號","OBJECTID":529144},"geometry":{"x":170522.09999999963,"y":2535522.290000001}},{"attributes":{"ID":529172,"DIS_CODE":0,"TOWNNAME":"仁德區","LI":"二行里","LIN":"6鄰","STREET":"二行一路","SECT":" ","MAREA":" ","LANE":" ","ALLEY":" ","HOUSE_NO":"９４號","E_COORD97":170507.22,"N_COORD97":2535479.9900000002,"ADDRESS":"二行一路９４號","OBJECTID":529145},"geometry":{"x":170507.22000000067,"y":2535479.9900000002}},{"attributes":{"ID":529173,"DIS_CODE":0,"TOWNNAME":"仁德區","LI":"二行里","LIN":"6鄰","STREET":"二行一路","SECT":" ","MAREA":" ","LANE":" ","ALLEY":" ","HOUSE_NO":"９８號","E_COORD97":170509.95999999999,"N_COORD97":2535488.73,"ADDRESS":"二行一路９８號","OBJECTID":529146},"geometry":{"x":170509.95999999996,"y":2535488.7300000004}},{"attributes":{"ID":529174,"DIS_CODE":0,"TOWNNAME":"仁德區","LI":"二行里","LIN":"6鄰","STREET":"二行一路","SECT":" ","MAREA":" ","LANE":" ","ALLEY":" ","HOUSE_NO":"７０號","E_COORD97":170476.62,"N_COORD97":2535389.23,"ADDRESS":"二行一路７０號","OBJECTID":529147},"geometry":{"x":170476.62000000011,"y":2535389.2300000023}},{"attributes":{"ID":529175,"DIS_CODE":0,"TOWNNAME":"仁德區","LI":"二行里","LIN":"6鄰","STREET":"二仁路","SECT":"一段","MAREA":" ","LANE":" ","ALLEY":" ","HOUSE_NO":"５７號","E_COORD97":170563.48000000001,"N_COORD97":2535367.5299999998,"ADDRESS":"二仁路一段５７號","OBJECTID":529148},"geometry":{"x":170563.48000000231,"y":2535367.5299999975}},{"attributes":{"ID":529176,"DIS_CODE":0,"TOWNNAME":"新化區","LI":"中央里","LIN":"6鄰","STREET":"和平街","SECT":" ","MAREA":" ","LANE":" ","ALLEY":" ","HOUSE_NO":"１８８號","E_COORD97":178899.01999999999,"N_COORD97":2548347.25,"ADDRESS":"和平街１８８號","OBJECTID":529149},"geometry":{"x":178899.01999999955,"y":2548347.25}},{"attributes":{"ID":529177,"DIS_CODE":0,"TOWNNAME":"新化區","LI":"觀音里","LIN":"6鄰","STREET":"中正路","SECT":" ","MAREA":" ","LANE":" ","ALLEY":" ","HOUSE_NO":"５５７號","E_COORD97":178987.51000000001,"N_COORD97":2548687.25,"ADDRESS":"中正路５５７號","OBJECTID":529150},"geometry":{"x":178987.50999999885,"y":2548687.25}},{"attributes":{"ID":529178,"DIS_CODE":0,"TOWNNAME":"新化區","LI":"觀音里","LIN":"6鄰","STREET":"中正路","SECT":" ","MAREA":" ","LANE":" ","ALLEY":" ","HOUSE_NO":"５３９號","E_COORD97":179006.90613600001,"N_COORD97":2548637.9407600001,"ADDRESS":"中正路５３９號","OBJECTID":529151},"geometry":{"x":179006.90613600146,"y":2548637.9407589994}},{"attributes":{"ID":529179,"DIS_CODE":0,"TOWNNAME":"新化區","LI":"觀音里","LIN":"6鄰","STREET":"中正路","SECT":" ","MAREA":" ","LANE":" ","ALLEY":" ","HOUSE_NO":"５３７號","E_COORD97":179009.02481,"N_COORD97":2548634.3424300002,"ADDRESS":"中正路５３７號","OBJECTID":529152},"geometry":{"x":179009.02481000125,"y":2548634.3424280006}},{"attributes":{"ID":529180,"DIS_CODE":0,"TOWNNAME":"新化區","LI":"護國里","LIN":"6鄰","STREET":"中山路","SECT":" ","MAREA":" ","LANE":" ","ALLEY":" ","HOUSE_NO":"１３４號之１","E_COORD97":179333.23999999999,"N_COORD97":2548629.2599999998,"ADDRESS":"中山路１３４號之１","OBJECTID":529153},"geometry":{"x":179333.24000000022,"y":2548629.2599999998}},{"attributes":{"ID":529181,"DIS_CODE":0,"TOWNNAME":"新化區","LI":"武安里","LIN":"6鄰","STREET":"中正路","SECT":" ","MAREA":" ","LANE":" ","ALLEY":" ","HOUSE_NO":"３８３號之１９","E_COORD97":179040.89999999999,"N_COORD97":2548278.2599999998,"ADDRESS":"中正路３８３號之１９","OBJECTID":529154},"geometry":{"x":179040.90000000037,"y":2548278.2600000016}},{"attributes":{"ID":529182,"DIS_CODE":0,"TOWNNAME":"新化區","LI":"武安里","LIN":"6鄰","STREET":"中正路","SECT":" ","MAREA":" ","LANE":" ","ALLEY":" ","HOUSE_NO":"３８３號之７","E_COORD97":179082.14999999999,"N_COORD97":2548285.2599999998,"ADDRESS":"中正路３８３號之７","OBJECTID":529155},"geometry":{"x":179082.14999999944,"y":2548285.2600000016}},{"attributes":{"ID":529183,"DIS_CODE":0,"TOWNNAME":"新化區","LI":"協興里","LIN":"6鄰","STREET":"忠孝路","SECT":" ","MAREA":" ","LANE":" ","ALLEY":" ","HOUSE_NO":"１９２號之４","E_COORD97":178388.06,"N_COORD97":2548570.2599999998,"ADDRESS":"忠孝路１９２號之４","OBJECTID":529156},"geometry":{"x":178388.05999999959,"y":2548570.2600000016}},{"attributes":{"ID":529184,"DIS_CODE":0,"TOWNNAME":"新化區","LI":"武安里","LIN":"6鄰","STREET":"信義路","SECT":" ","MAREA":" ","LANE":" ","ALLEY":" ","HOUSE_NO":"２７９號","E_COORD97":179001.63,"N_COORD97":2548298.25,"ADDRESS":"信義路２７９號","OBJECTID":529157},"geometry":{"x":179001.62999999989,"y":2548298.2500000019}},{"attributes":{"ID":529185,"DIS_CODE":0,"TOWNNAME":"新化區","LI":"中央里","LIN":"6鄰","STREET":"和平街","SECT":" ","MAREA":" ","LANE":" ","ALLEY":" ","HOUSE_NO":"１９０號","E_COORD97":178901.62,"N_COORD97":2548351.25,"ADDRESS":"和平街１９０號","OBJECTID":529158},"geometry":{"x":178901.62000000104,"y":2548351.25}},{"attributes":{"ID":529186,"DIS_CODE":0,"TOWNNAME":"新化區","LI":"竹林里","LIN":"6鄰","STREET":"竹林路","SECT":" ","MAREA":" ","LANE":" ","ALLEY":" ","HOUSE_NO":"８６號","E_COORD97":178832.28,"N_COORD97":2548629.25,"ADDRESS":"竹林路８６號","OBJECTID":529159},"geometry":{"x":178832.28000000119,"y":2548629.25}},{"attributes":{"ID":529187,"DIS_CODE":0,"TOWNNAME":"新化區","LI":"中央里","LIN":"6鄰","STREET":"和平街","SECT":" ","MAREA":" ","LANE":" ","ALLEY":" ","HOUSE_NO":"１８６號","E_COORD97":178900.62,"N_COORD97":2548343.25,"ADDRESS":"和平街１８６號","OBJECTID":529160},"geometry":{"x":178900.62000000011,"y":2548343.2500000019}},{"attributes":{"ID":529188,"DIS_CODE":0,"TOWNNAME":"南區","LI":"新昌里","LIN":"6鄰","STREET":"國華街","SECT":"一段","MAREA":" ","LANE":" ","ALLEY":" ","HOUSE_NO":"４２號","E_COORD97":167621,"N_COORD97":2542645.1800000002,"ADDRESS":"國華街一段４２號","OBJECTID":529161},"geometry":{"x":167621,"y":2542645.1799999997}},{"attributes":{"ID":529189,"DIS_CODE":0,"TOWNNAME":"安南區","LI":"大安里","LIN":"6鄰","STREET":"大安街","SECT":" ","MAREA":" ","LANE":" ","ALLEY":" ","HOUSE_NO":"１２６號","E_COORD97":167285.25,"N_COORD97":2548122.1499999999,"ADDRESS":"大安街１２６號","OBJECTID":529162},"geometry":{"x":167285.25,"y":2548122.1500000004}},{"attributes":{"ID":529190,"DIS_CODE":0,"TOWNNAME":"安南區","LI":"大安里","LIN":"6鄰","STREET":"大安街","SECT":" ","MAREA":" ","LANE":" ","ALLEY":" ","HOUSE_NO":"１２８號","E_COORD97":167288.13,"N_COORD97":2548125.2200000002,"ADDRESS":"大安街１２８號","OBJECTID":529163},"geometry":{"x":167288.12999999989,"y":2548125.2200000007}},{"attributes":{"ID":529191,"DIS_CODE":0,"TOWNNAME":"安南區","LI":"大安里","LIN":"6鄰","STREET":"大安街","SECT":" ","MAREA":" ","LANE":" ","ALLEY":" ","HOUSE_NO":"１３０號","E_COORD97":167290.23999999999,"N_COORD97":2548129.0499999998,"ADDRESS":"大安街１３０號","OBJECTID":529164},"geometry":{"x":167290.24000000115,"y":2548129.0500000007}},{"attributes":{"ID":529192,"DIS_CODE":0,"TOWNNAME":"安南區","LI":"大安里","LIN":"6鄰","STREET":"大安街","SECT":" ","MAREA":" ","LANE":" ","ALLEY":" ","HOUSE_NO":"１３２號","E_COORD97":167292.16,"N_COORD97":2548134.4199999999,"ADDRESS":"大安街１３２號","OBJECTID":529165},"geometry":{"x":167292.16000000108,"y":2548134.4200000018}},{"attributes":{"ID":529193,"DIS_CODE":0,"TOWNNAME":"安南區","LI":"大安里","LIN":"6鄰","STREET":"大安街","SECT":" ","MAREA":" ","LANE":" ","ALLEY":" ","HOUSE_NO":"１３４號","E_COORD97":167294.26999999999,"N_COORD97":2548138.2599999998,"ADDRESS":"大安街１３４號","OBJECTID":529166},"geometry":{"x":167294.27000000048,"y":2548138.2600000035}},{"attributes":{"ID":529194,"DIS_CODE":0,"TOWNNAME":"安南區","LI":"大安里","LIN":"6鄰","STREET":"大安街","SECT":" ","MAREA":" ","LANE":" ","ALLEY":" ","HOUSE_NO":"１３６號","E_COORD97":167296.76000000001,"N_COORD97":2548142.2799999998,"ADDRESS":"大安街１３６號","OBJECTID":529167},"geometry":{"x":167296.75999999978,"y":2548142.2800000012}},{"attributes":{"ID":529195,"DIS_CODE":0,"TOWNNAME":"安南區","LI":"大安里","LIN":"6鄰","STREET":"理安街","SECT":" ","MAREA":" ","LANE":" ","ALLEY":" ","HOUSE_NO":"７９號","E_COORD97":167356.95999999999,"N_COORD97":2548042.4300000002,"ADDRESS":"理安街７９號","OBJECTID":529168},"geometry":{"x":167356.95999999996,"y":2548042.4300000016}},{"attributes":{"ID":529196,"DIS_CODE":0,"TOWNNAME":"安南區","LI":"大安里","LIN":"6鄰","STREET":"理安街","SECT":" ","MAREA":" ","LANE":" ","ALLEY":" ","HOUSE_NO":"８３號","E_COORD97":167361.17999999999,"N_COORD97":2548050.29,"ADDRESS":"理安街８３號","OBJECTID":529169},"geometry":{"x":167361.18000000063,"y":2548050.290000001}},{"attributes":{"ID":529197,"DIS_CODE":0,"TOWNNAME":"安南區","LI":"大安里","LIN":"6鄰","STREET":"理安街","SECT":" ","MAREA":" ","LANE":" ","ALLEY":" ","HOUSE_NO":"８４號","E_COORD97":167382.64000000001,"N_COORD97":2548037.1499999999,"ADDRESS":"理安街８４號","OBJECTID":529170},"geometry":{"x":167382.63999999966,"y":2548037.1500000004}},{"attributes":{"ID":529198,"DIS_CODE":0,"TOWNNAME":"安南區","LI":"大安里","LIN":"6鄰","STREET":"理安街","SECT":" ","MAREA":" ","LANE":" ","ALLEY":" ","HOUSE_NO":"８８號","E_COORD97":167388.35000000001,"N_COORD97":2548045.3500000001,"ADDRESS":"理安街８８號","OBJECTID":529171},"geometry":{"x":167388.35000000149,"y":2548045.3499999996}},{"attributes":{"ID":529199,"DIS_CODE":0,"TOWNNAME":"安南區","LI":"大安里","LIN":"6鄰","STREET":"理安街","SECT":" ","MAREA":" ","LANE":" ","ALLEY":" ","HOUSE_NO":"９１號","E_COORD97":167372.95000000001,"N_COORD97":2548066.5499999998,"ADDRESS":"理安街９１號","OBJECTID":529172},"geometry":{"x":167372.94999999925,"y":2548066.5500000026}},{"attributes":{"ID":529200,"DIS_CODE":0,"TOWNNAME":"安南區","LI":"大安里","LIN":"6鄰","STREET":"理安街","SECT":" ","MAREA":" ","LANE":" ","ALLEY":" ","HOUSE_NO":"９２號","E_COORD97":167392.45999999999,"N_COORD97":2548051.8500000001,"ADDRESS":"理安街９２號","OBJECTID":529173},"geometry":{"x":167392.45999999996,"y":2548051.8499999996}},{"attributes":{"ID":529201,"DIS_CODE":0,"TOWNNAME":"安南區","LI":"大安里","LIN":"6鄰","STREET":"理安街","SECT":" ","MAREA":" ","LANE":" ","ALLEY":" ","HOUSE_NO":"９３號","E_COORD97":167374.87,"N_COORD97":2548071.73,"ADDRESS":"理安街９３號","OBJECTID":529174},"geometry":{"x":167374.87000000011,"y":2548071.7300000023}},{"attributes":{"ID":529202,"DIS_CODE":0,"TOWNNAME":"安南區","LI":"大安里","LIN":"6鄰","STREET":"理安街","SECT":" ","MAREA":" ","LANE":" ","ALLEY":" ","HOUSE_NO":"９４號","E_COORD97":167393.76000000001,"N_COORD97":2548056.0600000001,"ADDRESS":"理安街９４號","OBJECTID":529175},"geometry":{"x":167393.75999999978,"y":2548056.0600000024}},{"attributes":{"ID":529203,"DIS_CODE":0,"TOWNNAME":"安南區","LI":"大安里","LIN":"6鄰","STREET":"理安街","SECT":" ","MAREA":" ","LANE":" ","ALLEY":" ","HOUSE_NO":"９５號","E_COORD97":167378.32000000001,"N_COORD97":2548074.4100000001,"ADDRESS":"理安街９５號","OBJECTID":529176},"geometry":{"x":167378.3200000003,"y":2548074.410000002}},{"attributes":{"ID":529204,"DIS_CODE":0,"TOWNNAME":"安南區","LI":"大安里","LIN":"6鄰","STREET":"理安街","SECT":" ","MAREA":" ","LANE":" ","ALLEY":" ","HOUSE_NO":"９７號","E_COORD97":167381.01000000001,"N_COORD97":2548078.25,"ADDRESS":"理安街９７號","OBJECTID":529177},"geometry":{"x":167381.01000000071,"y":2548078.2500000019}},{"attributes":{"ID":529205,"DIS_CODE":0,"TOWNNAME":"安南區","LI":"大安里","LIN":"6鄰","STREET":"理安街","SECT":" ","MAREA":" ","LANE":" ","ALLEY":" ","HOUSE_NO":"９８號","E_COORD97":167399.67000000001,"N_COORD97":2548063.0600000001,"ADDRESS":"理安街９８號","OBJECTID":529178},"geometry":{"x":167399.66999999993,"y":2548063.0600000024}},{"attributes":{"ID":529206,"DIS_CODE":0,"TOWNNAME":"安南區","LI":"大安里","LIN":"6鄰","STREET":"理安街","SECT":" ","MAREA":" ","LANE":" ","ALLEY":" ","HOUSE_NO":"９９號","E_COORD97":167382.73999999999,"N_COORD97":2548082.6600000001,"ADDRESS":"理安街９９號","OBJECTID":529179},"geometry":{"x":167382.74000000022,"y":2548082.660000002}},{"attributes":{"ID":529207,"DIS_CODE":0,"TOWNNAME":"新化區","LI":"觀音里","LIN":"6鄰","STREET":"中正路","SECT":" ","MAREA":" ","LANE":" ","ALLEY":" ","HOUSE_NO":"５４７號之１","E_COORD97":179000.54000000001,"N_COORD97":2548664.2599999998,"ADDRESS":"中正路５４７號之１","OBJECTID":529180},"geometry":{"x":179000.54000000004,"y":2548664.2600000016}},{"attributes":{"ID":529208,"DIS_CODE":0,"TOWNNAME":"新化區","LI":"中央里","LIN":"6鄰","STREET":"信義路","SECT":" ","MAREA":" ","LANE":" ","ALLEY":" ","HOUSE_NO":"３０６號","E_COORD97":178950.13,"N_COORD97":2548341.25,"ADDRESS":"信義路３０６號","OBJECTID":529181},"geometry":{"x":178950.13000000082,"y":2548341.25}},{"attributes":{"ID":529209,"DIS_CODE":0,"TOWNNAME":"新化區","LI":"觀音里","LIN":"6鄰","STREET":"中正路","SECT":" ","MAREA":" ","LANE":" ","ALLEY":" ","HOUSE_NO":"５４５號","E_COORD97":179003.51000000001,"N_COORD97":2548654.25,"ADDRESS":"中正路５４５號","OBJECTID":529182},"geometry":{"x":179003.51000000071,"y":2548654.2500000019}},{"attributes":{"ID":529210,"DIS_CODE":0,"TOWNNAME":"新化區","LI":"竹林里","LIN":"6鄰","STREET":"竹林路","SECT":" ","MAREA":" ","LANE":" ","ALLEY":" ","HOUSE_NO":"９１號","E_COORD97":178810.67999999999,"N_COORD97":2548643.25,"ADDRESS":"竹林路９１號","OBJECTID":529183},"geometry":{"x":178810.68000000063,"y":2548643.25}},{"attributes":{"ID":529211,"DIS_CODE":0,"TOWNNAME":"新化區","LI":"護國里","LIN":"6鄰","STREET":"中山路","SECT":" ","MAREA":" ","LANE":" ","ALLEY":" ","HOUSE_NO":"１５２號","E_COORD97":179283.91,"N_COORD97":2548552.25,"ADDRESS":"中山路１５２號","OBJECTID":529184},"geometry":{"x":179283.91000000108,"y":2548552.2500000037}},{"attributes":{"ID":529212,"DIS_CODE":0,"TOWNNAME":"新化區","LI":"武安里","LIN":"6鄰","STREET":"信義路","SECT":" ","MAREA":" ","LANE":" ","ALLEY":" ","HOUSE_NO":"２３１號","E_COORD97":179082.23000000001,"N_COORD97":2548311.25,"ADDRESS":"信義路２３１號","OBJECTID":529185},"geometry":{"x":179082.23000000138,"y":2548311.2500000037}},{"attributes":{"ID":529213,"DIS_CODE":0,"TOWNNAME":"官田區","LI":"隆本里","LIN":"6鄰","STREET":"中華路","SECT":"二段","MAREA":" ","LANE":" ","ALLEY":" ","HOUSE_NO":"１０１號","E_COORD97":179819.39999999999,"N_COORD97":2566827.96,"ADDRESS":"中華路二段１０１號","OBJECTID":529186},"geometry":{"x":179819.40000000037,"y":2566827.9600000009}},{"attributes":{"ID":529214,"DIS_CODE":0,"TOWNNAME":"官田區","LI":"隆本里","LIN":"6鄰","STREET":"中華路","SECT":"二段","MAREA":" ","LANE":" ","ALLEY":" ","HOUSE_NO":"１０３號","E_COORD97":179817.19,"N_COORD97":2566834.25,"ADDRESS":"中華路二段１０３號","OBJECTID":529187},"geometry":{"x":179817.19000000041,"y":2566834.2500000019}},{"attributes":{"ID":529215,"DIS_CODE":0,"TOWNNAME":"官田區","LI":"隆本里","LIN":"6鄰","STREET":"中華路","SECT":"二段","MAREA":" ","LANE":" ","ALLEY":" ","HOUSE_NO":"１０５號","E_COORD97":179815.39999999999,"N_COORD97":2566840.6000000001,"ADDRESS":"中華路二段１０５號","OBJECTID":529188},"geometry":{"x":179815.4000000013,"y":2566840.6000000034}},{"attributes":{"ID":529216,"DIS_CODE":0,"TOWNNAME":"官田區","LI":"隆本里","LIN":"6鄰","STREET":"中華路","SECT":"二段","MAREA":" ","LANE":" ","ALLEY":" ","HOUSE_NO":"１０７號","E_COORD97":179810.10999999999,"N_COORD97":2566850.6299999999,"ADDRESS":"中華路二段１０７號","OBJECTID":529189},"geometry":{"x":179810.11000000127,"y":2566850.6300000008}},{"attributes":{"ID":529217,"DIS_CODE":0,"TOWNNAME":"白河區","LI":"永安里","LIN":"6鄰","STREET":"新厝街","SECT":" ","MAREA":" ","LANE":" ","ALLEY":" ","HOUSE_NO":"１２號","E_COORD97":189813.60000000001,"N_COORD97":2583014.4100000001,"ADDRESS":"新厝街１２號","OBJECTID":529190},"geometry":{"x":189813.59999999963,"y":2583014.4100000039}},{"attributes":{"ID":529218,"DIS_CODE":0,"TOWNNAME":"白河區","LI":"永安里","LIN":"6鄰","STREET":"新厝街","SECT":" ","MAREA":" ","LANE":" ","ALLEY":" ","HOUSE_NO":"１３號","E_COORD97":189827.04999999999,"N_COORD97":2583016.1800000002,"ADDRESS":"新厝街１３號","OBJECTID":529191},"geometry":{"x":189827.05000000075,"y":2583016.1800000016}},{"attributes":{"ID":529219,"DIS_CODE":0,"TOWNNAME":"白河區","LI":"永安里","LIN":"6鄰","STREET":"新厝街","SECT":" ","MAREA":" ","LANE":" ","ALLEY":" ","HOUSE_NO":"１４號","E_COORD97":189814.38,"N_COORD97":2583008.77,"ADDRESS":"新厝街１４號","OBJECTID":529192},"geometry":{"x":189814.38000000082,"y":2583008.7700000014}},{"attributes":{"ID":529220,"DIS_CODE":0,"TOWNNAME":"白河區","LI":"永安里","LIN":"6鄰","STREET":"新厝街","SECT":" ","MAREA":" ","LANE":" ","ALLEY":" ","HOUSE_NO":"１５號","E_COORD97":189827.69,"N_COORD97":2583010.96,"ADDRESS":"新厝街１５號","OBJECTID":529193},"geometry":{"x":189827.68999999948,"y":2583010.9600000009}},{"attributes":{"ID":529221,"DIS_CODE":0,"TOWNNAME":"白河區","LI":"永安里","LIN":"6鄰","STREET":"新厝街","SECT":" ","MAREA":" ","LANE":" ","ALLEY":" ","HOUSE_NO":"１８號","E_COORD97":189814.17000000001,"N_COORD97":2582969.1400000001,"ADDRESS":"新厝街１８號","OBJECTID":529194},"geometry":{"x":189814.17000000086,"y":2582969.1400000043}},{"attributes":{"ID":529222,"DIS_CODE":0,"TOWNNAME":"白河區","LI":"永安里","LIN":"6鄰","STREET":"新厝街","SECT":" ","MAREA":" ","LANE":" ","ALLEY":" ","HOUSE_NO":"２０號","E_COORD97":189810.82999999999,"N_COORD97":2582964.4300000002,"ADDRESS":"新厝街２０號","OBJECTID":529195},"geometry":{"x":189810.83000000007,"y":2582964.4300000016}},{"attributes":{"ID":529223,"DIS_CODE":0,"TOWNNAME":"白河區","LI":"永安里","LIN":"6鄰","STREET":"新厝街","SECT":" ","MAREA":" ","LANE":" ","ALLEY":" ","HOUSE_NO":"２２號","E_COORD97":189807.62,"N_COORD97":2582960.0800000001,"ADDRESS":"新厝街２２號","OBJECTID":529196},"geometry":{"x":189807.62000000197,"y":2582960.0800000019}},{"attributes":{"ID":529224,"DIS_CODE":0,"TOWNNAME":"白河區","LI":"永安里","LIN":"6鄰","STREET":"新厝街","SECT":" ","MAREA":" ","LANE":" ","ALLEY":" ","HOUSE_NO":"２４號","E_COORD97":189804.62,"N_COORD97":2582955.6499999999,"ADDRESS":"新厝街２４號","OBJECTID":529197},"geometry":{"x":189804.62000000104,"y":2582955.6500000022}},{"attributes":{"ID":529225,"DIS_CODE":0,"TOWNNAME":"白河區","LI":"永安里","LIN":"6鄰","STREET":"新厝街","SECT":" ","MAREA":" ","LANE":" ","ALLEY":" ","HOUSE_NO":"２６號","E_COORD97":189801.53,"N_COORD97":2582951.8399999999,"ADDRESS":"新厝街２６號","OBJECTID":529198},"geometry":{"x":189801.52999999933,"y":2582951.8399999999}},{"attributes":{"ID":529226,"DIS_CODE":0,"TOWNNAME":"白河區","LI":"永安里","LIN":"6鄰","STREET":"新厝街","SECT":" ","MAREA":" ","LANE":" ","ALLEY":" ","HOUSE_NO":"２８號","E_COORD97":189798.41,"N_COORD97":2582946.8500000001,"ADDRESS":"新厝街２８號","OBJECTID":529199},"geometry":{"x":189798.41000000015,"y":2582946.8500000015}},{"attributes":{"ID":529227,"DIS_CODE":0,"TOWNNAME":"白河區","LI":"永安里","LIN":"6鄰","STREET":"新厝街","SECT":" ","MAREA":" ","LANE":" ","ALLEY":" ","HOUSE_NO":"８號","E_COORD97":189812.23000000001,"N_COORD97":2583024.6000000001,"ADDRESS":"新厝街８號","OBJECTID":529200},"geometry":{"x":189812.22999999952,"y":2583024.5999999996}}]}