{"displayFieldName":"TOWNNAME","fieldAliases":{"ID":"ID","DIS_CODE":"DIS_CODE","TOWNNAME":"TOWNNAME","LI":"LI","LIN":"LIN","STREET":"STREET","SECT":"SECT","MAREA":"MAREA","LANE":"LANE","ALLEY":"ALLEY","HOUSE_NO":"HOUSE_NO","E_COORD97":"E_COORD97","N_COORD97":"N_COORD97","ADDRESS":"ADDRESS","OBJECTID":"OBJECTID"},"geometryType":"esriGeometryPoint","spatialReference":{"wkid":102443,"latestWkid":3826},"fields":[{"name":"ID","type":"esriFieldTypeDouble","alias":"ID"},{"name":"DIS_CODE","type":"esriFieldTypeInteger","alias":"DIS_CODE"},{"name":"TOWNNAME","type":"esriFieldTypeString","alias":"TOWNNAME","length":8},{"name":"LI","type":"esriFieldTypeString","alias":"LI","length":8},{"name":"LIN","type":"esriFieldTypeString","alias":"LIN","length":12},{"name":"STREET","type":"esriFieldTypeString","alias":"STREET","length":20},{"name":"SECT","type":"esriFieldTypeString","alias":"SECT","length":8},{"name":"MAREA","type":"esriFieldTypeString","alias":"MAREA","length":12},{"name":"LANE","type":"esriFieldTypeString","alias":"LANE","length":10},{"name":"ALLEY","type":"esriFieldTypeString","alias":"ALLEY","length":10},{"name":"HOUSE_NO","type":"esriFieldTypeString","alias":"HOUSE_NO","length":20},{"name":"E_COORD97","type":"esriFieldTypeDouble","alias":"E_COORD97"},{"name":"N_COORD97","type":"esriFieldTypeDouble","alias":"N_COORD97"},{"name":"ADDRESS","type":"esriFieldTypeString","alias":"ADDRESS","length":50},{"name":"OBJECTID","type":"esriFieldTypeOID","alias":"OBJECTID"}],"features":[{"attributes":{"ID":563428,"DIS_CODE":0,"TOWNNAME":"東區","LI":"新東里","LIN":"15鄰","STREET":"裕豐街","SECT":" ","MAREA":" ","LANE":" ","ALLEY":" ","HOUSE_NO":"１３５號","E_COORD97":170755.34,"N_COORD97":2543074.79,"ADDRESS":"裕豐街１３５號","OBJECTID":563401},"geometry":{"x":170755.34000000171,"y":2543074.7899999991}},{"attributes":{"ID":563429,"DIS_CODE":0,"TOWNNAME":"東區","LI":"崇成里","LIN":"9鄰","STREET":"崇德十三街","SECT":" ","MAREA":" ","LANE":" ","ALLEY":" ","HOUSE_NO":"１６號","E_COORD97":170852.78,"N_COORD97":2541279.02,"ADDRESS":"崇德十三街１６號","OBJECTID":563402},"geometry":{"x":170852.78000000212,"y":2541279.0200000014}},{"attributes":{"ID":563430,"DIS_CODE":0,"TOWNNAME":"東區","LI":"崇文里","LIN":"9鄰","STREET":"崇德十八街","SECT":" ","MAREA":" ","LANE":" ","ALLEY":" ","HOUSE_NO":"１２３號","E_COORD97":171077.69,"N_COORD97":2541044.75,"ADDRESS":"崇德十八街１２３號","OBJECTID":563403},"geometry":{"x":171077.69000000134,"y":2541044.75}},{"attributes":{"ID":563431,"DIS_CODE":0,"TOWNNAME":"東區","LI":"崇成里","LIN":"9鄰","STREET":"崇德十三街","SECT":" ","MAREA":" ","LANE":" ","ALLEY":" ","HOUSE_NO":"４０號","E_COORD97":170950.98000000001,"N_COORD97":2541278.6899999999,"ADDRESS":"崇德十三街４０號","OBJECTID":563404},"geometry":{"x":170950.98000000045,"y":2541278.6899999995}},{"attributes":{"ID":563432,"DIS_CODE":0,"TOWNNAME":"東區","LI":"崇成里","LIN":"9鄰","STREET":"崇德十三街","SECT":" ","MAREA":" ","LANE":" ","ALLEY":" ","HOUSE_NO":"１０號","E_COORD97":170839.67999999999,"N_COORD97":2541279.1299999999,"ADDRESS":"崇德十三街１０號","OBJECTID":563405},"geometry":{"x":170839.68000000063,"y":2541279.129999999}},{"attributes":{"ID":563433,"DIS_CODE":0,"TOWNNAME":"東區","LI":"崇成里","LIN":"9鄰","STREET":"崇德十三街","SECT":" ","MAREA":" ","LANE":" ","ALLEY":" ","HOUSE_NO":"１２號","E_COORD97":170843.89999999999,"N_COORD97":2541279.02,"ADDRESS":"崇德十三街１２號","OBJECTID":563406},"geometry":{"x":170843.9000000013,"y":2541279.0200000014}},{"attributes":{"ID":563434,"DIS_CODE":0,"TOWNNAME":"東區","LI":"崇成里","LIN":"9鄰","STREET":"崇德十三街","SECT":" ","MAREA":" ","LANE":" ","ALLEY":" ","HOUSE_NO":"１４號","E_COORD97":170848.13,"N_COORD97":2541279.02,"ADDRESS":"崇德十三街１４號","OBJECTID":563407},"geometry":{"x":170848.12999999989,"y":2541279.0200000014}},{"attributes":{"ID":563435,"DIS_CODE":0,"TOWNNAME":"東區","LI":"崇成里","LIN":"9鄰","STREET":"崇德十三街","SECT":" ","MAREA":" ","LANE":" ","ALLEY":" ","HOUSE_NO":"４２號","E_COORD97":170955.73999999999,"N_COORD97":2541278.5899999999,"ADDRESS":"崇德十三街４２號","OBJECTID":563408},"geometry":{"x":170955.74000000022,"y":2541278.5900000017}},{"attributes":{"ID":563436,"DIS_CODE":0,"TOWNNAME":"東區","LI":"崇成里","LIN":"9鄰","STREET":"崇德十三街","SECT":" ","MAREA":" ","LANE":" ","ALLEY":" ","HOUSE_NO":"５０號","E_COORD97":170977.53,"N_COORD97":2541278.48,"ADDRESS":"崇德十三街５０號","OBJECTID":563409},"geometry":{"x":170977.53000000026,"y":2541278.4799999986}},{"attributes":{"ID":563437,"DIS_CODE":0,"TOWNNAME":"東區","LI":"崇成里","LIN":"9鄰","STREET":"崇德十三街","SECT":" ","MAREA":" ","LANE":" ","ALLEY":" ","HOUSE_NO":"５２號","E_COORD97":170981.53,"N_COORD97":2541278.5899999999,"ADDRESS":"崇德十三街５２號","OBJECTID":563410},"geometry":{"x":170981.52999999933,"y":2541278.5900000017}},{"attributes":{"ID":563438,"DIS_CODE":0,"TOWNNAME":"東區","LI":"崇文里","LIN":"9鄰","STREET":"崇德十八街","SECT":" ","MAREA":" ","LANE":" ","ALLEY":" ","HOUSE_NO":"１１５號","E_COORD97":171059.48000000001,"N_COORD97":2541035.2999999998,"ADDRESS":"崇德十八街１１５號","OBJECTID":563411},"geometry":{"x":171059.48000000045,"y":2541035.3000000007}},{"attributes":{"ID":563439,"DIS_CODE":0,"TOWNNAME":"東區","LI":"中西里","LIN":"17鄰","STREET":"林森路","SECT":"二段","MAREA":" ","LANE":" ","ALLEY":" ","HOUSE_NO":"７９號之５","E_COORD97":170126.73000000001,"N_COORD97":2543281.1400000001,"ADDRESS":"林森路二段７９號之５","OBJECTID":563412},"geometry":{"x":170126.73000000138,"y":2543281.1400000006}},{"attributes":{"ID":563440,"DIS_CODE":0,"TOWNNAME":"東區","LI":"中西里","LIN":"17鄰","STREET":"林森路","SECT":"二段","MAREA":" ","LANE":" ","ALLEY":" ","HOUSE_NO":"７９號之６","E_COORD97":170131.98999999999,"N_COORD97":2543286.8700000001,"ADDRESS":"林森路二段７９號之６","OBJECTID":563413},"geometry":{"x":170131.99000000022,"y":2543286.8699999992}},{"attributes":{"ID":563441,"DIS_CODE":0,"TOWNNAME":"東區","LI":"崇文里","LIN":"9鄰","STREET":"崇德十八街","SECT":" ","MAREA":" ","LANE":" ","ALLEY":" ","HOUSE_NO":"１１７號","E_COORD97":171052.31,"N_COORD97":2541040.6699999999,"ADDRESS":"崇德十八街１１７號","OBJECTID":563414},"geometry":{"x":171052.31000000052,"y":2541040.6700000018}},{"attributes":{"ID":563442,"DIS_CODE":0,"TOWNNAME":"東區","LI":"崇文里","LIN":"9鄰","STREET":"崇德十八街","SECT":" ","MAREA":" ","LANE":" ","ALLEY":" ","HOUSE_NO":"１１９號","E_COORD97":171072.81,"N_COORD97":2541038.8799999999,"ADDRESS":"崇德十八街１１９號","OBJECTID":563415},"geometry":{"x":171072.81000000052,"y":2541038.879999999}},{"attributes":{"ID":563443,"DIS_CODE":0,"TOWNNAME":"東區","LI":"崇文里","LIN":"9鄰","STREET":"崇德十八街","SECT":" ","MAREA":" ","LANE":" ","ALLEY":" ","HOUSE_NO":"１２１號","E_COORD97":171078.89000000001,"N_COORD97":2541040.6699999999,"ADDRESS":"崇德十八街１２１號","OBJECTID":563416},"geometry":{"x":171078.8900000006,"y":2541040.6700000018}},{"attributes":{"ID":563444,"DIS_CODE":0,"TOWNNAME":"東區","LI":"崇文里","LIN":"9鄰","STREET":"崇德十八街","SECT":" ","MAREA":" ","LANE":" ","ALLEY":" ","HOUSE_NO":"１號","E_COORD97":170835.95000000001,"N_COORD97":2541041.5699999998,"ADDRESS":"崇德十八街１號","OBJECTID":563417},"geometry":{"x":170835.95000000019,"y":2541041.5700000022}},{"attributes":{"ID":563445,"DIS_CODE":0,"TOWNNAME":"東區","LI":"崇文里","LIN":"9鄰","STREET":"崇德十八街","SECT":" ","MAREA":" ","LANE":" ","ALLEY":" ","HOUSE_NO":"２９號","E_COORD97":170871.59,"N_COORD97":2541041.77,"ADDRESS":"崇德十八街２９號","OBJECTID":563418},"geometry":{"x":170871.58999999985,"y":2541041.7700000033}},{"attributes":{"ID":563446,"DIS_CODE":0,"TOWNNAME":"東區","LI":"崇文里","LIN":"9鄰","STREET":"崇德十八街","SECT":" ","MAREA":" ","LANE":" ","ALLEY":" ","HOUSE_NO":"３１號","E_COORD97":170877.95999999999,"N_COORD97":2541040.9700000002,"ADDRESS":"崇德十八街３１號","OBJECTID":563419},"geometry":{"x":170877.95999999996,"y":2541040.9700000007}},{"attributes":{"ID":563447,"DIS_CODE":0,"TOWNNAME":"東區","LI":"崇文里","LIN":"9鄰","STREET":"崇德十八街","SECT":" ","MAREA":" ","LANE":" ","ALLEY":" ","HOUSE_NO":"３７號","E_COORD97":170890.60000000001,"N_COORD97":2541041.5699999998,"ADDRESS":"崇德十八街３７號","OBJECTID":563420},"geometry":{"x":170890.60000000149,"y":2541041.5700000022}},{"attributes":{"ID":563448,"DIS_CODE":0,"TOWNNAME":"東區","LI":"崇文里","LIN":"9鄰","STREET":"崇德十八街","SECT":" ","MAREA":" ","LANE":" ","ALLEY":" ","HOUSE_NO":"３９號","E_COORD97":170895.07999999999,"N_COORD97":2541041.4700000002,"ADDRESS":"崇德十八街３９號","OBJECTID":563421},"geometry":{"x":170895.08000000101,"y":2541041.4699999988}},{"attributes":{"ID":563449,"DIS_CODE":0,"TOWNNAME":"東區","LI":"崇文里","LIN":"9鄰","STREET":"崇德十八街","SECT":" ","MAREA":" ","LANE":" ","ALLEY":" ","HOUSE_NO":"３號","E_COORD97":170852.57000000001,"N_COORD97":2541041.27,"ADDRESS":"崇德十八街３號","OBJECTID":563422},"geometry":{"x":170852.57000000216,"y":2541041.2699999996}},{"attributes":{"ID":563450,"DIS_CODE":0,"TOWNNAME":"東區","LI":"崇文里","LIN":"9鄰","STREET":"崇德十八街","SECT":" ","MAREA":" ","LANE":" ","ALLEY":" ","HOUSE_NO":"４１號","E_COORD97":170899.35999999999,"N_COORD97":2541041.5699999998,"ADDRESS":"崇德十八街４１號","OBJECTID":563423},"geometry":{"x":170899.36000000034,"y":2541041.5700000022}},{"attributes":{"ID":563451,"DIS_CODE":0,"TOWNNAME":"東區","LI":"崇文里","LIN":"9鄰","STREET":"崇德十八街","SECT":" ","MAREA":" ","LANE":" ","ALLEY":" ","HOUSE_NO":"４３號","E_COORD97":170912.48000000001,"N_COORD97":2541014.1699999999,"ADDRESS":"崇德十八街４３號","OBJECTID":563424},"geometry":{"x":170912.48000000045,"y":2541014.1699999999}},{"attributes":{"ID":563452,"DIS_CODE":0,"TOWNNAME":"東區","LI":"崇文里","LIN":"9鄰","STREET":"崇德十八街","SECT":" ","MAREA":" ","LANE":" ","ALLEY":" ","HOUSE_NO":"５１號","E_COORD97":170921.56,"N_COORD97":2541043.1600000001,"ADDRESS":"崇德十八街５１號","OBJECTID":563425},"geometry":{"x":170921.56000000052,"y":2541043.1600000039}},{"attributes":{"ID":563453,"DIS_CODE":0,"TOWNNAME":"東區","LI":"崇文里","LIN":"9鄰","STREET":"崇德十八街","SECT":" ","MAREA":" ","LANE":" ","ALLEY":" ","HOUSE_NO":"５３號","E_COORD97":170926.14000000001,"N_COORD97":2541042.96,"ADDRESS":"崇德十八街５３號","OBJECTID":563426},"geometry":{"x":170926.1400000006,"y":2541042.9600000028}},{"attributes":{"ID":563454,"DIS_CODE":0,"TOWNNAME":"東區","LI":"崇文里","LIN":"9鄰","STREET":"崇德十八街","SECT":" ","MAREA":" ","LANE":" ","ALLEY":" ","HOUSE_NO":"５５號","E_COORD97":170930.62,"N_COORD97":2541043.2599999998,"ADDRESS":"崇德十八街５５號","OBJECTID":563427},"geometry":{"x":170930.62000000104,"y":2541043.2600000016}},{"attributes":{"ID":563455,"DIS_CODE":0,"TOWNNAME":"東區","LI":"崇文里","LIN":"9鄰","STREET":"崇德十八街","SECT":" ","MAREA":" ","LANE":" ","ALLEY":" ","HOUSE_NO":"５７號","E_COORD97":170935.5,"N_COORD97":2541043.1600000001,"ADDRESS":"崇德十八街５７號","OBJECTID":563428},"geometry":{"x":170935.5,"y":2541043.1600000039}},{"attributes":{"ID":563456,"DIS_CODE":0,"TOWNNAME":"東區","LI":"崇文里","LIN":"9鄰","STREET":"崇德十八街","SECT":" ","MAREA":" ","LANE":" ","ALLEY":" ","HOUSE_NO":"５９號","E_COORD97":170939.38,"N_COORD97":2541042.96,"ADDRESS":"崇德十八街５９號","OBJECTID":563429},"geometry":{"x":170939.37999999989,"y":2541042.9600000028}},{"attributes":{"ID":563457,"DIS_CODE":0,"TOWNNAME":"東區","LI":"中西里","LIN":"8鄰","STREET":"勝利路","SECT":" ","MAREA":" ","LANE":" ","ALLEY":" ","HOUSE_NO":"２２號","E_COORD97":169802.62,"N_COORD97":2543409.3599999999,"ADDRESS":"勝利路２２號","OBJECTID":563430},"geometry":{"x":169802.61999999918,"y":2543409.3599999994}},{"attributes":{"ID":563458,"DIS_CODE":0,"TOWNNAME":"麻豆區","LI":"東角里","LIN":"11鄰","STREET":"國中街","SECT":" ","MAREA":" ","LANE":" ","ALLEY":" ","HOUSE_NO":"８６號","E_COORD97":173968.76000000001,"N_COORD97":2564573.6600000001,"ADDRESS":"國中街８６號","OBJECTID":563431},"geometry":{"x":173968.76000000071,"y":2564573.660000002}},{"attributes":{"ID":563459,"DIS_CODE":0,"TOWNNAME":"東區","LI":"中西里","LIN":"24鄰","STREET":"長榮路","SECT":"二段","MAREA":" ","LANE":" ","ALLEY":" ","HOUSE_NO":"２５６號","E_COORD97":170184.06,"N_COORD97":2543454.73,"ADDRESS":"長榮路二段２５６號","OBJECTID":563432},"geometry":{"x":170184.06000000145,"y":2543454.7300000023}},{"attributes":{"ID":563460,"DIS_CODE":0,"TOWNNAME":"東區","LI":"中西里","LIN":"23鄰","STREET":"長榮路","SECT":"二段","MAREA":" ","LANE":" ","ALLEY":" ","HOUSE_NO":"３１６號","E_COORD97":170203.39999999999,"N_COORD97":2543565.3900000001,"ADDRESS":"長榮路二段３１６號","OBJECTID":563433},"geometry":{"x":170203.4000000013,"y":2543565.3900000025}},{"attributes":{"ID":563461,"DIS_CODE":0,"TOWNNAME":"東區","LI":"中西里","LIN":"22鄰","STREET":"長榮路","SECT":"二段","MAREA":" ","LANE":" ","ALLEY":" ","HOUSE_NO":"１３０號","E_COORD97":170054.35999999999,"N_COORD97":2543277.27,"ADDRESS":"長榮路二段１３０號","OBJECTID":563434},"geometry":{"x":170054.36000000127,"y":2543277.2700000014}},{"attributes":{"ID":563462,"DIS_CODE":0,"TOWNNAME":"佳里區","LI":"東寧里","LIN":"9鄰","STREET":"和平街","SECT":" ","MAREA":" ","LANE":" ","ALLEY":" ","HOUSE_NO":"１０２號","E_COORD97":165800.59,"N_COORD97":2562519.98,"ADDRESS":"和平街１０２號","OBJECTID":563435},"geometry":{"x":165800.59000000078,"y":2562519.9800000023}},{"attributes":{"ID":563463,"DIS_CODE":0,"TOWNNAME":"佳里區","LI":"東寧里","LIN":"9鄰","STREET":"和平街","SECT":" ","MAREA":" ","LANE":" ","ALLEY":" ","HOUSE_NO":"１０４號","E_COORD97":165798.23999999999,"N_COORD97":2562520.02,"ADDRESS":"和平街１０４號","OBJECTID":563436},"geometry":{"x":165798.24000000115,"y":2562520.0199999996}},{"attributes":{"ID":563464,"DIS_CODE":0,"TOWNNAME":"佳里區","LI":"東寧里","LIN":"9鄰","STREET":"和平街","SECT":" ","MAREA":" ","LANE":" ","ALLEY":" ","HOUSE_NO":"１０６號","E_COORD97":165794.34,"N_COORD97":2562519.9199999999,"ADDRESS":"和平街１０６號","OBJECTID":563437},"geometry":{"x":165794.34000000078,"y":2562519.9200000018}},{"attributes":{"ID":563465,"DIS_CODE":0,"TOWNNAME":"佳里區","LI":"東寧里","LIN":"9鄰","STREET":"和平街","SECT":" ","MAREA":" ","LANE":" ","ALLEY":" ","HOUSE_NO":"１０８號","E_COORD97":165789.62,"N_COORD97":2562520.3799999999,"ADDRESS":"和平街１０８號","OBJECTID":563438},"geometry":{"x":165789.62000000011,"y":2562520.379999999}},{"attributes":{"ID":563466,"DIS_CODE":0,"TOWNNAME":"佳里區","LI":"東寧里","LIN":"9鄰","STREET":"和平街","SECT":" ","MAREA":" ","LANE":" ","ALLEY":" ","HOUSE_NO":"１１０號","E_COORD97":165785.59,"N_COORD97":2562520.9700000002,"ADDRESS":"和平街１１０號","OBJECTID":563439},"geometry":{"x":165785.59000000078,"y":2562520.9700000025}},{"attributes":{"ID":563467,"DIS_CODE":0,"TOWNNAME":"佳里區","LI":"東寧里","LIN":"9鄰","STREET":"和平街","SECT":" ","MAREA":" ","LANE":" ","ALLEY":" ","HOUSE_NO":"１１２號","E_COORD97":165780.51999999999,"N_COORD97":2562521.77,"ADDRESS":"和平街１１２號","OBJECTID":563440},"geometry":{"x":165780.52000000048,"y":2562521.7699999996}},{"attributes":{"ID":563468,"DIS_CODE":0,"TOWNNAME":"佳里區","LI":"安西里","LIN":"9鄰","STREET":"和平街","SECT":" ","MAREA":" ","LANE":" ","ALLEY":" ","HOUSE_NO":"１３７號","E_COORD97":165633.48999999999,"N_COORD97":2562481.9100000001,"ADDRESS":"和平街１３７號","OBJECTID":563441},"geometry":{"x":165633.49000000209,"y":2562481.9100000001}},{"attributes":{"ID":563469,"DIS_CODE":0,"TOWNNAME":"佳里區","LI":"安西里","LIN":"9鄰","STREET":"和平街","SECT":" ","MAREA":" ","LANE":" ","ALLEY":" ","HOUSE_NO":"１３９號","E_COORD97":165629.54999999999,"N_COORD97":2562481.5299999998,"ADDRESS":"和平街１３９號","OBJECTID":563442},"geometry":{"x":165629.55000000075,"y":2562481.5300000012}},{"attributes":{"ID":563470,"DIS_CODE":0,"TOWNNAME":"佳里區","LI":"安西里","LIN":"9鄰","STREET":"和平街","SECT":" ","MAREA":" ","LANE":" ","ALLEY":" ","HOUSE_NO":"１４１號","E_COORD97":165624.25,"N_COORD97":2562480.9900000002,"ADDRESS":"和平街１４１號","OBJECTID":563443},"geometry":{"x":165624.25,"y":2562480.9900000002}},{"attributes":{"ID":563471,"DIS_CODE":0,"TOWNNAME":"佳里區","LI":"安西里","LIN":"9鄰","STREET":"和平街","SECT":" ","MAREA":" ","LANE":" ","ALLEY":" ","HOUSE_NO":"１４５號","E_COORD97":165616.42000000001,"N_COORD97":2562480.8199999998,"ADDRESS":"和平街１４５號","OBJECTID":563444},"geometry":{"x":165616.41999999993,"y":2562480.8200000022}},{"attributes":{"ID":563472,"DIS_CODE":0,"TOWNNAME":"佳里區","LI":"安西里","LIN":"9鄰","STREET":"和平街","SECT":" ","MAREA":" ","LANE":" ","ALLEY":" ","HOUSE_NO":"１４７號","E_COORD97":165612.51000000001,"N_COORD97":2562480.46,"ADDRESS":"和平街１４７號","OBJECTID":563445},"geometry":{"x":165612.50999999885,"y":2562480.4600000028}},{"attributes":{"ID":563473,"DIS_CODE":0,"TOWNNAME":"佳里區","LI":"安西里","LIN":"9鄰","STREET":"和平街","SECT":" ","MAREA":" ","LANE":" ","ALLEY":" ","HOUSE_NO":"１４９號","E_COORD97":165607.79999999999,"N_COORD97":2562478.9399999999,"ADDRESS":"和平街１４９號","OBJECTID":563446},"geometry":{"x":165607.80000000075,"y":2562478.9400000013}},{"attributes":{"ID":563474,"DIS_CODE":0,"TOWNNAME":"佳里區","LI":"安西里","LIN":"9鄰","STREET":"和平街","SECT":" ","MAREA":" ","LANE":" ","ALLEY":" ","HOUSE_NO":"１５１號","E_COORD97":165603.88,"N_COORD97":2562478.21,"ADDRESS":"和平街１５１號","OBJECTID":563447},"geometry":{"x":165603.88000000082,"y":2562478.2100000028}},{"attributes":{"ID":563475,"DIS_CODE":0,"TOWNNAME":"佳里區","LI":"安西里","LIN":"9鄰","STREET":"和平街","SECT":" ","MAREA":" ","LANE":" ","ALLEY":" ","HOUSE_NO":"１５３號","E_COORD97":165599.78,"N_COORD97":2562477.7200000002,"ADDRESS":"和平街１５３號","OBJECTID":563448},"geometry":{"x":165599.78000000119,"y":2562477.7200000025}},{"attributes":{"ID":563476,"DIS_CODE":0,"TOWNNAME":"佳里區","LI":"安西里","LIN":"9鄰","STREET":"和平街","SECT":" ","MAREA":" ","LANE":" ","ALLEY":" ","HOUSE_NO":"１５５號","E_COORD97":165582.78,"N_COORD97":2562472.8100000001,"ADDRESS":"和平街１５５號","OBJECTID":563449},"geometry":{"x":165582.78000000119,"y":2562472.8100000005}},{"attributes":{"ID":563477,"DIS_CODE":0,"TOWNNAME":"佳里區","LI":"安西里","LIN":"9鄰","STREET":"和平街","SECT":" ","MAREA":" ","LANE":" ","ALLEY":" ","HOUSE_NO":"１５９號","E_COORD97":165565.87,"N_COORD97":2562474.5800000001,"ADDRESS":"和平街１５９號","OBJECTID":563450},"geometry":{"x":165565.87000000011,"y":2562474.5800000019}},{"attributes":{"ID":563478,"DIS_CODE":0,"TOWNNAME":"佳里區","LI":"安西里","LIN":"9鄰","STREET":"和平街","SECT":" ","MAREA":" ","LANE":" ","ALLEY":" ","HOUSE_NO":"１６１號","E_COORD97":165561,"N_COORD97":2562474.0600000001,"ADDRESS":"和平街１６１號","OBJECTID":563451},"geometry":{"x":165561.00000000093,"y":2562474.0600000005}},{"attributes":{"ID":563479,"DIS_CODE":0,"TOWNNAME":"佳里區","LI":"安西里","LIN":"9鄰","STREET":"和平街","SECT":" ","MAREA":" ","LANE":" ","ALLEY":" ","HOUSE_NO":"１６３號","E_COORD97":165557.07999999999,"N_COORD97":2562473.1699999999,"ADDRESS":"和平街１６３號","OBJECTID":563452},"geometry":{"x":165557.08000000101,"y":2562473.1699999999}},{"attributes":{"ID":563480,"DIS_CODE":0,"TOWNNAME":"佳里區","LI":"安西里","LIN":"9鄰","STREET":"和平街","SECT":" ","MAREA":" ","LANE":" ","ALLEY":" ","HOUSE_NO":"１７１號","E_COORD97":165542.72,"N_COORD97":2562472,"ADDRESS":"和平街１７１號","OBJECTID":563453},"geometry":{"x":165542.71999999974,"y":2562472.0000000019}},{"attributes":{"ID":563481,"DIS_CODE":0,"TOWNNAME":"佳里區","LI":"安西里","LIN":"9鄰","STREET":"和平街","SECT":" ","MAREA":" ","LANE":" ","ALLEY":" ","HOUSE_NO":"１７３號","E_COORD97":165537.79999999999,"N_COORD97":2562471.1400000001,"ADDRESS":"和平街１７３號","OBJECTID":563454},"geometry":{"x":165537.80000000168,"y":2562471.1400000043}},{"attributes":{"ID":563482,"DIS_CODE":0,"TOWNNAME":"佳里區","LI":"安西里","LIN":"9鄰","STREET":"和平街","SECT":" ","MAREA":" ","LANE":" ","ALLEY":" ","HOUSE_NO":"１７５號","E_COORD97":165533.28,"N_COORD97":2562470.5600000001,"ADDRESS":"和平街１７５號","OBJECTID":563455},"geometry":{"x":165533.28000000212,"y":2562470.5600000005}},{"attributes":{"ID":563483,"DIS_CODE":0,"TOWNNAME":"佳里區","LI":"安西里","LIN":"9鄰","STREET":"和平街","SECT":" ","MAREA":" ","LANE":" ","ALLEY":" ","HOUSE_NO":"１７７號","E_COORD97":165528.42999999999,"N_COORD97":2562470.1400000001,"ADDRESS":"和平街１７７號","OBJECTID":563456},"geometry":{"x":165528.43000000063,"y":2562470.1400000006}},{"attributes":{"ID":563484,"DIS_CODE":0,"TOWNNAME":"佳里區","LI":"東寧里","LIN":"9鄰","STREET":"和平街","SECT":" ","MAREA":" ","LANE":" ","ALLEY":" ","HOUSE_NO":"９０號","E_COORD97":165822.09,"N_COORD97":2562523.7999999998,"ADDRESS":"和平街９０號","OBJECTID":563457},"geometry":{"x":165822.08999999985,"y":2562523.8000000007}},{"attributes":{"ID":563485,"DIS_CODE":0,"TOWNNAME":"佳里區","LI":"東寧里","LIN":"9鄰","STREET":"和平街","SECT":" ","MAREA":" ","LANE":" ","ALLEY":" ","HOUSE_NO":"９２號","E_COORD97":165817.70999999999,"N_COORD97":2562523.6000000001,"ADDRESS":"和平街９２號","OBJECTID":563458},"geometry":{"x":165817.70999999996,"y":2562523.5999999996}},{"attributes":{"ID":563486,"DIS_CODE":0,"TOWNNAME":"佳里區","LI":"東寧里","LIN":"9鄰","STREET":"和平街","SECT":" ","MAREA":" ","LANE":" ","ALLEY":" ","HOUSE_NO":"９４號","E_COORD97":165813.23000000001,"N_COORD97":2562523.6400000001,"ADDRESS":"和平街９４號","OBJECTID":563459},"geometry":{"x":165813.23000000045,"y":2562523.6400000006}},{"attributes":{"ID":563487,"DIS_CODE":0,"TOWNNAME":"佳里區","LI":"東寧里","LIN":"9鄰","STREET":"和平街","SECT":" ","MAREA":" ","LANE":" ","ALLEY":" ","HOUSE_NO":"９６號","E_COORD97":165808.84,"N_COORD97":2562523.8799999999,"ADDRESS":"和平街９６號","OBJECTID":563460},"geometry":{"x":165808.84000000171,"y":2562523.879999999}},{"attributes":{"ID":563488,"DIS_CODE":0,"TOWNNAME":"佳里區","LI":"東寧里","LIN":"9鄰","STREET":"和平街","SECT":" ","MAREA":" ","LANE":" ","ALLEY":" ","HOUSE_NO":"９８號","E_COORD97":165802.89999999999,"N_COORD97":2562519.9500000002,"ADDRESS":"和平街９８號","OBJECTID":563461},"geometry":{"x":165802.9000000013,"y":2562519.9500000011}},{"attributes":{"ID":563489,"DIS_CODE":0,"TOWNNAME":"下營區","LI":"仁里里","LIN":"9鄰","STREET":"公園路","SECT":" ","MAREA":" ","LANE":" ","ALLEY":" ","HOUSE_NO":"１３５號","E_COORD97":173851.73000000001,"N_COORD97":2570233.5699999998,"ADDRESS":"公園路１３５號","OBJECTID":563462},"geometry":{"x":173851.73000000045,"y":2570233.5700000003}},{"attributes":{"ID":563490,"DIS_CODE":0,"TOWNNAME":"下營區","LI":"仁里里","LIN":"9鄰","STREET":"公園路","SECT":" ","MAREA":" ","LANE":" ","ALLEY":" ","HOUSE_NO":"１４５號","E_COORD97":173756.48999999999,"N_COORD97":2570227.04,"ADDRESS":"公園路１４５號","OBJECTID":563463},"geometry":{"x":173756.49000000022,"y":2570227.0399999972}},{"attributes":{"ID":563491,"DIS_CODE":0,"TOWNNAME":"下營區","LI":"仁里里","LIN":"9鄰","STREET":"公園路","SECT":" ","MAREA":" ","LANE":" ","ALLEY":" ","HOUSE_NO":"１５３號","E_COORD97":173688.29999999999,"N_COORD97":2570261.5800000001,"ADDRESS":"公園路１５３號","OBJECTID":563464},"geometry":{"x":173688.30000000168,"y":2570261.5800000001}},{"attributes":{"ID":563492,"DIS_CODE":0,"TOWNNAME":"下營區","LI":"仁里里","LIN":"9鄰","STREET":"公園路","SECT":" ","MAREA":" ","LANE":" ","ALLEY":" ","HOUSE_NO":"１６３號","E_COORD97":173605.12,"N_COORD97":2570253.7999999998,"ADDRESS":"公園路１６３號","OBJECTID":563465},"geometry":{"x":173605.12000000197,"y":2570253.8000000007}},{"attributes":{"ID":563493,"DIS_CODE":0,"TOWNNAME":"下營區","LI":"仁里里","LIN":"9鄰","STREET":"公園路","SECT":" ","MAREA":" ","LANE":" ","ALLEY":" ","HOUSE_NO":"１６５號","E_COORD97":173588.76000000001,"N_COORD97":2570250.7799999998,"ADDRESS":"公園路１６５號","OBJECTID":563466},"geometry":{"x":173588.76000000071,"y":2570250.7800000012}},{"attributes":{"ID":563494,"DIS_CODE":0,"TOWNNAME":"下營區","LI":"仁里里","LIN":"9鄰","STREET":"公園路","SECT":" ","MAREA":" ","LANE":" ","ALLEY":" ","HOUSE_NO":"１６９號","E_COORD97":173528.44,"N_COORD97":2570238.2599999998,"ADDRESS":"公園路１６９號","OBJECTID":563467},"geometry":{"x":173528.43999999948,"y":2570238.2600000016}},{"attributes":{"ID":563495,"DIS_CODE":0,"TOWNNAME":"下營區","LI":"營前里","LIN":"9鄰","STREET":"健康路","SECT":" ","MAREA":" ","LANE":" ","ALLEY":" ","HOUSE_NO":"７號","E_COORD97":174516.63,"N_COORD97":2570150.0099999998,"ADDRESS":"健康路７號","OBJECTID":563468},"geometry":{"x":174516.62999999896,"y":2570150.0099999979}},{"attributes":{"ID":563496,"DIS_CODE":0,"TOWNNAME":"下營區","LI":"仁里里","LIN":"9鄰","STREET":"公園路","SECT":" ","MAREA":" ","LANE":" ","ALLEY":" ","HOUSE_NO":"１８７號","E_COORD97":173371.94,"N_COORD97":2570249.8100000001,"ADDRESS":"公園路１８７號","OBJECTID":563469},"geometry":{"x":173371.94000000041,"y":2570249.8100000005}},{"attributes":{"ID":563497,"DIS_CODE":0,"TOWNNAME":"下營區","LI":"仁里里","LIN":"9鄰","STREET":"公園路","SECT":" ","MAREA":" ","LANE":" ","ALLEY":" ","HOUSE_NO":"３００號","E_COORD97":173809.67000000001,"N_COORD97":2570284.1899999999,"ADDRESS":"公園路３００號","OBJECTID":563470},"geometry":{"x":173809.67000000179,"y":2570284.1900000032}},{"attributes":{"ID":563498,"DIS_CODE":0,"TOWNNAME":"下營區","LI":"仁里里","LIN":"9鄰","STREET":"公園路","SECT":" ","MAREA":" ","LANE":" ","ALLEY":" ","HOUSE_NO":"３０６號","E_COORD97":173798.85000000001,"N_COORD97":2570284.6400000001,"ADDRESS":"公園路３０６號","OBJECTID":563471},"geometry":{"x":173798.84999999963,"y":2570284.6400000006}},{"attributes":{"ID":563499,"DIS_CODE":0,"TOWNNAME":"下營區","LI":"仁里里","LIN":"9鄰","STREET":"公園路","SECT":" ","MAREA":" ","LANE":" ","ALLEY":" ","HOUSE_NO":"３１０號","E_COORD97":173792.29000000001,"N_COORD97":2570285.46,"ADDRESS":"公園路３１０號","OBJECTID":563472},"geometry":{"x":173792.29000000097,"y":2570285.4600000028}},{"attributes":{"ID":563500,"DIS_CODE":0,"TOWNNAME":"下營區","LI":"仁里里","LIN":"9鄰","STREET":"公園路","SECT":" ","MAREA":" ","LANE":" ","ALLEY":" ","HOUSE_NO":"３１２號","E_COORD97":173785.47,"N_COORD97":2570285.73,"ADDRESS":"公園路３１２號","OBJECTID":563473},"geometry":{"x":173785.47000000067,"y":2570285.7300000023}},{"attributes":{"ID":563501,"DIS_CODE":0,"TOWNNAME":"下營區","LI":"仁里里","LIN":"9鄰","STREET":"公園路","SECT":" ","MAREA":" ","LANE":" ","ALLEY":" ","HOUSE_NO":"３１６號","E_COORD97":173779.16,"N_COORD97":2570286.2799999998,"ADDRESS":"公園路３１６號","OBJECTID":563474},"geometry":{"x":173779.16000000015,"y":2570286.2799999993}},{"attributes":{"ID":563502,"DIS_CODE":0,"TOWNNAME":"下營區","LI":"仁里里","LIN":"9鄰","STREET":"公園路","SECT":" ","MAREA":" ","LANE":" ","ALLEY":" ","HOUSE_NO":"３１８號","E_COORD97":173759.82000000001,"N_COORD97":2570286.8799999999,"ADDRESS":"公園路３１８號","OBJECTID":563475},"geometry":{"x":173759.82000000216,"y":2570286.8800000008}},{"attributes":{"ID":563503,"DIS_CODE":0,"TOWNNAME":"下營區","LI":"仁里里","LIN":"9鄰","STREET":"公園路","SECT":" ","MAREA":" ","LANE":" ","ALLEY":" ","HOUSE_NO":"３２６號","E_COORD97":173737.26999999999,"N_COORD97":2570286.9399999999,"ADDRESS":"公園路３２６號","OBJECTID":563476},"geometry":{"x":173737.27000000142,"y":2570286.9400000013}},{"attributes":{"ID":563504,"DIS_CODE":0,"TOWNNAME":"下營區","LI":"仁里里","LIN":"9鄰","STREET":"公園路","SECT":" ","MAREA":" ","LANE":" ","ALLEY":" ","HOUSE_NO":"３３０號","E_COORD97":173723.95999999999,"N_COORD97":2570289.9500000002,"ADDRESS":"公園路３３０號","OBJECTID":563477},"geometry":{"x":173723.95999999996,"y":2570289.9500000011}},{"attributes":{"ID":563505,"DIS_CODE":0,"TOWNNAME":"下營區","LI":"仁里里","LIN":"9鄰","STREET":"公園路","SECT":" ","MAREA":" ","LANE":" ","ALLEY":" ","HOUSE_NO":"３３６號","E_COORD97":173707.97,"N_COORD97":2570296.4100000001,"ADDRESS":"公園路３３６號","OBJECTID":563478},"geometry":{"x":173707.97000000067,"y":2570296.4100000001}},{"attributes":{"ID":563506,"DIS_CODE":0,"TOWNNAME":"下營區","LI":"仁里里","LIN":"9鄰","STREET":"公園路","SECT":" ","MAREA":" ","LANE":" ","ALLEY":" ","HOUSE_NO":"３４０號","E_COORD97":173700.57000000001,"N_COORD97":2570289.4399999999,"ADDRESS":"公園路３４０號","OBJECTID":563479},"geometry":{"x":173700.57000000216,"y":2570289.4400000032}},{"attributes":{"ID":563507,"DIS_CODE":0,"TOWNNAME":"下營區","LI":"仁里里","LIN":"9鄰","STREET":"公園路","SECT":" ","MAREA":" ","LANE":" ","ALLEY":" ","HOUSE_NO":"３４２號","E_COORD97":173695.73000000001,"N_COORD97":2570291.6099999999,"ADDRESS":"公園路３４２號","OBJECTID":563480},"geometry":{"x":173695.73000000045,"y":2570291.6100000031}},{"attributes":{"ID":563508,"DIS_CODE":0,"TOWNNAME":"下營區","LI":"仁里里","LIN":"9鄰","STREET":"公園路","SECT":" ","MAREA":" ","LANE":" ","ALLEY":" ","HOUSE_NO":"３４６號","E_COORD97":173687.42000000001,"N_COORD97":2570290.8599999999,"ADDRESS":"公園路３４６號","OBJECTID":563481},"geometry":{"x":173687.41999999899,"y":2570290.8600000013}},{"attributes":{"ID":563509,"DIS_CODE":0,"TOWNNAME":"下營區","LI":"仁里里","LIN":"9鄰","STREET":"公園路","SECT":" ","MAREA":" ","LANE":" ","ALLEY":" ","HOUSE_NO":"３５８號","E_COORD97":173646.42000000001,"N_COORD97":2570295.79,"ADDRESS":"公園路３５８號","OBJECTID":563482},"geometry":{"x":173646.41999999993,"y":2570295.7899999991}},{"attributes":{"ID":563510,"DIS_CODE":0,"TOWNNAME":"下營區","LI":"仁里里","LIN":"9鄰","STREET":"公園路","SECT":" ","MAREA":" ","LANE":" ","ALLEY":" ","HOUSE_NO":"３７８號","E_COORD97":173469.69,"N_COORD97":2570333.9100000001,"ADDRESS":"公園路３７８號","OBJECTID":563483},"geometry":{"x":173469.69000000134,"y":2570333.9100000001}},{"attributes":{"ID":563511,"DIS_CODE":0,"TOWNNAME":"下營區","LI":"仁里里","LIN":"9鄰","STREET":"公園路","SECT":" ","MAREA":" ","LANE":" ","ALLEY":" ","HOUSE_NO":"３８２號","E_COORD97":173598.20000000001,"N_COORD97":2570329.98,"ADDRESS":"公園路３８２號","OBJECTID":563484},"geometry":{"x":173598.20000000112,"y":2570329.9800000004}},{"attributes":{"ID":563512,"DIS_CODE":0,"TOWNNAME":"下營區","LI":"仁里里","LIN":"9鄰","STREET":"公園路","SECT":" ","MAREA":" ","LANE":" ","ALLEY":" ","HOUSE_NO":"３８６號","E_COORD97":173578.59,"N_COORD97":2570301.3300000001,"ADDRESS":"公園路３８６號","OBJECTID":563485},"geometry":{"x":173578.59000000078,"y":2570301.3300000019}},{"attributes":{"ID":563513,"DIS_CODE":0,"TOWNNAME":"下營區","LI":"仁里里","LIN":"9鄰","STREET":"公園路","SECT":" ","MAREA":" ","LANE":" ","ALLEY":" ","HOUSE_NO":"４００號","E_COORD97":173509.67000000001,"N_COORD97":2570328.1600000001,"ADDRESS":"公園路４００號","OBJECTID":563486},"geometry":{"x":173509.67000000179,"y":2570328.1600000001}},{"attributes":{"ID":563514,"DIS_CODE":0,"TOWNNAME":"下營區","LI":"仁里里","LIN":"9鄰","STREET":"公園路","SECT":" ","MAREA":" ","LANE":" ","ALLEY":" ","HOUSE_NO":"４１２號","E_COORD97":173411.64000000001,"N_COORD97":2570336.0800000001,"ADDRESS":"公園路４１２號","OBJECTID":563487},"geometry":{"x":173411.6400000006,"y":2570336.0800000001}},{"attributes":{"ID":563515,"DIS_CODE":0,"TOWNNAME":"下營區","LI":"宅內里","LIN":"9鄰","STREET":"友愛街","SECT":" ","MAREA":" ","LANE":" ","ALLEY":" ","HOUSE_NO":"１５０號","E_COORD97":174200.20999999999,"N_COORD97":2570642.7599999998,"ADDRESS":"友愛街１５０號","OBJECTID":563488},"geometry":{"x":174200.20999999996,"y":2570642.7599999998}},{"attributes":{"ID":563516,"DIS_CODE":0,"TOWNNAME":"下營區","LI":"宅內里","LIN":"9鄰","STREET":"友愛街","SECT":" ","MAREA":" ","LANE":" ","ALLEY":" ","HOUSE_NO":"１５８號","E_COORD97":174201.39999999999,"N_COORD97":2570670.73,"ADDRESS":"友愛街１５８號","OBJECTID":563489},"geometry":{"x":174201.40000000037,"y":2570670.7300000004}},{"attributes":{"ID":563517,"DIS_CODE":0,"TOWNNAME":"下營區","LI":"宅內里","LIN":"9鄰","STREET":"友愛街","SECT":" ","MAREA":" ","LANE":" ","ALLEY":" ","HOUSE_NO":"１６０號","E_COORD97":174201.01000000001,"N_COORD97":2570676.0299999998,"ADDRESS":"友愛街１６０號","OBJECTID":563490},"geometry":{"x":174201.01000000071,"y":2570676.0300000012}},{"attributes":{"ID":563518,"DIS_CODE":0,"TOWNNAME":"下營區","LI":"宅內里","LIN":"9鄰","STREET":"友愛街","SECT":" ","MAREA":" ","LANE":" ","ALLEY":" ","HOUSE_NO":"１６８號","E_COORD97":174224.35000000001,"N_COORD97":2570686.1800000002,"ADDRESS":"友愛街１６８號","OBJECTID":563491},"geometry":{"x":174224.34999999963,"y":2570686.1800000016}},{"attributes":{"ID":563519,"DIS_CODE":0,"TOWNNAME":"下營區","LI":"下營里","LIN":"9鄰","STREET":"民族一街","SECT":" ","MAREA":" ","LANE":" ","ALLEY":" ","HOUSE_NO":"２９號","E_COORD97":174438.16,"N_COORD97":2570543.46,"ADDRESS":"民族一街２９號","OBJECTID":563492},"geometry":{"x":174438.16000000015,"y":2570543.4600000009}},{"attributes":{"ID":563520,"DIS_CODE":0,"TOWNNAME":"下營區","LI":"下營里","LIN":"9鄰","STREET":"民族一街","SECT":" ","MAREA":" ","LANE":" ","ALLEY":" ","HOUSE_NO":"３１號","E_COORD97":174433.89999999999,"N_COORD97":2570541.8700000001,"ADDRESS":"民族一街３１號","OBJECTID":563493},"geometry":{"x":174433.89999999944,"y":2570541.870000001}},{"attributes":{"ID":563521,"DIS_CODE":0,"TOWNNAME":"下營區","LI":"下營里","LIN":"9鄰","STREET":"民族一街","SECT":" ","MAREA":" ","LANE":" ","ALLEY":" ","HOUSE_NO":"３３號","E_COORD97":174427.04000000001,"N_COORD97":2570540.23,"ADDRESS":"民族一街３３號","OBJECTID":563494},"geometry":{"x":174427.04000000004,"y":2570540.2300000023}},{"attributes":{"ID":563522,"DIS_CODE":0,"TOWNNAME":"下營區","LI":"後街里","LIN":"9鄰","STREET":"玄德街","SECT":" ","MAREA":" ","LANE":" ","ALLEY":" ","HOUSE_NO":"８０號","E_COORD97":174389.13,"N_COORD97":2570687.54,"ADDRESS":"玄德街８０號","OBJECTID":563495},"geometry":{"x":174389.12999999989,"y":2570687.5399999991}},{"attributes":{"ID":563523,"DIS_CODE":0,"TOWNNAME":"下營區","LI":"後街里","LIN":"9鄰","STREET":"玄德街","SECT":" ","MAREA":" ","LANE":" ","ALLEY":" ","HOUSE_NO":"８８號","E_COORD97":174378.92000000001,"N_COORD97":2570698.02,"ADDRESS":"玄德街８８號","OBJECTID":563496},"geometry":{"x":174378.91999999993,"y":2570698.0199999996}},{"attributes":{"ID":563524,"DIS_CODE":0,"TOWNNAME":"下營區","LI":"後街里","LIN":"9鄰","STREET":"玄德街","SECT":" ","MAREA":" ","LANE":" ","ALLEY":" ","HOUSE_NO":"９０號","E_COORD97":174377.39000000001,"N_COORD97":2570701.9500000002,"ADDRESS":"玄德街９０號","OBJECTID":563497},"geometry":{"x":174377.39000000153,"y":2570701.9499999993}},{"attributes":{"ID":563525,"DIS_CODE":0,"TOWNNAME":"下營區","LI":"新興里","LIN":"9鄰","STREET":"自由街","SECT":" ","MAREA":" ","LANE":" ","ALLEY":" ","HOUSE_NO":"２３號","E_COORD97":174779.29999999999,"N_COORD97":2570686.3999999999,"ADDRESS":"自由街２３號","OBJECTID":563498},"geometry":{"x":174779.29999999981,"y":2570686.4000000004}},{"attributes":{"ID":563526,"DIS_CODE":0,"TOWNNAME":"下營區","LI":"新興里","LIN":"9鄰","STREET":"自由街","SECT":" ","MAREA":" ","LANE":" ","ALLEY":" ","HOUSE_NO":"２５號","E_COORD97":174779.01999999999,"N_COORD97":2570690.7400000002,"ADDRESS":"自由街２５號","OBJECTID":563499},"geometry":{"x":174779.01999999955,"y":2570690.7400000002}},{"attributes":{"ID":563527,"DIS_CODE":0,"TOWNNAME":"下營區","LI":"新興里","LIN":"9鄰","STREET":"自由街","SECT":" ","MAREA":" ","LANE":" ","ALLEY":" ","HOUSE_NO":"２７號","E_COORD97":174778.73999999999,"N_COORD97":2570694.9199999999,"ADDRESS":"自由街２７號","OBJECTID":563500},"geometry":{"x":174778.74000000022,"y":2570694.9200000018}},{"attributes":{"ID":563528,"DIS_CODE":0,"TOWNNAME":"下營區","LI":"新興里","LIN":"9鄰","STREET":"自由街","SECT":" ","MAREA":" ","LANE":" ","ALLEY":" ","HOUSE_NO":"２９號","E_COORD97":174778.64000000001,"N_COORD97":2570698.3900000001,"ADDRESS":"自由街２９號","OBJECTID":563501},"geometry":{"x":174778.63999999966,"y":2570698.3900000025}},{"attributes":{"ID":563529,"DIS_CODE":0,"TOWNNAME":"下營區","LI":"新興里","LIN":"9鄰","STREET":"自由街","SECT":" ","MAREA":" ","LANE":" ","ALLEY":" ","HOUSE_NO":"３１號","E_COORD97":174778.89000000001,"N_COORD97":2570704.6099999999,"ADDRESS":"自由街３１號","OBJECTID":563502},"geometry":{"x":174778.88999999966,"y":2570704.6099999994}},{"attributes":{"ID":563530,"DIS_CODE":0,"TOWNNAME":"下營區","LI":"新興里","LIN":"9鄰","STREET":"自由街","SECT":" ","MAREA":" ","LANE":" ","ALLEY":" ","HOUSE_NO":"３３號","E_COORD97":174778.60000000001,"N_COORD97":2570710.5800000001,"ADDRESS":"自由街３３號","OBJECTID":563503},"geometry":{"x":174778.59999999963,"y":2570710.5800000019}},{"attributes":{"ID":563531,"DIS_CODE":0,"TOWNNAME":"下營區","LI":"新興里","LIN":"9鄰","STREET":"自由街","SECT":" ","MAREA":" ","LANE":" ","ALLEY":" ","HOUSE_NO":"３５號","E_COORD97":174778.60999999999,"N_COORD97":2570716.3300000001,"ADDRESS":"自由街３５號","OBJECTID":563504},"geometry":{"x":174778.61000000127,"y":2570716.3300000001}},{"attributes":{"ID":563532,"DIS_CODE":0,"TOWNNAME":"東區","LI":"大智里","LIN":"8鄰","STREET":"長東街","SECT":" ","MAREA":" ","LANE":" ","ALLEY":" ","HOUSE_NO":"１０１號","E_COORD97":171021.82999999999,"N_COORD97":2540349.8199999998,"ADDRESS":"長東街１０１號","OBJECTID":563505},"geometry":{"x":171021.83000000194,"y":2540349.8200000003}},{"attributes":{"ID":563533,"DIS_CODE":0,"TOWNNAME":"中西區","LI":"水仙里","LIN":"9鄰","STREET":"仁愛街","SECT":" ","MAREA":" ","LANE":" ","ALLEY":" ","HOUSE_NO":"４５號","E_COORD97":167764.45999999999,"N_COORD97":2544080.9900000002,"ADDRESS":"仁愛街４５號","OBJECTID":563506},"geometry":{"x":167764.46000000089,"y":2544080.9900000002}},{"attributes":{"ID":563534,"DIS_CODE":0,"TOWNNAME":"中西區","LI":"水仙里","LIN":"9鄰","STREET":"和平街","SECT":" ","MAREA":" ","LANE":" ","ALLEY":" ","HOUSE_NO":"６１號","E_COORD97":167751.5,"N_COORD97":2544099.7200000002,"ADDRESS":"和平街６１號","OBJECTID":563507},"geometry":{"x":167751.5,"y":2544099.7200000025}},{"attributes":{"ID":563535,"DIS_CODE":0,"TOWNNAME":"永康區","LI":"烏竹里","LIN":"9鄰","STREET":"龍橋街","SECT":" ","MAREA":" ","LANE":" ","ALLEY":" ","HOUSE_NO":"３９８號","E_COORD97":174469.51000000001,"N_COORD97":2549170.3399999999,"ADDRESS":"龍橋街３９８號","OBJECTID":563508},"geometry":{"x":174469.50999999978,"y":2549170.3399999999}},{"attributes":{"ID":563536,"DIS_CODE":0,"TOWNNAME":"永康區","LI":"\u25A0行里","LIN":"9鄰","STREET":"中正路","SECT":" ","MAREA":" ","LANE":" ","ALLEY":" ","HOUSE_NO":"３９５號","E_COORD97":172408.73000000001,"N_COORD97":2548464.54,"ADDRESS":"中正路３９５號","OBJECTID":563509},"geometry":{"x":172408.73000000045,"y":2548464.5400000028}},{"attributes":{"ID":563537,"DIS_CODE":0,"TOWNNAME":"永康區","LI":"蔦松里","LIN":"9鄰","STREET":"正北三路","SECT":" ","MAREA":" ","LANE":" ","ALLEY":" ","HOUSE_NO":"１２６號","E_COORD97":174415.22,"N_COORD97":2550015.9900000002,"ADDRESS":"正北三路１２６號","OBJECTID":563510},"geometry":{"x":174415.21999999974,"y":2550015.9900000021}},{"attributes":{"ID":563538,"DIS_CODE":0,"TOWNNAME":"永康區","LI":"烏竹里","LIN":"9鄰","STREET":"龍橋街","SECT":" ","MAREA":" ","LANE":" ","ALLEY":" ","HOUSE_NO":"３７０號","E_COORD97":174495.01999999999,"N_COORD97":2549105.3500000001,"ADDRESS":"龍橋街３７０號","OBJECTID":563511},"geometry":{"x":174495.02000000142,"y":2549105.3500000015}},{"attributes":{"ID":563539,"DIS_CODE":0,"TOWNNAME":"永康區","LI":"南灣里","LIN":"9鄰","STREET":"南興路","SECT":" ","MAREA":" ","LANE":" ","ALLEY":" ","HOUSE_NO":"９５號","E_COORD97":174242.45000000001,"N_COORD97":2544363.1000000001,"ADDRESS":"南興路９５號","OBJECTID":563512},"geometry":{"x":174242.45000000112,"y":2544363.1000000015}},{"attributes":{"ID":563540,"DIS_CODE":0,"TOWNNAME":"永康區","LI":"埔園里","LIN":"9鄰","STREET":"中山路","SECT":" ","MAREA":" ","LANE":" ","ALLEY":" ","HOUSE_NO":"１０５號","E_COORD97":173742.23999999999,"N_COORD97":2547828.7400000002,"ADDRESS":"中山路１０５號","OBJECTID":563513},"geometry":{"x":173742.24000000115,"y":2547828.7400000002}},{"attributes":{"ID":563541,"DIS_CODE":0,"TOWNNAME":"東區","LI":"崇善里","LIN":"9鄰","STREET":"仁和路","SECT":" ","MAREA":" ","LANE":" ","ALLEY":" ","HOUSE_NO":"８４號之４","E_COORD97":171180.70000000001,"N_COORD97":2541616.8399999999,"ADDRESS":"仁和路８４號之４","OBJECTID":563514},"geometry":{"x":171180.70000000112,"y":2541616.8399999999}},{"attributes":{"ID":563542,"DIS_CODE":0,"TOWNNAME":"東區","LI":"崇善里","LIN":"9鄰","STREET":"仁和路","SECT":" ","MAREA":" ","LANE":" ","ALLEY":" ","HOUSE_NO":"８４號之５","E_COORD97":171182.56,"N_COORD97":2541614.1499999999,"ADDRESS":"仁和路８４號之５","OBJECTID":563515},"geometry":{"x":171182.56000000145,"y":2541614.1500000022}},{"attributes":{"ID":563543,"DIS_CODE":0,"TOWNNAME":"東區","LI":"崇善里","LIN":"9鄰","STREET":"仁和路","SECT":" ","MAREA":" ","LANE":" ","ALLEY":" ","HOUSE_NO":"８４號之６","E_COORD97":171184.23000000001,"N_COORD97":2541609.7000000002,"ADDRESS":"仁和路８４號之６","OBJECTID":563516},"geometry":{"x":171184.23000000138,"y":2541609.7000000011}},{"attributes":{"ID":563544,"DIS_CODE":0,"TOWNNAME":"東區","LI":"崇善里","LIN":"9鄰","STREET":"仁和路","SECT":" ","MAREA":" ","LANE":" ","ALLEY":" ","HOUSE_NO":"６６號","E_COORD97":171071.95000000001,"N_COORD97":2541864.9300000002,"ADDRESS":"仁和路６６號","OBJECTID":563517},"geometry":{"x":171071.95000000205,"y":2541864.9300000034}},{"attributes":{"ID":563545,"DIS_CODE":0,"TOWNNAME":"東區","LI":"崇善里","LIN":"9鄰","STREET":"仁和路","SECT":" ","MAREA":" ","LANE":" ","ALLEY":" ","HOUSE_NO":"６６號之１","E_COORD97":171075.84,"N_COORD97":2541848.9399999999,"ADDRESS":"仁和路６６號之１","OBJECTID":563518},"geometry":{"x":171075.84000000171,"y":2541848.9400000013}},{"attributes":{"ID":563546,"DIS_CODE":0,"TOWNNAME":"東區","LI":"崇善里","LIN":"9鄰","STREET":"仁和路","SECT":" ","MAREA":" ","LANE":" ","ALLEY":" ","HOUSE_NO":"６６號之２","E_COORD97":171086.85999999999,"N_COORD97":2541833.73,"ADDRESS":"仁和路６６號之２","OBJECTID":563519},"geometry":{"x":171086.86000000127,"y":2541833.7300000023}},{"attributes":{"ID":563547,"DIS_CODE":0,"TOWNNAME":"東區","LI":"崇善里","LIN":"9鄰","STREET":"崇善五街","SECT":" ","MAREA":" ","LANE":" ","ALLEY":" ","HOUSE_NO":"２５號","E_COORD97":171098.13,"N_COORD97":2541609.1000000001,"ADDRESS":"崇善五街２５號","OBJECTID":563520},"geometry":{"x":171098.13000000082,"y":2541609.1000000034}},{"attributes":{"ID":563548,"DIS_CODE":0,"TOWNNAME":"東區","LI":"崇善里","LIN":"9鄰","STREET":"仁和路","SECT":" ","MAREA":" ","LANE":" ","ALLEY":" ","HOUSE_NO":"８４號","E_COORD97":171173.92999999999,"N_COORD97":2541631.4100000001,"ADDRESS":"仁和路８４號","OBJECTID":563521},"geometry":{"x":171173.93000000063,"y":2541631.4100000039}},{"attributes":{"ID":563549,"DIS_CODE":0,"TOWNNAME":"東區","LI":"崇善里","LIN":"9鄰","STREET":"仁和路","SECT":" ","MAREA":" ","LANE":" ","ALLEY":" ","HOUSE_NO":"８４號之１","E_COORD97":171175.69,"N_COORD97":2541627.98,"ADDRESS":"仁和路８４號之１","OBJECTID":563522},"geometry":{"x":171175.69000000227,"y":2541627.9800000042}},{"attributes":{"ID":563550,"DIS_CODE":0,"TOWNNAME":"東區","LI":"崇善里","LIN":"9鄰","STREET":"仁和路","SECT":" ","MAREA":" ","LANE":" ","ALLEY":" ","HOUSE_NO":"８４號之１０","E_COORD97":171192.07999999999,"N_COORD97":2541595.5899999999,"ADDRESS":"仁和路８４號之１０","OBJECTID":563523},"geometry":{"x":171192.08000000101,"y":2541595.5899999999}},{"attributes":{"ID":563551,"DIS_CODE":0,"TOWNNAME":"東區","LI":"崇善里","LIN":"9鄰","STREET":"仁和路","SECT":" ","MAREA":" ","LANE":" ","ALLEY":" ","HOUSE_NO":"８４號之１１","E_COORD97":171195.09,"N_COORD97":2541592.0800000001,"ADDRESS":"仁和路８４號之１１","OBJECTID":563524},"geometry":{"x":171195.09000000078,"y":2541592.0800000001}},{"attributes":{"ID":563552,"DIS_CODE":0,"TOWNNAME":"東區","LI":"崇善里","LIN":"9鄰","STREET":"仁和路","SECT":" ","MAREA":" ","LANE":" ","ALLEY":" ","HOUSE_NO":"８４號之１２","E_COORD97":171196.60000000001,"N_COORD97":2541588.0699999998,"ADDRESS":"仁和路８４號之１２","OBJECTID":563525},"geometry":{"x":171196.60000000056,"y":2541588.0700000022}},{"attributes":{"ID":563553,"DIS_CODE":0,"TOWNNAME":"東區","LI":"崇善里","LIN":"9鄰","STREET":"仁和路","SECT":" ","MAREA":" ","LANE":" ","ALLEY":" ","HOUSE_NO":"８４號之１３","E_COORD97":171198.60999999999,"N_COORD97":2541584.0600000001,"ADDRESS":"仁和路８４號之１３","OBJECTID":563526},"geometry":{"x":171198.61000000127,"y":2541584.0600000024}},{"attributes":{"ID":563554,"DIS_CODE":0,"TOWNNAME":"東區","LI":"崇善里","LIN":"9鄰","STREET":"仁和路","SECT":" ","MAREA":" ","LANE":" ","ALLEY":" ","HOUSE_NO":"８４號之２","E_COORD97":171177.07999999999,"N_COORD97":2541624.73,"ADDRESS":"仁和路８４號之２","OBJECTID":563527},"geometry":{"x":171177.08000000007,"y":2541624.7300000004}},{"attributes":{"ID":563555,"DIS_CODE":0,"TOWNNAME":"東區","LI":"崇信里","LIN":"9鄰","STREET":"崇信街","SECT":" ","MAREA":" ","LANE":" ","ALLEY":" ","HOUSE_NO":"８７號","E_COORD97":170757.28,"N_COORD97":2542352.8500000001,"ADDRESS":"崇信街８７號","OBJECTID":563528},"geometry":{"x":170757.28000000026,"y":2542352.8499999996}},{"attributes":{"ID":563556,"DIS_CODE":0,"TOWNNAME":"東區","LI":"崇信里","LIN":"9鄰","STREET":"崇信街","SECT":" ","MAREA":" ","LANE":" ","ALLEY":" ","HOUSE_NO":"８５號","E_COORD97":170754.39999999999,"N_COORD97":2542358.6000000001,"ADDRESS":"崇信街８５號","OBJECTID":563529},"geometry":{"x":170754.4000000013,"y":2542358.6000000034}},{"attributes":{"ID":563557,"DIS_CODE":0,"TOWNNAME":"東區","LI":"崇信里","LIN":"9鄰","STREET":"崇信街","SECT":" ","MAREA":" ","LANE":" ","ALLEY":" ","HOUSE_NO":"６３號","E_COORD97":170741.94,"N_COORD97":2542398.8199999998,"ADDRESS":"崇信街６３號","OBJECTID":563530},"geometry":{"x":170741.94000000134,"y":2542398.8200000022}},{"attributes":{"ID":563558,"DIS_CODE":0,"TOWNNAME":"東區","LI":"崇信里","LIN":"9鄰","STREET":"崇信街","SECT":" ","MAREA":" ","LANE":" ","ALLEY":" ","HOUSE_NO":"６５號","E_COORD97":170743.81,"N_COORD97":2542395.1899999999,"ADDRESS":"崇信街６５號","OBJECTID":563531},"geometry":{"x":170743.81000000052,"y":2542395.1900000032}},{"attributes":{"ID":563559,"DIS_CODE":0,"TOWNNAME":"東區","LI":"崇信里","LIN":"9鄰","STREET":"崇信街","SECT":" ","MAREA":" ","LANE":" ","ALLEY":" ","HOUSE_NO":"６７號","E_COORD97":170744.70999999999,"N_COORD97":2542391.7200000002,"ADDRESS":"崇信街６７號","OBJECTID":563532},"geometry":{"x":170744.71000000089,"y":2542391.7200000007}},{"attributes":{"ID":563560,"DIS_CODE":0,"TOWNNAME":"東區","LI":"崇信里","LIN":"9鄰","STREET":"崇信街","SECT":" ","MAREA":" ","LANE":" ","ALLEY":" ","HOUSE_NO":"６９號","E_COORD97":170746.38,"N_COORD97":2542387.1800000002,"ADDRESS":"崇信街６９號","OBJECTID":563533},"geometry":{"x":170746.37999999989,"y":2542387.1799999997}},{"attributes":{"ID":563561,"DIS_CODE":0,"TOWNNAME":"東區","LI":"崇信里","LIN":"9鄰","STREET":"崇信街","SECT":" ","MAREA":" ","LANE":" ","ALLEY":" ","HOUSE_NO":"７３號","E_COORD97":170747.73999999999,"N_COORD97":2542380.5299999998,"ADDRESS":"崇信街７３號","OBJECTID":563534},"geometry":{"x":170747.74000000022,"y":2542380.5300000012}},{"attributes":{"ID":563562,"DIS_CODE":0,"TOWNNAME":"東區","LI":"崇信里","LIN":"9鄰","STREET":"崇信街","SECT":" ","MAREA":" ","LANE":" ","ALLEY":" ","HOUSE_NO":"７５號","E_COORD97":170748.95000000001,"N_COORD97":2542376.6000000001,"ADDRESS":"崇信街７５號","OBJECTID":563535},"geometry":{"x":170748.95000000112,"y":2542376.6000000015}},{"attributes":{"ID":563563,"DIS_CODE":0,"TOWNNAME":"東區","LI":"崇信里","LIN":"9鄰","STREET":"崇信街","SECT":" ","MAREA":" ","LANE":" ","ALLEY":" ","HOUSE_NO":"７７號","E_COORD97":170750.16,"N_COORD97":2542372.8100000001,"ADDRESS":"崇信街７７號","OBJECTID":563536},"geometry":{"x":170750.16000000201,"y":2542372.8100000024}},{"attributes":{"ID":563564,"DIS_CODE":0,"TOWNNAME":"東區","LI":"崇信里","LIN":"9鄰","STREET":"崇信街","SECT":" ","MAREA":" ","LANE":" ","ALLEY":" ","HOUSE_NO":"７９號","E_COORD97":170751.53,"N_COORD97":2542369.6400000001,"ADDRESS":"崇信街７９號","OBJECTID":563537},"geometry":{"x":170751.53000000119,"y":2542369.6400000043}},{"attributes":{"ID":563565,"DIS_CODE":0,"TOWNNAME":"東區","LI":"崇信里","LIN":"9鄰","STREET":"崇信街","SECT":" ","MAREA":" ","LANE":" ","ALLEY":" ","HOUSE_NO":"８１號","E_COORD97":170752.73999999999,"N_COORD97":2542366.0099999998,"ADDRESS":"崇信街８１號","OBJECTID":563538},"geometry":{"x":170752.74000000022,"y":2542366.0100000035}},{"attributes":{"ID":563566,"DIS_CODE":0,"TOWNNAME":"東區","LI":"崇信里","LIN":"9鄰","STREET":"崇信街","SECT":" ","MAREA":" ","LANE":" ","ALLEY":" ","HOUSE_NO":"８３號","E_COORD97":170753.64999999999,"N_COORD97":2542362.23,"ADDRESS":"崇信街８３號","OBJECTID":563539},"geometry":{"x":170753.64999999944,"y":2542362.2300000023}},{"attributes":{"ID":563567,"DIS_CODE":0,"TOWNNAME":"東區","LI":"崇信里","LIN":"9鄰","STREET":"崇信街","SECT":" ","MAREA":" ","LANE":" ","ALLEY":" ","HOUSE_NO":"９５號","E_COORD97":170763.70000000001,"N_COORD97":2542334.0299999998,"ADDRESS":"崇信街９５號","OBJECTID":563540},"geometry":{"x":170763.70000000112,"y":2542334.0299999993}},{"attributes":{"ID":563568,"DIS_CODE":0,"TOWNNAME":"東區","LI":"崇信里","LIN":"9鄰","STREET":"崇善一街","SECT":" ","MAREA":" ","LANE":" ","ALLEY":" ","HOUSE_NO":"１１３號","E_COORD97":170788.47,"N_COORD97":2542363.7400000002,"ADDRESS":"崇善一街１１３號","OBJECTID":563541},"geometry":{"x":170788.47000000067,"y":2542363.7400000002}},{"attributes":{"ID":563569,"DIS_CODE":0,"TOWNNAME":"東區","LI":"崇信里","LIN":"9鄰","STREET":"崇善一街","SECT":" ","MAREA":" ","LANE":" ","ALLEY":" ","HOUSE_NO":"１１７號","E_COORD97":170784.78,"N_COORD97":2542374.9900000002,"ADDRESS":"崇善一街１１７號","OBJECTID":563542},"geometry":{"x":170784.78000000026,"y":2542374.9900000021}},{"attributes":{"ID":563570,"DIS_CODE":0,"TOWNNAME":"東區","LI":"崇信里","LIN":"9鄰","STREET":"崇善一街","SECT":" ","MAREA":" ","LANE":" ","ALLEY":" ","HOUSE_NO":"１１９號","E_COORD97":170782.26000000001,"N_COORD97":2542380.23,"ADDRESS":"崇善一街１１９號","OBJECTID":563543},"geometry":{"x":170782.25999999978,"y":2542380.2300000023}},{"attributes":{"ID":563571,"DIS_CODE":0,"TOWNNAME":"東區","LI":"崇信里","LIN":"9鄰","STREET":"崇善一街","SECT":" ","MAREA":" ","LANE":" ","ALLEY":" ","HOUSE_NO":"１２１號","E_COORD97":170781.09,"N_COORD97":2542385.4700000002,"ADDRESS":"崇善一街１２１號","OBJECTID":563544},"geometry":{"x":170781.09000000078,"y":2542385.4700000025}},{"attributes":{"ID":563572,"DIS_CODE":0,"TOWNNAME":"東區","LI":"崇信里","LIN":"9鄰","STREET":"崇善一街","SECT":" ","MAREA":" ","LANE":" ","ALLEY":" ","HOUSE_NO":"１２３號","E_COORD97":170777.20999999999,"N_COORD97":2542396.9100000001,"ADDRESS":"崇善一街１２３號","OBJECTID":563545},"geometry":{"x":170777.21000000089,"y":2542396.9100000001}},{"attributes":{"ID":563573,"DIS_CODE":0,"TOWNNAME":"東區","LI":"崇信里","LIN":"9鄰","STREET":"崇善一街","SECT":" ","MAREA":" ","LANE":" ","ALLEY":" ","HOUSE_NO":"１２５號","E_COORD97":170778.37,"N_COORD97":2542391.0899999999,"ADDRESS":"崇善一街１２５號","OBJECTID":563546},"geometry":{"x":170778.37000000011,"y":2542391.0899999999}},{"attributes":{"ID":563574,"DIS_CODE":0,"TOWNNAME":"東區","LI":"崇信里","LIN":"9鄰","STREET":"崇善一街","SECT":" ","MAREA":" ","LANE":" ","ALLEY":" ","HOUSE_NO":"１２７號","E_COORD97":170775.06,"N_COORD97":2542402.7999999998,"ADDRESS":"崇善一街１２７號","OBJECTID":563547},"geometry":{"x":170775.05999999959,"y":2542402.8000000026}},{"attributes":{"ID":563575,"DIS_CODE":0,"TOWNNAME":"東區","LI":"崇信里","LIN":"9鄰","STREET":"崇善一街","SECT":" ","MAREA":" ","LANE":" ","ALLEY":" ","HOUSE_NO":"１２９號","E_COORD97":170773.31,"N_COORD97":2542407.8500000001,"ADDRESS":"崇善一街１２９號","OBJECTID":563548},"geometry":{"x":170773.30999999959,"y":2542407.8500000034}},{"attributes":{"ID":563576,"DIS_CODE":0,"TOWNNAME":"東區","LI":"崇信里","LIN":"9鄰","STREET":"崇善一街","SECT":" ","MAREA":" ","LANE":" ","ALLEY":" ","HOUSE_NO":"１３１號","E_COORD97":170772.06,"N_COORD97":2542420.5600000001,"ADDRESS":"崇善一街１３１號","OBJECTID":563549},"geometry":{"x":170772.05999999959,"y":2542420.5599999987}},{"attributes":{"ID":563577,"DIS_CODE":0,"TOWNNAME":"東區","LI":"崇信里","LIN":"9鄰","STREET":"崇善一街","SECT":" ","MAREA":" ","LANE":" ","ALLEY":" ","HOUSE_NO":"１３３號","E_COORD97":170777.63,"N_COORD97":2542425.6600000001,"ADDRESS":"崇善一街１３３號","OBJECTID":563550},"geometry":{"x":170777.63000000082,"y":2542425.6600000001}},{"attributes":{"ID":563578,"DIS_CODE":0,"TOWNNAME":"東區","LI":"崇信里","LIN":"9鄰","STREET":"崇善一街","SECT":" ","MAREA":" ","LANE":" ","ALLEY":" ","HOUSE_NO":"１３５號","E_COORD97":170782.62,"N_COORD97":2542428.79,"ADDRESS":"崇善一街１３５號","OBJECTID":563551},"geometry":{"x":170782.62000000197,"y":2542428.790000001}},{"attributes":{"ID":563579,"DIS_CODE":0,"TOWNNAME":"東區","LI":"崇信里","LIN":"9鄰","STREET":"崇善一街","SECT":" ","MAREA":" ","LANE":" ","ALLEY":" ","HOUSE_NO":"１４５號","E_COORD97":170805.01000000001,"N_COORD97":2542438.29,"ADDRESS":"崇善一街１４５號","OBJECTID":563552},"geometry":{"x":170805.01000000164,"y":2542438.2900000028}},{"attributes":{"ID":563580,"DIS_CODE":0,"TOWNNAME":"東區","LI":"崇信里","LIN":"9鄰","STREET":"崇善一街","SECT":" ","MAREA":" ","LANE":" ","ALLEY":" ","HOUSE_NO":"１４７號","E_COORD97":170809.17999999999,"N_COORD97":2542440.0299999998,"ADDRESS":"崇善一街１４７號","OBJECTID":563553},"geometry":{"x":170809.18000000063,"y":2542440.0300000031}},{"attributes":{"ID":563581,"DIS_CODE":0,"TOWNNAME":"東區","LI":"崇信里","LIN":"9鄰","STREET":"崇善一街","SECT":" ","MAREA":" ","LANE":" ","ALLEY":" ","HOUSE_NO":"１４９號","E_COORD97":170814.16,"N_COORD97":2542442.8999999999,"ADDRESS":"崇善一街１４９號","OBJECTID":563554},"geometry":{"x":170814.16000000015,"y":2542442.9000000022}},{"attributes":{"ID":563582,"DIS_CODE":0,"TOWNNAME":"東區","LI":"崇學里","LIN":"9鄰","STREET":"崇明十一街","SECT":" ","MAREA":" ","LANE":" ","ALLEY":" ","HOUSE_NO":"２２號","E_COORD97":170310.53,"N_COORD97":2541815.6800000002,"ADDRESS":"崇明十一街２２號","OBJECTID":563555},"geometry":{"x":170310.53000000119,"y":2541815.6800000034}},{"attributes":{"ID":563583,"DIS_CODE":0,"TOWNNAME":"東區","LI":"崇學里","LIN":"9鄰","STREET":"崇明十一街","SECT":" ","MAREA":" ","LANE":" ","ALLEY":" ","HOUSE_NO":"２４號","E_COORD97":170313.17999999999,"N_COORD97":2541818.7799999998,"ADDRESS":"崇明十一街２４號","OBJECTID":563556},"geometry":{"x":170313.1799999997,"y":2541818.7800000012}},{"attributes":{"ID":563584,"DIS_CODE":0,"TOWNNAME":"東區","LI":"崇學里","LIN":"9鄰","STREET":"崇明十一街","SECT":" ","MAREA":" ","LANE":" ","ALLEY":" ","HOUSE_NO":"２６號","E_COORD97":170315.98999999999,"N_COORD97":2541822.3300000001,"ADDRESS":"崇明十一街２６號","OBJECTID":563557},"geometry":{"x":170315.99000000115,"y":2541822.3300000019}},{"attributes":{"ID":563585,"DIS_CODE":0,"TOWNNAME":"東區","LI":"崇學里","LIN":"9鄰","STREET":"崇明十一街","SECT":" ","MAREA":" ","LANE":" ","ALLEY":" ","HOUSE_NO":"２８號","E_COORD97":170319.39000000001,"N_COORD97":2541824.3500000001,"ADDRESS":"崇明十一街２８號","OBJECTID":563558},"geometry":{"x":170319.3900000006,"y":2541824.3499999978}},{"attributes":{"ID":563586,"DIS_CODE":0,"TOWNNAME":"東區","LI":"崇學里","LIN":"9鄰","STREET":"崇明十一街","SECT":" ","MAREA":" ","LANE":" ","ALLEY":" ","HOUSE_NO":"２８號之２","E_COORD97":170323.97,"N_COORD97":2541830.9900000002,"ADDRESS":"崇明十一街２８號之２","OBJECTID":563559},"geometry":{"x":170323.97000000067,"y":2541830.9900000039}},{"attributes":{"ID":563587,"DIS_CODE":0,"TOWNNAME":"東區","LI":"崇學里","LIN":"9鄰","STREET":"崇明十一街","SECT":" ","MAREA":" ","LANE":" ","ALLEY":" ","HOUSE_NO":"３０號","E_COORD97":170327.22,"N_COORD97":2541833.9399999999,"ADDRESS":"崇明十一街３０號","OBJECTID":563560},"geometry":{"x":170327.2200000016,"y":2541833.9400000032}},{"attributes":{"ID":563588,"DIS_CODE":0,"TOWNNAME":"東區","LI":"崇學里","LIN":"9鄰","STREET":"崇明十一街","SECT":" ","MAREA":" ","LANE":" ","ALLEY":" ","HOUSE_NO":"３２號","E_COORD97":170330.03,"N_COORD97":2541836.75,"ADDRESS":"崇明十一街３２號","OBJECTID":563561},"geometry":{"x":170330.03000000026,"y":2541836.7500000019}},{"attributes":{"ID":563589,"DIS_CODE":0,"TOWNNAME":"白河區","LI":"永安里","LIN":"9鄰","STREET":"昇平街","SECT":" ","MAREA":" ","LANE":" ","ALLEY":" ","HOUSE_NO":"１１號","E_COORD97":190152.76999999999,"N_COORD97":2583185.0899999999,"ADDRESS":"昇平街１１號","OBJECTID":563562},"geometry":{"x":190152.76999999955,"y":2583185.0899999999}},{"attributes":{"ID":563590,"DIS_CODE":0,"TOWNNAME":"白河區","LI":"永安里","LIN":"9鄰","STREET":"昇平街","SECT":" ","MAREA":" ","LANE":" ","ALLEY":" ","HOUSE_NO":"１５號","E_COORD97":190157.06,"N_COORD97":2583196.2400000002,"ADDRESS":"昇平街１５號","OBJECTID":563563},"geometry":{"x":190157.06000000052,"y":2583196.2400000021}},{"attributes":{"ID":563591,"DIS_CODE":0,"TOWNNAME":"白河區","LI":"永安里","LIN":"9鄰","STREET":"昇平街","SECT":" ","MAREA":" ","LANE":" ","ALLEY":" ","HOUSE_NO":"１７號","E_COORD97":190154.29999999999,"N_COORD97":2583188.9300000002,"ADDRESS":"昇平街１７號","OBJECTID":563564},"geometry":{"x":190154.30000000075,"y":2583188.9299999997}},{"attributes":{"ID":563592,"DIS_CODE":0,"TOWNNAME":"白河區","LI":"永安里","LIN":"9鄰","STREET":"昇平街","SECT":" ","MAREA":" ","LANE":" ","ALLEY":" ","HOUSE_NO":"５之１號","E_COORD97":190148.10000000001,"N_COORD97":2583172.71,"ADDRESS":"昇平街５之１號","OBJECTID":563565},"geometry":{"x":190148.10000000149,"y":2583172.7100000046}},{"attributes":{"ID":563593,"DIS_CODE":0,"TOWNNAME":"白河區","LI":"永安里","LIN":"9鄰","STREET":"昇平街","SECT":" ","MAREA":" ","LANE":" ","ALLEY":" ","HOUSE_NO":"８之３號","E_COORD97":190162.5,"N_COORD97":2583174.1299999999,"ADDRESS":"昇平街８之３號","OBJECTID":563566},"geometry":{"x":190162.49999999907,"y":2583174.1299999971}},{"attributes":{"ID":563594,"DIS_CODE":0,"TOWNNAME":"白河區","LI":"永安里","LIN":"9鄰","STREET":"昇平街","SECT":" ","MAREA":" ","LANE":" ","ALLEY":" ","HOUSE_NO":"８號","E_COORD97":190164.10999999999,"N_COORD97":2583165.5099999998,"ADDRESS":"昇平街８號","OBJECTID":563567},"geometry":{"x":190164.11000000127,"y":2583165.5099999998}},{"attributes":{"ID":563595,"DIS_CODE":0,"TOWNNAME":"白河區","LI":"外角里","LIN":"9鄰","STREET":"長春街","SECT":" ","MAREA":" ","LANE":" ","ALLEY":" ","HOUSE_NO":"２８號","E_COORD97":191115.16,"N_COORD97":2583300.04,"ADDRESS":"長春街２８號","OBJECTID":563568},"geometry":{"x":191115.16000000108,"y":2583300.0399999991}},{"attributes":{"ID":563596,"DIS_CODE":0,"TOWNNAME":"麻豆區","LI":"中興里","LIN":"9鄰","STREET":"興國路","SECT":" ","MAREA":" ","LANE":" ","ALLEY":" ","HOUSE_NO":"３７號","E_COORD97":173026.29999999999,"N_COORD97":2564398.5299999998,"ADDRESS":"興國路３７號","OBJECTID":563569},"geometry":{"x":173026.29999999981,"y":2564398.5299999993}},{"attributes":{"ID":563597,"DIS_CODE":0,"TOWNNAME":"麻豆區","LI":"中興里","LIN":"9鄰","STREET":"興國路","SECT":" ","MAREA":" ","LANE":" ","ALLEY":" ","HOUSE_NO":"４０號之１３","E_COORD97":172956.41,"N_COORD97":2564462.7400000002,"ADDRESS":"興國路４０號之１３","OBJECTID":563570},"geometry":{"x":172956.41000000015,"y":2564462.7400000002}},{"attributes":{"ID":563598,"DIS_CODE":0,"TOWNNAME":"麻豆區","LI":"中興里","LIN":"9鄰","STREET":"興國路","SECT":" ","MAREA":" ","LANE":" ","ALLEY":" ","HOUSE_NO":"４０號之１４","E_COORD97":172954.67000000001,"N_COORD97":2564469.3500000001,"ADDRESS":"興國路４０號之１４","OBJECTID":563571},"geometry":{"x":172954.66999999993,"y":2564469.3500000015}},{"attributes":{"ID":563599,"DIS_CODE":0,"TOWNNAME":"麻豆區","LI":"中興里","LIN":"9鄰","STREET":"興國路","SECT":" ","MAREA":" ","LANE":" ","ALLEY":" ","HOUSE_NO":"４０號之１","E_COORD97":172977.38,"N_COORD97":2564516.7400000002,"ADDRESS":"興國路４０號之１","OBJECTID":563572},"geometry":{"x":172977.37999999896,"y":2564516.7400000002}},{"attributes":{"ID":563600,"DIS_CODE":0,"TOWNNAME":"麻豆區","LI":"中興里","LIN":"9鄰","STREET":"興國路","SECT":" ","MAREA":" ","LANE":" ","ALLEY":" ","HOUSE_NO":"４０號之２","E_COORD97":172988.64999999999,"N_COORD97":2564464.5,"ADDRESS":"興國路４０號之２","OBJECTID":563573},"geometry":{"x":172988.6500000013,"y":2564464.5}},{"attributes":{"ID":563601,"DIS_CODE":0,"TOWNNAME":"麻豆區","LI":"中興里","LIN":"9鄰","STREET":"興國路","SECT":" ","MAREA":" ","LANE":" ","ALLEY":" ","HOUSE_NO":"４０號之４","E_COORD97":172977.92999999999,"N_COORD97":2564511.6600000001,"ADDRESS":"興國路４０號之４","OBJECTID":563574},"geometry":{"x":172977.9299999997,"y":2564511.660000002}},{"attributes":{"ID":563602,"DIS_CODE":0,"TOWNNAME":"麻豆區","LI":"中興里","LIN":"9鄰","STREET":"興國路","SECT":" ","MAREA":" ","LANE":" ","ALLEY":" ","HOUSE_NO":"４０號之５","E_COORD97":172978.22,"N_COORD97":2564506.5800000001,"ADDRESS":"興國路４０號之５","OBJECTID":563575},"geometry":{"x":172978.21999999974,"y":2564506.5800000019}},{"attributes":{"ID":563603,"DIS_CODE":0,"TOWNNAME":"麻豆區","LI":"中興里","LIN":"9鄰","STREET":"興國路","SECT":" ","MAREA":" ","LANE":" ","ALLEY":" ","HOUSE_NO":"４０號之６","E_COORD97":172978.76000000001,"N_COORD97":2564501.0699999998,"ADDRESS":"興國路４０號之６","OBJECTID":563576},"geometry":{"x":172978.76000000071,"y":2564501.0700000003}},{"attributes":{"ID":563604,"DIS_CODE":0,"TOWNNAME":"麻豆區","LI":"中興里","LIN":"9鄰","STREET":"興國路","SECT":" ","MAREA":" ","LANE":" ","ALLEY":" ","HOUSE_NO":"４０號之７","E_COORD97":172979.01999999999,"N_COORD97":2564490.02,"ADDRESS":"興國路４０號之７","OBJECTID":563577},"geometry":{"x":172979.01999999955,"y":2564490.0199999996}},{"attributes":{"ID":563605,"DIS_CODE":0,"TOWNNAME":"麻豆區","LI":"中興里","LIN":"9鄰","STREET":"興國路","SECT":" ","MAREA":" ","LANE":" ","ALLEY":" ","HOUSE_NO":"４０號之９","E_COORD97":172986.59,"N_COORD97":2564481.4500000002,"ADDRESS":"興國路４０號之９","OBJECTID":563578},"geometry":{"x":172986.59000000078,"y":2564481.450000003}},{"attributes":{"ID":563606,"DIS_CODE":0,"TOWNNAME":"麻豆區","LI":"中興里","LIN":"9鄰","STREET":"興國路","SECT":" ","MAREA":" ","LANE":" ","ALLEY":" ","HOUSE_NO":"４０號","E_COORD97":172979.28,"N_COORD97":2564495.7599999998,"ADDRESS":"興國路４０號","OBJECTID":563579},"geometry":{"x":172979.28000000119,"y":2564495.7599999998}},{"attributes":{"ID":563607,"DIS_CODE":0,"TOWNNAME":"麻豆區","LI":"中興里","LIN":"9鄰","STREET":"興國路","SECT":" ","MAREA":" ","LANE":" ","ALLEY":" ","HOUSE_NO":"４２號之１０","E_COORD97":172962.01999999999,"N_COORD97":2564437.3500000001,"ADDRESS":"興國路４２號之１０","OBJECTID":563580},"geometry":{"x":172962.01999999955,"y":2564437.3499999996}},{"attributes":{"ID":563608,"DIS_CODE":0,"TOWNNAME":"麻豆區","LI":"中興里","LIN":"9鄰","STREET":"興國路","SECT":" ","MAREA":" ","LANE":" ","ALLEY":" ","HOUSE_NO":"４２號之１１","E_COORD97":172963.47,"N_COORD97":2564431.0099999998,"ADDRESS":"興國路４２號之１１","OBJECTID":563581},"geometry":{"x":172963.47000000067,"y":2564431.0100000016}},{"attributes":{"ID":563609,"DIS_CODE":0,"TOWNNAME":"麻豆區","LI":"中興里","LIN":"9鄰","STREET":"興國路","SECT":" ","MAREA":" ","LANE":" ","ALLEY":" ","HOUSE_NO":"４２號之１２","E_COORD97":172964.70000000001,"N_COORD97":2564424.7599999998,"ADDRESS":"興國路４２號之１２","OBJECTID":563582},"geometry":{"x":172964.70000000019,"y":2564424.7599999998}},{"attributes":{"ID":563610,"DIS_CODE":0,"TOWNNAME":"麻豆區","LI":"中興里","LIN":"9鄰","STREET":"興國路","SECT":" ","MAREA":" ","LANE":" ","ALLEY":" ","HOUSE_NO":"４２號之１３","E_COORD97":172966.01999999999,"N_COORD97":2564418.3700000001,"ADDRESS":"興國路４２號之１３","OBJECTID":563583},"geometry":{"x":172966.02000000142,"y":2564418.370000001}},{"attributes":{"ID":563611,"DIS_CODE":0,"TOWNNAME":"麻豆區","LI":"中興里","LIN":"9鄰","STREET":"興國路","SECT":" ","MAREA":" ","LANE":" ","ALLEY":" ","HOUSE_NO":"４２號之１４","E_COORD97":172967.35000000001,"N_COORD97":2564412.2200000002,"ADDRESS":"興國路４２號之１４","OBJECTID":563584},"geometry":{"x":172967.35000000149,"y":2564412.2200000007}},{"attributes":{"ID":563612,"DIS_CODE":0,"TOWNNAME":"麻豆區","LI":"中興里","LIN":"9鄰","STREET":"興國路","SECT":" ","MAREA":" ","LANE":" ","ALLEY":" ","HOUSE_NO":"４２號之１５","E_COORD97":172968.85000000001,"N_COORD97":2564405.6699999999,"ADDRESS":"興國路４２號之１５","OBJECTID":563585},"geometry":{"x":172968.8499999987,"y":2564405.6699999999}},{"attributes":{"ID":563613,"DIS_CODE":0,"TOWNNAME":"麻豆區","LI":"中興里","LIN":"9鄰","STREET":"興國路","SECT":" ","MAREA":" ","LANE":" ","ALLEY":" ","HOUSE_NO":"４２號之１６","E_COORD97":172969.88,"N_COORD97":2564399.5499999998,"ADDRESS":"興國路４２號之１６","OBJECTID":563586},"geometry":{"x":172969.87999999989,"y":2564399.5500000007}},{"attributes":{"ID":563614,"DIS_CODE":0,"TOWNNAME":"麻豆區","LI":"中興里","LIN":"9鄰","STREET":"興國路","SECT":" ","MAREA":" ","LANE":" ","ALLEY":" ","HOUSE_NO":"４２號之１７","E_COORD97":172971.17999999999,"N_COORD97":2564393.1400000001,"ADDRESS":"興國路４２號之１７","OBJECTID":563587},"geometry":{"x":172971.1799999997,"y":2564393.1399999987}},{"attributes":{"ID":563615,"DIS_CODE":0,"TOWNNAME":"麻豆區","LI":"中興里","LIN":"9鄰","STREET":"興國路","SECT":" ","MAREA":" ","LANE":" ","ALLEY":" ","HOUSE_NO":"４２號之２","E_COORD97":172987.64999999999,"N_COORD97":2564454.5,"ADDRESS":"興國路４２號之２","OBJECTID":563588},"geometry":{"x":172987.65000000037,"y":2564454.4999999981}},{"attributes":{"ID":563616,"DIS_CODE":0,"TOWNNAME":"麻豆區","LI":"中興里","LIN":"9鄰","STREET":"興國路","SECT":" ","MAREA":" ","LANE":" ","ALLEY":" ","HOUSE_NO":"４２號之３","E_COORD97":172988.29000000001,"N_COORD97":2564450.6200000001,"ADDRESS":"興國路４２號之３","OBJECTID":563589},"geometry":{"x":172988.28999999911,"y":2564450.620000001}},{"attributes":{"ID":563617,"DIS_CODE":0,"TOWNNAME":"麻豆區","LI":"中興里","LIN":"9鄰","STREET":"興國路","SECT":" ","MAREA":" ","LANE":" ","ALLEY":" ","HOUSE_NO":"４２號之４","E_COORD97":172989.19,"N_COORD97":2564446.3999999999,"ADDRESS":"興國路４２號之４","OBJECTID":563590},"geometry":{"x":172989.19000000041,"y":2564446.4000000022}},{"attributes":{"ID":563618,"DIS_CODE":0,"TOWNNAME":"麻豆區","LI":"中興里","LIN":"9鄰","STREET":"興國路","SECT":" ","MAREA":" ","LANE":" ","ALLEY":" ","HOUSE_NO":"４２號之５","E_COORD97":172990.07000000001,"N_COORD97":2564442.0800000001,"ADDRESS":"興國路４２號之５","OBJECTID":563591},"geometry":{"x":172990.06999999937,"y":2564442.0800000019}},{"attributes":{"ID":563619,"DIS_CODE":0,"TOWNNAME":"麻豆區","LI":"中興里","LIN":"9鄰","STREET":"興國路","SECT":" ","MAREA":" ","LANE":" ","ALLEY":" ","HOUSE_NO":"４２號之８","E_COORD97":172959.26000000001,"N_COORD97":2564449.8399999999,"ADDRESS":"興國路４２號之８","OBJECTID":563592},"geometry":{"x":172959.25999999978,"y":2564449.8400000017}},{"attributes":{"ID":563620,"DIS_CODE":0,"TOWNNAME":"麻豆區","LI":"中興里","LIN":"9鄰","STREET":"興國路","SECT":" ","MAREA":" ","LANE":" ","ALLEY":" ","HOUSE_NO":"４２號之９","E_COORD97":172960.22,"N_COORD97":2564443.8599999999,"ADDRESS":"興國路４２號之９","OBJECTID":563593},"geometry":{"x":172960.22000000067,"y":2564443.8599999994}},{"attributes":{"ID":563621,"DIS_CODE":0,"TOWNNAME":"安南區","LI":"安和里","LIN":"9鄰","STREET":"安和路","SECT":"一段","MAREA":" ","LANE":" ","ALLEY":" ","HOUSE_NO":"８０號","E_COORD97":169552.32999999999,"N_COORD97":2547542.0800000001,"ADDRESS":"安和路一段８０號","OBJECTID":563594},"geometry":{"x":169552.33000000101,"y":2547542.0800000001}},{"attributes":{"ID":563622,"DIS_CODE":0,"TOWNNAME":"安南區","LI":"城北里","LIN":"9鄰","STREET":"尊安街","SECT":" ","MAREA":" ","LANE":" ","ALLEY":" ","HOUSE_NO":"２０３號","E_COORD97":160847.92000000001,"N_COORD97":2551744.5800000001,"ADDRESS":"尊安街２０３號","OBJECTID":563595},"geometry":{"x":160847.91999999993,"y":2551744.5800000019}},{"attributes":{"ID":563623,"DIS_CODE":0,"TOWNNAME":"佳里區","LI":"忠仁里","LIN":"9鄰","STREET":"延平路","SECT":" ","MAREA":" ","LANE":" ","ALLEY":" ","HOUSE_NO":"２２０號","E_COORD97":165911.57000000001,"N_COORD97":2562118.8999999999,"ADDRESS":"延平路２２０號","OBJECTID":563596},"geometry":{"x":165911.57000000123,"y":2562118.9000000004}},{"attributes":{"ID":563624,"DIS_CODE":0,"TOWNNAME":"佳里區","LI":"忠仁里","LIN":"9鄰","STREET":"延平路","SECT":" ","MAREA":" ","LANE":" ","ALLEY":" ","HOUSE_NO":"２２２號","E_COORD97":165910.73000000001,"N_COORD97":2562124.5699999998,"ADDRESS":"延平路２２２號","OBJECTID":563597},"geometry":{"x":165910.73000000138,"y":2562124.5700000003}},{"attributes":{"ID":563625,"DIS_CODE":0,"TOWNNAME":"佳里區","LI":"忠仁里","LIN":"9鄰","STREET":"延平路","SECT":" ","MAREA":" ","LANE":" ","ALLEY":" ","HOUSE_NO":"２２４號","E_COORD97":165910.31,"N_COORD97":2562129.02,"ADDRESS":"延平路２２４號","OBJECTID":563598},"geometry":{"x":165910.30999999866,"y":2562129.0200000014}},{"attributes":{"ID":563626,"DIS_CODE":0,"TOWNNAME":"佳里區","LI":"忠仁里","LIN":"9鄰","STREET":"延平路","SECT":" ","MAREA":" ","LANE":" ","ALLEY":" ","HOUSE_NO":"２２６號","E_COORD97":165909.53,"N_COORD97":2562133.6400000001,"ADDRESS":"延平路２２６號","OBJECTID":563599},"geometry":{"x":165909.52999999933,"y":2562133.6400000006}},{"attributes":{"ID":563627,"DIS_CODE":0,"TOWNNAME":"佳里區","LI":"忠仁里","LIN":"9鄰","STREET":"延平路","SECT":" ","MAREA":" ","LANE":" ","ALLEY":" ","HOUSE_NO":"２２８號","E_COORD97":165908.89000000001,"N_COORD97":2562137.8100000001,"ADDRESS":"延平路２２８號","OBJECTID":563600},"geometry":{"x":165908.8900000006,"y":2562137.8100000024}}]}