{"displayFieldName":"TOWNNAME","fieldAliases":{"ID":"ID","DIS_CODE":"DIS_CODE","TOWNNAME":"TOWNNAME","LI":"LI","LIN":"LIN","STREET":"STREET","SECT":"SECT","MAREA":"MAREA","LANE":"LANE","ALLEY":"ALLEY","HOUSE_NO":"HOUSE_NO","E_COORD97":"E_COORD97","N_COORD97":"N_COORD97","ADDRESS":"ADDRESS","OBJECTID":"OBJECTID"},"geometryType":"esriGeometryPoint","spatialReference":{"wkid":102443,"latestWkid":3826},"fields":[{"name":"ID","type":"esriFieldTypeDouble","alias":"ID"},{"name":"DIS_CODE","type":"esriFieldTypeInteger","alias":"DIS_CODE"},{"name":"TOWNNAME","type":"esriFieldTypeString","alias":"TOWNNAME","length":8},{"name":"LI","type":"esriFieldTypeString","alias":"LI","length":8},{"name":"LIN","type":"esriFieldTypeString","alias":"LIN","length":12},{"name":"STREET","type":"esriFieldTypeString","alias":"STREET","length":20},{"name":"SECT","type":"esriFieldTypeString","alias":"SECT","length":8},{"name":"MAREA","type":"esriFieldTypeString","alias":"MAREA","length":12},{"name":"LANE","type":"esriFieldTypeString","alias":"LANE","length":10},{"name":"ALLEY","type":"esriFieldTypeString","alias":"ALLEY","length":10},{"name":"HOUSE_NO","type":"esriFieldTypeString","alias":"HOUSE_NO","length":20},{"name":"E_COORD97","type":"esriFieldTypeDouble","alias":"E_COORD97"},{"name":"N_COORD97","type":"esriFieldTypeDouble","alias":"N_COORD97"},{"name":"ADDRESS","type":"esriFieldTypeString","alias":"ADDRESS","length":50},{"name":"OBJECTID","type":"esriFieldTypeOID","alias":"OBJECTID"}],"features":[{"attributes":{"ID":490626,"DIS_CODE":0,"TOWNNAME":"安平區","LI":"怡平里","LIN":"13鄰","STREET":"永華六街","SECT":" ","MAREA":" ","LANE":" ","ALLEY":" ","HOUSE_NO":"２５５號","E_COORD97":165642.98999999999,"N_COORD97":2544059.4199999999,"ADDRESS":"永華六街２５５號","OBJECTID":490601},"geometry":{"x":165642.99000000022,"y":2544059.4200000018}},{"attributes":{"ID":490627,"DIS_CODE":0,"TOWNNAME":"安平區","LI":"怡平里","LIN":"13鄰","STREET":"永華六街","SECT":" ","MAREA":" ","LANE":" ","ALLEY":" ","HOUSE_NO":"２５７號","E_COORD97":165643.23999999999,"N_COORD97":2544064.4700000002,"ADDRESS":"永華六街２５７號","OBJECTID":490602},"geometry":{"x":165643.24000000022,"y":2544064.4700000007}},{"attributes":{"ID":490628,"DIS_CODE":0,"TOWNNAME":"安平區","LI":"怡平里","LIN":"13鄰","STREET":"永華六街","SECT":" ","MAREA":" ","LANE":" ","ALLEY":" ","HOUSE_NO":"２５９號","E_COORD97":165643.48999999999,"N_COORD97":2544069.0099999998,"ADDRESS":"永華六街２５９號","OBJECTID":490603},"geometry":{"x":165643.49000000022,"y":2544069.0100000016}},{"attributes":{"ID":490629,"DIS_CODE":0,"TOWNNAME":"安平區","LI":"怡平里","LIN":"13鄰","STREET":"永華六街","SECT":" ","MAREA":" ","LANE":" ","ALLEY":" ","HOUSE_NO":"２６１號","E_COORD97":165644,"N_COORD97":2544073.0499999998,"ADDRESS":"永華六街２６１號","OBJECTID":490604},"geometry":{"x":165644.00000000093,"y":2544073.0500000026}},{"attributes":{"ID":490630,"DIS_CODE":0,"TOWNNAME":"安平區","LI":"金城里","LIN":"13鄰","STREET":"世平一街","SECT":" ","MAREA":" ","LANE":" ","ALLEY":" ","HOUSE_NO":"１００號","E_COORD97":162777.48999999999,"N_COORD97":2543915.6099999999,"ADDRESS":"世平一街１００號","OBJECTID":490605},"geometry":{"x":162777.49000000115,"y":2543915.6100000013}},{"attributes":{"ID":490631,"DIS_CODE":0,"TOWNNAME":"安平區","LI":"國平里","LIN":"13鄰","STREET":"建平一街","SECT":" ","MAREA":" ","LANE":" ","ALLEY":" ","HOUSE_NO":"２１９號","E_COORD97":165531.54000000001,"N_COORD97":2542783.29,"ADDRESS":"建平一街２１９號","OBJECTID":490606},"geometry":{"x":165531.54000000097,"y":2542783.2899999991}},{"attributes":{"ID":490632,"DIS_CODE":0,"TOWNNAME":"南區","LI":"省躬里","LIN":"13鄰","STREET":"明興路","SECT":" ","MAREA":" ","LANE":" ","ALLEY":" ","HOUSE_NO":"８３７號","E_COORD97":166037.88,"N_COORD97":2537444.1200000001,"ADDRESS":"明興路８３７號","OBJECTID":490607},"geometry":{"x":166037.88000000082,"y":2537444.1200000029}},{"attributes":{"ID":490633,"DIS_CODE":0,"TOWNNAME":"南區","LI":"省躬里","LIN":"13鄰","STREET":"明興路","SECT":" ","MAREA":" ","LANE":" ","ALLEY":" ","HOUSE_NO":"８５５號","E_COORD97":166068.95999999999,"N_COORD97":2537361.1800000002,"ADDRESS":"明興路８５５號","OBJECTID":490608},"geometry":{"x":166068.95999999996,"y":2537361.1800000016}},{"attributes":{"ID":490634,"DIS_CODE":0,"TOWNNAME":"南區","LI":"省躬里","LIN":"13鄰","STREET":"明興路","SECT":" ","MAREA":" ","LANE":" ","ALLEY":" ","HOUSE_NO":"８６３號","E_COORD97":166089.44,"N_COORD97":2537291.77,"ADDRESS":"明興路８６３號","OBJECTID":490609},"geometry":{"x":166089.44000000041,"y":2537291.7699999977}},{"attributes":{"ID":490635,"DIS_CODE":0,"TOWNNAME":"南區","LI":"省躬里","LIN":"13鄰","STREET":"明興路","SECT":" ","MAREA":" ","LANE":" ","ALLEY":" ","HOUSE_NO":"８６９號","E_COORD97":166091.64000000001,"N_COORD97":2537285.48,"ADDRESS":"明興路８６９號","OBJECTID":490610},"geometry":{"x":166091.6400000006,"y":2537285.4800000023}},{"attributes":{"ID":490636,"DIS_CODE":0,"TOWNNAME":"南區","LI":"省躬里","LIN":"13鄰","STREET":"明興路","SECT":" ","MAREA":" ","LANE":" ","ALLEY":" ","HOUSE_NO":"８７１號","E_COORD97":166093.84,"N_COORD97":2537279.2000000002,"ADDRESS":"明興路８７１號","OBJECTID":490611},"geometry":{"x":166093.84000000078,"y":2537279.2000000011}},{"attributes":{"ID":490637,"DIS_CODE":0,"TOWNNAME":"南區","LI":"省躬里","LIN":"13鄰","STREET":"明興路","SECT":" ","MAREA":" ","LANE":" ","ALLEY":" ","HOUSE_NO":"８７３號","E_COORD97":166094.78,"N_COORD97":2537274.4900000002,"ADDRESS":"明興路８７３號","OBJECTID":490612},"geometry":{"x":166094.78000000119,"y":2537274.4900000039}},{"attributes":{"ID":490638,"DIS_CODE":0,"TOWNNAME":"南區","LI":"省躬里","LIN":"13鄰","STREET":"明興路","SECT":" ","MAREA":" ","LANE":" ","ALLEY":" ","HOUSE_NO":"８７５號","E_COORD97":166097.60999999999,"N_COORD97":2537269.4700000002,"ADDRESS":"明興路８７５號","OBJECTID":490613},"geometry":{"x":166097.61000000127,"y":2537269.4700000025}},{"attributes":{"ID":490639,"DIS_CODE":0,"TOWNNAME":"南區","LI":"省躬里","LIN":"13鄰","STREET":"明興路","SECT":" ","MAREA":" ","LANE":" ","ALLEY":" ","HOUSE_NO":"８７９號","E_COORD97":166099.81,"N_COORD97":2537263.8199999998,"ADDRESS":"明興路８７９號","OBJECTID":490614},"geometry":{"x":166099.80999999959,"y":2537263.8200000003}},{"attributes":{"ID":490640,"DIS_CODE":0,"TOWNNAME":"南區","LI":"省躬里","LIN":"13鄰","STREET":"明興路","SECT":" ","MAREA":" ","LANE":" ","ALLEY":" ","HOUSE_NO":"８８１號","E_COORD97":166102.64000000001,"N_COORD97":2537257.8500000001,"ADDRESS":"明興路８８１號","OBJECTID":490615},"geometry":{"x":166102.63999999966,"y":2537257.8500000034}},{"attributes":{"ID":490641,"DIS_CODE":0,"TOWNNAME":"南區","LI":"省躬里","LIN":"13鄰","STREET":"明興路","SECT":" ","MAREA":" ","LANE":" ","ALLEY":" ","HOUSE_NO":"８８５號","E_COORD97":166108.92999999999,"N_COORD97":2537244.6899999999,"ADDRESS":"明興路８８５號","OBJECTID":490616},"geometry":{"x":166108.9299999997,"y":2537244.6899999995}},{"attributes":{"ID":490642,"DIS_CODE":0,"TOWNNAME":"南區","LI":"省躬里","LIN":"13鄰","STREET":"明興路","SECT":" ","MAREA":" ","LANE":" ","ALLEY":" ","HOUSE_NO":"８８７號","E_COORD97":166110.51000000001,"N_COORD97":2537239.3500000001,"ADDRESS":"明興路８８７號","OBJECTID":490617},"geometry":{"x":166110.50999999978,"y":2537239.3499999996}},{"attributes":{"ID":490643,"DIS_CODE":0,"TOWNNAME":"南區","LI":"省躬里","LIN":"13鄰","STREET":"明興路","SECT":" ","MAREA":" ","LANE":" ","ALLEY":" ","HOUSE_NO":"８８９號","E_COORD97":166111.45000000001,"N_COORD97":2537235.27,"ADDRESS":"明興路８８９號","OBJECTID":490618},"geometry":{"x":166111.45000000019,"y":2537235.2700000014}},{"attributes":{"ID":490644,"DIS_CODE":0,"TOWNNAME":"南區","LI":"省躬里","LIN":"13鄰","STREET":"明興路","SECT":" ","MAREA":" ","LANE":" ","ALLEY":" ","HOUSE_NO":"８９１號","E_COORD97":166113.01999999999,"N_COORD97":2537230.8700000001,"ADDRESS":"明興路８９１號","OBJECTID":490619},"geometry":{"x":166113.02000000048,"y":2537230.870000001}},{"attributes":{"ID":490645,"DIS_CODE":0,"TOWNNAME":"南區","LI":"省躬里","LIN":"13鄰","STREET":"萬年路","SECT":" ","MAREA":" ","LANE":" ","ALLEY":" ","HOUSE_NO":"８７號","E_COORD97":166343.41,"N_COORD97":2537248.6499999999,"ADDRESS":"萬年路８７號","OBJECTID":490620},"geometry":{"x":166343.41000000108,"y":2537248.6500000004}},{"attributes":{"ID":490646,"DIS_CODE":0,"TOWNNAME":"南區","LI":"省躬里","LIN":"13鄰","STREET":"萬年路","SECT":" ","MAREA":" ","LANE":" ","ALLEY":" ","HOUSE_NO":"５１號","E_COORD97":166251.29999999999,"N_COORD97":2537195.8500000001,"ADDRESS":"萬年路５１號","OBJECTID":490621},"geometry":{"x":166251.29999999888,"y":2537195.8499999996}},{"attributes":{"ID":490647,"DIS_CODE":0,"TOWNNAME":"南區","LI":"省躬里","LIN":"13鄰","STREET":"萬年路","SECT":" ","MAREA":" ","LANE":" ","ALLEY":" ","HOUSE_NO":"４９號","E_COORD97":166248.14999999999,"N_COORD97":2537193.9700000002,"ADDRESS":"萬年路４９號","OBJECTID":490622},"geometry":{"x":166248.1500000013,"y":2537193.9700000025}},{"attributes":{"ID":490648,"DIS_CODE":0,"TOWNNAME":"南區","LI":"省躬里","LIN":"13鄰","STREET":"萬年路","SECT":" ","MAREA":" ","LANE":" ","ALLEY":" ","HOUSE_NO":"５３號","E_COORD97":166257.26999999999,"N_COORD97":2537198.9900000002,"ADDRESS":"萬年路５３號","OBJECTID":490623},"geometry":{"x":166257.27000000048,"y":2537198.9900000002}},{"attributes":{"ID":490649,"DIS_CODE":0,"TOWNNAME":"南區","LI":"省躬里","LIN":"13鄰","STREET":"萬年路","SECT":" ","MAREA":" ","LANE":" ","ALLEY":" ","HOUSE_NO":"５５號","E_COORD97":166278.97,"N_COORD97":2537214.3799999999,"ADDRESS":"萬年路５５號","OBJECTID":490624},"geometry":{"x":166278.9700000016,"y":2537214.3800000008}},{"attributes":{"ID":490650,"DIS_CODE":0,"TOWNNAME":"南區","LI":"省躬里","LIN":"13鄰","STREET":"萬年路","SECT":" ","MAREA":" ","LANE":" ","ALLEY":" ","HOUSE_NO":"６１號","E_COORD97":166289.67000000001,"N_COORD97":2537218.7799999998,"ADDRESS":"萬年路６１號","OBJECTID":490625},"geometry":{"x":166289.67000000179,"y":2537218.7800000012}},{"attributes":{"ID":490651,"DIS_CODE":0,"TOWNNAME":"南區","LI":"省躬里","LIN":"13鄰","STREET":"萬年路","SECT":" ","MAREA":" ","LANE":" ","ALLEY":" ","HOUSE_NO":"８５號","E_COORD97":166334.29000000001,"N_COORD97":2537246.77,"ADDRESS":"萬年路８５號","OBJECTID":490626},"geometry":{"x":166334.29000000004,"y":2537246.7699999996}},{"attributes":{"ID":490652,"DIS_CODE":0,"TOWNNAME":"南區","LI":"省躬里","LIN":"13鄰","STREET":"萬年路","SECT":" ","MAREA":" ","LANE":" ","ALLEY":" ","HOUSE_NO":"１２３號","E_COORD97":166401.19,"N_COORD97":2537270.8599999999,"ADDRESS":"萬年路１２３號","OBJECTID":490627},"geometry":{"x":166401.19000000041,"y":2537270.8600000031}},{"attributes":{"ID":490653,"DIS_CODE":0,"TOWNNAME":"南區","LI":"省躬里","LIN":"13鄰","STREET":"萬年路","SECT":" ","MAREA":" ","LANE":" ","ALLEY":" ","HOUSE_NO":"１６５號","E_COORD97":166498.26000000001,"N_COORD97":2537317.5299999998,"ADDRESS":"萬年路１６５號","OBJECTID":490628},"geometry":{"x":166498.26000000071,"y":2537317.5300000012}},{"attributes":{"ID":490654,"DIS_CODE":0,"TOWNNAME":"南區","LI":"省躬里","LIN":"13鄰","STREET":"萬年路","SECT":" ","MAREA":" ","LANE":" ","ALLEY":" ","HOUSE_NO":"１６７號","E_COORD97":166565.04000000001,"N_COORD97":2537353.9399999999,"ADDRESS":"萬年路１６７號","OBJECTID":490629},"geometry":{"x":166565.04000000004,"y":2537353.9399999995}},{"attributes":{"ID":490655,"DIS_CODE":0,"TOWNNAME":"南區","LI":"省躬里","LIN":"13鄰","STREET":"萬年路","SECT":" ","MAREA":" ","LANE":" ","ALLEY":" ","HOUSE_NO":"２８５號","E_COORD97":166734.25,"N_COORD97":2537450.7400000002,"ADDRESS":"萬年路２８５號","OBJECTID":490630},"geometry":{"x":166734.25000000093,"y":2537450.7400000002}},{"attributes":{"ID":490656,"DIS_CODE":0,"TOWNNAME":"南區","LI":"省躬里","LIN":"13鄰","STREET":"萬年路","SECT":" ","MAREA":" ","LANE":" ","ALLEY":" ","HOUSE_NO":"２８９號","E_COORD97":166754.32999999999,"N_COORD97":2537479.3799999999,"ADDRESS":"萬年路２８９號","OBJECTID":490631},"geometry":{"x":166754.33000000007,"y":2537479.379999999}},{"attributes":{"ID":490657,"DIS_CODE":0,"TOWNNAME":"南區","LI":"省躬里","LIN":"13鄰","STREET":"萬年路","SECT":" ","MAREA":" ","LANE":" ","ALLEY":" ","HOUSE_NO":"２９１號","E_COORD97":166768.67000000001,"N_COORD97":2537478.9700000002,"ADDRESS":"萬年路２９１號","OBJECTID":490632},"geometry":{"x":166768.66999999993,"y":2537478.9700000025}},{"attributes":{"ID":490658,"DIS_CODE":0,"TOWNNAME":"南區","LI":"省躬里","LIN":"13鄰","STREET":"萬年路","SECT":" ","MAREA":" ","LANE":" ","ALLEY":" ","HOUSE_NO":"２９５號","E_COORD97":166776.85999999999,"N_COORD97":2537471.6000000001,"ADDRESS":"萬年路２９５號","OBJECTID":490633},"geometry":{"x":166776.86000000034,"y":2537471.5999999996}},{"attributes":{"ID":490659,"DIS_CODE":0,"TOWNNAME":"南區","LI":"省躬里","LIN":"13鄰","STREET":"萬年路","SECT":" ","MAREA":" ","LANE":" ","ALLEY":" ","HOUSE_NO":"２９７號","E_COORD97":166785.06,"N_COORD97":2537471.6000000001,"ADDRESS":"萬年路２９７號","OBJECTID":490634},"geometry":{"x":166785.06000000145,"y":2537471.5999999996}},{"attributes":{"ID":490660,"DIS_CODE":0,"TOWNNAME":"南區","LI":"省躬里","LIN":"13鄰","STREET":"萬年路","SECT":" ","MAREA":" ","LANE":" ","ALLEY":" ","HOUSE_NO":"３２３號","E_COORD97":166849.14000000001,"N_COORD97":2537501.6800000002,"ADDRESS":"萬年路３２３號","OBJECTID":490635},"geometry":{"x":166849.14000000153,"y":2537501.6799999997}},{"attributes":{"ID":490661,"DIS_CODE":0,"TOWNNAME":"南區","LI":"省躬里","LIN":"13鄰","STREET":"萬年路","SECT":" ","MAREA":" ","LANE":" ","ALLEY":" ","HOUSE_NO":"４４１號","E_COORD97":167051.47,"N_COORD97":2537655.8999999999,"ADDRESS":"萬年路４４１號","OBJECTID":490636},"geometry":{"x":167051.46999999974,"y":2537655.9000000022}},{"attributes":{"ID":490662,"DIS_CODE":0,"TOWNNAME":"南區","LI":"省躬里","LIN":"13鄰","STREET":"萬年路","SECT":" ","MAREA":" ","LANE":" ","ALLEY":" ","HOUSE_NO":"５７７號","E_COORD97":167397.45999999999,"N_COORD97":2537725.0499999998,"ADDRESS":"萬年路５７７號","OBJECTID":490637},"geometry":{"x":167397.45999999996,"y":2537725.0500000007}},{"attributes":{"ID":490663,"DIS_CODE":0,"TOWNNAME":"南區","LI":"省躬里","LIN":"13鄰","STREET":"萬年路","SECT":" ","MAREA":" ","LANE":" ","ALLEY":" ","HOUSE_NO":"６６１號","E_COORD97":167518.81,"N_COORD97":2537775.73,"ADDRESS":"萬年路６６１號","OBJECTID":490638},"geometry":{"x":167518.80999999959,"y":2537775.7300000023}},{"attributes":{"ID":490664,"DIS_CODE":0,"TOWNNAME":"南區","LI":"省躬里","LIN":"13鄰","STREET":"萬年路","SECT":" ","MAREA":" ","LANE":" ","ALLEY":" ","HOUSE_NO":"６８１號","E_COORD97":167590.01999999999,"N_COORD97":2537811.1099999999,"ADDRESS":"萬年路６８１號","OBJECTID":490639},"geometry":{"x":167590.01999999955,"y":2537811.1099999994}},{"attributes":{"ID":490665,"DIS_CODE":0,"TOWNNAME":"南區","LI":"永寧里","LIN":"13鄰","STREET":"灣裡路","SECT":" ","MAREA":" ","LANE":" ","ALLEY":" ","HOUSE_NO":"２２４號","E_COORD97":166046.67999999999,"N_COORD97":2536522.4300000002,"ADDRESS":"灣裡路２２４號","OBJECTID":490640},"geometry":{"x":166046.6799999997,"y":2536522.4300000016}},{"attributes":{"ID":490666,"DIS_CODE":0,"TOWNNAME":"南區","LI":"喜南里","LIN":"13鄰","STREET":"喜樹路","SECT":" ","MAREA":" ","LANE":" ","ALLEY":" ","HOUSE_NO":"１５３號","E_COORD97":165759.13,"N_COORD97":2538005.5800000001,"ADDRESS":"喜樹路１５３號","OBJECTID":490641},"geometry":{"x":165759.12999999989,"y":2538005.5800000001}},{"attributes":{"ID":490667,"DIS_CODE":0,"TOWNNAME":"南區","LI":"喜南里","LIN":"13鄰","STREET":"喜樹路","SECT":" ","MAREA":" ","LANE":" ","ALLEY":" ","HOUSE_NO":"１５５號","E_COORD97":165752.89000000001,"N_COORD97":2537994.5899999999,"ADDRESS":"喜樹路１５５號","OBJECTID":490642},"geometry":{"x":165752.8900000006,"y":2537994.5899999999}},{"attributes":{"ID":490668,"DIS_CODE":0,"TOWNNAME":"南區","LI":"喜南里","LIN":"13鄰","STREET":"喜樹路","SECT":" ","MAREA":" ","LANE":" ","ALLEY":" ","HOUSE_NO":"１６１號","E_COORD97":165742.63,"N_COORD97":2537979.02,"ADDRESS":"喜樹路１６１號","OBJECTID":490643},"geometry":{"x":165742.63000000082,"y":2537979.0200000014}},{"attributes":{"ID":490669,"DIS_CODE":0,"TOWNNAME":"南區","LI":"喜南里","LIN":"13鄰","STREET":"喜樹路","SECT":" ","MAREA":" ","LANE":" ","ALLEY":" ","HOUSE_NO":"１６３號","E_COORD97":165739.14999999999,"N_COORD97":2537972.4300000002,"ADDRESS":"喜樹路１６３號","OBJECTID":490644},"geometry":{"x":165739.15000000037,"y":2537972.4299999978}},{"attributes":{"ID":490670,"DIS_CODE":0,"TOWNNAME":"南區","LI":"喜南里","LIN":"13鄰","STREET":"喜樹路","SECT":" ","MAREA":" ","LANE":" ","ALLEY":" ","HOUSE_NO":"１７９號","E_COORD97":165732.87,"N_COORD97":2537917.23,"ADDRESS":"喜樹路１７９號","OBJECTID":490645},"geometry":{"x":165732.87000000104,"y":2537917.2300000042}},{"attributes":{"ID":490671,"DIS_CODE":0,"TOWNNAME":"南區","LI":"喜南里","LIN":"13鄰","STREET":"喜樹路","SECT":" ","MAREA":" ","LANE":" ","ALLEY":" ","HOUSE_NO":"１８１號","E_COORD97":165721.92999999999,"N_COORD97":2537884.7400000002,"ADDRESS":"喜樹路１８１號","OBJECTID":490646},"geometry":{"x":165721.93000000063,"y":2537884.7400000002}},{"attributes":{"ID":490672,"DIS_CODE":0,"TOWNNAME":"歸仁區","LI":"沙崙里","LIN":"7鄰","STREET":" ","SECT":" ","MAREA":"沙崙","LANE":" ","ALLEY":" ","HOUSE_NO":"２４９號","E_COORD97":179577.28,"N_COORD97":2537788.25,"ADDRESS":"沙崙２４９號","OBJECTID":490647},"geometry":{"x":179577.28000000026,"y":2537788.2500000019}},{"attributes":{"ID":490673,"DIS_CODE":0,"TOWNNAME":"白河區","LI":"大竹里","LIN":"7鄰","STREET":" ","SECT":" ","MAREA":"大排竹","LANE":" ","ALLEY":" ","HOUSE_NO":"１０２之５號","E_COORD97":189861.250616,"N_COORD97":2585111.91732,"ADDRESS":"大排竹１０２之５號","OBJECTID":490648},"geometry":{"x":189861.25061600097,"y":2585111.9173170011}},{"attributes":{"ID":490674,"DIS_CODE":0,"TOWNNAME":"官田區","LI":"社子里","LIN":"12鄰","STREET":" ","SECT":" ","MAREA":"六\u25A0","LANE":" ","ALLEY":" ","HOUSE_NO":"１６號之４","E_COORD97":185165.04999999999,"N_COORD97":2562875.5899999999,"ADDRESS":"六\u25A0１６號之４","OBJECTID":490649},"geometry":{"x":185165.05000000075,"y":2562875.5900000017}},{"attributes":{"ID":490675,"DIS_CODE":0,"TOWNNAME":"大內區","LI":"環湖里","LIN":"1鄰","STREET":" ","SECT":" ","MAREA":"環湖","LANE":" ","ALLEY":" ","HOUSE_NO":"３號之１","E_COORD97":190733.19,"N_COORD97":2559959.2999999998,"ADDRESS":"環湖３號之１","OBJECTID":490650},"geometry":{"x":190733.19000000134,"y":2559959.3000000026}},{"attributes":{"ID":490676,"DIS_CODE":0,"TOWNNAME":"新市區","LI":"社內里","LIN":"1鄰","STREET":" ","SECT":" ","MAREA":"社內","LANE":" ","ALLEY":" ","HOUSE_NO":"１之２號","E_COORD97":177047.108603,"N_COORD97":2553048.4066400002,"ADDRESS":"社內１之２號","OBJECTID":490651},"geometry":{"x":177047.10860300064,"y":2553048.4066400044}},{"attributes":{"ID":490677,"DIS_CODE":0,"TOWNNAME":"新市區","LI":"潭頂里","LIN":"1鄰","STREET":" ","SECT":" ","MAREA":"潭頂","LANE":" ","ALLEY":" ","HOUSE_NO":"１７之６０號","E_COORD97":180738.27832400001,"N_COORD97":2551127.80051,"ADDRESS":"潭頂１７之６０號","OBJECTID":490652},"geometry":{"x":180738.27832399867,"y":2551127.8005059995}},{"attributes":{"ID":490678,"DIS_CODE":0,"TOWNNAME":"新市區","LI":"社內里","LIN":"1鄰","STREET":" ","SECT":" ","MAREA":"潭頂","LANE":" ","ALLEY":" ","HOUSE_NO":"１７之６２號","E_COORD97":180737.43087899999,"N_COORD97":2551013.7122300002,"ADDRESS":"潭頂１７之６２號","OBJECTID":490653},"geometry":{"x":180737.43087899964,"y":2551013.7122340016}},{"attributes":{"ID":490679,"DIS_CODE":0,"TOWNNAME":"下營區","LI":"大屯里","LIN":"6鄰","STREET":" ","SECT":" ","MAREA":"大屯寮","LANE":" ","ALLEY":" ","HOUSE_NO":"５０號之２４","E_COORD97":171450.38286099999,"N_COORD97":2571170.6271000002,"ADDRESS":"大屯寮５０號之２４","OBJECTID":490654},"geometry":{"x":171450.38286100049,"y":2571170.627104003}},{"attributes":{"ID":490680,"DIS_CODE":0,"TOWNNAME":"下營區","LI":"大屯里","LIN":"6鄰","STREET":" ","SECT":" ","MAREA":"大屯寮","LANE":" ","ALLEY":" ","HOUSE_NO":"５０號之２５","E_COORD97":171866.88350200001,"N_COORD97":2570764.2273200001,"ADDRESS":"大屯寮５０號之２５","OBJECTID":490655},"geometry":{"x":171866.88350200187,"y":2570764.2273229994}},{"attributes":{"ID":490681,"DIS_CODE":0,"TOWNNAME":"下營區","LI":"大屯里","LIN":"6鄰","STREET":" ","SECT":" ","MAREA":"大屯寮","LANE":" ","ALLEY":" ","HOUSE_NO":"５０號之２６","E_COORD97":171741.11571499999,"N_COORD97":2571109.2624599999,"ADDRESS":"大屯寮５０號之２６","OBJECTID":490656},"geometry":{"x":171741.11571500078,"y":2571109.2624590024}},{"attributes":{"ID":490682,"DIS_CODE":0,"TOWNNAME":"將軍區","LI":"平沙里","LIN":"6鄰","STREET":" ","SECT":" ","MAREA":"平沙","LANE":" ","ALLEY":" ","HOUSE_NO":"５２之１號","E_COORD97":157290.25239000001,"N_COORD97":2568534.26633,"ADDRESS":"平沙５２之１號","OBJECTID":490657},"geometry":{"x":157290.25239000097,"y":2568534.2663350031}},{"attributes":{"ID":490683,"DIS_CODE":0,"TOWNNAME":"將軍區","LI":"平沙里","LIN":"6鄰","STREET":" ","SECT":" ","MAREA":"平沙","LANE":" ","ALLEY":" ","HOUSE_NO":"５１之２號","E_COORD97":157303.813719,"N_COORD97":2568519.6613400001,"ADDRESS":"平沙５１之２號","OBJECTID":490658},"geometry":{"x":157303.81371900067,"y":2568519.6613430008}},{"attributes":{"ID":490684,"DIS_CODE":0,"TOWNNAME":"將軍區","LI":"平沙里","LIN":"6鄰","STREET":" ","SECT":" ","MAREA":"平沙","LANE":" ","ALLEY":" ","HOUSE_NO":"５２號","E_COORD97":157295.97357500001,"N_COORD97":2568533.8429999999,"ADDRESS":"平沙５２號","OBJECTID":490659},"geometry":{"x":157295.97357499972,"y":2568533.843001999}},{"attributes":{"ID":490685,"DIS_CODE":0,"TOWNNAME":"仁德區","LI":"仁愛里","LIN":"12鄰","STREET":" ","SECT":" ","MAREA":"仁愛","LANE":" ","ALLEY":" ","HOUSE_NO":"２６４號","E_COORD97":170312.91974499999,"N_COORD97":2540118.5950000002,"ADDRESS":"仁愛２６４號","OBJECTID":490660},"geometry":{"x":170312.91974500101,"y":2540118.5950000025}},{"attributes":{"ID":490686,"DIS_CODE":0,"TOWNNAME":"仁德區","LI":"仁愛里","LIN":"12鄰","STREET":" ","SECT":" ","MAREA":"仁愛","LANE":" ","ALLEY":" ","HOUSE_NO":"２６２號","E_COORD97":170306.775956,"N_COORD97":2540118.5950000002,"ADDRESS":"仁愛２６２號","OBJECTID":490661},"geometry":{"x":170306.7759560002,"y":2540118.5950000025}},{"attributes":{"ID":490687,"DIS_CODE":0,"TOWNNAME":"仁德區","LI":"仁愛里","LIN":"12鄰","STREET":" ","SECT":" ","MAREA":"仁愛","LANE":" ","ALLEY":" ","HOUSE_NO":"２６１號","E_COORD97":170303.91591700001,"N_COORD97":2540118.5950000002,"ADDRESS":"仁愛２６１號","OBJECTID":490662},"geometry":{"x":170303.91591700073,"y":2540118.5950000025}},{"attributes":{"ID":490688,"DIS_CODE":0,"TOWNNAME":"仁德區","LI":"仁愛里","LIN":"12鄰","STREET":" ","SECT":" ","MAREA":"仁愛","LANE":" ","ALLEY":" ","HOUSE_NO":"２４９號","E_COORD97":170324.253975,"N_COORD97":2540101.554,"ADDRESS":"仁愛２４９號","OBJECTID":490663},"geometry":{"x":170324.25397500116,"y":2540101.5540000014}},{"attributes":{"ID":490689,"DIS_CODE":0,"TOWNNAME":"仁德區","LI":"仁愛里","LIN":"12鄰","STREET":" ","SECT":" ","MAREA":"仁愛","LANE":" ","ALLEY":" ","HOUSE_NO":"２５６號","E_COORD97":170292.05204899999,"N_COORD97":2540100.8539999998,"ADDRESS":"仁愛２５６號","OBJECTID":490664},"geometry":{"x":170292.05204899982,"y":2540100.8540000003}},{"attributes":{"ID":490690,"DIS_CODE":0,"TOWNNAME":"仁德區","LI":"仁愛里","LIN":"12鄰","STREET":" ","SECT":" ","MAREA":"仁愛","LANE":" ","ALLEY":" ","HOUSE_NO":"２５７號","E_COORD97":170290.14535599999,"N_COORD97":2540118.5950000002,"ADDRESS":"仁愛２５７號","OBJECTID":490665},"geometry":{"x":170290.1453560004,"y":2540118.5950000025}},{"attributes":{"ID":490691,"DIS_CODE":0,"TOWNNAME":"新營區","LI":"太北里","LIN":"3鄰","STREET":" ","SECT":" ","MAREA":"太子宮","LANE":" ","ALLEY":" ","HOUSE_NO":"２２號之１","E_COORD97":176094.39999999999,"N_COORD97":2577205.21,"ADDRESS":"太子宮２２號之１","OBJECTID":490666},"geometry":{"x":176094.4000000013,"y":2577205.209999999}},{"attributes":{"ID":490692,"DIS_CODE":0,"TOWNNAME":"新營區","LI":"太北里","LIN":"3鄰","STREET":" ","SECT":" ","MAREA":"太子宮","LANE":" ","ALLEY":" ","HOUSE_NO":"２３號之１３","E_COORD97":176108.911831,"N_COORD97":2577236.8621899998,"ADDRESS":"太子宮２３號之１３","OBJECTID":490667},"geometry":{"x":176108.91183100082,"y":2577236.8621890042}},{"attributes":{"ID":490693,"DIS_CODE":0,"TOWNNAME":"新營區","LI":"太北里","LIN":"3鄰","STREET":" ","SECT":" ","MAREA":"太子宮","LANE":" ","ALLEY":" ","HOUSE_NO":"２４號之４","E_COORD97":176122.91,"N_COORD97":2577178.5,"ADDRESS":"太子宮２４號之４","OBJECTID":490668},"geometry":{"x":176122.91000000108,"y":2577178.4999999981}},{"attributes":{"ID":490694,"DIS_CODE":0,"TOWNNAME":"新營區","LI":"太北里","LIN":"3鄰","STREET":" ","SECT":" ","MAREA":"太子宮","LANE":" ","ALLEY":" ","HOUSE_NO":"２４號之１","E_COORD97":176127.07999999999,"N_COORD97":2577193.98,"ADDRESS":"太子宮２４號之１","OBJECTID":490669},"geometry":{"x":176127.08000000007,"y":2577193.9800000023}},{"attributes":{"ID":490695,"DIS_CODE":0,"TOWNNAME":"大內區","LI":"曲溪里","LIN":"11鄰","STREET":" ","SECT":" ","MAREA":"二重溪","LANE":" ","ALLEY":" ","HOUSE_NO":"１０５號之３","E_COORD97":187396.84,"N_COORD97":2557823.3100000001,"ADDRESS":"二重溪１０５號之３","OBJECTID":490670},"geometry":{"x":187396.83999999985,"y":2557823.3100000005}},{"attributes":{"ID":490696,"DIS_CODE":0,"TOWNNAME":"下營區","LI":"茅港里","LIN":"7鄰","STREET":" ","SECT":" ","MAREA":"茅港尾","LANE":" ","ALLEY":" ","HOUSE_NO":"１８８號之３","E_COORD97":176468.88703400001,"N_COORD97":2567937.0517799999,"ADDRESS":"茅港尾１８８號之３","OBJECTID":490671},"geometry":{"x":176468.88703400083,"y":2567937.0517769996}},{"attributes":{"ID":490697,"DIS_CODE":0,"TOWNNAME":"六甲區","LI":"龜港里","LIN":"13鄰","STREET":" ","SECT":" ","MAREA":"龜子港","LANE":"２８１巷","ALLEY":"３０弄","HOUSE_NO":"１０號","E_COORD97":179518.25,"N_COORD97":2572452.6000000001,"ADDRESS":"龜子港２８１巷３０弄１０號","OBJECTID":490672},"geometry":{"x":179518.25,"y":2572452.6000000015}},{"attributes":{"ID":490698,"DIS_CODE":0,"TOWNNAME":"六甲區","LI":"龜港里","LIN":"13鄰","STREET":" ","SECT":" ","MAREA":"龜子港","LANE":"２８１巷","ALLEY":"３０弄","HOUSE_NO":"１６號","E_COORD97":179509.51999999999,"N_COORD97":2572508.5899999999,"ADDRESS":"龜子港２８１巷３０弄１６號","OBJECTID":490673},"geometry":{"x":179509.52000000142,"y":2572508.5899999999}},{"attributes":{"ID":490699,"DIS_CODE":0,"TOWNNAME":"六甲區","LI":"龜港里","LIN":"13鄰","STREET":" ","SECT":" ","MAREA":"龜子港","LANE":"２８１巷","ALLEY":"３０弄","HOUSE_NO":"６號","E_COORD97":179533.44,"N_COORD97":2572417.54,"ADDRESS":"龜子港２８１巷３０弄６號","OBJECTID":490674},"geometry":{"x":179533.44000000134,"y":2572417.5400000028}},{"attributes":{"ID":490700,"DIS_CODE":0,"TOWNNAME":"六甲區","LI":"龜港里","LIN":"13鄰","STREET":" ","SECT":" ","MAREA":"龜子港","LANE":"２８８巷","ALLEY":"２１弄","HOUSE_NO":"１０號","E_COORD97":179746.42999999999,"N_COORD97":2573074.29,"ADDRESS":"龜子港２８８巷２１弄１０號","OBJECTID":490675},"geometry":{"x":179746.43000000063,"y":2573074.290000001}},{"attributes":{"ID":490701,"DIS_CODE":0,"TOWNNAME":"六甲區","LI":"龜港里","LIN":"13鄰","STREET":" ","SECT":" ","MAREA":"龜子港","LANE":"２８８巷","ALLEY":"２１弄","HOUSE_NO":"１２號","E_COORD97":179746.35000000001,"N_COORD97":2573078.2599999998,"ADDRESS":"龜子港２８８巷２１弄１２號","OBJECTID":490676},"geometry":{"x":179746.35000000149,"y":2573078.2600000016}},{"attributes":{"ID":490702,"DIS_CODE":0,"TOWNNAME":"六甲區","LI":"龜港里","LIN":"13鄰","STREET":" ","SECT":" ","MAREA":"龜子港","LANE":"２８８巷","ALLEY":"２１弄","HOUSE_NO":"１６號","E_COORD97":179747.04999999999,"N_COORD97":2573082.1099999999,"ADDRESS":"龜子港２８８巷２１弄１６號","OBJECTID":490677},"geometry":{"x":179747.05000000075,"y":2573082.1100000013}},{"attributes":{"ID":490703,"DIS_CODE":0,"TOWNNAME":"六甲區","LI":"龜港里","LIN":"13鄰","STREET":" ","SECT":" ","MAREA":"龜子港","LANE":"２８８巷","ALLEY":"２１弄","HOUSE_NO":"２之１０號","E_COORD97":179752.75,"N_COORD97":2573031.3900000001,"ADDRESS":"龜子港２８８巷２１弄２之１０號","OBJECTID":490678},"geometry":{"x":179752.75000000093,"y":2573031.3900000025}},{"attributes":{"ID":490704,"DIS_CODE":0,"TOWNNAME":"六甲區","LI":"龜港里","LIN":"13鄰","STREET":" ","SECT":" ","MAREA":"龜子港","LANE":"２８８巷","ALLEY":"２１弄","HOUSE_NO":"２之１１號","E_COORD97":179761.70999999999,"N_COORD97":2573049.6699999999,"ADDRESS":"龜子港２８８巷２１弄２之１１號","OBJECTID":490679},"geometry":{"x":179761.71000000089,"y":2573049.6700000018}},{"attributes":{"ID":490705,"DIS_CODE":0,"TOWNNAME":"六甲區","LI":"龜港里","LIN":"13鄰","STREET":" ","SECT":" ","MAREA":"龜子港","LANE":"２８８巷","ALLEY":"２１弄","HOUSE_NO":"２之１２號","E_COORD97":179756.89000000001,"N_COORD97":2573031.1000000001,"ADDRESS":"龜子港２８８巷２１弄２之１２號","OBJECTID":490680},"geometry":{"x":179756.8900000006,"y":2573031.0999999978}},{"attributes":{"ID":490706,"DIS_CODE":0,"TOWNNAME":"六甲區","LI":"龜港里","LIN":"13鄰","STREET":" ","SECT":" ","MAREA":"龜子港","LANE":"２８８巷","ALLEY":"２１弄","HOUSE_NO":"２之１６號","E_COORD97":179760.89000000001,"N_COORD97":2573030.7799999998,"ADDRESS":"龜子港２８８巷２１弄２之１６號","OBJECTID":490681},"geometry":{"x":179760.88999999966,"y":2573030.7800000012}},{"attributes":{"ID":490707,"DIS_CODE":0,"TOWNNAME":"六甲區","LI":"龜港里","LIN":"13鄰","STREET":" ","SECT":" ","MAREA":"龜子港","LANE":"２８８巷","ALLEY":"２１弄","HOUSE_NO":"２之１８號","E_COORD97":179765.01999999999,"N_COORD97":2573030.6800000002,"ADDRESS":"龜子港２８８巷２１弄２之１８號","OBJECTID":490682},"geometry":{"x":179765.01999999955,"y":2573030.6800000034}},{"attributes":{"ID":490708,"DIS_CODE":0,"TOWNNAME":"六甲區","LI":"龜港里","LIN":"13鄰","STREET":" ","SECT":" ","MAREA":"龜子港","LANE":"２８８巷","ALLEY":"２１弄","HOUSE_NO":"２之１號","E_COORD97":179741.72,"N_COORD97":2573051.6600000001,"ADDRESS":"龜子港２８８巷２１弄２之１號","OBJECTID":490683},"geometry":{"x":179741.71999999974,"y":2573051.6600000039}},{"attributes":{"ID":490709,"DIS_CODE":0,"TOWNNAME":"六甲區","LI":"龜港里","LIN":"13鄰","STREET":" ","SECT":" ","MAREA":"龜子港","LANE":"２８８巷","ALLEY":"２１弄","HOUSE_NO":"２之２０號","E_COORD97":179769.35000000001,"N_COORD97":2573030.1400000001,"ADDRESS":"龜子港２８８巷２１弄２之２０號","OBJECTID":490684},"geometry":{"x":179769.34999999963,"y":2573030.1400000025}},{"attributes":{"ID":490710,"DIS_CODE":0,"TOWNNAME":"六甲區","LI":"龜港里","LIN":"13鄰","STREET":" ","SECT":" ","MAREA":"龜子港","LANE":"２８８巷","ALLEY":"２１弄","HOUSE_NO":"２之２２號","E_COORD97":179773.26999999999,"N_COORD97":2573029.6600000001,"ADDRESS":"龜子港２８８巷２１弄２之２２號","OBJECTID":490685},"geometry":{"x":179773.26999999955,"y":2573029.660000002}},{"attributes":{"ID":490711,"DIS_CODE":0,"TOWNNAME":"六甲區","LI":"龜港里","LIN":"13鄰","STREET":" ","SECT":" ","MAREA":"龜子港","LANE":"２８８巷","ALLEY":"２１弄","HOUSE_NO":"２之２號","E_COORD97":179740.48000000001,"N_COORD97":2573031.6699999999,"ADDRESS":"龜子港２８８巷２１弄２之２號","OBJECTID":490686},"geometry":{"x":179740.48000000045,"y":2573031.6700000018}},{"attributes":{"ID":490712,"DIS_CODE":0,"TOWNNAME":"六甲區","LI":"龜港里","LIN":"13鄰","STREET":" ","SECT":" ","MAREA":"龜子港","LANE":"２８８巷","ALLEY":"２１弄","HOUSE_NO":"２之３號","E_COORD97":179746.01000000001,"N_COORD97":2573050.8500000001,"ADDRESS":"龜子港２８８巷２１弄２之３號","OBJECTID":490687},"geometry":{"x":179746.01000000071,"y":2573050.8500000015}},{"attributes":{"ID":490713,"DIS_CODE":0,"TOWNNAME":"六甲區","LI":"龜港里","LIN":"13鄰","STREET":" ","SECT":" ","MAREA":"龜子港","LANE":"２８８巷","ALLEY":"２１弄","HOUSE_NO":"２之５號","E_COORD97":179750,"N_COORD97":2573050.52,"ADDRESS":"龜子港２８８巷２１弄２之５號","OBJECTID":490688},"geometry":{"x":179750,"y":2573050.5199999996}},{"attributes":{"ID":490714,"DIS_CODE":0,"TOWNNAME":"六甲區","LI":"龜港里","LIN":"13鄰","STREET":" ","SECT":" ","MAREA":"龜子港","LANE":"２８８巷","ALLEY":"２１弄","HOUSE_NO":"２之６號","E_COORD97":179744.73000000001,"N_COORD97":2573031.2599999998,"ADDRESS":"龜子港２８８巷２１弄２之６號","OBJECTID":490689},"geometry":{"x":179744.73000000138,"y":2573031.2600000016}},{"attributes":{"ID":490715,"DIS_CODE":0,"TOWNNAME":"六甲區","LI":"龜港里","LIN":"13鄰","STREET":" ","SECT":" ","MAREA":"龜子港","LANE":"２８８巷","ALLEY":"２１弄","HOUSE_NO":"２之７號","E_COORD97":179753.95000000001,"N_COORD97":2573050.2799999998,"ADDRESS":"龜子港２８８巷２１弄２之７號","OBJECTID":490690},"geometry":{"x":179753.95000000019,"y":2573050.2800000031}},{"attributes":{"ID":490716,"DIS_CODE":0,"TOWNNAME":"六甲區","LI":"龜港里","LIN":"13鄰","STREET":" ","SECT":" ","MAREA":"龜子港","LANE":"２８８巷","ALLEY":"２１弄","HOUSE_NO":"２之８號","E_COORD97":179748.73999999999,"N_COORD97":2573031.4199999999,"ADDRESS":"龜子港２８８巷２１弄２之８號","OBJECTID":490691},"geometry":{"x":179748.74000000022,"y":2573031.4199999999}},{"attributes":{"ID":490717,"DIS_CODE":0,"TOWNNAME":"新營區","LI":"太北里","LIN":"8鄰","STREET":" ","SECT":" ","MAREA":"太子宮","LANE":" ","ALLEY":" ","HOUSE_NO":"６４號之４","E_COORD97":176013.29308500001,"N_COORD97":2577137.8022400001,"ADDRESS":"太子宮６４號之４","OBJECTID":490692},"geometry":{"x":176013.29308499955,"y":2577137.8022420034}},{"attributes":{"ID":490718,"DIS_CODE":0,"TOWNNAME":"六甲區","LI":"龜港里","LIN":"13鄰","STREET":" ","SECT":" ","MAREA":"龜子港","LANE":"２８８巷","ALLEY":"２１弄","HOUSE_NO":"２之９號","E_COORD97":179757.97,"N_COORD97":2573050.0099999998,"ADDRESS":"龜子港２８８巷２１弄２之９號","OBJECTID":490693},"geometry":{"x":179757.97000000067,"y":2573050.0100000016}},{"attributes":{"ID":490719,"DIS_CODE":0,"TOWNNAME":"六甲區","LI":"龜港里","LIN":"13鄰","STREET":" ","SECT":" ","MAREA":"龜子港","LANE":"２８８巷","ALLEY":"２１弄","HOUSE_NO":"３之１０號","E_COORD97":179711.14999999999,"N_COORD97":2573106.1800000002,"ADDRESS":"龜子港２８８巷２１弄３之１０號","OBJECTID":490694},"geometry":{"x":179711.15000000224,"y":2573106.1800000016}},{"attributes":{"ID":490720,"DIS_CODE":0,"TOWNNAME":"六甲區","LI":"龜港里","LIN":"13鄰","STREET":" ","SECT":" ","MAREA":"龜子港","LANE":"２８８巷","ALLEY":"２１弄","HOUSE_NO":"３之１１號","E_COORD97":179713.54000000001,"N_COORD97":2573082.0499999998,"ADDRESS":"龜子港２８８巷２１弄３之１１號","OBJECTID":490695},"geometry":{"x":179713.54000000097,"y":2573082.0500000007}},{"attributes":{"ID":490721,"DIS_CODE":0,"TOWNNAME":"六甲區","LI":"龜港里","LIN":"13鄰","STREET":" ","SECT":" ","MAREA":"龜子港","LANE":"２８８巷","ALLEY":"２１弄","HOUSE_NO":"３之１２號","E_COORD97":179706.88,"N_COORD97":2573106.46,"ADDRESS":"龜子港２８８巷２１弄３之１２號","OBJECTID":490696},"geometry":{"x":179706.87999999989,"y":2573106.4600000009}},{"attributes":{"ID":490722,"DIS_CODE":0,"TOWNNAME":"六甲區","LI":"龜港里","LIN":"13鄰","STREET":" ","SECT":" ","MAREA":"龜子港","LANE":"２８８巷","ALLEY":"２１弄","HOUSE_NO":"３之１３號","E_COORD97":179709.45999999999,"N_COORD97":2573082.3500000001,"ADDRESS":"龜子港２８８巷２１弄３之１３號","OBJECTID":490697},"geometry":{"x":179709.46000000089,"y":2573082.3499999996}},{"attributes":{"ID":490723,"DIS_CODE":0,"TOWNNAME":"六甲區","LI":"龜港里","LIN":"13鄰","STREET":" ","SECT":" ","MAREA":"龜子港","LANE":"２８８巷","ALLEY":"２１弄","HOUSE_NO":"３之１５號","E_COORD97":179705.38,"N_COORD97":2573082.6499999999,"ADDRESS":"龜子港２８８巷２１弄３之１５號","OBJECTID":490698},"geometry":{"x":179705.37999999989,"y":2573082.6500000041}},{"attributes":{"ID":490724,"DIS_CODE":0,"TOWNNAME":"六甲區","LI":"龜港里","LIN":"13鄰","STREET":" ","SECT":" ","MAREA":"龜子港","LANE":"２８８巷","ALLEY":"２１弄","HOUSE_NO":"３之１６號","E_COORD97":179702.62,"N_COORD97":2573106.73,"ADDRESS":"龜子港２８８巷２１弄３之１６號","OBJECTID":490699},"geometry":{"x":179702.62000000197,"y":2573106.7300000023}},{"attributes":{"ID":490725,"DIS_CODE":0,"TOWNNAME":"六甲區","LI":"龜港里","LIN":"13鄰","STREET":" ","SECT":" ","MAREA":"龜子港","LANE":"２８８巷","ALLEY":"２１弄","HOUSE_NO":"３之１７號","E_COORD97":179701.29999999999,"N_COORD97":2573082.9500000002,"ADDRESS":"龜子港２８８巷２１弄３之１７號","OBJECTID":490700},"geometry":{"x":179701.30000000075,"y":2573082.950000003}},{"attributes":{"ID":490726,"DIS_CODE":0,"TOWNNAME":"六甲區","LI":"龜港里","LIN":"13鄰","STREET":" ","SECT":" ","MAREA":"龜子港","LANE":"２８８巷","ALLEY":"２１弄","HOUSE_NO":"３之１８號","E_COORD97":179698.35000000001,"N_COORD97":2573107,"ADDRESS":"龜子港２８８巷２１弄３之１８號","OBJECTID":490701},"geometry":{"x":179698.34999999963,"y":2573107.0000000037}},{"attributes":{"ID":490727,"DIS_CODE":0,"TOWNNAME":"六甲區","LI":"龜港里","LIN":"13鄰","STREET":" ","SECT":" ","MAREA":"龜子港","LANE":"２８８巷","ALLEY":"２１弄","HOUSE_NO":"３之１９號","E_COORD97":179697.23000000001,"N_COORD97":2573083.2400000002,"ADDRESS":"龜子港２８８巷２１弄３之１９號","OBJECTID":490702},"geometry":{"x":179697.23000000231,"y":2573083.2400000021}},{"attributes":{"ID":490728,"DIS_CODE":0,"TOWNNAME":"六甲區","LI":"龜港里","LIN":"13鄰","STREET":" ","SECT":" ","MAREA":"龜子港","LANE":"２８８巷","ALLEY":"２１弄","HOUSE_NO":"３之１號","E_COORD97":179734.04999999999,"N_COORD97":2573082.46,"ADDRESS":"龜子港２８８巷２１弄３之１號","OBJECTID":490703},"geometry":{"x":179734.05000000075,"y":2573082.4600000028}},{"attributes":{"ID":490729,"DIS_CODE":0,"TOWNNAME":"六甲區","LI":"龜港里","LIN":"13鄰","STREET":" ","SECT":" ","MAREA":"龜子港","LANE":"２８８巷","ALLEY":"２１弄","HOUSE_NO":"３之２號","E_COORD97":179723.94,"N_COORD97":2573105.3599999999,"ADDRESS":"龜子港２８８巷２１弄３之２號","OBJECTID":490704},"geometry":{"x":179723.94000000041,"y":2573105.3600000013}},{"attributes":{"ID":490730,"DIS_CODE":0,"TOWNNAME":"六甲區","LI":"龜港里","LIN":"13鄰","STREET":" ","SECT":" ","MAREA":"龜子港","LANE":"２８８巷","ALLEY":"２１弄","HOUSE_NO":"３之３號","E_COORD97":179729.98000000001,"N_COORD97":2573082.7599999998,"ADDRESS":"龜子港２８８巷２１弄３之３號","OBJECTID":490705},"geometry":{"x":179729.98000000138,"y":2573082.7600000016}},{"attributes":{"ID":490731,"DIS_CODE":0,"TOWNNAME":"六甲區","LI":"龜港里","LIN":"13鄰","STREET":" ","SECT":" ","MAREA":"龜子港","LANE":"２８８巷","ALLEY":"２１弄","HOUSE_NO":"３之５號","E_COORD97":179725.89999999999,"N_COORD97":2573083.0600000001,"ADDRESS":"龜子港２８８巷２１弄３之５號","OBJECTID":490706},"geometry":{"x":179725.90000000037,"y":2573083.0599999987}},{"attributes":{"ID":490732,"DIS_CODE":0,"TOWNNAME":"六甲區","LI":"龜港里","LIN":"13鄰","STREET":" ","SECT":" ","MAREA":"龜子港","LANE":"２８８巷","ALLEY":"２１弄","HOUSE_NO":"３之６號","E_COORD97":179719.67999999999,"N_COORD97":2573105.6299999999,"ADDRESS":"龜子港２８８巷２１弄３之６號","OBJECTID":490707},"geometry":{"x":179719.6799999997,"y":2573105.6300000008}},{"attributes":{"ID":490733,"DIS_CODE":0,"TOWNNAME":"六甲區","LI":"龜港里","LIN":"13鄰","STREET":" ","SECT":" ","MAREA":"龜子港","LANE":"２８８巷","ALLEY":"２１弄","HOUSE_NO":"３之７號","E_COORD97":179721.82000000001,"N_COORD97":2573083.3500000001,"ADDRESS":"龜子港２８８巷２１弄３之７號","OBJECTID":490708},"geometry":{"x":179721.82000000216,"y":2573083.3499999996}},{"attributes":{"ID":490734,"DIS_CODE":0,"TOWNNAME":"六甲區","LI":"龜港里","LIN":"13鄰","STREET":" ","SECT":" ","MAREA":"龜子港","LANE":"２８８巷","ALLEY":"２１弄","HOUSE_NO":"３之８號","E_COORD97":179715.41,"N_COORD97":2573105.9100000001,"ADDRESS":"龜子港２８８巷２１弄３之８號","OBJECTID":490709},"geometry":{"x":179715.41000000015,"y":2573105.910000002}},{"attributes":{"ID":490735,"DIS_CODE":0,"TOWNNAME":"六甲區","LI":"龜港里","LIN":"13鄰","STREET":" ","SECT":" ","MAREA":"龜子港","LANE":"２８８巷","ALLEY":"２１弄","HOUSE_NO":"３之９號","E_COORD97":179717.73999999999,"N_COORD97":2573083.6499999999,"ADDRESS":"龜子港２８８巷２１弄３之９號","OBJECTID":490710},"geometry":{"x":179717.74000000115,"y":2573083.6500000022}},{"attributes":{"ID":490736,"DIS_CODE":0,"TOWNNAME":"六甲區","LI":"龜港里","LIN":"13鄰","STREET":" ","SECT":" ","MAREA":"龜子港","LANE":"２８８巷","ALLEY":"２１弄","HOUSE_NO":"６號","E_COORD97":179746.54999999999,"N_COORD97":2573066.0899999999,"ADDRESS":"龜子港２８８巷２１弄６號","OBJECTID":490711},"geometry":{"x":179746.54999999981,"y":2573066.0900000017}},{"attributes":{"ID":490737,"DIS_CODE":0,"TOWNNAME":"六甲區","LI":"龜港里","LIN":"13鄰","STREET":" ","SECT":" ","MAREA":"龜子港","LANE":"２８８巷","ALLEY":"２１弄","HOUSE_NO":"８號","E_COORD97":179746.26000000001,"N_COORD97":2573070.1800000002,"ADDRESS":"龜子港２８８巷２１弄８號","OBJECTID":490712},"geometry":{"x":179746.25999999978,"y":2573070.1799999997}},{"attributes":{"ID":490738,"DIS_CODE":0,"TOWNNAME":"六甲區","LI":"龜港里","LIN":"13鄰","STREET":" ","SECT":" ","MAREA":"龜子港","LANE":"３０３巷","ALLEY":"１６弄","HOUSE_NO":"１號","E_COORD97":179471.62,"N_COORD97":2572568.8399999999,"ADDRESS":"龜子港３０３巷１６弄１號","OBJECTID":490713},"geometry":{"x":179471.62000000011,"y":2572568.8400000036}},{"attributes":{"ID":490739,"DIS_CODE":0,"TOWNNAME":"六甲區","LI":"龜港里","LIN":"13鄰","STREET":" ","SECT":" ","MAREA":"龜子港","LANE":"３０３巷","ALLEY":"１６弄","HOUSE_NO":"３號","E_COORD97":179471.42999999999,"N_COORD97":2572573.3700000001,"ADDRESS":"龜子港３０３巷１６弄３號","OBJECTID":490714},"geometry":{"x":179471.43000000063,"y":2572573.3700000048}},{"attributes":{"ID":490740,"DIS_CODE":0,"TOWNNAME":"六甲區","LI":"龜港里","LIN":"13鄰","STREET":" ","SECT":" ","MAREA":"龜子港","LANE":"３０３巷","ALLEY":"１６弄","HOUSE_NO":"５號","E_COORD97":179471.01000000001,"N_COORD97":2572577.4500000002,"ADDRESS":"龜子港３０３巷１６弄５號","OBJECTID":490715},"geometry":{"x":179471.01000000071,"y":2572577.450000003}},{"attributes":{"ID":490741,"DIS_CODE":0,"TOWNNAME":"六甲區","LI":"龜港里","LIN":"13鄰","STREET":" ","SECT":" ","MAREA":"龜子港","LANE":"３０３巷","ALLEY":"１６弄","HOUSE_NO":"７號","E_COORD97":179470.87,"N_COORD97":2572581.7200000002,"ADDRESS":"龜子港３０３巷１６弄７號","OBJECTID":490716},"geometry":{"x":179470.87000000104,"y":2572581.7200000025}},{"attributes":{"ID":490742,"DIS_CODE":0,"TOWNNAME":"六甲區","LI":"龜港里","LIN":"13鄰","STREET":" ","SECT":" ","MAREA":"龜子港","LANE":"３０３巷","ALLEY":"１６弄","HOUSE_NO":"９號","E_COORD97":179470.64000000001,"N_COORD97":2572586.8399999999,"ADDRESS":"龜子港３０３巷１６弄９號","OBJECTID":490717},"geometry":{"x":179470.63999999966,"y":2572586.8400000017}},{"attributes":{"ID":490743,"DIS_CODE":0,"TOWNNAME":"六甲區","LI":"龜港里","LIN":"13鄰","STREET":" ","SECT":" ","MAREA":"龜子港","LANE":"８０巷","ALLEY":"２９弄","HOUSE_NO":"１之２號","E_COORD97":179840.31,"N_COORD97":2572405.3700000001,"ADDRESS":"龜子港８０巷２９弄１之２號","OBJECTID":490718},"geometry":{"x":179840.31000000052,"y":2572405.3700000029}},{"attributes":{"ID":490744,"DIS_CODE":0,"TOWNNAME":"六甲區","LI":"龜港里","LIN":"13鄰","STREET":" ","SECT":" ","MAREA":"龜子港","LANE":"８０巷","ALLEY":"２９弄","HOUSE_NO":"１之３號","E_COORD97":179835.60999999999,"N_COORD97":2572404.7400000002,"ADDRESS":"龜子港８０巷２９弄１之３號","OBJECTID":490719},"geometry":{"x":179835.61000000127,"y":2572404.7400000021}},{"attributes":{"ID":490745,"DIS_CODE":0,"TOWNNAME":"六甲區","LI":"龜港里","LIN":"13鄰","STREET":" ","SECT":" ","MAREA":"龜子港","LANE":"８０巷","ALLEY":"２９弄","HOUSE_NO":"１之５號","E_COORD97":179831.39999999999,"N_COORD97":2572403.6099999999,"ADDRESS":"龜子港８０巷２９弄１之５號","OBJECTID":490720},"geometry":{"x":179831.39999999944,"y":2572403.6100000031}},{"attributes":{"ID":490746,"DIS_CODE":0,"TOWNNAME":"六甲區","LI":"龜港里","LIN":"13鄰","STREET":" ","SECT":" ","MAREA":"龜子港","LANE":"８０巷","ALLEY":"２９弄","HOUSE_NO":"１之６號","E_COORD97":179826.81,"N_COORD97":2572402.6600000001,"ADDRESS":"龜子港８０巷２９弄１之６號","OBJECTID":490721},"geometry":{"x":179826.81000000052,"y":2572402.6600000001}},{"attributes":{"ID":490747,"DIS_CODE":0,"TOWNNAME":"六甲區","LI":"龜港里","LIN":"13鄰","STREET":" ","SECT":" ","MAREA":"龜子港","LANE":"８０巷","ALLEY":"２９弄","HOUSE_NO":"１之７號","E_COORD97":179822.14999999999,"N_COORD97":2572401.6000000001,"ADDRESS":"龜子港８０巷２９弄１之７號","OBJECTID":490722},"geometry":{"x":179822.1500000013,"y":2572401.6000000015}},{"attributes":{"ID":490748,"DIS_CODE":0,"TOWNNAME":"六甲區","LI":"龜港里","LIN":"13鄰","STREET":" ","SECT":" ","MAREA":"龜子港","LANE":"８０巷","ALLEY":"２９弄","HOUSE_NO":"１之８號","E_COORD97":179817.70999999999,"N_COORD97":2572400.71,"ADDRESS":"龜子港８０巷２９弄１之８號","OBJECTID":490723},"geometry":{"x":179817.71000000089,"y":2572400.7100000009}},{"attributes":{"ID":490749,"DIS_CODE":0,"TOWNNAME":"六甲區","LI":"龜港里","LIN":"13鄰","STREET":" ","SECT":" ","MAREA":"龜子港","LANE":"８０巷","ALLEY":"２９弄","HOUSE_NO":"１號","E_COORD97":179848.91,"N_COORD97":2572407.04,"ADDRESS":"龜子港８０巷２９弄１號","OBJECTID":490724},"geometry":{"x":179848.91000000108,"y":2572407.0399999972}},{"attributes":{"ID":490750,"DIS_CODE":0,"TOWNNAME":"六甲區","LI":"龜港里","LIN":"13鄰","STREET":" ","SECT":" ","MAREA":"龜子港","LANE":"８０巷","ALLEY":"２９弄","HOUSE_NO":"３之１號","E_COORD97":179840.54000000001,"N_COORD97":2572424.6400000001,"ADDRESS":"龜子港８０巷２９弄３之１號","OBJECTID":490725},"geometry":{"x":179840.54000000097,"y":2572424.6400000006}},{"attributes":{"ID":490751,"DIS_CODE":0,"TOWNNAME":"六甲區","LI":"龜港里","LIN":"13鄰","STREET":" ","SECT":" ","MAREA":"龜子港","LANE":"８０巷","ALLEY":"２９弄","HOUSE_NO":"３之２號","E_COORD97":179836.47,"N_COORD97":2572424.1499999999,"ADDRESS":"龜子港８０巷２９弄３之２號","OBJECTID":490726},"geometry":{"x":179836.46999999974,"y":2572424.1500000004}},{"attributes":{"ID":490752,"DIS_CODE":0,"TOWNNAME":"六甲區","LI":"龜港里","LIN":"13鄰","STREET":" ","SECT":" ","MAREA":"龜子港","LANE":"８０巷","ALLEY":"２９弄","HOUSE_NO":"３之３號","E_COORD97":179832.03,"N_COORD97":2572423.1299999999,"ADDRESS":"龜子港８０巷２９弄３之３號","OBJECTID":490727},"geometry":{"x":179832.03000000026,"y":2572423.129999999}},{"attributes":{"ID":490753,"DIS_CODE":0,"TOWNNAME":"六甲區","LI":"龜港里","LIN":"7鄰","STREET":" ","SECT":" ","MAREA":"龜子港","LANE":"２８１巷","ALLEY":"１２６弄","HOUSE_NO":"３４號","E_COORD97":179210.85999999999,"N_COORD97":2572386.2000000002,"ADDRESS":"龜子港２８１巷１２６弄３４號","OBJECTID":490728},"geometry":{"x":179210.86000000034,"y":2572386.200000003}},{"attributes":{"ID":490754,"DIS_CODE":0,"TOWNNAME":"六甲區","LI":"龜港里","LIN":"7鄰","STREET":" ","SECT":" ","MAREA":"龜子港","LANE":"２８１巷","ALLEY":"１２６弄","HOUSE_NO":"３５號","E_COORD97":179191.94,"N_COORD97":2572335.3199999998,"ADDRESS":"龜子港２８１巷１２６弄３５號","OBJECTID":490729},"geometry":{"x":179191.94000000041,"y":2572335.320000004}},{"attributes":{"ID":490755,"DIS_CODE":0,"TOWNNAME":"六甲區","LI":"龜港里","LIN":"12鄰","STREET":" ","SECT":" ","MAREA":"龜子港","LANE":"１６１巷","ALLEY":"８５弄","HOUSE_NO":"１８號","E_COORD97":179280.16,"N_COORD97":2572425.7000000002,"ADDRESS":"龜子港１６１巷８５弄１８號","OBJECTID":490730},"geometry":{"x":179280.15999999922,"y":2572425.6999999993}},{"attributes":{"ID":490756,"DIS_CODE":0,"TOWNNAME":"六甲區","LI":"龜港里","LIN":"12鄰","STREET":" ","SECT":" ","MAREA":"龜子港","LANE":"１６１巷","ALLEY":"８５弄","HOUSE_NO":"２０之１號","E_COORD97":179261.07000000001,"N_COORD97":2572451.4700000002,"ADDRESS":"龜子港１６１巷８５弄２０之１號","OBJECTID":490731},"geometry":{"x":179261.07000000123,"y":2572451.4700000025}},{"attributes":{"ID":490757,"DIS_CODE":0,"TOWNNAME":"六甲區","LI":"龜港里","LIN":"12鄰","STREET":" ","SECT":" ","MAREA":"龜子港","LANE":"１６１巷","ALLEY":"８５弄","HOUSE_NO":"２０號","E_COORD97":179274.48999999999,"N_COORD97":2572435.77,"ADDRESS":"龜子港１６１巷８５弄２０號","OBJECTID":490732},"geometry":{"x":179274.49000000022,"y":2572435.7699999996}},{"attributes":{"ID":490758,"DIS_CODE":0,"TOWNNAME":"六甲區","LI":"龜港里","LIN":"12鄰","STREET":" ","SECT":" ","MAREA":"龜子港","LANE":"１６１巷","ALLEY":"８５弄","HOUSE_NO":"２２號","E_COORD97":179271.69,"N_COORD97":2572372.1600000001,"ADDRESS":"龜子港１６１巷８５弄２２號","OBJECTID":490733},"geometry":{"x":179271.69000000041,"y":2572372.1600000001}},{"attributes":{"ID":490759,"DIS_CODE":0,"TOWNNAME":"六甲區","LI":"龜港里","LIN":"12鄰","STREET":" ","SECT":" ","MAREA":"龜子港","LANE":"１６１巷","ALLEY":"８５弄","HOUSE_NO":"２４號","E_COORD97":179257.72,"N_COORD97":2572376.3300000001,"ADDRESS":"龜子港１６１巷８５弄２４號","OBJECTID":490734},"geometry":{"x":179257.72000000067,"y":2572376.3300000019}},{"attributes":{"ID":490760,"DIS_CODE":0,"TOWNNAME":"六甲區","LI":"龜港里","LIN":"12鄰","STREET":" ","SECT":" ","MAREA":"龜子港","LANE":"１６１巷","ALLEY":"８５弄","HOUSE_NO":"２６號","E_COORD97":179244.89999999999,"N_COORD97":2572373,"ADDRESS":"龜子港１６１巷８５弄２６號","OBJECTID":490735},"geometry":{"x":179244.89999999944,"y":2572373}},{"attributes":{"ID":490761,"DIS_CODE":0,"TOWNNAME":"六甲區","LI":"龜港里","LIN":"12鄰","STREET":" ","SECT":" ","MAREA":"龜子港","LANE":"１６１巷","ALLEY":"８５弄","HOUSE_NO":"２８號","E_COORD97":179248.06,"N_COORD97":2572395.0600000001,"ADDRESS":"龜子港１６１巷８５弄２８號","OBJECTID":490736},"geometry":{"x":179248.05999999866,"y":2572395.0600000042}},{"attributes":{"ID":490762,"DIS_CODE":0,"TOWNNAME":"六甲區","LI":"龜港里","LIN":"12鄰","STREET":" ","SECT":" ","MAREA":"龜子港","LANE":"１６１巷","ALLEY":"８５弄","HOUSE_NO":"３２號","E_COORD97":179205.19,"N_COORD97":2572360.2400000002,"ADDRESS":"龜子港１６１巷８５弄３２號","OBJECTID":490737},"geometry":{"x":179205.19000000041,"y":2572360.2400000021}},{"attributes":{"ID":490763,"DIS_CODE":0,"TOWNNAME":"六甲區","LI":"龜港里","LIN":"12鄰","STREET":" ","SECT":" ","MAREA":"龜子港","LANE":"１６１巷","ALLEY":"８５弄","HOUSE_NO":"６號","E_COORD97":179341.39000000001,"N_COORD97":2572385.21,"ADDRESS":"龜子港１６１巷８５弄６號","OBJECTID":490738},"geometry":{"x":179341.3900000006,"y":2572385.2100000028}},{"attributes":{"ID":490764,"DIS_CODE":0,"TOWNNAME":"六甲區","LI":"龜港里","LIN":"12鄰","STREET":" ","SECT":" ","MAREA":"龜子港","LANE":"２８１巷","ALLEY":"１２６弄","HOUSE_NO":"４１號","E_COORD97":179190.53,"N_COORD97":2572360.1899999999,"ADDRESS":"龜子港２８１巷１２６弄４１號","OBJECTID":490739},"geometry":{"x":179190.53000000119,"y":2572360.1900000013}},{"attributes":{"ID":490765,"DIS_CODE":0,"TOWNNAME":"六甲區","LI":"龜港里","LIN":"12鄰","STREET":" ","SECT":" ","MAREA":"龜子港","LANE":"２８１巷","ALLEY":"１２６弄","HOUSE_NO":"４５號","E_COORD97":179185.57999999999,"N_COORD97":2572381.6400000001,"ADDRESS":"龜子港２８１巷１２６弄４５號","OBJECTID":490740},"geometry":{"x":179185.58000000007,"y":2572381.6400000025}},{"attributes":{"ID":490766,"DIS_CODE":0,"TOWNNAME":"六甲區","LI":"龜港里","LIN":"12鄰","STREET":" ","SECT":" ","MAREA":"龜子港","LANE":"２８１巷","ALLEY":"１２６弄","HOUSE_NO":"４７號","E_COORD97":179187.01000000001,"N_COORD97":2572393.9300000002,"ADDRESS":"龜子港２８１巷１２６弄４７號","OBJECTID":490741},"geometry":{"x":179187.00999999978,"y":2572393.9299999997}},{"attributes":{"ID":490767,"DIS_CODE":0,"TOWNNAME":"六甲區","LI":"龜港里","LIN":"12鄰","STREET":" ","SECT":" ","MAREA":"龜子港","LANE":"２８１巷","ALLEY":"１２６弄","HOUSE_NO":"４９號","E_COORD97":179160.95999999999,"N_COORD97":2572395.29,"ADDRESS":"龜子港２８１巷１２６弄４９號","OBJECTID":490742},"geometry":{"x":179160.95999999903,"y":2572395.2900000028}},{"attributes":{"ID":490768,"DIS_CODE":0,"TOWNNAME":"六甲區","LI":"龜港里","LIN":"12鄰","STREET":" ","SECT":" ","MAREA":"龜子港","LANE":"２８１巷","ALLEY":"１２６弄","HOUSE_NO":"５０號","E_COORD97":179219.38,"N_COORD97":2572406.0499999998,"ADDRESS":"龜子港２８１巷１２６弄５０號","OBJECTID":490743},"geometry":{"x":179219.38000000082,"y":2572406.0500000026}},{"attributes":{"ID":490769,"DIS_CODE":0,"TOWNNAME":"六甲區","LI":"龜港里","LIN":"12鄰","STREET":" ","SECT":" ","MAREA":"龜子港","LANE":"２８１巷","ALLEY":"１２６弄","HOUSE_NO":"５１號","E_COORD97":179171.23999999999,"N_COORD97":2572381.8799999999,"ADDRESS":"龜子港２８１巷１２６弄５１號","OBJECTID":490744},"geometry":{"x":179171.23999999929,"y":2572381.8800000008}},{"attributes":{"ID":490770,"DIS_CODE":0,"TOWNNAME":"六甲區","LI":"龜港里","LIN":"12鄰","STREET":" ","SECT":" ","MAREA":"龜子港","LANE":"２８１巷","ALLEY":"１２６弄","HOUSE_NO":"５３號","E_COORD97":179150.44,"N_COORD97":2572365.0299999998,"ADDRESS":"龜子港２８１巷１２６弄５３號","OBJECTID":490745},"geometry":{"x":179150.44000000134,"y":2572365.0300000012}},{"attributes":{"ID":490771,"DIS_CODE":0,"TOWNNAME":"六甲區","LI":"龜港里","LIN":"11鄰","STREET":" ","SECT":" ","MAREA":"龜子港","LANE":"１６１巷","ALLEY":"６６弄","HOUSE_NO":"１２號","E_COORD97":179419.06,"N_COORD97":2572401.98,"ADDRESS":"龜子港１６１巷６６弄１２號","OBJECTID":490746},"geometry":{"x":179419.05999999959,"y":2572401.9800000004}},{"attributes":{"ID":490772,"DIS_CODE":0,"TOWNNAME":"六甲區","LI":"龜港里","LIN":"11鄰","STREET":" ","SECT":" ","MAREA":"龜子港","LANE":"１６１巷","ALLEY":"６６弄","HOUSE_NO":"２號","E_COORD97":179431.45999999999,"N_COORD97":2572326.9199999999,"ADDRESS":"龜子港１６１巷６６弄２號","OBJECTID":490747},"geometry":{"x":179431.45999999996,"y":2572326.9199999999}},{"attributes":{"ID":490773,"DIS_CODE":0,"TOWNNAME":"六甲區","LI":"龜港里","LIN":"11鄰","STREET":" ","SECT":" ","MAREA":"龜子港","LANE":"１６１巷","ALLEY":"６６弄","HOUSE_NO":"５號","E_COORD97":179441.73999999999,"N_COORD97":2572353.2000000002,"ADDRESS":"龜子港１６１巷６６弄５號","OBJECTID":490748},"geometry":{"x":179441.74000000022,"y":2572353.2000000011}},{"attributes":{"ID":490774,"DIS_CODE":0,"TOWNNAME":"六甲區","LI":"龜港里","LIN":"11鄰","STREET":" ","SECT":" ","MAREA":"龜子港","LANE":"１６１巷","ALLEY":"６６弄","HOUSE_NO":"６號","E_COORD97":179444.92999999999,"N_COORD97":2572339.1400000001,"ADDRESS":"龜子港１６１巷６６弄６號","OBJECTID":490749},"geometry":{"x":179444.93000000063,"y":2572339.1400000006}},{"attributes":{"ID":490775,"DIS_CODE":0,"TOWNNAME":"六甲區","LI":"龜港里","LIN":"11鄰","STREET":" ","SECT":" ","MAREA":"龜子港","LANE":"１６１巷","ALLEY":"６６弄","HOUSE_NO":"７號","E_COORD97":179441.82000000001,"N_COORD97":2572373.3799999999,"ADDRESS":"龜子港１６１巷６６弄７號","OBJECTID":490750},"geometry":{"x":179441.8200000003,"y":2572373.379999999}},{"attributes":{"ID":490776,"DIS_CODE":0,"TOWNNAME":"六甲區","LI":"龜港里","LIN":"11鄰","STREET":" ","SECT":" ","MAREA":"龜子港","LANE":"１６１巷","ALLEY":"９６弄","HOUSE_NO":"２號","E_COORD97":179414.39000000001,"N_COORD97":2572419.2000000002,"ADDRESS":"龜子港１６１巷９６弄２號","OBJECTID":490751},"geometry":{"x":179414.3900000006,"y":2572419.1999999993}},{"attributes":{"ID":490777,"DIS_CODE":0,"TOWNNAME":"六甲區","LI":"龜港里","LIN":"11鄰","STREET":" ","SECT":" ","MAREA":"龜子港","LANE":"１６１巷","ALLEY":"９６弄","HOUSE_NO":"５號","E_COORD97":179388.91,"N_COORD97":2572453.1899999999,"ADDRESS":"龜子港１６１巷９６弄５號","OBJECTID":490752},"geometry":{"x":179388.91000000108,"y":2572453.1899999995}},{"attributes":{"ID":490778,"DIS_CODE":0,"TOWNNAME":"六甲區","LI":"龜港里","LIN":"11鄰","STREET":" ","SECT":" ","MAREA":"龜子港","LANE":"１６１巷","ALLEY":"９６弄","HOUSE_NO":"７號","E_COORD97":179386.23000000001,"N_COORD97":2572473.1299999999,"ADDRESS":"龜子港１６１巷９６弄７號","OBJECTID":490753},"geometry":{"x":179386.23000000045,"y":2572473.129999999}},{"attributes":{"ID":490779,"DIS_CODE":0,"TOWNNAME":"六甲區","LI":"龜港里","LIN":"11鄰","STREET":" ","SECT":" ","MAREA":"龜子港","LANE":"２８１巷","ALLEY":"３８弄","HOUSE_NO":"１１號","E_COORD97":179464.69,"N_COORD97":2572410.0899999999,"ADDRESS":"龜子港２８１巷３８弄１１號","OBJECTID":490754},"geometry":{"x":179464.69000000041,"y":2572410.0899999999}},{"attributes":{"ID":490780,"DIS_CODE":0,"TOWNNAME":"六甲區","LI":"龜港里","LIN":"11鄰","STREET":" ","SECT":" ","MAREA":"龜子港","LANE":"２８１巷","ALLEY":"３８弄","HOUSE_NO":"１３號","E_COORD97":179451.10999999999,"N_COORD97":2572403.6099999999,"ADDRESS":"龜子港２８１巷３８弄１３號","OBJECTID":490755},"geometry":{"x":179451.11000000127,"y":2572403.6100000031}},{"attributes":{"ID":490781,"DIS_CODE":0,"TOWNNAME":"六甲區","LI":"龜港里","LIN":"11鄰","STREET":" ","SECT":" ","MAREA":"龜子港","LANE":"２８１巷","ALLEY":"３８弄","HOUSE_NO":"１５號之２","E_COORD97":179446.47,"N_COORD97":2572424.7400000002,"ADDRESS":"龜子港２８１巷３８弄１５號之２","OBJECTID":490756},"geometry":{"x":179446.46999999974,"y":2572424.7400000021}},{"attributes":{"ID":490782,"DIS_CODE":0,"TOWNNAME":"六甲區","LI":"龜港里","LIN":"11鄰","STREET":" ","SECT":" ","MAREA":"龜子港","LANE":"２８１巷","ALLEY":"３８弄","HOUSE_NO":"１５號之３","E_COORD97":179440.39000000001,"N_COORD97":2572420.9700000002,"ADDRESS":"龜子港２８１巷３８弄１５號之３","OBJECTID":490757},"geometry":{"x":179440.38999999966,"y":2572420.9700000025}},{"attributes":{"ID":490783,"DIS_CODE":0,"TOWNNAME":"龍崎區","LI":"大坪里","LIN":"10鄰","STREET":" ","SECT":" ","MAREA":"大坪","LANE":" ","ALLEY":" ","HOUSE_NO":"４９之１號","E_COORD97":187095.67747200001,"N_COORD97":2535927.2681399998,"ADDRESS":"大坪４９之１號","OBJECTID":490758},"geometry":{"x":187095.67747200094,"y":2535927.2681370005}},{"attributes":{"ID":490784,"DIS_CODE":0,"TOWNNAME":"六甲區","LI":"龜港里","LIN":"11鄰","STREET":" ","SECT":" ","MAREA":"龜子港","LANE":"２８１巷","ALLEY":"３８弄","HOUSE_NO":"１５之５號","E_COORD97":179432.42999999999,"N_COORD97":2572417.54,"ADDRESS":"龜子港２８１巷３８弄１５之５號","OBJECTID":490759},"geometry":{"x":179432.43000000063,"y":2572417.5400000028}},{"attributes":{"ID":490785,"DIS_CODE":0,"TOWNNAME":"六甲區","LI":"龜港里","LIN":"11鄰","STREET":" ","SECT":" ","MAREA":"龜子港","LANE":"２８１巷","ALLEY":"３８弄","HOUSE_NO":"１５號","E_COORD97":179455.73000000001,"N_COORD97":2572430.1800000002,"ADDRESS":"龜子港２８１巷３８弄１５號","OBJECTID":490760},"geometry":{"x":179455.73000000045,"y":2572430.1799999997}},{"attributes":{"ID":490786,"DIS_CODE":0,"TOWNNAME":"六甲區","LI":"龜港里","LIN":"11鄰","STREET":" ","SECT":" ","MAREA":"龜子港","LANE":"２８１巷","ALLEY":"３８弄","HOUSE_NO":"１７號","E_COORD97":179437.17999999999,"N_COORD97":2572444.71,"ADDRESS":"龜子港２８１巷３８弄１７號","OBJECTID":490761},"geometry":{"x":179437.17999999877,"y":2572444.7100000009}},{"attributes":{"ID":490787,"DIS_CODE":0,"TOWNNAME":"六甲區","LI":"龜港里","LIN":"2鄰","STREET":" ","SECT":" ","MAREA":"龜子港","LANE":"１１１巷","ALLEY":"３８弄","HOUSE_NO":"２３號","E_COORD97":179686.84,"N_COORD97":2571979.4700000002,"ADDRESS":"龜子港１１１巷３８弄２３號","OBJECTID":490762},"geometry":{"x":179686.83999999985,"y":2571979.4700000025}},{"attributes":{"ID":490788,"DIS_CODE":0,"TOWNNAME":"六甲區","LI":"龜港里","LIN":"2鄰","STREET":" ","SECT":" ","MAREA":"龜子港","LANE":"１１１巷","ALLEY":"３８弄","HOUSE_NO":"２４號","E_COORD97":179683.12,"N_COORD97":2571979.0899999999,"ADDRESS":"龜子港１１１巷３８弄２４號","OBJECTID":490763},"geometry":{"x":179683.12000000011,"y":2571979.0899999999}},{"attributes":{"ID":490789,"DIS_CODE":0,"TOWNNAME":"六甲區","LI":"龜港里","LIN":"2鄰","STREET":" ","SECT":" ","MAREA":"龜子港","LANE":"１１１巷","ALLEY":"３８弄","HOUSE_NO":"２５號","E_COORD97":179679.38,"N_COORD97":2571978.6499999999,"ADDRESS":"龜子港１１１巷３８弄２５號","OBJECTID":490764},"geometry":{"x":179679.38000000082,"y":2571978.6500000022}},{"attributes":{"ID":490790,"DIS_CODE":0,"TOWNNAME":"六甲區","LI":"龜港里","LIN":"2鄰","STREET":" ","SECT":" ","MAREA":"龜子港","LANE":"１１１巷","ALLEY":"３８弄","HOUSE_NO":"２６號","E_COORD97":179675.79000000001,"N_COORD97":2571978.0600000001,"ADDRESS":"龜子港１１１巷３８弄２６號","OBJECTID":490765},"geometry":{"x":179675.79000000004,"y":2571978.0600000042}},{"attributes":{"ID":490791,"DIS_CODE":0,"TOWNNAME":"六甲區","LI":"龜港里","LIN":"2鄰","STREET":" ","SECT":" ","MAREA":"龜子港","LANE":"１１１巷","ALLEY":"３８弄","HOUSE_NO":"２７號","E_COORD97":179672.07000000001,"N_COORD97":2571977.4900000002,"ADDRESS":"龜子港１１１巷３８弄２７號","OBJECTID":490766},"geometry":{"x":179672.0700000003,"y":2571977.4900000002}},{"attributes":{"ID":490792,"DIS_CODE":0,"TOWNNAME":"六甲區","LI":"龜港里","LIN":"2鄰","STREET":" ","SECT":" ","MAREA":"龜子港","LANE":"１１１巷","ALLEY":"３８弄","HOUSE_NO":"２８號","E_COORD97":179668.37,"N_COORD97":2571977.02,"ADDRESS":"龜子港１１１巷３８弄２８號","OBJECTID":490767},"geometry":{"x":179668.37000000011,"y":2571977.0199999996}},{"attributes":{"ID":490793,"DIS_CODE":0,"TOWNNAME":"六甲區","LI":"龜港里","LIN":"2鄰","STREET":" ","SECT":" ","MAREA":"龜子港","LANE":"１６１巷","ALLEY":"４１弄","HOUSE_NO":"２號","E_COORD97":179499.75,"N_COORD97":2572250.8399999999,"ADDRESS":"龜子港１６１巷４１弄２號","OBJECTID":490768},"geometry":{"x":179499.74999999907,"y":2572250.8400000017}},{"attributes":{"ID":490794,"DIS_CODE":0,"TOWNNAME":"六甲區","LI":"龜港里","LIN":"2鄰","STREET":" ","SECT":" ","MAREA":"龜子港","LANE":"１６１巷","ALLEY":"４１弄","HOUSE_NO":"６號","E_COORD97":179505.01999999999,"N_COORD97":2572232.02,"ADDRESS":"龜子港１６１巷４１弄６號","OBJECTID":490769},"geometry":{"x":179505.02000000048,"y":2572232.0200000014}},{"attributes":{"ID":490795,"DIS_CODE":0,"TOWNNAME":"六甲區","LI":"龜港里","LIN":"3鄰","STREET":" ","SECT":" ","MAREA":"龜子港","LANE":"１６１巷","ALLEY":"４１弄","HOUSE_NO":"１６號","E_COORD97":179460.06,"N_COORD97":2572233.8199999998,"ADDRESS":"龜子港１６１巷４１弄１６號","OBJECTID":490770},"geometry":{"x":179460.06000000145,"y":2572233.820000004}},{"attributes":{"ID":490796,"DIS_CODE":0,"TOWNNAME":"六甲區","LI":"龜港里","LIN":"3鄰","STREET":" ","SECT":" ","MAREA":"龜子港","LANE":"１６１巷","ALLEY":"４１弄","HOUSE_NO":"１８號","E_COORD97":179460.64000000001,"N_COORD97":2572247.23,"ADDRESS":"龜子港１６１巷４１弄１８號","OBJECTID":490771},"geometry":{"x":179460.63999999966,"y":2572247.2300000004}},{"attributes":{"ID":490797,"DIS_CODE":0,"TOWNNAME":"六甲區","LI":"龜港里","LIN":"4鄰","STREET":" ","SECT":" ","MAREA":"龜子港","LANE":"２８１巷","ALLEY":"６７弄","HOUSE_NO":"５號","E_COORD97":179416.87,"N_COORD97":2572243.52,"ADDRESS":"龜子港２８１巷６７弄５號","OBJECTID":490772},"geometry":{"x":179416.87000000104,"y":2572243.5199999996}},{"attributes":{"ID":490798,"DIS_CODE":0,"TOWNNAME":"六甲區","LI":"龜港里","LIN":"5鄰","STREET":" ","SECT":" ","MAREA":"龜子港","LANE":"１６１巷","ALLEY":"４１弄","HOUSE_NO":"１９１號","E_COORD97":178527.85999999999,"N_COORD97":2572165.0800000001,"ADDRESS":"龜子港１６１巷４１弄１９１號","OBJECTID":490773},"geometry":{"x":178527.86000000034,"y":2572165.0800000019}},{"attributes":{"ID":490799,"DIS_CODE":0,"TOWNNAME":"六甲區","LI":"龜港里","LIN":"5鄰","STREET":" ","SECT":" ","MAREA":"龜子港","LANE":"１６１巷","ALLEY":"４１弄","HOUSE_NO":"１９７號","E_COORD97":178396.35000000001,"N_COORD97":2572167.9700000002,"ADDRESS":"龜子港１６１巷４１弄１９７號","OBJECTID":490774},"geometry":{"x":178396.34999999963,"y":2572167.9700000007}},{"attributes":{"ID":490800,"DIS_CODE":0,"TOWNNAME":"六甲區","LI":"龜港里","LIN":"5鄰","STREET":" ","SECT":" ","MAREA":"龜子港","LANE":"１６１巷","ALLEY":"４１弄","HOUSE_NO":"２０１號","E_COORD97":178349.47,"N_COORD97":2572173.77,"ADDRESS":"龜子港１６１巷４１弄２０１號","OBJECTID":490775},"geometry":{"x":178349.47000000067,"y":2572173.7700000014}},{"attributes":{"ID":490801,"DIS_CODE":0,"TOWNNAME":"六甲區","LI":"龜港里","LIN":"5鄰","STREET":" ","SECT":" ","MAREA":"龜子港","LANE":"１６１巷","ALLEY":"４１弄","HOUSE_NO":"２０３號","E_COORD97":178307.34,"N_COORD97":2572170.9399999999,"ADDRESS":"龜子港１６１巷４１弄２０３號","OBJECTID":490776},"geometry":{"x":178307.34000000171,"y":2572170.9400000032}},{"attributes":{"ID":490802,"DIS_CODE":0,"TOWNNAME":"六甲區","LI":"龜港里","LIN":"5鄰","STREET":" ","SECT":" ","MAREA":"龜子港","LANE":"１６１巷","ALLEY":"４１弄","HOUSE_NO":"２８號","E_COORD97":179413.35000000001,"N_COORD97":2572196.1600000001,"ADDRESS":"龜子港１６１巷４１弄２８號","OBJECTID":490777},"geometry":{"x":179413.34999999963,"y":2572196.1600000001}},{"attributes":{"ID":490803,"DIS_CODE":0,"TOWNNAME":"六甲區","LI":"龜港里","LIN":"5鄰","STREET":" ","SECT":" ","MAREA":"龜子港","LANE":"１６１巷","ALLEY":"４１弄","HOUSE_NO":"３０號","E_COORD97":179411.85999999999,"N_COORD97":2572206.8500000001,"ADDRESS":"龜子港１６１巷４１弄３０號","OBJECTID":490778},"geometry":{"x":179411.86000000127,"y":2572206.8500000015}},{"attributes":{"ID":490804,"DIS_CODE":0,"TOWNNAME":"六甲區","LI":"龜港里","LIN":"5鄰","STREET":" ","SECT":" ","MAREA":"龜子港","LANE":"１６１巷","ALLEY":"４１弄","HOUSE_NO":"３４號","E_COORD97":179382.29000000001,"N_COORD97":2572210.8700000001,"ADDRESS":"龜子港１６１巷４１弄３４號","OBJECTID":490779},"geometry":{"x":179382.29000000004,"y":2572210.8700000029}},{"attributes":{"ID":490805,"DIS_CODE":0,"TOWNNAME":"六甲區","LI":"龜港里","LIN":"5鄰","STREET":" ","SECT":" ","MAREA":"龜子港","LANE":"１６１巷","ALLEY":"４１弄","HOUSE_NO":"３５號","E_COORD97":179410.20999999999,"N_COORD97":2572167.5899999999,"ADDRESS":"龜子港１６１巷４１弄３５號","OBJECTID":490780},"geometry":{"x":179410.21000000183,"y":2572167.5900000017}},{"attributes":{"ID":490806,"DIS_CODE":0,"TOWNNAME":"六甲區","LI":"龜港里","LIN":"5鄰","STREET":" ","SECT":" ","MAREA":"龜子港","LANE":"１６１巷","ALLEY":"４１弄","HOUSE_NO":"３６號","E_COORD97":179378.22,"N_COORD97":2572209.0699999998,"ADDRESS":"龜子港１６１巷４１弄３６號","OBJECTID":490781},"geometry":{"x":179378.22000000067,"y":2572209.0700000022}},{"attributes":{"ID":490807,"DIS_CODE":0,"TOWNNAME":"六甲區","LI":"龜港里","LIN":"5鄰","STREET":" ","SECT":" ","MAREA":"龜子港","LANE":"１６１巷","ALLEY":"４１弄","HOUSE_NO":"４６號","E_COORD97":179353.94,"N_COORD97":2572212.7599999998,"ADDRESS":"龜子港１６１巷４１弄４６號","OBJECTID":490782},"geometry":{"x":179353.94000000134,"y":2572212.7599999998}},{"attributes":{"ID":490808,"DIS_CODE":0,"TOWNNAME":"六甲區","LI":"龜港里","LIN":"5鄰","STREET":" ","SECT":" ","MAREA":"龜子港","LANE":"１６１巷","ALLEY":"４１弄","HOUSE_NO":"５２號","E_COORD97":179327.26999999999,"N_COORD97":2572209.5899999999,"ADDRESS":"龜子港１６１巷４１弄５２號","OBJECTID":490783},"geometry":{"x":179327.26999999955,"y":2572209.5899999999}},{"attributes":{"ID":490809,"DIS_CODE":0,"TOWNNAME":"六甲區","LI":"龜港里","LIN":"5鄰","STREET":" ","SECT":" ","MAREA":"龜子港","LANE":"１６１巷","ALLEY":"４１弄","HOUSE_NO":"５６號","E_COORD97":179314.72,"N_COORD97":2572186.6899999999,"ADDRESS":"龜子港１６１巷４１弄５６號","OBJECTID":490784},"geometry":{"x":179314.71999999974,"y":2572186.6900000013}},{"attributes":{"ID":490810,"DIS_CODE":0,"TOWNNAME":"六甲區","LI":"龜港里","LIN":"5鄰","STREET":" ","SECT":" ","MAREA":"龜子港","LANE":"１６１巷","ALLEY":"４１弄","HOUSE_NO":"６０號","E_COORD97":179290.06,"N_COORD97":2572188.5800000001,"ADDRESS":"龜子港１６１巷４１弄６０號","OBJECTID":490785},"geometry":{"x":179290.05999999959,"y":2572188.5800000019}},{"attributes":{"ID":490811,"DIS_CODE":0,"TOWNNAME":"六甲區","LI":"龜港里","LIN":"5鄰","STREET":" ","SECT":" ","MAREA":"龜子港","LANE":"１６１巷","ALLEY":"４１弄","HOUSE_NO":"６６號","E_COORD97":179244.10000000001,"N_COORD97":2572177.9300000002,"ADDRESS":"龜子港１６１巷４１弄６６號","OBJECTID":490786},"geometry":{"x":179244.09999999963,"y":2572177.9299999978}},{"attributes":{"ID":490812,"DIS_CODE":0,"TOWNNAME":"六甲區","LI":"龜港里","LIN":"5鄰","STREET":" ","SECT":" ","MAREA":"龜子港","LANE":"１６１巷","ALLEY":"４１弄","HOUSE_NO":"６８號","E_COORD97":179226.92999999999,"N_COORD97":2572160.5099999998,"ADDRESS":"龜子港１６１巷４１弄６８號","OBJECTID":490787},"geometry":{"x":179226.9299999997,"y":2572160.5099999979}},{"attributes":{"ID":490813,"DIS_CODE":0,"TOWNNAME":"六甲區","LI":"龜港里","LIN":"5鄰","STREET":" ","SECT":" ","MAREA":"龜子港","LANE":"１６１巷","ALLEY":"４１弄","HOUSE_NO":"７０號","E_COORD97":179188.17999999999,"N_COORD97":2572172.46,"ADDRESS":"龜子港１６１巷４１弄７０號","OBJECTID":490788},"geometry":{"x":179188.18000000156,"y":2572172.4600000046}},{"attributes":{"ID":490814,"DIS_CODE":0,"TOWNNAME":"六甲區","LI":"龜港里","LIN":"5鄰","STREET":" ","SECT":" ","MAREA":"龜子港","LANE":"２８１巷","ALLEY":"６７弄","HOUSE_NO":"１號","E_COORD97":179392.16,"N_COORD97":2572240.9900000002,"ADDRESS":"龜子港２８１巷６７弄１號","OBJECTID":490789},"geometry":{"x":179392.16000000201,"y":2572240.9900000002}},{"attributes":{"ID":490815,"DIS_CODE":0,"TOWNNAME":"六甲區","LI":"龜港里","LIN":"11鄰","STREET":" ","SECT":" ","MAREA":"龜子港","LANE":"２８１巷","ALLEY":"３８弄","HOUSE_NO":"１５之２號","E_COORD97":179446.47,"N_COORD97":2572424.7400000002,"ADDRESS":"龜子港２８１巷３８弄１５之２號","OBJECTID":490790},"geometry":{"x":179446.46999999974,"y":2572424.7400000021}},{"attributes":{"ID":490816,"DIS_CODE":0,"TOWNNAME":"六甲區","LI":"龜港里","LIN":"13鄰","STREET":" ","SECT":" ","MAREA":"龜子港","LANE":"２８１巷","ALLEY":" ","HOUSE_NO":"１０號","E_COORD97":179574.07000000001,"N_COORD97":2572461.0800000001,"ADDRESS":"龜子港２８１巷１０號","OBJECTID":490791},"geometry":{"x":179574.0700000003,"y":2572461.0800000001}},{"attributes":{"ID":490817,"DIS_CODE":0,"TOWNNAME":"六甲區","LI":"龜港里","LIN":"13鄰","STREET":" ","SECT":" ","MAREA":"龜子港","LANE":"１１６巷","ALLEY":" ","HOUSE_NO":"６號","E_COORD97":179712.51000000001,"N_COORD97":2572476.4900000002,"ADDRESS":"龜子港１１６巷６號","OBJECTID":490792},"geometry":{"x":179712.50999999978,"y":2572476.4900000039}},{"attributes":{"ID":490818,"DIS_CODE":0,"TOWNNAME":"六甲區","LI":"龜港里","LIN":"13鄰","STREET":" ","SECT":" ","MAREA":"龜子港","LANE":"２８８巷","ALLEY":" ","HOUSE_NO":"１６號","E_COORD97":179711.5,"N_COORD97":2573005.29,"ADDRESS":"龜子港２８８巷１６號","OBJECTID":490793},"geometry":{"x":179711.5,"y":2573005.2899999991}},{"attributes":{"ID":490819,"DIS_CODE":0,"TOWNNAME":"六甲區","LI":"龜港里","LIN":"13鄰","STREET":" ","SECT":" ","MAREA":"龜子港","LANE":"２８８巷","ALLEY":" ","HOUSE_NO":"１７號","E_COORD97":179725.14000000001,"N_COORD97":2573025.5499999998,"ADDRESS":"龜子港２８８巷１７號","OBJECTID":490794},"geometry":{"x":179725.13999999966,"y":2573025.5500000007}},{"attributes":{"ID":490820,"DIS_CODE":0,"TOWNNAME":"六甲區","LI":"龜港里","LIN":"13鄰","STREET":" ","SECT":" ","MAREA":"龜子港","LANE":"２８８巷","ALLEY":" ","HOUSE_NO":"１８號","E_COORD97":179715.23000000001,"N_COORD97":2573005.27,"ADDRESS":"龜子港２８８巷１８號","OBJECTID":490795},"geometry":{"x":179715.23000000045,"y":2573005.2699999996}},{"attributes":{"ID":490821,"DIS_CODE":0,"TOWNNAME":"六甲區","LI":"龜港里","LIN":"13鄰","STREET":" ","SECT":" ","MAREA":"龜子港","LANE":"２８８巷","ALLEY":" ","HOUSE_NO":"１９號","E_COORD97":179729.35000000001,"N_COORD97":2573025.5600000001,"ADDRESS":"龜子港２８８巷１９號","OBJECTID":490796},"geometry":{"x":179729.35000000149,"y":2573025.5600000042}},{"attributes":{"ID":490822,"DIS_CODE":0,"TOWNNAME":"六甲區","LI":"龜港里","LIN":"13鄰","STREET":" ","SECT":" ","MAREA":"龜子港","LANE":"２８８巷","ALLEY":" ","HOUSE_NO":"１號","E_COORD97":179692.66,"N_COORD97":2573027.8100000001,"ADDRESS":"龜子港２８８巷１號","OBJECTID":490797},"geometry":{"x":179692.66000000108,"y":2573027.8100000024}},{"attributes":{"ID":490823,"DIS_CODE":0,"TOWNNAME":"六甲區","LI":"龜港里","LIN":"13鄰","STREET":" ","SECT":" ","MAREA":"龜子港","LANE":"２８８巷","ALLEY":" ","HOUSE_NO":"２０號","E_COORD97":179719.64000000001,"N_COORD97":2573004.8399999999,"ADDRESS":"龜子港２８８巷２０號","OBJECTID":490798},"geometry":{"x":179719.6400000006,"y":2573004.8399999999}},{"attributes":{"ID":490824,"DIS_CODE":0,"TOWNNAME":"六甲區","LI":"龜港里","LIN":"13鄰","STREET":" ","SECT":" ","MAREA":"龜子港","LANE":"２８８巷","ALLEY":" ","HOUSE_NO":"６號","E_COORD97":179695.14999999999,"N_COORD97":2573006.6499999999,"ADDRESS":"龜子港２８８巷６號","OBJECTID":490799},"geometry":{"x":179695.15000000037,"y":2573006.6500000004}},{"attributes":{"ID":490825,"DIS_CODE":0,"TOWNNAME":"六甲區","LI":"龜港里","LIN":"13鄰","STREET":" ","SECT":" ","MAREA":"龜子港","LANE":"２８８巷","ALLEY":" ","HOUSE_NO":"７號","E_COORD97":179704.57000000001,"N_COORD97":2573027.2799999998,"ADDRESS":"龜子港２８８巷７號","OBJECTID":490800},"geometry":{"x":179704.5700000003,"y":2573027.2800000012}}]}