{"displayFieldName":"TOWNNAME","fieldAliases":{"ID":"ID","DIS_CODE":"DIS_CODE","TOWNNAME":"TOWNNAME","LI":"LI","LIN":"LIN","STREET":"STREET","SECT":"SECT","MAREA":"MAREA","LANE":"LANE","ALLEY":"ALLEY","HOUSE_NO":"HOUSE_NO","E_COORD97":"E_COORD97","N_COORD97":"N_COORD97","ADDRESS":"ADDRESS","OBJECTID":"OBJECTID"},"geometryType":"esriGeometryPoint","spatialReference":{"wkid":102443,"latestWkid":3826},"fields":[{"name":"ID","type":"esriFieldTypeDouble","alias":"ID"},{"name":"DIS_CODE","type":"esriFieldTypeInteger","alias":"DIS_CODE"},{"name":"TOWNNAME","type":"esriFieldTypeString","alias":"TOWNNAME","length":8},{"name":"LI","type":"esriFieldTypeString","alias":"LI","length":8},{"name":"LIN","type":"esriFieldTypeString","alias":"LIN","length":12},{"name":"STREET","type":"esriFieldTypeString","alias":"STREET","length":20},{"name":"SECT","type":"esriFieldTypeString","alias":"SECT","length":8},{"name":"MAREA","type":"esriFieldTypeString","alias":"MAREA","length":12},{"name":"LANE","type":"esriFieldTypeString","alias":"LANE","length":10},{"name":"ALLEY","type":"esriFieldTypeString","alias":"ALLEY","length":10},{"name":"HOUSE_NO","type":"esriFieldTypeString","alias":"HOUSE_NO","length":20},{"name":"E_COORD97","type":"esriFieldTypeDouble","alias":"E_COORD97"},{"name":"N_COORD97","type":"esriFieldTypeDouble","alias":"N_COORD97"},{"name":"ADDRESS","type":"esriFieldTypeString","alias":"ADDRESS","length":50},{"name":"OBJECTID","type":"esriFieldTypeOID","alias":"OBJECTID"}],"features":[{"attributes":{"ID":274006,"DIS_CODE":0,"TOWNNAME":"歸仁區","LI":"南保里","LIN":"64鄰","STREET":"中山九街","SECT":" ","MAREA":" ","LANE":"７巷","ALLEY":" ","HOUSE_NO":"１７號","E_COORD97":176519.769849,"N_COORD97":2540852.3550300002,"ADDRESS":"中山九街７巷１７號","OBJECTID":274001},"geometry":{"x":176519.76984899957,"y":2540852.3550330009}},{"attributes":{"ID":274007,"DIS_CODE":0,"TOWNNAME":"歸仁區","LI":"南保里","LIN":"64鄰","STREET":"中山九街","SECT":" ","MAREA":" ","LANE":"７巷","ALLEY":" ","HOUSE_NO":"１５號","E_COORD97":176514.56,"N_COORD97":2540855.25,"ADDRESS":"中山九街７巷１５號","OBJECTID":274002},"geometry":{"x":176514.56000000052,"y":2540855.25}},{"attributes":{"ID":274008,"DIS_CODE":0,"TOWNNAME":"永康區","LI":"大橋里","LIN":"3鄰","STREET":"大橋三街","SECT":" ","MAREA":" ","LANE":" ","ALLEY":" ","HOUSE_NO":"１０２號","E_COORD97":170736.04000000001,"N_COORD97":2546647,"ADDRESS":"大橋三街１０２號","OBJECTID":274003},"geometry":{"x":170736.04000000097,"y":2546647}},{"attributes":{"ID":274009,"DIS_CODE":0,"TOWNNAME":"後壁區","LI":"頂安里","LIN":"6鄰","STREET":" ","SECT":" ","MAREA":"頂寮","LANE":" ","ALLEY":" ","HOUSE_NO":"６２號","E_COORD97":183801.89000000001,"N_COORD97":2581514.8399999999,"ADDRESS":"頂寮６２號","OBJECTID":274004},"geometry":{"x":183801.88999999966,"y":2581514.8399999999}},{"attributes":{"ID":274010,"DIS_CODE":0,"TOWNNAME":"東區","LI":"崇德里","LIN":"3鄰","STREET":"崇德六街","SECT":" ","MAREA":" ","LANE":" ","ALLEY":" ","HOUSE_NO":"４７號","E_COORD97":170759.66,"N_COORD97":2541797.3100000001,"ADDRESS":"崇德六街４７號","OBJECTID":274005},"geometry":{"x":170759.66000000015,"y":2541797.3100000005}},{"attributes":{"ID":274011,"DIS_CODE":0,"TOWNNAME":"中西區","LI":"協進里","LIN":"3鄰","STREET":"西寧街","SECT":" ","MAREA":" ","LANE":" ","ALLEY":" ","HOUSE_NO":"６號","E_COORD97":167180.39000000001,"N_COORD97":2544208.29,"ADDRESS":"西寧街６號","OBJECTID":274006},"geometry":{"x":167180.3900000006,"y":2544208.290000001}},{"attributes":{"ID":274012,"DIS_CODE":0,"TOWNNAME":"歸仁區","LI":"南保里","LIN":"64鄰","STREET":"中山九街","SECT":" ","MAREA":" ","LANE":"７巷","ALLEY":" ","HOUSE_NO":"２５號","E_COORD97":176545.62663000001,"N_COORD97":2540847.6983699999,"ADDRESS":"中山九街７巷２５號","OBJECTID":274007},"geometry":{"x":176545.62662999984,"y":2540847.6983679999}},{"attributes":{"ID":274013,"DIS_CODE":0,"TOWNNAME":"北區","LI":"元寶里","LIN":"14鄰","STREET":"北園街","SECT":" ","MAREA":" ","LANE":"８巷","ALLEY":" ","HOUSE_NO":"７２號","E_COORD97":170450.14000000001,"N_COORD97":2545725.9500000002,"ADDRESS":"北園街８巷７２號","OBJECTID":274008},"geometry":{"x":170450.1400000006,"y":2545725.950000003}},{"attributes":{"ID":274014,"DIS_CODE":0,"TOWNNAME":"北區","LI":"元寶里","LIN":"14鄰","STREET":"北園街","SECT":" ","MAREA":" ","LANE":"８巷","ALLEY":" ","HOUSE_NO":"７６號","E_COORD97":170448.73999999999,"N_COORD97":2545731.1899999999,"ADDRESS":"北園街８巷７６號","OBJECTID":274009},"geometry":{"x":170448.74000000022,"y":2545731.1900000032}},{"attributes":{"ID":274015,"DIS_CODE":0,"TOWNNAME":"北區","LI":"元寶里","LIN":"14鄰","STREET":"北園街","SECT":" ","MAREA":" ","LANE":"８巷","ALLEY":" ","HOUSE_NO":"７８號","E_COORD97":170448.04000000001,"N_COORD97":2545737.48,"ADDRESS":"北園街８巷７８號","OBJECTID":274010},"geometry":{"x":170448.04000000097,"y":2545737.4800000023}},{"attributes":{"ID":274016,"DIS_CODE":0,"TOWNNAME":"北區","LI":"元寶里","LIN":"7鄰","STREET":"北園街","SECT":" ","MAREA":" ","LANE":"８巷","ALLEY":" ","HOUSE_NO":"７號","E_COORD97":170407.89000000001,"N_COORD97":2545669.6000000001,"ADDRESS":"北園街８巷７號","OBJECTID":274011},"geometry":{"x":170407.8900000006,"y":2545669.5999999996}},{"attributes":{"ID":274017,"DIS_CODE":0,"TOWNNAME":"歸仁區","LI":"辜厝里","LIN":"54鄰","STREET":"民權南路","SECT":" ","MAREA":" ","LANE":"３３３巷","ALLEY":" ","HOUSE_NO":"３０號","E_COORD97":176997.03,"N_COORD97":2540186.6000000001,"ADDRESS":"民權南路３３３巷３０號","OBJECTID":274012},"geometry":{"x":176997.03000000026,"y":2540186.6000000015}},{"attributes":{"ID":274018,"DIS_CODE":0,"TOWNNAME":"北區","LI":"元寶里","LIN":"13鄰","STREET":"開元路","SECT":" ","MAREA":" ","LANE":"４８５巷","ALLEY":" ","HOUSE_NO":"３３號","E_COORD97":170478.12,"N_COORD97":2545723.8500000001,"ADDRESS":"開元路４８５巷３３號","OBJECTID":274013},"geometry":{"x":170478.12000000104,"y":2545723.8500000015}},{"attributes":{"ID":274019,"DIS_CODE":0,"TOWNNAME":"北區","LI":"元寶里","LIN":"13鄰","STREET":"開元路","SECT":" ","MAREA":" ","LANE":"４８５巷","ALLEY":" ","HOUSE_NO":"３７號","E_COORD97":170476.01999999999,"N_COORD97":2545735.3799999999,"ADDRESS":"開元路４８５巷３７號","OBJECTID":274014},"geometry":{"x":170476.02000000048,"y":2545735.379999999}},{"attributes":{"ID":274020,"DIS_CODE":0,"TOWNNAME":"北區","LI":"元寶里","LIN":"13鄰","STREET":"開元路","SECT":" ","MAREA":" ","LANE":"４８５巷","ALLEY":" ","HOUSE_NO":"３９號","E_COORD97":170471.47,"N_COORD97":2545741.3199999998,"ADDRESS":"開元路４８５巷３９號","OBJECTID":274015},"geometry":{"x":170471.47000000067,"y":2545741.320000004}},{"attributes":{"ID":274021,"DIS_CODE":0,"TOWNNAME":"北區","LI":"元寶里","LIN":"17鄰","STREET":"開元路","SECT":" ","MAREA":" ","LANE":"４８５巷","ALLEY":" ","HOUSE_NO":"３４號","E_COORD97":170511.76999999999,"N_COORD97":2545739.0299999998,"ADDRESS":"開元路４８５巷３４號","OBJECTID":274016},"geometry":{"x":170511.77000000048,"y":2545739.0300000031}},{"attributes":{"ID":274022,"DIS_CODE":0,"TOWNNAME":"北區","LI":"元寶里","LIN":"17鄰","STREET":"開元路","SECT":" ","MAREA":" ","LANE":"４８５巷","ALLEY":" ","HOUSE_NO":"３６號","E_COORD97":170515.54000000001,"N_COORD97":2545713.7200000002,"ADDRESS":"開元路４８５巷３６號","OBJECTID":274017},"geometry":{"x":170515.54000000097,"y":2545713.7200000007}},{"attributes":{"ID":274023,"DIS_CODE":0,"TOWNNAME":"北區","LI":"元寶里","LIN":"17鄰","STREET":"開元路","SECT":" ","MAREA":" ","LANE":"４８５巷","ALLEY":" ","HOUSE_NO":"３８號","E_COORD97":170510.34,"N_COORD97":2545743.9500000002,"ADDRESS":"開元路４８５巷３８號","OBJECTID":274018},"geometry":{"x":170510.34000000078,"y":2545743.9500000011}},{"attributes":{"ID":274024,"DIS_CODE":0,"TOWNNAME":"北區","LI":"元寶里","LIN":"17鄰","STREET":"開元路","SECT":" ","MAREA":" ","LANE":"４８５巷","ALLEY":" ","HOUSE_NO":"４０號","E_COORD97":170510.01999999999,"N_COORD97":2545747.7599999998,"ADDRESS":"開元路４８５巷４０號","OBJECTID":274019},"geometry":{"x":170510.02000000048,"y":2545747.7599999979}},{"attributes":{"ID":274025,"DIS_CODE":0,"TOWNNAME":"永康區","LI":"網寮里","LIN":"15鄰","STREET":"永勝街","SECT":" ","MAREA":" ","LANE":"２４８巷","ALLEY":" ","HOUSE_NO":"１０號","E_COORD97":173404.37,"N_COORD97":2546631.0899999999,"ADDRESS":"永勝街２４８巷１０號","OBJECTID":274020},"geometry":{"x":173404.37000000011,"y":2546631.0900000017}},{"attributes":{"ID":274026,"DIS_CODE":0,"TOWNNAME":"永康區","LI":"中華里","LIN":"15鄰","STREET":"忠義街","SECT":" ","MAREA":" ","LANE":"６０巷","ALLEY":" ","HOUSE_NO":"２６號","E_COORD97":171794.48999999999,"N_COORD97":2544512.04,"ADDRESS":"忠義街６０巷２６號","OBJECTID":274021},"geometry":{"x":171794.49000000115,"y":2544512.040000001}},{"attributes":{"ID":274027,"DIS_CODE":0,"TOWNNAME":"歸仁區","LI":"看西里","LIN":"15鄰","STREET":"成功六街","SECT":" ","MAREA":" ","LANE":"１３巷","ALLEY":" ","HOUSE_NO":"９號","E_COORD97":178374.31,"N_COORD97":2540124.1099999999,"ADDRESS":"成功六街１３巷９號","OBJECTID":274022},"geometry":{"x":178374.30999999959,"y":2540124.1100000031}},{"attributes":{"ID":274028,"DIS_CODE":0,"TOWNNAME":"新營區","LI":"南興里","LIN":"15鄰","STREET":"興農街","SECT":" ","MAREA":" ","LANE":"１４０巷","ALLEY":" ","HOUSE_NO":"９號","E_COORD97":179216.17999999999,"N_COORD97":2577524.3500000001,"ADDRESS":"興農街１４０巷９號","OBJECTID":274023},"geometry":{"x":179216.1799999997,"y":2577524.3499999996}},{"attributes":{"ID":274029,"DIS_CODE":0,"TOWNNAME":"新營區","LI":"嘉芳里","LIN":"15鄰","STREET":"復興路","SECT":" ","MAREA":" ","LANE":"１０００巷","ALLEY":" ","HOUSE_NO":"１號之９","E_COORD97":176320.51000000001,"N_COORD97":2578917.3199999998,"ADDRESS":"復興路１０００巷１之９號","OBJECTID":274024},"geometry":{"x":176320.50999999978,"y":2578917.3200000022}},{"attributes":{"ID":274030,"DIS_CODE":0,"TOWNNAME":"善化區","LI":"胡家里","LIN":"3鄰","STREET":" ","SECT":" ","MAREA":"胡厝寮","LANE":" ","ALLEY":" ","HOUSE_NO":"５００號","E_COORD97":175945.98999999999,"N_COORD97":2560126.5,"ADDRESS":"胡厝寮５００號","OBJECTID":274025},"geometry":{"x":175945.99000000115,"y":2560126.5000000019}},{"attributes":{"ID":274031,"DIS_CODE":0,"TOWNNAME":"善化區","LI":"嘉南里","LIN":"3鄰","STREET":" ","SECT":" ","MAREA":"茄拔","LANE":" ","ALLEY":" ","HOUSE_NO":"７２號之６","E_COORD97":180840.14000000001,"N_COORD97":2559386.02,"ADDRESS":"茄拔７２號之６","OBJECTID":274026},"geometry":{"x":180840.1400000006,"y":2559386.0200000014}},{"attributes":{"ID":274032,"DIS_CODE":0,"TOWNNAME":"中西區","LI":"協進里","LIN":"10鄰","STREET":"臨安路","SECT":"一段","MAREA":" ","LANE":" ","ALLEY":" ","HOUSE_NO":"９號","E_COORD97":166880.94,"N_COORD97":2544273.75,"ADDRESS":"臨安路一段９號","OBJECTID":274027},"geometry":{"x":166880.94000000041,"y":2544273.7500000019}},{"attributes":{"ID":274033,"DIS_CODE":0,"TOWNNAME":"北區","LI":"延平里","LIN":"15鄰","STREET":"公園路","SECT":" ","MAREA":" ","LANE":"８２４巷","ALLEY":" ","HOUSE_NO":"８號","E_COORD97":169228.29000000001,"N_COORD97":2545906.2400000002,"ADDRESS":"公園路８２４巷８號","OBJECTID":274028},"geometry":{"x":169228.29000000004,"y":2545906.2400000002}},{"attributes":{"ID":274034,"DIS_CODE":0,"TOWNNAME":"後壁區","LI":"頂安里","LIN":"6鄰","STREET":" ","SECT":" ","MAREA":"頂寮","LANE":" ","ALLEY":" ","HOUSE_NO":"６３號","E_COORD97":183798.81,"N_COORD97":2581500.0800000001,"ADDRESS":"頂寮６３號","OBJECTID":274029},"geometry":{"x":183798.81000000052,"y":2581500.0800000001}},{"attributes":{"ID":274035,"DIS_CODE":0,"TOWNNAME":"善化區","LI":"東昌里","LIN":"3鄰","STREET":" ","SECT":" ","MAREA":"東勢寮","LANE":" ","ALLEY":" ","HOUSE_NO":"２１之８號","E_COORD97":180757.26999999999,"N_COORD97":2561980.98,"ADDRESS":"東勢寮２１之８號","OBJECTID":274030},"geometry":{"x":180757.27000000048,"y":2561980.9800000023}},{"attributes":{"ID":274036,"DIS_CODE":0,"TOWNNAME":"北區","LI":"延平里","LIN":"15鄰","STREET":"公園路","SECT":" ","MAREA":" ","LANE":"８２４巷","ALLEY":" ","HOUSE_NO":"９號","E_COORD97":169253.48000000001,"N_COORD97":2545907.6099999999,"ADDRESS":"公園路８２４巷９號","OBJECTID":274031},"geometry":{"x":169253.48000000138,"y":2545907.6099999994}},{"attributes":{"ID":274037,"DIS_CODE":0,"TOWNNAME":"歸仁區","LI":"歸南里","LIN":"15鄰","STREET":"民生十一街","SECT":" ","MAREA":" ","LANE":"３１巷","ALLEY":" ","HOUSE_NO":"１９號","E_COORD97":176175.59,"N_COORD97":2539787.29,"ADDRESS":"民生十一街３１巷１９號","OBJECTID":274032},"geometry":{"x":176175.59000000078,"y":2539787.290000001}},{"attributes":{"ID":274038,"DIS_CODE":0,"TOWNNAME":"北區","LI":"賢北里","LIN":"15鄰","STREET":"賢北街","SECT":" ","MAREA":" ","LANE":"２７巷","ALLEY":" ","HOUSE_NO":"９０號","E_COORD97":166055.64999999999,"N_COORD97":2545313.6899999999,"ADDRESS":"賢北街２７巷９０號","OBJECTID":274033},"geometry":{"x":166055.65000000037,"y":2545313.6899999995}},{"attributes":{"ID":274039,"DIS_CODE":0,"TOWNNAME":"歸仁區","LI":"大廟里","LIN":"15鄰","STREET":"大廟五街","SECT":" ","MAREA":" ","LANE":"１３２巷","ALLEY":" ","HOUSE_NO":"２０號","E_COORD97":176127.53,"N_COORD97":2544429.5299999998,"ADDRESS":"大廟五街１３２巷２０號","OBJECTID":274034},"geometry":{"x":176127.53000000026,"y":2544429.5299999993}},{"attributes":{"ID":274040,"DIS_CODE":0,"TOWNNAME":"歸仁區","LI":"七甲里","LIN":"15鄰","STREET":"南丁路","SECT":" ","MAREA":" ","LANE":"５９１巷","ALLEY":" ","HOUSE_NO":"２６號","E_COORD97":175938.44,"N_COORD97":2543118.25,"ADDRESS":"南丁路５９１巷２６號","OBJECTID":274035},"geometry":{"x":175938.44000000041,"y":2543118.2500000019}},{"attributes":{"ID":274041,"DIS_CODE":0,"TOWNNAME":"新營區","LI":"新南里","LIN":"15鄰","STREET":"民治路","SECT":" ","MAREA":" ","LANE":"３００巷","ALLEY":" ","HOUSE_NO":"７５號","E_COORD97":178675.29000000001,"N_COORD97":2578577.9300000002,"ADDRESS":"民治路３００巷７５號","OBJECTID":274036},"geometry":{"x":178675.29000000004,"y":2578577.9299999997}},{"attributes":{"ID":274042,"DIS_CODE":0,"TOWNNAME":"新營區","LI":"王公里","LIN":"15鄰","STREET":"大勇街","SECT":" ","MAREA":" ","LANE":"６巷","ALLEY":" ","HOUSE_NO":"４號","E_COORD97":180197.97,"N_COORD97":2579407.8999999999,"ADDRESS":"大勇街６巷４號","OBJECTID":274037},"geometry":{"x":180197.96999999974,"y":2579407.9000000022}},{"attributes":{"ID":274043,"DIS_CODE":0,"TOWNNAME":"新營區","LI":"嘉芳里","LIN":"15鄰","STREET":"復興路","SECT":" ","MAREA":" ","LANE":"１１２８巷","ALLEY":" ","HOUSE_NO":"３號","E_COORD97":176021.38,"N_COORD97":2578897.71,"ADDRESS":"復興路１１２８巷３號","OBJECTID":274038},"geometry":{"x":176021.37999999989,"y":2578897.7100000028}},{"attributes":{"ID":274044,"DIS_CODE":0,"TOWNNAME":"永康區","LI":"大橋里","LIN":"3鄰","STREET":"大橋二街","SECT":" ","MAREA":" ","LANE":" ","ALLEY":" ","HOUSE_NO":"１３７號","E_COORD97":170860.14999999999,"N_COORD97":2546641.3199999998,"ADDRESS":"大橋二街１３７號","OBJECTID":274039},"geometry":{"x":170860.15000000037,"y":2546641.3200000022}},{"attributes":{"ID":274045,"DIS_CODE":0,"TOWNNAME":"永康區","LI":"大灣里","LIN":"3鄰","STREET":"大同街","SECT":" ","MAREA":" ","LANE":" ","ALLEY":" ","HOUSE_NO":"２２２號","E_COORD97":174830.16,"N_COORD97":2545673.4900000002,"ADDRESS":"大同街２２２號","OBJECTID":274040},"geometry":{"x":174830.16000000015,"y":2545673.4900000021}},{"attributes":{"ID":274046,"DIS_CODE":0,"TOWNNAME":"東區","LI":"自強里","LIN":"3鄰","STREET":"東門路","SECT":"三段","MAREA":" ","LANE":" ","ALLEY":" ","HOUSE_NO":"５７號","E_COORD97":171176.63,"N_COORD97":2542269.1499999999,"ADDRESS":"東門路三段５７號","OBJECTID":274041},"geometry":{"x":171176.62999999989,"y":2542269.1500000004}},{"attributes":{"ID":274047,"DIS_CODE":0,"TOWNNAME":"官田區","LI":"隆田里","LIN":"12鄰","STREET":"文化街","SECT":" ","MAREA":" ","LANE":" ","ALLEY":" ","HOUSE_NO":"７０號","E_COORD97":180198.31,"N_COORD97":2565978.8700000001,"ADDRESS":"文化街７０號","OBJECTID":274042},"geometry":{"x":180198.30999999959,"y":2565978.8700000048}},{"attributes":{"ID":274048,"DIS_CODE":0,"TOWNNAME":"官田區","LI":"隆本里","LIN":"10鄰","STREET":"中華路","SECT":"二段","MAREA":" ","LANE":" ","ALLEY":" ","HOUSE_NO":"１３號","E_COORD97":180041.67000000001,"N_COORD97":2566485.3500000001,"ADDRESS":"中華路二段１３號","OBJECTID":274043},"geometry":{"x":180041.67000000086,"y":2566485.3499999996}},{"attributes":{"ID":274049,"DIS_CODE":0,"TOWNNAME":"官田區","LI":"隆本里","LIN":"10鄰","STREET":"中華路","SECT":"二段","MAREA":" ","LANE":" ","ALLEY":" ","HOUSE_NO":"１５號","E_COORD97":180037.16,"N_COORD97":2566494.8900000001,"ADDRESS":"中華路二段１５號","OBJECTID":274044},"geometry":{"x":180037.16000000108,"y":2566494.8900000025}},{"attributes":{"ID":274050,"DIS_CODE":0,"TOWNNAME":"新營區","LI":"嘉芳里","LIN":"15鄰","STREET":"復興路","SECT":" ","MAREA":" ","LANE":"１０７０巷","ALLEY":" ","HOUSE_NO":"６號","E_COORD97":176156.20000000001,"N_COORD97":2578874.8900000001,"ADDRESS":"復興路１０７０巷６號","OBJECTID":274045},"geometry":{"x":176156.20000000112,"y":2578874.8900000006}},{"attributes":{"ID":274051,"DIS_CODE":0,"TOWNNAME":"新營區","LI":"嘉芳里","LIN":"15鄰","STREET":"復興路","SECT":" ","MAREA":" ","LANE":"１１２８巷","ALLEY":" ","HOUSE_NO":"７號","E_COORD97":176024.45999999999,"N_COORD97":2578913.1899999999,"ADDRESS":"復興路１１２８巷７號","OBJECTID":274046},"geometry":{"x":176024.45999999996,"y":2578913.1900000013}},{"attributes":{"ID":274052,"DIS_CODE":0,"TOWNNAME":"新營區","LI":"南興里","LIN":"15鄰","STREET":"興農街","SECT":" ","MAREA":" ","LANE":"１４０巷","ALLEY":" ","HOUSE_NO":"５之２號","E_COORD97":179231,"N_COORD97":2577524.3500000001,"ADDRESS":"興農街１４０巷５之２號","OBJECTID":274047},"geometry":{"x":179231.00000000093,"y":2577524.3499999996}},{"attributes":{"ID":274053,"DIS_CODE":0,"TOWNNAME":"新營區","LI":"南興里","LIN":"15鄰","STREET":"興農街","SECT":" ","MAREA":" ","LANE":"１４０巷","ALLEY":" ","HOUSE_NO":"３之４號","E_COORD97":179243.35000000001,"N_COORD97":2577524.29,"ADDRESS":"興農街１４０巷３之４號","OBJECTID":274048},"geometry":{"x":179243.35000000056,"y":2577524.2899999991}},{"attributes":{"ID":274054,"DIS_CODE":0,"TOWNNAME":"安平區","LI":"華平里","LIN":"15鄰","STREET":"建平八街","SECT":" ","MAREA":" ","LANE":"４５０巷","ALLEY":" ","HOUSE_NO":"１號之１","E_COORD97":165075.31,"N_COORD97":2543654.0299999998,"ADDRESS":"建平八街４５０巷１號之１","OBJECTID":274049},"geometry":{"x":165075.31000000052,"y":2543654.0300000031}},{"attributes":{"ID":274055,"DIS_CODE":0,"TOWNNAME":"安平區","LI":"華平里","LIN":"15鄰","STREET":"建平八街","SECT":" ","MAREA":" ","LANE":"４５０巷","ALLEY":" ","HOUSE_NO":"１號之２","E_COORD97":165060.95000000001,"N_COORD97":2543654.79,"ADDRESS":"建平八街４５０巷１號之２","OBJECTID":274050},"geometry":{"x":165060.95000000112,"y":2543654.7899999991}},{"attributes":{"ID":274056,"DIS_CODE":0,"TOWNNAME":"北區","LI":"中樓里","LIN":"15鄰","STREET":"開元路","SECT":" ","MAREA":" ","LANE":"９０巷","ALLEY":" ","HOUSE_NO":"６７號","E_COORD97":169805.04000000001,"N_COORD97":2545131.2200000002,"ADDRESS":"開元路９０巷６７號","OBJECTID":274051},"geometry":{"x":169805.04000000097,"y":2545131.2200000007}},{"attributes":{"ID":274057,"DIS_CODE":0,"TOWNNAME":"北區","LI":"中樓里","LIN":"15鄰","STREET":"開元路","SECT":" ","MAREA":" ","LANE":"９０巷","ALLEY":" ","HOUSE_NO":"６７號之１","E_COORD97":169806.17000000001,"N_COORD97":2545127.7200000002,"ADDRESS":"開元路９０巷６７號之１","OBJECTID":274052},"geometry":{"x":169806.17000000086,"y":2545127.7200000007}},{"attributes":{"ID":274058,"DIS_CODE":0,"TOWNNAME":"北區","LI":"中樓里","LIN":"15鄰","STREET":"開元路","SECT":" ","MAREA":" ","LANE":"９０巷","ALLEY":" ","HOUSE_NO":"６７號之１０","E_COORD97":169807,"N_COORD97":2545121.8599999999,"ADDRESS":"開元路９０巷６７號之１０","OBJECTID":274053},"geometry":{"x":169807.00000000093,"y":2545121.8599999994}},{"attributes":{"ID":274059,"DIS_CODE":0,"TOWNNAME":"北區","LI":"中樓里","LIN":"15鄰","STREET":"開元路","SECT":" ","MAREA":" ","LANE":"９０巷","ALLEY":" ","HOUSE_NO":"６７號之１１","E_COORD97":169808.23000000001,"N_COORD97":2545118.3599999999,"ADDRESS":"開元路９０巷６７號之１１","OBJECTID":274054},"geometry":{"x":169808.23000000138,"y":2545118.3599999994}},{"attributes":{"ID":274060,"DIS_CODE":0,"TOWNNAME":"北區","LI":"中樓里","LIN":"15鄰","STREET":"開元路","SECT":" ","MAREA":" ","LANE":"９０巷","ALLEY":" ","HOUSE_NO":"６７號之２","E_COORD97":169816.16,"N_COORD97":2545129.6800000002,"ADDRESS":"開元路９０巷６７號之２","OBJECTID":274055},"geometry":{"x":169816.16000000201,"y":2545129.6799999997}},{"attributes":{"ID":274061,"DIS_CODE":0,"TOWNNAME":"北區","LI":"中樓里","LIN":"15鄰","STREET":"開元路","SECT":" ","MAREA":" ","LANE":"９０巷","ALLEY":" ","HOUSE_NO":"６７號之３","E_COORD97":169819.85999999999,"N_COORD97":2545130.9100000001,"ADDRESS":"開元路９０巷６７號之３","OBJECTID":274056},"geometry":{"x":169819.8599999994,"y":2545130.910000002}},{"attributes":{"ID":274062,"DIS_CODE":0,"TOWNNAME":"北區","LI":"振興里","LIN":"15鄰","STREET":"長榮路","SECT":"四段","MAREA":" ","LANE":"１０２巷","ALLEY":" ","HOUSE_NO":"１４號","E_COORD97":170333.26999999999,"N_COORD97":2545112.8799999999,"ADDRESS":"長榮路四段１０２巷１４號","OBJECTID":274057},"geometry":{"x":170333.26999999862,"y":2545112.8800000008}},{"attributes":{"ID":274063,"DIS_CODE":0,"TOWNNAME":"新營區","LI":"忠政里","LIN":"15鄰","STREET":"府西路","SECT":" ","MAREA":" ","LANE":"２３０巷","ALLEY":" ","HOUSE_NO":"４１號","E_COORD97":179921.98999999999,"N_COORD97":2579611.8700000001,"ADDRESS":"府西路２３０巷４１號","OBJECTID":274058},"geometry":{"x":179921.99000000022,"y":2579611.8700000048}},{"attributes":{"ID":274064,"DIS_CODE":0,"TOWNNAME":"新營區","LI":"民權里","LIN":"15鄰","STREET":"民權路","SECT":" ","MAREA":" ","LANE":"９４巷","ALLEY":" ","HOUSE_NO":"２６號","E_COORD97":179876,"N_COORD97":2578543.3999999999,"ADDRESS":"民權路９４巷２６號","OBJECTID":274059},"geometry":{"x":179876,"y":2578543.4000000022}},{"attributes":{"ID":274065,"DIS_CODE":0,"TOWNNAME":"新營區","LI":"新南里","LIN":"15鄰","STREET":"民治路","SECT":" ","MAREA":" ","LANE":"３００巷","ALLEY":" ","HOUSE_NO":"５５號","E_COORD97":178725.29999999999,"N_COORD97":2578556.6499999999,"ADDRESS":"民治路３００巷５５號","OBJECTID":274060},"geometry":{"x":178725.30000000075,"y":2578556.6500000004}},{"attributes":{"ID":274066,"DIS_CODE":0,"TOWNNAME":"南區","LI":"同安里","LIN":"15鄰","STREET":"明興路","SECT":" ","MAREA":" ","LANE":"１３９５巷","ALLEY":" ","HOUSE_NO":"３１號","E_COORD97":166456.87,"N_COORD97":2535829.9300000002,"ADDRESS":"明興路１３９５巷３１號","OBJECTID":274061},"geometry":{"x":166456.87000000104,"y":2535829.9300000034}},{"attributes":{"ID":274067,"DIS_CODE":0,"TOWNNAME":"南區","LI":"同安里","LIN":"15鄰","STREET":"明興路","SECT":" ","MAREA":" ","LANE":"１３９５巷","ALLEY":" ","HOUSE_NO":"３２號","E_COORD97":166453.48999999999,"N_COORD97":2535812.5,"ADDRESS":"明興路１３９５巷３２號","OBJECTID":274062},"geometry":{"x":166453.49000000022,"y":2535812.4999999981}},{"attributes":{"ID":274068,"DIS_CODE":0,"TOWNNAME":"歸仁區","LI":"文化里","LIN":"15鄰","STREET":"大德路","SECT":" ","MAREA":" ","LANE":"１９３巷","ALLEY":" ","HOUSE_NO":"８號","E_COORD97":177275.47,"N_COORD97":2541477.3300000001,"ADDRESS":"大德路１９３巷８號","OBJECTID":274063},"geometry":{"x":177275.46999999974,"y":2541477.3300000019}},{"attributes":{"ID":274069,"DIS_CODE":0,"TOWNNAME":"歸仁區","LI":"西埔里","LIN":"15鄰","STREET":"西埔二街","SECT":" ","MAREA":" ","LANE":"７０巷","ALLEY":" ","HOUSE_NO":"７８號","E_COORD97":176914.29000000001,"N_COORD97":2544902.3599999999,"ADDRESS":"西埔二街７０巷７８號","OBJECTID":274064},"geometry":{"x":176914.29000000004,"y":2544902.3599999994}},{"attributes":{"ID":274070,"DIS_CODE":0,"TOWNNAME":"北區","LI":"正覺里","LIN":"15鄰","STREET":"正覺街","SECT":" ","MAREA":" ","LANE":"７７巷","ALLEY":" ","HOUSE_NO":"２號","E_COORD97":169287.42000000001,"N_COORD97":2546408.6899999999,"ADDRESS":"正覺街７７巷２號","OBJECTID":274065},"geometry":{"x":169287.42000000086,"y":2546408.6899999995}},{"attributes":{"ID":274071,"DIS_CODE":0,"TOWNNAME":"安平區","LI":"海頭里","LIN":"15鄰","STREET":"安北路","SECT":" ","MAREA":" ","LANE":"１５２巷","ALLEY":" ","HOUSE_NO":"５號","E_COORD97":164044.17000000001,"N_COORD97":2544899.1099999999,"ADDRESS":"安北路１５２巷５號","OBJECTID":274066},"geometry":{"x":164044.17000000086,"y":2544899.1100000013}},{"attributes":{"ID":274072,"DIS_CODE":0,"TOWNNAME":"官田區","LI":"隆本里","LIN":"10鄰","STREET":"中華路","SECT":"二段","MAREA":" ","LANE":" ","ALLEY":" ","HOUSE_NO":"２１號","E_COORD97":180017.38,"N_COORD97":2566520.9900000002,"ADDRESS":"中華路二段２１號","OBJECTID":274067},"geometry":{"x":180017.37999999989,"y":2566520.9900000021}},{"attributes":{"ID":274073,"DIS_CODE":0,"TOWNNAME":"新市區","LI":"潭頂里","LIN":"3鄰","STREET":" ","SECT":" ","MAREA":"潭頂","LANE":" ","ALLEY":" ","HOUSE_NO":"１８１號","E_COORD97":180846.12,"N_COORD97":2552890.25,"ADDRESS":"潭頂１８１號","OBJECTID":274068},"geometry":{"x":180846.12000000011,"y":2552890.25}},{"attributes":{"ID":274074,"DIS_CODE":0,"TOWNNAME":"新市區","LI":"潭頂里","LIN":"3鄰","STREET":" ","SECT":" ","MAREA":"潭頂","LANE":" ","ALLEY":" ","HOUSE_NO":"１７６號","E_COORD97":180819.81,"N_COORD97":2552872.9900000002,"ADDRESS":"潭頂１７６號","OBJECTID":274069},"geometry":{"x":180819.81000000052,"y":2552872.9900000002}},{"attributes":{"ID":274075,"DIS_CODE":0,"TOWNNAME":"安平區","LI":"海頭里","LIN":"15鄰","STREET":"安北路","SECT":" ","MAREA":" ","LANE":"１５２巷","ALLEY":" ","HOUSE_NO":"６號","E_COORD97":164044.10999999999,"N_COORD97":2544905.73,"ADDRESS":"安北路１５２巷６號","OBJECTID":274070},"geometry":{"x":164044.11000000034,"y":2544905.7300000023}},{"attributes":{"ID":274076,"DIS_CODE":0,"TOWNNAME":"仁德區","LI":"仁德里","LIN":"3鄰","STREET":"仁中六街","SECT":" ","MAREA":" ","LANE":" ","ALLEY":" ","HOUSE_NO":"６８號","E_COORD97":173398.47,"N_COORD97":2540405.25,"ADDRESS":"仁中六街６８號","OBJECTID":274071},"geometry":{"x":173398.46999999974,"y":2540405.2500000037}},{"attributes":{"ID":274077,"DIS_CODE":0,"TOWNNAME":"仁德區","LI":"仁德里","LIN":"3鄰","STREET":"仁中六街","SECT":" ","MAREA":" ","LANE":" ","ALLEY":" ","HOUSE_NO":"１４６號","E_COORD97":173399.60999999999,"N_COORD97":2540491.2400000002,"ADDRESS":"仁中六街１４６號","OBJECTID":274072},"geometry":{"x":173399.61000000034,"y":2540491.2400000021}},{"attributes":{"ID":274078,"DIS_CODE":0,"TOWNNAME":"仁德區","LI":"仁德里","LIN":"3鄰","STREET":"仁中六街","SECT":" ","MAREA":" ","LANE":" ","ALLEY":" ","HOUSE_NO":"１３０號","E_COORD97":173412.17999999999,"N_COORD97":2540470.9900000002,"ADDRESS":"仁中六街１３０號","OBJECTID":274073},"geometry":{"x":173412.1799999997,"y":2540470.9900000002}},{"attributes":{"ID":274079,"DIS_CODE":0,"TOWNNAME":"北區","LI":"長榮里","LIN":"15鄰","STREET":"長榮路","SECT":"五段","MAREA":" ","LANE":"４１巷","ALLEY":" ","HOUSE_NO":"７０號","E_COORD97":169863.48000000001,"N_COORD97":2545609.3399999999,"ADDRESS":"長榮路五段４１巷７０號","OBJECTID":274074},"geometry":{"x":169863.48000000138,"y":2545609.3400000017}},{"attributes":{"ID":274080,"DIS_CODE":0,"TOWNNAME":"北區","LI":"長榮里","LIN":"15鄰","STREET":"長榮路","SECT":"五段","MAREA":" ","LANE":"４１巷","ALLEY":" ","HOUSE_NO":"６８號","E_COORD97":169876.17999999999,"N_COORD97":2545602.8300000001,"ADDRESS":"長榮路五段４１巷６８號","OBJECTID":274075},"geometry":{"x":169876.1799999997,"y":2545602.8300000019}},{"attributes":{"ID":274081,"DIS_CODE":0,"TOWNNAME":"新營區","LI":"新南里","LIN":"15鄰","STREET":"民治路","SECT":" ","MAREA":" ","LANE":"３００巷","ALLEY":" ","HOUSE_NO":"３１號","E_COORD97":178735.37,"N_COORD97":2578507.8700000001,"ADDRESS":"民治路３００巷３１號","OBJECTID":274076},"geometry":{"x":178735.37000000104,"y":2578507.8700000029}},{"attributes":{"ID":274082,"DIS_CODE":0,"TOWNNAME":"新營區","LI":"埤寮里","LIN":"15鄰","STREET":"長榮路","SECT":"一段","MAREA":" ","LANE":"５６０巷","ALLEY":" ","HOUSE_NO":"２０號","E_COORD97":180144.42999999999,"N_COORD97":2579938.6299999999,"ADDRESS":"長榮路一段５６０巷２０號","OBJECTID":274077},"geometry":{"x":180144.43000000063,"y":2579938.629999999}},{"attributes":{"ID":274083,"DIS_CODE":0,"TOWNNAME":"新營區","LI":"嘉芳里","LIN":"15鄰","STREET":"復興路","SECT":" ","MAREA":" ","LANE":"１１１２巷","ALLEY":" ","HOUSE_NO":"５號","E_COORD97":176048.92000000001,"N_COORD97":2578896.46,"ADDRESS":"復興路１１１２巷５號","OBJECTID":274078},"geometry":{"x":176048.92000000179,"y":2578896.4600000028}},{"attributes":{"ID":274084,"DIS_CODE":0,"TOWNNAME":"新營區","LI":"嘉芳里","LIN":"15鄰","STREET":"復興路","SECT":" ","MAREA":" ","LANE":"１０７０巷","ALLEY":" ","HOUSE_NO":"１２之１號","E_COORD97":176158.56,"N_COORD97":2578894.8100000001,"ADDRESS":"復興路１０７０巷１２之１號","OBJECTID":274079},"geometry":{"x":176158.56000000052,"y":2578894.8100000005}},{"attributes":{"ID":274085,"DIS_CODE":0,"TOWNNAME":"新營區","LI":"忠政里","LIN":"15鄰","STREET":"府西路","SECT":" ","MAREA":" ","LANE":"２３０巷","ALLEY":" ","HOUSE_NO":"３７號","E_COORD97":179912.79000000001,"N_COORD97":2579611.9199999999,"ADDRESS":"府西路２３０巷３７號","OBJECTID":274080},"geometry":{"x":179912.79000000004,"y":2579611.9199999999}},{"attributes":{"ID":274086,"DIS_CODE":0,"TOWNNAME":"新營區","LI":"忠政里","LIN":"15鄰","STREET":"府西路","SECT":" ","MAREA":" ","LANE":"２３０巷","ALLEY":" ","HOUSE_NO":"３９號","E_COORD97":179917.89999999999,"N_COORD97":2579610.79,"ADDRESS":"府西路２３０巷３９號","OBJECTID":274081},"geometry":{"x":179917.90000000224,"y":2579610.790000001}},{"attributes":{"ID":274087,"DIS_CODE":0,"TOWNNAME":"鹽水區","LI":"橋南里","LIN":"15鄰","STREET":"月津路","SECT":" ","MAREA":" ","LANE":"１２巷","ALLEY":" ","HOUSE_NO":"４１號","E_COORD97":174762.26000000001,"N_COORD97":2579623.7599999998,"ADDRESS":"月津路１２巷４１號","OBJECTID":274082},"geometry":{"x":174762.26000000071,"y":2579623.7599999998}},{"attributes":{"ID":274088,"DIS_CODE":0,"TOWNNAME":"關廟區","LI":"東勢里","LIN":"15鄰","STREET":"東興路","SECT":" ","MAREA":" ","LANE":"１６９巷","ALLEY":" ","HOUSE_NO":"１８號","E_COORD97":181615.62,"N_COORD97":2539633.25,"ADDRESS":"東興路１６９巷１８號","OBJECTID":274083},"geometry":{"x":181615.62000000104,"y":2539633.2500000019}},{"attributes":{"ID":274089,"DIS_CODE":0,"TOWNNAME":"東區","LI":"大智里","LIN":"3鄰","STREET":"崇善十四街","SECT":" ","MAREA":" ","LANE":" ","ALLEY":" ","HOUSE_NO":"１１２號","E_COORD97":171174.89000000001,"N_COORD97":2540549.7400000002,"ADDRESS":"崇善十四街１１２號","OBJECTID":274084},"geometry":{"x":171174.88999999966,"y":2540549.7400000002}},{"attributes":{"ID":274090,"DIS_CODE":0,"TOWNNAME":"北區","LI":"玉皇里","LIN":"15鄰","STREET":"成功路","SECT":" ","MAREA":" ","LANE":"８８巷","ALLEY":" ","HOUSE_NO":"１１號","E_COORD97":168625.14000000001,"N_COORD97":2544386.1400000001,"ADDRESS":"成功路８８巷１１號","OBJECTID":274085},"geometry":{"x":168625.13999999966,"y":2544386.1400000006}},{"attributes":{"ID":274091,"DIS_CODE":0,"TOWNNAME":"東區","LI":"大智里","LIN":"3鄰","STREET":"崇善十四街","SECT":" ","MAREA":" ","LANE":" ","ALLEY":" ","HOUSE_NO":"１１４號","E_COORD97":171175.35999999999,"N_COORD97":2540545.71,"ADDRESS":"崇善十四街１１４號","OBJECTID":274086},"geometry":{"x":171175.36000000034,"y":2540545.7100000028}},{"attributes":{"ID":274092,"DIS_CODE":0,"TOWNNAME":"北區","LI":"玉皇里","LIN":"15鄰","STREET":"成功路","SECT":" ","MAREA":" ","LANE":"８８巷","ALLEY":" ","HOUSE_NO":"１３號之１","E_COORD97":168631.73999999999,"N_COORD97":2544396.0499999998,"ADDRESS":"成功路８８巷１３號之１","OBJECTID":274087},"geometry":{"x":168631.74000000022,"y":2544396.0500000007}},{"attributes":{"ID":274093,"DIS_CODE":0,"TOWNNAME":"東區","LI":"大智里","LIN":"3鄰","STREET":"崇善十四街","SECT":" ","MAREA":" ","LANE":" ","ALLEY":" ","HOUSE_NO":"１１６號","E_COORD97":171175.12,"N_COORD97":2540541.4399999999,"ADDRESS":"崇善十四街１１６號","OBJECTID":274088},"geometry":{"x":171175.12000000011,"y":2540541.4399999995}},{"attributes":{"ID":274094,"DIS_CODE":0,"TOWNNAME":"北區","LI":"玉皇里","LIN":"15鄰","STREET":"成功路","SECT":" ","MAREA":" ","LANE":"８８巷","ALLEY":" ","HOUSE_NO":"１５號","E_COORD97":168643.20999999999,"N_COORD97":2544408.8799999999,"ADDRESS":"成功路８８巷１５號","OBJECTID":274089},"geometry":{"x":168643.21000000089,"y":2544408.879999999}},{"attributes":{"ID":274095,"DIS_CODE":0,"TOWNNAME":"北區","LI":"玉皇里","LIN":"15鄰","STREET":"成功路","SECT":" ","MAREA":" ","LANE":"８８巷","ALLEY":" ","HOUSE_NO":"５之４號","E_COORD97":168594.56,"N_COORD97":2544360.5699999998,"ADDRESS":"成功路８８巷５之４號","OBJECTID":274090},"geometry":{"x":168594.56000000052,"y":2544360.5700000022}},{"attributes":{"ID":274096,"DIS_CODE":0,"TOWNNAME":"北區","LI":"裕民里","LIN":"7鄰","STREET":"成功路","SECT":" ","MAREA":" ","LANE":"５０４巷","ALLEY":" ","HOUSE_NO":"１５號","E_COORD97":167684.48000000001,"N_COORD97":2544694.6400000001,"ADDRESS":"成功路５０４巷１５號","OBJECTID":274091},"geometry":{"x":167684.48000000045,"y":2544694.6400000006}},{"attributes":{"ID":274097,"DIS_CODE":0,"TOWNNAME":"北區","LI":"元寶里","LIN":"15鄰","STREET":"開元路","SECT":" ","MAREA":" ","LANE":"４８５巷","ALLEY":" ","HOUSE_NO":"２３號","E_COORD97":170483.01000000001,"N_COORD97":2545698.6899999999,"ADDRESS":"開元路４８５巷２３號","OBJECTID":274092},"geometry":{"x":170483.01000000071,"y":2545698.6900000013}},{"attributes":{"ID":274098,"DIS_CODE":0,"TOWNNAME":"北區","LI":"元寶里","LIN":"15鄰","STREET":"開元路","SECT":" ","MAREA":" ","LANE":"４８５巷","ALLEY":" ","HOUSE_NO":"２５號","E_COORD97":170482.31,"N_COORD97":2545703.5800000001,"ADDRESS":"開元路４８５巷２５號","OBJECTID":274093},"geometry":{"x":170482.31000000145,"y":2545703.5800000019}},{"attributes":{"ID":274099,"DIS_CODE":0,"TOWNNAME":"北區","LI":"元寶里","LIN":"15鄰","STREET":"開元路","SECT":" ","MAREA":" ","LANE":"４８５巷","ALLEY":" ","HOUSE_NO":"２７號","E_COORD97":170481.95999999999,"N_COORD97":2545709.1699999999,"ADDRESS":"開元路４８５巷２７號","OBJECTID":274094},"geometry":{"x":170481.96000000089,"y":2545709.1700000018}},{"attributes":{"ID":274100,"DIS_CODE":0,"TOWNNAME":"東區","LI":"大智里","LIN":"3鄰","STREET":"崇善十四街","SECT":" ","MAREA":" ","LANE":" ","ALLEY":" ","HOUSE_NO":"６３號","E_COORD97":171194.35000000001,"N_COORD97":2540565.6400000001,"ADDRESS":"崇善十四街６３號","OBJECTID":274095},"geometry":{"x":171194.35000000056,"y":2540565.6400000043}},{"attributes":{"ID":274101,"DIS_CODE":0,"TOWNNAME":"東區","LI":"大智里","LIN":"3鄰","STREET":"崇善十四街","SECT":" ","MAREA":" ","LANE":" ","ALLEY":" ","HOUSE_NO":"６５號","E_COORD97":171192.45000000001,"N_COORD97":2540558.9900000002,"ADDRESS":"崇善十四街６５號","OBJECTID":274096},"geometry":{"x":171192.45000000112,"y":2540558.9900000002}},{"attributes":{"ID":274102,"DIS_CODE":0,"TOWNNAME":"東區","LI":"大智里","LIN":"3鄰","STREET":"崇善十四街","SECT":" ","MAREA":" ","LANE":" ","ALLEY":" ","HOUSE_NO":"６９號","E_COORD97":171193.39999999999,"N_COORD97":2540547.1299999999,"ADDRESS":"崇善十四街６９號","OBJECTID":274097},"geometry":{"x":171193.4000000013,"y":2540547.1300000027}},{"attributes":{"ID":274103,"DIS_CODE":0,"TOWNNAME":"永康區","LI":"大灣里","LIN":"3鄰","STREET":"大同街","SECT":" ","MAREA":" ","LANE":" ","ALLEY":" ","HOUSE_NO":"２１０號","E_COORD97":174828.98999999999,"N_COORD97":2545648.3599999999,"ADDRESS":"大同街２１０號","OBJECTID":274098},"geometry":{"x":174828.99000000115,"y":2545648.3599999975}},{"attributes":{"ID":274104,"DIS_CODE":0,"TOWNNAME":"永康區","LI":"大灣里","LIN":"3鄰","STREET":"信義二街","SECT":" ","MAREA":" ","LANE":" ","ALLEY":" ","HOUSE_NO":"１３１號","E_COORD97":174818.13,"N_COORD97":2545717.1099999999,"ADDRESS":"信義二街１３１號","OBJECTID":274099},"geometry":{"x":174818.12999999989,"y":2545717.1099999994}},{"attributes":{"ID":274105,"DIS_CODE":0,"TOWNNAME":"東區","LI":"和平里","LIN":"15鄰","STREET":"東門路","SECT":"三段","MAREA":" ","LANE":"２２６巷","ALLEY":" ","HOUSE_NO":"５８號","E_COORD97":171451.35999999999,"N_COORD97":2541882.7799999998,"ADDRESS":"東門路三段２２６巷５８號","OBJECTID":274100},"geometry":{"x":171451.36000000127,"y":2541882.7800000012}},{"attributes":{"ID":274106,"DIS_CODE":0,"TOWNNAME":"東區","LI":"和平里","LIN":"15鄰","STREET":"東門路","SECT":"三段","MAREA":" ","LANE":"２２６巷","ALLEY":" ","HOUSE_NO":"６２號","E_COORD97":171440.10999999999,"N_COORD97":2541881.3500000001,"ADDRESS":"東門路三段２２６巷６２號","OBJECTID":274101},"geometry":{"x":171440.11000000034,"y":2541881.3499999996}},{"attributes":{"ID":274107,"DIS_CODE":0,"TOWNNAME":"東區","LI":"富強里","LIN":"15鄰","STREET":"裕農路","SECT":" ","MAREA":" ","LANE":"３５０巷","ALLEY":" ","HOUSE_NO":"１８號","E_COORD97":171029.45999999999,"N_COORD97":2542997.8999999999,"ADDRESS":"裕農路３５０巷１８號","OBJECTID":274102},"geometry":{"x":171029.46000000089,"y":2542997.9000000041}},{"attributes":{"ID":274108,"DIS_CODE":0,"TOWNNAME":"永康區","LI":"二王里","LIN":"3鄰","STREET":"二王路","SECT":" ","MAREA":" ","LANE":" ","ALLEY":" ","HOUSE_NO":"１００號","E_COORD97":173021.48000000001,"N_COORD97":2546620.3999999999,"ADDRESS":"二王路１００號","OBJECTID":274103},"geometry":{"x":173021.48000000231,"y":2546620.4000000022}},{"attributes":{"ID":274109,"DIS_CODE":0,"TOWNNAME":"永康區","LI":"網寮里","LIN":"15鄰","STREET":"永和街","SECT":" ","MAREA":" ","LANE":"２８２巷","ALLEY":" ","HOUSE_NO":"９號","E_COORD97":173323.5,"N_COORD97":2546626.25,"ADDRESS":"永和街２８２巷９號","OBJECTID":274104},"geometry":{"x":173323.5,"y":2546626.2500000037}},{"attributes":{"ID":274110,"DIS_CODE":0,"TOWNNAME":"永康區","LI":"網寮里","LIN":"15鄰","STREET":"永和街","SECT":" ","MAREA":" ","LANE":"２８２巷","ALLEY":" ","HOUSE_NO":"１８號","E_COORD97":173338.98000000001,"N_COORD97":2546632.75,"ADDRESS":"永和街２８２巷１８號","OBJECTID":274105},"geometry":{"x":173338.98000000138,"y":2546632.75}},{"attributes":{"ID":274111,"DIS_CODE":0,"TOWNNAME":"永康區","LI":"復興里","LIN":"15鄰","STREET":"復興路","SECT":" ","MAREA":" ","LANE":"３５６巷","ALLEY":" ","HOUSE_NO":"２７號","E_COORD97":172263.67000000001,"N_COORD97":2544406.77,"ADDRESS":"復興路３５６巷２７號","OBJECTID":274106},"geometry":{"x":172263.67000000179,"y":2544406.7699999996}},{"attributes":{"ID":274112,"DIS_CODE":0,"TOWNNAME":"中西區","LI":"法華里","LIN":"15鄰","STREET":"五妃街","SECT":" ","MAREA":" ","LANE":"６２巷","ALLEY":" ","HOUSE_NO":"１０號","E_COORD97":168946.38,"N_COORD97":2542599.9199999999,"ADDRESS":"五妃街６２巷１０號","OBJECTID":274107},"geometry":{"x":168946.38000000175,"y":2542599.9199999999}},{"attributes":{"ID":274113,"DIS_CODE":0,"TOWNNAME":"安南區","LI":"城東里","LIN":"15鄰","STREET":"城北路","SECT":" ","MAREA":" ","LANE":"２３４巷","ALLEY":" ","HOUSE_NO":"６９號","E_COORD97":161156.13,"N_COORD97":2551851.7000000002,"ADDRESS":"城北路２３４巷６９號","OBJECTID":274108},"geometry":{"x":161156.12999999989,"y":2551851.7000000011}},{"attributes":{"ID":274114,"DIS_CODE":0,"TOWNNAME":"官田區","LI":"二鎮里","LIN":"1鄰","STREET":"成功街","SECT":" ","MAREA":" ","LANE":" ","ALLEY":" ","HOUSE_NO":"１號","E_COORD97":180831.79000000001,"N_COORD97":2567617.9900000002,"ADDRESS":"成功街１號","OBJECTID":274109},"geometry":{"x":180831.79000000004,"y":2567617.9899999984}},{"attributes":{"ID":274115,"DIS_CODE":0,"TOWNNAME":"安南區","LI":"城東里","LIN":"15鄰","STREET":"城北路","SECT":" ","MAREA":" ","LANE":"２３４巷","ALLEY":" ","HOUSE_NO":"７１號","E_COORD97":161160.73999999999,"N_COORD97":2551848.4900000002,"ADDRESS":"城北路２３４巷７１號","OBJECTID":274110},"geometry":{"x":161160.74000000115,"y":2551848.4900000002}},{"attributes":{"ID":274116,"DIS_CODE":0,"TOWNNAME":"安南區","LI":"溪心里","LIN":"15鄰","STREET":"功安三街","SECT":" ","MAREA":" ","LANE":"１７９巷","ALLEY":" ","HOUSE_NO":"１號","E_COORD97":165971.84,"N_COORD97":2550329.5800000001,"ADDRESS":"功安三街１７９巷１號","OBJECTID":274111},"geometry":{"x":165971.84000000078,"y":2550329.5800000001}},{"attributes":{"ID":274117,"DIS_CODE":0,"TOWNNAME":"安南區","LI":"溪心里","LIN":"15鄰","STREET":"功安三街","SECT":" ","MAREA":" ","LANE":"１７９巷","ALLEY":" ","HOUSE_NO":"２號","E_COORD97":165967.63,"N_COORD97":2550326.0499999998,"ADDRESS":"功安三街１７９巷２號","OBJECTID":274112},"geometry":{"x":165967.62999999989,"y":2550326.0500000007}},{"attributes":{"ID":274118,"DIS_CODE":0,"TOWNNAME":"安南區","LI":"溪心里","LIN":"15鄰","STREET":"功安三街","SECT":" ","MAREA":" ","LANE":"１７９巷","ALLEY":" ","HOUSE_NO":"３號","E_COORD97":165963.95999999999,"N_COORD97":2550323.6099999999,"ADDRESS":"功安三街１７９巷３號","OBJECTID":274113},"geometry":{"x":165963.96000000183,"y":2550323.6100000013}},{"attributes":{"ID":274119,"DIS_CODE":0,"TOWNNAME":"安南區","LI":"溪心里","LIN":"15鄰","STREET":"功安三街","SECT":" ","MAREA":" ","LANE":"１７９巷","ALLEY":" ","HOUSE_NO":"５號","E_COORD97":165961.23999999999,"N_COORD97":2550320.3500000001,"ADDRESS":"功安三街１７９巷５號","OBJECTID":274114},"geometry":{"x":165961.24000000115,"y":2550320.3499999996}},{"attributes":{"ID":274120,"DIS_CODE":0,"TOWNNAME":"安南區","LI":"安順里","LIN":"15鄰","STREET":"育安街","SECT":" ","MAREA":" ","LANE":"１８９巷","ALLEY":" ","HOUSE_NO":"２０號","E_COORD97":169540.51000000001,"N_COORD97":2550057.6899999999,"ADDRESS":"育安街１８９巷２０號","OBJECTID":274115},"geometry":{"x":169540.51000000071,"y":2550057.6900000013}},{"attributes":{"ID":274121,"DIS_CODE":0,"TOWNNAME":"安南區","LI":"淵西里","LIN":"15鄰","STREET":"本原街","SECT":"三段","MAREA":" ","LANE":"２３４巷","ALLEY":" ","HOUSE_NO":"１０７號","E_COORD97":165257.16,"N_COORD97":2550507.27,"ADDRESS":"本原街三段２３４巷１０７號","OBJECTID":274116},"geometry":{"x":165257.16000000015,"y":2550507.2699999996}},{"attributes":{"ID":274122,"DIS_CODE":0,"TOWNNAME":"安南區","LI":"安富里","LIN":"15鄰","STREET":"海佃路","SECT":"一段","MAREA":" ","LANE":"１５８巷","ALLEY":" ","HOUSE_NO":"９５號","E_COORD97":167427.09,"N_COORD97":2547254.77,"ADDRESS":"海佃路一段１５８巷９５號","OBJECTID":274117},"geometry":{"x":167427.08999999985,"y":2547254.7699999996}},{"attributes":{"ID":274123,"DIS_CODE":0,"TOWNNAME":"永康區","LI":"中華里","LIN":"15鄰","STREET":"忠義街","SECT":" ","MAREA":" ","LANE":"６０巷","ALLEY":" ","HOUSE_NO":"２０號","E_COORD97":171781.94,"N_COORD97":2544511.3500000001,"ADDRESS":"忠義街６０巷２０號","OBJECTID":274118},"geometry":{"x":171781.94000000041,"y":2544511.3500000015}},{"attributes":{"ID":274124,"DIS_CODE":0,"TOWNNAME":"中西區","LI":"西湖里","LIN":"15鄰","STREET":"湖美一街","SECT":" ","MAREA":" ","LANE":"１０９巷","ALLEY":" ","HOUSE_NO":"７號","E_COORD97":166038.48000000001,"N_COORD97":2544788.5699999998,"ADDRESS":"湖美一街１０９巷７號","OBJECTID":274119},"geometry":{"x":166038.48000000045,"y":2544788.5700000022}},{"attributes":{"ID":274125,"DIS_CODE":0,"TOWNNAME":"官田區","LI":"隆本里","LIN":"10鄰","STREET":"中華路","SECT":"二段","MAREA":" ","LANE":" ","ALLEY":" ","HOUSE_NO":"２３號","E_COORD97":179993.85000000001,"N_COORD97":2566530.3900000001,"ADDRESS":"中華路二段２３號","OBJECTID":274120},"geometry":{"x":179993.85000000149,"y":2566530.3900000006}},{"attributes":{"ID":274126,"DIS_CODE":0,"TOWNNAME":"官田區","LI":"隆本里","LIN":"10鄰","STREET":"中華路","SECT":"二段","MAREA":" ","LANE":" ","ALLEY":" ","HOUSE_NO":"２５號","E_COORD97":179959.75,"N_COORD97":2566562.79,"ADDRESS":"中華路二段２５號","OBJECTID":274121},"geometry":{"x":179959.75000000093,"y":2566562.7899999991}},{"attributes":{"ID":274127,"DIS_CODE":0,"TOWNNAME":"官田區","LI":"隆本里","LIN":"4鄰","STREET":"中華路","SECT":"二段","MAREA":" ","LANE":" ","ALLEY":" ","HOUSE_NO":"６０號","E_COORD97":180139.01999999999,"N_COORD97":2566427.7999999998,"ADDRESS":"中華路二段６０號","OBJECTID":274122},"geometry":{"x":180139.02000000048,"y":2566427.8000000026}},{"attributes":{"ID":274128,"DIS_CODE":0,"TOWNNAME":"官田區","LI":"隆本里","LIN":"4鄰","STREET":"中華路","SECT":"二段","MAREA":" ","LANE":" ","ALLEY":" ","HOUSE_NO":"６２號","E_COORD97":180136.60999999999,"N_COORD97":2566437.02,"ADDRESS":"中華路二段６２號","OBJECTID":274123},"geometry":{"x":180136.61000000034,"y":2566437.0199999996}},{"attributes":{"ID":274129,"DIS_CODE":0,"TOWNNAME":"官田區","LI":"隆本里","LIN":"4鄰","STREET":"中華路","SECT":"二段","MAREA":" ","LANE":" ","ALLEY":" ","HOUSE_NO":"７０號","E_COORD97":180122.32000000001,"N_COORD97":2566453.9199999999,"ADDRESS":"中華路二段７０號","OBJECTID":274124},"geometry":{"x":180122.32000000123,"y":2566453.9199999999}},{"attributes":{"ID":274130,"DIS_CODE":0,"TOWNNAME":"官田區","LI":"隆本里","LIN":"4鄰","STREET":"中華路","SECT":"二段","MAREA":" ","LANE":" ","ALLEY":" ","HOUSE_NO":"７２號","E_COORD97":180118.01999999999,"N_COORD97":2566458.3700000001,"ADDRESS":"中華路二段７２號","OBJECTID":274125},"geometry":{"x":180118.02000000142,"y":2566458.3700000029}},{"attributes":{"ID":274131,"DIS_CODE":0,"TOWNNAME":"官田區","LI":"隆本里","LIN":"4鄰","STREET":"中華路","SECT":"二段","MAREA":" ","LANE":" ","ALLEY":" ","HOUSE_NO":"７６號","E_COORD97":180115.94,"N_COORD97":2566461.75,"ADDRESS":"中華路二段７６號","OBJECTID":274126},"geometry":{"x":180115.93999999948,"y":2566461.7500000019}},{"attributes":{"ID":274132,"DIS_CODE":0,"TOWNNAME":"官田區","LI":"隆本里","LIN":"4鄰","STREET":"中華路","SECT":"二段","MAREA":" ","LANE":" ","ALLEY":" ","HOUSE_NO":"７８號","E_COORD97":180112.85000000001,"N_COORD97":2566467.0600000001,"ADDRESS":"中華路二段７８號","OBJECTID":274127},"geometry":{"x":180112.85000000056,"y":2566467.0600000005}},{"attributes":{"ID":274133,"DIS_CODE":0,"TOWNNAME":"官田區","LI":"隆本里","LIN":"4鄰","STREET":"中華路","SECT":"二段","MAREA":" ","LANE":" ","ALLEY":" ","HOUSE_NO":"８０號","E_COORD97":180110.73000000001,"N_COORD97":2566471.2200000002,"ADDRESS":"中華路二段８０號","OBJECTID":274128},"geometry":{"x":180110.73000000231,"y":2566471.2200000044}},{"attributes":{"ID":274134,"DIS_CODE":0,"TOWNNAME":"官田區","LI":"隆本里","LIN":"4鄰","STREET":"中華路","SECT":"二段","MAREA":" ","LANE":" ","ALLEY":" ","HOUSE_NO":"８２號","E_COORD97":180108.53,"N_COORD97":2566474.5099999998,"ADDRESS":"中華路二段８２號","OBJECTID":274129},"geometry":{"x":180108.53000000212,"y":2566474.5099999998}},{"attributes":{"ID":274135,"DIS_CODE":0,"TOWNNAME":"官田區","LI":"隆本里","LIN":"4鄰","STREET":"中華路","SECT":"二段","MAREA":" ","LANE":" ","ALLEY":" ","HOUSE_NO":"８６號","E_COORD97":180103.42000000001,"N_COORD97":2566479.7000000002,"ADDRESS":"中華路二段８６號","OBJECTID":274130},"geometry":{"x":180103.41999999993,"y":2566479.6999999974}},{"attributes":{"ID":274136,"DIS_CODE":0,"TOWNNAME":"官田區","LI":"隆本里","LIN":"4鄰","STREET":"中華路","SECT":"二段","MAREA":" ","LANE":" ","ALLEY":" ","HOUSE_NO":"８８號","E_COORD97":180100.87,"N_COORD97":2566486.79,"ADDRESS":"中華路二段８８號","OBJECTID":274131},"geometry":{"x":180100.86999999918,"y":2566486.790000001}},{"attributes":{"ID":274137,"DIS_CODE":0,"TOWNNAME":"官田區","LI":"隆本里","LIN":"4鄰","STREET":"中華路","SECT":"二段","MAREA":" ","LANE":" ","ALLEY":" ","HOUSE_NO":"９０號","E_COORD97":180097.60000000001,"N_COORD97":2566493.6699999999,"ADDRESS":"中華路二段９０號","OBJECTID":274132},"geometry":{"x":180097.60000000056,"y":2566493.6699999999}},{"attributes":{"ID":274138,"DIS_CODE":0,"TOWNNAME":"官田區","LI":"隆本里","LIN":"4鄰","STREET":"中華路","SECT":"二段","MAREA":" ","LANE":" ","ALLEY":" ","HOUSE_NO":"９８號","E_COORD97":180078.89999999999,"N_COORD97":2566509.29,"ADDRESS":"中華路二段９８號","OBJECTID":274133},"geometry":{"x":180078.89999999944,"y":2566509.2899999991}},{"attributes":{"ID":274139,"DIS_CODE":0,"TOWNNAME":"官田區","LI":"隆田里","LIN":"19鄰","STREET":"中興路","SECT":" ","MAREA":" ","LANE":" ","ALLEY":" ","HOUSE_NO":"１０號","E_COORD97":180416.19,"N_COORD97":2565860.9300000002,"ADDRESS":"中興路１０號","OBJECTID":274134},"geometry":{"x":180416.19000000227,"y":2565860.9299999997}},{"attributes":{"ID":274140,"DIS_CODE":0,"TOWNNAME":"官田區","LI":"隆田里","LIN":"19鄰","STREET":"中興路","SECT":" ","MAREA":" ","LANE":" ","ALLEY":" ","HOUSE_NO":"１２號","E_COORD97":180414.51000000001,"N_COORD97":2565840.4100000001,"ADDRESS":"中興路１２號","OBJECTID":274135},"geometry":{"x":180414.50999999978,"y":2565840.4100000001}},{"attributes":{"ID":274141,"DIS_CODE":0,"TOWNNAME":"官田區","LI":"隆田里","LIN":"12鄰","STREET":"文化街","SECT":" ","MAREA":" ","LANE":" ","ALLEY":" ","HOUSE_NO":"７４號","E_COORD97":180197.62,"N_COORD97":2565987.0099999998,"ADDRESS":"文化街７４號","OBJECTID":274136},"geometry":{"x":180197.62000000197,"y":2565987.0100000035}},{"attributes":{"ID":274142,"DIS_CODE":0,"TOWNNAME":"官田區","LI":"隆本里","LIN":"24鄰","STREET":"仁愛街","SECT":" ","MAREA":" ","LANE":" ","ALLEY":" ","HOUSE_NO":"１００號","E_COORD97":179864.45000000001,"N_COORD97":2566051.1000000001,"ADDRESS":"仁愛街１００號","OBJECTID":274137},"geometry":{"x":179864.45000000019,"y":2566051.1000000015}},{"attributes":{"ID":274143,"DIS_CODE":0,"TOWNNAME":"永康區","LI":"網寮里","LIN":"3鄰","STREET":"永和街","SECT":" ","MAREA":" ","LANE":" ","ALLEY":" ","HOUSE_NO":"１８１號","E_COORD97":173492.20000000001,"N_COORD97":2546495.6200000001,"ADDRESS":"永和街１８１號","OBJECTID":274138},"geometry":{"x":173492.20000000019,"y":2546495.620000001}},{"attributes":{"ID":274144,"DIS_CODE":0,"TOWNNAME":"永康區","LI":"網寮里","LIN":"3鄰","STREET":"永和街","SECT":" ","MAREA":" ","LANE":" ","ALLEY":" ","HOUSE_NO":"１８３號","E_COORD97":173487.44,"N_COORD97":2546499.5699999998,"ADDRESS":"永和街１８３號","OBJECTID":274139},"geometry":{"x":173487.44000000041,"y":2546499.5700000022}},{"attributes":{"ID":274145,"DIS_CODE":0,"TOWNNAME":"仁德區","LI":"後壁里","LIN":"3鄰","STREET":"德善路","SECT":" ","MAREA":" ","LANE":" ","ALLEY":" ","HOUSE_NO":"２７號","E_COORD97":173289.56,"N_COORD97":2538926.0099999998,"ADDRESS":"德善路２７號","OBJECTID":274140},"geometry":{"x":173289.56000000145,"y":2538926.0100000016}},{"attributes":{"ID":274146,"DIS_CODE":0,"TOWNNAME":"中西區","LI":"西湖里","LIN":"15鄰","STREET":"湖美一街","SECT":" ","MAREA":" ","LANE":"１０９巷","ALLEY":" ","HOUSE_NO":"８號","E_COORD97":166037.26000000001,"N_COORD97":2544816.7599999998,"ADDRESS":"湖美一街１０９巷８號","OBJECTID":274141},"geometry":{"x":166037.25999999978,"y":2544816.7600000016}},{"attributes":{"ID":274147,"DIS_CODE":0,"TOWNNAME":"中西區","LI":"西湖里","LIN":"15鄰","STREET":"湖美一街","SECT":" ","MAREA":" ","LANE":"１０９巷","ALLEY":" ","HOUSE_NO":"９號","E_COORD97":166033.85999999999,"N_COORD97":2544788.3300000001,"ADDRESS":"湖美一街１０９巷９號","OBJECTID":274142},"geometry":{"x":166033.86000000034,"y":2544788.3300000038}},{"attributes":{"ID":274148,"DIS_CODE":0,"TOWNNAME":"中西區","LI":"西湖里","LIN":"15鄰","STREET":"湖美一街","SECT":" ","MAREA":" ","LANE":"９６巷","ALLEY":" ","HOUSE_NO":"１１號","E_COORD97":166092.01000000001,"N_COORD97":2544789.8799999999,"ADDRESS":"湖美一街９６巷１１號","OBJECTID":274143},"geometry":{"x":166092.00999999978,"y":2544789.879999999}},{"attributes":{"ID":274149,"DIS_CODE":0,"TOWNNAME":"仁德區","LI":"保安里","LIN":"15鄰","STREET":"文賢路","SECT":"二段","MAREA":" ","LANE":"３６巷","ALLEY":" ","HOUSE_NO":"６號","E_COORD97":171720.48000000001,"N_COORD97":2535778.3300000001,"ADDRESS":"文賢路二段３６巷６號","OBJECTID":274144},"geometry":{"x":171720.48000000045,"y":2535778.3300000019}},{"attributes":{"ID":274150,"DIS_CODE":0,"TOWNNAME":"白河區","LI":"崎內里","LIN":"3鄰","STREET":" ","SECT":" ","MAREA":"內崎內","LANE":" ","ALLEY":" ","HOUSE_NO":"１９號","E_COORD97":195647.07999999999,"N_COORD97":2586794.6499999999,"ADDRESS":"內崎內１９號","OBJECTID":274145},"geometry":{"x":195647.08000000007,"y":2586794.6500000022}},{"attributes":{"ID":274151,"DIS_CODE":0,"TOWNNAME":"新市區","LI":"豐華里","LIN":"3鄰","STREET":" ","SECT":" ","MAREA":"豐華","LANE":" ","ALLEY":" ","HOUSE_NO":"２２之６號","E_COORD97":173817.29000000001,"N_COORD97":2554225.3999999999,"ADDRESS":"豐華２２之６號","OBJECTID":274146},"geometry":{"x":173817.28999999911,"y":2554225.4000000004}},{"attributes":{"ID":274152,"DIS_CODE":0,"TOWNNAME":"新市區","LI":"豐華里","LIN":"3鄰","STREET":" ","SECT":" ","MAREA":"豐華","LANE":" ","ALLEY":" ","HOUSE_NO":"２２之７號","E_COORD97":173817.75,"N_COORD97":2554220.4500000002,"ADDRESS":"豐華２２之７號","OBJECTID":274147},"geometry":{"x":173817.75000000093,"y":2554220.4499999993}},{"attributes":{"ID":274153,"DIS_CODE":0,"TOWNNAME":"仁德區","LI":"保安里","LIN":"15鄰","STREET":"文賢路","SECT":"二段","MAREA":" ","LANE":"１８巷","ALLEY":" ","HOUSE_NO":"３號","E_COORD97":171699.91,"N_COORD97":2535802.3199999998,"ADDRESS":"文賢路二段１８巷３號","OBJECTID":274148},"geometry":{"x":171699.91000000108,"y":2535802.3200000022}},{"attributes":{"ID":274154,"DIS_CODE":0,"TOWNNAME":"安南區","LI":"溪東里","LIN":"15鄰","STREET":"府安路","SECT":"五段","MAREA":" ","LANE":"１１巷","ALLEY":" ","HOUSE_NO":"１１０號","E_COORD97":168458.03,"N_COORD97":2547494.8999999999,"ADDRESS":"府安路五段１１巷１１０號","OBJECTID":274149},"geometry":{"x":168458.03000000119,"y":2547494.9000000022}},{"attributes":{"ID":274155,"DIS_CODE":0,"TOWNNAME":"安南區","LI":"淵西里","LIN":"15鄰","STREET":"安中路","SECT":"四段","MAREA":" ","LANE":"２９０巷","ALLEY":" ","HOUSE_NO":"３７５號","E_COORD97":165277.73000000001,"N_COORD97":2550414.7200000002,"ADDRESS":"安中路四段２９０巷３７５號","OBJECTID":274150},"geometry":{"x":165277.72999999952,"y":2550414.7200000025}},{"attributes":{"ID":274156,"DIS_CODE":0,"TOWNNAME":"安南區","LI":"安富里","LIN":"15鄰","STREET":"海佃路","SECT":"一段","MAREA":" ","LANE":"１５８巷","ALLEY":" ","HOUSE_NO":"１２３號","E_COORD97":167499.17000000001,"N_COORD97":2547265.1000000001,"ADDRESS":"海佃路一段１５８巷１２３號","OBJECTID":274151},"geometry":{"x":167499.17000000086,"y":2547265.1000000015}},{"attributes":{"ID":274157,"DIS_CODE":0,"TOWNNAME":"東區","LI":"莊敬里","LIN":"15鄰","STREET":"東光路","SECT":"二段","MAREA":" ","LANE":"５５巷","ALLEY":" ","HOUSE_NO":"２２號","E_COORD97":171143.51999999999,"N_COORD97":2544106.4399999999,"ADDRESS":"東光路二段５５巷２２號","OBJECTID":274152},"geometry":{"x":171143.51999999955,"y":2544106.4400000013}},{"attributes":{"ID":274158,"DIS_CODE":0,"TOWNNAME":"東區","LI":"東明里","LIN":"15鄰","STREET":"東安路","SECT":" ","MAREA":" ","LANE":"７６巷","ALLEY":" ","HOUSE_NO":"１３號","E_COORD97":170742.82999999999,"N_COORD97":2543687.5,"ADDRESS":"東安路７６巷１３號","OBJECTID":274153},"geometry":{"x":170742.83000000101,"y":2543687.5}},{"attributes":{"ID":274159,"DIS_CODE":0,"TOWNNAME":"東區","LI":"東明里","LIN":"15鄰","STREET":"東安路","SECT":" ","MAREA":" ","LANE":"７６巷","ALLEY":" ","HOUSE_NO":"１５號","E_COORD97":170742,"N_COORD97":2543678.23,"ADDRESS":"東安路７６巷１５號","OBJECTID":274154},"geometry":{"x":170742,"y":2543678.2300000023}},{"attributes":{"ID":274160,"DIS_CODE":0,"TOWNNAME":"東區","LI":"東明里","LIN":"15鄰","STREET":"東安路","SECT":" ","MAREA":" ","LANE":"７６巷","ALLEY":" ","HOUSE_NO":"１９號","E_COORD97":170762.20999999999,"N_COORD97":2543684.9199999999,"ADDRESS":"東安路７６巷１９號","OBJECTID":274155},"geometry":{"x":170762.21000000089,"y":2543684.9199999999}},{"attributes":{"ID":274161,"DIS_CODE":0,"TOWNNAME":"東區","LI":"東明里","LIN":"15鄰","STREET":"東安路","SECT":" ","MAREA":" ","LANE":"７６巷","ALLEY":" ","HOUSE_NO":"２１號","E_COORD97":170764.56,"N_COORD97":2543693.1400000001,"ADDRESS":"東安路７６巷２１號","OBJECTID":274156},"geometry":{"x":170764.56000000052,"y":2543693.1400000025}},{"attributes":{"ID":274162,"DIS_CODE":0,"TOWNNAME":"東區","LI":"東明里","LIN":"15鄰","STREET":"東安路","SECT":" ","MAREA":" ","LANE":"７６巷","ALLEY":" ","HOUSE_NO":"９號","E_COORD97":170745.53,"N_COORD97":2543706.6400000001,"ADDRESS":"東安路７６巷９號","OBJECTID":274157},"geometry":{"x":170745.53000000026,"y":2543706.6400000025}},{"attributes":{"ID":274163,"DIS_CODE":0,"TOWNNAME":"中西區","LI":"協進里","LIN":"3鄰","STREET":"濟生街","SECT":" ","MAREA":" ","LANE":" ","ALLEY":" ","HOUSE_NO":"２８號","E_COORD97":167097.20999999999,"N_COORD97":2544266.1200000001,"ADDRESS":"濟生街２８號","OBJECTID":274158},"geometry":{"x":167097.21000000089,"y":2544266.1200000029}},{"attributes":{"ID":274164,"DIS_CODE":0,"TOWNNAME":"中西區","LI":"協進里","LIN":"3鄰","STREET":"西寧街","SECT":" ","MAREA":" ","LANE":" ","ALLEY":" ","HOUSE_NO":"１６號","E_COORD97":167156.54999999999,"N_COORD97":2544212.6000000001,"ADDRESS":"西寧街１６號","OBJECTID":274159},"geometry":{"x":167156.54999999888,"y":2544212.5999999996}},{"attributes":{"ID":274165,"DIS_CODE":0,"TOWNNAME":"中西區","LI":"協進里","LIN":"3鄰","STREET":"民權路","SECT":"三段","MAREA":" ","LANE":" ","ALLEY":" ","HOUSE_NO":"３０７號","E_COORD97":167095.60000000001,"N_COORD97":2544279.9500000002,"ADDRESS":"民權路三段３０７號","OBJECTID":274160},"geometry":{"x":167095.60000000056,"y":2544279.9499999993}},{"attributes":{"ID":274166,"DIS_CODE":0,"TOWNNAME":"安南區","LI":"淵西里","LIN":"15鄰","STREET":"本原街","SECT":"三段","MAREA":" ","LANE":"２３４巷","ALLEY":" ","HOUSE_NO":"１３９號","E_COORD97":165175.23000000001,"N_COORD97":2550658.0899999999,"ADDRESS":"本原街三段２３４巷１３９號","OBJECTID":274161},"geometry":{"x":165175.23000000138,"y":2550658.0899999999}},{"attributes":{"ID":274167,"DIS_CODE":0,"TOWNNAME":"安南區","LI":"淵西里","LIN":"15鄰","STREET":"本原街","SECT":"三段","MAREA":" ","LANE":"２３４巷","ALLEY":" ","HOUSE_NO":"５５號","E_COORD97":165285.64000000001,"N_COORD97":2550431.6499999999,"ADDRESS":"本原街三段２３４巷５５號","OBJECTID":274162},"geometry":{"x":165285.63999999966,"y":2550431.6500000041}},{"attributes":{"ID":274168,"DIS_CODE":0,"TOWNNAME":"安南區","LI":"淵西里","LIN":"15鄰","STREET":"本原街","SECT":"三段","MAREA":" ","LANE":"２３４巷","ALLEY":" ","HOUSE_NO":"５７號","E_COORD97":165283.14999999999,"N_COORD97":2550435.9399999999,"ADDRESS":"本原街三段２３４巷５７號","OBJECTID":274163},"geometry":{"x":165283.15000000037,"y":2550435.9400000013}},{"attributes":{"ID":274169,"DIS_CODE":0,"TOWNNAME":"安南區","LI":"淵西里","LIN":"15鄰","STREET":"本原街","SECT":"三段","MAREA":" ","LANE":"２３４巷","ALLEY":" ","HOUSE_NO":"５９號","E_COORD97":165280.89000000001,"N_COORD97":2550440.4500000002,"ADDRESS":"本原街三段２３４巷５９號","OBJECTID":274164},"geometry":{"x":165280.88999999873,"y":2550440.4499999993}},{"attributes":{"ID":274170,"DIS_CODE":0,"TOWNNAME":"安南區","LI":"淵西里","LIN":"15鄰","STREET":"本原街","SECT":"三段","MAREA":" ","LANE":"２３４巷","ALLEY":" ","HOUSE_NO":"６１號","E_COORD97":165278.63,"N_COORD97":2550445.1899999999,"ADDRESS":"本原街三段２３４巷６１號","OBJECTID":274165},"geometry":{"x":165278.63000000082,"y":2550445.1900000013}},{"attributes":{"ID":274171,"DIS_CODE":0,"TOWNNAME":"安南區","LI":"淵西里","LIN":"15鄰","STREET":"本原街","SECT":"三段","MAREA":" ","LANE":"２３４巷","ALLEY":" ","HOUSE_NO":"６７號","E_COORD97":165273.20999999999,"N_COORD97":2550455.1299999999,"ADDRESS":"本原街三段２３４巷６７號","OBJECTID":274166},"geometry":{"x":165273.21000000089,"y":2550455.1300000008}},{"attributes":{"ID":274172,"DIS_CODE":0,"TOWNNAME":"安南區","LI":"淵西里","LIN":"15鄰","STREET":"本原街","SECT":"三段","MAREA":" ","LANE":"２３４巷","ALLEY":" ","HOUSE_NO":"７７號","E_COORD97":165260.10000000001,"N_COORD97":2550455.1299999999,"ADDRESS":"本原街三段２３４巷７７號","OBJECTID":274167},"geometry":{"x":165260.09999999963,"y":2550455.1300000008}},{"attributes":{"ID":274173,"DIS_CODE":0,"TOWNNAME":"安南區","LI":"淵西里","LIN":"15鄰","STREET":"本原街","SECT":"三段","MAREA":" ","LANE":"２３４巷","ALLEY":" ","HOUSE_NO":"８１號","E_COORD97":165233.42999999999,"N_COORD97":2550507.7200000002,"ADDRESS":"本原街三段２３４巷８１號","OBJECTID":274168},"geometry":{"x":165233.43000000156,"y":2550507.7200000007}},{"attributes":{"ID":274174,"DIS_CODE":0,"TOWNNAME":"安南區","LI":"淵西里","LIN":"15鄰","STREET":"本原街","SECT":"三段","MAREA":" ","LANE":"２３４巷","ALLEY":" ","HOUSE_NO":"９９號","E_COORD97":165252.87,"N_COORD97":2550497.79,"ADDRESS":"本原街三段２３４巷９９號","OBJECTID":274169},"geometry":{"x":165252.87000000197,"y":2550497.790000001}},{"attributes":{"ID":274175,"DIS_CODE":0,"TOWNNAME":"安南區","LI":"淵西里","LIN":"15鄰","STREET":"安中路","SECT":"四段","MAREA":" ","LANE":"２９０巷","ALLEY":" ","HOUSE_NO":"３５３號","E_COORD97":165232.48999999999,"N_COORD97":2550394.75,"ADDRESS":"安中路四段２９０巷３５３號","OBJECTID":274170},"geometry":{"x":165232.49000000115,"y":2550394.7500000019}},{"attributes":{"ID":274176,"DIS_CODE":0,"TOWNNAME":"安南區","LI":"淵西里","LIN":"15鄰","STREET":"安中路","SECT":"四段","MAREA":" ","LANE":"２９０巷","ALLEY":" ","HOUSE_NO":"３５５號","E_COORD97":165236.69,"N_COORD97":2550396.23,"ADDRESS":"安中路四段２９０巷３５５號","OBJECTID":274171},"geometry":{"x":165236.69000000041,"y":2550396.2300000004}},{"attributes":{"ID":274177,"DIS_CODE":0,"TOWNNAME":"安南區","LI":"淵西里","LIN":"15鄰","STREET":"安中路","SECT":"四段","MAREA":" ","LANE":"２９０巷","ALLEY":" ","HOUSE_NO":"３５７號","E_COORD97":165240.53,"N_COORD97":2550397.96,"ADDRESS":"安中路四段２９０巷３５７號","OBJECTID":274172},"geometry":{"x":165240.53000000119,"y":2550397.9600000009}},{"attributes":{"ID":274178,"DIS_CODE":0,"TOWNNAME":"安南區","LI":"淵西里","LIN":"15鄰","STREET":"安中路","SECT":"四段","MAREA":" ","LANE":"２９０巷","ALLEY":" ","HOUSE_NO":"３５９號","E_COORD97":165244.73000000001,"N_COORD97":2550399.5699999998,"ADDRESS":"安中路四段２９０巷３５９號","OBJECTID":274173},"geometry":{"x":165244.73000000138,"y":2550399.5700000022}},{"attributes":{"ID":274179,"DIS_CODE":0,"TOWNNAME":"安南區","LI":"淵西里","LIN":"15鄰","STREET":"安中路","SECT":"四段","MAREA":" ","LANE":"２９０巷","ALLEY":" ","HOUSE_NO":"３６１號","E_COORD97":165248.19,"N_COORD97":2550402.04,"ADDRESS":"安中路四段２９０巷３６１號","OBJECTID":274174},"geometry":{"x":165248.19000000134,"y":2550402.0399999991}},{"attributes":{"ID":274180,"DIS_CODE":0,"TOWNNAME":"中西區","LI":"民權里","LIN":"3鄰","STREET":"民生路","SECT":"二段","MAREA":" ","LANE":"１４４巷","ALLEY":" ","HOUSE_NO":"１８號","E_COORD97":167511.24630100001,"N_COORD97":2544097.1321,"ADDRESS":"民生路二段１４４巷１８號","OBJECTID":274175},"geometry":{"x":167511.24630100001,"y":2544097.1320980042}},{"attributes":{"ID":274181,"DIS_CODE":0,"TOWNNAME":"中西區","LI":"協進里","LIN":"3鄰","STREET":"西寧街","SECT":" ","MAREA":" ","LANE":" ","ALLEY":" ","HOUSE_NO":"１０號","E_COORD97":167170.26000000001,"N_COORD97":2544210.3700000001,"ADDRESS":"西寧街１０號","OBJECTID":274176},"geometry":{"x":167170.25999999978,"y":2544210.3700000029}},{"attributes":{"ID":274182,"DIS_CODE":0,"TOWNNAME":"東區","LI":"自強里","LIN":"3鄰","STREET":"東門路","SECT":"三段","MAREA":" ","LANE":" ","ALLEY":" ","HOUSE_NO":"７３號","E_COORD97":171216.17999999999,"N_COORD97":2542258.9500000002,"ADDRESS":"東門路三段７３號","OBJECTID":274177},"geometry":{"x":171216.18000000063,"y":2542258.9500000011}},{"attributes":{"ID":274183,"DIS_CODE":0,"TOWNNAME":"東區","LI":"中西里","LIN":"3鄰","STREET":"東門路","SECT":"一段","MAREA":" ","LANE":" ","ALLEY":" ","HOUSE_NO":"２５３號","E_COORD97":169813.26999999999,"N_COORD97":2543081.6800000002,"ADDRESS":"東門路一段２５３號","OBJECTID":274178},"geometry":{"x":169813.27000000048,"y":2543081.6800000016}},{"attributes":{"ID":274184,"DIS_CODE":0,"TOWNNAME":"中西區","LI":"永福里","LIN":"3鄰","STREET":"永福路","SECT":"二段","MAREA":" ","LANE":" ","ALLEY":" ","HOUSE_NO":"４０號","E_COORD97":168060.95999999999,"N_COORD97":2543570.5600000001,"ADDRESS":"永福路二段４０號","OBJECTID":274179},"geometry":{"x":168060.96000000183,"y":2543570.5600000024}},{"attributes":{"ID":274185,"DIS_CODE":0,"TOWNNAME":"永康區","LI":"新樹里","LIN":"3鄰","STREET":"富強路","SECT":"二段","MAREA":" ","LANE":" ","ALLEY":" ","HOUSE_NO":"４１３號","E_COORD97":175574.48999999999,"N_COORD97":2547771.0800000001,"ADDRESS":"富強路二段４１３號","OBJECTID":274180},"geometry":{"x":175574.49000000115,"y":2547771.0800000019}},{"attributes":{"ID":274186,"DIS_CODE":0,"TOWNNAME":"中西區","LI":"永福里","LIN":"3鄰","STREET":"永福路","SECT":"二段","MAREA":" ","LANE":" ","ALLEY":" ","HOUSE_NO":"４２號","E_COORD97":168061.82999999999,"N_COORD97":2543574.48,"ADDRESS":"永福路二段４２號","OBJECTID":274181},"geometry":{"x":168061.83000000007,"y":2543574.4800000023}},{"attributes":{"ID":274187,"DIS_CODE":0,"TOWNNAME":"中西區","LI":"永福里","LIN":"3鄰","STREET":"永福路","SECT":"二段","MAREA":" ","LANE":" ","ALLEY":" ","HOUSE_NO":"４６號","E_COORD97":168063.47,"N_COORD97":2543579.29,"ADDRESS":"永福路二段４６號","OBJECTID":274182},"geometry":{"x":168063.46999999974,"y":2543579.2899999991}},{"attributes":{"ID":274188,"DIS_CODE":0,"TOWNNAME":"安南區","LI":"淵西里","LIN":"15鄰","STREET":"安中路","SECT":"四段","MAREA":" ","LANE":"２９０巷","ALLEY":" ","HOUSE_NO":"３６３號","E_COORD97":165251.73999999999,"N_COORD97":2550403.4300000002,"ADDRESS":"安中路四段２９０巷３６３號","OBJECTID":274183},"geometry":{"x":165251.74000000022,"y":2550403.4299999997}},{"attributes":{"ID":274189,"DIS_CODE":0,"TOWNNAME":"安南區","LI":"淵西里","LIN":"15鄰","STREET":"安中路","SECT":"四段","MAREA":" ","LANE":"２９０巷","ALLEY":" ","HOUSE_NO":"３６５號","E_COORD97":165256.26000000001,"N_COORD97":2550405.0099999998,"ADDRESS":"安中路四段２９０巷３６５號","OBJECTID":274184},"geometry":{"x":165256.25999999978,"y":2550405.0100000016}},{"attributes":{"ID":274190,"DIS_CODE":0,"TOWNNAME":"安南區","LI":"淵西里","LIN":"15鄰","STREET":"安中路","SECT":"四段","MAREA":" ","LANE":"２９０巷","ALLEY":" ","HOUSE_NO":"３６７號","E_COORD97":165261.91,"N_COORD97":2550407.04,"ADDRESS":"安中路四段２９０巷３６７號","OBJECTID":274185},"geometry":{"x":165261.91000000015,"y":2550407.0400000028}},{"attributes":{"ID":274191,"DIS_CODE":0,"TOWNNAME":"安南區","LI":"淵西里","LIN":"15鄰","STREET":"安中路","SECT":"四段","MAREA":" ","LANE":"２９０巷","ALLEY":" ","HOUSE_NO":"３６９號","E_COORD97":165265.51999999999,"N_COORD97":2550408.6200000001,"ADDRESS":"安中路四段２９０巷３６９號","OBJECTID":274186},"geometry":{"x":165265.52000000048,"y":2550408.6200000048}},{"attributes":{"ID":274192,"DIS_CODE":0,"TOWNNAME":"安南區","LI":"淵西里","LIN":"15鄰","STREET":"安中路","SECT":"四段","MAREA":" ","LANE":"２９０巷","ALLEY":" ","HOUSE_NO":"３７１號","E_COORD97":165269.37,"N_COORD97":2550411.1099999999,"ADDRESS":"安中路四段２９０巷３７１號","OBJECTID":274187},"geometry":{"x":165269.37000000011,"y":2550411.1100000013}},{"attributes":{"ID":274193,"DIS_CODE":0,"TOWNNAME":"安南區","LI":"淵西里","LIN":"15鄰","STREET":"安中路","SECT":"四段","MAREA":" ","LANE":"２９０巷","ALLEY":" ","HOUSE_NO":"３７３號","E_COORD97":165273.66,"N_COORD97":2550412.46,"ADDRESS":"安中路四段２９０巷３７３號","OBJECTID":274188},"geometry":{"x":165273.66000000108,"y":2550412.4600000009}},{"attributes":{"ID":274194,"DIS_CODE":0,"TOWNNAME":"安南區","LI":"溪心里","LIN":"15鄰","STREET":"功安三街","SECT":" ","MAREA":" ","LANE":"１７５巷","ALLEY":" ","HOUSE_NO":"１號","E_COORD97":165991.14000000001,"N_COORD97":2550306.0899999999,"ADDRESS":"功安三街１７５巷１號","OBJECTID":274189},"geometry":{"x":165991.13999999966,"y":2550306.0900000036}},{"attributes":{"ID":274195,"DIS_CODE":0,"TOWNNAME":"安南區","LI":"溪心里","LIN":"15鄰","STREET":"功安三街","SECT":" ","MAREA":" ","LANE":"１７５巷","ALLEY":" ","HOUSE_NO":"２號","E_COORD97":165982.03,"N_COORD97":2550317.9100000001,"ADDRESS":"功安三街１７５巷２號","OBJECTID":274190},"geometry":{"x":165982.03000000026,"y":2550317.910000002}},{"attributes":{"ID":274196,"DIS_CODE":0,"TOWNNAME":"安南區","LI":"溪心里","LIN":"15鄰","STREET":"功安三街","SECT":" ","MAREA":" ","LANE":"１７５巷","ALLEY":" ","HOUSE_NO":"３號","E_COORD97":165987.47,"N_COORD97":2550303.7799999998,"ADDRESS":"功安三街１７５巷３號","OBJECTID":274191},"geometry":{"x":165987.4700000016,"y":2550303.7799999975}},{"attributes":{"ID":274197,"DIS_CODE":0,"TOWNNAME":"安南區","LI":"溪心里","LIN":"15鄰","STREET":"功安三街","SECT":" ","MAREA":" ","LANE":"１７５巷","ALLEY":" ","HOUSE_NO":"５號","E_COORD97":165983.12,"N_COORD97":2550300.52,"ADDRESS":"功安三街１７５巷５號","OBJECTID":274192},"geometry":{"x":165983.12000000011,"y":2550300.5200000014}},{"attributes":{"ID":274198,"DIS_CODE":0,"TOWNNAME":"安南區","LI":"溪心里","LIN":"15鄰","STREET":"功安三街","SECT":" ","MAREA":" ","LANE":"１７５巷","ALLEY":" ","HOUSE_NO":"７號","E_COORD97":165979.31,"N_COORD97":2550297.27,"ADDRESS":"功安三街１７５巷７號","OBJECTID":274193},"geometry":{"x":165979.30999999959,"y":2550297.2699999977}},{"attributes":{"ID":274199,"DIS_CODE":0,"TOWNNAME":"安南區","LI":"溪心里","LIN":"15鄰","STREET":"功安三街","SECT":" ","MAREA":" ","LANE":"１７５巷","ALLEY":" ","HOUSE_NO":"８號","E_COORD97":165974.69,"N_COORD97":2550310.71,"ADDRESS":"功安三街１７５巷８號","OBJECTID":274194},"geometry":{"x":165974.68999999948,"y":2550310.7100000028}},{"attributes":{"ID":274200,"DIS_CODE":0,"TOWNNAME":"中西區","LI":"永福里","LIN":"3鄰","STREET":"永福路","SECT":"二段","MAREA":" ","LANE":" ","ALLEY":" ","HOUSE_NO":"４８號","E_COORD97":168063.89999999999,"N_COORD97":2543584.0800000001,"ADDRESS":"永福路二段４８號","OBJECTID":274195},"geometry":{"x":168063.9000000013,"y":2543584.0800000019}},{"attributes":{"ID":274201,"DIS_CODE":0,"TOWNNAME":"安南區","LI":"溪心里","LIN":"15鄰","STREET":"本原街","SECT":"二段","MAREA":" ","LANE":"５１３巷","ALLEY":" ","HOUSE_NO":"６號","E_COORD97":165912.70999999999,"N_COORD97":2550487.0099999998,"ADDRESS":"本原街二段５１３巷６號","OBJECTID":274196},"geometry":{"x":165912.70999999996,"y":2550487.0100000016}},{"attributes":{"ID":274202,"DIS_CODE":0,"TOWNNAME":"安南區","LI":"溪心里","LIN":"15鄰","STREET":"智安四街","SECT":" ","MAREA":" ","LANE":"１０５巷","ALLEY":" ","HOUSE_NO":"８號","E_COORD97":165986.82000000001,"N_COORD97":2550381.1499999999,"ADDRESS":"智安四街１０５巷８號","OBJECTID":274197},"geometry":{"x":165986.8200000003,"y":2550381.1500000022}},{"attributes":{"ID":274203,"DIS_CODE":0,"TOWNNAME":"善化區","LI":"光文里","LIN":"15鄰","STREET":"樹人路","SECT":" ","MAREA":" ","LANE":"３７巷","ALLEY":" ","HOUSE_NO":"６號","E_COORD97":178340.95999999999,"N_COORD97":2558977,"ADDRESS":"樹人路３７巷６號","OBJECTID":274198},"geometry":{"x":178340.96000000089,"y":2558977.0000000019}},{"attributes":{"ID":274204,"DIS_CODE":0,"TOWNNAME":"永康區","LI":"復興里","LIN":"15鄰","STREET":"復興路","SECT":" ","MAREA":" ","LANE":"３５６巷","ALLEY":" ","HOUSE_NO":"１９號","E_COORD97":172252.37,"N_COORD97":2544391.77,"ADDRESS":"復興路３５６巷１９號","OBJECTID":274199},"geometry":{"x":172252.37000000197,"y":2544391.7700000014}},{"attributes":{"ID":274205,"DIS_CODE":0,"TOWNNAME":"中西區","LI":"永福里","LIN":"3鄰","STREET":"永福路","SECT":"二段","MAREA":" ","LANE":" ","ALLEY":" ","HOUSE_NO":"７０號","E_COORD97":168074.41,"N_COORD97":2543628.3300000001,"ADDRESS":"永福路二段７０號","OBJECTID":274200},"geometry":{"x":168074.41000000015,"y":2543628.3300000001}}]}