{"displayFieldName":"TOWNNAME","fieldAliases":{"ID":"ID","DIS_CODE":"DIS_CODE","TOWNNAME":"TOWNNAME","LI":"LI","LIN":"LIN","STREET":"STREET","SECT":"SECT","MAREA":"MAREA","LANE":"LANE","ALLEY":"ALLEY","HOUSE_NO":"HOUSE_NO","E_COORD97":"E_COORD97","N_COORD97":"N_COORD97","ADDRESS":"ADDRESS","OBJECTID":"OBJECTID"},"geometryType":"esriGeometryPoint","spatialReference":{"wkid":102443,"latestWkid":3826},"fields":[{"name":"ID","type":"esriFieldTypeDouble","alias":"ID"},{"name":"DIS_CODE","type":"esriFieldTypeInteger","alias":"DIS_CODE"},{"name":"TOWNNAME","type":"esriFieldTypeString","alias":"TOWNNAME","length":8},{"name":"LI","type":"esriFieldTypeString","alias":"LI","length":8},{"name":"LIN","type":"esriFieldTypeString","alias":"LIN","length":12},{"name":"STREET","type":"esriFieldTypeString","alias":"STREET","length":20},{"name":"SECT","type":"esriFieldTypeString","alias":"SECT","length":8},{"name":"MAREA","type":"esriFieldTypeString","alias":"MAREA","length":12},{"name":"LANE","type":"esriFieldTypeString","alias":"LANE","length":10},{"name":"ALLEY","type":"esriFieldTypeString","alias":"ALLEY","length":10},{"name":"HOUSE_NO","type":"esriFieldTypeString","alias":"HOUSE_NO","length":20},{"name":"E_COORD97","type":"esriFieldTypeDouble","alias":"E_COORD97"},{"name":"N_COORD97","type":"esriFieldTypeDouble","alias":"N_COORD97"},{"name":"ADDRESS","type":"esriFieldTypeString","alias":"ADDRESS","length":50},{"name":"OBJECTID","type":"esriFieldTypeOID","alias":"OBJECTID"}],"features":[{"attributes":{"ID":304209,"DIS_CODE":0,"TOWNNAME":"北區","LI":"成德里","LIN":"20鄰","STREET":"文成三路","SECT":" ","MAREA":" ","LANE":" ","ALLEY":" ","HOUSE_NO":"２６１號","E_COORD97":168336.67999999999,"N_COORD97":2546311.4399999999,"ADDRESS":"文成三路２６１號","OBJECTID":304201},"geometry":{"x":168336.6799999997,"y":2546311.4399999995}},{"attributes":{"ID":304210,"DIS_CODE":0,"TOWNNAME":"北區","LI":"成德里","LIN":"20鄰","STREET":"文成三路","SECT":" ","MAREA":" ","LANE":" ","ALLEY":" ","HOUSE_NO":"２４１號","E_COORD97":168376.04999999999,"N_COORD97":2546322.79,"ADDRESS":"文成三路２４１號","OBJECTID":304202},"geometry":{"x":168376.05000000075,"y":2546322.7899999991}},{"attributes":{"ID":304211,"DIS_CODE":0,"TOWNNAME":"安平區","LI":"石門里","LIN":"20鄰","STREET":"\u25A0忠街","SECT":" ","MAREA":" ","LANE":" ","ALLEY":" ","HOUSE_NO":"１號","E_COORD97":164402.88,"N_COORD97":2544590.8199999998,"ADDRESS":"\u25A0忠街１號","OBJECTID":304203},"geometry":{"x":164402.87999999989,"y":2544590.8200000003}},{"attributes":{"ID":304212,"DIS_CODE":0,"TOWNNAME":"安平區","LI":"石門里","LIN":"20鄰","STREET":"\u25A0忠街","SECT":" ","MAREA":" ","LANE":" ","ALLEY":" ","HOUSE_NO":"１號之１","E_COORD97":164402,"N_COORD97":2544587.8900000001,"ADDRESS":"\u25A0忠街１號之１","OBJECTID":304204},"geometry":{"x":164402,"y":2544587.8900000006}},{"attributes":{"ID":304213,"DIS_CODE":0,"TOWNNAME":"永康區","LI":"\u25A0洲里","LIN":"5鄰","STREET":"仁愛街","SECT":" ","MAREA":" ","LANE":"１０３巷","ALLEY":" ","HOUSE_NO":"２７號","E_COORD97":171930.66,"N_COORD97":2549520.2799999998,"ADDRESS":"仁愛街１０３巷２７號","OBJECTID":304205},"geometry":{"x":171930.66000000108,"y":2549520.2799999993}},{"attributes":{"ID":304214,"DIS_CODE":0,"TOWNNAME":"永康區","LI":"中華里","LIN":"20鄰","STREET":"小東路","SECT":" ","MAREA":" ","LANE":"４７７巷","ALLEY":" ","HOUSE_NO":"１５號","E_COORD97":171606.23999999999,"N_COORD97":2544417.2000000002,"ADDRESS":"小東路４７７巷１５號","OBJECTID":304206},"geometry":{"x":171606.24000000115,"y":2544417.1999999993}},{"attributes":{"ID":304215,"DIS_CODE":0,"TOWNNAME":"永康區","LI":"\u25A0行里","LIN":"20鄰","STREET":"正南五街","SECT":" ","MAREA":" ","LANE":"２８９巷","ALLEY":" ","HOUSE_NO":"７０號","E_COORD97":171791.54000000001,"N_COORD97":2548320.6000000001,"ADDRESS":"正南五街２８９巷７０號","OBJECTID":304207},"geometry":{"x":171791.53999999911,"y":2548320.5999999996}},{"attributes":{"ID":304216,"DIS_CODE":0,"TOWNNAME":"永康區","LI":"南灣里","LIN":"32鄰","STREET":"大灣一街","SECT":" ","MAREA":" ","LANE":"４５巷","ALLEY":" ","HOUSE_NO":"１號","E_COORD97":174316.01999999999,"N_COORD97":2544829.9500000002,"ADDRESS":"大灣一街４５巷１號","OBJECTID":304208},"geometry":{"x":174316.02000000048,"y":2544829.9499999993}},{"attributes":{"ID":304217,"DIS_CODE":0,"TOWNNAME":"永康區","LI":"蔦松里","LIN":"4鄰","STREET":"蔦松二街","SECT":" ","MAREA":" ","LANE":"１６２巷","ALLEY":" ","HOUSE_NO":"２１號","E_COORD97":173911.91,"N_COORD97":2549370.4900000002,"ADDRESS":"蔦松二街１６２巷２１號","OBJECTID":304209},"geometry":{"x":173911.91000000108,"y":2549370.4900000002}},{"attributes":{"ID":304218,"DIS_CODE":0,"TOWNNAME":"永康區","LI":"二王里","LIN":" ","STREET":"永二街","SECT":" ","MAREA":" ","LANE":"３８３巷","ALLEY":" ","HOUSE_NO":"３７９號","E_COORD97":172950.04000000001,"N_COORD97":2546612.9199999999,"ADDRESS":"永二街３８３巷３７９號","OBJECTID":304210},"geometry":{"x":172950.04000000097,"y":2546612.9200000018}},{"attributes":{"ID":304219,"DIS_CODE":0,"TOWNNAME":"永康區","LI":"東灣里","LIN":" ","STREET":"大灣路","SECT":" ","MAREA":" ","LANE":"４５０巷","ALLEY":" ","HOUSE_NO":"６號","E_COORD97":174740.29000000001,"N_COORD97":2544958.8100000001,"ADDRESS":"大灣路４５０巷６號","OBJECTID":304211},"geometry":{"x":174740.29000000097,"y":2544958.8100000024}},{"attributes":{"ID":304220,"DIS_CODE":0,"TOWNNAME":"永康區","LI":"復華里","LIN":" ","STREET":"復華七街","SECT":" ","MAREA":" ","LANE":"１０６巷","ALLEY":" ","HOUSE_NO":"１９號","E_COORD97":172921.91,"N_COORD97":2546154.5099999998,"ADDRESS":"復華七街１０６巷１９號","OBJECTID":304212},"geometry":{"x":172921.91000000108,"y":2546154.5100000016}},{"attributes":{"ID":304221,"DIS_CODE":0,"TOWNNAME":"北區","LI":"大山里","LIN":"8鄰","STREET":"精忠街","SECT":" ","MAREA":" ","LANE":"１０３巷","ALLEY":" ","HOUSE_NO":"９８號","E_COORD97":169295.60999999999,"N_COORD97":2545415.3100000001,"ADDRESS":"精忠街１０３巷９８號","OBJECTID":304213},"geometry":{"x":169295.61000000034,"y":2545415.3100000005}},{"attributes":{"ID":304222,"DIS_CODE":0,"TOWNNAME":"北區","LI":"大山里","LIN":"8鄰","STREET":"精忠街","SECT":" ","MAREA":" ","LANE":"１０３巷","ALLEY":" ","HOUSE_NO":"２８號","E_COORD97":169298.10000000001,"N_COORD97":2545450.1000000001,"ADDRESS":"精忠街１０３巷２８號","OBJECTID":304214},"geometry":{"x":169298.09999999963,"y":2545450.0999999996}},{"attributes":{"ID":304223,"DIS_CODE":0,"TOWNNAME":"北區","LI":"大山里","LIN":"8鄰","STREET":"精忠街","SECT":" ","MAREA":" ","LANE":"１０３巷","ALLEY":" ","HOUSE_NO":"２８號之１","E_COORD97":169290.56,"N_COORD97":2545457.5499999998,"ADDRESS":"精忠街１０３巷２８號之１","OBJECTID":304215},"geometry":{"x":169290.56000000145,"y":2545457.5500000007}},{"attributes":{"ID":304224,"DIS_CODE":0,"TOWNNAME":"北區","LI":"大山里","LIN":"8鄰","STREET":"精忠街","SECT":" ","MAREA":" ","LANE":"１０３巷","ALLEY":" ","HOUSE_NO":"３０號","E_COORD97":169299.01999999999,"N_COORD97":2545439.6000000001,"ADDRESS":"精忠街１０３巷３０號","OBJECTID":304216},"geometry":{"x":169299.01999999955,"y":2545439.5999999996}},{"attributes":{"ID":304225,"DIS_CODE":0,"TOWNNAME":"北區","LI":"大山里","LIN":"8鄰","STREET":"精忠街","SECT":" ","MAREA":" ","LANE":"１０３巷","ALLEY":" ","HOUSE_NO":"３２號","E_COORD97":169290.19,"N_COORD97":2545427.5099999998,"ADDRESS":"精忠街１０３巷３２號","OBJECTID":304217},"geometry":{"x":169290.19000000041,"y":2545427.5100000035}},{"attributes":{"ID":304226,"DIS_CODE":0,"TOWNNAME":"北區","LI":"大山里","LIN":"8鄰","STREET":"精忠街","SECT":" ","MAREA":" ","LANE":"１０３巷","ALLEY":" ","HOUSE_NO":"３４號","E_COORD97":169284.98999999999,"N_COORD97":2545428.7400000002,"ADDRESS":"精忠街１０３巷３４號","OBJECTID":304218},"geometry":{"x":169284.99000000209,"y":2545428.7400000002}},{"attributes":{"ID":304227,"DIS_CODE":0,"TOWNNAME":"北區","LI":"大山里","LIN":"8鄰","STREET":"精忠街","SECT":" ","MAREA":" ","LANE":"１０３巷","ALLEY":" ","HOUSE_NO":"３８號","E_COORD97":169280.54999999999,"N_COORD97":2545428.9500000002,"ADDRESS":"精忠街１０３巷３８號","OBJECTID":304219},"geometry":{"x":169280.54999999981,"y":2545428.9500000011}},{"attributes":{"ID":304228,"DIS_CODE":0,"TOWNNAME":"北區","LI":"大山里","LIN":"8鄰","STREET":"精忠街","SECT":" ","MAREA":" ","LANE":"１０３巷","ALLEY":" ","HOUSE_NO":"４０號","E_COORD97":169277.13,"N_COORD97":2545429.7000000002,"ADDRESS":"精忠街１０３巷４０號","OBJECTID":304220},"geometry":{"x":169277.13000000082,"y":2545429.7000000011}},{"attributes":{"ID":304229,"DIS_CODE":0,"TOWNNAME":"安平區","LI":"石門里","LIN":"20鄰","STREET":"\u25A0忠街","SECT":" ","MAREA":" ","LANE":" ","ALLEY":" ","HOUSE_NO":"１號之２","E_COORD97":164401.26000000001,"N_COORD97":2544583.6000000001,"ADDRESS":"\u25A0忠街１號之２","OBJECTID":304221},"geometry":{"x":164401.26000000071,"y":2544583.6000000015}},{"attributes":{"ID":304230,"DIS_CODE":0,"TOWNNAME":"安平區","LI":"石門里","LIN":"20鄰","STREET":"\u25A0忠街","SECT":" ","MAREA":" ","LANE":" ","ALLEY":" ","HOUSE_NO":"１號之３","E_COORD97":164399.63,"N_COORD97":2544580.02,"ADDRESS":"\u25A0忠街１號之３","OBJECTID":304222},"geometry":{"x":164399.62999999989,"y":2544580.0200000014}},{"attributes":{"ID":304231,"DIS_CODE":0,"TOWNNAME":"安平區","LI":"石門里","LIN":"20鄰","STREET":"\u25A0忠街","SECT":" ","MAREA":" ","LANE":" ","ALLEY":" ","HOUSE_NO":"１號之８","E_COORD97":164392.92000000001,"N_COORD97":2544562.1600000001,"ADDRESS":"\u25A0忠街１號之８","OBJECTID":304223},"geometry":{"x":164392.92000000179,"y":2544562.1599999983}},{"attributes":{"ID":304232,"DIS_CODE":0,"TOWNNAME":"安平區","LI":"石門里","LIN":"20鄰","STREET":"\u25A0忠街","SECT":" ","MAREA":" ","LANE":" ","ALLEY":" ","HOUSE_NO":"１號之９","E_COORD97":164392.04000000001,"N_COORD97":2544555.4300000002,"ADDRESS":"\u25A0忠街１號之９","OBJECTID":304224},"geometry":{"x":164392.03999999911,"y":2544555.4299999997}},{"attributes":{"ID":304233,"DIS_CODE":0,"TOWNNAME":"安平區","LI":"港仔里","LIN":"1鄰","STREET":"安平路","SECT":" ","MAREA":" ","LANE":" ","ALLEY":" ","HOUSE_NO":"１１號","E_COORD97":164764.62,"N_COORD97":2544388.4399999999,"ADDRESS":"安平路１１號","OBJECTID":304225},"geometry":{"x":164764.62000000197,"y":2544388.4400000013}},{"attributes":{"ID":304234,"DIS_CODE":0,"TOWNNAME":"安平區","LI":"育平里","LIN":"18鄰","STREET":"育平路","SECT":" ","MAREA":" ","LANE":" ","ALLEY":" ","HOUSE_NO":"２１４號","E_COORD97":164617.47,"N_COORD97":2543431.9900000002,"ADDRESS":"育平路２１４號","OBJECTID":304226},"geometry":{"x":164617.46999999974,"y":2543431.9900000021}},{"attributes":{"ID":304235,"DIS_CODE":0,"TOWNNAME":"安平區","LI":"育平里","LIN":"18鄰","STREET":"育平路","SECT":" ","MAREA":" ","LANE":" ","ALLEY":" ","HOUSE_NO":"２１６號","E_COORD97":164619.63,"N_COORD97":2543436.73,"ADDRESS":"育平路２１６號","OBJECTID":304227},"geometry":{"x":164619.62999999989,"y":2543436.7300000042}},{"attributes":{"ID":304236,"DIS_CODE":0,"TOWNNAME":"安平區","LI":"育平里","LIN":"18鄰","STREET":"育平路","SECT":" ","MAREA":" ","LANE":" ","ALLEY":" ","HOUSE_NO":"２１８號","E_COORD97":164621.35999999999,"N_COORD97":2543443.3500000001,"ADDRESS":"育平路２１８號","OBJECTID":304228},"geometry":{"x":164621.36000000127,"y":2543443.3500000015}},{"attributes":{"ID":304237,"DIS_CODE":0,"TOWNNAME":"安平區","LI":"育平里","LIN":"18鄰","STREET":"建平七街","SECT":" ","MAREA":" ","LANE":" ","ALLEY":" ","HOUSE_NO":"６９１號","E_COORD97":164759.92000000001,"N_COORD97":2543427.4199999999,"ADDRESS":"建平七街６９１號","OBJECTID":304229},"geometry":{"x":164759.91999999993,"y":2543427.4199999999}},{"attributes":{"ID":304238,"DIS_CODE":0,"TOWNNAME":"永康區","LI":"\u25A0行里","LIN":"38鄰","STREET":"仁愛街","SECT":" ","MAREA":" ","LANE":"１３８巷","ALLEY":" ","HOUSE_NO":"４０號","E_COORD97":172306.5,"N_COORD97":2549644.7799999998,"ADDRESS":"仁愛街１３８巷４０號","OBJECTID":304230},"geometry":{"x":172306.5,"y":2549644.7799999993}},{"attributes":{"ID":304239,"DIS_CODE":0,"TOWNNAME":"永康區","LI":"龍潭里","LIN":"25鄰","STREET":"龍昌街","SECT":" ","MAREA":" ","LANE":"４５巷","ALLEY":" ","HOUSE_NO":"８號","E_COORD97":174982.26999999999,"N_COORD97":2547864.6400000001,"ADDRESS":"龍昌街４５巷８號","OBJECTID":304231},"geometry":{"x":174982.27000000048,"y":2547864.6400000006}},{"attributes":{"ID":304240,"DIS_CODE":0,"TOWNNAME":"永康區","LI":"中華里","LIN":"25鄰","STREET":"忠義街","SECT":" ","MAREA":" ","LANE":"８１巷","ALLEY":" ","HOUSE_NO":"１號","E_COORD97":171710.66,"N_COORD97":2544651.0600000001,"ADDRESS":"忠義街８１巷１號","OBJECTID":304232},"geometry":{"x":171710.66000000015,"y":2544651.0600000005}},{"attributes":{"ID":304241,"DIS_CODE":0,"TOWNNAME":"永康區","LI":"五王里","LIN":"39鄰","STREET":"中華路","SECT":" ","MAREA":" ","LANE":"５７８巷","ALLEY":" ","HOUSE_NO":"１７號之１００","E_COORD97":171334.87,"N_COORD97":2545989.54,"ADDRESS":"中華路５７８巷１７號之１００","OBJECTID":304233},"geometry":{"x":171334.87000000011,"y":2545989.5400000028}},{"attributes":{"ID":304242,"DIS_CODE":0,"TOWNNAME":"永康區","LI":"勝利里","LIN":"4鄰","STREET":"勝學路","SECT":" ","MAREA":" ","LANE":"８９巷","ALLEY":" ","HOUSE_NO":"３號","E_COORD97":171132.34,"N_COORD97":2544824.25,"ADDRESS":"勝學路８９巷３號","OBJECTID":304234},"geometry":{"x":171132.34000000078,"y":2544824.2500000019}},{"attributes":{"ID":304243,"DIS_CODE":0,"TOWNNAME":"永康區","LI":"尚頂里","LIN":" ","STREET":"中正南路","SECT":" ","MAREA":" ","LANE":"３８１巷","ALLEY":" ","HOUSE_NO":"３８３號","E_COORD97":170611.12,"N_COORD97":2547920.2400000002,"ADDRESS":"中正南路３８１巷３８３號","OBJECTID":304235},"geometry":{"x":170611.12000000011,"y":2547920.2400000002}},{"attributes":{"ID":304244,"DIS_CODE":0,"TOWNNAME":"永康區","LI":"\u25A0洲里","LIN":"5鄰","STREET":"仁愛街","SECT":" ","MAREA":" ","LANE":"１０３巷","ALLEY":" ","HOUSE_NO":"５０號","E_COORD97":171938.59,"N_COORD97":2549536.0299999998,"ADDRESS":"仁愛街１０３巷５０號","OBJECTID":304236},"geometry":{"x":171938.59000000171,"y":2549536.0300000031}},{"attributes":{"ID":304245,"DIS_CODE":0,"TOWNNAME":"永康區","LI":"西灣里","LIN":"50鄰","STREET":"永華路","SECT":" ","MAREA":" ","LANE":"２７３巷","ALLEY":" ","HOUSE_NO":"６號","E_COORD97":174001.37,"N_COORD97":2545820.8300000001,"ADDRESS":"永華路２７３巷６號","OBJECTID":304237},"geometry":{"x":174001.37000000011,"y":2545820.8300000001}},{"attributes":{"ID":304246,"DIS_CODE":0,"TOWNNAME":"永康區","LI":"龍潭里","LIN":"38鄰","STREET":"國民路","SECT":" ","MAREA":" ","LANE":"７１巷","ALLEY":" ","HOUSE_NO":"６號","E_COORD97":174370.63,"N_COORD97":2547337.3599999999,"ADDRESS":"國民路７１巷６號","OBJECTID":304238},"geometry":{"x":174370.62999999989,"y":2547337.3600000013}},{"attributes":{"ID":304247,"DIS_CODE":0,"TOWNNAME":"永康區","LI":"南灣里","LIN":"26鄰","STREET":"立興街","SECT":" ","MAREA":" ","LANE":"７４巷","ALLEY":" ","HOUSE_NO":"２６號","E_COORD97":174519.48999999999,"N_COORD97":2544856.5,"ADDRESS":"立興街７４巷２６號","OBJECTID":304239},"geometry":{"x":174519.49000000022,"y":2544856.5000000019}},{"attributes":{"ID":304248,"DIS_CODE":0,"TOWNNAME":"北區","LI":"大山里","LIN":"8鄰","STREET":"精忠街","SECT":" ","MAREA":" ","LANE":"１０３巷","ALLEY":" ","HOUSE_NO":"４２號","E_COORD97":169269.92000000001,"N_COORD97":2545430.5,"ADDRESS":"精忠街１０３巷４２號","OBJECTID":304240},"geometry":{"x":169269.92000000179,"y":2545430.5}},{"attributes":{"ID":304249,"DIS_CODE":0,"TOWNNAME":"北區","LI":"大山里","LIN":"8鄰","STREET":"精忠街","SECT":" ","MAREA":" ","LANE":"１０３巷","ALLEY":" ","HOUSE_NO":"４４號","E_COORD97":169266.85000000001,"N_COORD97":2545431.1899999999,"ADDRESS":"精忠街１０３巷４４號","OBJECTID":304241},"geometry":{"x":169266.85000000056,"y":2545431.1899999995}},{"attributes":{"ID":304250,"DIS_CODE":0,"TOWNNAME":"北區","LI":"大山里","LIN":"8鄰","STREET":"精忠街","SECT":" ","MAREA":" ","LANE":"１０３巷","ALLEY":" ","HOUSE_NO":"４６號","E_COORD97":169263.67999999999,"N_COORD97":2545431.4399999999,"ADDRESS":"精忠街１０３巷４６號","OBJECTID":304242},"geometry":{"x":169263.6799999997,"y":2545431.4400000013}},{"attributes":{"ID":304251,"DIS_CODE":0,"TOWNNAME":"北區","LI":"大山里","LIN":"8鄰","STREET":"精忠街","SECT":" ","MAREA":" ","LANE":"１０３巷","ALLEY":" ","HOUSE_NO":"４８號","E_COORD97":169260.20999999999,"N_COORD97":2545431.75,"ADDRESS":"精忠街１０３巷４８號","OBJECTID":304243},"geometry":{"x":169260.21000000089,"y":2545431.75}},{"attributes":{"ID":304252,"DIS_CODE":0,"TOWNNAME":"北區","LI":"大山里","LIN":"8鄰","STREET":"精忠街","SECT":" ","MAREA":" ","LANE":"１０３巷","ALLEY":" ","HOUSE_NO":"５０號","E_COORD97":169256.37,"N_COORD97":2545433.8300000001,"ADDRESS":"精忠街１０３巷５０號","OBJECTID":304244},"geometry":{"x":169256.37000000011,"y":2545433.8300000019}},{"attributes":{"ID":304253,"DIS_CODE":0,"TOWNNAME":"安平區","LI":"育平里","LIN":"18鄰","STREET":"建平七街","SECT":" ","MAREA":" ","LANE":" ","ALLEY":" ","HOUSE_NO":"６９３號","E_COORD97":164755.07000000001,"N_COORD97":2543426.7799999998,"ADDRESS":"建平七街６９３號","OBJECTID":304245},"geometry":{"x":164755.07000000216,"y":2543426.7799999993}},{"attributes":{"ID":304254,"DIS_CODE":0,"TOWNNAME":"東區","LI":"崇德里","LIN":"20鄰","STREET":"崇明十四街","SECT":" ","MAREA":" ","LANE":" ","ALLEY":" ","HOUSE_NO":"２２號","E_COORD97":170590.19,"N_COORD97":2541553.6200000001,"ADDRESS":"崇明十四街２２號","OBJECTID":304246},"geometry":{"x":170590.19000000041,"y":2541553.6200000029}},{"attributes":{"ID":304255,"DIS_CODE":0,"TOWNNAME":"永康區","LI":"三民里","LIN":" ","STREET":"三民街","SECT":" ","MAREA":" ","LANE":"４１巷","ALLEY":" ","HOUSE_NO":"３１號","E_COORD97":172854.95999999999,"N_COORD97":2550144.3799999999,"ADDRESS":"三民街４１巷３１號","OBJECTID":304247},"geometry":{"x":172854.96000000183,"y":2550144.3800000008}},{"attributes":{"ID":304256,"DIS_CODE":0,"TOWNNAME":"永康區","LI":"三合里","LIN":" ","STREET":"南工街","SECT":" ","MAREA":" ","LANE":"１５８巷","ALLEY":" ","HOUSE_NO":"１９號","E_COORD97":171977.92999999999,"N_COORD97":2545838.5600000001,"ADDRESS":"南工街１５８巷１９號","OBJECTID":304248},"geometry":{"x":171977.9299999997,"y":2545838.5600000024}},{"attributes":{"ID":304257,"DIS_CODE":0,"TOWNNAME":"永康區","LI":"南灣里","LIN":" ","STREET":"南興路","SECT":" ","MAREA":" ","LANE":"２巷","ALLEY":" ","HOUSE_NO":"５之２號","E_COORD97":174272.17999999999,"N_COORD97":2543939.9900000002,"ADDRESS":"南興路２巷５之２號","OBJECTID":304249},"geometry":{"x":174272.18000000156,"y":2543939.9900000039}},{"attributes":{"ID":304258,"DIS_CODE":0,"TOWNNAME":"永康區","LI":"復興里","LIN":" ","STREET":"復興路","SECT":" ","MAREA":" ","LANE":"４２９巷","ALLEY":" ","HOUSE_NO":"４２７之２７號","E_COORD97":172166.63,"N_COORD97":2543922.2200000002,"ADDRESS":"復興路４２９巷４２７之２７號","OBJECTID":304250},"geometry":{"x":172166.62999999989,"y":2543922.2200000025}},{"attributes":{"ID":304259,"DIS_CODE":0,"TOWNNAME":"永康區","LI":"蔦松里","LIN":" ","STREET":"蔦松二街","SECT":" ","MAREA":" ","LANE":"１６２巷","ALLEY":" ","HOUSE_NO":"６之１號","E_COORD97":173939.38,"N_COORD97":2549363.29,"ADDRESS":"蔦松二街１６２巷６之１號","OBJECTID":304251},"geometry":{"x":173939.38000000082,"y":2549363.2899999991}},{"attributes":{"ID":304260,"DIS_CODE":0,"TOWNNAME":"永康區","LI":"尚頂里","LIN":" ","STREET":"國聖街","SECT":" ","MAREA":" ","LANE":"４３巷","ALLEY":" ","HOUSE_NO":"１６號","E_COORD97":170327.44,"N_COORD97":2547813.48,"ADDRESS":"國聖街４３巷１６號","OBJECTID":304252},"geometry":{"x":170327.44000000041,"y":2547813.4800000023}},{"attributes":{"ID":304261,"DIS_CODE":0,"TOWNNAME":"北區","LI":"大山里","LIN":"8鄰","STREET":"精忠街","SECT":" ","MAREA":" ","LANE":"１０３巷","ALLEY":" ","HOUSE_NO":"５２號","E_COORD97":169256.28,"N_COORD97":2545450.29,"ADDRESS":"精忠街１０３巷５２號","OBJECTID":304253},"geometry":{"x":169256.28000000119,"y":2545450.290000001}},{"attributes":{"ID":304262,"DIS_CODE":0,"TOWNNAME":"北區","LI":"大山里","LIN":"8鄰","STREET":"精忠街","SECT":" ","MAREA":" ","LANE":"１０３巷","ALLEY":" ","HOUSE_NO":"５４號","E_COORD97":169248.28,"N_COORD97":2545441.4399999999,"ADDRESS":"精忠街１０３巷５４號","OBJECTID":304254},"geometry":{"x":169248.28000000119,"y":2545441.4400000032}},{"attributes":{"ID":304263,"DIS_CODE":0,"TOWNNAME":"北區","LI":"大山里","LIN":"8鄰","STREET":"精忠街","SECT":" ","MAREA":" ","LANE":"１０３巷","ALLEY":" ","HOUSE_NO":"５６號","E_COORD97":169244.73999999999,"N_COORD97":2545441.98,"ADDRESS":"精忠街１０３巷５６號","OBJECTID":304255},"geometry":{"x":169244.74000000115,"y":2545441.9800000042}},{"attributes":{"ID":304264,"DIS_CODE":0,"TOWNNAME":"北區","LI":"大山里","LIN":"8鄰","STREET":"精忠街","SECT":" ","MAREA":" ","LANE":"１０３巷","ALLEY":" ","HOUSE_NO":"５８號","E_COORD97":169228.14000000001,"N_COORD97":2545436.73,"ADDRESS":"精忠街１０３巷５８號","OBJECTID":304256},"geometry":{"x":169228.1400000006,"y":2545436.7299999986}},{"attributes":{"ID":304265,"DIS_CODE":0,"TOWNNAME":"北區","LI":"大山里","LIN":"8鄰","STREET":"精忠街","SECT":" ","MAREA":" ","LANE":"１０３巷","ALLEY":" ","HOUSE_NO":"５８號之２","E_COORD97":169221.09,"N_COORD97":2545436.96,"ADDRESS":"精忠街１０３巷５８號之２","OBJECTID":304257},"geometry":{"x":169221.08999999892,"y":2545436.9600000028}},{"attributes":{"ID":304266,"DIS_CODE":0,"TOWNNAME":"東區","LI":"崇德里","LIN":"20鄰","STREET":"崇明十四街","SECT":" ","MAREA":" ","LANE":" ","ALLEY":" ","HOUSE_NO":"２６號","E_COORD97":170596.14999999999,"N_COORD97":2541563.1000000001,"ADDRESS":"崇明十四街２６號","OBJECTID":304258},"geometry":{"x":170596.15000000224,"y":2541563.1000000015}},{"attributes":{"ID":304267,"DIS_CODE":0,"TOWNNAME":"東區","LI":"崇德里","LIN":"20鄰","STREET":"崇明十四街","SECT":" ","MAREA":" ","LANE":" ","ALLEY":" ","HOUSE_NO":"２８號","E_COORD97":170605.47,"N_COORD97":2541574.1000000001,"ADDRESS":"崇明十四街２８號","OBJECTID":304259},"geometry":{"x":170605.47000000067,"y":2541574.0999999996}},{"attributes":{"ID":304268,"DIS_CODE":0,"TOWNNAME":"東區","LI":"崇德里","LIN":"20鄰","STREET":"崇明十四街","SECT":" ","MAREA":" ","LANE":" ","ALLEY":" ","HOUSE_NO":"５３號","E_COORD97":170605.01999999999,"N_COORD97":2541610.48,"ADDRESS":"崇明十四街５３號","OBJECTID":304260},"geometry":{"x":170605.02000000048,"y":2541610.4800000004}},{"attributes":{"ID":304269,"DIS_CODE":0,"TOWNNAME":"東區","LI":"文聖里","LIN":"20鄰","STREET":"裕平路","SECT":" ","MAREA":" ","LANE":" ","ALLEY":" ","HOUSE_NO":"３８６號","E_COORD97":172795.82000000001,"N_COORD97":2542805.27,"ADDRESS":"裕平路３８６號","OBJECTID":304261},"geometry":{"x":172795.82000000123,"y":2542805.2700000014}},{"attributes":{"ID":304270,"DIS_CODE":0,"TOWNNAME":"東區","LI":"文聖里","LIN":"20鄰","STREET":"裕平路","SECT":" ","MAREA":" ","LANE":" ","ALLEY":" ","HOUSE_NO":"３８８號","E_COORD97":172798.91,"N_COORD97":2542807.9900000002,"ADDRESS":"裕平路３８８號","OBJECTID":304262},"geometry":{"x":172798.91000000015,"y":2542807.9900000021}},{"attributes":{"ID":304271,"DIS_CODE":0,"TOWNNAME":"東區","LI":"文聖里","LIN":"20鄰","STREET":"裕平路","SECT":" ","MAREA":" ","LANE":" ","ALLEY":" ","HOUSE_NO":"３９０號","E_COORD97":172802.89999999999,"N_COORD97":2542805.27,"ADDRESS":"裕平路３９０號","OBJECTID":304263},"geometry":{"x":172802.90000000037,"y":2542805.2700000014}},{"attributes":{"ID":304272,"DIS_CODE":0,"TOWNNAME":"東區","LI":"文聖里","LIN":"20鄰","STREET":"裕平路","SECT":" ","MAREA":" ","LANE":" ","ALLEY":" ","HOUSE_NO":"３９２號","E_COORD97":172806.17000000001,"N_COORD97":2542808.3500000001,"ADDRESS":"裕平路３９２號","OBJECTID":304264},"geometry":{"x":172806.17000000179,"y":2542808.3500000015}},{"attributes":{"ID":304273,"DIS_CODE":0,"TOWNNAME":"東區","LI":"文聖里","LIN":"20鄰","STREET":"裕平路","SECT":" ","MAREA":" ","LANE":" ","ALLEY":" ","HOUSE_NO":"３９６號","E_COORD97":172811.07000000001,"N_COORD97":2542805.8100000001,"ADDRESS":"裕平路３９６號","OBJECTID":304265},"geometry":{"x":172811.07000000123,"y":2542805.8100000042}},{"attributes":{"ID":304274,"DIS_CODE":0,"TOWNNAME":"永康區","LI":"\u25A0洲里","LIN":" ","STREET":"鹽行路","SECT":" ","MAREA":" ","LANE":"１２１巷","ALLEY":" ","HOUSE_NO":"１１３號","E_COORD97":171442.54000000001,"N_COORD97":2549193.2400000002,"ADDRESS":"鹽行路１２１巷１１３號","OBJECTID":304266},"geometry":{"x":171442.5400000019,"y":2549193.2400000039}},{"attributes":{"ID":304275,"DIS_CODE":0,"TOWNNAME":"永康區","LI":"勝利里","LIN":"4鄰","STREET":"勝學路","SECT":" ","MAREA":" ","LANE":"８９巷","ALLEY":" ","HOUSE_NO":"１１號","E_COORD97":171098.85000000001,"N_COORD97":2544827,"ADDRESS":"勝學路８９巷１１號","OBJECTID":304267},"geometry":{"x":171098.84999999963,"y":2544827}},{"attributes":{"ID":304276,"DIS_CODE":0,"TOWNNAME":"永康區","LI":"西橋里","LIN":" ","STREET":"中華西街","SECT":" ","MAREA":" ","LANE":"６３巷","ALLEY":" ","HOUSE_NO":"６之４號","E_COORD97":170728.97,"N_COORD97":2546045.54,"ADDRESS":"中華西街６３巷６之４號","OBJECTID":304268},"geometry":{"x":170728.9700000016,"y":2546045.5399999991}},{"attributes":{"ID":304277,"DIS_CODE":0,"TOWNNAME":"永康區","LI":"三合里","LIN":"5鄰","STREET":"南工街","SECT":" ","MAREA":" ","LANE":"５０巷","ALLEY":" ","HOUSE_NO":"５號","E_COORD97":172130.41,"N_COORD97":2545623.9300000002,"ADDRESS":"南工街５０巷５號","OBJECTID":304269},"geometry":{"x":172130.41000000108,"y":2545623.9299999997}},{"attributes":{"ID":304278,"DIS_CODE":0,"TOWNNAME":"永康區","LI":"東橋里","LIN":"5鄰","STREET":"中山南路","SECT":" ","MAREA":" ","LANE":"１９５巷","ALLEY":" ","HOUSE_NO":"３１號之１","E_COORD97":171466.22,"N_COORD97":2546360.2999999998,"ADDRESS":"中山南路１９５巷３１號之１","OBJECTID":304270},"geometry":{"x":171466.21999999881,"y":2546360.3000000026}},{"attributes":{"ID":304279,"DIS_CODE":0,"TOWNNAME":"永康區","LI":"南灣里","LIN":"20鄰","STREET":"大灣路","SECT":" ","MAREA":" ","LANE":"７６４巷","ALLEY":" ","HOUSE_NO":"５０號","E_COORD97":174205.47,"N_COORD97":2544655.7999999998,"ADDRESS":"大灣路７６４巷５０號","OBJECTID":304271},"geometry":{"x":174205.46999999974,"y":2544655.8000000007}},{"attributes":{"ID":304280,"DIS_CODE":0,"TOWNNAME":"永康區","LI":"崑山里","LIN":"25鄰","STREET":"大仁街","SECT":" ","MAREA":" ","LANE":"５１巷","ALLEY":" ","HOUSE_NO":"１０號","E_COORD97":173752.73000000001,"N_COORD97":2544675.6299999999,"ADDRESS":"大仁街５１巷１０號","OBJECTID":304272},"geometry":{"x":173752.73000000138,"y":2544675.629999999}},{"attributes":{"ID":304281,"DIS_CODE":0,"TOWNNAME":"永康區","LI":"埔園里","LIN":"39鄰","STREET":"聖龍街","SECT":" ","MAREA":" ","LANE":"１６５巷","ALLEY":" ","HOUSE_NO":"２１號","E_COORD97":174279.45999999999,"N_COORD97":2547931.1800000002,"ADDRESS":"聖龍街１６５巷２１號","OBJECTID":304273},"geometry":{"x":174279.46000000089,"y":2547931.1799999997}},{"attributes":{"ID":304282,"DIS_CODE":0,"TOWNNAME":"北區","LI":"大山里","LIN":"8鄰","STREET":"精忠街","SECT":" ","MAREA":" ","LANE":"１０３巷","ALLEY":" ","HOUSE_NO":"５８號之３","E_COORD97":169216.70999999999,"N_COORD97":2545437.7999999998,"ADDRESS":"精忠街１０３巷５８號之３","OBJECTID":304274},"geometry":{"x":169216.70999999996,"y":2545437.8000000026}},{"attributes":{"ID":304283,"DIS_CODE":0,"TOWNNAME":"北區","LI":"大仁里","LIN":"8鄰","STREET":"北門路","SECT":"二段","MAREA":" ","LANE":"２３１巷","ALLEY":" ","HOUSE_NO":"１號","E_COORD97":169495.73000000001,"N_COORD97":2545299.1600000001,"ADDRESS":"北門路二段２３１巷１號","OBJECTID":304275},"geometry":{"x":169495.73000000138,"y":2545299.160000002}},{"attributes":{"ID":304284,"DIS_CODE":0,"TOWNNAME":"北區","LI":"大仁里","LIN":"8鄰","STREET":"北門路","SECT":"二段","MAREA":" ","LANE":"２３１巷","ALLEY":" ","HOUSE_NO":"２號","E_COORD97":169489.42000000001,"N_COORD97":2545300.3199999998,"ADDRESS":"北門路二段２３１巷２號","OBJECTID":304276},"geometry":{"x":169489.41999999993,"y":2545300.3199999984}},{"attributes":{"ID":304285,"DIS_CODE":0,"TOWNNAME":"北區","LI":"大仁里","LIN":"8鄰","STREET":"北門路","SECT":"二段","MAREA":" ","LANE":"２３７巷","ALLEY":" ","HOUSE_NO":"１號","E_COORD97":169507.70999999999,"N_COORD97":2545312.8300000001,"ADDRESS":"北門路二段２３７巷１號","OBJECTID":304277},"geometry":{"x":169507.71000000089,"y":2545312.8300000001}},{"attributes":{"ID":304286,"DIS_CODE":0,"TOWNNAME":"永康區","LI":"崑山里","LIN":"38鄰","STREET":"崑山街","SECT":" ","MAREA":" ","LANE":"１８３巷","ALLEY":" ","HOUSE_NO":"２１號","E_COORD97":173991.67999999999,"N_COORD97":2544958.02,"ADDRESS":"崑山街１８３巷２１號","OBJECTID":304278},"geometry":{"x":173991.6799999997,"y":2544958.0199999996}},{"attributes":{"ID":304287,"DIS_CODE":0,"TOWNNAME":"後壁區","LI":"菁豊里","LIN":"4鄰","STREET":" ","SECT":" ","MAREA":"前菁寮","LANE":" ","ALLEY":" ","HOUSE_NO":"３４號","E_COORD97":183131,"N_COORD97":2586393.5699999998,"ADDRESS":"前菁寮３４號","OBJECTID":304279},"geometry":{"x":183131.00000000186,"y":2586393.570000004}},{"attributes":{"ID":304288,"DIS_CODE":0,"TOWNNAME":"永康區","LI":"勝利里","LIN":"18鄰","STREET":"中華一路","SECT":" ","MAREA":" ","LANE":"３２４巷","ALLEY":" ","HOUSE_NO":"１８號","E_COORD97":171232.42000000001,"N_COORD97":2545061.3799999999,"ADDRESS":"中華一路３２４巷１８號","OBJECTID":304280},"geometry":{"x":171232.41999999993,"y":2545061.3800000027}},{"attributes":{"ID":304289,"DIS_CODE":0,"TOWNNAME":"永康區","LI":"勝利里","LIN":"18鄰","STREET":"中華一路","SECT":" ","MAREA":" ","LANE":"３２４巷","ALLEY":" ","HOUSE_NO":"３１號","E_COORD97":171221.32999999999,"N_COORD97":2545095.3799999999,"ADDRESS":"中華一路３２４巷３１號","OBJECTID":304281},"geometry":{"x":171221.33000000007,"y":2545095.3800000027}},{"attributes":{"ID":304290,"DIS_CODE":0,"TOWNNAME":"永康區","LI":"埔園里","LIN":"39鄰","STREET":"聖龍街","SECT":" ","MAREA":" ","LANE":"１６５巷","ALLEY":" ","HOUSE_NO":"３號","E_COORD97":174272.44,"N_COORD97":2547879.5499999998,"ADDRESS":"聖龍街１６５巷３號","OBJECTID":304282},"geometry":{"x":174272.44000000041,"y":2547879.5500000045}},{"attributes":{"ID":304291,"DIS_CODE":0,"TOWNNAME":"永康區","LI":"埔園里","LIN":"39鄰","STREET":"聖龍街","SECT":" ","MAREA":" ","LANE":"１７９巷","ALLEY":" ","HOUSE_NO":"７號","E_COORD97":174294.48999999999,"N_COORD97":2547881.1000000001,"ADDRESS":"聖龍街１７９巷７號","OBJECTID":304283},"geometry":{"x":174294.49000000115,"y":2547881.0999999996}},{"attributes":{"ID":304292,"DIS_CODE":0,"TOWNNAME":"永康區","LI":"崑山里","LIN":"42鄰","STREET":"大仁街","SECT":" ","MAREA":" ","LANE":"２１７巷","ALLEY":" ","HOUSE_NO":"１１號","E_COORD97":173907.54000000001,"N_COORD97":2545101.25,"ADDRESS":"大仁街２１７巷１１號","OBJECTID":304284},"geometry":{"x":173907.54000000097,"y":2545101.2500000019}},{"attributes":{"ID":304293,"DIS_CODE":0,"TOWNNAME":"永康區","LI":"崑山里","LIN":"40鄰","STREET":"崑山街","SECT":" ","MAREA":" ","LANE":"２２２巷","ALLEY":" ","HOUSE_NO":"６號","E_COORD97":174122,"N_COORD97":2545027.9199999999,"ADDRESS":"崑山街２２２巷６號","OBJECTID":304285},"geometry":{"x":174122,"y":2545027.9199999999}},{"attributes":{"ID":304294,"DIS_CODE":0,"TOWNNAME":"永康區","LI":"崑山里","LIN":"38鄰","STREET":"崑山街","SECT":" ","MAREA":" ","LANE":"１８３巷","ALLEY":" ","HOUSE_NO":"２６號","E_COORD97":173993.39000000001,"N_COORD97":2544979.9100000001,"ADDRESS":"崑山街１８３巷２６號","OBJECTID":304286},"geometry":{"x":173993.3900000006,"y":2544979.9100000001}},{"attributes":{"ID":304295,"DIS_CODE":0,"TOWNNAME":"永康區","LI":"崑山里","LIN":"42鄰","STREET":"大仁街","SECT":" ","MAREA":" ","LANE":"２１７巷","ALLEY":" ","HOUSE_NO":"６號","E_COORD97":173922.53,"N_COORD97":2545113.4900000002,"ADDRESS":"大仁街２１７巷６號","OBJECTID":304287},"geometry":{"x":173922.53000000026,"y":2545113.4900000021}},{"attributes":{"ID":304296,"DIS_CODE":0,"TOWNNAME":"北區","LI":"大仁里","LIN":"8鄰","STREET":"北門路","SECT":"二段","MAREA":" ","LANE":"２３７巷","ALLEY":" ","HOUSE_NO":"３號","E_COORD97":169496.13,"N_COORD97":2545323.4300000002,"ADDRESS":"北門路二段２３７巷３號","OBJECTID":304288},"geometry":{"x":169496.13000000082,"y":2545323.4300000016}},{"attributes":{"ID":304297,"DIS_CODE":0,"TOWNNAME":"北區","LI":"大仁里","LIN":"8鄰","STREET":"北門路","SECT":"二段","MAREA":" ","LANE":"２３７巷","ALLEY":" ","HOUSE_NO":"５號","E_COORD97":169485.66,"N_COORD97":2545324.3799999999,"ADDRESS":"北門路二段２３７巷５號","OBJECTID":304289},"geometry":{"x":169485.66000000108,"y":2545324.379999999}},{"attributes":{"ID":304298,"DIS_CODE":0,"TOWNNAME":"北區","LI":"大仁里","LIN":"8鄰","STREET":"北門路","SECT":"二段","MAREA":" ","LANE":"２３７巷","ALLEY":" ","HOUSE_NO":"９號","E_COORD97":169482,"N_COORD97":2545325.3199999998,"ADDRESS":"北門路二段２３７巷９號","OBJECTID":304290},"geometry":{"x":169482.00000000093,"y":2545325.3200000022}},{"attributes":{"ID":304299,"DIS_CODE":0,"TOWNNAME":"永康區","LI":"\u25A0行里","LIN":" ","STREET":"中正路","SECT":" ","MAREA":" ","LANE":"３３７巷","ALLEY":" ","HOUSE_NO":"３３９號","E_COORD97":172513.48000000001,"N_COORD97":2548333.8900000001,"ADDRESS":"中正路３３７巷３３９號","OBJECTID":304291},"geometry":{"x":172513.48000000138,"y":2548333.8900000006}},{"attributes":{"ID":304300,"DIS_CODE":0,"TOWNNAME":"北區","LI":"大仁里","LIN":"8鄰","STREET":"北門路","SECT":"二段","MAREA":" ","LANE":"２３１巷","ALLEY":" ","HOUSE_NO":"１０號","E_COORD97":169436.38,"N_COORD97":2545293.1099999999,"ADDRESS":"北門路二段２３１巷１０號","OBJECTID":304292},"geometry":{"x":169436.38000000082,"y":2545293.1099999994}},{"attributes":{"ID":304301,"DIS_CODE":0,"TOWNNAME":"北區","LI":"大仁里","LIN":"8鄰","STREET":"北門路","SECT":"二段","MAREA":" ","LANE":"２３１巷","ALLEY":" ","HOUSE_NO":"１１號","E_COORD97":169431.57999999999,"N_COORD97":2545293.4900000002,"ADDRESS":"北門路二段２３１巷１１號","OBJECTID":304293},"geometry":{"x":169431.57999999914,"y":2545293.4900000021}},{"attributes":{"ID":304302,"DIS_CODE":0,"TOWNNAME":"北區","LI":"大仁里","LIN":"8鄰","STREET":"北門路","SECT":"二段","MAREA":" ","LANE":"２３１巷","ALLEY":" ","HOUSE_NO":"１２號","E_COORD97":169428.19,"N_COORD97":2545293.75,"ADDRESS":"北門路二段２３１巷１２號","OBJECTID":304294},"geometry":{"x":169428.19000000134,"y":2545293.7499999981}},{"attributes":{"ID":304303,"DIS_CODE":0,"TOWNNAME":"北區","LI":"大仁里","LIN":"8鄰","STREET":"北門路","SECT":"二段","MAREA":" ","LANE":"２３１巷","ALLEY":" ","HOUSE_NO":"１３號","E_COORD97":169419.35999999999,"N_COORD97":2545293.1400000001,"ADDRESS":"北門路二段２３１巷１３號","OBJECTID":304295},"geometry":{"x":169419.36000000034,"y":2545293.1400000025}},{"attributes":{"ID":304304,"DIS_CODE":0,"TOWNNAME":"後壁區","LI":"菁豊里","LIN":"4鄰","STREET":" ","SECT":" ","MAREA":"前菁寮","LANE":" ","ALLEY":" ","HOUSE_NO":"３５號","E_COORD97":183141.17999999999,"N_COORD97":2586406.9900000002,"ADDRESS":"前菁寮３５號","OBJECTID":304296},"geometry":{"x":183141.17999999877,"y":2586406.9900000002}},{"attributes":{"ID":304305,"DIS_CODE":0,"TOWNNAME":"永康區","LI":"崑山里","LIN":"25鄰","STREET":"大仁街","SECT":" ","MAREA":" ","LANE":"７１巷","ALLEY":" ","HOUSE_NO":"１９號","E_COORD97":173743.64000000001,"N_COORD97":2544712.9700000002,"ADDRESS":"大仁街７１巷１９號","OBJECTID":304297},"geometry":{"x":173743.6400000006,"y":2544712.9700000007}},{"attributes":{"ID":304306,"DIS_CODE":0,"TOWNNAME":"永康區","LI":"勝利里","LIN":"25鄰","STREET":"中華路","SECT":" ","MAREA":" ","LANE":"１５５巷","ALLEY":" ","HOUSE_NO":"６４號","E_COORD97":171463.19,"N_COORD97":2544751,"ADDRESS":"中華路１５５巷６４號","OBJECTID":304298},"geometry":{"x":171463.19000000041,"y":2544751.0000000019}},{"attributes":{"ID":304307,"DIS_CODE":0,"TOWNNAME":"永康區","LI":"埔園里","LIN":"39鄰","STREET":"聖龍街","SECT":" ","MAREA":" ","LANE":"１７９巷","ALLEY":" ","HOUSE_NO":"１５號","E_COORD97":174310.03,"N_COORD97":2547889.1000000001,"ADDRESS":"聖龍街１７９巷１５號","OBJECTID":304299},"geometry":{"x":174310.03000000119,"y":2547889.1000000015}},{"attributes":{"ID":304308,"DIS_CODE":0,"TOWNNAME":"永康區","LI":"崑山里","LIN":"25鄰","STREET":"大仁街","SECT":" ","MAREA":" ","LANE":"７１巷","ALLEY":" ","HOUSE_NO":"１４號","E_COORD97":173762.60000000001,"N_COORD97":2544727.5,"ADDRESS":"大仁街７１巷１４號","OBJECTID":304300},"geometry":{"x":173762.60000000056,"y":2544727.5000000019}},{"attributes":{"ID":304309,"DIS_CODE":0,"TOWNNAME":"北區","LI":"大仁里","LIN":"8鄰","STREET":"北門路","SECT":"二段","MAREA":" ","LANE":"２３１巷","ALLEY":" ","HOUSE_NO":"８號","E_COORD97":169465.95999999999,"N_COORD97":2545292.21,"ADDRESS":"北門路二段２３１巷８號","OBJECTID":304301},"geometry":{"x":169465.95999999996,"y":2545292.2100000028}},{"attributes":{"ID":304310,"DIS_CODE":0,"TOWNNAME":"北區","LI":"大仁里","LIN":"8鄰","STREET":"北門路","SECT":"二段","MAREA":" ","LANE":"２３７巷","ALLEY":" ","HOUSE_NO":"１７號","E_COORD97":169455.54999999999,"N_COORD97":2545315.48,"ADDRESS":"北門路二段２３７巷１７號","OBJECTID":304302},"geometry":{"x":169455.55000000075,"y":2545315.4800000004}},{"attributes":{"ID":304311,"DIS_CODE":0,"TOWNNAME":"北區","LI":"大仁里","LIN":"8鄰","STREET":"北門路","SECT":"二段","MAREA":" ","LANE":"２３７巷","ALLEY":" ","HOUSE_NO":"１７號之１","E_COORD97":169459.37,"N_COORD97":2545307.52,"ADDRESS":"北門路二段２３７巷１７號之１","OBJECTID":304303},"geometry":{"x":169459.37000000104,"y":2545307.5199999996}},{"attributes":{"ID":304312,"DIS_CODE":0,"TOWNNAME":"北區","LI":"大仁里","LIN":"8鄰","STREET":"北門路","SECT":"二段","MAREA":" ","LANE":"２３７巷","ALLEY":" ","HOUSE_NO":"１９號","E_COORD97":169452.92000000001,"N_COORD97":2545316.2000000002,"ADDRESS":"北門路二段２３７巷１９號","OBJECTID":304304},"geometry":{"x":169452.92000000179,"y":2545316.1999999993}},{"attributes":{"ID":304313,"DIS_CODE":0,"TOWNNAME":"北區","LI":"大仁里","LIN":"8鄰","STREET":"北門路","SECT":"二段","MAREA":" ","LANE":"２３７巷","ALLEY":" ","HOUSE_NO":"２１號","E_COORD97":169445.88,"N_COORD97":2545313.9500000002,"ADDRESS":"北門路二段２３７巷２１號","OBJECTID":304305},"geometry":{"x":169445.87999999989,"y":2545313.9499999993}},{"attributes":{"ID":304314,"DIS_CODE":0,"TOWNNAME":"北區","LI":"大仁里","LIN":"8鄰","STREET":"北門路","SECT":"二段","MAREA":" ","LANE":"２３７巷","ALLEY":" ","HOUSE_NO":"２３號","E_COORD97":169440.57999999999,"N_COORD97":2545314.1800000002,"ADDRESS":"北門路二段２３７巷２３號","OBJECTID":304306},"geometry":{"x":169440.58000000101,"y":2545314.1799999978}},{"attributes":{"ID":304315,"DIS_CODE":0,"TOWNNAME":"北區","LI":"大仁里","LIN":"8鄰","STREET":"北門路","SECT":"二段","MAREA":" ","LANE":"２３７巷","ALLEY":" ","HOUSE_NO":"２５號","E_COORD97":169435.41,"N_COORD97":2545314.4700000002,"ADDRESS":"北門路二段２３７巷２５號","OBJECTID":304307},"geometry":{"x":169435.41000000108,"y":2545314.4700000025}},{"attributes":{"ID":304316,"DIS_CODE":0,"TOWNNAME":"北區","LI":"大仁里","LIN":"8鄰","STREET":"北門路","SECT":"二段","MAREA":" ","LANE":"２３７巷","ALLEY":" ","HOUSE_NO":"２７號","E_COORD97":169426.69,"N_COORD97":2545316.9100000001,"ADDRESS":"北門路二段２３７巷２７號","OBJECTID":304308},"geometry":{"x":169426.69000000134,"y":2545316.9100000039}},{"attributes":{"ID":304317,"DIS_CODE":0,"TOWNNAME":"北區","LI":"大仁里","LIN":"8鄰","STREET":"北門路","SECT":"二段","MAREA":" ","LANE":"２３７巷","ALLEY":" ","HOUSE_NO":"２９號","E_COORD97":169418.35000000001,"N_COORD97":2545317.7799999998,"ADDRESS":"北門路二段２３７巷２９號","OBJECTID":304309},"geometry":{"x":169418.35000000056,"y":2545317.7800000012}},{"attributes":{"ID":304318,"DIS_CODE":0,"TOWNNAME":"北區","LI":"大仁里","LIN":"8鄰","STREET":"北門路","SECT":"二段","MAREA":" ","LANE":"２３７巷","ALLEY":" ","HOUSE_NO":"３３號","E_COORD97":169406.42999999999,"N_COORD97":2545319.4700000002,"ADDRESS":"北門路二段２３７巷３３號","OBJECTID":304310},"geometry":{"x":169406.4299999997,"y":2545319.4700000007}},{"attributes":{"ID":304319,"DIS_CODE":0,"TOWNNAME":"北區","LI":"大仁里","LIN":"8鄰","STREET":"北門路","SECT":"二段","MAREA":" ","LANE":"２３７巷","ALLEY":" ","HOUSE_NO":"３７號","E_COORD97":169394.85999999999,"N_COORD97":2545320.8100000001,"ADDRESS":"北門路二段２３７巷３７號","OBJECTID":304311},"geometry":{"x":169394.86000000127,"y":2545320.8100000005}},{"attributes":{"ID":304320,"DIS_CODE":0,"TOWNNAME":"北區","LI":"大仁里","LIN":"8鄰","STREET":"北門路","SECT":"二段","MAREA":" ","LANE":"２３７巷","ALLEY":" ","HOUSE_NO":"３９號","E_COORD97":169389.39000000001,"N_COORD97":2545321.4399999999,"ADDRESS":"北門路二段２３７巷３９號","OBJECTID":304312},"geometry":{"x":169389.38999999966,"y":2545321.4399999995}},{"attributes":{"ID":304321,"DIS_CODE":0,"TOWNNAME":"新營區","LI":"南紙里","LIN":"13鄰","STREET":"太子路","SECT":" ","MAREA":" ","LANE":"２００巷","ALLEY":" ","HOUSE_NO":"２１號","E_COORD97":177880.48999999999,"N_COORD97":2577930.5899999999,"ADDRESS":"太子路２００巷２１號","OBJECTID":304313},"geometry":{"x":177880.49000000022,"y":2577930.5900000036}},{"attributes":{"ID":304322,"DIS_CODE":0,"TOWNNAME":"麻豆區","LI":"油車里","LIN":"8鄰","STREET":"新生北路","SECT":" ","MAREA":" ","LANE":"３９２巷","ALLEY":" ","HOUSE_NO":"１０號","E_COORD97":172595.22,"N_COORD97":2565505.8599999999,"ADDRESS":"新生北路３９２巷１０號","OBJECTID":304314},"geometry":{"x":172595.21999999881,"y":2565505.8599999975}},{"attributes":{"ID":304323,"DIS_CODE":0,"TOWNNAME":"永康區","LI":"勝利里","LIN":"18鄰","STREET":"中華一路","SECT":" ","MAREA":" ","LANE":"３２４巷","ALLEY":" ","HOUSE_NO":"２７號","E_COORD97":171220.32999999999,"N_COORD97":2545085.8799999999,"ADDRESS":"中華一路３２４巷２７號","OBJECTID":304315},"geometry":{"x":171220.33000000101,"y":2545085.8800000008}},{"attributes":{"ID":304324,"DIS_CODE":0,"TOWNNAME":"永康區","LI":"埔園里","LIN":"39鄰","STREET":"聖龍街","SECT":" ","MAREA":" ","LANE":"１７９巷","ALLEY":" ","HOUSE_NO":"２號","E_COORD97":174315.07999999999,"N_COORD97":2547874.9399999999,"ADDRESS":"聖龍街１７９巷２號","OBJECTID":304316},"geometry":{"x":174315.08000000007,"y":2547874.9399999995}},{"attributes":{"ID":304325,"DIS_CODE":0,"TOWNNAME":"永康區","LI":"崑山里","LIN":"42鄰","STREET":"大灣路","SECT":" ","MAREA":" ","LANE":"９４２巷","ALLEY":" ","HOUSE_NO":"２６２號","E_COORD97":173859.70999999999,"N_COORD97":2545149.9900000002,"ADDRESS":"大灣路９４２巷２６２號","OBJECTID":304317},"geometry":{"x":173859.70999999996,"y":2545149.9899999984}},{"attributes":{"ID":304326,"DIS_CODE":0,"TOWNNAME":"永康區","LI":"崑山里","LIN":"25鄰","STREET":"大灣路","SECT":" ","MAREA":" ","LANE":"９４２巷","ALLEY":" ","HOUSE_NO":"９０號","E_COORD97":173712.82999999999,"N_COORD97":2544716.29,"ADDRESS":"大灣路９４２巷９０號","OBJECTID":304318},"geometry":{"x":173712.83000000101,"y":2544716.2900000028}},{"attributes":{"ID":304327,"DIS_CODE":0,"TOWNNAME":"麻豆區","LI":"油車里","LIN":"8鄰","STREET":"新生北路","SECT":" ","MAREA":" ","LANE":"３９２巷","ALLEY":" ","HOUSE_NO":"１１號","E_COORD97":172618.32000000001,"N_COORD97":2565498.1499999999,"ADDRESS":"新生北路３９２巷１１號","OBJECTID":304319},"geometry":{"x":172618.3200000003,"y":2565498.1500000041}},{"attributes":{"ID":304328,"DIS_CODE":0,"TOWNNAME":"麻豆區","LI":"油車里","LIN":"8鄰","STREET":"新生北路","SECT":" ","MAREA":" ","LANE":"３９２巷","ALLEY":" ","HOUSE_NO":"１２號","E_COORD97":172595.45999999999,"N_COORD97":2565501.3300000001,"ADDRESS":"新生北路３９２巷１２號","OBJECTID":304320},"geometry":{"x":172595.45999999996,"y":2565501.3300000019}},{"attributes":{"ID":304329,"DIS_CODE":0,"TOWNNAME":"新營區","LI":"南紙里","LIN":"17鄰","STREET":"南紙街","SECT":" ","MAREA":" ","LANE":"１６２巷","ALLEY":" ","HOUSE_NO":"１號","E_COORD97":177751.17999999999,"N_COORD97":2577276.71,"ADDRESS":"南紙街１６２巷１號","OBJECTID":304321},"geometry":{"x":177751.18000000063,"y":2577276.7100000046}},{"attributes":{"ID":304330,"DIS_CODE":0,"TOWNNAME":"麻豆區","LI":"油車里","LIN":"8鄰","STREET":"新生北路","SECT":" ","MAREA":" ","LANE":"３９２巷","ALLEY":" ","HOUSE_NO":"１３號","E_COORD97":172618.54999999999,"N_COORD97":2565493.4900000002,"ADDRESS":"新生北路３９２巷１３號","OBJECTID":304322},"geometry":{"x":172618.55000000168,"y":2565493.4900000021}},{"attributes":{"ID":304331,"DIS_CODE":0,"TOWNNAME":"麻豆區","LI":"油車里","LIN":"8鄰","STREET":"新生北路","SECT":" ","MAREA":" ","LANE":"３９２巷","ALLEY":" ","HOUSE_NO":"１５號","E_COORD97":172618.78,"N_COORD97":2565488.8399999999,"ADDRESS":"新生北路３９２巷１５號","OBJECTID":304323},"geometry":{"x":172618.78000000026,"y":2565488.8399999999}},{"attributes":{"ID":304332,"DIS_CODE":0,"TOWNNAME":"麻豆區","LI":"油車里","LIN":"8鄰","STREET":"新生北路","SECT":" ","MAREA":" ","LANE":"３９２巷","ALLEY":" ","HOUSE_NO":"１６號","E_COORD97":172595.70000000001,"N_COORD97":2565496.7999999998,"ADDRESS":"新生北路３９２巷１６號","OBJECTID":304324},"geometry":{"x":172595.70000000019,"y":2565496.8000000007}},{"attributes":{"ID":304333,"DIS_CODE":0,"TOWNNAME":"麻豆區","LI":"油車里","LIN":"8鄰","STREET":"新生北路","SECT":" ","MAREA":" ","LANE":"３９２巷","ALLEY":" ","HOUSE_NO":"１８號","E_COORD97":172595.94,"N_COORD97":2565492.27,"ADDRESS":"新生北路３９２巷１８號","OBJECTID":304325},"geometry":{"x":172595.94000000041,"y":2565492.2699999996}},{"attributes":{"ID":304334,"DIS_CODE":0,"TOWNNAME":"麻豆區","LI":"油車里","LIN":"8鄰","STREET":"新生北路","SECT":" ","MAREA":" ","LANE":"３９２巷","ALLEY":" ","HOUSE_NO":"１號","E_COORD97":172617,"N_COORD97":2565521.3999999999,"ADDRESS":"新生北路３９２巷１號","OBJECTID":304326},"geometry":{"x":172617,"y":2565521.4000000022}},{"attributes":{"ID":304335,"DIS_CODE":0,"TOWNNAME":"麻豆區","LI":"油車里","LIN":"8鄰","STREET":"新生北路","SECT":" ","MAREA":" ","LANE":"３９２巷","ALLEY":" ","HOUSE_NO":"２０號","E_COORD97":172596.19,"N_COORD97":2565487.7400000002,"ADDRESS":"新生北路３９２巷２０號","OBJECTID":304327},"geometry":{"x":172596.19000000227,"y":2565487.7400000021}},{"attributes":{"ID":304336,"DIS_CODE":0,"TOWNNAME":"麻豆區","LI":"油車里","LIN":"8鄰","STREET":"新生北路","SECT":" ","MAREA":" ","LANE":"３９２巷","ALLEY":" ","HOUSE_NO":"２號","E_COORD97":172594.41,"N_COORD97":2565519.2599999998,"ADDRESS":"新生北路３９２巷２號","OBJECTID":304328},"geometry":{"x":172594.41000000201,"y":2565519.2599999998}},{"attributes":{"ID":304337,"DIS_CODE":0,"TOWNNAME":"麻豆區","LI":"油車里","LIN":"8鄰","STREET":"新生北路","SECT":" ","MAREA":" ","LANE":"３９２巷","ALLEY":" ","HOUSE_NO":"３號","E_COORD97":172617.22,"N_COORD97":2565516.7400000002,"ADDRESS":"新生北路３９２巷３號","OBJECTID":304329},"geometry":{"x":172617.21999999881,"y":2565516.7400000002}},{"attributes":{"ID":304338,"DIS_CODE":0,"TOWNNAME":"麻豆區","LI":"油車里","LIN":"8鄰","STREET":"新生北路","SECT":" ","MAREA":" ","LANE":"３９２巷","ALLEY":" ","HOUSE_NO":"５號","E_COORD97":172617.45000000001,"N_COORD97":2565512.0899999999,"ADDRESS":"新生北路３９２巷５號","OBJECTID":304330},"geometry":{"x":172617.45000000019,"y":2565512.0900000017}},{"attributes":{"ID":304339,"DIS_CODE":0,"TOWNNAME":"永康區","LI":"勝利里","LIN":"25鄰","STREET":"中華路","SECT":" ","MAREA":" ","LANE":"１５５巷","ALLEY":" ","HOUSE_NO":"７３號","E_COORD97":171449.48000000001,"N_COORD97":2544733.7400000002,"ADDRESS":"中華路１５５巷７３號","OBJECTID":304331},"geometry":{"x":171449.48000000045,"y":2544733.7400000002}},{"attributes":{"ID":304340,"DIS_CODE":0,"TOWNNAME":"後壁區","LI":"菁豊里","LIN":"4鄰","STREET":" ","SECT":" ","MAREA":"前菁寮","LANE":" ","ALLEY":" ","HOUSE_NO":"４０號","E_COORD97":183074.23000000001,"N_COORD97":2586478.02,"ADDRESS":"前菁寮４０號","OBJECTID":304332},"geometry":{"x":183074.23000000138,"y":2586478.0200000033}},{"attributes":{"ID":304341,"DIS_CODE":0,"TOWNNAME":"永康區","LI":"崑山里","LIN":"5鄰","STREET":"崑大路","SECT":" ","MAREA":" ","LANE":"１５５巷","ALLEY":" ","HOUSE_NO":"７號","E_COORD97":173612.16,"N_COORD97":2544250.0600000001,"ADDRESS":"崑大路１５５巷７號","OBJECTID":304333},"geometry":{"x":173612.16000000108,"y":2544250.0600000005}},{"attributes":{"ID":304342,"DIS_CODE":0,"TOWNNAME":"永康區","LI":"崑山里","LIN":"38鄰","STREET":"崑山街","SECT":" ","MAREA":" ","LANE":"１８３巷","ALLEY":" ","HOUSE_NO":"２５號","E_COORD97":173981.34,"N_COORD97":2544961.3300000001,"ADDRESS":"崑山街１８３巷２５號","OBJECTID":304334},"geometry":{"x":173981.34000000171,"y":2544961.3300000038}},{"attributes":{"ID":304343,"DIS_CODE":0,"TOWNNAME":"永康區","LI":"崑山里","LIN":"18鄰","STREET":"大仁街","SECT":" ","MAREA":" ","LANE":"１１巷","ALLEY":" ","HOUSE_NO":"２７號","E_COORD97":173693.64999999999,"N_COORD97":2544565.6400000001,"ADDRESS":"大仁街１１巷２７號","OBJECTID":304335},"geometry":{"x":173693.6500000013,"y":2544565.6400000006}},{"attributes":{"ID":304344,"DIS_CODE":0,"TOWNNAME":"永康區","LI":"崑山里","LIN":"25鄰","STREET":"大灣路","SECT":" ","MAREA":" ","LANE":"９４２巷","ALLEY":" ","HOUSE_NO":"１０４號","E_COORD97":173726.76000000001,"N_COORD97":2544757,"ADDRESS":"大灣路９４２巷１０４號","OBJECTID":304336},"geometry":{"x":173726.75999999978,"y":2544757.0000000019}},{"attributes":{"ID":304345,"DIS_CODE":0,"TOWNNAME":"永康區","LI":"崑山里","LIN":"25鄰","STREET":"大灣路","SECT":" ","MAREA":" ","LANE":"９４２巷","ALLEY":" ","HOUSE_NO":"１０８號","E_COORD97":173730.10000000001,"N_COORD97":2544765.75,"ADDRESS":"大灣路９４２巷１０８號","OBJECTID":304337},"geometry":{"x":173730.10000000149,"y":2544765.7500000019}},{"attributes":{"ID":304346,"DIS_CODE":0,"TOWNNAME":"永康區","LI":"神洲里","LIN":"4鄰","STREET":"忠孝路","SECT":" ","MAREA":" ","LANE":"３６巷","ALLEY":" ","HOUSE_NO":"２１號","E_COORD97":172170.07999999999,"N_COORD97":2544681.5600000001,"ADDRESS":"忠孝路３６巷２１號","OBJECTID":304338},"geometry":{"x":172170.08000000101,"y":2544681.5600000005}},{"attributes":{"ID":304347,"DIS_CODE":0,"TOWNNAME":"永康區","LI":"神洲里","LIN":"5鄰","STREET":"忠孝路","SECT":" ","MAREA":" ","LANE":"４４巷","ALLEY":" ","HOUSE_NO":"１２號","E_COORD97":172144.37,"N_COORD97":2544726.7400000002,"ADDRESS":"忠孝路４４巷１２號","OBJECTID":304339},"geometry":{"x":172144.37000000104,"y":2544726.7400000002}},{"attributes":{"ID":304348,"DIS_CODE":0,"TOWNNAME":"永康區","LI":"勝利里","LIN":"18鄰","STREET":"中華一路","SECT":" ","MAREA":" ","LANE":"３２４巷","ALLEY":" ","HOUSE_NO":"８號","E_COORD97":171225.57000000001,"N_COORD97":2545034.2400000002,"ADDRESS":"中華一路３２４巷８號","OBJECTID":304340},"geometry":{"x":171225.57000000216,"y":2545034.2400000021}},{"attributes":{"ID":304349,"DIS_CODE":0,"TOWNNAME":"麻豆區","LI":"油車里","LIN":"8鄰","STREET":"新生北路","SECT":" ","MAREA":" ","LANE":"３９２巷","ALLEY":" ","HOUSE_NO":"６號","E_COORD97":172594.64999999999,"N_COORD97":2565514.7200000002,"ADDRESS":"新生北路３９２巷６號","OBJECTID":304341},"geometry":{"x":172594.64999999944,"y":2565514.7200000007}},{"attributes":{"ID":304350,"DIS_CODE":0,"TOWNNAME":"麻豆區","LI":"油車里","LIN":"8鄰","STREET":"新生北路","SECT":" ","MAREA":" ","LANE":"３９２巷","ALLEY":" ","HOUSE_NO":"７號","E_COORD97":172617.67999999999,"N_COORD97":2565507.4399999999,"ADDRESS":"新生北路３９２巷７號","OBJECTID":304342},"geometry":{"x":172617.68000000156,"y":2565507.4399999995}},{"attributes":{"ID":304351,"DIS_CODE":0,"TOWNNAME":"麻豆區","LI":"油車里","LIN":"8鄰","STREET":"新生北路","SECT":" ","MAREA":" ","LANE":"３９２巷","ALLEY":" ","HOUSE_NO":"８號","E_COORD97":172594.89999999999,"N_COORD97":2565510.21,"ADDRESS":"新生北路３９２巷８號","OBJECTID":304343},"geometry":{"x":172594.9000000013,"y":2565510.2100000028}},{"attributes":{"ID":304352,"DIS_CODE":0,"TOWNNAME":"麻豆區","LI":"油車里","LIN":"8鄰","STREET":"新生北路","SECT":" ","MAREA":" ","LANE":"３９２巷","ALLEY":" ","HOUSE_NO":"９號","E_COORD97":172617.91,"N_COORD97":2565502.79,"ADDRESS":"新生北路３９２巷９號","OBJECTID":304344},"geometry":{"x":172617.91000000015,"y":2565502.7900000028}},{"attributes":{"ID":304353,"DIS_CODE":0,"TOWNNAME":"麻豆區","LI":"新建里","LIN":"8鄰","STREET":"新生南路","SECT":" ","MAREA":" ","LANE":"１１４巷","ALLEY":" ","HOUSE_NO":"２６號","E_COORD97":172227.79000000001,"N_COORD97":2564686.0499999998,"ADDRESS":"新生南路１１４巷２６號","OBJECTID":304345},"geometry":{"x":172227.79000000097,"y":2564686.0500000026}},{"attributes":{"ID":304354,"DIS_CODE":0,"TOWNNAME":"麻豆區","LI":"新建里","LIN":"8鄰","STREET":"新生南路","SECT":" ","MAREA":" ","LANE":"１１４巷","ALLEY":" ","HOUSE_NO":"２號","E_COORD97":172277.41,"N_COORD97":2564706.8700000001,"ADDRESS":"新生南路１１４巷２號","OBJECTID":304346},"geometry":{"x":172277.41000000201,"y":2564706.870000001}},{"attributes":{"ID":304355,"DIS_CODE":0,"TOWNNAME":"麻豆區","LI":"興農里","LIN":"8鄰","STREET":"新生南路","SECT":" ","MAREA":" ","LANE":"２１８巷","ALLEY":" ","HOUSE_NO":"２７號","E_COORD97":172273.91,"N_COORD97":2564395.9399999999,"ADDRESS":"新生南路２１８巷２７號","OBJECTID":304347},"geometry":{"x":172273.91000000015,"y":2564395.9399999995}},{"attributes":{"ID":304356,"DIS_CODE":0,"TOWNNAME":"北區","LI":"成功里","LIN":"20鄰","STREET":"中華北路","SECT":"二段","MAREA":" ","LANE":" ","ALLEY":" ","HOUSE_NO":"２８３之１號","E_COORD97":168907.70000000001,"N_COORD97":2546957.1699999999,"ADDRESS":"中華北路二段２８３之１號","OBJECTID":304348},"geometry":{"x":168907.70000000112,"y":2546957.1700000018}},{"attributes":{"ID":304357,"DIS_CODE":0,"TOWNNAME":"北區","LI":"成德里","LIN":"20鄰","STREET":"育德二路","SECT":" ","MAREA":" ","LANE":" ","ALLEY":" ","HOUSE_NO":"３３６號","E_COORD97":168348.95000000001,"N_COORD97":2546116.25,"ADDRESS":"育德二路３３６號","OBJECTID":304349},"geometry":{"x":168348.95000000019,"y":2546116.25}},{"attributes":{"ID":304358,"DIS_CODE":0,"TOWNNAME":"北區","LI":"成德里","LIN":"20鄰","STREET":"育德二路","SECT":" ","MAREA":" ","LANE":" ","ALLEY":" ","HOUSE_NO":"３３２號","E_COORD97":168351.17000000001,"N_COORD97":2546111.0099999998,"ADDRESS":"育德二路３３２號","OBJECTID":304350},"geometry":{"x":168351.17000000179,"y":2546111.0099999998}},{"attributes":{"ID":304359,"DIS_CODE":0,"TOWNNAME":"北區","LI":"成德里","LIN":"20鄰","STREET":"文成二街","SECT":" ","MAREA":" ","LANE":" ","ALLEY":" ","HOUSE_NO":"１５９號","E_COORD97":168496.76000000001,"N_COORD97":2546160.23,"ADDRESS":"文成二街１５９號","OBJECTID":304351},"geometry":{"x":168496.76000000071,"y":2546160.2300000023}},{"attributes":{"ID":304360,"DIS_CODE":0,"TOWNNAME":"北區","LI":"成德里","LIN":"20鄰","STREET":"文成二街","SECT":" ","MAREA":" ","LANE":" ","ALLEY":" ","HOUSE_NO":"１５７號","E_COORD97":168503.91,"N_COORD97":2546161.6600000001,"ADDRESS":"文成二街１５７號","OBJECTID":304352},"geometry":{"x":168503.91000000201,"y":2546161.6600000001}},{"attributes":{"ID":304361,"DIS_CODE":0,"TOWNNAME":"安南區","LI":"安順里","LIN":"17鄰","STREET":"開安二街","SECT":" ","MAREA":" ","LANE":" ","ALLEY":" ","HOUSE_NO":"５１號","E_COORD97":170668.70000000001,"N_COORD97":2549706.5800000001,"ADDRESS":"開安二街５１號","OBJECTID":304353},"geometry":{"x":170668.70000000112,"y":2549706.5800000019}},{"attributes":{"ID":304362,"DIS_CODE":0,"TOWNNAME":"安南區","LI":"安順里","LIN":"17鄰","STREET":"開安二街","SECT":" ","MAREA":" ","LANE":" ","ALLEY":" ","HOUSE_NO":"５７號","E_COORD97":170692.85999999999,"N_COORD97":2549688.27,"ADDRESS":"開安二街５７號","OBJECTID":304354},"geometry":{"x":170692.8599999994,"y":2549688.2700000014}},{"attributes":{"ID":304363,"DIS_CODE":0,"TOWNNAME":"永康區","LI":"崑山里","LIN":"40鄰","STREET":"崑山街","SECT":" ","MAREA":" ","LANE":"２００巷","ALLEY":" ","HOUSE_NO":"９號","E_COORD97":174108.17000000001,"N_COORD97":2544991.3599999999,"ADDRESS":"崑山街２００巷９號","OBJECTID":304355},"geometry":{"x":174108.17000000086,"y":2544991.3600000013}},{"attributes":{"ID":304364,"DIS_CODE":0,"TOWNNAME":"永康區","LI":"崑山里","LIN":"40鄰","STREET":"國光五街","SECT":" ","MAREA":" ","LANE":"９巷","ALLEY":" ","HOUSE_NO":"８號","E_COORD97":174166.13,"N_COORD97":2545045.4199999999,"ADDRESS":"國光五街９巷８號","OBJECTID":304356},"geometry":{"x":174166.13000000082,"y":2545045.4200000037}},{"attributes":{"ID":304365,"DIS_CODE":0,"TOWNNAME":"後壁區","LI":"菁豊里","LIN":"4鄰","STREET":" ","SECT":" ","MAREA":"前菁寮","LANE":" ","ALLEY":" ","HOUSE_NO":"３７號之１","E_COORD97":183096.82000000001,"N_COORD97":2586429.6800000002,"ADDRESS":"前菁寮３７號之１","OBJECTID":304357},"geometry":{"x":183096.81999999937,"y":2586429.6800000034}},{"attributes":{"ID":304366,"DIS_CODE":0,"TOWNNAME":"後壁區","LI":"菁豊里","LIN":"4鄰","STREET":" ","SECT":" ","MAREA":"前菁寮","LANE":" ","ALLEY":" ","HOUSE_NO":"３８號之１","E_COORD97":183129.39000000001,"N_COORD97":2586444.2799999998,"ADDRESS":"前菁寮３８號之１","OBJECTID":304358},"geometry":{"x":183129.38999999966,"y":2586444.2799999993}},{"attributes":{"ID":304367,"DIS_CODE":0,"TOWNNAME":"永康區","LI":"崑山里","LIN":"20鄰","STREET":"崑山街","SECT":" ","MAREA":" ","LANE":"２１巷","ALLEY":" ","HOUSE_NO":"３８號","E_COORD97":173832.14000000001,"N_COORD97":2544594.4100000001,"ADDRESS":"崑山街２１巷３８號","OBJECTID":304359},"geometry":{"x":173832.1400000006,"y":2544594.4099999983}},{"attributes":{"ID":304368,"DIS_CODE":0,"TOWNNAME":"永康區","LI":"埔園里","LIN":"39鄰","STREET":"聖龍街","SECT":" ","MAREA":" ","LANE":"１６５巷","ALLEY":" ","HOUSE_NO":"１號","E_COORD97":174271.42999999999,"N_COORD97":2547875.0499999998,"ADDRESS":"聖龍街１６５巷１號","OBJECTID":304360},"geometry":{"x":174271.4299999997,"y":2547875.0500000007}},{"attributes":{"ID":304369,"DIS_CODE":0,"TOWNNAME":"麻豆區","LI":"興農里","LIN":"8鄰","STREET":"新生南路","SECT":" ","MAREA":" ","LANE":"２１８巷","ALLEY":" ","HOUSE_NO":"２９號","E_COORD97":172275.26999999999,"N_COORD97":2564392.1099999999,"ADDRESS":"新生南路２１８巷２９號","OBJECTID":304361},"geometry":{"x":172275.26999999955,"y":2564392.1099999975}},{"attributes":{"ID":304370,"DIS_CODE":0,"TOWNNAME":"安南區","LI":"安順里","LIN":"17鄰","STREET":"開安三街","SECT":" ","MAREA":" ","LANE":" ","ALLEY":" ","HOUSE_NO":"２０號","E_COORD97":170532.01000000001,"N_COORD97":2549811.9100000001,"ADDRESS":"開安三街２０號","OBJECTID":304362},"geometry":{"x":170532.01000000164,"y":2549811.9100000001}},{"attributes":{"ID":304371,"DIS_CODE":0,"TOWNNAME":"安南區","LI":"州北里","LIN":"17鄰","STREET":"安和路","SECT":"六段","MAREA":" ","LANE":" ","ALLEY":" ","HOUSE_NO":"７２號","E_COORD97":169576.60999999999,"N_COORD97":2552492.79,"ADDRESS":"安和路六段７２號","OBJECTID":304363},"geometry":{"x":169576.61000000127,"y":2552492.7899999991}},{"attributes":{"ID":304372,"DIS_CODE":0,"TOWNNAME":"安南區","LI":"州北里","LIN":"17鄰","STREET":"安和路","SECT":"六段","MAREA":" ","LANE":" ","ALLEY":" ","HOUSE_NO":"１１８號","E_COORD97":169530.26000000001,"N_COORD97":2552561.6200000001,"ADDRESS":"安和路六段１１８號","OBJECTID":304364},"geometry":{"x":169530.26000000164,"y":2552561.6200000048}},{"attributes":{"ID":304373,"DIS_CODE":0,"TOWNNAME":"安南區","LI":"州北里","LIN":"17鄰","STREET":"安和路","SECT":"六段","MAREA":" ","LANE":" ","ALLEY":" ","HOUSE_NO":"１２２號","E_COORD97":169524.51000000001,"N_COORD97":2552595.8199999998,"ADDRESS":"安和路六段１２２號","OBJECTID":304365},"geometry":{"x":169524.50999999978,"y":2552595.8200000003}},{"attributes":{"ID":304374,"DIS_CODE":0,"TOWNNAME":"後壁區","LI":"頂安里","LIN":"4鄰","STREET":" ","SECT":" ","MAREA":"頂寮","LANE":" ","ALLEY":" ","HOUSE_NO":"３９號之３","E_COORD97":183968.87,"N_COORD97":2581494.02,"ADDRESS":"頂寮３９號之３","OBJECTID":304366},"geometry":{"x":183968.87000000011,"y":2581494.0200000033}},{"attributes":{"ID":304375,"DIS_CODE":0,"TOWNNAME":"後壁區","LI":"頂安里","LIN":"4鄰","STREET":" ","SECT":" ","MAREA":"頂寮","LANE":" ","ALLEY":" ","HOUSE_NO":"４１號之４８","E_COORD97":183958.45999999999,"N_COORD97":2581374.6800000002,"ADDRESS":"頂寮４１號之４８","OBJECTID":304367},"geometry":{"x":183958.46000000183,"y":2581374.6800000034}},{"attributes":{"ID":304376,"DIS_CODE":0,"TOWNNAME":"後壁區","LI":"頂安里","LIN":"4鄰","STREET":" ","SECT":" ","MAREA":"頂寮","LANE":" ","ALLEY":" ","HOUSE_NO":"４１號之４９","E_COORD97":183961.67999999999,"N_COORD97":2581378.8399999999,"ADDRESS":"頂寮４１號之４９","OBJECTID":304368},"geometry":{"x":183961.67999999877,"y":2581378.8399999999}},{"attributes":{"ID":304377,"DIS_CODE":0,"TOWNNAME":"後壁區","LI":"頂安里","LIN":"4鄰","STREET":" ","SECT":" ","MAREA":"頂寮","LANE":" ","ALLEY":" ","HOUSE_NO":"４１號之５０","E_COORD97":183965.48000000001,"N_COORD97":2581382.6200000001,"ADDRESS":"頂寮４１號之５０","OBJECTID":304369},"geometry":{"x":183965.47999999952,"y":2581382.620000001}},{"attributes":{"ID":304378,"DIS_CODE":0,"TOWNNAME":"後壁區","LI":"頂安里","LIN":"4鄰","STREET":" ","SECT":" ","MAREA":"頂寮","LANE":" ","ALLEY":" ","HOUSE_NO":"４１號之５２","E_COORD97":183967.32999999999,"N_COORD97":2581388.6400000001,"ADDRESS":"頂寮４１號之５２","OBJECTID":304370},"geometry":{"x":183967.33000000007,"y":2581388.6400000006}},{"attributes":{"ID":304379,"DIS_CODE":0,"TOWNNAME":"後壁區","LI":"頂安里","LIN":"4鄰","STREET":" ","SECT":" ","MAREA":"頂寮","LANE":" ","ALLEY":" ","HOUSE_NO":"４１號之５３","E_COORD97":183988.39000000001,"N_COORD97":2581358.1499999999,"ADDRESS":"頂寮４１號之５３","OBJECTID":304371},"geometry":{"x":183988.38999999966,"y":2581358.1500000004}},{"attributes":{"ID":304380,"DIS_CODE":0,"TOWNNAME":"後壁區","LI":"頂安里","LIN":"4鄰","STREET":" ","SECT":" ","MAREA":"頂寮","LANE":" ","ALLEY":" ","HOUSE_NO":"４１號之５４","E_COORD97":183987.45000000001,"N_COORD97":2581362.1200000001,"ADDRESS":"頂寮４１號之５４","OBJECTID":304372},"geometry":{"x":183987.44999999925,"y":2581362.120000001}},{"attributes":{"ID":304381,"DIS_CODE":0,"TOWNNAME":"後壁區","LI":"頂安里","LIN":"4鄰","STREET":" ","SECT":" ","MAREA":"頂寮","LANE":" ","ALLEY":" ","HOUSE_NO":"４１號之５７","E_COORD97":183984.45999999999,"N_COORD97":2581374.0299999998,"ADDRESS":"頂寮４１號之５７","OBJECTID":304373},"geometry":{"x":183984.46000000089,"y":2581374.0299999993}},{"attributes":{"ID":304382,"DIS_CODE":0,"TOWNNAME":"安南區","LI":"頂安里","LIN":"4鄰","STREET":"長溪路","SECT":"一段","MAREA":" ","LANE":"４７６巷","ALLEY":" ","HOUSE_NO":"１５號","E_COORD97":168550.5,"N_COORD97":2549071,"ADDRESS":"長溪路一段４７６巷１５號","OBJECTID":304374},"geometry":{"x":168550.5,"y":2549071}},{"attributes":{"ID":304383,"DIS_CODE":0,"TOWNNAME":"後壁區","LI":"頂安里","LIN":"4鄰","STREET":" ","SECT":" ","MAREA":"頂寮","LANE":" ","ALLEY":" ","HOUSE_NO":"４１號之５８","E_COORD97":183983.78,"N_COORD97":2581378.27,"ADDRESS":"頂寮４１號之５８","OBJECTID":304375},"geometry":{"x":183983.78000000212,"y":2581378.2700000014}},{"attributes":{"ID":304384,"DIS_CODE":0,"TOWNNAME":"安南區","LI":"東和里","LIN":"7鄰","STREET":"長和路","SECT":"一段","MAREA":" ","LANE":"１巷","ALLEY":" ","HOUSE_NO":"３００號","E_COORD97":171231.62,"N_COORD97":2549867.9900000002,"ADDRESS":"長和路一段１巷３００號","OBJECTID":304376},"geometry":{"x":171231.61999999918,"y":2549867.9900000002}},{"attributes":{"ID":304385,"DIS_CODE":0,"TOWNNAME":"安南區","LI":"新順里","LIN":"14鄰","STREET":"安和路","SECT":"二段","MAREA":" ","LANE":"３１８巷","ALLEY":" ","HOUSE_NO":"１００號之２","E_COORD97":170215.19,"N_COORD97":2549244.7599999998,"ADDRESS":"安和路二段３１８巷１００號之２","OBJECTID":304377},"geometry":{"x":170215.19000000134,"y":2549244.7600000016}},{"attributes":{"ID":304386,"DIS_CODE":0,"TOWNNAME":"後壁區","LI":"頂安里","LIN":"4鄰","STREET":" ","SECT":" ","MAREA":"頂寮","LANE":" ","ALLEY":" ","HOUSE_NO":"４１號之５９","E_COORD97":183983.09,"N_COORD97":2581382.27,"ADDRESS":"頂寮４１號之５９","OBJECTID":304378},"geometry":{"x":183983.09000000078,"y":2581382.2699999996}},{"attributes":{"ID":304387,"DIS_CODE":0,"TOWNNAME":"後壁區","LI":"頂安里","LIN":"4鄰","STREET":" ","SECT":" ","MAREA":"頂寮","LANE":" ","ALLEY":" ","HOUSE_NO":"４１號之６０","E_COORD97":183982.62,"N_COORD97":2581386.2400000002,"ADDRESS":"頂寮４１號之６０","OBJECTID":304379},"geometry":{"x":183982.62000000011,"y":2581386.2400000021}},{"attributes":{"ID":304388,"DIS_CODE":0,"TOWNNAME":"後壁區","LI":"頂安里","LIN":"4鄰","STREET":" ","SECT":" ","MAREA":"頂寮","LANE":" ","ALLEY":" ","HOUSE_NO":"４１號之６１","E_COORD97":183981.35000000001,"N_COORD97":2581390.8500000001,"ADDRESS":"頂寮４１號之６１","OBJECTID":304380},"geometry":{"x":183981.35000000056,"y":2581390.8500000015}},{"attributes":{"ID":304389,"DIS_CODE":0,"TOWNNAME":"麻豆區","LI":"興農里","LIN":"8鄰","STREET":"新生南路","SECT":" ","MAREA":" ","LANE":"２１８巷","ALLEY":" ","HOUSE_NO":"３１號","E_COORD97":172276.64999999999,"N_COORD97":2564388.02,"ADDRESS":"新生南路２１８巷３１號","OBJECTID":304381},"geometry":{"x":172276.6500000013,"y":2564388.0199999996}},{"attributes":{"ID":304390,"DIS_CODE":0,"TOWNNAME":"麻豆區","LI":"興農里","LIN":"8鄰","STREET":"新生南路","SECT":" ","MAREA":" ","LANE":"２１８巷","ALLEY":" ","HOUSE_NO":"３３號","E_COORD97":172278.06,"N_COORD97":2564384.1899999999,"ADDRESS":"新生南路２１８巷３３號","OBJECTID":304382},"geometry":{"x":172278.06000000052,"y":2564384.1899999995}},{"attributes":{"ID":304391,"DIS_CODE":0,"TOWNNAME":"麻豆區","LI":"興農里","LIN":"8鄰","STREET":"新生南路","SECT":" ","MAREA":" ","LANE":"２１８巷","ALLEY":" ","HOUSE_NO":"３５號","E_COORD97":172279.14000000001,"N_COORD97":2564380.5699999998,"ADDRESS":"新生南路２１８巷３５號","OBJECTID":304383},"geometry":{"x":172279.1400000006,"y":2564380.5700000022}},{"attributes":{"ID":304392,"DIS_CODE":0,"TOWNNAME":"安南區","LI":"州北里","LIN":"17鄰","STREET":"安和路","SECT":"六段","MAREA":" ","LANE":" ","ALLEY":" ","HOUSE_NO":"１３３號","E_COORD97":169460.73000000001,"N_COORD97":2552584.7799999998,"ADDRESS":"安和路六段１３３號","OBJECTID":304384},"geometry":{"x":169460.73000000045,"y":2552584.7799999993}},{"attributes":{"ID":304393,"DIS_CODE":0,"TOWNNAME":"安南區","LI":"州北里","LIN":"17鄰","STREET":"安和路","SECT":"六段","MAREA":" ","LANE":" ","ALLEY":" ","HOUSE_NO":"１３１號","E_COORD97":169465.31,"N_COORD97":2552577.9100000001,"ADDRESS":"安和路六段１３１號","OBJECTID":304385},"geometry":{"x":169465.31000000145,"y":2552577.9100000001}},{"attributes":{"ID":304394,"DIS_CODE":0,"TOWNNAME":"安南區","LI":"州北里","LIN":"17鄰","STREET":"安和路","SECT":"六段","MAREA":" ","LANE":" ","ALLEY":" ","HOUSE_NO":"６１號","E_COORD97":169544.42000000001,"N_COORD97":2552442.9900000002,"ADDRESS":"安和路六段６１號","OBJECTID":304386},"geometry":{"x":169544.41999999899,"y":2552442.9900000039}},{"attributes":{"ID":304395,"DIS_CODE":0,"TOWNNAME":"安南區","LI":"州北里","LIN":"17鄰","STREET":"安和路","SECT":"六段","MAREA":" ","LANE":" ","ALLEY":" ","HOUSE_NO":"５５號","E_COORD97":169548.32000000001,"N_COORD97":2552432.46,"ADDRESS":"安和路六段５５號","OBJECTID":304387},"geometry":{"x":169548.3200000003,"y":2552432.4600000009}},{"attributes":{"ID":304396,"DIS_CODE":0,"TOWNNAME":"安南區","LI":"頂安里","LIN":"13鄰","STREET":"安中路","SECT":"一段","MAREA":" ","LANE":"３７９巷","ALLEY":" ","HOUSE_NO":"６號","E_COORD97":168352.85999999999,"N_COORD97":2548728.5600000001,"ADDRESS":"安中路一段３７９巷６號","OBJECTID":304388},"geometry":{"x":168352.86000000034,"y":2548728.5600000005}},{"attributes":{"ID":304397,"DIS_CODE":0,"TOWNNAME":"安南區","LI":"頂安里","LIN":"13鄰","STREET":"安中路","SECT":"一段","MAREA":" ","LANE":"３７９巷","ALLEY":" ","HOUSE_NO":"８號","E_COORD97":168352.07000000001,"N_COORD97":2548723.96,"ADDRESS":"安中路一段３７９巷８號","OBJECTID":304389},"geometry":{"x":168352.06999999937,"y":2548723.9600000009}},{"attributes":{"ID":304398,"DIS_CODE":0,"TOWNNAME":"安南區","LI":"東和里","LIN":"4鄰","STREET":"長和路","SECT":"一段","MAREA":" ","LANE":"８２３巷","ALLEY":" ","HOUSE_NO":"３６８號","E_COORD97":170756.31,"N_COORD97":2550825.6600000001,"ADDRESS":"長和路一段８２３巷３６８號","OBJECTID":304390},"geometry":{"x":170756.30999999959,"y":2550825.660000002}},{"attributes":{"ID":304399,"DIS_CODE":0,"TOWNNAME":"安南區","LI":"東和里","LIN":"4鄰","STREET":"長和路","SECT":"一段","MAREA":" ","LANE":"８２３巷","ALLEY":" ","HOUSE_NO":"１５６之３０號","E_COORD97":170773.92999999999,"N_COORD97":2550871.6600000001,"ADDRESS":"長和路一段８２３巷１５６之３０號","OBJECTID":304391},"geometry":{"x":170773.93000000063,"y":2550871.6599999983}},{"attributes":{"ID":304400,"DIS_CODE":0,"TOWNNAME":"安南區","LI":"東和里","LIN":"4鄰","STREET":"長和路","SECT":"一段","MAREA":" ","LANE":"８２３巷","ALLEY":" ","HOUSE_NO":"１３６號","E_COORD97":170844.20868800001,"N_COORD97":2551031.8732099999,"ADDRESS":"長和路一段８２３巷１３６號","OBJECTID":304392},"geometry":{"x":170844.20868800022,"y":2551031.8732079994}},{"attributes":{"ID":304401,"DIS_CODE":0,"TOWNNAME":"安南區","LI":"布袋里","LIN":"7鄰","STREET":"長和路","SECT":"四段","MAREA":" ","LANE":"２００巷","ALLEY":" ","HOUSE_NO":"１號","E_COORD97":168812.95999999999,"N_COORD97":2551701.6299999999,"ADDRESS":"長和路四段２００巷１號","OBJECTID":304393},"geometry":{"x":168812.95999999996,"y":2551701.6300000027}},{"attributes":{"ID":304402,"DIS_CODE":0,"TOWNNAME":"麻豆區","LI":"興農里","LIN":"8鄰","STREET":"新生南路","SECT":" ","MAREA":" ","LANE":"２１８巷","ALLEY":" ","HOUSE_NO":"３７號","E_COORD97":172280.66,"N_COORD97":2564376.4399999999,"ADDRESS":"新生南路２１８巷３７號","OBJECTID":304394},"geometry":{"x":172280.66000000015,"y":2564376.4400000032}},{"attributes":{"ID":304403,"DIS_CODE":0,"TOWNNAME":"麻豆區","LI":"興農里","LIN":"8鄰","STREET":"新生南路","SECT":" ","MAREA":" ","LANE":"２１８巷","ALLEY":" ","HOUSE_NO":"３９號","E_COORD97":172281.98000000001,"N_COORD97":2564372.3399999999,"ADDRESS":"新生南路２１８巷３９號","OBJECTID":304395},"geometry":{"x":172281.98000000045,"y":2564372.3400000017}},{"attributes":{"ID":304404,"DIS_CODE":0,"TOWNNAME":"麻豆區","LI":"興農里","LIN":"8鄰","STREET":"新生南路","SECT":" ","MAREA":" ","LANE":"２１８巷","ALLEY":" ","HOUSE_NO":"４１號","E_COORD97":172283.31,"N_COORD97":2564368.7599999998,"ADDRESS":"新生南路２１８巷４１號","OBJECTID":304396},"geometry":{"x":172283.31000000052,"y":2564368.7600000016}},{"attributes":{"ID":304405,"DIS_CODE":0,"TOWNNAME":"麻豆區","LI":"興農里","LIN":"8鄰","STREET":"新生南路","SECT":" ","MAREA":" ","LANE":"２１８巷","ALLEY":" ","HOUSE_NO":"４３號","E_COORD97":172284.67000000001,"N_COORD97":2564364.9199999999,"ADDRESS":"新生南路２１８巷４３號","OBJECTID":304397},"geometry":{"x":172284.67000000086,"y":2564364.9200000018}},{"attributes":{"ID":304406,"DIS_CODE":0,"TOWNNAME":"麻豆區","LI":"興農里","LIN":"8鄰","STREET":"新生南路","SECT":" ","MAREA":" ","LANE":"２１８巷","ALLEY":" ","HOUSE_NO":"４５號","E_COORD97":172285.94,"N_COORD97":2564360.8700000001,"ADDRESS":"新生南路２１８巷４５號","OBJECTID":304398},"geometry":{"x":172285.94000000227,"y":2564360.870000001}},{"attributes":{"ID":304407,"DIS_CODE":0,"TOWNNAME":"麻豆區","LI":"興農里","LIN":"8鄰","STREET":"新生南路","SECT":" ","MAREA":" ","LANE":"２１８巷","ALLEY":" ","HOUSE_NO":"４７號","E_COORD97":172287.23999999999,"N_COORD97":2564356.96,"ADDRESS":"新生南路２１８巷４７號","OBJECTID":304399},"geometry":{"x":172287.24000000209,"y":2564356.9600000009}},{"attributes":{"ID":304408,"DIS_CODE":0,"TOWNNAME":"麻豆區","LI":"興農里","LIN":"8鄰","STREET":"新生南路","SECT":" ","MAREA":" ","LANE":"２１８巷","ALLEY":" ","HOUSE_NO":"４９號","E_COORD97":172288.51999999999,"N_COORD97":2564353.27,"ADDRESS":"新生南路２１８巷４９號","OBJECTID":304400},"geometry":{"x":172288.52000000048,"y":2564353.2699999996}}]}