{"displayFieldName":"TOWNNAME","fieldAliases":{"ID":"ID","DIS_CODE":"DIS_CODE","TOWNNAME":"TOWNNAME","LI":"LI","LIN":"LIN","STREET":"STREET","SECT":"SECT","MAREA":"MAREA","LANE":"LANE","ALLEY":"ALLEY","HOUSE_NO":"HOUSE_NO","E_COORD97":"E_COORD97","N_COORD97":"N_COORD97","ADDRESS":"ADDRESS","OBJECTID":"OBJECTID"},"geometryType":"esriGeometryPoint","spatialReference":{"wkid":102443,"latestWkid":3826},"fields":[{"name":"ID","type":"esriFieldTypeDouble","alias":"ID"},{"name":"DIS_CODE","type":"esriFieldTypeInteger","alias":"DIS_CODE"},{"name":"TOWNNAME","type":"esriFieldTypeString","alias":"TOWNNAME","length":8},{"name":"LI","type":"esriFieldTypeString","alias":"LI","length":8},{"name":"LIN","type":"esriFieldTypeString","alias":"LIN","length":12},{"name":"STREET","type":"esriFieldTypeString","alias":"STREET","length":20},{"name":"SECT","type":"esriFieldTypeString","alias":"SECT","length":8},{"name":"MAREA","type":"esriFieldTypeString","alias":"MAREA","length":12},{"name":"LANE","type":"esriFieldTypeString","alias":"LANE","length":10},{"name":"ALLEY","type":"esriFieldTypeString","alias":"ALLEY","length":10},{"name":"HOUSE_NO","type":"esriFieldTypeString","alias":"HOUSE_NO","length":20},{"name":"E_COORD97","type":"esriFieldTypeDouble","alias":"E_COORD97"},{"name":"N_COORD97","type":"esriFieldTypeDouble","alias":"N_COORD97"},{"name":"ADDRESS","type":"esriFieldTypeString","alias":"ADDRESS","length":50},{"name":"OBJECTID","type":"esriFieldTypeOID","alias":"OBJECTID"}],"features":[{"attributes":{"ID":173002,"DIS_CODE":0,"TOWNNAME":"大內區","LI":"石湖里","LIN":"12鄰","STREET":" ","SECT":" ","MAREA":"石子瀨","LANE":" ","ALLEY":" ","HOUSE_NO":"３４６號之１５","E_COORD97":183726.41,"N_COORD97":2558226.2999999998,"ADDRESS":"石子瀨３４６號之１５","OBJECTID":173001},"geometry":{"x":183726.41000000015,"y":2558226.3000000026}},{"attributes":{"ID":173003,"DIS_CODE":0,"TOWNNAME":"永康區","LI":"尚頂里","LIN":"12鄰","STREET":"正南一街","SECT":" ","MAREA":" ","LANE":" ","ALLEY":" ","HOUSE_NO":"８６號","E_COORD97":171041.53,"N_COORD97":2547272.04,"ADDRESS":"正南一街８６號","OBJECTID":173002},"geometry":{"x":171041.53000000119,"y":2547272.040000001}},{"attributes":{"ID":173004,"DIS_CODE":0,"TOWNNAME":"大內區","LI":"二溪里","LIN":"12鄰","STREET":" ","SECT":" ","MAREA":"其子瓦","LANE":" ","ALLEY":" ","HOUSE_NO":"２０之１２號","E_COORD97":190499.17000000001,"N_COORD97":2557586.2999999998,"ADDRESS":"其子瓦２０之１２號","OBJECTID":173003},"geometry":{"x":190499.17000000086,"y":2557586.3000000007}},{"attributes":{"ID":173005,"DIS_CODE":0,"TOWNNAME":"大內區","LI":"石湖里","LIN":"12鄰","STREET":" ","SECT":" ","MAREA":"石子瀨","LANE":" ","ALLEY":" ","HOUSE_NO":"４５０號","E_COORD97":183559.57000000001,"N_COORD97":2558825.25,"ADDRESS":"石子瀨４５０號","OBJECTID":173004},"geometry":{"x":183559.56999999937,"y":2558825.2500000019}},{"attributes":{"ID":173006,"DIS_CODE":0,"TOWNNAME":"大內區","LI":"內江里","LIN":"12鄰","STREET":" ","SECT":" ","MAREA":"蒙正","LANE":" ","ALLEY":" ","HOUSE_NO":"８號之３","E_COORD97":185076.92000000001,"N_COORD97":2556356.2999999998,"ADDRESS":"蒙正８號之３","OBJECTID":173005},"geometry":{"x":185076.91999999993,"y":2556356.3000000007}},{"attributes":{"ID":173007,"DIS_CODE":0,"TOWNNAME":"東區","LI":"崇學里","LIN":"8鄰","STREET":"崇明十一街","SECT":" ","MAREA":" ","LANE":"１０巷","ALLEY":"１１弄","HOUSE_NO":"２４號","E_COORD97":170363.81,"N_COORD97":2541797.27,"ADDRESS":"崇明十一街１０巷１１弄２４號","OBJECTID":173006},"geometry":{"x":170363.81000000052,"y":2541797.2699999996}},{"attributes":{"ID":173008,"DIS_CODE":0,"TOWNNAME":"麻豆區","LI":"油車里","LIN":"12鄰","STREET":" ","SECT":" ","MAREA":"油車","LANE":" ","ALLEY":" ","HOUSE_NO":"７８號","E_COORD97":172506.20000000001,"N_COORD97":2566137.6000000001,"ADDRESS":"油車７８號","OBJECTID":173007},"geometry":{"x":172506.20000000112,"y":2566137.5999999996}},{"attributes":{"ID":173009,"DIS_CODE":0,"TOWNNAME":"麻豆區","LI":"油車里","LIN":"12鄰","STREET":" ","SECT":" ","MAREA":"油車","LANE":" ","ALLEY":" ","HOUSE_NO":"７９號之１","E_COORD97":172588.76999999999,"N_COORD97":2566005.5299999998,"ADDRESS":"油車７９號之１","OBJECTID":173008},"geometry":{"x":172588.77000000048,"y":2566005.5299999993}},{"attributes":{"ID":173010,"DIS_CODE":0,"TOWNNAME":"麻豆區","LI":"油車里","LIN":"12鄰","STREET":" ","SECT":" ","MAREA":"油車","LANE":" ","ALLEY":" ","HOUSE_NO":"７９號之３６","E_COORD97":172561.42000000001,"N_COORD97":2566077.8300000001,"ADDRESS":"油車７９號之３６","OBJECTID":173009},"geometry":{"x":172561.41999999993,"y":2566077.8300000019}},{"attributes":{"ID":173011,"DIS_CODE":0,"TOWNNAME":"東區","LI":"崇學里","LIN":"8鄰","STREET":"崇明十一街","SECT":" ","MAREA":" ","LANE":"１０巷","ALLEY":"１１弄","HOUSE_NO":"２６號","E_COORD97":170367.01000000001,"N_COORD97":2541801.3199999998,"ADDRESS":"崇明十一街１０巷１１弄２６號","OBJECTID":173010},"geometry":{"x":170367.00999999978,"y":2541801.3200000003}},{"attributes":{"ID":173012,"DIS_CODE":0,"TOWNNAME":"東區","LI":"崇學里","LIN":"8鄰","STREET":"崇明十一街","SECT":" ","MAREA":" ","LANE":"１０巷","ALLEY":"１１弄","HOUSE_NO":"２８號","E_COORD97":170369.66,"N_COORD97":2541805.2200000002,"ADDRESS":"崇明十一街１０巷１１弄２８號","OBJECTID":173011},"geometry":{"x":170369.66000000015,"y":2541805.2200000007}},{"attributes":{"ID":173013,"DIS_CODE":0,"TOWNNAME":"東區","LI":"崇學里","LIN":"8鄰","STREET":"崇明十一街","SECT":" ","MAREA":" ","LANE":"１０巷","ALLEY":"１１弄","HOUSE_NO":"３０號","E_COORD97":170373.01000000001,"N_COORD97":2541808.7000000002,"ADDRESS":"崇明十一街１０巷１１弄３０號","OBJECTID":173012},"geometry":{"x":170373.01000000071,"y":2541808.7000000011}},{"attributes":{"ID":173014,"DIS_CODE":0,"TOWNNAME":"東區","LI":"崇學里","LIN":"8鄰","STREET":"崇明十一街","SECT":" ","MAREA":" ","LANE":"１０巷","ALLEY":"１１弄","HOUSE_NO":"３２號","E_COORD97":170378.03,"N_COORD97":2541815.1099999999,"ADDRESS":"崇明十一街１０巷１１弄３２號","OBJECTID":173013},"geometry":{"x":170378.02999999933,"y":2541815.1099999994}},{"attributes":{"ID":173015,"DIS_CODE":0,"TOWNNAME":"東區","LI":"崇學里","LIN":"8鄰","STREET":"崇明十一街","SECT":" ","MAREA":" ","LANE":"１０巷","ALLEY":"１１弄","HOUSE_NO":"３４號","E_COORD97":170381.79999999999,"N_COORD97":2541821.7999999998,"ADDRESS":"崇明十一街１０巷１１弄３４號","OBJECTID":173014},"geometry":{"x":170381.79999999981,"y":2541821.8000000007}},{"attributes":{"ID":173016,"DIS_CODE":0,"TOWNNAME":"東區","LI":"崇學里","LIN":"8鄰","STREET":"崇明十一街","SECT":" ","MAREA":" ","LANE":"１０巷","ALLEY":"１１弄","HOUSE_NO":"３６號","E_COORD97":170384.87,"N_COORD97":2541824.3100000001,"ADDRESS":"崇明十一街１０巷１１弄３６號","OBJECTID":173015},"geometry":{"x":170384.87000000104,"y":2541824.3100000005}},{"attributes":{"ID":173017,"DIS_CODE":0,"TOWNNAME":"東區","LI":"崇學里","LIN":"8鄰","STREET":"崇明十一街","SECT":" ","MAREA":" ","LANE":"１０巷","ALLEY":"１１弄","HOUSE_NO":"３８號","E_COORD97":170387.94,"N_COORD97":2541827.7999999998,"ADDRESS":"崇明十一街１０巷１１弄３８號","OBJECTID":173016},"geometry":{"x":170387.94000000134,"y":2541827.8000000007}},{"attributes":{"ID":173018,"DIS_CODE":0,"TOWNNAME":"麻豆區","LI":"油車里","LIN":"12鄰","STREET":" ","SECT":" ","MAREA":"油車","LANE":" ","ALLEY":" ","HOUSE_NO":"８０號之１","E_COORD97":172613.22,"N_COORD97":2565972.8199999998,"ADDRESS":"油車８０號之１","OBJECTID":173017},"geometry":{"x":172613.21999999974,"y":2565972.8200000022}},{"attributes":{"ID":173019,"DIS_CODE":0,"TOWNNAME":"麻豆區","LI":"油車里","LIN":"12鄰","STREET":" ","SECT":" ","MAREA":"油車","LANE":" ","ALLEY":" ","HOUSE_NO":"８０號之２","E_COORD97":172612.57000000001,"N_COORD97":2565977.0600000001,"ADDRESS":"油車８０號之２","OBJECTID":173018},"geometry":{"x":172612.57000000123,"y":2565977.0600000042}},{"attributes":{"ID":173020,"DIS_CODE":0,"TOWNNAME":"安南區","LI":"佃東里","LIN":"8鄰","STREET":"十二佃路","SECT":" ","MAREA":" ","LANE":"８１巷","ALLEY":"２３弄","HOUSE_NO":"５號","E_COORD97":165415.75,"N_COORD97":2552055,"ADDRESS":"十二佃路８１巷２３弄５號","OBJECTID":173019},"geometry":{"x":165415.75,"y":2552055}},{"attributes":{"ID":173021,"DIS_CODE":0,"TOWNNAME":"麻豆區","LI":"大埕里","LIN":"12鄰","STREET":"忠孝路","SECT":" ","MAREA":" ","LANE":" ","ALLEY":" ","HOUSE_NO":"３號","E_COORD97":173055.51000000001,"N_COORD97":2565037.3599999999,"ADDRESS":"忠孝路３號","OBJECTID":173020},"geometry":{"x":173055.50999999978,"y":2565037.3599999994}},{"attributes":{"ID":173022,"DIS_CODE":0,"TOWNNAME":"麻豆區","LI":"油車里","LIN":"12鄰","STREET":" ","SECT":" ","MAREA":"油車","LANE":" ","ALLEY":" ","HOUSE_NO":"８０號","E_COORD97":172581.95000000001,"N_COORD97":2565986.8900000001,"ADDRESS":"油車８０號","OBJECTID":173021},"geometry":{"x":172581.95000000019,"y":2565986.8900000006}},{"attributes":{"ID":173023,"DIS_CODE":0,"TOWNNAME":"麻豆區","LI":"油車里","LIN":"12鄰","STREET":" ","SECT":" ","MAREA":"油車","LANE":" ","ALLEY":" ","HOUSE_NO":"８１號","E_COORD97":172570.95999999999,"N_COORD97":2565976.8999999999,"ADDRESS":"油車８１號","OBJECTID":173022},"geometry":{"x":172570.96000000089,"y":2565976.9000000004}},{"attributes":{"ID":173024,"DIS_CODE":0,"TOWNNAME":"安南區","LI":"州北里","LIN":"25鄰","STREET":"安和路","SECT":"五段","MAREA":" ","LANE":"１７１巷","ALLEY":"２７弄","HOUSE_NO":"１４號","E_COORD97":169748.81,"N_COORD97":2551776.0099999998,"ADDRESS":"安和路五段１７１巷２７弄１４號","OBJECTID":173023},"geometry":{"x":169748.81000000052,"y":2551776.0100000016}},{"attributes":{"ID":173025,"DIS_CODE":0,"TOWNNAME":"安南區","LI":"城南里","LIN":"4鄰","STREET":"城西街","SECT":"一段","MAREA":" ","LANE":"６１巷","ALLEY":"２８弄","HOUSE_NO":"９８號","E_COORD97":160561.35000000001,"N_COORD97":2551261.9700000002,"ADDRESS":"城西街一段６１巷２８弄９８號","OBJECTID":173024},"geometry":{"x":160561.34999999963,"y":2551261.9700000007}},{"attributes":{"ID":173026,"DIS_CODE":0,"TOWNNAME":"安南區","LI":"安富里","LIN":"4鄰","STREET":"郡安路","SECT":"五段","MAREA":" ","LANE":"１８４巷","ALLEY":"３８弄","HOUSE_NO":"４２之１號","E_COORD97":167337.07999999999,"N_COORD97":2547632.8500000001,"ADDRESS":"郡安路五段１８４巷３８弄４２之１號","OBJECTID":173025},"geometry":{"x":167337.08000000101,"y":2547632.8500000015}},{"attributes":{"ID":173027,"DIS_CODE":0,"TOWNNAME":"麻豆區","LI":"港尾里","LIN":"12鄰","STREET":" ","SECT":" ","MAREA":"客子寮","LANE":" ","ALLEY":" ","HOUSE_NO":"１０號","E_COORD97":169691.29999999999,"N_COORD97":2568225.54,"ADDRESS":"客子寮１０號","OBJECTID":173026},"geometry":{"x":169691.30000000075,"y":2568225.5399999991}},{"attributes":{"ID":173028,"DIS_CODE":0,"TOWNNAME":"麻豆區","LI":"港尾里","LIN":"12鄰","STREET":" ","SECT":" ","MAREA":"客子寮","LANE":" ","ALLEY":" ","HOUSE_NO":"１１號","E_COORD97":169703.87,"N_COORD97":2568239.5099999998,"ADDRESS":"客子寮１１號","OBJECTID":173027},"geometry":{"x":169703.87000000011,"y":2568239.5100000016}},{"attributes":{"ID":173029,"DIS_CODE":0,"TOWNNAME":"麻豆區","LI":"港尾里","LIN":"12鄰","STREET":" ","SECT":" ","MAREA":"客子寮","LANE":" ","ALLEY":" ","HOUSE_NO":"１號之１","E_COORD97":169034.09,"N_COORD97":2567675.8999999999,"ADDRESS":"客子寮１號之１","OBJECTID":173028},"geometry":{"x":169034.08999999985,"y":2567675.9000000004}},{"attributes":{"ID":173030,"DIS_CODE":0,"TOWNNAME":"麻豆區","LI":"港尾里","LIN":"12鄰","STREET":" ","SECT":" ","MAREA":"客子寮","LANE":" ","ALLEY":" ","HOUSE_NO":"１之２３號","E_COORD97":169657.45999999999,"N_COORD97":2568184.71,"ADDRESS":"客子寮１之２３號","OBJECTID":173029},"geometry":{"x":169657.45999999996,"y":2568184.7100000028}},{"attributes":{"ID":173031,"DIS_CODE":0,"TOWNNAME":"麻豆區","LI":"港尾里","LIN":"12鄰","STREET":" ","SECT":" ","MAREA":"客子寮","LANE":" ","ALLEY":" ","HOUSE_NO":"１號之２５","E_COORD97":168506.22,"N_COORD97":2568256,"ADDRESS":"客子寮１號之２５","OBJECTID":173030},"geometry":{"x":168506.21999999974,"y":2568256.0000000019}},{"attributes":{"ID":173032,"DIS_CODE":0,"TOWNNAME":"麻豆區","LI":"港尾里","LIN":"12鄰","STREET":" ","SECT":" ","MAREA":"客子寮","LANE":" ","ALLEY":" ","HOUSE_NO":"１號之２７","E_COORD97":168677.98999999999,"N_COORD97":2568063.6299999999,"ADDRESS":"客子寮１號之２７","OBJECTID":173031},"geometry":{"x":168677.98999999929,"y":2568063.6300000027}},{"attributes":{"ID":173033,"DIS_CODE":0,"TOWNNAME":"麻豆區","LI":"港尾里","LIN":"12鄰","STREET":" ","SECT":" ","MAREA":"客子寮","LANE":" ","ALLEY":" ","HOUSE_NO":"１號之２","E_COORD97":169124.56,"N_COORD97":2567960.1600000001,"ADDRESS":"客子寮１號之２","OBJECTID":173032},"geometry":{"x":169124.56000000145,"y":2567960.160000002}},{"attributes":{"ID":173034,"DIS_CODE":0,"TOWNNAME":"麻豆區","LI":"港尾里","LIN":"12鄰","STREET":" ","SECT":" ","MAREA":"客子寮","LANE":" ","ALLEY":" ","HOUSE_NO":"１號之６","E_COORD97":169620.92999999999,"N_COORD97":2568238.6000000001,"ADDRESS":"客子寮１號之６","OBJECTID":173033},"geometry":{"x":169620.93000000063,"y":2568238.6000000015}},{"attributes":{"ID":173035,"DIS_CODE":0,"TOWNNAME":"麻豆區","LI":"港尾里","LIN":"12鄰","STREET":" ","SECT":" ","MAREA":"客子寮","LANE":" ","ALLEY":" ","HOUSE_NO":"２號","E_COORD97":169661.26000000001,"N_COORD97":2568228.0800000001,"ADDRESS":"客子寮２號","OBJECTID":173034},"geometry":{"x":169661.26000000071,"y":2568228.0800000019}},{"attributes":{"ID":173036,"DIS_CODE":0,"TOWNNAME":"麻豆區","LI":"港尾里","LIN":"12鄰","STREET":" ","SECT":" ","MAREA":"客子寮","LANE":" ","ALLEY":" ","HOUSE_NO":"８號","E_COORD97":169670.69,"N_COORD97":2568286.79,"ADDRESS":"客子寮８號","OBJECTID":173035},"geometry":{"x":169670.69000000134,"y":2568286.790000001}},{"attributes":{"ID":173037,"DIS_CODE":0,"TOWNNAME":"麻豆區","LI":"港尾里","LIN":"12鄰","STREET":" ","SECT":" ","MAREA":"客子寮","LANE":" ","ALLEY":" ","HOUSE_NO":"９號之１","E_COORD97":169666.07999999999,"N_COORD97":2568045.3599999999,"ADDRESS":"客子寮９號之１","OBJECTID":173036},"geometry":{"x":169666.08000000101,"y":2568045.3600000031}},{"attributes":{"ID":173038,"DIS_CODE":0,"TOWNNAME":"麻豆區","LI":"港尾里","LIN":"12鄰","STREET":" ","SECT":" ","MAREA":"客子寮","LANE":" ","ALLEY":" ","HOUSE_NO":"９號之４","E_COORD97":169438.03,"N_COORD97":2567690.1499999999,"ADDRESS":"客子寮９號之４","OBJECTID":173037},"geometry":{"x":169438.03000000119,"y":2567690.1500000022}},{"attributes":{"ID":173039,"DIS_CODE":0,"TOWNNAME":"麻豆區","LI":"港尾里","LIN":"12鄰","STREET":" ","SECT":" ","MAREA":"客子寮","LANE":" ","ALLEY":" ","HOUSE_NO":"９號之５","E_COORD97":169566.48000000001,"N_COORD97":2568020.02,"ADDRESS":"客子寮９號之５","OBJECTID":173038},"geometry":{"x":169566.48000000045,"y":2568020.0199999996}},{"attributes":{"ID":173040,"DIS_CODE":0,"TOWNNAME":"麻豆區","LI":"港尾里","LIN":"12鄰","STREET":" ","SECT":" ","MAREA":"客子寮","LANE":" ","ALLEY":" ","HOUSE_NO":"９號之６","E_COORD97":169661.39999999999,"N_COORD97":2568128.5099999998,"ADDRESS":"客子寮９號之６","OBJECTID":173039},"geometry":{"x":169661.40000000037,"y":2568128.5099999998}},{"attributes":{"ID":173041,"DIS_CODE":0,"TOWNNAME":"麻豆區","LI":"港尾里","LIN":"12鄰","STREET":" ","SECT":" ","MAREA":"客子寮","LANE":" ","ALLEY":" ","HOUSE_NO":"９號之７","E_COORD97":169811.5,"N_COORD97":2568111.1200000001,"ADDRESS":"客子寮９號之７","OBJECTID":173040},"geometry":{"x":169811.5,"y":2568111.1200000029}},{"attributes":{"ID":173042,"DIS_CODE":0,"TOWNNAME":"麻豆區","LI":"港尾里","LIN":"12鄰","STREET":" ","SECT":" ","MAREA":"客子寮","LANE":" ","ALLEY":" ","HOUSE_NO":"９號","E_COORD97":169679.66,"N_COORD97":2568213.7000000002,"ADDRESS":"客子寮９號","OBJECTID":173041},"geometry":{"x":169679.66000000015,"y":2568213.7000000011}},{"attributes":{"ID":173043,"DIS_CODE":0,"TOWNNAME":"安南區","LI":"州北里","LIN":"24鄰","STREET":"安和路","SECT":"五段","MAREA":" ","LANE":"８４巷","ALLEY":"３８弄","HOUSE_NO":"４０之１號","E_COORD97":170157.04000000001,"N_COORD97":2551763.1000000001,"ADDRESS":"安和路五段８４巷３８弄４０之１號","OBJECTID":173042},"geometry":{"x":170157.04000000004,"y":2551763.0999999996}},{"attributes":{"ID":173044,"DIS_CODE":0,"TOWNNAME":"安南區","LI":"公親里","LIN":"1鄰","STREET":"公學路","SECT":"一段","MAREA":" ","LANE":"２２６巷","ALLEY":"１３弄","HOUSE_NO":"８號","E_COORD97":168059.45000000001,"N_COORD97":2553167.5,"ADDRESS":"公學路一段２２６巷１３弄８號","OBJECTID":173043},"geometry":{"x":168059.44999999925,"y":2553167.5}},{"attributes":{"ID":173045,"DIS_CODE":0,"TOWNNAME":"麻豆區","LI":"\u25A0江里","LIN":"12鄰","STREET":"建南一街","SECT":" ","MAREA":" ","LANE":" ","ALLEY":" ","HOUSE_NO":"３號","E_COORD97":173619.47,"N_COORD97":2564313.79,"ADDRESS":"建南一街３號","OBJECTID":173044},"geometry":{"x":173619.47000000067,"y":2564313.790000001}},{"attributes":{"ID":173046,"DIS_CODE":0,"TOWNNAME":"安南區","LI":"公親里","LIN":"4鄰","STREET":"公學路","SECT":"一段","MAREA":" ","LANE":"１２４巷","ALLEY":"２９弄","HOUSE_NO":"１號","E_COORD97":168255.95999999999,"N_COORD97":2553124.1000000001,"ADDRESS":"公學路一段１２４巷２９弄１號","OBJECTID":173045},"geometry":{"x":168255.96000000183,"y":2553124.1000000015}},{"attributes":{"ID":173047,"DIS_CODE":0,"TOWNNAME":"安南區","LI":"公親里","LIN":"4鄰","STREET":"公學路","SECT":"一段","MAREA":" ","LANE":"１２４巷","ALLEY":"２９弄","HOUSE_NO":"２號","E_COORD97":168254.66,"N_COORD97":2553119.5699999998,"ADDRESS":"公學路一段１２４巷２９弄２號","OBJECTID":173046},"geometry":{"x":168254.65999999922,"y":2553119.5700000003}},{"attributes":{"ID":173048,"DIS_CODE":0,"TOWNNAME":"安南區","LI":"公親里","LIN":"4鄰","STREET":"公學路","SECT":"一段","MAREA":" ","LANE":"１２４巷","ALLEY":"２９弄","HOUSE_NO":"３號","E_COORD97":168253.35999999999,"N_COORD97":2553114.3900000001,"ADDRESS":"公學路一段１２４巷２９弄３號","OBJECTID":173047},"geometry":{"x":168253.36000000034,"y":2553114.3900000006}},{"attributes":{"ID":173049,"DIS_CODE":0,"TOWNNAME":"安南區","LI":"公親里","LIN":"4鄰","STREET":"公學路","SECT":"一段","MAREA":" ","LANE":"１２４巷","ALLEY":"２９弄","HOUSE_NO":"５號","E_COORD97":168252.07000000001,"N_COORD97":2553107.2599999998,"ADDRESS":"公學路一段１２４巷２９弄５號","OBJECTID":173048},"geometry":{"x":168252.07000000216,"y":2553107.2599999998}},{"attributes":{"ID":173050,"DIS_CODE":0,"TOWNNAME":"仁德區","LI":"中生里","LIN":"12鄰","STREET":" ","SECT":" ","MAREA":"中洲","LANE":" ","ALLEY":" ","HOUSE_NO":"２０１號之１","E_COORD97":173110.45000000001,"N_COORD97":2534125.7999999998,"ADDRESS":"中洲２０１號之１","OBJECTID":173049},"geometry":{"x":173110.45000000019,"y":2534125.8000000007}},{"attributes":{"ID":173051,"DIS_CODE":0,"TOWNNAME":"仁德區","LI":"中生里","LIN":"12鄰","STREET":" ","SECT":" ","MAREA":"中洲","LANE":" ","ALLEY":" ","HOUSE_NO":"２０５號","E_COORD97":173138.26999999999,"N_COORD97":2534055.4900000002,"ADDRESS":"中洲２０５號","OBJECTID":173050},"geometry":{"x":173138.26999999955,"y":2534055.4900000002}},{"attributes":{"ID":173052,"DIS_CODE":0,"TOWNNAME":"仁德區","LI":"中生里","LIN":"12鄰","STREET":" ","SECT":" ","MAREA":"中洲","LANE":" ","ALLEY":" ","HOUSE_NO":"２０７號","E_COORD97":173138.62,"N_COORD97":2534031.4900000002,"ADDRESS":"中洲２０７號","OBJECTID":173051},"geometry":{"x":173138.62000000011,"y":2534031.4900000002}},{"attributes":{"ID":173053,"DIS_CODE":0,"TOWNNAME":"安南區","LI":"公親里","LIN":"4鄰","STREET":"公學路","SECT":"一段","MAREA":" ","LANE":"１２４巷","ALLEY":"２９弄","HOUSE_NO":"６號","E_COORD97":168250.12,"N_COORD97":2553102.0800000001,"ADDRESS":"公學路一段１２４巷２９弄６號","OBJECTID":173052},"geometry":{"x":168250.12000000104,"y":2553102.0800000001}},{"attributes":{"ID":173054,"DIS_CODE":0,"TOWNNAME":"佳里區","LI":"六安里","LIN":"19鄰","STREET":"延平路","SECT":" ","MAREA":" ","LANE":"５７７巷","ALLEY":"１弄","HOUSE_NO":"４０號","E_COORD97":165794.79000000001,"N_COORD97":2563513.5299999998,"ADDRESS":"延平路５７７巷１弄４０號","OBJECTID":173053},"geometry":{"x":165794.79000000097,"y":2563513.5299999993}},{"attributes":{"ID":173055,"DIS_CODE":0,"TOWNNAME":"佳里區","LI":"六安里","LIN":"19鄰","STREET":"延平路","SECT":" ","MAREA":" ","LANE":"５７７巷","ALLEY":"１弄","HOUSE_NO":"４號","E_COORD97":165910.95999999999,"N_COORD97":2563493.98,"ADDRESS":"延平路５７７巷１弄４號","OBJECTID":173054},"geometry":{"x":165910.95999999996,"y":2563493.9800000023}},{"attributes":{"ID":173056,"DIS_CODE":0,"TOWNNAME":"仁德區","LI":"仁愛里","LIN":"12鄰","STREET":" ","SECT":" ","MAREA":"仁愛","LANE":" ","ALLEY":" ","HOUSE_NO":"２６５號","E_COORD97":170315.88571100001,"N_COORD97":2540118.5950000002,"ADDRESS":"仁愛２６５號","OBJECTID":173055},"geometry":{"x":170315.88571099937,"y":2540118.5950000025}},{"attributes":{"ID":173057,"DIS_CODE":0,"TOWNNAME":"仁德區","LI":"仁愛里","LIN":"12鄰","STREET":" ","SECT":" ","MAREA":"仁愛","LANE":" ","ALLEY":" ","HOUSE_NO":"２６３號","E_COORD97":170309.953778,"N_COORD97":2540118.5950000002,"ADDRESS":"仁愛２６３號","OBJECTID":173056},"geometry":{"x":170309.95377800148,"y":2540118.5950000025}},{"attributes":{"ID":173058,"DIS_CODE":0,"TOWNNAME":"佳里區","LI":"六安里","LIN":"19鄰","STREET":"延平路","SECT":" ","MAREA":" ","LANE":"５７７巷","ALLEY":"１弄","HOUSE_NO":"５號","E_COORD97":165900.28,"N_COORD97":2563478.3900000001,"ADDRESS":"延平路５７７巷１弄５號","OBJECTID":173057},"geometry":{"x":165900.28000000119,"y":2563478.3900000006}},{"attributes":{"ID":173059,"DIS_CODE":0,"TOWNNAME":"佳里區","LI":"六安里","LIN":"19鄰","STREET":"延平路","SECT":" ","MAREA":" ","LANE":"５７７巷","ALLEY":"１弄","HOUSE_NO":"６號","E_COORD97":165904.07999999999,"N_COORD97":2563494.98,"ADDRESS":"延平路５７７巷１弄６號","OBJECTID":173058},"geometry":{"x":165904.08000000194,"y":2563494.9800000004}},{"attributes":{"ID":173060,"DIS_CODE":0,"TOWNNAME":"佳里區","LI":"六安里","LIN":"19鄰","STREET":"延平路","SECT":" ","MAREA":" ","LANE":"５７７巷","ALLEY":"１弄","HOUSE_NO":"７號","E_COORD97":165894.94,"N_COORD97":2563479.3199999998,"ADDRESS":"延平路５７７巷１弄７號","OBJECTID":173059},"geometry":{"x":165894.94000000041,"y":2563479.3200000003}},{"attributes":{"ID":173061,"DIS_CODE":0,"TOWNNAME":"佳里區","LI":"六安里","LIN":"19鄰","STREET":"延平路","SECT":" ","MAREA":" ","LANE":"５７７巷","ALLEY":"１弄","HOUSE_NO":"８號","E_COORD97":165898.14999999999,"N_COORD97":2563495.7200000002,"ADDRESS":"延平路５７７巷１弄８號","OBJECTID":173060},"geometry":{"x":165898.15000000037,"y":2563495.7200000025}},{"attributes":{"ID":173062,"DIS_CODE":0,"TOWNNAME":"佳里區","LI":"六安里","LIN":"19鄰","STREET":"延平路","SECT":" ","MAREA":" ","LANE":"５７７巷","ALLEY":"１弄","HOUSE_NO":"９號","E_COORD97":165888.28,"N_COORD97":2563480.46,"ADDRESS":"延平路５７７巷１弄９號","OBJECTID":173061},"geometry":{"x":165888.28000000119,"y":2563480.4600000028}},{"attributes":{"ID":173063,"DIS_CODE":0,"TOWNNAME":"佳里區","LI":"六安里","LIN":"20鄰","STREET":"延平路","SECT":" ","MAREA":" ","LANE":"５７７巷","ALLEY":"２弄","HOUSE_NO":"４號","E_COORD97":165768.35999999999,"N_COORD97":2563515.5,"ADDRESS":"延平路５７７巷２弄４號","OBJECTID":173062},"geometry":{"x":165768.3599999994,"y":2563515.5000000037}},{"attributes":{"ID":173064,"DIS_CODE":0,"TOWNNAME":"佳里區","LI":"六安里","LIN":"20鄰","STREET":"延平路","SECT":" ","MAREA":" ","LANE":"５７７巷","ALLEY":"２弄","HOUSE_NO":"５號","E_COORD97":165760.67999999999,"N_COORD97":2563502.5299999998,"ADDRESS":"延平路５７７巷２弄５號","OBJECTID":173063},"geometry":{"x":165760.68000000063,"y":2563502.5300000012}},{"attributes":{"ID":173065,"DIS_CODE":0,"TOWNNAME":"佳里區","LI":"六安里","LIN":"20鄰","STREET":"延平路","SECT":" ","MAREA":" ","LANE":"５７７巷","ALLEY":"２弄","HOUSE_NO":"６號","E_COORD97":165761.48000000001,"N_COORD97":2563516.46,"ADDRESS":"延平路５７７巷２弄６號","OBJECTID":173064},"geometry":{"x":165761.48000000138,"y":2563516.4600000009}},{"attributes":{"ID":173066,"DIS_CODE":0,"TOWNNAME":"佳里區","LI":"六安里","LIN":"20鄰","STREET":"延平路","SECT":" ","MAREA":" ","LANE":"５７７巷","ALLEY":"２弄","HOUSE_NO":"７號","E_COORD97":165754.67000000001,"N_COORD97":2563503.4500000002,"ADDRESS":"延平路５７７巷２弄７號","OBJECTID":173065},"geometry":{"x":165754.67000000086,"y":2563503.4499999993}},{"attributes":{"ID":173067,"DIS_CODE":0,"TOWNNAME":"佳里區","LI":"六安里","LIN":"20鄰","STREET":"延平路","SECT":" ","MAREA":" ","LANE":"５７７巷","ALLEY":"２弄","HOUSE_NO":"８號","E_COORD97":165755.48999999999,"N_COORD97":2563517.3900000001,"ADDRESS":"延平路５７７巷２弄８號","OBJECTID":173066},"geometry":{"x":165755.48999999929,"y":2563517.3900000025}},{"attributes":{"ID":173068,"DIS_CODE":0,"TOWNNAME":"佳里區","LI":"六安里","LIN":"20鄰","STREET":"延平路","SECT":" ","MAREA":" ","LANE":"５７７巷","ALLEY":"２弄","HOUSE_NO":"９號","E_COORD97":165748.04999999999,"N_COORD97":2563503.8599999999,"ADDRESS":"延平路５７７巷２弄９號","OBJECTID":173067},"geometry":{"x":165748.05000000168,"y":2563503.8600000013}},{"attributes":{"ID":173069,"DIS_CODE":0,"TOWNNAME":"佳里區","LI":"六安里","LIN":"17鄰","STREET":"延平路","SECT":" ","MAREA":" ","LANE":"５７７巷","ALLEY":"６２弄","HOUSE_NO":"１１號","E_COORD97":165739.51999999999,"N_COORD97":2563590.1699999999,"ADDRESS":"延平路５７７巷６２弄１１號","OBJECTID":173068},"geometry":{"x":165739.52000000142,"y":2563590.1700000018}},{"attributes":{"ID":173070,"DIS_CODE":0,"TOWNNAME":"佳里區","LI":"六安里","LIN":"17鄰","STREET":"延平路","SECT":" ","MAREA":" ","LANE":"５７７巷","ALLEY":"６２弄","HOUSE_NO":"１３號","E_COORD97":165740.60000000001,"N_COORD97":2563597.0499999998,"ADDRESS":"延平路５７７巷６２弄１３號","OBJECTID":173069},"geometry":{"x":165740.60000000149,"y":2563597.0500000007}},{"attributes":{"ID":173071,"DIS_CODE":0,"TOWNNAME":"佳里區","LI":"六安里","LIN":"17鄰","STREET":"延平路","SECT":" ","MAREA":" ","LANE":"５７７巷","ALLEY":"６２弄","HOUSE_NO":"１５號","E_COORD97":165741.67999999999,"N_COORD97":2563603.9300000002,"ADDRESS":"延平路５７７巷６２弄１５號","OBJECTID":173070},"geometry":{"x":165741.6799999997,"y":2563603.9300000034}},{"attributes":{"ID":173072,"DIS_CODE":0,"TOWNNAME":"佳里區","LI":"六安里","LIN":"17鄰","STREET":"延平路","SECT":" ","MAREA":" ","LANE":"５７７巷","ALLEY":"６２弄","HOUSE_NO":"１７號","E_COORD97":165742.76999999999,"N_COORD97":2563610.8100000001,"ADDRESS":"延平路５７７巷６２弄１７號","OBJECTID":173071},"geometry":{"x":165742.77000000142,"y":2563610.8100000005}},{"attributes":{"ID":173073,"DIS_CODE":0,"TOWNNAME":"仁德區","LI":"大甲里","LIN":"12鄰","STREET":"行大一街","SECT":" ","MAREA":" ","LANE":" ","ALLEY":" ","HOUSE_NO":"３０８號","E_COORD97":169573.84680999999,"N_COORD97":2535095.93505,"ADDRESS":"行大一街３０８號","OBJECTID":173072},"geometry":{"x":169573.84681000095,"y":2535095.935047999}},{"attributes":{"ID":173074,"DIS_CODE":0,"TOWNNAME":"學甲區","LI":"慈福里","LIN":"15鄰","STREET":"濟生路","SECT":" ","MAREA":" ","LANE":" ","ALLEY":" ","HOUSE_NO":"７６號之４","E_COORD97":166389.79999999999,"N_COORD97":2570271.8999999999,"ADDRESS":"濟生路７６號之４","OBJECTID":173073},"geometry":{"x":166389.79999999981,"y":2570271.9000000022}},{"attributes":{"ID":173075,"DIS_CODE":0,"TOWNNAME":"學甲區","LI":"慈福里","LIN":"15鄰","STREET":"濟生路","SECT":" ","MAREA":" ","LANE":" ","ALLEY":" ","HOUSE_NO":"７６號","E_COORD97":166407.70000000001,"N_COORD97":2570268.5600000001,"ADDRESS":"濟生路７６號","OBJECTID":173074},"geometry":{"x":166407.70000000019,"y":2570268.5600000005}},{"attributes":{"ID":173076,"DIS_CODE":0,"TOWNNAME":"北區","LI":"和順里","LIN":"25鄰","STREET":"公園南路","SECT":" ","MAREA":" ","LANE":" ","ALLEY":" ","HOUSE_NO":"３６５之１號","E_COORD97":168183.23000000001,"N_COORD97":2544798.5699999998,"ADDRESS":"公園南路３６５之１號","OBJECTID":173075},"geometry":{"x":168183.23000000045,"y":2544798.5700000022}},{"attributes":{"ID":173077,"DIS_CODE":0,"TOWNNAME":"北區","LI":"仁愛里","LIN":"15鄰","STREET":"長榮路","SECT":"四段","MAREA":" ","LANE":" ","ALLEY":" ","HOUSE_NO":"１１號","E_COORD97":170278.99210100001,"N_COORD97":2544840.88289,"ADDRESS":"長榮路四段１１號","OBJECTID":173076},"geometry":{"x":170278.99210100062,"y":2544840.8828849979}},{"attributes":{"ID":173078,"DIS_CODE":0,"TOWNNAME":"北區","LI":"仁愛里","LIN":"15鄰","STREET":"長榮路","SECT":"四段","MAREA":" ","LANE":" ","ALLEY":" ","HOUSE_NO":"１３號","E_COORD97":170279.54999999999,"N_COORD97":2544844.0299999998,"ADDRESS":"長榮路四段１３號","OBJECTID":173077},"geometry":{"x":170279.55000000075,"y":2544844.0300000031}},{"attributes":{"ID":173079,"DIS_CODE":0,"TOWNNAME":"北區","LI":"仁愛里","LIN":"15鄰","STREET":"長榮路","SECT":"四段","MAREA":" ","LANE":" ","ALLEY":" ","HOUSE_NO":"１５號","E_COORD97":170279.45999999999,"N_COORD97":2544849.1800000002,"ADDRESS":"長榮路四段１５號","OBJECTID":173078},"geometry":{"x":170279.45999999996,"y":2544849.1799999997}},{"attributes":{"ID":173080,"DIS_CODE":0,"TOWNNAME":"北區","LI":"仁愛里","LIN":"15鄰","STREET":"長榮路","SECT":"四段","MAREA":" ","LANE":" ","ALLEY":" ","HOUSE_NO":"１７號","E_COORD97":170279.38,"N_COORD97":2544854.77,"ADDRESS":"長榮路四段１７號","OBJECTID":173079},"geometry":{"x":170279.38000000082,"y":2544854.7699999996}},{"attributes":{"ID":173081,"DIS_CODE":0,"TOWNNAME":"北區","LI":"仁愛里","LIN":"15鄰","STREET":"長榮路","SECT":"四段","MAREA":" ","LANE":" ","ALLEY":" ","HOUSE_NO":"１９號","E_COORD97":170279.95999999999,"N_COORD97":2544859.4300000002,"ADDRESS":"長榮路四段１９號","OBJECTID":173080},"geometry":{"x":170279.96000000183,"y":2544859.4300000016}},{"attributes":{"ID":173082,"DIS_CODE":0,"TOWNNAME":"北區","LI":"仁愛里","LIN":"15鄰","STREET":"長榮路","SECT":"四段","MAREA":" ","LANE":" ","ALLEY":" ","HOUSE_NO":"２１號","E_COORD97":170280.37,"N_COORD97":2544865.0699999998,"ADDRESS":"長榮路四段２１號","OBJECTID":173081},"geometry":{"x":170280.37000000011,"y":2544865.070000004}},{"attributes":{"ID":173083,"DIS_CODE":0,"TOWNNAME":"北區","LI":"仁愛里","LIN":"15鄰","STREET":"長榮路","SECT":"四段","MAREA":" ","LANE":" ","ALLEY":" ","HOUSE_NO":"２３號","E_COORD97":170280.85999999999,"N_COORD97":2544869.4900000002,"ADDRESS":"長榮路四段２３號","OBJECTID":173082},"geometry":{"x":170280.86000000034,"y":2544869.4900000021}},{"attributes":{"ID":173084,"DIS_CODE":0,"TOWNNAME":"佳里區","LI":"六安里","LIN":"17鄰","STREET":"延平路","SECT":" ","MAREA":" ","LANE":"５７７巷","ALLEY":"７０弄","HOUSE_NO":"１０號","E_COORD97":165722.54000000001,"N_COORD97":2563584.8199999998,"ADDRESS":"延平路５７７巷７０弄１０號","OBJECTID":173083},"geometry":{"x":165722.54000000004,"y":2563584.820000004}},{"attributes":{"ID":173085,"DIS_CODE":0,"TOWNNAME":"佳里區","LI":"六安里","LIN":"17鄰","STREET":"延平路","SECT":" ","MAREA":" ","LANE":"５７７巷","ALLEY":"７０弄","HOUSE_NO":"１１號","E_COORD97":165697,"N_COORD97":2563601.9199999999,"ADDRESS":"延平路５７７巷７０弄１１號","OBJECTID":173084},"geometry":{"x":165697,"y":2563601.9200000018}},{"attributes":{"ID":173086,"DIS_CODE":0,"TOWNNAME":"佳里區","LI":"六安里","LIN":"17鄰","STREET":"延平路","SECT":" ","MAREA":" ","LANE":"５７７巷","ALLEY":"７０弄","HOUSE_NO":"１３號","E_COORD97":165698.03,"N_COORD97":2563608.4700000002,"ADDRESS":"延平路５７７巷７０弄１３號","OBJECTID":173085},"geometry":{"x":165698.03000000119,"y":2563608.4700000025}},{"attributes":{"ID":173087,"DIS_CODE":0,"TOWNNAME":"仁德區","LI":"保安里","LIN":"12鄰","STREET":"開發四路","SECT":" ","MAREA":" ","LANE":" ","ALLEY":" ","HOUSE_NO":"１７號","E_COORD97":172798.54999999999,"N_COORD97":2535861.02,"ADDRESS":"開發四路１７號","OBJECTID":173086},"geometry":{"x":172798.55000000075,"y":2535861.0200000014}},{"attributes":{"ID":173088,"DIS_CODE":0,"TOWNNAME":"佳里區","LI":"六安里","LIN":"17鄰","STREET":"延平路","SECT":" ","MAREA":" ","LANE":"５７７巷","ALLEY":"７０弄","HOUSE_NO":"１５號","E_COORD97":165699.07000000001,"N_COORD97":2563614.8100000001,"ADDRESS":"延平路５７７巷７０弄１５號","OBJECTID":173087},"geometry":{"x":165699.06999999937,"y":2563614.8100000005}},{"attributes":{"ID":173089,"DIS_CODE":0,"TOWNNAME":"佳里區","LI":"六安里","LIN":"17鄰","STREET":"延平路","SECT":" ","MAREA":" ","LANE":"５７７巷","ALLEY":"７６弄","HOUSE_NO":"１０號","E_COORD97":165635.60000000001,"N_COORD97":2563595.6400000001,"ADDRESS":"延平路５７７巷７６弄１０號","OBJECTID":173088},"geometry":{"x":165635.60000000149,"y":2563595.6400000006}},{"attributes":{"ID":173090,"DIS_CODE":0,"TOWNNAME":"仁德區","LI":"保安里","LIN":"12鄰","STREET":"開發六路","SECT":" ","MAREA":" ","LANE":" ","ALLEY":" ","HOUSE_NO":"３１號","E_COORD97":173165.67999999999,"N_COORD97":2535942.0099999998,"ADDRESS":"開發六路３１號","OBJECTID":173089},"geometry":{"x":173165.68000000063,"y":2535942.0100000016}},{"attributes":{"ID":173091,"DIS_CODE":0,"TOWNNAME":"佳里區","LI":"六安里","LIN":"17鄰","STREET":"延平路","SECT":" ","MAREA":" ","LANE":"５７７巷","ALLEY":"７６弄","HOUSE_NO":"１２號","E_COORD97":165636.51000000001,"N_COORD97":2563601.1000000001,"ADDRESS":"延平路５７７巷７６弄１２號","OBJECTID":173090},"geometry":{"x":165636.51000000071,"y":2563601.0999999996}},{"attributes":{"ID":173092,"DIS_CODE":0,"TOWNNAME":"仁德區","LI":"保安里","LIN":"12鄰","STREET":"開發六路","SECT":" ","MAREA":" ","LANE":" ","ALLEY":" ","HOUSE_NO":"１５號","E_COORD97":172948.98000000001,"N_COORD97":2535695.2599999998,"ADDRESS":"開發六路１５號","OBJECTID":173091},"geometry":{"x":172948.98000000138,"y":2535695.2599999979}},{"attributes":{"ID":173093,"DIS_CODE":0,"TOWNNAME":"東區","LI":"和平里","LIN":"2鄰","STREET":"文化路","SECT":" ","MAREA":" ","LANE":" ","ALLEY":" ","HOUSE_NO":"９９號","E_COORD97":171289.29999999999,"N_COORD97":2541983.5699999998,"ADDRESS":"文化路９９號","OBJECTID":173092},"geometry":{"x":171289.29999999981,"y":2541983.5700000022}},{"attributes":{"ID":173094,"DIS_CODE":0,"TOWNNAME":"佳里區","LI":"六安里","LIN":"17鄰","STREET":"延平路","SECT":" ","MAREA":" ","LANE":"５７７巷","ALLEY":"７６弄","HOUSE_NO":"１６號","E_COORD97":165637.42000000001,"N_COORD97":2563606.5499999998,"ADDRESS":"延平路５７７巷７６弄１６號","OBJECTID":173093},"geometry":{"x":165637.42000000086,"y":2563606.5500000007}},{"attributes":{"ID":173095,"DIS_CODE":0,"TOWNNAME":"東區","LI":"和平里","LIN":"2鄰","STREET":"東門路","SECT":"三段","MAREA":" ","LANE":" ","ALLEY":" ","HOUSE_NO":"１６８號","E_COORD97":171373.42000000001,"N_COORD97":2542075.0600000001,"ADDRESS":"東門路三段１６８號","OBJECTID":173094},"geometry":{"x":171373.41999999993,"y":2542075.0600000042}},{"attributes":{"ID":173096,"DIS_CODE":0,"TOWNNAME":"佳里區","LI":"六安里","LIN":"17鄰","STREET":"延平路","SECT":" ","MAREA":" ","LANE":"５７７巷","ALLEY":"７６弄","HOUSE_NO":"１８號","E_COORD97":165638.32999999999,"N_COORD97":2563612,"ADDRESS":"延平路５７７巷７６弄１８號","OBJECTID":173095},"geometry":{"x":165638.33000000101,"y":2563612.0000000019}},{"attributes":{"ID":173097,"DIS_CODE":0,"TOWNNAME":"東區","LI":"文聖里","LIN":"19鄰","STREET":"裕信二街","SECT":" ","MAREA":" ","LANE":" ","ALLEY":" ","HOUSE_NO":"６號","E_COORD97":172639,"N_COORD97":2542746.1299999999,"ADDRESS":"裕信二街６號","OBJECTID":173096},"geometry":{"x":172639,"y":2542746.129999999}},{"attributes":{"ID":173098,"DIS_CODE":0,"TOWNNAME":"佳里區","LI":"六安里","LIN":"17鄰","STREET":"延平路","SECT":" ","MAREA":" ","LANE":"５７７巷","ALLEY":"７６弄","HOUSE_NO":"２０號","E_COORD97":165639.23999999999,"N_COORD97":2563617.46,"ADDRESS":"延平路５７７巷７６弄２０號","OBJECTID":173097},"geometry":{"x":165639.24000000115,"y":2563617.4600000009}},{"attributes":{"ID":173099,"DIS_CODE":0,"TOWNNAME":"佳里區","LI":"六安里","LIN":"17鄰","STREET":"延平路","SECT":" ","MAREA":" ","LANE":"５７７巷","ALLEY":"７６弄","HOUSE_NO":"２２號","E_COORD97":165640.14999999999,"N_COORD97":2563622.9100000001,"ADDRESS":"延平路５７７巷７６弄２２號","OBJECTID":173098},"geometry":{"x":165640.1500000013,"y":2563622.910000002}},{"attributes":{"ID":173100,"DIS_CODE":0,"TOWNNAME":"佳里區","LI":"六安里","LIN":"17鄰","STREET":"延平路","SECT":" ","MAREA":" ","LANE":"５７７巷","ALLEY":"７６弄","HOUSE_NO":"２６號","E_COORD97":165641.06,"N_COORD97":2563628.3700000001,"ADDRESS":"延平路５７７巷７６弄２６號","OBJECTID":173099},"geometry":{"x":165641.06000000052,"y":2563628.370000001}},{"attributes":{"ID":173101,"DIS_CODE":0,"TOWNNAME":"東區","LI":"大學里","LIN":"4鄰","STREET":"大學路","SECT":" ","MAREA":" ","LANE":" ","ALLEY":" ","HOUSE_NO":"２４之１號","E_COORD97":170161.26999999999,"N_COORD97":2544042.8199999998,"ADDRESS":"大學路２４之１號","OBJECTID":173100},"geometry":{"x":170161.27000000048,"y":2544042.820000004}},{"attributes":{"ID":173102,"DIS_CODE":0,"TOWNNAME":"佳里區","LI":"六安里","LIN":"25鄰","STREET":"林園街","SECT":" ","MAREA":" ","LANE":"１７４巷","ALLEY":"１８弄","HOUSE_NO":"９號","E_COORD97":165678.79999999999,"N_COORD97":2562917.79,"ADDRESS":"林園街１７４巷１８弄９號","OBJECTID":173101},"geometry":{"x":165678.80000000075,"y":2562917.7899999991}},{"attributes":{"ID":173103,"DIS_CODE":0,"TOWNNAME":"東區","LI":"大學里","LIN":"4鄰","STREET":"大學路","SECT":" ","MAREA":" ","LANE":" ","ALLEY":" ","HOUSE_NO":"２４之２號","E_COORD97":170168.26999999999,"N_COORD97":2544042.5600000001,"ADDRESS":"大學路２４之２號","OBJECTID":173102},"geometry":{"x":170168.26999999955,"y":2544042.5600000024}},{"attributes":{"ID":173104,"DIS_CODE":0,"TOWNNAME":"佳里區","LI":"六安里","LIN":"25鄰","STREET":"林園街","SECT":" ","MAREA":" ","LANE":"１７４巷","ALLEY":"３６弄","HOUSE_NO":"１０號","E_COORD97":165671.54999999999,"N_COORD97":2562975.6499999999,"ADDRESS":"林園街１７４巷３６弄１０號","OBJECTID":173103},"geometry":{"x":165671.54999999888,"y":2562975.6499999985}},{"attributes":{"ID":173105,"DIS_CODE":0,"TOWNNAME":"佳里區","LI":"六安里","LIN":"25鄰","STREET":"林園街","SECT":" ","MAREA":" ","LANE":"１７４巷","ALLEY":"３６弄","HOUSE_NO":"１２號","E_COORD97":165675.19,"N_COORD97":2562976.2400000002,"ADDRESS":"林園街１７４巷３６弄１２號","OBJECTID":173104},"geometry":{"x":165675.19000000134,"y":2562976.2400000021}},{"attributes":{"ID":173106,"DIS_CODE":0,"TOWNNAME":"佳里區","LI":"六安里","LIN":"25鄰","STREET":"林園街","SECT":" ","MAREA":" ","LANE":"１７４巷","ALLEY":"３６弄","HOUSE_NO":"１４號","E_COORD97":165679.95999999999,"N_COORD97":2562975.2999999998,"ADDRESS":"林園街１７４巷３６弄１４號","OBJECTID":173105},"geometry":{"x":165679.96000000089,"y":2562975.3000000045}},{"attributes":{"ID":173107,"DIS_CODE":0,"TOWNNAME":"佳里區","LI":"六安里","LIN":"25鄰","STREET":"林園街","SECT":" ","MAREA":" ","LANE":"１７４巷","ALLEY":"３６弄","HOUSE_NO":"２號","E_COORD97":165654.95999999999,"N_COORD97":2562976.0099999998,"ADDRESS":"林園街１７４巷３６弄２號","OBJECTID":173106},"geometry":{"x":165654.95999999996,"y":2562976.0099999979}},{"attributes":{"ID":173108,"DIS_CODE":0,"TOWNNAME":"佳里區","LI":"六安里","LIN":"25鄰","STREET":"林園街","SECT":" ","MAREA":" ","LANE":"１７４巷","ALLEY":"３６弄","HOUSE_NO":"４號","E_COORD97":165659.25,"N_COORD97":2562976.02,"ADDRESS":"林園街１７４巷３６弄４號","OBJECTID":173107},"geometry":{"x":165659.25000000093,"y":2562976.0200000033}},{"attributes":{"ID":173109,"DIS_CODE":0,"TOWNNAME":"佳里區","LI":"六安里","LIN":"25鄰","STREET":"林園街","SECT":" ","MAREA":" ","LANE":"１７４巷","ALLEY":"３６弄","HOUSE_NO":"６號","E_COORD97":165663.64999999999,"N_COORD97":2562975.8100000001,"ADDRESS":"林園街１７４巷３６弄６號","OBJECTID":173108},"geometry":{"x":165663.6500000013,"y":2562975.8100000024}},{"attributes":{"ID":173110,"DIS_CODE":0,"TOWNNAME":"佳里區","LI":"六安里","LIN":"25鄰","STREET":"林園街","SECT":" ","MAREA":" ","LANE":"１７４巷","ALLEY":"３６弄","HOUSE_NO":"８號","E_COORD97":165667.73999999999,"N_COORD97":2562975.75,"ADDRESS":"林園街１７４巷３６弄８號","OBJECTID":173109},"geometry":{"x":165667.74000000115,"y":2562975.7500000019}},{"attributes":{"ID":173111,"DIS_CODE":0,"TOWNNAME":"安南區","LI":"安東里","LIN":"7鄰","STREET":"安和路","SECT":"一段","MAREA":" ","LANE":"２８８巷","ALLEY":"１５弄","HOUSE_NO":"２５號","E_COORD97":169342.35999999999,"N_COORD97":2548140.3700000001,"ADDRESS":"安和路一段２８８巷１５弄２５號","OBJECTID":173110},"geometry":{"x":169342.36000000127,"y":2548140.3700000029}},{"attributes":{"ID":173112,"DIS_CODE":0,"TOWNNAME":"安南區","LI":"安東里","LIN":"7鄰","STREET":"安和路","SECT":"一段","MAREA":" ","LANE":"２８８巷","ALLEY":"１５弄","HOUSE_NO":"２７號","E_COORD97":169339.57000000001,"N_COORD97":2548156.29,"ADDRESS":"安和路一段２８８巷１５弄２７號","OBJECTID":173111},"geometry":{"x":169339.57000000123,"y":2548156.2899999991}},{"attributes":{"ID":173113,"DIS_CODE":0,"TOWNNAME":"安南區","LI":"安東里","LIN":"7鄰","STREET":"安和路","SECT":"一段","MAREA":" ","LANE":"２８８巷","ALLEY":"１５弄","HOUSE_NO":"２９號","E_COORD97":169354.66,"N_COORD97":2548162.5699999998,"ADDRESS":"安和路一段２８８巷１５弄２９號","OBJECTID":173112},"geometry":{"x":169354.66000000015,"y":2548162.5700000003}},{"attributes":{"ID":173114,"DIS_CODE":0,"TOWNNAME":"安南區","LI":"安東里","LIN":"7鄰","STREET":"安和路","SECT":"一段","MAREA":" ","LANE":"２８８巷","ALLEY":"１５弄","HOUSE_NO":"３３號","E_COORD97":169365.42000000001,"N_COORD97":2548150.8399999999,"ADDRESS":"安和路一段２８８巷１５弄３３號","OBJECTID":173113},"geometry":{"x":169365.42000000086,"y":2548150.8399999999}},{"attributes":{"ID":173115,"DIS_CODE":0,"TOWNNAME":"安南區","LI":"安東里","LIN":"7鄰","STREET":"安和路","SECT":"一段","MAREA":" ","LANE":"２８８巷","ALLEY":"６１弄","HOUSE_NO":"１號","E_COORD97":169434.17000000001,"N_COORD97":2548169.2000000002,"ADDRESS":"安和路一段２８８巷６１弄１號","OBJECTID":173114},"geometry":{"x":169434.16999999899,"y":2548169.2000000011}},{"attributes":{"ID":173116,"DIS_CODE":0,"TOWNNAME":"安南區","LI":"安東里","LIN":"7鄰","STREET":"安和路","SECT":"一段","MAREA":" ","LANE":"２８８巷","ALLEY":"６１弄","HOUSE_NO":"２號之１","E_COORD97":169431.10000000001,"N_COORD97":2548146.79,"ADDRESS":"安和路一段２８８巷６１弄２號之１","OBJECTID":173115},"geometry":{"x":169431.10000000149,"y":2548146.7899999991}},{"attributes":{"ID":173117,"DIS_CODE":0,"TOWNNAME":"麻豆區","LI":"埤頭里","LIN":"10鄰","STREET":" ","SECT":" ","MAREA":"埤頭","LANE":" ","ALLEY":" ","HOUSE_NO":"８７號","E_COORD97":170845.04000000001,"N_COORD97":2565995.4500000002,"ADDRESS":"埤頭８７號","OBJECTID":173116},"geometry":{"x":170845.04000000004,"y":2565995.4499999993}},{"attributes":{"ID":173118,"DIS_CODE":0,"TOWNNAME":"安南區","LI":"安東里","LIN":"7鄰","STREET":"安和路","SECT":"一段","MAREA":" ","LANE":"２８８巷","ALLEY":"６１弄","HOUSE_NO":"３號","E_COORD97":169417.67999999999,"N_COORD97":2548166.6899999999,"ADDRESS":"安和路一段２８８巷６１弄３號","OBJECTID":173117},"geometry":{"x":169417.68000000063,"y":2548166.6900000013}},{"attributes":{"ID":173119,"DIS_CODE":0,"TOWNNAME":"安南區","LI":"安東里","LIN":"7鄰","STREET":"安和路","SECT":"一段","MAREA":" ","LANE":"２８８巷","ALLEY":"６１弄","HOUSE_NO":"５之１號","E_COORD97":169395.32000000001,"N_COORD97":2548157.8199999998,"ADDRESS":"安和路一段２８８巷６１弄５之１號","OBJECTID":173118},"geometry":{"x":169395.32000000123,"y":2548157.8200000003}},{"attributes":{"ID":173120,"DIS_CODE":0,"TOWNNAME":"安南區","LI":"州北里","LIN":"4鄰","STREET":"安和路","SECT":"五段","MAREA":" ","LANE":"１７１巷","ALLEY":"１１９弄","HOUSE_NO":"７號","E_COORD97":169643.16,"N_COORD97":2551726.3900000001,"ADDRESS":"安和路五段１７１巷１１９弄７號","OBJECTID":173119},"geometry":{"x":169643.16000000201,"y":2551726.3900000025}},{"attributes":{"ID":173121,"DIS_CODE":0,"TOWNNAME":"安南區","LI":"州北里","LIN":"4鄰","STREET":"安和路","SECT":"五段","MAREA":" ","LANE":"１７１巷","ALLEY":"１１９弄","HOUSE_NO":"９號","E_COORD97":169655.41,"N_COORD97":2551740.2999999998,"ADDRESS":"安和路五段１７１巷１１９弄９號","OBJECTID":173120},"geometry":{"x":169655.41000000108,"y":2551740.3000000026}},{"attributes":{"ID":173122,"DIS_CODE":0,"TOWNNAME":"安南區","LI":"安慶里","LIN":"32鄰","STREET":"頂安街","SECT":" ","MAREA":" ","LANE":"４７９巷","ALLEY":"９弄","HOUSE_NO":"１０號","E_COORD97":168837.97,"N_COORD97":2549268.1699999999,"ADDRESS":"頂安街４７９巷９弄１０號","OBJECTID":173121},"geometry":{"x":168837.96999999974,"y":2549268.1700000037}},{"attributes":{"ID":173123,"DIS_CODE":0,"TOWNNAME":"安南區","LI":"安慶里","LIN":"32鄰","STREET":"頂安街","SECT":" ","MAREA":" ","LANE":"４７９巷","ALLEY":"９弄","HOUSE_NO":"１號","E_COORD97":168816.92999999999,"N_COORD97":2549292.27,"ADDRESS":"頂安街４７９巷９弄１號","OBJECTID":173122},"geometry":{"x":168816.93000000156,"y":2549292.2700000014}},{"attributes":{"ID":173124,"DIS_CODE":0,"TOWNNAME":"安南區","LI":"安慶里","LIN":"32鄰","STREET":"頂安街","SECT":" ","MAREA":" ","LANE":"４７９巷","ALLEY":"９弄","HOUSE_NO":"２號","E_COORD97":168820.32000000001,"N_COORD97":2549263.7999999998,"ADDRESS":"頂安街４７９巷９弄２號","OBJECTID":173123},"geometry":{"x":168820.32000000123,"y":2549263.8000000007}},{"attributes":{"ID":173125,"DIS_CODE":0,"TOWNNAME":"安南區","LI":"佃西里","LIN":"2鄰","STREET":"公學路","SECT":"四段","MAREA":" ","LANE":"１２６巷","ALLEY":"１２２弄","HOUSE_NO":"３號之１","E_COORD97":165289.11908,"N_COORD97":2551991.7987799998,"ADDRESS":"公學路四段１２６巷１２２弄３號之１","OBJECTID":173124},"geometry":{"x":165289.11907999963,"y":2551991.7987799998}},{"attributes":{"ID":173126,"DIS_CODE":0,"TOWNNAME":"安南區","LI":"城中里","LIN":"4鄰","STREET":"城西街","SECT":"一段","MAREA":" ","LANE":"６１巷","ALLEY":"２７弄","HOUSE_NO":"２５號","E_COORD97":160830.17999999999,"N_COORD97":2551378.25,"ADDRESS":"城西街一段６１巷２７弄２５號","OBJECTID":173125},"geometry":{"x":160830.1799999997,"y":2551378.25}},{"attributes":{"ID":173127,"DIS_CODE":0,"TOWNNAME":"安南區","LI":"城中里","LIN":"4鄰","STREET":"城西街","SECT":"一段","MAREA":" ","LANE":"６１巷","ALLEY":"２７弄","HOUSE_NO":"２６號","E_COORD97":160832.56,"N_COORD97":2551353.25,"ADDRESS":"城西街一段６１巷２７弄２６號","OBJECTID":173126},"geometry":{"x":160832.55999999959,"y":2551353.2500000019}},{"attributes":{"ID":173128,"DIS_CODE":0,"TOWNNAME":"安南區","LI":"城中里","LIN":"4鄰","STREET":"城西街","SECT":"一段","MAREA":" ","LANE":"６１巷","ALLEY":"２７弄","HOUSE_NO":"２７號","E_COORD97":160767.653254,"N_COORD97":2551340.6510299998,"ADDRESS":"城西街一段６１巷２７弄２７號","OBJECTID":173127},"geometry":{"x":160767.6532540014,"y":2551340.6510250028}},{"attributes":{"ID":173129,"DIS_CODE":0,"TOWNNAME":"安南區","LI":"長安里","LIN":"6鄰","STREET":"長溪路","SECT":"三段","MAREA":" ","LANE":"４０５巷","ALLEY":"４０弄","HOUSE_NO":"５１號","E_COORD97":167464.20000000001,"N_COORD97":2551980.4500000002,"ADDRESS":"長溪路三段４０５巷４０弄５１號","OBJECTID":173128},"geometry":{"x":167464.20000000019,"y":2551980.4499999993}},{"attributes":{"ID":173130,"DIS_CODE":0,"TOWNNAME":"安南區","LI":"長安里","LIN":"6鄰","STREET":"長溪路","SECT":"三段","MAREA":" ","LANE":"４０５巷","ALLEY":"４０弄","HOUSE_NO":"５２號","E_COORD97":167458.22,"N_COORD97":2552024.8100000001,"ADDRESS":"長溪路三段４０５巷４０弄５２號","OBJECTID":173129},"geometry":{"x":167458.21999999974,"y":2552024.8100000024}},{"attributes":{"ID":173131,"DIS_CODE":0,"TOWNNAME":"安南區","LI":"長安里","LIN":"6鄰","STREET":"長溪路","SECT":"三段","MAREA":" ","LANE":"４０５巷","ALLEY":"４０弄","HOUSE_NO":"５２號之１","E_COORD97":167455.67000000001,"N_COORD97":2552028.7000000002,"ADDRESS":"長溪路三段４０５巷４０弄５２號之１","OBJECTID":173130},"geometry":{"x":167455.66999999993,"y":2552028.6999999993}},{"attributes":{"ID":173132,"DIS_CODE":0,"TOWNNAME":"安南區","LI":"長安里","LIN":"6鄰","STREET":"長溪路","SECT":"三段","MAREA":" ","LANE":"４０５巷","ALLEY":"４０弄","HOUSE_NO":"５３號","E_COORD97":167454.26999999999,"N_COORD97":2551977.3500000001,"ADDRESS":"長溪路三段４０５巷４０弄５３號","OBJECTID":173131},"geometry":{"x":167454.26999999955,"y":2551977.3499999996}},{"attributes":{"ID":173133,"DIS_CODE":0,"TOWNNAME":"安南區","LI":"砂崙里","LIN":"4鄰","STREET":"城北路","SECT":" ","MAREA":" ","LANE":"８７１巷","ALLEY":"１６６弄","HOUSE_NO":"１７號","E_COORD97":160437.79999999999,"N_COORD97":2553314.75,"ADDRESS":"城北路８７１巷１６６弄１７號","OBJECTID":173132},"geometry":{"x":160437.79999999981,"y":2553314.75}},{"attributes":{"ID":173134,"DIS_CODE":0,"TOWNNAME":"安南區","LI":"砂崙里","LIN":"4鄰","STREET":"城北路","SECT":" ","MAREA":" ","LANE":"８７１巷","ALLEY":"１６６弄","HOUSE_NO":"２５號","E_COORD97":160450.85999999999,"N_COORD97":2553342.9900000002,"ADDRESS":"城北路８７１巷１６６弄２５號","OBJECTID":173133},"geometry":{"x":160450.86000000127,"y":2553342.9900000021}},{"attributes":{"ID":173135,"DIS_CODE":0,"TOWNNAME":"安南區","LI":"砂崙里","LIN":"4鄰","STREET":"城北路","SECT":" ","MAREA":" ","LANE":"８７１巷","ALLEY":"１６６弄","HOUSE_NO":"３５號","E_COORD97":160461.35999999999,"N_COORD97":2553375.4399999999,"ADDRESS":"城北路８７１巷１６６弄３５號","OBJECTID":173134},"geometry":{"x":160461.36000000127,"y":2553375.4400000013}},{"attributes":{"ID":173136,"DIS_CODE":0,"TOWNNAME":"安南區","LI":"砂崙里","LIN":"4鄰","STREET":"城北路","SECT":" ","MAREA":" ","LANE":"８７１巷","ALLEY":"１６６弄","HOUSE_NO":"４５號","E_COORD97":160469.59,"N_COORD97":2553400.8700000001,"ADDRESS":"城北路８７１巷１６６弄４５號","OBJECTID":173135},"geometry":{"x":160469.59000000078,"y":2553400.8700000048}},{"attributes":{"ID":173137,"DIS_CODE":0,"TOWNNAME":"安南區","LI":"砂崙里","LIN":"4鄰","STREET":"城北路","SECT":" ","MAREA":" ","LANE":"８７１巷","ALLEY":"１６６弄","HOUSE_NO":"５１號","E_COORD97":160451.60999999999,"N_COORD97":2553405.5099999998,"ADDRESS":"城北路８７１巷１６６弄５１號","OBJECTID":173136},"geometry":{"x":160451.61000000034,"y":2553405.5100000016}},{"attributes":{"ID":173138,"DIS_CODE":0,"TOWNNAME":"安南區","LI":"砂崙里","LIN":"4鄰","STREET":"城北路","SECT":" ","MAREA":" ","LANE":"８７１巷","ALLEY":"１６６弄","HOUSE_NO":"５７號","E_COORD97":160444.12,"N_COORD97":2553380.8700000001,"ADDRESS":"城北路８７１巷１６６弄５７號","OBJECTID":173137},"geometry":{"x":160444.12000000104,"y":2553380.8700000029}},{"attributes":{"ID":173139,"DIS_CODE":0,"TOWNNAME":"安南區","LI":"砂崙里","LIN":"4鄰","STREET":"城北路","SECT":" ","MAREA":" ","LANE":"８７１巷","ALLEY":"１６６弄","HOUSE_NO":"６３號","E_COORD97":160437.25,"N_COORD97":2553365.8599999999,"ADDRESS":"城北路８７１巷１６６弄６３號","OBJECTID":173138},"geometry":{"x":160437.25,"y":2553365.8600000013}},{"attributes":{"ID":173140,"DIS_CODE":0,"TOWNNAME":"東區","LI":"東智里","LIN":"13鄰","STREET":"崇德三十二街","SECT":" ","MAREA":" ","LANE":" ","ALLEY":" ","HOUSE_NO":"５５號","E_COORD97":170944.17000000001,"N_COORD97":2540093.8599999999,"ADDRESS":"崇德三十二街５５號","OBJECTID":173139},"geometry":{"x":170944.16999999993,"y":2540093.8599999994}},{"attributes":{"ID":173141,"DIS_CODE":0,"TOWNNAME":"安南區","LI":"南興里","LIN":"12鄰","STREET":"公學路","SECT":"五段","MAREA":" ","LANE":" ","ALLEY":" ","HOUSE_NO":"６８５號","E_COORD97":163882.09,"N_COORD97":2552838.8700000001,"ADDRESS":"公學路五段６８５號","OBJECTID":173140},"geometry":{"x":163882.09000000078,"y":2552838.8700000029}},{"attributes":{"ID":173142,"DIS_CODE":0,"TOWNNAME":"安南區","LI":"淵東里","LIN":"12鄰","STREET":"海佃路","SECT":"四段","MAREA":" ","LANE":" ","ALLEY":" ","HOUSE_NO":"１３９號","E_COORD97":165640.28,"N_COORD97":2550756.5699999998,"ADDRESS":"海佃路四段１３９號","OBJECTID":173141},"geometry":{"x":165640.28000000119,"y":2550756.5700000003}},{"attributes":{"ID":173143,"DIS_CODE":0,"TOWNNAME":"安南區","LI":"淵東里","LIN":"12鄰","STREET":"海佃路","SECT":"四段","MAREA":" ","LANE":" ","ALLEY":" ","HOUSE_NO":"１４１號","E_COORD97":165638.20999999999,"N_COORD97":2550761.6400000001,"ADDRESS":"海佃路四段１４１號","OBJECTID":173142},"geometry":{"x":165638.20999999996,"y":2550761.6400000025}},{"attributes":{"ID":173144,"DIS_CODE":0,"TOWNNAME":"安南區","LI":"淵東里","LIN":"12鄰","STREET":"海佃路","SECT":"四段","MAREA":" ","LANE":" ","ALLEY":" ","HOUSE_NO":"１４３號","E_COORD97":165637.29000000001,"N_COORD97":2550766.02,"ADDRESS":"海佃路四段１４３號","OBJECTID":173143},"geometry":{"x":165637.29000000004,"y":2550766.0199999996}},{"attributes":{"ID":173145,"DIS_CODE":0,"TOWNNAME":"安南區","LI":"砂崙里","LIN":"8鄰","STREET":"青砂街","SECT":"一段","MAREA":" ","LANE":"５７２巷","ALLEY":"８７弄","HOUSE_NO":"３９號","E_COORD97":160064.76000000001,"N_COORD97":2552760.5499999998,"ADDRESS":"青砂街一段５７２巷８７弄３９號","OBJECTID":173144},"geometry":{"x":160064.76000000071,"y":2552760.5500000007}},{"attributes":{"ID":173146,"DIS_CODE":0,"TOWNNAME":"安南區","LI":"砂崙里","LIN":"8鄰","STREET":"青砂街","SECT":"一段","MAREA":" ","LANE":"５７２巷","ALLEY":"８７弄","HOUSE_NO":"４１號","E_COORD97":160060.5,"N_COORD97":2552730.25,"ADDRESS":"青砂街一段５７２巷８７弄４１號","OBJECTID":173145},"geometry":{"x":160060.5,"y":2552730.2500000019}},{"attributes":{"ID":173147,"DIS_CODE":0,"TOWNNAME":"安南區","LI":"原佃里","LIN":"7鄰","STREET":"本原街","SECT":"一段","MAREA":" ","LANE":"１９５巷","ALLEY":"８５弄","HOUSE_NO":"３６號","E_COORD97":167457.39999999999,"N_COORD97":2550093.6099999999,"ADDRESS":"本原街一段１９５巷８５弄３６號","OBJECTID":173146},"geometry":{"x":167457.4000000013,"y":2550093.6099999994}},{"attributes":{"ID":173148,"DIS_CODE":0,"TOWNNAME":"安南區","LI":"淵中里","LIN":"13鄰","STREET":"安中路","SECT":"四段","MAREA":" ","LANE":"１５４巷","ALLEY":"１３弄","HOUSE_NO":"１號","E_COORD97":164949.69,"N_COORD97":2550105.9700000002,"ADDRESS":"安中路四段１５４巷１３弄１號","OBJECTID":173147},"geometry":{"x":164949.69000000134,"y":2550105.9700000007}},{"attributes":{"ID":173149,"DIS_CODE":0,"TOWNNAME":"安南區","LI":"淵東里","LIN":"12鄰","STREET":"海佃路","SECT":"四段","MAREA":" ","LANE":" ","ALLEY":" ","HOUSE_NO":"１４５號","E_COORD97":165636.35999999999,"N_COORD97":2550770.3999999999,"ADDRESS":"海佃路四段１４５號","OBJECTID":173148},"geometry":{"x":165636.3600000022,"y":2550770.4000000022}},{"attributes":{"ID":173150,"DIS_CODE":0,"TOWNNAME":"安南區","LI":"淵西里","LIN":"13鄰","STREET":"安中路","SECT":"四段","MAREA":" ","LANE":"３２０巷","ALLEY":"９５弄","HOUSE_NO":"６２號","E_COORD97":164526.31,"N_COORD97":2550475.2200000002,"ADDRESS":"安中路四段３２０巷９５弄６２號","OBJECTID":173149},"geometry":{"x":164526.30999999959,"y":2550475.2200000044}},{"attributes":{"ID":173151,"DIS_CODE":0,"TOWNNAME":"新市區","LI":"新和里","LIN":"26鄰","STREET":"永福街","SECT":" ","MAREA":" ","LANE":"１６巷","ALLEY":"１８弄","HOUSE_NO":"１４號","E_COORD97":177838.20000000001,"N_COORD97":2552709.5,"ADDRESS":"永福街１６巷１８弄１４號","OBJECTID":173150},"geometry":{"x":177838.20000000112,"y":2552709.5}},{"attributes":{"ID":173152,"DIS_CODE":0,"TOWNNAME":"新市區","LI":"新和里","LIN":"50鄰","STREET":"自強街","SECT":" ","MAREA":" ","LANE":"３４巷","ALLEY":"１弄","HOUSE_NO":"４０號","E_COORD97":177571.60999999999,"N_COORD97":2553503,"ADDRESS":"自強街３４巷１弄４０號","OBJECTID":173151},"geometry":{"x":177571.61000000034,"y":2553503}},{"attributes":{"ID":173153,"DIS_CODE":0,"TOWNNAME":"新市區","LI":"新和里","LIN":"26鄰","STREET":"永福街","SECT":" ","MAREA":" ","LANE":"１６巷","ALLEY":"１８弄","HOUSE_NO":"３號","E_COORD97":177818.53,"N_COORD97":2552729.25,"ADDRESS":"永福街１６巷１８弄３號","OBJECTID":173152},"geometry":{"x":177818.53000000119,"y":2552729.2500000037}},{"attributes":{"ID":173154,"DIS_CODE":0,"TOWNNAME":"新市區","LI":"新和里","LIN":"41鄰","STREET":"信義街","SECT":" ","MAREA":" ","LANE":"２５巷","ALLEY":"１１弄","HOUSE_NO":"１２號","E_COORD97":177170.85000000001,"N_COORD97":2552754.02,"ADDRESS":"信義街２５巷１１弄１２號","OBJECTID":173153},"geometry":{"x":177170.84999999963,"y":2552754.0200000033}},{"attributes":{"ID":173155,"DIS_CODE":0,"TOWNNAME":"永康區","LI":"龍潭里","LIN":"36鄰","STREET":"中山北路","SECT":" ","MAREA":" ","LANE":"１６４巷","ALLEY":"１５８弄","HOUSE_NO":"２６號","E_COORD97":174636.26999999999,"N_COORD97":2547317.25,"ADDRESS":"中山北路１６４巷１５８弄２６號","OBJECTID":173154},"geometry":{"x":174636.27000000048,"y":2547317.25}},{"attributes":{"ID":173156,"DIS_CODE":0,"TOWNNAME":"永康區","LI":"復華里","LIN":"26鄰","STREET":"復華八街","SECT":" ","MAREA":" ","LANE":"５１巷","ALLEY":"３７弄","HOUSE_NO":"５號","E_COORD97":172713.92000000001,"N_COORD97":2546400.3700000001,"ADDRESS":"復華八街５１巷３７弄５號","OBJECTID":173155},"geometry":{"x":172713.91999999993,"y":2546400.3700000029}},{"attributes":{"ID":173157,"DIS_CODE":0,"TOWNNAME":"永康區","LI":"崑山里","LIN":"43鄰","STREET":"大灣路","SECT":" ","MAREA":" ","LANE":"９４２巷","ALLEY":"３７１弄","HOUSE_NO":"３７號","E_COORD97":173747.67999999999,"N_COORD97":2545198.9900000002,"ADDRESS":"大灣路９４２巷３７１弄３７號","OBJECTID":173156},"geometry":{"x":173747.6799999997,"y":2545198.9900000021}},{"attributes":{"ID":173158,"DIS_CODE":0,"TOWNNAME":"永康區","LI":"埔園里","LIN":"18鄰","STREET":"龍埔街","SECT":" ","MAREA":" ","LANE":"４６７巷","ALLEY":"１０弄","HOUSE_NO":"７號","E_COORD97":173528.03,"N_COORD97":2548306.6000000001,"ADDRESS":"龍埔街４６７巷１０弄７號","OBJECTID":173157},"geometry":{"x":173528.03000000119,"y":2548306.6000000015}},{"attributes":{"ID":173159,"DIS_CODE":0,"TOWNNAME":"東區","LI":"崇學里","LIN":"2鄰","STREET":"崇德四街","SECT":" ","MAREA":" ","LANE":"７巷","ALLEY":"１６弄","HOUSE_NO":"１０號","E_COORD97":170556.94,"N_COORD97":2542041.75,"ADDRESS":"崇德四街７巷１６弄１０號","OBJECTID":173158},"geometry":{"x":170556.94000000227,"y":2542041.75}},{"attributes":{"ID":173160,"DIS_CODE":0,"TOWNNAME":"東區","LI":"崇學里","LIN":"2鄰","STREET":"崇德四街","SECT":" ","MAREA":" ","LANE":"７巷","ALLEY":"１６弄","HOUSE_NO":"１２號","E_COORD97":170560.67000000001,"N_COORD97":2542045.5699999998,"ADDRESS":"崇德四街７巷１６弄１２號","OBJECTID":173159},"geometry":{"x":170560.67000000086,"y":2542045.5700000022}},{"attributes":{"ID":173161,"DIS_CODE":0,"TOWNNAME":"東區","LI":"中西里","LIN":"12鄰","STREET":"東寧路","SECT":" ","MAREA":" ","LANE":" ","ALLEY":" ","HOUSE_NO":"１８號","E_COORD97":169952.64999999999,"N_COORD97":2543624.7400000002,"ADDRESS":"東寧路１８號","OBJECTID":173160},"geometry":{"x":169952.6500000013,"y":2543624.7400000002}},{"attributes":{"ID":173162,"DIS_CODE":0,"TOWNNAME":"東區","LI":"崇學里","LIN":"2鄰","STREET":"崇德四街","SECT":" ","MAREA":" ","LANE":"７巷","ALLEY":"１６弄","HOUSE_NO":"１４號","E_COORD97":170566.95999999999,"N_COORD97":2542045.5699999998,"ADDRESS":"崇德四街７巷１６弄１４號","OBJECTID":173161},"geometry":{"x":170566.96000000089,"y":2542045.5700000022}},{"attributes":{"ID":173163,"DIS_CODE":0,"TOWNNAME":"東區","LI":"崇學里","LIN":"2鄰","STREET":"崇德四街","SECT":" ","MAREA":" ","LANE":"７巷","ALLEY":"１６弄","HOUSE_NO":"１６號","E_COORD97":170570.70999999999,"N_COORD97":2542050.0699999998,"ADDRESS":"崇德四街７巷１６弄１６號","OBJECTID":173162},"geometry":{"x":170570.70999999996,"y":2542050.0700000003}},{"attributes":{"ID":173164,"DIS_CODE":0,"TOWNNAME":"東區","LI":"崇學里","LIN":"2鄰","STREET":"崇德四街","SECT":" ","MAREA":" ","LANE":"７巷","ALLEY":"１６弄","HOUSE_NO":"１８號","E_COORD97":170573.85999999999,"N_COORD97":2542053.52,"ADDRESS":"崇德四街７巷１６弄１８號","OBJECTID":173163},"geometry":{"x":170573.86000000034,"y":2542053.5199999996}},{"attributes":{"ID":173165,"DIS_CODE":0,"TOWNNAME":"東區","LI":"崇學里","LIN":"2鄰","STREET":"崇德四街","SECT":" ","MAREA":" ","LANE":"７巷","ALLEY":"１６弄","HOUSE_NO":"２０號","E_COORD97":170575.95000000001,"N_COORD97":2542058.46,"ADDRESS":"崇德四街７巷１６弄２０號","OBJECTID":173164},"geometry":{"x":170575.95000000112,"y":2542058.4600000009}},{"attributes":{"ID":173166,"DIS_CODE":0,"TOWNNAME":"東區","LI":"崇學里","LIN":"2鄰","STREET":"崇德四街","SECT":" ","MAREA":" ","LANE":"７巷","ALLEY":"１６弄","HOUSE_NO":"２２號","E_COORD97":170578.48999999999,"N_COORD97":2542061.48,"ADDRESS":"崇德四街７巷１６弄２２號","OBJECTID":173165},"geometry":{"x":170578.49000000209,"y":2542061.4800000004}},{"attributes":{"ID":173167,"DIS_CODE":0,"TOWNNAME":"永康區","LI":"甲頂里","LIN":"18鄰","STREET":"中正南路","SECT":" ","MAREA":" ","LANE":"５２巷","ALLEY":"４６弄","HOUSE_NO":"５５號","E_COORD97":169911.32999999999,"N_COORD97":2546625.7200000002,"ADDRESS":"中正南路５２巷４６弄５５號","OBJECTID":173166},"geometry":{"x":169911.32999999914,"y":2546625.7200000007}},{"attributes":{"ID":173168,"DIS_CODE":0,"TOWNNAME":"永康區","LI":"甲頂里","LIN":"18鄰","STREET":"中正南路","SECT":" ","MAREA":" ","LANE":"５２巷","ALLEY":"４６弄","HOUSE_NO":"５１號","E_COORD97":169883.17999999999,"N_COORD97":2546640.6400000001,"ADDRESS":"中正南路５２巷４６弄５１號","OBJECTID":173167},"geometry":{"x":169883.18000000156,"y":2546640.6400000006}},{"attributes":{"ID":173169,"DIS_CODE":0,"TOWNNAME":"永康區","LI":"正強里","LIN":"18鄰","STREET":"自強路","SECT":" ","MAREA":" ","LANE":"１８８巷","ALLEY":"６２弄","HOUSE_NO":"３１號","E_COORD97":173144.95999999999,"N_COORD97":2547259.6600000001,"ADDRESS":"自強路１８８巷６２弄３１號","OBJECTID":173168},"geometry":{"x":173144.96000000183,"y":2547259.6600000001}},{"attributes":{"ID":173170,"DIS_CODE":0,"TOWNNAME":"永康區","LI":"正強里","LIN":"18鄰","STREET":"自強路","SECT":" ","MAREA":" ","LANE":"１８８巷","ALLEY":"６２弄","HOUSE_NO":"２５號","E_COORD97":173157.66,"N_COORD97":2547261.1600000001,"ADDRESS":"自強路１８８巷６２弄２５號","OBJECTID":173169},"geometry":{"x":173157.66000000108,"y":2547261.1600000039}},{"attributes":{"ID":173171,"DIS_CODE":0,"TOWNNAME":"永康區","LI":"甲頂里","LIN":"26鄰","STREET":"中央路","SECT":" ","MAREA":" ","LANE":"２３巷","ALLEY":"１５弄","HOUSE_NO":"１號","E_COORD97":169590.81,"N_COORD97":2546937.8500000001,"ADDRESS":"中央路２３巷１５弄１號","OBJECTID":173170},"geometry":{"x":169590.81000000052,"y":2546937.8500000015}},{"attributes":{"ID":173172,"DIS_CODE":0,"TOWNNAME":"永康區","LI":"西橋里","LIN":"24鄰","STREET":"大橋三街","SECT":" ","MAREA":" ","LANE":"５７巷","ALLEY":"３６弄","HOUSE_NO":"７號","E_COORD97":170544.98000000001,"N_COORD97":2546604.4900000002,"ADDRESS":"大橋三街５７巷３６弄７號","OBJECTID":173171},"geometry":{"x":170544.98000000138,"y":2546604.4899999984}},{"attributes":{"ID":173173,"DIS_CODE":0,"TOWNNAME":"安南區","LI":"安東里","LIN":"4鄰","STREET":"安和路","SECT":"一段","MAREA":" ","LANE":"２８８巷","ALLEY":"１０９弄","HOUSE_NO":"１２號","E_COORD97":169591.22,"N_COORD97":2548288.4300000002,"ADDRESS":"安和路一段２８８巷１０９弄１２號","OBJECTID":173172},"geometry":{"x":169591.21999999974,"y":2548288.4299999997}},{"attributes":{"ID":173174,"DIS_CODE":0,"TOWNNAME":"安南區","LI":"安東里","LIN":"4鄰","STREET":"安和路","SECT":"一段","MAREA":" ","LANE":"２８８巷","ALLEY":"１０９弄","HOUSE_NO":"１號","E_COORD97":169559.64999999999,"N_COORD97":2548262.5699999998,"ADDRESS":"安和路一段２８８巷１０９弄１號","OBJECTID":173173},"geometry":{"x":169559.65000000037,"y":2548262.5700000022}},{"attributes":{"ID":173175,"DIS_CODE":0,"TOWNNAME":"安南區","LI":"安東里","LIN":"4鄰","STREET":"安和路","SECT":"一段","MAREA":" ","LANE":"２８８巷","ALLEY":"１５７弄","HOUSE_NO":"５號","E_COORD97":169713.32000000001,"N_COORD97":2548259.8199999998,"ADDRESS":"安和路一段２８８巷１５７弄５號","OBJECTID":173174},"geometry":{"x":169713.32000000216,"y":2548259.8200000003}},{"attributes":{"ID":173176,"DIS_CODE":0,"TOWNNAME":"安南區","LI":"安東里","LIN":"4鄰","STREET":"安和路","SECT":"一段","MAREA":" ","LANE":"２８８巷","ALLEY":"１５７弄","HOUSE_NO":"７號","E_COORD97":169710.81,"N_COORD97":2548268.3599999999,"ADDRESS":"安和路一段２８８巷１５７弄７號","OBJECTID":173175},"geometry":{"x":169710.80999999959,"y":2548268.3599999994}},{"attributes":{"ID":173177,"DIS_CODE":0,"TOWNNAME":"西港區","LI":"營西里","LIN":"11鄰","STREET":" ","SECT":" ","MAREA":"後營","LANE":" ","ALLEY":" ","HOUSE_NO":"８９號","E_COORD97":169688.60999999999,"N_COORD97":2560481.7000000002,"ADDRESS":"後營８９號","OBJECTID":173176},"geometry":{"x":169688.61000000034,"y":2560481.6999999993}},{"attributes":{"ID":173178,"DIS_CODE":0,"TOWNNAME":"安南區","LI":"安東里","LIN":"4鄰","STREET":"安和路","SECT":"一段","MAREA":" ","LANE":"２８８巷","ALLEY":"１５７弄","HOUSE_NO":"８號","E_COORD97":169733.41,"N_COORD97":2548262.5800000001,"ADDRESS":"安和路一段２８８巷１５７弄８號","OBJECTID":173177},"geometry":{"x":169733.41000000108,"y":2548262.5800000019}},{"attributes":{"ID":173179,"DIS_CODE":0,"TOWNNAME":"安南區","LI":"安東里","LIN":"4鄰","STREET":"安和路","SECT":"一段","MAREA":" ","LANE":"２８８巷","ALLEY":"１５７弄","HOUSE_NO":"９號","E_COORD97":169709.04999999999,"N_COORD97":2548277.3900000001,"ADDRESS":"安和路一段２８８巷１５７弄９號","OBJECTID":173178},"geometry":{"x":169709.04999999981,"y":2548277.3900000043}},{"attributes":{"ID":173180,"DIS_CODE":0,"TOWNNAME":"安南區","LI":"安東里","LIN":"4鄰","STREET":"安和路","SECT":"一段","MAREA":" ","LANE":"２８８巷","ALLEY":"１０９弄","HOUSE_NO":"５號","E_COORD97":169556.85000000001,"N_COORD97":2548275.7200000002,"ADDRESS":"安和路一段２８８巷１０９弄５號","OBJECTID":173179},"geometry":{"x":169556.85000000056,"y":2548275.7200000025}},{"attributes":{"ID":173181,"DIS_CODE":0,"TOWNNAME":"麻豆區","LI":"海埔里","LIN":"12鄰","STREET":" ","SECT":" ","MAREA":"海埔","LANE":" ","ALLEY":" ","HOUSE_NO":"８５號","E_COORD97":169133.53,"N_COORD97":2567086.1699999999,"ADDRESS":"海埔８５號","OBJECTID":173180},"geometry":{"x":169133.53000000026,"y":2567086.1699999999}},{"attributes":{"ID":173182,"DIS_CODE":0,"TOWNNAME":"安南區","LI":"安東里","LIN":"4鄰","STREET":"安和路","SECT":"一段","MAREA":" ","LANE":"２８８巷","ALLEY":"１０９弄","HOUSE_NO":"３號之３","E_COORD97":169559.92000000001,"N_COORD97":2548284.6600000001,"ADDRESS":"安和路一段２８８巷１０９弄３號之３","OBJECTID":173181},"geometry":{"x":169559.92000000086,"y":2548284.6600000001}},{"attributes":{"ID":173183,"DIS_CODE":0,"TOWNNAME":"安南區","LI":"安慶里","LIN":"17鄰","STREET":"安中路","SECT":"一段","MAREA":" ","LANE":"１８９巷","ALLEY":"４８弄","HOUSE_NO":"１０號","E_COORD97":168720.47,"N_COORD97":2548362.7000000002,"ADDRESS":"安中路一段１８９巷４８弄１０號","OBJECTID":173182},"geometry":{"x":168720.47000000067,"y":2548362.7000000011}},{"attributes":{"ID":173184,"DIS_CODE":0,"TOWNNAME":"安南區","LI":"安慶里","LIN":"17鄰","STREET":"安中路","SECT":"一段","MAREA":" ","LANE":"１８９巷","ALLEY":"４８弄","HOUSE_NO":"１２號","E_COORD97":168716.47,"N_COORD97":2548362.3399999999,"ADDRESS":"安中路一段１８９巷４８弄１２號","OBJECTID":173183},"geometry":{"x":168716.46999999974,"y":2548362.3400000017}},{"attributes":{"ID":173185,"DIS_CODE":0,"TOWNNAME":"安南區","LI":"安慶里","LIN":"19鄰","STREET":"安中路","SECT":"一段","MAREA":" ","LANE":"１８９巷","ALLEY":"６３弄","HOUSE_NO":"１２號","E_COORD97":168817.98999999999,"N_COORD97":2548300.3199999998,"ADDRESS":"安中路一段１８９巷６３弄１２號","OBJECTID":173184},"geometry":{"x":168817.99000000022,"y":2548300.3200000003}},{"attributes":{"ID":173186,"DIS_CODE":0,"TOWNNAME":"安南區","LI":"安慶里","LIN":"19鄰","STREET":"安中路","SECT":"一段","MAREA":" ","LANE":"１８９巷","ALLEY":"６３弄","HOUSE_NO":"１３號","E_COORD97":168818.26999999999,"N_COORD97":2548329.1000000001,"ADDRESS":"安中路一段１８９巷６３弄１３號","OBJECTID":173185},"geometry":{"x":168818.27000000048,"y":2548329.1000000034}},{"attributes":{"ID":173187,"DIS_CODE":0,"TOWNNAME":"安南區","LI":"安慶里","LIN":"19鄰","STREET":"安中路","SECT":"一段","MAREA":" ","LANE":"１８９巷","ALLEY":"６３弄","HOUSE_NO":"１４號","E_COORD97":168822.01999999999,"N_COORD97":2548300.25,"ADDRESS":"安中路一段１８９巷６３弄１４號","OBJECTID":173186},"geometry":{"x":168822.02000000048,"y":2548300.25}},{"attributes":{"ID":173188,"DIS_CODE":0,"TOWNNAME":"安南區","LI":"安慶里","LIN":"19鄰","STREET":"安中路","SECT":"一段","MAREA":" ","LANE":"１８９巷","ALLEY":"６３弄","HOUSE_NO":"１５號","E_COORD97":168821.88,"N_COORD97":2548329.6800000002,"ADDRESS":"安中路一段１８９巷６３弄１５號","OBJECTID":173187},"geometry":{"x":168821.87999999989,"y":2548329.6800000016}},{"attributes":{"ID":173189,"DIS_CODE":0,"TOWNNAME":"安南區","LI":"安慶里","LIN":"19鄰","STREET":"安中路","SECT":"一段","MAREA":" ","LANE":"１８９巷","ALLEY":"６３弄","HOUSE_NO":"１６號","E_COORD97":168826.54000000001,"N_COORD97":2548300.3199999998,"ADDRESS":"安中路一段１８９巷６３弄１６號","OBJECTID":173188},"geometry":{"x":168826.54000000004,"y":2548300.3200000003}},{"attributes":{"ID":173190,"DIS_CODE":0,"TOWNNAME":"安南區","LI":"安慶里","LIN":"19鄰","STREET":"安中路","SECT":"一段","MAREA":" ","LANE":"１８９巷","ALLEY":"６３弄","HOUSE_NO":"１８號","E_COORD97":168830.29999999999,"N_COORD97":2548299.5,"ADDRESS":"安中路一段１８９巷６３弄１８號","OBJECTID":173189},"geometry":{"x":168830.30000000075,"y":2548299.5000000037}},{"attributes":{"ID":173191,"DIS_CODE":0,"TOWNNAME":"安南區","LI":"安慶里","LIN":"19鄰","STREET":"安中路","SECT":"一段","MAREA":" ","LANE":"１８９巷","ALLEY":"６３弄","HOUSE_NO":"１９號","E_COORD97":168830.20999999999,"N_COORD97":2548329.6299999999,"ADDRESS":"安中路一段１８９巷６３弄１９號","OBJECTID":173190},"geometry":{"x":168830.20999999996,"y":2548329.6300000008}},{"attributes":{"ID":173192,"DIS_CODE":0,"TOWNNAME":"安南區","LI":"安慶里","LIN":"19鄰","STREET":"安中路","SECT":"一段","MAREA":" ","LANE":"１８９巷","ALLEY":"６３弄","HOUSE_NO":"１號","E_COORD97":168794.39000000001,"N_COORD97":2548325.8700000001,"ADDRESS":"安中路一段１８９巷６３弄１號","OBJECTID":173191},"geometry":{"x":168794.38999999966,"y":2548325.8700000029}},{"attributes":{"ID":173193,"DIS_CODE":0,"TOWNNAME":"安南區","LI":"安慶里","LIN":"19鄰","STREET":"安中路","SECT":"一段","MAREA":" ","LANE":"１８９巷","ALLEY":"６３弄","HOUSE_NO":"２０號","E_COORD97":168834.07999999999,"N_COORD97":2548300.8999999999,"ADDRESS":"安中路一段１８９巷６３弄２０號","OBJECTID":173192},"geometry":{"x":168834.08000000101,"y":2548300.9000000022}},{"attributes":{"ID":173194,"DIS_CODE":0,"TOWNNAME":"安南區","LI":"安慶里","LIN":"19鄰","STREET":"安中路","SECT":"一段","MAREA":" ","LANE":"１８９巷","ALLEY":"６３弄","HOUSE_NO":"２１號","E_COORD97":168834.39000000001,"N_COORD97":2548330.3599999999,"ADDRESS":"安中路一段１８９巷６３弄２１號","OBJECTID":173193},"geometry":{"x":168834.3900000006,"y":2548330.3600000031}},{"attributes":{"ID":173195,"DIS_CODE":0,"TOWNNAME":"安南區","LI":"安慶里","LIN":"19鄰","STREET":"安中路","SECT":"一段","MAREA":" ","LANE":"１８９巷","ALLEY":"６３弄","HOUSE_NO":"２２號","E_COORD97":168837.94,"N_COORD97":2548302.46,"ADDRESS":"安中路一段１８９巷６３弄２２號","OBJECTID":173194},"geometry":{"x":168837.94000000227,"y":2548302.4600000009}},{"attributes":{"ID":173196,"DIS_CODE":0,"TOWNNAME":"安南區","LI":"安慶里","LIN":"19鄰","STREET":"安中路","SECT":"一段","MAREA":" ","LANE":"１８９巷","ALLEY":"６３弄","HOUSE_NO":"２號","E_COORD97":168797.95000000001,"N_COORD97":2548299,"ADDRESS":"安中路一段１８９巷６３弄２號","OBJECTID":173195},"geometry":{"x":168797.95000000019,"y":2548299}},{"attributes":{"ID":173197,"DIS_CODE":0,"TOWNNAME":"安南區","LI":"安慶里","LIN":"19鄰","STREET":"安中路","SECT":"一段","MAREA":" ","LANE":"１８９巷","ALLEY":"６３弄","HOUSE_NO":"３號","E_COORD97":168798.98000000001,"N_COORD97":2548326.8199999998,"ADDRESS":"安中路一段１８９巷６３弄３號","OBJECTID":173196},"geometry":{"x":168798.98000000138,"y":2548326.8200000003}},{"attributes":{"ID":173198,"DIS_CODE":0,"TOWNNAME":"安南區","LI":"安慶里","LIN":"19鄰","STREET":"安中路","SECT":"一段","MAREA":" ","LANE":"１８９巷","ALLEY":"６３弄","HOUSE_NO":"４號","E_COORD97":168801.92000000001,"N_COORD97":2548299.2000000002,"ADDRESS":"安中路一段１８９巷６３弄４號","OBJECTID":173197},"geometry":{"x":168801.91999999899,"y":2548299.1999999993}},{"attributes":{"ID":173199,"DIS_CODE":0,"TOWNNAME":"安南區","LI":"安慶里","LIN":"19鄰","STREET":"安中路","SECT":"一段","MAREA":" ","LANE":"１８９巷","ALLEY":"６３弄","HOUSE_NO":"５號","E_COORD97":168802.53,"N_COORD97":2548327.04,"ADDRESS":"安中路一段１８９巷６３弄５號","OBJECTID":173198},"geometry":{"x":168802.53000000026,"y":2548327.040000001}},{"attributes":{"ID":173200,"DIS_CODE":0,"TOWNNAME":"安南區","LI":"安慶里","LIN":"19鄰","STREET":"安中路","SECT":"一段","MAREA":" ","LANE":"１８９巷","ALLEY":"６３弄","HOUSE_NO":"６號","E_COORD97":168806.16,"N_COORD97":2548299.4100000001,"ADDRESS":"安中路一段１８９巷６３弄６號","OBJECTID":173199},"geometry":{"x":168806.16000000108,"y":2548299.4100000001}},{"attributes":{"ID":173201,"DIS_CODE":0,"TOWNNAME":"安南區","LI":"安慶里","LIN":"19鄰","STREET":"安中路","SECT":"一段","MAREA":" ","LANE":"１８９巷","ALLEY":"６３弄","HOUSE_NO":"９號","E_COORD97":168810.20999999999,"N_COORD97":2548327.8999999999,"ADDRESS":"安中路一段１８９巷６３弄９號","OBJECTID":173200},"geometry":{"x":168810.21000000183,"y":2548327.9000000041}}]}