{"displayFieldName":"TOWNNAME","fieldAliases":{"ID":"ID","DIS_CODE":"DIS_CODE","TOWNNAME":"TOWNNAME","LI":"LI","LIN":"LIN","STREET":"STREET","SECT":"SECT","MAREA":"MAREA","LANE":"LANE","ALLEY":"ALLEY","HOUSE_NO":"HOUSE_NO","E_COORD97":"E_COORD97","N_COORD97":"N_COORD97","ADDRESS":"ADDRESS","OBJECTID":"OBJECTID"},"geometryType":"esriGeometryPoint","spatialReference":{"wkid":102443,"latestWkid":3826},"fields":[{"name":"ID","type":"esriFieldTypeDouble","alias":"ID"},{"name":"DIS_CODE","type":"esriFieldTypeInteger","alias":"DIS_CODE"},{"name":"TOWNNAME","type":"esriFieldTypeString","alias":"TOWNNAME","length":8},{"name":"LI","type":"esriFieldTypeString","alias":"LI","length":8},{"name":"LIN","type":"esriFieldTypeString","alias":"LIN","length":12},{"name":"STREET","type":"esriFieldTypeString","alias":"STREET","length":20},{"name":"SECT","type":"esriFieldTypeString","alias":"SECT","length":8},{"name":"MAREA","type":"esriFieldTypeString","alias":"MAREA","length":12},{"name":"LANE","type":"esriFieldTypeString","alias":"LANE","length":10},{"name":"ALLEY","type":"esriFieldTypeString","alias":"ALLEY","length":10},{"name":"HOUSE_NO","type":"esriFieldTypeString","alias":"HOUSE_NO","length":20},{"name":"E_COORD97","type":"esriFieldTypeDouble","alias":"E_COORD97"},{"name":"N_COORD97","type":"esriFieldTypeDouble","alias":"N_COORD97"},{"name":"ADDRESS","type":"esriFieldTypeString","alias":"ADDRESS","length":50},{"name":"OBJECTID","type":"esriFieldTypeOID","alias":"OBJECTID"}],"features":[{"attributes":{"ID":560828,"DIS_CODE":0,"TOWNNAME":"永康區","LI":"網寮里","LIN":"4鄰","STREET":"永二街","SECT":" ","MAREA":" ","LANE":" ","ALLEY":" ","HOUSE_NO":"１５６號","E_COORD97":173426.12,"N_COORD97":2546365.4300000002,"ADDRESS":"永二街１５６號","OBJECTID":560801},"geometry":{"x":173426.12000000104,"y":2546365.4300000016}},{"attributes":{"ID":560829,"DIS_CODE":0,"TOWNNAME":"永康區","LI":"網寮里","LIN":"20鄰","STREET":"文化路","SECT":" ","MAREA":" ","LANE":" ","ALLEY":" ","HOUSE_NO":"３１５號","E_COORD97":173445.62,"N_COORD97":2546134.21,"ADDRESS":"文化路３１５號","OBJECTID":560802},"geometry":{"x":173445.62000000197,"y":2546134.2100000028}},{"attributes":{"ID":560830,"DIS_CODE":0,"TOWNNAME":"永康區","LI":"龍潭里","LIN":"10鄰","STREET":"龍潭街","SECT":" ","MAREA":" ","LANE":" ","ALLEY":" ","HOUSE_NO":"１５９號","E_COORD97":174887.37,"N_COORD97":2548273.9300000002,"ADDRESS":"龍潭街１５９號","OBJECTID":560803},"geometry":{"x":174887.37000000104,"y":2548273.9300000016}},{"attributes":{"ID":560831,"DIS_CODE":0,"TOWNNAME":"歸仁區","LI":"武東里","LIN":"9鄰","STREET":"武東三街","SECT":" ","MAREA":" ","LANE":" ","ALLEY":" ","HOUSE_NO":"１０５號","E_COORD97":174848.39000000001,"N_COORD97":2535354.25,"ADDRESS":"武東三街１０５號","OBJECTID":560804},"geometry":{"x":174848.38999999966,"y":2535354.2500000019}},{"attributes":{"ID":560832,"DIS_CODE":0,"TOWNNAME":"歸仁區","LI":"六甲里","LIN":"9鄰","STREET":"六甲路","SECT":" ","MAREA":" ","LANE":" ","ALLEY":" ","HOUSE_NO":"８０號","E_COORD97":176278.22,"N_COORD97":2539178.25,"ADDRESS":"六甲路８０號","OBJECTID":560805},"geometry":{"x":176278.21999999974,"y":2539178.2500000019}},{"attributes":{"ID":560833,"DIS_CODE":0,"TOWNNAME":"歸仁區","LI":"看東里","LIN":"9鄰","STREET":"成功路","SECT":"一段","MAREA":" ","LANE":" ","ALLEY":" ","HOUSE_NO":"１１１號","E_COORD97":178667.29000000001,"N_COORD97":2540232.25,"ADDRESS":"成功路一段１１１號","OBJECTID":560806},"geometry":{"x":178667.2900000019,"y":2540232.2500000037}},{"attributes":{"ID":560834,"DIS_CODE":0,"TOWNNAME":"歸仁區","LI":"南興里","LIN":"9鄰","STREET":"文化十六街","SECT":" ","MAREA":" ","LANE":" ","ALLEY":" ","HOUSE_NO":"８號","E_COORD97":175992.04000000001,"N_COORD97":2541228.3300000001,"ADDRESS":"文化十六街８號","OBJECTID":560807},"geometry":{"x":175992.04000000004,"y":2541228.3300000038}},{"attributes":{"ID":560835,"DIS_CODE":0,"TOWNNAME":"歸仁區","LI":"大潭里","LIN":"9鄰","STREET":"長榮路","SECT":"一段","MAREA":" ","LANE":" ","ALLEY":" ","HOUSE_NO":"１０６號","E_COORD97":174840.37,"N_COORD97":2534514.2799999998,"ADDRESS":"長榮路一段１０６號","OBJECTID":560808},"geometry":{"x":174840.37000000011,"y":2534514.2799999993}},{"attributes":{"ID":560836,"DIS_CODE":0,"TOWNNAME":"歸仁區","LI":"歸仁里","LIN":"9鄰","STREET":"大仁街","SECT":" ","MAREA":" ","LANE":" ","ALLEY":" ","HOUSE_NO":"２９號","E_COORD97":177908.54999999999,"N_COORD97":2540802.1699999999,"ADDRESS":"大仁街２９號","OBJECTID":560809},"geometry":{"x":177908.54999999981,"y":2540802.1700000037}},{"attributes":{"ID":560837,"DIS_CODE":0,"TOWNNAME":"歸仁區","LI":"南保里","LIN":"9鄰","STREET":"文化八街","SECT":" ","MAREA":" ","LANE":" ","ALLEY":" ","HOUSE_NO":"３６號","E_COORD97":176757.44,"N_COORD97":2541306.3300000001,"ADDRESS":"文化八街３６號","OBJECTID":560810},"geometry":{"x":176757.44000000041,"y":2541306.3300000038}},{"attributes":{"ID":560838,"DIS_CODE":0,"TOWNNAME":"歸仁區","LI":"文化里","LIN":"9鄰","STREET":"民權北路","SECT":" ","MAREA":" ","LANE":" ","ALLEY":" ","HOUSE_NO":"１６６號","E_COORD97":177033.79999999999,"N_COORD97":2541393.3300000001,"ADDRESS":"民權北路１６６號","OBJECTID":560811},"geometry":{"x":177033.79999999981,"y":2541393.3300000001}},{"attributes":{"ID":560839,"DIS_CODE":0,"TOWNNAME":"歸仁區","LI":"後市里","LIN":"9鄰","STREET":"中山五街","SECT":" ","MAREA":" ","LANE":" ","ALLEY":" ","HOUSE_NO":"６２號","E_COORD97":177086.19,"N_COORD97":2540698.25,"ADDRESS":"中山五街６２號","OBJECTID":560812},"geometry":{"x":177086.19000000041,"y":2540698.2500000019}},{"attributes":{"ID":560840,"DIS_CODE":0,"TOWNNAME":"歸仁區","LI":"文化里","LIN":"9鄰","STREET":"民權一街","SECT":" ","MAREA":" ","LANE":" ","ALLEY":" ","HOUSE_NO":"１７號","E_COORD97":177110.35000000001,"N_COORD97":2541360.3300000001,"ADDRESS":"民權一街１７號","OBJECTID":560813},"geometry":{"x":177110.35000000149,"y":2541360.3300000001}},{"attributes":{"ID":560841,"DIS_CODE":0,"TOWNNAME":"歸仁區","LI":"看西里","LIN":"9鄰","STREET":"仁愛南街","SECT":" ","MAREA":" ","LANE":" ","ALLEY":" ","HOUSE_NO":"１４７號","E_COORD97":178295.78,"N_COORD97":2540295.2000000002,"ADDRESS":"仁愛南街１４７號","OBJECTID":560814},"geometry":{"x":178295.78000000026,"y":2540295.1999999993}},{"attributes":{"ID":560842,"DIS_CODE":0,"TOWNNAME":"歸仁區","LI":"新厝里","LIN":"9鄰","STREET":"公園路","SECT":" ","MAREA":" ","LANE":" ","ALLEY":" ","HOUSE_NO":"１９２號","E_COORD97":177750.78,"N_COORD97":2540433.5,"ADDRESS":"公園路１９２號","OBJECTID":560815},"geometry":{"x":177750.78000000119,"y":2540433.5}},{"attributes":{"ID":560843,"DIS_CODE":0,"TOWNNAME":"永康區","LI":"蔦松里","LIN":"3鄰","STREET":"蔦松一街","SECT":" ","MAREA":" ","LANE":" ","ALLEY":" ","HOUSE_NO":"９號","E_COORD97":174031.35000000001,"N_COORD97":2549341.1200000001,"ADDRESS":"蔦松一街９號","OBJECTID":560816},"geometry":{"x":174031.34999999963,"y":2549341.1200000029}},{"attributes":{"ID":560844,"DIS_CODE":0,"TOWNNAME":"永康區","LI":"龍潭里","LIN":"39鄰","STREET":"永明街","SECT":" ","MAREA":" ","LANE":" ","ALLEY":" ","HOUSE_NO":"２２５號","E_COORD97":174548.67000000001,"N_COORD97":2547215.3500000001,"ADDRESS":"永明街２２５號","OBJECTID":560817},"geometry":{"x":174548.67000000179,"y":2547215.3500000034}},{"attributes":{"ID":560845,"DIS_CODE":0,"TOWNNAME":"歸仁區","LI":"後市里","LIN":"9鄰","STREET":"大順六街","SECT":" ","MAREA":" ","LANE":" ","ALLEY":" ","HOUSE_NO":"４０號","E_COORD97":177043.20999999999,"N_COORD97":2540691.25,"ADDRESS":"大順六街４０號","OBJECTID":560818},"geometry":{"x":177043.20999999996,"y":2540691.2500000019}},{"attributes":{"ID":560846,"DIS_CODE":0,"TOWNNAME":"歸仁區","LI":"後市里","LIN":"9鄰","STREET":"大順街","SECT":" ","MAREA":" ","LANE":" ","ALLEY":" ","HOUSE_NO":"１５０號","E_COORD97":177068.41,"N_COORD97":2540614.25,"ADDRESS":"大順街１５０號","OBJECTID":560819},"geometry":{"x":177068.41000000108,"y":2540614.25}},{"attributes":{"ID":560847,"DIS_CODE":0,"TOWNNAME":"歸仁區","LI":"大潭里","LIN":"9鄰","STREET":"長榮路","SECT":"一段","MAREA":" ","LANE":" ","ALLEY":" ","HOUSE_NO":"５５２號","E_COORD97":175889.57000000001,"N_COORD97":2534473.2799999998,"ADDRESS":"長榮路一段５５２號","OBJECTID":560820},"geometry":{"x":175889.57000000123,"y":2534473.2799999993}},{"attributes":{"ID":560848,"DIS_CODE":0,"TOWNNAME":"歸仁區","LI":"崙頂里","LIN":"9鄰","STREET":"崙頂五街","SECT":" ","MAREA":" ","LANE":" ","ALLEY":" ","HOUSE_NO":"７８號","E_COORD97":178064.23000000001,"N_COORD97":2539844.25,"ADDRESS":"崙頂五街７８號","OBJECTID":560821},"geometry":{"x":178064.23000000045,"y":2539844.25}},{"attributes":{"ID":560849,"DIS_CODE":0,"TOWNNAME":"歸仁區","LI":"武東里","LIN":"9鄰","STREET":"武東三街","SECT":" ","MAREA":" ","LANE":" ","ALLEY":" ","HOUSE_NO":"７５號","E_COORD97":174953.44,"N_COORD97":2535292.25,"ADDRESS":"武東三街７５號","OBJECTID":560822},"geometry":{"x":174953.44000000041,"y":2535292.2500000037}},{"attributes":{"ID":560850,"DIS_CODE":0,"TOWNNAME":"玉井區","LI":"中正里","LIN":"9鄰","STREET":"大埕街","SECT":" ","MAREA":" ","LANE":" ","ALLEY":" ","HOUSE_NO":"７２號","E_COORD97":195482.10999999999,"N_COORD97":2558814.2400000002,"ADDRESS":"大埕街７２號","OBJECTID":560823},"geometry":{"x":195482.11000000127,"y":2558814.2400000002}},{"attributes":{"ID":560851,"DIS_CODE":0,"TOWNNAME":"玉井區","LI":"玉田里","LIN":"9鄰","STREET":"民主街","SECT":" ","MAREA":" ","LANE":" ","ALLEY":" ","HOUSE_NO":"５４號","E_COORD97":194921.92999999999,"N_COORD97":2558050.29,"ADDRESS":"民主街５４號","OBJECTID":560824},"geometry":{"x":194921.93000000063,"y":2558050.2899999991}},{"attributes":{"ID":560852,"DIS_CODE":0,"TOWNNAME":"永康區","LI":"龍潭里","LIN":"39鄰","STREET":"永明街","SECT":" ","MAREA":" ","LANE":" ","ALLEY":" ","HOUSE_NO":"２０９號","E_COORD97":174510.04000000001,"N_COORD97":2547216.2400000002,"ADDRESS":"永明街２０９號","OBJECTID":560825},"geometry":{"x":174510.04000000004,"y":2547216.2400000002}},{"attributes":{"ID":560853,"DIS_CODE":0,"TOWNNAME":"永康區","LI":"新樹里","LIN":"12鄰","STREET":"富強路","SECT":"二段","MAREA":" ","LANE":" ","ALLEY":" ","HOUSE_NO":"１１５號","E_COORD97":175644.54999999999,"N_COORD97":2547046.5099999998,"ADDRESS":"富強路二段１１５號","OBJECTID":560826},"geometry":{"x":175644.55000000168,"y":2547046.5099999998}},{"attributes":{"ID":560854,"DIS_CODE":0,"TOWNNAME":"玉井區","LI":"玉田里","LIN":"9鄰","STREET":"中華路","SECT":" ","MAREA":" ","LANE":" ","ALLEY":" ","HOUSE_NO":"７６號","E_COORD97":194966.60000000001,"N_COORD97":2558027.25,"ADDRESS":"中華路７６號","OBJECTID":560827},"geometry":{"x":194966.59999999963,"y":2558027.25}},{"attributes":{"ID":560855,"DIS_CODE":0,"TOWNNAME":"玉井區","LI":"中正里","LIN":"9鄰","STREET":"大埕街","SECT":" ","MAREA":" ","LANE":" ","ALLEY":" ","HOUSE_NO":"１００號","E_COORD97":195434.25,"N_COORD97":2558842.25,"ADDRESS":"大埕街１００號","OBJECTID":560828},"geometry":{"x":195434.25,"y":2558842.2500000019}},{"attributes":{"ID":560856,"DIS_CODE":0,"TOWNNAME":"永康區","LI":"網寮里","LIN":"22鄰","STREET":"永大一路","SECT":" ","MAREA":" ","LANE":" ","ALLEY":" ","HOUSE_NO":"２５３號","E_COORD97":173650.51999999999,"N_COORD97":2546298.3900000001,"ADDRESS":"永大一路２５３號","OBJECTID":560829},"geometry":{"x":173650.51999999955,"y":2546298.3900000025}},{"attributes":{"ID":560857,"DIS_CODE":0,"TOWNNAME":"玉井區","LI":"玉田里","LIN":"9鄰","STREET":"大道街","SECT":" ","MAREA":" ","LANE":" ","ALLEY":" ","HOUSE_NO":"２２號","E_COORD97":194892.51000000001,"N_COORD97":2558014.25,"ADDRESS":"大道街２２號","OBJECTID":560830},"geometry":{"x":194892.51000000071,"y":2558014.25}},{"attributes":{"ID":560858,"DIS_CODE":0,"TOWNNAME":"永康區","LI":"新樹里","LIN":"5鄰","STREET":"富強路","SECT":"二段","MAREA":" ","LANE":" ","ALLEY":" ","HOUSE_NO":"２２號","E_COORD97":175714.09,"N_COORD97":2546844.8900000001,"ADDRESS":"富強路二段２２號","OBJECTID":560831},"geometry":{"x":175714.09000000078,"y":2546844.8900000006}},{"attributes":{"ID":560859,"DIS_CODE":0,"TOWNNAME":"永康區","LI":"蔦松里","LIN":"9鄰","STREET":"中正北路","SECT":" ","MAREA":" ","LANE":" ","ALLEY":" ","HOUSE_NO":"７７３號之１","E_COORD97":174461.70999999999,"N_COORD97":2549711.54,"ADDRESS":"中正北路７７３號之１","OBJECTID":560832},"geometry":{"x":174461.70999999996,"y":2549711.5399999991}},{"attributes":{"ID":560860,"DIS_CODE":0,"TOWNNAME":"玉井區","LI":"玉田里","LIN":"9鄰","STREET":"中華路","SECT":" ","MAREA":" ","LANE":" ","ALLEY":" ","HOUSE_NO":"７４號","E_COORD97":194963.10000000001,"N_COORD97":2558030.25,"ADDRESS":"中華路７４號","OBJECTID":560833},"geometry":{"x":194963.10000000056,"y":2558030.25}},{"attributes":{"ID":560861,"DIS_CODE":0,"TOWNNAME":"玉井區","LI":"玉田里","LIN":"9鄰","STREET":"中華路","SECT":" ","MAREA":" ","LANE":" ","ALLEY":" ","HOUSE_NO":"７８號","E_COORD97":194969.89999999999,"N_COORD97":2558025.25,"ADDRESS":"中華路７８號","OBJECTID":560834},"geometry":{"x":194969.9000000013,"y":2558025.2500000019}},{"attributes":{"ID":560862,"DIS_CODE":0,"TOWNNAME":"玉井區","LI":"玉田里","LIN":"9鄰","STREET":"大道街","SECT":" ","MAREA":" ","LANE":" ","ALLEY":" ","HOUSE_NO":"３０號","E_COORD97":194885.70999999999,"N_COORD97":2558041.25,"ADDRESS":"大道街３０號","OBJECTID":560835},"geometry":{"x":194885.71000000183,"y":2558041.25}},{"attributes":{"ID":560863,"DIS_CODE":0,"TOWNNAME":"玉井區","LI":"玉田里","LIN":"9鄰","STREET":"民主街","SECT":" ","MAREA":" ","LANE":" ","ALLEY":" ","HOUSE_NO":"５６號","E_COORD97":194926.13,"N_COORD97":2558051.29,"ADDRESS":"民主街５６號","OBJECTID":560836},"geometry":{"x":194926.12999999989,"y":2558051.290000001}},{"attributes":{"ID":560864,"DIS_CODE":0,"TOWNNAME":"玉井區","LI":"玉田里","LIN":"9鄰","STREET":"民主街","SECT":" ","MAREA":" ","LANE":" ","ALLEY":" ","HOUSE_NO":"４６號","E_COORD97":194906.63,"N_COORD97":2558050.29,"ADDRESS":"民主街４６號","OBJECTID":560837},"geometry":{"x":194906.63000000082,"y":2558050.2899999991}},{"attributes":{"ID":560865,"DIS_CODE":0,"TOWNNAME":"玉井區","LI":"玉田里","LIN":"9鄰","STREET":"民主街","SECT":" ","MAREA":" ","LANE":" ","ALLEY":" ","HOUSE_NO":"５８號","E_COORD97":194930.23999999999,"N_COORD97":2558050.29,"ADDRESS":"民主街５８號","OBJECTID":560838},"geometry":{"x":194930.24000000115,"y":2558050.2899999991}},{"attributes":{"ID":560866,"DIS_CODE":0,"TOWNNAME":"永康區","LI":"新樹里","LIN":"5鄰","STREET":"富強路","SECT":"二段","MAREA":" ","LANE":" ","ALLEY":" ","HOUSE_NO":"６號","E_COORD97":175717.67000000001,"N_COORD97":2546814.5299999998,"ADDRESS":"富強路二段６號","OBJECTID":560839},"geometry":{"x":175717.66999999993,"y":2546814.5300000012}},{"attributes":{"ID":560867,"DIS_CODE":0,"TOWNNAME":"玉井區","LI":"玉田里","LIN":"9鄰","STREET":"中華路","SECT":" ","MAREA":" ","LANE":" ","ALLEY":" ","HOUSE_NO":"７２號","E_COORD97":194959.60999999999,"N_COORD97":2558034.25,"ADDRESS":"中華路７２號","OBJECTID":560840},"geometry":{"x":194959.6100000022,"y":2558034.25}},{"attributes":{"ID":560868,"DIS_CODE":0,"TOWNNAME":"玉井區","LI":"玉田里","LIN":"9鄰","STREET":"大道街","SECT":" ","MAREA":" ","LANE":" ","ALLEY":" ","HOUSE_NO":"１６號","E_COORD97":194900.32000000001,"N_COORD97":2557999.2400000002,"ADDRESS":"大道街１６號","OBJECTID":560841},"geometry":{"x":194900.3200000003,"y":2557999.2400000021}},{"attributes":{"ID":560869,"DIS_CODE":0,"TOWNNAME":"玉井區","LI":"玉田里","LIN":"9鄰","STREET":"中華路","SECT":" ","MAREA":" ","LANE":" ","ALLEY":" ","HOUSE_NO":"８０號","E_COORD97":194973.01000000001,"N_COORD97":2558022.25,"ADDRESS":"中華路８０號","OBJECTID":560842},"geometry":{"x":194973.00999999978,"y":2558022.2500000019}},{"attributes":{"ID":560870,"DIS_CODE":0,"TOWNNAME":"玉井區","LI":"玉田里","LIN":"9鄰","STREET":"中華路","SECT":" ","MAREA":" ","LANE":" ","ALLEY":" ","HOUSE_NO":"６２號","E_COORD97":194942.39999999999,"N_COORD97":2558049.25,"ADDRESS":"中華路６２號","OBJECTID":560843},"geometry":{"x":194942.40000000224,"y":2558049.2500000019}},{"attributes":{"ID":560871,"DIS_CODE":0,"TOWNNAME":"永康區","LI":"龍潭里","LIN":"39鄰","STREET":"永明街","SECT":" ","MAREA":" ","LANE":" ","ALLEY":" ","HOUSE_NO":"１８５號","E_COORD97":174454.35999999999,"N_COORD97":2547212.3999999999,"ADDRESS":"永明街１８５號","OBJECTID":560844},"geometry":{"x":174454.36000000034,"y":2547212.4000000041}},{"attributes":{"ID":560872,"DIS_CODE":0,"TOWNNAME":"學甲區","LI":"新達里","LIN":"9鄰","STREET":"民生路","SECT":" ","MAREA":" ","LANE":" ","ALLEY":" ","HOUSE_NO":"６２號","E_COORD97":166578.10000000001,"N_COORD97":2570649.5299999998,"ADDRESS":"民生路６２號","OBJECTID":560845},"geometry":{"x":166578.10000000149,"y":2570649.5300000012}},{"attributes":{"ID":560873,"DIS_CODE":0,"TOWNNAME":"學甲區","LI":"慈福里","LIN":"9鄰","STREET":"民生路","SECT":" ","MAREA":" ","LANE":" ","ALLEY":" ","HOUSE_NO":"６號之１","E_COORD97":166456.60999999999,"N_COORD97":2570019.04,"ADDRESS":"民生路６號之１","OBJECTID":560846},"geometry":{"x":166456.6099999994,"y":2570019.0399999991}},{"attributes":{"ID":560874,"DIS_CODE":0,"TOWNNAME":"學甲區","LI":"慈福里","LIN":"9鄰","STREET":"民生路","SECT":" ","MAREA":" ","LANE":" ","ALLEY":" ","HOUSE_NO":"６號之２","E_COORD97":166457.29999999999,"N_COORD97":2570024,"ADDRESS":"民生路６號之２","OBJECTID":560847},"geometry":{"x":166457.30000000075,"y":2570024}},{"attributes":{"ID":560875,"DIS_CODE":0,"TOWNNAME":"學甲區","LI":"慈福里","LIN":"9鄰","STREET":"民生路","SECT":" ","MAREA":" ","LANE":" ","ALLEY":" ","HOUSE_NO":"６號之３","E_COORD97":166457.62,"N_COORD97":2570027.4399999999,"ADDRESS":"民生路６號之３","OBJECTID":560848},"geometry":{"x":166457.62000000011,"y":2570027.4399999995}},{"attributes":{"ID":560876,"DIS_CODE":0,"TOWNNAME":"學甲區","LI":"慈福里","LIN":"9鄰","STREET":"民生路","SECT":" ","MAREA":" ","LANE":" ","ALLEY":" ","HOUSE_NO":"６號之４","E_COORD97":166458.28,"N_COORD97":2570031.98,"ADDRESS":"民生路６號之４","OBJECTID":560849},"geometry":{"x":166458.28000000026,"y":2570031.9800000004}},{"attributes":{"ID":560877,"DIS_CODE":0,"TOWNNAME":"學甲區","LI":"慈福里","LIN":"9鄰","STREET":"民生路","SECT":" ","MAREA":" ","LANE":" ","ALLEY":" ","HOUSE_NO":"６號之５","E_COORD97":166458.44,"N_COORD97":2570035.8500000001,"ADDRESS":"民生路６號之５","OBJECTID":560850},"geometry":{"x":166458.44000000134,"y":2570035.8500000034}},{"attributes":{"ID":560878,"DIS_CODE":0,"TOWNNAME":"學甲區","LI":"慈福里","LIN":"9鄰","STREET":"民生路","SECT":" ","MAREA":" ","LANE":" ","ALLEY":" ","HOUSE_NO":"６號之６","E_COORD97":166458.85999999999,"N_COORD97":2570040.3199999998,"ADDRESS":"民生路６號之６","OBJECTID":560851},"geometry":{"x":166458.86000000127,"y":2570040.320000004}},{"attributes":{"ID":560879,"DIS_CODE":0,"TOWNNAME":"學甲區","LI":"慈福里","LIN":"9鄰","STREET":"民生路","SECT":" ","MAREA":" ","LANE":" ","ALLEY":" ","HOUSE_NO":"８號之３","E_COORD97":166462.70999999999,"N_COORD97":2570062.4900000002,"ADDRESS":"民生路８號之３","OBJECTID":560852},"geometry":{"x":166462.71000000089,"y":2570062.4899999984}},{"attributes":{"ID":560880,"DIS_CODE":0,"TOWNNAME":"學甲區","LI":"新達里","LIN":"9鄰","STREET":"民族路","SECT":" ","MAREA":" ","LANE":" ","ALLEY":" ","HOUSE_NO":"１０１號","E_COORD97":166672.01999999999,"N_COORD97":2570633.7000000002,"ADDRESS":"民族路１０１號","OBJECTID":560853},"geometry":{"x":166672.02000000048,"y":2570633.7000000011}},{"attributes":{"ID":560881,"DIS_CODE":0,"TOWNNAME":"學甲區","LI":"新達里","LIN":"9鄰","STREET":"民族路","SECT":" ","MAREA":" ","LANE":" ","ALLEY":" ","HOUSE_NO":"１０３號","E_COORD97":166673.31,"N_COORD97":2570638.8799999999,"ADDRESS":"民族路１０３號","OBJECTID":560854},"geometry":{"x":166673.31000000145,"y":2570638.8800000008}},{"attributes":{"ID":560882,"DIS_CODE":0,"TOWNNAME":"學甲區","LI":"慈福里","LIN":"9鄰","STREET":"民族路","SECT":" ","MAREA":" ","LANE":" ","ALLEY":" ","HOUSE_NO":"１０號","E_COORD97":166582.95999999999,"N_COORD97":2570007.8999999999,"ADDRESS":"民族路１０號","OBJECTID":560855},"geometry":{"x":166582.96000000089,"y":2570007.9000000004}},{"attributes":{"ID":560883,"DIS_CODE":0,"TOWNNAME":"學甲區","LI":"新達里","LIN":"9鄰","STREET":"民族路","SECT":" ","MAREA":" ","LANE":" ","ALLEY":" ","HOUSE_NO":"１１３號","E_COORD97":166678.20999999999,"N_COORD97":2570663.3900000001,"ADDRESS":"民族路１１３號","OBJECTID":560856},"geometry":{"x":166678.21000000089,"y":2570663.3900000006}},{"attributes":{"ID":560884,"DIS_CODE":0,"TOWNNAME":"學甲區","LI":"新達里","LIN":"9鄰","STREET":"民族路","SECT":" ","MAREA":" ","LANE":" ","ALLEY":" ","HOUSE_NO":"１１５號","E_COORD97":166679.09,"N_COORD97":2570668.1899999999,"ADDRESS":"民族路１１５號","OBJECTID":560857},"geometry":{"x":166679.09000000078,"y":2570668.1900000013}},{"attributes":{"ID":560885,"DIS_CODE":0,"TOWNNAME":"學甲區","LI":"慈福里","LIN":"9鄰","STREET":"民族路","SECT":" ","MAREA":" ","LANE":" ","ALLEY":" ","HOUSE_NO":"１８號","E_COORD97":166582.35999999999,"N_COORD97":2570063.96,"ADDRESS":"民族路１８號","OBJECTID":560858},"geometry":{"x":166582.36000000127,"y":2570063.9600000028}},{"attributes":{"ID":560886,"DIS_CODE":0,"TOWNNAME":"學甲區","LI":"慈福里","LIN":"9鄰","STREET":"民族路","SECT":" ","MAREA":" ","LANE":" ","ALLEY":" ","HOUSE_NO":"１號之１","E_COORD97":166537.95999999999,"N_COORD97":2569970.6899999999,"ADDRESS":"民族路１號之１","OBJECTID":560859},"geometry":{"x":166537.95999999996,"y":2569970.6899999995}},{"attributes":{"ID":560887,"DIS_CODE":0,"TOWNNAME":"學甲區","LI":"慈福里","LIN":"9鄰","STREET":"民族路","SECT":" ","MAREA":" ","LANE":" ","ALLEY":" ","HOUSE_NO":"１號之２","E_COORD97":166538.53,"N_COORD97":2569974.29,"ADDRESS":"民族路１號之２","OBJECTID":560860},"geometry":{"x":166538.53000000212,"y":2569974.2899999991}},{"attributes":{"ID":560888,"DIS_CODE":0,"TOWNNAME":"學甲區","LI":"慈福里","LIN":"9鄰","STREET":"民族路","SECT":" ","MAREA":" ","LANE":" ","ALLEY":" ","HOUSE_NO":"２０號","E_COORD97":166591.23999999999,"N_COORD97":2570082.6800000002,"ADDRESS":"民族路２０號","OBJECTID":560861},"geometry":{"x":166591.23999999929,"y":2570082.6800000016}},{"attributes":{"ID":560889,"DIS_CODE":0,"TOWNNAME":"學甲區","LI":"慈福里","LIN":"9鄰","STREET":"民族路","SECT":" ","MAREA":" ","LANE":" ","ALLEY":" ","HOUSE_NO":"２１號之１","E_COORD97":166551.78,"N_COORD97":2570064.6699999999,"ADDRESS":"民族路２１號之１","OBJECTID":560862},"geometry":{"x":166551.78000000026,"y":2570064.6700000037}},{"attributes":{"ID":560890,"DIS_CODE":0,"TOWNNAME":"學甲區","LI":"慈福里","LIN":"9鄰","STREET":"民族路","SECT":" ","MAREA":" ","LANE":" ","ALLEY":" ","HOUSE_NO":"２１號之２","E_COORD97":166553.51999999999,"N_COORD97":2570071.3599999999,"ADDRESS":"民族路２１號之２","OBJECTID":560863},"geometry":{"x":166553.52000000048,"y":2570071.3599999994}},{"attributes":{"ID":560891,"DIS_CODE":0,"TOWNNAME":"學甲區","LI":"慈福里","LIN":"9鄰","STREET":"民族路","SECT":" ","MAREA":" ","LANE":" ","ALLEY":" ","HOUSE_NO":"２１號","E_COORD97":166550.48999999999,"N_COORD97":2570058.7400000002,"ADDRESS":"民族路２１號","OBJECTID":560864},"geometry":{"x":166550.48999999929,"y":2570058.7400000021}},{"attributes":{"ID":560892,"DIS_CODE":0,"TOWNNAME":"學甲區","LI":"慈福里","LIN":"9鄰","STREET":"民族路","SECT":" ","MAREA":" ","LANE":" ","ALLEY":" ","HOUSE_NO":"２４號","E_COORD97":166592.63,"N_COORD97":2570112.77,"ADDRESS":"民族路２４號","OBJECTID":560865},"geometry":{"x":166592.62999999989,"y":2570112.7699999996}},{"attributes":{"ID":560893,"DIS_CODE":0,"TOWNNAME":"學甲區","LI":"慈福里","LIN":"9鄰","STREET":"民族路","SECT":" ","MAREA":" ","LANE":" ","ALLEY":" ","HOUSE_NO":"２６號","E_COORD97":166593.35000000001,"N_COORD97":2570118.3799999999,"ADDRESS":"民族路２６號","OBJECTID":560866},"geometry":{"x":166593.35000000149,"y":2570118.379999999}},{"attributes":{"ID":560894,"DIS_CODE":0,"TOWNNAME":"學甲區","LI":"慈福里","LIN":"9鄰","STREET":"民族路","SECT":" ","MAREA":" ","LANE":" ","ALLEY":" ","HOUSE_NO":"３０號","E_COORD97":166599.85000000001,"N_COORD97":2570133.7200000002,"ADDRESS":"民族路３０號","OBJECTID":560867},"geometry":{"x":166599.84999999963,"y":2570133.7200000025}},{"attributes":{"ID":560895,"DIS_CODE":0,"TOWNNAME":"學甲區","LI":"慈福里","LIN":"9鄰","STREET":"民族路","SECT":" ","MAREA":" ","LANE":" ","ALLEY":" ","HOUSE_NO":"３號之１","E_COORD97":166540.14000000001,"N_COORD97":2569982.3700000001,"ADDRESS":"民族路３號之１","OBJECTID":560868},"geometry":{"x":166540.13999999966,"y":2569982.370000001}},{"attributes":{"ID":560896,"DIS_CODE":0,"TOWNNAME":"學甲區","LI":"慈福里","LIN":"9鄰","STREET":"民族路","SECT":" ","MAREA":" ","LANE":" ","ALLEY":" ","HOUSE_NO":"３號之２","E_COORD97":166540.66,"N_COORD97":2569986.52,"ADDRESS":"民族路３號之２","OBJECTID":560869},"geometry":{"x":166540.66000000015,"y":2569986.5199999996}},{"attributes":{"ID":560897,"DIS_CODE":0,"TOWNNAME":"學甲區","LI":"慈福里","LIN":"9鄰","STREET":"民族路","SECT":" ","MAREA":" ","LANE":" ","ALLEY":" ","HOUSE_NO":"３號之３","E_COORD97":166531.48000000001,"N_COORD97":2569981.71,"ADDRESS":"民族路３號之３","OBJECTID":560870},"geometry":{"x":166531.48000000045,"y":2569981.7100000028}},{"attributes":{"ID":560898,"DIS_CODE":0,"TOWNNAME":"學甲區","LI":"慈福里","LIN":"9鄰","STREET":"民族路","SECT":" ","MAREA":" ","LANE":" ","ALLEY":" ","HOUSE_NO":"３號之４","E_COORD97":166526.51000000001,"N_COORD97":2569982.5699999998,"ADDRESS":"民族路３號之４","OBJECTID":560871},"geometry":{"x":166526.51000000071,"y":2569982.5700000003}},{"attributes":{"ID":560899,"DIS_CODE":0,"TOWNNAME":"學甲區","LI":"慈福里","LIN":"9鄰","STREET":"民族路","SECT":" ","MAREA":" ","LANE":" ","ALLEY":" ","HOUSE_NO":"３號之５","E_COORD97":166521.48000000001,"N_COORD97":2569983.6299999999,"ADDRESS":"民族路３號之５","OBJECTID":560872},"geometry":{"x":166521.48000000045,"y":2569983.6300000008}},{"attributes":{"ID":560900,"DIS_CODE":0,"TOWNNAME":"學甲區","LI":"慈福里","LIN":"9鄰","STREET":"民族路","SECT":" ","MAREA":" ","LANE":" ","ALLEY":" ","HOUSE_NO":"３號之６","E_COORD97":166516.63,"N_COORD97":2569984.73,"ADDRESS":"民族路３號之６","OBJECTID":560873},"geometry":{"x":166516.62999999989,"y":2569984.7300000023}},{"attributes":{"ID":560901,"DIS_CODE":0,"TOWNNAME":"永康區","LI":"龍潭里","LIN":"44鄰","STREET":"永平街","SECT":" ","MAREA":" ","LANE":" ","ALLEY":" ","HOUSE_NO":"２８０之７號","E_COORD97":174656.59,"N_COORD97":2547031.5499999998,"ADDRESS":"永平街２８０之７號","OBJECTID":560874},"geometry":{"x":174656.59000000078,"y":2547031.5500000007}},{"attributes":{"ID":560902,"DIS_CODE":0,"TOWNNAME":"永康區","LI":"龍潭里","LIN":"10鄰","STREET":"龍潭街","SECT":" ","MAREA":" ","LANE":" ","ALLEY":" ","HOUSE_NO":"１４７號","E_COORD97":174882.85000000001,"N_COORD97":2548247,"ADDRESS":"龍潭街１４７號","OBJECTID":560875},"geometry":{"x":174882.85000000149,"y":2548247}},{"attributes":{"ID":560903,"DIS_CODE":0,"TOWNNAME":"學甲區","LI":"慈福里","LIN":"9鄰","STREET":"民族路","SECT":" ","MAREA":" ","LANE":" ","ALLEY":" ","HOUSE_NO":"３號之７","E_COORD97":166511.91,"N_COORD97":2569985.8900000001,"ADDRESS":"民族路３號之７","OBJECTID":560876},"geometry":{"x":166511.91000000015,"y":2569985.8900000043}},{"attributes":{"ID":560904,"DIS_CODE":0,"TOWNNAME":"學甲區","LI":"慈福里","LIN":"9鄰","STREET":"民族路","SECT":" ","MAREA":" ","LANE":" ","ALLEY":" ","HOUSE_NO":"３號","E_COORD97":166539.32999999999,"N_COORD97":2569978.3300000001,"ADDRESS":"民族路３號","OBJECTID":560877},"geometry":{"x":166539.33000000007,"y":2569978.3300000001}},{"attributes":{"ID":560905,"DIS_CODE":0,"TOWNNAME":"學甲區","LI":"慈福里","LIN":"9鄰","STREET":"民族路","SECT":" ","MAREA":" ","LANE":" ","ALLEY":" ","HOUSE_NO":"６號","E_COORD97":166559.79999999999,"N_COORD97":2569966.52,"ADDRESS":"民族路６號","OBJECTID":560878},"geometry":{"x":166559.79999999981,"y":2569966.5199999996}},{"attributes":{"ID":560906,"DIS_CODE":0,"TOWNNAME":"學甲區","LI":"慈福里","LIN":"9鄰","STREET":"民族路","SECT":" ","MAREA":" ","LANE":" ","ALLEY":" ","HOUSE_NO":"７號之１","E_COORD97":166540.94,"N_COORD97":2570001.3799999999,"ADDRESS":"民族路７號之１","OBJECTID":560879},"geometry":{"x":166540.94000000227,"y":2570001.3800000008}},{"attributes":{"ID":560907,"DIS_CODE":0,"TOWNNAME":"學甲區","LI":"慈福里","LIN":"9鄰","STREET":"民族路","SECT":" ","MAREA":" ","LANE":" ","ALLEY":" ","HOUSE_NO":"７號之２","E_COORD97":166541.73999999999,"N_COORD97":2570005.75,"ADDRESS":"民族路７號之２","OBJECTID":560880},"geometry":{"x":166541.74000000022,"y":2570005.75}},{"attributes":{"ID":560908,"DIS_CODE":0,"TOWNNAME":"學甲區","LI":"慈福里","LIN":"9鄰","STREET":"民族路","SECT":" ","MAREA":" ","LANE":" ","ALLEY":" ","HOUSE_NO":"７號","E_COORD97":166539.54999999999,"N_COORD97":2569997.0299999998,"ADDRESS":"民族路７號","OBJECTID":560881},"geometry":{"x":166539.55000000168,"y":2569997.0300000031}},{"attributes":{"ID":560909,"DIS_CODE":0,"TOWNNAME":"學甲區","LI":"慈福里","LIN":"9鄰","STREET":"民族路","SECT":" ","MAREA":" ","LANE":" ","ALLEY":" ","HOUSE_NO":"９號之１","E_COORD97":166544,"N_COORD97":2570015.4199999999,"ADDRESS":"民族路９號之１","OBJECTID":560882},"geometry":{"x":166544.00000000093,"y":2570015.4200000037}},{"attributes":{"ID":560910,"DIS_CODE":0,"TOWNNAME":"學甲區","LI":"慈福里","LIN":"9鄰","STREET":"民族路","SECT":" ","MAREA":" ","LANE":" ","ALLEY":" ","HOUSE_NO":"９號之２","E_COORD97":166545.10000000001,"N_COORD97":2570021.3900000001,"ADDRESS":"民族路９號之２","OBJECTID":560883},"geometry":{"x":166545.09999999963,"y":2570021.3900000006}},{"attributes":{"ID":560911,"DIS_CODE":0,"TOWNNAME":"學甲區","LI":"慈福里","LIN":"9鄰","STREET":"民權路","SECT":" ","MAREA":" ","LANE":" ","ALLEY":" ","HOUSE_NO":"５號","E_COORD97":166531.59,"N_COORD97":2570103.1499999999,"ADDRESS":"民權路５號","OBJECTID":560884},"geometry":{"x":166531.59000000078,"y":2570103.1500000022}},{"attributes":{"ID":560912,"DIS_CODE":0,"TOWNNAME":"學甲區","LI":"仁得里","LIN":"9鄰","STREET":"成功路","SECT":" ","MAREA":" ","LANE":" ","ALLEY":" ","HOUSE_NO":"１１號之１","E_COORD97":166139.03,"N_COORD97":2570187.8199999998,"ADDRESS":"成功路１１號之１","OBJECTID":560885},"geometry":{"x":166139.03000000119,"y":2570187.8200000003}},{"attributes":{"ID":560913,"DIS_CODE":0,"TOWNNAME":"學甲區","LI":"仁得里","LIN":"9鄰","STREET":"成功路","SECT":" ","MAREA":" ","LANE":" ","ALLEY":" ","HOUSE_NO":"１１號之３","E_COORD97":166139.60000000001,"N_COORD97":2570196.2799999998,"ADDRESS":"成功路１１號之３","OBJECTID":560886},"geometry":{"x":166139.60000000056,"y":2570196.2800000012}},{"attributes":{"ID":560914,"DIS_CODE":0,"TOWNNAME":"學甲區","LI":"仁得里","LIN":"9鄰","STREET":"成功路","SECT":" ","MAREA":" ","LANE":" ","ALLEY":" ","HOUSE_NO":"１１號之４","E_COORD97":166142.10000000001,"N_COORD97":2570200.23,"ADDRESS":"成功路１１號之４","OBJECTID":560887},"geometry":{"x":166142.09999999963,"y":2570200.2300000042}},{"attributes":{"ID":560915,"DIS_CODE":0,"TOWNNAME":"學甲區","LI":"仁得里","LIN":"9鄰","STREET":"成功路","SECT":" ","MAREA":" ","LANE":" ","ALLEY":" ","HOUSE_NO":"１１號之５","E_COORD97":166142.76000000001,"N_COORD97":2570204.0299999998,"ADDRESS":"成功路１１號之５","OBJECTID":560888},"geometry":{"x":166142.75999999978,"y":2570204.0300000031}},{"attributes":{"ID":560916,"DIS_CODE":0,"TOWNNAME":"學甲區","LI":"仁得里","LIN":"9鄰","STREET":"成功路","SECT":" ","MAREA":" ","LANE":" ","ALLEY":" ","HOUSE_NO":"１１號之６","E_COORD97":166143.17000000001,"N_COORD97":2570210.25,"ADDRESS":"成功路１１號之６","OBJECTID":560889},"geometry":{"x":166143.16999999993,"y":2570210.2500000019}},{"attributes":{"ID":560917,"DIS_CODE":0,"TOWNNAME":"學甲區","LI":"仁得里","LIN":"9鄰","STREET":"成功路","SECT":" ","MAREA":" ","LANE":" ","ALLEY":" ","HOUSE_NO":"１１號","E_COORD97":166137.92999999999,"N_COORD97":2570183.1800000002,"ADDRESS":"成功路１１號","OBJECTID":560890},"geometry":{"x":166137.9299999997,"y":2570183.1800000016}},{"attributes":{"ID":560918,"DIS_CODE":0,"TOWNNAME":"永康區","LI":"龍潭里","LIN":"23鄰","STREET":"龍安街","SECT":" ","MAREA":" ","LANE":" ","ALLEY":" ","HOUSE_NO":"１３９號","E_COORD97":174608.45999999999,"N_COORD97":2548403.3399999999,"ADDRESS":"龍安街１３９號","OBJECTID":560891},"geometry":{"x":174608.46000000089,"y":2548403.3400000017}},{"attributes":{"ID":560919,"DIS_CODE":0,"TOWNNAME":"永康區","LI":"網寮里","LIN":"20鄰","STREET":"永二街","SECT":" ","MAREA":" ","LANE":" ","ALLEY":" ","HOUSE_NO":"２５１號","E_COORD97":173316.84,"N_COORD97":2546227.5,"ADDRESS":"永二街２５１號","OBJECTID":560892},"geometry":{"x":173316.84000000171,"y":2546227.5}},{"attributes":{"ID":560920,"DIS_CODE":0,"TOWNNAME":"永康區","LI":"網寮里","LIN":"24鄰","STREET":"永大一路","SECT":" ","MAREA":" ","LANE":" ","ALLEY":" ","HOUSE_NO":"１５０號","E_COORD97":173893.70999999999,"N_COORD97":2546383.75,"ADDRESS":"永大一路１５０號","OBJECTID":560893},"geometry":{"x":173893.70999999996,"y":2546383.7500000019}},{"attributes":{"ID":560921,"DIS_CODE":0,"TOWNNAME":"學甲區","LI":"明宜里","LIN":"9鄰","STREET":"信義路","SECT":" ","MAREA":" ","LANE":" ","ALLEY":" ","HOUSE_NO":"５５號之１１","E_COORD97":165875.09,"N_COORD97":2570482.2200000002,"ADDRESS":"信義路５５號之１１","OBJECTID":560894},"geometry":{"x":165875.09000000078,"y":2570482.2200000044}},{"attributes":{"ID":560922,"DIS_CODE":0,"TOWNNAME":"學甲區","LI":"明宜里","LIN":"9鄰","STREET":"信義路","SECT":" ","MAREA":" ","LANE":" ","ALLEY":" ","HOUSE_NO":"５５號之１２","E_COORD97":165870.34,"N_COORD97":2570475.73,"ADDRESS":"信義路５５號之１２","OBJECTID":560895},"geometry":{"x":165870.34000000078,"y":2570475.7300000023}},{"attributes":{"ID":560923,"DIS_CODE":0,"TOWNNAME":"學甲區","LI":"明宜里","LIN":"9鄰","STREET":"信義路","SECT":" ","MAREA":" ","LANE":" ","ALLEY":" ","HOUSE_NO":"５５號之１４","E_COORD97":165880.29000000001,"N_COORD97":2570497.6200000001,"ADDRESS":"信義路５５號之１４","OBJECTID":560896},"geometry":{"x":165880.29000000004,"y":2570497.6200000029}},{"attributes":{"ID":560924,"DIS_CODE":0,"TOWNNAME":"學甲區","LI":"明宜里","LIN":"9鄰","STREET":"信義路","SECT":" ","MAREA":" ","LANE":" ","ALLEY":" ","HOUSE_NO":"５５號之１","E_COORD97":165874.57999999999,"N_COORD97":2570465.1200000001,"ADDRESS":"信義路５５號之１","OBJECTID":560897},"geometry":{"x":165874.58000000007,"y":2570465.120000001}},{"attributes":{"ID":560925,"DIS_CODE":0,"TOWNNAME":"學甲區","LI":"明宜里","LIN":"9鄰","STREET":"信義路","SECT":" ","MAREA":" ","LANE":" ","ALLEY":" ","HOUSE_NO":"５７號之１","E_COORD97":165881.92000000001,"N_COORD97":2570504.8300000001,"ADDRESS":"信義路５７號之１","OBJECTID":560898},"geometry":{"x":165881.92000000086,"y":2570504.8300000019}},{"attributes":{"ID":560926,"DIS_CODE":0,"TOWNNAME":"學甲區","LI":"明宜里","LIN":"9鄰","STREET":"信義路","SECT":" ","MAREA":" ","LANE":" ","ALLEY":" ","HOUSE_NO":"５７號之２","E_COORD97":165882.92000000001,"N_COORD97":2570508.3700000001,"ADDRESS":"信義路５７號之２","OBJECTID":560899},"geometry":{"x":165882.92000000179,"y":2570508.3700000048}},{"attributes":{"ID":560927,"DIS_CODE":0,"TOWNNAME":"學甲區","LI":"明宜里","LIN":"9鄰","STREET":"信義路","SECT":" ","MAREA":" ","LANE":" ","ALLEY":" ","HOUSE_NO":"５７號之３","E_COORD97":165883.76999999999,"N_COORD97":2570511.9199999999,"ADDRESS":"信義路５７號之３","OBJECTID":560900},"geometry":{"x":165883.77000000048,"y":2570511.9200000018}},{"attributes":{"ID":560928,"DIS_CODE":0,"TOWNNAME":"學甲區","LI":"明宜里","LIN":"9鄰","STREET":"信義路","SECT":" ","MAREA":" ","LANE":" ","ALLEY":" ","HOUSE_NO":"５７號","E_COORD97":165881.92000000001,"N_COORD97":2570501.23,"ADDRESS":"信義路５７號","OBJECTID":560901},"geometry":{"x":165881.92000000086,"y":2570501.2300000004}},{"attributes":{"ID":560929,"DIS_CODE":0,"TOWNNAME":"永康區","LI":"龍潭里","LIN":"14鄰","STREET":"龍安街","SECT":" ","MAREA":" ","LANE":" ","ALLEY":" ","HOUSE_NO":"９９號","E_COORD97":174596.89999999999,"N_COORD97":2548323.48,"ADDRESS":"龍安街９９號","OBJECTID":560902},"geometry":{"x":174596.9000000013,"y":2548323.4800000004}},{"attributes":{"ID":560930,"DIS_CODE":0,"TOWNNAME":"學甲區","LI":"慈福里","LIN":"9鄰","STREET":"建國東路","SECT":" ","MAREA":" ","LANE":" ","ALLEY":" ","HOUSE_NO":"２００號","E_COORD97":166536.01999999999,"N_COORD97":2569958.6099999999,"ADDRESS":"建國東路２００號","OBJECTID":560903},"geometry":{"x":166536.01999999862,"y":2569958.6099999994}},{"attributes":{"ID":560931,"DIS_CODE":0,"TOWNNAME":"學甲區","LI":"慈福里","LIN":"9鄰","STREET":"建國東路","SECT":" ","MAREA":" ","LANE":" ","ALLEY":" ","HOUSE_NO":"２０２號","E_COORD97":166527.47,"N_COORD97":2569962.6499999999,"ADDRESS":"建國東路２０２號","OBJECTID":560904},"geometry":{"x":166527.46999999974,"y":2569962.6500000004}},{"attributes":{"ID":560932,"DIS_CODE":0,"TOWNNAME":"學甲區","LI":"慈福里","LIN":"9鄰","STREET":"建國東路","SECT":" ","MAREA":" ","LANE":" ","ALLEY":" ","HOUSE_NO":"２０６號","E_COORD97":166522.73999999999,"N_COORD97":2569963.8199999998,"ADDRESS":"建國東路２０６號","OBJECTID":560905},"geometry":{"x":166522.74000000022,"y":2569963.8200000022}},{"attributes":{"ID":560933,"DIS_CODE":0,"TOWNNAME":"學甲區","LI":"慈福里","LIN":"9鄰","STREET":"建國東路","SECT":" ","MAREA":" ","LANE":" ","ALLEY":" ","HOUSE_NO":"２０８號","E_COORD97":166517.51999999999,"N_COORD97":2569965.1099999999,"ADDRESS":"建國東路２０８號","OBJECTID":560906},"geometry":{"x":166517.52000000142,"y":2569965.1099999994}},{"attributes":{"ID":560934,"DIS_CODE":0,"TOWNNAME":"學甲區","LI":"慈福里","LIN":"9鄰","STREET":"建國東路","SECT":" ","MAREA":" ","LANE":" ","ALLEY":" ","HOUSE_NO":"２１０號","E_COORD97":166512.70999999999,"N_COORD97":2569965.9399999999,"ADDRESS":"建國東路２１０號","OBJECTID":560907},"geometry":{"x":166512.70999999996,"y":2569965.9399999995}},{"attributes":{"ID":560935,"DIS_CODE":0,"TOWNNAME":"學甲區","LI":"慈福里","LIN":"9鄰","STREET":"建國東路","SECT":" ","MAREA":" ","LANE":" ","ALLEY":" ","HOUSE_NO":"２１２號","E_COORD97":166508.22,"N_COORD97":2569966.77,"ADDRESS":"建國東路２１２號","OBJECTID":560908},"geometry":{"x":166508.22000000067,"y":2569966.7700000014}},{"attributes":{"ID":560936,"DIS_CODE":0,"TOWNNAME":"學甲區","LI":"慈福里","LIN":"9鄰","STREET":"建國東路","SECT":" ","MAREA":" ","LANE":" ","ALLEY":" ","HOUSE_NO":"２１６號","E_COORD97":166504.82999999999,"N_COORD97":2569988.3799999999,"ADDRESS":"建國東路２１６號","OBJECTID":560909},"geometry":{"x":166504.83000000101,"y":2569988.3800000008}},{"attributes":{"ID":560937,"DIS_CODE":0,"TOWNNAME":"永康區","LI":"網寮里","LIN":"18鄰","STREET":"永二街","SECT":" ","MAREA":" ","LANE":" ","ALLEY":" ","HOUSE_NO":"１８７號","E_COORD97":173439.72,"N_COORD97":2546339.4399999999,"ADDRESS":"永二街１８７號","OBJECTID":560910},"geometry":{"x":173439.72000000067,"y":2546339.4399999995}},{"attributes":{"ID":560938,"DIS_CODE":0,"TOWNNAME":"永康區","LI":"龍潭里","LIN":"24鄰","STREET":"中山北路","SECT":" ","MAREA":" ","LANE":" ","ALLEY":" ","HOUSE_NO":"３７０號","E_COORD97":175214.39000000001,"N_COORD97":2547662.73,"ADDRESS":"中山北路３７０號","OBJECTID":560911},"geometry":{"x":175214.38999999966,"y":2547662.7300000023}},{"attributes":{"ID":560939,"DIS_CODE":0,"TOWNNAME":"永康區","LI":"新樹里","LIN":"5鄰","STREET":"富強路","SECT":"二段","MAREA":" ","LANE":" ","ALLEY":" ","HOUSE_NO":"２４號","E_COORD97":175713.5,"N_COORD97":2546849.3900000001,"ADDRESS":"富強路二段２４號","OBJECTID":560912},"geometry":{"x":175713.50000000093,"y":2546849.3900000006}},{"attributes":{"ID":560940,"DIS_CODE":0,"TOWNNAME":"永康區","LI":"網寮里","LIN":"2鄰","STREET":"永和街","SECT":" ","MAREA":" ","LANE":" ","ALLEY":" ","HOUSE_NO":"１２２號","E_COORD97":173603.12,"N_COORD97":2546499.9900000002,"ADDRESS":"永和街１２２號","OBJECTID":560913},"geometry":{"x":173603.12000000011,"y":2546499.9900000021}},{"attributes":{"ID":560941,"DIS_CODE":0,"TOWNNAME":"永康區","LI":"蔦松里","LIN":"6鄰","STREET":"蔦松一街","SECT":" ","MAREA":" ","LANE":" ","ALLEY":" ","HOUSE_NO":"８４號","E_COORD97":173844.26000000001,"N_COORD97":2549486.6499999999,"ADDRESS":"蔦松一街８４號","OBJECTID":560914},"geometry":{"x":173844.25999999978,"y":2549486.6500000022}},{"attributes":{"ID":560942,"DIS_CODE":0,"TOWNNAME":"永康區","LI":"網寮里","LIN":"6鄰","STREET":"永二街","SECT":" ","MAREA":" ","LANE":" ","ALLEY":" ","HOUSE_NO":"１７６號","E_COORD97":173398.35000000001,"N_COORD97":2546304.29,"ADDRESS":"永二街１７６號","OBJECTID":560915},"geometry":{"x":173398.35000000056,"y":2546304.290000001}},{"attributes":{"ID":560943,"DIS_CODE":0,"TOWNNAME":"永康區","LI":"網寮里","LIN":"19鄰","STREET":"文化路","SECT":" ","MAREA":" ","LANE":" ","ALLEY":" ","HOUSE_NO":"２８６號","E_COORD97":173455.13,"N_COORD97":2546151.0800000001,"ADDRESS":"文化路２８６號","OBJECTID":560916},"geometry":{"x":173455.12999999989,"y":2546151.0800000019}},{"attributes":{"ID":560944,"DIS_CODE":0,"TOWNNAME":"永康區","LI":"網寮里","LIN":"2鄰","STREET":"永二街","SECT":" ","MAREA":" ","LANE":" ","ALLEY":" ","HOUSE_NO":"１３１號","E_COORD97":173529.45999999999,"N_COORD97":2546465.02,"ADDRESS":"永二街１３１號","OBJECTID":560917},"geometry":{"x":173529.45999999996,"y":2546465.0200000014}},{"attributes":{"ID":560945,"DIS_CODE":0,"TOWNNAME":"永康區","LI":"蔦松里","LIN":"5鄰","STREET":"蔦松一街","SECT":" ","MAREA":" ","LANE":" ","ALLEY":" ","HOUSE_NO":"５９號","E_COORD97":173859.69,"N_COORD97":2549462.4900000002,"ADDRESS":"蔦松一街５９號","OBJECTID":560918},"geometry":{"x":173859.69000000134,"y":2549462.4899999984}},{"attributes":{"ID":560946,"DIS_CODE":0,"TOWNNAME":"永康區","LI":"龍潭里","LIN":"24鄰","STREET":"中山北路","SECT":" ","MAREA":" ","LANE":" ","ALLEY":" ","HOUSE_NO":"３４８號","E_COORD97":175134.29000000001,"N_COORD97":2547703.5499999998,"ADDRESS":"中山北路３４８號","OBJECTID":560919},"geometry":{"x":175134.29000000004,"y":2547703.5500000026}},{"attributes":{"ID":560947,"DIS_CODE":0,"TOWNNAME":"永康區","LI":"網寮里","LIN":"6鄰","STREET":"永二街","SECT":" ","MAREA":" ","LANE":" ","ALLEY":" ","HOUSE_NO":"２１０號","E_COORD97":173318.51999999999,"N_COORD97":2546246.96,"ADDRESS":"永二街２１０號","OBJECTID":560920},"geometry":{"x":173318.51999999862,"y":2546246.9600000028}},{"attributes":{"ID":560948,"DIS_CODE":0,"TOWNNAME":"永康區","LI":"網寮里","LIN":"21鄰","STREET":"文化路","SECT":" ","MAREA":" ","LANE":" ","ALLEY":" ","HOUSE_NO":"２４５號","E_COORD97":173614.60999999999,"N_COORD97":2546129.96,"ADDRESS":"文化路２４５號","OBJECTID":560921},"geometry":{"x":173614.61000000127,"y":2546129.9600000009}},{"attributes":{"ID":560949,"DIS_CODE":0,"TOWNNAME":"永康區","LI":"網寮里","LIN":"21鄰","STREET":"文化路","SECT":" ","MAREA":" ","LANE":" ","ALLEY":" ","HOUSE_NO":"２４０號","E_COORD97":173591.22,"N_COORD97":2546141.04,"ADDRESS":"文化路２４０號","OBJECTID":560922},"geometry":{"x":173591.21999999974,"y":2546141.0399999991}},{"attributes":{"ID":560950,"DIS_CODE":0,"TOWNNAME":"北區","LI":"和順里","LIN":"9鄰","STREET":"民德路","SECT":" ","MAREA":" ","LANE":" ","ALLEY":" ","HOUSE_NO":"２６號","E_COORD97":168261.54999999999,"N_COORD97":2545156.7200000002,"ADDRESS":"民德路２６號","OBJECTID":560923},"geometry":{"x":168261.54999999981,"y":2545156.7200000025}},{"attributes":{"ID":560951,"DIS_CODE":0,"TOWNNAME":"北區","LI":"和順里","LIN":"9鄰","STREET":"民德路","SECT":" ","MAREA":" ","LANE":" ","ALLEY":" ","HOUSE_NO":"２８號","E_COORD97":168257.39000000001,"N_COORD97":2545159.7400000002,"ADDRESS":"民德路２８號","OBJECTID":560924},"geometry":{"x":168257.38999999966,"y":2545159.7400000021}},{"attributes":{"ID":560952,"DIS_CODE":0,"TOWNNAME":"北區","LI":"和順里","LIN":"9鄰","STREET":"民德路","SECT":" ","MAREA":" ","LANE":" ","ALLEY":" ","HOUSE_NO":"３０號","E_COORD97":168252.29000000001,"N_COORD97":2545163.1400000001,"ADDRESS":"民德路３０號","OBJECTID":560925},"geometry":{"x":168252.29000000097,"y":2545163.1400000043}},{"attributes":{"ID":560953,"DIS_CODE":0,"TOWNNAME":"北區","LI":"和順里","LIN":"9鄰","STREET":"民德路","SECT":" ","MAREA":" ","LANE":" ","ALLEY":" ","HOUSE_NO":"３２號","E_COORD97":168247.38,"N_COORD97":2545166.1499999999,"ADDRESS":"民德路３２號","OBJECTID":560926},"geometry":{"x":168247.37999999989,"y":2545166.1500000041}},{"attributes":{"ID":560954,"DIS_CODE":0,"TOWNNAME":"永康區","LI":"新樹里","LIN":"7鄰","STREET":"富強路","SECT":"二段","MAREA":" ","LANE":" ","ALLEY":" ","HOUSE_NO":"４６號","E_COORD97":175702.91,"N_COORD97":2546906.8399999999,"ADDRESS":"富強路二段４６號","OBJECTID":560927},"geometry":{"x":175702.91000000015,"y":2546906.839999998}},{"attributes":{"ID":560955,"DIS_CODE":0,"TOWNNAME":"永康區","LI":"蔦松里","LIN":"6鄰","STREET":"蔦松一街","SECT":" ","MAREA":" ","LANE":" ","ALLEY":" ","HOUSE_NO":"６２號","E_COORD97":173904.63,"N_COORD97":2549451.75,"ADDRESS":"蔦松一街６２號","OBJECTID":560928},"geometry":{"x":173904.62999999896,"y":2549451.7500000019}},{"attributes":{"ID":560956,"DIS_CODE":0,"TOWNNAME":"永康區","LI":"新樹里","LIN":"12鄰","STREET":"富強路","SECT":"二段","MAREA":" ","LANE":" ","ALLEY":" ","HOUSE_NO":"７９號","E_COORD97":175665.59,"N_COORD97":2546966.5299999998,"ADDRESS":"富強路二段７９號","OBJECTID":560929},"geometry":{"x":175665.58999999985,"y":2546966.5300000012}},{"attributes":{"ID":560957,"DIS_CODE":0,"TOWNNAME":"楠西區","LI":"楠西里","LIN":"9鄰","STREET":"中華路","SECT":" ","MAREA":" ","LANE":" ","ALLEY":" ","HOUSE_NO":"４５號","E_COORD97":197281.70999999999,"N_COORD97":2564128.25,"ADDRESS":"中華路４５號","OBJECTID":560930},"geometry":{"x":197281.71000000089,"y":2564128.2500000019}},{"attributes":{"ID":560958,"DIS_CODE":0,"TOWNNAME":"永康區","LI":"龍潭里","LIN":"3鄰","STREET":"龍安街","SECT":" ","MAREA":" ","LANE":" ","ALLEY":" ","HOUSE_NO":"３３號","E_COORD97":174566.72,"N_COORD97":2548118.0800000001,"ADDRESS":"龍安街３３號","OBJECTID":560931},"geometry":{"x":174566.71999999881,"y":2548118.0800000001}},{"attributes":{"ID":560959,"DIS_CODE":0,"TOWNNAME":"永康區","LI":"網寮里","LIN":"21鄰","STREET":"文化路","SECT":" ","MAREA":" ","LANE":" ","ALLEY":" ","HOUSE_NO":"２５３號","E_COORD97":173597.41,"N_COORD97":2546124.21,"ADDRESS":"文化路２５３號","OBJECTID":560932},"geometry":{"x":173597.41000000015,"y":2546124.2100000009}},{"attributes":{"ID":560960,"DIS_CODE":0,"TOWNNAME":"歸仁區","LI":"大潭里","LIN":"9鄰","STREET":"長榮路","SECT":"一段","MAREA":" ","LANE":" ","ALLEY":" ","HOUSE_NO":"３１８號","E_COORD97":175271.87,"N_COORD97":2534438.2799999998,"ADDRESS":"長榮路一段３１８號","OBJECTID":560933},"geometry":{"x":175271.87000000104,"y":2534438.2800000012}},{"attributes":{"ID":560961,"DIS_CODE":0,"TOWNNAME":"歸仁區","LI":"後市里","LIN":"9鄰","STREET":"大順六街","SECT":" ","MAREA":" ","LANE":" ","ALLEY":" ","HOUSE_NO":"２６號","E_COORD97":177046.10999999999,"N_COORD97":2540663.25,"ADDRESS":"大順六街２６號","OBJECTID":560934},"geometry":{"x":177046.11000000034,"y":2540663.2500000019}},{"attributes":{"ID":560962,"DIS_CODE":0,"TOWNNAME":"歸仁區","LI":"文化里","LIN":"9鄰","STREET":"民權一街","SECT":" ","MAREA":" ","LANE":" ","ALLEY":" ","HOUSE_NO":"９號","E_COORD97":177093.70000000001,"N_COORD97":2541362.3300000001,"ADDRESS":"民權一街９號","OBJECTID":560935},"geometry":{"x":177093.70000000112,"y":2541362.3300000019}},{"attributes":{"ID":560963,"DIS_CODE":0,"TOWNNAME":"永康區","LI":"網寮里","LIN":"21鄰","STREET":"文化路","SECT":" ","MAREA":" ","LANE":" ","ALLEY":" ","HOUSE_NO":"２５９號","E_COORD97":173587.29999999999,"N_COORD97":2546120.96,"ADDRESS":"文化路２５９號","OBJECTID":560936},"geometry":{"x":173587.30000000075,"y":2546120.9600000046}},{"attributes":{"ID":560964,"DIS_CODE":0,"TOWNNAME":"楠西區","LI":"楠西里","LIN":"9鄰","STREET":"中華路","SECT":" ","MAREA":" ","LANE":" ","ALLEY":" ","HOUSE_NO":"３７號","E_COORD97":197280.51000000001,"N_COORD97":2564105.25,"ADDRESS":"中華路３７號","OBJECTID":560937},"geometry":{"x":197280.51000000164,"y":2564105.2500000019}},{"attributes":{"ID":560965,"DIS_CODE":0,"TOWNNAME":"歸仁區","LI":"八甲里","LIN":"9鄰","STREET":"大光一街","SECT":" ","MAREA":" ","LANE":" ","ALLEY":" ","HOUSE_NO":"６９號","E_COORD97":177831.92000000001,"N_COORD97":2541843.6099999999,"ADDRESS":"大光一街６９號","OBJECTID":560938},"geometry":{"x":177831.91999999993,"y":2541843.6100000013}},{"attributes":{"ID":560966,"DIS_CODE":0,"TOWNNAME":"歸仁區","LI":"八甲里","LIN":"9鄰","STREET":"大光二街","SECT":" ","MAREA":" ","LANE":" ","ALLEY":" ","HOUSE_NO":"５２之１號","E_COORD97":177809.42000000001,"N_COORD97":2541747.6200000001,"ADDRESS":"大光二街５２之１號","OBJECTID":560939},"geometry":{"x":177809.41999999993,"y":2541747.6200000029}},{"attributes":{"ID":560967,"DIS_CODE":0,"TOWNNAME":"歸仁區","LI":"八甲里","LIN":"9鄰","STREET":"大光二街","SECT":" ","MAREA":" ","LANE":" ","ALLEY":" ","HOUSE_NO":"５２號","E_COORD97":177814.01999999999,"N_COORD97":2541747.6099999999,"ADDRESS":"大光二街５２號","OBJECTID":560940},"geometry":{"x":177814.01999999955,"y":2541747.6099999994}},{"attributes":{"ID":560968,"DIS_CODE":0,"TOWNNAME":"歸仁區","LI":"八甲里","LIN":"9鄰","STREET":"大光二街","SECT":" ","MAREA":" ","LANE":" ","ALLEY":" ","HOUSE_NO":"５６號","E_COORD97":177804.82000000001,"N_COORD97":2541748.6099999999,"ADDRESS":"大光二街５６號","OBJECTID":560941},"geometry":{"x":177804.82000000123,"y":2541748.6100000013}},{"attributes":{"ID":560969,"DIS_CODE":0,"TOWNNAME":"歸仁區","LI":"文化里","LIN":"9鄰","STREET":"民權北路","SECT":" ","MAREA":" ","LANE":" ","ALLEY":" ","HOUSE_NO":"１５６號","E_COORD97":177031.70000000001,"N_COORD97":2541373.3300000001,"ADDRESS":"民權北路１５６號","OBJECTID":560942},"geometry":{"x":177031.70000000019,"y":2541373.3300000001}},{"attributes":{"ID":560970,"DIS_CODE":0,"TOWNNAME":"楠西區","LI":"東勢里","LIN":"9鄰","STREET":"水庫路","SECT":" ","MAREA":" ","LANE":" ","ALLEY":" ","HOUSE_NO":"２０６號","E_COORD97":197715.67000000001,"N_COORD97":2564242.25,"ADDRESS":"水庫路２０６號","OBJECTID":560943},"geometry":{"x":197715.67000000086,"y":2564242.25}},{"attributes":{"ID":560971,"DIS_CODE":0,"TOWNNAME":"楠西區","LI":"東勢里","LIN":"9鄰","STREET":"水庫路","SECT":" ","MAREA":" ","LANE":" ","ALLEY":" ","HOUSE_NO":"１９６號","E_COORD97":197711.26999999999,"N_COORD97":2564264.25,"ADDRESS":"水庫路１９６號","OBJECTID":560944},"geometry":{"x":197711.27000000048,"y":2564264.2500000019}},{"attributes":{"ID":560972,"DIS_CODE":0,"TOWNNAME":"楠西區","LI":"楠西里","LIN":"9鄰","STREET":"中華路","SECT":" ","MAREA":" ","LANE":" ","ALLEY":" ","HOUSE_NO":"３９號","E_COORD97":197280.70999999999,"N_COORD97":2564110.25,"ADDRESS":"中華路３９號","OBJECTID":560945},"geometry":{"x":197280.70999999996,"y":2564110.25}},{"attributes":{"ID":560973,"DIS_CODE":0,"TOWNNAME":"楠西區","LI":"東勢里","LIN":"9鄰","STREET":"水庫路","SECT":" ","MAREA":" ","LANE":" ","ALLEY":" ","HOUSE_NO":"２２０號","E_COORD97":197718.97,"N_COORD97":2564213.25,"ADDRESS":"水庫路２２０號","OBJECTID":560946},"geometry":{"x":197718.96999999974,"y":2564213.2500000019}},{"attributes":{"ID":560974,"DIS_CODE":0,"TOWNNAME":"楠西區","LI":"楠西里","LIN":"9鄰","STREET":"中華路","SECT":" ","MAREA":" ","LANE":" ","ALLEY":" ","HOUSE_NO":"３３號","E_COORD97":197280.51000000001,"N_COORD97":2564101.25,"ADDRESS":"中華路３３號","OBJECTID":560947},"geometry":{"x":197280.51000000164,"y":2564101.2500000019}},{"attributes":{"ID":560975,"DIS_CODE":0,"TOWNNAME":"楠西區","LI":"楠西里","LIN":"9鄰","STREET":"中華路","SECT":" ","MAREA":" ","LANE":" ","ALLEY":" ","HOUSE_NO":"３１號","E_COORD97":197280.51000000001,"N_COORD97":2564095.25,"ADDRESS":"中華路３１號","OBJECTID":560948},"geometry":{"x":197280.51000000164,"y":2564095.2500000019}},{"attributes":{"ID":560976,"DIS_CODE":0,"TOWNNAME":"楠西區","LI":"楠西里","LIN":"9鄰","STREET":"中華路","SECT":" ","MAREA":" ","LANE":" ","ALLEY":" ","HOUSE_NO":"４３號","E_COORD97":197281.20999999999,"N_COORD97":2564122.25,"ADDRESS":"中華路４３號","OBJECTID":560949},"geometry":{"x":197281.21000000089,"y":2564122.2500000019}},{"attributes":{"ID":560977,"DIS_CODE":0,"TOWNNAME":"楠西區","LI":"楠西里","LIN":"9鄰","STREET":"中華路","SECT":" ","MAREA":" ","LANE":" ","ALLEY":" ","HOUSE_NO":"２５號","E_COORD97":197279.10999999999,"N_COORD97":2564070.25,"ADDRESS":"中華路２５號","OBJECTID":560950},"geometry":{"x":197279.11000000127,"y":2564070.2500000019}},{"attributes":{"ID":560978,"DIS_CODE":0,"TOWNNAME":"楠西區","LI":"東勢里","LIN":"9鄰","STREET":"水庫路","SECT":" ","MAREA":" ","LANE":" ","ALLEY":" ","HOUSE_NO":"２３４號","E_COORD97":197722.97,"N_COORD97":2564182.25,"ADDRESS":"水庫路２３４號","OBJECTID":560951},"geometry":{"x":197722.96999999881,"y":2564182.2500000019}},{"attributes":{"ID":560979,"DIS_CODE":0,"TOWNNAME":"楠西區","LI":"東勢里","LIN":"9鄰","STREET":"水庫路","SECT":" ","MAREA":" ","LANE":" ","ALLEY":" ","HOUSE_NO":"２４０號","E_COORD97":197720.07000000001,"N_COORD97":2564166.25,"ADDRESS":"水庫路２４０號","OBJECTID":560952},"geometry":{"x":197720.07000000123,"y":2564166.2500000019}},{"attributes":{"ID":560980,"DIS_CODE":0,"TOWNNAME":"楠西區","LI":"東勢里","LIN":"9鄰","STREET":"水庫路","SECT":" ","MAREA":" ","LANE":" ","ALLEY":" ","HOUSE_NO":"１９８號","E_COORD97":197711.76999999999,"N_COORD97":2564260.25,"ADDRESS":"水庫路１９８號","OBJECTID":560953},"geometry":{"x":197711.76999999955,"y":2564260.2500000019}},{"attributes":{"ID":560981,"DIS_CODE":0,"TOWNNAME":"楠西區","LI":"東勢里","LIN":"9鄰","STREET":"水庫路","SECT":" ","MAREA":" ","LANE":" ","ALLEY":" ","HOUSE_NO":"２４８號","E_COORD97":197721.67000000001,"N_COORD97":2564148.25,"ADDRESS":"水庫路２４８號","OBJECTID":560954},"geometry":{"x":197721.66999999993,"y":2564148.2500000019}},{"attributes":{"ID":560982,"DIS_CODE":0,"TOWNNAME":"楠西區","LI":"東勢里","LIN":"9鄰","STREET":"水庫路","SECT":" ","MAREA":" ","LANE":" ","ALLEY":" ","HOUSE_NO":"１９４號","E_COORD97":197710.87,"N_COORD97":2564268.25,"ADDRESS":"水庫路１９４號","OBJECTID":560955},"geometry":{"x":197710.87000000104,"y":2564268.25}},{"attributes":{"ID":560983,"DIS_CODE":0,"TOWNNAME":"楠西區","LI":"東勢里","LIN":"9鄰","STREET":"水庫路","SECT":" ","MAREA":" ","LANE":" ","ALLEY":" ","HOUSE_NO":"２３２號","E_COORD97":197722.17000000001,"N_COORD97":2564186.25,"ADDRESS":"水庫路２３２號","OBJECTID":560956},"geometry":{"x":197722.17000000086,"y":2564186.2500000019}},{"attributes":{"ID":560984,"DIS_CODE":0,"TOWNNAME":"楠西區","LI":"東勢里","LIN":"9鄰","STREET":"水庫路","SECT":" ","MAREA":" ","LANE":" ","ALLEY":" ","HOUSE_NO":"２２６號","E_COORD97":197720.76999999999,"N_COORD97":2564199.25,"ADDRESS":"水庫路２２６號","OBJECTID":560957},"geometry":{"x":197720.76999999862,"y":2564199.2500000019}},{"attributes":{"ID":560985,"DIS_CODE":0,"TOWNNAME":"楠西區","LI":"東勢里","LIN":"9鄰","STREET":"水庫路","SECT":" ","MAREA":" ","LANE":" ","ALLEY":" ","HOUSE_NO":"２１６號","E_COORD97":197717.67000000001,"N_COORD97":2564222.25,"ADDRESS":"水庫路２１６號","OBJECTID":560958},"geometry":{"x":197717.67000000086,"y":2564222.2499999981}},{"attributes":{"ID":560986,"DIS_CODE":0,"TOWNNAME":"楠西區","LI":"東勢里","LIN":"9鄰","STREET":"水庫路","SECT":" ","MAREA":" ","LANE":" ","ALLEY":" ","HOUSE_NO":"１９２號","E_COORD97":197710.47,"N_COORD97":2564272.25,"ADDRESS":"水庫路１９２號","OBJECTID":560959},"geometry":{"x":197710.46999999974,"y":2564272.25}},{"attributes":{"ID":560987,"DIS_CODE":0,"TOWNNAME":"楠西區","LI":"東勢里","LIN":"9鄰","STREET":"水庫路","SECT":" ","MAREA":" ","LANE":" ","ALLEY":" ","HOUSE_NO":"２０４號","E_COORD97":197713.67000000001,"N_COORD97":2564248.25,"ADDRESS":"水庫路２０４號","OBJECTID":560960},"geometry":{"x":197713.67000000086,"y":2564248.25}},{"attributes":{"ID":560988,"DIS_CODE":0,"TOWNNAME":"楠西區","LI":"東勢里","LIN":"9鄰","STREET":"水庫路","SECT":" ","MAREA":" ","LANE":" ","ALLEY":" ","HOUSE_NO":"２４６號","E_COORD97":197721.07000000001,"N_COORD97":2564152.25,"ADDRESS":"水庫路２４６號","OBJECTID":560961},"geometry":{"x":197721.0700000003,"y":2564152.2500000019}},{"attributes":{"ID":560989,"DIS_CODE":0,"TOWNNAME":"楠西區","LI":"東勢里","LIN":"9鄰","STREET":"水庫路","SECT":" ","MAREA":" ","LANE":" ","ALLEY":" ","HOUSE_NO":"２１４號","E_COORD97":197717.47,"N_COORD97":2564228.25,"ADDRESS":"水庫路２１４號","OBJECTID":560962},"geometry":{"x":197717.46999999974,"y":2564228.25}},{"attributes":{"ID":560990,"DIS_CODE":0,"TOWNNAME":"楠西區","LI":"東勢里","LIN":"9鄰","STREET":"水庫路","SECT":" ","MAREA":" ","LANE":" ","ALLEY":" ","HOUSE_NO":"２５４號","E_COORD97":197722.97,"N_COORD97":2564130.25,"ADDRESS":"水庫路２５４號","OBJECTID":560963},"geometry":{"x":197722.96999999881,"y":2564130.25}},{"attributes":{"ID":560991,"DIS_CODE":0,"TOWNNAME":"柳營區","LI":"東昇里","LIN":"9鄰","STREET":"十美街","SECT":" ","MAREA":" ","LANE":" ","ALLEY":" ","HOUSE_NO":"２６９號","E_COORD97":180141.04999999999,"N_COORD97":2575527.9100000001,"ADDRESS":"十美街２６９號","OBJECTID":560964},"geometry":{"x":180141.04999999981,"y":2575527.9100000001}},{"attributes":{"ID":560992,"DIS_CODE":0,"TOWNNAME":"柳營區","LI":"東昇里","LIN":"9鄰","STREET":"十美街","SECT":" ","MAREA":" ","LANE":" ","ALLEY":" ","HOUSE_NO":"２７１號","E_COORD97":180129.88,"N_COORD97":2575521.4300000002,"ADDRESS":"十美街２７１號","OBJECTID":560965},"geometry":{"x":180129.88000000082,"y":2575521.4300000016}},{"attributes":{"ID":560993,"DIS_CODE":0,"TOWNNAME":"柳營區","LI":"東昇里","LIN":"9鄰","STREET":"十美街","SECT":" ","MAREA":" ","LANE":" ","ALLEY":" ","HOUSE_NO":"２７３號","E_COORD97":180121.97,"N_COORD97":2575521.4199999999,"ADDRESS":"十美街２７３號","OBJECTID":560966},"geometry":{"x":180121.9700000016,"y":2575521.4200000037}},{"attributes":{"ID":560994,"DIS_CODE":0,"TOWNNAME":"柳營區","LI":"東昇里","LIN":"9鄰","STREET":"十美街","SECT":" ","MAREA":" ","LANE":" ","ALLEY":" ","HOUSE_NO":"２８７號","E_COORD97":180083.75,"N_COORD97":2575504.4100000001,"ADDRESS":"十美街２８７號","OBJECTID":560967},"geometry":{"x":180083.75000000093,"y":2575504.4099999983}},{"attributes":{"ID":560995,"DIS_CODE":0,"TOWNNAME":"新營區","LI":"永生里","LIN":"9鄰","STREET":"新進路","SECT":" ","MAREA":" ","LANE":" ","ALLEY":" ","HOUSE_NO":"２７２號","E_COORD97":180094.03,"N_COORD97":2577877.8999999999,"ADDRESS":"新進路２７２號","OBJECTID":560968},"geometry":{"x":180094.03000000119,"y":2577877.9000000004}},{"attributes":{"ID":560996,"DIS_CODE":0,"TOWNNAME":"新營區","LI":"三仙里","LIN":"9鄰","STREET":"博愛街","SECT":" ","MAREA":" ","LANE":" ","ALLEY":" ","HOUSE_NO":"９６號","E_COORD97":179641.75,"N_COORD97":2578129.2200000002,"ADDRESS":"博愛街９６號","OBJECTID":560969},"geometry":{"x":179641.75,"y":2578129.2200000007}},{"attributes":{"ID":560997,"DIS_CODE":0,"TOWNNAME":"新營區","LI":"民榮里","LIN":"9鄰","STREET":"和平路","SECT":" ","MAREA":" ","LANE":" ","ALLEY":" ","HOUSE_NO":"３８號","E_COORD97":179404.95000000001,"N_COORD97":2577782.6000000001,"ADDRESS":"和平路３８號","OBJECTID":560970},"geometry":{"x":179404.95000000019,"y":2577782.6000000015}},{"attributes":{"ID":560998,"DIS_CODE":0,"TOWNNAME":"新營區","LI":"王公里","LIN":"9鄰","STREET":"民族路","SECT":" ","MAREA":" ","LANE":" ","ALLEY":" ","HOUSE_NO":"８４號","E_COORD97":180305.88,"N_COORD97":2579036.4100000001,"ADDRESS":"民族路８４號","OBJECTID":560971},"geometry":{"x":180305.88000000175,"y":2579036.4100000001}},{"attributes":{"ID":560999,"DIS_CODE":0,"TOWNNAME":"新營區","LI":"興業里","LIN":"9鄰","STREET":"中興路","SECT":" ","MAREA":" ","LANE":" ","ALLEY":" ","HOUSE_NO":"１１之３號","E_COORD97":180142.42000000001,"N_COORD97":2577997.5600000001,"ADDRESS":"中興路１１之３號","OBJECTID":560972},"geometry":{"x":180142.41999999993,"y":2577997.5600000024}},{"attributes":{"ID":561000,"DIS_CODE":0,"TOWNNAME":"新營區","LI":"民權里","LIN":"9鄰","STREET":"博愛街","SECT":" ","MAREA":" ","LANE":" ","ALLEY":" ","HOUSE_NO":"２８號","E_COORD97":179905.85999999999,"N_COORD97":2578152.3300000001,"ADDRESS":"博愛街２８號","OBJECTID":560973},"geometry":{"x":179905.86000000034,"y":2578152.3300000001}},{"attributes":{"ID":561001,"DIS_CODE":0,"TOWNNAME":"新營區","LI":"民生里","LIN":"9鄰","STREET":"復興路","SECT":" ","MAREA":" ","LANE":" ","ALLEY":" ","HOUSE_NO":"１４４之４號","E_COORD97":179289.14999999999,"N_COORD97":2578042.3700000001,"ADDRESS":"復興路１４４之４號","OBJECTID":560974},"geometry":{"x":179289.15000000224,"y":2578042.3700000029}},{"attributes":{"ID":561002,"DIS_CODE":0,"TOWNNAME":"新營區","LI":"中營里","LIN":"9鄰","STREET":"同濟街","SECT":" ","MAREA":" ","LANE":" ","ALLEY":" ","HOUSE_NO":"３０號","E_COORD97":180530.47,"N_COORD97":2578286.71,"ADDRESS":"同濟街３０號","OBJECTID":560975},"geometry":{"x":180530.4700000016,"y":2578286.709999999}},{"attributes":{"ID":561003,"DIS_CODE":0,"TOWNNAME":"新營區","LI":"民權里","LIN":"9鄰","STREET":"仁愛街","SECT":" ","MAREA":" ","LANE":" ","ALLEY":" ","HOUSE_NO":"６號之２","E_COORD97":179849.67999999999,"N_COORD97":2578183.6600000001,"ADDRESS":"仁愛街６號之２","OBJECTID":560976},"geometry":{"x":179849.68000000063,"y":2578183.6600000001}},{"attributes":{"ID":561004,"DIS_CODE":0,"TOWNNAME":"新營區","LI":"嘉芳里","LIN":"9鄰","STREET":"復興路","SECT":" ","MAREA":" ","LANE":" ","ALLEY":" ","HOUSE_NO":"８８８號","E_COORD97":176671.66,"N_COORD97":2578759.3799999999,"ADDRESS":"復興路８８８號","OBJECTID":560977},"geometry":{"x":176671.66000000108,"y":2578759.3800000008}},{"attributes":{"ID":561005,"DIS_CODE":0,"TOWNNAME":"新營區","LI":"延平里","LIN":"9鄰","STREET":"忠義街","SECT":" ","MAREA":" ","LANE":" ","ALLEY":" ","HOUSE_NO":"５號","E_COORD97":179640.71694300001,"N_COORD97":2577987.84981,"ADDRESS":"忠義街５號","OBJECTID":560978},"geometry":{"x":179640.71694300137,"y":2577987.8498100024}},{"attributes":{"ID":561006,"DIS_CODE":0,"TOWNNAME":"新營區","LI":"三仙里","LIN":"9鄰","STREET":"博愛街","SECT":" ","MAREA":" ","LANE":" ","ALLEY":" ","HOUSE_NO":"９６號之２","E_COORD97":179638.89999999999,"N_COORD97":2578129.29,"ADDRESS":"博愛街９６號之２","OBJECTID":560979},"geometry":{"x":179638.9000000013,"y":2578129.290000001}},{"attributes":{"ID":561007,"DIS_CODE":0,"TOWNNAME":"新營區","LI":"永生里","LIN":"9鄰","STREET":"康樂街","SECT":" ","MAREA":" ","LANE":" ","ALLEY":" ","HOUSE_NO":"１之８號","E_COORD97":180070.62,"N_COORD97":2577919.04,"ADDRESS":"康樂街１之８號","OBJECTID":560980},"geometry":{"x":180070.62000000104,"y":2577919.0399999991}},{"attributes":{"ID":561008,"DIS_CODE":0,"TOWNNAME":"安平區","LI":"金城里","LIN":"9鄰","STREET":"同平路","SECT":" ","MAREA":" ","LANE":" ","ALLEY":" ","HOUSE_NO":"１４２號","E_COORD97":163142.66,"N_COORD97":2544062.25,"ADDRESS":"同平路１４２號","OBJECTID":560981},"geometry":{"x":163142.66000000108,"y":2544062.25}},{"attributes":{"ID":561009,"DIS_CODE":0,"TOWNNAME":"安平區","LI":"金城里","LIN":"9鄰","STREET":"同平路","SECT":" ","MAREA":" ","LANE":" ","ALLEY":" ","HOUSE_NO":"１４２號之１","E_COORD97":163142.82000000001,"N_COORD97":2544055.29,"ADDRESS":"同平路１４２號之１","OBJECTID":560982},"geometry":{"x":163142.82000000216,"y":2544055.2900000028}},{"attributes":{"ID":561010,"DIS_CODE":0,"TOWNNAME":"安平區","LI":"金城里","LIN":"9鄰","STREET":"同平路","SECT":" ","MAREA":" ","LANE":" ","ALLEY":" ","HOUSE_NO":"１４６號","E_COORD97":163143.07000000001,"N_COORD97":2544052.8199999998,"ADDRESS":"同平路１４６號","OBJECTID":560983},"geometry":{"x":163143.07000000123,"y":2544052.820000004}},{"attributes":{"ID":561011,"DIS_CODE":0,"TOWNNAME":"南區","LI":"永寧里","LIN":"9鄰","STREET":"灣裡路","SECT":" ","MAREA":" ","LANE":" ","ALLEY":" ","HOUSE_NO":"２６８號","E_COORD97":166089.38,"N_COORD97":2536431.5299999998,"ADDRESS":"灣裡路２６８號","OBJECTID":560984},"geometry":{"x":166089.37999999989,"y":2536431.5299999993}},{"attributes":{"ID":561012,"DIS_CODE":0,"TOWNNAME":"南區","LI":"永寧里","LIN":"9鄰","STREET":"灣裡路","SECT":" ","MAREA":" ","LANE":" ","ALLEY":" ","HOUSE_NO":"２７０號","E_COORD97":166090.45999999999,"N_COORD97":2536427.4300000002,"ADDRESS":"灣裡路２７０號","OBJECTID":560985},"geometry":{"x":166090.45999999996,"y":2536427.4300000016}},{"attributes":{"ID":561013,"DIS_CODE":0,"TOWNNAME":"南區","LI":"永寧里","LIN":"9鄰","STREET":"灣裡路","SECT":" ","MAREA":" ","LANE":" ","ALLEY":" ","HOUSE_NO":"２７８號","E_COORD97":166103.42000000001,"N_COORD97":2536418.7999999998,"ADDRESS":"灣裡路２７８號","OBJECTID":560986},"geometry":{"x":166103.42000000086,"y":2536418.8000000026}},{"attributes":{"ID":561014,"DIS_CODE":0,"TOWNNAME":"南區","LI":"永寧里","LIN":"9鄰","STREET":"灣裡路","SECT":" ","MAREA":" ","LANE":" ","ALLEY":" ","HOUSE_NO":"２８０號","E_COORD97":166104.5,"N_COORD97":2536411.46,"ADDRESS":"灣裡路２８０號","OBJECTID":560987},"geometry":{"x":166104.50000000186,"y":2536411.4600000028}},{"attributes":{"ID":561015,"DIS_CODE":0,"TOWNNAME":"南區","LI":"鯤鯓里","LIN":"9鄰","STREET":"鯤鯓路","SECT":" ","MAREA":" ","LANE":" ","ALLEY":" ","HOUSE_NO":"１２０號","E_COORD97":164995.10999999999,"N_COORD97":2540020.48,"ADDRESS":"鯤鯓路１２０號","OBJECTID":560988},"geometry":{"x":164995.11000000034,"y":2540020.4800000004}},{"attributes":{"ID":561016,"DIS_CODE":0,"TOWNNAME":"南區","LI":"鯤鯓里","LIN":"9鄰","STREET":"鯤鯓路","SECT":" ","MAREA":" ","LANE":" ","ALLEY":" ","HOUSE_NO":"１２２號","E_COORD97":164987.85999999999,"N_COORD97":2540021.9300000002,"ADDRESS":"鯤鯓路１２２號","OBJECTID":560989},"geometry":{"x":164987.86000000034,"y":2540021.9300000016}},{"attributes":{"ID":561017,"DIS_CODE":0,"TOWNNAME":"南區","LI":"喜南里","LIN":"9鄰","STREET":"喜樹路","SECT":" ","MAREA":" ","LANE":" ","ALLEY":" ","HOUSE_NO":"２７６號","E_COORD97":165694.57000000001,"N_COORD97":2537874.4100000001,"ADDRESS":"喜樹路２７６號","OBJECTID":560990},"geometry":{"x":165694.57000000123,"y":2537874.4100000001}},{"attributes":{"ID":561018,"DIS_CODE":0,"TOWNNAME":"南區","LI":"喜南里","LIN":"9鄰","STREET":"喜樹路","SECT":" ","MAREA":" ","LANE":" ","ALLEY":" ","HOUSE_NO":"２７８號","E_COORD97":165695.19,"N_COORD97":2537870.25,"ADDRESS":"喜樹路２７８號","OBJECTID":560991},"geometry":{"x":165695.19000000227,"y":2537870.2500000019}},{"attributes":{"ID":561019,"DIS_CODE":0,"TOWNNAME":"南區","LI":"喜南里","LIN":"9鄰","STREET":"喜樹路","SECT":" ","MAREA":" ","LANE":" ","ALLEY":" ","HOUSE_NO":"２８０號","E_COORD97":165697.69,"N_COORD97":2537863.3900000001,"ADDRESS":"喜樹路２８０號","OBJECTID":560992},"geometry":{"x":165697.69000000041,"y":2537863.3900000025}},{"attributes":{"ID":561020,"DIS_CODE":0,"TOWNNAME":"南區","LI":"喜南里","LIN":"9鄰","STREET":"喜樹路","SECT":" ","MAREA":" ","LANE":" ","ALLEY":" ","HOUSE_NO":"２８０號之１","E_COORD97":165698.31,"N_COORD97":2537856.7400000002,"ADDRESS":"喜樹路２８０號之１","OBJECTID":560993},"geometry":{"x":165698.30999999959,"y":2537856.7400000021}},{"attributes":{"ID":561021,"DIS_CODE":0,"TOWNNAME":"南區","LI":"喜南里","LIN":"9鄰","STREET":"喜樹路","SECT":" ","MAREA":" ","LANE":" ","ALLEY":" ","HOUSE_NO":"２８４號","E_COORD97":165686.07000000001,"N_COORD97":2537853.7400000002,"ADDRESS":"喜樹路２８４號","OBJECTID":560994},"geometry":{"x":165686.07000000123,"y":2537853.7400000021}},{"attributes":{"ID":561022,"DIS_CODE":0,"TOWNNAME":"南區","LI":"喜南里","LIN":"9鄰","STREET":"喜樹路","SECT":" ","MAREA":" ","LANE":" ","ALLEY":" ","HOUSE_NO":"２８６號","E_COORD97":165700.17999999999,"N_COORD97":2537851.5499999998,"ADDRESS":"喜樹路２８６號","OBJECTID":560995},"geometry":{"x":165700.18000000063,"y":2537851.5500000026}},{"attributes":{"ID":561023,"DIS_CODE":0,"TOWNNAME":"南區","LI":"喜南里","LIN":"9鄰","STREET":"喜樹路","SECT":" ","MAREA":" ","LANE":" ","ALLEY":" ","HOUSE_NO":"２９６號","E_COORD97":165702.47,"N_COORD97":2537828.6800000002,"ADDRESS":"喜樹路２９６號","OBJECTID":560996},"geometry":{"x":165702.46999999974,"y":2537828.6800000034}},{"attributes":{"ID":561024,"DIS_CODE":0,"TOWNNAME":"學甲區","LI":"新達里","LIN":"9鄰","STREET":"新生路","SECT":" ","MAREA":" ","LANE":" ","ALLEY":" ","HOUSE_NO":"１２號","E_COORD97":166578.23000000001,"N_COORD97":2570536.5099999998,"ADDRESS":"新生路１２號","OBJECTID":560997},"geometry":{"x":166578.23000000138,"y":2570536.5099999979}},{"attributes":{"ID":561025,"DIS_CODE":0,"TOWNNAME":"學甲區","LI":"新達里","LIN":"9鄰","STREET":"新生路","SECT":" ","MAREA":" ","LANE":" ","ALLEY":" ","HOUSE_NO":"１４號","E_COORD97":166587.07000000001,"N_COORD97":2570559.6000000001,"ADDRESS":"新生路１４號","OBJECTID":560998},"geometry":{"x":166587.0700000003,"y":2570559.6000000034}},{"attributes":{"ID":561026,"DIS_CODE":0,"TOWNNAME":"學甲區","LI":"新達里","LIN":"9鄰","STREET":"新興路","SECT":" ","MAREA":" ","LANE":" ","ALLEY":" ","HOUSE_NO":"４７號","E_COORD97":166598.66,"N_COORD97":2570546.4399999999,"ADDRESS":"新興路４７號","OBJECTID":560999},"geometry":{"x":166598.66000000201,"y":2570546.4399999995}},{"attributes":{"ID":561027,"DIS_CODE":0,"TOWNNAME":"學甲區","LI":"新達里","LIN":"9鄰","STREET":"新興路","SECT":" ","MAREA":" ","LANE":" ","ALLEY":" ","HOUSE_NO":"５０號","E_COORD97":166633.20000000001,"N_COORD97":2570611.5099999998,"ADDRESS":"新興路５０號","OBJECTID":561000},"geometry":{"x":166633.20000000019,"y":2570611.5100000035}}]}