{"displayFieldName":"TOWNNAME","fieldAliases":{"ID":"ID","DIS_CODE":"DIS_CODE","TOWNNAME":"TOWNNAME","LI":"LI","LIN":"LIN","STREET":"STREET","SECT":"SECT","MAREA":"MAREA","LANE":"LANE","ALLEY":"ALLEY","HOUSE_NO":"HOUSE_NO","E_COORD97":"E_COORD97","N_COORD97":"N_COORD97","ADDRESS":"ADDRESS","OBJECTID":"OBJECTID"},"geometryType":"esriGeometryPoint","spatialReference":{"wkid":102443,"latestWkid":3826},"fields":[{"name":"ID","type":"esriFieldTypeDouble","alias":"ID"},{"name":"DIS_CODE","type":"esriFieldTypeInteger","alias":"DIS_CODE"},{"name":"TOWNNAME","type":"esriFieldTypeString","alias":"TOWNNAME","length":8},{"name":"LI","type":"esriFieldTypeString","alias":"LI","length":8},{"name":"LIN","type":"esriFieldTypeString","alias":"LIN","length":12},{"name":"STREET","type":"esriFieldTypeString","alias":"STREET","length":20},{"name":"SECT","type":"esriFieldTypeString","alias":"SECT","length":8},{"name":"MAREA","type":"esriFieldTypeString","alias":"MAREA","length":12},{"name":"LANE","type":"esriFieldTypeString","alias":"LANE","length":10},{"name":"ALLEY","type":"esriFieldTypeString","alias":"ALLEY","length":10},{"name":"HOUSE_NO","type":"esriFieldTypeString","alias":"HOUSE_NO","length":20},{"name":"E_COORD97","type":"esriFieldTypeDouble","alias":"E_COORD97"},{"name":"N_COORD97","type":"esriFieldTypeDouble","alias":"N_COORD97"},{"name":"ADDRESS","type":"esriFieldTypeString","alias":"ADDRESS","length":50},{"name":"OBJECTID","type":"esriFieldTypeOID","alias":"OBJECTID"}],"features":[{"attributes":{"ID":96601,"DIS_CODE":0,"TOWNNAME":"東區","LI":"東光里","LIN":"15鄰","STREET":"莊敬路","SECT":" ","MAREA":" ","LANE":" ","ALLEY":" ","HOUSE_NO":"６３號","E_COORD97":171329.67000000001,"N_COORD97":2543833.5099999998,"ADDRESS":"莊敬路６３號","OBJECTID":96601},"geometry":{"x":171329.67000000086,"y":2543833.5099999998}},{"attributes":{"ID":96602,"DIS_CODE":0,"TOWNNAME":"東區","LI":"崇明里","LIN":"21鄰","STREET":"中華東路","SECT":"三段","MAREA":" ","LANE":"３９９巷","ALLEY":"２１弄","HOUSE_NO":"９號二樓","E_COORD97":170170.07000000001,"N_COORD97":2541489.9100000001,"ADDRESS":"中華東路三段３９９巷２１弄９號二樓","OBJECTID":96602},"geometry":{"x":170170.07000000123,"y":2541489.910000002}},{"attributes":{"ID":96603,"DIS_CODE":0,"TOWNNAME":"東區","LI":"崇明里","LIN":"21鄰","STREET":"中華東路","SECT":"三段","MAREA":" ","LANE":"３９９巷","ALLEY":"２１弄","HOUSE_NO":"９號八樓","E_COORD97":170170.07000000001,"N_COORD97":2541489.9100000001,"ADDRESS":"中華東路三段３９９巷２１弄９號八樓","OBJECTID":96603},"geometry":{"x":170170.07000000123,"y":2541489.910000002}},{"attributes":{"ID":96604,"DIS_CODE":0,"TOWNNAME":"東區","LI":"崇明里","LIN":"21鄰","STREET":"中華東路","SECT":"三段","MAREA":" ","LANE":"３９９巷","ALLEY":"２１弄","HOUSE_NO":"９號三樓","E_COORD97":170170.07000000001,"N_COORD97":2541489.9100000001,"ADDRESS":"中華東路三段３９９巷２１弄９號三樓","OBJECTID":96604},"geometry":{"x":170170.07000000123,"y":2541489.910000002}},{"attributes":{"ID":96605,"DIS_CODE":0,"TOWNNAME":"東區","LI":"崇明里","LIN":"21鄰","STREET":"中華東路","SECT":"三段","MAREA":" ","LANE":"３９９巷","ALLEY":"２１弄","HOUSE_NO":"９號五樓","E_COORD97":170170.07000000001,"N_COORD97":2541489.9100000001,"ADDRESS":"中華東路三段３９９巷２１弄９號五樓","OBJECTID":96605},"geometry":{"x":170170.07000000123,"y":2541489.910000002}},{"attributes":{"ID":96606,"DIS_CODE":0,"TOWNNAME":"東區","LI":"崇明里","LIN":"21鄰","STREET":"中華東路","SECT":"三段","MAREA":" ","LANE":"３９９巷","ALLEY":"２１弄","HOUSE_NO":"９號六樓","E_COORD97":170170.07000000001,"N_COORD97":2541489.9100000001,"ADDRESS":"中華東路三段３９９巷２１弄９號六樓","OBJECTID":96606},"geometry":{"x":170170.07000000123,"y":2541489.910000002}},{"attributes":{"ID":96607,"DIS_CODE":0,"TOWNNAME":"後壁區","LI":"菁豊里","LIN":"10鄰","STREET":" ","SECT":" ","MAREA":"前菁寮","LANE":" ","ALLEY":" ","HOUSE_NO":"１０８號之９０","E_COORD97":183381.51999999999,"N_COORD97":2585460.6299999999,"ADDRESS":"前菁寮１０８號之９０","OBJECTID":96607},"geometry":{"x":183381.52000000048,"y":2585460.6300000008}},{"attributes":{"ID":96608,"DIS_CODE":0,"TOWNNAME":"後壁區","LI":"菁豊里","LIN":"10鄰","STREET":" ","SECT":" ","MAREA":"前菁寮","LANE":" ","ALLEY":" ","HOUSE_NO":"１０８號之９","E_COORD97":183187.20999999999,"N_COORD97":2585477.8300000001,"ADDRESS":"前菁寮１０８號之９","OBJECTID":96608},"geometry":{"x":183187.21000000183,"y":2585477.8300000019}},{"attributes":{"ID":96609,"DIS_CODE":0,"TOWNNAME":"後壁區","LI":"菁豊里","LIN":"10鄰","STREET":" ","SECT":" ","MAREA":"前菁寮","LANE":" ","ALLEY":" ","HOUSE_NO":"１０８號","E_COORD97":183211.26000000001,"N_COORD97":2585423.27,"ADDRESS":"前菁寮１０８號","OBJECTID":96609},"geometry":{"x":183211.25999999978,"y":2585423.2700000014}},{"attributes":{"ID":96610,"DIS_CODE":0,"TOWNNAME":"後壁區","LI":"菁豊里","LIN":"10鄰","STREET":" ","SECT":" ","MAREA":"前菁寮","LANE":" ","ALLEY":" ","HOUSE_NO":"１０９號","E_COORD97":183197.01000000001,"N_COORD97":2586047.6299999999,"ADDRESS":"前菁寮１０９號","OBJECTID":96610},"geometry":{"x":183197.01000000071,"y":2586047.6300000008}},{"attributes":{"ID":96611,"DIS_CODE":0,"TOWNNAME":"後壁區","LI":"菁豊里","LIN":"10鄰","STREET":" ","SECT":" ","MAREA":"前菁寮","LANE":" ","ALLEY":" ","HOUSE_NO":"１１０號之２","E_COORD97":183153.07999999999,"N_COORD97":2586079.5499999998,"ADDRESS":"前菁寮１１０號之２","OBJECTID":96611},"geometry":{"x":183153.08000000101,"y":2586079.5500000026}},{"attributes":{"ID":96612,"DIS_CODE":0,"TOWNNAME":"後壁區","LI":"菁豊里","LIN":"10鄰","STREET":" ","SECT":" ","MAREA":"前菁寮","LANE":" ","ALLEY":" ","HOUSE_NO":"１１０號之３","E_COORD97":183145.89999999999,"N_COORD97":2586081.0499999998,"ADDRESS":"前菁寮１１０號之３","OBJECTID":96612},"geometry":{"x":183145.9000000013,"y":2586081.0500000007}},{"attributes":{"ID":96613,"DIS_CODE":0,"TOWNNAME":"東區","LI":"崇明里","LIN":"21鄰","STREET":"中華東路","SECT":"三段","MAREA":" ","LANE":"３９９巷","ALLEY":"２１弄","HOUSE_NO":"９號四樓","E_COORD97":170170.07000000001,"N_COORD97":2541489.9100000001,"ADDRESS":"中華東路三段３９９巷２１弄９號四樓","OBJECTID":96613},"geometry":{"x":170170.07000000123,"y":2541489.910000002}},{"attributes":{"ID":96614,"DIS_CODE":0,"TOWNNAME":"永康區","LI":"烏竹里","LIN":"21鄰","STREET":"自強路","SECT":" ","MAREA":" ","LANE":"７７３巷","ALLEY":"２弄","HOUSE_NO":"３號六樓之１","E_COORD97":174491.92000000001,"N_COORD97":2548636.77,"ADDRESS":"自強路７７３巷２弄３號六樓之１","OBJECTID":96614},"geometry":{"x":174491.91999999993,"y":2548636.7700000014}},{"attributes":{"ID":96615,"DIS_CODE":0,"TOWNNAME":"永康區","LI":"烏竹里","LIN":"21鄰","STREET":"自強路","SECT":" ","MAREA":" ","LANE":"７７３巷","ALLEY":"２弄","HOUSE_NO":"３號三樓之１","E_COORD97":174491.92000000001,"N_COORD97":2548636.77,"ADDRESS":"自強路７７３巷２弄３號三樓之１","OBJECTID":96615},"geometry":{"x":174491.91999999993,"y":2548636.7700000014}},{"attributes":{"ID":96616,"DIS_CODE":0,"TOWNNAME":"永康區","LI":"神洲里","LIN":"21鄰","STREET":"忠孝路","SECT":" ","MAREA":" ","LANE":"７６巷","ALLEY":"４７弄","HOUSE_NO":"８號三樓","E_COORD97":172160.67000000001,"N_COORD97":2544955.7599999998,"ADDRESS":"忠孝路７６巷４７弄８號三樓","OBJECTID":96616},"geometry":{"x":172160.67000000086,"y":2544955.7600000016}},{"attributes":{"ID":96617,"DIS_CODE":0,"TOWNNAME":"永康區","LI":"烏竹里","LIN":"21鄰","STREET":"自強路","SECT":" ","MAREA":" ","LANE":"７７３巷","ALLEY":"２弄","HOUSE_NO":"５號三樓之４","E_COORD97":174501.37,"N_COORD97":2548640.27,"ADDRESS":"自強路７７３巷２弄５號三樓之４","OBJECTID":96617},"geometry":{"x":174501.37000000011,"y":2548640.2700000014}},{"attributes":{"ID":96618,"DIS_CODE":0,"TOWNNAME":"永康區","LI":"烏竹里","LIN":"21鄰","STREET":"自強路","SECT":" ","MAREA":" ","LANE":"７７３巷","ALLEY":"２弄","HOUSE_NO":"１８號二樓","E_COORD97":174540.82000000001,"N_COORD97":2548640.71,"ADDRESS":"自強路７７３巷２弄１８號二樓","OBJECTID":96618},"geometry":{"x":174540.8200000003,"y":2548640.7100000009}},{"attributes":{"ID":96619,"DIS_CODE":0,"TOWNNAME":"永康區","LI":"\u25A0行里","LIN":"21鄰","STREET":"正南五街","SECT":" ","MAREA":" ","LANE":"５２０巷","ALLEY":"５６弄","HOUSE_NO":"２９號五樓","E_COORD97":171738.64999999999,"N_COORD97":2548722.9500000002,"ADDRESS":"正南五街５２０巷５６弄２９號五樓","OBJECTID":96619},"geometry":{"x":171738.65000000224,"y":2548722.950000003}},{"attributes":{"ID":96620,"DIS_CODE":0,"TOWNNAME":"永康區","LI":"神洲里","LIN":"21鄰","STREET":"忠孝路","SECT":" ","MAREA":" ","LANE":"７６巷","ALLEY":"４９弄","HOUSE_NO":"１７號五樓","E_COORD97":172201.70000000001,"N_COORD97":2544966.0099999998,"ADDRESS":"忠孝路７６巷４９弄１７號五樓","OBJECTID":96620},"geometry":{"x":172201.70000000112,"y":2544966.0099999998}},{"attributes":{"ID":96621,"DIS_CODE":0,"TOWNNAME":"東區","LI":"小東里","LIN":"15鄰","STREET":"光明街","SECT":" ","MAREA":" ","LANE":" ","ALLEY":" ","HOUSE_NO":"７８號","E_COORD97":170897.19,"N_COORD97":2544174.3700000001,"ADDRESS":"光明街７８號","OBJECTID":96621},"geometry":{"x":170897.19000000041,"y":2544174.370000001}},{"attributes":{"ID":96622,"DIS_CODE":0,"TOWNNAME":"東區","LI":"小東里","LIN":"15鄰","STREET":"光明街","SECT":" ","MAREA":" ","LANE":" ","ALLEY":" ","HOUSE_NO":"７８號之１","E_COORD97":170898.13,"N_COORD97":2544169.98,"ADDRESS":"光明街７８號之１","OBJECTID":96622},"geometry":{"x":170898.13000000082,"y":2544169.9800000004}},{"attributes":{"ID":96623,"DIS_CODE":0,"TOWNNAME":"東區","LI":"中西里","LIN":"15鄰","STREET":"長榮路","SECT":"二段","MAREA":" ","LANE":" ","ALLEY":" ","HOUSE_NO":"５７號","E_COORD97":170051.60000000001,"N_COORD97":2543381.6200000001,"ADDRESS":"長榮路二段５７號","OBJECTID":96623},"geometry":{"x":170051.60000000149,"y":2543381.6200000029}},{"attributes":{"ID":96624,"DIS_CODE":0,"TOWNNAME":"東區","LI":"中西里","LIN":"15鄰","STREET":"長榮路","SECT":"二段","MAREA":" ","LANE":" ","ALLEY":" ","HOUSE_NO":"５９號","E_COORD97":170055.17999999999,"N_COORD97":2543386.5800000001,"ADDRESS":"長榮路二段５９號","OBJECTID":96624},"geometry":{"x":170055.18000000063,"y":2543386.5800000038}},{"attributes":{"ID":96625,"DIS_CODE":0,"TOWNNAME":"東區","LI":"中西里","LIN":"15鄰","STREET":"長榮路","SECT":"二段","MAREA":" ","LANE":" ","ALLEY":" ","HOUSE_NO":"６７號之１","E_COORD97":170066.82000000001,"N_COORD97":2543400.23,"ADDRESS":"長榮路二段６７號之１","OBJECTID":96625},"geometry":{"x":170066.82000000123,"y":2543400.2300000023}},{"attributes":{"ID":96626,"DIS_CODE":0,"TOWNNAME":"後壁區","LI":"菁豊里","LIN":"10鄰","STREET":" ","SECT":" ","MAREA":"前菁寮","LANE":" ","ALLEY":" ","HOUSE_NO":"１１０號之５","E_COORD97":183137.79999999999,"N_COORD97":2586089.8599999999,"ADDRESS":"前菁寮１１０號之５","OBJECTID":96626},"geometry":{"x":183137.80000000075,"y":2586089.8600000013}},{"attributes":{"ID":96627,"DIS_CODE":0,"TOWNNAME":"後壁區","LI":"菁豊里","LIN":"10鄰","STREET":" ","SECT":" ","MAREA":"前菁寮","LANE":" ","ALLEY":" ","HOUSE_NO":"１１１號之１","E_COORD97":183131.34,"N_COORD97":2586065.8399999999,"ADDRESS":"前菁寮１１１號之１","OBJECTID":96627},"geometry":{"x":183131.33999999985,"y":2586065.8400000036}},{"attributes":{"ID":96628,"DIS_CODE":0,"TOWNNAME":"後壁區","LI":"菁豊里","LIN":"10鄰","STREET":" ","SECT":" ","MAREA":"前菁寮","LANE":" ","ALLEY":" ","HOUSE_NO":"１１２號之３","E_COORD97":183158.23000000001,"N_COORD97":2586043.9900000002,"ADDRESS":"前菁寮１１２號之３","OBJECTID":96628},"geometry":{"x":183158.23000000045,"y":2586043.9900000002}},{"attributes":{"ID":96629,"DIS_CODE":0,"TOWNNAME":"後壁區","LI":"菁豊里","LIN":"10鄰","STREET":" ","SECT":" ","MAREA":"前菁寮","LANE":" ","ALLEY":" ","HOUSE_NO":"１１２號","E_COORD97":183148.79999999999,"N_COORD97":2586036.5499999998,"ADDRESS":"前菁寮１１２號","OBJECTID":96629},"geometry":{"x":183148.79999999981,"y":2586036.5500000026}},{"attributes":{"ID":96630,"DIS_CODE":0,"TOWNNAME":"後壁區","LI":"菁豊里","LIN":"10鄰","STREET":" ","SECT":" ","MAREA":"前菁寮","LANE":" ","ALLEY":" ","HOUSE_NO":"１１３號之１","E_COORD97":183039.97,"N_COORD97":2586043.5299999998,"ADDRESS":"前菁寮１１３號之１","OBJECTID":96630},"geometry":{"x":183039.97000000067,"y":2586043.5299999975}},{"attributes":{"ID":96631,"DIS_CODE":0,"TOWNNAME":"後壁區","LI":"菁豊里","LIN":"10鄰","STREET":" ","SECT":" ","MAREA":"前菁寮","LANE":" ","ALLEY":" ","HOUSE_NO":"１１４號之２０","E_COORD97":183119.17999999999,"N_COORD97":2585803.1600000001,"ADDRESS":"前菁寮１１４號之２０","OBJECTID":96631},"geometry":{"x":183119.17999999877,"y":2585803.1600000039}},{"attributes":{"ID":96632,"DIS_CODE":0,"TOWNNAME":"永康區","LI":"西橋里","LIN":"21鄰","STREET":"大橋三街","SECT":" ","MAREA":" ","LANE":"５７巷","ALLEY":"７弄","HOUSE_NO":"６２號五樓","E_COORD97":170476.62,"N_COORD97":2546446.2200000002,"ADDRESS":"大橋三街５７巷７弄６２號五樓","OBJECTID":96632},"geometry":{"x":170476.62000000011,"y":2546446.2200000007}},{"attributes":{"ID":96633,"DIS_CODE":0,"TOWNNAME":"後壁區","LI":"崁頂里","LIN":"10鄰","STREET":" ","SECT":" ","MAREA":"崩埤","LANE":" ","ALLEY":" ","HOUSE_NO":"２５號","E_COORD97":184812.39000000001,"N_COORD97":2587784.4300000002,"ADDRESS":"崩埤２５號","OBJECTID":96633},"geometry":{"x":184812.38999999966,"y":2587784.4300000016}},{"attributes":{"ID":96634,"DIS_CODE":0,"TOWNNAME":"後壁區","LI":"菁豊里","LIN":"10鄰","STREET":" ","SECT":" ","MAREA":"前菁寮","LANE":" ","ALLEY":" ","HOUSE_NO":"１１５號之１０","E_COORD97":182891.5,"N_COORD97":2585856.2000000002,"ADDRESS":"前菁寮１１５號之１０","OBJECTID":96634},"geometry":{"x":182891.5,"y":2585856.200000003}},{"attributes":{"ID":96635,"DIS_CODE":0,"TOWNNAME":"後壁區","LI":"菁豊里","LIN":"10鄰","STREET":" ","SECT":" ","MAREA":"前菁寮","LANE":" ","ALLEY":" ","HOUSE_NO":"１１５號之１","E_COORD97":182956.57999999999,"N_COORD97":2585731.1200000001,"ADDRESS":"前菁寮１１５號之１","OBJECTID":96635},"geometry":{"x":182956.58000000101,"y":2585731.1200000029}},{"attributes":{"ID":96636,"DIS_CODE":0,"TOWNNAME":"新營區","LI":"南紙里","LIN":"21鄰","STREET":"建業路","SECT":" ","MAREA":" ","LANE":"２２７巷","ALLEY":"１６弄","HOUSE_NO":"２２號二樓之５","E_COORD97":178059.82000000001,"N_COORD97":2577431.4399999999,"ADDRESS":"建業路２２７巷１６弄２２號二樓之５","OBJECTID":96636},"geometry":{"x":178059.8200000003,"y":2577431.4399999995}},{"attributes":{"ID":96637,"DIS_CODE":0,"TOWNNAME":"後壁區","LI":"菁豊里","LIN":"10鄰","STREET":" ","SECT":" ","MAREA":"前菁寮","LANE":" ","ALLEY":" ","HOUSE_NO":"１１５號之３","E_COORD97":183045.35000000001,"N_COORD97":2586016.8100000001,"ADDRESS":"前菁寮１１５號之３","OBJECTID":96637},"geometry":{"x":183045.35000000056,"y":2586016.8100000024}},{"attributes":{"ID":96638,"DIS_CODE":0,"TOWNNAME":"後壁區","LI":"菁豊里","LIN":"10鄰","STREET":" ","SECT":" ","MAREA":"前菁寮","LANE":" ","ALLEY":" ","HOUSE_NO":"１１５號","E_COORD97":183067.94,"N_COORD97":2586013.2599999998,"ADDRESS":"前菁寮１１５號","OBJECTID":96638},"geometry":{"x":183067.94000000134,"y":2586013.2600000016}},{"attributes":{"ID":96639,"DIS_CODE":0,"TOWNNAME":"後壁區","LI":"菁豊里","LIN":"10鄰","STREET":" ","SECT":" ","MAREA":"前菁寮","LANE":" ","ALLEY":" ","HOUSE_NO":"１１６號","E_COORD97":183111.78,"N_COORD97":2586099.02,"ADDRESS":"前菁寮１１６號","OBJECTID":96639},"geometry":{"x":183111.78000000026,"y":2586099.0200000014}},{"attributes":{"ID":96640,"DIS_CODE":0,"TOWNNAME":"後壁區","LI":"菁豊里","LIN":"10鄰","STREET":" ","SECT":" ","MAREA":"前菁寮","LANE":" ","ALLEY":" ","HOUSE_NO":"１１８號","E_COORD97":183108.06,"N_COORD97":2586115.4399999999,"ADDRESS":"前菁寮１１８號","OBJECTID":96640},"geometry":{"x":183108.06000000145,"y":2586115.4399999976}},{"attributes":{"ID":96641,"DIS_CODE":0,"TOWNNAME":"後壁區","LI":"菁豊里","LIN":"10鄰","STREET":" ","SECT":" ","MAREA":"前菁寮","LANE":" ","ALLEY":" ","HOUSE_NO":"１２０號","E_COORD97":183019.79999999999,"N_COORD97":2586035.4900000002,"ADDRESS":"前菁寮１２０號","OBJECTID":96641},"geometry":{"x":183019.79999999981,"y":2586035.4900000021}},{"attributes":{"ID":96642,"DIS_CODE":0,"TOWNNAME":"新營區","LI":"南紙里","LIN":"21鄰","STREET":"建業路","SECT":" ","MAREA":" ","LANE":"２２７巷","ALLEY":"１６弄","HOUSE_NO":"２２號七樓之２２","E_COORD97":178061.04999999999,"N_COORD97":2577431.4399999999,"ADDRESS":"建業路２２７巷１６弄２２號七樓之２２","OBJECTID":96642},"geometry":{"x":178061.04999999981,"y":2577431.4399999995}},{"attributes":{"ID":96643,"DIS_CODE":0,"TOWNNAME":"後壁區","LI":"菁豊里","LIN":"10鄰","STREET":" ","SECT":" ","MAREA":"前菁寮","LANE":" ","ALLEY":" ","HOUSE_NO":"１３０號","E_COORD97":183025.47,"N_COORD97":2586172.1600000001,"ADDRESS":"前菁寮１３０號","OBJECTID":96643},"geometry":{"x":183025.46999999974,"y":2586172.1600000001}},{"attributes":{"ID":96644,"DIS_CODE":0,"TOWNNAME":"新營區","LI":"南紙里","LIN":"21鄰","STREET":"建業路","SECT":" ","MAREA":" ","LANE":"２２７巷","ALLEY":"１６弄","HOUSE_NO":"２２號三樓之１３","E_COORD97":178061.01000000001,"N_COORD97":2577431.4399999999,"ADDRESS":"建業路２２７巷１６弄２２號三樓之１３","OBJECTID":96644},"geometry":{"x":178061.01000000071,"y":2577431.4399999995}},{"attributes":{"ID":96645,"DIS_CODE":0,"TOWNNAME":"後壁區","LI":"後壁里","LIN":"10鄰","STREET":" ","SECT":" ","MAREA":"後壁","LANE":" ","ALLEY":" ","HOUSE_NO":"１７３號之１２","E_COORD97":185147.95000000001,"N_COORD97":2584753.1800000002,"ADDRESS":"後壁１７３號之１２","OBJECTID":96645},"geometry":{"x":185147.95000000019,"y":2584753.1799999997}},{"attributes":{"ID":96646,"DIS_CODE":0,"TOWNNAME":"後壁區","LI":"後壁里","LIN":"10鄰","STREET":" ","SECT":" ","MAREA":"後壁","LANE":" ","ALLEY":" ","HOUSE_NO":"１７３號之１５","E_COORD97":185107.51999999999,"N_COORD97":2584656.77,"ADDRESS":"後壁１７３號之１５","OBJECTID":96646},"geometry":{"x":185107.52000000048,"y":2584656.7700000014}},{"attributes":{"ID":96647,"DIS_CODE":0,"TOWNNAME":"後壁區","LI":"後壁里","LIN":"10鄰","STREET":" ","SECT":" ","MAREA":"後壁","LANE":" ","ALLEY":" ","HOUSE_NO":"１７３號之１７","E_COORD97":185135.76000000001,"N_COORD97":2584738.0600000001,"ADDRESS":"後壁１７３號之１７","OBJECTID":96647},"geometry":{"x":185135.75999999978,"y":2584738.0600000005}},{"attributes":{"ID":96648,"DIS_CODE":0,"TOWNNAME":"新營區","LI":"南紙里","LIN":"21鄰","STREET":"建業路","SECT":" ","MAREA":" ","LANE":"２２７巷","ALLEY":"１６弄","HOUSE_NO":"２２號六樓之１５","E_COORD97":178061.07000000001,"N_COORD97":2577431.4399999999,"ADDRESS":"建業路２２７巷１６弄２２號六樓之１５","OBJECTID":96648},"geometry":{"x":178061.07000000123,"y":2577431.4399999995}},{"attributes":{"ID":96649,"DIS_CODE":0,"TOWNNAME":"後壁區","LI":"後壁里","LIN":"10鄰","STREET":" ","SECT":" ","MAREA":"後壁","LANE":" ","ALLEY":" ","HOUSE_NO":"１７３號之１８","E_COORD97":185131.54999999999,"N_COORD97":2584737.79,"ADDRESS":"後壁１７３號之１８","OBJECTID":96649},"geometry":{"x":185131.55000000075,"y":2584737.790000001}},{"attributes":{"ID":96650,"DIS_CODE":0,"TOWNNAME":"後壁區","LI":"後壁里","LIN":"10鄰","STREET":" ","SECT":" ","MAREA":"後壁","LANE":" ","ALLEY":" ","HOUSE_NO":"１７３號之１９","E_COORD97":185127.41,"N_COORD97":2584737.5699999998,"ADDRESS":"後壁１７３號之１９","OBJECTID":96650},"geometry":{"x":185127.41000000108,"y":2584737.5700000003}},{"attributes":{"ID":96651,"DIS_CODE":0,"TOWNNAME":"後壁區","LI":"後壁里","LIN":"10鄰","STREET":" ","SECT":" ","MAREA":"後壁","LANE":" ","ALLEY":" ","HOUSE_NO":"１７３號之１","E_COORD97":185127.42999999999,"N_COORD97":2584884.1000000001,"ADDRESS":"後壁１７３號之１","OBJECTID":96651},"geometry":{"x":185127.4299999997,"y":2584884.1000000034}},{"attributes":{"ID":96652,"DIS_CODE":0,"TOWNNAME":"後壁區","LI":"後壁里","LIN":"10鄰","STREET":" ","SECT":" ","MAREA":"後壁","LANE":" ","ALLEY":" ","HOUSE_NO":"１７３號之２０","E_COORD97":185122.95000000001,"N_COORD97":2584737.1699999999,"ADDRESS":"後壁１７３號之２０","OBJECTID":96652},"geometry":{"x":185122.95000000019,"y":2584737.1699999999}},{"attributes":{"ID":96653,"DIS_CODE":0,"TOWNNAME":"後壁區","LI":"後壁里","LIN":"10鄰","STREET":" ","SECT":" ","MAREA":"後壁","LANE":" ","ALLEY":" ","HOUSE_NO":"１７３號之２１","E_COORD97":185125.70999999999,"N_COORD97":2584745.8999999999,"ADDRESS":"後壁１７３號之２１","OBJECTID":96653},"geometry":{"x":185125.70999999996,"y":2584745.9000000004}},{"attributes":{"ID":96654,"DIS_CODE":0,"TOWNNAME":"新營區","LI":"南紙里","LIN":"21鄰","STREET":"建業路","SECT":" ","MAREA":" ","LANE":"２２７巷","ALLEY":"１６弄","HOUSE_NO":"２２號七樓之９","E_COORD97":178059.75,"N_COORD97":2577431.4399999999,"ADDRESS":"建業路２２７巷１６弄２２號七樓之９","OBJECTID":96654},"geometry":{"x":178059.75000000093,"y":2577431.4399999995}},{"attributes":{"ID":96655,"DIS_CODE":0,"TOWNNAME":"後壁區","LI":"後壁里","LIN":"10鄰","STREET":" ","SECT":" ","MAREA":"後壁","LANE":" ","ALLEY":" ","HOUSE_NO":"１７３號之２２","E_COORD97":185125.10999999999,"N_COORD97":2584751.3700000001,"ADDRESS":"後壁１７３號之２２","OBJECTID":96655},"geometry":{"x":185125.11000000034,"y":2584751.3700000048}},{"attributes":{"ID":96656,"DIS_CODE":0,"TOWNNAME":"後壁區","LI":"後壁里","LIN":"10鄰","STREET":" ","SECT":" ","MAREA":"後壁","LANE":" ","ALLEY":" ","HOUSE_NO":"１７３號之２３","E_COORD97":185120.89999999999,"N_COORD97":2584769.9199999999,"ADDRESS":"後壁１７３號之２３","OBJECTID":96656},"geometry":{"x":185120.9000000013,"y":2584769.9199999999}},{"attributes":{"ID":96657,"DIS_CODE":0,"TOWNNAME":"後壁區","LI":"後壁里","LIN":"10鄰","STREET":" ","SECT":" ","MAREA":"後壁","LANE":" ","ALLEY":" ","HOUSE_NO":"１７３號之２４","E_COORD97":185125.25,"N_COORD97":2584770.1299999999,"ADDRESS":"後壁１７３號之２４","OBJECTID":96657},"geometry":{"x":185125.25000000093,"y":2584770.129999999}},{"attributes":{"ID":96658,"DIS_CODE":0,"TOWNNAME":"後壁區","LI":"後壁里","LIN":"10鄰","STREET":" ","SECT":" ","MAREA":"後壁","LANE":" ","ALLEY":" ","HOUSE_NO":"１７３號之２５","E_COORD97":185129.47,"N_COORD97":2584770.3799999999,"ADDRESS":"後壁１７３號之２５","OBJECTID":96658},"geometry":{"x":185129.4700000016,"y":2584770.3800000008}},{"attributes":{"ID":96659,"DIS_CODE":0,"TOWNNAME":"後壁區","LI":"後壁里","LIN":"10鄰","STREET":" ","SECT":" ","MAREA":"後壁","LANE":" ","ALLEY":" ","HOUSE_NO":"１７３號之２６","E_COORD97":185133.70999999999,"N_COORD97":2584770.6800000002,"ADDRESS":"後壁１７３號之２６","OBJECTID":96659},"geometry":{"x":185133.71000000089,"y":2584770.6799999997}},{"attributes":{"ID":96660,"DIS_CODE":0,"TOWNNAME":"新營區","LI":"南紙里","LIN":"21鄰","STREET":"建業路","SECT":" ","MAREA":" ","LANE":"２２７巷","ALLEY":"１６弄","HOUSE_NO":"２２號七樓之２０","E_COORD97":178060.67999999999,"N_COORD97":2577431.4399999999,"ADDRESS":"建業路２２７巷１６弄２２號七樓之２０","OBJECTID":96660},"geometry":{"x":178060.6799999997,"y":2577431.4399999995}},{"attributes":{"ID":96661,"DIS_CODE":0,"TOWNNAME":"新營區","LI":"南紙里","LIN":"21鄰","STREET":"建業路","SECT":" ","MAREA":" ","LANE":"２２７巷","ALLEY":"１６弄","HOUSE_NO":"２２號七樓之５","E_COORD97":178059.82000000001,"N_COORD97":2577431.4399999999,"ADDRESS":"建業路２２７巷１６弄２２號七樓之５","OBJECTID":96661},"geometry":{"x":178059.8200000003,"y":2577431.4399999995}},{"attributes":{"ID":96662,"DIS_CODE":0,"TOWNNAME":"新營區","LI":"南紙里","LIN":"21鄰","STREET":"建業路","SECT":" ","MAREA":" ","LANE":"２２７巷","ALLEY":"１６弄","HOUSE_NO":"２２號四樓之７","E_COORD97":178059.73999999999,"N_COORD97":2577431.4399999999,"ADDRESS":"建業路２２７巷１６弄２２號四樓之７","OBJECTID":96662},"geometry":{"x":178059.74000000115,"y":2577431.4399999995}},{"attributes":{"ID":96663,"DIS_CODE":0,"TOWNNAME":"永康區","LI":"甲頂里","LIN":"15鄰","STREET":"正新街","SECT":" ","MAREA":" ","LANE":" ","ALLEY":" ","HOUSE_NO":"３５號","E_COORD97":170368.76000000001,"N_COORD97":2546666.8500000001,"ADDRESS":"正新街３５號","OBJECTID":96663},"geometry":{"x":170368.75999999978,"y":2546666.8500000015}},{"attributes":{"ID":96664,"DIS_CODE":0,"TOWNNAME":"後壁區","LI":"後壁里","LIN":"10鄰","STREET":" ","SECT":" ","MAREA":"後壁","LANE":" ","ALLEY":" ","HOUSE_NO":"１７３號之２７","E_COORD97":185132.82000000001,"N_COORD97":2584794.1200000001,"ADDRESS":"後壁１７３號之２７","OBJECTID":96664},"geometry":{"x":185132.82000000216,"y":2584794.1200000029}},{"attributes":{"ID":96665,"DIS_CODE":0,"TOWNNAME":"後壁區","LI":"崁頂里","LIN":"10鄰","STREET":" ","SECT":" ","MAREA":"崩埤","LANE":" ","ALLEY":" ","HOUSE_NO":"２６號","E_COORD97":184797.10000000001,"N_COORD97":2587794.8799999999,"ADDRESS":"崩埤２６號","OBJECTID":96665},"geometry":{"x":184797.10000000056,"y":2587794.8800000008}},{"attributes":{"ID":96666,"DIS_CODE":0,"TOWNNAME":"後壁區","LI":"後壁里","LIN":"10鄰","STREET":" ","SECT":" ","MAREA":"後壁","LANE":" ","ALLEY":" ","HOUSE_NO":"１７３號之２８","E_COORD97":185128.51999999999,"N_COORD97":2584793.8100000001,"ADDRESS":"後壁１７３號之２８","OBJECTID":96666},"geometry":{"x":185128.51999999955,"y":2584793.8100000005}},{"attributes":{"ID":96667,"DIS_CODE":0,"TOWNNAME":"後壁區","LI":"後壁里","LIN":"10鄰","STREET":" ","SECT":" ","MAREA":"後壁","LANE":" ","ALLEY":" ","HOUSE_NO":"１７３號之２９","E_COORD97":185124.35000000001,"N_COORD97":2584793.6499999999,"ADDRESS":"後壁１７３號之２９","OBJECTID":96667},"geometry":{"x":185124.34999999963,"y":2584793.6500000022}},{"attributes":{"ID":96668,"DIS_CODE":0,"TOWNNAME":"後壁區","LI":"後壁里","LIN":"10鄰","STREET":" ","SECT":" ","MAREA":"後壁","LANE":" ","ALLEY":" ","HOUSE_NO":"１７３號之２","E_COORD97":185120.44,"N_COORD97":2584863.3500000001,"ADDRESS":"後壁１７３號之２","OBJECTID":96668},"geometry":{"x":185120.44000000134,"y":2584863.3500000015}},{"attributes":{"ID":96669,"DIS_CODE":0,"TOWNNAME":"後壁區","LI":"後壁里","LIN":"10鄰","STREET":" ","SECT":" ","MAREA":"後壁","LANE":" ","ALLEY":" ","HOUSE_NO":"１７３號之３０","E_COORD97":185119.82000000001,"N_COORD97":2584793.3999999999,"ADDRESS":"後壁１７３號之３０","OBJECTID":96669},"geometry":{"x":185119.82000000123,"y":2584793.4000000004}},{"attributes":{"ID":96670,"DIS_CODE":0,"TOWNNAME":"後壁區","LI":"後壁里","LIN":"10鄰","STREET":" ","SECT":" ","MAREA":"後壁","LANE":" ","ALLEY":" ","HOUSE_NO":"１７３號之３１","E_COORD97":185118.42999999999,"N_COORD97":2584817.75,"ADDRESS":"後壁１７３號之３１","OBJECTID":96670},"geometry":{"x":185118.43000000063,"y":2584817.75}},{"attributes":{"ID":96671,"DIS_CODE":0,"TOWNNAME":"後壁區","LI":"後壁里","LIN":"10鄰","STREET":" ","SECT":" ","MAREA":"後壁","LANE":" ","ALLEY":" ","HOUSE_NO":"１７３號之３２","E_COORD97":185122.92999999999,"N_COORD97":2584817.2999999998,"ADDRESS":"後壁１７３號之３２","OBJECTID":96671},"geometry":{"x":185122.93000000156,"y":2584817.3000000026}},{"attributes":{"ID":96672,"DIS_CODE":0,"TOWNNAME":"後壁區","LI":"後壁里","LIN":"10鄰","STREET":" ","SECT":" ","MAREA":"後壁","LANE":" ","ALLEY":" ","HOUSE_NO":"１７３號之３３","E_COORD97":185127.25,"N_COORD97":2584816.8500000001,"ADDRESS":"後壁１７３號之３３","OBJECTID":96672},"geometry":{"x":185127.25,"y":2584816.8499999996}},{"attributes":{"ID":96673,"DIS_CODE":0,"TOWNNAME":"後壁區","LI":"後壁里","LIN":"10鄰","STREET":" ","SECT":" ","MAREA":"後壁","LANE":" ","ALLEY":" ","HOUSE_NO":"１７３號之３４","E_COORD97":185131.70999999999,"N_COORD97":2584816.3999999999,"ADDRESS":"後壁１７３號之３４","OBJECTID":96673},"geometry":{"x":185131.71000000089,"y":2584816.4000000022}},{"attributes":{"ID":96674,"DIS_CODE":0,"TOWNNAME":"後壁區","LI":"後壁里","LIN":"10鄰","STREET":" ","SECT":" ","MAREA":"後壁","LANE":" ","ALLEY":" ","HOUSE_NO":"１７３號之３","E_COORD97":185093.23000000001,"N_COORD97":2584872.3399999999,"ADDRESS":"後壁１７３號之３","OBJECTID":96674},"geometry":{"x":185093.23000000138,"y":2584872.3400000036}},{"attributes":{"ID":96675,"DIS_CODE":0,"TOWNNAME":"後壁區","LI":"後壁里","LIN":"10鄰","STREET":" ","SECT":" ","MAREA":"後壁","LANE":" ","ALLEY":" ","HOUSE_NO":"１７３號之１６","E_COORD97":185163.039429,"N_COORD97":2584688.2134500002,"ADDRESS":"後壁１７３號之１６","OBJECTID":96675},"geometry":{"x":185163.03942900058,"y":2584688.2134479992}},{"attributes":{"ID":96676,"DIS_CODE":0,"TOWNNAME":"後壁區","LI":"後壁里","LIN":"10鄰","STREET":" ","SECT":" ","MAREA":"後壁","LANE":" ","ALLEY":" ","HOUSE_NO":"１７４號之１０","E_COORD97":185067.67000000001,"N_COORD97":2584861.4300000002,"ADDRESS":"後壁１７４號之１０","OBJECTID":96676},"geometry":{"x":185067.67000000086,"y":2584861.4300000034}},{"attributes":{"ID":96677,"DIS_CODE":0,"TOWNNAME":"後壁區","LI":"後壁里","LIN":"10鄰","STREET":" ","SECT":" ","MAREA":"後壁","LANE":" ","ALLEY":" ","HOUSE_NO":"１７４號之１１","E_COORD97":185065.91,"N_COORD97":2584877.9300000002,"ADDRESS":"後壁１７４號之１１","OBJECTID":96677},"geometry":{"x":185065.91000000201,"y":2584877.9299999997}},{"attributes":{"ID":96678,"DIS_CODE":0,"TOWNNAME":"後壁區","LI":"後壁里","LIN":"10鄰","STREET":" ","SECT":" ","MAREA":"後壁","LANE":" ","ALLEY":" ","HOUSE_NO":"１７４號之２","E_COORD97":185062.51999999999,"N_COORD97":2584898.3300000001,"ADDRESS":"後壁１７４號之２","OBJECTID":96678},"geometry":{"x":185062.51999999955,"y":2584898.3300000001}},{"attributes":{"ID":96679,"DIS_CODE":0,"TOWNNAME":"後壁區","LI":"後壁里","LIN":"10鄰","STREET":" ","SECT":" ","MAREA":"後壁","LANE":" ","ALLEY":" ","HOUSE_NO":"１７４號之３","E_COORD97":185040.48000000001,"N_COORD97":2584871.6800000002,"ADDRESS":"後壁１７４號之３","OBJECTID":96679},"geometry":{"x":185040.48000000231,"y":2584871.6800000016}},{"attributes":{"ID":96680,"DIS_CODE":0,"TOWNNAME":"後壁區","LI":"後壁里","LIN":"10鄰","STREET":" ","SECT":" ","MAREA":"後壁","LANE":" ","ALLEY":" ","HOUSE_NO":"１７４號之４","E_COORD97":185044.60000000001,"N_COORD97":2584870.6600000001,"ADDRESS":"後壁１７４號之４","OBJECTID":96680},"geometry":{"x":185044.60000000056,"y":2584870.6600000039}},{"attributes":{"ID":96681,"DIS_CODE":0,"TOWNNAME":"後壁區","LI":"後壁里","LIN":"10鄰","STREET":" ","SECT":" ","MAREA":"後壁","LANE":" ","ALLEY":" ","HOUSE_NO":"１７４號之５","E_COORD97":185048.92000000001,"N_COORD97":2584869.3100000001,"ADDRESS":"後壁１７４號之５","OBJECTID":96681},"geometry":{"x":185048.92000000086,"y":2584869.3100000005}},{"attributes":{"ID":96682,"DIS_CODE":0,"TOWNNAME":"後壁區","LI":"後壁里","LIN":"10鄰","STREET":" ","SECT":" ","MAREA":"後壁","LANE":" ","ALLEY":" ","HOUSE_NO":"１７４號之６","E_COORD97":185053.26000000001,"N_COORD97":2584867.9399999999,"ADDRESS":"後壁１７４號之６","OBJECTID":96682},"geometry":{"x":185053.26000000071,"y":2584867.9400000032}},{"attributes":{"ID":96683,"DIS_CODE":0,"TOWNNAME":"後壁區","LI":"後壁里","LIN":"10鄰","STREET":" ","SECT":" ","MAREA":"後壁","LANE":" ","ALLEY":" ","HOUSE_NO":"１７４號之７","E_COORD97":185057.62,"N_COORD97":2584866.9399999999,"ADDRESS":"後壁１７４號之７","OBJECTID":96683},"geometry":{"x":185057.61999999918,"y":2584866.9399999995}},{"attributes":{"ID":96684,"DIS_CODE":0,"TOWNNAME":"後壁區","LI":"後壁里","LIN":"10鄰","STREET":" ","SECT":" ","MAREA":"後壁","LANE":" ","ALLEY":" ","HOUSE_NO":"１７４號之８","E_COORD97":185061.92999999999,"N_COORD97":2584865.8700000001,"ADDRESS":"後壁１７４號之８","OBJECTID":96684},"geometry":{"x":185061.93000000156,"y":2584865.870000001}},{"attributes":{"ID":96685,"DIS_CODE":0,"TOWNNAME":"後壁區","LI":"後壁里","LIN":"10鄰","STREET":" ","SECT":" ","MAREA":"後壁","LANE":" ","ALLEY":" ","HOUSE_NO":"１７４號之９","E_COORD97":185118.64999999999,"N_COORD97":2584497.1899999999,"ADDRESS":"後壁１７４號之９","OBJECTID":96685},"geometry":{"x":185118.65000000037,"y":2584497.1900000013}},{"attributes":{"ID":96686,"DIS_CODE":0,"TOWNNAME":"新營區","LI":"南紙里","LIN":"21鄰","STREET":"建業路","SECT":" ","MAREA":" ","LANE":"２２７巷","ALLEY":"１６弄","HOUSE_NO":"２２號八樓之１０","E_COORD97":178060.67999999999,"N_COORD97":2577431.4399999999,"ADDRESS":"建業路２２７巷１６弄２２號八樓之１０","OBJECTID":96686},"geometry":{"x":178060.6799999997,"y":2577431.4399999995}},{"attributes":{"ID":96687,"DIS_CODE":0,"TOWNNAME":"新營區","LI":"南紙里","LIN":"21鄰","STREET":"建業路","SECT":" ","MAREA":" ","LANE":"２２７巷","ALLEY":"１６弄","HOUSE_NO":"２２號五樓之１０","E_COORD97":178060.67999999999,"N_COORD97":2577431.4399999999,"ADDRESS":"建業路２２７巷１６弄２２號五樓之１０","OBJECTID":96687},"geometry":{"x":178060.6799999997,"y":2577431.4399999995}},{"attributes":{"ID":96688,"DIS_CODE":0,"TOWNNAME":"新營區","LI":"南紙里","LIN":"21鄰","STREET":"建業路","SECT":" ","MAREA":" ","LANE":"２２７巷","ALLEY":"１６弄","HOUSE_NO":"２２號七樓之２３","E_COORD97":178061.01000000001,"N_COORD97":2577431.4399999999,"ADDRESS":"建業路２２７巷１６弄２２號七樓之２３","OBJECTID":96688},"geometry":{"x":178061.01000000071,"y":2577431.4399999995}},{"attributes":{"ID":96689,"DIS_CODE":0,"TOWNNAME":"新營區","LI":"南紙里","LIN":"21鄰","STREET":"建業路","SECT":" ","MAREA":" ","LANE":"２２７巷","ALLEY":"１６弄","HOUSE_NO":"２２號五樓之７","E_COORD97":178059.73999999999,"N_COORD97":2577431.4399999999,"ADDRESS":"建業路２２７巷１６弄２２號五樓之７","OBJECTID":96689},"geometry":{"x":178059.74000000115,"y":2577431.4399999995}},{"attributes":{"ID":96690,"DIS_CODE":0,"TOWNNAME":"新營區","LI":"南紙里","LIN":"21鄰","STREET":"建業路","SECT":" ","MAREA":" ","LANE":"２２７巷","ALLEY":"１６弄","HOUSE_NO":"２２號七樓之８","E_COORD97":178059.81,"N_COORD97":2577431.4399999999,"ADDRESS":"建業路２２７巷１６弄２２號七樓之８","OBJECTID":96690},"geometry":{"x":178059.81000000145,"y":2577431.4399999995}},{"attributes":{"ID":96691,"DIS_CODE":0,"TOWNNAME":"新營區","LI":"南紙里","LIN":"21鄰","STREET":"建業路","SECT":" ","MAREA":" ","LANE":"２２７巷","ALLEY":"１６弄","HOUSE_NO":"２２號五樓之１８","E_COORD97":178060.89000000001,"N_COORD97":2577431.4399999999,"ADDRESS":"建業路２２７巷１６弄２２號五樓之１８","OBJECTID":96691},"geometry":{"x":178060.88999999966,"y":2577431.4399999995}},{"attributes":{"ID":96692,"DIS_CODE":0,"TOWNNAME":"新營區","LI":"南紙里","LIN":"21鄰","STREET":"建業路","SECT":" ","MAREA":" ","LANE":"２２７巷","ALLEY":"１６弄","HOUSE_NO":"２２號五樓之６","E_COORD97":178059.76999999999,"N_COORD97":2577431.4399999999,"ADDRESS":"建業路２２７巷１６弄２２號五樓之６","OBJECTID":96692},"geometry":{"x":178059.76999999955,"y":2577431.4399999995}},{"attributes":{"ID":96693,"DIS_CODE":0,"TOWNNAME":"新營區","LI":"南紙里","LIN":"21鄰","STREET":"建業路","SECT":" ","MAREA":" ","LANE":"２２７巷","ALLEY":"１６弄","HOUSE_NO":"２２號七樓之１２","E_COORD97":178061.04999999999,"N_COORD97":2577431.4399999999,"ADDRESS":"建業路２２７巷１６弄２２號七樓之１２","OBJECTID":96693},"geometry":{"x":178061.04999999981,"y":2577431.4399999995}},{"attributes":{"ID":96694,"DIS_CODE":0,"TOWNNAME":"新營區","LI":"南紙里","LIN":"21鄰","STREET":"建業路","SECT":" ","MAREA":" ","LANE":"２２７巷","ALLEY":"１６弄","HOUSE_NO":"２２號五樓之１１","E_COORD97":178060.91,"N_COORD97":2577431.4399999999,"ADDRESS":"建業路２２７巷１６弄２２號五樓之１１","OBJECTID":96694},"geometry":{"x":178060.91000000015,"y":2577431.4399999995}},{"attributes":{"ID":96695,"DIS_CODE":0,"TOWNNAME":"新營區","LI":"大宏里","LIN":"17鄰","STREET":"三民路","SECT":" ","MAREA":" ","LANE":" ","ALLEY":" ","HOUSE_NO":"４６之１５號","E_COORD97":180346.14999999999,"N_COORD97":2578536.8199999998,"ADDRESS":"三民路４６之１５號","OBJECTID":96695},"geometry":{"x":180346.15000000037,"y":2578536.8200000022}},{"attributes":{"ID":96696,"DIS_CODE":0,"TOWNNAME":"安南區","LI":"溪心里","LIN":"13鄰","STREET":"樂安一街","SECT":" ","MAREA":" ","LANE":" ","ALLEY":" ","HOUSE_NO":"１００號","E_COORD97":165960.53,"N_COORD97":2549781.04,"ADDRESS":"樂安一街１００號","OBJECTID":96696},"geometry":{"x":165960.53000000212,"y":2549781.040000001}},{"attributes":{"ID":96697,"DIS_CODE":0,"TOWNNAME":"安南區","LI":"州南里","LIN":"4鄰","STREET":"安和路","SECT":"四段","MAREA":" ","LANE":" ","ALLEY":" ","HOUSE_NO":"５０５號","E_COORD97":169916.37,"N_COORD97":2551248.1200000001,"ADDRESS":"安和路四段５０５號","OBJECTID":96697},"geometry":{"x":169916.37000000197,"y":2551248.120000001}},{"attributes":{"ID":96698,"DIS_CODE":0,"TOWNNAME":"安南區","LI":"公\u25A0里","LIN":"4鄰","STREET":"安興街","SECT":" ","MAREA":" ","LANE":" ","ALLEY":" ","HOUSE_NO":"１０４號","E_COORD97":164196.13,"N_COORD97":2552187.73,"ADDRESS":"安興街１０４號","OBJECTID":96698},"geometry":{"x":164196.12999999989,"y":2552187.7300000023}},{"attributes":{"ID":96699,"DIS_CODE":0,"TOWNNAME":"後壁區","LI":"後壁里","LIN":"10鄰","STREET":" ","SECT":" ","MAREA":"後壁","LANE":" ","ALLEY":" ","HOUSE_NO":"１７４號","E_COORD97":185095.28,"N_COORD97":2584902.3799999999,"ADDRESS":"後壁１７４號","OBJECTID":96699},"geometry":{"x":185095.28000000026,"y":2584902.3800000008}},{"attributes":{"ID":96700,"DIS_CODE":0,"TOWNNAME":"後壁區","LI":"後壁里","LIN":"10鄰","STREET":" ","SECT":" ","MAREA":"後壁","LANE":" ","ALLEY":" ","HOUSE_NO":"１７５號之１０","E_COORD97":185165.35000000001,"N_COORD97":2584852.8799999999,"ADDRESS":"後壁１７５號之１０","OBJECTID":96700},"geometry":{"x":185165.34999999963,"y":2584852.879999999}},{"attributes":{"ID":96701,"DIS_CODE":0,"TOWNNAME":"新營區","LI":"南紙里","LIN":"21鄰","STREET":"建業路","SECT":" ","MAREA":" ","LANE":"２２７巷","ALLEY":"１６弄","HOUSE_NO":"２２號五樓之３","E_COORD97":178059.76000000001,"N_COORD97":2577431.4399999999,"ADDRESS":"建業路２２７巷１６弄２２號五樓之３","OBJECTID":96701},"geometry":{"x":178059.75999999978,"y":2577431.4399999995}},{"attributes":{"ID":96702,"DIS_CODE":0,"TOWNNAME":"新營區","LI":"南紙里","LIN":"21鄰","STREET":"建業路","SECT":" ","MAREA":" ","LANE":"２２７巷","ALLEY":"１６弄","HOUSE_NO":"２２號七樓之１４","E_COORD97":178060.94,"N_COORD97":2577431.4399999999,"ADDRESS":"建業路２２７巷１６弄２２號七樓之１４","OBJECTID":96702},"geometry":{"x":178060.94000000041,"y":2577431.4399999995}},{"attributes":{"ID":96703,"DIS_CODE":0,"TOWNNAME":"新營區","LI":"南紙里","LIN":"21鄰","STREET":"建業路","SECT":" ","MAREA":" ","LANE":"２２７巷","ALLEY":"１６弄","HOUSE_NO":"２２號四樓之１８","E_COORD97":178060.89000000001,"N_COORD97":2577431.4399999999,"ADDRESS":"建業路２２７巷１６弄２２號四樓之１８","OBJECTID":96703},"geometry":{"x":178060.88999999966,"y":2577431.4399999995}},{"attributes":{"ID":96704,"DIS_CODE":0,"TOWNNAME":"南區","LI":"南華里","LIN":"21鄰","STREET":"中華南路","SECT":"二段","MAREA":" ","LANE":"３０２巷","ALLEY":"２弄","HOUSE_NO":"１號二樓","E_COORD97":166662.19,"N_COORD97":2540333.8300000001,"ADDRESS":"中華南路二段３０２巷２弄１號二樓","OBJECTID":96704},"geometry":{"x":166662.19000000134,"y":2540333.8300000019}},{"attributes":{"ID":96705,"DIS_CODE":0,"TOWNNAME":"南區","LI":"南華里","LIN":"21鄰","STREET":"中華南路","SECT":"二段","MAREA":" ","LANE":"３０２巷","ALLEY":"２弄","HOUSE_NO":"１號三樓","E_COORD97":166662.19,"N_COORD97":2540333.8300000001,"ADDRESS":"中華南路二段３０２巷２弄１號三樓","OBJECTID":96705},"geometry":{"x":166662.19000000134,"y":2540333.8300000019}},{"attributes":{"ID":96706,"DIS_CODE":0,"TOWNNAME":"南區","LI":"南華里","LIN":"21鄰","STREET":"中華南路","SECT":"二段","MAREA":" ","LANE":"３０２巷","ALLEY":"２弄","HOUSE_NO":"１號五樓","E_COORD97":166662.19,"N_COORD97":2540333.8300000001,"ADDRESS":"中華南路二段３０２巷２弄１號五樓","OBJECTID":96706},"geometry":{"x":166662.19000000134,"y":2540333.8300000019}},{"attributes":{"ID":96707,"DIS_CODE":0,"TOWNNAME":"南區","LI":"南華里","LIN":"21鄰","STREET":"中華南路","SECT":"二段","MAREA":" ","LANE":"３０２巷","ALLEY":"２弄","HOUSE_NO":"１號四樓","E_COORD97":166662.19,"N_COORD97":2540333.8300000001,"ADDRESS":"中華南路二段３０２巷２弄１號四樓","OBJECTID":96707},"geometry":{"x":166662.19000000134,"y":2540333.8300000019}},{"attributes":{"ID":96708,"DIS_CODE":0,"TOWNNAME":"南區","LI":"南華里","LIN":"21鄰","STREET":"中華南路","SECT":"二段","MAREA":" ","LANE":"３０２巷","ALLEY":"２弄","HOUSE_NO":"３號二樓","E_COORD97":166670.51000000001,"N_COORD97":2540333.8300000001,"ADDRESS":"中華南路二段３０２巷２弄３號二樓","OBJECTID":96708},"geometry":{"x":166670.51000000164,"y":2540333.8300000019}},{"attributes":{"ID":96709,"DIS_CODE":0,"TOWNNAME":"南區","LI":"南華里","LIN":"21鄰","STREET":"中華南路","SECT":"二段","MAREA":" ","LANE":"３０２巷","ALLEY":"２弄","HOUSE_NO":"３號三樓","E_COORD97":166670.51000000001,"N_COORD97":2540333.8300000001,"ADDRESS":"中華南路二段３０２巷２弄３號三樓","OBJECTID":96709},"geometry":{"x":166670.51000000164,"y":2540333.8300000019}},{"attributes":{"ID":96710,"DIS_CODE":0,"TOWNNAME":"南區","LI":"南華里","LIN":"21鄰","STREET":"中華南路","SECT":"二段","MAREA":" ","LANE":"３０２巷","ALLEY":"２弄","HOUSE_NO":"３號五樓","E_COORD97":166670.51000000001,"N_COORD97":2540333.8300000001,"ADDRESS":"中華南路二段３０２巷２弄３號五樓","OBJECTID":96710},"geometry":{"x":166670.51000000164,"y":2540333.8300000019}},{"attributes":{"ID":96711,"DIS_CODE":0,"TOWNNAME":"南區","LI":"南華里","LIN":"21鄰","STREET":"中華南路","SECT":"二段","MAREA":" ","LANE":"３０２巷","ALLEY":"２弄","HOUSE_NO":"３號四樓","E_COORD97":166670.51000000001,"N_COORD97":2540333.8300000001,"ADDRESS":"中華南路二段３０２巷２弄３號四樓","OBJECTID":96711},"geometry":{"x":166670.51000000164,"y":2540333.8300000019}},{"attributes":{"ID":96712,"DIS_CODE":0,"TOWNNAME":"南區","LI":"南華里","LIN":"21鄰","STREET":"中華南路","SECT":"二段","MAREA":" ","LANE":"３０２巷","ALLEY":"２弄","HOUSE_NO":"５號二樓","E_COORD97":166678.95000000001,"N_COORD97":2540334.1800000002,"ADDRESS":"中華南路二段３０２巷２弄５號二樓","OBJECTID":96712},"geometry":{"x":166678.95000000019,"y":2540334.1800000034}},{"attributes":{"ID":96713,"DIS_CODE":0,"TOWNNAME":"南區","LI":"南華里","LIN":"21鄰","STREET":"中華南路","SECT":"二段","MAREA":" ","LANE":"３０２巷","ALLEY":"２弄","HOUSE_NO":"５號三樓","E_COORD97":166678.95000000001,"N_COORD97":2540334.1800000002,"ADDRESS":"中華南路二段３０２巷２弄５號三樓","OBJECTID":96713},"geometry":{"x":166678.95000000019,"y":2540334.1800000034}},{"attributes":{"ID":96714,"DIS_CODE":0,"TOWNNAME":"南區","LI":"南華里","LIN":"21鄰","STREET":"中華南路","SECT":"二段","MAREA":" ","LANE":"３０２巷","ALLEY":"２弄","HOUSE_NO":"５號五樓","E_COORD97":166678.95000000001,"N_COORD97":2540334.1800000002,"ADDRESS":"中華南路二段３０２巷２弄５號五樓","OBJECTID":96714},"geometry":{"x":166678.95000000019,"y":2540334.1800000034}},{"attributes":{"ID":96715,"DIS_CODE":0,"TOWNNAME":"南區","LI":"南華里","LIN":"21鄰","STREET":"中華南路","SECT":"二段","MAREA":" ","LANE":"３０２巷","ALLEY":"２弄","HOUSE_NO":"５號四樓","E_COORD97":166678.95000000001,"N_COORD97":2540334.1800000002,"ADDRESS":"中華南路二段３０２巷２弄５號四樓","OBJECTID":96715},"geometry":{"x":166678.95000000019,"y":2540334.1800000034}},{"attributes":{"ID":96716,"DIS_CODE":0,"TOWNNAME":"南區","LI":"南華里","LIN":"21鄰","STREET":"中華南路","SECT":"二段","MAREA":" ","LANE":"３０２巷","ALLEY":"２弄","HOUSE_NO":"７號二樓","E_COORD97":166687.87,"N_COORD97":2540334.4199999999,"ADDRESS":"中華南路二段３０２巷２弄７號二樓","OBJECTID":96716},"geometry":{"x":166687.87000000011,"y":2540334.4199999999}},{"attributes":{"ID":96717,"DIS_CODE":0,"TOWNNAME":"後壁區","LI":"後壁里","LIN":"10鄰","STREET":" ","SECT":" ","MAREA":"後壁","LANE":" ","ALLEY":" ","HOUSE_NO":"１７５號之１１","E_COORD97":185166.25,"N_COORD97":2584857.0299999998,"ADDRESS":"後壁１７５號之１１","OBJECTID":96717},"geometry":{"x":185166.25,"y":2584857.0300000031}},{"attributes":{"ID":96718,"DIS_CODE":0,"TOWNNAME":"南區","LI":"南華里","LIN":"21鄰","STREET":"中華南路","SECT":"二段","MAREA":" ","LANE":"３０２巷","ALLEY":"２弄","HOUSE_NO":"７號三樓","E_COORD97":166687.87,"N_COORD97":2540334.4199999999,"ADDRESS":"中華南路二段３０２巷２弄７號三樓","OBJECTID":96718},"geometry":{"x":166687.87000000011,"y":2540334.4199999999}},{"attributes":{"ID":96719,"DIS_CODE":0,"TOWNNAME":"南區","LI":"南華里","LIN":"21鄰","STREET":"中華南路","SECT":"二段","MAREA":" ","LANE":"３０２巷","ALLEY":"２弄","HOUSE_NO":"７號五樓","E_COORD97":166687.87,"N_COORD97":2540334.4199999999,"ADDRESS":"中華南路二段３０２巷２弄７號五樓","OBJECTID":96719},"geometry":{"x":166687.87000000011,"y":2540334.4199999999}},{"attributes":{"ID":96720,"DIS_CODE":0,"TOWNNAME":"南區","LI":"南華里","LIN":"21鄰","STREET":"中華南路","SECT":"二段","MAREA":" ","LANE":"３０２巷","ALLEY":"２弄","HOUSE_NO":"７號四樓","E_COORD97":166687.87,"N_COORD97":2540334.4199999999,"ADDRESS":"中華南路二段３０２巷２弄７號四樓","OBJECTID":96720},"geometry":{"x":166687.87000000011,"y":2540334.4199999999}},{"attributes":{"ID":96721,"DIS_CODE":0,"TOWNNAME":"新營區","LI":"南紙里","LIN":"21鄰","STREET":"建業路","SECT":" ","MAREA":" ","LANE":"２２７巷","ALLEY":"１６弄","HOUSE_NO":"２２號八樓之５","E_COORD97":178059.82000000001,"N_COORD97":2577431.4399999999,"ADDRESS":"建業路２２７巷１６弄２２號八樓之５","OBJECTID":96721},"geometry":{"x":178059.8200000003,"y":2577431.4399999995}},{"attributes":{"ID":96722,"DIS_CODE":0,"TOWNNAME":"安南區","LI":"鳳凰里","LIN":"28鄰","STREET":"安中路","SECT":"一段","MAREA":" ","LANE":"６２２巷","ALLEY":"８８弄","HOUSE_NO":"２７號","E_COORD97":168085.14214499999,"N_COORD97":2549080.3069099998,"ADDRESS":"安中路一段６２２巷８８弄２７號","OBJECTID":96722},"geometry":{"x":168085.14214500133,"y":2549080.3069090042}},{"attributes":{"ID":96723,"DIS_CODE":0,"TOWNNAME":"新營區","LI":"民權里","LIN":"10鄰","STREET":"中華路","SECT":" ","MAREA":" ","LANE":" ","ALLEY":" ","HOUSE_NO":"２３號之３","E_COORD97":179852.16,"N_COORD97":2578220.2000000002,"ADDRESS":"中華路２３號之３","OBJECTID":96723},"geometry":{"x":179852.16000000108,"y":2578220.1999999993}},{"attributes":{"ID":96724,"DIS_CODE":0,"TOWNNAME":"新營區","LI":"新南里","LIN":"29鄰","STREET":"明清一街","SECT":" ","MAREA":" ","LANE":" ","ALLEY":" ","HOUSE_NO":"５６號","E_COORD97":178054.87,"N_COORD97":2578672.8500000001,"ADDRESS":"明清一街５６號","OBJECTID":96724},"geometry":{"x":178054.87000000197,"y":2578672.8499999996}},{"attributes":{"ID":96725,"DIS_CODE":0,"TOWNNAME":"新營區","LI":"南紙里","LIN":"21鄰","STREET":"建業路","SECT":" ","MAREA":" ","LANE":"２２７巷","ALLEY":"１６弄","HOUSE_NO":"２２號三樓之１２","E_COORD97":178061.04999999999,"N_COORD97":2577431.4399999999,"ADDRESS":"建業路２２７巷１６弄２２號三樓之１２","OBJECTID":96725},"geometry":{"x":178061.04999999981,"y":2577431.4399999995}},{"attributes":{"ID":96726,"DIS_CODE":0,"TOWNNAME":"善化區","LI":"小新里","LIN":"15鄰","STREET":" ","SECT":" ","MAREA":"小新營","LANE":" ","ALLEY":" ","HOUSE_NO":"１１３之７號","E_COORD97":179843.62,"N_COORD97":2558054.77,"ADDRESS":"小新營１１３之７號","OBJECTID":96726},"geometry":{"x":179843.62000000104,"y":2558054.7700000033}},{"attributes":{"ID":96727,"DIS_CODE":0,"TOWNNAME":"新營區","LI":"南紙里","LIN":"21鄰","STREET":"建業路","SECT":" ","MAREA":" ","LANE":"２２７巷","ALLEY":"１６弄","HOUSE_NO":"２２號六樓之６","E_COORD97":178059.76999999999,"N_COORD97":2577431.4399999999,"ADDRESS":"建業路２２７巷１６弄２２號六樓之６","OBJECTID":96727},"geometry":{"x":178059.76999999955,"y":2577431.4399999995}},{"attributes":{"ID":96728,"DIS_CODE":0,"TOWNNAME":"新營區","LI":"南紙里","LIN":"21鄰","STREET":"建業路","SECT":" ","MAREA":" ","LANE":"２２７巷","ALLEY":"１６弄","HOUSE_NO":"２２號六樓之１３","E_COORD97":178061.01000000001,"N_COORD97":2577431.4399999999,"ADDRESS":"建業路２２７巷１６弄２２號六樓之１３","OBJECTID":96728},"geometry":{"x":178061.01000000071,"y":2577431.4399999995}},{"attributes":{"ID":96729,"DIS_CODE":0,"TOWNNAME":"新營區","LI":"南紙里","LIN":"21鄰","STREET":"建業路","SECT":" ","MAREA":" ","LANE":"２２７巷","ALLEY":"１６弄","HOUSE_NO":"２２號三樓之２２","E_COORD97":178061.04999999999,"N_COORD97":2577431.4399999999,"ADDRESS":"建業路２２７巷１６弄２２號三樓之２２","OBJECTID":96729},"geometry":{"x":178061.04999999981,"y":2577431.4399999995}},{"attributes":{"ID":96730,"DIS_CODE":0,"TOWNNAME":"新營區","LI":"南紙里","LIN":"21鄰","STREET":"建業路","SECT":" ","MAREA":" ","LANE":"２２７巷","ALLEY":"１６弄","HOUSE_NO":"２２號四樓之５","E_COORD97":178059.82000000001,"N_COORD97":2577431.4399999999,"ADDRESS":"建業路２２７巷１６弄２２號四樓之５","OBJECTID":96730},"geometry":{"x":178059.8200000003,"y":2577431.4399999995}},{"attributes":{"ID":96731,"DIS_CODE":0,"TOWNNAME":"新營區","LI":"南紙里","LIN":"21鄰","STREET":"建業路","SECT":" ","MAREA":" ","LANE":"２２７巷","ALLEY":"１６弄","HOUSE_NO":"２２號三樓之１４","E_COORD97":178060.94,"N_COORD97":2577431.4399999999,"ADDRESS":"建業路２２７巷１６弄２２號三樓之１４","OBJECTID":96731},"geometry":{"x":178060.94000000041,"y":2577431.4399999995}},{"attributes":{"ID":96732,"DIS_CODE":0,"TOWNNAME":"新營區","LI":"南紙里","LIN":"21鄰","STREET":"建業路","SECT":" ","MAREA":" ","LANE":"２２７巷","ALLEY":"１６弄","HOUSE_NO":"２２號五樓之２２","E_COORD97":178061.04999999999,"N_COORD97":2577431.4399999999,"ADDRESS":"建業路２２７巷１６弄２２號五樓之２２","OBJECTID":96732},"geometry":{"x":178061.04999999981,"y":2577431.4399999995}},{"attributes":{"ID":96733,"DIS_CODE":0,"TOWNNAME":"新營區","LI":"南紙里","LIN":"21鄰","STREET":"建業路","SECT":" ","MAREA":" ","LANE":"２２７巷","ALLEY":"１６弄","HOUSE_NO":"２２號四樓之１５","E_COORD97":178061.07000000001,"N_COORD97":2577431.4399999999,"ADDRESS":"建業路２２７巷１６弄２２號四樓之１５","OBJECTID":96733},"geometry":{"x":178061.07000000123,"y":2577431.4399999995}},{"attributes":{"ID":96734,"DIS_CODE":0,"TOWNNAME":"新營區","LI":"南紙里","LIN":"21鄰","STREET":"建業路","SECT":" ","MAREA":" ","LANE":"２２７巷","ALLEY":"１６弄","HOUSE_NO":"２２號三樓之１８","E_COORD97":178060.89000000001,"N_COORD97":2577431.4399999999,"ADDRESS":"建業路２２７巷１６弄２２號三樓之１８","OBJECTID":96734},"geometry":{"x":178060.88999999966,"y":2577431.4399999995}},{"attributes":{"ID":96735,"DIS_CODE":0,"TOWNNAME":"新營區","LI":"南紙里","LIN":"21鄰","STREET":"建業路","SECT":" ","MAREA":" ","LANE":"２２７巷","ALLEY":"１６弄","HOUSE_NO":"２２號五樓之１２","E_COORD97":178061.04999999999,"N_COORD97":2577431.4399999999,"ADDRESS":"建業路２２７巷１６弄２２號五樓之１２","OBJECTID":96735},"geometry":{"x":178061.04999999981,"y":2577431.4399999995}},{"attributes":{"ID":96736,"DIS_CODE":0,"TOWNNAME":"新營區","LI":"南紙里","LIN":"21鄰","STREET":"建業路","SECT":" ","MAREA":" ","LANE":"２２７巷","ALLEY":"１６弄","HOUSE_NO":"２２號八樓之２３","E_COORD97":178061.01000000001,"N_COORD97":2577431.4399999999,"ADDRESS":"建業路２２７巷１６弄２２號八樓之２３","OBJECTID":96736},"geometry":{"x":178061.01000000071,"y":2577431.4399999995}},{"attributes":{"ID":96737,"DIS_CODE":0,"TOWNNAME":"新營區","LI":"南紙里","LIN":"21鄰","STREET":"建業路","SECT":" ","MAREA":" ","LANE":"２２７巷","ALLEY":"１６弄","HOUSE_NO":"２２號七樓之１８","E_COORD97":178060.89000000001,"N_COORD97":2577431.4399999999,"ADDRESS":"建業路２２７巷１６弄２２號七樓之１８","OBJECTID":96737},"geometry":{"x":178060.88999999966,"y":2577431.4399999995}},{"attributes":{"ID":96738,"DIS_CODE":0,"TOWNNAME":"安南區","LI":"公\u25A0里","LIN":"4鄰","STREET":"安興街","SECT":" ","MAREA":" ","LANE":" ","ALLEY":" ","HOUSE_NO":"１０６號","E_COORD97":164193.31,"N_COORD97":2552183.98,"ADDRESS":"安興街１０６號","OBJECTID":96738},"geometry":{"x":164193.31000000052,"y":2552183.9800000004}},{"attributes":{"ID":96739,"DIS_CODE":0,"TOWNNAME":"安南區","LI":"總頭里","LIN":"13鄰","STREET":"長溪路","SECT":"二段","MAREA":" ","LANE":" ","ALLEY":" ","HOUSE_NO":"４６５號","E_COORD97":168227.01000000001,"N_COORD97":2550345.23,"ADDRESS":"長溪路二段４６５號","OBJECTID":96739},"geometry":{"x":168227.01000000071,"y":2550345.2300000004}},{"attributes":{"ID":96740,"DIS_CODE":0,"TOWNNAME":"安南區","LI":"幸福里","LIN":"14鄰","STREET":"府安路","SECT":"六段","MAREA":" ","LANE":" ","ALLEY":" ","HOUSE_NO":"４９號之１","E_COORD97":166934.42000000001,"N_COORD97":2546640.04,"ADDRESS":"府安路六段４９號之１","OBJECTID":96740},"geometry":{"x":166934.42000000086,"y":2546640.0399999991}},{"attributes":{"ID":96741,"DIS_CODE":0,"TOWNNAME":"南區","LI":"白雪里","LIN":" ","STREET":"鹽埕路","SECT":" ","MAREA":" ","LANE":" ","ALLEY":" ","HOUSE_NO":"７２號","E_COORD97":166821.48000000001,"N_COORD97":2540881.48,"ADDRESS":"鹽埕路７２號","OBJECTID":96741},"geometry":{"x":166821.48000000045,"y":2540881.4800000004}},{"attributes":{"ID":96742,"DIS_CODE":0,"TOWNNAME":"安南區","LI":"淵中里","LIN":"5鄰","STREET":"安中路","SECT":"四段","MAREA":" ","LANE":" ","ALLEY":" ","HOUSE_NO":"１００號之１","E_COORD97":165115.92000000001,"N_COORD97":2550016.02,"ADDRESS":"安中路四段１００號之１","OBJECTID":96742},"geometry":{"x":165115.91999999993,"y":2550016.0200000014}},{"attributes":{"ID":96743,"DIS_CODE":0,"TOWNNAME":"安南區","LI":"新順里","LIN":"9鄰","STREET":"安生街","SECT":" ","MAREA":" ","LANE":" ","ALLEY":" ","HOUSE_NO":"１１３號之１","E_COORD97":169501.10999999999,"N_COORD97":2549534.7799999998,"ADDRESS":"安生街１１３號之１","OBJECTID":96743},"geometry":{"x":169501.11000000034,"y":2549534.7800000012}},{"attributes":{"ID":96744,"DIS_CODE":0,"TOWNNAME":"安南區","LI":"海西里","LIN":"4鄰","STREET":"海中街","SECT":" ","MAREA":" ","LANE":" ","ALLEY":" ","HOUSE_NO":"１２９號","E_COORD97":166369.73999999999,"N_COORD97":2549071.7200000002,"ADDRESS":"海中街１２９號","OBJECTID":96744},"geometry":{"x":166369.74000000115,"y":2549071.7200000044}},{"attributes":{"ID":96745,"DIS_CODE":0,"TOWNNAME":"安南區","LI":"海西里","LIN":"4鄰","STREET":"海中街","SECT":" ","MAREA":" ","LANE":" ","ALLEY":" ","HOUSE_NO":"１３１號","E_COORD97":166367.64999999999,"N_COORD97":2549075.8999999999,"ADDRESS":"海中街１３１號","OBJECTID":96745},"geometry":{"x":166367.65000000037,"y":2549075.9000000004}},{"attributes":{"ID":96746,"DIS_CODE":0,"TOWNNAME":"新營區","LI":"埤寮里","LIN":"8鄰","STREET":" ","SECT":" ","MAREA":"埤寮","LANE":" ","ALLEY":" ","HOUSE_NO":"４６號","E_COORD97":180499.03,"N_COORD97":2580960.25,"ADDRESS":"埤寮４６號","OBJECTID":96746},"geometry":{"x":180499.03000000119,"y":2580960.25}},{"attributes":{"ID":96747,"DIS_CODE":0,"TOWNNAME":"後壁區","LI":"後壁里","LIN":"10鄰","STREET":" ","SECT":" ","MAREA":"後壁","LANE":" ","ALLEY":" ","HOUSE_NO":"１７５號之１２","E_COORD97":185166.98999999999,"N_COORD97":2584861.2200000002,"ADDRESS":"後壁１７５號之１２","OBJECTID":96747},"geometry":{"x":185166.99000000022,"y":2584861.2200000025}},{"attributes":{"ID":96748,"DIS_CODE":0,"TOWNNAME":"新營區","LI":"南紙里","LIN":"21鄰","STREET":"建業路","SECT":" ","MAREA":" ","LANE":"２２７巷","ALLEY":"１６弄","HOUSE_NO":"２２號二樓之１２","E_COORD97":178061.04999999999,"N_COORD97":2577431.4399999999,"ADDRESS":"建業路２２７巷１６弄２２號二樓之１２","OBJECTID":96748},"geometry":{"x":178061.04999999981,"y":2577431.4399999995}},{"attributes":{"ID":96749,"DIS_CODE":0,"TOWNNAME":"南區","LI":"田寮里","LIN":"21鄰","STREET":"西門路","SECT":"一段","MAREA":" ","LANE":"２７９巷","ALLEY":"１６弄","HOUSE_NO":"８號一樓","E_COORD97":167653.04000000001,"N_COORD97":2541982.71,"ADDRESS":"西門路一段２７９巷１６弄８號一樓","OBJECTID":96749},"geometry":{"x":167653.04000000004,"y":2541982.7100000046}},{"attributes":{"ID":96750,"DIS_CODE":0,"TOWNNAME":"南區","LI":"田寮里","LIN":"21鄰","STREET":"西門路","SECT":"一段","MAREA":" ","LANE":"２７９巷","ALLEY":"１６弄","HOUSE_NO":"８號二樓","E_COORD97":167653.04000000001,"N_COORD97":2541982.71,"ADDRESS":"西門路一段２７９巷１６弄８號二樓","OBJECTID":96750},"geometry":{"x":167653.04000000004,"y":2541982.7100000046}},{"attributes":{"ID":96751,"DIS_CODE":0,"TOWNNAME":"新營區","LI":"王公里","LIN":"25鄰","STREET":"中正路","SECT":" ","MAREA":" ","LANE":" ","ALLEY":" ","HOUSE_NO":"１２８之１號","E_COORD97":180116.42999999999,"N_COORD97":2579509.1400000001,"ADDRESS":"中正路１２８之１號","OBJECTID":96751},"geometry":{"x":180116.4299999997,"y":2579509.1400000025}},{"attributes":{"ID":96752,"DIS_CODE":0,"TOWNNAME":"新營區","LI":"三仙里","LIN":"13鄰","STREET":"中華路","SECT":" ","MAREA":" ","LANE":" ","ALLEY":" ","HOUSE_NO":"５４號之４","E_COORD97":179599.29999999999,"N_COORD97":2578203.6800000002,"ADDRESS":"中華路５４號之４","OBJECTID":96752},"geometry":{"x":179599.30000000168,"y":2578203.6799999997}},{"attributes":{"ID":96753,"DIS_CODE":0,"TOWNNAME":"新營區","LI":"民權里","LIN":"14鄰","STREET":"仁愛街","SECT":" ","MAREA":" ","LANE":" ","ALLEY":" ","HOUSE_NO":"４２號之２","E_COORD97":179802.91,"N_COORD97":2578394.2999999998,"ADDRESS":"仁愛街４２號之２","OBJECTID":96753},"geometry":{"x":179802.91000000108,"y":2578394.3000000007}},{"attributes":{"ID":96754,"DIS_CODE":0,"TOWNNAME":"後壁區","LI":"後壁里","LIN":"10鄰","STREET":" ","SECT":" ","MAREA":"後壁","LANE":" ","ALLEY":" ","HOUSE_NO":"１７５號之１３","E_COORD97":185167.92000000001,"N_COORD97":2584865.2000000002,"ADDRESS":"後壁１７５號之１３","OBJECTID":96754},"geometry":{"x":185167.92000000086,"y":2584865.1999999993}},{"attributes":{"ID":96755,"DIS_CODE":0,"TOWNNAME":"南區","LI":"田寮里","LIN":"21鄰","STREET":"西門路","SECT":"一段","MAREA":" ","LANE":"２７９巷","ALLEY":"１６弄","HOUSE_NO":"８號三樓","E_COORD97":167653.04000000001,"N_COORD97":2541982.71,"ADDRESS":"西門路一段２７９巷１６弄８號三樓","OBJECTID":96755},"geometry":{"x":167653.04000000004,"y":2541982.7100000046}},{"attributes":{"ID":96756,"DIS_CODE":0,"TOWNNAME":"後壁區","LI":"崁頂里","LIN":"10鄰","STREET":" ","SECT":" ","MAREA":"崩埤","LANE":" ","ALLEY":" ","HOUSE_NO":"２８號","E_COORD97":184776.45000000001,"N_COORD97":2587807.3799999999,"ADDRESS":"崩埤２８號","OBJECTID":96756},"geometry":{"x":184776.45000000112,"y":2587807.3800000027}},{"attributes":{"ID":96757,"DIS_CODE":0,"TOWNNAME":"南區","LI":"田寮里","LIN":"21鄰","STREET":"西門路","SECT":"一段","MAREA":" ","LANE":"２７９巷","ALLEY":"１６弄","HOUSE_NO":"８號五樓","E_COORD97":167653.04000000001,"N_COORD97":2541982.71,"ADDRESS":"西門路一段２７９巷１６弄８號五樓","OBJECTID":96757},"geometry":{"x":167653.04000000004,"y":2541982.7100000046}},{"attributes":{"ID":96758,"DIS_CODE":0,"TOWNNAME":"南區","LI":"田寮里","LIN":"21鄰","STREET":"西門路","SECT":"一段","MAREA":" ","LANE":"２７９巷","ALLEY":"１６弄","HOUSE_NO":"８號四樓","E_COORD97":167653.04000000001,"N_COORD97":2541982.71,"ADDRESS":"西門路一段２７９巷１６弄８號四樓","OBJECTID":96758},"geometry":{"x":167653.04000000004,"y":2541982.7100000046}},{"attributes":{"ID":96759,"DIS_CODE":0,"TOWNNAME":"南區","LI":"田寮里","LIN":"21鄰","STREET":"西門路","SECT":"一段","MAREA":" ","LANE":"２７９巷","ALLEY":"１６弄","HOUSE_NO":"１０號三樓","E_COORD97":167649.42000000001,"N_COORD97":2541995.6400000001,"ADDRESS":"西門路一段２７９巷１６弄１０號三樓","OBJECTID":96759},"geometry":{"x":167649.42000000086,"y":2541995.6400000006}},{"attributes":{"ID":96760,"DIS_CODE":0,"TOWNNAME":"南區","LI":"田寮里","LIN":"21鄰","STREET":"西門路","SECT":"一段","MAREA":" ","LANE":"２７９巷","ALLEY":"１６弄","HOUSE_NO":"１０號五樓","E_COORD97":167649.42000000001,"N_COORD97":2541995.6400000001,"ADDRESS":"西門路一段２７９巷１６弄１０號五樓","OBJECTID":96760},"geometry":{"x":167649.42000000086,"y":2541995.6400000006}},{"attributes":{"ID":96761,"DIS_CODE":0,"TOWNNAME":"新營區","LI":"五興里","LIN":"2鄰","STREET":" ","SECT":" ","MAREA":"五間厝","LANE":" ","ALLEY":" ","HOUSE_NO":"３１號之１","E_COORD97":175786.70000000001,"N_COORD97":2574996.27,"ADDRESS":"五間厝３１之１號","OBJECTID":96761},"geometry":{"x":175786.70000000112,"y":2574996.2699999977}},{"attributes":{"ID":96762,"DIS_CODE":0,"TOWNNAME":"善化區","LI":"小新里","LIN":"15鄰","STREET":" ","SECT":" ","MAREA":"小新營","LANE":" ","ALLEY":" ","HOUSE_NO":"１４０號","E_COORD97":179858.43954699999,"N_COORD97":2558108.6856800001,"ADDRESS":"小新營１４０號","OBJECTID":96762},"geometry":{"x":179858.43954700138,"y":2558108.6856760047}},{"attributes":{"ID":96763,"DIS_CODE":0,"TOWNNAME":"後壁區","LI":"後壁里","LIN":"10鄰","STREET":" ","SECT":" ","MAREA":"後壁","LANE":" ","ALLEY":" ","HOUSE_NO":"１７５號之１４","E_COORD97":185168.79000000001,"N_COORD97":2584869.3999999999,"ADDRESS":"後壁１７５號之１４","OBJECTID":96763},"geometry":{"x":185168.79000000097,"y":2584869.4000000041}},{"attributes":{"ID":96764,"DIS_CODE":0,"TOWNNAME":"後壁區","LI":"後壁里","LIN":"10鄰","STREET":" ","SECT":" ","MAREA":"後壁","LANE":" ","ALLEY":" ","HOUSE_NO":"１７５號之１５","E_COORD97":185157.26000000001,"N_COORD97":2584859.9100000001,"ADDRESS":"後壁１７５號之１５","OBJECTID":96764},"geometry":{"x":185157.26000000071,"y":2584859.910000002}},{"attributes":{"ID":96765,"DIS_CODE":0,"TOWNNAME":"南區","LI":"田寮里","LIN":"21鄰","STREET":"西門路","SECT":"一段","MAREA":" ","LANE":"２７９巷","ALLEY":"１６弄","HOUSE_NO":"１０號二樓","E_COORD97":167649.42000000001,"N_COORD97":2541995.6400000001,"ADDRESS":"西門路一段２７９巷１６弄１０號二樓","OBJECTID":96765},"geometry":{"x":167649.42000000086,"y":2541995.6400000006}},{"attributes":{"ID":96766,"DIS_CODE":0,"TOWNNAME":"南區","LI":"田寮里","LIN":"21鄰","STREET":"西門路","SECT":"一段","MAREA":" ","LANE":"２７９巷","ALLEY":"１６弄","HOUSE_NO":"１４號二樓","E_COORD97":167642.45000000001,"N_COORD97":2542022.2000000002,"ADDRESS":"西門路一段２７９巷１６弄１４號二樓","OBJECTID":96766},"geometry":{"x":167642.44999999925,"y":2542022.2000000011}},{"attributes":{"ID":96767,"DIS_CODE":0,"TOWNNAME":"南區","LI":"田寮里","LIN":"21鄰","STREET":"西門路","SECT":"一段","MAREA":" ","LANE":"２７９巷","ALLEY":"１６弄","HOUSE_NO":"１４號三樓","E_COORD97":167642.45000000001,"N_COORD97":2542022.2000000002,"ADDRESS":"西門路一段２７９巷１６弄１４號三樓","OBJECTID":96767},"geometry":{"x":167642.44999999925,"y":2542022.2000000011}},{"attributes":{"ID":96768,"DIS_CODE":0,"TOWNNAME":"南區","LI":"田寮里","LIN":"21鄰","STREET":"西門路","SECT":"一段","MAREA":" ","LANE":"２７９巷","ALLEY":"１６弄","HOUSE_NO":"１４號五樓","E_COORD97":167642.45000000001,"N_COORD97":2542022.2000000002,"ADDRESS":"西門路一段２７９巷１６弄１４號五樓","OBJECTID":96768},"geometry":{"x":167642.44999999925,"y":2542022.2000000011}},{"attributes":{"ID":96769,"DIS_CODE":0,"TOWNNAME":"南區","LI":"田寮里","LIN":"21鄰","STREET":"西門路","SECT":"一段","MAREA":" ","LANE":"２７９巷","ALLEY":"１６弄","HOUSE_NO":"１４號四樓","E_COORD97":167642.45000000001,"N_COORD97":2542022.2000000002,"ADDRESS":"西門路一段２７９巷１６弄１４號四樓","OBJECTID":96769},"geometry":{"x":167642.44999999925,"y":2542022.2000000011}},{"attributes":{"ID":96770,"DIS_CODE":0,"TOWNNAME":"南區","LI":"田寮里","LIN":"21鄰","STREET":"西門路","SECT":"一段","MAREA":" ","LANE":"２７９巷","ALLEY":"１６弄","HOUSE_NO":"１６號二樓","E_COORD97":167640.95999999999,"N_COORD97":2542032.6299999999,"ADDRESS":"西門路一段２７９巷１６弄１６號二樓","OBJECTID":96770},"geometry":{"x":167640.96000000089,"y":2542032.6300000008}},{"attributes":{"ID":96771,"DIS_CODE":0,"TOWNNAME":"南區","LI":"田寮里","LIN":"21鄰","STREET":"西門路","SECT":"一段","MAREA":" ","LANE":"２７９巷","ALLEY":"１６弄","HOUSE_NO":"１６號三樓","E_COORD97":167640.95999999999,"N_COORD97":2542032.6299999999,"ADDRESS":"西門路一段２７９巷１６弄１６號三樓","OBJECTID":96771},"geometry":{"x":167640.96000000089,"y":2542032.6300000008}},{"attributes":{"ID":96772,"DIS_CODE":0,"TOWNNAME":"南區","LI":"田寮里","LIN":"21鄰","STREET":"西門路","SECT":"一段","MAREA":" ","LANE":"２７９巷","ALLEY":"１６弄","HOUSE_NO":"１６號五樓","E_COORD97":167640.95999999999,"N_COORD97":2542032.6299999999,"ADDRESS":"西門路一段２７９巷１６弄１６號五樓","OBJECTID":96772},"geometry":{"x":167640.96000000089,"y":2542032.6300000008}},{"attributes":{"ID":96773,"DIS_CODE":0,"TOWNNAME":"南區","LI":"田寮里","LIN":"21鄰","STREET":"西門路","SECT":"一段","MAREA":" ","LANE":"２７９巷","ALLEY":"１６弄","HOUSE_NO":"１６號四樓","E_COORD97":167640.95999999999,"N_COORD97":2542032.6299999999,"ADDRESS":"西門路一段２７９巷１６弄１６號四樓","OBJECTID":96773},"geometry":{"x":167640.96000000089,"y":2542032.6300000008}},{"attributes":{"ID":96774,"DIS_CODE":0,"TOWNNAME":"南區","LI":"田寮里","LIN":"21鄰","STREET":"西門路","SECT":"一段","MAREA":" ","LANE":"２７９巷","ALLEY":"１６弄","HOUSE_NO":"１８號二樓","E_COORD97":167637.73000000001,"N_COORD97":2542046.5299999998,"ADDRESS":"西門路一段２７９巷１６弄１８號二樓","OBJECTID":96774},"geometry":{"x":167637.73000000138,"y":2542046.5299999975}},{"attributes":{"ID":96775,"DIS_CODE":0,"TOWNNAME":"善化區","LI":"牛庄里","LIN":"15鄰","STREET":" ","SECT":" ","MAREA":"牛庄","LANE":" ","ALLEY":" ","HOUSE_NO":"１３５號之２２","E_COORD97":179886.48999999999,"N_COORD97":2560008.02,"ADDRESS":"牛庄１３５號之２２","OBJECTID":96775},"geometry":{"x":179886.49000000022,"y":2560008.0199999996}},{"attributes":{"ID":96776,"DIS_CODE":0,"TOWNNAME":"南區","LI":"田寮里","LIN":"21鄰","STREET":"西門路","SECT":"一段","MAREA":" ","LANE":"２７９巷","ALLEY":"１６弄","HOUSE_NO":"１８號三樓","E_COORD97":167637.73000000001,"N_COORD97":2542046.5299999998,"ADDRESS":"西門路一段２７９巷１６弄１８號三樓","OBJECTID":96776},"geometry":{"x":167637.73000000138,"y":2542046.5299999975}},{"attributes":{"ID":96777,"DIS_CODE":0,"TOWNNAME":"南區","LI":"田寮里","LIN":"21鄰","STREET":"西門路","SECT":"一段","MAREA":" ","LANE":"２７９巷","ALLEY":"１６弄","HOUSE_NO":"１８號五樓","E_COORD97":167637.73000000001,"N_COORD97":2542046.5299999998,"ADDRESS":"西門路一段２７９巷１６弄１８號五樓","OBJECTID":96777},"geometry":{"x":167637.73000000138,"y":2542046.5299999975}},{"attributes":{"ID":96778,"DIS_CODE":0,"TOWNNAME":"南區","LI":"田寮里","LIN":"21鄰","STREET":"西門路","SECT":"一段","MAREA":" ","LANE":"２７９巷","ALLEY":"１６弄","HOUSE_NO":"１８號四樓","E_COORD97":167637.73000000001,"N_COORD97":2542046.5299999998,"ADDRESS":"西門路一段２７９巷１６弄１８號四樓","OBJECTID":96778},"geometry":{"x":167637.73000000138,"y":2542046.5299999975}},{"attributes":{"ID":96779,"DIS_CODE":0,"TOWNNAME":"南區","LI":"田寮里","LIN":"21鄰","STREET":"西門路","SECT":"一段","MAREA":" ","LANE":"２７９巷","ALLEY":"１６弄","HOUSE_NO":"２０號二樓","E_COORD97":167626.04999999999,"N_COORD97":2542048.5099999998,"ADDRESS":"西門路一段２７９巷１６弄２０號二樓","OBJECTID":96779},"geometry":{"x":167626.04999999981,"y":2542048.5100000016}},{"attributes":{"ID":96780,"DIS_CODE":0,"TOWNNAME":"南區","LI":"田寮里","LIN":"21鄰","STREET":"西門路","SECT":"一段","MAREA":" ","LANE":"２７９巷","ALLEY":"１６弄","HOUSE_NO":"２０號三樓","E_COORD97":167626.04999999999,"N_COORD97":2542048.5099999998,"ADDRESS":"西門路一段２７９巷１６弄２０號三樓","OBJECTID":96780},"geometry":{"x":167626.04999999981,"y":2542048.5100000016}},{"attributes":{"ID":96781,"DIS_CODE":0,"TOWNNAME":"南區","LI":"田寮里","LIN":"21鄰","STREET":"西門路","SECT":"一段","MAREA":" ","LANE":"２７９巷","ALLEY":"１６弄","HOUSE_NO":"２０號五樓","E_COORD97":167626.04999999999,"N_COORD97":2542048.5099999998,"ADDRESS":"西門路一段２７９巷１６弄２０號五樓","OBJECTID":96781},"geometry":{"x":167626.04999999981,"y":2542048.5100000016}},{"attributes":{"ID":96782,"DIS_CODE":0,"TOWNNAME":"鹽水區","LI":"水仙里","LIN":"8鄰","STREET":"中山路","SECT":" ","MAREA":" ","LANE":" ","ALLEY":" ","HOUSE_NO":"７號","E_COORD97":175051.04000000001,"N_COORD97":2579889.8500000001,"ADDRESS":"中山路７號","OBJECTID":96782},"geometry":{"x":175051.04000000004,"y":2579889.8500000015}},{"attributes":{"ID":96783,"DIS_CODE":0,"TOWNNAME":"新營區","LI":"鐵線里","LIN":"5鄰","STREET":" ","SECT":" ","MAREA":"鐵線橋","LANE":" ","ALLEY":" ","HOUSE_NO":"５６之１號","E_COORD97":176009.82999999999,"N_COORD97":2573590.8900000001,"ADDRESS":"鐵線橋５６之１號","OBJECTID":96783},"geometry":{"x":176009.83000000101,"y":2573590.8900000025}},{"attributes":{"ID":96784,"DIS_CODE":0,"TOWNNAME":"善化區","LI":"小新里","LIN":"15鄰","STREET":" ","SECT":" ","MAREA":"小新營","LANE":" ","ALLEY":" ","HOUSE_NO":"１１２號之２","E_COORD97":179812.64999999999,"N_COORD97":2558100.02,"ADDRESS":"小新營１１２號之２","OBJECTID":96784},"geometry":{"x":179812.65000000037,"y":2558100.0199999996}},{"attributes":{"ID":96785,"DIS_CODE":0,"TOWNNAME":"善化區","LI":"小新里","LIN":"15鄰","STREET":" ","SECT":" ","MAREA":"小新營","LANE":" ","ALLEY":" ","HOUSE_NO":"１１３之３６號","E_COORD97":179827.67999999999,"N_COORD97":2557992.27,"ADDRESS":"小新營１１３之３６號","OBJECTID":96785},"geometry":{"x":179827.68000000063,"y":2557992.2699999996}},{"attributes":{"ID":96786,"DIS_CODE":0,"TOWNNAME":"善化區","LI":"小新里","LIN":"15鄰","STREET":" ","SECT":" ","MAREA":"小新營","LANE":" ","ALLEY":" ","HOUSE_NO":"１１３號之１","E_COORD97":179848.73000000001,"N_COORD97":2558079.52,"ADDRESS":"小新營１１３號之１","OBJECTID":96786},"geometry":{"x":179848.73000000138,"y":2558079.5199999996}},{"attributes":{"ID":96787,"DIS_CODE":0,"TOWNNAME":"善化區","LI":"小新里","LIN":"15鄰","STREET":" ","SECT":" ","MAREA":"小新營","LANE":" ","ALLEY":" ","HOUSE_NO":"１４０號之１","E_COORD97":179906.94438199999,"N_COORD97":2558090.4823500002,"ADDRESS":"小新營１４０號之１","OBJECTID":96787},"geometry":{"x":179906.94438199978,"y":2558090.4823519997}},{"attributes":{"ID":96788,"DIS_CODE":0,"TOWNNAME":"南區","LI":"田寮里","LIN":"21鄰","STREET":"西門路","SECT":"一段","MAREA":" ","LANE":"２７９巷","ALLEY":"１６弄","HOUSE_NO":"２０號四樓","E_COORD97":167626.04999999999,"N_COORD97":2542048.5099999998,"ADDRESS":"西門路一段２７９巷１６弄２０號四樓","OBJECTID":96788},"geometry":{"x":167626.04999999981,"y":2542048.5100000016}},{"attributes":{"ID":96789,"DIS_CODE":0,"TOWNNAME":"南區","LI":"田寮里","LIN":"21鄰","STREET":"西門路","SECT":"一段","MAREA":" ","LANE":"２７９巷","ALLEY":"１６弄","HOUSE_NO":"２號一樓","E_COORD97":167661.82999999999,"N_COORD97":2541944.77,"ADDRESS":"西門路一段２７９巷１６弄２號一樓","OBJECTID":96789},"geometry":{"x":167661.82999999914,"y":2541944.7700000014}},{"attributes":{"ID":96790,"DIS_CODE":0,"TOWNNAME":"南區","LI":"田寮里","LIN":"21鄰","STREET":"西門路","SECT":"一段","MAREA":" ","LANE":"２７９巷","ALLEY":"１６弄","HOUSE_NO":"２號二樓","E_COORD97":167661.82999999999,"N_COORD97":2541944.77,"ADDRESS":"西門路一段２７９巷１６弄２號二樓","OBJECTID":96790},"geometry":{"x":167661.82999999914,"y":2541944.7700000014}},{"attributes":{"ID":96791,"DIS_CODE":0,"TOWNNAME":"南區","LI":"田寮里","LIN":"21鄰","STREET":"西門路","SECT":"一段","MAREA":" ","LANE":"２７９巷","ALLEY":"１６弄","HOUSE_NO":"２號三樓","E_COORD97":167661.82999999999,"N_COORD97":2541944.77,"ADDRESS":"西門路一段２７９巷１６弄２號三樓","OBJECTID":96791},"geometry":{"x":167661.82999999914,"y":2541944.7700000014}},{"attributes":{"ID":96792,"DIS_CODE":0,"TOWNNAME":"善化區","LI":"小新里","LIN":"15鄰","STREET":" ","SECT":" ","MAREA":"小新營","LANE":" ","ALLEY":" ","HOUSE_NO":"１１３號之５","E_COORD97":179842.244756,"N_COORD97":2558063.5310300002,"ADDRESS":"小新營１１３號之５","OBJECTID":96792},"geometry":{"x":179842.24475600105,"y":2558063.5310260002}},{"attributes":{"ID":96793,"DIS_CODE":0,"TOWNNAME":"南區","LI":"田寮里","LIN":"21鄰","STREET":"西門路","SECT":"一段","MAREA":" ","LANE":"２７９巷","ALLEY":"１６弄","HOUSE_NO":"２號五樓","E_COORD97":167661.82999999999,"N_COORD97":2541944.77,"ADDRESS":"西門路一段２７９巷１６弄２號五樓","OBJECTID":96793},"geometry":{"x":167661.82999999914,"y":2541944.7700000014}},{"attributes":{"ID":96794,"DIS_CODE":0,"TOWNNAME":"南區","LI":"田寮里","LIN":"21鄰","STREET":"西門路","SECT":"一段","MAREA":" ","LANE":"２７９巷","ALLEY":"１６弄","HOUSE_NO":"２號四樓","E_COORD97":167661.82999999999,"N_COORD97":2541944.77,"ADDRESS":"西門路一段２７９巷１６弄２號四樓","OBJECTID":96794},"geometry":{"x":167661.82999999914,"y":2541944.7700000014}},{"attributes":{"ID":96795,"DIS_CODE":0,"TOWNNAME":"南區","LI":"田寮里","LIN":"21鄰","STREET":"西門路","SECT":"一段","MAREA":" ","LANE":"２７９巷","ALLEY":"１６弄","HOUSE_NO":"４號二樓","E_COORD97":167659.59,"N_COORD97":2541955.6099999999,"ADDRESS":"西門路一段２７９巷１６弄４號二樓","OBJECTID":96795},"geometry":{"x":167659.58999999985,"y":2541955.6100000013}},{"attributes":{"ID":96796,"DIS_CODE":0,"TOWNNAME":"南區","LI":"田寮里","LIN":"21鄰","STREET":"西門路","SECT":"一段","MAREA":" ","LANE":"２７９巷","ALLEY":"１６弄","HOUSE_NO":"４號三樓","E_COORD97":167659.59,"N_COORD97":2541955.6099999999,"ADDRESS":"西門路一段２７９巷１６弄４號三樓","OBJECTID":96796},"geometry":{"x":167659.58999999985,"y":2541955.6100000013}},{"attributes":{"ID":96797,"DIS_CODE":0,"TOWNNAME":"南區","LI":"田寮里","LIN":"21鄰","STREET":"西門路","SECT":"一段","MAREA":" ","LANE":"２７９巷","ALLEY":"１６弄","HOUSE_NO":"４號五樓","E_COORD97":167659.59,"N_COORD97":2541955.6099999999,"ADDRESS":"西門路一段２７９巷１６弄４號五樓","OBJECTID":96797},"geometry":{"x":167659.58999999985,"y":2541955.6100000013}},{"attributes":{"ID":96798,"DIS_CODE":0,"TOWNNAME":"南區","LI":"田寮里","LIN":"21鄰","STREET":"西門路","SECT":"一段","MAREA":" ","LANE":"２７９巷","ALLEY":"１６弄","HOUSE_NO":"４號四樓","E_COORD97":167659.59,"N_COORD97":2541955.6099999999,"ADDRESS":"西門路一段２７９巷１６弄４號四樓","OBJECTID":96798},"geometry":{"x":167659.58999999985,"y":2541955.6100000013}},{"attributes":{"ID":96799,"DIS_CODE":0,"TOWNNAME":"南區","LI":"田寮里","LIN":"21鄰","STREET":"西門路","SECT":"一段","MAREA":" ","LANE":"２７９巷","ALLEY":"１６弄","HOUSE_NO":"６號二樓","E_COORD97":167656.59,"N_COORD97":2541969.6299999999,"ADDRESS":"西門路一段２７９巷１６弄６號二樓","OBJECTID":96799},"geometry":{"x":167656.59000000171,"y":2541969.629999999}},{"attributes":{"ID":96800,"DIS_CODE":0,"TOWNNAME":"南區","LI":"田寮里","LIN":"21鄰","STREET":"西門路","SECT":"一段","MAREA":" ","LANE":"２７９巷","ALLEY":"１６弄","HOUSE_NO":"６號三樓","E_COORD97":167656.59,"N_COORD97":2541969.6299999999,"ADDRESS":"西門路一段２７９巷１６弄６號三樓","OBJECTID":96800},"geometry":{"x":167656.59000000171,"y":2541969.629999999}}]}