{"displayFieldName":"TOWNNAME","fieldAliases":{"ID":"ID","DIS_CODE":"DIS_CODE","TOWNNAME":"TOWNNAME","LI":"LI","LIN":"LIN","STREET":"STREET","SECT":"SECT","MAREA":"MAREA","LANE":"LANE","ALLEY":"ALLEY","HOUSE_NO":"HOUSE_NO","E_COORD97":"E_COORD97","N_COORD97":"N_COORD97","ADDRESS":"ADDRESS","OBJECTID":"OBJECTID"},"geometryType":"esriGeometryPoint","spatialReference":{"wkid":102443,"latestWkid":3826},"fields":[{"name":"ID","type":"esriFieldTypeDouble","alias":"ID"},{"name":"DIS_CODE","type":"esriFieldTypeInteger","alias":"DIS_CODE"},{"name":"TOWNNAME","type":"esriFieldTypeString","alias":"TOWNNAME","length":8},{"name":"LI","type":"esriFieldTypeString","alias":"LI","length":8},{"name":"LIN","type":"esriFieldTypeString","alias":"LIN","length":12},{"name":"STREET","type":"esriFieldTypeString","alias":"STREET","length":20},{"name":"SECT","type":"esriFieldTypeString","alias":"SECT","length":8},{"name":"MAREA","type":"esriFieldTypeString","alias":"MAREA","length":12},{"name":"LANE","type":"esriFieldTypeString","alias":"LANE","length":10},{"name":"ALLEY","type":"esriFieldTypeString","alias":"ALLEY","length":10},{"name":"HOUSE_NO","type":"esriFieldTypeString","alias":"HOUSE_NO","length":20},{"name":"E_COORD97","type":"esriFieldTypeDouble","alias":"E_COORD97"},{"name":"N_COORD97","type":"esriFieldTypeDouble","alias":"N_COORD97"},{"name":"ADDRESS","type":"esriFieldTypeString","alias":"ADDRESS","length":50},{"name":"OBJECTID","type":"esriFieldTypeOID","alias":"OBJECTID"}],"features":[{"attributes":{"ID":607428,"DIS_CODE":0,"TOWNNAME":"鹽水區","LI":"水正里","LIN":"3鄰","STREET":"中正路","SECT":" ","MAREA":" ","LANE":" ","ALLEY":" ","HOUSE_NO":"９號","E_COORD97":175142.76999999999,"N_COORD97":2579956.9100000001,"ADDRESS":"中正路９號","OBJECTID":607401},"geometry":{"x":175142.77000000048,"y":2579956.910000002}},{"attributes":{"ID":607429,"DIS_CODE":0,"TOWNNAME":"關廟區","LI":"北花里","LIN":"3鄰","STREET":"花園二街","SECT":" ","MAREA":" ","LANE":" ","ALLEY":" ","HOUSE_NO":"５０號","E_COORD97":182091.23999999999,"N_COORD97":2540303.25,"ADDRESS":"花園二街５０號","OBJECTID":607402},"geometry":{"x":182091.24000000115,"y":2540303.2500000037}},{"attributes":{"ID":607430,"DIS_CODE":0,"TOWNNAME":"關廟區","LI":"北花里","LIN":"3鄰","STREET":"中正路","SECT":" ","MAREA":" ","LANE":" ","ALLEY":" ","HOUSE_NO":"６５９號","E_COORD97":182040.85999999999,"N_COORD97":2540367.25,"ADDRESS":"中正路６５９號","OBJECTID":607403},"geometry":{"x":182040.86000000127,"y":2540367.25}},{"attributes":{"ID":607431,"DIS_CODE":0,"TOWNNAME":"關廟區","LI":"北花里","LIN":"3鄰","STREET":"花園二街","SECT":" ","MAREA":" ","LANE":" ","ALLEY":" ","HOUSE_NO":"５２號","E_COORD97":182086.64000000001,"N_COORD97":2540305.25,"ADDRESS":"花園二街５２號","OBJECTID":607404},"geometry":{"x":182086.63999999966,"y":2540305.25}},{"attributes":{"ID":607432,"DIS_CODE":0,"TOWNNAME":"關廟區","LI":"山西里","LIN":"3鄰","STREET":"文衡路","SECT":" ","MAREA":" ","LANE":" ","ALLEY":" ","HOUSE_NO":"７８號","E_COORD97":180910.39000000001,"N_COORD97":2540228.3300000001,"ADDRESS":"文衡路７８號","OBJECTID":607405},"geometry":{"x":180910.38999999966,"y":2540228.3300000038}},{"attributes":{"ID":607433,"DIS_CODE":0,"TOWNNAME":"關廟區","LI":"下湖里","LIN":"3鄰","STREET":"關新路","SECT":"一段","MAREA":" ","LANE":" ","ALLEY":" ","HOUSE_NO":"４４６號","E_COORD97":179300.04000000001,"N_COORD97":2543007.25,"ADDRESS":"關新路一段４４６號","OBJECTID":607406},"geometry":{"x":179300.04000000097,"y":2543007.25}},{"attributes":{"ID":607434,"DIS_CODE":0,"TOWNNAME":"關廟區","LI":"山西里","LIN":"3鄰","STREET":"興中街","SECT":" ","MAREA":" ","LANE":" ","ALLEY":" ","HOUSE_NO":"１２號","E_COORD97":180950.42000000001,"N_COORD97":2540268.25,"ADDRESS":"興中街１２號","OBJECTID":607407},"geometry":{"x":180950.42000000086,"y":2540268.25}},{"attributes":{"ID":607435,"DIS_CODE":0,"TOWNNAME":"關廟區","LI":"山西里","LIN":"3鄰","STREET":"慶中街","SECT":" ","MAREA":" ","LANE":" ","ALLEY":" ","HOUSE_NO":"１號","E_COORD97":180963.37,"N_COORD97":2540287.2999999998,"ADDRESS":"慶中街１號","OBJECTID":607408},"geometry":{"x":180963.37000000011,"y":2540287.3000000026}},{"attributes":{"ID":607436,"DIS_CODE":0,"TOWNNAME":"關廟區","LI":"山西里","LIN":"3鄰","STREET":"興中街","SECT":" ","MAREA":" ","LANE":" ","ALLEY":" ","HOUSE_NO":"２１號","E_COORD97":180928.92000000001,"N_COORD97":2540256.25,"ADDRESS":"興中街２１號","OBJECTID":607409},"geometry":{"x":180928.91999999993,"y":2540256.2500000019}},{"attributes":{"ID":607437,"DIS_CODE":0,"TOWNNAME":"關廟區","LI":"山西里","LIN":"3鄰","STREET":"興中街","SECT":" ","MAREA":" ","LANE":" ","ALLEY":" ","HOUSE_NO":"２０號","E_COORD97":180934.62,"N_COORD97":2540269.25,"ADDRESS":"興中街２０號","OBJECTID":607410},"geometry":{"x":180934.62000000011,"y":2540269.2499999981}},{"attributes":{"ID":607438,"DIS_CODE":0,"TOWNNAME":"關廟區","LI":"山西里","LIN":"3鄰","STREET":"慶中街","SECT":" ","MAREA":" ","LANE":" ","ALLEY":" ","HOUSE_NO":"３號","E_COORD97":180964.47,"N_COORD97":2540292.2999999998,"ADDRESS":"慶中街３號","OBJECTID":607411},"geometry":{"x":180964.4700000016,"y":2540292.3000000007}},{"attributes":{"ID":607439,"DIS_CODE":0,"TOWNNAME":"關廟區","LI":"山西里","LIN":"3鄰","STREET":"興中街","SECT":" ","MAREA":" ","LANE":" ","ALLEY":" ","HOUSE_NO":"１９號","E_COORD97":180937.72,"N_COORD97":2540255.25,"ADDRESS":"興中街１９號","OBJECTID":607412},"geometry":{"x":180937.72000000067,"y":2540255.25}},{"attributes":{"ID":607440,"DIS_CODE":0,"TOWNNAME":"關廟區","LI":"山西里","LIN":"3鄰","STREET":"慶中街","SECT":" ","MAREA":" ","LANE":" ","ALLEY":" ","HOUSE_NO":"５號","E_COORD97":180965.67000000001,"N_COORD97":2540297.2999999998,"ADDRESS":"慶中街５號","OBJECTID":607413},"geometry":{"x":180965.67000000086,"y":2540297.3000000026}},{"attributes":{"ID":607441,"DIS_CODE":0,"TOWNNAME":"關廟區","LI":"五甲里","LIN":"3鄰","STREET":"南雄路","SECT":"一段","MAREA":" ","LANE":" ","ALLEY":" ","HOUSE_NO":"８００號","E_COORD97":181424.29000000001,"N_COORD97":2539072.2799999998,"ADDRESS":"南雄路一段８００號","OBJECTID":607414},"geometry":{"x":181424.29000000097,"y":2539072.2800000012}},{"attributes":{"ID":607442,"DIS_CODE":0,"TOWNNAME":"關廟區","LI":"山西里","LIN":"3鄰","STREET":"文衡路","SECT":" ","MAREA":" ","LANE":" ","ALLEY":" ","HOUSE_NO":"１１２號","E_COORD97":180918.54000000001,"N_COORD97":2540302.3300000001,"ADDRESS":"文衡路１１２號","OBJECTID":607415},"geometry":{"x":180918.5400000019,"y":2540302.3300000001}},{"attributes":{"ID":607443,"DIS_CODE":0,"TOWNNAME":"關廟區","LI":"五甲里","LIN":"3鄰","STREET":"旺萊路","SECT":" ","MAREA":" ","LANE":" ","ALLEY":" ","HOUSE_NO":"４５號","E_COORD97":181513.79000000001,"N_COORD97":2539170.25,"ADDRESS":"旺萊路４５號","OBJECTID":607416},"geometry":{"x":181513.79000000097,"y":2539170.25}},{"attributes":{"ID":607444,"DIS_CODE":0,"TOWNNAME":"關廟區","LI":"五甲里","LIN":"3鄰","STREET":"旺萊路","SECT":" ","MAREA":" ","LANE":" ","ALLEY":" ","HOUSE_NO":"６３號","E_COORD97":181556.39000000001,"N_COORD97":2539196.25,"ADDRESS":"旺萊路６３號","OBJECTID":607417},"geometry":{"x":181556.38999999966,"y":2539196.2500000019}},{"attributes":{"ID":607445,"DIS_CODE":0,"TOWNNAME":"關廟區","LI":"布袋里","LIN":"3鄰","STREET":"長文街","SECT":" ","MAREA":" ","LANE":" ","ALLEY":" ","HOUSE_NO":"７０號","E_COORD97":182977.09,"N_COORD97":2535481.25,"ADDRESS":"長文街７０號","OBJECTID":607418},"geometry":{"x":182977.08999999985,"y":2535481.25}},{"attributes":{"ID":607446,"DIS_CODE":0,"TOWNNAME":"關廟區","LI":"北勢里","LIN":"3鄰","STREET":"中正路","SECT":" ","MAREA":" ","LANE":" ","ALLEY":" ","HOUSE_NO":"８１０號","E_COORD97":181417.85999999999,"N_COORD97":2540247.25,"ADDRESS":"中正路８１０號","OBJECTID":607419},"geometry":{"x":181417.86000000034,"y":2540247.2500000019}},{"attributes":{"ID":607447,"DIS_CODE":0,"TOWNNAME":"關廟區","LI":"北勢里","LIN":"3鄰","STREET":"中正路","SECT":" ","MAREA":" ","LANE":" ","ALLEY":" ","HOUSE_NO":"８３６號","E_COORD97":181382.56,"N_COORD97":2540226.25,"ADDRESS":"中正路８３６號","OBJECTID":607420},"geometry":{"x":181382.56000000052,"y":2540226.2500000019}},{"attributes":{"ID":607448,"DIS_CODE":0,"TOWNNAME":"關廟區","LI":"五甲里","LIN":"3鄰","STREET":"光復街","SECT":" ","MAREA":" ","LANE":" ","ALLEY":" ","HOUSE_NO":"３２號","E_COORD97":181468.19,"N_COORD97":2539194.2799999998,"ADDRESS":"光復街３２號","OBJECTID":607421},"geometry":{"x":181468.19000000041,"y":2539194.2800000012}},{"attributes":{"ID":607449,"DIS_CODE":0,"TOWNNAME":"關廟區","LI":"布袋里","LIN":"3鄰","STREET":"長文街","SECT":" ","MAREA":" ","LANE":" ","ALLEY":" ","HOUSE_NO":"５８號","E_COORD97":182997.39000000001,"N_COORD97":2535494.25,"ADDRESS":"長文街５８號","OBJECTID":607422},"geometry":{"x":182997.39000000153,"y":2535494.25}},{"attributes":{"ID":607450,"DIS_CODE":0,"TOWNNAME":"關廟區","LI":"布袋里","LIN":"3鄰","STREET":"長文街","SECT":" ","MAREA":" ","LANE":" ","ALLEY":" ","HOUSE_NO":"７６號","E_COORD97":182968.19,"N_COORD97":2535476.2400000002,"ADDRESS":"長文街７６號","OBJECTID":607423},"geometry":{"x":182968.19000000134,"y":2535476.2400000021}},{"attributes":{"ID":607451,"DIS_CODE":0,"TOWNNAME":"關廟區","LI":"五甲里","LIN":"3鄰","STREET":"光復街","SECT":" ","MAREA":" ","LANE":" ","ALLEY":" ","HOUSE_NO":"２號","E_COORD97":181402.84,"N_COORD97":2539156.2799999998,"ADDRESS":"光復街２號","OBJECTID":607424},"geometry":{"x":181402.84000000171,"y":2539156.2799999975}},{"attributes":{"ID":607452,"DIS_CODE":0,"TOWNNAME":"關廟區","LI":"布袋里","LIN":"3鄰","STREET":"長文街","SECT":" ","MAREA":" ","LANE":" ","ALLEY":" ","HOUSE_NO":"６６號","E_COORD97":182984.69,"N_COORD97":2535486.25,"ADDRESS":"長文街６６號","OBJECTID":607425},"geometry":{"x":182984.69000000134,"y":2535486.2500000019}},{"attributes":{"ID":607453,"DIS_CODE":0,"TOWNNAME":"關廟區","LI":"五甲里","LIN":"3鄰","STREET":"光復街","SECT":" ","MAREA":" ","LANE":" ","ALLEY":" ","HOUSE_NO":"２８號","E_COORD97":181459.69,"N_COORD97":2539190.2799999998,"ADDRESS":"光復街２８號","OBJECTID":607426},"geometry":{"x":181459.69000000041,"y":2539190.2800000031}},{"attributes":{"ID":607454,"DIS_CODE":0,"TOWNNAME":"關廟區","LI":"布袋里","LIN":"3鄰","STREET":"南雄南路","SECT":" ","MAREA":" ","LANE":" ","ALLEY":" ","HOUSE_NO":"１３１號","E_COORD97":183067.48999999999,"N_COORD97":2535690.2999999998,"ADDRESS":"南雄南路１３１號","OBJECTID":607427},"geometry":{"x":183067.49000000115,"y":2535690.3000000026}},{"attributes":{"ID":607455,"DIS_CODE":0,"TOWNNAME":"關廟區","LI":"布袋里","LIN":"3鄰","STREET":"南雄南路","SECT":" ","MAREA":" ","LANE":" ","ALLEY":" ","HOUSE_NO":"１２７號","E_COORD97":183060.64000000001,"N_COORD97":2535703.2999999998,"ADDRESS":"南雄南路１２７號","OBJECTID":607428},"geometry":{"x":183060.6400000006,"y":2535703.3000000026}},{"attributes":{"ID":607456,"DIS_CODE":0,"TOWNNAME":"關廟區","LI":"布袋里","LIN":"3鄰","STREET":"南雄南路","SECT":" ","MAREA":" ","LANE":" ","ALLEY":" ","HOUSE_NO":"１２１號","E_COORD97":183045.98999999999,"N_COORD97":2535720.2999999998,"ADDRESS":"南雄南路１２１號","OBJECTID":607429},"geometry":{"x":183045.99000000022,"y":2535720.3000000026}},{"attributes":{"ID":607457,"DIS_CODE":0,"TOWNNAME":"關廟區","LI":"北勢里","LIN":"3鄰","STREET":"仁愛路","SECT":" ","MAREA":" ","LANE":" ","ALLEY":" ","HOUSE_NO":"１２６號","E_COORD97":181361.19,"N_COORD97":2540320.2799999998,"ADDRESS":"仁愛路１２６號","OBJECTID":607430},"geometry":{"x":181361.19000000041,"y":2540320.2800000012}},{"attributes":{"ID":607458,"DIS_CODE":0,"TOWNNAME":"關廟區","LI":"北勢里","LIN":"3鄰","STREET":"仁愛路","SECT":" ","MAREA":" ","LANE":" ","ALLEY":" ","HOUSE_NO":"１０２號","E_COORD97":181342.79000000001,"N_COORD97":2540273.2799999998,"ADDRESS":"仁愛路１０２號","OBJECTID":607431},"geometry":{"x":181342.79000000097,"y":2540273.2800000012}},{"attributes":{"ID":607459,"DIS_CODE":0,"TOWNNAME":"關廟區","LI":"北花里","LIN":"3鄰","STREET":"中正路","SECT":" ","MAREA":" ","LANE":" ","ALLEY":" ","HOUSE_NO":"６３７號","E_COORD97":182110.35999999999,"N_COORD97":2540372.25,"ADDRESS":"中正路６３７號","OBJECTID":607432},"geometry":{"x":182110.36000000127,"y":2540372.2500000019}},{"attributes":{"ID":607460,"DIS_CODE":0,"TOWNNAME":"關廟區","LI":"五甲里","LIN":"3鄰","STREET":"光復街","SECT":" ","MAREA":" ","LANE":" ","ALLEY":" ","HOUSE_NO":"３０號","E_COORD97":181464.29000000001,"N_COORD97":2539192.2799999998,"ADDRESS":"光復街３０號","OBJECTID":607433},"geometry":{"x":181464.28999999911,"y":2539192.2799999993}},{"attributes":{"ID":607461,"DIS_CODE":0,"TOWNNAME":"關廟區","LI":"北勢里","LIN":"3鄰","STREET":"中正路","SECT":" ","MAREA":" ","LANE":" ","ALLEY":" ","HOUSE_NO":"８６０號","E_COORD97":181342.66,"N_COORD97":2540238.25,"ADDRESS":"中正路８６０號","OBJECTID":607434},"geometry":{"x":181342.66000000015,"y":2540238.25}},{"attributes":{"ID":607462,"DIS_CODE":0,"TOWNNAME":"關廟區","LI":"五甲里","LIN":"3鄰","STREET":"光復街","SECT":" ","MAREA":" ","LANE":" ","ALLEY":" ","HOUSE_NO":"１６號","E_COORD97":181443.98999999999,"N_COORD97":2539187.2799999998,"ADDRESS":"光復街１６號","OBJECTID":607435},"geometry":{"x":181443.99000000022,"y":2539187.2800000012}},{"attributes":{"ID":607463,"DIS_CODE":0,"TOWNNAME":"關廟區","LI":"北勢里","LIN":"3鄰","STREET":"中正路","SECT":" ","MAREA":" ","LANE":" ","ALLEY":" ","HOUSE_NO":"８３８號","E_COORD97":181378.35999999999,"N_COORD97":2540227.25,"ADDRESS":"中正路８３８號","OBJECTID":607436},"geometry":{"x":181378.36000000127,"y":2540227.25}},{"attributes":{"ID":607464,"DIS_CODE":0,"TOWNNAME":"關廟區","LI":"布袋里","LIN":"3鄰","STREET":"長文街","SECT":" ","MAREA":" ","LANE":" ","ALLEY":" ","HOUSE_NO":"５０號","E_COORD97":183009.69,"N_COORD97":2535502.25,"ADDRESS":"長文街５０號","OBJECTID":607437},"geometry":{"x":183009.69000000227,"y":2535502.25}},{"attributes":{"ID":607465,"DIS_CODE":0,"TOWNNAME":"關廟區","LI":"五甲里","LIN":"3鄰","STREET":"光復街","SECT":" ","MAREA":" ","LANE":" ","ALLEY":" ","HOUSE_NO":"１８號","E_COORD97":181447.79000000001,"N_COORD97":2539189.2799999998,"ADDRESS":"光復街１８號","OBJECTID":607438},"geometry":{"x":181447.79000000097,"y":2539189.2799999993}},{"attributes":{"ID":607466,"DIS_CODE":0,"TOWNNAME":"關廟區","LI":"布袋里","LIN":"3鄰","STREET":"南雄南路","SECT":" ","MAREA":" ","LANE":" ","ALLEY":" ","HOUSE_NO":"１１５號","E_COORD97":183039.39000000001,"N_COORD97":2535735.2999999998,"ADDRESS":"南雄南路１１５號","OBJECTID":607439},"geometry":{"x":183039.38999999966,"y":2535735.3000000007}},{"attributes":{"ID":607467,"DIS_CODE":0,"TOWNNAME":"關廟區","LI":"五甲里","LIN":"3鄰","STREET":"光復街","SECT":" ","MAREA":" ","LANE":" ","ALLEY":" ","HOUSE_NO":"１２號","E_COORD97":181439.79000000001,"N_COORD97":2539185.2799999998,"ADDRESS":"光復街１２號","OBJECTID":607440},"geometry":{"x":181439.79000000004,"y":2539185.2799999993}},{"attributes":{"ID":607468,"DIS_CODE":0,"TOWNNAME":"關廟區","LI":"五甲里","LIN":"3鄰","STREET":"光復街","SECT":" ","MAREA":" ","LANE":" ","ALLEY":" ","HOUSE_NO":"７２號","E_COORD97":181520.69,"N_COORD97":2539280.2799999998,"ADDRESS":"光復街７２號","OBJECTID":607441},"geometry":{"x":181520.69000000041,"y":2539280.2799999993}},{"attributes":{"ID":607469,"DIS_CODE":0,"TOWNNAME":"關廟區","LI":"五甲里","LIN":"3鄰","STREET":"光復街","SECT":" ","MAREA":" ","LANE":" ","ALLEY":" ","HOUSE_NO":"８２號","E_COORD97":181519.59,"N_COORD97":2539310.2799999998,"ADDRESS":"光復街８２號","OBJECTID":607442},"geometry":{"x":181519.58999999985,"y":2539310.2800000012}},{"attributes":{"ID":607470,"DIS_CODE":0,"TOWNNAME":"關廟區","LI":"北花里","LIN":"3鄰","STREET":"花園二街","SECT":" ","MAREA":" ","LANE":" ","ALLEY":" ","HOUSE_NO":"６號","E_COORD97":182196.69,"N_COORD97":2540281.25,"ADDRESS":"花園二街６號","OBJECTID":607443},"geometry":{"x":182196.69000000134,"y":2540281.2500000019}},{"attributes":{"ID":607471,"DIS_CODE":0,"TOWNNAME":"關廟區","LI":"香洋里","LIN":"3鄰","STREET":"忠孝街","SECT":" ","MAREA":" ","LANE":" ","ALLEY":" ","HOUSE_NO":"１５２號","E_COORD97":181076.73999999999,"N_COORD97":2540411.25,"ADDRESS":"忠孝街１５２號","OBJECTID":607444},"geometry":{"x":181076.74000000209,"y":2540411.25}},{"attributes":{"ID":607472,"DIS_CODE":0,"TOWNNAME":"白河區","LI":"永安里","LIN":"16鄰","STREET":"四維街","SECT":" ","MAREA":" ","LANE":" ","ALLEY":" ","HOUSE_NO":"９１號","E_COORD97":189994.70999999999,"N_COORD97":2583383.6299999999,"ADDRESS":"四維街９１號","OBJECTID":607445},"geometry":{"x":189994.70999999996,"y":2583383.629999999}},{"attributes":{"ID":607473,"DIS_CODE":0,"TOWNNAME":"白河區","LI":"永安里","LIN":"16鄰","STREET":"四維街","SECT":" ","MAREA":" ","LANE":" ","ALLEY":" ","HOUSE_NO":"９３號","E_COORD97":189994.60999999999,"N_COORD97":2583387.79,"ADDRESS":"四維街９３號","OBJECTID":607446},"geometry":{"x":189994.61000000127,"y":2583387.790000001}},{"attributes":{"ID":607474,"DIS_CODE":0,"TOWNNAME":"白河區","LI":"永安里","LIN":"16鄰","STREET":"四維街","SECT":" ","MAREA":" ","LANE":" ","ALLEY":" ","HOUSE_NO":"９５號","E_COORD97":189995.04999999999,"N_COORD97":2583391.9399999999,"ADDRESS":"四維街９５號","OBJECTID":607447},"geometry":{"x":189995.05000000075,"y":2583391.9399999995}},{"attributes":{"ID":607475,"DIS_CODE":0,"TOWNNAME":"白河區","LI":"永安里","LIN":"16鄰","STREET":"四維街","SECT":" ","MAREA":" ","LANE":" ","ALLEY":" ","HOUSE_NO":"９號","E_COORD97":190031.22,"N_COORD97":2583190.6699999999,"ADDRESS":"四維街９號","OBJECTID":607448},"geometry":{"x":190031.21999999974,"y":2583190.6699999999}},{"attributes":{"ID":607476,"DIS_CODE":0,"TOWNNAME":"關廟區","LI":"北花里","LIN":"3鄰","STREET":"花園二街","SECT":" ","MAREA":" ","LANE":" ","ALLEY":" ","HOUSE_NO":"８號","E_COORD97":182190.89000000001,"N_COORD97":2540282.25,"ADDRESS":"花園二街８號","OBJECTID":607449},"geometry":{"x":182190.8900000006,"y":2540282.25}},{"attributes":{"ID":607477,"DIS_CODE":0,"TOWNNAME":"關廟區","LI":"布袋里","LIN":"3鄰","STREET":"長文街","SECT":" ","MAREA":" ","LANE":" ","ALLEY":" ","HOUSE_NO":"１０６號","E_COORD97":182906.73999999999,"N_COORD97":2535448.25,"ADDRESS":"長文街１０６號","OBJECTID":607450},"geometry":{"x":182906.74000000022,"y":2535448.2500000037}},{"attributes":{"ID":607478,"DIS_CODE":0,"TOWNNAME":"關廟區","LI":"香洋里","LIN":"3鄰","STREET":"忠孝街","SECT":" ","MAREA":" ","LANE":" ","ALLEY":" ","HOUSE_NO":"１４２號","E_COORD97":181075.14000000001,"N_COORD97":2540388.25,"ADDRESS":"忠孝街１４２號","OBJECTID":607451},"geometry":{"x":181075.14000000153,"y":2540388.2500000037}},{"attributes":{"ID":607479,"DIS_CODE":0,"TOWNNAME":"鹽水區","LI":"三生里","LIN":"3鄰","STREET":"民生街","SECT":" ","MAREA":" ","LANE":" ","ALLEY":" ","HOUSE_NO":"１０號","E_COORD97":175110.67000000001,"N_COORD97":2580082.23,"ADDRESS":"民生街１０號","OBJECTID":607452},"geometry":{"x":175110.66999999993,"y":2580082.2300000004}},{"attributes":{"ID":607480,"DIS_CODE":0,"TOWNNAME":"關廟區","LI":"香洋里","LIN":"3鄰","STREET":"忠孝街","SECT":" ","MAREA":" ","LANE":" ","ALLEY":" ","HOUSE_NO":"２０６號","E_COORD97":181126.23999999999,"N_COORD97":2540536.25,"ADDRESS":"忠孝街２０６號","OBJECTID":607453},"geometry":{"x":181126.24000000115,"y":2540536.25}},{"attributes":{"ID":607481,"DIS_CODE":0,"TOWNNAME":"關廟區","LI":"北勢里","LIN":"3鄰","STREET":"北仁街","SECT":" ","MAREA":" ","LANE":" ","ALLEY":" ","HOUSE_NO":"９１號","E_COORD97":181409.44,"N_COORD97":2540321.25,"ADDRESS":"北仁街９１號","OBJECTID":607454},"geometry":{"x":181409.44000000227,"y":2540321.2500000019}},{"attributes":{"ID":607482,"DIS_CODE":0,"TOWNNAME":"關廟區","LI":"香洋里","LIN":"3鄰","STREET":"忠孝街","SECT":" ","MAREA":" ","LANE":" ","ALLEY":" ","HOUSE_NO":"１８８號","E_COORD97":181125.44,"N_COORD97":2540495.25,"ADDRESS":"忠孝街１８８號","OBJECTID":607455},"geometry":{"x":181125.44000000134,"y":2540495.25}},{"attributes":{"ID":607483,"DIS_CODE":0,"TOWNNAME":"關廟區","LI":"香洋里","LIN":"3鄰","STREET":"忠孝街","SECT":" ","MAREA":" ","LANE":" ","ALLEY":" ","HOUSE_NO":"１９６號","E_COORD97":181118.54000000001,"N_COORD97":2540518.25,"ADDRESS":"忠孝街１９６號","OBJECTID":607456},"geometry":{"x":181118.5400000019,"y":2540518.2500000019}},{"attributes":{"ID":607484,"DIS_CODE":0,"TOWNNAME":"關廟區","LI":"五甲里","LIN":"3鄰","STREET":"旺萊路","SECT":" ","MAREA":" ","LANE":" ","ALLEY":" ","HOUSE_NO":"６５號","E_COORD97":181561.79000000001,"N_COORD97":2539200.25,"ADDRESS":"旺萊路６５號","OBJECTID":607457},"geometry":{"x":181561.79000000097,"y":2539200.25}},{"attributes":{"ID":607485,"DIS_CODE":0,"TOWNNAME":"關廟區","LI":"五甲里","LIN":"3鄰","STREET":"旺萊路","SECT":" ","MAREA":" ","LANE":" ","ALLEY":" ","HOUSE_NO":"２６號","E_COORD97":181526.48999999999,"N_COORD97":2539140.25,"ADDRESS":"旺萊路２６號","OBJECTID":607458},"geometry":{"x":181526.49000000115,"y":2539140.2499999981}},{"attributes":{"ID":607486,"DIS_CODE":0,"TOWNNAME":"關廟區","LI":"北花里","LIN":"3鄰","STREET":"花園二街","SECT":" ","MAREA":" ","LANE":" ","ALLEY":" ","HOUSE_NO":"１００號","E_COORD97":181994.98999999999,"N_COORD97":2540324.25,"ADDRESS":"花園二街１００號","OBJECTID":607459},"geometry":{"x":181994.99000000022,"y":2540324.2500000019}},{"attributes":{"ID":607487,"DIS_CODE":0,"TOWNNAME":"關廟區","LI":"北勢里","LIN":"3鄰","STREET":"中正路","SECT":" ","MAREA":" ","LANE":" ","ALLEY":" ","HOUSE_NO":"８１２號","E_COORD97":181420.16,"N_COORD97":2540219.25,"ADDRESS":"中正路８１２號","OBJECTID":607460},"geometry":{"x":181420.16000000108,"y":2540219.2500000019}},{"attributes":{"ID":607488,"DIS_CODE":0,"TOWNNAME":"關廟區","LI":"布袋里","LIN":"3鄰","STREET":"長文街","SECT":" ","MAREA":" ","LANE":" ","ALLEY":" ","HOUSE_NO":"３８號","E_COORD97":183029.69,"N_COORD97":2535513.25,"ADDRESS":"長文街３８號","OBJECTID":607461},"geometry":{"x":183029.69000000041,"y":2535513.2500000019}},{"attributes":{"ID":607489,"DIS_CODE":0,"TOWNNAME":"關廟區","LI":"五甲里","LIN":"3鄰","STREET":"光復街","SECT":" ","MAREA":" ","LANE":" ","ALLEY":" ","HOUSE_NO":"７６號","E_COORD97":181520.69,"N_COORD97":2539292.2799999998,"ADDRESS":"光復街７６號","OBJECTID":607462},"geometry":{"x":181520.69000000041,"y":2539292.2800000031}},{"attributes":{"ID":607490,"DIS_CODE":0,"TOWNNAME":"關廟區","LI":"五甲里","LIN":"3鄰","STREET":"旺萊路","SECT":" ","MAREA":" ","LANE":" ","ALLEY":" ","HOUSE_NO":"５９號","E_COORD97":181547.19,"N_COORD97":2539190.25,"ADDRESS":"旺萊路５９號","OBJECTID":607463},"geometry":{"x":181547.19000000134,"y":2539190.25}},{"attributes":{"ID":607491,"DIS_CODE":0,"TOWNNAME":"北區","LI":"成德里","LIN":"3鄰","STREET":"西門路","SECT":"四段","MAREA":" ","LANE":" ","ALLEY":" ","HOUSE_NO":"３５號","E_COORD97":168632.45000000001,"N_COORD97":2545299.77,"ADDRESS":"西門路四段３５號","OBJECTID":607464},"geometry":{"x":168632.44999999925,"y":2545299.7699999996}},{"attributes":{"ID":607492,"DIS_CODE":0,"TOWNNAME":"北區","LI":"成德里","LIN":"3鄰","STREET":"西門路","SECT":"四段","MAREA":" ","LANE":" ","ALLEY":" ","HOUSE_NO":"３７號","E_COORD97":168634.67000000001,"N_COORD97":2545303.5299999998,"ADDRESS":"西門路四段３７號","OBJECTID":607465},"geometry":{"x":168634.67000000086,"y":2545303.5299999993}},{"attributes":{"ID":607493,"DIS_CODE":0,"TOWNNAME":"北區","LI":"成德里","LIN":"3鄰","STREET":"西門路","SECT":"四段","MAREA":" ","LANE":" ","ALLEY":" ","HOUSE_NO":"３９號","E_COORD97":168636.44,"N_COORD97":2545309.5099999998,"ADDRESS":"西門路四段３９號","OBJECTID":607466},"geometry":{"x":168636.44000000134,"y":2545309.5100000016}},{"attributes":{"ID":607494,"DIS_CODE":0,"TOWNNAME":"北區","LI":"成德里","LIN":"3鄰","STREET":"西門路","SECT":"四段","MAREA":" ","LANE":" ","ALLEY":" ","HOUSE_NO":"６１號","E_COORD97":168632.13,"N_COORD97":2545332.96,"ADDRESS":"西門路四段６１號","OBJECTID":607467},"geometry":{"x":168632.12999999989,"y":2545332.9600000009}},{"attributes":{"ID":607495,"DIS_CODE":0,"TOWNNAME":"北區","LI":"三德里","LIN":"3鄰","STREET":"裕民街","SECT":" ","MAREA":" ","LANE":" ","ALLEY":" ","HOUSE_NO":"１００號","E_COORD97":168484.51000000001,"N_COORD97":2544554.8799999999,"ADDRESS":"裕民街１００號","OBJECTID":607468},"geometry":{"x":168484.51000000071,"y":2544554.879999999}},{"attributes":{"ID":607496,"DIS_CODE":0,"TOWNNAME":"北區","LI":"玉皇里","LIN":"3鄰","STREET":"忠義路","SECT":"三段","MAREA":" ","LANE":" ","ALLEY":" ","HOUSE_NO":"５８號","E_COORD97":168564.35000000001,"N_COORD97":2544495.1600000001,"ADDRESS":"忠義路三段５８號","OBJECTID":607469},"geometry":{"x":168564.34999999963,"y":2544495.160000002}},{"attributes":{"ID":607497,"DIS_CODE":0,"TOWNNAME":"北區","LI":"玉皇里","LIN":"3鄰","STREET":"忠義路","SECT":"三段","MAREA":" ","LANE":" ","ALLEY":" ","HOUSE_NO":"６０號","E_COORD97":168568.12,"N_COORD97":2544504.48,"ADDRESS":"忠義路三段６０號","OBJECTID":607470},"geometry":{"x":168568.12000000011,"y":2544504.4800000023}},{"attributes":{"ID":607498,"DIS_CODE":0,"TOWNNAME":"北區","LI":"玉皇里","LIN":"3鄰","STREET":"忠義路","SECT":"三段","MAREA":" ","LANE":" ","ALLEY":" ","HOUSE_NO":"６２號","E_COORD97":168572.89000000001,"N_COORD97":2544517.6000000001,"ADDRESS":"忠義路三段６２號","OBJECTID":607471},"geometry":{"x":168572.88999999966,"y":2544517.5999999996}},{"attributes":{"ID":607499,"DIS_CODE":0,"TOWNNAME":"北區","LI":"玉皇里","LIN":"3鄰","STREET":"忠義路","SECT":"三段","MAREA":" ","LANE":" ","ALLEY":" ","HOUSE_NO":"６４號","E_COORD97":168575.10000000001,"N_COORD97":2544524,"ADDRESS":"忠義路三段６４號","OBJECTID":607472},"geometry":{"x":168575.10000000149,"y":2544524.0000000019}},{"attributes":{"ID":607500,"DIS_CODE":0,"TOWNNAME":"北區","LI":"玉皇里","LIN":"3鄰","STREET":"忠義路","SECT":"三段","MAREA":" ","LANE":" ","ALLEY":" ","HOUSE_NO":"６６號","E_COORD97":168577.23000000001,"N_COORD97":2544530.3300000001,"ADDRESS":"忠義路三段６６號","OBJECTID":607473},"geometry":{"x":168577.23000000138,"y":2544530.3300000001}},{"attributes":{"ID":607501,"DIS_CODE":0,"TOWNNAME":"北區","LI":"玉皇里","LIN":"3鄰","STREET":"忠義路","SECT":"三段","MAREA":" ","LANE":" ","ALLEY":" ","HOUSE_NO":"６８號","E_COORD97":168580.01000000001,"N_COORD97":2544536.0099999998,"ADDRESS":"忠義路三段６８號","OBJECTID":607474},"geometry":{"x":168580.00999999978,"y":2544536.0100000035}},{"attributes":{"ID":607502,"DIS_CODE":0,"TOWNNAME":"北區","LI":"玉皇里","LIN":"3鄰","STREET":"忠義路","SECT":"三段","MAREA":" ","LANE":" ","ALLEY":" ","HOUSE_NO":"７０號","E_COORD97":168583.5,"N_COORD97":2544543.73,"ADDRESS":"忠義路三段７０號","OBJECTID":607475},"geometry":{"x":168583.50000000093,"y":2544543.7300000004}},{"attributes":{"ID":607503,"DIS_CODE":0,"TOWNNAME":"北區","LI":"玉皇里","LIN":"3鄰","STREET":"忠義路","SECT":"三段","MAREA":" ","LANE":" ","ALLEY":" ","HOUSE_NO":"７２號","E_COORD97":168587.26999999999,"N_COORD97":2544547.2200000002,"ADDRESS":"忠義路三段７２號","OBJECTID":607476},"geometry":{"x":168587.27000000142,"y":2544547.2200000025}},{"attributes":{"ID":607504,"DIS_CODE":0,"TOWNNAME":"新營區","LI":"新東里","LIN":"3鄰","STREET":"東大街","SECT":" ","MAREA":" ","LANE":" ","ALLEY":" ","HOUSE_NO":"９號","E_COORD97":180988.94,"N_COORD97":2579067.5299999998,"ADDRESS":"東大街９號","OBJECTID":607477},"geometry":{"x":180988.94000000041,"y":2579067.5300000012}},{"attributes":{"ID":607505,"DIS_CODE":0,"TOWNNAME":"北區","LI":"玉皇里","LIN":"3鄰","STREET":"崇安街","SECT":" ","MAREA":" ","LANE":" ","ALLEY":" ","HOUSE_NO":"１１號","E_COORD97":168592.35000000001,"N_COORD97":2544513.3900000001,"ADDRESS":"崇安街１１號","OBJECTID":607478},"geometry":{"x":168592.35000000056,"y":2544513.3900000006}},{"attributes":{"ID":607506,"DIS_CODE":0,"TOWNNAME":"北區","LI":"玉皇里","LIN":"3鄰","STREET":"崇安街","SECT":" ","MAREA":" ","LANE":" ","ALLEY":" ","HOUSE_NO":"５號","E_COORD97":168580.94,"N_COORD97":2544503.3700000001,"ADDRESS":"崇安街５號","OBJECTID":607479},"geometry":{"x":168580.94000000134,"y":2544503.370000001}},{"attributes":{"ID":607507,"DIS_CODE":0,"TOWNNAME":"北區","LI":"玉皇里","LIN":"3鄰","STREET":"崇安街","SECT":" ","MAREA":" ","LANE":" ","ALLEY":" ","HOUSE_NO":"７號","E_COORD97":168584.38,"N_COORD97":2544506.3500000001,"ADDRESS":"崇安街７號","OBJECTID":607480},"geometry":{"x":168584.38000000082,"y":2544506.3500000034}},{"attributes":{"ID":607508,"DIS_CODE":0,"TOWNNAME":"北區","LI":"玉皇里","LIN":"3鄰","STREET":"崇安街","SECT":" ","MAREA":" ","LANE":" ","ALLEY":" ","HOUSE_NO":"９號","E_COORD97":168588.79000000001,"N_COORD97":2544508.7000000002,"ADDRESS":"崇安街９號","OBJECTID":607481},"geometry":{"x":168588.79000000004,"y":2544508.6999999993}},{"attributes":{"ID":607509,"DIS_CODE":0,"TOWNNAME":"北區","LI":"玉皇里","LIN":"3鄰","STREET":"北忠街","SECT":" ","MAREA":" ","LANE":" ","ALLEY":" ","HOUSE_NO":"１６２號","E_COORD97":168651,"N_COORD97":2544546.6499999999,"ADDRESS":"北忠街１６２號","OBJECTID":607482},"geometry":{"x":168651.00000000093,"y":2544546.6500000022}},{"attributes":{"ID":607510,"DIS_CODE":0,"TOWNNAME":"北區","LI":"玉皇里","LIN":"3鄰","STREET":"北忠街","SECT":" ","MAREA":" ","LANE":" ","ALLEY":" ","HOUSE_NO":"１６４號","E_COORD97":168643.10999999999,"N_COORD97":2544548.5299999998,"ADDRESS":"北忠街１６４號","OBJECTID":607483},"geometry":{"x":168643.11000000034,"y":2544548.5299999993}},{"attributes":{"ID":607511,"DIS_CODE":0,"TOWNNAME":"北區","LI":"玉皇里","LIN":"3鄰","STREET":"北忠街","SECT":" ","MAREA":" ","LANE":" ","ALLEY":" ","HOUSE_NO":"１６６號","E_COORD97":168633.54999999999,"N_COORD97":2544553.9199999999,"ADDRESS":"北忠街１６６號","OBJECTID":607484},"geometry":{"x":168633.55000000075,"y":2544553.9200000018}},{"attributes":{"ID":607512,"DIS_CODE":0,"TOWNNAME":"北區","LI":"玉皇里","LIN":"3鄰","STREET":"北忠街","SECT":" ","MAREA":" ","LANE":" ","ALLEY":" ","HOUSE_NO":"１７０號","E_COORD97":168620.85000000001,"N_COORD97":2544555.8700000001,"ADDRESS":"北忠街１７０號","OBJECTID":607485},"geometry":{"x":168620.85000000149,"y":2544555.8700000029}},{"attributes":{"ID":607513,"DIS_CODE":0,"TOWNNAME":"北區","LI":"玉皇里","LIN":"3鄰","STREET":"忠義路","SECT":"三段","MAREA":" ","LANE":" ","ALLEY":" ","HOUSE_NO":"７４號","E_COORD97":168593.03,"N_COORD97":2544549.4900000002,"ADDRESS":"忠義路三段７４號","OBJECTID":607486},"geometry":{"x":168593.03000000212,"y":2544549.4900000002}},{"attributes":{"ID":607514,"DIS_CODE":0,"TOWNNAME":"北區","LI":"玉皇里","LIN":"3鄰","STREET":"崇安街","SECT":" ","MAREA":" ","LANE":" ","ALLEY":" ","HOUSE_NO":"１５號","E_COORD97":168603.17000000001,"N_COORD97":2544514.6699999999,"ADDRESS":"崇安街１５號","OBJECTID":607487},"geometry":{"x":168603.16999999993,"y":2544514.6700000037}},{"attributes":{"ID":607515,"DIS_CODE":0,"TOWNNAME":"北區","LI":"玉皇里","LIN":"3鄰","STREET":"崇安街","SECT":" ","MAREA":" ","LANE":" ","ALLEY":" ","HOUSE_NO":"１７號","E_COORD97":168608.79000000001,"N_COORD97":2544516.6600000001,"ADDRESS":"崇安街１７號","OBJECTID":607488},"geometry":{"x":168608.79000000097,"y":2544516.6600000001}},{"attributes":{"ID":607516,"DIS_CODE":0,"TOWNNAME":"北區","LI":"玉皇里","LIN":"3鄰","STREET":"崇安街","SECT":" ","MAREA":" ","LANE":" ","ALLEY":" ","HOUSE_NO":"１９號","E_COORD97":168613.28,"N_COORD97":2544519.3599999999,"ADDRESS":"崇安街１９號","OBJECTID":607489},"geometry":{"x":168613.28000000026,"y":2544519.3599999975}},{"attributes":{"ID":607517,"DIS_CODE":0,"TOWNNAME":"北區","LI":"玉皇里","LIN":"3鄰","STREET":"崇安街","SECT":" ","MAREA":" ","LANE":" ","ALLEY":" ","HOUSE_NO":"２１號","E_COORD97":168617.54999999999,"N_COORD97":2544521.5699999998,"ADDRESS":"崇安街２１號","OBJECTID":607490},"geometry":{"x":168617.54999999981,"y":2544521.5700000003}},{"attributes":{"ID":607518,"DIS_CODE":0,"TOWNNAME":"北區","LI":"玉皇里","LIN":"3鄰","STREET":"崇安街","SECT":" ","MAREA":" ","LANE":" ","ALLEY":" ","HOUSE_NO":"２３號","E_COORD97":168621.75,"N_COORD97":2544523.1299999999,"ADDRESS":"崇安街２３號","OBJECTID":607491},"geometry":{"x":168621.74999999907,"y":2544523.129999999}},{"attributes":{"ID":607519,"DIS_CODE":0,"TOWNNAME":"北區","LI":"玉皇里","LIN":"3鄰","STREET":"崇安街","SECT":" ","MAREA":" ","LANE":" ","ALLEY":" ","HOUSE_NO":"２５號","E_COORD97":168625.41,"N_COORD97":2544527.1499999999,"ADDRESS":"崇安街２５號","OBJECTID":607492},"geometry":{"x":168625.41000000015,"y":2544527.1500000004}},{"attributes":{"ID":607520,"DIS_CODE":0,"TOWNNAME":"北區","LI":"玉皇里","LIN":"3鄰","STREET":"崇安街","SECT":" ","MAREA":" ","LANE":" ","ALLEY":" ","HOUSE_NO":"２７號","E_COORD97":168629.82000000001,"N_COORD97":2544527.8700000001,"ADDRESS":"崇安街２７號","OBJECTID":607493},"geometry":{"x":168629.8200000003,"y":2544527.8699999992}},{"attributes":{"ID":607521,"DIS_CODE":0,"TOWNNAME":"北區","LI":"玉皇里","LIN":"3鄰","STREET":"崇安街","SECT":" ","MAREA":" ","LANE":" ","ALLEY":" ","HOUSE_NO":"２９號","E_COORD97":168633.79999999999,"N_COORD97":2544529.8599999999,"ADDRESS":"崇安街２９號","OBJECTID":607494},"geometry":{"x":168633.80000000075,"y":2544529.8600000031}},{"attributes":{"ID":607522,"DIS_CODE":0,"TOWNNAME":"北區","LI":"玉皇里","LIN":"3鄰","STREET":"崇安街","SECT":" ","MAREA":" ","LANE":" ","ALLEY":" ","HOUSE_NO":"３１號","E_COORD97":168637.29000000001,"N_COORD97":2544532.1299999999,"ADDRESS":"崇安街３１號","OBJECTID":607495},"geometry":{"x":168637.29000000097,"y":2544532.1300000008}},{"attributes":{"ID":607523,"DIS_CODE":0,"TOWNNAME":"北區","LI":"玉皇里","LIN":"3鄰","STREET":"崇安街","SECT":" ","MAREA":" ","LANE":" ","ALLEY":" ","HOUSE_NO":"３３號","E_COORD97":168642.42000000001,"N_COORD97":2544535.1899999999,"ADDRESS":"崇安街３３號","OBJECTID":607496},"geometry":{"x":168642.41999999993,"y":2544535.1900000013}},{"attributes":{"ID":607524,"DIS_CODE":0,"TOWNNAME":"北區","LI":"大和里","LIN":"3鄰","STREET":"大興街","SECT":" ","MAREA":" ","LANE":" ","ALLEY":" ","HOUSE_NO":"７８號","E_COORD97":167175.10000000001,"N_COORD97":2545796.2799999998,"ADDRESS":"大興街７８號","OBJECTID":607497},"geometry":{"x":167175.10000000056,"y":2545796.2800000012}},{"attributes":{"ID":607525,"DIS_CODE":0,"TOWNNAME":"北區","LI":"大和里","LIN":"3鄰","STREET":"大興街","SECT":" ","MAREA":" ","LANE":" ","ALLEY":" ","HOUSE_NO":"８０號","E_COORD97":167170.48000000001,"N_COORD97":2545794.1400000001,"ADDRESS":"大興街８０號","OBJECTID":607498},"geometry":{"x":167170.48000000138,"y":2545794.1400000025}},{"attributes":{"ID":607526,"DIS_CODE":0,"TOWNNAME":"北區","LI":"大和里","LIN":"3鄰","STREET":"大興街","SECT":" ","MAREA":" ","LANE":" ","ALLEY":" ","HOUSE_NO":"８２號","E_COORD97":167165.79000000001,"N_COORD97":2545792.5299999998,"ADDRESS":"大興街８２號","OBJECTID":607499},"geometry":{"x":167165.79000000097,"y":2545792.5299999993}},{"attributes":{"ID":607527,"DIS_CODE":0,"TOWNNAME":"北區","LI":"大和里","LIN":"3鄰","STREET":"大興街","SECT":" ","MAREA":" ","LANE":" ","ALLEY":" ","HOUSE_NO":"８４號","E_COORD97":167161.44,"N_COORD97":2545791.25,"ADDRESS":"大興街８４號","OBJECTID":607500},"geometry":{"x":167161.44000000227,"y":2545791.25}},{"attributes":{"ID":607528,"DIS_CODE":0,"TOWNNAME":"北區","LI":"大和里","LIN":"3鄰","STREET":"大興街","SECT":" ","MAREA":" ","LANE":" ","ALLEY":" ","HOUSE_NO":"８６號","E_COORD97":167157.35000000001,"N_COORD97":2545789.5800000001,"ADDRESS":"大興街８６號","OBJECTID":607501},"geometry":{"x":167157.34999999963,"y":2545789.5800000001}},{"attributes":{"ID":607529,"DIS_CODE":0,"TOWNNAME":"北區","LI":"大和里","LIN":"3鄰","STREET":"大興街","SECT":" ","MAREA":" ","LANE":" ","ALLEY":" ","HOUSE_NO":"９２號","E_COORD97":167142.82000000001,"N_COORD97":2545785.8999999999,"ADDRESS":"大興街９２號","OBJECTID":607502},"geometry":{"x":167142.8200000003,"y":2545785.9000000022}},{"attributes":{"ID":607530,"DIS_CODE":0,"TOWNNAME":"北區","LI":"大和里","LIN":"3鄰","STREET":"大興街","SECT":" ","MAREA":" ","LANE":" ","ALLEY":" ","HOUSE_NO":"９４號","E_COORD97":167138,"N_COORD97":2545784.4900000002,"ADDRESS":"大興街９４號","OBJECTID":607503},"geometry":{"x":167138,"y":2545784.4900000021}},{"attributes":{"ID":607531,"DIS_CODE":0,"TOWNNAME":"麻豆區","LI":"大埕里","LIN":"3鄰","STREET":"復興街","SECT":" ","MAREA":" ","LANE":" ","ALLEY":" ","HOUSE_NO":"３０號","E_COORD97":173147.75,"N_COORD97":2564882.7200000002,"ADDRESS":"復興街３０號","OBJECTID":607504},"geometry":{"x":173147.75,"y":2564882.7200000025}},{"attributes":{"ID":607532,"DIS_CODE":0,"TOWNNAME":"麻豆區","LI":"大埕里","LIN":"3鄰","STREET":"復興街","SECT":" ","MAREA":" ","LANE":" ","ALLEY":" ","HOUSE_NO":"３４號","E_COORD97":173159.85000000001,"N_COORD97":2564928.77,"ADDRESS":"復興街３４號","OBJECTID":607505},"geometry":{"x":173159.84999999963,"y":2564928.7699999996}},{"attributes":{"ID":607533,"DIS_CODE":0,"TOWNNAME":"麻豆區","LI":"大埕里","LIN":"3鄰","STREET":"復興街","SECT":" ","MAREA":" ","LANE":" ","ALLEY":" ","HOUSE_NO":"３６號之１","E_COORD97":173139.85999999999,"N_COORD97":2564921.3500000001,"ADDRESS":"復興街３６號之１","OBJECTID":607506},"geometry":{"x":173139.86000000127,"y":2564921.3500000015}},{"attributes":{"ID":607534,"DIS_CODE":0,"TOWNNAME":"麻豆區","LI":"大埕里","LIN":"3鄰","STREET":"復興街","SECT":" ","MAREA":" ","LANE":" ","ALLEY":" ","HOUSE_NO":"３６號之２","E_COORD97":173135.53,"N_COORD97":2564921.3399999999,"ADDRESS":"復興街３６號之２","OBJECTID":607507},"geometry":{"x":173135.53000000026,"y":2564921.3400000017}},{"attributes":{"ID":607535,"DIS_CODE":0,"TOWNNAME":"麻豆區","LI":"大埕里","LIN":"3鄰","STREET":"復興街","SECT":" ","MAREA":" ","LANE":" ","ALLEY":" ","HOUSE_NO":"３６號之３","E_COORD97":173131.45000000001,"N_COORD97":2564921.21,"ADDRESS":"復興街３６號之３","OBJECTID":607508},"geometry":{"x":173131.44999999925,"y":2564921.2100000009}},{"attributes":{"ID":607536,"DIS_CODE":0,"TOWNNAME":"麻豆區","LI":"大埕里","LIN":"3鄰","STREET":"復興街","SECT":" ","MAREA":" ","LANE":" ","ALLEY":" ","HOUSE_NO":"３６號之４","E_COORD97":173127.75,"N_COORD97":2564921.0899999999,"ADDRESS":"復興街３６號之４","OBJECTID":607509},"geometry":{"x":173127.75000000186,"y":2564921.0899999999}},{"attributes":{"ID":607537,"DIS_CODE":0,"TOWNNAME":"麻豆區","LI":"大埕里","LIN":"3鄰","STREET":"復興街","SECT":" ","MAREA":" ","LANE":" ","ALLEY":" ","HOUSE_NO":"３６號之５","E_COORD97":173123.89999999999,"N_COORD97":2564921.0600000001,"ADDRESS":"復興街３６號之５","OBJECTID":607510},"geometry":{"x":173123.9000000013,"y":2564921.0600000005}},{"attributes":{"ID":607538,"DIS_CODE":0,"TOWNNAME":"麻豆區","LI":"大埕里","LIN":"3鄰","STREET":"復興街","SECT":" ","MAREA":" ","LANE":" ","ALLEY":" ","HOUSE_NO":"３６號","E_COORD97":173144.42000000001,"N_COORD97":2564920.8900000001,"ADDRESS":"復興街３６號","OBJECTID":607511},"geometry":{"x":173144.41999999993,"y":2564920.8900000025}},{"attributes":{"ID":607539,"DIS_CODE":0,"TOWNNAME":"麻豆區","LI":"大埕里","LIN":"3鄰","STREET":"復興街","SECT":" ","MAREA":" ","LANE":" ","ALLEY":" ","HOUSE_NO":"３８號","E_COORD97":173120.23999999999,"N_COORD97":2564921.0699999998,"ADDRESS":"復興街３８號","OBJECTID":607512},"geometry":{"x":173120.24000000115,"y":2564921.0700000003}},{"attributes":{"ID":607540,"DIS_CODE":0,"TOWNNAME":"麻豆區","LI":"大埕里","LIN":"3鄰","STREET":"復興街","SECT":" ","MAREA":" ","LANE":" ","ALLEY":" ","HOUSE_NO":"４０號","E_COORD97":173116.59,"N_COORD97":2564921.2799999998,"ADDRESS":"復興街４０號","OBJECTID":607513},"geometry":{"x":173116.58999999892,"y":2564921.2800000012}},{"attributes":{"ID":607541,"DIS_CODE":0,"TOWNNAME":"麻豆區","LI":"大埕里","LIN":"3鄰","STREET":"復興街","SECT":" ","MAREA":" ","LANE":" ","ALLEY":" ","HOUSE_NO":"４２號","E_COORD97":173113.32999999999,"N_COORD97":2564921.2999999998,"ADDRESS":"復興街４２號","OBJECTID":607514},"geometry":{"x":173113.33000000007,"y":2564921.3000000045}},{"attributes":{"ID":607542,"DIS_CODE":0,"TOWNNAME":"麻豆區","LI":"大埕里","LIN":"3鄰","STREET":"復興街","SECT":" ","MAREA":" ","LANE":" ","ALLEY":" ","HOUSE_NO":"４４號","E_COORD97":173109.28,"N_COORD97":2564921.4300000002,"ADDRESS":"復興街４４號","OBJECTID":607515},"geometry":{"x":173109.28000000119,"y":2564921.4299999997}},{"attributes":{"ID":607543,"DIS_CODE":0,"TOWNNAME":"麻豆區","LI":"興農里","LIN":"3鄰","STREET":"新生南路","SECT":" ","MAREA":" ","LANE":" ","ALLEY":" ","HOUSE_NO":"３７５號","E_COORD97":172493.78,"N_COORD97":2564059.7200000002,"ADDRESS":"新生南路３７５號","OBJECTID":607516},"geometry":{"x":172493.78000000212,"y":2564059.7200000007}},{"attributes":{"ID":607544,"DIS_CODE":0,"TOWNNAME":"麻豆區","LI":"興農里","LIN":"3鄰","STREET":"新生南路","SECT":" ","MAREA":" ","LANE":" ","ALLEY":" ","HOUSE_NO":"５３４號","E_COORD97":172628.84,"N_COORD97":2564007.02,"ADDRESS":"新生南路５３４號","OBJECTID":607517},"geometry":{"x":172628.84000000078,"y":2564007.0200000014}},{"attributes":{"ID":607545,"DIS_CODE":0,"TOWNNAME":"官田區","LI":"隆田里","LIN":"13鄰","STREET":"勝利路","SECT":" ","MAREA":" ","LANE":" ","ALLEY":" ","HOUSE_NO":"９９號","E_COORD97":180087.13,"N_COORD97":2566007.6200000001,"ADDRESS":"勝利路９９號","OBJECTID":607518},"geometry":{"x":180087.13000000175,"y":2566007.6200000048}},{"attributes":{"ID":607546,"DIS_CODE":0,"TOWNNAME":"官田區","LI":"二鎮里","LIN":"1鄰","STREET":"富強路","SECT":" ","MAREA":" ","LANE":" ","ALLEY":" ","HOUSE_NO":"１號","E_COORD97":181566.38,"N_COORD97":2567342.4399999999,"ADDRESS":"富強路１號","OBJECTID":607519},"geometry":{"x":181566.37999999989,"y":2567342.4399999995}},{"attributes":{"ID":607547,"DIS_CODE":0,"TOWNNAME":"歸仁區","LI":"歸南里","LIN":"3鄰","STREET":"民權南路","SECT":" ","MAREA":" ","LANE":" ","ALLEY":" ","HOUSE_NO":"２５２號","E_COORD97":176935.16,"N_COORD97":2540212.25,"ADDRESS":"民權南路２５２號","OBJECTID":607520},"geometry":{"x":176935.16000000015,"y":2540212.2500000019}},{"attributes":{"ID":607548,"DIS_CODE":0,"TOWNNAME":"麻豆區","LI":"油車里","LIN":"3鄰","STREET":"大同街","SECT":" ","MAREA":" ","LANE":" ","ALLEY":" ","HOUSE_NO":"９號","E_COORD97":172794.42999999999,"N_COORD97":2565186.3199999998,"ADDRESS":"大同街９號","OBJECTID":607521},"geometry":{"x":172794.43000000063,"y":2565186.3200000022}},{"attributes":{"ID":607549,"DIS_CODE":0,"TOWNNAME":"歸仁區","LI":"媽廟里","LIN":"3鄰","STREET":"媽廟一街","SECT":" ","MAREA":" ","LANE":" ","ALLEY":" ","HOUSE_NO":"６２號","E_COORD97":177309.42999999999,"N_COORD97":2543538.7200000002,"ADDRESS":"媽廟一街６２號","OBJECTID":607522},"geometry":{"x":177309.4299999997,"y":2543538.7200000044}},{"attributes":{"ID":607550,"DIS_CODE":0,"TOWNNAME":"歸仁區","LI":"新厝里","LIN":"3鄰","STREET":"和平南街","SECT":" ","MAREA":" ","LANE":" ","ALLEY":" ","HOUSE_NO":"２號","E_COORD97":177818.35000000001,"N_COORD97":2540724.6800000002,"ADDRESS":"和平南街２號","OBJECTID":607523},"geometry":{"x":177818.34999999963,"y":2540724.6800000016}},{"attributes":{"ID":607551,"DIS_CODE":0,"TOWNNAME":"歸仁區","LI":"媽廟里","LIN":"3鄰","STREET":"和順路","SECT":"一段","MAREA":" ","LANE":" ","ALLEY":" ","HOUSE_NO":"２８７號","E_COORD97":176723.42000000001,"N_COORD97":2543639.25,"ADDRESS":"和順路一段２８７號","OBJECTID":607524},"geometry":{"x":176723.41999999993,"y":2543639.2499999981}},{"attributes":{"ID":607552,"DIS_CODE":0,"TOWNNAME":"歸仁區","LI":"歸仁里","LIN":"3鄰","STREET":"中正北路","SECT":"一段","MAREA":" ","LANE":" ","ALLEY":" ","HOUSE_NO":"７２號","E_COORD97":177695.98000000001,"N_COORD97":2541010.04,"ADDRESS":"中正北路一段７２號","OBJECTID":607525},"geometry":{"x":177695.98000000045,"y":2541010.040000001}},{"attributes":{"ID":607553,"DIS_CODE":0,"TOWNNAME":"歸仁區","LI":"媽廟里","LIN":"3鄰","STREET":"和順路","SECT":"一段","MAREA":" ","LANE":" ","ALLEY":" ","HOUSE_NO":"１６９號","E_COORD97":176959.22,"N_COORD97":2543646.25,"ADDRESS":"和順路一段１６９號","OBJECTID":607526},"geometry":{"x":176959.22000000067,"y":2543646.2500000037}},{"attributes":{"ID":607554,"DIS_CODE":0,"TOWNNAME":"歸仁區","LI":"新厝里","LIN":"3鄰","STREET":"和平南街","SECT":" ","MAREA":" ","LANE":" ","ALLEY":" ","HOUSE_NO":"６號","E_COORD97":177818.25,"N_COORD97":2540719.6800000002,"ADDRESS":"和平南街６號","OBJECTID":607527},"geometry":{"x":177818.25000000186,"y":2540719.6799999997}},{"attributes":{"ID":607555,"DIS_CODE":0,"TOWNNAME":"歸仁區","LI":"媽廟里","LIN":"3鄰","STREET":"和順路","SECT":"一段","MAREA":" ","LANE":" ","ALLEY":" ","HOUSE_NO":"１５９號","E_COORD97":177005.04000000001,"N_COORD97":2543651.2799999998,"ADDRESS":"和順路一段１５９號","OBJECTID":607528},"geometry":{"x":177005.04000000097,"y":2543651.2799999993}},{"attributes":{"ID":607556,"DIS_CODE":0,"TOWNNAME":"歸仁區","LI":"媽廟里","LIN":"3鄰","STREET":"和順路","SECT":"一段","MAREA":" ","LANE":" ","ALLEY":" ","HOUSE_NO":"１６５號","E_COORD97":176981.82000000001,"N_COORD97":2543650.25,"ADDRESS":"和順路一段１６５號","OBJECTID":607529},"geometry":{"x":176981.8200000003,"y":2543650.2500000019}},{"attributes":{"ID":607557,"DIS_CODE":0,"TOWNNAME":"歸仁區","LI":"歸仁里","LIN":"3鄰","STREET":"中正北路","SECT":"一段","MAREA":" ","LANE":" ","ALLEY":" ","HOUSE_NO":"９２號","E_COORD97":177709.57999999999,"N_COORD97":2541064.04,"ADDRESS":"中正北路一段９２號","OBJECTID":607530},"geometry":{"x":177709.58000000101,"y":2541064.040000001}},{"attributes":{"ID":607558,"DIS_CODE":0,"TOWNNAME":"歸仁區","LI":"新厝里","LIN":"3鄰","STREET":"中正一街","SECT":" ","MAREA":" ","LANE":" ","ALLEY":" ","HOUSE_NO":"５５號","E_COORD97":177735.39000000001,"N_COORD97":2540705.6800000002,"ADDRESS":"中正一街５５號","OBJECTID":607531},"geometry":{"x":177735.38999999966,"y":2540705.6799999997}},{"attributes":{"ID":607559,"DIS_CODE":0,"TOWNNAME":"歸仁區","LI":"歸南里","LIN":"3鄰","STREET":"民權南路","SECT":" ","MAREA":" ","LANE":" ","ALLEY":" ","HOUSE_NO":"２５４號","E_COORD97":176934.06,"N_COORD97":2540206.25,"ADDRESS":"民權南路２５４號","OBJECTID":607532},"geometry":{"x":176934.05999999959,"y":2540206.2500000019}},{"attributes":{"ID":607560,"DIS_CODE":0,"TOWNNAME":"歸仁區","LI":"歸仁里","LIN":"3鄰","STREET":"中正北路","SECT":"一段","MAREA":" ","LANE":" ","ALLEY":" ","HOUSE_NO":"６８號","E_COORD97":177693.88,"N_COORD97":2541000.04,"ADDRESS":"中正北路一段６８號","OBJECTID":607533},"geometry":{"x":177693.88000000082,"y":2541000.040000001}},{"attributes":{"ID":607561,"DIS_CODE":0,"TOWNNAME":"歸仁區","LI":"歸南里","LIN":"3鄰","STREET":"民權南路","SECT":" ","MAREA":" ","LANE":" ","ALLEY":" ","HOUSE_NO":"２５６號","E_COORD97":176935.06,"N_COORD97":2540202.25,"ADDRESS":"民權南路２５６號","OBJECTID":607534},"geometry":{"x":176935.05999999959,"y":2540202.2500000019}},{"attributes":{"ID":607562,"DIS_CODE":0,"TOWNNAME":"歸仁區","LI":"崙頂里","LIN":"3鄰","STREET":"信義南路","SECT":" ","MAREA":" ","LANE":" ","ALLEY":" ","HOUSE_NO":"２６２號","E_COORD97":178180.39999999999,"N_COORD97":2539959.6800000002,"ADDRESS":"信義南路２６２號","OBJECTID":607535},"geometry":{"x":178180.40000000224,"y":2539959.6799999997}},{"attributes":{"ID":607563,"DIS_CODE":0,"TOWNNAME":"歸仁區","LI":"南興里","LIN":"3鄰","STREET":"大德路","SECT":" ","MAREA":" ","LANE":" ","ALLEY":" ","HOUSE_NO":"８５５號","E_COORD97":176314.57000000001,"N_COORD97":2541545.27,"ADDRESS":"大德路８５５號","OBJECTID":607536},"geometry":{"x":176314.57000000216,"y":2541545.2700000014}},{"attributes":{"ID":607564,"DIS_CODE":0,"TOWNNAME":"歸仁區","LI":"南保里","LIN":"3鄰","STREET":"民權二街","SECT":" ","MAREA":" ","LANE":" ","ALLEY":" ","HOUSE_NO":"９１號","E_COORD97":176954.98999999999,"N_COORD97":2541459.29,"ADDRESS":"民權二街９１號","OBJECTID":607537},"geometry":{"x":176954.99000000022,"y":2541459.290000001}},{"attributes":{"ID":607565,"DIS_CODE":0,"TOWNNAME":"歸仁區","LI":"南興里","LIN":"3鄰","STREET":"文化十二街","SECT":" ","MAREA":" ","LANE":" ","ALLEY":" ","HOUSE_NO":"５５號","E_COORD97":176457.19,"N_COORD97":2541303.3300000001,"ADDRESS":"文化十二街５５號","OBJECTID":607538},"geometry":{"x":176457.19000000041,"y":2541303.3300000019}},{"attributes":{"ID":607566,"DIS_CODE":0,"TOWNNAME":"歸仁區","LI":"南興里","LIN":"3鄰","STREET":"大德路","SECT":" ","MAREA":" ","LANE":" ","ALLEY":" ","HOUSE_NO":"８３７號","E_COORD97":176411.97,"N_COORD97":2541541.27,"ADDRESS":"大德路８３７號","OBJECTID":607539},"geometry":{"x":176411.97000000067,"y":2541541.2700000014}},{"attributes":{"ID":607567,"DIS_CODE":0,"TOWNNAME":"歸仁區","LI":"南興里","LIN":"3鄰","STREET":"文化十二街","SECT":" ","MAREA":" ","LANE":" ","ALLEY":" ","HOUSE_NO":"５１號","E_COORD97":176457.09,"N_COORD97":2541295.3300000001,"ADDRESS":"文化十二街５１號","OBJECTID":607540},"geometry":{"x":176457.08999999985,"y":2541295.3300000001}},{"attributes":{"ID":607568,"DIS_CODE":0,"TOWNNAME":"歸仁區","LI":"南保里","LIN":"3鄰","STREET":"民權二街","SECT":" ","MAREA":" ","LANE":" ","ALLEY":" ","HOUSE_NO":"８９號","E_COORD97":176954.98999999999,"N_COORD97":2541454.29,"ADDRESS":"民權二街８９號","OBJECTID":607541},"geometry":{"x":176954.99000000022,"y":2541454.2899999991}},{"attributes":{"ID":607569,"DIS_CODE":0,"TOWNNAME":"歸仁區","LI":"南興里","LIN":"3鄰","STREET":"大德路","SECT":" ","MAREA":" ","LANE":" ","ALLEY":" ","HOUSE_NO":"８３５號","E_COORD97":176421.17000000001,"N_COORD97":2541541.27,"ADDRESS":"大德路８３５號","OBJECTID":607542},"geometry":{"x":176421.16999999993,"y":2541541.2700000014}},{"attributes":{"ID":607570,"DIS_CODE":0,"TOWNNAME":"歸仁區","LI":"南興里","LIN":"3鄰","STREET":"文化十二街","SECT":" ","MAREA":" ","LANE":" ","ALLEY":" ","HOUSE_NO":"５９號","E_COORD97":176458.19,"N_COORD97":2541310.3300000001,"ADDRESS":"文化十二街５９號","OBJECTID":607543},"geometry":{"x":176458.19000000134,"y":2541310.3300000019}},{"attributes":{"ID":607571,"DIS_CODE":0,"TOWNNAME":"歸仁區","LI":"大潭里","LIN":"3鄰","STREET":"長榮路","SECT":"一段","MAREA":" ","LANE":" ","ALLEY":" ","HOUSE_NO":"３４９號","E_COORD97":175452.97,"N_COORD97":2534548.2799999998,"ADDRESS":"長榮路一段３４９號","OBJECTID":607544},"geometry":{"x":175452.96999999974,"y":2534548.2799999993}},{"attributes":{"ID":607572,"DIS_CODE":0,"TOWNNAME":"歸仁區","LI":"文化里","LIN":"3鄰","STREET":"文化街","SECT":"二段","MAREA":" ","LANE":" ","ALLEY":" ","HOUSE_NO":"１０８號","E_COORD97":177270.95999999999,"N_COORD97":2541179.3399999999,"ADDRESS":"文化街二段１０８號","OBJECTID":607545},"geometry":{"x":177270.96000000183,"y":2541179.3399999999}},{"attributes":{"ID":607573,"DIS_CODE":0,"TOWNNAME":"歸仁區","LI":"文化里","LIN":"3鄰","STREET":"文化街","SECT":"二段","MAREA":" ","LANE":" ","ALLEY":" ","HOUSE_NO":"１０２號","E_COORD97":177276.42000000001,"N_COORD97":2541174.2599999998,"ADDRESS":"文化街二段１０２號","OBJECTID":607546},"geometry":{"x":177276.42000000086,"y":2541174.2600000035}},{"attributes":{"ID":607574,"DIS_CODE":0,"TOWNNAME":"歸仁區","LI":"南保里","LIN":"3鄰","STREET":"民權二街","SECT":" ","MAREA":" ","LANE":" ","ALLEY":" ","HOUSE_NO":"６５號","E_COORD97":176951.69,"N_COORD97":2541415.29,"ADDRESS":"民權二街６５號","OBJECTID":607547},"geometry":{"x":176951.69000000134,"y":2541415.290000001}},{"attributes":{"ID":607575,"DIS_CODE":0,"TOWNNAME":"歸仁區","LI":"看東里","LIN":"3鄰","STREET":"忠孝南路","SECT":" ","MAREA":" ","LANE":" ","ALLEY":" ","HOUSE_NO":"１９２號","E_COORD97":178519.97,"N_COORD97":2540234.8300000001,"ADDRESS":"忠孝南路１９２號","OBJECTID":607548},"geometry":{"x":178519.9700000016,"y":2540234.8299999982}},{"attributes":{"ID":607576,"DIS_CODE":0,"TOWNNAME":"歸仁區","LI":"崙頂里","LIN":"3鄰","STREET":"成功八街","SECT":" ","MAREA":" ","LANE":" ","ALLEY":" ","HOUSE_NO":"７６號","E_COORD97":178125.57000000001,"N_COORD97":2539975.6800000002,"ADDRESS":"成功八街７６號","OBJECTID":607549},"geometry":{"x":178125.57000000123,"y":2539975.6800000016}},{"attributes":{"ID":607577,"DIS_CODE":0,"TOWNNAME":"歸仁區","LI":"歸仁里","LIN":"3鄰","STREET":"中正北路","SECT":"一段","MAREA":" ","LANE":" ","ALLEY":" ","HOUSE_NO":"４０號","E_COORD97":177684.38,"N_COORD97":2540949.04,"ADDRESS":"中正北路一段４０號","OBJECTID":607550},"geometry":{"x":177684.37999999989,"y":2540949.040000001}},{"attributes":{"ID":607578,"DIS_CODE":0,"TOWNNAME":"新營區","LI":"埤寮里","LIN":"3鄰","STREET":"建國路","SECT":" ","MAREA":" ","LANE":" ","ALLEY":" ","HOUSE_NO":"２４號","E_COORD97":180036.37,"N_COORD97":2581094.21,"ADDRESS":"建國路２４號","OBJECTID":607551},"geometry":{"x":180036.37000000011,"y":2581094.2100000046}},{"attributes":{"ID":607579,"DIS_CODE":0,"TOWNNAME":"新營區","LI":"埤寮里","LIN":"3鄰","STREET":"建國路","SECT":" ","MAREA":" ","LANE":" ","ALLEY":" ","HOUSE_NO":"２０號","E_COORD97":180048.64000000001,"N_COORD97":2581093.0499999998,"ADDRESS":"建國路２０號","OBJECTID":607552},"geometry":{"x":180048.6400000006,"y":2581093.0500000026}},{"attributes":{"ID":607580,"DIS_CODE":0,"TOWNNAME":"新營區","LI":"新南里","LIN":"3鄰","STREET":"新北街","SECT":" ","MAREA":" ","LANE":" ","ALLEY":" ","HOUSE_NO":"１０３號","E_COORD97":178734.89999999999,"N_COORD97":2578807.9900000002,"ADDRESS":"新北街１０３號","OBJECTID":607553},"geometry":{"x":178734.9000000013,"y":2578807.9900000021}},{"attributes":{"ID":607581,"DIS_CODE":0,"TOWNNAME":"新營區","LI":"民權里","LIN":"3鄰","STREET":"中山路","SECT":" ","MAREA":" ","LANE":" ","ALLEY":" ","HOUSE_NO":"１５０號","E_COORD97":180077.04999999999,"N_COORD97":2578198.0299999998,"ADDRESS":"中山路１５０號","OBJECTID":607554},"geometry":{"x":180077.04999999981,"y":2578198.0299999993}},{"attributes":{"ID":607582,"DIS_CODE":0,"TOWNNAME":"新營區","LI":"南紙里","LIN":"3鄰","STREET":"太子路","SECT":" ","MAREA":" ","LANE":" ","ALLEY":" ","HOUSE_NO":"１５９號","E_COORD97":177914.01999999999,"N_COORD97":2577852.9100000001,"ADDRESS":"太子路１５９號","OBJECTID":607555},"geometry":{"x":177914.01999999955,"y":2577852.9100000001}},{"attributes":{"ID":607583,"DIS_CODE":0,"TOWNNAME":"新營區","LI":"南紙里","LIN":"3鄰","STREET":"太子路","SECT":" ","MAREA":" ","LANE":" ","ALLEY":" ","HOUSE_NO":"１５７號","E_COORD97":177918.13,"N_COORD97":2577855.1099999999,"ADDRESS":"太子路１５７號","OBJECTID":607556},"geometry":{"x":177918.12999999989,"y":2577855.1099999994}},{"attributes":{"ID":607584,"DIS_CODE":0,"TOWNNAME":"新營區","LI":"南紙里","LIN":"3鄰","STREET":"太子路","SECT":" ","MAREA":" ","LANE":" ","ALLEY":" ","HOUSE_NO":"１５１號","E_COORD97":177930.44,"N_COORD97":2577861.6899999999,"ADDRESS":"太子路１５１號","OBJECTID":607557},"geometry":{"x":177930.44000000041,"y":2577861.6900000032}},{"attributes":{"ID":607585,"DIS_CODE":0,"TOWNNAME":"新營區","LI":"埤寮里","LIN":"3鄰","STREET":"建國路","SECT":" ","MAREA":" ","LANE":" ","ALLEY":" ","HOUSE_NO":"３５之７號","E_COORD97":179964.04000000001,"N_COORD97":2581052.54,"ADDRESS":"建國路３５之７號","OBJECTID":607558},"geometry":{"x":179964.03999999911,"y":2581052.5399999972}},{"attributes":{"ID":607586,"DIS_CODE":0,"TOWNNAME":"新營區","LI":"南紙里","LIN":"3鄰","STREET":"太子路","SECT":" ","MAREA":" ","LANE":" ","ALLEY":" ","HOUSE_NO":"１６１號","E_COORD97":177909.92999999999,"N_COORD97":2577851.8300000001,"ADDRESS":"太子路１６１號","OBJECTID":607559},"geometry":{"x":177909.93000000156,"y":2577851.8300000019}},{"attributes":{"ID":607587,"DIS_CODE":0,"TOWNNAME":"新營區","LI":"南紙里","LIN":"3鄰","STREET":"太子路","SECT":" ","MAREA":" ","LANE":" ","ALLEY":" ","HOUSE_NO":"１４１號","E_COORD97":177952.98000000001,"N_COORD97":2577870.4399999999,"ADDRESS":"太子路１４１號","OBJECTID":607560},"geometry":{"x":177952.98000000138,"y":2577870.4400000032}},{"attributes":{"ID":607588,"DIS_CODE":0,"TOWNNAME":"新營區","LI":"民權里","LIN":"3鄰","STREET":"中華路","SECT":" ","MAREA":" ","LANE":" ","ALLEY":" ","HOUSE_NO":"９號之２","E_COORD97":179965.45999999999,"N_COORD97":2578230.73,"ADDRESS":"中華路９號之２","OBJECTID":607561},"geometry":{"x":179965.45999999996,"y":2578230.7300000004}},{"attributes":{"ID":607589,"DIS_CODE":0,"TOWNNAME":"新營區","LI":"民權里","LIN":"3鄰","STREET":"博愛街","SECT":" ","MAREA":" ","LANE":" ","ALLEY":" ","HOUSE_NO":"６號","E_COORD97":180020.19,"N_COORD97":2578163.96,"ADDRESS":"博愛街６號","OBJECTID":607562},"geometry":{"x":180020.19000000134,"y":2578163.9600000028}},{"attributes":{"ID":607590,"DIS_CODE":0,"TOWNNAME":"新營區","LI":"民權里","LIN":"3鄰","STREET":"中華路","SECT":" ","MAREA":" ","LANE":" ","ALLEY":" ","HOUSE_NO":"９號","E_COORD97":179971.37,"N_COORD97":2578231.75,"ADDRESS":"中華路９號","OBJECTID":607563},"geometry":{"x":179971.37000000011,"y":2578231.7500000019}},{"attributes":{"ID":607591,"DIS_CODE":0,"TOWNNAME":"新營區","LI":"民權里","LIN":"3鄰","STREET":"博愛街","SECT":" ","MAREA":" ","LANE":" ","ALLEY":" ","HOUSE_NO":"６之２號","E_COORD97":180013.48999999999,"N_COORD97":2578165.1600000001,"ADDRESS":"博愛街６之２號","OBJECTID":607564},"geometry":{"x":180013.49000000022,"y":2578165.160000002}},{"attributes":{"ID":607592,"DIS_CODE":0,"TOWNNAME":"新營區","LI":"民權里","LIN":"3鄰","STREET":"博愛街","SECT":" ","MAREA":" ","LANE":" ","ALLEY":" ","HOUSE_NO":"６號之１","E_COORD97":180018.23000000001,"N_COORD97":2578164.0299999998,"ADDRESS":"博愛街６號之１","OBJECTID":607565},"geometry":{"x":180018.23000000138,"y":2578164.0299999993}},{"attributes":{"ID":607593,"DIS_CODE":0,"TOWNNAME":"新營區","LI":"三仙里","LIN":"3鄰","STREET":"正義街","SECT":" ","MAREA":" ","LANE":" ","ALLEY":" ","HOUSE_NO":"１２號之２","E_COORD97":179687.76000000001,"N_COORD97":2578070.3599999999,"ADDRESS":"正義街１２號之２","OBJECTID":607566},"geometry":{"x":179687.76000000164,"y":2578070.3599999994}},{"attributes":{"ID":607594,"DIS_CODE":0,"TOWNNAME":"新營區","LI":"新北里","LIN":"3鄰","STREET":"三興街","SECT":" ","MAREA":" ","LANE":" ","ALLEY":" ","HOUSE_NO":"７９號之２","E_COORD97":179443.78,"N_COORD97":2579027.25,"ADDRESS":"三興街７９號之２","OBJECTID":607567},"geometry":{"x":179443.78000000026,"y":2579027.25}},{"attributes":{"ID":607595,"DIS_CODE":0,"TOWNNAME":"新營區","LI":"民權里","LIN":"3鄰","STREET":"中華路","SECT":" ","MAREA":" ","LANE":" ","ALLEY":" ","HOUSE_NO":"７號","E_COORD97":179983.70999999999,"N_COORD97":2578232.7999999998,"ADDRESS":"中華路７號","OBJECTID":607568},"geometry":{"x":179983.71000000089,"y":2578232.8000000026}},{"attributes":{"ID":607596,"DIS_CODE":0,"TOWNNAME":"新營區","LI":"三仙里","LIN":"3鄰","STREET":"正義街","SECT":" ","MAREA":" ","LANE":" ","ALLEY":" ","HOUSE_NO":"１２號之５","E_COORD97":179697,"N_COORD97":2578073.6400000001,"ADDRESS":"正義街１２號之５","OBJECTID":607569},"geometry":{"x":179697.00000000093,"y":2578073.6400000043}},{"attributes":{"ID":607597,"DIS_CODE":0,"TOWNNAME":"新營區","LI":"新北里","LIN":"3鄰","STREET":"三興街","SECT":" ","MAREA":" ","LANE":" ","ALLEY":" ","HOUSE_NO":"７９號之９","E_COORD97":179403.79999999999,"N_COORD97":2579018.5800000001,"ADDRESS":"三興街７９號之９","OBJECTID":607570},"geometry":{"x":179403.79999999981,"y":2579018.5800000001}},{"attributes":{"ID":607598,"DIS_CODE":0,"TOWNNAME":"新營區","LI":"南興里","LIN":"3鄰","STREET":"南昌街","SECT":" ","MAREA":" ","LANE":" ","ALLEY":" ","HOUSE_NO":"１３號","E_COORD97":179672.26000000001,"N_COORD97":2577656.1899999999,"ADDRESS":"南昌街１３號","OBJECTID":607571},"geometry":{"x":179672.25999999978,"y":2577656.1900000013}},{"attributes":{"ID":607599,"DIS_CODE":0,"TOWNNAME":"新營區","LI":"大宏里","LIN":"3鄰","STREET":"綠川北街","SECT":" ","MAREA":" ","LANE":" ","ALLEY":" ","HOUSE_NO":"９５號","E_COORD97":180363.53,"N_COORD97":2578701.6800000002,"ADDRESS":"綠川北街９５號","OBJECTID":607572},"geometry":{"x":180363.53000000119,"y":2578701.6799999997}},{"attributes":{"ID":607600,"DIS_CODE":0,"TOWNNAME":"歸仁區","LI":"大潭里","LIN":"3鄰","STREET":"長榮路","SECT":"一段","MAREA":" ","LANE":" ","ALLEY":" ","HOUSE_NO":"３１１號","E_COORD97":175345.07000000001,"N_COORD97":2534513.2799999998,"ADDRESS":"長榮路一段３１１號","OBJECTID":607573},"geometry":{"x":175345.07000000123,"y":2534513.2800000012}},{"attributes":{"ID":607601,"DIS_CODE":0,"TOWNNAME":"歸仁區","LI":"大廟里","LIN":"3鄰","STREET":"和順路","SECT":"二段","MAREA":" ","LANE":" ","ALLEY":" ","HOUSE_NO":"２１４號","E_COORD97":175949.94,"N_COORD97":2543621.2799999998,"ADDRESS":"和順路二段２１４號","OBJECTID":607574},"geometry":{"x":175949.94000000134,"y":2543621.2799999993}},{"attributes":{"ID":607602,"DIS_CODE":0,"TOWNNAME":"歸仁區","LI":"七甲里","LIN":"3鄰","STREET":"中正北路","SECT":"二段","MAREA":" ","LANE":" ","ALLEY":" ","HOUSE_NO":"５００號","E_COORD97":177475.72,"N_COORD97":2543239.2599999998,"ADDRESS":"中正北路二段５００號","OBJECTID":607575},"geometry":{"x":177475.7200000016,"y":2543239.2600000035}},{"attributes":{"ID":607603,"DIS_CODE":0,"TOWNNAME":"歸仁區","LI":"新厝里","LIN":"3鄰","STREET":"和平南街","SECT":" ","MAREA":" ","LANE":" ","ALLEY":" ","HOUSE_NO":"１２號","E_COORD97":177816.39999999999,"N_COORD97":2540709.6800000002,"ADDRESS":"和平南街１２號","OBJECTID":607576},"geometry":{"x":177816.4000000013,"y":2540709.6799999997}},{"attributes":{"ID":607604,"DIS_CODE":0,"TOWNNAME":"關廟區","LI":"五甲里","LIN":"3鄰","STREET":"光復街","SECT":" ","MAREA":" ","LANE":" ","ALLEY":" ","HOUSE_NO":"５８號","E_COORD97":181488.48999999999,"N_COORD97":2539232.2799999998,"ADDRESS":"光復街５８號","OBJECTID":607577},"geometry":{"x":181488.49000000022,"y":2539232.2800000012}},{"attributes":{"ID":607605,"DIS_CODE":0,"TOWNNAME":"關廟區","LI":"五甲里","LIN":"3鄰","STREET":"旺萊路","SECT":" ","MAREA":" ","LANE":" ","ALLEY":" ","HOUSE_NO":"３１號","E_COORD97":181489.29000000001,"N_COORD97":2539152.25,"ADDRESS":"旺萊路３１號","OBJECTID":607578},"geometry":{"x":181489.29000000004,"y":2539152.2500000019}},{"attributes":{"ID":607606,"DIS_CODE":0,"TOWNNAME":"關廟區","LI":"山西里","LIN":"3鄰","STREET":"文衡路","SECT":" ","MAREA":" ","LANE":" ","ALLEY":" ","HOUSE_NO":"８０號","E_COORD97":180910.39000000001,"N_COORD97":2540232.3300000001,"ADDRESS":"文衡路８０號","OBJECTID":607579},"geometry":{"x":180910.38999999966,"y":2540232.3300000019}},{"attributes":{"ID":607607,"DIS_CODE":0,"TOWNNAME":"關廟區","LI":"布袋里","LIN":"3鄰","STREET":"長文街","SECT":" ","MAREA":" ","LANE":" ","ALLEY":" ","HOUSE_NO":"１８號","E_COORD97":183068.79000000001,"N_COORD97":2535535.25,"ADDRESS":"長文街１８號","OBJECTID":607580},"geometry":{"x":183068.79000000097,"y":2535535.25}},{"attributes":{"ID":607608,"DIS_CODE":0,"TOWNNAME":"關廟區","LI":"五甲里","LIN":"3鄰","STREET":"光復街","SECT":" ","MAREA":" ","LANE":" ","ALLEY":" ","HOUSE_NO":"７０號","E_COORD97":181520.69,"N_COORD97":2539276.2799999998,"ADDRESS":"光復街７０號","OBJECTID":607581},"geometry":{"x":181520.69000000041,"y":2539276.2800000012}},{"attributes":{"ID":607609,"DIS_CODE":0,"TOWNNAME":"關廟區","LI":"北花里","LIN":"3鄰","STREET":"花園二街","SECT":" ","MAREA":" ","LANE":" ","ALLEY":" ","HOUSE_NO":"９８號","E_COORD97":181998.73999999999,"N_COORD97":2540323.25,"ADDRESS":"花園二街９８號","OBJECTID":607582},"geometry":{"x":181998.74000000022,"y":2540323.25}},{"attributes":{"ID":607610,"DIS_CODE":0,"TOWNNAME":"關廟區","LI":"山西里","LIN":"3鄰","STREET":"文衡路","SECT":" ","MAREA":" ","LANE":" ","ALLEY":" ","HOUSE_NO":"７０號","E_COORD97":180909.69,"N_COORD97":2540215.3300000001,"ADDRESS":"文衡路７０號","OBJECTID":607583},"geometry":{"x":180909.69000000134,"y":2540215.3300000019}},{"attributes":{"ID":607611,"DIS_CODE":0,"TOWNNAME":"關廟區","LI":"山西里","LIN":"3鄰","STREET":"文衡路","SECT":" ","MAREA":" ","LANE":" ","ALLEY":" ","HOUSE_NO":"８２號","E_COORD97":180910.79000000001,"N_COORD97":2540236.3300000001,"ADDRESS":"文衡路８２號","OBJECTID":607584},"geometry":{"x":180910.79000000097,"y":2540236.3300000019}},{"attributes":{"ID":607612,"DIS_CODE":0,"TOWNNAME":"關廟區","LI":"布袋里","LIN":"3鄰","STREET":"長文街","SECT":" ","MAREA":" ","LANE":" ","ALLEY":" ","HOUSE_NO":"５２號","E_COORD97":183005.89000000001,"N_COORD97":2535497.25,"ADDRESS":"長文街５２號","OBJECTID":607585},"geometry":{"x":183005.89000000153,"y":2535497.2500000019}},{"attributes":{"ID":607613,"DIS_CODE":0,"TOWNNAME":"關廟區","LI":"五甲里","LIN":"3鄰","STREET":"旺萊路","SECT":" ","MAREA":" ","LANE":" ","ALLEY":" ","HOUSE_NO":"１９號","E_COORD97":181434.39000000001,"N_COORD97":2539148.25,"ADDRESS":"旺萊路１９號","OBJECTID":607586},"geometry":{"x":181434.38999999873,"y":2539148.2500000019}},{"attributes":{"ID":607614,"DIS_CODE":0,"TOWNNAME":"關廟區","LI":"布袋里","LIN":"3鄰","STREET":"南雄南路","SECT":" ","MAREA":" ","LANE":" ","ALLEY":" ","HOUSE_NO":"１０１號","E_COORD97":183020.59,"N_COORD97":2535784.2999999998,"ADDRESS":"南雄南路１０１號","OBJECTID":607587},"geometry":{"x":183020.59000000078,"y":2535784.3000000045}},{"attributes":{"ID":607615,"DIS_CODE":0,"TOWNNAME":"關廟區","LI":"山西里","LIN":"3鄰","STREET":"文衡路","SECT":" ","MAREA":" ","LANE":" ","ALLEY":" ","HOUSE_NO":"９２號","E_COORD97":180912.69,"N_COORD97":2540255.3300000001,"ADDRESS":"文衡路９２號","OBJECTID":607588},"geometry":{"x":180912.68999999948,"y":2540255.3300000038}},{"attributes":{"ID":607616,"DIS_CODE":0,"TOWNNAME":"關廟區","LI":"布袋里","LIN":"3鄰","STREET":"南雄南路","SECT":" ","MAREA":" ","LANE":" ","ALLEY":" ","HOUSE_NO":"１０７號","E_COORD97":183024.98999999999,"N_COORD97":2535752.25,"ADDRESS":"南雄南路１０７號","OBJECTID":607589},"geometry":{"x":183024.99000000115,"y":2535752.25}},{"attributes":{"ID":607617,"DIS_CODE":0,"TOWNNAME":"關廟區","LI":"五甲里","LIN":"3鄰","STREET":"光復街","SECT":" ","MAREA":" ","LANE":" ","ALLEY":" ","HOUSE_NO":"７８號","E_COORD97":181519.98999999999,"N_COORD97":2539301.2799999998,"ADDRESS":"光復街７８號","OBJECTID":607590},"geometry":{"x":181519.99000000115,"y":2539301.2799999993}},{"attributes":{"ID":607618,"DIS_CODE":0,"TOWNNAME":"關廟區","LI":"五甲里","LIN":"3鄰","STREET":"旺萊路","SECT":" ","MAREA":" ","LANE":" ","ALLEY":" ","HOUSE_NO":"２７號","E_COORD97":181478.48999999999,"N_COORD97":2539145.25,"ADDRESS":"旺萊路２７號","OBJECTID":607591},"geometry":{"x":181478.49000000209,"y":2539145.2500000019}},{"attributes":{"ID":607619,"DIS_CODE":0,"TOWNNAME":"關廟區","LI":"山西里","LIN":"3鄰","STREET":"文衡路","SECT":" ","MAREA":" ","LANE":" ","ALLEY":" ","HOUSE_NO":"９８號","E_COORD97":180914.98999999999,"N_COORD97":2540277.3300000001,"ADDRESS":"文衡路９８號","OBJECTID":607592},"geometry":{"x":180914.99000000022,"y":2540277.3300000019}},{"attributes":{"ID":607620,"DIS_CODE":0,"TOWNNAME":"關廟區","LI":"五甲里","LIN":"3鄰","STREET":"旺萊路","SECT":" ","MAREA":" ","LANE":" ","ALLEY":" ","HOUSE_NO":"３５號","E_COORD97":181496.19,"N_COORD97":2539157.25,"ADDRESS":"旺萊路３５號","OBJECTID":607593},"geometry":{"x":181496.19000000134,"y":2539157.2500000037}},{"attributes":{"ID":607621,"DIS_CODE":0,"TOWNNAME":"關廟區","LI":"北花里","LIN":"3鄰","STREET":"花園二街","SECT":" ","MAREA":" ","LANE":" ","ALLEY":" ","HOUSE_NO":"９６號","E_COORD97":182001.04000000001,"N_COORD97":2540351.25,"ADDRESS":"花園二街９６號","OBJECTID":607594},"geometry":{"x":182001.04000000004,"y":2540351.2500000019}},{"attributes":{"ID":607622,"DIS_CODE":0,"TOWNNAME":"關廟區","LI":"北花里","LIN":"3鄰","STREET":"中正路","SECT":" ","MAREA":" ","LANE":" ","ALLEY":" ","HOUSE_NO":"６６３號","E_COORD97":182030.45999999999,"N_COORD97":2540368.25,"ADDRESS":"中正路６６３號","OBJECTID":607595},"geometry":{"x":182030.45999999996,"y":2540368.2500000019}},{"attributes":{"ID":607623,"DIS_CODE":0,"TOWNNAME":"關廟區","LI":"布袋里","LIN":"3鄰","STREET":"長文街","SECT":" ","MAREA":" ","LANE":" ","ALLEY":" ","HOUSE_NO":"１０號","E_COORD97":183081.48999999999,"N_COORD97":2535541.25,"ADDRESS":"長文街１０號","OBJECTID":607596},"geometry":{"x":183081.49000000022,"y":2535541.2500000019}},{"attributes":{"ID":607624,"DIS_CODE":0,"TOWNNAME":"關廟區","LI":"五甲里","LIN":"3鄰","STREET":"光復街","SECT":" ","MAREA":" ","LANE":" ","ALLEY":" ","HOUSE_NO":"５２號","E_COORD97":181489.98999999999,"N_COORD97":2539219.2799999998,"ADDRESS":"光復街５２號","OBJECTID":607597},"geometry":{"x":181489.99000000022,"y":2539219.2799999993}},{"attributes":{"ID":607625,"DIS_CODE":0,"TOWNNAME":"關廟區","LI":"五甲里","LIN":"3鄰","STREET":"光復街","SECT":" ","MAREA":" ","LANE":" ","ALLEY":" ","HOUSE_NO":"２６號","E_COORD97":181466.19,"N_COORD97":2539174.2799999998,"ADDRESS":"光復街２６號","OBJECTID":607598},"geometry":{"x":181466.19000000134,"y":2539174.2800000012}},{"attributes":{"ID":607626,"DIS_CODE":0,"TOWNNAME":"關廟區","LI":"北勢里","LIN":"3鄰","STREET":"中正路","SECT":" ","MAREA":" ","LANE":" ","ALLEY":" ","HOUSE_NO":"８２８號","E_COORD97":181394.45999999999,"N_COORD97":2540222.25,"ADDRESS":"中正路８２８號","OBJECTID":607599},"geometry":{"x":181394.46000000089,"y":2540222.2500000019}},{"attributes":{"ID":607627,"DIS_CODE":0,"TOWNNAME":"關廟區","LI":"北勢里","LIN":"3鄰","STREET":"中正路","SECT":" ","MAREA":" ","LANE":" ","ALLEY":" ","HOUSE_NO":"８４６號","E_COORD97":181364.85999999999,"N_COORD97":2540231.25,"ADDRESS":"中正路８４６號","OBJECTID":607600},"geometry":{"x":181364.86000000127,"y":2540231.25}}]}