{"displayFieldName":"TOWNNAME","fieldAliases":{"ID":"ID","DIS_CODE":"DIS_CODE","TOWNNAME":"TOWNNAME","LI":"LI","LIN":"LIN","STREET":"STREET","SECT":"SECT","MAREA":"MAREA","LANE":"LANE","ALLEY":"ALLEY","HOUSE_NO":"HOUSE_NO","E_COORD97":"E_COORD97","N_COORD97":"N_COORD97","ADDRESS":"ADDRESS","OBJECTID":"OBJECTID"},"geometryType":"esriGeometryPoint","spatialReference":{"wkid":102443,"latestWkid":3826},"fields":[{"name":"ID","type":"esriFieldTypeDouble","alias":"ID"},{"name":"DIS_CODE","type":"esriFieldTypeInteger","alias":"DIS_CODE"},{"name":"TOWNNAME","type":"esriFieldTypeString","alias":"TOWNNAME","length":8},{"name":"LI","type":"esriFieldTypeString","alias":"LI","length":8},{"name":"LIN","type":"esriFieldTypeString","alias":"LIN","length":12},{"name":"STREET","type":"esriFieldTypeString","alias":"STREET","length":20},{"name":"SECT","type":"esriFieldTypeString","alias":"SECT","length":8},{"name":"MAREA","type":"esriFieldTypeString","alias":"MAREA","length":12},{"name":"LANE","type":"esriFieldTypeString","alias":"LANE","length":10},{"name":"ALLEY","type":"esriFieldTypeString","alias":"ALLEY","length":10},{"name":"HOUSE_NO","type":"esriFieldTypeString","alias":"HOUSE_NO","length":20},{"name":"E_COORD97","type":"esriFieldTypeDouble","alias":"E_COORD97"},{"name":"N_COORD97","type":"esriFieldTypeDouble","alias":"N_COORD97"},{"name":"ADDRESS","type":"esriFieldTypeString","alias":"ADDRESS","length":50},{"name":"OBJECTID","type":"esriFieldTypeOID","alias":"OBJECTID"}],"features":[{"attributes":{"ID":551428,"DIS_CODE":0,"TOWNNAME":"南區","LI":"國宅里","LIN":"10鄰","STREET":"新興路","SECT":" ","MAREA":" ","LANE":" ","ALLEY":" ","HOUSE_NO":"３８４號","E_COORD97":166850.13,"N_COORD97":2541767.9199999999,"ADDRESS":"新興路３８４號","OBJECTID":551401},"geometry":{"x":166850.13000000082,"y":2541767.9200000018}},{"attributes":{"ID":551429,"DIS_CODE":0,"TOWNNAME":"南區","LI":"建南里","LIN":"10鄰","STREET":"德興路","SECT":" ","MAREA":" ","LANE":" ","ALLEY":" ","HOUSE_NO":"３００號","E_COORD97":167203.60000000001,"N_COORD97":2539928.2200000002,"ADDRESS":"德興路３００號","OBJECTID":551402},"geometry":{"x":167203.60000000149,"y":2539928.2200000025}},{"attributes":{"ID":551430,"DIS_CODE":0,"TOWNNAME":"南區","LI":"建南里","LIN":"10鄰","STREET":"德興路","SECT":" ","MAREA":" ","LANE":" ","ALLEY":" ","HOUSE_NO":"３０２號","E_COORD97":167204.12,"N_COORD97":2539923.3799999999,"ADDRESS":"德興路３０２號","OBJECTID":551403},"geometry":{"x":167204.12000000104,"y":2539923.379999999}},{"attributes":{"ID":551431,"DIS_CODE":0,"TOWNNAME":"南區","LI":"建南里","LIN":"10鄰","STREET":"德興路","SECT":" ","MAREA":" ","LANE":" ","ALLEY":" ","HOUSE_NO":"３０４號","E_COORD97":167204.12,"N_COORD97":2539918.71,"ADDRESS":"德興路３０４號","OBJECTID":551404},"geometry":{"x":167204.12000000104,"y":2539918.7100000028}},{"attributes":{"ID":551432,"DIS_CODE":0,"TOWNNAME":"南區","LI":"建南里","LIN":"10鄰","STREET":"德興路","SECT":" ","MAREA":" ","LANE":" ","ALLEY":" ","HOUSE_NO":"３０８號","E_COORD97":167206.72,"N_COORD97":2539910.9300000002,"ADDRESS":"德興路３０８號","OBJECTID":551405},"geometry":{"x":167206.72000000067,"y":2539910.9299999997}},{"attributes":{"ID":551433,"DIS_CODE":0,"TOWNNAME":"南區","LI":"建南里","LIN":"10鄰","STREET":"德興路","SECT":" ","MAREA":" ","LANE":" ","ALLEY":" ","HOUSE_NO":"３１０號","E_COORD97":167208.10000000001,"N_COORD97":2539906.2599999998,"ADDRESS":"德興路３１０號","OBJECTID":551406},"geometry":{"x":167208.09999999963,"y":2539906.2600000035}},{"attributes":{"ID":551434,"DIS_CODE":0,"TOWNNAME":"南區","LI":"建南里","LIN":"10鄰","STREET":"德興路","SECT":" ","MAREA":" ","LANE":" ","ALLEY":" ","HOUSE_NO":"３０６號","E_COORD97":167204.64000000001,"N_COORD97":2539914.5600000001,"ADDRESS":"德興路３０６號","OBJECTID":551407},"geometry":{"x":167204.63999999966,"y":2539914.5600000005}},{"attributes":{"ID":551435,"DIS_CODE":0,"TOWNNAME":"南區","LI":"國宅里","LIN":"10鄰","STREET":"新興路","SECT":" ","MAREA":" ","LANE":" ","ALLEY":" ","HOUSE_NO":"３８６號","E_COORD97":166845.78,"N_COORD97":2541768.1299999999,"ADDRESS":"新興路３８６號","OBJECTID":551408},"geometry":{"x":166845.78000000119,"y":2541768.1300000008}},{"attributes":{"ID":551436,"DIS_CODE":0,"TOWNNAME":"南區","LI":"建南里","LIN":"10鄰","STREET":"德興路","SECT":" ","MAREA":" ","LANE":" ","ALLEY":" ","HOUSE_NO":"２９４號","E_COORD97":167205.51000000001,"N_COORD97":2539944.1299999999,"ADDRESS":"德興路２９４號","OBJECTID":551409},"geometry":{"x":167205.50999999978,"y":2539944.1300000008}},{"attributes":{"ID":551437,"DIS_CODE":0,"TOWNNAME":"南區","LI":"建南里","LIN":"10鄰","STREET":"德興路","SECT":" ","MAREA":" ","LANE":" ","ALLEY":" ","HOUSE_NO":"２９６號","E_COORD97":167203.78,"N_COORD97":2539936.8700000001,"ADDRESS":"德興路２９６號","OBJECTID":551410},"geometry":{"x":167203.78000000119,"y":2539936.870000001}},{"attributes":{"ID":551438,"DIS_CODE":0,"TOWNNAME":"南區","LI":"建南里","LIN":"10鄰","STREET":"德興路","SECT":" ","MAREA":" ","LANE":" ","ALLEY":" ","HOUSE_NO":"２９８號","E_COORD97":167203.60000000001,"N_COORD97":2539932.2000000002,"ADDRESS":"德興路２９８號","OBJECTID":551411},"geometry":{"x":167203.60000000149,"y":2539932.1999999993}},{"attributes":{"ID":551439,"DIS_CODE":0,"TOWNNAME":"南區","LI":"文南里","LIN":"10鄰","STREET":"文南路","SECT":" ","MAREA":" ","LANE":" ","ALLEY":" ","HOUSE_NO":"１１７號","E_COORD97":166936.07000000001,"N_COORD97":2542836.5699999998,"ADDRESS":"文南路１１７號","OBJECTID":551412},"geometry":{"x":166936.0700000003,"y":2542836.5700000003}},{"attributes":{"ID":551440,"DIS_CODE":0,"TOWNNAME":"南區","LI":"文華里","LIN":"10鄰","STREET":"建南路","SECT":" ","MAREA":" ","LANE":" ","ALLEY":" ","HOUSE_NO":"１０４號","E_COORD97":167076.48000000001,"N_COORD97":2542844.2200000002,"ADDRESS":"建南路１０４號","OBJECTID":551413},"geometry":{"x":167076.48000000231,"y":2542844.2200000025}},{"attributes":{"ID":551441,"DIS_CODE":0,"TOWNNAME":"南區","LI":"文華里","LIN":"10鄰","STREET":"建南路","SECT":" ","MAREA":" ","LANE":" ","ALLEY":" ","HOUSE_NO":"１１０號","E_COORD97":167062.57999999999,"N_COORD97":2542845.7000000002,"ADDRESS":"建南路１１０號","OBJECTID":551414},"geometry":{"x":167062.58000000101,"y":2542845.700000003}},{"attributes":{"ID":551442,"DIS_CODE":0,"TOWNNAME":"南區","LI":"文華里","LIN":"10鄰","STREET":"建南路","SECT":" ","MAREA":" ","LANE":" ","ALLEY":" ","HOUSE_NO":"１１２號","E_COORD97":167058.01000000001,"N_COORD97":2542846.1299999999,"ADDRESS":"建南路１１２號","OBJECTID":551415},"geometry":{"x":167058.00999999978,"y":2542846.1300000008}},{"attributes":{"ID":551443,"DIS_CODE":0,"TOWNNAME":"南區","LI":"文華里","LIN":"10鄰","STREET":"建南路","SECT":" ","MAREA":" ","LANE":" ","ALLEY":" ","HOUSE_NO":"１１４號","E_COORD97":167053.66,"N_COORD97":2542846.5499999998,"ADDRESS":"建南路１１４號","OBJECTID":551416},"geometry":{"x":167053.66000000108,"y":2542846.5500000007}},{"attributes":{"ID":551444,"DIS_CODE":0,"TOWNNAME":"南區","LI":"文華里","LIN":"10鄰","STREET":"建南路","SECT":" ","MAREA":" ","LANE":" ","ALLEY":" ","HOUSE_NO":"１１６號","E_COORD97":167049.20000000001,"N_COORD97":2542846.6600000001,"ADDRESS":"建南路１１６號","OBJECTID":551417},"geometry":{"x":167049.20000000205,"y":2542846.6599999983}},{"attributes":{"ID":551445,"DIS_CODE":0,"TOWNNAME":"南區","LI":"文華里","LIN":"10鄰","STREET":"建南路","SECT":" ","MAREA":" ","LANE":" ","ALLEY":" ","HOUSE_NO":"１１８號","E_COORD97":167044.32000000001,"N_COORD97":2542846.8700000001,"ADDRESS":"建南路１１８號","OBJECTID":551418},"geometry":{"x":167044.3200000003,"y":2542846.8700000029}},{"attributes":{"ID":551446,"DIS_CODE":0,"TOWNNAME":"南區","LI":"日新里","LIN":"10鄰","STREET":"新興路","SECT":" ","MAREA":" ","LANE":" ","ALLEY":" ","HOUSE_NO":"４１９號之１","E_COORD97":167002.04000000001,"N_COORD97":2541755.5899999999,"ADDRESS":"新興路４１９號之１","OBJECTID":551419},"geometry":{"x":167002.04000000004,"y":2541755.5900000017}},{"attributes":{"ID":551447,"DIS_CODE":0,"TOWNNAME":"南區","LI":"文南里","LIN":"10鄰","STREET":"文南路","SECT":" ","MAREA":" ","LANE":" ","ALLEY":" ","HOUSE_NO":"１１１號","E_COORD97":166933.41,"N_COORD97":2542821.9399999999,"ADDRESS":"文南路１１１號","OBJECTID":551420},"geometry":{"x":166933.41000000015,"y":2542821.9400000013}},{"attributes":{"ID":551448,"DIS_CODE":0,"TOWNNAME":"安平區","LI":"文平里","LIN":"10鄰","STREET":"永華路","SECT":"二段","MAREA":" ","LANE":" ","ALLEY":" ","HOUSE_NO":"１３１號","E_COORD97":166356.57999999999,"N_COORD97":2543321.3199999998,"ADDRESS":"永華路二段１３１號","OBJECTID":551421},"geometry":{"x":166356.58000000194,"y":2543321.3200000022}},{"attributes":{"ID":551449,"DIS_CODE":0,"TOWNNAME":"安平區","LI":"文平里","LIN":"10鄰","STREET":"永華路","SECT":"二段","MAREA":" ","LANE":" ","ALLEY":" ","HOUSE_NO":"１３３號","E_COORD97":166338.26999999999,"N_COORD97":2543324.6600000001,"ADDRESS":"永華路二段１３３號","OBJECTID":551422},"geometry":{"x":166338.27000000048,"y":2543324.6599999983}},{"attributes":{"ID":551450,"DIS_CODE":0,"TOWNNAME":"安平區","LI":"文平里","LIN":"10鄰","STREET":"永華路","SECT":"二段","MAREA":" ","LANE":" ","ALLEY":" ","HOUSE_NO":"１３５號","E_COORD97":166325.76999999999,"N_COORD97":2543323.46,"ADDRESS":"永華路二段１３５號","OBJECTID":551423},"geometry":{"x":166325.76999999955,"y":2543323.459999999}},{"attributes":{"ID":551451,"DIS_CODE":0,"TOWNNAME":"安平區","LI":"文平里","LIN":"10鄰","STREET":"永華路","SECT":"二段","MAREA":" ","LANE":" ","ALLEY":" ","HOUSE_NO":"１４１號","E_COORD97":166288.92000000001,"N_COORD97":2543323.02,"ADDRESS":"永華路二段１４１號","OBJECTID":551424},"geometry":{"x":166288.91999999993,"y":2543323.0200000014}},{"attributes":{"ID":551452,"DIS_CODE":0,"TOWNNAME":"安平區","LI":"文平里","LIN":"10鄰","STREET":"永華路","SECT":"二段","MAREA":" ","LANE":" ","ALLEY":" ","HOUSE_NO":"３２９號","E_COORD97":166096.45999999999,"N_COORD97":2543346.4900000002,"ADDRESS":"永華路二段３２９號","OBJECTID":551425},"geometry":{"x":166096.46000000089,"y":2543346.4900000039}},{"attributes":{"ID":551453,"DIS_CODE":0,"TOWNNAME":"安平區","LI":"文平里","LIN":"10鄰","STREET":"永華路","SECT":"二段","MAREA":" ","LANE":" ","ALLEY":" ","HOUSE_NO":"３６３號","E_COORD97":166014.70999999999,"N_COORD97":2543354.23,"ADDRESS":"永華路二段３６３號","OBJECTID":551426},"geometry":{"x":166014.70999999996,"y":2543354.2300000004}},{"attributes":{"ID":551454,"DIS_CODE":0,"TOWNNAME":"安平區","LI":"文平里","LIN":"10鄰","STREET":"永華路","SECT":"二段","MAREA":" ","LANE":" ","ALLEY":" ","HOUSE_NO":"３７３號","E_COORD97":165972.59,"N_COORD97":2543378.0800000001,"ADDRESS":"永華路二段３７３號","OBJECTID":551427},"geometry":{"x":165972.58999999985,"y":2543378.0800000001}},{"attributes":{"ID":551455,"DIS_CODE":0,"TOWNNAME":"安平區","LI":"平通里","LIN":"10鄰","STREET":"育平九街","SECT":" ","MAREA":" ","LANE":" ","ALLEY":" ","HOUSE_NO":"２３８號","E_COORD97":164931.64000000001,"N_COORD97":2544023.1099999999,"ADDRESS":"育平九街２３８號","OBJECTID":551428},"geometry":{"x":164931.63999999966,"y":2544023.1100000031}},{"attributes":{"ID":551456,"DIS_CODE":0,"TOWNNAME":"安平區","LI":"文平里","LIN":"10鄰","STREET":"永華路","SECT":"二段","MAREA":" ","LANE":" ","ALLEY":" ","HOUSE_NO":"１２９之１號","E_COORD97":166372.48999999999,"N_COORD97":2543320,"ADDRESS":"永華路二段１２９之１號","OBJECTID":551429},"geometry":{"x":166372.49000000022,"y":2543320.0000000019}},{"attributes":{"ID":551457,"DIS_CODE":0,"TOWNNAME":"安平區","LI":"怡平里","LIN":"10鄰","STREET":"永華六街","SECT":" ","MAREA":" ","LANE":" ","ALLEY":" ","HOUSE_NO":"１８８號","E_COORD97":165662.79999999999,"N_COORD97":2544043.1000000001,"ADDRESS":"永華六街１８８號","OBJECTID":551430},"geometry":{"x":165662.79999999981,"y":2544043.0999999996}},{"attributes":{"ID":551458,"DIS_CODE":0,"TOWNNAME":"安平區","LI":"怡平里","LIN":"10鄰","STREET":"永華六街","SECT":" ","MAREA":" ","LANE":" ","ALLEY":" ","HOUSE_NO":"１９０號","E_COORD97":165661.91,"N_COORD97":2544049.6899999999,"ADDRESS":"永華六街１９０號","OBJECTID":551431},"geometry":{"x":165661.91000000108,"y":2544049.6900000032}},{"attributes":{"ID":551459,"DIS_CODE":0,"TOWNNAME":"安平區","LI":"怡平里","LIN":"10鄰","STREET":"永華六街","SECT":" ","MAREA":" ","LANE":" ","ALLEY":" ","HOUSE_NO":"１９２號","E_COORD97":165663.19,"N_COORD97":2544053.5899999999,"ADDRESS":"永華六街１９２號","OBJECTID":551432},"geometry":{"x":165663.19000000134,"y":2544053.5899999999}},{"attributes":{"ID":551460,"DIS_CODE":0,"TOWNNAME":"安平區","LI":"怡平里","LIN":"10鄰","STREET":"永華六街","SECT":" ","MAREA":" ","LANE":" ","ALLEY":" ","HOUSE_NO":"１９４號","E_COORD97":165663.28,"N_COORD97":2544057.23,"ADDRESS":"永華六街１９４號","OBJECTID":551433},"geometry":{"x":165663.28000000026,"y":2544057.2300000042}},{"attributes":{"ID":551461,"DIS_CODE":0,"TOWNNAME":"鹽水區","LI":"水秀里","LIN":"10鄰","STREET":"朝琴路","SECT":" ","MAREA":" ","LANE":" ","ALLEY":" ","HOUSE_NO":"１０６號","E_COORD97":175388.66,"N_COORD97":2580112.0299999998,"ADDRESS":"朝琴路１０６號","OBJECTID":551434},"geometry":{"x":175388.66000000108,"y":2580112.0300000012}},{"attributes":{"ID":551462,"DIS_CODE":0,"TOWNNAME":"鹽水區","LI":"水秀里","LIN":"10鄰","STREET":"朝琴路","SECT":" ","MAREA":" ","LANE":" ","ALLEY":" ","HOUSE_NO":"１０７號","E_COORD97":175344.04999999999,"N_COORD97":2580115.7999999998,"ADDRESS":"朝琴路１０７號","OBJECTID":551435},"geometry":{"x":175344.04999999981,"y":2580115.8000000007}},{"attributes":{"ID":551463,"DIS_CODE":0,"TOWNNAME":"鹽水區","LI":"水秀里","LIN":"10鄰","STREET":"朝琴路","SECT":" ","MAREA":" ","LANE":" ","ALLEY":" ","HOUSE_NO":"１０９號","E_COORD97":175347.78,"N_COORD97":2580118.6000000001,"ADDRESS":"朝琴路１０９號","OBJECTID":551436},"geometry":{"x":175347.78000000026,"y":2580118.6000000015}},{"attributes":{"ID":551464,"DIS_CODE":0,"TOWNNAME":"鹽水區","LI":"水秀里","LIN":"10鄰","STREET":"朝琴路","SECT":" ","MAREA":" ","LANE":" ","ALLEY":" ","HOUSE_NO":"１１１號","E_COORD97":175351.01000000001,"N_COORD97":2580120.3700000001,"ADDRESS":"朝琴路１１１號","OBJECTID":551437},"geometry":{"x":175351.00999999978,"y":2580120.3700000048}},{"attributes":{"ID":551465,"DIS_CODE":0,"TOWNNAME":"鹽水區","LI":"水秀里","LIN":"10鄰","STREET":"朝琴路","SECT":" ","MAREA":" ","LANE":" ","ALLEY":" ","HOUSE_NO":"１１３號","E_COORD97":175354.53,"N_COORD97":2580122.1200000001,"ADDRESS":"朝琴路１１３號","OBJECTID":551438},"geometry":{"x":175354.53000000026,"y":2580122.1200000048}},{"attributes":{"ID":551466,"DIS_CODE":0,"TOWNNAME":"鹽水區","LI":"水秀里","LIN":"10鄰","STREET":"朝琴路","SECT":" ","MAREA":" ","LANE":" ","ALLEY":" ","HOUSE_NO":"１１５號","E_COORD97":175358.70999999999,"N_COORD97":2580124.4399999999,"ADDRESS":"朝琴路１１５號","OBJECTID":551439},"geometry":{"x":175358.71000000183,"y":2580124.4399999995}},{"attributes":{"ID":551467,"DIS_CODE":0,"TOWNNAME":"鹽水區","LI":"水秀里","LIN":"10鄰","STREET":"朝琴路","SECT":" ","MAREA":" ","LANE":" ","ALLEY":" ","HOUSE_NO":"１１７號","E_COORD97":175362.48999999999,"N_COORD97":2580126.6699999999,"ADDRESS":"朝琴路１１７號","OBJECTID":551440},"geometry":{"x":175362.49000000115,"y":2580126.6699999999}},{"attributes":{"ID":551468,"DIS_CODE":0,"TOWNNAME":"鹽水區","LI":"水秀里","LIN":"10鄰","STREET":"朝琴路","SECT":" ","MAREA":" ","LANE":" ","ALLEY":" ","HOUSE_NO":"１１９號","E_COORD97":175366.01999999999,"N_COORD97":2580129.3100000001,"ADDRESS":"朝琴路１１９號","OBJECTID":551441},"geometry":{"x":175366.01999999955,"y":2580129.3100000005}},{"attributes":{"ID":551469,"DIS_CODE":0,"TOWNNAME":"鹽水區","LI":"水秀里","LIN":"10鄰","STREET":"朝琴路","SECT":" ","MAREA":" ","LANE":" ","ALLEY":" ","HOUSE_NO":"１２１號","E_COORD97":175369.14999999999,"N_COORD97":2580132.8799999999,"ADDRESS":"朝琴路１２１號","OBJECTID":551442},"geometry":{"x":175369.15000000037,"y":2580132.8800000008}},{"attributes":{"ID":551470,"DIS_CODE":0,"TOWNNAME":"鹽水區","LI":"水秀里","LIN":"10鄰","STREET":"朝琴路","SECT":" ","MAREA":" ","LANE":" ","ALLEY":" ","HOUSE_NO":"１２３之１號","E_COORD97":175376.94,"N_COORD97":2580137.8599999999,"ADDRESS":"朝琴路１２３之１號","OBJECTID":551443},"geometry":{"x":175376.94000000134,"y":2580137.8599999994}},{"attributes":{"ID":551471,"DIS_CODE":0,"TOWNNAME":"鹽水區","LI":"水秀里","LIN":"10鄰","STREET":"朝琴路","SECT":" ","MAREA":" ","LANE":" ","ALLEY":" ","HOUSE_NO":"１２３號","E_COORD97":175373.04999999999,"N_COORD97":2580135.3700000001,"ADDRESS":"朝琴路１２３號","OBJECTID":551444},"geometry":{"x":175373.04999999981,"y":2580135.3700000029}},{"attributes":{"ID":551472,"DIS_CODE":0,"TOWNNAME":"鹽水區","LI":"水秀里","LIN":"10鄰","STREET":"朝琴路","SECT":" ","MAREA":" ","LANE":" ","ALLEY":" ","HOUSE_NO":"１２５號","E_COORD97":175380.82999999999,"N_COORD97":2580140.3399999999,"ADDRESS":"朝琴路１２５號","OBJECTID":551445},"geometry":{"x":175380.83000000101,"y":2580140.3400000017}},{"attributes":{"ID":551473,"DIS_CODE":0,"TOWNNAME":"鹽水區","LI":"橋南里","LIN":"10鄰","STREET":"橋南街","SECT":" ","MAREA":" ","LANE":" ","ALLEY":" ","HOUSE_NO":"９０號","E_COORD97":175129.35999999999,"N_COORD97":2579367.7400000002,"ADDRESS":"橋南街９０號","OBJECTID":551446},"geometry":{"x":175129.3600000022,"y":2579367.7400000039}},{"attributes":{"ID":551474,"DIS_CODE":0,"TOWNNAME":"鹽水區","LI":"橋南里","LIN":"10鄰","STREET":"橋南街","SECT":" ","MAREA":" ","LANE":" ","ALLEY":" ","HOUSE_NO":"９４號","E_COORD97":175146.94,"N_COORD97":2579360.3399999999,"ADDRESS":"橋南街９４號","OBJECTID":551447},"geometry":{"x":175146.94000000041,"y":2579360.3400000017}},{"attributes":{"ID":551475,"DIS_CODE":0,"TOWNNAME":"歸仁區","LI":"後市里","LIN":"10鄰","STREET":"大順六街","SECT":" ","MAREA":" ","LANE":" ","ALLEY":" ","HOUSE_NO":"３９號","E_COORD97":177027.81,"N_COORD97":2540696.25,"ADDRESS":"大順六街３９號","OBJECTID":551448},"geometry":{"x":177027.81000000052,"y":2540696.25}},{"attributes":{"ID":551476,"DIS_CODE":0,"TOWNNAME":"歸仁區","LI":"南興里","LIN":"10鄰","STREET":"文化十六街","SECT":" ","MAREA":" ","LANE":" ","ALLEY":" ","HOUSE_NO":"５５號","E_COORD97":176016.67000000001,"N_COORD97":2541324.2599999998,"ADDRESS":"文化十六街５５號","OBJECTID":551449},"geometry":{"x":176016.67000000179,"y":2541324.2600000016}},{"attributes":{"ID":551477,"DIS_CODE":0,"TOWNNAME":"歸仁區","LI":"後市里","LIN":"10鄰","STREET":"民權南路","SECT":" ","MAREA":" ","LANE":" ","ALLEY":" ","HOUSE_NO":"１３９號","E_COORD97":176983.94,"N_COORD97":2540695.25,"ADDRESS":"民權南路１３９號","OBJECTID":551450},"geometry":{"x":176983.94000000134,"y":2540695.25}},{"attributes":{"ID":551478,"DIS_CODE":0,"TOWNNAME":"歸仁區","LI":"南保里","LIN":"10鄰","STREET":"文化街","SECT":"三段","MAREA":" ","LANE":" ","ALLEY":" ","HOUSE_NO":"１１４號","E_COORD97":176722.92000000001,"N_COORD97":2541223.2599999998,"ADDRESS":"文化街三段１１４號","OBJECTID":551451},"geometry":{"x":176722.91999999993,"y":2541223.2600000016}},{"attributes":{"ID":551479,"DIS_CODE":0,"TOWNNAME":"歸仁區","LI":"南保里","LIN":"10鄰","STREET":"文化街","SECT":"三段","MAREA":" ","LANE":" ","ALLEY":" ","HOUSE_NO":"１２８號","E_COORD97":176685.92000000001,"N_COORD97":2541217.2599999998,"ADDRESS":"文化街三段１２８號","OBJECTID":551452},"geometry":{"x":176685.91999999993,"y":2541217.2599999998}},{"attributes":{"ID":551480,"DIS_CODE":0,"TOWNNAME":"歸仁區","LI":"南保里","LIN":"10鄰","STREET":"文化街","SECT":"三段","MAREA":" ","LANE":" ","ALLEY":" ","HOUSE_NO":"１１８號","E_COORD97":176712.62,"N_COORD97":2541222.2599999998,"ADDRESS":"文化街三段１１８號","OBJECTID":551453},"geometry":{"x":176712.62000000104,"y":2541222.2600000016}},{"attributes":{"ID":551481,"DIS_CODE":0,"TOWNNAME":"歸仁區","LI":"後市里","LIN":"10鄰","STREET":"大順六街","SECT":" ","MAREA":" ","LANE":" ","ALLEY":" ","HOUSE_NO":"３７號","E_COORD97":177027.81,"N_COORD97":2540693.25,"ADDRESS":"大順六街３７號","OBJECTID":551454},"geometry":{"x":177027.81000000052,"y":2540693.2500000037}},{"attributes":{"ID":551482,"DIS_CODE":0,"TOWNNAME":"歸仁區","LI":"看東里","LIN":"10鄰","STREET":"忠孝南路","SECT":" ","MAREA":" ","LANE":" ","ALLEY":" ","HOUSE_NO":"１７３號","E_COORD97":178570.82000000001,"N_COORD97":2540239.6800000002,"ADDRESS":"忠孝南路１７３號","OBJECTID":551455},"geometry":{"x":178570.82000000216,"y":2540239.6800000016}},{"attributes":{"ID":551483,"DIS_CODE":0,"TOWNNAME":"歸仁區","LI":"崙頂里","LIN":"10鄰","STREET":"崙頂五街","SECT":" ","MAREA":" ","LANE":" ","ALLEY":" ","HOUSE_NO":"５０號","E_COORD97":178011.64000000001,"N_COORD97":2539828.25,"ADDRESS":"崙頂五街５０號","OBJECTID":551456},"geometry":{"x":178011.63999999966,"y":2539828.25}},{"attributes":{"ID":551484,"DIS_CODE":0,"TOWNNAME":"歸仁區","LI":"南保里","LIN":"10鄰","STREET":"文化街","SECT":"三段","MAREA":" ","LANE":" ","ALLEY":" ","HOUSE_NO":"１１２號","E_COORD97":176726.01999999999,"N_COORD97":2541223.2599999998,"ADDRESS":"文化街三段１１２號","OBJECTID":551457},"geometry":{"x":176726.02000000142,"y":2541223.2600000016}},{"attributes":{"ID":551485,"DIS_CODE":0,"TOWNNAME":"歸仁區","LI":"後市里","LIN":"10鄰","STREET":"大順六街","SECT":" ","MAREA":" ","LANE":" ","ALLEY":" ","HOUSE_NO":"４１號","E_COORD97":177027.81,"N_COORD97":2540701.25,"ADDRESS":"大順六街４１號","OBJECTID":551458},"geometry":{"x":177027.81000000052,"y":2540701.2500000019}},{"attributes":{"ID":551486,"DIS_CODE":0,"TOWNNAME":"歸仁區","LI":"後市里","LIN":"10鄰","STREET":"大順六街","SECT":" ","MAREA":" ","LANE":" ","ALLEY":" ","HOUSE_NO":"４３號","E_COORD97":177027.81,"N_COORD97":2540705.25,"ADDRESS":"大順六街４３號","OBJECTID":551459},"geometry":{"x":177027.81000000052,"y":2540705.25}},{"attributes":{"ID":551487,"DIS_CODE":0,"TOWNNAME":"歸仁區","LI":"南保里","LIN":"10鄰","STREET":"文化街","SECT":"三段","MAREA":" ","LANE":" ","ALLEY":" ","HOUSE_NO":"１１０號","E_COORD97":176729.01999999999,"N_COORD97":2541224.2599999998,"ADDRESS":"文化街三段１１０號","OBJECTID":551460},"geometry":{"x":176729.01999999955,"y":2541224.2599999998}},{"attributes":{"ID":551488,"DIS_CODE":0,"TOWNNAME":"北區","LI":"安民里","LIN":"10鄰","STREET":"成功路","SECT":" ","MAREA":" ","LANE":" ","ALLEY":" ","HOUSE_NO":"４４２號","E_COORD97":167762.78,"N_COORD97":2544627.1200000001,"ADDRESS":"成功路４４２號","OBJECTID":551461},"geometry":{"x":167762.78000000119,"y":2544627.120000001}},{"attributes":{"ID":551489,"DIS_CODE":0,"TOWNNAME":"北區","LI":"安民里","LIN":"10鄰","STREET":"成功路","SECT":" ","MAREA":" ","LANE":" ","ALLEY":" ","HOUSE_NO":"４４６號","E_COORD97":167759.82999999999,"N_COORD97":2544629.2200000002,"ADDRESS":"成功路４４６號","OBJECTID":551462},"geometry":{"x":167759.83000000007,"y":2544629.2200000007}},{"attributes":{"ID":551490,"DIS_CODE":0,"TOWNNAME":"北區","LI":"安民里","LIN":"10鄰","STREET":"成功路","SECT":" ","MAREA":" ","LANE":" ","ALLEY":" ","HOUSE_NO":"４４８號","E_COORD97":167755.20999999999,"N_COORD97":2544631.1099999999,"ADDRESS":"成功路４４８號","OBJECTID":551463},"geometry":{"x":167755.20999999996,"y":2544631.1100000013}},{"attributes":{"ID":551491,"DIS_CODE":0,"TOWNNAME":"北區","LI":"實踐里","LIN":"10鄰","STREET":"大武街","SECT":" ","MAREA":" ","LANE":" ","ALLEY":" ","HOUSE_NO":"１４２之１號","E_COORD97":169644.10999999999,"N_COORD97":2545962.7400000002,"ADDRESS":"大武街１４２之１號","OBJECTID":551464},"geometry":{"x":169644.11000000127,"y":2545962.7400000021}},{"attributes":{"ID":551492,"DIS_CODE":0,"TOWNNAME":"新營區","LI":"民榮里","LIN":"10鄰","STREET":"裕民路","SECT":" ","MAREA":" ","LANE":" ","ALLEY":" ","HOUSE_NO":"１５之３號","E_COORD97":179172.28,"N_COORD97":2577822.54,"ADDRESS":"裕民路１５之３號","OBJECTID":551465},"geometry":{"x":179172.28000000026,"y":2577822.540000001}},{"attributes":{"ID":551493,"DIS_CODE":0,"TOWNNAME":"新營區","LI":"民榮里","LIN":"10鄰","STREET":"裕民路","SECT":" ","MAREA":" ","LANE":" ","ALLEY":" ","HOUSE_NO":"１３之４號","E_COORD97":179155.89999999999,"N_COORD97":2577819.29,"ADDRESS":"裕民路１３之４號","OBJECTID":551466},"geometry":{"x":179155.9000000013,"y":2577819.2899999991}},{"attributes":{"ID":551494,"DIS_CODE":0,"TOWNNAME":"新營區","LI":"民榮里","LIN":"10鄰","STREET":"裕民路","SECT":" ","MAREA":" ","LANE":" ","ALLEY":" ","HOUSE_NO":"１５之２號","E_COORD97":179172.29999999999,"N_COORD97":2577825.8599999999,"ADDRESS":"裕民路１５之２號","OBJECTID":551467},"geometry":{"x":179172.30000000168,"y":2577825.8599999994}},{"attributes":{"ID":551495,"DIS_CODE":0,"TOWNNAME":"新營區","LI":"忠政里","LIN":"10鄰","STREET":"中正路","SECT":" ","MAREA":" ","LANE":" ","ALLEY":" ","HOUSE_NO":"５３之２號","E_COORD97":180064.98000000001,"N_COORD97":2579486.1200000001,"ADDRESS":"中正路５３之２號","OBJECTID":551468},"geometry":{"x":180064.98000000231,"y":2579486.1200000029}},{"attributes":{"ID":551496,"DIS_CODE":0,"TOWNNAME":"新營區","LI":"民榮里","LIN":"10鄰","STREET":"裕民路","SECT":" ","MAREA":" ","LANE":" ","ALLEY":" ","HOUSE_NO":"１７號","E_COORD97":179186.20000000001,"N_COORD97":2577832.3799999999,"ADDRESS":"裕民路１７號","OBJECTID":551469},"geometry":{"x":179186.20000000019,"y":2577832.379999999}},{"attributes":{"ID":551497,"DIS_CODE":0,"TOWNNAME":"新營區","LI":"民榮里","LIN":"10鄰","STREET":"裕民路","SECT":" ","MAREA":" ","LANE":" ","ALLEY":" ","HOUSE_NO":"１３之７號","E_COORD97":179155.85999999999,"N_COORD97":2577810.4399999999,"ADDRESS":"裕民路１３之７號","OBJECTID":551470},"geometry":{"x":179155.86000000127,"y":2577810.4400000013}},{"attributes":{"ID":551498,"DIS_CODE":0,"TOWNNAME":"新營區","LI":"好平里","LIN":"10鄰","STREET":"濟安街","SECT":" ","MAREA":" ","LANE":" ","ALLEY":" ","HOUSE_NO":"５號","E_COORD97":179473.89000000001,"N_COORD97":2577929.5600000001,"ADDRESS":"濟安街５號","OBJECTID":551471},"geometry":{"x":179473.8900000006,"y":2577929.5600000024}},{"attributes":{"ID":551499,"DIS_CODE":0,"TOWNNAME":"新營區","LI":"民生里","LIN":"10鄰","STREET":"三民路","SECT":" ","MAREA":" ","LANE":" ","ALLEY":" ","HOUSE_NO":"１５３號","E_COORD97":179189.54000000001,"N_COORD97":2578054.96,"ADDRESS":"三民路１５３號","OBJECTID":551472},"geometry":{"x":179189.5400000019,"y":2578054.9600000046}},{"attributes":{"ID":551500,"DIS_CODE":0,"TOWNNAME":"新營區","LI":"民生里","LIN":"10鄰","STREET":"三民路","SECT":" ","MAREA":" ","LANE":" ","ALLEY":" ","HOUSE_NO":"１４５號","E_COORD97":179212.26999999999,"N_COORD97":2578102.48,"ADDRESS":"三民路１４５號","OBJECTID":551473},"geometry":{"x":179212.26999999955,"y":2578102.4800000023}},{"attributes":{"ID":551501,"DIS_CODE":0,"TOWNNAME":"新營區","LI":"民權里","LIN":"10鄰","STREET":"中華路","SECT":" ","MAREA":" ","LANE":" ","ALLEY":" ","HOUSE_NO":"１１號","E_COORD97":179925.59,"N_COORD97":2578227.54,"ADDRESS":"中華路１１號","OBJECTID":551474},"geometry":{"x":179925.58999999985,"y":2578227.5399999991}},{"attributes":{"ID":551502,"DIS_CODE":0,"TOWNNAME":"新營區","LI":"民榮里","LIN":"10鄰","STREET":"裕民路","SECT":" ","MAREA":" ","LANE":" ","ALLEY":" ","HOUSE_NO":"２３號","E_COORD97":179202.54000000001,"N_COORD97":2577812.3700000001,"ADDRESS":"裕民路２３號","OBJECTID":551475},"geometry":{"x":179202.54000000004,"y":2577812.3700000029}},{"attributes":{"ID":551503,"DIS_CODE":0,"TOWNNAME":"新營區","LI":"民榮里","LIN":"10鄰","STREET":"裕民路","SECT":" ","MAREA":" ","LANE":" ","ALLEY":" ","HOUSE_NO":"１３之１號","E_COORD97":179155.94,"N_COORD97":2577828.1499999999,"ADDRESS":"裕民路１３之１號","OBJECTID":551476},"geometry":{"x":179155.94000000041,"y":2577828.1500000004}},{"attributes":{"ID":551504,"DIS_CODE":0,"TOWNNAME":"新營區","LI":"民榮里","LIN":"10鄰","STREET":"裕民路","SECT":" ","MAREA":" ","LANE":" ","ALLEY":" ","HOUSE_NO":"１３之３號","E_COORD97":179155.92000000001,"N_COORD97":2577822.6200000001,"ADDRESS":"裕民路１３之３號","OBJECTID":551477},"geometry":{"x":179155.91999999993,"y":2577822.620000001}},{"attributes":{"ID":551505,"DIS_CODE":0,"TOWNNAME":"新營區","LI":"民榮里","LIN":"10鄰","STREET":"裕民路","SECT":" ","MAREA":" ","LANE":" ","ALLEY":" ","HOUSE_NO":"１７之６號","E_COORD97":179188.60000000001,"N_COORD97":2577812.4900000002,"ADDRESS":"裕民路１７之６號","OBJECTID":551478},"geometry":{"x":179188.60000000149,"y":2577812.4900000002}},{"attributes":{"ID":551506,"DIS_CODE":0,"TOWNNAME":"新營區","LI":"民榮里","LIN":"10鄰","STREET":"裕民路","SECT":" ","MAREA":" ","LANE":" ","ALLEY":" ","HOUSE_NO":"１５之１號","E_COORD97":179172.32000000001,"N_COORD97":2577829.1800000002,"ADDRESS":"裕民路１５之１號","OBJECTID":551479},"geometry":{"x":179172.3200000003,"y":2577829.1800000016}},{"attributes":{"ID":551507,"DIS_CODE":0,"TOWNNAME":"新營區","LI":"民榮里","LIN":"10鄰","STREET":"裕民路","SECT":" ","MAREA":" ","LANE":" ","ALLEY":" ","HOUSE_NO":"１３號","E_COORD97":179153.45999999999,"N_COORD97":2577831.4300000002,"ADDRESS":"裕民路１３號","OBJECTID":551480},"geometry":{"x":179153.45999999996,"y":2577831.4300000016}},{"attributes":{"ID":551508,"DIS_CODE":0,"TOWNNAME":"新營區","LI":"民榮里","LIN":"10鄰","STREET":"裕民路","SECT":" ","MAREA":" ","LANE":" ","ALLEY":" ","HOUSE_NO":"１５號","E_COORD97":179169.82999999999,"N_COORD97":2577832.4500000002,"ADDRESS":"裕民路１５號","OBJECTID":551481},"geometry":{"x":179169.83000000007,"y":2577832.4499999974}},{"attributes":{"ID":551509,"DIS_CODE":0,"TOWNNAME":"新營區","LI":"民榮里","LIN":"10鄰","STREET":"裕民路","SECT":" ","MAREA":" ","LANE":" ","ALLEY":" ","HOUSE_NO":"１３之５號","E_COORD97":179155.89000000001,"N_COORD97":2577815.9700000002,"ADDRESS":"裕民路１３之５號","OBJECTID":551482},"geometry":{"x":179155.88999999966,"y":2577815.9700000007}},{"attributes":{"ID":551510,"DIS_CODE":0,"TOWNNAME":"新營區","LI":"民榮里","LIN":"10鄰","STREET":"裕民路","SECT":" ","MAREA":" ","LANE":" ","ALLEY":" ","HOUSE_NO":"１９號","E_COORD97":179202.54999999999,"N_COORD97":2577831.1899999999,"ADDRESS":"裕民路１９號","OBJECTID":551483},"geometry":{"x":179202.54999999888,"y":2577831.1900000032}},{"attributes":{"ID":551511,"DIS_CODE":0,"TOWNNAME":"永康區","LI":"南灣里","LIN":"10鄰","STREET":"南興路","SECT":" ","MAREA":" ","LANE":" ","ALLEY":" ","HOUSE_NO":"６１號","E_COORD97":174205.35000000001,"N_COORD97":2544227.2400000002,"ADDRESS":"南興路６１號","OBJECTID":551484},"geometry":{"x":174205.35000000056,"y":2544227.2400000021}},{"attributes":{"ID":551512,"DIS_CODE":0,"TOWNNAME":"永康區","LI":"埔園里","LIN":"10鄰","STREET":"自強路","SECT":" ","MAREA":" ","LANE":" ","ALLEY":" ","HOUSE_NO":"４１２號","E_COORD97":173631.82999999999,"N_COORD97":2547843.2400000002,"ADDRESS":"自強路４１２號","OBJECTID":551485},"geometry":{"x":173631.83000000007,"y":2547843.2400000002}},{"attributes":{"ID":551513,"DIS_CODE":0,"TOWNNAME":"永康區","LI":"烏竹里","LIN":"10鄰","STREET":"竹園二街","SECT":" ","MAREA":" ","LANE":" ","ALLEY":" ","HOUSE_NO":"１５１號","E_COORD97":174523.44,"N_COORD97":2549253.9900000002,"ADDRESS":"竹園二街１５１號","OBJECTID":551486},"geometry":{"x":174523.44000000041,"y":2549253.9900000021}},{"attributes":{"ID":551514,"DIS_CODE":0,"TOWNNAME":"永康區","LI":"烏竹里","LIN":"10鄰","STREET":"竹園二街","SECT":" ","MAREA":" ","LANE":" ","ALLEY":" ","HOUSE_NO":"１５９號","E_COORD97":174539.64999999999,"N_COORD97":2549262.9900000002,"ADDRESS":"竹園二街１５９號","OBJECTID":551487},"geometry":{"x":174539.6500000013,"y":2549262.9900000021}},{"attributes":{"ID":551515,"DIS_CODE":0,"TOWNNAME":"永康區","LI":"烏竹里","LIN":"10鄰","STREET":"竹園二街","SECT":" ","MAREA":" ","LANE":" ","ALLEY":" ","HOUSE_NO":"１４６號","E_COORD97":174537.10999999999,"N_COORD97":2549238.3199999998,"ADDRESS":"竹園二街１４６號","OBJECTID":551488},"geometry":{"x":174537.11000000034,"y":2549238.3200000022}},{"attributes":{"ID":551516,"DIS_CODE":0,"TOWNNAME":"永康區","LI":"烏竹里","LIN":"10鄰","STREET":"竹園二街","SECT":" ","MAREA":" ","LANE":" ","ALLEY":" ","HOUSE_NO":"１３２號","E_COORD97":174517.39999999999,"N_COORD97":2549227.3199999998,"ADDRESS":"竹園二街１３２號","OBJECTID":551489},"geometry":{"x":174517.4000000013,"y":2549227.3200000022}},{"attributes":{"ID":551517,"DIS_CODE":0,"TOWNNAME":"安南區","LI":"原佃里","LIN":"10鄰","STREET":"本原街","SECT":"一段","MAREA":" ","LANE":" ","ALLEY":" ","HOUSE_NO":"４７６之５號","E_COORD97":167340.57000000001,"N_COORD97":2550512.7799999998,"ADDRESS":"本原街一段４７６之５號","OBJECTID":551490},"geometry":{"x":167340.57000000123,"y":2550512.7799999993}},{"attributes":{"ID":551518,"DIS_CODE":0,"TOWNNAME":"安南區","LI":"原佃里","LIN":"10鄰","STREET":"本原街","SECT":"一段","MAREA":" ","LANE":" ","ALLEY":" ","HOUSE_NO":"４７６之６號","E_COORD97":167336.60000000001,"N_COORD97":2550514.21,"ADDRESS":"本原街一段４７６之６號","OBJECTID":551491},"geometry":{"x":167336.60000000056,"y":2550514.2100000028}},{"attributes":{"ID":551519,"DIS_CODE":0,"TOWNNAME":"安南區","LI":"原佃里","LIN":"10鄰","STREET":"本原街","SECT":"一段","MAREA":" ","LANE":" ","ALLEY":" ","HOUSE_NO":"４７６之７號","E_COORD97":167333.57999999999,"N_COORD97":2550515.7999999998,"ADDRESS":"本原街一段４７６之７號","OBJECTID":551492},"geometry":{"x":167333.58000000101,"y":2550515.8000000045}},{"attributes":{"ID":551520,"DIS_CODE":0,"TOWNNAME":"新營區","LI":"新東里","LIN":"10鄰","STREET":"東林街","SECT":" ","MAREA":" ","LANE":" ","ALLEY":" ","HOUSE_NO":"３２號","E_COORD97":181387.64999999999,"N_COORD97":2579750.3999999999,"ADDRESS":"東林街３２號","OBJECTID":551493},"geometry":{"x":181387.65000000224,"y":2579750.4000000022}},{"attributes":{"ID":551521,"DIS_CODE":0,"TOWNNAME":"新營區","LI":"新東里","LIN":"10鄰","STREET":"東林街","SECT":" ","MAREA":" ","LANE":" ","ALLEY":" ","HOUSE_NO":"３６號","E_COORD97":181392.14000000001,"N_COORD97":2579749.0499999998,"ADDRESS":"東林街３６號","OBJECTID":551494},"geometry":{"x":181392.14000000153,"y":2579749.0500000045}},{"attributes":{"ID":551522,"DIS_CODE":0,"TOWNNAME":"新營區","LI":"新東里","LIN":"10鄰","STREET":"東林街","SECT":" ","MAREA":" ","LANE":" ","ALLEY":" ","HOUSE_NO":"３８號","E_COORD97":181396.45000000001,"N_COORD97":2579747.6699999999,"ADDRESS":"東林街３８號","OBJECTID":551495},"geometry":{"x":181396.45000000112,"y":2579747.6700000037}},{"attributes":{"ID":551523,"DIS_CODE":0,"TOWNNAME":"新營區","LI":"新東里","LIN":"10鄰","STREET":"東林街","SECT":" ","MAREA":" ","LANE":" ","ALLEY":" ","HOUSE_NO":"４０號","E_COORD97":181400.44,"N_COORD97":2579746.3999999999,"ADDRESS":"東林街４０號","OBJECTID":551496},"geometry":{"x":181400.44000000041,"y":2579746.4000000041}},{"attributes":{"ID":551524,"DIS_CODE":0,"TOWNNAME":"新營區","LI":"南紙里","LIN":"10鄰","STREET":"南紙街","SECT":" ","MAREA":" ","LANE":" ","ALLEY":" ","HOUSE_NO":"８０之１號","E_COORD97":177793.37,"N_COORD97":2577620.5499999998,"ADDRESS":"南紙街８０之１號","OBJECTID":551497},"geometry":{"x":177793.37000000011,"y":2577620.5500000026}},{"attributes":{"ID":551525,"DIS_CODE":0,"TOWNNAME":"新營區","LI":"嘉芳里","LIN":"10鄰","STREET":"復興路","SECT":" ","MAREA":" ","LANE":" ","ALLEY":" ","HOUSE_NO":"７８６－１號","E_COORD97":176894.78,"N_COORD97":2578725.0699999998,"ADDRESS":"復興路７８６－１號","OBJECTID":551498},"geometry":{"x":176894.78000000119,"y":2578725.0700000022}},{"attributes":{"ID":551526,"DIS_CODE":0,"TOWNNAME":"楠西區","LI":"東勢里","LIN":"10鄰","STREET":"水庫路","SECT":" ","MAREA":" ","LANE":" ","ALLEY":" ","HOUSE_NO":"３０６號","E_COORD97":197721.87,"N_COORD97":2563995.25,"ADDRESS":"水庫路３０６號","OBJECTID":551499},"geometry":{"x":197721.87000000011,"y":2563995.2500000037}},{"attributes":{"ID":551527,"DIS_CODE":0,"TOWNNAME":"楠西區","LI":"東勢里","LIN":"10鄰","STREET":"水庫路","SECT":" ","MAREA":" ","LANE":" ","ALLEY":" ","HOUSE_NO":"３８４號","E_COORD97":197684.76999999999,"N_COORD97":2563810.25,"ADDRESS":"水庫路３８４號","OBJECTID":551500},"geometry":{"x":197684.76999999955,"y":2563810.2500000019}},{"attributes":{"ID":551528,"DIS_CODE":0,"TOWNNAME":"新營區","LI":"嘉芳里","LIN":"10鄰","STREET":"復興路","SECT":" ","MAREA":" ","LANE":" ","ALLEY":" ","HOUSE_NO":"７８６號","E_COORD97":176896.12,"N_COORD97":2578704.6400000001,"ADDRESS":"復興路７８６號","OBJECTID":551501},"geometry":{"x":176896.12000000104,"y":2578704.6400000025}},{"attributes":{"ID":551529,"DIS_CODE":0,"TOWNNAME":"新營區","LI":"興安里","LIN":"10鄰","STREET":"新進路","SECT":" ","MAREA":" ","LANE":" ","ALLEY":" ","HOUSE_NO":"３１１號","E_COORD97":179926.32999999999,"N_COORD97":2577785.4700000002,"ADDRESS":"新進路３１１號","OBJECTID":551502},"geometry":{"x":179926.33000000007,"y":2577785.4700000007}},{"attributes":{"ID":551530,"DIS_CODE":0,"TOWNNAME":"楠西區","LI":"東勢里","LIN":"10鄰","STREET":"信義路","SECT":" ","MAREA":" ","LANE":" ","ALLEY":" ","HOUSE_NO":"２８６號","E_COORD97":197706.47,"N_COORD97":2564048.27,"ADDRESS":"信義路２８６號","OBJECTID":551503},"geometry":{"x":197706.47000000067,"y":2564048.2699999996}},{"attributes":{"ID":551531,"DIS_CODE":0,"TOWNNAME":"楠西區","LI":"東勢里","LIN":"10鄰","STREET":"水庫路","SECT":" ","MAREA":" ","LANE":" ","ALLEY":" ","HOUSE_NO":"３１６號","E_COORD97":197712.17000000001,"N_COORD97":2563966.25,"ADDRESS":"水庫路３１６號","OBJECTID":551504},"geometry":{"x":197712.17000000086,"y":2563966.2500000019}},{"attributes":{"ID":551532,"DIS_CODE":0,"TOWNNAME":"楠西區","LI":"東勢里","LIN":"10鄰","STREET":"信義路","SECT":" ","MAREA":" ","LANE":" ","ALLEY":" ","HOUSE_NO":"２４６號","E_COORD97":197690.76999999999,"N_COORD97":2563968.27,"ADDRESS":"信義路２４６號","OBJECTID":551505},"geometry":{"x":197690.77000000048,"y":2563968.2700000014}},{"attributes":{"ID":551533,"DIS_CODE":0,"TOWNNAME":"楠西區","LI":"東勢里","LIN":"10鄰","STREET":"信義路","SECT":" ","MAREA":" ","LANE":" ","ALLEY":" ","HOUSE_NO":"２６８號","E_COORD97":197708.26999999999,"N_COORD97":2564011.27,"ADDRESS":"信義路２６８號","OBJECTID":551506},"geometry":{"x":197708.26999999955,"y":2564011.2699999996}},{"attributes":{"ID":551534,"DIS_CODE":0,"TOWNNAME":"楠西區","LI":"東勢里","LIN":"10鄰","STREET":"信義路","SECT":" ","MAREA":" ","LANE":" ","ALLEY":" ","HOUSE_NO":"２３８號","E_COORD97":197688.57000000001,"N_COORD97":2563961.2599999998,"ADDRESS":"信義路２３８號","OBJECTID":551507},"geometry":{"x":197688.5700000003,"y":2563961.2600000035}},{"attributes":{"ID":551535,"DIS_CODE":0,"TOWNNAME":"楠西區","LI":"東勢里","LIN":"10鄰","STREET":"水庫路","SECT":" ","MAREA":" ","LANE":" ","ALLEY":" ","HOUSE_NO":"３８０號","E_COORD97":197687.67000000001,"N_COORD97":2563824.25,"ADDRESS":"水庫路３８０號","OBJECTID":551508},"geometry":{"x":197687.66999999993,"y":2563824.25}},{"attributes":{"ID":551536,"DIS_CODE":0,"TOWNNAME":"楠西區","LI":"楠西里","LIN":"10鄰","STREET":"中華路","SECT":" ","MAREA":" ","LANE":" ","ALLEY":" ","HOUSE_NO":"７７號","E_COORD97":197292.60999999999,"N_COORD97":2564199.25,"ADDRESS":"中華路７７號","OBJECTID":551509},"geometry":{"x":197292.61000000127,"y":2564199.2500000019}},{"attributes":{"ID":551537,"DIS_CODE":0,"TOWNNAME":"學甲區","LI":"仁得里","LIN":"10鄰","STREET":"八德街","SECT":" ","MAREA":" ","LANE":" ","ALLEY":" ","HOUSE_NO":"１０８號之１","E_COORD97":166036.01000000001,"N_COORD97":2569741.0299999998,"ADDRESS":"八德街１０８號之１","OBJECTID":551510},"geometry":{"x":166036.00999999978,"y":2569741.0300000012}},{"attributes":{"ID":551538,"DIS_CODE":0,"TOWNNAME":"學甲區","LI":"仁得里","LIN":"10鄰","STREET":"八德街","SECT":" ","MAREA":" ","LANE":" ","ALLEY":" ","HOUSE_NO":"１０８號之２","E_COORD97":166036.44,"N_COORD97":2569744.96,"ADDRESS":"八德街１０８號之２","OBJECTID":551511},"geometry":{"x":166036.44000000134,"y":2569744.9600000046}},{"attributes":{"ID":551539,"DIS_CODE":0,"TOWNNAME":"學甲區","LI":"仁得里","LIN":"10鄰","STREET":"八德街","SECT":" ","MAREA":" ","LANE":" ","ALLEY":" ","HOUSE_NO":"１０８號之３","E_COORD97":166036.57999999999,"N_COORD97":2569749.52,"ADDRESS":"八德街１０８號之３","OBJECTID":551512},"geometry":{"x":166036.58000000101,"y":2569749.5199999996}},{"attributes":{"ID":551540,"DIS_CODE":0,"TOWNNAME":"學甲區","LI":"仁得里","LIN":"10鄰","STREET":"八德街","SECT":" ","MAREA":" ","LANE":" ","ALLEY":" ","HOUSE_NO":"１０８號","E_COORD97":166044.42999999999,"N_COORD97":2569725.6000000001,"ADDRESS":"八德街１０８號","OBJECTID":551513},"geometry":{"x":166044.43000000063,"y":2569725.6000000034}},{"attributes":{"ID":551541,"DIS_CODE":0,"TOWNNAME":"學甲區","LI":"仁得里","LIN":"10鄰","STREET":"八德街","SECT":" ","MAREA":" ","LANE":" ","ALLEY":" ","HOUSE_NO":"１１０號","E_COORD97":166039.98999999999,"N_COORD97":2569726.5499999998,"ADDRESS":"八德街１１０號","OBJECTID":551514},"geometry":{"x":166039.99000000022,"y":2569726.5500000007}},{"attributes":{"ID":551542,"DIS_CODE":0,"TOWNNAME":"學甲區","LI":"仁得里","LIN":"10鄰","STREET":"八德街","SECT":" ","MAREA":" ","LANE":" ","ALLEY":" ","HOUSE_NO":"１１２號","E_COORD97":166035.29999999999,"N_COORD97":2569727.4500000002,"ADDRESS":"八德街１１２號","OBJECTID":551515},"geometry":{"x":166035.29999999981,"y":2569727.4500000011}},{"attributes":{"ID":551543,"DIS_CODE":0,"TOWNNAME":"學甲區","LI":"仁得里","LIN":"10鄰","STREET":"八德街","SECT":" ","MAREA":" ","LANE":" ","ALLEY":" ","HOUSE_NO":"１１４號","E_COORD97":166031.20000000001,"N_COORD97":2569728.2200000002,"ADDRESS":"八德街１１４號","OBJECTID":551516},"geometry":{"x":166031.20000000112,"y":2569728.2200000007}},{"attributes":{"ID":551544,"DIS_CODE":0,"TOWNNAME":"學甲區","LI":"仁得里","LIN":"10鄰","STREET":"八德街","SECT":" ","MAREA":" ","LANE":" ","ALLEY":" ","HOUSE_NO":"１１６號","E_COORD97":166026.98000000001,"N_COORD97":2569729.0899999999,"ADDRESS":"八德街１１６號","OBJECTID":551517},"geometry":{"x":166026.98000000045,"y":2569729.089999998}},{"attributes":{"ID":551545,"DIS_CODE":0,"TOWNNAME":"學甲區","LI":"仁得里","LIN":"10鄰","STREET":"八德街","SECT":" ","MAREA":" ","LANE":" ","ALLEY":" ","HOUSE_NO":"１１８號","E_COORD97":166022.42000000001,"N_COORD97":2569729.9100000001,"ADDRESS":"八德街１１８號","OBJECTID":551518},"geometry":{"x":166022.42000000086,"y":2569729.9100000001}},{"attributes":{"ID":551546,"DIS_CODE":0,"TOWNNAME":"東山區","LI":"東中里","LIN":"10鄰","STREET":"育仁街","SECT":" ","MAREA":" ","LANE":" ","ALLEY":" ","HOUSE_NO":"１２２號","E_COORD97":188646.95000000001,"N_COORD97":2579592.6200000001,"ADDRESS":"育仁街１２２號","OBJECTID":551519},"geometry":{"x":188646.95000000019,"y":2579592.620000001}},{"attributes":{"ID":551547,"DIS_CODE":0,"TOWNNAME":"東山區","LI":"東中里","LIN":"10鄰","STREET":"育仁街","SECT":" ","MAREA":" ","LANE":" ","ALLEY":" ","HOUSE_NO":"６５號之１","E_COORD97":188687.09,"N_COORD97":2579538.21,"ADDRESS":"育仁街６５號之１","OBJECTID":551520},"geometry":{"x":188687.09000000171,"y":2579538.2100000046}},{"attributes":{"ID":551548,"DIS_CODE":0,"TOWNNAME":"東山區","LI":"東中里","LIN":"10鄰","STREET":"育仁街","SECT":" ","MAREA":" ","LANE":" ","ALLEY":" ","HOUSE_NO":"６５號","E_COORD97":188693.42999999999,"N_COORD97":2579554.3500000001,"ADDRESS":"育仁街６５號","OBJECTID":551521},"geometry":{"x":188693.43000000063,"y":2579554.3499999996}},{"attributes":{"ID":551549,"DIS_CODE":0,"TOWNNAME":"東山區","LI":"東中里","LIN":"10鄰","STREET":"育仁街","SECT":" ","MAREA":" ","LANE":" ","ALLEY":" ","HOUSE_NO":"８５號","E_COORD97":188655.32000000001,"N_COORD97":2579563.2400000002,"ADDRESS":"育仁街８５號","OBJECTID":551522},"geometry":{"x":188655.31999999937,"y":2579563.2400000002}},{"attributes":{"ID":551550,"DIS_CODE":0,"TOWNNAME":"東山區","LI":"東中里","LIN":"10鄰","STREET":"育仁街","SECT":" ","MAREA":" ","LANE":" ","ALLEY":" ","HOUSE_NO":"８６號","E_COORD97":188705.48000000001,"N_COORD97":2579572.4100000001,"ADDRESS":"育仁街８６號","OBJECTID":551523},"geometry":{"x":188705.48000000231,"y":2579572.4100000001}},{"attributes":{"ID":551551,"DIS_CODE":0,"TOWNNAME":"善化區","LI":"光文里","LIN":"10鄰","STREET":"中山路","SECT":" ","MAREA":" ","LANE":" ","ALLEY":" ","HOUSE_NO":"７７號","E_COORD97":178666.5,"N_COORD97":2559182.75,"ADDRESS":"中山路７７號","OBJECTID":551524},"geometry":{"x":178666.50000000093,"y":2559182.75}},{"attributes":{"ID":551552,"DIS_CODE":0,"TOWNNAME":"東山區","LI":"東中里","LIN":"10鄰","STREET":"長安街","SECT":" ","MAREA":" ","LANE":" ","ALLEY":" ","HOUSE_NO":"１號","E_COORD97":188598.95999999999,"N_COORD97":2579693.5,"ADDRESS":"長安街１號","OBJECTID":551525},"geometry":{"x":188598.96000000089,"y":2579693.5}},{"attributes":{"ID":551553,"DIS_CODE":0,"TOWNNAME":"東山區","LI":"東中里","LIN":"10鄰","STREET":"長安街","SECT":" ","MAREA":" ","LANE":" ","ALLEY":" ","HOUSE_NO":"３號","E_COORD97":188599.98999999999,"N_COORD97":2579689.6299999999,"ADDRESS":"長安街３號","OBJECTID":551526},"geometry":{"x":188599.99000000209,"y":2579689.6300000008}},{"attributes":{"ID":551554,"DIS_CODE":0,"TOWNNAME":"新化區","LI":"太平里","LIN":"10鄰","STREET":"大德路","SECT":" ","MAREA":" ","LANE":" ","ALLEY":" ","HOUSE_NO":"３號","E_COORD97":178644.57000000001,"N_COORD97":2549393.4399999999,"ADDRESS":"大德路３號","OBJECTID":551527},"geometry":{"x":178644.5700000003,"y":2549393.4399999995}},{"attributes":{"ID":551555,"DIS_CODE":0,"TOWNNAME":"新化區","LI":"護國里","LIN":"10鄰","STREET":"中山路","SECT":" ","MAREA":" ","LANE":" ","ALLEY":" ","HOUSE_NO":"１００號之２９","E_COORD97":179485.39999999999,"N_COORD97":2549191.2599999998,"ADDRESS":"中山路１００號之２９","OBJECTID":551528},"geometry":{"x":179485.40000000037,"y":2549191.2599999998}},{"attributes":{"ID":551556,"DIS_CODE":0,"TOWNNAME":"新化區","LI":"太平里","LIN":"10鄰","STREET":"中正路","SECT":" ","MAREA":" ","LANE":" ","ALLEY":" ","HOUSE_NO":"８５１號","E_COORD97":178624.20999999999,"N_COORD97":2549471.25,"ADDRESS":"中正路８５１號","OBJECTID":551529},"geometry":{"x":178624.21000000089,"y":2549471.2500000019}},{"attributes":{"ID":551557,"DIS_CODE":0,"TOWNNAME":"新化區","LI":"護國里","LIN":"10鄰","STREET":"中山路","SECT":" ","MAREA":" ","LANE":" ","ALLEY":" ","HOUSE_NO":"９８號之３２","E_COORD97":179484.16,"N_COORD97":2549064.2599999998,"ADDRESS":"中山路９８號之３２","OBJECTID":551530},"geometry":{"x":179484.16000000108,"y":2549064.2600000016}},{"attributes":{"ID":551558,"DIS_CODE":0,"TOWNNAME":"新化區","LI":"護國里","LIN":"10鄰","STREET":"中山路","SECT":" ","MAREA":" ","LANE":" ","ALLEY":" ","HOUSE_NO":"１４號","E_COORD97":180624.45999999999,"N_COORD97":2550437.25,"ADDRESS":"中山路１４號","OBJECTID":551531},"geometry":{"x":180624.46000000089,"y":2550437.2500000037}},{"attributes":{"ID":551559,"DIS_CODE":0,"TOWNNAME":"新化區","LI":"護國里","LIN":"10鄰","STREET":"中山路","SECT":" ","MAREA":" ","LANE":" ","ALLEY":" ","HOUSE_NO":"９８號之２２","E_COORD97":179500.35999999999,"N_COORD97":2549085.2599999998,"ADDRESS":"中山路９８號之２２","OBJECTID":551532},"geometry":{"x":179500.36000000034,"y":2549085.2600000016}},{"attributes":{"ID":551560,"DIS_CODE":0,"TOWNNAME":"新化區","LI":"護國里","LIN":"10鄰","STREET":"中山路","SECT":" ","MAREA":" ","LANE":" ","ALLEY":" ","HOUSE_NO":"９８號之８","E_COORD97":179537.32000000001,"N_COORD97":2549078.2599999998,"ADDRESS":"中山路９８號之８","OBJECTID":551533},"geometry":{"x":179537.32000000123,"y":2549078.2600000016}},{"attributes":{"ID":551561,"DIS_CODE":0,"TOWNNAME":"新化區","LI":"護國里","LIN":"10鄰","STREET":"中山路","SECT":" ","MAREA":" ","LANE":" ","ALLEY":" ","HOUSE_NO":"９０號","E_COORD97":179595.06,"N_COORD97":2549161.25,"ADDRESS":"中山路９０號","OBJECTID":551534},"geometry":{"x":179595.05999999959,"y":2549161.25}},{"attributes":{"ID":551562,"DIS_CODE":0,"TOWNNAME":"新化區","LI":"武安里","LIN":"10鄰","STREET":"和平街","SECT":" ","MAREA":" ","LANE":" ","ALLEY":" ","HOUSE_NO":"１６１號","E_COORD97":178886.01999999999,"N_COORD97":2548240.25,"ADDRESS":"和平街１６１號","OBJECTID":551535},"geometry":{"x":178886.02000000048,"y":2548240.2500000037}},{"attributes":{"ID":551563,"DIS_CODE":0,"TOWNNAME":"新化區","LI":"護國里","LIN":"10鄰","STREET":"中山路","SECT":" ","MAREA":" ","LANE":" ","ALLEY":" ","HOUSE_NO":"９８號之２７","E_COORD97":179509.35000000001,"N_COORD97":2549066.2599999998,"ADDRESS":"中山路９８號之２７","OBJECTID":551536},"geometry":{"x":179509.35000000056,"y":2549066.2599999998}},{"attributes":{"ID":551564,"DIS_CODE":0,"TOWNNAME":"新化區","LI":"護國里","LIN":"10鄰","STREET":"中山路","SECT":" ","MAREA":" ","LANE":" ","ALLEY":" ","HOUSE_NO":"１００號之３４","E_COORD97":179459.79000000001,"N_COORD97":2549203.2599999998,"ADDRESS":"中山路１００號之３４","OBJECTID":551537},"geometry":{"x":179459.79000000097,"y":2549203.2600000016}},{"attributes":{"ID":551565,"DIS_CODE":0,"TOWNNAME":"新化區","LI":"護國里","LIN":"10鄰","STREET":"中山路","SECT":" ","MAREA":" ","LANE":" ","ALLEY":" ","HOUSE_NO":"１００號之７","E_COORD97":179493.54999999999,"N_COORD97":2549109.2599999998,"ADDRESS":"中山路１００號之７","OBJECTID":551538},"geometry":{"x":179493.54999999981,"y":2549109.2600000016}},{"attributes":{"ID":551566,"DIS_CODE":0,"TOWNNAME":"新化區","LI":"武安里","LIN":"10鄰","STREET":"和平街","SECT":" ","MAREA":" ","LANE":" ","ALLEY":" ","HOUSE_NO":"１４５號","E_COORD97":178903.62,"N_COORD97":2548184.25,"ADDRESS":"和平街１４５號","OBJECTID":551539},"geometry":{"x":178903.62000000011,"y":2548184.25}},{"attributes":{"ID":551567,"DIS_CODE":0,"TOWNNAME":"新化區","LI":"武安里","LIN":"10鄰","STREET":"和平街","SECT":" ","MAREA":" ","LANE":" ","ALLEY":" ","HOUSE_NO":"１３９號","E_COORD97":178904.01999999999,"N_COORD97":2548170.25,"ADDRESS":"和平街１３９號","OBJECTID":551540},"geometry":{"x":178904.01999999955,"y":2548170.2500000019}},{"attributes":{"ID":551568,"DIS_CODE":0,"TOWNNAME":"新化區","LI":"護國里","LIN":"10鄰","STREET":"中山路","SECT":" ","MAREA":" ","LANE":" ","ALLEY":" ","HOUSE_NO":"１１０號之１","E_COORD97":179420.44,"N_COORD97":2548850.2599999998,"ADDRESS":"中山路１１０號之１","OBJECTID":551541},"geometry":{"x":179420.44000000041,"y":2548850.2600000035}},{"attributes":{"ID":551569,"DIS_CODE":0,"TOWNNAME":"新化區","LI":"護國里","LIN":"10鄰","STREET":"中山路","SECT":" ","MAREA":" ","LANE":" ","ALLEY":" ","HOUSE_NO":"１００號之１１","E_COORD97":179471.98999999999,"N_COORD97":2549108.2599999998,"ADDRESS":"中山路１００號之１１","OBJECTID":551542},"geometry":{"x":179471.99000000115,"y":2549108.2600000016}},{"attributes":{"ID":551570,"DIS_CODE":0,"TOWNNAME":"新化區","LI":"協興里","LIN":"10鄰","STREET":"正新路","SECT":" ","MAREA":" ","LANE":" ","ALLEY":" ","HOUSE_NO":"３２７號","E_COORD97":178536.92000000001,"N_COORD97":2548792.25,"ADDRESS":"正新路３２７號","OBJECTID":551543},"geometry":{"x":178536.91999999993,"y":2548792.25}},{"attributes":{"ID":551571,"DIS_CODE":0,"TOWNNAME":"新化區","LI":"協興里","LIN":"10鄰","STREET":"正新路","SECT":" ","MAREA":" ","LANE":" ","ALLEY":" ","HOUSE_NO":"３３２號","E_COORD97":178571.72,"N_COORD97":2548831.25,"ADDRESS":"正新路３３２號","OBJECTID":551544},"geometry":{"x":178571.71999999974,"y":2548831.2500000019}},{"attributes":{"ID":551572,"DIS_CODE":0,"TOWNNAME":"新化區","LI":"豐榮里","LIN":"10鄰","STREET":"正新路","SECT":" ","MAREA":" ","LANE":" ","ALLEY":" ","HOUSE_NO":"２０５號","E_COORD97":178551.51999999999,"N_COORD97":2548327.25,"ADDRESS":"正新路２０５號","OBJECTID":551545},"geometry":{"x":178551.51999999862,"y":2548327.25}},{"attributes":{"ID":551573,"DIS_CODE":0,"TOWNNAME":"新化區","LI":"豐榮里","LIN":"10鄰","STREET":"正新路","SECT":" ","MAREA":" ","LANE":" ","ALLEY":" ","HOUSE_NO":"１９９號","E_COORD97":178550.82000000001,"N_COORD97":2548313.25,"ADDRESS":"正新路１９９號","OBJECTID":551546},"geometry":{"x":178550.82000000123,"y":2548313.25}},{"attributes":{"ID":551574,"DIS_CODE":0,"TOWNNAME":"新化區","LI":"協興里","LIN":"10鄰","STREET":"正新路","SECT":" ","MAREA":" ","LANE":" ","ALLEY":" ","HOUSE_NO":"３３０號","E_COORD97":178576.92000000001,"N_COORD97":2548831.25,"ADDRESS":"正新路３３０號","OBJECTID":551547},"geometry":{"x":178576.92000000086,"y":2548831.2500000019}},{"attributes":{"ID":551575,"DIS_CODE":0,"TOWNNAME":"新化區","LI":"太平里","LIN":"10鄰","STREET":"中正路","SECT":" ","MAREA":" ","LANE":" ","ALLEY":" ","HOUSE_NO":"８６９號","E_COORD97":178575.70999999999,"N_COORD97":2549567.25,"ADDRESS":"中正路８６９號","OBJECTID":551548},"geometry":{"x":178575.70999999996,"y":2549567.2500000019}},{"attributes":{"ID":551576,"DIS_CODE":0,"TOWNNAME":"新化區","LI":"護國里","LIN":"10鄰","STREET":"中山路","SECT":" ","MAREA":" ","LANE":" ","ALLEY":" ","HOUSE_NO":"９６號之１０","E_COORD97":179593.95000000001,"N_COORD97":2549083.2599999998,"ADDRESS":"中山路９６號之１０","OBJECTID":551549},"geometry":{"x":179593.95000000112,"y":2549083.2599999998}},{"attributes":{"ID":551577,"DIS_CODE":0,"TOWNNAME":"新化區","LI":"太平里","LIN":"10鄰","STREET":"中正路","SECT":" ","MAREA":" ","LANE":" ","ALLEY":" ","HOUSE_NO":"７８１號","E_COORD97":178675.60999999999,"N_COORD97":2549342.25,"ADDRESS":"中正路７８１號","OBJECTID":551550},"geometry":{"x":178675.6100000022,"y":2549342.2500000037}},{"attributes":{"ID":551578,"DIS_CODE":0,"TOWNNAME":"新化區","LI":"護國里","LIN":"10鄰","STREET":"中山路","SECT":" ","MAREA":" ","LANE":" ","ALLEY":" ","HOUSE_NO":"９８號之２３","E_COORD97":179500.95999999999,"N_COORD97":2549083.2599999998,"ADDRESS":"中山路９８號之２３","OBJECTID":551551},"geometry":{"x":179500.95999999996,"y":2549083.2599999998}},{"attributes":{"ID":551579,"DIS_CODE":0,"TOWNNAME":"新化區","LI":"太平里","LIN":"10鄰","STREET":"中正路","SECT":" ","MAREA":" ","LANE":" ","ALLEY":" ","HOUSE_NO":"８４９號","E_COORD97":178625.70999999999,"N_COORD97":2549467.25,"ADDRESS":"中正路８４９號","OBJECTID":551552},"geometry":{"x":178625.71000000089,"y":2549467.2499999981}},{"attributes":{"ID":551580,"DIS_CODE":0,"TOWNNAME":"新化區","LI":"護國里","LIN":"10鄰","STREET":"中山路","SECT":" ","MAREA":" ","LANE":" ","ALLEY":" ","HOUSE_NO":"９８號之１５","E_COORD97":179555.47,"N_COORD97":2549081.2599999998,"ADDRESS":"中山路９８號之１５","OBJECTID":551553},"geometry":{"x":179555.46999999974,"y":2549081.2600000016}},{"attributes":{"ID":551581,"DIS_CODE":0,"TOWNNAME":"新化區","LI":"豐榮里","LIN":"10鄰","STREET":"正新路","SECT":" ","MAREA":" ","LANE":" ","ALLEY":" ","HOUSE_NO":"２２９號","E_COORD97":178553.01999999999,"N_COORD97":2548382.25,"ADDRESS":"正新路２２９號","OBJECTID":551554},"geometry":{"x":178553.01999999955,"y":2548382.25}},{"attributes":{"ID":551582,"DIS_CODE":0,"TOWNNAME":"新化區","LI":"武安里","LIN":"10鄰","STREET":"和平街","SECT":" ","MAREA":" ","LANE":" ","ALLEY":" ","HOUSE_NO":"１３１號之６","E_COORD97":178904.83893100001,"N_COORD97":2548122.5323999999,"ADDRESS":"和平街１３１號之６","OBJECTID":551555},"geometry":{"x":178904.83893099986,"y":2548122.5324030016}},{"attributes":{"ID":551583,"DIS_CODE":0,"TOWNNAME":"新化區","LI":"協興里","LIN":"10鄰","STREET":"正新路","SECT":" ","MAREA":" ","LANE":" ","ALLEY":" ","HOUSE_NO":"３５６號","E_COORD97":178546.01999999999,"N_COORD97":2548867.25,"ADDRESS":"正新路３５６號","OBJECTID":551556},"geometry":{"x":178546.01999999955,"y":2548867.2499999981}},{"attributes":{"ID":551584,"DIS_CODE":0,"TOWNNAME":"新化區","LI":"太平里","LIN":"10鄰","STREET":"中正路","SECT":" ","MAREA":" ","LANE":" ","ALLEY":" ","HOUSE_NO":"７８３號","E_COORD97":178673.41,"N_COORD97":2549346.25,"ADDRESS":"中正路７８３號","OBJECTID":551557},"geometry":{"x":178673.41000000201,"y":2549346.2500000019}},{"attributes":{"ID":551585,"DIS_CODE":0,"TOWNNAME":"新化區","LI":"護國里","LIN":"10鄰","STREET":"中山路","SECT":" ","MAREA":" ","LANE":" ","ALLEY":" ","HOUSE_NO":"９６號之８","E_COORD97":179599.92000000001,"N_COORD97":2549090.2599999998,"ADDRESS":"中山路９６號之８","OBJECTID":551558},"geometry":{"x":179599.91999999993,"y":2549090.2599999998}},{"attributes":{"ID":551586,"DIS_CODE":0,"TOWNNAME":"新化區","LI":"護國里","LIN":"10鄰","STREET":"中山路","SECT":" ","MAREA":" ","LANE":" ","ALLEY":" ","HOUSE_NO":"９８號之３","E_COORD97":179560.60999999999,"N_COORD97":2549059.2599999998,"ADDRESS":"中山路９８號之３","OBJECTID":551559},"geometry":{"x":179560.6100000022,"y":2549059.2599999998}},{"attributes":{"ID":551587,"DIS_CODE":0,"TOWNNAME":"新化區","LI":"護國里","LIN":"10鄰","STREET":"中山路","SECT":" ","MAREA":" ","LANE":" ","ALLEY":" ","HOUSE_NO":"９６號之６","E_COORD97":179605.91,"N_COORD97":2549096.2599999998,"ADDRESS":"中山路９６號之６","OBJECTID":551560},"geometry":{"x":179605.91000000108,"y":2549096.2599999998}},{"attributes":{"ID":551588,"DIS_CODE":0,"TOWNNAME":"新化區","LI":"護國里","LIN":"10鄰","STREET":"中山路","SECT":" ","MAREA":" ","LANE":" ","ALLEY":" ","HOUSE_NO":"１００號之１２","E_COORD97":179476.70999999999,"N_COORD97":2549122.2599999998,"ADDRESS":"中山路１００號之１２","OBJECTID":551561},"geometry":{"x":179476.71000000089,"y":2549122.2600000016}},{"attributes":{"ID":551589,"DIS_CODE":0,"TOWNNAME":"新化區","LI":"護國里","LIN":"10鄰","STREET":"中山路","SECT":" ","MAREA":" ","LANE":" ","ALLEY":" ","HOUSE_NO":"９８號之１０","E_COORD97":179528.04999999999,"N_COORD97":2549097.2599999998,"ADDRESS":"中山路９８號之１０","OBJECTID":551562},"geometry":{"x":179528.04999999888,"y":2549097.2599999998}},{"attributes":{"ID":551590,"DIS_CODE":0,"TOWNNAME":"新化區","LI":"護國里","LIN":"10鄰","STREET":"中山路","SECT":" ","MAREA":" ","LANE":" ","ALLEY":" ","HOUSE_NO":"９６號","E_COORD97":179628.06,"N_COORD97":2549123.25,"ADDRESS":"中山路９６號","OBJECTID":551563},"geometry":{"x":179628.06000000052,"y":2549123.2500000019}},{"attributes":{"ID":551591,"DIS_CODE":0,"TOWNNAME":"新化區","LI":"太平里","LIN":"10鄰","STREET":"中正路","SECT":" ","MAREA":" ","LANE":" ","ALLEY":" ","HOUSE_NO":"７２３號之１","E_COORD97":178714.04000000001,"N_COORD97":2549207.2599999998,"ADDRESS":"中正路７２３號之１","OBJECTID":551564},"geometry":{"x":178714.04000000004,"y":2549207.2600000016}},{"attributes":{"ID":551592,"DIS_CODE":0,"TOWNNAME":"新化區","LI":"護國里","LIN":"10鄰","STREET":"中山路","SECT":" ","MAREA":" ","LANE":" ","ALLEY":" ","HOUSE_NO":"９８號之１９","E_COORD97":179531.75,"N_COORD97":2549075.25,"ADDRESS":"中山路９８號之１９","OBJECTID":551565},"geometry":{"x":179531.75,"y":2549075.2500000019}},{"attributes":{"ID":551593,"DIS_CODE":0,"TOWNNAME":"新化區","LI":"護國里","LIN":"10鄰","STREET":"中山路","SECT":" ","MAREA":" ","LANE":" ","ALLEY":" ","HOUSE_NO":"１００號之２６","E_COORD97":179487.51000000001,"N_COORD97":2549177.2599999998,"ADDRESS":"中山路１００號之２６","OBJECTID":551566},"geometry":{"x":179487.50999999978,"y":2549177.2600000016}},{"attributes":{"ID":551594,"DIS_CODE":0,"TOWNNAME":"新化區","LI":"護國里","LIN":"10鄰","STREET":"中山路","SECT":" ","MAREA":" ","LANE":" ","ALLEY":" ","HOUSE_NO":"９６號之１","E_COORD97":179623.79000000001,"N_COORD97":2549117.2599999998,"ADDRESS":"中山路９６號之１","OBJECTID":551567},"geometry":{"x":179623.79000000097,"y":2549117.2599999998}},{"attributes":{"ID":551595,"DIS_CODE":0,"TOWNNAME":"新化區","LI":"武安里","LIN":"10鄰","STREET":"和平街","SECT":" ","MAREA":" ","LANE":" ","ALLEY":" ","HOUSE_NO":"１５１號","E_COORD97":178901.92000000001,"N_COORD97":2548197.25,"ADDRESS":"和平街１５１號","OBJECTID":551568},"geometry":{"x":178901.92000000179,"y":2548197.2500000019}},{"attributes":{"ID":551596,"DIS_CODE":0,"TOWNNAME":"新化區","LI":"護國里","LIN":"10鄰","STREET":"中山路","SECT":" ","MAREA":" ","LANE":" ","ALLEY":" ","HOUSE_NO":"９６號之９","E_COORD97":179597.39999999999,"N_COORD97":2549086.2599999998,"ADDRESS":"中山路９６號之９","OBJECTID":551569},"geometry":{"x":179597.40000000037,"y":2549086.2599999998}},{"attributes":{"ID":551597,"DIS_CODE":0,"TOWNNAME":"新化區","LI":"豐榮里","LIN":"10鄰","STREET":"正新路","SECT":" ","MAREA":" ","LANE":" ","ALLEY":" ","HOUSE_NO":"１９１號","E_COORD97":178554.42000000001,"N_COORD97":2548289.25,"ADDRESS":"正新路１９１號","OBJECTID":551570},"geometry":{"x":178554.42000000179,"y":2548289.2500000019}},{"attributes":{"ID":551598,"DIS_CODE":0,"TOWNNAME":"新化區","LI":"護國里","LIN":"10鄰","STREET":"中山路","SECT":" ","MAREA":" ","LANE":" ","ALLEY":" ","HOUSE_NO":"９６號之１３","E_COORD97":179583.35999999999,"N_COORD97":2549075.25,"ADDRESS":"中山路９６號之１３","OBJECTID":551571},"geometry":{"x":179583.36000000127,"y":2549075.2500000019}},{"attributes":{"ID":551599,"DIS_CODE":0,"TOWNNAME":"新化區","LI":"護國里","LIN":"10鄰","STREET":"中山路","SECT":" ","MAREA":" ","LANE":" ","ALLEY":" ","HOUSE_NO":"９８號之１４","E_COORD97":179552.04000000001,"N_COORD97":2549086.2599999998,"ADDRESS":"中山路９８號之１４","OBJECTID":551572},"geometry":{"x":179552.04000000004,"y":2549086.2599999998}},{"attributes":{"ID":551600,"DIS_CODE":0,"TOWNNAME":"新化區","LI":"護國里","LIN":"10鄰","STREET":"中山路","SECT":" ","MAREA":" ","LANE":" ","ALLEY":" ","HOUSE_NO":"９８號之４","E_COORD97":179556.98999999999,"N_COORD97":2549056.2599999998,"ADDRESS":"中山路９８號之４","OBJECTID":551573},"geometry":{"x":179556.99000000022,"y":2549056.2599999998}},{"attributes":{"ID":551601,"DIS_CODE":0,"TOWNNAME":"新化區","LI":"武安里","LIN":"10鄰","STREET":"和平街","SECT":" ","MAREA":" ","LANE":" ","ALLEY":" ","HOUSE_NO":"１５９號","E_COORD97":178896.92000000001,"N_COORD97":2548230.25,"ADDRESS":"和平街１５９號","OBJECTID":551574},"geometry":{"x":178896.92000000179,"y":2548230.2500000037}},{"attributes":{"ID":551602,"DIS_CODE":0,"TOWNNAME":"新化區","LI":"護國里","LIN":"10鄰","STREET":"中山路","SECT":" ","MAREA":" ","LANE":" ","ALLEY":" ","HOUSE_NO":"９６號之１２","E_COORD97":179586.85999999999,"N_COORD97":2549078.2599999998,"ADDRESS":"中山路９６號之１２","OBJECTID":551575},"geometry":{"x":179586.86000000034,"y":2549078.2600000016}},{"attributes":{"ID":551603,"DIS_CODE":0,"TOWNNAME":"新化區","LI":"太平里","LIN":"10鄰","STREET":"中正路","SECT":" ","MAREA":" ","LANE":" ","ALLEY":" ","HOUSE_NO":"７６９號","E_COORD97":178680.51000000001,"N_COORD97":2549299.25,"ADDRESS":"中正路７６９號","OBJECTID":551576},"geometry":{"x":178680.50999999978,"y":2549299.2500000019}},{"attributes":{"ID":551604,"DIS_CODE":0,"TOWNNAME":"新化區","LI":"護國里","LIN":"10鄰","STREET":"中山路","SECT":" ","MAREA":" ","LANE":" ","ALLEY":" ","HOUSE_NO":"９８號之２１","E_COORD97":179517.54000000001,"N_COORD97":2549092.2599999998,"ADDRESS":"中山路９８號之２１","OBJECTID":551577},"geometry":{"x":179517.54000000004,"y":2549092.2600000016}},{"attributes":{"ID":551605,"DIS_CODE":0,"TOWNNAME":"新化區","LI":"護國里","LIN":"10鄰","STREET":"中山路","SECT":" ","MAREA":" ","LANE":" ","ALLEY":" ","HOUSE_NO":"９６號之１４","E_COORD97":179567.34,"N_COORD97":2549092.2599999998,"ADDRESS":"中山路９６號之１４","OBJECTID":551578},"geometry":{"x":179567.34000000078,"y":2549092.2600000016}},{"attributes":{"ID":551606,"DIS_CODE":0,"TOWNNAME":"新化區","LI":"護國里","LIN":"10鄰","STREET":"中山路","SECT":" ","MAREA":" ","LANE":" ","ALLEY":" ","HOUSE_NO":"９８號之１","E_COORD97":179568.39000000001,"N_COORD97":2549066.2599999998,"ADDRESS":"中山路９８號之１","OBJECTID":551579},"geometry":{"x":179568.3900000006,"y":2549066.2599999998}},{"attributes":{"ID":551607,"DIS_CODE":0,"TOWNNAME":"新化區","LI":"護國里","LIN":"10鄰","STREET":"中山路","SECT":" ","MAREA":" ","LANE":" ","ALLEY":" ","HOUSE_NO":"９６號之４","E_COORD97":179611.69,"N_COORD97":2549103.2599999998,"ADDRESS":"中山路９６號之４","OBJECTID":551580},"geometry":{"x":179611.69000000134,"y":2549103.2599999998}},{"attributes":{"ID":551608,"DIS_CODE":0,"TOWNNAME":"新化區","LI":"太平里","LIN":"10鄰","STREET":"中正路","SECT":" ","MAREA":" ","LANE":" ","ALLEY":" ","HOUSE_NO":"８４７號","E_COORD97":178628.01000000001,"N_COORD97":2549463.25,"ADDRESS":"中正路８４７號","OBJECTID":551581},"geometry":{"x":178628.00999999978,"y":2549463.25}},{"attributes":{"ID":551609,"DIS_CODE":0,"TOWNNAME":"新化區","LI":"護國里","LIN":"10鄰","STREET":"中山路","SECT":" ","MAREA":" ","LANE":" ","ALLEY":" ","HOUSE_NO":"９８號之１１","E_COORD97":179533.23999999999,"N_COORD97":2549100.2599999998,"ADDRESS":"中山路９８號之１１","OBJECTID":551582},"geometry":{"x":179533.24000000022,"y":2549100.2599999998}},{"attributes":{"ID":551610,"DIS_CODE":0,"TOWNNAME":"新化區","LI":"護國里","LIN":"10鄰","STREET":"中山路","SECT":" ","MAREA":" ","LANE":" ","ALLEY":" ","HOUSE_NO":"９８號之２","E_COORD97":179564.81,"N_COORD97":2549063.2599999998,"ADDRESS":"中山路９８號之２","OBJECTID":551583},"geometry":{"x":179564.80999999959,"y":2549063.2599999998}},{"attributes":{"ID":551611,"DIS_CODE":0,"TOWNNAME":"新化區","LI":"護國里","LIN":"10鄰","STREET":"中山路","SECT":" ","MAREA":" ","LANE":" ","ALLEY":" ","HOUSE_NO":"９８號之１２","E_COORD97":179538.16,"N_COORD97":2549103.2599999998,"ADDRESS":"中山路９８號之１２","OBJECTID":551584},"geometry":{"x":179538.16000000108,"y":2549103.2599999998}},{"attributes":{"ID":551612,"DIS_CODE":0,"TOWNNAME":"新化區","LI":"武安里","LIN":"10鄰","STREET":"和平街","SECT":" ","MAREA":" ","LANE":" ","ALLEY":" ","HOUSE_NO":"１４９號","E_COORD97":178902.72,"N_COORD97":2548193.25,"ADDRESS":"和平街１４９號","OBJECTID":551585},"geometry":{"x":178902.71999999974,"y":2548193.2500000019}},{"attributes":{"ID":551613,"DIS_CODE":0,"TOWNNAME":"新化區","LI":"護國里","LIN":"10鄰","STREET":"中山路","SECT":" ","MAREA":" ","LANE":" ","ALLEY":" ","HOUSE_NO":"９８號之１３","E_COORD97":179542.45999999999,"N_COORD97":2549105.2599999998,"ADDRESS":"中山路９８號之１３","OBJECTID":551586},"geometry":{"x":179542.46000000183,"y":2549105.2600000016}},{"attributes":{"ID":551614,"DIS_CODE":0,"TOWNNAME":"新化區","LI":"護國里","LIN":"10鄰","STREET":"中山路","SECT":" ","MAREA":" ","LANE":" ","ALLEY":" ","HOUSE_NO":"１００號之３３","E_COORD97":179464.91,"N_COORD97":2549204.2599999998,"ADDRESS":"中山路１００號之３３","OBJECTID":551587},"geometry":{"x":179464.90999999922,"y":2549204.2600000016}},{"attributes":{"ID":551615,"DIS_CODE":0,"TOWNNAME":"新化區","LI":"護國里","LIN":"10鄰","STREET":"中山路","SECT":" ","MAREA":" ","LANE":" ","ALLEY":" ","HOUSE_NO":"１００號之３１","E_COORD97":179475.29000000001,"N_COORD97":2549204.2599999998,"ADDRESS":"中山路１００號之３１","OBJECTID":551588},"geometry":{"x":179475.29000000004,"y":2549204.2600000016}},{"attributes":{"ID":551616,"DIS_CODE":0,"TOWNNAME":"新化區","LI":"武安里","LIN":"10鄰","STREET":"和平街","SECT":" ","MAREA":" ","LANE":" ","ALLEY":" ","HOUSE_NO":"１３１號之２","E_COORD97":178911.07999999999,"N_COORD97":2548142.2599999998,"ADDRESS":"和平街１３１號之２","OBJECTID":551589},"geometry":{"x":178911.07999999914,"y":2548142.2600000016}},{"attributes":{"ID":551617,"DIS_CODE":0,"TOWNNAME":"新化區","LI":"護國里","LIN":"10鄰","STREET":"中山路","SECT":" ","MAREA":" ","LANE":" ","ALLEY":" ","HOUSE_NO":"２０號","E_COORD97":180289.95999999999,"N_COORD97":2550103.25,"ADDRESS":"中山路２０號","OBJECTID":551590},"geometry":{"x":180289.95999999903,"y":2550103.25}},{"attributes":{"ID":551618,"DIS_CODE":0,"TOWNNAME":"新化區","LI":"豐榮里","LIN":"10鄰","STREET":"正新路","SECT":" ","MAREA":" ","LANE":" ","ALLEY":" ","HOUSE_NO":"２２７號","E_COORD97":178551.12,"N_COORD97":2548376.25,"ADDRESS":"正新路２２７號","OBJECTID":551591},"geometry":{"x":178551.12000000011,"y":2548376.2500000019}},{"attributes":{"ID":551619,"DIS_CODE":0,"TOWNNAME":"新化區","LI":"豐榮里","LIN":"10鄰","STREET":"正新路","SECT":" ","MAREA":" ","LANE":" ","ALLEY":" ","HOUSE_NO":"２１９號","E_COORD97":178548.12,"N_COORD97":2548363.25,"ADDRESS":"正新路２１９號","OBJECTID":551592},"geometry":{"x":178548.12000000197,"y":2548363.2500000019}},{"attributes":{"ID":551620,"DIS_CODE":0,"TOWNNAME":"新化區","LI":"武安里","LIN":"10鄰","STREET":"和平街","SECT":" ","MAREA":" ","LANE":" ","ALLEY":" ","HOUSE_NO":"１３１號之１０","E_COORD97":178897.51000000001,"N_COORD97":2548153.2599999998,"ADDRESS":"和平街１３１號之１０","OBJECTID":551593},"geometry":{"x":178897.50999999978,"y":2548153.2600000016}},{"attributes":{"ID":551621,"DIS_CODE":0,"TOWNNAME":"新化區","LI":"太平里","LIN":"10鄰","STREET":"大德路","SECT":" ","MAREA":" ","LANE":" ","ALLEY":" ","HOUSE_NO":"２３號","E_COORD97":178566.28,"N_COORD97":2549387.25,"ADDRESS":"大德路２３號","OBJECTID":551594},"geometry":{"x":178566.28000000119,"y":2549387.2500000019}},{"attributes":{"ID":551622,"DIS_CODE":0,"TOWNNAME":"新化區","LI":"護國里","LIN":"10鄰","STREET":"中山路","SECT":" ","MAREA":" ","LANE":" ","ALLEY":" ","HOUSE_NO":"１００號之１９","E_COORD97":179493.70000000001,"N_COORD97":2549144.2599999998,"ADDRESS":"中山路１００號之１９","OBJECTID":551595},"geometry":{"x":179493.70000000205,"y":2549144.2599999998}},{"attributes":{"ID":551623,"DIS_CODE":0,"TOWNNAME":"新化區","LI":"護國里","LIN":"10鄰","STREET":"中山路","SECT":" ","MAREA":" ","LANE":" ","ALLEY":" ","HOUSE_NO":"９６號之７","E_COORD97":179603.10000000001,"N_COORD97":2549093.2599999998,"ADDRESS":"中山路９６號之７","OBJECTID":551596},"geometry":{"x":179603.09999999963,"y":2549093.2599999998}},{"attributes":{"ID":551624,"DIS_CODE":0,"TOWNNAME":"新化區","LI":"豐榮里","LIN":"10鄰","STREET":"正新路","SECT":" ","MAREA":" ","LANE":" ","ALLEY":" ","HOUSE_NO":"２０７號","E_COORD97":178551.92000000001,"N_COORD97":2548331.25,"ADDRESS":"正新路２０７號","OBJECTID":551597},"geometry":{"x":178551.91999999993,"y":2548331.25}},{"attributes":{"ID":551625,"DIS_CODE":0,"TOWNNAME":"新化區","LI":"豐榮里","LIN":"10鄰","STREET":"正新路","SECT":" ","MAREA":" ","LANE":" ","ALLEY":" ","HOUSE_NO":"２０３號","E_COORD97":178551.01999999999,"N_COORD97":2548322.25,"ADDRESS":"正新路２０３號","OBJECTID":551598},"geometry":{"x":178551.01999999955,"y":2548322.2500000019}},{"attributes":{"ID":551626,"DIS_CODE":0,"TOWNNAME":"新化區","LI":"護國里","LIN":"10鄰","STREET":"中山路","SECT":" ","MAREA":" ","LANE":" ","ALLEY":" ","HOUSE_NO":"１００號之１７","E_COORD97":179494.5,"N_COORD97":2549136.2599999998,"ADDRESS":"中山路１００號之１７","OBJECTID":551599},"geometry":{"x":179494.5,"y":2549136.2600000016}},{"attributes":{"ID":551627,"DIS_CODE":0,"TOWNNAME":"新化區","LI":"武安里","LIN":"10鄰","STREET":"和平街","SECT":" ","MAREA":" ","LANE":" ","ALLEY":" ","HOUSE_NO":"１４１號","E_COORD97":178903.51999999999,"N_COORD97":2548174.25,"ADDRESS":"和平街１４１號","OBJECTID":551600},"geometry":{"x":178903.51999999955,"y":2548174.25}}]}