{"displayFieldName":"TOWNNAME","fieldAliases":{"ID":"ID","DIS_CODE":"DIS_CODE","TOWNNAME":"TOWNNAME","LI":"LI","LIN":"LIN","STREET":"STREET","SECT":"SECT","MAREA":"MAREA","LANE":"LANE","ALLEY":"ALLEY","HOUSE_NO":"HOUSE_NO","E_COORD97":"E_COORD97","N_COORD97":"N_COORD97","ADDRESS":"ADDRESS","OBJECTID":"OBJECTID"},"geometryType":"esriGeometryPoint","spatialReference":{"wkid":102443,"latestWkid":3826},"fields":[{"name":"ID","type":"esriFieldTypeDouble","alias":"ID"},{"name":"DIS_CODE","type":"esriFieldTypeInteger","alias":"DIS_CODE"},{"name":"TOWNNAME","type":"esriFieldTypeString","alias":"TOWNNAME","length":8},{"name":"LI","type":"esriFieldTypeString","alias":"LI","length":8},{"name":"LIN","type":"esriFieldTypeString","alias":"LIN","length":12},{"name":"STREET","type":"esriFieldTypeString","alias":"STREET","length":20},{"name":"SECT","type":"esriFieldTypeString","alias":"SECT","length":8},{"name":"MAREA","type":"esriFieldTypeString","alias":"MAREA","length":12},{"name":"LANE","type":"esriFieldTypeString","alias":"LANE","length":10},{"name":"ALLEY","type":"esriFieldTypeString","alias":"ALLEY","length":10},{"name":"HOUSE_NO","type":"esriFieldTypeString","alias":"HOUSE_NO","length":20},{"name":"E_COORD97","type":"esriFieldTypeDouble","alias":"E_COORD97"},{"name":"N_COORD97","type":"esriFieldTypeDouble","alias":"N_COORD97"},{"name":"ADDRESS","type":"esriFieldTypeString","alias":"ADDRESS","length":50},{"name":"OBJECTID","type":"esriFieldTypeOID","alias":"OBJECTID"}],"features":[{"attributes":{"ID":477426,"DIS_CODE":0,"TOWNNAME":"東區","LI":"德光里","LIN":"20鄰","STREET":"崇明路","SECT":" ","MAREA":" ","LANE":" ","ALLEY":" ","HOUSE_NO":"１３７號八樓之５","E_COORD97":169845.45999999999,"N_COORD97":2542218.1600000001,"ADDRESS":"崇明路１３７號八樓之５","OBJECTID":477401},"geometry":{"x":169845.45999999996,"y":2542218.1600000001}},{"attributes":{"ID":477427,"DIS_CODE":0,"TOWNNAME":"東區","LI":"德光里","LIN":"20鄰","STREET":"崇明路","SECT":" ","MAREA":" ","LANE":" ","ALLEY":" ","HOUSE_NO":"１３７號八樓之６","E_COORD97":169845.45999999999,"N_COORD97":2542218.1600000001,"ADDRESS":"崇明路１３７號八樓之６","OBJECTID":477402},"geometry":{"x":169845.45999999996,"y":2542218.1600000001}},{"attributes":{"ID":477428,"DIS_CODE":0,"TOWNNAME":"東區","LI":"德光里","LIN":"20鄰","STREET":"崇明路","SECT":" ","MAREA":" ","LANE":" ","ALLEY":" ","HOUSE_NO":"１３７號十一樓","E_COORD97":169845.45999999999,"N_COORD97":2542218.1600000001,"ADDRESS":"崇明路１３７號十一樓","OBJECTID":477403},"geometry":{"x":169845.45999999996,"y":2542218.1600000001}},{"attributes":{"ID":477429,"DIS_CODE":0,"TOWNNAME":"東區","LI":"德光里","LIN":"20鄰","STREET":"崇明路","SECT":" ","MAREA":" ","LANE":" ","ALLEY":" ","HOUSE_NO":"１３７號十一樓之１","E_COORD97":169845.45999999999,"N_COORD97":2542218.1600000001,"ADDRESS":"崇明路１３７號十一樓之１","OBJECTID":477404},"geometry":{"x":169845.45999999996,"y":2542218.1600000001}},{"attributes":{"ID":477430,"DIS_CODE":0,"TOWNNAME":"東區","LI":"德光里","LIN":"20鄰","STREET":"崇明路","SECT":" ","MAREA":" ","LANE":" ","ALLEY":" ","HOUSE_NO":"１３７號十一樓之２","E_COORD97":169845.45999999999,"N_COORD97":2542218.1600000001,"ADDRESS":"崇明路１３７號十一樓之２","OBJECTID":477405},"geometry":{"x":169845.45999999996,"y":2542218.1600000001}},{"attributes":{"ID":477431,"DIS_CODE":0,"TOWNNAME":"東區","LI":"德光里","LIN":"20鄰","STREET":"崇明路","SECT":" ","MAREA":" ","LANE":" ","ALLEY":" ","HOUSE_NO":"１３７號十一樓之３","E_COORD97":169845.45999999999,"N_COORD97":2542218.1600000001,"ADDRESS":"崇明路１３７號十一樓之３","OBJECTID":477406},"geometry":{"x":169845.45999999996,"y":2542218.1600000001}},{"attributes":{"ID":477432,"DIS_CODE":0,"TOWNNAME":"東區","LI":"德光里","LIN":"20鄰","STREET":"崇明路","SECT":" ","MAREA":" ","LANE":" ","ALLEY":" ","HOUSE_NO":"１３７號十一樓之５","E_COORD97":169845.45999999999,"N_COORD97":2542218.1600000001,"ADDRESS":"崇明路１３７號十一樓之５","OBJECTID":477407},"geometry":{"x":169845.45999999996,"y":2542218.1600000001}},{"attributes":{"ID":477433,"DIS_CODE":0,"TOWNNAME":"東區","LI":"德光里","LIN":"20鄰","STREET":"崇明路","SECT":" ","MAREA":" ","LANE":" ","ALLEY":" ","HOUSE_NO":"１３７號十一樓之６","E_COORD97":169845.45999999999,"N_COORD97":2542218.1600000001,"ADDRESS":"崇明路１３７號十一樓之６","OBJECTID":477408},"geometry":{"x":169845.45999999996,"y":2542218.1600000001}},{"attributes":{"ID":477434,"DIS_CODE":0,"TOWNNAME":"東區","LI":"德光里","LIN":"20鄰","STREET":"崇明路","SECT":" ","MAREA":" ","LANE":" ","ALLEY":" ","HOUSE_NO":"１３７號十二樓","E_COORD97":169845.45999999999,"N_COORD97":2542218.1600000001,"ADDRESS":"崇明路１３７號十二樓","OBJECTID":477409},"geometry":{"x":169845.45999999996,"y":2542218.1600000001}},{"attributes":{"ID":477435,"DIS_CODE":0,"TOWNNAME":"東區","LI":"德光里","LIN":"20鄰","STREET":"崇明路","SECT":" ","MAREA":" ","LANE":" ","ALLEY":" ","HOUSE_NO":"１３７號十二樓之１","E_COORD97":169845.45999999999,"N_COORD97":2542218.1600000001,"ADDRESS":"崇明路１３７號十二樓之１","OBJECTID":477410},"geometry":{"x":169845.45999999996,"y":2542218.1600000001}},{"attributes":{"ID":477436,"DIS_CODE":0,"TOWNNAME":"東區","LI":"德光里","LIN":"20鄰","STREET":"崇明路","SECT":" ","MAREA":" ","LANE":" ","ALLEY":" ","HOUSE_NO":"１３７號十二樓之２","E_COORD97":169845.45999999999,"N_COORD97":2542218.1600000001,"ADDRESS":"崇明路１３７號十二樓之２","OBJECTID":477411},"geometry":{"x":169845.45999999996,"y":2542218.1600000001}},{"attributes":{"ID":477437,"DIS_CODE":0,"TOWNNAME":"東區","LI":"德光里","LIN":"20鄰","STREET":"崇明路","SECT":" ","MAREA":" ","LANE":" ","ALLEY":" ","HOUSE_NO":"１３７號十二樓之３","E_COORD97":169845.45999999999,"N_COORD97":2542218.1600000001,"ADDRESS":"崇明路１３７號十二樓之３","OBJECTID":477412},"geometry":{"x":169845.45999999996,"y":2542218.1600000001}},{"attributes":{"ID":477438,"DIS_CODE":0,"TOWNNAME":"東區","LI":"德光里","LIN":"20鄰","STREET":"崇明路","SECT":" ","MAREA":" ","LANE":" ","ALLEY":" ","HOUSE_NO":"１３７號十二樓之５","E_COORD97":169845.45999999999,"N_COORD97":2542218.1600000001,"ADDRESS":"崇明路１３７號十二樓之５","OBJECTID":477413},"geometry":{"x":169845.45999999996,"y":2542218.1600000001}},{"attributes":{"ID":477439,"DIS_CODE":0,"TOWNNAME":"東區","LI":"德光里","LIN":"20鄰","STREET":"崇明路","SECT":" ","MAREA":" ","LANE":" ","ALLEY":" ","HOUSE_NO":"１３７號十二樓之６","E_COORD97":169845.45999999999,"N_COORD97":2542218.1600000001,"ADDRESS":"崇明路１３７號十二樓之６","OBJECTID":477414},"geometry":{"x":169845.45999999996,"y":2542218.1600000001}},{"attributes":{"ID":477440,"DIS_CODE":0,"TOWNNAME":"中西區","LI":"開山里","LIN":"20鄰","STREET":"開山路","SECT":" ","MAREA":" ","LANE":" ","ALLEY":" ","HOUSE_NO":"２１５號","E_COORD97":168976.42999999999,"N_COORD97":2543019.0800000001,"ADDRESS":"開山路２１５號","OBJECTID":477415},"geometry":{"x":168976.43000000156,"y":2543019.0800000001}},{"attributes":{"ID":477441,"DIS_CODE":0,"TOWNNAME":"東區","LI":"德光里","LIN":"20鄰","STREET":"崇明路","SECT":" ","MAREA":" ","LANE":" ","ALLEY":" ","HOUSE_NO":"１３７號十三樓","E_COORD97":169845.45999999999,"N_COORD97":2542218.1600000001,"ADDRESS":"崇明路１３７號十三樓","OBJECTID":477416},"geometry":{"x":169845.45999999996,"y":2542218.1600000001}},{"attributes":{"ID":477442,"DIS_CODE":0,"TOWNNAME":"東區","LI":"德光里","LIN":"20鄰","STREET":"崇明路","SECT":" ","MAREA":" ","LANE":" ","ALLEY":" ","HOUSE_NO":"１３７號十三樓之１","E_COORD97":169845.45999999999,"N_COORD97":2542218.1600000001,"ADDRESS":"崇明路１３７號十三樓之１","OBJECTID":477417},"geometry":{"x":169845.45999999996,"y":2542218.1600000001}},{"attributes":{"ID":477443,"DIS_CODE":0,"TOWNNAME":"東區","LI":"德光里","LIN":"20鄰","STREET":"崇明路","SECT":" ","MAREA":" ","LANE":" ","ALLEY":" ","HOUSE_NO":"１３７號十三樓之２","E_COORD97":169845.45999999999,"N_COORD97":2542218.1600000001,"ADDRESS":"崇明路１３７號十三樓之２","OBJECTID":477418},"geometry":{"x":169845.45999999996,"y":2542218.1600000001}},{"attributes":{"ID":477444,"DIS_CODE":0,"TOWNNAME":"東區","LI":"德光里","LIN":"20鄰","STREET":"崇明路","SECT":" ","MAREA":" ","LANE":" ","ALLEY":" ","HOUSE_NO":"１３７號十三樓之３","E_COORD97":169845.45999999999,"N_COORD97":2542218.1600000001,"ADDRESS":"崇明路１３７號十三樓之３","OBJECTID":477419},"geometry":{"x":169845.45999999996,"y":2542218.1600000001}},{"attributes":{"ID":477445,"DIS_CODE":0,"TOWNNAME":"東區","LI":"德光里","LIN":"20鄰","STREET":"崇明路","SECT":" ","MAREA":" ","LANE":" ","ALLEY":" ","HOUSE_NO":"１３７號十三樓之５","E_COORD97":169845.45999999999,"N_COORD97":2542218.1600000001,"ADDRESS":"崇明路１３７號十三樓之５","OBJECTID":477420},"geometry":{"x":169845.45999999996,"y":2542218.1600000001}},{"attributes":{"ID":477446,"DIS_CODE":0,"TOWNNAME":"東區","LI":"德光里","LIN":"20鄰","STREET":"崇明路","SECT":" ","MAREA":" ","LANE":" ","ALLEY":" ","HOUSE_NO":"１３７號十三樓之６","E_COORD97":169845.45999999999,"N_COORD97":2542218.1600000001,"ADDRESS":"崇明路１３７號十三樓之６","OBJECTID":477421},"geometry":{"x":169845.45999999996,"y":2542218.1600000001}},{"attributes":{"ID":477447,"DIS_CODE":0,"TOWNNAME":"東區","LI":"德光里","LIN":"20鄰","STREET":"崇明路","SECT":" ","MAREA":" ","LANE":" ","ALLEY":" ","HOUSE_NO":"１３７號十五樓","E_COORD97":169845.45999999999,"N_COORD97":2542218.1600000001,"ADDRESS":"崇明路１３７號十五樓","OBJECTID":477422},"geometry":{"x":169845.45999999996,"y":2542218.1600000001}},{"attributes":{"ID":477448,"DIS_CODE":0,"TOWNNAME":"東區","LI":"德光里","LIN":"20鄰","STREET":"崇明路","SECT":" ","MAREA":" ","LANE":" ","ALLEY":" ","HOUSE_NO":"１３７號十五樓之１","E_COORD97":169845.45999999999,"N_COORD97":2542218.1600000001,"ADDRESS":"崇明路１３７號十五樓之１","OBJECTID":477423},"geometry":{"x":169845.45999999996,"y":2542218.1600000001}},{"attributes":{"ID":477449,"DIS_CODE":0,"TOWNNAME":"東區","LI":"德光里","LIN":"20鄰","STREET":"崇明路","SECT":" ","MAREA":" ","LANE":" ","ALLEY":" ","HOUSE_NO":"１３７號十五樓之２","E_COORD97":169845.45999999999,"N_COORD97":2542218.1600000001,"ADDRESS":"崇明路１３７號十五樓之２","OBJECTID":477424},"geometry":{"x":169845.45999999996,"y":2542218.1600000001}},{"attributes":{"ID":477450,"DIS_CODE":0,"TOWNNAME":"東區","LI":"德光里","LIN":"20鄰","STREET":"崇明路","SECT":" ","MAREA":" ","LANE":" ","ALLEY":" ","HOUSE_NO":"１３７號十五樓之３","E_COORD97":169845.45999999999,"N_COORD97":2542218.1600000001,"ADDRESS":"崇明路１３７號十五樓之３","OBJECTID":477425},"geometry":{"x":169845.45999999996,"y":2542218.1600000001}},{"attributes":{"ID":477451,"DIS_CODE":0,"TOWNNAME":"東區","LI":"德光里","LIN":"20鄰","STREET":"崇明路","SECT":" ","MAREA":" ","LANE":" ","ALLEY":" ","HOUSE_NO":"１３７號十五樓之５","E_COORD97":169845.45999999999,"N_COORD97":2542218.1600000001,"ADDRESS":"崇明路１３７號十五樓之５","OBJECTID":477426},"geometry":{"x":169845.45999999996,"y":2542218.1600000001}},{"attributes":{"ID":477452,"DIS_CODE":0,"TOWNNAME":"東區","LI":"德光里","LIN":"20鄰","STREET":"崇明路","SECT":" ","MAREA":" ","LANE":" ","ALLEY":" ","HOUSE_NO":"１３７號十五樓之６","E_COORD97":169845.45999999999,"N_COORD97":2542218.1600000001,"ADDRESS":"崇明路１３７號十五樓之６","OBJECTID":477427},"geometry":{"x":169845.45999999996,"y":2542218.1600000001}},{"attributes":{"ID":477453,"DIS_CODE":0,"TOWNNAME":"東區","LI":"德光里","LIN":"20鄰","STREET":"崇明路","SECT":" ","MAREA":" ","LANE":" ","ALLEY":" ","HOUSE_NO":"１３７號十六樓","E_COORD97":169845.45999999999,"N_COORD97":2542218.1600000001,"ADDRESS":"崇明路１３７號十六樓","OBJECTID":477428},"geometry":{"x":169845.45999999996,"y":2542218.1600000001}},{"attributes":{"ID":477454,"DIS_CODE":0,"TOWNNAME":"東區","LI":"德光里","LIN":"20鄰","STREET":"崇明路","SECT":" ","MAREA":" ","LANE":" ","ALLEY":" ","HOUSE_NO":"１３７號十六樓之１","E_COORD97":169845.45999999999,"N_COORD97":2542218.1600000001,"ADDRESS":"崇明路１３７號十六樓之１","OBJECTID":477429},"geometry":{"x":169845.45999999996,"y":2542218.1600000001}},{"attributes":{"ID":477455,"DIS_CODE":0,"TOWNNAME":"東區","LI":"德光里","LIN":"20鄰","STREET":"崇明路","SECT":" ","MAREA":" ","LANE":" ","ALLEY":" ","HOUSE_NO":"１３７號十六樓之２","E_COORD97":169845.45999999999,"N_COORD97":2542218.1600000001,"ADDRESS":"崇明路１３７號十六樓之２","OBJECTID":477430},"geometry":{"x":169845.45999999996,"y":2542218.1600000001}},{"attributes":{"ID":477456,"DIS_CODE":0,"TOWNNAME":"東區","LI":"德光里","LIN":"20鄰","STREET":"崇明路","SECT":" ","MAREA":" ","LANE":" ","ALLEY":" ","HOUSE_NO":"１３７號十六樓之３","E_COORD97":169845.45999999999,"N_COORD97":2542218.1600000001,"ADDRESS":"崇明路１３７號十六樓之３","OBJECTID":477431},"geometry":{"x":169845.45999999996,"y":2542218.1600000001}},{"attributes":{"ID":477457,"DIS_CODE":0,"TOWNNAME":"東區","LI":"德光里","LIN":"20鄰","STREET":"崇明路","SECT":" ","MAREA":" ","LANE":" ","ALLEY":" ","HOUSE_NO":"１３７號十六樓之５","E_COORD97":169845.45999999999,"N_COORD97":2542218.1600000001,"ADDRESS":"崇明路１３７號十六樓之５","OBJECTID":477432},"geometry":{"x":169845.45999999996,"y":2542218.1600000001}},{"attributes":{"ID":477458,"DIS_CODE":0,"TOWNNAME":"東區","LI":"德光里","LIN":"20鄰","STREET":"崇明路","SECT":" ","MAREA":" ","LANE":" ","ALLEY":" ","HOUSE_NO":"１３７號十六樓之６","E_COORD97":169845.45999999999,"N_COORD97":2542218.1600000001,"ADDRESS":"崇明路１３７號十六樓之６","OBJECTID":477433},"geometry":{"x":169845.45999999996,"y":2542218.1600000001}},{"attributes":{"ID":477459,"DIS_CODE":0,"TOWNNAME":"東區","LI":"德光里","LIN":"20鄰","STREET":"崇明路","SECT":" ","MAREA":" ","LANE":" ","ALLEY":" ","HOUSE_NO":"１３７號十四樓","E_COORD97":169845.45999999999,"N_COORD97":2542218.1600000001,"ADDRESS":"崇明路１３７號十四樓","OBJECTID":477434},"geometry":{"x":169845.45999999996,"y":2542218.1600000001}},{"attributes":{"ID":477460,"DIS_CODE":0,"TOWNNAME":"東區","LI":"德光里","LIN":"20鄰","STREET":"崇明路","SECT":" ","MAREA":" ","LANE":" ","ALLEY":" ","HOUSE_NO":"１３７號十四樓之１","E_COORD97":169845.45999999999,"N_COORD97":2542218.1600000001,"ADDRESS":"崇明路１３７號十四樓之１","OBJECTID":477435},"geometry":{"x":169845.45999999996,"y":2542218.1600000001}},{"attributes":{"ID":477461,"DIS_CODE":0,"TOWNNAME":"東區","LI":"德光里","LIN":"20鄰","STREET":"崇明路","SECT":" ","MAREA":" ","LANE":" ","ALLEY":" ","HOUSE_NO":"１３７號十四樓之２","E_COORD97":169845.45999999999,"N_COORD97":2542218.1600000001,"ADDRESS":"崇明路１３７號十四樓之２","OBJECTID":477436},"geometry":{"x":169845.45999999996,"y":2542218.1600000001}},{"attributes":{"ID":477462,"DIS_CODE":0,"TOWNNAME":"東區","LI":"德光里","LIN":"20鄰","STREET":"崇明路","SECT":" ","MAREA":" ","LANE":" ","ALLEY":" ","HOUSE_NO":"１３７號十四樓之３","E_COORD97":169845.45999999999,"N_COORD97":2542218.1600000001,"ADDRESS":"崇明路１３７號十四樓之３","OBJECTID":477437},"geometry":{"x":169845.45999999996,"y":2542218.1600000001}},{"attributes":{"ID":477463,"DIS_CODE":0,"TOWNNAME":"東區","LI":"德光里","LIN":"20鄰","STREET":"崇明路","SECT":" ","MAREA":" ","LANE":" ","ALLEY":" ","HOUSE_NO":"１３７號十四樓之５","E_COORD97":169845.45999999999,"N_COORD97":2542218.1600000001,"ADDRESS":"崇明路１３７號十四樓之５","OBJECTID":477438},"geometry":{"x":169845.45999999996,"y":2542218.1600000001}},{"attributes":{"ID":477464,"DIS_CODE":0,"TOWNNAME":"歸仁區","LI":"辜厝里","LIN":"40鄰","STREET":"大吉街","SECT":" ","MAREA":" ","LANE":" ","ALLEY":" ","HOUSE_NO":"２３９號","E_COORD97":177213.20999999999,"N_COORD97":2540288.9500000002,"ADDRESS":"大吉街２３９號","OBJECTID":477439},"geometry":{"x":177213.20999999903,"y":2540288.9500000011}},{"attributes":{"ID":477465,"DIS_CODE":0,"TOWNNAME":"東區","LI":"德光里","LIN":"20鄰","STREET":"崇明路","SECT":" ","MAREA":" ","LANE":" ","ALLEY":" ","HOUSE_NO":"１３７號十四樓之６","E_COORD97":169845.45999999999,"N_COORD97":2542218.1600000001,"ADDRESS":"崇明路１３７號十四樓之６","OBJECTID":477440},"geometry":{"x":169845.45999999996,"y":2542218.1600000001}},{"attributes":{"ID":477466,"DIS_CODE":0,"TOWNNAME":"東區","LI":"德光里","LIN":"20鄰","STREET":"崇明路","SECT":" ","MAREA":" ","LANE":" ","ALLEY":" ","HOUSE_NO":"１３７號十樓","E_COORD97":169845.45999999999,"N_COORD97":2542218.1600000001,"ADDRESS":"崇明路１３７號十樓","OBJECTID":477441},"geometry":{"x":169845.45999999996,"y":2542218.1600000001}},{"attributes":{"ID":477467,"DIS_CODE":0,"TOWNNAME":"東區","LI":"德光里","LIN":"20鄰","STREET":"崇明路","SECT":" ","MAREA":" ","LANE":" ","ALLEY":" ","HOUSE_NO":"１３７號十樓之１","E_COORD97":169845.45999999999,"N_COORD97":2542218.1600000001,"ADDRESS":"崇明路１３７號十樓之１","OBJECTID":477442},"geometry":{"x":169845.45999999996,"y":2542218.1600000001}},{"attributes":{"ID":477468,"DIS_CODE":0,"TOWNNAME":"東區","LI":"德光里","LIN":"20鄰","STREET":"崇明路","SECT":" ","MAREA":" ","LANE":" ","ALLEY":" ","HOUSE_NO":"１３７號十樓之２","E_COORD97":169845.45999999999,"N_COORD97":2542218.1600000001,"ADDRESS":"崇明路１３７號十樓之２","OBJECTID":477443},"geometry":{"x":169845.45999999996,"y":2542218.1600000001}},{"attributes":{"ID":477469,"DIS_CODE":0,"TOWNNAME":"東區","LI":"德光里","LIN":"20鄰","STREET":"崇明路","SECT":" ","MAREA":" ","LANE":" ","ALLEY":" ","HOUSE_NO":"１３７號十樓之３","E_COORD97":169845.45999999999,"N_COORD97":2542218.1600000001,"ADDRESS":"崇明路１３７號十樓之３","OBJECTID":477444},"geometry":{"x":169845.45999999996,"y":2542218.1600000001}},{"attributes":{"ID":477470,"DIS_CODE":0,"TOWNNAME":"東區","LI":"德光里","LIN":"20鄰","STREET":"崇明路","SECT":" ","MAREA":" ","LANE":" ","ALLEY":" ","HOUSE_NO":"１３７號十樓之５","E_COORD97":169845.45999999999,"N_COORD97":2542218.1600000001,"ADDRESS":"崇明路１３７號十樓之５","OBJECTID":477445},"geometry":{"x":169845.45999999996,"y":2542218.1600000001}},{"attributes":{"ID":477471,"DIS_CODE":0,"TOWNNAME":"東區","LI":"和平里","LIN":"20鄰","STREET":"文化路","SECT":" ","MAREA":" ","LANE":" ","ALLEY":" ","HOUSE_NO":"３１號九樓之５","E_COORD97":171161,"N_COORD97":2541952.3900000001,"ADDRESS":"文化路３１號九樓之５","OBJECTID":477446},"geometry":{"x":171161,"y":2541952.3900000025}},{"attributes":{"ID":477472,"DIS_CODE":0,"TOWNNAME":"東區","LI":"德光里","LIN":"20鄰","STREET":"崇明路","SECT":" ","MAREA":" ","LANE":" ","ALLEY":" ","HOUSE_NO":"１３７號十樓之６","E_COORD97":169845.45999999999,"N_COORD97":2542218.1600000001,"ADDRESS":"崇明路１３７號十樓之６","OBJECTID":477447},"geometry":{"x":169845.45999999996,"y":2542218.1600000001}},{"attributes":{"ID":477473,"DIS_CODE":0,"TOWNNAME":"東區","LI":"德光里","LIN":"20鄰","STREET":"崇明路","SECT":" ","MAREA":" ","LANE":" ","ALLEY":" ","HOUSE_NO":"１３７號三樓","E_COORD97":169845.45999999999,"N_COORD97":2542218.1600000001,"ADDRESS":"崇明路１３７號三樓","OBJECTID":477448},"geometry":{"x":169845.45999999996,"y":2542218.1600000001}},{"attributes":{"ID":477474,"DIS_CODE":0,"TOWNNAME":"東區","LI":"德光里","LIN":"20鄰","STREET":"崇明路","SECT":" ","MAREA":" ","LANE":" ","ALLEY":" ","HOUSE_NO":"１３７號三樓之１","E_COORD97":169845.45999999999,"N_COORD97":2542218.1600000001,"ADDRESS":"崇明路１３７號三樓之１","OBJECTID":477449},"geometry":{"x":169845.45999999996,"y":2542218.1600000001}},{"attributes":{"ID":477475,"DIS_CODE":0,"TOWNNAME":"東區","LI":"德光里","LIN":"20鄰","STREET":"崇明路","SECT":" ","MAREA":" ","LANE":" ","ALLEY":" ","HOUSE_NO":"１３７號三樓之２","E_COORD97":169845.45999999999,"N_COORD97":2542218.1600000001,"ADDRESS":"崇明路１３７號三樓之２","OBJECTID":477450},"geometry":{"x":169845.45999999996,"y":2542218.1600000001}},{"attributes":{"ID":477476,"DIS_CODE":0,"TOWNNAME":"東區","LI":"德光里","LIN":"20鄰","STREET":"崇明路","SECT":" ","MAREA":" ","LANE":" ","ALLEY":" ","HOUSE_NO":"１３７號三樓之３","E_COORD97":169845.45999999999,"N_COORD97":2542218.1600000001,"ADDRESS":"崇明路１３７號三樓之３","OBJECTID":477451},"geometry":{"x":169845.45999999996,"y":2542218.1600000001}},{"attributes":{"ID":477477,"DIS_CODE":0,"TOWNNAME":"東區","LI":"和平里","LIN":"20鄰","STREET":"文化路","SECT":" ","MAREA":" ","LANE":" ","ALLEY":" ","HOUSE_NO":"３１號七樓之５","E_COORD97":171161,"N_COORD97":2541952.3900000001,"ADDRESS":"文化路３１號七樓之５","OBJECTID":477452},"geometry":{"x":171161,"y":2541952.3900000025}},{"attributes":{"ID":477478,"DIS_CODE":0,"TOWNNAME":"東區","LI":"德光里","LIN":"20鄰","STREET":"崇明路","SECT":" ","MAREA":" ","LANE":" ","ALLEY":" ","HOUSE_NO":"１３７號三樓之５","E_COORD97":169845.45999999999,"N_COORD97":2542218.1600000001,"ADDRESS":"崇明路１３７號三樓之５","OBJECTID":477453},"geometry":{"x":169845.45999999996,"y":2542218.1600000001}},{"attributes":{"ID":477479,"DIS_CODE":0,"TOWNNAME":"東區","LI":"德光里","LIN":"20鄰","STREET":"崇明路","SECT":" ","MAREA":" ","LANE":" ","ALLEY":" ","HOUSE_NO":"１３７號三樓之６","E_COORD97":169845.45999999999,"N_COORD97":2542218.1600000001,"ADDRESS":"崇明路１３７號三樓之６","OBJECTID":477454},"geometry":{"x":169845.45999999996,"y":2542218.1600000001}},{"attributes":{"ID":477480,"DIS_CODE":0,"TOWNNAME":"東區","LI":"德光里","LIN":"20鄰","STREET":"崇明路","SECT":" ","MAREA":" ","LANE":" ","ALLEY":" ","HOUSE_NO":"１３７號五樓","E_COORD97":169845.45999999999,"N_COORD97":2542218.1600000001,"ADDRESS":"崇明路１３７號五樓","OBJECTID":477455},"geometry":{"x":169845.45999999996,"y":2542218.1600000001}},{"attributes":{"ID":477481,"DIS_CODE":0,"TOWNNAME":"東區","LI":"德光里","LIN":"20鄰","STREET":"崇明路","SECT":" ","MAREA":" ","LANE":" ","ALLEY":" ","HOUSE_NO":"１３７號五樓之１","E_COORD97":169845.45999999999,"N_COORD97":2542218.1600000001,"ADDRESS":"崇明路１３７號五樓之１","OBJECTID":477456},"geometry":{"x":169845.45999999996,"y":2542218.1600000001}},{"attributes":{"ID":477482,"DIS_CODE":0,"TOWNNAME":"東區","LI":"德光里","LIN":"20鄰","STREET":"崇明路","SECT":" ","MAREA":" ","LANE":" ","ALLEY":" ","HOUSE_NO":"１３７號五樓之２","E_COORD97":169845.45999999999,"N_COORD97":2542218.1600000001,"ADDRESS":"崇明路１３７號五樓之２","OBJECTID":477457},"geometry":{"x":169845.45999999996,"y":2542218.1600000001}},{"attributes":{"ID":477483,"DIS_CODE":0,"TOWNNAME":"東區","LI":"德光里","LIN":"20鄰","STREET":"崇明路","SECT":" ","MAREA":" ","LANE":" ","ALLEY":" ","HOUSE_NO":"１３７號五樓之３","E_COORD97":169845.45999999999,"N_COORD97":2542218.1600000001,"ADDRESS":"崇明路１３７號五樓之３","OBJECTID":477458},"geometry":{"x":169845.45999999996,"y":2542218.1600000001}},{"attributes":{"ID":477484,"DIS_CODE":0,"TOWNNAME":"東區","LI":"德光里","LIN":"20鄰","STREET":"崇明路","SECT":" ","MAREA":" ","LANE":" ","ALLEY":" ","HOUSE_NO":"１３７號五樓之５","E_COORD97":169845.45999999999,"N_COORD97":2542218.1600000001,"ADDRESS":"崇明路１３７號五樓之５","OBJECTID":477459},"geometry":{"x":169845.45999999996,"y":2542218.1600000001}},{"attributes":{"ID":477485,"DIS_CODE":0,"TOWNNAME":"東區","LI":"德光里","LIN":"20鄰","STREET":"崇明路","SECT":" ","MAREA":" ","LANE":" ","ALLEY":" ","HOUSE_NO":"１３７號五樓之６","E_COORD97":169845.45999999999,"N_COORD97":2542218.1600000001,"ADDRESS":"崇明路１３７號五樓之６","OBJECTID":477460},"geometry":{"x":169845.45999999996,"y":2542218.1600000001}},{"attributes":{"ID":477486,"DIS_CODE":0,"TOWNNAME":"東區","LI":"德光里","LIN":"20鄰","STREET":"崇明路","SECT":" ","MAREA":" ","LANE":" ","ALLEY":" ","HOUSE_NO":"１３７號六樓","E_COORD97":169845.45999999999,"N_COORD97":2542218.1600000001,"ADDRESS":"崇明路１３７號六樓","OBJECTID":477461},"geometry":{"x":169845.45999999996,"y":2542218.1600000001}},{"attributes":{"ID":477487,"DIS_CODE":0,"TOWNNAME":"東區","LI":"德光里","LIN":"20鄰","STREET":"崇明路","SECT":" ","MAREA":" ","LANE":" ","ALLEY":" ","HOUSE_NO":"１３７號六樓之１","E_COORD97":169845.45999999999,"N_COORD97":2542218.1600000001,"ADDRESS":"崇明路１３７號六樓之１","OBJECTID":477462},"geometry":{"x":169845.45999999996,"y":2542218.1600000001}},{"attributes":{"ID":477488,"DIS_CODE":0,"TOWNNAME":"東區","LI":"德光里","LIN":"20鄰","STREET":"崇明路","SECT":" ","MAREA":" ","LANE":" ","ALLEY":" ","HOUSE_NO":"１３７號六樓之２","E_COORD97":169845.45999999999,"N_COORD97":2542218.1600000001,"ADDRESS":"崇明路１３７號六樓之２","OBJECTID":477463},"geometry":{"x":169845.45999999996,"y":2542218.1600000001}},{"attributes":{"ID":477489,"DIS_CODE":0,"TOWNNAME":"東區","LI":"德光里","LIN":"20鄰","STREET":"崇明路","SECT":" ","MAREA":" ","LANE":" ","ALLEY":" ","HOUSE_NO":"１３７號六樓之３","E_COORD97":169845.45999999999,"N_COORD97":2542218.1600000001,"ADDRESS":"崇明路１３７號六樓之３","OBJECTID":477464},"geometry":{"x":169845.45999999996,"y":2542218.1600000001}},{"attributes":{"ID":477490,"DIS_CODE":0,"TOWNNAME":"東區","LI":"德光里","LIN":"20鄰","STREET":"崇明路","SECT":" ","MAREA":" ","LANE":" ","ALLEY":" ","HOUSE_NO":"１３７號六樓之５","E_COORD97":169845.45999999999,"N_COORD97":2542218.1600000001,"ADDRESS":"崇明路１３７號六樓之５","OBJECTID":477465},"geometry":{"x":169845.45999999996,"y":2542218.1600000001}},{"attributes":{"ID":477491,"DIS_CODE":0,"TOWNNAME":"東區","LI":"德光里","LIN":"20鄰","STREET":"崇明路","SECT":" ","MAREA":" ","LANE":" ","ALLEY":" ","HOUSE_NO":"１３７號六樓之６","E_COORD97":169845.45999999999,"N_COORD97":2542218.1600000001,"ADDRESS":"崇明路１３７號六樓之６","OBJECTID":477466},"geometry":{"x":169845.45999999996,"y":2542218.1600000001}},{"attributes":{"ID":477492,"DIS_CODE":0,"TOWNNAME":"東區","LI":"德光里","LIN":"20鄰","STREET":"崇明路","SECT":" ","MAREA":" ","LANE":" ","ALLEY":" ","HOUSE_NO":"１３７號四樓","E_COORD97":169845.45999999999,"N_COORD97":2542218.1600000001,"ADDRESS":"崇明路１３７號四樓","OBJECTID":477467},"geometry":{"x":169845.45999999996,"y":2542218.1600000001}},{"attributes":{"ID":477493,"DIS_CODE":0,"TOWNNAME":"東區","LI":"德光里","LIN":"20鄰","STREET":"崇明路","SECT":" ","MAREA":" ","LANE":" ","ALLEY":" ","HOUSE_NO":"１３７號四樓之１","E_COORD97":169845.45999999999,"N_COORD97":2542218.1600000001,"ADDRESS":"崇明路１３７號四樓之１","OBJECTID":477468},"geometry":{"x":169845.45999999996,"y":2542218.1600000001}},{"attributes":{"ID":477494,"DIS_CODE":0,"TOWNNAME":"東區","LI":"德光里","LIN":"20鄰","STREET":"崇明路","SECT":" ","MAREA":" ","LANE":" ","ALLEY":" ","HOUSE_NO":"１３７號四樓之２","E_COORD97":169845.45999999999,"N_COORD97":2542218.1600000001,"ADDRESS":"崇明路１３７號四樓之２","OBJECTID":477469},"geometry":{"x":169845.45999999996,"y":2542218.1600000001}},{"attributes":{"ID":477495,"DIS_CODE":0,"TOWNNAME":"東區","LI":"德光里","LIN":"20鄰","STREET":"崇明路","SECT":" ","MAREA":" ","LANE":" ","ALLEY":" ","HOUSE_NO":"１３７號四樓之３","E_COORD97":169845.45999999999,"N_COORD97":2542218.1600000001,"ADDRESS":"崇明路１３７號四樓之３","OBJECTID":477470},"geometry":{"x":169845.45999999996,"y":2542218.1600000001}},{"attributes":{"ID":477496,"DIS_CODE":0,"TOWNNAME":"東區","LI":"德光里","LIN":"20鄰","STREET":"崇明路","SECT":" ","MAREA":" ","LANE":" ","ALLEY":" ","HOUSE_NO":"１３７號四樓之５","E_COORD97":169845.45999999999,"N_COORD97":2542218.1600000001,"ADDRESS":"崇明路１３７號四樓之５","OBJECTID":477471},"geometry":{"x":169845.45999999996,"y":2542218.1600000001}},{"attributes":{"ID":477497,"DIS_CODE":0,"TOWNNAME":"東區","LI":"德光里","LIN":"20鄰","STREET":"崇明路","SECT":" ","MAREA":" ","LANE":" ","ALLEY":" ","HOUSE_NO":"１３７號四樓之６","E_COORD97":169845.45999999999,"N_COORD97":2542218.1600000001,"ADDRESS":"崇明路１３７號四樓之６","OBJECTID":477472},"geometry":{"x":169845.45999999996,"y":2542218.1600000001}},{"attributes":{"ID":477498,"DIS_CODE":0,"TOWNNAME":"東區","LI":"龍山里","LIN":"20鄰","STREET":"崇善路","SECT":" ","MAREA":" ","LANE":" ","ALLEY":" ","HOUSE_NO":"１７１號七樓","E_COORD97":170353.23000000001,"N_COORD97":2542373.0299999998,"ADDRESS":"崇善路１７１號七樓","OBJECTID":477473},"geometry":{"x":170353.23000000231,"y":2542373.0300000012}},{"attributes":{"ID":477499,"DIS_CODE":0,"TOWNNAME":"東區","LI":"龍山里","LIN":"20鄰","STREET":"崇善路","SECT":" ","MAREA":" ","LANE":" ","ALLEY":" ","HOUSE_NO":"１７１號七樓之１","E_COORD97":170353.23000000001,"N_COORD97":2542373.0299999998,"ADDRESS":"崇善路１７１號七樓之１","OBJECTID":477474},"geometry":{"x":170353.23000000231,"y":2542373.0300000012}},{"attributes":{"ID":477500,"DIS_CODE":0,"TOWNNAME":"東區","LI":"龍山里","LIN":"20鄰","STREET":"崇善路","SECT":" ","MAREA":" ","LANE":" ","ALLEY":" ","HOUSE_NO":"１７１號七樓之２","E_COORD97":170353.23000000001,"N_COORD97":2542373.0299999998,"ADDRESS":"崇善路１７１號七樓之２","OBJECTID":477475},"geometry":{"x":170353.23000000231,"y":2542373.0300000012}},{"attributes":{"ID":477501,"DIS_CODE":0,"TOWNNAME":"東區","LI":"龍山里","LIN":"20鄰","STREET":"崇善路","SECT":" ","MAREA":" ","LANE":" ","ALLEY":" ","HOUSE_NO":"１７１號七樓之３","E_COORD97":170353.23000000001,"N_COORD97":2542373.0299999998,"ADDRESS":"崇善路１７１號七樓之３","OBJECTID":477476},"geometry":{"x":170353.23000000231,"y":2542373.0300000012}},{"attributes":{"ID":477502,"DIS_CODE":0,"TOWNNAME":"東區","LI":"龍山里","LIN":"20鄰","STREET":"崇善路","SECT":" ","MAREA":" ","LANE":" ","ALLEY":" ","HOUSE_NO":"１７１號七樓之４","E_COORD97":170353.23000000001,"N_COORD97":2542373.0299999998,"ADDRESS":"崇善路１７１號七樓之４","OBJECTID":477477},"geometry":{"x":170353.23000000231,"y":2542373.0300000012}},{"attributes":{"ID":477503,"DIS_CODE":0,"TOWNNAME":"歸仁區","LI":"看西里","LIN":"3鄰","STREET":"仁愛南街","SECT":" ","MAREA":" ","LANE":" ","ALLEY":" ","HOUSE_NO":"１３９號","E_COORD97":178296.63,"N_COORD97":2540331.8900000001,"ADDRESS":"仁愛南街１３９號","OBJECTID":477478},"geometry":{"x":178296.62999999989,"y":2540331.8900000006}},{"attributes":{"ID":477504,"DIS_CODE":0,"TOWNNAME":"東區","LI":"龍山里","LIN":"20鄰","STREET":"崇善路","SECT":" ","MAREA":" ","LANE":" ","ALLEY":" ","HOUSE_NO":"１７１號七樓之５","E_COORD97":170353.23000000001,"N_COORD97":2542373.0299999998,"ADDRESS":"崇善路１７１號七樓之５","OBJECTID":477479},"geometry":{"x":170353.23000000231,"y":2542373.0300000012}},{"attributes":{"ID":477505,"DIS_CODE":0,"TOWNNAME":"東區","LI":"龍山里","LIN":"20鄰","STREET":"崇善路","SECT":" ","MAREA":" ","LANE":" ","ALLEY":" ","HOUSE_NO":"１７１號七樓之６","E_COORD97":170353.23000000001,"N_COORD97":2542373.0299999998,"ADDRESS":"崇善路１７１號七樓之６","OBJECTID":477480},"geometry":{"x":170353.23000000231,"y":2542373.0300000012}},{"attributes":{"ID":477506,"DIS_CODE":0,"TOWNNAME":"東區","LI":"龍山里","LIN":"20鄰","STREET":"崇善路","SECT":" ","MAREA":" ","LANE":" ","ALLEY":" ","HOUSE_NO":"１７１號七樓之７","E_COORD97":170353.23000000001,"N_COORD97":2542373.0299999998,"ADDRESS":"崇善路１７１號七樓之７","OBJECTID":477481},"geometry":{"x":170353.23000000231,"y":2542373.0300000012}},{"attributes":{"ID":477507,"DIS_CODE":0,"TOWNNAME":"東區","LI":"龍山里","LIN":"20鄰","STREET":"崇善路","SECT":" ","MAREA":" ","LANE":" ","ALLEY":" ","HOUSE_NO":"１７１號二樓","E_COORD97":170353.23000000001,"N_COORD97":2542373.0299999998,"ADDRESS":"崇善路１７１號二樓","OBJECTID":477482},"geometry":{"x":170353.23000000231,"y":2542373.0300000012}},{"attributes":{"ID":477508,"DIS_CODE":0,"TOWNNAME":"東區","LI":"龍山里","LIN":"20鄰","STREET":"崇善路","SECT":" ","MAREA":" ","LANE":" ","ALLEY":" ","HOUSE_NO":"１７１號二樓之１","E_COORD97":170353.23000000001,"N_COORD97":2542373.0299999998,"ADDRESS":"崇善路１７１號二樓之１","OBJECTID":477483},"geometry":{"x":170353.23000000231,"y":2542373.0300000012}},{"attributes":{"ID":477509,"DIS_CODE":0,"TOWNNAME":"東區","LI":"龍山里","LIN":"20鄰","STREET":"崇善路","SECT":" ","MAREA":" ","LANE":" ","ALLEY":" ","HOUSE_NO":"１７１號二樓之２","E_COORD97":170353.23000000001,"N_COORD97":2542373.0299999998,"ADDRESS":"崇善路１７１號二樓之２","OBJECTID":477484},"geometry":{"x":170353.23000000231,"y":2542373.0300000012}},{"attributes":{"ID":477510,"DIS_CODE":0,"TOWNNAME":"東區","LI":"龍山里","LIN":"20鄰","STREET":"崇善路","SECT":" ","MAREA":" ","LANE":" ","ALLEY":" ","HOUSE_NO":"１７１號二樓之３","E_COORD97":170353.23000000001,"N_COORD97":2542373.0299999998,"ADDRESS":"崇善路１７１號二樓之３","OBJECTID":477485},"geometry":{"x":170353.23000000231,"y":2542373.0300000012}},{"attributes":{"ID":477511,"DIS_CODE":0,"TOWNNAME":"東區","LI":"龍山里","LIN":"20鄰","STREET":"崇善路","SECT":" ","MAREA":" ","LANE":" ","ALLEY":" ","HOUSE_NO":"１７１號二樓之４","E_COORD97":170353.23000000001,"N_COORD97":2542373.0299999998,"ADDRESS":"崇善路１７１號二樓之４","OBJECTID":477486},"geometry":{"x":170353.23000000231,"y":2542373.0300000012}},{"attributes":{"ID":477512,"DIS_CODE":0,"TOWNNAME":"東區","LI":"龍山里","LIN":"20鄰","STREET":"崇善路","SECT":" ","MAREA":" ","LANE":" ","ALLEY":" ","HOUSE_NO":"１７１號二樓之５","E_COORD97":170353.23000000001,"N_COORD97":2542373.0299999998,"ADDRESS":"崇善路１７１號二樓之５","OBJECTID":477487},"geometry":{"x":170353.23000000231,"y":2542373.0300000012}},{"attributes":{"ID":477513,"DIS_CODE":0,"TOWNNAME":"東區","LI":"龍山里","LIN":"20鄰","STREET":"崇善路","SECT":" ","MAREA":" ","LANE":" ","ALLEY":" ","HOUSE_NO":"１７１號二樓之６","E_COORD97":170353.23000000001,"N_COORD97":2542373.0299999998,"ADDRESS":"崇善路１７１號二樓之６","OBJECTID":477488},"geometry":{"x":170353.23000000231,"y":2542373.0300000012}},{"attributes":{"ID":477514,"DIS_CODE":0,"TOWNNAME":"東區","LI":"龍山里","LIN":"20鄰","STREET":"崇善路","SECT":" ","MAREA":" ","LANE":" ","ALLEY":" ","HOUSE_NO":"１７１號二樓之７","E_COORD97":170353.23000000001,"N_COORD97":2542373.0299999998,"ADDRESS":"崇善路１７１號二樓之７","OBJECTID":477489},"geometry":{"x":170353.23000000231,"y":2542373.0300000012}},{"attributes":{"ID":477515,"DIS_CODE":0,"TOWNNAME":"東區","LI":"龍山里","LIN":"20鄰","STREET":"崇善路","SECT":" ","MAREA":" ","LANE":" ","ALLEY":" ","HOUSE_NO":"１７１號三樓","E_COORD97":170353.23000000001,"N_COORD97":2542373.0299999998,"ADDRESS":"崇善路１７１號三樓","OBJECTID":477490},"geometry":{"x":170353.23000000231,"y":2542373.0300000012}},{"attributes":{"ID":477516,"DIS_CODE":0,"TOWNNAME":"東區","LI":"龍山里","LIN":"20鄰","STREET":"崇善路","SECT":" ","MAREA":" ","LANE":" ","ALLEY":" ","HOUSE_NO":"１７１號三樓之１","E_COORD97":170353.23000000001,"N_COORD97":2542373.0299999998,"ADDRESS":"崇善路１７１號三樓之１","OBJECTID":477491},"geometry":{"x":170353.23000000231,"y":2542373.0300000012}},{"attributes":{"ID":477517,"DIS_CODE":0,"TOWNNAME":"南區","LI":"文南里","LIN":"20鄰","STREET":"仁南二街","SECT":" ","MAREA":" ","LANE":" ","ALLEY":" ","HOUSE_NO":"８號三樓","E_COORD97":166415.88,"N_COORD97":2542663.8300000001,"ADDRESS":"仁南二街８號三樓","OBJECTID":477492},"geometry":{"x":166415.88000000082,"y":2542663.8300000019}},{"attributes":{"ID":477518,"DIS_CODE":0,"TOWNNAME":"東區","LI":"龍山里","LIN":"20鄰","STREET":"崇善路","SECT":" ","MAREA":" ","LANE":" ","ALLEY":" ","HOUSE_NO":"１７１號三樓之２","E_COORD97":170353.23000000001,"N_COORD97":2542373.0299999998,"ADDRESS":"崇善路１７１號三樓之２","OBJECTID":477493},"geometry":{"x":170353.23000000231,"y":2542373.0300000012}},{"attributes":{"ID":477519,"DIS_CODE":0,"TOWNNAME":"東區","LI":"龍山里","LIN":"20鄰","STREET":"崇善路","SECT":" ","MAREA":" ","LANE":" ","ALLEY":" ","HOUSE_NO":"１７１號三樓之３","E_COORD97":170353.23000000001,"N_COORD97":2542373.0299999998,"ADDRESS":"崇善路１７１號三樓之３","OBJECTID":477494},"geometry":{"x":170353.23000000231,"y":2542373.0300000012}},{"attributes":{"ID":477520,"DIS_CODE":0,"TOWNNAME":"東區","LI":"龍山里","LIN":"20鄰","STREET":"崇善路","SECT":" ","MAREA":" ","LANE":" ","ALLEY":" ","HOUSE_NO":"１７１號三樓之４","E_COORD97":170353.23000000001,"N_COORD97":2542373.0299999998,"ADDRESS":"崇善路１７１號三樓之４","OBJECTID":477495},"geometry":{"x":170353.23000000231,"y":2542373.0300000012}},{"attributes":{"ID":477521,"DIS_CODE":0,"TOWNNAME":"東區","LI":"龍山里","LIN":"20鄰","STREET":"崇善路","SECT":" ","MAREA":" ","LANE":" ","ALLEY":" ","HOUSE_NO":"１７１號三樓之５","E_COORD97":170353.23000000001,"N_COORD97":2542373.0299999998,"ADDRESS":"崇善路１７１號三樓之５","OBJECTID":477496},"geometry":{"x":170353.23000000231,"y":2542373.0300000012}},{"attributes":{"ID":477522,"DIS_CODE":0,"TOWNNAME":"東區","LI":"龍山里","LIN":"20鄰","STREET":"崇善路","SECT":" ","MAREA":" ","LANE":" ","ALLEY":" ","HOUSE_NO":"１７１號三樓之６","E_COORD97":170353.23000000001,"N_COORD97":2542373.0299999998,"ADDRESS":"崇善路１７１號三樓之６","OBJECTID":477497},"geometry":{"x":170353.23000000231,"y":2542373.0300000012}},{"attributes":{"ID":477523,"DIS_CODE":0,"TOWNNAME":"東區","LI":"龍山里","LIN":"20鄰","STREET":"崇善路","SECT":" ","MAREA":" ","LANE":" ","ALLEY":" ","HOUSE_NO":"１７１號五樓","E_COORD97":170353.23000000001,"N_COORD97":2542373.0299999998,"ADDRESS":"崇善路１７１號五樓","OBJECTID":477498},"geometry":{"x":170353.23000000231,"y":2542373.0300000012}},{"attributes":{"ID":477524,"DIS_CODE":0,"TOWNNAME":"東區","LI":"龍山里","LIN":"20鄰","STREET":"崇善路","SECT":" ","MAREA":" ","LANE":" ","ALLEY":" ","HOUSE_NO":"１７１號五樓之１","E_COORD97":170353.23000000001,"N_COORD97":2542373.0299999998,"ADDRESS":"崇善路１７１號五樓之１","OBJECTID":477499},"geometry":{"x":170353.23000000231,"y":2542373.0300000012}},{"attributes":{"ID":477525,"DIS_CODE":0,"TOWNNAME":"東區","LI":"龍山里","LIN":"20鄰","STREET":"崇善路","SECT":" ","MAREA":" ","LANE":" ","ALLEY":" ","HOUSE_NO":"１７１號五樓之２","E_COORD97":170353.23000000001,"N_COORD97":2542373.0299999998,"ADDRESS":"崇善路１７１號五樓之２","OBJECTID":477500},"geometry":{"x":170353.23000000231,"y":2542373.0300000012}},{"attributes":{"ID":477526,"DIS_CODE":0,"TOWNNAME":"東區","LI":"龍山里","LIN":"20鄰","STREET":"崇善路","SECT":" ","MAREA":" ","LANE":" ","ALLEY":" ","HOUSE_NO":"１７１號五樓之３","E_COORD97":170353.23000000001,"N_COORD97":2542373.0299999998,"ADDRESS":"崇善路１７１號五樓之３","OBJECTID":477501},"geometry":{"x":170353.23000000231,"y":2542373.0300000012}},{"attributes":{"ID":477527,"DIS_CODE":0,"TOWNNAME":"東區","LI":"龍山里","LIN":"20鄰","STREET":"崇善路","SECT":" ","MAREA":" ","LANE":" ","ALLEY":" ","HOUSE_NO":"１７１號五樓之４","E_COORD97":170353.23000000001,"N_COORD97":2542373.0299999998,"ADDRESS":"崇善路１７１號五樓之４","OBJECTID":477502},"geometry":{"x":170353.23000000231,"y":2542373.0300000012}},{"attributes":{"ID":477528,"DIS_CODE":0,"TOWNNAME":"東區","LI":"龍山里","LIN":"20鄰","STREET":"崇善路","SECT":" ","MAREA":" ","LANE":" ","ALLEY":" ","HOUSE_NO":"１７１號五樓之５","E_COORD97":170353.23000000001,"N_COORD97":2542373.0299999998,"ADDRESS":"崇善路１７１號五樓之５","OBJECTID":477503},"geometry":{"x":170353.23000000231,"y":2542373.0300000012}},{"attributes":{"ID":477529,"DIS_CODE":0,"TOWNNAME":"東區","LI":"龍山里","LIN":"20鄰","STREET":"崇善路","SECT":" ","MAREA":" ","LANE":" ","ALLEY":" ","HOUSE_NO":"１７１號五樓之６","E_COORD97":170353.23000000001,"N_COORD97":2542373.0299999998,"ADDRESS":"崇善路１７１號五樓之６","OBJECTID":477504},"geometry":{"x":170353.23000000231,"y":2542373.0300000012}},{"attributes":{"ID":477530,"DIS_CODE":0,"TOWNNAME":"東區","LI":"龍山里","LIN":"20鄰","STREET":"崇善路","SECT":" ","MAREA":" ","LANE":" ","ALLEY":" ","HOUSE_NO":"１７１號六樓","E_COORD97":170353.23000000001,"N_COORD97":2542373.0299999998,"ADDRESS":"崇善路１７１號六樓","OBJECTID":477505},"geometry":{"x":170353.23000000231,"y":2542373.0300000012}},{"attributes":{"ID":477531,"DIS_CODE":0,"TOWNNAME":"東區","LI":"龍山里","LIN":"20鄰","STREET":"崇善路","SECT":" ","MAREA":" ","LANE":" ","ALLEY":" ","HOUSE_NO":"１７１號六樓之１","E_COORD97":170353.23000000001,"N_COORD97":2542373.0299999998,"ADDRESS":"崇善路１７１號六樓之１","OBJECTID":477506},"geometry":{"x":170353.23000000231,"y":2542373.0300000012}},{"attributes":{"ID":477532,"DIS_CODE":0,"TOWNNAME":"東區","LI":"龍山里","LIN":"20鄰","STREET":"崇善路","SECT":" ","MAREA":" ","LANE":" ","ALLEY":" ","HOUSE_NO":"１７１號六樓之２","E_COORD97":170353.23000000001,"N_COORD97":2542373.0299999998,"ADDRESS":"崇善路１７１號六樓之２","OBJECTID":477507},"geometry":{"x":170353.23000000231,"y":2542373.0300000012}},{"attributes":{"ID":477533,"DIS_CODE":0,"TOWNNAME":"東區","LI":"龍山里","LIN":"20鄰","STREET":"崇善路","SECT":" ","MAREA":" ","LANE":" ","ALLEY":" ","HOUSE_NO":"１７１號六樓之３","E_COORD97":170353.23000000001,"N_COORD97":2542373.0299999998,"ADDRESS":"崇善路１７１號六樓之３","OBJECTID":477508},"geometry":{"x":170353.23000000231,"y":2542373.0300000012}},{"attributes":{"ID":477534,"DIS_CODE":0,"TOWNNAME":"東區","LI":"龍山里","LIN":"20鄰","STREET":"崇善路","SECT":" ","MAREA":" ","LANE":" ","ALLEY":" ","HOUSE_NO":"１７１號六樓之４","E_COORD97":170353.23000000001,"N_COORD97":2542373.0299999998,"ADDRESS":"崇善路１７１號六樓之４","OBJECTID":477509},"geometry":{"x":170353.23000000231,"y":2542373.0300000012}},{"attributes":{"ID":477535,"DIS_CODE":0,"TOWNNAME":"東區","LI":"龍山里","LIN":"20鄰","STREET":"崇善路","SECT":" ","MAREA":" ","LANE":" ","ALLEY":" ","HOUSE_NO":"１７１號六樓之５","E_COORD97":170353.23000000001,"N_COORD97":2542373.0299999998,"ADDRESS":"崇善路１７１號六樓之５","OBJECTID":477510},"geometry":{"x":170353.23000000231,"y":2542373.0300000012}},{"attributes":{"ID":477536,"DIS_CODE":0,"TOWNNAME":"東區","LI":"龍山里","LIN":"20鄰","STREET":"崇善路","SECT":" ","MAREA":" ","LANE":" ","ALLEY":" ","HOUSE_NO":"１７１號六樓之６","E_COORD97":170353.23000000001,"N_COORD97":2542373.0299999998,"ADDRESS":"崇善路１７１號六樓之６","OBJECTID":477511},"geometry":{"x":170353.23000000231,"y":2542373.0300000012}},{"attributes":{"ID":477537,"DIS_CODE":0,"TOWNNAME":"東區","LI":"龍山里","LIN":"20鄰","STREET":"崇善路","SECT":" ","MAREA":" ","LANE":" ","ALLEY":" ","HOUSE_NO":"１７１號六樓之７","E_COORD97":170353.23000000001,"N_COORD97":2542373.0299999998,"ADDRESS":"崇善路１７１號六樓之７","OBJECTID":477512},"geometry":{"x":170353.23000000231,"y":2542373.0300000012}},{"attributes":{"ID":477538,"DIS_CODE":0,"TOWNNAME":"東區","LI":"龍山里","LIN":"20鄰","STREET":"崇善路","SECT":" ","MAREA":" ","LANE":" ","ALLEY":" ","HOUSE_NO":"１７１號四樓","E_COORD97":170353.23000000001,"N_COORD97":2542373.0299999998,"ADDRESS":"崇善路１７１號四樓","OBJECTID":477513},"geometry":{"x":170353.23000000231,"y":2542373.0300000012}},{"attributes":{"ID":477539,"DIS_CODE":0,"TOWNNAME":"東區","LI":"龍山里","LIN":"20鄰","STREET":"崇善路","SECT":" ","MAREA":" ","LANE":" ","ALLEY":" ","HOUSE_NO":"１７１號四樓之１","E_COORD97":170353.23000000001,"N_COORD97":2542373.0299999998,"ADDRESS":"崇善路１７１號四樓之１","OBJECTID":477514},"geometry":{"x":170353.23000000231,"y":2542373.0300000012}},{"attributes":{"ID":477540,"DIS_CODE":0,"TOWNNAME":"東區","LI":"龍山里","LIN":"20鄰","STREET":"崇善路","SECT":" ","MAREA":" ","LANE":" ","ALLEY":" ","HOUSE_NO":"１７１號四樓之２","E_COORD97":170353.23000000001,"N_COORD97":2542373.0299999998,"ADDRESS":"崇善路１７１號四樓之２","OBJECTID":477515},"geometry":{"x":170353.23000000231,"y":2542373.0300000012}},{"attributes":{"ID":477541,"DIS_CODE":0,"TOWNNAME":"東區","LI":"龍山里","LIN":"20鄰","STREET":"崇善路","SECT":" ","MAREA":" ","LANE":" ","ALLEY":" ","HOUSE_NO":"１７１號四樓之３","E_COORD97":170353.23000000001,"N_COORD97":2542373.0299999998,"ADDRESS":"崇善路１７１號四樓之３","OBJECTID":477516},"geometry":{"x":170353.23000000231,"y":2542373.0300000012}},{"attributes":{"ID":477542,"DIS_CODE":0,"TOWNNAME":"東區","LI":"龍山里","LIN":"20鄰","STREET":"崇善路","SECT":" ","MAREA":" ","LANE":" ","ALLEY":" ","HOUSE_NO":"１７１號四樓之４","E_COORD97":170353.23000000001,"N_COORD97":2542373.0299999998,"ADDRESS":"崇善路１７１號四樓之４","OBJECTID":477517},"geometry":{"x":170353.23000000231,"y":2542373.0300000012}},{"attributes":{"ID":477543,"DIS_CODE":0,"TOWNNAME":"東區","LI":"龍山里","LIN":"20鄰","STREET":"崇善路","SECT":" ","MAREA":" ","LANE":" ","ALLEY":" ","HOUSE_NO":"１７１號四樓之５","E_COORD97":170353.23000000001,"N_COORD97":2542373.0299999998,"ADDRESS":"崇善路１７１號四樓之５","OBJECTID":477518},"geometry":{"x":170353.23000000231,"y":2542373.0300000012}},{"attributes":{"ID":477544,"DIS_CODE":0,"TOWNNAME":"東區","LI":"龍山里","LIN":"20鄰","STREET":"崇善路","SECT":" ","MAREA":" ","LANE":" ","ALLEY":" ","HOUSE_NO":"１７１號四樓之６","E_COORD97":170353.23000000001,"N_COORD97":2542373.0299999998,"ADDRESS":"崇善路１７１號四樓之６","OBJECTID":477519},"geometry":{"x":170353.23000000231,"y":2542373.0300000012}},{"attributes":{"ID":477545,"DIS_CODE":0,"TOWNNAME":"東區","LI":"龍山里","LIN":"20鄰","STREET":"崇善路","SECT":" ","MAREA":" ","LANE":" ","ALLEY":" ","HOUSE_NO":"１７１號四樓之７","E_COORD97":170353.23000000001,"N_COORD97":2542373.0299999998,"ADDRESS":"崇善路１７１號四樓之７","OBJECTID":477520},"geometry":{"x":170353.23000000231,"y":2542373.0300000012}},{"attributes":{"ID":477546,"DIS_CODE":0,"TOWNNAME":"南區","LI":"再興里","LIN":"20鄰","STREET":"金華路","SECT":"二段","MAREA":" ","LANE":" ","ALLEY":" ","HOUSE_NO":"６４號二樓之１","E_COORD97":167083.82000000001,"N_COORD97":2541984.23,"ADDRESS":"金華路二段６４號二樓之１","OBJECTID":477521},"geometry":{"x":167083.8200000003,"y":2541984.2300000004}},{"attributes":{"ID":477547,"DIS_CODE":0,"TOWNNAME":"南區","LI":"再興里","LIN":"20鄰","STREET":"金華路","SECT":"二段","MAREA":" ","LANE":" ","ALLEY":" ","HOUSE_NO":"６４號二樓之２","E_COORD97":167083.82000000001,"N_COORD97":2541984.23,"ADDRESS":"金華路二段６４號二樓之２","OBJECTID":477522},"geometry":{"x":167083.8200000003,"y":2541984.2300000004}},{"attributes":{"ID":477548,"DIS_CODE":0,"TOWNNAME":"南區","LI":"再興里","LIN":"20鄰","STREET":"金華路","SECT":"二段","MAREA":" ","LANE":" ","ALLEY":" ","HOUSE_NO":"６４號三樓之１","E_COORD97":167083.82000000001,"N_COORD97":2541984.23,"ADDRESS":"金華路二段６４號三樓之１","OBJECTID":477523},"geometry":{"x":167083.8200000003,"y":2541984.2300000004}},{"attributes":{"ID":477549,"DIS_CODE":0,"TOWNNAME":"南區","LI":"再興里","LIN":"20鄰","STREET":"金華路","SECT":"二段","MAREA":" ","LANE":" ","ALLEY":" ","HOUSE_NO":"６４號五樓之２","E_COORD97":167083.82000000001,"N_COORD97":2541984.23,"ADDRESS":"金華路二段６４號五樓之２","OBJECTID":477524},"geometry":{"x":167083.8200000003,"y":2541984.2300000004}},{"attributes":{"ID":477550,"DIS_CODE":0,"TOWNNAME":"南區","LI":"再興里","LIN":"20鄰","STREET":"金華路","SECT":"二段","MAREA":" ","LANE":" ","ALLEY":" ","HOUSE_NO":"６４號六樓之１","E_COORD97":167083.82000000001,"N_COORD97":2541984.23,"ADDRESS":"金華路二段６４號六樓之１","OBJECTID":477525},"geometry":{"x":167083.8200000003,"y":2541984.2300000004}},{"attributes":{"ID":477551,"DIS_CODE":0,"TOWNNAME":"南區","LI":"再興里","LIN":"20鄰","STREET":"金華路","SECT":"二段","MAREA":" ","LANE":" ","ALLEY":" ","HOUSE_NO":"６４號六樓之２","E_COORD97":167083.82000000001,"N_COORD97":2541984.23,"ADDRESS":"金華路二段６４號六樓之２","OBJECTID":477526},"geometry":{"x":167083.8200000003,"y":2541984.2300000004}},{"attributes":{"ID":477552,"DIS_CODE":0,"TOWNNAME":"南區","LI":"再興里","LIN":"20鄰","STREET":"金華路","SECT":"二段","MAREA":" ","LANE":" ","ALLEY":" ","HOUSE_NO":"６４號七樓之１","E_COORD97":167083.82000000001,"N_COORD97":2541984.23,"ADDRESS":"金華路二段６４號七樓之１","OBJECTID":477527},"geometry":{"x":167083.8200000003,"y":2541984.2300000004}},{"attributes":{"ID":477553,"DIS_CODE":0,"TOWNNAME":"南區","LI":"再興里","LIN":"20鄰","STREET":"金華路","SECT":"二段","MAREA":" ","LANE":" ","ALLEY":" ","HOUSE_NO":"６４號七樓之２","E_COORD97":167083.82000000001,"N_COORD97":2541984.23,"ADDRESS":"金華路二段６４號七樓之２","OBJECTID":477528},"geometry":{"x":167083.8200000003,"y":2541984.2300000004}},{"attributes":{"ID":477554,"DIS_CODE":0,"TOWNNAME":"南區","LI":"再興里","LIN":"20鄰","STREET":"金華路","SECT":"二段","MAREA":" ","LANE":" ","ALLEY":" ","HOUSE_NO":"７０號二樓之１","E_COORD97":167087.75,"N_COORD97":2542017.6099999999,"ADDRESS":"金華路二段７０號二樓之１","OBJECTID":477529},"geometry":{"x":167087.75000000186,"y":2542017.6099999994}},{"attributes":{"ID":477555,"DIS_CODE":0,"TOWNNAME":"南區","LI":"再興里","LIN":"20鄰","STREET":"金華路","SECT":"二段","MAREA":" ","LANE":" ","ALLEY":" ","HOUSE_NO":"７０號二樓之２","E_COORD97":167087.75,"N_COORD97":2542017.6099999999,"ADDRESS":"金華路二段７０號二樓之２","OBJECTID":477530},"geometry":{"x":167087.75000000186,"y":2542017.6099999994}},{"attributes":{"ID":477556,"DIS_CODE":0,"TOWNNAME":"南區","LI":"再興里","LIN":"20鄰","STREET":"金華路","SECT":"二段","MAREA":" ","LANE":" ","ALLEY":" ","HOUSE_NO":"７０號三樓之１","E_COORD97":167087.75,"N_COORD97":2542017.6099999999,"ADDRESS":"金華路二段７０號三樓之１","OBJECTID":477531},"geometry":{"x":167087.75000000186,"y":2542017.6099999994}},{"attributes":{"ID":477557,"DIS_CODE":0,"TOWNNAME":"南區","LI":"再興里","LIN":"20鄰","STREET":"金華路","SECT":"二段","MAREA":" ","LANE":" ","ALLEY":" ","HOUSE_NO":"７０號三樓之２","E_COORD97":167087.75,"N_COORD97":2542017.6099999999,"ADDRESS":"金華路二段７０號三樓之２","OBJECTID":477532},"geometry":{"x":167087.75000000186,"y":2542017.6099999994}},{"attributes":{"ID":477558,"DIS_CODE":0,"TOWNNAME":"南區","LI":"再興里","LIN":"20鄰","STREET":"金華路","SECT":"二段","MAREA":" ","LANE":" ","ALLEY":" ","HOUSE_NO":"７０號四樓之１","E_COORD97":167087.75,"N_COORD97":2542017.6099999999,"ADDRESS":"金華路二段７０號四樓之１","OBJECTID":477533},"geometry":{"x":167087.75000000186,"y":2542017.6099999994}},{"attributes":{"ID":477559,"DIS_CODE":0,"TOWNNAME":"南區","LI":"再興里","LIN":"20鄰","STREET":"金華路","SECT":"二段","MAREA":" ","LANE":" ","ALLEY":" ","HOUSE_NO":"７０號四樓之２","E_COORD97":167087.75,"N_COORD97":2542017.6099999999,"ADDRESS":"金華路二段７０號四樓之２","OBJECTID":477534},"geometry":{"x":167087.75000000186,"y":2542017.6099999994}},{"attributes":{"ID":477560,"DIS_CODE":0,"TOWNNAME":"南區","LI":"再興里","LIN":"20鄰","STREET":"金華路","SECT":"二段","MAREA":" ","LANE":" ","ALLEY":" ","HOUSE_NO":"７０號五樓之１","E_COORD97":167087.75,"N_COORD97":2542017.6099999999,"ADDRESS":"金華路二段７０號五樓之１","OBJECTID":477535},"geometry":{"x":167087.75000000186,"y":2542017.6099999994}},{"attributes":{"ID":477561,"DIS_CODE":0,"TOWNNAME":"南區","LI":"再興里","LIN":"20鄰","STREET":"金華路","SECT":"二段","MAREA":" ","LANE":" ","ALLEY":" ","HOUSE_NO":"７０號五樓之２","E_COORD97":167087.75,"N_COORD97":2542017.6099999999,"ADDRESS":"金華路二段７０號五樓之２","OBJECTID":477536},"geometry":{"x":167087.75000000186,"y":2542017.6099999994}},{"attributes":{"ID":477562,"DIS_CODE":0,"TOWNNAME":"南區","LI":"再興里","LIN":"20鄰","STREET":"金華路","SECT":"二段","MAREA":" ","LANE":" ","ALLEY":" ","HOUSE_NO":"７０號六樓之１","E_COORD97":167087.75,"N_COORD97":2542017.6099999999,"ADDRESS":"金華路二段７０號六樓之１","OBJECTID":477537},"geometry":{"x":167087.75000000186,"y":2542017.6099999994}},{"attributes":{"ID":477563,"DIS_CODE":0,"TOWNNAME":"南區","LI":"再興里","LIN":"20鄰","STREET":"金華路","SECT":"二段","MAREA":" ","LANE":" ","ALLEY":" ","HOUSE_NO":"７０號六樓之２","E_COORD97":167087.75,"N_COORD97":2542017.6099999999,"ADDRESS":"金華路二段７０號六樓之２","OBJECTID":477538},"geometry":{"x":167087.75000000186,"y":2542017.6099999994}},{"attributes":{"ID":477564,"DIS_CODE":0,"TOWNNAME":"南區","LI":"再興里","LIN":"20鄰","STREET":"金華路","SECT":"二段","MAREA":" ","LANE":" ","ALLEY":" ","HOUSE_NO":"７０號七樓之１","E_COORD97":167087.75,"N_COORD97":2542017.6099999999,"ADDRESS":"金華路二段７０號七樓之１","OBJECTID":477539},"geometry":{"x":167087.75000000186,"y":2542017.6099999994}},{"attributes":{"ID":477565,"DIS_CODE":0,"TOWNNAME":"南區","LI":"再興里","LIN":"20鄰","STREET":"金華路","SECT":"二段","MAREA":" ","LANE":" ","ALLEY":" ","HOUSE_NO":"７０號七樓之２","E_COORD97":167087.75,"N_COORD97":2542017.6099999999,"ADDRESS":"金華路二段７０號七樓之２","OBJECTID":477540},"geometry":{"x":167087.75000000186,"y":2542017.6099999994}},{"attributes":{"ID":477566,"DIS_CODE":0,"TOWNNAME":"東區","LI":"和平里","LIN":"20鄰","STREET":"文化路","SECT":" ","MAREA":" ","LANE":" ","ALLEY":" ","HOUSE_NO":"３１號二樓之５","E_COORD97":171161,"N_COORD97":2541952.3900000001,"ADDRESS":"文化路３１號二樓之５","OBJECTID":477541},"geometry":{"x":171161,"y":2541952.3900000025}},{"attributes":{"ID":477567,"DIS_CODE":0,"TOWNNAME":"東區","LI":"和平里","LIN":"20鄰","STREET":"文化路","SECT":" ","MAREA":" ","LANE":" ","ALLEY":" ","HOUSE_NO":"３１號三樓之５","E_COORD97":171161,"N_COORD97":2541952.3900000001,"ADDRESS":"文化路３１號三樓之５","OBJECTID":477542},"geometry":{"x":171161,"y":2541952.3900000025}},{"attributes":{"ID":477568,"DIS_CODE":0,"TOWNNAME":"東區","LI":"和平里","LIN":"20鄰","STREET":"文化路","SECT":" ","MAREA":" ","LANE":" ","ALLEY":" ","HOUSE_NO":"３１號四樓之５","E_COORD97":171161,"N_COORD97":2541952.3900000001,"ADDRESS":"文化路３１號四樓之５","OBJECTID":477543},"geometry":{"x":171161,"y":2541952.3900000025}},{"attributes":{"ID":477569,"DIS_CODE":0,"TOWNNAME":"東區","LI":"和平里","LIN":"20鄰","STREET":"文化路","SECT":" ","MAREA":" ","LANE":" ","ALLEY":" ","HOUSE_NO":"３１號五樓之５","E_COORD97":171161,"N_COORD97":2541952.3900000001,"ADDRESS":"文化路３１號五樓之５","OBJECTID":477544},"geometry":{"x":171161,"y":2541952.3900000025}},{"attributes":{"ID":477570,"DIS_CODE":0,"TOWNNAME":"東區","LI":"和平里","LIN":"20鄰","STREET":"文化路","SECT":" ","MAREA":" ","LANE":" ","ALLEY":" ","HOUSE_NO":"３１號六樓之５","E_COORD97":171161,"N_COORD97":2541952.3900000001,"ADDRESS":"文化路３１號六樓之５","OBJECTID":477545},"geometry":{"x":171161,"y":2541952.3900000025}},{"attributes":{"ID":477571,"DIS_CODE":0,"TOWNNAME":"東區","LI":"和平里","LIN":"20鄰","STREET":"文化路","SECT":" ","MAREA":" ","LANE":" ","ALLEY":" ","HOUSE_NO":"３１號八樓之５","E_COORD97":171161,"N_COORD97":2541952.3900000001,"ADDRESS":"文化路３１號八樓之５","OBJECTID":477546},"geometry":{"x":171161,"y":2541952.3900000025}},{"attributes":{"ID":477572,"DIS_CODE":0,"TOWNNAME":"東區","LI":"和平里","LIN":"20鄰","STREET":"文化路","SECT":" ","MAREA":" ","LANE":" ","ALLEY":" ","HOUSE_NO":"３１號十樓之５","E_COORD97":171161,"N_COORD97":2541952.3900000001,"ADDRESS":"文化路３１號十樓之５","OBJECTID":477547},"geometry":{"x":171161,"y":2541952.3900000025}},{"attributes":{"ID":477573,"DIS_CODE":0,"TOWNNAME":"東區","LI":"和平里","LIN":"20鄰","STREET":"文化路","SECT":" ","MAREA":" ","LANE":" ","ALLEY":" ","HOUSE_NO":"３１號十一樓之５","E_COORD97":171161,"N_COORD97":2541952.3900000001,"ADDRESS":"文化路３１號十一樓之５","OBJECTID":477548},"geometry":{"x":171161,"y":2541952.3900000025}},{"attributes":{"ID":477574,"DIS_CODE":0,"TOWNNAME":"東區","LI":"和平里","LIN":"20鄰","STREET":"文化路","SECT":" ","MAREA":" ","LANE":" ","ALLEY":" ","HOUSE_NO":"３１號十二樓之５","E_COORD97":171161,"N_COORD97":2541952.3900000001,"ADDRESS":"文化路３１號十二樓之５","OBJECTID":477549},"geometry":{"x":171161,"y":2541952.3900000025}},{"attributes":{"ID":477575,"DIS_CODE":0,"TOWNNAME":"東區","LI":"和平里","LIN":"20鄰","STREET":"文化路","SECT":" ","MAREA":" ","LANE":" ","ALLEY":" ","HOUSE_NO":"３１號十三樓之５","E_COORD97":171161,"N_COORD97":2541952.3900000001,"ADDRESS":"文化路３１號十三樓之５","OBJECTID":477550},"geometry":{"x":171161,"y":2541952.3900000025}},{"attributes":{"ID":477576,"DIS_CODE":0,"TOWNNAME":"東區","LI":"和平里","LIN":"20鄰","STREET":"文化路","SECT":" ","MAREA":" ","LANE":" ","ALLEY":" ","HOUSE_NO":"３１號十四樓之５","E_COORD97":171161,"N_COORD97":2541952.3900000001,"ADDRESS":"文化路３１號十四樓之５","OBJECTID":477551},"geometry":{"x":171161,"y":2541952.3900000025}},{"attributes":{"ID":477577,"DIS_CODE":0,"TOWNNAME":"東區","LI":"和平里","LIN":"20鄰","STREET":"文化路","SECT":" ","MAREA":" ","LANE":" ","ALLEY":" ","HOUSE_NO":"３３號七樓之５","E_COORD97":171156.57999999999,"N_COORD97":2541968.77,"ADDRESS":"文化路３３號七樓之５","OBJECTID":477552},"geometry":{"x":171156.58000000007,"y":2541968.7700000014}},{"attributes":{"ID":477578,"DIS_CODE":0,"TOWNNAME":"東區","LI":"和平里","LIN":"20鄰","STREET":"文化路","SECT":" ","MAREA":" ","LANE":" ","ALLEY":" ","HOUSE_NO":"３３號二樓之５","E_COORD97":171156.57999999999,"N_COORD97":2541968.77,"ADDRESS":"文化路３３號二樓之５","OBJECTID":477553},"geometry":{"x":171156.58000000007,"y":2541968.7700000014}},{"attributes":{"ID":477579,"DIS_CODE":0,"TOWNNAME":"東區","LI":"和平里","LIN":"20鄰","STREET":"文化路","SECT":" ","MAREA":" ","LANE":" ","ALLEY":" ","HOUSE_NO":"３３號三樓之５","E_COORD97":171156.57999999999,"N_COORD97":2541968.77,"ADDRESS":"文化路３３號三樓之５","OBJECTID":477554},"geometry":{"x":171156.58000000007,"y":2541968.7700000014}},{"attributes":{"ID":477580,"DIS_CODE":0,"TOWNNAME":"東區","LI":"和平里","LIN":"20鄰","STREET":"文化路","SECT":" ","MAREA":" ","LANE":" ","ALLEY":" ","HOUSE_NO":"３３號四樓之５","E_COORD97":171156.57999999999,"N_COORD97":2541968.77,"ADDRESS":"文化路３３號四樓之５","OBJECTID":477555},"geometry":{"x":171156.58000000007,"y":2541968.7700000014}},{"attributes":{"ID":477581,"DIS_CODE":0,"TOWNNAME":"東區","LI":"和平里","LIN":"20鄰","STREET":"文化路","SECT":" ","MAREA":" ","LANE":" ","ALLEY":" ","HOUSE_NO":"３３號五樓之５","E_COORD97":171156.57999999999,"N_COORD97":2541968.77,"ADDRESS":"文化路３３號五樓之５","OBJECTID":477556},"geometry":{"x":171156.58000000007,"y":2541968.7700000014}},{"attributes":{"ID":477582,"DIS_CODE":0,"TOWNNAME":"東區","LI":"和平里","LIN":"20鄰","STREET":"文化路","SECT":" ","MAREA":" ","LANE":" ","ALLEY":" ","HOUSE_NO":"３３號六樓之５","E_COORD97":171156.57999999999,"N_COORD97":2541968.77,"ADDRESS":"文化路３３號六樓之５","OBJECTID":477557},"geometry":{"x":171156.58000000007,"y":2541968.7700000014}},{"attributes":{"ID":477583,"DIS_CODE":0,"TOWNNAME":"東區","LI":"和平里","LIN":"20鄰","STREET":"文化路","SECT":" ","MAREA":" ","LANE":" ","ALLEY":" ","HOUSE_NO":"３３號八樓之５","E_COORD97":171156.57999999999,"N_COORD97":2541968.77,"ADDRESS":"文化路３３號八樓之５","OBJECTID":477558},"geometry":{"x":171156.58000000007,"y":2541968.7700000014}},{"attributes":{"ID":477584,"DIS_CODE":0,"TOWNNAME":"東區","LI":"和平里","LIN":"20鄰","STREET":"文化路","SECT":" ","MAREA":" ","LANE":" ","ALLEY":" ","HOUSE_NO":"３３號九樓之５","E_COORD97":171156.57999999999,"N_COORD97":2541968.77,"ADDRESS":"文化路３３號九樓之５","OBJECTID":477559},"geometry":{"x":171156.58000000007,"y":2541968.7700000014}},{"attributes":{"ID":477585,"DIS_CODE":0,"TOWNNAME":"東區","LI":"和平里","LIN":"20鄰","STREET":"文化路","SECT":" ","MAREA":" ","LANE":" ","ALLEY":" ","HOUSE_NO":"３３號十樓之５","E_COORD97":171156.57999999999,"N_COORD97":2541968.77,"ADDRESS":"文化路３３號十樓之５","OBJECTID":477560},"geometry":{"x":171156.58000000007,"y":2541968.7700000014}},{"attributes":{"ID":477586,"DIS_CODE":0,"TOWNNAME":"東區","LI":"和平里","LIN":"20鄰","STREET":"文化路","SECT":" ","MAREA":" ","LANE":" ","ALLEY":" ","HOUSE_NO":"３３號十一樓之５","E_COORD97":171156.57999999999,"N_COORD97":2541968.77,"ADDRESS":"文化路３３號十一樓之５","OBJECTID":477561},"geometry":{"x":171156.58000000007,"y":2541968.7700000014}},{"attributes":{"ID":477587,"DIS_CODE":0,"TOWNNAME":"東區","LI":"和平里","LIN":"20鄰","STREET":"文化路","SECT":" ","MAREA":" ","LANE":" ","ALLEY":" ","HOUSE_NO":"３３號十二樓之５","E_COORD97":171156.57999999999,"N_COORD97":2541968.77,"ADDRESS":"文化路３３號十二樓之５","OBJECTID":477562},"geometry":{"x":171156.58000000007,"y":2541968.7700000014}},{"attributes":{"ID":477588,"DIS_CODE":0,"TOWNNAME":"東區","LI":"和平里","LIN":"20鄰","STREET":"文化路","SECT":" ","MAREA":" ","LANE":" ","ALLEY":" ","HOUSE_NO":"３３號十三樓之５","E_COORD97":171156.57999999999,"N_COORD97":2541968.77,"ADDRESS":"文化路３３號十三樓之５","OBJECTID":477563},"geometry":{"x":171156.58000000007,"y":2541968.7700000014}},{"attributes":{"ID":477589,"DIS_CODE":0,"TOWNNAME":"東區","LI":"和平里","LIN":"20鄰","STREET":"文化路","SECT":" ","MAREA":" ","LANE":" ","ALLEY":" ","HOUSE_NO":"３３號十四樓之５","E_COORD97":171156.57999999999,"N_COORD97":2541968.77,"ADDRESS":"文化路３３號十四樓之５","OBJECTID":477564},"geometry":{"x":171156.58000000007,"y":2541968.7700000014}},{"attributes":{"ID":477590,"DIS_CODE":0,"TOWNNAME":"南區","LI":"文南里","LIN":"20鄰","STREET":"仁南二街","SECT":" ","MAREA":" ","LANE":" ","ALLEY":" ","HOUSE_NO":"１２號二樓","E_COORD97":166429.06,"N_COORD97":2542662.3199999998,"ADDRESS":"仁南二街１２號二樓","OBJECTID":477565},"geometry":{"x":166429.06000000145,"y":2542662.3200000003}},{"attributes":{"ID":477591,"DIS_CODE":0,"TOWNNAME":"南區","LI":"文南里","LIN":"20鄰","STREET":"仁南二街","SECT":" ","MAREA":" ","LANE":" ","ALLEY":" ","HOUSE_NO":"１２號三樓","E_COORD97":166429.06,"N_COORD97":2542662.3199999998,"ADDRESS":"仁南二街１２號三樓","OBJECTID":477566},"geometry":{"x":166429.06000000145,"y":2542662.3200000003}},{"attributes":{"ID":477592,"DIS_CODE":0,"TOWNNAME":"南區","LI":"文南里","LIN":"20鄰","STREET":"仁南二街","SECT":" ","MAREA":" ","LANE":" ","ALLEY":" ","HOUSE_NO":"１２號四樓","E_COORD97":166429.06,"N_COORD97":2542662.3199999998,"ADDRESS":"仁南二街１２號四樓","OBJECTID":477567},"geometry":{"x":166429.06000000145,"y":2542662.3200000003}},{"attributes":{"ID":477593,"DIS_CODE":0,"TOWNNAME":"南區","LI":"文南里","LIN":"20鄰","STREET":"仁南二街","SECT":" ","MAREA":" ","LANE":" ","ALLEY":" ","HOUSE_NO":"１２號五樓","E_COORD97":166429.06,"N_COORD97":2542662.3199999998,"ADDRESS":"仁南二街１２號五樓","OBJECTID":477568},"geometry":{"x":166429.06000000145,"y":2542662.3200000003}},{"attributes":{"ID":477594,"DIS_CODE":0,"TOWNNAME":"歸仁區","LI":"崙頂里","LIN":"5鄰","STREET":"大成路","SECT":" ","MAREA":" ","LANE":" ","ALLEY":" ","HOUSE_NO":"３８４號","E_COORD97":178029.76999999999,"N_COORD97":2540107.6800000002,"ADDRESS":"大成路３８４號","OBJECTID":477569},"geometry":{"x":178029.77000000048,"y":2540107.6800000016}},{"attributes":{"ID":477595,"DIS_CODE":0,"TOWNNAME":"南區","LI":"文南里","LIN":"20鄰","STREET":"仁南二街","SECT":" ","MAREA":" ","LANE":" ","ALLEY":" ","HOUSE_NO":"１２號六樓","E_COORD97":166429.06,"N_COORD97":2542662.3199999998,"ADDRESS":"仁南二街１２號六樓","OBJECTID":477570},"geometry":{"x":166429.06000000145,"y":2542662.3200000003}},{"attributes":{"ID":477596,"DIS_CODE":0,"TOWNNAME":"南區","LI":"文南里","LIN":"20鄰","STREET":"仁南二街","SECT":" ","MAREA":" ","LANE":" ","ALLEY":" ","HOUSE_NO":"１６號二樓","E_COORD97":166436.35999999999,"N_COORD97":2542662.48,"ADDRESS":"仁南二街１６號二樓","OBJECTID":477571},"geometry":{"x":166436.3600000022,"y":2542662.4800000023}},{"attributes":{"ID":477597,"DIS_CODE":0,"TOWNNAME":"南區","LI":"文南里","LIN":"20鄰","STREET":"仁南二街","SECT":" ","MAREA":" ","LANE":" ","ALLEY":" ","HOUSE_NO":"１６號三樓","E_COORD97":166436.35999999999,"N_COORD97":2542662.48,"ADDRESS":"仁南二街１６號三樓","OBJECTID":477572},"geometry":{"x":166436.3600000022,"y":2542662.4800000023}},{"attributes":{"ID":477598,"DIS_CODE":0,"TOWNNAME":"南區","LI":"文南里","LIN":"20鄰","STREET":"仁南二街","SECT":" ","MAREA":" ","LANE":" ","ALLEY":" ","HOUSE_NO":"１６號四樓","E_COORD97":166436.35999999999,"N_COORD97":2542662.48,"ADDRESS":"仁南二街１６號四樓","OBJECTID":477573},"geometry":{"x":166436.3600000022,"y":2542662.4800000023}},{"attributes":{"ID":477599,"DIS_CODE":0,"TOWNNAME":"南區","LI":"文南里","LIN":"20鄰","STREET":"仁南二街","SECT":" ","MAREA":" ","LANE":" ","ALLEY":" ","HOUSE_NO":"１６號五樓","E_COORD97":166436.35999999999,"N_COORD97":2542662.48,"ADDRESS":"仁南二街１６號五樓","OBJECTID":477574},"geometry":{"x":166436.3600000022,"y":2542662.4800000023}},{"attributes":{"ID":477600,"DIS_CODE":0,"TOWNNAME":"南區","LI":"文南里","LIN":"20鄰","STREET":"仁南二街","SECT":" ","MAREA":" ","LANE":" ","ALLEY":" ","HOUSE_NO":"１６號六樓","E_COORD97":166436.35999999999,"N_COORD97":2542662.48,"ADDRESS":"仁南二街１６號六樓","OBJECTID":477575},"geometry":{"x":166436.3600000022,"y":2542662.4800000023}},{"attributes":{"ID":477601,"DIS_CODE":0,"TOWNNAME":"南區","LI":"文南里","LIN":"20鄰","STREET":"仁南二街","SECT":" ","MAREA":" ","LANE":" ","ALLEY":" ","HOUSE_NO":"１８號二樓","E_COORD97":166442.87,"N_COORD97":2542661.21,"ADDRESS":"仁南二街１８號二樓","OBJECTID":477576},"geometry":{"x":166442.87000000197,"y":2542661.2100000028}},{"attributes":{"ID":477602,"DIS_CODE":0,"TOWNNAME":"南區","LI":"文南里","LIN":"20鄰","STREET":"仁南二街","SECT":" ","MAREA":" ","LANE":" ","ALLEY":" ","HOUSE_NO":"１８號三樓","E_COORD97":166442.87,"N_COORD97":2542661.21,"ADDRESS":"仁南二街１８號三樓","OBJECTID":477577},"geometry":{"x":166442.87000000197,"y":2542661.2100000028}},{"attributes":{"ID":477603,"DIS_CODE":0,"TOWNNAME":"南區","LI":"文南里","LIN":"20鄰","STREET":"仁南二街","SECT":" ","MAREA":" ","LANE":" ","ALLEY":" ","HOUSE_NO":"１８號四樓","E_COORD97":166442.87,"N_COORD97":2542661.21,"ADDRESS":"仁南二街１８號四樓","OBJECTID":477578},"geometry":{"x":166442.87000000197,"y":2542661.2100000028}},{"attributes":{"ID":477604,"DIS_CODE":0,"TOWNNAME":"南區","LI":"文南里","LIN":"20鄰","STREET":"仁南二街","SECT":" ","MAREA":" ","LANE":" ","ALLEY":" ","HOUSE_NO":"１８號五樓","E_COORD97":166442.87,"N_COORD97":2542661.21,"ADDRESS":"仁南二街１８號五樓","OBJECTID":477579},"geometry":{"x":166442.87000000197,"y":2542661.2100000028}},{"attributes":{"ID":477605,"DIS_CODE":0,"TOWNNAME":"南區","LI":"文南里","LIN":"20鄰","STREET":"仁南二街","SECT":" ","MAREA":" ","LANE":" ","ALLEY":" ","HOUSE_NO":"１８號六樓","E_COORD97":166442.87,"N_COORD97":2542661.21,"ADDRESS":"仁南二街１８號六樓","OBJECTID":477580},"geometry":{"x":166442.87000000197,"y":2542661.2100000028}},{"attributes":{"ID":477606,"DIS_CODE":0,"TOWNNAME":"南區","LI":"文南里","LIN":"20鄰","STREET":"仁南二街","SECT":" ","MAREA":" ","LANE":" ","ALLEY":" ","HOUSE_NO":"２０號二樓","E_COORD97":166453.19,"N_COORD97":2542660.2599999998,"ADDRESS":"仁南二街２０號二樓","OBJECTID":477581},"geometry":{"x":166453.19000000134,"y":2542660.2600000016}},{"attributes":{"ID":477607,"DIS_CODE":0,"TOWNNAME":"南區","LI":"文南里","LIN":"20鄰","STREET":"仁南二街","SECT":" ","MAREA":" ","LANE":" ","ALLEY":" ","HOUSE_NO":"２０號三樓","E_COORD97":166453.19,"N_COORD97":2542660.2599999998,"ADDRESS":"仁南二街２０號三樓","OBJECTID":477582},"geometry":{"x":166453.19000000134,"y":2542660.2600000016}},{"attributes":{"ID":477608,"DIS_CODE":0,"TOWNNAME":"南區","LI":"文南里","LIN":"20鄰","STREET":"仁南二街","SECT":" ","MAREA":" ","LANE":" ","ALLEY":" ","HOUSE_NO":"２０號四樓","E_COORD97":166453.19,"N_COORD97":2542660.2599999998,"ADDRESS":"仁南二街２０號四樓","OBJECTID":477583},"geometry":{"x":166453.19000000134,"y":2542660.2600000016}},{"attributes":{"ID":477609,"DIS_CODE":0,"TOWNNAME":"南區","LI":"文南里","LIN":"20鄰","STREET":"仁南二街","SECT":" ","MAREA":" ","LANE":" ","ALLEY":" ","HOUSE_NO":"２０號五樓","E_COORD97":166453.19,"N_COORD97":2542660.2599999998,"ADDRESS":"仁南二街２０號五樓","OBJECTID":477584},"geometry":{"x":166453.19000000134,"y":2542660.2600000016}},{"attributes":{"ID":477610,"DIS_CODE":0,"TOWNNAME":"南區","LI":"文南里","LIN":"20鄰","STREET":"仁南二街","SECT":" ","MAREA":" ","LANE":" ","ALLEY":" ","HOUSE_NO":"２０號六樓","E_COORD97":166453.19,"N_COORD97":2542660.2599999998,"ADDRESS":"仁南二街２０號六樓","OBJECTID":477585},"geometry":{"x":166453.19000000134,"y":2542660.2600000016}},{"attributes":{"ID":477611,"DIS_CODE":0,"TOWNNAME":"南區","LI":"文南里","LIN":"20鄰","STREET":"仁南二街","SECT":" ","MAREA":" ","LANE":" ","ALLEY":" ","HOUSE_NO":"２２號二樓","E_COORD97":166463.35000000001,"N_COORD97":2542658.3500000001,"ADDRESS":"仁南二街２２號二樓","OBJECTID":477586},"geometry":{"x":166463.35000000056,"y":2542658.3499999978}},{"attributes":{"ID":477612,"DIS_CODE":0,"TOWNNAME":"南區","LI":"文南里","LIN":"20鄰","STREET":"仁南二街","SECT":" ","MAREA":" ","LANE":" ","ALLEY":" ","HOUSE_NO":"２２號三樓","E_COORD97":166463.35000000001,"N_COORD97":2542658.3500000001,"ADDRESS":"仁南二街２２號三樓","OBJECTID":477587},"geometry":{"x":166463.35000000056,"y":2542658.3499999978}},{"attributes":{"ID":477613,"DIS_CODE":0,"TOWNNAME":"南區","LI":"文南里","LIN":"20鄰","STREET":"仁南二街","SECT":" ","MAREA":" ","LANE":" ","ALLEY":" ","HOUSE_NO":"２２號四樓","E_COORD97":166463.35000000001,"N_COORD97":2542658.3500000001,"ADDRESS":"仁南二街２２號四樓","OBJECTID":477588},"geometry":{"x":166463.35000000056,"y":2542658.3499999978}},{"attributes":{"ID":477614,"DIS_CODE":0,"TOWNNAME":"南區","LI":"文南里","LIN":"20鄰","STREET":"仁南二街","SECT":" ","MAREA":" ","LANE":" ","ALLEY":" ","HOUSE_NO":"２２號五樓","E_COORD97":166463.35000000001,"N_COORD97":2542658.3500000001,"ADDRESS":"仁南二街２２號五樓","OBJECTID":477589},"geometry":{"x":166463.35000000056,"y":2542658.3499999978}},{"attributes":{"ID":477615,"DIS_CODE":0,"TOWNNAME":"南區","LI":"文南里","LIN":"20鄰","STREET":"仁南二街","SECT":" ","MAREA":" ","LANE":" ","ALLEY":" ","HOUSE_NO":"２２號六樓","E_COORD97":166463.35000000001,"N_COORD97":2542658.3500000001,"ADDRESS":"仁南二街２２號六樓","OBJECTID":477590},"geometry":{"x":166463.35000000056,"y":2542658.3499999978}},{"attributes":{"ID":477616,"DIS_CODE":0,"TOWNNAME":"南區","LI":"文南里","LIN":"20鄰","STREET":"仁南二街","SECT":" ","MAREA":" ","LANE":" ","ALLEY":" ","HOUSE_NO":"２８號二樓之１","E_COORD97":166483.35000000001,"N_COORD97":2542656.7599999998,"ADDRESS":"仁南二街２８號二樓之１","OBJECTID":477591},"geometry":{"x":166483.35000000056,"y":2542656.7600000016}},{"attributes":{"ID":477617,"DIS_CODE":0,"TOWNNAME":"南區","LI":"文南里","LIN":"20鄰","STREET":"仁南二街","SECT":" ","MAREA":" ","LANE":" ","ALLEY":" ","HOUSE_NO":"２８號二樓之２","E_COORD97":166483.35000000001,"N_COORD97":2542656.7599999998,"ADDRESS":"仁南二街２８號二樓之２","OBJECTID":477592},"geometry":{"x":166483.35000000056,"y":2542656.7600000016}},{"attributes":{"ID":477618,"DIS_CODE":0,"TOWNNAME":"南區","LI":"文南里","LIN":"20鄰","STREET":"仁南二街","SECT":" ","MAREA":" ","LANE":" ","ALLEY":" ","HOUSE_NO":"２８號二樓之３","E_COORD97":166483.35000000001,"N_COORD97":2542656.7599999998,"ADDRESS":"仁南二街２８號二樓之３","OBJECTID":477593},"geometry":{"x":166483.35000000056,"y":2542656.7600000016}},{"attributes":{"ID":477619,"DIS_CODE":0,"TOWNNAME":"南區","LI":"文南里","LIN":"20鄰","STREET":"仁南二街","SECT":" ","MAREA":" ","LANE":" ","ALLEY":" ","HOUSE_NO":"２８號二樓之５","E_COORD97":166483.35000000001,"N_COORD97":2542656.7599999998,"ADDRESS":"仁南二街２８號二樓之５","OBJECTID":477594},"geometry":{"x":166483.35000000056,"y":2542656.7600000016}},{"attributes":{"ID":477620,"DIS_CODE":0,"TOWNNAME":"南區","LI":"文南里","LIN":"20鄰","STREET":"仁南二街","SECT":" ","MAREA":" ","LANE":" ","ALLEY":" ","HOUSE_NO":"２８號三樓之１","E_COORD97":166483.35000000001,"N_COORD97":2542656.7599999998,"ADDRESS":"仁南二街２８號三樓之１","OBJECTID":477595},"geometry":{"x":166483.35000000056,"y":2542656.7600000016}},{"attributes":{"ID":477621,"DIS_CODE":0,"TOWNNAME":"南區","LI":"文南里","LIN":"20鄰","STREET":"仁南二街","SECT":" ","MAREA":" ","LANE":" ","ALLEY":" ","HOUSE_NO":"２８號三樓之２","E_COORD97":166483.35000000001,"N_COORD97":2542656.7599999998,"ADDRESS":"仁南二街２８號三樓之２","OBJECTID":477596},"geometry":{"x":166483.35000000056,"y":2542656.7600000016}},{"attributes":{"ID":477622,"DIS_CODE":0,"TOWNNAME":"南區","LI":"文南里","LIN":"20鄰","STREET":"仁南二街","SECT":" ","MAREA":" ","LANE":" ","ALLEY":" ","HOUSE_NO":"２８號三樓之３","E_COORD97":166483.35000000001,"N_COORD97":2542656.7599999998,"ADDRESS":"仁南二街２８號三樓之３","OBJECTID":477597},"geometry":{"x":166483.35000000056,"y":2542656.7600000016}},{"attributes":{"ID":477623,"DIS_CODE":0,"TOWNNAME":"南區","LI":"文南里","LIN":"20鄰","STREET":"仁南二街","SECT":" ","MAREA":" ","LANE":" ","ALLEY":" ","HOUSE_NO":"８號四樓","E_COORD97":166415.88,"N_COORD97":2542663.8300000001,"ADDRESS":"仁南二街８號四樓","OBJECTID":477598},"geometry":{"x":166415.88000000082,"y":2542663.8300000019}},{"attributes":{"ID":477624,"DIS_CODE":0,"TOWNNAME":"南區","LI":"文南里","LIN":"20鄰","STREET":"仁南二街","SECT":" ","MAREA":" ","LANE":" ","ALLEY":" ","HOUSE_NO":"２８號三樓之５","E_COORD97":166483.35000000001,"N_COORD97":2542656.7599999998,"ADDRESS":"仁南二街２８號三樓之５","OBJECTID":477599},"geometry":{"x":166483.35000000056,"y":2542656.7600000016}},{"attributes":{"ID":477625,"DIS_CODE":0,"TOWNNAME":"南區","LI":"文南里","LIN":"20鄰","STREET":"仁南二街","SECT":" ","MAREA":" ","LANE":" ","ALLEY":" ","HOUSE_NO":"２８號五樓之３","E_COORD97":166483.35000000001,"N_COORD97":2542656.7599999998,"ADDRESS":"仁南二街２８號五樓之３","OBJECTID":477600},"geometry":{"x":166483.35000000056,"y":2542656.7600000016}}]}