{"displayFieldName":"TOWNNAME","fieldAliases":{"ID":"ID","DIS_CODE":"DIS_CODE","TOWNNAME":"TOWNNAME","LI":"LI","LIN":"LIN","STREET":"STREET","SECT":"SECT","MAREA":"MAREA","LANE":"LANE","ALLEY":"ALLEY","HOUSE_NO":"HOUSE_NO","E_COORD97":"E_COORD97","N_COORD97":"N_COORD97","ADDRESS":"ADDRESS","OBJECTID":"OBJECTID"},"geometryType":"esriGeometryPoint","spatialReference":{"wkid":102443,"latestWkid":3826},"fields":[{"name":"ID","type":"esriFieldTypeDouble","alias":"ID"},{"name":"DIS_CODE","type":"esriFieldTypeInteger","alias":"DIS_CODE"},{"name":"TOWNNAME","type":"esriFieldTypeString","alias":"TOWNNAME","length":8},{"name":"LI","type":"esriFieldTypeString","alias":"LI","length":8},{"name":"LIN","type":"esriFieldTypeString","alias":"LIN","length":12},{"name":"STREET","type":"esriFieldTypeString","alias":"STREET","length":20},{"name":"SECT","type":"esriFieldTypeString","alias":"SECT","length":8},{"name":"MAREA","type":"esriFieldTypeString","alias":"MAREA","length":12},{"name":"LANE","type":"esriFieldTypeString","alias":"LANE","length":10},{"name":"ALLEY","type":"esriFieldTypeString","alias":"ALLEY","length":10},{"name":"HOUSE_NO","type":"esriFieldTypeString","alias":"HOUSE_NO","length":20},{"name":"E_COORD97","type":"esriFieldTypeDouble","alias":"E_COORD97"},{"name":"N_COORD97","type":"esriFieldTypeDouble","alias":"N_COORD97"},{"name":"ADDRESS","type":"esriFieldTypeString","alias":"ADDRESS","length":50},{"name":"OBJECTID","type":"esriFieldTypeOID","alias":"OBJECTID"}],"features":[{"attributes":{"ID":185602,"DIS_CODE":0,"TOWNNAME":"東區","LI":"泉南里","LIN":"36鄰","STREET":"林森路","SECT":"一段","MAREA":" ","LANE":"１５３巷","ALLEY":"３弄","HOUSE_NO":"２號","E_COORD97":169527.57000000001,"N_COORD97":2542623.2599999998,"ADDRESS":"林森路一段１５３巷３弄２號","OBJECTID":185601},"geometry":{"x":169527.57000000123,"y":2542623.2600000016}},{"attributes":{"ID":185603,"DIS_CODE":0,"TOWNNAME":"玉井區","LI":"玉田里","LIN":"24鄰","STREET":"中華路","SECT":" ","MAREA":" ","LANE":" ","ALLEY":" ","HOUSE_NO":"１４０號","E_COORD97":195055.35000000001,"N_COORD97":2557942.25,"ADDRESS":"中華路１４０號","OBJECTID":185602},"geometry":{"x":195055.34999999963,"y":2557942.25}},{"attributes":{"ID":185604,"DIS_CODE":0,"TOWNNAME":"白河區","LI":"河東里","LIN":"10鄰","STREET":" ","SECT":" ","MAREA":"糞箕湖","LANE":" ","ALLEY":" ","HOUSE_NO":"１３８號","E_COORD97":191005.20000000001,"N_COORD97":2582511.7200000002,"ADDRESS":"糞箕湖１３８號","OBJECTID":185603},"geometry":{"x":191005.20000000019,"y":2582511.7200000025}},{"attributes":{"ID":185605,"DIS_CODE":0,"TOWNNAME":"後壁區","LI":"嘉田里","LIN":"11鄰","STREET":" ","SECT":" ","MAREA":"上茄苳","LANE":" ","ALLEY":" ","HOUSE_NO":"１０９號","E_COORD97":186616.10999999999,"N_COORD97":2586932.3599999999,"ADDRESS":"上茄苳１０９號","OBJECTID":185604},"geometry":{"x":186616.11000000127,"y":2586932.3599999994}},{"attributes":{"ID":185606,"DIS_CODE":0,"TOWNNAME":"白河區","LI":"河東里","LIN":"10鄰","STREET":" ","SECT":" ","MAREA":"糞箕湖","LANE":" ","ALLEY":" ","HOUSE_NO":"１３９之１４號","E_COORD97":190970.53,"N_COORD97":2582691.7799999998,"ADDRESS":"糞箕湖１３９之１４號","OBJECTID":185605},"geometry":{"x":190970.53000000026,"y":2582691.7799999993}},{"attributes":{"ID":185607,"DIS_CODE":0,"TOWNNAME":"白河區","LI":"河東里","LIN":"10鄰","STREET":" ","SECT":" ","MAREA":"糞箕湖","LANE":" ","ALLEY":" ","HOUSE_NO":"１３９之１８號","E_COORD97":190959.28,"N_COORD97":2582738.6499999999,"ADDRESS":"糞箕湖１３９之１８號","OBJECTID":185606},"geometry":{"x":190959.28000000026,"y":2582738.6500000022}},{"attributes":{"ID":185608,"DIS_CODE":0,"TOWNNAME":"白河區","LI":"河東里","LIN":"10鄰","STREET":" ","SECT":" ","MAREA":"糞箕湖","LANE":" ","ALLEY":" ","HOUSE_NO":"１３９之１９號","E_COORD97":190956.23999999999,"N_COORD97":2582739.8100000001,"ADDRESS":"糞箕湖１３９之１９號","OBJECTID":185607},"geometry":{"x":190956.24000000209,"y":2582739.8100000005}},{"attributes":{"ID":185609,"DIS_CODE":0,"TOWNNAME":"東區","LI":"泉南里","LIN":"36鄰","STREET":"林森路","SECT":"一段","MAREA":" ","LANE":"１５３巷","ALLEY":"３弄","HOUSE_NO":"３號","E_COORD97":169523.37,"N_COORD97":2542611.2200000002,"ADDRESS":"林森路一段１５３巷３弄３號","OBJECTID":185608},"geometry":{"x":169523.37000000104,"y":2542611.2200000025}},{"attributes":{"ID":185610,"DIS_CODE":0,"TOWNNAME":"東區","LI":"泉南里","LIN":"36鄰","STREET":"林森路","SECT":"一段","MAREA":" ","LANE":"１５３巷","ALLEY":"３弄","HOUSE_NO":"４號","E_COORD97":169514.70000000001,"N_COORD97":2542619.6400000001,"ADDRESS":"林森路一段１５３巷３弄４號","OBJECTID":185609},"geometry":{"x":169514.70000000112,"y":2542619.6400000006}},{"attributes":{"ID":185611,"DIS_CODE":0,"TOWNNAME":"東區","LI":"泉南里","LIN":"36鄰","STREET":"林森路","SECT":"一段","MAREA":" ","LANE":"１５３巷","ALLEY":"３弄","HOUSE_NO":"５號","E_COORD97":169518.73999999999,"N_COORD97":2542609.4900000002,"ADDRESS":"林森路一段１５３巷３弄５號","OBJECTID":185610},"geometry":{"x":169518.74000000022,"y":2542609.4900000002}},{"attributes":{"ID":185612,"DIS_CODE":0,"TOWNNAME":"東區","LI":"泉南里","LIN":"36鄰","STREET":"林森路","SECT":"一段","MAREA":" ","LANE":"１５３巷","ALLEY":"３弄","HOUSE_NO":"６號","E_COORD97":169508.88,"N_COORD97":2542617.77,"ADDRESS":"林森路一段１５３巷３弄６號","OBJECTID":185611},"geometry":{"x":169508.87999999989,"y":2542617.7699999996}},{"attributes":{"ID":185613,"DIS_CODE":0,"TOWNNAME":"西港區","LI":"新復里","LIN":"10鄰","STREET":" ","SECT":" ","MAREA":"溪埔寮","LANE":" ","ALLEY":" ","HOUSE_NO":"３５號之１２","E_COORD97":166660.87,"N_COORD97":2554097.6600000001,"ADDRESS":"溪埔寮３５號之１２","OBJECTID":185612},"geometry":{"x":166660.87000000011,"y":2554097.660000002}},{"attributes":{"ID":185614,"DIS_CODE":0,"TOWNNAME":"西港區","LI":"新復里","LIN":"10鄰","STREET":" ","SECT":" ","MAREA":"溪埔寮","LANE":" ","ALLEY":" ","HOUSE_NO":"３５號之２","E_COORD97":166642.29000000001,"N_COORD97":2554114.7200000002,"ADDRESS":"溪埔寮３５號之２","OBJECTID":185613},"geometry":{"x":166642.29000000097,"y":2554114.7200000025}},{"attributes":{"ID":185615,"DIS_CODE":0,"TOWNNAME":"西港區","LI":"新復里","LIN":"10鄰","STREET":" ","SECT":" ","MAREA":"溪埔寮","LANE":" ","ALLEY":" ","HOUSE_NO":"３５號之５","E_COORD97":166632.37,"N_COORD97":2554109.1299999999,"ADDRESS":"溪埔寮３５號之５","OBJECTID":185614},"geometry":{"x":166632.37000000011,"y":2554109.1300000008}},{"attributes":{"ID":185616,"DIS_CODE":0,"TOWNNAME":"西港區","LI":"新復里","LIN":"10鄰","STREET":" ","SECT":" ","MAREA":"溪埔寮","LANE":" ","ALLEY":" ","HOUSE_NO":"３５號之６","E_COORD97":166632.23999999999,"N_COORD97":2554105.0499999998,"ADDRESS":"溪埔寮３５號之６","OBJECTID":185615},"geometry":{"x":166632.24000000115,"y":2554105.0500000026}},{"attributes":{"ID":185617,"DIS_CODE":0,"TOWNNAME":"西港區","LI":"新復里","LIN":"10鄰","STREET":" ","SECT":" ","MAREA":"溪埔寮","LANE":" ","ALLEY":" ","HOUSE_NO":"３５號之７","E_COORD97":166632.10999999999,"N_COORD97":2554100.9700000002,"ADDRESS":"溪埔寮３５號之７","OBJECTID":185616},"geometry":{"x":166632.11000000127,"y":2554100.9700000007}},{"attributes":{"ID":185618,"DIS_CODE":0,"TOWNNAME":"東區","LI":"泉南里","LIN":"36鄰","STREET":"林森路","SECT":"一段","MAREA":" ","LANE":"１５３巷","ALLEY":"３弄","HOUSE_NO":"７號","E_COORD97":169514.39000000001,"N_COORD97":2542607.6000000001,"ADDRESS":"林森路一段１５３巷３弄７號","OBJECTID":185617},"geometry":{"x":169514.3900000006,"y":2542607.6000000015}},{"attributes":{"ID":185619,"DIS_CODE":0,"TOWNNAME":"東區","LI":"泉南里","LIN":"36鄰","STREET":"林森路","SECT":"一段","MAREA":" ","LANE":"１５３巷","ALLEY":"３弄","HOUSE_NO":"８號","E_COORD97":169503.04000000001,"N_COORD97":2542616.25,"ADDRESS":"林森路一段１５３巷３弄８號","OBJECTID":185618},"geometry":{"x":169503.03999999911,"y":2542616.2500000019}},{"attributes":{"ID":185620,"DIS_CODE":0,"TOWNNAME":"東區","LI":"泉南里","LIN":"36鄰","STREET":"林森路","SECT":"一段","MAREA":" ","LANE":"１５３巷","ALLEY":"３弄","HOUSE_NO":"９號","E_COORD97":169509.42000000001,"N_COORD97":2542606.6899999999,"ADDRESS":"林森路一段１５３巷３弄９號","OBJECTID":185619},"geometry":{"x":169509.42000000086,"y":2542606.6900000013}},{"attributes":{"ID":185621,"DIS_CODE":0,"TOWNNAME":"東區","LI":"泉南里","LIN":"36鄰","STREET":"林森路","SECT":"一段","MAREA":" ","LANE":"１５３巷","ALLEY":"５弄","HOUSE_NO":"１１號","E_COORD97":169485.19,"N_COORD97":2542640.4199999999,"ADDRESS":"林森路一段１５３巷５弄１１號","OBJECTID":185620},"geometry":{"x":169485.19000000041,"y":2542640.4199999999}},{"attributes":{"ID":185622,"DIS_CODE":0,"TOWNNAME":"東區","LI":"泉南里","LIN":"36鄰","STREET":"林森路","SECT":"一段","MAREA":" ","LANE":"１５３巷","ALLEY":"５弄","HOUSE_NO":"１３號","E_COORD97":169480.25,"N_COORD97":2542639.1000000001,"ADDRESS":"林森路一段１５３巷５弄１３號","OBJECTID":185621},"geometry":{"x":169480.25000000093,"y":2542639.0999999996}},{"attributes":{"ID":185623,"DIS_CODE":0,"TOWNNAME":"東區","LI":"泉南里","LIN":"36鄰","STREET":"林森路","SECT":"一段","MAREA":" ","LANE":"１５３巷","ALLEY":"５弄","HOUSE_NO":"１５號","E_COORD97":169474.60999999999,"N_COORD97":2542639.3300000001,"ADDRESS":"林森路一段１５３巷５弄１５號","OBJECTID":185622},"geometry":{"x":169474.61000000127,"y":2542639.3300000019}},{"attributes":{"ID":185624,"DIS_CODE":0,"TOWNNAME":"東區","LI":"泉南里","LIN":"36鄰","STREET":"林森路","SECT":"一段","MAREA":" ","LANE":"１５３巷","ALLEY":"５弄","HOUSE_NO":"１７號","E_COORD97":169469.91,"N_COORD97":2542638.3900000001,"ADDRESS":"林森路一段１５３巷５弄１７號","OBJECTID":185623},"geometry":{"x":169469.91000000015,"y":2542638.3900000006}},{"attributes":{"ID":185625,"DIS_CODE":0,"TOWNNAME":"東區","LI":"泉南里","LIN":"36鄰","STREET":"林森路","SECT":"一段","MAREA":" ","LANE":"１５３巷","ALLEY":"５弄","HOUSE_NO":"１９號","E_COORD97":169465.31,"N_COORD97":2542636.8599999999,"ADDRESS":"林森路一段１５３巷５弄１９號","OBJECTID":185624},"geometry":{"x":169465.31000000145,"y":2542636.8599999994}},{"attributes":{"ID":185626,"DIS_CODE":0,"TOWNNAME":"西港區","LI":"新復里","LIN":"10鄰","STREET":" ","SECT":" ","MAREA":"溪埔寮","LANE":" ","ALLEY":" ","HOUSE_NO":"３９之３２號","E_COORD97":166915.79999999999,"N_COORD97":2554923.23,"ADDRESS":"溪埔寮３９之３２號","OBJECTID":185625},"geometry":{"x":166915.79999999981,"y":2554923.2300000042}},{"attributes":{"ID":185627,"DIS_CODE":0,"TOWNNAME":"東區","LI":"文聖里","LIN":"10鄰","STREET":"裕興街","SECT":" ","MAREA":" ","LANE":" ","ALLEY":" ","HOUSE_NO":"８０號","E_COORD97":172147.85000000001,"N_COORD97":2542634.9199999999,"ADDRESS":"裕興街８０號","OBJECTID":185626},"geometry":{"x":172147.84999999963,"y":2542634.9200000037}},{"attributes":{"ID":185628,"DIS_CODE":0,"TOWNNAME":"東區","LI":"泉南里","LIN":"36鄰","STREET":"林森路","SECT":"一段","MAREA":" ","LANE":"１５３巷","ALLEY":"５弄","HOUSE_NO":"１號","E_COORD97":169511.62,"N_COORD97":2542647.1099999999,"ADDRESS":"林森路一段１５３巷５弄１號","OBJECTID":185627},"geometry":{"x":169511.62000000104,"y":2542647.1100000013}},{"attributes":{"ID":185629,"DIS_CODE":0,"TOWNNAME":"東區","LI":"泉南里","LIN":"36鄰","STREET":"林森路","SECT":"一段","MAREA":" ","LANE":"１５３巷","ALLEY":"５弄","HOUSE_NO":"２１號","E_COORD97":169460.04000000001,"N_COORD97":2542635.9100000001,"ADDRESS":"林森路一段１５３巷５弄２１號","OBJECTID":185628},"geometry":{"x":169460.04000000004,"y":2542635.910000002}},{"attributes":{"ID":185630,"DIS_CODE":0,"TOWNNAME":"東區","LI":"泉南里","LIN":"36鄰","STREET":"林森路","SECT":"一段","MAREA":" ","LANE":"１５３巷","ALLEY":"５弄","HOUSE_NO":"３號","E_COORD97":169506.34,"N_COORD97":2542645.7999999998,"ADDRESS":"林森路一段１５３巷５弄３號","OBJECTID":185629},"geometry":{"x":169506.34000000078,"y":2542645.8000000007}},{"attributes":{"ID":185631,"DIS_CODE":0,"TOWNNAME":"西港區","LI":"新復里","LIN":"10鄰","STREET":" ","SECT":" ","MAREA":"溪埔寮","LANE":" ","ALLEY":" ","HOUSE_NO":"３９號之３","E_COORD97":166843.66,"N_COORD97":2554991.29,"ADDRESS":"溪埔寮３９號之３","OBJECTID":185630},"geometry":{"x":166843.66000000015,"y":2554991.2899999991}},{"attributes":{"ID":185632,"DIS_CODE":0,"TOWNNAME":"西港區","LI":"新復里","LIN":"10鄰","STREET":" ","SECT":" ","MAREA":"溪埔寮","LANE":" ","ALLEY":" ","HOUSE_NO":"３９號之５","E_COORD97":166882.79000000001,"N_COORD97":2554862.7200000002,"ADDRESS":"溪埔寮３９號之５","OBJECTID":185631},"geometry":{"x":166882.79000000097,"y":2554862.7200000044}},{"attributes":{"ID":185633,"DIS_CODE":0,"TOWNNAME":"西港區","LI":"新復里","LIN":"10鄰","STREET":" ","SECT":" ","MAREA":"溪埔寮","LANE":" ","ALLEY":" ","HOUSE_NO":"３９號之６","E_COORD97":166868.92000000001,"N_COORD97":2554809,"ADDRESS":"溪埔寮３９號之６","OBJECTID":185632},"geometry":{"x":166868.91999999993,"y":2554809.0000000037}},{"attributes":{"ID":185634,"DIS_CODE":0,"TOWNNAME":"西港區","LI":"新復里","LIN":"10鄰","STREET":" ","SECT":" ","MAREA":"溪埔寮","LANE":" ","ALLEY":" ","HOUSE_NO":"３９號","E_COORD97":167188.53,"N_COORD97":2554703.2000000002,"ADDRESS":"溪埔寮３９號","OBJECTID":185633},"geometry":{"x":167188.53000000119,"y":2554703.2000000011}},{"attributes":{"ID":185635,"DIS_CODE":0,"TOWNNAME":"西港區","LI":"新復里","LIN":"10鄰","STREET":" ","SECT":" ","MAREA":"溪埔寮","LANE":" ","ALLEY":" ","HOUSE_NO":"４１號","E_COORD97":167166.60000000001,"N_COORD97":2554714.0800000001,"ADDRESS":"溪埔寮４１號","OBJECTID":185634},"geometry":{"x":167166.60000000056,"y":2554714.0800000019}},{"attributes":{"ID":185636,"DIS_CODE":0,"TOWNNAME":"西港區","LI":"新復里","LIN":"10鄰","STREET":" ","SECT":" ","MAREA":"溪埔寮","LANE":" ","ALLEY":" ","HOUSE_NO":"４２號之１","E_COORD97":167189.89000000001,"N_COORD97":2554678.1699999999,"ADDRESS":"溪埔寮４２號之１","OBJECTID":185635},"geometry":{"x":167189.89000000153,"y":2554678.1699999999}},{"attributes":{"ID":185637,"DIS_CODE":0,"TOWNNAME":"東區","LI":"泉南里","LIN":"36鄰","STREET":"林森路","SECT":"一段","MAREA":" ","LANE":"１５３巷","ALLEY":"５弄","HOUSE_NO":"４號","E_COORD97":169504.84,"N_COORD97":2542660.1299999999,"ADDRESS":"林森路一段１５３巷５弄４號","OBJECTID":185636},"geometry":{"x":169504.84000000078,"y":2542660.1300000008}},{"attributes":{"ID":185638,"DIS_CODE":0,"TOWNNAME":"東區","LI":"泉南里","LIN":"36鄰","STREET":"林森路","SECT":"一段","MAREA":" ","LANE":"１５３巷","ALLEY":"５弄","HOUSE_NO":"５號","E_COORD97":169500.04000000001,"N_COORD97":2542644.7200000002,"ADDRESS":"林森路一段１５３巷５弄５號","OBJECTID":185637},"geometry":{"x":169500.04000000097,"y":2542644.7200000025}},{"attributes":{"ID":185639,"DIS_CODE":0,"TOWNNAME":"東區","LI":"泉南里","LIN":"36鄰","STREET":"林森路","SECT":"一段","MAREA":" ","LANE":"１５３巷","ALLEY":"５弄","HOUSE_NO":"６號","E_COORD97":169499.53,"N_COORD97":2542657.7200000002,"ADDRESS":"林森路一段１５３巷５弄６號","OBJECTID":185638},"geometry":{"x":169499.53000000026,"y":2542657.7200000025}},{"attributes":{"ID":185640,"DIS_CODE":0,"TOWNNAME":"東區","LI":"泉南里","LIN":"36鄰","STREET":"林森路","SECT":"一段","MAREA":" ","LANE":"１５３巷","ALLEY":"５弄","HOUSE_NO":"７號","E_COORD97":169495.16,"N_COORD97":2542643.54,"ADDRESS":"林森路一段１５３巷５弄７號","OBJECTID":185639},"geometry":{"x":169495.16000000015,"y":2542643.540000001}},{"attributes":{"ID":185641,"DIS_CODE":0,"TOWNNAME":"東區","LI":"泉南里","LIN":"36鄰","STREET":"林森路","SECT":"一段","MAREA":" ","LANE":"１５３巷","ALLEY":"５弄","HOUSE_NO":"８號","E_COORD97":169495.17999999999,"N_COORD97":2542657.7200000002,"ADDRESS":"林森路一段１５３巷５弄８號","OBJECTID":185640},"geometry":{"x":169495.18000000063,"y":2542657.7200000025}},{"attributes":{"ID":185642,"DIS_CODE":0,"TOWNNAME":"東區","LI":"泉南里","LIN":"36鄰","STREET":"林森路","SECT":"一段","MAREA":" ","LANE":"１５３巷","ALLEY":"５弄","HOUSE_NO":"９號","E_COORD97":169489.81,"N_COORD97":2542642.0499999998,"ADDRESS":"林森路一段１５３巷５弄９號","OBJECTID":185641},"geometry":{"x":169489.80999999959,"y":2542642.0500000026}},{"attributes":{"ID":185643,"DIS_CODE":0,"TOWNNAME":"永康區","LI":"北灣里","LIN":"36鄰","STREET":"大灣路","SECT":" ","MAREA":" ","LANE":"４０巷","ALLEY":"１２０弄","HOUSE_NO":"１６號","E_COORD97":174959.59,"N_COORD97":2546284.2999999998,"ADDRESS":"大灣路４０巷１２０弄１６號","OBJECTID":185642},"geometry":{"x":174959.59000000078,"y":2546284.3000000045}},{"attributes":{"ID":185644,"DIS_CODE":0,"TOWNNAME":"東區","LI":"文聖里","LIN":"10鄰","STREET":"裕興街","SECT":" ","MAREA":" ","LANE":" ","ALLEY":" ","HOUSE_NO":"８６號","E_COORD97":172147.85000000001,"N_COORD97":2542622.7999999998,"ADDRESS":"裕興街８６號","OBJECTID":185643},"geometry":{"x":172147.84999999963,"y":2542622.8000000045}},{"attributes":{"ID":185645,"DIS_CODE":0,"TOWNNAME":"永康區","LI":"西橋里","LIN":"10鄰","STREET":"中華西街","SECT":" ","MAREA":" ","LANE":" ","ALLEY":" ","HOUSE_NO":"１１１號","E_COORD97":170679.48000000001,"N_COORD97":2546149.1800000002,"ADDRESS":"中華西街１１１號","OBJECTID":185644},"geometry":{"x":170679.48000000138,"y":2546149.1800000016}},{"attributes":{"ID":185646,"DIS_CODE":0,"TOWNNAME":"永康區","LI":"西勢里","LIN":"10鄰","STREET":"西勢路","SECT":" ","MAREA":" ","LANE":" ","ALLEY":" ","HOUSE_NO":"１４９號","E_COORD97":175955.54999999999,"N_COORD97":2546762.3799999999,"ADDRESS":"西勢路１４９號","OBJECTID":185645},"geometry":{"x":175955.54999999981,"y":2546762.379999999}},{"attributes":{"ID":185647,"DIS_CODE":0,"TOWNNAME":"永康區","LI":"西灣里","LIN":"10鄰","STREET":"大灣五街","SECT":" ","MAREA":" ","LANE":" ","ALLEY":" ","HOUSE_NO":"１３９號","E_COORD97":174467.48000000001,"N_COORD97":2545310,"ADDRESS":"大灣五街１３９號","OBJECTID":185646},"geometry":{"x":174467.48000000231,"y":2545310.0000000019}},{"attributes":{"ID":185648,"DIS_CODE":0,"TOWNNAME":"永康區","LI":"西勢里","LIN":"10鄰","STREET":"西勢路","SECT":" ","MAREA":" ","LANE":" ","ALLEY":" ","HOUSE_NO":"１３３號","E_COORD97":175997.10999999999,"N_COORD97":2546764.54,"ADDRESS":"西勢路１３３號","OBJECTID":185647},"geometry":{"x":175997.1099999994,"y":2546764.5399999991}},{"attributes":{"ID":185649,"DIS_CODE":0,"TOWNNAME":"東區","LI":"文聖里","LIN":"10鄰","STREET":"裕興街","SECT":" ","MAREA":" ","LANE":" ","ALLEY":" ","HOUSE_NO":"９２號","E_COORD97":172160.32000000001,"N_COORD97":2542612.2799999998,"ADDRESS":"裕興街９２號","OBJECTID":185648},"geometry":{"x":172160.32000000123,"y":2542612.2800000012}},{"attributes":{"ID":185650,"DIS_CODE":0,"TOWNNAME":"永康區","LI":"西勢里","LIN":"10鄰","STREET":"西勢路","SECT":" ","MAREA":" ","LANE":" ","ALLEY":" ","HOUSE_NO":"１５１號","E_COORD97":175950.89999999999,"N_COORD97":2546761.6299999999,"ADDRESS":"西勢路１５１號","OBJECTID":185649},"geometry":{"x":175950.90000000037,"y":2546761.6300000027}},{"attributes":{"ID":185651,"DIS_CODE":0,"TOWNNAME":"永康區","LI":"北灣里","LIN":"36鄰","STREET":"大灣路","SECT":" ","MAREA":" ","LANE":"４０巷","ALLEY":"１５８弄","HOUSE_NO":"１６號","E_COORD97":174881.26999999999,"N_COORD97":2546339.8900000001,"ADDRESS":"大灣路４０巷１５８弄１６號","OBJECTID":185650},"geometry":{"x":174881.26999999955,"y":2546339.8900000006}},{"attributes":{"ID":185652,"DIS_CODE":0,"TOWNNAME":"永康區","LI":"北灣里","LIN":"36鄰","STREET":"大灣路","SECT":" ","MAREA":" ","LANE":"４０巷","ALLEY":"１５８弄","HOUSE_NO":"１１號","E_COORD97":174872.37,"N_COORD97":2546358.27,"ADDRESS":"大灣路４０巷１５８弄１１號","OBJECTID":185651},"geometry":{"x":174872.37000000011,"y":2546358.2700000014}},{"attributes":{"ID":185653,"DIS_CODE":0,"TOWNNAME":"永康區","LI":"成功里","LIN":"36鄰","STREET":"中華路","SECT":" ","MAREA":" ","LANE":"１５４巷","ALLEY":"８７弄","HOUSE_NO":"１４號","E_COORD97":171830.04000000001,"N_COORD97":2544935.4900000002,"ADDRESS":"中華路１５４巷８７弄１４號","OBJECTID":185652},"geometry":{"x":171830.04000000004,"y":2544935.4900000002}},{"attributes":{"ID":185654,"DIS_CODE":0,"TOWNNAME":"永康區","LI":"北灣里","LIN":"36鄰","STREET":"大灣路","SECT":" ","MAREA":" ","LANE":"４０巷","ALLEY":"１３０弄","HOUSE_NO":"１０號","E_COORD97":174936.85000000001,"N_COORD97":2546305.1000000001,"ADDRESS":"大灣路４０巷１３０弄１０號","OBJECTID":185653},"geometry":{"x":174936.84999999963,"y":2546305.1000000034}},{"attributes":{"ID":185655,"DIS_CODE":0,"TOWNNAME":"永康區","LI":"北灣里","LIN":"36鄰","STREET":"大灣路","SECT":" ","MAREA":" ","LANE":"４０巷","ALLEY":"１３０弄","HOUSE_NO":"２１號","E_COORD97":174960.39000000001,"N_COORD97":2546340.2799999998,"ADDRESS":"大灣路４０巷１３０弄２１號","OBJECTID":185654},"geometry":{"x":174960.38999999966,"y":2546340.2799999993}},{"attributes":{"ID":185656,"DIS_CODE":0,"TOWNNAME":"永康區","LI":"北灣里","LIN":"36鄰","STREET":"大灣路","SECT":" ","MAREA":" ","LANE":"４０巷","ALLEY":"１３０弄","HOUSE_NO":"１３號","E_COORD97":174941.17999999999,"N_COORD97":2546320.1699999999,"ADDRESS":"大灣路４０巷１３０弄１３號","OBJECTID":185655},"geometry":{"x":174941.1799999997,"y":2546320.1699999999}},{"attributes":{"ID":185657,"DIS_CODE":0,"TOWNNAME":"永康區","LI":"永康里","LIN":"36鄰","STREET":"永平街","SECT":" ","MAREA":" ","LANE":"５６巷","ALLEY":"１弄","HOUSE_NO":"１１號","E_COORD97":174398.10999999999,"N_COORD97":2546842.6800000002,"ADDRESS":"永平街５６巷１弄１１號","OBJECTID":185656},"geometry":{"x":174398.11000000034,"y":2546842.6799999997}},{"attributes":{"ID":185658,"DIS_CODE":0,"TOWNNAME":"永康區","LI":"永康里","LIN":"36鄰","STREET":"永平街","SECT":" ","MAREA":" ","LANE":"５６巷","ALLEY":"１弄","HOUSE_NO":"２號","E_COORD97":174375.85000000001,"N_COORD97":2546826.7200000002,"ADDRESS":"永平街５６巷１弄２號","OBJECTID":185657},"geometry":{"x":174375.8499999987,"y":2546826.7200000007}},{"attributes":{"ID":185659,"DIS_CODE":0,"TOWNNAME":"永康區","LI":"北灣里","LIN":"36鄰","STREET":"大灣路","SECT":" ","MAREA":" ","LANE":"４０巷","ALLEY":"１３０弄","HOUSE_NO":"１７號","E_COORD97":174953.35999999999,"N_COORD97":2546332.5299999998,"ADDRESS":"大灣路４０巷１３０弄１７號","OBJECTID":185658},"geometry":{"x":174953.36000000127,"y":2546332.5300000012}},{"attributes":{"ID":185660,"DIS_CODE":0,"TOWNNAME":"永康區","LI":"北灣里","LIN":"36鄰","STREET":"大灣路","SECT":" ","MAREA":" ","LANE":"４０巷","ALLEY":"１８２弄","HOUSE_NO":"２號","E_COORD97":174834.62,"N_COORD97":2546369.3300000001,"ADDRESS":"大灣路４０巷１８２弄２號","OBJECTID":185659},"geometry":{"x":174834.62000000104,"y":2546369.3300000019}},{"attributes":{"ID":185661,"DIS_CODE":0,"TOWNNAME":"永康區","LI":"永康里","LIN":"36鄰","STREET":"永平街","SECT":" ","MAREA":" ","LANE":"５６巷","ALLEY":"１弄","HOUSE_NO":"１７號","E_COORD97":174413.97,"N_COORD97":2546848.4300000002,"ADDRESS":"永平街５６巷１弄１７號","OBJECTID":185660},"geometry":{"x":174413.96999999974,"y":2546848.4299999978}},{"attributes":{"ID":185662,"DIS_CODE":0,"TOWNNAME":"永康區","LI":"北灣里","LIN":"36鄰","STREET":"大灣路","SECT":" ","MAREA":" ","LANE":"４０巷","ALLEY":"１３０弄","HOUSE_NO":"１１號","E_COORD97":174936.5,"N_COORD97":2546314.9199999999,"ADDRESS":"大灣路４０巷１３０弄１１號","OBJECTID":185661},"geometry":{"x":174936.50000000186,"y":2546314.9199999999}},{"attributes":{"ID":185663,"DIS_CODE":0,"TOWNNAME":"永康區","LI":"北灣里","LIN":"36鄰","STREET":"大灣路","SECT":" ","MAREA":" ","LANE":"４０巷","ALLEY":"１５８弄","HOUSE_NO":"３６號","E_COORD97":174912.76999999999,"N_COORD97":2546369.2999999998,"ADDRESS":"大灣路４０巷１５８弄３６號","OBJECTID":185662},"geometry":{"x":174912.77000000048,"y":2546369.3000000045}},{"attributes":{"ID":185664,"DIS_CODE":0,"TOWNNAME":"後壁區","LI":"嘉田里","LIN":"11鄰","STREET":" ","SECT":" ","MAREA":"上茄苳","LANE":" ","ALLEY":" ","HOUSE_NO":"１１０號之１","E_COORD97":186586.81,"N_COORD97":2586966.3700000001,"ADDRESS":"上茄苳１１０號之１","OBJECTID":185663},"geometry":{"x":186586.81000000052,"y":2586966.3700000029}},{"attributes":{"ID":185665,"DIS_CODE":0,"TOWNNAME":"永康區","LI":"北灣里","LIN":"36鄰","STREET":"大灣路","SECT":" ","MAREA":" ","LANE":"４０巷","ALLEY":"１８２弄","HOUSE_NO":"３６號","E_COORD97":174865.42000000001,"N_COORD97":2546408.4399999999,"ADDRESS":"大灣路４０巷１８２弄３６號","OBJECTID":185664},"geometry":{"x":174865.41999999993,"y":2546408.4400000013}},{"attributes":{"ID":185666,"DIS_CODE":0,"TOWNNAME":"永康區","LI":"西勢里","LIN":"10鄰","STREET":"西勢路","SECT":" ","MAREA":" ","LANE":" ","ALLEY":" ","HOUSE_NO":"１５３號","E_COORD97":175945.98999999999,"N_COORD97":2546761.1299999999,"ADDRESS":"西勢路１５３號","OBJECTID":185665},"geometry":{"x":175945.99000000115,"y":2546761.129999999}},{"attributes":{"ID":185667,"DIS_CODE":0,"TOWNNAME":"後壁區","LI":"嘉田里","LIN":"11鄰","STREET":" ","SECT":" ","MAREA":"上茄苳","LANE":" ","ALLEY":" ","HOUSE_NO":"１１１號之１０","E_COORD97":186573.01000000001,"N_COORD97":2586903.54,"ADDRESS":"上茄苳１１１號之１０","OBJECTID":185666},"geometry":{"x":186573.00999999978,"y":2586903.5399999991}},{"attributes":{"ID":185668,"DIS_CODE":0,"TOWNNAME":"後壁區","LI":"嘉田里","LIN":"11鄰","STREET":" ","SECT":" ","MAREA":"上茄苳","LANE":" ","ALLEY":" ","HOUSE_NO":"１１１號之１","E_COORD97":186598.03,"N_COORD97":2586916.1099999999,"ADDRESS":"上茄苳１１１號之１","OBJECTID":185667},"geometry":{"x":186598.03000000119,"y":2586916.1100000013}},{"attributes":{"ID":185669,"DIS_CODE":0,"TOWNNAME":"後壁區","LI":"嘉田里","LIN":"11鄰","STREET":" ","SECT":" ","MAREA":"上茄苳","LANE":" ","ALLEY":" ","HOUSE_NO":"１１１號之２","E_COORD97":186583.57999999999,"N_COORD97":2586931.0699999998,"ADDRESS":"上茄苳１１１號之２","OBJECTID":185668},"geometry":{"x":186583.58000000194,"y":2586931.0700000003}},{"attributes":{"ID":185670,"DIS_CODE":0,"TOWNNAME":"後壁區","LI":"嘉田里","LIN":"11鄰","STREET":" ","SECT":" ","MAREA":"上茄苳","LANE":" ","ALLEY":" ","HOUSE_NO":"１１１號之８","E_COORD97":186574.82999999999,"N_COORD97":2586910.96,"ADDRESS":"上茄苳１１１號之８","OBJECTID":185669},"geometry":{"x":186574.83000000007,"y":2586910.9600000028}},{"attributes":{"ID":185671,"DIS_CODE":0,"TOWNNAME":"後壁區","LI":"嘉田里","LIN":"11鄰","STREET":" ","SECT":" ","MAREA":"上茄苳","LANE":" ","ALLEY":" ","HOUSE_NO":"１１１號之９","E_COORD97":186574.01000000001,"N_COORD97":2586907.3399999999,"ADDRESS":"上茄苳１１１號之９","OBJECTID":185670},"geometry":{"x":186574.01000000071,"y":2586907.3400000017}},{"attributes":{"ID":185672,"DIS_CODE":0,"TOWNNAME":"後壁區","LI":"嘉田里","LIN":"11鄰","STREET":" ","SECT":" ","MAREA":"上茄苳","LANE":" ","ALLEY":" ","HOUSE_NO":"１１１號","E_COORD97":186600.64000000001,"N_COORD97":2586937.5499999998,"ADDRESS":"上茄苳１１１號","OBJECTID":185671},"geometry":{"x":186600.63999999966,"y":2586937.5500000026}},{"attributes":{"ID":185673,"DIS_CODE":0,"TOWNNAME":"後壁區","LI":"嘉田里","LIN":"11鄰","STREET":" ","SECT":" ","MAREA":"上茄苳","LANE":" ","ALLEY":" ","HOUSE_NO":"１１２號之１","E_COORD97":186571.51000000001,"N_COORD97":2586896.23,"ADDRESS":"上茄苳１１２號之１","OBJECTID":185672},"geometry":{"x":186571.50999999978,"y":2586896.2300000004}},{"attributes":{"ID":185674,"DIS_CODE":0,"TOWNNAME":"後壁區","LI":"嘉田里","LIN":"11鄰","STREET":" ","SECT":" ","MAREA":"上茄苳","LANE":" ","ALLEY":" ","HOUSE_NO":"１１２號之３","E_COORD97":186566.45000000001,"N_COORD97":2586878.52,"ADDRESS":"上茄苳１１２號之３","OBJECTID":185673},"geometry":{"x":186566.45000000112,"y":2586878.5200000014}},{"attributes":{"ID":185675,"DIS_CODE":0,"TOWNNAME":"後壁區","LI":"嘉田里","LIN":"11鄰","STREET":" ","SECT":" ","MAREA":"上茄苳","LANE":" ","ALLEY":" ","HOUSE_NO":"１１２號之５","E_COORD97":186609.60999999999,"N_COORD97":2586892.6099999999,"ADDRESS":"上茄苳１１２號之５","OBJECTID":185674},"geometry":{"x":186609.61000000127,"y":2586892.6099999994}},{"attributes":{"ID":185676,"DIS_CODE":0,"TOWNNAME":"後壁區","LI":"嘉田里","LIN":"11鄰","STREET":" ","SECT":" ","MAREA":"上茄苳","LANE":" ","ALLEY":" ","HOUSE_NO":"１１２號之６","E_COORD97":186619.64999999999,"N_COORD97":2586890.8199999998,"ADDRESS":"上茄苳１１２號之６","OBJECTID":185675},"geometry":{"x":186619.6500000013,"y":2586890.8200000022}},{"attributes":{"ID":185677,"DIS_CODE":0,"TOWNNAME":"永康區","LI":"西橋里","LIN":"10鄰","STREET":"中華西街","SECT":" ","MAREA":" ","LANE":" ","ALLEY":" ","HOUSE_NO":"１０９號","E_COORD97":170693.76000000001,"N_COORD97":2546143,"ADDRESS":"中華西街１０９號","OBJECTID":185676},"geometry":{"x":170693.76000000071,"y":2546142.9999999981}},{"attributes":{"ID":185678,"DIS_CODE":0,"TOWNNAME":"永康區","LI":"西勢里","LIN":"10鄰","STREET":"西勢路","SECT":" ","MAREA":" ","LANE":" ","ALLEY":" ","HOUSE_NO":"１４５號","E_COORD97":175964.73999999999,"N_COORD97":2546763.3799999999,"ADDRESS":"西勢路１４５號","OBJECTID":185677},"geometry":{"x":175964.74000000115,"y":2546763.3800000027}},{"attributes":{"ID":185679,"DIS_CODE":0,"TOWNNAME":"永康區","LI":"永康里","LIN":"36鄰","STREET":"永平街","SECT":" ","MAREA":" ","LANE":"５６巷","ALLEY":"１弄","HOUSE_NO":"７號","E_COORD97":174387.32999999999,"N_COORD97":2546839.9300000002,"ADDRESS":"永平街５６巷１弄７號","OBJECTID":185678},"geometry":{"x":174387.33000000101,"y":2546839.9300000016}},{"attributes":{"ID":185680,"DIS_CODE":0,"TOWNNAME":"永康區","LI":"西勢里","LIN":"10鄰","STREET":"西勢路","SECT":" ","MAREA":" ","LANE":" ","ALLEY":" ","HOUSE_NO":"１２５號","E_COORD97":176030.17999999999,"N_COORD97":2546753.29,"ADDRESS":"西勢路１２５號","OBJECTID":185679},"geometry":{"x":176030.18000000063,"y":2546753.2899999991}},{"attributes":{"ID":185681,"DIS_CODE":0,"TOWNNAME":"後壁區","LI":"嘉田里","LIN":"11鄰","STREET":" ","SECT":" ","MAREA":"上茄苳","LANE":" ","ALLEY":" ","HOUSE_NO":"１１５號","E_COORD97":186563.89000000001,"N_COORD97":2586871.8399999999,"ADDRESS":"上茄苳１１５號","OBJECTID":185680},"geometry":{"x":186563.88999999966,"y":2586871.8399999999}},{"attributes":{"ID":185682,"DIS_CODE":0,"TOWNNAME":"後壁區","LI":"嘉田里","LIN":"11鄰","STREET":" ","SECT":" ","MAREA":"上茄苳","LANE":" ","ALLEY":" ","HOUSE_NO":"１１６號之４","E_COORD97":186616.76999999999,"N_COORD97":2586847.8100000001,"ADDRESS":"上茄苳１１６號之４","OBJECTID":185681},"geometry":{"x":186616.76999999955,"y":2586847.8100000024}},{"attributes":{"ID":185683,"DIS_CODE":0,"TOWNNAME":"後壁區","LI":"嘉田里","LIN":"11鄰","STREET":" ","SECT":" ","MAREA":"上茄苳","LANE":" ","ALLEY":" ","HOUSE_NO":"１１６號","E_COORD97":186565.76999999999,"N_COORD97":2586859.1600000001,"ADDRESS":"上茄苳１１６號","OBJECTID":185682},"geometry":{"x":186565.76999999955,"y":2586859.1600000001}},{"attributes":{"ID":185684,"DIS_CODE":0,"TOWNNAME":"後壁區","LI":"嘉民里","LIN":"11鄰","STREET":" ","SECT":" ","MAREA":"上茄苳","LANE":" ","ALLEY":" ","HOUSE_NO":"２２５號之１","E_COORD97":186417.20999999999,"N_COORD97":2586840.29,"ADDRESS":"上茄苳２２５號之１","OBJECTID":185683},"geometry":{"x":186417.21000000089,"y":2586840.2899999991}},{"attributes":{"ID":185685,"DIS_CODE":0,"TOWNNAME":"永康區","LI":"永康里","LIN":"36鄰","STREET":"永平街","SECT":" ","MAREA":" ","LANE":"５６巷","ALLEY":"１弄","HOUSE_NO":"９號","E_COORD97":174393.35999999999,"N_COORD97":2546841.6800000002,"ADDRESS":"永平街５６巷１弄９號","OBJECTID":185684},"geometry":{"x":174393.36000000034,"y":2546841.6800000016}},{"attributes":{"ID":185686,"DIS_CODE":0,"TOWNNAME":"永康區","LI":"龍潭里","LIN":"36鄰","STREET":"中山北路","SECT":" ","MAREA":" ","LANE":"１６４巷","ALLEY":"１５８弄","HOUSE_NO":"１８號","E_COORD97":174635.97,"N_COORD97":2547343.1800000002,"ADDRESS":"中山北路１６４巷１５８弄１８號","OBJECTID":185685},"geometry":{"x":174635.96999999974,"y":2547343.1800000016}},{"attributes":{"ID":185687,"DIS_CODE":0,"TOWNNAME":"後壁區","LI":"嘉民里","LIN":"11鄰","STREET":" ","SECT":" ","MAREA":"上茄苳","LANE":" ","ALLEY":" ","HOUSE_NO":"２２５號之３","E_COORD97":186397.04000000001,"N_COORD97":2586817.1600000001,"ADDRESS":"上茄苳２２５號之３","OBJECTID":185686},"geometry":{"x":186397.04000000004,"y":2586817.160000002}},{"attributes":{"ID":185688,"DIS_CODE":0,"TOWNNAME":"永康區","LI":"龍潭里","LIN":"36鄰","STREET":"中山北路","SECT":" ","MAREA":" ","LANE":"１６４巷","ALLEY":"１５８弄","HOUSE_NO":"１７號","E_COORD97":174650.26000000001,"N_COORD97":2547343.8799999999,"ADDRESS":"中山北路１６４巷１５８弄１７號","OBJECTID":185687},"geometry":{"x":174650.26000000071,"y":2547343.8800000008}},{"attributes":{"ID":185689,"DIS_CODE":0,"TOWNNAME":"後壁區","LI":"嘉民里","LIN":"11鄰","STREET":" ","SECT":" ","MAREA":"上茄苳","LANE":" ","ALLEY":" ","HOUSE_NO":"２２５號之４","E_COORD97":186403.70999999999,"N_COORD97":2586825.6499999999,"ADDRESS":"上茄苳２２５號之４","OBJECTID":185688},"geometry":{"x":186403.71000000089,"y":2586825.6500000004}},{"attributes":{"ID":185690,"DIS_CODE":0,"TOWNNAME":"永康區","LI":"復華里","LIN":"36鄰","STREET":"復華七街","SECT":" ","MAREA":" ","LANE":"３９巷","ALLEY":"９弄","HOUSE_NO":"８號","E_COORD97":172584.60000000001,"N_COORD97":2546019.8900000001,"ADDRESS":"復華七街３９巷９弄８號","OBJECTID":185689},"geometry":{"x":172584.60000000056,"y":2546019.8900000025}},{"attributes":{"ID":185691,"DIS_CODE":0,"TOWNNAME":"永康區","LI":"龍潭里","LIN":"36鄰","STREET":"中山北路","SECT":" ","MAREA":" ","LANE":"１６４巷","ALLEY":"１５８弄","HOUSE_NO":"２２號","E_COORD97":174634.89000000001,"N_COORD97":2547329.0099999998,"ADDRESS":"中山北路１６４巷１５８弄２２號","OBJECTID":185690},"geometry":{"x":174634.88999999966,"y":2547329.0099999998}},{"attributes":{"ID":185692,"DIS_CODE":0,"TOWNNAME":"永康區","LI":"勝利里","LIN":"36鄰","STREET":"勝學路","SECT":" ","MAREA":" ","LANE":"８２巷","ALLEY":"２弄","HOUSE_NO":"１２號","E_COORD97":171189.76000000001,"N_COORD97":2544763.7599999998,"ADDRESS":"勝學路８２巷２弄１２號","OBJECTID":185691},"geometry":{"x":171189.76000000164,"y":2544763.7599999998}},{"attributes":{"ID":185693,"DIS_CODE":0,"TOWNNAME":"永康區","LI":"復華里","LIN":"36鄰","STREET":"復華七街","SECT":" ","MAREA":" ","LANE":"３９巷","ALLEY":"９弄","HOUSE_NO":"１９號","E_COORD97":172576.37,"N_COORD97":2546011.5299999998,"ADDRESS":"復華七街３９巷９弄１９號","OBJECTID":185692},"geometry":{"x":172576.37000000104,"y":2546011.5300000012}},{"attributes":{"ID":185694,"DIS_CODE":0,"TOWNNAME":"後壁區","LI":"嘉民里","LIN":"11鄰","STREET":" ","SECT":" ","MAREA":"上茄苳","LANE":" ","ALLEY":" ","HOUSE_NO":"２２５號之５","E_COORD97":186408.94,"N_COORD97":2586836.21,"ADDRESS":"上茄苳２２５號之５","OBJECTID":185693},"geometry":{"x":186408.94000000134,"y":2586836.2100000009}},{"attributes":{"ID":185695,"DIS_CODE":0,"TOWNNAME":"永康區","LI":"勝利里","LIN":"36鄰","STREET":"勝學路","SECT":" ","MAREA":" ","LANE":"８２巷","ALLEY":"２弄","HOUSE_NO":"２０號","E_COORD97":171189.60000000001,"N_COORD97":2544751.5099999998,"ADDRESS":"勝學路８２巷２弄２０號","OBJECTID":185694},"geometry":{"x":171189.60000000056,"y":2544751.5099999998}},{"attributes":{"ID":185696,"DIS_CODE":0,"TOWNNAME":"仁德區","LI":"仁義里","LIN":"36鄰","STREET":"勝利路","SECT":" ","MAREA":" ","LANE":"３１巷","ALLEY":"１弄","HOUSE_NO":"４號","E_COORD97":173472.85000000001,"N_COORD97":2540007.7599999998,"ADDRESS":"勝利路３１巷１弄４號","OBJECTID":185695},"geometry":{"x":173472.85000000056,"y":2540007.7599999998}},{"attributes":{"ID":185697,"DIS_CODE":0,"TOWNNAME":"後壁區","LI":"嘉民里","LIN":"11鄰","STREET":" ","SECT":" ","MAREA":"上茄苳","LANE":" ","ALLEY":" ","HOUSE_NO":"２２５號之６","E_COORD97":186401.04000000001,"N_COORD97":2586838.23,"ADDRESS":"上茄苳２２５號之６","OBJECTID":185696},"geometry":{"x":186401.04000000097,"y":2586838.2300000023}},{"attributes":{"ID":185698,"DIS_CODE":0,"TOWNNAME":"永康區","LI":"勝利里","LIN":"36鄰","STREET":"勝學路","SECT":" ","MAREA":" ","LANE":"８２巷","ALLEY":"２弄","HOUSE_NO":"１６號","E_COORD97":171189.60000000001,"N_COORD97":2544759.5099999998,"ADDRESS":"勝學路８２巷２弄１６號","OBJECTID":185697},"geometry":{"x":171189.60000000056,"y":2544759.5099999979}},{"attributes":{"ID":185699,"DIS_CODE":0,"TOWNNAME":"永康區","LI":"勝利里","LIN":"36鄰","STREET":"勝學路","SECT":" ","MAREA":" ","LANE":"８２巷","ALLEY":"２弄","HOUSE_NO":"５號","E_COORD97":171201.13,"N_COORD97":2544771.2599999998,"ADDRESS":"勝學路８２巷２弄５號","OBJECTID":185698},"geometry":{"x":171201.13000000082,"y":2544771.2599999979}},{"attributes":{"ID":185700,"DIS_CODE":0,"TOWNNAME":"後壁區","LI":"嘉民里","LIN":"11鄰","STREET":" ","SECT":" ","MAREA":"上茄苳","LANE":" ","ALLEY":" ","HOUSE_NO":"２２５號","E_COORD97":186420.82999999999,"N_COORD97":2586851.25,"ADDRESS":"上茄苳２２５號","OBJECTID":185699},"geometry":{"x":186420.83000000194,"y":2586851.2500000019}},{"attributes":{"ID":185701,"DIS_CODE":0,"TOWNNAME":"後壁區","LI":"嘉民里","LIN":"11鄰","STREET":" ","SECT":" ","MAREA":"上茄苳","LANE":" ","ALLEY":" ","HOUSE_NO":"２２６號","E_COORD97":186416.26999999999,"N_COORD97":2586863.4900000002,"ADDRESS":"上茄苳２２６號","OBJECTID":185700},"geometry":{"x":186416.27000000048,"y":2586863.4900000021}},{"attributes":{"ID":185702,"DIS_CODE":0,"TOWNNAME":"後壁區","LI":"嘉民里","LIN":"11鄰","STREET":" ","SECT":" ","MAREA":"上茄苳","LANE":" ","ALLEY":" ","HOUSE_NO":"２２７號","E_COORD97":186422.95000000001,"N_COORD97":2586871.5,"ADDRESS":"上茄苳２２７號","OBJECTID":185701},"geometry":{"x":186422.95000000019,"y":2586871.5}},{"attributes":{"ID":185703,"DIS_CODE":0,"TOWNNAME":"後壁區","LI":"嘉民里","LIN":"11鄰","STREET":" ","SECT":" ","MAREA":"上茄苳","LANE":" ","ALLEY":" ","HOUSE_NO":"２２８號之２","E_COORD97":186402.10000000001,"N_COORD97":2586871.1499999999,"ADDRESS":"上茄苳２２８號之２","OBJECTID":185702},"geometry":{"x":186402.10000000056,"y":2586871.1500000041}},{"attributes":{"ID":185704,"DIS_CODE":0,"TOWNNAME":"後壁區","LI":"嘉民里","LIN":"11鄰","STREET":" ","SECT":" ","MAREA":"上茄苳","LANE":" ","ALLEY":" ","HOUSE_NO":"２２８號之３","E_COORD97":186398.07000000001,"N_COORD97":2586871.7000000002,"ADDRESS":"上茄苳２２８號之３","OBJECTID":185703},"geometry":{"x":186398.07000000123,"y":2586871.6999999993}},{"attributes":{"ID":185705,"DIS_CODE":0,"TOWNNAME":"後壁區","LI":"嘉民里","LIN":"11鄰","STREET":" ","SECT":" ","MAREA":"上茄苳","LANE":" ","ALLEY":" ","HOUSE_NO":"２２８號","E_COORD97":186410.34,"N_COORD97":2586878.5499999998,"ADDRESS":"上茄苳２２８號","OBJECTID":185704},"geometry":{"x":186410.34000000171,"y":2586878.5500000007}},{"attributes":{"ID":185706,"DIS_CODE":0,"TOWNNAME":"後壁區","LI":"嘉民里","LIN":"11鄰","STREET":" ","SECT":" ","MAREA":"上茄苳","LANE":" ","ALLEY":" ","HOUSE_NO":"２２９號之８","E_COORD97":186431.85999999999,"N_COORD97":2586936.6400000001,"ADDRESS":"上茄苳２２９號之８","OBJECTID":185705},"geometry":{"x":186431.86000000127,"y":2586936.6400000025}},{"attributes":{"ID":185707,"DIS_CODE":0,"TOWNNAME":"後壁區","LI":"嘉民里","LIN":"11鄰","STREET":" ","SECT":" ","MAREA":"上茄苳","LANE":" ","ALLEY":" ","HOUSE_NO":"２２９號","E_COORD97":186442.03,"N_COORD97":2586906.9900000002,"ADDRESS":"上茄苳２２９號","OBJECTID":185706},"geometry":{"x":186442.03000000119,"y":2586906.9900000021}},{"attributes":{"ID":185708,"DIS_CODE":0,"TOWNNAME":"後壁區","LI":"嘉民里","LIN":"11鄰","STREET":" ","SECT":" ","MAREA":"上茄苳","LANE":" ","ALLEY":" ","HOUSE_NO":"２３０號之１","E_COORD97":186406.32999999999,"N_COORD97":2586926.9700000002,"ADDRESS":"上茄苳２３０號之１","OBJECTID":185707},"geometry":{"x":186406.33000000101,"y":2586926.9700000044}},{"attributes":{"ID":185709,"DIS_CODE":0,"TOWNNAME":"後壁區","LI":"嘉民里","LIN":"11鄰","STREET":" ","SECT":" ","MAREA":"上茄苳","LANE":" ","ALLEY":" ","HOUSE_NO":"２３０號之２","E_COORD97":186344.42999999999,"N_COORD97":2586907.23,"ADDRESS":"上茄苳２３０號之２","OBJECTID":185708},"geometry":{"x":186344.4299999997,"y":2586907.2300000004}},{"attributes":{"ID":185710,"DIS_CODE":0,"TOWNNAME":"後壁區","LI":"嘉民里","LIN":"11鄰","STREET":" ","SECT":" ","MAREA":"上茄苳","LANE":" ","ALLEY":" ","HOUSE_NO":"２３０號之３","E_COORD97":186340.38,"N_COORD97":2586920.6499999999,"ADDRESS":"上茄苳２３０號之３","OBJECTID":185709},"geometry":{"x":186340.37999999989,"y":2586920.6500000004}},{"attributes":{"ID":185711,"DIS_CODE":0,"TOWNNAME":"後壁區","LI":"嘉民里","LIN":"11鄰","STREET":" ","SECT":" ","MAREA":"上茄苳","LANE":" ","ALLEY":" ","HOUSE_NO":"２３０號之４","E_COORD97":186354.73000000001,"N_COORD97":2586961.3599999999,"ADDRESS":"上茄苳２３０號之４","OBJECTID":185710},"geometry":{"x":186354.73000000138,"y":2586961.3600000013}},{"attributes":{"ID":185712,"DIS_CODE":0,"TOWNNAME":"永康區","LI":"勝利里","LIN":"36鄰","STREET":"勝學路","SECT":" ","MAREA":" ","LANE":"８２巷","ALLEY":"２弄","HOUSE_NO":"３號","E_COORD97":171201.73999999999,"N_COORD97":2544775.2599999998,"ADDRESS":"勝學路８２巷２弄３號","OBJECTID":185711},"geometry":{"x":171201.74000000022,"y":2544775.2600000016}},{"attributes":{"ID":185713,"DIS_CODE":0,"TOWNNAME":"永康區","LI":"崑山里","LIN":"36鄰","STREET":"大灣路","SECT":" ","MAREA":" ","LANE":"９４２巷","ALLEY":"１９４弄","HOUSE_NO":"１１號","E_COORD97":173868.34,"N_COORD97":2544972.9500000002,"ADDRESS":"大灣路９４２巷１９４弄１１號","OBJECTID":185712},"geometry":{"x":173868.34000000078,"y":2544972.9499999974}},{"attributes":{"ID":185714,"DIS_CODE":0,"TOWNNAME":"仁德區","LI":"太子里","LIN":"36鄰","STREET":"長興一街","SECT":" ","MAREA":" ","LANE":"４０巷","ALLEY":"１９弄","HOUSE_NO":"６號","E_COORD97":174505.67000000001,"N_COORD97":2543871.25,"ADDRESS":"長興一街４０巷１９弄６號","OBJECTID":185713},"geometry":{"x":174505.66999999993,"y":2543871.2500000019}},{"attributes":{"ID":185715,"DIS_CODE":0,"TOWNNAME":"仁德區","LI":"後壁里","LIN":"36鄰","STREET":"民安路","SECT":"一段","MAREA":" ","LANE":"３１０巷","ALLEY":"２９弄","HOUSE_NO":"４號","E_COORD97":172793.57000000001,"N_COORD97":2539427.9399999999,"ADDRESS":"民安路一段３１０巷２９弄４號","OBJECTID":185714},"geometry":{"x":172793.57000000216,"y":2539427.9400000013}},{"attributes":{"ID":185716,"DIS_CODE":0,"TOWNNAME":"仁德區","LI":"後壁里","LIN":"36鄰","STREET":"民安路","SECT":"一段","MAREA":" ","LANE":"３１０巷","ALLEY":"２９弄","HOUSE_NO":"６號","E_COORD97":172799.59,"N_COORD97":2539425.4399999999,"ADDRESS":"民安路一段３１０巷２９弄６號","OBJECTID":185715},"geometry":{"x":172799.58999999892,"y":2539425.4399999995}},{"attributes":{"ID":185717,"DIS_CODE":0,"TOWNNAME":"仁德區","LI":"後壁里","LIN":"36鄰","STREET":"民安路","SECT":"一段","MAREA":" ","LANE":"３１０巷","ALLEY":"３４弄","HOUSE_NO":"４號","E_COORD97":172750.35000000001,"N_COORD97":2539420.9399999999,"ADDRESS":"民安路一段３１０巷３４弄４號","OBJECTID":185716},"geometry":{"x":172750.35000000149,"y":2539420.9400000013}},{"attributes":{"ID":185718,"DIS_CODE":0,"TOWNNAME":"仁德區","LI":"後壁里","LIN":"36鄰","STREET":"民安路","SECT":"一段","MAREA":" ","LANE":"３１０巷","ALLEY":"３４弄","HOUSE_NO":"１０號","E_COORD97":172735.57999999999,"N_COORD97":2539431.1899999999,"ADDRESS":"民安路一段３１０巷３４弄１０號","OBJECTID":185717},"geometry":{"x":172735.58000000194,"y":2539431.1899999995}},{"attributes":{"ID":185719,"DIS_CODE":0,"TOWNNAME":"仁德區","LI":"後壁里","LIN":"36鄰","STREET":"民安路","SECT":"一段","MAREA":" ","LANE":"３１０巷","ALLEY":"３２弄","HOUSE_NO":"１４號","E_COORD97":172737.34,"N_COORD97":2539479.2000000002,"ADDRESS":"民安路一段３１０巷３２弄１４號","OBJECTID":185718},"geometry":{"x":172737.34000000078,"y":2539479.200000003}},{"attributes":{"ID":185720,"DIS_CODE":0,"TOWNNAME":"後壁區","LI":"嘉民里","LIN":"11鄰","STREET":" ","SECT":" ","MAREA":"上茄苳","LANE":" ","ALLEY":" ","HOUSE_NO":"２３０號之５","E_COORD97":186376.42000000001,"N_COORD97":2586912.29,"ADDRESS":"上茄苳２３０號之５","OBJECTID":185719},"geometry":{"x":186376.42000000086,"y":2586912.2899999991}},{"attributes":{"ID":185721,"DIS_CODE":0,"TOWNNAME":"後壁區","LI":"嘉民里","LIN":"11鄰","STREET":" ","SECT":" ","MAREA":"上茄苳","LANE":" ","ALLEY":" ","HOUSE_NO":"２３０號之８","E_COORD97":186412.91,"N_COORD97":2586988.1200000001,"ADDRESS":"上茄苳２３０號之８","OBJECTID":185720},"geometry":{"x":186412.91000000015,"y":2586988.1200000029}},{"attributes":{"ID":185722,"DIS_CODE":0,"TOWNNAME":"後壁區","LI":"嘉民里","LIN":"11鄰","STREET":" ","SECT":" ","MAREA":"上茄苳","LANE":" ","ALLEY":" ","HOUSE_NO":"２３０號之９","E_COORD97":186438.97,"N_COORD97":2586969.9300000002,"ADDRESS":"上茄苳２３０號之９","OBJECTID":185721},"geometry":{"x":186438.97000000067,"y":2586969.9299999997}},{"attributes":{"ID":185723,"DIS_CODE":0,"TOWNNAME":"後壁區","LI":"嘉民里","LIN":"11鄰","STREET":" ","SECT":" ","MAREA":"上茄苳","LANE":" ","ALLEY":" ","HOUSE_NO":"２３０號","E_COORD97":186402.78,"N_COORD97":2586907.73,"ADDRESS":"上茄苳２３０號","OBJECTID":185722},"geometry":{"x":186402.78000000212,"y":2586907.7300000004}},{"attributes":{"ID":185724,"DIS_CODE":0,"TOWNNAME":"後壁區","LI":"嘉民里","LIN":"11鄰","STREET":" ","SECT":" ","MAREA":"上茄苳","LANE":" ","ALLEY":" ","HOUSE_NO":"２３１號之１６","E_COORD97":186365.26000000001,"N_COORD97":2586886.6099999999,"ADDRESS":"上茄苳２３１號之１６","OBJECTID":185723},"geometry":{"x":186365.26000000071,"y":2586886.6099999994}},{"attributes":{"ID":185725,"DIS_CODE":0,"TOWNNAME":"西港區","LI":"劉厝里","LIN":"10鄰","STREET":" ","SECT":" ","MAREA":"劉厝","LANE":" ","ALLEY":" ","HOUSE_NO":"７２號之２１","E_COORD97":165935.32000000001,"N_COORD97":2558892.27,"ADDRESS":"劉厝７２號之２１","OBJECTID":185724},"geometry":{"x":165935.32000000123,"y":2558892.2700000033}},{"attributes":{"ID":185726,"DIS_CODE":0,"TOWNNAME":"後壁區","LI":"嘉民里","LIN":"11鄰","STREET":" ","SECT":" ","MAREA":"上茄苳","LANE":" ","ALLEY":" ","HOUSE_NO":"２３１號之１８","E_COORD97":186380.51000000001,"N_COORD97":2586892.77,"ADDRESS":"上茄苳２３１號之１８","OBJECTID":185725},"geometry":{"x":186380.51000000071,"y":2586892.7699999996}},{"attributes":{"ID":185727,"DIS_CODE":0,"TOWNNAME":"後壁區","LI":"嘉民里","LIN":"11鄰","STREET":" ","SECT":" ","MAREA":"上茄苳","LANE":" ","ALLEY":" ","HOUSE_NO":"２３１號之１","E_COORD97":186307.89000000001,"N_COORD97":2586868.75,"ADDRESS":"上茄苳２３１號之１","OBJECTID":185726},"geometry":{"x":186307.88999999966,"y":2586868.75}},{"attributes":{"ID":185728,"DIS_CODE":0,"TOWNNAME":"後壁區","LI":"嘉民里","LIN":"11鄰","STREET":" ","SECT":" ","MAREA":"上茄苳","LANE":" ","ALLEY":" ","HOUSE_NO":"２３１號之２","E_COORD97":186303.03,"N_COORD97":2586867.7999999998,"ADDRESS":"上茄苳２３１號之２","OBJECTID":185727},"geometry":{"x":186303.03000000119,"y":2586867.8000000026}},{"attributes":{"ID":185729,"DIS_CODE":0,"TOWNNAME":"後壁區","LI":"嘉民里","LIN":"11鄰","STREET":" ","SECT":" ","MAREA":"上茄苳","LANE":" ","ALLEY":" ","HOUSE_NO":"２３１號之３","E_COORD97":186298.35999999999,"N_COORD97":2586866.9900000002,"ADDRESS":"上茄苳２３１號之３","OBJECTID":185728},"geometry":{"x":186298.36000000034,"y":2586866.9900000021}},{"attributes":{"ID":185730,"DIS_CODE":0,"TOWNNAME":"後壁區","LI":"嘉民里","LIN":"11鄰","STREET":" ","SECT":" ","MAREA":"上茄苳","LANE":" ","ALLEY":" ","HOUSE_NO":"２３１號之４","E_COORD97":186293.70000000001,"N_COORD97":2586865.8999999999,"ADDRESS":"上茄苳２３１號之４","OBJECTID":185729},"geometry":{"x":186293.70000000112,"y":2586865.8999999985}},{"attributes":{"ID":185731,"DIS_CODE":0,"TOWNNAME":"後壁區","LI":"嘉民里","LIN":"11鄰","STREET":" ","SECT":" ","MAREA":"上茄苳","LANE":" ","ALLEY":" ","HOUSE_NO":"２３１號","E_COORD97":186322.79999999999,"N_COORD97":2586878.6400000001,"ADDRESS":"上茄苳２３１號","OBJECTID":185730},"geometry":{"x":186322.80000000075,"y":2586878.6400000025}},{"attributes":{"ID":185732,"DIS_CODE":0,"TOWNNAME":"仁德區","LI":"後壁里","LIN":"36鄰","STREET":"民安路","SECT":"一段","MAREA":" ","LANE":"３１０巷","ALLEY":"３４弄","HOUSE_NO":"５號","E_COORD97":172712.76000000001,"N_COORD97":2539422.1899999999,"ADDRESS":"民安路一段３１０巷３４弄５號","OBJECTID":185731},"geometry":{"x":172712.76000000071,"y":2539422.1900000013}},{"attributes":{"ID":185733,"DIS_CODE":0,"TOWNNAME":"仁德區","LI":"後壁里","LIN":"36鄰","STREET":"民安路","SECT":"一段","MAREA":" ","LANE":"３１０巷","ALLEY":"３４弄","HOUSE_NO":"２號","E_COORD97":172757.57999999999,"N_COORD97":2539414.9399999999,"ADDRESS":"民安路一段３１０巷３４弄２號","OBJECTID":185732},"geometry":{"x":172757.58000000194,"y":2539414.9399999995}},{"attributes":{"ID":185734,"DIS_CODE":0,"TOWNNAME":"善化區","LI":"什乃里","LIN":"10鄰","STREET":" ","SECT":" ","MAREA":"什乃","LANE":" ","ALLEY":" ","HOUSE_NO":"１２２號","E_COORD97":176442.59,"N_COORD97":2560169.25,"ADDRESS":"什乃１２２號","OBJECTID":185733},"geometry":{"x":176442.58999999892,"y":2560169.25}},{"attributes":{"ID":185735,"DIS_CODE":0,"TOWNNAME":"仁德區","LI":"後壁里","LIN":"36鄰","STREET":"民安路","SECT":"一段","MAREA":" ","LANE":"３１０巷","ALLEY":"３４弄","HOUSE_NO":"１２號","E_COORD97":172729.07999999999,"N_COORD97":2539436.6899999999,"ADDRESS":"民安路一段３１０巷３４弄１２號","OBJECTID":185734},"geometry":{"x":172729.08000000101,"y":2539436.6900000013}},{"attributes":{"ID":185736,"DIS_CODE":0,"TOWNNAME":"仁德區","LI":"後壁里","LIN":"36鄰","STREET":"民安路","SECT":"一段","MAREA":" ","LANE":"３１０巷","ALLEY":"３２弄","HOUSE_NO":"１５號","E_COORD97":172726.91,"N_COORD97":2539458.6899999999,"ADDRESS":"民安路一段３１０巷３２弄１５號","OBJECTID":185735},"geometry":{"x":172726.91000000108,"y":2539458.6899999976}},{"attributes":{"ID":185737,"DIS_CODE":0,"TOWNNAME":"東區","LI":"關聖里","LIN":"10鄰","STREET":"裕農一街","SECT":" ","MAREA":" ","LANE":" ","ALLEY":" ","HOUSE_NO":"８８號","E_COORD97":171908.13,"N_COORD97":2542904.3100000001,"ADDRESS":"裕農一街８８號","OBJECTID":185736},"geometry":{"x":171908.13000000082,"y":2542904.3100000024}},{"attributes":{"ID":185738,"DIS_CODE":0,"TOWNNAME":"後壁區","LI":"嘉民里","LIN":"11鄰","STREET":" ","SECT":" ","MAREA":"上茄苳","LANE":" ","ALLEY":" ","HOUSE_NO":"２３２號","E_COORD97":186296.73000000001,"N_COORD97":2586879.7400000002,"ADDRESS":"上茄苳２３２號","OBJECTID":185737},"geometry":{"x":186296.73000000138,"y":2586879.7400000002}},{"attributes":{"ID":185739,"DIS_CODE":0,"TOWNNAME":"後壁區","LI":"嘉民里","LIN":"11鄰","STREET":" ","SECT":" ","MAREA":"上茄苳","LANE":" ","ALLEY":" ","HOUSE_NO":"２３３號之１","E_COORD97":186372.85999999999,"N_COORD97":2586889.4300000002,"ADDRESS":"上茄苳２３３號之１","OBJECTID":185738},"geometry":{"x":186372.86000000034,"y":2586889.4300000016}},{"attributes":{"ID":185740,"DIS_CODE":0,"TOWNNAME":"後壁區","LI":"嘉民里","LIN":"11鄰","STREET":" ","SECT":" ","MAREA":"上茄苳","LANE":" ","ALLEY":" ","HOUSE_NO":"２３３號","E_COORD97":186281.98999999999,"N_COORD97":2586901.27,"ADDRESS":"上茄苳２３３號","OBJECTID":185739},"geometry":{"x":186281.99000000022,"y":2586901.2700000014}},{"attributes":{"ID":185741,"DIS_CODE":0,"TOWNNAME":"後壁區","LI":"嘉民里","LIN":"11鄰","STREET":" ","SECT":" ","MAREA":"上茄苳","LANE":" ","ALLEY":" ","HOUSE_NO":"２３４號","E_COORD97":186295.76000000001,"N_COORD97":2586906.7799999998,"ADDRESS":"上茄苳２３４號","OBJECTID":185740},"geometry":{"x":186295.76000000071,"y":2586906.7800000031}},{"attributes":{"ID":185742,"DIS_CODE":0,"TOWNNAME":"後壁區","LI":"土溝里","LIN":"11鄰","STREET":" ","SECT":" ","MAREA":"土溝","LANE":" ","ALLEY":" ","HOUSE_NO":"１０２號","E_COORD97":187616.44,"N_COORD97":2585820.9399999999,"ADDRESS":"土溝１０２號","OBJECTID":185741},"geometry":{"x":187616.44000000041,"y":2585820.9400000032}},{"attributes":{"ID":185743,"DIS_CODE":0,"TOWNNAME":"西港區","LI":"劉厝里","LIN":"10鄰","STREET":" ","SECT":" ","MAREA":"劉厝","LANE":" ","ALLEY":" ","HOUSE_NO":"７１號","E_COORD97":165987.92000000001,"N_COORD97":2558923.4300000002,"ADDRESS":"劉厝７１號","OBJECTID":185742},"geometry":{"x":165987.92000000179,"y":2558923.4299999997}},{"attributes":{"ID":185744,"DIS_CODE":0,"TOWNNAME":"西港區","LI":"劉厝里","LIN":"10鄰","STREET":" ","SECT":" ","MAREA":"劉厝","LANE":" ","ALLEY":" ","HOUSE_NO":"７２號之１０","E_COORD97":165961.23000000001,"N_COORD97":2558869.7400000002,"ADDRESS":"劉厝７２號之１０","OBJECTID":185743},"geometry":{"x":165961.23000000138,"y":2558869.7400000021}},{"attributes":{"ID":185745,"DIS_CODE":0,"TOWNNAME":"西港區","LI":"劉厝里","LIN":"10鄰","STREET":" ","SECT":" ","MAREA":"劉厝","LANE":" ","ALLEY":" ","HOUSE_NO":"７２號之１１","E_COORD97":165961.60000000001,"N_COORD97":2558865.5299999998,"ADDRESS":"劉厝７２號之１１","OBJECTID":185744},"geometry":{"x":165961.60000000056,"y":2558865.5299999993}},{"attributes":{"ID":185746,"DIS_CODE":0,"TOWNNAME":"西港區","LI":"劉厝里","LIN":"10鄰","STREET":" ","SECT":" ","MAREA":"劉厝","LANE":" ","ALLEY":" ","HOUSE_NO":"７２號之１２","E_COORD97":165961.53,"N_COORD97":2558861.4700000002,"ADDRESS":"劉厝７２號之１２","OBJECTID":185745},"geometry":{"x":165961.53000000026,"y":2558861.4700000044}},{"attributes":{"ID":185747,"DIS_CODE":0,"TOWNNAME":"西港區","LI":"劉厝里","LIN":"10鄰","STREET":" ","SECT":" ","MAREA":"劉厝","LANE":" ","ALLEY":" ","HOUSE_NO":"７２號之１３","E_COORD97":165961.01000000001,"N_COORD97":2558857.1000000001,"ADDRESS":"劉厝７２號之１３","OBJECTID":185746},"geometry":{"x":165961.00999999978,"y":2558857.1000000015}},{"attributes":{"ID":185748,"DIS_CODE":0,"TOWNNAME":"西港區","LI":"劉厝里","LIN":"10鄰","STREET":" ","SECT":" ","MAREA":"劉厝","LANE":" ","ALLEY":" ","HOUSE_NO":"７２號之１４","E_COORD97":165960.59,"N_COORD97":2558852.1699999999,"ADDRESS":"劉厝７２號之１４","OBJECTID":185747},"geometry":{"x":165960.58999999985,"y":2558852.1699999999}},{"attributes":{"ID":185749,"DIS_CODE":0,"TOWNNAME":"西港區","LI":"劉厝里","LIN":"10鄰","STREET":" ","SECT":" ","MAREA":"劉厝","LANE":" ","ALLEY":" ","HOUSE_NO":"７２號之１５","E_COORD97":165936.14999999999,"N_COORD97":2558918.5,"ADDRESS":"劉厝７２號之１５","OBJECTID":185748},"geometry":{"x":165936.15000000224,"y":2558918.5000000019}},{"attributes":{"ID":185750,"DIS_CODE":0,"TOWNNAME":"西港區","LI":"劉厝里","LIN":"10鄰","STREET":" ","SECT":" ","MAREA":"劉厝","LANE":" ","ALLEY":" ","HOUSE_NO":"７２號之１６","E_COORD97":165936.29000000001,"N_COORD97":2558914.1000000001,"ADDRESS":"劉厝７２號之１６","OBJECTID":185749},"geometry":{"x":165936.29000000004,"y":2558914.1000000015}},{"attributes":{"ID":185751,"DIS_CODE":0,"TOWNNAME":"西港區","LI":"劉厝里","LIN":"10鄰","STREET":" ","SECT":" ","MAREA":"劉厝","LANE":" ","ALLEY":" ","HOUSE_NO":"７２號之１７","E_COORD97":165936.12,"N_COORD97":2558909.1299999999,"ADDRESS":"劉厝７２號之１７","OBJECTID":185750},"geometry":{"x":165936.12000000104,"y":2558909.129999999}},{"attributes":{"ID":185752,"DIS_CODE":0,"TOWNNAME":"西港區","LI":"劉厝里","LIN":"10鄰","STREET":" ","SECT":" ","MAREA":"劉厝","LANE":" ","ALLEY":" ","HOUSE_NO":"７２號之１８","E_COORD97":165936.10000000001,"N_COORD97":2558905.6200000001,"ADDRESS":"劉厝７２號之１８","OBJECTID":185751},"geometry":{"x":165936.10000000056,"y":2558905.6200000029}},{"attributes":{"ID":185753,"DIS_CODE":0,"TOWNNAME":"西港區","LI":"劉厝里","LIN":"10鄰","STREET":" ","SECT":" ","MAREA":"劉厝","LANE":" ","ALLEY":" ","HOUSE_NO":"７２號之１９","E_COORD97":165935.76000000001,"N_COORD97":2558901.1400000001,"ADDRESS":"劉厝７２號之１９","OBJECTID":185752},"geometry":{"x":165935.75999999978,"y":2558901.1400000043}},{"attributes":{"ID":185754,"DIS_CODE":0,"TOWNNAME":"西港區","LI":"劉厝里","LIN":"10鄰","STREET":" ","SECT":" ","MAREA":"劉厝","LANE":" ","ALLEY":" ","HOUSE_NO":"７２號之１","E_COORD97":165964.03,"N_COORD97":2558908.6200000001,"ADDRESS":"劉厝７２號之１","OBJECTID":185753},"geometry":{"x":165964.03000000119,"y":2558908.6200000029}},{"attributes":{"ID":185755,"DIS_CODE":0,"TOWNNAME":"西港區","LI":"劉厝里","LIN":"10鄰","STREET":" ","SECT":" ","MAREA":"劉厝","LANE":" ","ALLEY":" ","HOUSE_NO":"７２號之２０","E_COORD97":165935.42999999999,"N_COORD97":2558896.6899999999,"ADDRESS":"劉厝７２號之２０","OBJECTID":185754},"geometry":{"x":165935.43000000063,"y":2558896.6900000013}},{"attributes":{"ID":185756,"DIS_CODE":0,"TOWNNAME":"仁德區","LI":"後壁里","LIN":"36鄰","STREET":"民安路","SECT":"一段","MAREA":" ","LANE":"３１０巷","ALLEY":"３４弄","HOUSE_NO":"１６號","E_COORD97":172719.03,"N_COORD97":2539445.1899999999,"ADDRESS":"民安路一段３１０巷３４弄１６號","OBJECTID":185755},"geometry":{"x":172719.03000000026,"y":2539445.1899999976}},{"attributes":{"ID":185757,"DIS_CODE":0,"TOWNNAME":"仁德區","LI":"後壁里","LIN":"36鄰","STREET":"民安路","SECT":"一段","MAREA":" ","LANE":"３１０巷","ALLEY":"３４弄","HOUSE_NO":"３號","E_COORD97":172715.35000000001,"N_COORD97":2539419.1899999999,"ADDRESS":"民安路一段３１０巷３４弄３號","OBJECTID":185756},"geometry":{"x":172715.35000000056,"y":2539419.1900000013}},{"attributes":{"ID":185758,"DIS_CODE":0,"TOWNNAME":"仁德區","LI":"後壁里","LIN":"36鄰","STREET":"民安路","SECT":"一段","MAREA":" ","LANE":"３１０巷","ALLEY":"３４弄","HOUSE_NO":"８號","E_COORD97":172738.75,"N_COORD97":2539428.4399999999,"ADDRESS":"民安路一段３１０巷３４弄８號","OBJECTID":185757},"geometry":{"x":172738.75,"y":2539428.4400000013}},{"attributes":{"ID":185759,"DIS_CODE":0,"TOWNNAME":"東區","LI":"文聖里","LIN":"10鄰","STREET":"裕興街","SECT":" ","MAREA":" ","LANE":" ","ALLEY":" ","HOUSE_NO":"７８號","E_COORD97":172147.85000000001,"N_COORD97":2542640.4500000002,"ADDRESS":"裕興街７８號","OBJECTID":185758},"geometry":{"x":172147.84999999963,"y":2542640.450000003}},{"attributes":{"ID":185760,"DIS_CODE":0,"TOWNNAME":"西港區","LI":"劉厝里","LIN":"10鄰","STREET":" ","SECT":" ","MAREA":"劉厝","LANE":" ","ALLEY":" ","HOUSE_NO":"７２號之２２","E_COORD97":165934.92000000001,"N_COORD97":2558888.0499999998,"ADDRESS":"劉厝７２號之２２","OBJECTID":185759},"geometry":{"x":165934.91999999993,"y":2558888.0500000045}},{"attributes":{"ID":185761,"DIS_CODE":0,"TOWNNAME":"南區","LI":"鯤鯓里","LIN":"10鄰","STREET":"鯤鯓路","SECT":" ","MAREA":" ","LANE":" ","ALLEY":" ","HOUSE_NO":"１２３號","E_COORD97":164980.22,"N_COORD97":2540002.5800000001,"ADDRESS":"鯤鯓路１２３號","OBJECTID":185760},"geometry":{"x":164980.21999999974,"y":2540002.5799999982}},{"attributes":{"ID":185762,"DIS_CODE":0,"TOWNNAME":"南區","LI":"鯤鯓里","LIN":"10鄰","STREET":"鯤鯓路","SECT":" ","MAREA":" ","LANE":" ","ALLEY":" ","HOUSE_NO":"１２３之１號","E_COORD97":164976.57000000001,"N_COORD97":2540004.0099999998,"ADDRESS":"鯤鯓路１２３之１號","OBJECTID":185761},"geometry":{"x":164976.5700000003,"y":2540004.0100000016}},{"attributes":{"ID":185763,"DIS_CODE":0,"TOWNNAME":"南區","LI":"再興里","LIN":"10鄰","STREET":"新城街","SECT":" ","MAREA":" ","LANE":" ","ALLEY":" ","HOUSE_NO":"６０號","E_COORD97":167170.14999999999,"N_COORD97":2542296.7799999998,"ADDRESS":"新城街６０號","OBJECTID":185762},"geometry":{"x":167170.15000000224,"y":2542296.7800000012}},{"attributes":{"ID":185764,"DIS_CODE":0,"TOWNNAME":"仁德區","LI":"後壁里","LIN":"36鄰","STREET":"民安路","SECT":"一段","MAREA":" ","LANE":"３１０巷","ALLEY":"３２弄","HOUSE_NO":"１７號","E_COORD97":172723.79000000001,"N_COORD97":2539461.6899999999,"ADDRESS":"民安路一段３１０巷３２弄１７號","OBJECTID":185763},"geometry":{"x":172723.79000000004,"y":2539461.6899999995}},{"attributes":{"ID":185765,"DIS_CODE":0,"TOWNNAME":"永康區","LI":"二王里","LIN":"36鄰","STREET":"中山南路","SECT":" ","MAREA":" ","LANE":"４９０巷","ALLEY":"４１弄","HOUSE_NO":"８號","E_COORD97":172246.76999999999,"N_COORD97":2546390.2999999998,"ADDRESS":"中山南路４９０巷４１弄８號","OBJECTID":185764},"geometry":{"x":172246.76999999955,"y":2546390.3000000026}},{"attributes":{"ID":185766,"DIS_CODE":0,"TOWNNAME":"永康區","LI":"北灣里","LIN":"36鄰","STREET":"大灣路","SECT":" ","MAREA":" ","LANE":"４０巷","ALLEY":"１２０弄","HOUSE_NO":"１１號","E_COORD97":174952.78,"N_COORD97":2546299.9199999999,"ADDRESS":"大灣路４０巷１２０弄１１號","OBJECTID":185765},"geometry":{"x":174952.78000000026,"y":2546299.9200000037}},{"attributes":{"ID":185767,"DIS_CODE":0,"TOWNNAME":"南化區","LI":"西埔里","LIN":"3鄰","STREET":" ","SECT":" ","MAREA":"西埔","LANE":" ","ALLEY":" ","HOUSE_NO":"２２號","E_COORD97":195234.84,"N_COORD97":2546745.75,"ADDRESS":"西埔２２號","OBJECTID":185766},"geometry":{"x":195234.83999999985,"y":2546745.7500000019}},{"attributes":{"ID":185768,"DIS_CODE":0,"TOWNNAME":"永康區","LI":"北灣里","LIN":"36鄰","STREET":"大灣路","SECT":" ","MAREA":" ","LANE":"４０巷","ALLEY":"１２０弄","HOUSE_NO":"１３號","E_COORD97":174957.29000000001,"N_COORD97":2546305.02,"ADDRESS":"大灣路４０巷１２０弄１３號","OBJECTID":185767},"geometry":{"x":174957.29000000097,"y":2546305.0199999996}},{"attributes":{"ID":185769,"DIS_CODE":0,"TOWNNAME":"永康區","LI":"北灣里","LIN":"36鄰","STREET":"大灣路","SECT":" ","MAREA":" ","LANE":"４０巷","ALLEY":"１２０弄","HOUSE_NO":"１５號","E_COORD97":174962.06,"N_COORD97":2546310.46,"ADDRESS":"大灣路４０巷１２０弄１５號","OBJECTID":185768},"geometry":{"x":174962.05999999959,"y":2546310.4600000046}},{"attributes":{"ID":185770,"DIS_CODE":0,"TOWNNAME":"永康區","LI":"北灣里","LIN":"36鄰","STREET":"大灣路","SECT":" ","MAREA":" ","LANE":"４０巷","ALLEY":"１２０弄","HOUSE_NO":"１號","E_COORD97":174926.57000000001,"N_COORD97":2546273.2599999998,"ADDRESS":"大灣路４０巷１２０弄１號","OBJECTID":185769},"geometry":{"x":174926.57000000123,"y":2546273.2599999979}},{"attributes":{"ID":185771,"DIS_CODE":0,"TOWNNAME":"永康區","LI":"北灣里","LIN":"36鄰","STREET":"大灣路","SECT":" ","MAREA":" ","LANE":"４０巷","ALLEY":"１２０弄","HOUSE_NO":"３號","E_COORD97":174932.29999999999,"N_COORD97":2546278.98,"ADDRESS":"大灣路４０巷１２０弄３號","OBJECTID":185770},"geometry":{"x":174932.29999999981,"y":2546278.9800000004}},{"attributes":{"ID":185772,"DIS_CODE":0,"TOWNNAME":"永康區","LI":"北灣里","LIN":"36鄰","STREET":"大灣路","SECT":" ","MAREA":" ","LANE":"４０巷","ALLEY":"１２０弄","HOUSE_NO":"５號","E_COORD97":174936.91,"N_COORD97":2546283.71,"ADDRESS":"大灣路４０巷１２０弄５號","OBJECTID":185771},"geometry":{"x":174936.91000000015,"y":2546283.7100000009}},{"attributes":{"ID":185773,"DIS_CODE":0,"TOWNNAME":"永康區","LI":"北灣里","LIN":"36鄰","STREET":"大灣路","SECT":" ","MAREA":" ","LANE":"４０巷","ALLEY":"１２０弄","HOUSE_NO":"７號","E_COORD97":174942.04000000001,"N_COORD97":2546289.2200000002,"ADDRESS":"大灣路４０巷１２０弄７號","OBJECTID":185772},"geometry":{"x":174942.04000000097,"y":2546289.2200000025}},{"attributes":{"ID":185774,"DIS_CODE":0,"TOWNNAME":"永康區","LI":"北灣里","LIN":"36鄰","STREET":"大灣路","SECT":" ","MAREA":" ","LANE":"４０巷","ALLEY":"１２０弄","HOUSE_NO":"９號","E_COORD97":174946.60000000001,"N_COORD97":2546294.6499999999,"ADDRESS":"大灣路４０巷１２０弄９號","OBJECTID":185773},"geometry":{"x":174946.59999999963,"y":2546294.6500000004}},{"attributes":{"ID":185775,"DIS_CODE":0,"TOWNNAME":"永康區","LI":"北灣里","LIN":"36鄰","STREET":"大灣路","SECT":" ","MAREA":" ","LANE":"４０巷","ALLEY":"１３８弄","HOUSE_NO":"１０號","E_COORD97":174922.35999999999,"N_COORD97":2546323.0299999998,"ADDRESS":"大灣路４０巷１３８弄１０號","OBJECTID":185774},"geometry":{"x":174922.3599999994,"y":2546323.0300000012}},{"attributes":{"ID":185776,"DIS_CODE":0,"TOWNNAME":"永康區","LI":"北灣里","LIN":"36鄰","STREET":"大灣路","SECT":" ","MAREA":" ","LANE":"４０巷","ALLEY":"１３８弄","HOUSE_NO":"１１號","E_COORD97":174899.14000000001,"N_COORD97":2546320.29,"ADDRESS":"大灣路４０巷１３８弄１１號","OBJECTID":185775},"geometry":{"x":174899.13999999966,"y":2546320.290000001}},{"attributes":{"ID":185777,"DIS_CODE":0,"TOWNNAME":"永康區","LI":"北灣里","LIN":"36鄰","STREET":"大灣路","SECT":" ","MAREA":" ","LANE":"４０巷","ALLEY":"１３８弄","HOUSE_NO":"１２號","E_COORD97":174929.82999999999,"N_COORD97":2546332.0099999998,"ADDRESS":"大灣路４０巷１３８弄１２號","OBJECTID":185776},"geometry":{"x":174929.83000000101,"y":2546332.0099999998}},{"attributes":{"ID":185778,"DIS_CODE":0,"TOWNNAME":"永康區","LI":"北灣里","LIN":"36鄰","STREET":"大灣路","SECT":" ","MAREA":" ","LANE":"４０巷","ALLEY":"１３８弄","HOUSE_NO":"１３號","E_COORD97":174901.88,"N_COORD97":2546323.02,"ADDRESS":"大灣路４０巷１３８弄１３號","OBJECTID":185777},"geometry":{"x":174901.88000000082,"y":2546323.0200000014}},{"attributes":{"ID":185779,"DIS_CODE":0,"TOWNNAME":"永康區","LI":"北灣里","LIN":"36鄰","STREET":"大灣路","SECT":" ","MAREA":" ","LANE":"４０巷","ALLEY":"１３８弄","HOUSE_NO":"１５號","E_COORD97":174904.64000000001,"N_COORD97":2546326.0499999998,"ADDRESS":"大灣路４０巷１３８弄１５號","OBJECTID":185778},"geometry":{"x":174904.64000000153,"y":2546326.0500000007}},{"attributes":{"ID":185780,"DIS_CODE":0,"TOWNNAME":"永康區","LI":"北灣里","LIN":"36鄰","STREET":"大灣路","SECT":" ","MAREA":" ","LANE":"４０巷","ALLEY":"１３８弄","HOUSE_NO":"１７號","E_COORD97":174907.53,"N_COORD97":2546328.9100000001,"ADDRESS":"大灣路４０巷１３８弄１７號","OBJECTID":185779},"geometry":{"x":174907.53000000026,"y":2546328.9100000001}},{"attributes":{"ID":185781,"DIS_CODE":0,"TOWNNAME":"永康區","LI":"北灣里","LIN":"36鄰","STREET":"大灣路","SECT":" ","MAREA":" ","LANE":"４０巷","ALLEY":"１３８弄","HOUSE_NO":"１８號","E_COORD97":174939.85000000001,"N_COORD97":2546343.96,"ADDRESS":"大灣路４０巷１３８弄１８號","OBJECTID":185780},"geometry":{"x":174939.84999999963,"y":2546343.9600000009}},{"attributes":{"ID":185782,"DIS_CODE":0,"TOWNNAME":"仁德區","LI":"後壁里","LIN":"18鄰","STREET":"德南路","SECT":" ","MAREA":" ","LANE":" ","ALLEY":" ","HOUSE_NO":"３８號","E_COORD97":173338.06,"N_COORD97":2538771.02,"ADDRESS":"德南路３８號","OBJECTID":185781},"geometry":{"x":173338.05999999959,"y":2538771.0199999996}},{"attributes":{"ID":185783,"DIS_CODE":0,"TOWNNAME":"白河區","LI":"崎內里","LIN":"10鄰","STREET":" ","SECT":" ","MAREA":"芎蕉宅","LANE":" ","ALLEY":" ","HOUSE_NO":"２５號","E_COORD97":195911.89000000001,"N_COORD97":2587363.8599999999,"ADDRESS":"芎蕉宅２５號","OBJECTID":185782},"geometry":{"x":195911.8900000006,"y":2587363.8600000031}},{"attributes":{"ID":185784,"DIS_CODE":0,"TOWNNAME":"白河區","LI":"崎內里","LIN":"10鄰","STREET":" ","SECT":" ","MAREA":"芎蕉宅","LANE":" ","ALLEY":" ","HOUSE_NO":"２６號","E_COORD97":195932.88,"N_COORD97":2587344.29,"ADDRESS":"芎蕉宅２６號","OBJECTID":185783},"geometry":{"x":195932.88000000082,"y":2587344.290000001}},{"attributes":{"ID":185785,"DIS_CODE":0,"TOWNNAME":"永康區","LI":"北灣里","LIN":"36鄰","STREET":"大灣路","SECT":" ","MAREA":" ","LANE":"４０巷","ALLEY":"１３８弄","HOUSE_NO":"１９號","E_COORD97":174910.32000000001,"N_COORD97":2546331.8599999999,"ADDRESS":"大灣路４０巷１３８弄１９號","OBJECTID":185784},"geometry":{"x":174910.3200000003,"y":2546331.8599999994}},{"attributes":{"ID":185786,"DIS_CODE":0,"TOWNNAME":"後壁區","LI":"土溝里","LIN":"11鄰","STREET":" ","SECT":" ","MAREA":"土溝","LANE":" ","ALLEY":" ","HOUSE_NO":"１０３號之１１","E_COORD97":187637.70999999999,"N_COORD97":2585640.8700000001,"ADDRESS":"土溝１０３號之１１","OBJECTID":185785},"geometry":{"x":187637.71000000089,"y":2585640.8700000029}},{"attributes":{"ID":185787,"DIS_CODE":0,"TOWNNAME":"後壁區","LI":"土溝里","LIN":"11鄰","STREET":" ","SECT":" ","MAREA":"土溝","LANE":" ","ALLEY":" ","HOUSE_NO":"１０３號之１２","E_COORD97":187559.42000000001,"N_COORD97":2585650.6600000001,"ADDRESS":"土溝１０３號之１２","OBJECTID":185786},"geometry":{"x":187559.42000000086,"y":2585650.6600000039}},{"attributes":{"ID":185788,"DIS_CODE":0,"TOWNNAME":"永康區","LI":"北灣里","LIN":"36鄰","STREET":"大灣路","SECT":" ","MAREA":" ","LANE":"４０巷","ALLEY":"１３８弄","HOUSE_NO":"１號","E_COORD97":174884.20000000001,"N_COORD97":2546305.23,"ADDRESS":"大灣路４０巷１３８弄１號","OBJECTID":185787},"geometry":{"x":174884.20000000019,"y":2546305.2300000023}},{"attributes":{"ID":185789,"DIS_CODE":0,"TOWNNAME":"永康區","LI":"北灣里","LIN":"36鄰","STREET":"大灣路","SECT":" ","MAREA":" ","LANE":"４０巷","ALLEY":"１３８弄","HOUSE_NO":"２０號","E_COORD97":174942.48000000001,"N_COORD97":2546346.52,"ADDRESS":"大灣路４０巷１３８弄２０號","OBJECTID":185788},"geometry":{"x":174942.48000000138,"y":2546346.5200000014}},{"attributes":{"ID":185790,"DIS_CODE":0,"TOWNNAME":"後壁區","LI":"土溝里","LIN":"11鄰","STREET":" ","SECT":" ","MAREA":"土溝","LANE":" ","ALLEY":" ","HOUSE_NO":"１０３號之２０","E_COORD97":187703.48000000001,"N_COORD97":2585643.23,"ADDRESS":"土溝１０３號之２０","OBJECTID":185789},"geometry":{"x":187703.48000000231,"y":2585643.2299999986}},{"attributes":{"ID":185791,"DIS_CODE":0,"TOWNNAME":"永康區","LI":"北灣里","LIN":"36鄰","STREET":"大灣路","SECT":" ","MAREA":" ","LANE":"４０巷","ALLEY":"１３８弄","HOUSE_NO":"２１號","E_COORD97":174912.95000000001,"N_COORD97":2546334.7200000002,"ADDRESS":"大灣路４０巷１３８弄２１號","OBJECTID":185790},"geometry":{"x":174912.95000000019,"y":2546334.7200000007}},{"attributes":{"ID":185792,"DIS_CODE":0,"TOWNNAME":"永康區","LI":"北灣里","LIN":"36鄰","STREET":"大灣路","SECT":" ","MAREA":" ","LANE":"４０巷","ALLEY":"１３８弄","HOUSE_NO":"２２號","E_COORD97":174945,"N_COORD97":2546349.3799999999,"ADDRESS":"大灣路４０巷１３８弄２２號","OBJECTID":185791},"geometry":{"x":174945.00000000186,"y":2546349.379999999}},{"attributes":{"ID":185793,"DIS_CODE":0,"TOWNNAME":"後壁區","LI":"土溝里","LIN":"11鄰","STREET":" ","SECT":" ","MAREA":"土溝","LANE":" ","ALLEY":" ","HOUSE_NO":"１０３號之５０","E_COORD97":188097.76999999999,"N_COORD97":2585648.54,"ADDRESS":"土溝１０３號之５０","OBJECTID":185792},"geometry":{"x":188097.77000000048,"y":2585648.5399999991}},{"attributes":{"ID":185794,"DIS_CODE":0,"TOWNNAME":"後壁區","LI":"土溝里","LIN":"11鄰","STREET":" ","SECT":" ","MAREA":"土溝","LANE":" ","ALLEY":" ","HOUSE_NO":"１０３號之５","E_COORD97":187475.06,"N_COORD97":2585660.7200000002,"ADDRESS":"土溝１０３號之５","OBJECTID":185793},"geometry":{"x":187475.06000000052,"y":2585660.7200000044}},{"attributes":{"ID":185795,"DIS_CODE":0,"TOWNNAME":"後壁區","LI":"土溝里","LIN":"11鄰","STREET":" ","SECT":" ","MAREA":"土溝","LANE":" ","ALLEY":" ","HOUSE_NO":"１０３號之６","E_COORD97":187582.35999999999,"N_COORD97":2585658.3700000001,"ADDRESS":"土溝１０３號之６","OBJECTID":185794},"geometry":{"x":187582.36000000127,"y":2585658.3700000029}},{"attributes":{"ID":185796,"DIS_CODE":0,"TOWNNAME":"後壁區","LI":"土溝里","LIN":"11鄰","STREET":" ","SECT":" ","MAREA":"土溝","LANE":" ","ALLEY":" ","HOUSE_NO":"１０３號之７０","E_COORD97":188225.47,"N_COORD97":2585655.3999999999,"ADDRESS":"土溝１０３號之７０","OBJECTID":185795},"geometry":{"x":188225.47000000067,"y":2585655.4000000004}},{"attributes":{"ID":185797,"DIS_CODE":0,"TOWNNAME":"後壁區","LI":"土溝里","LIN":"11鄰","STREET":" ","SECT":" ","MAREA":"土溝","LANE":" ","ALLEY":" ","HOUSE_NO":"１０３號之７","E_COORD97":187584.39999999999,"N_COORD97":2585614.7000000002,"ADDRESS":"土溝１０３號之７","OBJECTID":185796},"geometry":{"x":187584.4000000013,"y":2585614.6999999993}},{"attributes":{"ID":185798,"DIS_CODE":0,"TOWNNAME":"後壁區","LI":"土溝里","LIN":"11鄰","STREET":" ","SECT":" ","MAREA":"土溝","LANE":" ","ALLEY":" ","HOUSE_NO":"１０３號之８０","E_COORD97":188355.39999999999,"N_COORD97":2585602.3399999999,"ADDRESS":"土溝１０３號之８０","OBJECTID":185797},"geometry":{"x":188355.4000000013,"y":2585602.3400000017}},{"attributes":{"ID":185799,"DIS_CODE":0,"TOWNNAME":"後壁區","LI":"土溝里","LIN":"11鄰","STREET":" ","SECT":" ","MAREA":"土溝","LANE":" ","ALLEY":" ","HOUSE_NO":"１０３號之８","E_COORD97":187620.76000000001,"N_COORD97":2585553.7200000002,"ADDRESS":"土溝１０３號之８","OBJECTID":185798},"geometry":{"x":187620.75999999978,"y":2585553.7200000025}},{"attributes":{"ID":185800,"DIS_CODE":0,"TOWNNAME":"後壁區","LI":"土溝里","LIN":"11鄰","STREET":" ","SECT":" ","MAREA":"土溝","LANE":" ","ALLEY":" ","HOUSE_NO":"１０３號之９１","E_COORD97":188419.07999999999,"N_COORD97":2585499.6299999999,"ADDRESS":"土溝１０３號之９１","OBJECTID":185799},"geometry":{"x":188419.08000000007,"y":2585499.629999999}},{"attributes":{"ID":185801,"DIS_CODE":0,"TOWNNAME":"後壁區","LI":"土溝里","LIN":"11鄰","STREET":" ","SECT":" ","MAREA":"土溝","LANE":" ","ALLEY":" ","HOUSE_NO":"１０３號之９２","E_COORD97":188441.88,"N_COORD97":2585501.1200000001,"ADDRESS":"土溝１０３號之９２","OBJECTID":185800},"geometry":{"x":188441.87999999989,"y":2585501.120000001}}]}