{"displayFieldName":"TOWNNAME","fieldAliases":{"ID":"ID","DIS_CODE":"DIS_CODE","TOWNNAME":"TOWNNAME","LI":"LI","LIN":"LIN","STREET":"STREET","SECT":"SECT","MAREA":"MAREA","LANE":"LANE","ALLEY":"ALLEY","HOUSE_NO":"HOUSE_NO","E_COORD97":"E_COORD97","N_COORD97":"N_COORD97","ADDRESS":"ADDRESS","OBJECTID":"OBJECTID"},"geometryType":"esriGeometryPoint","spatialReference":{"wkid":102443,"latestWkid":3826},"fields":[{"name":"ID","type":"esriFieldTypeDouble","alias":"ID"},{"name":"DIS_CODE","type":"esriFieldTypeInteger","alias":"DIS_CODE"},{"name":"TOWNNAME","type":"esriFieldTypeString","alias":"TOWNNAME","length":8},{"name":"LI","type":"esriFieldTypeString","alias":"LI","length":8},{"name":"LIN","type":"esriFieldTypeString","alias":"LIN","length":12},{"name":"STREET","type":"esriFieldTypeString","alias":"STREET","length":20},{"name":"SECT","type":"esriFieldTypeString","alias":"SECT","length":8},{"name":"MAREA","type":"esriFieldTypeString","alias":"MAREA","length":12},{"name":"LANE","type":"esriFieldTypeString","alias":"LANE","length":10},{"name":"ALLEY","type":"esriFieldTypeString","alias":"ALLEY","length":10},{"name":"HOUSE_NO","type":"esriFieldTypeString","alias":"HOUSE_NO","length":20},{"name":"E_COORD97","type":"esriFieldTypeDouble","alias":"E_COORD97"},{"name":"N_COORD97","type":"esriFieldTypeDouble","alias":"N_COORD97"},{"name":"ADDRESS","type":"esriFieldTypeString","alias":"ADDRESS","length":50},{"name":"OBJECTID","type":"esriFieldTypeOID","alias":"OBJECTID"}],"features":[{"attributes":{"ID":420426,"DIS_CODE":0,"TOWNNAME":"永康區","LI":"建國里","LIN":"1鄰","STREET":"復興路","SECT":" ","MAREA":" ","LANE":"２６巷","ALLEY":" ","HOUSE_NO":"６８號","E_COORD97":173131.17999999999,"N_COORD97":2544745.77,"ADDRESS":"復興路２６巷６８號","OBJECTID":420401},"geometry":{"x":173131.18000000156,"y":2544745.7700000014}},{"attributes":{"ID":420427,"DIS_CODE":0,"TOWNNAME":"永康區","LI":"東橋里","LIN":"9鄰","STREET":"中山南路","SECT":" ","MAREA":" ","LANE":"２３１巷","ALLEY":" ","HOUSE_NO":"４４號","E_COORD97":171578.67000000001,"N_COORD97":2546283.9700000002,"ADDRESS":"中山南路２３１巷４４號","OBJECTID":420402},"geometry":{"x":171578.67000000179,"y":2546283.9700000025}},{"attributes":{"ID":420428,"DIS_CODE":0,"TOWNNAME":"善化區","LI":"南關里","LIN":"2鄰","STREET":"中華路","SECT":" ","MAREA":" ","LANE":"１３１巷","ALLEY":" ","HOUSE_NO":"６號","E_COORD97":177181.06,"N_COORD97":2558988.7400000002,"ADDRESS":"中華路１３１巷６號","OBJECTID":420403},"geometry":{"x":177181.05999999959,"y":2558988.7400000021}},{"attributes":{"ID":420429,"DIS_CODE":0,"TOWNNAME":"善化區","LI":"南關里","LIN":"2鄰","STREET":"中華路","SECT":" ","MAREA":" ","LANE":"１３７巷","ALLEY":" ","HOUSE_NO":"３號","E_COORD97":177160.62,"N_COORD97":2559002.75,"ADDRESS":"中華路１３７巷３號","OBJECTID":420404},"geometry":{"x":177160.62000000104,"y":2559002.7500000019}},{"attributes":{"ID":420430,"DIS_CODE":0,"TOWNNAME":"永康區","LI":"建國里","LIN":"1鄰","STREET":"復興路","SECT":" ","MAREA":" ","LANE":"２６巷","ALLEY":" ","HOUSE_NO":"１９號","E_COORD97":173086.89000000001,"N_COORD97":2544550.7200000002,"ADDRESS":"復興路２６巷１９號","OBJECTID":420405},"geometry":{"x":173086.88999999966,"y":2544550.7200000007}},{"attributes":{"ID":420431,"DIS_CODE":0,"TOWNNAME":"善化區","LI":"南關里","LIN":"2鄰","STREET":"中華路","SECT":" ","MAREA":" ","LANE":"１３１巷","ALLEY":" ","HOUSE_NO":"８號","E_COORD97":177170.19,"N_COORD97":2558984.25,"ADDRESS":"中華路１３１巷８號","OBJECTID":420406},"geometry":{"x":177170.19000000134,"y":2558984.2500000037}},{"attributes":{"ID":420432,"DIS_CODE":0,"TOWNNAME":"安南區","LI":"幸福里","LIN":"2鄰","STREET":"國安街","SECT":" ","MAREA":" ","LANE":"２７巷","ALLEY":" ","HOUSE_NO":"１０號","E_COORD97":167061.73999999999,"N_COORD97":2546978.52,"ADDRESS":"國安街２７巷１０號","OBJECTID":420407},"geometry":{"x":167061.74000000022,"y":2546978.5199999996}},{"attributes":{"ID":420433,"DIS_CODE":0,"TOWNNAME":"安南區","LI":"幸福里","LIN":"2鄰","STREET":"國安街","SECT":" ","MAREA":" ","LANE":"２７巷","ALLEY":" ","HOUSE_NO":"１２號","E_COORD97":167062.69,"N_COORD97":2546974.8500000001,"ADDRESS":"國安街２７巷１２號","OBJECTID":420408},"geometry":{"x":167062.69000000041,"y":2546974.8500000015}},{"attributes":{"ID":420434,"DIS_CODE":0,"TOWNNAME":"安南區","LI":"幸福里","LIN":"2鄰","STREET":"國安街","SECT":" ","MAREA":" ","LANE":"２７巷","ALLEY":" ","HOUSE_NO":"１４號","E_COORD97":167062.82999999999,"N_COORD97":2546970.5099999998,"ADDRESS":"國安街２７巷１４號","OBJECTID":420409},"geometry":{"x":167062.83000000007,"y":2546970.5100000016}},{"attributes":{"ID":420435,"DIS_CODE":0,"TOWNNAME":"安南區","LI":"幸福里","LIN":"2鄰","STREET":"國安街","SECT":" ","MAREA":" ","LANE":"２７巷","ALLEY":" ","HOUSE_NO":"１６號","E_COORD97":167063.91,"N_COORD97":2546965.75,"ADDRESS":"國安街２７巷１６號","OBJECTID":420410},"geometry":{"x":167063.91000000015,"y":2546965.7500000019}},{"attributes":{"ID":420436,"DIS_CODE":0,"TOWNNAME":"安南區","LI":"幸福里","LIN":"2鄰","STREET":"國安街","SECT":" ","MAREA":" ","LANE":"２７巷","ALLEY":" ","HOUSE_NO":"２號","E_COORD97":167059.01999999999,"N_COORD97":2546995.2200000002,"ADDRESS":"國安街２７巷２號","OBJECTID":420411},"geometry":{"x":167059.02000000048,"y":2546995.2200000007}},{"attributes":{"ID":420437,"DIS_CODE":0,"TOWNNAME":"安南區","LI":"幸福里","LIN":"2鄰","STREET":"國安街","SECT":" ","MAREA":" ","LANE":"２７巷","ALLEY":" ","HOUSE_NO":"４號","E_COORD97":167059.29000000001,"N_COORD97":2546991.4199999999,"ADDRESS":"國安街２７巷４號","OBJECTID":420412},"geometry":{"x":167059.29000000097,"y":2546991.4200000037}},{"attributes":{"ID":420438,"DIS_CODE":0,"TOWNNAME":"安南區","LI":"幸福里","LIN":"2鄰","STREET":"國安街","SECT":" ","MAREA":" ","LANE":"２７巷","ALLEY":" ","HOUSE_NO":"６號","E_COORD97":167060.23999999999,"N_COORD97":2546987.6099999999,"ADDRESS":"國安街２７巷６號","OBJECTID":420413},"geometry":{"x":167060.24000000022,"y":2546987.6100000013}},{"attributes":{"ID":420439,"DIS_CODE":0,"TOWNNAME":"安南區","LI":"幸福里","LIN":"2鄰","STREET":"國安街","SECT":" ","MAREA":" ","LANE":"２７巷","ALLEY":" ","HOUSE_NO":"８號","E_COORD97":167061.06,"N_COORD97":2546983.27,"ADDRESS":"國安街２７巷８號","OBJECTID":420414},"geometry":{"x":167061.05999999959,"y":2546983.2700000014}},{"attributes":{"ID":420440,"DIS_CODE":0,"TOWNNAME":"安南區","LI":"幸福里","LIN":"2鄰","STREET":"國安街","SECT":" ","MAREA":" ","LANE":"４５巷","ALLEY":" ","HOUSE_NO":"１０號","E_COORD97":167018.48999999999,"N_COORD97":2546958.3399999999,"ADDRESS":"國安街４５巷１０號","OBJECTID":420415},"geometry":{"x":167018.49000000209,"y":2546958.3400000017}},{"attributes":{"ID":420441,"DIS_CODE":0,"TOWNNAME":"安南區","LI":"幸福里","LIN":"2鄰","STREET":"國安街","SECT":" ","MAREA":" ","LANE":"４５巷","ALLEY":" ","HOUSE_NO":"１３號","E_COORD97":167044.47,"N_COORD97":2546966.4300000002,"ADDRESS":"國安街４５巷１３號","OBJECTID":420416},"geometry":{"x":167044.46999999974,"y":2546966.4299999997}},{"attributes":{"ID":420442,"DIS_CODE":0,"TOWNNAME":"安南區","LI":"幸福里","LIN":"2鄰","STREET":"國安街","SECT":" ","MAREA":" ","LANE":"４５巷","ALLEY":" ","HOUSE_NO":"１５號","E_COORD97":167044.88,"N_COORD97":2546962.6299999999,"ADDRESS":"國安街４５巷１５號","OBJECTID":420417},"geometry":{"x":167044.88000000082,"y":2546962.6300000008}},{"attributes":{"ID":420443,"DIS_CODE":0,"TOWNNAME":"安南區","LI":"幸福里","LIN":"2鄰","STREET":"國安街","SECT":" ","MAREA":" ","LANE":"４５巷","ALLEY":" ","HOUSE_NO":"１號","E_COORD97":167040.12,"N_COORD97":2546992.0899999999,"ADDRESS":"國安街４５巷１號","OBJECTID":420418},"geometry":{"x":167040.12000000104,"y":2546992.0899999999}},{"attributes":{"ID":420444,"DIS_CODE":0,"TOWNNAME":"安南區","LI":"幸福里","LIN":"2鄰","STREET":"國安街","SECT":" ","MAREA":" ","LANE":"４５巷","ALLEY":" ","HOUSE_NO":"２號","E_COORD97":167014.17000000001,"N_COORD97":2546985.3100000001,"ADDRESS":"國安街４５巷２號","OBJECTID":420419},"geometry":{"x":167014.17000000086,"y":2546985.3100000005}},{"attributes":{"ID":420445,"DIS_CODE":0,"TOWNNAME":"安南區","LI":"幸福里","LIN":"2鄰","STREET":"國安街","SECT":" ","MAREA":" ","LANE":"４５巷","ALLEY":" ","HOUSE_NO":"３號","E_COORD97":167040.26000000001,"N_COORD97":2546987.8900000001,"ADDRESS":"國安街４５巷３號","OBJECTID":420420},"geometry":{"x":167040.26000000071,"y":2546987.8900000006}},{"attributes":{"ID":420446,"DIS_CODE":0,"TOWNNAME":"安南區","LI":"幸福里","LIN":"2鄰","STREET":"國安街","SECT":" ","MAREA":" ","LANE":"４５巷","ALLEY":" ","HOUSE_NO":"５號","E_COORD97":167040.94,"N_COORD97":2546983.1299999999,"ADDRESS":"國安街４５巷５號","OBJECTID":420421},"geometry":{"x":167040.93999999948,"y":2546983.1300000008}},{"attributes":{"ID":420447,"DIS_CODE":0,"TOWNNAME":"安南區","LI":"幸福里","LIN":"2鄰","STREET":"國安街","SECT":" ","MAREA":" ","LANE":"４５巷","ALLEY":" ","HOUSE_NO":"６號","E_COORD97":167016.48999999999,"N_COORD97":2546972.21,"ADDRESS":"國安街４５巷６號","OBJECTID":420422},"geometry":{"x":167016.49000000022,"y":2546972.2100000009}},{"attributes":{"ID":420448,"DIS_CODE":0,"TOWNNAME":"安南區","LI":"幸福里","LIN":"2鄰","STREET":"國安街","SECT":" ","MAREA":" ","LANE":"４５巷","ALLEY":" ","HOUSE_NO":"７號","E_COORD97":167042.29999999999,"N_COORD97":2546979.2000000002,"ADDRESS":"國安街４５巷７號","OBJECTID":420423},"geometry":{"x":167042.29999999981,"y":2546979.2000000011}},{"attributes":{"ID":420449,"DIS_CODE":0,"TOWNNAME":"安南區","LI":"幸福里","LIN":"2鄰","STREET":"國安街","SECT":" ","MAREA":" ","LANE":"４５巷","ALLEY":" ","HOUSE_NO":"９號","E_COORD97":167042.84,"N_COORD97":2546975.9399999999,"ADDRESS":"國安街４５巷９號","OBJECTID":420424},"geometry":{"x":167042.84000000171,"y":2546975.9399999995}},{"attributes":{"ID":420450,"DIS_CODE":0,"TOWNNAME":"安南區","LI":"幸福里","LIN":"2鄰","STREET":"國安街","SECT":" ","MAREA":" ","LANE":"５５巷","ALLEY":" ","HOUSE_NO":"１０號","E_COORD97":166989.59,"N_COORD97":2546964,"ADDRESS":"國安街５５巷１０號","OBJECTID":420425},"geometry":{"x":166989.58999999985,"y":2546964.0000000019}},{"attributes":{"ID":420451,"DIS_CODE":0,"TOWNNAME":"安南區","LI":"幸福里","LIN":"2鄰","STREET":"國安街","SECT":" ","MAREA":" ","LANE":"５５巷","ALLEY":" ","HOUSE_NO":"１２號","E_COORD97":166990.60000000001,"N_COORD97":2546959.9500000002,"ADDRESS":"國安街５５巷１２號","OBJECTID":420426},"geometry":{"x":166990.60000000056,"y":2546959.950000003}},{"attributes":{"ID":420452,"DIS_CODE":0,"TOWNNAME":"安南區","LI":"幸福里","LIN":"2鄰","STREET":"國安街","SECT":" ","MAREA":" ","LANE":"５５巷","ALLEY":" ","HOUSE_NO":"１４號","E_COORD97":166991.39999999999,"N_COORD97":2546955.2400000002,"ADDRESS":"國安街５５巷１４號","OBJECTID":420427},"geometry":{"x":166991.40000000037,"y":2546955.2400000002}},{"attributes":{"ID":420453,"DIS_CODE":0,"TOWNNAME":"安南區","LI":"幸福里","LIN":"2鄰","STREET":"國安街","SECT":" ","MAREA":" ","LANE":"５５巷","ALLEY":" ","HOUSE_NO":"１６號","E_COORD97":166991.60000000001,"N_COORD97":2546950.8399999999,"ADDRESS":"國安街５５巷１６號","OBJECTID":420428},"geometry":{"x":166991.5999999987,"y":2546950.839999998}},{"attributes":{"ID":420454,"DIS_CODE":0,"TOWNNAME":"永康區","LI":"三民里","LIN":"2鄰","STREET":"三民街","SECT":" ","MAREA":" ","LANE":"７９巷","ALLEY":" ","HOUSE_NO":"４號","E_COORD97":172844.25,"N_COORD97":2550295.2799999998,"ADDRESS":"三民街７９巷４號","OBJECTID":420429},"geometry":{"x":172844.25,"y":2550295.2800000012}},{"attributes":{"ID":420455,"DIS_CODE":0,"TOWNNAME":"永康區","LI":"西灣里","LIN":"2鄰","STREET":"大灣五街","SECT":" ","MAREA":" ","LANE":"６９巷","ALLEY":" ","HOUSE_NO":"４３號","E_COORD97":174653.41,"N_COORD97":2545146.4100000001,"ADDRESS":"大灣五街６９巷４３號","OBJECTID":420430},"geometry":{"x":174653.41000000015,"y":2545146.4100000001}},{"attributes":{"ID":420456,"DIS_CODE":0,"TOWNNAME":"永康區","LI":"復興里","LIN":"2鄰","STREET":"復興路","SECT":" ","MAREA":" ","LANE":"４２３巷","ALLEY":" ","HOUSE_NO":"１２６號","E_COORD97":172223.54000000001,"N_COORD97":2543909.4399999999,"ADDRESS":"復興路４２３巷１２６號","OBJECTID":420431},"geometry":{"x":172223.54000000004,"y":2543909.4400000013}},{"attributes":{"ID":420457,"DIS_CODE":0,"TOWNNAME":"永康區","LI":"東橋里","LIN":"2鄰","STREET":"大橋一街","SECT":" ","MAREA":" ","LANE":"３２４巷","ALLEY":" ","HOUSE_NO":"６號","E_COORD97":171316.97,"N_COORD97":2546638.79,"ADDRESS":"大橋一街３２４巷６號","OBJECTID":420432},"geometry":{"x":171316.96999999974,"y":2546638.7900000028}},{"attributes":{"ID":420458,"DIS_CODE":0,"TOWNNAME":"永康區","LI":"二王里","LIN":"2鄰","STREET":"永二街","SECT":" ","MAREA":" ","LANE":"２８８巷","ALLEY":" ","HOUSE_NO":"２１號","E_COORD97":173119.51000000001,"N_COORD97":2546553.1699999999,"ADDRESS":"永二街２８８巷２１號","OBJECTID":420433},"geometry":{"x":173119.51000000071,"y":2546553.1700000018}},{"attributes":{"ID":420459,"DIS_CODE":0,"TOWNNAME":"永康區","LI":"二王里","LIN":"2鄰","STREET":"永二街","SECT":" ","MAREA":" ","LANE":"２８８巷","ALLEY":" ","HOUSE_NO":"２３號","E_COORD97":173124.22,"N_COORD97":2546553.9199999999,"ADDRESS":"永二街２８８巷２３號","OBJECTID":420434},"geometry":{"x":173124.2200000016,"y":2546553.9200000037}},{"attributes":{"ID":420460,"DIS_CODE":0,"TOWNNAME":"永康區","LI":"南灣里","LIN":"4鄰","STREET":"大灣路","SECT":" ","MAREA":" ","LANE":"５３７巷","ALLEY":" ","HOUSE_NO":"９號","E_COORD97":174473.48000000001,"N_COORD97":2544547.5699999998,"ADDRESS":"大灣路５３７巷９號","OBJECTID":420435},"geometry":{"x":174473.48000000045,"y":2544547.5700000022}},{"attributes":{"ID":420461,"DIS_CODE":0,"TOWNNAME":"永康區","LI":"二王里","LIN":"2鄰","STREET":"永二街","SECT":" ","MAREA":" ","LANE":"２６６巷","ALLEY":" ","HOUSE_NO":"５號","E_COORD97":173116.60000000001,"N_COORD97":2546514.6600000001,"ADDRESS":"永二街２６６巷５號","OBJECTID":420436},"geometry":{"x":173116.60000000056,"y":2546514.6600000001}},{"attributes":{"ID":420462,"DIS_CODE":0,"TOWNNAME":"永康區","LI":"二王里","LIN":"2鄰","STREET":"永二街","SECT":" ","MAREA":" ","LANE":"２６６巷","ALLEY":" ","HOUSE_NO":"２號","E_COORD97":173123.01000000001,"N_COORD97":2546505.7400000002,"ADDRESS":"永二街２６６巷２號","OBJECTID":420437},"geometry":{"x":173123.01000000071,"y":2546505.7400000021}},{"attributes":{"ID":420463,"DIS_CODE":0,"TOWNNAME":"永康區","LI":"二王里","LIN":"2鄰","STREET":"永二街","SECT":" ","MAREA":" ","LANE":"２８８巷","ALLEY":" ","HOUSE_NO":"１９號","E_COORD97":173114.03,"N_COORD97":2546553.4199999999,"ADDRESS":"永二街２８８巷１９號","OBJECTID":420438},"geometry":{"x":173114.03000000026,"y":2546553.4199999999}},{"attributes":{"ID":420464,"DIS_CODE":0,"TOWNNAME":"永康區","LI":"勝利里","LIN":"2鄰","STREET":"勝利街","SECT":" ","MAREA":" ","LANE":"２巷","ALLEY":" ","HOUSE_NO":"６３號","E_COORD97":170986.48999999999,"N_COORD97":2544737.5,"ADDRESS":"勝利街２巷６３號","OBJECTID":420439},"geometry":{"x":170986.49000000022,"y":2544737.5000000019}},{"attributes":{"ID":420465,"DIS_CODE":0,"TOWNNAME":"永康區","LI":"二王里","LIN":"2鄰","STREET":"永二街","SECT":" ","MAREA":" ","LANE":"２６６巷","ALLEY":" ","HOUSE_NO":"７號","E_COORD97":173121.59,"N_COORD97":2546515.4100000001,"ADDRESS":"永二街２６６巷７號","OBJECTID":420440},"geometry":{"x":173121.58999999985,"y":2546515.4100000001}},{"attributes":{"ID":420466,"DIS_CODE":0,"TOWNNAME":"永康區","LI":"二王里","LIN":"2鄰","STREET":"永二街","SECT":" ","MAREA":" ","LANE":"２６６巷","ALLEY":" ","HOUSE_NO":"１５號","E_COORD97":173144.54000000001,"N_COORD97":2546517.9100000001,"ADDRESS":"永二街２６６巷１５號","OBJECTID":420441},"geometry":{"x":173144.54000000097,"y":2546517.910000002}},{"attributes":{"ID":420467,"DIS_CODE":0,"TOWNNAME":"永康區","LI":"二王里","LIN":"2鄰","STREET":"永二街","SECT":" ","MAREA":" ","LANE":"２８８巷","ALLEY":" ","HOUSE_NO":"１４號","E_COORD97":173114.09,"N_COORD97":2546542,"ADDRESS":"永二街２８８巷１４號","OBJECTID":420442},"geometry":{"x":173114.09000000078,"y":2546542}},{"attributes":{"ID":420468,"DIS_CODE":0,"TOWNNAME":"永康區","LI":"二王里","LIN":"2鄰","STREET":"永二街","SECT":" ","MAREA":" ","LANE":"２８８巷","ALLEY":" ","HOUSE_NO":"１８號","E_COORD97":173123.73000000001,"N_COORD97":2546543.5,"ADDRESS":"永二街２８８巷１８號","OBJECTID":420443},"geometry":{"x":173123.73000000138,"y":2546543.5000000037}},{"attributes":{"ID":420469,"DIS_CODE":0,"TOWNNAME":"永康區","LI":"二王里","LIN":"2鄰","STREET":"永二街","SECT":" ","MAREA":" ","LANE":"２８８巷","ALLEY":" ","HOUSE_NO":"２４號","E_COORD97":173138.92999999999,"N_COORD97":2546543,"ADDRESS":"永二街２８８巷２４號","OBJECTID":420444},"geometry":{"x":173138.9299999997,"y":2546543}},{"attributes":{"ID":420470,"DIS_CODE":0,"TOWNNAME":"永康區","LI":"二王里","LIN":"2鄰","STREET":"永二街","SECT":" ","MAREA":" ","LANE":"２８８巷","ALLEY":" ","HOUSE_NO":"２６號","E_COORD97":173143.79000000001,"N_COORD97":2546544.75,"ADDRESS":"永二街２８８巷２６號","OBJECTID":420445},"geometry":{"x":173143.79000000004,"y":2546544.7499999981}},{"attributes":{"ID":420471,"DIS_CODE":0,"TOWNNAME":"永康區","LI":"二王里","LIN":"2鄰","STREET":"永二街","SECT":" ","MAREA":" ","LANE":"２８８巷","ALLEY":" ","HOUSE_NO":"３號","E_COORD97":173072.72,"N_COORD97":2546546.9199999999,"ADDRESS":"永二街２８８巷３號","OBJECTID":420446},"geometry":{"x":173072.71999999974,"y":2546546.9199999981}},{"attributes":{"ID":420472,"DIS_CODE":0,"TOWNNAME":"永康區","LI":"二王里","LIN":"2鄰","STREET":"永二街","SECT":" ","MAREA":" ","LANE":"２６６巷","ALLEY":" ","HOUSE_NO":"８號","E_COORD97":173133.85000000001,"N_COORD97":2546503.9900000002,"ADDRESS":"永二街２６６巷８號","OBJECTID":420447},"geometry":{"x":173133.85000000056,"y":2546503.9900000021}},{"attributes":{"ID":420473,"DIS_CODE":0,"TOWNNAME":"永康區","LI":"西勢里","LIN":"2鄰","STREET":"西勢路","SECT":" ","MAREA":" ","LANE":"２６４巷","ALLEY":" ","HOUSE_NO":"３號","E_COORD97":175623.04000000001,"N_COORD97":2546825.29,"ADDRESS":"西勢路２６４巷３號","OBJECTID":420448},"geometry":{"x":175623.04000000097,"y":2546825.2900000028}},{"attributes":{"ID":420474,"DIS_CODE":0,"TOWNNAME":"永康區","LI":"五王里","LIN":"2鄰","STREET":"成功路","SECT":" ","MAREA":" ","LANE":"１３０巷","ALLEY":" ","HOUSE_NO":"１６號","E_COORD97":171510.59,"N_COORD97":2545554.1800000002,"ADDRESS":"成功路１３０巷１６號","OBJECTID":420449},"geometry":{"x":171510.58999999985,"y":2545554.1799999997}},{"attributes":{"ID":420475,"DIS_CODE":0,"TOWNNAME":"永康區","LI":"尚頂里","LIN":"2鄰","STREET":"\u25A0信街","SECT":" ","MAREA":" ","LANE":"１４６巷","ALLEY":" ","HOUSE_NO":"２３號","E_COORD97":171143.45000000001,"N_COORD97":2547755.5899999999,"ADDRESS":"\u25A0信街１４６巷２３號","OBJECTID":420450},"geometry":{"x":171143.45000000112,"y":2547755.5899999999}},{"attributes":{"ID":420476,"DIS_CODE":0,"TOWNNAME":"永康區","LI":"西勢里","LIN":"2鄰","STREET":"富強路","SECT":"二段","MAREA":" ","LANE":"１９巷","ALLEY":" ","HOUSE_NO":"２３號","E_COORD97":175607.69,"N_COORD97":2546849.5899999999,"ADDRESS":"富強路二段１９巷２３號","OBJECTID":420451},"geometry":{"x":175607.69000000134,"y":2546849.5899999999}},{"attributes":{"ID":420477,"DIS_CODE":0,"TOWNNAME":"永康區","LI":"二王里","LIN":"2鄰","STREET":"永二街","SECT":" ","MAREA":" ","LANE":"２８８巷","ALLEY":" ","HOUSE_NO":"７號","E_COORD97":173083.88,"N_COORD97":2546548.6699999999,"ADDRESS":"永二街２８８巷７號","OBJECTID":420452},"geometry":{"x":173083.87999999989,"y":2546548.6699999981}},{"attributes":{"ID":420478,"DIS_CODE":0,"TOWNNAME":"永康區","LI":"二王里","LIN":"2鄰","STREET":"永二街","SECT":" ","MAREA":" ","LANE":"２８８巷","ALLEY":" ","HOUSE_NO":"２２號","E_COORD97":173133.73000000001,"N_COORD97":2546545.25,"ADDRESS":"永二街２８８巷２２號","OBJECTID":420453},"geometry":{"x":173133.73000000138,"y":2546545.2500000037}},{"attributes":{"ID":420479,"DIS_CODE":0,"TOWNNAME":"六甲區","LI":"中社里","LIN":"15鄰","STREET":" ","SECT":" ","MAREA":"港子頭","LANE":" ","ALLEY":" ","HOUSE_NO":"６７號","E_COORD97":180831.41052199999,"N_COORD97":2570978.64225,"ADDRESS":"港子頭６７號","OBJECTID":420454},"geometry":{"x":180831.4105220018,"y":2570978.6422550026}},{"attributes":{"ID":420480,"DIS_CODE":0,"TOWNNAME":"永康區","LI":"二王里","LIN":"2鄰","STREET":"永二街","SECT":" ","MAREA":" ","LANE":"２８８巷","ALLEY":" ","HOUSE_NO":"１７號","E_COORD97":173109.38,"N_COORD97":2546551.6699999999,"ADDRESS":"永二街２８８巷１７號","OBJECTID":420455},"geometry":{"x":173109.37999999989,"y":2546551.6699999999}},{"attributes":{"ID":420481,"DIS_CODE":0,"TOWNNAME":"永康區","LI":"二王里","LIN":"2鄰","STREET":"永二街","SECT":" ","MAREA":" ","LANE":"２８８巷","ALLEY":" ","HOUSE_NO":"２７號","E_COORD97":173133.87,"N_COORD97":2546554.9199999999,"ADDRESS":"永二街２８８巷２７號","OBJECTID":420456},"geometry":{"x":173133.87000000197,"y":2546554.9200000018}},{"attributes":{"ID":420482,"DIS_CODE":0,"TOWNNAME":"永康區","LI":"二王里","LIN":"2鄰","STREET":"永二街","SECT":" ","MAREA":" ","LANE":"２８８巷","ALLEY":" ","HOUSE_NO":"５號","E_COORD97":173079.03,"N_COORD97":2546547.6699999999,"ADDRESS":"永二街２８８巷５號","OBJECTID":420457},"geometry":{"x":173079.03000000119,"y":2546547.6699999999}},{"attributes":{"ID":420483,"DIS_CODE":0,"TOWNNAME":"永康區","LI":"三民里","LIN":"2鄰","STREET":"三民街","SECT":" ","MAREA":" ","LANE":"７９巷","ALLEY":" ","HOUSE_NO":"６號之１","E_COORD97":172844.48000000001,"N_COORD97":2550286.7999999998,"ADDRESS":"三民街７９巷６號之１","OBJECTID":420458},"geometry":{"x":172844.48000000045,"y":2550286.8000000007}},{"attributes":{"ID":420484,"DIS_CODE":0,"TOWNNAME":"永康區","LI":"二王里","LIN":"2鄰","STREET":"永二街","SECT":" ","MAREA":" ","LANE":"２６６巷","ALLEY":" ","HOUSE_NO":"６號","E_COORD97":173128.56,"N_COORD97":2546504.9900000002,"ADDRESS":"永二街２６６巷６號","OBJECTID":420459},"geometry":{"x":173128.56000000145,"y":2546504.9900000002}},{"attributes":{"ID":420485,"DIS_CODE":0,"TOWNNAME":"安南區","LI":"溪頂里","LIN":"2鄰","STREET":"府安路","SECT":"四段","MAREA":" ","LANE":"９１巷","ALLEY":" ","HOUSE_NO":"１９號","E_COORD97":169086.01999999999,"N_COORD97":2547340.2599999998,"ADDRESS":"府安路四段９１巷１９號","OBJECTID":420460},"geometry":{"x":169086.02000000048,"y":2547340.2599999998}},{"attributes":{"ID":420486,"DIS_CODE":0,"TOWNNAME":"麻豆區","LI":"興農里","LIN":"2鄰","STREET":"中興街","SECT":" ","MAREA":" ","LANE":"２５５巷","ALLEY":" ","HOUSE_NO":"１號","E_COORD97":172476.97,"N_COORD97":2564515.2000000002,"ADDRESS":"中興街２５５巷１號","OBJECTID":420461},"geometry":{"x":172476.97000000067,"y":2564515.2000000011}},{"attributes":{"ID":420487,"DIS_CODE":0,"TOWNNAME":"麻豆區","LI":"興農里","LIN":"2鄰","STREET":"中興街","SECT":" ","MAREA":" ","LANE":"２５５巷","ALLEY":" ","HOUSE_NO":"３號","E_COORD97":172475.04000000001,"N_COORD97":2564506.3599999999,"ADDRESS":"中興街２５５巷３號","OBJECTID":420462},"geometry":{"x":172475.04000000097,"y":2564506.3600000013}},{"attributes":{"ID":420488,"DIS_CODE":0,"TOWNNAME":"麻豆區","LI":"興農里","LIN":"2鄰","STREET":"中興街","SECT":" ","MAREA":" ","LANE":"２５５巷","ALLEY":" ","HOUSE_NO":"５號","E_COORD97":172506.14000000001,"N_COORD97":2564506.6299999999,"ADDRESS":"中興街２５５巷５號","OBJECTID":420463},"geometry":{"x":172506.1400000006,"y":2564506.629999999}},{"attributes":{"ID":420489,"DIS_CODE":0,"TOWNNAME":"麻豆區","LI":"中興里","LIN":"2鄰","STREET":"中華街","SECT":" ","MAREA":" ","LANE":"３４巷","ALLEY":" ","HOUSE_NO":"５號之３","E_COORD97":172842.54000000001,"N_COORD97":2564657.8300000001,"ADDRESS":"中華街３４巷５號之３","OBJECTID":420464},"geometry":{"x":172842.53999999911,"y":2564657.8300000001}},{"attributes":{"ID":420490,"DIS_CODE":0,"TOWNNAME":"麻豆區","LI":"中興里","LIN":"2鄰","STREET":"中華街","SECT":" ","MAREA":" ","LANE":"３４巷","ALLEY":" ","HOUSE_NO":"５號之４","E_COORD97":172846.25,"N_COORD97":2564657.8399999999,"ADDRESS":"中華街３４巷５號之４","OBJECTID":420465},"geometry":{"x":172846.25000000186,"y":2564657.8399999999}},{"attributes":{"ID":420491,"DIS_CODE":0,"TOWNNAME":"麻豆區","LI":"中興里","LIN":"2鄰","STREET":"中華街","SECT":" ","MAREA":" ","LANE":"３４巷","ALLEY":" ","HOUSE_NO":"５號之５","E_COORD97":172849.63,"N_COORD97":2564659.0099999998,"ADDRESS":"中華街３４巷５號之５","OBJECTID":420466},"geometry":{"x":172849.62999999989,"y":2564659.0100000016}},{"attributes":{"ID":420492,"DIS_CODE":0,"TOWNNAME":"麻豆區","LI":"中興里","LIN":"2鄰","STREET":"中華街","SECT":" ","MAREA":" ","LANE":"３４巷","ALLEY":" ","HOUSE_NO":"５號之６","E_COORD97":172853.07000000001,"N_COORD97":2564660,"ADDRESS":"中華街３４巷５號之６","OBJECTID":420467},"geometry":{"x":172853.07000000123,"y":2564660}},{"attributes":{"ID":420493,"DIS_CODE":0,"TOWNNAME":"麻豆區","LI":"中興里","LIN":"2鄰","STREET":"中華街","SECT":" ","MAREA":" ","LANE":"３４巷","ALLEY":" ","HOUSE_NO":"５號之７","E_COORD97":172856.70999999999,"N_COORD97":2564660.3999999999,"ADDRESS":"中華街３４巷５號之７","OBJECTID":420468},"geometry":{"x":172856.71000000183,"y":2564660.4000000022}},{"attributes":{"ID":420494,"DIS_CODE":0,"TOWNNAME":"麻豆區","LI":"中興里","LIN":"2鄰","STREET":"中華街","SECT":" ","MAREA":" ","LANE":"３４巷","ALLEY":" ","HOUSE_NO":"５號之８","E_COORD97":172860.69,"N_COORD97":2564662.6200000001,"ADDRESS":"中華街３４巷５號之８","OBJECTID":420469},"geometry":{"x":172860.69000000227,"y":2564662.6200000029}},{"attributes":{"ID":420495,"DIS_CODE":0,"TOWNNAME":"麻豆區","LI":"中興里","LIN":"2鄰","STREET":"中華街","SECT":" ","MAREA":" ","LANE":"３４巷","ALLEY":" ","HOUSE_NO":"７號","E_COORD97":172814.42999999999,"N_COORD97":2564653.7400000002,"ADDRESS":"中華街３４巷７號","OBJECTID":420470},"geometry":{"x":172814.43000000063,"y":2564653.7400000021}},{"attributes":{"ID":420496,"DIS_CODE":0,"TOWNNAME":"麻豆區","LI":"中興里","LIN":"2鄰","STREET":"中華街","SECT":" ","MAREA":" ","LANE":"３４巷","ALLEY":" ","HOUSE_NO":"９號","E_COORD97":172803.95999999999,"N_COORD97":2564653.4100000001,"ADDRESS":"中華街３４巷９號","OBJECTID":420471},"geometry":{"x":172803.95999999996,"y":2564653.410000002}},{"attributes":{"ID":420497,"DIS_CODE":0,"TOWNNAME":"永康區","LI":"南灣里","LIN":"28鄰","STREET":"立興街","SECT":" ","MAREA":" ","LANE":"６４巷","ALLEY":" ","HOUSE_NO":"８號","E_COORD97":174541.92999999999,"N_COORD97":2544876.2799999998,"ADDRESS":"立興街６４巷８號","OBJECTID":420472},"geometry":{"x":174541.93000000063,"y":2544876.2800000031}},{"attributes":{"ID":420498,"DIS_CODE":0,"TOWNNAME":"新市區","LI":"港墘里","LIN":"2鄰","STREET":"三民街","SECT":" ","MAREA":" ","LANE":"１０巷","ALLEY":" ","HOUSE_NO":"２５號","E_COORD97":178573.48000000001,"N_COORD97":2553456.79,"ADDRESS":"三民街１０巷２５號","OBJECTID":420473},"geometry":{"x":178573.48000000138,"y":2553456.7900000028}},{"attributes":{"ID":420499,"DIS_CODE":0,"TOWNNAME":"麻豆區","LI":"興農里","LIN":"2鄰","STREET":"仁愛路","SECT":" ","MAREA":" ","LANE":"２９巷","ALLEY":" ","HOUSE_NO":"１０號","E_COORD97":172497.39999999999,"N_COORD97":2564611.6200000001,"ADDRESS":"仁愛路２９巷１０號","OBJECTID":420474},"geometry":{"x":172497.40000000037,"y":2564611.6200000029}},{"attributes":{"ID":420500,"DIS_CODE":0,"TOWNNAME":"麻豆區","LI":"興農里","LIN":"2鄰","STREET":"仁愛路","SECT":" ","MAREA":" ","LANE":"２９巷","ALLEY":" ","HOUSE_NO":"１４號之１","E_COORD97":172509.19,"N_COORD97":2564598.29,"ADDRESS":"仁愛路２９巷１４號之１","OBJECTID":420475},"geometry":{"x":172509.19000000041,"y":2564598.290000001}},{"attributes":{"ID":420501,"DIS_CODE":0,"TOWNNAME":"麻豆區","LI":"興農里","LIN":"2鄰","STREET":"仁愛路","SECT":" ","MAREA":" ","LANE":"２９巷","ALLEY":" ","HOUSE_NO":"１４號之２","E_COORD97":172498.47,"N_COORD97":2564576.9900000002,"ADDRESS":"仁愛路２９巷１４號之２","OBJECTID":420476},"geometry":{"x":172498.46999999974,"y":2564576.9900000039}},{"attributes":{"ID":420502,"DIS_CODE":0,"TOWNNAME":"麻豆區","LI":"興農里","LIN":"2鄰","STREET":"仁愛路","SECT":" ","MAREA":" ","LANE":"２９巷","ALLEY":" ","HOUSE_NO":"１４號之３","E_COORD97":172502.54999999999,"N_COORD97":2564565.46,"ADDRESS":"仁愛路２９巷１４號之３","OBJECTID":420477},"geometry":{"x":172502.54999999981,"y":2564565.4600000028}},{"attributes":{"ID":420503,"DIS_CODE":0,"TOWNNAME":"麻豆區","LI":"興農里","LIN":"2鄰","STREET":"仁愛路","SECT":" ","MAREA":" ","LANE":"２９巷","ALLEY":" ","HOUSE_NO":"１４號之７","E_COORD97":172537.20000000001,"N_COORD97":2564578.5600000001,"ADDRESS":"仁愛路２９巷１４號之７","OBJECTID":420478},"geometry":{"x":172537.20000000112,"y":2564578.5600000024}},{"attributes":{"ID":420504,"DIS_CODE":0,"TOWNNAME":"麻豆區","LI":"興農里","LIN":"2鄰","STREET":"仁愛路","SECT":" ","MAREA":" ","LANE":"２９巷","ALLEY":" ","HOUSE_NO":"１４號之９","E_COORD97":172535.73000000001,"N_COORD97":2564586.6699999999,"ADDRESS":"仁愛路２９巷１４號之９","OBJECTID":420479},"geometry":{"x":172535.73000000138,"y":2564586.6700000018}},{"attributes":{"ID":420505,"DIS_CODE":0,"TOWNNAME":"麻豆區","LI":"興農里","LIN":"2鄰","STREET":"仁愛路","SECT":" ","MAREA":" ","LANE":"２９巷","ALLEY":" ","HOUSE_NO":"１４號","E_COORD97":172523.19,"N_COORD97":2564577.1899999999,"ADDRESS":"仁愛路２９巷１４號","OBJECTID":420480},"geometry":{"x":172523.18999999948,"y":2564577.1899999995}},{"attributes":{"ID":420506,"DIS_CODE":0,"TOWNNAME":"麻豆區","LI":"興農里","LIN":"2鄰","STREET":"仁愛路","SECT":" ","MAREA":" ","LANE":"２９巷","ALLEY":" ","HOUSE_NO":"２４號之１","E_COORD97":172542.12,"N_COORD97":2564522.9500000002,"ADDRESS":"仁愛路２９巷２４號之１","OBJECTID":420481},"geometry":{"x":172542.12000000197,"y":2564522.9500000011}},{"attributes":{"ID":420507,"DIS_CODE":0,"TOWNNAME":"麻豆區","LI":"興農里","LIN":"2鄰","STREET":"仁愛路","SECT":" ","MAREA":" ","LANE":"２９巷","ALLEY":" ","HOUSE_NO":"２４號","E_COORD97":172521.44,"N_COORD97":2564523.3900000001,"ADDRESS":"仁愛路２９巷２４號","OBJECTID":420482},"geometry":{"x":172521.44000000041,"y":2564523.3900000006}},{"attributes":{"ID":420508,"DIS_CODE":0,"TOWNNAME":"麻豆區","LI":"興農里","LIN":"2鄰","STREET":"仁愛路","SECT":" ","MAREA":" ","LANE":"２９巷","ALLEY":" ","HOUSE_NO":"２６號","E_COORD97":172537.66,"N_COORD97":2564506.8700000001,"ADDRESS":"仁愛路２９巷２６號","OBJECTID":420483},"geometry":{"x":172537.66000000015,"y":2564506.870000001}},{"attributes":{"ID":420509,"DIS_CODE":0,"TOWNNAME":"麻豆區","LI":"興農里","LIN":"2鄰","STREET":"仁愛路","SECT":" ","MAREA":" ","LANE":"２９巷","ALLEY":" ","HOUSE_NO":"２８號","E_COORD97":172519.95999999999,"N_COORD97":2564504.0499999998,"ADDRESS":"仁愛路２９巷２８號","OBJECTID":420484},"geometry":{"x":172519.96000000089,"y":2564504.0500000026}},{"attributes":{"ID":420510,"DIS_CODE":0,"TOWNNAME":"麻豆區","LI":"興農里","LIN":"2鄰","STREET":"仁愛路","SECT":" ","MAREA":" ","LANE":"２９巷","ALLEY":" ","HOUSE_NO":"３４號","E_COORD97":172518.09,"N_COORD97":2564470.48,"ADDRESS":"仁愛路２９巷３４號","OBJECTID":420485},"geometry":{"x":172518.08999999985,"y":2564470.4800000023}},{"attributes":{"ID":420511,"DIS_CODE":0,"TOWNNAME":"永康區","LI":"東灣里","LIN":"30鄰","STREET":"大灣一街","SECT":" ","MAREA":" ","LANE":"３６０巷","ALLEY":" ","HOUSE_NO":"１５號","E_COORD97":175199.17999999999,"N_COORD97":2544769.1099999999,"ADDRESS":"大灣一街３６０巷１５號","OBJECTID":420486},"geometry":{"x":175199.1799999997,"y":2544769.1100000013}},{"attributes":{"ID":420512,"DIS_CODE":0,"TOWNNAME":"永康區","LI":"建國里","LIN":"30鄰","STREET":"復興路","SECT":" ","MAREA":" ","LANE":"７１巷","ALLEY":" ","HOUSE_NO":"１０２號","E_COORD97":172815.64000000001,"N_COORD97":2543711.7000000002,"ADDRESS":"復興路７１巷１０２號","OBJECTID":420487},"geometry":{"x":172815.63999999966,"y":2543711.7000000011}},{"attributes":{"ID":420513,"DIS_CODE":0,"TOWNNAME":"永康區","LI":"東灣里","LIN":"2鄰","STREET":"大灣路","SECT":" ","MAREA":" ","LANE":"４３６巷","ALLEY":" ","HOUSE_NO":"３９號．號","E_COORD97":174646.12,"N_COORD97":2544959.5,"ADDRESS":"大灣路４３６巷３９號．號","OBJECTID":420488},"geometry":{"x":174646.12000000104,"y":2544959.5}},{"attributes":{"ID":420514,"DIS_CODE":0,"TOWNNAME":"永康區","LI":"東灣里","LIN":"5鄰","STREET":"大灣路","SECT":" ","MAREA":" ","LANE":"４３６巷","ALLEY":" ","HOUSE_NO":"３２號","E_COORD97":174689.48000000001,"N_COORD97":2544969.21,"ADDRESS":"大灣路４３６巷３２號","OBJECTID":420489},"geometry":{"x":174689.48000000231,"y":2544969.2100000009}},{"attributes":{"ID":420515,"DIS_CODE":0,"TOWNNAME":"永康區","LI":"南灣里","LIN":"13鄰","STREET":"大灣路","SECT":" ","MAREA":" ","LANE":"５５４巷","ALLEY":" ","HOUSE_NO":"２號","E_COORD97":174648.09,"N_COORD97":2544771.98,"ADDRESS":"大灣路５５４巷２號","OBJECTID":420490},"geometry":{"x":174648.09000000078,"y":2544771.9800000023}},{"attributes":{"ID":420516,"DIS_CODE":0,"TOWNNAME":"永康區","LI":"東灣里","LIN":"30鄰","STREET":"民族路","SECT":" ","MAREA":" ","LANE":"１４５巷","ALLEY":" ","HOUSE_NO":"５３號","E_COORD97":175199.47,"N_COORD97":2544730.79,"ADDRESS":"民族路１４５巷５３號","OBJECTID":420491},"geometry":{"x":175199.47000000067,"y":2544730.790000001}},{"attributes":{"ID":420517,"DIS_CODE":0,"TOWNNAME":"永康區","LI":"南灣里","LIN":"7鄰","STREET":"南興路","SECT":" ","MAREA":" ","LANE":"１１２巷","ALLEY":" ","HOUSE_NO":"４號","E_COORD97":174352.81,"N_COORD97":2544441,"ADDRESS":"南興路１１２巷４號","OBJECTID":420492},"geometry":{"x":174352.81000000052,"y":2544440.9999999981}},{"attributes":{"ID":420518,"DIS_CODE":0,"TOWNNAME":"永康區","LI":"東橋里","LIN":"24鄰","STREET":"中正路","SECT":" ","MAREA":" ","LANE":"２１７巷","ALLEY":" ","HOUSE_NO":"２號","E_COORD97":173020.23999999999,"N_COORD97":2547905.5,"ADDRESS":"中正路２１７巷２號","OBJECTID":420493},"geometry":{"x":173020.24000000115,"y":2547905.5}},{"attributes":{"ID":420519,"DIS_CODE":0,"TOWNNAME":"永康區","LI":"南灣里","LIN":"10鄰","STREET":"大灣東路","SECT":" ","MAREA":" ","LANE":"２２巷","ALLEY":" ","HOUSE_NO":"６２號","E_COORD97":173915.67000000001,"N_COORD97":2544035.75,"ADDRESS":"大灣東路２２巷６２號","OBJECTID":420494},"geometry":{"x":173915.66999999993,"y":2544035.75}},{"attributes":{"ID":420520,"DIS_CODE":0,"TOWNNAME":"中西區","LI":"建國里","LIN":"2鄰","STREET":"中正路","SECT":" ","MAREA":" ","LANE":"１０８巷","ALLEY":" ","HOUSE_NO":"１０號","E_COORD97":168009.87,"N_COORD97":2543730.3799999999,"ADDRESS":"中正路１０８巷１０號","OBJECTID":420495},"geometry":{"x":168009.87000000104,"y":2543730.3800000008}},{"attributes":{"ID":420521,"DIS_CODE":0,"TOWNNAME":"中西區","LI":"建國里","LIN":"2鄰","STREET":"中正路","SECT":" ","MAREA":" ","LANE":"１０８巷","ALLEY":" ","HOUSE_NO":"１２號","E_COORD97":168011.60000000001,"N_COORD97":2543734.6400000001,"ADDRESS":"中正路１０８巷１２號","OBJECTID":420496},"geometry":{"x":168011.59999999963,"y":2543734.6400000006}},{"attributes":{"ID":420522,"DIS_CODE":0,"TOWNNAME":"中西區","LI":"建國里","LIN":"2鄰","STREET":"中正路","SECT":" ","MAREA":" ","LANE":"１０８巷","ALLEY":" ","HOUSE_NO":"１３號","E_COORD97":167995.29999999999,"N_COORD97":2543728.21,"ADDRESS":"中正路１０８巷１３號","OBJECTID":420497},"geometry":{"x":167995.29999999981,"y":2543728.2100000009}},{"attributes":{"ID":420523,"DIS_CODE":0,"TOWNNAME":"中西區","LI":"建國里","LIN":"2鄰","STREET":"中正路","SECT":" ","MAREA":" ","LANE":"１０８巷","ALLEY":" ","HOUSE_NO":"１５號","E_COORD97":167996.20000000001,"N_COORD97":2543732.21,"ADDRESS":"中正路１０８巷１５號","OBJECTID":420498},"geometry":{"x":167996.20000000019,"y":2543732.2100000046}},{"attributes":{"ID":420524,"DIS_CODE":0,"TOWNNAME":"中西區","LI":"建國里","LIN":"2鄰","STREET":"中正路","SECT":" ","MAREA":" ","LANE":"１０８巷","ALLEY":" ","HOUSE_NO":"１７號","E_COORD97":168002.20000000001,"N_COORD97":2543734.8399999999,"ADDRESS":"中正路１０８巷１７號","OBJECTID":420499},"geometry":{"x":168002.20000000112,"y":2543734.8400000017}},{"attributes":{"ID":420525,"DIS_CODE":0,"TOWNNAME":"中西區","LI":"建國里","LIN":"2鄰","STREET":"中正路","SECT":" ","MAREA":" ","LANE":"１０８巷","ALLEY":" ","HOUSE_NO":"５號","E_COORD97":167994.79999999999,"N_COORD97":2543708.23,"ADDRESS":"中正路１０８巷５號","OBJECTID":420500},"geometry":{"x":167994.80000000075,"y":2543708.2300000023}},{"attributes":{"ID":420526,"DIS_CODE":0,"TOWNNAME":"中西區","LI":"建國里","LIN":"2鄰","STREET":"中正路","SECT":" ","MAREA":" ","LANE":"１０８巷","ALLEY":" ","HOUSE_NO":"７號","E_COORD97":167993.5,"N_COORD97":2543715.4199999999,"ADDRESS":"中正路１０８巷７號","OBJECTID":420501},"geometry":{"x":167993.50000000093,"y":2543715.4199999999}},{"attributes":{"ID":420527,"DIS_CODE":0,"TOWNNAME":"中西區","LI":"建國里","LIN":"2鄰","STREET":"中正路","SECT":" ","MAREA":" ","LANE":"１０８巷","ALLEY":" ","HOUSE_NO":"９號","E_COORD97":167996.89999999999,"N_COORD97":2543719.1200000001,"ADDRESS":"中正路１０８巷９號","OBJECTID":420502},"geometry":{"x":167996.90000000037,"y":2543719.120000001}},{"attributes":{"ID":420528,"DIS_CODE":0,"TOWNNAME":"中西區","LI":"建國里","LIN":"2鄰","STREET":"民生路","SECT":"一段","MAREA":" ","LANE":"１５７巷","ALLEY":" ","HOUSE_NO":"３５號","E_COORD97":167987.70000000001,"N_COORD97":2543751.9300000002,"ADDRESS":"民生路一段１５７巷３５號","OBJECTID":420503},"geometry":{"x":167987.70000000019,"y":2543751.9299999997}},{"attributes":{"ID":420529,"DIS_CODE":0,"TOWNNAME":"中西區","LI":"建國里","LIN":"2鄰","STREET":"民生路","SECT":"一段","MAREA":" ","LANE":"１５７巷","ALLEY":" ","HOUSE_NO":"３７號","E_COORD97":167986.60000000001,"N_COORD97":2543747.73,"ADDRESS":"民生路一段１５７巷３７號","OBJECTID":420504},"geometry":{"x":167986.59999999963,"y":2543747.7300000004}},{"attributes":{"ID":420530,"DIS_CODE":0,"TOWNNAME":"中西區","LI":"建國里","LIN":"2鄰","STREET":"民生路","SECT":"一段","MAREA":" ","LANE":"１５７巷","ALLEY":" ","HOUSE_NO":"３９號","E_COORD97":167983.29999999999,"N_COORD97":2543744.0299999998,"ADDRESS":"民生路一段１５７巷３９號","OBJECTID":420505},"geometry":{"x":167983.29999999981,"y":2543744.0299999993}},{"attributes":{"ID":420531,"DIS_CODE":0,"TOWNNAME":"中西區","LI":"建國里","LIN":"2鄰","STREET":"民生路","SECT":"一段","MAREA":" ","LANE":"１５７巷","ALLEY":" ","HOUSE_NO":"３９號之１","E_COORD97":167982.39999999999,"N_COORD97":2543740.2400000002,"ADDRESS":"民生路一段１５７巷３９號之１","OBJECTID":420506},"geometry":{"x":167982.4000000013,"y":2543740.2400000002}},{"attributes":{"ID":420532,"DIS_CODE":0,"TOWNNAME":"中西區","LI":"建國里","LIN":"2鄰","STREET":"民生路","SECT":"一段","MAREA":" ","LANE":"１５７巷","ALLEY":" ","HOUSE_NO":"３９號之２","E_COORD97":167980.89999999999,"N_COORD97":2543736.3399999999,"ADDRESS":"民生路一段１５７巷３９號之２","OBJECTID":420507},"geometry":{"x":167980.9000000013,"y":2543736.3399999999}},{"attributes":{"ID":420533,"DIS_CODE":0,"TOWNNAME":"中西區","LI":"建國里","LIN":"2鄰","STREET":"民生路","SECT":"一段","MAREA":" ","LANE":"１５７巷","ALLEY":" ","HOUSE_NO":"４１號之１","E_COORD97":167978.60000000001,"N_COORD97":2543729.75,"ADDRESS":"民生路一段１５７巷４１號之１","OBJECTID":420508},"geometry":{"x":167978.60000000056,"y":2543729.75}},{"attributes":{"ID":420534,"DIS_CODE":0,"TOWNNAME":"中西區","LI":"建國里","LIN":"2鄰","STREET":"民生路","SECT":"一段","MAREA":" ","LANE":"１５７巷","ALLEY":" ","HOUSE_NO":"４１號之２","E_COORD97":167977.89999999999,"N_COORD97":2543726.0499999998,"ADDRESS":"民生路一段１５７巷４１號之２","OBJECTID":420509},"geometry":{"x":167977.90000000037,"y":2543726.0500000007}},{"attributes":{"ID":420535,"DIS_CODE":0,"TOWNNAME":"中西區","LI":"建國里","LIN":"2鄰","STREET":"民生路","SECT":"一段","MAREA":" ","LANE":"１５７巷","ALLEY":" ","HOUSE_NO":"４３號","E_COORD97":167973.98999999999,"N_COORD97":2543721.52,"ADDRESS":"民生路一段１５７巷４３號","OBJECTID":420510},"geometry":{"x":167973.99000000022,"y":2543721.5199999996}},{"attributes":{"ID":420536,"DIS_CODE":0,"TOWNNAME":"中西區","LI":"建國里","LIN":"2鄰","STREET":"民生路","SECT":"一段","MAREA":" ","LANE":"１５７巷","ALLEY":" ","HOUSE_NO":"４５號","E_COORD97":167973.29000000001,"N_COORD97":2543714.52,"ADDRESS":"民生路一段１５７巷４５號","OBJECTID":420511},"geometry":{"x":167973.29000000004,"y":2543714.5199999996}},{"attributes":{"ID":420537,"DIS_CODE":0,"TOWNNAME":"中西區","LI":"建國里","LIN":"2鄰","STREET":"永福路","SECT":"二段","MAREA":" ","LANE":"８１巷","ALLEY":" ","HOUSE_NO":"１１號","E_COORD97":168022.29999999999,"N_COORD97":2543734.4700000002,"ADDRESS":"永福路二段８１巷１１號","OBJECTID":420512},"geometry":{"x":168022.29999999981,"y":2543734.4700000025}},{"attributes":{"ID":420538,"DIS_CODE":0,"TOWNNAME":"中西區","LI":"建國里","LIN":"2鄰","STREET":"永福路","SECT":"二段","MAREA":" ","LANE":"８１巷","ALLEY":" ","HOUSE_NO":"１３號","E_COORD97":168016.89000000001,"N_COORD97":2543727.6099999999,"ADDRESS":"永福路二段８１巷１３號","OBJECTID":420513},"geometry":{"x":168016.88999999966,"y":2543727.6099999994}},{"attributes":{"ID":420539,"DIS_CODE":0,"TOWNNAME":"中西區","LI":"建國里","LIN":"2鄰","STREET":"永福路","SECT":"二段","MAREA":" ","LANE":"８１巷","ALLEY":" ","HOUSE_NO":"１５號","E_COORD97":168016.41,"N_COORD97":2543733.8399999999,"ADDRESS":"永福路二段８１巷１５號","OBJECTID":420514},"geometry":{"x":168016.41000000108,"y":2543733.8400000036}},{"attributes":{"ID":420540,"DIS_CODE":0,"TOWNNAME":"中西區","LI":"建國里","LIN":"2鄰","STREET":"永福路","SECT":"二段","MAREA":" ","LANE":"８１巷","ALLEY":" ","HOUSE_NO":"１號","E_COORD97":168046.69,"N_COORD97":2543707.8700000001,"ADDRESS":"永福路二段８１巷１號","OBJECTID":420515},"geometry":{"x":168046.69000000134,"y":2543707.8700000029}},{"attributes":{"ID":420541,"DIS_CODE":0,"TOWNNAME":"中西區","LI":"建國里","LIN":"2鄰","STREET":"永福路","SECT":"二段","MAREA":" ","LANE":"８１巷","ALLEY":" ","HOUSE_NO":"７號","E_COORD97":168030.14000000001,"N_COORD97":2543725.2000000002,"ADDRESS":"永福路二段８１巷７號","OBJECTID":420516},"geometry":{"x":168030.13999999966,"y":2543725.2000000011}},{"attributes":{"ID":420542,"DIS_CODE":0,"TOWNNAME":"中西區","LI":"建國里","LIN":"2鄰","STREET":"永福路","SECT":"二段","MAREA":" ","LANE":"８１巷","ALLEY":" ","HOUSE_NO":"９號","E_COORD97":168031.89000000001,"N_COORD97":2543734.1099999999,"ADDRESS":"永福路二段８１巷９號","OBJECTID":420517},"geometry":{"x":168031.88999999966,"y":2543734.1099999994}},{"attributes":{"ID":420543,"DIS_CODE":0,"TOWNNAME":"中西區","LI":"永華里","LIN":"2鄰","STREET":"府前路","SECT":"一段","MAREA":" ","LANE":"１９６巷","ALLEY":" ","HOUSE_NO":"６號","E_COORD97":168537.59,"N_COORD97":2543317.3300000001,"ADDRESS":"府前路一段１９６巷６號","OBJECTID":420518},"geometry":{"x":168537.58999999985,"y":2543317.3300000019}},{"attributes":{"ID":420544,"DIS_CODE":0,"TOWNNAME":"中西區","LI":"永華里","LIN":"2鄰","STREET":"府前路","SECT":"一段","MAREA":" ","LANE":"１９６巷","ALLEY":" ","HOUSE_NO":"８號","E_COORD97":168536.17999999999,"N_COORD97":2543324.52,"ADDRESS":"府前路一段１９６巷８號","OBJECTID":420519},"geometry":{"x":168536.18000000063,"y":2543324.5199999996}},{"attributes":{"ID":420545,"DIS_CODE":0,"TOWNNAME":"中西區","LI":"永華里","LIN":"2鄰","STREET":"開山路","SECT":" ","MAREA":" ","LANE":"１２２巷","ALLEY":" ","HOUSE_NO":"２５號","E_COORD97":168588.17999999999,"N_COORD97":2543328.6000000001,"ADDRESS":"開山路１２２巷２５號","OBJECTID":420520},"geometry":{"x":168588.18000000156,"y":2543328.6000000015}},{"attributes":{"ID":420546,"DIS_CODE":0,"TOWNNAME":"仁德區","LI":"中生里","LIN":"9鄰","STREET":" ","SECT":" ","MAREA":"中洲","LANE":" ","ALLEY":" ","HOUSE_NO":"１６２號","E_COORD97":173191.948302,"N_COORD97":2534108.5513399998,"ADDRESS":"中洲１６２號","OBJECTID":420521},"geometry":{"x":173191.94830200076,"y":2534108.5513380002}},{"attributes":{"ID":420547,"DIS_CODE":0,"TOWNNAME":"中西區","LI":"永華里","LIN":"2鄰","STREET":"開山路","SECT":" ","MAREA":" ","LANE":"１２２巷","ALLEY":" ","HOUSE_NO":"２７號","E_COORD97":168582.76000000001,"N_COORD97":2543329.79,"ADDRESS":"開山路１２２巷２７號","OBJECTID":420522},"geometry":{"x":168582.76000000071,"y":2543329.7900000028}},{"attributes":{"ID":420548,"DIS_CODE":0,"TOWNNAME":"中西區","LI":"永華里","LIN":"2鄰","STREET":"開山路","SECT":" ","MAREA":" ","LANE":"１２２巷","ALLEY":" ","HOUSE_NO":"２７號之１","E_COORD97":168573.10999999999,"N_COORD97":2543332.75,"ADDRESS":"開山路１２２巷２７號之１","OBJECTID":420523},"geometry":{"x":168573.11000000127,"y":2543332.75}},{"attributes":{"ID":420549,"DIS_CODE":0,"TOWNNAME":"中西區","LI":"永華里","LIN":"2鄰","STREET":"開山路","SECT":" ","MAREA":" ","LANE":"１２２巷","ALLEY":" ","HOUSE_NO":"２９號","E_COORD97":168566.06,"N_COORD97":2543333.9399999999,"ADDRESS":"開山路１２２巷２９號","OBJECTID":420524},"geometry":{"x":168566.05999999959,"y":2543333.9400000013}},{"attributes":{"ID":420550,"DIS_CODE":0,"TOWNNAME":"中西區","LI":"永華里","LIN":"2鄰","STREET":"開山路","SECT":" ","MAREA":" ","LANE":"１２２巷","ALLEY":" ","HOUSE_NO":"３１號","E_COORD97":168561.89999999999,"N_COORD97":2543334.0899999999,"ADDRESS":"開山路１２２巷３１號","OBJECTID":420525},"geometry":{"x":168561.90000000224,"y":2543334.0899999999}},{"attributes":{"ID":420551,"DIS_CODE":0,"TOWNNAME":"中西區","LI":"永華里","LIN":"2鄰","STREET":"開山路","SECT":" ","MAREA":" ","LANE":"１２２巷","ALLEY":" ","HOUSE_NO":"３３號","E_COORD97":168556.67000000001,"N_COORD97":2543334.75,"ADDRESS":"開山路１２２巷３３號","OBJECTID":420526},"geometry":{"x":168556.67000000086,"y":2543334.7500000019}},{"attributes":{"ID":420552,"DIS_CODE":0,"TOWNNAME":"中西區","LI":"永華里","LIN":"2鄰","STREET":"開山路","SECT":" ","MAREA":" ","LANE":"１２２巷","ALLEY":" ","HOUSE_NO":"３７號","E_COORD97":168544.87,"N_COORD97":2543334.3100000001,"ADDRESS":"開山路１２２巷３７號","OBJECTID":420527},"geometry":{"x":168544.87000000197,"y":2543334.3099999987}},{"attributes":{"ID":420553,"DIS_CODE":0,"TOWNNAME":"中西區","LI":"永華里","LIN":"2鄰","STREET":"開山路","SECT":" ","MAREA":" ","LANE":"１２２巷","ALLEY":" ","HOUSE_NO":"３９號","E_COORD97":168537.81,"N_COORD97":2543332.6800000002,"ADDRESS":"開山路１２２巷３９號","OBJECTID":420528},"geometry":{"x":168537.80999999866,"y":2543332.6800000016}},{"attributes":{"ID":420554,"DIS_CODE":0,"TOWNNAME":"中西區","LI":"青年里","LIN":"2鄰","STREET":"興華街","SECT":" ","MAREA":" ","LANE":"３５巷","ALLEY":" ","HOUSE_NO":"２號","E_COORD97":169103.03,"N_COORD97":2543681.75,"ADDRESS":"興華街３５巷２號","OBJECTID":420529},"geometry":{"x":169103.03000000026,"y":2543681.7500000019}},{"attributes":{"ID":420555,"DIS_CODE":0,"TOWNNAME":"中西區","LI":"青年里","LIN":"2鄰","STREET":"興華街","SECT":" ","MAREA":" ","LANE":"３５巷","ALLEY":" ","HOUSE_NO":"６號","E_COORD97":169084.87,"N_COORD97":2543685.2999999998,"ADDRESS":"興華街３５巷６號","OBJECTID":420530},"geometry":{"x":169084.87000000011,"y":2543685.3000000026}},{"attributes":{"ID":420556,"DIS_CODE":0,"TOWNNAME":"中西區","LI":"開山里","LIN":"2鄰","STREET":"開山路","SECT":" ","MAREA":" ","LANE":"１２７巷","ALLEY":" ","HOUSE_NO":"１０號","E_COORD97":168854.63,"N_COORD97":2543233.9700000002,"ADDRESS":"開山路１２７巷１０號","OBJECTID":420531},"geometry":{"x":168854.62999999989,"y":2543233.9700000007}},{"attributes":{"ID":420557,"DIS_CODE":0,"TOWNNAME":"仁德區","LI":"仁德里","LIN":"2鄰","STREET":"中正路","SECT":"二段","MAREA":" ","LANE":"６７９巷","ALLEY":" ","HOUSE_NO":"１１５號","E_COORD97":173350.67000000001,"N_COORD97":2540150.1499999999,"ADDRESS":"中正路二段６７９巷１１５號","OBJECTID":420532},"geometry":{"x":173350.67000000086,"y":2540150.1500000004}},{"attributes":{"ID":420558,"DIS_CODE":0,"TOWNNAME":"仁德區","LI":"仁德里","LIN":"2鄰","STREET":"中正路","SECT":"二段","MAREA":" ","LANE":"６７９巷","ALLEY":" ","HOUSE_NO":"１０１號","E_COORD97":173320.84,"N_COORD97":2540147.1499999999,"ADDRESS":"中正路二段６７９巷１０１號","OBJECTID":420533},"geometry":{"x":173320.84000000078,"y":2540147.1500000004}},{"attributes":{"ID":420559,"DIS_CODE":0,"TOWNNAME":"仁德區","LI":"太子里","LIN":"2鄰","STREET":"長興三街","SECT":" ","MAREA":" ","LANE":"２巷","ALLEY":" ","HOUSE_NO":"１１號","E_COORD97":174271.10000000001,"N_COORD97":2543547.0099999998,"ADDRESS":"長興三街２巷１１號","OBJECTID":420534},"geometry":{"x":174271.10000000056,"y":2543547.0100000016}},{"attributes":{"ID":420560,"DIS_CODE":0,"TOWNNAME":"仁德區","LI":"太子里","LIN":"2鄰","STREET":"長興三街","SECT":" ","MAREA":" ","LANE":"２巷","ALLEY":" ","HOUSE_NO":"１９號","E_COORD97":174289.23000000001,"N_COORD97":2543551.0099999998,"ADDRESS":"長興三街２巷１９號","OBJECTID":420535},"geometry":{"x":174289.23000000045,"y":2543551.0099999998}},{"attributes":{"ID":420561,"DIS_CODE":0,"TOWNNAME":"仁德區","LI":"仁德里","LIN":"2鄰","STREET":"仁德五街","SECT":" ","MAREA":" ","LANE":"１１巷","ALLEY":" ","HOUSE_NO":"２３號","E_COORD97":173399.85999999999,"N_COORD97":2540141.0099999998,"ADDRESS":"仁德五街１１巷２３號","OBJECTID":420536},"geometry":{"x":173399.86000000034,"y":2540141.0099999998}},{"attributes":{"ID":420562,"DIS_CODE":0,"TOWNNAME":"仁德區","LI":"仁德里","LIN":"2鄰","STREET":"仁德五街","SECT":" ","MAREA":" ","LANE":"１１巷","ALLEY":" ","HOUSE_NO":"２２號","E_COORD97":173382.39000000001,"N_COORD97":2540119.77,"ADDRESS":"仁德五街１１巷２２號","OBJECTID":420537},"geometry":{"x":173382.39000000153,"y":2540119.7700000033}},{"attributes":{"ID":420563,"DIS_CODE":0,"TOWNNAME":"仁德區","LI":"仁德里","LIN":"2鄰","STREET":"仁德五街","SECT":" ","MAREA":" ","LANE":"１１巷","ALLEY":" ","HOUSE_NO":"３號","E_COORD97":173413.70000000001,"N_COORD97":2540194.52,"ADDRESS":"仁德五街１１巷３號","OBJECTID":420538},"geometry":{"x":173413.70000000112,"y":2540194.5199999996}},{"attributes":{"ID":420564,"DIS_CODE":0,"TOWNNAME":"仁德區","LI":"仁德里","LIN":"2鄰","STREET":"仁德五街","SECT":" ","MAREA":" ","LANE":"１１巷","ALLEY":" ","HOUSE_NO":"１０號","E_COORD97":173382.09,"N_COORD97":2540165.2599999998,"ADDRESS":"仁德五街１１巷１０號","OBJECTID":420539},"geometry":{"x":173382.08999999985,"y":2540165.2600000016}},{"attributes":{"ID":420565,"DIS_CODE":0,"TOWNNAME":"仁德區","LI":"仁德里","LIN":"2鄰","STREET":"仁德五街","SECT":" ","MAREA":" ","LANE":"１１巷","ALLEY":" ","HOUSE_NO":"２號","E_COORD97":173395.59,"N_COORD97":2540193.77,"ADDRESS":"仁德五街１１巷２號","OBJECTID":420540},"geometry":{"x":173395.58999999985,"y":2540193.7699999996}},{"attributes":{"ID":420566,"DIS_CODE":0,"TOWNNAME":"仁德區","LI":"仁德里","LIN":"2鄰","STREET":"仁德五街","SECT":" ","MAREA":" ","LANE":"１１巷","ALLEY":" ","HOUSE_NO":"１９號","E_COORD97":173394.98000000001,"N_COORD97":2540150.0099999998,"ADDRESS":"仁德五街１１巷１９號","OBJECTID":420541},"geometry":{"x":173394.98000000138,"y":2540150.0100000016}},{"attributes":{"ID":420567,"DIS_CODE":0,"TOWNNAME":"仁德區","LI":"仁德里","LIN":"2鄰","STREET":"仁德五街","SECT":" ","MAREA":" ","LANE":"１７巷","ALLEY":" ","HOUSE_NO":"２５號","E_COORD97":173362.39000000001,"N_COORD97":2540130.27,"ADDRESS":"仁德五街１７巷２５號","OBJECTID":420542},"geometry":{"x":173362.3900000006,"y":2540130.2700000014}},{"attributes":{"ID":420568,"DIS_CODE":0,"TOWNNAME":"仁德區","LI":"仁德里","LIN":"2鄰","STREET":"仁德五街","SECT":" ","MAREA":" ","LANE":"１１巷","ALLEY":" ","HOUSE_NO":"６號","E_COORD97":173387.94,"N_COORD97":2540178.0099999998,"ADDRESS":"仁德五街１１巷６號","OBJECTID":420543},"geometry":{"x":173387.94000000227,"y":2540178.0099999998}},{"attributes":{"ID":420569,"DIS_CODE":0,"TOWNNAME":"仁德區","LI":"仁德里","LIN":"2鄰","STREET":"中正路","SECT":"二段","MAREA":" ","LANE":"６７９巷","ALLEY":" ","HOUSE_NO":"９９號","E_COORD97":173323.54000000001,"N_COORD97":2540146.1499999999,"ADDRESS":"中正路二段６７９巷９９號","OBJECTID":420544},"geometry":{"x":173323.54000000004,"y":2540146.1500000022}},{"attributes":{"ID":420570,"DIS_CODE":0,"TOWNNAME":"仁德區","LI":"太子里","LIN":"2鄰","STREET":"長興三街","SECT":" ","MAREA":" ","LANE":"２巷","ALLEY":" ","HOUSE_NO":"１７號","E_COORD97":174283.85999999999,"N_COORD97":2543550.5099999998,"ADDRESS":"長興三街２巷１７號","OBJECTID":420545},"geometry":{"x":174283.86000000127,"y":2543550.5100000016}},{"attributes":{"ID":420571,"DIS_CODE":0,"TOWNNAME":"仁德區","LI":"仁德里","LIN":"2鄰","STREET":"中正路","SECT":"二段","MAREA":" ","LANE":"６７９巷","ALLEY":" ","HOUSE_NO":"１０３號","E_COORD97":173323.38,"N_COORD97":2540157.1499999999,"ADDRESS":"中正路二段６７９巷１０３號","OBJECTID":420546},"geometry":{"x":173323.38000000175,"y":2540157.1500000004}},{"attributes":{"ID":420572,"DIS_CODE":0,"TOWNNAME":"仁德區","LI":"太子里","LIN":"2鄰","STREET":"長興三街","SECT":" ","MAREA":" ","LANE":"２巷","ALLEY":" ","HOUSE_NO":"１５號","E_COORD97":174279.51000000001,"N_COORD97":2543550.7599999998,"ADDRESS":"長興三街２巷１５號","OBJECTID":420547},"geometry":{"x":174279.50999999978,"y":2543550.7599999979}},{"attributes":{"ID":420573,"DIS_CODE":0,"TOWNNAME":"仁德區","LI":"仁德里","LIN":"2鄰","STREET":"仁德五街","SECT":" ","MAREA":" ","LANE":"１７巷","ALLEY":" ","HOUSE_NO":"１５號","E_COORD97":173367.03,"N_COORD97":2540154.2599999998,"ADDRESS":"仁德五街１７巷１５號","OBJECTID":420548},"geometry":{"x":173367.03000000119,"y":2540154.2600000016}},{"attributes":{"ID":420574,"DIS_CODE":0,"TOWNNAME":"仁德區","LI":"仁德里","LIN":"2鄰","STREET":"仁德五街","SECT":" ","MAREA":" ","LANE":"１７巷","ALLEY":" ","HOUSE_NO":"２３號","E_COORD97":173363.20000000001,"N_COORD97":2540135.52,"ADDRESS":"仁德五街１７巷２３號","OBJECTID":420549},"geometry":{"x":173363.20000000019,"y":2540135.5200000014}},{"attributes":{"ID":420575,"DIS_CODE":0,"TOWNNAME":"仁德區","LI":"仁德里","LIN":"2鄰","STREET":"仁德五街","SECT":" ","MAREA":" ","LANE":"１７巷","ALLEY":" ","HOUSE_NO":"９號","E_COORD97":173370.82999999999,"N_COORD97":2540178.0099999998,"ADDRESS":"仁德五街１７巷９號","OBJECTID":420550},"geometry":{"x":173370.83000000007,"y":2540178.0099999998}},{"attributes":{"ID":420576,"DIS_CODE":0,"TOWNNAME":"仁德區","LI":"仁德里","LIN":"2鄰","STREET":"仁德五街","SECT":" ","MAREA":" ","LANE":"１１巷","ALLEY":" ","HOUSE_NO":"１６號","E_COORD97":173385.10999999999,"N_COORD97":2540134.52,"ADDRESS":"仁德五街１１巷１６號","OBJECTID":420551},"geometry":{"x":173385.11000000127,"y":2540134.5199999996}},{"attributes":{"ID":420577,"DIS_CODE":0,"TOWNNAME":"仁德區","LI":"仁德里","LIN":"2鄰","STREET":"仁德五街","SECT":" ","MAREA":" ","LANE":"１１巷","ALLEY":" ","HOUSE_NO":"８號","E_COORD97":173384,"N_COORD97":2540174.2599999998,"ADDRESS":"仁德五街１１巷８號","OBJECTID":420552},"geometry":{"x":173384.00000000093,"y":2540174.2600000035}},{"attributes":{"ID":420578,"DIS_CODE":0,"TOWNNAME":"仁德區","LI":"太子里","LIN":"2鄰","STREET":"長興三街","SECT":" ","MAREA":" ","LANE":"２巷","ALLEY":" ","HOUSE_NO":"１３號","E_COORD97":174275.42999999999,"N_COORD97":2543549.2599999998,"ADDRESS":"長興三街２巷１３號","OBJECTID":420553},"geometry":{"x":174275.43000000156,"y":2543549.2600000016}},{"attributes":{"ID":420579,"DIS_CODE":0,"TOWNNAME":"仁德區","LI":"仁德里","LIN":"2鄰","STREET":"仁德五街","SECT":" ","MAREA":" ","LANE":"１１巷","ALLEY":" ","HOUSE_NO":"２１號","E_COORD97":173398.64000000001,"N_COORD97":2540146.0099999998,"ADDRESS":"仁德五街１１巷２１號","OBJECTID":420554},"geometry":{"x":173398.63999999966,"y":2540146.0100000016}},{"attributes":{"ID":420580,"DIS_CODE":0,"TOWNNAME":"仁德區","LI":"仁德里","LIN":"2鄰","STREET":"仁德五街","SECT":" ","MAREA":" ","LANE":"１１巷","ALLEY":" ","HOUSE_NO":"２０號","E_COORD97":173383.59,"N_COORD97":2540124.77,"ADDRESS":"仁德五街１１巷２０號","OBJECTID":420555},"geometry":{"x":173383.59000000078,"y":2540124.7699999996}},{"attributes":{"ID":420581,"DIS_CODE":0,"TOWNNAME":"仁德區","LI":"仁德里","LIN":"2鄰","STREET":"仁德五街","SECT":" ","MAREA":" ","LANE":"１１巷","ALLEY":" ","HOUSE_NO":"２９號","E_COORD97":173394.45000000001,"N_COORD97":2540128.02,"ADDRESS":"仁德五街１１巷２９號","OBJECTID":420556},"geometry":{"x":173394.45000000205,"y":2540128.0200000033}},{"attributes":{"ID":420582,"DIS_CODE":0,"TOWNNAME":"仁德區","LI":"仁德里","LIN":"2鄰","STREET":"中正路","SECT":"二段","MAREA":" ","LANE":"６７９巷","ALLEY":" ","HOUSE_NO":"９３號","E_COORD97":173336.26000000001,"N_COORD97":2540142.6499999999,"ADDRESS":"中正路二段６７９巷９３號","OBJECTID":420557},"geometry":{"x":173336.26000000071,"y":2540142.6500000022}},{"attributes":{"ID":420583,"DIS_CODE":0,"TOWNNAME":"仁德區","LI":"仁德里","LIN":"2鄰","STREET":"仁德五街","SECT":" ","MAREA":" ","LANE":"１７巷","ALLEY":" ","HOUSE_NO":"１１號","E_COORD97":173370.57999999999,"N_COORD97":2540172.5099999998,"ADDRESS":"仁德五街１７巷１１號","OBJECTID":420558},"geometry":{"x":173370.58000000007,"y":2540172.5100000035}},{"attributes":{"ID":420584,"DIS_CODE":0,"TOWNNAME":"仁德區","LI":"仁德里","LIN":"2鄰","STREET":"仁德五街","SECT":" ","MAREA":" ","LANE":"１１巷","ALLEY":" ","HOUSE_NO":"１４號","E_COORD97":173385.76000000001,"N_COORD97":2540139.7599999998,"ADDRESS":"仁德五街１１巷１４號","OBJECTID":420559},"geometry":{"x":173385.76000000071,"y":2540139.7599999998}},{"attributes":{"ID":420585,"DIS_CODE":0,"TOWNNAME":"仁德區","LI":"仁德里","LIN":"2鄰","STREET":"中正路","SECT":"二段","MAREA":" ","LANE":"６７９巷","ALLEY":" ","HOUSE_NO":"１０７號","E_COORD97":173331.75,"N_COORD97":2540154.8999999999,"ADDRESS":"中正路二段６７９巷１０７號","OBJECTID":420560},"geometry":{"x":173331.75000000093,"y":2540154.9000000022}},{"attributes":{"ID":420586,"DIS_CODE":0,"TOWNNAME":"仁德區","LI":"仁德里","LIN":"2鄰","STREET":"仁德五街","SECT":" ","MAREA":" ","LANE":"１１巷","ALLEY":" ","HOUSE_NO":"１號","E_COORD97":173416.84,"N_COORD97":2540198.02,"ADDRESS":"仁德五街１１巷１號","OBJECTID":420561},"geometry":{"x":173416.84000000171,"y":2540198.0199999996}},{"attributes":{"ID":420587,"DIS_CODE":0,"TOWNNAME":"仁德區","LI":"仁德里","LIN":"2鄰","STREET":"中正路","SECT":"二段","MAREA":" ","LANE":"６７９巷","ALLEY":" ","HOUSE_NO":"９７號","E_COORD97":173327.60000000001,"N_COORD97":2540145.1499999999,"ADDRESS":"中正路二段６７９巷９７號","OBJECTID":420562},"geometry":{"x":173327.59999999963,"y":2540145.1500000041}},{"attributes":{"ID":420588,"DIS_CODE":0,"TOWNNAME":"仁德區","LI":"仁德里","LIN":"2鄰","STREET":"仁德五街","SECT":" ","MAREA":" ","LANE":"１７巷","ALLEY":" ","HOUSE_NO":"３號","E_COORD97":173382.89000000001,"N_COORD97":2540198.27,"ADDRESS":"仁德五街１７巷３號","OBJECTID":420563},"geometry":{"x":173382.8900000006,"y":2540198.2700000014}},{"attributes":{"ID":420589,"DIS_CODE":0,"TOWNNAME":"仁德區","LI":"後壁里","LIN":"2鄰","STREET":"德安路","SECT":" ","MAREA":" ","LANE":"３８巷","ALLEY":" ","HOUSE_NO":"１５號","E_COORD97":173334.04000000001,"N_COORD97":2539123.8100000001,"ADDRESS":"德安路３８巷１５號","OBJECTID":420564},"geometry":{"x":173334.04000000004,"y":2539123.8100000042}},{"attributes":{"ID":420590,"DIS_CODE":0,"TOWNNAME":"仁德區","LI":"仁德里","LIN":"2鄰","STREET":"中正路","SECT":"二段","MAREA":" ","LANE":"６７９巷","ALLEY":" ","HOUSE_NO":"９１號","E_COORD97":173340.88,"N_COORD97":2540141.3999999999,"ADDRESS":"中正路二段６７９巷９１號","OBJECTID":420565},"geometry":{"x":173340.88000000082,"y":2540141.4000000022}},{"attributes":{"ID":420591,"DIS_CODE":0,"TOWNNAME":"仁德區","LI":"後壁里","LIN":"2鄰","STREET":"德安路","SECT":" ","MAREA":" ","LANE":"３２巷","ALLEY":" ","HOUSE_NO":"６號","E_COORD97":173354.70000000001,"N_COORD97":2539203.5699999998,"ADDRESS":"德安路３２巷６號","OBJECTID":420566},"geometry":{"x":173354.70000000019,"y":2539203.5700000022}},{"attributes":{"ID":420592,"DIS_CODE":0,"TOWNNAME":"仁德區","LI":"成功里","LIN":"2鄰","STREET":"保生東路","SECT":" ","MAREA":" ","LANE":"２１８巷","ALLEY":" ","HOUSE_NO":"７１號","E_COORD97":171278.48999999999,"N_COORD97":2539664.7599999998,"ADDRESS":"保生東路２１８巷７１號","OBJECTID":420567},"geometry":{"x":171278.49000000209,"y":2539664.7599999998}},{"attributes":{"ID":420593,"DIS_CODE":0,"TOWNNAME":"仁德區","LI":"新田里","LIN":"2鄰","STREET":"新田二街","SECT":" ","MAREA":" ","LANE":"１２０巷","ALLEY":" ","HOUSE_NO":"３９號","E_COORD97":174921.35000000001,"N_COORD97":2539995.6600000001,"ADDRESS":"新田二街１２０巷３９號","OBJECTID":420568},"geometry":{"x":174921.34999999963,"y":2539995.6600000039}},{"attributes":{"ID":420594,"DIS_CODE":0,"TOWNNAME":"仁德區","LI":"新田里","LIN":"2鄰","STREET":"新田二街","SECT":" ","MAREA":" ","LANE":"１２０巷","ALLEY":" ","HOUSE_NO":"２９號","E_COORD97":174940.23999999999,"N_COORD97":2539978.3999999999,"ADDRESS":"新田二街１２０巷２９號","OBJECTID":420569},"geometry":{"x":174940.24000000209,"y":2539978.4000000022}},{"attributes":{"ID":420595,"DIS_CODE":0,"TOWNNAME":"官田區","LI":"隆田里","LIN":"2鄰","STREET":"裕民街","SECT":" ","MAREA":" ","LANE":"１巷","ALLEY":" ","HOUSE_NO":"１２號","E_COORD97":180253.13,"N_COORD97":2565685.1400000001,"ADDRESS":"裕民街１巷１２號","OBJECTID":420570},"geometry":{"x":180253.12999999896,"y":2565685.1400000043}},{"attributes":{"ID":420596,"DIS_CODE":0,"TOWNNAME":"官田區","LI":"隆田里","LIN":"2鄰","STREET":"裕民街","SECT":" ","MAREA":" ","LANE":"１巷","ALLEY":" ","HOUSE_NO":"６號","E_COORD97":180243.91,"N_COORD97":2565694.48,"ADDRESS":"裕民街１巷６號","OBJECTID":420571},"geometry":{"x":180243.91000000108,"y":2565694.4800000004}},{"attributes":{"ID":420597,"DIS_CODE":0,"TOWNNAME":"官田區","LI":"隆田里","LIN":"2鄰","STREET":"裕民街","SECT":" ","MAREA":" ","LANE":"１巷","ALLEY":" ","HOUSE_NO":"８號","E_COORD97":180243.39999999999,"N_COORD97":2565688.3500000001,"ADDRESS":"裕民街１巷８號","OBJECTID":420572},"geometry":{"x":180243.40000000224,"y":2565688.3499999996}},{"attributes":{"ID":420598,"DIS_CODE":0,"TOWNNAME":"新市區","LI":"新市里","LIN":"2鄰","STREET":"華興街","SECT":" ","MAREA":" ","LANE":"４４巷","ALLEY":" ","HOUSE_NO":"９號","E_COORD97":177732.56,"N_COORD97":2553054.75,"ADDRESS":"華興街４４巷９號","OBJECTID":420573},"geometry":{"x":177732.55999999866,"y":2553054.7500000037}},{"attributes":{"ID":420599,"DIS_CODE":0,"TOWNNAME":"永康區","LI":"王行里","LIN":"2鄰","STREET":"王行路","SECT":" ","MAREA":" ","LANE":"２０８巷","ALLEY":" ","HOUSE_NO":"２６號","E_COORD97":175759.78,"N_COORD97":2548142.9199999999,"ADDRESS":"王行路２０８巷２６號","OBJECTID":420574},"geometry":{"x":175759.78000000026,"y":2548142.9199999999}},{"attributes":{"ID":420600,"DIS_CODE":0,"TOWNNAME":"永康區","LI":"王行里","LIN":"2鄰","STREET":"王行路","SECT":" ","MAREA":" ","LANE":"２０８巷","ALLEY":" ","HOUSE_NO":"３７號","E_COORD97":175791.60000000001,"N_COORD97":2548165.5099999998,"ADDRESS":"王行路２０８巷３７號","OBJECTID":420575},"geometry":{"x":175791.60000000056,"y":2548165.5099999998}},{"attributes":{"ID":420601,"DIS_CODE":0,"TOWNNAME":"永康區","LI":"北灣里","LIN":"2鄰","STREET":"大灣路","SECT":" ","MAREA":" ","LANE":"１１９巷","ALLEY":" ","HOUSE_NO":"６９號","E_COORD97":175352.14999999999,"N_COORD97":2545568.5899999999,"ADDRESS":"大灣路１１９巷６９號","OBJECTID":420576},"geometry":{"x":175352.15000000037,"y":2545568.5899999999}},{"attributes":{"ID":420602,"DIS_CODE":0,"TOWNNAME":"永康區","LI":"北灣里","LIN":"2鄰","STREET":"大灣路","SECT":" ","MAREA":" ","LANE":"１１９巷","ALLEY":" ","HOUSE_NO":"４１號","E_COORD97":175259.42999999999,"N_COORD97":2545543.9900000002,"ADDRESS":"大灣路１１９巷４１號","OBJECTID":420577},"geometry":{"x":175259.43000000063,"y":2545543.9900000021}},{"attributes":{"ID":420603,"DIS_CODE":0,"TOWNNAME":"永康區","LI":"北灣里","LIN":"2鄰","STREET":"大灣路","SECT":" ","MAREA":" ","LANE":"１１９巷","ALLEY":" ","HOUSE_NO":"６５號","E_COORD97":175348.14999999999,"N_COORD97":2545567.8399999999,"ADDRESS":"大灣路１１９巷６５號","OBJECTID":420578},"geometry":{"x":175348.1500000013,"y":2545567.8400000036}},{"attributes":{"ID":420604,"DIS_CODE":0,"TOWNNAME":"永康區","LI":"北灣里","LIN":"2鄰","STREET":"大灣路","SECT":" ","MAREA":" ","LANE":"１１９巷","ALLEY":" ","HOUSE_NO":"６３號","E_COORD97":175341.78,"N_COORD97":2545566.3399999999,"ADDRESS":"大灣路１１９巷６３號","OBJECTID":420579},"geometry":{"x":175341.78000000212,"y":2545566.3399999999}},{"attributes":{"ID":420605,"DIS_CODE":0,"TOWNNAME":"永康區","LI":"北灣里","LIN":"2鄰","STREET":"大灣路","SECT":" ","MAREA":" ","LANE":"１１９巷","ALLEY":" ","HOUSE_NO":"６１號","E_COORD97":175329.25,"N_COORD97":2545560.8399999999,"ADDRESS":"大灣路１１９巷６１號","OBJECTID":420580},"geometry":{"x":175329.25,"y":2545560.839999998}},{"attributes":{"ID":420606,"DIS_CODE":0,"TOWNNAME":"永康區","LI":"北灣里","LIN":"2鄰","STREET":"大灣路","SECT":" ","MAREA":" ","LANE":"１１９巷","ALLEY":" ","HOUSE_NO":"７３號","E_COORD97":175367.45000000001,"N_COORD97":2545574.8399999999,"ADDRESS":"大灣路１１９巷７３號","OBJECTID":420581},"geometry":{"x":175367.44999999925,"y":2545574.8400000036}},{"attributes":{"ID":420607,"DIS_CODE":0,"TOWNNAME":"永康區","LI":"北灣里","LIN":"2鄰","STREET":"大灣路","SECT":" ","MAREA":" ","LANE":"１１９巷","ALLEY":" ","HOUSE_NO":"５０號","E_COORD97":175277.17000000001,"N_COORD97":2545534.3300000001,"ADDRESS":"大灣路１１９巷５０號","OBJECTID":420582},"geometry":{"x":175277.16999999993,"y":2545534.3300000038}},{"attributes":{"ID":420608,"DIS_CODE":0,"TOWNNAME":"永康區","LI":"北灣里","LIN":"2鄰","STREET":"大灣路","SECT":" ","MAREA":" ","LANE":"１１９巷","ALLEY":" ","HOUSE_NO":"５１號","E_COORD97":175284.07000000001,"N_COORD97":2545554.1400000001,"ADDRESS":"大灣路１１９巷５１號","OBJECTID":420583},"geometry":{"x":175284.07000000123,"y":2545554.1400000025}},{"attributes":{"ID":420609,"DIS_CODE":0,"TOWNNAME":"永康區","LI":"北灣里","LIN":"2鄰","STREET":"大灣路","SECT":" ","MAREA":" ","LANE":"１１９巷","ALLEY":" ","HOUSE_NO":"３１號","E_COORD97":175226.60000000001,"N_COORD97":2545532.4900000002,"ADDRESS":"大灣路１１９巷３１號","OBJECTID":420584},"geometry":{"x":175226.59999999963,"y":2545532.4900000002}},{"attributes":{"ID":420610,"DIS_CODE":0,"TOWNNAME":"永康區","LI":"北灣里","LIN":"2鄰","STREET":"大灣路","SECT":" ","MAREA":" ","LANE":"１１９巷","ALLEY":" ","HOUSE_NO":"５４號","E_COORD97":175306.70999999999,"N_COORD97":2545539.9900000002,"ADDRESS":"大灣路１１９巷５４號","OBJECTID":420585},"geometry":{"x":175306.71000000089,"y":2545539.9900000039}},{"attributes":{"ID":420611,"DIS_CODE":0,"TOWNNAME":"永康區","LI":"北灣里","LIN":"2鄰","STREET":"大灣路","SECT":" ","MAREA":" ","LANE":"１１９巷","ALLEY":" ","HOUSE_NO":"４７號","E_COORD97":175273.07999999999,"N_COORD97":2545549.9900000002,"ADDRESS":"大灣路１１９巷４７號","OBJECTID":420586},"geometry":{"x":175273.08000000007,"y":2545549.9899999984}},{"attributes":{"ID":420612,"DIS_CODE":0,"TOWNNAME":"永康區","LI":"正強里","LIN":"2鄰","STREET":"中正路","SECT":" ","MAREA":" ","LANE":"１巷","ALLEY":" ","HOUSE_NO":"１３號","E_COORD97":173699.45000000001,"N_COORD97":2547651.0800000001,"ADDRESS":"中正路１巷１３號","OBJECTID":420587},"geometry":{"x":173699.45000000205,"y":2547651.0800000001}},{"attributes":{"ID":420613,"DIS_CODE":0,"TOWNNAME":"永康區","LI":"正強里","LIN":"2鄰","STREET":"中正路","SECT":" ","MAREA":" ","LANE":"１５巷","ALLEY":" ","HOUSE_NO":"１３號","E_COORD97":173667.57999999999,"N_COORD97":2547684.75,"ADDRESS":"中正路１５巷１３號","OBJECTID":420588},"geometry":{"x":173667.58000000007,"y":2547684.7500000019}},{"attributes":{"ID":420614,"DIS_CODE":0,"TOWNNAME":"永康區","LI":"王行里","LIN":"2鄰","STREET":"王行路","SECT":" ","MAREA":" ","LANE":"２０８巷","ALLEY":" ","HOUSE_NO":"３３號","E_COORD97":175774.95999999999,"N_COORD97":2548158.8599999999,"ADDRESS":"王行路２０８巷３３號","OBJECTID":420589},"geometry":{"x":175774.95999999996,"y":2548158.8600000013}},{"attributes":{"ID":420615,"DIS_CODE":0,"TOWNNAME":"永康區","LI":"王行里","LIN":"2鄰","STREET":"王行路","SECT":" ","MAREA":" ","LANE":"２０８巷","ALLEY":" ","HOUSE_NO":"２８號","E_COORD97":175770.01000000001,"N_COORD97":2548142.1699999999,"ADDRESS":"王行路２０８巷２８號","OBJECTID":420590},"geometry":{"x":175770.00999999978,"y":2548142.1699999981}},{"attributes":{"ID":420616,"DIS_CODE":0,"TOWNNAME":"永康區","LI":"王行里","LIN":"2鄰","STREET":"王行路","SECT":" ","MAREA":" ","LANE":"６８巷","ALLEY":" ","HOUSE_NO":"５５號","E_COORD97":175991.25,"N_COORD97":2548159.6299999999,"ADDRESS":"王行路６８巷５５號","OBJECTID":420591},"geometry":{"x":175991.25000000093,"y":2548159.6300000008}},{"attributes":{"ID":420617,"DIS_CODE":0,"TOWNNAME":"永康區","LI":"王行里","LIN":"2鄰","STREET":"王行路","SECT":" ","MAREA":" ","LANE":"２０８巷","ALLEY":" ","HOUSE_NO":"２０號","E_COORD97":175755.23000000001,"N_COORD97":2548127.9399999999,"ADDRESS":"王行路２０８巷２０號","OBJECTID":420592},"geometry":{"x":175755.23000000045,"y":2548127.9400000013}},{"attributes":{"ID":420618,"DIS_CODE":0,"TOWNNAME":"新市區","LI":"新市里","LIN":"2鄰","STREET":"華興街","SECT":" ","MAREA":" ","LANE":"４４巷","ALLEY":" ","HOUSE_NO":"３號","E_COORD97":177734.26000000001,"N_COORD97":2553042.5,"ADDRESS":"華興街４４巷３號","OBJECTID":420593},"geometry":{"x":177734.25999999978,"y":2553042.4999999981}},{"attributes":{"ID":420619,"DIS_CODE":0,"TOWNNAME":"東區","LI":"東光里","LIN":"2鄰","STREET":"東寧路","SECT":" ","MAREA":" ","LANE":"４３５巷","ALLEY":" ","HOUSE_NO":"１８號","E_COORD97":171091.42999999999,"N_COORD97":2543416.98,"ADDRESS":"東寧路４３５巷１８號","OBJECTID":420594},"geometry":{"x":171091.4299999997,"y":2543416.9800000004}},{"attributes":{"ID":420620,"DIS_CODE":0,"TOWNNAME":"東區","LI":"東門里","LIN":"2鄰","STREET":"北門路","SECT":"一段","MAREA":" ","LANE":"３０巷","ALLEY":" ","HOUSE_NO":"１２號","E_COORD97":169186.60000000001,"N_COORD97":2543401.6299999999,"ADDRESS":"北門路一段３０巷１２號","OBJECTID":420595},"geometry":{"x":169186.59999999963,"y":2543401.6299999971}},{"attributes":{"ID":420621,"DIS_CODE":0,"TOWNNAME":"東區","LI":"東門里","LIN":"2鄰","STREET":"北門路","SECT":"一段","MAREA":" ","LANE":"３０巷","ALLEY":" ","HOUSE_NO":"１３號","E_COORD97":169195.94,"N_COORD97":2543395.3700000001,"ADDRESS":"北門路一段３０巷１３號","OBJECTID":420596},"geometry":{"x":169195.94000000134,"y":2543395.3699999992}},{"attributes":{"ID":420622,"DIS_CODE":0,"TOWNNAME":"東區","LI":"東門里","LIN":"2鄰","STREET":"北門路","SECT":"一段","MAREA":" ","LANE":"３０巷","ALLEY":" ","HOUSE_NO":"１４號","E_COORD97":169200.47,"N_COORD97":2543391.8199999998,"ADDRESS":"北門路一段３０巷１４號","OBJECTID":420597},"geometry":{"x":169200.47000000067,"y":2543391.820000004}},{"attributes":{"ID":420623,"DIS_CODE":0,"TOWNNAME":"東區","LI":"東門里","LIN":"2鄰","STREET":"北門路","SECT":"一段","MAREA":" ","LANE":"３０巷","ALLEY":" ","HOUSE_NO":"１５號","E_COORD97":169190.57999999999,"N_COORD97":2543397.1800000002,"ADDRESS":"北門路一段３０巷１５號","OBJECTID":420598},"geometry":{"x":169190.58000000007,"y":2543397.1800000016}},{"attributes":{"ID":420624,"DIS_CODE":0,"TOWNNAME":"東區","LI":"東門里","LIN":"2鄰","STREET":"北門路","SECT":"一段","MAREA":" ","LANE":"３０巷","ALLEY":" ","HOUSE_NO":"１６號","E_COORD97":169203.85999999999,"N_COORD97":2543384.4300000002,"ADDRESS":"北門路一段３０巷１６號","OBJECTID":420599},"geometry":{"x":169203.86000000034,"y":2543384.4300000016}},{"attributes":{"ID":420625,"DIS_CODE":0,"TOWNNAME":"東區","LI":"東門里","LIN":"2鄰","STREET":"北門路","SECT":"一段","MAREA":" ","LANE":"３０巷","ALLEY":" ","HOUSE_NO":"１９號","E_COORD97":169208.35999999999,"N_COORD97":2543378.1099999999,"ADDRESS":"北門路一段３０巷１９號","OBJECTID":420600},"geometry":{"x":169208.36000000127,"y":2543378.1099999994}}]}