{"displayFieldName":"TOWNNAME","fieldAliases":{"ID":"ID","DIS_CODE":"DIS_CODE","TOWNNAME":"TOWNNAME","LI":"LI","LIN":"LIN","STREET":"STREET","SECT":"SECT","MAREA":"MAREA","LANE":"LANE","ALLEY":"ALLEY","HOUSE_NO":"HOUSE_NO","E_COORD97":"E_COORD97","N_COORD97":"N_COORD97","ADDRESS":"ADDRESS","OBJECTID":"OBJECTID"},"geometryType":"esriGeometryPoint","spatialReference":{"wkid":102443,"latestWkid":3826},"fields":[{"name":"ID","type":"esriFieldTypeDouble","alias":"ID"},{"name":"DIS_CODE","type":"esriFieldTypeInteger","alias":"DIS_CODE"},{"name":"TOWNNAME","type":"esriFieldTypeString","alias":"TOWNNAME","length":8},{"name":"LI","type":"esriFieldTypeString","alias":"LI","length":8},{"name":"LIN","type":"esriFieldTypeString","alias":"LIN","length":12},{"name":"STREET","type":"esriFieldTypeString","alias":"STREET","length":20},{"name":"SECT","type":"esriFieldTypeString","alias":"SECT","length":8},{"name":"MAREA","type":"esriFieldTypeString","alias":"MAREA","length":12},{"name":"LANE","type":"esriFieldTypeString","alias":"LANE","length":10},{"name":"ALLEY","type":"esriFieldTypeString","alias":"ALLEY","length":10},{"name":"HOUSE_NO","type":"esriFieldTypeString","alias":"HOUSE_NO","length":20},{"name":"E_COORD97","type":"esriFieldTypeDouble","alias":"E_COORD97"},{"name":"N_COORD97","type":"esriFieldTypeDouble","alias":"N_COORD97"},{"name":"ADDRESS","type":"esriFieldTypeString","alias":"ADDRESS","length":50},{"name":"OBJECTID","type":"esriFieldTypeOID","alias":"OBJECTID"}],"features":[{"attributes":{"ID":224805,"DIS_CODE":0,"TOWNNAME":"東區","LI":"泉南里","LIN":"34鄰","STREET":"林森路","SECT":"一段","MAREA":" ","LANE":" ","ALLEY":" ","HOUSE_NO":"１４９號六樓之３","E_COORD97":169495.73000000001,"N_COORD97":2542552.3999999999,"ADDRESS":"林森路一段１４９號六樓之３","OBJECTID":224801},"geometry":{"x":169495.73000000138,"y":2542552.4000000004}},{"attributes":{"ID":224806,"DIS_CODE":0,"TOWNNAME":"東區","LI":"泉南里","LIN":"34鄰","STREET":"林森路","SECT":"一段","MAREA":" ","LANE":" ","ALLEY":" ","HOUSE_NO":"１４９號六樓之４","E_COORD97":169495.73000000001,"N_COORD97":2542552.3999999999,"ADDRESS":"林森路一段１４９號六樓之４","OBJECTID":224802},"geometry":{"x":169495.73000000138,"y":2542552.4000000004}},{"attributes":{"ID":224807,"DIS_CODE":0,"TOWNNAME":"新營區","LI":"忠政里","LIN":"29鄰","STREET":"府西路","SECT":" ","MAREA":" ","LANE":"８７巷","ALLEY":" ","HOUSE_NO":"４７號","E_COORD97":179696.95000000001,"N_COORD97":2579175.5,"ADDRESS":"府西路８７巷４７號","OBJECTID":224803},"geometry":{"x":179696.94999999925,"y":2579175.4999999981}},{"attributes":{"ID":224808,"DIS_CODE":0,"TOWNNAME":"新營區","LI":"新北里","LIN":"29鄰","STREET":"新北二街","SECT":" ","MAREA":" ","LANE":"９巷","ALLEY":" ","HOUSE_NO":"４號","E_COORD97":178847.06,"N_COORD97":2578811.8700000001,"ADDRESS":"新北二街９巷４號","OBJECTID":224804},"geometry":{"x":178847.06000000052,"y":2578811.8700000029}},{"attributes":{"ID":224809,"DIS_CODE":0,"TOWNNAME":"新營區","LI":"新北里","LIN":"29鄰","STREET":"新北二街","SECT":" ","MAREA":" ","LANE":"９巷","ALLEY":" ","HOUSE_NO":"５號","E_COORD97":178826.5,"N_COORD97":2578803.1099999999,"ADDRESS":"新北二街９巷５號","OBJECTID":224805},"geometry":{"x":178826.5,"y":2578803.1099999994}},{"attributes":{"ID":224810,"DIS_CODE":0,"TOWNNAME":"新營區","LI":"新北里","LIN":"29鄰","STREET":"新北二街","SECT":" ","MAREA":" ","LANE":"９巷","ALLEY":" ","HOUSE_NO":"１７號","E_COORD97":178833.10999999999,"N_COORD97":2578858.46,"ADDRESS":"新北二街９巷１７號","OBJECTID":224806},"geometry":{"x":178833.11000000034,"y":2578858.4600000046}},{"attributes":{"ID":224811,"DIS_CODE":0,"TOWNNAME":"安平區","LI":"華平里","LIN":"22鄰","STREET":"建平八街","SECT":" ","MAREA":" ","LANE":"４３３巷","ALLEY":" ","HOUSE_NO":"８號","E_COORD97":165184.63,"N_COORD97":2543556.1899999999,"ADDRESS":"建平八街４３３巷８號","OBJECTID":224807},"geometry":{"x":165184.63000000175,"y":2543556.1900000013}},{"attributes":{"ID":224812,"DIS_CODE":0,"TOWNNAME":"安平區","LI":"建平里","LIN":"22鄰","STREET":"建平九街","SECT":" ","MAREA":" ","LANE":"２２巷","ALLEY":" ","HOUSE_NO":"１７號","E_COORD97":166144.75,"N_COORD97":2543563.4399999999,"ADDRESS":"建平九街２２巷１７號","OBJECTID":224808},"geometry":{"x":166144.75,"y":2543563.4400000013}},{"attributes":{"ID":224813,"DIS_CODE":0,"TOWNNAME":"安平區","LI":"建平里","LIN":"22鄰","STREET":"建平九街","SECT":" ","MAREA":" ","LANE":"２２巷","ALLEY":" ","HOUSE_NO":"１９號","E_COORD97":166146.29999999999,"N_COORD97":2543578.1899999999,"ADDRESS":"建平九街２２巷１９號","OBJECTID":224809},"geometry":{"x":166146.30000000168,"y":2543578.1900000032}},{"attributes":{"ID":224814,"DIS_CODE":0,"TOWNNAME":"東區","LI":"大智里","LIN":"34鄰","STREET":"崇善十五街","SECT":" ","MAREA":" ","LANE":"３３巷","ALLEY":" ","HOUSE_NO":"１６號","E_COORD97":171296.26999999999,"N_COORD97":2540527.54,"ADDRESS":"崇善十五街３３巷１６號","OBJECTID":224810},"geometry":{"x":171296.27000000142,"y":2540527.5400000028}},{"attributes":{"ID":224815,"DIS_CODE":0,"TOWNNAME":"東區","LI":"大智里","LIN":"34鄰","STREET":"崇善十五街","SECT":" ","MAREA":" ","LANE":"３３巷","ALLEY":" ","HOUSE_NO":"２６號","E_COORD97":171321.23999999999,"N_COORD97":2540513.6200000001,"ADDRESS":"崇善十五街３３巷２６號","OBJECTID":224811},"geometry":{"x":171321.24000000115,"y":2540513.6200000029}},{"attributes":{"ID":224816,"DIS_CODE":0,"TOWNNAME":"東區","LI":"大智里","LIN":"34鄰","STREET":"崇善十五街","SECT":" ","MAREA":" ","LANE":"３３巷","ALLEY":" ","HOUSE_NO":"４６號","E_COORD97":171306.14000000001,"N_COORD97":2540498.27,"ADDRESS":"崇善十五街３３巷４６號","OBJECTID":224812},"geometry":{"x":171306.1400000006,"y":2540498.2699999996}},{"attributes":{"ID":224817,"DIS_CODE":0,"TOWNNAME":"東區","LI":"大智里","LIN":"34鄰","STREET":"崇善十五街","SECT":" ","MAREA":" ","LANE":"３３巷","ALLEY":" ","HOUSE_NO":"５４號","E_COORD97":171323.94,"N_COORD97":2540497.8700000001,"ADDRESS":"崇善十五街３３巷５４號","OBJECTID":224813},"geometry":{"x":171323.94000000134,"y":2540497.8700000029}},{"attributes":{"ID":224818,"DIS_CODE":0,"TOWNNAME":"東區","LI":"大智里","LIN":"17鄰","STREET":"德東街","SECT":" ","MAREA":" ","LANE":"１５１巷","ALLEY":" ","HOUSE_NO":"６６號","E_COORD97":171207.20999999999,"N_COORD97":2540437.0600000001,"ADDRESS":"德東街１５１巷６６號","OBJECTID":224814},"geometry":{"x":171207.21000000183,"y":2540437.0600000005}},{"attributes":{"ID":224819,"DIS_CODE":0,"TOWNNAME":"東區","LI":"崇誨里","LIN":"23鄰","STREET":"東寧路","SECT":" ","MAREA":" ","LANE":"２４８巷","ALLEY":" ","HOUSE_NO":"２４號","E_COORD97":170584.03,"N_COORD97":2543396.21,"ADDRESS":"東寧路２４８巷２４號","OBJECTID":224815},"geometry":{"x":170584.03000000119,"y":2543396.2100000009}},{"attributes":{"ID":224820,"DIS_CODE":0,"TOWNNAME":"歸仁區","LI":"新厝里","LIN":"22鄰","STREET":"大成六街","SECT":" ","MAREA":" ","LANE":"３３巷","ALLEY":" ","HOUSE_NO":"６號","E_COORD97":177596.84,"N_COORD97":2540263.1800000002,"ADDRESS":"大成六街３３巷６號","OBJECTID":224816},"geometry":{"x":177596.83999999985,"y":2540263.1800000016}},{"attributes":{"ID":224821,"DIS_CODE":0,"TOWNNAME":"歸仁區","LI":"崙頂里","LIN":"22鄰","STREET":"崙頂二街","SECT":" ","MAREA":" ","LANE":"５０巷","ALLEY":" ","HOUSE_NO":"１號","E_COORD97":177743.09,"N_COORD97":2540038.48,"ADDRESS":"崙頂二街５０巷１號","OBJECTID":224817},"geometry":{"x":177743.09000000078,"y":2540038.4800000023}},{"attributes":{"ID":224822,"DIS_CODE":0,"TOWNNAME":"歸仁區","LI":"崙頂里","LIN":"22鄰","STREET":"崙頂二街","SECT":" ","MAREA":" ","LANE":"５０巷","ALLEY":" ","HOUSE_NO":"３５號","E_COORD97":177726.84,"N_COORD97":2540038.48,"ADDRESS":"崙頂二街５０巷３５號","OBJECTID":224818},"geometry":{"x":177726.83999999985,"y":2540038.4800000023}},{"attributes":{"ID":224823,"DIS_CODE":0,"TOWNNAME":"東區","LI":"泉南里","LIN":"34鄰","STREET":"林森路","SECT":"一段","MAREA":" ","LANE":" ","ALLEY":" ","HOUSE_NO":"１４９號六樓之５","E_COORD97":169495.73000000001,"N_COORD97":2542552.3999999999,"ADDRESS":"林森路一段１４９號六樓之５","OBJECTID":224819},"geometry":{"x":169495.73000000138,"y":2542552.4000000004}},{"attributes":{"ID":224824,"DIS_CODE":0,"TOWNNAME":"東區","LI":"泉南里","LIN":"34鄰","STREET":"林森路","SECT":"一段","MAREA":" ","LANE":" ","ALLEY":" ","HOUSE_NO":"１４９號六樓之６","E_COORD97":169495.73000000001,"N_COORD97":2542552.3999999999,"ADDRESS":"林森路一段１４９號六樓之６","OBJECTID":224820},"geometry":{"x":169495.73000000138,"y":2542552.4000000004}},{"attributes":{"ID":224825,"DIS_CODE":0,"TOWNNAME":"東區","LI":"泉南里","LIN":"34鄰","STREET":"林森路","SECT":"一段","MAREA":" ","LANE":" ","ALLEY":" ","HOUSE_NO":"１４９號六樓之７","E_COORD97":169495.73000000001,"N_COORD97":2542552.3999999999,"ADDRESS":"林森路一段１４９號六樓之７","OBJECTID":224821},"geometry":{"x":169495.73000000138,"y":2542552.4000000004}},{"attributes":{"ID":224826,"DIS_CODE":0,"TOWNNAME":"仁德區","LI":"仁義里","LIN":"1鄰","STREET":"義林六街","SECT":" ","MAREA":" ","LANE":" ","ALLEY":" ","HOUSE_NO":"３２號","E_COORD97":174419.89999999999,"N_COORD97":2541077.2599999998,"ADDRESS":"義林六街３２號","OBJECTID":224822},"geometry":{"x":174419.90000000037,"y":2541077.2600000016}},{"attributes":{"ID":224827,"DIS_CODE":0,"TOWNNAME":"歸仁區","LI":"六甲里","LIN":"22鄰","STREET":"中正十八街","SECT":" ","MAREA":" ","LANE":"８巷","ALLEY":" ","HOUSE_NO":"３號","E_COORD97":176351.252607,"N_COORD97":2539675.3920300002,"ADDRESS":"中正十八街８巷３號","OBJECTID":224823},"geometry":{"x":176351.25260699913,"y":2539675.3920270018}},{"attributes":{"ID":224828,"DIS_CODE":0,"TOWNNAME":"歸仁區","LI":"大廟里","LIN":"22鄰","STREET":"大廟一街","SECT":" ","MAREA":" ","LANE":"９０巷","ALLEY":" ","HOUSE_NO":"１６號","E_COORD97":175737.51999999999,"N_COORD97":2543952.25,"ADDRESS":"大廟一街９０巷１６號","OBJECTID":224824},"geometry":{"x":175737.51999999862,"y":2543952.2500000019}},{"attributes":{"ID":224829,"DIS_CODE":0,"TOWNNAME":"歸仁區","LI":"大廟里","LIN":"22鄰","STREET":"大廟一街","SECT":" ","MAREA":" ","LANE":"６０巷","ALLEY":" ","HOUSE_NO":"２４號","E_COORD97":175756.42000000001,"N_COORD97":2544045.25,"ADDRESS":"大廟一街６０巷２４號","OBJECTID":224825},"geometry":{"x":175756.42000000086,"y":2544045.25}},{"attributes":{"ID":224830,"DIS_CODE":0,"TOWNNAME":"歸仁區","LI":"大廟里","LIN":"22鄰","STREET":"大廟一街","SECT":" ","MAREA":" ","LANE":"６０巷","ALLEY":" ","HOUSE_NO":"１８號","E_COORD97":175768.72,"N_COORD97":2544035.25,"ADDRESS":"大廟一街６０巷１８號","OBJECTID":224826},"geometry":{"x":175768.7200000016,"y":2544035.25}},{"attributes":{"ID":224831,"DIS_CODE":0,"TOWNNAME":"歸仁區","LI":"大廟里","LIN":"22鄰","STREET":"大廟一街","SECT":" ","MAREA":" ","LANE":"６０巷","ALLEY":" ","HOUSE_NO":"２２號","E_COORD97":175760.51999999999,"N_COORD97":2544041.25,"ADDRESS":"大廟一街６０巷２２號","OBJECTID":224827},"geometry":{"x":175760.52000000048,"y":2544041.25}},{"attributes":{"ID":224832,"DIS_CODE":0,"TOWNNAME":"歸仁區","LI":"六甲里","LIN":"22鄰","STREET":"中正十八街","SECT":" ","MAREA":" ","LANE":"８巷","ALLEY":" ","HOUSE_NO":"１２號","E_COORD97":176370.320675,"N_COORD97":2539692.0078500002,"ADDRESS":"中正十八街８巷１２號","OBJECTID":224828},"geometry":{"x":176370.32067500055,"y":2539692.0078519993}},{"attributes":{"ID":224833,"DIS_CODE":0,"TOWNNAME":"楠西區","LI":"楠西里","LIN":"22鄰","STREET":"博愛路","SECT":" ","MAREA":" ","LANE":"５０巷","ALLEY":" ","HOUSE_NO":"５號","E_COORD97":197371.82000000001,"N_COORD97":2563507.2799999998,"ADDRESS":"博愛路５０巷５號","OBJECTID":224829},"geometry":{"x":197371.8200000003,"y":2563507.2800000012}},{"attributes":{"ID":224834,"DIS_CODE":0,"TOWNNAME":"楠西區","LI":"楠西里","LIN":"22鄰","STREET":"博愛路","SECT":" ","MAREA":" ","LANE":"５０巷","ALLEY":" ","HOUSE_NO":"３號","E_COORD97":197371.22,"N_COORD97":2563503.2799999998,"ADDRESS":"博愛路５０巷３號","OBJECTID":224830},"geometry":{"x":197371.22000000067,"y":2563503.2800000012}},{"attributes":{"ID":224835,"DIS_CODE":0,"TOWNNAME":"楠西區","LI":"東勢里","LIN":"22鄰","STREET":"民生路","SECT":" ","MAREA":" ","LANE":"１７５巷","ALLEY":" ","HOUSE_NO":"１０號","E_COORD97":197461.54000000001,"N_COORD97":2564378.29,"ADDRESS":"民生路１７５巷１０號","OBJECTID":224831},"geometry":{"x":197461.54000000004,"y":2564378.290000001}},{"attributes":{"ID":224836,"DIS_CODE":0,"TOWNNAME":"楠西區","LI":"東勢里","LIN":"22鄰","STREET":"民生路","SECT":" ","MAREA":" ","LANE":"１７５巷","ALLEY":" ","HOUSE_NO":"２０號","E_COORD97":197462.64000000001,"N_COORD97":2564354.29,"ADDRESS":"民生路１７５巷２０號","OBJECTID":224832},"geometry":{"x":197462.6400000006,"y":2564354.290000001}},{"attributes":{"ID":224837,"DIS_CODE":0,"TOWNNAME":"楠西區","LI":"東勢里","LIN":"22鄰","STREET":"民生路","SECT":" ","MAREA":" ","LANE":"１７５巷","ALLEY":" ","HOUSE_NO":"２４號","E_COORD97":197462.73999999999,"N_COORD97":2564345.29,"ADDRESS":"民生路１７５巷２４號","OBJECTID":224833},"geometry":{"x":197462.74000000115,"y":2564345.2899999991}},{"attributes":{"ID":224838,"DIS_CODE":0,"TOWNNAME":"新營區","LI":"南興里","LIN":"22鄰","STREET":"延平路","SECT":" ","MAREA":" ","LANE":"１４０巷","ALLEY":" ","HOUSE_NO":"３５之１號","E_COORD97":179585.72,"N_COORD97":2577411.9199999999,"ADDRESS":"延平路１４０巷３５之１號","OBJECTID":224834},"geometry":{"x":179585.71999999974,"y":2577411.9199999999}},{"attributes":{"ID":224839,"DIS_CODE":0,"TOWNNAME":"新營區","LI":"民權里","LIN":"22鄰","STREET":"民權路","SECT":" ","MAREA":" ","LANE":"９４巷","ALLEY":" ","HOUSE_NO":"７號","E_COORD97":179717.19,"N_COORD97":2578543.04,"ADDRESS":"民權路９４巷７號","OBJECTID":224835},"geometry":{"x":179717.19000000041,"y":2578543.0399999991}},{"attributes":{"ID":224840,"DIS_CODE":0,"TOWNNAME":"新營區","LI":"民榮里","LIN":"22鄰","STREET":"裕民路","SECT":" ","MAREA":" ","LANE":"５８巷","ALLEY":" ","HOUSE_NO":"２０號","E_COORD97":179074.82000000001,"N_COORD97":2577842.8799999999,"ADDRESS":"裕民路５８巷２０號","OBJECTID":224836},"geometry":{"x":179074.82000000123,"y":2577842.8800000027}},{"attributes":{"ID":224841,"DIS_CODE":0,"TOWNNAME":"新營區","LI":"新南里","LIN":"22鄰","STREET":"復興路","SECT":" ","MAREA":" ","LANE":"６１８巷","ALLEY":" ","HOUSE_NO":"５號","E_COORD97":178071.79000000001,"N_COORD97":2578412.5099999998,"ADDRESS":"復興路６１８巷５號","OBJECTID":224837},"geometry":{"x":178071.79000000004,"y":2578412.5100000035}},{"attributes":{"ID":224842,"DIS_CODE":0,"TOWNNAME":"新營區","LI":"新南里","LIN":"22鄰","STREET":"復興路","SECT":" ","MAREA":" ","LANE":"６１８巷","ALLEY":" ","HOUSE_NO":"１３號","E_COORD97":178072.09,"N_COORD97":2578431.3399999999,"ADDRESS":"復興路６１８巷１３號","OBJECTID":224838},"geometry":{"x":178072.09000000078,"y":2578431.3400000017}},{"attributes":{"ID":224843,"DIS_CODE":0,"TOWNNAME":"北區","LI":"成德里","LIN":"29鄰","STREET":"育德路","SECT":" ","MAREA":" ","LANE":"１９９巷","ALLEY":" ","HOUSE_NO":"５３號","E_COORD97":168422.42999999999,"N_COORD97":2545682.79,"ADDRESS":"育德路１９９巷５３號","OBJECTID":224839},"geometry":{"x":168422.43000000063,"y":2545682.7900000028}},{"attributes":{"ID":224844,"DIS_CODE":0,"TOWNNAME":"北區","LI":"成德里","LIN":"29鄰","STREET":"育德路","SECT":" ","MAREA":" ","LANE":"１９９巷","ALLEY":" ","HOUSE_NO":"５５號","E_COORD97":168417.03,"N_COORD97":2545683.1099999999,"ADDRESS":"育德路１９９巷５５號","OBJECTID":224840},"geometry":{"x":168417.03000000119,"y":2545683.1099999994}},{"attributes":{"ID":224845,"DIS_CODE":0,"TOWNNAME":"北區","LI":"成德里","LIN":"29鄰","STREET":"育德路","SECT":" ","MAREA":" ","LANE":"１９９巷","ALLEY":" ","HOUSE_NO":"５７號","E_COORD97":168411,"N_COORD97":2545682.79,"ADDRESS":"育德路１９９巷５７號","OBJECTID":224841},"geometry":{"x":168411,"y":2545682.7900000028}},{"attributes":{"ID":224846,"DIS_CODE":0,"TOWNNAME":"北區","LI":"成德里","LIN":"29鄰","STREET":"育德路","SECT":" ","MAREA":" ","LANE":"１９９巷","ALLEY":" ","HOUSE_NO":"５９號","E_COORD97":168404.48999999999,"N_COORD97":2545683.4199999999,"ADDRESS":"育德路１９９巷５９號","OBJECTID":224842},"geometry":{"x":168404.49000000022,"y":2545683.4200000018}},{"attributes":{"ID":224847,"DIS_CODE":0,"TOWNNAME":"北區","LI":"成德里","LIN":"29鄰","STREET":"育德路","SECT":" ","MAREA":" ","LANE":"１９９巷","ALLEY":" ","HOUSE_NO":"６１號","E_COORD97":168399.09,"N_COORD97":2545683.4199999999,"ADDRESS":"育德路１９９巷６１號","OBJECTID":224843},"geometry":{"x":168399.09000000171,"y":2545683.4200000018}},{"attributes":{"ID":224848,"DIS_CODE":0,"TOWNNAME":"北區","LI":"成德里","LIN":"29鄰","STREET":"育德路","SECT":" ","MAREA":" ","LANE":"１９９巷","ALLEY":" ","HOUSE_NO":"６３號","E_COORD97":168393.54000000001,"N_COORD97":2545683.5800000001,"ADDRESS":"育德路１９９巷６３號","OBJECTID":224844},"geometry":{"x":168393.54000000097,"y":2545683.5800000001}},{"attributes":{"ID":224849,"DIS_CODE":0,"TOWNNAME":"北區","LI":"成德里","LIN":"29鄰","STREET":"育德路","SECT":" ","MAREA":" ","LANE":"１９９巷","ALLEY":" ","HOUSE_NO":"６５號","E_COORD97":168386.39000000001,"N_COORD97":2545683.5800000001,"ADDRESS":"育德路１９９巷６５號","OBJECTID":224845},"geometry":{"x":168386.38999999966,"y":2545683.5800000001}},{"attributes":{"ID":224850,"DIS_CODE":0,"TOWNNAME":"北區","LI":"成德里","LIN":"29鄰","STREET":"育德路","SECT":" ","MAREA":" ","LANE":"１９９巷","ALLEY":" ","HOUSE_NO":"６７號","E_COORD97":168381.16,"N_COORD97":2545683.8999999999,"ADDRESS":"育德路１９９巷６７號","OBJECTID":224846},"geometry":{"x":168381.16000000015,"y":2545683.9000000022}},{"attributes":{"ID":224851,"DIS_CODE":0,"TOWNNAME":"北區","LI":"成德里","LIN":"29鄰","STREET":"育德路","SECT":" ","MAREA":" ","LANE":"１９９巷","ALLEY":" ","HOUSE_NO":"６９號","E_COORD97":168375.12,"N_COORD97":2545684.0600000001,"ADDRESS":"育德路１９９巷６９號","OBJECTID":224847},"geometry":{"x":168375.12000000011,"y":2545684.0600000005}},{"attributes":{"ID":224852,"DIS_CODE":0,"TOWNNAME":"北區","LI":"大港里","LIN":"29鄰","STREET":"賢北街","SECT":" ","MAREA":" ","LANE":"１９５巷","ALLEY":" ","HOUSE_NO":"２９號","E_COORD97":166146.03,"N_COORD97":2545556.7000000002,"ADDRESS":"賢北街１９５巷２９號","OBJECTID":224848},"geometry":{"x":166146.03000000119,"y":2545556.6999999993}},{"attributes":{"ID":224853,"DIS_CODE":0,"TOWNNAME":"南區","LI":"文南里","LIN":"22鄰","STREET":"中華西路","SECT":"一段","MAREA":" ","LANE":"１３７巷","ALLEY":" ","HOUSE_NO":"４３號","E_COORD97":166350.70999999999,"N_COORD97":2542479.1699999999,"ADDRESS":"中華西路一段１３７巷４３號","OBJECTID":224849},"geometry":{"x":166350.71000000089,"y":2542479.1699999999}},{"attributes":{"ID":224854,"DIS_CODE":0,"TOWNNAME":"南區","LI":"南華里","LIN":"22鄰","STREET":"中華南路","SECT":"二段","MAREA":" ","LANE":"３００巷","ALLEY":" ","HOUSE_NO":"６號","E_COORD97":166730.67000000001,"N_COORD97":2540332.8599999999,"ADDRESS":"中華南路二段３００巷６號","OBJECTID":224850},"geometry":{"x":166730.67000000086,"y":2540332.8600000013}},{"attributes":{"ID":224855,"DIS_CODE":0,"TOWNNAME":"南區","LI":"南華里","LIN":"22鄰","STREET":"中華南路","SECT":"二段","MAREA":" ","LANE":"３００巷","ALLEY":" ","HOUSE_NO":"８號","E_COORD97":166730.67000000001,"N_COORD97":2540338.3100000001,"ADDRESS":"中華南路二段３００巷８號","OBJECTID":224851},"geometry":{"x":166730.67000000086,"y":2540338.3100000024}},{"attributes":{"ID":224856,"DIS_CODE":0,"TOWNNAME":"東區","LI":"德高里","LIN":"18鄰","STREET":"城東街","SECT":" ","MAREA":" ","LANE":"１２巷","ALLEY":" ","HOUSE_NO":"５２號","E_COORD97":171669.95000000001,"N_COORD97":2540654.7200000002,"ADDRESS":"城東街１２巷５２號","OBJECTID":224852},"geometry":{"x":171669.95000000019,"y":2540654.7200000025}},{"attributes":{"ID":224857,"DIS_CODE":0,"TOWNNAME":"東區","LI":"德高里","LIN":"19鄰","STREET":"仁和路","SECT":" ","MAREA":" ","LANE":"１９９巷","ALLEY":" ","HOUSE_NO":"１３號","E_COORD97":171710.78,"N_COORD97":2540886.3399999999,"ADDRESS":"仁和路１９９巷１３號","OBJECTID":224853},"geometry":{"x":171710.78000000119,"y":2540886.3400000017}},{"attributes":{"ID":224858,"DIS_CODE":0,"TOWNNAME":"東區","LI":"德高里","LIN":"19鄰","STREET":"仁和路","SECT":" ","MAREA":" ","LANE":"１９９巷","ALLEY":" ","HOUSE_NO":"２４號","E_COORD97":171723.97,"N_COORD97":2540863.4500000002,"ADDRESS":"仁和路１９９巷２４號","OBJECTID":224854},"geometry":{"x":171723.9700000016,"y":2540863.4499999993}},{"attributes":{"ID":224859,"DIS_CODE":0,"TOWNNAME":"東區","LI":"德高里","LIN":"19鄰","STREET":"仁和路","SECT":" ","MAREA":" ","LANE":"１９９巷","ALLEY":" ","HOUSE_NO":"３０號","E_COORD97":171735.04000000001,"N_COORD97":2540867.8399999999,"ADDRESS":"仁和路１９９巷３０號","OBJECTID":224855},"geometry":{"x":171735.04000000004,"y":2540867.8399999999}},{"attributes":{"ID":224860,"DIS_CODE":0,"TOWNNAME":"東區","LI":"德高里","LIN":"8鄰","STREET":"仁和路","SECT":" ","MAREA":" ","LANE":"１７８巷","ALLEY":" ","HOUSE_NO":"１６號","E_COORD97":171438.87,"N_COORD97":2541062.9700000002,"ADDRESS":"仁和路１７８巷１６號","OBJECTID":224856},"geometry":{"x":171438.87000000104,"y":2541062.9700000025}},{"attributes":{"ID":224861,"DIS_CODE":0,"TOWNNAME":"東區","LI":"德高里","LIN":"8鄰","STREET":"仁和路","SECT":" ","MAREA":" ","LANE":"２０８巷","ALLEY":" ","HOUSE_NO":"２４號","E_COORD97":171483.48000000001,"N_COORD97":2540970.6000000001,"ADDRESS":"仁和路２０８巷２４號","OBJECTID":224857},"geometry":{"x":171483.48000000045,"y":2540970.5999999996}},{"attributes":{"ID":224862,"DIS_CODE":0,"TOWNNAME":"東區","LI":"泉南里","LIN":"34鄰","STREET":"林森路","SECT":"一段","MAREA":" ","LANE":" ","ALLEY":" ","HOUSE_NO":"１４９號六樓之８","E_COORD97":169495.73000000001,"N_COORD97":2542552.3999999999,"ADDRESS":"林森路一段１４９號六樓之８","OBJECTID":224858},"geometry":{"x":169495.73000000138,"y":2542552.4000000004}},{"attributes":{"ID":224863,"DIS_CODE":0,"TOWNNAME":"東區","LI":"泉南里","LIN":"34鄰","STREET":"林森路","SECT":"一段","MAREA":" ","LANE":" ","ALLEY":" ","HOUSE_NO":"１４９號六樓之９","E_COORD97":169495.73000000001,"N_COORD97":2542552.3999999999,"ADDRESS":"林森路一段１４９號六樓之９","OBJECTID":224859},"geometry":{"x":169495.73000000138,"y":2542552.4000000004}},{"attributes":{"ID":224864,"DIS_CODE":0,"TOWNNAME":"東區","LI":"泉南里","LIN":"34鄰","STREET":"林森路","SECT":"一段","MAREA":" ","LANE":" ","ALLEY":" ","HOUSE_NO":"１４９號六樓之１０","E_COORD97":169495.73000000001,"N_COORD97":2542552.3999999999,"ADDRESS":"林森路一段１４９號六樓之１０","OBJECTID":224860},"geometry":{"x":169495.73000000138,"y":2542552.4000000004}},{"attributes":{"ID":224865,"DIS_CODE":0,"TOWNNAME":"東區","LI":"泉南里","LIN":"34鄰","STREET":"林森路","SECT":"一段","MAREA":" ","LANE":" ","ALLEY":" ","HOUSE_NO":"１４９號六樓之１１","E_COORD97":169495.73000000001,"N_COORD97":2542552.3999999999,"ADDRESS":"林森路一段１４９號六樓之１１","OBJECTID":224861},"geometry":{"x":169495.73000000138,"y":2542552.4000000004}},{"attributes":{"ID":224866,"DIS_CODE":0,"TOWNNAME":"東區","LI":"泉南里","LIN":"34鄰","STREET":"林森路","SECT":"一段","MAREA":" ","LANE":" ","ALLEY":" ","HOUSE_NO":"１４９號七樓","E_COORD97":169495.73000000001,"N_COORD97":2542552.3999999999,"ADDRESS":"林森路一段１４９號七樓","OBJECTID":224862},"geometry":{"x":169495.73000000138,"y":2542552.4000000004}},{"attributes":{"ID":224867,"DIS_CODE":0,"TOWNNAME":"東區","LI":"泉南里","LIN":"34鄰","STREET":"林森路","SECT":"一段","MAREA":" ","LANE":" ","ALLEY":" ","HOUSE_NO":"１４９號七樓之１","E_COORD97":169495.73000000001,"N_COORD97":2542552.3999999999,"ADDRESS":"林森路一段１４９號七樓之１","OBJECTID":224863},"geometry":{"x":169495.73000000138,"y":2542552.4000000004}},{"attributes":{"ID":224868,"DIS_CODE":0,"TOWNNAME":"東區","LI":"泉南里","LIN":"34鄰","STREET":"林森路","SECT":"一段","MAREA":" ","LANE":" ","ALLEY":" ","HOUSE_NO":"１４９號七樓之２","E_COORD97":169495.73000000001,"N_COORD97":2542552.3999999999,"ADDRESS":"林森路一段１４９號七樓之２","OBJECTID":224864},"geometry":{"x":169495.73000000138,"y":2542552.4000000004}},{"attributes":{"ID":224869,"DIS_CODE":0,"TOWNNAME":"東區","LI":"泉南里","LIN":"34鄰","STREET":"林森路","SECT":"一段","MAREA":" ","LANE":" ","ALLEY":" ","HOUSE_NO":"１４９號七樓之３","E_COORD97":169495.73000000001,"N_COORD97":2542552.3999999999,"ADDRESS":"林森路一段１４９號七樓之３","OBJECTID":224865},"geometry":{"x":169495.73000000138,"y":2542552.4000000004}},{"attributes":{"ID":224870,"DIS_CODE":0,"TOWNNAME":"東區","LI":"泉南里","LIN":"34鄰","STREET":"林森路","SECT":"一段","MAREA":" ","LANE":" ","ALLEY":" ","HOUSE_NO":"１４９號七樓之４","E_COORD97":169495.73000000001,"N_COORD97":2542552.3999999999,"ADDRESS":"林森路一段１４９號七樓之４","OBJECTID":224866},"geometry":{"x":169495.73000000138,"y":2542552.4000000004}},{"attributes":{"ID":224871,"DIS_CODE":0,"TOWNNAME":"北區","LI":"文元里","LIN":"29鄰","STREET":"海安路","SECT":"三段","MAREA":" ","LANE":"７８１巷","ALLEY":" ","HOUSE_NO":"５７號","E_COORD97":167852.26000000001,"N_COORD97":2545976.6400000001,"ADDRESS":"海安路三段７８１巷５７號","OBJECTID":224867},"geometry":{"x":167852.26000000071,"y":2545976.6399999987}},{"attributes":{"ID":224872,"DIS_CODE":0,"TOWNNAME":"北區","LI":"文元里","LIN":"29鄰","STREET":"海安路","SECT":"三段","MAREA":" ","LANE":"７８１巷","ALLEY":" ","HOUSE_NO":"５９號","E_COORD97":167844.17000000001,"N_COORD97":2545976.48,"ADDRESS":"海安路三段７８１巷５９號","OBJECTID":224868},"geometry":{"x":167844.17000000179,"y":2545976.4800000004}},{"attributes":{"ID":224873,"DIS_CODE":0,"TOWNNAME":"東區","LI":"德高里","LIN":"12鄰","STREET":"崇善路","SECT":" ","MAREA":" ","LANE":"９１３巷","ALLEY":" ","HOUSE_NO":"３號","E_COORD97":171424.98000000001,"N_COORD97":2540697.9500000002,"ADDRESS":"崇善路９１３巷３號","OBJECTID":224869},"geometry":{"x":171424.98000000138,"y":2540697.950000003}},{"attributes":{"ID":224874,"DIS_CODE":0,"TOWNNAME":"東區","LI":"德高里","LIN":"12鄰","STREET":"崇善路","SECT":" ","MAREA":" ","LANE":"９１３巷","ALLEY":" ","HOUSE_NO":"１７號","E_COORD97":171421.54999999999,"N_COORD97":2540732.9100000001,"ADDRESS":"崇善路９１３巷１７號","OBJECTID":224870},"geometry":{"x":171421.54999999981,"y":2540732.9100000039}},{"attributes":{"ID":224875,"DIS_CODE":0,"TOWNNAME":"東區","LI":"德高里","LIN":"10鄰","STREET":"崇善路","SECT":" ","MAREA":" ","LANE":"８３５巷","ALLEY":" ","HOUSE_NO":"１０號","E_COORD97":171394.82999999999,"N_COORD97":2540844.5899999999,"ADDRESS":"崇善路８３５巷１０號","OBJECTID":224871},"geometry":{"x":171394.83000000194,"y":2540844.5900000017}},{"attributes":{"ID":224876,"DIS_CODE":0,"TOWNNAME":"東區","LI":"泉南里","LIN":"34鄰","STREET":"林森路","SECT":"一段","MAREA":" ","LANE":" ","ALLEY":" ","HOUSE_NO":"１４９號七樓之５","E_COORD97":169495.73000000001,"N_COORD97":2542552.3999999999,"ADDRESS":"林森路一段１４９號七樓之５","OBJECTID":224872},"geometry":{"x":169495.73000000138,"y":2542552.4000000004}},{"attributes":{"ID":224877,"DIS_CODE":0,"TOWNNAME":"東區","LI":"泉南里","LIN":"34鄰","STREET":"林森路","SECT":"一段","MAREA":" ","LANE":" ","ALLEY":" ","HOUSE_NO":"１４９號七樓之６","E_COORD97":169495.73000000001,"N_COORD97":2542552.3999999999,"ADDRESS":"林森路一段１４９號七樓之６","OBJECTID":224873},"geometry":{"x":169495.73000000138,"y":2542552.4000000004}},{"attributes":{"ID":224878,"DIS_CODE":0,"TOWNNAME":"仁德區","LI":"仁義里","LIN":"55鄰","STREET":"中正路","SECT":"二段","MAREA":" ","LANE":"１１６０巷","ALLEY":" ","HOUSE_NO":"１３號","E_COORD97":173309.38,"N_COORD97":2541271.7799999998,"ADDRESS":"中正路二段１１６０巷１３號","OBJECTID":224874},"geometry":{"x":173309.37999999989,"y":2541271.7799999975}},{"attributes":{"ID":224879,"DIS_CODE":0,"TOWNNAME":"東區","LI":"德高里","LIN":"10鄰","STREET":"崇善路","SECT":" ","MAREA":" ","LANE":"９１３巷","ALLEY":" ","HOUSE_NO":"５０號","E_COORD97":171418.70000000001,"N_COORD97":2540814.4100000001,"ADDRESS":"崇善路９１３巷５０號","OBJECTID":224875},"geometry":{"x":171418.70000000019,"y":2540814.4100000039}},{"attributes":{"ID":224880,"DIS_CODE":0,"TOWNNAME":"東區","LI":"德高里","LIN":"9鄰","STREET":"仁和路","SECT":" ","MAREA":" ","LANE":"２０８巷","ALLEY":" ","HOUSE_NO":"５２號","E_COORD97":171434.37,"N_COORD97":2540927.8999999999,"ADDRESS":"仁和路２０８巷５２號","OBJECTID":224876},"geometry":{"x":171434.37000000011,"y":2540927.9000000022}},{"attributes":{"ID":224881,"DIS_CODE":0,"TOWNNAME":"北區","LI":"成德里","LIN":"22鄰","STREET":"中華北路","SECT":"二段","MAREA":" ","LANE":"１９４巷","ALLEY":" ","HOUSE_NO":"５７號","E_COORD97":168357.29999999999,"N_COORD97":2546637.04,"ADDRESS":"中華北路二段１９４巷５７號","OBJECTID":224877},"geometry":{"x":168357.30000000075,"y":2546637.0400000028}},{"attributes":{"ID":224882,"DIS_CODE":0,"TOWNNAME":"北區","LI":"文成里","LIN":"22鄰","STREET":"文賢二街","SECT":" ","MAREA":" ","LANE":"１８０巷","ALLEY":" ","HOUSE_NO":"８號","E_COORD97":167805.20000000001,"N_COORD97":2545613.2999999998,"ADDRESS":"文賢二街１８０巷８號","OBJECTID":224878},"geometry":{"x":167805.19999999925,"y":2545613.3000000045}},{"attributes":{"ID":224883,"DIS_CODE":0,"TOWNNAME":"北區","LI":"文成里","LIN":"22鄰","STREET":"文賢二街","SECT":" ","MAREA":" ","LANE":"１８０巷","ALLEY":" ","HOUSE_NO":"１０號","E_COORD97":167809.39000000001,"N_COORD97":2545614.1899999999,"ADDRESS":"文賢二街１８０巷１０號","OBJECTID":224879},"geometry":{"x":167809.3900000006,"y":2545614.1900000013}},{"attributes":{"ID":224884,"DIS_CODE":0,"TOWNNAME":"北區","LI":"文成里","LIN":"22鄰","STREET":"文賢二街","SECT":" ","MAREA":" ","LANE":"１８０巷","ALLEY":" ","HOUSE_NO":"１２號","E_COORD97":167814.47,"N_COORD97":2545615.2000000002,"ADDRESS":"文賢二街１８０巷１２號","OBJECTID":224880},"geometry":{"x":167814.46999999974,"y":2545615.1999999993}},{"attributes":{"ID":224885,"DIS_CODE":0,"TOWNNAME":"東區","LI":"東光里","LIN":"16鄰","STREET":"莊敬路","SECT":" ","MAREA":" ","LANE":"５８巷","ALLEY":" ","HOUSE_NO":"２０號","E_COORD97":171393.79000000001,"N_COORD97":2543796.54,"ADDRESS":"莊敬路５８巷２０號","OBJECTID":224881},"geometry":{"x":171393.79000000097,"y":2543796.540000001}},{"attributes":{"ID":224886,"DIS_CODE":0,"TOWNNAME":"北區","LI":"文成里","LIN":"22鄰","STREET":"文賢二街","SECT":" ","MAREA":" ","LANE":"１８０巷","ALLEY":" ","HOUSE_NO":"２６號","E_COORD97":167838.09,"N_COORD97":2545621.0499999998,"ADDRESS":"文賢二街１８０巷２６號","OBJECTID":224882},"geometry":{"x":167838.09000000078,"y":2545621.0500000007}},{"attributes":{"ID":224887,"DIS_CODE":0,"TOWNNAME":"善化區","LI":"光文里","LIN":"22鄰","STREET":"光華路","SECT":" ","MAREA":" ","LANE":"３５巷","ALLEY":" ","HOUSE_NO":"１９號二樓","E_COORD97":178563.67999999999,"N_COORD97":2559258.25,"ADDRESS":"光華路３５巷１９號二樓","OBJECTID":224883},"geometry":{"x":178563.6799999997,"y":2559258.25}},{"attributes":{"ID":224888,"DIS_CODE":0,"TOWNNAME":"善化區","LI":"光文里","LIN":"22鄰","STREET":"光華路","SECT":" ","MAREA":" ","LANE":"１２８巷","ALLEY":" ","HOUSE_NO":"１７號七樓","E_COORD97":178683.04000000001,"N_COORD97":2559513.25,"ADDRESS":"光華路１２８巷１７號七樓","OBJECTID":224884},"geometry":{"x":178683.04000000097,"y":2559513.2500000037}},{"attributes":{"ID":224889,"DIS_CODE":0,"TOWNNAME":"善化區","LI":"光文里","LIN":"22鄰","STREET":"光華路","SECT":" ","MAREA":" ","LANE":"１２８巷","ALLEY":" ","HOUSE_NO":"１５號七樓之１","E_COORD97":178681.26000000001,"N_COORD97":2559500.52,"ADDRESS":"光華路１２８巷１５號七樓之１","OBJECTID":224885},"geometry":{"x":178681.26000000071,"y":2559500.5199999977}},{"attributes":{"ID":224890,"DIS_CODE":0,"TOWNNAME":"善化區","LI":"光文里","LIN":"22鄰","STREET":"光華路","SECT":" ","MAREA":" ","LANE":"１２８巷","ALLEY":" ","HOUSE_NO":"１０號６樓之１","E_COORD97":178668.31,"N_COORD97":2559510.02,"ADDRESS":"光華路１２８巷１０號６樓之１","OBJECTID":224886},"geometry":{"x":178668.30999999866,"y":2559510.0199999996}},{"attributes":{"ID":224891,"DIS_CODE":0,"TOWNNAME":"善化區","LI":"光文里","LIN":"22鄰","STREET":"光華路","SECT":" ","MAREA":" ","LANE":"３５巷","ALLEY":" ","HOUSE_NO":"１９號三樓","E_COORD97":178563.67999999999,"N_COORD97":2559258.25,"ADDRESS":"光華路３５巷１９號三樓","OBJECTID":224887},"geometry":{"x":178563.6799999997,"y":2559258.25}},{"attributes":{"ID":224892,"DIS_CODE":0,"TOWNNAME":"東區","LI":"泉南里","LIN":"24鄰","STREET":"府連路","SECT":" ","MAREA":" ","LANE":"３４４巷","ALLEY":" ","HOUSE_NO":"２號之１","E_COORD97":169599.95000000001,"N_COORD97":2542772.7999999998,"ADDRESS":"府連路３４４巷２號之１","OBJECTID":224888},"geometry":{"x":169599.95000000019,"y":2542772.8000000026}},{"attributes":{"ID":224893,"DIS_CODE":0,"TOWNNAME":"東區","LI":"崇德里","LIN":"22鄰","STREET":"崇德路","SECT":" ","MAREA":" ","LANE":"５０８巷","ALLEY":" ","HOUSE_NO":"２８號五樓","E_COORD97":170683.32000000001,"N_COORD97":2541577.1200000001,"ADDRESS":"崇德路５０８巷２８號五樓","OBJECTID":224889},"geometry":{"x":170683.32000000123,"y":2541577.1200000029}},{"attributes":{"ID":224894,"DIS_CODE":0,"TOWNNAME":"東區","LI":"東安里","LIN":"13鄰","STREET":"長榮路","SECT":"二段","MAREA":" ","LANE":"３２巷","ALLEY":" ","HOUSE_NO":"１７９號","E_COORD97":170157.92999999999,"N_COORD97":2543214.3900000001,"ADDRESS":"長榮路二段３２巷１７９號","OBJECTID":224890},"geometry":{"x":170157.93000000156,"y":2543214.3900000006}},{"attributes":{"ID":224895,"DIS_CODE":0,"TOWNNAME":"東區","LI":"裕農里","LIN":"7鄰","STREET":"裕農路","SECT":" ","MAREA":" ","LANE":"３４５巷","ALLEY":" ","HOUSE_NO":"２１號","E_COORD97":170951.23000000001,"N_COORD97":2543151.3999999999,"ADDRESS":"裕農路３４５巷２１號","OBJECTID":224891},"geometry":{"x":170951.23000000045,"y":2543151.4000000022}},{"attributes":{"ID":224896,"DIS_CODE":0,"TOWNNAME":"東區","LI":"泉南里","LIN":"34鄰","STREET":"林森路","SECT":"一段","MAREA":" ","LANE":" ","ALLEY":" ","HOUSE_NO":"１４９號七樓之７","E_COORD97":169495.73000000001,"N_COORD97":2542552.3999999999,"ADDRESS":"林森路一段１４９號七樓之７","OBJECTID":224892},"geometry":{"x":169495.73000000138,"y":2542552.4000000004}},{"attributes":{"ID":224897,"DIS_CODE":0,"TOWNNAME":"北區","LI":"大豐里","LIN":"29鄰","STREET":"和緯路","SECT":"四段","MAREA":" ","LANE":"１１７巷","ALLEY":" ","HOUSE_NO":"２９號","E_COORD97":167081.64999999999,"N_COORD97":2545401.6699999999,"ADDRESS":"和緯路四段１１７巷２９號","OBJECTID":224893},"geometry":{"x":167081.65000000037,"y":2545401.6699999999}},{"attributes":{"ID":224898,"DIS_CODE":0,"TOWNNAME":"東區","LI":"中西里","LIN":"6鄰","STREET":"勝利路","SECT":" ","MAREA":" ","LANE":"１２巷","ALLEY":" ","HOUSE_NO":"８９號","E_COORD97":169950.57999999999,"N_COORD97":2543397.2599999998,"ADDRESS":"勝利路１２巷８９號","OBJECTID":224894},"geometry":{"x":169950.58000000101,"y":2543397.2599999998}},{"attributes":{"ID":224899,"DIS_CODE":0,"TOWNNAME":"東區","LI":"小東里","LIN":"19鄰","STREET":"東興路","SECT":" ","MAREA":" ","LANE":"３１４巷","ALLEY":" ","HOUSE_NO":"１６號","E_COORD97":171119.16,"N_COORD97":2544107.7999999998,"ADDRESS":"東興路３１４巷１６號","OBJECTID":224895},"geometry":{"x":171119.16000000015,"y":2544107.8000000045}},{"attributes":{"ID":224900,"DIS_CODE":0,"TOWNNAME":"東區","LI":"小東里","LIN":"22鄰","STREET":"光明街","SECT":" ","MAREA":" ","LANE":"１７５巷","ALLEY":" ","HOUSE_NO":"３０號四樓","E_COORD97":171002.98999999999,"N_COORD97":2544156.7000000002,"ADDRESS":"光明街１７５巷３０號四樓","OBJECTID":224896},"geometry":{"x":171002.99000000115,"y":2544156.6999999993}},{"attributes":{"ID":224901,"DIS_CODE":0,"TOWNNAME":"東區","LI":"忠孝里","LIN":"7鄰","STREET":"榮譽街","SECT":" ","MAREA":" ","LANE":"８４巷","ALLEY":" ","HOUSE_NO":"９９號","E_COORD97":169865.45000000001,"N_COORD97":2541631.75,"ADDRESS":"榮譽街８４巷９９號","OBJECTID":224897},"geometry":{"x":169865.45000000112,"y":2541631.75}},{"attributes":{"ID":224902,"DIS_CODE":0,"TOWNNAME":"東區","LI":"崇德里","LIN":"24鄰","STREET":"崇德路","SECT":" ","MAREA":" ","LANE":"５５０巷","ALLEY":" ","HOUSE_NO":"３１號","E_COORD97":170696,"N_COORD97":2541445.8599999999,"ADDRESS":"崇德路５５０巷３１號","OBJECTID":224898},"geometry":{"x":170696,"y":2541445.8600000013}},{"attributes":{"ID":224903,"DIS_CODE":0,"TOWNNAME":"東區","LI":"自強里","LIN":"22鄰","STREET":"富農街","SECT":"一段","MAREA":" ","LANE":"１９１巷","ALLEY":" ","HOUSE_NO":"７號五樓","E_COORD97":171481.98000000001,"N_COORD97":2542578.0699999998,"ADDRESS":"富農街一段１９１巷７號五樓","OBJECTID":224899},"geometry":{"x":171481.98000000045,"y":2542578.0700000022}},{"attributes":{"ID":224904,"DIS_CODE":0,"TOWNNAME":"東區","LI":"自強里","LIN":"22鄰","STREET":"富農街","SECT":"一段","MAREA":" ","LANE":"１９１巷","ALLEY":" ","HOUSE_NO":"７號四樓","E_COORD97":171481.98000000001,"N_COORD97":2542578.0699999998,"ADDRESS":"富農街一段１９１巷７號四樓","OBJECTID":224900},"geometry":{"x":171481.98000000045,"y":2542578.0700000022}},{"attributes":{"ID":224905,"DIS_CODE":0,"TOWNNAME":"東區","LI":"成大里","LIN":"22鄰","STREET":"育樂街","SECT":" ","MAREA":" ","LANE":"５７巷","ALLEY":" ","HOUSE_NO":"３號二樓之１４","E_COORD97":169666.14000000001,"N_COORD97":2543968.1899999999,"ADDRESS":"育樂街５７巷３號二樓之１４","OBJECTID":224901},"geometry":{"x":169666.13999999966,"y":2543968.1900000032}},{"attributes":{"ID":224906,"DIS_CODE":0,"TOWNNAME":"東區","LI":"成大里","LIN":"22鄰","STREET":"育樂街","SECT":" ","MAREA":" ","LANE":"５７巷","ALLEY":" ","HOUSE_NO":"３號二樓之１５","E_COORD97":169666.14000000001,"N_COORD97":2543968.1899999999,"ADDRESS":"育樂街５７巷３號二樓之１５","OBJECTID":224902},"geometry":{"x":169666.13999999966,"y":2543968.1900000032}},{"attributes":{"ID":224907,"DIS_CODE":0,"TOWNNAME":"東區","LI":"成大里","LIN":"22鄰","STREET":"育樂街","SECT":" ","MAREA":" ","LANE":"５７巷","ALLEY":" ","HOUSE_NO":"３號二樓之１６","E_COORD97":169666.14000000001,"N_COORD97":2543968.1899999999,"ADDRESS":"育樂街５７巷３號二樓之１６","OBJECTID":224903},"geometry":{"x":169666.13999999966,"y":2543968.1900000032}},{"attributes":{"ID":224908,"DIS_CODE":0,"TOWNNAME":"東區","LI":"成大里","LIN":"22鄰","STREET":"育樂街","SECT":" ","MAREA":" ","LANE":"５７巷","ALLEY":" ","HOUSE_NO":"３號二樓之２","E_COORD97":169666.14000000001,"N_COORD97":2543968.1899999999,"ADDRESS":"育樂街５７巷３號二樓之２","OBJECTID":224904},"geometry":{"x":169666.13999999966,"y":2543968.1900000032}},{"attributes":{"ID":224909,"DIS_CODE":0,"TOWNNAME":"東區","LI":"成大里","LIN":"22鄰","STREET":"育樂街","SECT":" ","MAREA":" ","LANE":"５７巷","ALLEY":" ","HOUSE_NO":"３號四樓之１６","E_COORD97":169666.14000000001,"N_COORD97":2543968.1899999999,"ADDRESS":"育樂街５７巷３號四樓之１６","OBJECTID":224905},"geometry":{"x":169666.13999999966,"y":2543968.1900000032}},{"attributes":{"ID":224910,"DIS_CODE":0,"TOWNNAME":"東區","LI":"成大里","LIN":"22鄰","STREET":"育樂街","SECT":" ","MAREA":" ","LANE":"５７巷","ALLEY":" ","HOUSE_NO":"３號二樓之１","E_COORD97":169666.14000000001,"N_COORD97":2543968.1899999999,"ADDRESS":"育樂街５７巷３號二樓之１","OBJECTID":224906},"geometry":{"x":169666.13999999966,"y":2543968.1900000032}},{"attributes":{"ID":224911,"DIS_CODE":0,"TOWNNAME":"東區","LI":"成大里","LIN":"22鄰","STREET":"育樂街","SECT":" ","MAREA":" ","LANE":"５７巷","ALLEY":" ","HOUSE_NO":"３號四樓之２","E_COORD97":169666.14000000001,"N_COORD97":2543968.1899999999,"ADDRESS":"育樂街５７巷３號四樓之２","OBJECTID":224907},"geometry":{"x":169666.13999999966,"y":2543968.1900000032}},{"attributes":{"ID":224912,"DIS_CODE":0,"TOWNNAME":"東區","LI":"崇德里","LIN":"22鄰","STREET":"崇德路","SECT":" ","MAREA":" ","LANE":"５０８巷","ALLEY":" ","HOUSE_NO":"１８號","E_COORD97":170707.10999999999,"N_COORD97":2541573.5899999999,"ADDRESS":"崇德路５０８巷１８號","OBJECTID":224908},"geometry":{"x":170707.11000000127,"y":2541573.5900000017}},{"attributes":{"ID":224913,"DIS_CODE":0,"TOWNNAME":"永康區","LI":"網寮里","LIN":"22鄰","STREET":"永春街","SECT":" ","MAREA":" ","LANE":"１３巷","ALLEY":" ","HOUSE_NO":"３９號六樓","E_COORD97":173682,"N_COORD97":2546207.2000000002,"ADDRESS":"永春街１３巷３９號六樓","OBJECTID":224909},"geometry":{"x":173682.00000000186,"y":2546207.2000000011}},{"attributes":{"ID":224914,"DIS_CODE":0,"TOWNNAME":"東區","LI":"崇善里","LIN":"16鄰","STREET":"崇善十一街","SECT":" ","MAREA":" ","LANE":"５５巷","ALLEY":" ","HOUSE_NO":"２號之１","E_COORD97":171258.22,"N_COORD97":2541278.8599999999,"ADDRESS":"崇善十一街５５巷２號之１","OBJECTID":224910},"geometry":{"x":171258.22000000067,"y":2541278.8600000013}},{"attributes":{"ID":224915,"DIS_CODE":0,"TOWNNAME":"東區","LI":"崇德里","LIN":"19鄰","STREET":"崇明十三街","SECT":" ","MAREA":" ","LANE":"１１巷","ALLEY":" ","HOUSE_NO":"６７號","E_COORD97":170505.84,"N_COORD97":2541718.5600000001,"ADDRESS":"崇明十三街１１巷６７號","OBJECTID":224911},"geometry":{"x":170505.83999999985,"y":2541718.5600000005}},{"attributes":{"ID":224916,"DIS_CODE":0,"TOWNNAME":"東區","LI":"崇德里","LIN":"19鄰","STREET":"崇明十三街","SECT":" ","MAREA":" ","LANE":"１１巷","ALLEY":" ","HOUSE_NO":"６９號","E_COORD97":170499.28,"N_COORD97":2541725.1000000001,"ADDRESS":"崇明十三街１１巷６９號","OBJECTID":224912},"geometry":{"x":170499.28000000119,"y":2541725.1000000015}},{"attributes":{"ID":224917,"DIS_CODE":0,"TOWNNAME":"東區","LI":"崇德里","LIN":"19鄰","STREET":"崇明十三街","SECT":" ","MAREA":" ","LANE":"１１巷","ALLEY":" ","HOUSE_NO":"７１號","E_COORD97":170506.62,"N_COORD97":2541731.6499999999,"ADDRESS":"崇明十三街１１巷７１號","OBJECTID":224913},"geometry":{"x":170506.62000000104,"y":2541731.6500000041}},{"attributes":{"ID":224918,"DIS_CODE":0,"TOWNNAME":"東區","LI":"崇德里","LIN":"19鄰","STREET":"崇明十三街","SECT":" ","MAREA":" ","LANE":"１１巷","ALLEY":" ","HOUSE_NO":"７３號","E_COORD97":170514.22,"N_COORD97":2541739.5,"ADDRESS":"崇明十三街１１巷７３號","OBJECTID":224914},"geometry":{"x":170514.22000000067,"y":2541739.5000000019}},{"attributes":{"ID":224919,"DIS_CODE":0,"TOWNNAME":"東區","LI":"泉南里","LIN":"34鄰","STREET":"林森路","SECT":"一段","MAREA":" ","LANE":" ","ALLEY":" ","HOUSE_NO":"１４９號七樓之８","E_COORD97":169495.73000000001,"N_COORD97":2542552.3999999999,"ADDRESS":"林森路一段１４９號七樓之８","OBJECTID":224915},"geometry":{"x":169495.73000000138,"y":2542552.4000000004}},{"attributes":{"ID":224920,"DIS_CODE":0,"TOWNNAME":"新營區","LI":"忠政里","LIN":"29鄰","STREET":"中正路","SECT":" ","MAREA":" ","LANE":"３９巷","ALLEY":" ","HOUSE_NO":"１３５號之１２","E_COORD97":179708.48999999999,"N_COORD97":2579327.23,"ADDRESS":"中正路３９巷１３５號之１２","OBJECTID":224916},"geometry":{"x":179708.49000000022,"y":2579327.2300000042}},{"attributes":{"ID":224921,"DIS_CODE":0,"TOWNNAME":"新營區","LI":"王公里","LIN":"29鄰","STREET":"長榮路","SECT":"一段","MAREA":" ","LANE":"５１５巷","ALLEY":" ","HOUSE_NO":"４３號","E_COORD97":180311.14000000001,"N_COORD97":2579717.46,"ADDRESS":"長榮路一段５１５巷４３號","OBJECTID":224917},"geometry":{"x":180311.1400000006,"y":2579717.4600000028}},{"attributes":{"ID":224922,"DIS_CODE":0,"TOWNNAME":"新營區","LI":"民生里","LIN":"29鄰","STREET":"民治路","SECT":" ","MAREA":" ","LANE":"２２５巷","ALLEY":" ","HOUSE_NO":"４３號","E_COORD97":178873.95999999999,"N_COORD97":2578401.9900000002,"ADDRESS":"民治路２２５巷４３號","OBJECTID":224918},"geometry":{"x":178873.95999999996,"y":2578401.9900000002}},{"attributes":{"ID":224923,"DIS_CODE":0,"TOWNNAME":"東區","LI":"崇德里","LIN":"19鄰","STREET":"崇明十三街","SECT":" ","MAREA":" ","LANE":"１１巷","ALLEY":" ","HOUSE_NO":"７５號","E_COORD97":170521.56,"N_COORD97":2541746.0499999998,"ADDRESS":"崇明十三街１１巷７５號","OBJECTID":224919},"geometry":{"x":170521.56000000052,"y":2541746.0500000007}},{"attributes":{"ID":224924,"DIS_CODE":0,"TOWNNAME":"東區","LI":"崇德里","LIN":"19鄰","STREET":"崇明十三街","SECT":" ","MAREA":" ","LANE":"１１巷","ALLEY":" ","HOUSE_NO":"７７號","E_COORD97":170527.32000000001,"N_COORD97":2541740.8100000001,"ADDRESS":"崇明十三街１１巷７７號","OBJECTID":224920},"geometry":{"x":170527.32000000123,"y":2541740.8099999987}},{"attributes":{"ID":224925,"DIS_CODE":0,"TOWNNAME":"東區","LI":"後甲里","LIN":"11鄰","STREET":"裕農路","SECT":" ","MAREA":" ","LANE":"６６１巷","ALLEY":" ","HOUSE_NO":"７５號","E_COORD97":171704.88,"N_COORD97":2543404.98,"ADDRESS":"裕農路６６１巷７５號","OBJECTID":224921},"geometry":{"x":171704.88000000082,"y":2543404.9800000023}},{"attributes":{"ID":224926,"DIS_CODE":0,"TOWNNAME":"東區","LI":"東光里","LIN":"5鄰","STREET":"東興路","SECT":" ","MAREA":" ","LANE":"２０巷","ALLEY":" ","HOUSE_NO":"４５號","E_COORD97":170975.41,"N_COORD97":2543442.6699999999,"ADDRESS":"東興路２０巷４５號","OBJECTID":224922},"geometry":{"x":170975.40999999922,"y":2543442.6699999999}},{"attributes":{"ID":224927,"DIS_CODE":0,"TOWNNAME":"東區","LI":"後甲里","LIN":"24鄰","STREET":"中華東路","SECT":"一段","MAREA":" ","LANE":"２１７巷","ALLEY":" ","HOUSE_NO":"５１號","E_COORD97":171549.53,"N_COORD97":2543398.6699999999,"ADDRESS":"中華東路一段２１７巷５１號","OBJECTID":224923},"geometry":{"x":171549.53000000212,"y":2543398.6699999999}},{"attributes":{"ID":224928,"DIS_CODE":0,"TOWNNAME":"東區","LI":"東聖里","LIN":"1鄰","STREET":"中華東路","SECT":"二段","MAREA":" ","LANE":"７巷","ALLEY":" ","HOUSE_NO":"１２號","E_COORD97":171438.88,"N_COORD97":2543114.2799999998,"ADDRESS":"中華東路二段７巷１２號","OBJECTID":224924},"geometry":{"x":171438.88000000082,"y":2543114.2800000012}},{"attributes":{"ID":224929,"DIS_CODE":0,"TOWNNAME":"東區","LI":"中西里","LIN":"6鄰","STREET":"勝利路","SECT":" ","MAREA":" ","LANE":"１２巷","ALLEY":" ","HOUSE_NO":"１１３號","E_COORD97":169965.60000000001,"N_COORD97":2543359.3199999998,"ADDRESS":"勝利路１２巷１１３號","OBJECTID":224925},"geometry":{"x":169965.60000000056,"y":2543359.3200000022}},{"attributes":{"ID":224930,"DIS_CODE":0,"TOWNNAME":"東區","LI":"中西里","LIN":"10鄰","STREET":"勝利路","SECT":" ","MAREA":" ","LANE":"５２巷","ALLEY":" ","HOUSE_NO":"２６號","E_COORD97":169896.88,"N_COORD97":2543521.6899999999,"ADDRESS":"勝利路５２巷２６號","OBJECTID":224926},"geometry":{"x":169896.87999999989,"y":2543521.6900000013}},{"attributes":{"ID":224931,"DIS_CODE":0,"TOWNNAME":"東區","LI":"和平里","LIN":"23鄰","STREET":"自由路","SECT":"二段","MAREA":" ","LANE":"１７５巷","ALLEY":" ","HOUSE_NO":"１１號","E_COORD97":171765.97,"N_COORD97":2541628.29,"ADDRESS":"自由路二段１７５巷１１號","OBJECTID":224927},"geometry":{"x":171765.96999999974,"y":2541628.290000001}},{"attributes":{"ID":224932,"DIS_CODE":0,"TOWNNAME":"東區","LI":"泉南里","LIN":"34鄰","STREET":"林森路","SECT":"一段","MAREA":" ","LANE":" ","ALLEY":" ","HOUSE_NO":"１４９號七樓之９","E_COORD97":169495.73000000001,"N_COORD97":2542552.3999999999,"ADDRESS":"林森路一段１４９號七樓之９","OBJECTID":224928},"geometry":{"x":169495.73000000138,"y":2542552.4000000004}},{"attributes":{"ID":224933,"DIS_CODE":0,"TOWNNAME":"東區","LI":"泉南里","LIN":"34鄰","STREET":"林森路","SECT":"一段","MAREA":" ","LANE":" ","ALLEY":" ","HOUSE_NO":"１４９號七樓之１０","E_COORD97":169495.73000000001,"N_COORD97":2542552.3999999999,"ADDRESS":"林森路一段１４９號七樓之１０","OBJECTID":224929},"geometry":{"x":169495.73000000138,"y":2542552.4000000004}},{"attributes":{"ID":224934,"DIS_CODE":0,"TOWNNAME":"東區","LI":"泉南里","LIN":"34鄰","STREET":"林森路","SECT":"一段","MAREA":" ","LANE":" ","ALLEY":" ","HOUSE_NO":"１４９號七樓之１１","E_COORD97":169495.73000000001,"N_COORD97":2542552.3999999999,"ADDRESS":"林森路一段１４９號七樓之１１","OBJECTID":224930},"geometry":{"x":169495.73000000138,"y":2542552.4000000004}},{"attributes":{"ID":224935,"DIS_CODE":0,"TOWNNAME":"新營區","LI":"王公里","LIN":"29鄰","STREET":"大公街","SECT":" ","MAREA":" ","LANE":"７２巷","ALLEY":" ","HOUSE_NO":"２號","E_COORD97":180302.26999999999,"N_COORD97":2579621.1499999999,"ADDRESS":"大公街７２巷２號","OBJECTID":224931},"geometry":{"x":180302.26999999955,"y":2579621.1500000004}},{"attributes":{"ID":224936,"DIS_CODE":0,"TOWNNAME":"新營區","LI":"王公里","LIN":"29鄰","STREET":"大公街","SECT":" ","MAREA":" ","LANE":"７２巷","ALLEY":" ","HOUSE_NO":"５號","E_COORD97":180285.85999999999,"N_COORD97":2579623.4399999999,"ADDRESS":"大公街７２巷５號","OBJECTID":224932},"geometry":{"x":180285.86000000034,"y":2579623.4400000013}},{"attributes":{"ID":224937,"DIS_CODE":0,"TOWNNAME":"南區","LI":"文南里","LIN":"22鄰","STREET":"中華西路","SECT":"一段","MAREA":" ","LANE":"１３７巷","ALLEY":" ","HOUSE_NO":"４５號","E_COORD97":166345.98999999999,"N_COORD97":2542479.0800000001,"ADDRESS":"中華西路一段１３７巷４５號","OBJECTID":224933},"geometry":{"x":166345.99000000115,"y":2542479.0800000019}},{"attributes":{"ID":224938,"DIS_CODE":0,"TOWNNAME":"東區","LI":"大學里","LIN":"8鄰","STREET":"大學路","SECT":" ","MAREA":" ","LANE":"１８巷","ALLEY":" ","HOUSE_NO":"２２號","E_COORD97":170116.37,"N_COORD97":2543876.6600000001,"ADDRESS":"大學路１８巷２２號","OBJECTID":224934},"geometry":{"x":170116.37000000197,"y":2543876.6600000001}},{"attributes":{"ID":224939,"DIS_CODE":0,"TOWNNAME":"東區","LI":"富強里","LIN":"7鄰","STREET":"裕農路","SECT":" ","MAREA":" ","LANE":"４４６巷","ALLEY":" ","HOUSE_NO":"３３號之８","E_COORD97":171259.82000000001,"N_COORD97":2542973.04,"ADDRESS":"裕農路４４６巷３３號之８","OBJECTID":224935},"geometry":{"x":171259.82000000123,"y":2542973.040000001}},{"attributes":{"ID":224940,"DIS_CODE":0,"TOWNNAME":"東區","LI":"富強里","LIN":"7鄰","STREET":"裕農路","SECT":" ","MAREA":" ","LANE":"４４６巷","ALLEY":" ","HOUSE_NO":"３３號之９","E_COORD97":171260.70000000001,"N_COORD97":2542969.2400000002,"ADDRESS":"裕農路４４６巷３３號之９","OBJECTID":224936},"geometry":{"x":171260.70000000112,"y":2542969.2400000021}},{"attributes":{"ID":224941,"DIS_CODE":0,"TOWNNAME":"東區","LI":"忠孝里","LIN":"10鄰","STREET":"中華東路","SECT":"三段","MAREA":" ","LANE":"３８０巷","ALLEY":" ","HOUSE_NO":"６０號","E_COORD97":169958.29000000001,"N_COORD97":2541782.4700000002,"ADDRESS":"中華東路三段３８０巷６０號","OBJECTID":224937},"geometry":{"x":169958.29000000004,"y":2541782.4700000007}},{"attributes":{"ID":224942,"DIS_CODE":0,"TOWNNAME":"東區","LI":"忠孝里","LIN":"10鄰","STREET":"中華東路","SECT":"三段","MAREA":" ","LANE":"３８０巷","ALLEY":" ","HOUSE_NO":"６２號","E_COORD97":169954.85999999999,"N_COORD97":2541787.9100000001,"ADDRESS":"中華東路三段３８０巷６２號","OBJECTID":224938},"geometry":{"x":169954.86000000034,"y":2541787.910000002}},{"attributes":{"ID":224943,"DIS_CODE":0,"TOWNNAME":"東區","LI":"虎尾里","LIN":"36鄰","STREET":"東成街","SECT":" ","MAREA":" ","LANE":"２００巷","ALLEY":" ","HOUSE_NO":"６３號","E_COORD97":171900.35000000001,"N_COORD97":2542113.25,"ADDRESS":"東成街２００巷６３號","OBJECTID":224939},"geometry":{"x":171900.34999999963,"y":2542113.25}},{"attributes":{"ID":224944,"DIS_CODE":0,"TOWNNAME":"東區","LI":"虎尾里","LIN":"36鄰","STREET":"東成街","SECT":" ","MAREA":" ","LANE":"２００巷","ALLEY":" ","HOUSE_NO":"６５號","E_COORD97":171900.22,"N_COORD97":2542108.6600000001,"ADDRESS":"東成街２００巷６５號","OBJECTID":224940},"geometry":{"x":171900.2200000016,"y":2542108.660000002}},{"attributes":{"ID":224945,"DIS_CODE":0,"TOWNNAME":"東區","LI":"虎尾里","LIN":"36鄰","STREET":"東成街","SECT":" ","MAREA":" ","LANE":"２００巷","ALLEY":" ","HOUSE_NO":"６７號","E_COORD97":171900.35000000001,"N_COORD97":2542103.9399999999,"ADDRESS":"東成街２００巷６７號","OBJECTID":224941},"geometry":{"x":171900.34999999963,"y":2542103.9399999995}},{"attributes":{"ID":224946,"DIS_CODE":0,"TOWNNAME":"東區","LI":"虎尾里","LIN":"36鄰","STREET":"東成街","SECT":" ","MAREA":" ","LANE":"２００巷","ALLEY":" ","HOUSE_NO":"６９號","E_COORD97":171900.22,"N_COORD97":2542099.48,"ADDRESS":"東成街２００巷６９號","OBJECTID":224942},"geometry":{"x":171900.2200000016,"y":2542099.4800000023}},{"attributes":{"ID":224947,"DIS_CODE":0,"TOWNNAME":"東區","LI":"虎尾里","LIN":"24鄰","STREET":"東成街","SECT":" ","MAREA":" ","LANE":"２２２巷","ALLEY":" ","HOUSE_NO":"５１號","E_COORD97":171942.92000000001,"N_COORD97":2542152.9100000001,"ADDRESS":"東成街２２２巷５１號","OBJECTID":224943},"geometry":{"x":171942.91999999993,"y":2542152.9100000001}},{"attributes":{"ID":224948,"DIS_CODE":0,"TOWNNAME":"東區","LI":"泉南里","LIN":"34鄰","STREET":"林森路","SECT":"一段","MAREA":" ","LANE":" ","ALLEY":" ","HOUSE_NO":"１４９號八樓","E_COORD97":169495.73000000001,"N_COORD97":2542552.3999999999,"ADDRESS":"林森路一段１４９號八樓","OBJECTID":224944},"geometry":{"x":169495.73000000138,"y":2542552.4000000004}},{"attributes":{"ID":224949,"DIS_CODE":0,"TOWNNAME":"安平區","LI":"平通里","LIN":"29鄰","STREET":"育平七街","SECT":" ","MAREA":" ","LANE":"６０巷","ALLEY":" ","HOUSE_NO":"４３號","E_COORD97":164435.82000000001,"N_COORD97":2543886.7599999998,"ADDRESS":"育平七街６０巷４３號","OBJECTID":224945},"geometry":{"x":164435.8200000003,"y":2543886.7600000035}},{"attributes":{"ID":224950,"DIS_CODE":0,"TOWNNAME":"仁德區","LI":"仁德里","LIN":"18鄰","STREET":"文華路","SECT":"三段","MAREA":" ","LANE":"１８９巷","ALLEY":" ","HOUSE_NO":"７９號","E_COORD97":172087.48000000001,"N_COORD97":2540451.5,"ADDRESS":"文華路三段１８９巷７９號","OBJECTID":224946},"geometry":{"x":172087.48000000231,"y":2540451.5000000019}},{"attributes":{"ID":224951,"DIS_CODE":0,"TOWNNAME":"仁德區","LI":"太子里","LIN":"35鄰","STREET":"太子路","SECT":" ","MAREA":" ","LANE":"４５９巷","ALLEY":" ","HOUSE_NO":"１１號","E_COORD97":174238.79999999999,"N_COORD97":2543457.75,"ADDRESS":"太子路４５９巷１１號","OBJECTID":224947},"geometry":{"x":174238.79999999981,"y":2543457.7500000019}},{"attributes":{"ID":224952,"DIS_CODE":0,"TOWNNAME":"安平區","LI":"平通里","LIN":"29鄰","STREET":"育平七街","SECT":" ","MAREA":" ","LANE":"６０巷","ALLEY":" ","HOUSE_NO":"１號","E_COORD97":164441.41,"N_COORD97":2543794.6600000001,"ADDRESS":"育平七街６０巷１號","OBJECTID":224948},"geometry":{"x":164441.41000000108,"y":2543794.6600000001}},{"attributes":{"ID":224953,"DIS_CODE":0,"TOWNNAME":"安平區","LI":"平通里","LIN":"29鄰","STREET":"育平七街","SECT":" ","MAREA":" ","LANE":"６０巷","ALLEY":" ","HOUSE_NO":"３號","E_COORD97":164440.999484,"N_COORD97":2543799.9838700001,"ADDRESS":"育平七街６０巷３號","OBJECTID":224949},"geometry":{"x":164440.99948400073,"y":2543799.9838720001}},{"attributes":{"ID":224954,"DIS_CODE":0,"TOWNNAME":"東區","LI":"虎尾里","LIN":"24鄰","STREET":"東成街","SECT":" ","MAREA":" ","LANE":"２２２巷","ALLEY":" ","HOUSE_NO":"５３號","E_COORD97":171941.53,"N_COORD97":2542143.3399999999,"ADDRESS":"東成街２２２巷５３號","OBJECTID":224950},"geometry":{"x":171941.53000000119,"y":2542143.339999998}},{"attributes":{"ID":224955,"DIS_CODE":0,"TOWNNAME":"東區","LI":"虎尾里","LIN":"24鄰","STREET":"東成街","SECT":" ","MAREA":" ","LANE":"２２２巷","ALLEY":" ","HOUSE_NO":"６０號","E_COORD97":171919.88,"N_COORD97":2542149.3799999999,"ADDRESS":"東成街２２２巷６０號","OBJECTID":224951},"geometry":{"x":171919.88000000082,"y":2542149.3800000008}},{"attributes":{"ID":224956,"DIS_CODE":0,"TOWNNAME":"東區","LI":"虎尾里","LIN":"24鄰","STREET":"東成街","SECT":" ","MAREA":" ","LANE":"２２２巷","ALLEY":" ","HOUSE_NO":"６２號","E_COORD97":171919.88,"N_COORD97":2542144.6600000001,"ADDRESS":"東成街２２２巷６２號","OBJECTID":224952},"geometry":{"x":171919.88000000082,"y":2542144.6600000001}},{"attributes":{"ID":224957,"DIS_CODE":0,"TOWNNAME":"東區","LI":"虎尾里","LIN":"24鄰","STREET":"東成街","SECT":" ","MAREA":" ","LANE":"２２２巷","ALLEY":" ","HOUSE_NO":"６４號","E_COORD97":171919.60000000001,"N_COORD97":2542140.5,"ADDRESS":"東成街２２２巷６４號","OBJECTID":224953},"geometry":{"x":171919.60000000149,"y":2542140.5000000019}},{"attributes":{"ID":224958,"DIS_CODE":0,"TOWNNAME":"東區","LI":"虎尾里","LIN":"24鄰","STREET":"東成街","SECT":" ","MAREA":" ","LANE":"２２２巷","ALLEY":" ","HOUSE_NO":"６６號","E_COORD97":171919.45999999999,"N_COORD97":2542135.79,"ADDRESS":"東成街２２２巷６６號","OBJECTID":224954},"geometry":{"x":171919.46000000089,"y":2542135.7899999991}},{"attributes":{"ID":224959,"DIS_CODE":0,"TOWNNAME":"東區","LI":"虎尾里","LIN":"24鄰","STREET":"東成街","SECT":" ","MAREA":" ","LANE":"２２２巷","ALLEY":" ","HOUSE_NO":"６８號","E_COORD97":171919.17999999999,"N_COORD97":2542131.4900000002,"ADDRESS":"東成街２２２巷６８號","OBJECTID":224955},"geometry":{"x":171919.18000000156,"y":2542131.4900000002}},{"attributes":{"ID":224960,"DIS_CODE":0,"TOWNNAME":"東區","LI":"虎尾里","LIN":"24鄰","STREET":"東成街","SECT":" ","MAREA":" ","LANE":"２２２巷","ALLEY":" ","HOUSE_NO":"７０號","E_COORD97":171918.89999999999,"N_COORD97":2542126.4300000002,"ADDRESS":"東成街２２２巷７０號","OBJECTID":224956},"geometry":{"x":171918.9000000013,"y":2542126.4300000016}},{"attributes":{"ID":224961,"DIS_CODE":0,"TOWNNAME":"東區","LI":"虎尾里","LIN":"24鄰","STREET":"東成街","SECT":" ","MAREA":" ","LANE":"２２２巷","ALLEY":" ","HOUSE_NO":"７２號","E_COORD97":171918.63,"N_COORD97":2542121.9900000002,"ADDRESS":"東成街２２２巷７２號","OBJECTID":224957},"geometry":{"x":171918.63000000082,"y":2542121.9900000002}},{"attributes":{"ID":224962,"DIS_CODE":0,"TOWNNAME":"東區","LI":"虎尾里","LIN":"24鄰","STREET":"東成街","SECT":" ","MAREA":" ","LANE":"２２２巷","ALLEY":" ","HOUSE_NO":"７４號","E_COORD97":171918.63,"N_COORD97":2542117.5499999998,"ADDRESS":"東成街２２２巷７４號","OBJECTID":224958},"geometry":{"x":171918.63000000082,"y":2542117.5500000026}},{"attributes":{"ID":224963,"DIS_CODE":0,"TOWNNAME":"東區","LI":"大學里","LIN":"14鄰","STREET":"長榮路","SECT":"三段","MAREA":" ","LANE":"３０巷","ALLEY":" ","HOUSE_NO":"１０號","E_COORD97":170253.04999999999,"N_COORD97":2543698.3199999998,"ADDRESS":"長榮路三段３０巷１０號","OBJECTID":224959},"geometry":{"x":170253.04999999981,"y":2543698.3200000022}},{"attributes":{"ID":224964,"DIS_CODE":0,"TOWNNAME":"東區","LI":"關聖里","LIN":"9鄰","STREET":"裕農路","SECT":" ","MAREA":" ","LANE":"７２６巷","ALLEY":" ","HOUSE_NO":"６６號","E_COORD97":171854.64000000001,"N_COORD97":2543043.9500000002,"ADDRESS":"裕農路７２６巷６６號","OBJECTID":224960},"geometry":{"x":171854.63999999966,"y":2543043.950000003}},{"attributes":{"ID":224965,"DIS_CODE":0,"TOWNNAME":"東區","LI":"泉南里","LIN":"34鄰","STREET":"林森路","SECT":"一段","MAREA":" ","LANE":" ","ALLEY":" ","HOUSE_NO":"１４９號八樓之１","E_COORD97":169495.73000000001,"N_COORD97":2542552.3999999999,"ADDRESS":"林森路一段１４９號八樓之１","OBJECTID":224961},"geometry":{"x":169495.73000000138,"y":2542552.4000000004}},{"attributes":{"ID":224966,"DIS_CODE":0,"TOWNNAME":"東區","LI":"泉南里","LIN":"34鄰","STREET":"林森路","SECT":"一段","MAREA":" ","LANE":" ","ALLEY":" ","HOUSE_NO":"１４９號八樓之２","E_COORD97":169495.73000000001,"N_COORD97":2542552.3999999999,"ADDRESS":"林森路一段１４９號八樓之２","OBJECTID":224962},"geometry":{"x":169495.73000000138,"y":2542552.4000000004}},{"attributes":{"ID":224967,"DIS_CODE":0,"TOWNNAME":"東區","LI":"泉南里","LIN":"34鄰","STREET":"林森路","SECT":"一段","MAREA":" ","LANE":" ","ALLEY":" ","HOUSE_NO":"１４９號八樓之３","E_COORD97":169495.73000000001,"N_COORD97":2542552.3999999999,"ADDRESS":"林森路一段１４９號八樓之３","OBJECTID":224963},"geometry":{"x":169495.73000000138,"y":2542552.4000000004}},{"attributes":{"ID":224968,"DIS_CODE":0,"TOWNNAME":"東區","LI":"泉南里","LIN":"34鄰","STREET":"林森路","SECT":"一段","MAREA":" ","LANE":" ","ALLEY":" ","HOUSE_NO":"１４９號八樓之４","E_COORD97":169495.73000000001,"N_COORD97":2542552.3999999999,"ADDRESS":"林森路一段１４９號八樓之４","OBJECTID":224964},"geometry":{"x":169495.73000000138,"y":2542552.4000000004}},{"attributes":{"ID":224969,"DIS_CODE":0,"TOWNNAME":"仁德區","LI":"仁義里","LIN":"1鄰","STREET":"中山路","SECT":" ","MAREA":" ","LANE":" ","ALLEY":" ","HOUSE_NO":"１３７號","E_COORD97":174654.32999999999,"N_COORD97":2541145,"ADDRESS":"中山路１３７號","OBJECTID":224965},"geometry":{"x":174654.33000000007,"y":2541145}},{"attributes":{"ID":224970,"DIS_CODE":0,"TOWNNAME":"東區","LI":"關聖里","LIN":"9鄰","STREET":"裕農路","SECT":" ","MAREA":" ","LANE":"７２６巷","ALLEY":" ","HOUSE_NO":"６８號","E_COORD97":171850.14999999999,"N_COORD97":2543042.0499999998,"ADDRESS":"裕農路７２６巷６８號","OBJECTID":224966},"geometry":{"x":171850.15000000037,"y":2543042.0500000026}},{"attributes":{"ID":224971,"DIS_CODE":0,"TOWNNAME":"中西區","LI":"西賢里","LIN":"20鄰","STREET":"西賢一街","SECT":" ","MAREA":" ","LANE":"１８７巷","ALLEY":" ","HOUSE_NO":"１號","E_COORD97":165657.85999999999,"N_COORD97":2544937.6699999999,"ADDRESS":"西賢一街１８７巷１號","OBJECTID":224967},"geometry":{"x":165657.86000000034,"y":2544937.6699999999}},{"attributes":{"ID":224972,"DIS_CODE":0,"TOWNNAME":"中西區","LI":"水仙里","LIN":"16鄰","STREET":"西門路","SECT":"二段","MAREA":" ","LANE":"３０７巷","ALLEY":" ","HOUSE_NO":"３２號","E_COORD97":167882.23000000001,"N_COORD97":2544208.1200000001,"ADDRESS":"西門路二段３０７巷３２號","OBJECTID":224968},"geometry":{"x":167882.23000000138,"y":2544208.1200000029}},{"attributes":{"ID":224973,"DIS_CODE":0,"TOWNNAME":"中西區","LI":"水仙里","LIN":"16鄰","STREET":"西門路","SECT":"二段","MAREA":" ","LANE":"３０７巷","ALLEY":" ","HOUSE_NO":"６號","E_COORD97":167940.82999999999,"N_COORD97":2544177.7999999998,"ADDRESS":"西門路二段３０７巷６號","OBJECTID":224969},"geometry":{"x":167940.83000000007,"y":2544177.8000000007}},{"attributes":{"ID":224974,"DIS_CODE":0,"TOWNNAME":"下營區","LI":"仁里里","LIN":"22鄰","STREET":"仁里街","SECT":" ","MAREA":" ","LANE":"１２２巷","ALLEY":" ","HOUSE_NO":"１５號之１","E_COORD97":174141.94,"N_COORD97":2569961.8999999999,"ADDRESS":"仁里街１２２巷１５號之１","OBJECTID":224970},"geometry":{"x":174141.94000000041,"y":2569961.9000000041}},{"attributes":{"ID":224975,"DIS_CODE":0,"TOWNNAME":"下營區","LI":"仁里里","LIN":"22鄰","STREET":"仁里街","SECT":" ","MAREA":" ","LANE":"１２２巷","ALLEY":" ","HOUSE_NO":"１５號","E_COORD97":174150.01000000001,"N_COORD97":2569966.6800000002,"ADDRESS":"仁里街１２２巷１５號","OBJECTID":224971},"geometry":{"x":174150.01000000071,"y":2569966.6800000016}},{"attributes":{"ID":224976,"DIS_CODE":0,"TOWNNAME":"下營區","LI":"仁里里","LIN":"22鄰","STREET":"仁里街","SECT":" ","MAREA":" ","LANE":"１２２巷","ALLEY":" ","HOUSE_NO":"１７號","E_COORD97":174134.53,"N_COORD97":2569962.8199999998,"ADDRESS":"仁里街１２２巷１７號","OBJECTID":224972},"geometry":{"x":174134.53000000026,"y":2569962.8200000022}},{"attributes":{"ID":224977,"DIS_CODE":0,"TOWNNAME":"東區","LI":"泉南里","LIN":"34鄰","STREET":"林森路","SECT":"一段","MAREA":" ","LANE":" ","ALLEY":" ","HOUSE_NO":"１４９號八樓之５","E_COORD97":169495.73000000001,"N_COORD97":2542552.3999999999,"ADDRESS":"林森路一段１４９號八樓之５","OBJECTID":224973},"geometry":{"x":169495.73000000138,"y":2542552.4000000004}},{"attributes":{"ID":224978,"DIS_CODE":0,"TOWNNAME":"歸仁區","LI":"許厝里","LIN":"29鄰","STREET":"大智街","SECT":" ","MAREA":" ","LANE":"２３巷","ALLEY":" ","HOUSE_NO":"１０號","E_COORD97":177967.57999999999,"N_COORD97":2540663.5299999998,"ADDRESS":"大智街２３巷１０號","OBJECTID":224974},"geometry":{"x":177967.58000000101,"y":2540663.5300000031}},{"attributes":{"ID":224979,"DIS_CODE":0,"TOWNNAME":"歸仁區","LI":"許厝里","LIN":"29鄰","STREET":"大智街","SECT":" ","MAREA":" ","LANE":"２３巷","ALLEY":" ","HOUSE_NO":"８號","E_COORD97":177964.23000000001,"N_COORD97":2540664.5299999998,"ADDRESS":"大智街２３巷８號","OBJECTID":224975},"geometry":{"x":177964.23000000045,"y":2540664.5300000012}},{"attributes":{"ID":224980,"DIS_CODE":0,"TOWNNAME":"下營區","LI":"仁里里","LIN":"22鄰","STREET":"仁里街","SECT":" ","MAREA":" ","LANE":"１２２巷","ALLEY":" ","HOUSE_NO":"１９號","E_COORD97":174130.10999999999,"N_COORD97":2569962.7599999998,"ADDRESS":"仁里街１２２巷１９號","OBJECTID":224976},"geometry":{"x":174130.11000000034,"y":2569962.7600000016}},{"attributes":{"ID":224981,"DIS_CODE":0,"TOWNNAME":"下營區","LI":"仁里里","LIN":"22鄰","STREET":"仁里街","SECT":" ","MAREA":" ","LANE":"１２２巷","ALLEY":" ","HOUSE_NO":"１號","E_COORD97":174192.10000000001,"N_COORD97":2569955.5499999998,"ADDRESS":"仁里街１２２巷１號","OBJECTID":224977},"geometry":{"x":174192.09999999963,"y":2569955.5500000026}},{"attributes":{"ID":224982,"DIS_CODE":0,"TOWNNAME":"下營區","LI":"仁里里","LIN":"22鄰","STREET":"仁里街","SECT":" ","MAREA":" ","LANE":"１２２巷","ALLEY":" ","HOUSE_NO":"２１號","E_COORD97":174122.20000000001,"N_COORD97":2569961.9300000002,"ADDRESS":"仁里街１２２巷２１號","OBJECTID":224978},"geometry":{"x":174122.20000000112,"y":2569961.9300000016}},{"attributes":{"ID":224983,"DIS_CODE":0,"TOWNNAME":"下營區","LI":"仁里里","LIN":"22鄰","STREET":"仁里街","SECT":" ","MAREA":" ","LANE":"１２２巷","ALLEY":" ","HOUSE_NO":"２３號","E_COORD97":174104.37,"N_COORD97":2569973.6699999999,"ADDRESS":"仁里街１２２巷２３號","OBJECTID":224979},"geometry":{"x":174104.37000000011,"y":2569973.6700000018}},{"attributes":{"ID":224984,"DIS_CODE":0,"TOWNNAME":"下營區","LI":"仁里里","LIN":"22鄰","STREET":"仁里街","SECT":" ","MAREA":" ","LANE":"１２２巷","ALLEY":" ","HOUSE_NO":"２７號","E_COORD97":174089.82999999999,"N_COORD97":2569970.8700000001,"ADDRESS":"仁里街１２２巷２７號","OBJECTID":224980},"geometry":{"x":174089.83000000007,"y":2569970.8700000029}},{"attributes":{"ID":224985,"DIS_CODE":0,"TOWNNAME":"下營區","LI":"仁里里","LIN":"22鄰","STREET":"仁里街","SECT":" ","MAREA":" ","LANE":"１２２巷","ALLEY":" ","HOUSE_NO":"２９號","E_COORD97":174084.87,"N_COORD97":2569972.0299999998,"ADDRESS":"仁里街１２２巷２９號","OBJECTID":224981},"geometry":{"x":174084.87000000197,"y":2569972.0299999993}},{"attributes":{"ID":224986,"DIS_CODE":0,"TOWNNAME":"下營區","LI":"仁里里","LIN":"22鄰","STREET":"仁里街","SECT":" ","MAREA":" ","LANE":"１２２巷","ALLEY":" ","HOUSE_NO":"３１號","E_COORD97":174080.04000000001,"N_COORD97":2569972.7200000002,"ADDRESS":"仁里街１２２巷３１號","OBJECTID":224982},"geometry":{"x":174080.03999999911,"y":2569972.7200000007}},{"attributes":{"ID":224987,"DIS_CODE":0,"TOWNNAME":"下營區","LI":"仁里里","LIN":"22鄰","STREET":"仁里街","SECT":" ","MAREA":" ","LANE":"１２２巷","ALLEY":" ","HOUSE_NO":"３３號","E_COORD97":174075.06,"N_COORD97":2569973.6800000002,"ADDRESS":"仁里街１２２巷３３號","OBJECTID":224983},"geometry":{"x":174075.06000000052,"y":2569973.6800000016}},{"attributes":{"ID":224988,"DIS_CODE":0,"TOWNNAME":"下營區","LI":"仁里里","LIN":"22鄰","STREET":"仁里街","SECT":" ","MAREA":" ","LANE":"１２２巷","ALLEY":" ","HOUSE_NO":"５號","E_COORD97":174179.38,"N_COORD97":2569957.4700000002,"ADDRESS":"仁里街１２２巷５號","OBJECTID":224984},"geometry":{"x":174179.38000000175,"y":2569957.4700000007}},{"attributes":{"ID":224989,"DIS_CODE":0,"TOWNNAME":"下營區","LI":"仁里里","LIN":"22鄰","STREET":"仁里街","SECT":" ","MAREA":" ","LANE":"１２２巷","ALLEY":" ","HOUSE_NO":"６１號","E_COORD97":173970.01000000001,"N_COORD97":2569994.5600000001,"ADDRESS":"仁里街１２２巷６１號","OBJECTID":224985},"geometry":{"x":173970.01000000071,"y":2569994.5600000042}},{"attributes":{"ID":224990,"DIS_CODE":0,"TOWNNAME":"歸仁區","LI":"看西里","LIN":"2鄰","STREET":"仁愛南街","SECT":" ","MAREA":" ","LANE":"１１７巷","ALLEY":" ","HOUSE_NO":"３５號","E_COORD97":178384.54521400001,"N_COORD97":2540364.7374499999,"ADDRESS":"仁愛南街１１７巷３５號","OBJECTID":224986},"geometry":{"x":178384.54521400016,"y":2540364.7374479994}},{"attributes":{"ID":224991,"DIS_CODE":0,"TOWNNAME":"下營區","LI":"仁里里","LIN":"22鄰","STREET":"仁里街","SECT":" ","MAREA":" ","LANE":"１７６巷","ALLEY":" ","HOUSE_NO":"１０號","E_COORD97":174101.98000000001,"N_COORD97":2569796.0699999998,"ADDRESS":"仁里街１７６巷１０號","OBJECTID":224987},"geometry":{"x":174101.98000000138,"y":2569796.0700000003}},{"attributes":{"ID":224992,"DIS_CODE":0,"TOWNNAME":"東區","LI":"泉南里","LIN":"34鄰","STREET":"林森路","SECT":"一段","MAREA":" ","LANE":" ","ALLEY":" ","HOUSE_NO":"１４９號八樓之６","E_COORD97":169495.73000000001,"N_COORD97":2542552.3999999999,"ADDRESS":"林森路一段１４９號八樓之６","OBJECTID":224988},"geometry":{"x":169495.73000000138,"y":2542552.4000000004}},{"attributes":{"ID":224993,"DIS_CODE":0,"TOWNNAME":"東區","LI":"泉南里","LIN":"34鄰","STREET":"林森路","SECT":"一段","MAREA":" ","LANE":" ","ALLEY":" ","HOUSE_NO":"１４９號八樓之７","E_COORD97":169495.73000000001,"N_COORD97":2542552.3999999999,"ADDRESS":"林森路一段１４９號八樓之７","OBJECTID":224989},"geometry":{"x":169495.73000000138,"y":2542552.4000000004}},{"attributes":{"ID":224994,"DIS_CODE":0,"TOWNNAME":"下營區","LI":"仁里里","LIN":"22鄰","STREET":"仁里街","SECT":" ","MAREA":" ","LANE":"１７６巷","ALLEY":" ","HOUSE_NO":"２號","E_COORD97":174159.07000000001,"N_COORD97":2569797.2999999998,"ADDRESS":"仁里街１７６巷２號","OBJECTID":224990},"geometry":{"x":174159.0700000003,"y":2569797.3000000026}},{"attributes":{"ID":224995,"DIS_CODE":0,"TOWNNAME":"下營區","LI":"仁里里","LIN":"22鄰","STREET":"仁里街","SECT":" ","MAREA":" ","LANE":"１７６巷","ALLEY":" ","HOUSE_NO":"５９號","E_COORD97":173915.73000000001,"N_COORD97":2569765.4300000002,"ADDRESS":"仁里街１７６巷５９號","OBJECTID":224991},"geometry":{"x":173915.73000000045,"y":2569765.4300000016}},{"attributes":{"ID":224996,"DIS_CODE":0,"TOWNNAME":"永康區","LI":"永康里","LIN":"22鄰","STREET":"中山南路","SECT":" ","MAREA":" ","LANE":"４７１巷","ALLEY":" ","HOUSE_NO":"４２號之１","E_COORD97":173183.67999999999,"N_COORD97":2547155.2999999998,"ADDRESS":"中山南路４７１巷４２號之１","OBJECTID":224992},"geometry":{"x":173183.67999999877,"y":2547155.3000000007}},{"attributes":{"ID":224997,"DIS_CODE":0,"TOWNNAME":"永康區","LI":"正強里","LIN":"22鄰","STREET":"自強路","SECT":" ","MAREA":" ","LANE":"３２１巷","ALLEY":" ","HOUSE_NO":"８號","E_COORD97":173440.42999999999,"N_COORD97":2547774.75,"ADDRESS":"自強路３２１巷８號","OBJECTID":224993},"geometry":{"x":173440.43000000063,"y":2547774.75}},{"attributes":{"ID":224998,"DIS_CODE":0,"TOWNNAME":"東山區","LI":"東山里","LIN":"29鄰","STREET":" ","SECT":" ","MAREA":"東山","LANE":" ","ALLEY":" ","HOUSE_NO":"５６３號","E_COORD97":188787.39999999999,"N_COORD97":2580415.8199999998,"ADDRESS":"東山５６３號","OBJECTID":224994},"geometry":{"x":188787.4000000013,"y":2580415.8200000022}},{"attributes":{"ID":224999,"DIS_CODE":0,"TOWNNAME":"永康區","LI":"網寮里","LIN":"22鄰","STREET":"永春街","SECT":" ","MAREA":" ","LANE":"２５巷","ALLEY":" ","HOUSE_NO":"１３號","E_COORD97":173740.01000000001,"N_COORD97":2546271.7400000002,"ADDRESS":"永春街２５巷１３號","OBJECTID":224995},"geometry":{"x":173740.01000000071,"y":2546271.7400000021}},{"attributes":{"ID":225000,"DIS_CODE":0,"TOWNNAME":"永康區","LI":"龍潭里","LIN":"22鄰","STREET":"龍橋街","SECT":" ","MAREA":" ","LANE":"６６巷","ALLEY":" ","HOUSE_NO":"７號","E_COORD97":174743.56,"N_COORD97":2548517.5,"ADDRESS":"龍橋街６６巷７號","OBJECTID":224996},"geometry":{"x":174743.55999999959,"y":2548517.5000000019}},{"attributes":{"ID":225001,"DIS_CODE":0,"TOWNNAME":"東山區","LI":"東山里","LIN":"29鄰","STREET":" ","SECT":" ","MAREA":"東山","LANE":" ","ALLEY":" ","HOUSE_NO":"５６４號","E_COORD97":188787.04999999999,"N_COORD97":2580422.48,"ADDRESS":"東山５６４號","OBJECTID":224997},"geometry":{"x":188787.04999999981,"y":2580422.4800000004}},{"attributes":{"ID":225002,"DIS_CODE":0,"TOWNNAME":"白河區","LI":"永安里","LIN":"22鄰","STREET":"西安街","SECT":" ","MAREA":" ","LANE":"７７巷","ALLEY":" ","HOUSE_NO":"２號","E_COORD97":189723.57000000001,"N_COORD97":2582801.3700000001,"ADDRESS":"西安街７７巷２號","OBJECTID":224998},"geometry":{"x":189723.57000000123,"y":2582801.370000001}},{"attributes":{"ID":225003,"DIS_CODE":0,"TOWNNAME":"東區","LI":"圍下里","LIN":"22鄰","STREET":"衛民街","SECT":" ","MAREA":" ","LANE":"２４巷","ALLEY":" ","HOUSE_NO":"２５號","E_COORD97":169271.03,"N_COORD97":2543827.98,"ADDRESS":"衛民街２４巷２５號","OBJECTID":224999},"geometry":{"x":169271.03000000026,"y":2543827.9799999986}},{"attributes":{"ID":225004,"DIS_CODE":0,"TOWNNAME":"仁德區","LI":"仁德里","LIN":"23鄰","STREET":"文心路","SECT":" ","MAREA":" ","LANE":"５８巷","ALLEY":" ","HOUSE_NO":"６６號","E_COORD97":172257.76000000001,"N_COORD97":2541341.0800000001,"ADDRESS":"文心路５８巷６６號","OBJECTID":225000},"geometry":{"x":172257.76000000164,"y":2541341.0800000001}}]}