{"displayFieldName":"TOWNNAME","fieldAliases":{"ID":"ID","DIS_CODE":"DIS_CODE","TOWNNAME":"TOWNNAME","LI":"LI","LIN":"LIN","STREET":"STREET","SECT":"SECT","MAREA":"MAREA","LANE":"LANE","ALLEY":"ALLEY","HOUSE_NO":"HOUSE_NO","E_COORD97":"E_COORD97","N_COORD97":"N_COORD97","ADDRESS":"ADDRESS","OBJECTID":"OBJECTID"},"geometryType":"esriGeometryPoint","spatialReference":{"wkid":102443,"latestWkid":3826},"fields":[{"name":"ID","type":"esriFieldTypeDouble","alias":"ID"},{"name":"DIS_CODE","type":"esriFieldTypeInteger","alias":"DIS_CODE"},{"name":"TOWNNAME","type":"esriFieldTypeString","alias":"TOWNNAME","length":8},{"name":"LI","type":"esriFieldTypeString","alias":"LI","length":8},{"name":"LIN","type":"esriFieldTypeString","alias":"LIN","length":12},{"name":"STREET","type":"esriFieldTypeString","alias":"STREET","length":20},{"name":"SECT","type":"esriFieldTypeString","alias":"SECT","length":8},{"name":"MAREA","type":"esriFieldTypeString","alias":"MAREA","length":12},{"name":"LANE","type":"esriFieldTypeString","alias":"LANE","length":10},{"name":"ALLEY","type":"esriFieldTypeString","alias":"ALLEY","length":10},{"name":"HOUSE_NO","type":"esriFieldTypeString","alias":"HOUSE_NO","length":20},{"name":"E_COORD97","type":"esriFieldTypeDouble","alias":"E_COORD97"},{"name":"N_COORD97","type":"esriFieldTypeDouble","alias":"N_COORD97"},{"name":"ADDRESS","type":"esriFieldTypeString","alias":"ADDRESS","length":50},{"name":"OBJECTID","type":"esriFieldTypeOID","alias":"OBJECTID"}],"features":[{"attributes":{"ID":518028,"DIS_CODE":0,"TOWNNAME":"永康區","LI":"烏竹里","LIN":"1鄰","STREET":"烏竹北街","SECT":" ","MAREA":" ","LANE":" ","ALLEY":" ","HOUSE_NO":"７５號","E_COORD97":174517.56,"N_COORD97":2549498.8300000001,"ADDRESS":"烏竹北街７５號","OBJECTID":518001},"geometry":{"x":174517.56000000052,"y":2549498.8300000019}},{"attributes":{"ID":518029,"DIS_CODE":0,"TOWNNAME":"永康區","LI":"埔園里","LIN":"1鄰","STREET":"中山路","SECT":" ","MAREA":" ","LANE":" ","ALLEY":" ","HOUSE_NO":"９０號","E_COORD97":173814.82999999999,"N_COORD97":2547634.7400000002,"ADDRESS":"中山路９０號","OBJECTID":518002},"geometry":{"x":173814.83000000007,"y":2547634.7400000021}},{"attributes":{"ID":518030,"DIS_CODE":0,"TOWNNAME":"永康區","LI":"埔園里","LIN":"1鄰","STREET":"中山路","SECT":" ","MAREA":" ","LANE":" ","ALLEY":" ","HOUSE_NO":"７８號","E_COORD97":173830.13,"N_COORD97":2547582,"ADDRESS":"中山路７８號","OBJECTID":518003},"geometry":{"x":173830.13000000175,"y":2547582.0000000019}},{"attributes":{"ID":518031,"DIS_CODE":0,"TOWNNAME":"永康區","LI":"埔園里","LIN":"1鄰","STREET":"中山路","SECT":" ","MAREA":" ","LANE":" ","ALLEY":" ","HOUSE_NO":"７６號","E_COORD97":173828.89999999999,"N_COORD97":2547565.5,"ADDRESS":"中山路７６號","OBJECTID":518004},"geometry":{"x":173828.90000000224,"y":2547565.5}},{"attributes":{"ID":518032,"DIS_CODE":0,"TOWNNAME":"永康區","LI":"烏竹里","LIN":"1鄰","STREET":"烏竹街","SECT":" ","MAREA":" ","LANE":" ","ALLEY":" ","HOUSE_NO":"６７號","E_COORD97":174482.98999999999,"N_COORD97":2549374.7599999998,"ADDRESS":"烏竹街６７號","OBJECTID":518005},"geometry":{"x":174482.99000000115,"y":2549374.7599999998}},{"attributes":{"ID":518033,"DIS_CODE":0,"TOWNNAME":"永康區","LI":"烏竹里","LIN":"1鄰","STREET":"烏竹街","SECT":" ","MAREA":" ","LANE":" ","ALLEY":" ","HOUSE_NO":"７５號","E_COORD97":174487.39999999999,"N_COORD97":2549390.8300000001,"ADDRESS":"烏竹街７５號","OBJECTID":518006},"geometry":{"x":174487.4000000013,"y":2549390.8300000001}},{"attributes":{"ID":518034,"DIS_CODE":0,"TOWNNAME":"永康區","LI":"東灣里","LIN":"1鄰","STREET":"南灣街","SECT":" ","MAREA":" ","LANE":" ","ALLEY":" ","HOUSE_NO":"８號","E_COORD97":174625.01999999999,"N_COORD97":2544898.71,"ADDRESS":"南灣街８號","OBJECTID":518007},"geometry":{"x":174625.01999999955,"y":2544898.7100000046}},{"attributes":{"ID":518035,"DIS_CODE":0,"TOWNNAME":"永康區","LI":"烏竹里","LIN":"1鄰","STREET":"烏竹街","SECT":" ","MAREA":" ","LANE":" ","ALLEY":" ","HOUSE_NO":"１００號","E_COORD97":174468.81,"N_COORD97":2549422.75,"ADDRESS":"烏竹街１００號","OBJECTID":518008},"geometry":{"x":174468.80999999959,"y":2549422.75}},{"attributes":{"ID":518036,"DIS_CODE":0,"TOWNNAME":"永康區","LI":"東灣里","LIN":"1鄰","STREET":"南灣街","SECT":" ","MAREA":" ","LANE":" ","ALLEY":" ","HOUSE_NO":"４８號","E_COORD97":174570.79999999999,"N_COORD97":2544933.9300000002,"ADDRESS":"南灣街４８號","OBJECTID":518009},"geometry":{"x":174570.79999999981,"y":2544933.9300000016}},{"attributes":{"ID":518037,"DIS_CODE":0,"TOWNNAME":"永康區","LI":"東灣里","LIN":"1鄰","STREET":"南灣街","SECT":" ","MAREA":" ","LANE":" ","ALLEY":" ","HOUSE_NO":"２４號","E_COORD97":174605.51999999999,"N_COORD97":2544894.73,"ADDRESS":"南灣街２４號","OBJECTID":518010},"geometry":{"x":174605.52000000048,"y":2544894.7300000042}},{"attributes":{"ID":518038,"DIS_CODE":0,"TOWNNAME":"永康區","LI":"東灣里","LIN":"1鄰","STREET":"南灣街","SECT":" ","MAREA":" ","LANE":" ","ALLEY":" ","HOUSE_NO":"５２號","E_COORD97":174552.51000000001,"N_COORD97":2544924.7400000002,"ADDRESS":"南灣街５２號","OBJECTID":518011},"geometry":{"x":174552.50999999978,"y":2544924.7400000039}},{"attributes":{"ID":518039,"DIS_CODE":0,"TOWNNAME":"永康區","LI":"烏竹里","LIN":"1鄰","STREET":"烏竹北街","SECT":" ","MAREA":" ","LANE":" ","ALLEY":" ","HOUSE_NO":"６３號","E_COORD97":174558.85000000001,"N_COORD97":2549487.9900000002,"ADDRESS":"烏竹北街６３號","OBJECTID":518012},"geometry":{"x":174558.84999999963,"y":2549487.9900000021}},{"attributes":{"ID":518040,"DIS_CODE":0,"TOWNNAME":"永康區","LI":"東灣里","LIN":"1鄰","STREET":"南灣街","SECT":" ","MAREA":" ","LANE":" ","ALLEY":" ","HOUSE_NO":"１２號","E_COORD97":174618.17999999999,"N_COORD97":2544900.7000000002,"ADDRESS":"南灣街１２號","OBJECTID":518013},"geometry":{"x":174618.18000000063,"y":2544900.7000000011}},{"attributes":{"ID":518041,"DIS_CODE":0,"TOWNNAME":"安南區","LI":"城北里","LIN":"1鄰","STREET":"城北路","SECT":" ","MAREA":" ","LANE":" ","ALLEY":" ","HOUSE_NO":"４８號","E_COORD97":160934.44,"N_COORD97":2551515.96,"ADDRESS":"城北路４８號","OBJECTID":518014},"geometry":{"x":160934.44000000041,"y":2551515.9600000028}},{"attributes":{"ID":518042,"DIS_CODE":0,"TOWNNAME":"永康區","LI":"東灣里","LIN":"1鄰","STREET":"南灣街","SECT":" ","MAREA":" ","LANE":" ","ALLEY":" ","HOUSE_NO":"４２號","E_COORD97":174576.16,"N_COORD97":2544928.8399999999,"ADDRESS":"南灣街４２號","OBJECTID":518015},"geometry":{"x":174576.16000000201,"y":2544928.8399999999}},{"attributes":{"ID":518043,"DIS_CODE":0,"TOWNNAME":"永康區","LI":"東灣里","LIN":"1鄰","STREET":"南灣街","SECT":" ","MAREA":" ","LANE":" ","ALLEY":" ","HOUSE_NO":"３０號","E_COORD97":174601.47,"N_COORD97":2544927.77,"ADDRESS":"南灣街３０號","OBJECTID":518016},"geometry":{"x":174601.47000000067,"y":2544927.7700000014}},{"attributes":{"ID":518044,"DIS_CODE":0,"TOWNNAME":"永康區","LI":"埔園里","LIN":"1鄰","STREET":"埔聖街","SECT":" ","MAREA":" ","LANE":" ","ALLEY":" ","HOUSE_NO":"２９號","E_COORD97":173948.67999999999,"N_COORD97":2547590.75,"ADDRESS":"埔聖街２９號","OBJECTID":518017},"geometry":{"x":173948.68000000063,"y":2547590.7500000019}},{"attributes":{"ID":518045,"DIS_CODE":0,"TOWNNAME":"永康區","LI":"烏竹里","LIN":"1鄰","STREET":"烏竹街","SECT":" ","MAREA":" ","LANE":" ","ALLEY":" ","HOUSE_NO":"９６號","E_COORD97":174507.06,"N_COORD97":2549453.6499999999,"ADDRESS":"烏竹街９６號","OBJECTID":518018},"geometry":{"x":174507.06000000052,"y":2549453.6500000004}},{"attributes":{"ID":518046,"DIS_CODE":0,"TOWNNAME":"永康區","LI":"東灣里","LIN":"1鄰","STREET":"南灣街","SECT":" ","MAREA":" ","LANE":" ","ALLEY":" ","HOUSE_NO":"２２號","E_COORD97":174609.95999999999,"N_COORD97":2544892.73,"ADDRESS":"南灣街２２號","OBJECTID":518019},"geometry":{"x":174609.96000000089,"y":2544892.7300000023}},{"attributes":{"ID":518047,"DIS_CODE":0,"TOWNNAME":"永康區","LI":"神洲里","LIN":"1鄰","STREET":"忠孝路","SECT":" ","MAREA":" ","LANE":" ","ALLEY":" ","HOUSE_NO":"２０號","E_COORD97":172096.22,"N_COORD97":2544599.1899999999,"ADDRESS":"忠孝路２０號","OBJECTID":518020},"geometry":{"x":172096.21999999974,"y":2544599.1900000013}},{"attributes":{"ID":518048,"DIS_CODE":0,"TOWNNAME":"安南區","LI":"城北里","LIN":"1鄰","STREET":"城北路","SECT":" ","MAREA":" ","LANE":" ","ALLEY":" ","HOUSE_NO":"４號","E_COORD97":160849.23000000001,"N_COORD97":2551480.4100000001,"ADDRESS":"城北路４號","OBJECTID":518021},"geometry":{"x":160849.23000000045,"y":2551480.4100000039}},{"attributes":{"ID":518049,"DIS_CODE":0,"TOWNNAME":"安南區","LI":"\u25A0南里","LIN":"1鄰","STREET":"環福街","SECT":" ","MAREA":" ","LANE":" ","ALLEY":" ","HOUSE_NO":"６６號","E_COORD97":170291.87,"N_COORD97":2552428.7999999998,"ADDRESS":"環福街６６號","OBJECTID":518022},"geometry":{"x":170291.87000000011,"y":2552428.8000000026}},{"attributes":{"ID":518050,"DIS_CODE":0,"TOWNNAME":"安南區","LI":"南興里","LIN":"1鄰","STREET":"安中路","SECT":"五段","MAREA":" ","LANE":" ","ALLEY":" ","HOUSE_NO":"４８８號","E_COORD97":162285.20999999999,"N_COORD97":2551243.0699999998,"ADDRESS":"安中路五段４８８號","OBJECTID":518023},"geometry":{"x":162285.20999999996,"y":2551243.0700000022}},{"attributes":{"ID":518051,"DIS_CODE":0,"TOWNNAME":"安南區","LI":"淵東里","LIN":"1鄰","STREET":"海佃路","SECT":"四段","MAREA":" ","LANE":" ","ALLEY":" ","HOUSE_NO":"１８２號","E_COORD97":165629.67000000001,"N_COORD97":2551142.79,"ADDRESS":"海佃路四段１８２號","OBJECTID":518024},"geometry":{"x":165629.66999999993,"y":2551142.790000001}},{"attributes":{"ID":518052,"DIS_CODE":0,"TOWNNAME":"安南區","LI":"淵東里","LIN":"1鄰","STREET":"海佃路","SECT":"四段","MAREA":" ","LANE":" ","ALLEY":" ","HOUSE_NO":"２２號","E_COORD97":165752.60999999999,"N_COORD97":2550533.4500000002,"ADDRESS":"海佃路四段２２號","OBJECTID":518025},"geometry":{"x":165752.61000000034,"y":2550533.450000003}},{"attributes":{"ID":518053,"DIS_CODE":0,"TOWNNAME":"安南區","LI":"淵東里","LIN":"1鄰","STREET":"海佃路","SECT":"四段","MAREA":" ","LANE":" ","ALLEY":" ","HOUSE_NO":"２７號","E_COORD97":165703.98999999999,"N_COORD97":2550534.8799999999,"ADDRESS":"海佃路四段２７號","OBJECTID":518026},"geometry":{"x":165703.99000000022,"y":2550534.8800000008}},{"attributes":{"ID":518054,"DIS_CODE":0,"TOWNNAME":"安南區","LI":"淵東里","LIN":"1鄰","STREET":"海佃路","SECT":"四段","MAREA":" ","LANE":" ","ALLEY":" ","HOUSE_NO":"２９號","E_COORD97":165700.07999999999,"N_COORD97":2550537.1000000001,"ADDRESS":"海佃路四段２９號","OBJECTID":518027},"geometry":{"x":165700.08000000007,"y":2550537.1000000015}},{"attributes":{"ID":518055,"DIS_CODE":0,"TOWNNAME":"安南區","LI":"公\u25A0里","LIN":"1鄰","STREET":"安興街","SECT":" ","MAREA":" ","LANE":" ","ALLEY":" ","HOUSE_NO":"２８號","E_COORD97":164397.39999999999,"N_COORD97":2552297.52,"ADDRESS":"安興街２８號","OBJECTID":518028},"geometry":{"x":164397.4000000013,"y":2552297.5200000014}},{"attributes":{"ID":518056,"DIS_CODE":0,"TOWNNAME":"安南區","LI":"公\u25A0里","LIN":"1鄰","STREET":"公學路","SECT":"五段","MAREA":" ","LANE":" ","ALLEY":" ","HOUSE_NO":"３５４號","E_COORD97":164449.51000000001,"N_COORD97":2552402.52,"ADDRESS":"公學路五段３５４號","OBJECTID":518029},"geometry":{"x":164449.50999999978,"y":2552402.5200000014}},{"attributes":{"ID":518057,"DIS_CODE":0,"TOWNNAME":"安南區","LI":"公\u25A0里","LIN":"1鄰","STREET":"公學路","SECT":"五段","MAREA":" ","LANE":" ","ALLEY":" ","HOUSE_NO":"３５９號","E_COORD97":164399.38,"N_COORD97":2552382.8199999998,"ADDRESS":"公學路五段３５９號","OBJECTID":518030},"geometry":{"x":164399.37999999989,"y":2552382.8199999984}},{"attributes":{"ID":518058,"DIS_CODE":0,"TOWNNAME":"安南區","LI":"公\u25A0里","LIN":"1鄰","STREET":"安興街","SECT":" ","MAREA":" ","LANE":" ","ALLEY":" ","HOUSE_NO":"１０號","E_COORD97":164425.01000000001,"N_COORD97":2552338.9900000002,"ADDRESS":"安興街１０號","OBJECTID":518031},"geometry":{"x":164425.01000000071,"y":2552338.9900000021}},{"attributes":{"ID":518059,"DIS_CODE":0,"TOWNNAME":"安南區","LI":"南興里","LIN":"1鄰","STREET":"安中路","SECT":"五段","MAREA":" ","LANE":" ","ALLEY":" ","HOUSE_NO":"４５２號","E_COORD97":162378.54000000001,"N_COORD97":2551209.3500000001,"ADDRESS":"安中路五段４５２號","OBJECTID":518032},"geometry":{"x":162378.54000000097,"y":2551209.3500000034}},{"attributes":{"ID":518060,"DIS_CODE":0,"TOWNNAME":"安南區","LI":"南興里","LIN":"1鄰","STREET":"安中路","SECT":"五段","MAREA":" ","LANE":" ","ALLEY":" ","HOUSE_NO":"４５８號","E_COORD97":162360.59,"N_COORD97":2551245.0499999998,"ADDRESS":"安中路五段４５８號","OBJECTID":518033},"geometry":{"x":162360.58999999985,"y":2551245.0500000007}},{"attributes":{"ID":518061,"DIS_CODE":0,"TOWNNAME":"安南區","LI":"南興里","LIN":"1鄰","STREET":"安中路","SECT":"五段","MAREA":" ","LANE":" ","ALLEY":" ","HOUSE_NO":"４６８號","E_COORD97":162334.56,"N_COORD97":2551229.6499999999,"ADDRESS":"安中路五段４６８號","OBJECTID":518034},"geometry":{"x":162334.55999999959,"y":2551229.6500000022}},{"attributes":{"ID":518062,"DIS_CODE":0,"TOWNNAME":"安南區","LI":"南興里","LIN":"1鄰","STREET":"安中路","SECT":"五段","MAREA":" ","LANE":" ","ALLEY":" ","HOUSE_NO":"６２０號","E_COORD97":162056.16,"N_COORD97":2551276.0299999998,"ADDRESS":"安中路五段６２０號","OBJECTID":518035},"geometry":{"x":162056.16000000108,"y":2551276.0300000012}},{"attributes":{"ID":518063,"DIS_CODE":0,"TOWNNAME":"安南區","LI":"城北里","LIN":"1鄰","STREET":"安中路","SECT":"六段","MAREA":" ","LANE":" ","ALLEY":" ","HOUSE_NO":"５８０號","E_COORD97":160860.98000000001,"N_COORD97":2551451.02,"ADDRESS":"安中路六段５８０號","OBJECTID":518036},"geometry":{"x":160860.98000000138,"y":2551451.0199999996}},{"attributes":{"ID":518064,"DIS_CODE":0,"TOWNNAME":"安南區","LI":"城北里","LIN":"1鄰","STREET":"安中路","SECT":"六段","MAREA":" ","LANE":" ","ALLEY":" ","HOUSE_NO":"５８２號","E_COORD97":160857.73000000001,"N_COORD97":2551452.27,"ADDRESS":"安中路六段５８２號","OBJECTID":518037},"geometry":{"x":160857.73000000045,"y":2551452.2699999996}},{"attributes":{"ID":518065,"DIS_CODE":0,"TOWNNAME":"新市區","LI":"新和里","LIN":"1鄰","STREET":"中華路","SECT":" ","MAREA":" ","LANE":" ","ALLEY":" ","HOUSE_NO":"２０號","E_COORD97":177299.31,"N_COORD97":2551946.5,"ADDRESS":"中華路２０號","OBJECTID":518038},"geometry":{"x":177299.31000000052,"y":2551946.5}},{"attributes":{"ID":518066,"DIS_CODE":0,"TOWNNAME":"新化區","LI":"東榮里","LIN":"4鄰","STREET":"信義路","SECT":" ","MAREA":" ","LANE":" ","ALLEY":" ","HOUSE_NO":"９１號之４","E_COORD97":179792.01000000001,"N_COORD97":2548661.2599999998,"ADDRESS":"信義路９１號之４","OBJECTID":518039},"geometry":{"x":179792.00999999978,"y":2548661.2600000016}},{"attributes":{"ID":518067,"DIS_CODE":0,"TOWNNAME":"東區","LI":"德高里","LIN":"1鄰","STREET":"自由路","SECT":"一段","MAREA":" ","LANE":" ","ALLEY":" ","HOUSE_NO":"１５７號","E_COORD97":171729.64999999999,"N_COORD97":2541008.6099999999,"ADDRESS":"自由路一段１５７號","OBJECTID":518040},"geometry":{"x":171729.65000000037,"y":2541008.6099999975}},{"attributes":{"ID":518068,"DIS_CODE":0,"TOWNNAME":"東區","LI":"德高里","LIN":"1鄰","STREET":"自由路","SECT":"一段","MAREA":" ","LANE":" ","ALLEY":" ","HOUSE_NO":"１５９號","E_COORD97":171732.79999999999,"N_COORD97":2541010.3599999999,"ADDRESS":"自由路一段１５９號","OBJECTID":518041},"geometry":{"x":171732.80000000075,"y":2541010.3599999975}},{"attributes":{"ID":518069,"DIS_CODE":0,"TOWNNAME":"東區","LI":"德高里","LIN":"1鄰","STREET":"自由路","SECT":"一段","MAREA":" ","LANE":" ","ALLEY":" ","HOUSE_NO":"１６１號","E_COORD97":171737.34,"N_COORD97":2541012.2200000002,"ADDRESS":"自由路一段１６１號","OBJECTID":518042},"geometry":{"x":171737.34000000078,"y":2541012.2200000007}},{"attributes":{"ID":518070,"DIS_CODE":0,"TOWNNAME":"東區","LI":"德高里","LIN":"1鄰","STREET":"自由路","SECT":"一段","MAREA":" ","LANE":" ","ALLEY":" ","HOUSE_NO":"１７１號","E_COORD97":171757.35999999999,"N_COORD97":2541022.1099999999,"ADDRESS":"自由路一段１７１號","OBJECTID":518043},"geometry":{"x":171757.36000000034,"y":2541022.1099999994}},{"attributes":{"ID":518071,"DIS_CODE":0,"TOWNNAME":"東區","LI":"德高里","LIN":"1鄰","STREET":"自由路","SECT":"一段","MAREA":" ","LANE":" ","ALLEY":" ","HOUSE_NO":"１７３號","E_COORD97":171761.89000000001,"N_COORD97":2541025.1400000001,"ADDRESS":"自由路一段１７３號","OBJECTID":518044},"geometry":{"x":171761.8900000006,"y":2541025.1400000006}},{"attributes":{"ID":518072,"DIS_CODE":0,"TOWNNAME":"東區","LI":"德高里","LIN":"1鄰","STREET":"自由路","SECT":"一段","MAREA":" ","LANE":" ","ALLEY":" ","HOUSE_NO":"１７５號","E_COORD97":171764.69,"N_COORD97":2541026.4199999999,"ADDRESS":"自由路一段１７５號","OBJECTID":518045},"geometry":{"x":171764.69000000134,"y":2541026.4199999999}},{"attributes":{"ID":518073,"DIS_CODE":0,"TOWNNAME":"東區","LI":"德高里","LIN":"1鄰","STREET":"自由路","SECT":"一段","MAREA":" ","LANE":" ","ALLEY":" ","HOUSE_NO":"１７７號","E_COORD97":171766.78,"N_COORD97":2541027.9300000002,"ADDRESS":"自由路一段１７７號","OBJECTID":518046},"geometry":{"x":171766.78000000119,"y":2541027.9300000016}},{"attributes":{"ID":518074,"DIS_CODE":0,"TOWNNAME":"東區","LI":"德高里","LIN":"1鄰","STREET":"自由路","SECT":"一段","MAREA":" ","LANE":" ","ALLEY":" ","HOUSE_NO":"１７９號","E_COORD97":171769.34,"N_COORD97":2541029.5600000001,"ADDRESS":"自由路一段１７９號","OBJECTID":518047},"geometry":{"x":171769.34000000078,"y":2541029.5600000005}},{"attributes":{"ID":518075,"DIS_CODE":0,"TOWNNAME":"東區","LI":"德高里","LIN":"1鄰","STREET":"自由路","SECT":"一段","MAREA":" ","LANE":" ","ALLEY":" ","HOUSE_NO":"１８１號","E_COORD97":171772.14000000001,"N_COORD97":2541030.3799999999,"ADDRESS":"自由路一段１８１號","OBJECTID":518048},"geometry":{"x":171772.1400000006,"y":2541030.3800000027}},{"attributes":{"ID":518076,"DIS_CODE":0,"TOWNNAME":"東區","LI":"德高里","LIN":"1鄰","STREET":"自由路","SECT":"一段","MAREA":" ","LANE":" ","ALLEY":" ","HOUSE_NO":"１８３號","E_COORD97":171775.39999999999,"N_COORD97":2541032.1200000001,"ADDRESS":"自由路一段１８３號","OBJECTID":518049},"geometry":{"x":171775.40000000037,"y":2541032.1200000029}},{"attributes":{"ID":518077,"DIS_CODE":0,"TOWNNAME":"東區","LI":"莊敬里","LIN":"1鄰","STREET":"東興路","SECT":" ","MAREA":" ","LANE":" ","ALLEY":" ","HOUSE_NO":"４０８號","E_COORD97":171011.01000000001,"N_COORD97":2544371.6299999999,"ADDRESS":"東興路４０８號","OBJECTID":518050},"geometry":{"x":171011.00999999978,"y":2544371.6300000027}},{"attributes":{"ID":518078,"DIS_CODE":0,"TOWNNAME":"新化區","LI":"武安里","LIN":"8鄰","STREET":"大同街","SECT":" ","MAREA":" ","LANE":" ","ALLEY":" ","HOUSE_NO":"３９號","E_COORD97":179004.48000000001,"N_COORD97":2548160.25,"ADDRESS":"大同街３９號","OBJECTID":518051},"geometry":{"x":179004.48000000138,"y":2548160.2500000019}},{"attributes":{"ID":518079,"DIS_CODE":0,"TOWNNAME":"東區","LI":"龍山里","LIN":"1鄰","STREET":"崇仁街","SECT":" ","MAREA":" ","LANE":" ","ALLEY":" ","HOUSE_NO":"１４１號","E_COORD97":170593.44,"N_COORD97":2542561.7999999998,"ADDRESS":"崇仁街１４１號","OBJECTID":518052},"geometry":{"x":170593.44000000041,"y":2542561.8000000045}},{"attributes":{"ID":518080,"DIS_CODE":0,"TOWNNAME":"東區","LI":"崇文里","LIN":"1鄰","STREET":"崇德十五街","SECT":" ","MAREA":" ","LANE":" ","ALLEY":" ","HOUSE_NO":"４２號","E_COORD97":170950.73000000001,"N_COORD97":2541174.6699999999,"ADDRESS":"崇德十五街４２號","OBJECTID":518053},"geometry":{"x":170950.73000000138,"y":2541174.6699999999}},{"attributes":{"ID":518081,"DIS_CODE":0,"TOWNNAME":"東區","LI":"崇文里","LIN":"1鄰","STREET":"崇德十五街","SECT":" ","MAREA":" ","LANE":" ","ALLEY":" ","HOUSE_NO":"４６號","E_COORD97":170955.14000000001,"N_COORD97":2541174.3300000001,"ADDRESS":"崇德十五街４６號","OBJECTID":518054},"geometry":{"x":170955.1400000006,"y":2541174.3300000038}},{"attributes":{"ID":518082,"DIS_CODE":0,"TOWNNAME":"東區","LI":"裕聖里","LIN":"1鄰","STREET":"裕文路","SECT":" ","MAREA":" ","LANE":" ","ALLEY":" ","HOUSE_NO":"１１２號","E_COORD97":172343.53,"N_COORD97":2542531.52,"ADDRESS":"裕文路１１２號","OBJECTID":518055},"geometry":{"x":172343.53000000119,"y":2542531.5199999996}},{"attributes":{"ID":518083,"DIS_CODE":0,"TOWNNAME":"東區","LI":"裕聖里","LIN":"1鄰","STREET":"裕文路","SECT":" ","MAREA":" ","LANE":" ","ALLEY":" ","HOUSE_NO":"１１６號","E_COORD97":172349.56,"N_COORD97":2542529.8300000001,"ADDRESS":"裕文路１１６號","OBJECTID":518056},"geometry":{"x":172349.56000000052,"y":2542529.8300000001}},{"attributes":{"ID":518084,"DIS_CODE":0,"TOWNNAME":"東區","LI":"裕聖里","LIN":"1鄰","STREET":"裕忠一街","SECT":" ","MAREA":" ","LANE":" ","ALLEY":" ","HOUSE_NO":"２９號","E_COORD97":172335.85999999999,"N_COORD97":2542420.1200000001,"ADDRESS":"裕忠一街２９號","OBJECTID":518057},"geometry":{"x":172335.86000000127,"y":2542420.120000001}},{"attributes":{"ID":518085,"DIS_CODE":0,"TOWNNAME":"東區","LI":"裕聖里","LIN":"1鄰","STREET":"裕忠一街","SECT":" ","MAREA":" ","LANE":" ","ALLEY":" ","HOUSE_NO":"３１號","E_COORD97":172335.35000000001,"N_COORD97":2542432.3599999999,"ADDRESS":"裕忠一街３１號","OBJECTID":518058},"geometry":{"x":172335.35000000056,"y":2542432.3600000013}},{"attributes":{"ID":518086,"DIS_CODE":0,"TOWNNAME":"東區","LI":"裕聖里","LIN":"1鄰","STREET":"裕忠一街","SECT":" ","MAREA":" ","LANE":" ","ALLEY":" ","HOUSE_NO":"３３號","E_COORD97":172335.35000000001,"N_COORD97":2542443.3199999998,"ADDRESS":"裕忠一街３３號","OBJECTID":518059},"geometry":{"x":172335.35000000056,"y":2542443.3200000022}},{"attributes":{"ID":518087,"DIS_CODE":0,"TOWNNAME":"東區","LI":"裕聖里","LIN":"1鄰","STREET":"裕忠一街","SECT":" ","MAREA":" ","LANE":" ","ALLEY":" ","HOUSE_NO":"３５號","E_COORD97":172335.35000000001,"N_COORD97":2542452.25,"ADDRESS":"裕忠一街３５號","OBJECTID":518060},"geometry":{"x":172335.35000000056,"y":2542452.25}},{"attributes":{"ID":518088,"DIS_CODE":0,"TOWNNAME":"東區","LI":"裕聖里","LIN":"1鄰","STREET":"裕忠一街","SECT":" ","MAREA":" ","LANE":" ","ALLEY":" ","HOUSE_NO":"３７號","E_COORD97":172335.35000000001,"N_COORD97":2542462.1899999999,"ADDRESS":"裕忠一街３７號","OBJECTID":518061},"geometry":{"x":172335.35000000056,"y":2542462.1899999995}},{"attributes":{"ID":518089,"DIS_CODE":0,"TOWNNAME":"東區","LI":"裕聖里","LIN":"1鄰","STREET":"裕忠一街","SECT":" ","MAREA":" ","LANE":" ","ALLEY":" ","HOUSE_NO":"３９號","E_COORD97":172350.89999999999,"N_COORD97":2542462.1899999999,"ADDRESS":"裕忠一街３９號","OBJECTID":518062},"geometry":{"x":172350.9000000013,"y":2542462.1899999995}},{"attributes":{"ID":518090,"DIS_CODE":0,"TOWNNAME":"東區","LI":"裕聖里","LIN":"1鄰","STREET":"裕忠一街","SECT":" ","MAREA":" ","LANE":" ","ALLEY":" ","HOUSE_NO":"４１號","E_COORD97":172350.39000000001,"N_COORD97":2542451.7400000002,"ADDRESS":"裕忠一街４１號","OBJECTID":518063},"geometry":{"x":172350.3900000006,"y":2542451.7400000002}},{"attributes":{"ID":518091,"DIS_CODE":0,"TOWNNAME":"東區","LI":"裕聖里","LIN":"1鄰","STREET":"裕忠一街","SECT":" ","MAREA":" ","LANE":" ","ALLEY":" ","HOUSE_NO":"４３號","E_COORD97":172349.88,"N_COORD97":2542443.3199999998,"ADDRESS":"裕忠一街４３號","OBJECTID":518064},"geometry":{"x":172349.87999999989,"y":2542443.3200000022}},{"attributes":{"ID":518092,"DIS_CODE":0,"TOWNNAME":"東區","LI":"裕聖里","LIN":"1鄰","STREET":"裕忠一街","SECT":" ","MAREA":" ","LANE":" ","ALLEY":" ","HOUSE_NO":"４５號","E_COORD97":172349.88,"N_COORD97":2542431.3399999999,"ADDRESS":"裕忠一街４５號","OBJECTID":518065},"geometry":{"x":172349.87999999989,"y":2542431.3399999999}},{"attributes":{"ID":518093,"DIS_CODE":0,"TOWNNAME":"東區","LI":"裕聖里","LIN":"1鄰","STREET":"裕忠一街","SECT":" ","MAREA":" ","LANE":" ","ALLEY":" ","HOUSE_NO":"４７號","E_COORD97":172350.89999999999,"N_COORD97":2542419.8599999999,"ADDRESS":"裕忠一街４７號","OBJECTID":518066},"geometry":{"x":172350.9000000013,"y":2542419.8599999994}},{"attributes":{"ID":518094,"DIS_CODE":0,"TOWNNAME":"東區","LI":"裕聖里","LIN":"1鄰","STREET":"裕忠路","SECT":" ","MAREA":" ","LANE":" ","ALLEY":" ","HOUSE_NO":"２５１號","E_COORD97":172273.92999999999,"N_COORD97":2542505.54,"ADDRESS":"裕忠路２５１號","OBJECTID":518067},"geometry":{"x":172273.93000000063,"y":2542505.540000001}},{"attributes":{"ID":518095,"DIS_CODE":0,"TOWNNAME":"東區","LI":"裕聖里","LIN":"1鄰","STREET":"裕忠路","SECT":" ","MAREA":" ","LANE":" ","ALLEY":" ","HOUSE_NO":"２５３號","E_COORD97":172273.70000000001,"N_COORD97":2542489.02,"ADDRESS":"裕忠路２５３號","OBJECTID":518068},"geometry":{"x":172273.69999999925,"y":2542489.0200000014}},{"attributes":{"ID":518096,"DIS_CODE":0,"TOWNNAME":"東區","LI":"裕聖里","LIN":"1鄰","STREET":"裕忠路","SECT":" ","MAREA":" ","LANE":" ","ALLEY":" ","HOUSE_NO":"２５５號","E_COORD97":172273.48000000001,"N_COORD97":2542474.0800000001,"ADDRESS":"裕忠路２５５號","OBJECTID":518069},"geometry":{"x":172273.48000000045,"y":2542474.0800000001}},{"attributes":{"ID":518097,"DIS_CODE":0,"TOWNNAME":"東區","LI":"裕聖里","LIN":"1鄰","STREET":"裕忠路","SECT":" ","MAREA":" ","LANE":" ","ALLEY":" ","HOUSE_NO":"２５７號","E_COORD97":172273.92999999999,"N_COORD97":2542458.9100000001,"ADDRESS":"裕忠路２５７號","OBJECTID":518070},"geometry":{"x":172273.93000000063,"y":2542458.9100000039}},{"attributes":{"ID":518098,"DIS_CODE":0,"TOWNNAME":"東區","LI":"裕聖里","LIN":"1鄰","STREET":"裕忠路","SECT":" ","MAREA":" ","LANE":" ","ALLEY":" ","HOUSE_NO":"２５１之９號","E_COORD97":172304.03,"N_COORD97":2542503.5,"ADDRESS":"裕忠路２５１之９號","OBJECTID":518071},"geometry":{"x":172304.03000000119,"y":2542503.5000000019}},{"attributes":{"ID":518099,"DIS_CODE":0,"TOWNNAME":"東區","LI":"裕聖里","LIN":"1鄰","STREET":"裕忠路","SECT":" ","MAREA":" ","LANE":" ","ALLEY":" ","HOUSE_NO":"２５１之１０號","E_COORD97":172307.60999999999,"N_COORD97":2542505.6600000001,"ADDRESS":"裕忠路２５１之１０號","OBJECTID":518072},"geometry":{"x":172307.61000000127,"y":2542505.660000002}},{"attributes":{"ID":518100,"DIS_CODE":0,"TOWNNAME":"東區","LI":"裕聖里","LIN":"1鄰","STREET":"裕忠路","SECT":" ","MAREA":" ","LANE":" ","ALLEY":" ","HOUSE_NO":"２５１之１１號","E_COORD97":172310.79999999999,"N_COORD97":2542503.2000000002,"ADDRESS":"裕忠路２５１之１１號","OBJECTID":518073},"geometry":{"x":172310.80000000075,"y":2542503.200000003}},{"attributes":{"ID":518101,"DIS_CODE":0,"TOWNNAME":"東區","LI":"裕聖里","LIN":"1鄰","STREET":"裕忠路","SECT":" ","MAREA":" ","LANE":" ","ALLEY":" ","HOUSE_NO":"２５１之１２號","E_COORD97":172313.69,"N_COORD97":2542505.6600000001,"ADDRESS":"裕忠路２５１之１２號","OBJECTID":518074},"geometry":{"x":172313.69000000134,"y":2542505.660000002}},{"attributes":{"ID":518102,"DIS_CODE":0,"TOWNNAME":"東區","LI":"裕聖里","LIN":"1鄰","STREET":"裕忠路","SECT":" ","MAREA":" ","LANE":" ","ALLEY":" ","HOUSE_NO":"２５１之１３號","E_COORD97":172317.17000000001,"N_COORD97":2542503.6400000001,"ADDRESS":"裕忠路２５１之１３號","OBJECTID":518075},"geometry":{"x":172317.16999999993,"y":2542503.6400000006}},{"attributes":{"ID":518103,"DIS_CODE":0,"TOWNNAME":"東區","LI":"裕聖里","LIN":"1鄰","STREET":"裕忠路","SECT":" ","MAREA":" ","LANE":" ","ALLEY":" ","HOUSE_NO":"２５１之１５號","E_COORD97":172320.94,"N_COORD97":2542505.6600000001,"ADDRESS":"裕忠路２５１之１５號","OBJECTID":518076},"geometry":{"x":172320.94000000041,"y":2542505.660000002}},{"attributes":{"ID":518104,"DIS_CODE":0,"TOWNNAME":"東區","LI":"裕聖里","LIN":"1鄰","STREET":"裕忠路","SECT":" ","MAREA":" ","LANE":" ","ALLEY":" ","HOUSE_NO":"２５１之１６號","E_COORD97":172323.69,"N_COORD97":2542503.3500000001,"ADDRESS":"裕忠路２５１之１６號","OBJECTID":518077},"geometry":{"x":172323.69000000134,"y":2542503.3500000015}},{"attributes":{"ID":518105,"DIS_CODE":0,"TOWNNAME":"東區","LI":"裕聖里","LIN":"1鄰","STREET":"裕忠路","SECT":" ","MAREA":" ","LANE":" ","ALLEY":" ","HOUSE_NO":"２５１之１７號","E_COORD97":172327.45000000001,"N_COORD97":2542505.3700000001,"ADDRESS":"裕忠路２５１之１７號","OBJECTID":518078},"geometry":{"x":172327.45000000019,"y":2542505.3700000029}},{"attributes":{"ID":518106,"DIS_CODE":0,"TOWNNAME":"東區","LI":"裕聖里","LIN":"1鄰","STREET":"裕忠路","SECT":" ","MAREA":" ","LANE":" ","ALLEY":" ","HOUSE_NO":"２５１之１號","E_COORD97":172278.35000000001,"N_COORD97":2542503.9300000002,"ADDRESS":"裕忠路２５１之１號","OBJECTID":518079},"geometry":{"x":172278.34999999963,"y":2542503.9299999997}},{"attributes":{"ID":518107,"DIS_CODE":0,"TOWNNAME":"東區","LI":"裕聖里","LIN":"1鄰","STREET":"裕忠路","SECT":" ","MAREA":" ","LANE":" ","ALLEY":" ","HOUSE_NO":"２５１之２號","E_COORD97":172281.39000000001,"N_COORD97":2542506.3900000001,"ADDRESS":"裕忠路２５１之２號","OBJECTID":518080},"geometry":{"x":172281.38999999966,"y":2542506.3900000006}},{"attributes":{"ID":518108,"DIS_CODE":0,"TOWNNAME":"東區","LI":"裕聖里","LIN":"1鄰","STREET":"裕忠路","SECT":" ","MAREA":" ","LANE":" ","ALLEY":" ","HOUSE_NO":"２５１之３號","E_COORD97":172284.42999999999,"N_COORD97":2542503.7799999998,"ADDRESS":"裕忠路２５１之３號","OBJECTID":518081},"geometry":{"x":172284.43000000063,"y":2542503.7800000012}},{"attributes":{"ID":518109,"DIS_CODE":0,"TOWNNAME":"東區","LI":"裕聖里","LIN":"1鄰","STREET":"裕忠路","SECT":" ","MAREA":" ","LANE":" ","ALLEY":" ","HOUSE_NO":"２５１之５號","E_COORD97":172288.20000000001,"N_COORD97":2542506.1000000001,"ADDRESS":"裕忠路２５１之５號","OBJECTID":518082},"geometry":{"x":172288.20000000112,"y":2542506.0999999996}},{"attributes":{"ID":518110,"DIS_CODE":0,"TOWNNAME":"東區","LI":"裕聖里","LIN":"1鄰","STREET":"裕忠路","SECT":" ","MAREA":" ","LANE":" ","ALLEY":" ","HOUSE_NO":"２５１之６號","E_COORD97":172291.10000000001,"N_COORD97":2542503.7799999998,"ADDRESS":"裕忠路２５１之６號","OBJECTID":518083},"geometry":{"x":172291.10000000056,"y":2542503.7800000012}},{"attributes":{"ID":518111,"DIS_CODE":0,"TOWNNAME":"東區","LI":"裕聖里","LIN":"1鄰","STREET":"裕忠路","SECT":" ","MAREA":" ","LANE":" ","ALLEY":" ","HOUSE_NO":"２５１之７號","E_COORD97":172294.72,"N_COORD97":2542506.2400000002,"ADDRESS":"裕忠路２５１之７號","OBJECTID":518084},"geometry":{"x":172294.71999999974,"y":2542506.2400000002}},{"attributes":{"ID":518112,"DIS_CODE":0,"TOWNNAME":"東區","LI":"裕聖里","LIN":"1鄰","STREET":"裕忠路","SECT":" ","MAREA":" ","LANE":" ","ALLEY":" ","HOUSE_NO":"２５１之８號","E_COORD97":172297.89999999999,"N_COORD97":2542503.9300000002,"ADDRESS":"裕忠路２５１之８號","OBJECTID":518085},"geometry":{"x":172297.90000000037,"y":2542503.9299999997}},{"attributes":{"ID":518113,"DIS_CODE":0,"TOWNNAME":"東區","LI":"裕聖里","LIN":"1鄰","STREET":"裕忠路","SECT":" ","MAREA":" ","LANE":" ","ALLEY":" ","HOUSE_NO":"２５３之１０號","E_COORD97":172305.29000000001,"N_COORD97":2542489.4399999999,"ADDRESS":"裕忠路２５３之１０號","OBJECTID":518086},"geometry":{"x":172305.2900000019,"y":2542489.4400000013}},{"attributes":{"ID":518114,"DIS_CODE":0,"TOWNNAME":"東區","LI":"裕聖里","LIN":"1鄰","STREET":"裕忠路","SECT":" ","MAREA":" ","LANE":" ","ALLEY":" ","HOUSE_NO":"２５３之１１號","E_COORD97":172309.35000000001,"N_COORD97":2542488.2799999998,"ADDRESS":"裕忠路２５３之１１號","OBJECTID":518087},"geometry":{"x":172309.34999999963,"y":2542488.2799999993}},{"attributes":{"ID":518115,"DIS_CODE":0,"TOWNNAME":"東區","LI":"裕聖里","LIN":"1鄰","STREET":"裕忠路","SECT":" ","MAREA":" ","LANE":" ","ALLEY":" ","HOUSE_NO":"２５３之１２號","E_COORD97":172312.23999999999,"N_COORD97":2542490.02,"ADDRESS":"裕忠路２５３之１２號","OBJECTID":518088},"geometry":{"x":172312.24000000022,"y":2542490.0199999996}},{"attributes":{"ID":518116,"DIS_CODE":0,"TOWNNAME":"東區","LI":"裕聖里","LIN":"1鄰","STREET":"裕忠路","SECT":" ","MAREA":" ","LANE":" ","ALLEY":" ","HOUSE_NO":"２５３之１３號","E_COORD97":172315.57999999999,"N_COORD97":2542487.9900000002,"ADDRESS":"裕忠路２５３之１３號","OBJECTID":518089},"geometry":{"x":172315.58000000101,"y":2542487.9900000002}},{"attributes":{"ID":518117,"DIS_CODE":0,"TOWNNAME":"東區","LI":"裕聖里","LIN":"1鄰","STREET":"裕忠路","SECT":" ","MAREA":" ","LANE":" ","ALLEY":" ","HOUSE_NO":"２５３之１５號","E_COORD97":172319.63,"N_COORD97":2542489.4399999999,"ADDRESS":"裕忠路２５３之１５號","OBJECTID":518090},"geometry":{"x":172319.62999999896,"y":2542489.4400000013}},{"attributes":{"ID":518118,"DIS_CODE":0,"TOWNNAME":"東區","LI":"裕聖里","LIN":"1鄰","STREET":"裕忠路","SECT":" ","MAREA":" ","LANE":" ","ALLEY":" ","HOUSE_NO":"２５３之１６號","E_COORD97":172322.67000000001,"N_COORD97":2542488.1400000001,"ADDRESS":"裕忠路２５３之１６號","OBJECTID":518091},"geometry":{"x":172322.66999999993,"y":2542488.1400000043}},{"attributes":{"ID":518119,"DIS_CODE":0,"TOWNNAME":"東區","LI":"裕聖里","LIN":"1鄰","STREET":"裕忠路","SECT":" ","MAREA":" ","LANE":" ","ALLEY":" ","HOUSE_NO":"２５３之１７號","E_COORD97":172326.73000000001,"N_COORD97":2542489.5899999999,"ADDRESS":"裕忠路２５３之１７號","OBJECTID":518092},"geometry":{"x":172326.73000000138,"y":2542489.5899999999}},{"attributes":{"ID":518120,"DIS_CODE":0,"TOWNNAME":"東區","LI":"裕聖里","LIN":"1鄰","STREET":"裕忠路","SECT":" ","MAREA":" ","LANE":" ","ALLEY":" ","HOUSE_NO":"２５３之１號","E_COORD97":172277.04000000001,"N_COORD97":2542488.1400000001,"ADDRESS":"裕忠路２５３之１號","OBJECTID":518093},"geometry":{"x":172277.04000000097,"y":2542488.1400000043}},{"attributes":{"ID":518121,"DIS_CODE":0,"TOWNNAME":"東區","LI":"裕聖里","LIN":"1鄰","STREET":"裕忠路","SECT":" ","MAREA":" ","LANE":" ","ALLEY":" ","HOUSE_NO":"２５３之２號","E_COORD97":172280.23000000001,"N_COORD97":2542490.02,"ADDRESS":"裕忠路２５３之２號","OBJECTID":518094},"geometry":{"x":172280.23000000045,"y":2542490.0199999996}},{"attributes":{"ID":518122,"DIS_CODE":0,"TOWNNAME":"東區","LI":"裕聖里","LIN":"1鄰","STREET":"裕忠路","SECT":" ","MAREA":" ","LANE":" ","ALLEY":" ","HOUSE_NO":"２５３之３號","E_COORD97":172282.39999999999,"N_COORD97":2542488.1400000001,"ADDRESS":"裕忠路２５３之３號","OBJECTID":518095},"geometry":{"x":172282.40000000037,"y":2542488.1400000043}},{"attributes":{"ID":518123,"DIS_CODE":0,"TOWNNAME":"東區","LI":"裕聖里","LIN":"1鄰","STREET":"裕忠路","SECT":" ","MAREA":" ","LANE":" ","ALLEY":" ","HOUSE_NO":"２５３之５號","E_COORD97":172286.45999999999,"N_COORD97":2542489.5899999999,"ADDRESS":"裕忠路２５３之５號","OBJECTID":518096},"geometry":{"x":172286.45999999996,"y":2542489.5899999999}},{"attributes":{"ID":518124,"DIS_CODE":0,"TOWNNAME":"東區","LI":"裕聖里","LIN":"1鄰","STREET":"裕忠路","SECT":" ","MAREA":" ","LANE":" ","ALLEY":" ","HOUSE_NO":"２５３之６號","E_COORD97":172290.23000000001,"N_COORD97":2542487.8500000001,"ADDRESS":"裕忠路２５３之６號","OBJECTID":518097},"geometry":{"x":172290.23000000045,"y":2542487.8499999996}},{"attributes":{"ID":518125,"DIS_CODE":0,"TOWNNAME":"東區","LI":"裕聖里","LIN":"1鄰","STREET":"裕忠路","SECT":" ","MAREA":" ","LANE":" ","ALLEY":" ","HOUSE_NO":"２５３之７號","E_COORD97":172293.41,"N_COORD97":2542489.73,"ADDRESS":"裕忠路２５３之７號","OBJECTID":518098},"geometry":{"x":172293.41000000108,"y":2542489.7300000004}},{"attributes":{"ID":518126,"DIS_CODE":0,"TOWNNAME":"東區","LI":"裕聖里","LIN":"1鄰","STREET":"裕忠路","SECT":" ","MAREA":" ","LANE":" ","ALLEY":" ","HOUSE_NO":"２５３之８號","E_COORD97":172296.31,"N_COORD97":2542487.7000000002,"ADDRESS":"裕忠路２５３之８號","OBJECTID":518099},"geometry":{"x":172296.31000000145,"y":2542487.7000000011}},{"attributes":{"ID":518127,"DIS_CODE":0,"TOWNNAME":"東區","LI":"裕聖里","LIN":"1鄰","STREET":"裕忠路","SECT":" ","MAREA":" ","LANE":" ","ALLEY":" ","HOUSE_NO":"２５３之９號","E_COORD97":172302.25,"N_COORD97":2542487.8500000001,"ADDRESS":"裕忠路２５３之９號","OBJECTID":518100},"geometry":{"x":172302.25000000093,"y":2542487.8499999996}},{"attributes":{"ID":518128,"DIS_CODE":0,"TOWNNAME":"東區","LI":"裕聖里","LIN":"1鄰","STREET":"裕忠路","SECT":" ","MAREA":" ","LANE":" ","ALLEY":" ","HOUSE_NO":"２５５之１０號","E_COORD97":172303.79999999999,"N_COORD97":2542473.1899999999,"ADDRESS":"裕忠路２５５之１０號","OBJECTID":518101},"geometry":{"x":172303.80000000075,"y":2542473.1900000032}},{"attributes":{"ID":518129,"DIS_CODE":0,"TOWNNAME":"東區","LI":"裕聖里","LIN":"1鄰","STREET":"裕忠路","SECT":" ","MAREA":" ","LANE":" ","ALLEY":" ","HOUSE_NO":"２５５之１１號","E_COORD97":172305.67000000001,"N_COORD97":2542471.7200000002,"ADDRESS":"裕忠路２５５之１１號","OBJECTID":518102},"geometry":{"x":172305.66999999993,"y":2542471.7200000025}},{"attributes":{"ID":518130,"DIS_CODE":0,"TOWNNAME":"東區","LI":"裕聖里","LIN":"1鄰","STREET":"裕忠路","SECT":" ","MAREA":" ","LANE":" ","ALLEY":" ","HOUSE_NO":"２５５之１２號","E_COORD97":172308.73999999999,"N_COORD97":2542473.7200000002,"ADDRESS":"裕忠路２５５之１２號","OBJECTID":518103},"geometry":{"x":172308.74000000022,"y":2542473.7200000007}},{"attributes":{"ID":518131,"DIS_CODE":0,"TOWNNAME":"東區","LI":"裕聖里","LIN":"1鄰","STREET":"裕忠路","SECT":" ","MAREA":" ","LANE":" ","ALLEY":" ","HOUSE_NO":"２５５之１３號","E_COORD97":172311.67999999999,"N_COORD97":2542471.4500000002,"ADDRESS":"裕忠路２５５之１３號","OBJECTID":518104},"geometry":{"x":172311.6799999997,"y":2542471.4500000011}},{"attributes":{"ID":518132,"DIS_CODE":0,"TOWNNAME":"東區","LI":"裕聖里","LIN":"1鄰","STREET":"裕忠路","SECT":" ","MAREA":" ","LANE":" ","ALLEY":" ","HOUSE_NO":"２５５之１５號","E_COORD97":172315.01000000001,"N_COORD97":2542473.5899999999,"ADDRESS":"裕忠路２５５之１５號","OBJECTID":518105},"geometry":{"x":172315.00999999978,"y":2542473.5899999999}},{"attributes":{"ID":518133,"DIS_CODE":0,"TOWNNAME":"東區","LI":"裕聖里","LIN":"1鄰","STREET":"裕忠路","SECT":" ","MAREA":" ","LANE":" ","ALLEY":" ","HOUSE_NO":"２５５之１６號","E_COORD97":172318.89000000001,"N_COORD97":2542471.4500000002,"ADDRESS":"裕忠路２５５之１６號","OBJECTID":518106},"geometry":{"x":172318.88999999966,"y":2542471.4500000011}},{"attributes":{"ID":518134,"DIS_CODE":0,"TOWNNAME":"東區","LI":"裕聖里","LIN":"1鄰","STREET":"裕忠路","SECT":" ","MAREA":" ","LANE":" ","ALLEY":" ","HOUSE_NO":"２５５之１７號","E_COORD97":172320.62,"N_COORD97":2542473.3199999998,"ADDRESS":"裕忠路２５５之１７號","OBJECTID":518107},"geometry":{"x":172320.62000000104,"y":2542473.3200000022}},{"attributes":{"ID":518135,"DIS_CODE":0,"TOWNNAME":"東區","LI":"裕聖里","LIN":"1鄰","STREET":"裕忠路","SECT":" ","MAREA":" ","LANE":" ","ALLEY":" ","HOUSE_NO":"２５５之５號","E_COORD97":172284.31,"N_COORD97":2542473.5899999999,"ADDRESS":"裕忠路２５５之５號","OBJECTID":518108},"geometry":{"x":172284.31000000145,"y":2542473.5899999999}},{"attributes":{"ID":518136,"DIS_CODE":0,"TOWNNAME":"東區","LI":"裕聖里","LIN":"1鄰","STREET":"裕忠路","SECT":" ","MAREA":" ","LANE":" ","ALLEY":" ","HOUSE_NO":"２５５之６號","E_COORD97":172287.64999999999,"N_COORD97":2542472.2599999998,"ADDRESS":"裕忠路２５５之６號","OBJECTID":518109},"geometry":{"x":172287.65000000037,"y":2542472.2599999998}},{"attributes":{"ID":518137,"DIS_CODE":0,"TOWNNAME":"新化區","LI":"東榮里","LIN":"30鄰","STREET":"信義路","SECT":" ","MAREA":" ","LANE":" ","ALLEY":" ","HOUSE_NO":"１６５號","E_COORD97":179268.82999999999,"N_COORD97":2548359.25,"ADDRESS":"信義路１６５號","OBJECTID":518110},"geometry":{"x":179268.83000000194,"y":2548359.2500000019}},{"attributes":{"ID":518138,"DIS_CODE":0,"TOWNNAME":"東區","LI":"裕聖里","LIN":"1鄰","STREET":"裕忠路","SECT":" ","MAREA":" ","LANE":" ","ALLEY":" ","HOUSE_NO":"２５５之７號","E_COORD97":172292.19,"N_COORD97":2542473.5899999999,"ADDRESS":"裕忠路２５５之７號","OBJECTID":518111},"geometry":{"x":172292.19000000041,"y":2542473.5899999999}},{"attributes":{"ID":518139,"DIS_CODE":0,"TOWNNAME":"東區","LI":"裕聖里","LIN":"1鄰","STREET":"裕忠路","SECT":" ","MAREA":" ","LANE":" ","ALLEY":" ","HOUSE_NO":"２５５之８號","E_COORD97":172293.64999999999,"N_COORD97":2542471.5899999999,"ADDRESS":"裕忠路２５５之８號","OBJECTID":518112},"geometry":{"x":172293.6500000013,"y":2542471.5900000017}},{"attributes":{"ID":518140,"DIS_CODE":0,"TOWNNAME":"東區","LI":"裕聖里","LIN":"1鄰","STREET":"裕忠路","SECT":" ","MAREA":" ","LANE":" ","ALLEY":" ","HOUSE_NO":"２５５之９號","E_COORD97":172299.13,"N_COORD97":2542472.52,"ADDRESS":"裕忠路２５５之９號","OBJECTID":518113},"geometry":{"x":172299.12999999989,"y":2542472.5200000014}},{"attributes":{"ID":518141,"DIS_CODE":0,"TOWNNAME":"東區","LI":"裕聖里","LIN":"1鄰","STREET":"裕忠路","SECT":" ","MAREA":" ","LANE":" ","ALLEY":" ","HOUSE_NO":"２５７之１０號","E_COORD97":172300.20000000001,"N_COORD97":2542458.9100000001,"ADDRESS":"裕忠路２５７之１０號","OBJECTID":518114},"geometry":{"x":172300.20000000019,"y":2542458.9100000039}},{"attributes":{"ID":518142,"DIS_CODE":0,"TOWNNAME":"東區","LI":"裕聖里","LIN":"1鄰","STREET":"裕忠路","SECT":" ","MAREA":" ","LANE":" ","ALLEY":" ","HOUSE_NO":"２５７之１１號","E_COORD97":172304.73000000001,"N_COORD97":2542456.77,"ADDRESS":"裕忠路２５７之１１號","OBJECTID":518115},"geometry":{"x":172304.73000000138,"y":2542456.7700000014}},{"attributes":{"ID":518143,"DIS_CODE":0,"TOWNNAME":"東區","LI":"裕聖里","LIN":"1鄰","STREET":"裕忠路","SECT":" ","MAREA":" ","LANE":" ","ALLEY":" ","HOUSE_NO":"２５７之１２號","E_COORD97":172307.79999999999,"N_COORD97":2542458.77,"ADDRESS":"裕忠路２５７之１２號","OBJECTID":518116},"geometry":{"x":172307.79999999981,"y":2542458.7699999977}},{"attributes":{"ID":518144,"DIS_CODE":0,"TOWNNAME":"東區","LI":"裕聖里","LIN":"1鄰","STREET":"裕忠路","SECT":" ","MAREA":" ","LANE":" ","ALLEY":" ","HOUSE_NO":"２５７之１３號","E_COORD97":172310.60999999999,"N_COORD97":2542456.8999999999,"ADDRESS":"裕忠路２５７之１３號","OBJECTID":518117},"geometry":{"x":172310.61000000127,"y":2542456.9000000022}},{"attributes":{"ID":518145,"DIS_CODE":0,"TOWNNAME":"東區","LI":"裕聖里","LIN":"1鄰","STREET":"裕忠路","SECT":" ","MAREA":" ","LANE":" ","ALLEY":" ","HOUSE_NO":"２５７之１５號","E_COORD97":172314.60999999999,"N_COORD97":2542458.77,"ADDRESS":"裕忠路２５７之１５號","OBJECTID":518118},"geometry":{"x":172314.61000000034,"y":2542458.7699999977}},{"attributes":{"ID":518146,"DIS_CODE":0,"TOWNNAME":"東區","LI":"裕聖里","LIN":"1鄰","STREET":"裕忠路","SECT":" ","MAREA":" ","LANE":" ","ALLEY":" ","HOUSE_NO":"２５７之１６號","E_COORD97":172317.67999999999,"N_COORD97":2542456.6400000001,"ADDRESS":"裕忠路２５７之１６號","OBJECTID":518119},"geometry":{"x":172317.68000000063,"y":2542456.6400000006}},{"attributes":{"ID":518147,"DIS_CODE":0,"TOWNNAME":"東區","LI":"裕聖里","LIN":"1鄰","STREET":"裕忠路","SECT":" ","MAREA":" ","LANE":" ","ALLEY":" ","HOUSE_NO":"２５７之１７號","E_COORD97":172319.01999999999,"N_COORD97":2542458.77,"ADDRESS":"裕忠路２５７之１７號","OBJECTID":518120},"geometry":{"x":172319.02000000048,"y":2542458.7699999977}},{"attributes":{"ID":518148,"DIS_CODE":0,"TOWNNAME":"東區","LI":"裕聖里","LIN":"1鄰","STREET":"裕忠路","SECT":" ","MAREA":" ","LANE":" ","ALLEY":" ","HOUSE_NO":"２５７之１８號","E_COORD97":172322.48999999999,"N_COORD97":2542456.2400000002,"ADDRESS":"裕忠路２５７之１８號","OBJECTID":518121},"geometry":{"x":172322.49000000022,"y":2542456.2399999984}},{"attributes":{"ID":518149,"DIS_CODE":0,"TOWNNAME":"東區","LI":"裕聖里","LIN":"1鄰","STREET":"裕忠路","SECT":" ","MAREA":" ","LANE":" ","ALLEY":" ","HOUSE_NO":"２５７之１號","E_COORD97":172276.03,"N_COORD97":2542457.04,"ADDRESS":"裕忠路２５７之１號","OBJECTID":518122},"geometry":{"x":172276.03000000026,"y":2542457.040000001}},{"attributes":{"ID":518150,"DIS_CODE":0,"TOWNNAME":"東區","LI":"裕聖里","LIN":"1鄰","STREET":"裕忠路","SECT":" ","MAREA":" ","LANE":" ","ALLEY":" ","HOUSE_NO":"２５７之２０號","E_COORD97":172326.89999999999,"N_COORD97":2542456.3700000001,"ADDRESS":"裕忠路２５７之２０號","OBJECTID":518123},"geometry":{"x":172326.90000000224,"y":2542456.3700000048}},{"attributes":{"ID":518151,"DIS_CODE":0,"TOWNNAME":"東區","LI":"裕聖里","LIN":"1鄰","STREET":"裕忠路","SECT":" ","MAREA":" ","LANE":" ","ALLEY":" ","HOUSE_NO":"２５７之２號","E_COORD97":172278.42999999999,"N_COORD97":2542459.1699999999,"ADDRESS":"裕忠路２５７之２號","OBJECTID":518124},"geometry":{"x":172278.42999999877,"y":2542459.1699999999}},{"attributes":{"ID":518152,"DIS_CODE":0,"TOWNNAME":"東區","LI":"裕聖里","LIN":"1鄰","STREET":"裕忠路","SECT":" ","MAREA":" ","LANE":" ","ALLEY":" ","HOUSE_NO":"２５７之３號","E_COORD97":172280.57000000001,"N_COORD97":2542456.77,"ADDRESS":"裕忠路２５７之３號","OBJECTID":518125},"geometry":{"x":172280.57000000123,"y":2542456.7700000014}},{"attributes":{"ID":518153,"DIS_CODE":0,"TOWNNAME":"東區","LI":"裕聖里","LIN":"1鄰","STREET":"裕忠路","SECT":" ","MAREA":" ","LANE":" ","ALLEY":" ","HOUSE_NO":"２５７之５號","E_COORD97":172284.44,"N_COORD97":2542458.6400000001,"ADDRESS":"裕忠路２５７之５號","OBJECTID":518126},"geometry":{"x":172284.44000000134,"y":2542458.6400000025}},{"attributes":{"ID":518154,"DIS_CODE":0,"TOWNNAME":"東區","LI":"裕聖里","LIN":"1鄰","STREET":"裕忠路","SECT":" ","MAREA":" ","LANE":" ","ALLEY":" ","HOUSE_NO":"２５７之６號","E_COORD97":172287.51000000001,"N_COORD97":2542456.5,"ADDRESS":"裕忠路２５７之６號","OBJECTID":518127},"geometry":{"x":172287.50999999978,"y":2542456.5}},{"attributes":{"ID":518155,"DIS_CODE":0,"TOWNNAME":"東區","LI":"裕聖里","LIN":"1鄰","STREET":"裕忠路","SECT":" ","MAREA":" ","LANE":" ","ALLEY":" ","HOUSE_NO":"２５７之７號","E_COORD97":172290.57999999999,"N_COORD97":2542458.77,"ADDRESS":"裕忠路２５７之７號","OBJECTID":518128},"geometry":{"x":172290.58000000101,"y":2542458.7699999977}},{"attributes":{"ID":518156,"DIS_CODE":0,"TOWNNAME":"東區","LI":"裕聖里","LIN":"1鄰","STREET":"裕忠路","SECT":" ","MAREA":" ","LANE":" ","ALLEY":" ","HOUSE_NO":"２５７之８號","E_COORD97":172292.45000000001,"N_COORD97":2542456.6400000001,"ADDRESS":"裕忠路２５７之８號","OBJECTID":518129},"geometry":{"x":172292.45000000205,"y":2542456.6400000006}},{"attributes":{"ID":518157,"DIS_CODE":0,"TOWNNAME":"東區","LI":"裕聖里","LIN":"1鄰","STREET":"裕忠路","SECT":" ","MAREA":" ","LANE":" ","ALLEY":" ","HOUSE_NO":"２５７之９號","E_COORD97":172296.19,"N_COORD97":2542457.1699999999,"ADDRESS":"裕忠路２５７之９號","OBJECTID":518130},"geometry":{"x":172296.19000000227,"y":2542457.1700000018}},{"attributes":{"ID":518158,"DIS_CODE":0,"TOWNNAME":"善化區","LI":"北關里","LIN":"1鄰","STREET":"文正路","SECT":" ","MAREA":" ","LANE":" ","ALLEY":" ","HOUSE_NO":"６之３號","E_COORD97":177029.89999999999,"N_COORD97":2559240.0299999998,"ADDRESS":"文正路６之３號","OBJECTID":518131},"geometry":{"x":177029.9000000013,"y":2559240.0300000012}},{"attributes":{"ID":518159,"DIS_CODE":0,"TOWNNAME":"善化區","LI":"西關里","LIN":"1鄰","STREET":"三民路","SECT":" ","MAREA":" ","LANE":" ","ALLEY":" ","HOUSE_NO":"５６號之１","E_COORD97":177108.54000000001,"N_COORD97":2559025.02,"ADDRESS":"三民路５６號之１","OBJECTID":518132},"geometry":{"x":177108.54000000097,"y":2559025.0199999996}},{"attributes":{"ID":518160,"DIS_CODE":0,"TOWNNAME":"善化區","LI":"文正里","LIN":"1鄰","STREET":"進學路","SECT":" ","MAREA":" ","LANE":" ","ALLEY":" ","HOUSE_NO":"５９號","E_COORD97":177198.78,"N_COORD97":2559400.25,"ADDRESS":"進學路５９號","OBJECTID":518133},"geometry":{"x":177198.78000000026,"y":2559400.25}},{"attributes":{"ID":518161,"DIS_CODE":0,"TOWNNAME":"善化區","LI":"北關里","LIN":"1鄰","STREET":"中山路","SECT":" ","MAREA":" ","LANE":" ","ALLEY":" ","HOUSE_NO":"５４２號","E_COORD97":176931.22,"N_COORD97":2559207,"ADDRESS":"中山路５４２號","OBJECTID":518134},"geometry":{"x":176931.21999999974,"y":2559207.0000000019}},{"attributes":{"ID":518162,"DIS_CODE":0,"TOWNNAME":"新化區","LI":"護國里","LIN":"10鄰","STREET":"中山路","SECT":" ","MAREA":" ","LANE":" ","ALLEY":" ","HOUSE_NO":"１００號之２４","E_COORD97":179489.09,"N_COORD97":2549168.2599999998,"ADDRESS":"中山路１００號之２４","OBJECTID":518135},"geometry":{"x":179489.09000000078,"y":2549168.2599999998}},{"attributes":{"ID":518163,"DIS_CODE":0,"TOWNNAME":"新化區","LI":"中央里","LIN":"5鄰","STREET":"和平街","SECT":" ","MAREA":" ","LANE":" ","ALLEY":" ","HOUSE_NO":"１９２號","E_COORD97":178896.51999999999,"N_COORD97":2548359.25,"ADDRESS":"和平街１９２號","OBJECTID":518136},"geometry":{"x":178896.52000000048,"y":2548359.2500000019}},{"attributes":{"ID":518164,"DIS_CODE":0,"TOWNNAME":"新化區","LI":"武安里","LIN":"13鄰","STREET":"正新南路","SECT":" ","MAREA":" ","LANE":" ","ALLEY":" ","HOUSE_NO":"１０８號","E_COORD97":178878.87,"N_COORD97":2547984.25,"ADDRESS":"正新南路１０８號","OBJECTID":518137},"geometry":{"x":178878.87000000197,"y":2547984.25}},{"attributes":{"ID":518165,"DIS_CODE":0,"TOWNNAME":"善化區","LI":"西關里","LIN":"1鄰","STREET":"三民路","SECT":" ","MAREA":" ","LANE":" ","ALLEY":" ","HOUSE_NO":"６２號","E_COORD97":177123.14000000001,"N_COORD97":2559035.5099999998,"ADDRESS":"三民路６２號","OBJECTID":518138},"geometry":{"x":177123.13999999966,"y":2559035.5099999998}},{"attributes":{"ID":518166,"DIS_CODE":0,"TOWNNAME":"善化區","LI":"東關里","LIN":"1鄰","STREET":"中正路","SECT":" ","MAREA":" ","LANE":" ","ALLEY":" ","HOUSE_NO":"６６１號","E_COORD97":177634.94,"N_COORD97":2559551.5,"ADDRESS":"中正路６６１號","OBJECTID":518139},"geometry":{"x":177634.94000000134,"y":2559551.5}},{"attributes":{"ID":518167,"DIS_CODE":0,"TOWNNAME":"仁德區","LI":"仁義里","LIN":"1鄰","STREET":"義林七街","SECT":" ","MAREA":" ","LANE":" ","ALLEY":" ","HOUSE_NO":"６１號","E_COORD97":174379.98000000001,"N_COORD97":2541113.7599999998,"ADDRESS":"義林七街６１號","OBJECTID":518140},"geometry":{"x":174379.98000000138,"y":2541113.7600000016}},{"attributes":{"ID":518168,"DIS_CODE":0,"TOWNNAME":"仁德區","LI":"後壁里","LIN":"1鄰","STREET":"民安路","SECT":"二段","MAREA":" ","LANE":" ","ALLEY":" ","HOUSE_NO":"２號","E_COORD97":173305.79000000001,"N_COORD97":2539299.0699999998,"ADDRESS":"民安路二段２號","OBJECTID":518141},"geometry":{"x":173305.79000000097,"y":2539299.0700000022}},{"attributes":{"ID":518169,"DIS_CODE":0,"TOWNNAME":"仁德區","LI":"仁義里","LIN":"1鄰","STREET":"義林路","SECT":" ","MAREA":" ","LANE":" ","ALLEY":" ","HOUSE_NO":"１５６號","E_COORD97":174508.01000000001,"N_COORD97":2540730.52,"ADDRESS":"義林路１５６號","OBJECTID":518142},"geometry":{"x":174508.01000000071,"y":2540730.5199999996}},{"attributes":{"ID":518170,"DIS_CODE":0,"TOWNNAME":"仁德區","LI":"仁義里","LIN":"1鄰","STREET":"義林五街","SECT":" ","MAREA":" ","LANE":" ","ALLEY":" ","HOUSE_NO":"１５５號","E_COORD97":174137.06,"N_COORD97":2541031.77,"ADDRESS":"義林五街１５５號","OBJECTID":518143},"geometry":{"x":174137.05999999866,"y":2541031.7700000033}},{"attributes":{"ID":518171,"DIS_CODE":0,"TOWNNAME":"仁德區","LI":"大甲里","LIN":"1鄰","STREET":"行大街","SECT":" ","MAREA":" ","LANE":" ","ALLEY":" ","HOUSE_NO":"１４９之１號","E_COORD97":170047.59,"N_COORD97":2535048.2999999998,"ADDRESS":"行大街１４９之１號","OBJECTID":518144},"geometry":{"x":170047.58999999985,"y":2535048.3000000007}},{"attributes":{"ID":518172,"DIS_CODE":0,"TOWNNAME":"仁德區","LI":"仁義里","LIN":"1鄰","STREET":"義林六街","SECT":" ","MAREA":" ","LANE":" ","ALLEY":" ","HOUSE_NO":"５５號","E_COORD97":174335.44,"N_COORD97":2541064.52,"ADDRESS":"義林六街５５號","OBJECTID":518145},"geometry":{"x":174335.44000000227,"y":2541064.5200000014}},{"attributes":{"ID":518173,"DIS_CODE":0,"TOWNNAME":"仁德區","LI":"仁義里","LIN":"1鄰","STREET":"義林六街","SECT":" ","MAREA":" ","LANE":" ","ALLEY":" ","HOUSE_NO":"１５號","E_COORD97":174450.10000000001,"N_COORD97":2541048.52,"ADDRESS":"義林六街１５號","OBJECTID":518146},"geometry":{"x":174450.09999999963,"y":2541048.5200000014}},{"attributes":{"ID":518174,"DIS_CODE":0,"TOWNNAME":"仁德區","LI":"二行里","LIN":"1鄰","STREET":"二仁路","SECT":"一段","MAREA":" ","LANE":" ","ALLEY":" ","HOUSE_NO":"１９３號","E_COORD97":170455.70000000001,"N_COORD97":2535769.0299999998,"ADDRESS":"二仁路一段１９３號","OBJECTID":518147},"geometry":{"x":170455.70000000112,"y":2535769.0300000012}},{"attributes":{"ID":518175,"DIS_CODE":0,"TOWNNAME":"仁德區","LI":"仁義里","LIN":"1鄰","STREET":"中山路","SECT":" ","MAREA":" ","LANE":" ","ALLEY":" ","HOUSE_NO":"１２９號","E_COORD97":174696.67999999999,"N_COORD97":2541105.9900000002,"ADDRESS":"中山路１２９號","OBJECTID":518148},"geometry":{"x":174696.68000000063,"y":2541105.9900000021}},{"attributes":{"ID":518176,"DIS_CODE":0,"TOWNNAME":"仁德區","LI":"仁義里","LIN":"1鄰","STREET":"義林路","SECT":" ","MAREA":" ","LANE":" ","ALLEY":" ","HOUSE_NO":"１９１號","E_COORD97":174467.89999999999,"N_COORD97":2540986.2599999998,"ADDRESS":"義林路１９１號","OBJECTID":518149},"geometry":{"x":174467.90000000224,"y":2540986.2599999998}},{"attributes":{"ID":518177,"DIS_CODE":0,"TOWNNAME":"仁德區","LI":"大甲里","LIN":"1鄰","STREET":"行大街","SECT":" ","MAREA":" ","LANE":" ","ALLEY":" ","HOUSE_NO":"１５９號","E_COORD97":170017.87,"N_COORD97":2535087.9900000002,"ADDRESS":"行大街１５９號","OBJECTID":518150},"geometry":{"x":170017.86999999918,"y":2535087.9900000021}},{"attributes":{"ID":518178,"DIS_CODE":0,"TOWNNAME":"仁德區","LI":"二行里","LIN":"1鄰","STREET":"二仁路","SECT":"一段","MAREA":" ","LANE":" ","ALLEY":" ","HOUSE_NO":"２１１之１０號","E_COORD97":170380.23000000001,"N_COORD97":2535857.2999999998,"ADDRESS":"二仁路一段２１１之１０號","OBJECTID":518151},"geometry":{"x":170380.22999999952,"y":2535857.3000000007}},{"attributes":{"ID":518179,"DIS_CODE":0,"TOWNNAME":"仁德區","LI":"大甲里","LIN":"1鄰","STREET":"行大街","SECT":" ","MAREA":" ","LANE":" ","ALLEY":" ","HOUSE_NO":"２０９之１號","E_COORD97":169904.54000000001,"N_COORD97":2535068.79,"ADDRESS":"行大街２０９之１號","OBJECTID":518152},"geometry":{"x":169904.54000000004,"y":2535068.790000001}},{"attributes":{"ID":518180,"DIS_CODE":0,"TOWNNAME":"仁德區","LI":"仁義里","LIN":"1鄰","STREET":"義林七街","SECT":" ","MAREA":" ","LANE":" ","ALLEY":" ","HOUSE_NO":"１０１號","E_COORD97":174227.67999999999,"N_COORD97":2541132.77,"ADDRESS":"義林七街１０１號","OBJECTID":518153},"geometry":{"x":174227.6799999997,"y":2541132.7699999996}},{"attributes":{"ID":518181,"DIS_CODE":0,"TOWNNAME":"仁德區","LI":"仁義里","LIN":"1鄰","STREET":"義林六街","SECT":" ","MAREA":" ","LANE":" ","ALLEY":" ","HOUSE_NO":"３８號","E_COORD97":174396.12,"N_COORD97":2541081.0099999998,"ADDRESS":"義林六街３８號","OBJECTID":518154},"geometry":{"x":174396.12000000011,"y":2541081.0100000035}},{"attributes":{"ID":518182,"DIS_CODE":0,"TOWNNAME":"仁德區","LI":"仁義里","LIN":"1鄰","STREET":"義林七街","SECT":" ","MAREA":" ","LANE":" ","ALLEY":" ","HOUSE_NO":"９３號","E_COORD97":174243.39999999999,"N_COORD97":2541130.77,"ADDRESS":"義林七街９３號","OBJECTID":518155},"geometry":{"x":174243.40000000037,"y":2541130.7700000014}},{"attributes":{"ID":518183,"DIS_CODE":0,"TOWNNAME":"仁德區","LI":"二行里","LIN":"1鄰","STREET":"二仁路","SECT":"一段","MAREA":" ","LANE":" ","ALLEY":" ","HOUSE_NO":"２７９號","E_COORD97":170338.28,"N_COORD97":2536026.77,"ADDRESS":"二仁路一段２７９號","OBJECTID":518156},"geometry":{"x":170338.28000000119,"y":2536026.7699999996}},{"attributes":{"ID":518184,"DIS_CODE":0,"TOWNNAME":"仁德區","LI":"仁義里","LIN":"1鄰","STREET":"義林路","SECT":" ","MAREA":" ","LANE":" ","ALLEY":" ","HOUSE_NO":"１６６號","E_COORD97":174522.57000000001,"N_COORD97":2541037.77,"ADDRESS":"義林路１６６號","OBJECTID":518157},"geometry":{"x":174522.57000000216,"y":2541037.7699999996}},{"attributes":{"ID":518185,"DIS_CODE":0,"TOWNNAME":"仁德區","LI":"仁義里","LIN":"1鄰","STREET":"義林六街","SECT":" ","MAREA":" ","LANE":" ","ALLEY":" ","HOUSE_NO":"７９號","E_COORD97":174229.48000000001,"N_COORD97":2541073.5099999998,"ADDRESS":"義林六街７９號","OBJECTID":518158},"geometry":{"x":174229.48000000045,"y":2541073.5099999998}},{"attributes":{"ID":518186,"DIS_CODE":0,"TOWNNAME":"仁德區","LI":"上崙里","LIN":"1鄰","STREET":"德崙路","SECT":" ","MAREA":" ","LANE":" ","ALLEY":" ","HOUSE_NO":"１４３號","E_COORD97":173540.82000000001,"N_COORD97":2538395.0099999998,"ADDRESS":"德崙路１４３號","OBJECTID":518159},"geometry":{"x":173540.8200000003,"y":2538395.0099999998}},{"attributes":{"ID":518187,"DIS_CODE":0,"TOWNNAME":"仁德區","LI":"仁義里","LIN":"1鄰","STREET":"義林五街","SECT":" ","MAREA":" ","LANE":" ","ALLEY":" ","HOUSE_NO":"１２６號","E_COORD97":174139.56,"N_COORD97":2541054.27,"ADDRESS":"義林五街１２６號","OBJECTID":518160},"geometry":{"x":174139.56000000052,"y":2541054.2699999996}},{"attributes":{"ID":518188,"DIS_CODE":0,"TOWNNAME":"仁德區","LI":"大甲里","LIN":"1鄰","STREET":"行大一街","SECT":" ","MAREA":" ","LANE":" ","ALLEY":" ","HOUSE_NO":"７８號","E_COORD97":170014.09,"N_COORD97":2535009.7400000002,"ADDRESS":"行大一街７８號","OBJECTID":518161},"geometry":{"x":170014.08999999985,"y":2535009.7400000002}},{"attributes":{"ID":518189,"DIS_CODE":0,"TOWNNAME":"新化區","LI":"東榮里","LIN":"21鄰","STREET":"復興路","SECT":" ","MAREA":" ","LANE":" ","ALLEY":" ","HOUSE_NO":"１９８號","E_COORD97":179414.12,"N_COORD97":2548115.25,"ADDRESS":"復興路１９８號","OBJECTID":518162},"geometry":{"x":179414.12000000011,"y":2548115.2500000019}},{"attributes":{"ID":518190,"DIS_CODE":0,"TOWNNAME":"仁德區","LI":"上崙里","LIN":"1鄰","STREET":"德崙路","SECT":" ","MAREA":" ","LANE":" ","ALLEY":" ","HOUSE_NO":"１４１號","E_COORD97":173536.70999999999,"N_COORD97":2538398.2599999998,"ADDRESS":"德崙路１４１號","OBJECTID":518163},"geometry":{"x":173536.71000000089,"y":2538398.2600000016}},{"attributes":{"ID":518191,"DIS_CODE":0,"TOWNNAME":"仁德區","LI":"上崙里","LIN":"1鄰","STREET":"德崙路","SECT":" ","MAREA":" ","LANE":" ","ALLEY":" ","HOUSE_NO":"１６９號","E_COORD97":173583.82000000001,"N_COORD97":2538360.02,"ADDRESS":"德崙路１６９號","OBJECTID":518164},"geometry":{"x":173583.82000000123,"y":2538360.0199999996}},{"attributes":{"ID":518192,"DIS_CODE":0,"TOWNNAME":"仁德區","LI":"二行里","LIN":"1鄰","STREET":"二仁路","SECT":"一段","MAREA":" ","LANE":" ","ALLEY":" ","HOUSE_NO":"１６９號","E_COORD97":170481.48999999999,"N_COORD97":2535722.02,"ADDRESS":"二仁路一段１６９號","OBJECTID":518165},"geometry":{"x":170481.49000000022,"y":2535722.0200000014}},{"attributes":{"ID":518193,"DIS_CODE":0,"TOWNNAME":"仁德區","LI":"二行里","LIN":"1鄰","STREET":"二仁路","SECT":"一段","MAREA":" ","LANE":" ","ALLEY":" ","HOUSE_NO":"２１１之３號","E_COORD97":170432.38,"N_COORD97":2535844.0499999998,"ADDRESS":"二仁路一段２１１之３號","OBJECTID":518166},"geometry":{"x":170432.37999999989,"y":2535844.0500000026}},{"attributes":{"ID":518194,"DIS_CODE":0,"TOWNNAME":"仁德區","LI":"二行里","LIN":"1鄰","STREET":"二仁路","SECT":"一段","MAREA":" ","LANE":" ","ALLEY":" ","HOUSE_NO":"２１１之７號","E_COORD97":170423.94,"N_COORD97":2535860.5499999998,"ADDRESS":"二仁路一段２１１之７號","OBJECTID":518167},"geometry":{"x":170423.94000000041,"y":2535860.5500000045}},{"attributes":{"ID":518195,"DIS_CODE":0,"TOWNNAME":"仁德區","LI":"二行里","LIN":"1鄰","STREET":"二仁路","SECT":"一段","MAREA":" ","LANE":" ","ALLEY":" ","HOUSE_NO":"１６１號","E_COORD97":170500.92000000001,"N_COORD97":2535698.27,"ADDRESS":"二仁路一段１６１號","OBJECTID":518168},"geometry":{"x":170500.92000000086,"y":2535698.2699999996}},{"attributes":{"ID":518196,"DIS_CODE":0,"TOWNNAME":"仁德區","LI":"上崙里","LIN":"1鄰","STREET":"德崙路","SECT":" ","MAREA":" ","LANE":" ","ALLEY":" ","HOUSE_NO":"１６３號","E_COORD97":173573.32000000001,"N_COORD97":2538368.02,"ADDRESS":"德崙路１６３號","OBJECTID":518169},"geometry":{"x":173573.32000000216,"y":2538368.0199999996}},{"attributes":{"ID":518197,"DIS_CODE":0,"TOWNNAME":"仁德區","LI":"上崙里","LIN":"1鄰","STREET":"德崙路","SECT":" ","MAREA":" ","LANE":" ","ALLEY":" ","HOUSE_NO":"１５９號","E_COORD97":173566.32000000001,"N_COORD97":2538374.02,"ADDRESS":"德崙路１５９號","OBJECTID":518170},"geometry":{"x":173566.3200000003,"y":2538374.0199999996}},{"attributes":{"ID":518198,"DIS_CODE":0,"TOWNNAME":"仁德區","LI":"二行里","LIN":"1鄰","STREET":"二仁路","SECT":"一段","MAREA":" ","LANE":" ","ALLEY":" ","HOUSE_NO":"１７３號","E_COORD97":170478.73000000001,"N_COORD97":2535730.77,"ADDRESS":"二仁路一段１７３號","OBJECTID":518171},"geometry":{"x":170478.73000000231,"y":2535730.7700000014}},{"attributes":{"ID":518199,"DIS_CODE":0,"TOWNNAME":"仁德區","LI":"二行里","LIN":"1鄰","STREET":"二仁路","SECT":"一段","MAREA":" ","LANE":" ","ALLEY":" ","HOUSE_NO":"１８３號","E_COORD97":170466.31,"N_COORD97":2535752.0299999998,"ADDRESS":"二仁路一段１８３號","OBJECTID":518172},"geometry":{"x":170466.30999999959,"y":2535752.0300000012}},{"attributes":{"ID":518200,"DIS_CODE":0,"TOWNNAME":"仁德區","LI":"二行里","LIN":"1鄰","STREET":"二仁路","SECT":"一段","MAREA":" ","LANE":" ","ALLEY":" ","HOUSE_NO":"１６５號","E_COORD97":170497.59,"N_COORD97":2535705.52,"ADDRESS":"二仁路一段１６５號","OBJECTID":518173},"geometry":{"x":170497.59000000171,"y":2535705.5199999996}},{"attributes":{"ID":518201,"DIS_CODE":0,"TOWNNAME":"仁德區","LI":"二行里","LIN":"1鄰","STREET":"二仁路","SECT":"一段","MAREA":" ","LANE":" ","ALLEY":" ","HOUSE_NO":"１６７號","E_COORD97":170483.35999999999,"N_COORD97":2535717.02,"ADDRESS":"二仁路一段１６７號","OBJECTID":518174},"geometry":{"x":170483.36000000127,"y":2535717.0199999977}},{"attributes":{"ID":518202,"DIS_CODE":0,"TOWNNAME":"仁德區","LI":"二行里","LIN":"1鄰","STREET":"二仁路","SECT":"一段","MAREA":" ","LANE":" ","ALLEY":" ","HOUSE_NO":"１７９號","E_COORD97":170478.89999999999,"N_COORD97":2535742.7799999998,"ADDRESS":"二仁路一段１７９號","OBJECTID":518175},"geometry":{"x":170478.90000000037,"y":2535742.7800000012}},{"attributes":{"ID":518203,"DIS_CODE":0,"TOWNNAME":"新化區","LI":"豐榮里","LIN":"1鄰","STREET":"大智路","SECT":" ","MAREA":" ","LANE":" ","ALLEY":" ","HOUSE_NO":"２０號","E_COORD97":178311.38,"N_COORD97":2548401.25,"ADDRESS":"大智路２０號","OBJECTID":518176},"geometry":{"x":178311.38000000082,"y":2548401.25}},{"attributes":{"ID":518204,"DIS_CODE":0,"TOWNNAME":"仁德區","LI":"二行里","LIN":"1鄰","STREET":"二仁路","SECT":"一段","MAREA":" ","LANE":" ","ALLEY":" ","HOUSE_NO":"１５７號","E_COORD97":170503.92000000001,"N_COORD97":2535690.77,"ADDRESS":"二仁路一段１５７號","OBJECTID":518177},"geometry":{"x":170503.92000000179,"y":2535690.7699999996}},{"attributes":{"ID":518205,"DIS_CODE":0,"TOWNNAME":"仁德區","LI":"一甲里","LIN":"1鄰","STREET":"中正路","SECT":"三段","MAREA":" ","LANE":" ","ALLEY":" ","HOUSE_NO":"１３１號","E_COORD97":173430.70999999999,"N_COORD97":2541735.52,"ADDRESS":"中正路三段１３１號","OBJECTID":518178},"geometry":{"x":173430.70999999996,"y":2541735.5200000014}},{"attributes":{"ID":518206,"DIS_CODE":0,"TOWNNAME":"仁德區","LI":"一甲里","LIN":"1鄰","STREET":"中正路","SECT":"三段","MAREA":" ","LANE":" ","ALLEY":" ","HOUSE_NO":"８１號","E_COORD97":173365.59,"N_COORD97":2541626.02,"ADDRESS":"中正路三段８１號","OBJECTID":518179},"geometry":{"x":173365.58999999985,"y":2541626.0199999996}},{"attributes":{"ID":518207,"DIS_CODE":0,"TOWNNAME":"仁德區","LI":"一甲里","LIN":"1鄰","STREET":"中正路","SECT":"三段","MAREA":" ","LANE":" ","ALLEY":" ","HOUSE_NO":"１１１號","E_COORD97":173398.34,"N_COORD97":2541686.5299999998,"ADDRESS":"中正路三段１１１號","OBJECTID":518180},"geometry":{"x":173398.34000000078,"y":2541686.5299999993}},{"attributes":{"ID":518208,"DIS_CODE":0,"TOWNNAME":"仁德區","LI":"二行里","LIN":"1鄰","STREET":"二仁路","SECT":"一段","MAREA":" ","LANE":" ","ALLEY":" ","HOUSE_NO":"２１１之１１號","E_COORD97":170364.67999999999,"N_COORD97":2535847.2999999998,"ADDRESS":"二仁路一段２１１之１１號","OBJECTID":518181},"geometry":{"x":170364.68000000156,"y":2535847.3000000007}},{"attributes":{"ID":518209,"DIS_CODE":0,"TOWNNAME":"仁德區","LI":"二行里","LIN":"1鄰","STREET":"二仁路","SECT":"一段","MAREA":" ","LANE":" ","ALLEY":" ","HOUSE_NO":"２７７號","E_COORD97":170339.73000000001,"N_COORD97":2536022.27,"ADDRESS":"二仁路一段２７７號","OBJECTID":518182},"geometry":{"x":170339.73000000231,"y":2536022.2700000014}},{"attributes":{"ID":518210,"DIS_CODE":0,"TOWNNAME":"仁德區","LI":"一甲里","LIN":"1鄰","STREET":"中正路","SECT":"三段","MAREA":" ","LANE":" ","ALLEY":" ","HOUSE_NO":"８１之１號","E_COORD97":173275.88,"N_COORD97":2541607.29,"ADDRESS":"中正路三段８１之１號","OBJECTID":518183},"geometry":{"x":173275.88000000175,"y":2541607.2900000028}},{"attributes":{"ID":518211,"DIS_CODE":0,"TOWNNAME":"仁德區","LI":"一甲里","LIN":"1鄰","STREET":"中正路","SECT":"三段","MAREA":" ","LANE":" ","ALLEY":" ","HOUSE_NO":"１１９號","E_COORD97":173417.47,"N_COORD97":2541704.02,"ADDRESS":"中正路三段１１９號","OBJECTID":518184},"geometry":{"x":173417.4700000016,"y":2541704.0199999996}},{"attributes":{"ID":518212,"DIS_CODE":0,"TOWNNAME":"新化區","LI":"護國里","LIN":"4鄰","STREET":"中山路","SECT":" ","MAREA":" ","LANE":" ","ALLEY":" ","HOUSE_NO":"２１２號","E_COORD97":179150.51000000001,"N_COORD97":2548458.25,"ADDRESS":"中山路２１２號","OBJECTID":518185},"geometry":{"x":179150.51000000071,"y":2548458.2500000019}},{"attributes":{"ID":518213,"DIS_CODE":0,"TOWNNAME":"仁德區","LI":"一甲里","LIN":"1鄰","STREET":"中正路","SECT":"三段","MAREA":" ","LANE":" ","ALLEY":" ","HOUSE_NO":"９１之２號","E_COORD97":173383.19,"N_COORD97":2541631.8199999998,"ADDRESS":"中正路三段９１之２號","OBJECTID":518186},"geometry":{"x":173383.19000000134,"y":2541631.8200000003}},{"attributes":{"ID":518214,"DIS_CODE":0,"TOWNNAME":"仁德區","LI":"一甲里","LIN":"1鄰","STREET":"中正路","SECT":"三段","MAREA":" ","LANE":" ","ALLEY":" ","HOUSE_NO":"１３７號","E_COORD97":173436.10000000001,"N_COORD97":2541747.7799999998,"ADDRESS":"中正路三段１３７號","OBJECTID":518187},"geometry":{"x":173436.09999999963,"y":2541747.7800000012}},{"attributes":{"ID":518215,"DIS_CODE":0,"TOWNNAME":"仁德區","LI":"二行里","LIN":"1鄰","STREET":"二仁路","SECT":"一段","MAREA":" ","LANE":" ","ALLEY":" ","HOUSE_NO":"２３５號","E_COORD97":170375.23000000001,"N_COORD97":2535875.7799999998,"ADDRESS":"二仁路一段２３５號","OBJECTID":518188},"geometry":{"x":170375.23000000231,"y":2535875.7800000012}},{"attributes":{"ID":518216,"DIS_CODE":0,"TOWNNAME":"仁德區","LI":"二行里","LIN":"1鄰","STREET":"二仁路","SECT":"一段","MAREA":" ","LANE":" ","ALLEY":" ","HOUSE_NO":"２８３號","E_COORD97":170334.73000000001,"N_COORD97":2536036.52,"ADDRESS":"二仁路一段２８３號","OBJECTID":518189},"geometry":{"x":170334.73000000138,"y":2536036.5200000014}},{"attributes":{"ID":518217,"DIS_CODE":0,"TOWNNAME":"仁德區","LI":"二行里","LIN":"1鄰","STREET":"二仁路","SECT":"一段","MAREA":" ","LANE":" ","ALLEY":" ","HOUSE_NO":"２１１之１號","E_COORD97":170435.60999999999,"N_COORD97":2535835.54,"ADDRESS":"二仁路一段２１１之１號","OBJECTID":518190},"geometry":{"x":170435.61000000127,"y":2535835.540000001}},{"attributes":{"ID":518218,"DIS_CODE":0,"TOWNNAME":"仁德區","LI":"上崙里","LIN":"1鄰","STREET":"德崙路","SECT":" ","MAREA":" ","LANE":" ","ALLEY":" ","HOUSE_NO":"１５３號","E_COORD97":173556.91,"N_COORD97":2538381.5099999998,"ADDRESS":"德崙路１５３號","OBJECTID":518191},"geometry":{"x":173556.91000000015,"y":2538381.5099999998}},{"attributes":{"ID":518219,"DIS_CODE":0,"TOWNNAME":"仁德區","LI":"二行里","LIN":"1鄰","STREET":"二仁路","SECT":"一段","MAREA":" ","LANE":" ","ALLEY":" ","HOUSE_NO":"２１１之２號","E_COORD97":170434,"N_COORD97":2535840.0499999998,"ADDRESS":"二仁路一段２１１之２號","OBJECTID":518192},"geometry":{"x":170434.00000000186,"y":2535840.0499999989}},{"attributes":{"ID":518220,"DIS_CODE":0,"TOWNNAME":"仁德區","LI":"上崙里","LIN":"1鄰","STREET":"德崙路","SECT":" ","MAREA":" ","LANE":" ","ALLEY":" ","HOUSE_NO":"８９號","E_COORD97":173471.04999999999,"N_COORD97":2538448.77,"ADDRESS":"德崙路８９號","OBJECTID":518193},"geometry":{"x":173471.04999999981,"y":2538448.7700000014}},{"attributes":{"ID":518221,"DIS_CODE":0,"TOWNNAME":"仁德區","LI":"二行里","LIN":"1鄰","STREET":"二仁路","SECT":"一段","MAREA":" ","LANE":" ","ALLEY":" ","HOUSE_NO":"１５９號","E_COORD97":170502.62,"N_COORD97":2535694.52,"ADDRESS":"二仁路一段１５９號","OBJECTID":518194},"geometry":{"x":170502.62000000011,"y":2535694.5200000014}},{"attributes":{"ID":518222,"DIS_CODE":0,"TOWNNAME":"仁德區","LI":"二行里","LIN":"1鄰","STREET":"二仁路","SECT":"一段","MAREA":" ","LANE":" ","ALLEY":" ","HOUSE_NO":"２１１之６號","E_COORD97":170426,"N_COORD97":2535855.7999999998,"ADDRESS":"二仁路一段２１１之６號","OBJECTID":518195},"geometry":{"x":170426.00000000093,"y":2535855.8000000045}},{"attributes":{"ID":518223,"DIS_CODE":0,"TOWNNAME":"仁德區","LI":"上崙里","LIN":"1鄰","STREET":"德崙路","SECT":" ","MAREA":" ","LANE":" ","ALLEY":" ","HOUSE_NO":"１４７號","E_COORD97":173547.45999999999,"N_COORD97":2538389.0099999998,"ADDRESS":"德崙路１４７號","OBJECTID":518196},"geometry":{"x":173547.45999999996,"y":2538389.0100000035}},{"attributes":{"ID":518224,"DIS_CODE":0,"TOWNNAME":"仁德區","LI":"二行里","LIN":"1鄰","STREET":"二仁路","SECT":"一段","MAREA":" ","LANE":" ","ALLEY":" ","HOUSE_NO":"１７７號","E_COORD97":170479.87,"N_COORD97":2535739.0299999998,"ADDRESS":"二仁路一段１７７號","OBJECTID":518197},"geometry":{"x":170479.87000000104,"y":2535739.0299999993}},{"attributes":{"ID":518225,"DIS_CODE":0,"TOWNNAME":"仁德區","LI":"上崙里","LIN":"1鄰","STREET":"德崙路","SECT":" ","MAREA":" ","LANE":" ","ALLEY":" ","HOUSE_NO":"１６５號","E_COORD97":173576.92999999999,"N_COORD97":2538365.27,"ADDRESS":"德崙路１６５號","OBJECTID":518198},"geometry":{"x":173576.92999999877,"y":2538365.2699999996}},{"attributes":{"ID":518226,"DIS_CODE":0,"TOWNNAME":"仁德區","LI":"二行里","LIN":"1鄰","STREET":"二仁路","SECT":"一段","MAREA":" ","LANE":" ","ALLEY":" ","HOUSE_NO":"１６３號","E_COORD97":170499.29000000001,"N_COORD97":2535702.27,"ADDRESS":"二仁路一段１６３號","OBJECTID":518199},"geometry":{"x":170499.29000000004,"y":2535702.2700000014}},{"attributes":{"ID":518227,"DIS_CODE":0,"TOWNNAME":"仁德區","LI":"上崙里","LIN":"1鄰","STREET":"德崙路","SECT":" ","MAREA":" ","LANE":" ","ALLEY":" ","HOUSE_NO":"１５１號","E_COORD97":173553.66,"N_COORD97":2538384.0099999998,"ADDRESS":"德崙路１５１號","OBJECTID":518200},"geometry":{"x":173553.66000000015,"y":2538384.0100000016}}]}