{"displayFieldName":"TOWNNAME","fieldAliases":{"ID":"ID","DIS_CODE":"DIS_CODE","TOWNNAME":"TOWNNAME","LI":"LI","LIN":"LIN","STREET":"STREET","SECT":"SECT","MAREA":"MAREA","LANE":"LANE","ALLEY":"ALLEY","HOUSE_NO":"HOUSE_NO","E_COORD97":"E_COORD97","N_COORD97":"N_COORD97","ADDRESS":"ADDRESS","OBJECTID":"OBJECTID"},"geometryType":"esriGeometryPoint","spatialReference":{"wkid":102443,"latestWkid":3826},"fields":[{"name":"ID","type":"esriFieldTypeDouble","alias":"ID"},{"name":"DIS_CODE","type":"esriFieldTypeInteger","alias":"DIS_CODE"},{"name":"TOWNNAME","type":"esriFieldTypeString","alias":"TOWNNAME","length":8},{"name":"LI","type":"esriFieldTypeString","alias":"LI","length":8},{"name":"LIN","type":"esriFieldTypeString","alias":"LIN","length":12},{"name":"STREET","type":"esriFieldTypeString","alias":"STREET","length":20},{"name":"SECT","type":"esriFieldTypeString","alias":"SECT","length":8},{"name":"MAREA","type":"esriFieldTypeString","alias":"MAREA","length":12},{"name":"LANE","type":"esriFieldTypeString","alias":"LANE","length":10},{"name":"ALLEY","type":"esriFieldTypeString","alias":"ALLEY","length":10},{"name":"HOUSE_NO","type":"esriFieldTypeString","alias":"HOUSE_NO","length":20},{"name":"E_COORD97","type":"esriFieldTypeDouble","alias":"E_COORD97"},{"name":"N_COORD97","type":"esriFieldTypeDouble","alias":"N_COORD97"},{"name":"ADDRESS","type":"esriFieldTypeString","alias":"ADDRESS","length":50},{"name":"OBJECTID","type":"esriFieldTypeOID","alias":"OBJECTID"}],"features":[{"attributes":{"ID":24801,"DIS_CODE":0,"TOWNNAME":"官田區","LI":"大崎里","LIN":"8鄰","STREET":" ","SECT":" ","MAREA":"大崎","LANE":" ","ALLEY":" ","HOUSE_NO":"６６號之１９","E_COORD97":185854.78,"N_COORD97":2565258.52,"ADDRESS":"大崎６６號之１９","OBJECTID":24801},"geometry":{"x":185854.78000000026,"y":2565258.5200000014}},{"attributes":{"ID":24802,"DIS_CODE":0,"TOWNNAME":"官田區","LI":"大崎里","LIN":"8鄰","STREET":" ","SECT":" ","MAREA":"大崎","LANE":" ","ALLEY":" ","HOUSE_NO":"６６號之２０","E_COORD97":185852.16,"N_COORD97":2565263.2999999998,"ADDRESS":"大崎６６號之２０","OBJECTID":24802},"geometry":{"x":185852.16000000015,"y":2565263.3000000007}},{"attributes":{"ID":24803,"DIS_CODE":0,"TOWNNAME":"官田區","LI":"大崎里","LIN":"8鄰","STREET":" ","SECT":" ","MAREA":"大崎","LANE":" ","ALLEY":" ","HOUSE_NO":"６６號之２１","E_COORD97":185847.01999999999,"N_COORD97":2565268.29,"ADDRESS":"大崎６６號之２１","OBJECTID":24803},"geometry":{"x":185847.01999999955,"y":2565268.2899999991}},{"attributes":{"ID":24804,"DIS_CODE":0,"TOWNNAME":"永康區","LI":"復華里","LIN":"21鄰","STREET":"國華街","SECT":" ","MAREA":" ","LANE":"１３２巷","ALLEY":"１２弄","HOUSE_NO":"２０號","E_COORD97":172903.011952,"N_COORD97":2546393.3281299998,"ADDRESS":"國華街１３２巷１２弄２０號","OBJECTID":24804},"geometry":{"x":172903.01195199974,"y":2546393.3281270005}},{"attributes":{"ID":24805,"DIS_CODE":0,"TOWNNAME":"安南區","LI":"淵中里","LIN":"15鄰","STREET":"安中路","SECT":"四段","MAREA":" ","LANE":"１５４巷","ALLEY":"５７弄","HOUSE_NO":"１６號","E_COORD97":165042.87,"N_COORD97":2550181.2200000002,"ADDRESS":"安中路四段１５４巷５７弄１６號","OBJECTID":24805},"geometry":{"x":165042.87000000104,"y":2550181.2200000025}},{"attributes":{"ID":24806,"DIS_CODE":0,"TOWNNAME":"善化區","LI":"溪美里","LIN":"8鄰","STREET":" ","SECT":" ","MAREA":"溪尾","LANE":" ","ALLEY":" ","HOUSE_NO":"７９號","E_COORD97":176687.95999999999,"N_COORD97":2561296.02,"ADDRESS":"溪尾７９號","OBJECTID":24806},"geometry":{"x":176687.96000000089,"y":2561296.0199999996}},{"attributes":{"ID":24807,"DIS_CODE":0,"TOWNNAME":"安南區","LI":"淵中里","LIN":"15鄰","STREET":"安中路","SECT":"四段","MAREA":" ","LANE":"１５４巷","ALLEY":"５７弄","HOUSE_NO":"３４號","E_COORD97":165046.82000000001,"N_COORD97":2550212.6400000001,"ADDRESS":"安中路四段１５４巷５７弄３４號","OBJECTID":24807},"geometry":{"x":165046.82000000123,"y":2550212.6400000025}},{"attributes":{"ID":24808,"DIS_CODE":0,"TOWNNAME":"仁德區","LI":"仁義里","LIN":"14鄰","STREET":"義林路","SECT":" ","MAREA":" ","LANE":"２００巷","ALLEY":"６５弄","HOUSE_NO":"４號","E_COORD97":174628.34,"N_COORD97":2541330.9100000001,"ADDRESS":"義林路２００巷６５弄４號","OBJECTID":24808},"geometry":{"x":174628.33999999985,"y":2541330.910000002}},{"attributes":{"ID":24809,"DIS_CODE":0,"TOWNNAME":"仁德區","LI":"太子里","LIN":"14鄰","STREET":"長興路","SECT":" ","MAREA":" ","LANE":"８７巷","ALLEY":"２１弄","HOUSE_NO":"１號","E_COORD97":174035.89000000001,"N_COORD97":2543756.2599999998,"ADDRESS":"長興路８７巷２１弄１號","OBJECTID":24809},"geometry":{"x":174035.88999999966,"y":2543756.2599999998}},{"attributes":{"ID":24810,"DIS_CODE":0,"TOWNNAME":"仁德區","LI":"土庫里","LIN":"14鄰","STREET":"土庫路","SECT":" ","MAREA":" ","LANE":"１８５巷","ALLEY":"３２弄","HOUSE_NO":"２１號","E_COORD97":174455.39999999999,"N_COORD97":2542866.9900000002,"ADDRESS":"土庫路１８５巷３２弄２１號","OBJECTID":24810},"geometry":{"x":174455.40000000037,"y":2542866.9900000002}},{"attributes":{"ID":24811,"DIS_CODE":0,"TOWNNAME":"仁德區","LI":"後壁里","LIN":"14鄰","STREET":"德善路","SECT":" ","MAREA":" ","LANE":"１８２巷","ALLEY":"３０弄","HOUSE_NO":"１８之１號","E_COORD97":173617.98000000001,"N_COORD97":2538757.02,"ADDRESS":"德善路１８２巷３０弄１８之１號","OBJECTID":24811},"geometry":{"x":173617.98000000045,"y":2538757.0199999996}},{"attributes":{"ID":24812,"DIS_CODE":0,"TOWNNAME":"仁德區","LI":"上崙里","LIN":"14鄰","STREET":"德崙路","SECT":" ","MAREA":" ","LANE":"３７０巷","ALLEY":"２１弄","HOUSE_NO":"２８號","E_COORD97":174110.67000000001,"N_COORD97":2537999.0099999998,"ADDRESS":"德崙路３７０巷２１弄２８號","OBJECTID":24812},"geometry":{"x":174110.66999999993,"y":2537999.0099999979}},{"attributes":{"ID":24813,"DIS_CODE":0,"TOWNNAME":"官田區","LI":"大崎里","LIN":"8鄰","STREET":" ","SECT":" ","MAREA":"大崎","LANE":" ","ALLEY":" ","HOUSE_NO":"６６號之２２","E_COORD97":185845.95999999999,"N_COORD97":2565273.7999999998,"ADDRESS":"大崎６６號之２２","OBJECTID":24813},"geometry":{"x":185845.96000000089,"y":2565273.8000000045}},{"attributes":{"ID":24814,"DIS_CODE":0,"TOWNNAME":"仁德區","LI":"二行里","LIN":"14鄰","STREET":"中正西路","SECT":" ","MAREA":" ","LANE":"３５３巷","ALLEY":"１８弄","HOUSE_NO":"２３號","E_COORD97":169792.79000000001,"N_COORD97":2535263.25,"ADDRESS":"中正西路３５３巷１８弄２３號","OBJECTID":24814},"geometry":{"x":169792.79000000004,"y":2535263.2500000019}},{"attributes":{"ID":24815,"DIS_CODE":0,"TOWNNAME":"仁德區","LI":"上崙里","LIN":"14鄰","STREET":"德崙路","SECT":" ","MAREA":" ","LANE":"３７０巷","ALLEY":"２１弄","HOUSE_NO":"３６號","E_COORD97":174128.28,"N_COORD97":2538014.0099999998,"ADDRESS":"德崙路３７０巷２１弄３６號","OBJECTID":24815},"geometry":{"x":174128.28000000119,"y":2538014.0100000016}},{"attributes":{"ID":24816,"DIS_CODE":0,"TOWNNAME":"仁德區","LI":"上崙里","LIN":"14鄰","STREET":"德崙路","SECT":" ","MAREA":" ","LANE":"３７０巷","ALLEY":"２１弄","HOUSE_NO":"４０號","E_COORD97":174148.95999999999,"N_COORD97":2538019.77,"ADDRESS":"德崙路３７０巷２１弄４０號","OBJECTID":24816},"geometry":{"x":174148.96000000089,"y":2538019.7699999996}},{"attributes":{"ID":24817,"DIS_CODE":0,"TOWNNAME":"安南區","LI":"安慶里","LIN":"13鄰","STREET":"培安路","SECT":" ","MAREA":" ","LANE":"２６７巷","ALLEY":" ","HOUSE_NO":"２３號","E_COORD97":169365.66,"N_COORD97":2548943.5600000001,"ADDRESS":"培安路２６７巷２３號","OBJECTID":24817},"geometry":{"x":169365.66000000108,"y":2548943.5599999987}},{"attributes":{"ID":24818,"DIS_CODE":0,"TOWNNAME":"安南區","LI":"頂安里","LIN":"13鄰","STREET":"北安二街","SECT":" ","MAREA":" ","LANE":" ","ALLEY":" ","HOUSE_NO":"８２號","E_COORD97":168484.89000000001,"N_COORD97":2548453.4399999999,"ADDRESS":"北安二街８２號","OBJECTID":24818},"geometry":{"x":168484.89000000153,"y":2548453.4400000013}},{"attributes":{"ID":24819,"DIS_CODE":0,"TOWNNAME":"東區","LI":"關聖里","LIN":"13鄰","STREET":"裕和路","SECT":" ","MAREA":" ","LANE":" ","ALLEY":" ","HOUSE_NO":"９０號","E_COORD97":172147.32999999999,"N_COORD97":2543106.8700000001,"ADDRESS":"裕和路９０號","OBJECTID":24819},"geometry":{"x":172147.33000000194,"y":2543106.870000001}},{"attributes":{"ID":24820,"DIS_CODE":0,"TOWNNAME":"中西區","LI":"西賢里","LIN":"13鄰","STREET":"西賢一街","SECT":" ","MAREA":" ","LANE":" ","ALLEY":" ","HOUSE_NO":"２２８之７號","E_COORD97":165699.98000000001,"N_COORD97":2544932.5499999998,"ADDRESS":"西賢一街２２８之７號","OBJECTID":24820},"geometry":{"x":165699.98000000231,"y":2544932.5500000007}},{"attributes":{"ID":24821,"DIS_CODE":0,"TOWNNAME":"東區","LI":"崇文里","LIN":"13鄰","STREET":"崇德十九街","SECT":" ","MAREA":" ","LANE":" ","ALLEY":" ","HOUSE_NO":"８９號","E_COORD97":171039.41,"N_COORD97":2540988.7400000002,"ADDRESS":"崇德十九街８９號","OBJECTID":24821},"geometry":{"x":171039.41000000015,"y":2540988.7400000039}},{"attributes":{"ID":24822,"DIS_CODE":0,"TOWNNAME":"南區","LI":"文南里","LIN":"13鄰","STREET":"健康路","SECT":"二段","MAREA":" ","LANE":" ","ALLEY":" ","HOUSE_NO":"３００號","E_COORD97":166867.62,"N_COORD97":2542511.7200000002,"ADDRESS":"健康路二段３００號","OBJECTID":24822},"geometry":{"x":166867.62000000011,"y":2542511.7200000025}},{"attributes":{"ID":24823,"DIS_CODE":0,"TOWNNAME":"東區","LI":"崇學里","LIN":"13鄰","STREET":"崇明十街","SECT":" ","MAREA":" ","LANE":" ","ALLEY":" ","HOUSE_NO":"９７號","E_COORD97":170237.75,"N_COORD97":2541928.4199999999,"ADDRESS":"崇明十街９７號","OBJECTID":24823},"geometry":{"x":170237.75000000093,"y":2541928.4199999999}},{"attributes":{"ID":24824,"DIS_CODE":0,"TOWNNAME":"新營區","LI":"民生里","LIN":"8鄰","STREET":"復興路","SECT":" ","MAREA":" ","LANE":" ","ALLEY":" ","HOUSE_NO":"１３２號之１","E_COORD97":179361.84,"N_COORD97":2578055.3100000001,"ADDRESS":"復興路１３２號之１","OBJECTID":24824},"geometry":{"x":179361.84000000171,"y":2578055.3100000042}},{"attributes":{"ID":24825,"DIS_CODE":0,"TOWNNAME":"官田區","LI":"大崎里","LIN":"8鄰","STREET":" ","SECT":" ","MAREA":"大崎","LANE":" ","ALLEY":" ","HOUSE_NO":"６６號之２３","E_COORD97":185843.28,"N_COORD97":2565279.1600000001,"ADDRESS":"大崎６６號之２３","OBJECTID":24825},"geometry":{"x":185843.28000000212,"y":2565279.160000002}},{"attributes":{"ID":24826,"DIS_CODE":0,"TOWNNAME":"永康區","LI":"永康里","LIN":"14鄰","STREET":"永中街","SECT":" ","MAREA":" ","LANE":"１００巷","ALLEY":"２６弄","HOUSE_NO":"１號","E_COORD97":174062.39999999999,"N_COORD97":2547127.8900000001,"ADDRESS":"永中街１００巷２６弄１號","OBJECTID":24826},"geometry":{"x":174062.40000000037,"y":2547127.8900000043}},{"attributes":{"ID":24827,"DIS_CODE":0,"TOWNNAME":"官田區","LI":"大崎里","LIN":"8鄰","STREET":" ","SECT":" ","MAREA":"大崎","LANE":" ","ALLEY":" ","HOUSE_NO":"６６號之２４","E_COORD97":185841.13,"N_COORD97":2565285.2599999998,"ADDRESS":"大崎６６號之２４","OBJECTID":24827},"geometry":{"x":185841.13000000082,"y":2565285.2599999998}},{"attributes":{"ID":24828,"DIS_CODE":0,"TOWNNAME":"官田區","LI":"大崎里","LIN":"8鄰","STREET":" ","SECT":" ","MAREA":"大崎","LANE":" ","ALLEY":" ","HOUSE_NO":"６６號之２５","E_COORD97":185831.63,"N_COORD97":2565307.0099999998,"ADDRESS":"大崎６６號之２５","OBJECTID":24828},"geometry":{"x":185831.62999999989,"y":2565307.0100000016}},{"attributes":{"ID":24829,"DIS_CODE":0,"TOWNNAME":"永康區","LI":"安康里","LIN":"14鄰","STREET":"中華路","SECT":" ","MAREA":" ","LANE":"６１９巷","ALLEY":"８８弄","HOUSE_NO":"４６號","E_COORD97":170914.35999999999,"N_COORD97":2546075.9900000002,"ADDRESS":"中華路６１９巷８８弄４６號","OBJECTID":24829},"geometry":{"x":170914.36000000034,"y":2546075.9900000039}},{"attributes":{"ID":24830,"DIS_CODE":0,"TOWNNAME":"永康區","LI":"永康里","LIN":"14鄰","STREET":"永中街","SECT":" ","MAREA":" ","LANE":"１００巷","ALLEY":"２６弄","HOUSE_NO":"１０號","E_COORD97":174021.42999999999,"N_COORD97":2547120.4900000002,"ADDRESS":"永中街１００巷２６弄１０號","OBJECTID":24830},"geometry":{"x":174021.43000000063,"y":2547120.4900000021}},{"attributes":{"ID":24831,"DIS_CODE":0,"TOWNNAME":"永康區","LI":"崑山里","LIN":"14鄰","STREET":"大灣路","SECT":" ","MAREA":" ","LANE":"９４２巷","ALLEY":"７１弄","HOUSE_NO":"１５７號","E_COORD97":173488.67000000001,"N_COORD97":2544572.6499999999,"ADDRESS":"大灣路９４２巷７１弄１５７號","OBJECTID":24831},"geometry":{"x":173488.66999999993,"y":2544572.6499999985}},{"attributes":{"ID":24832,"DIS_CODE":0,"TOWNNAME":"永康區","LI":"安康里","LIN":"14鄰","STREET":"中華路","SECT":" ","MAREA":" ","LANE":"６１９巷","ALLEY":"８８弄","HOUSE_NO":"２６號","E_COORD97":170885.91,"N_COORD97":2546071.7400000002,"ADDRESS":"中華路６１９巷８８弄２６號","OBJECTID":24832},"geometry":{"x":170885.91000000108,"y":2546071.7400000021}},{"attributes":{"ID":24833,"DIS_CODE":0,"TOWNNAME":"永康區","LI":"北灣里","LIN":"14鄰","STREET":"大灣路","SECT":" ","MAREA":" ","LANE":"４０巷","ALLEY":"７５弄","HOUSE_NO":"２號","E_COORD97":175118.95000000001,"N_COORD97":2546050.98,"ADDRESS":"大灣路４０巷７５弄２號","OBJECTID":24833},"geometry":{"x":175118.95000000112,"y":2546050.9800000004}},{"attributes":{"ID":24834,"DIS_CODE":0,"TOWNNAME":"永康區","LI":"埔園里","LIN":"14鄰","STREET":"龍埔街","SECT":" ","MAREA":" ","LANE":"４６７巷","ALLEY":"２５弄","HOUSE_NO":"１３號","E_COORD97":173613.51999999999,"N_COORD97":2548272.75,"ADDRESS":"龍埔街４６７巷２５弄１３號","OBJECTID":24834},"geometry":{"x":173613.52000000142,"y":2548272.75}},{"attributes":{"ID":24835,"DIS_CODE":0,"TOWNNAME":"永康區","LI":"永康里","LIN":"14鄰","STREET":"永中街","SECT":" ","MAREA":" ","LANE":"１００巷","ALLEY":"２６弄","HOUSE_NO":"２０號","E_COORD97":174018.56,"N_COORD97":2547079.8100000001,"ADDRESS":"永中街１００巷２６弄２０號","OBJECTID":24835},"geometry":{"x":174018.56000000145,"y":2547079.8100000005}},{"attributes":{"ID":24836,"DIS_CODE":0,"TOWNNAME":"永康區","LI":"復興里","LIN":"14鄰","STREET":"復興路","SECT":" ","MAREA":" ","LANE":"２９６巷","ALLEY":"１１弄","HOUSE_NO":"８號","E_COORD97":172343.22,"N_COORD97":2544388.4500000002,"ADDRESS":"復興路２９６巷１１弄８號","OBJECTID":24836},"geometry":{"x":172343.22000000067,"y":2544388.4499999993}},{"attributes":{"ID":24837,"DIS_CODE":0,"TOWNNAME":"永康區","LI":"安康里","LIN":"14鄰","STREET":"中華路","SECT":" ","MAREA":" ","LANE":"６１９巷","ALLEY":"８８弄","HOUSE_NO":"５２號","E_COORD97":170928.85999999999,"N_COORD97":2546072.9900000002,"ADDRESS":"中華路６１９巷８８弄５２號","OBJECTID":24837},"geometry":{"x":170928.86000000127,"y":2546072.9900000021}},{"attributes":{"ID":24838,"DIS_CODE":0,"TOWNNAME":"永康區","LI":"大灣里","LIN":"14鄰","STREET":"大灣路","SECT":" ","MAREA":" ","LANE":"２８８巷","ALLEY":"１３弄","HOUSE_NO":"２號","E_COORD97":174859.85000000001,"N_COORD97":2545250.9900000002,"ADDRESS":"大灣路２８８巷１３弄２號","OBJECTID":24838},"geometry":{"x":174859.85000000056,"y":2545250.9900000002}},{"attributes":{"ID":24839,"DIS_CODE":0,"TOWNNAME":"永康區","LI":"北灣里","LIN":"14鄰","STREET":"大灣路","SECT":" ","MAREA":" ","LANE":"４４巷","ALLEY":"２２弄","HOUSE_NO":"１６號","E_COORD97":175204.67999999999,"N_COORD97":2545917.0800000001,"ADDRESS":"大灣路４４巷２２弄１６號","OBJECTID":24839},"geometry":{"x":175204.68000000063,"y":2545917.0800000019}},{"attributes":{"ID":24840,"DIS_CODE":0,"TOWNNAME":"永康區","LI":"正強里","LIN":"14鄰","STREET":"正強街","SECT":" ","MAREA":" ","LANE":"１１１巷","ALLEY":"１５弄","HOUSE_NO":"１０號","E_COORD97":173246.78,"N_COORD97":2547379.1299999999,"ADDRESS":"正強街１１１巷１５弄１０號","OBJECTID":24840},"geometry":{"x":173246.78000000119,"y":2547379.1300000008}},{"attributes":{"ID":24841,"DIS_CODE":0,"TOWNNAME":"永康區","LI":"東橋里","LIN":"14鄰","STREET":"中山南路","SECT":" ","MAREA":" ","LANE":"３１９巷","ALLEY":"２１弄","HOUSE_NO":"６號","E_COORD97":171761.88,"N_COORD97":2546438.1099999999,"ADDRESS":"中山南路３１９巷２１弄６號","OBJECTID":24841},"geometry":{"x":171761.87999999989,"y":2546438.1100000013}},{"attributes":{"ID":24842,"DIS_CODE":0,"TOWNNAME":"永康區","LI":"埔園里","LIN":"14鄰","STREET":"龍埔街","SECT":" ","MAREA":" ","LANE":"４６７巷","ALLEY":"２５弄","HOUSE_NO":"１１號","E_COORD97":173609.01000000001,"N_COORD97":2548271.5,"ADDRESS":"龍埔街４６７巷２５弄１１號","OBJECTID":24842},"geometry":{"x":173609.01000000071,"y":2548271.5}},{"attributes":{"ID":24843,"DIS_CODE":0,"TOWNNAME":"永康區","LI":"烏竹里","LIN":"14鄰","STREET":"竹園二街","SECT":" ","MAREA":" ","LANE":"１６０巷","ALLEY":"２３弄","HOUSE_NO":"６號","E_COORD97":174609.38,"N_COORD97":2549224.6800000002,"ADDRESS":"竹園二街１６０巷２３弄６號","OBJECTID":24843},"geometry":{"x":174609.37999999989,"y":2549224.6800000016}},{"attributes":{"ID":24844,"DIS_CODE":0,"TOWNNAME":"永康區","LI":"烏竹里","LIN":"14鄰","STREET":"竹園二街","SECT":" ","MAREA":" ","LANE":"１６０巷","ALLEY":"２３弄","HOUSE_NO":"２號","E_COORD97":174604.56,"N_COORD97":2549220.9300000002,"ADDRESS":"竹園二街１６０巷２３弄２號","OBJECTID":24844},"geometry":{"x":174604.55999999959,"y":2549220.9299999997}},{"attributes":{"ID":24845,"DIS_CODE":0,"TOWNNAME":"永康區","LI":"烏竹里","LIN":"14鄰","STREET":"竹園二街","SECT":" ","MAREA":" ","LANE":"１６０巷","ALLEY":"２３弄","HOUSE_NO":"８號","E_COORD97":174612.17000000001,"N_COORD97":2549227.4300000002,"ADDRESS":"竹園二街１６０巷２３弄８號","OBJECTID":24845},"geometry":{"x":174612.17000000086,"y":2549227.4299999997}},{"attributes":{"ID":24846,"DIS_CODE":0,"TOWNNAME":"永康區","LI":"烏竹里","LIN":"14鄰","STREET":"竹園二街","SECT":" ","MAREA":" ","LANE":"１６０巷","ALLEY":"２３弄","HOUSE_NO":"１２號","E_COORD97":174619.47,"N_COORD97":2549232.9300000002,"ADDRESS":"竹園二街１６０巷２３弄１２號","OBJECTID":24846},"geometry":{"x":174619.4700000016,"y":2549232.9300000016}},{"attributes":{"ID":24847,"DIS_CODE":0,"TOWNNAME":"永康區","LI":"烏竹里","LIN":"14鄰","STREET":"竹園二街","SECT":" ","MAREA":" ","LANE":"１６０巷","ALLEY":"２３弄","HOUSE_NO":"４０號","E_COORD97":174652.47,"N_COORD97":2549261.6699999999,"ADDRESS":"竹園二街１６０巷２３弄４０號","OBJECTID":24847},"geometry":{"x":174652.46999999974,"y":2549261.6700000018}},{"attributes":{"ID":24848,"DIS_CODE":0,"TOWNNAME":"南區","LI":"明亮里","LIN":"14鄰","STREET":"金華路","SECT":"一段","MAREA":" ","LANE":"３５２巷","ALLEY":"１４１弄","HOUSE_NO":"２號","E_COORD97":167343.32000000001,"N_COORD97":2541001.1899999999,"ADDRESS":"金華路一段３５２巷１４１弄２號","OBJECTID":24848},"geometry":{"x":167343.3200000003,"y":2541001.1899999995}},{"attributes":{"ID":24849,"DIS_CODE":0,"TOWNNAME":"南區","LI":"明亮里","LIN":"14鄰","STREET":"金華路","SECT":"一段","MAREA":" ","LANE":"３５２巷","ALLEY":"１４１弄","HOUSE_NO":"３號","E_COORD97":167338.79999999999,"N_COORD97":2541010.0299999998,"ADDRESS":"金華路一段３５２巷１４１弄３號","OBJECTID":24849},"geometry":{"x":167338.80000000075,"y":2541010.0300000012}},{"attributes":{"ID":24850,"DIS_CODE":0,"TOWNNAME":"東區","LI":"德高里","LIN":"13鄰","STREET":"崇善路","SECT":" ","MAREA":" ","LANE":" ","ALLEY":" ","HOUSE_NO":"１０８１號","E_COORD97":171529.32999999999,"N_COORD97":2540534.4399999999,"ADDRESS":"崇善路１０８１號","OBJECTID":24850},"geometry":{"x":171529.33000000101,"y":2540534.4399999995}},{"attributes":{"ID":24851,"DIS_CODE":0,"TOWNNAME":"安南區","LI":"安慶里","LIN":"13鄰","STREET":"安和路","SECT":"二段","MAREA":" ","LANE":" ","ALLEY":" ","HOUSE_NO":"６１號之１","E_COORD97":169465.10000000001,"N_COORD97":2548672.5499999998,"ADDRESS":"安和路二段６１號之１","OBJECTID":24851},"geometry":{"x":169465.10000000149,"y":2548672.5500000007}},{"attributes":{"ID":24852,"DIS_CODE":0,"TOWNNAME":"官田區","LI":"大崎里","LIN":"8鄰","STREET":" ","SECT":" ","MAREA":"大崎","LANE":" ","ALLEY":" ","HOUSE_NO":"６６號之２６","E_COORD97":185829.01999999999,"N_COORD97":2565312.1699999999,"ADDRESS":"大崎６６號之２６","OBJECTID":24852},"geometry":{"x":185829.01999999862,"y":2565312.1700000018}},{"attributes":{"ID":24853,"DIS_CODE":0,"TOWNNAME":"官田區","LI":"大崎里","LIN":"8鄰","STREET":" ","SECT":" ","MAREA":"大崎","LANE":" ","ALLEY":" ","HOUSE_NO":"６６號之２７","E_COORD97":185828.70999999999,"N_COORD97":2565319.5,"ADDRESS":"大崎６６號之２７","OBJECTID":24853},"geometry":{"x":185828.71000000089,"y":2565319.5000000019}},{"attributes":{"ID":24854,"DIS_CODE":0,"TOWNNAME":"官田區","LI":"大崎里","LIN":"8鄰","STREET":" ","SECT":" ","MAREA":"大崎","LANE":" ","ALLEY":" ","HOUSE_NO":"６６號之４９","E_COORD97":185845.89000000001,"N_COORD97":2565359.2200000002,"ADDRESS":"大崎６６號之４９","OBJECTID":24854},"geometry":{"x":185845.8900000006,"y":2565359.2200000044}},{"attributes":{"ID":24855,"DIS_CODE":0,"TOWNNAME":"官田區","LI":"大崎里","LIN":"8鄰","STREET":" ","SECT":" ","MAREA":"大崎","LANE":" ","ALLEY":" ","HOUSE_NO":"６６號之５０","E_COORD97":185849.54999999999,"N_COORD97":2565353.2599999998,"ADDRESS":"大崎６６號之５０","OBJECTID":24855},"geometry":{"x":185849.55000000168,"y":2565353.2599999998}},{"attributes":{"ID":24856,"DIS_CODE":0,"TOWNNAME":"南區","LI":"明亮里","LIN":"14鄰","STREET":"金華路","SECT":"一段","MAREA":" ","LANE":"３５２巷","ALLEY":"１４１弄","HOUSE_NO":"４號","E_COORD97":167347.07000000001,"N_COORD97":2541004.1299999999,"ADDRESS":"金華路一段３５２巷１４１弄４號","OBJECTID":24856},"geometry":{"x":167347.07000000123,"y":2541004.129999999}},{"attributes":{"ID":24857,"DIS_CODE":0,"TOWNNAME":"官田區","LI":"大崎里","LIN":"8鄰","STREET":" ","SECT":" ","MAREA":"大崎","LANE":" ","ALLEY":" ","HOUSE_NO":"６６號之５１","E_COORD97":185848.69,"N_COORD97":2565345.1499999999,"ADDRESS":"大崎６６號之５１","OBJECTID":24857},"geometry":{"x":185848.69000000041,"y":2565345.1500000004}},{"attributes":{"ID":24858,"DIS_CODE":0,"TOWNNAME":"南區","LI":"明亮里","LIN":"14鄰","STREET":"金華路","SECT":"一段","MAREA":" ","LANE":"３５２巷","ALLEY":"１４１弄","HOUSE_NO":"５號","E_COORD97":167342.01999999999,"N_COORD97":2541012.04,"ADDRESS":"金華路一段３５２巷１４１弄５號","OBJECTID":24858},"geometry":{"x":167342.02000000048,"y":2541012.0399999991}},{"attributes":{"ID":24859,"DIS_CODE":0,"TOWNNAME":"南區","LI":"明亮里","LIN":"14鄰","STREET":"金華路","SECT":"一段","MAREA":" ","LANE":"３５２巷","ALLEY":"１４１弄","HOUSE_NO":"７號","E_COORD97":167344.82999999999,"N_COORD97":2541013.6400000001,"ADDRESS":"金華路一段３５２巷１４１弄７號","OBJECTID":24859},"geometry":{"x":167344.82999999914,"y":2541013.6400000025}},{"attributes":{"ID":24860,"DIS_CODE":0,"TOWNNAME":"南區","LI":"明亮里","LIN":"14鄰","STREET":"金華路","SECT":"一段","MAREA":" ","LANE":"３５２巷","ALLEY":"１４１弄","HOUSE_NO":"９號","E_COORD97":167348.85000000001,"N_COORD97":2541016.0499999998,"ADDRESS":"金華路一段３５２巷１４１弄９號","OBJECTID":24860},"geometry":{"x":167348.84999999963,"y":2541016.0500000007}},{"attributes":{"ID":24861,"DIS_CODE":0,"TOWNNAME":"南區","LI":"明亮里","LIN":"14鄰","STREET":"金華路","SECT":"一段","MAREA":" ","LANE":"３５２巷","ALLEY":"１４１弄","HOUSE_NO":"２３號","E_COORD97":167373.35999999999,"N_COORD97":2541028.8900000001,"ADDRESS":"金華路一段３５２巷１４１弄２３號","OBJECTID":24861},"geometry":{"x":167373.36000000034,"y":2541028.8900000025}},{"attributes":{"ID":24862,"DIS_CODE":0,"TOWNNAME":"南區","LI":"明亮里","LIN":"14鄰","STREET":"金華路","SECT":"一段","MAREA":" ","LANE":"３５２巷","ALLEY":"１４１弄","HOUSE_NO":"２５號","E_COORD97":167376.97,"N_COORD97":2541030.8900000001,"ADDRESS":"金華路一段３５２巷１４１弄２５號","OBJECTID":24862},"geometry":{"x":167376.96999999974,"y":2541030.8900000006}},{"attributes":{"ID":24863,"DIS_CODE":0,"TOWNNAME":"官田區","LI":"大崎里","LIN":"8鄰","STREET":" ","SECT":" ","MAREA":"大崎","LANE":" ","ALLEY":" ","HOUSE_NO":"６６號之５２","E_COORD97":185851.81,"N_COORD97":2565339.5299999998,"ADDRESS":"大崎６６號之５２","OBJECTID":24863},"geometry":{"x":185851.80999999959,"y":2565339.5300000012}},{"attributes":{"ID":24864,"DIS_CODE":0,"TOWNNAME":"南區","LI":"明亮里","LIN":"14鄰","STREET":"金華路","SECT":"一段","MAREA":" ","LANE":"３５２巷","ALLEY":"１４１弄","HOUSE_NO":"２７號","E_COORD97":167380.19,"N_COORD97":2541032.1000000001,"ADDRESS":"金華路一段３５２巷１４１弄２７號","OBJECTID":24864},"geometry":{"x":167380.19000000227,"y":2541032.0999999996}},{"attributes":{"ID":24865,"DIS_CODE":0,"TOWNNAME":"南區","LI":"明亮里","LIN":"14鄰","STREET":"金華路","SECT":"一段","MAREA":" ","LANE":"３５２巷","ALLEY":"１４１弄","HOUSE_NO":"２９號","E_COORD97":167384.20999999999,"N_COORD97":2541033.7000000002,"ADDRESS":"金華路一段３５２巷１４１弄２９號","OBJECTID":24865},"geometry":{"x":167384.20999999996,"y":2541033.6999999993}},{"attributes":{"ID":24866,"DIS_CODE":0,"TOWNNAME":"南區","LI":"明亮里","LIN":"14鄰","STREET":"金華路","SECT":"一段","MAREA":" ","LANE":"３５２巷","ALLEY":"１４１弄","HOUSE_NO":"３１號","E_COORD97":167387.42000000001,"N_COORD97":2541036.5099999998,"ADDRESS":"金華路一段３５２巷１４１弄３１號","OBJECTID":24866},"geometry":{"x":167387.41999999993,"y":2541036.5099999998}},{"attributes":{"ID":24867,"DIS_CODE":0,"TOWNNAME":"南區","LI":"明亮里","LIN":"14鄰","STREET":"金華路","SECT":"一段","MAREA":" ","LANE":"３５２巷","ALLEY":"１４１弄","HOUSE_NO":"３３號","E_COORD97":167390.23000000001,"N_COORD97":2541038.1200000001,"ADDRESS":"金華路一段３５２巷１４１弄３３號","OBJECTID":24867},"geometry":{"x":167390.23000000138,"y":2541038.1200000029}},{"attributes":{"ID":24868,"DIS_CODE":0,"TOWNNAME":"北門區","LI":"永隆里","LIN":"8鄰","STREET":" ","SECT":" ","MAREA":"北門","LANE":" ","ALLEY":" ","HOUSE_NO":"１１０號","E_COORD97":160135.23000000001,"N_COORD97":2574495.7200000002,"ADDRESS":"北門１１０號","OBJECTID":24868},"geometry":{"x":160135.23000000138,"y":2574495.7200000007}},{"attributes":{"ID":24869,"DIS_CODE":0,"TOWNNAME":"南區","LI":"明亮里","LIN":"14鄰","STREET":"金華路","SECT":"一段","MAREA":" ","LANE":"３５２巷","ALLEY":"１４１弄","HOUSE_NO":"３５號","E_COORD97":167394.25,"N_COORD97":2541040.1200000001,"ADDRESS":"金華路一段３５２巷１４１弄３５號","OBJECTID":24869},"geometry":{"x":167394.25,"y":2541040.120000001}},{"attributes":{"ID":24870,"DIS_CODE":0,"TOWNNAME":"官田區","LI":"大崎里","LIN":"8鄰","STREET":" ","SECT":" ","MAREA":"大崎","LANE":" ","ALLEY":" ","HOUSE_NO":"６６號之５３","E_COORD97":185854.35999999999,"N_COORD97":2565332.7599999998,"ADDRESS":"大崎６６號之５３","OBJECTID":24870},"geometry":{"x":185854.36000000034,"y":2565332.7599999998}},{"attributes":{"ID":24871,"DIS_CODE":0,"TOWNNAME":"官田區","LI":"大崎里","LIN":"8鄰","STREET":" ","SECT":" ","MAREA":"大崎","LANE":" ","ALLEY":" ","HOUSE_NO":"６６號之５４","E_COORD97":185853.70000000001,"N_COORD97":2565325.8700000001,"ADDRESS":"大崎６６號之５４","OBJECTID":24871},"geometry":{"x":185853.70000000019,"y":2565325.8700000029}},{"attributes":{"ID":24872,"DIS_CODE":0,"TOWNNAME":"南區","LI":"明亮里","LIN":"14鄰","STREET":"金華路","SECT":"一段","MAREA":" ","LANE":"３５２巷","ALLEY":"１４１弄","HOUSE_NO":"３７號","E_COORD97":167397.47,"N_COORD97":2541042.9300000002,"ADDRESS":"金華路一段３５２巷１４１弄３７號","OBJECTID":24872},"geometry":{"x":167397.46999999974,"y":2541042.9299999997}},{"attributes":{"ID":24873,"DIS_CODE":0,"TOWNNAME":"南區","LI":"明亮里","LIN":"14鄰","STREET":"金華路","SECT":"一段","MAREA":" ","LANE":"３５２巷","ALLEY":"１４１弄","HOUSE_NO":"３９號","E_COORD97":167400.67999999999,"N_COORD97":2541044.54,"ADDRESS":"金華路一段３５２巷１４１弄３９號","OBJECTID":24873},"geometry":{"x":167400.6799999997,"y":2541044.540000001}},{"attributes":{"ID":24874,"DIS_CODE":0,"TOWNNAME":"東區","LI":"富強里","LIN":"14鄰","STREET":"裕農路","SECT":" ","MAREA":" ","LANE":"２８８巷","ALLEY":"１６３弄","HOUSE_NO":"３號","E_COORD97":171096.29999999999,"N_COORD97":2542876.7599999998,"ADDRESS":"裕農路２８８巷１６３弄３號","OBJECTID":24874},"geometry":{"x":171096.30000000168,"y":2542876.7600000016}},{"attributes":{"ID":24875,"DIS_CODE":0,"TOWNNAME":"東區","LI":"富強里","LIN":"14鄰","STREET":"裕農路","SECT":" ","MAREA":" ","LANE":"２８８巷","ALLEY":"１６３弄","HOUSE_NO":"６號","E_COORD97":171097.10000000001,"N_COORD97":2542857.5699999998,"ADDRESS":"裕農路２８８巷１６３弄６號","OBJECTID":24875},"geometry":{"x":171097.09999999963,"y":2542857.5699999984}},{"attributes":{"ID":24876,"DIS_CODE":0,"TOWNNAME":"東區","LI":"富強里","LIN":"14鄰","STREET":"裕農路","SECT":" ","MAREA":" ","LANE":"２８８巷","ALLEY":"１６３弄","HOUSE_NO":"７號","E_COORD97":171104.79000000001,"N_COORD97":2542875.48,"ADDRESS":"裕農路２８８巷１６３弄７號","OBJECTID":24876},"geometry":{"x":171104.79000000004,"y":2542875.4800000042}},{"attributes":{"ID":24877,"DIS_CODE":0,"TOWNNAME":"永康區","LI":"復華里","LIN":"34鄰","STREET":"復國一路","SECT":" ","MAREA":" ","LANE":"４７５巷","ALLEY":" ","HOUSE_NO":"１６號","E_COORD97":172564.16,"N_COORD97":2546107.1800000002,"ADDRESS":"復國一路４７５巷１６號","OBJECTID":24877},"geometry":{"x":172564.16000000108,"y":2546107.1799999997}},{"attributes":{"ID":24878,"DIS_CODE":0,"TOWNNAME":"仁德區","LI":"太子里","LIN":"34鄰","STREET":"太子二街","SECT":" ","MAREA":" ","LANE":" ","ALLEY":" ","HOUSE_NO":"８號","E_COORD97":174268.32000000001,"N_COORD97":2543458.25,"ADDRESS":"太子二街８號","OBJECTID":24878},"geometry":{"x":174268.32000000216,"y":2543458.25}},{"attributes":{"ID":24879,"DIS_CODE":0,"TOWNNAME":"仁德區","LI":"仁德里","LIN":"34鄰","STREET":"中山路","SECT":" ","MAREA":" ","LANE":" ","ALLEY":" ","HOUSE_NO":"７２８號","E_COORD97":172744.82000000001,"N_COORD97":2541514.7400000002,"ADDRESS":"中山路７２８號","OBJECTID":24879},"geometry":{"x":172744.82000000123,"y":2541514.7400000021}},{"attributes":{"ID":24880,"DIS_CODE":0,"TOWNNAME":"仁德區","LI":"仁德里","LIN":"34鄰","STREET":"中山路","SECT":" ","MAREA":" ","LANE":" ","ALLEY":" ","HOUSE_NO":"７３０號","E_COORD97":172740.60000000001,"N_COORD97":2541516.4900000002,"ADDRESS":"中山路７３０號","OBJECTID":24880},"geometry":{"x":172740.60000000056,"y":2541516.4900000021}},{"attributes":{"ID":24881,"DIS_CODE":0,"TOWNNAME":"仁德區","LI":"太子里","LIN":"34鄰","STREET":"太子二街","SECT":" ","MAREA":" ","LANE":" ","ALLEY":" ","HOUSE_NO":"１２號","E_COORD97":174280.81,"N_COORD97":2543431.2599999998,"ADDRESS":"太子二街１２號","OBJECTID":24881},"geometry":{"x":174280.80999999959,"y":2543431.2599999998}},{"attributes":{"ID":24882,"DIS_CODE":0,"TOWNNAME":"仁德區","LI":"仁德里","LIN":"34鄰","STREET":"中山路","SECT":" ","MAREA":" ","LANE":" ","ALLEY":" ","HOUSE_NO":"７２４號","E_COORD97":172752.73999999999,"N_COORD97":2541511.9900000002,"ADDRESS":"中山路７２４號","OBJECTID":24882},"geometry":{"x":172752.74000000022,"y":2541511.9900000002}},{"attributes":{"ID":24883,"DIS_CODE":0,"TOWNNAME":"安平區","LI":"建平里","LIN":"8鄰","STREET":"府前四街","SECT":" ","MAREA":" ","LANE":" ","ALLEY":" ","HOUSE_NO":"１２號","E_COORD97":166440.64000000001,"N_COORD97":2543795.0299999998,"ADDRESS":"府前四街１２號","OBJECTID":24883},"geometry":{"x":166440.64000000153,"y":2543795.0299999993}},{"attributes":{"ID":24884,"DIS_CODE":0,"TOWNNAME":"安平區","LI":"文平里","LIN":"8鄰","STREET":"建平路","SECT":" ","MAREA":" ","LANE":" ","ALLEY":" ","HOUSE_NO":"２５０號","E_COORD97":166179.52537399999,"N_COORD97":2543223.7444600002,"ADDRESS":"建平路２５０號","OBJECTID":24884},"geometry":{"x":166179.52537400182,"y":2543223.7444600016}},{"attributes":{"ID":24885,"DIS_CODE":0,"TOWNNAME":"安平區","LI":"億載里","LIN":"8鄰","STREET":"永華路","SECT":"二段","MAREA":" ","LANE":" ","ALLEY":" ","HOUSE_NO":"１１６９號","E_COORD97":164173.76999999999,"N_COORD97":2543596.2400000002,"ADDRESS":"永華路二段１１６９號","OBJECTID":24885},"geometry":{"x":164173.77000000048,"y":2543596.2400000021}},{"attributes":{"ID":24886,"DIS_CODE":0,"TOWNNAME":"安平區","LI":"億載里","LIN":"8鄰","STREET":"永華路","SECT":"二段","MAREA":" ","LANE":" ","ALLEY":" ","HOUSE_NO":"１１７１號","E_COORD97":164149.79000000001,"N_COORD97":2543597.6499999999,"ADDRESS":"永華路二段１１７１號","OBJECTID":24886},"geometry":{"x":164149.7900000019,"y":2543597.6500000022}},{"attributes":{"ID":24887,"DIS_CODE":0,"TOWNNAME":"安平區","LI":"建平里","LIN":"8鄰","STREET":"府前路","SECT":"二段","MAREA":" ","LANE":" ","ALLEY":" ","HOUSE_NO":"５７０號","E_COORD97":166450.14000000001,"N_COORD97":2543765.6600000001,"ADDRESS":"府前路二段５７０號","OBJECTID":24887},"geometry":{"x":166450.13999999966,"y":2543765.6600000039}},{"attributes":{"ID":24888,"DIS_CODE":0,"TOWNNAME":"官田區","LI":"大崎里","LIN":"8鄰","STREET":" ","SECT":" ","MAREA":"大崎","LANE":" ","ALLEY":" ","HOUSE_NO":"６６號之５５","E_COORD97":185855.39000000001,"N_COORD97":2565319.0899999999,"ADDRESS":"大崎６６號之５５","OBJECTID":24888},"geometry":{"x":185855.38999999966,"y":2565319.0900000017}},{"attributes":{"ID":24889,"DIS_CODE":0,"TOWNNAME":"官田區","LI":"大崎里","LIN":"8鄰","STREET":" ","SECT":" ","MAREA":"大崎","LANE":" ","ALLEY":" ","HOUSE_NO":"６６號之６６","E_COORD97":185921.53,"N_COORD97":2565242.5499999998,"ADDRESS":"大崎６６號之６６","OBJECTID":24889},"geometry":{"x":185921.53000000119,"y":2565242.5500000026}},{"attributes":{"ID":24890,"DIS_CODE":0,"TOWNNAME":"官田區","LI":"大崎里","LIN":"8鄰","STREET":" ","SECT":" ","MAREA":"大崎","LANE":" ","ALLEY":" ","HOUSE_NO":"６６號之６７","E_COORD97":185924.57999999999,"N_COORD97":2565237.2400000002,"ADDRESS":"大崎６６號之６７","OBJECTID":24890},"geometry":{"x":185924.58000000101,"y":2565237.2400000021}},{"attributes":{"ID":24891,"DIS_CODE":0,"TOWNNAME":"官田區","LI":"大崎里","LIN":"8鄰","STREET":" ","SECT":" ","MAREA":"大崎","LANE":" ","ALLEY":" ","HOUSE_NO":"６６號之７０","E_COORD97":185930.04000000001,"N_COORD97":2565219.0699999998,"ADDRESS":"大崎６６號之７０","OBJECTID":24891},"geometry":{"x":185930.04000000097,"y":2565219.0700000003}},{"attributes":{"ID":24892,"DIS_CODE":0,"TOWNNAME":"官田區","LI":"大崎里","LIN":"8鄰","STREET":" ","SECT":" ","MAREA":"大崎","LANE":" ","ALLEY":" ","HOUSE_NO":"６６號之７１","E_COORD97":185932.66,"N_COORD97":2565212.77,"ADDRESS":"大崎６６號之７１","OBJECTID":24892},"geometry":{"x":185932.66000000108,"y":2565212.7700000014}},{"attributes":{"ID":24893,"DIS_CODE":0,"TOWNNAME":"官田區","LI":"大崎里","LIN":"8鄰","STREET":" ","SECT":" ","MAREA":"大崎","LANE":" ","ALLEY":" ","HOUSE_NO":"６６號之７２","E_COORD97":185934.56,"N_COORD97":2565206.6200000001,"ADDRESS":"大崎６６號之７２","OBJECTID":24893},"geometry":{"x":185934.56000000052,"y":2565206.620000001}},{"attributes":{"ID":24894,"DIS_CODE":0,"TOWNNAME":"白河區","LI":"甘宅里","LIN":"8鄰","STREET":" ","SECT":" ","MAREA":"甘宅","LANE":" ","ALLEY":" ","HOUSE_NO":"８４號","E_COORD97":192408.70000000001,"N_COORD97":2586991.1400000001,"ADDRESS":"甘宅８４號","OBJECTID":24894},"geometry":{"x":192408.70000000019,"y":2586991.1400000025}},{"attributes":{"ID":24895,"DIS_CODE":0,"TOWNNAME":"白河區","LI":"甘宅里","LIN":"8鄰","STREET":" ","SECT":" ","MAREA":"甘宅","LANE":" ","ALLEY":" ","HOUSE_NO":"８５之１號","E_COORD97":192391.92999999999,"N_COORD97":2587017.8900000001,"ADDRESS":"甘宅８５之１號","OBJECTID":24895},"geometry":{"x":192391.93000000156,"y":2587017.8900000006}},{"attributes":{"ID":24896,"DIS_CODE":0,"TOWNNAME":"白河區","LI":"甘宅里","LIN":"8鄰","STREET":" ","SECT":" ","MAREA":"甘宅","LANE":" ","ALLEY":" ","HOUSE_NO":"８５號","E_COORD97":192400.72,"N_COORD97":2587005.4500000002,"ADDRESS":"甘宅８５號","OBJECTID":24896},"geometry":{"x":192400.72000000067,"y":2587005.4499999993}},{"attributes":{"ID":24897,"DIS_CODE":0,"TOWNNAME":"白河區","LI":"甘宅里","LIN":"8鄰","STREET":" ","SECT":" ","MAREA":"甘宅","LANE":" ","ALLEY":" ","HOUSE_NO":"８７之１號","E_COORD97":192323.17999999999,"N_COORD97":2586992.1200000001,"ADDRESS":"甘宅８７之１號","OBJECTID":24897},"geometry":{"x":192323.18000000063,"y":2586992.1200000029}},{"attributes":{"ID":24898,"DIS_CODE":0,"TOWNNAME":"白河區","LI":"甘宅里","LIN":"8鄰","STREET":" ","SECT":" ","MAREA":"甘宅","LANE":" ","ALLEY":" ","HOUSE_NO":"８７之２號","E_COORD97":192329.22,"N_COORD97":2587018.9900000002,"ADDRESS":"甘宅８７之２號","OBJECTID":24898},"geometry":{"x":192329.22000000067,"y":2587018.9900000021}},{"attributes":{"ID":24899,"DIS_CODE":0,"TOWNNAME":"白河區","LI":"甘宅里","LIN":"8鄰","STREET":" ","SECT":" ","MAREA":"甘宅","LANE":" ","ALLEY":" ","HOUSE_NO":"８７號","E_COORD97":192299.98000000001,"N_COORD97":2587064.8399999999,"ADDRESS":"甘宅８７號","OBJECTID":24899},"geometry":{"x":192299.98000000138,"y":2587064.8399999999}},{"attributes":{"ID":24900,"DIS_CODE":0,"TOWNNAME":"白河區","LI":"甘宅里","LIN":"8鄰","STREET":" ","SECT":" ","MAREA":"甘宅","LANE":" ","ALLEY":" ","HOUSE_NO":"８８號","E_COORD97":192303.39999999999,"N_COORD97":2587080.0699999998,"ADDRESS":"甘宅８８號","OBJECTID":24900},"geometry":{"x":192303.4000000013,"y":2587080.0700000022}},{"attributes":{"ID":24901,"DIS_CODE":0,"TOWNNAME":"白河區","LI":"甘宅里","LIN":"8鄰","STREET":" ","SECT":" ","MAREA":"甘宅","LANE":" ","ALLEY":" ","HOUSE_NO":"９１號","E_COORD97":192218.95999999999,"N_COORD97":2586905.5699999998,"ADDRESS":"甘宅９１號","OBJECTID":24901},"geometry":{"x":192218.95999999996,"y":2586905.570000004}},{"attributes":{"ID":24902,"DIS_CODE":0,"TOWNNAME":"白河區","LI":"甘宅里","LIN":"8鄰","STREET":" ","SECT":" ","MAREA":"甘宅","LANE":" ","ALLEY":" ","HOUSE_NO":"９２號","E_COORD97":192213.48000000001,"N_COORD97":2586929,"ADDRESS":"甘宅９２號","OBJECTID":24902},"geometry":{"x":192213.48000000138,"y":2586929}},{"attributes":{"ID":24903,"DIS_CODE":0,"TOWNNAME":"善化區","LI":"溪美里","LIN":"8鄰","STREET":" ","SECT":" ","MAREA":"溪尾","LANE":" ","ALLEY":" ","HOUSE_NO":"７５之１號","E_COORD97":176644.01000000001,"N_COORD97":2561314.77,"ADDRESS":"溪尾７５之１號","OBJECTID":24903},"geometry":{"x":176644.01000000071,"y":2561314.7699999996}},{"attributes":{"ID":24904,"DIS_CODE":0,"TOWNNAME":"善化區","LI":"小新里","LIN":"8鄰","STREET":" ","SECT":" ","MAREA":"小新營","LANE":" ","ALLEY":" ","HOUSE_NO":"６０之１８號","E_COORD97":179556.98000000001,"N_COORD97":2558412.7799999998,"ADDRESS":"小新營６０之１８號","OBJECTID":24904},"geometry":{"x":179556.98000000138,"y":2558412.7799999993}},{"attributes":{"ID":24905,"DIS_CODE":0,"TOWNNAME":"善化區","LI":"小新里","LIN":"8鄰","STREET":" ","SECT":" ","MAREA":"小新營","LANE":" ","ALLEY":" ","HOUSE_NO":"６０之１９號","E_COORD97":179553.04999999999,"N_COORD97":2558384.7400000002,"ADDRESS":"小新營６０之１９號","OBJECTID":24905},"geometry":{"x":179553.04999999981,"y":2558384.7400000039}},{"attributes":{"ID":24906,"DIS_CODE":0,"TOWNNAME":"善化區","LI":"小新里","LIN":"8鄰","STREET":" ","SECT":" ","MAREA":"小新營","LANE":" ","ALLEY":" ","HOUSE_NO":"６０之２０號","E_COORD97":179551.25,"N_COORD97":2558412.7000000002,"ADDRESS":"小新營６０之２０號","OBJECTID":24906},"geometry":{"x":179551.25000000093,"y":2558412.6999999993}},{"attributes":{"ID":24907,"DIS_CODE":0,"TOWNNAME":"善化區","LI":"小新里","LIN":"8鄰","STREET":" ","SECT":" ","MAREA":"小新營","LANE":" ","ALLEY":" ","HOUSE_NO":"６０之２１號","E_COORD97":179546.34,"N_COORD97":2558379.8300000001,"ADDRESS":"小新營６０之２１號","OBJECTID":24907},"geometry":{"x":179546.33999999985,"y":2558379.8300000001}},{"attributes":{"ID":24908,"DIS_CODE":0,"TOWNNAME":"善化區","LI":"小新里","LIN":"8鄰","STREET":" ","SECT":" ","MAREA":"小新營","LANE":" ","ALLEY":" ","HOUSE_NO":"６０之２２號","E_COORD97":179545,"N_COORD97":2558414.1800000002,"ADDRESS":"小新營６０之２２號","OBJECTID":24908},"geometry":{"x":179545,"y":2558414.1799999997}},{"attributes":{"ID":24909,"DIS_CODE":0,"TOWNNAME":"後壁區","LI":"仕安里","LIN":"8鄰","STREET":" ","SECT":" ","MAREA":"下長","LANE":" ","ALLEY":" ","HOUSE_NO":"６６號之２","E_COORD97":180720.39999999999,"N_COORD97":2583616.0699999998,"ADDRESS":"下長６６號之２","OBJECTID":24909},"geometry":{"x":180720.4000000013,"y":2583616.0700000003}},{"attributes":{"ID":24910,"DIS_CODE":0,"TOWNNAME":"後壁區","LI":"仕安里","LIN":"8鄰","STREET":" ","SECT":" ","MAREA":"下長","LANE":" ","ALLEY":" ","HOUSE_NO":"６６號之３","E_COORD97":180743.12,"N_COORD97":2583618.23,"ADDRESS":"下長６６號之３","OBJECTID":24910},"geometry":{"x":180743.12000000011,"y":2583618.2300000004}},{"attributes":{"ID":24911,"DIS_CODE":0,"TOWNNAME":"後壁區","LI":"仕安里","LIN":"8鄰","STREET":" ","SECT":" ","MAREA":"下長","LANE":" ","ALLEY":" ","HOUSE_NO":"６６號之６","E_COORD97":180890.51999999999,"N_COORD97":2583561.5,"ADDRESS":"下長６６號之６","OBJECTID":24911},"geometry":{"x":180890.51999999955,"y":2583561.5}},{"attributes":{"ID":24912,"DIS_CODE":0,"TOWNNAME":"後壁區","LI":"仕安里","LIN":"8鄰","STREET":" ","SECT":" ","MAREA":"下長","LANE":" ","ALLEY":" ","HOUSE_NO":"６６號之７","E_COORD97":180903.56,"N_COORD97":2583681.8900000001,"ADDRESS":"下長６６號之７","OBJECTID":24912},"geometry":{"x":180903.55999999959,"y":2583681.8900000006}},{"attributes":{"ID":24913,"DIS_CODE":0,"TOWNNAME":"後壁區","LI":"仕安里","LIN":"8鄰","STREET":" ","SECT":" ","MAREA":"下長","LANE":" ","ALLEY":" ","HOUSE_NO":"６６號之８","E_COORD97":180892.79999999999,"N_COORD97":2583586.4199999999,"ADDRESS":"下長６６號之８","OBJECTID":24913},"geometry":{"x":180892.80000000168,"y":2583586.4199999999}},{"attributes":{"ID":24914,"DIS_CODE":0,"TOWNNAME":"後壁區","LI":"仕安里","LIN":"8鄰","STREET":" ","SECT":" ","MAREA":"下長","LANE":" ","ALLEY":" ","HOUSE_NO":"６６號","E_COORD97":180688.42000000001,"N_COORD97":2583616.73,"ADDRESS":"下長６６號","OBJECTID":24914},"geometry":{"x":180688.41999999993,"y":2583616.7300000023}},{"attributes":{"ID":24915,"DIS_CODE":0,"TOWNNAME":"後壁區","LI":"仕安里","LIN":"8鄰","STREET":" ","SECT":" ","MAREA":"下長","LANE":" ","ALLEY":" ","HOUSE_NO":"６７號之１","E_COORD97":180756.44,"N_COORD97":2583589.98,"ADDRESS":"下長６７號之１","OBJECTID":24915},"geometry":{"x":180756.44000000041,"y":2583589.9800000004}},{"attributes":{"ID":24916,"DIS_CODE":0,"TOWNNAME":"後壁區","LI":"仕安里","LIN":"8鄰","STREET":" ","SECT":" ","MAREA":"下長","LANE":" ","ALLEY":" ","HOUSE_NO":"６７號之２","E_COORD97":180788.48999999999,"N_COORD97":2583591.4900000002,"ADDRESS":"下長６７號之２","OBJECTID":24916},"geometry":{"x":180788.49000000209,"y":2583591.4900000021}},{"attributes":{"ID":24917,"DIS_CODE":0,"TOWNNAME":"東區","LI":"富強里","LIN":"14鄰","STREET":"裕農路","SECT":" ","MAREA":" ","LANE":"２８８巷","ALLEY":"１６３弄","HOUSE_NO":"８號","E_COORD97":171102.07000000001,"N_COORD97":2542856.77,"ADDRESS":"裕農路２８８巷１６３弄８號","OBJECTID":24917},"geometry":{"x":171102.07000000123,"y":2542856.7700000014}},{"attributes":{"ID":24918,"DIS_CODE":0,"TOWNNAME":"東區","LI":"富強里","LIN":"14鄰","STREET":"裕農路","SECT":" ","MAREA":" ","LANE":"２８８巷","ALLEY":"１６３弄","HOUSE_NO":"９號","E_COORD97":171109.10999999999,"N_COORD97":2542876.7599999998,"ADDRESS":"裕農路２８８巷１６３弄９號","OBJECTID":24918},"geometry":{"x":171109.11000000127,"y":2542876.7600000016}},{"attributes":{"ID":24919,"DIS_CODE":0,"TOWNNAME":"仁德區","LI":"仁義里","LIN":"34鄰","STREET":"正義二街","SECT":" ","MAREA":" ","LANE":" ","ALLEY":" ","HOUSE_NO":"３５號","E_COORD97":173486.34,"N_COORD97":2541568.27,"ADDRESS":"正義二街３５號","OBJECTID":24919},"geometry":{"x":173486.34000000171,"y":2541568.2700000014}},{"attributes":{"ID":24920,"DIS_CODE":0,"TOWNNAME":"仁德區","LI":"仁義里","LIN":"34鄰","STREET":"正義二街","SECT":" ","MAREA":" ","LANE":" ","ALLEY":" ","HOUSE_NO":"８５號","E_COORD97":173621.53,"N_COORD97":2541582.52,"ADDRESS":"正義二街８５號","OBJECTID":24920},"geometry":{"x":173621.53000000119,"y":2541582.5200000033}},{"attributes":{"ID":24921,"DIS_CODE":0,"TOWNNAME":"後壁區","LI":"仕安里","LIN":"8鄰","STREET":" ","SECT":" ","MAREA":"下長","LANE":" ","ALLEY":" ","HOUSE_NO":"６７號之３","E_COORD97":180813.91,"N_COORD97":2583586.5699999998,"ADDRESS":"下長６７號之３","OBJECTID":24921},"geometry":{"x":180813.91000000015,"y":2583586.570000004}},{"attributes":{"ID":24922,"DIS_CODE":0,"TOWNNAME":"東區","LI":"富強里","LIN":"14鄰","STREET":"裕農路","SECT":" ","MAREA":" ","LANE":"２８８巷","ALLEY":"１６３弄","HOUSE_NO":"１０號","E_COORD97":171105.91,"N_COORD97":2542858.21,"ADDRESS":"裕農路２８８巷１６３弄１０號","OBJECTID":24922},"geometry":{"x":171105.91000000015,"y":2542858.2100000028}},{"attributes":{"ID":24923,"DIS_CODE":0,"TOWNNAME":"後壁區","LI":"仕安里","LIN":"8鄰","STREET":" ","SECT":" ","MAREA":"下長","LANE":" ","ALLEY":" ","HOUSE_NO":"６７號１","E_COORD97":180730.39000000001,"N_COORD97":2583588.73,"ADDRESS":"下長６７號１","OBJECTID":24923},"geometry":{"x":180730.38999999966,"y":2583588.7299999986}},{"attributes":{"ID":24924,"DIS_CODE":0,"TOWNNAME":"後壁區","LI":"仕安里","LIN":"8鄰","STREET":" ","SECT":" ","MAREA":"下長","LANE":" ","ALLEY":" ","HOUSE_NO":"６８號","E_COORD97":180706.22,"N_COORD97":2583557.2000000002,"ADDRESS":"下長６８號","OBJECTID":24924},"geometry":{"x":180706.21999999974,"y":2583557.200000003}},{"attributes":{"ID":24925,"DIS_CODE":0,"TOWNNAME":"東區","LI":"富強里","LIN":"14鄰","STREET":"裕農路","SECT":" ","MAREA":" ","LANE":"２８８巷","ALLEY":"１６３弄","HOUSE_NO":"１２號","E_COORD97":171110.54999999999,"N_COORD97":2542856.77,"ADDRESS":"裕農路２８８巷１６３弄１２號","OBJECTID":24925},"geometry":{"x":171110.55000000075,"y":2542856.7700000014}},{"attributes":{"ID":24926,"DIS_CODE":0,"TOWNNAME":"後壁區","LI":"仕安里","LIN":"8鄰","STREET":" ","SECT":" ","MAREA":"下長","LANE":" ","ALLEY":" ","HOUSE_NO":"６９號","E_COORD97":180677.95000000001,"N_COORD97":2583593.0899999999,"ADDRESS":"下長６９號","OBJECTID":24926},"geometry":{"x":180677.95000000019,"y":2583593.0900000017}},{"attributes":{"ID":24927,"DIS_CODE":0,"TOWNNAME":"後壁區","LI":"仕安里","LIN":"8鄰","STREET":" ","SECT":" ","MAREA":"下長","LANE":" ","ALLEY":" ","HOUSE_NO":"７０號之１","E_COORD97":180671.44,"N_COORD97":2583584.0899999999,"ADDRESS":"下長７０號之１","OBJECTID":24927},"geometry":{"x":180671.44000000041,"y":2583584.0900000017}},{"attributes":{"ID":24928,"DIS_CODE":0,"TOWNNAME":"後壁區","LI":"仕安里","LIN":"8鄰","STREET":" ","SECT":" ","MAREA":"下長","LANE":" ","ALLEY":" ","HOUSE_NO":"７０號","E_COORD97":180698.62,"N_COORD97":2583515.6600000001,"ADDRESS":"下長７０號","OBJECTID":24928},"geometry":{"x":180698.62000000011,"y":2583515.660000002}},{"attributes":{"ID":24929,"DIS_CODE":0,"TOWNNAME":"新市區","LI":"三舍里","LIN":"8鄰","STREET":" ","SECT":" ","MAREA":"三舍","LANE":" ","ALLEY":" ","HOUSE_NO":"１８３之１５號","E_COORD97":177331.56,"N_COORD97":2554844.5499999998,"ADDRESS":"三舍１８３之１５號","OBJECTID":24929},"geometry":{"x":177331.56000000052,"y":2554844.5500000026}},{"attributes":{"ID":24930,"DIS_CODE":0,"TOWNNAME":"新市區","LI":"社內里","LIN":"8鄰","STREET":" ","SECT":" ","MAREA":"社內","LANE":" ","ALLEY":" ","HOUSE_NO":"８２號之３","E_COORD97":176507.72,"N_COORD97":2553008.5499999998,"ADDRESS":"社內８２號之３","OBJECTID":24930},"geometry":{"x":176507.71999999881,"y":2553008.5500000007}},{"attributes":{"ID":24931,"DIS_CODE":0,"TOWNNAME":"東區","LI":"富強里","LIN":"14鄰","STREET":"裕農路","SECT":" ","MAREA":" ","LANE":"２８８巷","ALLEY":"１４７弄","HOUSE_NO":"１號","E_COORD97":171090.60000000001,"N_COORD97":2542909.8399999999,"ADDRESS":"裕農路２８８巷１４７弄１號","OBJECTID":24931},"geometry":{"x":171090.60000000149,"y":2542909.8400000036}},{"attributes":{"ID":24932,"DIS_CODE":0,"TOWNNAME":"東區","LI":"富強里","LIN":"14鄰","STREET":"裕農路","SECT":" ","MAREA":" ","LANE":"２８８巷","ALLEY":"１４７弄","HOUSE_NO":"２號","E_COORD97":171090.95000000001,"N_COORD97":2542890.0499999998,"ADDRESS":"裕農路２８８巷１４７弄２號","OBJECTID":24932},"geometry":{"x":171090.95000000112,"y":2542890.0500000026}},{"attributes":{"ID":24933,"DIS_CODE":0,"TOWNNAME":"北門區","LI":"仁里里","LIN":"8鄰","STREET":" ","SECT":" ","MAREA":"二重港","LANE":" ","ALLEY":" ","HOUSE_NO":"２０２號","E_COORD97":161871.25,"N_COORD97":2571509.9399999999,"ADDRESS":"二重港２０２號","OBJECTID":24933},"geometry":{"x":161871.25,"y":2571509.9400000032}},{"attributes":{"ID":24934,"DIS_CODE":0,"TOWNNAME":"北門區","LI":"仁里里","LIN":"8鄰","STREET":" ","SECT":" ","MAREA":"二重港","LANE":" ","ALLEY":" ","HOUSE_NO":"２０４號","E_COORD97":161915.57999999999,"N_COORD97":2571516.71,"ADDRESS":"二重港２０４號","OBJECTID":24934},"geometry":{"x":161915.58000000101,"y":2571516.7100000028}},{"attributes":{"ID":24935,"DIS_CODE":0,"TOWNNAME":"東區","LI":"富強里","LIN":"14鄰","STREET":"裕農路","SECT":" ","MAREA":" ","LANE":"２８８巷","ALLEY":"１４７弄","HOUSE_NO":"３號","E_COORD97":171094.95999999999,"N_COORD97":2542909.4199999999,"ADDRESS":"裕農路２８８巷１４７弄３號","OBJECTID":24935},"geometry":{"x":171094.95999999996,"y":2542909.4200000037}},{"attributes":{"ID":24936,"DIS_CODE":0,"TOWNNAME":"東區","LI":"富強里","LIN":"14鄰","STREET":"裕農路","SECT":" ","MAREA":" ","LANE":"２８８巷","ALLEY":"１４７弄","HOUSE_NO":"４號","E_COORD97":171095.63,"N_COORD97":2542891.0099999998,"ADDRESS":"裕農路２８８巷１４７弄４號","OBJECTID":24936},"geometry":{"x":171095.62999999989,"y":2542891.0099999998}},{"attributes":{"ID":24937,"DIS_CODE":0,"TOWNNAME":"東區","LI":"富強里","LIN":"14鄰","STREET":"裕農路","SECT":" ","MAREA":" ","LANE":"２８８巷","ALLEY":"１４７弄","HOUSE_NO":"５號","E_COORD97":171098.67999999999,"N_COORD97":2542909.52,"ADDRESS":"裕農路２８８巷１４７弄５號","OBJECTID":24937},"geometry":{"x":171098.68000000156,"y":2542909.5200000014}},{"attributes":{"ID":24938,"DIS_CODE":0,"TOWNNAME":"北門區","LI":"永隆里","LIN":"8鄰","STREET":" ","SECT":" ","MAREA":"北門","LANE":" ","ALLEY":" ","HOUSE_NO":"１１１號","E_COORD97":160140.35999999999,"N_COORD97":2574487.8399999999,"ADDRESS":"北門１１１號","OBJECTID":24938},"geometry":{"x":160140.3600000022,"y":2574487.8400000036}},{"attributes":{"ID":24939,"DIS_CODE":0,"TOWNNAME":"東區","LI":"富強里","LIN":"14鄰","STREET":"裕農路","SECT":" ","MAREA":" ","LANE":"２８８巷","ALLEY":"１４７弄","HOUSE_NO":"６號","E_COORD97":171099.56,"N_COORD97":2542891.3300000001,"ADDRESS":"裕農路２８８巷１４７弄６號","OBJECTID":24939},"geometry":{"x":171099.56000000052,"y":2542891.3300000019}},{"attributes":{"ID":24940,"DIS_CODE":0,"TOWNNAME":"東區","LI":"富強里","LIN":"14鄰","STREET":"裕農路","SECT":" ","MAREA":" ","LANE":"２８８巷","ALLEY":"１４７弄","HOUSE_NO":"７號","E_COORD97":171102.82999999999,"N_COORD97":2542909.3100000001,"ADDRESS":"裕農路２８８巷１４７弄７號","OBJECTID":24940},"geometry":{"x":171102.83000000007,"y":2542909.3100000005}},{"attributes":{"ID":24941,"DIS_CODE":0,"TOWNNAME":"北門區","LI":"仁里里","LIN":"8鄰","STREET":" ","SECT":" ","MAREA":"二重港","LANE":" ","ALLEY":" ","HOUSE_NO":"２０６號","E_COORD97":161908.51999999999,"N_COORD97":2571440.5,"ADDRESS":"二重港２０６號","OBJECTID":24941},"geometry":{"x":161908.52000000048,"y":2571440.5000000019}},{"attributes":{"ID":24942,"DIS_CODE":0,"TOWNNAME":"東區","LI":"富強里","LIN":"14鄰","STREET":"裕農路","SECT":" ","MAREA":" ","LANE":"２８８巷","ALLEY":"１４７弄","HOUSE_NO":"８號","E_COORD97":171103.70999999999,"N_COORD97":2542891.75,"ADDRESS":"裕農路２８８巷１４７弄８號","OBJECTID":24942},"geometry":{"x":171103.70999999903,"y":2542891.7500000019}},{"attributes":{"ID":24943,"DIS_CODE":0,"TOWNNAME":"東區","LI":"富強里","LIN":"14鄰","STREET":"裕農路","SECT":" ","MAREA":" ","LANE":"２８８巷","ALLEY":"１４７弄","HOUSE_NO":"９號","E_COORD97":171107.09,"N_COORD97":2542910.48,"ADDRESS":"裕農路２８８巷１４７弄９號","OBJECTID":24943},"geometry":{"x":171107.08999999985,"y":2542910.4800000023}},{"attributes":{"ID":24944,"DIS_CODE":0,"TOWNNAME":"北門區","LI":"仁里里","LIN":"8鄰","STREET":" ","SECT":" ","MAREA":"二重港","LANE":" ","ALLEY":" ","HOUSE_NO":"２０７號","E_COORD97":161918.87,"N_COORD97":2571409.0899999999,"ADDRESS":"二重港２０７號","OBJECTID":24944},"geometry":{"x":161918.87000000104,"y":2571409.0900000017}},{"attributes":{"ID":24945,"DIS_CODE":0,"TOWNNAME":"東區","LI":"富強里","LIN":"14鄰","STREET":"裕農路","SECT":" ","MAREA":" ","LANE":"２８８巷","ALLEY":"１４７弄","HOUSE_NO":"１０號","E_COORD97":171107.54000000001,"N_COORD97":2542892.1800000002,"ADDRESS":"裕農路２８８巷１４７弄１０號","OBJECTID":24945},"geometry":{"x":171107.54000000097,"y":2542892.1799999997}},{"attributes":{"ID":24946,"DIS_CODE":0,"TOWNNAME":"東區","LI":"富強里","LIN":"14鄰","STREET":"裕農路","SECT":" ","MAREA":" ","LANE":"２８８巷","ALLEY":"１４７弄","HOUSE_NO":"１１號","E_COORD97":171112.51000000001,"N_COORD97":2542910.8999999999,"ADDRESS":"裕農路２８８巷１４７弄１１號","OBJECTID":24946},"geometry":{"x":171112.51000000071,"y":2542910.9000000022}},{"attributes":{"ID":24947,"DIS_CODE":0,"TOWNNAME":"東區","LI":"忠孝里","LIN":"34鄰","STREET":"崇明三街","SECT":" ","MAREA":" ","LANE":" ","ALLEY":" ","HOUSE_NO":"２９號","E_COORD97":169607.14000000001,"N_COORD97":2542364.1699999999,"ADDRESS":"崇明三街２９號","OBJECTID":24947},"geometry":{"x":169607.14000000153,"y":2542364.1699999999}},{"attributes":{"ID":24948,"DIS_CODE":0,"TOWNNAME":"東區","LI":"忠孝里","LIN":"34鄰","STREET":"崇明三街","SECT":" ","MAREA":" ","LANE":" ","ALLEY":" ","HOUSE_NO":"３１號","E_COORD97":169611.20000000001,"N_COORD97":2542365.1800000002,"ADDRESS":"崇明三街３１號","OBJECTID":24948},"geometry":{"x":169611.20000000112,"y":2542365.1800000016}},{"attributes":{"ID":24949,"DIS_CODE":0,"TOWNNAME":"東區","LI":"忠孝里","LIN":"34鄰","STREET":"崇明三街","SECT":" ","MAREA":" ","LANE":" ","ALLEY":" ","HOUSE_NO":"３３號","E_COORD97":169615.26000000001,"N_COORD97":2542366.3999999999,"ADDRESS":"崇明三街３３號","OBJECTID":24949},"geometry":{"x":169615.26000000071,"y":2542366.4000000004}},{"attributes":{"ID":24950,"DIS_CODE":0,"TOWNNAME":"東區","LI":"忠孝里","LIN":"34鄰","STREET":"崇明三街","SECT":" ","MAREA":" ","LANE":" ","ALLEY":" ","HOUSE_NO":"３５號","E_COORD97":169618.5,"N_COORD97":2542367.4100000001,"ADDRESS":"崇明三街３５號","OBJECTID":24950},"geometry":{"x":169618.49999999907,"y":2542367.410000002}},{"attributes":{"ID":24951,"DIS_CODE":0,"TOWNNAME":"東區","LI":"忠孝里","LIN":"34鄰","STREET":"崇明三街","SECT":" ","MAREA":" ","LANE":" ","ALLEY":" ","HOUSE_NO":"３７號","E_COORD97":169622.14999999999,"N_COORD97":2542369.23,"ADDRESS":"崇明三街３７號","OBJECTID":24951},"geometry":{"x":169622.1500000013,"y":2542369.2300000023}},{"attributes":{"ID":24952,"DIS_CODE":0,"TOWNNAME":"東區","LI":"忠孝里","LIN":"34鄰","STREET":"崇明三街","SECT":" ","MAREA":" ","LANE":" ","ALLEY":" ","HOUSE_NO":"３９號","E_COORD97":169625.79999999999,"N_COORD97":2542371.0600000001,"ADDRESS":"崇明三街３９號","OBJECTID":24952},"geometry":{"x":169625.79999999981,"y":2542371.0600000024}},{"attributes":{"ID":24953,"DIS_CODE":0,"TOWNNAME":"東區","LI":"忠孝里","LIN":"34鄰","STREET":"崇明三街","SECT":" ","MAREA":" ","LANE":" ","ALLEY":" ","HOUSE_NO":"４３號","E_COORD97":169633.17000000001,"N_COORD97":2542373.96,"ADDRESS":"崇明三街４３號","OBJECTID":24953},"geometry":{"x":169633.17000000086,"y":2542373.9600000009}},{"attributes":{"ID":24954,"DIS_CODE":0,"TOWNNAME":"東區","LI":"忠孝里","LIN":"34鄰","STREET":"崇明三街","SECT":" ","MAREA":" ","LANE":" ","ALLEY":" ","HOUSE_NO":"４９號","E_COORD97":169644.12,"N_COORD97":2542376.6000000001,"ADDRESS":"崇明三街４９號","OBJECTID":24954},"geometry":{"x":169644.12000000104,"y":2542376.6000000015}},{"attributes":{"ID":24955,"DIS_CODE":0,"TOWNNAME":"東區","LI":"忠孝里","LIN":"34鄰","STREET":"崇明三街","SECT":" ","MAREA":" ","LANE":" ","ALLEY":" ","HOUSE_NO":"５１號","E_COORD97":169649.39999999999,"N_COORD97":2542378.8300000001,"ADDRESS":"崇明三街５１號","OBJECTID":24955},"geometry":{"x":169649.40000000037,"y":2542378.8300000019}},{"attributes":{"ID":24956,"DIS_CODE":0,"TOWNNAME":"東區","LI":"富強里","LIN":"14鄰","STREET":"裕農路","SECT":" ","MAREA":" ","LANE":"２８８巷","ALLEY":"１４７弄","HOUSE_NO":"１２號","E_COORD97":171114.88,"N_COORD97":2542891.2200000002,"ADDRESS":"裕農路２８８巷１４７弄１２號","OBJECTID":24956},"geometry":{"x":171114.88000000082,"y":2542891.2200000044}},{"attributes":{"ID":24957,"DIS_CODE":0,"TOWNNAME":"東區","LI":"富強里","LIN":"14鄰","STREET":"裕農路","SECT":" ","MAREA":" ","LANE":"２８８巷","ALLEY":"１４７弄","HOUSE_NO":"１３號","E_COORD97":171118.25,"N_COORD97":2542911.4300000002,"ADDRESS":"裕農路２８８巷１４７弄１３號","OBJECTID":24957},"geometry":{"x":171118.25,"y":2542911.4299999997}},{"attributes":{"ID":24958,"DIS_CODE":0,"TOWNNAME":"東區","LI":"富強里","LIN":"14鄰","STREET":"裕農路","SECT":" ","MAREA":" ","LANE":"２８８巷","ALLEY":"１４７弄","HOUSE_NO":"１４號","E_COORD97":171121.26000000001,"N_COORD97":2542892.9199999999,"ADDRESS":"裕農路２８８巷１４７弄１４號","OBJECTID":24958},"geometry":{"x":171121.25999999978,"y":2542892.9200000018}},{"attributes":{"ID":24959,"DIS_CODE":0,"TOWNNAME":"北門區","LI":"仁里里","LIN":"8鄰","STREET":" ","SECT":" ","MAREA":"二重港","LANE":" ","ALLEY":" ","HOUSE_NO":"２０８號","E_COORD97":161939.25,"N_COORD97":2571437.2400000002,"ADDRESS":"二重港２０８號","OBJECTID":24959},"geometry":{"x":161939.25,"y":2571437.2399999984}},{"attributes":{"ID":24960,"DIS_CODE":0,"TOWNNAME":"北門區","LI":"仁里里","LIN":"8鄰","STREET":" ","SECT":" ","MAREA":"二重港","LANE":" ","ALLEY":" ","HOUSE_NO":"２０９號","E_COORD97":161947.94,"N_COORD97":2571393.3199999998,"ADDRESS":"二重港２０９號","OBJECTID":24960},"geometry":{"x":161947.94000000041,"y":2571393.3200000022}},{"attributes":{"ID":24961,"DIS_CODE":0,"TOWNNAME":"北門區","LI":"仁里里","LIN":"8鄰","STREET":" ","SECT":" ","MAREA":"二重港","LANE":" ","ALLEY":" ","HOUSE_NO":"２１０號","E_COORD97":161949.66,"N_COORD97":2571406.8199999998,"ADDRESS":"二重港２１０號","OBJECTID":24961},"geometry":{"x":161949.66000000015,"y":2571406.8200000022}},{"attributes":{"ID":24962,"DIS_CODE":0,"TOWNNAME":"東區","LI":"富強里","LIN":"14鄰","STREET":"裕農路","SECT":" ","MAREA":" ","LANE":"２８８巷","ALLEY":"１４７弄","HOUSE_NO":"１５號","E_COORD97":171122.39999999999,"N_COORD97":2542911.8599999999,"ADDRESS":"裕農路２８８巷１４７弄１５號","OBJECTID":24962},"geometry":{"x":171122.4000000013,"y":2542911.8599999994}},{"attributes":{"ID":24963,"DIS_CODE":0,"TOWNNAME":"北門區","LI":"仁里里","LIN":"8鄰","STREET":" ","SECT":" ","MAREA":"二重港","LANE":" ","ALLEY":" ","HOUSE_NO":"２１２號","E_COORD97":161954.64000000001,"N_COORD97":2571424.1499999999,"ADDRESS":"二重港２１２號","OBJECTID":24963},"geometry":{"x":161954.63999999966,"y":2571424.1500000004}},{"attributes":{"ID":24964,"DIS_CODE":0,"TOWNNAME":"北門區","LI":"三光里","LIN":"8鄰","STREET":" ","SECT":" ","MAREA":"三寮灣","LANE":" ","ALLEY":" ","HOUSE_NO":"１５１號","E_COORD97":157758.26999999999,"N_COORD97":2570789.2400000002,"ADDRESS":"三寮灣１５１號","OBJECTID":24964},"geometry":{"x":157758.26999999955,"y":2570789.2400000002}},{"attributes":{"ID":24965,"DIS_CODE":0,"TOWNNAME":"北門區","LI":"三光里","LIN":"8鄰","STREET":" ","SECT":" ","MAREA":"三寮灣","LANE":" ","ALLEY":" ","HOUSE_NO":"１５３號","E_COORD97":159037.37,"N_COORD97":2570860.4199999999,"ADDRESS":"三寮灣１５３號","OBJECTID":24965},"geometry":{"x":159037.37000000104,"y":2570860.4200000018}},{"attributes":{"ID":24966,"DIS_CODE":0,"TOWNNAME":"北門區","LI":"三光里","LIN":"8鄰","STREET":" ","SECT":" ","MAREA":"三寮灣","LANE":" ","ALLEY":" ","HOUSE_NO":"１５４號","E_COORD97":159066.79000000001,"N_COORD97":2570866.5899999999,"ADDRESS":"三寮灣１５４號","OBJECTID":24966},"geometry":{"x":159066.79000000004,"y":2570866.5900000017}},{"attributes":{"ID":24967,"DIS_CODE":0,"TOWNNAME":"北門區","LI":"三光里","LIN":"8鄰","STREET":" ","SECT":" ","MAREA":"三寮灣","LANE":" ","ALLEY":" ","HOUSE_NO":"１５５號","E_COORD97":159105.81,"N_COORD97":2570861.5099999998,"ADDRESS":"三寮灣１５５號","OBJECTID":24967},"geometry":{"x":159105.80999999866,"y":2570861.5099999998}},{"attributes":{"ID":24968,"DIS_CODE":0,"TOWNNAME":"東區","LI":"富強里","LIN":"14鄰","STREET":"裕農路","SECT":" ","MAREA":" ","LANE":"２８８巷","ALLEY":"１４７弄","HOUSE_NO":"１９號","E_COORD97":171131.23000000001,"N_COORD97":2542911.3300000001,"ADDRESS":"裕農路２８８巷１４７弄１９號","OBJECTID":24968},"geometry":{"x":171131.22999999952,"y":2542911.3300000019}},{"attributes":{"ID":24969,"DIS_CODE":0,"TOWNNAME":"東區","LI":"富強里","LIN":"14鄰","STREET":"裕農路","SECT":" ","MAREA":" ","LANE":"２８８巷","ALLEY":"１４７弄","HOUSE_NO":"２１號","E_COORD97":171135.16,"N_COORD97":2542911.75,"ADDRESS":"裕農路２８８巷１４７弄２１號","OBJECTID":24969},"geometry":{"x":171135.16000000108,"y":2542911.7500000019}},{"attributes":{"ID":24970,"DIS_CODE":0,"TOWNNAME":"新市區","LI":"新市里","LIN":"14鄰","STREET":"中正路","SECT":" ","MAREA":" ","LANE":"３０１巷","ALLEY":"１８弄","HOUSE_NO":"６號","E_COORD97":177625.64999999999,"N_COORD97":2553313,"ADDRESS":"中正路３０１巷１８弄６號","OBJECTID":24970},"geometry":{"x":177625.65000000037,"y":2553313}},{"attributes":{"ID":24971,"DIS_CODE":0,"TOWNNAME":"新市區","LI":"新市里","LIN":"14鄰","STREET":"中正路","SECT":" ","MAREA":" ","LANE":"３０１巷","ALLEY":"１８弄","HOUSE_NO":"６之１０號","E_COORD97":177636.35000000001,"N_COORD97":2553303.7999999998,"ADDRESS":"中正路３０１巷１８弄６之１０號","OBJECTID":24971},"geometry":{"x":177636.35000000056,"y":2553303.8000000026}},{"attributes":{"ID":24972,"DIS_CODE":0,"TOWNNAME":"新市區","LI":"新市里","LIN":"14鄰","STREET":"中正路","SECT":" ","MAREA":" ","LANE":"３０１巷","ALLEY":"１８弄","HOUSE_NO":"６之９號","E_COORD97":177642.45000000001,"N_COORD97":2553308.5499999998,"ADDRESS":"中正路３０１巷１８弄６之９號","OBJECTID":24972},"geometry":{"x":177642.45000000205,"y":2553308.5500000026}},{"attributes":{"ID":24973,"DIS_CODE":0,"TOWNNAME":"新市區","LI":"新市里","LIN":"14鄰","STREET":"中正路","SECT":" ","MAREA":" ","LANE":"３０１巷","ALLEY":"１８弄","HOUSE_NO":"６之１號","E_COORD97":177627.79000000001,"N_COORD97":2553328.2999999998,"ADDRESS":"中正路３０１巷１８弄６之１號","OBJECTID":24973},"geometry":{"x":177627.79000000004,"y":2553328.3000000007}},{"attributes":{"ID":24974,"DIS_CODE":0,"TOWNNAME":"新市區","LI":"新市里","LIN":"14鄰","STREET":"中正路","SECT":" ","MAREA":" ","LANE":"３０１巷","ALLEY":"１８弄","HOUSE_NO":"６之６號","E_COORD97":177623.35000000001,"N_COORD97":2553318.2999999998,"ADDRESS":"中正路３０１巷１８弄６之６號","OBJECTID":24974},"geometry":{"x":177623.34999999963,"y":2553318.3000000007}},{"attributes":{"ID":24975,"DIS_CODE":0,"TOWNNAME":"永康區","LI":"正強里","LIN":"34鄰","STREET":"四維街","SECT":" ","MAREA":" ","LANE":"１４９巷","ALLEY":" ","HOUSE_NO":"１７號","E_COORD97":173232.04999999999,"N_COORD97":2548360.4199999999,"ADDRESS":"四維街１４９巷１７號","OBJECTID":24975},"geometry":{"x":173232.04999999981,"y":2548360.4199999999}},{"attributes":{"ID":24976,"DIS_CODE":0,"TOWNNAME":"永康區","LI":"龍潭里","LIN":"34鄰","STREET":"龍中街","SECT":" ","MAREA":" ","LANE":" ","ALLEY":" ","HOUSE_NO":"１１６號","E_COORD97":174421.92999999999,"N_COORD97":2548180,"ADDRESS":"龍中街１１６號","OBJECTID":24976},"geometry":{"x":174421.93000000063,"y":2548180}},{"attributes":{"ID":24977,"DIS_CODE":0,"TOWNNAME":"永康區","LI":"復華里","LIN":"34鄰","STREET":"復國一路","SECT":" ","MAREA":" ","LANE":" ","ALLEY":" ","HOUSE_NO":"４８１號","E_COORD97":172583.70000000001,"N_COORD97":2546164.52,"ADDRESS":"復國一路４８１號","OBJECTID":24977},"geometry":{"x":172583.70000000019,"y":2546164.5200000014}},{"attributes":{"ID":24978,"DIS_CODE":0,"TOWNNAME":"東區","LI":"忠孝里","LIN":"34鄰","STREET":"崇明三街","SECT":" ","MAREA":" ","LANE":" ","ALLEY":" ","HOUSE_NO":"１號","E_COORD97":169544.26000000001,"N_COORD97":2542341.8799999999,"ADDRESS":"崇明三街１號","OBJECTID":24978},"geometry":{"x":169544.26000000071,"y":2542341.879999999}},{"attributes":{"ID":24979,"DIS_CODE":0,"TOWNNAME":"東區","LI":"忠孝里","LIN":"34鄰","STREET":"崇明三街","SECT":" ","MAREA":" ","LANE":" ","ALLEY":" ","HOUSE_NO":"５號","E_COORD97":169554.20000000001,"N_COORD97":2542344.9199999999,"ADDRESS":"崇明三街５號","OBJECTID":24979},"geometry":{"x":169554.20000000019,"y":2542344.9199999999}},{"attributes":{"ID":24980,"DIS_CODE":0,"TOWNNAME":"東區","LI":"忠孝里","LIN":"34鄰","STREET":"崇明三街","SECT":" ","MAREA":" ","LANE":" ","ALLEY":" ","HOUSE_NO":"７號","E_COORD97":169558.85999999999,"N_COORD97":2542345.9300000002,"ADDRESS":"崇明三街７號","OBJECTID":24980},"geometry":{"x":169558.8600000022,"y":2542345.9299999978}},{"attributes":{"ID":24981,"DIS_CODE":0,"TOWNNAME":"東區","LI":"忠孝里","LIN":"34鄰","STREET":"崇明三街","SECT":" ","MAREA":" ","LANE":" ","ALLEY":" ","HOUSE_NO":"９號","E_COORD97":169564.14000000001,"N_COORD97":2542347.1499999999,"ADDRESS":"崇明三街９號","OBJECTID":24981},"geometry":{"x":169564.13999999966,"y":2542347.1500000004}},{"attributes":{"ID":24982,"DIS_CODE":0,"TOWNNAME":"東區","LI":"忠孝里","LIN":"34鄰","STREET":"崇明三街","SECT":" ","MAREA":" ","LANE":" ","ALLEY":" ","HOUSE_NO":"１１號","E_COORD97":169567.98999999999,"N_COORD97":2542347.96,"ADDRESS":"崇明三街１１號","OBJECTID":24982},"geometry":{"x":169567.98999999929,"y":2542347.9600000028}},{"attributes":{"ID":24983,"DIS_CODE":0,"TOWNNAME":"東區","LI":"小東里","LIN":"34鄰","STREET":"東興路","SECT":" ","MAREA":" ","LANE":" ","ALLEY":" ","HOUSE_NO":"２６１號","E_COORD97":171032.28,"N_COORD97":2544009.1800000002,"ADDRESS":"東興路２６１號","OBJECTID":24983},"geometry":{"x":171032.28000000026,"y":2544009.1800000034}},{"attributes":{"ID":24984,"DIS_CODE":0,"TOWNNAME":"仁德區","LI":"太子里","LIN":"34鄰","STREET":"土庫路","SECT":" ","MAREA":" ","LANE":" ","ALLEY":" ","HOUSE_NO":"３１號","E_COORD97":174210.76999999999,"N_COORD97":2543401,"ADDRESS":"土庫路３１號","OBJECTID":24984},"geometry":{"x":174210.77000000048,"y":2543401.0000000019}},{"attributes":{"ID":24985,"DIS_CODE":0,"TOWNNAME":"仁德區","LI":"太子里","LIN":"34鄰","STREET":"土庫路","SECT":" ","MAREA":" ","LANE":" ","ALLEY":" ","HOUSE_NO":"１３號","E_COORD97":174199.62,"N_COORD97":2543439.75,"ADDRESS":"土庫路１３號","OBJECTID":24985},"geometry":{"x":174199.62000000011,"y":2543439.7500000019}},{"attributes":{"ID":24986,"DIS_CODE":0,"TOWNNAME":"東區","LI":"和平里","LIN":"20鄰","STREET":"文化一街","SECT":" ","MAREA":" ","LANE":" ","ALLEY":" ","HOUSE_NO":"１５２號","E_COORD97":171245.32000000001,"N_COORD97":2541913.6299999999,"ADDRESS":"文化一街１５２號","OBJECTID":24986},"geometry":{"x":171245.3200000003,"y":2541913.6300000027}},{"attributes":{"ID":24987,"DIS_CODE":0,"TOWNNAME":"東區","LI":"和平里","LIN":"20鄰","STREET":"文化一街","SECT":" ","MAREA":" ","LANE":" ","ALLEY":" ","HOUSE_NO":"１７０號","E_COORD97":171254.32000000001,"N_COORD97":2541871.3900000001,"ADDRESS":"文化一街１７０號","OBJECTID":24987},"geometry":{"x":171254.32000000216,"y":2541871.3900000006}},{"attributes":{"ID":24988,"DIS_CODE":0,"TOWNNAME":"東區","LI":"和平里","LIN":"20鄰","STREET":"文化一街","SECT":" ","MAREA":" ","LANE":" ","ALLEY":" ","HOUSE_NO":"１７２號","E_COORD97":171255.14000000001,"N_COORD97":2541865.5,"ADDRESS":"文化一街１７２號","OBJECTID":24988},"geometry":{"x":171255.1400000006,"y":2541865.5000000019}},{"attributes":{"ID":24989,"DIS_CODE":0,"TOWNNAME":"新市區","LI":"新市里","LIN":"14鄰","STREET":"中正路","SECT":" ","MAREA":" ","LANE":"３０１巷","ALLEY":"１８弄","HOUSE_NO":"６之５號","E_COORD97":177638.39999999999,"N_COORD97":2553319.7999999998,"ADDRESS":"中正路３０１巷１８弄６之５號","OBJECTID":24989},"geometry":{"x":177638.4000000013,"y":2553319.8000000026}},{"attributes":{"ID":24990,"DIS_CODE":0,"TOWNNAME":"新市區","LI":"新市里","LIN":"14鄰","STREET":"中正路","SECT":" ","MAREA":" ","LANE":"３０１巷","ALLEY":"１８弄","HOUSE_NO":"４號","E_COORD97":177606.95999999999,"N_COORD97":2553313.25,"ADDRESS":"中正路３０１巷１８弄４號","OBJECTID":24990},"geometry":{"x":177606.96000000089,"y":2553313.2500000019}},{"attributes":{"ID":24991,"DIS_CODE":0,"TOWNNAME":"新市區","LI":"新市里","LIN":"14鄰","STREET":"中正路","SECT":" ","MAREA":" ","LANE":"３０１巷","ALLEY":"１８弄","HOUSE_NO":"６之３號","E_COORD97":177631.64999999999,"N_COORD97":2553322.7999999998,"ADDRESS":"中正路３０１巷１８弄６之３號","OBJECTID":24991},"geometry":{"x":177631.6500000013,"y":2553322.8000000045}},{"attributes":{"ID":24992,"DIS_CODE":0,"TOWNNAME":"北門區","LI":"三光里","LIN":"8鄰","STREET":" ","SECT":" ","MAREA":"三寮灣","LANE":" ","ALLEY":" ","HOUSE_NO":"１５６號","E_COORD97":159118.07999999999,"N_COORD97":2570869.5499999998,"ADDRESS":"三寮灣１５６號","OBJECTID":24992},"geometry":{"x":159118.07999999914,"y":2570869.5499999989}},{"attributes":{"ID":24993,"DIS_CODE":0,"TOWNNAME":"北門區","LI":"三光里","LIN":"8鄰","STREET":" ","SECT":" ","MAREA":"三寮灣","LANE":" ","ALLEY":" ","HOUSE_NO":"１５７之１號","E_COORD97":159149.07999999999,"N_COORD97":2570891.8300000001,"ADDRESS":"三寮灣１５７之１號","OBJECTID":24993},"geometry":{"x":159149.08000000101,"y":2570891.8300000019}},{"attributes":{"ID":24994,"DIS_CODE":0,"TOWNNAME":"北門區","LI":"三光里","LIN":"8鄰","STREET":" ","SECT":" ","MAREA":"三寮灣","LANE":" ","ALLEY":" ","HOUSE_NO":"１５７號","E_COORD97":159125.07999999999,"N_COORD97":2570874.9700000002,"ADDRESS":"三寮灣１５７號","OBJECTID":24994},"geometry":{"x":159125.08000000101,"y":2570874.9700000025}},{"attributes":{"ID":24995,"DIS_CODE":0,"TOWNNAME":"北門區","LI":"三光里","LIN":"8鄰","STREET":" ","SECT":" ","MAREA":"三寮灣","LANE":" ","ALLEY":" ","HOUSE_NO":"１５８號","E_COORD97":159140.97,"N_COORD97":2570856.6299999999,"ADDRESS":"三寮灣１５８號","OBJECTID":24995},"geometry":{"x":159140.97000000067,"y":2570856.629999999}},{"attributes":{"ID":24996,"DIS_CODE":0,"TOWNNAME":"北門區","LI":"三光里","LIN":"8鄰","STREET":" ","SECT":" ","MAREA":"三寮灣","LANE":" ","ALLEY":" ","HOUSE_NO":"１５９號","E_COORD97":159156.35999999999,"N_COORD97":2570866.3199999998,"ADDRESS":"三寮灣１５９號","OBJECTID":24996},"geometry":{"x":159156.36000000127,"y":2570866.3200000003}},{"attributes":{"ID":24997,"DIS_CODE":0,"TOWNNAME":"北門區","LI":"慈安里","LIN":"8鄰","STREET":" ","SECT":" ","MAREA":"三寮灣","LANE":" ","ALLEY":" ","HOUSE_NO":"４７６號","E_COORD97":159007.45000000001,"N_COORD97":2571068.77,"ADDRESS":"三寮灣４７６號","OBJECTID":24997},"geometry":{"x":159007.45000000112,"y":2571068.7699999996}},{"attributes":{"ID":24998,"DIS_CODE":0,"TOWNNAME":"北門區","LI":"慈安里","LIN":"8鄰","STREET":" ","SECT":" ","MAREA":"三寮灣","LANE":" ","ALLEY":" ","HOUSE_NO":"４７９號","E_COORD97":158963.75,"N_COORD97":2571082.04,"ADDRESS":"三寮灣４７９號","OBJECTID":24998},"geometry":{"x":158963.75,"y":2571082.040000001}},{"attributes":{"ID":24999,"DIS_CODE":0,"TOWNNAME":"北門區","LI":"永隆里","LIN":"8鄰","STREET":" ","SECT":" ","MAREA":"北門","LANE":" ","ALLEY":" ","HOUSE_NO":"１００號","E_COORD97":160106.91,"N_COORD97":2574507.4100000001,"ADDRESS":"北門１００號","OBJECTID":24999},"geometry":{"x":160106.91000000015,"y":2574507.4100000001}},{"attributes":{"ID":25000,"DIS_CODE":0,"TOWNNAME":"北門區","LI":"永隆里","LIN":"8鄰","STREET":" ","SECT":" ","MAREA":"北門","LANE":" ","ALLEY":" ","HOUSE_NO":"１０１號","E_COORD97":160105.95999999999,"N_COORD97":2574526.0499999998,"ADDRESS":"北門１０１號","OBJECTID":25000},"geometry":{"x":160105.96000000089,"y":2574526.0500000026}}]}