{"displayFieldName":"TOWNNAME","fieldAliases":{"ID":"ID","DIS_CODE":"DIS_CODE","TOWNNAME":"TOWNNAME","LI":"LI","LIN":"LIN","STREET":"STREET","SECT":"SECT","MAREA":"MAREA","LANE":"LANE","ALLEY":"ALLEY","HOUSE_NO":"HOUSE_NO","E_COORD97":"E_COORD97","N_COORD97":"N_COORD97","ADDRESS":"ADDRESS","OBJECTID":"OBJECTID"},"geometryType":"esriGeometryPoint","spatialReference":{"wkid":102443,"latestWkid":3826},"fields":[{"name":"ID","type":"esriFieldTypeDouble","alias":"ID"},{"name":"DIS_CODE","type":"esriFieldTypeInteger","alias":"DIS_CODE"},{"name":"TOWNNAME","type":"esriFieldTypeString","alias":"TOWNNAME","length":8},{"name":"LI","type":"esriFieldTypeString","alias":"LI","length":8},{"name":"LIN","type":"esriFieldTypeString","alias":"LIN","length":12},{"name":"STREET","type":"esriFieldTypeString","alias":"STREET","length":20},{"name":"SECT","type":"esriFieldTypeString","alias":"SECT","length":8},{"name":"MAREA","type":"esriFieldTypeString","alias":"MAREA","length":12},{"name":"LANE","type":"esriFieldTypeString","alias":"LANE","length":10},{"name":"ALLEY","type":"esriFieldTypeString","alias":"ALLEY","length":10},{"name":"HOUSE_NO","type":"esriFieldTypeString","alias":"HOUSE_NO","length":20},{"name":"E_COORD97","type":"esriFieldTypeDouble","alias":"E_COORD97"},{"name":"N_COORD97","type":"esriFieldTypeDouble","alias":"N_COORD97"},{"name":"ADDRESS","type":"esriFieldTypeString","alias":"ADDRESS","length":50},{"name":"OBJECTID","type":"esriFieldTypeOID","alias":"OBJECTID"}],"features":[{"attributes":{"ID":414225,"DIS_CODE":0,"TOWNNAME":"永康區","LI":"崑山里","LIN":"3鄰","STREET":"永大路","SECT":"一段","MAREA":" ","LANE":"２８７巷","ALLEY":" ","HOUSE_NO":"１５８號","E_COORD97":173633.07000000001,"N_COORD97":2544334.1699999999,"ADDRESS":"永大路一段２８７巷１５８號","OBJECTID":414201},"geometry":{"x":173633.07000000123,"y":2544334.1699999999}},{"attributes":{"ID":414226,"DIS_CODE":0,"TOWNNAME":"永康區","LI":"三民里","LIN":"3鄰","STREET":"三民街","SECT":" ","MAREA":" ","LANE":"９０巷","ALLEY":" ","HOUSE_NO":"２０號","E_COORD97":173031.67000000001,"N_COORD97":2550351.54,"ADDRESS":"三民街９０巷２０號","OBJECTID":414202},"geometry":{"x":173031.67000000086,"y":2550351.5399999991}},{"attributes":{"ID":414227,"DIS_CODE":0,"TOWNNAME":"永康區","LI":"五王里","LIN":"3鄰","STREET":"成功路","SECT":" ","MAREA":" ","LANE":"１３０巷","ALLEY":" ","HOUSE_NO":"２５號","E_COORD97":171543.82999999999,"N_COORD97":2545556.4399999999,"ADDRESS":"成功路１３０巷２５號","OBJECTID":414203},"geometry":{"x":171543.83000000194,"y":2545556.4400000032}},{"attributes":{"ID":414228,"DIS_CODE":0,"TOWNNAME":"東區","LI":"崇明里","LIN":"3鄰","STREET":"大同路","SECT":"二段","MAREA":" ","LANE":"４０３巷","ALLEY":" ","HOUSE_NO":"１２號之１","E_COORD97":169581.09,"N_COORD97":2541354.1099999999,"ADDRESS":"大同路二段４０３巷１２號之１","OBJECTID":414204},"geometry":{"x":169581.09000000078,"y":2541354.1099999994}},{"attributes":{"ID":414229,"DIS_CODE":0,"TOWNNAME":"東區","LI":"崇明里","LIN":"3鄰","STREET":"大同路","SECT":"二段","MAREA":" ","LANE":"４０３巷","ALLEY":" ","HOUSE_NO":"１２號地下層","E_COORD97":169585.63,"N_COORD97":2541346.2200000002,"ADDRESS":"大同路二段４０３巷１２號地下層","OBJECTID":414205},"geometry":{"x":169585.63000000082,"y":2541346.2200000025}},{"attributes":{"ID":414230,"DIS_CODE":0,"TOWNNAME":"東區","LI":"南聖里","LIN":"3鄰","STREET":"裕農路","SECT":" ","MAREA":" ","LANE":"６６８巷","ALLEY":" ","HOUSE_NO":"１６號","E_COORD97":171720.32000000001,"N_COORD97":2543157.7000000002,"ADDRESS":"裕農路６６８巷１６號","OBJECTID":414206},"geometry":{"x":171720.3200000003,"y":2543157.700000003}},{"attributes":{"ID":414231,"DIS_CODE":0,"TOWNNAME":"東區","LI":"南聖里","LIN":"3鄰","STREET":"裕農路","SECT":" ","MAREA":" ","LANE":"６６８巷","ALLEY":" ","HOUSE_NO":"１８號","E_COORD97":171722.82000000001,"N_COORD97":2543153.8700000001,"ADDRESS":"裕農路６６８巷１８號","OBJECTID":414207},"geometry":{"x":171722.82000000123,"y":2543153.870000001}},{"attributes":{"ID":414232,"DIS_CODE":0,"TOWNNAME":"東區","LI":"南聖里","LIN":"3鄰","STREET":"裕農路","SECT":" ","MAREA":" ","LANE":"６６８巷","ALLEY":" ","HOUSE_NO":"２０號","E_COORD97":171724.98000000001,"N_COORD97":2543150.54,"ADDRESS":"裕農路６６８巷２０號","OBJECTID":414208},"geometry":{"x":171724.98000000138,"y":2543150.5399999991}},{"attributes":{"ID":414233,"DIS_CODE":0,"TOWNNAME":"東區","LI":"南聖里","LIN":"3鄰","STREET":"裕農路","SECT":" ","MAREA":" ","LANE":"６６８巷","ALLEY":" ","HOUSE_NO":"２２號","E_COORD97":171725.32000000001,"N_COORD97":2543146.7000000002,"ADDRESS":"裕農路６６８巷２２號","OBJECTID":414209},"geometry":{"x":171725.3200000003,"y":2543146.6999999993}},{"attributes":{"ID":414234,"DIS_CODE":0,"TOWNNAME":"東區","LI":"大智里","LIN":"24鄰","STREET":"文東街","SECT":" ","MAREA":" ","LANE":"３０巷","ALLEY":" ","HOUSE_NO":"６號","E_COORD97":171347.45000000001,"N_COORD97":2540152.1899999999,"ADDRESS":"文東街３０巷６號","OBJECTID":414210},"geometry":{"x":171347.45000000019,"y":2540152.1900000013}},{"attributes":{"ID":414235,"DIS_CODE":0,"TOWNNAME":"中西區","LI":"協進里","LIN":"9鄰","STREET":"臨安路","SECT":"一段","MAREA":" ","LANE":"３３巷","ALLEY":" ","HOUSE_NO":"２５號","E_COORD97":166852.62,"N_COORD97":2544331.5299999998,"ADDRESS":"臨安路一段３３巷２５號","OBJECTID":414211},"geometry":{"x":166852.62000000011,"y":2544331.5299999993}},{"attributes":{"ID":414236,"DIS_CODE":0,"TOWNNAME":"中西區","LI":"協進里","LIN":"9鄰","STREET":"臨安路","SECT":"一段","MAREA":" ","LANE":"３３巷","ALLEY":" ","HOUSE_NO":"２７號","E_COORD97":166849.62,"N_COORD97":2544333.1400000001,"ADDRESS":"臨安路一段３３巷２７號","OBJECTID":414212},"geometry":{"x":166849.62000000197,"y":2544333.1400000025}},{"attributes":{"ID":414237,"DIS_CODE":0,"TOWNNAME":"中西區","LI":"協進里","LIN":"9鄰","STREET":"臨安路","SECT":"一段","MAREA":" ","LANE":"３３巷","ALLEY":" ","HOUSE_NO":"２９號","E_COORD97":166846.17999999999,"N_COORD97":2544334.4199999999,"ADDRESS":"臨安路一段３３巷２９號","OBJECTID":414213},"geometry":{"x":166846.18000000063,"y":2544334.4200000018}},{"attributes":{"ID":414238,"DIS_CODE":0,"TOWNNAME":"中西區","LI":"協進里","LIN":"9鄰","STREET":"臨安路","SECT":"一段","MAREA":" ","LANE":"３３巷","ALLEY":" ","HOUSE_NO":"３１號","E_COORD97":166844.29000000001,"N_COORD97":2544339.7799999998,"ADDRESS":"臨安路一段３３巷３１號","OBJECTID":414214},"geometry":{"x":166844.29000000004,"y":2544339.7799999993}},{"attributes":{"ID":414239,"DIS_CODE":0,"TOWNNAME":"中西區","LI":"協進里","LIN":"9鄰","STREET":"臨安路","SECT":"一段","MAREA":" ","LANE":"３３巷","ALLEY":" ","HOUSE_NO":"３號","E_COORD97":166893.73999999999,"N_COORD97":2544319.7400000002,"ADDRESS":"臨安路一段３３巷３號","OBJECTID":414215},"geometry":{"x":166893.74000000115,"y":2544319.7400000002}},{"attributes":{"ID":414240,"DIS_CODE":0,"TOWNNAME":"中西區","LI":"協進里","LIN":"9鄰","STREET":"臨安路","SECT":"一段","MAREA":" ","LANE":"３３巷","ALLEY":" ","HOUSE_NO":"５號","E_COORD97":166889.34,"N_COORD97":2544319.4100000001,"ADDRESS":"臨安路一段３３巷５號","OBJECTID":414216},"geometry":{"x":166889.34000000078,"y":2544319.4100000001}},{"attributes":{"ID":414241,"DIS_CODE":0,"TOWNNAME":"中西區","LI":"協進里","LIN":"9鄰","STREET":"臨安路","SECT":"一段","MAREA":" ","LANE":"３３巷","ALLEY":" ","HOUSE_NO":"７號","E_COORD97":166885.14999999999,"N_COORD97":2544319.8399999999,"ADDRESS":"臨安路一段３３巷７號","OBJECTID":414217},"geometry":{"x":166885.15000000037,"y":2544319.8399999999}},{"attributes":{"ID":414242,"DIS_CODE":0,"TOWNNAME":"中西區","LI":"協進里","LIN":"9鄰","STREET":"臨安路","SECT":"一段","MAREA":" ","LANE":"３３巷","ALLEY":" ","HOUSE_NO":"９號","E_COORD97":166881.39999999999,"N_COORD97":2544320.7000000002,"ADDRESS":"臨安路一段３３巷９號","OBJECTID":414218},"geometry":{"x":166881.40000000037,"y":2544320.700000003}},{"attributes":{"ID":414243,"DIS_CODE":0,"TOWNNAME":"東區","LI":"南聖里","LIN":"3鄰","STREET":"裕農路","SECT":" ","MAREA":" ","LANE":"６６８巷","ALLEY":" ","HOUSE_NO":"２４號","E_COORD97":171725.82000000001,"N_COORD97":2543142.21,"ADDRESS":"裕農路６６８巷２４號","OBJECTID":414219},"geometry":{"x":171725.82000000123,"y":2543142.2100000046}},{"attributes":{"ID":414244,"DIS_CODE":0,"TOWNNAME":"中西區","LI":"協進里","LIN":"10鄰","STREET":"臨安路","SECT":"一段","MAREA":" ","LANE":"１５巷","ALLEY":" ","HOUSE_NO":"１號","E_COORD97":166870.42000000001,"N_COORD97":2544277.8300000001,"ADDRESS":"臨安路一段１５巷１號","OBJECTID":414220},"geometry":{"x":166870.41999999993,"y":2544277.8300000019}},{"attributes":{"ID":414245,"DIS_CODE":0,"TOWNNAME":"中西區","LI":"協進里","LIN":"10鄰","STREET":"臨安路","SECT":"一段","MAREA":" ","LANE":"１５巷","ALLEY":" ","HOUSE_NO":"３號","E_COORD97":166865.81,"N_COORD97":2544278.8999999999,"ADDRESS":"臨安路一段１５巷３號","OBJECTID":414221},"geometry":{"x":166865.80999999959,"y":2544278.9000000004}},{"attributes":{"ID":414246,"DIS_CODE":0,"TOWNNAME":"中西區","LI":"協進里","LIN":"10鄰","STREET":"臨安路","SECT":"一段","MAREA":" ","LANE":"１５巷","ALLEY":" ","HOUSE_NO":"５號","E_COORD97":166861.29999999999,"N_COORD97":2544279.6499999999,"ADDRESS":"臨安路一段１５巷５號","OBJECTID":414222},"geometry":{"x":166861.29999999981,"y":2544279.6500000004}},{"attributes":{"ID":414247,"DIS_CODE":0,"TOWNNAME":"中西區","LI":"協進里","LIN":"10鄰","STREET":"臨安路","SECT":"一段","MAREA":" ","LANE":"１５巷","ALLEY":" ","HOUSE_NO":"７號","E_COORD97":166857.32999999999,"N_COORD97":2544282.0099999998,"ADDRESS":"臨安路一段１５巷７號","OBJECTID":414223},"geometry":{"x":166857.33000000101,"y":2544282.0100000016}},{"attributes":{"ID":414248,"DIS_CODE":0,"TOWNNAME":"東區","LI":"南聖里","LIN":"3鄰","STREET":"裕農路","SECT":" ","MAREA":" ","LANE":"６６８巷","ALLEY":" ","HOUSE_NO":"２６號","E_COORD97":171726.98999999999,"N_COORD97":2543138.04,"ADDRESS":"裕農路６６８巷２６號","OBJECTID":414224},"geometry":{"x":171726.99000000022,"y":2543138.0400000028}},{"attributes":{"ID":414249,"DIS_CODE":0,"TOWNNAME":"永康區","LI":"二王里","LIN":"3鄰","STREET":"二王路","SECT":" ","MAREA":" ","LANE":"１３５巷","ALLEY":" ","HOUSE_NO":"２０號","E_COORD97":173068.64999999999,"N_COORD97":2546577.4900000002,"ADDRESS":"二王路１３５巷２０號","OBJECTID":414225},"geometry":{"x":173068.65000000037,"y":2546577.4900000039}},{"attributes":{"ID":414250,"DIS_CODE":0,"TOWNNAME":"永康區","LI":"三合里","LIN":"3鄰","STREET":"中華二路","SECT":" ","MAREA":" ","LANE":"８８巷","ALLEY":" ","HOUSE_NO":"４２號","E_COORD97":172083.26000000001,"N_COORD97":2545553.9900000002,"ADDRESS":"中華二路８８巷４２號","OBJECTID":414226},"geometry":{"x":172083.26000000071,"y":2545553.9900000021}},{"attributes":{"ID":414251,"DIS_CODE":0,"TOWNNAME":"善化區","LI":"西關里","LIN":"3鄰","STREET":"中華路","SECT":" ","MAREA":" ","LANE":"１５７巷","ALLEY":" ","HOUSE_NO":"３號","E_COORD97":177207.12,"N_COORD97":2559104,"ADDRESS":"中華路１５７巷３號","OBJECTID":414227},"geometry":{"x":177207.12000000011,"y":2559104}},{"attributes":{"ID":414252,"DIS_CODE":0,"TOWNNAME":"永康區","LI":"三合里","LIN":"3鄰","STREET":"中華二路","SECT":" ","MAREA":" ","LANE":"８８巷","ALLEY":" ","HOUSE_NO":"５０號","E_COORD97":172083.89000000001,"N_COORD97":2545572.7400000002,"ADDRESS":"中華二路８８巷５０號","OBJECTID":414228},"geometry":{"x":172083.89000000153,"y":2545572.7400000021}},{"attributes":{"ID":414253,"DIS_CODE":0,"TOWNNAME":"中西區","LI":"三合里","LIN":"9鄰","STREET":"信義街","SECT":" ","MAREA":" ","LANE":"６０巷","ALLEY":" ","HOUSE_NO":"３號","E_COORD97":167553.88,"N_COORD97":2544531.4199999999,"ADDRESS":"信義街６０巷３號","OBJECTID":414229},"geometry":{"x":167553.87999999989,"y":2544531.4200000018}},{"attributes":{"ID":414254,"DIS_CODE":0,"TOWNNAME":"中西區","LI":"開山里","LIN":"3鄰","STREET":"開山路","SECT":" ","MAREA":" ","LANE":"１２７巷","ALLEY":" ","HOUSE_NO":"２３號","E_COORD97":168876.91,"N_COORD97":2543242.2799999998,"ADDRESS":"開山路１２７巷２３號","OBJECTID":414230},"geometry":{"x":168876.91000000201,"y":2543242.2800000012}},{"attributes":{"ID":414255,"DIS_CODE":0,"TOWNNAME":"中西區","LI":"開山里","LIN":"3鄰","STREET":"開山路","SECT":" ","MAREA":" ","LANE":"１２７巷","ALLEY":" ","HOUSE_NO":"２５號","E_COORD97":168881.41,"N_COORD97":2543241.04,"ADDRESS":"開山路１２７巷２５號","OBJECTID":414231},"geometry":{"x":168881.41000000015,"y":2543241.040000001}},{"attributes":{"ID":414256,"DIS_CODE":0,"TOWNNAME":"中西區","LI":"開山里","LIN":"3鄰","STREET":"開山路","SECT":" ","MAREA":" ","LANE":"１２７巷","ALLEY":" ","HOUSE_NO":"２７號","E_COORD97":168885.04999999999,"N_COORD97":2543240.46,"ADDRESS":"開山路１２７巷２７號","OBJECTID":414232},"geometry":{"x":168885.04999999981,"y":2543240.4600000028}},{"attributes":{"ID":414257,"DIS_CODE":0,"TOWNNAME":"東區","LI":"東安里","LIN":"3鄰","STREET":"東門路","SECT":"二段","MAREA":" ","LANE":"４３巷","ALLEY":" ","HOUSE_NO":"１３號","E_COORD97":170065.03,"N_COORD97":2543024.5800000001,"ADDRESS":"東門路二段４３巷１３號","OBJECTID":414233},"geometry":{"x":170065.03000000119,"y":2543024.5800000019}},{"attributes":{"ID":414258,"DIS_CODE":0,"TOWNNAME":"東區","LI":"東安里","LIN":"3鄰","STREET":"長榮路","SECT":"二段","MAREA":" ","LANE":"２４巷","ALLEY":" ","HOUSE_NO":"６４號地下層","E_COORD97":170056.10000000001,"N_COORD97":2543043.6000000001,"ADDRESS":"長榮路二段２４巷６４號地下層","OBJECTID":414234},"geometry":{"x":170056.09999999963,"y":2543043.6000000034}},{"attributes":{"ID":414259,"DIS_CODE":0,"TOWNNAME":"東區","LI":"中西里","LIN":"3鄰","STREET":"東門路","SECT":"一段","MAREA":" ","LANE":"２６７巷","ALLEY":" ","HOUSE_NO":"６號","E_COORD97":169858.20999999999,"N_COORD97":2543106.73,"ADDRESS":"東門路一段２６７巷６號","OBJECTID":414235},"geometry":{"x":169858.21000000089,"y":2543106.7300000004}},{"attributes":{"ID":414260,"DIS_CODE":0,"TOWNNAME":"東區","LI":"富強里","LIN":"3鄰","STREET":"中華東路","SECT":"二段","MAREA":" ","LANE":"２２巷","ALLEY":" ","HOUSE_NO":"２１號","E_COORD97":171303.01999999999,"N_COORD97":2543083.8799999999,"ADDRESS":"中華東路二段２２巷２１號","OBJECTID":414236},"geometry":{"x":171303.02000000142,"y":2543083.879999999}},{"attributes":{"ID":414261,"DIS_CODE":0,"TOWNNAME":"東區","LI":"富強里","LIN":"3鄰","STREET":"中華東路","SECT":"二段","MAREA":" ","LANE":"２２巷","ALLEY":" ","HOUSE_NO":"２３號","E_COORD97":171284.75,"N_COORD97":2543087.1099999999,"ADDRESS":"中華東路二段２２巷２３號","OBJECTID":414237},"geometry":{"x":171284.75,"y":2543087.1100000031}},{"attributes":{"ID":414262,"DIS_CODE":0,"TOWNNAME":"東區","LI":"中西里","LIN":"3鄰","STREET":"東門路","SECT":"一段","MAREA":" ","LANE":"２６７巷","ALLEY":" ","HOUSE_NO":"６號之１","E_COORD97":169868.62,"N_COORD97":2543108.1899999999,"ADDRESS":"東門路一段２６７巷６號之１","OBJECTID":414238},"geometry":{"x":169868.62000000011,"y":2543108.1900000013}},{"attributes":{"ID":414263,"DIS_CODE":0,"TOWNNAME":"永康區","LI":"大橋里","LIN":"3鄰","STREET":"大橋一街","SECT":" ","MAREA":" ","LANE":"７３巷","ALLEY":" ","HOUSE_NO":"７６號","E_COORD97":170737.44,"N_COORD97":2546616.5,"ADDRESS":"大橋一街７３巷７６號","OBJECTID":414239},"geometry":{"x":170737.44000000041,"y":2546616.5}},{"attributes":{"ID":414264,"DIS_CODE":0,"TOWNNAME":"永康區","LI":"三合里","LIN":"3鄰","STREET":"中華二路","SECT":" ","MAREA":" ","LANE":"８８巷","ALLEY":" ","HOUSE_NO":"２２號","E_COORD97":172084.95999999999,"N_COORD97":2545505.5,"ADDRESS":"中華二路８８巷２２號","OBJECTID":414240},"geometry":{"x":172084.95999999996,"y":2545505.5}},{"attributes":{"ID":414265,"DIS_CODE":0,"TOWNNAME":"中西區","LI":"協進里","LIN":"11鄰","STREET":"民生路","SECT":"二段","MAREA":" ","LANE":"４００巷","ALLEY":" ","HOUSE_NO":"１７號","E_COORD97":166845.95000000001,"N_COORD97":2544373.5899999999,"ADDRESS":"民生路二段４００巷１７號","OBJECTID":414241},"geometry":{"x":166845.95000000205,"y":2544373.5900000017}},{"attributes":{"ID":414266,"DIS_CODE":0,"TOWNNAME":"中西區","LI":"協進里","LIN":"11鄰","STREET":"民生路","SECT":"二段","MAREA":" ","LANE":"４００巷","ALLEY":" ","HOUSE_NO":"１８號","E_COORD97":166840.07000000001,"N_COORD97":2544372.29,"ADDRESS":"民生路二段４００巷１８號","OBJECTID":414242},"geometry":{"x":166840.07000000216,"y":2544372.2899999991}},{"attributes":{"ID":414267,"DIS_CODE":0,"TOWNNAME":"麻豆區","LI":"油車里","LIN":"3鄰","STREET":"大同街","SECT":" ","MAREA":" ","LANE":"７巷","ALLEY":" ","HOUSE_NO":"３號","E_COORD97":172777.35999999999,"N_COORD97":2565143.3999999999,"ADDRESS":"大同街７巷３號","OBJECTID":414243},"geometry":{"x":172777.36000000034,"y":2565143.4000000004}},{"attributes":{"ID":414268,"DIS_CODE":0,"TOWNNAME":"中西區","LI":"協進里","LIN":"11鄰","STREET":"民生路","SECT":"二段","MAREA":" ","LANE":"４００巷","ALLEY":" ","HOUSE_NO":"１９號","E_COORD97":166836.95000000001,"N_COORD97":2544372.9399999999,"ADDRESS":"民生路二段４００巷１９號","OBJECTID":414244},"geometry":{"x":166836.95000000019,"y":2544372.9399999995}},{"attributes":{"ID":414269,"DIS_CODE":0,"TOWNNAME":"中西區","LI":"協進里","LIN":"11鄰","STREET":"民生路","SECT":"二段","MAREA":" ","LANE":"４００巷","ALLEY":" ","HOUSE_NO":"２０號","E_COORD97":166832.45999999999,"N_COORD97":2544374.0699999998,"ADDRESS":"民生路二段４００巷２０號","OBJECTID":414245},"geometry":{"x":166832.46000000089,"y":2544374.0700000022}},{"attributes":{"ID":414270,"DIS_CODE":0,"TOWNNAME":"永康區","LI":"三合里","LIN":"3鄰","STREET":"中華二路","SECT":" ","MAREA":" ","LANE":"８８巷","ALLEY":" ","HOUSE_NO":"２號","E_COORD97":172085.17999999999,"N_COORD97":2545458.7400000002,"ADDRESS":"中華二路８８巷２號","OBJECTID":414246},"geometry":{"x":172085.17999999877,"y":2545458.7400000002}},{"attributes":{"ID":414271,"DIS_CODE":0,"TOWNNAME":"永康區","LI":"大灣里","LIN":"3鄰","STREET":"大同街","SECT":" ","MAREA":" ","LANE":"２１８巷","ALLEY":" ","HOUSE_NO":"８號","E_COORD97":174854.73999999999,"N_COORD97":2545654.7400000002,"ADDRESS":"大同街２１８巷８號","OBJECTID":414247},"geometry":{"x":174854.74000000022,"y":2545654.7400000021}},{"attributes":{"ID":414272,"DIS_CODE":0,"TOWNNAME":"永康區","LI":"五王里","LIN":"3鄰","STREET":"中華二路","SECT":" ","MAREA":" ","LANE":"２０６巷","ALLEY":" ","HOUSE_NO":"６５號","E_COORD97":171582.39999999999,"N_COORD97":2545636,"ADDRESS":"中華二路２０６巷６５號","OBJECTID":414248},"geometry":{"x":171582.40000000037,"y":2545636.0000000019}},{"attributes":{"ID":414273,"DIS_CODE":0,"TOWNNAME":"永康區","LI":"大橋里","LIN":"3鄰","STREET":"大橋一街","SECT":" ","MAREA":" ","LANE":"１０３巷","ALLEY":" ","HOUSE_NO":"１２７號","E_COORD97":170853.10999999999,"N_COORD97":2546661.96,"ADDRESS":"大橋一街１０３巷１２７號","OBJECTID":414249},"geometry":{"x":170853.11000000127,"y":2546661.9600000009}},{"attributes":{"ID":414274,"DIS_CODE":0,"TOWNNAME":"永康區","LI":"復華里","LIN":"3鄰","STREET":"復國二路","SECT":" ","MAREA":" ","LANE":"３４０巷","ALLEY":" ","HOUSE_NO":"８號","E_COORD97":173051.45000000001,"N_COORD97":2546152.0600000001,"ADDRESS":"復國二路３４０巷８號","OBJECTID":414250},"geometry":{"x":173051.45000000019,"y":2546152.0600000005}},{"attributes":{"ID":414275,"DIS_CODE":0,"TOWNNAME":"永康區","LI":"復華里","LIN":"3鄰","STREET":"復國二路","SECT":" ","MAREA":" ","LANE":"３４０巷","ALLEY":" ","HOUSE_NO":"１７號","E_COORD97":173080.28,"N_COORD97":2546157.1400000001,"ADDRESS":"復國二路３４０巷１７號","OBJECTID":414251},"geometry":{"x":173080.28000000212,"y":2546157.1400000025}},{"attributes":{"ID":414276,"DIS_CODE":0,"TOWNNAME":"永康區","LI":"復國里","LIN":"3鄰","STREET":"復國一路","SECT":" ","MAREA":" ","LANE":"４４巷","ALLEY":" ","HOUSE_NO":"２號","E_COORD97":172740.67000000001,"N_COORD97":2544799.02,"ADDRESS":"復國一路４４巷２號","OBJECTID":414252},"geometry":{"x":172740.67000000086,"y":2544799.0199999996}},{"attributes":{"ID":414277,"DIS_CODE":0,"TOWNNAME":"永康區","LI":"復國里","LIN":"3鄰","STREET":"復國一路","SECT":" ","MAREA":" ","LANE":"４４巷","ALLEY":" ","HOUSE_NO":"１３號","E_COORD97":172763.51000000001,"N_COORD97":2544839.77,"ADDRESS":"復國一路４４巷１３號","OBJECTID":414253},"geometry":{"x":172763.51000000071,"y":2544839.7700000014}},{"attributes":{"ID":414278,"DIS_CODE":0,"TOWNNAME":"仁德區","LI":"仁德里","LIN":"3鄰","STREET":"仁德五街","SECT":" ","MAREA":" ","LANE":"２４巷","ALLEY":" ","HOUSE_NO":"６號","E_COORD97":173389.57999999999,"N_COORD97":2540256.2599999998,"ADDRESS":"仁德五街２４巷６號","OBJECTID":414254},"geometry":{"x":173389.58000000007,"y":2540256.2600000016}},{"attributes":{"ID":414279,"DIS_CODE":0,"TOWNNAME":"東區","LI":"東聖里","LIN":"3鄰","STREET":"富農街","SECT":"二段","MAREA":" ","LANE":"１０９巷","ALLEY":" ","HOUSE_NO":"１３號","E_COORD97":171586.34,"N_COORD97":2543145.7599999998,"ADDRESS":"富農街二段１０９巷１３號","OBJECTID":414255},"geometry":{"x":171586.34000000078,"y":2543145.7600000016}},{"attributes":{"ID":414280,"DIS_CODE":0,"TOWNNAME":"中西區","LI":"三合里","LIN":"13鄰","STREET":"信義街","SECT":" ","MAREA":" ","LANE":"６０巷","ALLEY":" ","HOUSE_NO":"２５號","E_COORD97":167514.12,"N_COORD97":2544572.23,"ADDRESS":"信義街６０巷２５號","OBJECTID":414256},"geometry":{"x":167514.11999999918,"y":2544572.2299999986}},{"attributes":{"ID":414281,"DIS_CODE":0,"TOWNNAME":"中西區","LI":"三合里","LIN":"13鄰","STREET":"信義街","SECT":" ","MAREA":" ","LANE":"６０巷","ALLEY":" ","HOUSE_NO":"３３號","E_COORD97":167509.89000000001,"N_COORD97":2544573.4900000002,"ADDRESS":"信義街６０巷３３號","OBJECTID":414257},"geometry":{"x":167509.88999999966,"y":2544573.4900000002}},{"attributes":{"ID":414282,"DIS_CODE":0,"TOWNNAME":"中西區","LI":"三合里","LIN":"13鄰","STREET":"信義街","SECT":" ","MAREA":" ","LANE":"６０巷","ALLEY":" ","HOUSE_NO":"３７號","E_COORD97":167504.73000000001,"N_COORD97":2544575.52,"ADDRESS":"信義街６０巷３７號","OBJECTID":414258},"geometry":{"x":167504.73000000045,"y":2544575.5199999996}},{"attributes":{"ID":414283,"DIS_CODE":0,"TOWNNAME":"中西區","LI":"三合里","LIN":"13鄰","STREET":"信義街","SECT":" ","MAREA":" ","LANE":"６０巷","ALLEY":" ","HOUSE_NO":"３９號","E_COORD97":167501.29000000001,"N_COORD97":2544577.8599999999,"ADDRESS":"信義街６０巷３９號","OBJECTID":414259},"geometry":{"x":167501.29000000097,"y":2544577.8600000013}},{"attributes":{"ID":414284,"DIS_CODE":0,"TOWNNAME":"東區","LI":"東聖里","LIN":"3鄰","STREET":"富農街","SECT":"二段","MAREA":" ","LANE":"１０９巷","ALLEY":" ","HOUSE_NO":"１７號","E_COORD97":171578.56,"N_COORD97":2543145.5699999998,"ADDRESS":"富農街二段１０９巷１７號","OBJECTID":414260},"geometry":{"x":171578.55999999959,"y":2543145.5700000003}},{"attributes":{"ID":414285,"DIS_CODE":0,"TOWNNAME":"下營區","LI":"茅港里","LIN":"7鄰","STREET":" ","SECT":" ","MAREA":"茅港尾","LANE":" ","ALLEY":" ","HOUSE_NO":"２４３號","E_COORD97":176548.763286,"N_COORD97":2566923.1950900001,"ADDRESS":"茅港尾２４３號","OBJECTID":414261},"geometry":{"x":176548.76328600012,"y":2566923.1950920019}},{"attributes":{"ID":414286,"DIS_CODE":0,"TOWNNAME":"東區","LI":"東聖里","LIN":"3鄰","STREET":"富農街","SECT":"二段","MAREA":" ","LANE":"１０９巷","ALLEY":" ","HOUSE_NO":"３１號","E_COORD97":171551.73999999999,"N_COORD97":2543142.9399999999,"ADDRESS":"富農街二段１０９巷３１號","OBJECTID":414262},"geometry":{"x":171551.74000000115,"y":2543142.9400000013}},{"attributes":{"ID":414287,"DIS_CODE":0,"TOWNNAME":"永康區","LI":"復國里","LIN":"3鄰","STREET":"復國一路","SECT":" ","MAREA":" ","LANE":"４４巷","ALLEY":" ","HOUSE_NO":"５１號","E_COORD97":172822.17000000001,"N_COORD97":2544820.02,"ADDRESS":"復國一路４４巷５１號","OBJECTID":414263},"geometry":{"x":172822.16999999993,"y":2544820.0199999996}},{"attributes":{"ID":414288,"DIS_CODE":0,"TOWNNAME":"永康區","LI":"復國里","LIN":"3鄰","STREET":"復國一路","SECT":" ","MAREA":" ","LANE":"４４巷","ALLEY":" ","HOUSE_NO":"３３號","E_COORD97":172787.19,"N_COORD97":2544835.02,"ADDRESS":"復國一路４４巷３３號","OBJECTID":414264},"geometry":{"x":172787.19000000041,"y":2544835.0200000014}},{"attributes":{"ID":414289,"DIS_CODE":0,"TOWNNAME":"永康區","LI":"復國里","LIN":"3鄰","STREET":"復國一路","SECT":" ","MAREA":" ","LANE":"４４巷","ALLEY":" ","HOUSE_NO":"２５號","E_COORD97":172779.73000000001,"N_COORD97":2544819.1299999999,"ADDRESS":"復國一路４４巷２５號","OBJECTID":414265},"geometry":{"x":172779.73000000138,"y":2544819.1300000027}},{"attributes":{"ID":414290,"DIS_CODE":0,"TOWNNAME":"永康區","LI":"崑山里","LIN":"3鄰","STREET":"永大路","SECT":"一段","MAREA":" ","LANE":"２８７巷","ALLEY":" ","HOUSE_NO":"１２０號","E_COORD97":173697.67999999999,"N_COORD97":2544350.48,"ADDRESS":"永大路一段２８７巷１２０號","OBJECTID":414266},"geometry":{"x":173697.68000000063,"y":2544350.4800000042}},{"attributes":{"ID":414291,"DIS_CODE":0,"TOWNNAME":"東區","LI":"南聖里","LIN":"3鄰","STREET":"裕農路","SECT":" ","MAREA":" ","LANE":"６６８巷","ALLEY":" ","HOUSE_NO":"２６號之３","E_COORD97":171727.82000000001,"N_COORD97":2543124.21,"ADDRESS":"裕農路６６８巷２６號之３","OBJECTID":414267},"geometry":{"x":171727.82000000123,"y":2543124.2100000009}},{"attributes":{"ID":414292,"DIS_CODE":0,"TOWNNAME":"東區","LI":"富強里","LIN":"3鄰","STREET":"中華東路","SECT":"二段","MAREA":" ","LANE":"２２巷","ALLEY":" ","HOUSE_NO":"２５號","E_COORD97":171276.87,"N_COORD97":2543089.3300000001,"ADDRESS":"中華東路二段２２巷２５號","OBJECTID":414268},"geometry":{"x":171276.87000000011,"y":2543089.3300000001}},{"attributes":{"ID":414293,"DIS_CODE":0,"TOWNNAME":"永康區","LI":"崑山里","LIN":"3鄰","STREET":"大灣路","SECT":" ","MAREA":" ","LANE":"８７９巷","ALLEY":" ","HOUSE_NO":"２９號","E_COORD97":173692.63,"N_COORD97":2544375.21,"ADDRESS":"大灣路８７９巷２９號","OBJECTID":414269},"geometry":{"x":173692.62999999989,"y":2544375.2100000009}},{"attributes":{"ID":414294,"DIS_CODE":0,"TOWNNAME":"永康區","LI":"崑山里","LIN":"3鄰","STREET":"大灣路","SECT":" ","MAREA":" ","LANE":"８７９巷","ALLEY":" ","HOUSE_NO":"３５號","E_COORD97":173681.17000000001,"N_COORD97":2544372.71,"ADDRESS":"大灣路８７９巷３５號","OBJECTID":414270},"geometry":{"x":173681.17000000086,"y":2544372.709999999}},{"attributes":{"ID":414295,"DIS_CODE":0,"TOWNNAME":"仁德區","LI":"新田里","LIN":"3鄰","STREET":"新田二街","SECT":" ","MAREA":" ","LANE":"１１６巷","ALLEY":" ","HOUSE_NO":"６７號","E_COORD97":174885.19,"N_COORD97":2539589.5,"ADDRESS":"新田二街１１６巷６７號","OBJECTID":414271},"geometry":{"x":174885.19000000134,"y":2539589.5000000037}},{"attributes":{"ID":414296,"DIS_CODE":0,"TOWNNAME":"仁德區","LI":"新田里","LIN":"3鄰","STREET":"新田二街","SECT":" ","MAREA":" ","LANE":"１１８巷","ALLEY":" ","HOUSE_NO":"７號","E_COORD97":174916.42000000001,"N_COORD97":2539859.9900000002,"ADDRESS":"新田二街１１８巷７號","OBJECTID":414272},"geometry":{"x":174916.41999999899,"y":2539859.9900000002}},{"attributes":{"ID":414297,"DIS_CODE":0,"TOWNNAME":"東區","LI":"東門里","LIN":"3鄰","STREET":"北門路","SECT":"一段","MAREA":" ","LANE":"３０巷","ALLEY":" ","HOUSE_NO":"１０號","E_COORD97":169204.29000000001,"N_COORD97":2543422.2599999998,"ADDRESS":"北門路一段３０巷１０號","OBJECTID":414273},"geometry":{"x":169204.29000000004,"y":2543422.2600000035}},{"attributes":{"ID":414298,"DIS_CODE":0,"TOWNNAME":"東區","LI":"東門里","LIN":"3鄰","STREET":"北門路","SECT":"一段","MAREA":" ","LANE":"３０巷","ALLEY":" ","HOUSE_NO":"１號","E_COORD97":169181.57999999999,"N_COORD97":2543410.8900000001,"ADDRESS":"北門路一段３０巷１號","OBJECTID":414274},"geometry":{"x":169181.58000000101,"y":2543410.8900000006}},{"attributes":{"ID":414299,"DIS_CODE":0,"TOWNNAME":"東區","LI":"東門里","LIN":"3鄰","STREET":"北門路","SECT":"一段","MAREA":" ","LANE":"３０巷","ALLEY":" ","HOUSE_NO":"２號","E_COORD97":169184.54000000001,"N_COORD97":2543408.5899999999,"ADDRESS":"北門路一段３０巷２號","OBJECTID":414275},"geometry":{"x":169184.5400000019,"y":2543408.5899999999}},{"attributes":{"ID":414300,"DIS_CODE":0,"TOWNNAME":"東區","LI":"東門里","LIN":"3鄰","STREET":"北門路","SECT":"一段","MAREA":" ","LANE":"３０巷","ALLEY":" ","HOUSE_NO":"３號","E_COORD97":169189.64999999999,"N_COORD97":2543411.3900000001,"ADDRESS":"北門路一段３０巷３號","OBJECTID":414276},"geometry":{"x":169189.6500000013,"y":2543411.3900000006}},{"attributes":{"ID":414301,"DIS_CODE":0,"TOWNNAME":"東區","LI":"東門里","LIN":"3鄰","STREET":"北門路","SECT":"一段","MAREA":" ","LANE":"３０巷","ALLEY":" ","HOUSE_NO":"４號","E_COORD97":169193.04000000001,"N_COORD97":2543406.8399999999,"ADDRESS":"北門路一段３０巷４號","OBJECTID":414277},"geometry":{"x":169193.04000000097,"y":2543406.8399999999}},{"attributes":{"ID":414302,"DIS_CODE":0,"TOWNNAME":"東區","LI":"東門里","LIN":"3鄰","STREET":"北門路","SECT":"一段","MAREA":" ","LANE":"３０巷","ALLEY":" ","HOUSE_NO":"５號","E_COORD97":169195.92000000001,"N_COORD97":2543404.7000000002,"ADDRESS":"北門路一段３０巷５號","OBJECTID":414278},"geometry":{"x":169195.92000000086,"y":2543404.6999999993}},{"attributes":{"ID":414303,"DIS_CODE":0,"TOWNNAME":"東區","LI":"東門里","LIN":"3鄰","STREET":"北門路","SECT":"一段","MAREA":" ","LANE":"３０巷","ALLEY":" ","HOUSE_NO":"９號","E_COORD97":169198.92000000001,"N_COORD97":2543421.48,"ADDRESS":"北門路一段３０巷９號","OBJECTID":414279},"geometry":{"x":169198.92000000086,"y":2543421.4800000042}},{"attributes":{"ID":414304,"DIS_CODE":0,"TOWNNAME":"中西區","LI":"民權里","LIN":"3鄰","STREET":"民生路","SECT":"二段","MAREA":" ","LANE":"１４４巷","ALLEY":" ","HOUSE_NO":"１５號","E_COORD97":167495.48000000001,"N_COORD97":2544082.75,"ADDRESS":"民生路二段１４４巷１５號","OBJECTID":414280},"geometry":{"x":167495.48000000138,"y":2544082.75}},{"attributes":{"ID":414305,"DIS_CODE":0,"TOWNNAME":"中西區","LI":"民權里","LIN":"3鄰","STREET":"民生路","SECT":"二段","MAREA":" ","LANE":"１４４巷","ALLEY":" ","HOUSE_NO":"１７號","E_COORD97":167493.22,"N_COORD97":2544088.3100000001,"ADDRESS":"民生路二段１４４巷１７號","OBJECTID":414281},"geometry":{"x":167493.22000000067,"y":2544088.3100000024}},{"attributes":{"ID":414306,"DIS_CODE":0,"TOWNNAME":"中西區","LI":"民權里","LIN":"3鄰","STREET":"民生路","SECT":"二段","MAREA":" ","LANE":"１４４巷","ALLEY":" ","HOUSE_NO":"２３號","E_COORD97":167499.85999999999,"N_COORD97":2544104.1200000001,"ADDRESS":"民生路二段１４４巷２３號","OBJECTID":414282},"geometry":{"x":167499.86000000127,"y":2544104.1200000029}},{"attributes":{"ID":414307,"DIS_CODE":0,"TOWNNAME":"中西區","LI":"協和里","LIN":"3鄰","STREET":"民族路","SECT":"三段","MAREA":" ","LANE":"２２２巷","ALLEY":" ","HOUSE_NO":"３４號","E_COORD97":167316.29000000001,"N_COORD97":2544528.25,"ADDRESS":"民族路三段２２２巷３４號","OBJECTID":414283},"geometry":{"x":167316.2900000019,"y":2544528.2500000019}},{"attributes":{"ID":414308,"DIS_CODE":0,"TOWNNAME":"中西區","LI":"協和里","LIN":"3鄰","STREET":"民族路","SECT":"三段","MAREA":" ","LANE":"２２２巷","ALLEY":" ","HOUSE_NO":"３６號","E_COORD97":167311.70000000001,"N_COORD97":2544530.7200000002,"ADDRESS":"民族路三段２２２巷３６號","OBJECTID":414284},"geometry":{"x":167311.70000000019,"y":2544530.7200000007}},{"attributes":{"ID":414309,"DIS_CODE":0,"TOWNNAME":"中西區","LI":"協和里","LIN":"3鄰","STREET":"民族路","SECT":"三段","MAREA":" ","LANE":"２２２巷","ALLEY":" ","HOUSE_NO":"３８號","E_COORD97":167308.17000000001,"N_COORD97":2544532.48,"ADDRESS":"民族路三段２２２巷３８號","OBJECTID":414285},"geometry":{"x":167308.16999999993,"y":2544532.4800000004}},{"attributes":{"ID":414310,"DIS_CODE":0,"TOWNNAME":"中西區","LI":"協和里","LIN":"3鄰","STREET":"民族路","SECT":"三段","MAREA":" ","LANE":"２２２巷","ALLEY":" ","HOUSE_NO":"４０號","E_COORD97":167303.23000000001,"N_COORD97":2544534.4199999999,"ADDRESS":"民族路三段２２２巷４０號","OBJECTID":414286},"geometry":{"x":167303.23000000045,"y":2544534.4200000018}},{"attributes":{"ID":414311,"DIS_CODE":0,"TOWNNAME":"中西區","LI":"協和里","LIN":"3鄰","STREET":"民族路","SECT":"三段","MAREA":" ","LANE":"２２２巷","ALLEY":" ","HOUSE_NO":"４２號","E_COORD97":167298.98999999999,"N_COORD97":2544535.8300000001,"ADDRESS":"民族路三段２２２巷４２號","OBJECTID":414287},"geometry":{"x":167298.99000000115,"y":2544535.8300000001}},{"attributes":{"ID":414312,"DIS_CODE":0,"TOWNNAME":"中西區","LI":"協和里","LIN":"3鄰","STREET":"民族路","SECT":"三段","MAREA":" ","LANE":"２２２巷","ALLEY":" ","HOUSE_NO":"４４號","E_COORD97":167293.87,"N_COORD97":2544538.1299999999,"ADDRESS":"民族路三段２２２巷４４號","OBJECTID":414288},"geometry":{"x":167293.87000000197,"y":2544538.1300000008}},{"attributes":{"ID":414313,"DIS_CODE":0,"TOWNNAME":"中西區","LI":"協和里","LIN":"3鄰","STREET":"民族路","SECT":"三段","MAREA":" ","LANE":"２２２巷","ALLEY":" ","HOUSE_NO":"４６號","E_COORD97":167289.98999999999,"N_COORD97":2544540.2400000002,"ADDRESS":"民族路三段２２２巷４６號","OBJECTID":414289},"geometry":{"x":167289.99000000115,"y":2544540.2400000002}},{"attributes":{"ID":414314,"DIS_CODE":0,"TOWNNAME":"中西區","LI":"協和里","LIN":"3鄰","STREET":"民族路","SECT":"三段","MAREA":" ","LANE":"２２２巷","ALLEY":" ","HOUSE_NO":"６號","E_COORD97":167390.85999999999,"N_COORD97":2544497.1600000001,"ADDRESS":"民族路三段２２２巷６號","OBJECTID":414290},"geometry":{"x":167390.8600000022,"y":2544497.1600000001}},{"attributes":{"ID":414315,"DIS_CODE":0,"TOWNNAME":"中西區","LI":"協和里","LIN":"3鄰","STREET":"民族路","SECT":"三段","MAREA":" ","LANE":"２２２巷","ALLEY":" ","HOUSE_NO":"８號","E_COORD97":167379.56,"N_COORD97":2544501.21,"ADDRESS":"民族路三段２２２巷８號","OBJECTID":414291},"geometry":{"x":167379.55999999959,"y":2544501.2100000009}},{"attributes":{"ID":414316,"DIS_CODE":0,"TOWNNAME":"東區","LI":"和平里","LIN":"3鄰","STREET":"東門路","SECT":"三段","MAREA":" ","LANE":"２２６巷","ALLEY":" ","HOUSE_NO":"４８號","E_COORD97":171494.23999999999,"N_COORD97":2541876.27,"ADDRESS":"東門路三段２２６巷４８號","OBJECTID":414292},"geometry":{"x":171494.24000000115,"y":2541876.2700000014}},{"attributes":{"ID":414317,"DIS_CODE":0,"TOWNNAME":"東區","LI":"中西里","LIN":"3鄰","STREET":"東門路","SECT":"一段","MAREA":" ","LANE":"２６７巷","ALLEY":" ","HOUSE_NO":"２號","E_COORD97":169851.54000000001,"N_COORD97":2543070.0600000001,"ADDRESS":"東門路一段２６７巷２號","OBJECTID":414293},"geometry":{"x":169851.54000000004,"y":2543070.0600000005}},{"attributes":{"ID":414318,"DIS_CODE":0,"TOWNNAME":"東區","LI":"和平里","LIN":"3鄰","STREET":"東門路","SECT":"三段","MAREA":" ","LANE":"２２６巷","ALLEY":" ","HOUSE_NO":"４號","E_COORD97":171504.82999999999,"N_COORD97":2541950.0699999998,"ADDRESS":"東門路三段２２６巷４號","OBJECTID":414294},"geometry":{"x":171504.83000000194,"y":2541950.0700000022}},{"attributes":{"ID":414319,"DIS_CODE":0,"TOWNNAME":"東區","LI":"和平里","LIN":"3鄰","STREET":"東門路","SECT":"三段","MAREA":" ","LANE":"２２６巷","ALLEY":" ","HOUSE_NO":"１０號","E_COORD97":171505.04999999999,"N_COORD97":2541934.52,"ADDRESS":"東門路三段２２６巷１０號","OBJECTID":414295},"geometry":{"x":171505.05000000075,"y":2541934.5199999996}},{"attributes":{"ID":414320,"DIS_CODE":0,"TOWNNAME":"永康區","LI":"龍潭里","LIN":"3鄰","STREET":"龍國街","SECT":" ","MAREA":" ","LANE":"２９１巷","ALLEY":" ","HOUSE_NO":"３６號","E_COORD97":174647.85999999999,"N_COORD97":2548105.1899999999,"ADDRESS":"龍國街２９１巷３６號","OBJECTID":414296},"geometry":{"x":174647.8600000022,"y":2548105.1900000013}},{"attributes":{"ID":414321,"DIS_CODE":0,"TOWNNAME":"永康區","LI":"新樹里","LIN":"3鄰","STREET":"中山北路","SECT":" ","MAREA":" ","LANE":"７６２巷","ALLEY":" ","HOUSE_NO":"８號","E_COORD97":176245.09,"N_COORD97":2547822.0699999998,"ADDRESS":"中山北路７６２巷８號","OBJECTID":414297},"geometry":{"x":176245.09000000078,"y":2547822.0700000022}},{"attributes":{"ID":414322,"DIS_CODE":0,"TOWNNAME":"永康區","LI":"新樹里","LIN":"3鄰","STREET":"富強路","SECT":"二段","MAREA":" ","LANE":"３９８巷","ALLEY":" ","HOUSE_NO":"１號","E_COORD97":175635.92999999999,"N_COORD97":2547707.7999999998,"ADDRESS":"富強路二段３９８巷１號","OBJECTID":414298},"geometry":{"x":175635.9299999997,"y":2547707.8000000007}},{"attributes":{"ID":414323,"DIS_CODE":0,"TOWNNAME":"永康區","LI":"龍潭里","LIN":"3鄰","STREET":"龍國街","SECT":" ","MAREA":" ","LANE":"２９１巷","ALLEY":" ","HOUSE_NO":"１２號","E_COORD97":174642.88,"N_COORD97":2548060.1000000001,"ADDRESS":"龍國街２９１巷１２號","OBJECTID":414299},"geometry":{"x":174642.88000000082,"y":2548060.0999999996}},{"attributes":{"ID":414324,"DIS_CODE":0,"TOWNNAME":"永康區","LI":"龍潭里","LIN":"3鄰","STREET":"龍國街","SECT":" ","MAREA":" ","LANE":"２９１巷","ALLEY":" ","HOUSE_NO":"１０號","E_COORD97":174642.26999999999,"N_COORD97":2548056.1000000001,"ADDRESS":"龍國街２９１巷１０號","OBJECTID":414300},"geometry":{"x":174642.26999999955,"y":2548056.0999999996}},{"attributes":{"ID":414325,"DIS_CODE":0,"TOWNNAME":"永康區","LI":"復興里","LIN":"3鄰","STREET":"復興路","SECT":" ","MAREA":" ","LANE":"２７７巷","ALLEY":" ","HOUSE_NO":"２２８號","E_COORD97":172402.69,"N_COORD97":2543728.7599999998,"ADDRESS":"復興路２７７巷２２８號","OBJECTID":414301},"geometry":{"x":172402.69000000041,"y":2543728.7600000016}},{"attributes":{"ID":414326,"DIS_CODE":0,"TOWNNAME":"永康區","LI":"復興里","LIN":"3鄰","STREET":"復興路","SECT":" ","MAREA":" ","LANE":"２７７巷","ALLEY":" ","HOUSE_NO":"２０６號之５","E_COORD97":172346.48999999999,"N_COORD97":2543805.79,"ADDRESS":"復興路２７７巷２０６號之５","OBJECTID":414302},"geometry":{"x":172346.49000000209,"y":2543805.790000001}},{"attributes":{"ID":414327,"DIS_CODE":0,"TOWNNAME":"永康區","LI":"復興里","LIN":"3鄰","STREET":"復興路","SECT":" ","MAREA":" ","LANE":"２７７巷","ALLEY":" ","HOUSE_NO":"２００號","E_COORD97":172387.37,"N_COORD97":2543855,"ADDRESS":"復興路２７７巷２００號","OBJECTID":414303},"geometry":{"x":172387.37000000011,"y":2543855.0000000037}},{"attributes":{"ID":414328,"DIS_CODE":0,"TOWNNAME":"永康區","LI":"復興里","LIN":"3鄰","STREET":"復興路","SECT":" ","MAREA":" ","LANE":"２７７巷","ALLEY":" ","HOUSE_NO":"８２號","E_COORD97":172354.09,"N_COORD97":2544087.52,"ADDRESS":"復興路２７７巷８２號","OBJECTID":414304},"geometry":{"x":172354.09000000078,"y":2544087.5199999996}},{"attributes":{"ID":414329,"DIS_CODE":0,"TOWNNAME":"中西區","LI":"天后里","LIN":"3鄰","STREET":"永福路","SECT":"二段","MAREA":" ","LANE":"２２７巷","ALLEY":" ","HOUSE_NO":"２９號","E_COORD97":168129.82999999999,"N_COORD97":2544115.46,"ADDRESS":"永福路二段２２７巷２９號","OBJECTID":414305},"geometry":{"x":168129.83000000194,"y":2544115.4600000009}},{"attributes":{"ID":414330,"DIS_CODE":0,"TOWNNAME":"中西區","LI":"天后里","LIN":"3鄰","STREET":"永福路","SECT":"二段","MAREA":" ","LANE":"２２７巷","ALLEY":" ","HOUSE_NO":"３１號","E_COORD97":168126.29999999999,"N_COORD97":2544116.7400000002,"ADDRESS":"永福路二段２２７巷３１號","OBJECTID":414306},"geometry":{"x":168126.30000000168,"y":2544116.7400000002}},{"attributes":{"ID":414331,"DIS_CODE":0,"TOWNNAME":"中西區","LI":"天后里","LIN":"3鄰","STREET":"永福路","SECT":"二段","MAREA":" ","LANE":"２２７巷","ALLEY":" ","HOUSE_NO":"３３號","E_COORD97":168122.60999999999,"N_COORD97":2544118.8199999998,"ADDRESS":"永福路二段２２７巷３３號","OBJECTID":414307},"geometry":{"x":168122.61000000034,"y":2544118.8200000022}},{"attributes":{"ID":414332,"DIS_CODE":0,"TOWNNAME":"中西區","LI":"天后里","LIN":"3鄰","STREET":"永福路","SECT":"二段","MAREA":" ","LANE":"２２７巷","ALLEY":" ","HOUSE_NO":"３５號","E_COORD97":168120.20000000001,"N_COORD97":2544122.9900000002,"ADDRESS":"永福路二段２２７巷３５號","OBJECTID":414308},"geometry":{"x":168120.20000000019,"y":2544122.9900000039}},{"attributes":{"ID":414333,"DIS_CODE":0,"TOWNNAME":"中西區","LI":"天后里","LIN":"3鄰","STREET":"永福路","SECT":"二段","MAREA":" ","LANE":"２２７巷","ALLEY":" ","HOUSE_NO":"３７號","E_COORD97":168118.26999999999,"N_COORD97":2544107.8199999998,"ADDRESS":"永福路二段２２７巷３７號","OBJECTID":414309},"geometry":{"x":168118.27000000048,"y":2544107.8200000022}},{"attributes":{"ID":414334,"DIS_CODE":0,"TOWNNAME":"中西區","LI":"天后里","LIN":"3鄰","STREET":"永福路","SECT":"二段","MAREA":" ","LANE":"２２７巷","ALLEY":" ","HOUSE_NO":"３９號","E_COORD97":168112.45999999999,"N_COORD97":2544105.79,"ADDRESS":"永福路二段２２７巷３９號","OBJECTID":414310},"geometry":{"x":168112.46000000089,"y":2544105.7899999991}},{"attributes":{"ID":414335,"DIS_CODE":0,"TOWNNAME":"中西區","LI":"天后里","LIN":"3鄰","STREET":"永福路","SECT":"二段","MAREA":" ","LANE":"２２７巷","ALLEY":" ","HOUSE_NO":"４３號","E_COORD97":168108.89999999999,"N_COORD97":2544096.77,"ADDRESS":"永福路二段２２７巷４３號","OBJECTID":414311},"geometry":{"x":168108.90000000037,"y":2544096.7700000033}},{"attributes":{"ID":414336,"DIS_CODE":0,"TOWNNAME":"中西區","LI":"天后里","LIN":"3鄰","STREET":"永福路","SECT":"二段","MAREA":" ","LANE":"２２７巷","ALLEY":" ","HOUSE_NO":"４５號","E_COORD97":168120.06,"N_COORD97":2544090.6099999999,"ADDRESS":"永福路二段２２７巷４５號","OBJECTID":414312},"geometry":{"x":168120.06000000052,"y":2544090.6100000031}},{"attributes":{"ID":414337,"DIS_CODE":0,"TOWNNAME":"中西區","LI":"天后里","LIN":"3鄰","STREET":"永福路","SECT":"二段","MAREA":" ","LANE":"２２７巷","ALLEY":" ","HOUSE_NO":"４７號","E_COORD97":168110.57000000001,"N_COORD97":2544118.6600000001,"ADDRESS":"永福路二段２２７巷４７號","OBJECTID":414313},"geometry":{"x":168110.57000000123,"y":2544118.660000002}},{"attributes":{"ID":414338,"DIS_CODE":0,"TOWNNAME":"中西區","LI":"天后里","LIN":"3鄰","STREET":"永福路","SECT":"二段","MAREA":" ","LANE":"２２７巷","ALLEY":" ","HOUSE_NO":"４９號","E_COORD97":168106.72,"N_COORD97":2544121.0699999998,"ADDRESS":"永福路二段２２７巷４９號","OBJECTID":414314},"geometry":{"x":168106.72000000067,"y":2544121.0700000003}},{"attributes":{"ID":414339,"DIS_CODE":0,"TOWNNAME":"中西區","LI":"天后里","LIN":"3鄰","STREET":"永福路","SECT":"二段","MAREA":" ","LANE":"２２７巷","ALLEY":" ","HOUSE_NO":"５１號","E_COORD97":168102.39000000001,"N_COORD97":2544122.1899999999,"ADDRESS":"永福路二段２２７巷５１號","OBJECTID":414315},"geometry":{"x":168102.3900000006,"y":2544122.1900000013}},{"attributes":{"ID":414340,"DIS_CODE":0,"TOWNNAME":"中西區","LI":"天后里","LIN":"3鄰","STREET":"永福路","SECT":"二段","MAREA":" ","LANE":"２２７巷","ALLEY":" ","HOUSE_NO":"５３號","E_COORD97":168098.06,"N_COORD97":2544123.96,"ADDRESS":"永福路二段２２７巷５３號","OBJECTID":414316},"geometry":{"x":168098.05999999959,"y":2544123.9600000046}},{"attributes":{"ID":414341,"DIS_CODE":0,"TOWNNAME":"中西區","LI":"天后里","LIN":"3鄰","STREET":"永福路","SECT":"二段","MAREA":" ","LANE":"２２７巷","ALLEY":" ","HOUSE_NO":"５５號","E_COORD97":168094.53,"N_COORD97":2544125.8799999999,"ADDRESS":"永福路二段２２７巷５５號","OBJECTID":414317},"geometry":{"x":168094.53000000026,"y":2544125.8800000027}},{"attributes":{"ID":414342,"DIS_CODE":0,"TOWNNAME":"安南區","LI":"安慶里","LIN":"3鄰","STREET":"長溪路","SECT":"一段","MAREA":" ","LANE":"１６８巷","ALLEY":" ","HOUSE_NO":"１１５號","E_COORD97":169050.79999999999,"N_COORD97":2548817.9100000001,"ADDRESS":"長溪路一段１６８巷１１５號","OBJECTID":414318},"geometry":{"x":169050.80000000075,"y":2548817.9100000001}},{"attributes":{"ID":414343,"DIS_CODE":0,"TOWNNAME":"安南區","LI":"州北里","LIN":"3鄰","STREET":"安和路","SECT":"五段","MAREA":" ","LANE":"１７１巷","ALLEY":" ","HOUSE_NO":"１３５號之１","E_COORD97":169638.54999999999,"N_COORD97":2551662.9199999999,"ADDRESS":"安和路五段１７１巷１３５號之１","OBJECTID":414319},"geometry":{"x":169638.55000000168,"y":2551662.9199999999}},{"attributes":{"ID":414344,"DIS_CODE":0,"TOWNNAME":"安南區","LI":"州北里","LIN":"3鄰","STREET":"安和路","SECT":"五段","MAREA":" ","LANE":"１７１巷","ALLEY":" ","HOUSE_NO":"１４５號","E_COORD97":169629.20000000001,"N_COORD97":2551648.6099999999,"ADDRESS":"安和路五段１７１巷１４５號","OBJECTID":414320},"geometry":{"x":169629.19999999925,"y":2551648.6100000013}},{"attributes":{"ID":414345,"DIS_CODE":0,"TOWNNAME":"安南區","LI":"州北里","LIN":"3鄰","STREET":"安和路","SECT":"五段","MAREA":" ","LANE":"１７１巷","ALLEY":" ","HOUSE_NO":"１４７號","E_COORD97":169626.63,"N_COORD97":2551645.1099999999,"ADDRESS":"安和路五段１７１巷１４７號","OBJECTID":414321},"geometry":{"x":169626.63000000082,"y":2551645.1100000013}},{"attributes":{"ID":414346,"DIS_CODE":0,"TOWNNAME":"安南區","LI":"州北里","LIN":"3鄰","STREET":"安和路","SECT":"五段","MAREA":" ","LANE":"１７１巷","ALLEY":" ","HOUSE_NO":"１７５號","E_COORD97":169639.97,"N_COORD97":2551606.1800000002,"ADDRESS":"安和路五段１７１巷１７５號","OBJECTID":414322},"geometry":{"x":169639.96999999974,"y":2551606.1799999997}},{"attributes":{"ID":414347,"DIS_CODE":0,"TOWNNAME":"安南區","LI":"州北里","LIN":"3鄰","STREET":"安和路","SECT":"五段","MAREA":" ","LANE":"１７１巷","ALLEY":" ","HOUSE_NO":"１３７號","E_COORD97":169655.60000000001,"N_COORD97":2551653.2000000002,"ADDRESS":"安和路五段１７１巷１３７號","OBJECTID":414323},"geometry":{"x":169655.60000000056,"y":2551653.1999999993}},{"attributes":{"ID":414348,"DIS_CODE":0,"TOWNNAME":"安南區","LI":"城北里","LIN":"3鄰","STREET":"城北路","SECT":" ","MAREA":" ","LANE":"９８巷","ALLEY":" ","HOUSE_NO":"１６號","E_COORD97":161047.75,"N_COORD97":2551566.4700000002,"ADDRESS":"城北路９８巷１６號","OBJECTID":414324},"geometry":{"x":161047.75000000186,"y":2551566.4700000025}},{"attributes":{"ID":414349,"DIS_CODE":0,"TOWNNAME":"安南區","LI":"城北里","LIN":"3鄰","STREET":"城北路","SECT":" ","MAREA":" ","LANE":"９８巷","ALLEY":" ","HOUSE_NO":"２６號","E_COORD97":161070.20999999999,"N_COORD97":2551563.77,"ADDRESS":"城北路９８巷２６號","OBJECTID":414325},"geometry":{"x":161070.21000000089,"y":2551563.7700000014}},{"attributes":{"ID":414350,"DIS_CODE":0,"TOWNNAME":"安南區","LI":"城北里","LIN":"3鄰","STREET":"城北路","SECT":" ","MAREA":" ","LANE":"９８巷","ALLEY":" ","HOUSE_NO":"３２號","E_COORD97":161087.16,"N_COORD97":2551564.2000000002,"ADDRESS":"城北路９８巷３２號","OBJECTID":414326},"geometry":{"x":161087.16000000015,"y":2551564.1999999993}},{"attributes":{"ID":414351,"DIS_CODE":0,"TOWNNAME":"安南區","LI":"城北里","LIN":"3鄰","STREET":"城北路","SECT":" ","MAREA":" ","LANE":"９８巷","ALLEY":" ","HOUSE_NO":"３４號","E_COORD97":161077.04000000001,"N_COORD97":2551541.6699999999,"ADDRESS":"城北路９８巷３４號","OBJECTID":414327},"geometry":{"x":161077.04000000097,"y":2551541.6699999999}},{"attributes":{"ID":414352,"DIS_CODE":0,"TOWNNAME":"安南區","LI":"城北里","LIN":"3鄰","STREET":"城北路","SECT":" ","MAREA":" ","LANE":"９８巷","ALLEY":" ","HOUSE_NO":"３６號","E_COORD97":161077.97,"N_COORD97":2551536.23,"ADDRESS":"城北路９８巷３６號","OBJECTID":414328},"geometry":{"x":161077.96999999974,"y":2551536.2300000042}},{"attributes":{"ID":414353,"DIS_CODE":0,"TOWNNAME":"安南區","LI":"城東里","LIN":"3鄰","STREET":"城北路","SECT":" ","MAREA":" ","LANE":"１７２巷","ALLEY":" ","HOUSE_NO":"３號","E_COORD97":161013.85000000001,"N_COORD97":2551774.2599999998,"ADDRESS":"城北路１７２巷３號","OBJECTID":414329},"geometry":{"x":161013.84999999963,"y":2551774.2600000016}},{"attributes":{"ID":414354,"DIS_CODE":0,"TOWNNAME":"安南區","LI":"城東里","LIN":"3鄰","STREET":"城北路","SECT":" ","MAREA":" ","LANE":"１７２巷","ALLEY":" ","HOUSE_NO":"５號","E_COORD97":161022.81,"N_COORD97":2551773.6699999999,"ADDRESS":"城北路１７２巷５號","OBJECTID":414330},"geometry":{"x":161022.80999999959,"y":2551773.6700000037}},{"attributes":{"ID":414355,"DIS_CODE":0,"TOWNNAME":"安南區","LI":"頂安里","LIN":"3鄰","STREET":"怡安路","SECT":"一段","MAREA":" ","LANE":"３８５巷","ALLEY":" ","HOUSE_NO":"４７號","E_COORD97":168714.76000000001,"N_COORD97":2549021.77,"ADDRESS":"怡安路一段３８５巷４７號","OBJECTID":414331},"geometry":{"x":168714.76000000164,"y":2549021.7699999996}},{"attributes":{"ID":414356,"DIS_CODE":0,"TOWNNAME":"安南區","LI":"南興里","LIN":"3鄰","STREET":"安興街","SECT":" ","MAREA":" ","LANE":"３６５巷","ALLEY":" ","HOUSE_NO":"１２號","E_COORD97":163764.64000000001,"N_COORD97":2552281.48,"ADDRESS":"安興街３６５巷１２號","OBJECTID":414332},"geometry":{"x":163764.6400000006,"y":2552281.4800000023}},{"attributes":{"ID":414357,"DIS_CODE":0,"TOWNNAME":"安南區","LI":"溪東里","LIN":"3鄰","STREET":"府安路","SECT":"五段","MAREA":" ","LANE":"１１９巷","ALLEY":" ","HOUSE_NO":"１０號","E_COORD97":167984.45000000001,"N_COORD97":2547147.6699999999,"ADDRESS":"府安路五段１１９巷１０號","OBJECTID":414333},"geometry":{"x":167984.45000000019,"y":2547147.6699999999}},{"attributes":{"ID":414358,"DIS_CODE":0,"TOWNNAME":"安南區","LI":"溪東里","LIN":"3鄰","STREET":"府安路","SECT":"五段","MAREA":" ","LANE":"１１９巷","ALLEY":" ","HOUSE_NO":"６號","E_COORD97":167985.73000000001,"N_COORD97":2547135.0600000001,"ADDRESS":"府安路五段１１９巷６號","OBJECTID":414334},"geometry":{"x":167985.73000000138,"y":2547135.0600000024}},{"attributes":{"ID":414359,"DIS_CODE":0,"TOWNNAME":"安南區","LI":"溪東里","LIN":"3鄰","STREET":"府安路","SECT":"五段","MAREA":" ","LANE":"１１９巷","ALLEY":" ","HOUSE_NO":"８號","E_COORD97":167985.26999999999,"N_COORD97":2547141.1000000001,"ADDRESS":"府安路五段１１９巷８號","OBJECTID":414335},"geometry":{"x":167985.26999999955,"y":2547141.0999999996}},{"attributes":{"ID":414360,"DIS_CODE":0,"TOWNNAME":"安南區","LI":"溪東里","LIN":"3鄰","STREET":"府安路","SECT":"五段","MAREA":" ","LANE":"１１９巷","ALLEY":" ","HOUSE_NO":"３２號","E_COORD97":167971.31,"N_COORD97":2547215.2799999998,"ADDRESS":"府安路五段１１９巷３２號","OBJECTID":414336},"geometry":{"x":167971.30999999959,"y":2547215.2800000031}},{"attributes":{"ID":414361,"DIS_CODE":0,"TOWNNAME":"安南區","LI":"溪東里","LIN":"3鄰","STREET":"府安路","SECT":"五段","MAREA":" ","LANE":"１１９巷","ALLEY":" ","HOUSE_NO":"２２號","E_COORD97":167976.45000000001,"N_COORD97":2547183.6400000001,"ADDRESS":"府安路五段１１９巷２２號","OBJECTID":414337},"geometry":{"x":167976.45000000205,"y":2547183.6400000043}},{"attributes":{"ID":414362,"DIS_CODE":0,"TOWNNAME":"安南區","LI":"溪東里","LIN":"3鄰","STREET":"府安路","SECT":"五段","MAREA":" ","LANE":"１１９巷","ALLEY":" ","HOUSE_NO":"５４號","E_COORD97":167957.23999999999,"N_COORD97":2547281.4700000002,"ADDRESS":"府安路五段１１９巷５４號","OBJECTID":414338},"geometry":{"x":167957.24000000022,"y":2547281.4700000025}},{"attributes":{"ID":414363,"DIS_CODE":0,"TOWNNAME":"安南區","LI":"溪東里","LIN":"3鄰","STREET":"府安路","SECT":"五段","MAREA":" ","LANE":"１１９巷","ALLEY":" ","HOUSE_NO":"５６號","E_COORD97":167956.32000000001,"N_COORD97":2547286.8199999998,"ADDRESS":"府安路五段１１９巷５６號","OBJECTID":414339},"geometry":{"x":167956.32000000123,"y":2547286.8200000003}},{"attributes":{"ID":414364,"DIS_CODE":0,"TOWNNAME":"中西區","LI":"光賢里","LIN":"3鄰","STREET":"武聖路","SECT":" ","MAREA":" ","LANE":"２７巷","ALLEY":" ","HOUSE_NO":"１９號","E_COORD97":167205.76999999999,"N_COORD97":2544967.79,"ADDRESS":"武聖路２７巷１９號","OBJECTID":414340},"geometry":{"x":167205.77000000142,"y":2544967.790000001}},{"attributes":{"ID":414365,"DIS_CODE":0,"TOWNNAME":"中西區","LI":"光賢里","LIN":"3鄰","STREET":"武聖路","SECT":" ","MAREA":" ","LANE":"２７巷","ALLEY":" ","HOUSE_NO":"２２號","E_COORD97":167194.98000000001,"N_COORD97":2544978.3700000001,"ADDRESS":"武聖路２７巷２２號","OBJECTID":414341},"geometry":{"x":167194.97999999952,"y":2544978.370000001}},{"attributes":{"ID":414366,"DIS_CODE":0,"TOWNNAME":"中西區","LI":"西湖里","LIN":"3鄰","STREET":"頂美二街","SECT":" ","MAREA":" ","LANE":"７２巷","ALLEY":" ","HOUSE_NO":"１９號","E_COORD97":166462.67000000001,"N_COORD97":2544650.77,"ADDRESS":"頂美二街７２巷１９號","OBJECTID":414342},"geometry":{"x":166462.67000000179,"y":2544650.7700000014}},{"attributes":{"ID":414367,"DIS_CODE":0,"TOWNNAME":"中西區","LI":"西湖里","LIN":"3鄰","STREET":"頂美二街","SECT":" ","MAREA":" ","LANE":"７２巷","ALLEY":" ","HOUSE_NO":"２１號","E_COORD97":166467.25,"N_COORD97":2544650.52,"ADDRESS":"頂美二街７２巷２１號","OBJECTID":414343},"geometry":{"x":166467.25000000186,"y":2544650.5199999996}},{"attributes":{"ID":414368,"DIS_CODE":0,"TOWNNAME":"仁德區","LI":"仁義里","LIN":"3鄰","STREET":"仁義四街","SECT":" ","MAREA":" ","LANE":"８２巷","ALLEY":" ","HOUSE_NO":"１號","E_COORD97":173916.22,"N_COORD97":2541051.52,"ADDRESS":"仁義四街８２巷１號","OBJECTID":414344},"geometry":{"x":173916.22000000067,"y":2541051.5200000014}},{"attributes":{"ID":414369,"DIS_CODE":0,"TOWNNAME":"仁德區","LI":"大甲里","LIN":"3鄰","STREET":"行大一街","SECT":" ","MAREA":" ","LANE":"７０巷","ALLEY":" ","HOUSE_NO":"６８號","E_COORD97":169915.88,"N_COORD97":2535050.25,"ADDRESS":"行大一街７０巷６８號","OBJECTID":414345},"geometry":{"x":169915.87999999896,"y":2535050.25}},{"attributes":{"ID":414370,"DIS_CODE":0,"TOWNNAME":"仁德區","LI":"大甲里","LIN":"3鄰","STREET":"行大街","SECT":" ","MAREA":" ","LANE":"２７１巷","ALLEY":" ","HOUSE_NO":"９號","E_COORD97":169788.84,"N_COORD97":2535094.4900000002,"ADDRESS":"行大街２７１巷９號","OBJECTID":414346},"geometry":{"x":169788.83999999985,"y":2535094.4900000039}},{"attributes":{"ID":414371,"DIS_CODE":0,"TOWNNAME":"仁德區","LI":"仁義里","LIN":"3鄰","STREET":"仁義二街","SECT":" ","MAREA":" ","LANE":"７０巷","ALLEY":" ","HOUSE_NO":"２號","E_COORD97":173883.48000000001,"N_COORD97":2541175.5099999998,"ADDRESS":"仁義二街７０巷２號","OBJECTID":414347},"geometry":{"x":173883.48000000045,"y":2541175.5099999998}},{"attributes":{"ID":414372,"DIS_CODE":0,"TOWNNAME":"仁德區","LI":"大甲里","LIN":"3鄰","STREET":"行大一街","SECT":" ","MAREA":" ","LANE":"７０巷","ALLEY":" ","HOUSE_NO":"６５號","E_COORD97":169915.14999999999,"N_COORD97":2535034.5,"ADDRESS":"行大一街７０巷６５號","OBJECTID":414348},"geometry":{"x":169915.1500000013,"y":2535034.5000000019}},{"attributes":{"ID":414373,"DIS_CODE":0,"TOWNNAME":"仁德區","LI":"仁義里","LIN":"3鄰","STREET":"仁義三街","SECT":" ","MAREA":" ","LANE":"２０５巷","ALLEY":" ","HOUSE_NO":"１２號","E_COORD97":173891.5,"N_COORD97":2541157.02,"ADDRESS":"仁義三街２０５巷１２號","OBJECTID":414349},"geometry":{"x":173891.5,"y":2541157.0200000014}},{"attributes":{"ID":414374,"DIS_CODE":0,"TOWNNAME":"仁德區","LI":"大甲里","LIN":"3鄰","STREET":"行大一街","SECT":" ","MAREA":" ","LANE":"７０巷","ALLEY":" ","HOUSE_NO":"５７號","E_COORD97":169934.04000000001,"N_COORD97":2535036.25,"ADDRESS":"行大一街７０巷５７號","OBJECTID":414350},"geometry":{"x":169934.04000000097,"y":2535036.2500000019}},{"attributes":{"ID":414375,"DIS_CODE":0,"TOWNNAME":"仁德區","LI":"仁義里","LIN":"3鄰","STREET":"仁義三街","SECT":" ","MAREA":" ","LANE":"２４３巷","ALLEY":" ","HOUSE_NO":"７號","E_COORD97":173962.26000000001,"N_COORD97":2541151.52,"ADDRESS":"仁義三街２４３巷７號","OBJECTID":414351},"geometry":{"x":173962.25999999978,"y":2541151.5199999996}},{"attributes":{"ID":414376,"DIS_CODE":0,"TOWNNAME":"仁德區","LI":"大甲里","LIN":"3鄰","STREET":"行大一街","SECT":" ","MAREA":" ","LANE":"７０巷","ALLEY":" ","HOUSE_NO":"６９號","E_COORD97":169906.95000000001,"N_COORD97":2535040,"ADDRESS":"行大一街７０巷６９號","OBJECTID":414352},"geometry":{"x":169906.95000000019,"y":2535040.0000000037}},{"attributes":{"ID":414377,"DIS_CODE":0,"TOWNNAME":"仁德區","LI":"田厝里","LIN":"3鄰","STREET":"田厝三街","SECT":" ","MAREA":" ","LANE":"９８巷","ALLEY":" ","HOUSE_NO":"３號","E_COORD97":172663.20000000001,"N_COORD97":2537447.9900000002,"ADDRESS":"田厝三街９８巷３號","OBJECTID":414353},"geometry":{"x":172663.20000000019,"y":2537447.9900000021}},{"attributes":{"ID":414378,"DIS_CODE":0,"TOWNNAME":"仁德區","LI":"保安里","LIN":"3鄰","STREET":"保安路","SECT":"一段","MAREA":" ","LANE":"８２巷","ALLEY":" ","HOUSE_NO":"１２號","E_COORD97":170747.14999999999,"N_COORD97":2536335.8100000001,"ADDRESS":"保安路一段８２巷１２號","OBJECTID":414354},"geometry":{"x":170747.1500000013,"y":2536335.8100000005}},{"attributes":{"ID":414379,"DIS_CODE":0,"TOWNNAME":"仁德區","LI":"田厝里","LIN":"3鄰","STREET":"田厝三街","SECT":" ","MAREA":" ","LANE":"９３巷","ALLEY":" ","HOUSE_NO":"１０號","E_COORD97":172577.06,"N_COORD97":2537474.7400000002,"ADDRESS":"田厝三街９３巷１０號","OBJECTID":414355},"geometry":{"x":172577.05999999959,"y":2537474.7400000002}},{"attributes":{"ID":414380,"DIS_CODE":0,"TOWNNAME":"楠西區","LI":"灣丘里","LIN":"9鄰","STREET":" ","SECT":" ","MAREA":"香蕉山","LANE":" ","ALLEY":" ","HOUSE_NO":"２號之３","E_COORD97":202173.33302200001,"N_COORD97":2564837.57785,"ADDRESS":"香蕉山２號之３","OBJECTID":414356},"geometry":{"x":202173.33302200027,"y":2564837.5778449997}},{"attributes":{"ID":414381,"DIS_CODE":0,"TOWNNAME":"東區","LI":"東安里","LIN":"3鄰","STREET":"東門路","SECT":"二段","MAREA":" ","LANE":"４３巷","ALLEY":" ","HOUSE_NO":"７號","E_COORD97":170059.60999999999,"N_COORD97":2543005.5099999998,"ADDRESS":"東門路二段４３巷７號","OBJECTID":414357},"geometry":{"x":170059.61000000127,"y":2543005.5099999998}},{"attributes":{"ID":414382,"DIS_CODE":0,"TOWNNAME":"東區","LI":"東安里","LIN":"3鄰","STREET":"東門路","SECT":"二段","MAREA":" ","LANE":"４３巷","ALLEY":" ","HOUSE_NO":"９號","E_COORD97":170061.13,"N_COORD97":2543011.8700000001,"ADDRESS":"東門路二段４３巷９號","OBJECTID":414358},"geometry":{"x":170061.12999999989,"y":2543011.870000001}},{"attributes":{"ID":414383,"DIS_CODE":0,"TOWNNAME":"東區","LI":"裕農里","LIN":"3鄰","STREET":"裕農路","SECT":" ","MAREA":" ","LANE":"２９１巷","ALLEY":" ","HOUSE_NO":"２６號","E_COORD97":170860.56,"N_COORD97":2543117.1699999999,"ADDRESS":"裕農路２９１巷２６號","OBJECTID":414359},"geometry":{"x":170860.56000000052,"y":2543117.1699999999}},{"attributes":{"ID":414384,"DIS_CODE":0,"TOWNNAME":"安南區","LI":"海佃里","LIN":"3鄰","STREET":"國安街","SECT":" ","MAREA":" ","LANE":"１２６巷","ALLEY":" ","HOUSE_NO":"１０號","E_COORD97":166824.13,"N_COORD97":2547031.8900000001,"ADDRESS":"國安街１２６巷１０號","OBJECTID":414360},"geometry":{"x":166824.13000000082,"y":2547031.8900000006}},{"attributes":{"ID":414385,"DIS_CODE":0,"TOWNNAME":"安南區","LI":"海佃里","LIN":"3鄰","STREET":"國安街","SECT":" ","MAREA":" ","LANE":"１２６巷","ALLEY":" ","HOUSE_NO":"１１號","E_COORD97":166802.19,"N_COORD97":2547036.54,"ADDRESS":"國安街１２６巷１１號","OBJECTID":414361},"geometry":{"x":166802.19000000134,"y":2547036.5399999991}},{"attributes":{"ID":414386,"DIS_CODE":0,"TOWNNAME":"安南區","LI":"海佃里","LIN":"3鄰","STREET":"國安街","SECT":" ","MAREA":" ","LANE":"１２６巷","ALLEY":" ","HOUSE_NO":"１２號","E_COORD97":166820.81,"N_COORD97":2547040.5299999998,"ADDRESS":"國安街１２６巷１２號","OBJECTID":414362},"geometry":{"x":166820.81000000145,"y":2547040.5299999975}},{"attributes":{"ID":414387,"DIS_CODE":0,"TOWNNAME":"安南區","LI":"海佃里","LIN":"3鄰","STREET":"國安街","SECT":" ","MAREA":" ","LANE":"１２６巷","ALLEY":" ","HOUSE_NO":"１３號","E_COORD97":166801.51999999999,"N_COORD97":2547043.8500000001,"ADDRESS":"國安街１２６巷１３號","OBJECTID":414363},"geometry":{"x":166801.51999999955,"y":2547043.8500000015}},{"attributes":{"ID":414388,"DIS_CODE":0,"TOWNNAME":"安南區","LI":"海佃里","LIN":"3鄰","STREET":"國安街","SECT":" ","MAREA":" ","LANE":"１２６巷","ALLEY":" ","HOUSE_NO":"１４號","E_COORD97":166820.81,"N_COORD97":2547047.1699999999,"ADDRESS":"國安街１２６巷１４號","OBJECTID":414364},"geometry":{"x":166820.81000000145,"y":2547047.1700000037}},{"attributes":{"ID":414389,"DIS_CODE":0,"TOWNNAME":"安南區","LI":"海佃里","LIN":"3鄰","STREET":"國安街","SECT":" ","MAREA":" ","LANE":"１２６巷","ALLEY":" ","HOUSE_NO":"１５號","E_COORD97":166800.19,"N_COORD97":2547049.8300000001,"ADDRESS":"國安街１２６巷１５號","OBJECTID":414365},"geometry":{"x":166800.19000000041,"y":2547049.8300000038}},{"attributes":{"ID":414390,"DIS_CODE":0,"TOWNNAME":"安南區","LI":"海佃里","LIN":"3鄰","STREET":"國安街","SECT":" ","MAREA":" ","LANE":"１２６巷","ALLEY":" ","HOUSE_NO":"１６號","E_COORD97":166819.48000000001,"N_COORD97":2547053.1499999999,"ADDRESS":"國安街１２６巷１６號","OBJECTID":414366},"geometry":{"x":166819.48000000138,"y":2547053.1500000004}},{"attributes":{"ID":414391,"DIS_CODE":0,"TOWNNAME":"安南區","LI":"海佃里","LIN":"3鄰","STREET":"國安街","SECT":" ","MAREA":" ","LANE":"１２６巷","ALLEY":" ","HOUSE_NO":"１７號","E_COORD97":166798.85999999999,"N_COORD97":2547056.4700000002,"ADDRESS":"國安街１２６巷１７號","OBJECTID":414367},"geometry":{"x":166798.86000000034,"y":2547056.4700000025}},{"attributes":{"ID":414392,"DIS_CODE":0,"TOWNNAME":"安南區","LI":"海佃里","LIN":"3鄰","STREET":"國安街","SECT":" ","MAREA":" ","LANE":"１２６巷","ALLEY":" ","HOUSE_NO":"１８號","E_COORD97":166817.48000000001,"N_COORD97":2547059.1299999999,"ADDRESS":"國安街１２６巷１８號","OBJECTID":414368},"geometry":{"x":166817.48000000138,"y":2547059.129999999}},{"attributes":{"ID":414393,"DIS_CODE":0,"TOWNNAME":"安南區","LI":"海佃里","LIN":"3鄰","STREET":"國安街","SECT":" ","MAREA":" ","LANE":"１２６巷","ALLEY":" ","HOUSE_NO":"１９號","E_COORD97":166797.53,"N_COORD97":2547061.7799999998,"ADDRESS":"國安街１２６巷１９號","OBJECTID":414369},"geometry":{"x":166797.53000000026,"y":2547061.7799999993}},{"attributes":{"ID":414394,"DIS_CODE":0,"TOWNNAME":"麻豆區","LI":"油車里","LIN":"3鄰","STREET":"大同街","SECT":" ","MAREA":" ","LANE":"７巷","ALLEY":" ","HOUSE_NO":"１號之１","E_COORD97":172734.97,"N_COORD97":2565147.5899999999,"ADDRESS":"大同街７巷１號之１","OBJECTID":414370},"geometry":{"x":172734.97000000067,"y":2565147.5899999999}},{"attributes":{"ID":414395,"DIS_CODE":0,"TOWNNAME":"麻豆區","LI":"油車里","LIN":"3鄰","STREET":"大同街","SECT":" ","MAREA":" ","LANE":"７巷","ALLEY":" ","HOUSE_NO":"１號","E_COORD97":172740.17000000001,"N_COORD97":2565170.2599999998,"ADDRESS":"大同街７巷１號","OBJECTID":414371},"geometry":{"x":172740.17000000086,"y":2565170.2599999998}},{"attributes":{"ID":414396,"DIS_CODE":0,"TOWNNAME":"北區","LI":"玉皇里","LIN":"13鄰","STREET":"公園路","SECT":" ","MAREA":" ","LANE":" ","ALLEY":" ","HOUSE_NO":"１７１號地下層","E_COORD97":168743.73000000001,"N_COORD97":2544385,"ADDRESS":"公園路１７１號地下層","OBJECTID":414372},"geometry":{"x":168743.73000000045,"y":2544385.0000000019}},{"attributes":{"ID":414397,"DIS_CODE":0,"TOWNNAME":"安南區","LI":"海佃里","LIN":"3鄰","STREET":"國安街","SECT":" ","MAREA":" ","LANE":"１２６巷","ALLEY":" ","HOUSE_NO":"１號","E_COORD97":166808.17000000001,"N_COORD97":2547003.9900000002,"ADDRESS":"國安街１２６巷１號","OBJECTID":414373},"geometry":{"x":166808.16999999993,"y":2547003.9900000002}},{"attributes":{"ID":414398,"DIS_CODE":0,"TOWNNAME":"安南區","LI":"海佃里","LIN":"3鄰","STREET":"國安街","SECT":" ","MAREA":" ","LANE":"１２６巷","ALLEY":" ","HOUSE_NO":"２０號","E_COORD97":166816.82000000001,"N_COORD97":2547064.4399999999,"ADDRESS":"國安街１２６巷２０號","OBJECTID":414374},"geometry":{"x":166816.82000000123,"y":2547064.4399999995}},{"attributes":{"ID":414399,"DIS_CODE":0,"TOWNNAME":"安南區","LI":"海佃里","LIN":"3鄰","STREET":"國安街","SECT":" ","MAREA":" ","LANE":"１２６巷","ALLEY":" ","HOUSE_NO":"２１號","E_COORD97":166795.54000000001,"N_COORD97":2547067.1000000001,"ADDRESS":"國安街１２６巷２１號","OBJECTID":414375},"geometry":{"x":166795.54000000004,"y":2547067.0999999996}},{"attributes":{"ID":414400,"DIS_CODE":0,"TOWNNAME":"安南區","LI":"海佃里","LIN":"3鄰","STREET":"國安街","SECT":" ","MAREA":" ","LANE":"１２６巷","ALLEY":" ","HOUSE_NO":"２２號","E_COORD97":166816.82000000001,"N_COORD97":2547071.0800000001,"ADDRESS":"國安街１２６巷２２號","OBJECTID":414376},"geometry":{"x":166816.82000000123,"y":2547071.0800000001}},{"attributes":{"ID":414401,"DIS_CODE":0,"TOWNNAME":"安南區","LI":"海佃里","LIN":"3鄰","STREET":"國安街","SECT":" ","MAREA":" ","LANE":"１２６巷","ALLEY":" ","HOUSE_NO":"２３號","E_COORD97":166794.20999999999,"N_COORD97":2547073.0800000001,"ADDRESS":"國安街１２６巷２３號","OBJECTID":414377},"geometry":{"x":166794.20999999996,"y":2547073.0800000019}},{"attributes":{"ID":414402,"DIS_CODE":0,"TOWNNAME":"安南區","LI":"海佃里","LIN":"3鄰","STREET":"國安街","SECT":" ","MAREA":" ","LANE":"１２６巷","ALLEY":" ","HOUSE_NO":"２４號","E_COORD97":166815.48999999999,"N_COORD97":2547076.3999999999,"ADDRESS":"國安街１２６巷２４號","OBJECTID":414378},"geometry":{"x":166815.49000000115,"y":2547076.3999999985}},{"attributes":{"ID":414403,"DIS_CODE":0,"TOWNNAME":"安南區","LI":"海佃里","LIN":"3鄰","STREET":"國安街","SECT":" ","MAREA":" ","LANE":"１２６巷","ALLEY":" ","HOUSE_NO":"２５號","E_COORD97":166793.54000000001,"N_COORD97":2547079.7200000002,"ADDRESS":"國安街１２６巷２５號","OBJECTID":414379},"geometry":{"x":166793.54000000004,"y":2547079.7200000025}},{"attributes":{"ID":414404,"DIS_CODE":0,"TOWNNAME":"安南區","LI":"海佃里","LIN":"3鄰","STREET":"國安街","SECT":" ","MAREA":" ","LANE":"１２６巷","ALLEY":" ","HOUSE_NO":"２７號","E_COORD97":166792.20999999999,"N_COORD97":2547085.7000000002,"ADDRESS":"國安街１２６巷２７號","OBJECTID":414380},"geometry":{"x":166792.20999999996,"y":2547085.6999999993}},{"attributes":{"ID":414405,"DIS_CODE":0,"TOWNNAME":"安南區","LI":"海佃里","LIN":"3鄰","STREET":"國安街","SECT":" ","MAREA":" ","LANE":"１２６巷","ALLEY":" ","HOUSE_NO":"２８號","E_COORD97":166812.82999999999,"N_COORD97":2547086.3599999999,"ADDRESS":"國安街１２６巷２８號","OBJECTID":414381},"geometry":{"x":166812.83000000101,"y":2547086.3600000013}},{"attributes":{"ID":414406,"DIS_CODE":0,"TOWNNAME":"安南區","LI":"海佃里","LIN":"3鄰","STREET":"國安街","SECT":" ","MAREA":" ","LANE":"１２６巷","ALLEY":" ","HOUSE_NO":"２號","E_COORD97":166828.79000000001,"N_COORD97":2547006.6499999999,"ADDRESS":"國安街１２６巷２號","OBJECTID":414382},"geometry":{"x":166828.79000000097,"y":2547006.6500000004}},{"attributes":{"ID":414407,"DIS_CODE":0,"TOWNNAME":"安南區","LI":"海佃里","LIN":"3鄰","STREET":"國安街","SECT":" ","MAREA":" ","LANE":"１２６巷","ALLEY":" ","HOUSE_NO":"３號","E_COORD97":166806.84,"N_COORD97":2547009.3100000001,"ADDRESS":"國安街１２６巷３號","OBJECTID":414383},"geometry":{"x":166806.83999999985,"y":2547009.3100000005}},{"attributes":{"ID":414408,"DIS_CODE":0,"TOWNNAME":"安南區","LI":"海佃里","LIN":"3鄰","STREET":"國安街","SECT":" ","MAREA":" ","LANE":"１２６巷","ALLEY":" ","HOUSE_NO":"４號","E_COORD97":166827.45999999999,"N_COORD97":2547012.6299999999,"ADDRESS":"國安街１２６巷４號","OBJECTID":414384},"geometry":{"x":166827.46000000089,"y":2547012.6300000027}},{"attributes":{"ID":414409,"DIS_CODE":0,"TOWNNAME":"安南區","LI":"海佃里","LIN":"3鄰","STREET":"國安街","SECT":" ","MAREA":" ","LANE":"１２６巷","ALLEY":" ","HOUSE_NO":"５號","E_COORD97":166805.51000000001,"N_COORD97":2547015.2799999998,"ADDRESS":"國安街１２６巷５號","OBJECTID":414385},"geometry":{"x":166805.50999999978,"y":2547015.2800000031}},{"attributes":{"ID":414410,"DIS_CODE":0,"TOWNNAME":"安南區","LI":"海佃里","LIN":"3鄰","STREET":"國安街","SECT":" ","MAREA":" ","LANE":"１２６巷","ALLEY":" ","HOUSE_NO":"７號","E_COORD97":166804.85000000001,"N_COORD97":2547021.9300000002,"ADDRESS":"國安街１２６巷７號","OBJECTID":414386},"geometry":{"x":166804.84999999963,"y":2547021.9300000016}},{"attributes":{"ID":414411,"DIS_CODE":0,"TOWNNAME":"安南區","LI":"海佃里","LIN":"3鄰","STREET":"國安街","SECT":" ","MAREA":" ","LANE":"１２６巷","ALLEY":" ","HOUSE_NO":"８號","E_COORD97":166824.13,"N_COORD97":2547025.9100000001,"ADDRESS":"國安街１２６巷８號","OBJECTID":414387},"geometry":{"x":166824.13000000082,"y":2547025.910000002}},{"attributes":{"ID":414412,"DIS_CODE":0,"TOWNNAME":"安南區","LI":"海佃里","LIN":"3鄰","STREET":"國安街","SECT":" ","MAREA":" ","LANE":"１２６巷","ALLEY":" ","HOUSE_NO":"９號","E_COORD97":166803.51999999999,"N_COORD97":2547027.9100000001,"ADDRESS":"國安街１２６巷９號","OBJECTID":414388},"geometry":{"x":166803.51999999955,"y":2547027.9100000001}},{"attributes":{"ID":414413,"DIS_CODE":0,"TOWNNAME":"安南區","LI":"海佃里","LIN":"3鄰","STREET":"國安街","SECT":" ","MAREA":" ","LANE":"９２巷","ALLEY":" ","HOUSE_NO":"７號","E_COORD97":166890.64000000001,"N_COORD97":2547035.8799999999,"ADDRESS":"國安街９２巷７號","OBJECTID":414389},"geometry":{"x":166890.63999999966,"y":2547035.8800000008}},{"attributes":{"ID":414414,"DIS_CODE":0,"TOWNNAME":"永康區","LI":"復華里","LIN":"3鄰","STREET":"復國二路","SECT":" ","MAREA":" ","LANE":"３４２巷","ALLEY":" ","HOUSE_NO":"１６號","E_COORD97":173079.98000000001,"N_COORD97":2546180.3500000001,"ADDRESS":"復國二路３４２巷１６號","OBJECTID":414390},"geometry":{"x":173079.98000000045,"y":2546180.3499999996}},{"attributes":{"ID":414415,"DIS_CODE":0,"TOWNNAME":"永康區","LI":"復華里","LIN":"3鄰","STREET":"復國二路","SECT":" ","MAREA":" ","LANE":"３３８巷","ALLEY":" ","HOUSE_NO":"１３號","E_COORD97":173063.48999999999,"N_COORD97":2546125.7799999998,"ADDRESS":"復國二路３３８巷１３號","OBJECTID":414391},"geometry":{"x":173063.49000000209,"y":2546125.7799999993}},{"attributes":{"ID":414416,"DIS_CODE":0,"TOWNNAME":"永康區","LI":"復興里","LIN":"3鄰","STREET":"復興路","SECT":" ","MAREA":" ","LANE":"２７７巷","ALLEY":" ","HOUSE_NO":"６４號","E_COORD97":172345.54999999999,"N_COORD97":2544141.6000000001,"ADDRESS":"復興路２７７巷６４號","OBJECTID":414392},"geometry":{"x":172345.54999999888,"y":2544141.5999999978}},{"attributes":{"ID":414417,"DIS_CODE":0,"TOWNNAME":"永康區","LI":"復興里","LIN":"3鄰","STREET":"復興路","SECT":" ","MAREA":" ","LANE":"２７７巷","ALLEY":" ","HOUSE_NO":"７０號","E_COORD97":172347.48000000001,"N_COORD97":2544128.6000000001,"ADDRESS":"復興路２７７巷７０號","OBJECTID":414393},"geometry":{"x":172347.48000000138,"y":2544128.6000000015}},{"attributes":{"ID":414418,"DIS_CODE":0,"TOWNNAME":"永康區","LI":"復興里","LIN":"3鄰","STREET":"復興路","SECT":" ","MAREA":" ","LANE":"２７７巷","ALLEY":" ","HOUSE_NO":"２０６號之８","E_COORD97":172369.75,"N_COORD97":2543789.1099999999,"ADDRESS":"復興路２７７巷２０６號之８","OBJECTID":414394},"geometry":{"x":172369.75,"y":2543789.1100000031}},{"attributes":{"ID":414419,"DIS_CODE":0,"TOWNNAME":"永康區","LI":"龍潭里","LIN":"3鄰","STREET":"龍安街","SECT":" ","MAREA":" ","LANE":"４０巷","ALLEY":" ","HOUSE_NO":"１號","E_COORD97":174610.10000000001,"N_COORD97":2548137.5899999999,"ADDRESS":"龍安街４０巷１號","OBJECTID":414395},"geometry":{"x":174610.10000000056,"y":2548137.5900000017}},{"attributes":{"ID":414420,"DIS_CODE":0,"TOWNNAME":"永康區","LI":"復興里","LIN":"3鄰","STREET":"復興路","SECT":" ","MAREA":" ","LANE":"２７７巷","ALLEY":" ","HOUSE_NO":"９０號","E_COORD97":172355.67999999999,"N_COORD97":2544073.27,"ADDRESS":"復興路２７７巷９０號","OBJECTID":414396},"geometry":{"x":172355.6799999997,"y":2544073.2700000014}},{"attributes":{"ID":414421,"DIS_CODE":0,"TOWNNAME":"善化區","LI":"南關里","LIN":"3鄰","STREET":"中華路","SECT":" ","MAREA":" ","LANE":"１１９巷","ALLEY":" ","HOUSE_NO":"６號","E_COORD97":177188.69,"N_COORD97":2558935.75,"ADDRESS":"中華路１１９巷６號","OBJECTID":414397},"geometry":{"x":177188.69000000134,"y":2558935.75}},{"attributes":{"ID":414422,"DIS_CODE":0,"TOWNNAME":"善化區","LI":"南關里","LIN":"3鄰","STREET":"中華路","SECT":" ","MAREA":" ","LANE":"１１９巷","ALLEY":" ","HOUSE_NO":"８號","E_COORD97":177160.89000000001,"N_COORD97":2558928.25,"ADDRESS":"中華路１１９巷８號","OBJECTID":414398},"geometry":{"x":177160.89000000153,"y":2558928.2500000019}},{"attributes":{"ID":414423,"DIS_CODE":0,"TOWNNAME":"安南區","LI":"幸福里","LIN":"3鄰","STREET":"國安街","SECT":" ","MAREA":" ","LANE":"７３巷","ALLEY":" ","HOUSE_NO":"１１號","E_COORD97":166973.28,"N_COORD97":2546954.0899999999,"ADDRESS":"國安街７３巷１１號","OBJECTID":414399},"geometry":{"x":166973.28000000119,"y":2546954.0900000017}},{"attributes":{"ID":414424,"DIS_CODE":0,"TOWNNAME":"安南區","LI":"幸福里","LIN":"3鄰","STREET":"國安街","SECT":" ","MAREA":" ","LANE":"７３巷","ALLEY":" ","HOUSE_NO":"１２號","E_COORD97":166946.51000000001,"N_COORD97":2546949.3799999999,"ADDRESS":"國安街７３巷１２號","OBJECTID":414400},"geometry":{"x":166946.50999999978,"y":2546949.379999999}}]}