{"displayFieldName":"TOWNNAME","fieldAliases":{"ID":"ID","DIS_CODE":"DIS_CODE","TOWNNAME":"TOWNNAME","LI":"LI","LIN":"LIN","STREET":"STREET","SECT":"SECT","MAREA":"MAREA","LANE":"LANE","ALLEY":"ALLEY","HOUSE_NO":"HOUSE_NO","E_COORD97":"E_COORD97","N_COORD97":"N_COORD97","ADDRESS":"ADDRESS","OBJECTID":"OBJECTID"},"geometryType":"esriGeometryPoint","spatialReference":{"wkid":102443,"latestWkid":3826},"fields":[{"name":"ID","type":"esriFieldTypeDouble","alias":"ID"},{"name":"DIS_CODE","type":"esriFieldTypeInteger","alias":"DIS_CODE"},{"name":"TOWNNAME","type":"esriFieldTypeString","alias":"TOWNNAME","length":8},{"name":"LI","type":"esriFieldTypeString","alias":"LI","length":8},{"name":"LIN","type":"esriFieldTypeString","alias":"LIN","length":12},{"name":"STREET","type":"esriFieldTypeString","alias":"STREET","length":20},{"name":"SECT","type":"esriFieldTypeString","alias":"SECT","length":8},{"name":"MAREA","type":"esriFieldTypeString","alias":"MAREA","length":12},{"name":"LANE","type":"esriFieldTypeString","alias":"LANE","length":10},{"name":"ALLEY","type":"esriFieldTypeString","alias":"ALLEY","length":10},{"name":"HOUSE_NO","type":"esriFieldTypeString","alias":"HOUSE_NO","length":20},{"name":"E_COORD97","type":"esriFieldTypeDouble","alias":"E_COORD97"},{"name":"N_COORD97","type":"esriFieldTypeDouble","alias":"N_COORD97"},{"name":"ADDRESS","type":"esriFieldTypeString","alias":"ADDRESS","length":50},{"name":"OBJECTID","type":"esriFieldTypeOID","alias":"OBJECTID"}],"features":[{"attributes":{"ID":264805,"DIS_CODE":0,"TOWNNAME":"安南區","LI":"海東里","LIN":"24鄰","STREET":"同安路","SECT":" ","MAREA":" ","LANE":"１６７巷","ALLEY":" ","HOUSE_NO":"３０號","E_COORD97":167019.5,"N_COORD97":2549174.1400000001,"ADDRESS":"同安路１６７巷３０號","OBJECTID":264801},"geometry":{"x":167019.5,"y":2549174.1400000043}},{"attributes":{"ID":264806,"DIS_CODE":0,"TOWNNAME":"安南區","LI":"海東里","LIN":"24鄰","STREET":"同安路","SECT":" ","MAREA":" ","LANE":"１６７巷","ALLEY":" ","HOUSE_NO":"３２號","E_COORD97":167014.75,"N_COORD97":2549175.9399999999,"ADDRESS":"同安路１６７巷３２號","OBJECTID":264802},"geometry":{"x":167014.75000000186,"y":2549175.9399999995}},{"attributes":{"ID":264807,"DIS_CODE":0,"TOWNNAME":"安南區","LI":"海東里","LIN":"24鄰","STREET":"同安路","SECT":" ","MAREA":" ","LANE":"１６７巷","ALLEY":" ","HOUSE_NO":"３４號","E_COORD97":167012.42000000001,"N_COORD97":2549180.6099999999,"ADDRESS":"同安路１６７巷３４號","OBJECTID":264803},"geometry":{"x":167012.42000000086,"y":2549180.6100000013}},{"attributes":{"ID":264808,"DIS_CODE":0,"TOWNNAME":"安南區","LI":"海東里","LIN":"24鄰","STREET":"同安路","SECT":" ","MAREA":" ","LANE":"１６７巷","ALLEY":" ","HOUSE_NO":"３６號","E_COORD97":167008.56,"N_COORD97":2549183.1299999999,"ADDRESS":"同安路１６７巷３６號","OBJECTID":264804},"geometry":{"x":167008.55999999959,"y":2549183.1300000008}},{"attributes":{"ID":264809,"DIS_CODE":0,"TOWNNAME":"安南區","LI":"海東里","LIN":"24鄰","STREET":"同安路","SECT":" ","MAREA":" ","LANE":"１６７巷","ALLEY":" ","HOUSE_NO":"３８號","E_COORD97":167004.88,"N_COORD97":2549186.1099999999,"ADDRESS":"同安路１６７巷３８號","OBJECTID":264805},"geometry":{"x":167004.87999999989,"y":2549186.1099999994}},{"attributes":{"ID":264810,"DIS_CODE":0,"TOWNNAME":"東區","LI":"富強里","LIN":"22鄰","STREET":"富強二街","SECT":" ","MAREA":" ","LANE":" ","ALLEY":" ","HOUSE_NO":"５號六樓","E_COORD97":170993.70000000001,"N_COORD97":2542516.21,"ADDRESS":"富強二街５號六樓","OBJECTID":264806},"geometry":{"x":170993.70000000019,"y":2542516.2100000028}},{"attributes":{"ID":264811,"DIS_CODE":0,"TOWNNAME":"東區","LI":"富強里","LIN":"22鄰","STREET":"富強二街","SECT":" ","MAREA":" ","LANE":" ","ALLEY":" ","HOUSE_NO":"５號七樓","E_COORD97":170993.70000000001,"N_COORD97":2542516.21,"ADDRESS":"富強二街５號七樓","OBJECTID":264807},"geometry":{"x":170993.70000000019,"y":2542516.2100000028}},{"attributes":{"ID":264812,"DIS_CODE":0,"TOWNNAME":"東區","LI":"富強里","LIN":"22鄰","STREET":"富強二街","SECT":" ","MAREA":" ","LANE":" ","ALLEY":" ","HOUSE_NO":"５號八樓","E_COORD97":170993.70000000001,"N_COORD97":2542516.21,"ADDRESS":"富強二街５號八樓","OBJECTID":264808},"geometry":{"x":170993.70000000019,"y":2542516.2100000028}},{"attributes":{"ID":264813,"DIS_CODE":0,"TOWNNAME":"東區","LI":"富強里","LIN":"22鄰","STREET":"富強二街","SECT":" ","MAREA":" ","LANE":" ","ALLEY":" ","HOUSE_NO":"７號二樓","E_COORD97":170999.60000000001,"N_COORD97":2542521.6499999999,"ADDRESS":"富強二街７號二樓","OBJECTID":264809},"geometry":{"x":170999.60000000056,"y":2542521.6500000041}},{"attributes":{"ID":264814,"DIS_CODE":0,"TOWNNAME":"永康區","LI":"甲頂里","LIN":"22鄰","STREET":"中正南路","SECT":" ","MAREA":" ","LANE":" ","ALLEY":" ","HOUSE_NO":"３０號五樓之１","E_COORD97":169669.34,"N_COORD97":2546655.7999999998,"ADDRESS":"中正南路３０號五樓之１","OBJECTID":264810},"geometry":{"x":169669.34000000078,"y":2546655.8000000007}},{"attributes":{"ID":264815,"DIS_CODE":0,"TOWNNAME":"永康區","LI":"甲頂里","LIN":"22鄰","STREET":"中正南路","SECT":" ","MAREA":" ","LANE":" ","ALLEY":" ","HOUSE_NO":"３０號十一樓之１","E_COORD97":169670.59,"N_COORD97":2546655.7999999998,"ADDRESS":"中正南路３０號十一樓之１","OBJECTID":264811},"geometry":{"x":169670.59000000078,"y":2546655.8000000007}},{"attributes":{"ID":264816,"DIS_CODE":0,"TOWNNAME":"永康區","LI":"安康里","LIN":"22鄰","STREET":"中華西街","SECT":" ","MAREA":" ","LANE":" ","ALLEY":" ","HOUSE_NO":"１２８號之三樓","E_COORD97":170709.79999999999,"N_COORD97":2546153.6299999999,"ADDRESS":"中華西街１２８號之三樓","OBJECTID":264812},"geometry":{"x":170709.80000000168,"y":2546153.629999999}},{"attributes":{"ID":264817,"DIS_CODE":0,"TOWNNAME":"東區","LI":"富強里","LIN":"22鄰","STREET":"富強二街","SECT":" ","MAREA":" ","LANE":" ","ALLEY":" ","HOUSE_NO":"７號四樓","E_COORD97":170999.60000000001,"N_COORD97":2542521.6499999999,"ADDRESS":"富強二街７號四樓","OBJECTID":264813},"geometry":{"x":170999.60000000056,"y":2542521.6500000041}},{"attributes":{"ID":264818,"DIS_CODE":0,"TOWNNAME":"安南區","LI":"海東里","LIN":"24鄰","STREET":"同安路","SECT":" ","MAREA":" ","LANE":"１６７巷","ALLEY":" ","HOUSE_NO":"６號","E_COORD97":167069.48999999999,"N_COORD97":2549133.3100000001,"ADDRESS":"同安路１６７巷６號","OBJECTID":264814},"geometry":{"x":167069.49000000209,"y":2549133.3100000024}},{"attributes":{"ID":264819,"DIS_CODE":0,"TOWNNAME":"新營區","LI":"民榮里","LIN":"26鄰","STREET":"復興路","SECT":" ","MAREA":" ","LANE":"３０５巷","ALLEY":" ","HOUSE_NO":"２９號","E_COORD97":178556.22,"N_COORD97":2578058,"ADDRESS":"復興路３０５巷２９號","OBJECTID":264815},"geometry":{"x":178556.22000000067,"y":2578058.0000000019}},{"attributes":{"ID":264820,"DIS_CODE":0,"TOWNNAME":"新營區","LI":"新北里","LIN":"26鄰","STREET":"民治路","SECT":" ","MAREA":" ","LANE":"１５６巷","ALLEY":" ","HOUSE_NO":"２８號","E_COORD97":179124.26999999999,"N_COORD97":2578771.79,"ADDRESS":"民治路１５６巷２８號","OBJECTID":264816},"geometry":{"x":179124.26999999955,"y":2578771.7899999991}},{"attributes":{"ID":264821,"DIS_CODE":0,"TOWNNAME":"新營區","LI":"忠政里","LIN":"13鄰","STREET":"中正路","SECT":" ","MAREA":" ","LANE":"１０７巷","ALLEY":" ","HOUSE_NO":"５６號","E_COORD97":179879.31,"N_COORD97":2579684.0600000001,"ADDRESS":"中正路１０７巷５６號","OBJECTID":264817},"geometry":{"x":179879.31000000052,"y":2579684.0600000005}},{"attributes":{"ID":264822,"DIS_CODE":0,"TOWNNAME":"安南區","LI":"海東里","LIN":"24鄰","STREET":"同安路","SECT":" ","MAREA":" ","LANE":"１９５巷","ALLEY":" ","HOUSE_NO":"２號","E_COORD97":167131.94,"N_COORD97":2549157.7400000002,"ADDRESS":"同安路１９５巷２號","OBJECTID":264818},"geometry":{"x":167131.94000000041,"y":2549157.7400000002}},{"attributes":{"ID":264823,"DIS_CODE":0,"TOWNNAME":"東區","LI":"中西里","LIN":"24鄰","STREET":"東寧路","SECT":" ","MAREA":" ","LANE":"１２０巷","ALLEY":" ","HOUSE_NO":"１０號","E_COORD97":170225.76999999999,"N_COORD97":2543504.5499999998,"ADDRESS":"東寧路１２０巷１０號","OBJECTID":264819},"geometry":{"x":170225.76999999955,"y":2543504.5500000007}},{"attributes":{"ID":264824,"DIS_CODE":0,"TOWNNAME":"東區","LI":"中西里","LIN":"24鄰","STREET":"東寧路","SECT":" ","MAREA":" ","LANE":"１２０巷","ALLEY":" ","HOUSE_NO":"１２號","E_COORD97":170223.67000000001,"N_COORD97":2543475.77,"ADDRESS":"東寧路１２０巷１２號","OBJECTID":264820},"geometry":{"x":170223.66999999993,"y":2543475.7699999996}},{"attributes":{"ID":264825,"DIS_CODE":0,"TOWNNAME":"東區","LI":"中西里","LIN":"24鄰","STREET":"東寧路","SECT":" ","MAREA":" ","LANE":"１２０巷","ALLEY":" ","HOUSE_NO":"６號","E_COORD97":170221.37,"N_COORD97":2543540.8900000001,"ADDRESS":"東寧路１２０巷６號","OBJECTID":264821},"geometry":{"x":170221.37000000197,"y":2543540.8900000043}},{"attributes":{"ID":264826,"DIS_CODE":0,"TOWNNAME":"新營區","LI":"新南里","LIN":"21鄰","STREET":"復興路","SECT":" ","MAREA":" ","LANE":"３７８巷","ALLEY":" ","HOUSE_NO":"７之１號","E_COORD97":178509.14999999999,"N_COORD97":2578228.8300000001,"ADDRESS":"復興路３７８巷７之１號","OBJECTID":264822},"geometry":{"x":178509.14999999944,"y":2578228.8300000019}},{"attributes":{"ID":264827,"DIS_CODE":0,"TOWNNAME":"新營區","LI":"王公里","LIN":"32鄰","STREET":"大德街","SECT":" ","MAREA":" ","LANE":"１８巷","ALLEY":" ","HOUSE_NO":"１７號","E_COORD97":180219.94,"N_COORD97":2579482,"ADDRESS":"大德街１８巷１７號","OBJECTID":264823},"geometry":{"x":180219.94000000134,"y":2579482.0000000019}},{"attributes":{"ID":264828,"DIS_CODE":0,"TOWNNAME":"安南區","LI":"溪頂里","LIN":"24鄰","STREET":"郡安路","SECT":"四段","MAREA":" ","LANE":"８９巷","ALLEY":" ","HOUSE_NO":"２３號","E_COORD97":169027.07999999999,"N_COORD97":2547526.9700000002,"ADDRESS":"郡安路四段８９巷２３號","OBJECTID":264824},"geometry":{"x":169027.08000000101,"y":2547526.9700000007}},{"attributes":{"ID":264829,"DIS_CODE":0,"TOWNNAME":"安南區","LI":"溪頂里","LIN":"24鄰","STREET":"郡安路","SECT":"四段","MAREA":" ","LANE":"８９巷","ALLEY":" ","HOUSE_NO":"２５號","E_COORD97":169027.82000000001,"N_COORD97":2547522.9399999999,"ADDRESS":"郡安路四段８９巷２５號","OBJECTID":264825},"geometry":{"x":169027.8200000003,"y":2547522.9400000032}},{"attributes":{"ID":264830,"DIS_CODE":0,"TOWNNAME":"永康區","LI":"甲頂里","LIN":"22鄰","STREET":"中正南路","SECT":" ","MAREA":" ","LANE":" ","ALLEY":" ","HOUSE_NO":"３０號十樓之１","E_COORD97":169669.34,"N_COORD97":2546655.7999999998,"ADDRESS":"中正南路３０號十樓之１","OBJECTID":264826},"geometry":{"x":169669.34000000078,"y":2546655.8000000007}},{"attributes":{"ID":264831,"DIS_CODE":0,"TOWNNAME":"下營區","LI":"仁里里","LIN":"6鄰","STREET":"九分街","SECT":" ","MAREA":" ","LANE":" ","ALLEY":" ","HOUSE_NO":"４９號","E_COORD97":174128.37301800001,"N_COORD97":2570110.2401000001,"ADDRESS":"九分街４９號","OBJECTID":264827},"geometry":{"x":174128.37301800027,"y":2570110.2401010022}},{"attributes":{"ID":264832,"DIS_CODE":0,"TOWNNAME":"安南區","LI":"溪頂里","LIN":"24鄰","STREET":"郡安路","SECT":"四段","MAREA":" ","LANE":"８９巷","ALLEY":" ","HOUSE_NO":"２７號","E_COORD97":169027.54000000001,"N_COORD97":2547518.71,"ADDRESS":"郡安路四段８９巷２７號","OBJECTID":264828},"geometry":{"x":169027.54000000097,"y":2547518.7100000009}},{"attributes":{"ID":264833,"DIS_CODE":0,"TOWNNAME":"安南區","LI":"溪頂里","LIN":"24鄰","STREET":"郡安路","SECT":"四段","MAREA":" ","LANE":"８９巷","ALLEY":" ","HOUSE_NO":"２９號","E_COORD97":169027.35999999999,"N_COORD97":2547514.3100000001,"ADDRESS":"郡安路四段８９巷２９號","OBJECTID":264829},"geometry":{"x":169027.36000000127,"y":2547514.3100000005}},{"attributes":{"ID":264834,"DIS_CODE":0,"TOWNNAME":"安南區","LI":"溪頂里","LIN":"24鄰","STREET":"郡安路","SECT":"四段","MAREA":" ","LANE":"８９巷","ALLEY":" ","HOUSE_NO":"３１號","E_COORD97":169027.07999999999,"N_COORD97":2547509.8100000001,"ADDRESS":"郡安路四段８９巷３１號","OBJECTID":264830},"geometry":{"x":169027.08000000101,"y":2547509.8100000005}},{"attributes":{"ID":264835,"DIS_CODE":0,"TOWNNAME":"仁德區","LI":"上崙里","LIN":"24鄰","STREET":"中正路","SECT":"一段","MAREA":" ","LANE":"７７４巷","ALLEY":" ","HOUSE_NO":"７號","E_COORD97":173023.54000000001,"N_COORD97":2537910.02,"ADDRESS":"中正路一段７７４巷７號","OBJECTID":264831},"geometry":{"x":173023.54000000004,"y":2537910.0199999996}},{"attributes":{"ID":264836,"DIS_CODE":0,"TOWNNAME":"仁德區","LI":"上崙里","LIN":"24鄰","STREET":"中正路","SECT":"一段","MAREA":" ","LANE":"７７４巷","ALLEY":" ","HOUSE_NO":"３號","E_COORD97":173015.88,"N_COORD97":2537907.52,"ADDRESS":"中正路一段７７４巷３號","OBJECTID":264832},"geometry":{"x":173015.87999999989,"y":2537907.5200000033}},{"attributes":{"ID":264837,"DIS_CODE":0,"TOWNNAME":"仁德區","LI":"大甲里","LIN":"24鄰","STREET":"二仁路","SECT":"一段","MAREA":" ","LANE":"４９１巷","ALLEY":" ","HOUSE_NO":"２８７號","E_COORD97":169396.87,"N_COORD97":2536219.02,"ADDRESS":"二仁路一段４９１巷２８７號","OBJECTID":264833},"geometry":{"x":169396.87000000011,"y":2536219.0200000033}},{"attributes":{"ID":264838,"DIS_CODE":0,"TOWNNAME":"仁德區","LI":"上崙里","LIN":"24鄰","STREET":"中正路","SECT":"一段","MAREA":" ","LANE":"７７４巷","ALLEY":" ","HOUSE_NO":"５號","E_COORD97":173019.69,"N_COORD97":2537908.52,"ADDRESS":"中正路一段７７４巷５號","OBJECTID":264834},"geometry":{"x":173019.69000000041,"y":2537908.5200000014}},{"attributes":{"ID":264839,"DIS_CODE":0,"TOWNNAME":"仁德區","LI":"大甲里","LIN":"24鄰","STREET":"行大街","SECT":" ","MAREA":" ","LANE":"４０２巷","ALLEY":" ","HOUSE_NO":"６７號","E_COORD97":169598.72,"N_COORD97":2535263,"ADDRESS":"行大街４０２巷６７號","OBJECTID":264835},"geometry":{"x":169598.72000000067,"y":2535263}},{"attributes":{"ID":264840,"DIS_CODE":0,"TOWNNAME":"東區","LI":"崇德里","LIN":"24鄰","STREET":"崇德路","SECT":" ","MAREA":" ","LANE":"５５０巷","ALLEY":" ","HOUSE_NO":"１５號","E_COORD97":170731.54000000001,"N_COORD97":2541447.4300000002,"ADDRESS":"崇德路５５０巷１５號","OBJECTID":264836},"geometry":{"x":170731.54000000004,"y":2541447.4299999997}},{"attributes":{"ID":264841,"DIS_CODE":0,"TOWNNAME":"東區","LI":"中西里","LIN":"24鄰","STREET":"東寧路","SECT":" ","MAREA":" ","LANE":"１２０巷","ALLEY":" ","HOUSE_NO":"１４號","E_COORD97":170231.35000000001,"N_COORD97":2543463.4300000002,"ADDRESS":"東寧路１２０巷１４號","OBJECTID":264837},"geometry":{"x":170231.35000000056,"y":2543463.4299999997}},{"attributes":{"ID":264842,"DIS_CODE":0,"TOWNNAME":"永康區","LI":"埔園里","LIN":"34鄰","STREET":"龍中街","SECT":" ","MAREA":" ","LANE":" ","ALLEY":" ","HOUSE_NO":"６５９號","E_COORD97":174282.48000000001,"N_COORD97":2548950.46,"ADDRESS":"龍中街６５９號","OBJECTID":264838},"geometry":{"x":174282.48000000045,"y":2548950.4600000009}},{"attributes":{"ID":264843,"DIS_CODE":0,"TOWNNAME":"東區","LI":"中西里","LIN":"24鄰","STREET":"東寧路","SECT":" ","MAREA":" ","LANE":"１２０巷","ALLEY":" ","HOUSE_NO":"２０號","E_COORD97":170199.14999999999,"N_COORD97":2543451.1699999999,"ADDRESS":"東寧路１２０巷２０號","OBJECTID":264839},"geometry":{"x":170199.15000000037,"y":2543451.1700000018}},{"attributes":{"ID":264844,"DIS_CODE":0,"TOWNNAME":"東區","LI":"中西里","LIN":"24鄰","STREET":"東寧路","SECT":" ","MAREA":" ","LANE":"１２０巷","ALLEY":" ","HOUSE_NO":"３４號","E_COORD97":170236.63,"N_COORD97":2543447.2200000002,"ADDRESS":"東寧路１２０巷３４號","OBJECTID":264840},"geometry":{"x":170236.63000000082,"y":2543447.2200000044}},{"attributes":{"ID":264845,"DIS_CODE":0,"TOWNNAME":"東區","LI":"中西里","LIN":"24鄰","STREET":"東寧路","SECT":" ","MAREA":" ","LANE":"１２０巷","ALLEY":" ","HOUSE_NO":"１０號之１","E_COORD97":170226.81,"N_COORD97":2543492.5099999998,"ADDRESS":"東寧路１２０巷１０號之１","OBJECTID":264841},"geometry":{"x":170226.81000000052,"y":2543492.5100000016}},{"attributes":{"ID":264846,"DIS_CODE":0,"TOWNNAME":"永康區","LI":"安康里","LIN":"24鄰","STREET":"中華路","SECT":" ","MAREA":" ","LANE":"７０３巷","ALLEY":" ","HOUSE_NO":"６０號","E_COORD97":170748.72,"N_COORD97":2546258.9900000002,"ADDRESS":"中華路７０３巷６０號","OBJECTID":264842},"geometry":{"x":170748.71999999974,"y":2546258.9900000039}},{"attributes":{"ID":264847,"DIS_CODE":0,"TOWNNAME":"永康區","LI":"西勢里","LIN":"24鄰","STREET":"廣興街","SECT":" ","MAREA":" ","LANE":"２６巷","ALLEY":" ","HOUSE_NO":"２０號","E_COORD97":175913.64000000001,"N_COORD97":2546483.3999999999,"ADDRESS":"廣興街２６巷２０號","OBJECTID":264843},"geometry":{"x":175913.6400000006,"y":2546483.4000000041}},{"attributes":{"ID":264848,"DIS_CODE":0,"TOWNNAME":"永康區","LI":"安康里","LIN":"24鄰","STREET":"中華路","SECT":" ","MAREA":" ","LANE":"７０３巷","ALLEY":" ","HOUSE_NO":"７４號之１","E_COORD97":170730.01999999999,"N_COORD97":2546269.04,"ADDRESS":"中華路７０３巷７４號之１","OBJECTID":264844},"geometry":{"x":170730.02000000142,"y":2546269.040000001}},{"attributes":{"ID":264849,"DIS_CODE":0,"TOWNNAME":"永康區","LI":"安康里","LIN":"24鄰","STREET":"中華路","SECT":" ","MAREA":" ","LANE":"７０３巷","ALLEY":" ","HOUSE_NO":"６６號","E_COORD97":170744.70000000001,"N_COORD97":2546243.25,"ADDRESS":"中華路７０３巷６６號","OBJECTID":264845},"geometry":{"x":170744.70000000205,"y":2546243.2500000037}},{"attributes":{"ID":264850,"DIS_CODE":0,"TOWNNAME":"永康區","LI":"西勢里","LIN":"24鄰","STREET":"廣興街","SECT":" ","MAREA":" ","LANE":"２６巷","ALLEY":" ","HOUSE_NO":"１８號","E_COORD97":175907.5,"N_COORD97":2546490.2799999998,"ADDRESS":"廣興街２６巷１８號","OBJECTID":264846},"geometry":{"x":175907.5,"y":2546490.2800000012}},{"attributes":{"ID":264851,"DIS_CODE":0,"TOWNNAME":"永康區","LI":"西勢里","LIN":"24鄰","STREET":"廣興街","SECT":" ","MAREA":" ","LANE":"３８巷","ALLEY":" ","HOUSE_NO":"８號","E_COORD97":175931.82000000001,"N_COORD97":2546542.04,"ADDRESS":"廣興街３８巷８號","OBJECTID":264847},"geometry":{"x":175931.82000000123,"y":2546542.0400000028}},{"attributes":{"ID":264852,"DIS_CODE":0,"TOWNNAME":"永康區","LI":"安康里","LIN":"24鄰","STREET":"中華路","SECT":" ","MAREA":" ","LANE":"７０３巷","ALLEY":" ","HOUSE_NO":"６８號","E_COORD97":170738.60000000001,"N_COORD97":2546240.5,"ADDRESS":"中華路７０３巷６８號","OBJECTID":264848},"geometry":{"x":170738.60000000056,"y":2546240.5}},{"attributes":{"ID":264853,"DIS_CODE":0,"TOWNNAME":"善化區","LI":"光文里","LIN":"24鄰","STREET":"公園路","SECT":" ","MAREA":" ","LANE":"５７巷","ALLEY":" ","HOUSE_NO":"５號","E_COORD97":178262.47,"N_COORD97":2559176.5,"ADDRESS":"公園路５７巷５號","OBJECTID":264849},"geometry":{"x":178262.47000000067,"y":2559176.5000000019}},{"attributes":{"ID":264854,"DIS_CODE":0,"TOWNNAME":"東區","LI":"崇誨里","LIN":"24鄰","STREET":"林森路","SECT":"二段","MAREA":" ","LANE":"１９２巷","ALLEY":" ","HOUSE_NO":"３７號","E_COORD97":170583.89000000001,"N_COORD97":2543348.0800000001,"ADDRESS":"林森路二段１９２巷３７號","OBJECTID":264850},"geometry":{"x":170583.8900000006,"y":2543348.0800000001}},{"attributes":{"ID":264855,"DIS_CODE":0,"TOWNNAME":"東區","LI":"崇誨里","LIN":"24鄰","STREET":"林森路","SECT":"二段","MAREA":" ","LANE":"１９２巷","ALLEY":" ","HOUSE_NO":"３９號","E_COORD97":170587.54999999999,"N_COORD97":2543348.9199999999,"ADDRESS":"林森路二段１９２巷３９號","OBJECTID":264851},"geometry":{"x":170587.54999999981,"y":2543348.9199999999}},{"attributes":{"ID":264856,"DIS_CODE":0,"TOWNNAME":"東區","LI":"崇誨里","LIN":"24鄰","STREET":"林森路","SECT":"二段","MAREA":" ","LANE":"１９２巷","ALLEY":" ","HOUSE_NO":"４１號","E_COORD97":170591.07999999999,"N_COORD97":2543350.4700000002,"ADDRESS":"林森路二段１９２巷４１號","OBJECTID":264852},"geometry":{"x":170591.07999999914,"y":2543350.4700000044}},{"attributes":{"ID":264857,"DIS_CODE":0,"TOWNNAME":"永康區","LI":"尚頂里","LIN":"24鄰","STREET":"南台街","SECT":" ","MAREA":" ","LANE":"５４巷","ALLEY":" ","HOUSE_NO":"５１號","E_COORD97":170296.62,"N_COORD97":2547147.0299999998,"ADDRESS":"南台街５４巷５１號","OBJECTID":264853},"geometry":{"x":170296.62000000104,"y":2547147.0300000012}},{"attributes":{"ID":264858,"DIS_CODE":0,"TOWNNAME":"永康區","LI":"尚頂里","LIN":"24鄰","STREET":"南台街","SECT":" ","MAREA":" ","LANE":"５４巷","ALLEY":" ","HOUSE_NO":"４３號","E_COORD97":170323.89000000001,"N_COORD97":2547113.9900000002,"ADDRESS":"南台街５４巷４３號","OBJECTID":264854},"geometry":{"x":170323.88999999966,"y":2547113.9900000021}},{"attributes":{"ID":264859,"DIS_CODE":0,"TOWNNAME":"永康區","LI":"西灣里","LIN":"24鄰","STREET":"國光七街","SECT":" ","MAREA":" ","LANE":"６巷","ALLEY":" ","HOUSE_NO":"２６號","E_COORD97":174391,"N_COORD97":2545637.2000000002,"ADDRESS":"國光七街６巷２６號","OBJECTID":264855},"geometry":{"x":174391.00000000093,"y":2545637.2000000011}},{"attributes":{"ID":264860,"DIS_CODE":0,"TOWNNAME":"永康區","LI":"西灣里","LIN":"24鄰","STREET":"國光七街","SECT":" ","MAREA":" ","LANE":"６巷","ALLEY":" ","HOUSE_NO":"８號之９","E_COORD97":174377.38,"N_COORD97":2545583.75,"ADDRESS":"國光七街６巷８號之９","OBJECTID":264856},"geometry":{"x":174377.37999999989,"y":2545583.7500000019}},{"attributes":{"ID":264861,"DIS_CODE":0,"TOWNNAME":"永康區","LI":"西灣里","LIN":"24鄰","STREET":"國光八街","SECT":" ","MAREA":" ","LANE":"１１巷","ALLEY":" ","HOUSE_NO":"５號","E_COORD97":174415.04000000001,"N_COORD97":2545720.25,"ADDRESS":"國光八街１１巷５號","OBJECTID":264857},"geometry":{"x":174415.04000000004,"y":2545720.25}},{"attributes":{"ID":264862,"DIS_CODE":0,"TOWNNAME":"永康區","LI":"尚頂里","LIN":"24鄰","STREET":"南台街","SECT":" ","MAREA":" ","LANE":"５４巷","ALLEY":" ","HOUSE_NO":"５３號","E_COORD97":170284.79000000001,"N_COORD97":2547150.25,"ADDRESS":"南台街５４巷５３號","OBJECTID":264858},"geometry":{"x":170284.79000000097,"y":2547150.25}},{"attributes":{"ID":264863,"DIS_CODE":0,"TOWNNAME":"永康區","LI":"\u25A0行里","LIN":"24鄰","STREET":"中正南路","SECT":" ","MAREA":" ","LANE":"５９２巷","ALLEY":" ","HOUSE_NO":"２４號","E_COORD97":171555.84,"N_COORD97":2548614.46,"ADDRESS":"中正南路５９２巷２４號","OBJECTID":264859},"geometry":{"x":171555.84000000078,"y":2548614.4600000009}},{"attributes":{"ID":264864,"DIS_CODE":0,"TOWNNAME":"永康區","LI":"\u25A0行里","LIN":"24鄰","STREET":"中正南路","SECT":" ","MAREA":" ","LANE":"５９２巷","ALLEY":" ","HOUSE_NO":"２１號","E_COORD97":171540.07999999999,"N_COORD97":2548636.9500000002,"ADDRESS":"中正南路５９２巷２１號","OBJECTID":264860},"geometry":{"x":171540.08000000007,"y":2548636.9499999993}},{"attributes":{"ID":264865,"DIS_CODE":0,"TOWNNAME":"永康區","LI":"\u25A0行里","LIN":"24鄰","STREET":"中正南路","SECT":" ","MAREA":" ","LANE":"５９２巷","ALLEY":" ","HOUSE_NO":"２７號","E_COORD97":171564.54999999999,"N_COORD97":2548603.1299999999,"ADDRESS":"中正南路５９２巷２７號","OBJECTID":264861},"geometry":{"x":171564.55000000075,"y":2548603.1300000008}},{"attributes":{"ID":264866,"DIS_CODE":0,"TOWNNAME":"永康區","LI":"\u25A0洲里","LIN":"24鄰","STREET":"正南二街","SECT":" ","MAREA":" ","LANE":"８６巷","ALLEY":" ","HOUSE_NO":"２１號","E_COORD97":170763.37,"N_COORD97":2548480.5,"ADDRESS":"正南二街８６巷２１號","OBJECTID":264862},"geometry":{"x":170763.37000000011,"y":2548480.5000000019}},{"attributes":{"ID":264867,"DIS_CODE":0,"TOWNNAME":"永康區","LI":"\u25A0行里","LIN":"24鄰","STREET":"中正南路","SECT":" ","MAREA":" ","LANE":"５９２巷","ALLEY":" ","HOUSE_NO":"２８號","E_COORD97":171567.89000000001,"N_COORD97":2548600.1299999999,"ADDRESS":"中正南路５９２巷２８號","OBJECTID":264863},"geometry":{"x":171567.88999999966,"y":2548600.1300000008}},{"attributes":{"ID":264868,"DIS_CODE":0,"TOWNNAME":"永康區","LI":"\u25A0洲里","LIN":"24鄰","STREET":"正南二街","SECT":" ","MAREA":" ","LANE":"８６巷","ALLEY":" ","HOUSE_NO":"４６號","E_COORD97":170834.57999999999,"N_COORD97":2548568.46,"ADDRESS":"正南二街８６巷４６號","OBJECTID":264864},"geometry":{"x":170834.58000000007,"y":2548568.4600000046}},{"attributes":{"ID":264869,"DIS_CODE":0,"TOWNNAME":"永康區","LI":"龍潭里","LIN":"24鄰","STREET":"中山北路","SECT":" ","MAREA":" ","LANE":"２６４巷","ALLEY":" ","HOUSE_NO":"１３號","E_COORD97":174715.73000000001,"N_COORD97":2547586.04,"ADDRESS":"中山北路２６４巷１３號","OBJECTID":264865},"geometry":{"x":174715.73000000138,"y":2547586.0399999991}},{"attributes":{"ID":264870,"DIS_CODE":0,"TOWNNAME":"仁德區","LI":"上崙里","LIN":"24鄰","STREET":"中正路","SECT":"一段","MAREA":" ","LANE":"７７４巷","ALLEY":" ","HOUSE_NO":"１３之１號","E_COORD97":173042.54999999999,"N_COORD97":2537916.0499999998,"ADDRESS":"中正路一段７７４巷１３之１號","OBJECTID":264866},"geometry":{"x":173042.55000000075,"y":2537916.0500000026}},{"attributes":{"ID":264871,"DIS_CODE":0,"TOWNNAME":"東區","LI":"泉南里","LIN":"24鄰","STREET":"府連路","SECT":" ","MAREA":" ","LANE":"３４４巷","ALLEY":" ","HOUSE_NO":"２０號","E_COORD97":169596.20999999999,"N_COORD97":2542724.4300000002,"ADDRESS":"府連路３４４巷２０號","OBJECTID":264867},"geometry":{"x":169596.20999999996,"y":2542724.4299999997}},{"attributes":{"ID":264872,"DIS_CODE":0,"TOWNNAME":"安南區","LI":"海東里","LIN":"24鄰","STREET":"同安路","SECT":" ","MAREA":" ","LANE":"２３７巷","ALLEY":" ","HOUSE_NO":"１１９號","E_COORD97":166995.01000000001,"N_COORD97":2549375.1200000001,"ADDRESS":"同安路２３７巷１１９號","OBJECTID":264868},"geometry":{"x":166995.00999999978,"y":2549375.1200000029}},{"attributes":{"ID":264873,"DIS_CODE":0,"TOWNNAME":"安南區","LI":"海東里","LIN":"24鄰","STREET":"同安路","SECT":" ","MAREA":" ","LANE":"２３７巷","ALLEY":" ","HOUSE_NO":"１２１號","E_COORD97":166990.75,"N_COORD97":2549376.5899999999,"ADDRESS":"同安路２３７巷１２１號","OBJECTID":264869},"geometry":{"x":166990.75,"y":2549376.5899999999}},{"attributes":{"ID":264874,"DIS_CODE":0,"TOWNNAME":"安南區","LI":"海東里","LIN":"24鄰","STREET":"同安路","SECT":" ","MAREA":" ","LANE":"２３７巷","ALLEY":" ","HOUSE_NO":"１２３號","E_COORD97":166988.42000000001,"N_COORD97":2549380.1299999999,"ADDRESS":"同安路２３７巷１２３號","OBJECTID":264870},"geometry":{"x":166988.42000000086,"y":2549380.1300000008}},{"attributes":{"ID":264875,"DIS_CODE":0,"TOWNNAME":"永康區","LI":"埔園里","LIN":"34鄰","STREET":"龍中街","SECT":" ","MAREA":" ","LANE":" ","ALLEY":" ","HOUSE_NO":"６６１號","E_COORD97":174271.23000000001,"N_COORD97":2548955.77,"ADDRESS":"龍中街６６１號","OBJECTID":264871},"geometry":{"x":174271.23000000138,"y":2548955.7700000014}},{"attributes":{"ID":264876,"DIS_CODE":0,"TOWNNAME":"安南區","LI":"海東里","LIN":"24鄰","STREET":"同安路","SECT":" ","MAREA":" ","LANE":"２３７巷","ALLEY":" ","HOUSE_NO":"１２５號","E_COORD97":166984.60000000001,"N_COORD97":2549381.27,"ADDRESS":"同安路２３７巷１２５號","OBJECTID":264872},"geometry":{"x":166984.59999999963,"y":2549381.2699999996}},{"attributes":{"ID":264877,"DIS_CODE":0,"TOWNNAME":"安南區","LI":"海東里","LIN":"24鄰","STREET":"同安路","SECT":" ","MAREA":" ","LANE":"２３７巷","ALLEY":" ","HOUSE_NO":"１２７號","E_COORD97":166981.84,"N_COORD97":2549385.1499999999,"ADDRESS":"同安路２３７巷１２７號","OBJECTID":264873},"geometry":{"x":166981.84000000171,"y":2549385.1500000022}},{"attributes":{"ID":264878,"DIS_CODE":0,"TOWNNAME":"安南區","LI":"海東里","LIN":"24鄰","STREET":"同安路","SECT":" ","MAREA":" ","LANE":"２３７巷","ALLEY":" ","HOUSE_NO":"１２９號","E_COORD97":166978.54000000001,"N_COORD97":2549387.6600000001,"ADDRESS":"同安路２３７巷１２９號","OBJECTID":264874},"geometry":{"x":166978.54000000004,"y":2549387.660000002}},{"attributes":{"ID":264879,"DIS_CODE":0,"TOWNNAME":"七股區","LI":"大寮里","LIN":"3鄰","STREET":" ","SECT":" ","MAREA":"大寮","LANE":" ","ALLEY":" ","HOUSE_NO":"２０號","E_COORD97":163022.14000000001,"N_COORD97":2561017.0499999998,"ADDRESS":"大寮２０號","OBJECTID":264875},"geometry":{"x":163022.1400000006,"y":2561017.0499999989}},{"attributes":{"ID":264880,"DIS_CODE":0,"TOWNNAME":"安南區","LI":"海東里","LIN":"24鄰","STREET":"同安路","SECT":" ","MAREA":" ","LANE":"２３７巷","ALLEY":" ","HOUSE_NO":"１３１號","E_COORD97":166975.25,"N_COORD97":2549390.1600000001,"ADDRESS":"同安路２３７巷１３１號","OBJECTID":264876},"geometry":{"x":166975.25,"y":2549390.1600000039}},{"attributes":{"ID":264881,"DIS_CODE":0,"TOWNNAME":"安南區","LI":"海東里","LIN":"24鄰","STREET":"同安路","SECT":" ","MAREA":" ","LANE":"２３７巷","ALLEY":" ","HOUSE_NO":"１３３號","E_COORD97":166974.51000000001,"N_COORD97":2549396.0299999998,"ADDRESS":"同安路２３７巷１３３號","OBJECTID":264877},"geometry":{"x":166974.51000000071,"y":2549396.0299999993}},{"attributes":{"ID":264882,"DIS_CODE":0,"TOWNNAME":"安南區","LI":"海東里","LIN":"24鄰","STREET":"同安路","SECT":" ","MAREA":" ","LANE":"２３７巷","ALLEY":" ","HOUSE_NO":"１３５號","E_COORD97":166968.20999999999,"N_COORD97":2549394.04,"ADDRESS":"同安路２３７巷１３５號","OBJECTID":264878},"geometry":{"x":166968.21000000089,"y":2549394.040000001}},{"attributes":{"ID":264883,"DIS_CODE":0,"TOWNNAME":"安南區","LI":"海東里","LIN":"24鄰","STREET":"同安路","SECT":" ","MAREA":" ","LANE":"２３７巷","ALLEY":" ","HOUSE_NO":"１３７號","E_COORD97":166964.88,"N_COORD97":2549395.8300000001,"ADDRESS":"同安路２３７巷１３７號","OBJECTID":264879},"geometry":{"x":166964.88000000082,"y":2549395.8300000038}},{"attributes":{"ID":264884,"DIS_CODE":0,"TOWNNAME":"安南區","LI":"海東里","LIN":"24鄰","STREET":"同安路","SECT":" ","MAREA":" ","LANE":"２３７巷","ALLEY":" ","HOUSE_NO":"１３９號","E_COORD97":166962.79999999999,"N_COORD97":2549399.6800000002,"ADDRESS":"同安路２３７巷１３９號","OBJECTID":264880},"geometry":{"x":166962.79999999981,"y":2549399.6799999978}},{"attributes":{"ID":264885,"DIS_CODE":0,"TOWNNAME":"安南區","LI":"海東里","LIN":"24鄰","STREET":"同安路","SECT":" ","MAREA":" ","LANE":"２３７巷","ALLEY":" ","HOUSE_NO":"１４３號","E_COORD97":166955.01999999999,"N_COORD97":2549403.3300000001,"ADDRESS":"同安路２３７巷１４３號","OBJECTID":264881},"geometry":{"x":166955.02000000048,"y":2549403.3300000019}},{"attributes":{"ID":264886,"DIS_CODE":0,"TOWNNAME":"安南區","LI":"海東里","LIN":"24鄰","STREET":"同安路","SECT":" ","MAREA":" ","LANE":"２３７巷","ALLEY":" ","HOUSE_NO":"１４５號","E_COORD97":166951.73999999999,"N_COORD97":2549405.8300000001,"ADDRESS":"同安路２３７巷１４５號","OBJECTID":264882},"geometry":{"x":166951.74000000022,"y":2549405.8299999982}},{"attributes":{"ID":264887,"DIS_CODE":0,"TOWNNAME":"安南區","LI":"海東里","LIN":"24鄰","STREET":"同安路","SECT":" ","MAREA":" ","LANE":"２３７巷","ALLEY":" ","HOUSE_NO":"１４７號","E_COORD97":166948.45000000001,"N_COORD97":2549408.3300000001,"ADDRESS":"同安路２３７巷１４７號","OBJECTID":264883},"geometry":{"x":166948.45000000019,"y":2549408.3300000001}},{"attributes":{"ID":264888,"DIS_CODE":0,"TOWNNAME":"安南區","LI":"海東里","LIN":"24鄰","STREET":"同安路","SECT":" ","MAREA":" ","LANE":"２３７巷","ALLEY":" ","HOUSE_NO":"１４９號","E_COORD97":166945.17000000001,"N_COORD97":2549410.8300000001,"ADDRESS":"同安路２３７巷１４９號","OBJECTID":264884},"geometry":{"x":166945.16999999993,"y":2549410.8300000019}},{"attributes":{"ID":264889,"DIS_CODE":0,"TOWNNAME":"永康區","LI":"\u25A0行里","LIN":"24鄰","STREET":"中正南路","SECT":" ","MAREA":" ","LANE":"５９２巷","ALLEY":" ","HOUSE_NO":"１８號","E_COORD97":171528.69,"N_COORD97":2548648.4500000002,"ADDRESS":"中正南路５９２巷１８號","OBJECTID":264885},"geometry":{"x":171528.69000000134,"y":2548648.450000003}},{"attributes":{"ID":264890,"DIS_CODE":0,"TOWNNAME":"永康區","LI":"\u25A0洲里","LIN":"24鄰","STREET":"正南二街","SECT":" ","MAREA":" ","LANE":"４６巷","ALLEY":" ","HOUSE_NO":"２號","E_COORD97":170839.82999999999,"N_COORD97":2548302.3700000001,"ADDRESS":"正南二街４６巷２號","OBJECTID":264886},"geometry":{"x":170839.83000000007,"y":2548302.3700000029}},{"attributes":{"ID":264891,"DIS_CODE":0,"TOWNNAME":"永康區","LI":"\u25A0洲里","LIN":"24鄰","STREET":"正南二街","SECT":" ","MAREA":" ","LANE":"８６巷","ALLEY":" ","HOUSE_NO":"１８號","E_COORD97":170794.60000000001,"N_COORD97":2548487,"ADDRESS":"正南二街８６巷１８號","OBJECTID":264887},"geometry":{"x":170794.60000000056,"y":2548487.0000000019}},{"attributes":{"ID":264892,"DIS_CODE":0,"TOWNNAME":"永康區","LI":"\u25A0洲里","LIN":"24鄰","STREET":"正南二街","SECT":" ","MAREA":" ","LANE":"８６巷","ALLEY":" ","HOUSE_NO":"２７號","E_COORD97":170774.10000000001,"N_COORD97":2548502.75,"ADDRESS":"正南二街８６巷２７號","OBJECTID":264888},"geometry":{"x":170774.10000000056,"y":2548502.7500000019}},{"attributes":{"ID":264893,"DIS_CODE":0,"TOWNNAME":"永康區","LI":"\u25A0洲里","LIN":"24鄰","STREET":"正南二街","SECT":" ","MAREA":" ","LANE":"８６巷","ALLEY":" ","HOUSE_NO":"２５號","E_COORD97":170770.5,"N_COORD97":2548494.75,"ADDRESS":"正南二街８６巷２５號","OBJECTID":264889},"geometry":{"x":170770.5,"y":2548494.7500000019}},{"attributes":{"ID":264894,"DIS_CODE":0,"TOWNNAME":"永康區","LI":"\u25A0洲里","LIN":"24鄰","STREET":"正南二街","SECT":" ","MAREA":" ","LANE":"４６巷","ALLEY":" ","HOUSE_NO":"１８號","E_COORD97":170854.63,"N_COORD97":2548341.6099999999,"ADDRESS":"正南二街４６巷１８號","OBJECTID":264890},"geometry":{"x":170854.62999999989,"y":2548341.6099999994}},{"attributes":{"ID":264895,"DIS_CODE":0,"TOWNNAME":"永康區","LI":"\u25A0洲里","LIN":"24鄰","STREET":"中正南路","SECT":" ","MAREA":" ","LANE":"４５３巷","ALLEY":" ","HOUSE_NO":"３２號","E_COORD97":170745.67999999999,"N_COORD97":2548254.3900000001,"ADDRESS":"中正南路４５３巷３２號","OBJECTID":264891},"geometry":{"x":170745.6799999997,"y":2548254.3900000025}},{"attributes":{"ID":264896,"DIS_CODE":0,"TOWNNAME":"永康區","LI":"\u25A0洲里","LIN":"24鄰","STREET":"中正南路","SECT":" ","MAREA":" ","LANE":"４５３巷","ALLEY":" ","HOUSE_NO":"３０號","E_COORD97":170749.42999999999,"N_COORD97":2548246.1400000001,"ADDRESS":"中正南路４５３巷３０號","OBJECTID":264892},"geometry":{"x":170749.43000000156,"y":2548246.1400000025}},{"attributes":{"ID":264897,"DIS_CODE":0,"TOWNNAME":"學甲區","LI":"三慶里","LIN":"2鄰","STREET":" ","SECT":" ","MAREA":"頂洲","LANE":" ","ALLEY":" ","HOUSE_NO":"２６號","E_COORD97":168650.94,"N_COORD97":2576479.1899999999,"ADDRESS":"頂洲２６號","OBJECTID":264893},"geometry":{"x":168650.94000000041,"y":2576479.1900000013}},{"attributes":{"ID":264898,"DIS_CODE":0,"TOWNNAME":"永康區","LI":"網寮里","LIN":"24鄰","STREET":"永春街","SECT":" ","MAREA":" ","LANE":"３８巷","ALLEY":" ","HOUSE_NO":"３６號","E_COORD97":173822.45999999999,"N_COORD97":2546442.71,"ADDRESS":"永春街３８巷３６號","OBJECTID":264894},"geometry":{"x":173822.45999999996,"y":2546442.7100000028}},{"attributes":{"ID":264899,"DIS_CODE":0,"TOWNNAME":"永康區","LI":"網寮里","LIN":"24鄰","STREET":"永春街","SECT":" ","MAREA":" ","LANE":"３８巷","ALLEY":" ","HOUSE_NO":"５號","E_COORD97":173751.48000000001,"N_COORD97":2546441.3599999999,"ADDRESS":"永春街３８巷５號","OBJECTID":264895},"geometry":{"x":173751.48000000045,"y":2546441.3599999994}},{"attributes":{"ID":264900,"DIS_CODE":0,"TOWNNAME":"永康區","LI":"龍潭里","LIN":"24鄰","STREET":"中山北路","SECT":" ","MAREA":" ","LANE":"２６４巷","ALLEY":" ","HOUSE_NO":"７號","E_COORD97":174712.16,"N_COORD97":2547633.5299999998,"ADDRESS":"中山北路２６４巷７號","OBJECTID":264896},"geometry":{"x":174712.16000000108,"y":2547633.5299999993}},{"attributes":{"ID":264901,"DIS_CODE":0,"TOWNNAME":"永康區","LI":"龍潭里","LIN":"24鄰","STREET":"中山北路","SECT":" ","MAREA":" ","LANE":"２６４巷","ALLEY":" ","HOUSE_NO":"３５號","E_COORD97":174718.42000000001,"N_COORD97":2547509.04,"ADDRESS":"中山北路２６４巷３５號","OBJECTID":264897},"geometry":{"x":174718.42000000086,"y":2547509.040000001}},{"attributes":{"ID":264902,"DIS_CODE":0,"TOWNNAME":"仁德區","LI":"仁義里","LIN":"24鄰","STREET":"中清路","SECT":" ","MAREA":" ","LANE":"１５５巷","ALLEY":" ","HOUSE_NO":"３號","E_COORD97":173693.12,"N_COORD97":2541497.79,"ADDRESS":"中清路１５５巷３號","OBJECTID":264898},"geometry":{"x":173693.12000000197,"y":2541497.7899999991}},{"attributes":{"ID":264903,"DIS_CODE":0,"TOWNNAME":"永康區","LI":"龍潭里","LIN":"24鄰","STREET":"中山北路","SECT":" ","MAREA":" ","LANE":"２６４巷","ALLEY":" ","HOUSE_NO":"３７號","E_COORD97":174721.70999999999,"N_COORD97":2547492.54,"ADDRESS":"中山北路２６４巷３７號","OBJECTID":264899},"geometry":{"x":174721.71000000089,"y":2547492.540000001}},{"attributes":{"ID":264904,"DIS_CODE":0,"TOWNNAME":"永康區","LI":"龍潭里","LIN":"24鄰","STREET":"中山北路","SECT":" ","MAREA":" ","LANE":"２６４巷","ALLEY":" ","HOUSE_NO":"１６７號之１","E_COORD97":174733.48999999999,"N_COORD97":2547104.0099999998,"ADDRESS":"中山北路２６４巷１６７號之１","OBJECTID":264900},"geometry":{"x":174733.49000000115,"y":2547104.0100000016}},{"attributes":{"ID":264905,"DIS_CODE":0,"TOWNNAME":"永康區","LI":"\u25A0行里","LIN":"24鄰","STREET":"中正南路","SECT":" ","MAREA":" ","LANE":"５９２巷","ALLEY":" ","HOUSE_NO":"１２號","E_COORD97":171508.20000000001,"N_COORD97":2548672.9500000002,"ADDRESS":"中正南路５９２巷１２號","OBJECTID":264901},"geometry":{"x":171508.20000000112,"y":2548672.9500000011}},{"attributes":{"ID":264906,"DIS_CODE":0,"TOWNNAME":"永康區","LI":"龍潭里","LIN":"24鄰","STREET":"中山北路","SECT":" ","MAREA":" ","LANE":"２６４巷","ALLEY":" ","HOUSE_NO":"４３號","E_COORD97":174720.45000000001,"N_COORD97":2547424.9700000002,"ADDRESS":"中山北路２６４巷４３號","OBJECTID":264902},"geometry":{"x":174720.45000000112,"y":2547424.9700000007}},{"attributes":{"ID":264907,"DIS_CODE":0,"TOWNNAME":"東區","LI":"莊敬里","LIN":"24鄰","STREET":"東光路","SECT":"二段","MAREA":" ","LANE":"１１巷","ALLEY":" ","HOUSE_NO":"１３號","E_COORD97":171160.23000000001,"N_COORD97":2544001.3399999999,"ADDRESS":"東光路二段１１巷１３號","OBJECTID":264903},"geometry":{"x":171160.23000000231,"y":2544001.3400000036}},{"attributes":{"ID":264908,"DIS_CODE":0,"TOWNNAME":"東區","LI":"莊敬里","LIN":"24鄰","STREET":"東光路","SECT":"二段","MAREA":" ","LANE":"１１巷","ALLEY":" ","HOUSE_NO":"３號","E_COORD97":171179.73999999999,"N_COORD97":2543999.0600000001,"ADDRESS":"東光路二段１１巷３號","OBJECTID":264904},"geometry":{"x":171179.74000000022,"y":2543999.0600000005}},{"attributes":{"ID":264909,"DIS_CODE":0,"TOWNNAME":"仁德區","LI":"仁德里","LIN":"22鄰","STREET":"文善街","SECT":" ","MAREA":" ","LANE":" ","ALLEY":" ","HOUSE_NO":"１２６號二樓之２","E_COORD97":172349.95000000001,"N_COORD97":2541468.8300000001,"ADDRESS":"文善街１２６號二樓之２","OBJECTID":264905},"geometry":{"x":172349.95000000019,"y":2541468.8300000001}},{"attributes":{"ID":264910,"DIS_CODE":0,"TOWNNAME":"仁德區","LI":"仁德里","LIN":"22鄰","STREET":"文善街","SECT":" ","MAREA":" ","LANE":" ","ALLEY":" ","HOUSE_NO":"１２６號三樓之２","E_COORD97":172349.95000000001,"N_COORD97":2541468.8300000001,"ADDRESS":"文善街１２６號三樓之２","OBJECTID":264906},"geometry":{"x":172349.95000000019,"y":2541468.8300000001}},{"attributes":{"ID":264911,"DIS_CODE":0,"TOWNNAME":"仁德區","LI":"仁德里","LIN":"22鄰","STREET":"文善街","SECT":" ","MAREA":" ","LANE":" ","ALLEY":" ","HOUSE_NO":"１２６號二樓之１","E_COORD97":172349.95000000001,"N_COORD97":2541468.8300000001,"ADDRESS":"文善街１２６號二樓之１","OBJECTID":264907},"geometry":{"x":172349.95000000019,"y":2541468.8300000001}},{"attributes":{"ID":264912,"DIS_CODE":0,"TOWNNAME":"永康區","LI":"復華里","LIN":"24鄰","STREET":"復華八街","SECT":" ","MAREA":" ","LANE":"５６巷","ALLEY":" ","HOUSE_NO":"１３號","E_COORD97":172786.94,"N_COORD97":2546278.7599999998,"ADDRESS":"復華八街５６巷１３號","OBJECTID":264908},"geometry":{"x":172786.94000000041,"y":2546278.7599999998}},{"attributes":{"ID":264913,"DIS_CODE":0,"TOWNNAME":"永康區","LI":"復興里","LIN":"24鄰","STREET":"復興路","SECT":" ","MAREA":" ","LANE":"３５６巷","ALLEY":" ","HOUSE_NO":"６６號","E_COORD97":172358.51000000001,"N_COORD97":2544508.02,"ADDRESS":"復興路３５６巷６６號","OBJECTID":264909},"geometry":{"x":172358.51000000071,"y":2544508.0199999996}},{"attributes":{"ID":264914,"DIS_CODE":0,"TOWNNAME":"永康區","LI":"安康里","LIN":"24鄰","STREET":"中華路","SECT":" ","MAREA":" ","LANE":"７０３巷","ALLEY":" ","HOUSE_NO":"７６號","E_COORD97":170724.59,"N_COORD97":2546274.9900000002,"ADDRESS":"中華路７０３巷７６號","OBJECTID":264910},"geometry":{"x":170724.58999999985,"y":2546274.9900000002}},{"attributes":{"ID":264915,"DIS_CODE":0,"TOWNNAME":"永康區","LI":"網寮里","LIN":"24鄰","STREET":"永春街","SECT":" ","MAREA":" ","LANE":"３６巷","ALLEY":" ","HOUSE_NO":"７號","E_COORD97":173762.98999999999,"N_COORD97":2546400.2000000002,"ADDRESS":"永春街３６巷７號","OBJECTID":264911},"geometry":{"x":173762.99000000022,"y":2546400.2000000011}},{"attributes":{"ID":264916,"DIS_CODE":0,"TOWNNAME":"永康區","LI":"\u25A0行里","LIN":"24鄰","STREET":"中正南路","SECT":" ","MAREA":" ","LANE":"５９２巷","ALLEY":" ","HOUSE_NO":"１９號","E_COORD97":171532.35999999999,"N_COORD97":2548644.4500000002,"ADDRESS":"中正南路５９２巷１９號","OBJECTID":264912},"geometry":{"x":171532.36000000127,"y":2548644.4499999993}},{"attributes":{"ID":264917,"DIS_CODE":0,"TOWNNAME":"東區","LI":"崇善里","LIN":"24鄰","STREET":"崇善十二街","SECT":" ","MAREA":" ","LANE":"５６巷","ALLEY":" ","HOUSE_NO":"１號","E_COORD97":171354.51999999999,"N_COORD97":2541145.2400000002,"ADDRESS":"崇善十二街５６巷１號","OBJECTID":264913},"geometry":{"x":171354.52000000048,"y":2541145.2400000021}},{"attributes":{"ID":264918,"DIS_CODE":0,"TOWNNAME":"東區","LI":"崇善里","LIN":"24鄰","STREET":"崇善十二街","SECT":" ","MAREA":" ","LANE":"５６巷","ALLEY":" ","HOUSE_NO":"３號","E_COORD97":171356.85000000001,"N_COORD97":2541139.0299999998,"ADDRESS":"崇善十二街５６巷３號","OBJECTID":264914},"geometry":{"x":171356.85000000149,"y":2541139.0300000012}},{"attributes":{"ID":264919,"DIS_CODE":0,"TOWNNAME":"東區","LI":"崇善里","LIN":"24鄰","STREET":"崇善十二街","SECT":" ","MAREA":" ","LANE":"５６巷","ALLEY":" ","HOUSE_NO":"５號","E_COORD97":171361.51999999999,"N_COORD97":2541132.3900000001,"ADDRESS":"崇善十二街５６巷５號","OBJECTID":264915},"geometry":{"x":171361.51999999955,"y":2541132.3900000006}},{"attributes":{"ID":264920,"DIS_CODE":0,"TOWNNAME":"安平區","LI":"文平里","LIN":"26鄰","STREET":"永華二街","SECT":" ","MAREA":" ","LANE":"４１巷","ALLEY":" ","HOUSE_NO":"３０號","E_COORD97":166263.01000000001,"N_COORD97":2542972.7400000002,"ADDRESS":"永華二街４１巷３０號","OBJECTID":264916},"geometry":{"x":166263.00999999978,"y":2542972.7400000021}},{"attributes":{"ID":264921,"DIS_CODE":0,"TOWNNAME":"安平區","LI":"文平里","LIN":"25鄰","STREET":"永華二街","SECT":" ","MAREA":" ","LANE":"４１巷","ALLEY":" ","HOUSE_NO":"５３號","E_COORD97":166203.76999999999,"N_COORD97":2542955.75,"ADDRESS":"永華二街４１巷５３號","OBJECTID":264917},"geometry":{"x":166203.76999999862,"y":2542955.7500000019}},{"attributes":{"ID":264922,"DIS_CODE":0,"TOWNNAME":"安平區","LI":"文平里","LIN":"25鄰","STREET":"永華二街","SECT":" ","MAREA":" ","LANE":"４１巷","ALLEY":" ","HOUSE_NO":"５５號","E_COORD97":166198.78,"N_COORD97":2542955.6499999999,"ADDRESS":"永華二街４１巷５５號","OBJECTID":264918},"geometry":{"x":166198.78000000026,"y":2542955.6500000041}},{"attributes":{"ID":264923,"DIS_CODE":0,"TOWNNAME":"南區","LI":"開南里","LIN":"24鄰","STREET":"新建路","SECT":" ","MAREA":" ","LANE":"４９巷","ALLEY":" ","HOUSE_NO":"４號","E_COORD97":166485.78,"N_COORD97":2540812.4500000002,"ADDRESS":"新建路４９巷４號","OBJECTID":264919},"geometry":{"x":166485.78000000026,"y":2540812.4499999993}},{"attributes":{"ID":264924,"DIS_CODE":0,"TOWNNAME":"南區","LI":"開南里","LIN":"24鄰","STREET":"新建路","SECT":" ","MAREA":" ","LANE":"４９巷","ALLEY":" ","HOUSE_NO":"５號","E_COORD97":166559.78,"N_COORD97":2540848.98,"ADDRESS":"新建路４９巷５號","OBJECTID":264920},"geometry":{"x":166559.78000000026,"y":2540848.9800000023}},{"attributes":{"ID":264925,"DIS_CODE":0,"TOWNNAME":"南區","LI":"開南里","LIN":"24鄰","STREET":"新建路","SECT":" ","MAREA":" ","LANE":"４９巷","ALLEY":" ","HOUSE_NO":"８號","E_COORD97":166503.66,"N_COORD97":2540812.1299999999,"ADDRESS":"新建路４９巷８號","OBJECTID":264921},"geometry":{"x":166503.66000000201,"y":2540812.1300000008}},{"attributes":{"ID":264926,"DIS_CODE":0,"TOWNNAME":"安平區","LI":"建平里","LIN":"24鄰","STREET":"建平九街","SECT":" ","MAREA":" ","LANE":"６０巷","ALLEY":" ","HOUSE_NO":"３３號之１","E_COORD97":166006.89999999999,"N_COORD97":2543648.9199999999,"ADDRESS":"建平九街６０巷３３號之１","OBJECTID":264922},"geometry":{"x":166006.90000000037,"y":2543648.9200000018}},{"attributes":{"ID":264927,"DIS_CODE":0,"TOWNNAME":"安平區","LI":"建平里","LIN":"24鄰","STREET":"建平九街","SECT":" ","MAREA":" ","LANE":"６０巷","ALLEY":" ","HOUSE_NO":"３３號之２","E_COORD97":166008.87,"N_COORD97":2543661.3399999999,"ADDRESS":"建平九街６０巷３３號之２","OBJECTID":264923},"geometry":{"x":166008.87000000197,"y":2543661.3399999999}},{"attributes":{"ID":264928,"DIS_CODE":0,"TOWNNAME":"安平區","LI":"建平里","LIN":"24鄰","STREET":"建平九街","SECT":" ","MAREA":" ","LANE":"６０巷","ALLEY":" ","HOUSE_NO":"３３號地下層","E_COORD97":166008.56,"N_COORD97":2543654,"ADDRESS":"建平九街６０巷３３號地下層","OBJECTID":264924},"geometry":{"x":166008.55999999959,"y":2543654}},{"attributes":{"ID":264929,"DIS_CODE":0,"TOWNNAME":"歸仁區","LI":"八甲里","LIN":"24鄰","STREET":"大德路","SECT":" ","MAREA":" ","LANE":"１２０巷","ALLEY":" ","HOUSE_NO":"３１號","E_COORD97":178104.44,"N_COORD97":2541425.25,"ADDRESS":"大德路１２０巷３１號","OBJECTID":264925},"geometry":{"x":178104.44000000134,"y":2541425.2499999981}},{"attributes":{"ID":264930,"DIS_CODE":0,"TOWNNAME":"北區","LI":"重興里","LIN":"24鄰","STREET":"東豐路","SECT":" ","MAREA":" ","LANE":"４５１巷","ALLEY":" ","HOUSE_NO":"７１號","E_COORD97":170821.85999999999,"N_COORD97":2544852.8399999999,"ADDRESS":"東豐路４５１巷７１號","OBJECTID":264926},"geometry":{"x":170821.8600000022,"y":2544852.8400000017}},{"attributes":{"ID":264931,"DIS_CODE":0,"TOWNNAME":"北區","LI":"大豐里","LIN":"24鄰","STREET":"和緯路","SECT":"四段","MAREA":" ","LANE":"９５巷","ALLEY":" ","HOUSE_NO":"２７號","E_COORD97":167127.37,"N_COORD97":2545402.8700000001,"ADDRESS":"和緯路四段９５巷２７號","OBJECTID":264927},"geometry":{"x":167127.37000000011,"y":2545402.8700000048}},{"attributes":{"ID":264932,"DIS_CODE":0,"TOWNNAME":"北區","LI":"大豐里","LIN":"24鄰","STREET":"和緯路","SECT":"四段","MAREA":" ","LANE":"９５巷","ALLEY":" ","HOUSE_NO":"２９號","E_COORD97":167125.35000000001,"N_COORD97":2545393.3100000001,"ADDRESS":"和緯路四段９５巷２９號","OBJECTID":264928},"geometry":{"x":167125.34999999963,"y":2545393.3100000024}},{"attributes":{"ID":264933,"DIS_CODE":0,"TOWNNAME":"北區","LI":"大豐里","LIN":"24鄰","STREET":"和緯路","SECT":"四段","MAREA":" ","LANE":"９５巷","ALLEY":" ","HOUSE_NO":"３１號","E_COORD97":167125.17000000001,"N_COORD97":2545390.21,"ADDRESS":"和緯路四段９５巷３１號","OBJECTID":264929},"geometry":{"x":167125.16999999993,"y":2545390.2100000046}},{"attributes":{"ID":264934,"DIS_CODE":0,"TOWNNAME":"北區","LI":"大豐里","LIN":"24鄰","STREET":"和緯路","SECT":"四段","MAREA":" ","LANE":"９５巷","ALLEY":" ","HOUSE_NO":"３３號","E_COORD97":167125.17000000001,"N_COORD97":2545380.7999999998,"ADDRESS":"和緯路四段９５巷３３號","OBJECTID":264930},"geometry":{"x":167125.16999999993,"y":2545380.8000000026}},{"attributes":{"ID":264935,"DIS_CODE":0,"TOWNNAME":"永康區","LI":"埔園里","LIN":"34鄰","STREET":"龍中街","SECT":" ","MAREA":" ","LANE":" ","ALLEY":" ","HOUSE_NO":"６６５號","E_COORD97":174275.41,"N_COORD97":2548964.3900000001,"ADDRESS":"龍中街６６５號","OBJECTID":264931},"geometry":{"x":174275.41000000015,"y":2548964.3900000006}},{"attributes":{"ID":264936,"DIS_CODE":0,"TOWNNAME":"永康區","LI":"埔園里","LIN":"34鄰","STREET":"龍中街","SECT":" ","MAREA":" ","LANE":" ","ALLEY":" ","HOUSE_NO":"６６７號","E_COORD97":174275.29999999999,"N_COORD97":2548968.6400000001,"ADDRESS":"龍中街６６７號","OBJECTID":264932},"geometry":{"x":174275.30000000075,"y":2548968.6400000025}},{"attributes":{"ID":264937,"DIS_CODE":0,"TOWNNAME":"永康區","LI":"埔園里","LIN":"34鄰","STREET":"龍中街","SECT":" ","MAREA":" ","LANE":" ","ALLEY":" ","HOUSE_NO":"６６９號","E_COORD97":174275.17999999999,"N_COORD97":2548972.8799999999,"ADDRESS":"龍中街６６９號","OBJECTID":264933},"geometry":{"x":174275.1799999997,"y":2548972.879999999}},{"attributes":{"ID":264938,"DIS_CODE":0,"TOWNNAME":"永康區","LI":"埔園里","LIN":"34鄰","STREET":"龍中街","SECT":" ","MAREA":" ","LANE":" ","ALLEY":" ","HOUSE_NO":"６７１號","E_COORD97":174275.06,"N_COORD97":2548977.1299999999,"ADDRESS":"龍中街６７１號","OBJECTID":264934},"geometry":{"x":174275.06000000052,"y":2548977.1300000008}},{"attributes":{"ID":264939,"DIS_CODE":0,"TOWNNAME":"北區","LI":"大豐里","LIN":"24鄰","STREET":"和緯路","SECT":"四段","MAREA":" ","LANE":"９５巷","ALLEY":" ","HOUSE_NO":"３５號","E_COORD97":167124.01999999999,"N_COORD97":2545377,"ADDRESS":"和緯路四段９５巷３５號","OBJECTID":264935},"geometry":{"x":167124.01999999955,"y":2545377.0000000037}},{"attributes":{"ID":264940,"DIS_CODE":0,"TOWNNAME":"北區","LI":"大豐里","LIN":"24鄰","STREET":"和緯路","SECT":"四段","MAREA":" ","LANE":"９５巷","ALLEY":" ","HOUSE_NO":"３７號","E_COORD97":167121.56,"N_COORD97":2545366.9900000002,"ADDRESS":"和緯路四段９５巷３７號","OBJECTID":264936},"geometry":{"x":167121.56000000052,"y":2545366.9899999984}},{"attributes":{"ID":264941,"DIS_CODE":0,"TOWNNAME":"永康區","LI":"龍潭里","LIN":"24鄰","STREET":"中山北路","SECT":" ","MAREA":" ","LANE":"３４４巷","ALLEY":" ","HOUSE_NO":"２０號","E_COORD97":175110.57000000001,"N_COORD97":2547489.1000000001,"ADDRESS":"中山北路３４４巷２０號","OBJECTID":264937},"geometry":{"x":175110.5700000003,"y":2547489.1000000015}},{"attributes":{"ID":264942,"DIS_CODE":0,"TOWNNAME":"永康區","LI":"甲頂里","LIN":"22鄰","STREET":"中正南路","SECT":" ","MAREA":" ","LANE":" ","ALLEY":" ","HOUSE_NO":"３０號十四樓之３","E_COORD97":169670.69,"N_COORD97":2546655.7999999998,"ADDRESS":"中正南路３０號十四樓之３","OBJECTID":264938},"geometry":{"x":169670.69000000134,"y":2546655.8000000007}},{"attributes":{"ID":264943,"DIS_CODE":0,"TOWNNAME":"永康區","LI":"甲頂里","LIN":"22鄰","STREET":"中正南路","SECT":" ","MAREA":" ","LANE":" ","ALLEY":" ","HOUSE_NO":"３０號三樓之３","E_COORD97":169669.44,"N_COORD97":2546655.7999999998,"ADDRESS":"中正南路３０號三樓之３","OBJECTID":264939},"geometry":{"x":169669.44000000134,"y":2546655.8000000007}},{"attributes":{"ID":264944,"DIS_CODE":0,"TOWNNAME":"東區","LI":"虎尾里","LIN":"24鄰","STREET":"東成街","SECT":" ","MAREA":" ","LANE":"２２２巷","ALLEY":" ","HOUSE_NO":"９號之１７","E_COORD97":171951.66,"N_COORD97":2542213.02,"ADDRESS":"東成街２２２巷９號之１７","OBJECTID":264940},"geometry":{"x":171951.66000000015,"y":2542213.0199999977}},{"attributes":{"ID":264945,"DIS_CODE":0,"TOWNNAME":"東區","LI":"虎尾里","LIN":"24鄰","STREET":"東成街","SECT":" ","MAREA":" ","LANE":"２２２巷","ALLEY":" ","HOUSE_NO":"９號之５","E_COORD97":171947.35999999999,"N_COORD97":2542184.6000000001,"ADDRESS":"東成街２２２巷９號之５","OBJECTID":264941},"geometry":{"x":171947.3600000022,"y":2542184.5999999996}},{"attributes":{"ID":264946,"DIS_CODE":0,"TOWNNAME":"東區","LI":"虎尾里","LIN":"24鄰","STREET":"東成街","SECT":" ","MAREA":" ","LANE":"２２２巷","ALLEY":" ","HOUSE_NO":"９號之６","E_COORD97":171946.10999999999,"N_COORD97":2542178.3599999999,"ADDRESS":"東成街２２２巷９號之６","OBJECTID":264942},"geometry":{"x":171946.11000000127,"y":2542178.3600000013}},{"attributes":{"ID":264947,"DIS_CODE":0,"TOWNNAME":"東區","LI":"虎尾里","LIN":"24鄰","STREET":"東成街","SECT":" ","MAREA":" ","LANE":"２２２巷","ALLEY":" ","HOUSE_NO":"９號之７","E_COORD97":171945.54999999999,"N_COORD97":2542171.8399999999,"ADDRESS":"東成街２２２巷９號之７","OBJECTID":264943},"geometry":{"x":171945.55000000168,"y":2542171.8400000017}},{"attributes":{"ID":264948,"DIS_CODE":0,"TOWNNAME":"東區","LI":"虎尾里","LIN":"24鄰","STREET":"東成街","SECT":" ","MAREA":" ","LANE":"２２２巷","ALLEY":" ","HOUSE_NO":"９號之８","E_COORD97":171945.54999999999,"N_COORD97":2542164.7000000002,"ADDRESS":"東成街２２２巷９號之８","OBJECTID":264944},"geometry":{"x":171945.55000000168,"y":2542164.7000000011}},{"attributes":{"ID":264949,"DIS_CODE":0,"TOWNNAME":"東區","LI":"虎尾里","LIN":"24鄰","STREET":"東成街","SECT":" ","MAREA":" ","LANE":"２２２巷","ALLEY":" ","HOUSE_NO":"９號之９","E_COORD97":171944.44,"N_COORD97":2542158.46,"ADDRESS":"東成街２２２巷９號之９","OBJECTID":264945},"geometry":{"x":171944.44000000041,"y":2542158.4600000028}},{"attributes":{"ID":264950,"DIS_CODE":0,"TOWNNAME":"東區","LI":"虎尾里","LIN":"24鄰","STREET":"東成街","SECT":" ","MAREA":" ","LANE":"２２２巷","ALLEY":" ","HOUSE_NO":"１１號之１２","E_COORD97":171925.29000000001,"N_COORD97":2542192.1499999999,"ADDRESS":"東成街２２２巷１１號之１２","OBJECTID":264946},"geometry":{"x":171925.29000000004,"y":2542192.1500000004}},{"attributes":{"ID":264951,"DIS_CODE":0,"TOWNNAME":"東區","LI":"虎尾里","LIN":"24鄰","STREET":"東成街","SECT":" ","MAREA":" ","LANE":"２２２巷","ALLEY":" ","HOUSE_NO":"９號之１８","E_COORD97":171949.72,"N_COORD97":2542208.1699999999,"ADDRESS":"東成街２２２巷９號之１８","OBJECTID":264947},"geometry":{"x":171949.72000000067,"y":2542208.1699999999}},{"attributes":{"ID":264952,"DIS_CODE":0,"TOWNNAME":"東區","LI":"虎尾里","LIN":"24鄰","STREET":"東成街","SECT":" ","MAREA":" ","LANE":"２２２巷","ALLEY":" ","HOUSE_NO":"１１號","E_COORD97":171926.95000000001,"N_COORD97":2542250.25,"ADDRESS":"東成街２２２巷１１號","OBJECTID":264948},"geometry":{"x":171926.95000000112,"y":2542250.2500000019}},{"attributes":{"ID":264953,"DIS_CODE":0,"TOWNNAME":"永康區","LI":"網寮里","LIN":"24鄰","STREET":"永春街","SECT":" ","MAREA":" ","LANE":"４５巷","ALLEY":" ","HOUSE_NO":"７號","E_COORD97":173729.29000000001,"N_COORD97":2546372.6899999999,"ADDRESS":"永春街４５巷７號","OBJECTID":264949},"geometry":{"x":173729.2900000019,"y":2546372.6900000013}},{"attributes":{"ID":264954,"DIS_CODE":0,"TOWNNAME":"永康區","LI":"復華里","LIN":"24鄰","STREET":"復華八街","SECT":" ","MAREA":" ","LANE":"５６巷","ALLEY":" ","HOUSE_NO":"６號","E_COORD97":172752.84,"N_COORD97":2546260.1499999999,"ADDRESS":"復華八街５６巷６號","OBJECTID":264950},"geometry":{"x":172752.84000000078,"y":2546260.1500000004}},{"attributes":{"ID":264955,"DIS_CODE":0,"TOWNNAME":"永康區","LI":"網寮里","LIN":"24鄰","STREET":"永春街","SECT":" ","MAREA":" ","LANE":"４５巷","ALLEY":" ","HOUSE_NO":"１０號","E_COORD97":173723.16,"N_COORD97":2546387.8900000001,"ADDRESS":"永春街４５巷１０號","OBJECTID":264951},"geometry":{"x":173723.16000000015,"y":2546387.8900000006}},{"attributes":{"ID":264956,"DIS_CODE":0,"TOWNNAME":"永康區","LI":"復華里","LIN":"24鄰","STREET":"復華八街","SECT":" ","MAREA":" ","LANE":"５６巷","ALLEY":" ","HOUSE_NO":"５號","E_COORD97":172766.73000000001,"N_COORD97":2546279.0099999998,"ADDRESS":"復華八街５６巷５號","OBJECTID":264952},"geometry":{"x":172766.73000000045,"y":2546279.0100000016}},{"attributes":{"ID":264957,"DIS_CODE":0,"TOWNNAME":"永康區","LI":"復華里","LIN":"24鄰","STREET":"復華八街","SECT":" ","MAREA":" ","LANE":"５６巷","ALLEY":" ","HOUSE_NO":"１４號","E_COORD97":172773.73000000001,"N_COORD97":2546259.8999999999,"ADDRESS":"復華八街５６巷１４號","OBJECTID":264953},"geometry":{"x":172773.73000000045,"y":2546259.9000000022}},{"attributes":{"ID":264958,"DIS_CODE":0,"TOWNNAME":"永康區","LI":"復華里","LIN":"24鄰","STREET":"復華八街","SECT":" ","MAREA":" ","LANE":"５６巷","ALLEY":" ","HOUSE_NO":"１０號","E_COORD97":172764.01000000001,"N_COORD97":2546260.1499999999,"ADDRESS":"復華八街５６巷１０號","OBJECTID":264954},"geometry":{"x":172764.00999999978,"y":2546260.1500000004}},{"attributes":{"ID":264959,"DIS_CODE":0,"TOWNNAME":"永康區","LI":"網寮里","LIN":"24鄰","STREET":"永春街","SECT":" ","MAREA":" ","LANE":"４５巷","ALLEY":" ","HOUSE_NO":"９號","E_COORD97":173725,"N_COORD97":2546371.4399999999,"ADDRESS":"永春街４５巷９號","OBJECTID":264955},"geometry":{"x":173725.00000000093,"y":2546371.4400000013}},{"attributes":{"ID":264960,"DIS_CODE":0,"TOWNNAME":"永康區","LI":"復華里","LIN":"24鄰","STREET":"復華八街","SECT":" ","MAREA":" ","LANE":"５６巷","ALLEY":" ","HOUSE_NO":"２號","E_COORD97":172747.42000000001,"N_COORD97":2546260.1499999999,"ADDRESS":"復華八街５６巷２號","OBJECTID":264956},"geometry":{"x":172747.42000000086,"y":2546260.1500000004}},{"attributes":{"ID":264961,"DIS_CODE":0,"TOWNNAME":"永康區","LI":"網寮里","LIN":"24鄰","STREET":"永大一路","SECT":" ","MAREA":" ","LANE":"１６０巷","ALLEY":" ","HOUSE_NO":"２號","E_COORD97":173865.23000000001,"N_COORD97":2546393.2400000002,"ADDRESS":"永大一路１６０巷２號","OBJECTID":264957},"geometry":{"x":173865.23000000045,"y":2546393.2400000021}},{"attributes":{"ID":264962,"DIS_CODE":0,"TOWNNAME":"永康區","LI":"網寮里","LIN":"24鄰","STREET":"永大一路","SECT":" ","MAREA":" ","LANE":"１６０巷","ALLEY":" ","HOUSE_NO":"１２號","E_COORD97":173861.10999999999,"N_COORD97":2546413.75,"ADDRESS":"永大一路１６０巷１２號","OBJECTID":264958},"geometry":{"x":173861.11000000034,"y":2546413.7500000019}},{"attributes":{"ID":264963,"DIS_CODE":0,"TOWNNAME":"永康區","LI":"復華里","LIN":"24鄰","STREET":"復華八街","SECT":" ","MAREA":" ","LANE":"５８巷","ALLEY":" ","HOUSE_NO":"１７號","E_COORD97":172810.62,"N_COORD97":2546310.8500000001,"ADDRESS":"復華八街５８巷１７號","OBJECTID":264959},"geometry":{"x":172810.62000000104,"y":2546310.8500000015}},{"attributes":{"ID":264964,"DIS_CODE":0,"TOWNNAME":"永康區","LI":"復華里","LIN":"24鄰","STREET":"復華八街","SECT":" ","MAREA":" ","LANE":"５８巷","ALLEY":" ","HOUSE_NO":"３號","E_COORD97":172775.73000000001,"N_COORD97":2546311.1000000001,"ADDRESS":"復華八街５８巷３號","OBJECTID":264960},"geometry":{"x":172775.73000000231,"y":2546311.0999999996}},{"attributes":{"ID":264965,"DIS_CODE":0,"TOWNNAME":"永康區","LI":"網寮里","LIN":"24鄰","STREET":"永大一路","SECT":" ","MAREA":" ","LANE":"１６０巷","ALLEY":" ","HOUSE_NO":"１０號","E_COORD97":173862.04000000001,"N_COORD97":2546409.75,"ADDRESS":"永大一路１６０巷１０號","OBJECTID":264961},"geometry":{"x":173862.04000000097,"y":2546409.7500000019}},{"attributes":{"ID":264966,"DIS_CODE":0,"TOWNNAME":"永康區","LI":"復華里","LIN":"24鄰","STREET":"復華八街","SECT":" ","MAREA":" ","LANE":"５８巷","ALLEY":" ","HOUSE_NO":"２號","E_COORD97":172763.53,"N_COORD97":2546302.7599999998,"ADDRESS":"復華八街５８巷２號","OBJECTID":264962},"geometry":{"x":172763.53000000119,"y":2546302.7599999998}},{"attributes":{"ID":264967,"DIS_CODE":0,"TOWNNAME":"永康區","LI":"復華里","LIN":"24鄰","STREET":"復華八街","SECT":" ","MAREA":" ","LANE":"６０巷","ALLEY":" ","HOUSE_NO":"５號","E_COORD97":172804.59,"N_COORD97":2546343.8500000001,"ADDRESS":"復華八街６０巷５號","OBJECTID":264963},"geometry":{"x":172804.58999999985,"y":2546343.8500000034}},{"attributes":{"ID":264968,"DIS_CODE":0,"TOWNNAME":"永康區","LI":"網寮里","LIN":"24鄰","STREET":"永春街","SECT":" ","MAREA":" ","LANE":"３８巷","ALLEY":" ","HOUSE_NO":"７號","E_COORD97":173755.42999999999,"N_COORD97":2546442.1099999999,"ADDRESS":"永春街３８巷７號","OBJECTID":264964},"geometry":{"x":173755.43000000063,"y":2546442.1099999994}},{"attributes":{"ID":264969,"DIS_CODE":0,"TOWNNAME":"永康區","LI":"網寮里","LIN":"24鄰","STREET":"永春街","SECT":" ","MAREA":" ","LANE":"３８巷","ALLEY":" ","HOUSE_NO":"２３號","E_COORD97":173788.12,"N_COORD97":2546449.8599999999,"ADDRESS":"永春街３８巷２３號","OBJECTID":264965},"geometry":{"x":173788.12000000197,"y":2546449.8600000013}},{"attributes":{"ID":264970,"DIS_CODE":0,"TOWNNAME":"永康區","LI":"網寮里","LIN":"24鄰","STREET":"永春街","SECT":" ","MAREA":" ","LANE":"３８巷","ALLEY":" ","HOUSE_NO":"１７號","E_COORD97":173776.62,"N_COORD97":2546446.8599999999,"ADDRESS":"永春街３８巷１７號","OBJECTID":264966},"geometry":{"x":173776.62000000104,"y":2546446.8600000013}},{"attributes":{"ID":264971,"DIS_CODE":0,"TOWNNAME":"永康區","LI":"網寮里","LIN":"24鄰","STREET":"永春街","SECT":" ","MAREA":" ","LANE":"４５巷","ALLEY":" ","HOUSE_NO":"４號","E_COORD97":173733.79999999999,"N_COORD97":2546391.3900000001,"ADDRESS":"永春街４５巷４號","OBJECTID":264967},"geometry":{"x":173733.79999999981,"y":2546391.3900000006}},{"attributes":{"ID":264972,"DIS_CODE":0,"TOWNNAME":"永康區","LI":"網寮里","LIN":"24鄰","STREET":"永春街","SECT":" ","MAREA":" ","LANE":"３６巷","ALLEY":" ","HOUSE_NO":"４號","E_COORD97":173759.82000000001,"N_COORD97":2546378.6600000001,"ADDRESS":"永春街３６巷４號","OBJECTID":264968},"geometry":{"x":173759.82000000216,"y":2546378.6600000001}},{"attributes":{"ID":264973,"DIS_CODE":0,"TOWNNAME":"永康區","LI":"網寮里","LIN":"24鄰","STREET":"永春街","SECT":" ","MAREA":" ","LANE":"４５巷","ALLEY":" ","HOUSE_NO":"８號","E_COORD97":173726.04999999999,"N_COORD97":2546389.1400000001,"ADDRESS":"永春街４５巷８號","OBJECTID":264969},"geometry":{"x":173726.05000000075,"y":2546389.1400000006}},{"attributes":{"ID":264974,"DIS_CODE":0,"TOWNNAME":"永康區","LI":"網寮里","LIN":"24鄰","STREET":"永春街","SECT":" ","MAREA":" ","LANE":"４５巷","ALLEY":" ","HOUSE_NO":"１２號","E_COORD97":173718.5,"N_COORD97":2546385.1400000001,"ADDRESS":"永春街４５巷１２號","OBJECTID":264970},"geometry":{"x":173718.5,"y":2546385.1400000025}},{"attributes":{"ID":264975,"DIS_CODE":0,"TOWNNAME":"善化區","LI":"小新里","LIN":"22鄰","STREET":" ","SECT":" ","MAREA":"成功新村","LANE":" ","ALLEY":" ","HOUSE_NO":"５號三樓","E_COORD97":180316.79000000001,"N_COORD97":2558700.25,"ADDRESS":"成功新村５號三樓","OBJECTID":264971},"geometry":{"x":180316.7900000019,"y":2558700.2500000019}},{"attributes":{"ID":264976,"DIS_CODE":0,"TOWNNAME":"善化區","LI":"小新里","LIN":"22鄰","STREET":" ","SECT":" ","MAREA":"成功新村","LANE":" ","ALLEY":" ","HOUSE_NO":"３６號八樓","E_COORD97":180439,"N_COORD97":2558664,"ADDRESS":"成功新村３６號八樓","OBJECTID":264972},"geometry":{"x":180439.00000000186,"y":2558664.0000000037}},{"attributes":{"ID":264977,"DIS_CODE":0,"TOWNNAME":"永康區","LI":"復興里","LIN":"24鄰","STREET":"復興路","SECT":" ","MAREA":" ","LANE":"３５６巷","ALLEY":" ","HOUSE_NO":"６４號","E_COORD97":172344.38,"N_COORD97":2544513.02,"ADDRESS":"復興路３５６巷６４號","OBJECTID":264973},"geometry":{"x":172344.37999999989,"y":2544513.0200000014}},{"attributes":{"ID":264978,"DIS_CODE":0,"TOWNNAME":"東區","LI":"富強里","LIN":"22鄰","STREET":"富強二街","SECT":" ","MAREA":" ","LANE":" ","ALLEY":" ","HOUSE_NO":"５號三樓","E_COORD97":170993.70000000001,"N_COORD97":2542516.21,"ADDRESS":"富強二街５號三樓","OBJECTID":264974},"geometry":{"x":170993.70000000019,"y":2542516.2100000028}},{"attributes":{"ID":264979,"DIS_CODE":0,"TOWNNAME":"善化區","LI":"小新里","LIN":"22鄰","STREET":" ","SECT":" ","MAREA":"成功新村","LANE":" ","ALLEY":" ","HOUSE_NO":"９號五樓","E_COORD97":180333.76000000001,"N_COORD97":2558706.5,"ADDRESS":"成功新村９號五樓","OBJECTID":264975},"geometry":{"x":180333.76000000071,"y":2558706.5}},{"attributes":{"ID":264980,"DIS_CODE":0,"TOWNNAME":"東區","LI":"富強里","LIN":"22鄰","STREET":"富強二街","SECT":" ","MAREA":" ","LANE":" ","ALLEY":" ","HOUSE_NO":"５號四樓","E_COORD97":170993.70000000001,"N_COORD97":2542516.21,"ADDRESS":"富強二街５號四樓","OBJECTID":264976},"geometry":{"x":170993.70000000019,"y":2542516.2100000028}},{"attributes":{"ID":264981,"DIS_CODE":0,"TOWNNAME":"永康區","LI":"網寮里","LIN":"24鄰","STREET":"永春街","SECT":" ","MAREA":" ","LANE":"４５巷","ALLEY":" ","HOUSE_NO":"１７號","E_COORD97":173709.39000000001,"N_COORD97":2546367.1899999999,"ADDRESS":"永春街４５巷１７號","OBJECTID":264977},"geometry":{"x":173709.38999999873,"y":2546367.1899999995}},{"attributes":{"ID":264982,"DIS_CODE":0,"TOWNNAME":"永康區","LI":"網寮里","LIN":"24鄰","STREET":"永春街","SECT":" ","MAREA":" ","LANE":"３６巷","ALLEY":" ","HOUSE_NO":"３１號","E_COORD97":173812.89999999999,"N_COORD97":2546410.4100000001,"ADDRESS":"永春街３６巷３１號","OBJECTID":264978},"geometry":{"x":173812.90000000037,"y":2546410.4100000001}},{"attributes":{"ID":264983,"DIS_CODE":0,"TOWNNAME":"安南區","LI":"海佃里","LIN":"24鄰","STREET":"國安街","SECT":" ","MAREA":" ","LANE":"１５６巷","ALLEY":" ","HOUSE_NO":"１４８號","E_COORD97":166678.5,"N_COORD97":2547370.1800000002,"ADDRESS":"國安街１５６巷１４８號","OBJECTID":264979},"geometry":{"x":166678.5,"y":2547370.1800000016}},{"attributes":{"ID":264984,"DIS_CODE":0,"TOWNNAME":"善化區","LI":"小新里","LIN":"22鄰","STREET":" ","SECT":" ","MAREA":"成功新村","LANE":" ","ALLEY":" ","HOUSE_NO":"１０號三樓","E_COORD97":180344.69,"N_COORD97":2558702.5,"ADDRESS":"成功新村１０號三樓","OBJECTID":264980},"geometry":{"x":180344.69000000041,"y":2558702.5000000019}},{"attributes":{"ID":264985,"DIS_CODE":0,"TOWNNAME":"安南區","LI":"海佃里","LIN":"24鄰","STREET":"國安街","SECT":" ","MAREA":" ","LANE":"１５６巷","ALLEY":" ","HOUSE_NO":"１５０號","E_COORD97":166677.82999999999,"N_COORD97":2547374.1699999999,"ADDRESS":"國安街１５６巷１５０號","OBJECTID":264981},"geometry":{"x":166677.83000000101,"y":2547374.1700000018}},{"attributes":{"ID":264986,"DIS_CODE":0,"TOWNNAME":"安南區","LI":"海佃里","LIN":"24鄰","STREET":"國安街","SECT":" ","MAREA":" ","LANE":"１５６巷","ALLEY":" ","HOUSE_NO":"１５２號","E_COORD97":166677.17000000001,"N_COORD97":2547378.8199999998,"ADDRESS":"國安街１５６巷１５２號","OBJECTID":264982},"geometry":{"x":166677.16999999993,"y":2547378.820000004}},{"attributes":{"ID":264987,"DIS_CODE":0,"TOWNNAME":"安平區","LI":"國平里","LIN":"4鄰","STREET":"建平五街","SECT":" ","MAREA":" ","LANE":"１８４巷","ALLEY":" ","HOUSE_NO":"１０號","E_COORD97":165592.51000000001,"N_COORD97":2543220.9700000002,"ADDRESS":"建平五街１８４巷１０號","OBJECTID":264983},"geometry":{"x":165592.51000000071,"y":2543220.9700000007}},{"attributes":{"ID":264988,"DIS_CODE":0,"TOWNNAME":"安平區","LI":"國平里","LIN":"4鄰","STREET":"建平五街","SECT":" ","MAREA":" ","LANE":"１８４巷","ALLEY":" ","HOUSE_NO":"１２號","E_COORD97":165594.48999999999,"N_COORD97":2543233.27,"ADDRESS":"建平五街１８４巷１２號","OBJECTID":264984},"geometry":{"x":165594.49000000209,"y":2543233.2700000014}},{"attributes":{"ID":264989,"DIS_CODE":0,"TOWNNAME":"善化區","LI":"小新里","LIN":"22鄰","STREET":" ","SECT":" ","MAREA":"成功新村","LANE":" ","ALLEY":" ","HOUSE_NO":"９號四樓","E_COORD97":180333.76000000001,"N_COORD97":2558706.5,"ADDRESS":"成功新村９號四樓","OBJECTID":264985},"geometry":{"x":180333.76000000071,"y":2558706.5}},{"attributes":{"ID":264990,"DIS_CODE":0,"TOWNNAME":"善化區","LI":"小新里","LIN":"22鄰","STREET":" ","SECT":" ","MAREA":"成功新村","LANE":" ","ALLEY":" ","HOUSE_NO":"３５號八樓","E_COORD97":180431.26000000001,"N_COORD97":2558667.25,"ADDRESS":"成功新村３５號八樓","OBJECTID":264986},"geometry":{"x":180431.25999999978,"y":2558667.2500000019}},{"attributes":{"ID":264991,"DIS_CODE":0,"TOWNNAME":"善化區","LI":"小新里","LIN":"22鄰","STREET":" ","SECT":" ","MAREA":"成功新村","LANE":" ","ALLEY":" ","HOUSE_NO":"６號五樓","E_COORD97":180318.54000000001,"N_COORD97":2558704.75,"ADDRESS":"成功新村６號五樓","OBJECTID":264987},"geometry":{"x":180318.5400000019,"y":2558704.75}},{"attributes":{"ID":264992,"DIS_CODE":0,"TOWNNAME":"善化區","LI":"小新里","LIN":"22鄰","STREET":" ","SECT":" ","MAREA":"成功新村","LANE":" ","ALLEY":" ","HOUSE_NO":"２１號二樓","E_COORD97":180369.23999999999,"N_COORD97":2558689.5,"ADDRESS":"成功新村２１號二樓","OBJECTID":264988},"geometry":{"x":180369.24000000022,"y":2558689.5}},{"attributes":{"ID":264993,"DIS_CODE":0,"TOWNNAME":"善化區","LI":"小新里","LIN":"22鄰","STREET":" ","SECT":" ","MAREA":"成功新村","LANE":" ","ALLEY":" ","HOUSE_NO":"２３號六樓","E_COORD97":180388.35000000001,"N_COORD97":2558682.25,"ADDRESS":"成功新村２３號六樓","OBJECTID":264989},"geometry":{"x":180388.34999999963,"y":2558682.25}},{"attributes":{"ID":264994,"DIS_CODE":0,"TOWNNAME":"善化區","LI":"小新里","LIN":"22鄰","STREET":" ","SECT":" ","MAREA":"成功新村","LANE":" ","ALLEY":" ","HOUSE_NO":"２２號八樓","E_COORD97":180378.14999999999,"N_COORD97":2558686.25,"ADDRESS":"成功新村２２號八樓","OBJECTID":264990},"geometry":{"x":180378.1500000013,"y":2558686.2500000019}},{"attributes":{"ID":264995,"DIS_CODE":0,"TOWNNAME":"善化區","LI":"小新里","LIN":"22鄰","STREET":" ","SECT":" ","MAREA":"成功新村","LANE":" ","ALLEY":" ","HOUSE_NO":"３６號二樓","E_COORD97":180439,"N_COORD97":2558664,"ADDRESS":"成功新村３６號二樓","OBJECTID":264991},"geometry":{"x":180439.00000000186,"y":2558664.0000000037}},{"attributes":{"ID":264996,"DIS_CODE":0,"TOWNNAME":"善化區","LI":"小新里","LIN":"22鄰","STREET":" ","SECT":" ","MAREA":"成功新村","LANE":" ","ALLEY":" ","HOUSE_NO":"３７號六樓","E_COORD97":180436.94,"N_COORD97":2558650,"ADDRESS":"成功新村３７號六樓","OBJECTID":264992},"geometry":{"x":180436.94000000134,"y":2558650}},{"attributes":{"ID":264997,"DIS_CODE":0,"TOWNNAME":"善化區","LI":"小新里","LIN":"22鄰","STREET":" ","SECT":" ","MAREA":"成功新村","LANE":" ","ALLEY":" ","HOUSE_NO":"４３號七樓","E_COORD97":180452.19,"N_COORD97":2558646,"ADDRESS":"成功新村４３號七樓","OBJECTID":264993},"geometry":{"x":180452.19000000134,"y":2558646}},{"attributes":{"ID":264998,"DIS_CODE":0,"TOWNNAME":"善化區","LI":"小新里","LIN":"22鄰","STREET":" ","SECT":" ","MAREA":"成功新村","LANE":" ","ALLEY":" ","HOUSE_NO":"３９號六樓","E_COORD97":180430.29999999999,"N_COORD97":2558656.5,"ADDRESS":"成功新村３９號六樓","OBJECTID":264994},"geometry":{"x":180430.30000000075,"y":2558656.5}},{"attributes":{"ID":264999,"DIS_CODE":0,"TOWNNAME":"善化區","LI":"小新里","LIN":"22鄰","STREET":" ","SECT":" ","MAREA":"成功新村","LANE":" ","ALLEY":" ","HOUSE_NO":"１１號六樓","E_COORD97":180355.04999999999,"N_COORD97":2558698.5,"ADDRESS":"成功新村１１號六樓","OBJECTID":264995},"geometry":{"x":180355.04999999981,"y":2558698.5000000019}},{"attributes":{"ID":265000,"DIS_CODE":0,"TOWNNAME":"善化區","LI":"小新里","LIN":"22鄰","STREET":" ","SECT":" ","MAREA":"成功新村","LANE":" ","ALLEY":" ","HOUSE_NO":"７９號二樓","E_COORD97":180398.07999999999,"N_COORD97":2558625,"ADDRESS":"成功新村７９號二樓","OBJECTID":264996},"geometry":{"x":180398.08000000101,"y":2558625}},{"attributes":{"ID":265001,"DIS_CODE":0,"TOWNNAME":"善化區","LI":"小新里","LIN":"22鄰","STREET":" ","SECT":" ","MAREA":"成功新村","LANE":" ","ALLEY":" ","HOUSE_NO":"７７號八樓","E_COORD97":180417.13,"N_COORD97":2558618.25,"ADDRESS":"成功新村７７號八樓","OBJECTID":264997},"geometry":{"x":180417.12999999989,"y":2558618.2500000037}},{"attributes":{"ID":265002,"DIS_CODE":0,"TOWNNAME":"善化區","LI":"小新里","LIN":"22鄰","STREET":" ","SECT":" ","MAREA":"成功新村","LANE":" ","ALLEY":" ","HOUSE_NO":"８２號四樓","E_COORD97":180409.42999999999,"N_COORD97":2558636.5,"ADDRESS":"成功新村８２號四樓","OBJECTID":264998},"geometry":{"x":180409.43000000063,"y":2558636.5}},{"attributes":{"ID":265003,"DIS_CODE":0,"TOWNNAME":"善化區","LI":"小新里","LIN":"22鄰","STREET":" ","SECT":" ","MAREA":"成功新村","LANE":" ","ALLEY":" ","HOUSE_NO":"７４號七樓","E_COORD97":180429.01999999999,"N_COORD97":2558630,"ADDRESS":"成功新村７４號七樓","OBJECTID":264999},"geometry":{"x":180429.02000000048,"y":2558630.0000000037}},{"attributes":{"ID":265004,"DIS_CODE":0,"TOWNNAME":"善化區","LI":"小新里","LIN":"22鄰","STREET":" ","SECT":" ","MAREA":"成功新村","LANE":" ","ALLEY":" ","HOUSE_NO":"５０號三樓","E_COORD97":180333.73999999999,"N_COORD97":2558665.5,"ADDRESS":"成功新村５０號三樓","OBJECTID":265000},"geometry":{"x":180333.74000000022,"y":2558665.5000000019}}]}