{"displayFieldName":"TOWNNAME","fieldAliases":{"ID":"ID","DIS_CODE":"DIS_CODE","TOWNNAME":"TOWNNAME","LI":"LI","LIN":"LIN","STREET":"STREET","SECT":"SECT","MAREA":"MAREA","LANE":"LANE","ALLEY":"ALLEY","HOUSE_NO":"HOUSE_NO","E_COORD97":"E_COORD97","N_COORD97":"N_COORD97","ADDRESS":"ADDRESS","OBJECTID":"OBJECTID"},"geometryType":"esriGeometryPoint","spatialReference":{"wkid":102443,"latestWkid":3826},"fields":[{"name":"ID","type":"esriFieldTypeDouble","alias":"ID"},{"name":"DIS_CODE","type":"esriFieldTypeInteger","alias":"DIS_CODE"},{"name":"TOWNNAME","type":"esriFieldTypeString","alias":"TOWNNAME","length":8},{"name":"LI","type":"esriFieldTypeString","alias":"LI","length":8},{"name":"LIN","type":"esriFieldTypeString","alias":"LIN","length":12},{"name":"STREET","type":"esriFieldTypeString","alias":"STREET","length":20},{"name":"SECT","type":"esriFieldTypeString","alias":"SECT","length":8},{"name":"MAREA","type":"esriFieldTypeString","alias":"MAREA","length":12},{"name":"LANE","type":"esriFieldTypeString","alias":"LANE","length":10},{"name":"ALLEY","type":"esriFieldTypeString","alias":"ALLEY","length":10},{"name":"HOUSE_NO","type":"esriFieldTypeString","alias":"HOUSE_NO","length":20},{"name":"E_COORD97","type":"esriFieldTypeDouble","alias":"E_COORD97"},{"name":"N_COORD97","type":"esriFieldTypeDouble","alias":"N_COORD97"},{"name":"ADDRESS","type":"esriFieldTypeString","alias":"ADDRESS","length":50},{"name":"OBJECTID","type":"esriFieldTypeOID","alias":"OBJECTID"}],"features":[{"attributes":{"ID":292409,"DIS_CODE":0,"TOWNNAME":"安平區","LI":"文平里","LIN":"8鄰","STREET":"建平六街","SECT":" ","MAREA":" ","LANE":" ","ALLEY":" ","HOUSE_NO":"１１４號六樓之３","E_COORD97":166198.32000000001,"N_COORD97":2543142.2000000002,"ADDRESS":"建平六街１１４號六樓之３","OBJECTID":292401},"geometry":{"x":166198.32000000123,"y":2543142.2000000011}},{"attributes":{"ID":292410,"DIS_CODE":0,"TOWNNAME":"安平區","LI":"文平里","LIN":"8鄰","STREET":"建平六街","SECT":" ","MAREA":" ","LANE":" ","ALLEY":" ","HOUSE_NO":"１１４號六樓之４","E_COORD97":166198.32000000001,"N_COORD97":2543142.2000000002,"ADDRESS":"建平六街１１４號六樓之４","OBJECTID":292402},"geometry":{"x":166198.32000000123,"y":2543142.2000000011}},{"attributes":{"ID":292411,"DIS_CODE":0,"TOWNNAME":"安平區","LI":"文平里","LIN":"8鄰","STREET":"建平六街","SECT":" ","MAREA":" ","LANE":" ","ALLEY":" ","HOUSE_NO":"１１４號六樓之５","E_COORD97":166198.32000000001,"N_COORD97":2543142.2000000002,"ADDRESS":"建平六街１１４號六樓之５","OBJECTID":292403},"geometry":{"x":166198.32000000123,"y":2543142.2000000011}},{"attributes":{"ID":292412,"DIS_CODE":0,"TOWNNAME":"安平區","LI":"文平里","LIN":"8鄰","STREET":"建平六街","SECT":" ","MAREA":" ","LANE":" ","ALLEY":" ","HOUSE_NO":"１１４號六樓之６","E_COORD97":166176.26999999999,"N_COORD97":2543144.21,"ADDRESS":"建平六街１１４號六樓之６","OBJECTID":292404},"geometry":{"x":166176.26999999955,"y":2543144.2100000009}},{"attributes":{"ID":292413,"DIS_CODE":0,"TOWNNAME":"安平區","LI":"文平里","LIN":"8鄰","STREET":"建平六街","SECT":" ","MAREA":" ","LANE":" ","ALLEY":" ","HOUSE_NO":"１１４號六樓之７","E_COORD97":166176.26999999999,"N_COORD97":2543144.21,"ADDRESS":"建平六街１１４號六樓之７","OBJECTID":292405},"geometry":{"x":166176.26999999955,"y":2543144.2100000009}},{"attributes":{"ID":292414,"DIS_CODE":0,"TOWNNAME":"永康區","LI":"五王里","LIN":"39鄰","STREET":"中華路","SECT":" ","MAREA":" ","LANE":"５７８巷","ALLEY":" ","HOUSE_NO":"１７號之７９","E_COORD97":171333.64999999999,"N_COORD97":2545989.54,"ADDRESS":"中華路５７８巷１７號之７９","OBJECTID":292406},"geometry":{"x":171333.65000000224,"y":2545989.5400000028}},{"attributes":{"ID":292415,"DIS_CODE":0,"TOWNNAME":"永康區","LI":"北灣里","LIN":"4鄰","STREET":"信義街","SECT":" ","MAREA":" ","LANE":"４４巷","ALLEY":" ","HOUSE_NO":"３４號","E_COORD97":175483.20000000001,"N_COORD97":2545755.9100000001,"ADDRESS":"信義街４４巷３４號","OBJECTID":292407},"geometry":{"x":175483.20000000112,"y":2545755.9100000001}},{"attributes":{"ID":292416,"DIS_CODE":0,"TOWNNAME":"永康區","LI":"龍潭里","LIN":"42鄰","STREET":"永平街","SECT":" ","MAREA":" ","LANE":"７５９巷","ALLEY":" ","HOUSE_NO":"１２號","E_COORD97":174617.87,"N_COORD97":2547080.4900000002,"ADDRESS":"永平街７５９巷１２號","OBJECTID":292408},"geometry":{"x":174617.87000000104,"y":2547080.4900000021}},{"attributes":{"ID":292417,"DIS_CODE":0,"TOWNNAME":"永康區","LI":"五王里","LIN":"38鄰","STREET":"中華路","SECT":" ","MAREA":" ","LANE":"５７８巷","ALLEY":" ","HOUSE_NO":"１７號之２３","E_COORD97":171333.67000000001,"N_COORD97":2545989.54,"ADDRESS":"中華路５７８巷１７號之２３","OBJECTID":292409},"geometry":{"x":171333.67000000086,"y":2545989.5400000028}},{"attributes":{"ID":292418,"DIS_CODE":0,"TOWNNAME":"永康區","LI":"中興里","LIN":"18鄰","STREET":"中華路","SECT":" ","MAREA":" ","LANE":"２８６巷","ALLEY":" ","HOUSE_NO":"５８號","E_COORD97":171723.95999999999,"N_COORD97":2545316.5,"ADDRESS":"中華路２８６巷５８號","OBJECTID":292410},"geometry":{"x":171723.95999999996,"y":2545316.5000000019}},{"attributes":{"ID":292419,"DIS_CODE":0,"TOWNNAME":"永康區","LI":"東橋里","LIN":"25鄰","STREET":"中正路","SECT":" ","MAREA":" ","LANE":"３５４巷","ALLEY":" ","HOUSE_NO":"３６號","E_COORD97":172908.69,"N_COORD97":2548110.5,"ADDRESS":"中正路３５４巷３６號","OBJECTID":292411},"geometry":{"x":172908.69000000134,"y":2548110.5000000019}},{"attributes":{"ID":292420,"DIS_CODE":0,"TOWNNAME":"永康區","LI":"復華里","LIN":"25鄰","STREET":"復華八街","SECT":" ","MAREA":" ","LANE":"４７巷","ALLEY":" ","HOUSE_NO":"２２號","E_COORD97":172739.17999999999,"N_COORD97":2546384.77,"ADDRESS":"復華八街４７巷２２號","OBJECTID":292412},"geometry":{"x":172739.1799999997,"y":2546384.7699999977}},{"attributes":{"ID":292421,"DIS_CODE":0,"TOWNNAME":"永康區","LI":"二王里","LIN":"20鄰","STREET":"中山南路","SECT":" ","MAREA":" ","LANE":"６４４巷","ALLEY":" ","HOUSE_NO":"２４號","E_COORD97":172394.19,"N_COORD97":2546608.7999999998,"ADDRESS":"中山南路６４４巷２４號","OBJECTID":292413},"geometry":{"x":172394.19000000041,"y":2546608.8000000007}},{"attributes":{"ID":292422,"DIS_CODE":0,"TOWNNAME":"永康區","LI":"正強里","LIN":"25鄰","STREET":"正強街","SECT":" ","MAREA":" ","LANE":" ","ALLEY":" ","HOUSE_NO":"２８２號","E_COORD97":173301,"N_COORD97":2547850.8300000001,"ADDRESS":"正強街２８２號","OBJECTID":292414},"geometry":{"x":173301.00000000093,"y":2547850.8300000019}},{"attributes":{"ID":292423,"DIS_CODE":0,"TOWNNAME":"永康區","LI":"二王里","LIN":"20鄰","STREET":"中山南路","SECT":" ","MAREA":" ","LANE":"６４４巷","ALLEY":" ","HOUSE_NO":"３４號","E_COORD97":172396.51999999999,"N_COORD97":2546573.2599999998,"ADDRESS":"中山南路６４４巷３４號","OBJECTID":292415},"geometry":{"x":172396.52000000142,"y":2546573.2600000016}},{"attributes":{"ID":292424,"DIS_CODE":0,"TOWNNAME":"永康區","LI":"二王里","LIN":"41鄰","STREET":"中山南路","SECT":" ","MAREA":" ","LANE":"３１６巷","ALLEY":" ","HOUSE_NO":"１４號之１","E_COORD97":171988.95000000001,"N_COORD97":2546136.54,"ADDRESS":"中山南路３１６巷１４號之１","OBJECTID":292416},"geometry":{"x":171988.94999999925,"y":2546136.540000001}},{"attributes":{"ID":292425,"DIS_CODE":0,"TOWNNAME":"永康區","LI":"二王里","LIN":"13鄰","STREET":"永二街","SECT":" ","MAREA":" ","LANE":"４４７巷","ALLEY":" ","HOUSE_NO":"４號","E_COORD97":172708.79000000001,"N_COORD97":2546650.04,"ADDRESS":"永二街４４７巷４號","OBJECTID":292417},"geometry":{"x":172708.7900000019,"y":2546650.0399999991}},{"attributes":{"ID":292426,"DIS_CODE":0,"TOWNNAME":"永康區","LI":"六合里","LIN":"17鄰","STREET":"中華路","SECT":" ","MAREA":" ","LANE":"５０５巷","ALLEY":" ","HOUSE_NO":"３號","E_COORD97":171207.91,"N_COORD97":2545805.25,"ADDRESS":"中華路５０５巷３號","OBJECTID":292418},"geometry":{"x":171207.91000000201,"y":2545805.25}},{"attributes":{"ID":292427,"DIS_CODE":0,"TOWNNAME":"永康區","LI":"復國里","LIN":"4鄰","STREET":"復國一路","SECT":" ","MAREA":" ","LANE":" ","ALLEY":" ","HOUSE_NO":"５４號","E_COORD97":172725.22,"N_COORD97":2544831.1400000001,"ADDRESS":"復國一路５４號","OBJECTID":292419},"geometry":{"x":172725.21999999974,"y":2544831.1400000025}},{"attributes":{"ID":292428,"DIS_CODE":0,"TOWNNAME":"永康區","LI":"烏竹里","LIN":"20鄰","STREET":"自強路","SECT":" ","MAREA":" ","LANE":" ","ALLEY":" ","HOUSE_NO":"８２１號","E_COORD97":174566.53,"N_COORD97":2548637.2400000002,"ADDRESS":"自強路８２１號","OBJECTID":292420},"geometry":{"x":174566.53000000026,"y":2548637.2400000039}},{"attributes":{"ID":292429,"DIS_CODE":0,"TOWNNAME":"永康區","LI":"安康里","LIN":"25鄰","STREET":"大橋一街","SECT":" ","MAREA":" ","LANE":" ","ALLEY":" ","HOUSE_NO":"１４６號","E_COORD97":170862.06,"N_COORD97":2546352.9900000002,"ADDRESS":"大橋一街１４６號","OBJECTID":292421},"geometry":{"x":170862.06000000145,"y":2546352.9900000002}},{"attributes":{"ID":292430,"DIS_CODE":0,"TOWNNAME":"永康區","LI":"中興里","LIN":" ","STREET":"中華路","SECT":" ","MAREA":" ","LANE":" ","ALLEY":" ","HOUSE_NO":"２５０號","E_COORD97":171582.73000000001,"N_COORD97":2545154.7400000002,"ADDRESS":"中華路２５０號","OBJECTID":292422},"geometry":{"x":171582.73000000138,"y":2545154.7400000002}},{"attributes":{"ID":292431,"DIS_CODE":0,"TOWNNAME":"永康區","LI":"甲頂里","LIN":" ","STREET":"中正南路","SECT":" ","MAREA":" ","LANE":" ","ALLEY":" ","HOUSE_NO":"４號","E_COORD97":170729.57999999999,"N_COORD97":2547788.2799999998,"ADDRESS":"中正南路４號","OBJECTID":292423},"geometry":{"x":170729.58000000007,"y":2547788.2800000031}},{"attributes":{"ID":292432,"DIS_CODE":0,"TOWNNAME":"永康區","LI":"三合里","LIN":"5鄰","STREET":"南工街","SECT":" ","MAREA":" ","LANE":" ","ALLEY":" ","HOUSE_NO":"６２號","E_COORD97":172104.45000000001,"N_COORD97":2545643.1099999999,"ADDRESS":"南工街６２號","OBJECTID":292424},"geometry":{"x":172104.45000000112,"y":2545643.1099999994}},{"attributes":{"ID":292433,"DIS_CODE":0,"TOWNNAME":"永康區","LI":"二王里","LIN":"4鄰","STREET":"二王路","SECT":" ","MAREA":" ","LANE":" ","ALLEY":" ","HOUSE_NO":"４６號","E_COORD97":173004.01000000001,"N_COORD97":2546762.3300000001,"ADDRESS":"二王路４６號","OBJECTID":292425},"geometry":{"x":173004.01000000071,"y":2546762.3300000019}},{"attributes":{"ID":292434,"DIS_CODE":0,"TOWNNAME":"永康區","LI":"三合里","LIN":"18鄰","STREET":"南工街","SECT":" ","MAREA":" ","LANE":" ","ALLEY":" ","HOUSE_NO":"２５９號","E_COORD97":171921.01999999999,"N_COORD97":2545957.7400000002,"ADDRESS":"南工街２５９號","OBJECTID":292426},"geometry":{"x":171921.01999999955,"y":2545957.7400000002}},{"attributes":{"ID":292435,"DIS_CODE":0,"TOWNNAME":"永康區","LI":"三合里","LIN":"5鄰","STREET":"南工街","SECT":" ","MAREA":" ","LANE":" ","ALLEY":" ","HOUSE_NO":"７６號","E_COORD97":172104.95999999999,"N_COORD97":2545673.3300000001,"ADDRESS":"南工街７６號","OBJECTID":292427},"geometry":{"x":172104.95999999996,"y":2545673.3300000038}},{"attributes":{"ID":292436,"DIS_CODE":0,"TOWNNAME":"永康區","LI":"三合里","LIN":"18鄰","STREET":"南工街","SECT":" ","MAREA":" ","LANE":" ","ALLEY":" ","HOUSE_NO":"２５７號","E_COORD97":171927.91,"N_COORD97":2545957.2400000002,"ADDRESS":"南工街２５７號","OBJECTID":292428},"geometry":{"x":171927.91000000015,"y":2545957.2400000002}},{"attributes":{"ID":292437,"DIS_CODE":0,"TOWNNAME":"安南區","LI":"安東里","LIN":"24鄰","STREET":"安和路","SECT":"二段","MAREA":" ","LANE":" ","ALLEY":" ","HOUSE_NO":"３０號","E_COORD97":169458.62,"N_COORD97":2548591.5099999998,"ADDRESS":"安和路二段３０號","OBJECTID":292429},"geometry":{"x":169458.62000000197,"y":2548591.5100000016}},{"attributes":{"ID":292438,"DIS_CODE":0,"TOWNNAME":"安南區","LI":"安富里","LIN":" ","STREET":"府安路","SECT":"五段","MAREA":" ","LANE":" ","ALLEY":" ","HOUSE_NO":"２１３號","E_COORD97":167574.57000000001,"N_COORD97":2546946.9300000002,"ADDRESS":"府安路五段２１３號","OBJECTID":292430},"geometry":{"x":167574.57000000123,"y":2546946.9300000034}},{"attributes":{"ID":292439,"DIS_CODE":0,"TOWNNAME":"永康區","LI":"二王里","LIN":"26鄰","STREET":"中山南路","SECT":" ","MAREA":" ","LANE":"５４４巷","ALLEY":" ","HOUSE_NO":"１２３號","E_COORD97":172329.32000000001,"N_COORD97":2546191.4900000002,"ADDRESS":"中山南路５４４巷１２３號","OBJECTID":292431},"geometry":{"x":172329.32000000123,"y":2546191.4900000021}},{"attributes":{"ID":292440,"DIS_CODE":0,"TOWNNAME":"永康區","LI":"二王里","LIN":"5鄰","STREET":"二王路","SECT":" ","MAREA":" ","LANE":"４０巷","ALLEY":" ","HOUSE_NO":"１０號","E_COORD97":172939.85999999999,"N_COORD97":2546758.5099999998,"ADDRESS":"二王路４０巷１０號","OBJECTID":292432},"geometry":{"x":172939.86000000127,"y":2546758.5099999998}},{"attributes":{"ID":292441,"DIS_CODE":0,"TOWNNAME":"安定區","LI":"大同里","LIN":"2鄰","STREET":" ","SECT":" ","MAREA":"大同","LANE":" ","ALLEY":" ","HOUSE_NO":"１７號","E_COORD97":170492.17000000001,"N_COORD97":2553856.25,"ADDRESS":"大同１７號","OBJECTID":292433},"geometry":{"x":170492.17000000179,"y":2553856.2500000019}},{"attributes":{"ID":292442,"DIS_CODE":0,"TOWNNAME":"安南區","LI":"幸福里","LIN":"17鄰","STREET":"府安路","SECT":"六段","MAREA":" ","LANE":"２７巷","ALLEY":" ","HOUSE_NO":"４５號","E_COORD97":167008.79000000001,"N_COORD97":2546815,"ADDRESS":"府安路六段２７巷４５號","OBJECTID":292434},"geometry":{"x":167008.79000000004,"y":2546815.0000000019}},{"attributes":{"ID":292443,"DIS_CODE":0,"TOWNNAME":"安南區","LI":"幸福里","LIN":"17鄰","STREET":"府安路","SECT":"六段","MAREA":" ","LANE":"２７巷","ALLEY":" ","HOUSE_NO":"４９號","E_COORD97":167007.67000000001,"N_COORD97":2546824,"ADDRESS":"府安路六段２７巷４９號","OBJECTID":292435},"geometry":{"x":167007.66999999993,"y":2546824}},{"attributes":{"ID":292444,"DIS_CODE":0,"TOWNNAME":"安南區","LI":"幸福里","LIN":"17鄰","STREET":"府安路","SECT":"六段","MAREA":" ","LANE":"２７巷","ALLEY":" ","HOUSE_NO":"５３號","E_COORD97":167004.26999999999,"N_COORD97":2546835.4500000002,"ADDRESS":"府安路六段２７巷５３號","OBJECTID":292436},"geometry":{"x":167004.27000000048,"y":2546835.4500000011}},{"attributes":{"ID":292445,"DIS_CODE":0,"TOWNNAME":"安南區","LI":"幸福里","LIN":"17鄰","STREET":"府安路","SECT":"六段","MAREA":" ","LANE":"２７巷","ALLEY":" ","HOUSE_NO":"５５號","E_COORD97":167003.64000000001,"N_COORD97":2546840.0699999998,"ADDRESS":"府安路六段２７巷５５號","OBJECTID":292437},"geometry":{"x":167003.6400000006,"y":2546840.0700000003}},{"attributes":{"ID":292446,"DIS_CODE":0,"TOWNNAME":"安南區","LI":"幸福里","LIN":"17鄰","STREET":"府安路","SECT":"六段","MAREA":" ","LANE":"２７巷","ALLEY":" ","HOUSE_NO":"６１號","E_COORD97":167000.12,"N_COORD97":2546854.27,"ADDRESS":"府安路六段２７巷６１號","OBJECTID":292438},"geometry":{"x":167000.12000000011,"y":2546854.2700000014}},{"attributes":{"ID":292447,"DIS_CODE":0,"TOWNNAME":"安南區","LI":"幸福里","LIN":"17鄰","STREET":"府安路","SECT":"六段","MAREA":" ","LANE":"２７巷","ALLEY":" ","HOUSE_NO":"６３號","E_COORD97":166999.12,"N_COORD97":2546858.77,"ADDRESS":"府安路六段２７巷６３號","OBJECTID":292439},"geometry":{"x":166999.12000000104,"y":2546858.7699999996}},{"attributes":{"ID":292448,"DIS_CODE":0,"TOWNNAME":"安南區","LI":"幸福里","LIN":"17鄰","STREET":"府安路","SECT":"六段","MAREA":" ","LANE":"２７巷","ALLEY":" ","HOUSE_NO":"６５號","E_COORD97":166998.23999999999,"N_COORD97":2546863.3999999999,"ADDRESS":"府安路六段２７巷６５號","OBJECTID":292440},"geometry":{"x":166998.24000000209,"y":2546863.4000000022}},{"attributes":{"ID":292449,"DIS_CODE":0,"TOWNNAME":"安南區","LI":"幸福里","LIN":"17鄰","STREET":"府安路","SECT":"六段","MAREA":" ","LANE":"２７巷","ALLEY":" ","HOUSE_NO":"６７號","E_COORD97":166996.10999999999,"N_COORD97":2546868.6499999999,"ADDRESS":"府安路六段２７巷６７號","OBJECTID":292441},"geometry":{"x":166996.11000000127,"y":2546868.6500000022}},{"attributes":{"ID":292450,"DIS_CODE":0,"TOWNNAME":"永康區","LI":"西勢里","LIN":"17鄰","STREET":"富強路","SECT":"一段","MAREA":" ","LANE":"１９４巷","ALLEY":" ","HOUSE_NO":"１０６號","E_COORD97":175719.45000000001,"N_COORD97":2546389.6600000001,"ADDRESS":"富強路一段１９４巷１０６號","OBJECTID":292442},"geometry":{"x":175719.45000000019,"y":2546389.6599999983}},{"attributes":{"ID":292451,"DIS_CODE":0,"TOWNNAME":"永康區","LI":"西勢里","LIN":"17鄰","STREET":"富強路","SECT":"一段","MAREA":" ","LANE":"１９４巷","ALLEY":" ","HOUSE_NO":"１０８號","E_COORD97":175721.01999999999,"N_COORD97":2546400.71,"ADDRESS":"富強路一段１９４巷１０８號","OBJECTID":292443},"geometry":{"x":175721.02000000048,"y":2546400.7100000028}},{"attributes":{"ID":292452,"DIS_CODE":0,"TOWNNAME":"永康區","LI":"西勢里","LIN":"17鄰","STREET":"富強路","SECT":"一段","MAREA":" ","LANE":"１９４巷","ALLEY":" ","HOUSE_NO":"１１０號","E_COORD97":175714.57000000001,"N_COORD97":2546427.29,"ADDRESS":"富強路一段１９４巷１１０號","OBJECTID":292444},"geometry":{"x":175714.57000000123,"y":2546427.2899999991}},{"attributes":{"ID":292453,"DIS_CODE":0,"TOWNNAME":"永康區","LI":"西勢里","LIN":"17鄰","STREET":"富強路","SECT":"一段","MAREA":" ","LANE":"２５４巷","ALLEY":" ","HOUSE_NO":"５６號","E_COORD97":175771.87,"N_COORD97":2546372.79,"ADDRESS":"富強路一段２５４巷５６號","OBJECTID":292445},"geometry":{"x":175771.87000000104,"y":2546372.7899999991}},{"attributes":{"ID":292454,"DIS_CODE":0,"TOWNNAME":"永康區","LI":"西勢里","LIN":"17鄰","STREET":"富強路","SECT":"一段","MAREA":" ","LANE":"１９４巷","ALLEY":" ","HOUSE_NO":"９８號","E_COORD97":175709.91,"N_COORD97":2546358.9399999999,"ADDRESS":"富強路一段１９４巷９８號","OBJECTID":292446},"geometry":{"x":175709.91000000015,"y":2546358.9399999995}},{"attributes":{"ID":292455,"DIS_CODE":0,"TOWNNAME":"安平區","LI":"文平里","LIN":"8鄰","STREET":"建平六街","SECT":" ","MAREA":" ","LANE":" ","ALLEY":" ","HOUSE_NO":"１１４號六樓之８","E_COORD97":166176.26999999999,"N_COORD97":2543144.21,"ADDRESS":"建平六街１１４號六樓之８","OBJECTID":292447},"geometry":{"x":166176.26999999955,"y":2543144.2100000009}},{"attributes":{"ID":292456,"DIS_CODE":0,"TOWNNAME":"安平區","LI":"文平里","LIN":"8鄰","STREET":"建平六街","SECT":" ","MAREA":" ","LANE":" ","ALLEY":" ","HOUSE_NO":"１１４號六樓之９","E_COORD97":166176.26999999999,"N_COORD97":2543144.21,"ADDRESS":"建平六街１１４號六樓之９","OBJECTID":292448},"geometry":{"x":166176.26999999955,"y":2543144.2100000009}},{"attributes":{"ID":292457,"DIS_CODE":0,"TOWNNAME":"安平區","LI":"文平里","LIN":"8鄰","STREET":"建平六街","SECT":" ","MAREA":" ","LANE":" ","ALLEY":" ","HOUSE_NO":"１１４號四樓之１","E_COORD97":166198.32000000001,"N_COORD97":2543142.2000000002,"ADDRESS":"建平六街１１４號四樓之１","OBJECTID":292449},"geometry":{"x":166198.32000000123,"y":2543142.2000000011}},{"attributes":{"ID":292458,"DIS_CODE":0,"TOWNNAME":"安平區","LI":"文平里","LIN":"8鄰","STREET":"建平六街","SECT":" ","MAREA":" ","LANE":" ","ALLEY":" ","HOUSE_NO":"１１４號四樓之１０","E_COORD97":166176.26999999999,"N_COORD97":2543144.21,"ADDRESS":"建平六街１１４號四樓之１０","OBJECTID":292450},"geometry":{"x":166176.26999999955,"y":2543144.2100000009}},{"attributes":{"ID":292459,"DIS_CODE":0,"TOWNNAME":"安平區","LI":"文平里","LIN":"8鄰","STREET":"建平六街","SECT":" ","MAREA":" ","LANE":" ","ALLEY":" ","HOUSE_NO":"１１４號四樓之２","E_COORD97":166198.32000000001,"N_COORD97":2543142.2000000002,"ADDRESS":"建平六街１１４號四樓之２","OBJECTID":292451},"geometry":{"x":166198.32000000123,"y":2543142.2000000011}},{"attributes":{"ID":292460,"DIS_CODE":0,"TOWNNAME":"安平區","LI":"文平里","LIN":"8鄰","STREET":"建平六街","SECT":" ","MAREA":" ","LANE":" ","ALLEY":" ","HOUSE_NO":"１１４號四樓之３","E_COORD97":166198.32000000001,"N_COORD97":2543142.2000000002,"ADDRESS":"建平六街１１４號四樓之３","OBJECTID":292452},"geometry":{"x":166198.32000000123,"y":2543142.2000000011}},{"attributes":{"ID":292461,"DIS_CODE":0,"TOWNNAME":"安平區","LI":"文平里","LIN":"8鄰","STREET":"建平六街","SECT":" ","MAREA":" ","LANE":" ","ALLEY":" ","HOUSE_NO":"１１４號四樓之４","E_COORD97":166198.32000000001,"N_COORD97":2543142.2000000002,"ADDRESS":"建平六街１１４號四樓之４","OBJECTID":292453},"geometry":{"x":166198.32000000123,"y":2543142.2000000011}},{"attributes":{"ID":292462,"DIS_CODE":0,"TOWNNAME":"安平區","LI":"建平里","LIN":"8鄰","STREET":"中華西路","SECT":"二段","MAREA":" ","LANE":" ","ALLEY":" ","HOUSE_NO":"３１７號三樓","E_COORD97":166613.22,"N_COORD97":2543730.5299999998,"ADDRESS":"中華西路二段３１７號三樓","OBJECTID":292454},"geometry":{"x":166613.22000000067,"y":2543730.5299999993}},{"attributes":{"ID":292463,"DIS_CODE":0,"TOWNNAME":"安平區","LI":"建平里","LIN":"8鄰","STREET":"中華西路","SECT":"二段","MAREA":" ","LANE":" ","ALLEY":" ","HOUSE_NO":"３１７號五樓","E_COORD97":166613.22,"N_COORD97":2543730.5299999998,"ADDRESS":"中華西路二段３１７號五樓","OBJECTID":292455},"geometry":{"x":166613.22000000067,"y":2543730.5299999993}},{"attributes":{"ID":292464,"DIS_CODE":0,"TOWNNAME":"安南區","LI":"布袋里","LIN":"1鄰","STREET":"工明二路","SECT":" ","MAREA":" ","LANE":" ","ALLEY":" ","HOUSE_NO":"５２號","E_COORD97":168789.29000000001,"N_COORD97":2551133.6499999999,"ADDRESS":"工明二路５２號","OBJECTID":292456},"geometry":{"x":168789.29000000004,"y":2551133.6500000022}},{"attributes":{"ID":292465,"DIS_CODE":0,"TOWNNAME":"安南區","LI":"幸福里","LIN":"19鄰","STREET":"府安路","SECT":"六段","MAREA":" ","LANE":"７巷","ALLEY":" ","HOUSE_NO":"１號","E_COORD97":167143.35000000001,"N_COORD97":2546747.4399999999,"ADDRESS":"府安路六段７巷１號","OBJECTID":292457},"geometry":{"x":167143.35000000056,"y":2546747.4400000013}},{"attributes":{"ID":292466,"DIS_CODE":0,"TOWNNAME":"安南區","LI":"幸福里","LIN":"18鄰","STREET":"府安路","SECT":"六段","MAREA":" ","LANE":"２７巷","ALLEY":" ","HOUSE_NO":"２６號","E_COORD97":167041.85000000001,"N_COORD97":2546803.0299999998,"ADDRESS":"府安路六段２７巷２６號","OBJECTID":292458},"geometry":{"x":167041.84999999963,"y":2546803.0299999993}},{"attributes":{"ID":292467,"DIS_CODE":0,"TOWNNAME":"安南區","LI":"幸福里","LIN":"20鄰","STREET":"國安街","SECT":" ","MAREA":" ","LANE":"９巷","ALLEY":" ","HOUSE_NO":"１３號","E_COORD97":167132.17999999999,"N_COORD97":2546971.3999999999,"ADDRESS":"國安街９巷１３號","OBJECTID":292459},"geometry":{"x":167132.18000000063,"y":2546971.3999999985}},{"attributes":{"ID":292468,"DIS_CODE":0,"TOWNNAME":"安南區","LI":"溪北里","LIN":"8鄰","STREET":"府安路","SECT":"四段","MAREA":" ","LANE":"２４巷","ALLEY":" ","HOUSE_NO":"２２號","E_COORD97":169414.48999999999,"N_COORD97":2547383.2999999998,"ADDRESS":"府安路四段２４巷２２號","OBJECTID":292460},"geometry":{"x":169414.49000000115,"y":2547383.3000000026}},{"attributes":{"ID":292469,"DIS_CODE":0,"TOWNNAME":"安南區","LI":"溪北里","LIN":"8鄰","STREET":"府安路","SECT":"四段","MAREA":" ","LANE":"２４巷","ALLEY":" ","HOUSE_NO":"３４號","E_COORD97":169403.79000000001,"N_COORD97":2547408.6899999999,"ADDRESS":"府安路四段２４巷３４號","OBJECTID":292461},"geometry":{"x":169403.79000000097,"y":2547408.6899999995}},{"attributes":{"ID":292470,"DIS_CODE":0,"TOWNNAME":"安南區","LI":"幸福里","LIN":"4鄰","STREET":"國安街","SECT":" ","MAREA":" ","LANE":"１０９巷","ALLEY":" ","HOUSE_NO":"２６號","E_COORD97":166866.26000000001,"N_COORD97":2546896.5899999999,"ADDRESS":"國安街１０９巷２６號","OBJECTID":292462},"geometry":{"x":166866.25999999978,"y":2546896.5900000017}},{"attributes":{"ID":292471,"DIS_CODE":0,"TOWNNAME":"安南區","LI":"海佃里","LIN":"25鄰","STREET":"國安街","SECT":" ","MAREA":" ","LANE":"１５６巷","ALLEY":" ","HOUSE_NO":"７８號","E_COORD97":166711.07999999999,"N_COORD97":2547199.79,"ADDRESS":"國安街１５６巷７８號","OBJECTID":292463},"geometry":{"x":166711.08000000101,"y":2547199.790000001}},{"attributes":{"ID":292472,"DIS_CODE":0,"TOWNNAME":"永康區","LI":"西勢里","LIN":"17鄰","STREET":"富強路","SECT":"一段","MAREA":" ","LANE":"１９４巷","ALLEY":" ","HOUSE_NO":"１００號","E_COORD97":175707.97,"N_COORD97":2546366.2000000002,"ADDRESS":"富強路一段１９４巷１００號","OBJECTID":292464},"geometry":{"x":175707.97000000067,"y":2546366.2000000011}},{"attributes":{"ID":292473,"DIS_CODE":0,"TOWNNAME":"永康區","LI":"正強里","LIN":"17鄰","STREET":"自強路","SECT":" ","MAREA":" ","LANE":"１８８巷","ALLEY":" ","HOUSE_NO":"２８之３號","E_COORD97":173188.85999999999,"N_COORD97":2547414.77,"ADDRESS":"自強路１８８巷２８之３號","OBJECTID":292465},"geometry":{"x":173188.86000000127,"y":2547414.7699999996}},{"attributes":{"ID":292474,"DIS_CODE":0,"TOWNNAME":"永康區","LI":"正強里","LIN":"17鄰","STREET":"自強路","SECT":" ","MAREA":" ","LANE":"１８８巷","ALLEY":" ","HOUSE_NO":"２８之５號","E_COORD97":173187.98000000001,"N_COORD97":2547408.9300000002,"ADDRESS":"自強路１８８巷２８之５號","OBJECTID":292466},"geometry":{"x":173187.98000000138,"y":2547408.9300000016}},{"attributes":{"ID":292475,"DIS_CODE":0,"TOWNNAME":"永康區","LI":"正強里","LIN":"17鄰","STREET":"自強路","SECT":" ","MAREA":" ","LANE":"１８８巷","ALLEY":" ","HOUSE_NO":"２８之６號","E_COORD97":173187.23999999999,"N_COORD97":2547403.1899999999,"ADDRESS":"自強路１８８巷２８之６號","OBJECTID":292467},"geometry":{"x":173187.24000000209,"y":2547403.1900000013}},{"attributes":{"ID":292476,"DIS_CODE":0,"TOWNNAME":"仁德區","LI":"太子里","LIN":"17鄰","STREET":"太興路","SECT":" ","MAREA":" ","LANE":"１１７巷","ALLEY":" ","HOUSE_NO":"２號","E_COORD97":174064.45000000001,"N_COORD97":2543576.5,"ADDRESS":"太興路１１７巷２號","OBJECTID":292468},"geometry":{"x":174064.45000000112,"y":2543576.4999999981}},{"attributes":{"ID":292477,"DIS_CODE":0,"TOWNNAME":"仁德區","LI":"新田里","LIN":"17鄰","STREET":"民安路","SECT":"二段","MAREA":" ","LANE":"６３巷","ALLEY":" ","HOUSE_NO":"６號","E_COORD97":173470.73999999999,"N_COORD97":2539241.5600000001,"ADDRESS":"民安路二段６３巷６號","OBJECTID":292469},"geometry":{"x":173470.74000000115,"y":2539241.5600000024}},{"attributes":{"ID":292478,"DIS_CODE":0,"TOWNNAME":"新化區","LI":"太平里","LIN":"17鄰","STREET":"太平街","SECT":" ","MAREA":" ","LANE":"９７巷","ALLEY":" ","HOUSE_NO":"１１號","E_COORD97":178639.92000000001,"N_COORD97":2548711.25,"ADDRESS":"太平街９７巷１１號","OBJECTID":292470},"geometry":{"x":178639.92000000086,"y":2548711.2499999981}},{"attributes":{"ID":292479,"DIS_CODE":0,"TOWNNAME":"新化區","LI":"太平里","LIN":"17鄰","STREET":"太平街","SECT":" ","MAREA":" ","LANE":"９７巷","ALLEY":" ","HOUSE_NO":"７號","E_COORD97":178637.57000000001,"N_COORD97":2548721.25,"ADDRESS":"太平街９７巷７號","OBJECTID":292471},"geometry":{"x":178637.57000000123,"y":2548721.25}},{"attributes":{"ID":292480,"DIS_CODE":0,"TOWNNAME":"佳里區","LI":"忠仁里","LIN":"17鄰","STREET":"博愛街","SECT":" ","MAREA":" ","LANE":"２９巷","ALLEY":" ","HOUSE_NO":"１０號","E_COORD97":166096.66,"N_COORD97":2561973.5499999998,"ADDRESS":"博愛街２９巷１０號","OBJECTID":292472},"geometry":{"x":166096.65999999922,"y":2561973.5500000045}},{"attributes":{"ID":292481,"DIS_CODE":0,"TOWNNAME":"佳里區","LI":"忠仁里","LIN":"17鄰","STREET":"博愛街","SECT":" ","MAREA":" ","LANE":"２９巷","ALLEY":" ","HOUSE_NO":"１２號","E_COORD97":166097.12,"N_COORD97":2561969.2599999998,"ADDRESS":"博愛街２９巷１２號","OBJECTID":292473},"geometry":{"x":166097.12000000197,"y":2561969.2599999998}},{"attributes":{"ID":292482,"DIS_CODE":0,"TOWNNAME":"佳里區","LI":"忠仁里","LIN":"17鄰","STREET":"博愛街","SECT":" ","MAREA":" ","LANE":"２９巷","ALLEY":" ","HOUSE_NO":"１４號","E_COORD97":166097.67999999999,"N_COORD97":2561964.8300000001,"ADDRESS":"博愛街２９巷１４號","OBJECTID":292474},"geometry":{"x":166097.6799999997,"y":2561964.8300000019}},{"attributes":{"ID":292483,"DIS_CODE":0,"TOWNNAME":"佳里區","LI":"忠仁里","LIN":"17鄰","STREET":"博愛街","SECT":" ","MAREA":" ","LANE":"２９巷","ALLEY":" ","HOUSE_NO":"１６號","E_COORD97":166098.01000000001,"N_COORD97":2561960.52,"ADDRESS":"博愛街２９巷１６號","OBJECTID":292475},"geometry":{"x":166098.01000000071,"y":2561960.5199999996}},{"attributes":{"ID":292484,"DIS_CODE":0,"TOWNNAME":"佳里區","LI":"忠仁里","LIN":"17鄰","STREET":"博愛街","SECT":" ","MAREA":" ","LANE":"２９巷","ALLEY":" ","HOUSE_NO":"１８號","E_COORD97":166098.91,"N_COORD97":2561956.1400000001,"ADDRESS":"博愛街２９巷１８號","OBJECTID":292476},"geometry":{"x":166098.91000000108,"y":2561956.1400000025}},{"attributes":{"ID":292485,"DIS_CODE":0,"TOWNNAME":"佳里區","LI":"忠仁里","LIN":"17鄰","STREET":"博愛街","SECT":" ","MAREA":" ","LANE":"２９巷","ALLEY":" ","HOUSE_NO":"２號","E_COORD97":166097.37,"N_COORD97":2561993.75,"ADDRESS":"博愛街２９巷２號","OBJECTID":292477},"geometry":{"x":166097.37000000104,"y":2561993.75}},{"attributes":{"ID":292486,"DIS_CODE":0,"TOWNNAME":"安平區","LI":"建平里","LIN":"8鄰","STREET":"中華西路","SECT":"二段","MAREA":" ","LANE":" ","ALLEY":" ","HOUSE_NO":"３１７號六樓","E_COORD97":166613.22,"N_COORD97":2543730.5299999998,"ADDRESS":"中華西路二段３１７號六樓","OBJECTID":292478},"geometry":{"x":166613.22000000067,"y":2543730.5299999993}},{"attributes":{"ID":292487,"DIS_CODE":0,"TOWNNAME":"安平區","LI":"建平里","LIN":"8鄰","STREET":"中華西路","SECT":"二段","MAREA":" ","LANE":" ","ALLEY":" ","HOUSE_NO":"３１７號四樓","E_COORD97":166613.22,"N_COORD97":2543730.5299999998,"ADDRESS":"中華西路二段３１７號四樓","OBJECTID":292479},"geometry":{"x":166613.22000000067,"y":2543730.5299999993}},{"attributes":{"ID":292488,"DIS_CODE":0,"TOWNNAME":"南區","LI":"金華里","LIN":"18鄰","STREET":"尊南街","SECT":" ","MAREA":" ","LANE":" ","ALLEY":" ","HOUSE_NO":"２１７號","E_COORD97":166835.48000000001,"N_COORD97":2542265.8700000001,"ADDRESS":"尊南街２１７號","OBJECTID":292480},"geometry":{"x":166835.48000000045,"y":2542265.870000001}},{"attributes":{"ID":292489,"DIS_CODE":0,"TOWNNAME":"南區","LI":"金華里","LIN":"18鄰","STREET":"尊南街","SECT":" ","MAREA":" ","LANE":" ","ALLEY":" ","HOUSE_NO":"２２１號","E_COORD97":166834.20999999999,"N_COORD97":2542282.8500000001,"ADDRESS":"尊南街２２１號","OBJECTID":292481},"geometry":{"x":166834.21000000089,"y":2542282.8500000015}},{"attributes":{"ID":292490,"DIS_CODE":0,"TOWNNAME":"南區","LI":"金華里","LIN":"21鄰","STREET":"賢南街","SECT":" ","MAREA":" ","LANE":" ","ALLEY":" ","HOUSE_NO":"５３號","E_COORD97":166781.41,"N_COORD97":2542397.1000000001,"ADDRESS":"賢南街５３號","OBJECTID":292482},"geometry":{"x":166781.41000000015,"y":2542397.1000000015}},{"attributes":{"ID":292491,"DIS_CODE":0,"TOWNNAME":"南區","LI":"金華里","LIN":"21鄰","STREET":"賢南街","SECT":" ","MAREA":" ","LANE":" ","ALLEY":" ","HOUSE_NO":"５３號之１","E_COORD97":166772.26000000001,"N_COORD97":2542395.1200000001,"ADDRESS":"賢南街５３號之１","OBJECTID":292483},"geometry":{"x":166772.26000000071,"y":2542395.1200000029}},{"attributes":{"ID":292492,"DIS_CODE":0,"TOWNNAME":"南區","LI":"金華里","LIN":"18鄰","STREET":"尊南街","SECT":" ","MAREA":" ","LANE":" ","ALLEY":" ","HOUSE_NO":"２２５號","E_COORD97":166835.17000000001,"N_COORD97":2542293.0099999998,"ADDRESS":"尊南街２２５號","OBJECTID":292484},"geometry":{"x":166835.16999999993,"y":2542293.0100000016}},{"attributes":{"ID":292493,"DIS_CODE":0,"TOWNNAME":"安南區","LI":"東和里","LIN":"6鄰","STREET":"長和路","SECT":"一段","MAREA":" ","LANE":" ","ALLEY":" ","HOUSE_NO":"８３７號","E_COORD97":170876.20000000001,"N_COORD97":2551417.5899999999,"ADDRESS":"長和路一段８３７號","OBJECTID":292485},"geometry":{"x":170876.20000000019,"y":2551417.5899999999}},{"attributes":{"ID":292494,"DIS_CODE":0,"TOWNNAME":"安南區","LI":"\u25A0南里","LIN":"1鄰","STREET":"環福街","SECT":" ","MAREA":" ","LANE":"８２巷","ALLEY":" ","HOUSE_NO":"１７號","E_COORD97":170344.01000000001,"N_COORD97":2552379.4700000002,"ADDRESS":"環福街８２巷１７號","OBJECTID":292486},"geometry":{"x":170344.01000000071,"y":2552379.4700000025}},{"attributes":{"ID":292495,"DIS_CODE":0,"TOWNNAME":"安南區","LI":"佃西里","LIN":"13鄰","STREET":"海佃路","SECT":"四段","MAREA":" ","LANE":"４９０巷","ALLEY":" ","HOUSE_NO":"２７號之２","E_COORD97":165349.79999999999,"N_COORD97":2551712.25,"ADDRESS":"海佃路四段４９０巷２７號之２","OBJECTID":292487},"geometry":{"x":165349.80000000075,"y":2551712.2500000019}},{"attributes":{"ID":292496,"DIS_CODE":0,"TOWNNAME":"安南區","LI":"州北里","LIN":"20鄰","STREET":"安昌街","SECT":" ","MAREA":" ","LANE":"１９巷","ALLEY":" ","HOUSE_NO":"２１號","E_COORD97":169810.48999999999,"N_COORD97":2552044.7999999998,"ADDRESS":"安昌街１９巷２１號","OBJECTID":292488},"geometry":{"x":169810.49000000209,"y":2552044.8000000045}},{"attributes":{"ID":292497,"DIS_CODE":0,"TOWNNAME":"佳里區","LI":"忠仁里","LIN":"17鄰","STREET":"博愛街","SECT":" ","MAREA":" ","LANE":"２９巷","ALLEY":" ","HOUSE_NO":"４號","E_COORD97":166094.98999999999,"N_COORD97":2561986.9199999999,"ADDRESS":"博愛街２９巷４號","OBJECTID":292489},"geometry":{"x":166094.99000000115,"y":2561986.9200000037}},{"attributes":{"ID":292498,"DIS_CODE":0,"TOWNNAME":"佳里區","LI":"忠仁里","LIN":"17鄰","STREET":"博愛街","SECT":" ","MAREA":" ","LANE":"２９巷","ALLEY":" ","HOUSE_NO":"６號","E_COORD97":166095.48000000001,"N_COORD97":2561982.3700000001,"ADDRESS":"博愛街２９巷６號","OBJECTID":292490},"geometry":{"x":166095.48000000138,"y":2561982.3700000029}},{"attributes":{"ID":292499,"DIS_CODE":0,"TOWNNAME":"佳里區","LI":"忠仁里","LIN":"17鄰","STREET":"博愛街","SECT":" ","MAREA":" ","LANE":"２９巷","ALLEY":" ","HOUSE_NO":"８號","E_COORD97":166096.07999999999,"N_COORD97":2561978.0699999998,"ADDRESS":"博愛街２９巷８號","OBJECTID":292491},"geometry":{"x":166096.08000000101,"y":2561978.0700000003}},{"attributes":{"ID":292500,"DIS_CODE":0,"TOWNNAME":"歸仁區","LI":"大廟里","LIN":"8鄰","STREET":"大廟一街","SECT":" ","MAREA":" ","LANE":"９３巷","ALLEY":" ","HOUSE_NO":"３３號","E_COORD97":175866.51999999999,"N_COORD97":2543912.25,"ADDRESS":"大廟一街９３巷３３號","OBJECTID":292492},"geometry":{"x":175866.52000000142,"y":2543912.2500000019}},{"attributes":{"ID":292501,"DIS_CODE":0,"TOWNNAME":"學甲區","LI":"明宜里","LIN":"17鄰","STREET":"天水路","SECT":" ","MAREA":" ","LANE":"１８巷","ALLEY":" ","HOUSE_NO":"１０號","E_COORD97":166109.20999999999,"N_COORD97":2570713.1000000001,"ADDRESS":"天水路１８巷１０號","OBJECTID":292493},"geometry":{"x":166109.20999999996,"y":2570713.1000000015}},{"attributes":{"ID":292502,"DIS_CODE":0,"TOWNNAME":"學甲區","LI":"明宜里","LIN":"17鄰","STREET":"天水路","SECT":" ","MAREA":" ","LANE":"１８巷","ALLEY":" ","HOUSE_NO":"１２號","E_COORD97":166118.35000000001,"N_COORD97":2570723.3500000001,"ADDRESS":"天水路１８巷１２號","OBJECTID":292494},"geometry":{"x":166118.34999999963,"y":2570723.3499999996}},{"attributes":{"ID":292503,"DIS_CODE":0,"TOWNNAME":"歸仁區","LI":"歸仁里","LIN":"17鄰","STREET":"信義北路","SECT":" ","MAREA":" ","LANE":"９６巷","ALLEY":" ","HOUSE_NO":"３４號","E_COORD97":178044.12,"N_COORD97":2541010.1099999999,"ADDRESS":"信義北路９６巷３４號","OBJECTID":292495},"geometry":{"x":178044.12000000011,"y":2541010.1100000013}},{"attributes":{"ID":292504,"DIS_CODE":0,"TOWNNAME":"歸仁區","LI":"歸仁里","LIN":"17鄰","STREET":"信義北路","SECT":" ","MAREA":" ","LANE":"９６巷","ALLEY":" ","HOUSE_NO":"３０號","E_COORD97":178056.42000000001,"N_COORD97":2541014.1099999999,"ADDRESS":"信義北路９６巷３０號","OBJECTID":292496},"geometry":{"x":178056.42000000086,"y":2541014.1099999994}},{"attributes":{"ID":292505,"DIS_CODE":0,"TOWNNAME":"歸仁區","LI":"新厝里","LIN":"17鄰","STREET":"中正南路","SECT":"一段","MAREA":" ","LANE":"１３１巷","ALLEY":" ","HOUSE_NO":"６號","E_COORD97":177507.70999999999,"N_COORD97":2540423.7400000002,"ADDRESS":"中正南路一段１３１巷６號","OBJECTID":292497},"geometry":{"x":177507.70999999996,"y":2540423.7400000021}},{"attributes":{"ID":292506,"DIS_CODE":0,"TOWNNAME":"北區","LI":"永祥里","LIN":"17鄰","STREET":"大武街","SECT":" ","MAREA":" ","LANE":"５４２巷","ALLEY":" ","HOUSE_NO":"１４號","E_COORD97":170208.76000000001,"N_COORD97":2546365.6499999999,"ADDRESS":"大武街５４２巷１４號","OBJECTID":292498},"geometry":{"x":170208.76000000071,"y":2546365.6500000004}},{"attributes":{"ID":292507,"DIS_CODE":0,"TOWNNAME":"北區","LI":"永祥里","LIN":"17鄰","STREET":"大武街","SECT":" ","MAREA":" ","LANE":"５４２巷","ALLEY":" ","HOUSE_NO":"１６號","E_COORD97":170208.45999999999,"N_COORD97":2546361.5499999998,"ADDRESS":"大武街５４２巷１６號","OBJECTID":292499},"geometry":{"x":170208.45999999996,"y":2546361.5500000026}},{"attributes":{"ID":292508,"DIS_CODE":0,"TOWNNAME":"南區","LI":"金華里","LIN":"18鄰","STREET":"尊南街","SECT":" ","MAREA":" ","LANE":" ","ALLEY":" ","HOUSE_NO":"２２７號","E_COORD97":166838.22,"N_COORD97":2542301.1000000001,"ADDRESS":"尊南街２２７號","OBJECTID":292500},"geometry":{"x":166838.21999999974,"y":2542301.1000000034}},{"attributes":{"ID":292509,"DIS_CODE":0,"TOWNNAME":"南區","LI":"金華里","LIN":"18鄰","STREET":"惠南街","SECT":" ","MAREA":" ","LANE":" ","ALLEY":" ","HOUSE_NO":"６８號","E_COORD97":166775.44,"N_COORD97":2542258.8399999999,"ADDRESS":"惠南街６８號","OBJECTID":292501},"geometry":{"x":166775.44000000134,"y":2542258.8400000036}},{"attributes":{"ID":292510,"DIS_CODE":0,"TOWNNAME":"南區","LI":"金華里","LIN":"18鄰","STREET":"惠南街","SECT":" ","MAREA":" ","LANE":" ","ALLEY":" ","HOUSE_NO":"７６號","E_COORD97":166771.22,"N_COORD97":2542274.75,"ADDRESS":"惠南街７６號","OBJECTID":292502},"geometry":{"x":166771.22000000067,"y":2542274.7500000019}},{"attributes":{"ID":292511,"DIS_CODE":0,"TOWNNAME":"南區","LI":"金華里","LIN":"18鄰","STREET":"惠南街","SECT":" ","MAREA":" ","LANE":" ","ALLEY":" ","HOUSE_NO":"８２號","E_COORD97":166767.63,"N_COORD97":2542288.1699999999,"ADDRESS":"惠南街８２號","OBJECTID":292503},"geometry":{"x":166767.62999999989,"y":2542288.1700000018}},{"attributes":{"ID":292512,"DIS_CODE":0,"TOWNNAME":"南區","LI":"金華里","LIN":"18鄰","STREET":"聖南街","SECT":" ","MAREA":" ","LANE":" ","ALLEY":" ","HOUSE_NO":"１２６號","E_COORD97":166812.62,"N_COORD97":2542258.5299999998,"ADDRESS":"聖南街１２６號","OBJECTID":292504},"geometry":{"x":166812.62000000104,"y":2542258.5300000012}},{"attributes":{"ID":292513,"DIS_CODE":0,"TOWNNAME":"南區","LI":"金華里","LIN":"18鄰","STREET":"聖南街","SECT":" ","MAREA":" ","LANE":" ","ALLEY":" ","HOUSE_NO":"１２８號","E_COORD97":166800.87,"N_COORD97":2542256.8199999998,"ADDRESS":"聖南街１２８號","OBJECTID":292505},"geometry":{"x":166800.87000000104,"y":2542256.8200000022}},{"attributes":{"ID":292514,"DIS_CODE":0,"TOWNNAME":"南區","LI":"金華里","LIN":"18鄰","STREET":"聖南街","SECT":" ","MAREA":" ","LANE":" ","ALLEY":" ","HOUSE_NO":"１３６號","E_COORD97":166789.60000000001,"N_COORD97":2542254.75,"ADDRESS":"聖南街１３６號","OBJECTID":292506},"geometry":{"x":166789.59999999963,"y":2542254.75}},{"attributes":{"ID":292515,"DIS_CODE":0,"TOWNNAME":"南區","LI":"金華里","LIN":"19鄰","STREET":"惠南街","SECT":" ","MAREA":" ","LANE":" ","ALLEY":" ","HOUSE_NO":"１００號","E_COORD97":166755.19,"N_COORD97":2542339.3999999999,"ADDRESS":"惠南街１００號","OBJECTID":292507},"geometry":{"x":166755.19000000134,"y":2542339.4000000004}},{"attributes":{"ID":292516,"DIS_CODE":0,"TOWNNAME":"新營區","LI":"王公里","LIN":"1鄰","STREET":"中正路","SECT":" ","MAREA":" ","LANE":" ","ALLEY":" ","HOUSE_NO":"５０號","E_COORD97":180123.486749,"N_COORD97":2578947.1229699999,"ADDRESS":"中正路５０號","OBJECTID":292508},"geometry":{"x":180123.48674900085,"y":2578947.1229700018}},{"attributes":{"ID":292517,"DIS_CODE":0,"TOWNNAME":"安南區","LI":"安順里","LIN":"4鄰","STREET":"總安街","SECT":"一段","MAREA":" ","LANE":"９０巷","ALLEY":" ","HOUSE_NO":"１號","E_COORD97":169726.39999999999,"N_COORD97":2550160.3100000001,"ADDRESS":"總安街一段９０巷１號","OBJECTID":292509},"geometry":{"x":169726.39999999944,"y":2550160.3100000024}},{"attributes":{"ID":292518,"DIS_CODE":0,"TOWNNAME":"安南區","LI":"城南里","LIN":"13鄰","STREET":"城西街","SECT":"二段","MAREA":" ","LANE":"２３３巷","ALLEY":" ","HOUSE_NO":"１０號","E_COORD97":159734.35999999999,"N_COORD97":2550942.8300000001,"ADDRESS":"城西街二段２３３巷１０號","OBJECTID":292510},"geometry":{"x":159734.36000000127,"y":2550942.8300000019}},{"attributes":{"ID":292519,"DIS_CODE":0,"TOWNNAME":"安南區","LI":"安順里","LIN":"4鄰","STREET":"總安街","SECT":"一段","MAREA":" ","LANE":"９０巷","ALLEY":" ","HOUSE_NO":"３號","E_COORD97":169724.32999999999,"N_COORD97":2550164.96,"ADDRESS":"總安街一段９０巷３號","OBJECTID":292511},"geometry":{"x":169724.33000000007,"y":2550164.9600000009}},{"attributes":{"ID":292520,"DIS_CODE":0,"TOWNNAME":"安南區","LI":"州南里","LIN":"20鄰","STREET":"安和路","SECT":"四段","MAREA":" ","LANE":"５３３巷","ALLEY":" ","HOUSE_NO":"２１號","E_COORD97":169888.84,"N_COORD97":2551289.4199999999,"ADDRESS":"安和路四段５３３巷２１號","OBJECTID":292512},"geometry":{"x":169888.83999999985,"y":2551289.4199999999}},{"attributes":{"ID":292521,"DIS_CODE":0,"TOWNNAME":"安南區","LI":"州南里","LIN":"26鄰","STREET":"安和路","SECT":"四段","MAREA":" ","LANE":"５３８巷","ALLEY":" ","HOUSE_NO":"１６１號之１","E_COORD97":170292.10999999999,"N_COORD97":2551277.0699999998,"ADDRESS":"安和路四段５３８巷１６１號之１","OBJECTID":292513},"geometry":{"x":170292.11000000034,"y":2551277.0700000022}},{"attributes":{"ID":292522,"DIS_CODE":0,"TOWNNAME":"安南區","LI":"安慶里","LIN":"7鄰","STREET":"怡安路","SECT":"一段","MAREA":" ","LANE":"３０３巷","ALLEY":" ","HOUSE_NO":"１８號","E_COORD97":168914.44,"N_COORD97":2549048.6800000002,"ADDRESS":"怡安路一段３０３巷１８號","OBJECTID":292514},"geometry":{"x":168914.44000000134,"y":2549048.6800000016}},{"attributes":{"ID":292523,"DIS_CODE":0,"TOWNNAME":"安南區","LI":"安慶里","LIN":"7鄰","STREET":"怡安路","SECT":"一段","MAREA":" ","LANE":"３０３巷","ALLEY":" ","HOUSE_NO":"２０號","E_COORD97":168898.10000000001,"N_COORD97":2549057.2599999998,"ADDRESS":"怡安路一段３０３巷２０號","OBJECTID":292515},"geometry":{"x":168898.09999999963,"y":2549057.2600000016}},{"attributes":{"ID":292524,"DIS_CODE":0,"TOWNNAME":"安南區","LI":"安慶里","LIN":"7鄰","STREET":"怡安路","SECT":"一段","MAREA":" ","LANE":"３０３巷","ALLEY":" ","HOUSE_NO":"２６號","E_COORD97":168918.32000000001,"N_COORD97":2549030.2400000002,"ADDRESS":"怡安路一段３０３巷２６號","OBJECTID":292516},"geometry":{"x":168918.32000000216,"y":2549030.2399999984}},{"attributes":{"ID":292525,"DIS_CODE":0,"TOWNNAME":"安南區","LI":"安慶里","LIN":"7鄰","STREET":"怡安路","SECT":"一段","MAREA":" ","LANE":"３０３巷","ALLEY":" ","HOUSE_NO":"２９號","E_COORD97":168946.69,"N_COORD97":2549018.02,"ADDRESS":"怡安路一段３０３巷２９號","OBJECTID":292517},"geometry":{"x":168946.69000000134,"y":2549018.0200000014}},{"attributes":{"ID":292526,"DIS_CODE":0,"TOWNNAME":"安南區","LI":"安慶里","LIN":"7鄰","STREET":"怡安路","SECT":"一段","MAREA":" ","LANE":"３０３巷","ALLEY":" ","HOUSE_NO":"３３號","E_COORD97":168949.41,"N_COORD97":2549005.79,"ADDRESS":"怡安路一段３０３巷３３號","OBJECTID":292518},"geometry":{"x":168949.41000000015,"y":2549005.790000001}},{"attributes":{"ID":292527,"DIS_CODE":0,"TOWNNAME":"安南區","LI":"安慶里","LIN":"13鄰","STREET":"安和路","SECT":"二段","MAREA":" ","LANE":" ","ALLEY":" ","HOUSE_NO":"１２９號","E_COORD97":169502.17999999999,"N_COORD97":2548806.6699999999,"ADDRESS":"安和路二段１２９號","OBJECTID":292519},"geometry":{"x":169502.18000000063,"y":2548806.6699999981}},{"attributes":{"ID":292528,"DIS_CODE":0,"TOWNNAME":"安南區","LI":"安慶里","LIN":"24鄰","STREET":"安中路","SECT":"一段","MAREA":" ","LANE":" ","ALLEY":" ","HOUSE_NO":"２０９號之１","E_COORD97":168659.19,"N_COORD97":2548551.1099999999,"ADDRESS":"安中路一段２０９號之１","OBJECTID":292520},"geometry":{"x":168659.19000000041,"y":2548551.1099999994}},{"attributes":{"ID":292529,"DIS_CODE":0,"TOWNNAME":"安南區","LI":"州北里","LIN":"14鄰","STREET":"安和路","SECT":"五段","MAREA":" ","LANE":" ","ALLEY":" ","HOUSE_NO":"１５９號","E_COORD97":169850.76999999999,"N_COORD97":2551816.3799999999,"ADDRESS":"安和路五段１５９號","OBJECTID":292521},"geometry":{"x":169850.77000000048,"y":2551816.3800000008}},{"attributes":{"ID":292530,"DIS_CODE":0,"TOWNNAME":"安南區","LI":"州北里","LIN":"14鄰","STREET":"安和路","SECT":"五段","MAREA":" ","LANE":" ","ALLEY":" ","HOUSE_NO":"１４９號","E_COORD97":169862.13,"N_COORD97":2551799.4300000002,"ADDRESS":"安和路五段１４９號","OBJECTID":292522},"geometry":{"x":169862.13000000082,"y":2551799.4300000016}},{"attributes":{"ID":292531,"DIS_CODE":0,"TOWNNAME":"安南區","LI":"城南里","LIN":"4鄰","STREET":"城西街","SECT":"一段","MAREA":" ","LANE":" ","ALLEY":" ","HOUSE_NO":"１６１號","E_COORD97":160548.47,"N_COORD97":2551287.4900000002,"ADDRESS":"城西街一段１６１號","OBJECTID":292523},"geometry":{"x":160548.46999999974,"y":2551287.4900000021}},{"attributes":{"ID":292532,"DIS_CODE":0,"TOWNNAME":"永康區","LI":"龍潭里","LIN":"39鄰","STREET":"永明街","SECT":" ","MAREA":" ","LANE":" ","ALLEY":" ","HOUSE_NO":"２６１之６號","E_COORD97":174626.64000000001,"N_COORD97":2547230.27,"ADDRESS":"永明街２６１之６號","OBJECTID":292524},"geometry":{"x":174626.64000000153,"y":2547230.2700000014}},{"attributes":{"ID":292533,"DIS_CODE":0,"TOWNNAME":"永康區","LI":"龍潭里","LIN":"39鄰","STREET":"永明街","SECT":" ","MAREA":" ","LANE":" ","ALLEY":" ","HOUSE_NO":"２２３號","E_COORD97":174532.16,"N_COORD97":2547217.0699999998,"ADDRESS":"永明街２２３號","OBJECTID":292525},"geometry":{"x":174532.16000000201,"y":2547217.0700000003}},{"attributes":{"ID":292534,"DIS_CODE":0,"TOWNNAME":"永康區","LI":"網寮里","LIN":"4鄰","STREET":"永二街","SECT":" ","MAREA":" ","LANE":" ","ALLEY":" ","HOUSE_NO":"１５０號","E_COORD97":173436.29000000001,"N_COORD97":2546385.5,"ADDRESS":"永二街１５０號","OBJECTID":292526},"geometry":{"x":173436.29000000097,"y":2546385.5000000019}},{"attributes":{"ID":292535,"DIS_CODE":0,"TOWNNAME":"永康區","LI":"蔦松里","LIN":"5鄰","STREET":"蔦松一街","SECT":" ","MAREA":" ","LANE":" ","ALLEY":" ","HOUSE_NO":"７５號","E_COORD97":173819.79000000001,"N_COORD97":2549476.2400000002,"ADDRESS":"蔦松一街７５號","OBJECTID":292527},"geometry":{"x":173819.79000000097,"y":2549476.2400000021}},{"attributes":{"ID":292536,"DIS_CODE":0,"TOWNNAME":"永康區","LI":"網寮里","LIN":"18鄰","STREET":"永二街","SECT":" ","MAREA":" ","LANE":" ","ALLEY":" ","HOUSE_NO":"２１３號","E_COORD97":173405.16,"N_COORD97":2546289.0499999998,"ADDRESS":"永二街２１３號","OBJECTID":292528},"geometry":{"x":173405.16000000108,"y":2546289.0500000007}},{"attributes":{"ID":292537,"DIS_CODE":0,"TOWNNAME":"永康區","LI":"龍潭里","LIN":"25鄰","STREET":"龍昌街","SECT":" ","MAREA":" ","LANE":" ","ALLEY":" ","HOUSE_NO":"５８號","E_COORD97":175014.57999999999,"N_COORD97":2547888.5699999998,"ADDRESS":"龍昌街５８號","OBJECTID":292529},"geometry":{"x":175014.58000000101,"y":2547888.5700000003}},{"attributes":{"ID":292538,"DIS_CODE":0,"TOWNNAME":"永康區","LI":"網寮里","LIN":"4鄰","STREET":"永二街","SECT":" ","MAREA":" ","LANE":" ","ALLEY":" ","HOUSE_NO":"１２４號","E_COORD97":173482.5,"N_COORD97":2546434.3599999999,"ADDRESS":"永二街１２４號","OBJECTID":292530},"geometry":{"x":173482.50000000093,"y":2546434.3599999994}},{"attributes":{"ID":292539,"DIS_CODE":0,"TOWNNAME":"安定區","LI":"大同里","LIN":"14鄰","STREET":" ","SECT":" ","MAREA":"牛肉寮","LANE":" ","ALLEY":" ","HOUSE_NO":"２９號","E_COORD97":170832.62,"N_COORD97":2552546.25,"ADDRESS":"牛肉寮２９號","OBJECTID":292531},"geometry":{"x":170832.62000000011,"y":2552546.2500000019}},{"attributes":{"ID":292540,"DIS_CODE":0,"TOWNNAME":"安南區","LI":"安西里","LIN":"8鄰","STREET":"安中路","SECT":"一段","MAREA":" ","LANE":"２９巷","ALLEY":" ","HOUSE_NO":"４８號","E_COORD97":169081.32041099999,"N_COORD97":2548198.5152699999,"ADDRESS":"安中路一段２９巷４８號","OBJECTID":292532},"geometry":{"x":169081.3204110004,"y":2548198.5152720008}},{"attributes":{"ID":292541,"DIS_CODE":0,"TOWNNAME":"安南區","LI":"安西里","LIN":"8鄰","STREET":"安中路","SECT":"一段","MAREA":" ","LANE":"２９巷","ALLEY":" ","HOUSE_NO":"５０號","E_COORD97":169076.23300400001,"N_COORD97":2548196.6102700001,"ADDRESS":"安中路一段２９巷５０號","OBJECTID":292533},"geometry":{"x":169076.2330040019,"y":2548196.6102729999}},{"attributes":{"ID":292542,"DIS_CODE":0,"TOWNNAME":"安南區","LI":"安西里","LIN":"6鄰","STREET":"安和路","SECT":"一段","MAREA":" ","LANE":"２８５巷","ALLEY":" ","HOUSE_NO":"８６號之１０","E_COORD97":169080.10999999999,"N_COORD97":2548057.9300000002,"ADDRESS":"安和路一段２８５巷８６號之１０","OBJECTID":292534},"geometry":{"x":169080.11000000034,"y":2548057.9299999997}},{"attributes":{"ID":292543,"DIS_CODE":0,"TOWNNAME":"安南區","LI":"海東里","LIN":"9鄰","STREET":"海佃路","SECT":"二段","MAREA":" ","LANE":"４８３巷","ALLEY":" ","HOUSE_NO":"２號","E_COORD97":166676.14999999999,"N_COORD97":2549169,"ADDRESS":"海佃路二段４８３巷２號","OBJECTID":292535},"geometry":{"x":166676.15000000037,"y":2549169.0000000019}},{"attributes":{"ID":292544,"DIS_CODE":0,"TOWNNAME":"安南區","LI":"安西里","LIN":"9鄰","STREET":"安和路","SECT":"一段","MAREA":" ","LANE":"２８５巷","ALLEY":" ","HOUSE_NO":"１０號","E_COORD97":169245.10999999999,"N_COORD97":2548080.6000000001,"ADDRESS":"安和路一段２８５巷１０號","OBJECTID":292536},"geometry":{"x":169245.11000000034,"y":2548080.5999999996}},{"attributes":{"ID":292545,"DIS_CODE":0,"TOWNNAME":"安南區","LI":"安西里","LIN":"9鄰","STREET":"安和路","SECT":"一段","MAREA":" ","LANE":"２８５巷","ALLEY":" ","HOUSE_NO":"６號","E_COORD97":169253.79999999999,"N_COORD97":2548081.0499999998,"ADDRESS":"安和路一段２８５巷６號","OBJECTID":292537},"geometry":{"x":169253.80000000075,"y":2548081.0500000026}},{"attributes":{"ID":292546,"DIS_CODE":0,"TOWNNAME":"安南區","LI":"城西里","LIN":"4鄰","STREET":"城西街","SECT":"三段","MAREA":" ","LANE":"１０５２巷","ALLEY":" ","HOUSE_NO":"３０號之６６","E_COORD97":155828.09,"N_COORD97":2551104.4700000002,"ADDRESS":"城西街三段１０５２巷３０號之６６","OBJECTID":292538},"geometry":{"x":155828.09000000078,"y":2551104.4700000044}},{"attributes":{"ID":292547,"DIS_CODE":0,"TOWNNAME":"安南區","LI":"海東里","LIN":"8鄰","STREET":"海佃路","SECT":"二段","MAREA":" ","LANE":"５０９巷","ALLEY":" ","HOUSE_NO":"６５號","E_COORD97":166506.60999999999,"N_COORD97":2549110.1200000001,"ADDRESS":"海佃路二段５０９巷６５號","OBJECTID":292539},"geometry":{"x":166506.61000000127,"y":2549110.1200000048}},{"attributes":{"ID":292548,"DIS_CODE":0,"TOWNNAME":"安南區","LI":"溪心里","LIN":"8鄰","STREET":"海佃路","SECT":"二段","MAREA":" ","LANE":"７６６巷","ALLEY":" ","HOUSE_NO":"１號","E_COORD97":166503.03,"N_COORD97":2549602.79,"ADDRESS":"海佃路二段７６６巷１號","OBJECTID":292540},"geometry":{"x":166503.03000000212,"y":2549602.790000001}},{"attributes":{"ID":292549,"DIS_CODE":0,"TOWNNAME":"安南區","LI":"城西里","LIN":"4鄰","STREET":"城西街","SECT":"三段","MAREA":" ","LANE":"７６６巷","ALLEY":" ","HOUSE_NO":"１２號之５０","E_COORD97":156526.32000000001,"N_COORD97":2550891.0299999998,"ADDRESS":"城西街三段７６６巷１２號之５０","OBJECTID":292541},"geometry":{"x":156526.3200000003,"y":2550891.0299999993}},{"attributes":{"ID":292550,"DIS_CODE":0,"TOWNNAME":"安南區","LI":"安東里","LIN":"4鄰","STREET":"安和路","SECT":"一段","MAREA":" ","LANE":"２８８巷","ALLEY":" ","HOUSE_NO":"１４７號","E_COORD97":169704.28,"N_COORD97":2548248.7799999998,"ADDRESS":"安和路一段２８８巷１４７號","OBJECTID":292542},"geometry":{"x":169704.28000000119,"y":2548248.7799999993}},{"attributes":{"ID":292551,"DIS_CODE":0,"TOWNNAME":"安南區","LI":"海東里","LIN":"4鄰","STREET":"海中街","SECT":" ","MAREA":" ","LANE":"１３０巷","ALLEY":" ","HOUSE_NO":"５號之４","E_COORD97":166379.13,"N_COORD97":2549135.3399999999,"ADDRESS":"海中街１３０巷５號之４","OBJECTID":292543},"geometry":{"x":166379.12999999989,"y":2549135.3400000017}},{"attributes":{"ID":292552,"DIS_CODE":0,"TOWNNAME":"南區","LI":"金華里","LIN":"19鄰","STREET":"惠南街","SECT":" ","MAREA":" ","LANE":" ","ALLEY":" ","HOUSE_NO":"１０２號","E_COORD97":166754.06,"N_COORD97":2542342.6200000001,"ADDRESS":"惠南街１０２號","OBJECTID":292544},"geometry":{"x":166754.05999999959,"y":2542342.620000001}},{"attributes":{"ID":292553,"DIS_CODE":0,"TOWNNAME":"南區","LI":"金華里","LIN":"19鄰","STREET":"惠南街","SECT":" ","MAREA":" ","LANE":" ","ALLEY":" ","HOUSE_NO":"１０４號","E_COORD97":166752.94,"N_COORD97":2542346.79,"ADDRESS":"惠南街１０４號","OBJECTID":292545},"geometry":{"x":166752.94000000227,"y":2542346.790000001}},{"attributes":{"ID":292554,"DIS_CODE":0,"TOWNNAME":"南區","LI":"新昌里","LIN":"8鄰","STREET":"五妃街","SECT":" ","MAREA":" ","LANE":" ","ALLEY":" ","HOUSE_NO":"４１２號七樓","E_COORD97":167526.17999999999,"N_COORD97":2542602.9300000002,"ADDRESS":"五妃街４１２號七樓","OBJECTID":292546},"geometry":{"x":167526.1799999997,"y":2542602.9299999997}},{"attributes":{"ID":292555,"DIS_CODE":0,"TOWNNAME":"南區","LI":"新昌里","LIN":"8鄰","STREET":"五妃街","SECT":" ","MAREA":" ","LANE":" ","ALLEY":" ","HOUSE_NO":"４１２號二樓","E_COORD97":167526.17999999999,"N_COORD97":2542602.9300000002,"ADDRESS":"五妃街４１２號二樓","OBJECTID":292547},"geometry":{"x":167526.1799999997,"y":2542602.9299999997}},{"attributes":{"ID":292556,"DIS_CODE":0,"TOWNNAME":"南區","LI":"新昌里","LIN":"8鄰","STREET":"五妃街","SECT":" ","MAREA":" ","LANE":" ","ALLEY":" ","HOUSE_NO":"４１２號三樓","E_COORD97":167526.17999999999,"N_COORD97":2542602.9300000002,"ADDRESS":"五妃街４１２號三樓","OBJECTID":292548},"geometry":{"x":167526.1799999997,"y":2542602.9299999997}},{"attributes":{"ID":292557,"DIS_CODE":0,"TOWNNAME":"南區","LI":"新昌里","LIN":"8鄰","STREET":"五妃街","SECT":" ","MAREA":" ","LANE":" ","ALLEY":" ","HOUSE_NO":"４１２號五樓","E_COORD97":167526.17999999999,"N_COORD97":2542602.9300000002,"ADDRESS":"五妃街４１２號五樓","OBJECTID":292549},"geometry":{"x":167526.1799999997,"y":2542602.9299999997}},{"attributes":{"ID":292558,"DIS_CODE":0,"TOWNNAME":"南區","LI":"新昌里","LIN":"8鄰","STREET":"五妃街","SECT":" ","MAREA":" ","LANE":" ","ALLEY":" ","HOUSE_NO":"４１２號六樓","E_COORD97":167526.17999999999,"N_COORD97":2542602.9300000002,"ADDRESS":"五妃街４１２號六樓","OBJECTID":292550},"geometry":{"x":167526.1799999997,"y":2542602.9299999997}},{"attributes":{"ID":292559,"DIS_CODE":0,"TOWNNAME":"南區","LI":"新昌里","LIN":"8鄰","STREET":"五妃街","SECT":" ","MAREA":" ","LANE":" ","ALLEY":" ","HOUSE_NO":"４１２號四樓","E_COORD97":167526.17999999999,"N_COORD97":2542602.9300000002,"ADDRESS":"五妃街４１２號四樓","OBJECTID":292551},"geometry":{"x":167526.1799999997,"y":2542602.9299999997}},{"attributes":{"ID":292560,"DIS_CODE":0,"TOWNNAME":"東區","LI":"崇文里","LIN":"8鄰","STREET":"崇善路","SECT":" ","MAREA":" ","LANE":" ","ALLEY":" ","HOUSE_NO":"６３２號","E_COORD97":171133.66,"N_COORD97":2541056.2000000002,"ADDRESS":"崇善路６３２號","OBJECTID":292552},"geometry":{"x":171133.66000000108,"y":2541056.2000000011}},{"attributes":{"ID":292561,"DIS_CODE":0,"TOWNNAME":"安平區","LI":"育平里","LIN":"8鄰","STREET":"育平五街","SECT":" ","MAREA":" ","LANE":" ","ALLEY":" ","HOUSE_NO":"７０號七樓之４","E_COORD97":164650.70000000001,"N_COORD97":2543539.8100000001,"ADDRESS":"育平五街７０號七樓之４","OBJECTID":292553},"geometry":{"x":164650.70000000112,"y":2543539.8100000005}},{"attributes":{"ID":292562,"DIS_CODE":0,"TOWNNAME":"安平區","LI":"育平里","LIN":"8鄰","STREET":"育平五街","SECT":" ","MAREA":" ","LANE":" ","ALLEY":" ","HOUSE_NO":"７０號九樓之４","E_COORD97":164650.70000000001,"N_COORD97":2543539.8100000001,"ADDRESS":"育平五街７０號九樓之４","OBJECTID":292554},"geometry":{"x":164650.70000000112,"y":2543539.8100000005}},{"attributes":{"ID":292563,"DIS_CODE":0,"TOWNNAME":"安平區","LI":"育平里","LIN":"8鄰","STREET":"育平五街","SECT":" ","MAREA":" ","LANE":" ","ALLEY":" ","HOUSE_NO":"７０號九樓之５","E_COORD97":164650.70000000001,"N_COORD97":2543539.8100000001,"ADDRESS":"育平五街７０號九樓之５","OBJECTID":292555},"geometry":{"x":164650.70000000112,"y":2543539.8100000005}},{"attributes":{"ID":292564,"DIS_CODE":0,"TOWNNAME":"安平區","LI":"育平里","LIN":"8鄰","STREET":"育平五街","SECT":" ","MAREA":" ","LANE":" ","ALLEY":" ","HOUSE_NO":"７０號九樓之６","E_COORD97":164650.70000000001,"N_COORD97":2543539.8100000001,"ADDRESS":"育平五街７０號九樓之６","OBJECTID":292556},"geometry":{"x":164650.70000000112,"y":2543539.8100000005}},{"attributes":{"ID":292565,"DIS_CODE":0,"TOWNNAME":"安平區","LI":"育平里","LIN":"8鄰","STREET":"育平五街","SECT":" ","MAREA":" ","LANE":" ","ALLEY":" ","HOUSE_NO":"７０號二十一樓之４","E_COORD97":164650.70000000001,"N_COORD97":2543539.8100000001,"ADDRESS":"育平五街７０號二十一樓之４","OBJECTID":292557},"geometry":{"x":164650.70000000112,"y":2543539.8100000005}},{"attributes":{"ID":292566,"DIS_CODE":0,"TOWNNAME":"安南區","LI":"四草里","LIN":"4鄰","STREET":"大眾路","SECT":" ","MAREA":" ","LANE":" ","ALLEY":" ","HOUSE_NO":"６２３號","E_COORD97":160713.94,"N_COORD97":2546438.5499999998,"ADDRESS":"大眾路６２３號","OBJECTID":292558},"geometry":{"x":160713.94000000041,"y":2546438.5500000045}},{"attributes":{"ID":292567,"DIS_CODE":0,"TOWNNAME":"安南區","LI":"東和里","LIN":"7鄰","STREET":"長和路","SECT":"一段","MAREA":" ","LANE":" ","ALLEY":" ","HOUSE_NO":"９５號","E_COORD97":171763.22,"N_COORD97":2550467.23,"ADDRESS":"長和路一段９５號","OBJECTID":292559},"geometry":{"x":171763.22000000067,"y":2550467.2300000004}},{"attributes":{"ID":292568,"DIS_CODE":0,"TOWNNAME":"安南區","LI":"\u25A0南里","LIN":"4鄰","STREET":"環福街","SECT":" ","MAREA":" ","LANE":"３５巷","ALLEY":" ","HOUSE_NO":"１２號","E_COORD97":170213.98000000001,"N_COORD97":2552490.48,"ADDRESS":"環福街３５巷１２號","OBJECTID":292560},"geometry":{"x":170213.98000000045,"y":2552490.4799999986}},{"attributes":{"ID":292569,"DIS_CODE":0,"TOWNNAME":"安南區","LI":"\u25A0南里","LIN":"4鄰","STREET":"環福街","SECT":" ","MAREA":" ","LANE":"３５巷","ALLEY":" ","HOUSE_NO":"８號","E_COORD97":170213.64000000001,"N_COORD97":2552482.4500000002,"ADDRESS":"環福街３５巷８號","OBJECTID":292561},"geometry":{"x":170213.63999999966,"y":2552482.4499999993}},{"attributes":{"ID":292570,"DIS_CODE":0,"TOWNNAME":"安南區","LI":"\u25A0南里","LIN":"4鄰","STREET":"環福街","SECT":" ","MAREA":" ","LANE":"３５巷","ALLEY":" ","HOUSE_NO":"１０號","E_COORD97":170213.81,"N_COORD97":2552486.04,"ADDRESS":"環福街３５巷１０號","OBJECTID":292562},"geometry":{"x":170213.80999999959,"y":2552486.040000001}},{"attributes":{"ID":292571,"DIS_CODE":0,"TOWNNAME":"北區","LI":"永祥里","LIN":"17鄰","STREET":"大武街","SECT":" ","MAREA":" ","LANE":"５４２巷","ALLEY":" ","HOUSE_NO":"１８號","E_COORD97":170208.38,"N_COORD97":2546356.9900000002,"ADDRESS":"大武街５４２巷１８號","OBJECTID":292563},"geometry":{"x":170208.38000000082,"y":2546356.9899999984}},{"attributes":{"ID":292572,"DIS_CODE":0,"TOWNNAME":"北區","LI":"永祥里","LIN":"17鄰","STREET":"大武街","SECT":" ","MAREA":" ","LANE":"５４２巷","ALLEY":" ","HOUSE_NO":"２０號","E_COORD97":170208.01000000001,"N_COORD97":2546353.04,"ADDRESS":"大武街５４２巷２０號","OBJECTID":292564},"geometry":{"x":170208.00999999978,"y":2546353.040000001}},{"attributes":{"ID":292573,"DIS_CODE":0,"TOWNNAME":"北區","LI":"永祥里","LIN":"17鄰","STREET":"大武街","SECT":" ","MAREA":" ","LANE":"５４２巷","ALLEY":" ","HOUSE_NO":"２２號","E_COORD97":170208.23000000001,"N_COORD97":2546343.2000000002,"ADDRESS":"大武街５４２巷２２號","OBJECTID":292565},"geometry":{"x":170208.23000000138,"y":2546343.1999999993}},{"attributes":{"ID":292574,"DIS_CODE":0,"TOWNNAME":"北區","LI":"永祥里","LIN":"17鄰","STREET":"大武街","SECT":" ","MAREA":" ","LANE":"５４２巷","ALLEY":" ","HOUSE_NO":"２６號","E_COORD97":170208.53,"N_COORD97":2546334.02,"ADDRESS":"大武街５４２巷２６號","OBJECTID":292566},"geometry":{"x":170208.52999999933,"y":2546334.0200000014}},{"attributes":{"ID":292575,"DIS_CODE":0,"TOWNNAME":"北區","LI":"永祥里","LIN":"17鄰","STREET":"大武街","SECT":" ","MAREA":" ","LANE":"５４２巷","ALLEY":" ","HOUSE_NO":"２８號","E_COORD97":170208.45999999999,"N_COORD97":2546330.29,"ADDRESS":"大武街５４２巷２８號","OBJECTID":292567},"geometry":{"x":170208.45999999996,"y":2546330.2900000028}},{"attributes":{"ID":292576,"DIS_CODE":0,"TOWNNAME":"北區","LI":"永祥里","LIN":"17鄰","STREET":"大武街","SECT":" ","MAREA":" ","LANE":"５４２巷","ALLEY":" ","HOUSE_NO":"２號","E_COORD97":170209.95999999999,"N_COORD97":2546397.2999999998,"ADDRESS":"大武街５４２巷２號","OBJECTID":292568},"geometry":{"x":170209.95999999996,"y":2546397.3000000026}},{"attributes":{"ID":292577,"DIS_CODE":0,"TOWNNAME":"安平區","LI":"育平里","LIN":"8鄰","STREET":"育平五街","SECT":" ","MAREA":" ","LANE":" ","ALLEY":" ","HOUSE_NO":"７０號二十一樓之５","E_COORD97":164650.70000000001,"N_COORD97":2543539.8100000001,"ADDRESS":"育平五街７０號二十一樓之５","OBJECTID":292569},"geometry":{"x":164650.70000000112,"y":2543539.8100000005}},{"attributes":{"ID":292578,"DIS_CODE":0,"TOWNNAME":"安平區","LI":"育平里","LIN":"8鄰","STREET":"育平五街","SECT":" ","MAREA":" ","LANE":" ","ALLEY":" ","HOUSE_NO":"７０號二十一樓之６","E_COORD97":164650.70000000001,"N_COORD97":2543539.8100000001,"ADDRESS":"育平五街７０號二十一樓之６","OBJECTID":292570},"geometry":{"x":164650.70000000112,"y":2543539.8100000005}},{"attributes":{"ID":292579,"DIS_CODE":0,"TOWNNAME":"安平區","LI":"育平里","LIN":"8鄰","STREET":"育平五街","SECT":" ","MAREA":" ","LANE":" ","ALLEY":" ","HOUSE_NO":"７０號二十七樓之４","E_COORD97":164650.70000000001,"N_COORD97":2543539.8100000001,"ADDRESS":"育平五街７０號二十七樓之４","OBJECTID":292571},"geometry":{"x":164650.70000000112,"y":2543539.8100000005}},{"attributes":{"ID":292580,"DIS_CODE":0,"TOWNNAME":"安平區","LI":"育平里","LIN":"8鄰","STREET":"育平五街","SECT":" ","MAREA":" ","LANE":" ","ALLEY":" ","HOUSE_NO":"７０號二十七樓之５","E_COORD97":164650.70000000001,"N_COORD97":2543539.8100000001,"ADDRESS":"育平五街７０號二十七樓之５","OBJECTID":292572},"geometry":{"x":164650.70000000112,"y":2543539.8100000005}},{"attributes":{"ID":292581,"DIS_CODE":0,"TOWNNAME":"安南區","LI":"安東里","LIN":"8鄰","STREET":"安和路","SECT":"一段","MAREA":" ","LANE":" ","ALLEY":" ","HOUSE_NO":"２６０號","E_COORD97":169319,"N_COORD97":2548001.5899999999,"ADDRESS":"安和路一段２６０號","OBJECTID":292573},"geometry":{"x":169319.00000000093,"y":2548001.5900000017}},{"attributes":{"ID":292582,"DIS_CODE":0,"TOWNNAME":"東區","LI":"崇德里","LIN":"17鄰","STREET":"崇明十三街","SECT":" ","MAREA":" ","LANE":"１０巷","ALLEY":" ","HOUSE_NO":"４８號之３","E_COORD97":170568.01999999999,"N_COORD97":2541603.3399999999,"ADDRESS":"崇明十三街１０巷４８號之３","OBJECTID":292574},"geometry":{"x":170568.02000000048,"y":2541603.3399999999}},{"attributes":{"ID":292583,"DIS_CODE":0,"TOWNNAME":"東區","LI":"崇德里","LIN":"17鄰","STREET":"崇明十三街","SECT":" ","MAREA":" ","LANE":"１０巷","ALLEY":" ","HOUSE_NO":"４８號之４","E_COORD97":170576.73999999999,"N_COORD97":2541616.5800000001,"ADDRESS":"崇明十三街１０巷４８號之４","OBJECTID":292575},"geometry":{"x":170576.74000000209,"y":2541616.5800000038}},{"attributes":{"ID":292584,"DIS_CODE":0,"TOWNNAME":"北區","LI":"永祥里","LIN":"17鄰","STREET":"大武街","SECT":" ","MAREA":" ","LANE":"５４２巷","ALLEY":" ","HOUSE_NO":"３０號","E_COORD97":170208.45999999999,"N_COORD97":2546326.4100000001,"ADDRESS":"大武街５４２巷３０號","OBJECTID":292576},"geometry":{"x":170208.45999999996,"y":2546326.4100000001}},{"attributes":{"ID":292585,"DIS_CODE":0,"TOWNNAME":"北區","LI":"永祥里","LIN":"17鄰","STREET":"大武街","SECT":" ","MAREA":" ","LANE":"５４２巷","ALLEY":" ","HOUSE_NO":"３２號","E_COORD97":170208.23000000001,"N_COORD97":2546322.5299999998,"ADDRESS":"大武街５４２巷３２號","OBJECTID":292577},"geometry":{"x":170208.23000000138,"y":2546322.5300000012}},{"attributes":{"ID":292586,"DIS_CODE":0,"TOWNNAME":"北區","LI":"永祥里","LIN":"17鄰","STREET":"大武街","SECT":" ","MAREA":" ","LANE":"５４２巷","ALLEY":" ","HOUSE_NO":"３４號","E_COORD97":170208.07999999999,"N_COORD97":2546318.0499999998,"ADDRESS":"大武街５４２巷３４號","OBJECTID":292578},"geometry":{"x":170208.08000000194,"y":2546318.0500000026}},{"attributes":{"ID":292587,"DIS_CODE":0,"TOWNNAME":"北區","LI":"永祥里","LIN":"17鄰","STREET":"大武街","SECT":" ","MAREA":" ","LANE":"５４２巷","ALLEY":" ","HOUSE_NO":"３６號","E_COORD97":170208.23000000001,"N_COORD97":2546308.0899999999,"ADDRESS":"大武街５４２巷３６號","OBJECTID":292579},"geometry":{"x":170208.23000000138,"y":2546308.0899999999}},{"attributes":{"ID":292588,"DIS_CODE":0,"TOWNNAME":"北區","LI":"永祥里","LIN":"17鄰","STREET":"大武街","SECT":" ","MAREA":" ","LANE":"５４２巷","ALLEY":" ","HOUSE_NO":"３８號","E_COORD97":170209.20000000001,"N_COORD97":2546302.8599999999,"ADDRESS":"大武街５４２巷３８號","OBJECTID":292580},"geometry":{"x":170209.20000000205,"y":2546302.8600000031}},{"attributes":{"ID":292589,"DIS_CODE":0,"TOWNNAME":"北區","LI":"永祥里","LIN":"17鄰","STREET":"大武街","SECT":" ","MAREA":" ","LANE":"５４２巷","ALLEY":" ","HOUSE_NO":"４０號","E_COORD97":170209.42999999999,"N_COORD97":2546298.23,"ADDRESS":"大武街５４２巷４０號","OBJECTID":292581},"geometry":{"x":170209.43000000063,"y":2546298.2300000042}},{"attributes":{"ID":292590,"DIS_CODE":0,"TOWNNAME":"北區","LI":"永祥里","LIN":"17鄰","STREET":"大武街","SECT":" ","MAREA":" ","LANE":"５４２巷","ALLEY":" ","HOUSE_NO":"４號","E_COORD97":170209.88,"N_COORD97":2546393.1200000001,"ADDRESS":"大武街５４２巷４號","OBJECTID":292582},"geometry":{"x":170209.88000000082,"y":2546393.120000001}},{"attributes":{"ID":292591,"DIS_CODE":0,"TOWNNAME":"北區","LI":"永祥里","LIN":"17鄰","STREET":"大武街","SECT":" ","MAREA":" ","LANE":"５４２巷","ALLEY":" ","HOUSE_NO":"６號","E_COORD97":170209.35999999999,"N_COORD97":2546388.2599999998,"ADDRESS":"大武街５４２巷６號","OBJECTID":292583},"geometry":{"x":170209.36000000034,"y":2546388.2599999998}},{"attributes":{"ID":292592,"DIS_CODE":0,"TOWNNAME":"北區","LI":"永祥里","LIN":"17鄰","STREET":"大武街","SECT":" ","MAREA":" ","LANE":"５４２巷","ALLEY":" ","HOUSE_NO":"８號","E_COORD97":170208.53,"N_COORD97":2546378.1499999999,"ADDRESS":"大武街５４２巷８號","OBJECTID":292584},"geometry":{"x":170208.52999999933,"y":2546378.1500000022}},{"attributes":{"ID":292593,"DIS_CODE":0,"TOWNNAME":"安平區","LI":"國平里","LIN":"17鄰","STREET":"華平路","SECT":" ","MAREA":" ","LANE":"２１巷","ALLEY":" ","HOUSE_NO":"２７號","E_COORD97":165233.29000000001,"N_COORD97":2542788.1600000001,"ADDRESS":"華平路２１巷２７號","OBJECTID":292585},"geometry":{"x":165233.29000000097,"y":2542788.1600000001}},{"attributes":{"ID":292594,"DIS_CODE":0,"TOWNNAME":"安平區","LI":"億載里","LIN":"17鄰","STREET":"平豐路","SECT":" ","MAREA":" ","LANE":"４３巷","ALLEY":" ","HOUSE_NO":"２０號","E_COORD97":164269.10000000001,"N_COORD97":2543004.5,"ADDRESS":"平豐路４３巷２０號","OBJECTID":292586},"geometry":{"x":164269.0999999987,"y":2543004.5000000019}},{"attributes":{"ID":292595,"DIS_CODE":0,"TOWNNAME":"安平區","LI":"億載里","LIN":"17鄰","STREET":"平豐路","SECT":" ","MAREA":" ","LANE":"４３巷","ALLEY":" ","HOUSE_NO":"２２號之２","E_COORD97":164253.82000000001,"N_COORD97":2543003.7400000002,"ADDRESS":"平豐路４３巷２２號之２","OBJECTID":292587},"geometry":{"x":164253.82000000123,"y":2543003.7400000021}},{"attributes":{"ID":292596,"DIS_CODE":0,"TOWNNAME":"安平區","LI":"育平里","LIN":"8鄰","STREET":"育平五街","SECT":" ","MAREA":" ","LANE":" ","ALLEY":" ","HOUSE_NO":"７０號二十七樓之６","E_COORD97":164650.70000000001,"N_COORD97":2543539.8100000001,"ADDRESS":"育平五街７０號二十七樓之６","OBJECTID":292588},"geometry":{"x":164650.70000000112,"y":2543539.8100000005}},{"attributes":{"ID":292597,"DIS_CODE":0,"TOWNNAME":"安平區","LI":"育平里","LIN":"8鄰","STREET":"育平五街","SECT":" ","MAREA":" ","LANE":" ","ALLEY":" ","HOUSE_NO":"７０號二十二樓之４","E_COORD97":164650.70000000001,"N_COORD97":2543539.8100000001,"ADDRESS":"育平五街７０號二十二樓之４","OBJECTID":292589},"geometry":{"x":164650.70000000112,"y":2543539.8100000005}},{"attributes":{"ID":292598,"DIS_CODE":0,"TOWNNAME":"新營區","LI":"王公里","LIN":"14鄰","STREET":"中正路","SECT":" ","MAREA":" ","LANE":" ","ALLEY":" ","HOUSE_NO":"８６號","E_COORD97":180114.79957800001,"N_COORD97":2579284.9427899998,"ADDRESS":"中正路８６號","OBJECTID":292590},"geometry":{"x":180114.79957800079,"y":2579284.942788003}},{"attributes":{"ID":292599,"DIS_CODE":0,"TOWNNAME":"東區","LI":"崇德里","LIN":"19鄰","STREET":"崇明十三街","SECT":" ","MAREA":" ","LANE":"１１巷","ALLEY":" ","HOUSE_NO":"８７號","E_COORD97":170540.48000000001,"N_COORD97":2541756.4500000002,"ADDRESS":"崇明十三街１１巷８７號","OBJECTID":292591},"geometry":{"x":170540.48000000138,"y":2541756.4500000011}},{"attributes":{"ID":292600,"DIS_CODE":0,"TOWNNAME":"東區","LI":"崇德里","LIN":"19鄰","STREET":"崇明十三街","SECT":" ","MAREA":" ","LANE":"１１巷","ALLEY":" ","HOUSE_NO":"８９號","E_COORD97":170544.01999999999,"N_COORD97":2541754.1499999999,"ADDRESS":"崇明十三街１１巷８９號","OBJECTID":292592},"geometry":{"x":170544.02000000048,"y":2541754.1500000004}},{"attributes":{"ID":292601,"DIS_CODE":0,"TOWNNAME":"東區","LI":"崇德里","LIN":"19鄰","STREET":"崇明十三街","SECT":" ","MAREA":" ","LANE":"１１巷","ALLEY":" ","HOUSE_NO":"９１號","E_COORD97":170547.04000000001,"N_COORD97":2541751.5,"ADDRESS":"崇明十三街１１巷９１號","OBJECTID":292593},"geometry":{"x":170547.04000000004,"y":2541751.5}},{"attributes":{"ID":292602,"DIS_CODE":0,"TOWNNAME":"東區","LI":"崇德里","LIN":"19鄰","STREET":"崇明十三街","SECT":" ","MAREA":" ","LANE":"１１巷","ALLEY":" ","HOUSE_NO":"９３號","E_COORD97":170551.10999999999,"N_COORD97":2541747.96,"ADDRESS":"崇明十三街１１巷９３號","OBJECTID":292594},"geometry":{"x":170551.11000000127,"y":2541747.9600000028}},{"attributes":{"ID":292603,"DIS_CODE":0,"TOWNNAME":"東區","LI":"崇德里","LIN":"19鄰","STREET":"崇明十三街","SECT":" ","MAREA":" ","LANE":"１１巷","ALLEY":" ","HOUSE_NO":"９９號","E_COORD97":170562.62,"N_COORD97":2541741.23,"ADDRESS":"崇明十三街１１巷９９號","OBJECTID":292595},"geometry":{"x":170562.62000000104,"y":2541741.2299999986}},{"attributes":{"ID":292604,"DIS_CODE":0,"TOWNNAME":"東區","LI":"新東里","LIN":"23鄰","STREET":"裕豐街","SECT":" ","MAREA":" ","LANE":"９９巷","ALLEY":" ","HOUSE_NO":"６號","E_COORD97":170729.20000000001,"N_COORD97":2542979.6699999999,"ADDRESS":"裕豐街９９巷６號","OBJECTID":292596},"geometry":{"x":170729.20000000019,"y":2542979.6700000018}},{"attributes":{"ID":292605,"DIS_CODE":0,"TOWNNAME":"東區","LI":"新東里","LIN":"23鄰","STREET":"裕豐街","SECT":" ","MAREA":" ","LANE":"９９巷","ALLEY":" ","HOUSE_NO":"８號","E_COORD97":170724.39999999999,"N_COORD97":2542977.8399999999,"ADDRESS":"裕豐街９９巷８號","OBJECTID":292597},"geometry":{"x":170724.40000000037,"y":2542977.8400000017}},{"attributes":{"ID":292606,"DIS_CODE":0,"TOWNNAME":"東區","LI":"新東里","LIN":"23鄰","STREET":"裕豐街","SECT":" ","MAREA":" ","LANE":"９９巷","ALLEY":" ","HOUSE_NO":"１０號","E_COORD97":170719.94,"N_COORD97":2542976.1299999999,"ADDRESS":"裕豐街９９巷１０號","OBJECTID":292598},"geometry":{"x":170719.94000000134,"y":2542976.1300000008}},{"attributes":{"ID":292607,"DIS_CODE":0,"TOWNNAME":"東區","LI":"新東里","LIN":"23鄰","STREET":"裕豐街","SECT":" ","MAREA":" ","LANE":"９９巷","ALLEY":" ","HOUSE_NO":"１４號","E_COORD97":170711.03,"N_COORD97":2542973.0499999998,"ADDRESS":"裕豐街９９巷１４號","OBJECTID":292599},"geometry":{"x":170711.03000000119,"y":2542973.0500000007}},{"attributes":{"ID":292608,"DIS_CODE":0,"TOWNNAME":"安平區","LI":"億載里","LIN":"17鄰","STREET":"平豐路","SECT":" ","MAREA":" ","LANE":"４３巷","ALLEY":" ","HOUSE_NO":"２２號之３","E_COORD97":164249.04999999999,"N_COORD97":2543003.27,"ADDRESS":"平豐路４３巷２２號之３","OBJECTID":292600},"geometry":{"x":164249.04999999981,"y":2543003.2699999996}}]}