{"displayFieldName":"TOWNNAME","fieldAliases":{"ID":"ID","DIS_CODE":"DIS_CODE","TOWNNAME":"TOWNNAME","LI":"LI","LIN":"LIN","STREET":"STREET","SECT":"SECT","MAREA":"MAREA","LANE":"LANE","ALLEY":"ALLEY","HOUSE_NO":"HOUSE_NO","E_COORD97":"E_COORD97","N_COORD97":"N_COORD97","ADDRESS":"ADDRESS","OBJECTID":"OBJECTID"},"geometryType":"esriGeometryPoint","spatialReference":{"wkid":102443,"latestWkid":3826},"fields":[{"name":"ID","type":"esriFieldTypeDouble","alias":"ID"},{"name":"DIS_CODE","type":"esriFieldTypeInteger","alias":"DIS_CODE"},{"name":"TOWNNAME","type":"esriFieldTypeString","alias":"TOWNNAME","length":8},{"name":"LI","type":"esriFieldTypeString","alias":"LI","length":8},{"name":"LIN","type":"esriFieldTypeString","alias":"LIN","length":12},{"name":"STREET","type":"esriFieldTypeString","alias":"STREET","length":20},{"name":"SECT","type":"esriFieldTypeString","alias":"SECT","length":8},{"name":"MAREA","type":"esriFieldTypeString","alias":"MAREA","length":12},{"name":"LANE","type":"esriFieldTypeString","alias":"LANE","length":10},{"name":"ALLEY","type":"esriFieldTypeString","alias":"ALLEY","length":10},{"name":"HOUSE_NO","type":"esriFieldTypeString","alias":"HOUSE_NO","length":20},{"name":"E_COORD97","type":"esriFieldTypeDouble","alias":"E_COORD97"},{"name":"N_COORD97","type":"esriFieldTypeDouble","alias":"N_COORD97"},{"name":"ADDRESS","type":"esriFieldTypeString","alias":"ADDRESS","length":50},{"name":"OBJECTID","type":"esriFieldTypeOID","alias":"OBJECTID"}],"features":[{"attributes":{"ID":93801,"DIS_CODE":0,"TOWNNAME":"官田區","LI":"二鎮里","LIN":"10鄰","STREET":" ","SECT":" ","MAREA":"二鎮","LANE":" ","ALLEY":" ","HOUSE_NO":"８７號之１０２","E_COORD97":181705.94,"N_COORD97":2568413.9399999999,"ADDRESS":"二鎮８７號之１０２","OBJECTID":93801},"geometry":{"x":181705.94000000041,"y":2568413.9399999995}},{"attributes":{"ID":93802,"DIS_CODE":0,"TOWNNAME":"官田區","LI":"二鎮里","LIN":"10鄰","STREET":" ","SECT":" ","MAREA":"二鎮","LANE":" ","ALLEY":" ","HOUSE_NO":"８７號之１０３","E_COORD97":181706.10000000001,"N_COORD97":2568422.48,"ADDRESS":"二鎮８７號之１０３","OBJECTID":93802},"geometry":{"x":181706.10000000056,"y":2568422.4800000023}},{"attributes":{"ID":93803,"DIS_CODE":0,"TOWNNAME":"官田區","LI":"二鎮里","LIN":"10鄰","STREET":" ","SECT":" ","MAREA":"二鎮","LANE":" ","ALLEY":" ","HOUSE_NO":"８７號之１０４","E_COORD97":181707.20999999999,"N_COORD97":2568432.7400000002,"ADDRESS":"二鎮８７號之１０４","OBJECTID":93803},"geometry":{"x":181707.21000000183,"y":2568432.7400000002}},{"attributes":{"ID":93804,"DIS_CODE":0,"TOWNNAME":"安南區","LI":"長安里","LIN":"21鄰","STREET":"長溪路","SECT":"三段","MAREA":" ","LANE":"３８０巷","ALLEY":"１３９弄","HOUSE_NO":"１３號","E_COORD97":167962.79000000001,"N_COORD97":2552314.8500000001,"ADDRESS":"長溪路三段３８０巷１３９弄１３號","OBJECTID":93804},"geometry":{"x":167962.79000000097,"y":2552314.8500000015}},{"attributes":{"ID":93805,"DIS_CODE":0,"TOWNNAME":"安南區","LI":"長安里","LIN":"21鄰","STREET":"長溪路","SECT":"三段","MAREA":" ","LANE":"３８０巷","ALLEY":"１３９弄","HOUSE_NO":"１４號","E_COORD97":167987.79999999999,"N_COORD97":2552323.6400000001,"ADDRESS":"長溪路三段３８０巷１３９弄１４號","OBJECTID":93805},"geometry":{"x":167987.80000000075,"y":2552323.6400000043}},{"attributes":{"ID":93806,"DIS_CODE":0,"TOWNNAME":"安南區","LI":"長安里","LIN":"21鄰","STREET":"長溪路","SECT":"三段","MAREA":" ","LANE":"３８０巷","ALLEY":"１３９弄","HOUSE_NO":"１５號","E_COORD97":167958.72,"N_COORD97":2552320.1299999999,"ADDRESS":"長溪路三段３８０巷１３９弄１５號","OBJECTID":93806},"geometry":{"x":167958.71999999974,"y":2552320.1300000008}},{"attributes":{"ID":93807,"DIS_CODE":0,"TOWNNAME":"安南區","LI":"長安里","LIN":"21鄰","STREET":"長溪路","SECT":"三段","MAREA":" ","LANE":"３８０巷","ALLEY":"１３９弄","HOUSE_NO":"１６號","E_COORD97":167985.54999999999,"N_COORD97":2552327.7400000002,"ADDRESS":"長溪路三段３８０巷１３９弄１６號","OBJECTID":93807},"geometry":{"x":167985.55000000168,"y":2552327.7400000002}},{"attributes":{"ID":93808,"DIS_CODE":0,"TOWNNAME":"安南區","LI":"長安里","LIN":"21鄰","STREET":"長溪路","SECT":"三段","MAREA":" ","LANE":"３８０巷","ALLEY":"１３９弄","HOUSE_NO":"１８號","E_COORD97":167983.20000000001,"N_COORD97":2552331.3599999999,"ADDRESS":"長溪路三段３８０巷１３９弄１８號","OBJECTID":93808},"geometry":{"x":167983.19999999925,"y":2552331.3600000013}},{"attributes":{"ID":93809,"DIS_CODE":0,"TOWNNAME":"關廟區","LI":"香洋里","LIN":"15鄰","STREET":"香洋路","SECT":" ","MAREA":" ","LANE":" ","ALLEY":" ","HOUSE_NO":"６２號","E_COORD97":181399.79000000001,"N_COORD97":2540086.25,"ADDRESS":"香洋路６２號","OBJECTID":93809},"geometry":{"x":181399.79000000004,"y":2540086.2500000037}},{"attributes":{"ID":93810,"DIS_CODE":0,"TOWNNAME":"北區","LI":"成德里","LIN":"15鄰","STREET":"文成一路","SECT":" ","MAREA":" ","LANE":" ","ALLEY":" ","HOUSE_NO":"４５號","E_COORD97":168822.17999999999,"N_COORD97":2546010,"ADDRESS":"文成一路４５號","OBJECTID":93810},"geometry":{"x":168822.18000000063,"y":2546010}},{"attributes":{"ID":93811,"DIS_CODE":0,"TOWNNAME":"北區","LI":"成德里","LIN":"15鄰","STREET":"文成一路","SECT":" ","MAREA":" ","LANE":" ","ALLEY":" ","HOUSE_NO":"４７號","E_COORD97":168817.59,"N_COORD97":2546010.5899999999,"ADDRESS":"文成一路４７號","OBJECTID":93811},"geometry":{"x":168817.58999999892,"y":2546010.5900000017}},{"attributes":{"ID":93812,"DIS_CODE":0,"TOWNNAME":"北區","LI":"成德里","LIN":"15鄰","STREET":"文成一路","SECT":" ","MAREA":" ","LANE":" ","ALLEY":" ","HOUSE_NO":"４９號","E_COORD97":168813.60999999999,"N_COORD97":2546011.5899999999,"ADDRESS":"文成一路４９號","OBJECTID":93812},"geometry":{"x":168813.61000000127,"y":2546011.5900000017}},{"attributes":{"ID":93813,"DIS_CODE":0,"TOWNNAME":"安南區","LI":"長安里","LIN":"21鄰","STREET":"長溪路","SECT":"三段","MAREA":" ","LANE":"３８０巷","ALLEY":"１３９弄","HOUSE_NO":"１號","E_COORD97":167986.82000000001,"N_COORD97":2552278.4300000002,"ADDRESS":"長溪路三段３８０巷１３９弄１號","OBJECTID":93813},"geometry":{"x":167986.82000000123,"y":2552278.4299999997}},{"attributes":{"ID":93814,"DIS_CODE":0,"TOWNNAME":"安南區","LI":"長安里","LIN":"21鄰","STREET":"長溪路","SECT":"三段","MAREA":" ","LANE":"３８０巷","ALLEY":"１３９弄","HOUSE_NO":"２０號","E_COORD97":167981.35999999999,"N_COORD97":2552335.6699999999,"ADDRESS":"長溪路三段３８０巷１３９弄２０號","OBJECTID":93814},"geometry":{"x":167981.36000000127,"y":2552335.6699999999}},{"attributes":{"ID":93815,"DIS_CODE":0,"TOWNNAME":"安南區","LI":"長安里","LIN":"21鄰","STREET":"長溪路","SECT":"三段","MAREA":" ","LANE":"３８０巷","ALLEY":"１３９弄","HOUSE_NO":"２２號","E_COORD97":167979.20000000001,"N_COORD97":2552339.6099999999,"ADDRESS":"長溪路三段３８０巷１３９弄２２號","OBJECTID":93815},"geometry":{"x":167979.20000000019,"y":2552339.6100000031}},{"attributes":{"ID":93816,"DIS_CODE":0,"TOWNNAME":"安南區","LI":"長安里","LIN":"21鄰","STREET":"長溪路","SECT":"三段","MAREA":" ","LANE":"３８０巷","ALLEY":"１３９弄","HOUSE_NO":"２４號","E_COORD97":167976.76000000001,"N_COORD97":2552343.3700000001,"ADDRESS":"長溪路三段３８０巷１３９弄２４號","OBJECTID":93816},"geometry":{"x":167976.75999999978,"y":2552343.3700000029}},{"attributes":{"ID":93817,"DIS_CODE":0,"TOWNNAME":"安南區","LI":"長安里","LIN":"21鄰","STREET":"長溪路","SECT":"三段","MAREA":" ","LANE":"３８０巷","ALLEY":"１３９弄","HOUSE_NO":"２６號","E_COORD97":167974.88,"N_COORD97":2552347.5,"ADDRESS":"長溪路三段３８０巷１３９弄２６號","OBJECTID":93817},"geometry":{"x":167974.87999999896,"y":2552347.5000000037}},{"attributes":{"ID":93818,"DIS_CODE":0,"TOWNNAME":"左鎮區","LI":"中正里","LIN":"15鄰","STREET":" ","SECT":" ","MAREA":"中正","LANE":" ","ALLEY":" ","HOUSE_NO":"９９號","E_COORD97":189303.06,"N_COORD97":2550876.25,"ADDRESS":"中正９９號","OBJECTID":93818},"geometry":{"x":189303.06000000052,"y":2550876.25}},{"attributes":{"ID":93819,"DIS_CODE":0,"TOWNNAME":"安南區","LI":"長安里","LIN":"21鄰","STREET":"長溪路","SECT":"三段","MAREA":" ","LANE":"３８０巷","ALLEY":"１３９弄","HOUSE_NO":"２８號","E_COORD97":167972.54000000001,"N_COORD97":2552351.3599999999,"ADDRESS":"長溪路三段３８０巷１３９弄２８號","OBJECTID":93819},"geometry":{"x":167972.54000000097,"y":2552351.3600000031}},{"attributes":{"ID":93820,"DIS_CODE":0,"TOWNNAME":"安南區","LI":"長安里","LIN":"21鄰","STREET":"長溪路","SECT":"三段","MAREA":" ","LANE":"３８０巷","ALLEY":"１３９弄","HOUSE_NO":"２號","E_COORD97":168002.29000000001,"N_COORD97":2552301.25,"ADDRESS":"長溪路三段３８０巷１３９弄２號","OBJECTID":93820},"geometry":{"x":168002.29000000004,"y":2552301.25}},{"attributes":{"ID":93821,"DIS_CODE":0,"TOWNNAME":"安南區","LI":"長安里","LIN":"21鄰","STREET":"長溪路","SECT":"三段","MAREA":" ","LANE":"３８０巷","ALLEY":"１３９弄","HOUSE_NO":"３０號","E_COORD97":167970.35999999999,"N_COORD97":2552355.48,"ADDRESS":"長溪路三段３８０巷１３９弄３０號","OBJECTID":93821},"geometry":{"x":167970.36000000034,"y":2552355.4800000023}},{"attributes":{"ID":93822,"DIS_CODE":0,"TOWNNAME":"安南區","LI":"長安里","LIN":"21鄰","STREET":"長溪路","SECT":"三段","MAREA":" ","LANE":"３８０巷","ALLEY":"１３９弄","HOUSE_NO":"３２號","E_COORD97":167968.34,"N_COORD97":2552359.52,"ADDRESS":"長溪路三段３８０巷１３９弄３２號","OBJECTID":93822},"geometry":{"x":167968.33999999892,"y":2552359.5199999996}},{"attributes":{"ID":93823,"DIS_CODE":0,"TOWNNAME":"安南區","LI":"長安里","LIN":"21鄰","STREET":"長溪路","SECT":"三段","MAREA":" ","LANE":"３８０巷","ALLEY":"１３９弄","HOUSE_NO":"３４號","E_COORD97":167967.09,"N_COORD97":2552363.4100000001,"ADDRESS":"長溪路三段３８０巷１３９弄３４號","OBJECTID":93823},"geometry":{"x":167967.09000000078,"y":2552363.410000002}},{"attributes":{"ID":93824,"DIS_CODE":0,"TOWNNAME":"安南區","LI":"長安里","LIN":"21鄰","STREET":"長溪路","SECT":"三段","MAREA":" ","LANE":"３８０巷","ALLEY":"１３９弄","HOUSE_NO":"３６號","E_COORD97":167964.29999999999,"N_COORD97":2552368.0499999998,"ADDRESS":"長溪路三段３８０巷１３９弄３６號","OBJECTID":93824},"geometry":{"x":167964.30000000075,"y":2552368.0500000007}},{"attributes":{"ID":93825,"DIS_CODE":0,"TOWNNAME":"安南區","LI":"長安里","LIN":"21鄰","STREET":"長溪路","SECT":"三段","MAREA":" ","LANE":"３８０巷","ALLEY":"１３９弄","HOUSE_NO":"３號","E_COORD97":167981.92999999999,"N_COORD97":2552285.4300000002,"ADDRESS":"長溪路三段３８０巷１３９弄３號","OBJECTID":93825},"geometry":{"x":167981.93000000063,"y":2552285.4299999997}},{"attributes":{"ID":93826,"DIS_CODE":0,"TOWNNAME":"安南區","LI":"長安里","LIN":"21鄰","STREET":"長溪路","SECT":"三段","MAREA":" ","LANE":"３８０巷","ALLEY":"１３９弄","HOUSE_NO":"５號","E_COORD97":167977.92000000001,"N_COORD97":2552291.8900000001,"ADDRESS":"長溪路三段３８０巷１３９弄５號","OBJECTID":93826},"geometry":{"x":167977.91999999993,"y":2552291.8900000025}},{"attributes":{"ID":93827,"DIS_CODE":0,"TOWNNAME":"關廟區","LI":"北花里","LIN":"15鄰","STREET":"中正路","SECT":" ","MAREA":" ","LANE":" ","ALLEY":" ","HOUSE_NO":"１６１號","E_COORD97":183477.56,"N_COORD97":2540899.25,"ADDRESS":"中正路１６１號","OBJECTID":93827},"geometry":{"x":183477.55999999866,"y":2540899.25}},{"attributes":{"ID":93828,"DIS_CODE":0,"TOWNNAME":"關廟區","LI":"北花里","LIN":"15鄰","STREET":"中正路","SECT":" ","MAREA":" ","LANE":" ","ALLEY":" ","HOUSE_NO":"１７１號","E_COORD97":183462.26000000001,"N_COORD97":2540895.25,"ADDRESS":"中正路１７１號","OBJECTID":93828},"geometry":{"x":183462.25999999978,"y":2540895.25}},{"attributes":{"ID":93829,"DIS_CODE":0,"TOWNNAME":"新化區","LI":"東榮里","LIN":"25鄰","STREET":"中正路","SECT":" ","MAREA":" ","LANE":" ","ALLEY":" ","HOUSE_NO":"３１０號之６","E_COORD97":179211.26000000001,"N_COORD97":2548002.2599999998,"ADDRESS":"中正路３１０號之６","OBJECTID":93829},"geometry":{"x":179211.25999999885,"y":2548002.2599999998}},{"attributes":{"ID":93830,"DIS_CODE":0,"TOWNNAME":"新化區","LI":"太平里","LIN":"4鄰","STREET":"民生路","SECT":" ","MAREA":" ","LANE":" ","ALLEY":" ","HOUSE_NO":"２０４號","E_COORD97":179096.51000000001,"N_COORD97":2548952.25,"ADDRESS":"民生路２０４號","OBJECTID":93830},"geometry":{"x":179096.51000000071,"y":2548952.2500000037}},{"attributes":{"ID":93831,"DIS_CODE":0,"TOWNNAME":"新化區","LI":"東榮里","LIN":"20鄰","STREET":"復興路","SECT":" ","MAREA":" ","LANE":" ","ALLEY":" ","HOUSE_NO":"２３６號之８","E_COORD97":179406.57999999999,"N_COORD97":2548264.2599999998,"ADDRESS":"復興路２３６號之８","OBJECTID":93831},"geometry":{"x":179406.58000000101,"y":2548264.2600000016}},{"attributes":{"ID":93832,"DIS_CODE":0,"TOWNNAME":"新化區","LI":"太平里","LIN":"4鄰","STREET":"太平街","SECT":" ","MAREA":" ","LANE":" ","ALLEY":" ","HOUSE_NO":"１２號","E_COORD97":179087.07000000001,"N_COORD97":2548874.25,"ADDRESS":"太平街１２號","OBJECTID":93832},"geometry":{"x":179087.0700000003,"y":2548874.2500000037}},{"attributes":{"ID":93833,"DIS_CODE":0,"TOWNNAME":"新化區","LI":"清水里","LIN":"4鄰","STREET":"中山路","SECT":" ","MAREA":" ","LANE":" ","ALLEY":" ","HOUSE_NO":"４２８號","E_COORD97":178743.01000000001,"N_COORD97":2548418.25,"ADDRESS":"中山路４２８號","OBJECTID":93833},"geometry":{"x":178743.00999999978,"y":2548418.25}},{"attributes":{"ID":93834,"DIS_CODE":0,"TOWNNAME":"新化區","LI":"東榮里","LIN":"25鄰","STREET":"中正路","SECT":" ","MAREA":" ","LANE":" ","ALLEY":" ","HOUSE_NO":"３０６號之１","E_COORD97":179194.34,"N_COORD97":2547994.2599999998,"ADDRESS":"中正路３０６號之１","OBJECTID":93834},"geometry":{"x":179194.34000000078,"y":2547994.2599999998}},{"attributes":{"ID":93835,"DIS_CODE":0,"TOWNNAME":"新化區","LI":"東榮里","LIN":"25鄰","STREET":"中正路","SECT":" ","MAREA":" ","LANE":" ","ALLEY":" ","HOUSE_NO":"３１０號之１","E_COORD97":179175.73999999999,"N_COORD97":2548006.2599999998,"ADDRESS":"中正路３１０號之１","OBJECTID":93835},"geometry":{"x":179175.74000000022,"y":2548006.2600000016}},{"attributes":{"ID":93836,"DIS_CODE":0,"TOWNNAME":"新化區","LI":"太平里","LIN":"4鄰","STREET":"中正路","SECT":" ","MAREA":" ","LANE":" ","ALLEY":" ","HOUSE_NO":"５４６號","E_COORD97":178941.81,"N_COORD97":2548906.25,"ADDRESS":"中正路５４６號","OBJECTID":93836},"geometry":{"x":178941.81000000052,"y":2548906.2500000019}},{"attributes":{"ID":93837,"DIS_CODE":0,"TOWNNAME":"新化區","LI":"太平里","LIN":"4鄰","STREET":"太平街","SECT":" ","MAREA":" ","LANE":" ","ALLEY":" ","HOUSE_NO":"１８號","E_COORD97":179074.67000000001,"N_COORD97":2548852.25,"ADDRESS":"太平街１８號","OBJECTID":93837},"geometry":{"x":179074.66999999993,"y":2548852.25}},{"attributes":{"ID":93838,"DIS_CODE":0,"TOWNNAME":"新化區","LI":"東榮里","LIN":"20鄰","STREET":"復興路","SECT":" ","MAREA":" ","LANE":" ","ALLEY":" ","HOUSE_NO":"２２８號","E_COORD97":179382.72,"N_COORD97":2548237.25,"ADDRESS":"復興路２２８號","OBJECTID":93838},"geometry":{"x":179382.71999999881,"y":2548237.2500000019}},{"attributes":{"ID":93839,"DIS_CODE":0,"TOWNNAME":"新化區","LI":"太平里","LIN":"4鄰","STREET":"民生路","SECT":" ","MAREA":" ","LANE":" ","ALLEY":" ","HOUSE_NO":"１９６號","E_COORD97":179103.91,"N_COORD97":2548941.25,"ADDRESS":"民生路１９６號","OBJECTID":93839},"geometry":{"x":179103.91000000201,"y":2548941.25}},{"attributes":{"ID":93840,"DIS_CODE":0,"TOWNNAME":"新化區","LI":"觀音里","LIN":"4鄰","STREET":"中正路","SECT":" ","MAREA":" ","LANE":" ","ALLEY":" ","HOUSE_NO":"５０３號","E_COORD97":179028.20999999999,"N_COORD97":2548562.25,"ADDRESS":"中正路５０３號","OBJECTID":93840},"geometry":{"x":179028.20999999996,"y":2548562.2500000037}},{"attributes":{"ID":93841,"DIS_CODE":0,"TOWNNAME":"新化區","LI":"東榮里","LIN":"20鄰","STREET":"復興路","SECT":" ","MAREA":" ","LANE":" ","ALLEY":" ","HOUSE_NO":"２３０號","E_COORD97":179381.22,"N_COORD97":2548241.25,"ADDRESS":"復興路２３０號","OBJECTID":93841},"geometry":{"x":179381.2200000016,"y":2548241.2500000019}},{"attributes":{"ID":93842,"DIS_CODE":0,"TOWNNAME":"新化區","LI":"太平里","LIN":"4鄰","STREET":"中正路","SECT":" ","MAREA":" ","LANE":" ","ALLEY":" ","HOUSE_NO":"５５２號","E_COORD97":178930.60999999999,"N_COORD97":2548939.25,"ADDRESS":"中正路５５２號","OBJECTID":93842},"geometry":{"x":178930.61000000127,"y":2548939.2500000019}},{"attributes":{"ID":93843,"DIS_CODE":0,"TOWNNAME":"南化區","LI":"西埔里","LIN":"15鄰","STREET":" ","SECT":" ","MAREA":"西埔","LANE":" ","ALLEY":" ","HOUSE_NO":"１８７號","E_COORD97":192597.79000000001,"N_COORD97":2549040.75,"ADDRESS":"西埔１８７號","OBJECTID":93843},"geometry":{"x":192597.79000000004,"y":2549040.7500000019}},{"attributes":{"ID":93844,"DIS_CODE":0,"TOWNNAME":"安南區","LI":"長安里","LIN":"21鄰","STREET":"長溪路","SECT":"三段","MAREA":" ","LANE":"３８０巷","ALLEY":"１３９弄","HOUSE_NO":"６號","E_COORD97":167997.76999999999,"N_COORD97":2552308.6899999999,"ADDRESS":"長溪路三段３８０巷１３９弄６號","OBJECTID":93844},"geometry":{"x":167997.77000000048,"y":2552308.6900000032}},{"attributes":{"ID":93845,"DIS_CODE":0,"TOWNNAME":"安南區","LI":"長安里","LIN":"21鄰","STREET":"長溪路","SECT":"三段","MAREA":" ","LANE":"３８０巷","ALLEY":"１３９弄","HOUSE_NO":"７號","E_COORD97":167974.37,"N_COORD97":2552297.79,"ADDRESS":"長溪路三段３８０巷１３９弄７號","OBJECTID":93845},"geometry":{"x":167974.37000000104,"y":2552297.790000001}},{"attributes":{"ID":93846,"DIS_CODE":0,"TOWNNAME":"南化區","LI":"西埔里","LIN":"15鄰","STREET":" ","SECT":" ","MAREA":"西埔","LANE":" ","ALLEY":" ","HOUSE_NO":"１９１號","E_COORD97":192484.98999999999,"N_COORD97":2548880.75,"ADDRESS":"西埔１９１號","OBJECTID":93846},"geometry":{"x":192484.99000000022,"y":2548880.7499999981}},{"attributes":{"ID":93847,"DIS_CODE":0,"TOWNNAME":"官田區","LI":"二鎮里","LIN":"10鄰","STREET":" ","SECT":" ","MAREA":"二鎮","LANE":" ","ALLEY":" ","HOUSE_NO":"８７號之１０５","E_COORD97":181711.88,"N_COORD97":2568432.1000000001,"ADDRESS":"二鎮８７號之１０５","OBJECTID":93847},"geometry":{"x":181711.88000000082,"y":2568432.1000000015}},{"attributes":{"ID":93848,"DIS_CODE":0,"TOWNNAME":"官田區","LI":"二鎮里","LIN":"10鄰","STREET":" ","SECT":" ","MAREA":"二鎮","LANE":" ","ALLEY":" ","HOUSE_NO":"８７號之１０６","E_COORD97":181701.85000000001,"N_COORD97":2568491.46,"ADDRESS":"二鎮８７號之１０６","OBJECTID":93848},"geometry":{"x":181701.84999999963,"y":2568491.4600000028}},{"attributes":{"ID":93849,"DIS_CODE":0,"TOWNNAME":"安南區","LI":"長安里","LIN":"21鄰","STREET":"長溪路","SECT":"三段","MAREA":" ","LANE":"３８０巷","ALLEY":"１３９弄","HOUSE_NO":"８號","E_COORD97":167995.72,"N_COORD97":2552312.8900000001,"ADDRESS":"長溪路三段３８０巷１３９弄８號","OBJECTID":93849},"geometry":{"x":167995.71999999974,"y":2552312.8900000025}},{"attributes":{"ID":93850,"DIS_CODE":0,"TOWNNAME":"官田區","LI":"二鎮里","LIN":"10鄰","STREET":" ","SECT":" ","MAREA":"二鎮","LANE":" ","ALLEY":" ","HOUSE_NO":"８７號之１０","E_COORD97":181624.48000000001,"N_COORD97":2568392.29,"ADDRESS":"二鎮８７號之１０","OBJECTID":93850},"geometry":{"x":181624.47999999952,"y":2568392.290000001}},{"attributes":{"ID":93851,"DIS_CODE":0,"TOWNNAME":"官田區","LI":"二鎮里","LIN":"10鄰","STREET":" ","SECT":" ","MAREA":"二鎮","LANE":" ","ALLEY":" ","HOUSE_NO":"８７號之１１","E_COORD97":181624.51999999999,"N_COORD97":2568396.75,"ADDRESS":"二鎮８７號之１１","OBJECTID":93851},"geometry":{"x":181624.51999999955,"y":2568396.7500000019}},{"attributes":{"ID":93852,"DIS_CODE":0,"TOWNNAME":"官田區","LI":"二鎮里","LIN":"10鄰","STREET":" ","SECT":" ","MAREA":"二鎮","LANE":" ","ALLEY":" ","HOUSE_NO":"８７號之１","E_COORD97":181621.98999999999,"N_COORD97":2568343.3199999998,"ADDRESS":"二鎮８７號之１","OBJECTID":93852},"geometry":{"x":181621.99000000022,"y":2568343.3200000003}},{"attributes":{"ID":93853,"DIS_CODE":0,"TOWNNAME":"官田區","LI":"二鎮里","LIN":"10鄰","STREET":" ","SECT":" ","MAREA":"二鎮","LANE":" ","ALLEY":" ","HOUSE_NO":"８７號之２８","E_COORD97":181636.06,"N_COORD97":2568446.0499999998,"ADDRESS":"二鎮８７號之２８","OBJECTID":93853},"geometry":{"x":181636.05999999959,"y":2568446.0500000026}},{"attributes":{"ID":93854,"DIS_CODE":0,"TOWNNAME":"官田區","LI":"二鎮里","LIN":"10鄰","STREET":" ","SECT":" ","MAREA":"二鎮","LANE":" ","ALLEY":" ","HOUSE_NO":"８７號之２９","E_COORD97":181636.22,"N_COORD97":2568441.5,"ADDRESS":"二鎮８７號之２９","OBJECTID":93854},"geometry":{"x":181636.22000000067,"y":2568441.4999999981}},{"attributes":{"ID":93855,"DIS_CODE":0,"TOWNNAME":"官田區","LI":"二鎮里","LIN":"10鄰","STREET":" ","SECT":" ","MAREA":"二鎮","LANE":" ","ALLEY":" ","HOUSE_NO":"８７號之２","E_COORD97":181622.07999999999,"N_COORD97":2568348.4300000002,"ADDRESS":"二鎮８７號之２","OBJECTID":93855},"geometry":{"x":181622.08000000101,"y":2568348.4300000016}},{"attributes":{"ID":93856,"DIS_CODE":0,"TOWNNAME":"官田區","LI":"二鎮里","LIN":"10鄰","STREET":" ","SECT":" ","MAREA":"二鎮","LANE":" ","ALLEY":" ","HOUSE_NO":"８７號之３０","E_COORD97":181635.72,"N_COORD97":2568436.8599999999,"ADDRESS":"二鎮８７號之３０","OBJECTID":93856},"geometry":{"x":181635.7200000016,"y":2568436.8600000013}},{"attributes":{"ID":93857,"DIS_CODE":0,"TOWNNAME":"官田區","LI":"二鎮里","LIN":"10鄰","STREET":" ","SECT":" ","MAREA":"二鎮","LANE":" ","ALLEY":" ","HOUSE_NO":"８７號之３１","E_COORD97":181635.63,"N_COORD97":2568432.1400000001,"ADDRESS":"二鎮８７號之３１","OBJECTID":93857},"geometry":{"x":181635.63000000082,"y":2568432.1400000025}},{"attributes":{"ID":93858,"DIS_CODE":0,"TOWNNAME":"官田區","LI":"二鎮里","LIN":"10鄰","STREET":" ","SECT":" ","MAREA":"二鎮","LANE":" ","ALLEY":" ","HOUSE_NO":"８７號之３２","E_COORD97":181635.84,"N_COORD97":2568427.2799999998,"ADDRESS":"二鎮８７號之３２","OBJECTID":93858},"geometry":{"x":181635.84000000078,"y":2568427.2800000012}},{"attributes":{"ID":93859,"DIS_CODE":0,"TOWNNAME":"安南區","LI":"長安里","LIN":"21鄰","STREET":"長溪路","SECT":"三段","MAREA":" ","LANE":"３８０巷","ALLEY":"１３９弄","HOUSE_NO":"９號","E_COORD97":167970.45999999999,"N_COORD97":2552303.8300000001,"ADDRESS":"長溪路三段３８０巷１３９弄９號","OBJECTID":93859},"geometry":{"x":167970.45999999996,"y":2552303.8300000001}},{"attributes":{"ID":93860,"DIS_CODE":0,"TOWNNAME":"安南區","LI":"長安里","LIN":"21鄰","STREET":"長溪路","SECT":"三段","MAREA":" ","LANE":"３８０巷","ALLEY":"１６８弄","HOUSE_NO":"２號","E_COORD97":167951.34,"N_COORD97":2552404.9399999999,"ADDRESS":"長溪路三段３８０巷１６８弄２號","OBJECTID":93860},"geometry":{"x":167951.33999999892,"y":2552404.9399999976}},{"attributes":{"ID":93861,"DIS_CODE":0,"TOWNNAME":"關廟區","LI":"北勢里","LIN":"15鄰","STREET":"北新街","SECT":" ","MAREA":" ","LANE":" ","ALLEY":" ","HOUSE_NO":"９１號","E_COORD97":181332.34,"N_COORD97":2540526.25,"ADDRESS":"北新街９１號","OBJECTID":93861},"geometry":{"x":181332.34000000078,"y":2540526.25}},{"attributes":{"ID":93862,"DIS_CODE":0,"TOWNNAME":"官田區","LI":"二鎮里","LIN":"10鄰","STREET":" ","SECT":" ","MAREA":"二鎮","LANE":" ","ALLEY":" ","HOUSE_NO":"８７號之３３","E_COORD97":181635.76000000001,"N_COORD97":2568420.4900000002,"ADDRESS":"二鎮８７號之３３","OBJECTID":93862},"geometry":{"x":181635.76000000071,"y":2568420.4900000002}},{"attributes":{"ID":93863,"DIS_CODE":0,"TOWNNAME":"官田區","LI":"二鎮里","LIN":"10鄰","STREET":" ","SECT":" ","MAREA":"二鎮","LANE":" ","ALLEY":" ","HOUSE_NO":"８７號之３４","E_COORD97":181637.73999999999,"N_COORD97":2568414.02,"ADDRESS":"二鎮８７號之３４","OBJECTID":93863},"geometry":{"x":181637.73999999929,"y":2568414.0200000033}},{"attributes":{"ID":93864,"DIS_CODE":0,"TOWNNAME":"官田區","LI":"二鎮里","LIN":"10鄰","STREET":" ","SECT":" ","MAREA":"二鎮","LANE":" ","ALLEY":" ","HOUSE_NO":"８７號之３５","E_COORD97":181637.35000000001,"N_COORD97":2568407.0800000001,"ADDRESS":"二鎮８７號之３５","OBJECTID":93864},"geometry":{"x":181637.34999999963,"y":2568407.0800000001}},{"attributes":{"ID":93865,"DIS_CODE":0,"TOWNNAME":"官田區","LI":"二鎮里","LIN":"10鄰","STREET":" ","SECT":" ","MAREA":"二鎮","LANE":" ","ALLEY":" ","HOUSE_NO":"８７號之３６","E_COORD97":181637.23000000001,"N_COORD97":2568398.6499999999,"ADDRESS":"二鎮８７號之３６","OBJECTID":93865},"geometry":{"x":181637.23000000138,"y":2568398.6500000022}},{"attributes":{"ID":93866,"DIS_CODE":0,"TOWNNAME":"官田區","LI":"二鎮里","LIN":"10鄰","STREET":" ","SECT":" ","MAREA":"二鎮","LANE":" ","ALLEY":" ","HOUSE_NO":"８７號之３７","E_COORD97":181636.75,"N_COORD97":2568389.4500000002,"ADDRESS":"二鎮８７號之３７","OBJECTID":93866},"geometry":{"x":181636.75,"y":2568389.4499999993}},{"attributes":{"ID":93867,"DIS_CODE":0,"TOWNNAME":"關廟區","LI":"北花里","LIN":"15鄰","STREET":"中正路","SECT":" ","MAREA":" ","LANE":" ","ALLEY":" ","HOUSE_NO":"１２９號","E_COORD97":183546.66,"N_COORD97":2540910.25,"ADDRESS":"中正路１２９號","OBJECTID":93867},"geometry":{"x":183546.66000000015,"y":2540910.2500000037}},{"attributes":{"ID":93868,"DIS_CODE":0,"TOWNNAME":"官田區","LI":"二鎮里","LIN":"10鄰","STREET":" ","SECT":" ","MAREA":"二鎮","LANE":" ","ALLEY":" ","HOUSE_NO":"８７號之３８","E_COORD97":181633.60999999999,"N_COORD97":2568373.2999999998,"ADDRESS":"二鎮８７號之３８","OBJECTID":93868},"geometry":{"x":181633.6099999994,"y":2568373.3000000026}},{"attributes":{"ID":93869,"DIS_CODE":0,"TOWNNAME":"官田區","LI":"二鎮里","LIN":"10鄰","STREET":" ","SECT":" ","MAREA":"二鎮","LANE":" ","ALLEY":" ","HOUSE_NO":"８７號之４２","E_COORD97":181646.73999999999,"N_COORD97":2568347.79,"ADDRESS":"二鎮８７號之４２","OBJECTID":93869},"geometry":{"x":181646.74000000115,"y":2568347.790000001}},{"attributes":{"ID":93870,"DIS_CODE":0,"TOWNNAME":"官田區","LI":"二鎮里","LIN":"10鄰","STREET":" ","SECT":" ","MAREA":"二鎮","LANE":" ","ALLEY":" ","HOUSE_NO":"８７號之４３","E_COORD97":181647.31,"N_COORD97":2568355.6200000001,"ADDRESS":"二鎮８７號之４３","OBJECTID":93870},"geometry":{"x":181647.31000000052,"y":2568355.620000001}},{"attributes":{"ID":93871,"DIS_CODE":0,"TOWNNAME":"官田區","LI":"二鎮里","LIN":"10鄰","STREET":" ","SECT":" ","MAREA":"二鎮","LANE":" ","ALLEY":" ","HOUSE_NO":"８７號之４４","E_COORD97":181648.16,"N_COORD97":2568365.9500000002,"ADDRESS":"二鎮８７號之４４","OBJECTID":93871},"geometry":{"x":181648.16000000015,"y":2568365.9499999993}},{"attributes":{"ID":93872,"DIS_CODE":0,"TOWNNAME":"關廟區","LI":"北勢里","LIN":"15鄰","STREET":"北新街","SECT":" ","MAREA":" ","LANE":" ","ALLEY":" ","HOUSE_NO":"９９號","E_COORD97":181335.73999999999,"N_COORD97":2540551.25,"ADDRESS":"北新街９９號","OBJECTID":93872},"geometry":{"x":181335.74000000022,"y":2540551.2500000019}},{"attributes":{"ID":93873,"DIS_CODE":0,"TOWNNAME":"關廟區","LI":"北花里","LIN":"15鄰","STREET":"中正路","SECT":" ","MAREA":" ","LANE":" ","ALLEY":" ","HOUSE_NO":"１５８號","E_COORD97":183398.16,"N_COORD97":2540915.25,"ADDRESS":"中正路１５８號","OBJECTID":93873},"geometry":{"x":183398.16000000108,"y":2540915.2500000019}},{"attributes":{"ID":93874,"DIS_CODE":0,"TOWNNAME":"關廟區","LI":"北花里","LIN":"15鄰","STREET":"中正路","SECT":" ","MAREA":" ","LANE":" ","ALLEY":" ","HOUSE_NO":"１５６號","E_COORD97":183402.35999999999,"N_COORD97":2540915.25,"ADDRESS":"中正路１５６號","OBJECTID":93874},"geometry":{"x":183402.36000000127,"y":2540915.2500000019}},{"attributes":{"ID":93875,"DIS_CODE":0,"TOWNNAME":"關廟區","LI":"北花里","LIN":"15鄰","STREET":"中正路","SECT":" ","MAREA":" ","LANE":" ","ALLEY":" ","HOUSE_NO":"１５２號","E_COORD97":183405.45999999999,"N_COORD97":2540916.25,"ADDRESS":"中正路１５２號","OBJECTID":93875},"geometry":{"x":183405.45999999996,"y":2540916.25}},{"attributes":{"ID":93876,"DIS_CODE":0,"TOWNNAME":"關廟區","LI":"南花里","LIN":"15鄰","STREET":"花園一街","SECT":" ","MAREA":" ","LANE":" ","ALLEY":" ","HOUSE_NO":"３０２號","E_COORD97":181478.69,"N_COORD97":2540187.25,"ADDRESS":"花園一街３０２號","OBJECTID":93876},"geometry":{"x":181478.69000000041,"y":2540187.25}},{"attributes":{"ID":93877,"DIS_CODE":0,"TOWNNAME":"安南區","LI":"長安里","LIN":"21鄰","STREET":"長溪路","SECT":"三段","MAREA":" ","LANE":"３８０巷","ALLEY":"１６８弄","HOUSE_NO":"８號","E_COORD97":167940.85000000001,"N_COORD97":2552418.7799999998,"ADDRESS":"長溪路三段３８０巷１６８弄８號","OBJECTID":93877},"geometry":{"x":167940.84999999963,"y":2552418.7799999993}},{"attributes":{"ID":93878,"DIS_CODE":0,"TOWNNAME":"永康區","LI":"復興里","LIN":"21鄰","STREET":"復興路","SECT":" ","MAREA":" ","LANE":"２９６巷","ALLEY":"１３弄","HOUSE_NO":"１５號","E_COORD97":172320.32000000001,"N_COORD97":2544402.02,"ADDRESS":"復興路２９６巷１３弄１５號","OBJECTID":93878},"geometry":{"x":172320.3200000003,"y":2544402.0199999996}},{"attributes":{"ID":93879,"DIS_CODE":0,"TOWNNAME":"永康區","LI":"復興里","LIN":"21鄰","STREET":"復興路","SECT":" ","MAREA":" ","LANE":"２９６巷","ALLEY":"１３弄","HOUSE_NO":"２３號","E_COORD97":172339.73999999999,"N_COORD97":2544417.52,"ADDRESS":"復興路２９６巷１３弄２３號","OBJECTID":93879},"geometry":{"x":172339.74000000209,"y":2544417.5200000014}},{"attributes":{"ID":93880,"DIS_CODE":0,"TOWNNAME":"永康區","LI":"復興里","LIN":"21鄰","STREET":"復興路","SECT":" ","MAREA":" ","LANE":"２９６巷","ALLEY":"１３弄","HOUSE_NO":"１９號","E_COORD97":172334.56,"N_COORD97":2544412.27,"ADDRESS":"復興路２９６巷１３弄１９號","OBJECTID":93880},"geometry":{"x":172334.55999999959,"y":2544412.2700000014}},{"attributes":{"ID":93881,"DIS_CODE":0,"TOWNNAME":"永康區","LI":"復興里","LIN":"21鄰","STREET":"復興路","SECT":" ","MAREA":" ","LANE":"２９６巷","ALLEY":"１３弄","HOUSE_NO":"１８號","E_COORD97":172329.92999999999,"N_COORD97":2544396.02,"ADDRESS":"復興路２９６巷１３弄１８號","OBJECTID":93881},"geometry":{"x":172329.93000000063,"y":2544396.0199999996}},{"attributes":{"ID":93882,"DIS_CODE":0,"TOWNNAME":"永康區","LI":"二王里","LIN":"21鄰","STREET":"中山南路","SECT":" ","MAREA":" ","LANE":"６４４巷","ALLEY":"３９弄","HOUSE_NO":"１號之３","E_COORD97":172427.81,"N_COORD97":2546548.04,"ADDRESS":"中山南路６４４巷３９弄１號之３","OBJECTID":93882},"geometry":{"x":172427.80999999959,"y":2546548.0399999991}},{"attributes":{"ID":93883,"DIS_CODE":0,"TOWNNAME":"永康區","LI":"二王里","LIN":"21鄰","STREET":"中山南路","SECT":" ","MAREA":" ","LANE":"６４４巷","ALLEY":"３９弄","HOUSE_NO":"８號","E_COORD97":172424.45000000001,"N_COORD97":2546526.9300000002,"ADDRESS":"中山南路６４４巷３９弄８號","OBJECTID":93883},"geometry":{"x":172424.45000000019,"y":2546526.9300000016}},{"attributes":{"ID":93884,"DIS_CODE":0,"TOWNNAME":"永康區","LI":"大橋里","LIN":"21鄰","STREET":"大橋一街","SECT":" ","MAREA":" ","LANE":"１３９巷","ALLEY":"４４弄","HOUSE_NO":"８２號","E_COORD97":171130.84,"N_COORD97":2546707.0499999998,"ADDRESS":"大橋一街１３９巷４４弄８２號","OBJECTID":93884},"geometry":{"x":171130.83999999985,"y":2546707.0500000026}},{"attributes":{"ID":93885,"DIS_CODE":0,"TOWNNAME":"永康區","LI":"中興里","LIN":"21鄰","STREET":"中華路","SECT":" ","MAREA":" ","LANE":"２１６巷","ALLEY":"１２弄","HOUSE_NO":"２號","E_COORD97":171796.39000000001,"N_COORD97":2545097.5099999998,"ADDRESS":"中華路２１６巷１２弄２號","OBJECTID":93885},"geometry":{"x":171796.3900000006,"y":2545097.5099999998}},{"attributes":{"ID":93886,"DIS_CODE":0,"TOWNNAME":"永康區","LI":"西勢里","LIN":"21鄰","STREET":"富強路","SECT":"一段","MAREA":" ","LANE":"９８巷","ALLEY":"６２弄","HOUSE_NO":"３號","E_COORD97":175623.67000000001,"N_COORD97":2546026.8999999999,"ADDRESS":"富強路一段９８巷６２弄３號","OBJECTID":93886},"geometry":{"x":175623.67000000086,"y":2546026.9000000022}},{"attributes":{"ID":93887,"DIS_CODE":0,"TOWNNAME":"永康區","LI":"二王里","LIN":"21鄰","STREET":"中山南路","SECT":" ","MAREA":" ","LANE":"６４４巷","ALLEY":"４２弄","HOUSE_NO":"１９號","E_COORD97":172350.26999999999,"N_COORD97":2546523.7200000002,"ADDRESS":"中山南路６４４巷４２弄１９號","OBJECTID":93887},"geometry":{"x":172350.26999999955,"y":2546523.7200000025}},{"attributes":{"ID":93888,"DIS_CODE":0,"TOWNNAME":"永康區","LI":"二王里","LIN":"21鄰","STREET":"中山南路","SECT":" ","MAREA":" ","LANE":"６４４巷","ALLEY":"４２弄","HOUSE_NO":"１號之４","E_COORD97":172392.03,"N_COORD97":2546525.3900000001,"ADDRESS":"中山南路６４４巷４２弄１號之４","OBJECTID":93888},"geometry":{"x":172392.03000000212,"y":2546525.3900000025}},{"attributes":{"ID":93889,"DIS_CODE":0,"TOWNNAME":"永康區","LI":"二王里","LIN":"21鄰","STREET":"中山南路","SECT":" ","MAREA":" ","LANE":"６４４巷","ALLEY":"４２弄","HOUSE_NO":"２０號","E_COORD97":172343.26999999999,"N_COORD97":2546544.8799999999,"ADDRESS":"中山南路６４４巷４２弄２０號","OBJECTID":93889},"geometry":{"x":172343.26999999955,"y":2546544.879999999}},{"attributes":{"ID":93890,"DIS_CODE":0,"TOWNNAME":"北區","LI":"成功里","LIN":"15鄰","STREET":"北成路","SECT":" ","MAREA":" ","LANE":"８０巷","ALLEY":" ","HOUSE_NO":"４２號","E_COORD97":169085.59,"N_COORD97":2546765.1099999999,"ADDRESS":"北成路８０巷４２號","OBJECTID":93890},"geometry":{"x":169085.59000000171,"y":2546765.1099999994}},{"attributes":{"ID":93891,"DIS_CODE":0,"TOWNNAME":"北區","LI":"長榮里","LIN":"8鄰","STREET":"長勝路","SECT":" ","MAREA":" ","LANE":" ","ALLEY":" ","HOUSE_NO":"１３號","E_COORD97":170045.09,"N_COORD97":2545542.8199999998,"ADDRESS":"長勝路１３號","OBJECTID":93891},"geometry":{"x":170045.09000000171,"y":2545542.8200000022}},{"attributes":{"ID":93892,"DIS_CODE":0,"TOWNNAME":"北區","LI":"長榮里","LIN":"8鄰","STREET":"長勝路","SECT":" ","MAREA":" ","LANE":" ","ALLEY":" ","HOUSE_NO":"１５號","E_COORD97":170040.64000000001,"N_COORD97":2545546.79,"ADDRESS":"長勝路１５號","OBJECTID":93892},"geometry":{"x":170040.63999999966,"y":2545546.7899999972}},{"attributes":{"ID":93893,"DIS_CODE":0,"TOWNNAME":"新營區","LI":"民榮里","LIN":"17鄰","STREET":"富強街","SECT":" ","MAREA":" ","LANE":" ","ALLEY":" ","HOUSE_NO":"１４號","E_COORD97":178971.25,"N_COORD97":2577803.5099999998,"ADDRESS":"富強街１４號","OBJECTID":93893},"geometry":{"x":178971.25000000093,"y":2577803.5100000016}},{"attributes":{"ID":93894,"DIS_CODE":0,"TOWNNAME":"東山區","LI":"東中里","LIN":"8鄰","STREET":"中興南路","SECT":" ","MAREA":" ","LANE":" ","ALLEY":" ","HOUSE_NO":"１７號","E_COORD97":188934.35999999999,"N_COORD97":2579803.1400000001,"ADDRESS":"中興南路１７號","OBJECTID":93894},"geometry":{"x":188934.36000000034,"y":2579803.1400000025}},{"attributes":{"ID":93895,"DIS_CODE":0,"TOWNNAME":"東山區","LI":"東中里","LIN":"8鄰","STREET":"中興南路","SECT":" ","MAREA":" ","LANE":" ","ALLEY":" ","HOUSE_NO":"１９號","E_COORD97":188934.70999999999,"N_COORD97":2579808.3599999999,"ADDRESS":"中興南路１９號","OBJECTID":93895},"geometry":{"x":188934.70999999996,"y":2579808.3599999994}},{"attributes":{"ID":93896,"DIS_CODE":0,"TOWNNAME":"東山區","LI":"東中里","LIN":"8鄰","STREET":"中興南路","SECT":" ","MAREA":" ","LANE":" ","ALLEY":" ","HOUSE_NO":"２１號","E_COORD97":188935.10000000001,"N_COORD97":2579814.3999999999,"ADDRESS":"中興南路２１號","OBJECTID":93896},"geometry":{"x":188935.09999999963,"y":2579814.4000000041}},{"attributes":{"ID":93897,"DIS_CODE":0,"TOWNNAME":"東山區","LI":"東中里","LIN":"8鄰","STREET":"中興南路","SECT":" ","MAREA":" ","LANE":" ","ALLEY":" ","HOUSE_NO":"２６號","E_COORD97":188975.78,"N_COORD97":2579761.1099999999,"ADDRESS":"中興南路２６號","OBJECTID":93897},"geometry":{"x":188975.78000000026,"y":2579761.1100000031}},{"attributes":{"ID":93898,"DIS_CODE":0,"TOWNNAME":"東山區","LI":"東中里","LIN":"8鄰","STREET":"中興南路","SECT":" ","MAREA":" ","LANE":" ","ALLEY":" ","HOUSE_NO":"２９號","E_COORD97":188922.16,"N_COORD97":2579846.73,"ADDRESS":"中興南路２９號","OBJECTID":93898},"geometry":{"x":188922.16000000015,"y":2579846.7300000023}},{"attributes":{"ID":93899,"DIS_CODE":0,"TOWNNAME":"永康區","LI":"二王里","LIN":"21鄰","STREET":"中山南路","SECT":" ","MAREA":" ","LANE":"６４４巷","ALLEY":"３９弄","HOUSE_NO":"９號","E_COORD97":172447.59,"N_COORD97":2546548.4900000002,"ADDRESS":"中山南路６４４巷３９弄９號","OBJECTID":93899},"geometry":{"x":172447.59000000078,"y":2546548.4900000021}},{"attributes":{"ID":93900,"DIS_CODE":0,"TOWNNAME":"永康區","LI":"二王里","LIN":"21鄰","STREET":"中山南路","SECT":" ","MAREA":" ","LANE":"６４４巷","ALLEY":"４２弄","HOUSE_NO":"７號","E_COORD97":172372.70999999999,"N_COORD97":2546525.0099999998,"ADDRESS":"中山南路６４４巷４２弄７號","OBJECTID":93900},"geometry":{"x":172372.70999999996,"y":2546525.0099999998}},{"attributes":{"ID":93901,"DIS_CODE":0,"TOWNNAME":"永康區","LI":"二王里","LIN":"21鄰","STREET":"中山南路","SECT":" ","MAREA":" ","LANE":"６４４巷","ALLEY":"４２弄","HOUSE_NO":"１０號","E_COORD97":172364.64999999999,"N_COORD97":2546545.3799999999,"ADDRESS":"中山南路６４４巷４２弄１０號","OBJECTID":93901},"geometry":{"x":172364.6500000013,"y":2546545.379999999}},{"attributes":{"ID":93902,"DIS_CODE":0,"TOWNNAME":"永康區","LI":"二王里","LIN":"21鄰","STREET":"中山南路","SECT":" ","MAREA":" ","LANE":"６４４巷","ALLEY":"４２弄","HOUSE_NO":"１號","E_COORD97":172385.26999999999,"N_COORD97":2546525.2599999998,"ADDRESS":"中山南路６４４巷４２弄１號","OBJECTID":93902},"geometry":{"x":172385.27000000048,"y":2546525.2600000016}},{"attributes":{"ID":93903,"DIS_CODE":0,"TOWNNAME":"永康區","LI":"二王里","LIN":"21鄰","STREET":"中山南路","SECT":" ","MAREA":" ","LANE":"６４４巷","ALLEY":"４２弄","HOUSE_NO":"１８號","E_COORD97":172347.45999999999,"N_COORD97":2546545.1299999999,"ADDRESS":"中山南路６４４巷４２弄１８號","OBJECTID":93903},"geometry":{"x":172347.45999999996,"y":2546545.1300000008}},{"attributes":{"ID":93904,"DIS_CODE":0,"TOWNNAME":"新營區","LI":"太北里","LIN":"15鄰","STREET":" ","SECT":" ","MAREA":"太子宮","LANE":" ","ALLEY":" ","HOUSE_NO":"１２６之９號","E_COORD97":175896.10999999999,"N_COORD97":2577001.3300000001,"ADDRESS":"太子宮１２６之９號","OBJECTID":93904},"geometry":{"x":175896.11000000127,"y":2577001.3300000019}},{"attributes":{"ID":93905,"DIS_CODE":0,"TOWNNAME":"新營區","LI":"太南里","LIN":"15鄰","STREET":" ","SECT":" ","MAREA":"太子宮","LANE":" ","ALLEY":" ","HOUSE_NO":"２９６號","E_COORD97":176175.16,"N_COORD97":2576623.3399999999,"ADDRESS":"太子宮２９６號","OBJECTID":93905},"geometry":{"x":176175.16000000108,"y":2576623.3399999999}},{"attributes":{"ID":93906,"DIS_CODE":0,"TOWNNAME":"新營區","LI":"太北里","LIN":"15鄰","STREET":" ","SECT":" ","MAREA":"太子宮","LANE":" ","ALLEY":" ","HOUSE_NO":"１２６號","E_COORD97":175924.41,"N_COORD97":2577022.1699999999,"ADDRESS":"太子宮１２６號","OBJECTID":93906},"geometry":{"x":175924.41000000108,"y":2577022.1700000018}},{"attributes":{"ID":93907,"DIS_CODE":0,"TOWNNAME":"新營區","LI":"太南里","LIN":"15鄰","STREET":" ","SECT":" ","MAREA":"太子宮","LANE":" ","ALLEY":" ","HOUSE_NO":"３０１號","E_COORD97":176183.04000000001,"N_COORD97":2576559.0699999998,"ADDRESS":"太子宮３０１號","OBJECTID":93907},"geometry":{"x":176183.04000000004,"y":2576559.0700000022}},{"attributes":{"ID":93908,"DIS_CODE":0,"TOWNNAME":"永康區","LI":"二王里","LIN":"21鄰","STREET":"中山南路","SECT":" ","MAREA":" ","LANE":"６４４巷","ALLEY":"４２弄","HOUSE_NO":"２５號","E_COORD97":172337.87,"N_COORD97":2546523.2200000002,"ADDRESS":"中山南路６４４巷４２弄２５號","OBJECTID":93908},"geometry":{"x":172337.87000000011,"y":2546523.2200000025}},{"attributes":{"ID":93909,"DIS_CODE":0,"TOWNNAME":"新營區","LI":"太南里","LIN":"15鄰","STREET":" ","SECT":" ","MAREA":"太子宮","LANE":" ","ALLEY":" ","HOUSE_NO":"３０３號","E_COORD97":176237.29000000001,"N_COORD97":2576564.3399999999,"ADDRESS":"太子宮３０３號","OBJECTID":93909},"geometry":{"x":176237.29000000004,"y":2576564.3399999999}},{"attributes":{"ID":93910,"DIS_CODE":0,"TOWNNAME":"新營區","LI":"太北里","LIN":"15鄰","STREET":" ","SECT":" ","MAREA":"太子宮","LANE":" ","ALLEY":" ","HOUSE_NO":"１２７號","E_COORD97":175920.25,"N_COORD97":2577010.0099999998,"ADDRESS":"太子宮１２７號","OBJECTID":93910},"geometry":{"x":175920.25000000093,"y":2577010.0100000016}},{"attributes":{"ID":93911,"DIS_CODE":0,"TOWNNAME":"新營區","LI":"太南里","LIN":"15鄰","STREET":" ","SECT":" ","MAREA":"太子宮","LANE":" ","ALLEY":" ","HOUSE_NO":"３００號","E_COORD97":176184.19,"N_COORD97":2576584.5299999998,"ADDRESS":"太子宮３００號","OBJECTID":93911},"geometry":{"x":176184.19000000041,"y":2576584.5300000031}},{"attributes":{"ID":93912,"DIS_CODE":0,"TOWNNAME":"永康區","LI":"二王里","LIN":"21鄰","STREET":"中山南路","SECT":" ","MAREA":" ","LANE":"５６８巷","ALLEY":"１弄","HOUSE_NO":"１２號","E_COORD97":172291.53,"N_COORD97":2546562.9199999999,"ADDRESS":"中山南路５６８巷１弄１２號","OBJECTID":93912},"geometry":{"x":172291.53000000026,"y":2546562.9199999999}},{"attributes":{"ID":93913,"DIS_CODE":0,"TOWNNAME":"新營區","LI":"太南里","LIN":"15鄰","STREET":" ","SECT":" ","MAREA":"太子宮","LANE":" ","ALLEY":" ","HOUSE_NO":"２９７號","E_COORD97":176151.57000000001,"N_COORD97":2576611.27,"ADDRESS":"太子宮２９７號","OBJECTID":93913},"geometry":{"x":176151.5700000003,"y":2576611.2700000014}},{"attributes":{"ID":93914,"DIS_CODE":0,"TOWNNAME":"新營區","LI":"太北里","LIN":"15鄰","STREET":" ","SECT":" ","MAREA":"太子宮","LANE":" ","ALLEY":" ","HOUSE_NO":"１１９號","E_COORD97":175969.37,"N_COORD97":2577013.0800000001,"ADDRESS":"太子宮１１９號","OBJECTID":93914},"geometry":{"x":175969.37000000011,"y":2577013.0800000019}},{"attributes":{"ID":93915,"DIS_CODE":0,"TOWNNAME":"永康區","LI":"安康里","LIN":"21鄰","STREET":"中華路","SECT":" ","MAREA":" ","LANE":"７０３巷","ALLEY":"３弄","HOUSE_NO":"４３號","E_COORD97":170926.38,"N_COORD97":2546234,"ADDRESS":"中華路７０３巷３弄４３號","OBJECTID":93915},"geometry":{"x":170926.38000000175,"y":2546234}},{"attributes":{"ID":93916,"DIS_CODE":0,"TOWNNAME":"新營區","LI":"太北里","LIN":"15鄰","STREET":" ","SECT":" ","MAREA":"太子宮","LANE":" ","ALLEY":" ","HOUSE_NO":"１２４號","E_COORD97":175926.54000000001,"N_COORD97":2577040.98,"ADDRESS":"太子宮１２４號","OBJECTID":93916},"geometry":{"x":175926.54000000097,"y":2577040.9800000023}},{"attributes":{"ID":93917,"DIS_CODE":0,"TOWNNAME":"永康區","LI":"中興里","LIN":"21鄰","STREET":"中華路","SECT":" ","MAREA":" ","LANE":"２１６巷","ALLEY":"１２弄","HOUSE_NO":"２號之１７","E_COORD97":171789.87,"N_COORD97":2545095.9500000002,"ADDRESS":"中華路２１６巷１２弄２號之１７","OBJECTID":93917},"geometry":{"x":171789.87000000104,"y":2545095.9500000011}},{"attributes":{"ID":93918,"DIS_CODE":0,"TOWNNAME":"新營區","LI":"太南里","LIN":"15鄰","STREET":" ","SECT":" ","MAREA":"太子宮","LANE":" ","ALLEY":" ","HOUSE_NO":"２９９號","E_COORD97":176166.76000000001,"N_COORD97":2576581.2999999998,"ADDRESS":"太子宮２９９號","OBJECTID":93918},"geometry":{"x":176166.76000000164,"y":2576581.3000000026}},{"attributes":{"ID":93919,"DIS_CODE":0,"TOWNNAME":"七股區","LI":"十份里","LIN":"1鄰","STREET":" ","SECT":" ","MAREA":"十份","LANE":" ","ALLEY":" ","HOUSE_NO":"１１號","E_COORD97":158308.57999999999,"N_COORD97":2555320.1299999999,"ADDRESS":"十份１１號","OBJECTID":93919},"geometry":{"x":158308.58000000101,"y":2555320.1300000008}},{"attributes":{"ID":93920,"DIS_CODE":0,"TOWNNAME":"新營區","LI":"民權里","LIN":"15鄰","STREET":"三民路","SECT":" ","MAREA":" ","LANE":" ","ALLEY":" ","HOUSE_NO":"１２０號之３","E_COORD97":179817.95000000001,"N_COORD97":2578523.8100000001,"ADDRESS":"三民路１２０號之３","OBJECTID":93920},"geometry":{"x":179817.95000000112,"y":2578523.8100000024}},{"attributes":{"ID":93921,"DIS_CODE":0,"TOWNNAME":"新營區","LI":"民權里","LIN":"15鄰","STREET":"三民路","SECT":" ","MAREA":" ","LANE":" ","ALLEY":" ","HOUSE_NO":"１２０號之１","E_COORD97":179815.73999999999,"N_COORD97":2578508.3100000001,"ADDRESS":"三民路１２０號之１","OBJECTID":93921},"geometry":{"x":179815.74000000115,"y":2578508.3100000005}},{"attributes":{"ID":93922,"DIS_CODE":0,"TOWNNAME":"新營區","LI":"埤寮里","LIN":"15鄰","STREET":"中正路","SECT":" ","MAREA":" ","LANE":" ","ALLEY":" ","HOUSE_NO":"２９８號","E_COORD97":180107.22,"N_COORD97":2580022.98,"ADDRESS":"中正路２９８號","OBJECTID":93922},"geometry":{"x":180107.22000000067,"y":2580022.9800000004}},{"attributes":{"ID":93923,"DIS_CODE":0,"TOWNNAME":"新營區","LI":"民榮里","LIN":"15鄰","STREET":"公園路","SECT":"一段","MAREA":" ","LANE":" ","ALLEY":" ","HOUSE_NO":"２２２號","E_COORD97":178895.89000000001,"N_COORD97":2578024.2599999998,"ADDRESS":"公園路一段２２２號","OBJECTID":93923},"geometry":{"x":178895.8900000006,"y":2578024.2600000035}},{"attributes":{"ID":93924,"DIS_CODE":0,"TOWNNAME":"新營區","LI":"太北里","LIN":"15鄰","STREET":" ","SECT":" ","MAREA":"太子宮","LANE":" ","ALLEY":" ","HOUSE_NO":"１２３之５號","E_COORD97":175921.10643300001,"N_COORD97":2577085.9026600001,"ADDRESS":"太子宮１２３之５號","OBJECTID":93924},"geometry":{"x":175921.10643300042,"y":2577085.9026649985}},{"attributes":{"ID":93925,"DIS_CODE":0,"TOWNNAME":"新化區","LI":"全興里","LIN":"15鄰","STREET":" ","SECT":" ","MAREA":"竹子\u25A0","LANE":" ","ALLEY":" ","HOUSE_NO":"２４７號之５７６","E_COORD97":178149.98000000001,"N_COORD97":2546638.2599999998,"ADDRESS":"竹子\u25A0２４７號之５７６","OBJECTID":93925},"geometry":{"x":178149.98000000138,"y":2546638.2599999998}},{"attributes":{"ID":93926,"DIS_CODE":0,"TOWNNAME":"新化區","LI":"全興里","LIN":"15鄰","STREET":" ","SECT":" ","MAREA":"竹子\u25A0","LANE":" ","ALLEY":" ","HOUSE_NO":"２４７號之４３２","E_COORD97":178155.48999999999,"N_COORD97":2546681.2599999998,"ADDRESS":"竹子\u25A0２４７號之４３２","OBJECTID":93926},"geometry":{"x":178155.49000000022,"y":2546681.2600000016}},{"attributes":{"ID":93927,"DIS_CODE":0,"TOWNNAME":"新化區","LI":"全興里","LIN":"15鄰","STREET":" ","SECT":" ","MAREA":"竹子\u25A0","LANE":" ","ALLEY":" ","HOUSE_NO":"２４７號之５５３","E_COORD97":178132.78,"N_COORD97":2546668.2599999998,"ADDRESS":"竹子\u25A0２４７號之５５３","OBJECTID":93927},"geometry":{"x":178132.78000000026,"y":2546668.2600000016}},{"attributes":{"ID":93928,"DIS_CODE":0,"TOWNNAME":"新化區","LI":"全興里","LIN":"15鄰","STREET":" ","SECT":" ","MAREA":"竹子\u25A0","LANE":" ","ALLEY":" ","HOUSE_NO":"２４７號之５４３","E_COORD97":178155.57999999999,"N_COORD97":2546667.2599999998,"ADDRESS":"竹子\u25A0２４７號之５４３","OBJECTID":93928},"geometry":{"x":178155.58000000101,"y":2546667.2600000016}},{"attributes":{"ID":93929,"DIS_CODE":0,"TOWNNAME":"新化區","LI":"全興里","LIN":"15鄰","STREET":" ","SECT":" ","MAREA":"竹子\u25A0","LANE":" ","ALLEY":" ","HOUSE_NO":"２４７號之４４０","E_COORD97":178136.97,"N_COORD97":2546682.2599999998,"ADDRESS":"竹子\u25A0２４７號之４４０","OBJECTID":93929},"geometry":{"x":178136.9700000016,"y":2546682.2599999998}},{"attributes":{"ID":93930,"DIS_CODE":0,"TOWNNAME":"官田區","LI":"二鎮里","LIN":"10鄰","STREET":" ","SECT":" ","MAREA":"二鎮","LANE":" ","ALLEY":" ","HOUSE_NO":"８７號之４５","E_COORD97":181648.38,"N_COORD97":2568373.52,"ADDRESS":"二鎮８７號之４５","OBJECTID":93930},"geometry":{"x":181648.38000000175,"y":2568373.5200000033}},{"attributes":{"ID":93931,"DIS_CODE":0,"TOWNNAME":"永康區","LI":"北灣里","LIN":"21鄰","STREET":"大同街","SECT":" ","MAREA":" ","LANE":"３８０巷","ALLEY":"４１弄","HOUSE_NO":"１８號","E_COORD97":174862.76999999999,"N_COORD97":2546067.02,"ADDRESS":"大同街３８０巷４１弄１８號","OBJECTID":93931},"geometry":{"x":174862.76999999955,"y":2546067.0199999996}},{"attributes":{"ID":93932,"DIS_CODE":0,"TOWNNAME":"永康區","LI":"西勢里","LIN":"21鄰","STREET":"富強路","SECT":"一段","MAREA":" ","LANE":"９８巷","ALLEY":"３８弄","HOUSE_NO":"２６號","E_COORD97":175543.29999999999,"N_COORD97":2546047.2599999998,"ADDRESS":"富強路一段９８巷３８弄２６號","OBJECTID":93932},"geometry":{"x":175543.30000000075,"y":2546047.2600000016}},{"attributes":{"ID":93933,"DIS_CODE":0,"TOWNNAME":"永康區","LI":"西橋里","LIN":"21鄰","STREET":"大橋三街","SECT":" ","MAREA":" ","LANE":"５７巷","ALLEY":"１９弄","HOUSE_NO":"１０８號","E_COORD97":170424.35000000001,"N_COORD97":2546428.6299999999,"ADDRESS":"大橋三街５７巷１９弄１０８號","OBJECTID":93933},"geometry":{"x":170424.3499999987,"y":2546428.629999999}},{"attributes":{"ID":93934,"DIS_CODE":0,"TOWNNAME":"永康區","LI":"\u25A0行里","LIN":"21鄰","STREET":"正南五街","SECT":" ","MAREA":" ","LANE":"５２０巷","ALLEY":"５６弄","HOUSE_NO":"２號","E_COORD97":171700.66,"N_COORD97":2548779.5699999998,"ADDRESS":"正南五街５２０巷５６弄２號","OBJECTID":93934},"geometry":{"x":171700.66000000015,"y":2548779.5700000003}},{"attributes":{"ID":93935,"DIS_CODE":0,"TOWNNAME":"安南區","LI":"州南里","LIN":"21鄰","STREET":"安和路","SECT":"四段","MAREA":" ","LANE":"５３３巷","ALLEY":"１０５弄","HOUSE_NO":"２６號","E_COORD97":169703.56,"N_COORD97":2551133.8999999999,"ADDRESS":"安和路四段５３３巷１０５弄２６號","OBJECTID":93935},"geometry":{"x":169703.55999999959,"y":2551133.9000000004}},{"attributes":{"ID":93936,"DIS_CODE":0,"TOWNNAME":"安南區","LI":"州南里","LIN":"21鄰","STREET":"安和路","SECT":"四段","MAREA":" ","LANE":"５３３巷","ALLEY":"１０５弄","HOUSE_NO":"２６號之１","E_COORD97":169699.95000000001,"N_COORD97":2551133.6800000002,"ADDRESS":"安和路四段５３３巷１０５弄２６號之１","OBJECTID":93936},"geometry":{"x":169699.95000000019,"y":2551133.6800000016}},{"attributes":{"ID":93937,"DIS_CODE":0,"TOWNNAME":"安南區","LI":"州南里","LIN":"21鄰","STREET":"州南十街","SECT":" ","MAREA":" ","LANE":" ","ALLEY":" ","HOUSE_NO":"１６８號","E_COORD97":169699.66,"N_COORD97":2551097.4500000002,"ADDRESS":"州南十街１６８號","OBJECTID":93937},"geometry":{"x":169699.66000000108,"y":2551097.4500000011}},{"attributes":{"ID":93938,"DIS_CODE":0,"TOWNNAME":"安南區","LI":"州南里","LIN":"21鄰","STREET":"州南十街","SECT":" ","MAREA":" ","LANE":" ","ALLEY":" ","HOUSE_NO":"１７６號","E_COORD97":169686.79000000001,"N_COORD97":2551096.7799999998,"ADDRESS":"州南十街１７６號","OBJECTID":93938},"geometry":{"x":169686.79000000097,"y":2551096.7799999993}},{"attributes":{"ID":93939,"DIS_CODE":0,"TOWNNAME":"新營區","LI":"大宏里","LIN":"15鄰","STREET":"大同路","SECT":" ","MAREA":" ","LANE":" ","ALLEY":" ","HOUSE_NO":"４７號","E_COORD97":180672.37,"N_COORD97":2578885.1800000002,"ADDRESS":"大同路４７號","OBJECTID":93939},"geometry":{"x":180672.37000000197,"y":2578885.1799999997}},{"attributes":{"ID":93940,"DIS_CODE":0,"TOWNNAME":"南區","LI":"佛壇里","LIN":"15鄰","STREET":"興南街","SECT":" ","MAREA":" ","LANE":" ","ALLEY":" ","HOUSE_NO":"１０３號","E_COORD97":166160.25,"N_COORD97":2535848.7799999998,"ADDRESS":"興南街１０３號","OBJECTID":93940},"geometry":{"x":166160.25,"y":2535848.7800000012}},{"attributes":{"ID":93941,"DIS_CODE":0,"TOWNNAME":"南區","LI":"佛壇里","LIN":"15鄰","STREET":"興南街","SECT":" ","MAREA":" ","LANE":" ","ALLEY":" ","HOUSE_NO":"１０５號","E_COORD97":166155.47,"N_COORD97":2535846.9500000002,"ADDRESS":"興南街１０５號","OBJECTID":93941},"geometry":{"x":166155.47000000067,"y":2535846.9500000011}},{"attributes":{"ID":93942,"DIS_CODE":0,"TOWNNAME":"南區","LI":"佛壇里","LIN":"15鄰","STREET":"興南街","SECT":" ","MAREA":" ","LANE":" ","ALLEY":" ","HOUSE_NO":"１０７號","E_COORD97":166150.5,"N_COORD97":2535846.7599999998,"ADDRESS":"興南街１０７號","OBJECTID":93942},"geometry":{"x":166150.50000000093,"y":2535846.7599999998}},{"attributes":{"ID":93943,"DIS_CODE":0,"TOWNNAME":"官田區","LI":"二鎮里","LIN":"10鄰","STREET":" ","SECT":" ","MAREA":"二鎮","LANE":" ","ALLEY":" ","HOUSE_NO":"８７號之４６","E_COORD97":181649.04999999999,"N_COORD97":2568388.98,"ADDRESS":"二鎮８７號之４６","OBJECTID":93943},"geometry":{"x":181649.05000000075,"y":2568388.9800000023}},{"attributes":{"ID":93944,"DIS_CODE":0,"TOWNNAME":"官田區","LI":"二鎮里","LIN":"10鄰","STREET":" ","SECT":" ","MAREA":"二鎮","LANE":" ","ALLEY":" ","HOUSE_NO":"８７號之４７","E_COORD97":181649.42000000001,"N_COORD97":2568398.1000000001,"ADDRESS":"二鎮８７號之４７","OBJECTID":93944},"geometry":{"x":181649.41999999993,"y":2568398.1000000015}},{"attributes":{"ID":93945,"DIS_CODE":0,"TOWNNAME":"南區","LI":"佛壇里","LIN":"15鄰","STREET":"興南街","SECT":" ","MAREA":" ","LANE":" ","ALLEY":" ","HOUSE_NO":"１０９號","E_COORD97":166146.26999999999,"N_COORD97":2535845.6600000001,"ADDRESS":"興南街１０９號","OBJECTID":93945},"geometry":{"x":166146.27000000142,"y":2535845.6600000039}},{"attributes":{"ID":93946,"DIS_CODE":0,"TOWNNAME":"南區","LI":"佛壇里","LIN":"15鄰","STREET":"興南街","SECT":" ","MAREA":" ","LANE":" ","ALLEY":" ","HOUSE_NO":"１１１號","E_COORD97":166142.78,"N_COORD97":2535843.6400000001,"ADDRESS":"興南街１１１號","OBJECTID":93946},"geometry":{"x":166142.78000000026,"y":2535843.6400000025}},{"attributes":{"ID":93947,"DIS_CODE":0,"TOWNNAME":"南區","LI":"佛壇里","LIN":"15鄰","STREET":"興南街","SECT":" ","MAREA":" ","LANE":" ","ALLEY":" ","HOUSE_NO":"１１３號","E_COORD97":166138.91,"N_COORD97":2535839.4199999999,"ADDRESS":"興南街１１３號","OBJECTID":93947},"geometry":{"x":166138.91000000015,"y":2535839.4199999999}},{"attributes":{"ID":93948,"DIS_CODE":0,"TOWNNAME":"南區","LI":"佛壇里","LIN":"15鄰","STREET":"興南街","SECT":" ","MAREA":" ","LANE":" ","ALLEY":" ","HOUSE_NO":"１１５號","E_COORD97":166135.42000000001,"N_COORD97":2535837.21,"ADDRESS":"興南街１１５號","OBJECTID":93948},"geometry":{"x":166135.42000000179,"y":2535837.2100000028}},{"attributes":{"ID":93949,"DIS_CODE":0,"TOWNNAME":"安南區","LI":"州南里","LIN":"21鄰","STREET":"州南十街","SECT":" ","MAREA":" ","LANE":" ","ALLEY":" ","HOUSE_NO":"１７８號","E_COORD97":169682.28,"N_COORD97":2551096.3300000001,"ADDRESS":"州南十街１７８號","OBJECTID":93949},"geometry":{"x":169682.28000000026,"y":2551096.3300000001}},{"attributes":{"ID":93950,"DIS_CODE":0,"TOWNNAME":"安南區","LI":"州南里","LIN":"21鄰","STREET":"州南十街","SECT":" ","MAREA":" ","LANE":" ","ALLEY":" ","HOUSE_NO":"１８０號","E_COORD97":169677.54000000001,"N_COORD97":2551098.1299999999,"ADDRESS":"州南十街１８０號","OBJECTID":93950},"geometry":{"x":169677.54000000004,"y":2551098.1300000027}},{"attributes":{"ID":93951,"DIS_CODE":0,"TOWNNAME":"安南區","LI":"州南里","LIN":"21鄰","STREET":"州南十街","SECT":" ","MAREA":" ","LANE":" ","ALLEY":" ","HOUSE_NO":"１２１號","E_COORD97":169713.56,"N_COORD97":2551068.1000000001,"ADDRESS":"州南十街１２１號","OBJECTID":93951},"geometry":{"x":169713.55999999959,"y":2551068.0999999996}},{"attributes":{"ID":93952,"DIS_CODE":0,"TOWNNAME":"安南區","LI":"州南里","LIN":"21鄰","STREET":"州南十街","SECT":" ","MAREA":" ","LANE":" ","ALLEY":" ","HOUSE_NO":"１２５號","E_COORD97":169702.92000000001,"N_COORD97":2551067.02,"ADDRESS":"州南十街１２５號","OBJECTID":93952},"geometry":{"x":169702.92000000086,"y":2551067.0200000014}},{"attributes":{"ID":93953,"DIS_CODE":0,"TOWNNAME":"安南區","LI":"州南里","LIN":"21鄰","STREET":"州南十街","SECT":" ","MAREA":" ","LANE":" ","ALLEY":" ","HOUSE_NO":"１２９號","E_COORD97":169694.73999999999,"N_COORD97":2551067.29,"ADDRESS":"州南十街１２９號","OBJECTID":93953},"geometry":{"x":169694.74000000022,"y":2551067.290000001}},{"attributes":{"ID":93954,"DIS_CODE":0,"TOWNNAME":"安南區","LI":"州南里","LIN":"21鄰","STREET":"州南十街","SECT":" ","MAREA":" ","LANE":" ","ALLEY":" ","HOUSE_NO":"１３３號","E_COORD97":169684.85999999999,"N_COORD97":2551066.77,"ADDRESS":"州南十街１３３號","OBJECTID":93954},"geometry":{"x":169684.86000000127,"y":2551066.7699999996}},{"attributes":{"ID":93955,"DIS_CODE":0,"TOWNNAME":"安南區","LI":"州南里","LIN":"21鄰","STREET":"安和路","SECT":"四段","MAREA":" ","LANE":"５３３巷","ALLEY":"１０５弄","HOUSE_NO":"２６號之２","E_COORD97":169695.89000000001,"N_COORD97":2551132.1000000001,"ADDRESS":"安和路四段５３３巷１０５弄２６號之２","OBJECTID":93955},"geometry":{"x":169695.8900000006,"y":2551132.0999999996}},{"attributes":{"ID":93956,"DIS_CODE":0,"TOWNNAME":"安南區","LI":"州南里","LIN":"21鄰","STREET":"州南十街","SECT":" ","MAREA":" ","LANE":" ","ALLEY":" ","HOUSE_NO":"１３７號","E_COORD97":169681.04000000001,"N_COORD97":2551067.5800000001,"ADDRESS":"州南十街１３７號","OBJECTID":93956},"geometry":{"x":169681.0400000019,"y":2551067.5800000001}},{"attributes":{"ID":93957,"DIS_CODE":0,"TOWNNAME":"安南區","LI":"州南里","LIN":"21鄰","STREET":"安和路","SECT":"四段","MAREA":" ","LANE":"５３３巷","ALLEY":"１０５弄","HOUSE_NO":"２６號之３","E_COORD97":169691.60000000001,"N_COORD97":2551132.77,"ADDRESS":"安和路四段５３３巷１０５弄２６號之３","OBJECTID":93957},"geometry":{"x":169691.59999999963,"y":2551132.7700000014}},{"attributes":{"ID":93958,"DIS_CODE":0,"TOWNNAME":"安南區","LI":"州南里","LIN":"21鄰","STREET":"安和路","SECT":"四段","MAREA":" ","LANE":"５３３巷","ALLEY":"１０５弄","HOUSE_NO":"２６號之４","E_COORD97":169687.5,"N_COORD97":2551133.4199999999,"ADDRESS":"安和路四段５３３巷１０５弄２６號之４","OBJECTID":93958},"geometry":{"x":169687.5,"y":2551133.4199999999}},{"attributes":{"ID":93959,"DIS_CODE":0,"TOWNNAME":"南區","LI":"佛壇里","LIN":"15鄰","STREET":"興南街","SECT":" ","MAREA":" ","LANE":" ","ALLEY":" ","HOUSE_NO":"１５５號","E_COORD97":166067.16,"N_COORD97":2535768.0800000001,"ADDRESS":"興南街１５５號","OBJECTID":93959},"geometry":{"x":166067.16000000015,"y":2535768.0800000038}},{"attributes":{"ID":93960,"DIS_CODE":0,"TOWNNAME":"南區","LI":"國宅里","LIN":"15鄰","STREET":"尊南街","SECT":" ","MAREA":" ","LANE":" ","ALLEY":" ","HOUSE_NO":"５５號","E_COORD97":166803.45999999999,"N_COORD97":2541904.8500000001,"ADDRESS":"尊南街５５號","OBJECTID":93960},"geometry":{"x":166803.46000000089,"y":2541904.8499999996}},{"attributes":{"ID":93961,"DIS_CODE":0,"TOWNNAME":"歸仁區","LI":"西埔里","LIN":"15鄰","STREET":"保吉路","SECT":" ","MAREA":" ","LANE":" ","ALLEY":" ","HOUSE_NO":"３５０號","E_COORD97":176465.37,"N_COORD97":2545114.25,"ADDRESS":"保吉路３５０號","OBJECTID":93961},"geometry":{"x":176465.37000000104,"y":2545114.2500000037}},{"attributes":{"ID":93962,"DIS_CODE":0,"TOWNNAME":"歸仁區","LI":"大廟里","LIN":"15鄰","STREET":"大廟五街","SECT":" ","MAREA":" ","LANE":" ","ALLEY":" ","HOUSE_NO":"１１０號","E_COORD97":176071.51999999999,"N_COORD97":2544414.25,"ADDRESS":"大廟五街１１０號","OBJECTID":93962},"geometry":{"x":176071.51999999862,"y":2544414.25}},{"attributes":{"ID":93963,"DIS_CODE":0,"TOWNNAME":"歸仁區","LI":"武東里","LIN":"15鄰","STREET":"中正南路","SECT":"二段","MAREA":" ","LANE":" ","ALLEY":" ","HOUSE_NO":"７３號","E_COORD97":175838.26000000001,"N_COORD97":2536293.5,"ADDRESS":"中正南路二段７３號","OBJECTID":93963},"geometry":{"x":175838.26000000071,"y":2536293.5}},{"attributes":{"ID":93964,"DIS_CODE":0,"TOWNNAME":"官田區","LI":"二鎮里","LIN":"10鄰","STREET":" ","SECT":" ","MAREA":"二鎮","LANE":" ","ALLEY":" ","HOUSE_NO":"８７號之４８","E_COORD97":181649.82000000001,"N_COORD97":2568407.6699999999,"ADDRESS":"二鎮８７號之４８","OBJECTID":93964},"geometry":{"x":181649.82000000123,"y":2568407.6700000018}},{"attributes":{"ID":93965,"DIS_CODE":0,"TOWNNAME":"官田區","LI":"二鎮里","LIN":"10鄰","STREET":" ","SECT":" ","MAREA":"二鎮","LANE":" ","ALLEY":" ","HOUSE_NO":"８７號之４９","E_COORD97":181650.14999999999,"N_COORD97":2568416.04,"ADDRESS":"二鎮８７號之４９","OBJECTID":93965},"geometry":{"x":181650.15000000037,"y":2568416.0399999991}},{"attributes":{"ID":93966,"DIS_CODE":0,"TOWNNAME":"官田區","LI":"二鎮里","LIN":"10鄰","STREET":" ","SECT":" ","MAREA":"二鎮","LANE":" ","ALLEY":" ","HOUSE_NO":"８７號之４","E_COORD97":181622.42000000001,"N_COORD97":2568358.0699999998,"ADDRESS":"二鎮８７號之４","OBJECTID":93966},"geometry":{"x":181622.41999999993,"y":2568358.0700000022}},{"attributes":{"ID":93967,"DIS_CODE":0,"TOWNNAME":"官田區","LI":"二鎮里","LIN":"10鄰","STREET":" ","SECT":" ","MAREA":"二鎮","LANE":" ","ALLEY":" ","HOUSE_NO":"８７號之５０","E_COORD97":181650.85999999999,"N_COORD97":2568425.5099999998,"ADDRESS":"二鎮８７號之５０","OBJECTID":93967},"geometry":{"x":181650.86000000127,"y":2568425.5100000016}},{"attributes":{"ID":93968,"DIS_CODE":0,"TOWNNAME":"官田區","LI":"二鎮里","LIN":"10鄰","STREET":" ","SECT":" ","MAREA":"二鎮","LANE":" ","ALLEY":" ","HOUSE_NO":"８７號之５１","E_COORD97":181650.92999999999,"N_COORD97":2568433.79,"ADDRESS":"二鎮８７號之５１","OBJECTID":93968},"geometry":{"x":181650.9299999997,"y":2568433.7899999991}},{"attributes":{"ID":93969,"DIS_CODE":0,"TOWNNAME":"官田區","LI":"二鎮里","LIN":"10鄰","STREET":" ","SECT":" ","MAREA":"二鎮","LANE":" ","ALLEY":" ","HOUSE_NO":"８７號之５２","E_COORD97":181652.28,"N_COORD97":2568447.8700000001,"ADDRESS":"二鎮８７號之５２","OBJECTID":93969},"geometry":{"x":181652.28000000026,"y":2568447.8700000029}},{"attributes":{"ID":93970,"DIS_CODE":0,"TOWNNAME":"官田區","LI":"二鎮里","LIN":"10鄰","STREET":" ","SECT":" ","MAREA":"二鎮","LANE":" ","ALLEY":" ","HOUSE_NO":"８７號之５４","E_COORD97":181661.42000000001,"N_COORD97":2568445.7999999998,"ADDRESS":"二鎮８７號之５４","OBJECTID":93970},"geometry":{"x":181661.41999999993,"y":2568445.8000000007}},{"attributes":{"ID":93971,"DIS_CODE":0,"TOWNNAME":"官田區","LI":"二鎮里","LIN":"10鄰","STREET":" ","SECT":" ","MAREA":"二鎮","LANE":" ","ALLEY":" ","HOUSE_NO":"８７號之５５","E_COORD97":181666.97,"N_COORD97":2568444.1299999999,"ADDRESS":"二鎮８７號之５５","OBJECTID":93971},"geometry":{"x":181666.97000000067,"y":2568444.1300000008}},{"attributes":{"ID":93972,"DIS_CODE":0,"TOWNNAME":"官田區","LI":"二鎮里","LIN":"10鄰","STREET":" ","SECT":" ","MAREA":"二鎮","LANE":" ","ALLEY":" ","HOUSE_NO":"８７號之５６","E_COORD97":181660.34,"N_COORD97":2568437.2799999998,"ADDRESS":"二鎮８７號之５６","OBJECTID":93972},"geometry":{"x":181660.33999999892,"y":2568437.2800000012}},{"attributes":{"ID":93973,"DIS_CODE":0,"TOWNNAME":"官田區","LI":"二鎮里","LIN":"10鄰","STREET":" ","SECT":" ","MAREA":"二鎮","LANE":" ","ALLEY":" ","HOUSE_NO":"８７號之５７","E_COORD97":181659.63,"N_COORD97":2568431.9700000002,"ADDRESS":"二鎮８７號之５７","OBJECTID":93973},"geometry":{"x":181659.62999999989,"y":2568431.9700000007}},{"attributes":{"ID":93974,"DIS_CODE":0,"TOWNNAME":"官田區","LI":"二鎮里","LIN":"10鄰","STREET":" ","SECT":" ","MAREA":"二鎮","LANE":" ","ALLEY":" ","HOUSE_NO":"８７號之５８","E_COORD97":181659.51000000001,"N_COORD97":2568427.1800000002,"ADDRESS":"二鎮８７號之５８","OBJECTID":93974},"geometry":{"x":181659.51000000071,"y":2568427.1800000016}},{"attributes":{"ID":93975,"DIS_CODE":0,"TOWNNAME":"歸仁區","LI":"武東里","LIN":"15鄰","STREET":"中正南路","SECT":"二段","MAREA":" ","LANE":" ","ALLEY":" ","HOUSE_NO":"５１號","E_COORD97":175856.95999999999,"N_COORD97":2536339.5,"ADDRESS":"中正南路二段５１號","OBJECTID":93975},"geometry":{"x":175856.95999999996,"y":2536339.5000000019}},{"attributes":{"ID":93976,"DIS_CODE":0,"TOWNNAME":"歸仁區","LI":"大廟里","LIN":"15鄰","STREET":"大廟五街","SECT":" ","MAREA":" ","LANE":" ","ALLEY":" ","HOUSE_NO":"１３６號","E_COORD97":176082.88,"N_COORD97":2544466.5299999998,"ADDRESS":"大廟五街１３６號","OBJECTID":93976},"geometry":{"x":176082.87999999989,"y":2544466.5299999993}},{"attributes":{"ID":93977,"DIS_CODE":0,"TOWNNAME":"歸仁區","LI":"武東里","LIN":"15鄰","STREET":"中正南路","SECT":"二段","MAREA":" ","LANE":" ","ALLEY":" ","HOUSE_NO":"６１號","E_COORD97":175847.66,"N_COORD97":2536318.5,"ADDRESS":"中正南路二段６１號","OBJECTID":93977},"geometry":{"x":175847.66000000108,"y":2536318.5000000019}},{"attributes":{"ID":93978,"DIS_CODE":0,"TOWNNAME":"歸仁區","LI":"大廟里","LIN":"15鄰","STREET":"大廟五街","SECT":" ","MAREA":" ","LANE":" ","ALLEY":" ","HOUSE_NO":"１２６號","E_COORD97":176074.57999999999,"N_COORD97":2544444.5299999998,"ADDRESS":"大廟五街１２６號","OBJECTID":93978},"geometry":{"x":176074.58000000007,"y":2544444.5300000012}},{"attributes":{"ID":93979,"DIS_CODE":0,"TOWNNAME":"歸仁區","LI":"武東里","LIN":"15鄰","STREET":"高鐵六路","SECT":" ","MAREA":" ","LANE":" ","ALLEY":" ","HOUSE_NO":"６３號","E_COORD97":176051.14000000001,"N_COORD97":2536135.25,"ADDRESS":"高鐵六路６３號","OBJECTID":93979},"geometry":{"x":176051.1400000006,"y":2536135.25}},{"attributes":{"ID":93980,"DIS_CODE":0,"TOWNNAME":"官田區","LI":"二鎮里","LIN":"10鄰","STREET":" ","SECT":" ","MAREA":"二鎮","LANE":" ","ALLEY":" ","HOUSE_NO":"８７號之５９","E_COORD97":181659.32999999999,"N_COORD97":2568422.3300000001,"ADDRESS":"二鎮８７號之５９","OBJECTID":93980},"geometry":{"x":181659.33000000101,"y":2568422.3300000001}},{"attributes":{"ID":93981,"DIS_CODE":0,"TOWNNAME":"官田區","LI":"二鎮里","LIN":"10鄰","STREET":" ","SECT":" ","MAREA":"二鎮","LANE":" ","ALLEY":" ","HOUSE_NO":"８７號之５","E_COORD97":181622.62,"N_COORD97":2568362.9399999999,"ADDRESS":"二鎮８７號之５","OBJECTID":93981},"geometry":{"x":181622.62000000011,"y":2568362.9399999995}},{"attributes":{"ID":93982,"DIS_CODE":0,"TOWNNAME":"官田區","LI":"二鎮里","LIN":"10鄰","STREET":" ","SECT":" ","MAREA":"二鎮","LANE":" ","ALLEY":" ","HOUSE_NO":"８７號之６０","E_COORD97":181659.09,"N_COORD97":2568417.25,"ADDRESS":"二鎮８７號之６０","OBJECTID":93982},"geometry":{"x":181659.09000000078,"y":2568417.2500000019}},{"attributes":{"ID":93983,"DIS_CODE":0,"TOWNNAME":"官田區","LI":"二鎮里","LIN":"10鄰","STREET":" ","SECT":" ","MAREA":"二鎮","LANE":" ","ALLEY":" ","HOUSE_NO":"８７號之６１","E_COORD97":181658.53,"N_COORD97":2568412.3599999999,"ADDRESS":"二鎮８７號之６１","OBJECTID":93983},"geometry":{"x":181658.53000000119,"y":2568412.3600000013}},{"attributes":{"ID":93984,"DIS_CODE":0,"TOWNNAME":"安南區","LI":"州南里","LIN":"21鄰","STREET":"安和路","SECT":"四段","MAREA":" ","LANE":"５３３巷","ALLEY":"１０５弄","HOUSE_NO":"２６號之５","E_COORD97":169683.20999999999,"N_COORD97":2551132.75,"ADDRESS":"安和路四段５３３巷１０５弄２６號之５","OBJECTID":93984},"geometry":{"x":169683.21000000183,"y":2551132.7500000019}},{"attributes":{"ID":93985,"DIS_CODE":0,"TOWNNAME":"安南區","LI":"州南里","LIN":"21鄰","STREET":"安和路","SECT":"四段","MAREA":" ","LANE":"５３３巷","ALLEY":"１０５弄","HOUSE_NO":"２６號之６","E_COORD97":169678.25,"N_COORD97":2551131.8500000001,"ADDRESS":"安和路四段５３３巷１０５弄２６號之６","OBJECTID":93985},"geometry":{"x":169678.25000000093,"y":2551131.8500000015}},{"attributes":{"ID":93986,"DIS_CODE":0,"TOWNNAME":"安南區","LI":"州南里","LIN":"21鄰","STREET":"安和路","SECT":"四段","MAREA":" ","LANE":"５３３巷","ALLEY":"１０５弄","HOUSE_NO":"２６號之７","E_COORD97":169675.09,"N_COORD97":2551130.9399999999,"ADDRESS":"安和路四段５３３巷１０５弄２６號之７","OBJECTID":93986},"geometry":{"x":169675.08999999985,"y":2551130.9400000013}},{"attributes":{"ID":93987,"DIS_CODE":0,"TOWNNAME":"安南區","LI":"州南里","LIN":"21鄰","STREET":"州南十街","SECT":" ","MAREA":" ","LANE":" ","ALLEY":" ","HOUSE_NO":"１６２號","E_COORD97":169707.32999999999,"N_COORD97":2551097.4500000002,"ADDRESS":"州南十街１６２號","OBJECTID":93987},"geometry":{"x":169707.33000000007,"y":2551097.4500000011}},{"attributes":{"ID":93988,"DIS_CODE":0,"TOWNNAME":"官田區","LI":"二鎮里","LIN":"10鄰","STREET":" ","SECT":" ","MAREA":"二鎮","LANE":" ","ALLEY":" ","HOUSE_NO":"８７號之６２","E_COORD97":181658.39000000001,"N_COORD97":2568407.02,"ADDRESS":"二鎮８７號之６２","OBJECTID":93988},"geometry":{"x":181658.3900000006,"y":2568407.0199999977}},{"attributes":{"ID":93989,"DIS_CODE":0,"TOWNNAME":"官田區","LI":"二鎮里","LIN":"10鄰","STREET":" ","SECT":" ","MAREA":"二鎮","LANE":" ","ALLEY":" ","HOUSE_NO":"８７號之６３","E_COORD97":181657.98999999999,"N_COORD97":2568401.9900000002,"ADDRESS":"二鎮８７號之６３","OBJECTID":93989},"geometry":{"x":181657.99000000022,"y":2568401.9900000021}},{"attributes":{"ID":93990,"DIS_CODE":0,"TOWNNAME":"官田區","LI":"二鎮里","LIN":"10鄰","STREET":" ","SECT":" ","MAREA":"二鎮","LANE":" ","ALLEY":" ","HOUSE_NO":"８７號之６４","E_COORD97":181658.37,"N_COORD97":2568397.0499999998,"ADDRESS":"二鎮８７號之６４","OBJECTID":93990},"geometry":{"x":181658.37000000011,"y":2568397.0500000007}},{"attributes":{"ID":93991,"DIS_CODE":0,"TOWNNAME":"官田區","LI":"二鎮里","LIN":"10鄰","STREET":" ","SECT":" ","MAREA":"二鎮","LANE":" ","ALLEY":" ","HOUSE_NO":"８７號之６５","E_COORD97":181658.07999999999,"N_COORD97":2568391.9199999999,"ADDRESS":"二鎮８７號之６５","OBJECTID":93991},"geometry":{"x":181658.08000000101,"y":2568391.9200000018}},{"attributes":{"ID":93992,"DIS_CODE":0,"TOWNNAME":"官田區","LI":"二鎮里","LIN":"10鄰","STREET":" ","SECT":" ","MAREA":"二鎮","LANE":" ","ALLEY":" ","HOUSE_NO":"８７號之６６","E_COORD97":181657.57000000001,"N_COORD97":2568386.7999999998,"ADDRESS":"二鎮８７號之６６","OBJECTID":93992},"geometry":{"x":181657.56999999937,"y":2568386.8000000026}},{"attributes":{"ID":93993,"DIS_CODE":0,"TOWNNAME":"官田區","LI":"二鎮里","LIN":"10鄰","STREET":" ","SECT":" ","MAREA":"二鎮","LANE":" ","ALLEY":" ","HOUSE_NO":"８７號之６７","E_COORD97":181659.85999999999,"N_COORD97":2568376.3500000001,"ADDRESS":"二鎮８７號之６７","OBJECTID":93993},"geometry":{"x":181659.86000000127,"y":2568376.3499999996}},{"attributes":{"ID":93994,"DIS_CODE":0,"TOWNNAME":"歸仁區","LI":"西埔里","LIN":"15鄰","STREET":"西埔二街","SECT":" ","MAREA":" ","LANE":"７０巷","ALLEY":" ","HOUSE_NO":"３０號","E_COORD97":176900.79000000001,"N_COORD97":2544872.3700000001,"ADDRESS":"西埔二街７０巷３０號","OBJECTID":93994},"geometry":{"x":176900.78999999911,"y":2544872.370000001}},{"attributes":{"ID":93995,"DIS_CODE":0,"TOWNNAME":"東山區","LI":"東中里","LIN":"8鄰","STREET":"中興南路","SECT":" ","MAREA":" ","LANE":" ","ALLEY":" ","HOUSE_NO":"５０號","E_COORD97":188963.75,"N_COORD97":2579826.5299999998,"ADDRESS":"中興南路５０號","OBJECTID":93995},"geometry":{"x":188963.75,"y":2579826.5300000012}},{"attributes":{"ID":93996,"DIS_CODE":0,"TOWNNAME":"東山區","LI":"東中里","LIN":"8鄰","STREET":"中興南路","SECT":" ","MAREA":" ","LANE":" ","ALLEY":" ","HOUSE_NO":"５２號","E_COORD97":188964.16,"N_COORD97":2579831.0299999998,"ADDRESS":"中興南路５２號","OBJECTID":93996},"geometry":{"x":188964.16000000015,"y":2579831.0299999993}},{"attributes":{"ID":93997,"DIS_CODE":0,"TOWNNAME":"官田區","LI":"二鎮里","LIN":"10鄰","STREET":" ","SECT":" ","MAREA":"二鎮","LANE":" ","ALLEY":" ","HOUSE_NO":"８７號之６９","E_COORD97":181658.82000000001,"N_COORD97":2568367.5099999998,"ADDRESS":"二鎮８７號之６９","OBJECTID":93997},"geometry":{"x":181658.8200000003,"y":2568367.5100000016}},{"attributes":{"ID":93998,"DIS_CODE":0,"TOWNNAME":"官田區","LI":"二鎮里","LIN":"10鄰","STREET":" ","SECT":" ","MAREA":"二鎮","LANE":" ","ALLEY":" ","HOUSE_NO":"８７號之６","E_COORD97":181622.51999999999,"N_COORD97":2568367.8399999999,"ADDRESS":"二鎮８７號之６","OBJECTID":93998},"geometry":{"x":181622.51999999955,"y":2568367.839999998}},{"attributes":{"ID":93999,"DIS_CODE":0,"TOWNNAME":"官田區","LI":"二鎮里","LIN":"10鄰","STREET":" ","SECT":" ","MAREA":"二鎮","LANE":" ","ALLEY":" ","HOUSE_NO":"８７號之７０","E_COORD97":181658.84,"N_COORD97":2568362.8599999999,"ADDRESS":"二鎮８７號之７０","OBJECTID":93999},"geometry":{"x":181658.84000000171,"y":2568362.8599999994}},{"attributes":{"ID":94000,"DIS_CODE":0,"TOWNNAME":"官田區","LI":"二鎮里","LIN":"10鄰","STREET":" ","SECT":" ","MAREA":"二鎮","LANE":" ","ALLEY":" ","HOUSE_NO":"８７號之７１","E_COORD97":181658.60000000001,"N_COORD97":2568358.2400000002,"ADDRESS":"二鎮８７號之７１","OBJECTID":94000},"geometry":{"x":181658.60000000149,"y":2568358.2400000002}}]}