{"displayFieldName":"TOWNNAME","fieldAliases":{"ID":"ID","DIS_CODE":"DIS_CODE","TOWNNAME":"TOWNNAME","LI":"LI","LIN":"LIN","STREET":"STREET","SECT":"SECT","MAREA":"MAREA","LANE":"LANE","ALLEY":"ALLEY","HOUSE_NO":"HOUSE_NO","E_COORD97":"E_COORD97","N_COORD97":"N_COORD97","ADDRESS":"ADDRESS","OBJECTID":"OBJECTID"},"geometryType":"esriGeometryPoint","spatialReference":{"wkid":102443,"latestWkid":3826},"fields":[{"name":"ID","type":"esriFieldTypeDouble","alias":"ID"},{"name":"DIS_CODE","type":"esriFieldTypeInteger","alias":"DIS_CODE"},{"name":"TOWNNAME","type":"esriFieldTypeString","alias":"TOWNNAME","length":8},{"name":"LI","type":"esriFieldTypeString","alias":"LI","length":8},{"name":"LIN","type":"esriFieldTypeString","alias":"LIN","length":12},{"name":"STREET","type":"esriFieldTypeString","alias":"STREET","length":20},{"name":"SECT","type":"esriFieldTypeString","alias":"SECT","length":8},{"name":"MAREA","type":"esriFieldTypeString","alias":"MAREA","length":12},{"name":"LANE","type":"esriFieldTypeString","alias":"LANE","length":10},{"name":"ALLEY","type":"esriFieldTypeString","alias":"ALLEY","length":10},{"name":"HOUSE_NO","type":"esriFieldTypeString","alias":"HOUSE_NO","length":20},{"name":"E_COORD97","type":"esriFieldTypeDouble","alias":"E_COORD97"},{"name":"N_COORD97","type":"esriFieldTypeDouble","alias":"N_COORD97"},{"name":"ADDRESS","type":"esriFieldTypeString","alias":"ADDRESS","length":50},{"name":"OBJECTID","type":"esriFieldTypeOID","alias":"OBJECTID"}],"features":[{"attributes":{"ID":179202,"DIS_CODE":0,"TOWNNAME":"安南區","LI":"安東里","LIN":"24鄰","STREET":"安和路","SECT":"二段","MAREA":" ","LANE":" ","ALLEY":" ","HOUSE_NO":"６號","E_COORD97":169444.64999999999,"N_COORD97":2548522.71,"ADDRESS":"安和路二段６號","OBJECTID":179201},"geometry":{"x":169444.65000000037,"y":2548522.7100000046}},{"attributes":{"ID":179203,"DIS_CODE":0,"TOWNNAME":"安南區","LI":"安東里","LIN":"24鄰","STREET":"安和路","SECT":"二段","MAREA":" ","LANE":" ","ALLEY":" ","HOUSE_NO":"８號之１","E_COORD97":169446.04000000001,"N_COORD97":2548530.6699999999,"ADDRESS":"安和路二段８號之１","OBJECTID":179202},"geometry":{"x":169446.04000000097,"y":2548530.6699999999}},{"attributes":{"ID":179204,"DIS_CODE":0,"TOWNNAME":"安南區","LI":"安東里","LIN":"24鄰","STREET":"安和路","SECT":"二段","MAREA":" ","LANE":" ","ALLEY":" ","HOUSE_NO":"８號之２","E_COORD97":169444.64999999999,"N_COORD97":2548535.98,"ADDRESS":"安和路二段８號之２","OBJECTID":179203},"geometry":{"x":169444.65000000037,"y":2548535.9800000004}},{"attributes":{"ID":179205,"DIS_CODE":0,"TOWNNAME":"永康區","LI":"西勢里","LIN":"18鄰","STREET":"富強路","SECT":"一段","MAREA":" ","LANE":"２巷","ALLEY":"８弄","HOUSE_NO":"５１號","E_COORD97":175455.19,"N_COORD97":2546003.7799999998,"ADDRESS":"富強路一段２巷８弄５１號","OBJECTID":179204},"geometry":{"x":175455.19000000041,"y":2546003.7799999993}},{"attributes":{"ID":179206,"DIS_CODE":0,"TOWNNAME":"永康區","LI":"西勢里","LIN":"20鄰","STREET":"富強路","SECT":"一段","MAREA":" ","LANE":"１８５巷","ALLEY":"１０弄","HOUSE_NO":"９號","E_COORD97":175521.16,"N_COORD97":2546465.8199999998,"ADDRESS":"富強路一段１８５巷１０弄９號","OBJECTID":179205},"geometry":{"x":175521.16000000108,"y":2546465.8200000003}},{"attributes":{"ID":179207,"DIS_CODE":0,"TOWNNAME":"永康區","LI":"西勢里","LIN":"20鄰","STREET":"富強路","SECT":"一段","MAREA":" ","LANE":"１８５巷","ALLEY":"２弄","HOUSE_NO":"１４號","E_COORD97":175565.44,"N_COORD97":2546444.1299999999,"ADDRESS":"富強路一段１８５巷２弄１４號","OBJECTID":179206},"geometry":{"x":175565.44000000041,"y":2546444.1300000008}},{"attributes":{"ID":179208,"DIS_CODE":0,"TOWNNAME":"永康區","LI":"尚頂里","LIN":"18鄰","STREET":"南台街","SECT":" ","MAREA":" ","LANE":"５４巷","ALLEY":"１８弄","HOUSE_NO":"５號","E_COORD97":170351.13,"N_COORD97":2547117.7400000002,"ADDRESS":"南台街５４巷１８弄５號","OBJECTID":179207},"geometry":{"x":170351.12999999989,"y":2547117.7400000002}},{"attributes":{"ID":179209,"DIS_CODE":0,"TOWNNAME":"永康區","LI":"西灣里","LIN":"42鄰","STREET":"大灣路","SECT":" ","MAREA":" ","LANE":"９４２巷","ALLEY":"３７４弄","HOUSE_NO":"２６號","E_COORD97":174010.53,"N_COORD97":2545399.0600000001,"ADDRESS":"大灣路９４２巷３７４弄２６號","OBJECTID":179208},"geometry":{"x":174010.53000000026,"y":2545399.0600000024}},{"attributes":{"ID":179210,"DIS_CODE":0,"TOWNNAME":"安南區","LI":"海東里","LIN":"21鄰","STREET":"海東二街","SECT":" ","MAREA":" ","LANE":" ","ALLEY":" ","HOUSE_NO":"５３號","E_COORD97":166880.40989800001,"N_COORD97":2547893.91775,"ADDRESS":"海東二街５３號","OBJECTID":179209},"geometry":{"x":166880.40989800077,"y":2547893.9177470002}},{"attributes":{"ID":179211,"DIS_CODE":0,"TOWNNAME":"永康區","LI":"西橋里","LIN":"4鄰","STREET":"中山南路","SECT":" ","MAREA":" ","LANE":"４３巷","ALLEY":"１０弄","HOUSE_NO":"３號","E_COORD97":170768.01999999999,"N_COORD97":2545894.75,"ADDRESS":"中山南路４３巷１０弄３號","OBJECTID":179210},"geometry":{"x":170768.02000000048,"y":2545894.7500000019}},{"attributes":{"ID":179212,"DIS_CODE":0,"TOWNNAME":"永康區","LI":"西橋里","LIN":"18鄰","STREET":"大橋一街","SECT":" ","MAREA":" ","LANE":"３１巷","ALLEY":"６５弄","HOUSE_NO":"２號","E_COORD97":170608.17999999999,"N_COORD97":2546457.4900000002,"ADDRESS":"大橋一街３１巷６５弄２號","OBJECTID":179211},"geometry":{"x":170608.1799999997,"y":2546457.4900000002}},{"attributes":{"ID":179213,"DIS_CODE":0,"TOWNNAME":"永康區","LI":"西灣里","LIN":"42鄰","STREET":"大灣路","SECT":" ","MAREA":" ","LANE":"９４２巷","ALLEY":"３７４弄","HOUSE_NO":"２號之３","E_COORD97":173969.79000000001,"N_COORD97":2545417.6499999999,"ADDRESS":"大灣路９４２巷３７４弄２號之３","OBJECTID":179212},"geometry":{"x":173969.79000000004,"y":2545417.6500000022}},{"attributes":{"ID":179214,"DIS_CODE":0,"TOWNNAME":"永康區","LI":"西勢里","LIN":"18鄰","STREET":"富強路","SECT":"一段","MAREA":" ","LANE":"２巷","ALLEY":"８弄","HOUSE_NO":"４６號","E_COORD97":175472.32999999999,"N_COORD97":2545980.6200000001,"ADDRESS":"富強路一段２巷８弄４６號","OBJECTID":179213},"geometry":{"x":175472.33000000101,"y":2545980.6199999992}},{"attributes":{"ID":179215,"DIS_CODE":0,"TOWNNAME":"永康區","LI":"西勢里","LIN":"20鄰","STREET":"富強路","SECT":"一段","MAREA":" ","LANE":"１８５巷","ALLEY":"２弄","HOUSE_NO":"４號","E_COORD97":175553.19,"N_COORD97":2546424.6299999999,"ADDRESS":"富強路一段１８５巷２弄４號","OBJECTID":179214},"geometry":{"x":175553.19000000134,"y":2546424.629999999}},{"attributes":{"ID":179216,"DIS_CODE":0,"TOWNNAME":"永康區","LI":"西勢里","LIN":"20鄰","STREET":"富強路","SECT":"一段","MAREA":" ","LANE":"１８５巷","ALLEY":"１０弄","HOUSE_NO":"１２號","E_COORD97":175546.81,"N_COORD97":2546467.0699999998,"ADDRESS":"富強路一段１８５巷１０弄１２號","OBJECTID":179215},"geometry":{"x":175546.80999999959,"y":2546467.0700000003}},{"attributes":{"ID":179217,"DIS_CODE":0,"TOWNNAME":"永康區","LI":"西勢里","LIN":"24鄰","STREET":"廣興街","SECT":" ","MAREA":" ","LANE":"２６巷","ALLEY":"２２弄","HOUSE_NO":"６號","E_COORD97":175906.73000000001,"N_COORD97":2546466.7599999998,"ADDRESS":"廣興街２６巷２２弄６號","OBJECTID":179216},"geometry":{"x":175906.73000000231,"y":2546466.7600000035}},{"attributes":{"ID":179218,"DIS_CODE":0,"TOWNNAME":"永康區","LI":"西勢里","LIN":"24鄰","STREET":"廣興街","SECT":" ","MAREA":" ","LANE":"３８巷","ALLEY":"２５弄","HOUSE_NO":"３號之１","E_COORD97":176015.78,"N_COORD97":2546497.29,"ADDRESS":"廣興街３８巷２５弄３號之１","OBJECTID":179217},"geometry":{"x":176015.78000000026,"y":2546497.290000001}},{"attributes":{"ID":179219,"DIS_CODE":0,"TOWNNAME":"永康區","LI":"西橋里","LIN":"13鄰","STREET":"大橋一街","SECT":" ","MAREA":" ","LANE":"３１巷","ALLEY":"２５弄","HOUSE_NO":"２號","E_COORD97":170566.92000000001,"N_COORD97":2546304.75,"ADDRESS":"大橋一街３１巷２５弄２號","OBJECTID":179218},"geometry":{"x":170566.92000000086,"y":2546304.7500000019}},{"attributes":{"ID":179220,"DIS_CODE":0,"TOWNNAME":"永康區","LI":"西橋里","LIN":"20鄰","STREET":"大橋三街","SECT":" ","MAREA":" ","LANE":"５７巷","ALLEY":"７弄","HOUSE_NO":"１９號","E_COORD97":170545.95999999999,"N_COORD97":2546510.25,"ADDRESS":"大橋三街５７巷７弄１９號","OBJECTID":179219},"geometry":{"x":170545.95999999996,"y":2546510.25}},{"attributes":{"ID":179221,"DIS_CODE":0,"TOWNNAME":"永康區","LI":"西勢里","LIN":"26鄰","STREET":"廣興街","SECT":" ","MAREA":" ","LANE":"３８巷","ALLEY":"１４弄","HOUSE_NO":"１號","E_COORD97":175955.73999999999,"N_COORD97":2546496.9900000002,"ADDRESS":"廣興街３８巷１４弄１號","OBJECTID":179220},"geometry":{"x":175955.74000000115,"y":2546496.9900000021}},{"attributes":{"ID":179222,"DIS_CODE":0,"TOWNNAME":"永康區","LI":"西勢里","LIN":"25鄰","STREET":"廣興街","SECT":" ","MAREA":" ","LANE":"２６巷","ALLEY":"２２弄","HOUSE_NO":"１號","E_COORD97":175918.31,"N_COORD97":2546462.4900000002,"ADDRESS":"廣興街２６巷２２弄１號","OBJECTID":179221},"geometry":{"x":175918.30999999959,"y":2546462.4900000039}},{"attributes":{"ID":179223,"DIS_CODE":0,"TOWNNAME":"永康區","LI":"西灣里","LIN":"42鄰","STREET":"大灣路","SECT":" ","MAREA":" ","LANE":"９４２巷","ALLEY":"３７４弄","HOUSE_NO":"１２號","E_COORD97":173989.64999999999,"N_COORD97":2545409.3500000001,"ADDRESS":"大灣路９４２巷３７４弄１２號","OBJECTID":179222},"geometry":{"x":173989.65000000037,"y":2545409.3500000015}},{"attributes":{"ID":179224,"DIS_CODE":0,"TOWNNAME":"永康區","LI":"西灣里","LIN":"43鄰","STREET":"大灣路","SECT":" ","MAREA":" ","LANE":"９４２巷","ALLEY":"３８８弄","HOUSE_NO":"２２號","E_COORD97":174019.32999999999,"N_COORD97":2545454.3100000001,"ADDRESS":"大灣路９４２巷３８８弄２２號","OBJECTID":179223},"geometry":{"x":174019.33000000101,"y":2545454.3100000024}},{"attributes":{"ID":179225,"DIS_CODE":0,"TOWNNAME":"永康區","LI":"西橋里","LIN":"13鄰","STREET":"大橋一街","SECT":" ","MAREA":" ","LANE":"３１巷","ALLEY":"２５弄","HOUSE_NO":"１２號","E_COORD97":170551.54000000001,"N_COORD97":2546290.9900000002,"ADDRESS":"大橋一街３１巷２５弄１２號","OBJECTID":179224},"geometry":{"x":170551.54000000097,"y":2546290.9900000021}},{"attributes":{"ID":179226,"DIS_CODE":0,"TOWNNAME":"永康區","LI":"西勢里","LIN":"26鄰","STREET":"廣興街","SECT":" ","MAREA":" ","LANE":"３８巷","ALLEY":"１４弄","HOUSE_NO":"９號","E_COORD97":175944.5,"N_COORD97":2546485.9900000002,"ADDRESS":"廣興街３８巷１４弄９號","OBJECTID":179225},"geometry":{"x":175944.5,"y":2546485.9900000039}},{"attributes":{"ID":179227,"DIS_CODE":0,"TOWNNAME":"永康區","LI":"西灣里","LIN":"43鄰","STREET":"大灣路","SECT":" ","MAREA":" ","LANE":"９４２巷","ALLEY":"３７４弄","HOUSE_NO":"７號","E_COORD97":173978.60999999999,"N_COORD97":2545432.21,"ADDRESS":"大灣路９４２巷３７４弄７號","OBJECTID":179226},"geometry":{"x":173978.61000000127,"y":2545432.2100000028}},{"attributes":{"ID":179228,"DIS_CODE":0,"TOWNNAME":"永康區","LI":"西勢里","LIN":"20鄰","STREET":"富強路","SECT":"一段","MAREA":" ","LANE":"１８５巷","ALLEY":"２弄","HOUSE_NO":"８號","E_COORD97":175557.75,"N_COORD97":2546432.6299999999,"ADDRESS":"富強路一段１８５巷２弄８號","OBJECTID":179227},"geometry":{"x":175557.75,"y":2546432.6299999971}},{"attributes":{"ID":179229,"DIS_CODE":0,"TOWNNAME":"永康區","LI":"西勢里","LIN":"26鄰","STREET":"廣興街","SECT":" ","MAREA":" ","LANE":"３８巷","ALLEY":"１４弄","HOUSE_NO":"３號","E_COORD97":175952.82000000001,"N_COORD97":2546494.2400000002,"ADDRESS":"廣興街３８巷１４弄３號","OBJECTID":179228},"geometry":{"x":175952.8200000003,"y":2546494.2399999984}},{"attributes":{"ID":179230,"DIS_CODE":0,"TOWNNAME":"永康區","LI":"西勢里","LIN":"17鄰","STREET":"富強路","SECT":"一段","MAREA":" ","LANE":"２５４巷","ALLEY":"１６弄","HOUSE_NO":"６號","E_COORD97":175714.42999999999,"N_COORD97":2546432.3900000001,"ADDRESS":"富強路一段２５４巷１６弄６號","OBJECTID":179229},"geometry":{"x":175714.4299999997,"y":2546432.3900000006}},{"attributes":{"ID":179231,"DIS_CODE":0,"TOWNNAME":"永康區","LI":"西勢里","LIN":"18鄰","STREET":"富強路","SECT":"一段","MAREA":" ","LANE":"２巷","ALLEY":"８弄","HOUSE_NO":"８號","E_COORD97":175463.28,"N_COORD97":2545970.5499999998,"ADDRESS":"富強路一段２巷８弄８號","OBJECTID":179230},"geometry":{"x":175463.28000000026,"y":2545970.5499999989}},{"attributes":{"ID":179232,"DIS_CODE":0,"TOWNNAME":"永康區","LI":"西勢里","LIN":"20鄰","STREET":"富強路","SECT":"一段","MAREA":" ","LANE":"１８５巷","ALLEY":"２弄","HOUSE_NO":"２０號","E_COORD97":175572.29999999999,"N_COORD97":2546455.3799999999,"ADDRESS":"富強路一段１８５巷２弄２０號","OBJECTID":179231},"geometry":{"x":175572.30000000075,"y":2546455.3800000008}},{"attributes":{"ID":179233,"DIS_CODE":0,"TOWNNAME":"永康區","LI":"西勢里","LIN":"20鄰","STREET":"富強路","SECT":"一段","MAREA":" ","LANE":"１８５巷","ALLEY":"２弄","HOUSE_NO":"５號","E_COORD97":175569.20999999999,"N_COORD97":2546417.0299999998,"ADDRESS":"富強路一段１８５巷２弄５號","OBJECTID":179232},"geometry":{"x":175569.21000000089,"y":2546417.0300000031}},{"attributes":{"ID":179234,"DIS_CODE":0,"TOWNNAME":"永康區","LI":"西灣里","LIN":"42鄰","STREET":"大灣路","SECT":" ","MAREA":" ","LANE":"９４２巷","ALLEY":"３７４弄","HOUSE_NO":"６號","E_COORD97":173975.85000000001,"N_COORD97":2545413.8500000001,"ADDRESS":"大灣路９４２巷３７４弄６號","OBJECTID":179233},"geometry":{"x":173975.85000000149,"y":2545413.8499999996}},{"attributes":{"ID":179235,"DIS_CODE":0,"TOWNNAME":"永康區","LI":"西灣里","LIN":"43鄰","STREET":"大灣路","SECT":" ","MAREA":" ","LANE":"９４２巷","ALLEY":"３８８弄","HOUSE_NO":"２７號","E_COORD97":174029.23000000001,"N_COORD97":2545504.7599999998,"ADDRESS":"大灣路９４２巷３８８弄２７號","OBJECTID":179234},"geometry":{"x":174029.23000000138,"y":2545504.7600000016}},{"attributes":{"ID":179236,"DIS_CODE":0,"TOWNNAME":"永康區","LI":"西勢里","LIN":"26鄰","STREET":"廣興街","SECT":" ","MAREA":" ","LANE":"３８巷","ALLEY":"１４弄","HOUSE_NO":"１３號","E_COORD97":175935.64000000001,"N_COORD97":2546473.9900000002,"ADDRESS":"廣興街３８巷１４弄１３號","OBJECTID":179235},"geometry":{"x":175935.6400000006,"y":2546473.9900000021}},{"attributes":{"ID":179237,"DIS_CODE":0,"TOWNNAME":"永康區","LI":"西勢里","LIN":"20鄰","STREET":"富強路","SECT":"一段","MAREA":" ","LANE":"１８５巷","ALLEY":"２弄","HOUSE_NO":"３７號","E_COORD97":175605.81,"N_COORD97":2546478.02,"ADDRESS":"富強路一段１８５巷２弄３７號","OBJECTID":179236},"geometry":{"x":175605.81000000052,"y":2546478.0199999977}},{"attributes":{"ID":179238,"DIS_CODE":0,"TOWNNAME":"永康區","LI":"西勢里","LIN":"26鄰","STREET":"廣興街","SECT":" ","MAREA":" ","LANE":"３８巷","ALLEY":"１４弄","HOUSE_NO":"５號","E_COORD97":175950.20999999999,"N_COORD97":2546491.4900000002,"ADDRESS":"廣興街３８巷１４弄５號","OBJECTID":179237},"geometry":{"x":175950.20999999996,"y":2546491.4900000002}},{"attributes":{"ID":179239,"DIS_CODE":0,"TOWNNAME":"永康區","LI":"西灣里","LIN":"43鄰","STREET":"大灣路","SECT":" ","MAREA":" ","LANE":"９４２巷","ALLEY":"３７４弄","HOUSE_NO":"１號之２","E_COORD97":173965.88,"N_COORD97":2545435.5299999998,"ADDRESS":"大灣路９４２巷３７４弄１號之２","OBJECTID":179238},"geometry":{"x":173965.88000000175,"y":2545435.5299999993}},{"attributes":{"ID":179240,"DIS_CODE":0,"TOWNNAME":"永康區","LI":"西勢里","LIN":"20鄰","STREET":"富強路","SECT":"一段","MAREA":" ","LANE":"１８５巷","ALLEY":"１０弄","HOUSE_NO":"３號","E_COORD97":175514.45000000001,"N_COORD97":2546455.3300000001,"ADDRESS":"富強路一段１８５巷１０弄３號","OBJECTID":179239},"geometry":{"x":175514.45000000019,"y":2546455.3300000001}},{"attributes":{"ID":179241,"DIS_CODE":0,"TOWNNAME":"七股區","LI":"義合里","LIN":"11鄰","STREET":" ","SECT":" ","MAREA":"義合","LANE":" ","ALLEY":" ","HOUSE_NO":"９０號","E_COORD97":161563.76000000001,"N_COORD97":2555834.2799999998,"ADDRESS":"義合９０號","OBJECTID":179240},"geometry":{"x":161563.75999999978,"y":2555834.2800000012}},{"attributes":{"ID":179242,"DIS_CODE":0,"TOWNNAME":"永康區","LI":"西橋里","LIN":"13鄰","STREET":"大橋一街","SECT":" ","MAREA":" ","LANE":"３１巷","ALLEY":"２５弄","HOUSE_NO":"５號","E_COORD97":170559.14999999999,"N_COORD97":2546285.2400000002,"ADDRESS":"大橋一街３１巷２５弄５號","OBJECTID":179241},"geometry":{"x":170559.1500000013,"y":2546285.2400000021}},{"attributes":{"ID":179243,"DIS_CODE":0,"TOWNNAME":"永康區","LI":"西勢里","LIN":"24鄰","STREET":"廣興街","SECT":" ","MAREA":" ","LANE":"２６巷","ALLEY":"２２弄","HOUSE_NO":"２號","E_COORD97":175912.44,"N_COORD97":2546472.5099999998,"ADDRESS":"廣興街２６巷２２弄２號","OBJECTID":179242},"geometry":{"x":175912.44000000134,"y":2546472.5100000016}},{"attributes":{"ID":179244,"DIS_CODE":0,"TOWNNAME":"將軍區","LI":"鯤鯓里","LIN":"16鄰","STREET":" ","SECT":" ","MAREA":"鯤鯓","LANE":" ","ALLEY":" ","HOUSE_NO":"２５１之３號","E_COORD97":157080.01000000001,"N_COORD97":2565829.9300000002,"ADDRESS":"鯤鯓２５１之３號","OBJECTID":179243},"geometry":{"x":157080.00999999978,"y":2565829.9299999997}},{"attributes":{"ID":179245,"DIS_CODE":0,"TOWNNAME":"永康區","LI":"西勢里","LIN":"20鄰","STREET":"富強路","SECT":"一段","MAREA":" ","LANE":"１８５巷","ALLEY":"２弄","HOUSE_NO":"１５號","E_COORD97":175581.85999999999,"N_COORD97":2546435.5299999998,"ADDRESS":"富強路一段１８５巷２弄１５號","OBJECTID":179244},"geometry":{"x":175581.8600000022,"y":2546435.5300000012}},{"attributes":{"ID":179246,"DIS_CODE":0,"TOWNNAME":"永康區","LI":"西灣里","LIN":"43鄰","STREET":"大灣路","SECT":" ","MAREA":" ","LANE":"９４２巷","ALLEY":"３７４弄","HOUSE_NO":"１５號","E_COORD97":174000.03,"N_COORD97":2545422.7999999998,"ADDRESS":"大灣路９４２巷３７４弄１５號","OBJECTID":179245},"geometry":{"x":174000.03000000026,"y":2545422.8000000007}},{"attributes":{"ID":179247,"DIS_CODE":0,"TOWNNAME":"永康區","LI":"西橋里","LIN":"13鄰","STREET":"大橋一街","SECT":" ","MAREA":" ","LANE":"３１巷","ALLEY":"２５弄","HOUSE_NO":"１１號","E_COORD97":170549.54000000001,"N_COORD97":2546278.73,"ADDRESS":"大橋一街３１巷２５弄１１號","OBJECTID":179246},"geometry":{"x":170549.54000000097,"y":2546278.7300000023}},{"attributes":{"ID":179248,"DIS_CODE":0,"TOWNNAME":"永康區","LI":"西橋里","LIN":"13鄰","STREET":"大橋一街","SECT":" ","MAREA":" ","LANE":"３１巷","ALLEY":"２５弄","HOUSE_NO":"１５號","E_COORD97":170541.48999999999,"N_COORD97":2546274.2400000002,"ADDRESS":"大橋一街３１巷２５弄１５號","OBJECTID":179247},"geometry":{"x":170541.49000000115,"y":2546274.2400000039}},{"attributes":{"ID":179249,"DIS_CODE":0,"TOWNNAME":"永康區","LI":"西勢里","LIN":"20鄰","STREET":"富強路","SECT":"一段","MAREA":" ","LANE":"１８５巷","ALLEY":"２弄","HOUSE_NO":"２１號","E_COORD97":175588.45999999999,"N_COORD97":2546447.5299999998,"ADDRESS":"富強路一段１８５巷２弄２１號","OBJECTID":179248},"geometry":{"x":175588.45999999996,"y":2546447.5300000031}},{"attributes":{"ID":179250,"DIS_CODE":0,"TOWNNAME":"永康區","LI":"西勢里","LIN":"24鄰","STREET":"廣興街","SECT":" ","MAREA":" ","LANE":"３８巷","ALLEY":"２５弄","HOUSE_NO":"１６號","E_COORD97":176058.06,"N_COORD97":2546460.9700000002,"ADDRESS":"廣興街３８巷２５弄１６號","OBJECTID":179249},"geometry":{"x":176058.06000000052,"y":2546460.9700000025}},{"attributes":{"ID":179251,"DIS_CODE":0,"TOWNNAME":"永康區","LI":"西勢里","LIN":"24鄰","STREET":"廣興街","SECT":" ","MAREA":" ","LANE":"３８巷","ALLEY":"２５弄","HOUSE_NO":"３９號","E_COORD97":176044.35000000001,"N_COORD97":2546571.6099999999,"ADDRESS":"廣興街３８巷２５弄３９號","OBJECTID":179250},"geometry":{"x":176044.35000000056,"y":2546571.6099999994}},{"attributes":{"ID":179252,"DIS_CODE":0,"TOWNNAME":"永康區","LI":"西勢里","LIN":"24鄰","STREET":"廣興街","SECT":" ","MAREA":" ","LANE":"３８巷","ALLEY":"２５弄","HOUSE_NO":"１２號","E_COORD97":176050.35000000001,"N_COORD97":2546467.2200000002,"ADDRESS":"廣興街３８巷２５弄１２號","OBJECTID":179251},"geometry":{"x":176050.34999999963,"y":2546467.2200000007}},{"attributes":{"ID":179253,"DIS_CODE":0,"TOWNNAME":"永康區","LI":"西勢里","LIN":"24鄰","STREET":"廣興街","SECT":" ","MAREA":" ","LANE":"３８巷","ALLEY":"２５弄","HOUSE_NO":"４３號","E_COORD97":176052.12,"N_COORD97":2546567.8599999999,"ADDRESS":"廣興街３８巷２５弄４３號","OBJECTID":179252},"geometry":{"x":176052.12000000011,"y":2546567.8600000013}},{"attributes":{"ID":179254,"DIS_CODE":0,"TOWNNAME":"永康區","LI":"西勢里","LIN":"20鄰","STREET":"富強路","SECT":"一段","MAREA":" ","LANE":"１８５巷","ALLEY":"１０弄","HOUSE_NO":"３６號","E_COORD97":175566.35999999999,"N_COORD97":2546500.0699999998,"ADDRESS":"富強路一段１８５巷１０弄３６號","OBJECTID":179253},"geometry":{"x":175566.36000000034,"y":2546500.0700000022}},{"attributes":{"ID":179255,"DIS_CODE":0,"TOWNNAME":"永康區","LI":"西橋里","LIN":"13鄰","STREET":"大橋一街","SECT":" ","MAREA":" ","LANE":"３１巷","ALLEY":"２５弄","HOUSE_NO":"４號","E_COORD97":170565.32999999999,"N_COORD97":2546299.7400000002,"ADDRESS":"大橋一街３１巷２５弄４號","OBJECTID":179254},"geometry":{"x":170565.33000000007,"y":2546299.7400000002}},{"attributes":{"ID":179256,"DIS_CODE":0,"TOWNNAME":"永康區","LI":"西勢里","LIN":"24鄰","STREET":"廣興街","SECT":" ","MAREA":" ","LANE":"３８巷","ALLEY":"４７弄","HOUSE_NO":"２６號","E_COORD97":176102.57000000001,"N_COORD97":2546511.75,"ADDRESS":"廣興街３８巷４７弄２６號","OBJECTID":179255},"geometry":{"x":176102.57000000216,"y":2546511.7500000019}},{"attributes":{"ID":179257,"DIS_CODE":0,"TOWNNAME":"永康區","LI":"西勢里","LIN":"18鄰","STREET":"富強路","SECT":"一段","MAREA":" ","LANE":"２巷","ALLEY":"８弄","HOUSE_NO":"１７號","E_COORD97":175438.56,"N_COORD97":2546004.3799999999,"ADDRESS":"富強路一段２巷８弄１７號","OBJECTID":179256},"geometry":{"x":175438.55999999959,"y":2546004.3800000008}},{"attributes":{"ID":179258,"DIS_CODE":0,"TOWNNAME":"永康區","LI":"西勢里","LIN":"20鄰","STREET":"富強路","SECT":"一段","MAREA":" ","LANE":"１８５巷","ALLEY":"１０弄","HOUSE_NO":"５號","E_COORD97":175517.23999999999,"N_COORD97":2546458.3199999998,"ADDRESS":"富強路一段１８５巷１０弄５號","OBJECTID":179257},"geometry":{"x":175517.24000000115,"y":2546458.3200000022}},{"attributes":{"ID":179259,"DIS_CODE":0,"TOWNNAME":"永康區","LI":"西灣里","LIN":"43鄰","STREET":"大灣路","SECT":" ","MAREA":" ","LANE":"９４２巷","ALLEY":"３８８弄","HOUSE_NO":"１４號","E_COORD97":174003.48999999999,"N_COORD97":2545459.7000000002,"ADDRESS":"大灣路９４２巷３８８弄１４號","OBJECTID":179258},"geometry":{"x":174003.49000000115,"y":2545459.700000003}},{"attributes":{"ID":179260,"DIS_CODE":0,"TOWNNAME":"永康區","LI":"西灣里","LIN":"43鄰","STREET":"大灣路","SECT":" ","MAREA":" ","LANE":"９４２巷","ALLEY":"３７４弄","HOUSE_NO":"１號之１","E_COORD97":173960.23000000001,"N_COORD97":2545437.5299999998,"ADDRESS":"大灣路９４２巷３７４弄１號之１","OBJECTID":179259},"geometry":{"x":173960.23000000045,"y":2545437.5300000012}},{"attributes":{"ID":179261,"DIS_CODE":0,"TOWNNAME":"永康區","LI":"西勢里","LIN":"24鄰","STREET":"廣興街","SECT":" ","MAREA":" ","LANE":"３８巷","ALLEY":"２５弄","HOUSE_NO":"２４號","E_COORD97":176049.32000000001,"N_COORD97":2546493.1299999999,"ADDRESS":"廣興街３８巷２５弄２４號","OBJECTID":179260},"geometry":{"x":176049.3200000003,"y":2546493.129999999}},{"attributes":{"ID":179262,"DIS_CODE":0,"TOWNNAME":"永康區","LI":"西灣里","LIN":"43鄰","STREET":"大灣路","SECT":" ","MAREA":" ","LANE":"９４２巷","ALLEY":"３８８弄","HOUSE_NO":"２０號","E_COORD97":174015.29999999999,"N_COORD97":2545455.8100000001,"ADDRESS":"大灣路９４２巷３８８弄２０號","OBJECTID":179261},"geometry":{"x":174015.29999999888,"y":2545455.8100000005}},{"attributes":{"ID":179263,"DIS_CODE":0,"TOWNNAME":"永康區","LI":"西勢里","LIN":"20鄰","STREET":"富強路","SECT":"一段","MAREA":" ","LANE":"１８５巷","ALLEY":"２弄","HOUSE_NO":"２號","E_COORD97":175547.54999999999,"N_COORD97":2546422.1299999999,"ADDRESS":"富強路一段１８５巷２弄２號","OBJECTID":179262},"geometry":{"x":175547.54999999981,"y":2546422.129999999}},{"attributes":{"ID":179264,"DIS_CODE":0,"TOWNNAME":"永康區","LI":"西灣里","LIN":"18鄰","STREET":"大安街","SECT":" ","MAREA":" ","LANE":"２９３巷","ALLEY":"９弄","HOUSE_NO":"１號","E_COORD97":174635.32999999999,"N_COORD97":2545567.6200000001,"ADDRESS":"大安街２９３巷９弄１號","OBJECTID":179263},"geometry":{"x":174635.33000000007,"y":2545567.6200000029}},{"attributes":{"ID":179265,"DIS_CODE":0,"TOWNNAME":"永康區","LI":"西勢里","LIN":"20鄰","STREET":"富強路","SECT":"一段","MAREA":" ","LANE":"１８５巷","ALLEY":"１０弄","HOUSE_NO":"１號","E_COORD97":175509.20000000001,"N_COORD97":2546451.8300000001,"ADDRESS":"富強路一段１８５巷１０弄１號","OBJECTID":179264},"geometry":{"x":175509.20000000019,"y":2546451.8300000001}},{"attributes":{"ID":179266,"DIS_CODE":0,"TOWNNAME":"永康區","LI":"西勢里","LIN":"20鄰","STREET":"富強路","SECT":"一段","MAREA":" ","LANE":"１８５巷","ALLEY":"１０弄","HOUSE_NO":"３３號","E_COORD97":175552.78,"N_COORD97":2546510.3300000001,"ADDRESS":"富強路一段１８５巷１０弄３３號","OBJECTID":179265},"geometry":{"x":175552.78000000026,"y":2546510.3300000001}},{"attributes":{"ID":179267,"DIS_CODE":0,"TOWNNAME":"永康區","LI":"西灣里","LIN":"32鄰","STREET":"國光八街","SECT":" ","MAREA":" ","LANE":"６０巷","ALLEY":"３弄","HOUSE_NO":"３號","E_COORD97":174249.26000000001,"N_COORD97":2545808.25,"ADDRESS":"國光八街６０巷３弄３號","OBJECTID":179266},"geometry":{"x":174249.25999999978,"y":2545808.25}},{"attributes":{"ID":179268,"DIS_CODE":0,"TOWNNAME":"永康區","LI":"西勢里","LIN":"18鄰","STREET":"富強路","SECT":"一段","MAREA":" ","LANE":"２巷","ALLEY":"８弄","HOUSE_NO":"２號","E_COORD97":175454.28,"N_COORD97":2545979.7999999998,"ADDRESS":"富強路一段２巷８弄２號","OBJECTID":179267},"geometry":{"x":175454.28000000119,"y":2545979.8000000026}},{"attributes":{"ID":179269,"DIS_CODE":0,"TOWNNAME":"永康區","LI":"西勢里","LIN":"20鄰","STREET":"富強路","SECT":"一段","MAREA":" ","LANE":"１８５巷","ALLEY":"２弄","HOUSE_NO":"２５號","E_COORD97":175592.69,"N_COORD97":2546455.0299999998,"ADDRESS":"富強路一段１８５巷２弄２５號","OBJECTID":179268},"geometry":{"x":175592.69000000041,"y":2546455.0300000012}},{"attributes":{"ID":179270,"DIS_CODE":0,"TOWNNAME":"永康區","LI":"西灣里","LIN":"50鄰","STREET":"大灣路","SECT":" ","MAREA":" ","LANE":"９４２巷","ALLEY":"５００弄","HOUSE_NO":"１８號","E_COORD97":173943.60999999999,"N_COORD97":2545832.79,"ADDRESS":"大灣路９４２巷５００弄１８號","OBJECTID":179269},"geometry":{"x":173943.61000000034,"y":2545832.790000001}},{"attributes":{"ID":179271,"DIS_CODE":0,"TOWNNAME":"永康區","LI":"西灣里","LIN":"18鄰","STREET":"大安街","SECT":" ","MAREA":" ","LANE":"２９３巷","ALLEY":"９弄","HOUSE_NO":"１３號","E_COORD97":174638.79000000001,"N_COORD97":2545509.7799999998,"ADDRESS":"大安街２９３巷９弄１３號","OBJECTID":179270},"geometry":{"x":174638.79000000004,"y":2545509.7799999975}},{"attributes":{"ID":179272,"DIS_CODE":0,"TOWNNAME":"南區","LI":"新生里","LIN":"10鄰","STREET":"大同路","SECT":"二段","MAREA":" ","LANE":" ","ALLEY":" ","HOUSE_NO":"１３８號二樓之１","E_COORD97":169292.09,"N_COORD97":2542153.9300000002,"ADDRESS":"大同路二段１３８號二樓之１","OBJECTID":179271},"geometry":{"x":169292.08999999985,"y":2542153.9300000016}},{"attributes":{"ID":179273,"DIS_CODE":0,"TOWNNAME":"南區","LI":"新生里","LIN":"10鄰","STREET":"大同路","SECT":"二段","MAREA":" ","LANE":" ","ALLEY":" ","HOUSE_NO":"１３８號二樓之２","E_COORD97":169292.09,"N_COORD97":2542153.9300000002,"ADDRESS":"大同路二段１３８號二樓之２","OBJECTID":179272},"geometry":{"x":169292.08999999985,"y":2542153.9300000016}},{"attributes":{"ID":179274,"DIS_CODE":0,"TOWNNAME":"南區","LI":"新生里","LIN":"10鄰","STREET":"大同路","SECT":"二段","MAREA":" ","LANE":" ","ALLEY":" ","HOUSE_NO":"１３８號三樓之１","E_COORD97":169292.09,"N_COORD97":2542153.9300000002,"ADDRESS":"大同路二段１３８號三樓之１","OBJECTID":179273},"geometry":{"x":169292.08999999985,"y":2542153.9300000016}},{"attributes":{"ID":179275,"DIS_CODE":0,"TOWNNAME":"永康區","LI":"西勢里","LIN":"20鄰","STREET":"富強路","SECT":"一段","MAREA":" ","LANE":"１８５巷","ALLEY":"１０弄","HOUSE_NO":"６號","E_COORD97":175538.75,"N_COORD97":2546456.3199999998,"ADDRESS":"富強路一段１８５巷１０弄６號","OBJECTID":179274},"geometry":{"x":175538.75000000093,"y":2546456.3200000003}},{"attributes":{"ID":179276,"DIS_CODE":0,"TOWNNAME":"永康區","LI":"西勢里","LIN":"5鄰","STREET":"富強路","SECT":"一段","MAREA":" ","LANE":"２７９巷","ALLEY":"４４弄","HOUSE_NO":"３號","E_COORD97":175601.04000000001,"N_COORD97":2546672.77,"ADDRESS":"富強路一段２７９巷４４弄３號","OBJECTID":179275},"geometry":{"x":175601.04000000097,"y":2546672.7699999996}},{"attributes":{"ID":179277,"DIS_CODE":0,"TOWNNAME":"永康區","LI":"西勢里","LIN":"18鄰","STREET":"富強路","SECT":"一段","MAREA":" ","LANE":"２巷","ALLEY":"８弄","HOUSE_NO":"３號","E_COORD97":175420.56,"N_COORD97":2545975.8700000001,"ADDRESS":"富強路一段２巷８弄３號","OBJECTID":179276},"geometry":{"x":175420.56000000052,"y":2545975.8700000048}},{"attributes":{"ID":179278,"DIS_CODE":0,"TOWNNAME":"永康區","LI":"西勢里","LIN":"26鄰","STREET":"廣興街","SECT":" ","MAREA":" ","LANE":"３８巷","ALLEY":"１４弄","HOUSE_NO":"７號","E_COORD97":175947.63,"N_COORD97":2546488.2400000002,"ADDRESS":"廣興街３８巷１４弄７號","OBJECTID":179277},"geometry":{"x":175947.63000000082,"y":2546488.2400000021}},{"attributes":{"ID":179279,"DIS_CODE":0,"TOWNNAME":"將軍區","LI":"鯤鯓里","LIN":"16鄰","STREET":" ","SECT":" ","MAREA":"鯤鯓","LANE":" ","ALLEY":" ","HOUSE_NO":"２５２之１號","E_COORD97":157121.47,"N_COORD97":2565704.8999999999,"ADDRESS":"鯤鯓２５２之１號","OBJECTID":179278},"geometry":{"x":157121.46999999974,"y":2565704.9000000022}},{"attributes":{"ID":179280,"DIS_CODE":0,"TOWNNAME":"將軍區","LI":"鯤鯓里","LIN":"16鄰","STREET":" ","SECT":" ","MAREA":"鯤鯓","LANE":" ","ALLEY":" ","HOUSE_NO":"２５２之２９號","E_COORD97":157146.16,"N_COORD97":2565675.8199999998,"ADDRESS":"鯤鯓２５２之２９號","OBJECTID":179279},"geometry":{"x":157146.16000000201,"y":2565675.8200000003}},{"attributes":{"ID":179281,"DIS_CODE":0,"TOWNNAME":"將軍區","LI":"鯤鯓里","LIN":"16鄰","STREET":" ","SECT":" ","MAREA":"鯤鯓","LANE":" ","ALLEY":" ","HOUSE_NO":"２５２之２號","E_COORD97":157121.5,"N_COORD97":2565701.0499999998,"ADDRESS":"鯤鯓２５２之２號","OBJECTID":179280},"geometry":{"x":157121.5,"y":2565701.0500000026}},{"attributes":{"ID":179282,"DIS_CODE":0,"TOWNNAME":"將軍區","LI":"鯤鯓里","LIN":"16鄰","STREET":" ","SECT":" ","MAREA":"鯤鯓","LANE":" ","ALLEY":" ","HOUSE_NO":"２５２之３０號","E_COORD97":157146.32000000001,"N_COORD97":2565679.8599999999,"ADDRESS":"鯤鯓２５２之３０號","OBJECTID":179281},"geometry":{"x":157146.3200000003,"y":2565679.8600000013}},{"attributes":{"ID":179283,"DIS_CODE":0,"TOWNNAME":"將軍區","LI":"鯤鯓里","LIN":"16鄰","STREET":" ","SECT":" ","MAREA":"鯤鯓","LANE":" ","ALLEY":" ","HOUSE_NO":"２５２之３１號","E_COORD97":157146.39999999999,"N_COORD97":2565683.8999999999,"ADDRESS":"鯤鯓２５２之３１號","OBJECTID":179282},"geometry":{"x":157146.39999999944,"y":2565683.9000000022}},{"attributes":{"ID":179284,"DIS_CODE":0,"TOWNNAME":"將軍區","LI":"鯤鯓里","LIN":"16鄰","STREET":" ","SECT":" ","MAREA":"鯤鯓","LANE":" ","ALLEY":" ","HOUSE_NO":"２５２之３２號","E_COORD97":157146.42000000001,"N_COORD97":2565688.1000000001,"ADDRESS":"鯤鯓２５２之３２號","OBJECTID":179283},"geometry":{"x":157146.42000000086,"y":2565688.1000000015}},{"attributes":{"ID":179285,"DIS_CODE":0,"TOWNNAME":"將軍區","LI":"鯤鯓里","LIN":"16鄰","STREET":" ","SECT":" ","MAREA":"鯤鯓","LANE":" ","ALLEY":" ","HOUSE_NO":"２５２之３３號","E_COORD97":157146.48000000001,"N_COORD97":2565692.3999999999,"ADDRESS":"鯤鯓２５２之３３號","OBJECTID":179284},"geometry":{"x":157146.48000000138,"y":2565692.4000000004}},{"attributes":{"ID":179286,"DIS_CODE":0,"TOWNNAME":"將軍區","LI":"鯤鯓里","LIN":"16鄰","STREET":" ","SECT":" ","MAREA":"鯤鯓","LANE":" ","ALLEY":" ","HOUSE_NO":"２５２之３４號","E_COORD97":157146.44,"N_COORD97":2565696.98,"ADDRESS":"鯤鯓２５２之３４號","OBJECTID":179285},"geometry":{"x":157146.44000000134,"y":2565696.9800000023}},{"attributes":{"ID":179287,"DIS_CODE":0,"TOWNNAME":"將軍區","LI":"鯤鯓里","LIN":"16鄰","STREET":" ","SECT":" ","MAREA":"鯤鯓","LANE":" ","ALLEY":" ","HOUSE_NO":"２５２之３５號","E_COORD97":157146.26999999999,"N_COORD97":2565701.1899999999,"ADDRESS":"鯤鯓２５２之３５號","OBJECTID":179286},"geometry":{"x":157146.26999999955,"y":2565701.1900000013}},{"attributes":{"ID":179288,"DIS_CODE":0,"TOWNNAME":"將軍區","LI":"鯤鯓里","LIN":"16鄰","STREET":" ","SECT":" ","MAREA":"鯤鯓","LANE":" ","ALLEY":" ","HOUSE_NO":"２５２之３６號","E_COORD97":157146.23000000001,"N_COORD97":2565705.1800000002,"ADDRESS":"鯤鯓２５２之３６號","OBJECTID":179287},"geometry":{"x":157146.23000000138,"y":2565705.1800000016}},{"attributes":{"ID":179289,"DIS_CODE":0,"TOWNNAME":"將軍區","LI":"鯤鯓里","LIN":"16鄰","STREET":" ","SECT":" ","MAREA":"鯤鯓","LANE":" ","ALLEY":" ","HOUSE_NO":"２５２之３７號","E_COORD97":157169.51000000001,"N_COORD97":2565705.5099999998,"ADDRESS":"鯤鯓２５２之３７號","OBJECTID":179288},"geometry":{"x":157169.51000000071,"y":2565705.5100000035}},{"attributes":{"ID":179290,"DIS_CODE":0,"TOWNNAME":"將軍區","LI":"鯤鯓里","LIN":"16鄰","STREET":" ","SECT":" ","MAREA":"鯤鯓","LANE":" ","ALLEY":" ","HOUSE_NO":"２５２之３８號","E_COORD97":157169.59,"N_COORD97":2565700.9199999999,"ADDRESS":"鯤鯓２５２之３８號","OBJECTID":179289},"geometry":{"x":157169.58999999985,"y":2565700.9200000018}},{"attributes":{"ID":179291,"DIS_CODE":0,"TOWNNAME":"將軍區","LI":"鯤鯓里","LIN":"16鄰","STREET":" ","SECT":" ","MAREA":"鯤鯓","LANE":" ","ALLEY":" ","HOUSE_NO":"２５２之４號","E_COORD97":157121.60000000001,"N_COORD97":2565692.2799999998,"ADDRESS":"鯤鯓２５２之４號","OBJECTID":179290},"geometry":{"x":157121.59999999963,"y":2565692.2799999993}},{"attributes":{"ID":179292,"DIS_CODE":0,"TOWNNAME":"學甲區","LI":"三慶里","LIN":"16鄰","STREET":" ","SECT":" ","MAREA":"紅茄","LANE":" ","ALLEY":" ","HOUSE_NO":"２０號","E_COORD97":167580.45000000001,"N_COORD97":2575813.8700000001,"ADDRESS":"紅茄２０號","OBJECTID":179291},"geometry":{"x":167580.45000000112,"y":2575813.870000001}},{"attributes":{"ID":179293,"DIS_CODE":0,"TOWNNAME":"將軍區","LI":"鯤鯓里","LIN":"16鄰","STREET":" ","SECT":" ","MAREA":"鯤鯓","LANE":" ","ALLEY":" ","HOUSE_NO":"２５２之５號","E_COORD97":157121.57000000001,"N_COORD97":2565687.7799999998,"ADDRESS":"鯤鯓２５２之５號","OBJECTID":179292},"geometry":{"x":157121.57000000216,"y":2565687.7800000012}},{"attributes":{"ID":179294,"DIS_CODE":0,"TOWNNAME":"將軍區","LI":"鯤鯓里","LIN":"16鄰","STREET":" ","SECT":" ","MAREA":"鯤鯓","LANE":" ","ALLEY":" ","HOUSE_NO":"２５２之６號","E_COORD97":157121.81,"N_COORD97":2565683.7400000002,"ADDRESS":"鯤鯓２５２之６號","OBJECTID":179293},"geometry":{"x":157121.80999999959,"y":2565683.7399999984}},{"attributes":{"ID":179295,"DIS_CODE":0,"TOWNNAME":"將軍區","LI":"鯤鯓里","LIN":"16鄰","STREET":" ","SECT":" ","MAREA":"鯤鯓","LANE":" ","ALLEY":" ","HOUSE_NO":"２５２之７號","E_COORD97":157121.72,"N_COORD97":2565679.6099999999,"ADDRESS":"鯤鯓２５２之７號","OBJECTID":179294},"geometry":{"x":157121.7200000016,"y":2565679.6099999994}},{"attributes":{"ID":179296,"DIS_CODE":0,"TOWNNAME":"將軍區","LI":"鯤鯓里","LIN":"16鄰","STREET":" ","SECT":" ","MAREA":"鯤鯓","LANE":" ","ALLEY":" ","HOUSE_NO":"２５２之８號","E_COORD97":157121.95999999999,"N_COORD97":2565675.3300000001,"ADDRESS":"鯤鯓２５２之８號","OBJECTID":179295},"geometry":{"x":157121.96000000183,"y":2565675.3300000001}},{"attributes":{"ID":179297,"DIS_CODE":0,"TOWNNAME":"將軍區","LI":"鯤鯓里","LIN":"16鄰","STREET":" ","SECT":" ","MAREA":"鯤鯓","LANE":" ","ALLEY":" ","HOUSE_NO":"２５２號","E_COORD97":157164.53,"N_COORD97":2565727.6899999999,"ADDRESS":"鯤鯓２５２號","OBJECTID":179296},"geometry":{"x":157164.53000000119,"y":2565727.6900000032}},{"attributes":{"ID":179298,"DIS_CODE":0,"TOWNNAME":"西港區","LI":"竹林里","LIN":"16鄰","STREET":" ","SECT":" ","MAREA":"大竹林","LANE":" ","ALLEY":" ","HOUSE_NO":"１３５號之８","E_COORD97":166848.67999999999,"N_COORD97":2558083.79,"ADDRESS":"大竹林１３５號之８","OBJECTID":179297},"geometry":{"x":166848.6799999997,"y":2558083.7899999991}},{"attributes":{"ID":179299,"DIS_CODE":0,"TOWNNAME":"西港區","LI":"竹林里","LIN":"16鄰","STREET":" ","SECT":" ","MAREA":"大竹林","LANE":" ","ALLEY":" ","HOUSE_NO":"１３５號之９","E_COORD97":166857.54000000001,"N_COORD97":2558086.8100000001,"ADDRESS":"大竹林１３５號之９","OBJECTID":179298},"geometry":{"x":166857.54000000097,"y":2558086.8100000024}},{"attributes":{"ID":179300,"DIS_CODE":0,"TOWNNAME":"西港區","LI":"竹林里","LIN":"16鄰","STREET":" ","SECT":" ","MAREA":"大竹林","LANE":" ","ALLEY":" ","HOUSE_NO":"１３５號","E_COORD97":166807.01999999999,"N_COORD97":2558070.2200000002,"ADDRESS":"大竹林１３５號","OBJECTID":179299},"geometry":{"x":166807.01999999955,"y":2558070.2200000025}},{"attributes":{"ID":179301,"DIS_CODE":0,"TOWNNAME":"西港區","LI":"竹林里","LIN":"16鄰","STREET":" ","SECT":" ","MAREA":"大竹林","LANE":" ","ALLEY":" ","HOUSE_NO":"１３７號之１","E_COORD97":166847.94,"N_COORD97":2558002.5499999998,"ADDRESS":"大竹林１３７號之１","OBJECTID":179300},"geometry":{"x":166847.94000000227,"y":2558002.5500000007}},{"attributes":{"ID":179302,"DIS_CODE":0,"TOWNNAME":"西港區","LI":"竹林里","LIN":"16鄰","STREET":" ","SECT":" ","MAREA":"大竹林","LANE":" ","ALLEY":" ","HOUSE_NO":"１３８號之１","E_COORD97":166851.26999999999,"N_COORD97":2558021.8599999999,"ADDRESS":"大竹林１３８號之１","OBJECTID":179301},"geometry":{"x":166851.26999999955,"y":2558021.8599999994}},{"attributes":{"ID":179303,"DIS_CODE":0,"TOWNNAME":"七股區","LI":"義合里","LIN":"11鄰","STREET":" ","SECT":" ","MAREA":"義合","LANE":" ","ALLEY":" ","HOUSE_NO":"９１號","E_COORD97":161541.47,"N_COORD97":2555758.2599999998,"ADDRESS":"義合９１號","OBJECTID":179302},"geometry":{"x":161541.47000000067,"y":2555758.2599999998}},{"attributes":{"ID":179304,"DIS_CODE":0,"TOWNNAME":"西港區","LI":"竹林里","LIN":"16鄰","STREET":" ","SECT":" ","MAREA":"大竹林","LANE":" ","ALLEY":" ","HOUSE_NO":"１３８號","E_COORD97":166857.94,"N_COORD97":2558035.0800000001,"ADDRESS":"大竹林１３８號","OBJECTID":179303},"geometry":{"x":166857.94000000227,"y":2558035.0800000001}},{"attributes":{"ID":179305,"DIS_CODE":0,"TOWNNAME":"西港區","LI":"竹林里","LIN":"16鄰","STREET":" ","SECT":" ","MAREA":"大竹林","LANE":" ","ALLEY":" ","HOUSE_NO":"１３９號之１","E_COORD97":166840.12,"N_COORD97":2558052.3599999999,"ADDRESS":"大竹林１３９號之１","OBJECTID":179304},"geometry":{"x":166840.12000000104,"y":2558052.3599999994}},{"attributes":{"ID":179306,"DIS_CODE":0,"TOWNNAME":"西港區","LI":"竹林里","LIN":"16鄰","STREET":" ","SECT":" ","MAREA":"大竹林","LANE":" ","ALLEY":" ","HOUSE_NO":"１３９號","E_COORD97":166839.72,"N_COORD97":2558056.9399999999,"ADDRESS":"大竹林１３９號","OBJECTID":179305},"geometry":{"x":166839.71999999974,"y":2558056.9400000032}},{"attributes":{"ID":179307,"DIS_CODE":0,"TOWNNAME":"西港區","LI":"港東里","LIN":"16鄰","STREET":" ","SECT":" ","MAREA":"八份","LANE":" ","ALLEY":" ","HOUSE_NO":"４１號","E_COORD97":170025.22,"N_COORD97":2558496.6699999999,"ADDRESS":"八份４１號","OBJECTID":179306},"geometry":{"x":170025.21999999974,"y":2558496.6700000037}},{"attributes":{"ID":179308,"DIS_CODE":0,"TOWNNAME":"西港區","LI":"港東里","LIN":"16鄰","STREET":" ","SECT":" ","MAREA":"八份","LANE":" ","ALLEY":" ","HOUSE_NO":"４２號","E_COORD97":170041.95999999999,"N_COORD97":2558500.8799999999,"ADDRESS":"八份４２號","OBJECTID":179307},"geometry":{"x":170041.95999999996,"y":2558500.8800000027}},{"attributes":{"ID":179309,"DIS_CODE":0,"TOWNNAME":"西港區","LI":"港東里","LIN":"16鄰","STREET":" ","SECT":" ","MAREA":"八份","LANE":" ","ALLEY":" ","HOUSE_NO":"４３號","E_COORD97":170053.98999999999,"N_COORD97":2558502.4700000002,"ADDRESS":"八份４３號","OBJECTID":179308},"geometry":{"x":170053.99000000022,"y":2558502.4700000025}},{"attributes":{"ID":179310,"DIS_CODE":0,"TOWNNAME":"西港區","LI":"港東里","LIN":"16鄰","STREET":" ","SECT":" ","MAREA":"八份","LANE":" ","ALLEY":" ","HOUSE_NO":"４４號","E_COORD97":170081.94,"N_COORD97":2558483.98,"ADDRESS":"八份４４號","OBJECTID":179309},"geometry":{"x":170081.94000000041,"y":2558483.9800000004}},{"attributes":{"ID":179311,"DIS_CODE":0,"TOWNNAME":"西港區","LI":"港東里","LIN":"16鄰","STREET":" ","SECT":" ","MAREA":"八份","LANE":" ","ALLEY":" ","HOUSE_NO":"４８號","E_COORD97":170022.54999999999,"N_COORD97":2558524.29,"ADDRESS":"八份４８號","OBJECTID":179310},"geometry":{"x":170022.54999999981,"y":2558524.2899999991}},{"attributes":{"ID":179312,"DIS_CODE":0,"TOWNNAME":"西港區","LI":"港東里","LIN":"16鄰","STREET":" ","SECT":" ","MAREA":"八份","LANE":" ","ALLEY":" ","HOUSE_NO":"４９號","E_COORD97":170045.31,"N_COORD97":2558537.4700000002,"ADDRESS":"八份４９號","OBJECTID":179311},"geometry":{"x":170045.31000000052,"y":2558537.4700000025}},{"attributes":{"ID":179313,"DIS_CODE":0,"TOWNNAME":"西港區","LI":"港東里","LIN":"16鄰","STREET":" ","SECT":" ","MAREA":"八份","LANE":" ","ALLEY":" ","HOUSE_NO":"５０號","E_COORD97":170027.73999999999,"N_COORD97":2558563.27,"ADDRESS":"八份５０號","OBJECTID":179312},"geometry":{"x":170027.74000000115,"y":2558563.2700000033}},{"attributes":{"ID":179314,"DIS_CODE":0,"TOWNNAME":"西港區","LI":"港東里","LIN":"16鄰","STREET":" ","SECT":" ","MAREA":"八份","LANE":" ","ALLEY":" ","HOUSE_NO":"５１號","E_COORD97":170040.95999999999,"N_COORD97":2558579.8999999999,"ADDRESS":"八份５１號","OBJECTID":179313},"geometry":{"x":170040.96000000183,"y":2558579.9000000004}},{"attributes":{"ID":179315,"DIS_CODE":0,"TOWNNAME":"西港區","LI":"港東里","LIN":"16鄰","STREET":" ","SECT":" ","MAREA":"八份","LANE":" ","ALLEY":" ","HOUSE_NO":"５２號","E_COORD97":170030.98000000001,"N_COORD97":2558592.7000000002,"ADDRESS":"八份５２號","OBJECTID":179314},"geometry":{"x":170030.98000000045,"y":2558592.6999999993}},{"attributes":{"ID":179316,"DIS_CODE":0,"TOWNNAME":"西港區","LI":"港東里","LIN":"16鄰","STREET":" ","SECT":" ","MAREA":"八份","LANE":" ","ALLEY":" ","HOUSE_NO":"５３號","E_COORD97":170031.73000000001,"N_COORD97":2558605.1299999999,"ADDRESS":"八份５３號","OBJECTID":179315},"geometry":{"x":170031.73000000138,"y":2558605.1300000008}},{"attributes":{"ID":179317,"DIS_CODE":0,"TOWNNAME":"西港區","LI":"\u25A0林里","LIN":"16鄰","STREET":" ","SECT":" ","MAREA":"三合寮","LANE":" ","ALLEY":" ","HOUSE_NO":"１號之１０","E_COORD97":170706.54999999999,"N_COORD97":2559577.98,"ADDRESS":"三合寮１號之１０","OBJECTID":179316},"geometry":{"x":170706.55000000075,"y":2559577.9800000023}},{"attributes":{"ID":179318,"DIS_CODE":0,"TOWNNAME":"西港區","LI":"\u25A0林里","LIN":"16鄰","STREET":" ","SECT":" ","MAREA":"三合寮","LANE":" ","ALLEY":" ","HOUSE_NO":"１號之１","E_COORD97":170715.01000000001,"N_COORD97":2559546.4199999999,"ADDRESS":"三合寮１號之１","OBJECTID":179317},"geometry":{"x":170715.00999999885,"y":2559546.4200000018}},{"attributes":{"ID":179319,"DIS_CODE":0,"TOWNNAME":"西港區","LI":"\u25A0林里","LIN":"16鄰","STREET":" ","SECT":" ","MAREA":"三合寮","LANE":" ","ALLEY":" ","HOUSE_NO":"１號之３","E_COORD97":170677.67999999999,"N_COORD97":2559567.2400000002,"ADDRESS":"三合寮１號之３","OBJECTID":179318},"geometry":{"x":170677.6799999997,"y":2559567.2400000002}},{"attributes":{"ID":179320,"DIS_CODE":0,"TOWNNAME":"西港區","LI":"\u25A0林里","LIN":"16鄰","STREET":" ","SECT":" ","MAREA":"三合寮","LANE":" ","ALLEY":" ","HOUSE_NO":"１號之４","E_COORD97":170670.20000000001,"N_COORD97":2559647.4900000002,"ADDRESS":"三合寮１號之４","OBJECTID":179319},"geometry":{"x":170670.20000000205,"y":2559647.4900000039}},{"attributes":{"ID":179321,"DIS_CODE":0,"TOWNNAME":"西港區","LI":"\u25A0林里","LIN":"16鄰","STREET":" ","SECT":" ","MAREA":"三合寮","LANE":" ","ALLEY":" ","HOUSE_NO":"１號","E_COORD97":170739.35999999999,"N_COORD97":2559541.3399999999,"ADDRESS":"三合寮１號","OBJECTID":179320},"geometry":{"x":170739.36000000127,"y":2559541.3399999999}},{"attributes":{"ID":179322,"DIS_CODE":0,"TOWNNAME":"西港區","LI":"\u25A0林里","LIN":"16鄰","STREET":" ","SECT":" ","MAREA":"三合寮","LANE":" ","ALLEY":" ","HOUSE_NO":"２號之１","E_COORD97":170761.42999999999,"N_COORD97":2559535.2999999998,"ADDRESS":"三合寮２號之１","OBJECTID":179321},"geometry":{"x":170761.43000000156,"y":2559535.3000000026}},{"attributes":{"ID":179323,"DIS_CODE":0,"TOWNNAME":"西港區","LI":"\u25A0林里","LIN":"16鄰","STREET":" ","SECT":" ","MAREA":"三合寮","LANE":" ","ALLEY":" ","HOUSE_NO":"２號之２","E_COORD97":170768.44,"N_COORD97":2559533.1800000002,"ADDRESS":"三合寮２號之２","OBJECTID":179322},"geometry":{"x":170768.44000000041,"y":2559533.1799999997}},{"attributes":{"ID":179324,"DIS_CODE":0,"TOWNNAME":"西港區","LI":"\u25A0林里","LIN":"16鄰","STREET":" ","SECT":" ","MAREA":"三合寮","LANE":" ","ALLEY":" ","HOUSE_NO":"２號","E_COORD97":170762.32000000001,"N_COORD97":2559559.02,"ADDRESS":"三合寮２號","OBJECTID":179323},"geometry":{"x":170762.3200000003,"y":2559559.0200000014}},{"attributes":{"ID":179325,"DIS_CODE":0,"TOWNNAME":"西港區","LI":"\u25A0林里","LIN":"16鄰","STREET":" ","SECT":" ","MAREA":"三合寮","LANE":" ","ALLEY":" ","HOUSE_NO":"３號","E_COORD97":170766.54000000001,"N_COORD97":2559577.96,"ADDRESS":"三合寮３號","OBJECTID":179324},"geometry":{"x":170766.54000000097,"y":2559577.9600000028}},{"attributes":{"ID":179326,"DIS_CODE":0,"TOWNNAME":"西港區","LI":"\u25A0林里","LIN":"16鄰","STREET":" ","SECT":" ","MAREA":"三合寮","LANE":" ","ALLEY":" ","HOUSE_NO":"４號之１","E_COORD97":170788.88,"N_COORD97":2559567.3700000001,"ADDRESS":"三合寮４號之１","OBJECTID":179325},"geometry":{"x":170788.87999999896,"y":2559567.370000001}},{"attributes":{"ID":179327,"DIS_CODE":0,"TOWNNAME":"西港區","LI":"\u25A0林里","LIN":"16鄰","STREET":" ","SECT":" ","MAREA":"三合寮","LANE":" ","ALLEY":" ","HOUSE_NO":"５號之１","E_COORD97":170796.25,"N_COORD97":2559531.4199999999,"ADDRESS":"三合寮５號之１","OBJECTID":179326},"geometry":{"x":170796.25,"y":2559531.4199999999}},{"attributes":{"ID":179328,"DIS_CODE":0,"TOWNNAME":"西港區","LI":"\u25A0林里","LIN":"16鄰","STREET":" ","SECT":" ","MAREA":"三合寮","LANE":" ","ALLEY":" ","HOUSE_NO":"５號","E_COORD97":170781.45000000001,"N_COORD97":2559531.6800000002,"ADDRESS":"三合寮５號","OBJECTID":179327},"geometry":{"x":170781.45000000019,"y":2559531.6800000016}},{"attributes":{"ID":179329,"DIS_CODE":0,"TOWNNAME":"西港區","LI":"\u25A0林里","LIN":"16鄰","STREET":" ","SECT":" ","MAREA":"三合寮","LANE":" ","ALLEY":" ","HOUSE_NO":"６之５號","E_COORD97":170843.60999999999,"N_COORD97":2559516.1699999999,"ADDRESS":"三合寮６之５號","OBJECTID":179328},"geometry":{"x":170843.61000000034,"y":2559516.1699999999}},{"attributes":{"ID":179330,"DIS_CODE":0,"TOWNNAME":"西港區","LI":"\u25A0林里","LIN":"16鄰","STREET":" ","SECT":" ","MAREA":"三合寮","LANE":" ","ALLEY":" ","HOUSE_NO":"６號","E_COORD97":170831.39000000001,"N_COORD97":2559544.1499999999,"ADDRESS":"三合寮６號","OBJECTID":179329},"geometry":{"x":170831.3900000006,"y":2559544.1500000004}},{"attributes":{"ID":179331,"DIS_CODE":0,"TOWNNAME":"西港區","LI":"\u25A0林里","LIN":"16鄰","STREET":" ","SECT":" ","MAREA":"三合寮","LANE":" ","ALLEY":" ","HOUSE_NO":"７之１０號","E_COORD97":170817.20000000001,"N_COORD97":2559603.77,"ADDRESS":"三合寮７之１０號","OBJECTID":179330},"geometry":{"x":170817.20000000019,"y":2559603.7699999996}},{"attributes":{"ID":179332,"DIS_CODE":0,"TOWNNAME":"佳里區","LI":"海澄里","LIN":"16鄰","STREET":" ","SECT":" ","MAREA":"番子寮","LANE":" ","ALLEY":" ","HOUSE_NO":"１３１號之１","E_COORD97":163928.66,"N_COORD97":2564555.0600000001,"ADDRESS":"番子寮１３１號之１","OBJECTID":179331},"geometry":{"x":163928.66000000201,"y":2564555.0600000005}},{"attributes":{"ID":179333,"DIS_CODE":0,"TOWNNAME":"佳里區","LI":"海澄里","LIN":"16鄰","STREET":" ","SECT":" ","MAREA":"番子寮","LANE":" ","ALLEY":" ","HOUSE_NO":"１３１號","E_COORD97":163928.57000000001,"N_COORD97":2564596.8700000001,"ADDRESS":"番子寮１３１號","OBJECTID":179332},"geometry":{"x":163928.5700000003,"y":2564596.8700000029}},{"attributes":{"ID":179334,"DIS_CODE":0,"TOWNNAME":"佳里區","LI":"海澄里","LIN":"16鄰","STREET":" ","SECT":" ","MAREA":"番子寮","LANE":" ","ALLEY":" ","HOUSE_NO":"１３２號","E_COORD97":163911.01000000001,"N_COORD97":2564629.23,"ADDRESS":"番子寮１３２號","OBJECTID":179333},"geometry":{"x":163911.01000000071,"y":2564629.2300000004}},{"attributes":{"ID":179335,"DIS_CODE":0,"TOWNNAME":"佳里區","LI":"海澄里","LIN":"16鄰","STREET":" ","SECT":" ","MAREA":"番子寮","LANE":" ","ALLEY":" ","HOUSE_NO":"１３４號之１","E_COORD97":163952.39999999999,"N_COORD97":2564553.0600000001,"ADDRESS":"番子寮１３４號之１","OBJECTID":179334},"geometry":{"x":163952.40000000037,"y":2564553.0600000042}},{"attributes":{"ID":179336,"DIS_CODE":0,"TOWNNAME":"佳里區","LI":"海澄里","LIN":"16鄰","STREET":" ","SECT":" ","MAREA":"番子寮","LANE":" ","ALLEY":" ","HOUSE_NO":"１３４號","E_COORD97":163953.44,"N_COORD97":2564578.1600000001,"ADDRESS":"番子寮１３４號","OBJECTID":179335},"geometry":{"x":163953.44000000041,"y":2564578.1600000001}},{"attributes":{"ID":179337,"DIS_CODE":0,"TOWNNAME":"佳里區","LI":"海澄里","LIN":"16鄰","STREET":" ","SECT":" ","MAREA":"番子寮","LANE":" ","ALLEY":" ","HOUSE_NO":"１３５號之２","E_COORD97":163932.04000000001,"N_COORD97":2564528.48,"ADDRESS":"番子寮１３５號之２","OBJECTID":179336},"geometry":{"x":163932.04000000004,"y":2564528.4800000004}},{"attributes":{"ID":179338,"DIS_CODE":0,"TOWNNAME":"佳里區","LI":"海澄里","LIN":"16鄰","STREET":" ","SECT":" ","MAREA":"番子寮","LANE":" ","ALLEY":" ","HOUSE_NO":"１３５號之３","E_COORD97":163927.42000000001,"N_COORD97":2564528.8300000001,"ADDRESS":"番子寮１３５號之３","OBJECTID":179337},"geometry":{"x":163927.42000000086,"y":2564528.8300000001}},{"attributes":{"ID":179339,"DIS_CODE":0,"TOWNNAME":"佳里區","LI":"海澄里","LIN":"16鄰","STREET":" ","SECT":" ","MAREA":"番子寮","LANE":" ","ALLEY":" ","HOUSE_NO":"１３５號","E_COORD97":163912.32999999999,"N_COORD97":2564549.21,"ADDRESS":"番子寮１３５號","OBJECTID":179338},"geometry":{"x":163912.33000000101,"y":2564549.2100000046}},{"attributes":{"ID":179340,"DIS_CODE":0,"TOWNNAME":"學甲區","LI":"新達里","LIN":"16鄰","STREET":" ","SECT":" ","MAREA":"山寮","LANE":" ","ALLEY":" ","HOUSE_NO":"４號之１","E_COORD97":167848.26999999999,"N_COORD97":2570683.52,"ADDRESS":"山寮４號之１","OBJECTID":179339},"geometry":{"x":167848.27000000142,"y":2570683.5200000014}},{"attributes":{"ID":179341,"DIS_CODE":0,"TOWNNAME":"學甲區","LI":"新達里","LIN":"16鄰","STREET":" ","SECT":" ","MAREA":"山寮","LANE":" ","ALLEY":" ","HOUSE_NO":"４號之２","E_COORD97":167823.89000000001,"N_COORD97":2570695.5,"ADDRESS":"山寮４號之２","OBJECTID":179340},"geometry":{"x":167823.89000000153,"y":2570695.5}},{"attributes":{"ID":179342,"DIS_CODE":0,"TOWNNAME":"學甲區","LI":"新達里","LIN":"16鄰","STREET":" ","SECT":" ","MAREA":"山寮","LANE":" ","ALLEY":" ","HOUSE_NO":"４號之６","E_COORD97":167828.29999999999,"N_COORD97":2570713.2799999998,"ADDRESS":"山寮４號之６","OBJECTID":179341},"geometry":{"x":167828.30000000075,"y":2570713.2799999993}},{"attributes":{"ID":179343,"DIS_CODE":0,"TOWNNAME":"學甲區","LI":"大灣里","LIN":"16鄰","STREET":" ","SECT":" ","MAREA":"大灣","LANE":" ","ALLEY":" ","HOUSE_NO":"１６９號之１","E_COORD97":166568.03,"N_COORD97":2567622.8100000001,"ADDRESS":"大灣１６９號之１","OBJECTID":179342},"geometry":{"x":166568.03000000119,"y":2567622.8100000005}},{"attributes":{"ID":179344,"DIS_CODE":0,"TOWNNAME":"學甲區","LI":"大灣里","LIN":"16鄰","STREET":" ","SECT":" ","MAREA":"大灣","LANE":" ","ALLEY":" ","HOUSE_NO":"１６９號之２","E_COORD97":166559.62,"N_COORD97":2567579.1000000001,"ADDRESS":"大灣１６９號之２","OBJECTID":179343},"geometry":{"x":166559.62000000011,"y":2567579.0999999996}},{"attributes":{"ID":179345,"DIS_CODE":0,"TOWNNAME":"學甲區","LI":"大灣里","LIN":"16鄰","STREET":" ","SECT":" ","MAREA":"大灣","LANE":" ","ALLEY":" ","HOUSE_NO":"１６９號","E_COORD97":166555.39999999999,"N_COORD97":2567602.1499999999,"ADDRESS":"大灣１６９號","OBJECTID":179344},"geometry":{"x":166555.4000000013,"y":2567602.1500000004}},{"attributes":{"ID":179346,"DIS_CODE":0,"TOWNNAME":"學甲區","LI":"新達里","LIN":"16鄰","STREET":" ","SECT":" ","MAREA":"山寮","LANE":" ","ALLEY":" ","HOUSE_NO":"１０號之１","E_COORD97":167740.35999999999,"N_COORD97":2570691.0600000001,"ADDRESS":"山寮１０號之１","OBJECTID":179345},"geometry":{"x":167740.36000000127,"y":2570691.0600000024}},{"attributes":{"ID":179347,"DIS_CODE":0,"TOWNNAME":"學甲區","LI":"新達里","LIN":"16鄰","STREET":" ","SECT":" ","MAREA":"山寮","LANE":" ","ALLEY":" ","HOUSE_NO":"１０號","E_COORD97":167763.91,"N_COORD97":2570641.4900000002,"ADDRESS":"山寮１０號","OBJECTID":179346},"geometry":{"x":167763.91000000108,"y":2570641.4900000002}},{"attributes":{"ID":179348,"DIS_CODE":0,"TOWNNAME":"學甲區","LI":"新達里","LIN":"16鄰","STREET":" ","SECT":" ","MAREA":"山寮","LANE":" ","ALLEY":" ","HOUSE_NO":"１１號之２","E_COORD97":167777.88,"N_COORD97":2570624.1800000002,"ADDRESS":"山寮１１號之２","OBJECTID":179347},"geometry":{"x":167777.87999999989,"y":2570624.1800000016}},{"attributes":{"ID":179349,"DIS_CODE":0,"TOWNNAME":"學甲區","LI":"新達里","LIN":"16鄰","STREET":" ","SECT":" ","MAREA":"山寮","LANE":" ","ALLEY":" ","HOUSE_NO":"１１號之３","E_COORD97":168265.98999999999,"N_COORD97":2571194.3500000001,"ADDRESS":"山寮１１號之３","OBJECTID":179348},"geometry":{"x":168265.99000000022,"y":2571194.3499999996}},{"attributes":{"ID":179350,"DIS_CODE":0,"TOWNNAME":"學甲區","LI":"新達里","LIN":"16鄰","STREET":" ","SECT":" ","MAREA":"山寮","LANE":" ","ALLEY":" ","HOUSE_NO":"１１號之６","E_COORD97":168200.82999999999,"N_COORD97":2571375.3700000001,"ADDRESS":"山寮１１號之６","OBJECTID":179349},"geometry":{"x":168200.83000000007,"y":2571375.370000001}},{"attributes":{"ID":179351,"DIS_CODE":0,"TOWNNAME":"學甲區","LI":"新達里","LIN":"16鄰","STREET":" ","SECT":" ","MAREA":"山寮","LANE":" ","ALLEY":" ","HOUSE_NO":"１１號","E_COORD97":167760.19,"N_COORD97":2570627.3700000001,"ADDRESS":"山寮１１號","OBJECTID":179350},"geometry":{"x":167760.19000000134,"y":2570627.3700000048}},{"attributes":{"ID":179352,"DIS_CODE":0,"TOWNNAME":"學甲區","LI":"新達里","LIN":"16鄰","STREET":" ","SECT":" ","MAREA":"山寮","LANE":" ","ALLEY":" ","HOUSE_NO":"１號之１","E_COORD97":167790.44,"N_COORD97":2570776.4199999999,"ADDRESS":"山寮１號之１","OBJECTID":179351},"geometry":{"x":167790.44000000227,"y":2570776.4200000018}},{"attributes":{"ID":179353,"DIS_CODE":0,"TOWNNAME":"學甲區","LI":"新達里","LIN":"16鄰","STREET":" ","SECT":" ","MAREA":"山寮","LANE":" ","ALLEY":" ","HOUSE_NO":"１號之２","E_COORD97":167750.56,"N_COORD97":2570779.8599999999,"ADDRESS":"山寮１號之２","OBJECTID":179352},"geometry":{"x":167750.55999999959,"y":2570779.8599999994}},{"attributes":{"ID":179354,"DIS_CODE":0,"TOWNNAME":"學甲區","LI":"新達里","LIN":"16鄰","STREET":" ","SECT":" ","MAREA":"山寮","LANE":" ","ALLEY":" ","HOUSE_NO":"３號之２","E_COORD97":167926.14000000001,"N_COORD97":2570784.04,"ADDRESS":"山寮３號之２","OBJECTID":179353},"geometry":{"x":167926.1400000006,"y":2570784.040000001}},{"attributes":{"ID":179355,"DIS_CODE":0,"TOWNNAME":"學甲區","LI":"新達里","LIN":"16鄰","STREET":" ","SECT":" ","MAREA":"山寮","LANE":" ","ALLEY":" ","HOUSE_NO":"３號之３","E_COORD97":167932.95000000001,"N_COORD97":2570825.5099999998,"ADDRESS":"山寮３號之３","OBJECTID":179354},"geometry":{"x":167932.95000000112,"y":2570825.5100000016}},{"attributes":{"ID":179356,"DIS_CODE":0,"TOWNNAME":"學甲區","LI":"新達里","LIN":"16鄰","STREET":" ","SECT":" ","MAREA":"山寮","LANE":" ","ALLEY":" ","HOUSE_NO":"３號之７","E_COORD97":167965.29000000001,"N_COORD97":2570794.4900000002,"ADDRESS":"山寮３號之７","OBJECTID":179355},"geometry":{"x":167965.29000000004,"y":2570794.4900000002}},{"attributes":{"ID":179357,"DIS_CODE":0,"TOWNNAME":"學甲區","LI":"新達里","LIN":"16鄰","STREET":" ","SECT":" ","MAREA":"山寮","LANE":" ","ALLEY":" ","HOUSE_NO":"３號之８","E_COORD97":167985.09,"N_COORD97":2570810.9399999999,"ADDRESS":"山寮３號之８","OBJECTID":179356},"geometry":{"x":167985.08999999985,"y":2570810.9399999995}},{"attributes":{"ID":179358,"DIS_CODE":0,"TOWNNAME":"學甲區","LI":"新達里","LIN":"16鄰","STREET":" ","SECT":" ","MAREA":"山寮","LANE":" ","ALLEY":" ","HOUSE_NO":"３號之９","E_COORD97":167961.31,"N_COORD97":2570851.6699999999,"ADDRESS":"山寮３號之９","OBJECTID":179357},"geometry":{"x":167961.30999999959,"y":2570851.6700000018}},{"attributes":{"ID":179359,"DIS_CODE":0,"TOWNNAME":"學甲區","LI":"新達里","LIN":"16鄰","STREET":" ","SECT":" ","MAREA":"山寮","LANE":" ","ALLEY":" ","HOUSE_NO":"５號之１","E_COORD97":167791.60999999999,"N_COORD97":2570673.46,"ADDRESS":"山寮５號之１","OBJECTID":179358},"geometry":{"x":167791.61000000127,"y":2570673.4600000009}},{"attributes":{"ID":179360,"DIS_CODE":0,"TOWNNAME":"學甲區","LI":"新達里","LIN":"16鄰","STREET":" ","SECT":" ","MAREA":"山寮","LANE":" ","ALLEY":" ","HOUSE_NO":"５號之２","E_COORD97":167789.19,"N_COORD97":2570668.6899999999,"ADDRESS":"山寮５號之２","OBJECTID":179359},"geometry":{"x":167789.19000000134,"y":2570668.6900000013}},{"attributes":{"ID":179361,"DIS_CODE":0,"TOWNNAME":"學甲區","LI":"新達里","LIN":"16鄰","STREET":" ","SECT":" ","MAREA":"山寮","LANE":" ","ALLEY":" ","HOUSE_NO":"５號之３","E_COORD97":167788.42000000001,"N_COORD97":2570659.7599999998,"ADDRESS":"山寮５號之３","OBJECTID":179360},"geometry":{"x":167788.42000000086,"y":2570659.7599999998}},{"attributes":{"ID":179362,"DIS_CODE":0,"TOWNNAME":"學甲區","LI":"新達里","LIN":"16鄰","STREET":" ","SECT":" ","MAREA":"山寮","LANE":" ","ALLEY":" ","HOUSE_NO":"６號之１","E_COORD97":167856.89999999999,"N_COORD97":2570640.1699999999,"ADDRESS":"山寮６號之１","OBJECTID":179361},"geometry":{"x":167856.9000000013,"y":2570640.1699999999}},{"attributes":{"ID":179363,"DIS_CODE":0,"TOWNNAME":"學甲區","LI":"新達里","LIN":"16鄰","STREET":" ","SECT":" ","MAREA":"山寮","LANE":" ","ALLEY":" ","HOUSE_NO":"６號之２","E_COORD97":167839.35999999999,"N_COORD97":2570630.6899999999,"ADDRESS":"山寮６號之２","OBJECTID":179362},"geometry":{"x":167839.36000000034,"y":2570630.6900000013}},{"attributes":{"ID":179364,"DIS_CODE":0,"TOWNNAME":"學甲區","LI":"新達里","LIN":"16鄰","STREET":" ","SECT":" ","MAREA":"山寮","LANE":" ","ALLEY":" ","HOUSE_NO":"６號","E_COORD97":167843.98000000001,"N_COORD97":2570643.27,"ADDRESS":"山寮６號","OBJECTID":179363},"geometry":{"x":167843.98000000045,"y":2570643.2700000033}},{"attributes":{"ID":179365,"DIS_CODE":0,"TOWNNAME":"學甲區","LI":"新達里","LIN":"16鄰","STREET":" ","SECT":" ","MAREA":"山寮","LANE":" ","ALLEY":" ","HOUSE_NO":"７號","E_COORD97":167830.54999999999,"N_COORD97":2570607.1400000001,"ADDRESS":"山寮７號","OBJECTID":179364},"geometry":{"x":167830.54999999981,"y":2570607.1400000006}},{"attributes":{"ID":179366,"DIS_CODE":0,"TOWNNAME":"學甲區","LI":"新達里","LIN":"16鄰","STREET":" ","SECT":" ","MAREA":"山寮","LANE":" ","ALLEY":" ","HOUSE_NO":"８號","E_COORD97":167834.25,"N_COORD97":2570618.8900000001,"ADDRESS":"山寮８號","OBJECTID":179365},"geometry":{"x":167834.25000000093,"y":2570618.8900000006}},{"attributes":{"ID":179367,"DIS_CODE":0,"TOWNNAME":"學甲區","LI":"新達里","LIN":"16鄰","STREET":" ","SECT":" ","MAREA":"山寮","LANE":" ","ALLEY":" ","HOUSE_NO":"９號","E_COORD97":167789.35000000001,"N_COORD97":2570633.52,"ADDRESS":"山寮９號","OBJECTID":179366},"geometry":{"x":167789.34999999963,"y":2570633.5199999996}},{"attributes":{"ID":179368,"DIS_CODE":0,"TOWNNAME":"學甲區","LI":"三慶里","LIN":"16鄰","STREET":" ","SECT":" ","MAREA":"紅茄","LANE":" ","ALLEY":" ","HOUSE_NO":"１７號","E_COORD97":167597.67999999999,"N_COORD97":2575758.3599999999,"ADDRESS":"紅茄１７號","OBJECTID":179367},"geometry":{"x":167597.6799999997,"y":2575758.3599999975}},{"attributes":{"ID":179369,"DIS_CODE":0,"TOWNNAME":"學甲區","LI":"三慶里","LIN":"16鄰","STREET":" ","SECT":" ","MAREA":"紅茄","LANE":" ","ALLEY":" ","HOUSE_NO":"１９號","E_COORD97":167596.06,"N_COORD97":2575775.1899999999,"ADDRESS":"紅茄１９號","OBJECTID":179368},"geometry":{"x":167596.06000000052,"y":2575775.1899999995}},{"attributes":{"ID":179370,"DIS_CODE":0,"TOWNNAME":"學甲區","LI":"三慶里","LIN":"16鄰","STREET":" ","SECT":" ","MAREA":"紅茄","LANE":" ","ALLEY":" ","HOUSE_NO":"２０號之１","E_COORD97":167592.48999999999,"N_COORD97":2575820,"ADDRESS":"紅茄２０號之１","OBJECTID":179369},"geometry":{"x":167592.49000000022,"y":2575820.0000000019}},{"attributes":{"ID":179371,"DIS_CODE":0,"TOWNNAME":"學甲區","LI":"豐和里","LIN":"16鄰","STREET":" ","SECT":" ","MAREA":"美和","LANE":" ","ALLEY":" ","HOUSE_NO":"１號之３６","E_COORD97":167419.79000000001,"N_COORD97":2569254.2999999998,"ADDRESS":"美和１號之３６","OBJECTID":179370},"geometry":{"x":167419.7900000019,"y":2569254.3000000045}},{"attributes":{"ID":179372,"DIS_CODE":0,"TOWNNAME":"學甲區","LI":"豐和里","LIN":"16鄰","STREET":" ","SECT":" ","MAREA":"美和","LANE":" ","ALLEY":" ","HOUSE_NO":"１號之４０","E_COORD97":167518.89000000001,"N_COORD97":2569272.3900000001,"ADDRESS":"美和１號之４０","OBJECTID":179371},"geometry":{"x":167518.8900000006,"y":2569272.3900000006}},{"attributes":{"ID":179373,"DIS_CODE":0,"TOWNNAME":"學甲區","LI":"豐和里","LIN":"16鄰","STREET":" ","SECT":" ","MAREA":"美和","LANE":" ","ALLEY":" ","HOUSE_NO":"１號之６０","E_COORD97":167409.57999999999,"N_COORD97":2569510.9199999999,"ADDRESS":"美和１號之６０","OBJECTID":179372},"geometry":{"x":167409.58000000101,"y":2569510.9200000018}},{"attributes":{"ID":179374,"DIS_CODE":0,"TOWNNAME":"永康區","LI":"西勢里","LIN":"24鄰","STREET":"廣興街","SECT":" ","MAREA":" ","LANE":"３８巷","ALLEY":"２５弄","HOUSE_NO":"３５號","E_COORD97":176037.41,"N_COORD97":2546546.0499999998,"ADDRESS":"廣興街３８巷２５弄３５號","OBJECTID":179373},"geometry":{"x":176037.41000000201,"y":2546546.0500000007}},{"attributes":{"ID":179375,"DIS_CODE":0,"TOWNNAME":"永康區","LI":"西灣里","LIN":"50鄰","STREET":"大灣路","SECT":" ","MAREA":" ","LANE":"９４２巷","ALLEY":"５００弄","HOUSE_NO":"３７號","E_COORD97":173975.92000000001,"N_COORD97":2545856.2400000002,"ADDRESS":"大灣路９４２巷５００弄３７號","OBJECTID":179374},"geometry":{"x":173975.92000000086,"y":2545856.2400000002}},{"attributes":{"ID":179376,"DIS_CODE":0,"TOWNNAME":"永康區","LI":"西灣里","LIN":"50鄰","STREET":"大灣路","SECT":" ","MAREA":" ","LANE":"９４２巷","ALLEY":"５００弄","HOUSE_NO":"１４號","E_COORD97":173933.92000000001,"N_COORD97":2545830.04,"ADDRESS":"大灣路９４２巷５００弄１４號","OBJECTID":179375},"geometry":{"x":173933.92000000086,"y":2545830.0400000028}},{"attributes":{"ID":179377,"DIS_CODE":0,"TOWNNAME":"永康區","LI":"西灣里","LIN":"18鄰","STREET":"大安街","SECT":" ","MAREA":" ","LANE":"２９３巷","ALLEY":"９弄","HOUSE_NO":"１５號","E_COORD97":174622.29999999999,"N_COORD97":2545515.73,"ADDRESS":"大安街２９３巷９弄１５號","OBJECTID":179376},"geometry":{"x":174622.30000000168,"y":2545515.7300000023}},{"attributes":{"ID":179378,"DIS_CODE":0,"TOWNNAME":"永康區","LI":"西勢里","LIN":"20鄰","STREET":"富強路","SECT":"一段","MAREA":" ","LANE":"１８５巷","ALLEY":"１０弄","HOUSE_NO":"２８號","E_COORD97":175559.32999999999,"N_COORD97":2546489.0699999998,"ADDRESS":"富強路一段１８５巷１０弄２８號","OBJECTID":179377},"geometry":{"x":175559.33000000007,"y":2546489.070000004}},{"attributes":{"ID":179379,"DIS_CODE":0,"TOWNNAME":"永康區","LI":"尚頂里","LIN":"26鄰","STREET":"南台街","SECT":" ","MAREA":" ","LANE":"５４巷","ALLEY":"１０弄","HOUSE_NO":"２號","E_COORD97":170374.23999999999,"N_COORD97":2547036.7400000002,"ADDRESS":"南台街５４巷１０弄２號","OBJECTID":179378},"geometry":{"x":170374.24000000022,"y":2547036.7399999984}},{"attributes":{"ID":179380,"DIS_CODE":0,"TOWNNAME":"大內區","LI":"二溪里","LIN":"10鄰","STREET":" ","SECT":" ","MAREA":"其子瓦","LANE":" ","ALLEY":" ","HOUSE_NO":"４號","E_COORD97":190014.26999999999,"N_COORD97":2557426.25,"ADDRESS":"其子瓦４號","OBJECTID":179379},"geometry":{"x":190014.26999999955,"y":2557426.2500000019}},{"attributes":{"ID":179381,"DIS_CODE":0,"TOWNNAME":"永康區","LI":"西勢里","LIN":"20鄰","STREET":"富強路","SECT":"一段","MAREA":" ","LANE":"１８５巷","ALLEY":"２弄","HOUSE_NO":"４０號","E_COORD97":175587.67999999999,"N_COORD97":2546498.7999999998,"ADDRESS":"富強路一段１８５巷２弄４０號","OBJECTID":179380},"geometry":{"x":175587.68000000063,"y":2546498.8000000026}},{"attributes":{"ID":179382,"DIS_CODE":0,"TOWNNAME":"永康區","LI":"西勢里","LIN":"20鄰","STREET":"富強路","SECT":"一段","MAREA":" ","LANE":"１８５巷","ALLEY":"１０弄","HOUSE_NO":"１９號","E_COORD97":175533.47,"N_COORD97":2546484.0699999998,"ADDRESS":"富強路一段１８５巷１０弄１９號","OBJECTID":179381},"geometry":{"x":175533.47000000067,"y":2546484.0700000003}},{"attributes":{"ID":179383,"DIS_CODE":0,"TOWNNAME":"永康區","LI":"尚頂里","LIN":"26鄰","STREET":"南台街","SECT":" ","MAREA":" ","LANE":"５４巷","ALLEY":"１０弄","HOUSE_NO":"２７號","E_COORD97":170390.64999999999,"N_COORD97":2547061.25,"ADDRESS":"南台街５４巷１０弄２７號","OBJECTID":179382},"geometry":{"x":170390.65000000037,"y":2547061.2500000019}},{"attributes":{"ID":179384,"DIS_CODE":0,"TOWNNAME":"永康區","LI":"西勢里","LIN":"18鄰","STREET":"富強路","SECT":"一段","MAREA":" ","LANE":"２巷","ALLEY":"８弄","HOUSE_NO":"１５號","E_COORD97":175436.20999999999,"N_COORD97":2546000.6299999999,"ADDRESS":"富強路一段２巷８弄１５號","OBJECTID":179383},"geometry":{"x":175436.20999999996,"y":2546000.629999999}},{"attributes":{"ID":179385,"DIS_CODE":0,"TOWNNAME":"永康區","LI":"西橋里","LIN":"4鄰","STREET":"中山南路","SECT":" ","MAREA":" ","LANE":"４３巷","ALLEY":"１０弄","HOUSE_NO":"１５號","E_COORD97":170788.17000000001,"N_COORD97":2545902.25,"ADDRESS":"中山南路４３巷１０弄１５號","OBJECTID":179384},"geometry":{"x":170788.16999999993,"y":2545902.2500000019}},{"attributes":{"ID":179386,"DIS_CODE":0,"TOWNNAME":"永康區","LI":"成功里","LIN":"38鄰","STREET":"中華路","SECT":" ","MAREA":" ","LANE":"１５４巷","ALLEY":"７２弄","HOUSE_NO":"７號","E_COORD97":171829.84,"N_COORD97":2544875.4399999999,"ADDRESS":"中華路１５４巷７２弄７號","OBJECTID":179385},"geometry":{"x":171829.83999999985,"y":2544875.4400000013}},{"attributes":{"ID":179387,"DIS_CODE":0,"TOWNNAME":"永康區","LI":"西勢里","LIN":"18鄰","STREET":"富強路","SECT":"一段","MAREA":" ","LANE":"２巷","ALLEY":"８弄","HOUSE_NO":"２９號","E_COORD97":175453.01999999999,"N_COORD97":2546028.8799999999,"ADDRESS":"富強路一段２巷８弄２９號","OBJECTID":179386},"geometry":{"x":175453.02000000048,"y":2546028.8800000008}},{"attributes":{"ID":179388,"DIS_CODE":0,"TOWNNAME":"東區","LI":"富強里","LIN":"4鄰","STREET":"裕農路","SECT":" ","MAREA":" ","LANE":"４４６巷","ALLEY":"３２弄","HOUSE_NO":"１６號","E_COORD97":171199.01999999999,"N_COORD97":2543029.9199999999,"ADDRESS":"裕農路４４６巷３２弄１６號","OBJECTID":179387},"geometry":{"x":171199.01999999955,"y":2543029.9199999999}},{"attributes":{"ID":179389,"DIS_CODE":0,"TOWNNAME":"東區","LI":"富強里","LIN":"4鄰","STREET":"裕農路","SECT":" ","MAREA":" ","LANE":"４４６巷","ALLEY":"３２弄","HOUSE_NO":"１８號","E_COORD97":171198.89000000001,"N_COORD97":2543033.0600000001,"ADDRESS":"裕農路４４６巷３２弄１８號","OBJECTID":179388},"geometry":{"x":171198.89000000153,"y":2543033.0600000005}},{"attributes":{"ID":179390,"DIS_CODE":0,"TOWNNAME":"東區","LI":"富強里","LIN":"4鄰","STREET":"裕農路","SECT":" ","MAREA":" ","LANE":"４４６巷","ALLEY":"３２弄","HOUSE_NO":"２０號","E_COORD97":171198.51999999999,"N_COORD97":2543036.71,"ADDRESS":"裕農路４４６巷３２弄２０號","OBJECTID":179389},"geometry":{"x":171198.52000000048,"y":2543036.7100000009}},{"attributes":{"ID":179391,"DIS_CODE":0,"TOWNNAME":"東區","LI":"富強里","LIN":"4鄰","STREET":"裕農路","SECT":" ","MAREA":" ","LANE":"４４６巷","ALLEY":"３２弄","HOUSE_NO":"２２號","E_COORD97":171198.51999999999,"N_COORD97":2543040.3500000001,"ADDRESS":"裕農路４４６巷３２弄２２號","OBJECTID":179390},"geometry":{"x":171198.52000000048,"y":2543040.3499999996}},{"attributes":{"ID":179392,"DIS_CODE":0,"TOWNNAME":"東區","LI":"富強里","LIN":"4鄰","STREET":"裕農路","SECT":" ","MAREA":" ","LANE":"４４６巷","ALLEY":"３２弄","HOUSE_NO":"２６號","E_COORD97":171198.39000000001,"N_COORD97":2543043.75,"ADDRESS":"裕農路４４６巷３２弄２６號","OBJECTID":179391},"geometry":{"x":171198.38999999966,"y":2543043.7500000019}},{"attributes":{"ID":179393,"DIS_CODE":0,"TOWNNAME":"東區","LI":"富強里","LIN":"4鄰","STREET":"裕農路","SECT":" ","MAREA":" ","LANE":"４４６巷","ALLEY":"３２弄","HOUSE_NO":"２８號","E_COORD97":171198.26999999999,"N_COORD97":2543047.1400000001,"ADDRESS":"裕農路４４６巷３２弄２８號","OBJECTID":179392},"geometry":{"x":171198.27000000048,"y":2543047.1400000006}},{"attributes":{"ID":179394,"DIS_CODE":0,"TOWNNAME":"東區","LI":"富強里","LIN":"4鄰","STREET":"裕農路","SECT":" ","MAREA":" ","LANE":"４４６巷","ALLEY":"３２弄","HOUSE_NO":"３０號","E_COORD97":171190.72,"N_COORD97":2543046.6400000001,"ADDRESS":"裕農路４４６巷３２弄３０號","OBJECTID":179393},"geometry":{"x":171190.72000000067,"y":2543046.6400000006}},{"attributes":{"ID":179395,"DIS_CODE":0,"TOWNNAME":"東區","LI":"富強里","LIN":"4鄰","STREET":"裕農路","SECT":" ","MAREA":" ","LANE":"４４６巷","ALLEY":"３２弄","HOUSE_NO":"３２號","E_COORD97":171191.10000000001,"N_COORD97":2543043.3700000001,"ADDRESS":"裕農路４４６巷３２弄３２號","OBJECTID":179394},"geometry":{"x":171191.10000000056,"y":2543043.3700000029}},{"attributes":{"ID":179396,"DIS_CODE":0,"TOWNNAME":"東區","LI":"富強里","LIN":"4鄰","STREET":"裕農路","SECT":" ","MAREA":" ","LANE":"４４６巷","ALLEY":"３２弄","HOUSE_NO":"３６號","E_COORD97":171190.72,"N_COORD97":2543040.23,"ADDRESS":"裕農路４４６巷３２弄３６號","OBJECTID":179395},"geometry":{"x":171190.72000000067,"y":2543040.2300000023}},{"attributes":{"ID":179397,"DIS_CODE":0,"TOWNNAME":"東區","LI":"富強里","LIN":"4鄰","STREET":"裕農路","SECT":" ","MAREA":" ","LANE":"４４６巷","ALLEY":"３２弄","HOUSE_NO":"３８號","E_COORD97":171190.72,"N_COORD97":2543036.5800000001,"ADDRESS":"裕農路４４６巷３２弄３８號","OBJECTID":179396},"geometry":{"x":171190.72000000067,"y":2543036.5800000001}},{"attributes":{"ID":179398,"DIS_CODE":0,"TOWNNAME":"東區","LI":"富強里","LIN":"4鄰","STREET":"裕農路","SECT":" ","MAREA":" ","LANE":"４４６巷","ALLEY":"３２弄","HOUSE_NO":"４０號","E_COORD97":171190.85000000001,"N_COORD97":2543032.5600000001,"ADDRESS":"裕農路４４６巷３２弄４０號","OBJECTID":179397},"geometry":{"x":171190.85000000056,"y":2543032.5600000024}},{"attributes":{"ID":179399,"DIS_CODE":0,"TOWNNAME":"東區","LI":"富強里","LIN":"4鄰","STREET":"裕農路","SECT":" ","MAREA":" ","LANE":"４４６巷","ALLEY":"３２弄","HOUSE_NO":"４２號","E_COORD97":171190.72,"N_COORD97":2543029.29,"ADDRESS":"裕農路４４６巷３２弄４２號","OBJECTID":179398},"geometry":{"x":171190.72000000067,"y":2543029.290000001}},{"attributes":{"ID":179400,"DIS_CODE":0,"TOWNNAME":"東區","LI":"南聖里","LIN":"8鄰","STREET":"裕農路","SECT":" ","MAREA":" ","LANE":"７２６巷","ALLEY":"７弄","HOUSE_NO":"５號","E_COORD97":171889.92000000001,"N_COORD97":2543177.1299999999,"ADDRESS":"裕農路７２６巷７弄５號","OBJECTID":179399},"geometry":{"x":171889.91999999993,"y":2543177.129999999}},{"attributes":{"ID":179401,"DIS_CODE":0,"TOWNNAME":"東區","LI":"自強里","LIN":"26鄰","STREET":"中華東路","SECT":"二段","MAREA":" ","LANE":"２０３巷","ALLEY":"１弄","HOUSE_NO":"２６號","E_COORD97":171392.42999999999,"N_COORD97":2542715.1899999999,"ADDRESS":"中華東路二段２０３巷１弄２６號","OBJECTID":179400},"geometry":{"x":171392.43000000063,"y":2542715.1900000013}}]}