{"displayFieldName":"TOWNNAME","fieldAliases":{"ID":"ID","DIS_CODE":"DIS_CODE","TOWNNAME":"TOWNNAME","LI":"LI","LIN":"LIN","STREET":"STREET","SECT":"SECT","MAREA":"MAREA","LANE":"LANE","ALLEY":"ALLEY","HOUSE_NO":"HOUSE_NO","E_COORD97":"E_COORD97","N_COORD97":"N_COORD97","ADDRESS":"ADDRESS","OBJECTID":"OBJECTID"},"geometryType":"esriGeometryPoint","spatialReference":{"wkid":102443,"latestWkid":3826},"fields":[{"name":"ID","type":"esriFieldTypeDouble","alias":"ID"},{"name":"DIS_CODE","type":"esriFieldTypeInteger","alias":"DIS_CODE"},{"name":"TOWNNAME","type":"esriFieldTypeString","alias":"TOWNNAME","length":8},{"name":"LI","type":"esriFieldTypeString","alias":"LI","length":8},{"name":"LIN","type":"esriFieldTypeString","alias":"LIN","length":12},{"name":"STREET","type":"esriFieldTypeString","alias":"STREET","length":20},{"name":"SECT","type":"esriFieldTypeString","alias":"SECT","length":8},{"name":"MAREA","type":"esriFieldTypeString","alias":"MAREA","length":12},{"name":"LANE","type":"esriFieldTypeString","alias":"LANE","length":10},{"name":"ALLEY","type":"esriFieldTypeString","alias":"ALLEY","length":10},{"name":"HOUSE_NO","type":"esriFieldTypeString","alias":"HOUSE_NO","length":20},{"name":"E_COORD97","type":"esriFieldTypeDouble","alias":"E_COORD97"},{"name":"N_COORD97","type":"esriFieldTypeDouble","alias":"N_COORD97"},{"name":"ADDRESS","type":"esriFieldTypeString","alias":"ADDRESS","length":50},{"name":"OBJECTID","type":"esriFieldTypeOID","alias":"OBJECTID"}],"features":[{"attributes":{"ID":45201,"DIS_CODE":0,"TOWNNAME":"後壁區","LI":"侯伯里","LIN":"17鄰","STREET":" ","SECT":" ","MAREA":"後壁寮","LANE":" ","ALLEY":" ","HOUSE_NO":"１５１號之３３","E_COORD97":184968.63,"N_COORD97":2585535.5800000001,"ADDRESS":"後壁寮１５１號之３３","OBJECTID":45201},"geometry":{"x":184968.62999999989,"y":2585535.5800000038}},{"attributes":{"ID":45202,"DIS_CODE":0,"TOWNNAME":"北區","LI":"仁愛里","LIN":"15鄰","STREET":"長榮路","SECT":"四段","MAREA":" ","LANE":"３１巷","ALLEY":"２３弄","HOUSE_NO":"２９號地下室","E_COORD97":170207.88,"N_COORD97":2544855.0299999998,"ADDRESS":"長榮路四段３１巷２３弄２９號地下室","OBJECTID":45202},"geometry":{"x":170207.88000000082,"y":2544855.0300000012}},{"attributes":{"ID":45203,"DIS_CODE":0,"TOWNNAME":"新營區","LI":"嘉芳里","LIN":"15鄰","STREET":"復興路","SECT":" ","MAREA":" ","LANE":"１０７０巷","ALLEY":"４０弄","HOUSE_NO":"３０號","E_COORD97":176226.59,"N_COORD97":2578980.8599999999,"ADDRESS":"復興路１０７０巷４０弄３０號","OBJECTID":45203},"geometry":{"x":176226.58999999985,"y":2578980.8600000013}},{"attributes":{"ID":45204,"DIS_CODE":0,"TOWNNAME":"南區","LI":"大恩里","LIN":"15鄰","STREET":"國民路","SECT":" ","MAREA":" ","LANE":"２１７巷","ALLEY":"１２弄","HOUSE_NO":"２０號之５","E_COORD97":168952.04000000001,"N_COORD97":2540921.3799999999,"ADDRESS":"國民路２１７巷１２弄２０號之５","OBJECTID":45204},"geometry":{"x":168952.03999999911,"y":2540921.379999999}},{"attributes":{"ID":45205,"DIS_CODE":0,"TOWNNAME":"北區","LI":"新勝里","LIN":"7鄰","STREET":"北園街","SECT":" ","MAREA":" ","LANE":"５３巷","ALLEY":"５弄","HOUSE_NO":"１０號之１","E_COORD97":170221.82000000001,"N_COORD97":2545627.3599999999,"ADDRESS":"北園街５３巷５弄１０號之１","OBJECTID":45205},"geometry":{"x":170221.81999999937,"y":2545627.3599999994}},{"attributes":{"ID":45206,"DIS_CODE":0,"TOWNNAME":"北區","LI":"新勝里","LIN":"7鄰","STREET":"北園街","SECT":" ","MAREA":" ","LANE":"５３巷","ALLEY":"５弄","HOUSE_NO":"１１號","E_COORD97":170218.79000000001,"N_COORD97":2545561.23,"ADDRESS":"北園街５３巷５弄１１號","OBJECTID":45206},"geometry":{"x":170218.79000000097,"y":2545561.2300000004}},{"attributes":{"ID":45207,"DIS_CODE":0,"TOWNNAME":"北區","LI":"新勝里","LIN":"7鄰","STREET":"北園街","SECT":" ","MAREA":" ","LANE":"５３巷","ALLEY":"５弄","HOUSE_NO":"１２號","E_COORD97":170203.51999999999,"N_COORD97":2545624.3199999998,"ADDRESS":"北園街５３巷５弄１２號","OBJECTID":45207},"geometry":{"x":170203.52000000048,"y":2545624.3200000022}},{"attributes":{"ID":45208,"DIS_CODE":0,"TOWNNAME":"北區","LI":"新勝里","LIN":"7鄰","STREET":"北園街","SECT":" ","MAREA":" ","LANE":"５３巷","ALLEY":"５弄","HOUSE_NO":"１３號","E_COORD97":170219.57999999999,"N_COORD97":2545556.73,"ADDRESS":"北園街５３巷５弄１３號","OBJECTID":45208},"geometry":{"x":170219.58000000007,"y":2545556.7300000023}},{"attributes":{"ID":45209,"DIS_CODE":0,"TOWNNAME":"北區","LI":"新勝里","LIN":"7鄰","STREET":"北園街","SECT":" ","MAREA":" ","LANE":"５３巷","ALLEY":"５弄","HOUSE_NO":"１６號","E_COORD97":170197.89000000001,"N_COORD97":2545615.1800000002,"ADDRESS":"北園街５３巷５弄１６號","OBJECTID":45209},"geometry":{"x":170197.8900000006,"y":2545615.1799999997}},{"attributes":{"ID":45210,"DIS_CODE":0,"TOWNNAME":"北區","LI":"新勝里","LIN":"7鄰","STREET":"北園街","SECT":" ","MAREA":" ","LANE":"５３巷","ALLEY":"５弄","HOUSE_NO":"１８號","E_COORD97":170199.38,"N_COORD97":2545607.77,"ADDRESS":"北園街５３巷５弄１８號","OBJECTID":45210},"geometry":{"x":170199.38000000082,"y":2545607.7699999996}},{"attributes":{"ID":45211,"DIS_CODE":0,"TOWNNAME":"北區","LI":"新勝里","LIN":"7鄰","STREET":"北園街","SECT":" ","MAREA":" ","LANE":"５３巷","ALLEY":"５弄","HOUSE_NO":"２２號","E_COORD97":170228.32999999999,"N_COORD97":2545594.21,"ADDRESS":"北園街５３巷５弄２２號","OBJECTID":45211},"geometry":{"x":170228.32999999914,"y":2545594.2100000028}},{"attributes":{"ID":45212,"DIS_CODE":0,"TOWNNAME":"西港區","LI":"\u25A0林里","LIN":"20鄰","STREET":" ","SECT":" ","MAREA":"東竹林","LANE":" ","ALLEY":" ","HOUSE_NO":"５號之１","E_COORD97":170796.72,"N_COORD97":2558735.8300000001,"ADDRESS":"東竹林５號之１","OBJECTID":45212},"geometry":{"x":170796.7200000016,"y":2558735.8300000001}},{"attributes":{"ID":45213,"DIS_CODE":0,"TOWNNAME":"西港區","LI":"\u25A0林里","LIN":"20鄰","STREET":" ","SECT":" ","MAREA":"東竹林","LANE":" ","ALLEY":" ","HOUSE_NO":"６號","E_COORD97":170816.45999999999,"N_COORD97":2558760.0600000001,"ADDRESS":"東竹林６號","OBJECTID":45213},"geometry":{"x":170816.46000000089,"y":2558760.0600000024}},{"attributes":{"ID":45214,"DIS_CODE":0,"TOWNNAME":"西港區","LI":"\u25A0林里","LIN":"20鄰","STREET":" ","SECT":" ","MAREA":"東竹林","LANE":" ","ALLEY":" ","HOUSE_NO":"７號","E_COORD97":170836.48000000001,"N_COORD97":2558707.6499999999,"ADDRESS":"東竹林７號","OBJECTID":45214},"geometry":{"x":170836.48000000231,"y":2558707.6500000022}},{"attributes":{"ID":45215,"DIS_CODE":0,"TOWNNAME":"北區","LI":"新勝里","LIN":"7鄰","STREET":"北園街","SECT":" ","MAREA":" ","LANE":"５３巷","ALLEY":"５弄","HOUSE_NO":"２６號","E_COORD97":170213.85999999999,"N_COORD97":2545600.1400000001,"ADDRESS":"北園街５３巷５弄２６號","OBJECTID":45215},"geometry":{"x":170213.86000000127,"y":2545600.1400000006}},{"attributes":{"ID":45216,"DIS_CODE":0,"TOWNNAME":"北區","LI":"新勝里","LIN":"7鄰","STREET":"北園街","SECT":" ","MAREA":" ","LANE":"５３巷","ALLEY":"５弄","HOUSE_NO":"２８號","E_COORD97":170214.97,"N_COORD97":2545594.48,"ADDRESS":"北園街５３巷５弄２８號","OBJECTID":45216},"geometry":{"x":170214.96999999974,"y":2545594.4800000042}},{"attributes":{"ID":45217,"DIS_CODE":0,"TOWNNAME":"西港區","LI":"\u25A0林里","LIN":"20鄰","STREET":" ","SECT":" ","MAREA":"東竹林","LANE":" ","ALLEY":" ","HOUSE_NO":"８號之１","E_COORD97":170905.37,"N_COORD97":2558759.29,"ADDRESS":"東竹林８號之１","OBJECTID":45217},"geometry":{"x":170905.37000000104,"y":2558759.2900000028}},{"attributes":{"ID":45218,"DIS_CODE":0,"TOWNNAME":"西港區","LI":"\u25A0林里","LIN":"20鄰","STREET":" ","SECT":" ","MAREA":"東竹林","LANE":" ","ALLEY":" ","HOUSE_NO":"８號之２","E_COORD97":170862.04000000001,"N_COORD97":2558762.6400000001,"ADDRESS":"東竹林８號之２","OBJECTID":45218},"geometry":{"x":170862.04000000004,"y":2558762.6400000025}},{"attributes":{"ID":45219,"DIS_CODE":0,"TOWNNAME":"西港區","LI":"\u25A0林里","LIN":"20鄰","STREET":" ","SECT":" ","MAREA":"東竹林","LANE":" ","ALLEY":" ","HOUSE_NO":"８號之３","E_COORD97":170915.66,"N_COORD97":2558731.5099999998,"ADDRESS":"東竹林８號之３","OBJECTID":45219},"geometry":{"x":170915.66000000015,"y":2558731.5100000035}},{"attributes":{"ID":45220,"DIS_CODE":0,"TOWNNAME":"西港區","LI":"\u25A0林里","LIN":"20鄰","STREET":" ","SECT":" ","MAREA":"東竹林","LANE":" ","ALLEY":" ","HOUSE_NO":"８號之５","E_COORD97":170875.22,"N_COORD97":2558697.4900000002,"ADDRESS":"東竹林８號之５","OBJECTID":45220},"geometry":{"x":170875.22000000067,"y":2558697.4900000002}},{"attributes":{"ID":45221,"DIS_CODE":0,"TOWNNAME":"西港區","LI":"\u25A0林里","LIN":"20鄰","STREET":" ","SECT":" ","MAREA":"東竹林","LANE":" ","ALLEY":" ","HOUSE_NO":"８號之６","E_COORD97":170872.75,"N_COORD97":2558715.6400000001,"ADDRESS":"東竹林８號之６","OBJECTID":45221},"geometry":{"x":170872.75,"y":2558715.6400000025}},{"attributes":{"ID":45222,"DIS_CODE":0,"TOWNNAME":"歸仁區","LI":"武東里","LIN":"15鄰","STREET":"中正南路","SECT":"二段","MAREA":" ","LANE":"９３巷","ALLEY":"７弄","HOUSE_NO":"５號","E_COORD97":175848.37,"N_COORD97":2536257.3500000001,"ADDRESS":"中正南路二段９３巷７弄５號","OBJECTID":45222},"geometry":{"x":175848.37000000104,"y":2536257.3499999978}},{"attributes":{"ID":45223,"DIS_CODE":0,"TOWNNAME":"南區","LI":"南華里","LIN":"15鄰","STREET":"中華南路","SECT":"二段","MAREA":" ","LANE":"３０２巷","ALLEY":"５弄","HOUSE_NO":"１０號","E_COORD97":166604.63,"N_COORD97":2540411.3100000001,"ADDRESS":"中華南路二段３０２巷５弄１０號","OBJECTID":45223},"geometry":{"x":166604.62999999989,"y":2540411.3100000005}},{"attributes":{"ID":45224,"DIS_CODE":0,"TOWNNAME":"南區","LI":"南華里","LIN":"15鄰","STREET":"中華南路","SECT":"二段","MAREA":" ","LANE":"３０２巷","ALLEY":"５弄","HOUSE_NO":"１２號","E_COORD97":166597.14000000001,"N_COORD97":2540411.0699999998,"ADDRESS":"中華南路二段３０２巷５弄１２號","OBJECTID":45224},"geometry":{"x":166597.1400000006,"y":2540411.0700000022}},{"attributes":{"ID":45225,"DIS_CODE":0,"TOWNNAME":"南區","LI":"南華里","LIN":"15鄰","STREET":"中華南路","SECT":"二段","MAREA":" ","LANE":"３０２巷","ALLEY":"５弄","HOUSE_NO":"１號","E_COORD97":166638.98999999999,"N_COORD97":2540385.1800000002,"ADDRESS":"中華南路二段３０２巷５弄１號","OBJECTID":45225},"geometry":{"x":166638.99000000115,"y":2540385.1800000016}},{"attributes":{"ID":45226,"DIS_CODE":0,"TOWNNAME":"南區","LI":"南華里","LIN":"15鄰","STREET":"中華南路","SECT":"二段","MAREA":" ","LANE":"３０２巷","ALLEY":"５弄","HOUSE_NO":"２號","E_COORD97":166640.06,"N_COORD97":2540411.7799999998,"ADDRESS":"中華南路二段３０２巷５弄２號","OBJECTID":45226},"geometry":{"x":166640.06000000052,"y":2540411.7800000012}},{"attributes":{"ID":45227,"DIS_CODE":0,"TOWNNAME":"北區","LI":"新勝里","LIN":"8鄰","STREET":"開元路","SECT":" ","MAREA":" ","LANE":"３３３巷","ALLEY":"１６弄","HOUSE_NO":"１９號","E_COORD97":170165.85000000001,"N_COORD97":2545538.1299999999,"ADDRESS":"開元路３３３巷１６弄１９號","OBJECTID":45227},"geometry":{"x":170165.85000000056,"y":2545538.1300000008}},{"attributes":{"ID":45228,"DIS_CODE":0,"TOWNNAME":"西港區","LI":"\u25A0林里","LIN":"20鄰","STREET":" ","SECT":" ","MAREA":"東竹林","LANE":" ","ALLEY":" ","HOUSE_NO":"８號","E_COORD97":170857.44,"N_COORD97":2558726.1800000002,"ADDRESS":"東竹林８號","OBJECTID":45228},"geometry":{"x":170857.44000000134,"y":2558726.1799999997}},{"attributes":{"ID":45229,"DIS_CODE":0,"TOWNNAME":"新市區","LI":"大營里","LIN":"20鄰","STREET":" ","SECT":" ","MAREA":"豐榮","LANE":" ","ALLEY":" ","HOUSE_NO":"５２之８號","E_COORD97":178804.39999999999,"N_COORD97":2554201.0499999998,"ADDRESS":"豐榮５２之８號","OBJECTID":45229},"geometry":{"x":178804.4000000013,"y":2554201.0500000007}},{"attributes":{"ID":45230,"DIS_CODE":0,"TOWNNAME":"新市區","LI":"大營里","LIN":"20鄰","STREET":" ","SECT":" ","MAREA":"豐榮","LANE":" ","ALLEY":" ","HOUSE_NO":"５０之３號","E_COORD97":178679.26000000001,"N_COORD97":2554191.7999999998,"ADDRESS":"豐榮５０之３號","OBJECTID":45230},"geometry":{"x":178679.26000000071,"y":2554191.8000000026}},{"attributes":{"ID":45231,"DIS_CODE":0,"TOWNNAME":"新市區","LI":"大營里","LIN":"20鄰","STREET":" ","SECT":" ","MAREA":"豐榮","LANE":" ","ALLEY":" ","HOUSE_NO":"５２之６號","E_COORD97":178790.79000000001,"N_COORD97":2554193.2999999998,"ADDRESS":"豐榮５２之６號","OBJECTID":45231},"geometry":{"x":178790.79000000004,"y":2554193.3000000007}},{"attributes":{"ID":45232,"DIS_CODE":0,"TOWNNAME":"新市區","LI":"大營里","LIN":"20鄰","STREET":" ","SECT":" ","MAREA":"豐榮","LANE":" ","ALLEY":" ","HOUSE_NO":"５２之５號","E_COORD97":178788.57000000001,"N_COORD97":2554196.5499999998,"ADDRESS":"豐榮５２之５號","OBJECTID":45232},"geometry":{"x":178788.57000000123,"y":2554196.5500000026}},{"attributes":{"ID":45233,"DIS_CODE":0,"TOWNNAME":"新市區","LI":"大營里","LIN":"20鄰","STREET":" ","SECT":" ","MAREA":"豐榮","LANE":" ","ALLEY":" ","HOUSE_NO":"４６之５號","E_COORD97":178662.10000000001,"N_COORD97":2554404.2999999998,"ADDRESS":"豐榮４６之５號","OBJECTID":45233},"geometry":{"x":178662.10000000056,"y":2554404.3000000045}},{"attributes":{"ID":45234,"DIS_CODE":0,"TOWNNAME":"新市區","LI":"大營里","LIN":"20鄰","STREET":" ","SECT":" ","MAREA":"豐榮","LANE":" ","ALLEY":" ","HOUSE_NO":"５２之１６號","E_COORD97":178825.32000000001,"N_COORD97":2554226.7999999998,"ADDRESS":"豐榮５２之１６號","OBJECTID":45234},"geometry":{"x":178825.32000000123,"y":2554226.8000000007}},{"attributes":{"ID":45235,"DIS_CODE":0,"TOWNNAME":"新市區","LI":"大營里","LIN":"20鄰","STREET":" ","SECT":" ","MAREA":"豐榮","LANE":" ","ALLEY":" ","HOUSE_NO":"５９之２號","E_COORD97":178761.70999999999,"N_COORD97":2554144.7999999998,"ADDRESS":"豐榮５９之２號","OBJECTID":45235},"geometry":{"x":178761.71000000089,"y":2554144.8000000026}},{"attributes":{"ID":45236,"DIS_CODE":0,"TOWNNAME":"新市區","LI":"大營里","LIN":"20鄰","STREET":" ","SECT":" ","MAREA":"豐榮","LANE":" ","ALLEY":" ","HOUSE_NO":"７１號","E_COORD97":178876.79000000001,"N_COORD97":2554249.75,"ADDRESS":"豐榮７１號","OBJECTID":45236},"geometry":{"x":178876.79000000004,"y":2554249.75}},{"attributes":{"ID":45237,"DIS_CODE":0,"TOWNNAME":"北區","LI":"新勝里","LIN":"8鄰","STREET":"開元路","SECT":" ","MAREA":" ","LANE":"３３３巷","ALLEY":"１６弄","HOUSE_NO":"１號","E_COORD97":170150.29000000001,"N_COORD97":2545518.9300000002,"ADDRESS":"開元路３３３巷１６弄１號","OBJECTID":45237},"geometry":{"x":170150.29000000004,"y":2545518.9299999997}},{"attributes":{"ID":45238,"DIS_CODE":0,"TOWNNAME":"新市區","LI":"大營里","LIN":"20鄰","STREET":" ","SECT":" ","MAREA":"豐榮","LANE":" ","ALLEY":" ","HOUSE_NO":"５９之８號","E_COORD97":178784.67999999999,"N_COORD97":2554163.0499999998,"ADDRESS":"豐榮５９之８號","OBJECTID":45238},"geometry":{"x":178784.68000000156,"y":2554163.0500000026}},{"attributes":{"ID":45239,"DIS_CODE":0,"TOWNNAME":"北區","LI":"新勝里","LIN":"8鄰","STREET":"開元路","SECT":" ","MAREA":" ","LANE":"３３３巷","ALLEY":"１６弄","HOUSE_NO":"２０號","E_COORD97":170188.26999999999,"N_COORD97":2545541.7000000002,"ADDRESS":"開元路３３３巷１６弄２０號","OBJECTID":45239},"geometry":{"x":170188.27000000048,"y":2545541.7000000011}},{"attributes":{"ID":45240,"DIS_CODE":0,"TOWNNAME":"安南區","LI":"淵中里","LIN":"17鄰","STREET":"安中路","SECT":"三段","MAREA":" ","LANE":" ","ALLEY":" ","HOUSE_NO":"２４３號","E_COORD97":165782.64000000001,"N_COORD97":2549862.02,"ADDRESS":"安中路三段２４３號","OBJECTID":45240},"geometry":{"x":165782.63999999966,"y":2549862.0200000033}},{"attributes":{"ID":45241,"DIS_CODE":0,"TOWNNAME":"安南區","LI":"淵中里","LIN":"17鄰","STREET":"樂安二街","SECT":" ","MAREA":" ","LANE":" ","ALLEY":" ","HOUSE_NO":"１３０號","E_COORD97":165778.23000000001,"N_COORD97":2549754.4900000002,"ADDRESS":"樂安二街１３０號","OBJECTID":45241},"geometry":{"x":165778.23000000138,"y":2549754.4900000039}},{"attributes":{"ID":45242,"DIS_CODE":0,"TOWNNAME":"新市區","LI":"社內里","LIN":"20鄰","STREET":" ","SECT":" ","MAREA":"社內","LANE":" ","ALLEY":" ","HOUSE_NO":"２０９號","E_COORD97":175791.37,"N_COORD97":2552967.25,"ADDRESS":"社內２０９號","OBJECTID":45242},"geometry":{"x":175791.37000000011,"y":2552967.2500000019}},{"attributes":{"ID":45243,"DIS_CODE":0,"TOWNNAME":"新市區","LI":"大營里","LIN":"20鄰","STREET":" ","SECT":" ","MAREA":"豐榮","LANE":" ","ALLEY":" ","HOUSE_NO":"６０號","E_COORD97":178833.26000000001,"N_COORD97":2554225.5,"ADDRESS":"豐榮６０號","OBJECTID":45243},"geometry":{"x":178833.25999999885,"y":2554225.5}},{"attributes":{"ID":45244,"DIS_CODE":0,"TOWNNAME":"安南區","LI":"淵中里","LIN":"17鄰","STREET":"樂安二街","SECT":" ","MAREA":" ","LANE":" ","ALLEY":" ","HOUSE_NO":"１３２號","E_COORD97":165773.73000000001,"N_COORD97":2549755.5499999998,"ADDRESS":"樂安二街１３２號","OBJECTID":45244},"geometry":{"x":165773.73000000045,"y":2549755.5500000026}},{"attributes":{"ID":45245,"DIS_CODE":0,"TOWNNAME":"佳里區","LI":"民安里","LIN":"15鄰","STREET":" ","SECT":" ","MAREA":"新宅","LANE":" ","ALLEY":" ","HOUSE_NO":"３９號","E_COORD97":167545.84,"N_COORD97":2564775.96,"ADDRESS":"新宅３９號","OBJECTID":45245},"geometry":{"x":167545.83999999985,"y":2564775.9600000028}},{"attributes":{"ID":45246,"DIS_CODE":0,"TOWNNAME":"安南區","LI":"淵中里","LIN":"17鄰","STREET":"樂安二街","SECT":" ","MAREA":" ","LANE":" ","ALLEY":" ","HOUSE_NO":"１３６號","E_COORD97":165770.01999999999,"N_COORD97":2549757.1400000001,"ADDRESS":"樂安二街１３６號","OBJECTID":45246},"geometry":{"x":165770.02000000142,"y":2549757.1400000043}},{"attributes":{"ID":45247,"DIS_CODE":0,"TOWNNAME":"新市區","LI":"大營里","LIN":"20鄰","STREET":" ","SECT":" ","MAREA":"豐榮","LANE":" ","ALLEY":" ","HOUSE_NO":"５９之１８號","E_COORD97":178828.89999999999,"N_COORD97":2554184.5499999998,"ADDRESS":"豐榮５９之１８號","OBJECTID":45247},"geometry":{"x":178828.90000000037,"y":2554184.5500000007}},{"attributes":{"ID":45248,"DIS_CODE":0,"TOWNNAME":"北區","LI":"新勝里","LIN":"8鄰","STREET":"開元路","SECT":" ","MAREA":" ","LANE":"３３３巷","ALLEY":"１６弄","HOUSE_NO":"２１號","E_COORD97":170170.12,"N_COORD97":2545540.8900000001,"ADDRESS":"開元路３３３巷１６弄２１號","OBJECTID":45248},"geometry":{"x":170170.12000000011,"y":2545540.8899999987}},{"attributes":{"ID":45249,"DIS_CODE":0,"TOWNNAME":"北區","LI":"新勝里","LIN":"8鄰","STREET":"開元路","SECT":" ","MAREA":" ","LANE":"３３３巷","ALLEY":"１６弄","HOUSE_NO":"２２號","E_COORD97":170191.35000000001,"N_COORD97":2545546.2000000002,"ADDRESS":"開元路３３３巷１６弄２２號","OBJECTID":45249},"geometry":{"x":170191.35000000056,"y":2545546.1999999993}},{"attributes":{"ID":45250,"DIS_CODE":0,"TOWNNAME":"新市區","LI":"大營里","LIN":"20鄰","STREET":" ","SECT":" ","MAREA":"豐榮","LANE":" ","ALLEY":" ","HOUSE_NO":"６２號","E_COORD97":178829.42999999999,"N_COORD97":2554234,"ADDRESS":"豐榮６２號","OBJECTID":45250},"geometry":{"x":178829.43000000063,"y":2554234.0000000019}},{"attributes":{"ID":45251,"DIS_CODE":0,"TOWNNAME":"山上區","LI":"明和里","LIN":"20鄰","STREET":" ","SECT":" ","MAREA":"明和","LANE":" ","ALLEY":" ","HOUSE_NO":"６７之２０號","E_COORD97":183322.64000000001,"N_COORD97":2555840.2999999998,"ADDRESS":"明和６７之２０號","OBJECTID":45251},"geometry":{"x":183322.63999999966,"y":2555840.3000000007}},{"attributes":{"ID":45252,"DIS_CODE":0,"TOWNNAME":"山上區","LI":"明和里","LIN":"20鄰","STREET":" ","SECT":" ","MAREA":"明和","LANE":" ","ALLEY":" ","HOUSE_NO":"６７之１０號","E_COORD97":183363.23999999999,"N_COORD97":2555838.2999999998,"ADDRESS":"明和６７之１０號","OBJECTID":45252},"geometry":{"x":183363.24000000022,"y":2555838.2999999989}},{"attributes":{"ID":45253,"DIS_CODE":0,"TOWNNAME":"北區","LI":"新勝里","LIN":"8鄰","STREET":"開元路","SECT":" ","MAREA":" ","LANE":"３３３巷","ALLEY":"１６弄","HOUSE_NO":"２３號","E_COORD97":170171.95000000001,"N_COORD97":2545551.2000000002,"ADDRESS":"開元路３３３巷１６弄２３號","OBJECTID":45253},"geometry":{"x":170171.95000000112,"y":2545551.200000003}},{"attributes":{"ID":45254,"DIS_CODE":0,"TOWNNAME":"南區","LI":"南華里","LIN":"15鄰","STREET":"中華南路","SECT":"二段","MAREA":" ","LANE":"３０２巷","ALLEY":"５弄","HOUSE_NO":"３號","E_COORD97":166626.39000000001,"N_COORD97":2540385.8900000001,"ADDRESS":"中華南路二段３０２巷５弄３號","OBJECTID":45254},"geometry":{"x":166626.38999999966,"y":2540385.8900000025}},{"attributes":{"ID":45255,"DIS_CODE":0,"TOWNNAME":"山上區","LI":"南洲里","LIN":"20鄰","STREET":" ","SECT":" ","MAREA":"南洲","LANE":" ","ALLEY":" ","HOUSE_NO":"３２６號之４","E_COORD97":183657.10000000001,"N_COORD97":2555898.2999999998,"ADDRESS":"南洲３２６號之４","OBJECTID":45255},"geometry":{"x":183657.10000000149,"y":2555898.3000000007}},{"attributes":{"ID":45256,"DIS_CODE":0,"TOWNNAME":"山上區","LI":"南洲里","LIN":"20鄰","STREET":" ","SECT":" ","MAREA":"南洲","LANE":" ","ALLEY":" ","HOUSE_NO":"３２５號","E_COORD97":183693.44,"N_COORD97":2555894.25,"ADDRESS":"南洲３２５號","OBJECTID":45256},"geometry":{"x":183693.44000000134,"y":2555894.25}},{"attributes":{"ID":45257,"DIS_CODE":0,"TOWNNAME":"山上區","LI":"南洲里","LIN":"20鄰","STREET":" ","SECT":" ","MAREA":"南洲","LANE":" ","ALLEY":" ","HOUSE_NO":"３２８之１０號","E_COORD97":183671.89000000001,"N_COORD97":2555939.2999999998,"ADDRESS":"南洲３２８之１０號","OBJECTID":45257},"geometry":{"x":183671.88999999966,"y":2555939.3000000007}},{"attributes":{"ID":45258,"DIS_CODE":0,"TOWNNAME":"南區","LI":"南華里","LIN":"15鄰","STREET":"中華南路","SECT":"二段","MAREA":" ","LANE":"３０２巷","ALLEY":"５弄","HOUSE_NO":"４號","E_COORD97":166630.89999999999,"N_COORD97":2540411.1899999999,"ADDRESS":"中華南路二段３０２巷５弄４號","OBJECTID":45258},"geometry":{"x":166630.90000000037,"y":2540411.1899999995}},{"attributes":{"ID":45259,"DIS_CODE":0,"TOWNNAME":"山上區","LI":"南洲里","LIN":"20鄰","STREET":" ","SECT":" ","MAREA":"南洲","LANE":" ","ALLEY":" ","HOUSE_NO":"３０８之３號","E_COORD97":183744.94,"N_COORD97":2555769.2999999998,"ADDRESS":"南洲３０８之３號","OBJECTID":45259},"geometry":{"x":183744.94000000041,"y":2555769.3000000007}},{"attributes":{"ID":45260,"DIS_CODE":0,"TOWNNAME":"南區","LI":"南華里","LIN":"15鄰","STREET":"中華南路","SECT":"二段","MAREA":" ","LANE":"３０２巷","ALLEY":"５弄","HOUSE_NO":"５號","E_COORD97":166609.98000000001,"N_COORD97":2540386.8399999999,"ADDRESS":"中華南路二段３０２巷５弄５號","OBJECTID":45260},"geometry":{"x":166609.98000000045,"y":2540386.8399999999}},{"attributes":{"ID":45261,"DIS_CODE":0,"TOWNNAME":"山上區","LI":"明和里","LIN":"20鄰","STREET":" ","SECT":" ","MAREA":"明和","LANE":" ","ALLEY":" ","HOUSE_NO":"６７之２６號","E_COORD97":183286.94,"N_COORD97":2555898.2999999998,"ADDRESS":"明和６７之２６號","OBJECTID":45261},"geometry":{"x":183286.94000000041,"y":2555898.3000000007}},{"attributes":{"ID":45262,"DIS_CODE":0,"TOWNNAME":"南區","LI":"府南里","LIN":"20鄰","STREET":"永成路","SECT":"三段","MAREA":" ","LANE":"４６１巷","ALLEY":"２１弄","HOUSE_NO":"１６號","E_COORD97":167393.50591400001,"N_COORD97":2541496.4107900001,"ADDRESS":"永成路三段４６１巷２１弄１６號","OBJECTID":45262},"geometry":{"x":167393.50591400079,"y":2541496.4107880015}},{"attributes":{"ID":45263,"DIS_CODE":0,"TOWNNAME":"山上區","LI":"南洲里","LIN":"20鄰","STREET":" ","SECT":" ","MAREA":"南洲","LANE":" ","ALLEY":" ","HOUSE_NO":"３２８之７號","E_COORD97":183654.64000000001,"N_COORD97":2555929.2999999998,"ADDRESS":"南洲３２８之７號","OBJECTID":45263},"geometry":{"x":183654.63999999966,"y":2555929.3000000007}},{"attributes":{"ID":45264,"DIS_CODE":0,"TOWNNAME":"山上區","LI":"南洲里","LIN":"20鄰","STREET":" ","SECT":" ","MAREA":"南洲","LANE":" ","ALLEY":" ","HOUSE_NO":"３２８之５號","E_COORD97":183656.54000000001,"N_COORD97":2555949.2999999998,"ADDRESS":"南洲３２８之５號","OBJECTID":45264},"geometry":{"x":183656.54000000097,"y":2555949.3000000007}},{"attributes":{"ID":45265,"DIS_CODE":0,"TOWNNAME":"山上區","LI":"南洲里","LIN":"20鄰","STREET":" ","SECT":" ","MAREA":"南洲","LANE":" ","ALLEY":" ","HOUSE_NO":"３０７之６號","E_COORD97":183742.84,"N_COORD97":2555784.2999999998,"ADDRESS":"南洲３０７之６號","OBJECTID":45265},"geometry":{"x":183742.84000000078,"y":2555784.3000000045}},{"attributes":{"ID":45266,"DIS_CODE":0,"TOWNNAME":"山上區","LI":"南洲里","LIN":"20鄰","STREET":" ","SECT":" ","MAREA":"南洲","LANE":" ","ALLEY":" ","HOUSE_NO":"３２６號","E_COORD97":183643.54000000001,"N_COORD97":2555910.25,"ADDRESS":"南洲３２６號","OBJECTID":45266},"geometry":{"x":183643.54000000004,"y":2555910.2500000019}},{"attributes":{"ID":45267,"DIS_CODE":0,"TOWNNAME":"山上區","LI":"南洲里","LIN":"20鄰","STREET":" ","SECT":" ","MAREA":"南洲","LANE":" ","ALLEY":" ","HOUSE_NO":"３０７之８號","E_COORD97":183745.14000000001,"N_COORD97":2555774.2999999998,"ADDRESS":"南洲３０７之８號","OBJECTID":45267},"geometry":{"x":183745.14000000153,"y":2555774.3000000045}},{"attributes":{"ID":45268,"DIS_CODE":0,"TOWNNAME":"山上區","LI":"南洲里","LIN":"20鄰","STREET":" ","SECT":" ","MAREA":"南洲","LANE":" ","ALLEY":" ","HOUSE_NO":"３２７之２號","E_COORD97":183615.73999999999,"N_COORD97":2555933.2999999998,"ADDRESS":"南洲３２７之２號","OBJECTID":45268},"geometry":{"x":183615.74000000022,"y":2555933.3000000045}},{"attributes":{"ID":45269,"DIS_CODE":0,"TOWNNAME":"山上區","LI":"南洲里","LIN":"20鄰","STREET":" ","SECT":" ","MAREA":"南洲","LANE":" ","ALLEY":" ","HOUSE_NO":"３０７號之３","E_COORD97":183730.07000000001,"N_COORD97":2555796.2999999998,"ADDRESS":"南洲３０７號之３","OBJECTID":45269},"geometry":{"x":183730.0700000003,"y":2555796.3000000007}},{"attributes":{"ID":45270,"DIS_CODE":0,"TOWNNAME":"南區","LI":"南華里","LIN":"15鄰","STREET":"中華南路","SECT":"二段","MAREA":" ","LANE":"３０２巷","ALLEY":"５弄","HOUSE_NO":"６號","E_COORD97":166621.51000000001,"N_COORD97":2540411.6600000001,"ADDRESS":"中華南路二段３０２巷５弄６號","OBJECTID":45270},"geometry":{"x":166621.51000000071,"y":2540411.6600000001}},{"attributes":{"ID":45271,"DIS_CODE":0,"TOWNNAME":"南區","LI":"南華里","LIN":"15鄰","STREET":"中華南路","SECT":"二段","MAREA":" ","LANE":"３０２巷","ALLEY":"５弄","HOUSE_NO":"７號","E_COORD97":166596.89999999999,"N_COORD97":2540386.96,"ADDRESS":"中華南路二段３０２巷５弄７號","OBJECTID":45271},"geometry":{"x":166596.90000000037,"y":2540386.9600000009}},{"attributes":{"ID":45272,"DIS_CODE":0,"TOWNNAME":"南區","LI":"南華里","LIN":"15鄰","STREET":"中華南路","SECT":"二段","MAREA":" ","LANE":"３０２巷","ALLEY":"５弄","HOUSE_NO":"８號","E_COORD97":166613.42999999999,"N_COORD97":2540411.4300000002,"ADDRESS":"中華南路二段３０２巷５弄８號","OBJECTID":45272},"geometry":{"x":166613.43000000063,"y":2540411.4300000016}},{"attributes":{"ID":45273,"DIS_CODE":0,"TOWNNAME":"仁德區","LI":"太子里","LIN":"17鄰","STREET":"長興四街","SECT":" ","MAREA":" ","LANE":" ","ALLEY":" ","HOUSE_NO":"３７號","E_COORD97":174012.10999999999,"N_COORD97":2543616.0099999998,"ADDRESS":"長興四街３７號","OBJECTID":45273},"geometry":{"x":174012.1100000022,"y":2543616.0099999998}},{"attributes":{"ID":45274,"DIS_CODE":0,"TOWNNAME":"仁德區","LI":"太子里","LIN":"17鄰","STREET":"長興四街","SECT":" ","MAREA":" ","LANE":" ","ALLEY":" ","HOUSE_NO":"５１號","E_COORD97":173994.22,"N_COORD97":2543585.25,"ADDRESS":"長興四街５１號","OBJECTID":45274},"geometry":{"x":173994.22000000067,"y":2543585.2500000037}},{"attributes":{"ID":45275,"DIS_CODE":0,"TOWNNAME":"仁德區","LI":"成功里","LIN":"17鄰","STREET":"全福路","SECT":" ","MAREA":" ","LANE":" ","ALLEY":" ","HOUSE_NO":"８２號","E_COORD97":171047.13,"N_COORD97":2539296.5,"ADDRESS":"全福路８２號","OBJECTID":45275},"geometry":{"x":171047.13000000082,"y":2539296.5}},{"attributes":{"ID":45276,"DIS_CODE":0,"TOWNNAME":"仁德區","LI":"成功里","LIN":"17鄰","STREET":"全福路","SECT":" ","MAREA":" ","LANE":" ","ALLEY":" ","HOUSE_NO":"１００號","E_COORD97":171086.70999999999,"N_COORD97":2539292.75,"ADDRESS":"全福路１００號","OBJECTID":45276},"geometry":{"x":171086.70999999996,"y":2539292.7499999981}},{"attributes":{"ID":45277,"DIS_CODE":0,"TOWNNAME":"仁德區","LI":"後壁里","LIN":"17鄰","STREET":"中正路","SECT":"二段","MAREA":" ","LANE":" ","ALLEY":" ","HOUSE_NO":"２６４號","E_COORD97":173244.88639900001,"N_COORD97":2538917.05424,"ADDRESS":"中正路二段２６４號","OBJECTID":45277},"geometry":{"x":173244.88639900088,"y":2538917.0542400014}},{"attributes":{"ID":45278,"DIS_CODE":0,"TOWNNAME":"仁德區","LI":"保安里","LIN":"17鄰","STREET":"中正路","SECT":"一段","MAREA":" ","LANE":" ","ALLEY":" ","HOUSE_NO":"６０號","E_COORD97":170888.34,"N_COORD97":2535521.52,"ADDRESS":"中正路一段６０號","OBJECTID":45278},"geometry":{"x":170888.34000000078,"y":2535521.5200000014}},{"attributes":{"ID":45279,"DIS_CODE":0,"TOWNNAME":"七股區","LI":"頂山里","LIN":"1鄰","STREET":" ","SECT":" ","MAREA":"頂山","LANE":" ","ALLEY":" ","HOUSE_NO":"６號之１","E_COORD97":159090.57999999999,"N_COORD97":2564589.6400000001,"ADDRESS":"頂山６號之１","OBJECTID":45279},"geometry":{"x":159090.58000000007,"y":2564589.6400000006}},{"attributes":{"ID":45280,"DIS_CODE":0,"TOWNNAME":"仁德區","LI":"太子里","LIN":"17鄰","STREET":"長興四街","SECT":" ","MAREA":" ","LANE":" ","ALLEY":" ","HOUSE_NO":"３９號","E_COORD97":174027.32000000001,"N_COORD97":2543607.25,"ADDRESS":"長興四街３９號","OBJECTID":45280},"geometry":{"x":174027.3200000003,"y":2543607.25}},{"attributes":{"ID":45281,"DIS_CODE":0,"TOWNNAME":"新營區","LI":"嘉芳里","LIN":"15鄰","STREET":"復興路","SECT":" ","MAREA":" ","LANE":"１０７０巷","ALLEY":"３９弄","HOUSE_NO":"４號","E_COORD97":176146.5,"N_COORD97":2578966.8500000001,"ADDRESS":"復興路１０７０巷３９弄４號","OBJECTID":45281},"geometry":{"x":176146.5,"y":2578966.8500000015}},{"attributes":{"ID":45282,"DIS_CODE":0,"TOWNNAME":"新營區","LI":"嘉芳里","LIN":"15鄰","STREET":"復興路","SECT":" ","MAREA":" ","LANE":"１０７０巷","ALLEY":"３８弄","HOUSE_NO":"５號","E_COORD97":176173.04000000001,"N_COORD97":2578966.7200000002,"ADDRESS":"復興路１０７０巷３８弄５號","OBJECTID":45282},"geometry":{"x":176173.04000000004,"y":2578966.7200000007}},{"attributes":{"ID":45283,"DIS_CODE":0,"TOWNNAME":"新營區","LI":"嘉芳里","LIN":"15鄰","STREET":"復興路","SECT":" ","MAREA":" ","LANE":"１０７０巷","ALLEY":"３８弄","HOUSE_NO":"１３號","E_COORD97":176188.57999999999,"N_COORD97":2578965.54,"ADDRESS":"復興路１０７０巷３８弄１３號","OBJECTID":45283},"geometry":{"x":176188.57999999914,"y":2578965.540000001}},{"attributes":{"ID":45284,"DIS_CODE":0,"TOWNNAME":"新營區","LI":"嘉芳里","LIN":"15鄰","STREET":"復興路","SECT":" ","MAREA":" ","LANE":"１０７０巷","ALLEY":"４１弄","HOUSE_NO":"３號","E_COORD97":176148.64000000001,"N_COORD97":2578983.4500000002,"ADDRESS":"復興路１０７０巷４１弄３號","OBJECTID":45284},"geometry":{"x":176148.63999999966,"y":2578983.4500000011}},{"attributes":{"ID":45285,"DIS_CODE":0,"TOWNNAME":"北區","LI":"新勝里","LIN":"8鄰","STREET":"開元路","SECT":" ","MAREA":" ","LANE":"３３３巷","ALLEY":"１６弄","HOUSE_NO":"４０號","E_COORD97":170181.92999999999,"N_COORD97":2545613.0899999999,"ADDRESS":"開元路３３３巷１６弄４０號","OBJECTID":45285},"geometry":{"x":170181.93000000063,"y":2545613.0899999999}},{"attributes":{"ID":45286,"DIS_CODE":0,"TOWNNAME":"北區","LI":"新勝里","LIN":"8鄰","STREET":"開元路","SECT":" ","MAREA":" ","LANE":"３３３巷","ALLEY":"１６弄","HOUSE_NO":"４１號","E_COORD97":170160.17999999999,"N_COORD97":2545567.73,"ADDRESS":"開元路３３３巷１６弄４１號","OBJECTID":45286},"geometry":{"x":170160.18000000063,"y":2545567.7300000004}},{"attributes":{"ID":45287,"DIS_CODE":0,"TOWNNAME":"北區","LI":"新勝里","LIN":"8鄰","STREET":"開元路","SECT":" ","MAREA":" ","LANE":"３３３巷","ALLEY":"１６弄","HOUSE_NO":"４２號","E_COORD97":170180.63,"N_COORD97":2545617.3799999999,"ADDRESS":"開元路３３３巷１６弄４２號","OBJECTID":45287},"geometry":{"x":170180.63000000082,"y":2545617.3800000027}},{"attributes":{"ID":45288,"DIS_CODE":0,"TOWNNAME":"北區","LI":"新勝里","LIN":"8鄰","STREET":"開元路","SECT":" ","MAREA":" ","LANE":"３３３巷","ALLEY":"１６弄","HOUSE_NO":"４３號","E_COORD97":170168.63,"N_COORD97":2545567.3300000001,"ADDRESS":"開元路３３３巷１６弄４３號","OBJECTID":45288},"geometry":{"x":170168.63000000175,"y":2545567.3300000001}},{"attributes":{"ID":45289,"DIS_CODE":0,"TOWNNAME":"新營區","LI":"嘉芳里","LIN":"15鄰","STREET":"復興路","SECT":" ","MAREA":" ","LANE":"１０７０巷","ALLEY":"４０弄","HOUSE_NO":"３６號","E_COORD97":176238.85000000001,"N_COORD97":2578978.5800000001,"ADDRESS":"復興路１０７０巷４０弄３６號","OBJECTID":45289},"geometry":{"x":176238.8499999987,"y":2578978.5800000038}},{"attributes":{"ID":45290,"DIS_CODE":0,"TOWNNAME":"安平區","LI":"石門里","LIN":"15鄰","STREET":"民權路","SECT":"四段","MAREA":" ","LANE":"６７９巷","ALLEY":"２弄","HOUSE_NO":"２８號","E_COORD97":164770.28,"N_COORD97":2544652.7000000002,"ADDRESS":"民權路四段６７９巷２弄２８號","OBJECTID":45290},"geometry":{"x":164770.28000000026,"y":2544652.700000003}},{"attributes":{"ID":45291,"DIS_CODE":0,"TOWNNAME":"安平區","LI":"石門里","LIN":"15鄰","STREET":"民權路","SECT":"四段","MAREA":" ","LANE":"６７９巷","ALLEY":"２弄","HOUSE_NO":"３０號","E_COORD97":164762.54000000001,"N_COORD97":2544656.0499999998,"ADDRESS":"民權路四段６７９巷２弄３０號","OBJECTID":45291},"geometry":{"x":164762.54000000004,"y":2544656.0500000026}},{"attributes":{"ID":45292,"DIS_CODE":0,"TOWNNAME":"北區","LI":"裕民里","LIN":"7鄰","STREET":"成功路","SECT":" ","MAREA":" ","LANE":"５０４巷","ALLEY":"１７弄","HOUSE_NO":"１３號","E_COORD97":167654.26000000001,"N_COORD97":2544707.8900000001,"ADDRESS":"成功路５０４巷１７弄１３號","OBJECTID":45292},"geometry":{"x":167654.26000000071,"y":2544707.8900000025}},{"attributes":{"ID":45293,"DIS_CODE":0,"TOWNNAME":"北區","LI":"裕民里","LIN":"7鄰","STREET":"成功路","SECT":" ","MAREA":" ","LANE":"５０４巷","ALLEY":"１７弄","HOUSE_NO":"１９號","E_COORD97":167646.79999999999,"N_COORD97":2544711.71,"ADDRESS":"成功路５０４巷１７弄１９號","OBJECTID":45293},"geometry":{"x":167646.80000000075,"y":2544711.7100000009}},{"attributes":{"ID":45294,"DIS_CODE":0,"TOWNNAME":"北區","LI":"裕民里","LIN":"7鄰","STREET":"成功路","SECT":" ","MAREA":" ","LANE":"５０４巷","ALLEY":"１７弄","HOUSE_NO":"１號","E_COORD97":167685.25,"N_COORD97":2544698.8399999999,"ADDRESS":"成功路５０４巷１７弄１號","OBJECTID":45294},"geometry":{"x":167685.25000000093,"y":2544698.8399999999}},{"attributes":{"ID":45295,"DIS_CODE":0,"TOWNNAME":"山上區","LI":"南洲里","LIN":"20鄰","STREET":" ","SECT":" ","MAREA":"南洲","LANE":" ","ALLEY":" ","HOUSE_NO":"３０９號","E_COORD97":183731.73999999999,"N_COORD97":2555745.25,"ADDRESS":"南洲３０９號","OBJECTID":45295},"geometry":{"x":183731.74000000115,"y":2555745.25}},{"attributes":{"ID":45296,"DIS_CODE":0,"TOWNNAME":"山上區","LI":"南洲里","LIN":"20鄰","STREET":" ","SECT":" ","MAREA":"南洲","LANE":" ","ALLEY":" ","HOUSE_NO":"３０８號","E_COORD97":183726.73999999999,"N_COORD97":2555765.25,"ADDRESS":"南洲３０８號","OBJECTID":45296},"geometry":{"x":183726.74000000115,"y":2555765.25}},{"attributes":{"ID":45297,"DIS_CODE":0,"TOWNNAME":"山上區","LI":"南洲里","LIN":"20鄰","STREET":" ","SECT":" ","MAREA":"南洲","LANE":" ","ALLEY":" ","HOUSE_NO":"３２８號之６","E_COORD97":183651.67999999999,"N_COORD97":2555926.2999999998,"ADDRESS":"南洲３２８號之６","OBJECTID":45297},"geometry":{"x":183651.68000000156,"y":2555926.3000000007}},{"attributes":{"ID":45298,"DIS_CODE":0,"TOWNNAME":"北區","LI":"裕民里","LIN":"7鄰","STREET":"成功路","SECT":" ","MAREA":" ","LANE":"５０４巷","ALLEY":"１７弄","HOUSE_NO":"２１號","E_COORD97":167642.39999999999,"N_COORD97":2544714.3799999999,"ADDRESS":"成功路５０４巷１７弄２１號","OBJECTID":45298},"geometry":{"x":167642.40000000037,"y":2544714.379999999}},{"attributes":{"ID":45299,"DIS_CODE":0,"TOWNNAME":"北區","LI":"裕民里","LIN":"7鄰","STREET":"成功路","SECT":" ","MAREA":" ","LANE":"５０４巷","ALLEY":"１７弄","HOUSE_NO":"２３號","E_COORD97":167637.23000000001,"N_COORD97":2544716.8700000001,"ADDRESS":"成功路５０４巷１７弄２３號","OBJECTID":45299},"geometry":{"x":167637.23000000045,"y":2544716.870000001}},{"attributes":{"ID":45300,"DIS_CODE":0,"TOWNNAME":"北區","LI":"裕民里","LIN":"7鄰","STREET":"成功路","SECT":" ","MAREA":" ","LANE":"５０４巷","ALLEY":"１７弄","HOUSE_NO":"３號","E_COORD97":167678.54999999999,"N_COORD97":2544701.1400000001,"ADDRESS":"成功路５０４巷１７弄３號","OBJECTID":45300},"geometry":{"x":167678.54999999981,"y":2544701.1400000006}},{"attributes":{"ID":45301,"DIS_CODE":0,"TOWNNAME":"北區","LI":"裕民里","LIN":"7鄰","STREET":"成功路","SECT":" ","MAREA":" ","LANE":"５０４巷","ALLEY":"１７弄","HOUSE_NO":"５號","E_COORD97":167671.48000000001,"N_COORD97":2544702.1600000001,"ADDRESS":"成功路５０４巷１７弄５號","OBJECTID":45301},"geometry":{"x":167671.48000000231,"y":2544702.160000002}},{"attributes":{"ID":45302,"DIS_CODE":0,"TOWNNAME":"東區","LI":"富強里","LIN":"15鄰","STREET":"裕農路","SECT":" ","MAREA":" ","LANE":"３５０巷","ALLEY":"１０弄","HOUSE_NO":"６號","E_COORD97":171001.32000000001,"N_COORD97":2543014.96,"ADDRESS":"裕農路３５０巷１０弄６號","OBJECTID":45302},"geometry":{"x":171001.3200000003,"y":2543014.959999999}},{"attributes":{"ID":45303,"DIS_CODE":0,"TOWNNAME":"東區","LI":"和平里","LIN":"15鄰","STREET":"東門路","SECT":"三段","MAREA":" ","LANE":"２２６巷","ALLEY":"５０弄","HOUSE_NO":"５號","E_COORD97":171460.97,"N_COORD97":2541905.52,"ADDRESS":"東門路三段２２６巷５０弄５號","OBJECTID":45303},"geometry":{"x":171460.96999999974,"y":2541905.5200000014}},{"attributes":{"ID":45304,"DIS_CODE":0,"TOWNNAME":"東區","LI":"和平里","LIN":"15鄰","STREET":"東門路","SECT":"三段","MAREA":" ","LANE":"２２６巷","ALLEY":"５０弄","HOUSE_NO":"１３號","E_COORD97":171458.41,"N_COORD97":2541927.9900000002,"ADDRESS":"東門路三段２２６巷５０弄１３號","OBJECTID":45304},"geometry":{"x":171458.41000000015,"y":2541927.9900000002}},{"attributes":{"ID":45305,"DIS_CODE":0,"TOWNNAME":"東區","LI":"富強里","LIN":"15鄰","STREET":"裕農路","SECT":" ","MAREA":" ","LANE":"３５０巷","ALLEY":"２４弄","HOUSE_NO":"５號","E_COORD97":171018.87,"N_COORD97":2542971.1600000001,"ADDRESS":"裕農路３５０巷２４弄５號","OBJECTID":45305},"geometry":{"x":171018.87000000104,"y":2542971.1600000001}},{"attributes":{"ID":45306,"DIS_CODE":0,"TOWNNAME":"山上區","LI":"南洲里","LIN":"20鄰","STREET":" ","SECT":" ","MAREA":"南洲","LANE":" ","ALLEY":" ","HOUSE_NO":"３０８之２號","E_COORD97":183744.44,"N_COORD97":2555764.2999999998,"ADDRESS":"南洲３０８之２號","OBJECTID":45306},"geometry":{"x":183744.44000000134,"y":2555764.3000000026}},{"attributes":{"ID":45307,"DIS_CODE":0,"TOWNNAME":"山上區","LI":"南洲里","LIN":"20鄰","STREET":" ","SECT":" ","MAREA":"南洲","LANE":" ","ALLEY":" ","HOUSE_NO":"３８０號","E_COORD97":183768.34,"N_COORD97":2555853.25,"ADDRESS":"南洲３８０號","OBJECTID":45307},"geometry":{"x":183768.34000000078,"y":2555853.2500000019}},{"attributes":{"ID":45308,"DIS_CODE":0,"TOWNNAME":"山上區","LI":"南洲里","LIN":"20鄰","STREET":" ","SECT":" ","MAREA":"南洲","LANE":" ","ALLEY":" ","HOUSE_NO":"３２６之６號","E_COORD97":183663.73999999999,"N_COORD97":2555893.2999999998,"ADDRESS":"南洲３２６之６號","OBJECTID":45308},"geometry":{"x":183663.74000000115,"y":2555893.3000000026}},{"attributes":{"ID":45309,"DIS_CODE":0,"TOWNNAME":"山上區","LI":"南洲里","LIN":"20鄰","STREET":" ","SECT":" ","MAREA":"南洲","LANE":" ","ALLEY":" ","HOUSE_NO":"３２７之８號","E_COORD97":183596.54000000001,"N_COORD97":2555950.2999999998,"ADDRESS":"南洲３２７之８號","OBJECTID":45309},"geometry":{"x":183596.54000000004,"y":2555950.3000000045}},{"attributes":{"ID":45310,"DIS_CODE":0,"TOWNNAME":"七股區","LI":"竹橋里","LIN":"8鄰","STREET":" ","SECT":" ","MAREA":"竹橋","LANE":" ","ALLEY":" ","HOUSE_NO":"９１號","E_COORD97":164091.07999999999,"N_COORD97":2555983.8300000001,"ADDRESS":"竹橋９１號","OBJECTID":45310},"geometry":{"x":164091.08000000007,"y":2555983.8300000019}},{"attributes":{"ID":45311,"DIS_CODE":0,"TOWNNAME":"東區","LI":"和平里","LIN":"15鄰","STREET":"東門路","SECT":"三段","MAREA":" ","LANE":"２２６巷","ALLEY":"５０弄","HOUSE_NO":"７號","E_COORD97":171459.42999999999,"N_COORD97":2541911.3900000001,"ADDRESS":"東門路三段２２６巷５０弄７號","OBJECTID":45311},"geometry":{"x":171459.4299999997,"y":2541911.3900000025}},{"attributes":{"ID":45312,"DIS_CODE":0,"TOWNNAME":"山上區","LI":"南洲里","LIN":"20鄰","STREET":" ","SECT":" ","MAREA":"南洲","LANE":" ","ALLEY":" ","HOUSE_NO":"３８０之３號","E_COORD97":183791.84,"N_COORD97":2555881.2999999998,"ADDRESS":"南洲３８０之３號","OBJECTID":45312},"geometry":{"x":183791.84000000078,"y":2555881.3000000007}},{"attributes":{"ID":45313,"DIS_CODE":0,"TOWNNAME":"永康區","LI":"網寮里","LIN":"15鄰","STREET":"永二街","SECT":" ","MAREA":" ","LANE":"２４４巷","ALLEY":"４８弄","HOUSE_NO":"２之１號","E_COORD97":173310.82999999999,"N_COORD97":2546632.2999999998,"ADDRESS":"永二街２４４巷４８弄２之１號","OBJECTID":45313},"geometry":{"x":173310.83000000101,"y":2546632.3000000007}},{"attributes":{"ID":45314,"DIS_CODE":0,"TOWNNAME":"永康區","LI":"\u25A0行里","LIN":"15鄰","STREET":"中正路","SECT":" ","MAREA":" ","LANE":"６３５巷","ALLEY":"１３弄","HOUSE_NO":"３號","E_COORD97":171774.06,"N_COORD97":2548921.5,"ADDRESS":"中正路６３５巷１３弄３號","OBJECTID":45314},"geometry":{"x":171774.06000000145,"y":2548921.5000000019}},{"attributes":{"ID":45315,"DIS_CODE":0,"TOWNNAME":"永康區","LI":"網寮里","LIN":"15鄰","STREET":"永和街","SECT":" ","MAREA":" ","LANE":"２６０巷","ALLEY":"１２弄","HOUSE_NO":"１１號","E_COORD97":173463.03,"N_COORD97":2546604.7400000002,"ADDRESS":"永和街２６０巷１２弄１１號","OBJECTID":45315},"geometry":{"x":173463.03000000026,"y":2546604.7400000002}},{"attributes":{"ID":45316,"DIS_CODE":0,"TOWNNAME":"永康區","LI":"網寮里","LIN":"15鄰","STREET":"永和街","SECT":" ","MAREA":" ","LANE":"２６０巷","ALLEY":"１２弄","HOUSE_NO":"５號","E_COORD97":173445.59,"N_COORD97":2546613,"ADDRESS":"永和街２６０巷１２弄５號","OBJECTID":45316},"geometry":{"x":173445.59000000171,"y":2546613}},{"attributes":{"ID":45317,"DIS_CODE":0,"TOWNNAME":"安南區","LI":"幸福里","LIN":"15鄰","STREET":"府安路","SECT":"六段","MAREA":" ","LANE":"４５巷","ALLEY":"４３弄","HOUSE_NO":"６號","E_COORD97":166900.23000000001,"N_COORD97":2546777.48,"ADDRESS":"府安路六段４５巷４３弄６號","OBJECTID":45317},"geometry":{"x":166900.23000000231,"y":2546777.4800000004}},{"attributes":{"ID":45318,"DIS_CODE":0,"TOWNNAME":"安南區","LI":"城東里","LIN":"15鄰","STREET":"城北路","SECT":" ","MAREA":" ","LANE":"２３４巷","ALLEY":"６５弄","HOUSE_NO":"１４號","E_COORD97":161174.54000000001,"N_COORD97":2551880.2599999998,"ADDRESS":"城北路２３４巷６５弄１４號","OBJECTID":45318},"geometry":{"x":161174.53999999911,"y":2551880.2599999998}},{"attributes":{"ID":45319,"DIS_CODE":0,"TOWNNAME":"安南區","LI":"城東里","LIN":"15鄰","STREET":"城北路","SECT":" ","MAREA":" ","LANE":"２３４巷","ALLEY":"５１弄","HOUSE_NO":"３３號","E_COORD97":161118.14999999999,"N_COORD97":2551943.3100000001,"ADDRESS":"城北路２３４巷５１弄３３號","OBJECTID":45319},"geometry":{"x":161118.15000000037,"y":2551943.3100000024}},{"attributes":{"ID":45320,"DIS_CODE":0,"TOWNNAME":"安南區","LI":"城東里","LIN":"15鄰","STREET":"城北路","SECT":" ","MAREA":" ","LANE":"２３４巷","ALLEY":"５１弄","HOUSE_NO":"３３之２號","E_COORD97":161109.48999999999,"N_COORD97":2551941.96,"ADDRESS":"城北路２３４巷５１弄３３之２號","OBJECTID":45320},"geometry":{"x":161109.49000000115,"y":2551941.9600000046}},{"attributes":{"ID":45321,"DIS_CODE":0,"TOWNNAME":"將軍區","LI":"保源里","LIN":"17鄰","STREET":" ","SECT":" ","MAREA":"源頭","LANE":" ","ALLEY":" ","HOUSE_NO":"６５號","E_COORD97":164662.60000000001,"N_COORD97":2568051.7999999998,"ADDRESS":"源頭６５號","OBJECTID":45321},"geometry":{"x":164662.60000000149,"y":2568051.8000000026}},{"attributes":{"ID":45322,"DIS_CODE":0,"TOWNNAME":"安南區","LI":"城東里","LIN":"15鄰","STREET":"城北路","SECT":" ","MAREA":" ","LANE":"２３４巷","ALLEY":"５１弄","HOUSE_NO":"３３之３號","E_COORD97":161104.78,"N_COORD97":2551941.96,"ADDRESS":"城北路２３４巷５１弄３３之３號","OBJECTID":45322},"geometry":{"x":161104.78000000026,"y":2551941.9600000046}},{"attributes":{"ID":45323,"DIS_CODE":0,"TOWNNAME":"安南區","LI":"城東里","LIN":"15鄰","STREET":"城北路","SECT":" ","MAREA":" ","LANE":"２３４巷","ALLEY":"５１弄","HOUSE_NO":"３１之３號","E_COORD97":161096.41,"N_COORD97":2551923.2799999998,"ADDRESS":"城北路２３４巷５１弄３１之３號","OBJECTID":45323},"geometry":{"x":161096.41000000108,"y":2551923.2799999993}},{"attributes":{"ID":45324,"DIS_CODE":0,"TOWNNAME":"將軍區","LI":"鯤鯓里","LIN":"17鄰","STREET":" ","SECT":" ","MAREA":"鯤鯓","LANE":" ","ALLEY":" ","HOUSE_NO":"２５２之４７號","E_COORD97":157170.47,"N_COORD97":2565649.3500000001,"ADDRESS":"鯤鯓２５２之４７號","OBJECTID":45324},"geometry":{"x":157170.46999999974,"y":2565649.3500000015}},{"attributes":{"ID":45325,"DIS_CODE":0,"TOWNNAME":"將軍區","LI":"鯤鯓里","LIN":"17鄰","STREET":" ","SECT":" ","MAREA":"鯤鯓","LANE":" ","ALLEY":" ","HOUSE_NO":"２５２之４８號","E_COORD97":157170.60000000001,"N_COORD97":2565645.0699999998,"ADDRESS":"鯤鯓２５２之４８號","OBJECTID":45325},"geometry":{"x":157170.60000000056,"y":2565645.0700000022}},{"attributes":{"ID":45326,"DIS_CODE":0,"TOWNNAME":"仁德區","LI":"仁義里","LIN":"17鄰","STREET":"義林八街","SECT":" ","MAREA":" ","LANE":" ","ALLEY":" ","HOUSE_NO":"７９號","E_COORD97":174243.76999999999,"N_COORD97":2541271.27,"ADDRESS":"義林八街７９號","OBJECTID":45326},"geometry":{"x":174243.76999999955,"y":2541271.2699999996}},{"attributes":{"ID":45327,"DIS_CODE":0,"TOWNNAME":"將軍區","LI":"鯤鯓里","LIN":"17鄰","STREET":" ","SECT":" ","MAREA":"鯤鯓","LANE":" ","ALLEY":" ","HOUSE_NO":"２５２之４９號","E_COORD97":157170.57000000001,"N_COORD97":2565640.8700000001,"ADDRESS":"鯤鯓２５２之４９號","OBJECTID":45327},"geometry":{"x":157170.56999999937,"y":2565640.8700000029}},{"attributes":{"ID":45328,"DIS_CODE":0,"TOWNNAME":"龍崎區","LI":"崎頂里","LIN":"17鄰","STREET":" ","SECT":" ","MAREA":"芋園","LANE":" ","ALLEY":" ","HOUSE_NO":"１７號","E_COORD97":186914.37,"N_COORD97":2541425.25,"ADDRESS":"芋園１７號","OBJECTID":45328},"geometry":{"x":186914.37000000104,"y":2541425.2499999981}},{"attributes":{"ID":45329,"DIS_CODE":0,"TOWNNAME":"新化區","LI":"全興里","LIN":"17鄰","STREET":" ","SECT":" ","MAREA":"竹子\u25A0","LANE":" ","ALLEY":" ","HOUSE_NO":"２４７號之６３１","E_COORD97":178324.95999999999,"N_COORD97":2546607.2599999998,"ADDRESS":"竹子\u25A0２４７號之６３１","OBJECTID":45329},"geometry":{"x":178324.95999999996,"y":2546607.2600000016}},{"attributes":{"ID":45330,"DIS_CODE":0,"TOWNNAME":"新化區","LI":"全興里","LIN":"17鄰","STREET":" ","SECT":" ","MAREA":"竹子\u25A0","LANE":" ","ALLEY":" ","HOUSE_NO":"２４７號之５３８","E_COORD97":178290.98999999999,"N_COORD97":2546634.2599999998,"ADDRESS":"竹子\u25A0２４７號之５３８","OBJECTID":45330},"geometry":{"x":178290.99000000022,"y":2546634.2600000016}},{"attributes":{"ID":45331,"DIS_CODE":0,"TOWNNAME":"新化區","LI":"全興里","LIN":"17鄰","STREET":" ","SECT":" ","MAREA":"竹子\u25A0","LANE":" ","ALLEY":" ","HOUSE_NO":"２４７號之６３５","E_COORD97":178315.29000000001,"N_COORD97":2546607.2599999998,"ADDRESS":"竹子\u25A0２４７號之６３５","OBJECTID":45331},"geometry":{"x":178315.29000000097,"y":2546607.2600000016}},{"attributes":{"ID":45332,"DIS_CODE":0,"TOWNNAME":"安南區","LI":"城東里","LIN":"15鄰","STREET":"城北路","SECT":" ","MAREA":" ","LANE":"２３４巷","ALLEY":"５１弄","HOUSE_NO":"３１之５號","E_COORD97":161088.09,"N_COORD97":2551922.6200000001,"ADDRESS":"城北路２３４巷５１弄３１之５號","OBJECTID":45332},"geometry":{"x":161088.09000000078,"y":2551922.620000001}},{"attributes":{"ID":45333,"DIS_CODE":0,"TOWNNAME":"安南區","LI":"城東里","LIN":"15鄰","STREET":"城北路","SECT":" ","MAREA":" ","LANE":"２３４巷","ALLEY":"５１弄","HOUSE_NO":"３１之６號","E_COORD97":161083.20000000001,"N_COORD97":2551922.7599999998,"ADDRESS":"城北路２３４巷５１弄３１之６號","OBJECTID":45333},"geometry":{"x":161083.20000000019,"y":2551922.7600000016}},{"attributes":{"ID":45334,"DIS_CODE":0,"TOWNNAME":"安南區","LI":"長安里","LIN":"15鄰","STREET":"公學路","SECT":"二段","MAREA":" ","LANE":"６３巷","ALLEY":"２弄","HOUSE_NO":"２１號","E_COORD97":167794.56,"N_COORD97":2552372.73,"ADDRESS":"公學路二段６３巷２弄２１號","OBJECTID":45334},"geometry":{"x":167794.56000000052,"y":2552372.7300000004}},{"attributes":{"ID":45335,"DIS_CODE":0,"TOWNNAME":"安南區","LI":"溪心里","LIN":"15鄰","STREET":"智安四街","SECT":" ","MAREA":" ","LANE":"１０５巷","ALLEY":"６弄","HOUSE_NO":"２號","E_COORD97":166013.13,"N_COORD97":2550393.8199999998,"ADDRESS":"智安四街１０５巷６弄２號","OBJECTID":45335},"geometry":{"x":166013.12999999989,"y":2550393.8200000022}},{"attributes":{"ID":45336,"DIS_CODE":0,"TOWNNAME":"安南區","LI":"溪心里","LIN":"15鄰","STREET":"智安四街","SECT":" ","MAREA":" ","LANE":"１０５巷","ALLEY":"２弄","HOUSE_NO":"３號","E_COORD97":166021.12,"N_COORD97":2550405.0600000001,"ADDRESS":"智安四街１０５巷２弄３號","OBJECTID":45336},"geometry":{"x":166021.12000000104,"y":2550405.0600000042}},{"attributes":{"ID":45337,"DIS_CODE":0,"TOWNNAME":"安南區","LI":"溪心里","LIN":"15鄰","STREET":"智安四街","SECT":" ","MAREA":" ","LANE":"１０５巷","ALLEY":"２弄","HOUSE_NO":"５號","E_COORD97":166018.98000000001,"N_COORD97":2550408.6800000002,"ADDRESS":"智安四街１０５巷２弄５號","OBJECTID":45337},"geometry":{"x":166018.98000000138,"y":2550408.6799999997}},{"attributes":{"ID":45338,"DIS_CODE":0,"TOWNNAME":"安南區","LI":"溪心里","LIN":"15鄰","STREET":"智安四街","SECT":" ","MAREA":" ","LANE":"１０５巷","ALLEY":"２弄","HOUSE_NO":"１１號","E_COORD97":166011.17000000001,"N_COORD97":2550418.1600000001,"ADDRESS":"智安四街１０５巷２弄１１號","OBJECTID":45338},"geometry":{"x":166011.16999999993,"y":2550418.160000002}},{"attributes":{"ID":45339,"DIS_CODE":0,"TOWNNAME":"安定區","LI":"港口里","LIN":"17鄰","STREET":" ","SECT":" ","MAREA":"港口","LANE":" ","ALLEY":" ","HOUSE_NO":"３６４之１９號","E_COORD97":171535.54000000001,"N_COORD97":2554874.2999999998,"ADDRESS":"港口３６４之１９號","OBJECTID":45339},"geometry":{"x":171535.53999999911,"y":2554874.3000000007}},{"attributes":{"ID":45340,"DIS_CODE":0,"TOWNNAME":"安定區","LI":"海寮里","LIN":"17鄰","STREET":" ","SECT":" ","MAREA":"海寮","LANE":" ","ALLEY":" ","HOUSE_NO":"１６３號","E_COORD97":169301.34,"N_COORD97":2555427.25,"ADDRESS":"海寮１６３號","OBJECTID":45340},"geometry":{"x":169301.34000000078,"y":2555427.25}},{"attributes":{"ID":45341,"DIS_CODE":0,"TOWNNAME":"安定區","LI":"海寮里","LIN":"17鄰","STREET":" ","SECT":" ","MAREA":"海寮","LANE":" ","ALLEY":" ","HOUSE_NO":"１６６號之４","E_COORD97":169357.5,"N_COORD97":2555441.2999999998,"ADDRESS":"海寮１６６號之４","OBJECTID":45341},"geometry":{"x":169357.50000000186,"y":2555441.3000000007}},{"attributes":{"ID":45342,"DIS_CODE":0,"TOWNNAME":"安定區","LI":"海寮里","LIN":"17鄰","STREET":" ","SECT":" ","MAREA":"海寮","LANE":" ","ALLEY":" ","HOUSE_NO":"１６５號","E_COORD97":169343.73999999999,"N_COORD97":2555457.25,"ADDRESS":"海寮１６５號","OBJECTID":45342},"geometry":{"x":169343.74000000022,"y":2555457.25}},{"attributes":{"ID":45343,"DIS_CODE":0,"TOWNNAME":"安定區","LI":"港南里","LIN":"17鄰","STREET":" ","SECT":" ","MAREA":"港口","LANE":" ","ALLEY":" ","HOUSE_NO":"１４０號之３５","E_COORD97":171659.63,"N_COORD97":2554437.2999999998,"ADDRESS":"港口１４０號之３５","OBJECTID":45343},"geometry":{"x":171659.62999999989,"y":2554437.3000000007}},{"attributes":{"ID":45344,"DIS_CODE":0,"TOWNNAME":"安定區","LI":"港口里","LIN":"17鄰","STREET":" ","SECT":" ","MAREA":"港口","LANE":" ","ALLEY":" ","HOUSE_NO":"３６４之６號","E_COORD97":171479.69,"N_COORD97":2554844.2999999998,"ADDRESS":"港口３６４之６號","OBJECTID":45344},"geometry":{"x":171479.69000000134,"y":2554844.3000000007}},{"attributes":{"ID":45345,"DIS_CODE":0,"TOWNNAME":"安定區","LI":"港口里","LIN":"17鄰","STREET":" ","SECT":" ","MAREA":"港口","LANE":" ","ALLEY":" ","HOUSE_NO":"３６３之３號","E_COORD97":171442.09743299999,"N_COORD97":2554832.15032,"ADDRESS":"港口３６３之３號","OBJECTID":45345},"geometry":{"x":171442.09743299987,"y":2554832.1503160037}},{"attributes":{"ID":45346,"DIS_CODE":0,"TOWNNAME":"安定區","LI":"港南里","LIN":"17鄰","STREET":" ","SECT":" ","MAREA":"港口","LANE":" ","ALLEY":" ","HOUSE_NO":"１４０號","E_COORD97":171557.89000000001,"N_COORD97":2554430.25,"ADDRESS":"港口１４０號","OBJECTID":45346},"geometry":{"x":171557.88999999966,"y":2554430.25}},{"attributes":{"ID":45347,"DIS_CODE":0,"TOWNNAME":"佳里區","LI":"海澄里","LIN":"17鄰","STREET":" ","SECT":" ","MAREA":"番子寮","LANE":" ","ALLEY":" ","HOUSE_NO":"１３６號之１１","E_COORD97":163839.87,"N_COORD97":2564483.46,"ADDRESS":"番子寮１３６號之１１","OBJECTID":45347},"geometry":{"x":163839.87000000011,"y":2564483.4600000028}},{"attributes":{"ID":45348,"DIS_CODE":0,"TOWNNAME":"佳里區","LI":"海澄里","LIN":"17鄰","STREET":" ","SECT":" ","MAREA":"番子寮","LANE":" ","ALLEY":" ","HOUSE_NO":"１３６號之１２","E_COORD97":163840.34,"N_COORD97":2564476.6800000002,"ADDRESS":"番子寮１３６號之１２","OBJECTID":45348},"geometry":{"x":163840.33999999985,"y":2564476.6799999978}},{"attributes":{"ID":45349,"DIS_CODE":0,"TOWNNAME":"山上區","LI":"明和里","LIN":"20鄰","STREET":" ","SECT":" ","MAREA":"明和","LANE":" ","ALLEY":" ","HOUSE_NO":"６１號","E_COORD97":183269.69,"N_COORD97":2556080.25,"ADDRESS":"明和６１號","OBJECTID":45349},"geometry":{"x":183269.69000000134,"y":2556080.2500000019}},{"attributes":{"ID":45350,"DIS_CODE":0,"TOWNNAME":"佳里區","LI":"海澄里","LIN":"17鄰","STREET":" ","SECT":" ","MAREA":"番子寮","LANE":" ","ALLEY":" ","HOUSE_NO":"１３６號之１３","E_COORD97":163840.17000000001,"N_COORD97":2564470.7799999998,"ADDRESS":"番子寮１３６號之１３","OBJECTID":45350},"geometry":{"x":163840.17000000179,"y":2564470.7799999993}},{"attributes":{"ID":45351,"DIS_CODE":0,"TOWNNAME":"學甲區","LI":"大灣里","LIN":"17鄰","STREET":" ","SECT":" ","MAREA":"大灣","LANE":" ","ALLEY":" ","HOUSE_NO":"１７３號之６","E_COORD97":166536.54999999999,"N_COORD97":2567549.3399999999,"ADDRESS":"大灣１７３號之６","OBJECTID":45351},"geometry":{"x":166536.55000000075,"y":2567549.3399999999}},{"attributes":{"ID":45352,"DIS_CODE":0,"TOWNNAME":"學甲區","LI":"大灣里","LIN":"17鄰","STREET":" ","SECT":" ","MAREA":"大灣","LANE":" ","ALLEY":" ","HOUSE_NO":"１７３號","E_COORD97":166532.45000000001,"N_COORD97":2567547.4500000002,"ADDRESS":"大灣１７３號","OBJECTID":45352},"geometry":{"x":166532.45000000112,"y":2567547.4500000011}},{"attributes":{"ID":45353,"DIS_CODE":0,"TOWNNAME":"安南區","LI":"溪心里","LIN":"15鄰","STREET":"智安四街","SECT":" ","MAREA":" ","LANE":"１０５巷","ALLEY":"２弄","HOUSE_NO":"７號","E_COORD97":166016.19,"N_COORD97":2550412.1200000001,"ADDRESS":"智安四街１０５巷２弄７號","OBJECTID":45353},"geometry":{"x":166016.19000000134,"y":2550412.1200000048}},{"attributes":{"ID":45354,"DIS_CODE":0,"TOWNNAME":"學甲區","LI":"光華里","LIN":"17鄰","STREET":" ","SECT":" ","MAREA":"中洲","LANE":" ","ALLEY":" ","HOUSE_NO":"６３３號之１４","E_COORD97":164161.04000000001,"N_COORD97":2571697.1400000001,"ADDRESS":"中洲６３３號之１４","OBJECTID":45354},"geometry":{"x":164161.04000000004,"y":2571697.1400000025}},{"attributes":{"ID":45355,"DIS_CODE":0,"TOWNNAME":"學甲區","LI":"光華里","LIN":"17鄰","STREET":" ","SECT":" ","MAREA":"中洲","LANE":" ","ALLEY":" ","HOUSE_NO":"６３３號之１５","E_COORD97":164165.07000000001,"N_COORD97":2571697.27,"ADDRESS":"中洲６３３號之１５","OBJECTID":45355},"geometry":{"x":164165.07000000216,"y":2571697.2699999996}},{"attributes":{"ID":45356,"DIS_CODE":0,"TOWNNAME":"學甲區","LI":"光華里","LIN":"17鄰","STREET":" ","SECT":" ","MAREA":"中洲","LANE":" ","ALLEY":" ","HOUSE_NO":"６３３號之１６","E_COORD97":164168.73999999999,"N_COORD97":2571697.1099999999,"ADDRESS":"中洲６３３號之１６","OBJECTID":45356},"geometry":{"x":164168.74000000022,"y":2571697.1099999994}},{"attributes":{"ID":45357,"DIS_CODE":0,"TOWNNAME":"學甲區","LI":"光華里","LIN":"17鄰","STREET":" ","SECT":" ","MAREA":"中洲","LANE":" ","ALLEY":" ","HOUSE_NO":"６３３號之１７","E_COORD97":164173.12,"N_COORD97":2571696.8599999999,"ADDRESS":"中洲６３３號之１７","OBJECTID":45357},"geometry":{"x":164173.12000000104,"y":2571696.8600000031}},{"attributes":{"ID":45358,"DIS_CODE":0,"TOWNNAME":"安南區","LI":"溪心里","LIN":"15鄰","STREET":"智安四街","SECT":" ","MAREA":" ","LANE":"１０５巷","ALLEY":"６弄","HOUSE_NO":"６號","E_COORD97":166009.97,"N_COORD97":2550395.77,"ADDRESS":"智安四街１０５巷６弄６號","OBJECTID":45358},"geometry":{"x":166009.97000000067,"y":2550395.7700000033}},{"attributes":{"ID":45359,"DIS_CODE":0,"TOWNNAME":"學甲區","LI":"明宜里","LIN":"17鄰","STREET":"天水路","SECT":" ","MAREA":" ","LANE":" ","ALLEY":" ","HOUSE_NO":"１１號","E_COORD97":166079.07000000001,"N_COORD97":2570640.9900000002,"ADDRESS":"天水路１１號","OBJECTID":45359},"geometry":{"x":166079.07000000123,"y":2570640.9900000002}},{"attributes":{"ID":45360,"DIS_CODE":0,"TOWNNAME":"學甲區","LI":"光華里","LIN":"17鄰","STREET":" ","SECT":" ","MAREA":"中洲","LANE":" ","ALLEY":" ","HOUSE_NO":"６３３號之１８","E_COORD97":164176.64999999999,"N_COORD97":2571696.9100000001,"ADDRESS":"中洲６３３號之１８","OBJECTID":45360},"geometry":{"x":164176.6500000013,"y":2571696.9100000001}},{"attributes":{"ID":45361,"DIS_CODE":0,"TOWNNAME":"學甲區","LI":"光華里","LIN":"17鄰","STREET":" ","SECT":" ","MAREA":"中洲","LANE":" ","ALLEY":" ","HOUSE_NO":"６３３號之１９","E_COORD97":164180.85000000001,"N_COORD97":2571696.96,"ADDRESS":"中洲６３３號之１９","OBJECTID":45361},"geometry":{"x":164180.84999999963,"y":2571696.9600000009}},{"attributes":{"ID":45362,"DIS_CODE":0,"TOWNNAME":"學甲區","LI":"光華里","LIN":"17鄰","STREET":" ","SECT":" ","MAREA":"中洲","LANE":" ","ALLEY":" ","HOUSE_NO":"６３３號之１","E_COORD97":164125.67000000001,"N_COORD97":2571677.1099999999,"ADDRESS":"中洲６３３號之１","OBJECTID":45362},"geometry":{"x":164125.67000000086,"y":2571677.1099999994}},{"attributes":{"ID":45363,"DIS_CODE":0,"TOWNNAME":"學甲區","LI":"光華里","LIN":"17鄰","STREET":" ","SECT":" ","MAREA":"中洲","LANE":" ","ALLEY":" ","HOUSE_NO":"６３３號之２","E_COORD97":164122.54999999999,"N_COORD97":2571692.7000000002,"ADDRESS":"中洲６３３號之２","OBJECTID":45363},"geometry":{"x":164122.55000000075,"y":2571692.6999999993}},{"attributes":{"ID":45364,"DIS_CODE":0,"TOWNNAME":"學甲區","LI":"光華里","LIN":"17鄰","STREET":" ","SECT":" ","MAREA":"中洲","LANE":" ","ALLEY":" ","HOUSE_NO":"６３３號之３","E_COORD97":164122.09,"N_COORD97":2571697.5699999998,"ADDRESS":"中洲６３３號之３","OBJECTID":45364},"geometry":{"x":164122.09000000171,"y":2571697.5700000022}},{"attributes":{"ID":45365,"DIS_CODE":0,"TOWNNAME":"學甲區","LI":"光華里","LIN":"17鄰","STREET":" ","SECT":" ","MAREA":"中洲","LANE":" ","ALLEY":" ","HOUSE_NO":"６３３號之６","E_COORD97":164117.19,"N_COORD97":2571710.2799999998,"ADDRESS":"中洲６３３號之６","OBJECTID":45365},"geometry":{"x":164117.19000000134,"y":2571710.2799999993}},{"attributes":{"ID":45366,"DIS_CODE":0,"TOWNNAME":"學甲區","LI":"光華里","LIN":"17鄰","STREET":" ","SECT":" ","MAREA":"中洲","LANE":" ","ALLEY":" ","HOUSE_NO":"６３３號之７","E_COORD97":164117.42000000001,"N_COORD97":2571714.8799999999,"ADDRESS":"中洲６３３號之７","OBJECTID":45366},"geometry":{"x":164117.41999999993,"y":2571714.879999999}},{"attributes":{"ID":45367,"DIS_CODE":0,"TOWNNAME":"學甲區","LI":"光華里","LIN":"17鄰","STREET":" ","SECT":" ","MAREA":"中洲","LANE":" ","ALLEY":" ","HOUSE_NO":"６３３號之８","E_COORD97":164137.06,"N_COORD97":2571698.6600000001,"ADDRESS":"中洲６３３號之８","OBJECTID":45367},"geometry":{"x":164137.05999999959,"y":2571698.6600000001}},{"attributes":{"ID":45368,"DIS_CODE":0,"TOWNNAME":"學甲區","LI":"光華里","LIN":"17鄰","STREET":" ","SECT":" ","MAREA":"中洲","LANE":" ","ALLEY":" ","HOUSE_NO":"６３３號之９","E_COORD97":164141.62,"N_COORD97":2571698.4500000002,"ADDRESS":"中洲６３３號之９","OBJECTID":45368},"geometry":{"x":164141.62000000011,"y":2571698.4499999993}},{"attributes":{"ID":45369,"DIS_CODE":0,"TOWNNAME":"學甲區","LI":"光華里","LIN":"17鄰","STREET":" ","SECT":" ","MAREA":"中洲","LANE":" ","ALLEY":" ","HOUSE_NO":"６３３號","E_COORD97":164148.89000000001,"N_COORD97":2571666.7000000002,"ADDRESS":"中洲６３３號","OBJECTID":45369},"geometry":{"x":164148.8900000006,"y":2571666.6999999993}},{"attributes":{"ID":45370,"DIS_CODE":0,"TOWNNAME":"學甲區","LI":"光華里","LIN":"17鄰","STREET":" ","SECT":" ","MAREA":"中洲","LANE":" ","ALLEY":" ","HOUSE_NO":"６３５號之１","E_COORD97":164152.88,"N_COORD97":2571761.5699999998,"ADDRESS":"中洲６３５號之１","OBJECTID":45370},"geometry":{"x":164152.88000000082,"y":2571761.5700000022}},{"attributes":{"ID":45371,"DIS_CODE":0,"TOWNNAME":"學甲區","LI":"光華里","LIN":"17鄰","STREET":" ","SECT":" ","MAREA":"中洲","LANE":" ","ALLEY":" ","HOUSE_NO":"６３５號","E_COORD97":164145.60999999999,"N_COORD97":2571774.1600000001,"ADDRESS":"中洲６３５號","OBJECTID":45371},"geometry":{"x":164145.61000000034,"y":2571774.160000002}},{"attributes":{"ID":45372,"DIS_CODE":0,"TOWNNAME":"山上區","LI":"南洲里","LIN":"20鄰","STREET":" ","SECT":" ","MAREA":"南洲","LANE":" ","ALLEY":" ","HOUSE_NO":"３２８之２號","E_COORD97":183649.54000000001,"N_COORD97":2555941.2999999998,"ADDRESS":"南洲３２８之２號","OBJECTID":45372},"geometry":{"x":183649.5400000019,"y":2555941.3000000026}},{"attributes":{"ID":45373,"DIS_CODE":0,"TOWNNAME":"山上區","LI":"南洲里","LIN":"20鄰","STREET":" ","SECT":" ","MAREA":"南洲","LANE":" ","ALLEY":" ","HOUSE_NO":"３２６號之５","E_COORD97":183660.32999999999,"N_COORD97":2555896.2999999998,"ADDRESS":"南洲３２６號之５","OBJECTID":45373},"geometry":{"x":183660.33000000007,"y":2555896.3000000045}},{"attributes":{"ID":45374,"DIS_CODE":0,"TOWNNAME":"山上區","LI":"南洲里","LIN":"20鄰","STREET":" ","SECT":" ","MAREA":"南洲","LANE":" ","ALLEY":" ","HOUSE_NO":"３０７號之５","E_COORD97":183738.82999999999,"N_COORD97":2555788.2999999998,"ADDRESS":"南洲３０７號之５","OBJECTID":45374},"geometry":{"x":183738.83000000007,"y":2555788.3000000026}},{"attributes":{"ID":45375,"DIS_CODE":0,"TOWNNAME":"山上區","LI":"南洲里","LIN":"20鄰","STREET":" ","SECT":" ","MAREA":"南洲","LANE":" ","ALLEY":" ","HOUSE_NO":"３２８號之４","E_COORD97":183654.39999999999,"N_COORD97":2555947.2999999998,"ADDRESS":"南洲３２８號之４","OBJECTID":45375},"geometry":{"x":183654.4000000013,"y":2555947.3000000026}},{"attributes":{"ID":45376,"DIS_CODE":0,"TOWNNAME":"七股區","LI":"頂山里","LIN":"1鄰","STREET":" ","SECT":" ","MAREA":"頂山","LANE":" ","ALLEY":" ","HOUSE_NO":"６號","E_COORD97":159085.73999999999,"N_COORD97":2564585.1699999999,"ADDRESS":"頂山６號","OBJECTID":45376},"geometry":{"x":159085.74000000115,"y":2564585.1699999999}},{"attributes":{"ID":45377,"DIS_CODE":0,"TOWNNAME":"山上區","LI":"南洲里","LIN":"20鄰","STREET":" ","SECT":" ","MAREA":"南洲","LANE":" ","ALLEY":" ","HOUSE_NO":"３８０號之５","E_COORD97":183799.92999999999,"N_COORD97":2555889.2999999998,"ADDRESS":"南洲３８０號之５","OBJECTID":45377},"geometry":{"x":183799.9299999997,"y":2555889.3000000045}},{"attributes":{"ID":45378,"DIS_CODE":0,"TOWNNAME":"永康區","LI":"大橋里","LIN":"15鄰","STREET":"大橋一街","SECT":" ","MAREA":" ","LANE":"１０３巷","ALLEY":"４１弄","HOUSE_NO":"６號","E_COORD97":170921.44,"N_COORD97":2546503.2999999998,"ADDRESS":"大橋一街１０３巷４１弄６號","OBJECTID":45378},"geometry":{"x":170921.44000000227,"y":2546503.3000000007}},{"attributes":{"ID":45379,"DIS_CODE":0,"TOWNNAME":"山上區","LI":"南洲里","LIN":"20鄰","STREET":" ","SECT":" ","MAREA":"南洲","LANE":" ","ALLEY":" ","HOUSE_NO":"３７６號","E_COORD97":183755.14000000001,"N_COORD97":2555839.25,"ADDRESS":"南洲３７６號","OBJECTID":45379},"geometry":{"x":183755.14000000153,"y":2555839.2500000019}},{"attributes":{"ID":45380,"DIS_CODE":0,"TOWNNAME":"山上區","LI":"南洲里","LIN":"20鄰","STREET":" ","SECT":" ","MAREA":"南洲","LANE":" ","ALLEY":" ","HOUSE_NO":"３０８之１號","E_COORD97":183743.94,"N_COORD97":2555759.2999999998,"ADDRESS":"南洲３０８之１號","OBJECTID":45380},"geometry":{"x":183743.94000000134,"y":2555759.3000000007}},{"attributes":{"ID":45381,"DIS_CODE":0,"TOWNNAME":"山上區","LI":"南洲里","LIN":"20鄰","STREET":" ","SECT":" ","MAREA":"南洲","LANE":" ","ALLEY":" ","HOUSE_NO":"３７９號","E_COORD97":183765.23999999999,"N_COORD97":2555850.25,"ADDRESS":"南洲３７９號","OBJECTID":45381},"geometry":{"x":183765.24000000209,"y":2555850.25}},{"attributes":{"ID":45382,"DIS_CODE":0,"TOWNNAME":"山上區","LI":"明和里","LIN":"20鄰","STREET":" ","SECT":" ","MAREA":"明和","LANE":" ","ALLEY":" ","HOUSE_NO":"６７之７號","E_COORD97":183349.98999999999,"N_COORD97":2555849.2999999998,"ADDRESS":"明和６７之７號","OBJECTID":45382},"geometry":{"x":183349.99000000209,"y":2555849.3000000026}},{"attributes":{"ID":45383,"DIS_CODE":0,"TOWNNAME":"山上區","LI":"明和里","LIN":"20鄰","STREET":" ","SECT":" ","MAREA":"明和","LANE":" ","ALLEY":" ","HOUSE_NO":"７０之３號","E_COORD97":183165.59,"N_COORD97":2555996.2999999998,"ADDRESS":"明和７０之３號","OBJECTID":45383},"geometry":{"x":183165.58999999985,"y":2555996.3000000007}},{"attributes":{"ID":45384,"DIS_CODE":0,"TOWNNAME":"山上區","LI":"明和里","LIN":"20鄰","STREET":" ","SECT":" ","MAREA":"明和","LANE":" ","ALLEY":" ","HOUSE_NO":"６７之１９號","E_COORD97":183325.73999999999,"N_COORD97":2555842.2999999998,"ADDRESS":"明和６７之１９號","OBJECTID":45384},"geometry":{"x":183325.74000000022,"y":2555842.3000000026}},{"attributes":{"ID":45385,"DIS_CODE":0,"TOWNNAME":"山上區","LI":"明和里","LIN":"20鄰","STREET":" ","SECT":" ","MAREA":"明和","LANE":" ","ALLEY":" ","HOUSE_NO":"７５之８號","E_COORD97":182051.98999999999,"N_COORD97":2555597.2999999998,"ADDRESS":"明和７５之８號","OBJECTID":45385},"geometry":{"x":182051.99000000115,"y":2555597.3000000007}},{"attributes":{"ID":45386,"DIS_CODE":0,"TOWNNAME":"山上區","LI":"明和里","LIN":"20鄰","STREET":" ","SECT":" ","MAREA":"明和","LANE":" ","ALLEY":" ","HOUSE_NO":"６７之１７號","E_COORD97":183352.64000000001,"N_COORD97":2555815.2999999998,"ADDRESS":"明和６７之１７號","OBJECTID":45386},"geometry":{"x":183352.63999999966,"y":2555815.3000000026}},{"attributes":{"ID":45387,"DIS_CODE":0,"TOWNNAME":"山上區","LI":"明和里","LIN":"20鄰","STREET":" ","SECT":" ","MAREA":"明和","LANE":" ","ALLEY":" ","HOUSE_NO":"７５之１號","E_COORD97":182606.29000000001,"N_COORD97":2555851.2999999998,"ADDRESS":"明和７５之１號","OBJECTID":45387},"geometry":{"x":182606.29000000004,"y":2555851.3000000007}},{"attributes":{"ID":45388,"DIS_CODE":0,"TOWNNAME":"山上區","LI":"明和里","LIN":"20鄰","STREET":" ","SECT":" ","MAREA":"明和","LANE":" ","ALLEY":" ","HOUSE_NO":"６７之２２號","E_COORD97":183301.94,"N_COORD97":2555886.2999999998,"ADDRESS":"明和６７之２２號","OBJECTID":45388},"geometry":{"x":183301.94000000134,"y":2555886.3000000026}},{"attributes":{"ID":45389,"DIS_CODE":0,"TOWNNAME":"山上區","LI":"明和里","LIN":"20鄰","STREET":" ","SECT":" ","MAREA":"明和","LANE":" ","ALLEY":" ","HOUSE_NO":"６７之２８號","E_COORD97":183275.73999999999,"N_COORD97":2555907.2999999998,"ADDRESS":"明和６７之２８號","OBJECTID":45389},"geometry":{"x":183275.74000000115,"y":2555907.3000000026}},{"attributes":{"ID":45390,"DIS_CODE":0,"TOWNNAME":"山上區","LI":"明和里","LIN":"20鄰","STREET":" ","SECT":" ","MAREA":"明和","LANE":" ","ALLEY":" ","HOUSE_NO":"６７之１１號","E_COORD97":183366.73999999999,"N_COORD97":2555835.2999999998,"ADDRESS":"明和６７之１１號","OBJECTID":45390},"geometry":{"x":183366.74000000022,"y":2555835.3000000045}},{"attributes":{"ID":45391,"DIS_CODE":0,"TOWNNAME":"山上區","LI":"明和里","LIN":"20鄰","STREET":" ","SECT":" ","MAREA":"明和","LANE":" ","ALLEY":" ","HOUSE_NO":"７５號之５","E_COORD97":182106.67999999999,"N_COORD97":2555831.2999999998,"ADDRESS":"明和７５號之５","OBJECTID":45391},"geometry":{"x":182106.6799999997,"y":2555831.3000000007}},{"attributes":{"ID":45392,"DIS_CODE":0,"TOWNNAME":"山上區","LI":"南洲里","LIN":"20鄰","STREET":" ","SECT":" ","MAREA":"南洲","LANE":" ","ALLEY":" ","HOUSE_NO":"３２８號","E_COORD97":183641.94,"N_COORD97":2555935.25,"ADDRESS":"南洲３２８號","OBJECTID":45392},"geometry":{"x":183641.93999999948,"y":2555935.25}},{"attributes":{"ID":45393,"DIS_CODE":0,"TOWNNAME":"山上區","LI":"明和里","LIN":"20鄰","STREET":" ","SECT":" ","MAREA":"明和","LANE":" ","ALLEY":" ","HOUSE_NO":"７５之７號","E_COORD97":182412.98999999999,"N_COORD97":2555901.2999999998,"ADDRESS":"明和７５之７號","OBJECTID":45393},"geometry":{"x":182412.99000000115,"y":2555901.3000000007}},{"attributes":{"ID":45394,"DIS_CODE":0,"TOWNNAME":"山上區","LI":"明和里","LIN":"20鄰","STREET":" ","SECT":" ","MAREA":"明和","LANE":" ","ALLEY":" ","HOUSE_NO":"７１之２號","E_COORD97":183140.39000000001,"N_COORD97":2556044.2999999998,"ADDRESS":"明和７１之２號","OBJECTID":45394},"geometry":{"x":183140.3900000006,"y":2556044.3000000007}},{"attributes":{"ID":45395,"DIS_CODE":0,"TOWNNAME":"山上區","LI":"明和里","LIN":"20鄰","STREET":" ","SECT":" ","MAREA":"明和","LANE":" ","ALLEY":" ","HOUSE_NO":"６７之１８號","E_COORD97":183347.73999999999,"N_COORD97":2555813.2999999998,"ADDRESS":"明和６７之１８號","OBJECTID":45395},"geometry":{"x":183347.74000000022,"y":2555813.3000000007}},{"attributes":{"ID":45396,"DIS_CODE":0,"TOWNNAME":"仁德區","LI":"仁義里","LIN":"15鄰","STREET":"義林路","SECT":" ","MAREA":" ","LANE":"２５６巷","ALLEY":"２２弄","HOUSE_NO":"４號","E_COORD97":174716.22,"N_COORD97":2541465.02,"ADDRESS":"義林路２５６巷２２弄４號","OBJECTID":45396},"geometry":{"x":174716.22000000067,"y":2541465.0200000014}},{"attributes":{"ID":45397,"DIS_CODE":0,"TOWNNAME":"山上區","LI":"明和里","LIN":"20鄰","STREET":" ","SECT":" ","MAREA":"明和","LANE":" ","ALLEY":" ","HOUSE_NO":"７５號","E_COORD97":182695.39000000001,"N_COORD97":2555864.25,"ADDRESS":"明和７５號","OBJECTID":45397},"geometry":{"x":182695.38999999966,"y":2555864.25}},{"attributes":{"ID":45398,"DIS_CODE":0,"TOWNNAME":"山上區","LI":"明和里","LIN":"20鄰","STREET":" ","SECT":" ","MAREA":"明和","LANE":" ","ALLEY":" ","HOUSE_NO":"７０之１號","E_COORD97":183163.39000000001,"N_COORD97":2556021.2999999998,"ADDRESS":"明和７０之１號","OBJECTID":45398},"geometry":{"x":183163.38999999966,"y":2556021.2999999989}},{"attributes":{"ID":45399,"DIS_CODE":0,"TOWNNAME":"山上區","LI":"南洲里","LIN":"20鄰","STREET":" ","SECT":" ","MAREA":"南洲","LANE":" ","ALLEY":" ","HOUSE_NO":"３２７之３號","E_COORD97":183612.34,"N_COORD97":2555936.2999999998,"ADDRESS":"南洲３２７之３號","OBJECTID":45399},"geometry":{"x":183612.34000000078,"y":2555936.3000000007}},{"attributes":{"ID":45400,"DIS_CODE":0,"TOWNNAME":"山上區","LI":"南洲里","LIN":"20鄰","STREET":" ","SECT":" ","MAREA":"南洲","LANE":" ","ALLEY":" ","HOUSE_NO":"３３２之１號","E_COORD97":183583.84,"N_COORD97":2556017.2999999998,"ADDRESS":"南洲３３２之１號","OBJECTID":45400},"geometry":{"x":183583.83999999985,"y":2556017.3000000007}}]}