{"displayFieldName":"TOWNNAME","fieldAliases":{"ID":"ID","DIS_CODE":"DIS_CODE","TOWNNAME":"TOWNNAME","LI":"LI","LIN":"LIN","STREET":"STREET","SECT":"SECT","MAREA":"MAREA","LANE":"LANE","ALLEY":"ALLEY","HOUSE_NO":"HOUSE_NO","E_COORD97":"E_COORD97","N_COORD97":"N_COORD97","ADDRESS":"ADDRESS","OBJECTID":"OBJECTID"},"geometryType":"esriGeometryPoint","spatialReference":{"wkid":102443,"latestWkid":3826},"fields":[{"name":"ID","type":"esriFieldTypeDouble","alias":"ID"},{"name":"DIS_CODE","type":"esriFieldTypeInteger","alias":"DIS_CODE"},{"name":"TOWNNAME","type":"esriFieldTypeString","alias":"TOWNNAME","length":8},{"name":"LI","type":"esriFieldTypeString","alias":"LI","length":8},{"name":"LIN","type":"esriFieldTypeString","alias":"LIN","length":12},{"name":"STREET","type":"esriFieldTypeString","alias":"STREET","length":20},{"name":"SECT","type":"esriFieldTypeString","alias":"SECT","length":8},{"name":"MAREA","type":"esriFieldTypeString","alias":"MAREA","length":12},{"name":"LANE","type":"esriFieldTypeString","alias":"LANE","length":10},{"name":"ALLEY","type":"esriFieldTypeString","alias":"ALLEY","length":10},{"name":"HOUSE_NO","type":"esriFieldTypeString","alias":"HOUSE_NO","length":20},{"name":"E_COORD97","type":"esriFieldTypeDouble","alias":"E_COORD97"},{"name":"N_COORD97","type":"esriFieldTypeDouble","alias":"N_COORD97"},{"name":"ADDRESS","type":"esriFieldTypeString","alias":"ADDRESS","length":50},{"name":"OBJECTID","type":"esriFieldTypeOID","alias":"OBJECTID"}],"features":[{"attributes":{"ID":21201,"DIS_CODE":0,"TOWNNAME":"南區","LI":"喜南里","LIN":"14鄰","STREET":"喜樹路","SECT":" ","MAREA":" ","LANE":"２５２巷","ALLEY":"７弄","HOUSE_NO":"２號","E_COORD97":165654.54000000001,"N_COORD97":2537935.8599999999,"ADDRESS":"喜樹路２５２巷７弄２號","OBJECTID":21201},"geometry":{"x":165654.54000000004,"y":2537935.8600000013}},{"attributes":{"ID":21202,"DIS_CODE":0,"TOWNNAME":"新營區","LI":"太南里","LIN":"20鄰","STREET":" ","SECT":" ","MAREA":"太子宮","LANE":" ","ALLEY":" ","HOUSE_NO":"１６９號","E_COORD97":176245.39999999999,"N_COORD97":2576980.7000000002,"ADDRESS":"太子宮１６９號","OBJECTID":21202},"geometry":{"x":176245.40000000037,"y":2576980.7000000011}},{"attributes":{"ID":21203,"DIS_CODE":0,"TOWNNAME":"南區","LI":"喜南里","LIN":"14鄰","STREET":"喜樹路","SECT":" ","MAREA":" ","LANE":"２５２巷","ALLEY":"７弄","HOUSE_NO":"４號","E_COORD97":165651.79999999999,"N_COORD97":2537935.4300000002,"ADDRESS":"喜樹路２５２巷７弄４號","OBJECTID":21203},"geometry":{"x":165651.80000000075,"y":2537935.4300000034}},{"attributes":{"ID":21204,"DIS_CODE":0,"TOWNNAME":"南區","LI":"喜南里","LIN":"14鄰","STREET":"喜樹路","SECT":" ","MAREA":" ","LANE":"２５２巷","ALLEY":"７弄","HOUSE_NO":"７號","E_COORD97":165642.73000000001,"N_COORD97":2537926.79,"ADDRESS":"喜樹路２５２巷７弄７號","OBJECTID":21204},"geometry":{"x":165642.73000000138,"y":2537926.790000001}},{"attributes":{"ID":21205,"DIS_CODE":0,"TOWNNAME":"南區","LI":"喜南里","LIN":"14鄰","STREET":"喜樹路","SECT":" ","MAREA":" ","LANE":"２５２巷","ALLEY":"７弄","HOUSE_NO":"９號","E_COORD97":165619.09,"N_COORD97":2537924.3399999999,"ADDRESS":"喜樹路２５２巷７弄９號","OBJECTID":21205},"geometry":{"x":165619.09000000078,"y":2537924.3399999999}},{"attributes":{"ID":21206,"DIS_CODE":0,"TOWNNAME":"北區","LI":"仁愛里","LIN":"14鄰","STREET":"長榮路","SECT":"四段","MAREA":" ","LANE":"３１巷","ALLEY":"２３弄","HOUSE_NO":"１１號","E_COORD97":170220.31,"N_COORD97":2544870.6200000001,"ADDRESS":"長榮路四段３１巷２３弄１１號","OBJECTID":21206},"geometry":{"x":170220.31000000052,"y":2544870.620000001}},{"attributes":{"ID":21207,"DIS_CODE":0,"TOWNNAME":"東區","LI":"德光里","LIN":"24鄰","STREET":"崇德二街","SECT":" ","MAREA":" ","LANE":" ","ALLEY":" ","HOUSE_NO":"７０號","E_COORD97":170126.95000000001,"N_COORD97":2542370.0800000001,"ADDRESS":"崇德二街７０號","OBJECTID":21207},"geometry":{"x":170126.95000000019,"y":2542370.0800000019}},{"attributes":{"ID":21208,"DIS_CODE":0,"TOWNNAME":"東山區","LI":"三榮里","LIN":"17鄰","STREET":" ","SECT":" ","MAREA":"下寮子","LANE":" ","ALLEY":" ","HOUSE_NO":"３２號","E_COORD97":187596.95999999999,"N_COORD97":2581214.6800000002,"ADDRESS":"下寮子３２號","OBJECTID":21208},"geometry":{"x":187596.96000000089,"y":2581214.6799999997}},{"attributes":{"ID":21209,"DIS_CODE":0,"TOWNNAME":"南化區","LI":"中坑里","LIN":"8鄰","STREET":" ","SECT":" ","MAREA":"中坑","LANE":" ","ALLEY":" ","HOUSE_NO":"６２號","E_COORD97":193999.35999999999,"N_COORD97":2550564.7799999998,"ADDRESS":"中坑６２號","OBJECTID":21209},"geometry":{"x":193999.36000000034,"y":2550564.7799999993}},{"attributes":{"ID":21210,"DIS_CODE":0,"TOWNNAME":"麻豆區","LI":"埤頭里","LIN":"17鄰","STREET":" ","SECT":" ","MAREA":"埤頭","LANE":" ","ALLEY":" ","HOUSE_NO":"１５３號","E_COORD97":171159.78,"N_COORD97":2567237.3900000001,"ADDRESS":"埤頭１５３號","OBJECTID":21210},"geometry":{"x":171159.78000000119,"y":2567237.3900000025}},{"attributes":{"ID":21211,"DIS_CODE":0,"TOWNNAME":"北區","LI":"仁愛里","LIN":"14鄰","STREET":"長榮路","SECT":"四段","MAREA":" ","LANE":"３１巷","ALLEY":"２３弄","HOUSE_NO":"１３號","E_COORD97":170227.54999999999,"N_COORD97":2544869.0499999998,"ADDRESS":"長榮路四段３１巷２３弄１３號","OBJECTID":21211},"geometry":{"x":170227.54999999981,"y":2544869.0500000045}},{"attributes":{"ID":21212,"DIS_CODE":0,"TOWNNAME":"北區","LI":"仁愛里","LIN":"14鄰","STREET":"長榮路","SECT":"四段","MAREA":" ","LANE":"３１巷","ALLEY":"２３弄","HOUSE_NO":"１５號","E_COORD97":170236.51999999999,"N_COORD97":2544867.1600000001,"ADDRESS":"長榮路四段３１巷２３弄１５號","OBJECTID":21212},"geometry":{"x":170236.51999999955,"y":2544867.1600000001}},{"attributes":{"ID":21213,"DIS_CODE":0,"TOWNNAME":"新營區","LI":"太南里","LIN":"4鄰","STREET":" ","SECT":" ","MAREA":"太子宮","LANE":" ","ALLEY":" ","HOUSE_NO":"３３２之１０號","E_COORD97":176338.62,"N_COORD97":2577055.6099999999,"ADDRESS":"太子宮３３２之１０號","OBJECTID":21213},"geometry":{"x":176338.62000000011,"y":2577055.6100000013}},{"attributes":{"ID":21214,"DIS_CODE":0,"TOWNNAME":"麻豆區","LI":"埤頭里","LIN":"17鄰","STREET":" ","SECT":" ","MAREA":"埤頭","LANE":" ","ALLEY":" ","HOUSE_NO":"１５４號之２","E_COORD97":171187.78,"N_COORD97":2567210.1800000002,"ADDRESS":"埤頭１５４號之２","OBJECTID":21214},"geometry":{"x":171187.78000000026,"y":2567210.1800000016}},{"attributes":{"ID":21215,"DIS_CODE":0,"TOWNNAME":"北區","LI":"仁愛里","LIN":"14鄰","STREET":"長榮路","SECT":"四段","MAREA":" ","LANE":"３１巷","ALLEY":"２３弄","HOUSE_NO":"１５號地下室","E_COORD97":170236.51999999999,"N_COORD97":2544867.1600000001,"ADDRESS":"長榮路四段３１巷２３弄１５號地下室","OBJECTID":21215},"geometry":{"x":170236.51999999955,"y":2544867.1600000001}},{"attributes":{"ID":21216,"DIS_CODE":0,"TOWNNAME":"北區","LI":"仁愛里","LIN":"14鄰","STREET":"長榮路","SECT":"四段","MAREA":" ","LANE":"３１巷","ALLEY":"２３弄","HOUSE_NO":"１號","E_COORD97":170178.62,"N_COORD97":2544876.2799999998,"ADDRESS":"長榮路四段３１巷２３弄１號","OBJECTID":21216},"geometry":{"x":170178.62000000011,"y":2544876.2800000031}},{"attributes":{"ID":21217,"DIS_CODE":0,"TOWNNAME":"麻豆區","LI":"埤頭里","LIN":"17鄰","STREET":" ","SECT":" ","MAREA":"埤頭","LANE":" ","ALLEY":" ","HOUSE_NO":"１５４號之３","E_COORD97":171190.51999999999,"N_COORD97":2567194.8599999999,"ADDRESS":"埤頭１５４號之３","OBJECTID":21217},"geometry":{"x":171190.51999999955,"y":2567194.8600000013}},{"attributes":{"ID":21218,"DIS_CODE":0,"TOWNNAME":"麻豆區","LI":"埤頭里","LIN":"17鄰","STREET":" ","SECT":" ","MAREA":"埤頭","LANE":" ","ALLEY":" ","HOUSE_NO":"１５４號","E_COORD97":171197.92000000001,"N_COORD97":2567228.4399999999,"ADDRESS":"埤頭１５４號","OBJECTID":21218},"geometry":{"x":171197.92000000086,"y":2567228.4400000013}},{"attributes":{"ID":21219,"DIS_CODE":0,"TOWNNAME":"北區","LI":"仁愛里","LIN":"14鄰","STREET":"長榮路","SECT":"四段","MAREA":" ","LANE":"３１巷","ALLEY":"２３弄","HOUSE_NO":"２號","E_COORD97":170163.20999999999,"N_COORD97":2544879.2599999998,"ADDRESS":"長榮路四段３１巷２３弄２號","OBJECTID":21219},"geometry":{"x":170163.21000000089,"y":2544879.2599999998}},{"attributes":{"ID":21220,"DIS_CODE":0,"TOWNNAME":"麻豆區","LI":"埤頭里","LIN":"17鄰","STREET":" ","SECT":" ","MAREA":"埤頭","LANE":" ","ALLEY":" ","HOUSE_NO":"１５５號之１","E_COORD97":171209,"N_COORD97":2567191.9900000002,"ADDRESS":"埤頭１５５號之１","OBJECTID":21220},"geometry":{"x":171209.00000000093,"y":2567191.9900000021}},{"attributes":{"ID":21221,"DIS_CODE":0,"TOWNNAME":"北區","LI":"仁愛里","LIN":"14鄰","STREET":"長榮路","SECT":"四段","MAREA":" ","LANE":"３１巷","ALLEY":"２３弄","HOUSE_NO":"３號","E_COORD97":170187.26999999999,"N_COORD97":2544874.5499999998,"ADDRESS":"長榮路四段３１巷２３弄３號","OBJECTID":21221},"geometry":{"x":170187.26999999955,"y":2544874.5500000007}},{"attributes":{"ID":21222,"DIS_CODE":0,"TOWNNAME":"北區","LI":"仁愛里","LIN":"14鄰","STREET":"長榮路","SECT":"四段","MAREA":" ","LANE":"３１巷","ALLEY":"２３弄","HOUSE_NO":"４號","E_COORD97":170149.04999999999,"N_COORD97":2544880.52,"ADDRESS":"長榮路四段３１巷２３弄４號","OBJECTID":21222},"geometry":{"x":170149.05000000075,"y":2544880.5199999996}},{"attributes":{"ID":21223,"DIS_CODE":0,"TOWNNAME":"北區","LI":"仁愛里","LIN":"14鄰","STREET":"長榮路","SECT":"四段","MAREA":" ","LANE":"３１巷","ALLEY":"２３弄","HOUSE_NO":"５號","E_COORD97":170196.70999999999,"N_COORD97":2544873.1299999999,"ADDRESS":"長榮路四段３１巷２３弄５號","OBJECTID":21223},"geometry":{"x":170196.70999999996,"y":2544873.1300000027}},{"attributes":{"ID":21224,"DIS_CODE":0,"TOWNNAME":"北區","LI":"文成里","LIN":"14鄰","STREET":"文賢路","SECT":" ","MAREA":" ","LANE":"２４２巷","ALLEY":"９弄","HOUSE_NO":"１００號","E_COORD97":167465.26000000001,"N_COORD97":2545117.8799999999,"ADDRESS":"文賢路２４２巷９弄１００號","OBJECTID":21224},"geometry":{"x":167465.25999999978,"y":2545117.879999999}},{"attributes":{"ID":21225,"DIS_CODE":0,"TOWNNAME":"北區","LI":"文成里","LIN":"14鄰","STREET":"文賢路","SECT":" ","MAREA":" ","LANE":"２４２巷","ALLEY":"９弄","HOUSE_NO":"１０２號","E_COORD97":167467.82999999999,"N_COORD97":2545119.1600000001,"ADDRESS":"文賢路２４２巷９弄１０２號","OBJECTID":21225},"geometry":{"x":167467.83000000007,"y":2545119.160000002}},{"attributes":{"ID":21226,"DIS_CODE":0,"TOWNNAME":"麻豆區","LI":"埤頭里","LIN":"17鄰","STREET":" ","SECT":" ","MAREA":"埤頭","LANE":" ","ALLEY":" ","HOUSE_NO":"１５６號之１","E_COORD97":171162.07999999999,"N_COORD97":2567281.6200000001,"ADDRESS":"埤頭１５６號之１","OBJECTID":21226},"geometry":{"x":171162.08000000007,"y":2567281.620000001}},{"attributes":{"ID":21227,"DIS_CODE":0,"TOWNNAME":"麻豆區","LI":"埤頭里","LIN":"17鄰","STREET":" ","SECT":" ","MAREA":"埤頭","LANE":" ","ALLEY":" ","HOUSE_NO":"１５６號之３","E_COORD97":171126.91,"N_COORD97":2567357.3500000001,"ADDRESS":"埤頭１５６號之３","OBJECTID":21227},"geometry":{"x":171126.91000000108,"y":2567357.3500000034}},{"attributes":{"ID":21228,"DIS_CODE":0,"TOWNNAME":"麻豆區","LI":"埤頭里","LIN":"17鄰","STREET":" ","SECT":" ","MAREA":"埤頭","LANE":" ","ALLEY":" ","HOUSE_NO":"１５６之５號","E_COORD97":171139.38,"N_COORD97":2567324.5,"ADDRESS":"埤頭１５６之５號","OBJECTID":21228},"geometry":{"x":171139.37999999989,"y":2567324.5000000019}},{"attributes":{"ID":21229,"DIS_CODE":0,"TOWNNAME":"麻豆區","LI":"埤頭里","LIN":"17鄰","STREET":" ","SECT":" ","MAREA":"埤頭","LANE":" ","ALLEY":" ","HOUSE_NO":"１５６號之８","E_COORD97":171338.35999999999,"N_COORD97":2567594.5499999998,"ADDRESS":"埤頭１５６號之８","OBJECTID":21229},"geometry":{"x":171338.36000000034,"y":2567594.5500000045}},{"attributes":{"ID":21230,"DIS_CODE":0,"TOWNNAME":"麻豆區","LI":"埤頭里","LIN":"17鄰","STREET":" ","SECT":" ","MAREA":"埤頭","LANE":" ","ALLEY":" ","HOUSE_NO":"１５６號","E_COORD97":171135.57999999999,"N_COORD97":2567299.7000000002,"ADDRESS":"埤頭１５６號","OBJECTID":21230},"geometry":{"x":171135.58000000101,"y":2567299.6999999993}},{"attributes":{"ID":21231,"DIS_CODE":0,"TOWNNAME":"麻豆區","LI":"埤頭里","LIN":"17鄰","STREET":" ","SECT":" ","MAREA":"埤頭","LANE":" ","ALLEY":" ","HOUSE_NO":"１５７號","E_COORD97":171178.41,"N_COORD97":2567271.6600000001,"ADDRESS":"埤頭１５７號","OBJECTID":21231},"geometry":{"x":171178.41000000015,"y":2567271.660000002}},{"attributes":{"ID":21232,"DIS_CODE":0,"TOWNNAME":"麻豆區","LI":"埤頭里","LIN":"17鄰","STREET":" ","SECT":" ","MAREA":"埤頭","LANE":" ","ALLEY":" ","HOUSE_NO":"１６０號","E_COORD97":171182.89999999999,"N_COORD97":2567279.25,"ADDRESS":"埤頭１６０號","OBJECTID":21232},"geometry":{"x":171182.9000000013,"y":2567279.25}},{"attributes":{"ID":21233,"DIS_CODE":0,"TOWNNAME":"北區","LI":"文成里","LIN":"14鄰","STREET":"文賢路","SECT":" ","MAREA":" ","LANE":"２４２巷","ALLEY":"９弄","HOUSE_NO":"１０４號","E_COORD97":167462.06,"N_COORD97":2545134.2999999998,"ADDRESS":"文賢路２４２巷９弄１０４號","OBJECTID":21233},"geometry":{"x":167462.06000000052,"y":2545134.3000000007}},{"attributes":{"ID":21234,"DIS_CODE":0,"TOWNNAME":"麻豆區","LI":"埤頭里","LIN":"17鄰","STREET":" ","SECT":" ","MAREA":"埤頭","LANE":" ","ALLEY":" ","HOUSE_NO":"１６１號","E_COORD97":171187.26000000001,"N_COORD97":2567281.0699999998,"ADDRESS":"埤頭１６１號","OBJECTID":21234},"geometry":{"x":171187.25999999978,"y":2567281.0700000003}},{"attributes":{"ID":21235,"DIS_CODE":0,"TOWNNAME":"東山區","LI":"聖賢里","LIN":"17鄰","STREET":" ","SECT":" ","MAREA":"頂窩","LANE":" ","ALLEY":" ","HOUSE_NO":"２４號之１","E_COORD97":183198.22,"N_COORD97":2578598.1400000001,"ADDRESS":"頂窩２４號之１","OBJECTID":21235},"geometry":{"x":183198.21999999974,"y":2578598.1400000006}},{"attributes":{"ID":21236,"DIS_CODE":0,"TOWNNAME":"東山區","LI":"聖賢里","LIN":"17鄰","STREET":" ","SECT":" ","MAREA":"頂窩","LANE":" ","ALLEY":" ","HOUSE_NO":"２４號","E_COORD97":183203.87,"N_COORD97":2578599.6800000002,"ADDRESS":"頂窩２４號","OBJECTID":21236},"geometry":{"x":183203.87000000104,"y":2578599.6799999997}},{"attributes":{"ID":21237,"DIS_CODE":0,"TOWNNAME":"北區","LI":"文成里","LIN":"14鄰","STREET":"文賢路","SECT":" ","MAREA":" ","LANE":"２４２巷","ALLEY":"９弄","HOUSE_NO":"１０６號","E_COORD97":167458.64999999999,"N_COORD97":2545132.7999999998,"ADDRESS":"文賢路２４２巷９弄１０６號","OBJECTID":21237},"geometry":{"x":167458.6500000013,"y":2545132.8000000026}},{"attributes":{"ID":21238,"DIS_CODE":0,"TOWNNAME":"東山區","LI":"聖賢里","LIN":"17鄰","STREET":" ","SECT":" ","MAREA":"頂窩","LANE":" ","ALLEY":" ","HOUSE_NO":"２５號","E_COORD97":183174.09,"N_COORD97":2578595.2999999998,"ADDRESS":"頂窩２５號","OBJECTID":21238},"geometry":{"x":183174.08999999985,"y":2578595.3000000026}},{"attributes":{"ID":21239,"DIS_CODE":0,"TOWNNAME":"東山區","LI":"聖賢里","LIN":"17鄰","STREET":" ","SECT":" ","MAREA":"頂窩","LANE":" ","ALLEY":" ","HOUSE_NO":"２６號","E_COORD97":183181.37,"N_COORD97":2578575.1099999999,"ADDRESS":"頂窩２６號","OBJECTID":21239},"geometry":{"x":183181.37000000104,"y":2578575.1100000013}},{"attributes":{"ID":21240,"DIS_CODE":0,"TOWNNAME":"仁德區","LI":"仁德里","LIN":"24鄰","STREET":"文孝路","SECT":" ","MAREA":" ","LANE":" ","ALLEY":" ","HOUSE_NO":"７９號","E_COORD97":172006.73999999999,"N_COORD97":2541392.0699999998,"ADDRESS":"文孝路７９號","OBJECTID":21240},"geometry":{"x":172006.74000000022,"y":2541392.0700000003}},{"attributes":{"ID":21241,"DIS_CODE":0,"TOWNNAME":"東山區","LI":"聖賢里","LIN":"17鄰","STREET":" ","SECT":" ","MAREA":"頂窩","LANE":" ","ALLEY":" ","HOUSE_NO":"２７號之１","E_COORD97":183144.12,"N_COORD97":2578584.1200000001,"ADDRESS":"頂窩２７號之１","OBJECTID":21241},"geometry":{"x":183144.12000000104,"y":2578584.1200000029}},{"attributes":{"ID":21242,"DIS_CODE":0,"TOWNNAME":"北區","LI":"中樓里","LIN":" ","STREET":"前鋒路","SECT":" ","MAREA":" ","LANE":" ","ALLEY":" ","HOUSE_NO":"２８０號","E_COORD97":169559.12,"N_COORD97":2544956.6499999999,"ADDRESS":"前鋒路２８０號","OBJECTID":21242},"geometry":{"x":169559.12000000104,"y":2544956.6500000022}},{"attributes":{"ID":21243,"DIS_CODE":0,"TOWNNAME":"北區","LI":"文成里","LIN":"14鄰","STREET":"文賢路","SECT":" ","MAREA":" ","LANE":"２４２巷","ALLEY":"９弄","HOUSE_NO":"１０８號","E_COORD97":167454.81,"N_COORD97":2545130.8900000001,"ADDRESS":"文賢路２４２巷９弄１０８號","OBJECTID":21243},"geometry":{"x":167454.81000000145,"y":2545130.8900000043}},{"attributes":{"ID":21244,"DIS_CODE":0,"TOWNNAME":"北區","LI":"文成里","LIN":"14鄰","STREET":"文賢路","SECT":" ","MAREA":" ","LANE":"２４２巷","ALLEY":"９弄","HOUSE_NO":"１１０號","E_COORD97":167451.39000000001,"N_COORD97":2545129.3900000001,"ADDRESS":"文賢路２４２巷９弄１１０號","OBJECTID":21244},"geometry":{"x":167451.3900000006,"y":2545129.3900000006}},{"attributes":{"ID":21245,"DIS_CODE":0,"TOWNNAME":"新營區","LI":"太南里","LIN":" ","STREET":" ","SECT":" ","MAREA":"太子宮","LANE":" ","ALLEY":" ","HOUSE_NO":"２６７之２號","E_COORD97":176267.38,"N_COORD97":2576769.1299999999,"ADDRESS":"太子宮２６７之２號","OBJECTID":21245},"geometry":{"x":176267.37999999989,"y":2576769.129999999}},{"attributes":{"ID":21246,"DIS_CODE":0,"TOWNNAME":"東山區","LI":"聖賢里","LIN":"17鄰","STREET":" ","SECT":" ","MAREA":"頂窩","LANE":" ","ALLEY":" ","HOUSE_NO":"２７號之２","E_COORD97":183134.94,"N_COORD97":2578596.8500000001,"ADDRESS":"頂窩２７號之２","OBJECTID":21246},"geometry":{"x":183134.94000000041,"y":2578596.8500000015}},{"attributes":{"ID":21247,"DIS_CODE":0,"TOWNNAME":"東山區","LI":"聖賢里","LIN":"17鄰","STREET":" ","SECT":" ","MAREA":"頂窩","LANE":" ","ALLEY":" ","HOUSE_NO":"２７號之３","E_COORD97":183129.10999999999,"N_COORD97":2578596.02,"ADDRESS":"頂窩２７號之３","OBJECTID":21247},"geometry":{"x":183129.11000000127,"y":2578596.0200000014}},{"attributes":{"ID":21248,"DIS_CODE":0,"TOWNNAME":"東山區","LI":"聖賢里","LIN":"17鄰","STREET":" ","SECT":" ","MAREA":"頂窩","LANE":" ","ALLEY":" ","HOUSE_NO":"２７號之４","E_COORD97":183122.95999999999,"N_COORD97":2578595.6400000001,"ADDRESS":"頂窩２７號之４","OBJECTID":21248},"geometry":{"x":183122.96000000089,"y":2578595.6400000043}},{"attributes":{"ID":21249,"DIS_CODE":0,"TOWNNAME":"東山區","LI":"聖賢里","LIN":"17鄰","STREET":" ","SECT":" ","MAREA":"頂窩","LANE":" ","ALLEY":" ","HOUSE_NO":"２７號之５","E_COORD97":183116.87,"N_COORD97":2578594.7599999998,"ADDRESS":"頂窩２７號之５","OBJECTID":21249},"geometry":{"x":183116.87000000104,"y":2578594.7600000016}},{"attributes":{"ID":21250,"DIS_CODE":0,"TOWNNAME":"東山區","LI":"聖賢里","LIN":"17鄰","STREET":" ","SECT":" ","MAREA":"頂窩","LANE":" ","ALLEY":" ","HOUSE_NO":"２７號","E_COORD97":183151.12,"N_COORD97":2578566.5800000001,"ADDRESS":"頂窩２７號","OBJECTID":21250},"geometry":{"x":183151.12000000104,"y":2578566.5800000019}},{"attributes":{"ID":21251,"DIS_CODE":0,"TOWNNAME":"北區","LI":"文成里","LIN":"14鄰","STREET":"文賢路","SECT":" ","MAREA":" ","LANE":"２４２巷","ALLEY":"９弄","HOUSE_NO":"１１２號","E_COORD97":167447.34,"N_COORD97":2545128.54,"ADDRESS":"文賢路２４２巷９弄１１２號","OBJECTID":21251},"geometry":{"x":167447.33999999985,"y":2545128.5400000028}},{"attributes":{"ID":21252,"DIS_CODE":0,"TOWNNAME":"東山區","LI":"聖賢里","LIN":"17鄰","STREET":" ","SECT":" ","MAREA":"頂窩","LANE":" ","ALLEY":" ","HOUSE_NO":"２８號之１０","E_COORD97":183075.84,"N_COORD97":2578589.8700000001,"ADDRESS":"頂窩２８號之１０","OBJECTID":21252},"geometry":{"x":183075.83999999892,"y":2578589.870000001}},{"attributes":{"ID":21253,"DIS_CODE":0,"TOWNNAME":"東山區","LI":"聖賢里","LIN":"17鄰","STREET":" ","SECT":" ","MAREA":"頂窩","LANE":" ","ALLEY":" ","HOUSE_NO":"２８號之２","E_COORD97":183111.17000000001,"N_COORD97":2578594.4100000001,"ADDRESS":"頂窩２８號之２","OBJECTID":21253},"geometry":{"x":183111.17000000179,"y":2578594.410000002}},{"attributes":{"ID":21254,"DIS_CODE":0,"TOWNNAME":"北區","LI":"文成里","LIN":"14鄰","STREET":"文賢路","SECT":" ","MAREA":" ","LANE":"２４２巷","ALLEY":"９弄","HOUSE_NO":"１１４號","E_COORD97":167443.48999999999,"N_COORD97":2545127.0499999998,"ADDRESS":"文賢路２４２巷９弄１１４號","OBJECTID":21254},"geometry":{"x":167443.49000000022,"y":2545127.0500000026}},{"attributes":{"ID":21255,"DIS_CODE":0,"TOWNNAME":"北區","LI":"文成里","LIN":"14鄰","STREET":"文賢路","SECT":" ","MAREA":" ","LANE":"２４２巷","ALLEY":"９弄","HOUSE_NO":"１１６號","E_COORD97":167439.64999999999,"N_COORD97":2545124.9199999999,"ADDRESS":"文賢路２４２巷９弄１１６號","OBJECTID":21255},"geometry":{"x":167439.65000000224,"y":2545124.9199999999}},{"attributes":{"ID":21256,"DIS_CODE":0,"TOWNNAME":"北區","LI":"文成里","LIN":"14鄰","STREET":"文賢路","SECT":" ","MAREA":" ","LANE":"２４２巷","ALLEY":"９弄","HOUSE_NO":"１１８號","E_COORD97":167435.81,"N_COORD97":2545123.4300000002,"ADDRESS":"文賢路２４２巷９弄１１８號","OBJECTID":21256},"geometry":{"x":167435.80999999959,"y":2545123.4300000016}},{"attributes":{"ID":21257,"DIS_CODE":0,"TOWNNAME":"北區","LI":"文成里","LIN":"14鄰","STREET":"文賢路","SECT":" ","MAREA":" ","LANE":"２４２巷","ALLEY":"９弄","HOUSE_NO":"１２０號","E_COORD97":167431.54000000001,"N_COORD97":2545122.1499999999,"ADDRESS":"文賢路２４２巷９弄１２０號","OBJECTID":21257},"geometry":{"x":167431.5400000019,"y":2545122.1500000041}},{"attributes":{"ID":21258,"DIS_CODE":0,"TOWNNAME":"北區","LI":"文成里","LIN":"14鄰","STREET":"文賢路","SECT":" ","MAREA":" ","LANE":"２４２巷","ALLEY":"９弄","HOUSE_NO":"１２２號","E_COORD97":167427.26999999999,"N_COORD97":2545120.6600000001,"ADDRESS":"文賢路２４２巷９弄１２２號","OBJECTID":21258},"geometry":{"x":167427.26999999955,"y":2545120.6600000001}},{"attributes":{"ID":21259,"DIS_CODE":0,"TOWNNAME":"北區","LI":"文成里","LIN":"14鄰","STREET":"文賢路","SECT":" ","MAREA":" ","LANE":"２４２巷","ALLEY":"９弄","HOUSE_NO":"１２４號","E_COORD97":167424.70999999999,"N_COORD97":2545118.3100000001,"ADDRESS":"文賢路２４２巷９弄１２４號","OBJECTID":21259},"geometry":{"x":167424.70999999996,"y":2545118.3100000024}},{"attributes":{"ID":21260,"DIS_CODE":0,"TOWNNAME":"東山區","LI":"聖賢里","LIN":"17鄰","STREET":" ","SECT":" ","MAREA":"頂窩","LANE":" ","ALLEY":" ","HOUSE_NO":"２８號之３","E_COORD97":183105.56,"N_COORD97":2578593.3500000001,"ADDRESS":"頂窩２８號之３","OBJECTID":21260},"geometry":{"x":183105.55999999959,"y":2578593.3500000034}},{"attributes":{"ID":21261,"DIS_CODE":0,"TOWNNAME":"北區","LI":"文成里","LIN":"14鄰","STREET":"文賢路","SECT":" ","MAREA":" ","LANE":"２４２巷","ALLEY":"９弄","HOUSE_NO":"１２６號","E_COORD97":167420.66,"N_COORD97":2545117.25,"ADDRESS":"文賢路２４２巷９弄１２６號","OBJECTID":21261},"geometry":{"x":167420.66000000201,"y":2545117.25}},{"attributes":{"ID":21262,"DIS_CODE":0,"TOWNNAME":"北區","LI":"文成里","LIN":"14鄰","STREET":"文賢路","SECT":" ","MAREA":" ","LANE":"２４２巷","ALLEY":"９弄","HOUSE_NO":"１２８號","E_COORD97":167416.39000000001,"N_COORD97":2545115.54,"ADDRESS":"文賢路２４２巷９弄１２８號","OBJECTID":21262},"geometry":{"x":167416.38999999966,"y":2545115.540000001}},{"attributes":{"ID":21263,"DIS_CODE":0,"TOWNNAME":"北區","LI":"文成里","LIN":"14鄰","STREET":"文賢路","SECT":" ","MAREA":" ","LANE":"２４２巷","ALLEY":"９弄","HOUSE_NO":"１３０號","E_COORD97":167412.32999999999,"N_COORD97":2545114.0499999998,"ADDRESS":"文賢路２４２巷９弄１３０號","OBJECTID":21263},"geometry":{"x":167412.33000000007,"y":2545114.0500000026}},{"attributes":{"ID":21264,"DIS_CODE":0,"TOWNNAME":"東山區","LI":"聖賢里","LIN":"17鄰","STREET":" ","SECT":" ","MAREA":"頂窩","LANE":" ","ALLEY":" ","HOUSE_NO":"２８號之５","E_COORD97":183100.69,"N_COORD97":2578592.73,"ADDRESS":"頂窩２８號之５","OBJECTID":21264},"geometry":{"x":183100.69000000041,"y":2578592.7300000023}},{"attributes":{"ID":21265,"DIS_CODE":0,"TOWNNAME":"東山區","LI":"聖賢里","LIN":"17鄰","STREET":" ","SECT":" ","MAREA":"頂窩","LANE":" ","ALLEY":" ","HOUSE_NO":"２８號之６","E_COORD97":183096.19,"N_COORD97":2578592.48,"ADDRESS":"頂窩２８號之６","OBJECTID":21265},"geometry":{"x":183096.19000000227,"y":2578592.4800000004}},{"attributes":{"ID":21266,"DIS_CODE":0,"TOWNNAME":"北區","LI":"文成里","LIN":"14鄰","STREET":"文賢路","SECT":" ","MAREA":" ","LANE":"２４２巷","ALLEY":"９弄","HOUSE_NO":"１３２號","E_COORD97":167408.48999999999,"N_COORD97":2545112.3399999999,"ADDRESS":"文賢路２４２巷９弄１３２號","OBJECTID":21266},"geometry":{"x":167408.49000000209,"y":2545112.3399999999}},{"attributes":{"ID":21267,"DIS_CODE":0,"TOWNNAME":"東山區","LI":"聖賢里","LIN":"17鄰","STREET":" ","SECT":" ","MAREA":"頂窩","LANE":" ","ALLEY":" ","HOUSE_NO":"２８號之７","E_COORD97":183092.14000000001,"N_COORD97":2578592.1000000001,"ADDRESS":"頂窩２８號之７","OBJECTID":21267},"geometry":{"x":183092.13999999966,"y":2578592.1000000015}},{"attributes":{"ID":21268,"DIS_CODE":0,"TOWNNAME":"仁德區","LI":"太子里","LIN":"24鄰","STREET":"長興五街","SECT":" ","MAREA":" ","LANE":"３６巷","ALLEY":" ","HOUSE_NO":"２２號","E_COORD97":173643.67000000001,"N_COORD97":2543661.25,"ADDRESS":"長興五街３６巷２２號","OBJECTID":21268},"geometry":{"x":173643.67000000086,"y":2543661.2500000019}},{"attributes":{"ID":21269,"DIS_CODE":0,"TOWNNAME":"仁德區","LI":"仁德里","LIN":"24鄰","STREET":"文孝路","SECT":" ","MAREA":" ","LANE":" ","ALLEY":" ","HOUSE_NO":"４３號","E_COORD97":172040.89999999999,"N_COORD97":2541384.8199999998,"ADDRESS":"文孝路４３號","OBJECTID":21269},"geometry":{"x":172040.9000000013,"y":2541384.820000004}},{"attributes":{"ID":21270,"DIS_CODE":0,"TOWNNAME":"東山區","LI":"聖賢里","LIN":"17鄰","STREET":" ","SECT":" ","MAREA":"頂窩","LANE":" ","ALLEY":" ","HOUSE_NO":"２８號之９","E_COORD97":183082.92999999999,"N_COORD97":2578590.8300000001,"ADDRESS":"頂窩２８號之９","OBJECTID":21270},"geometry":{"x":183082.9299999997,"y":2578590.8300000019}},{"attributes":{"ID":21271,"DIS_CODE":0,"TOWNNAME":"東山區","LI":"聖賢里","LIN":"17鄰","STREET":" ","SECT":" ","MAREA":"頂窩","LANE":" ","ALLEY":" ","HOUSE_NO":"２９號之１","E_COORD97":183107.26000000001,"N_COORD97":2578571.8900000001,"ADDRESS":"頂窩２９號之１","OBJECTID":21271},"geometry":{"x":183107.26000000071,"y":2578571.8900000006}},{"attributes":{"ID":21272,"DIS_CODE":0,"TOWNNAME":"東山區","LI":"聖賢里","LIN":"17鄰","STREET":" ","SECT":" ","MAREA":"頂窩","LANE":" ","ALLEY":" ","HOUSE_NO":"２９號之２","E_COORD97":183096.62,"N_COORD97":2578571.4700000002,"ADDRESS":"頂窩２９號之２","OBJECTID":21272},"geometry":{"x":183096.62000000104,"y":2578571.4700000007}},{"attributes":{"ID":21273,"DIS_CODE":0,"TOWNNAME":"仁德區","LI":"仁德里","LIN":"24鄰","STREET":"文孝路","SECT":" ","MAREA":" ","LANE":" ","ALLEY":" ","HOUSE_NO":"１３號","E_COORD97":172107.48000000001,"N_COORD97":2541374.3300000001,"ADDRESS":"文孝路１３號","OBJECTID":21273},"geometry":{"x":172107.48000000045,"y":2541374.3300000038}},{"attributes":{"ID":21274,"DIS_CODE":0,"TOWNNAME":"永康區","LI":"西橋里","LIN":"24鄰","STREET":"中華西街","SECT":" ","MAREA":" ","LANE":" ","ALLEY":" ","HOUSE_NO":"２７１號","E_COORD97":170691.82000000001,"N_COORD97":2546464.7400000002,"ADDRESS":"中華西街２７１號","OBJECTID":21274},"geometry":{"x":170691.82000000123,"y":2546464.7400000021}},{"attributes":{"ID":21275,"DIS_CODE":0,"TOWNNAME":"北區","LI":"小康里","LIN":" ","STREET":"大武街","SECT":" ","MAREA":" ","LANE":" ","ALLEY":" ","HOUSE_NO":"４４９號","E_COORD97":169890.42999999999,"N_COORD97":2546474.04,"ADDRESS":"大武街４４９號","OBJECTID":21275},"geometry":{"x":169890.43000000063,"y":2546474.0399999972}},{"attributes":{"ID":21276,"DIS_CODE":0,"TOWNNAME":"新營區","LI":"太南里","LIN":" ","STREET":" ","SECT":" ","MAREA":"太子宮","LANE":" ","ALLEY":" ","HOUSE_NO":"３２０之２號","E_COORD97":175948.91,"N_COORD97":2575471.6600000001,"ADDRESS":"太子宮３２０之２號","OBJECTID":21276},"geometry":{"x":175948.91000000015,"y":2575471.6600000001}},{"attributes":{"ID":21277,"DIS_CODE":0,"TOWNNAME":"東山區","LI":"聖賢里","LIN":"17鄰","STREET":" ","SECT":" ","MAREA":"頂窩","LANE":" ","ALLEY":" ","HOUSE_NO":"２９號","E_COORD97":183129.37,"N_COORD97":2578574.6499999999,"ADDRESS":"頂窩２９號","OBJECTID":21277},"geometry":{"x":183129.37000000104,"y":2578574.6500000004}},{"attributes":{"ID":21278,"DIS_CODE":0,"TOWNNAME":"北區","LI":"文成里","LIN":"14鄰","STREET":"文賢路","SECT":" ","MAREA":" ","LANE":"２４２巷","ALLEY":"９弄","HOUSE_NO":"１３４號","E_COORD97":167404.64999999999,"N_COORD97":2545110.8500000001,"ADDRESS":"文賢路２４２巷９弄１３４號","OBJECTID":21278},"geometry":{"x":167404.6500000013,"y":2545110.8500000015}},{"attributes":{"ID":21279,"DIS_CODE":0,"TOWNNAME":"北區","LI":"文成里","LIN":"14鄰","STREET":"文賢路","SECT":" ","MAREA":" ","LANE":"２４２巷","ALLEY":"９弄","HOUSE_NO":"１３６號","E_COORD97":167400.38,"N_COORD97":2545109.3500000001,"ADDRESS":"文賢路２４２巷９弄１３６號","OBJECTID":21279},"geometry":{"x":167400.38000000175,"y":2545109.3499999996}},{"attributes":{"ID":21280,"DIS_CODE":0,"TOWNNAME":"北區","LI":"文成里","LIN":"14鄰","STREET":"文賢路","SECT":" ","MAREA":" ","LANE":"２４２巷","ALLEY":"９弄","HOUSE_NO":"１３８號","E_COORD97":167396.75,"N_COORD97":2545107.6499999999,"ADDRESS":"文賢路２４２巷９弄１３８號","OBJECTID":21280},"geometry":{"x":167396.75000000093,"y":2545107.6500000004}},{"attributes":{"ID":21281,"DIS_CODE":0,"TOWNNAME":"北區","LI":"文成里","LIN":"14鄰","STREET":"文賢路","SECT":" ","MAREA":" ","LANE":"２４２巷","ALLEY":"９弄","HOUSE_NO":"１４０號","E_COORD97":167392.69,"N_COORD97":2545106.3799999999,"ADDRESS":"文賢路２４２巷９弄１４０號","OBJECTID":21281},"geometry":{"x":167392.69000000134,"y":2545106.3800000008}},{"attributes":{"ID":21282,"DIS_CODE":0,"TOWNNAME":"北區","LI":"文成里","LIN":"14鄰","STREET":"文賢路","SECT":" ","MAREA":" ","LANE":"２４２巷","ALLEY":"９弄","HOUSE_NO":"６６號","E_COORD97":167398.88,"N_COORD97":2545091.0299999998,"ADDRESS":"文賢路２４２巷９弄６６號","OBJECTID":21282},"geometry":{"x":167398.88000000082,"y":2545091.0299999993}},{"attributes":{"ID":21283,"DIS_CODE":0,"TOWNNAME":"學甲區","LI":"秀昌里","LIN":"17鄰","STREET":" ","SECT":" ","MAREA":"下溪洲","LANE":" ","ALLEY":" ","HOUSE_NO":"３６號之６","E_COORD97":165200.67999999999,"N_COORD97":2571132.3199999998,"ADDRESS":"下溪洲３６號之６","OBJECTID":21283},"geometry":{"x":165200.6799999997,"y":2571132.3200000022}},{"attributes":{"ID":21284,"DIS_CODE":0,"TOWNNAME":"北區","LI":"文成里","LIN":"14鄰","STREET":"文賢路","SECT":" ","MAREA":" ","LANE":"２４２巷","ALLEY":"９弄","HOUSE_NO":"６８號","E_COORD97":167403.14999999999,"N_COORD97":2545091.6699999999,"ADDRESS":"文賢路２４２巷９弄６８號","OBJECTID":21284},"geometry":{"x":167403.1500000013,"y":2545091.6700000018}},{"attributes":{"ID":21285,"DIS_CODE":0,"TOWNNAME":"北區","LI":"文成里","LIN":"14鄰","STREET":"文賢路","SECT":" ","MAREA":" ","LANE":"２４２巷","ALLEY":"９弄","HOUSE_NO":"７０號","E_COORD97":167406.57000000001,"N_COORD97":2545093.7999999998,"ADDRESS":"文賢路２４２巷９弄７０號","OBJECTID":21285},"geometry":{"x":167406.57000000123,"y":2545093.8000000007}},{"attributes":{"ID":21286,"DIS_CODE":0,"TOWNNAME":"學甲區","LI":"秀昌里","LIN":"17鄰","STREET":" ","SECT":" ","MAREA":"下溪洲","LANE":" ","ALLEY":" ","HOUSE_NO":"３６號之７","E_COORD97":165201.62,"N_COORD97":2571136.21,"ADDRESS":"下溪洲３６號之７","OBJECTID":21286},"geometry":{"x":165201.62000000011,"y":2571136.2100000009}},{"attributes":{"ID":21287,"DIS_CODE":0,"TOWNNAME":"北區","LI":"文成里","LIN":"14鄰","STREET":"文賢路","SECT":" ","MAREA":" ","LANE":"２４２巷","ALLEY":"９弄","HOUSE_NO":"７２號","E_COORD97":167411.04999999999,"N_COORD97":2545095.5099999998,"ADDRESS":"文賢路２４２巷９弄７２號","OBJECTID":21287},"geometry":{"x":167411.05000000168,"y":2545095.5100000035}},{"attributes":{"ID":21288,"DIS_CODE":0,"TOWNNAME":"學甲區","LI":"秀昌里","LIN":"17鄰","STREET":" ","SECT":" ","MAREA":"下溪洲","LANE":" ","ALLEY":" ","HOUSE_NO":"３８號之１","E_COORD97":165203.20000000001,"N_COORD97":2571151.7599999998,"ADDRESS":"下溪洲３８號之１","OBJECTID":21288},"geometry":{"x":165203.20000000205,"y":2571151.7599999998}},{"attributes":{"ID":21289,"DIS_CODE":0,"TOWNNAME":"學甲區","LI":"秀昌里","LIN":"17鄰","STREET":" ","SECT":" ","MAREA":"下溪洲","LANE":" ","ALLEY":" ","HOUSE_NO":"３８號之２","E_COORD97":165219.84,"N_COORD97":2571144.21,"ADDRESS":"下溪洲３８號之２","OBJECTID":21289},"geometry":{"x":165219.83999999985,"y":2571144.2100000028}},{"attributes":{"ID":21290,"DIS_CODE":0,"TOWNNAME":"北區","LI":"文成里","LIN":"14鄰","STREET":"文賢路","SECT":" ","MAREA":" ","LANE":"２４２巷","ALLEY":"９弄","HOUSE_NO":"７４號","E_COORD97":167414.47,"N_COORD97":2545097.6400000001,"ADDRESS":"文賢路２４２巷９弄７４號","OBJECTID":21290},"geometry":{"x":167414.46999999974,"y":2545097.6400000006}},{"attributes":{"ID":21291,"DIS_CODE":0,"TOWNNAME":"學甲區","LI":"秀昌里","LIN":"17鄰","STREET":" ","SECT":" ","MAREA":"下溪洲","LANE":" ","ALLEY":" ","HOUSE_NO":"３８號之３","E_COORD97":165225.06,"N_COORD97":2571143.1200000001,"ADDRESS":"下溪洲３８號之３","OBJECTID":21291},"geometry":{"x":165225.05999999959,"y":2571143.120000001}},{"attributes":{"ID":21292,"DIS_CODE":0,"TOWNNAME":"北區","LI":"文成里","LIN":"14鄰","STREET":"文賢路","SECT":" ","MAREA":" ","LANE":"２４２巷","ALLEY":"９弄","HOUSE_NO":"７６號","E_COORD97":167417.88,"N_COORD97":2545098.9199999999,"ADDRESS":"文賢路２４２巷９弄７６號","OBJECTID":21292},"geometry":{"x":167417.88000000082,"y":2545098.9199999999}},{"attributes":{"ID":21293,"DIS_CODE":0,"TOWNNAME":"北區","LI":"文成里","LIN":"14鄰","STREET":"文賢路","SECT":" ","MAREA":" ","LANE":"２４２巷","ALLEY":"９弄","HOUSE_NO":"７８號","E_COORD97":167422.14999999999,"N_COORD97":2545100.6200000001,"ADDRESS":"文賢路２４２巷９弄７８號","OBJECTID":21293},"geometry":{"x":167422.15000000037,"y":2545100.6200000029}},{"attributes":{"ID":21294,"DIS_CODE":0,"TOWNNAME":"北區","LI":"文成里","LIN":"14鄰","STREET":"文賢路","SECT":" ","MAREA":" ","LANE":"２４２巷","ALLEY":"９弄","HOUSE_NO":"８０號","E_COORD97":167426.20000000001,"N_COORD97":2545101.2599999998,"ADDRESS":"文賢路２４２巷９弄８０號","OBJECTID":21294},"geometry":{"x":167426.20000000112,"y":2545101.2600000016}},{"attributes":{"ID":21295,"DIS_CODE":0,"TOWNNAME":"北區","LI":"文成里","LIN":"14鄰","STREET":"文賢路","SECT":" ","MAREA":" ","LANE":"２４２巷","ALLEY":"９弄","HOUSE_NO":"８２號","E_COORD97":167429.82999999999,"N_COORD97":2545103.9399999999,"ADDRESS":"文賢路２４２巷９弄８２號","OBJECTID":21295},"geometry":{"x":167429.83000000101,"y":2545103.9399999995}},{"attributes":{"ID":21296,"DIS_CODE":0,"TOWNNAME":"永康區","LI":"永康里","LIN":"24鄰","STREET":"永正路","SECT":" ","MAREA":" ","LANE":" ","ALLEY":" ","HOUSE_NO":"９號","E_COORD97":173565.29999999999,"N_COORD97":2547288.8999999999,"ADDRESS":"永正路９號","OBJECTID":21296},"geometry":{"x":173565.30000000075,"y":2547288.9000000004}},{"attributes":{"ID":21297,"DIS_CODE":0,"TOWNNAME":"新營區","LI":"三仙里","LIN":" ","STREET":"三興街","SECT":" ","MAREA":" ","LANE":" ","ALLEY":" ","HOUSE_NO":"５２之２號","E_COORD97":179447.23999999999,"N_COORD97":2578890.6899999999,"ADDRESS":"三興街５２之２號","OBJECTID":21297},"geometry":{"x":179447.24000000022,"y":2578890.6900000013}},{"attributes":{"ID":21298,"DIS_CODE":0,"TOWNNAME":"新營區","LI":"南興里","LIN":"12鄰","STREET":"建業路","SECT":" ","MAREA":" ","LANE":" ","ALLEY":" ","HOUSE_NO":"９４號之２","E_COORD97":179299.59,"N_COORD97":2577497.4500000002,"ADDRESS":"建業路９４之２號","OBJECTID":21298},"geometry":{"x":179299.59000000078,"y":2577497.4500000011}},{"attributes":{"ID":21299,"DIS_CODE":0,"TOWNNAME":"新營區","LI":"王公里","LIN":"20鄰","STREET":"樂利街","SECT":" ","MAREA":" ","LANE":" ","ALLEY":" ","HOUSE_NO":"６６號","E_COORD97":180503.26000000001,"N_COORD97":2579261.3999999999,"ADDRESS":"樂利街６６號","OBJECTID":21299},"geometry":{"x":180503.26000000071,"y":2579261.4000000041}},{"attributes":{"ID":21300,"DIS_CODE":0,"TOWNNAME":"永康區","LI":"南灣里","LIN":"24鄰","STREET":"大灣一街","SECT":" ","MAREA":" ","LANE":" ","ALLEY":" ","HOUSE_NO":"９３號","E_COORD97":174434.98999999999,"N_COORD97":2544737.6600000001,"ADDRESS":"大灣一街９３號","OBJECTID":21300},"geometry":{"x":174434.99000000209,"y":2544737.6600000001}},{"attributes":{"ID":21301,"DIS_CODE":0,"TOWNNAME":"永康區","LI":"永康里","LIN":"24鄰","STREET":"永正路","SECT":" ","MAREA":" ","LANE":" ","ALLEY":" ","HOUSE_NO":"４９號","E_COORD97":173549.23000000001,"N_COORD97":2547372,"ADDRESS":"永正路４９號","OBJECTID":21301},"geometry":{"x":173549.23000000138,"y":2547372.0000000019}},{"attributes":{"ID":21302,"DIS_CODE":0,"TOWNNAME":"永康區","LI":"東灣里","LIN":"24鄰","STREET":"大灣二街","SECT":" ","MAREA":" ","LANE":" ","ALLEY":" ","HOUSE_NO":"９２號","E_COORD97":174801.76000000001,"N_COORD97":2544773.0299999998,"ADDRESS":"大灣二街９２號","OBJECTID":21302},"geometry":{"x":174801.75999999978,"y":2544773.0300000012}},{"attributes":{"ID":21303,"DIS_CODE":0,"TOWNNAME":"永康區","LI":"南灣里","LIN":"24鄰","STREET":"立興街","SECT":" ","MAREA":" ","LANE":" ","ALLEY":" ","HOUSE_NO":"１１８號","E_COORD97":174474.92000000001,"N_COORD97":2544722.9900000002,"ADDRESS":"立興街１１８號","OBJECTID":21303},"geometry":{"x":174474.92000000086,"y":2544722.9900000039}},{"attributes":{"ID":21304,"DIS_CODE":0,"TOWNNAME":"永康區","LI":"埔園里","LIN":"24鄰","STREET":"中正路","SECT":" ","MAREA":" ","LANE":" ","ALLEY":" ","HOUSE_NO":"１３０號","E_COORD97":173510.32000000001,"N_COORD97":2547888.25,"ADDRESS":"中正路１３０號","OBJECTID":21304},"geometry":{"x":173510.3200000003,"y":2547888.2500000019}},{"attributes":{"ID":21305,"DIS_CODE":0,"TOWNNAME":"北區","LI":"五福里","LIN":" ","STREET":"成功路","SECT":" ","MAREA":" ","LANE":" ","ALLEY":" ","HOUSE_NO":"２７６號之３","E_COORD97":168188.64000000001,"N_COORD97":2544459.6499999999,"ADDRESS":"成功路２７６號之３","OBJECTID":21305},"geometry":{"x":168188.6400000006,"y":2544459.6500000004}},{"attributes":{"ID":21306,"DIS_CODE":0,"TOWNNAME":"北區","LI":"五福里","LIN":" ","STREET":"自強街","SECT":" ","MAREA":" ","LANE":" ","ALLEY":" ","HOUSE_NO":"１０號","E_COORD97":168244.09,"N_COORD97":2544458.1600000001,"ADDRESS":"自強街１０號","OBJECTID":21306},"geometry":{"x":168244.08999999985,"y":2544458.160000002}},{"attributes":{"ID":21307,"DIS_CODE":0,"TOWNNAME":"北區","LI":"文成里","LIN":"14鄰","STREET":"文賢路","SECT":" ","MAREA":" ","LANE":"２４２巷","ALLEY":"９弄","HOUSE_NO":"８４號","E_COORD97":167433.67999999999,"N_COORD97":2545103.9399999999,"ADDRESS":"文賢路２４２巷９弄８４號","OBJECTID":21307},"geometry":{"x":167433.68000000156,"y":2545103.9399999995}},{"attributes":{"ID":21308,"DIS_CODE":0,"TOWNNAME":"北區","LI":"大豐里","LIN":"8鄰","STREET":"文賢路","SECT":" ","MAREA":" ","LANE":" ","ALLEY":" ","HOUSE_NO":"３３１號","E_COORD97":167328.70999999999,"N_COORD97":2545297.7200000002,"ADDRESS":"文賢路３３１號","OBJECTID":21308},"geometry":{"x":167328.71000000183,"y":2545297.7200000007}},{"attributes":{"ID":21309,"DIS_CODE":0,"TOWNNAME":"北區","LI":"五福里","LIN":" ","STREET":"西門路","SECT":"三段","MAREA":" ","LANE":" ","ALLEY":" ","HOUSE_NO":"２８號","E_COORD97":168181.79999999999,"N_COORD97":2544540.29,"ADDRESS":"西門路三段２８號","OBJECTID":21309},"geometry":{"x":168181.79999999981,"y":2544540.2900000028}},{"attributes":{"ID":21310,"DIS_CODE":0,"TOWNNAME":"北區","LI":"文成里","LIN":"14鄰","STREET":"文賢路","SECT":" ","MAREA":" ","LANE":"２４２巷","ALLEY":"９弄","HOUSE_NO":"８６號","E_COORD97":167438.16,"N_COORD97":2545106.3799999999,"ADDRESS":"文賢路２４２巷９弄８６號","OBJECTID":21310},"geometry":{"x":167438.16000000108,"y":2545106.3800000008}},{"attributes":{"ID":21311,"DIS_CODE":0,"TOWNNAME":"新營區","LI":"五興里","LIN":"12鄰","STREET":" ","SECT":" ","MAREA":"五間厝","LANE":" ","ALLEY":" ","HOUSE_NO":"１２８號","E_COORD97":175453.34,"N_COORD97":2574278.0299999998,"ADDRESS":"五間厝１２８號","OBJECTID":21311},"geometry":{"x":175453.34000000078,"y":2574278.0299999993}},{"attributes":{"ID":21312,"DIS_CODE":0,"TOWNNAME":"學甲區","LI":"秀昌里","LIN":"17鄰","STREET":" ","SECT":" ","MAREA":"下溪洲","LANE":" ","ALLEY":" ","HOUSE_NO":"３８號","E_COORD97":165229.01999999999,"N_COORD97":2571141.9300000002,"ADDRESS":"下溪洲３８號","OBJECTID":21312},"geometry":{"x":165229.01999999955,"y":2571141.9300000016}},{"attributes":{"ID":21313,"DIS_CODE":0,"TOWNNAME":"東山區","LI":"科里里","LIN":"17鄰","STREET":" ","SECT":" ","MAREA":"枋子林","LANE":" ","ALLEY":" ","HOUSE_NO":"５９號","E_COORD97":188224.53,"N_COORD97":2576849.0499999998,"ADDRESS":"枋子林５９號","OBJECTID":21313},"geometry":{"x":188224.53000000026,"y":2576849.0500000007}},{"attributes":{"ID":21314,"DIS_CODE":0,"TOWNNAME":"東山區","LI":"科里里","LIN":"17鄰","STREET":" ","SECT":" ","MAREA":"枋子林","LANE":" ","ALLEY":" ","HOUSE_NO":"６３號","E_COORD97":188165.07999999999,"N_COORD97":2576837.1600000001,"ADDRESS":"枋子林６３號","OBJECTID":21314},"geometry":{"x":188165.08000000007,"y":2576837.1600000001}},{"attributes":{"ID":21315,"DIS_CODE":0,"TOWNNAME":"東山區","LI":"科里里","LIN":"17鄰","STREET":" ","SECT":" ","MAREA":"枋子林","LANE":" ","ALLEY":" ","HOUSE_NO":"６４號","E_COORD97":188157.23000000001,"N_COORD97":2576829.29,"ADDRESS":"枋子林６４號","OBJECTID":21315},"geometry":{"x":188157.23000000045,"y":2576829.2899999991}},{"attributes":{"ID":21316,"DIS_CODE":0,"TOWNNAME":"東山區","LI":"科里里","LIN":"17鄰","STREET":" ","SECT":" ","MAREA":"枋子林","LANE":" ","ALLEY":" ","HOUSE_NO":"６５號之１","E_COORD97":188161.57000000001,"N_COORD97":2576784.0600000001,"ADDRESS":"枋子林６５號之１","OBJECTID":21316},"geometry":{"x":188161.5700000003,"y":2576784.0600000005}},{"attributes":{"ID":21317,"DIS_CODE":0,"TOWNNAME":"東山區","LI":"科里里","LIN":"17鄰","STREET":" ","SECT":" ","MAREA":"枋子林","LANE":" ","ALLEY":" ","HOUSE_NO":"６５號之２","E_COORD97":188167.59,"N_COORD97":2576779.3999999999,"ADDRESS":"枋子林６５號之２","OBJECTID":21317},"geometry":{"x":188167.58999999985,"y":2576779.4000000004}},{"attributes":{"ID":21318,"DIS_CODE":0,"TOWNNAME":"東山區","LI":"科里里","LIN":"17鄰","STREET":" ","SECT":" ","MAREA":"枋子林","LANE":" ","ALLEY":" ","HOUSE_NO":"６５號之３","E_COORD97":188170.26000000001,"N_COORD97":2576776.1400000001,"ADDRESS":"枋子林６５號之３","OBJECTID":21318},"geometry":{"x":188170.25999999978,"y":2576776.1400000025}},{"attributes":{"ID":21319,"DIS_CODE":0,"TOWNNAME":"北區","LI":"文成里","LIN":"14鄰","STREET":"文賢路","SECT":" ","MAREA":" ","LANE":"２４２巷","ALLEY":"９弄","HOUSE_NO":"８８號","E_COORD97":167441.79000000001,"N_COORD97":2545108.5099999998,"ADDRESS":"文賢路２４２巷９弄８８號","OBJECTID":21319},"geometry":{"x":167441.7900000019,"y":2545108.5099999998}},{"attributes":{"ID":21320,"DIS_CODE":0,"TOWNNAME":"北區","LI":"文成里","LIN":"14鄰","STREET":"文賢路","SECT":" ","MAREA":" ","LANE":"２４２巷","ALLEY":"９弄","HOUSE_NO":"９０號","E_COORD97":167445.84,"N_COORD97":2545110,"ADDRESS":"文賢路２４２巷９弄９０號","OBJECTID":21320},"geometry":{"x":167445.83999999985,"y":2545110.0000000019}},{"attributes":{"ID":21321,"DIS_CODE":0,"TOWNNAME":"北區","LI":"文成里","LIN":"14鄰","STREET":"文賢路","SECT":" ","MAREA":" ","LANE":"２４２巷","ALLEY":"９弄","HOUSE_NO":"９２號","E_COORD97":167449.47,"N_COORD97":2545111.4900000002,"ADDRESS":"文賢路２４２巷９弄９２號","OBJECTID":21321},"geometry":{"x":167449.47000000067,"y":2545111.4900000002}},{"attributes":{"ID":21322,"DIS_CODE":0,"TOWNNAME":"北區","LI":"文成里","LIN":"14鄰","STREET":"文賢路","SECT":" ","MAREA":" ","LANE":"２４２巷","ALLEY":"９弄","HOUSE_NO":"９４號","E_COORD97":167453.31,"N_COORD97":2545112.98,"ADDRESS":"文賢路２４２巷９弄９４號","OBJECTID":21322},"geometry":{"x":167453.31000000052,"y":2545112.9799999986}},{"attributes":{"ID":21323,"DIS_CODE":0,"TOWNNAME":"北區","LI":"文成里","LIN":"14鄰","STREET":"文賢路","SECT":" ","MAREA":" ","LANE":"２４２巷","ALLEY":"９弄","HOUSE_NO":"９６號","E_COORD97":167457.14999999999,"N_COORD97":2545115.3300000001,"ADDRESS":"文賢路２４２巷９弄９６號","OBJECTID":21323},"geometry":{"x":167457.1500000013,"y":2545115.3300000019}},{"attributes":{"ID":21324,"DIS_CODE":0,"TOWNNAME":"北區","LI":"文成里","LIN":"14鄰","STREET":"文賢路","SECT":" ","MAREA":" ","LANE":"２４２巷","ALLEY":"９弄","HOUSE_NO":"９８號","E_COORD97":167461.20999999999,"N_COORD97":2545115.9700000002,"ADDRESS":"文賢路２４２巷９弄９８號","OBJECTID":21324},"geometry":{"x":167461.21000000089,"y":2545115.9700000007}},{"attributes":{"ID":21325,"DIS_CODE":0,"TOWNNAME":"永康區","LI":"五王里","LIN":"14鄰","STREET":"中華二路","SECT":" ","MAREA":" ","LANE":"２０６巷","ALLEY":"６８弄","HOUSE_NO":"５９號四樓之３","E_COORD97":171642.53,"N_COORD97":2545698.0899999999,"ADDRESS":"中華二路２０６巷６８弄５９號四樓之３","OBJECTID":21325},"geometry":{"x":171642.53000000026,"y":2545698.089999998}},{"attributes":{"ID":21326,"DIS_CODE":0,"TOWNNAME":"永康區","LI":"五王里","LIN":"14鄰","STREET":"中華二路","SECT":" ","MAREA":" ","LANE":"２０６巷","ALLEY":"６８弄","HOUSE_NO":"４３號三樓之１","E_COORD97":171633.06,"N_COORD97":2545733.0800000001,"ADDRESS":"中華二路２０６巷６８弄４３號三樓之１","OBJECTID":21326},"geometry":{"x":171633.05999999959,"y":2545733.0800000019}},{"attributes":{"ID":21327,"DIS_CODE":0,"TOWNNAME":"東區","LI":"富強里","LIN":"28鄰","STREET":"東門路","SECT":"二段","MAREA":" ","LANE":"３６５巷","ALLEY":"３４弄","HOUSE_NO":"９號五樓","E_COORD97":170903.78,"N_COORD97":2542690.8300000001,"ADDRESS":"東門路二段３６５巷３４弄９號五樓","OBJECTID":21327},"geometry":{"x":170903.78000000119,"y":2542690.8300000019}},{"attributes":{"ID":21328,"DIS_CODE":0,"TOWNNAME":"新營區","LI":"南興里","LIN":"7鄰","STREET":"南昌街","SECT":" ","MAREA":" ","LANE":" ","ALLEY":" ","HOUSE_NO":"６１號","E_COORD97":179477.87,"N_COORD97":2577644.9300000002,"ADDRESS":"南昌街６１號","OBJECTID":21328},"geometry":{"x":179477.87000000104,"y":2577644.9300000016}},{"attributes":{"ID":21329,"DIS_CODE":0,"TOWNNAME":"新營區","LI":"延平里","LIN":"6鄰","STREET":"復興路","SECT":" ","MAREA":" ","LANE":" ","ALLEY":" ","HOUSE_NO":"１號之８５","E_COORD97":179713.92999999999,"N_COORD97":2577935.1299999999,"ADDRESS":"復興路１號之８５","OBJECTID":21329},"geometry":{"x":179713.93000000063,"y":2577935.129999999}},{"attributes":{"ID":21330,"DIS_CODE":0,"TOWNNAME":"新營區","LI":"延平里","LIN":"5鄰","STREET":"長春街","SECT":" ","MAREA":" ","LANE":" ","ALLEY":" ","HOUSE_NO":"３８號","E_COORD97":179713.447969,"N_COORD97":2577897.67986,"ADDRESS":"長春街３８號","OBJECTID":21330},"geometry":{"x":179713.44796900172,"y":2577897.6798589993}},{"attributes":{"ID":21331,"DIS_CODE":0,"TOWNNAME":"新營區","LI":"永生里","LIN":"5鄰","STREET":"光明街","SECT":" ","MAREA":" ","LANE":" ","ALLEY":" ","HOUSE_NO":"４號","E_COORD97":179984.88,"N_COORD97":2578035.6699999999,"ADDRESS":"光明街４號","OBJECTID":21331},"geometry":{"x":179984.87999999989,"y":2578035.6700000018}},{"attributes":{"ID":21332,"DIS_CODE":0,"TOWNNAME":"新營區","LI":"南興里","LIN":"26鄰","STREET":"建業路","SECT":" ","MAREA":" ","LANE":" ","ALLEY":" ","HOUSE_NO":"６６號","E_COORD97":179394.41,"N_COORD97":2577519.0800000001,"ADDRESS":"建業路６６號","OBJECTID":21332},"geometry":{"x":179394.41000000108,"y":2577519.0800000001}},{"attributes":{"ID":21333,"DIS_CODE":0,"TOWNNAME":"新營區","LI":"大宏里","LIN":"17鄰","STREET":"三民路","SECT":" ","MAREA":" ","LANE":" ","ALLEY":" ","HOUSE_NO":"４６之４９號","E_COORD97":180346.14999999999,"N_COORD97":2578536.8199999998,"ADDRESS":"三民路４６之４９號","OBJECTID":21333},"geometry":{"x":180346.15000000037,"y":2578536.8200000022}},{"attributes":{"ID":21334,"DIS_CODE":0,"TOWNNAME":"新營區","LI":"延平里","LIN":" ","STREET":"復興路","SECT":" ","MAREA":" ","LANE":" ","ALLEY":" ","HOUSE_NO":"１之５２號","E_COORD97":179713.92999999999,"N_COORD97":2577935.1299999999,"ADDRESS":"復興路１之５２號","OBJECTID":21334},"geometry":{"x":179713.93000000063,"y":2577935.129999999}},{"attributes":{"ID":21335,"DIS_CODE":0,"TOWNNAME":"新營區","LI":"民榮里","LIN":" ","STREET":"和平路","SECT":" ","MAREA":" ","LANE":" ","ALLEY":" ","HOUSE_NO":"３０之１號","E_COORD97":179406.64000000001,"N_COORD97":2577826.96,"ADDRESS":"和平路３０之１號","OBJECTID":21335},"geometry":{"x":179406.63999999966,"y":2577826.9600000009}},{"attributes":{"ID":21336,"DIS_CODE":0,"TOWNNAME":"新營區","LI":"大宏里","LIN":" ","STREET":"三民路","SECT":" ","MAREA":" ","LANE":" ","ALLEY":" ","HOUSE_NO":"４６之１９號","E_COORD97":180346.14999999999,"N_COORD97":2578536.8199999998,"ADDRESS":"三民路４６之１９號","OBJECTID":21336},"geometry":{"x":180346.15000000037,"y":2578536.8200000022}},{"attributes":{"ID":21337,"DIS_CODE":0,"TOWNNAME":"北區","LI":"五福里","LIN":" ","STREET":"西門路","SECT":"三段","MAREA":" ","LANE":" ","ALLEY":" ","HOUSE_NO":"５２號","E_COORD97":168219.03,"N_COORD97":2544583.6299999999,"ADDRESS":"西門路三段５２號","OBJECTID":21337},"geometry":{"x":168219.03000000119,"y":2544583.629999999}},{"attributes":{"ID":21338,"DIS_CODE":0,"TOWNNAME":"永康區","LI":"五王里","LIN":"14鄰","STREET":"中華二路","SECT":" ","MAREA":" ","LANE":"２０６巷","ALLEY":"６８弄","HOUSE_NO":"５１號四樓之１","E_COORD97":171637.67999999999,"N_COORD97":2545715.3399999999,"ADDRESS":"中華二路２０６巷６８弄５１號四樓之１","OBJECTID":21338},"geometry":{"x":171637.68000000156,"y":2545715.3399999999}},{"attributes":{"ID":21339,"DIS_CODE":0,"TOWNNAME":"南區","LI":"田寮里","LIN":"20鄰","STREET":"西門路","SECT":"一段","MAREA":" ","LANE":"２２３巷","ALLEY":"１０弄","HOUSE_NO":"４５號","E_COORD97":167652.79999999999,"N_COORD97":2541905.9300000002,"ADDRESS":"西門路一段２２３巷１０弄４５號","OBJECTID":21339},"geometry":{"x":167652.79999999981,"y":2541905.9300000016}},{"attributes":{"ID":21340,"DIS_CODE":0,"TOWNNAME":"南區","LI":"田寮里","LIN":"20鄰","STREET":"西門路","SECT":"一段","MAREA":" ","LANE":"２２３巷","ALLEY":"１０弄","HOUSE_NO":"４６號","E_COORD97":167683.95000000001,"N_COORD97":2541905.1600000001,"ADDRESS":"西門路一段２２３巷１０弄４６號","OBJECTID":21340},"geometry":{"x":167683.95000000112,"y":2541905.160000002}},{"attributes":{"ID":21341,"DIS_CODE":0,"TOWNNAME":"南區","LI":"田寮里","LIN":"20鄰","STREET":"西門路","SECT":"一段","MAREA":" ","LANE":"２２３巷","ALLEY":"１０弄","HOUSE_NO":"４７號","E_COORD97":167659.59,"N_COORD97":2541905.9300000002,"ADDRESS":"西門路一段２２３巷１０弄４７號","OBJECTID":21341},"geometry":{"x":167659.58999999985,"y":2541905.9300000016}},{"attributes":{"ID":21342,"DIS_CODE":0,"TOWNNAME":"南化區","LI":"中坑里","LIN":"8鄰","STREET":" ","SECT":" ","MAREA":"中坑","LANE":" ","ALLEY":" ","HOUSE_NO":"６５號","E_COORD97":193674.45999999999,"N_COORD97":2550506.7799999998,"ADDRESS":"中坑６５號","OBJECTID":21342},"geometry":{"x":193674.45999999996,"y":2550506.7799999993}},{"attributes":{"ID":21343,"DIS_CODE":0,"TOWNNAME":"永康區","LI":"五王里","LIN":"14鄰","STREET":"中華二路","SECT":" ","MAREA":" ","LANE":"２０６巷","ALLEY":"６８弄","HOUSE_NO":"５９號四樓之１","E_COORD97":171642.42999999999,"N_COORD97":2545698.0899999999,"ADDRESS":"中華二路２０６巷６８弄５９號四樓之１","OBJECTID":21343},"geometry":{"x":171642.4299999997,"y":2545698.089999998}},{"attributes":{"ID":21344,"DIS_CODE":0,"TOWNNAME":"永康區","LI":"五王里","LIN":"14鄰","STREET":"中華二路","SECT":" ","MAREA":" ","LANE":"２０６巷","ALLEY":"６８弄","HOUSE_NO":"５１號三樓之１","E_COORD97":171637.67999999999,"N_COORD97":2545715.3399999999,"ADDRESS":"中華二路２０６巷６８弄５１號三樓之１","OBJECTID":21344},"geometry":{"x":171637.68000000156,"y":2545715.3399999999}},{"attributes":{"ID":21345,"DIS_CODE":0,"TOWNNAME":"永康區","LI":"五王里","LIN":"14鄰","STREET":"中華二路","SECT":" ","MAREA":" ","LANE":"２０６巷","ALLEY":"６８弄","HOUSE_NO":"４３號四樓之１","E_COORD97":171633.06,"N_COORD97":2545733.0800000001,"ADDRESS":"中華二路２０６巷６８弄４３號四樓之１","OBJECTID":21345},"geometry":{"x":171633.05999999959,"y":2545733.0800000019}},{"attributes":{"ID":21346,"DIS_CODE":0,"TOWNNAME":"永康區","LI":"五王里","LIN":"14鄰","STREET":"中華二路","SECT":" ","MAREA":" ","LANE":"２０６巷","ALLEY":"６８弄","HOUSE_NO":"５９號五樓之３","E_COORD97":171642.53,"N_COORD97":2545698.0899999999,"ADDRESS":"中華二路２０６巷６８弄５９號五樓之３","OBJECTID":21346},"geometry":{"x":171642.53000000026,"y":2545698.089999998}},{"attributes":{"ID":21347,"DIS_CODE":0,"TOWNNAME":"永康區","LI":"五王里","LIN":"14鄰","STREET":"中華二路","SECT":" ","MAREA":" ","LANE":"２０６巷","ALLEY":"６８弄","HOUSE_NO":"４３號四樓之３","E_COORD97":171633.16,"N_COORD97":2545733.0800000001,"ADDRESS":"中華二路２０６巷６８弄４３號四樓之３","OBJECTID":21347},"geometry":{"x":171633.15999999922,"y":2545733.0800000019}},{"attributes":{"ID":21348,"DIS_CODE":0,"TOWNNAME":"新營區","LI":"新東里","LIN":"20鄰","STREET":"東明街","SECT":" ","MAREA":" ","LANE":"２巷","ALLEY":" ","HOUSE_NO":"１５號","E_COORD97":180852.29999999999,"N_COORD97":2579539.9399999999,"ADDRESS":"東明街２巷１５號","OBJECTID":21348},"geometry":{"x":180852.30000000075,"y":2579539.9400000013}},{"attributes":{"ID":21349,"DIS_CODE":0,"TOWNNAME":"新營區","LI":"三仙里","LIN":"26鄰","STREET":"育德三街","SECT":" ","MAREA":" ","LANE":" ","ALLEY":" ","HOUSE_NO":"８號","E_COORD97":179565.98999999999,"N_COORD97":2579003.3500000001,"ADDRESS":"育德三街８號","OBJECTID":21349},"geometry":{"x":179565.99000000022,"y":2579003.3500000034}},{"attributes":{"ID":21350,"DIS_CODE":0,"TOWNNAME":"新營區","LI":"三仙里","LIN":"1鄰","STREET":"民權路","SECT":" ","MAREA":" ","LANE":" ","ALLEY":" ","HOUSE_NO":"１１之２號","E_COORD97":179740.16,"N_COORD97":2578073.4399999999,"ADDRESS":"民權路１１之２號","OBJECTID":21350},"geometry":{"x":179740.16000000108,"y":2578073.4399999976}},{"attributes":{"ID":21351,"DIS_CODE":0,"TOWNNAME":"北區","LI":"五福里","LIN":" ","STREET":"西門路","SECT":"三段","MAREA":" ","LANE":" ","ALLEY":" ","HOUSE_NO":"５６號","E_COORD97":168223.66,"N_COORD97":2544590.7200000002,"ADDRESS":"西門路三段５６號","OBJECTID":21351},"geometry":{"x":168223.66000000015,"y":2544590.7200000025}},{"attributes":{"ID":21352,"DIS_CODE":0,"TOWNNAME":"北區","LI":"五福里","LIN":" ","STREET":"長北街","SECT":" ","MAREA":" ","LANE":" ","ALLEY":" ","HOUSE_NO":"７１號","E_COORD97":168398.51000000001,"N_COORD97":2544631.4300000002,"ADDRESS":"長北街７１號","OBJECTID":21352},"geometry":{"x":168398.51000000071,"y":2544631.4300000034}},{"attributes":{"ID":21353,"DIS_CODE":0,"TOWNNAME":"北區","LI":"五福里","LIN":" ","STREET":"自強街","SECT":" ","MAREA":" ","LANE":" ","ALLEY":" ","HOUSE_NO":"８８號之１","E_COORD97":168317.97,"N_COORD97":2544601.1899999999,"ADDRESS":"自強街８８號之１","OBJECTID":21353},"geometry":{"x":168317.96999999974,"y":2544601.1899999995}},{"attributes":{"ID":21354,"DIS_CODE":0,"TOWNNAME":"新營區","LI":"太北里","LIN":"5鄰","STREET":" ","SECT":" ","MAREA":"太子宮","LANE":" ","ALLEY":" ","HOUSE_NO":"３６之４號","E_COORD97":175871.42999999999,"N_COORD97":2577207.4300000002,"ADDRESS":"太子宮３６之４號","OBJECTID":21354},"geometry":{"x":175871.43000000063,"y":2577207.4300000016}},{"attributes":{"ID":21355,"DIS_CODE":0,"TOWNNAME":"新營區","LI":"五興里","LIN":"13鄰","STREET":" ","SECT":" ","MAREA":"五間厝","LANE":" ","ALLEY":" ","HOUSE_NO":"１４１號","E_COORD97":175414.29999999999,"N_COORD97":2574245,"ADDRESS":"五間厝１４１號","OBJECTID":21355},"geometry":{"x":175414.30000000075,"y":2574245}},{"attributes":{"ID":21356,"DIS_CODE":0,"TOWNNAME":"新營區","LI":"姑爺里","LIN":"6鄰","STREET":" ","SECT":" ","MAREA":"姑爺","LANE":" ","ALLEY":" ","HOUSE_NO":"４７號之７","E_COORD97":174344.14000000001,"N_COORD97":2574803.1000000001,"ADDRESS":"姑爺４７之７號","OBJECTID":21356},"geometry":{"x":174344.1400000006,"y":2574803.0999999996}},{"attributes":{"ID":21357,"DIS_CODE":0,"TOWNNAME":"東山區","LI":"科里里","LIN":"17鄰","STREET":" ","SECT":" ","MAREA":"枋子林","LANE":" ","ALLEY":" ","HOUSE_NO":"６５號之４","E_COORD97":188172.92000000001,"N_COORD97":2576772.8799999999,"ADDRESS":"枋子林６５號之４","OBJECTID":21357},"geometry":{"x":188172.92000000179,"y":2576772.8800000008}},{"attributes":{"ID":21358,"DIS_CODE":0,"TOWNNAME":"東山區","LI":"科里里","LIN":"17鄰","STREET":" ","SECT":" ","MAREA":"枋子林","LANE":" ","ALLEY":" ","HOUSE_NO":"６５號之５","E_COORD97":188175.59,"N_COORD97":2576769.6200000001,"ADDRESS":"枋子林６５號之５","OBJECTID":21358},"geometry":{"x":188175.59000000078,"y":2576769.6200000029}},{"attributes":{"ID":21359,"DIS_CODE":0,"TOWNNAME":"東山區","LI":"科里里","LIN":"17鄰","STREET":" ","SECT":" ","MAREA":"枋子林","LANE":" ","ALLEY":" ","HOUSE_NO":"６５號之６","E_COORD97":188178.26000000001,"N_COORD97":2576766.3599999999,"ADDRESS":"枋子林６５號之６","OBJECTID":21359},"geometry":{"x":188178.25999999978,"y":2576766.3600000013}},{"attributes":{"ID":21360,"DIS_CODE":0,"TOWNNAME":"東山區","LI":"科里里","LIN":"17鄰","STREET":" ","SECT":" ","MAREA":"枋子林","LANE":" ","ALLEY":" ","HOUSE_NO":"６５號之７","E_COORD97":188180.92000000001,"N_COORD97":2576763.1000000001,"ADDRESS":"枋子林６５號之７","OBJECTID":21360},"geometry":{"x":188180.91999999993,"y":2576763.0999999996}},{"attributes":{"ID":21361,"DIS_CODE":0,"TOWNNAME":"新營區","LI":"大宏里","LIN":"31鄰","STREET":"三民路","SECT":" ","MAREA":" ","LANE":" ","ALLEY":" ","HOUSE_NO":"４４之２號","E_COORD97":180383.01999999999,"N_COORD97":2578594.23,"ADDRESS":"三民路４４之２號","OBJECTID":21361},"geometry":{"x":180383.02000000048,"y":2578594.2300000004}},{"attributes":{"ID":21362,"DIS_CODE":0,"TOWNNAME":"新營區","LI":"大宏里","LIN":"31鄰","STREET":"三民路","SECT":" ","MAREA":" ","LANE":" ","ALLEY":" ","HOUSE_NO":"４４號之２１","E_COORD97":180405.48000000001,"N_COORD97":2578615.1600000001,"ADDRESS":"三民路４４號之２１","OBJECTID":21362},"geometry":{"x":180405.48000000045,"y":2578615.1599999983}},{"attributes":{"ID":21363,"DIS_CODE":0,"TOWNNAME":"新營區","LI":"民權里","LIN":" ","STREET":"民權路","SECT":" ","MAREA":" ","LANE":" ","ALLEY":" ","HOUSE_NO":"７８之２號","E_COORD97":179699.70000000001,"N_COORD97":2578377.0699999998,"ADDRESS":"民權路７８之２號","OBJECTID":21363},"geometry":{"x":179699.70000000019,"y":2578377.0700000022}},{"attributes":{"ID":21364,"DIS_CODE":0,"TOWNNAME":"新營區","LI":"永生里","LIN":"5鄰","STREET":"中山路","SECT":" ","MAREA":" ","LANE":" ","ALLEY":" ","HOUSE_NO":"１７９號","E_COORD97":179975.09,"N_COORD97":2578050.1200000001,"ADDRESS":"中山路１７９號","OBJECTID":21364},"geometry":{"x":179975.08999999985,"y":2578050.1199999992}},{"attributes":{"ID":21365,"DIS_CODE":0,"TOWNNAME":"新營區","LI":"嘉芳里","LIN":"4鄰","STREET":"嘉芳街","SECT":" ","MAREA":" ","LANE":" ","ALLEY":" ","HOUSE_NO":"１３８號","E_COORD97":176978.47,"N_COORD97":2578349.21,"ADDRESS":"嘉芳街１３８號","OBJECTID":21365},"geometry":{"x":176978.46999999974,"y":2578349.2100000028}},{"attributes":{"ID":21366,"DIS_CODE":0,"TOWNNAME":"新營區","LI":"民權里","LIN":"20鄰","STREET":"仁愛街","SECT":" ","MAREA":" ","LANE":" ","ALLEY":" ","HOUSE_NO":"４１之２號","E_COORD97":179773.94,"N_COORD97":2578277.0499999998,"ADDRESS":"仁愛街４１之２號","OBJECTID":21366},"geometry":{"x":179773.94000000134,"y":2578277.0500000007}},{"attributes":{"ID":21367,"DIS_CODE":0,"TOWNNAME":"東山區","LI":"東山里","LIN":"17鄰","STREET":" ","SECT":" ","MAREA":"東山","LANE":" ","ALLEY":" ","HOUSE_NO":"２６０號之１","E_COORD97":189010.01999999999,"N_COORD97":2580788.8399999999,"ADDRESS":"東山２６０號之１","OBJECTID":21367},"geometry":{"x":189010.02000000048,"y":2580788.8399999999}},{"attributes":{"ID":21368,"DIS_CODE":0,"TOWNNAME":"永康區","LI":"五王里","LIN":"14鄰","STREET":"中華二路","SECT":" ","MAREA":" ","LANE":"２０６巷","ALLEY":"６８弄","HOUSE_NO":"４３號四樓之２","E_COORD97":171633.19,"N_COORD97":2545733.0800000001,"ADDRESS":"中華二路２０６巷６８弄４３號四樓之２","OBJECTID":21368},"geometry":{"x":171633.19000000041,"y":2545733.0800000019}},{"attributes":{"ID":21369,"DIS_CODE":0,"TOWNNAME":"永康區","LI":"五王里","LIN":"14鄰","STREET":"中華二路","SECT":" ","MAREA":" ","LANE":"２０６巷","ALLEY":"６８弄","HOUSE_NO":"６７號五樓之１","E_COORD97":171647.17999999999,"N_COORD97":2545680.5899999999,"ADDRESS":"中華二路２０６巷６８弄６７號五樓之１","OBJECTID":21369},"geometry":{"x":171647.1799999997,"y":2545680.5899999999}},{"attributes":{"ID":21370,"DIS_CODE":0,"TOWNNAME":"永康區","LI":"五王里","LIN":"14鄰","STREET":"中華二路","SECT":" ","MAREA":" ","LANE":"２０６巷","ALLEY":"６８弄","HOUSE_NO":"５１號五樓之３","E_COORD97":171637.78,"N_COORD97":2545715.3399999999,"ADDRESS":"中華二路２０６巷６８弄５１號五樓之３","OBJECTID":21370},"geometry":{"x":171637.78000000212,"y":2545715.3399999999}},{"attributes":{"ID":21371,"DIS_CODE":0,"TOWNNAME":"永康區","LI":"五王里","LIN":"14鄰","STREET":"中華二路","SECT":" ","MAREA":" ","LANE":"２０６巷","ALLEY":"６８弄","HOUSE_NO":"４３號五樓之２","E_COORD97":171633.19,"N_COORD97":2545733.0800000001,"ADDRESS":"中華二路２０６巷６８弄４３號五樓之２","OBJECTID":21371},"geometry":{"x":171633.19000000041,"y":2545733.0800000019}},{"attributes":{"ID":21372,"DIS_CODE":0,"TOWNNAME":"永康區","LI":"五王里","LIN":"14鄰","STREET":"中華二路","SECT":" ","MAREA":" ","LANE":"２０６巷","ALLEY":"６８弄","HOUSE_NO":"５１號三樓之３","E_COORD97":171637.78,"N_COORD97":2545715.3399999999,"ADDRESS":"中華二路２０６巷６８弄５１號三樓之３","OBJECTID":21372},"geometry":{"x":171637.78000000212,"y":2545715.3399999999}},{"attributes":{"ID":21373,"DIS_CODE":0,"TOWNNAME":"永康區","LI":"五王里","LIN":"14鄰","STREET":"中華二路","SECT":" ","MAREA":" ","LANE":"２０６巷","ALLEY":"６８弄","HOUSE_NO":"５１號四樓之２","E_COORD97":171637.81,"N_COORD97":2545715.3399999999,"ADDRESS":"中華二路２０６巷６８弄５１號四樓之２","OBJECTID":21373},"geometry":{"x":171637.80999999959,"y":2545715.3399999999}},{"attributes":{"ID":21374,"DIS_CODE":0,"TOWNNAME":"安定區","LI":"港尾里","LIN":"17鄰","STREET":" ","SECT":" ","MAREA":"港子尾","LANE":" ","ALLEY":" ","HOUSE_NO":"９７號","E_COORD97":171436.48999999999,"N_COORD97":2556073.2599999998,"ADDRESS":"港子尾９７號","OBJECTID":21374},"geometry":{"x":171436.49000000115,"y":2556073.2600000016}},{"attributes":{"ID":21375,"DIS_CODE":0,"TOWNNAME":"北區","LI":"仁愛里","LIN":"3鄰","STREET":"勝利路","SECT":" ","MAREA":" ","LANE":" ","ALLEY":" ","HOUSE_NO":"２０２號之１","E_COORD97":169933.03565999999,"N_COORD97":2544966.6088800002,"ADDRESS":"勝利路２０２之１號","OBJECTID":21375},"geometry":{"x":169933.03566000052,"y":2544966.6088840012}},{"attributes":{"ID":21376,"DIS_CODE":0,"TOWNNAME":"北區","LI":"仁愛里","LIN":"3鄰","STREET":"勝利路","SECT":" ","MAREA":" ","LANE":" ","ALLEY":" ","HOUSE_NO":"２０２號之２","E_COORD97":169933.03565999999,"N_COORD97":2544970.84222,"ADDRESS":"勝利路２０２之２號","OBJECTID":21376},"geometry":{"x":169933.03566000052,"y":2544970.8422149997}},{"attributes":{"ID":21377,"DIS_CODE":0,"TOWNNAME":"中西區","LI":"光賢里","LIN":"14鄰","STREET":"武聖路","SECT":" ","MAREA":" ","LANE":"６９巷","ALLEY":"４０弄","HOUSE_NO":"３０號七樓之１","E_COORD97":166628.06,"N_COORD97":2545203.8599999999,"ADDRESS":"武聖路６９巷４０弄３０號七樓之１","OBJECTID":21377},"geometry":{"x":166628.06000000052,"y":2545203.8599999994}},{"attributes":{"ID":21378,"DIS_CODE":0,"TOWNNAME":"北區","LI":"六甲里","LIN":"17鄰","STREET":"公園路","SECT":" ","MAREA":" ","LANE":" ","ALLEY":" ","HOUSE_NO":"５８３號","E_COORD97":169098.04000000001,"N_COORD97":2545704.6299999999,"ADDRESS":"公園路５８３號","OBJECTID":21378},"geometry":{"x":169098.0400000019,"y":2545704.6300000008}},{"attributes":{"ID":21379,"DIS_CODE":0,"TOWNNAME":"北區","LI":"玉皇里","LIN":" ","STREET":"崇安街","SECT":" ","MAREA":" ","LANE":" ","ALLEY":" ","HOUSE_NO":"５６號","E_COORD97":168684.54000000001,"N_COORD97":2544552.6899999999,"ADDRESS":"崇安街５６號","OBJECTID":21379},"geometry":{"x":168684.54000000097,"y":2544552.6900000013}},{"attributes":{"ID":21380,"DIS_CODE":0,"TOWNNAME":"新市區","LI":"大營里","LIN":"24鄰","STREET":" ","SECT":" ","MAREA":"大營","LANE":" ","ALLEY":" ","HOUSE_NO":"１３１號","E_COORD97":179263.82000000001,"N_COORD97":2554748,"ADDRESS":"大營１３１號","OBJECTID":21380},"geometry":{"x":179263.8200000003,"y":2554748.0000000037}},{"attributes":{"ID":21381,"DIS_CODE":0,"TOWNNAME":"新市區","LI":"大營里","LIN":"24鄰","STREET":" ","SECT":" ","MAREA":"大營","LANE":" ","ALLEY":" ","HOUSE_NO":"１３１之９號","E_COORD97":179229.98999999999,"N_COORD97":2554709.2999999998,"ADDRESS":"大營１３１之９號","OBJECTID":21381},"geometry":{"x":179229.99000000022,"y":2554709.2999999989}},{"attributes":{"ID":21382,"DIS_CODE":0,"TOWNNAME":"中西區","LI":"光賢里","LIN":"14鄰","STREET":"武聖路","SECT":" ","MAREA":" ","LANE":"６９巷","ALLEY":"４０弄","HOUSE_NO":"３０號七樓之１１","E_COORD97":166628.06,"N_COORD97":2545203.8599999999,"ADDRESS":"武聖路６９巷４０弄３０號七樓之１１","OBJECTID":21382},"geometry":{"x":166628.06000000052,"y":2545203.8599999994}},{"attributes":{"ID":21383,"DIS_CODE":0,"TOWNNAME":"新市區","LI":"大社里","LIN":"24鄰","STREET":" ","SECT":" ","MAREA":"大社","LANE":" ","ALLEY":" ","HOUSE_NO":"８８７之６號","E_COORD97":179796.67000000001,"N_COORD97":2554087.2999999998,"ADDRESS":"大社８８７之６號","OBJECTID":21383},"geometry":{"x":179796.66999999993,"y":2554087.3000000026}},{"attributes":{"ID":21384,"DIS_CODE":0,"TOWNNAME":"中西區","LI":"光賢里","LIN":"14鄰","STREET":"武聖路","SECT":" ","MAREA":" ","LANE":"６９巷","ALLEY":"４０弄","HOUSE_NO":"３０號七樓之１２","E_COORD97":166628.06,"N_COORD97":2545203.8599999999,"ADDRESS":"武聖路６９巷４０弄３０號七樓之１２","OBJECTID":21384},"geometry":{"x":166628.06000000052,"y":2545203.8599999994}},{"attributes":{"ID":21385,"DIS_CODE":0,"TOWNNAME":"西港區","LI":"慶安里","LIN":"24鄰","STREET":"慶安路","SECT":" ","MAREA":" ","LANE":" ","ALLEY":" ","HOUSE_NO":"４１號","E_COORD97":168296.03,"N_COORD97":2557905.98,"ADDRESS":"慶安路４１號","OBJECTID":21385},"geometry":{"x":168296.03000000026,"y":2557905.9800000023}},{"attributes":{"ID":21386,"DIS_CODE":0,"TOWNNAME":"新市區","LI":"大營里","LIN":"24鄰","STREET":" ","SECT":" ","MAREA":"大營","LANE":" ","ALLEY":" ","HOUSE_NO":"１３１之５８號","E_COORD97":179194.57000000001,"N_COORD97":2554729.7999999998,"ADDRESS":"大營１３１之５８號","OBJECTID":21386},"geometry":{"x":179194.57000000216,"y":2554729.8000000045}},{"attributes":{"ID":21387,"DIS_CODE":0,"TOWNNAME":"新市區","LI":"新市里","LIN":"24鄰","STREET":"復興路","SECT":" ","MAREA":" ","LANE":" ","ALLEY":" ","HOUSE_NO":"１９號","E_COORD97":177802.07000000001,"N_COORD97":2553368.0299999998,"ADDRESS":"復興路１９號","OBJECTID":21387},"geometry":{"x":177802.0700000003,"y":2553368.0300000012}},{"attributes":{"ID":21388,"DIS_CODE":0,"TOWNNAME":"新市區","LI":"大社里","LIN":"24鄰","STREET":" ","SECT":" ","MAREA":"大社","LANE":" ","ALLEY":" ","HOUSE_NO":"８８３之８號","E_COORD97":179784.45999999999,"N_COORD97":2554001.5499999998,"ADDRESS":"大社８８３之８號","OBJECTID":21388},"geometry":{"x":179784.45999999996,"y":2554001.5500000007}},{"attributes":{"ID":21389,"DIS_CODE":0,"TOWNNAME":"新市區","LI":"新市里","LIN":"24鄰","STREET":"復興路","SECT":" ","MAREA":" ","LANE":" ","ALLEY":" ","HOUSE_NO":"５５號","E_COORD97":177800.70999999999,"N_COORD97":2553443.2799999998,"ADDRESS":"復興路５５號","OBJECTID":21389},"geometry":{"x":177800.70999999996,"y":2553443.2799999975}},{"attributes":{"ID":21390,"DIS_CODE":0,"TOWNNAME":"新營區","LI":"新北里","LIN":"18鄰","STREET":"民生路","SECT":" ","MAREA":" ","LANE":" ","ALLEY":" ","HOUSE_NO":"１９６號","E_COORD97":179093.81,"N_COORD97":2578998.9700000002,"ADDRESS":"民生路１９６號","OBJECTID":21390},"geometry":{"x":179093.80999999866,"y":2578998.9700000007}},{"attributes":{"ID":21391,"DIS_CODE":0,"TOWNNAME":"新營區","LI":"王公里","LIN":"20鄰","STREET":"樂仁街","SECT":" ","MAREA":" ","LANE":" ","ALLEY":" ","HOUSE_NO":"９２號之１","E_COORD97":180539.19,"N_COORD97":2579279.0099999998,"ADDRESS":"樂仁街９２號之１","OBJECTID":21391},"geometry":{"x":180539.19000000041,"y":2579279.0099999998}},{"attributes":{"ID":21392,"DIS_CODE":0,"TOWNNAME":"永康區","LI":"埔園里","LIN":"24鄰","STREET":"自強路","SECT":" ","MAREA":" ","LANE":" ","ALLEY":" ","HOUSE_NO":"３７７號","E_COORD97":173624.04999999999,"N_COORD97":2547872.25,"ADDRESS":"自強路３７７號","OBJECTID":21392},"geometry":{"x":173624.05000000075,"y":2547872.2500000019}},{"attributes":{"ID":21393,"DIS_CODE":0,"TOWNNAME":"中西區","LI":"光賢里","LIN":"14鄰","STREET":"武聖路","SECT":" ","MAREA":" ","LANE":"６９巷","ALLEY":"４０弄","HOUSE_NO":"３０號七樓之１３","E_COORD97":166628.06,"N_COORD97":2545203.8599999999,"ADDRESS":"武聖路６９巷４０弄３０號七樓之１３","OBJECTID":21393},"geometry":{"x":166628.06000000052,"y":2545203.8599999994}},{"attributes":{"ID":21394,"DIS_CODE":0,"TOWNNAME":"中西區","LI":"光賢里","LIN":"14鄰","STREET":"武聖路","SECT":" ","MAREA":" ","LANE":"６９巷","ALLEY":"４０弄","HOUSE_NO":"３０號七樓之１４","E_COORD97":166628.06,"N_COORD97":2545203.8599999999,"ADDRESS":"武聖路６９巷４０弄３０號七樓之１４","OBJECTID":21394},"geometry":{"x":166628.06000000052,"y":2545203.8599999994}},{"attributes":{"ID":21395,"DIS_CODE":0,"TOWNNAME":"新營區","LI":"埤寮里","LIN":"5鄰","STREET":" ","SECT":" ","MAREA":"埤寮","LANE":" ","ALLEY":" ","HOUSE_NO":"７之９號","E_COORD97":180165.26000000001,"N_COORD97":2581059.3300000001,"ADDRESS":"埤寮７之９號","OBJECTID":21395},"geometry":{"x":180165.25999999978,"y":2581059.3300000019}},{"attributes":{"ID":21396,"DIS_CODE":0,"TOWNNAME":"東山區","LI":"東山里","LIN":"17鄰","STREET":" ","SECT":" ","MAREA":"東山","LANE":" ","ALLEY":" ","HOUSE_NO":"２６０號之３","E_COORD97":189006.54999999999,"N_COORD97":2580822.2000000002,"ADDRESS":"東山２６０號之３","OBJECTID":21396},"geometry":{"x":189006.55000000075,"y":2580822.2000000011}},{"attributes":{"ID":21397,"DIS_CODE":0,"TOWNNAME":"東山區","LI":"東山里","LIN":"17鄰","STREET":" ","SECT":" ","MAREA":"東山","LANE":" ","ALLEY":" ","HOUSE_NO":"２６０號之４","E_COORD97":189020.20999999999,"N_COORD97":2580816.0800000001,"ADDRESS":"東山２６０號之４","OBJECTID":21397},"geometry":{"x":189020.20999999903,"y":2580816.0800000038}},{"attributes":{"ID":21398,"DIS_CODE":0,"TOWNNAME":"中西區","LI":"光賢里","LIN":"14鄰","STREET":"武聖路","SECT":" ","MAREA":" ","LANE":"６９巷","ALLEY":"４０弄","HOUSE_NO":"３０號七樓之１５","E_COORD97":166628.06,"N_COORD97":2545203.8599999999,"ADDRESS":"武聖路６９巷４０弄３０號七樓之１５","OBJECTID":21398},"geometry":{"x":166628.06000000052,"y":2545203.8599999994}},{"attributes":{"ID":21399,"DIS_CODE":0,"TOWNNAME":"中西區","LI":"光賢里","LIN":"14鄰","STREET":"武聖路","SECT":" ","MAREA":" ","LANE":"６９巷","ALLEY":"４０弄","HOUSE_NO":"３０號七樓之１６","E_COORD97":166628.06,"N_COORD97":2545203.8599999999,"ADDRESS":"武聖路６９巷４０弄３０號七樓之１６","OBJECTID":21399},"geometry":{"x":166628.06000000052,"y":2545203.8599999994}},{"attributes":{"ID":21400,"DIS_CODE":0,"TOWNNAME":"東山區","LI":"東山里","LIN":"17鄰","STREET":" ","SECT":" ","MAREA":"東山","LANE":" ","ALLEY":" ","HOUSE_NO":"２６０號之５","E_COORD97":189029.07000000001,"N_COORD97":2580811.02,"ADDRESS":"東山２６０號之５","OBJECTID":21400},"geometry":{"x":189029.07000000123,"y":2580811.0199999996}}]}