{"displayFieldName":"TOWNNAME","fieldAliases":{"ID":"ID","DIS_CODE":"DIS_CODE","TOWNNAME":"TOWNNAME","LI":"LI","LIN":"LIN","STREET":"STREET","SECT":"SECT","MAREA":"MAREA","LANE":"LANE","ALLEY":"ALLEY","HOUSE_NO":"HOUSE_NO","E_COORD97":"E_COORD97","N_COORD97":"N_COORD97","ADDRESS":"ADDRESS","OBJECTID":"OBJECTID"},"geometryType":"esriGeometryPoint","spatialReference":{"wkid":102443,"latestWkid":3826},"fields":[{"name":"ID","type":"esriFieldTypeDouble","alias":"ID"},{"name":"DIS_CODE","type":"esriFieldTypeInteger","alias":"DIS_CODE"},{"name":"TOWNNAME","type":"esriFieldTypeString","alias":"TOWNNAME","length":8},{"name":"LI","type":"esriFieldTypeString","alias":"LI","length":8},{"name":"LIN","type":"esriFieldTypeString","alias":"LIN","length":12},{"name":"STREET","type":"esriFieldTypeString","alias":"STREET","length":20},{"name":"SECT","type":"esriFieldTypeString","alias":"SECT","length":8},{"name":"MAREA","type":"esriFieldTypeString","alias":"MAREA","length":12},{"name":"LANE","type":"esriFieldTypeString","alias":"LANE","length":10},{"name":"ALLEY","type":"esriFieldTypeString","alias":"ALLEY","length":10},{"name":"HOUSE_NO","type":"esriFieldTypeString","alias":"HOUSE_NO","length":20},{"name":"E_COORD97","type":"esriFieldTypeDouble","alias":"E_COORD97"},{"name":"N_COORD97","type":"esriFieldTypeDouble","alias":"N_COORD97"},{"name":"ADDRESS","type":"esriFieldTypeString","alias":"ADDRESS","length":50},{"name":"OBJECTID","type":"esriFieldTypeOID","alias":"OBJECTID"}],"features":[{"attributes":{"ID":618628,"DIS_CODE":0,"TOWNNAME":"中西區","LI":"協進里","LIN":"2鄰","STREET":"民生路","SECT":"二段","MAREA":" ","LANE":" ","ALLEY":" ","HOUSE_NO":"２４８號","E_COORD97":167188.44,"N_COORD97":2544162.0600000001,"ADDRESS":"民生路二段２４８號","OBJECTID":618601},"geometry":{"x":167188.43999999948,"y":2544162.0600000005}},{"attributes":{"ID":618629,"DIS_CODE":0,"TOWNNAME":"中西區","LI":"協進里","LIN":"2鄰","STREET":"民生路","SECT":"二段","MAREA":" ","LANE":" ","ALLEY":" ","HOUSE_NO":"２５０號","E_COORD97":167184.41,"N_COORD97":2544162.9500000002,"ADDRESS":"民生路二段２５０號","OBJECTID":618602},"geometry":{"x":167184.41000000015,"y":2544162.950000003}},{"attributes":{"ID":618630,"DIS_CODE":0,"TOWNNAME":"中西區","LI":"協進里","LIN":"2鄰","STREET":"民生路","SECT":"二段","MAREA":" ","LANE":" ","ALLEY":" ","HOUSE_NO":"２５２號","E_COORD97":167180.09,"N_COORD97":2544164.4399999999,"ADDRESS":"民生路二段２５２號","OBJECTID":618603},"geometry":{"x":167180.08999999892,"y":2544164.4400000013}},{"attributes":{"ID":618631,"DIS_CODE":0,"TOWNNAME":"中西區","LI":"協進里","LIN":"2鄰","STREET":"民生路","SECT":"二段","MAREA":" ","LANE":" ","ALLEY":" ","HOUSE_NO":"２５４號","E_COORD97":167171.14999999999,"N_COORD97":2544163.54,"ADDRESS":"民生路二段２５４號","OBJECTID":618604},"geometry":{"x":167171.15000000037,"y":2544163.540000001}},{"attributes":{"ID":618632,"DIS_CODE":0,"TOWNNAME":"中西區","LI":"協進里","LIN":"2鄰","STREET":"民生路","SECT":"二段","MAREA":" ","LANE":" ","ALLEY":" ","HOUSE_NO":"２５６號","E_COORD97":167168.47,"N_COORD97":2544164.4399999999,"ADDRESS":"民生路二段２５６號","OBJECTID":618605},"geometry":{"x":167168.46999999974,"y":2544164.4400000013}},{"attributes":{"ID":618633,"DIS_CODE":0,"TOWNNAME":"中西區","LI":"協進里","LIN":"2鄰","STREET":"民生路","SECT":"二段","MAREA":" ","LANE":" ","ALLEY":" ","HOUSE_NO":"２５８號","E_COORD97":167162.20999999999,"N_COORD97":2544166.6699999999,"ADDRESS":"民生路二段２５８號","OBJECTID":618606},"geometry":{"x":167162.20999999996,"y":2544166.6700000018}},{"attributes":{"ID":618634,"DIS_CODE":0,"TOWNNAME":"中西區","LI":"協進里","LIN":"2鄰","STREET":"民生路","SECT":"二段","MAREA":" ","LANE":" ","ALLEY":" ","HOUSE_NO":"２６０號","E_COORD97":167157.89000000001,"N_COORD97":2544168.75,"ADDRESS":"民生路二段２６０號","OBJECTID":618607},"geometry":{"x":167157.8900000006,"y":2544168.7500000019}},{"attributes":{"ID":618635,"DIS_CODE":0,"TOWNNAME":"中西區","LI":"協進里","LIN":"2鄰","STREET":"民生路","SECT":"二段","MAREA":" ","LANE":" ","ALLEY":" ","HOUSE_NO":"２６２號","E_COORD97":167154.16,"N_COORD97":2544169.2000000002,"ADDRESS":"民生路二段２６２號","OBJECTID":618608},"geometry":{"x":167154.16000000015,"y":2544169.2000000011}},{"attributes":{"ID":618636,"DIS_CODE":0,"TOWNNAME":"中西區","LI":"協進里","LIN":"2鄰","STREET":"民生路","SECT":"二段","MAREA":" ","LANE":" ","ALLEY":" ","HOUSE_NO":"２６４號","E_COORD97":167149.98999999999,"N_COORD97":2544170.6899999999,"ADDRESS":"民生路二段２６４號","OBJECTID":618609},"geometry":{"x":167149.99000000022,"y":2544170.6899999995}},{"attributes":{"ID":618637,"DIS_CODE":0,"TOWNNAME":"中西區","LI":"協進里","LIN":"2鄰","STREET":"民生路","SECT":"二段","MAREA":" ","LANE":" ","ALLEY":" ","HOUSE_NO":"２６６號","E_COORD97":167146.85999999999,"N_COORD97":2544171.2799999998,"ADDRESS":"民生路二段２６６號","OBJECTID":618610},"geometry":{"x":167146.86000000127,"y":2544171.2800000012}},{"attributes":{"ID":618638,"DIS_CODE":0,"TOWNNAME":"中西區","LI":"協進里","LIN":"2鄰","STREET":"民生路","SECT":"二段","MAREA":" ","LANE":" ","ALLEY":" ","HOUSE_NO":"２６８號","E_COORD97":167143.57999999999,"N_COORD97":2544172.0299999998,"ADDRESS":"民生路二段２６８號","OBJECTID":618611},"geometry":{"x":167143.58000000101,"y":2544172.0299999993}},{"attributes":{"ID":618639,"DIS_CODE":0,"TOWNNAME":"中西區","LI":"協進里","LIN":"2鄰","STREET":"民生路","SECT":"二段","MAREA":" ","LANE":" ","ALLEY":" ","HOUSE_NO":"２７０號","E_COORD97":167140.01000000001,"N_COORD97":2544173.3700000001,"ADDRESS":"民生路二段２７０號","OBJECTID":618612},"geometry":{"x":167140.01000000164,"y":2544173.3700000029}},{"attributes":{"ID":618640,"DIS_CODE":0,"TOWNNAME":"中西區","LI":"協進里","LIN":"2鄰","STREET":"民生路","SECT":"二段","MAREA":" ","LANE":" ","ALLEY":" ","HOUSE_NO":"２７２號","E_COORD97":167134.31,"N_COORD97":2544175.8100000001,"ADDRESS":"民生路二段２７２號","OBJECTID":618613},"geometry":{"x":167134.31000000145,"y":2544175.8100000024}},{"attributes":{"ID":618641,"DIS_CODE":0,"TOWNNAME":"中西區","LI":"協進里","LIN":"2鄰","STREET":"西寧街","SECT":" ","MAREA":" ","LANE":" ","ALLEY":" ","HOUSE_NO":"２１號","E_COORD97":167156.70000000001,"N_COORD97":2544200.5499999998,"ADDRESS":"西寧街２１號","OBJECTID":618614},"geometry":{"x":167156.70000000112,"y":2544200.5500000007}},{"attributes":{"ID":618642,"DIS_CODE":0,"TOWNNAME":"中西區","LI":"協進里","LIN":"2鄰","STREET":"西寧街","SECT":" ","MAREA":" ","LANE":" ","ALLEY":" ","HOUSE_NO":"２３號","E_COORD97":167151.32999999999,"N_COORD97":2544201,"ADDRESS":"西寧街２３號","OBJECTID":618615},"geometry":{"x":167151.33000000007,"y":2544201.0000000019}},{"attributes":{"ID":618643,"DIS_CODE":0,"TOWNNAME":"中西區","LI":"協進里","LIN":"2鄰","STREET":"西寧街","SECT":" ","MAREA":" ","LANE":" ","ALLEY":" ","HOUSE_NO":"２５號","E_COORD97":167140.89999999999,"N_COORD97":2544203.6699999999,"ADDRESS":"西寧街２５號","OBJECTID":618616},"geometry":{"x":167140.90000000037,"y":2544203.6700000018}},{"attributes":{"ID":618644,"DIS_CODE":0,"TOWNNAME":"中西區","LI":"協進里","LIN":"2鄰","STREET":"西寧街","SECT":" ","MAREA":" ","LANE":" ","ALLEY":" ","HOUSE_NO":"２７號","E_COORD97":167139.26000000001,"N_COORD97":2544197.5699999998,"ADDRESS":"西寧街２７號","OBJECTID":618617},"geometry":{"x":167139.25999999978,"y":2544197.5700000022}},{"attributes":{"ID":618645,"DIS_CODE":0,"TOWNNAME":"中西區","LI":"協進里","LIN":"2鄰","STREET":"西寧街","SECT":" ","MAREA":" ","LANE":" ","ALLEY":" ","HOUSE_NO":"２９號","E_COORD97":167154.01000000001,"N_COORD97":2544180.96,"ADDRESS":"西寧街２９號","OBJECTID":618618},"geometry":{"x":167154.01000000071,"y":2544180.9600000009}},{"attributes":{"ID":618646,"DIS_CODE":0,"TOWNNAME":"中西區","LI":"協進里","LIN":"2鄰","STREET":"西寧街","SECT":" ","MAREA":" ","LANE":" ","ALLEY":" ","HOUSE_NO":"３１號","E_COORD97":167151.32999999999,"N_COORD97":2544181.8500000001,"ADDRESS":"西寧街３１號","OBJECTID":618619},"geometry":{"x":167151.33000000007,"y":2544181.8500000015}},{"attributes":{"ID":618647,"DIS_CODE":0,"TOWNNAME":"中西區","LI":"協進里","LIN":"2鄰","STREET":"西寧街","SECT":" ","MAREA":" ","LANE":" ","ALLEY":" ","HOUSE_NO":"３３號","E_COORD97":167147.01000000001,"N_COORD97":2544182,"ADDRESS":"西寧街３３號","OBJECTID":618620},"geometry":{"x":167147.01000000071,"y":2544182}},{"attributes":{"ID":618648,"DIS_CODE":0,"TOWNNAME":"中西區","LI":"協進里","LIN":"2鄰","STREET":"西寧街","SECT":" ","MAREA":" ","LANE":" ","ALLEY":" ","HOUSE_NO":"３３號之１","E_COORD97":167137.03,"N_COORD97":2544190.48,"ADDRESS":"西寧街３３號之１","OBJECTID":618621},"geometry":{"x":167137.03000000212,"y":2544190.4800000004}},{"attributes":{"ID":618649,"DIS_CODE":0,"TOWNNAME":"中西區","LI":"民主里","LIN":"2鄰","STREET":"府前路","SECT":"二段","MAREA":" ","LANE":" ","ALLEY":" ","HOUSE_NO":"１１３號","E_COORD97":167430.35999999999,"N_COORD97":2543515.9199999999,"ADDRESS":"府前路二段１１３號","OBJECTID":618622},"geometry":{"x":167430.36000000127,"y":2543515.9199999981}},{"attributes":{"ID":618650,"DIS_CODE":0,"TOWNNAME":"中西區","LI":"民主里","LIN":"2鄰","STREET":"府前路","SECT":"二段","MAREA":" ","LANE":" ","ALLEY":" ","HOUSE_NO":"１１５號","E_COORD97":167427.04000000001,"N_COORD97":2543516.6899999999,"ADDRESS":"府前路二段１１５號","OBJECTID":618623},"geometry":{"x":167427.04000000097,"y":2543516.6899999995}},{"attributes":{"ID":618651,"DIS_CODE":0,"TOWNNAME":"中西區","LI":"民主里","LIN":"2鄰","STREET":"府前路","SECT":"二段","MAREA":" ","LANE":" ","ALLEY":" ","HOUSE_NO":"１１７號","E_COORD97":167421.88,"N_COORD97":2543518.1800000002,"ADDRESS":"府前路二段１１７號","OBJECTID":618624},"geometry":{"x":167421.87999999989,"y":2543518.1800000016}},{"attributes":{"ID":618652,"DIS_CODE":0,"TOWNNAME":"佳里區","LI":"建南里","LIN":"20鄰","STREET":"光復路","SECT":" ","MAREA":" ","LANE":" ","ALLEY":" ","HOUSE_NO":"２號之１","E_COORD97":165575.85000000001,"N_COORD97":2561730.6200000001,"ADDRESS":"光復路２號之１","OBJECTID":618625},"geometry":{"x":165575.84999999963,"y":2561730.6200000029}},{"attributes":{"ID":618653,"DIS_CODE":0,"TOWNNAME":"佳里區","LI":"建南里","LIN":"20鄰","STREET":"光復路","SECT":" ","MAREA":" ","LANE":" ","ALLEY":" ","HOUSE_NO":"２號","E_COORD97":165574.51999999999,"N_COORD97":2561725.7599999998,"ADDRESS":"光復路２號","OBJECTID":618626},"geometry":{"x":165574.51999999955,"y":2561725.7599999998}},{"attributes":{"ID":618654,"DIS_CODE":0,"TOWNNAME":"佳里區","LI":"安西里","LIN":"14鄰","STREET":"光復路","SECT":" ","MAREA":" ","LANE":" ","ALLEY":" ","HOUSE_NO":"２９７號","E_COORD97":165485.39000000001,"N_COORD97":2562516.4399999999,"ADDRESS":"光復路２９７號","OBJECTID":618627},"geometry":{"x":165485.38999999966,"y":2562516.4400000013}},{"attributes":{"ID":618655,"DIS_CODE":0,"TOWNNAME":"佳里區","LI":"安西里","LIN":"14鄰","STREET":"光復路","SECT":" ","MAREA":" ","LANE":" ","ALLEY":" ","HOUSE_NO":"２９９號","E_COORD97":165485.17999999999,"N_COORD97":2562524.1000000001,"ADDRESS":"光復路２９９號","OBJECTID":618628},"geometry":{"x":165485.1799999997,"y":2562524.0999999996}},{"attributes":{"ID":618656,"DIS_CODE":0,"TOWNNAME":"佳里區","LI":"建南里","LIN":"15鄰","STREET":"光復路","SECT":" ","MAREA":" ","LANE":" ","ALLEY":" ","HOUSE_NO":"２９號","E_COORD97":165528.10999999999,"N_COORD97":2561806.2799999998,"ADDRESS":"光復路２９號","OBJECTID":618629},"geometry":{"x":165528.11000000127,"y":2561806.2799999993}},{"attributes":{"ID":618657,"DIS_CODE":0,"TOWNNAME":"佳里區","LI":"建南里","LIN":"15鄰","STREET":"光復路","SECT":" ","MAREA":" ","LANE":" ","ALLEY":" ","HOUSE_NO":"３１號","E_COORD97":165527.53,"N_COORD97":2561811.2400000002,"ADDRESS":"光復路３１號","OBJECTID":618630},"geometry":{"x":165527.53000000026,"y":2561811.2400000002}},{"attributes":{"ID":618658,"DIS_CODE":0,"TOWNNAME":"佳里區","LI":"安西里","LIN":"3鄰","STREET":"光復路","SECT":" ","MAREA":" ","LANE":" ","ALLEY":" ","HOUSE_NO":"２９８號","E_COORD97":165521.82999999999,"N_COORD97":2562658.9300000002,"ADDRESS":"光復路２９８號","OBJECTID":618631},"geometry":{"x":165521.83000000007,"y":2562658.9300000016}},{"attributes":{"ID":618659,"DIS_CODE":0,"TOWNNAME":"佳里區","LI":"安西里","LIN":"3鄰","STREET":"光復路","SECT":" ","MAREA":" ","LANE":" ","ALLEY":" ","HOUSE_NO":"３００號","E_COORD97":165522.17000000001,"N_COORD97":2562664.3500000001,"ADDRESS":"光復路３００號","OBJECTID":618632},"geometry":{"x":165522.17000000086,"y":2562664.3499999996}},{"attributes":{"ID":618660,"DIS_CODE":0,"TOWNNAME":"永康區","LI":"烏竹里","LIN":"2鄰","STREET":"烏竹北街","SECT":" ","MAREA":" ","LANE":" ","ALLEY":" ","HOUSE_NO":"８號","E_COORD97":174662.98000000001,"N_COORD97":2549374,"ADDRESS":"烏竹北街８號","OBJECTID":618633},"geometry":{"x":174662.98000000138,"y":2549373.9999999981}},{"attributes":{"ID":618661,"DIS_CODE":0,"TOWNNAME":"永康區","LI":"埔園里","LIN":"2鄰","STREET":"永埔街","SECT":" ","MAREA":" ","LANE":" ","ALLEY":" ","HOUSE_NO":"７７號","E_COORD97":173937.26999999999,"N_COORD97":2547705.9100000001,"ADDRESS":"永埔街７７號","OBJECTID":618634},"geometry":{"x":173937.26999999862,"y":2547705.9100000001}},{"attributes":{"ID":618662,"DIS_CODE":0,"TOWNNAME":"永康區","LI":"西勢里","LIN":"2鄰","STREET":"西勢路","SECT":" ","MAREA":" ","LANE":" ","ALLEY":" ","HOUSE_NO":"４５２號","E_COORD97":175203.14000000001,"N_COORD97":2546852.7999999998,"ADDRESS":"西勢路４５２號","OBJECTID":618635},"geometry":{"x":175203.1400000006,"y":2546852.8000000007}},{"attributes":{"ID":618663,"DIS_CODE":0,"TOWNNAME":"永康區","LI":"尚頂里","LIN":"2鄰","STREET":"中正二街","SECT":" ","MAREA":" ","LANE":" ","ALLEY":" ","HOUSE_NO":"１２０號","E_COORD97":171198.34,"N_COORD97":2547583.1600000001,"ADDRESS":"中正二街１２０號","OBJECTID":618636},"geometry":{"x":171198.34000000078,"y":2547583.1600000039}},{"attributes":{"ID":618664,"DIS_CODE":0,"TOWNNAME":"永康區","LI":"尚頂里","LIN":"2鄰","STREET":"中正二街","SECT":" ","MAREA":" ","LANE":" ","ALLEY":" ","HOUSE_NO":"１２２號","E_COORD97":171211.25,"N_COORD97":2547590.1200000001,"ADDRESS":"中正二街１２２號","OBJECTID":618637},"geometry":{"x":171211.25,"y":2547590.120000001}},{"attributes":{"ID":618665,"DIS_CODE":0,"TOWNNAME":"永康區","LI":"埔園里","LIN":"2鄰","STREET":"永埔街","SECT":" ","MAREA":" ","LANE":" ","ALLEY":" ","HOUSE_NO":"７１號","E_COORD97":173948.89000000001,"N_COORD97":2547690.73,"ADDRESS":"永埔街７１號","OBJECTID":618638},"geometry":{"x":173948.8900000006,"y":2547690.7300000004}},{"attributes":{"ID":618666,"DIS_CODE":0,"TOWNNAME":"佳里區","LI":"建南里","LIN":"2鄰","STREET":"中山路","SECT":" ","MAREA":" ","LANE":" ","ALLEY":" ","HOUSE_NO":"２４９號","E_COORD97":165705.94,"N_COORD97":2562288.2799999998,"ADDRESS":"中山路２４９號","OBJECTID":618639},"geometry":{"x":165705.94000000134,"y":2562288.2799999993}},{"attributes":{"ID":618667,"DIS_CODE":0,"TOWNNAME":"佳里區","LI":"建南里","LIN":"2鄰","STREET":"中山路","SECT":" ","MAREA":" ","LANE":" ","ALLEY":" ","HOUSE_NO":"２５１號","E_COORD97":165705.10000000001,"N_COORD97":2562293.25,"ADDRESS":"中山路２５１號","OBJECTID":618640},"geometry":{"x":165705.10000000149,"y":2562293.2500000037}},{"attributes":{"ID":618668,"DIS_CODE":0,"TOWNNAME":"佳里區","LI":"建南里","LIN":"2鄰","STREET":"中山路","SECT":" ","MAREA":" ","LANE":" ","ALLEY":" ","HOUSE_NO":"２５３號","E_COORD97":165704.98999999999,"N_COORD97":2562296.73,"ADDRESS":"中山路２５３號","OBJECTID":618641},"geometry":{"x":165704.99000000115,"y":2562296.7300000004}},{"attributes":{"ID":618669,"DIS_CODE":0,"TOWNNAME":"佳里區","LI":"建南里","LIN":"2鄰","STREET":"中山路","SECT":" ","MAREA":" ","LANE":" ","ALLEY":" ","HOUSE_NO":"２５５號","E_COORD97":165705.06,"N_COORD97":2562300.25,"ADDRESS":"中山路２５５號","OBJECTID":618642},"geometry":{"x":165705.05999999959,"y":2562300.2500000037}},{"attributes":{"ID":618670,"DIS_CODE":0,"TOWNNAME":"佳里區","LI":"建南里","LIN":"2鄰","STREET":"中山路","SECT":" ","MAREA":" ","LANE":" ","ALLEY":" ","HOUSE_NO":"２５７號","E_COORD97":165704.54000000001,"N_COORD97":2562303.5499999998,"ADDRESS":"中山路２５７號","OBJECTID":618643},"geometry":{"x":165704.54000000097,"y":2562303.5500000026}},{"attributes":{"ID":618671,"DIS_CODE":0,"TOWNNAME":"佳里區","LI":"建南里","LIN":"2鄰","STREET":"中山路","SECT":" ","MAREA":" ","LANE":" ","ALLEY":" ","HOUSE_NO":"２５９號","E_COORD97":165701.94,"N_COORD97":2562306.7999999998,"ADDRESS":"中山路２５９號","OBJECTID":618644},"geometry":{"x":165701.94000000227,"y":2562306.8000000007}},{"attributes":{"ID":618672,"DIS_CODE":0,"TOWNNAME":"佳里區","LI":"建南里","LIN":"2鄰","STREET":"中山路","SECT":" ","MAREA":" ","LANE":" ","ALLEY":" ","HOUSE_NO":"２６１號","E_COORD97":165701.62,"N_COORD97":2562310.4900000002,"ADDRESS":"中山路２６１號","OBJECTID":618645},"geometry":{"x":165701.62000000011,"y":2562310.4900000021}},{"attributes":{"ID":618673,"DIS_CODE":0,"TOWNNAME":"佳里區","LI":"建南里","LIN":"2鄰","STREET":"中山路","SECT":" ","MAREA":" ","LANE":" ","ALLEY":" ","HOUSE_NO":"２６３號","E_COORD97":165701.23000000001,"N_COORD97":2562314.7999999998,"ADDRESS":"中山路２６３號","OBJECTID":618646},"geometry":{"x":165701.23000000045,"y":2562314.8000000026}},{"attributes":{"ID":618674,"DIS_CODE":0,"TOWNNAME":"佳里區","LI":"建南里","LIN":"2鄰","STREET":"中山路","SECT":" ","MAREA":" ","LANE":" ","ALLEY":" ","HOUSE_NO":"２６５號","E_COORD97":165700.57999999999,"N_COORD97":2562318.5699999998,"ADDRESS":"中山路２６５號","OBJECTID":618647},"geometry":{"x":165700.58000000194,"y":2562318.570000004}},{"attributes":{"ID":618675,"DIS_CODE":0,"TOWNNAME":"佳里區","LI":"建南里","LIN":"2鄰","STREET":"中山路","SECT":" ","MAREA":" ","LANE":" ","ALLEY":" ","HOUSE_NO":"２６７號","E_COORD97":165700.25,"N_COORD97":2562323.3799999999,"ADDRESS":"中山路２６７號","OBJECTID":618648},"geometry":{"x":165700.25,"y":2562323.3800000008}},{"attributes":{"ID":618676,"DIS_CODE":0,"TOWNNAME":"佳里區","LI":"建南里","LIN":"2鄰","STREET":"中山路","SECT":" ","MAREA":" ","LANE":" ","ALLEY":" ","HOUSE_NO":"２６９號","E_COORD97":165700.04999999999,"N_COORD97":2562328.0800000001,"ADDRESS":"中山路２６９號","OBJECTID":618649},"geometry":{"x":165700.04999999981,"y":2562328.0800000001}},{"attributes":{"ID":618677,"DIS_CODE":0,"TOWNNAME":"佳里區","LI":"建南里","LIN":"2鄰","STREET":"中山路","SECT":" ","MAREA":" ","LANE":" ","ALLEY":" ","HOUSE_NO":"２７１號","E_COORD97":165699.79000000001,"N_COORD97":2562332.5099999998,"ADDRESS":"中山路２７１號","OBJECTID":618650},"geometry":{"x":165699.79000000097,"y":2562332.5100000016}},{"attributes":{"ID":618678,"DIS_CODE":0,"TOWNNAME":"佳里區","LI":"建南里","LIN":"2鄰","STREET":"中山路","SECT":" ","MAREA":" ","LANE":" ","ALLEY":" ","HOUSE_NO":"２７３號","E_COORD97":165699.44,"N_COORD97":2562335.5899999999,"ADDRESS":"中山路２７３號","OBJECTID":618651},"geometry":{"x":165699.44000000041,"y":2562335.5900000017}},{"attributes":{"ID":618679,"DIS_CODE":0,"TOWNNAME":"佳里區","LI":"建南里","LIN":"2鄰","STREET":"中山路","SECT":" ","MAREA":" ","LANE":" ","ALLEY":" ","HOUSE_NO":"２７５號","E_COORD97":165699.23999999999,"N_COORD97":2562340.02,"ADDRESS":"中山路２７５號","OBJECTID":618652},"geometry":{"x":165699.24000000022,"y":2562340.0200000014}},{"attributes":{"ID":618680,"DIS_CODE":0,"TOWNNAME":"佳里區","LI":"建南里","LIN":"2鄰","STREET":"中山路","SECT":" ","MAREA":" ","LANE":" ","ALLEY":" ","HOUSE_NO":"２７７號","E_COORD97":165698.88,"N_COORD97":2562343.52,"ADDRESS":"中山路２７７號","OBJECTID":618653},"geometry":{"x":165698.88000000082,"y":2562343.5200000014}},{"attributes":{"ID":618681,"DIS_CODE":0,"TOWNNAME":"佳里區","LI":"建南里","LIN":"2鄰","STREET":"中山路","SECT":" ","MAREA":" ","LANE":" ","ALLEY":" ","HOUSE_NO":"２７９號","E_COORD97":165698.35999999999,"N_COORD97":2562347.3900000001,"ADDRESS":"中山路２７９號","OBJECTID":618654},"geometry":{"x":165698.36000000034,"y":2562347.3900000043}},{"attributes":{"ID":618682,"DIS_CODE":0,"TOWNNAME":"佳里區","LI":"建南里","LIN":"2鄰","STREET":"中山路","SECT":" ","MAREA":" ","LANE":" ","ALLEY":" ","HOUSE_NO":"２８１號","E_COORD97":165698.17999999999,"N_COORD97":2562351.3700000001,"ADDRESS":"中山路２８１號","OBJECTID":618655},"geometry":{"x":165698.18000000063,"y":2562351.3700000048}},{"attributes":{"ID":618683,"DIS_CODE":0,"TOWNNAME":"佳里區","LI":"建南里","LIN":"2鄰","STREET":"中山路","SECT":" ","MAREA":" ","LANE":" ","ALLEY":" ","HOUSE_NO":"２８３號","E_COORD97":165697.78,"N_COORD97":2562355.0800000001,"ADDRESS":"中山路２８３號","OBJECTID":618656},"geometry":{"x":165697.78000000212,"y":2562355.0800000001}},{"attributes":{"ID":618684,"DIS_CODE":0,"TOWNNAME":"佳里區","LI":"建南里","LIN":"2鄰","STREET":"中山路","SECT":" ","MAREA":" ","LANE":" ","ALLEY":" ","HOUSE_NO":"２８５號","E_COORD97":165698.48999999999,"N_COORD97":2562358.6000000001,"ADDRESS":"中山路２８５號","OBJECTID":618657},"geometry":{"x":165698.49000000115,"y":2562358.6000000034}},{"attributes":{"ID":618685,"DIS_CODE":0,"TOWNNAME":"佳里區","LI":"六安里","LIN":"2鄰","STREET":"中山路","SECT":" ","MAREA":" ","LANE":" ","ALLEY":" ","HOUSE_NO":"４６２號","E_COORD97":165798.16,"N_COORD97":2562766.02,"ADDRESS":"中山路４６２號","OBJECTID":618658},"geometry":{"x":165798.16000000015,"y":2562766.0200000014}},{"attributes":{"ID":618686,"DIS_CODE":0,"TOWNNAME":"佳里區","LI":"六安里","LIN":"2鄰","STREET":"中山路","SECT":" ","MAREA":" ","LANE":" ","ALLEY":" ","HOUSE_NO":"４６６號","E_COORD97":165799.84,"N_COORD97":2562770.0499999998,"ADDRESS":"中山路４６６號","OBJECTID":618659},"geometry":{"x":165799.83999999985,"y":2562770.0500000045}},{"attributes":{"ID":618687,"DIS_CODE":0,"TOWNNAME":"佳里區","LI":"六安里","LIN":"2鄰","STREET":"中山路","SECT":" ","MAREA":" ","LANE":" ","ALLEY":" ","HOUSE_NO":"４６８號","E_COORD97":165801.70999999999,"N_COORD97":2562774.6099999999,"ADDRESS":"中山路４６８號","OBJECTID":618660},"geometry":{"x":165801.71000000089,"y":2562774.6099999994}},{"attributes":{"ID":618688,"DIS_CODE":0,"TOWNNAME":"佳里區","LI":"六安里","LIN":"2鄰","STREET":"中山路","SECT":" ","MAREA":" ","LANE":" ","ALLEY":" ","HOUSE_NO":"４７８號","E_COORD97":165804.01999999999,"N_COORD97":2562779.2000000002,"ADDRESS":"中山路４７８號","OBJECTID":618661},"geometry":{"x":165804.02000000048,"y":2562779.2000000011}},{"attributes":{"ID":618689,"DIS_CODE":0,"TOWNNAME":"佳里區","LI":"六安里","LIN":"2鄰","STREET":"中山路","SECT":" ","MAREA":" ","LANE":" ","ALLEY":" ","HOUSE_NO":"４７２號","E_COORD97":165806.07999999999,"N_COORD97":2562783.1800000002,"ADDRESS":"中山路４７２號","OBJECTID":618662},"geometry":{"x":165806.08000000101,"y":2562783.1800000016}},{"attributes":{"ID":618690,"DIS_CODE":0,"TOWNNAME":"佳里區","LI":"六安里","LIN":"2鄰","STREET":"中山路","SECT":" ","MAREA":" ","LANE":" ","ALLEY":" ","HOUSE_NO":"４７６號","E_COORD97":165808.10999999999,"N_COORD97":2562787.1099999999,"ADDRESS":"中山路４７６號","OBJECTID":618663},"geometry":{"x":165808.11000000127,"y":2562787.1099999994}},{"attributes":{"ID":618691,"DIS_CODE":0,"TOWNNAME":"佳里區","LI":"鎮山里","LIN":"2鄰","STREET":"中山路","SECT":" ","MAREA":" ","LANE":" ","ALLEY":" ","HOUSE_NO":"５６號","E_COORD97":165829.29000000001,"N_COORD97":2561722.48,"ADDRESS":"中山路５６號","OBJECTID":618664},"geometry":{"x":165829.29000000004,"y":2561722.4799999986}},{"attributes":{"ID":618692,"DIS_CODE":0,"TOWNNAME":"佳里區","LI":"鎮山里","LIN":"2鄰","STREET":"中山路","SECT":" ","MAREA":" ","LANE":" ","ALLEY":" ","HOUSE_NO":"５８號","E_COORD97":165828.56,"N_COORD97":2561727.2400000002,"ADDRESS":"中山路５８號","OBJECTID":618665},"geometry":{"x":165828.55999999959,"y":2561727.2399999984}},{"attributes":{"ID":618693,"DIS_CODE":0,"TOWNNAME":"佳里區","LI":"鎮山里","LIN":"2鄰","STREET":"中山路","SECT":" ","MAREA":" ","LANE":" ","ALLEY":" ","HOUSE_NO":"６０號","E_COORD97":165828.31,"N_COORD97":2561731.5699999998,"ADDRESS":"中山路６０號","OBJECTID":618666},"geometry":{"x":165828.30999999959,"y":2561731.5700000003}},{"attributes":{"ID":618694,"DIS_CODE":0,"TOWNNAME":"佳里區","LI":"鎮山里","LIN":"2鄰","STREET":"中山路","SECT":" ","MAREA":" ","LANE":" ","ALLEY":" ","HOUSE_NO":"６２號","E_COORD97":165826.89999999999,"N_COORD97":2561736.1099999999,"ADDRESS":"中山路６２號","OBJECTID":618667},"geometry":{"x":165826.90000000037,"y":2561736.1099999994}},{"attributes":{"ID":618695,"DIS_CODE":0,"TOWNNAME":"佳里區","LI":"鎮山里","LIN":"2鄰","STREET":"中山路","SECT":" ","MAREA":" ","LANE":" ","ALLEY":" ","HOUSE_NO":"６４號","E_COORD97":165825.81,"N_COORD97":2561741.1000000001,"ADDRESS":"中山路６４號","OBJECTID":618668},"geometry":{"x":165825.81000000052,"y":2561741.0999999978}},{"attributes":{"ID":618696,"DIS_CODE":0,"TOWNNAME":"佳里區","LI":"鎮山里","LIN":"2鄰","STREET":"中山路","SECT":" ","MAREA":" ","LANE":" ","ALLEY":" ","HOUSE_NO":"７４號","E_COORD97":165820.06,"N_COORD97":2561761.6800000002,"ADDRESS":"中山路７４號","OBJECTID":618669},"geometry":{"x":165820.05999999959,"y":2561761.6800000016}},{"attributes":{"ID":618697,"DIS_CODE":0,"TOWNNAME":"佳里區","LI":"鎮山里","LIN":"2鄰","STREET":"中山路","SECT":" ","MAREA":" ","LANE":" ","ALLEY":" ","HOUSE_NO":"７６號","E_COORD97":165818.54000000001,"N_COORD97":2561767.4399999999,"ADDRESS":"中山路７６號","OBJECTID":618670},"geometry":{"x":165818.54000000097,"y":2561767.4400000013}},{"attributes":{"ID":618698,"DIS_CODE":0,"TOWNNAME":"佳里區","LI":"鎮山里","LIN":"2鄰","STREET":"中山路","SECT":" ","MAREA":" ","LANE":" ","ALLEY":" ","HOUSE_NO":"８０號","E_COORD97":165812.67999999999,"N_COORD97":2561785.1099999999,"ADDRESS":"中山路８０號","OBJECTID":618671},"geometry":{"x":165812.6799999997,"y":2561785.1100000031}},{"attributes":{"ID":618699,"DIS_CODE":0,"TOWNNAME":"佳里區","LI":"鎮山里","LIN":"2鄰","STREET":"中山路","SECT":" ","MAREA":" ","LANE":" ","ALLEY":" ","HOUSE_NO":"８２號","E_COORD97":165811.56,"N_COORD97":2561789.1600000001,"ADDRESS":"中山路８２號","OBJECTID":618672},"geometry":{"x":165811.55999999959,"y":2561789.1600000039}},{"attributes":{"ID":618700,"DIS_CODE":0,"TOWNNAME":"佳里區","LI":"鎮山里","LIN":"2鄰","STREET":"中山路","SECT":" ","MAREA":" ","LANE":" ","ALLEY":" ","HOUSE_NO":"８４號","E_COORD97":165810.25,"N_COORD97":2561793.6400000001,"ADDRESS":"中山路８４號","OBJECTID":618673},"geometry":{"x":165810.25000000093,"y":2561793.6400000025}},{"attributes":{"ID":618701,"DIS_CODE":0,"TOWNNAME":"佳里區","LI":"鎮山里","LIN":"2鄰","STREET":"中山路","SECT":" ","MAREA":" ","LANE":" ","ALLEY":" ","HOUSE_NO":"８６號","E_COORD97":165809.29999999999,"N_COORD97":2561797.8799999999,"ADDRESS":"中山路８６號","OBJECTID":618674},"geometry":{"x":165809.30000000075,"y":2561797.8800000008}},{"attributes":{"ID":618702,"DIS_CODE":0,"TOWNNAME":"佳里區","LI":"鎮山里","LIN":"2鄰","STREET":"中山路","SECT":" ","MAREA":" ","LANE":" ","ALLEY":" ","HOUSE_NO":"９０號","E_COORD97":165806.72,"N_COORD97":2561805.9300000002,"ADDRESS":"中山路９０號","OBJECTID":618675},"geometry":{"x":165806.72000000067,"y":2561805.9299999997}},{"attributes":{"ID":618703,"DIS_CODE":0,"TOWNNAME":"佳里區","LI":"鎮山里","LIN":"2鄰","STREET":"中山路","SECT":" ","MAREA":" ","LANE":" ","ALLEY":" ","HOUSE_NO":"９２號","E_COORD97":165805.26000000001,"N_COORD97":2561811.3999999999,"ADDRESS":"中山路９２號","OBJECTID":618676},"geometry":{"x":165805.25999999978,"y":2561811.4000000041}},{"attributes":{"ID":618704,"DIS_CODE":0,"TOWNNAME":"新化區","LI":"護國里","LIN":"2鄰","STREET":"仁愛街","SECT":" ","MAREA":" ","LANE":" ","ALLEY":" ","HOUSE_NO":"４５號","E_COORD97":179090.98000000001,"N_COORD97":2548589.25,"ADDRESS":"仁愛街４５號","OBJECTID":618677},"geometry":{"x":179090.98000000138,"y":2548589.2499999981}},{"attributes":{"ID":618705,"DIS_CODE":0,"TOWNNAME":"新化區","LI":"護國里","LIN":"2鄰","STREET":"仁愛街","SECT":" ","MAREA":" ","LANE":" ","ALLEY":" ","HOUSE_NO":"４３號","E_COORD97":179097.38,"N_COORD97":2548590.25,"ADDRESS":"仁愛街４３號","OBJECTID":618678},"geometry":{"x":179097.38000000082,"y":2548590.2500000019}},{"attributes":{"ID":618706,"DIS_CODE":0,"TOWNNAME":"新化區","LI":"唪口里","LIN":"2鄰","STREET":"大德路","SECT":" ","MAREA":" ","LANE":" ","ALLEY":" ","HOUSE_NO":"９４號之９","E_COORD97":178173.51999999999,"N_COORD97":2549460.2599999998,"ADDRESS":"大德路９４號之９","OBJECTID":618679},"geometry":{"x":178173.51999999862,"y":2549460.2599999979}},{"attributes":{"ID":618707,"DIS_CODE":0,"TOWNNAME":"新化區","LI":"武安里","LIN":"2鄰","STREET":"正新南路","SECT":" ","MAREA":" ","LANE":" ","ALLEY":" ","HOUSE_NO":"２７號","E_COORD97":179084.51999999999,"N_COORD97":2548021.25,"ADDRESS":"正新南路２７號","OBJECTID":618680},"geometry":{"x":179084.52000000048,"y":2548021.2500000019}},{"attributes":{"ID":618708,"DIS_CODE":0,"TOWNNAME":"新化區","LI":"唪口里","LIN":"2鄰","STREET":"大德路","SECT":" ","MAREA":" ","LANE":" ","ALLEY":" ","HOUSE_NO":"１００號","E_COORD97":178196.63,"N_COORD97":2549428.25,"ADDRESS":"大德路１００號","OBJECTID":618681},"geometry":{"x":178196.62999999989,"y":2549428.2500000019}},{"attributes":{"ID":618709,"DIS_CODE":0,"TOWNNAME":"新化區","LI":"清水里","LIN":"2鄰","STREET":"中山路","SECT":" ","MAREA":" ","LANE":" ","ALLEY":" ","HOUSE_NO":"４０３號之２","E_COORD97":178764.76000000001,"N_COORD97":2548351.2599999998,"ADDRESS":"中山路４０３號之２","OBJECTID":618682},"geometry":{"x":178764.75999999978,"y":2548351.2599999998}},{"attributes":{"ID":618710,"DIS_CODE":0,"TOWNNAME":"新化區","LI":"清水里","LIN":"2鄰","STREET":"民治路","SECT":" ","MAREA":" ","LANE":" ","ALLEY":" ","HOUSE_NO":"１８０號","E_COORD97":178687.01000000001,"N_COORD97":2548320.2400000002,"ADDRESS":"民治路１８０號","OBJECTID":618683},"geometry":{"x":178687.00999999978,"y":2548320.2400000002}},{"attributes":{"ID":618711,"DIS_CODE":0,"TOWNNAME":"新化區","LI":"武安里","LIN":"2鄰","STREET":"正新南路","SECT":" ","MAREA":" ","LANE":" ","ALLEY":" ","HOUSE_NO":"１號","E_COORD97":179129.26999999999,"N_COORD97":2548024.25,"ADDRESS":"正新南路１號","OBJECTID":618684},"geometry":{"x":179129.26999999955,"y":2548024.2500000019}},{"attributes":{"ID":618712,"DIS_CODE":0,"TOWNNAME":"新化區","LI":"中央里","LIN":"2鄰","STREET":"大同街","SECT":" ","MAREA":" ","LANE":" ","ALLEY":" ","HOUSE_NO":"１１０號","E_COORD97":178985.63,"N_COORD97":2548357.25,"ADDRESS":"大同街１１０號","OBJECTID":618685},"geometry":{"x":178985.63000000082,"y":2548357.25}},{"attributes":{"ID":618713,"DIS_CODE":0,"TOWNNAME":"新化區","LI":"唪口里","LIN":"2鄰","STREET":"大德路","SECT":" ","MAREA":" ","LANE":" ","ALLEY":" ","HOUSE_NO":"８０號之６","E_COORD97":178227.42999999999,"N_COORD97":2549415.2599999998,"ADDRESS":"大德路８０號之６","OBJECTID":618686},"geometry":{"x":178227.43000000063,"y":2549415.2599999998}},{"attributes":{"ID":618714,"DIS_CODE":0,"TOWNNAME":"新化區","LI":"太平里","LIN":"2鄰","STREET":"建國街","SECT":" ","MAREA":" ","LANE":" ","ALLEY":" ","HOUSE_NO":"６１號之２","E_COORD97":179145.42999999999,"N_COORD97":2548839.2599999998,"ADDRESS":"建國街６１號之２","OBJECTID":618687},"geometry":{"x":179145.4299999997,"y":2548839.2599999998}},{"attributes":{"ID":618715,"DIS_CODE":0,"TOWNNAME":"新化區","LI":"中央里","LIN":"2鄰","STREET":"大同街","SECT":" ","MAREA":" ","LANE":" ","ALLEY":" ","HOUSE_NO":"１０８號","E_COORD97":178983.32999999999,"N_COORD97":2548354.25,"ADDRESS":"大同街１０８號","OBJECTID":618688},"geometry":{"x":178983.33000000007,"y":2548354.25}},{"attributes":{"ID":618716,"DIS_CODE":0,"TOWNNAME":"新化區","LI":"護國里","LIN":"2鄰","STREET":"中正路","SECT":" ","MAREA":" ","LANE":" ","ALLEY":" ","HOUSE_NO":"４４０號","E_COORD97":179057.10999999999,"N_COORD97":2548520.25,"ADDRESS":"中正路４４０號","OBJECTID":618689},"geometry":{"x":179057.1100000022,"y":2548520.25}},{"attributes":{"ID":618717,"DIS_CODE":0,"TOWNNAME":"新化區","LI":"清水里","LIN":"2鄰","STREET":"中山路","SECT":" ","MAREA":" ","LANE":" ","ALLEY":" ","HOUSE_NO":"４０３號之３","E_COORD97":178764.26000000001,"N_COORD97":2548355.2599999998,"ADDRESS":"中山路４０３號之３","OBJECTID":618690},"geometry":{"x":178764.26000000071,"y":2548355.2600000035}},{"attributes":{"ID":618718,"DIS_CODE":0,"TOWNNAME":"新化區","LI":"豐榮里","LIN":"2鄰","STREET":"大智路","SECT":" ","MAREA":" ","LANE":" ","ALLEY":" ","HOUSE_NO":"１０７號之１","E_COORD97":178158.06,"N_COORD97":2548200.2599999998,"ADDRESS":"大智路１０７號之１","OBJECTID":618691},"geometry":{"x":178158.05999999866,"y":2548200.2600000016}},{"attributes":{"ID":618719,"DIS_CODE":0,"TOWNNAME":"新化區","LI":"中央里","LIN":"2鄰","STREET":"信義路","SECT":" ","MAREA":" ","LANE":" ","ALLEY":" ","HOUSE_NO":"２９２號","E_COORD97":178990.92999999999,"N_COORD97":2548310.25,"ADDRESS":"信義路２９２號","OBJECTID":618692},"geometry":{"x":178990.9299999997,"y":2548310.25}},{"attributes":{"ID":618720,"DIS_CODE":0,"TOWNNAME":"新化區","LI":"清水里","LIN":"2鄰","STREET":"中山路","SECT":" ","MAREA":" ","LANE":" ","ALLEY":" ","HOUSE_NO":"４１７號","E_COORD97":178759.70999999999,"N_COORD97":2548395.25,"ADDRESS":"中山路４１７號","OBJECTID":618693},"geometry":{"x":178759.71000000089,"y":2548395.25}},{"attributes":{"ID":618721,"DIS_CODE":0,"TOWNNAME":"安南區","LI":"佃東里","LIN":"2鄰","STREET":"海佃路","SECT":"四段","MAREA":" ","LANE":" ","ALLEY":" ","HOUSE_NO":"３１６號","E_COORD97":165614.69,"N_COORD97":2551349.9399999999,"ADDRESS":"海佃路四段３１６號","OBJECTID":618694},"geometry":{"x":165614.69000000041,"y":2551349.9399999995}},{"attributes":{"ID":618722,"DIS_CODE":0,"TOWNNAME":"安南區","LI":"佃東里","LIN":"2鄰","STREET":"海佃路","SECT":"四段","MAREA":" ","LANE":" ","ALLEY":" ","HOUSE_NO":"３１８號","E_COORD97":165614.03,"N_COORD97":2551352.6000000001,"ADDRESS":"海佃路四段３１８號","OBJECTID":618695},"geometry":{"x":165614.03000000026,"y":2551352.5999999996}},{"attributes":{"ID":618723,"DIS_CODE":0,"TOWNNAME":"安南區","LI":"公親里","LIN":"2鄰","STREET":"公學路","SECT":"一段","MAREA":" ","LANE":" ","ALLEY":" ","HOUSE_NO":"２７０號","E_COORD97":167936.69,"N_COORD97":2552943.7400000002,"ADDRESS":"公學路一段２７０號","OBJECTID":618696},"geometry":{"x":167936.69000000134,"y":2552943.7400000021}},{"attributes":{"ID":618724,"DIS_CODE":0,"TOWNNAME":"安南區","LI":"公親里","LIN":"2鄰","STREET":"公學路","SECT":"一段","MAREA":" ","LANE":" ","ALLEY":" ","HOUSE_NO":"２７４號","E_COORD97":167931.51999999999,"N_COORD97":2552933.3999999999,"ADDRESS":"公學路一段２７４號","OBJECTID":618697},"geometry":{"x":167931.52000000048,"y":2552933.4000000022}},{"attributes":{"ID":618725,"DIS_CODE":0,"TOWNNAME":"安南區","LI":"公親里","LIN":"2鄰","STREET":"公學路","SECT":"一段","MAREA":" ","LANE":" ","ALLEY":" ","HOUSE_NO":"２９０號","E_COORD97":167911.85000000001,"N_COORD97":2552904.46,"ADDRESS":"公學路一段２９０號","OBJECTID":618698},"geometry":{"x":167911.84999999963,"y":2552904.4600000009}},{"attributes":{"ID":618726,"DIS_CODE":0,"TOWNNAME":"永康區","LI":"西勢里","LIN":"2鄰","STREET":"西勢路","SECT":" ","MAREA":" ","LANE":" ","ALLEY":" ","HOUSE_NO":"２４２號","E_COORD97":175675.54000000001,"N_COORD97":2546805.0499999998,"ADDRESS":"西勢路２４２號","OBJECTID":618699},"geometry":{"x":175675.54000000097,"y":2546805.0500000045}},{"attributes":{"ID":618727,"DIS_CODE":0,"TOWNNAME":"永康區","LI":"西勢里","LIN":"2鄰","STREET":"富強路","SECT":"二段","MAREA":" ","LANE":" ","ALLEY":" ","HOUSE_NO":"１１號","E_COORD97":175689.72,"N_COORD97":2546830.7000000002,"ADDRESS":"富強路二段１１號","OBJECTID":618700},"geometry":{"x":175689.72000000067,"y":2546830.7000000011}},{"attributes":{"ID":618728,"DIS_CODE":0,"TOWNNAME":"永康區","LI":"五王里","LIN":"2鄰","STREET":"成功路","SECT":" ","MAREA":" ","LANE":" ","ALLEY":" ","HOUSE_NO":"６３號","E_COORD97":171478.26999999999,"N_COORD97":2545514.6600000001,"ADDRESS":"成功路６３號","OBJECTID":618701},"geometry":{"x":171478.27000000048,"y":2545514.6600000001}},{"attributes":{"ID":618729,"DIS_CODE":0,"TOWNNAME":"永康區","LI":"尚頂里","LIN":"2鄰","STREET":"中正二街","SECT":" ","MAREA":" ","LANE":" ","ALLEY":" ","HOUSE_NO":"１６５號","E_COORD97":171357.14999999999,"N_COORD97":2547729.4900000002,"ADDRESS":"中正二街１６５號","OBJECTID":618702},"geometry":{"x":171357.14999999944,"y":2547729.4900000002}},{"attributes":{"ID":618730,"DIS_CODE":0,"TOWNNAME":"永康區","LI":"大橋里","LIN":"2鄰","STREET":"大橋二街","SECT":" ","MAREA":" ","LANE":" ","ALLEY":" ","HOUSE_NO":"７５號","E_COORD97":170766.84,"N_COORD97":2546554.46,"ADDRESS":"大橋二街７５號","OBJECTID":618703},"geometry":{"x":170766.83999999985,"y":2546554.459999999}},{"attributes":{"ID":618731,"DIS_CODE":0,"TOWNNAME":"永康區","LI":"崑山里","LIN":"2鄰","STREET":"大灣路","SECT":" ","MAREA":" ","LANE":" ","ALLEY":" ","HOUSE_NO":"８７１號","E_COORD97":173657.79000000001,"N_COORD97":2544405.4199999999,"ADDRESS":"大灣路８７１號","OBJECTID":618704},"geometry":{"x":173657.79000000004,"y":2544405.4200000018}},{"attributes":{"ID":618732,"DIS_CODE":0,"TOWNNAME":"永康區","LI":"南灣里","LIN":"2鄰","STREET":"大灣路","SECT":" ","MAREA":" ","LANE":" ","ALLEY":" ","HOUSE_NO":"４６７號","E_COORD97":174652.13,"N_COORD97":2544687.77,"ADDRESS":"大灣路４６７號","OBJECTID":618705},"geometry":{"x":174652.12999999989,"y":2544687.7700000014}},{"attributes":{"ID":618733,"DIS_CODE":0,"TOWNNAME":"安南區","LI":"公親里","LIN":"2鄰","STREET":"公學路","SECT":"一段","MAREA":" ","LANE":" ","ALLEY":" ","HOUSE_NO":"２３６號","E_COORD97":167985.34,"N_COORD97":2553067.4300000002,"ADDRESS":"公學路一段２３６號","OBJECTID":618706},"geometry":{"x":167985.34000000171,"y":2553067.4300000016}},{"attributes":{"ID":618734,"DIS_CODE":0,"TOWNNAME":"安南區","LI":"公親里","LIN":"2鄰","STREET":"公學路","SECT":"一段","MAREA":" ","LANE":" ","ALLEY":" ","HOUSE_NO":"２３８號","E_COORD97":167981.72,"N_COORD97":2553062.2599999998,"ADDRESS":"公學路一段２３８號","OBJECTID":618707},"geometry":{"x":167981.72000000067,"y":2553062.2600000016}},{"attributes":{"ID":618735,"DIS_CODE":0,"TOWNNAME":"仁德區","LI":"新田里","LIN":"2鄰","STREET":"義林路","SECT":" ","MAREA":" ","LANE":" ","ALLEY":" ","HOUSE_NO":"１０９號","E_COORD97":174341.84,"N_COORD97":2540223.52,"ADDRESS":"義林路１０９號","OBJECTID":618708},"geometry":{"x":174341.83999999985,"y":2540223.5200000014}},{"attributes":{"ID":618736,"DIS_CODE":0,"TOWNNAME":"仁德區","LI":"新田里","LIN":"2鄰","STREET":"新田二街","SECT":" ","MAREA":" ","LANE":" ","ALLEY":" ","HOUSE_NO":"１２４號","E_COORD97":174865.20999999999,"N_COORD97":2539917.5,"ADDRESS":"新田二街１２４號","OBJECTID":618709},"geometry":{"x":174865.20999999996,"y":2539917.5}},{"attributes":{"ID":618737,"DIS_CODE":0,"TOWNNAME":"仁德區","LI":"保安里","LIN":"2鄰","STREET":"文賢路","SECT":"一段","MAREA":" ","LANE":" ","ALLEY":" ","HOUSE_NO":"５４７號","E_COORD97":171130.62,"N_COORD97":2536984.8300000001,"ADDRESS":"文賢路一段５４７號","OBJECTID":618710},"geometry":{"x":171130.62000000104,"y":2536984.8300000019}},{"attributes":{"ID":618738,"DIS_CODE":0,"TOWNNAME":"仁德區","LI":"新田里","LIN":"2鄰","STREET":"新田二街","SECT":" ","MAREA":" ","LANE":" ","ALLEY":" ","HOUSE_NO":"１２２之３號","E_COORD97":174866.98000000001,"N_COORD97":2539930.29,"ADDRESS":"新田二街１２２之３號","OBJECTID":618711},"geometry":{"x":174866.98000000045,"y":2539930.290000001}},{"attributes":{"ID":618739,"DIS_CODE":0,"TOWNNAME":"仁德區","LI":"新田里","LIN":"2鄰","STREET":"新田二街","SECT":" ","MAREA":" ","LANE":" ","ALLEY":" ","HOUSE_NO":"１５５號","E_COORD97":174571.5,"N_COORD97":2540164.9900000002,"ADDRESS":"新田二街１５５號","OBJECTID":618712},"geometry":{"x":174571.5,"y":2540164.9900000002}},{"attributes":{"ID":618740,"DIS_CODE":0,"TOWNNAME":"仁德區","LI":"土庫里","LIN":"2鄰","STREET":"大順路","SECT":" ","MAREA":" ","LANE":" ","ALLEY":" ","HOUSE_NO":"１０１號","E_COORD97":173449.92999999999,"N_COORD97":2542956.3599999999,"ADDRESS":"大順路１０１號","OBJECTID":618713},"geometry":{"x":173449.93000000156,"y":2542956.3599999975}},{"attributes":{"ID":618741,"DIS_CODE":0,"TOWNNAME":"仁德區","LI":"土庫里","LIN":"2鄰","STREET":"大順路","SECT":" ","MAREA":" ","LANE":" ","ALLEY":" ","HOUSE_NO":"１０３號","E_COORD97":173426.26000000001,"N_COORD97":2542952.3599999999,"ADDRESS":"大順路１０３號","OBJECTID":618714},"geometry":{"x":173426.26000000071,"y":2542952.3599999994}},{"attributes":{"ID":618742,"DIS_CODE":0,"TOWNNAME":"仁德區","LI":"土庫里","LIN":"2鄰","STREET":"大順路","SECT":" ","MAREA":" ","LANE":" ","ALLEY":" ","HOUSE_NO":"４６號","E_COORD97":173446.10000000001,"N_COORD97":2542993.8399999999,"ADDRESS":"大順路４６號","OBJECTID":618715},"geometry":{"x":173446.10000000056,"y":2542993.8399999999}},{"attributes":{"ID":618743,"DIS_CODE":0,"TOWNNAME":"仁德區","LI":"土庫里","LIN":"2鄰","STREET":"大順路","SECT":" ","MAREA":" ","LANE":" ","ALLEY":" ","HOUSE_NO":"６７號","E_COORD97":173628.42999999999,"N_COORD97":2542950.6099999999,"ADDRESS":"大順路６７號","OBJECTID":618716},"geometry":{"x":173628.43000000063,"y":2542950.6099999994}},{"attributes":{"ID":618744,"DIS_CODE":0,"TOWNNAME":"仁德區","LI":"土庫里","LIN":"2鄰","STREET":"大順路","SECT":" ","MAREA":" ","LANE":" ","ALLEY":" ","HOUSE_NO":"８１號","E_COORD97":173486.95000000001,"N_COORD97":2542924.8199999998,"ADDRESS":"大順路８１號","OBJECTID":618717},"geometry":{"x":173486.95000000019,"y":2542924.8200000022}},{"attributes":{"ID":618745,"DIS_CODE":0,"TOWNNAME":"仁德區","LI":"仁義里","LIN":"2鄰","STREET":"仁義三街","SECT":" ","MAREA":" ","LANE":" ","ALLEY":" ","HOUSE_NO":"２４９號","E_COORD97":173973.95999999999,"N_COORD97":2541112.7799999998,"ADDRESS":"仁義三街２４９號","OBJECTID":618718},"geometry":{"x":173973.96000000089,"y":2541112.7800000031}},{"attributes":{"ID":618746,"DIS_CODE":0,"TOWNNAME":"仁德區","LI":"仁義里","LIN":"2鄰","STREET":"仁義三街","SECT":" ","MAREA":" ","LANE":" ","ALLEY":" ","HOUSE_NO":"２５１號","E_COORD97":173974.26000000001,"N_COORD97":2541107.7599999998,"ADDRESS":"仁義三街２５１號","OBJECTID":618719},"geometry":{"x":173974.25999999978,"y":2541107.7600000016}},{"attributes":{"ID":618747,"DIS_CODE":0,"TOWNNAME":"仁德區","LI":"仁義里","LIN":"2鄰","STREET":"仁義三街","SECT":" ","MAREA":" ","LANE":" ","ALLEY":" ","HOUSE_NO":"２５３號","E_COORD97":173974.70999999999,"N_COORD97":2541102.5299999998,"ADDRESS":"仁義三街２５３號","OBJECTID":618720},"geometry":{"x":173974.70999999996,"y":2541102.5299999993}},{"attributes":{"ID":618748,"DIS_CODE":0,"TOWNNAME":"仁德區","LI":"仁義里","LIN":"2鄰","STREET":"仁義三街","SECT":" ","MAREA":" ","LANE":" ","ALLEY":" ","HOUSE_NO":"２５５號","E_COORD97":173975.39999999999,"N_COORD97":2541097.2599999998,"ADDRESS":"仁義三街２５５號","OBJECTID":618721},"geometry":{"x":173975.4000000013,"y":2541097.2600000016}},{"attributes":{"ID":618749,"DIS_CODE":0,"TOWNNAME":"仁德區","LI":"太子里","LIN":"2鄰","STREET":"太子路","SECT":" ","MAREA":" ","LANE":" ","ALLEY":" ","HOUSE_NO":"１９６號","E_COORD97":174282.88,"N_COORD97":2543514.5699999998,"ADDRESS":"太子路１９６號","OBJECTID":618722},"geometry":{"x":174282.88000000175,"y":2543514.5700000003}},{"attributes":{"ID":618750,"DIS_CODE":0,"TOWNNAME":"仁德區","LI":"保安里","LIN":"2鄰","STREET":"文賢路","SECT":"一段","MAREA":" ","LANE":" ","ALLEY":" ","HOUSE_NO":"５０８之１２號","E_COORD97":171025.45999999999,"N_COORD97":2537083.2400000002,"ADDRESS":"文賢路一段５０８之１２號","OBJECTID":618723},"geometry":{"x":171025.45999999996,"y":2537083.2400000021}},{"attributes":{"ID":618751,"DIS_CODE":0,"TOWNNAME":"仁德區","LI":"大甲里","LIN":"2鄰","STREET":"行大一街","SECT":" ","MAREA":" ","LANE":" ","ALLEY":" ","HOUSE_NO":"２０３號","E_COORD97":169898.91,"N_COORD97":2534986.52,"ADDRESS":"行大一街２０３號","OBJECTID":618724},"geometry":{"x":169898.91000000015,"y":2534986.5200000014}},{"attributes":{"ID":618752,"DIS_CODE":0,"TOWNNAME":"仁德區","LI":"大甲里","LIN":"2鄰","STREET":"行大一街","SECT":" ","MAREA":" ","LANE":" ","ALLEY":" ","HOUSE_NO":"２０５號","E_COORD97":169888.45000000001,"N_COORD97":2534989.4900000002,"ADDRESS":"行大一街２０５號","OBJECTID":618725},"geometry":{"x":169888.45000000019,"y":2534989.4900000021}},{"attributes":{"ID":618753,"DIS_CODE":0,"TOWNNAME":"仁德區","LI":"一甲里","LIN":"2鄰","STREET":"忠義路","SECT":" ","MAREA":" ","LANE":" ","ALLEY":" ","HOUSE_NO":"４３１號","E_COORD97":173216.79999999999,"N_COORD97":2541954.5,"ADDRESS":"忠義路４３１號","OBJECTID":618726},"geometry":{"x":173216.79999999981,"y":2541954.5}},{"attributes":{"ID":618754,"DIS_CODE":0,"TOWNNAME":"仁德區","LI":"一甲里","LIN":"2鄰","STREET":"忠義路","SECT":" ","MAREA":" ","LANE":" ","ALLEY":" ","HOUSE_NO":"４３３號","E_COORD97":173216.64000000001,"N_COORD97":2541967.1000000001,"ADDRESS":"忠義路４３３號","OBJECTID":618727},"geometry":{"x":173216.6400000006,"y":2541967.0999999996}},{"attributes":{"ID":618755,"DIS_CODE":0,"TOWNNAME":"仁德區","LI":"太子里","LIN":"2鄰","STREET":"長興三街","SECT":" ","MAREA":" ","LANE":" ","ALLEY":" ","HOUSE_NO":"８號","E_COORD97":174234.88,"N_COORD97":2543543.0099999998,"ADDRESS":"長興三街８號","OBJECTID":618728},"geometry":{"x":174234.87999999989,"y":2543543.0100000016}},{"attributes":{"ID":618756,"DIS_CODE":0,"TOWNNAME":"下營區","LI":"新興里","LIN":"2鄰","STREET":"人和一街","SECT":" ","MAREA":" ","LANE":" ","ALLEY":" ","HOUSE_NO":"１６號","E_COORD97":174964.19,"N_COORD97":2570809.1200000001,"ADDRESS":"人和一街１６號","OBJECTID":618729},"geometry":{"x":174964.19000000041,"y":2570809.1200000029}},{"attributes":{"ID":618757,"DIS_CODE":0,"TOWNNAME":"下營區","LI":"新興里","LIN":"2鄰","STREET":"人和一街","SECT":" ","MAREA":" ","LANE":" ","ALLEY":" ","HOUSE_NO":"２０號","E_COORD97":174951.29000000001,"N_COORD97":2570809.4900000002,"ADDRESS":"人和一街２０號","OBJECTID":618730},"geometry":{"x":174951.29000000004,"y":2570809.4900000021}},{"attributes":{"ID":618758,"DIS_CODE":0,"TOWNNAME":"下營區","LI":"新興里","LIN":"2鄰","STREET":"人和一街","SECT":" ","MAREA":" ","LANE":" ","ALLEY":" ","HOUSE_NO":"２２號","E_COORD97":174945.92999999999,"N_COORD97":2570808.8999999999,"ADDRESS":"人和一街２２號","OBJECTID":618731},"geometry":{"x":174945.9299999997,"y":2570808.9000000004}},{"attributes":{"ID":618759,"DIS_CODE":0,"TOWNNAME":"下營區","LI":"新興里","LIN":"2鄰","STREET":"人和一街","SECT":" ","MAREA":" ","LANE":" ","ALLEY":" ","HOUSE_NO":"２６號","E_COORD97":174938.26000000001,"N_COORD97":2570807.9500000002,"ADDRESS":"人和一街２６號","OBJECTID":618732},"geometry":{"x":174938.26000000071,"y":2570807.950000003}},{"attributes":{"ID":618760,"DIS_CODE":0,"TOWNNAME":"下營區","LI":"新興里","LIN":"2鄰","STREET":"人和一街","SECT":" ","MAREA":" ","LANE":" ","ALLEY":" ","HOUSE_NO":"２８號","E_COORD97":174933.20000000001,"N_COORD97":2570807.1600000001,"ADDRESS":"人和一街２８號","OBJECTID":618733},"geometry":{"x":174933.20000000019,"y":2570807.1599999983}},{"attributes":{"ID":618761,"DIS_CODE":0,"TOWNNAME":"下營區","LI":"新興里","LIN":"2鄰","STREET":"人和一街","SECT":" ","MAREA":" ","LANE":" ","ALLEY":" ","HOUSE_NO":"４０號","E_COORD97":174903.70000000001,"N_COORD97":2570798.75,"ADDRESS":"人和一街４０號","OBJECTID":618734},"geometry":{"x":174903.70000000112,"y":2570798.75}},{"attributes":{"ID":618762,"DIS_CODE":0,"TOWNNAME":"下營區","LI":"新興里","LIN":"2鄰","STREET":"人和一街","SECT":" ","MAREA":" ","LANE":" ","ALLEY":" ","HOUSE_NO":"４２號","E_COORD97":174896.76000000001,"N_COORD97":2570801.5499999998,"ADDRESS":"人和一街４２號","OBJECTID":618735},"geometry":{"x":174896.75999999978,"y":2570801.5500000007}},{"attributes":{"ID":618763,"DIS_CODE":0,"TOWNNAME":"下營區","LI":"新興里","LIN":"2鄰","STREET":"人和一街","SECT":" ","MAREA":" ","LANE":" ","ALLEY":" ","HOUSE_NO":"５０號","E_COORD97":174880.54000000001,"N_COORD97":2570796.0600000001,"ADDRESS":"人和一街５０號","OBJECTID":618736},"geometry":{"x":174880.54000000097,"y":2570796.0600000024}},{"attributes":{"ID":618764,"DIS_CODE":0,"TOWNNAME":"下營區","LI":"新興里","LIN":"2鄰","STREET":"人和一街","SECT":" ","MAREA":" ","LANE":" ","ALLEY":" ","HOUSE_NO":"５２號","E_COORD97":174873.53,"N_COORD97":2570794.2000000002,"ADDRESS":"人和一街５２號","OBJECTID":618737},"geometry":{"x":174873.53000000026,"y":2570794.2000000011}},{"attributes":{"ID":618765,"DIS_CODE":0,"TOWNNAME":"下營區","LI":"新興里","LIN":"2鄰","STREET":"人和一街","SECT":" ","MAREA":" ","LANE":" ","ALLEY":" ","HOUSE_NO":"５６號","E_COORD97":174868.51999999999,"N_COORD97":2570793.3100000001,"ADDRESS":"人和一街５６號","OBJECTID":618738},"geometry":{"x":174868.52000000048,"y":2570793.3100000042}},{"attributes":{"ID":618766,"DIS_CODE":0,"TOWNNAME":"下營區","LI":"新興里","LIN":"2鄰","STREET":"人和一街","SECT":" ","MAREA":" ","LANE":" ","ALLEY":" ","HOUSE_NO":"５８號","E_COORD97":174854.69,"N_COORD97":2570799.4700000002,"ADDRESS":"人和一街５８號","OBJECTID":618739},"geometry":{"x":174854.69000000134,"y":2570799.4700000025}},{"attributes":{"ID":618767,"DIS_CODE":0,"TOWNNAME":"下營區","LI":"新興里","LIN":"2鄰","STREET":"人和一街","SECT":" ","MAREA":" ","LANE":" ","ALLEY":" ","HOUSE_NO":"６６號","E_COORD97":174839.07999999999,"N_COORD97":2570792.5099999998,"ADDRESS":"人和一街６６號","OBJECTID":618740},"geometry":{"x":174839.08000000007,"y":2570792.5100000016}},{"attributes":{"ID":618768,"DIS_CODE":0,"TOWNNAME":"下營區","LI":"新興里","LIN":"2鄰","STREET":"人和一街","SECT":" ","MAREA":" ","LANE":" ","ALLEY":" ","HOUSE_NO":"６８號","E_COORD97":174832.76999999999,"N_COORD97":2570791.0099999998,"ADDRESS":"人和一街６８號","OBJECTID":618741},"geometry":{"x":174832.77000000048,"y":2570791.0100000035}},{"attributes":{"ID":618769,"DIS_CODE":0,"TOWNNAME":"中西區","LI":"西賢里","LIN":"2鄰","STREET":"湖美街","SECT":" ","MAREA":" ","LANE":" ","ALLEY":" ","HOUSE_NO":"６７之６號","E_COORD97":165865.39999999999,"N_COORD97":2544595.4900000002,"ADDRESS":"湖美街６７之６號","OBJECTID":618742},"geometry":{"x":165865.4000000013,"y":2544595.4900000021}},{"attributes":{"ID":618770,"DIS_CODE":0,"TOWNNAME":"中西區","LI":"西賢里","LIN":"2鄰","STREET":"湖美街","SECT":" ","MAREA":" ","LANE":" ","ALLEY":" ","HOUSE_NO":"６９之１號","E_COORD97":165873.78,"N_COORD97":2544622.0299999998,"ADDRESS":"湖美街６９之１號","OBJECTID":618743},"geometry":{"x":165873.78000000026,"y":2544622.0299999993}},{"attributes":{"ID":618771,"DIS_CODE":0,"TOWNNAME":"中西區","LI":"西賢里","LIN":"2鄰","STREET":"湖美街","SECT":" ","MAREA":" ","LANE":" ","ALLEY":" ","HOUSE_NO":"６９之２號","E_COORD97":165868.82999999999,"N_COORD97":2544621.8999999999,"ADDRESS":"湖美街６９之２號","OBJECTID":618744},"geometry":{"x":165868.83000000101,"y":2544621.9000000041}},{"attributes":{"ID":618772,"DIS_CODE":0,"TOWNNAME":"中西區","LI":"西賢里","LIN":"2鄰","STREET":"湖美街","SECT":" ","MAREA":" ","LANE":" ","ALLEY":" ","HOUSE_NO":"６９之３號","E_COORD97":165864.13,"N_COORD97":2544621.8999999999,"ADDRESS":"湖美街６９之３號","OBJECTID":618745},"geometry":{"x":165864.12999999989,"y":2544621.9000000041}},{"attributes":{"ID":618773,"DIS_CODE":0,"TOWNNAME":"中西區","LI":"西賢里","LIN":"2鄰","STREET":"湖美街","SECT":" ","MAREA":" ","LANE":" ","ALLEY":" ","HOUSE_NO":"６９之５號","E_COORD97":165859.31,"N_COORD97":2544621.6499999999,"ADDRESS":"湖美街６９之５號","OBJECTID":618746},"geometry":{"x":165859.30999999959,"y":2544621.6500000022}},{"attributes":{"ID":618774,"DIS_CODE":0,"TOWNNAME":"安南區","LI":"公\u25A0里","LIN":"2鄰","STREET":"安興街","SECT":" ","MAREA":" ","LANE":" ","ALLEY":" ","HOUSE_NO":"４９號","E_COORD97":164353.35000000001,"N_COORD97":2552260.4399999999,"ADDRESS":"安興街４９號","OBJECTID":618747},"geometry":{"x":164353.34999999963,"y":2552260.4400000013}},{"attributes":{"ID":618775,"DIS_CODE":0,"TOWNNAME":"安南區","LI":"頂安里","LIN":"2鄰","STREET":"長溪路","SECT":"一段","MAREA":" ","LANE":" ","ALLEY":" ","HOUSE_NO":"３７６號","E_COORD97":168653.79000000001,"N_COORD97":2548902.1899999999,"ADDRESS":"長溪路一段３７６號","OBJECTID":618748},"geometry":{"x":168653.7900000019,"y":2548902.1900000013}},{"attributes":{"ID":618776,"DIS_CODE":0,"TOWNNAME":"安南區","LI":"頂安里","LIN":"2鄰","STREET":"長溪路","SECT":"一段","MAREA":" ","LANE":" ","ALLEY":" ","HOUSE_NO":"３８２號","E_COORD97":168644.34,"N_COORD97":2548910.75,"ADDRESS":"長溪路一段３８２號","OBJECTID":618749},"geometry":{"x":168644.33999999985,"y":2548910.75}},{"attributes":{"ID":618777,"DIS_CODE":0,"TOWNNAME":"新市區","LI":"新市里","LIN":"2鄰","STREET":"光華街","SECT":" ","MAREA":" ","LANE":" ","ALLEY":" ","HOUSE_NO":"２４２號","E_COORD97":177801.85000000001,"N_COORD97":2553168.25,"ADDRESS":"光華街２４２號","OBJECTID":618750},"geometry":{"x":177801.85000000149,"y":2553168.25}},{"attributes":{"ID":618778,"DIS_CODE":0,"TOWNNAME":"新市區","LI":"新市里","LIN":"2鄰","STREET":"光華街","SECT":" ","MAREA":" ","LANE":" ","ALLEY":" ","HOUSE_NO":"１８１之３號","E_COORD97":177796.87,"N_COORD97":2553113.2999999998,"ADDRESS":"光華街１８１之３號","OBJECTID":618751},"geometry":{"x":177796.87000000011,"y":2553113.3000000026}},{"attributes":{"ID":618779,"DIS_CODE":0,"TOWNNAME":"新市區","LI":"新市里","LIN":"2鄰","STREET":"光華街","SECT":" ","MAREA":" ","LANE":" ","ALLEY":" ","HOUSE_NO":"１５７號","E_COORD97":177818.01000000001,"N_COORD97":2553032,"ADDRESS":"光華街１５７號","OBJECTID":618752},"geometry":{"x":177818.01000000164,"y":2553032}},{"attributes":{"ID":618780,"DIS_CODE":0,"TOWNNAME":"永康區","LI":"南灣里","LIN":"2鄰","STREET":"大灣路","SECT":" ","MAREA":" ","LANE":" ","ALLEY":" ","HOUSE_NO":"４４１號","E_COORD97":174680.32000000001,"N_COORD97":2544743.98,"ADDRESS":"大灣路４４１號","OBJECTID":618753},"geometry":{"x":174680.32000000216,"y":2544743.9800000023}},{"attributes":{"ID":618781,"DIS_CODE":0,"TOWNNAME":"安南區","LI":"安富里","LIN":"2鄰","STREET":"郡安路","SECT":"五段","MAREA":" ","LANE":" ","ALLEY":" ","HOUSE_NO":"１７５之９號","E_COORD97":167539.92999999999,"N_COORD97":2547729.9399999999,"ADDRESS":"郡安路五段１７５之９號","OBJECTID":618754},"geometry":{"x":167539.9299999997,"y":2547729.9400000032}},{"attributes":{"ID":618782,"DIS_CODE":0,"TOWNNAME":"安南區","LI":"溪心里","LIN":"2鄰","STREET":"海佃路","SECT":"二段","MAREA":" ","LANE":" ","ALLEY":" ","HOUSE_NO":"６２７之２號","E_COORD97":166505.35000000001,"N_COORD97":2549511.2799999998,"ADDRESS":"海佃路二段６２７之２號","OBJECTID":618755},"geometry":{"x":166505.35000000056,"y":2549511.2800000012}},{"attributes":{"ID":618783,"DIS_CODE":0,"TOWNNAME":"新市區","LI":"新市里","LIN":"2鄰","STREET":"光華街","SECT":" ","MAREA":" ","LANE":" ","ALLEY":" ","HOUSE_NO":"１６７號","E_COORD97":177812.35000000001,"N_COORD97":2553052.75,"ADDRESS":"光華街１６７號","OBJECTID":618756},"geometry":{"x":177812.35000000056,"y":2553052.7500000019}},{"attributes":{"ID":618784,"DIS_CODE":0,"TOWNNAME":"新市區","LI":"新市里","LIN":"2鄰","STREET":"光華街","SECT":" ","MAREA":" ","LANE":" ","ALLEY":" ","HOUSE_NO":"１８１之１號","E_COORD97":177798.57000000001,"N_COORD97":2553107.0499999998,"ADDRESS":"光華街１８１之１號","OBJECTID":618757},"geometry":{"x":177798.57000000123,"y":2553107.0500000007}},{"attributes":{"ID":618785,"DIS_CODE":0,"TOWNNAME":"新市區","LI":"新市里","LIN":"2鄰","STREET":"光華街","SECT":" ","MAREA":" ","LANE":" ","ALLEY":" ","HOUSE_NO":"１８１號","E_COORD97":177797.42999999999,"N_COORD97":2553102.75,"ADDRESS":"光華街１８１號","OBJECTID":618758},"geometry":{"x":177797.4299999997,"y":2553102.7500000019}},{"attributes":{"ID":618786,"DIS_CODE":0,"TOWNNAME":"中西區","LI":"民主里","LIN":"2鄰","STREET":"保安路","SECT":" ","MAREA":" ","LANE":" ","ALLEY":" ","HOUSE_NO":"１３０號","E_COORD97":167419.82999999999,"N_COORD97":2543490.4399999999,"ADDRESS":"保安路１３０號","OBJECTID":618759},"geometry":{"x":167419.83000000101,"y":2543490.4399999995}},{"attributes":{"ID":618787,"DIS_CODE":0,"TOWNNAME":"中西區","LI":"民主里","LIN":"2鄰","STREET":"保安路","SECT":" ","MAREA":" ","LANE":" ","ALLEY":" ","HOUSE_NO":"１３０號底二層","E_COORD97":167419.82999999999,"N_COORD97":2543490.4399999999,"ADDRESS":"保安路１３０號底二層","OBJECTID":618760},"geometry":{"x":167419.83000000101,"y":2543490.4399999995}},{"attributes":{"ID":618788,"DIS_CODE":0,"TOWNNAME":"中西區","LI":"民主里","LIN":"2鄰","STREET":"保安路","SECT":" ","MAREA":" ","LANE":" ","ALLEY":" ","HOUSE_NO":"１３２號","E_COORD97":167425.98000000001,"N_COORD97":2543499.1400000001,"ADDRESS":"保安路１３２號","OBJECTID":618761},"geometry":{"x":167425.98000000138,"y":2543499.1400000025}},{"attributes":{"ID":618789,"DIS_CODE":0,"TOWNNAME":"中西區","LI":"民主里","LIN":"2鄰","STREET":"府前路","SECT":"二段","MAREA":" ","LANE":" ","ALLEY":" ","HOUSE_NO":"１３３號","E_COORD97":167389.39999999999,"N_COORD97":2543527.2999999998,"ADDRESS":"府前路二段１３３號","OBJECTID":618762},"geometry":{"x":167389.4000000013,"y":2543527.3000000007}},{"attributes":{"ID":618790,"DIS_CODE":0,"TOWNNAME":"中西區","LI":"民主里","LIN":"2鄰","STREET":"康樂街","SECT":" ","MAREA":" ","LANE":" ","ALLEY":" ","HOUSE_NO":"４０號","E_COORD97":167385.95999999999,"N_COORD97":2543497.7200000002,"ADDRESS":"康樂街４０號","OBJECTID":618763},"geometry":{"x":167385.95999999996,"y":2543497.7199999988}},{"attributes":{"ID":618791,"DIS_CODE":0,"TOWNNAME":"中西區","LI":"民主里","LIN":"2鄰","STREET":"康樂街","SECT":" ","MAREA":" ","LANE":" ","ALLEY":" ","HOUSE_NO":"４２號","E_COORD97":167386.25,"N_COORD97":2543500.5499999998,"ADDRESS":"康樂街４２號","OBJECTID":618764},"geometry":{"x":167386.25000000093,"y":2543500.5500000026}},{"attributes":{"ID":618792,"DIS_CODE":0,"TOWNNAME":"中西區","LI":"民主里","LIN":"2鄰","STREET":"康樂街","SECT":" ","MAREA":" ","LANE":" ","ALLEY":" ","HOUSE_NO":"４４號","E_COORD97":167386.53,"N_COORD97":2543504.3399999999,"ADDRESS":"康樂街４４號","OBJECTID":618765},"geometry":{"x":167386.53000000119,"y":2543504.3400000017}},{"attributes":{"ID":618793,"DIS_CODE":0,"TOWNNAME":"中西區","LI":"民主里","LIN":"2鄰","STREET":"康樂街","SECT":" ","MAREA":" ","LANE":" ","ALLEY":" ","HOUSE_NO":"４６號","E_COORD97":167386.91,"N_COORD97":2543506.98,"ADDRESS":"康樂街４６號","OBJECTID":618766},"geometry":{"x":167386.91000000201,"y":2543506.9800000023}},{"attributes":{"ID":618794,"DIS_CODE":0,"TOWNNAME":"中西區","LI":"民主里","LIN":"2鄰","STREET":"康樂街","SECT":" ","MAREA":" ","LANE":" ","ALLEY":" ","HOUSE_NO":"４８號","E_COORD97":167387.95000000001,"N_COORD97":2543510.9700000002,"ADDRESS":"康樂街４８號","OBJECTID":618767},"geometry":{"x":167387.95000000019,"y":2543510.9700000025}},{"attributes":{"ID":618795,"DIS_CODE":0,"TOWNNAME":"中西區","LI":"民主里","LIN":"2鄰","STREET":"康樂街","SECT":" ","MAREA":" ","LANE":" ","ALLEY":" ","HOUSE_NO":"５０號","E_COORD97":167388.14000000001,"N_COORD97":2543514.8399999999,"ADDRESS":"康樂街５０號","OBJECTID":618768},"geometry":{"x":167388.14000000153,"y":2543514.8400000017}},{"attributes":{"ID":618796,"DIS_CODE":0,"TOWNNAME":"中西區","LI":"民主里","LIN":"2鄰","STREET":"康樂街","SECT":" ","MAREA":" ","LANE":" ","ALLEY":" ","HOUSE_NO":"５２號","E_COORD97":167389.09,"N_COORD97":2543518.7200000002,"ADDRESS":"康樂街５２號","OBJECTID":618769},"geometry":{"x":167389.09000000078,"y":2543518.7200000025}},{"attributes":{"ID":618797,"DIS_CODE":0,"TOWNNAME":"中西區","LI":"民主里","LIN":"2鄰","STREET":"康樂街","SECT":" ","MAREA":" ","LANE":" ","ALLEY":" ","HOUSE_NO":"５４號","E_COORD97":167389.45999999999,"N_COORD97":2543521.79,"ADDRESS":"康樂街５４號","OBJECTID":618770},"geometry":{"x":167389.45999999996,"y":2543521.7899999991}},{"attributes":{"ID":618798,"DIS_CODE":0,"TOWNNAME":"中西區","LI":"民生里","LIN":"2鄰","STREET":"永華路","SECT":"一段","MAREA":" ","LANE":" ","ALLEY":" ","HOUSE_NO":"１７２號","E_COORD97":167200.42999999999,"N_COORD97":2543215.3599999999,"ADDRESS":"永華路一段１７２號","OBJECTID":618771},"geometry":{"x":167200.43000000063,"y":2543215.3600000013}},{"attributes":{"ID":618799,"DIS_CODE":0,"TOWNNAME":"中西區","LI":"民生里","LIN":"2鄰","STREET":"永華路","SECT":"一段","MAREA":" ","LANE":" ","ALLEY":" ","HOUSE_NO":"１７４號","E_COORD97":167196.95999999999,"N_COORD97":2543216.52,"ADDRESS":"永華路一段１７４號","OBJECTID":618772},"geometry":{"x":167196.96000000089,"y":2543216.5199999977}},{"attributes":{"ID":618800,"DIS_CODE":0,"TOWNNAME":"中西區","LI":"民生里","LIN":"2鄰","STREET":"永華路","SECT":"一段","MAREA":" ","LANE":" ","ALLEY":" ","HOUSE_NO":"１７６號","E_COORD97":167192.54999999999,"N_COORD97":2543216.75,"ADDRESS":"永華路一段１７６號","OBJECTID":618773},"geometry":{"x":167192.55000000075,"y":2543216.7500000019}},{"attributes":{"ID":618801,"DIS_CODE":0,"TOWNNAME":"中西區","LI":"民生里","LIN":"2鄰","STREET":"永華路","SECT":"一段","MAREA":" ","LANE":" ","ALLEY":" ","HOUSE_NO":"１８０號","E_COORD97":167181.19,"N_COORD97":2543218.6000000001,"ADDRESS":"永華路一段１８０號","OBJECTID":618774},"geometry":{"x":167181.19000000041,"y":2543218.5999999996}},{"attributes":{"ID":618802,"DIS_CODE":0,"TOWNNAME":"中西區","LI":"民生里","LIN":"2鄰","STREET":"金華路","SECT":"三段","MAREA":" ","LANE":" ","ALLEY":" ","HOUSE_NO":"１０號","E_COORD97":167187.45999999999,"N_COORD97":2543239.1400000001,"ADDRESS":"金華路三段１０號","OBJECTID":618775},"geometry":{"x":167187.45999999996,"y":2543239.1400000006}},{"attributes":{"ID":618803,"DIS_CODE":0,"TOWNNAME":"中西區","LI":"民生里","LIN":"2鄰","STREET":"金華路","SECT":"三段","MAREA":" ","LANE":" ","ALLEY":" ","HOUSE_NO":"１２號","E_COORD97":167187.95000000001,"N_COORD97":2543245.5899999999,"ADDRESS":"金華路三段１２號","OBJECTID":618776},"geometry":{"x":167187.95000000019,"y":2543245.5899999999}},{"attributes":{"ID":618804,"DIS_CODE":0,"TOWNNAME":"中西區","LI":"民生里","LIN":"2鄰","STREET":"金華路","SECT":"三段","MAREA":" ","LANE":" ","ALLEY":" ","HOUSE_NO":"１６號","E_COORD97":167191.10000000001,"N_COORD97":2543252.3900000001,"ADDRESS":"金華路三段１６號","OBJECTID":618777},"geometry":{"x":167191.09999999963,"y":2543252.3899999987}},{"attributes":{"ID":618805,"DIS_CODE":0,"TOWNNAME":"中西區","LI":"民生里","LIN":"2鄰","STREET":"金華路","SECT":"三段","MAREA":" ","LANE":" ","ALLEY":" ","HOUSE_NO":"１８號","E_COORD97":167191.10000000001,"N_COORD97":2543256.52,"ADDRESS":"金華路三段１８號","OBJECTID":618778},"geometry":{"x":167191.09999999963,"y":2543256.5199999996}},{"attributes":{"ID":618806,"DIS_CODE":0,"TOWNNAME":"中西區","LI":"民生里","LIN":"2鄰","STREET":"金華路","SECT":"三段","MAREA":" ","LANE":" ","ALLEY":" ","HOUSE_NO":"２０號","E_COORD97":167191.92999999999,"N_COORD97":2543261.48,"ADDRESS":"金華路三段２０號","OBJECTID":618779},"geometry":{"x":167191.93000000063,"y":2543261.4800000004}},{"attributes":{"ID":618807,"DIS_CODE":0,"TOWNNAME":"中西區","LI":"民生里","LIN":"2鄰","STREET":"金華路","SECT":"三段","MAREA":" ","LANE":" ","ALLEY":" ","HOUSE_NO":"２２號","E_COORD97":167192.92000000001,"N_COORD97":2543265.6099999999,"ADDRESS":"金華路三段２２號","OBJECTID":618780},"geometry":{"x":167192.91999999993,"y":2543265.6099999994}},{"attributes":{"ID":618808,"DIS_CODE":0,"TOWNNAME":"中西區","LI":"民生里","LIN":"2鄰","STREET":"金華路","SECT":"三段","MAREA":" ","LANE":" ","ALLEY":" ","HOUSE_NO":"２４號","E_COORD97":167193.91,"N_COORD97":2543269.9100000001,"ADDRESS":"金華路三段２４號","OBJECTID":618781},"geometry":{"x":167193.91000000108,"y":2543269.910000002}},{"attributes":{"ID":618809,"DIS_CODE":0,"TOWNNAME":"中西區","LI":"民生里","LIN":"2鄰","STREET":"金華路","SECT":"三段","MAREA":" ","LANE":" ","ALLEY":" ","HOUSE_NO":"２６號","E_COORD97":167193.75,"N_COORD97":2543274.71,"ADDRESS":"金華路三段２６號","OBJECTID":618782},"geometry":{"x":167193.75,"y":2543274.7100000046}},{"attributes":{"ID":618810,"DIS_CODE":0,"TOWNNAME":"中西區","LI":"民生里","LIN":"2鄰","STREET":"金華路","SECT":"三段","MAREA":" ","LANE":" ","ALLEY":" ","HOUSE_NO":"２８號","E_COORD97":167196.06,"N_COORD97":2543278.6699999999,"ADDRESS":"金華路三段２８號","OBJECTID":618783},"geometry":{"x":167196.06000000052,"y":2543278.6700000018}},{"attributes":{"ID":618811,"DIS_CODE":0,"TOWNNAME":"中西區","LI":"民生里","LIN":"2鄰","STREET":"金華路","SECT":"三段","MAREA":" ","LANE":" ","ALLEY":" ","HOUSE_NO":"３０號","E_COORD97":167195.57000000001,"N_COORD97":2543283.2999999998,"ADDRESS":"金華路三段３０號","OBJECTID":618784},"geometry":{"x":167195.5700000003,"y":2543283.3000000007}},{"attributes":{"ID":618812,"DIS_CODE":0,"TOWNNAME":"中西區","LI":"民生里","LIN":"2鄰","STREET":"金華路","SECT":"三段","MAREA":" ","LANE":" ","ALLEY":" ","HOUSE_NO":"３２號","E_COORD97":167196.56,"N_COORD97":2543286.9399999999,"ADDRESS":"金華路三段３２號","OBJECTID":618785},"geometry":{"x":167196.55999999959,"y":2543286.9399999995}},{"attributes":{"ID":618813,"DIS_CODE":0,"TOWNNAME":"中西區","LI":"民生里","LIN":"2鄰","STREET":"金華路","SECT":"三段","MAREA":" ","LANE":" ","ALLEY":" ","HOUSE_NO":"３４號","E_COORD97":167198.22,"N_COORD97":2543291.2400000002,"ADDRESS":"金華路三段３４號","OBJECTID":618786},"geometry":{"x":167198.22000000067,"y":2543291.2400000021}},{"attributes":{"ID":618814,"DIS_CODE":0,"TOWNNAME":"中西區","LI":"民生里","LIN":"2鄰","STREET":"金華路","SECT":"三段","MAREA":" ","LANE":" ","ALLEY":" ","HOUSE_NO":"３６號","E_COORD97":167198.88,"N_COORD97":2543297.0299999998,"ADDRESS":"金華路三段３６號","OBJECTID":618787},"geometry":{"x":167198.88000000082,"y":2543297.0299999993}},{"attributes":{"ID":618815,"DIS_CODE":0,"TOWNNAME":"中西區","LI":"民生里","LIN":"2鄰","STREET":"金華路","SECT":"三段","MAREA":" ","LANE":" ","ALLEY":" ","HOUSE_NO":"４號","E_COORD97":167184.03,"N_COORD97":2543225.7000000002,"ADDRESS":"金華路三段４號","OBJECTID":618788},"geometry":{"x":167184.03000000026,"y":2543225.7000000011}},{"attributes":{"ID":618816,"DIS_CODE":0,"TOWNNAME":"中西區","LI":"民生里","LIN":"2鄰","STREET":"金華路","SECT":"三段","MAREA":" ","LANE":" ","ALLEY":" ","HOUSE_NO":"６號","E_COORD97":167184.75,"N_COORD97":2543230.4500000002,"ADDRESS":"金華路三段６號","OBJECTID":618789},"geometry":{"x":167184.75000000093,"y":2543230.450000003}},{"attributes":{"ID":618817,"DIS_CODE":0,"TOWNNAME":"中西區","LI":"民生里","LIN":"2鄰","STREET":"金華路","SECT":"三段","MAREA":" ","LANE":" ","ALLEY":" ","HOUSE_NO":"８號","E_COORD97":167186.29999999999,"N_COORD97":2543234.8399999999,"ADDRESS":"金華路三段８號","OBJECTID":618790},"geometry":{"x":167186.30000000075,"y":2543234.8399999999}},{"attributes":{"ID":618818,"DIS_CODE":0,"TOWNNAME":"中西區","LI":"民生里","LIN":"2鄰","STREET":"武英街","SECT":" ","MAREA":" ","LANE":" ","ALLEY":" ","HOUSE_NO":"７號","E_COORD97":167218.04999999999,"N_COORD97":2543296.48,"ADDRESS":"武英街７號","OBJECTID":618791},"geometry":{"x":167218.05000000075,"y":2543296.4800000023}},{"attributes":{"ID":618819,"DIS_CODE":0,"TOWNNAME":"東區","LI":"裕聖里","LIN":"2鄰","STREET":"裕信路","SECT":" ","MAREA":" ","LANE":" ","ALLEY":" ","HOUSE_NO":"３２６之１０號","E_COORD97":172545.29999999999,"N_COORD97":2542447.6800000002,"ADDRESS":"裕信路３２６之１０號","OBJECTID":618792},"geometry":{"x":172545.29999999981,"y":2542447.6800000016}},{"attributes":{"ID":618820,"DIS_CODE":0,"TOWNNAME":"東區","LI":"裕聖里","LIN":"2鄰","STREET":"裕信路","SECT":" ","MAREA":" ","LANE":" ","ALLEY":" ","HOUSE_NO":"３２６之１１號","E_COORD97":172540.10999999999,"N_COORD97":2542450.8199999998,"ADDRESS":"裕信路３２６之１１號","OBJECTID":618793},"geometry":{"x":172540.11000000034,"y":2542450.8200000022}},{"attributes":{"ID":618821,"DIS_CODE":0,"TOWNNAME":"東區","LI":"裕聖里","LIN":"2鄰","STREET":"裕信路","SECT":" ","MAREA":" ","LANE":" ","ALLEY":" ","HOUSE_NO":"３２６之１２號","E_COORD97":172537.13,"N_COORD97":2542448.1499999999,"ADDRESS":"裕信路３２６之１２號","OBJECTID":618794},"geometry":{"x":172537.13000000082,"y":2542448.1500000022}},{"attributes":{"ID":618822,"DIS_CODE":0,"TOWNNAME":"東區","LI":"裕聖里","LIN":"2鄰","STREET":"裕信路","SECT":" ","MAREA":" ","LANE":" ","ALLEY":" ","HOUSE_NO":"３２６之１３號","E_COORD97":172530.84,"N_COORD97":2542451.29,"ADDRESS":"裕信路３２６之１３號","OBJECTID":618795},"geometry":{"x":172530.84000000078,"y":2542451.2899999991}},{"attributes":{"ID":618823,"DIS_CODE":0,"TOWNNAME":"下營區","LI":"下營里","LIN":"2鄰","STREET":"中山路","SECT":"一段","MAREA":" ","LANE":" ","ALLEY":" ","HOUSE_NO":"１００號","E_COORD97":174602.26999999999,"N_COORD97":2570527.96,"ADDRESS":"中山路一段１００號","OBJECTID":618796},"geometry":{"x":174602.27000000048,"y":2570527.9600000046}},{"attributes":{"ID":618824,"DIS_CODE":0,"TOWNNAME":"下營區","LI":"下營里","LIN":"2鄰","STREET":"中山路","SECT":"一段","MAREA":" ","LANE":" ","ALLEY":" ","HOUSE_NO":"１０２號","E_COORD97":174606.5,"N_COORD97":2570529.2999999998,"ADDRESS":"中山路一段１０２號","OBJECTID":618797},"geometry":{"x":174606.50000000093,"y":2570529.3000000026}},{"attributes":{"ID":618825,"DIS_CODE":0,"TOWNNAME":"下營區","LI":"下營里","LIN":"2鄰","STREET":"中山路","SECT":"一段","MAREA":" ","LANE":" ","ALLEY":" ","HOUSE_NO":"１０６號","E_COORD97":174610.54000000001,"N_COORD97":2570530.71,"ADDRESS":"中山路一段１０６號","OBJECTID":618798},"geometry":{"x":174610.54000000004,"y":2570530.7100000028}},{"attributes":{"ID":618826,"DIS_CODE":0,"TOWNNAME":"下營區","LI":"下營里","LIN":"2鄰","STREET":"中山路","SECT":"一段","MAREA":" ","LANE":" ","ALLEY":" ","HOUSE_NO":"１０８號","E_COORD97":174614.85000000001,"N_COORD97":2570532.0299999998,"ADDRESS":"中山路一段１０８號","OBJECTID":618799},"geometry":{"x":174614.8499999987,"y":2570532.0299999993}},{"attributes":{"ID":618827,"DIS_CODE":0,"TOWNNAME":"下營區","LI":"下營里","LIN":"2鄰","STREET":"中山路","SECT":"一段","MAREA":" ","LANE":" ","ALLEY":" ","HOUSE_NO":"１１０號","E_COORD97":174618.81,"N_COORD97":2570533.7799999998,"ADDRESS":"中山路一段１１０號","OBJECTID":618800},"geometry":{"x":174618.81000000052,"y":2570533.7799999993}}]}