{"displayFieldName":"TOWNNAME","fieldAliases":{"ID":"ID","DIS_CODE":"DIS_CODE","TOWNNAME":"TOWNNAME","LI":"LI","LIN":"LIN","STREET":"STREET","SECT":"SECT","MAREA":"MAREA","LANE":"LANE","ALLEY":"ALLEY","HOUSE_NO":"HOUSE_NO","E_COORD97":"E_COORD97","N_COORD97":"N_COORD97","ADDRESS":"ADDRESS","OBJECTID":"OBJECTID"},"geometryType":"esriGeometryPoint","spatialReference":{"wkid":102443,"latestWkid":3826},"fields":[{"name":"ID","type":"esriFieldTypeDouble","alias":"ID"},{"name":"DIS_CODE","type":"esriFieldTypeInteger","alias":"DIS_CODE"},{"name":"TOWNNAME","type":"esriFieldTypeString","alias":"TOWNNAME","length":8},{"name":"LI","type":"esriFieldTypeString","alias":"LI","length":8},{"name":"LIN","type":"esriFieldTypeString","alias":"LIN","length":12},{"name":"STREET","type":"esriFieldTypeString","alias":"STREET","length":20},{"name":"SECT","type":"esriFieldTypeString","alias":"SECT","length":8},{"name":"MAREA","type":"esriFieldTypeString","alias":"MAREA","length":12},{"name":"LANE","type":"esriFieldTypeString","alias":"LANE","length":10},{"name":"ALLEY","type":"esriFieldTypeString","alias":"ALLEY","length":10},{"name":"HOUSE_NO","type":"esriFieldTypeString","alias":"HOUSE_NO","length":20},{"name":"E_COORD97","type":"esriFieldTypeDouble","alias":"E_COORD97"},{"name":"N_COORD97","type":"esriFieldTypeDouble","alias":"N_COORD97"},{"name":"ADDRESS","type":"esriFieldTypeString","alias":"ADDRESS","length":50},{"name":"OBJECTID","type":"esriFieldTypeOID","alias":"OBJECTID"}],"features":[{"attributes":{"ID":330210,"DIS_CODE":0,"TOWNNAME":"安南區","LI":"溪心里","LIN":"17鄰","STREET":"仁安二街","SECT":" ","MAREA":" ","LANE":" ","ALLEY":" ","HOUSE_NO":"１１８號","E_COORD97":166116.07000000001,"N_COORD97":2550207.6400000001,"ADDRESS":"仁安二街１１８號","OBJECTID":330201},"geometry":{"x":166116.06999999937,"y":2550207.6400000006}},{"attributes":{"ID":330211,"DIS_CODE":0,"TOWNNAME":"永康區","LI":"\u25A0洲里","LIN":"4鄰","STREET":"\u25A0行路","SECT":" ","MAREA":" ","LANE":"９８巷","ALLEY":" ","HOUSE_NO":"５號","E_COORD97":171550.70999999999,"N_COORD97":2549298.7400000002,"ADDRESS":"\u25A0行路９８巷５號","OBJECTID":330202},"geometry":{"x":171550.70999999996,"y":2549298.7400000021}},{"attributes":{"ID":330212,"DIS_CODE":0,"TOWNNAME":"永康區","LI":"東橋里","LIN":" ","STREET":"自強路","SECT":" ","MAREA":" ","LANE":"１３９巷","ALLEY":" ","HOUSE_NO":"１之１０號","E_COORD97":172953.63,"N_COORD97":2547546.7999999998,"ADDRESS":"自強路１３９巷１之１０號","OBJECTID":330203},"geometry":{"x":172953.62999999896,"y":2547546.8000000026}},{"attributes":{"ID":330213,"DIS_CODE":0,"TOWNNAME":"永康區","LI":"復興里","LIN":" ","STREET":"復興路","SECT":" ","MAREA":" ","LANE":"４２９巷","ALLEY":" ","HOUSE_NO":"４２７之４號","E_COORD97":172135.42000000001,"N_COORD97":2543914.46,"ADDRESS":"復興路４２９巷４２７之４號","OBJECTID":330204},"geometry":{"x":172135.42000000086,"y":2543914.4600000028}},{"attributes":{"ID":330214,"DIS_CODE":0,"TOWNNAME":"永康區","LI":"尚頂里","LIN":" ","STREET":"尚頂路","SECT":" ","MAREA":" ","LANE":"１７７巷","ALLEY":" ","HOUSE_NO":"１５號","E_COORD97":170738.76000000001,"N_COORD97":2547819.2400000002,"ADDRESS":"尚頂路１７７巷１５號","OBJECTID":330205},"geometry":{"x":170738.75999999885,"y":2547819.2400000002}},{"attributes":{"ID":330215,"DIS_CODE":0,"TOWNNAME":"永康區","LI":"西橋里","LIN":" ","STREET":"大橋三街","SECT":" ","MAREA":" ","LANE":"１０巷","ALLEY":" ","HOUSE_NO":"１６之８號","E_COORD97":170526.37,"N_COORD97":2546298.54,"ADDRESS":"大橋三街１０巷１６之８號","OBJECTID":330206},"geometry":{"x":170526.37000000011,"y":2546298.540000001}},{"attributes":{"ID":330216,"DIS_CODE":0,"TOWNNAME":"永康區","LI":"南灣里","LIN":" ","STREET":"南興路","SECT":" ","MAREA":" ","LANE":"４８巷","ALLEY":" ","HOUSE_NO":"２之５號","E_COORD97":174281.51000000001,"N_COORD97":2544034.2999999998,"ADDRESS":"南興路４８巷２之５號","OBJECTID":330207},"geometry":{"x":174281.50999999978,"y":2544034.3000000026}},{"attributes":{"ID":330217,"DIS_CODE":0,"TOWNNAME":"永康區","LI":"復興里","LIN":" ","STREET":"復興路","SECT":" ","MAREA":" ","LANE":"４２９巷","ALLEY":" ","HOUSE_NO":"４２７之１９號","E_COORD97":172203.20999999999,"N_COORD97":2543911.96,"ADDRESS":"復興路４２９巷４２７之１９號","OBJECTID":330208},"geometry":{"x":172203.20999999996,"y":2543911.9600000009}},{"attributes":{"ID":330218,"DIS_CODE":0,"TOWNNAME":"北區","LI":"成德里","LIN":"15鄰","STREET":"育賢街","SECT":" ","MAREA":" ","LANE":"３６巷","ALLEY":" ","HOUSE_NO":"６號","E_COORD97":168785.56,"N_COORD97":2545921.6600000001,"ADDRESS":"育賢街３６巷６號","OBJECTID":330209},"geometry":{"x":168785.56000000145,"y":2545921.6599999983}},{"attributes":{"ID":330219,"DIS_CODE":0,"TOWNNAME":"北區","LI":"成德里","LIN":"15鄰","STREET":"育賢街","SECT":" ","MAREA":" ","LANE":"３６巷","ALLEY":" ","HOUSE_NO":"８號","E_COORD97":168790.17000000001,"N_COORD97":2545920.3900000001,"ADDRESS":"育賢街３６巷８號","OBJECTID":330210},"geometry":{"x":168790.17000000179,"y":2545920.3900000006}},{"attributes":{"ID":330220,"DIS_CODE":0,"TOWNNAME":"北區","LI":"成德里","LIN":"15鄰","STREET":"育賢街","SECT":" ","MAREA":" ","LANE":"３６巷","ALLEY":" ","HOUSE_NO":"１０號","E_COORD97":168795.41,"N_COORD97":2545918.6400000001,"ADDRESS":"育賢街３６巷１０號","OBJECTID":330211},"geometry":{"x":168795.40999999922,"y":2545918.6400000006}},{"attributes":{"ID":330221,"DIS_CODE":0,"TOWNNAME":"北區","LI":"成德里","LIN":"15鄰","STREET":"育賢街","SECT":" ","MAREA":" ","LANE":"３６巷","ALLEY":" ","HOUSE_NO":"１２號","E_COORD97":168800.79999999999,"N_COORD97":2545916.4199999999,"ADDRESS":"育賢街３６巷１２號","OBJECTID":330212},"geometry":{"x":168800.79999999981,"y":2545916.4200000037}},{"attributes":{"ID":330222,"DIS_CODE":0,"TOWNNAME":"北區","LI":"成德里","LIN":"15鄰","STREET":"育賢街","SECT":" ","MAREA":" ","LANE":"３６巷","ALLEY":" ","HOUSE_NO":"１６號","E_COORD97":168806.04000000001,"N_COORD97":2545914.6699999999,"ADDRESS":"育賢街３６巷１６號","OBJECTID":330213},"geometry":{"x":168806.04000000004,"y":2545914.6699999981}},{"attributes":{"ID":330223,"DIS_CODE":0,"TOWNNAME":"安南區","LI":"溪心里","LIN":"17鄰","STREET":"仁安二街","SECT":" ","MAREA":" ","LANE":" ","ALLEY":" ","HOUSE_NO":"１２１號","E_COORD97":166061.51999999999,"N_COORD97":2550200.3500000001,"ADDRESS":"仁安二街１２１號","OBJECTID":330214},"geometry":{"x":166061.52000000142,"y":2550200.3500000015}},{"attributes":{"ID":330224,"DIS_CODE":0,"TOWNNAME":"安南區","LI":"溪心里","LIN":"17鄰","STREET":"仁安二街","SECT":" ","MAREA":" ","LANE":" ","ALLEY":" ","HOUSE_NO":"１２３號","E_COORD97":166065.03,"N_COORD97":2550204.04,"ADDRESS":"仁安二街１２３號","OBJECTID":330215},"geometry":{"x":166065.03000000026,"y":2550204.040000001}},{"attributes":{"ID":330225,"DIS_CODE":0,"TOWNNAME":"安南區","LI":"溪心里","LIN":"17鄰","STREET":"仁安二街","SECT":" ","MAREA":" ","LANE":" ","ALLEY":" ","HOUSE_NO":"１２５號","E_COORD97":166069.09,"N_COORD97":2550206.6200000001,"ADDRESS":"仁安二街１２５號","OBJECTID":330216},"geometry":{"x":166069.08999999985,"y":2550206.6200000029}},{"attributes":{"ID":330226,"DIS_CODE":0,"TOWNNAME":"安南區","LI":"溪心里","LIN":"17鄰","STREET":"仁安二街","SECT":" ","MAREA":" ","LANE":" ","ALLEY":" ","HOUSE_NO":"１２７號","E_COORD97":166073.16,"N_COORD97":2550210.8599999999,"ADDRESS":"仁安二街１２７號","OBJECTID":330217},"geometry":{"x":166073.16000000201,"y":2550210.8599999994}},{"attributes":{"ID":330227,"DIS_CODE":0,"TOWNNAME":"安南區","LI":"溪心里","LIN":"17鄰","STREET":"仁安四街","SECT":" ","MAREA":" ","LANE":" ","ALLEY":" ","HOUSE_NO":"５０號","E_COORD97":166130.44,"N_COORD97":2550104.1000000001,"ADDRESS":"仁安四街５０號","OBJECTID":330218},"geometry":{"x":166130.44000000041,"y":2550104.0999999996}},{"attributes":{"ID":330228,"DIS_CODE":0,"TOWNNAME":"安南區","LI":"溪心里","LIN":"17鄰","STREET":"仁安四街","SECT":" ","MAREA":" ","LANE":" ","ALLEY":" ","HOUSE_NO":"５８號","E_COORD97":166146.48000000001,"N_COORD97":2550117.3100000001,"ADDRESS":"仁安四街５８號","OBJECTID":330219},"geometry":{"x":166146.48000000138,"y":2550117.3100000005}},{"attributes":{"ID":330229,"DIS_CODE":0,"TOWNNAME":"安南區","LI":"溪心里","LIN":"17鄰","STREET":"仁安四街","SECT":" ","MAREA":" ","LANE":" ","ALLEY":" ","HOUSE_NO":"５９號","E_COORD97":166142.06,"N_COORD97":2550145.54,"ADDRESS":"仁安四街５９號","OBJECTID":330220},"geometry":{"x":166142.05999999959,"y":2550145.5399999991}},{"attributes":{"ID":330230,"DIS_CODE":0,"TOWNNAME":"安南區","LI":"溪心里","LIN":"17鄰","STREET":"仁安四街","SECT":" ","MAREA":" ","LANE":" ","ALLEY":" ","HOUSE_NO":"６１號","E_COORD97":166145.95999999999,"N_COORD97":2550147.6499999999,"ADDRESS":"仁安四街６１號","OBJECTID":330221},"geometry":{"x":166145.96000000089,"y":2550147.6500000022}},{"attributes":{"ID":330231,"DIS_CODE":0,"TOWNNAME":"永康區","LI":"三民里","LIN":" ","STREET":"三民街","SECT":" ","MAREA":" ","LANE":"１３６巷","ALLEY":" ","HOUSE_NO":"６號","E_COORD97":172877.29000000001,"N_COORD97":2550416.52,"ADDRESS":"三民街１３６巷６號","OBJECTID":330222},"geometry":{"x":172877.29000000097,"y":2550416.5199999996}},{"attributes":{"ID":330232,"DIS_CODE":0,"TOWNNAME":"永康區","LI":"復興里","LIN":" ","STREET":"復興路","SECT":" ","MAREA":" ","LANE":"４２９巷","ALLEY":" ","HOUSE_NO":"４２７之２１號","E_COORD97":172206.42000000001,"N_COORD97":2543916.71,"ADDRESS":"復興路４２９巷４２７之２１號","OBJECTID":330223},"geometry":{"x":172206.42000000086,"y":2543916.7100000028}},{"attributes":{"ID":330233,"DIS_CODE":0,"TOWNNAME":"永康區","LI":"西勢里","LIN":" ","STREET":"西勢路","SECT":" ","MAREA":" ","LANE":"１９巷","ALLEY":" ","HOUSE_NO":"１１號","E_COORD97":176242.63,"N_COORD97":2546685.5800000001,"ADDRESS":"西勢路１９巷１１號","OBJECTID":330224},"geometry":{"x":176242.63000000082,"y":2546685.5800000019}},{"attributes":{"ID":330234,"DIS_CODE":0,"TOWNNAME":"永康區","LI":"六合里","LIN":" ","STREET":"中華二路","SECT":" ","MAREA":" ","LANE":"４１３巷","ALLEY":" ","HOUSE_NO":"３號","E_COORD97":171348.09,"N_COORD97":2545550.7400000002,"ADDRESS":"中華二路４１３巷３號","OBJECTID":330225},"geometry":{"x":171348.08999999985,"y":2545550.7400000002}},{"attributes":{"ID":330235,"DIS_CODE":0,"TOWNNAME":"北區","LI":"成德里","LIN":"15鄰","STREET":"育賢街","SECT":" ","MAREA":" ","LANE":"３６巷","ALLEY":" ","HOUSE_NO":"１８號","E_COORD97":168811.28,"N_COORD97":2545912.77,"ADDRESS":"育賢街３６巷１８號","OBJECTID":330226},"geometry":{"x":168811.28000000026,"y":2545912.7699999996}},{"attributes":{"ID":330236,"DIS_CODE":0,"TOWNNAME":"北區","LI":"成德里","LIN":"15鄰","STREET":"育賢街","SECT":" ","MAREA":" ","LANE":"３６巷","ALLEY":" ","HOUSE_NO":"２０號","E_COORD97":168817.31,"N_COORD97":2545911.02,"ADDRESS":"育賢街３６巷２０號","OBJECTID":330227},"geometry":{"x":168817.30999999959,"y":2545911.0199999996}},{"attributes":{"ID":330237,"DIS_CODE":0,"TOWNNAME":"北區","LI":"成德里","LIN":"15鄰","STREET":"育賢街","SECT":" ","MAREA":" ","LANE":"３６巷","ALLEY":" ","HOUSE_NO":"２２號","E_COORD97":168823.03,"N_COORD97":2545909.1200000001,"ADDRESS":"育賢街３６巷２２號","OBJECTID":330228},"geometry":{"x":168823.03000000026,"y":2545909.120000001}},{"attributes":{"ID":330238,"DIS_CODE":0,"TOWNNAME":"北區","LI":"成德里","LIN":"15鄰","STREET":"育賢街","SECT":" ","MAREA":" ","LANE":"３６巷","ALLEY":" ","HOUSE_NO":"２６號","E_COORD97":168829.22,"N_COORD97":2545906.7400000002,"ADDRESS":"育賢街３６巷２６號","OBJECTID":330229},"geometry":{"x":168829.22000000067,"y":2545906.7400000002}},{"attributes":{"ID":330239,"DIS_CODE":0,"TOWNNAME":"歸仁區","LI":"武東里","LIN":"6鄰","STREET":"高鐵七路","SECT":" ","MAREA":" ","LANE":"１１０巷","ALLEY":" ","HOUSE_NO":"７８號","E_COORD97":175823.50575700001,"N_COORD97":2535709.9212799999,"ADDRESS":"高鐵七路１１０巷７８號","OBJECTID":330230},"geometry":{"x":175823.5057570003,"y":2535709.9212779999}},{"attributes":{"ID":330240,"DIS_CODE":0,"TOWNNAME":"北區","LI":"文成里","LIN":"15鄰","STREET":"文賢路","SECT":" ","MAREA":" ","LANE":"２４２巷","ALLEY":" ","HOUSE_NO":"５之３號","E_COORD97":167394.20000000001,"N_COORD97":2545021.2799999998,"ADDRESS":"文賢路２４２巷５之３號","OBJECTID":330231},"geometry":{"x":167394.20000000112,"y":2545021.2799999993}},{"attributes":{"ID":330241,"DIS_CODE":0,"TOWNNAME":"北區","LI":"賢北里","LIN":"15鄰","STREET":"大興街","SECT":" ","MAREA":" ","LANE":"５８５巷","ALLEY":" ","HOUSE_NO":"２３號","E_COORD97":166019.98999999999,"N_COORD97":2545309.3599999999,"ADDRESS":"大興街５８５巷２３號","OBJECTID":330232},"geometry":{"x":166019.99000000209,"y":2545309.3599999975}},{"attributes":{"ID":330242,"DIS_CODE":0,"TOWNNAME":"新化區","LI":"東榮里","LIN":"15鄰","STREET":"中興路","SECT":" ","MAREA":" ","LANE":"６５２巷","ALLEY":" ","HOUSE_NO":"２４號之５","E_COORD97":179696.22,"N_COORD97":2548164.2599999998,"ADDRESS":"中興路６５２巷２４號之５","OBJECTID":330233},"geometry":{"x":179696.21999999974,"y":2548164.2599999998}},{"attributes":{"ID":330243,"DIS_CODE":0,"TOWNNAME":"新化區","LI":"太平里","LIN":"15鄰","STREET":"太平街","SECT":" ","MAREA":" ","LANE":"６３巷","ALLEY":" ","HOUSE_NO":"１１號之６","E_COORD97":178874.47,"N_COORD97":2548741.2599999998,"ADDRESS":"太平街６３巷１１號之６","OBJECTID":330234},"geometry":{"x":178874.47000000067,"y":2548741.2599999998}},{"attributes":{"ID":330244,"DIS_CODE":0,"TOWNNAME":"新化區","LI":"太平里","LIN":"15鄰","STREET":"太平街","SECT":" ","MAREA":" ","LANE":"６３巷","ALLEY":" ","HOUSE_NO":"２號","E_COORD97":178815.57000000001,"N_COORD97":2548762.25,"ADDRESS":"太平街６３巷２號","OBJECTID":330235},"geometry":{"x":178815.57000000123,"y":2548762.2500000037}},{"attributes":{"ID":330245,"DIS_CODE":0,"TOWNNAME":"新化區","LI":"東榮里","LIN":"15鄰","STREET":"信義路","SECT":" ","MAREA":" ","LANE":"１３１巷","ALLEY":" ","HOUSE_NO":"６７號","E_COORD97":179680.17999999999,"N_COORD97":2548203.25,"ADDRESS":"信義路１３１巷６７號","OBJECTID":330236},"geometry":{"x":179680.18000000063,"y":2548203.2500000019}},{"attributes":{"ID":330246,"DIS_CODE":0,"TOWNNAME":"新化區","LI":"協興里","LIN":"15鄰","STREET":"中山路","SECT":" ","MAREA":" ","LANE":"６６０巷","ALLEY":" ","HOUSE_NO":"６３號","E_COORD97":178006.45999999999,"N_COORD97":2548675.25,"ADDRESS":"中山路６６０巷６３號","OBJECTID":330237},"geometry":{"x":178006.45999999996,"y":2548675.2500000019}},{"attributes":{"ID":330247,"DIS_CODE":0,"TOWNNAME":"安南區","LI":"溪心里","LIN":"17鄰","STREET":"仁安四街","SECT":" ","MAREA":" ","LANE":" ","ALLEY":" ","HOUSE_NO":"６３號","E_COORD97":166149.54999999999,"N_COORD97":2550151.3999999999,"ADDRESS":"仁安四街６３號","OBJECTID":330238},"geometry":{"x":166149.54999999981,"y":2550151.4000000004}},{"attributes":{"ID":330248,"DIS_CODE":0,"TOWNNAME":"安南區","LI":"溪心里","LIN":"17鄰","STREET":"仁安四街","SECT":" ","MAREA":" ","LANE":" ","ALLEY":" ","HOUSE_NO":"７７號","E_COORD97":166174.78,"N_COORD97":2550169.7799999998,"ADDRESS":"仁安四街７７號","OBJECTID":330239},"geometry":{"x":166174.78000000119,"y":2550169.7800000012}},{"attributes":{"ID":330249,"DIS_CODE":0,"TOWNNAME":"安南區","LI":"溪心里","LIN":"17鄰","STREET":"仁安四街","SECT":" ","MAREA":" ","LANE":" ","ALLEY":" ","HOUSE_NO":"７９號","E_COORD97":166200.69,"N_COORD97":2550189.5600000001,"ADDRESS":"仁安四街７９號","OBJECTID":330240},"geometry":{"x":166200.69000000134,"y":2550189.5600000024}},{"attributes":{"ID":330250,"DIS_CODE":0,"TOWNNAME":"安南區","LI":"溪心里","LIN":"17鄰","STREET":"仁安四街","SECT":" ","MAREA":" ","LANE":" ","ALLEY":" ","HOUSE_NO":"８１號","E_COORD97":166204.29999999999,"N_COORD97":2550191.8999999999,"ADDRESS":"仁安四街８１號","OBJECTID":330241},"geometry":{"x":166204.30000000075,"y":2550191.9000000004}},{"attributes":{"ID":330251,"DIS_CODE":0,"TOWNNAME":"永康區","LI":"安康里","LIN":" ","STREET":"中華路","SECT":" ","MAREA":" ","LANE":"７２７巷","ALLEY":" ","HOUSE_NO":"５７之１號","E_COORD97":170818.66,"N_COORD97":2546376.75,"ADDRESS":"中華路７２７巷５７之１號","OBJECTID":330242},"geometry":{"x":170818.66000000108,"y":2546376.7500000019}},{"attributes":{"ID":330252,"DIS_CODE":0,"TOWNNAME":"永康區","LI":"復興里","LIN":" ","STREET":"復興路","SECT":" ","MAREA":" ","LANE":"４２９巷","ALLEY":" ","HOUSE_NO":"４２７之９號","E_COORD97":172136.81,"N_COORD97":2543910.46,"ADDRESS":"復興路４２９巷４２７之９號","OBJECTID":330243},"geometry":{"x":172136.81000000145,"y":2543910.4600000046}},{"attributes":{"ID":330253,"DIS_CODE":0,"TOWNNAME":"永康區","LI":"二王里","LIN":" ","STREET":"忠孝路","SECT":" ","MAREA":" ","LANE":"４６１巷","ALLEY":" ","HOUSE_NO":"１０號","E_COORD97":172437.22,"N_COORD97":2546613.1600000001,"ADDRESS":"忠孝路４６１巷１０號","OBJECTID":330244},"geometry":{"x":172437.21999999974,"y":2546613.1600000001}},{"attributes":{"ID":330254,"DIS_CODE":0,"TOWNNAME":"永康區","LI":"安康里","LIN":" ","STREET":"中華西街","SECT":" ","MAREA":" ","LANE":"１９６巷","ALLEY":" ","HOUSE_NO":"３５號","E_COORD97":170713.92999999999,"N_COORD97":2546389.8199999998,"ADDRESS":"中華西街１９６巷３５號","OBJECTID":330245},"geometry":{"x":170713.93000000156,"y":2546389.8200000022}},{"attributes":{"ID":330255,"DIS_CODE":0,"TOWNNAME":"永康區","LI":"南灣里","LIN":" ","STREET":"南興路","SECT":" ","MAREA":" ","LANE":"１１２巷","ALLEY":" ","HOUSE_NO":"６號之３","E_COORD97":174380.13,"N_COORD97":2544416.1400000001,"ADDRESS":"南興路１１２巷６號之３","OBJECTID":330246},"geometry":{"x":174380.13000000082,"y":2544416.1400000006}},{"attributes":{"ID":330256,"DIS_CODE":0,"TOWNNAME":"新化區","LI":"東榮里","LIN":"15鄰","STREET":"中興路","SECT":" ","MAREA":" ","LANE":"６５２巷","ALLEY":" ","HOUSE_NO":"８號","E_COORD97":179691.70999999999,"N_COORD97":2548107.25,"ADDRESS":"中興路６５２巷８號","OBJECTID":330247},"geometry":{"x":179691.71000000183,"y":2548107.25}},{"attributes":{"ID":330257,"DIS_CODE":0,"TOWNNAME":"新化區","LI":"協興里","LIN":"15鄰","STREET":"大新路","SECT":" ","MAREA":" ","LANE":"１３１巷","ALLEY":" ","HOUSE_NO":"７號","E_COORD97":177994.53,"N_COORD97":2548761.25,"ADDRESS":"大新路１３１巷７號","OBJECTID":330248},"geometry":{"x":177994.52999999933,"y":2548761.25}},{"attributes":{"ID":330258,"DIS_CODE":0,"TOWNNAME":"新化區","LI":"知義里","LIN":"15鄰","STREET":"中興路","SECT":" ","MAREA":" ","LANE":"４１５巷","ALLEY":" ","HOUSE_NO":"３２號","E_COORD97":180628.35999999999,"N_COORD97":2547390.25,"ADDRESS":"中興路４１５巷３２號","OBJECTID":330249},"geometry":{"x":180628.3599999994,"y":2547390.2500000019}},{"attributes":{"ID":330259,"DIS_CODE":0,"TOWNNAME":"北區","LI":"大和里","LIN":"15鄰","STREET":"文賢路","SECT":" ","MAREA":" ","LANE":"７９９巷","ALLEY":" ","HOUSE_NO":"２４號","E_COORD97":167239.82000000001,"N_COORD97":2546289.2200000002,"ADDRESS":"文賢路７９９巷２４號","OBJECTID":330250},"geometry":{"x":167239.8200000003,"y":2546289.2200000025}},{"attributes":{"ID":330260,"DIS_CODE":0,"TOWNNAME":"北區","LI":"大和里","LIN":"15鄰","STREET":"文賢路","SECT":" ","MAREA":" ","LANE":"７９９巷","ALLEY":" ","HOUSE_NO":"２６號","E_COORD97":167236.17000000001,"N_COORD97":2546288.0299999998,"ADDRESS":"文賢路７９９巷２６號","OBJECTID":330251},"geometry":{"x":167236.17000000086,"y":2546288.0300000031}},{"attributes":{"ID":330261,"DIS_CODE":0,"TOWNNAME":"北區","LI":"大和里","LIN":"15鄰","STREET":"文賢路","SECT":" ","MAREA":" ","LANE":"７９９巷","ALLEY":" ","HOUSE_NO":"２８號","E_COORD97":167231.39999999999,"N_COORD97":2546287.46,"ADDRESS":"文賢路７９９巷２８號","OBJECTID":330252},"geometry":{"x":167231.4000000013,"y":2546287.4600000028}},{"attributes":{"ID":330262,"DIS_CODE":0,"TOWNNAME":"北區","LI":"大和里","LIN":"15鄰","STREET":"文賢路","SECT":" ","MAREA":" ","LANE":"７９９巷","ALLEY":" ","HOUSE_NO":"３０號","E_COORD97":167226.95000000001,"N_COORD97":2546287.5099999998,"ADDRESS":"文賢路７９９巷３０號","OBJECTID":330253},"geometry":{"x":167226.95000000019,"y":2546287.5099999998}},{"attributes":{"ID":330263,"DIS_CODE":0,"TOWNNAME":"北區","LI":"大和里","LIN":"15鄰","STREET":"文賢路","SECT":" ","MAREA":" ","LANE":"７９９巷","ALLEY":" ","HOUSE_NO":"３２號","E_COORD97":167223.12,"N_COORD97":2546284.4100000001,"ADDRESS":"文賢路７９９巷３２號","OBJECTID":330254},"geometry":{"x":167223.12000000104,"y":2546284.410000002}},{"attributes":{"ID":330264,"DIS_CODE":0,"TOWNNAME":"北區","LI":"大和里","LIN":"15鄰","STREET":"文賢路","SECT":" ","MAREA":" ","LANE":"７９９巷","ALLEY":" ","HOUSE_NO":"３４號","E_COORD97":167218.48000000001,"N_COORD97":2546285.6699999999,"ADDRESS":"文賢路７９９巷３４號","OBJECTID":330255},"geometry":{"x":167218.48000000045,"y":2546285.6700000018}},{"attributes":{"ID":330265,"DIS_CODE":0,"TOWNNAME":"北區","LI":"大和里","LIN":"15鄰","STREET":"文賢路","SECT":" ","MAREA":" ","LANE":"７９９巷","ALLEY":" ","HOUSE_NO":"３６號","E_COORD97":167214.5,"N_COORD97":2546283.3799999999,"ADDRESS":"文賢路７９９巷３６號","OBJECTID":330256},"geometry":{"x":167214.5,"y":2546283.3800000008}},{"attributes":{"ID":330266,"DIS_CODE":0,"TOWNNAME":"北區","LI":"大和里","LIN":"15鄰","STREET":"文賢路","SECT":" ","MAREA":" ","LANE":"７９９巷","ALLEY":" ","HOUSE_NO":"３８號","E_COORD97":167209.79000000001,"N_COORD97":2546284.71,"ADDRESS":"文賢路７９９巷３８號","OBJECTID":330257},"geometry":{"x":167209.79000000097,"y":2546284.7100000009}},{"attributes":{"ID":330267,"DIS_CODE":0,"TOWNNAME":"安南區","LI":"溪心里","LIN":"17鄰","STREET":"仁安四街","SECT":" ","MAREA":" ","LANE":" ","ALLEY":" ","HOUSE_NO":"８３號","E_COORD97":166207.73999999999,"N_COORD97":2550194.25,"ADDRESS":"仁安四街８３號","OBJECTID":330258},"geometry":{"x":166207.74000000022,"y":2550194.2500000019}},{"attributes":{"ID":330268,"DIS_CODE":0,"TOWNNAME":"安南區","LI":"溪心里","LIN":"17鄰","STREET":"仁安四街","SECT":" ","MAREA":" ","LANE":" ","ALLEY":" ","HOUSE_NO":"８５號","E_COORD97":166210.41,"N_COORD97":2550197.23,"ADDRESS":"仁安四街８５號","OBJECTID":330259},"geometry":{"x":166210.41000000201,"y":2550197.2300000042}},{"attributes":{"ID":330269,"DIS_CODE":0,"TOWNNAME":"安南區","LI":"溪心里","LIN":"17鄰","STREET":"仁安路","SECT":" ","MAREA":" ","LANE":" ","ALLEY":" ","HOUSE_NO":"２８４號","E_COORD97":166070.22,"N_COORD97":2550274.8900000001,"ADDRESS":"仁安路２８４號","OBJECTID":330260},"geometry":{"x":166070.21999999974,"y":2550274.8900000025}},{"attributes":{"ID":330270,"DIS_CODE":0,"TOWNNAME":"安南區","LI":"溪心里","LIN":"17鄰","STREET":"仁安路","SECT":" ","MAREA":" ","LANE":" ","ALLEY":" ","HOUSE_NO":"２８６號","E_COORD97":166073.89999999999,"N_COORD97":2550277.5299999998,"ADDRESS":"仁安路２８６號","OBJECTID":330261},"geometry":{"x":166073.9000000013,"y":2550277.5299999993}},{"attributes":{"ID":330271,"DIS_CODE":0,"TOWNNAME":"安南區","LI":"溪心里","LIN":"17鄰","STREET":"仁安路","SECT":" ","MAREA":" ","LANE":" ","ALLEY":" ","HOUSE_NO":"２８８號","E_COORD97":166078.03,"N_COORD97":2550279.71,"ADDRESS":"仁安路２８８號","OBJECTID":330262},"geometry":{"x":166078.03000000119,"y":2550279.7100000028}},{"attributes":{"ID":330272,"DIS_CODE":0,"TOWNNAME":"歸仁區","LI":"武東里","LIN":"6鄰","STREET":"高鐵七路","SECT":" ","MAREA":" ","LANE":"１１０巷","ALLEY":" ","HOUSE_NO":"８號","E_COORD97":175916.587524,"N_COORD97":2535673.5602699998,"ADDRESS":"高鐵七路１１０巷８號","OBJECTID":330263},"geometry":{"x":175916.58752399869,"y":2535673.560269}},{"attributes":{"ID":330273,"DIS_CODE":0,"TOWNNAME":"安南區","LI":"溪心里","LIN":"17鄰","STREET":"仁安路","SECT":" ","MAREA":" ","LANE":" ","ALLEY":" ","HOUSE_NO":"２９０號","E_COORD97":166081.48000000001,"N_COORD97":2550281.0899999999,"ADDRESS":"仁安路２９０號","OBJECTID":330264},"geometry":{"x":166081.48000000231,"y":2550281.0899999999}},{"attributes":{"ID":330274,"DIS_CODE":0,"TOWNNAME":"安南區","LI":"溪心里","LIN":"17鄰","STREET":"仁安路","SECT":" ","MAREA":" ","LANE":" ","ALLEY":" ","HOUSE_NO":"２９２號","E_COORD97":166084.85000000001,"N_COORD97":2550283.04,"ADDRESS":"仁安路２９２號","OBJECTID":330265},"geometry":{"x":166084.85000000149,"y":2550283.040000001}},{"attributes":{"ID":330275,"DIS_CODE":0,"TOWNNAME":"永康區","LI":"勝利里","LIN":" ","STREET":"中華路","SECT":" ","MAREA":" ","LANE":" ","ALLEY":" ","HOUSE_NO":"７號","E_COORD97":169535.06,"N_COORD97":2547050.8799999999,"ADDRESS":"中華路７號","OBJECTID":330266},"geometry":{"x":169535.06000000052,"y":2547050.879999999}},{"attributes":{"ID":330276,"DIS_CODE":0,"TOWNNAME":"永康區","LI":"尚頂里","LIN":" ","STREET":"國聖街","SECT":" ","MAREA":" ","LANE":"３４９巷","ALLEY":" ","HOUSE_NO":"４０號","E_COORD97":170340.42000000001,"N_COORD97":2547892.3599999999,"ADDRESS":"國聖街３４９巷４０號","OBJECTID":330267},"geometry":{"x":170340.41999999993,"y":2547892.3599999994}},{"attributes":{"ID":330277,"DIS_CODE":0,"TOWNNAME":"永康區","LI":"尚頂里","LIN":" ","STREET":"國聖街","SECT":" ","MAREA":" ","LANE":"４３巷","ALLEY":" ","HOUSE_NO":"６３號","E_COORD97":170264.64000000001,"N_COORD97":2547647.9900000002,"ADDRESS":"國聖街４３巷６３號","OBJECTID":330268},"geometry":{"x":170264.63999999966,"y":2547647.9900000002}},{"attributes":{"ID":330278,"DIS_CODE":0,"TOWNNAME":"永康區","LI":"蔦松里","LIN":" ","STREET":"正北一路","SECT":" ","MAREA":" ","LANE":"１３６巷","ALLEY":" ","HOUSE_NO":"１２８號","E_COORD97":174264.32999999999,"N_COORD97":2549986.7599999998,"ADDRESS":"正北一路１３６巷１２８號","OBJECTID":330269},"geometry":{"x":174264.33000000007,"y":2549986.7600000016}},{"attributes":{"ID":330279,"DIS_CODE":0,"TOWNNAME":"永康區","LI":"尚頂里","LIN":" ","STREET":"國聖街","SECT":" ","MAREA":" ","LANE":"４３巷","ALLEY":" ","HOUSE_NO":"３０號","E_COORD97":170305.64000000001,"N_COORD97":2547763.4900000002,"ADDRESS":"國聖街４３巷３０號","OBJECTID":330270},"geometry":{"x":170305.64000000153,"y":2547763.4900000002}},{"attributes":{"ID":330280,"DIS_CODE":0,"TOWNNAME":"永康區","LI":"六合里","LIN":" ","STREET":"中華路","SECT":" ","MAREA":" ","LANE":"５０５巷","ALLEY":" ","HOUSE_NO":"８號","E_COORD97":171178.59,"N_COORD97":2545809,"ADDRESS":"中華路５０５巷８號","OBJECTID":330271},"geometry":{"x":171178.58999999985,"y":2545809.0000000019}},{"attributes":{"ID":330281,"DIS_CODE":0,"TOWNNAME":"永康區","LI":"六合里","LIN":" ","STREET":"中華路","SECT":" ","MAREA":" ","LANE":"４９７巷","ALLEY":" ","HOUSE_NO":"５號","E_COORD97":171210.85999999999,"N_COORD97":2545776.2400000002,"ADDRESS":"中華路４９７巷５號","OBJECTID":330272},"geometry":{"x":171210.86000000034,"y":2545776.2400000021}},{"attributes":{"ID":330282,"DIS_CODE":0,"TOWNNAME":"永康區","LI":"永康里","LIN":" ","STREET":"永信路","SECT":" ","MAREA":" ","LANE":"５８巷","ALLEY":" ","HOUSE_NO":"６２之１３號","E_COORD97":174154.51000000001,"N_COORD97":2546475.46,"ADDRESS":"永信路５８巷６２之１３號","OBJECTID":330273},"geometry":{"x":174154.50999999885,"y":2546475.4600000009}},{"attributes":{"ID":330283,"DIS_CODE":0,"TOWNNAME":"永康區","LI":"蔦松里","LIN":" ","STREET":"蔦松一街","SECT":" ","MAREA":" ","LANE":"７４巷","ALLEY":" ","HOUSE_NO":"７２號","E_COORD97":173895.29999999999,"N_COORD97":2549478.1499999999,"ADDRESS":"蔦松一街７４巷７２號","OBJECTID":330274},"geometry":{"x":173895.30000000075,"y":2549478.1500000004}},{"attributes":{"ID":330284,"DIS_CODE":0,"TOWNNAME":"永康區","LI":"\u25A0洲里","LIN":"5鄰","STREET":"仁愛街","SECT":" ","MAREA":" ","LANE":"１０３巷","ALLEY":" ","HOUSE_NO":"６３號","E_COORD97":171824.78,"N_COORD97":2549579.77,"ADDRESS":"仁愛街１０３巷６３號","OBJECTID":330275},"geometry":{"x":171824.78000000119,"y":2549579.7700000014}},{"attributes":{"ID":330285,"DIS_CODE":0,"TOWNNAME":"北區","LI":"成功里","LIN":"15鄰","STREET":"北成路","SECT":" ","MAREA":" ","LANE":"３８巷","ALLEY":" ","HOUSE_NO":"５６號","E_COORD97":169202.79999999999,"N_COORD97":2546724.9500000002,"ADDRESS":"北成路３８巷５６號","OBJECTID":330276},"geometry":{"x":169202.80000000168,"y":2546724.9499999993}},{"attributes":{"ID":330286,"DIS_CODE":0,"TOWNNAME":"關廟區","LI":"北花里","LIN":"15鄰","STREET":"中正路","SECT":" ","MAREA":" ","LANE":"１２７巷","ALLEY":" ","HOUSE_NO":"１６號","E_COORD97":183554.09,"N_COORD97":2540878.8799999999,"ADDRESS":"中正路１２７巷１６號","OBJECTID":330277},"geometry":{"x":183554.09000000171,"y":2540878.8800000008}},{"attributes":{"ID":330287,"DIS_CODE":0,"TOWNNAME":"關廟區","LI":"香洋里","LIN":"15鄰","STREET":"花園一街","SECT":" ","MAREA":" ","LANE":"２７９巷","ALLEY":" ","HOUSE_NO":"３９號","E_COORD97":181438.44,"N_COORD97":2540074.46,"ADDRESS":"花園一街２７９巷３９號","OBJECTID":330278},"geometry":{"x":181438.44000000227,"y":2540074.4600000009}},{"attributes":{"ID":330288,"DIS_CODE":0,"TOWNNAME":"新營區","LI":"新南里","LIN":"15鄰","STREET":"民治路","SECT":" ","MAREA":" ","LANE":"３００巷","ALLEY":" ","HOUSE_NO":"１９號","E_COORD97":178755.88,"N_COORD97":2578539.8900000001,"ADDRESS":"民治路３００巷１９號","OBJECTID":330279},"geometry":{"x":178755.87999999989,"y":2578539.8900000043}},{"attributes":{"ID":330289,"DIS_CODE":0,"TOWNNAME":"安南區","LI":"溪心里","LIN":"17鄰","STREET":"仁安路","SECT":" ","MAREA":" ","LANE":" ","ALLEY":" ","HOUSE_NO":"２９４號","E_COORD97":166089.5,"N_COORD97":2550284.1000000001,"ADDRESS":"仁安路２９４號","OBJECTID":330280},"geometry":{"x":166089.50000000093,"y":2550284.0999999996}},{"attributes":{"ID":330290,"DIS_CODE":0,"TOWNNAME":"安南區","LI":"溪心里","LIN":"17鄰","STREET":"功安三街","SECT":" ","MAREA":" ","LANE":" ","ALLEY":" ","HOUSE_NO":"３８號","E_COORD97":166202.62,"N_COORD97":2550078.2999999998,"ADDRESS":"功安三街３８號","OBJECTID":330281},"geometry":{"x":166202.62000000104,"y":2550078.3000000045}},{"attributes":{"ID":330291,"DIS_CODE":0,"TOWNNAME":"安南區","LI":"溪心里","LIN":"17鄰","STREET":"功安三街","SECT":" ","MAREA":" ","LANE":" ","ALLEY":" ","HOUSE_NO":"４０號","E_COORD97":166201.04999999999,"N_COORD97":2550081.9100000001,"ADDRESS":"功安三街４０號","OBJECTID":330282},"geometry":{"x":166201.05000000075,"y":2550081.910000002}},{"attributes":{"ID":330292,"DIS_CODE":0,"TOWNNAME":"安南區","LI":"溪心里","LIN":"17鄰","STREET":"功安三街","SECT":" ","MAREA":" ","LANE":" ","ALLEY":" ","HOUSE_NO":"４１號","E_COORD97":166165.25,"N_COORD97":2550081.8199999998,"ADDRESS":"功安三街４１號","OBJECTID":330283},"geometry":{"x":166165.25,"y":2550081.8200000022}},{"attributes":{"ID":330293,"DIS_CODE":0,"TOWNNAME":"安南區","LI":"溪心里","LIN":"17鄰","STREET":"功安三街","SECT":" ","MAREA":" ","LANE":" ","ALLEY":" ","HOUSE_NO":"４２號","E_COORD97":166198.82999999999,"N_COORD97":2550085.0600000001,"ADDRESS":"功安三街４２號","OBJECTID":330284},"geometry":{"x":166198.82999999914,"y":2550085.0600000005}},{"attributes":{"ID":330294,"DIS_CODE":0,"TOWNNAME":"安南區","LI":"溪心里","LIN":"17鄰","STREET":"功安三街","SECT":" ","MAREA":" ","LANE":" ","ALLEY":" ","HOUSE_NO":"４６號","E_COORD97":166194.75,"N_COORD97":2550087.7400000002,"ADDRESS":"功安三街４６號","OBJECTID":330285},"geometry":{"x":166194.75000000093,"y":2550087.7400000002}},{"attributes":{"ID":330295,"DIS_CODE":0,"TOWNNAME":"安南區","LI":"溪心里","LIN":"17鄰","STREET":"功安三街","SECT":" ","MAREA":" ","LANE":" ","ALLEY":" ","HOUSE_NO":"４８號","E_COORD97":166191.69,"N_COORD97":2550092,"ADDRESS":"功安三街４８號","OBJECTID":330286},"geometry":{"x":166191.68999999948,"y":2550092}},{"attributes":{"ID":330296,"DIS_CODE":0,"TOWNNAME":"安南區","LI":"溪心里","LIN":"17鄰","STREET":"功安三街","SECT":" ","MAREA":" ","LANE":" ","ALLEY":" ","HOUSE_NO":"５０號","E_COORD97":166189.10000000001,"N_COORD97":2550094.6800000002,"ADDRESS":"功安三街５０號","OBJECTID":330287},"geometry":{"x":166189.09999999963,"y":2550094.6799999978}},{"attributes":{"ID":330297,"DIS_CODE":0,"TOWNNAME":"安南區","LI":"溪心里","LIN":"17鄰","STREET":"功安三街","SECT":" ","MAREA":" ","LANE":" ","ALLEY":" ","HOUSE_NO":"５２號","E_COORD97":166185.85999999999,"N_COORD97":2550098.1099999999,"ADDRESS":"功安三街５２號","OBJECTID":330288},"geometry":{"x":166185.86000000127,"y":2550098.1099999994}},{"attributes":{"ID":330298,"DIS_CODE":0,"TOWNNAME":"永康區","LI":"\u25A0洲里","LIN":"32鄰","STREET":"洲尾街","SECT":" ","MAREA":" ","LANE":"７４巷","ALLEY":" ","HOUSE_NO":"１４號","E_COORD97":170960.37,"N_COORD97":2548984.75,"ADDRESS":"洲尾街７４巷１４號","OBJECTID":330289},"geometry":{"x":170960.37000000011,"y":2548984.75}},{"attributes":{"ID":330299,"DIS_CODE":0,"TOWNNAME":"永康區","LI":"尚頂里","LIN":" ","STREET":"中正南路","SECT":" ","MAREA":" ","LANE":"３３７巷","ALLEY":" ","HOUSE_NO":"３８號","E_COORD97":171671.13,"N_COORD97":2548645.4900000002,"ADDRESS":"中正南路３３７巷３８號","OBJECTID":330290},"geometry":{"x":171671.13000000082,"y":2548645.4899999984}},{"attributes":{"ID":330300,"DIS_CODE":0,"TOWNNAME":"永康區","LI":"尚頂里","LIN":" ","STREET":"國聖街","SECT":" ","MAREA":" ","LANE":"４３巷","ALLEY":" ","HOUSE_NO":"６號","E_COORD97":170320.01999999999,"N_COORD97":2547863.8599999999,"ADDRESS":"國聖街４３巷６號","OBJECTID":330291},"geometry":{"x":170320.02000000048,"y":2547863.8600000013}},{"attributes":{"ID":330301,"DIS_CODE":0,"TOWNNAME":"永康區","LI":"尚頂里","LIN":" ","STREET":"南台街","SECT":" ","MAREA":" ","LANE":"１０巷","ALLEY":" ","HOUSE_NO":"１０之１號","E_COORD97":170481.81,"N_COORD97":2546984.5499999998,"ADDRESS":"南台街１０巷１０之１號","OBJECTID":330292},"geometry":{"x":170481.80999999959,"y":2546984.5500000045}},{"attributes":{"ID":330302,"DIS_CODE":0,"TOWNNAME":"永康區","LI":"復興里","LIN":" ","STREET":"復興路","SECT":" ","MAREA":" ","LANE":"４２９巷","ALLEY":" ","HOUSE_NO":"４２７之１６號","E_COORD97":172184.47,"N_COORD97":2543911.71,"ADDRESS":"復興路４２９巷４２７之１６號","OBJECTID":330293},"geometry":{"x":172184.46999999974,"y":2543911.709999999}},{"attributes":{"ID":330303,"DIS_CODE":0,"TOWNNAME":"永康區","LI":"三民里","LIN":" ","STREET":"和平東路","SECT":" ","MAREA":" ","LANE":"２１２巷","ALLEY":" ","HOUSE_NO":"８６號","E_COORD97":174883.01000000001,"N_COORD97":2550697.25,"ADDRESS":"和平東路２１２巷８６號","OBJECTID":330294},"geometry":{"x":174883.00999999978,"y":2550697.25}},{"attributes":{"ID":330304,"DIS_CODE":0,"TOWNNAME":"永康區","LI":"尚頂里","LIN":" ","STREET":"國聖街","SECT":" ","MAREA":" ","LANE":"４３巷","ALLEY":" ","HOUSE_NO":"８號","E_COORD97":170329.14999999999,"N_COORD97":2547842.73,"ADDRESS":"國聖街４３巷８號","OBJECTID":330295},"geometry":{"x":170329.15000000037,"y":2547842.7300000004}},{"attributes":{"ID":330305,"DIS_CODE":0,"TOWNNAME":"永康區","LI":"尚頂里","LIN":" ","STREET":"國聖街","SECT":" ","MAREA":" ","LANE":"４３巷","ALLEY":" ","HOUSE_NO":"５５號","E_COORD97":170280.73000000001,"N_COORD97":2547671.4900000002,"ADDRESS":"國聖街４３巷５５號","OBJECTID":330296},"geometry":{"x":170280.73000000138,"y":2547671.4900000002}},{"attributes":{"ID":330306,"DIS_CODE":0,"TOWNNAME":"永康區","LI":"\u25A0洲里","LIN":"4鄰","STREET":"\u25A0洲二街","SECT":" ","MAREA":" ","LANE":"１１１巷","ALLEY":" ","HOUSE_NO":"８號","E_COORD97":171601.67000000001,"N_COORD97":2549333.5,"ADDRESS":"\u25A0洲二街１１１巷８號","OBJECTID":330297},"geometry":{"x":171601.66999999993,"y":2549333.5000000037}},{"attributes":{"ID":330307,"DIS_CODE":0,"TOWNNAME":"新營區","LI":"民權里","LIN":"15鄰","STREET":"民權路","SECT":" ","MAREA":" ","LANE":"９４巷","ALLEY":" ","HOUSE_NO":"２３號","E_COORD97":179861.67999999999,"N_COORD97":2578542.3599999999,"ADDRESS":"民權路９４巷２３號","OBJECTID":330298},"geometry":{"x":179861.68000000063,"y":2578542.3600000013}},{"attributes":{"ID":330308,"DIS_CODE":0,"TOWNNAME":"新營區","LI":"南紙里","LIN":"15鄰","STREET":"南紙街","SECT":" ","MAREA":" ","LANE":"１４３巷","ALLEY":" ","HOUSE_NO":"１２號","E_COORD97":177786.62,"N_COORD97":2577362.9199999999,"ADDRESS":"南紙街１４３巷１２號","OBJECTID":330299},"geometry":{"x":177786.62000000011,"y":2577362.9200000018}},{"attributes":{"ID":330309,"DIS_CODE":0,"TOWNNAME":"新營區","LI":"忠政里","LIN":"15鄰","STREET":"府西路","SECT":" ","MAREA":" ","LANE":"２３０巷","ALLEY":" ","HOUSE_NO":"１９號","E_COORD97":179872.79999999999,"N_COORD97":2579611,"ADDRESS":"府西路２３０巷１９號","OBJECTID":330300},"geometry":{"x":179872.80000000075,"y":2579611.0000000019}},{"attributes":{"ID":330310,"DIS_CODE":0,"TOWNNAME":"新營區","LI":"南紙里","LIN":"15鄰","STREET":"南紙街","SECT":" ","MAREA":" ","LANE":"１４３巷","ALLEY":" ","HOUSE_NO":"１６號","E_COORD97":177796.85000000001,"N_COORD97":2577363.98,"ADDRESS":"南紙街１４３巷１６號","OBJECTID":330301},"geometry":{"x":177796.85000000149,"y":2577363.9800000023}},{"attributes":{"ID":330311,"DIS_CODE":0,"TOWNNAME":"安南區","LI":"溪心里","LIN":"17鄰","STREET":"功安三街","SECT":" ","MAREA":" ","LANE":" ","ALLEY":" ","HOUSE_NO":"５６號","E_COORD97":166178.87,"N_COORD97":2550106.4100000001,"ADDRESS":"功安三街５６號","OBJECTID":330302},"geometry":{"x":166178.87000000104,"y":2550106.4100000001}},{"attributes":{"ID":330312,"DIS_CODE":0,"TOWNNAME":"安南區","LI":"溪心里","LIN":"17鄰","STREET":"功安三街","SECT":" ","MAREA":" ","LANE":" ","ALLEY":" ","HOUSE_NO":"５８號","E_COORD97":166176.32000000001,"N_COORD97":2550110.4100000001,"ADDRESS":"功安三街５８號","OBJECTID":330303},"geometry":{"x":166176.32000000123,"y":2550110.4100000001}},{"attributes":{"ID":330313,"DIS_CODE":0,"TOWNNAME":"安南區","LI":"溪心里","LIN":"17鄰","STREET":"功安三街","SECT":" ","MAREA":" ","LANE":" ","ALLEY":" ","HOUSE_NO":"６０號","E_COORD97":166173.88,"N_COORD97":2550113.6200000001,"ADDRESS":"功安三街６０號","OBJECTID":330304},"geometry":{"x":166173.87999999989,"y":2550113.6200000048}},{"attributes":{"ID":330314,"DIS_CODE":0,"TOWNNAME":"安南區","LI":"溪心里","LIN":"17鄰","STREET":"功安三街","SECT":" ","MAREA":" ","LANE":" ","ALLEY":" ","HOUSE_NO":"６２號","E_COORD97":166170.42999999999,"N_COORD97":2550117.0600000001,"ADDRESS":"功安三街６２號","OBJECTID":330305},"geometry":{"x":166170.4299999997,"y":2550117.0600000042}},{"attributes":{"ID":330315,"DIS_CODE":0,"TOWNNAME":"安南區","LI":"溪心里","LIN":"17鄰","STREET":"功安三街","SECT":" ","MAREA":" ","LANE":" ","ALLEY":" ","HOUSE_NO":"６８號","E_COORD97":166137.84,"N_COORD97":2550158.5499999998,"ADDRESS":"功安三街６８號","OBJECTID":330306},"geometry":{"x":166137.84000000078,"y":2550158.5500000026}},{"attributes":{"ID":330316,"DIS_CODE":0,"TOWNNAME":"安南區","LI":"溪心里","LIN":"17鄰","STREET":"功安三街","SECT":" ","MAREA":" ","LANE":" ","ALLEY":" ","HOUSE_NO":"７０號","E_COORD97":166135.09,"N_COORD97":2550162.0699999998,"ADDRESS":"功安三街７０號","OBJECTID":330307},"geometry":{"x":166135.08999999985,"y":2550162.0700000022}},{"attributes":{"ID":330317,"DIS_CODE":0,"TOWNNAME":"安南區","LI":"溪心里","LIN":"17鄰","STREET":"功安三街","SECT":" ","MAREA":" ","LANE":" ","ALLEY":" ","HOUSE_NO":"７２號","E_COORD97":166132.67999999999,"N_COORD97":2550164.8999999999,"ADDRESS":"功安三街７２號","OBJECTID":330308},"geometry":{"x":166132.6799999997,"y":2550164.9000000004}},{"attributes":{"ID":330318,"DIS_CODE":0,"TOWNNAME":"安南區","LI":"溪心里","LIN":"17鄰","STREET":"功安三街","SECT":" ","MAREA":" ","LANE":" ","ALLEY":" ","HOUSE_NO":"７４號","E_COORD97":166128.81,"N_COORD97":2550168.0800000001,"ADDRESS":"功安三街７４號","OBJECTID":330309},"geometry":{"x":166128.80999999959,"y":2550168.0800000019}},{"attributes":{"ID":330319,"DIS_CODE":0,"TOWNNAME":"安南區","LI":"溪心里","LIN":"17鄰","STREET":"功安三街","SECT":" ","MAREA":" ","LANE":" ","ALLEY":" ","HOUSE_NO":"７８號","E_COORD97":166123.91,"N_COORD97":2550175.8999999999,"ADDRESS":"功安三街７８號","OBJECTID":330310},"geometry":{"x":166123.91000000201,"y":2550175.9000000022}},{"attributes":{"ID":330320,"DIS_CODE":0,"TOWNNAME":"安南區","LI":"溪心里","LIN":"17鄰","STREET":"功安三街","SECT":" ","MAREA":" ","LANE":" ","ALLEY":" ","HOUSE_NO":"８０號","E_COORD97":166121.25,"N_COORD97":2550179.8500000001,"ADDRESS":"功安三街８０號","OBJECTID":330311},"geometry":{"x":166121.25,"y":2550179.8500000015}},{"attributes":{"ID":330321,"DIS_CODE":0,"TOWNNAME":"永康區","LI":"尚頂里","LIN":" ","STREET":"正南一街","SECT":" ","MAREA":" ","LANE":"１８１巷","ALLEY":" ","HOUSE_NO":"５號","E_COORD97":170659.45999999999,"N_COORD97":2547357.52,"ADDRESS":"正南一街１８１巷５號","OBJECTID":330312},"geometry":{"x":170659.45999999996,"y":2547357.5200000014}},{"attributes":{"ID":330322,"DIS_CODE":0,"TOWNNAME":"永康區","LI":"安康里","LIN":" ","STREET":"中華西街","SECT":" ","MAREA":" ","LANE":"１９６巷","ALLEY":" ","HOUSE_NO":"３７號","E_COORD97":170713.92999999999,"N_COORD97":2546389.8199999998,"ADDRESS":"中華西街１９６巷３７號","OBJECTID":330313},"geometry":{"x":170713.93000000156,"y":2546389.8200000022}},{"attributes":{"ID":330323,"DIS_CODE":0,"TOWNNAME":"永康區","LI":"西橋里","LIN":" ","STREET":"中華西街","SECT":" ","MAREA":" ","LANE":"２１巷","ALLEY":" ","HOUSE_NO":"２４號","E_COORD97":170718.41,"N_COORD97":2545919.5,"ADDRESS":"中華西街２１巷２４號","OBJECTID":330314},"geometry":{"x":170718.41000000108,"y":2545919.5000000037}},{"attributes":{"ID":330324,"DIS_CODE":0,"TOWNNAME":"永康區","LI":"\u25A0洲里","LIN":"25鄰","STREET":"中正南路","SECT":" ","MAREA":" ","LANE":"４５３巷","ALLEY":" ","HOUSE_NO":"２３號","E_COORD97":170762.92000000001,"N_COORD97":2548165.75,"ADDRESS":"中正南路４５３巷２３號","OBJECTID":330315},"geometry":{"x":170762.91999999993,"y":2548165.7500000037}},{"attributes":{"ID":330325,"DIS_CODE":0,"TOWNNAME":"永康區","LI":"\u25A0洲里","LIN":"4鄰","STREET":"\u25A0洲二街","SECT":" ","MAREA":" ","LANE":"１３３巷","ALLEY":" ","HOUSE_NO":"２１號","E_COORD97":171598.07000000001,"N_COORD97":2549374.5299999998,"ADDRESS":"\u25A0洲二街１３３巷２１號","OBJECTID":330316},"geometry":{"x":171598.0700000003,"y":2549374.5300000012}},{"attributes":{"ID":330326,"DIS_CODE":0,"TOWNNAME":"永康區","LI":"蔦松里","LIN":" ","STREET":"中正北路","SECT":" ","MAREA":" ","LANE":"６９９巷","ALLEY":" ","HOUSE_NO":"１１號","E_COORD97":174031.91,"N_COORD97":2549463.7000000002,"ADDRESS":"中正北路６９９巷１１號","OBJECTID":330317},"geometry":{"x":174031.91000000201,"y":2549463.700000003}},{"attributes":{"ID":330327,"DIS_CODE":0,"TOWNNAME":"永康區","LI":"永康里","LIN":" ","STREET":"中山北路","SECT":" ","MAREA":" ","LANE":"１２３巷","ALLEY":" ","HOUSE_NO":"１號","E_COORD97":174105.60000000001,"N_COORD97":2547541.8799999999,"ADDRESS":"中山北路１２３巷１號","OBJECTID":330318},"geometry":{"x":174105.59999999963,"y":2547541.879999999}},{"attributes":{"ID":330328,"DIS_CODE":0,"TOWNNAME":"永康區","LI":"永康里","LIN":" ","STREET":"中山南路","SECT":" ","MAREA":" ","LANE":"６５３巷","ALLEY":" ","HOUSE_NO":"２號","E_COORD97":173812.51999999999,"N_COORD97":2547418.2400000002,"ADDRESS":"中山南路６５３巷２號","OBJECTID":330319},"geometry":{"x":173812.52000000048,"y":2547418.2400000021}},{"attributes":{"ID":330329,"DIS_CODE":0,"TOWNNAME":"新營區","LI":"新南里","LIN":"15鄰","STREET":"民治路","SECT":" ","MAREA":" ","LANE":"３００巷","ALLEY":" ","HOUSE_NO":"７７號","E_COORD97":178670.19,"N_COORD97":2578579.0600000001,"ADDRESS":"民治路３００巷７７號","OBJECTID":330320},"geometry":{"x":178670.19000000227,"y":2578579.0600000042}},{"attributes":{"ID":330330,"DIS_CODE":0,"TOWNNAME":"新營區","LI":"忠政里","LIN":"15鄰","STREET":"府西路","SECT":" ","MAREA":" ","LANE":"２３０巷","ALLEY":" ","HOUSE_NO":"１８號","E_COORD97":179865.60000000001,"N_COORD97":2579599.96,"ADDRESS":"府西路２３０巷１８號","OBJECTID":330321},"geometry":{"x":179865.60000000056,"y":2579599.9600000009}},{"attributes":{"ID":330331,"DIS_CODE":0,"TOWNNAME":"南區","LI":"田寮里","LIN":"15鄰","STREET":"新興路","SECT":" ","MAREA":" ","LANE":"４１巷","ALLEY":" ","HOUSE_NO":"２６號","E_COORD97":167658.07999999999,"N_COORD97":2542129.1000000001,"ADDRESS":"新興路４１巷２６號","OBJECTID":330322},"geometry":{"x":167658.08000000007,"y":2542129.1000000015}},{"attributes":{"ID":330332,"DIS_CODE":0,"TOWNNAME":"南區","LI":"田寮里","LIN":"15鄰","STREET":"新興路","SECT":" ","MAREA":" ","LANE":"４１巷","ALLEY":" ","HOUSE_NO":"２８號","E_COORD97":167658.41,"N_COORD97":2542124.9700000002,"ADDRESS":"新興路４１巷２８號","OBJECTID":330323},"geometry":{"x":167658.41000000108,"y":2542124.9700000007}},{"attributes":{"ID":330333,"DIS_CODE":0,"TOWNNAME":"南區","LI":"田寮里","LIN":"15鄰","STREET":"新興路","SECT":" ","MAREA":" ","LANE":"９３巷","ALLEY":" ","HOUSE_NO":"１８號","E_COORD97":167605.20999999999,"N_COORD97":2542111.8100000001,"ADDRESS":"新興路９３巷１８號","OBJECTID":330324},"geometry":{"x":167605.21000000089,"y":2542111.8100000024}},{"attributes":{"ID":330334,"DIS_CODE":0,"TOWNNAME":"南區","LI":"田寮里","LIN":"15鄰","STREET":"新興路","SECT":" ","MAREA":" ","LANE":"９３巷","ALLEY":" ","HOUSE_NO":"２０號","E_COORD97":167608.98999999999,"N_COORD97":2542111.3599999999,"ADDRESS":"新興路９３巷２０號","OBJECTID":330325},"geometry":{"x":167608.99000000115,"y":2542111.3599999994}},{"attributes":{"ID":330335,"DIS_CODE":0,"TOWNNAME":"南區","LI":"田寮里","LIN":"15鄰","STREET":"新興路","SECT":" ","MAREA":" ","LANE":"９３巷","ALLEY":" ","HOUSE_NO":"２１號","E_COORD97":167645.57000000001,"N_COORD97":2542124.7799999998,"ADDRESS":"新興路９３巷２１號","OBJECTID":330326},"geometry":{"x":167645.57000000123,"y":2542124.7799999993}},{"attributes":{"ID":330336,"DIS_CODE":0,"TOWNNAME":"安南區","LI":"溪心里","LIN":"17鄰","STREET":"功安三街","SECT":" ","MAREA":" ","LANE":" ","ALLEY":" ","HOUSE_NO":"８２號","E_COORD97":166118.75,"N_COORD97":2550182.9399999999,"ADDRESS":"功安三街８２號","OBJECTID":330327},"geometry":{"x":166118.75000000093,"y":2550182.9399999995}},{"attributes":{"ID":330337,"DIS_CODE":0,"TOWNNAME":"安南區","LI":"溪心里","LIN":"17鄰","STREET":"功安三街","SECT":" ","MAREA":" ","LANE":" ","ALLEY":" ","HOUSE_NO":"８６之１號","E_COORD97":166115.76999999999,"N_COORD97":2550187.02,"ADDRESS":"功安三街８６之１號","OBJECTID":330328},"geometry":{"x":166115.77000000142,"y":2550187.0199999996}},{"attributes":{"ID":330338,"DIS_CODE":0,"TOWNNAME":"安南區","LI":"溪心里","LIN":"17鄰","STREET":"功安三街","SECT":" ","MAREA":" ","LANE":" ","ALLEY":" ","HOUSE_NO":"８６號","E_COORD97":166114.62,"N_COORD97":2550191.4500000002,"ADDRESS":"功安三街８６號","OBJECTID":330329},"geometry":{"x":166114.62000000104,"y":2550191.4500000011}},{"attributes":{"ID":330339,"DIS_CODE":0,"TOWNNAME":"安南區","LI":"溪心里","LIN":"17鄰","STREET":"功安三街","SECT":" ","MAREA":" ","LANE":" ","ALLEY":" ","HOUSE_NO":"８８號","E_COORD97":166111.79000000001,"N_COORD97":2550195.1200000001,"ADDRESS":"功安三街８８號","OBJECTID":330330},"geometry":{"x":166111.79000000097,"y":2550195.1200000048}},{"attributes":{"ID":330340,"DIS_CODE":0,"TOWNNAME":"安南區","LI":"溪心里","LIN":"17鄰","STREET":"功安三街","SECT":" ","MAREA":" ","LANE":" ","ALLEY":" ","HOUSE_NO":"９７號","E_COORD97":166059.67999999999,"N_COORD97":2550213.8100000001,"ADDRESS":"功安三街９７號","OBJECTID":330331},"geometry":{"x":166059.68000000063,"y":2550213.8100000024}},{"attributes":{"ID":330341,"DIS_CODE":0,"TOWNNAME":"安南區","LI":"溪心里","LIN":"17鄰","STREET":"功安三街","SECT":" ","MAREA":" ","LANE":" ","ALLEY":" ","HOUSE_NO":"９９號","E_COORD97":166056.35000000001,"N_COORD97":2550216.77,"ADDRESS":"功安三街９９號","OBJECTID":330332},"geometry":{"x":166056.35000000056,"y":2550216.7700000014}},{"attributes":{"ID":330342,"DIS_CODE":0,"TOWNNAME":"安南區","LI":"溪心里","LIN":"17鄰","STREET":"功安四街","SECT":" ","MAREA":" ","LANE":" ","ALLEY":" ","HOUSE_NO":"４３號","E_COORD97":166241.54999999999,"N_COORD97":2550073.71,"ADDRESS":"功安四街４３號","OBJECTID":330333},"geometry":{"x":166241.55000000075,"y":2550073.7100000028}},{"attributes":{"ID":330343,"DIS_CODE":0,"TOWNNAME":"安南區","LI":"溪心里","LIN":"17鄰","STREET":"功安四街","SECT":" ","MAREA":" ","LANE":" ","ALLEY":" ","HOUSE_NO":"４６號","E_COORD97":166194.01000000001,"N_COORD97":2550180.1800000002,"ADDRESS":"功安四街４６號","OBJECTID":330334},"geometry":{"x":166194.01000000164,"y":2550180.1800000016}},{"attributes":{"ID":330344,"DIS_CODE":0,"TOWNNAME":"永康區","LI":"復國里","LIN":"6鄰","STREET":"復華三街","SECT":" ","MAREA":" ","LANE":"７６巷","ALLEY":" ","HOUSE_NO":"２號","E_COORD97":172683.62,"N_COORD97":2545568.9199999999,"ADDRESS":"復華三街７６巷２號","OBJECTID":330335},"geometry":{"x":172683.62000000104,"y":2545568.9200000018}},{"attributes":{"ID":330345,"DIS_CODE":0,"TOWNNAME":"永康區","LI":"大橋里","LIN":" ","STREET":"大橋一街","SECT":" ","MAREA":" ","LANE":"１３７巷","ALLEY":" ","HOUSE_NO":"２７號","E_COORD97":171012.51000000001,"N_COORD97":2546542.5,"ADDRESS":"大橋一街１３７巷２７號","OBJECTID":330336},"geometry":{"x":171012.51000000071,"y":2546542.5}},{"attributes":{"ID":330346,"DIS_CODE":0,"TOWNNAME":"永康區","LI":"\u25A0洲里","LIN":"32鄰","STREET":"洲尾街","SECT":" ","MAREA":" ","LANE":"７４巷","ALLEY":" ","HOUSE_NO":"４號","E_COORD97":170959.17999999999,"N_COORD97":2548956.5099999998,"ADDRESS":"洲尾街７４巷４號","OBJECTID":330337},"geometry":{"x":170959.1799999997,"y":2548956.5099999998}},{"attributes":{"ID":330347,"DIS_CODE":0,"TOWNNAME":"永康區","LI":"三民里","LIN":"1鄰","STREET":"三民街","SECT":" ","MAREA":" ","LANE":"７１巷","ALLEY":" ","HOUSE_NO":"５號","E_COORD97":172878.20999999999,"N_COORD97":2550240.29,"ADDRESS":"三民街７１巷５號","OBJECTID":330338},"geometry":{"x":172878.20999999996,"y":2550240.290000001}},{"attributes":{"ID":330348,"DIS_CODE":0,"TOWNNAME":"永康區","LI":"三合里","LIN":" ","STREET":"南工街","SECT":" ","MAREA":" ","LANE":"１５８巷","ALLEY":" ","HOUSE_NO":"１２號","E_COORD97":171980.64999999999,"N_COORD97":2545850.4100000001,"ADDRESS":"南工街１５８巷１２號","OBJECTID":330339},"geometry":{"x":171980.65000000037,"y":2545850.410000002}},{"attributes":{"ID":330349,"DIS_CODE":0,"TOWNNAME":"永康區","LI":"新樹里","LIN":" ","STREET":"中山北路","SECT":" ","MAREA":" ","LANE":"６３４巷","ALLEY":" ","HOUSE_NO":"１２號","E_COORD97":176004.12,"N_COORD97":2547803.7400000002,"ADDRESS":"中山北路６３４巷１２號","OBJECTID":330340},"geometry":{"x":176004.12000000104,"y":2547803.7400000021}},{"attributes":{"ID":330350,"DIS_CODE":0,"TOWNNAME":"永康區","LI":"\u25A0洲里","LIN":"38鄰","STREET":"\u25A0行路","SECT":" ","MAREA":" ","LANE":"２０４巷","ALLEY":" ","HOUSE_NO":"２１號","E_COORD97":171239.45999999999,"N_COORD97":2549233.23,"ADDRESS":"\u25A0行路２０４巷２１號","OBJECTID":330341},"geometry":{"x":171239.46000000183,"y":2549233.2300000004}},{"attributes":{"ID":330351,"DIS_CODE":0,"TOWNNAME":"南區","LI":"田寮里","LIN":"15鄰","STREET":"新興路","SECT":" ","MAREA":" ","LANE":"９３巷","ALLEY":" ","HOUSE_NO":"２２號","E_COORD97":167612.76999999999,"N_COORD97":2542110.7000000002,"ADDRESS":"新興路９３巷２２號","OBJECTID":330342},"geometry":{"x":167612.77000000048,"y":2542110.7000000011}},{"attributes":{"ID":330352,"DIS_CODE":0,"TOWNNAME":"南區","LI":"田寮里","LIN":"15鄰","STREET":"新興路","SECT":" ","MAREA":" ","LANE":"９３巷","ALLEY":" ","HOUSE_NO":"２３號","E_COORD97":167649.32999999999,"N_COORD97":2542124.8399999999,"ADDRESS":"新興路９３巷２３號","OBJECTID":330343},"geometry":{"x":167649.33000000007,"y":2542124.8400000017}},{"attributes":{"ID":330353,"DIS_CODE":0,"TOWNNAME":"七股區","LI":"樹林里","LIN":"12鄰","STREET":" ","SECT":" ","MAREA":"樹林","LANE":" ","ALLEY":" ","HOUSE_NO":"１０８號之１６","E_COORD97":163883.87427,"N_COORD97":2556899.4464699998,"ADDRESS":"樹林１０８號之１６","OBJECTID":330344},"geometry":{"x":163883.87426999956,"y":2556899.446469998}},{"attributes":{"ID":330354,"DIS_CODE":0,"TOWNNAME":"南區","LI":"田寮里","LIN":"15鄰","STREET":"新興路","SECT":" ","MAREA":" ","LANE":"９３巷","ALLEY":" ","HOUSE_NO":"２４號","E_COORD97":167618.78,"N_COORD97":2542113.3599999999,"ADDRESS":"新興路９３巷２４號","OBJECTID":330345},"geometry":{"x":167618.78000000119,"y":2542113.3600000013}},{"attributes":{"ID":330355,"DIS_CODE":0,"TOWNNAME":"安南區","LI":"溪心里","LIN":"17鄰","STREET":"功安四街","SECT":" ","MAREA":" ","LANE":" ","ALLEY":" ","HOUSE_NO":"４８號","E_COORD97":166191.32000000001,"N_COORD97":2550183.3300000001,"ADDRESS":"功安四街４８號","OBJECTID":330346},"geometry":{"x":166191.32000000123,"y":2550183.3300000019}},{"attributes":{"ID":330356,"DIS_CODE":0,"TOWNNAME":"安南區","LI":"溪心里","LIN":"17鄰","STREET":"功安四街","SECT":" ","MAREA":" ","LANE":" ","ALLEY":" ","HOUSE_NO":"５０號","E_COORD97":166188.17000000001,"N_COORD97":2550186.6000000001,"ADDRESS":"功安四街５０號","OBJECTID":330347},"geometry":{"x":166188.17000000086,"y":2550186.5999999996}},{"attributes":{"ID":330357,"DIS_CODE":0,"TOWNNAME":"安南區","LI":"溪心里","LIN":"17鄰","STREET":"功安四街","SECT":" ","MAREA":" ","LANE":" ","ALLEY":" ","HOUSE_NO":"５１號","E_COORD97":166223.17000000001,"N_COORD97":2550094.4900000002,"ADDRESS":"功安四街５１號","OBJECTID":330348},"geometry":{"x":166223.16999999993,"y":2550094.4900000021}},{"attributes":{"ID":330358,"DIS_CODE":0,"TOWNNAME":"安南區","LI":"溪心里","LIN":"17鄰","STREET":"功安四街","SECT":" ","MAREA":" ","LANE":" ","ALLEY":" ","HOUSE_NO":"５２號","E_COORD97":166185.25,"N_COORD97":2550190.2200000002,"ADDRESS":"功安四街５２號","OBJECTID":330349},"geometry":{"x":166185.25,"y":2550190.2200000007}},{"attributes":{"ID":330359,"DIS_CODE":0,"TOWNNAME":"安南區","LI":"溪心里","LIN":"17鄰","STREET":"功安四街","SECT":" ","MAREA":" ","LANE":" ","ALLEY":" ","HOUSE_NO":"５２號之１","E_COORD97":166182.10000000001,"N_COORD97":2550194.2999999998,"ADDRESS":"功安四街５２號之１","OBJECTID":330350},"geometry":{"x":166182.10000000056,"y":2550194.3000000026}},{"attributes":{"ID":330360,"DIS_CODE":0,"TOWNNAME":"安南區","LI":"溪心里","LIN":"17鄰","STREET":"功安四街","SECT":" ","MAREA":" ","LANE":" ","ALLEY":" ","HOUSE_NO":"５３號","E_COORD97":166221.10999999999,"N_COORD97":2550098.3999999999,"ADDRESS":"功安四街５３號","OBJECTID":330351},"geometry":{"x":166221.1100000022,"y":2550098.4000000022}},{"attributes":{"ID":330361,"DIS_CODE":0,"TOWNNAME":"安南區","LI":"溪心里","LIN":"17鄰","STREET":"功安四街","SECT":" ","MAREA":" ","LANE":" ","ALLEY":" ","HOUSE_NO":"５５號","E_COORD97":166219.35000000001,"N_COORD97":2550102.3399999999,"ADDRESS":"功安四街５５號","OBJECTID":330352},"geometry":{"x":166219.35000000056,"y":2550102.3400000017}},{"attributes":{"ID":330362,"DIS_CODE":0,"TOWNNAME":"安南區","LI":"溪心里","LIN":"17鄰","STREET":"功安四街","SECT":" ","MAREA":" ","LANE":" ","ALLEY":" ","HOUSE_NO":"５６號","E_COORD97":166178.60000000001,"N_COORD97":2550197.3199999998,"ADDRESS":"功安四街５６號","OBJECTID":330353},"geometry":{"x":166178.60000000056,"y":2550197.3200000022}},{"attributes":{"ID":330363,"DIS_CODE":0,"TOWNNAME":"安南區","LI":"溪心里","LIN":"17鄰","STREET":"功安四街","SECT":" ","MAREA":" ","LANE":" ","ALLEY":" ","HOUSE_NO":"５７號","E_COORD97":166216.98000000001,"N_COORD97":2550106.27,"ADDRESS":"功安四街５７號","OBJECTID":330354},"geometry":{"x":166216.98000000231,"y":2550106.2699999996}},{"attributes":{"ID":330364,"DIS_CODE":0,"TOWNNAME":"永康區","LI":"三民里","LIN":" ","STREET":"三民街","SECT":" ","MAREA":" ","LANE":"９０巷","ALLEY":" ","HOUSE_NO":"７號","E_COORD97":172974.51000000001,"N_COORD97":2550326.7799999998,"ADDRESS":"三民街９０巷７號","OBJECTID":330355},"geometry":{"x":172974.50999999978,"y":2550326.7799999993}},{"attributes":{"ID":330365,"DIS_CODE":0,"TOWNNAME":"永康區","LI":"尚頂里","LIN":" ","STREET":"中正二街","SECT":" ","MAREA":" ","LANE":"９６巷","ALLEY":" ","HOUSE_NO":"９８號","E_COORD97":171076.70000000001,"N_COORD97":2547497.8799999999,"ADDRESS":"中正二街９６巷９８號","OBJECTID":330356},"geometry":{"x":171076.70000000019,"y":2547497.879999999}},{"attributes":{"ID":330366,"DIS_CODE":0,"TOWNNAME":"永康區","LI":"南灣里","LIN":" ","STREET":"南興路","SECT":" ","MAREA":" ","LANE":"４８巷","ALLEY":" ","HOUSE_NO":"２之３號","E_COORD97":174276.85000000001,"N_COORD97":2544048.5499999998,"ADDRESS":"南興路４８巷２之３號","OBJECTID":330357},"geometry":{"x":174276.84999999963,"y":2544048.5500000045}},{"attributes":{"ID":330367,"DIS_CODE":0,"TOWNNAME":"永康區","LI":"安康里","LIN":" ","STREET":"中華西街","SECT":" ","MAREA":" ","LANE":"８巷","ALLEY":" ","HOUSE_NO":"７號","E_COORD97":170852.70999999999,"N_COORD97":2545947.4900000002,"ADDRESS":"中華西街８巷７號","OBJECTID":330358},"geometry":{"x":170852.70999999996,"y":2545947.4900000021}},{"attributes":{"ID":330368,"DIS_CODE":0,"TOWNNAME":"永康區","LI":"烏竹里","LIN":"21鄰","STREET":"自強路","SECT":" ","MAREA":" ","LANE":"７７３巷","ALLEY":" ","HOUSE_NO":"３６之１號","E_COORD97":174495.08003300001,"N_COORD97":2548727.8449200001,"ADDRESS":"自強路７７３巷３６之１號","OBJECTID":330359},"geometry":{"x":174495.08003300149,"y":2548727.8449220024}},{"attributes":{"ID":330369,"DIS_CODE":0,"TOWNNAME":"永康區","LI":"西橋里","LIN":" ","STREET":"大橋三街","SECT":" ","MAREA":" ","LANE":"１０巷","ALLEY":" ","HOUSE_NO":"１６之１號","E_COORD97":170531.42000000001,"N_COORD97":2546322.5499999998,"ADDRESS":"大橋三街１０巷１６之１號","OBJECTID":330360},"geometry":{"x":170531.42000000086,"y":2546322.5500000007}},{"attributes":{"ID":330370,"DIS_CODE":0,"TOWNNAME":"永康區","LI":"尚頂里","LIN":" ","STREET":"國聖街","SECT":" ","MAREA":" ","LANE":"４３巷","ALLEY":" ","HOUSE_NO":"７５號","E_COORD97":170240.35000000001,"N_COORD97":2547607.7200000002,"ADDRESS":"國聖街４３巷７５號","OBJECTID":330361},"geometry":{"x":170240.35000000056,"y":2547607.7200000025}},{"attributes":{"ID":330371,"DIS_CODE":0,"TOWNNAME":"永康區","LI":"三民里","LIN":" ","STREET":"三民街","SECT":" ","MAREA":" ","LANE":"１１２巷","ALLEY":" ","HOUSE_NO":"２３號","E_COORD97":172892.17999999999,"N_COORD97":2550364.79,"ADDRESS":"三民街１１２巷２３號","OBJECTID":330362},"geometry":{"x":172892.18000000156,"y":2550364.7900000028}},{"attributes":{"ID":330372,"DIS_CODE":0,"TOWNNAME":"永康區","LI":"南灣里","LIN":" ","STREET":"南興路","SECT":" ","MAREA":" ","LANE":"３巷","ALLEY":" ","HOUSE_NO":"７之８號","E_COORD97":173898.54000000001,"N_COORD97":2543818.25,"ADDRESS":"南興路３巷７之８號","OBJECTID":330363},"geometry":{"x":173898.54000000004,"y":2543818.25}},{"attributes":{"ID":330373,"DIS_CODE":0,"TOWNNAME":"永康區","LI":"尚頂里","LIN":" ","STREET":"國聖街","SECT":" ","MAREA":" ","LANE":"４３巷","ALLEY":" ","HOUSE_NO":"４６號","E_COORD97":170272.47,"N_COORD97":2547693.5499999998,"ADDRESS":"國聖街４３巷４６號","OBJECTID":330364},"geometry":{"x":170272.46999999974,"y":2547693.5500000026}},{"attributes":{"ID":330374,"DIS_CODE":0,"TOWNNAME":"南區","LI":"田寮里","LIN":"15鄰","STREET":"新興路","SECT":" ","MAREA":" ","LANE":"９３巷","ALLEY":" ","HOUSE_NO":"２５號","E_COORD97":167652.72,"N_COORD97":2542125,"ADDRESS":"新興路９３巷２５號","OBJECTID":330365},"geometry":{"x":167652.72000000067,"y":2542125}},{"attributes":{"ID":330375,"DIS_CODE":0,"TOWNNAME":"南區","LI":"田寮里","LIN":"15鄰","STREET":"新興路","SECT":" ","MAREA":" ","LANE":"９３巷","ALLEY":" ","HOUSE_NO":"２６號","E_COORD97":167617.89000000001,"N_COORD97":2542108.0299999998,"ADDRESS":"新興路９３巷２６號","OBJECTID":330366},"geometry":{"x":167617.88999999966,"y":2542108.0300000031}},{"attributes":{"ID":330376,"DIS_CODE":0,"TOWNNAME":"南區","LI":"田寮里","LIN":"15鄰","STREET":"新興路","SECT":" ","MAREA":" ","LANE":"９３巷","ALLEY":" ","HOUSE_NO":"２８號","E_COORD97":167617.22,"N_COORD97":2542104.48,"ADDRESS":"新興路９３巷２８號","OBJECTID":330367},"geometry":{"x":167617.22000000067,"y":2542104.4800000004}},{"attributes":{"ID":330377,"DIS_CODE":0,"TOWNNAME":"南區","LI":"田寮里","LIN":"15鄰","STREET":"新興路","SECT":" ","MAREA":" ","LANE":"９３巷","ALLEY":" ","HOUSE_NO":"３０號","E_COORD97":167616.54999999999,"N_COORD97":2542100.71,"ADDRESS":"新興路９３巷３０號","OBJECTID":330368},"geometry":{"x":167616.55000000075,"y":2542100.7100000009}},{"attributes":{"ID":330378,"DIS_CODE":0,"TOWNNAME":"南區","LI":"田寮里","LIN":"15鄰","STREET":"新興路","SECT":" ","MAREA":" ","LANE":"９３巷","ALLEY":" ","HOUSE_NO":"３２號","E_COORD97":167615.89000000001,"N_COORD97":2542096.9300000002,"ADDRESS":"新興路９３巷３２號","OBJECTID":330369},"geometry":{"x":167615.8900000006,"y":2542096.9300000016}},{"attributes":{"ID":330379,"DIS_CODE":0,"TOWNNAME":"南區","LI":"田寮里","LIN":"15鄰","STREET":"新興路","SECT":" ","MAREA":" ","LANE":"９３巷","ALLEY":" ","HOUSE_NO":"３４號","E_COORD97":167631.07000000001,"N_COORD97":2542092.8599999999,"ADDRESS":"新興路９３巷３４號","OBJECTID":330370},"geometry":{"x":167631.0700000003,"y":2542092.8600000013}},{"attributes":{"ID":330380,"DIS_CODE":0,"TOWNNAME":"南區","LI":"田寮里","LIN":"15鄰","STREET":"新興路","SECT":" ","MAREA":" ","LANE":"９３巷","ALLEY":" ","HOUSE_NO":"３６號","E_COORD97":167630.89000000001,"N_COORD97":2542097.0899999999,"ADDRESS":"新興路９３巷３６號","OBJECTID":330371},"geometry":{"x":167630.8900000006,"y":2542097.0899999999}},{"attributes":{"ID":330381,"DIS_CODE":0,"TOWNNAME":"南區","LI":"田寮里","LIN":"15鄰","STREET":"新興路","SECT":" ","MAREA":" ","LANE":"９３巷","ALLEY":" ","HOUSE_NO":"３８號","E_COORD97":167631.44,"N_COORD97":2542101.1299999999,"ADDRESS":"新興路９３巷３８號","OBJECTID":330372},"geometry":{"x":167631.44000000134,"y":2542101.1300000008}},{"attributes":{"ID":330382,"DIS_CODE":0,"TOWNNAME":"安南區","LI":"溪心里","LIN":"17鄰","STREET":"功安四街","SECT":" ","MAREA":" ","LANE":" ","ALLEY":" ","HOUSE_NO":"５８號","E_COORD97":166175.79000000001,"N_COORD97":2550201.1699999999,"ADDRESS":"功安四街５８號","OBJECTID":330373},"geometry":{"x":166175.79000000097,"y":2550201.1700000018}},{"attributes":{"ID":330383,"DIS_CODE":0,"TOWNNAME":"安南區","LI":"溪心里","LIN":"17鄰","STREET":"功安四街","SECT":" ","MAREA":" ","LANE":" ","ALLEY":" ","HOUSE_NO":"５９號","E_COORD97":166214.45000000001,"N_COORD97":2550110.27,"ADDRESS":"功安四街５９號","OBJECTID":330374},"geometry":{"x":166214.45000000019,"y":2550110.2699999996}},{"attributes":{"ID":330384,"DIS_CODE":0,"TOWNNAME":"安南區","LI":"溪心里","LIN":"17鄰","STREET":"功安四街","SECT":" ","MAREA":" ","LANE":" ","ALLEY":" ","HOUSE_NO":"６０號","E_COORD97":166173.34,"N_COORD97":2550204.6699999999,"ADDRESS":"功安四街６０號","OBJECTID":330375},"geometry":{"x":166173.34000000171,"y":2550204.6700000018}},{"attributes":{"ID":330385,"DIS_CODE":0,"TOWNNAME":"安南區","LI":"溪心里","LIN":"17鄰","STREET":"功安四街","SECT":" ","MAREA":" ","LANE":" ","ALLEY":" ","HOUSE_NO":"６１號","E_COORD97":166211.32000000001,"N_COORD97":2550114.1499999999,"ADDRESS":"功安四街６１號","OBJECTID":330376},"geometry":{"x":166211.32000000123,"y":2550114.1500000022}},{"attributes":{"ID":330386,"DIS_CODE":0,"TOWNNAME":"安南區","LI":"溪心里","LIN":"17鄰","STREET":"功安四街","SECT":" ","MAREA":" ","LANE":" ","ALLEY":" ","HOUSE_NO":"６２號","E_COORD97":166170.42000000001,"N_COORD97":2550208.8700000001,"ADDRESS":"功安四街６２號","OBJECTID":330377},"geometry":{"x":166170.41999999993,"y":2550208.870000001}},{"attributes":{"ID":330387,"DIS_CODE":0,"TOWNNAME":"安南區","LI":"溪心里","LIN":"17鄰","STREET":"功安四街","SECT":" ","MAREA":" ","LANE":" ","ALLEY":" ","HOUSE_NO":"６３號","E_COORD97":166208.53,"N_COORD97":2550117.46,"ADDRESS":"功安四街６３號","OBJECTID":330378},"geometry":{"x":166208.53000000119,"y":2550117.4600000009}},{"attributes":{"ID":330388,"DIS_CODE":0,"TOWNNAME":"安南區","LI":"溪心里","LIN":"17鄰","STREET":"功安四街","SECT":" ","MAREA":" ","LANE":" ","ALLEY":" ","HOUSE_NO":"６５號","E_COORD97":166206.35999999999,"N_COORD97":2550120.7599999998,"ADDRESS":"功安四街６５號","OBJECTID":330379},"geometry":{"x":166206.36000000127,"y":2550120.7599999998}},{"attributes":{"ID":330389,"DIS_CODE":0,"TOWNNAME":"安南區","LI":"溪心里","LIN":"17鄰","STREET":"功安四街","SECT":" ","MAREA":" ","LANE":" ","ALLEY":" ","HOUSE_NO":"６６號","E_COORD97":166163.42000000001,"N_COORD97":2550216.4500000002,"ADDRESS":"功安四街６６號","OBJECTID":330380},"geometry":{"x":166163.42000000086,"y":2550216.4499999993}},{"attributes":{"ID":330390,"DIS_CODE":0,"TOWNNAME":"安南區","LI":"溪心里","LIN":"17鄰","STREET":"功安四街","SECT":" ","MAREA":" ","LANE":" ","ALLEY":" ","HOUSE_NO":"６７號","E_COORD97":166203.14000000001,"N_COORD97":2550124.5899999999,"ADDRESS":"功安四街６７號","OBJECTID":330381},"geometry":{"x":166203.14000000153,"y":2550124.5899999999}},{"attributes":{"ID":330391,"DIS_CODE":0,"TOWNNAME":"安南區","LI":"溪心里","LIN":"17鄰","STREET":"功安四街","SECT":" ","MAREA":" ","LANE":" ","ALLEY":" ","HOUSE_NO":"６８號","E_COORD97":166160.85000000001,"N_COORD97":2550220.77,"ADDRESS":"功安四街６８號","OBJECTID":330382},"geometry":{"x":166160.84999999963,"y":2550220.7700000014}},{"attributes":{"ID":330392,"DIS_CODE":0,"TOWNNAME":"安南區","LI":"溪心里","LIN":"17鄰","STREET":"功安四街","SECT":" ","MAREA":" ","LANE":" ","ALLEY":" ","HOUSE_NO":"６９號","E_COORD97":166200.09,"N_COORD97":2550127.8900000001,"ADDRESS":"功安四街６９號","OBJECTID":330383},"geometry":{"x":166200.08999999985,"y":2550127.8900000006}},{"attributes":{"ID":330393,"DIS_CODE":0,"TOWNNAME":"永康區","LI":"尚頂里","LIN":" ","STREET":"正南一街","SECT":" ","MAREA":" ","LANE":"１０７巷","ALLEY":" ","HOUSE_NO":"１７號","E_COORD97":170795.54000000001,"N_COORD97":2547147.9300000002,"ADDRESS":"正南一街１０７巷１７號","OBJECTID":330384},"geometry":{"x":170795.54000000097,"y":2547147.9300000016}},{"attributes":{"ID":330394,"DIS_CODE":0,"TOWNNAME":"永康區","LI":"尚頂里","LIN":" ","STREET":"國聖街","SECT":" ","MAREA":" ","LANE":"４３巷","ALLEY":" ","HOUSE_NO":"６６號","E_COORD97":170230.63,"N_COORD97":2547625.73,"ADDRESS":"國聖街４３巷６６號","OBJECTID":330385},"geometry":{"x":170230.62999999989,"y":2547625.7300000004}},{"attributes":{"ID":330395,"DIS_CODE":0,"TOWNNAME":"永康區","LI":"尚頂里","LIN":" ","STREET":"國聖街","SECT":" ","MAREA":" ","LANE":"４３巷","ALLEY":" ","HOUSE_NO":"８１號","E_COORD97":170226.60999999999,"N_COORD97":2547590.2400000002,"ADDRESS":"國聖街４３巷８１號","OBJECTID":330386},"geometry":{"x":170226.61000000034,"y":2547590.2400000021}},{"attributes":{"ID":330396,"DIS_CODE":0,"TOWNNAME":"永康區","LI":"\u25A0洲里","LIN":"5鄰","STREET":"仁愛街","SECT":" ","MAREA":" ","LANE":"１０３巷","ALLEY":" ","HOUSE_NO":"９８號","E_COORD97":171855.13,"N_COORD97":2549583.77,"ADDRESS":"仁愛街１０３巷９８號","OBJECTID":330387},"geometry":{"x":171855.12999999896,"y":2549583.7700000014}},{"attributes":{"ID":330397,"DIS_CODE":0,"TOWNNAME":"永康區","LI":"勝利里","LIN":" ","STREET":"勝利街","SECT":" ","MAREA":" ","LANE":"１１３巷","ALLEY":" ","HOUSE_NO":"３號","E_COORD97":171337.31,"N_COORD97":2544916.5,"ADDRESS":"勝利街１１３巷３號","OBJECTID":330388},"geometry":{"x":171337.31000000052,"y":2544916.5000000019}},{"attributes":{"ID":330398,"DIS_CODE":0,"TOWNNAME":"南區","LI":"田寮里","LIN":"15鄰","STREET":"新興路","SECT":" ","MAREA":" ","LANE":"９３巷","ALLEY":" ","HOUSE_NO":"４０號","E_COORD97":167632.17999999999,"N_COORD97":2542104.8100000001,"ADDRESS":"新興路９３巷４０號","OBJECTID":330389},"geometry":{"x":167632.18000000063,"y":2542104.8100000024}},{"attributes":{"ID":330399,"DIS_CODE":0,"TOWNNAME":"南區","LI":"田寮里","LIN":"15鄰","STREET":"新興路","SECT":" ","MAREA":" ","LANE":"９３巷","ALLEY":" ","HOUSE_NO":"４２號","E_COORD97":167630.51999999999,"N_COORD97":2542112.1600000001,"ADDRESS":"新興路９３巷４２號","OBJECTID":330390},"geometry":{"x":167630.51999999955,"y":2542112.160000002}},{"attributes":{"ID":330400,"DIS_CODE":0,"TOWNNAME":"南區","LI":"田寮里","LIN":"15鄰","STREET":"新興路","SECT":" ","MAREA":" ","LANE":"９３巷","ALLEY":" ","HOUSE_NO":"４６號","E_COORD97":167643.60000000001,"N_COORD97":2542111.2400000002,"ADDRESS":"新興路９３巷４６號","OBJECTID":330391},"geometry":{"x":167643.59999999963,"y":2542111.2400000021}},{"attributes":{"ID":330401,"DIS_CODE":0,"TOWNNAME":"南區","LI":"田寮里","LIN":"15鄰","STREET":"新興路","SECT":" ","MAREA":" ","LANE":"９３巷","ALLEY":" ","HOUSE_NO":"４８號","E_COORD97":167656.67000000001,"N_COORD97":2542097.8199999998,"ADDRESS":"新興路９３巷４８號","OBJECTID":330392},"geometry":{"x":167656.67000000086,"y":2542097.8200000022}},{"attributes":{"ID":330402,"DIS_CODE":0,"TOWNNAME":"南區","LI":"田寮里","LIN":"15鄰","STREET":"新興路","SECT":" ","MAREA":" ","LANE":"９３巷","ALLEY":" ","HOUSE_NO":"４號","E_COORD97":167579.42999999999,"N_COORD97":2542132.7400000002,"ADDRESS":"新興路９３巷４號","OBJECTID":330393},"geometry":{"x":167579.43000000156,"y":2542132.7400000002}},{"attributes":{"ID":330403,"DIS_CODE":0,"TOWNNAME":"南區","LI":"田寮里","LIN":"15鄰","STREET":"新興路","SECT":" ","MAREA":" ","LANE":"９１巷","ALLEY":" ","HOUSE_NO":"１６號","E_COORD97":167635.04000000001,"N_COORD97":2542141.6600000001,"ADDRESS":"新興路９１巷１６號","OBJECTID":330394},"geometry":{"x":167635.0400000019,"y":2542141.6600000039}},{"attributes":{"ID":330404,"DIS_CODE":0,"TOWNNAME":"南區","LI":"田寮里","LIN":"15鄰","STREET":"新興路","SECT":" ","MAREA":" ","LANE":"９１巷","ALLEY":" ","HOUSE_NO":"１８號","E_COORD97":167640.57999999999,"N_COORD97":2542141.7599999998,"ADDRESS":"新興路９１巷１８號","OBJECTID":330395},"geometry":{"x":167640.58000000101,"y":2542141.7600000016}},{"attributes":{"ID":330405,"DIS_CODE":0,"TOWNNAME":"南區","LI":"田寮里","LIN":"15鄰","STREET":"新興路","SECT":" ","MAREA":" ","LANE":"９１巷","ALLEY":" ","HOUSE_NO":"４號","E_COORD97":167604.89999999999,"N_COORD97":2542144.8100000001,"ADDRESS":"新興路９１巷４號","OBJECTID":330396},"geometry":{"x":167604.9000000013,"y":2542144.8100000024}},{"attributes":{"ID":330406,"DIS_CODE":0,"TOWNNAME":"安平區","LI":"金城里","LIN":"15鄰","STREET":"州平三街","SECT":" ","MAREA":" ","LANE":"８巷","ALLEY":" ","HOUSE_NO":"２號","E_COORD97":162780.81,"N_COORD97":2544392.6600000001,"ADDRESS":"州平三街８巷２號","OBJECTID":330397},"geometry":{"x":162780.80999999959,"y":2544392.6599999983}},{"attributes":{"ID":330407,"DIS_CODE":0,"TOWNNAME":"安平區","LI":"金城里","LIN":"15鄰","STREET":"州平三街","SECT":" ","MAREA":" ","LANE":"８巷","ALLEY":" ","HOUSE_NO":"１號","E_COORD97":162782.56,"N_COORD97":2544387.8900000001,"ADDRESS":"州平三街８巷１號","OBJECTID":330398},"geometry":{"x":162782.55999999959,"y":2544387.8900000006}},{"attributes":{"ID":330408,"DIS_CODE":0,"TOWNNAME":"安南區","LI":"溪心里","LIN":"17鄰","STREET":"功安四街","SECT":" ","MAREA":" ","LANE":" ","ALLEY":" ","HOUSE_NO":"７０號","E_COORD97":166158.63,"N_COORD97":2550224.1499999999,"ADDRESS":"功安四街７０號","OBJECTID":330399},"geometry":{"x":166158.62999999989,"y":2550224.1500000004}},{"attributes":{"ID":330409,"DIS_CODE":0,"TOWNNAME":"安南區","LI":"溪心里","LIN":"17鄰","STREET":"功安四街","SECT":" ","MAREA":" ","LANE":" ","ALLEY":" ","HOUSE_NO":"７１號","E_COORD97":166197.39000000001,"N_COORD97":2550131.1899999999,"ADDRESS":"功安四街７１號","OBJECTID":330400},"geometry":{"x":166197.38999999966,"y":2550131.1899999995}}]}