{"displayFieldName":"TOWNNAME","fieldAliases":{"ID":"ID","DIS_CODE":"DIS_CODE","TOWNNAME":"TOWNNAME","LI":"LI","LIN":"LIN","STREET":"STREET","SECT":"SECT","MAREA":"MAREA","LANE":"LANE","ALLEY":"ALLEY","HOUSE_NO":"HOUSE_NO","E_COORD97":"E_COORD97","N_COORD97":"N_COORD97","ADDRESS":"ADDRESS","OBJECTID":"OBJECTID"},"geometryType":"esriGeometryPoint","spatialReference":{"wkid":102443,"latestWkid":3826},"fields":[{"name":"ID","type":"esriFieldTypeDouble","alias":"ID"},{"name":"DIS_CODE","type":"esriFieldTypeInteger","alias":"DIS_CODE"},{"name":"TOWNNAME","type":"esriFieldTypeString","alias":"TOWNNAME","length":8},{"name":"LI","type":"esriFieldTypeString","alias":"LI","length":8},{"name":"LIN","type":"esriFieldTypeString","alias":"LIN","length":12},{"name":"STREET","type":"esriFieldTypeString","alias":"STREET","length":20},{"name":"SECT","type":"esriFieldTypeString","alias":"SECT","length":8},{"name":"MAREA","type":"esriFieldTypeString","alias":"MAREA","length":12},{"name":"LANE","type":"esriFieldTypeString","alias":"LANE","length":10},{"name":"ALLEY","type":"esriFieldTypeString","alias":"ALLEY","length":10},{"name":"HOUSE_NO","type":"esriFieldTypeString","alias":"HOUSE_NO","length":20},{"name":"E_COORD97","type":"esriFieldTypeDouble","alias":"E_COORD97"},{"name":"N_COORD97","type":"esriFieldTypeDouble","alias":"N_COORD97"},{"name":"ADDRESS","type":"esriFieldTypeString","alias":"ADDRESS","length":50},{"name":"OBJECTID","type":"esriFieldTypeOID","alias":"OBJECTID"}],"features":[{"attributes":{"ID":297609,"DIS_CODE":0,"TOWNNAME":"善化區","LI":"東關里","LIN":"17鄰","STREET":"中興路","SECT":" ","MAREA":" ","LANE":"６９巷","ALLEY":" ","HOUSE_NO":"３號","E_COORD97":177573.92000000001,"N_COORD97":2558985.25,"ADDRESS":"中興路６９巷３號","OBJECTID":297601},"geometry":{"x":177573.91999999993,"y":2558985.2500000019}},{"attributes":{"ID":297610,"DIS_CODE":0,"TOWNNAME":"善化區","LI":"坐駕里","LIN":"17鄰","STREET":"中正路","SECT":" ","MAREA":" ","LANE":"６６巷","ALLEY":" ","HOUSE_NO":"１０５號","E_COORD97":178169.92000000001,"N_COORD97":2557821.5,"ADDRESS":"中正路６６巷１０５號","OBJECTID":297602},"geometry":{"x":178169.92000000086,"y":2557821.5}},{"attributes":{"ID":297611,"DIS_CODE":0,"TOWNNAME":"善化區","LI":"坐駕里","LIN":"17鄰","STREET":"文化路","SECT":" ","MAREA":" ","LANE":"８２巷","ALLEY":" ","HOUSE_NO":"１３號","E_COORD97":177966.98000000001,"N_COORD97":2558411.2799999998,"ADDRESS":"文化路８２巷１３號","OBJECTID":297603},"geometry":{"x":177966.98000000138,"y":2558411.2800000012}},{"attributes":{"ID":297612,"DIS_CODE":0,"TOWNNAME":"中西區","LI":"三民里","LIN":"17鄰","STREET":"公園路","SECT":" ","MAREA":" ","LANE":"６５巷","ALLEY":" ","HOUSE_NO":"１號","E_COORD97":168542.72,"N_COORD97":2543963.54,"ADDRESS":"公園路６５巷１號","OBJECTID":297604},"geometry":{"x":168542.72000000067,"y":2543963.540000001}},{"attributes":{"ID":297613,"DIS_CODE":0,"TOWNNAME":"中西區","LI":"三民里","LIN":"17鄰","STREET":"公園路","SECT":" ","MAREA":" ","LANE":"６５巷","ALLEY":" ","HOUSE_NO":"２號","E_COORD97":168533.25,"N_COORD97":2543965.4300000002,"ADDRESS":"公園路６５巷２號","OBJECTID":297605},"geometry":{"x":168533.25,"y":2543965.4299999997}},{"attributes":{"ID":297614,"DIS_CODE":0,"TOWNNAME":"中西區","LI":"三民里","LIN":"17鄰","STREET":"公園路","SECT":" ","MAREA":" ","LANE":"６５巷","ALLEY":" ","HOUSE_NO":"３號","E_COORD97":168520.69,"N_COORD97":2543968.7400000002,"ADDRESS":"公園路６５巷３號","OBJECTID":297606},"geometry":{"x":168520.69000000041,"y":2543968.7400000039}},{"attributes":{"ID":297615,"DIS_CODE":0,"TOWNNAME":"中西區","LI":"三民里","LIN":"17鄰","STREET":"公園路","SECT":" ","MAREA":" ","LANE":"６５巷","ALLEY":" ","HOUSE_NO":"５號","E_COORD97":168517.60999999999,"N_COORD97":2543966.6099999999,"ADDRESS":"公園路６５巷５號","OBJECTID":297607},"geometry":{"x":168517.61000000034,"y":2543966.6100000013}},{"attributes":{"ID":297616,"DIS_CODE":0,"TOWNNAME":"中西區","LI":"三民里","LIN":"17鄰","STREET":"公園路","SECT":" ","MAREA":" ","LANE":"６５巷","ALLEY":" ","HOUSE_NO":"６號","E_COORD97":168513.35000000001,"N_COORD97":2543968.27,"ADDRESS":"公園路６５巷６號","OBJECTID":297608},"geometry":{"x":168513.34999999963,"y":2543968.2700000014}},{"attributes":{"ID":297617,"DIS_CODE":0,"TOWNNAME":"中西區","LI":"三民里","LIN":"17鄰","STREET":"民權路","SECT":"二段","MAREA":" ","LANE":"６４巷","ALLEY":" ","HOUSE_NO":"３２號","E_COORD97":168505.06,"N_COORD97":2543968.5,"ADDRESS":"民權路二段６４巷３２號","OBJECTID":297609},"geometry":{"x":168505.05999999959,"y":2543968.5}},{"attributes":{"ID":297618,"DIS_CODE":0,"TOWNNAME":"中西區","LI":"三民里","LIN":"17鄰","STREET":"民權路","SECT":"二段","MAREA":" ","LANE":"６４巷","ALLEY":" ","HOUSE_NO":"３４號","E_COORD97":168505.54000000001,"N_COORD97":2543974.4199999999,"ADDRESS":"民權路二段６４巷３４號","OBJECTID":297610},"geometry":{"x":168505.54000000004,"y":2543974.4200000018}},{"attributes":{"ID":297619,"DIS_CODE":0,"TOWNNAME":"中西區","LI":"三民里","LIN":"17鄰","STREET":"民權路","SECT":"二段","MAREA":" ","LANE":"６４巷","ALLEY":" ","HOUSE_NO":"３４號之１","E_COORD97":168505.60999999999,"N_COORD97":2543973.9399999999,"ADDRESS":"民權路二段６４巷３４號之１","OBJECTID":297611},"geometry":{"x":168505.61000000034,"y":2543973.9400000013}},{"attributes":{"ID":297620,"DIS_CODE":0,"TOWNNAME":"中西區","LI":"三民里","LIN":"17鄰","STREET":"民權路","SECT":"二段","MAREA":" ","LANE":"６４巷","ALLEY":" ","HOUSE_NO":"３６號","E_COORD97":168515.01000000001,"N_COORD97":2543985.5299999998,"ADDRESS":"民權路二段６４巷３６號","OBJECTID":297612},"geometry":{"x":168515.01000000071,"y":2543985.5299999993}},{"attributes":{"ID":297621,"DIS_CODE":0,"TOWNNAME":"中西區","LI":"三民里","LIN":"17鄰","STREET":"民權路","SECT":"二段","MAREA":" ","LANE":"６４巷","ALLEY":" ","HOUSE_NO":"３８號","E_COORD97":168506.25,"N_COORD97":2543981.75,"ADDRESS":"民權路二段６４巷３８號","OBJECTID":297613},"geometry":{"x":168506.25,"y":2543981.7500000037}},{"attributes":{"ID":297622,"DIS_CODE":0,"TOWNNAME":"中西區","LI":"三民里","LIN":"17鄰","STREET":"民權路","SECT":"二段","MAREA":" ","LANE":"６４巷","ALLEY":" ","HOUSE_NO":"４０號","E_COORD97":168507.42999999999,"N_COORD97":2543987.1899999999,"ADDRESS":"民權路二段６４巷４０號","OBJECTID":297614},"geometry":{"x":168507.43000000063,"y":2543987.1899999995}},{"attributes":{"ID":297623,"DIS_CODE":0,"TOWNNAME":"中西區","LI":"三民里","LIN":"17鄰","STREET":"民權路","SECT":"二段","MAREA":" ","LANE":"６４巷","ALLEY":" ","HOUSE_NO":"４０號之１","E_COORD97":168519.98999999999,"N_COORD97":2543985.8999999999,"ADDRESS":"民權路二段６４巷４０號之１","OBJECTID":297615},"geometry":{"x":168519.99000000022,"y":2543985.9000000022}},{"attributes":{"ID":297624,"DIS_CODE":0,"TOWNNAME":"中西區","LI":"三民里","LIN":"17鄰","STREET":"民權路","SECT":"二段","MAREA":" ","LANE":"６４巷","ALLEY":" ","HOUSE_NO":"４６號","E_COORD97":168528.81,"N_COORD97":2544007.2999999998,"ADDRESS":"民權路二段６４巷４６號","OBJECTID":297616},"geometry":{"x":168528.80999999959,"y":2544007.3000000026}},{"attributes":{"ID":297625,"DIS_CODE":0,"TOWNNAME":"中西區","LI":"三民里","LIN":"17鄰","STREET":"民權路","SECT":"二段","MAREA":" ","LANE":"６４巷","ALLEY":" ","HOUSE_NO":"４８號","E_COORD97":168516.42999999999,"N_COORD97":2543994.9900000002,"ADDRESS":"民權路二段６４巷４８號","OBJECTID":297617},"geometry":{"x":168516.4299999997,"y":2543994.9900000021}},{"attributes":{"ID":297626,"DIS_CODE":0,"TOWNNAME":"中西區","LI":"三民里","LIN":"17鄰","STREET":"民權路","SECT":"二段","MAREA":" ","LANE":"６４巷","ALLEY":" ","HOUSE_NO":"５０號","E_COORD97":168510.04000000001,"N_COORD97":2543996.4100000001,"ADDRESS":"民權路二段６４巷５０號","OBJECTID":297618},"geometry":{"x":168510.04000000097,"y":2543996.4100000001}},{"attributes":{"ID":297627,"DIS_CODE":0,"TOWNNAME":"中西區","LI":"三民里","LIN":"17鄰","STREET":"民權路","SECT":"二段","MAREA":" ","LANE":"６４巷","ALLEY":" ","HOUSE_NO":"５２號","E_COORD97":168512.23000000001,"N_COORD97":2544004.6899999999,"ADDRESS":"民權路二段６４巷５２號","OBJECTID":297619},"geometry":{"x":168512.23000000231,"y":2544004.6899999995}},{"attributes":{"ID":297628,"DIS_CODE":0,"TOWNNAME":"中西區","LI":"三民里","LIN":"17鄰","STREET":"民權路","SECT":"二段","MAREA":" ","LANE":"６４巷","ALLEY":" ","HOUSE_NO":"５４號","E_COORD97":168512.70000000001,"N_COORD97":2544008.2400000002,"ADDRESS":"民權路二段６４巷５４號","OBJECTID":297620},"geometry":{"x":168512.70000000112,"y":2544008.2400000002}},{"attributes":{"ID":297629,"DIS_CODE":0,"TOWNNAME":"中西區","LI":"三民里","LIN":"17鄰","STREET":"民權路","SECT":"二段","MAREA":" ","LANE":"６４巷","ALLEY":" ","HOUSE_NO":"５６號","E_COORD97":168512.94,"N_COORD97":2544011.0800000001,"ADDRESS":"民權路二段６４巷５６號","OBJECTID":297621},"geometry":{"x":168512.94000000134,"y":2544011.0800000019}},{"attributes":{"ID":297630,"DIS_CODE":0,"TOWNNAME":"中西區","LI":"三民里","LIN":"17鄰","STREET":"忠義路","SECT":"二段","MAREA":" ","LANE":"１５８巷","ALLEY":" ","HOUSE_NO":"６６號","E_COORD97":168514.12,"N_COORD97":2544015.3399999999,"ADDRESS":"忠義路二段１５８巷６６號","OBJECTID":297622},"geometry":{"x":168514.12000000011,"y":2544015.3400000017}},{"attributes":{"ID":297631,"DIS_CODE":0,"TOWNNAME":"中西區","LI":"三民里","LIN":"17鄰","STREET":"忠義路","SECT":"二段","MAREA":" ","LANE":"１５８巷","ALLEY":" ","HOUSE_NO":"６８號","E_COORD97":168519.81,"N_COORD97":2544016.52,"ADDRESS":"忠義路二段１５８巷６８號","OBJECTID":297623},"geometry":{"x":168519.81000000052,"y":2544016.5199999996}},{"attributes":{"ID":297632,"DIS_CODE":0,"TOWNNAME":"中西區","LI":"三民里","LIN":"17鄰","STREET":"忠義路","SECT":"二段","MAREA":" ","LANE":"１５８巷","ALLEY":" ","HOUSE_NO":"７０號","E_COORD97":168522.89000000001,"N_COORD97":2544015.3399999999,"ADDRESS":"忠義路二段１５８巷７０號","OBJECTID":297624},"geometry":{"x":168522.8900000006,"y":2544015.3400000017}},{"attributes":{"ID":297633,"DIS_CODE":0,"TOWNNAME":"中西區","LI":"三民里","LIN":"17鄰","STREET":"忠義路","SECT":"二段","MAREA":" ","LANE":"１５８巷","ALLEY":" ","HOUSE_NO":"７２號","E_COORD97":168529.28,"N_COORD97":2544019.8300000001,"ADDRESS":"忠義路二段１５８巷７２號","OBJECTID":297625},"geometry":{"x":168529.28000000119,"y":2544019.8300000019}},{"attributes":{"ID":297634,"DIS_CODE":0,"TOWNNAME":"仁德區","LI":"仁愛里","LIN":"24鄰","STREET":"保仁路","SECT":" ","MAREA":" ","LANE":" ","ALLEY":" ","HOUSE_NO":"２６０號一樓之２","E_COORD97":169972.28109999999,"N_COORD97":2540064.8995400001,"ADDRESS":"保仁路２６０號一樓之２","OBJECTID":297626},"geometry":{"x":169972.28110000212,"y":2540064.8995400015}},{"attributes":{"ID":297635,"DIS_CODE":0,"TOWNNAME":"永康區","LI":"三合里","LIN":"24鄰","STREET":"南工街","SECT":" ","MAREA":" ","LANE":"２６７巷","ALLEY":" ","HOUSE_NO":"４６號八樓之３","E_COORD97":171855.34,"N_COORD97":2545843.79,"ADDRESS":"南工街２６７巷４６號八樓之３","OBJECTID":297627},"geometry":{"x":171855.33999999985,"y":2545843.7899999991}},{"attributes":{"ID":297636,"DIS_CODE":0,"TOWNNAME":"仁德區","LI":"太子里","LIN":"4鄰","STREET":"太子路","SECT":" ","MAREA":" ","LANE":"１９０巷","ALLEY":" ","HOUSE_NO":"２８號五樓","E_COORD97":174347.28,"N_COORD97":2543665.5,"ADDRESS":"太子路１９０巷２８號五樓","OBJECTID":297628},"geometry":{"x":174347.28000000119,"y":2543665.5000000019}},{"attributes":{"ID":297637,"DIS_CODE":0,"TOWNNAME":"中西區","LI":"三民里","LIN":"17鄰","STREET":"忠義路","SECT":"二段","MAREA":" ","LANE":"１５８巷","ALLEY":" ","HOUSE_NO":"７４號","E_COORD97":168539.70000000001,"N_COORD97":2544017.9399999999,"ADDRESS":"忠義路二段１５８巷７４號","OBJECTID":297629},"geometry":{"x":168539.70000000112,"y":2544017.9400000013}},{"attributes":{"ID":297638,"DIS_CODE":0,"TOWNNAME":"中西區","LI":"三民里","LIN":"17鄰","STREET":"忠義路","SECT":"二段","MAREA":" ","LANE":"１５８巷","ALLEY":" ","HOUSE_NO":"７６號","E_COORD97":168549.41,"N_COORD97":2544015.5699999998,"ADDRESS":"忠義路二段１５８巷７６號","OBJECTID":297630},"geometry":{"x":168549.41000000015,"y":2544015.5700000022}},{"attributes":{"ID":297639,"DIS_CODE":0,"TOWNNAME":"永康區","LI":"\u25A0行里","LIN":"17鄰","STREET":"中正路","SECT":" ","MAREA":" ","LANE":"６３５巷","ALLEY":" ","HOUSE_NO":"１２號","E_COORD97":171722.20000000001,"N_COORD97":2548908.2200000002,"ADDRESS":"中正路６３５巷１２號","OBJECTID":297631},"geometry":{"x":171722.20000000019,"y":2548908.2200000007}},{"attributes":{"ID":297640,"DIS_CODE":0,"TOWNNAME":"新營區","LI":"大宏里","LIN":"3鄰","STREET":"民族路","SECT":" ","MAREA":" ","LANE":" ","ALLEY":" ","HOUSE_NO":"４２號之２","E_COORD97":180290.14765999999,"N_COORD97":2578767.3333899998,"ADDRESS":"民族路４２號之２","OBJECTID":297632},"geometry":{"x":180290.14766000118,"y":2578767.3333900012}},{"attributes":{"ID":297641,"DIS_CODE":0,"TOWNNAME":"永康區","LI":"\u25A0行里","LIN":"17鄰","STREET":"中正南路","SECT":" ","MAREA":" ","LANE":"６９２巷","ALLEY":" ","HOUSE_NO":"１號","E_COORD97":171672.45999999999,"N_COORD97":2548870.9900000002,"ADDRESS":"中正南路６９２巷１號","OBJECTID":297633},"geometry":{"x":171672.46000000089,"y":2548870.9900000021}},{"attributes":{"ID":297642,"DIS_CODE":0,"TOWNNAME":"安南區","LI":"淵東里","LIN":"17鄰","STREET":"智安三街","SECT":" ","MAREA":" ","LANE":"５３巷","ALLEY":" ","HOUSE_NO":"２號","E_COORD97":165857.10759599999,"N_COORD97":2550174.1007900001,"ADDRESS":"智安三街５３巷２號","OBJECTID":297634},"geometry":{"x":165857.10759599973,"y":2550174.1007870007}},{"attributes":{"ID":297643,"DIS_CODE":0,"TOWNNAME":"中西區","LI":"大涼里","LIN":"17鄰","STREET":"府前一街","SECT":" ","MAREA":" ","LANE":"１０９巷","ALLEY":" ","HOUSE_NO":"１５號","E_COORD97":166695.57000000001,"N_COORD97":2543974.1400000001,"ADDRESS":"府前一街１０９巷１５號","OBJECTID":297635},"geometry":{"x":166695.5700000003,"y":2543974.1400000025}},{"attributes":{"ID":297644,"DIS_CODE":0,"TOWNNAME":"中西區","LI":"大涼里","LIN":"17鄰","STREET":"府前一街","SECT":" ","MAREA":" ","LANE":"１０９巷","ALLEY":" ","HOUSE_NO":"１７號","E_COORD97":166691.51999999999,"N_COORD97":2543973.0299999998,"ADDRESS":"府前一街１０９巷１７號","OBJECTID":297636},"geometry":{"x":166691.51999999955,"y":2543973.0300000012}},{"attributes":{"ID":297645,"DIS_CODE":0,"TOWNNAME":"安南區","LI":"學東里","LIN":"14鄰","STREET":"公學路","SECT":"七段","MAREA":" ","LANE":" ","ALLEY":" ","HOUSE_NO":"１０１號","E_COORD97":161743.47,"N_COORD97":2553390.46,"ADDRESS":"公學路七段１０１號","OBJECTID":297637},"geometry":{"x":161743.47000000067,"y":2553390.4600000028}},{"attributes":{"ID":297646,"DIS_CODE":0,"TOWNNAME":"安南區","LI":"學東里","LIN":"14鄰","STREET":"公學路","SECT":"七段","MAREA":" ","LANE":" ","ALLEY":" ","HOUSE_NO":"１０３號","E_COORD97":161748.81,"N_COORD97":2553390.7599999998,"ADDRESS":"公學路七段１０３號","OBJECTID":297638},"geometry":{"x":161748.81000000145,"y":2553390.7600000016}},{"attributes":{"ID":297647,"DIS_CODE":0,"TOWNNAME":"安南區","LI":"學東里","LIN":"14鄰","STREET":"公學路","SECT":"七段","MAREA":" ","LANE":" ","ALLEY":" ","HOUSE_NO":"１０５號","E_COORD97":161754.73999999999,"N_COORD97":2553388.98,"ADDRESS":"公學路七段１０５號","OBJECTID":297639},"geometry":{"x":161754.74000000022,"y":2553388.9800000042}},{"attributes":{"ID":297648,"DIS_CODE":0,"TOWNNAME":"中西區","LI":"大涼里","LIN":"17鄰","STREET":"府前一街","SECT":" ","MAREA":" ","LANE":"１０９巷","ALLEY":" ","HOUSE_NO":"１９號","E_COORD97":166687.31,"N_COORD97":2543972.6000000001,"ADDRESS":"府前一街１０９巷１９號","OBJECTID":297640},"geometry":{"x":166687.31000000052,"y":2543972.6000000015}},{"attributes":{"ID":297649,"DIS_CODE":0,"TOWNNAME":"中西區","LI":"大涼里","LIN":"17鄰","STREET":"府前一街","SECT":" ","MAREA":" ","LANE":"１０９巷","ALLEY":" ","HOUSE_NO":"１號","E_COORD97":166726.23000000001,"N_COORD97":2543981.6400000001,"ADDRESS":"府前一街１０９巷１號","OBJECTID":297641},"geometry":{"x":166726.23000000138,"y":2543981.6400000006}},{"attributes":{"ID":297650,"DIS_CODE":0,"TOWNNAME":"中西區","LI":"大涼里","LIN":"17鄰","STREET":"府前一街","SECT":" ","MAREA":" ","LANE":"１０９巷","ALLEY":" ","HOUSE_NO":"２１號","E_COORD97":166681.98000000001,"N_COORD97":2543971.0499999998,"ADDRESS":"府前一街１０９巷２１號","OBJECTID":297642},"geometry":{"x":166681.98000000138,"y":2543971.0500000026}},{"attributes":{"ID":297651,"DIS_CODE":0,"TOWNNAME":"中西區","LI":"大涼里","LIN":"17鄰","STREET":"府前一街","SECT":" ","MAREA":" ","LANE":"１０９巷","ALLEY":" ","HOUSE_NO":"２３號","E_COORD97":166678.19,"N_COORD97":2543969.3300000001,"ADDRESS":"府前一街１０９巷２３號","OBJECTID":297643},"geometry":{"x":166678.18999999948,"y":2543969.3300000019}},{"attributes":{"ID":297652,"DIS_CODE":0,"TOWNNAME":"中西區","LI":"大涼里","LIN":"17鄰","STREET":"府前一街","SECT":" ","MAREA":" ","LANE":"１０９巷","ALLEY":" ","HOUSE_NO":"３１號","E_COORD97":166660.82000000001,"N_COORD97":2543964.6099999999,"ADDRESS":"府前一街１０９巷３１號","OBJECTID":297644},"geometry":{"x":166660.82000000123,"y":2543964.6099999994}},{"attributes":{"ID":297653,"DIS_CODE":0,"TOWNNAME":"中西區","LI":"大涼里","LIN":"17鄰","STREET":"府前一街","SECT":" ","MAREA":" ","LANE":"１０９巷","ALLEY":" ","HOUSE_NO":"３號","E_COORD97":166722.23000000001,"N_COORD97":2543980.5800000001,"ADDRESS":"府前一街１０９巷３號","OBJECTID":297645},"geometry":{"x":166722.23000000231,"y":2543980.5800000019}},{"attributes":{"ID":297654,"DIS_CODE":0,"TOWNNAME":"中西區","LI":"大涼里","LIN":"17鄰","STREET":"府前一街","SECT":" ","MAREA":" ","LANE":"１０９巷","ALLEY":" ","HOUSE_NO":"５號","E_COORD97":166717.67999999999,"N_COORD97":2543979.8599999999,"ADDRESS":"府前一街１０９巷５號","OBJECTID":297646},"geometry":{"x":166717.6799999997,"y":2543979.8599999994}},{"attributes":{"ID":297655,"DIS_CODE":0,"TOWNNAME":"永康區","LI":"復興里","LIN":"17鄰","STREET":"復興路","SECT":" ","MAREA":" ","LANE":"３５６巷","ALLEY":" ","HOUSE_NO":"５５號","E_COORD97":172306.54999999999,"N_COORD97":2544469.3500000001,"ADDRESS":"復興路３５６巷５５號","OBJECTID":297647},"geometry":{"x":172306.54999999888,"y":2544469.3500000015}},{"attributes":{"ID":297656,"DIS_CODE":0,"TOWNNAME":"永康區","LI":"埔園里","LIN":"17鄰","STREET":"中山路","SECT":" ","MAREA":" ","LANE":"３８３巷","ALLEY":" ","HOUSE_NO":"３號之４","E_COORD97":173488.56,"N_COORD97":2548489.0499999998,"ADDRESS":"中山路３８３巷３號之４","OBJECTID":297648},"geometry":{"x":173488.56000000052,"y":2548489.0500000007}},{"attributes":{"ID":297657,"DIS_CODE":0,"TOWNNAME":"永康區","LI":"復國里","LIN":"17鄰","STREET":"國華街","SECT":" ","MAREA":" ","LANE":"１８巷","ALLEY":" ","HOUSE_NO":"７號","E_COORD97":172867.01999999999,"N_COORD97":2545617.75,"ADDRESS":"國華街１８巷７號","OBJECTID":297649},"geometry":{"x":172867.01999999955,"y":2545617.75}},{"attributes":{"ID":297658,"DIS_CODE":0,"TOWNNAME":"佳里區","LI":"東寧里","LIN":"17鄰","STREET":"延平路","SECT":" ","MAREA":" ","LANE":"３５０巷","ALLEY":" ","HOUSE_NO":"２１號","E_COORD97":165940.45000000001,"N_COORD97":2562488.8799999999,"ADDRESS":"延平路３５０巷２１號","OBJECTID":297650},"geometry":{"x":165940.45000000019,"y":2562488.8800000008}},{"attributes":{"ID":297659,"DIS_CODE":0,"TOWNNAME":"佳里區","LI":"東寧里","LIN":"17鄰","STREET":"延平路","SECT":" ","MAREA":" ","LANE":"３５０巷","ALLEY":" ","HOUSE_NO":"２３號","E_COORD97":165941.54000000001,"N_COORD97":2562485.04,"ADDRESS":"延平路３５０巷２３號","OBJECTID":297651},"geometry":{"x":165941.5400000019,"y":2562485.040000001}},{"attributes":{"ID":297660,"DIS_CODE":0,"TOWNNAME":"佳里區","LI":"東寧里","LIN":"17鄰","STREET":"延平路","SECT":" ","MAREA":" ","LANE":"３５０巷","ALLEY":" ","HOUSE_NO":"２５號","E_COORD97":165942.75,"N_COORD97":2562480.8500000001,"ADDRESS":"延平路３５０巷２５號","OBJECTID":297652},"geometry":{"x":165942.75,"y":2562480.8499999996}},{"attributes":{"ID":297661,"DIS_CODE":0,"TOWNNAME":"佳里區","LI":"東寧里","LIN":"17鄰","STREET":"延平路","SECT":" ","MAREA":" ","LANE":"３５０巷","ALLEY":" ","HOUSE_NO":"２７號","E_COORD97":165943.87,"N_COORD97":2562476.79,"ADDRESS":"延平路３５０巷２７號","OBJECTID":297653},"geometry":{"x":165943.87000000011,"y":2562476.790000001}},{"attributes":{"ID":297662,"DIS_CODE":0,"TOWNNAME":"佳里區","LI":"東寧里","LIN":"17鄰","STREET":"延平路","SECT":" ","MAREA":" ","LANE":"３５０巷","ALLEY":" ","HOUSE_NO":"２８號","E_COORD97":165930.98999999999,"N_COORD97":2562474.29,"ADDRESS":"延平路３５０巷２８號","OBJECTID":297654},"geometry":{"x":165930.99000000115,"y":2562474.2899999991}},{"attributes":{"ID":297663,"DIS_CODE":0,"TOWNNAME":"佳里區","LI":"東寧里","LIN":"17鄰","STREET":"延平路","SECT":" ","MAREA":" ","LANE":"３５０巷","ALLEY":" ","HOUSE_NO":"３２號","E_COORD97":165932.63,"N_COORD97":2562464.5,"ADDRESS":"延平路３５０巷３２號","OBJECTID":297655},"geometry":{"x":165932.63000000082,"y":2562464.5000000037}},{"attributes":{"ID":297664,"DIS_CODE":0,"TOWNNAME":"佳里區","LI":"東寧里","LIN":"17鄰","STREET":"延平路","SECT":" ","MAREA":" ","LANE":"３５０巷","ALLEY":" ","HOUSE_NO":"３３號","E_COORD97":165947.03,"N_COORD97":2562465.1800000002,"ADDRESS":"延平路３５０巷３３號","OBJECTID":297656},"geometry":{"x":165947.03000000212,"y":2562465.1799999997}},{"attributes":{"ID":297665,"DIS_CODE":0,"TOWNNAME":"佳里區","LI":"東寧里","LIN":"17鄰","STREET":"延平路","SECT":" ","MAREA":" ","LANE":"３５０巷","ALLEY":" ","HOUSE_NO":"３４號","E_COORD97":165933.85000000001,"N_COORD97":2562460.5,"ADDRESS":"延平路３５０巷３４號","OBJECTID":297657},"geometry":{"x":165933.85000000149,"y":2562460.5}},{"attributes":{"ID":297666,"DIS_CODE":0,"TOWNNAME":"永康區","LI":"永康里","LIN":"17鄰","STREET":"永中街","SECT":" ","MAREA":" ","LANE":"１１８巷","ALLEY":" ","HOUSE_NO":"２１號","E_COORD97":174030.47,"N_COORD97":2547215.4900000002,"ADDRESS":"永中街１１８巷２１號","OBJECTID":297658},"geometry":{"x":174030.46999999974,"y":2547215.4900000021}},{"attributes":{"ID":297667,"DIS_CODE":0,"TOWNNAME":"北區","LI":"賢北里","LIN":"17鄰","STREET":"和緯路","SECT":"五段","MAREA":" ","LANE":"２３４巷","ALLEY":" ","HOUSE_NO":"４６號","E_COORD97":166041.81,"N_COORD97":2545252.54,"ADDRESS":"和緯路五段２３４巷４６號","OBJECTID":297659},"geometry":{"x":166041.80999999959,"y":2545252.5399999991}},{"attributes":{"ID":297668,"DIS_CODE":0,"TOWNNAME":"北區","LI":"賢北里","LIN":"17鄰","STREET":"和緯路","SECT":"五段","MAREA":" ","LANE":"２３４巷","ALLEY":" ","HOUSE_NO":"４８號","E_COORD97":166047.76999999999,"N_COORD97":2545255.52,"ADDRESS":"和緯路五段２３４巷４８號","OBJECTID":297660},"geometry":{"x":166047.76999999955,"y":2545255.5200000014}},{"attributes":{"ID":297669,"DIS_CODE":0,"TOWNNAME":"北區","LI":"小康里","LIN":"17鄰","STREET":"大武街","SECT":" ","MAREA":" ","LANE":"４０１巷","ALLEY":" ","HOUSE_NO":"１０號","E_COORD97":169767.48000000001,"N_COORD97":2546513.4700000002,"ADDRESS":"大武街４０１巷１０號","OBJECTID":297661},"geometry":{"x":169767.48000000138,"y":2546513.4699999988}},{"attributes":{"ID":297670,"DIS_CODE":0,"TOWNNAME":"北區","LI":"小康里","LIN":"17鄰","STREET":"大武街","SECT":" ","MAREA":" ","LANE":"４０１巷","ALLEY":" ","HOUSE_NO":"１２號","E_COORD97":169767.60000000001,"N_COORD97":2546518.52,"ADDRESS":"大武街４０１巷１２號","OBJECTID":297662},"geometry":{"x":169767.59999999963,"y":2546518.5199999996}},{"attributes":{"ID":297671,"DIS_CODE":0,"TOWNNAME":"北區","LI":"小康里","LIN":"17鄰","STREET":"大武街","SECT":" ","MAREA":" ","LANE":"４０１巷","ALLEY":" ","HOUSE_NO":"１４號","E_COORD97":169767.48000000001,"N_COORD97":2546522.5299999998,"ADDRESS":"大武街４０１巷１４號","OBJECTID":297663},"geometry":{"x":169767.48000000138,"y":2546522.5300000012}},{"attributes":{"ID":297672,"DIS_CODE":0,"TOWNNAME":"北區","LI":"小康里","LIN":"17鄰","STREET":"大武街","SECT":" ","MAREA":" ","LANE":"４０１巷","ALLEY":" ","HOUSE_NO":"１８號","E_COORD97":169767.91895200001,"N_COORD97":2546529.6137100002,"ADDRESS":"大武街４０１巷１８號","OBJECTID":297664},"geometry":{"x":169767.91895200033,"y":2546529.6137060001}},{"attributes":{"ID":297673,"DIS_CODE":0,"TOWNNAME":"南區","LI":"新興里","LIN":"17鄰","STREET":"三官路","SECT":" ","MAREA":" ","LANE":"８９巷","ALLEY":" ","HOUSE_NO":"３６號","E_COORD97":167427.64000000001,"N_COORD97":2542186.8100000001,"ADDRESS":"三官路８９巷３６號","OBJECTID":297665},"geometry":{"x":167427.6400000006,"y":2542186.8100000005}},{"attributes":{"ID":297674,"DIS_CODE":0,"TOWNNAME":"南區","LI":"新興里","LIN":"17鄰","STREET":"三官路","SECT":" ","MAREA":" ","LANE":"８９巷","ALLEY":" ","HOUSE_NO":"３８號","E_COORD97":167428.79000000001,"N_COORD97":2542191.7200000002,"ADDRESS":"三官路８９巷３８號","OBJECTID":297666},"geometry":{"x":167428.79000000097,"y":2542191.7200000007}},{"attributes":{"ID":297675,"DIS_CODE":0,"TOWNNAME":"南區","LI":"新興里","LIN":"17鄰","STREET":"三官路","SECT":" ","MAREA":" ","LANE":"８９巷","ALLEY":" ","HOUSE_NO":"３號","E_COORD97":167387.95000000001,"N_COORD97":2542209.3300000001,"ADDRESS":"三官路８９巷３號","OBJECTID":297667},"geometry":{"x":167387.95000000019,"y":2542209.3300000019}},{"attributes":{"ID":297676,"DIS_CODE":0,"TOWNNAME":"南區","LI":"新興里","LIN":"17鄰","STREET":"三官路","SECT":" ","MAREA":" ","LANE":"８９巷","ALLEY":" ","HOUSE_NO":"４０號","E_COORD97":167432.95000000001,"N_COORD97":2542194.2799999998,"ADDRESS":"三官路８９巷４０號","OBJECTID":297668},"geometry":{"x":167432.95000000112,"y":2542194.2800000031}},{"attributes":{"ID":297677,"DIS_CODE":0,"TOWNNAME":"南區","LI":"新興里","LIN":"17鄰","STREET":"三官路","SECT":" ","MAREA":" ","LANE":"８９巷","ALLEY":" ","HOUSE_NO":"４２號","E_COORD97":167432.95000000001,"N_COORD97":2542198.75,"ADDRESS":"三官路８９巷４２號","OBJECTID":297669},"geometry":{"x":167432.95000000112,"y":2542198.7500000037}},{"attributes":{"ID":297678,"DIS_CODE":0,"TOWNNAME":"南區","LI":"新興里","LIN":"17鄰","STREET":"三官路","SECT":" ","MAREA":" ","LANE":"８９巷","ALLEY":" ","HOUSE_NO":"４４號","E_COORD97":167434.23000000001,"N_COORD97":2542204.0299999998,"ADDRESS":"三官路８９巷４４號","OBJECTID":297670},"geometry":{"x":167434.23000000231,"y":2542204.0300000012}},{"attributes":{"ID":297679,"DIS_CODE":0,"TOWNNAME":"南區","LI":"新興里","LIN":"17鄰","STREET":"三官路","SECT":" ","MAREA":" ","LANE":"８９巷","ALLEY":" ","HOUSE_NO":"５號","E_COORD97":167393.16,"N_COORD97":2542205.9300000002,"ADDRESS":"三官路８９巷５號","OBJECTID":297671},"geometry":{"x":167393.16000000015,"y":2542205.9299999997}},{"attributes":{"ID":297680,"DIS_CODE":0,"TOWNNAME":"安平區","LI":"文平里","LIN":"17鄰","STREET":"建平三街","SECT":" ","MAREA":" ","LANE":"６５巷","ALLEY":" ","HOUSE_NO":"１０號","E_COORD97":165745.67000000001,"N_COORD97":2542894.6099999999,"ADDRESS":"建平三街６５巷１０號","OBJECTID":297672},"geometry":{"x":165745.67000000179,"y":2542894.6100000013}},{"attributes":{"ID":297681,"DIS_CODE":0,"TOWNNAME":"安平區","LI":"文平里","LIN":"17鄰","STREET":"建平三街","SECT":" ","MAREA":" ","LANE":"６５巷","ALLEY":" ","HOUSE_NO":"１４號","E_COORD97":165744.07999999999,"N_COORD97":2542886.75,"ADDRESS":"建平三街６５巷１４號","OBJECTID":297673},"geometry":{"x":165744.08000000007,"y":2542886.7500000037}},{"attributes":{"ID":297682,"DIS_CODE":0,"TOWNNAME":"安平區","LI":"文平里","LIN":"17鄰","STREET":"建平三街","SECT":" ","MAREA":" ","LANE":"６５巷","ALLEY":" ","HOUSE_NO":"２０號","E_COORD97":165747.04000000001,"N_COORD97":2542857.3500000001,"ADDRESS":"建平三街６５巷２０號","OBJECTID":297674},"geometry":{"x":165747.04000000097,"y":2542857.3499999996}},{"attributes":{"ID":297683,"DIS_CODE":0,"TOWNNAME":"安平區","LI":"文平里","LIN":"17鄰","STREET":"建平三街","SECT":" ","MAREA":" ","LANE":"６５巷","ALLEY":" ","HOUSE_NO":"２２號","E_COORD97":165746.73999999999,"N_COORD97":2542851.2599999998,"ADDRESS":"建平三街６５巷２２號","OBJECTID":297675},"geometry":{"x":165746.74000000022,"y":2542851.2599999998}},{"attributes":{"ID":297684,"DIS_CODE":0,"TOWNNAME":"安平區","LI":"文平里","LIN":"17鄰","STREET":"建平三街","SECT":" ","MAREA":" ","LANE":"６５巷","ALLEY":" ","HOUSE_NO":"８號","E_COORD97":165745.94,"N_COORD97":2542898.46,"ADDRESS":"建平三街６５巷８號","OBJECTID":297676},"geometry":{"x":165745.94000000227,"y":2542898.4600000009}},{"attributes":{"ID":297685,"DIS_CODE":0,"TOWNNAME":"安平區","LI":"國平里","LIN":"17鄰","STREET":"華平路","SECT":" ","MAREA":" ","LANE":"２１巷","ALLEY":" ","HOUSE_NO":"２１號","E_COORD97":165257.42000000001,"N_COORD97":2542783.0499999998,"ADDRESS":"華平路２１巷２１號","OBJECTID":297677},"geometry":{"x":165257.42000000179,"y":2542783.0500000007}},{"attributes":{"ID":297686,"DIS_CODE":0,"TOWNNAME":"楠西區","LI":"灣丘里","LIN":"7鄰","STREET":" ","SECT":" ","MAREA":"灣丘","LANE":" ","ALLEY":" ","HOUSE_NO":"７０號","E_COORD97":200785.95440300001,"N_COORD97":2564401.6880399999,"ADDRESS":"灣丘７０號","OBJECTID":297678},"geometry":{"x":200785.95440300088,"y":2564401.6880409997}},{"attributes":{"ID":297687,"DIS_CODE":0,"TOWNNAME":"安平區","LI":"國平里","LIN":"17鄰","STREET":"華平路","SECT":" ","MAREA":" ","LANE":"２１巷","ALLEY":" ","HOUSE_NO":"２３號","E_COORD97":165244.29000000001,"N_COORD97":2542786.0800000001,"ADDRESS":"華平路２１巷２３號","OBJECTID":297679},"geometry":{"x":165244.29000000004,"y":2542786.0799999982}},{"attributes":{"ID":297688,"DIS_CODE":0,"TOWNNAME":"安平區","LI":"華平里","LIN":"17鄰","STREET":"建平八街","SECT":" ","MAREA":" ","LANE":"４５０巷","ALLEY":" ","HOUSE_NO":"５５號","E_COORD97":165083.17999999999,"N_COORD97":2543730.3399999999,"ADDRESS":"建平八街４５０巷５５號","OBJECTID":297680},"geometry":{"x":165083.18000000063,"y":2543730.3400000036}},{"attributes":{"ID":297689,"DIS_CODE":0,"TOWNNAME":"安平區","LI":"華平里","LIN":"17鄰","STREET":"建平八街","SECT":" ","MAREA":" ","LANE":"４５０巷","ALLEY":" ","HOUSE_NO":"５７號","E_COORD97":165088.13,"N_COORD97":2543729.6299999999,"ADDRESS":"建平八街４５０巷５７號","OBJECTID":297681},"geometry":{"x":165088.13000000175,"y":2543729.629999999}},{"attributes":{"ID":297690,"DIS_CODE":0,"TOWNNAME":"安平區","LI":"華平里","LIN":"17鄰","STREET":"建平八街","SECT":" ","MAREA":" ","LANE":"４５０巷","ALLEY":" ","HOUSE_NO":"５９號","E_COORD97":165098.85999999999,"N_COORD97":2543729.02,"ADDRESS":"建平八街４５０巷５９號","OBJECTID":297682},"geometry":{"x":165098.8600000022,"y":2543729.0200000014}},{"attributes":{"ID":297691,"DIS_CODE":0,"TOWNNAME":"南區","LI":"南都里","LIN":"17鄰","STREET":"明興路","SECT":" ","MAREA":" ","LANE":"１０２巷","ALLEY":" ","HOUSE_NO":"６號","E_COORD97":166651.72,"N_COORD97":2540026.29,"ADDRESS":"明興路１０２巷６號","OBJECTID":297683},"geometry":{"x":166651.71999999974,"y":2540026.2899999991}},{"attributes":{"ID":297692,"DIS_CODE":0,"TOWNNAME":"南區","LI":"南都里","LIN":"17鄰","STREET":"明興路","SECT":" ","MAREA":" ","LANE":"１０２巷","ALLEY":" ","HOUSE_NO":"８號","E_COORD97":166648.17000000001,"N_COORD97":2540029.1899999999,"ADDRESS":"明興路１０２巷８號","OBJECTID":297684},"geometry":{"x":166648.17000000086,"y":2540029.1900000013}},{"attributes":{"ID":297693,"DIS_CODE":0,"TOWNNAME":"北區","LI":"仁愛里","LIN":"17鄰","STREET":"東豐路","SECT":" ","MAREA":" ","LANE":"２７３巷","ALLEY":" ","HOUSE_NO":"１３號","E_COORD97":170331.01999999999,"N_COORD97":2544876.23,"ADDRESS":"東豐路２７３巷１３號","OBJECTID":297685},"geometry":{"x":170331.01999999955,"y":2544876.2300000004}},{"attributes":{"ID":297694,"DIS_CODE":0,"TOWNNAME":"北區","LI":"仁愛里","LIN":"17鄰","STREET":"東豐路","SECT":" ","MAREA":" ","LANE":"２７３巷","ALLEY":" ","HOUSE_NO":"１５號","E_COORD97":170330.39999999999,"N_COORD97":2544891.4900000002,"ADDRESS":"東豐路２７３巷１５號","OBJECTID":297686},"geometry":{"x":170330.4000000013,"y":2544891.4900000002}},{"attributes":{"ID":297695,"DIS_CODE":0,"TOWNNAME":"北區","LI":"仁愛里","LIN":"17鄰","STREET":"東豐路","SECT":" ","MAREA":" ","LANE":"２７３巷","ALLEY":" ","HOUSE_NO":"１７號","E_COORD97":170336.19,"N_COORD97":2544903.54,"ADDRESS":"東豐路２７３巷１７號","OBJECTID":297687},"geometry":{"x":170336.19000000041,"y":2544903.5399999991}},{"attributes":{"ID":297696,"DIS_CODE":0,"TOWNNAME":"北區","LI":"仁愛里","LIN":"17鄰","STREET":"東豐路","SECT":" ","MAREA":" ","LANE":"２７３巷","ALLEY":" ","HOUSE_NO":"６號","E_COORD97":170352.48000000001,"N_COORD97":2544852.6800000002,"ADDRESS":"東豐路２７３巷６號","OBJECTID":297688},"geometry":{"x":170352.48000000045,"y":2544852.6799999997}},{"attributes":{"ID":297697,"DIS_CODE":0,"TOWNNAME":"北區","LI":"仁愛里","LIN":"17鄰","STREET":"東豐路","SECT":" ","MAREA":" ","LANE":"２７３巷","ALLEY":" ","HOUSE_NO":"７號","E_COORD97":170328.82999999999,"N_COORD97":2544859.4900000002,"ADDRESS":"東豐路２７３巷７號","OBJECTID":297689},"geometry":{"x":170328.83000000101,"y":2544859.4900000021}},{"attributes":{"ID":297698,"DIS_CODE":0,"TOWNNAME":"北區","LI":"仁愛里","LIN":"17鄰","STREET":"東豐路","SECT":" ","MAREA":" ","LANE":"２７３巷","ALLEY":" ","HOUSE_NO":"８號","E_COORD97":170352.09,"N_COORD97":2544856.8300000001,"ADDRESS":"東豐路２７３巷８號","OBJECTID":297690},"geometry":{"x":170352.09000000078,"y":2544856.8300000019}},{"attributes":{"ID":297699,"DIS_CODE":0,"TOWNNAME":"北區","LI":"大道里","LIN":"17鄰","STREET":"北門路","SECT":"二段","MAREA":" ","LANE":"５２７巷","ALLEY":" ","HOUSE_NO":"１０之１號","E_COORD97":169567.59,"N_COORD97":2545663.5899999999,"ADDRESS":"北門路二段５２７巷１０之１號","OBJECTID":297691},"geometry":{"x":169567.59000000078,"y":2545663.5899999999}},{"attributes":{"ID":297700,"DIS_CODE":0,"TOWNNAME":"北區","LI":"大道里","LIN":"17鄰","STREET":"北門路","SECT":"二段","MAREA":" ","LANE":"５２７巷","ALLEY":" ","HOUSE_NO":"１０號","E_COORD97":169577.42999999999,"N_COORD97":2545660.8900000001,"ADDRESS":"北門路二段５２７巷１０號","OBJECTID":297692},"geometry":{"x":169577.4299999997,"y":2545660.8900000025}},{"attributes":{"ID":297701,"DIS_CODE":0,"TOWNNAME":"北區","LI":"大道里","LIN":"17鄰","STREET":"北門路","SECT":"二段","MAREA":" ","LANE":"５２７巷","ALLEY":" ","HOUSE_NO":"１２號","E_COORD97":169554.03,"N_COORD97":2545666.1800000002,"ADDRESS":"北門路二段５２７巷１２號","OBJECTID":297693},"geometry":{"x":169554.03000000026,"y":2545666.1799999997}},{"attributes":{"ID":297702,"DIS_CODE":0,"TOWNNAME":"北區","LI":"光武里","LIN":"17鄰","STREET":"北門路","SECT":"二段","MAREA":" ","LANE":"５７７巷","ALLEY":" ","HOUSE_NO":"１６號","E_COORD97":169623.47,"N_COORD97":2545793.77,"ADDRESS":"北門路二段５７７巷１６號","OBJECTID":297694},"geometry":{"x":169623.46999999974,"y":2545793.7699999996}},{"attributes":{"ID":297703,"DIS_CODE":0,"TOWNNAME":"北區","LI":"重興里","LIN":"17鄰","STREET":"林森路","SECT":"三段","MAREA":" ","LANE":"１４０巷","ALLEY":" ","HOUSE_NO":"１１號","E_COORD97":170611.19,"N_COORD97":2544990.0800000001,"ADDRESS":"林森路三段１４０巷１１號","OBJECTID":297695},"geometry":{"x":170611.19000000227,"y":2544990.0800000038}},{"attributes":{"ID":297704,"DIS_CODE":0,"TOWNNAME":"北區","LI":"重興里","LIN":"17鄰","STREET":"林森路","SECT":"三段","MAREA":" ","LANE":"１４０巷","ALLEY":" ","HOUSE_NO":"１３號","E_COORD97":170621.92000000001,"N_COORD97":2545001.6600000001,"ADDRESS":"林森路三段１４０巷１３號","OBJECTID":297696},"geometry":{"x":170621.91999999993,"y":2545001.6600000001}},{"attributes":{"ID":297705,"DIS_CODE":0,"TOWNNAME":"北區","LI":"重興里","LIN":"17鄰","STREET":"林森路","SECT":"三段","MAREA":" ","LANE":"１４０巷","ALLEY":" ","HOUSE_NO":"１９號","E_COORD97":170629.97,"N_COORD97":2545012.8999999999,"ADDRESS":"林森路三段１４０巷１９號","OBJECTID":297697},"geometry":{"x":170629.96999999974,"y":2545012.9000000022}},{"attributes":{"ID":297706,"DIS_CODE":0,"TOWNNAME":"北區","LI":"重興里","LIN":"17鄰","STREET":"林森路","SECT":"三段","MAREA":" ","LANE":"１４０巷","ALLEY":" ","HOUSE_NO":"９號","E_COORD97":170603.51999999999,"N_COORD97":2544995.6299999999,"ADDRESS":"林森路三段１４０巷９號","OBJECTID":297698},"geometry":{"x":170603.52000000048,"y":2544995.6300000008}},{"attributes":{"ID":297707,"DIS_CODE":0,"TOWNNAME":"中西區","LI":"文賢里","LIN":"8鄰","STREET":"和善街","SECT":" ","MAREA":" ","LANE":"８４巷","ALLEY":" ","HOUSE_NO":"４號","E_COORD97":166998.38,"N_COORD97":2544764.2000000002,"ADDRESS":"和善街８４巷４號","OBJECTID":297699},"geometry":{"x":166998.37999999989,"y":2544764.1999999993}},{"attributes":{"ID":297708,"DIS_CODE":0,"TOWNNAME":"北區","LI":"文元里","LIN":"17鄰","STREET":"文賢路","SECT":" ","MAREA":" ","LANE":"１０３０巷","ALLEY":" ","HOUSE_NO":"４１號","E_COORD97":167535.41,"N_COORD97":2546087.6699999999,"ADDRESS":"文賢路１０３０巷４１號","OBJECTID":297700},"geometry":{"x":167535.41000000015,"y":2546087.6700000037}},{"attributes":{"ID":297709,"DIS_CODE":0,"TOWNNAME":"北區","LI":"大豐里","LIN":"17鄰","STREET":"和緯路","SECT":"四段","MAREA":" ","LANE":"９５巷","ALLEY":" ","HOUSE_NO":"１４號","E_COORD97":167104.97,"N_COORD97":2545435.3900000001,"ADDRESS":"和緯路四段９５巷１４號","OBJECTID":297701},"geometry":{"x":167104.97000000067,"y":2545435.3900000006}},{"attributes":{"ID":297710,"DIS_CODE":0,"TOWNNAME":"北區","LI":"大豐里","LIN":"17鄰","STREET":"和緯路","SECT":"四段","MAREA":" ","LANE":"９５巷","ALLEY":" ","HOUSE_NO":"１６號","E_COORD97":167104.97,"N_COORD97":2545431.9700000002,"ADDRESS":"和緯路四段９５巷１６號","OBJECTID":297702},"geometry":{"x":167104.97000000067,"y":2545431.9699999988}},{"attributes":{"ID":297711,"DIS_CODE":0,"TOWNNAME":"北區","LI":"大豐里","LIN":"17鄰","STREET":"和緯路","SECT":"四段","MAREA":" ","LANE":"９５巷","ALLEY":" ","HOUSE_NO":"１８號","E_COORD97":167104.01000000001,"N_COORD97":2545422.3999999999,"ADDRESS":"和緯路四段９５巷１８號","OBJECTID":297703},"geometry":{"x":167104.00999999978,"y":2545422.4000000041}},{"attributes":{"ID":297712,"DIS_CODE":0,"TOWNNAME":"北區","LI":"大豐里","LIN":"17鄰","STREET":"和緯路","SECT":"四段","MAREA":" ","LANE":"９５巷","ALLEY":" ","HOUSE_NO":"２０號","E_COORD97":167103.22,"N_COORD97":2545418.1000000001,"ADDRESS":"和緯路四段９５巷２０號","OBJECTID":297704},"geometry":{"x":167103.22000000067,"y":2545418.1000000015}},{"attributes":{"ID":297713,"DIS_CODE":0,"TOWNNAME":"北區","LI":"大豐里","LIN":"17鄰","STREET":"和緯路","SECT":"四段","MAREA":" ","LANE":"９５巷","ALLEY":" ","HOUSE_NO":"２號","E_COORD97":167115.32999999999,"N_COORD97":2545477.8300000001,"ADDRESS":"和緯路四段９５巷２號","OBJECTID":297705},"geometry":{"x":167115.33000000007,"y":2545477.8300000019}},{"attributes":{"ID":297714,"DIS_CODE":0,"TOWNNAME":"北區","LI":"大豐里","LIN":"17鄰","STREET":"和緯路","SECT":"四段","MAREA":" ","LANE":"９５巷","ALLEY":" ","HOUSE_NO":"４號","E_COORD97":167109.28,"N_COORD97":2545467.8999999999,"ADDRESS":"和緯路四段９５巷４號","OBJECTID":297706},"geometry":{"x":167109.28000000026,"y":2545467.9000000022}},{"attributes":{"ID":297715,"DIS_CODE":0,"TOWNNAME":"北區","LI":"大豐里","LIN":"17鄰","STREET":"和緯路","SECT":"四段","MAREA":" ","LANE":"９５巷","ALLEY":" ","HOUSE_NO":"６號","E_COORD97":167108.48999999999,"N_COORD97":2545461.23,"ADDRESS":"和緯路四段９５巷６號","OBJECTID":297707},"geometry":{"x":167108.49000000115,"y":2545461.2300000023}},{"attributes":{"ID":297716,"DIS_CODE":0,"TOWNNAME":"北區","LI":"大豐里","LIN":"17鄰","STREET":"和緯路","SECT":"四段","MAREA":" ","LANE":"９５巷","ALLEY":" ","HOUSE_NO":"８號","E_COORD97":167107.60999999999,"N_COORD97":2545457.79,"ADDRESS":"和緯路四段９５巷８號","OBJECTID":297708},"geometry":{"x":167107.6100000022,"y":2545457.7899999991}},{"attributes":{"ID":297717,"DIS_CODE":0,"TOWNNAME":"新營區","LI":"南紙里","LIN":"17鄰","STREET":"南紙街","SECT":" ","MAREA":" ","LANE":"１６２巷","ALLEY":" ","HOUSE_NO":"５９號","E_COORD97":177873.28,"N_COORD97":2577300.4900000002,"ADDRESS":"南紙街１６２巷５９號","OBJECTID":297709},"geometry":{"x":177873.28000000119,"y":2577300.4900000002}},{"attributes":{"ID":297718,"DIS_CODE":0,"TOWNNAME":"新營區","LI":"南興里","LIN":"17鄰","STREET":"興農街","SECT":" ","MAREA":" ","LANE":"１４０巷","ALLEY":" ","HOUSE_NO":"１５號","E_COORD97":179187.79999999999,"N_COORD97":2577525.6000000001,"ADDRESS":"興農街１４０巷１５號","OBJECTID":297710},"geometry":{"x":179187.80000000075,"y":2577525.5999999996}},{"attributes":{"ID":297719,"DIS_CODE":0,"TOWNNAME":"安平區","LI":"文平里","LIN":"17鄰","STREET":"建平四街","SECT":" ","MAREA":" ","LANE":"１８巷","ALLEY":" ","HOUSE_NO":"２０號","E_COORD97":166071.01999999999,"N_COORD97":2543070.4199999999,"ADDRESS":"建平四街１８巷２０號","OBJECTID":297711},"geometry":{"x":166071.01999999955,"y":2543070.4199999999}},{"attributes":{"ID":297720,"DIS_CODE":0,"TOWNNAME":"安平區","LI":"文平里","LIN":"17鄰","STREET":"建平四街","SECT":" ","MAREA":" ","LANE":"１８巷","ALLEY":" ","HOUSE_NO":"２２號","E_COORD97":166069.10000000001,"N_COORD97":2543078.75,"ADDRESS":"建平四街１８巷２２號","OBJECTID":297712},"geometry":{"x":166069.09999999963,"y":2543078.75}},{"attributes":{"ID":297721,"DIS_CODE":0,"TOWNNAME":"安平區","LI":"文平里","LIN":"17鄰","STREET":"建平四街","SECT":" ","MAREA":" ","LANE":"１８巷","ALLEY":" ","HOUSE_NO":"２６號","E_COORD97":166070.25,"N_COORD97":2543087.1600000001,"ADDRESS":"建平四街１８巷２６號","OBJECTID":297713},"geometry":{"x":166070.25,"y":2543087.1600000001}},{"attributes":{"ID":297722,"DIS_CODE":0,"TOWNNAME":"安平區","LI":"文平里","LIN":"17鄰","STREET":"建平四街","SECT":" ","MAREA":" ","LANE":"１８巷","ALLEY":" ","HOUSE_NO":"２８號","E_COORD97":166071.01999999999,"N_COORD97":2543091.8599999999,"ADDRESS":"建平四街１８巷２８號","OBJECTID":297714},"geometry":{"x":166071.01999999955,"y":2543091.8599999994}},{"attributes":{"ID":297723,"DIS_CODE":0,"TOWNNAME":"安平區","LI":"文平里","LIN":"17鄰","STREET":"建平四街","SECT":" ","MAREA":" ","LANE":"１８巷","ALLEY":" ","HOUSE_NO":"３０號","E_COORD97":166072.26999999999,"N_COORD97":2543096.3599999999,"ADDRESS":"建平四街１８巷３０號","OBJECTID":297715},"geometry":{"x":166072.27000000048,"y":2543096.3600000013}},{"attributes":{"ID":297724,"DIS_CODE":0,"TOWNNAME":"安平區","LI":"文平里","LIN":"17鄰","STREET":"建平四街","SECT":" ","MAREA":" ","LANE":"１８巷","ALLEY":" ","HOUSE_NO":"３２號","E_COORD97":166073.60999999999,"N_COORD97":2543100.5800000001,"ADDRESS":"建平四街１８巷３２號","OBJECTID":297716},"geometry":{"x":166073.6100000022,"y":2543100.5800000001}},{"attributes":{"ID":297725,"DIS_CODE":0,"TOWNNAME":"新營區","LI":"新東里","LIN":"17鄰","STREET":"東興四街","SECT":" ","MAREA":" ","LANE":"３２巷","ALLEY":" ","HOUSE_NO":"１７號","E_COORD97":180904.54999999999,"N_COORD97":2579118.8700000001,"ADDRESS":"東興四街３２巷１７號","OBJECTID":297717},"geometry":{"x":180904.54999999888,"y":2579118.870000001}},{"attributes":{"ID":297726,"DIS_CODE":0,"TOWNNAME":"南區","LI":"金華里","LIN":"17鄰","STREET":"金華路","SECT":"二段","MAREA":" ","LANE":"６３巷","ALLEY":" ","HOUSE_NO":"７６號","E_COORD97":166787.94,"N_COORD97":2542175.73,"ADDRESS":"金華路二段６３巷７６號","OBJECTID":297718},"geometry":{"x":166787.94000000041,"y":2542175.7300000023}},{"attributes":{"ID":297727,"DIS_CODE":0,"TOWNNAME":"南區","LI":"金華里","LIN":"17鄰","STREET":"惠南街","SECT":" ","MAREA":" ","LANE":"５４巷","ALLEY":" ","HOUSE_NO":"４號","E_COORD97":166779.07999999999,"N_COORD97":2542198.6000000001,"ADDRESS":"惠南街５４巷４號","OBJECTID":297719},"geometry":{"x":166779.08000000101,"y":2542198.5999999996}},{"attributes":{"ID":297728,"DIS_CODE":0,"TOWNNAME":"南區","LI":"金華里","LIN":"17鄰","STREET":"惠南街","SECT":" ","MAREA":" ","LANE":"５４巷","ALLEY":" ","HOUSE_NO":"６號","E_COORD97":166783.79000000001,"N_COORD97":2542198.2799999998,"ADDRESS":"惠南街５４巷６號","OBJECTID":297720},"geometry":{"x":166783.79000000004,"y":2542198.2800000012}},{"attributes":{"ID":297729,"DIS_CODE":0,"TOWNNAME":"南區","LI":"金華里","LIN":"17鄰","STREET":"惠南街","SECT":" ","MAREA":" ","LANE":"５４巷","ALLEY":" ","HOUSE_NO":"８號","E_COORD97":166787.64000000001,"N_COORD97":2542198.6000000001,"ADDRESS":"惠南街５４巷８號","OBJECTID":297721},"geometry":{"x":166787.63999999966,"y":2542198.5999999996}},{"attributes":{"ID":297730,"DIS_CODE":0,"TOWNNAME":"安南區","LI":"國安里","LIN":"3鄰","STREET":"國安街","SECT":" ","MAREA":" ","LANE":"１５６巷","ALLEY":" ","HOUSE_NO":"１１７號","E_COORD97":166662.76999999999,"N_COORD97":2547278.3199999998,"ADDRESS":"國安街１５６巷１１７號","OBJECTID":297722},"geometry":{"x":166662.76999999955,"y":2547278.3200000022}},{"attributes":{"ID":297731,"DIS_CODE":0,"TOWNNAME":"安南區","LI":"溪心里","LIN":"3鄰","STREET":"安中路","SECT":"二段","MAREA":" ","LANE":"２９６巷","ALLEY":" ","HOUSE_NO":"１９９之１５０號","E_COORD97":166658.14999999999,"N_COORD97":2550134.4199999999,"ADDRESS":"安中路二段２９６巷１９９之１５０號","OBJECTID":297723},"geometry":{"x":166658.15000000224,"y":2550134.4200000037}},{"attributes":{"ID":297732,"DIS_CODE":0,"TOWNNAME":"安南區","LI":"東和里","LIN":"3鄰","STREET":"長和路","SECT":"一段","MAREA":" ","LANE":"９４１巷","ALLEY":" ","HOUSE_NO":"１２號","E_COORD97":170585.47,"N_COORD97":2551530.25,"ADDRESS":"長和路一段９４１巷１２號","OBJECTID":297724},"geometry":{"x":170585.47000000067,"y":2551530.2500000019}},{"attributes":{"ID":297733,"DIS_CODE":0,"TOWNNAME":"安南區","LI":"東和里","LIN":"3鄰","STREET":"長和路","SECT":"一段","MAREA":" ","LANE":"９４１巷","ALLEY":" ","HOUSE_NO":"１８號","E_COORD97":170578.48999999999,"N_COORD97":2551515.6000000001,"ADDRESS":"長和路一段９４１巷１８號","OBJECTID":297725},"geometry":{"x":170578.49000000209,"y":2551515.5999999996}},{"attributes":{"ID":297734,"DIS_CODE":0,"TOWNNAME":"安南區","LI":"顯宮里","LIN":"3鄰","STREET":"安中路","SECT":"五段","MAREA":" ","LANE":"１巷","ALLEY":" ","HOUSE_NO":"１７０之１號","E_COORD97":162185.23999999999,"N_COORD97":2549932.1099999999,"ADDRESS":"安中路五段１巷１７０之１號","OBJECTID":297726},"geometry":{"x":162185.24000000022,"y":2549932.1099999975}},{"attributes":{"ID":297735,"DIS_CODE":0,"TOWNNAME":"中西區","LI":"元安里","LIN":"3鄰","STREET":"西門路","SECT":"一段","MAREA":" ","LANE":"七０三巷","ALLEY":" ","HOUSE_NO":"６之１號","E_COORD97":167680.63,"N_COORD97":2543257.2400000002,"ADDRESS":"西門路一段七０三巷６之１號","OBJECTID":297727},"geometry":{"x":167680.63000000082,"y":2543257.2400000021}},{"attributes":{"ID":297736,"DIS_CODE":0,"TOWNNAME":"中西區","LI":"元安里","LIN":"3鄰","STREET":"西門路","SECT":"一段","MAREA":" ","LANE":"七０三巷","ALLEY":" ","HOUSE_NO":"８之１號","E_COORD97":167671.89999999999,"N_COORD97":2543258.9900000002,"ADDRESS":"西門路一段七０三巷８之１號","OBJECTID":297728},"geometry":{"x":167671.90000000224,"y":2543258.9900000021}},{"attributes":{"ID":297737,"DIS_CODE":0,"TOWNNAME":"中西區","LI":"元安里","LIN":"3鄰","STREET":"西門路","SECT":"一段","MAREA":" ","LANE":"七０三巷","ALLEY":" ","HOUSE_NO":"８號","E_COORD97":167676.19,"N_COORD97":2543258.04,"ADDRESS":"西門路一段七０三巷８號","OBJECTID":297729},"geometry":{"x":167676.19000000041,"y":2543258.040000001}},{"attributes":{"ID":297738,"DIS_CODE":0,"TOWNNAME":"北區","LI":"振興里","LIN":"3鄰","STREET":"開元路","SECT":" ","MAREA":" ","LANE":"１４８巷","ALLEY":" ","HOUSE_NO":"１９號二樓之１","E_COORD97":170012.20000000001,"N_COORD97":2545184.77,"ADDRESS":"開元路１４８巷１９號二樓之１","OBJECTID":297730},"geometry":{"x":170012.20000000019,"y":2545184.7700000033}},{"attributes":{"ID":297739,"DIS_CODE":0,"TOWNNAME":"北區","LI":"振興里","LIN":"3鄰","STREET":"開元路","SECT":" ","MAREA":" ","LANE":"１４８巷","ALLEY":" ","HOUSE_NO":"１９號二樓之２","E_COORD97":170012.20000000001,"N_COORD97":2545184.77,"ADDRESS":"開元路１４８巷１９號二樓之２","OBJECTID":297731},"geometry":{"x":170012.20000000019,"y":2545184.7700000033}},{"attributes":{"ID":297740,"DIS_CODE":0,"TOWNNAME":"北區","LI":"振興里","LIN":"3鄰","STREET":"開元路","SECT":" ","MAREA":" ","LANE":"１４８巷","ALLEY":" ","HOUSE_NO":"１９號二樓之３","E_COORD97":170012.20000000001,"N_COORD97":2545184.77,"ADDRESS":"開元路１４８巷１９號二樓之３","OBJECTID":297732},"geometry":{"x":170012.20000000019,"y":2545184.7700000033}},{"attributes":{"ID":297741,"DIS_CODE":0,"TOWNNAME":"中西區","LI":"光賢里","LIN":"8鄰","STREET":"武聖路","SECT":" ","MAREA":" ","LANE":"６９巷","ALLEY":" ","HOUSE_NO":"１０１號","E_COORD97":167038.34,"N_COORD97":2544893.96,"ADDRESS":"武聖路６９巷１０１號","OBJECTID":297733},"geometry":{"x":167038.34000000078,"y":2544893.9600000028}},{"attributes":{"ID":297742,"DIS_CODE":0,"TOWNNAME":"北區","LI":"振興里","LIN":"3鄰","STREET":"開元路","SECT":" ","MAREA":" ","LANE":"１４８巷","ALLEY":" ","HOUSE_NO":"１９號三樓之１","E_COORD97":170012.20000000001,"N_COORD97":2545184.77,"ADDRESS":"開元路１４８巷１９號三樓之１","OBJECTID":297734},"geometry":{"x":170012.20000000019,"y":2545184.7700000033}},{"attributes":{"ID":297743,"DIS_CODE":0,"TOWNNAME":"北區","LI":"振興里","LIN":"3鄰","STREET":"開元路","SECT":" ","MAREA":" ","LANE":"１４８巷","ALLEY":" ","HOUSE_NO":"１９號三樓之２","E_COORD97":170012.20000000001,"N_COORD97":2545184.77,"ADDRESS":"開元路１４８巷１９號三樓之２","OBJECTID":297735},"geometry":{"x":170012.20000000019,"y":2545184.7700000033}},{"attributes":{"ID":297744,"DIS_CODE":0,"TOWNNAME":"北區","LI":"振興里","LIN":"3鄰","STREET":"開元路","SECT":" ","MAREA":" ","LANE":"１４８巷","ALLEY":" ","HOUSE_NO":"１９號三樓之３","E_COORD97":170012.20000000001,"N_COORD97":2545184.77,"ADDRESS":"開元路１４８巷１９號三樓之３","OBJECTID":297736},"geometry":{"x":170012.20000000019,"y":2545184.7700000033}},{"attributes":{"ID":297745,"DIS_CODE":0,"TOWNNAME":"北區","LI":"振興里","LIN":"3鄰","STREET":"開元路","SECT":" ","MAREA":" ","LANE":"１４８巷","ALLEY":" ","HOUSE_NO":"１９號四樓之１","E_COORD97":170012.20000000001,"N_COORD97":2545184.77,"ADDRESS":"開元路１４８巷１９號四樓之１","OBJECTID":297737},"geometry":{"x":170012.20000000019,"y":2545184.7700000033}},{"attributes":{"ID":297746,"DIS_CODE":0,"TOWNNAME":"北區","LI":"振興里","LIN":"3鄰","STREET":"開元路","SECT":" ","MAREA":" ","LANE":"１４８巷","ALLEY":" ","HOUSE_NO":"１９號四樓之２","E_COORD97":170012.20000000001,"N_COORD97":2545184.77,"ADDRESS":"開元路１４８巷１９號四樓之２","OBJECTID":297738},"geometry":{"x":170012.20000000019,"y":2545184.7700000033}},{"attributes":{"ID":297747,"DIS_CODE":0,"TOWNNAME":"北區","LI":"振興里","LIN":"3鄰","STREET":"開元路","SECT":" ","MAREA":" ","LANE":"１４８巷","ALLEY":" ","HOUSE_NO":"１９號四樓之３","E_COORD97":170012.20000000001,"N_COORD97":2545184.77,"ADDRESS":"開元路１４８巷１９號四樓之３","OBJECTID":297739},"geometry":{"x":170012.20000000019,"y":2545184.7700000033}},{"attributes":{"ID":297748,"DIS_CODE":0,"TOWNNAME":"北區","LI":"振興里","LIN":"3鄰","STREET":"開元路","SECT":" ","MAREA":" ","LANE":"１４８巷","ALLEY":" ","HOUSE_NO":"１９號五樓之１","E_COORD97":170012.20000000001,"N_COORD97":2545184.77,"ADDRESS":"開元路１４８巷１９號五樓之１","OBJECTID":297740},"geometry":{"x":170012.20000000019,"y":2545184.7700000033}},{"attributes":{"ID":297749,"DIS_CODE":0,"TOWNNAME":"北區","LI":"振興里","LIN":"3鄰","STREET":"開元路","SECT":" ","MAREA":" ","LANE":"１４８巷","ALLEY":" ","HOUSE_NO":"１９號五樓之２","E_COORD97":170012.20000000001,"N_COORD97":2545184.77,"ADDRESS":"開元路１４８巷１９號五樓之２","OBJECTID":297741},"geometry":{"x":170012.20000000019,"y":2545184.7700000033}},{"attributes":{"ID":297750,"DIS_CODE":0,"TOWNNAME":"北區","LI":"振興里","LIN":"3鄰","STREET":"開元路","SECT":" ","MAREA":" ","LANE":"１４８巷","ALLEY":" ","HOUSE_NO":"１９號五樓之３","E_COORD97":170012.20000000001,"N_COORD97":2545184.77,"ADDRESS":"開元路１４８巷１９號五樓之３","OBJECTID":297742},"geometry":{"x":170012.20000000019,"y":2545184.7700000033}},{"attributes":{"ID":297751,"DIS_CODE":0,"TOWNNAME":"安南區","LI":"東和里","LIN":"3鄰","STREET":"長和路","SECT":"一段","MAREA":" ","LANE":"９０９巷","ALLEY":" ","HOUSE_NO":"３號","E_COORD97":170685.98000000001,"N_COORD97":2551498.5299999998,"ADDRESS":"長和路一段９０９巷３號","OBJECTID":297743},"geometry":{"x":170685.98000000138,"y":2551498.5299999993}},{"attributes":{"ID":297752,"DIS_CODE":0,"TOWNNAME":"安南區","LI":"東和里","LIN":"3鄰","STREET":"長和路","SECT":"一段","MAREA":" ","LANE":"９０９巷","ALLEY":" ","HOUSE_NO":"５號","E_COORD97":170683.82000000001,"N_COORD97":2551495.8900000001,"ADDRESS":"長和路一段９０９巷５號","OBJECTID":297744},"geometry":{"x":170683.82000000123,"y":2551495.8900000025}},{"attributes":{"ID":297753,"DIS_CODE":0,"TOWNNAME":"安南區","LI":"東和里","LIN":"3鄰","STREET":"長和路","SECT":"一段","MAREA":" ","LANE":"９０９巷","ALLEY":" ","HOUSE_NO":"７號","E_COORD97":170679.48999999999,"N_COORD97":2551494.6899999999,"ADDRESS":"長和路一段９０９巷７號","OBJECTID":297745},"geometry":{"x":170679.49000000022,"y":2551494.6900000032}},{"attributes":{"ID":297754,"DIS_CODE":0,"TOWNNAME":"安南區","LI":"東和里","LIN":"3鄰","STREET":"長和路","SECT":"一段","MAREA":" ","LANE":"９０９巷","ALLEY":" ","HOUSE_NO":"９號","E_COORD97":170675.64000000001,"N_COORD97":2551492.29,"ADDRESS":"長和路一段９０９巷９號","OBJECTID":297746},"geometry":{"x":170675.6400000006,"y":2551492.2899999991}},{"attributes":{"ID":297755,"DIS_CODE":0,"TOWNNAME":"安南區","LI":"東和里","LIN":"3鄰","STREET":"長和路","SECT":"一段","MAREA":" ","LANE":"９０９巷","ALLEY":" ","HOUSE_NO":"１３號","E_COORD97":170667.23000000001,"N_COORD97":2551484.8399999999,"ADDRESS":"長和路一段９０９巷１３號","OBJECTID":297747},"geometry":{"x":170667.23000000138,"y":2551484.8400000017}},{"attributes":{"ID":297756,"DIS_CODE":0,"TOWNNAME":"安南區","LI":"東和里","LIN":"3鄰","STREET":"長和路","SECT":"一段","MAREA":" ","LANE":"９０９巷","ALLEY":" ","HOUSE_NO":"１５號","E_COORD97":170660.48999999999,"N_COORD97":2551479.79,"ADDRESS":"長和路一段９０９巷１５號","OBJECTID":297748},"geometry":{"x":170660.49000000115,"y":2551479.7899999991}},{"attributes":{"ID":297757,"DIS_CODE":0,"TOWNNAME":"安南區","LI":"東和里","LIN":"3鄰","STREET":"長和路","SECT":"一段","MAREA":" ","LANE":"９４１巷","ALLEY":" ","HOUSE_NO":"２２號","E_COORD97":170573.67999999999,"N_COORD97":2551505.02,"ADDRESS":"長和路一段９４１巷２２號","OBJECTID":297749},"geometry":{"x":170573.68000000063,"y":2551505.0199999996}},{"attributes":{"ID":297758,"DIS_CODE":0,"TOWNNAME":"安南區","LI":"東和里","LIN":"3鄰","STREET":"長和路","SECT":"一段","MAREA":" ","LANE":"９４１巷","ALLEY":" ","HOUSE_NO":"２０號","E_COORD97":170575.60999999999,"N_COORD97":2551510.3100000001,"ADDRESS":"長和路一段９４１巷２０號","OBJECTID":297750},"geometry":{"x":170575.61000000034,"y":2551510.3100000024}},{"attributes":{"ID":297759,"DIS_CODE":0,"TOWNNAME":"安南區","LI":"東和里","LIN":"3鄰","STREET":"長和路","SECT":"一段","MAREA":" ","LANE":"９４１巷","ALLEY":" ","HOUSE_NO":"１４號","E_COORD97":170582.34,"N_COORD97":2551524.9700000002,"ADDRESS":"長和路一段９４１巷１４號","OBJECTID":297751},"geometry":{"x":170582.33999999892,"y":2551524.9700000025}},{"attributes":{"ID":297760,"DIS_CODE":0,"TOWNNAME":"安南區","LI":"東和里","LIN":"3鄰","STREET":"長和路","SECT":"一段","MAREA":" ","LANE":"９４１巷","ALLEY":" ","HOUSE_NO":"１６號","E_COORD97":170579.45000000001,"N_COORD97":2551520.6400000001,"ADDRESS":"長和路一段９４１巷１６號","OBJECTID":297752},"geometry":{"x":170579.45000000112,"y":2551520.6400000025}},{"attributes":{"ID":297761,"DIS_CODE":0,"TOWNNAME":"安南區","LI":"溪心里","LIN":"3鄰","STREET":"安中路","SECT":"二段","MAREA":" ","LANE":"１３８巷","ALLEY":" ","HOUSE_NO":"３０號","E_COORD97":166788.5,"N_COORD97":2549703.8300000001,"ADDRESS":"安中路二段１３８巷３０號","OBJECTID":297753},"geometry":{"x":166788.5,"y":2549703.8300000001}},{"attributes":{"ID":297762,"DIS_CODE":0,"TOWNNAME":"安南區","LI":"溪心里","LIN":"3鄰","STREET":"安中路","SECT":"二段","MAREA":" ","LANE":"１３８巷","ALLEY":" ","HOUSE_NO":"３２號","E_COORD97":166789.34,"N_COORD97":2549709.3300000001,"ADDRESS":"安中路二段１３８巷３２號","OBJECTID":297754},"geometry":{"x":166789.34000000078,"y":2549709.3300000019}},{"attributes":{"ID":297763,"DIS_CODE":0,"TOWNNAME":"安南區","LI":"溪心里","LIN":"3鄰","STREET":"安中路","SECT":"二段","MAREA":" ","LANE":"１３８巷","ALLEY":" ","HOUSE_NO":"３６號","E_COORD97":166789.98000000001,"N_COORD97":2549714.2000000002,"ADDRESS":"安中路二段１３８巷３６號","OBJECTID":297755},"geometry":{"x":166789.98000000231,"y":2549714.1999999993}},{"attributes":{"ID":297764,"DIS_CODE":0,"TOWNNAME":"永康區","LI":"\u25A0行里","LIN":"8鄰","STREET":"中正路","SECT":" ","MAREA":" ","LANE":"５４２巷","ALLEY":" ","HOUSE_NO":"２號之９","E_COORD97":172702.04000000001,"N_COORD97":2548372.7999999998,"ADDRESS":"中正路５４２巷２號之９","OBJECTID":297756},"geometry":{"x":172702.0400000019,"y":2548372.8000000045}},{"attributes":{"ID":297765,"DIS_CODE":0,"TOWNNAME":"永康區","LI":"\u25A0行里","LIN":"8鄰","STREET":"中正一街","SECT":" ","MAREA":" ","LANE":"３２巷","ALLEY":" ","HOUSE_NO":"１１號","E_COORD97":172902.57999999999,"N_COORD97":2548364.9900000002,"ADDRESS":"中正一街３２巷１１號","OBJECTID":297757},"geometry":{"x":172902.58000000101,"y":2548364.9900000021}},{"attributes":{"ID":297766,"DIS_CODE":0,"TOWNNAME":"永康區","LI":"\u25A0行里","LIN":"8鄰","STREET":"中正一街","SECT":" ","MAREA":" ","LANE":"３２巷","ALLEY":" ","HOUSE_NO":"２６號","E_COORD97":172921.26000000001,"N_COORD97":2548357.1099999999,"ADDRESS":"中正一街３２巷２６號","OBJECTID":297758},"geometry":{"x":172921.26000000071,"y":2548357.1100000013}},{"attributes":{"ID":297767,"DIS_CODE":0,"TOWNNAME":"永康區","LI":"\u25A0行里","LIN":"8鄰","STREET":"中正一街","SECT":" ","MAREA":" ","LANE":"３２巷","ALLEY":" ","HOUSE_NO":"１０號","E_COORD97":172837.92000000001,"N_COORD97":2548325.6099999999,"ADDRESS":"中正一街３２巷１０號","OBJECTID":297759},"geometry":{"x":172837.91999999993,"y":2548325.6100000013}},{"attributes":{"ID":297768,"DIS_CODE":0,"TOWNNAME":"永康區","LI":"新樹里","LIN":"8鄰","STREET":"富強路","SECT":"二段","MAREA":" ","LANE":"５６巷","ALLEY":" ","HOUSE_NO":"２５號","E_COORD97":175784.81,"N_COORD97":2546948.1000000001,"ADDRESS":"富強路二段５６巷２５號","OBJECTID":297760},"geometry":{"x":175784.81000000145,"y":2546948.0999999996}},{"attributes":{"ID":297769,"DIS_CODE":0,"TOWNNAME":"安南區","LI":"城北里","LIN":"8鄰","STREET":"安中路","SECT":"六段","MAREA":" ","LANE":"３５１巷","ALLEY":" ","HOUSE_NO":"１８號","E_COORD97":161199.37,"N_COORD97":2551251.4500000002,"ADDRESS":"安中路六段３５１巷１８號","OBJECTID":297761},"geometry":{"x":161199.37000000011,"y":2551251.4499999993}},{"attributes":{"ID":297770,"DIS_CODE":0,"TOWNNAME":"安南區","LI":"城北里","LIN":"8鄰","STREET":"安中路","SECT":"六段","MAREA":" ","LANE":"３５１巷","ALLEY":" ","HOUSE_NO":"１６號","E_COORD97":161200.5,"N_COORD97":2551257.29,"ADDRESS":"安中路六段３５１巷１６號","OBJECTID":297762},"geometry":{"x":161200.50000000093,"y":2551257.290000001}},{"attributes":{"ID":297771,"DIS_CODE":0,"TOWNNAME":"安南區","LI":"城北里","LIN":"8鄰","STREET":"安中路","SECT":"六段","MAREA":" ","LANE":"３５１巷","ALLEY":" ","HOUSE_NO":"１４號","E_COORD97":161201.62,"N_COORD97":2551263.1400000001,"ADDRESS":"安中路六段３５１巷１４號","OBJECTID":297763},"geometry":{"x":161201.62000000104,"y":2551263.1400000025}},{"attributes":{"ID":297772,"DIS_CODE":0,"TOWNNAME":"安南區","LI":"城北里","LIN":"8鄰","STREET":"安中路","SECT":"六段","MAREA":" ","LANE":"３５１巷","ALLEY":" ","HOUSE_NO":"１２號","E_COORD97":161201.39999999999,"N_COORD97":2551269.2000000002,"ADDRESS":"安中路六段３５１巷１２號","OBJECTID":297764},"geometry":{"x":161201.40000000224,"y":2551269.1999999993}},{"attributes":{"ID":297773,"DIS_CODE":0,"TOWNNAME":"安南區","LI":"安順里","LIN":"8鄰","STREET":"安和路","SECT":"四段","MAREA":" ","LANE":"８７巷","ALLEY":" ","HOUSE_NO":"２０號","E_COORD97":169860.39999999999,"N_COORD97":2550311.6800000002,"ADDRESS":"安和路四段８７巷２０號","OBJECTID":297765},"geometry":{"x":169860.40000000224,"y":2550311.6799999978}},{"attributes":{"ID":297774,"DIS_CODE":0,"TOWNNAME":"安南區","LI":"安順里","LIN":"8鄰","STREET":"安和路","SECT":"四段","MAREA":" ","LANE":"８７巷","ALLEY":" ","HOUSE_NO":"１８號","E_COORD97":169860.09,"N_COORD97":2550317.8999999999,"ADDRESS":"安和路四段８７巷１８號","OBJECTID":297766},"geometry":{"x":169860.08999999985,"y":2550317.9000000041}},{"attributes":{"ID":297775,"DIS_CODE":0,"TOWNNAME":"安南區","LI":"溪東里","LIN":"8鄰","STREET":"府安路","SECT":"五段","MAREA":" ","LANE":"３５巷","ALLEY":" ","HOUSE_NO":"１１號","E_COORD97":168347.44,"N_COORD97":2547244.2000000002,"ADDRESS":"府安路五段３５巷１１號","OBJECTID":297767},"geometry":{"x":168347.44000000041,"y":2547244.2000000011}},{"attributes":{"ID":297776,"DIS_CODE":0,"TOWNNAME":"安南區","LI":"溪東里","LIN":"8鄰","STREET":"府安路","SECT":"五段","MAREA":" ","LANE":"３５巷","ALLEY":" ","HOUSE_NO":"１２號","E_COORD97":168369.66,"N_COORD97":2547249.8599999999,"ADDRESS":"府安路五段３５巷１２號","OBJECTID":297768},"geometry":{"x":168369.66000000015,"y":2547249.8600000013}},{"attributes":{"ID":297777,"DIS_CODE":0,"TOWNNAME":"中西區","LI":"文賢里","LIN":"8鄰","STREET":"和善街","SECT":" ","MAREA":" ","LANE":"８４巷","ALLEY":" ","HOUSE_NO":"３號","E_COORD97":166979.01999999999,"N_COORD97":2544772.4700000002,"ADDRESS":"和善街８４巷３號","OBJECTID":297769},"geometry":{"x":166979.02000000048,"y":2544772.4700000025}},{"attributes":{"ID":297778,"DIS_CODE":0,"TOWNNAME":"中西區","LI":"文賢里","LIN":"8鄰","STREET":"和善街","SECT":" ","MAREA":" ","LANE":"８４巷","ALLEY":" ","HOUSE_NO":"１３號","E_COORD97":166997.37,"N_COORD97":2544784.1400000001,"ADDRESS":"和善街８４巷１３號","OBJECTID":297770},"geometry":{"x":166997.37000000104,"y":2544784.1400000025}},{"attributes":{"ID":297779,"DIS_CODE":0,"TOWNNAME":"中西區","LI":"文賢里","LIN":"8鄰","STREET":"和善街","SECT":" ","MAREA":" ","LANE":"８４巷","ALLEY":" ","HOUSE_NO":"１４號","E_COORD97":167018.26000000001,"N_COORD97":2544775.7000000002,"ADDRESS":"和善街８４巷１４號","OBJECTID":297771},"geometry":{"x":167018.26000000071,"y":2544775.7000000011}},{"attributes":{"ID":297780,"DIS_CODE":0,"TOWNNAME":"安南區","LI":"東和里","LIN":"3鄰","STREET":"長和路","SECT":"一段","MAREA":" ","LANE":"９４１巷","ALLEY":" ","HOUSE_NO":"２６號","E_COORD97":170568.63,"N_COORD97":2551495.8900000001,"ADDRESS":"長和路一段９４１巷２６號","OBJECTID":297772},"geometry":{"x":170568.63000000175,"y":2551495.8900000025}},{"attributes":{"ID":297781,"DIS_CODE":0,"TOWNNAME":"安南區","LI":"東和里","LIN":"3鄰","STREET":"長和路","SECT":"一段","MAREA":" ","LANE":"９４１巷","ALLEY":" ","HOUSE_NO":"２４號","E_COORD97":170570.56,"N_COORD97":2551500.7000000002,"ADDRESS":"長和路一段９４１巷２４號","OBJECTID":297773},"geometry":{"x":170570.56000000145,"y":2551500.6999999993}},{"attributes":{"ID":297782,"DIS_CODE":0,"TOWNNAME":"安南區","LI":"州南里","LIN":"3鄰","STREET":"長和一街","SECT":" ","MAREA":" ","LANE":"１５巷","ALLEY":" ","HOUSE_NO":"４０號","E_COORD97":169574.72,"N_COORD97":2551368.3500000001,"ADDRESS":"長和一街１５巷４０號","OBJECTID":297774},"geometry":{"x":169574.72000000067,"y":2551368.3500000034}},{"attributes":{"ID":297783,"DIS_CODE":0,"TOWNNAME":"中西區","LI":"文賢里","LIN":"8鄰","STREET":"和善街","SECT":" ","MAREA":" ","LANE":"８４巷","ALLEY":" ","HOUSE_NO":"１５號","E_COORD97":167002.07999999999,"N_COORD97":2544786.8900000001,"ADDRESS":"和善街８４巷１５號","OBJECTID":297775},"geometry":{"x":167002.08000000007,"y":2544786.8900000006}},{"attributes":{"ID":297784,"DIS_CODE":0,"TOWNNAME":"中西區","LI":"文賢里","LIN":"8鄰","STREET":"和善街","SECT":" ","MAREA":" ","LANE":"８４巷","ALLEY":" ","HOUSE_NO":"１７號","E_COORD97":167005.48000000001,"N_COORD97":2544788.7200000002,"ADDRESS":"和善街８４巷１７號","OBJECTID":297776},"geometry":{"x":167005.48000000138,"y":2544788.7200000007}},{"attributes":{"ID":297785,"DIS_CODE":0,"TOWNNAME":"中西區","LI":"文賢里","LIN":"8鄰","STREET":"和善街","SECT":" ","MAREA":" ","LANE":"８４巷","ALLEY":" ","HOUSE_NO":"１９號","E_COORD97":167008.35999999999,"N_COORD97":2544791.3300000001,"ADDRESS":"和善街８４巷１９號","OBJECTID":297777},"geometry":{"x":167008.36000000127,"y":2544791.3300000001}},{"attributes":{"ID":297786,"DIS_CODE":0,"TOWNNAME":"中西區","LI":"文賢里","LIN":"8鄰","STREET":"和善街","SECT":" ","MAREA":" ","LANE":"８４巷","ALLEY":" ","HOUSE_NO":"１號","E_COORD97":166976.28,"N_COORD97":2544770.6400000001,"ADDRESS":"和善街８４巷１號","OBJECTID":297778},"geometry":{"x":166976.28000000119,"y":2544770.6400000025}},{"attributes":{"ID":297787,"DIS_CODE":0,"TOWNNAME":"中西區","LI":"文賢里","LIN":"8鄰","STREET":"和善街","SECT":" ","MAREA":" ","LANE":"８４巷","ALLEY":" ","HOUSE_NO":"２１號","E_COORD97":167013.59,"N_COORD97":2544794.3300000001,"ADDRESS":"和善街８４巷２１號","OBJECTID":297779},"geometry":{"x":167013.58999999985,"y":2544794.3300000001}},{"attributes":{"ID":297788,"DIS_CODE":0,"TOWNNAME":"中西區","LI":"文賢里","LIN":"8鄰","STREET":"和善街","SECT":" ","MAREA":" ","LANE":"８４巷","ALLEY":" ","HOUSE_NO":"２號","E_COORD97":166994.32000000001,"N_COORD97":2544761.46,"ADDRESS":"和善街８４巷２號","OBJECTID":297780},"geometry":{"x":166994.32000000216,"y":2544761.4600000028}},{"attributes":{"ID":297789,"DIS_CODE":0,"TOWNNAME":"中西區","LI":"文賢里","LIN":"8鄰","STREET":"和善街","SECT":" ","MAREA":" ","LANE":"８４巷","ALLEY":" ","HOUSE_NO":"５號","E_COORD97":166981.51000000001,"N_COORD97":2544774.4300000002,"ADDRESS":"和善街８４巷５號","OBJECTID":297781},"geometry":{"x":166981.50999999978,"y":2544774.4300000016}},{"attributes":{"ID":297790,"DIS_CODE":0,"TOWNNAME":"中西區","LI":"文賢里","LIN":"8鄰","STREET":"和善街","SECT":" ","MAREA":" ","LANE":"８４巷","ALLEY":" ","HOUSE_NO":"６號","E_COORD97":167002.95999999999,"N_COORD97":2544765.8999999999,"ADDRESS":"和善街８４巷６號","OBJECTID":297782},"geometry":{"x":167002.95999999996,"y":2544765.9000000022}},{"attributes":{"ID":297791,"DIS_CODE":0,"TOWNNAME":"中西區","LI":"文賢里","LIN":"8鄰","STREET":"和善街","SECT":" ","MAREA":" ","LANE":"８４巷","ALLEY":" ","HOUSE_NO":"７號","E_COORD97":166986.35000000001,"N_COORD97":2544776.2599999998,"ADDRESS":"和善街８４巷７號","OBJECTID":297783},"geometry":{"x":166986.34999999963,"y":2544776.2600000016}},{"attributes":{"ID":297792,"DIS_CODE":0,"TOWNNAME":"永康區","LI":"龍潭里","LIN":"42鄰","STREET":"永平街","SECT":" ","MAREA":" ","LANE":"７５９巷","ALLEY":" ","HOUSE_NO":"２８號四樓","E_COORD97":174591.48000000001,"N_COORD97":2547087.25,"ADDRESS":"永平街７５９巷２８號四樓","OBJECTID":297784},"geometry":{"x":174591.48000000138,"y":2547087.2499999981}},{"attributes":{"ID":297793,"DIS_CODE":0,"TOWNNAME":"永康區","LI":"復華里","LIN":"9鄰","STREET":"復國二路","SECT":" ","MAREA":" ","LANE":"２１５巷","ALLEY":" ","HOUSE_NO":"３２號七樓之２","E_COORD97":172914.13,"N_COORD97":2546065.1000000001,"ADDRESS":"復國二路２１５巷３２號七樓之２","OBJECTID":297785},"geometry":{"x":172914.12999999989,"y":2546065.1000000015}},{"attributes":{"ID":297794,"DIS_CODE":0,"TOWNNAME":"永康區","LI":"復華里","LIN":"9鄰","STREET":"復國二路","SECT":" ","MAREA":" ","LANE":"２１５巷","ALLEY":" ","HOUSE_NO":"３０號五樓之１","E_COORD97":172918.25,"N_COORD97":2546062.6000000001,"ADDRESS":"復國二路２１５巷３０號五樓之１","OBJECTID":297786},"geometry":{"x":172918.25000000093,"y":2546062.5999999996}},{"attributes":{"ID":297795,"DIS_CODE":0,"TOWNNAME":"永康區","LI":"復華里","LIN":"9鄰","STREET":"復國二路","SECT":" ","MAREA":" ","LANE":"２１５巷","ALLEY":" ","HOUSE_NO":"３６號七樓之１","E_COORD97":172910.41,"N_COORD97":2546067.8500000001,"ADDRESS":"復國二路２１５巷３６號七樓之１","OBJECTID":297787},"geometry":{"x":172910.41000000108,"y":2546067.8499999996}},{"attributes":{"ID":297796,"DIS_CODE":0,"TOWNNAME":"永康區","LI":"網寮里","LIN":"20鄰","STREET":"文化路","SECT":" ","MAREA":" ","LANE":"３２３巷","ALLEY":" ","HOUSE_NO":"１號三樓之２","E_COORD97":173432.57000000001,"N_COORD97":2546130.1099999999,"ADDRESS":"文化路３２３巷１號三樓之２","OBJECTID":297788},"geometry":{"x":173432.57000000216,"y":2546130.1099999994}},{"attributes":{"ID":297797,"DIS_CODE":0,"TOWNNAME":"永康區","LI":"安康里","LIN":" ","STREET":"中華路","SECT":" ","MAREA":" ","LANE":"６１９巷","ALLEY":" ","HOUSE_NO":"１９號之１號三樓","E_COORD97":170998.32000000001,"N_COORD97":2546063.79,"ADDRESS":"中華路６１９巷１９號之１號三樓","OBJECTID":297789},"geometry":{"x":170998.32000000216,"y":2546063.790000001}},{"attributes":{"ID":297798,"DIS_CODE":0,"TOWNNAME":"東區","LI":"小東里","LIN":"32鄰","STREET":"光明街","SECT":" ","MAREA":" ","LANE":"６６巷","ALLEY":" ","HOUSE_NO":"３９號二樓之１","E_COORD97":170820.35000000001,"N_COORD97":2544176.2999999998,"ADDRESS":"光明街６６巷３９號二樓之１","OBJECTID":297790},"geometry":{"x":170820.34999999963,"y":2544176.3000000026}},{"attributes":{"ID":297799,"DIS_CODE":0,"TOWNNAME":"中西區","LI":"光賢里","LIN":"8鄰","STREET":"武聖路","SECT":" ","MAREA":" ","LANE":"６９巷","ALLEY":" ","HOUSE_NO":"１０３號","E_COORD97":167036.01999999999,"N_COORD97":2544889.5099999998,"ADDRESS":"武聖路６９巷１０３號","OBJECTID":297791},"geometry":{"x":167036.01999999955,"y":2544889.5100000016}},{"attributes":{"ID":297800,"DIS_CODE":0,"TOWNNAME":"安南區","LI":"學東里","LIN":"14鄰","STREET":"公學路","SECT":"七段","MAREA":" ","LANE":" ","ALLEY":" ","HOUSE_NO":"９９號","E_COORD97":161740.51000000001,"N_COORD97":2553394.3100000001,"ADDRESS":"公學路七段９９號","OBJECTID":297792},"geometry":{"x":161740.50999999978,"y":2553394.3100000024}},{"attributes":{"ID":297801,"DIS_CODE":0,"TOWNNAME":"新市區","LI":"新市里","LIN":"14鄰","STREET":"中正路","SECT":" ","MAREA":" ","LANE":" ","ALLEY":" ","HOUSE_NO":"３１９號","E_COORD97":177647.01000000001,"N_COORD97":2553267.75,"ADDRESS":"中正路３１９號","OBJECTID":297793},"geometry":{"x":177647.01000000071,"y":2553267.75}},{"attributes":{"ID":297802,"DIS_CODE":0,"TOWNNAME":"善化區","LI":"東關里","LIN":"14鄰","STREET":"中興路","SECT":" ","MAREA":" ","LANE":" ","ALLEY":" ","HOUSE_NO":"１２１號","E_COORD97":177400.81,"N_COORD97":2559022.5,"ADDRESS":"中興路１２１號","OBJECTID":297794},"geometry":{"x":177400.81000000052,"y":2559022.5}},{"attributes":{"ID":297803,"DIS_CODE":0,"TOWNNAME":"東區","LI":"關聖里","LIN":"14鄰","STREET":"裕智街","SECT":" ","MAREA":" ","LANE":" ","ALLEY":" ","HOUSE_NO":"１９號","E_COORD97":172090.78,"N_COORD97":2542975.8500000001,"ADDRESS":"裕智街１９號","OBJECTID":297795},"geometry":{"x":172090.78000000119,"y":2542975.8499999996}},{"attributes":{"ID":297804,"DIS_CODE":0,"TOWNNAME":"東區","LI":"德高里","LIN":"14鄰","STREET":"仁和路","SECT":" ","MAREA":" ","LANE":" ","ALLEY":" ","HOUSE_NO":"１９１號","E_COORD97":171635.95999999999,"N_COORD97":2540859.5,"ADDRESS":"仁和路１９１號","OBJECTID":297796},"geometry":{"x":171635.95999999996,"y":2540859.5}},{"attributes":{"ID":297805,"DIS_CODE":0,"TOWNNAME":"東區","LI":"德高里","LIN":"14鄰","STREET":"仁和路","SECT":" ","MAREA":" ","LANE":" ","ALLEY":" ","HOUSE_NO":"１８７號","E_COORD97":171630.45999999999,"N_COORD97":2540866.3799999999,"ADDRESS":"仁和路１８７號","OBJECTID":297797},"geometry":{"x":171630.45999999996,"y":2540866.379999999}},{"attributes":{"ID":297806,"DIS_CODE":0,"TOWNNAME":"東區","LI":"德高里","LIN":"14鄰","STREET":"仁和路","SECT":" ","MAREA":" ","LANE":" ","ALLEY":" ","HOUSE_NO":"１８５號","E_COORD97":171628.48999999999,"N_COORD97":2540870.8999999999,"ADDRESS":"仁和路１８５號","OBJECTID":297798},"geometry":{"x":171628.49000000115,"y":2540870.9000000004}},{"attributes":{"ID":297807,"DIS_CODE":0,"TOWNNAME":"東區","LI":"德高里","LIN":"14鄰","STREET":"仁和路","SECT":" ","MAREA":" ","LANE":" ","ALLEY":" ","HOUSE_NO":"１８３號","E_COORD97":171627.12,"N_COORD97":2540874.8300000001,"ADDRESS":"仁和路１８３號","OBJECTID":297799},"geometry":{"x":171627.12000000104,"y":2540874.8300000001}},{"attributes":{"ID":297808,"DIS_CODE":0,"TOWNNAME":"中西區","LI":"光賢里","LIN":"8鄰","STREET":"武聖路","SECT":" ","MAREA":" ","LANE":"６９巷","ALLEY":" ","HOUSE_NO":"１０５號","E_COORD97":167033.48000000001,"N_COORD97":2544885.2799999998,"ADDRESS":"武聖路６９巷１０５號","OBJECTID":297800},"geometry":{"x":167033.48000000045,"y":2544885.2799999993}}]}