{"displayFieldName":"TOWNNAME","fieldAliases":{"ID":"ID","DIS_CODE":"DIS_CODE","TOWNNAME":"TOWNNAME","LI":"LI","LIN":"LIN","STREET":"STREET","SECT":"SECT","MAREA":"MAREA","LANE":"LANE","ALLEY":"ALLEY","HOUSE_NO":"HOUSE_NO","E_COORD97":"E_COORD97","N_COORD97":"N_COORD97","ADDRESS":"ADDRESS","OBJECTID":"OBJECTID"},"geometryType":"esriGeometryPoint","spatialReference":{"wkid":102443,"latestWkid":3826},"fields":[{"name":"ID","type":"esriFieldTypeDouble","alias":"ID"},{"name":"DIS_CODE","type":"esriFieldTypeInteger","alias":"DIS_CODE"},{"name":"TOWNNAME","type":"esriFieldTypeString","alias":"TOWNNAME","length":8},{"name":"LI","type":"esriFieldTypeString","alias":"LI","length":8},{"name":"LIN","type":"esriFieldTypeString","alias":"LIN","length":12},{"name":"STREET","type":"esriFieldTypeString","alias":"STREET","length":20},{"name":"SECT","type":"esriFieldTypeString","alias":"SECT","length":8},{"name":"MAREA","type":"esriFieldTypeString","alias":"MAREA","length":12},{"name":"LANE","type":"esriFieldTypeString","alias":"LANE","length":10},{"name":"ALLEY","type":"esriFieldTypeString","alias":"ALLEY","length":10},{"name":"HOUSE_NO","type":"esriFieldTypeString","alias":"HOUSE_NO","length":20},{"name":"E_COORD97","type":"esriFieldTypeDouble","alias":"E_COORD97"},{"name":"N_COORD97","type":"esriFieldTypeDouble","alias":"N_COORD97"},{"name":"ADDRESS","type":"esriFieldTypeString","alias":"ADDRESS","length":50},{"name":"OBJECTID","type":"esriFieldTypeOID","alias":"OBJECTID"}],"features":[{"attributes":{"ID":336010,"DIS_CODE":0,"TOWNNAME":"安南區","LI":"安慶里","LIN":"1鄰","STREET":"長溪路","SECT":"一段","MAREA":" ","LANE":"１６８巷","ALLEY":" ","HOUSE_NO":"２７６號","E_COORD97":168898.32999999999,"N_COORD97":2548895.4300000002,"ADDRESS":"長溪路一段１６８巷２７６號","OBJECTID":336001},"geometry":{"x":168898.33000000101,"y":2548895.4299999997}},{"attributes":{"ID":336011,"DIS_CODE":0,"TOWNNAME":"安南區","LI":"安慶里","LIN":"1鄰","STREET":"長溪路","SECT":"一段","MAREA":" ","LANE":"１６８巷","ALLEY":" ","HOUSE_NO":"２７８號","E_COORD97":168900.44,"N_COORD97":2548882.96,"ADDRESS":"長溪路一段１６８巷２７８號","OBJECTID":336002},"geometry":{"x":168900.44000000041,"y":2548882.9600000009}},{"attributes":{"ID":336012,"DIS_CODE":0,"TOWNNAME":"安南區","LI":"安慶里","LIN":"1鄰","STREET":"長溪路","SECT":"一段","MAREA":" ","LANE":"１６８巷","ALLEY":" ","HOUSE_NO":"２８６號","E_COORD97":168898.01999999999,"N_COORD97":2548863.9199999999,"ADDRESS":"長溪路一段１６８巷２８６號","OBJECTID":336003},"geometry":{"x":168898.02000000048,"y":2548863.9200000018}},{"attributes":{"ID":336013,"DIS_CODE":0,"TOWNNAME":"安南區","LI":"安慶里","LIN":"1鄰","STREET":"長溪路","SECT":"一段","MAREA":" ","LANE":"１６８巷","ALLEY":" ","HOUSE_NO":"２８８號","E_COORD97":168880.5,"N_COORD97":2548865.2599999998,"ADDRESS":"長溪路一段１６８巷２８８號","OBJECTID":336004},"geometry":{"x":168880.5,"y":2548865.2600000016}},{"attributes":{"ID":336014,"DIS_CODE":0,"TOWNNAME":"安南區","LI":"安慶里","LIN":"1鄰","STREET":"長溪路","SECT":"一段","MAREA":" ","LANE":"１６８巷","ALLEY":" ","HOUSE_NO":"２９７號","E_COORD97":168892.78,"N_COORD97":2548823.2000000002,"ADDRESS":"長溪路一段１６８巷２９７號","OBJECTID":336005},"geometry":{"x":168892.78000000026,"y":2548823.2000000011}},{"attributes":{"ID":336015,"DIS_CODE":0,"TOWNNAME":"仁德區","LI":"土庫里","LIN":"8鄰","STREET":"土庫路","SECT":" ","MAREA":" ","LANE":" ","ALLEY":" ","HOUSE_NO":"３８號","E_COORD97":174220.51000000001,"N_COORD97":2543293.2400000002,"ADDRESS":"土庫路３８號","OBJECTID":336006},"geometry":{"x":174220.50999999978,"y":2543293.2400000002}},{"attributes":{"ID":336016,"DIS_CODE":0,"TOWNNAME":"安南區","LI":"安慶里","LIN":"1鄰","STREET":"長溪路","SECT":"一段","MAREA":" ","LANE":"１６８巷","ALLEY":" ","HOUSE_NO":"３０３號","E_COORD97":168875.48999999999,"N_COORD97":2548826.8900000001,"ADDRESS":"長溪路一段１６８巷３０３號","OBJECTID":336007},"geometry":{"x":168875.49000000115,"y":2548826.8900000025}},{"attributes":{"ID":336017,"DIS_CODE":0,"TOWNNAME":"安南區","LI":"安慶里","LIN":"1鄰","STREET":"長溪路","SECT":"一段","MAREA":" ","LANE":"１６８巷","ALLEY":" ","HOUSE_NO":"３０５號","E_COORD97":168868.64000000001,"N_COORD97":2548826.1499999999,"ADDRESS":"長溪路一段１６８巷３０５號","OBJECTID":336008},"geometry":{"x":168868.6400000006,"y":2548826.1500000004}},{"attributes":{"ID":336018,"DIS_CODE":0,"TOWNNAME":"安南區","LI":"安慶里","LIN":"1鄰","STREET":"長溪路","SECT":"一段","MAREA":" ","LANE":"１６８巷","ALLEY":" ","HOUSE_NO":"３０６號","E_COORD97":168838.42999999999,"N_COORD97":2548879.6099999999,"ADDRESS":"長溪路一段１６８巷３０６號","OBJECTID":336009},"geometry":{"x":168838.4299999997,"y":2548879.6099999994}},{"attributes":{"ID":336019,"DIS_CODE":0,"TOWNNAME":"安南區","LI":"安慶里","LIN":"1鄰","STREET":"長溪路","SECT":"一段","MAREA":" ","LANE":"１６８巷","ALLEY":" ","HOUSE_NO":"３０７號","E_COORD97":168863.79999999999,"N_COORD97":2548827.7799999998,"ADDRESS":"長溪路一段１６８巷３０７號","OBJECTID":336010},"geometry":{"x":168863.80000000168,"y":2548827.7799999993}},{"attributes":{"ID":336020,"DIS_CODE":0,"TOWNNAME":"安南區","LI":"安慶里","LIN":"1鄰","STREET":"長溪路","SECT":"一段","MAREA":" ","LANE":"１６８巷","ALLEY":" ","HOUSE_NO":"３０９號","E_COORD97":168859.41,"N_COORD97":2548829.79,"ADDRESS":"長溪路一段１６８巷３０９號","OBJECTID":336011},"geometry":{"x":168859.41000000015,"y":2548829.790000001}},{"attributes":{"ID":336021,"DIS_CODE":0,"TOWNNAME":"安南區","LI":"安慶里","LIN":"1鄰","STREET":"長溪路","SECT":"一段","MAREA":" ","LANE":"１６８巷","ALLEY":" ","HOUSE_NO":"３１２號","E_COORD97":168816.79000000001,"N_COORD97":2548868.0899999999,"ADDRESS":"長溪路一段１６８巷３１２號","OBJECTID":336012},"geometry":{"x":168816.79000000097,"y":2548868.089999998}},{"attributes":{"ID":336022,"DIS_CODE":0,"TOWNNAME":"安南區","LI":"安慶里","LIN":"1鄰","STREET":"長溪路","SECT":"一段","MAREA":" ","LANE":"１６８巷","ALLEY":" ","HOUSE_NO":"３１３號","E_COORD97":168850.62,"N_COORD97":2548828.1499999999,"ADDRESS":"長溪路一段１６８巷３１３號","OBJECTID":336013},"geometry":{"x":168850.62000000104,"y":2548828.1500000022}},{"attributes":{"ID":336023,"DIS_CODE":0,"TOWNNAME":"安平區","LI":"平安里","LIN":"7鄰","STREET":"安平路","SECT":" ","MAREA":" ","LANE":"４０６巷","ALLEY":" ","HOUSE_NO":"８號","E_COORD97":165415.44,"N_COORD97":2544341.5099999998,"ADDRESS":"安平路４０６巷８號","OBJECTID":336014},"geometry":{"x":165415.44000000227,"y":2544341.5099999998}},{"attributes":{"ID":336024,"DIS_CODE":0,"TOWNNAME":"安南區","LI":"安慶里","LIN":"1鄰","STREET":"長溪路","SECT":"一段","MAREA":" ","LANE":"１６８巷","ALLEY":" ","HOUSE_NO":"３１４號","E_COORD97":168807.82999999999,"N_COORD97":2548870.4500000002,"ADDRESS":"長溪路一段１６８巷３１４號","OBJECTID":336015},"geometry":{"x":168807.83000000194,"y":2548870.4499999993}},{"attributes":{"ID":336025,"DIS_CODE":0,"TOWNNAME":"新市區","LI":"港墘里","LIN":"1鄰","STREET":"民族路","SECT":" ","MAREA":" ","LANE":"２８巷","ALLEY":" ","HOUSE_NO":"２號","E_COORD97":178590.29000000001,"N_COORD97":2553912.79,"ADDRESS":"民族路２８巷２號","OBJECTID":336016},"geometry":{"x":178590.29000000004,"y":2553912.7899999991}},{"attributes":{"ID":336026,"DIS_CODE":0,"TOWNNAME":"新市區","LI":"港墘里","LIN":"1鄰","STREET":"民族路","SECT":" ","MAREA":" ","LANE":"１６巷","ALLEY":" ","HOUSE_NO":"２號","E_COORD97":178612.48999999999,"N_COORD97":2553934.54,"ADDRESS":"民族路１６巷２號","OBJECTID":336017},"geometry":{"x":178612.49000000115,"y":2553934.540000001}},{"attributes":{"ID":336027,"DIS_CODE":0,"TOWNNAME":"新市區","LI":"港墘里","LIN":"1鄰","STREET":"民族路","SECT":" ","MAREA":" ","LANE":"１６巷","ALLEY":" ","HOUSE_NO":"１０號","E_COORD97":178600.88,"N_COORD97":2553946.04,"ADDRESS":"民族路１６巷１０號","OBJECTID":336018},"geometry":{"x":178600.88000000082,"y":2553946.0399999991}},{"attributes":{"ID":336028,"DIS_CODE":0,"TOWNNAME":"安南區","LI":"溪東里","LIN":"1鄰","STREET":"府安路","SECT":"五段","MAREA":" ","LANE":"１４４巷","ALLEY":" ","HOUSE_NO":"２之１號","E_COORD97":167894.04000000001,"N_COORD97":2547080.5899999999,"ADDRESS":"府安路五段１４４巷２之１號","OBJECTID":336019},"geometry":{"x":167894.04000000004,"y":2547080.5899999999}},{"attributes":{"ID":336029,"DIS_CODE":0,"TOWNNAME":"安南區","LI":"淵中里","LIN":"1鄰","STREET":"安中路","SECT":"三段","MAREA":" ","LANE":"３２９巷","ALLEY":" ","HOUSE_NO":"２７號","E_COORD97":165638.79999999999,"N_COORD97":2549818.23,"ADDRESS":"安中路三段３２９巷２７號","OBJECTID":336020},"geometry":{"x":165638.79999999981,"y":2549818.2300000023}},{"attributes":{"ID":336030,"DIS_CODE":0,"TOWNNAME":"安南區","LI":"淵中里","LIN":"1鄰","STREET":"安中路","SECT":"三段","MAREA":" ","LANE":"３２９巷","ALLEY":" ","HOUSE_NO":"２９號","E_COORD97":165638.14000000001,"N_COORD97":2549814.2799999998,"ADDRESS":"安中路三段３２９巷２９號","OBJECTID":336021},"geometry":{"x":165638.13999999966,"y":2549814.2799999993}},{"attributes":{"ID":336031,"DIS_CODE":0,"TOWNNAME":"安南區","LI":"淵中里","LIN":"1鄰","STREET":"安中路","SECT":"三段","MAREA":" ","LANE":"３２９巷","ALLEY":" ","HOUSE_NO":"３１號","E_COORD97":165637.35000000001,"N_COORD97":2549809.6600000001,"ADDRESS":"安中路三段３２９巷３１號","OBJECTID":336022},"geometry":{"x":165637.35000000149,"y":2549809.6600000001}},{"attributes":{"ID":336032,"DIS_CODE":0,"TOWNNAME":"安南區","LI":"淵中里","LIN":"1鄰","STREET":"安中路","SECT":"三段","MAREA":" ","LANE":"３２９巷","ALLEY":" ","HOUSE_NO":"３３號","E_COORD97":165636.29999999999,"N_COORD97":2549805.5,"ADDRESS":"安中路三段３２９巷３３號","OBJECTID":336023},"geometry":{"x":165636.30000000075,"y":2549805.5000000019}},{"attributes":{"ID":336033,"DIS_CODE":0,"TOWNNAME":"安南區","LI":"淵中里","LIN":"1鄰","STREET":"安中路","SECT":"三段","MAREA":" ","LANE":"３２９巷","ALLEY":" ","HOUSE_NO":"３５號","E_COORD97":165634.31,"N_COORD97":2549800.3999999999,"ADDRESS":"安中路三段３２９巷３５號","OBJECTID":336024},"geometry":{"x":165634.31000000052,"y":2549800.4000000022}},{"attributes":{"ID":336034,"DIS_CODE":0,"TOWNNAME":"安南區","LI":"青草里","LIN":"1鄰","STREET":"青砂街","SECT":"一段","MAREA":" ","LANE":"６９５巷","ALLEY":" ","HOUSE_NO":"１７４之５號","E_COORD97":159466.32999999999,"N_COORD97":2552790.1400000001,"ADDRESS":"青砂街一段６９５巷１７４之５號","OBJECTID":336025},"geometry":{"x":159466.33000000101,"y":2552790.1400000006}},{"attributes":{"ID":336035,"DIS_CODE":0,"TOWNNAME":"安南區","LI":"青草里","LIN":"1鄰","STREET":"青砂街","SECT":"一段","MAREA":" ","LANE":"６９５巷","ALLEY":" ","HOUSE_NO":"１７４之６號","E_COORD97":159459.75,"N_COORD97":2552790.1400000001,"ADDRESS":"青砂街一段６９５巷１７４之６號","OBJECTID":336026},"geometry":{"x":159459.75000000093,"y":2552790.1400000006}},{"attributes":{"ID":336036,"DIS_CODE":0,"TOWNNAME":"安南區","LI":"青草里","LIN":"1鄰","STREET":"青砂街","SECT":"一段","MAREA":" ","LANE":"６９５巷","ALLEY":" ","HOUSE_NO":"１７４之７號","E_COORD97":159452.5,"N_COORD97":2552790.1400000001,"ADDRESS":"青砂街一段６９５巷１７４之７號","OBJECTID":336027},"geometry":{"x":159452.50000000186,"y":2552790.1400000006}},{"attributes":{"ID":336037,"DIS_CODE":0,"TOWNNAME":"安南區","LI":"青草里","LIN":"1鄰","STREET":"青砂街","SECT":"一段","MAREA":" ","LANE":"６９５巷","ALLEY":" ","HOUSE_NO":"１７４之８號","E_COORD97":159446.26999999999,"N_COORD97":2552790.8199999998,"ADDRESS":"青砂街一段６９５巷１７４之８號","OBJECTID":336028},"geometry":{"x":159446.26999999955,"y":2552790.8200000022}},{"attributes":{"ID":336038,"DIS_CODE":0,"TOWNNAME":"安南區","LI":"南興里","LIN":"1鄰","STREET":"安中路","SECT":"五段","MAREA":" ","LANE":"３８６巷","ALLEY":" ","HOUSE_NO":"７１號","E_COORD97":162610,"N_COORD97":2551211.0699999998,"ADDRESS":"安中路五段３８６巷７１號","OBJECTID":336029},"geometry":{"x":162610,"y":2551211.0700000003}},{"attributes":{"ID":336039,"DIS_CODE":0,"TOWNNAME":"永康區","LI":"東橋里","LIN":"1鄰","STREET":"中山南路","SECT":" ","MAREA":" ","LANE":"１９５巷","ALLEY":" ","HOUSE_NO":"９６號","E_COORD97":171308.94,"N_COORD97":2546599.2799999998,"ADDRESS":"中山南路１９５巷９６號","OBJECTID":336030},"geometry":{"x":171308.94000000041,"y":2546599.2800000012}},{"attributes":{"ID":336040,"DIS_CODE":0,"TOWNNAME":"永康區","LI":"建國里","LIN":"1鄰","STREET":"復興路","SECT":" ","MAREA":" ","LANE":"２６巷","ALLEY":" ","HOUSE_NO":"５３號","E_COORD97":173078.60000000001,"N_COORD97":2544767.7799999998,"ADDRESS":"復興路２６巷５３號","OBJECTID":336031},"geometry":{"x":173078.59999999963,"y":2544767.7800000031}},{"attributes":{"ID":336041,"DIS_CODE":0,"TOWNNAME":"永康區","LI":"東橋里","LIN":"1鄰","STREET":"中山南路","SECT":" ","MAREA":" ","LANE":"１９５巷","ALLEY":" ","HOUSE_NO":"９４號","E_COORD97":171314.09,"N_COORD97":2546592.2799999998,"ADDRESS":"中山南路１９５巷９４號","OBJECTID":336032},"geometry":{"x":171314.08999999985,"y":2546592.2800000012}},{"attributes":{"ID":336042,"DIS_CODE":0,"TOWNNAME":"安平區","LI":"億載里","LIN":"1鄰","STREET":"平豐路","SECT":" ","MAREA":" ","LANE":"３９１巷","ALLEY":" ","HOUSE_NO":"２０號","E_COORD97":164227.95999999999,"N_COORD97":2543817.0299999998,"ADDRESS":"平豐路３９１巷２０號","OBJECTID":336033},"geometry":{"x":164227.95999999996,"y":2543817.0300000012}},{"attributes":{"ID":336043,"DIS_CODE":0,"TOWNNAME":"永康區","LI":"建國里","LIN":"1鄰","STREET":"復興路","SECT":" ","MAREA":" ","LANE":"２６巷","ALLEY":" ","HOUSE_NO":"６號","E_COORD97":173123.01999999999,"N_COORD97":2544393.2999999998,"ADDRESS":"復興路２６巷６號","OBJECTID":336034},"geometry":{"x":173123.01999999955,"y":2544393.3000000026}},{"attributes":{"ID":336044,"DIS_CODE":0,"TOWNNAME":"永康區","LI":"東橋里","LIN":"1鄰","STREET":"中山南路","SECT":" ","MAREA":" ","LANE":"１９５巷","ALLEY":" ","HOUSE_NO":"８９號","E_COORD97":171324.19,"N_COORD97":2546573.0299999998,"ADDRESS":"中山南路１９５巷８９號","OBJECTID":336035},"geometry":{"x":171324.19000000041,"y":2546573.0300000031}},{"attributes":{"ID":336045,"DIS_CODE":0,"TOWNNAME":"永康區","LI":"建國里","LIN":"1鄰","STREET":"復興路","SECT":" ","MAREA":" ","LANE":"２６巷","ALLEY":" ","HOUSE_NO":"６６號","E_COORD97":173134.28,"N_COORD97":2544727.27,"ADDRESS":"復興路２６巷６６號","OBJECTID":336036},"geometry":{"x":173134.28000000026,"y":2544727.2700000033}},{"attributes":{"ID":336046,"DIS_CODE":0,"TOWNNAME":"永康區","LI":"東橋里","LIN":"1鄰","STREET":"中山南路","SECT":" ","MAREA":" ","LANE":"１９５巷","ALLEY":" ","HOUSE_NO":"８８號","E_COORD97":171327,"N_COORD97":2546569.5299999998,"ADDRESS":"中山南路１９５巷８８號","OBJECTID":336037},"geometry":{"x":171327,"y":2546569.5300000031}},{"attributes":{"ID":336047,"DIS_CODE":0,"TOWNNAME":"永康區","LI":"建國里","LIN":"1鄰","STREET":"復興路","SECT":" ","MAREA":" ","LANE":"２６巷","ALLEY":" ","HOUSE_NO":"３１號之３","E_COORD97":173028.13,"N_COORD97":2544568.7400000002,"ADDRESS":"復興路２６巷３１號之３","OBJECTID":336038},"geometry":{"x":173028.12999999989,"y":2544568.7400000039}},{"attributes":{"ID":336048,"DIS_CODE":0,"TOWNNAME":"永康區","LI":"東橋里","LIN":"1鄰","STREET":"中山南路","SECT":" ","MAREA":" ","LANE":"１９５巷","ALLEY":" ","HOUSE_NO":"９８號","E_COORD97":171304.34,"N_COORD97":2546606.5299999998,"ADDRESS":"中山南路１９５巷９８號","OBJECTID":336039},"geometry":{"x":171304.33999999985,"y":2546606.5299999993}},{"attributes":{"ID":336049,"DIS_CODE":0,"TOWNNAME":"永康區","LI":"建國里","LIN":"1鄰","STREET":"復興路","SECT":" ","MAREA":" ","LANE":"２６巷","ALLEY":" ","HOUSE_NO":"５１之１號","E_COORD97":173051.94,"N_COORD97":2544765.5499999998,"ADDRESS":"復興路２６巷５１之１號","OBJECTID":336040},"geometry":{"x":173051.94000000041,"y":2544765.5500000007}},{"attributes":{"ID":336050,"DIS_CODE":0,"TOWNNAME":"永康區","LI":"建國里","LIN":"1鄰","STREET":"復興路","SECT":" ","MAREA":" ","LANE":"２６巷","ALLEY":" ","HOUSE_NO":"３１號之２","E_COORD97":173035.32000000001,"N_COORD97":2544566.4900000002,"ADDRESS":"復興路２６巷３１號之２","OBJECTID":336041},"geometry":{"x":173035.3200000003,"y":2544566.4900000002}},{"attributes":{"ID":336051,"DIS_CODE":0,"TOWNNAME":"永康區","LI":"建國里","LIN":"1鄰","STREET":"復興路","SECT":" ","MAREA":" ","LANE":"２６巷","ALLEY":" ","HOUSE_NO":"１７號","E_COORD97":173093.45999999999,"N_COORD97":2544549.2200000002,"ADDRESS":"復興路２６巷１７號","OBJECTID":336042},"geometry":{"x":173093.45999999996,"y":2544549.2200000044}},{"attributes":{"ID":336052,"DIS_CODE":0,"TOWNNAME":"永康區","LI":"南灣里","LIN":"1鄰","STREET":"大灣二街","SECT":" ","MAREA":" ","LANE":"１１３巷","ALLEY":" ","HOUSE_NO":"２號","E_COORD97":174736.32000000001,"N_COORD97":2544780.4900000002,"ADDRESS":"大灣二街１１３巷２號","OBJECTID":336043},"geometry":{"x":174736.32000000216,"y":2544780.4900000039}},{"attributes":{"ID":336053,"DIS_CODE":0,"TOWNNAME":"永康區","LI":"建國里","LIN":"1鄰","STREET":"復興路","SECT":" ","MAREA":" ","LANE":"２６巷","ALLEY":" ","HOUSE_NO":"２１號","E_COORD97":173080.14999999999,"N_COORD97":2544552.4700000002,"ADDRESS":"復興路２６巷２１號","OBJECTID":336044},"geometry":{"x":173080.1500000013,"y":2544552.4700000007}},{"attributes":{"ID":336054,"DIS_CODE":0,"TOWNNAME":"永康區","LI":"建國里","LIN":"1鄰","STREET":"復興路","SECT":" ","MAREA":" ","LANE":"２６巷","ALLEY":" ","HOUSE_NO":"７４之１０號","E_COORD97":173138.48999999999,"N_COORD97":2544975.1099999999,"ADDRESS":"復興路２６巷７４之１０號","OBJECTID":336045},"geometry":{"x":173138.49000000115,"y":2544975.1099999994}},{"attributes":{"ID":336055,"DIS_CODE":0,"TOWNNAME":"永康區","LI":"建國里","LIN":"1鄰","STREET":"復興路","SECT":" ","MAREA":" ","LANE":"２６巷","ALLEY":" ","HOUSE_NO":"４１號","E_COORD97":173118.81,"N_COORD97":2544662.7799999998,"ADDRESS":"復興路２６巷４１號","OBJECTID":336046},"geometry":{"x":173118.81000000052,"y":2544662.7800000012}},{"attributes":{"ID":336056,"DIS_CODE":0,"TOWNNAME":"永康區","LI":"建國里","LIN":"1鄰","STREET":"復興路","SECT":" ","MAREA":" ","LANE":"２６巷","ALLEY":" ","HOUSE_NO":"２０號","E_COORD97":173128.13,"N_COORD97":2544594.27,"ADDRESS":"復興路２６巷２０號","OBJECTID":336047},"geometry":{"x":173128.12999999989,"y":2544594.2699999996}},{"attributes":{"ID":336057,"DIS_CODE":0,"TOWNNAME":"永康區","LI":"建國里","LIN":"1鄰","STREET":"復興路","SECT":" ","MAREA":" ","LANE":"２６巷","ALLEY":" ","HOUSE_NO":"３５號之１","E_COORD97":173033.64000000001,"N_COORD97":2544617.54,"ADDRESS":"復興路２６巷３５號之１","OBJECTID":336048},"geometry":{"x":173033.6400000006,"y":2544617.540000001}},{"attributes":{"ID":336058,"DIS_CODE":0,"TOWNNAME":"永康區","LI":"東橋里","LIN":"1鄰","STREET":"中山南路","SECT":" ","MAREA":" ","LANE":"１９５巷","ALLEY":" ","HOUSE_NO":"１０３號","E_COORD97":171293.94,"N_COORD97":2546624.29,"ADDRESS":"中山南路１９５巷１０３號","OBJECTID":336049},"geometry":{"x":171293.94000000041,"y":2546624.2899999991}},{"attributes":{"ID":336059,"DIS_CODE":0,"TOWNNAME":"永康區","LI":"建國里","LIN":"1鄰","STREET":"復興路","SECT":" ","MAREA":" ","LANE":"２６巷","ALLEY":" ","HOUSE_NO":"１４號","E_COORD97":173122.10000000001,"N_COORD97":2544507.7000000002,"ADDRESS":"復興路２６巷１４號","OBJECTID":336050},"geometry":{"x":173122.10000000056,"y":2544507.7000000011}},{"attributes":{"ID":336060,"DIS_CODE":0,"TOWNNAME":"永康區","LI":"建國里","LIN":"1鄰","STREET":"復興路","SECT":" ","MAREA":" ","LANE":"２６巷","ALLEY":" ","HOUSE_NO":"２３號","E_COORD97":173073.28,"N_COORD97":2544555.2200000002,"ADDRESS":"復興路２６巷２３號","OBJECTID":336051},"geometry":{"x":173073.28000000026,"y":2544555.2200000007}},{"attributes":{"ID":336061,"DIS_CODE":0,"TOWNNAME":"永康區","LI":"南灣里","LIN":"1鄰","STREET":"大灣路","SECT":" ","MAREA":" ","LANE":"４３５巷","ALLEY":" ","HOUSE_NO":"１號","E_COORD97":174702.73999999999,"N_COORD97":2544773.2400000002,"ADDRESS":"大灣路４３５巷１號","OBJECTID":336052},"geometry":{"x":174702.74000000209,"y":2544773.2400000021}},{"attributes":{"ID":336062,"DIS_CODE":0,"TOWNNAME":"永康區","LI":"建國里","LIN":"1鄰","STREET":"復興路","SECT":" ","MAREA":" ","LANE":"２６巷","ALLEY":" ","HOUSE_NO":"５７號","E_COORD97":173110.79000000001,"N_COORD97":2544769.7799999998,"ADDRESS":"復興路２６巷５７號","OBJECTID":336053},"geometry":{"x":173110.79000000097,"y":2544769.7799999993}},{"attributes":{"ID":336063,"DIS_CODE":0,"TOWNNAME":"永康區","LI":"建國里","LIN":"1鄰","STREET":"復興路","SECT":" ","MAREA":" ","LANE":"２６巷","ALLEY":" ","HOUSE_NO":"２９號","E_COORD97":173053.31,"N_COORD97":2544560.9700000002,"ADDRESS":"復興路２６巷２９號","OBJECTID":336054},"geometry":{"x":173053.30999999959,"y":2544560.9700000044}},{"attributes":{"ID":336064,"DIS_CODE":0,"TOWNNAME":"永康區","LI":"建國里","LIN":"1鄰","STREET":"復興路","SECT":" ","MAREA":" ","LANE":"２６巷","ALLEY":" ","HOUSE_NO":"６４號","E_COORD97":173132.57000000001,"N_COORD97":2544713.27,"ADDRESS":"復興路２６巷６４號","OBJECTID":336055},"geometry":{"x":173132.57000000216,"y":2544713.2699999996}},{"attributes":{"ID":336065,"DIS_CODE":0,"TOWNNAME":"永康區","LI":"建國里","LIN":"1鄰","STREET":"復興路","SECT":" ","MAREA":" ","LANE":"２６巷","ALLEY":" ","HOUSE_NO":"４７號","E_COORD97":173119.03,"N_COORD97":2544711.1299999999,"ADDRESS":"復興路２６巷４７號","OBJECTID":336056},"geometry":{"x":173119.03000000026,"y":2544711.1300000008}},{"attributes":{"ID":336066,"DIS_CODE":0,"TOWNNAME":"永康區","LI":"建國里","LIN":"1鄰","STREET":"復興路","SECT":" ","MAREA":" ","LANE":"２６巷","ALLEY":" ","HOUSE_NO":"５１號","E_COORD97":173062.92999999999,"N_COORD97":2544766.2799999998,"ADDRESS":"復興路２６巷５１號","OBJECTID":336057},"geometry":{"x":173062.9299999997,"y":2544766.2799999993}},{"attributes":{"ID":336067,"DIS_CODE":0,"TOWNNAME":"永康區","LI":"建國里","LIN":"1鄰","STREET":"復興路","SECT":" ","MAREA":" ","LANE":"２６巷","ALLEY":" ","HOUSE_NO":"３５號","E_COORD97":173114.10000000001,"N_COORD97":2544596.02,"ADDRESS":"復興路２６巷３５號","OBJECTID":336058},"geometry":{"x":173114.09999999963,"y":2544596.0199999996}},{"attributes":{"ID":336068,"DIS_CODE":0,"TOWNNAME":"永康區","LI":"建國里","LIN":"1鄰","STREET":"復興路","SECT":" ","MAREA":" ","LANE":"２６巷","ALLEY":" ","HOUSE_NO":"３１號之１","E_COORD97":173041.53,"N_COORD97":2544564.7400000002,"ADDRESS":"復興路２６巷３１號之１","OBJECTID":336059},"geometry":{"x":173041.53000000119,"y":2544564.7400000002}},{"attributes":{"ID":336069,"DIS_CODE":0,"TOWNNAME":"永康區","LI":"東橋里","LIN":"1鄰","STREET":"中山南路","SECT":" ","MAREA":" ","LANE":"１９５巷","ALLEY":" ","HOUSE_NO":"９３號","E_COORD97":171314.75,"N_COORD97":2546588.0299999998,"ADDRESS":"中山南路１９５巷９３號","OBJECTID":336060},"geometry":{"x":171314.75,"y":2546588.0300000012}},{"attributes":{"ID":336070,"DIS_CODE":0,"TOWNNAME":"永康區","LI":"建國里","LIN":"1鄰","STREET":"復興路","SECT":" ","MAREA":" ","LANE":"２６巷","ALLEY":" ","HOUSE_NO":"１０號之１","E_COORD97":173133.73999999999,"N_COORD97":2544455.3300000001,"ADDRESS":"復興路２６巷１０號之１","OBJECTID":336061},"geometry":{"x":173133.74000000115,"y":2544455.3300000001}},{"attributes":{"ID":336071,"DIS_CODE":0,"TOWNNAME":"永康區","LI":"建國里","LIN":"1鄰","STREET":"復興路","SECT":" ","MAREA":" ","LANE":"２６巷","ALLEY":" ","HOUSE_NO":"４９號","E_COORD97":173115.23000000001,"N_COORD97":2544750.77,"ADDRESS":"復興路２６巷４９號","OBJECTID":336062},"geometry":{"x":173115.23000000138,"y":2544750.7700000033}},{"attributes":{"ID":336072,"DIS_CODE":0,"TOWNNAME":"永康區","LI":"建國里","LIN":"1鄰","STREET":"復興路","SECT":" ","MAREA":" ","LANE":"２６巷","ALLEY":" ","HOUSE_NO":"７４之９號","E_COORD97":173137.91,"N_COORD97":2544965.3599999999,"ADDRESS":"復興路２６巷７４之９號","OBJECTID":336063},"geometry":{"x":173137.91000000015,"y":2544965.3600000013}},{"attributes":{"ID":336073,"DIS_CODE":0,"TOWNNAME":"永康區","LI":"建國里","LIN":"1鄰","STREET":"復興路","SECT":" ","MAREA":" ","LANE":"２６巷","ALLEY":" ","HOUSE_NO":"５５號","E_COORD97":173095.10999999999,"N_COORD97":2544769.0299999998,"ADDRESS":"復興路２６巷５５號","OBJECTID":336064},"geometry":{"x":173095.1100000022,"y":2544769.0299999975}},{"attributes":{"ID":336074,"DIS_CODE":0,"TOWNNAME":"永康區","LI":"東橋里","LIN":"1鄰","STREET":"中山南路","SECT":" ","MAREA":" ","LANE":"１９５巷","ALLEY":" ","HOUSE_NO":"１０５號","E_COORD97":171288.79999999999,"N_COORD97":2546632.54,"ADDRESS":"中山南路１９５巷１０５號","OBJECTID":336065},"geometry":{"x":171288.79999999981,"y":2546632.5399999991}},{"attributes":{"ID":336075,"DIS_CODE":0,"TOWNNAME":"永康區","LI":"南灣里","LIN":"1鄰","STREET":"大灣二街","SECT":" ","MAREA":" ","LANE":"１１３巷","ALLEY":" ","HOUSE_NO":"１１號","E_COORD97":174742.81,"N_COORD97":2544733.25,"ADDRESS":"大灣二街１１３巷１１號","OBJECTID":336066},"geometry":{"x":174742.81000000052,"y":2544733.25}},{"attributes":{"ID":336076,"DIS_CODE":0,"TOWNNAME":"永康區","LI":"建國里","LIN":"1鄰","STREET":"復興路","SECT":" ","MAREA":" ","LANE":"２６巷","ALLEY":" ","HOUSE_NO":"７４之６號","E_COORD97":173139.01999999999,"N_COORD97":2544940.8500000001,"ADDRESS":"復興路２６巷７４之６號","OBJECTID":336067},"geometry":{"x":173139.02000000142,"y":2544940.8500000015}},{"attributes":{"ID":336077,"DIS_CODE":0,"TOWNNAME":"永康區","LI":"南灣里","LIN":"1鄰","STREET":"大灣二街","SECT":" ","MAREA":" ","LANE":"１１３巷","ALLEY":" ","HOUSE_NO":"３號","E_COORD97":174734.76000000001,"N_COORD97":2544764.4900000002,"ADDRESS":"大灣二街１１３巷３號","OBJECTID":336068},"geometry":{"x":174734.76000000071,"y":2544764.4900000021}},{"attributes":{"ID":336078,"DIS_CODE":0,"TOWNNAME":"永康區","LI":"建國里","LIN":"1鄰","STREET":"復興路","SECT":" ","MAREA":" ","LANE":"２６巷","ALLEY":" ","HOUSE_NO":"５１之３號","E_COORD97":173064.75,"N_COORD97":2544749.6200000001,"ADDRESS":"復興路２６巷５１之３號","OBJECTID":336069},"geometry":{"x":173064.75,"y":2544749.620000001}},{"attributes":{"ID":336079,"DIS_CODE":0,"TOWNNAME":"永康區","LI":"東橋里","LIN":"1鄰","STREET":"中山南路","SECT":" ","MAREA":" ","LANE":"１９５巷","ALLEY":" ","HOUSE_NO":"８５號","E_COORD97":171349.25,"N_COORD97":2546566.2799999998,"ADDRESS":"中山南路１９５巷８５號","OBJECTID":336070},"geometry":{"x":171349.25,"y":2546566.2799999993}},{"attributes":{"ID":336080,"DIS_CODE":0,"TOWNNAME":"永康區","LI":"建國里","LIN":"1鄰","STREET":"復興路","SECT":" ","MAREA":" ","LANE":"２６巷","ALLEY":" ","HOUSE_NO":"７４號","E_COORD97":173123.03,"N_COORD97":2544940.6800000002,"ADDRESS":"復興路２６巷７４號","OBJECTID":336071},"geometry":{"x":173123.03000000119,"y":2544940.6799999997}},{"attributes":{"ID":336081,"DIS_CODE":0,"TOWNNAME":"永康區","LI":"南灣里","LIN":"1鄰","STREET":"大灣二街","SECT":" ","MAREA":" ","LANE":"１１３巷","ALLEY":" ","HOUSE_NO":"５號","E_COORD97":174733.12,"N_COORD97":2544758.9900000002,"ADDRESS":"大灣二街１１３巷５號","OBJECTID":336072},"geometry":{"x":174733.12000000104,"y":2544758.9900000002}},{"attributes":{"ID":336082,"DIS_CODE":0,"TOWNNAME":"永康區","LI":"建國里","LIN":"1鄰","STREET":"復興路","SECT":" ","MAREA":" ","LANE":"２６巷","ALLEY":" ","HOUSE_NO":"３７號","E_COORD97":173108.70999999999,"N_COORD97":2544632.02,"ADDRESS":"復興路２６巷３７號","OBJECTID":336073},"geometry":{"x":173108.70999999996,"y":2544632.0200000014}},{"attributes":{"ID":336083,"DIS_CODE":0,"TOWNNAME":"永康區","LI":"建國里","LIN":"1鄰","STREET":"復興路","SECT":" ","MAREA":" ","LANE":"２６巷","ALLEY":" ","HOUSE_NO":"７４之１６號","E_COORD97":173178.39999999999,"N_COORD97":2544939.9900000002,"ADDRESS":"復興路２６巷７４之１６號","OBJECTID":336074},"geometry":{"x":173178.4000000013,"y":2544939.9900000039}},{"attributes":{"ID":336084,"DIS_CODE":0,"TOWNNAME":"永康區","LI":"東橋里","LIN":"1鄰","STREET":"中山南路","SECT":" ","MAREA":" ","LANE":"１９５巷","ALLEY":" ","HOUSE_NO":"９９號","E_COORD97":171302.14000000001,"N_COORD97":2546610.0299999998,"ADDRESS":"中山南路１９５巷９９號","OBJECTID":336075},"geometry":{"x":171302.13999999966,"y":2546610.0299999975}},{"attributes":{"ID":336085,"DIS_CODE":0,"TOWNNAME":"永康區","LI":"建國里","LIN":"1鄰","STREET":"復興路","SECT":" ","MAREA":" ","LANE":"２６巷","ALLEY":" ","HOUSE_NO":"７４之４號","E_COORD97":173124.23000000001,"N_COORD97":2544980.46,"ADDRESS":"復興路２６巷７４之４號","OBJECTID":336076},"geometry":{"x":173124.23000000045,"y":2544980.4600000009}},{"attributes":{"ID":336086,"DIS_CODE":0,"TOWNNAME":"永康區","LI":"南灣里","LIN":"1鄰","STREET":"大灣二街","SECT":" ","MAREA":" ","LANE":"１１３巷","ALLEY":" ","HOUSE_NO":"９號","E_COORD97":174733.20999999999,"N_COORD97":2544741.3599999999,"ADDRESS":"大灣二街１１３巷９號","OBJECTID":336077},"geometry":{"x":174733.21000000183,"y":2544741.3600000013}},{"attributes":{"ID":336087,"DIS_CODE":0,"TOWNNAME":"永康區","LI":"建國里","LIN":"1鄰","STREET":"復興路","SECT":" ","MAREA":" ","LANE":"２６巷","ALLEY":" ","HOUSE_NO":"５６號","E_COORD97":173140.14000000001,"N_COORD97":2544638.27,"ADDRESS":"復興路２６巷５６號","OBJECTID":336078},"geometry":{"x":173140.1400000006,"y":2544638.2699999996}},{"attributes":{"ID":336088,"DIS_CODE":0,"TOWNNAME":"安平區","LI":"怡平里","LIN":"24鄰","STREET":"平通路","SECT":" ","MAREA":" ","LANE":"３３３巷","ALLEY":" ","HOUSE_NO":"８５之１號","E_COORD97":165729.88,"N_COORD97":2543626.2599999998,"ADDRESS":"平通路３３３巷８５之１號","OBJECTID":336079},"geometry":{"x":165729.87999999989,"y":2543626.2600000016}},{"attributes":{"ID":336089,"DIS_CODE":0,"TOWNNAME":"永康區","LI":"建國里","LIN":"1鄰","STREET":"復興路","SECT":" ","MAREA":" ","LANE":"２６巷","ALLEY":" ","HOUSE_NO":"７４之８號","E_COORD97":173138.60999999999,"N_COORD97":2544956.1099999999,"ADDRESS":"復興路２６巷７４之８號","OBJECTID":336080},"geometry":{"x":173138.61000000034,"y":2544956.1100000013}},{"attributes":{"ID":336090,"DIS_CODE":0,"TOWNNAME":"永康區","LI":"南灣里","LIN":"1鄰","STREET":"大灣路","SECT":" ","MAREA":" ","LANE":"４３５巷","ALLEY":" ","HOUSE_NO":"１０號","E_COORD97":174709.16,"N_COORD97":2544744.6600000001,"ADDRESS":"大灣路４３５巷１０號","OBJECTID":336081},"geometry":{"x":174709.16000000108,"y":2544744.6600000001}},{"attributes":{"ID":336091,"DIS_CODE":0,"TOWNNAME":"永康區","LI":"東橋里","LIN":"1鄰","STREET":"中山南路","SECT":" ","MAREA":" ","LANE":"１９５巷","ALLEY":" ","HOUSE_NO":"８３號","E_COORD97":171341.47,"N_COORD97":2546546.29,"ADDRESS":"中山南路１９５巷８３號","OBJECTID":336082},"geometry":{"x":171341.47000000067,"y":2546546.2899999991}},{"attributes":{"ID":336092,"DIS_CODE":0,"TOWNNAME":"永康區","LI":"南灣里","LIN":"1鄰","STREET":"大灣二街","SECT":" ","MAREA":" ","LANE":"１１３巷","ALLEY":" ","HOUSE_NO":"７號","E_COORD97":174746.57999999999,"N_COORD97":2544751.54,"ADDRESS":"大灣二街１１３巷７號","OBJECTID":336083},"geometry":{"x":174746.58000000101,"y":2544751.5399999991}},{"attributes":{"ID":336093,"DIS_CODE":0,"TOWNNAME":"永康區","LI":"建國里","LIN":"1鄰","STREET":"復興路","SECT":" ","MAREA":" ","LANE":"２６巷","ALLEY":" ","HOUSE_NO":"７４之１８號","E_COORD97":173178.51000000001,"N_COORD97":2544925.7400000002,"ADDRESS":"復興路２６巷７４之１８號","OBJECTID":336084},"geometry":{"x":173178.51000000071,"y":2544925.7400000021}},{"attributes":{"ID":336094,"DIS_CODE":0,"TOWNNAME":"永康區","LI":"建國里","LIN":"1鄰","STREET":"復興路","SECT":" ","MAREA":" ","LANE":"２６巷","ALLEY":" ","HOUSE_NO":"９號","E_COORD97":173043.69,"N_COORD97":2544523.1499999999,"ADDRESS":"復興路２６巷９號","OBJECTID":336085},"geometry":{"x":173043.69000000227,"y":2544523.1500000022}},{"attributes":{"ID":336095,"DIS_CODE":0,"TOWNNAME":"永康區","LI":"建國里","LIN":"1鄰","STREET":"復興路","SECT":" ","MAREA":" ","LANE":"２６巷","ALLEY":" ","HOUSE_NO":"１０號","E_COORD97":173121.20000000001,"N_COORD97":2544427.7999999998,"ADDRESS":"復興路２６巷１０號","OBJECTID":336086},"geometry":{"x":173121.20000000019,"y":2544427.8000000026}},{"attributes":{"ID":336096,"DIS_CODE":0,"TOWNNAME":"永康區","LI":"東灣里","LIN":"1鄰","STREET":"立興街","SECT":" ","MAREA":" ","LANE":"２８巷","ALLEY":" ","HOUSE_NO":"３號","E_COORD97":174654.92000000001,"N_COORD97":2544891.4500000002,"ADDRESS":"立興街２８巷３號","OBJECTID":336087},"geometry":{"x":174654.91999999993,"y":2544891.4499999993}},{"attributes":{"ID":336097,"DIS_CODE":0,"TOWNNAME":"永康區","LI":"東橋里","LIN":"1鄰","STREET":"中山南路","SECT":" ","MAREA":" ","LANE":"１９５巷","ALLEY":" ","HOUSE_NO":"８４號","E_COORD97":171345.38,"N_COORD97":2546541.79,"ADDRESS":"中山南路１９５巷８４號","OBJECTID":336088},"geometry":{"x":171345.38000000082,"y":2546541.790000001}},{"attributes":{"ID":336098,"DIS_CODE":0,"TOWNNAME":"永康區","LI":"東橋里","LIN":"1鄰","STREET":"中山南路","SECT":" ","MAREA":" ","LANE":"１９５巷","ALLEY":" ","HOUSE_NO":"５５號","E_COORD97":171384.56,"N_COORD97":2546490.2400000002,"ADDRESS":"中山南路１９５巷５５號","OBJECTID":336089},"geometry":{"x":171384.56000000052,"y":2546490.2400000002}},{"attributes":{"ID":336099,"DIS_CODE":0,"TOWNNAME":"永康區","LI":"南灣里","LIN":"1鄰","STREET":"大灣路","SECT":" ","MAREA":" ","LANE":"４３５巷","ALLEY":" ","HOUSE_NO":"５號","E_COORD97":174716.95999999999,"N_COORD97":2544771.5299999998,"ADDRESS":"大灣路４３５巷５號","OBJECTID":336090},"geometry":{"x":174716.96000000089,"y":2544771.5299999993}},{"attributes":{"ID":336100,"DIS_CODE":0,"TOWNNAME":"安南區","LI":"原佃里","LIN":"1鄰","STREET":"本原街","SECT":"一段","MAREA":" ","LANE":"１６７巷","ALLEY":" ","HOUSE_NO":"１１６之１號","E_COORD97":167821.94,"N_COORD97":2550046.4700000002,"ADDRESS":"本原街一段１６７巷１１６之１號","OBJECTID":336091},"geometry":{"x":167821.94000000041,"y":2550046.4700000044}},{"attributes":{"ID":336101,"DIS_CODE":0,"TOWNNAME":"安南區","LI":"公\u25A0里","LIN":"1鄰","STREET":"公學路","SECT":"五段","MAREA":" ","LANE":"３３２巷","ALLEY":" ","HOUSE_NO":"１２６號","E_COORD97":164609.92000000001,"N_COORD97":2552469.1400000001,"ADDRESS":"公學路五段３３２巷１２６號","OBJECTID":336092},"geometry":{"x":164609.92000000179,"y":2552469.1399999987}},{"attributes":{"ID":336102,"DIS_CODE":0,"TOWNNAME":"安南區","LI":"淵中里","LIN":"1鄰","STREET":"安中路","SECT":"三段","MAREA":" ","LANE":"３７５巷","ALLEY":" ","HOUSE_NO":"１３號","E_COORD97":165518.34,"N_COORD97":2549838.6800000002,"ADDRESS":"安中路三段３７５巷１３號","OBJECTID":336093},"geometry":{"x":165518.33999999985,"y":2549838.6800000016}},{"attributes":{"ID":336103,"DIS_CODE":0,"TOWNNAME":"安南區","LI":"城西里","LIN":"1鄰","STREET":"城西街","SECT":"三段","MAREA":" ","LANE":"１巷","ALLEY":" ","HOUSE_NO":"１６８號","E_COORD97":158467.20999999999,"N_COORD97":2550596.77,"ADDRESS":"城西街三段１巷１６８號","OBJECTID":336094},"geometry":{"x":158467.20999999996,"y":2550596.7700000014}},{"attributes":{"ID":336104,"DIS_CODE":0,"TOWNNAME":"新市區","LI":"港墘里","LIN":"1鄰","STREET":"民族路","SECT":" ","MAREA":" ","LANE":"１６巷","ALLEY":" ","HOUSE_NO":"９號","E_COORD97":178593.23999999999,"N_COORD97":2553938.54,"ADDRESS":"民族路１６巷９號","OBJECTID":336095},"geometry":{"x":178593.24000000209,"y":2553938.5399999991}},{"attributes":{"ID":336105,"DIS_CODE":0,"TOWNNAME":"新市區","LI":"新和里","LIN":"1鄰","STREET":"中華路","SECT":" ","MAREA":" ","LANE":"３巷","ALLEY":" ","HOUSE_NO":"１７號","E_COORD97":177311.12,"N_COORD97":2552061,"ADDRESS":"中華路３巷１７號","OBJECTID":336096},"geometry":{"x":177311.12000000104,"y":2552061.0000000019}},{"attributes":{"ID":336106,"DIS_CODE":0,"TOWNNAME":"新市區","LI":"港墘里","LIN":"1鄰","STREET":"大同街","SECT":" ","MAREA":" ","LANE":"２９巷","ALLEY":" ","HOUSE_NO":"３號","E_COORD97":178453.92000000001,"N_COORD97":2553575.25,"ADDRESS":"大同街２９巷３號","OBJECTID":336097},"geometry":{"x":178453.91999999993,"y":2553575.25}},{"attributes":{"ID":336107,"DIS_CODE":0,"TOWNNAME":"中西區","LI":"民生里","LIN":"1鄰","STREET":"永華路","SECT":"一段","MAREA":" ","LANE":"１７０巷","ALLEY":" ","HOUSE_NO":"１０號","E_COORD97":167214.39000000001,"N_COORD97":2543236.4500000002,"ADDRESS":"永華路一段１７０巷１０號","OBJECTID":336098},"geometry":{"x":167214.38999999966,"y":2543236.4499999993}},{"attributes":{"ID":336108,"DIS_CODE":0,"TOWNNAME":"中西區","LI":"民生里","LIN":"1鄰","STREET":"永華路","SECT":"一段","MAREA":" ","LANE":"１７０巷","ALLEY":" ","HOUSE_NO":"１２號","E_COORD97":167215.20000000001,"N_COORD97":2543240.75,"ADDRESS":"永華路一段１７０巷１２號","OBJECTID":336099},"geometry":{"x":167215.20000000019,"y":2543240.7500000019}},{"attributes":{"ID":336109,"DIS_CODE":0,"TOWNNAME":"中西區","LI":"協和里","LIN":"8鄰","STREET":"和美街","SECT":" ","MAREA":" ","LANE":" ","ALLEY":" ","HOUSE_NO":"６號","E_COORD97":167241.64000000001,"N_COORD97":2544660.6400000001,"ADDRESS":"和美街６號","OBJECTID":336100},"geometry":{"x":167241.63999999966,"y":2544660.6400000006}},{"attributes":{"ID":336110,"DIS_CODE":0,"TOWNNAME":"中西區","LI":"民生里","LIN":"1鄰","STREET":"永華路","SECT":"一段","MAREA":" ","LANE":"１７０巷","ALLEY":" ","HOUSE_NO":"１４號","E_COORD97":167216.17999999999,"N_COORD97":2543244.54,"ADDRESS":"永華路一段１７０巷１４號","OBJECTID":336101},"geometry":{"x":167216.1799999997,"y":2543244.540000001}},{"attributes":{"ID":336111,"DIS_CODE":0,"TOWNNAME":"中西區","LI":"民生里","LIN":"1鄰","STREET":"永華路","SECT":"一段","MAREA":" ","LANE":"１７０巷","ALLEY":" ","HOUSE_NO":"１６號","E_COORD97":167216.35999999999,"N_COORD97":2543249.2000000002,"ADDRESS":"永華路一段１７０巷１６號","OBJECTID":336102},"geometry":{"x":167216.36000000127,"y":2543249.200000003}},{"attributes":{"ID":336112,"DIS_CODE":0,"TOWNNAME":"中西區","LI":"民生里","LIN":"1鄰","STREET":"永華路","SECT":"一段","MAREA":" ","LANE":"１７０巷","ALLEY":" ","HOUSE_NO":"２０號","E_COORD97":167217.53,"N_COORD97":2543256.7200000002,"ADDRESS":"永華路一段１７０巷２０號","OBJECTID":336103},"geometry":{"x":167217.53000000026,"y":2543256.7200000007}},{"attributes":{"ID":336113,"DIS_CODE":0,"TOWNNAME":"中西區","LI":"民生里","LIN":"1鄰","STREET":"永華路","SECT":"一段","MAREA":" ","LANE":"１７０巷","ALLEY":" ","HOUSE_NO":"２２號","E_COORD97":167218.16,"N_COORD97":2543261.5600000001,"ADDRESS":"永華路一段１７０巷２２號","OBJECTID":336104},"geometry":{"x":167218.16000000015,"y":2543261.5600000042}},{"attributes":{"ID":336114,"DIS_CODE":0,"TOWNNAME":"中西區","LI":"民生里","LIN":"1鄰","STREET":"永華路","SECT":"一段","MAREA":" ","LANE":"１７０巷","ALLEY":" ","HOUSE_NO":"２４號","E_COORD97":167219.23000000001,"N_COORD97":2543265.5,"ADDRESS":"永華路一段１７０巷２４號","OBJECTID":336105},"geometry":{"x":167219.23000000138,"y":2543265.5000000019}},{"attributes":{"ID":336115,"DIS_CODE":0,"TOWNNAME":"中西區","LI":"民生里","LIN":"1鄰","STREET":"永華路","SECT":"一段","MAREA":" ","LANE":"１７０巷","ALLEY":" ","HOUSE_NO":"２６號","E_COORD97":167219.95000000001,"N_COORD97":2543268.8399999999,"ADDRESS":"永華路一段１７０巷２６號","OBJECTID":336106},"geometry":{"x":167219.95000000019,"y":2543268.8399999999}},{"attributes":{"ID":336116,"DIS_CODE":0,"TOWNNAME":"中西區","LI":"民生里","LIN":"1鄰","STREET":"永華路","SECT":"一段","MAREA":" ","LANE":"１７０巷","ALLEY":" ","HOUSE_NO":"２８號","E_COORD97":167221.48000000001,"N_COORD97":2543273.4100000001,"ADDRESS":"永華路一段１７０巷２８號","OBJECTID":336107},"geometry":{"x":167221.48000000045,"y":2543273.410000002}},{"attributes":{"ID":336117,"DIS_CODE":0,"TOWNNAME":"中西區","LI":"民生里","LIN":"1鄰","STREET":"永華路","SECT":"一段","MAREA":" ","LANE":"１７０巷","ALLEY":" ","HOUSE_NO":"２號","E_COORD97":167210.98000000001,"N_COORD97":2543220.0499999998,"ADDRESS":"永華路一段１７０巷２號","OBJECTID":336108},"geometry":{"x":167210.98000000138,"y":2543220.0500000007}},{"attributes":{"ID":336118,"DIS_CODE":0,"TOWNNAME":"中西區","LI":"民生里","LIN":"1鄰","STREET":"永華路","SECT":"一段","MAREA":" ","LANE":"１７０巷","ALLEY":" ","HOUSE_NO":"３０號","E_COORD97":167221.92000000001,"N_COORD97":2543276.8999999999,"ADDRESS":"永華路一段１７０巷３０號","OBJECTID":336109},"geometry":{"x":167221.91999999993,"y":2543276.9000000022}},{"attributes":{"ID":336119,"DIS_CODE":0,"TOWNNAME":"中西區","LI":"民生里","LIN":"1鄰","STREET":"永華路","SECT":"一段","MAREA":" ","LANE":"１７０巷","ALLEY":" ","HOUSE_NO":"４號","E_COORD97":167211.88,"N_COORD97":2543223.9100000001,"ADDRESS":"永華路一段１７０巷４號","OBJECTID":336110},"geometry":{"x":167211.87999999989,"y":2543223.9100000001}},{"attributes":{"ID":336120,"DIS_CODE":0,"TOWNNAME":"中西區","LI":"民生里","LIN":"1鄰","STREET":"永華路","SECT":"一段","MAREA":" ","LANE":"１７０巷","ALLEY":" ","HOUSE_NO":"６號","E_COORD97":167212.32999999999,"N_COORD97":2543227.7599999998,"ADDRESS":"永華路一段１７０巷６號","OBJECTID":336111},"geometry":{"x":167212.33000000007,"y":2543227.7599999998}},{"attributes":{"ID":336121,"DIS_CODE":0,"TOWNNAME":"中西區","LI":"民生里","LIN":"1鄰","STREET":"永華路","SECT":"一段","MAREA":" ","LANE":"１７０巷","ALLEY":" ","HOUSE_NO":"８號","E_COORD97":167213.57999999999,"N_COORD97":2543231.8799999999,"ADDRESS":"永華路一段１７０巷８號","OBJECTID":336112},"geometry":{"x":167213.58000000007,"y":2543231.8800000008}},{"attributes":{"ID":336122,"DIS_CODE":0,"TOWNNAME":"中西區","LI":"安海里","LIN":"1鄰","STREET":"民生路","SECT":"二段","MAREA":" ","LANE":"１７３巷","ALLEY":" ","HOUSE_NO":"１０號","E_COORD97":167433.12,"N_COORD97":2543975.5099999998,"ADDRESS":"民生路二段１７３巷１０號","OBJECTID":336113},"geometry":{"x":167433.12000000104,"y":2543975.5099999998}},{"attributes":{"ID":336123,"DIS_CODE":0,"TOWNNAME":"中西區","LI":"安海里","LIN":"1鄰","STREET":"民生路","SECT":"二段","MAREA":" ","LANE":"１７３巷","ALLEY":" ","HOUSE_NO":"１２號","E_COORD97":167431.69,"N_COORD97":2543972.4700000002,"ADDRESS":"民生路二段１７３巷１２號","OBJECTID":336114},"geometry":{"x":167431.69000000134,"y":2543972.4700000025}},{"attributes":{"ID":336124,"DIS_CODE":0,"TOWNNAME":"中西區","LI":"安海里","LIN":"1鄰","STREET":"民生路","SECT":"二段","MAREA":" ","LANE":"１７３巷","ALLEY":" ","HOUSE_NO":"２號","E_COORD97":167445.63,"N_COORD97":2544012.2599999998,"ADDRESS":"民生路二段１７３巷２號","OBJECTID":336115},"geometry":{"x":167445.62999999989,"y":2544012.2600000035}},{"attributes":{"ID":336125,"DIS_CODE":0,"TOWNNAME":"中西區","LI":"安海里","LIN":"1鄰","STREET":"民生路","SECT":"二段","MAREA":" ","LANE":"１７３巷","ALLEY":" ","HOUSE_NO":"４號","E_COORD97":167439.01999999999,"N_COORD97":2543999.7599999998,"ADDRESS":"民生路二段１７３巷４號","OBJECTID":336116},"geometry":{"x":167439.01999999955,"y":2543999.7600000016}},{"attributes":{"ID":336126,"DIS_CODE":0,"TOWNNAME":"中西區","LI":"安海里","LIN":"1鄰","STREET":"民生路","SECT":"二段","MAREA":" ","LANE":"１７３巷","ALLEY":" ","HOUSE_NO":"６號","E_COORD97":167437.23000000001,"N_COORD97":2543986.5800000001,"ADDRESS":"民生路二段１７３巷６號","OBJECTID":336117},"geometry":{"x":167437.23000000045,"y":2543986.5800000038}},{"attributes":{"ID":336127,"DIS_CODE":0,"TOWNNAME":"中西區","LI":"安海里","LIN":"1鄰","STREET":"民生路","SECT":"二段","MAREA":" ","LANE":"１７３巷","ALLEY":" ","HOUSE_NO":"８號","E_COORD97":167433.64999999999,"N_COORD97":2543980.6899999999,"ADDRESS":"民生路二段１７３巷８號","OBJECTID":336118},"geometry":{"x":167433.6500000013,"y":2543980.6899999995}},{"attributes":{"ID":336128,"DIS_CODE":0,"TOWNNAME":"中西區","LI":"安海里","LIN":"1鄰","STREET":"正興街","SECT":" ","MAREA":" ","LANE":" ","ALLEY":" ","HOUSE_NO":"２００號","E_COORD97":167417.31,"N_COORD97":2543963.8199999998,"ADDRESS":"正興街２００號","OBJECTID":336119},"geometry":{"x":167417.30999999866,"y":2543963.8200000003}},{"attributes":{"ID":336129,"DIS_CODE":0,"TOWNNAME":"中西區","LI":"安海里","LIN":"1鄰","STREET":"正興街","SECT":" ","MAREA":" ","LANE":" ","ALLEY":" ","HOUSE_NO":"２０２號","E_COORD97":167412.62,"N_COORD97":2543965.3199999998,"ADDRESS":"正興街２０２號","OBJECTID":336120},"geometry":{"x":167412.62000000104,"y":2543965.3200000022}},{"attributes":{"ID":336130,"DIS_CODE":0,"TOWNNAME":"中西區","LI":"安海里","LIN":"1鄰","STREET":"正興街","SECT":" ","MAREA":" ","LANE":" ","ALLEY":" ","HOUSE_NO":"２０６號","E_COORD97":167418.64000000001,"N_COORD97":2543976.3999999999,"ADDRESS":"正興街２０６號","OBJECTID":336121},"geometry":{"x":167418.64000000153,"y":2543976.4000000004}},{"attributes":{"ID":336131,"DIS_CODE":0,"TOWNNAME":"中西區","LI":"安海里","LIN":"1鄰","STREET":"正興街","SECT":" ","MAREA":" ","LANE":" ","ALLEY":" ","HOUSE_NO":"２０８號","E_COORD97":167419.70999999999,"N_COORD97":2543981.9399999999,"ADDRESS":"正興街２０８號","OBJECTID":336122},"geometry":{"x":167419.70999999996,"y":2543981.9399999995}},{"attributes":{"ID":336132,"DIS_CODE":0,"TOWNNAME":"下營區","LI":"下營里","LIN":"1鄰","STREET":"中山路","SECT":"一段","MAREA":" ","LANE":"１２８巷","ALLEY":" ","HOUSE_NO":"４１號","E_COORD97":174683.92000000001,"N_COORD97":2570434.02,"ADDRESS":"中山路一段１２８巷４１號","OBJECTID":336123},"geometry":{"x":174683.91999999993,"y":2570434.0199999996}},{"attributes":{"ID":336133,"DIS_CODE":0,"TOWNNAME":"下營區","LI":"下營里","LIN":"1鄰","STREET":"中山路","SECT":"一段","MAREA":" ","LANE":"１４８巷","ALLEY":" ","HOUSE_NO":"１１號","E_COORD97":174698.03,"N_COORD97":2570503.54,"ADDRESS":"中山路一段１４８巷１１號","OBJECTID":336124},"geometry":{"x":174698.03000000119,"y":2570503.540000001}},{"attributes":{"ID":336134,"DIS_CODE":0,"TOWNNAME":"下營區","LI":"下營里","LIN":"1鄰","STREET":"中山路","SECT":"一段","MAREA":" ","LANE":"１４８巷","ALLEY":" ","HOUSE_NO":"１３號","E_COORD97":174710.87,"N_COORD97":2570498.04,"ADDRESS":"中山路一段１４８巷１３號","OBJECTID":336125},"geometry":{"x":174710.87000000104,"y":2570498.0399999991}},{"attributes":{"ID":336135,"DIS_CODE":0,"TOWNNAME":"下營區","LI":"下營里","LIN":"1鄰","STREET":"中山路","SECT":"一段","MAREA":" ","LANE":"１４８巷","ALLEY":" ","HOUSE_NO":"１５號","E_COORD97":174700.17000000001,"N_COORD97":2570494.73,"ADDRESS":"中山路一段１４８巷１５號","OBJECTID":336126},"geometry":{"x":174700.17000000086,"y":2570494.7300000004}},{"attributes":{"ID":336136,"DIS_CODE":0,"TOWNNAME":"下營區","LI":"下營里","LIN":"1鄰","STREET":"中山路","SECT":"一段","MAREA":" ","LANE":"１４８巷","ALLEY":" ","HOUSE_NO":"１號","E_COORD97":174693.35000000001,"N_COORD97":2570527.9500000002,"ADDRESS":"中山路一段１４８巷１號","OBJECTID":336127},"geometry":{"x":174693.35000000056,"y":2570527.9500000011}},{"attributes":{"ID":336137,"DIS_CODE":0,"TOWNNAME":"下營區","LI":"仁里里","LIN":"1鄰","STREET":"中山路","SECT":"二段","MAREA":" ","LANE":"３２２巷","ALLEY":" ","HOUSE_NO":"３８號","E_COORD97":174743.79000000001,"N_COORD97":2569072.6200000001,"ADDRESS":"中山路二段３２２巷３８號","OBJECTID":336128},"geometry":{"x":174743.79000000004,"y":2569072.6200000048}},{"attributes":{"ID":336138,"DIS_CODE":0,"TOWNNAME":"下營區","LI":"仁里里","LIN":"1鄰","STREET":"中山路","SECT":"二段","MAREA":" ","LANE":"３２２巷","ALLEY":" ","HOUSE_NO":"４８號","E_COORD97":174695.94,"N_COORD97":2569066.21,"ADDRESS":"中山路二段３２２巷４８號","OBJECTID":336129},"geometry":{"x":174695.94000000041,"y":2569066.2100000028}},{"attributes":{"ID":336139,"DIS_CODE":0,"TOWNNAME":"下營區","LI":"仁里里","LIN":"1鄰","STREET":"中山路","SECT":"二段","MAREA":" ","LANE":"３２２巷","ALLEY":" ","HOUSE_NO":"４９號","E_COORD97":174630.79999999999,"N_COORD97":2569000.6099999999,"ADDRESS":"中山路二段３２２巷４９號","OBJECTID":336130},"geometry":{"x":174630.80000000168,"y":2569000.6100000013}},{"attributes":{"ID":336140,"DIS_CODE":0,"TOWNNAME":"下營區","LI":"仁里里","LIN":"1鄰","STREET":"中山路","SECT":"二段","MAREA":" ","LANE":"３４８巷","ALLEY":" ","HOUSE_NO":"１０號","E_COORD97":174769.31,"N_COORD97":2568887.2999999998,"ADDRESS":"中山路二段３４８巷１０號","OBJECTID":336131},"geometry":{"x":174769.30999999959,"y":2568887.3000000007}},{"attributes":{"ID":336141,"DIS_CODE":0,"TOWNNAME":"新化區","LI":"唪口里","LIN":"5鄰","STREET":" ","SECT":" ","MAREA":"唪口","LANE":" ","ALLEY":" ","HOUSE_NO":"４０號","E_COORD97":178132.89999999999,"N_COORD97":2548958.25,"ADDRESS":"唪口４０號","OBJECTID":336132},"geometry":{"x":178132.90000000224,"y":2548958.25}},{"attributes":{"ID":336142,"DIS_CODE":0,"TOWNNAME":"下營區","LI":"仁里里","LIN":"1鄰","STREET":"中山路","SECT":"二段","MAREA":" ","LANE":"３４８巷","ALLEY":" ","HOUSE_NO":"３０號","E_COORD97":174627.88,"N_COORD97":2568834.0099999998,"ADDRESS":"中山路二段３４８巷３０號","OBJECTID":336133},"geometry":{"x":174627.87999999989,"y":2568834.0099999998}},{"attributes":{"ID":336143,"DIS_CODE":0,"TOWNNAME":"下營區","LI":"仁里里","LIN":"1鄰","STREET":"中山路","SECT":"二段","MAREA":" ","LANE":"３４８巷","ALLEY":" ","HOUSE_NO":"３６號","E_COORD97":174543.28,"N_COORD97":2568782.1899999999,"ADDRESS":"中山路二段３４８巷３６號","OBJECTID":336134},"geometry":{"x":174543.28000000212,"y":2568782.1899999976}},{"attributes":{"ID":336144,"DIS_CODE":0,"TOWNNAME":"下營區","LI":"營前里","LIN":"1鄰","STREET":"中山路","SECT":"二段","MAREA":" ","LANE":"４１巷","ALLEY":" ","HOUSE_NO":"８號","E_COORD97":174432.63,"N_COORD97":2570360.8199999998,"ADDRESS":"中山路二段４１巷８號","OBJECTID":336135},"geometry":{"x":174432.63000000082,"y":2570360.8200000003}},{"attributes":{"ID":336145,"DIS_CODE":0,"TOWNNAME":"下營區","LI":"後街里","LIN":"1鄰","STREET":"中正北路","SECT":" ","MAREA":" ","LANE":"３６０巷","ALLEY":" ","HOUSE_NO":"３５號","E_COORD97":174388.462398,"N_COORD97":2571286.15796,"ADDRESS":"中正北路３６０巷３５號","OBJECTID":336136},"geometry":{"x":174388.46239800192,"y":2571286.1579630021}},{"attributes":{"ID":336146,"DIS_CODE":0,"TOWNNAME":"下營區","LI":"後街里","LIN":"1鄰","STREET":"中正北路","SECT":" ","MAREA":" ","LANE":"３６０巷","ALLEY":" ","HOUSE_NO":"３７號","E_COORD97":174387.19138900001,"N_COORD97":2571309.4412799999,"ADDRESS":"中正北路３６０巷３７號","OBJECTID":336137},"geometry":{"x":174387.19138900004,"y":2571309.4412840027}},{"attributes":{"ID":336147,"DIS_CODE":0,"TOWNNAME":"下營區","LI":"後街里","LIN":"1鄰","STREET":"中正北路","SECT":" ","MAREA":" ","LANE":"３６０巷","ALLEY":" ","HOUSE_NO":"４０號","E_COORD97":174375.17999999999,"N_COORD97":2571255.77,"ADDRESS":"中正北路３６０巷４０號","OBJECTID":336138},"geometry":{"x":174375.1799999997,"y":2571255.7699999996}},{"attributes":{"ID":336148,"DIS_CODE":0,"TOWNNAME":"下營區","LI":"後街里","LIN":"1鄰","STREET":"中正北路","SECT":" ","MAREA":" ","LANE":"３６０巷","ALLEY":" ","HOUSE_NO":"５３號","E_COORD97":174426.14999999999,"N_COORD97":2571280.3999999999,"ADDRESS":"中正北路３６０巷５３號","OBJECTID":336139},"geometry":{"x":174426.1500000013,"y":2571280.3999999985}},{"attributes":{"ID":336149,"DIS_CODE":0,"TOWNNAME":"下營區","LI":"後街里","LIN":"1鄰","STREET":"中正北路","SECT":" ","MAREA":" ","LANE":"４３６巷","ALLEY":" ","HOUSE_NO":"１０號","E_COORD97":174244.31,"N_COORD97":2571692.7200000002,"ADDRESS":"中正北路４３６巷１０號","OBJECTID":336140},"geometry":{"x":174244.31000000052,"y":2571692.7200000025}},{"attributes":{"ID":336150,"DIS_CODE":0,"TOWNNAME":"下營區","LI":"後街里","LIN":"1鄰","STREET":"中正北路","SECT":" ","MAREA":" ","LANE":"４３６巷","ALLEY":" ","HOUSE_NO":"２１號","E_COORD97":174161.23999999999,"N_COORD97":2571661.4900000002,"ADDRESS":"中正北路４３６巷２１號","OBJECTID":336141},"geometry":{"x":174161.24000000022,"y":2571661.4900000002}},{"attributes":{"ID":336151,"DIS_CODE":0,"TOWNNAME":"下營區","LI":"後街里","LIN":"1鄰","STREET":"中正北路","SECT":" ","MAREA":" ","LANE":"４３６巷","ALLEY":" ","HOUSE_NO":"３６號","E_COORD97":174255.63347999999,"N_COORD97":2571701.7905000001,"ADDRESS":"中正北路４３６巷３６號","OBJECTID":336142},"geometry":{"x":174255.63348000124,"y":2571701.7904969994}},{"attributes":{"ID":336152,"DIS_CODE":0,"TOWNNAME":"下營區","LI":"後街里","LIN":"1鄰","STREET":"中正北路","SECT":" ","MAREA":" ","LANE":"４９６巷","ALLEY":" ","HOUSE_NO":"２８號","E_COORD97":174001.14999999999,"N_COORD97":2572022.6600000001,"ADDRESS":"中正北路４９６巷２８號","OBJECTID":336143},"geometry":{"x":174001.15000000037,"y":2572022.660000002}},{"attributes":{"ID":336153,"DIS_CODE":0,"TOWNNAME":"下營區","LI":"後街里","LIN":"1鄰","STREET":"中正北路","SECT":" ","MAREA":" ","LANE":"４９６巷","ALLEY":" ","HOUSE_NO":"２９號","E_COORD97":173992.26000000001,"N_COORD97":2572053.7599999998,"ADDRESS":"中正北路４９６巷２９號","OBJECTID":336144},"geometry":{"x":173992.26000000071,"y":2572053.7599999979}},{"attributes":{"ID":336154,"DIS_CODE":0,"TOWNNAME":"下營區","LI":"後街里","LIN":"1鄰","STREET":"中正北路","SECT":" ","MAREA":" ","LANE":"４９６巷","ALLEY":" ","HOUSE_NO":"３１號","E_COORD97":173983.76000000001,"N_COORD97":2572079.1499999999,"ADDRESS":"中正北路４９６巷３１號","OBJECTID":336145},"geometry":{"x":173983.76000000071,"y":2572079.1500000041}},{"attributes":{"ID":336155,"DIS_CODE":0,"TOWNNAME":"下營區","LI":"後街里","LIN":"1鄰","STREET":"中正北路","SECT":" ","MAREA":" ","LANE":"４９６巷","ALLEY":" ","HOUSE_NO":"３７號","E_COORD97":173999.07999999999,"N_COORD97":2572086.1299999999,"ADDRESS":"中正北路４９６巷３７號","OBJECTID":336146},"geometry":{"x":173999.08000000101,"y":2572086.129999999}},{"attributes":{"ID":336156,"DIS_CODE":0,"TOWNNAME":"下營區","LI":"後街里","LIN":"1鄰","STREET":"中正北路","SECT":" ","MAREA":" ","LANE":"４９６巷","ALLEY":" ","HOUSE_NO":"３８號","E_COORD97":174100.64999999999,"N_COORD97":2572070.8399999999,"ADDRESS":"中正北路４９６巷３８號","OBJECTID":336147},"geometry":{"x":174100.6500000013,"y":2572070.8400000017}},{"attributes":{"ID":336157,"DIS_CODE":0,"TOWNNAME":"下營區","LI":"後街里","LIN":"1鄰","STREET":"中正北路","SECT":" ","MAREA":" ","LANE":"４９６巷","ALLEY":" ","HOUSE_NO":"５６號","E_COORD97":174264.54999999999,"N_COORD97":2572149.6800000002,"ADDRESS":"中正北路４９６巷５６號","OBJECTID":336148},"geometry":{"x":174264.55000000168,"y":2572149.6800000016}},{"attributes":{"ID":336158,"DIS_CODE":0,"TOWNNAME":"下營區","LI":"後街里","LIN":"1鄰","STREET":"中正北路","SECT":" ","MAREA":" ","LANE":"４９６巷","ALLEY":" ","HOUSE_NO":"９號","E_COORD97":173844.23000000001,"N_COORD97":2571963.25,"ADDRESS":"中正北路４９６巷９號","OBJECTID":336149},"geometry":{"x":173844.23000000138,"y":2571963.2500000019}},{"attributes":{"ID":336159,"DIS_CODE":0,"TOWNNAME":"永康區","LI":"南灣里","LIN":"1鄰","STREET":"大灣二街","SECT":" ","MAREA":" ","LANE":"１１３巷","ALLEY":" ","HOUSE_NO":"１號","E_COORD97":174735.89999999999,"N_COORD97":2544767.9900000002,"ADDRESS":"大灣二街１１３巷１號","OBJECTID":336150},"geometry":{"x":174735.90000000224,"y":2544767.9900000021}},{"attributes":{"ID":336160,"DIS_CODE":0,"TOWNNAME":"永康區","LI":"東橋里","LIN":"1鄰","STREET":"中山南路","SECT":" ","MAREA":" ","LANE":"１９５巷","ALLEY":" ","HOUSE_NO":"７６號","E_COORD97":171329.64000000001,"N_COORD97":2546565.0299999998,"ADDRESS":"中山南路１９５巷７６號","OBJECTID":336151},"geometry":{"x":171329.6400000006,"y":2546565.0299999993}},{"attributes":{"ID":336161,"DIS_CODE":0,"TOWNNAME":"永康區","LI":"東橋里","LIN":"1鄰","STREET":"中山南路","SECT":" ","MAREA":" ","LANE":"１９５巷","ALLEY":" ","HOUSE_NO":"７９號","E_COORD97":171334.20000000001,"N_COORD97":2546557.79,"ADDRESS":"中山南路１９５巷７９號","OBJECTID":336152},"geometry":{"x":171334.20000000019,"y":2546557.790000001}},{"attributes":{"ID":336162,"DIS_CODE":0,"TOWNNAME":"永康區","LI":"尚頂里","LIN":"1鄰","STREET":"中正南路","SECT":" ","MAREA":" ","LANE":"３０６巷","ALLEY":" ","HOUSE_NO":"２２號","E_COORD97":170786.29999999999,"N_COORD97":2547684.6600000001,"ADDRESS":"中正南路３０６巷２２號","OBJECTID":336153},"geometry":{"x":170786.30000000075,"y":2547684.6599999983}},{"attributes":{"ID":336163,"DIS_CODE":0,"TOWNNAME":"永康區","LI":"東橋里","LIN":"1鄰","STREET":"中山南路","SECT":" ","MAREA":" ","LANE":"１９５巷","ALLEY":" ","HOUSE_NO":"９５號","E_COORD97":171312,"N_COORD97":2546595.7799999998,"ADDRESS":"中山南路１９５巷９５號","OBJECTID":336154},"geometry":{"x":171311.99999999907,"y":2546595.7800000012}},{"attributes":{"ID":336164,"DIS_CODE":0,"TOWNNAME":"永康區","LI":"東橋里","LIN":"1鄰","STREET":"中山南路","SECT":" ","MAREA":" ","LANE":"１９５巷","ALLEY":" ","HOUSE_NO":"８６號","E_COORD97":171343.5,"N_COORD97":2546574.2799999998,"ADDRESS":"中山南路１９５巷８６號","OBJECTID":336155},"geometry":{"x":171343.5,"y":2546574.2799999993}},{"attributes":{"ID":336165,"DIS_CODE":0,"TOWNNAME":"永康區","LI":"東橋里","LIN":"1鄰","STREET":"中山南路","SECT":" ","MAREA":" ","LANE":"１９５巷","ALLEY":" ","HOUSE_NO":"９７號","E_COORD97":171305.89000000001,"N_COORD97":2546602.5299999998,"ADDRESS":"中山南路１９５巷９７號","OBJECTID":336156},"geometry":{"x":171305.8900000006,"y":2546602.5299999993}},{"attributes":{"ID":336166,"DIS_CODE":0,"TOWNNAME":"永康區","LI":"尚頂里","LIN":"1鄰","STREET":"中正南路","SECT":" ","MAREA":" ","LANE":"３０６巷","ALLEY":" ","HOUSE_NO":"２４號","E_COORD97":170786.41,"N_COORD97":2547678.9100000001,"ADDRESS":"中正南路３０６巷２４號","OBJECTID":336157},"geometry":{"x":170786.41000000108,"y":2547678.9100000001}},{"attributes":{"ID":336167,"DIS_CODE":0,"TOWNNAME":"永康區","LI":"建國里","LIN":"1鄰","STREET":"復興路","SECT":" ","MAREA":" ","LANE":"２６巷","ALLEY":" ","HOUSE_NO":"３１號","E_COORD97":173046.26999999999,"N_COORD97":2544562.4700000002,"ADDRESS":"復興路２６巷３１號","OBJECTID":336158},"geometry":{"x":173046.27000000048,"y":2544562.4700000025}},{"attributes":{"ID":336168,"DIS_CODE":0,"TOWNNAME":"永康區","LI":"建國里","LIN":"1鄰","STREET":"復興路","SECT":" ","MAREA":" ","LANE":"２６巷","ALLEY":" ","HOUSE_NO":"３１號之４","E_COORD97":173032.23000000001,"N_COORD97":2544553.0899999999,"ADDRESS":"復興路２６巷３１號之４","OBJECTID":336159},"geometry":{"x":173032.23000000138,"y":2544553.0900000017}},{"attributes":{"ID":336169,"DIS_CODE":0,"TOWNNAME":"永康區","LI":"東橋里","LIN":"1鄰","STREET":"中山南路","SECT":" ","MAREA":" ","LANE":"１９５巷","ALLEY":" ","HOUSE_NO":"１０４號","E_COORD97":171291.39000000001,"N_COORD97":2546627.79,"ADDRESS":"中山南路１９５巷１０４號","OBJECTID":336160},"geometry":{"x":171291.38999999966,"y":2546627.7899999991}},{"attributes":{"ID":336170,"DIS_CODE":0,"TOWNNAME":"永康區","LI":"建國里","LIN":"1鄰","STREET":"復興路","SECT":" ","MAREA":" ","LANE":"２６巷","ALLEY":" ","HOUSE_NO":"７４之３號","E_COORD97":173124.73000000001,"N_COORD97":2544970.21,"ADDRESS":"復興路２６巷７４之３號","OBJECTID":336161},"geometry":{"x":173124.73000000045,"y":2544970.2100000028}},{"attributes":{"ID":336171,"DIS_CODE":0,"TOWNNAME":"永康區","LI":"尚頂里","LIN":"1鄰","STREET":"中正南路","SECT":" ","MAREA":" ","LANE":"２８６巷","ALLEY":" ","HOUSE_NO":"９號","E_COORD97":170667.95999999999,"N_COORD97":2547781.3999999999,"ADDRESS":"中正南路２８６巷９號","OBJECTID":336162},"geometry":{"x":170667.95999999996,"y":2547781.4000000004}},{"attributes":{"ID":336172,"DIS_CODE":0,"TOWNNAME":"永康區","LI":"建國里","LIN":"1鄰","STREET":"復興路","SECT":" ","MAREA":" ","LANE":"２６巷","ALLEY":" ","HOUSE_NO":"７４之５號","E_COORD97":173139.57999999999,"N_COORD97":2544931.6000000001,"ADDRESS":"復興路２６巷７４之５號","OBJECTID":336163},"geometry":{"x":173139.58000000101,"y":2544931.5999999978}},{"attributes":{"ID":336173,"DIS_CODE":0,"TOWNNAME":"永康區","LI":"尚頂里","LIN":"1鄰","STREET":"中正南路","SECT":" ","MAREA":" ","LANE":"３０６巷","ALLEY":" ","HOUSE_NO":"１號","E_COORD97":170732.67999999999,"N_COORD97":2547883.0299999998,"ADDRESS":"中正南路３０６巷１號","OBJECTID":336164},"geometry":{"x":170732.68000000063,"y":2547883.0300000012}},{"attributes":{"ID":336174,"DIS_CODE":0,"TOWNNAME":"永康區","LI":"尚頂里","LIN":"1鄰","STREET":"中正南路","SECT":" ","MAREA":" ","LANE":"２８６巷","ALLEY":" ","HOUSE_NO":"６號","E_COORD97":170664.92999999999,"N_COORD97":2547730.4900000002,"ADDRESS":"中正南路２８６巷６號","OBJECTID":336165},"geometry":{"x":170664.93000000063,"y":2547730.4900000039}},{"attributes":{"ID":336175,"DIS_CODE":0,"TOWNNAME":"永康區","LI":"建國里","LIN":"1鄰","STREET":"復興路","SECT":" ","MAREA":" ","LANE":"２６巷","ALLEY":" ","HOUSE_NO":"７２號","E_COORD97":173162.12,"N_COORD97":2544809.77,"ADDRESS":"復興路２６巷７２號","OBJECTID":336166},"geometry":{"x":173162.12000000011,"y":2544809.7700000014}},{"attributes":{"ID":336176,"DIS_CODE":0,"TOWNNAME":"永康區","LI":"建國里","LIN":"1鄰","STREET":"復興路","SECT":" ","MAREA":" ","LANE":"２６巷","ALLEY":" ","HOUSE_NO":"１號","E_COORD97":173083.73000000001,"N_COORD97":2544452.7799999998,"ADDRESS":"復興路２６巷１號","OBJECTID":336167},"geometry":{"x":173083.73000000045,"y":2544452.7800000012}},{"attributes":{"ID":336177,"DIS_CODE":0,"TOWNNAME":"永康區","LI":"北灣里","LIN":"1鄰","STREET":"大灣路","SECT":" ","MAREA":" ","LANE":"１１９巷","ALLEY":" ","HOUSE_NO":"１６號","E_COORD97":175171.23999999999,"N_COORD97":2545511.5800000001,"ADDRESS":"大灣路１１９巷１６號","OBJECTID":336168},"geometry":{"x":175171.24000000115,"y":2545511.5800000001}},{"attributes":{"ID":336178,"DIS_CODE":0,"TOWNNAME":"永康區","LI":"北灣里","LIN":"1鄰","STREET":"大灣路","SECT":" ","MAREA":" ","LANE":"１１９巷","ALLEY":" ","HOUSE_NO":"１４號","E_COORD97":175166.25,"N_COORD97":2545511.5800000001,"ADDRESS":"大灣路１１９巷１４號","OBJECTID":336169},"geometry":{"x":175166.25,"y":2545511.5800000001}},{"attributes":{"ID":336179,"DIS_CODE":0,"TOWNNAME":"永康區","LI":"北灣里","LIN":"1鄰","STREET":"大灣路","SECT":" ","MAREA":" ","LANE":"１１９巷","ALLEY":" ","HOUSE_NO":"１０號","E_COORD97":175157.04000000001,"N_COORD97":2545512.5800000001,"ADDRESS":"大灣路１１９巷１０號","OBJECTID":336170},"geometry":{"x":175157.04000000097,"y":2545512.5800000019}},{"attributes":{"ID":336180,"DIS_CODE":0,"TOWNNAME":"安南區","LI":"溪心里","LIN":"1鄰","STREET":"海佃路","SECT":"二段","MAREA":" ","LANE":"７２５巷","ALLEY":" ","HOUSE_NO":"３７號","E_COORD97":166325.48999999999,"N_COORD97":2549632.1499999999,"ADDRESS":"海佃路二段７２５巷３７號","OBJECTID":336171},"geometry":{"x":166325.49000000115,"y":2549632.1500000022}},{"attributes":{"ID":336181,"DIS_CODE":0,"TOWNNAME":"玉井區","LI":"沙田里","LIN":"5鄰","STREET":" ","SECT":" ","MAREA":"沙田","LANE":" ","ALLEY":" ","HOUSE_NO":"５１號","E_COORD97":197518.87,"N_COORD97":2556862.2799999998,"ADDRESS":"沙田５１號","OBJECTID":336172},"geometry":{"x":197518.87000000011,"y":2556862.2800000012}},{"attributes":{"ID":336182,"DIS_CODE":0,"TOWNNAME":"安南區","LI":"梅花里","LIN":"1鄰","STREET":"安中路","SECT":"一段","MAREA":" ","LANE":"６１９巷","ALLEY":" ","HOUSE_NO":"１２號","E_COORD97":167790.91,"N_COORD97":2549080.9199999999,"ADDRESS":"安中路一段６１９巷１２號","OBJECTID":336173},"geometry":{"x":167790.91000000108,"y":2549080.9200000018}},{"attributes":{"ID":336183,"DIS_CODE":0,"TOWNNAME":"安南區","LI":"溪北里","LIN":"1鄰","STREET":"安和路","SECT":"一段","MAREA":" ","LANE":"１２３巷","ALLEY":" ","HOUSE_NO":"２７號","E_COORD97":169374.04999999999,"N_COORD97":2547606.6400000001,"ADDRESS":"安和路一段１２３巷２７號","OBJECTID":336174},"geometry":{"x":169374.05000000168,"y":2547606.6400000006}},{"attributes":{"ID":336184,"DIS_CODE":0,"TOWNNAME":"安南區","LI":"溪北里","LIN":"1鄰","STREET":"安和路","SECT":"一段","MAREA":" ","LANE":"１２３巷","ALLEY":" ","HOUSE_NO":"３１號","E_COORD97":169360.84,"N_COORD97":2547601.6899999999,"ADDRESS":"安和路一段１２３巷３１號","OBJECTID":336175},"geometry":{"x":169360.84000000078,"y":2547601.6899999995}},{"attributes":{"ID":336185,"DIS_CODE":0,"TOWNNAME":"安南區","LI":"溪北里","LIN":"1鄰","STREET":"安和路","SECT":"一段","MAREA":" ","LANE":"１２３巷","ALLEY":" ","HOUSE_NO":"３３號","E_COORD97":169355.25,"N_COORD97":2547600.29,"ADDRESS":"安和路一段１２３巷３３號","OBJECTID":336176},"geometry":{"x":169355.25,"y":2547600.2899999991}},{"attributes":{"ID":336186,"DIS_CODE":0,"TOWNNAME":"安南區","LI":"溪北里","LIN":"1鄰","STREET":"安和路","SECT":"一段","MAREA":" ","LANE":"１２３巷","ALLEY":" ","HOUSE_NO":"３５號","E_COORD97":169352.57999999999,"N_COORD97":2547599.2799999998,"ADDRESS":"安和路一段１２３巷３５號","OBJECTID":336177},"geometry":{"x":169352.58000000101,"y":2547599.2800000012}},{"attributes":{"ID":336187,"DIS_CODE":0,"TOWNNAME":"安南區","LI":"溪北里","LIN":"1鄰","STREET":"安和路","SECT":"一段","MAREA":" ","LANE":"１２３巷","ALLEY":" ","HOUSE_NO":"３７號","E_COORD97":169352.95999999999,"N_COORD97":2547594.2000000002,"ADDRESS":"安和路一段１２３巷３７號","OBJECTID":336178},"geometry":{"x":169352.96000000089,"y":2547594.1999999993}},{"attributes":{"ID":336188,"DIS_CODE":0,"TOWNNAME":"安南區","LI":"溪北里","LIN":"1鄰","STREET":"安和路","SECT":"一段","MAREA":" ","LANE":"１０１巷","ALLEY":" ","HOUSE_NO":"２６之１號","E_COORD97":169399.35000000001,"N_COORD97":2547588.7599999998,"ADDRESS":"安和路一段１０１巷２６之１號","OBJECTID":336179},"geometry":{"x":169399.35000000056,"y":2547588.7599999979}},{"attributes":{"ID":336189,"DIS_CODE":0,"TOWNNAME":"安平區","LI":"億載里","LIN":"15鄰","STREET":"健康四街","SECT":" ","MAREA":" ","LANE":"９５巷","ALLEY":" ","HOUSE_NO":"６９號","E_COORD97":163996.79999999999,"N_COORD97":2543241.7000000002,"ADDRESS":"健康四街９５巷６９號","OBJECTID":336180},"geometry":{"x":163996.80000000168,"y":2543241.6999999993}},{"attributes":{"ID":336190,"DIS_CODE":0,"TOWNNAME":"安平區","LI":"億載里","LIN":"15鄰","STREET":"健康四街","SECT":" ","MAREA":" ","LANE":"９５巷","ALLEY":" ","HOUSE_NO":"６７號","E_COORD97":164002.20000000001,"N_COORD97":2543241.7000000002,"ADDRESS":"健康四街９５巷６７號","OBJECTID":336181},"geometry":{"x":164002.20000000019,"y":2543241.6999999993}},{"attributes":{"ID":336191,"DIS_CODE":0,"TOWNNAME":"安平區","LI":"億載里","LIN":"15鄰","STREET":"健康四街","SECT":" ","MAREA":" ","LANE":"９５巷","ALLEY":" ","HOUSE_NO":"６５號","E_COORD97":164007.42000000001,"N_COORD97":2543242.0600000001,"ADDRESS":"健康四街９５巷６５號","OBJECTID":336182},"geometry":{"x":164007.41999999993,"y":2543242.0600000024}},{"attributes":{"ID":336192,"DIS_CODE":0,"TOWNNAME":"安平區","LI":"億載里","LIN":"15鄰","STREET":"健康四街","SECT":" ","MAREA":" ","LANE":"９５巷","ALLEY":" ","HOUSE_NO":"６３號","E_COORD97":164010.60999999999,"N_COORD97":2543242.02,"ADDRESS":"健康四街９５巷６３號","OBJECTID":336183},"geometry":{"x":164010.6100000022,"y":2543242.0200000014}},{"attributes":{"ID":336193,"DIS_CODE":0,"TOWNNAME":"安平區","LI":"億載里","LIN":"1鄰","STREET":"平豐路","SECT":" ","MAREA":" ","LANE":"３９１巷","ALLEY":" ","HOUSE_NO":"４１號","E_COORD97":164147.01999999999,"N_COORD97":2543802.7400000002,"ADDRESS":"平豐路３９１巷４１號","OBJECTID":336184},"geometry":{"x":164147.01999999955,"y":2543802.7400000039}},{"attributes":{"ID":336194,"DIS_CODE":0,"TOWNNAME":"安平區","LI":"億載里","LIN":"1鄰","STREET":"平豐路","SECT":" ","MAREA":" ","LANE":"３９１巷","ALLEY":" ","HOUSE_NO":"３９號","E_COORD97":164156.53,"N_COORD97":2543804.4900000002,"ADDRESS":"平豐路３９１巷３９號","OBJECTID":336185},"geometry":{"x":164156.53000000026,"y":2543804.4900000021}},{"attributes":{"ID":336195,"DIS_CODE":0,"TOWNNAME":"安平區","LI":"億載里","LIN":"1鄰","STREET":"平豐路","SECT":" ","MAREA":" ","LANE":"３９１巷","ALLEY":" ","HOUSE_NO":"３７號","E_COORD97":164163.98999999999,"N_COORD97":2543804.3300000001,"ADDRESS":"平豐路３９１巷３７號","OBJECTID":336186},"geometry":{"x":164163.99000000115,"y":2543804.3300000001}},{"attributes":{"ID":336196,"DIS_CODE":0,"TOWNNAME":"安南區","LI":"原佃里","LIN":"1鄰","STREET":"本原街","SECT":"一段","MAREA":" ","LANE":"９７巷","ALLEY":" ","HOUSE_NO":"１９０號","E_COORD97":167873.10999999999,"N_COORD97":2549776.7400000002,"ADDRESS":"本原街一段９７巷１９０號","OBJECTID":336187},"geometry":{"x":167873.11000000034,"y":2549776.7400000021}},{"attributes":{"ID":336197,"DIS_CODE":0,"TOWNNAME":"安南區","LI":"原佃里","LIN":"1鄰","STREET":"本原街","SECT":"一段","MAREA":" ","LANE":"９７巷","ALLEY":" ","HOUSE_NO":"２５０號","E_COORD97":167611.64999999999,"N_COORD97":2549751.9300000002,"ADDRESS":"本原街一段９７巷２５０號","OBJECTID":336188},"geometry":{"x":167611.6500000013,"y":2549751.9300000016}},{"attributes":{"ID":336198,"DIS_CODE":0,"TOWNNAME":"安南區","LI":"原佃里","LIN":"1鄰","STREET":"怡安路","SECT":"二段","MAREA":" ","LANE":"５１６巷","ALLEY":" ","HOUSE_NO":"３號","E_COORD97":167358.26999999999,"N_COORD97":2549538.3399999999,"ADDRESS":"怡安路二段５１６巷３號","OBJECTID":336189},"geometry":{"x":167358.27000000142,"y":2549538.3400000017}},{"attributes":{"ID":336199,"DIS_CODE":0,"TOWNNAME":"安南區","LI":"海西里","LIN":"1鄰","STREET":"海環街","SECT":" ","MAREA":" ","LANE":"５３９巷","ALLEY":" ","HOUSE_NO":"３６號","E_COORD97":166223.44,"N_COORD97":2549264.2599999998,"ADDRESS":"海環街５３９巷３６號","OBJECTID":336190},"geometry":{"x":166223.44000000041,"y":2549264.2600000016}},{"attributes":{"ID":336200,"DIS_CODE":0,"TOWNNAME":"安南區","LI":"海佃里","LIN":"1鄰","STREET":"國安街","SECT":" ","MAREA":" ","LANE":"１０巷","ALLEY":" ","HOUSE_NO":"６之１號","E_COORD97":167116.69,"N_COORD97":2547077.2799999998,"ADDRESS":"國安街１０巷６之１號","OBJECTID":336191},"geometry":{"x":167116.69000000041,"y":2547077.2800000012}},{"attributes":{"ID":336201,"DIS_CODE":0,"TOWNNAME":"安南區","LI":"溪東里","LIN":"1鄰","STREET":"府安路","SECT":"五段","MAREA":" ","LANE":"１４４巷","ALLEY":" ","HOUSE_NO":"１８之２號","E_COORD97":167890.75,"N_COORD97":2547137.8399999999,"ADDRESS":"府安路五段１４４巷１８之２號","OBJECTID":336192},"geometry":{"x":167890.75,"y":2547137.8400000017}},{"attributes":{"ID":336202,"DIS_CODE":0,"TOWNNAME":"安南區","LI":"新順里","LIN":"1鄰","STREET":"安豐六街","SECT":" ","MAREA":" ","LANE":"１１１巷","ALLEY":" ","HOUSE_NO":"３９號","E_COORD97":169596.10000000001,"N_COORD97":2549734.3999999999,"ADDRESS":"安豐六街１１１巷３９號","OBJECTID":336193},"geometry":{"x":169596.10000000056,"y":2549734.4000000004}},{"attributes":{"ID":336203,"DIS_CODE":0,"TOWNNAME":"安南區","LI":"新順里","LIN":"1鄰","STREET":"安豐六街","SECT":" ","MAREA":" ","LANE":"１１１巷","ALLEY":" ","HOUSE_NO":"３１號","E_COORD97":169576.29000000001,"N_COORD97":2549734.23,"ADDRESS":"安豐六街１１１巷３１號","OBJECTID":336194},"geometry":{"x":169576.29000000097,"y":2549734.2300000023}},{"attributes":{"ID":336204,"DIS_CODE":0,"TOWNNAME":"安南區","LI":"新順里","LIN":"1鄰","STREET":"安豐六街","SECT":" ","MAREA":" ","LANE":"１１１巷","ALLEY":" ","HOUSE_NO":"３３號","E_COORD97":169581.70999999999,"N_COORD97":2549734.9100000001,"ADDRESS":"安豐六街１１１巷３３號","OBJECTID":336195},"geometry":{"x":169581.71000000089,"y":2549734.910000002}},{"attributes":{"ID":336205,"DIS_CODE":0,"TOWNNAME":"安南區","LI":"新順里","LIN":"1鄰","STREET":"安豐六街","SECT":" ","MAREA":" ","LANE":"１１１巷","ALLEY":" ","HOUSE_NO":"３５號","E_COORD97":169589.32999999999,"N_COORD97":2549734.5699999998,"ADDRESS":"安豐六街１１１巷３５號","OBJECTID":336196},"geometry":{"x":169589.33000000194,"y":2549734.5700000022}},{"attributes":{"ID":336206,"DIS_CODE":0,"TOWNNAME":"安南區","LI":"新順里","LIN":"1鄰","STREET":"安豐六街","SECT":" ","MAREA":" ","LANE":"１１１巷","ALLEY":" ","HOUSE_NO":"３７號","E_COORD97":169592.70999999999,"N_COORD97":2549734.3999999999,"ADDRESS":"安豐六街１１１巷３７號","OBJECTID":336197},"geometry":{"x":169592.70999999996,"y":2549734.4000000004}},{"attributes":{"ID":336207,"DIS_CODE":0,"TOWNNAME":"安南區","LI":"新順里","LIN":"1鄰","STREET":"安豐六街","SECT":" ","MAREA":" ","LANE":"１１１巷","ALLEY":" ","HOUSE_NO":"４１號","E_COORD97":169599.48999999999,"N_COORD97":2549734.7400000002,"ADDRESS":"安豐六街１１１巷４１號","OBJECTID":336198},"geometry":{"x":169599.49000000022,"y":2549734.7400000002}},{"attributes":{"ID":336208,"DIS_CODE":0,"TOWNNAME":"安南區","LI":"新順里","LIN":"1鄰","STREET":"安豐六街","SECT":" ","MAREA":" ","LANE":"１１１巷","ALLEY":" ","HOUSE_NO":"４３號","E_COORD97":169603.89000000001,"N_COORD97":2549734.5699999998,"ADDRESS":"安豐六街１１１巷４３號","OBJECTID":336199},"geometry":{"x":169603.8900000006,"y":2549734.5700000022}},{"attributes":{"ID":336209,"DIS_CODE":0,"TOWNNAME":"安南區","LI":"新順里","LIN":"1鄰","STREET":"安豐六街","SECT":" ","MAREA":" ","LANE":"１１１巷","ALLEY":" ","HOUSE_NO":"４５號","E_COORD97":169607.95000000001,"N_COORD97":2549734.3999999999,"ADDRESS":"安豐六街１１１巷４５號","OBJECTID":336200},"geometry":{"x":169607.95000000112,"y":2549734.4000000004}}]}