{"displayFieldName":"TOWNNAME","fieldAliases":{"ID":"ID","DIS_CODE":"DIS_CODE","TOWNNAME":"TOWNNAME","LI":"LI","LIN":"LIN","STREET":"STREET","SECT":"SECT","MAREA":"MAREA","LANE":"LANE","ALLEY":"ALLEY","HOUSE_NO":"HOUSE_NO","E_COORD97":"E_COORD97","N_COORD97":"N_COORD97","ADDRESS":"ADDRESS","OBJECTID":"OBJECTID"},"geometryType":"esriGeometryPoint","spatialReference":{"wkid":102443,"latestWkid":3826},"fields":[{"name":"ID","type":"esriFieldTypeDouble","alias":"ID"},{"name":"DIS_CODE","type":"esriFieldTypeInteger","alias":"DIS_CODE"},{"name":"TOWNNAME","type":"esriFieldTypeString","alias":"TOWNNAME","length":8},{"name":"LI","type":"esriFieldTypeString","alias":"LI","length":8},{"name":"LIN","type":"esriFieldTypeString","alias":"LIN","length":12},{"name":"STREET","type":"esriFieldTypeString","alias":"STREET","length":20},{"name":"SECT","type":"esriFieldTypeString","alias":"SECT","length":8},{"name":"MAREA","type":"esriFieldTypeString","alias":"MAREA","length":12},{"name":"LANE","type":"esriFieldTypeString","alias":"LANE","length":10},{"name":"ALLEY","type":"esriFieldTypeString","alias":"ALLEY","length":10},{"name":"HOUSE_NO","type":"esriFieldTypeString","alias":"HOUSE_NO","length":20},{"name":"E_COORD97","type":"esriFieldTypeDouble","alias":"E_COORD97"},{"name":"N_COORD97","type":"esriFieldTypeDouble","alias":"N_COORD97"},{"name":"ADDRESS","type":"esriFieldTypeString","alias":"ADDRESS","length":50},{"name":"OBJECTID","type":"esriFieldTypeOID","alias":"OBJECTID"}],"features":[{"attributes":{"ID":27601,"DIS_CODE":0,"TOWNNAME":"下營區","LI":"茅港里","LIN":"8鄰","STREET":" ","SECT":" ","MAREA":"茅港尾","LANE":" ","ALLEY":" ","HOUSE_NO":"２８２號之１","E_COORD97":176566.42999999999,"N_COORD97":2568448.6800000002,"ADDRESS":"茅港尾２８２號之１","OBJECTID":27601},"geometry":{"x":176566.43000000063,"y":2568448.6800000016}},{"attributes":{"ID":27602,"DIS_CODE":0,"TOWNNAME":"下營區","LI":"茅港里","LIN":"8鄰","STREET":" ","SECT":" ","MAREA":"茅港尾","LANE":" ","ALLEY":" ","HOUSE_NO":"２８２號","E_COORD97":176568.31,"N_COORD97":2568444.4300000002,"ADDRESS":"茅港尾２８２號","OBJECTID":27602},"geometry":{"x":176568.31000000052,"y":2568444.4299999997}},{"attributes":{"ID":27603,"DIS_CODE":0,"TOWNNAME":"下營區","LI":"茅港里","LIN":"8鄰","STREET":" ","SECT":" ","MAREA":"茅港尾","LANE":" ","ALLEY":" ","HOUSE_NO":"２８３號","E_COORD97":176572.73000000001,"N_COORD97":2568459.3999999999,"ADDRESS":"茅港尾２８３號","OBJECTID":27603},"geometry":{"x":176572.73000000045,"y":2568459.4000000004}},{"attributes":{"ID":27604,"DIS_CODE":0,"TOWNNAME":"下營區","LI":"茅港里","LIN":"8鄰","STREET":" ","SECT":" ","MAREA":"茅港尾","LANE":" ","ALLEY":" ","HOUSE_NO":"２８７號","E_COORD97":176555.13,"N_COORD97":2568463.8799999999,"ADDRESS":"茅港尾２８７號","OBJECTID":27604},"geometry":{"x":176555.13000000082,"y":2568463.879999999}},{"attributes":{"ID":27605,"DIS_CODE":0,"TOWNNAME":"下營區","LI":"茅港里","LIN":"8鄰","STREET":" ","SECT":" ","MAREA":"茅港尾","LANE":" ","ALLEY":" ","HOUSE_NO":"２８８號","E_COORD97":176550.60000000001,"N_COORD97":2568465.0699999998,"ADDRESS":"茅港尾２８８號","OBJECTID":27605},"geometry":{"x":176550.59999999963,"y":2568465.0699999984}},{"attributes":{"ID":27606,"DIS_CODE":0,"TOWNNAME":"下營區","LI":"茅港里","LIN":"8鄰","STREET":" ","SECT":" ","MAREA":"茅港尾","LANE":" ","ALLEY":" ","HOUSE_NO":"２８９號","E_COORD97":176546.07000000001,"N_COORD97":2568466.25,"ADDRESS":"茅港尾２８９號","OBJECTID":27606},"geometry":{"x":176546.0700000003,"y":2568466.25}},{"attributes":{"ID":27607,"DIS_CODE":0,"TOWNNAME":"下營區","LI":"茅港里","LIN":"8鄰","STREET":" ","SECT":" ","MAREA":"茅港尾","LANE":" ","ALLEY":" ","HOUSE_NO":"２９０號","E_COORD97":176537.45999999999,"N_COORD97":2568469.1600000001,"ADDRESS":"茅港尾２９０號","OBJECTID":27607},"geometry":{"x":176537.46000000089,"y":2568469.160000002}},{"attributes":{"ID":27608,"DIS_CODE":0,"TOWNNAME":"下營區","LI":"茅港里","LIN":"8鄰","STREET":" ","SECT":" ","MAREA":"茅港尾","LANE":" ","ALLEY":" ","HOUSE_NO":"２９１號","E_COORD97":176543.10000000001,"N_COORD97":2568448.3399999999,"ADDRESS":"茅港尾２９１號","OBJECTID":27608},"geometry":{"x":176543.10000000056,"y":2568448.3399999999}},{"attributes":{"ID":27609,"DIS_CODE":0,"TOWNNAME":"下營區","LI":"茅港里","LIN":"8鄰","STREET":" ","SECT":" ","MAREA":"茅港尾","LANE":" ","ALLEY":" ","HOUSE_NO":"２９３號之１","E_COORD97":176521.23000000001,"N_COORD97":2568468.8900000001,"ADDRESS":"茅港尾２９３號之１","OBJECTID":27609},"geometry":{"x":176521.23000000045,"y":2568468.8900000006}},{"attributes":{"ID":27610,"DIS_CODE":0,"TOWNNAME":"下營區","LI":"新興里","LIN":"17鄰","STREET":"中華街","SECT":" ","MAREA":" ","LANE":"２０２巷","ALLEY":"１５弄","HOUSE_NO":"１號","E_COORD97":175179.72,"N_COORD97":2570709.3100000001,"ADDRESS":"中華街２０２巷１５弄１號","OBJECTID":27610},"geometry":{"x":175179.71999999974,"y":2570709.3100000024}},{"attributes":{"ID":27611,"DIS_CODE":0,"TOWNNAME":"下營區","LI":"新興里","LIN":"17鄰","STREET":"中華街","SECT":" ","MAREA":" ","LANE":"２０２巷","ALLEY":"１５弄","HOUSE_NO":"２號","E_COORD97":175203.89999999999,"N_COORD97":2570722.6899999999,"ADDRESS":"中華街２０２巷１５弄２號","OBJECTID":27611},"geometry":{"x":175203.9000000013,"y":2570722.6900000013}},{"attributes":{"ID":27612,"DIS_CODE":0,"TOWNNAME":"下營區","LI":"茅港里","LIN":"8鄰","STREET":" ","SECT":" ","MAREA":"茅港尾","LANE":" ","ALLEY":" ","HOUSE_NO":"２９３號","E_COORD97":176513.59,"N_COORD97":2568465.2999999998,"ADDRESS":"茅港尾２９３號","OBJECTID":27612},"geometry":{"x":176513.58999999985,"y":2568465.3000000026}},{"attributes":{"ID":27613,"DIS_CODE":0,"TOWNNAME":"下營區","LI":"新興里","LIN":"17鄰","STREET":"中華街","SECT":" ","MAREA":" ","LANE":"２０２巷","ALLEY":"１５弄","HOUSE_NO":"３號","E_COORD97":175182.97,"N_COORD97":2570717.25,"ADDRESS":"中華街２０２巷１５弄３號","OBJECTID":27613},"geometry":{"x":175182.97000000067,"y":2570717.25}},{"attributes":{"ID":27614,"DIS_CODE":0,"TOWNNAME":"下營區","LI":"新興里","LIN":"17鄰","STREET":"中華街","SECT":" ","MAREA":" ","LANE":"２０２巷","ALLEY":"１５弄","HOUSE_NO":"５號","E_COORD97":175184.98999999999,"N_COORD97":2570721.75,"ADDRESS":"中華街２０２巷１５弄５號","OBJECTID":27614},"geometry":{"x":175184.99000000115,"y":2570721.7500000037}},{"attributes":{"ID":27615,"DIS_CODE":0,"TOWNNAME":"下營區","LI":"新興里","LIN":"17鄰","STREET":"中華街","SECT":" ","MAREA":" ","LANE":"２０２巷","ALLEY":"１５弄","HOUSE_NO":"６號","E_COORD97":175204.57000000001,"N_COORD97":2570727.0499999998,"ADDRESS":"中華街２０２巷１５弄６號","OBJECTID":27615},"geometry":{"x":175204.57000000123,"y":2570727.0499999989}},{"attributes":{"ID":27616,"DIS_CODE":0,"TOWNNAME":"下營區","LI":"新興里","LIN":"17鄰","STREET":"中華街","SECT":" ","MAREA":" ","LANE":"２０２巷","ALLEY":"１５弄","HOUSE_NO":"７號","E_COORD97":175186.85000000001,"N_COORD97":2570725.5099999998,"ADDRESS":"中華街２０２巷１５弄７號","OBJECTID":27616},"geometry":{"x":175186.85000000056,"y":2570725.5099999998}},{"attributes":{"ID":27617,"DIS_CODE":0,"TOWNNAME":"下營區","LI":"茅港里","LIN":"8鄰","STREET":" ","SECT":" ","MAREA":"茅港尾","LANE":" ","ALLEY":" ","HOUSE_NO":"２９６號","E_COORD97":176498.39000000001,"N_COORD97":2568456.3599999999,"ADDRESS":"茅港尾２９６號","OBJECTID":27617},"geometry":{"x":176498.3900000006,"y":2568456.3600000013}},{"attributes":{"ID":27618,"DIS_CODE":0,"TOWNNAME":"下營區","LI":"新興里","LIN":"17鄰","STREET":"中華街","SECT":" ","MAREA":" ","LANE":"２０２巷","ALLEY":"１５弄","HOUSE_NO":"８號","E_COORD97":175205.51000000001,"N_COORD97":2570731.04,"ADDRESS":"中華街２０２巷１５弄８號","OBJECTID":27618},"geometry":{"x":175205.50999999978,"y":2570731.0399999991}},{"attributes":{"ID":27619,"DIS_CODE":0,"TOWNNAME":"下營區","LI":"新興里","LIN":"17鄰","STREET":"中華街","SECT":" ","MAREA":" ","LANE":"２０２巷","ALLEY":"１５弄","HOUSE_NO":"９號","E_COORD97":175188.73000000001,"N_COORD97":2570729.0600000001,"ADDRESS":"中華街２０２巷１５弄９號","OBJECTID":27619},"geometry":{"x":175188.73000000138,"y":2570729.0600000005}},{"attributes":{"ID":27620,"DIS_CODE":0,"TOWNNAME":"永康區","LI":"尚頂里","LIN":"17鄰","STREET":"中正南路","SECT":" ","MAREA":" ","LANE":"２１０巷","ALLEY":"１３弄","HOUSE_NO":"９號","E_COORD97":170182.70999999999,"N_COORD97":2547207.98,"ADDRESS":"中正南路２１０巷１３弄９號","OBJECTID":27620},"geometry":{"x":170182.70999999996,"y":2547207.9800000004}},{"attributes":{"ID":27621,"DIS_CODE":0,"TOWNNAME":"仁德區","LI":"仁義里","LIN":"47鄰","STREET":"仁義路","SECT":" ","MAREA":" ","LANE":" ","ALLEY":" ","HOUSE_NO":"４５號","E_COORD97":173496.64999999999,"N_COORD97":2540964.52,"ADDRESS":"仁義路４５號","OBJECTID":27621},"geometry":{"x":173496.65000000224,"y":2540964.5199999996}},{"attributes":{"ID":27622,"DIS_CODE":0,"TOWNNAME":"仁德區","LI":"仁義里","LIN":"47鄰","STREET":"仁義路","SECT":" ","MAREA":" ","LANE":" ","ALLEY":" ","HOUSE_NO":"４１號","E_COORD97":173487.73999999999,"N_COORD97":2540963.02,"ADDRESS":"仁義路４１號","OBJECTID":27622},"geometry":{"x":173487.74000000115,"y":2540963.0200000014}},{"attributes":{"ID":27623,"DIS_CODE":0,"TOWNNAME":"仁德區","LI":"仁義里","LIN":"47鄰","STREET":"中正路","SECT":"二段","MAREA":" ","LANE":" ","ALLEY":" ","HOUSE_NO":"１０７０號","E_COORD97":173376.29999999999,"N_COORD97":2540993.02,"ADDRESS":"中正路二段１０７０號","OBJECTID":27623},"geometry":{"x":173376.30000000168,"y":2540993.0200000014}},{"attributes":{"ID":27624,"DIS_CODE":0,"TOWNNAME":"仁德區","LI":"仁義里","LIN":"47鄰","STREET":"仁義路","SECT":" ","MAREA":" ","LANE":" ","ALLEY":" ","HOUSE_NO":"３５號","E_COORD97":173475.17999999999,"N_COORD97":2540962.02,"ADDRESS":"仁義路３５號","OBJECTID":27624},"geometry":{"x":173475.1799999997,"y":2540962.0200000033}},{"attributes":{"ID":27625,"DIS_CODE":0,"TOWNNAME":"仁德區","LI":"仁義里","LIN":"47鄰","STREET":"中正路","SECT":"二段","MAREA":" ","LANE":" ","ALLEY":" ","HOUSE_NO":"１０６６號","E_COORD97":173377.92999999999,"N_COORD97":2540985.77,"ADDRESS":"中正路二段１０６６號","OBJECTID":27625},"geometry":{"x":173377.9299999997,"y":2540985.7700000014}},{"attributes":{"ID":27626,"DIS_CODE":0,"TOWNNAME":"仁德區","LI":"仁義里","LIN":"47鄰","STREET":"中正路","SECT":"二段","MAREA":" ","LANE":" ","ALLEY":" ","HOUSE_NO":"１０６４號","E_COORD97":173378.87,"N_COORD97":2540981.77,"ADDRESS":"中正路二段１０６４號","OBJECTID":27626},"geometry":{"x":173378.87000000011,"y":2540981.7700000014}},{"attributes":{"ID":27627,"DIS_CODE":0,"TOWNNAME":"仁德區","LI":"仁義里","LIN":"47鄰","STREET":"中正路","SECT":"二段","MAREA":" ","LANE":" ","ALLEY":" ","HOUSE_NO":"１０６２號","E_COORD97":173380.89999999999,"N_COORD97":2540976.52,"ADDRESS":"中正路二段１０６２號","OBJECTID":27627},"geometry":{"x":173380.90000000037,"y":2540976.5200000014}},{"attributes":{"ID":27628,"DIS_CODE":0,"TOWNNAME":"仁德區","LI":"仁義里","LIN":"47鄰","STREET":"仁義路","SECT":" ","MAREA":" ","LANE":" ","ALLEY":" ","HOUSE_NO":"２９號","E_COORD97":173462.62,"N_COORD97":2540960.77,"ADDRESS":"仁義路２９號","OBJECTID":27628},"geometry":{"x":173462.62000000197,"y":2540960.7700000014}},{"attributes":{"ID":27629,"DIS_CODE":0,"TOWNNAME":"仁德區","LI":"仁義里","LIN":"47鄰","STREET":"中正路","SECT":"二段","MAREA":" ","LANE":" ","ALLEY":" ","HOUSE_NO":"１０５８號","E_COORD97":173381.09,"N_COORD97":2540970.77,"ADDRESS":"中正路二段１０５８號","OBJECTID":27629},"geometry":{"x":173381.08999999892,"y":2540970.7700000033}},{"attributes":{"ID":27630,"DIS_CODE":0,"TOWNNAME":"永康區","LI":"尚頂里","LIN":"17鄰","STREET":"中正南路","SECT":" ","MAREA":" ","LANE":"２２０巷","ALLEY":"３０弄","HOUSE_NO":"３２號","E_COORD97":170224.66,"N_COORD97":2547204.21,"ADDRESS":"中正南路２２０巷３０弄３２號","OBJECTID":27630},"geometry":{"x":170224.66000000201,"y":2547204.2100000046}},{"attributes":{"ID":27631,"DIS_CODE":0,"TOWNNAME":"永康區","LI":"西灣里","LIN":"17鄰","STREET":"民族路","SECT":" ","MAREA":" ","LANE":"５１３巷","ALLEY":"２弄","HOUSE_NO":"３號","E_COORD97":174475.89999999999,"N_COORD97":2545451.5299999998,"ADDRESS":"民族路５１３巷２弄３號","OBJECTID":27631},"geometry":{"x":174475.90000000037,"y":2545451.5300000012}},{"attributes":{"ID":27632,"DIS_CODE":0,"TOWNNAME":"永康區","LI":"尚頂里","LIN":"17鄰","STREET":"中正南路","SECT":" ","MAREA":" ","LANE":"２１０巷","ALLEY":"１３弄","HOUSE_NO":"５號","E_COORD97":170185.17999999999,"N_COORD97":2547179.6299999999,"ADDRESS":"中正南路２１０巷１３弄５號","OBJECTID":27632},"geometry":{"x":170185.18000000063,"y":2547179.6300000008}},{"attributes":{"ID":27633,"DIS_CODE":0,"TOWNNAME":"永康區","LI":"尚頂里","LIN":"17鄰","STREET":"中正南路","SECT":" ","MAREA":" ","LANE":"２１０巷","ALLEY":"１３弄","HOUSE_NO":"７號","E_COORD97":170185.06,"N_COORD97":2547193.5699999998,"ADDRESS":"中正南路２１０巷１３弄７號","OBJECTID":27633},"geometry":{"x":170185.05999999959,"y":2547193.5700000003}},{"attributes":{"ID":27634,"DIS_CODE":0,"TOWNNAME":"永康區","LI":"尚頂里","LIN":"17鄰","STREET":"中正南路","SECT":" ","MAREA":" ","LANE":"２２０巷","ALLEY":"３０弄","HOUSE_NO":"４８號","E_COORD97":170232.98000000001,"N_COORD97":2547169.6499999999,"ADDRESS":"中正南路２２０巷３０弄４８號","OBJECTID":27634},"geometry":{"x":170232.98000000231,"y":2547169.6499999985}},{"attributes":{"ID":27635,"DIS_CODE":0,"TOWNNAME":"永康區","LI":"西灣里","LIN":"17鄰","STREET":"民族路","SECT":" ","MAREA":" ","LANE":"５１３巷","ALLEY":"１弄","HOUSE_NO":"２號","E_COORD97":174515.95999999999,"N_COORD97":2545433.0299999998,"ADDRESS":"民族路５１３巷１弄２號","OBJECTID":27635},"geometry":{"x":174515.95999999996,"y":2545433.0299999993}},{"attributes":{"ID":27636,"DIS_CODE":0,"TOWNNAME":"下營區","LI":"茅港里","LIN":"8鄰","STREET":" ","SECT":" ","MAREA":"茅港尾","LANE":" ","ALLEY":" ","HOUSE_NO":"２９７號","E_COORD97":176526.76999999999,"N_COORD97":2568433.0299999998,"ADDRESS":"茅港尾２９７號","OBJECTID":27636},"geometry":{"x":176526.76999999955,"y":2568433.0299999993}},{"attributes":{"ID":27637,"DIS_CODE":0,"TOWNNAME":"永康區","LI":"尚頂里","LIN":"17鄰","STREET":"中正南路","SECT":" ","MAREA":" ","LANE":"２２０巷","ALLEY":"３０弄","HOUSE_NO":"２１號","E_COORD97":170254.39000000001,"N_COORD97":2547198.0800000001,"ADDRESS":"中正南路２２０巷３０弄２１號","OBJECTID":27637},"geometry":{"x":170254.38999999966,"y":2547198.0800000019}},{"attributes":{"ID":27638,"DIS_CODE":0,"TOWNNAME":"永康區","LI":"尚頂里","LIN":"17鄰","STREET":"中正南路","SECT":" ","MAREA":" ","LANE":"２１０巷","ALLEY":"１３弄","HOUSE_NO":"６號","E_COORD97":170195.89000000001,"N_COORD97":2547238.7599999998,"ADDRESS":"中正南路２１０巷１３弄６號","OBJECTID":27638},"geometry":{"x":170195.8900000006,"y":2547238.7599999998}},{"attributes":{"ID":27639,"DIS_CODE":0,"TOWNNAME":"永康區","LI":"西灣里","LIN":"17鄰","STREET":"民族路","SECT":" ","MAREA":" ","LANE":"５１３巷","ALLEY":"２弄","HOUSE_NO":"５號","E_COORD97":174471.26000000001,"N_COORD97":2545452.2799999998,"ADDRESS":"民族路５１３巷２弄５號","OBJECTID":27639},"geometry":{"x":174471.25999999978,"y":2545452.2800000031}},{"attributes":{"ID":27640,"DIS_CODE":0,"TOWNNAME":"永康區","LI":"正強里","LIN":"17鄰","STREET":"自強路","SECT":" ","MAREA":" ","LANE":"１８８巷","ALLEY":"１６弄","HOUSE_NO":"１１號","E_COORD97":173172.69,"N_COORD97":2547411.8900000001,"ADDRESS":"自強路１８８巷１６弄１１號","OBJECTID":27640},"geometry":{"x":173172.69000000227,"y":2547411.8900000006}},{"attributes":{"ID":27641,"DIS_CODE":0,"TOWNNAME":"永康區","LI":"正強里","LIN":"17鄰","STREET":"自強路","SECT":" ","MAREA":" ","LANE":"１８８巷","ALLEY":"４６弄","HOUSE_NO":"５號","E_COORD97":173195.82000000001,"N_COORD97":2547320.5800000001,"ADDRESS":"自強路１８８巷４６弄５號","OBJECTID":27641},"geometry":{"x":173195.82000000123,"y":2547320.5800000019}},{"attributes":{"ID":27642,"DIS_CODE":0,"TOWNNAME":"永康區","LI":"正強里","LIN":"17鄰","STREET":"自強路","SECT":" ","MAREA":" ","LANE":"１８８巷","ALLEY":"４６弄","HOUSE_NO":"１９號","E_COORD97":173175.64000000001,"N_COORD97":2547298.9900000002,"ADDRESS":"自強路１８８巷４６弄１９號","OBJECTID":27642},"geometry":{"x":173175.64000000153,"y":2547298.9900000002}},{"attributes":{"ID":27643,"DIS_CODE":0,"TOWNNAME":"將軍區","LI":"北埔里","LIN":"8鄰","STREET":" ","SECT":" ","MAREA":"北埔","LANE":" ","ALLEY":" ","HOUSE_NO":"６７號","E_COORD97":163092.32000000001,"N_COORD97":2569360.77,"ADDRESS":"北埔６７號","OBJECTID":27643},"geometry":{"x":163092.32000000123,"y":2569360.7699999996}},{"attributes":{"ID":27644,"DIS_CODE":0,"TOWNNAME":"永康區","LI":"正強里","LIN":"17鄰","STREET":"自強路","SECT":" ","MAREA":" ","LANE":"１８８巷","ALLEY":"１６弄","HOUSE_NO":"９號","E_COORD97":173175.54999999999,"N_COORD97":2547412.3900000001,"ADDRESS":"自強路１８８巷１６弄９號","OBJECTID":27644},"geometry":{"x":173175.54999999981,"y":2547412.3899999987}},{"attributes":{"ID":27645,"DIS_CODE":0,"TOWNNAME":"安南區","LI":"溪北里","LIN":"17鄰","STREET":"府安路","SECT":"四段","MAREA":" ","LANE":"９１巷","ALLEY":"２２弄","HOUSE_NO":"５號","E_COORD97":169160.57000000001,"N_COORD97":2547391.7999999998,"ADDRESS":"府安路四段９１巷２２弄５號","OBJECTID":27645},"geometry":{"x":169160.5700000003,"y":2547391.8000000007}},{"attributes":{"ID":27646,"DIS_CODE":0,"TOWNNAME":"新營區","LI":"民榮里","LIN":"38鄰","STREET":"太子路","SECT":" ","MAREA":" ","LANE":"５３巷","ALLEY":"６弄","HOUSE_NO":"５號之１","E_COORD97":178330.53,"N_COORD97":2577960.5800000001,"ADDRESS":"太子路５３巷６弄５號之１","OBJECTID":27646},"geometry":{"x":178330.53000000119,"y":2577960.5800000001}},{"attributes":{"ID":27647,"DIS_CODE":0,"TOWNNAME":"永康區","LI":"二王里","LIN":"47鄰","STREET":"南工街","SECT":" ","MAREA":" ","LANE":" ","ALLEY":" ","HOUSE_NO":"２３６號","E_COORD97":171957.01999999999,"N_COORD97":2545965.9900000002,"ADDRESS":"南工街２３６號","OBJECTID":27647},"geometry":{"x":171957.01999999955,"y":2545965.9900000002}},{"attributes":{"ID":27648,"DIS_CODE":0,"TOWNNAME":"永康區","LI":"二王里","LIN":"47鄰","STREET":"中山東路","SECT":" ","MAREA":" ","LANE":" ","ALLEY":" ","HOUSE_NO":"４７號","E_COORD97":171700.42000000001,"N_COORD97":2546072.7400000002,"ADDRESS":"中山東路４７號","OBJECTID":27648},"geometry":{"x":171700.41999999993,"y":2546072.7400000002}},{"attributes":{"ID":27649,"DIS_CODE":0,"TOWNNAME":"將軍區","LI":"北埔里","LIN":"8鄰","STREET":" ","SECT":" ","MAREA":"北埔","LANE":" ","ALLEY":" ","HOUSE_NO":"６８號","E_COORD97":163097.03,"N_COORD97":2569336.75,"ADDRESS":"北埔６８號","OBJECTID":27649},"geometry":{"x":163097.03000000026,"y":2569336.7500000019}},{"attributes":{"ID":27650,"DIS_CODE":0,"TOWNNAME":"將軍區","LI":"北埔里","LIN":"8鄰","STREET":" ","SECT":" ","MAREA":"北埔","LANE":" ","ALLEY":" ","HOUSE_NO":"７１之１號","E_COORD97":163092.92999999999,"N_COORD97":2569265.9100000001,"ADDRESS":"北埔７１之１號","OBJECTID":27650},"geometry":{"x":163092.93000000063,"y":2569265.9100000001}},{"attributes":{"ID":27651,"DIS_CODE":0,"TOWNNAME":"永康區","LI":"二王里","LIN":"47鄰","STREET":"中山東路","SECT":" ","MAREA":" ","LANE":" ","ALLEY":" ","HOUSE_NO":"２５號","E_COORD97":171696.09,"N_COORD97":2546129.5,"ADDRESS":"中山東路２５號","OBJECTID":27651},"geometry":{"x":171696.09000000171,"y":2546129.4999999981}},{"attributes":{"ID":27652,"DIS_CODE":0,"TOWNNAME":"永康區","LI":"二王里","LIN":"47鄰","STREET":"南工街","SECT":" ","MAREA":" ","LANE":" ","ALLEY":" ","HOUSE_NO":"２２８號","E_COORD97":171972.85999999999,"N_COORD97":2545964.4900000002,"ADDRESS":"南工街２２８號","OBJECTID":27652},"geometry":{"x":171972.8600000022,"y":2545964.4900000021}},{"attributes":{"ID":27653,"DIS_CODE":0,"TOWNNAME":"將軍區","LI":"北埔里","LIN":"8鄰","STREET":" ","SECT":" ","MAREA":"北埔","LANE":" ","ALLEY":" ","HOUSE_NO":"７１號","E_COORD97":163088.14999999999,"N_COORD97":2569264.48,"ADDRESS":"北埔７１號","OBJECTID":27653},"geometry":{"x":163088.15000000224,"y":2569264.4800000023}},{"attributes":{"ID":27654,"DIS_CODE":0,"TOWNNAME":"將軍區","LI":"北埔里","LIN":"8鄰","STREET":" ","SECT":" ","MAREA":"北埔","LANE":" ","ALLEY":" ","HOUSE_NO":"７２之２號","E_COORD97":163083.06,"N_COORD97":2569277.4399999999,"ADDRESS":"北埔７２之２號","OBJECTID":27654},"geometry":{"x":163083.06000000052,"y":2569277.4399999995}},{"attributes":{"ID":27655,"DIS_CODE":0,"TOWNNAME":"將軍區","LI":"北埔里","LIN":"8鄰","STREET":" ","SECT":" ","MAREA":"北埔","LANE":" ","ALLEY":" ","HOUSE_NO":"７２之３號","E_COORD97":163083.60999999999,"N_COORD97":2569273.2200000002,"ADDRESS":"北埔７２之３號","OBJECTID":27655},"geometry":{"x":163083.61000000127,"y":2569273.2200000025}},{"attributes":{"ID":27656,"DIS_CODE":0,"TOWNNAME":"永康區","LI":"二王里","LIN":"47鄰","STREET":"中山東路","SECT":" ","MAREA":" ","LANE":" ","ALLEY":" ","HOUSE_NO":"５９號","E_COORD97":171716.35000000001,"N_COORD97":2546045.3500000001,"ADDRESS":"中山東路５９號","OBJECTID":27656},"geometry":{"x":171716.35000000056,"y":2546045.3499999978}},{"attributes":{"ID":27657,"DIS_CODE":0,"TOWNNAME":"將軍區","LI":"北埔里","LIN":"8鄰","STREET":" ","SECT":" ","MAREA":"北埔","LANE":" ","ALLEY":" ","HOUSE_NO":"７２號","E_COORD97":163082.01000000001,"N_COORD97":2569283.1600000001,"ADDRESS":"北埔７２號","OBJECTID":27657},"geometry":{"x":163082.01000000071,"y":2569283.160000002}},{"attributes":{"ID":27658,"DIS_CODE":0,"TOWNNAME":"將軍區","LI":"北埔里","LIN":"8鄰","STREET":" ","SECT":" ","MAREA":"北埔","LANE":" ","ALLEY":" ","HOUSE_NO":"７３號","E_COORD97":163082.44,"N_COORD97":2569306.0699999998,"ADDRESS":"北埔７３號","OBJECTID":27658},"geometry":{"x":163082.44000000041,"y":2569306.070000004}},{"attributes":{"ID":27659,"DIS_CODE":0,"TOWNNAME":"將軍區","LI":"北埔里","LIN":"8鄰","STREET":" ","SECT":" ","MAREA":"北埔","LANE":" ","ALLEY":" ","HOUSE_NO":"７４號","E_COORD97":163078.73999999999,"N_COORD97":2569336.96,"ADDRESS":"北埔７４號","OBJECTID":27659},"geometry":{"x":163078.74000000022,"y":2569336.9600000009}},{"attributes":{"ID":27660,"DIS_CODE":0,"TOWNNAME":"將軍區","LI":"北埔里","LIN":"8鄰","STREET":" ","SECT":" ","MAREA":"北埔","LANE":" ","ALLEY":" ","HOUSE_NO":"７５之１號","E_COORD97":163081.35000000001,"N_COORD97":2569365.5499999998,"ADDRESS":"北埔７５之１號","OBJECTID":27660},"geometry":{"x":163081.35000000056,"y":2569365.5500000026}},{"attributes":{"ID":27661,"DIS_CODE":0,"TOWNNAME":"永康區","LI":"二王里","LIN":"47鄰","STREET":"中山東路","SECT":" ","MAREA":" ","LANE":" ","ALLEY":" ","HOUSE_NO":"３５號","E_COORD97":171701.92000000001,"N_COORD97":2546092.54,"ADDRESS":"中山東路３５號","OBJECTID":27661},"geometry":{"x":171701.91999999993,"y":2546092.540000001}},{"attributes":{"ID":27662,"DIS_CODE":0,"TOWNNAME":"仁德區","LI":"成功里","LIN":"47鄰","STREET":"文賢路","SECT":"一段","MAREA":" ","LANE":" ","ALLEY":" ","HOUSE_NO":"３８號","E_COORD97":170132.75,"N_COORD97":2538239.0800000001,"ADDRESS":"文賢路一段３８號","OBJECTID":27662},"geometry":{"x":170132.75000000093,"y":2538239.0800000001}},{"attributes":{"ID":27663,"DIS_CODE":0,"TOWNNAME":"新市區","LI":"新和里","LIN":"47鄰","STREET":"和平街","SECT":" ","MAREA":" ","LANE":" ","ALLEY":" ","HOUSE_NO":"２１０號","E_COORD97":177360.06,"N_COORD97":2553228,"ADDRESS":"和平街２１０號","OBJECTID":27663},"geometry":{"x":177360.06000000052,"y":2553228}},{"attributes":{"ID":27664,"DIS_CODE":0,"TOWNNAME":"白河區","LI":"關嶺里","LIN":"8鄰","STREET":" ","SECT":" ","MAREA":"南寮","LANE":" ","ALLEY":" ","HOUSE_NO":"１６號","E_COORD97":198687.89999999999,"N_COORD97":2580209.3700000001,"ADDRESS":"南寮１６號","OBJECTID":27664},"geometry":{"x":198687.9000000013,"y":2580209.3700000029}},{"attributes":{"ID":27665,"DIS_CODE":0,"TOWNNAME":"新營區","LI":"南紙里","LIN":"26鄰","STREET":"建業路","SECT":" ","MAREA":" ","LANE":"２２７巷","ALLEY":"２４弄","HOUSE_NO":"１５號","E_COORD97":178014.63,"N_COORD97":2577341.8799999999,"ADDRESS":"建業路２２７巷２４弄１５號","OBJECTID":27665},"geometry":{"x":178014.63000000082,"y":2577341.8800000008}},{"attributes":{"ID":27666,"DIS_CODE":0,"TOWNNAME":"東區","LI":"成大里","LIN":"17鄰","STREET":"育樂街","SECT":" ","MAREA":" ","LANE":"１４８巷","ALLEY":"１７弄","HOUSE_NO":"１２號","E_COORD97":169427.69,"N_COORD97":2543984.1800000002,"ADDRESS":"育樂街１４８巷１７弄１２號","OBJECTID":27666},"geometry":{"x":169427.69000000041,"y":2543984.1799999997}},{"attributes":{"ID":27667,"DIS_CODE":0,"TOWNNAME":"東區","LI":"成大里","LIN":"17鄰","STREET":"育樂街","SECT":" ","MAREA":" ","LANE":"１４８巷","ALLEY":"１７弄","HOUSE_NO":"１３號","E_COORD97":169421.22,"N_COORD97":2543984.5699999998,"ADDRESS":"育樂街１４８巷１７弄１３號","OBJECTID":27667},"geometry":{"x":169421.21999999974,"y":2543984.5700000022}},{"attributes":{"ID":27668,"DIS_CODE":0,"TOWNNAME":"東區","LI":"成大里","LIN":"17鄰","STREET":"育樂街","SECT":" ","MAREA":" ","LANE":"１４８巷","ALLEY":"１７弄","HOUSE_NO":"１４號","E_COORD97":169415.32999999999,"N_COORD97":2543985.1600000001,"ADDRESS":"育樂街１４８巷１７弄１４號","OBJECTID":27668},"geometry":{"x":169415.33000000101,"y":2543985.1600000001}},{"attributes":{"ID":27669,"DIS_CODE":0,"TOWNNAME":"東區","LI":"成大里","LIN":"17鄰","STREET":"育樂街","SECT":" ","MAREA":" ","LANE":"１４８巷","ALLEY":"１７弄","HOUSE_NO":"１５號","E_COORD97":169409.25,"N_COORD97":2543985.5499999998,"ADDRESS":"育樂街１４８巷１７弄１５號","OBJECTID":27669},"geometry":{"x":169409.25000000093,"y":2543985.5500000026}},{"attributes":{"ID":27670,"DIS_CODE":0,"TOWNNAME":"東區","LI":"成大里","LIN":"17鄰","STREET":"育樂街","SECT":" ","MAREA":" ","LANE":"１４８巷","ALLEY":"１７弄","HOUSE_NO":"１６號","E_COORD97":169403.56,"N_COORD97":2543986.1400000001,"ADDRESS":"育樂街１４８巷１７弄１６號","OBJECTID":27670},"geometry":{"x":169403.55999999959,"y":2543986.1400000006}},{"attributes":{"ID":27671,"DIS_CODE":0,"TOWNNAME":"東區","LI":"成大里","LIN":"17鄰","STREET":"育樂街","SECT":" ","MAREA":" ","LANE":"１４８巷","ALLEY":"１７弄","HOUSE_NO":"１７號","E_COORD97":169397.67000000001,"N_COORD97":2543986.3399999999,"ADDRESS":"育樂街１４８巷１７弄１７號","OBJECTID":27671},"geometry":{"x":169397.67000000086,"y":2543986.3399999999}},{"attributes":{"ID":27672,"DIS_CODE":0,"TOWNNAME":"東區","LI":"成大里","LIN":"17鄰","STREET":"育樂街","SECT":" ","MAREA":" ","LANE":"１４８巷","ALLEY":"１７弄","HOUSE_NO":"１８號","E_COORD97":169426.32000000001,"N_COORD97":2543977.3300000001,"ADDRESS":"育樂街１４８巷１７弄１８號","OBJECTID":27672},"geometry":{"x":169426.3200000003,"y":2543977.3300000001}},{"attributes":{"ID":27673,"DIS_CODE":0,"TOWNNAME":"東區","LI":"成大里","LIN":"17鄰","STREET":"育樂街","SECT":" ","MAREA":" ","LANE":"１４８巷","ALLEY":"１７弄","HOUSE_NO":"１９號","E_COORD97":169419.64999999999,"N_COORD97":2543977.9100000001,"ADDRESS":"育樂街１４８巷１７弄１９號","OBJECTID":27673},"geometry":{"x":169419.65000000224,"y":2543977.910000002}},{"attributes":{"ID":27674,"DIS_CODE":0,"TOWNNAME":"東區","LI":"成大里","LIN":"17鄰","STREET":"育樂街","SECT":" ","MAREA":" ","LANE":"１４８巷","ALLEY":"１７弄","HOUSE_NO":"２０號","E_COORD97":169413.76000000001,"N_COORD97":2543978.5,"ADDRESS":"育樂街１４８巷１７弄２０號","OBJECTID":27674},"geometry":{"x":169413.76000000071,"y":2543978.5}},{"attributes":{"ID":27675,"DIS_CODE":0,"TOWNNAME":"東區","LI":"成大里","LIN":"17鄰","STREET":"育樂街","SECT":" ","MAREA":" ","LANE":"１４８巷","ALLEY":"１７弄","HOUSE_NO":"２１號","E_COORD97":169407.09,"N_COORD97":2543978.5,"ADDRESS":"育樂街１４８巷１７弄２１號","OBJECTID":27675},"geometry":{"x":169407.08999999985,"y":2543978.5}},{"attributes":{"ID":27676,"DIS_CODE":0,"TOWNNAME":"東區","LI":"成大里","LIN":"17鄰","STREET":"育樂街","SECT":" ","MAREA":" ","LANE":"１４８巷","ALLEY":"１７弄","HOUSE_NO":"２２號","E_COORD97":169400.62,"N_COORD97":2543980.0699999998,"ADDRESS":"育樂街１４８巷１７弄２２號","OBJECTID":27676},"geometry":{"x":169400.62000000011,"y":2543980.070000004}},{"attributes":{"ID":27677,"DIS_CODE":0,"TOWNNAME":"東區","LI":"成大里","LIN":"17鄰","STREET":"育樂街","SECT":" ","MAREA":" ","LANE":"１４８巷","ALLEY":"１７弄","HOUSE_NO":"２３號","E_COORD97":169393.94,"N_COORD97":2543980.46,"ADDRESS":"育樂街１４８巷１７弄２３號","OBJECTID":27677},"geometry":{"x":169393.94000000227,"y":2543980.4600000009}},{"attributes":{"ID":27678,"DIS_CODE":0,"TOWNNAME":"東區","LI":"成大里","LIN":"17鄰","STREET":"育樂街","SECT":" ","MAREA":" ","LANE":"１４８巷","ALLEY":"１７弄","HOUSE_NO":"２４號","E_COORD97":169424.35999999999,"N_COORD97":2543962.4300000002,"ADDRESS":"育樂街１４８巷１７弄２４號","OBJECTID":27678},"geometry":{"x":169424.36000000034,"y":2543962.4299999997}},{"attributes":{"ID":27679,"DIS_CODE":0,"TOWNNAME":"東區","LI":"成大里","LIN":"17鄰","STREET":"育樂街","SECT":" ","MAREA":" ","LANE":"１４８巷","ALLEY":"１７弄","HOUSE_NO":"２５號","E_COORD97":169418.28,"N_COORD97":2543963.2200000002,"ADDRESS":"育樂街１４８巷１７弄２５號","OBJECTID":27679},"geometry":{"x":169418.28000000026,"y":2543963.2200000025}},{"attributes":{"ID":27680,"DIS_CODE":0,"TOWNNAME":"東區","LI":"成大里","LIN":"17鄰","STREET":"育樂街","SECT":" ","MAREA":" ","LANE":"１４８巷","ALLEY":"１７弄","HOUSE_NO":"３０號","E_COORD97":169424.75,"N_COORD97":2543954.3999999999,"ADDRESS":"育樂街１４８巷１７弄３０號","OBJECTID":27680},"geometry":{"x":169424.75,"y":2543954.4000000022}},{"attributes":{"ID":27681,"DIS_CODE":0,"TOWNNAME":"東區","LI":"成大里","LIN":"17鄰","STREET":"育樂街","SECT":" ","MAREA":" ","LANE":"１４８巷","ALLEY":"１７弄","HOUSE_NO":"３１號","E_COORD97":169417.88,"N_COORD97":2543955.77,"ADDRESS":"育樂街１４８巷１７弄３１號","OBJECTID":27681},"geometry":{"x":169417.88000000082,"y":2543955.7700000014}},{"attributes":{"ID":27682,"DIS_CODE":0,"TOWNNAME":"東區","LI":"成大里","LIN":"17鄰","STREET":"育樂街","SECT":" ","MAREA":" ","LANE":"１４８巷","ALLEY":"１７弄","HOUSE_NO":"３２號","E_COORD97":169412.19,"N_COORD97":2543956.1600000001,"ADDRESS":"育樂街１４８巷１７弄３２號","OBJECTID":27682},"geometry":{"x":169412.19000000041,"y":2543956.160000002}},{"attributes":{"ID":27683,"DIS_CODE":0,"TOWNNAME":"東區","LI":"成大里","LIN":"17鄰","STREET":"育樂街","SECT":" ","MAREA":" ","LANE":"１４８巷","ALLEY":"１７弄","HOUSE_NO":"３３號","E_COORD97":169405.13,"N_COORD97":2543957.1400000001,"ADDRESS":"育樂街１４８巷１７弄３３號","OBJECTID":27683},"geometry":{"x":169405.12999999989,"y":2543957.1400000025}},{"attributes":{"ID":27684,"DIS_CODE":0,"TOWNNAME":"東區","LI":"成大里","LIN":"17鄰","STREET":"育樂街","SECT":" ","MAREA":" ","LANE":"１４８巷","ALLEY":"１７弄","HOUSE_NO":"３４號","E_COORD97":169399.23999999999,"N_COORD97":2543957.73,"ADDRESS":"育樂街１４８巷１７弄３４號","OBJECTID":27684},"geometry":{"x":169399.24000000115,"y":2543957.7300000004}},{"attributes":{"ID":27685,"DIS_CODE":0,"TOWNNAME":"東區","LI":"成大里","LIN":"17鄰","STREET":"育樂街","SECT":" ","MAREA":" ","LANE":"１４８巷","ALLEY":"１７弄","HOUSE_NO":"３５號","E_COORD97":169393.54999999999,"N_COORD97":2543959.1000000001,"ADDRESS":"育樂街１４８巷１７弄３５號","OBJECTID":27685},"geometry":{"x":169393.54999999981,"y":2543959.1000000015}},{"attributes":{"ID":27686,"DIS_CODE":0,"TOWNNAME":"東區","LI":"成大里","LIN":"17鄰","STREET":"育樂街","SECT":" ","MAREA":" ","LANE":"１４８巷","ALLEY":"１７弄","HOUSE_NO":"３６號","E_COORD97":169387.47,"N_COORD97":2543959.2999999998,"ADDRESS":"育樂街１４８巷１７弄３６號","OBJECTID":27686},"geometry":{"x":169387.46999999974,"y":2543959.3000000026}},{"attributes":{"ID":27687,"DIS_CODE":0,"TOWNNAME":"東區","LI":"成大里","LIN":"17鄰","STREET":"育樂街","SECT":" ","MAREA":" ","LANE":"１４８巷","ALLEY":"１７弄","HOUSE_NO":"４４號","E_COORD97":169425.60999999999,"N_COORD97":2543944.3199999998,"ADDRESS":"育樂街１４８巷１７弄４４號","OBJECTID":27687},"geometry":{"x":169425.61000000127,"y":2543944.320000004}},{"attributes":{"ID":27688,"DIS_CODE":0,"TOWNNAME":"東區","LI":"成大里","LIN":"17鄰","STREET":"育樂街","SECT":" ","MAREA":" ","LANE":"１４８巷","ALLEY":"１７弄","HOUSE_NO":"４５號","E_COORD97":169424.98999999999,"N_COORD97":2543940.4300000002,"ADDRESS":"育樂街１４８巷１７弄４５號","OBJECTID":27688},"geometry":{"x":169424.99000000022,"y":2543940.4300000016}},{"attributes":{"ID":27689,"DIS_CODE":0,"TOWNNAME":"永康區","LI":"正強里","LIN":"17鄰","STREET":"自強路","SECT":" ","MAREA":" ","LANE":"１８８巷","ALLEY":"４６弄","HOUSE_NO":"１５號","E_COORD97":173175.17999999999,"N_COORD97":2547317.3300000001,"ADDRESS":"自強路１８８巷４６弄１５號","OBJECTID":27689},"geometry":{"x":173175.17999999877,"y":2547317.3299999982}},{"attributes":{"ID":27690,"DIS_CODE":0,"TOWNNAME":"永康區","LI":"正強里","LIN":"17鄰","STREET":"自強路","SECT":" ","MAREA":" ","LANE":"１８８巷","ALLEY":"４６弄","HOUSE_NO":"２之１號","E_COORD97":173192.97,"N_COORD97":2547332.6299999999,"ADDRESS":"自強路１８８巷４６弄２之１號","OBJECTID":27690},"geometry":{"x":173192.96999999974,"y":2547332.6300000008}},{"attributes":{"ID":27691,"DIS_CODE":0,"TOWNNAME":"永康區","LI":"正強里","LIN":"17鄰","STREET":"自強路","SECT":" ","MAREA":" ","LANE":"１８８巷","ALLEY":"１６弄","HOUSE_NO":"１５號","E_COORD97":173164.64000000001,"N_COORD97":2547410.6400000001,"ADDRESS":"自強路１８８巷１６弄１５號","OBJECTID":27691},"geometry":{"x":173164.63999999966,"y":2547410.6400000006}},{"attributes":{"ID":27692,"DIS_CODE":0,"TOWNNAME":"永康區","LI":"正強里","LIN":"17鄰","STREET":"自強路","SECT":" ","MAREA":" ","LANE":"１８８巷","ALLEY":"４６弄","HOUSE_NO":"２７號","E_COORD97":173161.91,"N_COORD97":2547315.9500000002,"ADDRESS":"自強路１８８巷４６弄２７號","OBJECTID":27692},"geometry":{"x":173161.91000000015,"y":2547315.950000003}},{"attributes":{"ID":27693,"DIS_CODE":0,"TOWNNAME":"永康區","LI":"正強里","LIN":"17鄰","STREET":"自強路","SECT":" ","MAREA":" ","LANE":"１８８巷","ALLEY":"４６弄","HOUSE_NO":"２９號","E_COORD97":173157.23000000001,"N_COORD97":2547315.2000000002,"ADDRESS":"自強路１８８巷４６弄２９號","OBJECTID":27693},"geometry":{"x":173157.23000000138,"y":2547315.2000000011}},{"attributes":{"ID":27694,"DIS_CODE":0,"TOWNNAME":"將軍區","LI":"北埔里","LIN":"8鄰","STREET":" ","SECT":" ","MAREA":"北埔","LANE":" ","ALLEY":" ","HOUSE_NO":"７５之２號","E_COORD97":163076.63,"N_COORD97":2569364.9700000002,"ADDRESS":"北埔７５之２號","OBJECTID":27694},"geometry":{"x":163076.63000000082,"y":2569364.9700000044}},{"attributes":{"ID":27695,"DIS_CODE":0,"TOWNNAME":"新營區","LI":"民權里","LIN":"24鄰","STREET":"信義街","SECT":" ","MAREA":" ","LANE":" ","ALLEY":" ","HOUSE_NO":"９３之２號","E_COORD97":179782.23000000001,"N_COORD97":2578752.1099999999,"ADDRESS":"信義街９３之２號","OBJECTID":27695},"geometry":{"x":179782.23000000138,"y":2578752.1100000013}},{"attributes":{"ID":27696,"DIS_CODE":0,"TOWNNAME":"新營區","LI":"中營里","LIN":" ","STREET":"東山路","SECT":" ","MAREA":" ","LANE":" ","ALLEY":" ","HOUSE_NO":"１３６之２號","E_COORD97":181537.32999999999,"N_COORD97":2578677.4500000002,"ADDRESS":"東山路１３６之２號","OBJECTID":27696},"geometry":{"x":181537.33000000101,"y":2578677.4500000011}},{"attributes":{"ID":27697,"DIS_CODE":0,"TOWNNAME":"新營區","LI":"三仙里","LIN":"20鄰","STREET":"三民路","SECT":" ","MAREA":" ","LANE":" ","ALLEY":" ","HOUSE_NO":"１４０號之１８","E_COORD97":179524.32000000001,"N_COORD97":2578451.0099999998,"ADDRESS":"三民路１４０號之１８","OBJECTID":27697},"geometry":{"x":179524.3200000003,"y":2578451.0100000016}},{"attributes":{"ID":27698,"DIS_CODE":0,"TOWNNAME":"將軍區","LI":"北埔里","LIN":"8鄰","STREET":" ","SECT":" ","MAREA":"北埔","LANE":" ","ALLEY":" ","HOUSE_NO":"７６號","E_COORD97":163055.66,"N_COORD97":2569350.3799999999,"ADDRESS":"北埔７６號","OBJECTID":27698},"geometry":{"x":163055.66000000201,"y":2569350.3800000008}},{"attributes":{"ID":27699,"DIS_CODE":0,"TOWNNAME":"將軍區","LI":"北埔里","LIN":"8鄰","STREET":" ","SECT":" ","MAREA":"北埔","LANE":" ","ALLEY":" ","HOUSE_NO":"７７號","E_COORD97":163060.35000000001,"N_COORD97":2569339.96,"ADDRESS":"北埔７７號","OBJECTID":27699},"geometry":{"x":163060.34999999963,"y":2569339.9600000009}},{"attributes":{"ID":27700,"DIS_CODE":0,"TOWNNAME":"永康區","LI":"正強里","LIN":"17鄰","STREET":"自強路","SECT":" ","MAREA":" ","LANE":"１８８巷","ALLEY":"４６弄","HOUSE_NO":"７號","E_COORD97":173191.63,"N_COORD97":2547319.8300000001,"ADDRESS":"自強路１８８巷４６弄７號","OBJECTID":27700},"geometry":{"x":173191.63000000082,"y":2547319.8300000001}},{"attributes":{"ID":27701,"DIS_CODE":0,"TOWNNAME":"永康區","LI":"正強里","LIN":"17鄰","STREET":"自強路","SECT":" ","MAREA":" ","LANE":"１８８巷","ALLEY":"４６弄","HOUSE_NO":"２３號","E_COORD97":173163.17999999999,"N_COORD97":2547292.2400000002,"ADDRESS":"自強路１８８巷４６弄２３號","OBJECTID":27701},"geometry":{"x":173163.1799999997,"y":2547292.2400000021}},{"attributes":{"ID":27702,"DIS_CODE":0,"TOWNNAME":"將軍區","LI":"北埔里","LIN":"8鄰","STREET":" ","SECT":" ","MAREA":"北埔","LANE":" ","ALLEY":" ","HOUSE_NO":"７９號","E_COORD97":163067.01000000001,"N_COORD97":2569321.3100000001,"ADDRESS":"北埔７９號","OBJECTID":27702},"geometry":{"x":163067.01000000071,"y":2569321.3100000005}},{"attributes":{"ID":27703,"DIS_CODE":0,"TOWNNAME":"永康區","LI":"正強里","LIN":"17鄰","STREET":"自強路","SECT":" ","MAREA":" ","LANE":"１８８巷","ALLEY":"４６弄","HOUSE_NO":"３號","E_COORD97":173198.19,"N_COORD97":2547302.7400000002,"ADDRESS":"自強路１８８巷４６弄３號","OBJECTID":27703},"geometry":{"x":173198.19000000134,"y":2547302.7400000021}},{"attributes":{"ID":27704,"DIS_CODE":0,"TOWNNAME":"永康區","LI":"正強里","LIN":"17鄰","STREET":"自強路","SECT":" ","MAREA":" ","LANE":"１８８巷","ALLEY":"４６弄","HOUSE_NO":"２４號","E_COORD97":173119.10999999999,"N_COORD97":2547303.2400000002,"ADDRESS":"自強路１８８巷４６弄２４號","OBJECTID":27704},"geometry":{"x":173119.11000000127,"y":2547303.2400000002}},{"attributes":{"ID":27705,"DIS_CODE":0,"TOWNNAME":"將軍區","LI":"嘉昌里","LIN":"8鄰","STREET":" ","SECT":" ","MAREA":"北嘉","LANE":" ","ALLEY":" ","HOUSE_NO":"５９號","E_COORD97":163404.48999999999,"N_COORD97":2567905.02,"ADDRESS":"北嘉５９號","OBJECTID":27705},"geometry":{"x":163404.49000000209,"y":2567905.0199999996}},{"attributes":{"ID":27706,"DIS_CODE":0,"TOWNNAME":"將軍區","LI":"嘉昌里","LIN":"8鄰","STREET":" ","SECT":" ","MAREA":"北嘉","LANE":" ","ALLEY":" ","HOUSE_NO":"６０號","E_COORD97":163403.79000000001,"N_COORD97":2567881.1600000001,"ADDRESS":"北嘉６０號","OBJECTID":27706},"geometry":{"x":163403.7900000019,"y":2567881.1599999983}},{"attributes":{"ID":27707,"DIS_CODE":0,"TOWNNAME":"永康區","LI":"正強里","LIN":"17鄰","STREET":"自強路","SECT":" ","MAREA":" ","LANE":"１８８巷","ALLEY":"３０弄","HOUSE_NO":"７號","E_COORD97":173177.42000000001,"N_COORD97":2547364.0800000001,"ADDRESS":"自強路１８８巷３０弄７號","OBJECTID":27707},"geometry":{"x":173177.42000000086,"y":2547364.0800000019}},{"attributes":{"ID":27708,"DIS_CODE":0,"TOWNNAME":"永康區","LI":"正強里","LIN":"17鄰","STREET":"自強路","SECT":" ","MAREA":" ","LANE":"１８８巷","ALLEY":"４６弄","HOUSE_NO":"９號","E_COORD97":173187.32999999999,"N_COORD97":2547319.3300000001,"ADDRESS":"自強路１８８巷４６弄９號","OBJECTID":27708},"geometry":{"x":173187.33000000101,"y":2547319.3300000001}},{"attributes":{"ID":27709,"DIS_CODE":0,"TOWNNAME":"永康區","LI":"正強里","LIN":"17鄰","STREET":"自強路","SECT":" ","MAREA":" ","LANE":"１８８巷","ALLEY":"４６弄","HOUSE_NO":"１號","E_COORD97":173198.53,"N_COORD97":2547297.9900000002,"ADDRESS":"自強路１８８巷４６弄１號","OBJECTID":27709},"geometry":{"x":173198.53000000026,"y":2547297.9900000002}},{"attributes":{"ID":27710,"DIS_CODE":0,"TOWNNAME":"永康區","LI":"正強里","LIN":"17鄰","STREET":"自強路","SECT":" ","MAREA":" ","LANE":"１８８巷","ALLEY":"４６弄","HOUSE_NO":"６號","E_COORD97":173185.88,"N_COORD97":2547332.3300000001,"ADDRESS":"自強路１８８巷４６弄６號","OBJECTID":27710},"geometry":{"x":173185.87999999896,"y":2547332.3300000019}},{"attributes":{"ID":27711,"DIS_CODE":0,"TOWNNAME":"永康區","LI":"正強里","LIN":"17鄰","STREET":"自強路","SECT":" ","MAREA":" ","LANE":"１８８巷","ALLEY":"４６弄","HOUSE_NO":"２５號","E_COORD97":173162.45999999999,"N_COORD97":2547296.7400000002,"ADDRESS":"自強路１８８巷４６弄２５號","OBJECTID":27711},"geometry":{"x":173162.46000000089,"y":2547296.7400000002}},{"attributes":{"ID":27712,"DIS_CODE":0,"TOWNNAME":"永康區","LI":"正強里","LIN":"17鄰","STREET":"自強路","SECT":" ","MAREA":" ","LANE":"１８８巷","ALLEY":"４６弄","HOUSE_NO":"１０號","E_COORD97":173178.32999999999,"N_COORD97":2547331.0800000001,"ADDRESS":"自強路１８８巷４６弄１０號","OBJECTID":27712},"geometry":{"x":173178.33000000101,"y":2547331.0800000019}},{"attributes":{"ID":27713,"DIS_CODE":0,"TOWNNAME":"永康區","LI":"正強里","LIN":"17鄰","STREET":"自強路","SECT":" ","MAREA":" ","LANE":"１８８巷","ALLEY":"３０弄","HOUSE_NO":"９號","E_COORD97":173172.79000000001,"N_COORD97":2547363.5800000001,"ADDRESS":"自強路１８８巷３０弄９號","OBJECTID":27713},"geometry":{"x":173172.79000000004,"y":2547363.5800000019}},{"attributes":{"ID":27714,"DIS_CODE":0,"TOWNNAME":"永康區","LI":"龍潭里","LIN":"39鄰","STREET":"永明街","SECT":" ","MAREA":" ","LANE":"２３１巷","ALLEY":"１６弄","HOUSE_NO":"１８號","E_COORD97":174617.92253899999,"N_COORD97":2547279.8606400001,"ADDRESS":"永明街２３１巷１６弄１８號","OBJECTID":27714},"geometry":{"x":174617.92253900133,"y":2547279.8606359996}},{"attributes":{"ID":27715,"DIS_CODE":0,"TOWNNAME":"將軍區","LI":"平沙里","LIN":"8鄰","STREET":" ","SECT":" ","MAREA":"平沙","LANE":" ","ALLEY":" ","HOUSE_NO":"６７號","E_COORD97":157238.76000000001,"N_COORD97":2568520.9399999999,"ADDRESS":"平沙６７號","OBJECTID":27715},"geometry":{"x":157238.76000000071,"y":2568520.9400000013}},{"attributes":{"ID":27716,"DIS_CODE":0,"TOWNNAME":"永康區","LI":"正強里","LIN":"17鄰","STREET":"自強路","SECT":" ","MAREA":" ","LANE":"１８８巷","ALLEY":"４６弄","HOUSE_NO":"１１號","E_COORD97":173184.01999999999,"N_COORD97":2547318.5800000001,"ADDRESS":"自強路１８８巷４６弄１１號","OBJECTID":27716},"geometry":{"x":173184.01999999955,"y":2547318.5800000001}},{"attributes":{"ID":27717,"DIS_CODE":0,"TOWNNAME":"永康區","LI":"正強里","LIN":"17鄰","STREET":"自強路","SECT":" ","MAREA":" ","LANE":"１８８巷","ALLEY":"３０弄","HOUSE_NO":"８號","E_COORD97":173183.87,"N_COORD97":2547378.0699999998,"ADDRESS":"自強路１８８巷３０弄８號","OBJECTID":27717},"geometry":{"x":173183.87000000011,"y":2547378.0700000022}},{"attributes":{"ID":27718,"DIS_CODE":0,"TOWNNAME":"新營區","LI":"民榮里","LIN":"38鄰","STREET":"太子路","SECT":" ","MAREA":" ","LANE":"５３巷","ALLEY":"６弄","HOUSE_NO":"２５號之４","E_COORD97":178259.09,"N_COORD97":2577932.1400000001,"ADDRESS":"太子路５３巷６弄２５號之４","OBJECTID":27718},"geometry":{"x":178259.08999999985,"y":2577932.1400000025}},{"attributes":{"ID":27719,"DIS_CODE":0,"TOWNNAME":"新營區","LI":"南紙里","LIN":"26鄰","STREET":"建業路","SECT":" ","MAREA":" ","LANE":"２２７巷","ALLEY":"２２弄","HOUSE_NO":"２０號","E_COORD97":178059.89000000001,"N_COORD97":2577378.21,"ADDRESS":"建業路２２７巷２２弄２０號","OBJECTID":27719},"geometry":{"x":178059.8900000006,"y":2577378.2100000046}},{"attributes":{"ID":27720,"DIS_CODE":0,"TOWNNAME":"新營區","LI":"南紙里","LIN":"26鄰","STREET":"建業路","SECT":" ","MAREA":" ","LANE":"２２７巷","ALLEY":"２２弄","HOUSE_NO":"１２號","E_COORD97":178080.26000000001,"N_COORD97":2577375.8999999999,"ADDRESS":"建業路２２７巷２２弄１２號","OBJECTID":27720},"geometry":{"x":178080.25999999978,"y":2577375.9000000004}},{"attributes":{"ID":27721,"DIS_CODE":0,"TOWNNAME":"新營區","LI":"新南里","LIN":"19鄰","STREET":"隋唐街","SECT":" ","MAREA":" ","LANE":"３１巷","ALLEY":"２８弄","HOUSE_NO":"１１號","E_COORD97":178638.5,"N_COORD97":2578377.6499999999,"ADDRESS":"隋唐街３１巷２８弄１１號","OBJECTID":27721},"geometry":{"x":178638.5,"y":2578377.6500000004}},{"attributes":{"ID":27722,"DIS_CODE":0,"TOWNNAME":"新營區","LI":"南紙里","LIN":"26鄰","STREET":"建業路","SECT":" ","MAREA":" ","LANE":"２２７巷","ALLEY":"２４弄","HOUSE_NO":"７號","E_COORD97":178048.17999999999,"N_COORD97":2577339.5,"ADDRESS":"建業路２２７巷２４弄７號","OBJECTID":27722},"geometry":{"x":178048.1799999997,"y":2577339.5000000019}},{"attributes":{"ID":27723,"DIS_CODE":0,"TOWNNAME":"新市區","LI":"新和里","LIN":"47鄰","STREET":"和平街","SECT":" ","MAREA":" ","LANE":" ","ALLEY":" ","HOUSE_NO":"１７８號","E_COORD97":177428.48000000001,"N_COORD97":2553283.75,"ADDRESS":"和平街１７８號","OBJECTID":27723},"geometry":{"x":177428.48000000045,"y":2553283.75}},{"attributes":{"ID":27724,"DIS_CODE":0,"TOWNNAME":"新市區","LI":"新和里","LIN":"47鄰","STREET":"和平街","SECT":" ","MAREA":" ","LANE":" ","ALLEY":" ","HOUSE_NO":"１７２號","E_COORD97":177438.28,"N_COORD97":2553290.75,"ADDRESS":"和平街１７２號","OBJECTID":27724},"geometry":{"x":177438.28000000026,"y":2553290.75}},{"attributes":{"ID":27725,"DIS_CODE":0,"TOWNNAME":"新市區","LI":"新和里","LIN":"47鄰","STREET":"和平街","SECT":" ","MAREA":" ","LANE":" ","ALLEY":" ","HOUSE_NO":"１７４號","E_COORD97":177435.03,"N_COORD97":2553288.5,"ADDRESS":"和平街１７４號","OBJECTID":27725},"geometry":{"x":177435.03000000026,"y":2553288.5}},{"attributes":{"ID":27726,"DIS_CODE":0,"TOWNNAME":"新市區","LI":"新和里","LIN":"47鄰","STREET":"和平街","SECT":" ","MAREA":" ","LANE":" ","ALLEY":" ","HOUSE_NO":"１６６號","E_COORD97":177455.04000000001,"N_COORD97":2553304.5,"ADDRESS":"和平街１６６號","OBJECTID":27726},"geometry":{"x":177455.04000000004,"y":2553304.5000000019}},{"attributes":{"ID":27727,"DIS_CODE":0,"TOWNNAME":"新市區","LI":"新和里","LIN":"47鄰","STREET":"和平街","SECT":" ","MAREA":" ","LANE":" ","ALLEY":" ","HOUSE_NO":"２００號","E_COORD97":177391.03,"N_COORD97":2553255.25,"ADDRESS":"和平街２００號","OBJECTID":27727},"geometry":{"x":177391.02999999933,"y":2553255.2500000019}},{"attributes":{"ID":27728,"DIS_CODE":0,"TOWNNAME":"新市區","LI":"新和里","LIN":"47鄰","STREET":"和平街","SECT":" ","MAREA":" ","LANE":" ","ALLEY":" ","HOUSE_NO":"１６０號","E_COORD97":177467.28,"N_COORD97":2553312,"ADDRESS":"和平街１６０號","OBJECTID":27728},"geometry":{"x":177467.27999999933,"y":2553312.0000000019}},{"attributes":{"ID":27729,"DIS_CODE":0,"TOWNNAME":"將軍區","LI":"嘉昌里","LIN":"8鄰","STREET":" ","SECT":" ","MAREA":"北嘉","LANE":" ","ALLEY":" ","HOUSE_NO":"６１號","E_COORD97":163405.67999999999,"N_COORD97":2567846.1000000001,"ADDRESS":"北嘉６１號","OBJECTID":27729},"geometry":{"x":163405.6799999997,"y":2567846.0999999996}},{"attributes":{"ID":27730,"DIS_CODE":0,"TOWNNAME":"將軍區","LI":"嘉昌里","LIN":"8鄰","STREET":" ","SECT":" ","MAREA":"北嘉","LANE":" ","ALLEY":" ","HOUSE_NO":"６２之１號","E_COORD97":163392.98000000001,"N_COORD97":2567808.77,"ADDRESS":"北嘉６２之１號","OBJECTID":27730},"geometry":{"x":163392.98000000138,"y":2567808.7700000033}},{"attributes":{"ID":27731,"DIS_CODE":0,"TOWNNAME":"新營區","LI":"民榮里","LIN":"38鄰","STREET":"太子路","SECT":" ","MAREA":" ","LANE":"５３巷","ALLEY":"６弄","HOUSE_NO":"３號之２","E_COORD97":178333.84,"N_COORD97":2577968.3100000001,"ADDRESS":"太子路５３巷６弄３號之２","OBJECTID":27731},"geometry":{"x":178333.83999999985,"y":2577968.3100000024}},{"attributes":{"ID":27732,"DIS_CODE":0,"TOWNNAME":"新營區","LI":"南紙里","LIN":"25鄰","STREET":"建業路","SECT":" ","MAREA":" ","LANE":"２２７巷","ALLEY":"２弄","HOUSE_NO":"８號","E_COORD97":178089.81,"N_COORD97":2577478.8399999999,"ADDRESS":"建業路２２７巷２弄８號","OBJECTID":27732},"geometry":{"x":178089.80999999959,"y":2577478.8400000017}},{"attributes":{"ID":27733,"DIS_CODE":0,"TOWNNAME":"新營區","LI":"新東里","LIN":"4鄰","STREET":"東大街","SECT":" ","MAREA":" ","LANE":"５２巷","ALLEY":"２弄","HOUSE_NO":"１１號","E_COORD97":181083.48000000001,"N_COORD97":2579108.0699999998,"ADDRESS":"東大街５２巷２弄１１號","OBJECTID":27733},"geometry":{"x":181083.48000000045,"y":2579108.0700000022}},{"attributes":{"ID":27734,"DIS_CODE":0,"TOWNNAME":"新營區","LI":"民榮里","LIN":"38鄰","STREET":"太子路","SECT":" ","MAREA":" ","LANE":"５３巷","ALLEY":"６弄","HOUSE_NO":"２９之６號","E_COORD97":178244.07999999999,"N_COORD97":2577931.1099999999,"ADDRESS":"太子路５３巷６弄２９之６號","OBJECTID":27734},"geometry":{"x":178244.08000000101,"y":2577931.1100000013}},{"attributes":{"ID":27735,"DIS_CODE":0,"TOWNNAME":"永康區","LI":"神洲里","LIN":"17鄰","STREET":"忠孝路","SECT":" ","MAREA":" ","LANE":"７６巷","ALLEY":"４７弄","HOUSE_NO":"９號二樓","E_COORD97":172221.64999999999,"N_COORD97":2544940.8300000001,"ADDRESS":"忠孝路７６巷４７弄９號二樓","OBJECTID":27735},"geometry":{"x":172221.65000000037,"y":2544940.8300000038}},{"attributes":{"ID":27736,"DIS_CODE":0,"TOWNNAME":"永康區","LI":"神洲里","LIN":"17鄰","STREET":"忠孝路","SECT":" ","MAREA":" ","LANE":"７６巷","ALLEY":"４７弄","HOUSE_NO":"５號二樓","E_COORD97":172246.45999999999,"N_COORD97":2544941.21,"ADDRESS":"忠孝路７６巷４７弄５號二樓","OBJECTID":27736},"geometry":{"x":172246.46000000183,"y":2544941.2100000009}},{"attributes":{"ID":27737,"DIS_CODE":0,"TOWNNAME":"永康區","LI":"神洲里","LIN":"17鄰","STREET":"忠孝路","SECT":" ","MAREA":" ","LANE":"７６巷","ALLEY":"４７弄","HOUSE_NO":"１號五樓","E_COORD97":172272.10000000001,"N_COORD97":2544943.8900000001,"ADDRESS":"忠孝路７６巷４７弄１號五樓","OBJECTID":27737},"geometry":{"x":172272.0999999987,"y":2544943.8900000006}},{"attributes":{"ID":27738,"DIS_CODE":0,"TOWNNAME":"永康區","LI":"神洲里","LIN":"17鄰","STREET":"忠孝路","SECT":" ","MAREA":" ","LANE":"７６巷","ALLEY":"４７弄","HOUSE_NO":"５號三樓","E_COORD97":172246.45999999999,"N_COORD97":2544941.21,"ADDRESS":"忠孝路７６巷４７弄５號三樓","OBJECTID":27738},"geometry":{"x":172246.46000000183,"y":2544941.2100000009}},{"attributes":{"ID":27739,"DIS_CODE":0,"TOWNNAME":"永康區","LI":"神洲里","LIN":"17鄰","STREET":"忠孝路","SECT":" ","MAREA":" ","LANE":"７６巷","ALLEY":"４７弄","HOUSE_NO":"１３號五樓","E_COORD97":172196.64999999999,"N_COORD97":2544937.3199999998,"ADDRESS":"忠孝路７６巷４７弄１３號五樓","OBJECTID":27739},"geometry":{"x":172196.6500000013,"y":2544937.3200000003}},{"attributes":{"ID":27740,"DIS_CODE":0,"TOWNNAME":"永康區","LI":"神洲里","LIN":"17鄰","STREET":"忠孝路","SECT":" ","MAREA":" ","LANE":"７６巷","ALLEY":"４７弄","HOUSE_NO":"９號五樓","E_COORD97":172221.64999999999,"N_COORD97":2544940.8300000001,"ADDRESS":"忠孝路７６巷４７弄９號五樓","OBJECTID":27740},"geometry":{"x":172221.65000000037,"y":2544940.8300000038}},{"attributes":{"ID":27741,"DIS_CODE":0,"TOWNNAME":"永康區","LI":"神洲里","LIN":"17鄰","STREET":"忠孝路","SECT":" ","MAREA":" ","LANE":"７６巷","ALLEY":"４７弄","HOUSE_NO":"７號五樓","E_COORD97":172230.94,"N_COORD97":2544942.21,"ADDRESS":"忠孝路７６巷４７弄７號五樓","OBJECTID":27741},"geometry":{"x":172230.94000000041,"y":2544942.2100000009}},{"attributes":{"ID":27742,"DIS_CODE":0,"TOWNNAME":"將軍區","LI":"嘉昌里","LIN":"8鄰","STREET":" ","SECT":" ","MAREA":"北嘉","LANE":" ","ALLEY":" ","HOUSE_NO":"６４號","E_COORD97":163379.06,"N_COORD97":2567887.4399999999,"ADDRESS":"北嘉６４號","OBJECTID":27742},"geometry":{"x":163379.05999999959,"y":2567887.4399999995}},{"attributes":{"ID":27743,"DIS_CODE":0,"TOWNNAME":"將軍區","LI":"嘉昌里","LIN":"8鄰","STREET":" ","SECT":" ","MAREA":"北嘉","LANE":" ","ALLEY":" ","HOUSE_NO":"６５號","E_COORD97":163348.19,"N_COORD97":2567848.6000000001,"ADDRESS":"北嘉６５號","OBJECTID":27743},"geometry":{"x":163348.19000000041,"y":2567848.6000000015}},{"attributes":{"ID":27744,"DIS_CODE":0,"TOWNNAME":"將軍區","LI":"嘉昌里","LIN":"8鄰","STREET":" ","SECT":" ","MAREA":"北嘉","LANE":" ","ALLEY":" ","HOUSE_NO":"６６之１６號","E_COORD97":163132.91,"N_COORD97":2567879.3199999998,"ADDRESS":"北嘉６６之１６號","OBJECTID":27744},"geometry":{"x":163132.91000000015,"y":2567879.3200000003}},{"attributes":{"ID":27745,"DIS_CODE":0,"TOWNNAME":"將軍區","LI":"嘉昌里","LIN":"8鄰","STREET":" ","SECT":" ","MAREA":"北嘉","LANE":" ","ALLEY":" ","HOUSE_NO":"６６之１號","E_COORD97":163352.48999999999,"N_COORD97":2567810.1299999999,"ADDRESS":"北嘉６６之１號","OBJECTID":27745},"geometry":{"x":163352.49000000115,"y":2567810.1300000008}},{"attributes":{"ID":27746,"DIS_CODE":0,"TOWNNAME":"將軍區","LI":"嘉昌里","LIN":"8鄰","STREET":" ","SECT":" ","MAREA":"北嘉","LANE":" ","ALLEY":" ","HOUSE_NO":"６６之２２號","E_COORD97":163073.95000000001,"N_COORD97":2567840.02,"ADDRESS":"北嘉６６之２２號","OBJECTID":27746},"geometry":{"x":163073.94999999925,"y":2567840.0199999996}},{"attributes":{"ID":27747,"DIS_CODE":0,"TOWNNAME":"將軍區","LI":"嘉昌里","LIN":"8鄰","STREET":" ","SECT":" ","MAREA":"北嘉","LANE":" ","ALLEY":" ","HOUSE_NO":"６６之３３號","E_COORD97":163275.64999999999,"N_COORD97":2567709.6899999999,"ADDRESS":"北嘉６６之３３號","OBJECTID":27747},"geometry":{"x":163275.65000000037,"y":2567709.6899999995}},{"attributes":{"ID":27748,"DIS_CODE":0,"TOWNNAME":"將軍區","LI":"嘉昌里","LIN":"8鄰","STREET":" ","SECT":" ","MAREA":"北嘉","LANE":" ","ALLEY":" ","HOUSE_NO":"６６之３６號","E_COORD97":163220.82000000001,"N_COORD97":2567696.0099999998,"ADDRESS":"北嘉６６之３６號","OBJECTID":27748},"geometry":{"x":163220.82000000216,"y":2567696.0100000016}},{"attributes":{"ID":27749,"DIS_CODE":0,"TOWNNAME":"將軍區","LI":"嘉昌里","LIN":"8鄰","STREET":" ","SECT":" ","MAREA":"北嘉","LANE":" ","ALLEY":" ","HOUSE_NO":"６６之３號","E_COORD97":163372.89000000001,"N_COORD97":2567811.3399999999,"ADDRESS":"北嘉６６之３號","OBJECTID":27749},"geometry":{"x":163372.8900000006,"y":2567811.3399999999}},{"attributes":{"ID":27750,"DIS_CODE":0,"TOWNNAME":"將軍區","LI":"嘉昌里","LIN":"8鄰","STREET":" ","SECT":" ","MAREA":"北嘉","LANE":" ","ALLEY":" ","HOUSE_NO":"６６之５０號","E_COORD97":163130.04999999999,"N_COORD97":2567677.5,"ADDRESS":"北嘉６６之５０號","OBJECTID":27750},"geometry":{"x":163130.04999999981,"y":2567677.5}},{"attributes":{"ID":27751,"DIS_CODE":0,"TOWNNAME":"將軍區","LI":"嘉昌里","LIN":"8鄰","STREET":" ","SECT":" ","MAREA":"北嘉","LANE":" ","ALLEY":" ","HOUSE_NO":"６６之５８號","E_COORD97":163077.85999999999,"N_COORD97":2567714.5499999998,"ADDRESS":"北嘉６６之５８號","OBJECTID":27751},"geometry":{"x":163077.86000000034,"y":2567714.5500000026}},{"attributes":{"ID":27752,"DIS_CODE":0,"TOWNNAME":"將軍區","LI":"嘉昌里","LIN":"8鄰","STREET":" ","SECT":" ","MAREA":"北嘉","LANE":" ","ALLEY":" ","HOUSE_NO":"６６之６１號","E_COORD97":162873.54000000001,"N_COORD97":2567875.5099999998,"ADDRESS":"北嘉６６之６１號","OBJECTID":27752},"geometry":{"x":162873.54000000097,"y":2567875.5100000035}},{"attributes":{"ID":27753,"DIS_CODE":0,"TOWNNAME":"新營區","LI":"南紙里","LIN":"13鄰","STREET":"太子路","SECT":" ","MAREA":" ","LANE":"２３８巷","ALLEY":"４０弄","HOUSE_NO":"１７號","E_COORD97":177810.03,"N_COORD97":2577970.7999999998,"ADDRESS":"太子路２３８巷４０弄１７號","OBJECTID":27753},"geometry":{"x":177810.03000000119,"y":2577970.8000000045}},{"attributes":{"ID":27754,"DIS_CODE":0,"TOWNNAME":"永康區","LI":"二王里","LIN":"17鄰","STREET":"忠孝路","SECT":" ","MAREA":" ","LANE":"４１０巷","ALLEY":"５０弄","HOUSE_NO":"１８號四樓","E_COORD97":172587.48000000001,"N_COORD97":2546442.7599999998,"ADDRESS":"忠孝路４１０巷５０弄１８號四樓","OBJECTID":27754},"geometry":{"x":172587.48000000231,"y":2546442.7599999979}},{"attributes":{"ID":27755,"DIS_CODE":0,"TOWNNAME":"永康區","LI":"三合里","LIN":"17鄰","STREET":"南工街","SECT":" ","MAREA":" ","LANE":"２４７巷","ALLEY":"６弄","HOUSE_NO":"１號二樓","E_COORD97":171954.04000000001,"N_COORD97":2545842.0899999999,"ADDRESS":"南工街２４７巷６弄１號二樓","OBJECTID":27755},"geometry":{"x":171954.04000000004,"y":2545842.0900000017}},{"attributes":{"ID":27756,"DIS_CODE":0,"TOWNNAME":"永康區","LI":"大橋里","LIN":"17鄰","STREET":"大橋一街","SECT":" ","MAREA":" ","LANE":"１０３巷","ALLEY":"６弄","HOUSE_NO":"１號二樓","E_COORD97":171002.06,"N_COORD97":2546510.7599999998,"ADDRESS":"大橋一街１０３巷６弄１號二樓","OBJECTID":27756},"geometry":{"x":171002.05999999959,"y":2546510.7600000035}},{"attributes":{"ID":27757,"DIS_CODE":0,"TOWNNAME":"永康區","LI":"三合里","LIN":"17鄰","STREET":"南工街","SECT":" ","MAREA":" ","LANE":"２４７巷","ALLEY":"６弄","HOUSE_NO":"２號五樓","E_COORD97":171943.48999999999,"N_COORD97":2545843.5899999999,"ADDRESS":"南工街２４７巷６弄２號五樓","OBJECTID":27757},"geometry":{"x":171943.49000000115,"y":2545843.5899999999}},{"attributes":{"ID":27758,"DIS_CODE":0,"TOWNNAME":"永康區","LI":"二王里","LIN":"17鄰","STREET":"忠孝路","SECT":" ","MAREA":" ","LANE":"４１０巷","ALLEY":"５０弄","HOUSE_NO":"１８號六樓","E_COORD97":172587.48000000001,"N_COORD97":2546442.7599999998,"ADDRESS":"忠孝路４１０巷５０弄１８號六樓","OBJECTID":27758},"geometry":{"x":172587.48000000231,"y":2546442.7599999979}},{"attributes":{"ID":27759,"DIS_CODE":0,"TOWNNAME":"永康區","LI":"二王里","LIN":"17鄰","STREET":"忠孝路","SECT":" ","MAREA":" ","LANE":"４１０巷","ALLEY":"５０弄","HOUSE_NO":"１６號三樓","E_COORD97":172586.31,"N_COORD97":2546449.46,"ADDRESS":"忠孝路４１０巷５０弄１６號三樓","OBJECTID":27759},"geometry":{"x":172586.31000000052,"y":2546449.4600000046}},{"attributes":{"ID":27760,"DIS_CODE":0,"TOWNNAME":"永康區","LI":"三合里","LIN":"17鄰","STREET":"南工街","SECT":" ","MAREA":" ","LANE":"２４７巷","ALLEY":"６弄","HOUSE_NO":"１２號三樓","E_COORD97":171951.98999999999,"N_COORD97":2545800.1000000001,"ADDRESS":"南工街２４７巷６弄１２號三樓","OBJECTID":27760},"geometry":{"x":171951.99000000115,"y":2545800.1000000015}},{"attributes":{"ID":27761,"DIS_CODE":0,"TOWNNAME":"新市區","LI":"新和里","LIN":"47鄰","STREET":"和平街","SECT":" ","MAREA":" ","LANE":" ","ALLEY":" ","HOUSE_NO":"１８２號","E_COORD97":177420.32000000001,"N_COORD97":2553277.5,"ADDRESS":"和平街１８２號","OBJECTID":27761},"geometry":{"x":177420.32000000123,"y":2553277.5000000019}},{"attributes":{"ID":27762,"DIS_CODE":0,"TOWNNAME":"永康區","LI":"三合里","LIN":"17鄰","STREET":"南工街","SECT":" ","MAREA":" ","LANE":"２４７巷","ALLEY":"６弄","HOUSE_NO":"３號三樓","E_COORD97":171932.57999999999,"N_COORD97":2545844.3399999999,"ADDRESS":"南工街２４７巷６弄３號三樓","OBJECTID":27762},"geometry":{"x":171932.58000000101,"y":2545844.3399999999}},{"attributes":{"ID":27763,"DIS_CODE":0,"TOWNNAME":"永康區","LI":"三合里","LIN":"17鄰","STREET":"南工街","SECT":" ","MAREA":" ","LANE":"２４７巷","ALLEY":"６弄","HOUSE_NO":"１４號二樓","E_COORD97":171954.94,"N_COORD97":2545819.3500000001,"ADDRESS":"南工街２４７巷６弄１４號二樓","OBJECTID":27763},"geometry":{"x":171954.94000000041,"y":2545819.3500000015}},{"attributes":{"ID":27764,"DIS_CODE":0,"TOWNNAME":"永康區","LI":"三合里","LIN":"17鄰","STREET":"南工街","SECT":" ","MAREA":" ","LANE":"２４７巷","ALLEY":"６弄","HOUSE_NO":"１３號五樓","E_COORD97":171953.69,"N_COORD97":2545810.3500000001,"ADDRESS":"南工街２４７巷６弄１３號五樓","OBJECTID":27764},"geometry":{"x":171953.69000000227,"y":2545810.3499999996}},{"attributes":{"ID":27765,"DIS_CODE":0,"TOWNNAME":"永康區","LI":"三合里","LIN":"17鄰","STREET":"南工街","SECT":" ","MAREA":" ","LANE":"２４７巷","ALLEY":"６弄","HOUSE_NO":"１號五樓","E_COORD97":171954.04000000001,"N_COORD97":2545842.0899999999,"ADDRESS":"南工街２４７巷６弄１號五樓","OBJECTID":27765},"geometry":{"x":171954.04000000004,"y":2545842.0900000017}},{"attributes":{"ID":27766,"DIS_CODE":0,"TOWNNAME":"永康區","LI":"三合里","LIN":"17鄰","STREET":"南工街","SECT":" ","MAREA":" ","LANE":"２４７巷","ALLEY":"６弄","HOUSE_NO":"１號三樓","E_COORD97":171954.04000000001,"N_COORD97":2545842.0899999999,"ADDRESS":"南工街２４７巷６弄１號三樓","OBJECTID":27766},"geometry":{"x":171954.04000000004,"y":2545842.0900000017}},{"attributes":{"ID":27767,"DIS_CODE":0,"TOWNNAME":"永康區","LI":"三合里","LIN":"17鄰","STREET":"南工街","SECT":" ","MAREA":" ","LANE":"２４７巷","ALLEY":"６弄","HOUSE_NO":"３號四樓","E_COORD97":171932.57999999999,"N_COORD97":2545844.3399999999,"ADDRESS":"南工街２４７巷６弄３號四樓","OBJECTID":27767},"geometry":{"x":171932.58000000101,"y":2545844.3399999999}},{"attributes":{"ID":27768,"DIS_CODE":0,"TOWNNAME":"永康區","LI":"三合里","LIN":"17鄰","STREET":"南工街","SECT":" ","MAREA":" ","LANE":"２４７巷","ALLEY":"６弄","HOUSE_NO":"３號五樓","E_COORD97":171932.57999999999,"N_COORD97":2545844.3399999999,"ADDRESS":"南工街２４７巷６弄３號五樓","OBJECTID":27768},"geometry":{"x":171932.58000000101,"y":2545844.3399999999}},{"attributes":{"ID":27769,"DIS_CODE":0,"TOWNNAME":"永康區","LI":"三合里","LIN":"17鄰","STREET":"南工街","SECT":" ","MAREA":" ","LANE":"２４７巷","ALLEY":"６弄","HOUSE_NO":"２號四樓","E_COORD97":171943.48999999999,"N_COORD97":2545843.5899999999,"ADDRESS":"南工街２４７巷６弄２號四樓","OBJECTID":27769},"geometry":{"x":171943.49000000115,"y":2545843.5899999999}},{"attributes":{"ID":27770,"DIS_CODE":0,"TOWNNAME":"永康區","LI":"三合里","LIN":"17鄰","STREET":"南工街","SECT":" ","MAREA":" ","LANE":"２４７巷","ALLEY":"６弄","HOUSE_NO":"１１號二樓","E_COORD97":171942.44,"N_COORD97":2545804.8500000001,"ADDRESS":"南工街２４７巷６弄１１號二樓","OBJECTID":27770},"geometry":{"x":171942.44000000134,"y":2545804.8500000034}},{"attributes":{"ID":27771,"DIS_CODE":0,"TOWNNAME":"佳里區","LI":"安西里","LIN":"47鄰","STREET":"安西路","SECT":" ","MAREA":" ","LANE":"９３巷","ALLEY":" ","HOUSE_NO":"１５號","E_COORD97":165065.60999999999,"N_COORD97":2562377.54,"ADDRESS":"安西路９３巷１５號","OBJECTID":27771},"geometry":{"x":165065.61000000127,"y":2562377.5399999991}},{"attributes":{"ID":27772,"DIS_CODE":0,"TOWNNAME":"佳里區","LI":"安西里","LIN":"47鄰","STREET":"安西路","SECT":" ","MAREA":" ","LANE":" ","ALLEY":" ","HOUSE_NO":"２４號","E_COORD97":165153.22,"N_COORD97":2562257.46,"ADDRESS":"安西路２４號","OBJECTID":27772},"geometry":{"x":165153.21999999974,"y":2562257.4600000009}},{"attributes":{"ID":27773,"DIS_CODE":0,"TOWNNAME":"佳里區","LI":"安西里","LIN":"47鄰","STREET":"安西路","SECT":" ","MAREA":" ","LANE":" ","ALLEY":" ","HOUSE_NO":"２５號","E_COORD97":165105.67999999999,"N_COORD97":2562234.6800000002,"ADDRESS":"安西路２５號","OBJECTID":27773},"geometry":{"x":165105.6799999997,"y":2562234.6799999997}},{"attributes":{"ID":27774,"DIS_CODE":0,"TOWNNAME":"佳里區","LI":"安西里","LIN":"47鄰","STREET":"安西路","SECT":" ","MAREA":" ","LANE":" ","ALLEY":" ","HOUSE_NO":"２６號","E_COORD97":165153.20999999999,"N_COORD97":2562261.8700000001,"ADDRESS":"安西路２６號","OBJECTID":27774},"geometry":{"x":165153.20999999996,"y":2562261.870000001}},{"attributes":{"ID":27775,"DIS_CODE":0,"TOWNNAME":"將軍區","LI":"嘉昌里","LIN":"8鄰","STREET":" ","SECT":" ","MAREA":"北嘉","LANE":" ","ALLEY":" ","HOUSE_NO":"６６之６號","E_COORD97":163346.5,"N_COORD97":2567782.8300000001,"ADDRESS":"北嘉６６之６號","OBJECTID":27775},"geometry":{"x":163346.50000000186,"y":2567782.8300000019}},{"attributes":{"ID":27776,"DIS_CODE":0,"TOWNNAME":"將軍區","LI":"嘉昌里","LIN":"8鄰","STREET":" ","SECT":" ","MAREA":"北嘉","LANE":" ","ALLEY":" ","HOUSE_NO":"６６號","E_COORD97":163344.82999999999,"N_COORD97":2567749.8300000001,"ADDRESS":"北嘉６６號","OBJECTID":27776},"geometry":{"x":163344.83000000101,"y":2567749.8300000001}},{"attributes":{"ID":27777,"DIS_CODE":0,"TOWNNAME":"將軍區","LI":"嘉昌里","LIN":"8鄰","STREET":" ","SECT":" ","MAREA":"北嘉","LANE":" ","ALLEY":" ","HOUSE_NO":"６７號","E_COORD97":163353.63,"N_COORD97":2567838.23,"ADDRESS":"北嘉６７號","OBJECTID":27777},"geometry":{"x":163353.62999999989,"y":2567838.2300000023}},{"attributes":{"ID":27778,"DIS_CODE":0,"TOWNNAME":"將軍區","LI":"平沙里","LIN":"8鄰","STREET":" ","SECT":" ","MAREA":"平沙","LANE":" ","ALLEY":" ","HOUSE_NO":"６４之２號","E_COORD97":157270.23000000001,"N_COORD97":2568534.1200000001,"ADDRESS":"平沙６４之２號","OBJECTID":27778},"geometry":{"x":157270.23000000138,"y":2568534.1200000029}},{"attributes":{"ID":27779,"DIS_CODE":0,"TOWNNAME":"將軍區","LI":"平沙里","LIN":"8鄰","STREET":" ","SECT":" ","MAREA":"平沙","LANE":" ","ALLEY":" ","HOUSE_NO":"６５號","E_COORD97":157258.41,"N_COORD97":2568527.73,"ADDRESS":"平沙６５號","OBJECTID":27779},"geometry":{"x":157258.41000000108,"y":2568527.7300000004}},{"attributes":{"ID":27780,"DIS_CODE":0,"TOWNNAME":"將軍區","LI":"平沙里","LIN":"8鄰","STREET":" ","SECT":" ","MAREA":"平沙","LANE":" ","ALLEY":" ","HOUSE_NO":"６６號","E_COORD97":157254.42000000001,"N_COORD97":2568526.1800000002,"ADDRESS":"平沙６６號","OBJECTID":27780},"geometry":{"x":157254.42000000179,"y":2568526.1800000016}},{"attributes":{"ID":27781,"DIS_CODE":0,"TOWNNAME":"將軍區","LI":"平沙里","LIN":"8鄰","STREET":" ","SECT":" ","MAREA":"平沙","LANE":" ","ALLEY":" ","HOUSE_NO":"７１之１２號","E_COORD97":157163.48999999999,"N_COORD97":2568540.3199999998,"ADDRESS":"平沙７１之１２號","OBJECTID":27781},"geometry":{"x":157163.49000000115,"y":2568540.3200000003}},{"attributes":{"ID":27782,"DIS_CODE":0,"TOWNNAME":"將軍區","LI":"西華里","LIN":"8鄰","STREET":" ","SECT":" ","MAREA":"西華","LANE":" ","ALLEY":" ","HOUSE_NO":"９７號","E_COORD97":163419.79999999999,"N_COORD97":2566353.6099999999,"ADDRESS":"西華９７號","OBJECTID":27782},"geometry":{"x":163419.79999999981,"y":2566353.6099999994}},{"attributes":{"ID":27783,"DIS_CODE":0,"TOWNNAME":"將軍區","LI":"平沙里","LIN":"8鄰","STREET":" ","SECT":" ","MAREA":"平沙","LANE":" ","ALLEY":" ","HOUSE_NO":"７１之５號","E_COORD97":157166.07999999999,"N_COORD97":2568515.1099999999,"ADDRESS":"平沙７１之５號","OBJECTID":27783},"geometry":{"x":157166.08000000101,"y":2568515.1100000031}},{"attributes":{"ID":27784,"DIS_CODE":0,"TOWNNAME":"將軍區","LI":"平沙里","LIN":"8鄰","STREET":" ","SECT":" ","MAREA":"平沙","LANE":" ","ALLEY":" ","HOUSE_NO":"７１之７號","E_COORD97":157206.22,"N_COORD97":2568515.9700000002,"ADDRESS":"平沙７１之７號","OBJECTID":27784},"geometry":{"x":157206.21999999974,"y":2568515.9700000007}},{"attributes":{"ID":27785,"DIS_CODE":0,"TOWNNAME":"將軍區","LI":"平沙里","LIN":"8鄰","STREET":" ","SECT":" ","MAREA":"平沙","LANE":" ","ALLEY":" ","HOUSE_NO":"７１之８號","E_COORD97":157201.82000000001,"N_COORD97":2568516.1099999999,"ADDRESS":"平沙７１之８號","OBJECTID":27785},"geometry":{"x":157201.82000000123,"y":2568516.1100000013}},{"attributes":{"ID":27786,"DIS_CODE":0,"TOWNNAME":"將軍區","LI":"平沙里","LIN":"8鄰","STREET":" ","SECT":" ","MAREA":"平沙","LANE":" ","ALLEY":" ","HOUSE_NO":"７１號","E_COORD97":157210.12,"N_COORD97":2568516.0699999998,"ADDRESS":"平沙７１號","OBJECTID":27786},"geometry":{"x":157210.12000000011,"y":2568516.070000004}},{"attributes":{"ID":27787,"DIS_CODE":0,"TOWNNAME":"將軍區","LI":"玉山里","LIN":"8鄰","STREET":" ","SECT":" ","MAREA":"玉山","LANE":" ","ALLEY":" ","HOUSE_NO":"６５之２號","E_COORD97":160118.91,"N_COORD97":2567300.23,"ADDRESS":"玉山６５之２號","OBJECTID":27787},"geometry":{"x":160118.91000000015,"y":2567300.2300000004}},{"attributes":{"ID":27788,"DIS_CODE":0,"TOWNNAME":"將軍區","LI":"玉山里","LIN":"8鄰","STREET":" ","SECT":" ","MAREA":"玉山","LANE":" ","ALLEY":" ","HOUSE_NO":"６５號","E_COORD97":160254.84,"N_COORD97":2567668.0299999998,"ADDRESS":"玉山６５號","OBJECTID":27788},"geometry":{"x":160254.83999999985,"y":2567668.0300000031}},{"attributes":{"ID":27789,"DIS_CODE":0,"TOWNNAME":"將軍區","LI":"玉山里","LIN":"8鄰","STREET":" ","SECT":" ","MAREA":"玉山","LANE":" ","ALLEY":" ","HOUSE_NO":"６６之１６號","E_COORD97":159402.92999999999,"N_COORD97":2567614.23,"ADDRESS":"玉山６６之１６號","OBJECTID":27789},"geometry":{"x":159402.9299999997,"y":2567614.2300000023}},{"attributes":{"ID":27790,"DIS_CODE":0,"TOWNNAME":"將軍區","LI":"玉山里","LIN":"8鄰","STREET":" ","SECT":" ","MAREA":"玉山","LANE":" ","ALLEY":" ","HOUSE_NO":"６６之３號","E_COORD97":160166.87,"N_COORD97":2567677.8500000001,"ADDRESS":"玉山６６之３號","OBJECTID":27790},"geometry":{"x":160166.87000000011,"y":2567677.8499999996}},{"attributes":{"ID":27791,"DIS_CODE":0,"TOWNNAME":"佳里區","LI":"安西里","LIN":"47鄰","STREET":"安西路","SECT":" ","MAREA":" ","LANE":" ","ALLEY":" ","HOUSE_NO":"２７號","E_COORD97":165106.14999999999,"N_COORD97":2562239.5499999998,"ADDRESS":"安西路２７號","OBJECTID":27791},"geometry":{"x":165106.1500000013,"y":2562239.5500000007}},{"attributes":{"ID":27792,"DIS_CODE":0,"TOWNNAME":"佳里區","LI":"安西里","LIN":"47鄰","STREET":"安西路","SECT":" ","MAREA":" ","LANE":" ","ALLEY":" ","HOUSE_NO":"２８號","E_COORD97":165153.23999999999,"N_COORD97":2562266.1800000002,"ADDRESS":"安西路２８號","OBJECTID":27792},"geometry":{"x":165153.24000000022,"y":2562266.1799999978}},{"attributes":{"ID":27793,"DIS_CODE":0,"TOWNNAME":"將軍區","LI":"玉山里","LIN":"8鄰","STREET":" ","SECT":" ","MAREA":"玉山","LANE":" ","ALLEY":" ","HOUSE_NO":"６７之１號","E_COORD97":160183.69,"N_COORD97":2567771.0800000001,"ADDRESS":"玉山６７之１號","OBJECTID":27793},"geometry":{"x":160183.69000000041,"y":2567771.0800000019}},{"attributes":{"ID":27794,"DIS_CODE":0,"TOWNNAME":"將軍區","LI":"玉山里","LIN":"8鄰","STREET":" ","SECT":" ","MAREA":"玉山","LANE":" ","ALLEY":" ","HOUSE_NO":"６７之２號","E_COORD97":160201.16,"N_COORD97":2567773.3799999999,"ADDRESS":"玉山６７之２號","OBJECTID":27794},"geometry":{"x":160201.16000000108,"y":2567773.3799999971}},{"attributes":{"ID":27795,"DIS_CODE":0,"TOWNNAME":"將軍區","LI":"玉山里","LIN":"8鄰","STREET":" ","SECT":" ","MAREA":"玉山","LANE":" ","ALLEY":" ","HOUSE_NO":"６７之３號","E_COORD97":160207.62,"N_COORD97":2567775.2799999998,"ADDRESS":"玉山６７之３號","OBJECTID":27795},"geometry":{"x":160207.62000000011,"y":2567775.2800000012}},{"attributes":{"ID":27796,"DIS_CODE":0,"TOWNNAME":"將軍區","LI":"玉山里","LIN":"8鄰","STREET":" ","SECT":" ","MAREA":"玉山","LANE":" ","ALLEY":" ","HOUSE_NO":"６８之１號","E_COORD97":160227.97,"N_COORD97":2567771.0800000001,"ADDRESS":"玉山６８之１號","OBJECTID":27796},"geometry":{"x":160227.97000000067,"y":2567771.0800000019}},{"attributes":{"ID":27797,"DIS_CODE":0,"TOWNNAME":"將軍區","LI":"玉山里","LIN":"8鄰","STREET":" ","SECT":" ","MAREA":"玉山","LANE":" ","ALLEY":" ","HOUSE_NO":"６８號","E_COORD97":160242.63,"N_COORD97":2567798.1600000001,"ADDRESS":"玉山６８號","OBJECTID":27797},"geometry":{"x":160242.62999999989,"y":2567798.160000002}},{"attributes":{"ID":27798,"DIS_CODE":0,"TOWNNAME":"將軍區","LI":"西和里","LIN":"8鄰","STREET":" ","SECT":" ","MAREA":"西和","LANE":" ","ALLEY":" ","HOUSE_NO":"６６號","E_COORD97":163114.60000000001,"N_COORD97":2566422.1499999999,"ADDRESS":"西和６６號","OBJECTID":27798},"geometry":{"x":163114.59999999963,"y":2566422.1500000022}},{"attributes":{"ID":27799,"DIS_CODE":0,"TOWNNAME":"將軍區","LI":"西和里","LIN":"8鄰","STREET":" ","SECT":" ","MAREA":"西和","LANE":" ","ALLEY":" ","HOUSE_NO":"６７號","E_COORD97":163142.10999999999,"N_COORD97":2566408,"ADDRESS":"西和６７號","OBJECTID":27799},"geometry":{"x":163142.11000000034,"y":2566408.0000000019}},{"attributes":{"ID":27800,"DIS_CODE":0,"TOWNNAME":"將軍區","LI":"西和里","LIN":"8鄰","STREET":" ","SECT":" ","MAREA":"西和","LANE":" ","ALLEY":" ","HOUSE_NO":"６９號","E_COORD97":163146.98000000001,"N_COORD97":2566400.9500000002,"ADDRESS":"西和６９號","OBJECTID":27800},"geometry":{"x":163146.98000000231,"y":2566400.9500000011}}]}