{"displayFieldName":"TOWNNAME","fieldAliases":{"ID":"ID","DIS_CODE":"DIS_CODE","TOWNNAME":"TOWNNAME","LI":"LI","LIN":"LIN","STREET":"STREET","SECT":"SECT","MAREA":"MAREA","LANE":"LANE","ALLEY":"ALLEY","HOUSE_NO":"HOUSE_NO","E_COORD97":"E_COORD97","N_COORD97":"N_COORD97","ADDRESS":"ADDRESS","OBJECTID":"OBJECTID"},"geometryType":"esriGeometryPoint","spatialReference":{"wkid":102443,"latestWkid":3826},"fields":[{"name":"ID","type":"esriFieldTypeDouble","alias":"ID"},{"name":"DIS_CODE","type":"esriFieldTypeInteger","alias":"DIS_CODE"},{"name":"TOWNNAME","type":"esriFieldTypeString","alias":"TOWNNAME","length":8},{"name":"LI","type":"esriFieldTypeString","alias":"LI","length":8},{"name":"LIN","type":"esriFieldTypeString","alias":"LIN","length":12},{"name":"STREET","type":"esriFieldTypeString","alias":"STREET","length":20},{"name":"SECT","type":"esriFieldTypeString","alias":"SECT","length":8},{"name":"MAREA","type":"esriFieldTypeString","alias":"MAREA","length":12},{"name":"LANE","type":"esriFieldTypeString","alias":"LANE","length":10},{"name":"ALLEY","type":"esriFieldTypeString","alias":"ALLEY","length":10},{"name":"HOUSE_NO","type":"esriFieldTypeString","alias":"HOUSE_NO","length":20},{"name":"E_COORD97","type":"esriFieldTypeDouble","alias":"E_COORD97"},{"name":"N_COORD97","type":"esriFieldTypeDouble","alias":"N_COORD97"},{"name":"ADDRESS","type":"esriFieldTypeString","alias":"ADDRESS","length":50},{"name":"OBJECTID","type":"esriFieldTypeOID","alias":"OBJECTID"}],"features":[{"attributes":{"ID":611628,"DIS_CODE":0,"TOWNNAME":"新化區","LI":"太平里","LIN":"2鄰","STREET":"建國街","SECT":" ","MAREA":" ","LANE":" ","ALLEY":" ","HOUSE_NO":"６３號","E_COORD97":179136.88,"N_COORD97":2548842.2599999998,"ADDRESS":"建國街６３號","OBJECTID":611601},"geometry":{"x":179136.88000000082,"y":2548842.2599999998}},{"attributes":{"ID":611629,"DIS_CODE":0,"TOWNNAME":"永康區","LI":"\u25A0行里","LIN":"3鄰","STREET":"中正七街","SECT":" ","MAREA":" ","LANE":" ","ALLEY":" ","HOUSE_NO":"１７號六樓之２","E_COORD97":172044.42999999999,"N_COORD97":2548879.54,"ADDRESS":"中正七街１７號六樓之２","OBJECTID":611602},"geometry":{"x":172044.4299999997,"y":2548879.540000001}},{"attributes":{"ID":611630,"DIS_CODE":0,"TOWNNAME":"永康區","LI":"\u25A0行里","LIN":"3鄰","STREET":"中正七街","SECT":" ","MAREA":" ","LANE":" ","ALLEY":" ","HOUSE_NO":"１７號八樓之１","E_COORD97":172044.39999999999,"N_COORD97":2548879.54,"ADDRESS":"中正七街１７號八樓之１","OBJECTID":611603},"geometry":{"x":172044.4000000013,"y":2548879.540000001}},{"attributes":{"ID":611631,"DIS_CODE":0,"TOWNNAME":"永康區","LI":"\u25A0行里","LIN":"3鄰","STREET":"中正七街","SECT":" ","MAREA":" ","LANE":" ","ALLEY":" ","HOUSE_NO":"１７號六樓之８","E_COORD97":172044.45000000001,"N_COORD97":2548879.54,"ADDRESS":"中正七街１７號六樓之８","OBJECTID":611604},"geometry":{"x":172044.45000000019,"y":2548879.540000001}},{"attributes":{"ID":611632,"DIS_CODE":0,"TOWNNAME":"永康區","LI":"\u25A0行里","LIN":"3鄰","STREET":"中正七街","SECT":" ","MAREA":" ","LANE":" ","ALLEY":" ","HOUSE_NO":"１７號五樓之８","E_COORD97":172044.45000000001,"N_COORD97":2548879.54,"ADDRESS":"中正七街１７號五樓之８","OBJECTID":611605},"geometry":{"x":172044.45000000019,"y":2548879.540000001}},{"attributes":{"ID":611633,"DIS_CODE":0,"TOWNNAME":"永康區","LI":"\u25A0行里","LIN":"3鄰","STREET":"中正七街","SECT":" ","MAREA":" ","LANE":" ","ALLEY":" ","HOUSE_NO":"１７號七樓之１２","E_COORD97":172045.67999999999,"N_COORD97":2548879.54,"ADDRESS":"中正七街１７號七樓之１２","OBJECTID":611606},"geometry":{"x":172045.6799999997,"y":2548879.540000001}},{"attributes":{"ID":611634,"DIS_CODE":0,"TOWNNAME":"永康區","LI":"\u25A0行里","LIN":"3鄰","STREET":"中正七街","SECT":" ","MAREA":" ","LANE":" ","ALLEY":" ","HOUSE_NO":"１７號六樓之９","E_COORD97":172044.38,"N_COORD97":2548879.54,"ADDRESS":"中正七街１７號六樓之９","OBJECTID":611607},"geometry":{"x":172044.37999999989,"y":2548879.540000001}},{"attributes":{"ID":611635,"DIS_CODE":0,"TOWNNAME":"永康區","LI":"\u25A0行里","LIN":"3鄰","STREET":"中正路","SECT":" ","MAREA":" ","LANE":" ","ALLEY":" ","HOUSE_NO":"８７０號四樓之５","E_COORD97":172102.17000000001,"N_COORD97":2548811.1000000001,"ADDRESS":"中正路８７０號四樓之５","OBJECTID":611608},"geometry":{"x":172102.16999999993,"y":2548811.1000000015}},{"attributes":{"ID":611636,"DIS_CODE":0,"TOWNNAME":"永康區","LI":"\u25A0行里","LIN":"3鄰","STREET":"中正七街","SECT":" ","MAREA":" ","LANE":" ","ALLEY":" ","HOUSE_NO":"１０號二樓之７","E_COORD97":172079.01999999999,"N_COORD97":2548864.48,"ADDRESS":"中正七街１０號二樓之７","OBJECTID":611609},"geometry":{"x":172079.01999999955,"y":2548864.4800000023}},{"attributes":{"ID":611637,"DIS_CODE":0,"TOWNNAME":"永康區","LI":"\u25A0行里","LIN":"3鄰","STREET":"中正七街","SECT":" ","MAREA":" ","LANE":" ","ALLEY":" ","HOUSE_NO":"１０號三樓之２","E_COORD97":172079.07999999999,"N_COORD97":2548864.48,"ADDRESS":"中正七街１０號三樓之２","OBJECTID":611610},"geometry":{"x":172079.08000000007,"y":2548864.4800000023}},{"attributes":{"ID":611638,"DIS_CODE":0,"TOWNNAME":"永康區","LI":"\u25A0行里","LIN":"3鄰","STREET":"中正七街","SECT":" ","MAREA":" ","LANE":" ","ALLEY":" ","HOUSE_NO":"１０號三樓之５","E_COORD97":172079.10000000001,"N_COORD97":2548864.48,"ADDRESS":"中正七街１０號三樓之５","OBJECTID":611611},"geometry":{"x":172079.10000000056,"y":2548864.4800000023}},{"attributes":{"ID":611639,"DIS_CODE":0,"TOWNNAME":"永康區","LI":"\u25A0行里","LIN":"3鄰","STREET":"中正七街","SECT":" ","MAREA":" ","LANE":" ","ALLEY":" ","HOUSE_NO":"１０號五樓之７","E_COORD97":172079.01999999999,"N_COORD97":2548864.48,"ADDRESS":"中正七街１０號五樓之７","OBJECTID":611612},"geometry":{"x":172079.01999999955,"y":2548864.4800000023}},{"attributes":{"ID":611640,"DIS_CODE":0,"TOWNNAME":"永康區","LI":"蔦松里","LIN":"3鄰","STREET":"中正北路","SECT":" ","MAREA":" ","LANE":" ","ALLEY":" ","HOUSE_NO":"６１９號十一樓之３","E_COORD97":174018.82999999999,"N_COORD97":2549303.29,"ADDRESS":"中正北路６１９號十一樓之３","OBJECTID":611613},"geometry":{"x":174018.83000000194,"y":2549303.2899999972}},{"attributes":{"ID":611641,"DIS_CODE":0,"TOWNNAME":"永康區","LI":"蔦松里","LIN":"3鄰","STREET":"中正北路","SECT":" ","MAREA":" ","LANE":" ","ALLEY":" ","HOUSE_NO":"６１９號七樓之１","E_COORD97":174017.48000000001,"N_COORD97":2549303.29,"ADDRESS":"中正北路６１９號七樓之１","OBJECTID":611614},"geometry":{"x":174017.48000000045,"y":2549303.2899999972}},{"attributes":{"ID":611642,"DIS_CODE":0,"TOWNNAME":"永康區","LI":"\u25A0洲里","LIN":"3鄰","STREET":"\u25A0洲二街","SECT":" ","MAREA":" ","LANE":" ","ALLEY":" ","HOUSE_NO":"１９８號七樓之２","E_COORD97":171746.04999999999,"N_COORD97":2549402.3399999999,"ADDRESS":"\u25A0洲二街１９８號七樓之２","OBJECTID":611615},"geometry":{"x":171746.05000000075,"y":2549402.3400000036}},{"attributes":{"ID":611643,"DIS_CODE":0,"TOWNNAME":"新化區","LI":"太平里","LIN":"13鄰","STREET":"太平街","SECT":" ","MAREA":" ","LANE":" ","ALLEY":" ","HOUSE_NO":"４２號","E_COORD97":178849.11780000001,"N_COORD97":2548799.4424899998,"ADDRESS":"太平街４２號","OBJECTID":611616},"geometry":{"x":178849.11780000012,"y":2548799.4424889982}},{"attributes":{"ID":611644,"DIS_CODE":0,"TOWNNAME":"仁德區","LI":"大甲里","LIN":"3鄰","STREET":"行大一街","SECT":" ","MAREA":" ","LANE":" ","ALLEY":" ","HOUSE_NO":"２０２號四樓之４","E_COORD97":169797.85000000001,"N_COORD97":2535064.29,"ADDRESS":"行大一街２０２號四樓之４","OBJECTID":611617},"geometry":{"x":169797.85000000056,"y":2535064.290000001}},{"attributes":{"ID":611645,"DIS_CODE":0,"TOWNNAME":"仁德區","LI":"大甲里","LIN":"3鄰","STREET":"行大一街","SECT":" ","MAREA":" ","LANE":" ","ALLEY":" ","HOUSE_NO":"２０２號二樓之９","E_COORD97":169797.91,"N_COORD97":2535064.29,"ADDRESS":"行大一街２０２號二樓之９","OBJECTID":611618},"geometry":{"x":169797.91000000108,"y":2535064.290000001}},{"attributes":{"ID":611646,"DIS_CODE":0,"TOWNNAME":"仁德區","LI":"大甲里","LIN":"3鄰","STREET":"行大一街","SECT":" ","MAREA":" ","LANE":" ","ALLEY":" ","HOUSE_NO":"２０２號二樓之１","E_COORD97":169797.82000000001,"N_COORD97":2535064.29,"ADDRESS":"行大一街２０２號二樓之１","OBJECTID":611619},"geometry":{"x":169797.8200000003,"y":2535064.290000001}},{"attributes":{"ID":611647,"DIS_CODE":0,"TOWNNAME":"仁德區","LI":"大甲里","LIN":"3鄰","STREET":"行大一街","SECT":" ","MAREA":" ","LANE":" ","ALLEY":" ","HOUSE_NO":"２０２號三樓之５","E_COORD97":169797.98000000001,"N_COORD97":2535064.29,"ADDRESS":"行大一街２０２號三樓之５","OBJECTID":611620},"geometry":{"x":169797.98000000138,"y":2535064.290000001}},{"attributes":{"ID":611648,"DIS_CODE":0,"TOWNNAME":"仁德區","LI":"大甲里","LIN":"3鄰","STREET":"行大一街","SECT":" ","MAREA":" ","LANE":" ","ALLEY":" ","HOUSE_NO":"２０２號三樓之３","E_COORD97":169797.92000000001,"N_COORD97":2535064.29,"ADDRESS":"行大一街２０２號三樓之３","OBJECTID":611621},"geometry":{"x":169797.92000000086,"y":2535064.290000001}},{"attributes":{"ID":611649,"DIS_CODE":0,"TOWNNAME":"仁德區","LI":"大甲里","LIN":"3鄰","STREET":"行大一街","SECT":" ","MAREA":" ","LANE":" ","ALLEY":" ","HOUSE_NO":"２０２號一樓之２","E_COORD97":169797.95999999999,"N_COORD97":2535064.29,"ADDRESS":"行大一街２０２號一樓之２","OBJECTID":611622},"geometry":{"x":169797.95999999996,"y":2535064.290000001}},{"attributes":{"ID":611650,"DIS_CODE":0,"TOWNNAME":"仁德區","LI":"大甲里","LIN":"3鄰","STREET":"行大一街","SECT":" ","MAREA":" ","LANE":" ","ALLEY":" ","HOUSE_NO":"２０２號三樓之４","E_COORD97":169797.85000000001,"N_COORD97":2535064.29,"ADDRESS":"行大一街２０２號三樓之４","OBJECTID":611623},"geometry":{"x":169797.85000000056,"y":2535064.290000001}},{"attributes":{"ID":611651,"DIS_CODE":0,"TOWNNAME":"仁德區","LI":"大甲里","LIN":"3鄰","STREET":"行大一街","SECT":" ","MAREA":" ","LANE":" ","ALLEY":" ","HOUSE_NO":"２０２號四樓之５","E_COORD97":169797.98000000001,"N_COORD97":2535064.29,"ADDRESS":"行大一街２０２號四樓之５","OBJECTID":611624},"geometry":{"x":169797.98000000138,"y":2535064.290000001}},{"attributes":{"ID":611652,"DIS_CODE":0,"TOWNNAME":"仁德區","LI":"大甲里","LIN":"3鄰","STREET":"行大一街","SECT":" ","MAREA":" ","LANE":" ","ALLEY":" ","HOUSE_NO":"２０２號四樓之２","E_COORD97":169797.95999999999,"N_COORD97":2535064.29,"ADDRESS":"行大一街２０２號四樓之２","OBJECTID":611625},"geometry":{"x":169797.95999999996,"y":2535064.290000001}},{"attributes":{"ID":611653,"DIS_CODE":0,"TOWNNAME":"東區","LI":"中西里","LIN":"3鄰","STREET":"勝利路","SECT":" ","MAREA":" ","LANE":" ","ALLEY":" ","HOUSE_NO":"８號之５四樓之１","E_COORD97":169817.85000000001,"N_COORD97":2543125.25,"ADDRESS":"勝利路８號之５四樓之１","OBJECTID":611626},"geometry":{"x":169817.85000000056,"y":2543125.2500000019}},{"attributes":{"ID":611654,"DIS_CODE":0,"TOWNNAME":"東區","LI":"東明里","LIN":"3鄰","STREET":"怡東路","SECT":" ","MAREA":" ","LANE":" ","ALLEY":" ","HOUSE_NO":"６０號三樓","E_COORD97":170849.79999999999,"N_COORD97":2543597.0800000001,"ADDRESS":"怡東路６０號三樓","OBJECTID":611627},"geometry":{"x":170849.79999999981,"y":2543597.0800000019}},{"attributes":{"ID":611655,"DIS_CODE":0,"TOWNNAME":"東區","LI":"中西里","LIN":"3鄰","STREET":"勝利路","SECT":" ","MAREA":" ","LANE":" ","ALLEY":" ","HOUSE_NO":"２號六樓","E_COORD97":169779.81,"N_COORD97":2543111.9199999999,"ADDRESS":"勝利路２號六樓","OBJECTID":611628},"geometry":{"x":169779.80999999959,"y":2543111.9199999999}},{"attributes":{"ID":611656,"DIS_CODE":0,"TOWNNAME":"東區","LI":"中西里","LIN":"3鄰","STREET":"勝利路","SECT":" ","MAREA":" ","LANE":" ","ALLEY":" ","HOUSE_NO":"２號七樓","E_COORD97":169779.81,"N_COORD97":2543111.9199999999,"ADDRESS":"勝利路２號七樓","OBJECTID":611629},"geometry":{"x":169779.80999999959,"y":2543111.9199999999}},{"attributes":{"ID":611657,"DIS_CODE":0,"TOWNNAME":"東區","LI":"中西里","LIN":"3鄰","STREET":"勝利路","SECT":" ","MAREA":" ","LANE":" ","ALLEY":" ","HOUSE_NO":"６號四樓","E_COORD97":169780.29999999999,"N_COORD97":2543120.77,"ADDRESS":"勝利路６號四樓","OBJECTID":611630},"geometry":{"x":169780.29999999981,"y":2543120.7700000014}},{"attributes":{"ID":611658,"DIS_CODE":0,"TOWNNAME":"東區","LI":"中西里","LIN":"3鄰","STREET":"勝利路","SECT":" ","MAREA":" ","LANE":" ","ALLEY":" ","HOUSE_NO":"６號五樓","E_COORD97":169780.29999999999,"N_COORD97":2543120.77,"ADDRESS":"勝利路６號五樓","OBJECTID":611631},"geometry":{"x":169780.29999999981,"y":2543120.7700000014}},{"attributes":{"ID":611659,"DIS_CODE":0,"TOWNNAME":"東區","LI":"中西里","LIN":"3鄰","STREET":"勝利路","SECT":" ","MAREA":" ","LANE":" ","ALLEY":" ","HOUSE_NO":"６號七樓","E_COORD97":169780.29999999999,"N_COORD97":2543120.77,"ADDRESS":"勝利路６號七樓","OBJECTID":611632},"geometry":{"x":169780.29999999981,"y":2543120.7700000014}},{"attributes":{"ID":611660,"DIS_CODE":0,"TOWNNAME":"東區","LI":"中西里","LIN":"3鄰","STREET":"勝利路","SECT":" ","MAREA":" ","LANE":" ","ALLEY":" ","HOUSE_NO":"６號六樓","E_COORD97":169780.29999999999,"N_COORD97":2543120.77,"ADDRESS":"勝利路６號六樓","OBJECTID":611633},"geometry":{"x":169780.29999999981,"y":2543120.7700000014}},{"attributes":{"ID":611661,"DIS_CODE":0,"TOWNNAME":"東區","LI":"中西里","LIN":"3鄰","STREET":"勝利路","SECT":" ","MAREA":" ","LANE":" ","ALLEY":" ","HOUSE_NO":"８號之１四樓","E_COORD97":169781.47,"N_COORD97":2543134,"ADDRESS":"勝利路８號之１四樓","OBJECTID":611634},"geometry":{"x":169781.47000000067,"y":2543134.0000000019}},{"attributes":{"ID":611662,"DIS_CODE":0,"TOWNNAME":"東區","LI":"中西里","LIN":"3鄰","STREET":"勝利路","SECT":" ","MAREA":" ","LANE":" ","ALLEY":" ","HOUSE_NO":"８號之１五樓","E_COORD97":169781.47,"N_COORD97":2543134,"ADDRESS":"勝利路８號之１五樓","OBJECTID":611635},"geometry":{"x":169781.47000000067,"y":2543134.0000000019}},{"attributes":{"ID":611663,"DIS_CODE":0,"TOWNNAME":"東區","LI":"中西里","LIN":"3鄰","STREET":"勝利路","SECT":" ","MAREA":" ","LANE":" ","ALLEY":" ","HOUSE_NO":"８號之１六樓","E_COORD97":169781.47,"N_COORD97":2543134,"ADDRESS":"勝利路８號之１六樓","OBJECTID":611636},"geometry":{"x":169781.47000000067,"y":2543134.0000000019}},{"attributes":{"ID":611664,"DIS_CODE":0,"TOWNNAME":"東區","LI":"中西里","LIN":"3鄰","STREET":"勝利路","SECT":" ","MAREA":" ","LANE":" ","ALLEY":" ","HOUSE_NO":"８號之１七樓","E_COORD97":169781.47,"N_COORD97":2543134,"ADDRESS":"勝利路８號之１七樓","OBJECTID":611637},"geometry":{"x":169781.47000000067,"y":2543134.0000000019}},{"attributes":{"ID":611665,"DIS_CODE":0,"TOWNNAME":"東區","LI":"中西里","LIN":"3鄰","STREET":"勝利路","SECT":" ","MAREA":" ","LANE":" ","ALLEY":" ","HOUSE_NO":"８號之３二樓","E_COORD97":169800.94,"N_COORD97":2543132.25,"ADDRESS":"勝利路８號之３二樓","OBJECTID":611638},"geometry":{"x":169800.94000000227,"y":2543132.2500000019}},{"attributes":{"ID":611666,"DIS_CODE":0,"TOWNNAME":"東區","LI":"中西里","LIN":"3鄰","STREET":"勝利路","SECT":" ","MAREA":" ","LANE":" ","ALLEY":" ","HOUSE_NO":"８號之３三樓","E_COORD97":169800.94,"N_COORD97":2543132.25,"ADDRESS":"勝利路８號之３三樓","OBJECTID":611639},"geometry":{"x":169800.94000000227,"y":2543132.2500000019}},{"attributes":{"ID":611667,"DIS_CODE":0,"TOWNNAME":"東區","LI":"中西里","LIN":"3鄰","STREET":"勝利路","SECT":" ","MAREA":" ","LANE":" ","ALLEY":" ","HOUSE_NO":"８號之３四樓","E_COORD97":169800.94,"N_COORD97":2543132.25,"ADDRESS":"勝利路８號之３四樓","OBJECTID":611640},"geometry":{"x":169800.94000000227,"y":2543132.2500000019}},{"attributes":{"ID":611668,"DIS_CODE":0,"TOWNNAME":"東區","LI":"中西里","LIN":"3鄰","STREET":"勝利路","SECT":" ","MAREA":" ","LANE":" ","ALLEY":" ","HOUSE_NO":"８號之３五樓","E_COORD97":169800.94,"N_COORD97":2543132.25,"ADDRESS":"勝利路８號之３五樓","OBJECTID":611641},"geometry":{"x":169800.94000000227,"y":2543132.2500000019}},{"attributes":{"ID":611669,"DIS_CODE":0,"TOWNNAME":"東區","LI":"中西里","LIN":"3鄰","STREET":"勝利路","SECT":" ","MAREA":" ","LANE":" ","ALLEY":" ","HOUSE_NO":"８號之３七樓","E_COORD97":169800.94,"N_COORD97":2543132.25,"ADDRESS":"勝利路８號之３七樓","OBJECTID":611642},"geometry":{"x":169800.94000000227,"y":2543132.2500000019}},{"attributes":{"ID":611670,"DIS_CODE":0,"TOWNNAME":"東區","LI":"中西里","LIN":"3鄰","STREET":"勝利路","SECT":" ","MAREA":" ","LANE":" ","ALLEY":" ","HOUSE_NO":"８號之４二樓","E_COORD97":169802.37,"N_COORD97":2543113.6699999999,"ADDRESS":"勝利路８號之４二樓","OBJECTID":611643},"geometry":{"x":169802.37000000011,"y":2543113.6699999999}},{"attributes":{"ID":611671,"DIS_CODE":0,"TOWNNAME":"東區","LI":"中西里","LIN":"3鄰","STREET":"勝利路","SECT":" ","MAREA":" ","LANE":" ","ALLEY":" ","HOUSE_NO":"８號之４三樓","E_COORD97":169802.37,"N_COORD97":2543113.6699999999,"ADDRESS":"勝利路８號之４三樓","OBJECTID":611644},"geometry":{"x":169802.37000000011,"y":2543113.6699999999}},{"attributes":{"ID":611672,"DIS_CODE":0,"TOWNNAME":"東區","LI":"中西里","LIN":"3鄰","STREET":"勝利路","SECT":" ","MAREA":" ","LANE":" ","ALLEY":" ","HOUSE_NO":"８號之４四樓","E_COORD97":169802.37,"N_COORD97":2543113.6699999999,"ADDRESS":"勝利路８號之４四樓","OBJECTID":611645},"geometry":{"x":169802.37000000011,"y":2543113.6699999999}},{"attributes":{"ID":611673,"DIS_CODE":0,"TOWNNAME":"東區","LI":"中西里","LIN":"3鄰","STREET":"勝利路","SECT":" ","MAREA":" ","LANE":" ","ALLEY":" ","HOUSE_NO":"８號之４五樓","E_COORD97":169802.37,"N_COORD97":2543113.6699999999,"ADDRESS":"勝利路８號之４五樓","OBJECTID":611646},"geometry":{"x":169802.37000000011,"y":2543113.6699999999}},{"attributes":{"ID":611674,"DIS_CODE":0,"TOWNNAME":"東區","LI":"中西里","LIN":"3鄰","STREET":"勝利路","SECT":" ","MAREA":" ","LANE":" ","ALLEY":" ","HOUSE_NO":"８號之４六樓","E_COORD97":169802.37,"N_COORD97":2543113.6699999999,"ADDRESS":"勝利路８號之４六樓","OBJECTID":611647},"geometry":{"x":169802.37000000011,"y":2543113.6699999999}},{"attributes":{"ID":611675,"DIS_CODE":0,"TOWNNAME":"東區","LI":"中西里","LIN":"3鄰","STREET":"勝利路","SECT":" ","MAREA":" ","LANE":" ","ALLEY":" ","HOUSE_NO":"８號之４七樓","E_COORD97":169802.37,"N_COORD97":2543113.6699999999,"ADDRESS":"勝利路８號之４七樓","OBJECTID":611648},"geometry":{"x":169802.37000000011,"y":2543113.6699999999}},{"attributes":{"ID":611676,"DIS_CODE":0,"TOWNNAME":"東區","LI":"中西里","LIN":"3鄰","STREET":"勝利路","SECT":" ","MAREA":" ","LANE":" ","ALLEY":" ","HOUSE_NO":"８號之５二樓","E_COORD97":169817.85000000001,"N_COORD97":2543125.25,"ADDRESS":"勝利路８號之５二樓","OBJECTID":611649},"geometry":{"x":169817.85000000056,"y":2543125.2500000019}},{"attributes":{"ID":611677,"DIS_CODE":0,"TOWNNAME":"東區","LI":"中西里","LIN":"3鄰","STREET":"勝利路","SECT":" ","MAREA":" ","LANE":" ","ALLEY":" ","HOUSE_NO":"８號之５三樓","E_COORD97":169817.85000000001,"N_COORD97":2543125.25,"ADDRESS":"勝利路８號之５三樓","OBJECTID":611650},"geometry":{"x":169817.85000000056,"y":2543125.2500000019}},{"attributes":{"ID":611678,"DIS_CODE":0,"TOWNNAME":"東區","LI":"中西里","LIN":"3鄰","STREET":"勝利路","SECT":" ","MAREA":" ","LANE":" ","ALLEY":" ","HOUSE_NO":"８號之５四樓","E_COORD97":169817.85000000001,"N_COORD97":2543125.25,"ADDRESS":"勝利路８號之５四樓","OBJECTID":611651},"geometry":{"x":169817.85000000056,"y":2543125.2500000019}},{"attributes":{"ID":611679,"DIS_CODE":0,"TOWNNAME":"東區","LI":"中西里","LIN":"3鄰","STREET":"勝利路","SECT":" ","MAREA":" ","LANE":" ","ALLEY":" ","HOUSE_NO":"８號之５五樓","E_COORD97":169817.85000000001,"N_COORD97":2543125.25,"ADDRESS":"勝利路８號之５五樓","OBJECTID":611652},"geometry":{"x":169817.85000000056,"y":2543125.2500000019}},{"attributes":{"ID":611680,"DIS_CODE":0,"TOWNNAME":"東區","LI":"中西里","LIN":"3鄰","STREET":"勝利路","SECT":" ","MAREA":" ","LANE":" ","ALLEY":" ","HOUSE_NO":"８號之５六樓","E_COORD97":169817.85000000001,"N_COORD97":2543125.25,"ADDRESS":"勝利路８號之５六樓","OBJECTID":611653},"geometry":{"x":169817.85000000056,"y":2543125.2500000019}},{"attributes":{"ID":611681,"DIS_CODE":0,"TOWNNAME":"東區","LI":"中西里","LIN":"3鄰","STREET":"勝利路","SECT":" ","MAREA":" ","LANE":" ","ALLEY":" ","HOUSE_NO":"８號之５七樓","E_COORD97":169817.85000000001,"N_COORD97":2543125.25,"ADDRESS":"勝利路８號之５七樓","OBJECTID":611654},"geometry":{"x":169817.85000000056,"y":2543125.2500000019}},{"attributes":{"ID":611682,"DIS_CODE":0,"TOWNNAME":"東區","LI":"中西里","LIN":"3鄰","STREET":"勝利路","SECT":" ","MAREA":" ","LANE":" ","ALLEY":" ","HOUSE_NO":"８號之６三樓","E_COORD97":169825.64999999999,"N_COORD97":2543122.7000000002,"ADDRESS":"勝利路８號之６三樓","OBJECTID":611655},"geometry":{"x":169825.6500000013,"y":2543122.6999999993}},{"attributes":{"ID":611683,"DIS_CODE":0,"TOWNNAME":"東區","LI":"中西里","LIN":"3鄰","STREET":"勝利路","SECT":" ","MAREA":" ","LANE":" ","ALLEY":" ","HOUSE_NO":"８號之６四樓","E_COORD97":169825.64999999999,"N_COORD97":2543122.7000000002,"ADDRESS":"勝利路８號之６四樓","OBJECTID":611656},"geometry":{"x":169825.6500000013,"y":2543122.6999999993}},{"attributes":{"ID":611684,"DIS_CODE":0,"TOWNNAME":"東區","LI":"中西里","LIN":"3鄰","STREET":"勝利路","SECT":" ","MAREA":" ","LANE":" ","ALLEY":" ","HOUSE_NO":"８號之６五樓","E_COORD97":169825.64999999999,"N_COORD97":2543122.7000000002,"ADDRESS":"勝利路８號之６五樓","OBJECTID":611657},"geometry":{"x":169825.6500000013,"y":2543122.6999999993}},{"attributes":{"ID":611685,"DIS_CODE":0,"TOWNNAME":"東區","LI":"中西里","LIN":"3鄰","STREET":"勝利路","SECT":" ","MAREA":" ","LANE":" ","ALLEY":" ","HOUSE_NO":"８號之５二樓之１","E_COORD97":169817.85000000001,"N_COORD97":2543125.25,"ADDRESS":"勝利路８號之５二樓之１","OBJECTID":611658},"geometry":{"x":169817.85000000056,"y":2543125.2500000019}},{"attributes":{"ID":611686,"DIS_CODE":0,"TOWNNAME":"東區","LI":"中西里","LIN":"3鄰","STREET":"勝利路","SECT":" ","MAREA":" ","LANE":" ","ALLEY":" ","HOUSE_NO":"８號之５三樓之１","E_COORD97":169817.85000000001,"N_COORD97":2543125.25,"ADDRESS":"勝利路８號之５三樓之１","OBJECTID":611659},"geometry":{"x":169817.85000000056,"y":2543125.2500000019}},{"attributes":{"ID":611687,"DIS_CODE":0,"TOWNNAME":"東區","LI":"中西里","LIN":"3鄰","STREET":"勝利路","SECT":" ","MAREA":" ","LANE":" ","ALLEY":" ","HOUSE_NO":"８號之６五樓之１","E_COORD97":169825.64999999999,"N_COORD97":2543122.7000000002,"ADDRESS":"勝利路８號之６五樓之１","OBJECTID":611660},"geometry":{"x":169825.6500000013,"y":2543122.6999999993}},{"attributes":{"ID":611688,"DIS_CODE":0,"TOWNNAME":"東區","LI":"中西里","LIN":"3鄰","STREET":"勝利路","SECT":" ","MAREA":" ","LANE":" ","ALLEY":" ","HOUSE_NO":"８號之６五樓之２","E_COORD97":169825.64999999999,"N_COORD97":2543122.7000000002,"ADDRESS":"勝利路８號之６五樓之２","OBJECTID":611661},"geometry":{"x":169825.6500000013,"y":2543122.6999999993}},{"attributes":{"ID":611689,"DIS_CODE":0,"TOWNNAME":"東區","LI":"東明里","LIN":"3鄰","STREET":"怡東路","SECT":" ","MAREA":" ","LANE":" ","ALLEY":" ","HOUSE_NO":"６０號四樓","E_COORD97":170849.79999999999,"N_COORD97":2543597.0800000001,"ADDRESS":"怡東路６０號四樓","OBJECTID":611662},"geometry":{"x":170849.79999999981,"y":2543597.0800000019}},{"attributes":{"ID":611690,"DIS_CODE":0,"TOWNNAME":"麻豆區","LI":"油車里","LIN":"3鄰","STREET":"大同街","SECT":" ","MAREA":" ","LANE":" ","ALLEY":" ","HOUSE_NO":"１１號五樓","E_COORD97":172814.04999999999,"N_COORD97":2565197.52,"ADDRESS":"大同街１１號五樓","OBJECTID":611663},"geometry":{"x":172814.05000000075,"y":2565197.5200000014}},{"attributes":{"ID":611691,"DIS_CODE":0,"TOWNNAME":"新化區","LI":"護國里","LIN":"5鄰","STREET":"中山路","SECT":" ","MAREA":" ","LANE":" ","ALLEY":" ","HOUSE_NO":"１８８號之３","E_COORD97":179203.06,"N_COORD97":2548472.2599999998,"ADDRESS":"中山路１８８號之３","OBJECTID":611664},"geometry":{"x":179203.06000000052,"y":2548472.2599999998}},{"attributes":{"ID":611692,"DIS_CODE":0,"TOWNNAME":"麻豆區","LI":"油車里","LIN":"3鄰","STREET":"大同街","SECT":" ","MAREA":" ","LANE":" ","ALLEY":" ","HOUSE_NO":"１１號六樓","E_COORD97":172814.04999999999,"N_COORD97":2565197.52,"ADDRESS":"大同街１１號六樓","OBJECTID":611665},"geometry":{"x":172814.05000000075,"y":2565197.5200000014}},{"attributes":{"ID":611693,"DIS_CODE":0,"TOWNNAME":"麻豆區","LI":"油車里","LIN":"3鄰","STREET":"大同街","SECT":" ","MAREA":" ","LANE":" ","ALLEY":" ","HOUSE_NO":"１１號四樓","E_COORD97":172814.04999999999,"N_COORD97":2565197.52,"ADDRESS":"大同街１１號四樓","OBJECTID":611666},"geometry":{"x":172814.05000000075,"y":2565197.5200000014}},{"attributes":{"ID":611694,"DIS_CODE":0,"TOWNNAME":"麻豆區","LI":"油車里","LIN":"3鄰","STREET":"大同街","SECT":" ","MAREA":" ","LANE":" ","ALLEY":" ","HOUSE_NO":"１１號之１七樓","E_COORD97":172815.76000000001,"N_COORD97":2565206.8399999999,"ADDRESS":"大同街１１號之１七樓","OBJECTID":611667},"geometry":{"x":172815.76000000071,"y":2565206.8399999999}},{"attributes":{"ID":611695,"DIS_CODE":0,"TOWNNAME":"麻豆區","LI":"油車里","LIN":"3鄰","STREET":"大同街","SECT":" ","MAREA":" ","LANE":" ","ALLEY":" ","HOUSE_NO":"１１號之１三樓","E_COORD97":172815.76000000001,"N_COORD97":2565206.8399999999,"ADDRESS":"大同街１１號之１三樓","OBJECTID":611668},"geometry":{"x":172815.76000000071,"y":2565206.8399999999}},{"attributes":{"ID":611696,"DIS_CODE":0,"TOWNNAME":"麻豆區","LI":"油車里","LIN":"3鄰","STREET":"大同街","SECT":" ","MAREA":" ","LANE":" ","ALLEY":" ","HOUSE_NO":"１１號之１五樓","E_COORD97":172815.76000000001,"N_COORD97":2565206.8399999999,"ADDRESS":"大同街１１號之１五樓","OBJECTID":611669},"geometry":{"x":172815.76000000071,"y":2565206.8399999999}},{"attributes":{"ID":611697,"DIS_CODE":0,"TOWNNAME":"麻豆區","LI":"油車里","LIN":"3鄰","STREET":"大同街","SECT":" ","MAREA":" ","LANE":" ","ALLEY":" ","HOUSE_NO":"１１號之１六樓","E_COORD97":172815.76000000001,"N_COORD97":2565206.8399999999,"ADDRESS":"大同街１１號之１六樓","OBJECTID":611670},"geometry":{"x":172815.76000000071,"y":2565206.8399999999}},{"attributes":{"ID":611698,"DIS_CODE":0,"TOWNNAME":"麻豆區","LI":"油車里","LIN":"3鄰","STREET":"大同街","SECT":" ","MAREA":" ","LANE":" ","ALLEY":" ","HOUSE_NO":"１１號之１四樓","E_COORD97":172815.76000000001,"N_COORD97":2565206.8399999999,"ADDRESS":"大同街１１號之１四樓","OBJECTID":611671},"geometry":{"x":172815.76000000071,"y":2565206.8399999999}},{"attributes":{"ID":611699,"DIS_CODE":0,"TOWNNAME":"麻豆區","LI":"油車里","LIN":"3鄰","STREET":"大同街","SECT":" ","MAREA":" ","LANE":" ","ALLEY":" ","HOUSE_NO":"１１號之２七樓","E_COORD97":172817.51999999999,"N_COORD97":2565214.1299999999,"ADDRESS":"大同街１１號之２七樓","OBJECTID":611672},"geometry":{"x":172817.52000000048,"y":2565214.129999999}},{"attributes":{"ID":611700,"DIS_CODE":0,"TOWNNAME":"麻豆區","LI":"油車里","LIN":"3鄰","STREET":"大同街","SECT":" ","MAREA":" ","LANE":" ","ALLEY":" ","HOUSE_NO":"１１號之２三樓","E_COORD97":172817.51999999999,"N_COORD97":2565214.1299999999,"ADDRESS":"大同街１１號之２三樓","OBJECTID":611673},"geometry":{"x":172817.52000000048,"y":2565214.129999999}},{"attributes":{"ID":611701,"DIS_CODE":0,"TOWNNAME":"麻豆區","LI":"油車里","LIN":"3鄰","STREET":"大同街","SECT":" ","MAREA":" ","LANE":" ","ALLEY":" ","HOUSE_NO":"１１號之２五樓","E_COORD97":172817.51999999999,"N_COORD97":2565214.1299999999,"ADDRESS":"大同街１１號之２五樓","OBJECTID":611674},"geometry":{"x":172817.52000000048,"y":2565214.129999999}},{"attributes":{"ID":611702,"DIS_CODE":0,"TOWNNAME":"麻豆區","LI":"油車里","LIN":"3鄰","STREET":"大同街","SECT":" ","MAREA":" ","LANE":" ","ALLEY":" ","HOUSE_NO":"１１號之２六樓","E_COORD97":172817.51999999999,"N_COORD97":2565214.1299999999,"ADDRESS":"大同街１１號之２六樓","OBJECTID":611675},"geometry":{"x":172817.52000000048,"y":2565214.129999999}},{"attributes":{"ID":611703,"DIS_CODE":0,"TOWNNAME":"麻豆區","LI":"油車里","LIN":"3鄰","STREET":"大同街","SECT":" ","MAREA":" ","LANE":" ","ALLEY":" ","HOUSE_NO":"１１號之２四樓","E_COORD97":172817.51999999999,"N_COORD97":2565214.1299999999,"ADDRESS":"大同街１１號之２四樓","OBJECTID":611676},"geometry":{"x":172817.52000000048,"y":2565214.129999999}},{"attributes":{"ID":611704,"DIS_CODE":0,"TOWNNAME":"麻豆區","LI":"油車里","LIN":"3鄰","STREET":"大同街","SECT":" ","MAREA":" ","LANE":" ","ALLEY":" ","HOUSE_NO":"１１號之３七樓","E_COORD97":172806.76000000001,"N_COORD97":2565215.96,"ADDRESS":"大同街１１號之３七樓","OBJECTID":611677},"geometry":{"x":172806.75999999978,"y":2565215.9600000028}},{"attributes":{"ID":611705,"DIS_CODE":0,"TOWNNAME":"麻豆區","LI":"油車里","LIN":"3鄰","STREET":"大同街","SECT":" ","MAREA":" ","LANE":" ","ALLEY":" ","HOUSE_NO":"１１號之３二樓","E_COORD97":172806.76000000001,"N_COORD97":2565215.96,"ADDRESS":"大同街１１號之３二樓","OBJECTID":611678},"geometry":{"x":172806.75999999978,"y":2565215.9600000028}},{"attributes":{"ID":611706,"DIS_CODE":0,"TOWNNAME":"麻豆區","LI":"油車里","LIN":"3鄰","STREET":"大同街","SECT":" ","MAREA":" ","LANE":" ","ALLEY":" ","HOUSE_NO":"１１號之３三樓","E_COORD97":172806.76000000001,"N_COORD97":2565215.96,"ADDRESS":"大同街１１號之３三樓","OBJECTID":611679},"geometry":{"x":172806.75999999978,"y":2565215.9600000028}},{"attributes":{"ID":611707,"DIS_CODE":0,"TOWNNAME":"麻豆區","LI":"油車里","LIN":"3鄰","STREET":"大同街","SECT":" ","MAREA":" ","LANE":" ","ALLEY":" ","HOUSE_NO":"１１號之３五樓","E_COORD97":172806.76000000001,"N_COORD97":2565215.96,"ADDRESS":"大同街１１號之３五樓","OBJECTID":611680},"geometry":{"x":172806.75999999978,"y":2565215.9600000028}},{"attributes":{"ID":611708,"DIS_CODE":0,"TOWNNAME":"麻豆區","LI":"油車里","LIN":"3鄰","STREET":"大同街","SECT":" ","MAREA":" ","LANE":" ","ALLEY":" ","HOUSE_NO":"１１號之３六樓","E_COORD97":172806.76000000001,"N_COORD97":2565215.96,"ADDRESS":"大同街１１號之３六樓","OBJECTID":611681},"geometry":{"x":172806.75999999978,"y":2565215.9600000028}},{"attributes":{"ID":611709,"DIS_CODE":0,"TOWNNAME":"麻豆區","LI":"油車里","LIN":"3鄰","STREET":"大同街","SECT":" ","MAREA":" ","LANE":" ","ALLEY":" ","HOUSE_NO":"１１號之３四樓","E_COORD97":172806.76000000001,"N_COORD97":2565215.96,"ADDRESS":"大同街１１號之３四樓","OBJECTID":611682},"geometry":{"x":172806.75999999978,"y":2565215.9600000028}},{"attributes":{"ID":611710,"DIS_CODE":0,"TOWNNAME":"麻豆區","LI":"油車里","LIN":"3鄰","STREET":"大同街","SECT":" ","MAREA":" ","LANE":" ","ALLEY":" ","HOUSE_NO":"１１號之４七樓","E_COORD97":172794.66,"N_COORD97":2565215.8100000001,"ADDRESS":"大同街１１號之４七樓","OBJECTID":611683},"geometry":{"x":172794.66000000108,"y":2565215.8099999987}},{"attributes":{"ID":611711,"DIS_CODE":0,"TOWNNAME":"麻豆區","LI":"油車里","LIN":"3鄰","STREET":"大同街","SECT":" ","MAREA":" ","LANE":" ","ALLEY":" ","HOUSE_NO":"１１號之４二樓","E_COORD97":172794.66,"N_COORD97":2565215.8100000001,"ADDRESS":"大同街１１號之４二樓","OBJECTID":611684},"geometry":{"x":172794.66000000108,"y":2565215.8099999987}},{"attributes":{"ID":611712,"DIS_CODE":0,"TOWNNAME":"麻豆區","LI":"油車里","LIN":"3鄰","STREET":"大同街","SECT":" ","MAREA":" ","LANE":" ","ALLEY":" ","HOUSE_NO":"１１號之４三樓","E_COORD97":172794.66,"N_COORD97":2565215.8100000001,"ADDRESS":"大同街１１號之４三樓","OBJECTID":611685},"geometry":{"x":172794.66000000108,"y":2565215.8099999987}},{"attributes":{"ID":611713,"DIS_CODE":0,"TOWNNAME":"麻豆區","LI":"油車里","LIN":"3鄰","STREET":"大同街","SECT":" ","MAREA":" ","LANE":" ","ALLEY":" ","HOUSE_NO":"１１號之４五樓","E_COORD97":172794.66,"N_COORD97":2565215.8100000001,"ADDRESS":"大同街１１號之４五樓","OBJECTID":611686},"geometry":{"x":172794.66000000108,"y":2565215.8099999987}},{"attributes":{"ID":611714,"DIS_CODE":0,"TOWNNAME":"麻豆區","LI":"油車里","LIN":"3鄰","STREET":"大同街","SECT":" ","MAREA":" ","LANE":" ","ALLEY":" ","HOUSE_NO":"１１號之４六樓","E_COORD97":172794.66,"N_COORD97":2565215.8100000001,"ADDRESS":"大同街１１號之４六樓","OBJECTID":611687},"geometry":{"x":172794.66000000108,"y":2565215.8099999987}},{"attributes":{"ID":611715,"DIS_CODE":0,"TOWNNAME":"麻豆區","LI":"油車里","LIN":"3鄰","STREET":"大同街","SECT":" ","MAREA":" ","LANE":" ","ALLEY":" ","HOUSE_NO":"１１號之４四樓","E_COORD97":172794.66,"N_COORD97":2565215.8100000001,"ADDRESS":"大同街１１號之４四樓","OBJECTID":611688},"geometry":{"x":172794.66000000108,"y":2565215.8099999987}},{"attributes":{"ID":611716,"DIS_CODE":0,"TOWNNAME":"麻豆區","LI":"油車里","LIN":"3鄰","STREET":"大同街","SECT":" ","MAREA":" ","LANE":" ","ALLEY":" ","HOUSE_NO":"１１號之５七樓","E_COORD97":172785.95999999999,"N_COORD97":2565215.8100000001,"ADDRESS":"大同街１１號之５七樓","OBJECTID":611689},"geometry":{"x":172785.96000000089,"y":2565215.8099999987}},{"attributes":{"ID":611717,"DIS_CODE":0,"TOWNNAME":"麻豆區","LI":"油車里","LIN":"3鄰","STREET":"大同街","SECT":" ","MAREA":" ","LANE":" ","ALLEY":" ","HOUSE_NO":"１１號之５二樓","E_COORD97":172785.95999999999,"N_COORD97":2565215.8100000001,"ADDRESS":"大同街１１號之５二樓","OBJECTID":611690},"geometry":{"x":172785.96000000089,"y":2565215.8099999987}},{"attributes":{"ID":611718,"DIS_CODE":0,"TOWNNAME":"麻豆區","LI":"油車里","LIN":"3鄰","STREET":"大同街","SECT":" ","MAREA":" ","LANE":" ","ALLEY":" ","HOUSE_NO":"１１號之５三樓","E_COORD97":172785.95999999999,"N_COORD97":2565215.8100000001,"ADDRESS":"大同街１１號之５三樓","OBJECTID":611691},"geometry":{"x":172785.96000000089,"y":2565215.8099999987}},{"attributes":{"ID":611719,"DIS_CODE":0,"TOWNNAME":"麻豆區","LI":"油車里","LIN":"3鄰","STREET":"大同街","SECT":" ","MAREA":" ","LANE":" ","ALLEY":" ","HOUSE_NO":"１１號之５五樓","E_COORD97":172785.95999999999,"N_COORD97":2565215.8100000001,"ADDRESS":"大同街１１號之５五樓","OBJECTID":611692},"geometry":{"x":172785.96000000089,"y":2565215.8099999987}},{"attributes":{"ID":611720,"DIS_CODE":0,"TOWNNAME":"麻豆區","LI":"油車里","LIN":"3鄰","STREET":"大同街","SECT":" ","MAREA":" ","LANE":" ","ALLEY":" ","HOUSE_NO":"１１號之５六樓","E_COORD97":172785.95999999999,"N_COORD97":2565215.8100000001,"ADDRESS":"大同街１１號之５六樓","OBJECTID":611693},"geometry":{"x":172785.96000000089,"y":2565215.8099999987}},{"attributes":{"ID":611721,"DIS_CODE":0,"TOWNNAME":"麻豆區","LI":"油車里","LIN":"3鄰","STREET":"大同街","SECT":" ","MAREA":" ","LANE":" ","ALLEY":" ","HOUSE_NO":"１１號之５四樓","E_COORD97":172785.95999999999,"N_COORD97":2565215.8100000001,"ADDRESS":"大同街１１號之５四樓","OBJECTID":611694},"geometry":{"x":172785.96000000089,"y":2565215.8099999987}},{"attributes":{"ID":611722,"DIS_CODE":0,"TOWNNAME":"麻豆區","LI":"油車里","LIN":"3鄰","STREET":"大同街","SECT":" ","MAREA":" ","LANE":" ","ALLEY":" ","HOUSE_NO":"１１號之６七樓","E_COORD97":172776.14000000001,"N_COORD97":2565216.21,"ADDRESS":"大同街１１號之６七樓","OBJECTID":611695},"geometry":{"x":172776.1400000006,"y":2565216.2100000009}},{"attributes":{"ID":611723,"DIS_CODE":0,"TOWNNAME":"麻豆區","LI":"油車里","LIN":"3鄰","STREET":"大同街","SECT":" ","MAREA":" ","LANE":" ","ALLEY":" ","HOUSE_NO":"１１號之６二樓","E_COORD97":172776.14000000001,"N_COORD97":2565216.21,"ADDRESS":"大同街１１號之６二樓","OBJECTID":611696},"geometry":{"x":172776.1400000006,"y":2565216.2100000009}},{"attributes":{"ID":611724,"DIS_CODE":0,"TOWNNAME":"麻豆區","LI":"油車里","LIN":"3鄰","STREET":"大同街","SECT":" ","MAREA":" ","LANE":" ","ALLEY":" ","HOUSE_NO":"１１號之６三樓","E_COORD97":172776.14000000001,"N_COORD97":2565216.21,"ADDRESS":"大同街１１號之６三樓","OBJECTID":611697},"geometry":{"x":172776.1400000006,"y":2565216.2100000009}},{"attributes":{"ID":611725,"DIS_CODE":0,"TOWNNAME":"麻豆區","LI":"油車里","LIN":"3鄰","STREET":"大同街","SECT":" ","MAREA":" ","LANE":" ","ALLEY":" ","HOUSE_NO":"１１號之６五樓","E_COORD97":172776.14000000001,"N_COORD97":2565216.21,"ADDRESS":"大同街１１號之６五樓","OBJECTID":611698},"geometry":{"x":172776.1400000006,"y":2565216.2100000009}},{"attributes":{"ID":611726,"DIS_CODE":0,"TOWNNAME":"麻豆區","LI":"油車里","LIN":"3鄰","STREET":"大同街","SECT":" ","MAREA":" ","LANE":" ","ALLEY":" ","HOUSE_NO":"１１號之６六樓","E_COORD97":172776.14000000001,"N_COORD97":2565216.21,"ADDRESS":"大同街１１號之６六樓","OBJECTID":611699},"geometry":{"x":172776.1400000006,"y":2565216.2100000009}},{"attributes":{"ID":611727,"DIS_CODE":0,"TOWNNAME":"麻豆區","LI":"油車里","LIN":"3鄰","STREET":"大同街","SECT":" ","MAREA":" ","LANE":" ","ALLEY":" ","HOUSE_NO":"１１號之６四樓","E_COORD97":172776.14000000001,"N_COORD97":2565216.21,"ADDRESS":"大同街１１號之６四樓","OBJECTID":611700},"geometry":{"x":172776.1400000006,"y":2565216.2100000009}},{"attributes":{"ID":611728,"DIS_CODE":0,"TOWNNAME":"麻豆區","LI":"油車里","LIN":"3鄰","STREET":"大同街","SECT":" ","MAREA":" ","LANE":" ","ALLEY":" ","HOUSE_NO":"１１號之７七樓","E_COORD97":172782.73999999999,"N_COORD97":2565201.8300000001,"ADDRESS":"大同街１１號之７七樓","OBJECTID":611701},"geometry":{"x":172782.74000000115,"y":2565201.8300000038}},{"attributes":{"ID":611729,"DIS_CODE":0,"TOWNNAME":"麻豆區","LI":"油車里","LIN":"3鄰","STREET":"大同街","SECT":" ","MAREA":" ","LANE":" ","ALLEY":" ","HOUSE_NO":"１１號之７二樓","E_COORD97":172782.73999999999,"N_COORD97":2565201.8300000001,"ADDRESS":"大同街１１號之７二樓","OBJECTID":611702},"geometry":{"x":172782.74000000115,"y":2565201.8300000038}},{"attributes":{"ID":611730,"DIS_CODE":0,"TOWNNAME":"麻豆區","LI":"油車里","LIN":"3鄰","STREET":"大同街","SECT":" ","MAREA":" ","LANE":" ","ALLEY":" ","HOUSE_NO":"１１號之７三樓","E_COORD97":172782.73999999999,"N_COORD97":2565201.8300000001,"ADDRESS":"大同街１１號之７三樓","OBJECTID":611703},"geometry":{"x":172782.74000000115,"y":2565201.8300000038}},{"attributes":{"ID":611731,"DIS_CODE":0,"TOWNNAME":"麻豆區","LI":"油車里","LIN":"3鄰","STREET":"大同街","SECT":" ","MAREA":" ","LANE":" ","ALLEY":" ","HOUSE_NO":"１１號之７五樓","E_COORD97":172782.73999999999,"N_COORD97":2565201.8300000001,"ADDRESS":"大同街１１號之７五樓","OBJECTID":611704},"geometry":{"x":172782.74000000115,"y":2565201.8300000038}},{"attributes":{"ID":611732,"DIS_CODE":0,"TOWNNAME":"麻豆區","LI":"油車里","LIN":"3鄰","STREET":"大同街","SECT":" ","MAREA":" ","LANE":" ","ALLEY":" ","HOUSE_NO":"１１號之７六樓","E_COORD97":172782.73999999999,"N_COORD97":2565201.8300000001,"ADDRESS":"大同街１１號之７六樓","OBJECTID":611705},"geometry":{"x":172782.74000000115,"y":2565201.8300000038}},{"attributes":{"ID":611733,"DIS_CODE":0,"TOWNNAME":"麻豆區","LI":"油車里","LIN":"3鄰","STREET":"大同街","SECT":" ","MAREA":" ","LANE":" ","ALLEY":" ","HOUSE_NO":"１１號之７四樓","E_COORD97":172782.73999999999,"N_COORD97":2565201.8300000001,"ADDRESS":"大同街１１號之７四樓","OBJECTID":611706},"geometry":{"x":172782.74000000115,"y":2565201.8300000038}},{"attributes":{"ID":611734,"DIS_CODE":0,"TOWNNAME":"麻豆區","LI":"油車里","LIN":"3鄰","STREET":"大同街","SECT":" ","MAREA":" ","LANE":" ","ALLEY":" ","HOUSE_NO":"１１號七樓","E_COORD97":172814.04999999999,"N_COORD97":2565197.52,"ADDRESS":"大同街１１號七樓","OBJECTID":611707},"geometry":{"x":172814.05000000075,"y":2565197.5200000014}},{"attributes":{"ID":611735,"DIS_CODE":0,"TOWNNAME":"麻豆區","LI":"油車里","LIN":"3鄰","STREET":"大同街","SECT":" ","MAREA":" ","LANE":" ","ALLEY":" ","HOUSE_NO":"１１號三樓","E_COORD97":172814.04999999999,"N_COORD97":2565197.52,"ADDRESS":"大同街１１號三樓","OBJECTID":611708},"geometry":{"x":172814.05000000075,"y":2565197.5200000014}},{"attributes":{"ID":611736,"DIS_CODE":0,"TOWNNAME":"永康區","LI":"蔦松里","LIN":"3鄰","STREET":"中正北路","SECT":" ","MAREA":" ","LANE":" ","ALLEY":" ","HOUSE_NO":"６１７號六樓之１","E_COORD97":174034.82000000001,"N_COORD97":2549299.29,"ADDRESS":"中正北路６１７號六樓之１","OBJECTID":611709},"geometry":{"x":174034.82000000123,"y":2549299.2899999991}},{"attributes":{"ID":611737,"DIS_CODE":0,"TOWNNAME":"永康區","LI":"蔦松里","LIN":"3鄰","STREET":"中正北路","SECT":" ","MAREA":" ","LANE":" ","ALLEY":" ","HOUSE_NO":"６１９號八樓之１","E_COORD97":174017.48000000001,"N_COORD97":2549303.29,"ADDRESS":"中正北路６１９號八樓之１","OBJECTID":611710},"geometry":{"x":174017.48000000045,"y":2549303.2899999972}},{"attributes":{"ID":611738,"DIS_CODE":0,"TOWNNAME":"永康區","LI":"蔦松里","LIN":"3鄰","STREET":"中正北路","SECT":" ","MAREA":" ","LANE":" ","ALLEY":" ","HOUSE_NO":"６１９號四樓之２","E_COORD97":174017.60999999999,"N_COORD97":2549303.29,"ADDRESS":"中正北路６１９號四樓之２","OBJECTID":611711},"geometry":{"x":174017.61000000127,"y":2549303.2899999972}},{"attributes":{"ID":611739,"DIS_CODE":0,"TOWNNAME":"永康區","LI":"蔦松里","LIN":"3鄰","STREET":"中正北路","SECT":" ","MAREA":" ","LANE":" ","ALLEY":" ","HOUSE_NO":"６１９號九樓之２","E_COORD97":174017.60999999999,"N_COORD97":2549303.29,"ADDRESS":"中正北路６１９號九樓之２","OBJECTID":611712},"geometry":{"x":174017.61000000127,"y":2549303.2899999972}},{"attributes":{"ID":611740,"DIS_CODE":0,"TOWNNAME":"永康區","LI":"蔦松里","LIN":"3鄰","STREET":"中正北路","SECT":" ","MAREA":" ","LANE":" ","ALLEY":" ","HOUSE_NO":"６１９號七樓之２","E_COORD97":174017.60999999999,"N_COORD97":2549303.29,"ADDRESS":"中正北路６１９號七樓之２","OBJECTID":611713},"geometry":{"x":174017.61000000127,"y":2549303.2899999972}},{"attributes":{"ID":611741,"DIS_CODE":0,"TOWNNAME":"永康區","LI":"蔦松里","LIN":"3鄰","STREET":"中正北路","SECT":" ","MAREA":" ","LANE":" ","ALLEY":" ","HOUSE_NO":"６１９號九樓之１","E_COORD97":174017.48000000001,"N_COORD97":2549303.29,"ADDRESS":"中正北路６１９號九樓之１","OBJECTID":611714},"geometry":{"x":174017.48000000045,"y":2549303.2899999972}},{"attributes":{"ID":611742,"DIS_CODE":0,"TOWNNAME":"永康區","LI":"蔦松里","LIN":"3鄰","STREET":"中正北路","SECT":" ","MAREA":" ","LANE":" ","ALLEY":" ","HOUSE_NO":"６１９號八樓之３","E_COORD97":174017.57999999999,"N_COORD97":2549303.29,"ADDRESS":"中正北路６１９號八樓之３","OBJECTID":611715},"geometry":{"x":174017.58000000101,"y":2549303.2899999972}},{"attributes":{"ID":611743,"DIS_CODE":0,"TOWNNAME":"永康區","LI":"蔦松里","LIN":"3鄰","STREET":"中正北路","SECT":" ","MAREA":" ","LANE":" ","ALLEY":" ","HOUSE_NO":"６１７號十樓之３","E_COORD97":174034.92000000001,"N_COORD97":2549299.29,"ADDRESS":"中正北路６１７號十樓之３","OBJECTID":611716},"geometry":{"x":174034.91999999899,"y":2549299.2899999991}},{"attributes":{"ID":611744,"DIS_CODE":0,"TOWNNAME":"永康區","LI":"蔦松里","LIN":"3鄰","STREET":"中正北路","SECT":" ","MAREA":" ","LANE":" ","ALLEY":" ","HOUSE_NO":"６１９號十一樓之１","E_COORD97":174018.73000000001,"N_COORD97":2549303.29,"ADDRESS":"中正北路６１９號十一樓之１","OBJECTID":611717},"geometry":{"x":174018.73000000138,"y":2549303.2899999972}},{"attributes":{"ID":611745,"DIS_CODE":0,"TOWNNAME":"東區","LI":"東明里","LIN":"3鄰","STREET":"怡東路","SECT":" ","MAREA":" ","LANE":" ","ALLEY":" ","HOUSE_NO":"６４號四樓","E_COORD97":170854.67999999999,"N_COORD97":2543609.8900000001,"ADDRESS":"怡東路６４號四樓","OBJECTID":611718},"geometry":{"x":170854.68000000156,"y":2543609.8900000025}},{"attributes":{"ID":611746,"DIS_CODE":0,"TOWNNAME":"永康區","LI":"大橋里","LIN":"3鄰","STREET":"大橋三街","SECT":" ","MAREA":" ","LANE":" ","ALLEY":" ","HOUSE_NO":"１４４號","E_COORD97":170801.19,"N_COORD97":2546725.75,"ADDRESS":"大橋三街１４４號","OBJECTID":611719},"geometry":{"x":170801.19000000134,"y":2546725.7500000019}},{"attributes":{"ID":611747,"DIS_CODE":0,"TOWNNAME":"永康區","LI":"大橋里","LIN":"3鄰","STREET":"大橋三街","SECT":" ","MAREA":" ","LANE":" ","ALLEY":" ","HOUSE_NO":"１１８號","E_COORD97":170747.73999999999,"N_COORD97":2546677.9900000002,"ADDRESS":"大橋三街１１８號","OBJECTID":611720},"geometry":{"x":170747.74000000022,"y":2546677.9900000002}},{"attributes":{"ID":611748,"DIS_CODE":0,"TOWNNAME":"東區","LI":"崇德里","LIN":"3鄰","STREET":"崇德六街","SECT":" ","MAREA":" ","LANE":" ","ALLEY":" ","HOUSE_NO":"６１號","E_COORD97":170790.64000000001,"N_COORD97":2541834.9399999999,"ADDRESS":"崇德六街６１號","OBJECTID":611721},"geometry":{"x":170790.6400000006,"y":2541834.9400000013}},{"attributes":{"ID":611749,"DIS_CODE":0,"TOWNNAME":"東區","LI":"富強里","LIN":"3鄰","STREET":"中華東路","SECT":"二段","MAREA":" ","LANE":" ","ALLEY":" ","HOUSE_NO":"３２號","E_COORD97":171384.70999999999,"N_COORD97":2543063.6299999999,"ADDRESS":"中華東路二段３２號","OBJECTID":611722},"geometry":{"x":171384.70999999996,"y":2543063.6300000008}},{"attributes":{"ID":611750,"DIS_CODE":0,"TOWNNAME":"東區","LI":"富強里","LIN":"3鄰","STREET":"中華東路","SECT":"二段","MAREA":" ","LANE":" ","ALLEY":" ","HOUSE_NO":"６號","E_COORD97":171395.62,"N_COORD97":2543151.3500000001,"ADDRESS":"中華東路二段６號","OBJECTID":611723},"geometry":{"x":171395.62000000011,"y":2543151.3500000015}},{"attributes":{"ID":611751,"DIS_CODE":0,"TOWNNAME":"東區","LI":"泉南里","LIN":"3鄰","STREET":"府東街","SECT":" ","MAREA":" ","LANE":" ","ALLEY":" ","HOUSE_NO":"１４６號","E_COORD97":169586.70999999999,"N_COORD97":2543040.52,"ADDRESS":"府東街１４６號","OBJECTID":611724},"geometry":{"x":169586.71000000183,"y":2543040.5200000033}},{"attributes":{"ID":611752,"DIS_CODE":0,"TOWNNAME":"東區","LI":"泉南里","LIN":"3鄰","STREET":"府東街","SECT":" ","MAREA":" ","LANE":" ","ALLEY":" ","HOUSE_NO":"１４８號","E_COORD97":169583.39999999999,"N_COORD97":2543042.3300000001,"ADDRESS":"府東街１４８號","OBJECTID":611725},"geometry":{"x":169583.40000000037,"y":2543042.3300000038}},{"attributes":{"ID":611753,"DIS_CODE":0,"TOWNNAME":"東區","LI":"泉南里","LIN":"3鄰","STREET":"府東街","SECT":" ","MAREA":" ","LANE":" ","ALLEY":" ","HOUSE_NO":"１５２號","E_COORD97":169585.45000000001,"N_COORD97":2543052.7200000002,"ADDRESS":"府東街１５２號","OBJECTID":611726},"geometry":{"x":169585.45000000112,"y":2543052.7200000007}},{"attributes":{"ID":611754,"DIS_CODE":0,"TOWNNAME":"東區","LI":"泉南里","LIN":"3鄰","STREET":"府東街","SECT":" ","MAREA":" ","LANE":" ","ALLEY":" ","HOUSE_NO":"１５４號","E_COORD97":169587.57999999999,"N_COORD97":2543055.6400000001,"ADDRESS":"府東街１５４號","OBJECTID":611727},"geometry":{"x":169587.58000000194,"y":2543055.6400000025}},{"attributes":{"ID":611755,"DIS_CODE":0,"TOWNNAME":"東區","LI":"泉南里","LIN":"3鄰","STREET":"府東街","SECT":" ","MAREA":" ","LANE":" ","ALLEY":" ","HOUSE_NO":"１５６號","E_COORD97":169589.78,"N_COORD97":2543059.1800000002,"ADDRESS":"府東街１５６號","OBJECTID":611728},"geometry":{"x":169589.77999999933,"y":2543059.1799999997}},{"attributes":{"ID":611756,"DIS_CODE":0,"TOWNNAME":"東區","LI":"泉南里","LIN":"3鄰","STREET":"府東街","SECT":" ","MAREA":" ","LANE":" ","ALLEY":" ","HOUSE_NO":"１５８號","E_COORD97":169589.31,"N_COORD97":2543068.8599999999,"ADDRESS":"府東街１５８號","OBJECTID":611729},"geometry":{"x":169589.31000000052,"y":2543068.8600000013}},{"attributes":{"ID":611757,"DIS_CODE":0,"TOWNNAME":"中西區","LI":"文賢里","LIN":"3鄰","STREET":"文和街","SECT":" ","MAREA":" ","LANE":" ","ALLEY":" ","HOUSE_NO":"９１號","E_COORD97":167153.54999999999,"N_COORD97":2544835.8999999999,"ADDRESS":"文和街９１號","OBJECTID":611730},"geometry":{"x":167153.55000000075,"y":2544835.9000000022}},{"attributes":{"ID":611758,"DIS_CODE":0,"TOWNNAME":"中西區","LI":"文賢里","LIN":"3鄰","STREET":"文和街","SECT":" ","MAREA":" ","LANE":" ","ALLEY":" ","HOUSE_NO":"９５號","E_COORD97":167146.57000000001,"N_COORD97":2544829.6600000001,"ADDRESS":"文和街９５號","OBJECTID":611731},"geometry":{"x":167146.5700000003,"y":2544829.6600000001}},{"attributes":{"ID":611759,"DIS_CODE":0,"TOWNNAME":"永康區","LI":"大橋里","LIN":"3鄰","STREET":"大橋三街","SECT":" ","MAREA":" ","LANE":" ","ALLEY":" ","HOUSE_NO":"１４６號","E_COORD97":170807.10000000001,"N_COORD97":2546726.5,"ADDRESS":"大橋三街１４６號","OBJECTID":611732},"geometry":{"x":170807.09999999963,"y":2546726.5000000037}},{"attributes":{"ID":611760,"DIS_CODE":0,"TOWNNAME":"永康區","LI":"大橋里","LIN":"3鄰","STREET":"大橋三街","SECT":" ","MAREA":" ","LANE":" ","ALLEY":" ","HOUSE_NO":"１１２號","E_COORD97":170734.04000000001,"N_COORD97":2546665.4900000002,"ADDRESS":"大橋三街１１２號","OBJECTID":611733},"geometry":{"x":170734.04000000097,"y":2546665.4899999984}},{"attributes":{"ID":611761,"DIS_CODE":0,"TOWNNAME":"永康區","LI":"大橋里","LIN":"3鄰","STREET":"大橋三街","SECT":" ","MAREA":" ","LANE":" ","ALLEY":" ","HOUSE_NO":"１２０號","E_COORD97":170750.75,"N_COORD97":2546684.9900000002,"ADDRESS":"大橋三街１２０號","OBJECTID":611734},"geometry":{"x":170750.75,"y":2546684.9900000002}},{"attributes":{"ID":611762,"DIS_CODE":0,"TOWNNAME":"永康區","LI":"復國里","LIN":"3鄰","STREET":"復國一路","SECT":" ","MAREA":" ","LANE":" ","ALLEY":" ","HOUSE_NO":"１８號","E_COORD97":172727.60000000001,"N_COORD97":2544731.27,"ADDRESS":"復國一路１８號","OBJECTID":611735},"geometry":{"x":172727.59999999963,"y":2544731.2700000014}},{"attributes":{"ID":611763,"DIS_CODE":0,"TOWNNAME":"永康區","LI":"復國里","LIN":"3鄰","STREET":"復國一路","SECT":" ","MAREA":" ","LANE":" ","ALLEY":" ","HOUSE_NO":"２６號","E_COORD97":172726.32000000001,"N_COORD97":2544747.0299999998,"ADDRESS":"復國一路２６號","OBJECTID":611736},"geometry":{"x":172726.32000000123,"y":2544747.0300000012}},{"attributes":{"ID":611764,"DIS_CODE":0,"TOWNNAME":"仁德區","LI":"仁德里","LIN":"3鄰","STREET":"仁中六街","SECT":" ","MAREA":" ","LANE":" ","ALLEY":" ","HOUSE_NO":"６１號","E_COORD97":173345.37,"N_COORD97":2540380.9900000002,"ADDRESS":"仁中六街６１號","OBJECTID":611737},"geometry":{"x":173345.37000000011,"y":2540380.9900000021}},{"attributes":{"ID":611765,"DIS_CODE":0,"TOWNNAME":"仁德區","LI":"仁德里","LIN":"3鄰","STREET":"仁中七街","SECT":" ","MAREA":" ","LANE":" ","ALLEY":" ","HOUSE_NO":"１３８號","E_COORD97":173288.76000000001,"N_COORD97":2540360.25,"ADDRESS":"仁中七街１３８號","OBJECTID":611738},"geometry":{"x":173288.76000000071,"y":2540360.25}},{"attributes":{"ID":611766,"DIS_CODE":0,"TOWNNAME":"仁德區","LI":"仁德里","LIN":"3鄰","STREET":"仁中七街","SECT":" ","MAREA":" ","LANE":" ","ALLEY":" ","HOUSE_NO":"１４０號","E_COORD97":173284.45999999999,"N_COORD97":2540360.25,"ADDRESS":"仁中七街１４０號","OBJECTID":611739},"geometry":{"x":173284.46000000089,"y":2540360.25}},{"attributes":{"ID":611767,"DIS_CODE":0,"TOWNNAME":"仁德區","LI":"仁德里","LIN":"3鄰","STREET":"仁中六街","SECT":" ","MAREA":" ","LANE":" ","ALLEY":" ","HOUSE_NO":"７９號","E_COORD97":173306.22,"N_COORD97":2540390.9900000002,"ADDRESS":"仁中六街７９號","OBJECTID":611740},"geometry":{"x":173306.22000000067,"y":2540390.9900000021}},{"attributes":{"ID":611768,"DIS_CODE":0,"TOWNNAME":"仁德區","LI":"保安里","LIN":"3鄰","STREET":"文賢路","SECT":"一段","MAREA":" ","LANE":" ","ALLEY":" ","HOUSE_NO":"５６９號","E_COORD97":171137.67000000001,"N_COORD97":2536859.3199999998,"ADDRESS":"文賢路一段５６９號","OBJECTID":611741},"geometry":{"x":171137.66999999993,"y":2536859.3200000022}},{"attributes":{"ID":611769,"DIS_CODE":0,"TOWNNAME":"仁德區","LI":"仁德里","LIN":"3鄰","STREET":"仁中六街","SECT":" ","MAREA":" ","LANE":" ","ALLEY":" ","HOUSE_NO":"６３號","E_COORD97":173340.60999999999,"N_COORD97":2540381.2400000002,"ADDRESS":"仁中六街６３號","OBJECTID":611742},"geometry":{"x":173340.61000000034,"y":2540381.2400000002}},{"attributes":{"ID":611770,"DIS_CODE":0,"TOWNNAME":"仁德區","LI":"仁德里","LIN":"3鄰","STREET":"仁中六街","SECT":" ","MAREA":" ","LANE":" ","ALLEY":" ","HOUSE_NO":"７０號","E_COORD97":173393.44,"N_COORD97":2540405,"ADDRESS":"仁中六街７０號","OBJECTID":611743},"geometry":{"x":173393.44000000134,"y":2540405.0000000019}},{"attributes":{"ID":611771,"DIS_CODE":0,"TOWNNAME":"仁德區","LI":"仁德里","LIN":"3鄰","STREET":"仁中七街","SECT":" ","MAREA":" ","LANE":" ","ALLEY":" ","HOUSE_NO":"１５０號","E_COORD97":173270.23999999999,"N_COORD97":2540381,"ADDRESS":"仁中七街１５０號","OBJECTID":611744},"geometry":{"x":173270.23999999929,"y":2540381.0000000019}},{"attributes":{"ID":611772,"DIS_CODE":0,"TOWNNAME":"仁德區","LI":"仁德里","LIN":"3鄰","STREET":"仁中七街","SECT":" ","MAREA":" ","LANE":" ","ALLEY":" ","HOUSE_NO":"１５２號","E_COORD97":173274.89999999999,"N_COORD97":2540380.75,"ADDRESS":"仁中七街１５２號","OBJECTID":611745},"geometry":{"x":173274.9000000013,"y":2540380.75}},{"attributes":{"ID":611773,"DIS_CODE":0,"TOWNNAME":"仁德區","LI":"仁德里","LIN":"3鄰","STREET":"仁中六街","SECT":" ","MAREA":" ","LANE":" ","ALLEY":" ","HOUSE_NO":"１２號","E_COORD97":173395.25,"N_COORD97":2540323,"ADDRESS":"仁中六街１２號","OBJECTID":611746},"geometry":{"x":173395.25,"y":2540323.0000000019}},{"attributes":{"ID":611774,"DIS_CODE":0,"TOWNNAME":"仁德區","LI":"仁德里","LIN":"3鄰","STREET":"仁中六街","SECT":" ","MAREA":" ","LANE":" ","ALLEY":" ","HOUSE_NO":"１０３號","E_COORD97":173366.95000000001,"N_COORD97":2540389.2400000002,"ADDRESS":"仁中六街１０３號","OBJECTID":611747},"geometry":{"x":173366.95000000019,"y":2540389.2400000021}},{"attributes":{"ID":611775,"DIS_CODE":0,"TOWNNAME":"仁德區","LI":"後壁里","LIN":"3鄰","STREET":"中正路","SECT":"二段","MAREA":" ","LANE":" ","ALLEY":" ","HOUSE_NO":"３０４號","E_COORD97":173258.42999999999,"N_COORD97":2539023.52,"ADDRESS":"中正路二段３０４號","OBJECTID":611748},"geometry":{"x":173258.43000000156,"y":2539023.5200000014}},{"attributes":{"ID":611776,"DIS_CODE":0,"TOWNNAME":"仁德區","LI":"仁德里","LIN":"3鄰","STREET":"仁中六街","SECT":" ","MAREA":" ","LANE":" ","ALLEY":" ","HOUSE_NO":"９９號","E_COORD97":173355.20999999999,"N_COORD97":2540389.2400000002,"ADDRESS":"仁中六街９９號","OBJECTID":611749},"geometry":{"x":173355.21000000089,"y":2540389.2400000021}},{"attributes":{"ID":611777,"DIS_CODE":0,"TOWNNAME":"仁德區","LI":"仁德里","LIN":"3鄰","STREET":"仁中六街","SECT":" ","MAREA":" ","LANE":" ","ALLEY":" ","HOUSE_NO":"２０號","E_COORD97":173393.84,"N_COORD97":2540335.25,"ADDRESS":"仁中六街２０號","OBJECTID":611750},"geometry":{"x":173393.84000000078,"y":2540335.2500000019}},{"attributes":{"ID":611778,"DIS_CODE":0,"TOWNNAME":"仁德區","LI":"仁德里","LIN":"3鄰","STREET":"仁中六街","SECT":" ","MAREA":" ","LANE":" ","ALLEY":" ","HOUSE_NO":"１６號","E_COORD97":173394.76000000001,"N_COORD97":2540326.75,"ADDRESS":"仁中六街１６號","OBJECTID":611751},"geometry":{"x":173394.75999999978,"y":2540326.75}},{"attributes":{"ID":611779,"DIS_CODE":0,"TOWNNAME":"仁德區","LI":"後壁里","LIN":"3鄰","STREET":"中正路","SECT":"二段","MAREA":" ","LANE":" ","ALLEY":" ","HOUSE_NO":"３１６號","E_COORD97":173261.35000000001,"N_COORD97":2539051.0299999998,"ADDRESS":"中正路二段３１６號","OBJECTID":611752},"geometry":{"x":173261.35000000056,"y":2539051.0300000012}},{"attributes":{"ID":611780,"DIS_CODE":0,"TOWNNAME":"仁德區","LI":"仁德里","LIN":"3鄰","STREET":"仁中七街","SECT":" ","MAREA":" ","LANE":" ","ALLEY":" ","HOUSE_NO":"１３６號","E_COORD97":173293.22,"N_COORD97":2540360.25,"ADDRESS":"仁中七街１３６號","OBJECTID":611753},"geometry":{"x":173293.21999999974,"y":2540360.25}},{"attributes":{"ID":611781,"DIS_CODE":0,"TOWNNAME":"仁德區","LI":"仁德里","LIN":"3鄰","STREET":"仁中六街","SECT":" ","MAREA":" ","LANE":" ","ALLEY":" ","HOUSE_NO":"１１２號","E_COORD97":173383.85999999999,"N_COORD97":2540458.9900000002,"ADDRESS":"仁中六街１１２號","OBJECTID":611754},"geometry":{"x":173383.86000000127,"y":2540458.9900000021}},{"attributes":{"ID":611782,"DIS_CODE":0,"TOWNNAME":"仁德區","LI":"仁德里","LIN":"3鄰","STREET":"仁中七街","SECT":" ","MAREA":" ","LANE":" ","ALLEY":" ","HOUSE_NO":"１０８號","E_COORD97":173342.67000000001,"N_COORD97":2540359.5,"ADDRESS":"仁中七街１０８號","OBJECTID":611755},"geometry":{"x":173342.66999999993,"y":2540359.5000000037}},{"attributes":{"ID":611783,"DIS_CODE":0,"TOWNNAME":"仁德區","LI":"仁德里","LIN":"3鄰","STREET":"仁中六街","SECT":" ","MAREA":" ","LANE":" ","ALLEY":" ","HOUSE_NO":"９３號","E_COORD97":173340.14000000001,"N_COORD97":2540389.2400000002,"ADDRESS":"仁中六街９３號","OBJECTID":611756},"geometry":{"x":173340.1400000006,"y":2540389.2400000021}},{"attributes":{"ID":611784,"DIS_CODE":0,"TOWNNAME":"仁德區","LI":"仁德里","LIN":"3鄰","STREET":"仁中六街","SECT":" ","MAREA":" ","LANE":" ","ALLEY":" ","HOUSE_NO":"９６號","E_COORD97":173415.78,"N_COORD97":2540462.2400000002,"ADDRESS":"仁中六街９６號","OBJECTID":611757},"geometry":{"x":173415.77999999933,"y":2540462.2400000002}},{"attributes":{"ID":611785,"DIS_CODE":0,"TOWNNAME":"仁德區","LI":"後壁里","LIN":"3鄰","STREET":"中正路","SECT":"二段","MAREA":" ","LANE":" ","ALLEY":" ","HOUSE_NO":"３００號","E_COORD97":173257.29000000001,"N_COORD97":2539013.27,"ADDRESS":"中正路二段３００號","OBJECTID":611758},"geometry":{"x":173257.29000000004,"y":2539013.2699999996}},{"attributes":{"ID":611786,"DIS_CODE":0,"TOWNNAME":"仁德區","LI":"仁德里","LIN":"3鄰","STREET":"仁中六街","SECT":" ","MAREA":" ","LANE":" ","ALLEY":" ","HOUSE_NO":"１８號","E_COORD97":173394.54000000001,"N_COORD97":2540331,"ADDRESS":"仁中六街１８號","OBJECTID":611759},"geometry":{"x":173394.54000000004,"y":2540331}},{"attributes":{"ID":611787,"DIS_CODE":0,"TOWNNAME":"仁德區","LI":"仁德里","LIN":"3鄰","STREET":"仁中六街","SECT":" ","MAREA":" ","LANE":" ","ALLEY":" ","HOUSE_NO":"５７號","E_COORD97":173355.54000000001,"N_COORD97":2540381.4900000002,"ADDRESS":"仁中六街５７號","OBJECTID":611760},"geometry":{"x":173355.54000000004,"y":2540381.4900000021}},{"attributes":{"ID":611788,"DIS_CODE":0,"TOWNNAME":"仁德區","LI":"仁德里","LIN":"3鄰","STREET":"仁中六街","SECT":" ","MAREA":" ","LANE":" ","ALLEY":" ","HOUSE_NO":"６０號","E_COORD97":173412.64000000001,"N_COORD97":2540408.25,"ADDRESS":"仁中六街６０號","OBJECTID":611761},"geometry":{"x":173412.63999999966,"y":2540408.2499999981}},{"attributes":{"ID":611789,"DIS_CODE":0,"TOWNNAME":"仁德區","LI":"保安里","LIN":"3鄰","STREET":"文賢路","SECT":"一段","MAREA":" ","LANE":" ","ALLEY":" ","HOUSE_NO":"５６１號","E_COORD97":171137.48000000001,"N_COORD97":2536921.3300000001,"ADDRESS":"文賢路一段５６１號","OBJECTID":611762},"geometry":{"x":171137.48000000045,"y":2536921.3300000001}},{"attributes":{"ID":611790,"DIS_CODE":0,"TOWNNAME":"仁德區","LI":"仁德里","LIN":"3鄰","STREET":"仁中六街","SECT":" ","MAREA":" ","LANE":" ","ALLEY":" ","HOUSE_NO":"１３２號","E_COORD97":173416.75,"N_COORD97":2540471.7400000002,"ADDRESS":"仁中六街１３２號","OBJECTID":611763},"geometry":{"x":173416.75,"y":2540471.7400000002}},{"attributes":{"ID":611791,"DIS_CODE":0,"TOWNNAME":"仁德區","LI":"仁德里","LIN":"3鄰","STREET":"仁中五街","SECT":" ","MAREA":" ","LANE":" ","ALLEY":" ","HOUSE_NO":"９２號","E_COORD97":173317.60999999999,"N_COORD97":2540308,"ADDRESS":"仁中五街９２號","OBJECTID":611764},"geometry":{"x":173317.61000000127,"y":2540308}},{"attributes":{"ID":611792,"DIS_CODE":0,"TOWNNAME":"仁德區","LI":"仁德里","LIN":"3鄰","STREET":"仁中六街","SECT":" ","MAREA":" ","LANE":" ","ALLEY":" ","HOUSE_NO":"３２號","E_COORD97":173392.22,"N_COORD97":2540356.2400000002,"ADDRESS":"仁中六街３２號","OBJECTID":611765},"geometry":{"x":173392.22000000067,"y":2540356.2400000002}},{"attributes":{"ID":611793,"DIS_CODE":0,"TOWNNAME":"仁德區","LI":"仁德里","LIN":"3鄰","STREET":"仁中六街","SECT":" ","MAREA":" ","LANE":" ","ALLEY":" ","HOUSE_NO":"１３６號","E_COORD97":173422.03,"N_COORD97":2540472.2400000002,"ADDRESS":"仁中六街１３６號","OBJECTID":611766},"geometry":{"x":173422.03000000026,"y":2540472.2400000002}},{"attributes":{"ID":611794,"DIS_CODE":0,"TOWNNAME":"仁德區","LI":"仁德里","LIN":"3鄰","STREET":"仁中七街","SECT":" ","MAREA":" ","LANE":" ","ALLEY":" ","HOUSE_NO":"１５６號","E_COORD97":173279.45000000001,"N_COORD97":2540380.75,"ADDRESS":"仁中七街１５６號","OBJECTID":611767},"geometry":{"x":173279.45000000112,"y":2540380.75}},{"attributes":{"ID":611795,"DIS_CODE":0,"TOWNNAME":"仁德區","LI":"仁德里","LIN":"3鄰","STREET":"仁中六街","SECT":" ","MAREA":" ","LANE":" ","ALLEY":" ","HOUSE_NO":"１２８號","E_COORD97":173407.54999999999,"N_COORD97":2540470.4900000002,"ADDRESS":"仁中六街１２８號","OBJECTID":611768},"geometry":{"x":173407.55000000075,"y":2540470.4900000002}},{"attributes":{"ID":611796,"DIS_CODE":0,"TOWNNAME":"中西區","LI":"西賢里","LIN":"3鄰","STREET":"湖美街","SECT":" ","MAREA":" ","LANE":" ","ALLEY":" ","HOUSE_NO":"１０５號","E_COORD97":165922.62,"N_COORD97":2544730.7599999998,"ADDRESS":"湖美街１０５號","OBJECTID":611769},"geometry":{"x":165922.62000000104,"y":2544730.7600000035}},{"attributes":{"ID":611797,"DIS_CODE":0,"TOWNNAME":"中西區","LI":"西賢里","LIN":"3鄰","STREET":"湖美街","SECT":" ","MAREA":" ","LANE":" ","ALLEY":" ","HOUSE_NO":"１０７號","E_COORD97":165922.20999999999,"N_COORD97":2544735.8700000001,"ADDRESS":"湖美街１０７號","OBJECTID":611770},"geometry":{"x":165922.21000000089,"y":2544735.8700000029}},{"attributes":{"ID":611798,"DIS_CODE":0,"TOWNNAME":"中西區","LI":"西賢里","LIN":"3鄰","STREET":"湖美街","SECT":" ","MAREA":" ","LANE":" ","ALLEY":" ","HOUSE_NO":"１０９號","E_COORD97":165921.79999999999,"N_COORD97":2544740.9900000002,"ADDRESS":"湖美街１０９號","OBJECTID":611771},"geometry":{"x":165921.79999999981,"y":2544740.9900000021}},{"attributes":{"ID":611799,"DIS_CODE":0,"TOWNNAME":"中西區","LI":"西賢里","LIN":"3鄰","STREET":"湖美街","SECT":" ","MAREA":" ","LANE":" ","ALLEY":" ","HOUSE_NO":"１１１號","E_COORD97":165920.37,"N_COORD97":2544746.7200000002,"ADDRESS":"湖美街１１１號","OBJECTID":611772},"geometry":{"x":165920.37000000011,"y":2544746.7200000025}},{"attributes":{"ID":611800,"DIS_CODE":0,"TOWNNAME":"中西區","LI":"文賢里","LIN":"3鄰","STREET":"文和街","SECT":" ","MAREA":" ","LANE":" ","ALLEY":" ","HOUSE_NO":"９７號","E_COORD97":167142.94,"N_COORD97":2544826.0299999998,"ADDRESS":"文和街９７號","OBJECTID":611773},"geometry":{"x":167142.94000000134,"y":2544826.0299999993}},{"attributes":{"ID":611801,"DIS_CODE":0,"TOWNNAME":"善化區","LI":"坐駕里","LIN":"3鄰","STREET":"中山路","SECT":" ","MAREA":" ","LANE":" ","ALLEY":" ","HOUSE_NO":"３４３之２號","E_COORD97":177710.66,"N_COORD97":2559068.0099999998,"ADDRESS":"中山路３４３之２號","OBJECTID":611774},"geometry":{"x":177710.66000000108,"y":2559068.0100000016}},{"attributes":{"ID":611802,"DIS_CODE":0,"TOWNNAME":"中西區","LI":"協和里","LIN":"3鄰","STREET":"文賢路","SECT":" ","MAREA":" ","LANE":" ","ALLEY":" ","HOUSE_NO":"３７號","E_COORD97":167389.32999999999,"N_COORD97":2544509.9700000002,"ADDRESS":"文賢路３７號","OBJECTID":611775},"geometry":{"x":167389.33000000101,"y":2544509.9700000044}},{"attributes":{"ID":611803,"DIS_CODE":0,"TOWNNAME":"中西區","LI":"郡西里","LIN":"3鄰","STREET":"永華路","SECT":"一段","MAREA":" ","LANE":" ","ALLEY":" ","HOUSE_NO":"１２２號","E_COORD97":167321.53,"N_COORD97":2543183.1200000001,"ADDRESS":"永華路一段１２２號","OBJECTID":611776},"geometry":{"x":167321.53000000026,"y":2543183.120000001}},{"attributes":{"ID":611804,"DIS_CODE":0,"TOWNNAME":"中西區","LI":"郡西里","LIN":"3鄰","STREET":"永華路","SECT":"一段","MAREA":" ","LANE":" ","ALLEY":" ","HOUSE_NO":"１２４號","E_COORD97":167317.32000000001,"N_COORD97":2543183.71,"ADDRESS":"永華路一段１２４號","OBJECTID":611777},"geometry":{"x":167317.3200000003,"y":2543183.7100000028}},{"attributes":{"ID":611805,"DIS_CODE":0,"TOWNNAME":"中西區","LI":"郡西里","LIN":"3鄰","STREET":"永華路","SECT":"一段","MAREA":" ","LANE":" ","ALLEY":" ","HOUSE_NO":"１２６號","E_COORD97":167313.76000000001,"N_COORD97":2543184.8700000001,"ADDRESS":"永華路一段１２６號","OBJECTID":611778},"geometry":{"x":167313.75999999978,"y":2543184.870000001}},{"attributes":{"ID":611806,"DIS_CODE":0,"TOWNNAME":"中西區","LI":"郡西里","LIN":"3鄰","STREET":"郡西路","SECT":" ","MAREA":" ","LANE":" ","ALLEY":" ","HOUSE_NO":"１３號","E_COORD97":167352.57000000001,"N_COORD97":2543215.5499999998,"ADDRESS":"郡西路１３號","OBJECTID":611779},"geometry":{"x":167352.57000000123,"y":2543215.5500000026}},{"attributes":{"ID":611807,"DIS_CODE":0,"TOWNNAME":"中西區","LI":"郡西里","LIN":"3鄰","STREET":"郡西路","SECT":" ","MAREA":" ","LANE":" ","ALLEY":" ","HOUSE_NO":"１７號","E_COORD97":167353.82000000001,"N_COORD97":2543235.2400000002,"ADDRESS":"郡西路１７號","OBJECTID":611780},"geometry":{"x":167353.82000000123,"y":2543235.2400000002}},{"attributes":{"ID":611808,"DIS_CODE":0,"TOWNNAME":"中西區","LI":"郡西里","LIN":"3鄰","STREET":"郡西路","SECT":" ","MAREA":" ","LANE":" ","ALLEY":" ","HOUSE_NO":"１號","E_COORD97":167346,"N_COORD97":2543190.48,"ADDRESS":"郡西路１號","OBJECTID":611781},"geometry":{"x":167346.00000000093,"y":2543190.4800000004}},{"attributes":{"ID":611809,"DIS_CODE":0,"TOWNNAME":"中西區","LI":"郡西里","LIN":"3鄰","STREET":"郡西路","SECT":" ","MAREA":" ","LANE":" ","ALLEY":" ","HOUSE_NO":"３號","E_COORD97":167347.31,"N_COORD97":2543194.54,"ADDRESS":"郡西路３號","OBJECTID":611782},"geometry":{"x":167347.30999999959,"y":2543194.5399999991}},{"attributes":{"ID":611810,"DIS_CODE":0,"TOWNNAME":"中西區","LI":"郡西里","LIN":"3鄰","STREET":"郡西路","SECT":" ","MAREA":" ","LANE":" ","ALLEY":" ","HOUSE_NO":"５號","E_COORD97":167349.09,"N_COORD97":2543198.8100000001,"ADDRESS":"郡西路５號","OBJECTID":611783},"geometry":{"x":167349.08999999985,"y":2543198.8100000042}},{"attributes":{"ID":611811,"DIS_CODE":0,"TOWNNAME":"中西區","LI":"文賢里","LIN":"3鄰","STREET":"文和街","SECT":" ","MAREA":" ","LANE":" ","ALLEY":" ","HOUSE_NO":"１０１號","E_COORD97":167136.12,"N_COORD97":2544819.7999999998,"ADDRESS":"文和街１０１號","OBJECTID":611784},"geometry":{"x":167136.12000000197,"y":2544819.8000000045}},{"attributes":{"ID":611812,"DIS_CODE":0,"TOWNNAME":"中西區","LI":"文賢里","LIN":"3鄰","STREET":"文和街","SECT":" ","MAREA":" ","LANE":" ","ALLEY":" ","HOUSE_NO":"１０３號","E_COORD97":167132.63,"N_COORD97":2544816.75,"ADDRESS":"文和街１０３號","OBJECTID":611785},"geometry":{"x":167132.63000000082,"y":2544816.7500000019}},{"attributes":{"ID":611813,"DIS_CODE":0,"TOWNNAME":"中西區","LI":"文賢里","LIN":"3鄰","STREET":"文和街","SECT":" ","MAREA":" ","LANE":" ","ALLEY":" ","HOUSE_NO":"１０５號","E_COORD97":167129.29000000001,"N_COORD97":2544813.4100000001,"ADDRESS":"文和街１０５號","OBJECTID":611786},"geometry":{"x":167129.29000000004,"y":2544813.4100000001}},{"attributes":{"ID":611814,"DIS_CODE":0,"TOWNNAME":"中西區","LI":"文賢里","LIN":"3鄰","STREET":"文和街","SECT":" ","MAREA":" ","LANE":" ","ALLEY":" ","HOUSE_NO":"１０７號","E_COORD97":167126.67000000001,"N_COORD97":2544809.9300000002,"ADDRESS":"文和街１０７號","OBJECTID":611787},"geometry":{"x":167126.66999999993,"y":2544809.9299999997}},{"attributes":{"ID":611815,"DIS_CODE":0,"TOWNNAME":"中西區","LI":"文賢里","LIN":"3鄰","STREET":"文和街","SECT":" ","MAREA":" ","LANE":" ","ALLEY":" ","HOUSE_NO":"１０９號","E_COORD97":167122.75,"N_COORD97":2544807.0299999998,"ADDRESS":"文和街１０９號","OBJECTID":611788},"geometry":{"x":167122.75,"y":2544807.0300000012}},{"attributes":{"ID":611816,"DIS_CODE":0,"TOWNNAME":"中西區","LI":"文賢里","LIN":"3鄰","STREET":"文和街","SECT":" ","MAREA":" ","LANE":" ","ALLEY":" ","HOUSE_NO":"１１１號","E_COORD97":167119.12,"N_COORD97":2544804.27,"ADDRESS":"文和街１１１號","OBJECTID":611789},"geometry":{"x":167119.11999999918,"y":2544804.2699999996}},{"attributes":{"ID":611817,"DIS_CODE":0,"TOWNNAME":"中西區","LI":"文賢里","LIN":"3鄰","STREET":"文和街","SECT":" ","MAREA":" ","LANE":" ","ALLEY":" ","HOUSE_NO":"１１３號","E_COORD97":167117.23000000001,"N_COORD97":2544799.9199999999,"ADDRESS":"文和街１１３號","OBJECTID":611790},"geometry":{"x":167117.23000000231,"y":2544799.9199999999}},{"attributes":{"ID":611818,"DIS_CODE":0,"TOWNNAME":"中西區","LI":"文賢里","LIN":"3鄰","STREET":"文和街","SECT":" ","MAREA":" ","LANE":" ","ALLEY":" ","HOUSE_NO":"１１號","E_COORD97":167282.91,"N_COORD97":2544966.3799999999,"ADDRESS":"文和街１１號","OBJECTID":611791},"geometry":{"x":167282.91000000015,"y":2544966.3800000027}},{"attributes":{"ID":611819,"DIS_CODE":0,"TOWNNAME":"中西區","LI":"文賢里","LIN":"3鄰","STREET":"文和街","SECT":" ","MAREA":" ","LANE":" ","ALLEY":" ","HOUSE_NO":"１３號","E_COORD97":167278.72,"N_COORD97":2544961.6899999999,"ADDRESS":"文和街１３號","OBJECTID":611792},"geometry":{"x":167278.71999999974,"y":2544961.6900000032}},{"attributes":{"ID":611820,"DIS_CODE":0,"TOWNNAME":"中西區","LI":"文賢里","LIN":"3鄰","STREET":"文和街","SECT":" ","MAREA":" ","LANE":" ","ALLEY":" ","HOUSE_NO":"１５號","E_COORD97":167275.54999999999,"N_COORD97":2544958.8999999999,"ADDRESS":"文和街１５號","OBJECTID":611793},"geometry":{"x":167275.55000000075,"y":2544958.9000000022}},{"attributes":{"ID":611821,"DIS_CODE":0,"TOWNNAME":"中西區","LI":"文賢里","LIN":"3鄰","STREET":"文和街","SECT":" ","MAREA":" ","LANE":" ","ALLEY":" ","HOUSE_NO":"１７號","E_COORD97":167273.14000000001,"N_COORD97":2544955.4700000002,"ADDRESS":"文和街１７號","OBJECTID":611794},"geometry":{"x":167273.1400000006,"y":2544955.4700000025}},{"attributes":{"ID":611822,"DIS_CODE":0,"TOWNNAME":"中西區","LI":"文賢里","LIN":"3鄰","STREET":"文和街","SECT":" ","MAREA":" ","LANE":" ","ALLEY":" ","HOUSE_NO":"１９號","E_COORD97":167269.84,"N_COORD97":2544951.6699999999,"ADDRESS":"文和街１９號","OBJECTID":611795},"geometry":{"x":167269.83999999985,"y":2544951.6699999999}},{"attributes":{"ID":611823,"DIS_CODE":0,"TOWNNAME":"中西區","LI":"文賢里","LIN":"3鄰","STREET":"文和街","SECT":" ","MAREA":" ","LANE":" ","ALLEY":" ","HOUSE_NO":"２１號","E_COORD97":167266.16,"N_COORD97":2544948.6299999999,"ADDRESS":"文和街２１號","OBJECTID":611796},"geometry":{"x":167266.16000000015,"y":2544948.6300000008}},{"attributes":{"ID":611824,"DIS_CODE":0,"TOWNNAME":"中西區","LI":"文賢里","LIN":"3鄰","STREET":"文和街","SECT":" ","MAREA":" ","LANE":" ","ALLEY":" ","HOUSE_NO":"２３號","E_COORD97":167263.23999999999,"N_COORD97":2544944.96,"ADDRESS":"文和街２３號","OBJECTID":611797},"geometry":{"x":167263.24000000115,"y":2544944.9600000028}},{"attributes":{"ID":611825,"DIS_CODE":0,"TOWNNAME":"中西區","LI":"文賢里","LIN":"3鄰","STREET":"文和街","SECT":" ","MAREA":" ","LANE":" ","ALLEY":" ","HOUSE_NO":"２５號","E_COORD97":167259.81,"N_COORD97":2544942.7999999998,"ADDRESS":"文和街２５號","OBJECTID":611798},"geometry":{"x":167259.81000000145,"y":2544942.8000000026}},{"attributes":{"ID":611826,"DIS_CODE":0,"TOWNNAME":"中西區","LI":"文賢里","LIN":"3鄰","STREET":"文和街","SECT":" ","MAREA":" ","LANE":" ","ALLEY":" ","HOUSE_NO":"２７號","E_COORD97":167256.26000000001,"N_COORD97":2544938.8700000001,"ADDRESS":"文和街２７號","OBJECTID":611799},"geometry":{"x":167256.25999999978,"y":2544938.8700000029}},{"attributes":{"ID":611827,"DIS_CODE":0,"TOWNNAME":"中西區","LI":"文賢里","LIN":"3鄰","STREET":"文和街","SECT":" ","MAREA":" ","LANE":" ","ALLEY":" ","HOUSE_NO":"２９號","E_COORD97":167253.47,"N_COORD97":2544936.46,"ADDRESS":"文和街２９號","OBJECTID":611800},"geometry":{"x":167253.46999999974,"y":2544936.4600000009}}]}