{"displayFieldName":"TOWNNAME","fieldAliases":{"ID":"ID","DIS_CODE":"DIS_CODE","TOWNNAME":"TOWNNAME","LI":"LI","LIN":"LIN","STREET":"STREET","SECT":"SECT","MAREA":"MAREA","LANE":"LANE","ALLEY":"ALLEY","HOUSE_NO":"HOUSE_NO","E_COORD97":"E_COORD97","N_COORD97":"N_COORD97","ADDRESS":"ADDRESS","OBJECTID":"OBJECTID"},"geometryType":"esriGeometryPoint","spatialReference":{"wkid":102443,"latestWkid":3826},"fields":[{"name":"ID","type":"esriFieldTypeDouble","alias":"ID"},{"name":"DIS_CODE","type":"esriFieldTypeInteger","alias":"DIS_CODE"},{"name":"TOWNNAME","type":"esriFieldTypeString","alias":"TOWNNAME","length":8},{"name":"LI","type":"esriFieldTypeString","alias":"LI","length":8},{"name":"LIN","type":"esriFieldTypeString","alias":"LIN","length":12},{"name":"STREET","type":"esriFieldTypeString","alias":"STREET","length":20},{"name":"SECT","type":"esriFieldTypeString","alias":"SECT","length":8},{"name":"MAREA","type":"esriFieldTypeString","alias":"MAREA","length":12},{"name":"LANE","type":"esriFieldTypeString","alias":"LANE","length":10},{"name":"ALLEY","type":"esriFieldTypeString","alias":"ALLEY","length":10},{"name":"HOUSE_NO","type":"esriFieldTypeString","alias":"HOUSE_NO","length":20},{"name":"E_COORD97","type":"esriFieldTypeDouble","alias":"E_COORD97"},{"name":"N_COORD97","type":"esriFieldTypeDouble","alias":"N_COORD97"},{"name":"ADDRESS","type":"esriFieldTypeString","alias":"ADDRESS","length":50},{"name":"OBJECTID","type":"esriFieldTypeOID","alias":"OBJECTID"}],"features":[{"attributes":{"ID":443426,"DIS_CODE":0,"TOWNNAME":"東區","LI":"龍山里","LIN":"5鄰","STREET":"崇仁街","SECT":" ","MAREA":" ","LANE":"６６巷","ALLEY":" ","HOUSE_NO":"２１號十樓","E_COORD97":170273.09,"N_COORD97":2542653.3100000001,"ADDRESS":"崇仁街６６巷２１號十樓","OBJECTID":443401},"geometry":{"x":170273.08999999985,"y":2542653.3100000024}},{"attributes":{"ID":443427,"DIS_CODE":0,"TOWNNAME":"東區","LI":"龍山里","LIN":"5鄰","STREET":"崇仁街","SECT":" ","MAREA":" ","LANE":"６６巷","ALLEY":" ","HOUSE_NO":"２１號十一樓","E_COORD97":170273.09,"N_COORD97":2542653.3100000001,"ADDRESS":"崇仁街６６巷２１號十一樓","OBJECTID":443402},"geometry":{"x":170273.08999999985,"y":2542653.3100000024}},{"attributes":{"ID":443428,"DIS_CODE":0,"TOWNNAME":"東區","LI":"龍山里","LIN":"5鄰","STREET":"崇仁街","SECT":" ","MAREA":" ","LANE":"６６巷","ALLEY":" ","HOUSE_NO":"２１號十二樓","E_COORD97":170273.09,"N_COORD97":2542653.3100000001,"ADDRESS":"崇仁街６６巷２１號十二樓","OBJECTID":443403},"geometry":{"x":170273.08999999985,"y":2542653.3100000024}},{"attributes":{"ID":443429,"DIS_CODE":0,"TOWNNAME":"東區","LI":"龍山里","LIN":"5鄰","STREET":"崇仁街","SECT":" ","MAREA":" ","LANE":"６６巷","ALLEY":" ","HOUSE_NO":"７號二樓","E_COORD97":170322.06,"N_COORD97":2542709.3700000001,"ADDRESS":"崇仁街６６巷７號二樓","OBJECTID":443404},"geometry":{"x":170322.06000000052,"y":2542709.370000001}},{"attributes":{"ID":443430,"DIS_CODE":0,"TOWNNAME":"東區","LI":"龍山里","LIN":"5鄰","STREET":"崇仁街","SECT":" ","MAREA":" ","LANE":"６６巷","ALLEY":" ","HOUSE_NO":"７號三樓","E_COORD97":170322.06,"N_COORD97":2542709.3700000001,"ADDRESS":"崇仁街６６巷７號三樓","OBJECTID":443405},"geometry":{"x":170322.06000000052,"y":2542709.370000001}},{"attributes":{"ID":443431,"DIS_CODE":0,"TOWNNAME":"東區","LI":"龍山里","LIN":"5鄰","STREET":"崇仁街","SECT":" ","MAREA":" ","LANE":"６６巷","ALLEY":" ","HOUSE_NO":"７號四樓","E_COORD97":170322.06,"N_COORD97":2542709.3700000001,"ADDRESS":"崇仁街６６巷７號四樓","OBJECTID":443406},"geometry":{"x":170322.06000000052,"y":2542709.370000001}},{"attributes":{"ID":443432,"DIS_CODE":0,"TOWNNAME":"永康區","LI":"中華里","LIN":"4鄰","STREET":"忠勇街","SECT":" ","MAREA":" ","LANE":"３２巷","ALLEY":" ","HOUSE_NO":"１０號","E_COORD97":171963.45999999999,"N_COORD97":2544419.5,"ADDRESS":"忠勇街３２巷１０號","OBJECTID":443407},"geometry":{"x":171963.46000000089,"y":2544419.5}},{"attributes":{"ID":443433,"DIS_CODE":0,"TOWNNAME":"東區","LI":"龍山里","LIN":"5鄰","STREET":"崇仁街","SECT":" ","MAREA":" ","LANE":"６６巷","ALLEY":" ","HOUSE_NO":"７號五樓","E_COORD97":170322.06,"N_COORD97":2542709.3700000001,"ADDRESS":"崇仁街６６巷７號五樓","OBJECTID":443408},"geometry":{"x":170322.06000000052,"y":2542709.370000001}},{"attributes":{"ID":443434,"DIS_CODE":0,"TOWNNAME":"東區","LI":"龍山里","LIN":"5鄰","STREET":"崇仁街","SECT":" ","MAREA":" ","LANE":"６６巷","ALLEY":" ","HOUSE_NO":"７號六樓","E_COORD97":170322.06,"N_COORD97":2542709.3700000001,"ADDRESS":"崇仁街６６巷７號六樓","OBJECTID":443409},"geometry":{"x":170322.06000000052,"y":2542709.370000001}},{"attributes":{"ID":443435,"DIS_CODE":0,"TOWNNAME":"東區","LI":"龍山里","LIN":"5鄰","STREET":"崇仁街","SECT":" ","MAREA":" ","LANE":"６６巷","ALLEY":" ","HOUSE_NO":"７號七樓","E_COORD97":170322.06,"N_COORD97":2542709.3700000001,"ADDRESS":"崇仁街６６巷７號七樓","OBJECTID":443410},"geometry":{"x":170322.06000000052,"y":2542709.370000001}},{"attributes":{"ID":443436,"DIS_CODE":0,"TOWNNAME":"東區","LI":"龍山里","LIN":"5鄰","STREET":"崇仁街","SECT":" ","MAREA":" ","LANE":"６６巷","ALLEY":" ","HOUSE_NO":"７號八樓","E_COORD97":170322.06,"N_COORD97":2542709.3700000001,"ADDRESS":"崇仁街６６巷７號八樓","OBJECTID":443411},"geometry":{"x":170322.06000000052,"y":2542709.370000001}},{"attributes":{"ID":443437,"DIS_CODE":0,"TOWNNAME":"東區","LI":"龍山里","LIN":"5鄰","STREET":"崇仁街","SECT":" ","MAREA":" ","LANE":"６６巷","ALLEY":" ","HOUSE_NO":"７號九樓","E_COORD97":170322.06,"N_COORD97":2542709.3700000001,"ADDRESS":"崇仁街６６巷７號九樓","OBJECTID":443412},"geometry":{"x":170322.06000000052,"y":2542709.370000001}},{"attributes":{"ID":443438,"DIS_CODE":0,"TOWNNAME":"東區","LI":"龍山里","LIN":"5鄰","STREET":"崇仁街","SECT":" ","MAREA":" ","LANE":"６６巷","ALLEY":" ","HOUSE_NO":"７號十樓","E_COORD97":170322.06,"N_COORD97":2542709.3700000001,"ADDRESS":"崇仁街６６巷７號十樓","OBJECTID":443413},"geometry":{"x":170322.06000000052,"y":2542709.370000001}},{"attributes":{"ID":443439,"DIS_CODE":0,"TOWNNAME":"東區","LI":"龍山里","LIN":"5鄰","STREET":"崇仁街","SECT":" ","MAREA":" ","LANE":"６６巷","ALLEY":" ","HOUSE_NO":"７號十一樓","E_COORD97":170322.06,"N_COORD97":2542709.3700000001,"ADDRESS":"崇仁街６６巷７號十一樓","OBJECTID":443414},"geometry":{"x":170322.06000000052,"y":2542709.370000001}},{"attributes":{"ID":443440,"DIS_CODE":0,"TOWNNAME":"永康區","LI":"\u25A0洲里","LIN":"5鄰","STREET":"仁愛街","SECT":" ","MAREA":" ","LANE":"１０３巷","ALLEY":" ","HOUSE_NO":"５７號","E_COORD97":171836.31,"N_COORD97":2549573.02,"ADDRESS":"仁愛街１０３巷５７號","OBJECTID":443415},"geometry":{"x":171836.30999999959,"y":2549573.0199999996}},{"attributes":{"ID":443441,"DIS_CODE":0,"TOWNNAME":"永康區","LI":"尚頂里","LIN":" ","STREET":"國聖街","SECT":" ","MAREA":" ","LANE":"４３巷","ALLEY":" ","HOUSE_NO":"７１號","E_COORD97":170247.73000000001,"N_COORD97":2547622.98,"ADDRESS":"國聖街４３巷７１號","OBJECTID":443416},"geometry":{"x":170247.73000000045,"y":2547622.9800000023}},{"attributes":{"ID":443442,"DIS_CODE":0,"TOWNNAME":"永康區","LI":"\u25A0行里","LIN":"25鄰","STREET":"\u25A0和街","SECT":" ","MAREA":" ","LANE":"２８２巷","ALLEY":" ","HOUSE_NO":"７號","E_COORD97":171551.67999999999,"N_COORD97":2548517.1499999999,"ADDRESS":"\u25A0和街２８２巷７號","OBJECTID":443417},"geometry":{"x":171551.68000000063,"y":2548517.1500000022}},{"attributes":{"ID":443443,"DIS_CODE":0,"TOWNNAME":"永康區","LI":"西勢里","LIN":" ","STREET":"富強路","SECT":"一段","MAREA":" ","LANE":"３２０巷","ALLEY":" ","HOUSE_NO":"６號","E_COORD97":175753.5,"N_COORD97":2546679.9199999999,"ADDRESS":"富強路一段３２０巷６號","OBJECTID":443418},"geometry":{"x":175753.50000000186,"y":2546679.9200000018}},{"attributes":{"ID":443444,"DIS_CODE":0,"TOWNNAME":"永康區","LI":"崑山里","LIN":"32鄰","STREET":"大灣路","SECT":" ","MAREA":" ","LANE":"７９８巷","ALLEY":" ","HOUSE_NO":"１００號","E_COORD97":174127.73999999999,"N_COORD97":2544834.6099999999,"ADDRESS":"大灣路７９８巷１００號","OBJECTID":443419},"geometry":{"x":174127.74000000022,"y":2544834.6100000013}},{"attributes":{"ID":443445,"DIS_CODE":0,"TOWNNAME":"永康區","LI":"\u25A0行里","LIN":"38鄰","STREET":"仁愛街","SECT":" ","MAREA":" ","LANE":"１３６巷","ALLEY":" ","HOUSE_NO":"２５號","E_COORD97":172230.66,"N_COORD97":2549608.52,"ADDRESS":"仁愛街１３６巷２５號","OBJECTID":443420},"geometry":{"x":172230.66000000108,"y":2549608.5200000014}},{"attributes":{"ID":443446,"DIS_CODE":0,"TOWNNAME":"永康區","LI":"中華里","LIN":"4鄰","STREET":"小東路","SECT":" ","MAREA":" ","LANE":"６８５巷","ALLEY":" ","HOUSE_NO":"９號","E_COORD97":172027.17999999999,"N_COORD97":2544403.4900000002,"ADDRESS":"小東路６８５巷９號","OBJECTID":443421},"geometry":{"x":172027.1799999997,"y":2544403.4900000002}},{"attributes":{"ID":443447,"DIS_CODE":0,"TOWNNAME":"永康區","LI":"\u25A0行里","LIN":"25鄰","STREET":"\u25A0和街","SECT":" ","MAREA":" ","LANE":"２８２巷","ALLEY":" ","HOUSE_NO":"２號","E_COORD97":171532.48999999999,"N_COORD97":2548476.7400000002,"ADDRESS":"\u25A0和街２８２巷２號","OBJECTID":443422},"geometry":{"x":171532.49000000022,"y":2548476.7400000002}},{"attributes":{"ID":443448,"DIS_CODE":0,"TOWNNAME":"永康區","LI":"\u25A0行里","LIN":"36鄰","STREET":"三村一街","SECT":" ","MAREA":" ","LANE":"３０巷","ALLEY":" ","HOUSE_NO":"３３號","E_COORD97":172250.76000000001,"N_COORD97":2549344.98,"ADDRESS":"三村一街３０巷３３號","OBJECTID":443423},"geometry":{"x":172250.75999999978,"y":2549344.9800000023}},{"attributes":{"ID":443449,"DIS_CODE":0,"TOWNNAME":"永康區","LI":"復國里","LIN":"32鄰","STREET":"復華一街","SECT":" ","MAREA":" ","LANE":"２８巷","ALLEY":" ","HOUSE_NO":"５號","E_COORD97":172637.01999999999,"N_COORD97":2545105.4100000001,"ADDRESS":"復華一街２８巷５號","OBJECTID":443424},"geometry":{"x":172637.01999999862,"y":2545105.4100000001}},{"attributes":{"ID":443450,"DIS_CODE":0,"TOWNNAME":"東區","LI":"龍山里","LIN":"5鄰","STREET":"崇仁街","SECT":" ","MAREA":" ","LANE":"６６巷","ALLEY":" ","HOUSE_NO":"２０號五樓","E_COORD97":170286.81,"N_COORD97":2542687.71,"ADDRESS":"崇仁街６６巷２０號五樓","OBJECTID":443425},"geometry":{"x":170286.80999999959,"y":2542687.709999999}},{"attributes":{"ID":443451,"DIS_CODE":0,"TOWNNAME":"東區","LI":"龍山里","LIN":"5鄰","STREET":"崇仁街","SECT":" ","MAREA":" ","LANE":"６６巷","ALLEY":" ","HOUSE_NO":"２０號六樓","E_COORD97":170286.81,"N_COORD97":2542687.71,"ADDRESS":"崇仁街６６巷２０號六樓","OBJECTID":443426},"geometry":{"x":170286.80999999959,"y":2542687.709999999}},{"attributes":{"ID":443452,"DIS_CODE":0,"TOWNNAME":"東區","LI":"龍山里","LIN":"5鄰","STREET":"崇仁街","SECT":" ","MAREA":" ","LANE":"６６巷","ALLEY":" ","HOUSE_NO":"２０號七樓","E_COORD97":170286.81,"N_COORD97":2542687.71,"ADDRESS":"崇仁街６６巷２０號七樓","OBJECTID":443427},"geometry":{"x":170286.80999999959,"y":2542687.709999999}},{"attributes":{"ID":443453,"DIS_CODE":0,"TOWNNAME":"東區","LI":"龍山里","LIN":"5鄰","STREET":"崇仁街","SECT":" ","MAREA":" ","LANE":"６６巷","ALLEY":" ","HOUSE_NO":"２０號八樓","E_COORD97":170286.81,"N_COORD97":2542687.71,"ADDRESS":"崇仁街６６巷２０號八樓","OBJECTID":443428},"geometry":{"x":170286.80999999959,"y":2542687.709999999}},{"attributes":{"ID":443454,"DIS_CODE":0,"TOWNNAME":"東區","LI":"龍山里","LIN":"5鄰","STREET":"崇仁街","SECT":" ","MAREA":" ","LANE":"６６巷","ALLEY":" ","HOUSE_NO":"２０號九樓","E_COORD97":170286.81,"N_COORD97":2542687.71,"ADDRESS":"崇仁街６６巷２０號九樓","OBJECTID":443429},"geometry":{"x":170286.80999999959,"y":2542687.709999999}},{"attributes":{"ID":443455,"DIS_CODE":0,"TOWNNAME":"東區","LI":"龍山里","LIN":"5鄰","STREET":"崇仁街","SECT":" ","MAREA":" ","LANE":"６６巷","ALLEY":" ","HOUSE_NO":"２０號十樓","E_COORD97":170286.81,"N_COORD97":2542687.71,"ADDRESS":"崇仁街６６巷２０號十樓","OBJECTID":443430},"geometry":{"x":170286.80999999959,"y":2542687.709999999}},{"attributes":{"ID":443456,"DIS_CODE":0,"TOWNNAME":"永康區","LI":"復華里","LIN":"25鄰","STREET":"復華八街","SECT":" ","MAREA":" ","LANE":"４９巷","ALLEY":" ","HOUSE_NO":"２６號","E_COORD97":172738.34,"N_COORD97":2546424.2799999998,"ADDRESS":"復華八街４９巷２６號","OBJECTID":443431},"geometry":{"x":172738.33999999985,"y":2546424.2799999993}},{"attributes":{"ID":443457,"DIS_CODE":0,"TOWNNAME":"永康區","LI":"網寮里","LIN":" ","STREET":"永二街","SECT":" ","MAREA":" ","LANE":"２４５巷","ALLEY":" ","HOUSE_NO":"４２之１號","E_COORD97":173252.62,"N_COORD97":2546032.7999999998,"ADDRESS":"永二街２４５巷４２之１號","OBJECTID":443432},"geometry":{"x":173252.62000000104,"y":2546032.8000000007}},{"attributes":{"ID":443458,"DIS_CODE":0,"TOWNNAME":"永康區","LI":"尚頂里","LIN":" ","STREET":"中正二街","SECT":" ","MAREA":" ","LANE":"１６９巷","ALLEY":" ","HOUSE_NO":"７２之４號","E_COORD97":171239.73000000001,"N_COORD97":2547808.6400000001,"ADDRESS":"中正二街１６９巷７２之４號","OBJECTID":443433},"geometry":{"x":171239.72999999952,"y":2547808.6400000025}},{"attributes":{"ID":443459,"DIS_CODE":0,"TOWNNAME":"東區","LI":"龍山里","LIN":"5鄰","STREET":"崇仁街","SECT":" ","MAREA":" ","LANE":"６６巷","ALLEY":" ","HOUSE_NO":"２０號十一樓","E_COORD97":170286.81,"N_COORD97":2542687.71,"ADDRESS":"崇仁街６６巷２０號十一樓","OBJECTID":443434},"geometry":{"x":170286.80999999959,"y":2542687.709999999}},{"attributes":{"ID":443460,"DIS_CODE":0,"TOWNNAME":"東區","LI":"龍山里","LIN":"5鄰","STREET":"崇仁街","SECT":" ","MAREA":" ","LANE":"６６巷","ALLEY":" ","HOUSE_NO":"２０號十二樓","E_COORD97":170286.81,"N_COORD97":2542687.71,"ADDRESS":"崇仁街６６巷２０號十二樓","OBJECTID":443435},"geometry":{"x":170286.80999999959,"y":2542687.709999999}},{"attributes":{"ID":443461,"DIS_CODE":0,"TOWNNAME":"東區","LI":"龍山里","LIN":"5鄰","STREET":"崇仁街","SECT":" ","MAREA":" ","LANE":"６６巷","ALLEY":" ","HOUSE_NO":"２２號二樓","E_COORD97":170280.03,"N_COORD97":2542679.8799999999,"ADDRESS":"崇仁街６６巷２２號二樓","OBJECTID":443436},"geometry":{"x":170280.03000000119,"y":2542679.879999999}},{"attributes":{"ID":443462,"DIS_CODE":0,"TOWNNAME":"東區","LI":"龍山里","LIN":"5鄰","STREET":"崇仁街","SECT":" ","MAREA":" ","LANE":"６６巷","ALLEY":" ","HOUSE_NO":"２２號三樓","E_COORD97":170280.03,"N_COORD97":2542679.8799999999,"ADDRESS":"崇仁街６６巷２２號三樓","OBJECTID":443437},"geometry":{"x":170280.03000000119,"y":2542679.879999999}},{"attributes":{"ID":443463,"DIS_CODE":0,"TOWNNAME":"下營區","LI":"大埤里","LIN":"9鄰","STREET":" ","SECT":" ","MAREA":"大埤寮","LANE":" ","ALLEY":" ","HOUSE_NO":"７９之２９號","E_COORD97":173072.959596,"N_COORD97":2569529.7089399998,"ADDRESS":"大埤寮７９之２９號","OBJECTID":443438},"geometry":{"x":173072.95959600154,"y":2569529.7089400012}},{"attributes":{"ID":443464,"DIS_CODE":0,"TOWNNAME":"東區","LI":"龍山里","LIN":"5鄰","STREET":"崇仁街","SECT":" ","MAREA":" ","LANE":"６６巷","ALLEY":" ","HOUSE_NO":"２２號四樓","E_COORD97":170280.03,"N_COORD97":2542679.8799999999,"ADDRESS":"崇仁街６６巷２２號四樓","OBJECTID":443439},"geometry":{"x":170280.03000000119,"y":2542679.879999999}},{"attributes":{"ID":443465,"DIS_CODE":0,"TOWNNAME":"東區","LI":"龍山里","LIN":"5鄰","STREET":"崇仁街","SECT":" ","MAREA":" ","LANE":"６６巷","ALLEY":" ","HOUSE_NO":"２２號五樓","E_COORD97":170280.03,"N_COORD97":2542679.8799999999,"ADDRESS":"崇仁街６６巷２２號五樓","OBJECTID":443440},"geometry":{"x":170280.03000000119,"y":2542679.879999999}},{"attributes":{"ID":443466,"DIS_CODE":0,"TOWNNAME":"東區","LI":"龍山里","LIN":"5鄰","STREET":"崇仁街","SECT":" ","MAREA":" ","LANE":"６６巷","ALLEY":" ","HOUSE_NO":"２２號六樓","E_COORD97":170280.03,"N_COORD97":2542679.8799999999,"ADDRESS":"崇仁街６６巷２２號六樓","OBJECTID":443441},"geometry":{"x":170280.03000000119,"y":2542679.879999999}},{"attributes":{"ID":443467,"DIS_CODE":0,"TOWNNAME":"東區","LI":"龍山里","LIN":"5鄰","STREET":"崇仁街","SECT":" ","MAREA":" ","LANE":"６６巷","ALLEY":" ","HOUSE_NO":"２２號七樓","E_COORD97":170280.03,"N_COORD97":2542679.8799999999,"ADDRESS":"崇仁街６６巷２２號七樓","OBJECTID":443442},"geometry":{"x":170280.03000000119,"y":2542679.879999999}},{"attributes":{"ID":443468,"DIS_CODE":0,"TOWNNAME":"東區","LI":"龍山里","LIN":"5鄰","STREET":"崇仁街","SECT":" ","MAREA":" ","LANE":"６６巷","ALLEY":" ","HOUSE_NO":"２２號八樓","E_COORD97":170280.03,"N_COORD97":2542679.8799999999,"ADDRESS":"崇仁街６６巷２２號八樓","OBJECTID":443443},"geometry":{"x":170280.03000000119,"y":2542679.879999999}},{"attributes":{"ID":443469,"DIS_CODE":0,"TOWNNAME":"東區","LI":"龍山里","LIN":"5鄰","STREET":"崇仁街","SECT":" ","MAREA":" ","LANE":"６６巷","ALLEY":" ","HOUSE_NO":"２２號九樓","E_COORD97":170280.03,"N_COORD97":2542679.8799999999,"ADDRESS":"崇仁街６６巷２２號九樓","OBJECTID":443444},"geometry":{"x":170280.03000000119,"y":2542679.879999999}},{"attributes":{"ID":443470,"DIS_CODE":0,"TOWNNAME":"東區","LI":"龍山里","LIN":"5鄰","STREET":"崇仁街","SECT":" ","MAREA":" ","LANE":"６６巷","ALLEY":" ","HOUSE_NO":"２２號十樓","E_COORD97":170280.03,"N_COORD97":2542679.8799999999,"ADDRESS":"崇仁街６６巷２２號十樓","OBJECTID":443445},"geometry":{"x":170280.03000000119,"y":2542679.879999999}},{"attributes":{"ID":443471,"DIS_CODE":0,"TOWNNAME":"東區","LI":"龍山里","LIN":"5鄰","STREET":"崇仁街","SECT":" ","MAREA":" ","LANE":"６６巷","ALLEY":" ","HOUSE_NO":"２２號十一樓","E_COORD97":170280.03,"N_COORD97":2542679.8799999999,"ADDRESS":"崇仁街６６巷２２號十一樓","OBJECTID":443446},"geometry":{"x":170280.03000000119,"y":2542679.879999999}},{"attributes":{"ID":443472,"DIS_CODE":0,"TOWNNAME":"東區","LI":"龍山里","LIN":"5鄰","STREET":"崇仁街","SECT":" ","MAREA":" ","LANE":"６６巷","ALLEY":" ","HOUSE_NO":"２２號十二樓","E_COORD97":170280.03,"N_COORD97":2542679.8799999999,"ADDRESS":"崇仁街６６巷２２號十二樓","OBJECTID":443447},"geometry":{"x":170280.03000000119,"y":2542679.879999999}},{"attributes":{"ID":443473,"DIS_CODE":0,"TOWNNAME":"東區","LI":"龍山里","LIN":"5鄰","STREET":"崇仁街","SECT":" ","MAREA":" ","LANE":"６６巷","ALLEY":" ","HOUSE_NO":"２２號十三樓","E_COORD97":170280.03,"N_COORD97":2542679.8799999999,"ADDRESS":"崇仁街６６巷２２號十三樓","OBJECTID":443448},"geometry":{"x":170280.03000000119,"y":2542679.879999999}},{"attributes":{"ID":443474,"DIS_CODE":0,"TOWNNAME":"東區","LI":"龍山里","LIN":"5鄰","STREET":"崇仁街","SECT":" ","MAREA":" ","LANE":"６６巷","ALLEY":" ","HOUSE_NO":"２２號十四樓","E_COORD97":170280.03,"N_COORD97":2542679.8799999999,"ADDRESS":"崇仁街６６巷２２號十四樓","OBJECTID":443449},"geometry":{"x":170280.03000000119,"y":2542679.879999999}},{"attributes":{"ID":443475,"DIS_CODE":0,"TOWNNAME":"東區","LI":"龍山里","LIN":"5鄰","STREET":"崇仁街","SECT":" ","MAREA":" ","LANE":"６６巷","ALLEY":" ","HOUSE_NO":"２８號二樓","E_COORD97":170265.17000000001,"N_COORD97":2542660.5899999999,"ADDRESS":"崇仁街６６巷２８號二樓","OBJECTID":443450},"geometry":{"x":170265.17000000086,"y":2542660.5900000036}},{"attributes":{"ID":443476,"DIS_CODE":0,"TOWNNAME":"東區","LI":"龍山里","LIN":"5鄰","STREET":"崇仁街","SECT":" ","MAREA":" ","LANE":"６６巷","ALLEY":" ","HOUSE_NO":"２８號三樓","E_COORD97":170265.17000000001,"N_COORD97":2542660.5899999999,"ADDRESS":"崇仁街６６巷２８號三樓","OBJECTID":443451},"geometry":{"x":170265.17000000086,"y":2542660.5900000036}},{"attributes":{"ID":443477,"DIS_CODE":0,"TOWNNAME":"東區","LI":"龍山里","LIN":"5鄰","STREET":"崇仁街","SECT":" ","MAREA":" ","LANE":"６６巷","ALLEY":" ","HOUSE_NO":"２８號四樓","E_COORD97":170265.17000000001,"N_COORD97":2542660.5899999999,"ADDRESS":"崇仁街６６巷２８號四樓","OBJECTID":443452},"geometry":{"x":170265.17000000086,"y":2542660.5900000036}},{"attributes":{"ID":443478,"DIS_CODE":0,"TOWNNAME":"東區","LI":"龍山里","LIN":"5鄰","STREET":"崇仁街","SECT":" ","MAREA":" ","LANE":"６６巷","ALLEY":" ","HOUSE_NO":"２８號六樓","E_COORD97":170265.17000000001,"N_COORD97":2542660.5899999999,"ADDRESS":"崇仁街６６巷２８號六樓","OBJECTID":443453},"geometry":{"x":170265.17000000086,"y":2542660.5900000036}},{"attributes":{"ID":443479,"DIS_CODE":0,"TOWNNAME":"東區","LI":"龍山里","LIN":"5鄰","STREET":"崇仁街","SECT":" ","MAREA":" ","LANE":"６６巷","ALLEY":" ","HOUSE_NO":"２８號七樓","E_COORD97":170265.17000000001,"N_COORD97":2542660.5899999999,"ADDRESS":"崇仁街６６巷２８號七樓","OBJECTID":443454},"geometry":{"x":170265.17000000086,"y":2542660.5900000036}},{"attributes":{"ID":443480,"DIS_CODE":0,"TOWNNAME":"東區","LI":"龍山里","LIN":"5鄰","STREET":"崇仁街","SECT":" ","MAREA":" ","LANE":"６６巷","ALLEY":" ","HOUSE_NO":"２８號八樓","E_COORD97":170265.17000000001,"N_COORD97":2542660.5899999999,"ADDRESS":"崇仁街６６巷２８號八樓","OBJECTID":443455},"geometry":{"x":170265.17000000086,"y":2542660.5900000036}},{"attributes":{"ID":443481,"DIS_CODE":0,"TOWNNAME":"永康區","LI":"埔園里","LIN":"20鄰","STREET":"四維街","SECT":" ","MAREA":" ","LANE":"１０２巷","ALLEY":" ","HOUSE_NO":"２９號","E_COORD97":173456.12,"N_COORD97":2548246,"ADDRESS":"四維街１０２巷２９號","OBJECTID":443456},"geometry":{"x":173456.12000000104,"y":2548246.0000000019}},{"attributes":{"ID":443482,"DIS_CODE":0,"TOWNNAME":"永康區","LI":"網寮里","LIN":"24鄰","STREET":"永春街","SECT":" ","MAREA":" ","LANE":"３８巷","ALLEY":" ","HOUSE_NO":"３５號","E_COORD97":173828.19,"N_COORD97":2546457.3999999999,"ADDRESS":"永春街３８巷３５號","OBJECTID":443457},"geometry":{"x":173828.19000000041,"y":2546457.4000000022}},{"attributes":{"ID":443483,"DIS_CODE":0,"TOWNNAME":"東區","LI":"龍山里","LIN":"5鄰","STREET":"崇仁街","SECT":" ","MAREA":" ","LANE":"６６巷","ALLEY":" ","HOUSE_NO":"２８號九樓","E_COORD97":170265.17000000001,"N_COORD97":2542660.5899999999,"ADDRESS":"崇仁街６６巷２８號九樓","OBJECTID":443458},"geometry":{"x":170265.17000000086,"y":2542660.5900000036}},{"attributes":{"ID":443484,"DIS_CODE":0,"TOWNNAME":"東區","LI":"龍山里","LIN":"5鄰","STREET":"崇仁街","SECT":" ","MAREA":" ","LANE":"６６巷","ALLEY":" ","HOUSE_NO":"２８號十樓","E_COORD97":170265.17000000001,"N_COORD97":2542660.5899999999,"ADDRESS":"崇仁街６６巷２８號十樓","OBJECTID":443459},"geometry":{"x":170265.17000000086,"y":2542660.5900000036}},{"attributes":{"ID":443485,"DIS_CODE":0,"TOWNNAME":"東區","LI":"龍山里","LIN":"5鄰","STREET":"崇仁街","SECT":" ","MAREA":" ","LANE":"６６巷","ALLEY":" ","HOUSE_NO":"２８號十一樓","E_COORD97":170265.17000000001,"N_COORD97":2542660.5899999999,"ADDRESS":"崇仁街６６巷２８號十一樓","OBJECTID":443460},"geometry":{"x":170265.17000000086,"y":2542660.5900000036}},{"attributes":{"ID":443486,"DIS_CODE":0,"TOWNNAME":"東區","LI":"龍山里","LIN":"5鄰","STREET":"崇仁街","SECT":" ","MAREA":" ","LANE":"６６巷","ALLEY":" ","HOUSE_NO":"２８號十二樓","E_COORD97":170265.17000000001,"N_COORD97":2542660.5899999999,"ADDRESS":"崇仁街６６巷２８號十二樓","OBJECTID":443461},"geometry":{"x":170265.17000000086,"y":2542660.5900000036}},{"attributes":{"ID":443487,"DIS_CODE":0,"TOWNNAME":"東區","LI":"龍山里","LIN":"5鄰","STREET":"崇善路","SECT":" ","MAREA":" ","LANE":"２５巷","ALLEY":" ","HOUSE_NO":"８８號二樓","E_COORD97":170257.87,"N_COORD97":2542666.3199999998,"ADDRESS":"崇善路２５巷８８號二樓","OBJECTID":443462},"geometry":{"x":170257.87000000011,"y":2542666.320000004}},{"attributes":{"ID":443488,"DIS_CODE":0,"TOWNNAME":"東區","LI":"龍山里","LIN":"5鄰","STREET":"崇善路","SECT":" ","MAREA":" ","LANE":"２５巷","ALLEY":" ","HOUSE_NO":"８８號三樓","E_COORD97":170257.87,"N_COORD97":2542666.3199999998,"ADDRESS":"崇善路２５巷８８號三樓","OBJECTID":443463},"geometry":{"x":170257.87000000011,"y":2542666.320000004}},{"attributes":{"ID":443489,"DIS_CODE":0,"TOWNNAME":"東區","LI":"龍山里","LIN":"5鄰","STREET":"崇善路","SECT":" ","MAREA":" ","LANE":"２５巷","ALLEY":" ","HOUSE_NO":"８８號四樓","E_COORD97":170257.87,"N_COORD97":2542666.3199999998,"ADDRESS":"崇善路２５巷８８號四樓","OBJECTID":443464},"geometry":{"x":170257.87000000011,"y":2542666.320000004}},{"attributes":{"ID":443490,"DIS_CODE":0,"TOWNNAME":"東區","LI":"龍山里","LIN":"5鄰","STREET":"崇仁街","SECT":" ","MAREA":" ","LANE":"６６巷","ALLEY":" ","HOUSE_NO":"８號十一樓","E_COORD97":170317.57999999999,"N_COORD97":2542726.29,"ADDRESS":"崇仁街６６巷８號十一樓","OBJECTID":443465},"geometry":{"x":170317.58000000007,"y":2542726.2900000028}},{"attributes":{"ID":443491,"DIS_CODE":0,"TOWNNAME":"東區","LI":"龍山里","LIN":"5鄰","STREET":"崇仁街","SECT":" ","MAREA":" ","LANE":"６６巷","ALLEY":" ","HOUSE_NO":"８號十二樓","E_COORD97":170317.57999999999,"N_COORD97":2542726.29,"ADDRESS":"崇仁街６６巷８號十二樓","OBJECTID":443466},"geometry":{"x":170317.58000000007,"y":2542726.2900000028}},{"attributes":{"ID":443492,"DIS_CODE":0,"TOWNNAME":"東區","LI":"龍山里","LIN":"5鄰","STREET":"崇仁街","SECT":" ","MAREA":" ","LANE":"６６巷","ALLEY":" ","HOUSE_NO":"８號十三樓","E_COORD97":170317.57999999999,"N_COORD97":2542726.29,"ADDRESS":"崇仁街６６巷８號十三樓","OBJECTID":443467},"geometry":{"x":170317.58000000007,"y":2542726.2900000028}},{"attributes":{"ID":443493,"DIS_CODE":0,"TOWNNAME":"東區","LI":"龍山里","LIN":"5鄰","STREET":"崇仁街","SECT":" ","MAREA":" ","LANE":"６６巷","ALLEY":" ","HOUSE_NO":"８號十四樓","E_COORD97":170317.57999999999,"N_COORD97":2542726.29,"ADDRESS":"崇仁街６６巷８號十四樓","OBJECTID":443468},"geometry":{"x":170317.58000000007,"y":2542726.2900000028}},{"attributes":{"ID":443494,"DIS_CODE":0,"TOWNNAME":"東區","LI":"龍山里","LIN":"5鄰","STREET":"崇仁街","SECT":" ","MAREA":" ","LANE":"６６巷","ALLEY":" ","HOUSE_NO":"６號二樓","E_COORD97":170322.53,"N_COORD97":2542733.6000000001,"ADDRESS":"崇仁街６６巷６號二樓","OBJECTID":443469},"geometry":{"x":170322.53000000119,"y":2542733.5999999996}},{"attributes":{"ID":443495,"DIS_CODE":0,"TOWNNAME":"玉井區","LI":"望明里","LIN":"7鄰","STREET":" ","SECT":" ","MAREA":"望明","LANE":" ","ALLEY":" ","HOUSE_NO":"８１號之４","E_COORD97":194374.460513,"N_COORD97":2556207.5636999998,"ADDRESS":"望明８１號之４","OBJECTID":443470},"geometry":{"x":194374.46051300038,"y":2556207.5636980012}},{"attributes":{"ID":443496,"DIS_CODE":0,"TOWNNAME":"東區","LI":"龍山里","LIN":"5鄰","STREET":"崇仁街","SECT":" ","MAREA":" ","LANE":"６６巷","ALLEY":" ","HOUSE_NO":"６號三樓","E_COORD97":170322.53,"N_COORD97":2542733.6000000001,"ADDRESS":"崇仁街６６巷６號三樓","OBJECTID":443471},"geometry":{"x":170322.53000000119,"y":2542733.5999999996}},{"attributes":{"ID":443497,"DIS_CODE":0,"TOWNNAME":"東區","LI":"龍山里","LIN":"5鄰","STREET":"崇仁街","SECT":" ","MAREA":" ","LANE":"６６巷","ALLEY":" ","HOUSE_NO":"２６號二樓","E_COORD97":170273.25,"N_COORD97":2542669.1899999999,"ADDRESS":"崇仁街６６巷２６號二樓","OBJECTID":443472},"geometry":{"x":170273.25000000093,"y":2542669.1899999995}},{"attributes":{"ID":443498,"DIS_CODE":0,"TOWNNAME":"東區","LI":"龍山里","LIN":"5鄰","STREET":"崇仁街","SECT":" ","MAREA":" ","LANE":"６６巷","ALLEY":" ","HOUSE_NO":"２６號三樓","E_COORD97":170273.25,"N_COORD97":2542669.1899999999,"ADDRESS":"崇仁街６６巷２６號三樓","OBJECTID":443473},"geometry":{"x":170273.25000000093,"y":2542669.1899999995}},{"attributes":{"ID":443499,"DIS_CODE":0,"TOWNNAME":"東區","LI":"龍山里","LIN":"5鄰","STREET":"崇仁街","SECT":" ","MAREA":" ","LANE":"６６巷","ALLEY":" ","HOUSE_NO":"２６號四樓","E_COORD97":170273.25,"N_COORD97":2542669.1899999999,"ADDRESS":"崇仁街６６巷２６號四樓","OBJECTID":443474},"geometry":{"x":170273.25000000093,"y":2542669.1899999995}},{"attributes":{"ID":443500,"DIS_CODE":0,"TOWNNAME":"永康區","LI":"三合里","LIN":"5鄰","STREET":"南工街","SECT":" ","MAREA":" ","LANE":"８２巷","ALLEY":" ","HOUSE_NO":"１號","E_COORD97":172118.39000000001,"N_COORD97":2545693.5,"ADDRESS":"南工街８２巷１號","OBJECTID":443475},"geometry":{"x":172118.3900000006,"y":2545693.5000000019}},{"attributes":{"ID":443501,"DIS_CODE":0,"TOWNNAME":"東區","LI":"龍山里","LIN":"5鄰","STREET":"崇仁街","SECT":" ","MAREA":" ","LANE":"６６巷","ALLEY":" ","HOUSE_NO":"２６號五樓","E_COORD97":170273.25,"N_COORD97":2542669.1899999999,"ADDRESS":"崇仁街６６巷２６號五樓","OBJECTID":443476},"geometry":{"x":170273.25000000093,"y":2542669.1899999995}},{"attributes":{"ID":443502,"DIS_CODE":0,"TOWNNAME":"東區","LI":"龍山里","LIN":"5鄰","STREET":"崇仁街","SECT":" ","MAREA":" ","LANE":"６６巷","ALLEY":" ","HOUSE_NO":"２６號六樓","E_COORD97":170273.25,"N_COORD97":2542669.1899999999,"ADDRESS":"崇仁街６６巷２６號六樓","OBJECTID":443477},"geometry":{"x":170273.25000000093,"y":2542669.1899999995}},{"attributes":{"ID":443503,"DIS_CODE":0,"TOWNNAME":"東區","LI":"龍山里","LIN":"5鄰","STREET":"崇仁街","SECT":" ","MAREA":" ","LANE":"６６巷","ALLEY":" ","HOUSE_NO":"２６號七樓","E_COORD97":170273.25,"N_COORD97":2542669.1899999999,"ADDRESS":"崇仁街６６巷２６號七樓","OBJECTID":443478},"geometry":{"x":170273.25000000093,"y":2542669.1899999995}},{"attributes":{"ID":443504,"DIS_CODE":0,"TOWNNAME":"東區","LI":"龍山里","LIN":"5鄰","STREET":"崇仁街","SECT":" ","MAREA":" ","LANE":"６６巷","ALLEY":" ","HOUSE_NO":"２６號八樓","E_COORD97":170273.25,"N_COORD97":2542669.1899999999,"ADDRESS":"崇仁街６６巷２６號八樓","OBJECTID":443479},"geometry":{"x":170273.25000000093,"y":2542669.1899999995}},{"attributes":{"ID":443505,"DIS_CODE":0,"TOWNNAME":"東區","LI":"龍山里","LIN":"5鄰","STREET":"崇仁街","SECT":" ","MAREA":" ","LANE":"６６巷","ALLEY":" ","HOUSE_NO":"２６號九樓","E_COORD97":170273.25,"N_COORD97":2542669.1899999999,"ADDRESS":"崇仁街６６巷２６號九樓","OBJECTID":443480},"geometry":{"x":170273.25000000093,"y":2542669.1899999995}},{"attributes":{"ID":443506,"DIS_CODE":0,"TOWNNAME":"東區","LI":"龍山里","LIN":"5鄰","STREET":"崇仁街","SECT":" ","MAREA":" ","LANE":"６６巷","ALLEY":" ","HOUSE_NO":"２６號十樓","E_COORD97":170273.25,"N_COORD97":2542669.1899999999,"ADDRESS":"崇仁街６６巷２６號十樓","OBJECTID":443481},"geometry":{"x":170273.25000000093,"y":2542669.1899999995}},{"attributes":{"ID":443507,"DIS_CODE":0,"TOWNNAME":"東區","LI":"龍山里","LIN":"5鄰","STREET":"崇仁街","SECT":" ","MAREA":" ","LANE":"６６巷","ALLEY":" ","HOUSE_NO":"２６號十一樓","E_COORD97":170273.25,"N_COORD97":2542669.1899999999,"ADDRESS":"崇仁街６６巷２６號十一樓","OBJECTID":443482},"geometry":{"x":170273.25000000093,"y":2542669.1899999995}},{"attributes":{"ID":443508,"DIS_CODE":0,"TOWNNAME":"永康區","LI":"神洲里","LIN":"5鄰","STREET":"忠孝路","SECT":" ","MAREA":" ","LANE":"３８巷","ALLEY":" ","HOUSE_NO":"９號","E_COORD97":172119.25,"N_COORD97":2544707.71,"ADDRESS":"忠孝路３８巷９號","OBJECTID":443483},"geometry":{"x":172119.25000000093,"y":2544707.7100000009}},{"attributes":{"ID":443509,"DIS_CODE":0,"TOWNNAME":"永康區","LI":"尚頂里","LIN":" ","STREET":"南台街","SECT":" ","MAREA":" ","LANE":"１０巷","ALLEY":" ","HOUSE_NO":"８號","E_COORD97":170480.64999999999,"N_COORD97":2546973.75,"ADDRESS":"南台街１０巷８號","OBJECTID":443484},"geometry":{"x":170480.65000000037,"y":2546973.7500000019}},{"attributes":{"ID":443510,"DIS_CODE":0,"TOWNNAME":"東區","LI":"龍山里","LIN":"5鄰","STREET":"崇仁街","SECT":" ","MAREA":" ","LANE":"６６巷","ALLEY":" ","HOUSE_NO":"１８號三樓","E_COORD97":170293.07000000001,"N_COORD97":2542694.48,"ADDRESS":"崇仁街６６巷１８號三樓","OBJECTID":443485},"geometry":{"x":170293.06999999937,"y":2542694.4800000004}},{"attributes":{"ID":443511,"DIS_CODE":0,"TOWNNAME":"永康區","LI":"三民里","LIN":"4鄰","STREET":"三民街","SECT":" ","MAREA":" ","LANE":"９０巷","ALLEY":" ","HOUSE_NO":"１３號","E_COORD97":172965.42000000001,"N_COORD97":2550340.2799999998,"ADDRESS":"三民街９０巷１３號","OBJECTID":443486},"geometry":{"x":172965.42000000179,"y":2550340.2799999993}},{"attributes":{"ID":443512,"DIS_CODE":0,"TOWNNAME":"東區","LI":"龍山里","LIN":"5鄰","STREET":"崇仁街","SECT":" ","MAREA":" ","LANE":"６６巷","ALLEY":" ","HOUSE_NO":"１８號四樓","E_COORD97":170293.07000000001,"N_COORD97":2542694.48,"ADDRESS":"崇仁街６６巷１８號四樓","OBJECTID":443487},"geometry":{"x":170293.06999999937,"y":2542694.4800000004}},{"attributes":{"ID":443513,"DIS_CODE":0,"TOWNNAME":"東區","LI":"龍山里","LIN":"5鄰","STREET":"崇仁街","SECT":" ","MAREA":" ","LANE":"６６巷","ALLEY":" ","HOUSE_NO":"１８號五樓","E_COORD97":170293.07000000001,"N_COORD97":2542694.48,"ADDRESS":"崇仁街６６巷１８號五樓","OBJECTID":443488},"geometry":{"x":170293.06999999937,"y":2542694.4800000004}},{"attributes":{"ID":443514,"DIS_CODE":0,"TOWNNAME":"東區","LI":"龍山里","LIN":"5鄰","STREET":"崇仁街","SECT":" ","MAREA":" ","LANE":"６６巷","ALLEY":" ","HOUSE_NO":"１８號六樓","E_COORD97":170293.07000000001,"N_COORD97":2542694.48,"ADDRESS":"崇仁街６６巷１８號六樓","OBJECTID":443489},"geometry":{"x":170293.06999999937,"y":2542694.4800000004}},{"attributes":{"ID":443515,"DIS_CODE":0,"TOWNNAME":"東區","LI":"龍山里","LIN":"5鄰","STREET":"崇仁街","SECT":" ","MAREA":" ","LANE":"６６巷","ALLEY":" ","HOUSE_NO":"１８號七樓","E_COORD97":170293.07000000001,"N_COORD97":2542694.48,"ADDRESS":"崇仁街６６巷１８號七樓","OBJECTID":443490},"geometry":{"x":170293.06999999937,"y":2542694.4800000004}},{"attributes":{"ID":443516,"DIS_CODE":0,"TOWNNAME":"東區","LI":"龍山里","LIN":"5鄰","STREET":"崇仁街","SECT":" ","MAREA":" ","LANE":"６６巷","ALLEY":" ","HOUSE_NO":"１８號八樓","E_COORD97":170293.07000000001,"N_COORD97":2542694.48,"ADDRESS":"崇仁街６６巷１８號八樓","OBJECTID":443491},"geometry":{"x":170293.06999999937,"y":2542694.4800000004}},{"attributes":{"ID":443517,"DIS_CODE":0,"TOWNNAME":"東區","LI":"龍山里","LIN":"5鄰","STREET":"崇仁街","SECT":" ","MAREA":" ","LANE":"６６巷","ALLEY":" ","HOUSE_NO":"１８號九樓","E_COORD97":170293.07000000001,"N_COORD97":2542694.48,"ADDRESS":"崇仁街６６巷１８號九樓","OBJECTID":443492},"geometry":{"x":170293.06999999937,"y":2542694.4800000004}},{"attributes":{"ID":443518,"DIS_CODE":0,"TOWNNAME":"東區","LI":"龍山里","LIN":"5鄰","STREET":"崇仁街","SECT":" ","MAREA":" ","LANE":"６６巷","ALLEY":" ","HOUSE_NO":"１８號十樓","E_COORD97":170293.07000000001,"N_COORD97":2542694.48,"ADDRESS":"崇仁街６６巷１８號十樓","OBJECTID":443493},"geometry":{"x":170293.06999999937,"y":2542694.4800000004}},{"attributes":{"ID":443519,"DIS_CODE":0,"TOWNNAME":"東區","LI":"龍山里","LIN":"5鄰","STREET":"崇仁街","SECT":" ","MAREA":" ","LANE":"６６巷","ALLEY":" ","HOUSE_NO":"１８號十一樓","E_COORD97":170293.07000000001,"N_COORD97":2542694.48,"ADDRESS":"崇仁街６６巷１８號十一樓","OBJECTID":443494},"geometry":{"x":170293.06999999937,"y":2542694.4800000004}},{"attributes":{"ID":443520,"DIS_CODE":0,"TOWNNAME":"東區","LI":"龍山里","LIN":"5鄰","STREET":"崇仁街","SECT":" ","MAREA":" ","LANE":"６６巷","ALLEY":" ","HOUSE_NO":"１８號十二樓","E_COORD97":170293.07000000001,"N_COORD97":2542694.48,"ADDRESS":"崇仁街６６巷１８號十二樓","OBJECTID":443495},"geometry":{"x":170293.06999999937,"y":2542694.4800000004}},{"attributes":{"ID":443521,"DIS_CODE":0,"TOWNNAME":"東區","LI":"龍山里","LIN":"5鄰","STREET":"崇仁街","SECT":" ","MAREA":" ","LANE":"６６巷","ALLEY":" ","HOUSE_NO":"１８號十三樓","E_COORD97":170293.07000000001,"N_COORD97":2542694.48,"ADDRESS":"崇仁街６６巷１８號十三樓","OBJECTID":443496},"geometry":{"x":170293.06999999937,"y":2542694.4800000004}},{"attributes":{"ID":443522,"DIS_CODE":0,"TOWNNAME":"東區","LI":"龍山里","LIN":"5鄰","STREET":"崇仁街","SECT":" ","MAREA":" ","LANE":"６６巷","ALLEY":" ","HOUSE_NO":"１８號十四樓","E_COORD97":170293.07000000001,"N_COORD97":2542694.48,"ADDRESS":"崇仁街６６巷１８號十四樓","OBJECTID":443497},"geometry":{"x":170293.06999999937,"y":2542694.4800000004}},{"attributes":{"ID":443523,"DIS_CODE":0,"TOWNNAME":"東區","LI":"龍山里","LIN":"5鄰","STREET":"崇仁街","SECT":" ","MAREA":" ","LANE":"６６巷","ALLEY":" ","HOUSE_NO":"２０號三樓","E_COORD97":170286.81,"N_COORD97":2542687.71,"ADDRESS":"崇仁街６６巷２０號三樓","OBJECTID":443498},"geometry":{"x":170286.80999999959,"y":2542687.709999999}},{"attributes":{"ID":443524,"DIS_CODE":0,"TOWNNAME":"東區","LI":"龍山里","LIN":"5鄰","STREET":"崇善路","SECT":" ","MAREA":" ","LANE":"２５巷","ALLEY":" ","HOUSE_NO":"８８號五樓","E_COORD97":170257.87,"N_COORD97":2542666.3199999998,"ADDRESS":"崇善路２５巷８８號五樓","OBJECTID":443499},"geometry":{"x":170257.87000000011,"y":2542666.320000004}},{"attributes":{"ID":443525,"DIS_CODE":0,"TOWNNAME":"東區","LI":"龍山里","LIN":"5鄰","STREET":"崇善路","SECT":" ","MAREA":" ","LANE":"２５巷","ALLEY":" ","HOUSE_NO":"８８號六樓","E_COORD97":170257.87,"N_COORD97":2542666.3199999998,"ADDRESS":"崇善路２５巷８８號六樓","OBJECTID":443500},"geometry":{"x":170257.87000000011,"y":2542666.320000004}},{"attributes":{"ID":443526,"DIS_CODE":0,"TOWNNAME":"東區","LI":"龍山里","LIN":"5鄰","STREET":"崇善路","SECT":" ","MAREA":" ","LANE":"２５巷","ALLEY":" ","HOUSE_NO":"８８號七樓","E_COORD97":170257.87,"N_COORD97":2542666.3199999998,"ADDRESS":"崇善路２５巷８８號七樓","OBJECTID":443501},"geometry":{"x":170257.87000000011,"y":2542666.320000004}},{"attributes":{"ID":443527,"DIS_CODE":0,"TOWNNAME":"東區","LI":"龍山里","LIN":"5鄰","STREET":"崇善路","SECT":" ","MAREA":" ","LANE":"２５巷","ALLEY":" ","HOUSE_NO":"８８號八樓","E_COORD97":170257.87,"N_COORD97":2542666.3199999998,"ADDRESS":"崇善路２５巷８８號八樓","OBJECTID":443502},"geometry":{"x":170257.87000000011,"y":2542666.320000004}},{"attributes":{"ID":443528,"DIS_CODE":0,"TOWNNAME":"東區","LI":"龍山里","LIN":"5鄰","STREET":"崇善路","SECT":" ","MAREA":" ","LANE":"２５巷","ALLEY":" ","HOUSE_NO":"８８號九樓","E_COORD97":170257.87,"N_COORD97":2542666.3199999998,"ADDRESS":"崇善路２５巷８８號九樓","OBJECTID":443503},"geometry":{"x":170257.87000000011,"y":2542666.320000004}},{"attributes":{"ID":443529,"DIS_CODE":0,"TOWNNAME":"永康區","LI":"尚頂里","LIN":" ","STREET":"尚頂路","SECT":" ","MAREA":" ","LANE":"１７７巷","ALLEY":" ","HOUSE_NO":"１３號","E_COORD97":170729.85999999999,"N_COORD97":2547831.2400000002,"ADDRESS":"尚頂路１７７巷１３號","OBJECTID":443504},"geometry":{"x":170729.86000000034,"y":2547831.2400000021}},{"attributes":{"ID":443530,"DIS_CODE":0,"TOWNNAME":"東區","LI":"龍山里","LIN":"5鄰","STREET":"崇善路","SECT":" ","MAREA":" ","LANE":"２５巷","ALLEY":" ","HOUSE_NO":"８８號十樓","E_COORD97":170257.87,"N_COORD97":2542666.3199999998,"ADDRESS":"崇善路２５巷８８號十樓","OBJECTID":443505},"geometry":{"x":170257.87000000011,"y":2542666.320000004}},{"attributes":{"ID":443531,"DIS_CODE":0,"TOWNNAME":"永康區","LI":"埔園里","LIN":"4鄰","STREET":"聖龍街","SECT":" ","MAREA":" ","LANE":"７０巷","ALLEY":" ","HOUSE_NO":"１３號","E_COORD97":173995.89999999999,"N_COORD97":2547774.0899999999,"ADDRESS":"聖龍街７０巷１３號","OBJECTID":443506},"geometry":{"x":173995.90000000037,"y":2547774.0900000017}},{"attributes":{"ID":443532,"DIS_CODE":0,"TOWNNAME":"東區","LI":"龍山里","LIN":"5鄰","STREET":"崇善路","SECT":" ","MAREA":" ","LANE":"２５巷","ALLEY":" ","HOUSE_NO":"８８號十一樓","E_COORD97":170257.87,"N_COORD97":2542666.3199999998,"ADDRESS":"崇善路２５巷８８號十一樓","OBJECTID":443507},"geometry":{"x":170257.87000000011,"y":2542666.320000004}},{"attributes":{"ID":443533,"DIS_CODE":0,"TOWNNAME":"東區","LI":"龍山里","LIN":"5鄰","STREET":"崇善路","SECT":" ","MAREA":" ","LANE":"２５巷","ALLEY":" ","HOUSE_NO":"８８號十二樓","E_COORD97":170257.87,"N_COORD97":2542666.3199999998,"ADDRESS":"崇善路２５巷８８號十二樓","OBJECTID":443508},"geometry":{"x":170257.87000000011,"y":2542666.320000004}},{"attributes":{"ID":443534,"DIS_CODE":0,"TOWNNAME":"東區","LI":"龍山里","LIN":"5鄰","STREET":"崇善路","SECT":" ","MAREA":" ","LANE":"２５巷","ALLEY":" ","HOUSE_NO":"８８號十三樓","E_COORD97":170257.87,"N_COORD97":2542666.3199999998,"ADDRESS":"崇善路２５巷８８號十三樓","OBJECTID":443509},"geometry":{"x":170257.87000000011,"y":2542666.320000004}},{"attributes":{"ID":443535,"DIS_CODE":0,"TOWNNAME":"東區","LI":"龍山里","LIN":"5鄰","STREET":"崇善路","SECT":" ","MAREA":" ","LANE":"２５巷","ALLEY":" ","HOUSE_NO":"８８號十四樓","E_COORD97":170257.87,"N_COORD97":2542666.3199999998,"ADDRESS":"崇善路２５巷８８號十四樓","OBJECTID":443510},"geometry":{"x":170257.87000000011,"y":2542666.320000004}},{"attributes":{"ID":443536,"DIS_CODE":0,"TOWNNAME":"東區","LI":"龍山里","LIN":"5鄰","STREET":"崇善路","SECT":" ","MAREA":" ","LANE":"２５巷","ALLEY":" ","HOUSE_NO":"９０號二樓","E_COORD97":170247.44,"N_COORD97":2542673.6299999999,"ADDRESS":"崇善路２５巷９０號二樓","OBJECTID":443511},"geometry":{"x":170247.44000000134,"y":2542673.6300000008}},{"attributes":{"ID":443537,"DIS_CODE":0,"TOWNNAME":"東區","LI":"龍山里","LIN":"5鄰","STREET":"崇善路","SECT":" ","MAREA":" ","LANE":"２５巷","ALLEY":" ","HOUSE_NO":"９０號三樓","E_COORD97":170247.44,"N_COORD97":2542673.6299999999,"ADDRESS":"崇善路２５巷９０號三樓","OBJECTID":443512},"geometry":{"x":170247.44000000134,"y":2542673.6300000008}},{"attributes":{"ID":443538,"DIS_CODE":0,"TOWNNAME":"東區","LI":"龍山里","LIN":"5鄰","STREET":"崇善路","SECT":" ","MAREA":" ","LANE":"２５巷","ALLEY":" ","HOUSE_NO":"９０號四樓","E_COORD97":170247.44,"N_COORD97":2542673.6299999999,"ADDRESS":"崇善路２５巷９０號四樓","OBJECTID":443513},"geometry":{"x":170247.44000000134,"y":2542673.6300000008}},{"attributes":{"ID":443539,"DIS_CODE":0,"TOWNNAME":"東區","LI":"龍山里","LIN":"5鄰","STREET":"崇善路","SECT":" ","MAREA":" ","LANE":"２５巷","ALLEY":" ","HOUSE_NO":"９０號五樓","E_COORD97":170247.44,"N_COORD97":2542673.6299999999,"ADDRESS":"崇善路２５巷９０號五樓","OBJECTID":443514},"geometry":{"x":170247.44000000134,"y":2542673.6300000008}},{"attributes":{"ID":443540,"DIS_CODE":0,"TOWNNAME":"東區","LI":"龍山里","LIN":"5鄰","STREET":"崇善路","SECT":" ","MAREA":" ","LANE":"２５巷","ALLEY":" ","HOUSE_NO":"９０號六樓","E_COORD97":170247.44,"N_COORD97":2542673.6299999999,"ADDRESS":"崇善路２５巷９０號六樓","OBJECTID":443515},"geometry":{"x":170247.44000000134,"y":2542673.6300000008}},{"attributes":{"ID":443541,"DIS_CODE":0,"TOWNNAME":"東區","LI":"龍山里","LIN":"5鄰","STREET":"崇善路","SECT":" ","MAREA":" ","LANE":"２５巷","ALLEY":" ","HOUSE_NO":"９０號八樓","E_COORD97":170247.44,"N_COORD97":2542673.6299999999,"ADDRESS":"崇善路２５巷９０號八樓","OBJECTID":443516},"geometry":{"x":170247.44000000134,"y":2542673.6300000008}},{"attributes":{"ID":443542,"DIS_CODE":0,"TOWNNAME":"東區","LI":"龍山里","LIN":"5鄰","STREET":"崇善路","SECT":" ","MAREA":" ","LANE":"２５巷","ALLEY":" ","HOUSE_NO":"９０號九樓","E_COORD97":170247.44,"N_COORD97":2542673.6299999999,"ADDRESS":"崇善路２５巷９０號九樓","OBJECTID":443517},"geometry":{"x":170247.44000000134,"y":2542673.6300000008}},{"attributes":{"ID":443543,"DIS_CODE":0,"TOWNNAME":"東區","LI":"龍山里","LIN":"5鄰","STREET":"崇善路","SECT":" ","MAREA":" ","LANE":"２５巷","ALLEY":" ","HOUSE_NO":"９０號十樓","E_COORD97":170247.44,"N_COORD97":2542673.6299999999,"ADDRESS":"崇善路２５巷９０號十樓","OBJECTID":443518},"geometry":{"x":170247.44000000134,"y":2542673.6300000008}},{"attributes":{"ID":443544,"DIS_CODE":0,"TOWNNAME":"東區","LI":"龍山里","LIN":"5鄰","STREET":"崇善路","SECT":" ","MAREA":" ","LANE":"２５巷","ALLEY":" ","HOUSE_NO":"９０號十一樓","E_COORD97":170247.44,"N_COORD97":2542673.6299999999,"ADDRESS":"崇善路２５巷９０號十一樓","OBJECTID":443519},"geometry":{"x":170247.44000000134,"y":2542673.6300000008}},{"attributes":{"ID":443545,"DIS_CODE":0,"TOWNNAME":"東區","LI":"龍山里","LIN":"5鄰","STREET":"崇善路","SECT":" ","MAREA":" ","LANE":"２５巷","ALLEY":" ","HOUSE_NO":"９０號十二樓","E_COORD97":170247.44,"N_COORD97":2542673.6299999999,"ADDRESS":"崇善路２５巷９０號十二樓","OBJECTID":443520},"geometry":{"x":170247.44000000134,"y":2542673.6300000008}},{"attributes":{"ID":443546,"DIS_CODE":0,"TOWNNAME":"東區","LI":"龍山里","LIN":"5鄰","STREET":"崇善路","SECT":" ","MAREA":" ","LANE":"２５巷","ALLEY":" ","HOUSE_NO":"９２號二樓","E_COORD97":170240.39999999999,"N_COORD97":2542681.29,"ADDRESS":"崇善路２５巷９２號二樓","OBJECTID":443521},"geometry":{"x":170240.4000000013,"y":2542681.2899999991}},{"attributes":{"ID":443547,"DIS_CODE":0,"TOWNNAME":"東區","LI":"龍山里","LIN":"5鄰","STREET":"崇善路","SECT":" ","MAREA":" ","LANE":"２５巷","ALLEY":" ","HOUSE_NO":"９２號三樓","E_COORD97":170240.39999999999,"N_COORD97":2542681.29,"ADDRESS":"崇善路２５巷９２號三樓","OBJECTID":443522},"geometry":{"x":170240.4000000013,"y":2542681.2899999991}},{"attributes":{"ID":443548,"DIS_CODE":0,"TOWNNAME":"東區","LI":"龍山里","LIN":"5鄰","STREET":"崇善路","SECT":" ","MAREA":" ","LANE":"２５巷","ALLEY":" ","HOUSE_NO":"９２號四樓","E_COORD97":170240.39999999999,"N_COORD97":2542681.29,"ADDRESS":"崇善路２５巷９２號四樓","OBJECTID":443523},"geometry":{"x":170240.4000000013,"y":2542681.2899999991}},{"attributes":{"ID":443549,"DIS_CODE":0,"TOWNNAME":"東區","LI":"龍山里","LIN":"5鄰","STREET":"崇善路","SECT":" ","MAREA":" ","LANE":"２５巷","ALLEY":" ","HOUSE_NO":"９２號五樓","E_COORD97":170240.39999999999,"N_COORD97":2542681.29,"ADDRESS":"崇善路２５巷９２號五樓","OBJECTID":443524},"geometry":{"x":170240.4000000013,"y":2542681.2899999991}},{"attributes":{"ID":443550,"DIS_CODE":0,"TOWNNAME":"東區","LI":"龍山里","LIN":"5鄰","STREET":"崇善路","SECT":" ","MAREA":" ","LANE":"２５巷","ALLEY":" ","HOUSE_NO":"９２號六樓","E_COORD97":170240.39999999999,"N_COORD97":2542681.29,"ADDRESS":"崇善路２５巷９２號六樓","OBJECTID":443525},"geometry":{"x":170240.4000000013,"y":2542681.2899999991}},{"attributes":{"ID":443551,"DIS_CODE":0,"TOWNNAME":"永康區","LI":"烏竹里","LIN":"13鄰","STREET":"龍橋街","SECT":" ","MAREA":" ","LANE":"３５０巷","ALLEY":" ","HOUSE_NO":"１５號","E_COORD97":174543.32000000001,"N_COORD97":2549125.1600000001,"ADDRESS":"龍橋街３５０巷１５號","OBJECTID":443526},"geometry":{"x":174543.32000000123,"y":2549125.1600000001}},{"attributes":{"ID":443552,"DIS_CODE":0,"TOWNNAME":"東區","LI":"龍山里","LIN":"5鄰","STREET":"崇善路","SECT":" ","MAREA":" ","LANE":"２５巷","ALLEY":" ","HOUSE_NO":"９２號七樓","E_COORD97":170240.39999999999,"N_COORD97":2542681.29,"ADDRESS":"崇善路２５巷９２號七樓","OBJECTID":443527},"geometry":{"x":170240.4000000013,"y":2542681.2899999991}},{"attributes":{"ID":443553,"DIS_CODE":0,"TOWNNAME":"東區","LI":"龍山里","LIN":"5鄰","STREET":"崇善路","SECT":" ","MAREA":" ","LANE":"２５巷","ALLEY":" ","HOUSE_NO":"９２號八樓","E_COORD97":170240.39999999999,"N_COORD97":2542681.29,"ADDRESS":"崇善路２５巷９２號八樓","OBJECTID":443528},"geometry":{"x":170240.4000000013,"y":2542681.2899999991}},{"attributes":{"ID":443554,"DIS_CODE":0,"TOWNNAME":"東區","LI":"龍山里","LIN":"5鄰","STREET":"崇善路","SECT":" ","MAREA":" ","LANE":"２５巷","ALLEY":" ","HOUSE_NO":"９２號九樓","E_COORD97":170240.39999999999,"N_COORD97":2542681.29,"ADDRESS":"崇善路２５巷９２號九樓","OBJECTID":443529},"geometry":{"x":170240.4000000013,"y":2542681.2899999991}},{"attributes":{"ID":443555,"DIS_CODE":0,"TOWNNAME":"東區","LI":"龍山里","LIN":"5鄰","STREET":"崇善路","SECT":" ","MAREA":" ","LANE":"２５巷","ALLEY":" ","HOUSE_NO":"９２號十樓","E_COORD97":170240.39999999999,"N_COORD97":2542681.29,"ADDRESS":"崇善路２５巷９２號十樓","OBJECTID":443530},"geometry":{"x":170240.4000000013,"y":2542681.2899999991}},{"attributes":{"ID":443556,"DIS_CODE":0,"TOWNNAME":"東區","LI":"龍山里","LIN":"5鄰","STREET":"崇善路","SECT":" ","MAREA":" ","LANE":"２５巷","ALLEY":" ","HOUSE_NO":"９２號十一樓","E_COORD97":170240.39999999999,"N_COORD97":2542681.29,"ADDRESS":"崇善路２５巷９２號十一樓","OBJECTID":443531},"geometry":{"x":170240.4000000013,"y":2542681.2899999991}},{"attributes":{"ID":443557,"DIS_CODE":0,"TOWNNAME":"東區","LI":"龍山里","LIN":"5鄰","STREET":"崇善路","SECT":" ","MAREA":" ","LANE":"２５巷","ALLEY":" ","HOUSE_NO":"９２號十二樓","E_COORD97":170240.39999999999,"N_COORD97":2542681.29,"ADDRESS":"崇善路２５巷９２號十二樓","OBJECTID":443532},"geometry":{"x":170240.4000000013,"y":2542681.2899999991}},{"attributes":{"ID":443558,"DIS_CODE":0,"TOWNNAME":"東區","LI":"龍山里","LIN":"5鄰","STREET":"崇善路","SECT":" ","MAREA":" ","LANE":"２５巷","ALLEY":" ","HOUSE_NO":"９６號二樓","E_COORD97":170247.60000000001,"N_COORD97":2542690.9900000002,"ADDRESS":"崇善路２５巷９６號二樓","OBJECTID":443533},"geometry":{"x":170247.59999999963,"y":2542690.9900000002}},{"attributes":{"ID":443559,"DIS_CODE":0,"TOWNNAME":"玉井區","LI":"望明里","LIN":"7鄰","STREET":" ","SECT":" ","MAREA":"望明","LANE":" ","ALLEY":" ","HOUSE_NO":"８２號","E_COORD97":194361.11478100001,"N_COORD97":2556213.7020299998,"ADDRESS":"望明８２號","OBJECTID":443534},"geometry":{"x":194361.11478099972,"y":2556213.7020279989}},{"attributes":{"ID":443560,"DIS_CODE":0,"TOWNNAME":"東區","LI":"龍山里","LIN":"5鄰","STREET":"崇善路","SECT":" ","MAREA":" ","LANE":"２５巷","ALLEY":" ","HOUSE_NO":"９６號三樓","E_COORD97":170247.60000000001,"N_COORD97":2542690.9900000002,"ADDRESS":"崇善路２５巷９６號三樓","OBJECTID":443535},"geometry":{"x":170247.59999999963,"y":2542690.9900000002}},{"attributes":{"ID":443561,"DIS_CODE":0,"TOWNNAME":"東區","LI":"龍山里","LIN":"5鄰","STREET":"崇善路","SECT":" ","MAREA":" ","LANE":"２５巷","ALLEY":" ","HOUSE_NO":"９６號四樓","E_COORD97":170247.60000000001,"N_COORD97":2542690.9900000002,"ADDRESS":"崇善路２５巷９６號四樓","OBJECTID":443536},"geometry":{"x":170247.59999999963,"y":2542690.9900000002}},{"attributes":{"ID":443562,"DIS_CODE":0,"TOWNNAME":"東區","LI":"龍山里","LIN":"5鄰","STREET":"崇善路","SECT":" ","MAREA":" ","LANE":"２５巷","ALLEY":" ","HOUSE_NO":"９６號五樓","E_COORD97":170247.60000000001,"N_COORD97":2542690.9900000002,"ADDRESS":"崇善路２５巷９６號五樓","OBJECTID":443537},"geometry":{"x":170247.59999999963,"y":2542690.9900000002}},{"attributes":{"ID":443563,"DIS_CODE":0,"TOWNNAME":"東區","LI":"龍山里","LIN":"5鄰","STREET":"崇善路","SECT":" ","MAREA":" ","LANE":"２５巷","ALLEY":" ","HOUSE_NO":"９６號六樓","E_COORD97":170247.60000000001,"N_COORD97":2542690.9900000002,"ADDRESS":"崇善路２５巷９６號六樓","OBJECTID":443538},"geometry":{"x":170247.59999999963,"y":2542690.9900000002}},{"attributes":{"ID":443564,"DIS_CODE":0,"TOWNNAME":"東區","LI":"龍山里","LIN":"5鄰","STREET":"崇善路","SECT":" ","MAREA":" ","LANE":"２５巷","ALLEY":" ","HOUSE_NO":"９６號七樓","E_COORD97":170247.60000000001,"N_COORD97":2542690.9900000002,"ADDRESS":"崇善路２５巷９６號七樓","OBJECTID":443539},"geometry":{"x":170247.59999999963,"y":2542690.9900000002}},{"attributes":{"ID":443565,"DIS_CODE":0,"TOWNNAME":"東區","LI":"龍山里","LIN":"5鄰","STREET":"崇善路","SECT":" ","MAREA":" ","LANE":"２５巷","ALLEY":" ","HOUSE_NO":"９６號八樓","E_COORD97":170247.60000000001,"N_COORD97":2542690.9900000002,"ADDRESS":"崇善路２５巷９６號八樓","OBJECTID":443540},"geometry":{"x":170247.59999999963,"y":2542690.9900000002}},{"attributes":{"ID":443566,"DIS_CODE":0,"TOWNNAME":"東區","LI":"龍山里","LIN":"5鄰","STREET":"崇善路","SECT":" ","MAREA":" ","LANE":"２５巷","ALLEY":" ","HOUSE_NO":"９６號九樓","E_COORD97":170247.60000000001,"N_COORD97":2542690.9900000002,"ADDRESS":"崇善路２５巷９６號九樓","OBJECTID":443541},"geometry":{"x":170247.59999999963,"y":2542690.9900000002}},{"attributes":{"ID":443567,"DIS_CODE":0,"TOWNNAME":"東區","LI":"龍山里","LIN":"5鄰","STREET":"崇善路","SECT":" ","MAREA":" ","LANE":"２５巷","ALLEY":" ","HOUSE_NO":"９６號十樓","E_COORD97":170247.60000000001,"N_COORD97":2542690.9900000002,"ADDRESS":"崇善路２５巷９６號十樓","OBJECTID":443542},"geometry":{"x":170247.59999999963,"y":2542690.9900000002}},{"attributes":{"ID":443568,"DIS_CODE":0,"TOWNNAME":"東區","LI":"龍山里","LIN":"5鄰","STREET":"崇善路","SECT":" ","MAREA":" ","LANE":"２５巷","ALLEY":" ","HOUSE_NO":"９６號十一樓","E_COORD97":170247.60000000001,"N_COORD97":2542690.9900000002,"ADDRESS":"崇善路２５巷９６號十一樓","OBJECTID":443543},"geometry":{"x":170247.59999999963,"y":2542690.9900000002}},{"attributes":{"ID":443569,"DIS_CODE":0,"TOWNNAME":"東區","LI":"龍山里","LIN":"5鄰","STREET":"崇善路","SECT":" ","MAREA":" ","LANE":"２５巷","ALLEY":" ","HOUSE_NO":"９６號十二樓","E_COORD97":170247.60000000001,"N_COORD97":2542690.9900000002,"ADDRESS":"崇善路２５巷９６號十二樓","OBJECTID":443544},"geometry":{"x":170247.59999999963,"y":2542690.9900000002}},{"attributes":{"ID":443570,"DIS_CODE":0,"TOWNNAME":"東區","LI":"龍山里","LIN":"5鄰","STREET":"崇善路","SECT":" ","MAREA":" ","LANE":"２５巷","ALLEY":" ","HOUSE_NO":"９６號十三樓","E_COORD97":170247.60000000001,"N_COORD97":2542690.9900000002,"ADDRESS":"崇善路２５巷９６號十三樓","OBJECTID":443545},"geometry":{"x":170247.59999999963,"y":2542690.9900000002}},{"attributes":{"ID":443571,"DIS_CODE":0,"TOWNNAME":"東區","LI":"龍山里","LIN":"5鄰","STREET":"崇善路","SECT":" ","MAREA":" ","LANE":"２５巷","ALLEY":" ","HOUSE_NO":"９６號十四樓","E_COORD97":170247.60000000001,"N_COORD97":2542690.9900000002,"ADDRESS":"崇善路２５巷９６號十四樓","OBJECTID":443546},"geometry":{"x":170247.59999999963,"y":2542690.9900000002}},{"attributes":{"ID":443572,"DIS_CODE":0,"TOWNNAME":"東區","LI":"龍山里","LIN":"5鄰","STREET":"崇善路","SECT":" ","MAREA":" ","LANE":"２５巷","ALLEY":" ","HOUSE_NO":"９８號二樓","E_COORD97":170255.42000000001,"N_COORD97":2542700.0600000001,"ADDRESS":"崇善路２５巷９８號二樓","OBJECTID":443547},"geometry":{"x":170255.42000000086,"y":2542700.0600000024}},{"attributes":{"ID":443573,"DIS_CODE":0,"TOWNNAME":"東區","LI":"龍山里","LIN":"5鄰","STREET":"崇善路","SECT":" ","MAREA":" ","LANE":"２５巷","ALLEY":" ","HOUSE_NO":"９８號三樓","E_COORD97":170255.42000000001,"N_COORD97":2542700.0600000001,"ADDRESS":"崇善路２５巷９８號三樓","OBJECTID":443548},"geometry":{"x":170255.42000000086,"y":2542700.0600000024}},{"attributes":{"ID":443574,"DIS_CODE":0,"TOWNNAME":"東區","LI":"龍山里","LIN":"5鄰","STREET":"崇善路","SECT":" ","MAREA":" ","LANE":"２５巷","ALLEY":" ","HOUSE_NO":"９８號四樓","E_COORD97":170255.42000000001,"N_COORD97":2542700.0600000001,"ADDRESS":"崇善路２５巷９８號四樓","OBJECTID":443549},"geometry":{"x":170255.42000000086,"y":2542700.0600000024}},{"attributes":{"ID":443575,"DIS_CODE":0,"TOWNNAME":"東區","LI":"龍山里","LIN":"5鄰","STREET":"崇善路","SECT":" ","MAREA":" ","LANE":"２５巷","ALLEY":" ","HOUSE_NO":"９８號五樓","E_COORD97":170255.42000000001,"N_COORD97":2542700.0600000001,"ADDRESS":"崇善路２５巷９８號五樓","OBJECTID":443550},"geometry":{"x":170255.42000000086,"y":2542700.0600000024}},{"attributes":{"ID":443576,"DIS_CODE":0,"TOWNNAME":"永康區","LI":"尚頂里","LIN":" ","STREET":"正南一街","SECT":" ","MAREA":" ","LANE":"１８１巷","ALLEY":" ","HOUSE_NO":"１８３號","E_COORD97":170671.85999999999,"N_COORD97":2547378.2999999998,"ADDRESS":"正南一街１８１巷１８３號","OBJECTID":443551},"geometry":{"x":170671.86000000034,"y":2547378.3000000007}},{"attributes":{"ID":443577,"DIS_CODE":0,"TOWNNAME":"永康區","LI":"東灣里","LIN":" ","STREET":"大灣三街","SECT":" ","MAREA":" ","LANE":"５４巷","ALLEY":" ","HOUSE_NO":"４３號","E_COORD97":174967.70000000001,"N_COORD97":2544904.54,"ADDRESS":"大灣三街５４巷４３號","OBJECTID":443552},"geometry":{"x":174967.70000000112,"y":2544904.5400000028}},{"attributes":{"ID":443578,"DIS_CODE":0,"TOWNNAME":"東區","LI":"龍山里","LIN":"5鄰","STREET":"崇善路","SECT":" ","MAREA":" ","LANE":"２５巷","ALLEY":" ","HOUSE_NO":"９８號六樓","E_COORD97":170255.42000000001,"N_COORD97":2542700.0600000001,"ADDRESS":"崇善路２５巷９８號六樓","OBJECTID":443553},"geometry":{"x":170255.42000000086,"y":2542700.0600000024}},{"attributes":{"ID":443579,"DIS_CODE":0,"TOWNNAME":"永康區","LI":"復國里","LIN":"4鄰","STREET":"復國一路","SECT":" ","MAREA":" ","LANE":"６８巷","ALLEY":" ","HOUSE_NO":"４２號","E_COORD97":172818.53,"N_COORD97":2544862.77,"ADDRESS":"復國一路６８巷４２號","OBJECTID":443554},"geometry":{"x":172818.53000000026,"y":2544862.7700000033}},{"attributes":{"ID":443580,"DIS_CODE":0,"TOWNNAME":"東區","LI":"龍山里","LIN":"5鄰","STREET":"崇善路","SECT":" ","MAREA":" ","LANE":"２５巷","ALLEY":" ","HOUSE_NO":"９８號七樓","E_COORD97":170255.42000000001,"N_COORD97":2542700.0600000001,"ADDRESS":"崇善路２５巷９８號七樓","OBJECTID":443555},"geometry":{"x":170255.42000000086,"y":2542700.0600000024}},{"attributes":{"ID":443581,"DIS_CODE":0,"TOWNNAME":"東區","LI":"龍山里","LIN":"5鄰","STREET":"崇善路","SECT":" ","MAREA":" ","LANE":"２５巷","ALLEY":" ","HOUSE_NO":"９８號八樓","E_COORD97":170255.42000000001,"N_COORD97":2542700.0600000001,"ADDRESS":"崇善路２５巷９８號八樓","OBJECTID":443556},"geometry":{"x":170255.42000000086,"y":2542700.0600000024}},{"attributes":{"ID":443582,"DIS_CODE":0,"TOWNNAME":"東區","LI":"龍山里","LIN":"5鄰","STREET":"崇善路","SECT":" ","MAREA":" ","LANE":"２５巷","ALLEY":" ","HOUSE_NO":"９８號九樓","E_COORD97":170255.42000000001,"N_COORD97":2542700.0600000001,"ADDRESS":"崇善路２５巷９８號九樓","OBJECTID":443557},"geometry":{"x":170255.42000000086,"y":2542700.0600000024}},{"attributes":{"ID":443583,"DIS_CODE":0,"TOWNNAME":"東區","LI":"龍山里","LIN":"5鄰","STREET":"崇善路","SECT":" ","MAREA":" ","LANE":"２５巷","ALLEY":" ","HOUSE_NO":"９８號十樓","E_COORD97":170255.42000000001,"N_COORD97":2542700.0600000001,"ADDRESS":"崇善路２５巷９８號十樓","OBJECTID":443558},"geometry":{"x":170255.42000000086,"y":2542700.0600000024}},{"attributes":{"ID":443584,"DIS_CODE":0,"TOWNNAME":"東區","LI":"龍山里","LIN":"5鄰","STREET":"崇善路","SECT":" ","MAREA":" ","LANE":"２５巷","ALLEY":" ","HOUSE_NO":"９８號十一樓","E_COORD97":170255.42000000001,"N_COORD97":2542700.0600000001,"ADDRESS":"崇善路２５巷９８號十一樓","OBJECTID":443559},"geometry":{"x":170255.42000000086,"y":2542700.0600000024}},{"attributes":{"ID":443585,"DIS_CODE":0,"TOWNNAME":"東區","LI":"龍山里","LIN":"5鄰","STREET":"崇善路","SECT":" ","MAREA":" ","LANE":"２５巷","ALLEY":" ","HOUSE_NO":"９８號十二樓","E_COORD97":170255.42000000001,"N_COORD97":2542700.0600000001,"ADDRESS":"崇善路２５巷９８號十二樓","OBJECTID":443560},"geometry":{"x":170255.42000000086,"y":2542700.0600000024}},{"attributes":{"ID":443586,"DIS_CODE":0,"TOWNNAME":"東區","LI":"龍山里","LIN":"5鄰","STREET":"崇善路","SECT":" ","MAREA":" ","LANE":"２５巷","ALLEY":" ","HOUSE_NO":"１２０號二樓","E_COORD97":170286.70999999999,"N_COORD97":2542737.6099999999,"ADDRESS":"崇善路２５巷１２０號二樓","OBJECTID":443561},"geometry":{"x":170286.71000000183,"y":2542737.6099999994}},{"attributes":{"ID":443587,"DIS_CODE":0,"TOWNNAME":"東區","LI":"龍山里","LIN":"5鄰","STREET":"崇善路","SECT":" ","MAREA":" ","LANE":"２５巷","ALLEY":" ","HOUSE_NO":"１２０號三樓","E_COORD97":170286.70999999999,"N_COORD97":2542737.6099999999,"ADDRESS":"崇善路２５巷１２０號三樓","OBJECTID":443562},"geometry":{"x":170286.71000000183,"y":2542737.6099999994}},{"attributes":{"ID":443588,"DIS_CODE":0,"TOWNNAME":"東區","LI":"龍山里","LIN":"5鄰","STREET":"崇善路","SECT":" ","MAREA":" ","LANE":"２５巷","ALLEY":" ","HOUSE_NO":"１２０號四樓","E_COORD97":170286.70999999999,"N_COORD97":2542737.6099999999,"ADDRESS":"崇善路２５巷１２０號四樓","OBJECTID":443563},"geometry":{"x":170286.71000000183,"y":2542737.6099999994}},{"attributes":{"ID":443589,"DIS_CODE":0,"TOWNNAME":"東區","LI":"龍山里","LIN":"5鄰","STREET":"崇善路","SECT":" ","MAREA":" ","LANE":"２５巷","ALLEY":" ","HOUSE_NO":"１２０號五樓","E_COORD97":170286.70999999999,"N_COORD97":2542737.6099999999,"ADDRESS":"崇善路２５巷１２０號五樓","OBJECTID":443564},"geometry":{"x":170286.71000000183,"y":2542737.6099999994}},{"attributes":{"ID":443590,"DIS_CODE":0,"TOWNNAME":"東區","LI":"龍山里","LIN":"5鄰","STREET":"崇善路","SECT":" ","MAREA":" ","LANE":"２５巷","ALLEY":" ","HOUSE_NO":"１２０號六樓","E_COORD97":170286.70999999999,"N_COORD97":2542737.6099999999,"ADDRESS":"崇善路２５巷１２０號六樓","OBJECTID":443565},"geometry":{"x":170286.71000000183,"y":2542737.6099999994}},{"attributes":{"ID":443591,"DIS_CODE":0,"TOWNNAME":"東區","LI":"龍山里","LIN":"5鄰","STREET":"崇善路","SECT":" ","MAREA":" ","LANE":"２５巷","ALLEY":" ","HOUSE_NO":"１２０號七樓","E_COORD97":170286.70999999999,"N_COORD97":2542737.6099999999,"ADDRESS":"崇善路２５巷１２０號七樓","OBJECTID":443566},"geometry":{"x":170286.71000000183,"y":2542737.6099999994}},{"attributes":{"ID":443592,"DIS_CODE":0,"TOWNNAME":"東區","LI":"龍山里","LIN":"5鄰","STREET":"崇善路","SECT":" ","MAREA":" ","LANE":"２５巷","ALLEY":" ","HOUSE_NO":"１２０號八樓","E_COORD97":170286.70999999999,"N_COORD97":2542737.6099999999,"ADDRESS":"崇善路２５巷１２０號八樓","OBJECTID":443567},"geometry":{"x":170286.71000000183,"y":2542737.6099999994}},{"attributes":{"ID":443593,"DIS_CODE":0,"TOWNNAME":"東區","LI":"龍山里","LIN":"5鄰","STREET":"崇善路","SECT":" ","MAREA":" ","LANE":"２５巷","ALLEY":" ","HOUSE_NO":"１２０號九樓","E_COORD97":170286.70999999999,"N_COORD97":2542737.6099999999,"ADDRESS":"崇善路２５巷１２０號九樓","OBJECTID":443568},"geometry":{"x":170286.71000000183,"y":2542737.6099999994}},{"attributes":{"ID":443594,"DIS_CODE":0,"TOWNNAME":"東區","LI":"龍山里","LIN":"5鄰","STREET":"崇善路","SECT":" ","MAREA":" ","LANE":"２５巷","ALLEY":" ","HOUSE_NO":"１２０號十樓","E_COORD97":170286.70999999999,"N_COORD97":2542737.6099999999,"ADDRESS":"崇善路２５巷１２０號十樓","OBJECTID":443569},"geometry":{"x":170286.71000000183,"y":2542737.6099999994}},{"attributes":{"ID":443595,"DIS_CODE":0,"TOWNNAME":"東區","LI":"龍山里","LIN":"5鄰","STREET":"崇善路","SECT":" ","MAREA":" ","LANE":"２５巷","ALLEY":" ","HOUSE_NO":"１２０號十一樓","E_COORD97":170286.70999999999,"N_COORD97":2542737.6099999999,"ADDRESS":"崇善路２５巷１２０號十一樓","OBJECTID":443570},"geometry":{"x":170286.71000000183,"y":2542737.6099999994}},{"attributes":{"ID":443596,"DIS_CODE":0,"TOWNNAME":"東區","LI":"龍山里","LIN":"5鄰","STREET":"崇善路","SECT":" ","MAREA":" ","LANE":"２５巷","ALLEY":" ","HOUSE_NO":"１２０號十二樓","E_COORD97":170286.70999999999,"N_COORD97":2542737.6099999999,"ADDRESS":"崇善路２５巷１２０號十二樓","OBJECTID":443571},"geometry":{"x":170286.71000000183,"y":2542737.6099999994}},{"attributes":{"ID":443597,"DIS_CODE":0,"TOWNNAME":"東區","LI":"龍山里","LIN":"5鄰","STREET":"崇善路","SECT":" ","MAREA":" ","LANE":"２５巷","ALLEY":" ","HOUSE_NO":"１２０號十三樓","E_COORD97":170286.70999999999,"N_COORD97":2542737.6099999999,"ADDRESS":"崇善路２５巷１２０號十三樓","OBJECTID":443572},"geometry":{"x":170286.71000000183,"y":2542737.6099999994}},{"attributes":{"ID":443598,"DIS_CODE":0,"TOWNNAME":"東區","LI":"龍山里","LIN":"5鄰","STREET":"崇善路","SECT":" ","MAREA":" ","LANE":"２５巷","ALLEY":" ","HOUSE_NO":"１２０號十四樓","E_COORD97":170286.70999999999,"N_COORD97":2542737.6099999999,"ADDRESS":"崇善路２５巷１２０號十四樓","OBJECTID":443573},"geometry":{"x":170286.71000000183,"y":2542737.6099999994}},{"attributes":{"ID":443599,"DIS_CODE":0,"TOWNNAME":"東區","LI":"龍山里","LIN":"5鄰","STREET":"崇善路","SECT":" ","MAREA":" ","LANE":"２５巷","ALLEY":" ","HOUSE_NO":"１２２號二樓","E_COORD97":170291.70999999999,"N_COORD97":2542744.8100000001,"ADDRESS":"崇善路２５巷１２２號二樓","OBJECTID":443574},"geometry":{"x":170291.70999999903,"y":2542744.8100000024}},{"attributes":{"ID":443600,"DIS_CODE":0,"TOWNNAME":"東區","LI":"龍山里","LIN":"5鄰","STREET":"崇善路","SECT":" ","MAREA":" ","LANE":"２５巷","ALLEY":" ","HOUSE_NO":"１２２號三樓","E_COORD97":170291.70999999999,"N_COORD97":2542744.8100000001,"ADDRESS":"崇善路２５巷１２２號三樓","OBJECTID":443575},"geometry":{"x":170291.70999999903,"y":2542744.8100000024}},{"attributes":{"ID":443601,"DIS_CODE":0,"TOWNNAME":"東區","LI":"龍山里","LIN":"5鄰","STREET":"崇善路","SECT":" ","MAREA":" ","LANE":"２５巷","ALLEY":" ","HOUSE_NO":"１２２號四樓","E_COORD97":170291.70999999999,"N_COORD97":2542744.8100000001,"ADDRESS":"崇善路２５巷１２２號四樓","OBJECTID":443576},"geometry":{"x":170291.70999999903,"y":2542744.8100000024}},{"attributes":{"ID":443602,"DIS_CODE":0,"TOWNNAME":"東區","LI":"龍山里","LIN":"5鄰","STREET":"崇善路","SECT":" ","MAREA":" ","LANE":"２５巷","ALLEY":" ","HOUSE_NO":"１２２號五樓","E_COORD97":170291.70999999999,"N_COORD97":2542744.8100000001,"ADDRESS":"崇善路２５巷１２２號五樓","OBJECTID":443577},"geometry":{"x":170291.70999999903,"y":2542744.8100000024}},{"attributes":{"ID":443603,"DIS_CODE":0,"TOWNNAME":"東區","LI":"龍山里","LIN":"5鄰","STREET":"崇善路","SECT":" ","MAREA":" ","LANE":"２５巷","ALLEY":" ","HOUSE_NO":"１２２號六樓","E_COORD97":170291.70999999999,"N_COORD97":2542744.8100000001,"ADDRESS":"崇善路２５巷１２２號六樓","OBJECTID":443578},"geometry":{"x":170291.70999999903,"y":2542744.8100000024}},{"attributes":{"ID":443604,"DIS_CODE":0,"TOWNNAME":"東區","LI":"龍山里","LIN":"5鄰","STREET":"崇善路","SECT":" ","MAREA":" ","LANE":"２５巷","ALLEY":" ","HOUSE_NO":"１２２號七樓","E_COORD97":170291.70999999999,"N_COORD97":2542744.8100000001,"ADDRESS":"崇善路２５巷１２２號七樓","OBJECTID":443579},"geometry":{"x":170291.70999999903,"y":2542744.8100000024}},{"attributes":{"ID":443605,"DIS_CODE":0,"TOWNNAME":"東區","LI":"龍山里","LIN":"5鄰","STREET":"崇善路","SECT":" ","MAREA":" ","LANE":"２５巷","ALLEY":" ","HOUSE_NO":"１２２號八樓","E_COORD97":170291.70999999999,"N_COORD97":2542744.8100000001,"ADDRESS":"崇善路２５巷１２２號八樓","OBJECTID":443580},"geometry":{"x":170291.70999999903,"y":2542744.8100000024}},{"attributes":{"ID":443606,"DIS_CODE":0,"TOWNNAME":"永康區","LI":"龍潭里","LIN":"38鄰","STREET":"中山北路","SECT":" ","MAREA":" ","LANE":"１６４巷","ALLEY":" ","HOUSE_NO":"８０號之１８","E_COORD97":174455.25,"N_COORD97":2547365.7999999998,"ADDRESS":"中山北路１６４巷８０號之１８","OBJECTID":443581},"geometry":{"x":174455.25000000093,"y":2547365.8000000045}},{"attributes":{"ID":443607,"DIS_CODE":0,"TOWNNAME":"永康區","LI":"東橋里","LIN":"25鄰","STREET":"中正路","SECT":" ","MAREA":" ","LANE":"２６９巷","ALLEY":" ","HOUSE_NO":"１３號","E_COORD97":172806.23000000001,"N_COORD97":2547915.52,"ADDRESS":"中正路２６９巷１３號","OBJECTID":443582},"geometry":{"x":172806.23000000231,"y":2547915.5199999996}},{"attributes":{"ID":443608,"DIS_CODE":0,"TOWNNAME":"永康區","LI":"復國里","LIN":"36鄰","STREET":"復國一路","SECT":" ","MAREA":" ","LANE":"３９巷","ALLEY":" ","HOUSE_NO":"１５號","E_COORD97":172654.06,"N_COORD97":2544839.52,"ADDRESS":"復國一路３９巷１５號","OBJECTID":443583},"geometry":{"x":172654.06000000052,"y":2544839.5199999996}},{"attributes":{"ID":443609,"DIS_CODE":0,"TOWNNAME":"東區","LI":"龍山里","LIN":"5鄰","STREET":"崇善路","SECT":" ","MAREA":" ","LANE":"２５巷","ALLEY":" ","HOUSE_NO":"１２２號九樓","E_COORD97":170291.70999999999,"N_COORD97":2542744.8100000001,"ADDRESS":"崇善路２５巷１２２號九樓","OBJECTID":443584},"geometry":{"x":170291.70999999903,"y":2542744.8100000024}},{"attributes":{"ID":443610,"DIS_CODE":0,"TOWNNAME":"東區","LI":"龍山里","LIN":"5鄰","STREET":"崇善路","SECT":" ","MAREA":" ","LANE":"２５巷","ALLEY":" ","HOUSE_NO":"１２２號十樓","E_COORD97":170291.70999999999,"N_COORD97":2542744.8100000001,"ADDRESS":"崇善路２５巷１２２號十樓","OBJECTID":443585},"geometry":{"x":170291.70999999903,"y":2542744.8100000024}},{"attributes":{"ID":443611,"DIS_CODE":0,"TOWNNAME":"東區","LI":"龍山里","LIN":"5鄰","STREET":"崇善路","SECT":" ","MAREA":" ","LANE":"２５巷","ALLEY":" ","HOUSE_NO":"１２２號十一樓","E_COORD97":170291.70999999999,"N_COORD97":2542744.8100000001,"ADDRESS":"崇善路２５巷１２２號十一樓","OBJECTID":443586},"geometry":{"x":170291.70999999903,"y":2542744.8100000024}},{"attributes":{"ID":443612,"DIS_CODE":0,"TOWNNAME":"東區","LI":"龍山里","LIN":"5鄰","STREET":"崇善路","SECT":" ","MAREA":" ","LANE":"２５巷","ALLEY":" ","HOUSE_NO":"１２２號十二樓","E_COORD97":170291.70999999999,"N_COORD97":2542744.8100000001,"ADDRESS":"崇善路２５巷１２２號十二樓","OBJECTID":443587},"geometry":{"x":170291.70999999903,"y":2542744.8100000024}},{"attributes":{"ID":443613,"DIS_CODE":0,"TOWNNAME":"東區","LI":"龍山里","LIN":"5鄰","STREET":"崇善路","SECT":" ","MAREA":" ","LANE":"２５巷","ALLEY":" ","HOUSE_NO":"１１２號二樓","E_COORD97":170297.35000000001,"N_COORD97":2542717.5899999999,"ADDRESS":"崇善路２５巷１１２號二樓","OBJECTID":443588},"geometry":{"x":170297.35000000149,"y":2542717.5899999999}},{"attributes":{"ID":443614,"DIS_CODE":0,"TOWNNAME":"東區","LI":"龍山里","LIN":"5鄰","STREET":"崇善路","SECT":" ","MAREA":" ","LANE":"２５巷","ALLEY":" ","HOUSE_NO":"１１２號三樓","E_COORD97":170297.35000000001,"N_COORD97":2542717.5899999999,"ADDRESS":"崇善路２５巷１１２號三樓","OBJECTID":443589},"geometry":{"x":170297.35000000149,"y":2542717.5899999999}},{"attributes":{"ID":443615,"DIS_CODE":0,"TOWNNAME":"東區","LI":"龍山里","LIN":"5鄰","STREET":"崇善路","SECT":" ","MAREA":" ","LANE":"２５巷","ALLEY":" ","HOUSE_NO":"１１２號四樓","E_COORD97":170297.35000000001,"N_COORD97":2542717.5899999999,"ADDRESS":"崇善路２５巷１１２號四樓","OBJECTID":443590},"geometry":{"x":170297.35000000149,"y":2542717.5899999999}},{"attributes":{"ID":443616,"DIS_CODE":0,"TOWNNAME":"東區","LI":"龍山里","LIN":"5鄰","STREET":"崇善路","SECT":" ","MAREA":" ","LANE":"２５巷","ALLEY":" ","HOUSE_NO":"１１２號五樓","E_COORD97":170297.35000000001,"N_COORD97":2542717.5899999999,"ADDRESS":"崇善路２５巷１１２號五樓","OBJECTID":443591},"geometry":{"x":170297.35000000149,"y":2542717.5899999999}},{"attributes":{"ID":443617,"DIS_CODE":0,"TOWNNAME":"東區","LI":"龍山里","LIN":"5鄰","STREET":"崇善路","SECT":" ","MAREA":" ","LANE":"２５巷","ALLEY":" ","HOUSE_NO":"１１２號六樓","E_COORD97":170297.35000000001,"N_COORD97":2542717.5899999999,"ADDRESS":"崇善路２５巷１１２號六樓","OBJECTID":443592},"geometry":{"x":170297.35000000149,"y":2542717.5899999999}},{"attributes":{"ID":443618,"DIS_CODE":0,"TOWNNAME":"東區","LI":"龍山里","LIN":"5鄰","STREET":"崇善路","SECT":" ","MAREA":" ","LANE":"２５巷","ALLEY":" ","HOUSE_NO":"１１２號七樓","E_COORD97":170297.35000000001,"N_COORD97":2542717.5899999999,"ADDRESS":"崇善路２５巷１１２號七樓","OBJECTID":443593},"geometry":{"x":170297.35000000149,"y":2542717.5899999999}},{"attributes":{"ID":443619,"DIS_CODE":0,"TOWNNAME":"東區","LI":"龍山里","LIN":"5鄰","STREET":"崇善路","SECT":" ","MAREA":" ","LANE":"２５巷","ALLEY":" ","HOUSE_NO":"１１２號八樓","E_COORD97":170297.35000000001,"N_COORD97":2542717.5899999999,"ADDRESS":"崇善路２５巷１１２號八樓","OBJECTID":443594},"geometry":{"x":170297.35000000149,"y":2542717.5899999999}},{"attributes":{"ID":443620,"DIS_CODE":0,"TOWNNAME":"東區","LI":"龍山里","LIN":"5鄰","STREET":"崇善路","SECT":" ","MAREA":" ","LANE":"２５巷","ALLEY":" ","HOUSE_NO":"１１２號九樓","E_COORD97":170297.35000000001,"N_COORD97":2542717.5899999999,"ADDRESS":"崇善路２５巷１１２號九樓","OBJECTID":443595},"geometry":{"x":170297.35000000149,"y":2542717.5899999999}},{"attributes":{"ID":443621,"DIS_CODE":0,"TOWNNAME":"東區","LI":"龍山里","LIN":"5鄰","STREET":"崇善路","SECT":" ","MAREA":" ","LANE":"２５巷","ALLEY":" ","HOUSE_NO":"１１２號十樓","E_COORD97":170297.35000000001,"N_COORD97":2542717.5899999999,"ADDRESS":"崇善路２５巷１１２號十樓","OBJECTID":443596},"geometry":{"x":170297.35000000149,"y":2542717.5899999999}},{"attributes":{"ID":443622,"DIS_CODE":0,"TOWNNAME":"東區","LI":"龍山里","LIN":"5鄰","STREET":"崇善路","SECT":" ","MAREA":" ","LANE":"２５巷","ALLEY":" ","HOUSE_NO":"１１２號十一樓","E_COORD97":170297.35000000001,"N_COORD97":2542717.5899999999,"ADDRESS":"崇善路２５巷１１２號十一樓","OBJECTID":443597},"geometry":{"x":170297.35000000149,"y":2542717.5899999999}},{"attributes":{"ID":443623,"DIS_CODE":0,"TOWNNAME":"東區","LI":"龍山里","LIN":"5鄰","STREET":"崇善路","SECT":" ","MAREA":" ","LANE":"２５巷","ALLEY":" ","HOUSE_NO":"１１２號十二樓","E_COORD97":170297.35000000001,"N_COORD97":2542717.5899999999,"ADDRESS":"崇善路２５巷１１２號十二樓","OBJECTID":443598},"geometry":{"x":170297.35000000149,"y":2542717.5899999999}},{"attributes":{"ID":443624,"DIS_CODE":0,"TOWNNAME":"東區","LI":"龍山里","LIN":"5鄰","STREET":"崇善路","SECT":" ","MAREA":" ","LANE":"２５巷","ALLEY":" ","HOUSE_NO":"１１２號十三樓","E_COORD97":170297.35000000001,"N_COORD97":2542717.5899999999,"ADDRESS":"崇善路２５巷１１２號十三樓","OBJECTID":443599},"geometry":{"x":170297.35000000149,"y":2542717.5899999999}},{"attributes":{"ID":443625,"DIS_CODE":0,"TOWNNAME":"東區","LI":"龍山里","LIN":"5鄰","STREET":"崇善路","SECT":" ","MAREA":" ","LANE":"２５巷","ALLEY":" ","HOUSE_NO":"１１２號十四樓","E_COORD97":170297.35000000001,"N_COORD97":2542717.5899999999,"ADDRESS":"崇善路２５巷１１２號十四樓","OBJECTID":443600},"geometry":{"x":170297.35000000149,"y":2542717.5899999999}}]}