{"displayFieldName":"TOWNNAME","fieldAliases":{"ID":"ID","DIS_CODE":"DIS_CODE","TOWNNAME":"TOWNNAME","LI":"LI","LIN":"LIN","STREET":"STREET","SECT":"SECT","MAREA":"MAREA","LANE":"LANE","ALLEY":"ALLEY","HOUSE_NO":"HOUSE_NO","E_COORD97":"E_COORD97","N_COORD97":"N_COORD97","ADDRESS":"ADDRESS","OBJECTID":"OBJECTID"},"geometryType":"esriGeometryPoint","spatialReference":{"wkid":102443,"latestWkid":3826},"fields":[{"name":"ID","type":"esriFieldTypeDouble","alias":"ID"},{"name":"DIS_CODE","type":"esriFieldTypeInteger","alias":"DIS_CODE"},{"name":"TOWNNAME","type":"esriFieldTypeString","alias":"TOWNNAME","length":8},{"name":"LI","type":"esriFieldTypeString","alias":"LI","length":8},{"name":"LIN","type":"esriFieldTypeString","alias":"LIN","length":12},{"name":"STREET","type":"esriFieldTypeString","alias":"STREET","length":20},{"name":"SECT","type":"esriFieldTypeString","alias":"SECT","length":8},{"name":"MAREA","type":"esriFieldTypeString","alias":"MAREA","length":12},{"name":"LANE","type":"esriFieldTypeString","alias":"LANE","length":10},{"name":"ALLEY","type":"esriFieldTypeString","alias":"ALLEY","length":10},{"name":"HOUSE_NO","type":"esriFieldTypeString","alias":"HOUSE_NO","length":20},{"name":"E_COORD97","type":"esriFieldTypeDouble","alias":"E_COORD97"},{"name":"N_COORD97","type":"esriFieldTypeDouble","alias":"N_COORD97"},{"name":"ADDRESS","type":"esriFieldTypeString","alias":"ADDRESS","length":50},{"name":"OBJECTID","type":"esriFieldTypeOID","alias":"OBJECTID"}],"features":[{"attributes":{"ID":627028,"DIS_CODE":0,"TOWNNAME":"永康區","LI":"復華里","LIN":"7鄰","STREET":"復國二路","SECT":" ","MAREA":" ","LANE":" ","ALLEY":" ","HOUSE_NO":"２１７號十樓之２","E_COORD97":173002.25,"N_COORD97":2546054.54,"ADDRESS":"復國二路２１７號十樓之２","OBJECTID":627001},"geometry":{"x":173002.25000000186,"y":2546054.540000001}},{"attributes":{"ID":627029,"DIS_CODE":0,"TOWNNAME":"永康區","LI":"復國里","LIN":"20鄰","STREET":"國華街","SECT":" ","MAREA":" ","LANE":" ","ALLEY":" ","HOUSE_NO":"６３號七樓之１","E_COORD97":172819.29999999999,"N_COORD97":2545744.3100000001,"ADDRESS":"國華街６３號七樓之１","OBJECTID":627002},"geometry":{"x":172819.30000000075,"y":2545744.3100000005}},{"attributes":{"ID":627030,"DIS_CODE":0,"TOWNNAME":"永康區","LI":"網寮里","LIN":"26鄰","STREET":"永興路","SECT":" ","MAREA":" ","LANE":" ","ALLEY":" ","HOUSE_NO":"１０７號五樓之１","E_COORD97":173910.35000000001,"N_COORD97":2546555.3900000001,"ADDRESS":"永興路１０７號五樓之１","OBJECTID":627003},"geometry":{"x":173910.35000000056,"y":2546555.3900000025}},{"attributes":{"ID":627031,"DIS_CODE":0,"TOWNNAME":"永康區","LI":"復國里","LIN":"34鄰","STREET":"復華一街","SECT":" ","MAREA":" ","LANE":" ","ALLEY":" ","HOUSE_NO":"６５號六樓之３","E_COORD97":172536.45999999999,"N_COORD97":2545071.5499999998,"ADDRESS":"復華一街６５號六樓之３","OBJECTID":627004},"geometry":{"x":172536.46000000089,"y":2545071.5500000007}},{"attributes":{"ID":627032,"DIS_CODE":0,"TOWNNAME":"永康區","LI":"復國里","LIN":"34鄰","STREET":"復華一街","SECT":" ","MAREA":" ","LANE":" ","ALLEY":" ","HOUSE_NO":"６５號五樓之３","E_COORD97":172536.45999999999,"N_COORD97":2545071.5499999998,"ADDRESS":"復華一街６５號五樓之３","OBJECTID":627005},"geometry":{"x":172536.46000000089,"y":2545071.5500000007}},{"attributes":{"ID":627033,"DIS_CODE":0,"TOWNNAME":"永康區","LI":"復國里","LIN":"34鄰","STREET":"復華一街","SECT":" ","MAREA":" ","LANE":" ","ALLEY":" ","HOUSE_NO":"６５號十樓之２","E_COORD97":172536.5,"N_COORD97":2545071.5499999998,"ADDRESS":"復華一街６５號十樓之２","OBJECTID":627006},"geometry":{"x":172536.50000000093,"y":2545071.5500000007}},{"attributes":{"ID":627034,"DIS_CODE":0,"TOWNNAME":"永康區","LI":"復國里","LIN":"34鄰","STREET":"復華一街","SECT":" ","MAREA":" ","LANE":" ","ALLEY":" ","HOUSE_NO":"６５號七樓之１","E_COORD97":172536.37,"N_COORD97":2545071.5499999998,"ADDRESS":"復華一街６５號七樓之１","OBJECTID":627007},"geometry":{"x":172536.37000000011,"y":2545071.5500000007}},{"attributes":{"ID":627035,"DIS_CODE":0,"TOWNNAME":"永康區","LI":"復國里","LIN":"20鄰","STREET":"國華街","SECT":" ","MAREA":" ","LANE":" ","ALLEY":" ","HOUSE_NO":"６１號十二樓之２","E_COORD97":172831.60999999999,"N_COORD97":2545750.4199999999,"ADDRESS":"國華街６１號十二樓之２","OBJECTID":627008},"geometry":{"x":172831.61000000034,"y":2545750.4200000037}},{"attributes":{"ID":627036,"DIS_CODE":0,"TOWNNAME":"永康區","LI":"網寮里","LIN":"26鄰","STREET":"永興路","SECT":" ","MAREA":" ","LANE":" ","ALLEY":" ","HOUSE_NO":"１０９號九樓之１","E_COORD97":173913.64000000001,"N_COORD97":2546579.6400000001,"ADDRESS":"永興路１０９號九樓之１","OBJECTID":627009},"geometry":{"x":173913.6400000006,"y":2546579.6400000006}},{"attributes":{"ID":627037,"DIS_CODE":0,"TOWNNAME":"永康區","LI":"網寮里","LIN":"26鄰","STREET":"永興路","SECT":" ","MAREA":" ","LANE":" ","ALLEY":" ","HOUSE_NO":"１０９號十樓之２","E_COORD97":173913.76999999999,"N_COORD97":2546579.6400000001,"ADDRESS":"永興路１０９號十樓之２","OBJECTID":627010},"geometry":{"x":173913.77000000048,"y":2546579.6400000006}},{"attributes":{"ID":627038,"DIS_CODE":0,"TOWNNAME":"永康區","LI":"復國里","LIN":"34鄰","STREET":"復華一街","SECT":" ","MAREA":" ","LANE":" ","ALLEY":" ","HOUSE_NO":"６５號六樓之１","E_COORD97":172536.37,"N_COORD97":2545071.5499999998,"ADDRESS":"復華一街６５號六樓之１","OBJECTID":627011},"geometry":{"x":172536.37000000011,"y":2545071.5500000007}},{"attributes":{"ID":627039,"DIS_CODE":0,"TOWNNAME":"永康區","LI":"復國里","LIN":"34鄰","STREET":"復華一街","SECT":" ","MAREA":" ","LANE":" ","ALLEY":" ","HOUSE_NO":"６５號三樓之１","E_COORD97":172536.37,"N_COORD97":2545071.5499999998,"ADDRESS":"復華一街６５號三樓之１","OBJECTID":627012},"geometry":{"x":172536.37000000011,"y":2545071.5500000007}},{"attributes":{"ID":627040,"DIS_CODE":0,"TOWNNAME":"永康區","LI":"復國里","LIN":"20鄰","STREET":"國華街","SECT":" ","MAREA":" ","LANE":" ","ALLEY":" ","HOUSE_NO":"６３號十五樓之２","E_COORD97":172820.67999999999,"N_COORD97":2545744.3100000001,"ADDRESS":"國華街６３號十五樓之２","OBJECTID":627013},"geometry":{"x":172820.6799999997,"y":2545744.3100000005}},{"attributes":{"ID":627041,"DIS_CODE":0,"TOWNNAME":"永康區","LI":"復國里","LIN":"20鄰","STREET":"國華街","SECT":" ","MAREA":" ","LANE":" ","ALLEY":" ","HOUSE_NO":"６１號六樓之２","E_COORD97":172830.35999999999,"N_COORD97":2545750.4199999999,"ADDRESS":"國華街６１號六樓之２","OBJECTID":627014},"geometry":{"x":172830.36000000034,"y":2545750.4200000037}},{"attributes":{"ID":627042,"DIS_CODE":0,"TOWNNAME":"永康區","LI":"網寮里","LIN":"26鄰","STREET":"永興路","SECT":" ","MAREA":" ","LANE":" ","ALLEY":" ","HOUSE_NO":"１０７號三樓之１","E_COORD97":173910.35000000001,"N_COORD97":2546555.3900000001,"ADDRESS":"永興路１０７號三樓之１","OBJECTID":627015},"geometry":{"x":173910.35000000056,"y":2546555.3900000025}},{"attributes":{"ID":627043,"DIS_CODE":0,"TOWNNAME":"永康區","LI":"網寮里","LIN":"26鄰","STREET":"永興路","SECT":" ","MAREA":" ","LANE":" ","ALLEY":" ","HOUSE_NO":"１０９號五樓之２","E_COORD97":173913.76999999999,"N_COORD97":2546579.6400000001,"ADDRESS":"永興路１０９號五樓之２","OBJECTID":627016},"geometry":{"x":173913.77000000048,"y":2546579.6400000006}},{"attributes":{"ID":627044,"DIS_CODE":0,"TOWNNAME":"永康區","LI":"網寮里","LIN":"26鄰","STREET":"永興路","SECT":" ","MAREA":" ","LANE":" ","ALLEY":" ","HOUSE_NO":"１０９號七樓之１","E_COORD97":173913.64000000001,"N_COORD97":2546579.6400000001,"ADDRESS":"永興路１０９號七樓之１","OBJECTID":627017},"geometry":{"x":173913.6400000006,"y":2546579.6400000006}},{"attributes":{"ID":627045,"DIS_CODE":0,"TOWNNAME":"永康區","LI":"復國里","LIN":"34鄰","STREET":"復華一街","SECT":" ","MAREA":" ","LANE":" ","ALLEY":" ","HOUSE_NO":"６５號五樓之２","E_COORD97":172536.5,"N_COORD97":2545071.5499999998,"ADDRESS":"復華一街６５號五樓之２","OBJECTID":627018},"geometry":{"x":172536.50000000093,"y":2545071.5500000007}},{"attributes":{"ID":627046,"DIS_CODE":0,"TOWNNAME":"永康區","LI":"復國里","LIN":"27鄰","STREET":"復華三街","SECT":" ","MAREA":" ","LANE":" ","ALLEY":" ","HOUSE_NO":"６８號十一樓之２","E_COORD97":172700.39000000001,"N_COORD97":2545576.0499999998,"ADDRESS":"復華三街６８號十一樓之２","OBJECTID":627019},"geometry":{"x":172700.38999999966,"y":2545576.0500000007}},{"attributes":{"ID":627047,"DIS_CODE":0,"TOWNNAME":"永康區","LI":"復國里","LIN":"20鄰","STREET":"國華街","SECT":" ","MAREA":" ","LANE":" ","ALLEY":" ","HOUSE_NO":"６３號八樓之１","E_COORD97":172819.29999999999,"N_COORD97":2545744.3100000001,"ADDRESS":"國華街６３號八樓之１","OBJECTID":627020},"geometry":{"x":172819.30000000075,"y":2545744.3100000005}},{"attributes":{"ID":627048,"DIS_CODE":0,"TOWNNAME":"永康區","LI":"復國里","LIN":"26鄰","STREET":"復華三街","SECT":" ","MAREA":" ","LANE":" ","ALLEY":" ","HOUSE_NO":"６２號十二樓之１","E_COORD97":172711.72,"N_COORD97":2545562.9700000002,"ADDRESS":"復華三街６２號十二樓之１","OBJECTID":627021},"geometry":{"x":172711.71999999974,"y":2545562.9700000007}},{"attributes":{"ID":627049,"DIS_CODE":0,"TOWNNAME":"永康區","LI":"網寮里","LIN":"26鄰","STREET":"永興路","SECT":" ","MAREA":" ","LANE":" ","ALLEY":" ","HOUSE_NO":"１０９號四樓之２","E_COORD97":173913.76999999999,"N_COORD97":2546579.6400000001,"ADDRESS":"永興路１０９號四樓之２","OBJECTID":627022},"geometry":{"x":173913.77000000048,"y":2546579.6400000006}},{"attributes":{"ID":627050,"DIS_CODE":0,"TOWNNAME":"永康區","LI":"復國里","LIN":"26鄰","STREET":"復華三街","SECT":" ","MAREA":" ","LANE":" ","ALLEY":" ","HOUSE_NO":"６４號十九樓之５","E_COORD97":172721.03,"N_COORD97":2545600.2999999998,"ADDRESS":"復華三街６４號十九樓之５","OBJECTID":627023},"geometry":{"x":172721.03000000119,"y":2545600.3000000026}},{"attributes":{"ID":627051,"DIS_CODE":0,"TOWNNAME":"永康區","LI":"網寮里","LIN":"26鄰","STREET":"永興路","SECT":" ","MAREA":" ","LANE":" ","ALLEY":" ","HOUSE_NO":"９１號十一樓之１","E_COORD97":173983.76000000001,"N_COORD97":2546562.8599999999,"ADDRESS":"永興路９１號十一樓之１","OBJECTID":627024},"geometry":{"x":173983.76000000071,"y":2546562.8599999994}},{"attributes":{"ID":627052,"DIS_CODE":0,"TOWNNAME":"永康區","LI":"網寮里","LIN":"26鄰","STREET":"永興路","SECT":" ","MAREA":" ","LANE":" ","ALLEY":" ","HOUSE_NO":"９１號七樓之１","E_COORD97":173982.51000000001,"N_COORD97":2546562.8599999999,"ADDRESS":"永興路９１號七樓之１","OBJECTID":627025},"geometry":{"x":173982.51000000071,"y":2546562.8599999994}},{"attributes":{"ID":627053,"DIS_CODE":0,"TOWNNAME":"永康區","LI":"復國里","LIN":"26鄰","STREET":"復華三街","SECT":" ","MAREA":" ","LANE":" ","ALLEY":" ","HOUSE_NO":"６４號十三樓之５","E_COORD97":172721.03,"N_COORD97":2545600.2999999998,"ADDRESS":"復華三街６４號十三樓之５","OBJECTID":627026},"geometry":{"x":172721.03000000119,"y":2545600.3000000026}},{"attributes":{"ID":627054,"DIS_CODE":0,"TOWNNAME":"永康區","LI":"網寮里","LIN":"26鄰","STREET":"永興路","SECT":" ","MAREA":" ","LANE":" ","ALLEY":" ","HOUSE_NO":"９１號九樓之３","E_COORD97":173982.60999999999,"N_COORD97":2546562.8599999999,"ADDRESS":"永興路９１號九樓之３","OBJECTID":627027},"geometry":{"x":173982.61000000034,"y":2546562.8599999994}},{"attributes":{"ID":627055,"DIS_CODE":0,"TOWNNAME":"永康區","LI":"復國里","LIN":"26鄰","STREET":"復華三街","SECT":" ","MAREA":" ","LANE":" ","ALLEY":" ","HOUSE_NO":"６２號九樓之１","E_COORD97":172710.47,"N_COORD97":2545562.9700000002,"ADDRESS":"復華三街６２號九樓之１","OBJECTID":627028},"geometry":{"x":172710.46999999881,"y":2545562.9700000007}},{"attributes":{"ID":627056,"DIS_CODE":0,"TOWNNAME":"永康區","LI":"網寮里","LIN":"26鄰","STREET":"永興路","SECT":" ","MAREA":" ","LANE":" ","ALLEY":" ","HOUSE_NO":"６９號九樓之３","E_COORD97":174038.92000000001,"N_COORD97":2546534.2999999998,"ADDRESS":"永興路６９號九樓之３","OBJECTID":627029},"geometry":{"x":174038.92000000086,"y":2546534.3000000007}},{"attributes":{"ID":627057,"DIS_CODE":0,"TOWNNAME":"永康區","LI":"復國里","LIN":"27鄰","STREET":"復華三街","SECT":" ","MAREA":" ","LANE":" ","ALLEY":" ","HOUSE_NO":"６６號六樓之１","E_COORD97":172710.54000000001,"N_COORD97":2545600.7999999998,"ADDRESS":"復華三街６６號六樓之１","OBJECTID":627030},"geometry":{"x":172710.5400000019,"y":2545600.8000000026}},{"attributes":{"ID":627058,"DIS_CODE":0,"TOWNNAME":"永康區","LI":"網寮里","LIN":"20鄰","STREET":"文化路","SECT":" ","MAREA":" ","LANE":" ","ALLEY":" ","HOUSE_NO":"３１５號四樓之１","E_COORD97":173450.25,"N_COORD97":2546134.21,"ADDRESS":"文化路３１５號四樓之１","OBJECTID":627031},"geometry":{"x":173450.25000000093,"y":2546134.2100000028}},{"attributes":{"ID":627059,"DIS_CODE":0,"TOWNNAME":"永康區","LI":"網寮里","LIN":"26鄰","STREET":"永興路","SECT":" ","MAREA":" ","LANE":" ","ALLEY":" ","HOUSE_NO":"９１號四樓之４","E_COORD97":173982.54000000001,"N_COORD97":2546562.8599999999,"ADDRESS":"永興路９１號四樓之４","OBJECTID":627032},"geometry":{"x":173982.54000000097,"y":2546562.8599999994}},{"attributes":{"ID":627060,"DIS_CODE":0,"TOWNNAME":"永康區","LI":"網寮里","LIN":"26鄰","STREET":"永興路","SECT":" ","MAREA":" ","LANE":" ","ALLEY":" ","HOUSE_NO":"６９號八樓之２","E_COORD97":174038.95000000001,"N_COORD97":2546534.2999999998,"ADDRESS":"永興路６９號八樓之２","OBJECTID":627033},"geometry":{"x":174038.95000000112,"y":2546534.3000000007}},{"attributes":{"ID":627061,"DIS_CODE":0,"TOWNNAME":"永康區","LI":"復國里","LIN":"26鄰","STREET":"復華三街","SECT":" ","MAREA":" ","LANE":" ","ALLEY":" ","HOUSE_NO":"６２號七樓之６","E_COORD97":172710.57000000001,"N_COORD97":2545562.9700000002,"ADDRESS":"復華三街６２號七樓之６","OBJECTID":627034},"geometry":{"x":172710.57000000216,"y":2545562.9700000007}},{"attributes":{"ID":627062,"DIS_CODE":0,"TOWNNAME":"永康區","LI":"復華里","LIN":"4鄰","STREET":"復國二路","SECT":" ","MAREA":" ","LANE":" ","ALLEY":" ","HOUSE_NO":"２４５號二樓之５","E_COORD97":173019.35000000001,"N_COORD97":2546116.2999999998,"ADDRESS":"復國二路２４５號二樓之５","OBJECTID":627035},"geometry":{"x":173019.34999999963,"y":2546116.3000000026}},{"attributes":{"ID":627063,"DIS_CODE":0,"TOWNNAME":"永康區","LI":"復華里","LIN":"4鄰","STREET":"復國二路","SECT":" ","MAREA":" ","LANE":" ","ALLEY":" ","HOUSE_NO":"２４５號二樓之１","E_COORD97":173019.20000000001,"N_COORD97":2546116.2999999998,"ADDRESS":"復國二路２４５號二樓之１","OBJECTID":627036},"geometry":{"x":173019.20000000019,"y":2546116.3000000026}},{"attributes":{"ID":627064,"DIS_CODE":0,"TOWNNAME":"永康區","LI":"網寮里","LIN":"26鄰","STREET":"永興路","SECT":" ","MAREA":" ","LANE":" ","ALLEY":" ","HOUSE_NO":"９１號十樓之３","E_COORD97":173982.60999999999,"N_COORD97":2546562.8599999999,"ADDRESS":"永興路９１號十樓之３","OBJECTID":627037},"geometry":{"x":173982.61000000034,"y":2546562.8599999994}},{"attributes":{"ID":627065,"DIS_CODE":0,"TOWNNAME":"永康區","LI":"網寮里","LIN":"26鄰","STREET":"永興路","SECT":" ","MAREA":" ","LANE":" ","ALLEY":" ","HOUSE_NO":"６９號八樓之３","E_COORD97":174038.92000000001,"N_COORD97":2546534.2999999998,"ADDRESS":"永興路６９號八樓之３","OBJECTID":627038},"geometry":{"x":174038.92000000086,"y":2546534.3000000007}},{"attributes":{"ID":627066,"DIS_CODE":0,"TOWNNAME":"永康區","LI":"復國里","LIN":"26鄰","STREET":"復華三街","SECT":" ","MAREA":" ","LANE":" ","ALLEY":" ","HOUSE_NO":"６４號十二樓之４","E_COORD97":172720.89999999999,"N_COORD97":2545600.2999999998,"ADDRESS":"復華三街６４號十二樓之４","OBJECTID":627039},"geometry":{"x":172720.9000000013,"y":2545600.3000000026}},{"attributes":{"ID":627067,"DIS_CODE":0,"TOWNNAME":"永康區","LI":"復國里","LIN":"27鄰","STREET":"復華三街","SECT":" ","MAREA":" ","LANE":" ","ALLEY":" ","HOUSE_NO":"６６號十四樓之２","E_COORD97":172711.92000000001,"N_COORD97":2545600.7999999998,"ADDRESS":"復華三街６６號十四樓之２","OBJECTID":627040},"geometry":{"x":172711.92000000086,"y":2545600.8000000026}},{"attributes":{"ID":627068,"DIS_CODE":0,"TOWNNAME":"永康區","LI":"復國里","LIN":"27鄰","STREET":"復華三街","SECT":" ","MAREA":" ","LANE":" ","ALLEY":" ","HOUSE_NO":"６６號十五樓之４","E_COORD97":172711.81,"N_COORD97":2545600.7999999998,"ADDRESS":"復華三街６６號十五樓之４","OBJECTID":627041},"geometry":{"x":172711.81000000052,"y":2545600.8000000026}},{"attributes":{"ID":627069,"DIS_CODE":0,"TOWNNAME":"永康區","LI":"復華里","LIN":"4鄰","STREET":"復國二路","SECT":" ","MAREA":" ","LANE":" ","ALLEY":" ","HOUSE_NO":"２４５號五樓之５","E_COORD97":173019.35000000001,"N_COORD97":2546116.2999999998,"ADDRESS":"復國二路２４５號五樓之５","OBJECTID":627042},"geometry":{"x":173019.34999999963,"y":2546116.3000000026}},{"attributes":{"ID":627070,"DIS_CODE":0,"TOWNNAME":"永康區","LI":"網寮里","LIN":"26鄰","STREET":"永興路","SECT":" ","MAREA":" ","LANE":" ","ALLEY":" ","HOUSE_NO":"９１號十一樓之３","E_COORD97":173983.85999999999,"N_COORD97":2546562.8599999999,"ADDRESS":"永興路９１號十一樓之３","OBJECTID":627043},"geometry":{"x":173983.86000000127,"y":2546562.8599999994}},{"attributes":{"ID":627071,"DIS_CODE":0,"TOWNNAME":"永康區","LI":"復國里","LIN":"27鄰","STREET":"復華三街","SECT":" ","MAREA":" ","LANE":" ","ALLEY":" ","HOUSE_NO":"６６號四樓之５","E_COORD97":172710.69,"N_COORD97":2545600.7999999998,"ADDRESS":"復華三街６６號四樓之５","OBJECTID":627044},"geometry":{"x":172710.69000000041,"y":2545600.8000000026}},{"attributes":{"ID":627072,"DIS_CODE":0,"TOWNNAME":"永康區","LI":"復國里","LIN":"27鄰","STREET":"復華三街","SECT":" ","MAREA":" ","LANE":" ","ALLEY":" ","HOUSE_NO":"６６號十三樓之４","E_COORD97":172711.81,"N_COORD97":2545600.7999999998,"ADDRESS":"復華三街６６號十三樓之４","OBJECTID":627045},"geometry":{"x":172711.81000000052,"y":2545600.8000000026}},{"attributes":{"ID":627073,"DIS_CODE":0,"TOWNNAME":"永康區","LI":"復國里","LIN":"27鄰","STREET":"復華三街","SECT":" ","MAREA":" ","LANE":" ","ALLEY":" ","HOUSE_NO":"６６號六樓之４","E_COORD97":172710.56,"N_COORD97":2545600.7999999998,"ADDRESS":"復華三街６６號六樓之４","OBJECTID":627046},"geometry":{"x":172710.56000000052,"y":2545600.8000000026}},{"attributes":{"ID":627074,"DIS_CODE":0,"TOWNNAME":"永康區","LI":"網寮里","LIN":"20鄰","STREET":"文化路","SECT":" ","MAREA":" ","LANE":" ","ALLEY":" ","HOUSE_NO":"３０７號五樓之２","E_COORD97":173464.98999999999,"N_COORD97":2546123.7599999998,"ADDRESS":"文化路３０７號五樓之２","OBJECTID":627047},"geometry":{"x":173464.99000000022,"y":2546123.7599999998}},{"attributes":{"ID":627075,"DIS_CODE":0,"TOWNNAME":"永康區","LI":"網寮里","LIN":"26鄰","STREET":"永興路","SECT":" ","MAREA":" ","LANE":" ","ALLEY":" ","HOUSE_NO":"９１號六樓之１","E_COORD97":173982.51000000001,"N_COORD97":2546562.8599999999,"ADDRESS":"永興路９１號六樓之１","OBJECTID":627048},"geometry":{"x":173982.51000000071,"y":2546562.8599999994}},{"attributes":{"ID":627076,"DIS_CODE":0,"TOWNNAME":"永康區","LI":"復國里","LIN":"26鄰","STREET":"復華三街","SECT":" ","MAREA":" ","LANE":" ","ALLEY":" ","HOUSE_NO":"６２號十三樓之５","E_COORD97":172711.87,"N_COORD97":2545562.9700000002,"ADDRESS":"復華三街６２號十三樓之５","OBJECTID":627049},"geometry":{"x":172711.87000000104,"y":2545562.9700000007}},{"attributes":{"ID":627077,"DIS_CODE":0,"TOWNNAME":"永康區","LI":"復國里","LIN":"26鄰","STREET":"復華三街","SECT":" ","MAREA":" ","LANE":" ","ALLEY":" ","HOUSE_NO":"６２號七樓之５","E_COORD97":172710.62,"N_COORD97":2545562.9700000002,"ADDRESS":"復華三街６２號七樓之５","OBJECTID":627050},"geometry":{"x":172710.62000000104,"y":2545562.9700000007}},{"attributes":{"ID":627078,"DIS_CODE":0,"TOWNNAME":"永康區","LI":"復華里","LIN":"4鄰","STREET":"復國二路","SECT":" ","MAREA":" ","LANE":" ","ALLEY":" ","HOUSE_NO":"２４５號三樓之２","E_COORD97":173019.32999999999,"N_COORD97":2546116.2999999998,"ADDRESS":"復國二路２４５號三樓之２","OBJECTID":627051},"geometry":{"x":173019.33000000101,"y":2546116.3000000026}},{"attributes":{"ID":627079,"DIS_CODE":0,"TOWNNAME":"永康區","LI":"網寮里","LIN":"26鄰","STREET":"永興路","SECT":" ","MAREA":" ","LANE":" ","ALLEY":" ","HOUSE_NO":"６９號七樓之４","E_COORD97":174038.85000000001,"N_COORD97":2546534.2999999998,"ADDRESS":"永興路６９號七樓之４","OBJECTID":627052},"geometry":{"x":174038.85000000056,"y":2546534.3000000007}},{"attributes":{"ID":627080,"DIS_CODE":0,"TOWNNAME":"善化區","LI":"光文里","LIN":"19鄰","STREET":"民生路","SECT":" ","MAREA":" ","LANE":" ","ALLEY":" ","HOUSE_NO":"２８３號四樓","E_COORD97":178198.57000000001,"N_COORD97":2558880.5099999998,"ADDRESS":"民生路２８３號四樓","OBJECTID":627053},"geometry":{"x":178198.57000000123,"y":2558880.5100000035}},{"attributes":{"ID":627081,"DIS_CODE":0,"TOWNNAME":"善化區","LI":"光文里","LIN":"19鄰","STREET":"民生路","SECT":" ","MAREA":" ","LANE":" ","ALLEY":" ","HOUSE_NO":"２８３號六樓之１","E_COORD97":178199.42999999999,"N_COORD97":2558880.52,"ADDRESS":"民生路２８３號六樓之１","OBJECTID":627054},"geometry":{"x":178199.4299999997,"y":2558880.5200000033}},{"attributes":{"ID":627082,"DIS_CODE":0,"TOWNNAME":"善化區","LI":"文昌里","LIN":"15鄰","STREET":"大信路","SECT":" ","MAREA":" ","LANE":" ","ALLEY":" ","HOUSE_NO":"７３號十二樓","E_COORD97":177618.12,"N_COORD97":2558761.5,"ADDRESS":"大信路７３號十二樓","OBJECTID":627055},"geometry":{"x":177618.12000000104,"y":2558761.5}},{"attributes":{"ID":627083,"DIS_CODE":0,"TOWNNAME":"善化區","LI":"文昌里","LIN":"15鄰","STREET":"大信路","SECT":" ","MAREA":" ","LANE":" ","ALLEY":" ","HOUSE_NO":"６７號五樓之２","E_COORD97":177598.59,"N_COORD97":2558743.52,"ADDRESS":"大信路６７號五樓之２","OBJECTID":627056},"geometry":{"x":177598.58999999985,"y":2558743.5199999996}},{"attributes":{"ID":627084,"DIS_CODE":0,"TOWNNAME":"永康區","LI":"大橋里","LIN":"4鄰","STREET":"大橋五街","SECT":" ","MAREA":" ","LANE":" ","ALLEY":" ","HOUSE_NO":"１４３號九樓之１","E_COORD97":170978.67999999999,"N_COORD97":2546989.3599999999,"ADDRESS":"大橋五街１４３號九樓之１","OBJECTID":627057},"geometry":{"x":170978.68000000063,"y":2546989.3600000013}},{"attributes":{"ID":627085,"DIS_CODE":0,"TOWNNAME":"善化區","LI":"文昌里","LIN":"15鄰","STREET":"大信路","SECT":" ","MAREA":" ","LANE":" ","ALLEY":" ","HOUSE_NO":"７１號八樓","E_COORD97":177614.51000000001,"N_COORD97":2558770.25,"ADDRESS":"大信路７１號八樓","OBJECTID":627058},"geometry":{"x":177614.51000000164,"y":2558770.25}},{"attributes":{"ID":627086,"DIS_CODE":0,"TOWNNAME":"永康區","LI":"大橋里","LIN":"4鄰","STREET":"大橋五街","SECT":" ","MAREA":" ","LANE":" ","ALLEY":" ","HOUSE_NO":"１４３號四樓之５","E_COORD97":170978.84,"N_COORD97":2546989.3599999999,"ADDRESS":"大橋五街１４３號四樓之５","OBJECTID":627059},"geometry":{"x":170978.83999999985,"y":2546989.3600000013}},{"attributes":{"ID":627087,"DIS_CODE":0,"TOWNNAME":"東區","LI":"東明里","LIN":"4鄰","STREET":"東興路","SECT":" ","MAREA":" ","LANE":" ","ALLEY":" ","HOUSE_NO":"９１號二樓","E_COORD97":170933.41,"N_COORD97":2543617.96,"ADDRESS":"東興路９１號二樓","OBJECTID":627060},"geometry":{"x":170933.41000000108,"y":2543617.9600000009}},{"attributes":{"ID":627088,"DIS_CODE":0,"TOWNNAME":"東區","LI":"東明里","LIN":"4鄰","STREET":"東興路","SECT":" ","MAREA":" ","LANE":" ","ALLEY":" ","HOUSE_NO":"９３號三樓","E_COORD97":170947.35000000001,"N_COORD97":2543617.6800000002,"ADDRESS":"東興路９３號三樓","OBJECTID":627061},"geometry":{"x":170947.35000000056,"y":2543617.6799999997}},{"attributes":{"ID":627089,"DIS_CODE":0,"TOWNNAME":"東區","LI":"東明里","LIN":"4鄰","STREET":"東興路","SECT":" ","MAREA":" ","LANE":" ","ALLEY":" ","HOUSE_NO":"８９號六樓","E_COORD97":170926.98000000001,"N_COORD97":2543604.04,"ADDRESS":"東興路８９號六樓","OBJECTID":627062},"geometry":{"x":170926.98000000138,"y":2543604.040000001}},{"attributes":{"ID":627090,"DIS_CODE":0,"TOWNNAME":"東區","LI":"東明里","LIN":"4鄰","STREET":"東興路","SECT":" ","MAREA":" ","LANE":" ","ALLEY":" ","HOUSE_NO":"８３號四樓","E_COORD97":170936.89999999999,"N_COORD97":2543583.8500000001,"ADDRESS":"東興路８３號四樓","OBJECTID":627063},"geometry":{"x":170936.90000000224,"y":2543583.8499999978}},{"attributes":{"ID":627091,"DIS_CODE":0,"TOWNNAME":"東區","LI":"東明里","LIN":"4鄰","STREET":"東興路","SECT":" ","MAREA":" ","LANE":" ","ALLEY":" ","HOUSE_NO":"８１號五樓","E_COORD97":170940.10000000001,"N_COORD97":2543592.8999999999,"ADDRESS":"東興路８１號五樓","OBJECTID":627064},"geometry":{"x":170940.10000000056,"y":2543592.9000000022}},{"attributes":{"ID":627092,"DIS_CODE":0,"TOWNNAME":"東區","LI":"東明里","LIN":"4鄰","STREET":"東興路","SECT":" ","MAREA":" ","LANE":" ","ALLEY":" ","HOUSE_NO":"８３號三樓","E_COORD97":170936.89999999999,"N_COORD97":2543583.8500000001,"ADDRESS":"東興路８３號三樓","OBJECTID":627065},"geometry":{"x":170936.90000000224,"y":2543583.8499999978}},{"attributes":{"ID":627093,"DIS_CODE":0,"TOWNNAME":"東區","LI":"東明里","LIN":"4鄰","STREET":"東興路","SECT":" ","MAREA":" ","LANE":" ","ALLEY":" ","HOUSE_NO":"８５號三樓","E_COORD97":170925.04999999999,"N_COORD97":2543585.52,"ADDRESS":"東興路８５號三樓","OBJECTID":627066},"geometry":{"x":170925.05000000168,"y":2543585.5199999996}},{"attributes":{"ID":627094,"DIS_CODE":0,"TOWNNAME":"東區","LI":"東明里","LIN":"4鄰","STREET":"東興路","SECT":" ","MAREA":" ","LANE":" ","ALLEY":" ","HOUSE_NO":"８５號六樓","E_COORD97":170925.04999999999,"N_COORD97":2543585.52,"ADDRESS":"東興路８５號六樓","OBJECTID":627067},"geometry":{"x":170925.05000000168,"y":2543585.5199999996}},{"attributes":{"ID":627095,"DIS_CODE":0,"TOWNNAME":"東區","LI":"東明里","LIN":"20鄰","STREET":"東安路","SECT":" ","MAREA":" ","LANE":" ","ALLEY":" ","HOUSE_NO":"５０號二樓之１２","E_COORD97":170696.03,"N_COORD97":2543616.6800000002,"ADDRESS":"東安路５０號二樓之１２","OBJECTID":627068},"geometry":{"x":170696.03000000026,"y":2543616.6800000016}},{"attributes":{"ID":627096,"DIS_CODE":0,"TOWNNAME":"東區","LI":"東明里","LIN":"4鄰","STREET":"東興路","SECT":" ","MAREA":" ","LANE":" ","ALLEY":" ","HOUSE_NO":"８７號二樓","E_COORD97":170925.82000000001,"N_COORD97":2543593.4399999999,"ADDRESS":"東興路８７號二樓","OBJECTID":627069},"geometry":{"x":170925.82000000123,"y":2543593.4400000032}},{"attributes":{"ID":627097,"DIS_CODE":0,"TOWNNAME":"東區","LI":"東明里","LIN":"4鄰","STREET":"東興路","SECT":" ","MAREA":" ","LANE":" ","ALLEY":" ","HOUSE_NO":"８９號五樓","E_COORD97":170926.98000000001,"N_COORD97":2543604.04,"ADDRESS":"東興路８９號五樓","OBJECTID":627070},"geometry":{"x":170926.98000000138,"y":2543604.040000001}},{"attributes":{"ID":627098,"DIS_CODE":0,"TOWNNAME":"東區","LI":"東明里","LIN":"4鄰","STREET":"東興路","SECT":" ","MAREA":" ","LANE":" ","ALLEY":" ","HOUSE_NO":"９１號三樓","E_COORD97":170933.41,"N_COORD97":2543617.96,"ADDRESS":"東興路９１號三樓","OBJECTID":627071},"geometry":{"x":170933.41000000108,"y":2543617.9600000009}},{"attributes":{"ID":627099,"DIS_CODE":0,"TOWNNAME":"東區","LI":"東明里","LIN":"4鄰","STREET":"東興路","SECT":" ","MAREA":" ","LANE":" ","ALLEY":" ","HOUSE_NO":"９１號五樓","E_COORD97":170933.41,"N_COORD97":2543617.96,"ADDRESS":"東興路９１號五樓","OBJECTID":627072},"geometry":{"x":170933.41000000108,"y":2543617.9600000009}},{"attributes":{"ID":627100,"DIS_CODE":0,"TOWNNAME":"東區","LI":"東明里","LIN":"4鄰","STREET":"東興路","SECT":" ","MAREA":" ","LANE":" ","ALLEY":" ","HOUSE_NO":"９５號五樓","E_COORD97":170946.23000000001,"N_COORD97":2543609.1899999999,"ADDRESS":"東興路９５號五樓","OBJECTID":627073},"geometry":{"x":170946.23000000045,"y":2543609.1900000013}},{"attributes":{"ID":627101,"DIS_CODE":0,"TOWNNAME":"東區","LI":"東明里","LIN":"5鄰","STREET":"怡東路","SECT":" ","MAREA":" ","LANE":" ","ALLEY":" ","HOUSE_NO":"７０號三樓","E_COORD97":170860.25,"N_COORD97":2543630.0699999998,"ADDRESS":"怡東路７０號三樓","OBJECTID":627074},"geometry":{"x":170860.25000000093,"y":2543630.0700000003}},{"attributes":{"ID":627102,"DIS_CODE":0,"TOWNNAME":"東區","LI":"東明里","LIN":"8鄰","STREET":"怡東路","SECT":" ","MAREA":" ","LANE":" ","ALLEY":" ","HOUSE_NO":"８０號三樓","E_COORD97":170868.85999999999,"N_COORD97":2543678.1499999999,"ADDRESS":"怡東路８０號三樓","OBJECTID":627075},"geometry":{"x":170868.86000000034,"y":2543678.1500000022}},{"attributes":{"ID":627103,"DIS_CODE":0,"TOWNNAME":"東區","LI":"東明里","LIN":"8鄰","STREET":"怡東路","SECT":" ","MAREA":" ","LANE":" ","ALLEY":" ","HOUSE_NO":"８４號二樓","E_COORD97":170870.38,"N_COORD97":2543689.6499999999,"ADDRESS":"怡東路８４號二樓","OBJECTID":627076},"geometry":{"x":170870.38000000175,"y":2543689.6500000022}},{"attributes":{"ID":627104,"DIS_CODE":0,"TOWNNAME":"東區","LI":"東明里","LIN":"20鄰","STREET":"東安路","SECT":" ","MAREA":" ","LANE":" ","ALLEY":" ","HOUSE_NO":"５０號二樓之１","E_COORD97":170696.03,"N_COORD97":2543616.6800000002,"ADDRESS":"東安路５０號二樓之１","OBJECTID":627077},"geometry":{"x":170696.03000000026,"y":2543616.6800000016}},{"attributes":{"ID":627105,"DIS_CODE":0,"TOWNNAME":"東區","LI":"東明里","LIN":"20鄰","STREET":"東安路","SECT":" ","MAREA":" ","LANE":" ","ALLEY":" ","HOUSE_NO":"５０號二樓之５","E_COORD97":170696.03,"N_COORD97":2543616.6800000002,"ADDRESS":"東安路５０號二樓之５","OBJECTID":627078},"geometry":{"x":170696.03000000026,"y":2543616.6800000016}},{"attributes":{"ID":627106,"DIS_CODE":0,"TOWNNAME":"東區","LI":"裕農里","LIN":"24鄰","STREET":"裕農路","SECT":" ","MAREA":" ","LANE":" ","ALLEY":" ","HOUSE_NO":"３８１號二樓","E_COORD97":171116.41,"N_COORD97":2543119.77,"ADDRESS":"裕農路３８１號二樓","OBJECTID":627079},"geometry":{"x":171116.41000000108,"y":2543119.7699999996}},{"attributes":{"ID":627107,"DIS_CODE":0,"TOWNNAME":"東區","LI":"崇德里","LIN":"15鄰","STREET":"崇明十三街","SECT":" ","MAREA":" ","LANE":" ","ALLEY":" ","HOUSE_NO":"２號六樓","E_COORD97":170462.59,"N_COORD97":2541559.4100000001,"ADDRESS":"崇明十三街２號六樓","OBJECTID":627080},"geometry":{"x":170462.59000000078,"y":2541559.4100000001}},{"attributes":{"ID":627108,"DIS_CODE":0,"TOWNNAME":"東區","LI":"崇德里","LIN":"15鄰","STREET":"崇明十三街","SECT":" ","MAREA":" ","LANE":" ","ALLEY":" ","HOUSE_NO":"３號五樓之４","E_COORD97":170454.97,"N_COORD97":2541574.7200000002,"ADDRESS":"崇明十三街３號五樓之４","OBJECTID":627081},"geometry":{"x":170454.97000000067,"y":2541574.7200000007}},{"attributes":{"ID":627109,"DIS_CODE":0,"TOWNNAME":"東區","LI":"莊敬里","LIN":"22鄰","STREET":"莊敬路","SECT":" ","MAREA":" ","LANE":" ","ALLEY":" ","HOUSE_NO":"１１８號四樓","E_COORD97":171388.28,"N_COORD97":2544007.0699999998,"ADDRESS":"莊敬路１１８號四樓","OBJECTID":627082},"geometry":{"x":171388.28000000026,"y":2544007.070000004}},{"attributes":{"ID":627110,"DIS_CODE":0,"TOWNNAME":"東區","LI":"莊敬里","LIN":"22鄰","STREET":"莊敬路","SECT":" ","MAREA":" ","LANE":" ","ALLEY":" ","HOUSE_NO":"１１８號四樓之１","E_COORD97":171388.28,"N_COORD97":2544007.0699999998,"ADDRESS":"莊敬路１１８號四樓之１","OBJECTID":627083},"geometry":{"x":171388.28000000026,"y":2544007.070000004}},{"attributes":{"ID":627111,"DIS_CODE":0,"TOWNNAME":"東區","LI":"莊敬里","LIN":"22鄰","STREET":"莊敬路","SECT":" ","MAREA":" ","LANE":" ","ALLEY":" ","HOUSE_NO":"１１８號四樓之２","E_COORD97":171388.28,"N_COORD97":2544007.0699999998,"ADDRESS":"莊敬路１１８號四樓之２","OBJECTID":627084},"geometry":{"x":171388.28000000026,"y":2544007.070000004}},{"attributes":{"ID":627112,"DIS_CODE":0,"TOWNNAME":"東區","LI":"莊敬里","LIN":"22鄰","STREET":"莊敬路","SECT":" ","MAREA":" ","LANE":" ","ALLEY":" ","HOUSE_NO":"１１８號四樓之３","E_COORD97":171388.28,"N_COORD97":2544007.0699999998,"ADDRESS":"莊敬路１１８號四樓之３","OBJECTID":627085},"geometry":{"x":171388.28000000026,"y":2544007.070000004}},{"attributes":{"ID":627113,"DIS_CODE":0,"TOWNNAME":"東區","LI":"莊敬里","LIN":"22鄰","STREET":"莊敬路","SECT":" ","MAREA":" ","LANE":" ","ALLEY":" ","HOUSE_NO":"１１８號四樓之６","E_COORD97":171388.28,"N_COORD97":2544007.0699999998,"ADDRESS":"莊敬路１１８號四樓之６","OBJECTID":627086},"geometry":{"x":171388.28000000026,"y":2544007.070000004}},{"attributes":{"ID":627114,"DIS_CODE":0,"TOWNNAME":"東區","LI":"莊敬里","LIN":"22鄰","STREET":"莊敬路","SECT":" ","MAREA":" ","LANE":" ","ALLEY":" ","HOUSE_NO":"１１８號四樓之５","E_COORD97":171388.28,"N_COORD97":2544007.0699999998,"ADDRESS":"莊敬路１１８號四樓之５","OBJECTID":627087},"geometry":{"x":171388.28000000026,"y":2544007.070000004}},{"attributes":{"ID":627115,"DIS_CODE":0,"TOWNNAME":"東區","LI":"莊敬里","LIN":"22鄰","STREET":"莊敬路","SECT":" ","MAREA":" ","LANE":" ","ALLEY":" ","HOUSE_NO":"１１８號六樓之４","E_COORD97":171388.28,"N_COORD97":2544007.0699999998,"ADDRESS":"莊敬路１１８號六樓之４","OBJECTID":627088},"geometry":{"x":171388.28000000026,"y":2544007.070000004}},{"attributes":{"ID":627116,"DIS_CODE":0,"TOWNNAME":"東區","LI":"莊敬里","LIN":"22鄰","STREET":"莊敬路","SECT":" ","MAREA":" ","LANE":" ","ALLEY":" ","HOUSE_NO":"１１８號十二樓之４","E_COORD97":171388.28,"N_COORD97":2544007.0699999998,"ADDRESS":"莊敬路１１８號十二樓之４","OBJECTID":627089},"geometry":{"x":171388.28000000026,"y":2544007.070000004}},{"attributes":{"ID":627117,"DIS_CODE":0,"TOWNNAME":"東區","LI":"裕農里","LIN":"6鄰","STREET":"裕農路","SECT":" ","MAREA":" ","LANE":" ","ALLEY":" ","HOUSE_NO":"３７５號二樓","E_COORD97":171070.95000000001,"N_COORD97":2543109.4100000001,"ADDRESS":"裕農路３７５號二樓","OBJECTID":627090},"geometry":{"x":171070.95000000112,"y":2543109.4099999983}},{"attributes":{"ID":627118,"DIS_CODE":0,"TOWNNAME":"東區","LI":"裕農里","LIN":"6鄰","STREET":"裕農路","SECT":" ","MAREA":" ","LANE":" ","ALLEY":" ","HOUSE_NO":"３７５號二樓之１","E_COORD97":171070.95000000001,"N_COORD97":2543109.4100000001,"ADDRESS":"裕農路３７５號二樓之１","OBJECTID":627091},"geometry":{"x":171070.95000000112,"y":2543109.4099999983}},{"attributes":{"ID":627119,"DIS_CODE":0,"TOWNNAME":"東區","LI":"裕農里","LIN":"6鄰","STREET":"裕農路","SECT":" ","MAREA":" ","LANE":" ","ALLEY":" ","HOUSE_NO":"３７５號二樓之２","E_COORD97":171070.95000000001,"N_COORD97":2543109.4100000001,"ADDRESS":"裕農路３７５號二樓之２","OBJECTID":627092},"geometry":{"x":171070.95000000112,"y":2543109.4099999983}},{"attributes":{"ID":627120,"DIS_CODE":0,"TOWNNAME":"東區","LI":"裕農里","LIN":"6鄰","STREET":"裕農路","SECT":" ","MAREA":" ","LANE":" ","ALLEY":" ","HOUSE_NO":"３７５號二樓之３","E_COORD97":171070.95000000001,"N_COORD97":2543109.4100000001,"ADDRESS":"裕農路３７５號二樓之３","OBJECTID":627093},"geometry":{"x":171070.95000000112,"y":2543109.4099999983}},{"attributes":{"ID":627121,"DIS_CODE":0,"TOWNNAME":"東區","LI":"裕農里","LIN":"6鄰","STREET":"裕農路","SECT":" ","MAREA":" ","LANE":" ","ALLEY":" ","HOUSE_NO":"３７５號二樓之４","E_COORD97":171070.95000000001,"N_COORD97":2543109.4100000001,"ADDRESS":"裕農路３７５號二樓之４","OBJECTID":627094},"geometry":{"x":171070.95000000112,"y":2543109.4099999983}},{"attributes":{"ID":627122,"DIS_CODE":0,"TOWNNAME":"東區","LI":"裕農里","LIN":"6鄰","STREET":"裕農路","SECT":" ","MAREA":" ","LANE":" ","ALLEY":" ","HOUSE_NO":"３７５號二樓之５","E_COORD97":171070.95000000001,"N_COORD97":2543109.4100000001,"ADDRESS":"裕農路３７５號二樓之５","OBJECTID":627095},"geometry":{"x":171070.95000000112,"y":2543109.4099999983}},{"attributes":{"ID":627123,"DIS_CODE":0,"TOWNNAME":"東區","LI":"裕農里","LIN":"6鄰","STREET":"裕農路","SECT":" ","MAREA":" ","LANE":" ","ALLEY":" ","HOUSE_NO":"３７５號二樓之６","E_COORD97":171070.95000000001,"N_COORD97":2543109.4100000001,"ADDRESS":"裕農路３７５號二樓之６","OBJECTID":627096},"geometry":{"x":171070.95000000112,"y":2543109.4099999983}},{"attributes":{"ID":627124,"DIS_CODE":0,"TOWNNAME":"東區","LI":"裕農里","LIN":"6鄰","STREET":"裕農路","SECT":" ","MAREA":" ","LANE":" ","ALLEY":" ","HOUSE_NO":"３７５號二樓之７","E_COORD97":171070.95000000001,"N_COORD97":2543109.4100000001,"ADDRESS":"裕農路３７５號二樓之７","OBJECTID":627097},"geometry":{"x":171070.95000000112,"y":2543109.4099999983}},{"attributes":{"ID":627125,"DIS_CODE":0,"TOWNNAME":"東區","LI":"裕農里","LIN":"6鄰","STREET":"裕農路","SECT":" ","MAREA":" ","LANE":" ","ALLEY":" ","HOUSE_NO":"３７５號二樓之８","E_COORD97":171070.95000000001,"N_COORD97":2543109.4100000001,"ADDRESS":"裕農路３７５號二樓之８","OBJECTID":627098},"geometry":{"x":171070.95000000112,"y":2543109.4099999983}},{"attributes":{"ID":627126,"DIS_CODE":0,"TOWNNAME":"東區","LI":"泉南里","LIN":"20鄰","STREET":"府連路","SECT":" ","MAREA":" ","LANE":" ","ALLEY":" ","HOUSE_NO":"３６８號五樓","E_COORD97":169674.07999999999,"N_COORD97":2542797.3500000001,"ADDRESS":"府連路３６８號五樓","OBJECTID":627099},"geometry":{"x":169674.08000000194,"y":2542797.3499999978}},{"attributes":{"ID":627127,"DIS_CODE":0,"TOWNNAME":"東區","LI":"龍山里","LIN":"12鄰","STREET":"東門路","SECT":"一段","MAREA":" ","LANE":" ","ALLEY":" ","HOUSE_NO":"３５８號二樓","E_COORD97":169853.26000000001,"N_COORD97":2543007.4700000002,"ADDRESS":"東門路一段３５８號二樓","OBJECTID":627100},"geometry":{"x":169853.25999999978,"y":2543007.4700000007}},{"attributes":{"ID":627128,"DIS_CODE":0,"TOWNNAME":"東區","LI":"龍山里","LIN":"12鄰","STREET":"東門路","SECT":"一段","MAREA":" ","LANE":" ","ALLEY":" ","HOUSE_NO":"３５８號三樓","E_COORD97":169853.26000000001,"N_COORD97":2543007.4700000002,"ADDRESS":"東門路一段３５８號三樓","OBJECTID":627101},"geometry":{"x":169853.25999999978,"y":2543007.4700000007}},{"attributes":{"ID":627129,"DIS_CODE":0,"TOWNNAME":"東區","LI":"龍山里","LIN":"12鄰","STREET":"東門路","SECT":"一段","MAREA":" ","LANE":" ","ALLEY":" ","HOUSE_NO":"３５８號三樓之１","E_COORD97":169853.26000000001,"N_COORD97":2543007.4700000002,"ADDRESS":"東門路一段３５８號三樓之１","OBJECTID":627102},"geometry":{"x":169853.25999999978,"y":2543007.4700000007}},{"attributes":{"ID":627130,"DIS_CODE":0,"TOWNNAME":"麻豆區","LI":"新建里","LIN":"7鄰","STREET":"中山路","SECT":" ","MAREA":" ","LANE":" ","ALLEY":" ","HOUSE_NO":"１７７號之６二樓","E_COORD97":172410.60999999999,"N_COORD97":2564909.0800000001,"ADDRESS":"中山路１７７號之６二樓","OBJECTID":627103},"geometry":{"x":172410.61000000127,"y":2564909.0800000019}},{"attributes":{"ID":627131,"DIS_CODE":0,"TOWNNAME":"麻豆區","LI":"新建里","LIN":"7鄰","STREET":"中山路","SECT":" ","MAREA":" ","LANE":" ","ALLEY":" ","HOUSE_NO":"１７７號之６三樓","E_COORD97":172410.60999999999,"N_COORD97":2564909.0800000001,"ADDRESS":"中山路１７７號之６三樓","OBJECTID":627104},"geometry":{"x":172410.61000000127,"y":2564909.0800000019}},{"attributes":{"ID":627132,"DIS_CODE":0,"TOWNNAME":"中西區","LI":"法華里","LIN":"25鄰","STREET":"慶中街","SECT":" ","MAREA":" ","LANE":" ","ALLEY":" ","HOUSE_NO":"１０號一樓","E_COORD97":168565.87,"N_COORD97":2542523.6800000002,"ADDRESS":"慶中街１０號一樓","OBJECTID":627105},"geometry":{"x":168565.87000000104,"y":2542523.6799999997}},{"attributes":{"ID":627133,"DIS_CODE":0,"TOWNNAME":"中西區","LI":"法華里","LIN":"25鄰","STREET":"慶中街","SECT":" ","MAREA":" ","LANE":" ","ALLEY":" ","HOUSE_NO":"１４號七樓之３","E_COORD97":168562.39000000001,"N_COORD97":2542547.9199999999,"ADDRESS":"慶中街１４號七樓之３","OBJECTID":627106},"geometry":{"x":168562.38999999966,"y":2542547.9200000018}},{"attributes":{"ID":627134,"DIS_CODE":0,"TOWNNAME":"中西區","LI":"法華里","LIN":"25鄰","STREET":"慶中街","SECT":" ","MAREA":" ","LANE":" ","ALLEY":" ","HOUSE_NO":"１４號七樓之４","E_COORD97":168566.04000000001,"N_COORD97":2542536.23,"ADDRESS":"慶中街１４號七樓之４","OBJECTID":627107},"geometry":{"x":168566.04000000097,"y":2542536.2300000023}},{"attributes":{"ID":627135,"DIS_CODE":0,"TOWNNAME":"中西區","LI":"法華里","LIN":"25鄰","STREET":"慶中街","SECT":" ","MAREA":" ","LANE":" ","ALLEY":" ","HOUSE_NO":"１４號二樓之１","E_COORD97":168550.48999999999,"N_COORD97":2542539.1000000001,"ADDRESS":"慶中街１４號二樓之１","OBJECTID":627108},"geometry":{"x":168550.49000000022,"y":2542539.1000000015}},{"attributes":{"ID":627136,"DIS_CODE":0,"TOWNNAME":"中西區","LI":"五妃里","LIN":"10鄰","STREET":"慶中街","SECT":" ","MAREA":" ","LANE":" ","ALLEY":" ","HOUSE_NO":"１３８號七樓","E_COORD97":168556.98999999999,"N_COORD97":2542726.7599999998,"ADDRESS":"慶中街１３８號七樓","OBJECTID":627109},"geometry":{"x":168556.99000000022,"y":2542726.7599999998}},{"attributes":{"ID":627137,"DIS_CODE":0,"TOWNNAME":"中西區","LI":"五妃里","LIN":"10鄰","STREET":"慶中街","SECT":" ","MAREA":" ","LANE":" ","ALLEY":" ","HOUSE_NO":"１３８號三樓","E_COORD97":168556.98999999999,"N_COORD97":2542726.7599999998,"ADDRESS":"慶中街１３８號三樓","OBJECTID":627110},"geometry":{"x":168556.99000000022,"y":2542726.7599999998}},{"attributes":{"ID":627138,"DIS_CODE":0,"TOWNNAME":"中西區","LI":"五妃里","LIN":"10鄰","STREET":"慶中街","SECT":" ","MAREA":" ","LANE":" ","ALLEY":" ","HOUSE_NO":"１３８號五樓","E_COORD97":168556.98999999999,"N_COORD97":2542726.7599999998,"ADDRESS":"慶中街１３８號五樓","OBJECTID":627111},"geometry":{"x":168556.99000000022,"y":2542726.7599999998}},{"attributes":{"ID":627139,"DIS_CODE":0,"TOWNNAME":"中西區","LI":"五妃里","LIN":"10鄰","STREET":"慶中街","SECT":" ","MAREA":" ","LANE":" ","ALLEY":" ","HOUSE_NO":"１３８號六樓","E_COORD97":168556.98999999999,"N_COORD97":2542726.7599999998,"ADDRESS":"慶中街１３８號六樓","OBJECTID":627112},"geometry":{"x":168556.99000000022,"y":2542726.7599999998}},{"attributes":{"ID":627140,"DIS_CODE":0,"TOWNNAME":"中西區","LI":"五妃里","LIN":"10鄰","STREET":"慶中街","SECT":" ","MAREA":" ","LANE":" ","ALLEY":" ","HOUSE_NO":"１３８號四樓","E_COORD97":168556.98999999999,"N_COORD97":2542726.7599999998,"ADDRESS":"慶中街１３８號四樓","OBJECTID":627113},"geometry":{"x":168556.99000000022,"y":2542726.7599999998}},{"attributes":{"ID":627141,"DIS_CODE":0,"TOWNNAME":"中西區","LI":"五妃里","LIN":"10鄰","STREET":"慶中街","SECT":" ","MAREA":" ","LANE":" ","ALLEY":" ","HOUSE_NO":"１４０號七樓","E_COORD97":168568.98999999999,"N_COORD97":2542725.3700000001,"ADDRESS":"慶中街１４０號七樓","OBJECTID":627114},"geometry":{"x":168568.99000000022,"y":2542725.3700000029}},{"attributes":{"ID":627142,"DIS_CODE":0,"TOWNNAME":"中西區","LI":"五妃里","LIN":"10鄰","STREET":"慶中街","SECT":" ","MAREA":" ","LANE":" ","ALLEY":" ","HOUSE_NO":"１４０號二樓","E_COORD97":168568.98999999999,"N_COORD97":2542725.3700000001,"ADDRESS":"慶中街１４０號二樓","OBJECTID":627115},"geometry":{"x":168568.99000000022,"y":2542725.3700000029}},{"attributes":{"ID":627143,"DIS_CODE":0,"TOWNNAME":"中西區","LI":"五妃里","LIN":"10鄰","STREET":"慶中街","SECT":" ","MAREA":" ","LANE":" ","ALLEY":" ","HOUSE_NO":"１４０號三樓","E_COORD97":168568.98999999999,"N_COORD97":2542725.3700000001,"ADDRESS":"慶中街１４０號三樓","OBJECTID":627116},"geometry":{"x":168568.99000000022,"y":2542725.3700000029}},{"attributes":{"ID":627144,"DIS_CODE":0,"TOWNNAME":"中西區","LI":"五妃里","LIN":"10鄰","STREET":"慶中街","SECT":" ","MAREA":" ","LANE":" ","ALLEY":" ","HOUSE_NO":"１４０號五樓","E_COORD97":168568.98999999999,"N_COORD97":2542725.3700000001,"ADDRESS":"慶中街１４０號五樓","OBJECTID":627117},"geometry":{"x":168568.99000000022,"y":2542725.3700000029}},{"attributes":{"ID":627145,"DIS_CODE":0,"TOWNNAME":"中西區","LI":"五妃里","LIN":"10鄰","STREET":"慶中街","SECT":" ","MAREA":" ","LANE":" ","ALLEY":" ","HOUSE_NO":"１４０號六樓","E_COORD97":168568.98999999999,"N_COORD97":2542725.3700000001,"ADDRESS":"慶中街１４０號六樓","OBJECTID":627118},"geometry":{"x":168568.99000000022,"y":2542725.3700000029}},{"attributes":{"ID":627146,"DIS_CODE":0,"TOWNNAME":"中西區","LI":"五妃里","LIN":"10鄰","STREET":"慶中街","SECT":" ","MAREA":" ","LANE":" ","ALLEY":" ","HOUSE_NO":"１４０號四樓","E_COORD97":168568.98999999999,"N_COORD97":2542725.3700000001,"ADDRESS":"慶中街１４０號四樓","OBJECTID":627119},"geometry":{"x":168568.99000000022,"y":2542725.3700000029}},{"attributes":{"ID":627147,"DIS_CODE":0,"TOWNNAME":"中西區","LI":"五妃里","LIN":"10鄰","STREET":"慶中街","SECT":" ","MAREA":" ","LANE":" ","ALLEY":" ","HOUSE_NO":"１４２號七樓","E_COORD97":168580.85999999999,"N_COORD97":2542725.1200000001,"ADDRESS":"慶中街１４２號七樓","OBJECTID":627120},"geometry":{"x":168580.8600000022,"y":2542725.120000001}},{"attributes":{"ID":627148,"DIS_CODE":0,"TOWNNAME":"中西區","LI":"建國里","LIN":"1鄰","STREET":"中正路","SECT":" ","MAREA":" ","LANE":" ","ALLEY":" ","HOUSE_NO":"８８號七樓","E_COORD97":168054.64999999999,"N_COORD97":2543686.46,"ADDRESS":"中正路８８號七樓","OBJECTID":627121},"geometry":{"x":168054.65000000037,"y":2543686.4600000046}},{"attributes":{"ID":627149,"DIS_CODE":0,"TOWNNAME":"中西區","LI":"建國里","LIN":"1鄰","STREET":"永福路","SECT":"二段","MAREA":" ","LANE":" ","ALLEY":" ","HOUSE_NO":"８３號七樓","E_COORD97":168068.17000000001,"N_COORD97":2543735.8500000001,"ADDRESS":"永福路二段８３號七樓","OBJECTID":627122},"geometry":{"x":168068.17000000086,"y":2543735.8499999996}},{"attributes":{"ID":627150,"DIS_CODE":0,"TOWNNAME":"中西區","LI":"建國里","LIN":"1鄰","STREET":"永福路","SECT":"二段","MAREA":" ","LANE":" ","ALLEY":" ","HOUSE_NO":"８３號九樓","E_COORD97":168068.17000000001,"N_COORD97":2543735.8500000001,"ADDRESS":"永福路二段８３號九樓","OBJECTID":627123},"geometry":{"x":168068.17000000086,"y":2543735.8499999996}},{"attributes":{"ID":627151,"DIS_CODE":0,"TOWNNAME":"中西區","LI":"建國里","LIN":"1鄰","STREET":"永福路","SECT":"二段","MAREA":" ","LANE":" ","ALLEY":" ","HOUSE_NO":"８３號二樓","E_COORD97":168068.17000000001,"N_COORD97":2543735.8500000001,"ADDRESS":"永福路二段８３號二樓","OBJECTID":627124},"geometry":{"x":168068.17000000086,"y":2543735.8499999996}},{"attributes":{"ID":627152,"DIS_CODE":0,"TOWNNAME":"中西區","LI":"建國里","LIN":"1鄰","STREET":"永福路","SECT":"二段","MAREA":" ","LANE":" ","ALLEY":" ","HOUSE_NO":"８３號八樓","E_COORD97":168068.17000000001,"N_COORD97":2543735.8500000001,"ADDRESS":"永福路二段８３號八樓","OBJECTID":627125},"geometry":{"x":168068.17000000086,"y":2543735.8499999996}},{"attributes":{"ID":627153,"DIS_CODE":0,"TOWNNAME":"中西區","LI":"建國里","LIN":"1鄰","STREET":"永福路","SECT":"二段","MAREA":" ","LANE":" ","ALLEY":" ","HOUSE_NO":"８３號三樓","E_COORD97":168068.17000000001,"N_COORD97":2543735.8500000001,"ADDRESS":"永福路二段８３號三樓","OBJECTID":627126},"geometry":{"x":168068.17000000086,"y":2543735.8499999996}},{"attributes":{"ID":627154,"DIS_CODE":0,"TOWNNAME":"中西區","LI":"建國里","LIN":"1鄰","STREET":"永福路","SECT":"二段","MAREA":" ","LANE":" ","ALLEY":" ","HOUSE_NO":"８３號五樓","E_COORD97":168068.17000000001,"N_COORD97":2543735.8500000001,"ADDRESS":"永福路二段８３號五樓","OBJECTID":627127},"geometry":{"x":168068.17000000086,"y":2543735.8499999996}},{"attributes":{"ID":627155,"DIS_CODE":0,"TOWNNAME":"中西區","LI":"建國里","LIN":"1鄰","STREET":"永福路","SECT":"二段","MAREA":" ","LANE":" ","ALLEY":" ","HOUSE_NO":"８３號六樓","E_COORD97":168068.17000000001,"N_COORD97":2543735.8500000001,"ADDRESS":"永福路二段８３號六樓","OBJECTID":627128},"geometry":{"x":168068.17000000086,"y":2543735.8499999996}},{"attributes":{"ID":627156,"DIS_CODE":0,"TOWNNAME":"中西區","LI":"建國里","LIN":"1鄰","STREET":"永福路","SECT":"二段","MAREA":" ","LANE":" ","ALLEY":" ","HOUSE_NO":"８３號四樓","E_COORD97":168068.17000000001,"N_COORD97":2543735.8500000001,"ADDRESS":"永福路二段８３號四樓","OBJECTID":627129},"geometry":{"x":168068.17000000086,"y":2543735.8499999996}},{"attributes":{"ID":627157,"DIS_CODE":0,"TOWNNAME":"中西區","LI":"建國里","LIN":"1鄰","STREET":"中正路","SECT":" ","MAREA":" ","LANE":" ","ALLEY":" ","HOUSE_NO":"８８號八樓","E_COORD97":168054.64999999999,"N_COORD97":2543686.46,"ADDRESS":"中正路８８號八樓","OBJECTID":627130},"geometry":{"x":168054.65000000037,"y":2543686.4600000046}},{"attributes":{"ID":627158,"DIS_CODE":0,"TOWNNAME":"中西區","LI":"建國里","LIN":"1鄰","STREET":"中正路","SECT":" ","MAREA":" ","LANE":" ","ALLEY":" ","HOUSE_NO":"８８號十樓","E_COORD97":168054.64999999999,"N_COORD97":2543686.46,"ADDRESS":"中正路８８號十樓","OBJECTID":627131},"geometry":{"x":168054.65000000037,"y":2543686.4600000046}},{"attributes":{"ID":627159,"DIS_CODE":0,"TOWNNAME":"中西區","LI":"郡王里","LIN":"14鄰","STREET":"建業街","SECT":" ","MAREA":" ","LANE":" ","ALLEY":" ","HOUSE_NO":"４１號七樓","E_COORD97":168493.20999999999,"N_COORD97":2543143.0899999999,"ADDRESS":"建業街４１號七樓","OBJECTID":627132},"geometry":{"x":168493.21000000183,"y":2543143.0900000017}},{"attributes":{"ID":627160,"DIS_CODE":0,"TOWNNAME":"中西區","LI":"郡王里","LIN":"14鄰","STREET":"建業街","SECT":" ","MAREA":" ","LANE":" ","ALLEY":" ","HOUSE_NO":"４１號二樓","E_COORD97":168493.20999999999,"N_COORD97":2543143.0899999999,"ADDRESS":"建業街４１號二樓","OBJECTID":627133},"geometry":{"x":168493.21000000183,"y":2543143.0900000017}},{"attributes":{"ID":627161,"DIS_CODE":0,"TOWNNAME":"中西區","LI":"郡王里","LIN":"14鄰","STREET":"建業街","SECT":" ","MAREA":" ","LANE":" ","ALLEY":" ","HOUSE_NO":"４１號三樓","E_COORD97":168493.20999999999,"N_COORD97":2543143.0899999999,"ADDRESS":"建業街４１號三樓","OBJECTID":627134},"geometry":{"x":168493.21000000183,"y":2543143.0900000017}},{"attributes":{"ID":627162,"DIS_CODE":0,"TOWNNAME":"中西區","LI":"郡王里","LIN":"14鄰","STREET":"建業街","SECT":" ","MAREA":" ","LANE":" ","ALLEY":" ","HOUSE_NO":"４１號之１七樓","E_COORD97":168492.64999999999,"N_COORD97":2543130.04,"ADDRESS":"建業街４１號之１七樓","OBJECTID":627135},"geometry":{"x":168492.6500000013,"y":2543130.0399999991}},{"attributes":{"ID":627163,"DIS_CODE":0,"TOWNNAME":"中西區","LI":"郡王里","LIN":"14鄰","STREET":"建業街","SECT":" ","MAREA":" ","LANE":" ","ALLEY":" ","HOUSE_NO":"４１號之１二樓","E_COORD97":168492.64999999999,"N_COORD97":2543130.04,"ADDRESS":"建業街４１號之１二樓","OBJECTID":627136},"geometry":{"x":168492.6500000013,"y":2543130.0399999991}},{"attributes":{"ID":627164,"DIS_CODE":0,"TOWNNAME":"中西區","LI":"郡王里","LIN":"14鄰","STREET":"建業街","SECT":" ","MAREA":" ","LANE":" ","ALLEY":" ","HOUSE_NO":"４１號之１三樓","E_COORD97":168492.64999999999,"N_COORD97":2543130.04,"ADDRESS":"建業街４１號之１三樓","OBJECTID":627137},"geometry":{"x":168492.6500000013,"y":2543130.0399999991}},{"attributes":{"ID":627165,"DIS_CODE":0,"TOWNNAME":"中西區","LI":"郡王里","LIN":"14鄰","STREET":"建業街","SECT":" ","MAREA":" ","LANE":" ","ALLEY":" ","HOUSE_NO":"４１號之１五樓","E_COORD97":168492.64999999999,"N_COORD97":2543130.04,"ADDRESS":"建業街４１號之１五樓","OBJECTID":627138},"geometry":{"x":168492.6500000013,"y":2543130.0399999991}},{"attributes":{"ID":627166,"DIS_CODE":0,"TOWNNAME":"中西區","LI":"郡王里","LIN":"14鄰","STREET":"建業街","SECT":" ","MAREA":" ","LANE":" ","ALLEY":" ","HOUSE_NO":"４１號之１六樓","E_COORD97":168492.64999999999,"N_COORD97":2543130.04,"ADDRESS":"建業街４１號之１六樓","OBJECTID":627139},"geometry":{"x":168492.6500000013,"y":2543130.0399999991}},{"attributes":{"ID":627167,"DIS_CODE":0,"TOWNNAME":"中西區","LI":"郡王里","LIN":"14鄰","STREET":"建業街","SECT":" ","MAREA":" ","LANE":" ","ALLEY":" ","HOUSE_NO":"４１號之１四樓","E_COORD97":168492.64999999999,"N_COORD97":2543130.04,"ADDRESS":"建業街４１號之１四樓","OBJECTID":627140},"geometry":{"x":168492.6500000013,"y":2543130.0399999991}},{"attributes":{"ID":627168,"DIS_CODE":0,"TOWNNAME":"中西區","LI":"郡王里","LIN":"14鄰","STREET":"建業街","SECT":" ","MAREA":" ","LANE":" ","ALLEY":" ","HOUSE_NO":"４１號之２七樓","E_COORD97":168477.17999999999,"N_COORD97":2543130.54,"ADDRESS":"建業街４１號之２七樓","OBJECTID":627141},"geometry":{"x":168477.1799999997,"y":2543130.5399999991}},{"attributes":{"ID":627169,"DIS_CODE":0,"TOWNNAME":"中西區","LI":"郡王里","LIN":"14鄰","STREET":"建業街","SECT":" ","MAREA":" ","LANE":" ","ALLEY":" ","HOUSE_NO":"４１號之２二樓","E_COORD97":168477.17999999999,"N_COORD97":2543130.54,"ADDRESS":"建業街４１號之２二樓","OBJECTID":627142},"geometry":{"x":168477.1799999997,"y":2543130.5399999991}},{"attributes":{"ID":627170,"DIS_CODE":0,"TOWNNAME":"中西區","LI":"郡王里","LIN":"14鄰","STREET":"建業街","SECT":" ","MAREA":" ","LANE":" ","ALLEY":" ","HOUSE_NO":"４１號之２三樓","E_COORD97":168477.17999999999,"N_COORD97":2543130.54,"ADDRESS":"建業街４１號之２三樓","OBJECTID":627143},"geometry":{"x":168477.1799999997,"y":2543130.5399999991}},{"attributes":{"ID":627171,"DIS_CODE":0,"TOWNNAME":"中西區","LI":"郡王里","LIN":"14鄰","STREET":"建業街","SECT":" ","MAREA":" ","LANE":" ","ALLEY":" ","HOUSE_NO":"４１號之２五樓","E_COORD97":168477.17999999999,"N_COORD97":2543130.54,"ADDRESS":"建業街４１號之２五樓","OBJECTID":627144},"geometry":{"x":168477.1799999997,"y":2543130.5399999991}},{"attributes":{"ID":627172,"DIS_CODE":0,"TOWNNAME":"中西區","LI":"郡王里","LIN":"14鄰","STREET":"建業街","SECT":" ","MAREA":" ","LANE":" ","ALLEY":" ","HOUSE_NO":"４１號之２六樓","E_COORD97":168477.17999999999,"N_COORD97":2543130.54,"ADDRESS":"建業街４１號之２六樓","OBJECTID":627145},"geometry":{"x":168477.1799999997,"y":2543130.5399999991}},{"attributes":{"ID":627173,"DIS_CODE":0,"TOWNNAME":"中西區","LI":"郡王里","LIN":"14鄰","STREET":"建業街","SECT":" ","MAREA":" ","LANE":" ","ALLEY":" ","HOUSE_NO":"４１號之２四樓","E_COORD97":168477.17999999999,"N_COORD97":2543130.54,"ADDRESS":"建業街４１號之２四樓","OBJECTID":627146},"geometry":{"x":168477.1799999997,"y":2543130.5399999991}},{"attributes":{"ID":627174,"DIS_CODE":0,"TOWNNAME":"中西區","LI":"郡王里","LIN":"14鄰","STREET":"建業街","SECT":" ","MAREA":" ","LANE":" ","ALLEY":" ","HOUSE_NO":"４１號之３七樓","E_COORD97":168479.84,"N_COORD97":2543142.6400000001,"ADDRESS":"建業街４１號之３七樓","OBJECTID":627147},"geometry":{"x":168479.83999999985,"y":2543142.6400000043}},{"attributes":{"ID":627175,"DIS_CODE":0,"TOWNNAME":"中西區","LI":"永華里","LIN":"6鄰","STREET":"府中街","SECT":" ","MAREA":" ","LANE":" ","ALLEY":" ","HOUSE_NO":"１２３號二樓","E_COORD97":168554.89000000001,"N_COORD97":2543403.0699999998,"ADDRESS":"府中街１２３號二樓","OBJECTID":627148},"geometry":{"x":168554.8900000006,"y":2543403.0700000003}},{"attributes":{"ID":627176,"DIS_CODE":0,"TOWNNAME":"中西區","LI":"永華里","LIN":"6鄰","STREET":"府中街","SECT":" ","MAREA":" ","LANE":" ","ALLEY":" ","HOUSE_NO":"１２３號三樓","E_COORD97":168554.89000000001,"N_COORD97":2543403.0699999998,"ADDRESS":"府中街１２３號三樓","OBJECTID":627149},"geometry":{"x":168554.8900000006,"y":2543403.0700000003}},{"attributes":{"ID":627177,"DIS_CODE":0,"TOWNNAME":"中西區","LI":"永華里","LIN":"6鄰","STREET":"府中街","SECT":" ","MAREA":" ","LANE":" ","ALLEY":" ","HOUSE_NO":"１２３號五樓","E_COORD97":168554.89000000001,"N_COORD97":2543403.0699999998,"ADDRESS":"府中街１２３號五樓","OBJECTID":627150},"geometry":{"x":168554.8900000006,"y":2543403.0700000003}},{"attributes":{"ID":627178,"DIS_CODE":0,"TOWNNAME":"中西區","LI":"永華里","LIN":"6鄰","STREET":"府中街","SECT":" ","MAREA":" ","LANE":" ","ALLEY":" ","HOUSE_NO":"１２３號四樓","E_COORD97":168554.89000000001,"N_COORD97":2543403.0699999998,"ADDRESS":"府中街１２３號四樓","OBJECTID":627151},"geometry":{"x":168554.8900000006,"y":2543403.0700000003}},{"attributes":{"ID":627179,"DIS_CODE":0,"TOWNNAME":"中西區","LI":"永華里","LIN":"6鄰","STREET":"府中街","SECT":" ","MAREA":" ","LANE":" ","ALLEY":" ","HOUSE_NO":"１２５號二樓","E_COORD97":168551.54999999999,"N_COORD97":2543402.77,"ADDRESS":"府中街１２５號二樓","OBJECTID":627152},"geometry":{"x":168551.54999999981,"y":2543402.7700000014}},{"attributes":{"ID":627180,"DIS_CODE":0,"TOWNNAME":"中西區","LI":"永華里","LIN":"6鄰","STREET":"府中街","SECT":" ","MAREA":" ","LANE":" ","ALLEY":" ","HOUSE_NO":"１２５號三樓","E_COORD97":168551.54999999999,"N_COORD97":2543402.77,"ADDRESS":"府中街１２５號三樓","OBJECTID":627153},"geometry":{"x":168551.54999999981,"y":2543402.7700000014}},{"attributes":{"ID":627181,"DIS_CODE":0,"TOWNNAME":"中西區","LI":"永華里","LIN":"6鄰","STREET":"府中街","SECT":" ","MAREA":" ","LANE":" ","ALLEY":" ","HOUSE_NO":"１２５號五樓","E_COORD97":168551.54999999999,"N_COORD97":2543402.77,"ADDRESS":"府中街１２５號五樓","OBJECTID":627154},"geometry":{"x":168551.54999999981,"y":2543402.7700000014}},{"attributes":{"ID":627182,"DIS_CODE":0,"TOWNNAME":"中西區","LI":"永華里","LIN":"6鄰","STREET":"府中街","SECT":" ","MAREA":" ","LANE":" ","ALLEY":" ","HOUSE_NO":"１２５號四樓","E_COORD97":168551.54999999999,"N_COORD97":2543402.77,"ADDRESS":"府中街１２５號四樓","OBJECTID":627155},"geometry":{"x":168551.54999999981,"y":2543402.7700000014}},{"attributes":{"ID":627183,"DIS_CODE":0,"TOWNNAME":"中西區","LI":"永華里","LIN":"6鄰","STREET":"府中街","SECT":" ","MAREA":" ","LANE":" ","ALLEY":" ","HOUSE_NO":"１２７號二樓","E_COORD97":168546.87,"N_COORD97":2543401.9500000002,"ADDRESS":"府中街１２７號二樓","OBJECTID":627156},"geometry":{"x":168546.87000000104,"y":2543401.9499999993}},{"attributes":{"ID":627184,"DIS_CODE":0,"TOWNNAME":"中西區","LI":"永華里","LIN":"6鄰","STREET":"府中街","SECT":" ","MAREA":" ","LANE":" ","ALLEY":" ","HOUSE_NO":"１２７號三樓","E_COORD97":168546.87,"N_COORD97":2543401.9500000002,"ADDRESS":"府中街１２７號三樓","OBJECTID":627157},"geometry":{"x":168546.87000000104,"y":2543401.9499999993}},{"attributes":{"ID":627185,"DIS_CODE":0,"TOWNNAME":"中西區","LI":"永華里","LIN":"6鄰","STREET":"府中街","SECT":" ","MAREA":" ","LANE":" ","ALLEY":" ","HOUSE_NO":"１２７號五樓","E_COORD97":168546.87,"N_COORD97":2543401.9500000002,"ADDRESS":"府中街１２７號五樓","OBJECTID":627158},"geometry":{"x":168546.87000000104,"y":2543401.9499999993}},{"attributes":{"ID":627186,"DIS_CODE":0,"TOWNNAME":"中西區","LI":"永華里","LIN":"6鄰","STREET":"府中街","SECT":" ","MAREA":" ","LANE":" ","ALLEY":" ","HOUSE_NO":"１２７號四樓","E_COORD97":168546.87,"N_COORD97":2543401.9500000002,"ADDRESS":"府中街１２７號四樓","OBJECTID":627159},"geometry":{"x":168546.87000000104,"y":2543401.9499999993}},{"attributes":{"ID":627187,"DIS_CODE":0,"TOWNNAME":"中西區","LI":"青年里","LIN":"7鄰","STREET":"青年路","SECT":" ","MAREA":" ","LANE":" ","ALLEY":" ","HOUSE_NO":"１２３號七樓之１","E_COORD97":168875.79000000001,"N_COORD97":2543627.3300000001,"ADDRESS":"青年路１２３號七樓之１","OBJECTID":627160},"geometry":{"x":168875.78999999911,"y":2543627.3300000001}},{"attributes":{"ID":627188,"DIS_CODE":0,"TOWNNAME":"中西區","LI":"青年里","LIN":"7鄰","STREET":"青年路","SECT":" ","MAREA":" ","LANE":" ","ALLEY":" ","HOUSE_NO":"１２３號七樓之２","E_COORD97":168875.79000000001,"N_COORD97":2543627.3300000001,"ADDRESS":"青年路１２３號七樓之２","OBJECTID":627161},"geometry":{"x":168875.78999999911,"y":2543627.3300000001}},{"attributes":{"ID":627189,"DIS_CODE":0,"TOWNNAME":"北區","LI":"玉皇里","LIN":"4鄰","STREET":"崇安街","SECT":" ","MAREA":" ","LANE":" ","ALLEY":" ","HOUSE_NO":"５７號","E_COORD97":168686.76000000001,"N_COORD97":2544560.8399999999,"ADDRESS":"崇安街５７號","OBJECTID":627162},"geometry":{"x":168686.76000000071,"y":2544560.8400000036}},{"attributes":{"ID":627190,"DIS_CODE":0,"TOWNNAME":"中西區","LI":"青年里","LIN":"7鄰","STREET":"青年路","SECT":" ","MAREA":" ","LANE":" ","ALLEY":" ","HOUSE_NO":"１２３號九樓之１","E_COORD97":168875.79000000001,"N_COORD97":2543627.3300000001,"ADDRESS":"青年路１２３號九樓之１","OBJECTID":627163},"geometry":{"x":168875.78999999911,"y":2543627.3300000001}},{"attributes":{"ID":627191,"DIS_CODE":0,"TOWNNAME":"中西區","LI":"青年里","LIN":"7鄰","STREET":"青年路","SECT":" ","MAREA":" ","LANE":" ","ALLEY":" ","HOUSE_NO":"１２３號九樓之２","E_COORD97":168875.79000000001,"N_COORD97":2543627.3300000001,"ADDRESS":"青年路１２３號九樓之２","OBJECTID":627164},"geometry":{"x":168875.78999999911,"y":2543627.3300000001}},{"attributes":{"ID":627192,"DIS_CODE":0,"TOWNNAME":"中西區","LI":"青年里","LIN":"7鄰","STREET":"青年路","SECT":" ","MAREA":" ","LANE":" ","ALLEY":" ","HOUSE_NO":"１２３號九樓之３","E_COORD97":168875.79000000001,"N_COORD97":2543627.3300000001,"ADDRESS":"青年路１２３號九樓之３","OBJECTID":627165},"geometry":{"x":168875.78999999911,"y":2543627.3300000001}},{"attributes":{"ID":627193,"DIS_CODE":0,"TOWNNAME":"中西區","LI":"青年里","LIN":"7鄰","STREET":"青年路","SECT":" ","MAREA":" ","LANE":" ","ALLEY":" ","HOUSE_NO":"１２３號八樓之１","E_COORD97":168875.79000000001,"N_COORD97":2543627.3300000001,"ADDRESS":"青年路１２３號八樓之１","OBJECTID":627166},"geometry":{"x":168875.78999999911,"y":2543627.3300000001}},{"attributes":{"ID":627194,"DIS_CODE":0,"TOWNNAME":"中西區","LI":"青年里","LIN":"7鄰","STREET":"青年路","SECT":" ","MAREA":" ","LANE":" ","ALLEY":" ","HOUSE_NO":"１２３號八樓之２","E_COORD97":168875.79000000001,"N_COORD97":2543627.3300000001,"ADDRESS":"青年路１２３號八樓之２","OBJECTID":627167},"geometry":{"x":168875.78999999911,"y":2543627.3300000001}},{"attributes":{"ID":627195,"DIS_CODE":0,"TOWNNAME":"中西區","LI":"青年里","LIN":"7鄰","STREET":"青年路","SECT":" ","MAREA":" ","LANE":" ","ALLEY":" ","HOUSE_NO":"１２３號五樓之１","E_COORD97":168875.79000000001,"N_COORD97":2543627.3300000001,"ADDRESS":"青年路１２３號五樓之１","OBJECTID":627168},"geometry":{"x":168875.78999999911,"y":2543627.3300000001}},{"attributes":{"ID":627196,"DIS_CODE":0,"TOWNNAME":"中西區","LI":"青年里","LIN":"7鄰","STREET":"青年路","SECT":" ","MAREA":" ","LANE":" ","ALLEY":" ","HOUSE_NO":"１２３號五樓之２","E_COORD97":168875.79000000001,"N_COORD97":2543627.3300000001,"ADDRESS":"青年路１２３號五樓之２","OBJECTID":627169},"geometry":{"x":168875.78999999911,"y":2543627.3300000001}},{"attributes":{"ID":627197,"DIS_CODE":0,"TOWNNAME":"中西區","LI":"青年里","LIN":"7鄰","STREET":"青年路","SECT":" ","MAREA":" ","LANE":" ","ALLEY":" ","HOUSE_NO":"１２３號五樓之３","E_COORD97":168875.79000000001,"N_COORD97":2543627.3300000001,"ADDRESS":"青年路１２３號五樓之３","OBJECTID":627170},"geometry":{"x":168875.78999999911,"y":2543627.3300000001}},{"attributes":{"ID":627198,"DIS_CODE":0,"TOWNNAME":"中西區","LI":"青年里","LIN":"4鄰","STREET":"武德街","SECT":" ","MAREA":" ","LANE":" ","ALLEY":" ","HOUSE_NO":"２２號之１三樓","E_COORD97":168984.59,"N_COORD97":2543676.9300000002,"ADDRESS":"武德街２２號之１三樓","OBJECTID":627171},"geometry":{"x":168984.59000000078,"y":2543676.9299999997}},{"attributes":{"ID":627199,"DIS_CODE":0,"TOWNNAME":"中西區","LI":"青年里","LIN":"4鄰","STREET":"武德街","SECT":" ","MAREA":" ","LANE":" ","ALLEY":" ","HOUSE_NO":"２２號之１五樓","E_COORD97":168984.59,"N_COORD97":2543676.9300000002,"ADDRESS":"武德街２２號之１五樓","OBJECTID":627172},"geometry":{"x":168984.59000000078,"y":2543676.9299999997}},{"attributes":{"ID":627200,"DIS_CODE":0,"TOWNNAME":"中西區","LI":"青年里","LIN":"4鄰","STREET":"武德街","SECT":" ","MAREA":" ","LANE":" ","ALLEY":" ","HOUSE_NO":"２２號之１四樓","E_COORD97":168984.59,"N_COORD97":2543676.9300000002,"ADDRESS":"武德街２２號之１四樓","OBJECTID":627173},"geometry":{"x":168984.59000000078,"y":2543676.9299999997}},{"attributes":{"ID":627201,"DIS_CODE":0,"TOWNNAME":"中西區","LI":"青年里","LIN":"2鄰","STREET":"萬昌街","SECT":" ","MAREA":" ","LANE":" ","ALLEY":" ","HOUSE_NO":"９８號七樓","E_COORD97":169079.34,"N_COORD97":2543669.1299999999,"ADDRESS":"萬昌街９８號七樓","OBJECTID":627174},"geometry":{"x":169079.34000000078,"y":2543669.129999999}},{"attributes":{"ID":627202,"DIS_CODE":0,"TOWNNAME":"中西區","LI":"青年里","LIN":"2鄰","STREET":"萬昌街","SECT":" ","MAREA":" ","LANE":" ","ALLEY":" ","HOUSE_NO":"１００號七樓","E_COORD97":169087.63,"N_COORD97":2543673.0800000001,"ADDRESS":"萬昌街１００號七樓","OBJECTID":627175},"geometry":{"x":169087.63000000082,"y":2543673.0800000001}},{"attributes":{"ID":627203,"DIS_CODE":0,"TOWNNAME":"中西區","LI":"青年里","LIN":"2鄰","STREET":"萬昌街","SECT":" ","MAREA":" ","LANE":" ","ALLEY":" ","HOUSE_NO":"１００號二樓","E_COORD97":169087.63,"N_COORD97":2543673.0800000001,"ADDRESS":"萬昌街１００號二樓","OBJECTID":627176},"geometry":{"x":169087.63000000082,"y":2543673.0800000001}},{"attributes":{"ID":627204,"DIS_CODE":0,"TOWNNAME":"中西區","LI":"青年里","LIN":"2鄰","STREET":"萬昌街","SECT":" ","MAREA":" ","LANE":" ","ALLEY":" ","HOUSE_NO":"１００號八樓","E_COORD97":169087.63,"N_COORD97":2543673.0800000001,"ADDRESS":"萬昌街１００號八樓","OBJECTID":627177},"geometry":{"x":169087.63000000082,"y":2543673.0800000001}},{"attributes":{"ID":627205,"DIS_CODE":0,"TOWNNAME":"中西區","LI":"青年里","LIN":"2鄰","STREET":"萬昌街","SECT":" ","MAREA":" ","LANE":" ","ALLEY":" ","HOUSE_NO":"１００號三樓","E_COORD97":169087.63,"N_COORD97":2543673.0800000001,"ADDRESS":"萬昌街１００號三樓","OBJECTID":627178},"geometry":{"x":169087.63000000082,"y":2543673.0800000001}},{"attributes":{"ID":627206,"DIS_CODE":0,"TOWNNAME":"中西區","LI":"青年里","LIN":"2鄰","STREET":"萬昌街","SECT":" ","MAREA":" ","LANE":" ","ALLEY":" ","HOUSE_NO":"１００號五樓","E_COORD97":169087.63,"N_COORD97":2543673.0800000001,"ADDRESS":"萬昌街１００號五樓","OBJECTID":627179},"geometry":{"x":169087.63000000082,"y":2543673.0800000001}},{"attributes":{"ID":627207,"DIS_CODE":0,"TOWNNAME":"中西區","LI":"青年里","LIN":"2鄰","STREET":"萬昌街","SECT":" ","MAREA":" ","LANE":" ","ALLEY":" ","HOUSE_NO":"１００號六樓","E_COORD97":169087.63,"N_COORD97":2543673.0800000001,"ADDRESS":"萬昌街１００號六樓","OBJECTID":627180},"geometry":{"x":169087.63000000082,"y":2543673.0800000001}},{"attributes":{"ID":627208,"DIS_CODE":0,"TOWNNAME":"中西區","LI":"青年里","LIN":"2鄰","STREET":"萬昌街","SECT":" ","MAREA":" ","LANE":" ","ALLEY":" ","HOUSE_NO":"１００號四樓","E_COORD97":169087.63,"N_COORD97":2543673.0800000001,"ADDRESS":"萬昌街１００號四樓","OBJECTID":627181},"geometry":{"x":169087.63000000082,"y":2543673.0800000001}},{"attributes":{"ID":627209,"DIS_CODE":0,"TOWNNAME":"中西區","LI":"青年里","LIN":"2鄰","STREET":"萬昌街","SECT":" ","MAREA":" ","LANE":" ","ALLEY":" ","HOUSE_NO":"９６號七樓","E_COORD97":169084.47,"N_COORD97":2543664.3999999999,"ADDRESS":"萬昌街９６號七樓","OBJECTID":627182},"geometry":{"x":169084.46999999881,"y":2543664.4000000004}},{"attributes":{"ID":627210,"DIS_CODE":0,"TOWNNAME":"中西區","LI":"青年里","LIN":"1鄰","STREET":"北門路","SECT":"一段","MAREA":" ","LANE":" ","ALLEY":" ","HOUSE_NO":"９７號十樓之３","E_COORD97":169151.59,"N_COORD97":2543595.6000000001,"ADDRESS":"北門路一段９７號十樓之３","OBJECTID":627183},"geometry":{"x":169151.58999999892,"y":2543595.5999999996}},{"attributes":{"ID":627211,"DIS_CODE":0,"TOWNNAME":"仁德區","LI":"後壁里","LIN":"39鄰","STREET":"德安路","SECT":" ","MAREA":" ","LANE":" ","ALLEY":" ","HOUSE_NO":"８８之１號一樓之１","E_COORD97":173467.87,"N_COORD97":2539065.5699999998,"ADDRESS":"德安路８８之１號一樓之１","OBJECTID":627184},"geometry":{"x":173467.87000000104,"y":2539065.5700000022}},{"attributes":{"ID":627212,"DIS_CODE":0,"TOWNNAME":"永康區","LI":"復華里","LIN":"4鄰","STREET":"復國二路","SECT":" ","MAREA":" ","LANE":" ","ALLEY":" ","HOUSE_NO":"２４５號四樓之３","E_COORD97":173019.29000000001,"N_COORD97":2546116.2999999998,"ADDRESS":"復國二路２４５號四樓之３","OBJECTID":627185},"geometry":{"x":173019.29000000097,"y":2546116.3000000026}},{"attributes":{"ID":627213,"DIS_CODE":0,"TOWNNAME":"永康區","LI":"復華里","LIN":"4鄰","STREET":"復國二路","SECT":" ","MAREA":" ","LANE":" ","ALLEY":" ","HOUSE_NO":"２４５號五樓之３","E_COORD97":173019.29000000001,"N_COORD97":2546116.2999999998,"ADDRESS":"復國二路２４５號五樓之３","OBJECTID":627186},"geometry":{"x":173019.29000000097,"y":2546116.3000000026}},{"attributes":{"ID":627214,"DIS_CODE":0,"TOWNNAME":"永康區","LI":"復國里","LIN":"26鄰","STREET":"復華三街","SECT":" ","MAREA":" ","LANE":" ","ALLEY":" ","HOUSE_NO":"６２號十六樓之４","E_COORD97":172711.73999999999,"N_COORD97":2545562.9700000002,"ADDRESS":"復華三街６２號十六樓之４","OBJECTID":627187},"geometry":{"x":172711.74000000115,"y":2545562.9700000007}},{"attributes":{"ID":627215,"DIS_CODE":0,"TOWNNAME":"永康區","LI":"網寮里","LIN":"26鄰","STREET":"永興路","SECT":" ","MAREA":" ","LANE":" ","ALLEY":" ","HOUSE_NO":"９１號四樓之３","E_COORD97":173982.60999999999,"N_COORD97":2546562.8599999999,"ADDRESS":"永興路９１號四樓之３","OBJECTID":627188},"geometry":{"x":173982.61000000034,"y":2546562.8599999994}},{"attributes":{"ID":627216,"DIS_CODE":0,"TOWNNAME":"永康區","LI":"網寮里","LIN":"26鄰","STREET":"永興路","SECT":" ","MAREA":" ","LANE":" ","ALLEY":" ","HOUSE_NO":"６９號七樓之３","E_COORD97":174038.92000000001,"N_COORD97":2546534.2999999998,"ADDRESS":"永興路６９號七樓之３","OBJECTID":627189},"geometry":{"x":174038.92000000086,"y":2546534.3000000007}},{"attributes":{"ID":627217,"DIS_CODE":0,"TOWNNAME":"永康區","LI":"網寮里","LIN":"26鄰","STREET":"永興路","SECT":" ","MAREA":" ","LANE":" ","ALLEY":" ","HOUSE_NO":"９１號六樓之２","E_COORD97":173982.64000000001,"N_COORD97":2546562.8599999999,"ADDRESS":"永興路９１號六樓之２","OBJECTID":627190},"geometry":{"x":173982.6400000006,"y":2546562.8599999994}},{"attributes":{"ID":627218,"DIS_CODE":0,"TOWNNAME":"永康區","LI":"復國里","LIN":"26鄰","STREET":"復華三街","SECT":" ","MAREA":" ","LANE":" ","ALLEY":" ","HOUSE_NO":"６４號九樓之５","E_COORD97":172719.78,"N_COORD97":2545600.2999999998,"ADDRESS":"復華三街６４號九樓之５","OBJECTID":627191},"geometry":{"x":172719.78000000119,"y":2545600.3000000026}},{"attributes":{"ID":627219,"DIS_CODE":0,"TOWNNAME":"永康區","LI":"復華里","LIN":"4鄰","STREET":"復國二路","SECT":" ","MAREA":" ","LANE":" ","ALLEY":" ","HOUSE_NO":"２４５號二樓之２","E_COORD97":173019.32999999999,"N_COORD97":2546116.2999999998,"ADDRESS":"復國二路２４５號二樓之２","OBJECTID":627192},"geometry":{"x":173019.33000000101,"y":2546116.3000000026}},{"attributes":{"ID":627220,"DIS_CODE":0,"TOWNNAME":"永康區","LI":"網寮里","LIN":"26鄰","STREET":"永興路","SECT":" ","MAREA":" ","LANE":" ","ALLEY":" ","HOUSE_NO":"９１號三樓","E_COORD97":173980.37,"N_COORD97":2546562.8199999998,"ADDRESS":"永興路９１號三樓","OBJECTID":627193},"geometry":{"x":173980.37000000104,"y":2546562.8200000022}},{"attributes":{"ID":627221,"DIS_CODE":0,"TOWNNAME":"北區","LI":"玉皇里","LIN":"4鄰","STREET":"崇安街","SECT":" ","MAREA":" ","LANE":" ","ALLEY":" ","HOUSE_NO":"５９號","E_COORD97":168690.14999999999,"N_COORD97":2544563.7799999998,"ADDRESS":"崇安街５９號","OBJECTID":627194},"geometry":{"x":168690.15000000037,"y":2544563.7799999993}},{"attributes":{"ID":627222,"DIS_CODE":0,"TOWNNAME":"永康區","LI":"復國里","LIN":"26鄰","STREET":"復華三街","SECT":" ","MAREA":" ","LANE":" ","ALLEY":" ","HOUSE_NO":"６４號八樓之２","E_COORD97":172719.76000000001,"N_COORD97":2545600.2999999998,"ADDRESS":"復華三街６４號八樓之２","OBJECTID":627195},"geometry":{"x":172719.75999999978,"y":2545600.3000000026}},{"attributes":{"ID":627223,"DIS_CODE":0,"TOWNNAME":"善化區","LI":"坐駕里","LIN":"17鄰","STREET":"文化路","SECT":" ","MAREA":" ","LANE":" ","ALLEY":" ","HOUSE_NO":"６號五樓之１","E_COORD97":177970.09,"N_COORD97":2558361.29,"ADDRESS":"文化路６號五樓之１","OBJECTID":627196},"geometry":{"x":177970.09000000171,"y":2558361.2899999991}},{"attributes":{"ID":627224,"DIS_CODE":0,"TOWNNAME":"永康區","LI":"復國里","LIN":"27鄰","STREET":"復華三街","SECT":" ","MAREA":" ","LANE":" ","ALLEY":" ","HOUSE_NO":"６６號四樓之３","E_COORD97":172710.63,"N_COORD97":2545600.7999999998,"ADDRESS":"復華三街６６號四樓之３","OBJECTID":627197},"geometry":{"x":172710.62999999989,"y":2545600.8000000026}},{"attributes":{"ID":627225,"DIS_CODE":0,"TOWNNAME":"永康區","LI":"復華里","LIN":"4鄰","STREET":"復國二路","SECT":" ","MAREA":" ","LANE":" ","ALLEY":" ","HOUSE_NO":"２４５號三樓之３","E_COORD97":173019.29000000001,"N_COORD97":2546116.2999999998,"ADDRESS":"復國二路２４５號三樓之３","OBJECTID":627198},"geometry":{"x":173019.29000000097,"y":2546116.3000000026}},{"attributes":{"ID":627226,"DIS_CODE":0,"TOWNNAME":"永康區","LI":"復華里","LIN":"4鄰","STREET":"復國二路","SECT":" ","MAREA":" ","LANE":" ","ALLEY":" ","HOUSE_NO":"２４５號五樓之１","E_COORD97":173019.20000000001,"N_COORD97":2546116.2999999998,"ADDRESS":"復國二路２４５號五樓之１","OBJECTID":627199},"geometry":{"x":173019.20000000019,"y":2546116.3000000026}},{"attributes":{"ID":627227,"DIS_CODE":0,"TOWNNAME":"永康區","LI":"復國里","LIN":"26鄰","STREET":"復華三街","SECT":" ","MAREA":" ","LANE":" ","ALLEY":" ","HOUSE_NO":"６２號八樓之３","E_COORD97":172710.56,"N_COORD97":2545562.9700000002,"ADDRESS":"復華三街６２號八樓之３","OBJECTID":627200},"geometry":{"x":172710.56000000052,"y":2545562.9700000007}}]}