{"displayFieldName":"TOWNNAME","fieldAliases":{"ID":"ID","DIS_CODE":"DIS_CODE","TOWNNAME":"TOWNNAME","LI":"LI","LIN":"LIN","STREET":"STREET","SECT":"SECT","MAREA":"MAREA","LANE":"LANE","ALLEY":"ALLEY","HOUSE_NO":"HOUSE_NO","E_COORD97":"E_COORD97","N_COORD97":"N_COORD97","ADDRESS":"ADDRESS","OBJECTID":"OBJECTID"},"geometryType":"esriGeometryPoint","spatialReference":{"wkid":102443,"latestWkid":3826},"fields":[{"name":"ID","type":"esriFieldTypeDouble","alias":"ID"},{"name":"DIS_CODE","type":"esriFieldTypeInteger","alias":"DIS_CODE"},{"name":"TOWNNAME","type":"esriFieldTypeString","alias":"TOWNNAME","length":8},{"name":"LI","type":"esriFieldTypeString","alias":"LI","length":8},{"name":"LIN","type":"esriFieldTypeString","alias":"LIN","length":12},{"name":"STREET","type":"esriFieldTypeString","alias":"STREET","length":20},{"name":"SECT","type":"esriFieldTypeString","alias":"SECT","length":8},{"name":"MAREA","type":"esriFieldTypeString","alias":"MAREA","length":12},{"name":"LANE","type":"esriFieldTypeString","alias":"LANE","length":10},{"name":"ALLEY","type":"esriFieldTypeString","alias":"ALLEY","length":10},{"name":"HOUSE_NO","type":"esriFieldTypeString","alias":"HOUSE_NO","length":20},{"name":"E_COORD97","type":"esriFieldTypeDouble","alias":"E_COORD97"},{"name":"N_COORD97","type":"esriFieldTypeDouble","alias":"N_COORD97"},{"name":"ADDRESS","type":"esriFieldTypeString","alias":"ADDRESS","length":50},{"name":"OBJECTID","type":"esriFieldTypeOID","alias":"OBJECTID"}],"features":[{"attributes":{"ID":283207,"DIS_CODE":0,"TOWNNAME":"安平區","LI":"平通里","LIN":"30鄰","STREET":"育平九街","SECT":" ","MAREA":" ","LANE":"３７２巷","ALLEY":" ","HOUSE_NO":"１６號","E_COORD97":164610.26000000001,"N_COORD97":2543824.4900000002,"ADDRESS":"育平九街３７２巷１６號","OBJECTID":283201},"geometry":{"x":164610.25999999978,"y":2543824.4900000039}},{"attributes":{"ID":283208,"DIS_CODE":0,"TOWNNAME":"安平區","LI":"平通里","LIN":"30鄰","STREET":"育平九街","SECT":" ","MAREA":" ","LANE":"３７２巷","ALLEY":" ","HOUSE_NO":"１７號","E_COORD97":164585.67000000001,"N_COORD97":2543796,"ADDRESS":"育平九街３７２巷１７號","OBJECTID":283202},"geometry":{"x":164585.66999999993,"y":2543796}},{"attributes":{"ID":283209,"DIS_CODE":0,"TOWNNAME":"安平區","LI":"平通里","LIN":"30鄰","STREET":"育平九街","SECT":" ","MAREA":" ","LANE":"３７２巷","ALLEY":" ","HOUSE_NO":"２４號","E_COORD97":164604.88,"N_COORD97":2543871.4500000002,"ADDRESS":"育平九街３７２巷２４號","OBJECTID":283203},"geometry":{"x":164604.88000000175,"y":2543871.450000003}},{"attributes":{"ID":283210,"DIS_CODE":0,"TOWNNAME":"安平區","LI":"平通里","LIN":"30鄰","STREET":"育平九街","SECT":" ","MAREA":" ","LANE":"３７２巷","ALLEY":" ","HOUSE_NO":"２６號","E_COORD97":164604.89999999999,"N_COORD97":2543875.77,"ADDRESS":"育平九街３７２巷２６號","OBJECTID":283204},"geometry":{"x":164604.90000000037,"y":2543875.7699999996}},{"attributes":{"ID":283211,"DIS_CODE":0,"TOWNNAME":"安平區","LI":"平通里","LIN":"30鄰","STREET":"育平九街","SECT":" ","MAREA":" ","LANE":"３７２巷","ALLEY":" ","HOUSE_NO":"２８號","E_COORD97":164604.87,"N_COORD97":2543880.3300000001,"ADDRESS":"育平九街３７２巷２８號","OBJECTID":283205},"geometry":{"x":164604.87000000011,"y":2543880.3300000019}},{"attributes":{"ID":283212,"DIS_CODE":0,"TOWNNAME":"安平區","LI":"平通里","LIN":"30鄰","STREET":"育平九街","SECT":" ","MAREA":" ","LANE":"３７２巷","ALLEY":" ","HOUSE_NO":"２號","E_COORD97":164610.60000000001,"N_COORD97":2543787.02,"ADDRESS":"育平九街３７２巷２號","OBJECTID":283206},"geometry":{"x":164610.60000000056,"y":2543787.0200000014}},{"attributes":{"ID":283213,"DIS_CODE":0,"TOWNNAME":"新營區","LI":"新東里","LIN":"24鄰","STREET":"民治路","SECT":" ","MAREA":" ","LANE":"６巷","ALLEY":" ","HOUSE_NO":"７號","E_COORD97":180609.38,"N_COORD97":2578945.3300000001,"ADDRESS":"民治路６巷７號","OBJECTID":283207},"geometry":{"x":180609.38000000082,"y":2578945.3300000001}},{"attributes":{"ID":283214,"DIS_CODE":0,"TOWNNAME":"北區","LI":"文元里","LIN":"19鄰","STREET":"文成路","SECT":" ","MAREA":" ","LANE":"７５０巷","ALLEY":" ","HOUSE_NO":"３５號","E_COORD97":167596.79999999999,"N_COORD97":2546043.29,"ADDRESS":"文成路７５０巷３５號","OBJECTID":283208},"geometry":{"x":167596.79999999981,"y":2546043.290000001}},{"attributes":{"ID":283215,"DIS_CODE":0,"TOWNNAME":"北區","LI":"大港里","LIN":"19鄰","STREET":"大和路","SECT":" ","MAREA":" ","LANE":"２７９巷","ALLEY":" ","HOUSE_NO":"３２號","E_COORD97":166842.85999999999,"N_COORD97":2546099.5800000001,"ADDRESS":"大和路２７９巷３２號","OBJECTID":283209},"geometry":{"x":166842.86000000034,"y":2546099.5800000019}},{"attributes":{"ID":283216,"DIS_CODE":0,"TOWNNAME":"新營區","LI":"忠政里","LIN":"19鄰","STREET":"長榮路","SECT":"二段","MAREA":" ","LANE":"４３巷","ALLEY":" ","HOUSE_NO":"１０號","E_COORD97":179938.19,"N_COORD97":2579811.1400000001,"ADDRESS":"長榮路二段４３巷１０號","OBJECTID":283210},"geometry":{"x":179938.19000000227,"y":2579811.1400000006}},{"attributes":{"ID":283217,"DIS_CODE":0,"TOWNNAME":"新營區","LI":"民生里","LIN":"19鄰","STREET":"進修街","SECT":" ","MAREA":" ","LANE":"２９巷","ALLEY":" ","HOUSE_NO":"３７號","E_COORD97":178882.39999999999,"N_COORD97":2578455.1099999999,"ADDRESS":"進修街２９巷３７號","OBJECTID":283211},"geometry":{"x":178882.4000000013,"y":2578455.1099999994}},{"attributes":{"ID":283218,"DIS_CODE":0,"TOWNNAME":"新營區","LI":"忠政里","LIN":"19鄰","STREET":"長榮路","SECT":"二段","MAREA":" ","LANE":"４３巷","ALLEY":" ","HOUSE_NO":"１４號","E_COORD97":179938.16,"N_COORD97":2579803.3900000001,"ADDRESS":"長榮路二段４３巷１４號","OBJECTID":283212},"geometry":{"x":179938.16000000108,"y":2579803.3900000006}},{"attributes":{"ID":283219,"DIS_CODE":0,"TOWNNAME":"新營區","LI":"忠政里","LIN":"19鄰","STREET":"長榮路","SECT":"二段","MAREA":" ","LANE":"４３巷","ALLEY":" ","HOUSE_NO":"６號","E_COORD97":179938.01000000001,"N_COORD97":2579818.8900000001,"ADDRESS":"長榮路二段４３巷６號","OBJECTID":283213},"geometry":{"x":179938.00999999978,"y":2579818.8900000025}},{"attributes":{"ID":283220,"DIS_CODE":0,"TOWNNAME":"新營區","LI":"忠政里","LIN":"19鄰","STREET":"長榮路","SECT":"二段","MAREA":" ","LANE":"４３巷","ALLEY":" ","HOUSE_NO":"１９號","E_COORD97":179950.35999999999,"N_COORD97":2579790.04,"ADDRESS":"長榮路二段４３巷１９號","OBJECTID":283214},"geometry":{"x":179950.3600000022,"y":2579790.0399999991}},{"attributes":{"ID":283221,"DIS_CODE":0,"TOWNNAME":"新營區","LI":"忠政里","LIN":"19鄰","STREET":"長榮路","SECT":"二段","MAREA":" ","LANE":"４３巷","ALLEY":" ","HOUSE_NO":"２１號","E_COORD97":179950.41,"N_COORD97":2579785.6099999999,"ADDRESS":"長榮路二段４３巷２１號","OBJECTID":283215},"geometry":{"x":179950.41000000108,"y":2579785.6100000013}},{"attributes":{"ID":283222,"DIS_CODE":0,"TOWNNAME":"麻豆區","LI":"中興里","LIN":"2鄰","STREET":"中華街","SECT":" ","MAREA":" ","LANE":" ","ALLEY":" ","HOUSE_NO":"３２號之９","E_COORD97":172874.60000000001,"N_COORD97":2564695.6000000001,"ADDRESS":"中華街３２號之９","OBJECTID":283216},"geometry":{"x":172874.60000000056,"y":2564695.6000000015}},{"attributes":{"ID":283223,"DIS_CODE":0,"TOWNNAME":"東區","LI":"和平里","LIN":"16鄰","STREET":"仁和路","SECT":" ","MAREA":" ","LANE":" ","ALLEY":" ","HOUSE_NO":"７３號之５２","E_COORD97":171327.98000000001,"N_COORD97":2541619.7799999998,"ADDRESS":"仁和路７３號之５２","OBJECTID":283217},"geometry":{"x":171327.98000000231,"y":2541619.7799999993}},{"attributes":{"ID":283224,"DIS_CODE":0,"TOWNNAME":"歸仁區","LI":"大潭里","LIN":"19鄰","STREET":"中正南路","SECT":"三段","MAREA":" ","LANE":"９６巷","ALLEY":" ","HOUSE_NO":"１０３號","E_COORD97":175060.85999999999,"N_COORD97":2534965.2799999998,"ADDRESS":"中正南路三段９６巷１０３號","OBJECTID":283218},"geometry":{"x":175060.86000000034,"y":2534965.2799999993}},{"attributes":{"ID":283225,"DIS_CODE":0,"TOWNNAME":"南區","LI":"建南里","LIN":"19鄰","STREET":"明興路","SECT":" ","MAREA":" ","LANE":"９９巷","ALLEY":" ","HOUSE_NO":"９號","E_COORD97":166682.06,"N_COORD97":2539933.9700000002,"ADDRESS":"明興路９９巷９號","OBJECTID":283219},"geometry":{"x":166682.06000000052,"y":2539933.9700000025}},{"attributes":{"ID":283226,"DIS_CODE":0,"TOWNNAME":"永康區","LI":"安康里","LIN":"19鄰","STREET":"中華西街","SECT":" ","MAREA":" ","LANE":"１２２巷","ALLEY":" ","HOUSE_NO":"４４號","E_COORD97":170812.89999999999,"N_COORD97":2546187.7400000002,"ADDRESS":"中華西街１２２巷４４號","OBJECTID":283220},"geometry":{"x":170812.90000000037,"y":2546187.7400000002}},{"attributes":{"ID":283227,"DIS_CODE":0,"TOWNNAME":"永康區","LI":"永康里","LIN":"19鄰","STREET":"永中街","SECT":" ","MAREA":" ","LANE":"１６６巷","ALLEY":" ","HOUSE_NO":"１６號","E_COORD97":174046.81,"N_COORD97":2547281.0800000001,"ADDRESS":"永中街１６６巷１６號","OBJECTID":283221},"geometry":{"x":174046.80999999959,"y":2547281.0800000001}},{"attributes":{"ID":283228,"DIS_CODE":0,"TOWNNAME":"永康區","LI":"南灣里","LIN":"19鄰","STREET":"大灣路","SECT":" ","MAREA":" ","LANE":"７６４巷","ALLEY":" ","HOUSE_NO":"１４０之２號","E_COORD97":174311.48000000001,"N_COORD97":2544730.79,"ADDRESS":"大灣路７６４巷１４０之２號","OBJECTID":283222},"geometry":{"x":174311.48000000231,"y":2544730.790000001}},{"attributes":{"ID":283229,"DIS_CODE":0,"TOWNNAME":"安南區","LI":"安慶里","LIN":"19鄰","STREET":"安中路","SECT":"一段","MAREA":" ","LANE":"１８９巷","ALLEY":" ","HOUSE_NO":"５５號","E_COORD97":168782.39000000001,"N_COORD97":2548327.7599999998,"ADDRESS":"安中路一段１８９巷５５號","OBJECTID":283223},"geometry":{"x":168782.3900000006,"y":2548327.7599999979}},{"attributes":{"ID":283230,"DIS_CODE":0,"TOWNNAME":"安南區","LI":"州南里","LIN":"19鄰","STREET":"安和路","SECT":"四段","MAREA":" ","LANE":"２７４巷","ALLEY":" ","HOUSE_NO":"６７號之３","E_COORD97":170110.92000000001,"N_COORD97":2550773.8700000001,"ADDRESS":"安和路四段２７４巷６７號之３","OBJECTID":283224},"geometry":{"x":170110.92000000086,"y":2550773.8700000029}},{"attributes":{"ID":283231,"DIS_CODE":0,"TOWNNAME":"安南區","LI":"州南里","LIN":"19鄰","STREET":"安和路","SECT":"四段","MAREA":" ","LANE":"２７４巷","ALLEY":" ","HOUSE_NO":"６７號之４","E_COORD97":170115.67999999999,"N_COORD97":2550774.3599999999,"ADDRESS":"安和路四段２７４巷６７號之４","OBJECTID":283225},"geometry":{"x":170115.68000000063,"y":2550774.3599999994}},{"attributes":{"ID":283232,"DIS_CODE":0,"TOWNNAME":"安南區","LI":"州南里","LIN":"19鄰","STREET":"安和路","SECT":"四段","MAREA":" ","LANE":"２７４巷","ALLEY":" ","HOUSE_NO":"５９號","E_COORD97":170075.04000000001,"N_COORD97":2550770.4700000002,"ADDRESS":"安和路四段２７４巷５９號","OBJECTID":283226},"geometry":{"x":170075.04000000097,"y":2550770.4700000007}},{"attributes":{"ID":283233,"DIS_CODE":0,"TOWNNAME":"安南區","LI":"幸福里","LIN":"19鄰","STREET":"府安路","SECT":"六段","MAREA":" ","LANE":"７巷","ALLEY":" ","HOUSE_NO":"３７號","E_COORD97":167116.31,"N_COORD97":2546814.52,"ADDRESS":"府安路六段７巷３７號","OBJECTID":283227},"geometry":{"x":167116.31000000052,"y":2546814.5200000014}},{"attributes":{"ID":283234,"DIS_CODE":0,"TOWNNAME":"安南區","LI":"幸福里","LIN":"19鄰","STREET":"府安路","SECT":"六段","MAREA":" ","LANE":"７巷","ALLEY":" ","HOUSE_NO":"４３號","E_COORD97":167111.84,"N_COORD97":2546837.2599999998,"ADDRESS":"府安路六段７巷４３號","OBJECTID":283228},"geometry":{"x":167111.83999999985,"y":2546837.2600000016}},{"attributes":{"ID":283235,"DIS_CODE":0,"TOWNNAME":"安南區","LI":"幸福里","LIN":"19鄰","STREET":"府安路","SECT":"六段","MAREA":" ","LANE":"７巷","ALLEY":" ","HOUSE_NO":"７７號","E_COORD97":167103.29999999999,"N_COORD97":2546909.5299999998,"ADDRESS":"府安路六段７巷７７號","OBJECTID":283229},"geometry":{"x":167103.29999999981,"y":2546909.5300000012}},{"attributes":{"ID":283236,"DIS_CODE":0,"TOWNNAME":"安南區","LI":"長安里","LIN":"19鄰","STREET":"公學路","SECT":"二段","MAREA":" ","LANE":"１９０巷","ALLEY":" ","HOUSE_NO":"２１號","E_COORD97":167540.67000000001,"N_COORD97":2552242.8300000001,"ADDRESS":"公學路二段１９０巷２１號","OBJECTID":283230},"geometry":{"x":167540.66999999899,"y":2552242.8300000001}},{"attributes":{"ID":283237,"DIS_CODE":0,"TOWNNAME":"永康區","LI":"大橋里","LIN":"19鄰","STREET":"大橋一街","SECT":" ","MAREA":" ","LANE":"１３９巷","ALLEY":" ","HOUSE_NO":"３２號","E_COORD97":171001.23000000001,"N_COORD97":2546599.0800000001,"ADDRESS":"大橋一街１３９巷３２號","OBJECTID":283231},"geometry":{"x":171001.23000000138,"y":2546599.0800000001}},{"attributes":{"ID":283238,"DIS_CODE":0,"TOWNNAME":"永康區","LI":"三合里","LIN":"19鄰","STREET":"南工街","SECT":" ","MAREA":" ","LANE":"２６７巷","ALLEY":" ","HOUSE_NO":"２９號","E_COORD97":171884.76000000001,"N_COORD97":2545872,"ADDRESS":"南工街２６７巷２９號","OBJECTID":283232},"geometry":{"x":171884.76000000164,"y":2545872.0000000037}},{"attributes":{"ID":283239,"DIS_CODE":0,"TOWNNAME":"永康區","LI":"三合里","LIN":"19鄰","STREET":"南工街","SECT":" ","MAREA":" ","LANE":"２６７巷","ALLEY":" ","HOUSE_NO":"４９號","E_COORD97":171875.79000000001,"N_COORD97":2545812.3700000001,"ADDRESS":"南工街２６７巷４９號","OBJECTID":283233},"geometry":{"x":171875.79000000004,"y":2545812.370000001}},{"attributes":{"ID":283240,"DIS_CODE":0,"TOWNNAME":"永康區","LI":"三合里","LIN":"19鄰","STREET":"南工街","SECT":" ","MAREA":" ","LANE":"２６７巷","ALLEY":" ","HOUSE_NO":"３５號","E_COORD97":171881.56,"N_COORD97":2545852.5,"ADDRESS":"南工街２６７巷３５號","OBJECTID":283234},"geometry":{"x":171881.56000000052,"y":2545852.5000000019}},{"attributes":{"ID":283241,"DIS_CODE":0,"TOWNNAME":"永康區","LI":"三合里","LIN":"19鄰","STREET":"南工街","SECT":" ","MAREA":" ","LANE":"２６７巷","ALLEY":" ","HOUSE_NO":"４３號","E_COORD97":171876.79999999999,"N_COORD97":2545828.3599999999,"ADDRESS":"南工街２６７巷４３號","OBJECTID":283235},"geometry":{"x":171876.80000000075,"y":2545828.3600000031}},{"attributes":{"ID":283242,"DIS_CODE":0,"TOWNNAME":"永康區","LI":"中興里","LIN":"19鄰","STREET":"中山東路","SECT":" ","MAREA":" ","LANE":"３６６巷","ALLEY":" ","HOUSE_NO":"５６號","E_COORD97":171797.57000000001,"N_COORD97":2545330.4900000002,"ADDRESS":"中山東路３６６巷５６號","OBJECTID":283236},"geometry":{"x":171797.57000000123,"y":2545330.4900000021}},{"attributes":{"ID":283243,"DIS_CODE":0,"TOWNNAME":"永康區","LI":"三合里","LIN":"19鄰","STREET":"南工街","SECT":" ","MAREA":" ","LANE":"２６７巷","ALLEY":" ","HOUSE_NO":"３１號","E_COORD97":171883.70999999999,"N_COORD97":2545865.5,"ADDRESS":"南工街２６７巷３１號","OBJECTID":283237},"geometry":{"x":171883.71000000183,"y":2545865.5000000019}},{"attributes":{"ID":283244,"DIS_CODE":0,"TOWNNAME":"仁德區","LI":"仁義里","LIN":"19鄰","STREET":"中山路","SECT":" ","MAREA":" ","LANE":"２８６巷","ALLEY":" ","HOUSE_NO":"９號","E_COORD97":174052.79000000001,"N_COORD97":2541296.9900000002,"ADDRESS":"中山路２８６巷９號","OBJECTID":283238},"geometry":{"x":174052.79000000004,"y":2541296.9900000021}},{"attributes":{"ID":283245,"DIS_CODE":0,"TOWNNAME":"仁德區","LI":"保安里","LIN":"19鄰","STREET":"文賢路","SECT":"二段","MAREA":" ","LANE":"１５巷","ALLEY":" ","HOUSE_NO":"７號","E_COORD97":171762.12,"N_COORD97":2535872.5800000001,"ADDRESS":"文賢路二段１５巷７號","OBJECTID":283239},"geometry":{"x":171762.12000000011,"y":2535872.5800000001}},{"attributes":{"ID":283246,"DIS_CODE":0,"TOWNNAME":"仁德區","LI":"成功里","LIN":"19鄰","STREET":"成功一街","SECT":" ","MAREA":" ","LANE":"２０１巷","ALLEY":" ","HOUSE_NO":"１３號","E_COORD97":170601.53,"N_COORD97":2539745.5099999998,"ADDRESS":"成功一街２０１巷１３號","OBJECTID":283240},"geometry":{"x":170601.53000000026,"y":2539745.5100000035}},{"attributes":{"ID":283247,"DIS_CODE":0,"TOWNNAME":"安南區","LI":"溪東里","LIN":"19鄰","STREET":"郡安路","SECT":"五段","MAREA":" ","LANE":"１４巷","ALLEY":" ","HOUSE_NO":"２７號","E_COORD97":168267.62,"N_COORD97":2547633.4900000002,"ADDRESS":"郡安路五段１４巷２７號","OBJECTID":283241},"geometry":{"x":168267.62000000104,"y":2547633.4900000021}},{"attributes":{"ID":283248,"DIS_CODE":0,"TOWNNAME":"安南區","LI":"溪東里","LIN":"19鄰","STREET":"郡安路","SECT":"五段","MAREA":" ","LANE":"１４巷","ALLEY":" ","HOUSE_NO":"３１號","E_COORD97":168254.14999999999,"N_COORD97":2547631.52,"ADDRESS":"郡安路五段１４巷３１號","OBJECTID":283242},"geometry":{"x":168254.1500000013,"y":2547631.5200000014}},{"attributes":{"ID":283249,"DIS_CODE":0,"TOWNNAME":"安南區","LI":"溪東里","LIN":"19鄰","STREET":"郡安路","SECT":"五段","MAREA":" ","LANE":"１４巷","ALLEY":" ","HOUSE_NO":"２５號","E_COORD97":168275.85000000001,"N_COORD97":2547635.8799999999,"ADDRESS":"郡安路五段１４巷２５號","OBJECTID":283243},"geometry":{"x":168275.84999999963,"y":2547635.8800000008}},{"attributes":{"ID":283250,"DIS_CODE":0,"TOWNNAME":"安南區","LI":"溪東里","LIN":"19鄰","STREET":"府安路","SECT":"五段","MAREA":" ","LANE":"１１巷","ALLEY":" ","HOUSE_NO":"１７６號","E_COORD97":168430.60999999999,"N_COORD97":2547620.4900000002,"ADDRESS":"府安路五段１１巷１７６號","OBJECTID":283244},"geometry":{"x":168430.61000000127,"y":2547620.4900000002}},{"attributes":{"ID":283251,"DIS_CODE":0,"TOWNNAME":"永康區","LI":"網寮里","LIN":"19鄰","STREET":"永二街","SECT":" ","MAREA":" ","LANE":"２２９巷","ALLEY":" ","HOUSE_NO":"１號","E_COORD97":173408.10000000001,"N_COORD97":2546248.2400000002,"ADDRESS":"永二街２２９巷１號","OBJECTID":283245},"geometry":{"x":173408.10000000149,"y":2546248.2400000021}},{"attributes":{"ID":283252,"DIS_CODE":0,"TOWNNAME":"東區","LI":"和平里","LIN":"16鄰","STREET":"仁和路","SECT":" ","MAREA":" ","LANE":" ","ALLEY":" ","HOUSE_NO":"７３號之５３","E_COORD97":171332.09,"N_COORD97":2541619.8900000001,"ADDRESS":"仁和路７３號之５３","OBJECTID":283246},"geometry":{"x":171332.09000000078,"y":2541619.8900000025}},{"attributes":{"ID":283253,"DIS_CODE":0,"TOWNNAME":"七股區","LI":"十份里","LIN":"1鄰","STREET":" ","SECT":" ","MAREA":"十份","LANE":" ","ALLEY":" ","HOUSE_NO":"８號","E_COORD97":158340.76999999999,"N_COORD97":2555327.5299999998,"ADDRESS":"十份８號","OBJECTID":283247},"geometry":{"x":158340.76999999955,"y":2555327.5300000012}},{"attributes":{"ID":283254,"DIS_CODE":0,"TOWNNAME":"中西區","LI":"大南里","LIN":"2鄰","STREET":"健康路","SECT":"一段","MAREA":" ","LANE":" ","ALLEY":" ","HOUSE_NO":"３３０號","E_COORD97":168209.10000000001,"N_COORD97":2542462.6800000002,"ADDRESS":"健康路一段３３０號","OBJECTID":283248},"geometry":{"x":168209.10000000056,"y":2542462.6799999997}},{"attributes":{"ID":283255,"DIS_CODE":0,"TOWNNAME":"中西區","LI":"大南里","LIN":"2鄰","STREET":"健康路","SECT":"一段","MAREA":" ","LANE":" ","ALLEY":" ","HOUSE_NO":"３３２號","E_COORD97":168204.17000000001,"N_COORD97":2542463.0299999998,"ADDRESS":"健康路一段３３２號","OBJECTID":283249},"geometry":{"x":168204.17000000086,"y":2542463.0299999993}},{"attributes":{"ID":283256,"DIS_CODE":0,"TOWNNAME":"中西區","LI":"大南里","LIN":"2鄰","STREET":"健康路","SECT":"一段","MAREA":" ","LANE":" ","ALLEY":" ","HOUSE_NO":"３３４號","E_COORD97":168199.23999999999,"N_COORD97":2542463.73,"ADDRESS":"健康路一段３３４號","OBJECTID":283250},"geometry":{"x":168199.24000000022,"y":2542463.7300000042}},{"attributes":{"ID":283257,"DIS_CODE":0,"TOWNNAME":"中西區","LI":"大南里","LIN":"2鄰","STREET":"健康路","SECT":"一段","MAREA":" ","LANE":" ","ALLEY":" ","HOUSE_NO":"３３６號","E_COORD97":168193.60000000001,"N_COORD97":2542463.73,"ADDRESS":"健康路一段３３６號","OBJECTID":283251},"geometry":{"x":168193.60000000149,"y":2542463.7300000042}},{"attributes":{"ID":283258,"DIS_CODE":0,"TOWNNAME":"中西區","LI":"大南里","LIN":"2鄰","STREET":"健康路","SECT":"一段","MAREA":" ","LANE":" ","ALLEY":" ","HOUSE_NO":"３３８號","E_COORD97":168189.01999999999,"N_COORD97":2542463.3799999999,"ADDRESS":"健康路一段３３８號","OBJECTID":283252},"geometry":{"x":168189.02000000142,"y":2542463.379999999}},{"attributes":{"ID":283259,"DIS_CODE":0,"TOWNNAME":"中西區","LI":"大南里","LIN":"2鄰","STREET":"健康路","SECT":"一段","MAREA":" ","LANE":" ","ALLEY":" ","HOUSE_NO":"３４０號","E_COORD97":168176.69,"N_COORD97":2542464.0800000001,"ADDRESS":"健康路一段３４０號","OBJECTID":283253},"geometry":{"x":168176.69000000041,"y":2542464.0800000038}},{"attributes":{"ID":283260,"DIS_CODE":0,"TOWNNAME":"東區","LI":"和平里","LIN":"16鄰","STREET":"仁和路","SECT":" ","MAREA":" ","LANE":" ","ALLEY":" ","HOUSE_NO":"７３號之５４","E_COORD97":171335.78,"N_COORD97":2541620.2000000002,"ADDRESS":"仁和路７３號之５４","OBJECTID":283254},"geometry":{"x":171335.77999999933,"y":2541620.1999999993}},{"attributes":{"ID":283261,"DIS_CODE":0,"TOWNNAME":"東區","LI":"富強里","LIN":"4鄰","STREET":"裕農路","SECT":" ","MAREA":" ","LANE":" ","ALLEY":" ","HOUSE_NO":"４４８號","E_COORD97":171248.20000000001,"N_COORD97":2543150.3700000001,"ADDRESS":"裕農路４４８號","OBJECTID":283255},"geometry":{"x":171248.20000000205,"y":2543150.370000001}},{"attributes":{"ID":283262,"DIS_CODE":0,"TOWNNAME":"東區","LI":"富強里","LIN":"4鄰","STREET":"裕農路","SECT":" ","MAREA":" ","LANE":" ","ALLEY":" ","HOUSE_NO":"４４８號之１","E_COORD97":171252.64999999999,"N_COORD97":2543153.6600000001,"ADDRESS":"裕農路４４８號之１","OBJECTID":283256},"geometry":{"x":171252.6500000013,"y":2543153.660000002}},{"attributes":{"ID":283263,"DIS_CODE":0,"TOWNNAME":"東區","LI":"富強里","LIN":"4鄰","STREET":"裕農路","SECT":" ","MAREA":" ","LANE":" ","ALLEY":" ","HOUSE_NO":"４４８號之１２","E_COORD97":171276.04000000001,"N_COORD97":2543141.96,"ADDRESS":"裕農路４４８號之１２","OBJECTID":283257},"geometry":{"x":171276.04000000004,"y":2543141.9600000028}},{"attributes":{"ID":283264,"DIS_CODE":0,"TOWNNAME":"東區","LI":"富強里","LIN":"4鄰","STREET":"裕農路","SECT":" ","MAREA":" ","LANE":" ","ALLEY":" ","HOUSE_NO":"４４８號之１３","E_COORD97":171276.84,"N_COORD97":2543137.9700000002,"ADDRESS":"裕農路４４８號之１３","OBJECTID":283258},"geometry":{"x":171276.83999999985,"y":2543137.9700000025}},{"attributes":{"ID":283265,"DIS_CODE":0,"TOWNNAME":"永康區","LI":"網寮里","LIN":"19鄰","STREET":"永二街","SECT":" ","MAREA":" ","LANE":"２１５巷","ALLEY":" ","HOUSE_NO":"１１號","E_COORD97":173444.16,"N_COORD97":2546267.6699999999,"ADDRESS":"永二街２１５巷１１號","OBJECTID":283259},"geometry":{"x":173444.16000000108,"y":2546267.6700000037}},{"attributes":{"ID":283266,"DIS_CODE":0,"TOWNNAME":"永康區","LI":"網寮里","LIN":"19鄰","STREET":"永二街","SECT":" ","MAREA":" ","LANE":"２１５巷","ALLEY":" ","HOUSE_NO":"７號","E_COORD97":173435.5,"N_COORD97":2546272.1699999999,"ADDRESS":"永二街２１５巷７號","OBJECTID":283260},"geometry":{"x":173435.5,"y":2546272.1700000018}},{"attributes":{"ID":283267,"DIS_CODE":0,"TOWNNAME":"永康區","LI":"復國里","LIN":"19鄰","STREET":"復國一路","SECT":" ","MAREA":" ","LANE":"３６２巷","ALLEY":" ","HOUSE_NO":"１２號","E_COORD97":172809.73000000001,"N_COORD97":2545770.1499999999,"ADDRESS":"復國一路３６２巷１２號","OBJECTID":283261},"geometry":{"x":172809.73000000138,"y":2545770.1500000022}},{"attributes":{"ID":283268,"DIS_CODE":0,"TOWNNAME":"永康區","LI":"網寮里","LIN":"19鄰","STREET":"永大一路","SECT":" ","MAREA":" ","LANE":"３８０巷","ALLEY":" ","HOUSE_NO":"１號","E_COORD97":173490.12,"N_COORD97":2546175.8700000001,"ADDRESS":"永大一路３８０巷１號","OBJECTID":283262},"geometry":{"x":173490.12000000104,"y":2546175.8700000048}},{"attributes":{"ID":283269,"DIS_CODE":0,"TOWNNAME":"永康區","LI":"復國里","LIN":"19鄰","STREET":"復國一路","SECT":" ","MAREA":" ","LANE":"３６２巷","ALLEY":" ","HOUSE_NO":"２４號","E_COORD97":172835.17000000001,"N_COORD97":2545769.1499999999,"ADDRESS":"復國一路３６２巷２４號","OBJECTID":283263},"geometry":{"x":172835.17000000086,"y":2545769.1500000004}},{"attributes":{"ID":283270,"DIS_CODE":0,"TOWNNAME":"永康區","LI":"網寮里","LIN":"19鄰","STREET":"永二街","SECT":" ","MAREA":" ","LANE":"２１５巷","ALLEY":" ","HOUSE_NO":"２號","E_COORD97":173422.17000000001,"N_COORD97":2546266.4199999999,"ADDRESS":"永二街２１５巷２號","OBJECTID":283264},"geometry":{"x":173422.17000000086,"y":2546266.4200000018}},{"attributes":{"ID":283271,"DIS_CODE":0,"TOWNNAME":"永康區","LI":"復國里","LIN":"19鄰","STREET":"復國一路","SECT":" ","MAREA":" ","LANE":"３６２巷","ALLEY":" ","HOUSE_NO":"１０號","E_COORD97":172805.73000000001,"N_COORD97":2545770.1499999999,"ADDRESS":"復國一路３６２巷１０號","OBJECTID":283265},"geometry":{"x":172805.73000000045,"y":2545770.1500000022}},{"attributes":{"ID":283272,"DIS_CODE":0,"TOWNNAME":"永康區","LI":"網寮里","LIN":"19鄰","STREET":"永大一路","SECT":" ","MAREA":" ","LANE":"３８０巷","ALLEY":" ","HOUSE_NO":"１５號","E_COORD97":173468.25,"N_COORD97":2546191.8700000001,"ADDRESS":"永大一路３８０巷１５號","OBJECTID":283266},"geometry":{"x":173468.25,"y":2546191.870000001}},{"attributes":{"ID":283273,"DIS_CODE":0,"TOWNNAME":"永康區","LI":"復興里","LIN":"19鄰","STREET":"復興路","SECT":" ","MAREA":" ","LANE":"３５６巷","ALLEY":" ","HOUSE_NO":"２２號","E_COORD97":172281.29000000001,"N_COORD97":2544389.77,"ADDRESS":"復興路３５６巷２２號","OBJECTID":283267},"geometry":{"x":172281.29000000004,"y":2544389.7700000014}},{"attributes":{"ID":283274,"DIS_CODE":0,"TOWNNAME":"永康區","LI":"復興里","LIN":"19鄰","STREET":"復興路","SECT":" ","MAREA":" ","LANE":"３５６巷","ALLEY":" ","HOUSE_NO":"１４號","E_COORD97":172262.57999999999,"N_COORD97":2544390.27,"ADDRESS":"復興路３５６巷１４號","OBJECTID":283268},"geometry":{"x":172262.58000000194,"y":2544390.2699999996}},{"attributes":{"ID":283275,"DIS_CODE":0,"TOWNNAME":"永康區","LI":"網寮里","LIN":"19鄰","STREET":"永二街","SECT":" ","MAREA":" ","LANE":"２１５巷","ALLEY":" ","HOUSE_NO":"５號","E_COORD97":173432.10999999999,"N_COORD97":2546274.6699999999,"ADDRESS":"永二街２１５巷５號","OBJECTID":283269},"geometry":{"x":173432.11000000034,"y":2546274.6700000018}},{"attributes":{"ID":283276,"DIS_CODE":0,"TOWNNAME":"永康區","LI":"三合里","LIN":"19鄰","STREET":"南工街","SECT":" ","MAREA":" ","LANE":"２６７巷","ALLEY":" ","HOUSE_NO":"４１號","E_COORD97":171877.62,"N_COORD97":2545834.8500000001,"ADDRESS":"南工街２６７巷４１號","OBJECTID":283270},"geometry":{"x":171877.62000000197,"y":2545834.8499999996}},{"attributes":{"ID":283277,"DIS_CODE":0,"TOWNNAME":"永康區","LI":"三合里","LIN":"19鄰","STREET":"南工街","SECT":" ","MAREA":" ","LANE":"２６７巷","ALLEY":" ","HOUSE_NO":"３９號","E_COORD97":171878.60000000001,"N_COORD97":2545841.1000000001,"ADDRESS":"南工街２６７巷３９號","OBJECTID":283271},"geometry":{"x":171878.59999999963,"y":2545841.1000000015}},{"attributes":{"ID":283278,"DIS_CODE":0,"TOWNNAME":"永康區","LI":"中興里","LIN":"19鄰","STREET":"中山東路","SECT":" ","MAREA":" ","LANE":"３６６巷","ALLEY":" ","HOUSE_NO":"１２號","E_COORD97":171867.73999999999,"N_COORD97":2545301.5,"ADDRESS":"中山東路３６６巷１２號","OBJECTID":283272},"geometry":{"x":171867.74000000022,"y":2545301.5}},{"attributes":{"ID":283279,"DIS_CODE":0,"TOWNNAME":"永康區","LI":"二王里","LIN":"19鄰","STREET":"中山南路","SECT":" ","MAREA":" ","LANE":"６４４巷","ALLEY":" ","HOUSE_NO":"２５號","E_COORD97":172408.75,"N_COORD97":2546593.3999999999,"ADDRESS":"中山南路６４４巷２５號","OBJECTID":283273},"geometry":{"x":172408.75,"y":2546593.4000000022}},{"attributes":{"ID":283280,"DIS_CODE":0,"TOWNNAME":"永康區","LI":"五王里","LIN":"19鄰","STREET":"成功路","SECT":" ","MAREA":" ","LANE":"１７２巷","ALLEY":" ","HOUSE_NO":"３３號","E_COORD97":171511.32000000001,"N_COORD97":2545677.4700000002,"ADDRESS":"成功路１７２巷３３號","OBJECTID":283274},"geometry":{"x":171511.3200000003,"y":2545677.4700000025}},{"attributes":{"ID":283281,"DIS_CODE":0,"TOWNNAME":"永康區","LI":"埔園里","LIN":"19鄰","STREET":"四維街","SECT":" ","MAREA":" ","LANE":"１４０巷","ALLEY":" ","HOUSE_NO":"１７號","E_COORD97":173382.44,"N_COORD97":2548342.9900000002,"ADDRESS":"四維街１４０巷１７號","OBJECTID":283275},"geometry":{"x":173382.44000000041,"y":2548342.9900000002}},{"attributes":{"ID":283282,"DIS_CODE":0,"TOWNNAME":"永康區","LI":"中興里","LIN":"19鄰","STREET":"中山東路","SECT":" ","MAREA":" ","LANE":"３６６巷","ALLEY":" ","HOUSE_NO":"９號","E_COORD97":171857.35999999999,"N_COORD97":2545286.4900000002,"ADDRESS":"中山東路３６６巷９號","OBJECTID":283276},"geometry":{"x":171857.36000000034,"y":2545286.4900000021}},{"attributes":{"ID":283283,"DIS_CODE":0,"TOWNNAME":"南區","LI":"府南里","LIN":"15鄰","STREET":"金華路","SECT":"一段","MAREA":" ","LANE":"５４０巷","ALLEY":" ","HOUSE_NO":"３號","E_COORD97":167076.89000000001,"N_COORD97":2541679.46,"ADDRESS":"金華路一段５４０巷３號","OBJECTID":283277},"geometry":{"x":167076.8900000006,"y":2541679.4600000046}},{"attributes":{"ID":283284,"DIS_CODE":0,"TOWNNAME":"南區","LI":"府南里","LIN":"15鄰","STREET":"金華路","SECT":"一段","MAREA":" ","LANE":"５４０巷","ALLEY":" ","HOUSE_NO":"５號","E_COORD97":167081.54999999999,"N_COORD97":2541677.96,"ADDRESS":"金華路一段５４０巷５號","OBJECTID":283278},"geometry":{"x":167081.54999999981,"y":2541677.9600000009}},{"attributes":{"ID":283285,"DIS_CODE":0,"TOWNNAME":"仁德區","LI":"成功里","LIN":"19鄰","STREET":"成功一街","SECT":" ","MAREA":" ","LANE":"２０１巷","ALLEY":" ","HOUSE_NO":"１９號","E_COORD97":170614.70000000001,"N_COORD97":2539745.5099999998,"ADDRESS":"成功一街２０１巷１９號","OBJECTID":283279},"geometry":{"x":170614.70000000112,"y":2539745.5100000035}},{"attributes":{"ID":283286,"DIS_CODE":0,"TOWNNAME":"仁德區","LI":"成功里","LIN":"19鄰","STREET":"成功一街","SECT":" ","MAREA":" ","LANE":"２０１巷","ALLEY":" ","HOUSE_NO":"７號","E_COORD97":170586.76000000001,"N_COORD97":2539745.7599999998,"ADDRESS":"成功一街２０１巷７號","OBJECTID":283280},"geometry":{"x":170586.76000000071,"y":2539745.7599999998}},{"attributes":{"ID":283287,"DIS_CODE":0,"TOWNNAME":"仁德區","LI":"成功里","LIN":"19鄰","STREET":"保生路","SECT":" ","MAREA":" ","LANE":"８９巷","ALLEY":" ","HOUSE_NO":"８號","E_COORD97":170635.64999999999,"N_COORD97":2539769.7400000002,"ADDRESS":"保生路８９巷８號","OBJECTID":283281},"geometry":{"x":170635.6500000013,"y":2539769.7400000002}},{"attributes":{"ID":283288,"DIS_CODE":0,"TOWNNAME":"安南區","LI":"海西里","LIN":"2鄰","STREET":"海環街","SECT":" ","MAREA":" ","LANE":" ","ALLEY":" ","HOUSE_NO":"４３８號","E_COORD97":166198.76000000001,"N_COORD97":2549098.7000000002,"ADDRESS":"海環街４３８號","OBJECTID":283282},"geometry":{"x":166198.75999999978,"y":2549098.7000000011}},{"attributes":{"ID":283289,"DIS_CODE":0,"TOWNNAME":"安南區","LI":"海西里","LIN":"2鄰","STREET":"海環街","SECT":" ","MAREA":" ","LANE":" ","ALLEY":" ","HOUSE_NO":"４６２號","E_COORD97":166236.95999999999,"N_COORD97":2549151.8199999998,"ADDRESS":"海環街４６２號","OBJECTID":283283},"geometry":{"x":166236.96000000183,"y":2549151.8199999984}},{"attributes":{"ID":283290,"DIS_CODE":0,"TOWNNAME":"安南區","LI":"海西里","LIN":"2鄰","STREET":"海環街","SECT":" ","MAREA":" ","LANE":" ","ALLEY":" ","HOUSE_NO":"４６３號","E_COORD97":166149.89000000001,"N_COORD97":2549104.3500000001,"ADDRESS":"海環街４６３號","OBJECTID":283284},"geometry":{"x":166149.88999999966,"y":2549104.3500000015}},{"attributes":{"ID":283291,"DIS_CODE":0,"TOWNNAME":"安南區","LI":"溪心里","LIN":"2鄰","STREET":"海佃路","SECT":"二段","MAREA":" ","LANE":" ","ALLEY":" ","HOUSE_NO":"５６３號","E_COORD97":166602.85000000001,"N_COORD97":2549354.8799999999,"ADDRESS":"海佃路二段５６３號","OBJECTID":283285},"geometry":{"x":166602.84999999963,"y":2549354.8800000008}},{"attributes":{"ID":283292,"DIS_CODE":0,"TOWNNAME":"安南區","LI":"溪心里","LIN":"2鄰","STREET":"海佃路","SECT":"二段","MAREA":" ","LANE":" ","ALLEY":" ","HOUSE_NO":"５６５號","E_COORD97":166600.54000000001,"N_COORD97":2549359.4900000002,"ADDRESS":"海佃路二段５６５號","OBJECTID":283286},"geometry":{"x":166600.54000000004,"y":2549359.4900000002}},{"attributes":{"ID":283293,"DIS_CODE":0,"TOWNNAME":"安南區","LI":"溪心里","LIN":"2鄰","STREET":"海佃路","SECT":"二段","MAREA":" ","LANE":" ","ALLEY":" ","HOUSE_NO":"５７１號","E_COORD97":166593.62,"N_COORD97":2549369.4700000002,"ADDRESS":"海佃路二段５７１號","OBJECTID":283287},"geometry":{"x":166593.61999999918,"y":2549369.4700000025}},{"attributes":{"ID":283294,"DIS_CODE":0,"TOWNNAME":"安南區","LI":"溪心里","LIN":"2鄰","STREET":"海佃路","SECT":"二段","MAREA":" ","LANE":" ","ALLEY":" ","HOUSE_NO":"５７５號","E_COORD97":166589,"N_COORD97":2549381.6200000001,"ADDRESS":"海佃路二段５７５號","OBJECTID":283288},"geometry":{"x":166589,"y":2549381.6200000029}},{"attributes":{"ID":283295,"DIS_CODE":0,"TOWNNAME":"安南區","LI":"溪心里","LIN":"2鄰","STREET":"海佃路","SECT":"二段","MAREA":" ","LANE":" ","ALLEY":" ","HOUSE_NO":"５８１號","E_COORD97":166583.92999999999,"N_COORD97":2549391.7400000002,"ADDRESS":"海佃路二段５８１號","OBJECTID":283289},"geometry":{"x":166583.9299999997,"y":2549391.7400000002}},{"attributes":{"ID":283296,"DIS_CODE":0,"TOWNNAME":"仁德區","LI":"成功里","LIN":"19鄰","STREET":"保生路","SECT":" ","MAREA":" ","LANE":"８９巷","ALLEY":" ","HOUSE_NO":"１０號","E_COORD97":170626.73999999999,"N_COORD97":2539773.9900000002,"ADDRESS":"保生路８９巷１０號","OBJECTID":283290},"geometry":{"x":170626.74000000022,"y":2539773.9900000021}},{"attributes":{"ID":283297,"DIS_CODE":0,"TOWNNAME":"仁德區","LI":"後壁里","LIN":"19鄰","STREET":"德崙路","SECT":" ","MAREA":" ","LANE":"２１巷","ALLEY":" ","HOUSE_NO":"５號","E_COORD97":173264.12,"N_COORD97":2538628.2599999998,"ADDRESS":"德崙路２１巷５號","OBJECTID":283291},"geometry":{"x":173264.12000000011,"y":2538628.2600000035}},{"attributes":{"ID":283298,"DIS_CODE":0,"TOWNNAME":"仁德區","LI":"後壁里","LIN":"19鄰","STREET":"德崙路","SECT":" ","MAREA":" ","LANE":"２１巷","ALLEY":" ","HOUSE_NO":"７號","E_COORD97":173266.82000000001,"N_COORD97":2538631.5099999998,"ADDRESS":"德崙路２１巷７號","OBJECTID":283292},"geometry":{"x":173266.82000000123,"y":2538631.5100000016}},{"attributes":{"ID":283299,"DIS_CODE":0,"TOWNNAME":"官田區","LI":"隆本里","LIN":"19鄰","STREET":"勝利路","SECT":" ","MAREA":" ","LANE":"２７６巷","ALLEY":" ","HOUSE_NO":"１０號","E_COORD97":180059.98000000001,"N_COORD97":2566368.6699999999,"ADDRESS":"勝利路２７６巷１０號","OBJECTID":283293},"geometry":{"x":180059.98000000231,"y":2566368.6699999999}},{"attributes":{"ID":283300,"DIS_CODE":0,"TOWNNAME":"官田區","LI":"隆本里","LIN":"19鄰","STREET":"勝利路","SECT":" ","MAREA":" ","LANE":"２７６巷","ALLEY":" ","HOUSE_NO":"６號","E_COORD97":180063.23999999999,"N_COORD97":2566380.6600000001,"ADDRESS":"勝利路２７６巷６號","OBJECTID":283294},"geometry":{"x":180063.24000000115,"y":2566380.660000002}},{"attributes":{"ID":283301,"DIS_CODE":0,"TOWNNAME":"永康區","LI":"北灣里","LIN":"19鄰","STREET":"大安街","SECT":" ","MAREA":" ","LANE":"４５０巷","ALLEY":" ","HOUSE_NO":"２２號","E_COORD97":174680.23999999999,"N_COORD97":2545942.6600000001,"ADDRESS":"大安街４５０巷２２號","OBJECTID":283295},"geometry":{"x":174680.24000000022,"y":2545942.660000002}},{"attributes":{"ID":283302,"DIS_CODE":0,"TOWNNAME":"永康區","LI":"北灣里","LIN":"19鄰","STREET":"大安街","SECT":" ","MAREA":" ","LANE":"４５０巷","ALLEY":" ","HOUSE_NO":"１８號","E_COORD97":174674.20999999999,"N_COORD97":2545931.71,"ADDRESS":"大安街４５０巷１８號","OBJECTID":283296},"geometry":{"x":174674.21000000089,"y":2545931.7100000009}},{"attributes":{"ID":283303,"DIS_CODE":0,"TOWNNAME":"永康區","LI":"北灣里","LIN":"19鄰","STREET":"大安街","SECT":" ","MAREA":" ","LANE":"４５０巷","ALLEY":" ","HOUSE_NO":"１６號","E_COORD97":174671.95999999999,"N_COORD97":2545927.96,"ADDRESS":"大安街４５０巷１６號","OBJECTID":283297},"geometry":{"x":174671.95999999996,"y":2545927.9600000028}},{"attributes":{"ID":283304,"DIS_CODE":0,"TOWNNAME":"永康區","LI":"北灣里","LIN":"19鄰","STREET":"大同街","SECT":" ","MAREA":" ","LANE":"２９３巷","ALLEY":" ","HOUSE_NO":"２號","E_COORD97":174737.34,"N_COORD97":2545983.2400000002,"ADDRESS":"大同街２９３巷２號","OBJECTID":283298},"geometry":{"x":174737.34000000171,"y":2545983.2400000021}},{"attributes":{"ID":283305,"DIS_CODE":0,"TOWNNAME":"永康區","LI":"北灣里","LIN":"19鄰","STREET":"大同街","SECT":" ","MAREA":" ","LANE":"２９３巷","ALLEY":" ","HOUSE_NO":"１８號","E_COORD97":174703.34,"N_COORD97":2545936.3900000001,"ADDRESS":"大同街２９３巷１８號","OBJECTID":283299},"geometry":{"x":174703.33999999892,"y":2545936.3900000006}},{"attributes":{"ID":283306,"DIS_CODE":0,"TOWNNAME":"安南區","LI":"溪心里","LIN":"2鄰","STREET":"海佃路","SECT":"二段","MAREA":" ","LANE":" ","ALLEY":" ","HOUSE_NO":"６２９號","E_COORD97":166514.72,"N_COORD97":2549499.9700000002,"ADDRESS":"海佃路二段６２９號","OBJECTID":283300},"geometry":{"x":166514.7200000016,"y":2549499.9700000007}},{"attributes":{"ID":283307,"DIS_CODE":0,"TOWNNAME":"永康區","LI":"北灣里","LIN":"19鄰","STREET":"大安街","SECT":" ","MAREA":" ","LANE":"４５０巷","ALLEY":" ","HOUSE_NO":"１２號","E_COORD97":174669.66,"N_COORD97":2545924.46,"ADDRESS":"大安街４５０巷１２號","OBJECTID":283301},"geometry":{"x":174669.66000000108,"y":2545924.4600000028}},{"attributes":{"ID":283308,"DIS_CODE":0,"TOWNNAME":"永康區","LI":"北灣里","LIN":"19鄰","STREET":"大同街","SECT":" ","MAREA":" ","LANE":"２９３巷","ALLEY":" ","HOUSE_NO":"１６號","E_COORD97":174704.91,"N_COORD97":2545948.1299999999,"ADDRESS":"大同街２９３巷１６號","OBJECTID":283302},"geometry":{"x":174704.91000000201,"y":2545948.1300000027}},{"attributes":{"ID":283309,"DIS_CODE":0,"TOWNNAME":"安南區","LI":"溪心里","LIN":"2鄰","STREET":"海環街","SECT":" ","MAREA":" ","LANE":" ","ALLEY":" ","HOUSE_NO":"７２７號","E_COORD97":166576.88,"N_COORD97":2549325.5299999998,"ADDRESS":"海環街７２７號","OBJECTID":283303},"geometry":{"x":166576.88000000082,"y":2549325.5299999993}},{"attributes":{"ID":283310,"DIS_CODE":0,"TOWNNAME":"永康區","LI":"北灣里","LIN":"19鄰","STREET":"大同街","SECT":" ","MAREA":" ","LANE":"２９３巷","ALLEY":" ","HOUSE_NO":"１號","E_COORD97":174764.73000000001,"N_COORD97":2545938.8399999999,"ADDRESS":"大同街２９３巷１號","OBJECTID":283304},"geometry":{"x":174764.73000000138,"y":2545938.8400000017}},{"attributes":{"ID":283311,"DIS_CODE":0,"TOWNNAME":"安南區","LI":"溪心里","LIN":"2鄰","STREET":"海環街","SECT":" ","MAREA":" ","LANE":" ","ALLEY":" ","HOUSE_NO":"７２９號","E_COORD97":166580.23000000001,"N_COORD97":2549329.8799999999,"ADDRESS":"海環街７２９號","OBJECTID":283305},"geometry":{"x":166580.23000000138,"y":2549329.8800000027}},{"attributes":{"ID":283312,"DIS_CODE":0,"TOWNNAME":"南區","LI":"明亮里","LIN":"4鄰","STREET":"新都路","SECT":" ","MAREA":" ","LANE":"５２０巷","ALLEY":" ","HOUSE_NO":"２５號","E_COORD97":167092.32999999999,"N_COORD97":2540952.1299999999,"ADDRESS":"新都路５２０巷２５號","OBJECTID":283306},"geometry":{"x":167092.33000000194,"y":2540952.1300000008}},{"attributes":{"ID":283313,"DIS_CODE":0,"TOWNNAME":"南區","LI":"明亮里","LIN":"4鄰","STREET":"新都路","SECT":" ","MAREA":" ","LANE":"５２０巷","ALLEY":" ","HOUSE_NO":"２７號","E_COORD97":167090.59,"N_COORD97":2540941.6699999999,"ADDRESS":"新都路５２０巷２７號","OBJECTID":283307},"geometry":{"x":167090.59000000078,"y":2540941.6700000018}},{"attributes":{"ID":283314,"DIS_CODE":0,"TOWNNAME":"東區","LI":"裕農里","LIN":"19鄰","STREET":"裕豐街","SECT":" ","MAREA":" ","LANE":"２２２巷","ALLEY":" ","HOUSE_NO":"４７號","E_COORD97":170892.35999999999,"N_COORD97":2543228.6200000001,"ADDRESS":"裕豐街２２２巷４７號","OBJECTID":283308},"geometry":{"x":170892.36000000034,"y":2543228.6200000029}},{"attributes":{"ID":283315,"DIS_CODE":0,"TOWNNAME":"安南區","LI":"佃東里","LIN":"2鄰","STREET":"海佃路","SECT":"四段","MAREA":" ","LANE":" ","ALLEY":" ","HOUSE_NO":"３０２號","E_COORD97":165614.51999999999,"N_COORD97":2551325.0099999998,"ADDRESS":"海佃路四段３０２號","OBJECTID":283309},"geometry":{"x":165614.52000000048,"y":2551325.0100000016}},{"attributes":{"ID":283316,"DIS_CODE":0,"TOWNNAME":"安南區","LI":"佃東里","LIN":"2鄰","STREET":"海佃路","SECT":"四段","MAREA":" ","LANE":" ","ALLEY":" ","HOUSE_NO":"３０６號","E_COORD97":165613.31,"N_COORD97":2551337.3999999999,"ADDRESS":"海佃路四段３０６號","OBJECTID":283310},"geometry":{"x":165613.30999999959,"y":2551337.4000000004}},{"attributes":{"ID":283317,"DIS_CODE":0,"TOWNNAME":"安南區","LI":"佃東里","LIN":"2鄰","STREET":"海佃路","SECT":"四段","MAREA":" ","LANE":" ","ALLEY":" ","HOUSE_NO":"３１２號","E_COORD97":165611.67999999999,"N_COORD97":2551345.25,"ADDRESS":"海佃路四段３１２號","OBJECTID":283311},"geometry":{"x":165611.68000000063,"y":2551345.25}},{"attributes":{"ID":283318,"DIS_CODE":0,"TOWNNAME":"東區","LI":"裕農里","LIN":"19鄰","STREET":"裕豐街","SECT":" ","MAREA":" ","LANE":"２２２巷","ALLEY":" ","HOUSE_NO":"４５號","E_COORD97":170887.73000000001,"N_COORD97":2543227.6299999999,"ADDRESS":"裕豐街２２２巷４５號","OBJECTID":283312},"geometry":{"x":170887.73000000138,"y":2543227.629999999}},{"attributes":{"ID":283319,"DIS_CODE":0,"TOWNNAME":"永康區","LI":"龍潭里","LIN":"19鄰","STREET":"自強路","SECT":" ","MAREA":" ","LANE":"８８８巷","ALLEY":" ","HOUSE_NO":"３５號","E_COORD97":174846.57000000001,"N_COORD97":2548800.5600000001,"ADDRESS":"自強路８８８巷３５號","OBJECTID":283313},"geometry":{"x":174846.57000000123,"y":2548800.5600000005}},{"attributes":{"ID":283320,"DIS_CODE":0,"TOWNNAME":"永康區","LI":"南灣里","LIN":"19鄰","STREET":"立興街","SECT":" ","MAREA":" ","LANE":"１５２巷","ALLEY":" ","HOUSE_NO":"２號","E_COORD97":174368.51000000001,"N_COORD97":2544644.8500000001,"ADDRESS":"立興街１５２巷２號","OBJECTID":283314},"geometry":{"x":174368.51000000071,"y":2544644.8499999996}},{"attributes":{"ID":283321,"DIS_CODE":0,"TOWNNAME":"永康區","LI":"南灣里","LIN":"19鄰","STREET":"立興街","SECT":" ","MAREA":" ","LANE":"１５２巷","ALLEY":" ","HOUSE_NO":"６號","E_COORD97":174357.67000000001,"N_COORD97":2544651.0699999998,"ADDRESS":"立興街１５２巷６號","OBJECTID":283315},"geometry":{"x":174357.67000000086,"y":2544651.0699999984}},{"attributes":{"ID":283322,"DIS_CODE":0,"TOWNNAME":"永康區","LI":"南灣里","LIN":"19鄰","STREET":"立興街","SECT":" ","MAREA":" ","LANE":"１５２巷","ALLEY":" ","HOUSE_NO":"８號","E_COORD97":174352.25,"N_COORD97":2544654.3199999998,"ADDRESS":"立興街１５２巷８號","OBJECTID":283316},"geometry":{"x":174352.25000000093,"y":2544654.3200000022}},{"attributes":{"ID":283323,"DIS_CODE":0,"TOWNNAME":"永康區","LI":"南灣里","LIN":"19鄰","STREET":"立興街","SECT":" ","MAREA":" ","LANE":"１５２巷","ALLEY":" ","HOUSE_NO":"１０號","E_COORD97":174347.03,"N_COORD97":2544657.46,"ADDRESS":"立興街１５２巷１０號","OBJECTID":283317},"geometry":{"x":174347.03000000119,"y":2544657.4600000028}},{"attributes":{"ID":283324,"DIS_CODE":0,"TOWNNAME":"永康區","LI":"南灣里","LIN":"19鄰","STREET":"立興街","SECT":" ","MAREA":" ","LANE":"１５２巷","ALLEY":" ","HOUSE_NO":"１２號","E_COORD97":174341.87,"N_COORD97":2544660.5600000001,"ADDRESS":"立興街１５２巷１２號","OBJECTID":283318},"geometry":{"x":174341.87000000011,"y":2544660.5600000005}},{"attributes":{"ID":283325,"DIS_CODE":0,"TOWNNAME":"永康區","LI":"南灣里","LIN":"19鄰","STREET":"立興街","SECT":" ","MAREA":" ","LANE":"１５２巷","ALLEY":" ","HOUSE_NO":"１６號","E_COORD97":174337.76000000001,"N_COORD97":2544669.1499999999,"ADDRESS":"立興街１５２巷１６號","OBJECTID":283319},"geometry":{"x":174337.76000000164,"y":2544669.1500000022}},{"attributes":{"ID":283326,"DIS_CODE":0,"TOWNNAME":"永康區","LI":"\u25A0行里","LIN":"19鄰","STREET":"正南五街","SECT":" ","MAREA":" ","LANE":"５２０巷","ALLEY":" ","HOUSE_NO":"５７號","E_COORD97":171708.60999999999,"N_COORD97":2548815.2599999998,"ADDRESS":"正南五街５２０巷５７號","OBJECTID":283320},"geometry":{"x":171708.61000000127,"y":2548815.2599999998}},{"attributes":{"ID":283327,"DIS_CODE":0,"TOWNNAME":"新化區","LI":"東榮里","LIN":"19鄰","STREET":"中興路","SECT":" ","MAREA":" ","LANE":"７１９巷","ALLEY":" ","HOUSE_NO":"１７號","E_COORD97":179498.85999999999,"N_COORD97":2548074.25,"ADDRESS":"中興路７１９巷１７號","OBJECTID":283321},"geometry":{"x":179498.86000000034,"y":2548074.2500000037}},{"attributes":{"ID":283328,"DIS_CODE":0,"TOWNNAME":"新化區","LI":"東榮里","LIN":"19鄰","STREET":"中興路","SECT":" ","MAREA":" ","LANE":"７１９巷","ALLEY":" ","HOUSE_NO":"７號","E_COORD97":179484.51000000001,"N_COORD97":2548097.25,"ADDRESS":"中興路７１９巷７號","OBJECTID":283322},"geometry":{"x":179484.51000000071,"y":2548097.25}},{"attributes":{"ID":283329,"DIS_CODE":0,"TOWNNAME":"新化區","LI":"東榮里","LIN":"19鄰","STREET":"中興路","SECT":" ","MAREA":" ","LANE":"７１９巷","ALLEY":" ","HOUSE_NO":"５號","E_COORD97":179485.60999999999,"N_COORD97":2548100.25,"ADDRESS":"中興路７１９巷５號","OBJECTID":283323},"geometry":{"x":179485.61000000034,"y":2548100.25}},{"attributes":{"ID":283330,"DIS_CODE":0,"TOWNNAME":"新化區","LI":"東榮里","LIN":"19鄰","STREET":"中興路","SECT":" ","MAREA":" ","LANE":"７１９巷","ALLEY":" ","HOUSE_NO":"４１號","E_COORD97":179465.56,"N_COORD97":2548028.25,"ADDRESS":"中興路７１９巷４１號","OBJECTID":283324},"geometry":{"x":179465.56000000052,"y":2548028.2500000019}},{"attributes":{"ID":283331,"DIS_CODE":0,"TOWNNAME":"安南區","LI":"長安里","LIN":"19鄰","STREET":"公學路","SECT":"二段","MAREA":" ","LANE":"１９０巷","ALLEY":" ","HOUSE_NO":"１３號","E_COORD97":167529.76000000001,"N_COORD97":2552214.3399999999,"ADDRESS":"公學路二段１９０巷１３號","OBJECTID":283325},"geometry":{"x":167529.75999999885,"y":2552214.3400000017}},{"attributes":{"ID":283332,"DIS_CODE":0,"TOWNNAME":"安南區","LI":"長安里","LIN":"19鄰","STREET":"公學路","SECT":"二段","MAREA":" ","LANE":"１９０巷","ALLEY":" ","HOUSE_NO":"１４號","E_COORD97":167571.17000000001,"N_COORD97":2552238.2599999998,"ADDRESS":"公學路二段１９０巷１４號","OBJECTID":283326},"geometry":{"x":167571.16999999899,"y":2552238.2600000016}},{"attributes":{"ID":283333,"DIS_CODE":0,"TOWNNAME":"安南區","LI":"長安里","LIN":"19鄰","STREET":"公學路","SECT":"二段","MAREA":" ","LANE":"１９０巷","ALLEY":" ","HOUSE_NO":"２３號","E_COORD97":167555.60999999999,"N_COORD97":2552246.02,"ADDRESS":"公學路二段１９０巷２３號","OBJECTID":283327},"geometry":{"x":167555.61000000127,"y":2552246.0200000014}},{"attributes":{"ID":283334,"DIS_CODE":0,"TOWNNAME":"安南區","LI":"長安里","LIN":"19鄰","STREET":"公學路","SECT":"二段","MAREA":" ","LANE":"１９０巷","ALLEY":" ","HOUSE_NO":"２號","E_COORD97":167546.79999999999,"N_COORD97":2552188.9700000002,"ADDRESS":"公學路二段１９０巷２號","OBJECTID":283328},"geometry":{"x":167546.80000000075,"y":2552188.9699999988}},{"attributes":{"ID":283335,"DIS_CODE":0,"TOWNNAME":"仁德區","LI":"仁德里","LIN":"38鄰","STREET":"文宏路","SECT":" ","MAREA":" ","LANE":" ","ALLEY":" ","HOUSE_NO":"８６號","E_COORD97":172412.94712600001,"N_COORD97":2541731.6523799999,"ADDRESS":"文宏路８６號","OBJECTID":283329},"geometry":{"x":172412.94712600019,"y":2541731.6523790024}},{"attributes":{"ID":283336,"DIS_CODE":0,"TOWNNAME":"永康區","LI":"中興里","LIN":"19鄰","STREET":"中山東路","SECT":" ","MAREA":" ","LANE":"３６６巷","ALLEY":" ","HOUSE_NO":"２７號","E_COORD97":171814.09,"N_COORD97":2545286.75,"ADDRESS":"中山東路３６６巷２７號","OBJECTID":283330},"geometry":{"x":171814.08999999985,"y":2545286.75}},{"attributes":{"ID":283337,"DIS_CODE":0,"TOWNNAME":"永康區","LI":"中興里","LIN":"19鄰","STREET":"中山東路","SECT":" ","MAREA":" ","LANE":"３６６巷","ALLEY":" ","HOUSE_NO":"３６號","E_COORD97":171833.03,"N_COORD97":2545303.7999999998,"ADDRESS":"中山東路３６６巷３６號","OBJECTID":283331},"geometry":{"x":171833.03000000119,"y":2545303.8000000007}},{"attributes":{"ID":283338,"DIS_CODE":0,"TOWNNAME":"永康區","LI":"勝利里","LIN":"19鄰","STREET":"中華一路","SECT":" ","MAREA":" ","LANE":"２７２巷","ALLEY":" ","HOUSE_NO":"３７號","E_COORD97":171329.44,"N_COORD97":2545078.5,"ADDRESS":"中華一路２７２巷３７號","OBJECTID":283332},"geometry":{"x":171329.44000000041,"y":2545078.4999999981}},{"attributes":{"ID":283339,"DIS_CODE":0,"TOWNNAME":"永康區","LI":"東橋里","LIN":"19鄰","STREET":"中山南路","SECT":" ","MAREA":" ","LANE":"３６５巷","ALLEY":" ","HOUSE_NO":"２號之５４","E_COORD97":172825.87,"N_COORD97":2547073.1400000001,"ADDRESS":"中山南路３６５巷２號之５４","OBJECTID":283333},"geometry":{"x":172825.87000000104,"y":2547073.1400000025}},{"attributes":{"ID":283340,"DIS_CODE":0,"TOWNNAME":"永康區","LI":"東橋里","LIN":"19鄰","STREET":"中山南路","SECT":" ","MAREA":" ","LANE":"３６５巷","ALLEY":" ","HOUSE_NO":"２號之４７","E_COORD97":172864.70000000001,"N_COORD97":2547081.6299999999,"ADDRESS":"中山南路３６５巷２號之４７","OBJECTID":283334},"geometry":{"x":172864.70000000019,"y":2547081.6300000008}},{"attributes":{"ID":283341,"DIS_CODE":0,"TOWNNAME":"南區","LI":"明亮里","LIN":"13鄰","STREET":"金華路","SECT":"一段","MAREA":" ","LANE":"３５２巷","ALLEY":" ","HOUSE_NO":"１６１號","E_COORD97":167374.87,"N_COORD97":2540939.5299999998,"ADDRESS":"金華路一段３５２巷１６１號","OBJECTID":283335},"geometry":{"x":167374.87000000011,"y":2540939.5300000012}},{"attributes":{"ID":283342,"DIS_CODE":0,"TOWNNAME":"南區","LI":"明亮里","LIN":"13鄰","STREET":"金華路","SECT":"一段","MAREA":" ","LANE":"３５２巷","ALLEY":" ","HOUSE_NO":"１６１號之２","E_COORD97":167376.64999999999,"N_COORD97":2540930.6600000001,"ADDRESS":"金華路一段３５２巷１６１號之２","OBJECTID":283336},"geometry":{"x":167376.65000000037,"y":2540930.6600000001}},{"attributes":{"ID":283343,"DIS_CODE":0,"TOWNNAME":"南區","LI":"明亮里","LIN":"13鄰","STREET":"金華路","SECT":"一段","MAREA":" ","LANE":"３５２巷","ALLEY":" ","HOUSE_NO":"１６３號","E_COORD97":167378.42000000001,"N_COORD97":2540925.7799999998,"ADDRESS":"金華路一段３５２巷１６３號","OBJECTID":283337},"geometry":{"x":167378.42000000086,"y":2540925.7799999993}},{"attributes":{"ID":283344,"DIS_CODE":0,"TOWNNAME":"安南區","LI":"頂安里","LIN":"19鄰","STREET":"北安路","SECT":"三段","MAREA":" ","LANE":"３９６巷","ALLEY":" ","HOUSE_NO":"１０號","E_COORD97":168864.70000000001,"N_COORD97":2549573.6899999999,"ADDRESS":"北安路三段３９６巷１０號","OBJECTID":283338},"geometry":{"x":168864.69999999925,"y":2549573.6900000013}},{"attributes":{"ID":283345,"DIS_CODE":0,"TOWNNAME":"安南區","LI":"頂安里","LIN":"19鄰","STREET":"北安路","SECT":"三段","MAREA":" ","LANE":"３９６巷","ALLEY":" ","HOUSE_NO":"５２號","E_COORD97":168912.76000000001,"N_COORD97":2549509.2599999998,"ADDRESS":"北安路三段３９６巷５２號","OBJECTID":283339},"geometry":{"x":168912.75999999978,"y":2549509.2600000016}},{"attributes":{"ID":283346,"DIS_CODE":0,"TOWNNAME":"安南區","LI":"頂安里","LIN":"19鄰","STREET":"北安路","SECT":"三段","MAREA":" ","LANE":"３９６巷","ALLEY":" ","HOUSE_NO":"５６號","E_COORD97":168914.92999999999,"N_COORD97":2549505.54,"ADDRESS":"北安路三段３９６巷５６號","OBJECTID":283340},"geometry":{"x":168914.9299999997,"y":2549505.5400000028}},{"attributes":{"ID":283347,"DIS_CODE":0,"TOWNNAME":"安南區","LI":"頂安里","LIN":"19鄰","STREET":"北安路","SECT":"三段","MAREA":" ","LANE":"３９６巷","ALLEY":" ","HOUSE_NO":"５８號","E_COORD97":168918.64999999999,"N_COORD97":2549502.4399999999,"ADDRESS":"北安路三段３９６巷５８號","OBJECTID":283341},"geometry":{"x":168918.6500000013,"y":2549502.4399999995}},{"attributes":{"ID":283348,"DIS_CODE":0,"TOWNNAME":"安南區","LI":"頂安里","LIN":"19鄰","STREET":"北安路","SECT":"三段","MAREA":" ","LANE":"３９６巷","ALLEY":" ","HOUSE_NO":"６０號","E_COORD97":168920.51000000001,"N_COORD97":2549496.8700000001,"ADDRESS":"北安路三段３９６巷６０號","OBJECTID":283342},"geometry":{"x":168920.51000000071,"y":2549496.870000001}},{"attributes":{"ID":283349,"DIS_CODE":0,"TOWNNAME":"安南區","LI":"頂安里","LIN":"19鄰","STREET":"北安路","SECT":"三段","MAREA":" ","LANE":"３９６巷","ALLEY":" ","HOUSE_NO":"６２號","E_COORD97":168924.23000000001,"N_COORD97":2549495.0099999998,"ADDRESS":"北安路三段３９６巷６２號","OBJECTID":283343},"geometry":{"x":168924.23000000231,"y":2549495.0099999998}},{"attributes":{"ID":283350,"DIS_CODE":0,"TOWNNAME":"安南區","LI":"頂安里","LIN":"19鄰","STREET":"北安路","SECT":"三段","MAREA":" ","LANE":"３９６巷","ALLEY":" ","HOUSE_NO":"６６號","E_COORD97":168926.39999999999,"N_COORD97":2549489.4300000002,"ADDRESS":"北安路三段３９６巷６６號","OBJECTID":283344},"geometry":{"x":168926.40000000224,"y":2549489.4299999978}},{"attributes":{"ID":283351,"DIS_CODE":0,"TOWNNAME":"安南區","LI":"頂安里","LIN":"19鄰","STREET":"北安路","SECT":"三段","MAREA":" ","LANE":"３９６巷","ALLEY":" ","HOUSE_NO":"６８號","E_COORD97":168929.51999999999,"N_COORD97":2549486.54,"ADDRESS":"北安路三段３９６巷６８號","OBJECTID":283345},"geometry":{"x":168929.51999999955,"y":2549486.540000001}},{"attributes":{"ID":283352,"DIS_CODE":0,"TOWNNAME":"安南區","LI":"頂安里","LIN":"19鄰","STREET":"北安路","SECT":"三段","MAREA":" ","LANE":"３９６巷","ALLEY":" ","HOUSE_NO":"６號","E_COORD97":168858.48999999999,"N_COORD97":2549580.2000000002,"ADDRESS":"北安路三段３９６巷６號","OBJECTID":283346},"geometry":{"x":168858.49000000115,"y":2549580.2000000011}},{"attributes":{"ID":283353,"DIS_CODE":0,"TOWNNAME":"安南區","LI":"頂安里","LIN":"19鄰","STREET":"北安路","SECT":"三段","MAREA":" ","LANE":"３９６巷","ALLEY":" ","HOUSE_NO":"７０號","E_COORD97":168933.84,"N_COORD97":2549483.6699999999,"ADDRESS":"北安路三段３９６巷７０號","OBJECTID":283347},"geometry":{"x":168933.83999999985,"y":2549483.6699999999}},{"attributes":{"ID":283354,"DIS_CODE":0,"TOWNNAME":"安南區","LI":"頂安里","LIN":"19鄰","STREET":"北安路","SECT":"三段","MAREA":" ","LANE":"３９６巷","ALLEY":" ","HOUSE_NO":"７２號","E_COORD97":168936.35000000001,"N_COORD97":2549478.6400000001,"ADDRESS":"北安路三段３９６巷７２號","OBJECTID":283348},"geometry":{"x":168936.35000000056,"y":2549478.6400000006}},{"attributes":{"ID":283355,"DIS_CODE":0,"TOWNNAME":"安南區","LI":"頂安里","LIN":"19鄰","STREET":"北安路","SECT":"三段","MAREA":" ","LANE":"３９６巷","ALLEY":" ","HOUSE_NO":"７６號","E_COORD97":168937.79000000001,"N_COORD97":2549474.3300000001,"ADDRESS":"北安路三段３９６巷７６號","OBJECTID":283349},"geometry":{"x":168937.79000000004,"y":2549474.3300000019}},{"attributes":{"ID":283356,"DIS_CODE":0,"TOWNNAME":"安南區","LI":"頂安里","LIN":"19鄰","STREET":"北安路","SECT":"三段","MAREA":" ","LANE":"３９６巷","ALLEY":" ","HOUSE_NO":"８號","E_COORD97":168862.53,"N_COORD97":2549577.4100000001,"ADDRESS":"北安路三段３９６巷８號","OBJECTID":283350},"geometry":{"x":168862.52999999933,"y":2549577.4100000001}},{"attributes":{"ID":283357,"DIS_CODE":0,"TOWNNAME":"東區","LI":"自強里","LIN":"19鄰","STREET":"中華東路","SECT":"二段","MAREA":" ","LANE":"２４３巷","ALLEY":" ","HOUSE_NO":"２７號","E_COORD97":171337.51999999999,"N_COORD97":2542578.8799999999,"ADDRESS":"中華東路二段２４３巷２７號","OBJECTID":283351},"geometry":{"x":171337.52000000048,"y":2542578.879999999}},{"attributes":{"ID":283358,"DIS_CODE":0,"TOWNNAME":"東區","LI":"自強里","LIN":"19鄰","STREET":"中華東路","SECT":"二段","MAREA":" ","LANE":"２４３巷","ALLEY":" ","HOUSE_NO":"５號","E_COORD97":171271.78,"N_COORD97":2542613.3799999999,"ADDRESS":"中華東路二段２４３巷５號","OBJECTID":283352},"geometry":{"x":171271.78000000119,"y":2542613.3799999971}},{"attributes":{"ID":283359,"DIS_CODE":0,"TOWNNAME":"東區","LI":"自強里","LIN":"19鄰","STREET":"中華東路","SECT":"二段","MAREA":" ","LANE":"２４３巷","ALLEY":" ","HOUSE_NO":"７號","E_COORD97":171277.45000000001,"N_COORD97":2542609,"ADDRESS":"中華東路二段２４３巷７號","OBJECTID":283353},"geometry":{"x":171277.45000000112,"y":2542609}},{"attributes":{"ID":283360,"DIS_CODE":0,"TOWNNAME":"東區","LI":"自強里","LIN":"19鄰","STREET":"中華東路","SECT":"二段","MAREA":" ","LANE":"２４３巷","ALLEY":" ","HOUSE_NO":"９號","E_COORD97":171281.32000000001,"N_COORD97":2542605.9100000001,"ADDRESS":"中華東路二段２４３巷９號","OBJECTID":283354},"geometry":{"x":171281.31999999937,"y":2542605.910000002}},{"attributes":{"ID":283361,"DIS_CODE":0,"TOWNNAME":"永康區","LI":"西灣里","LIN":"19鄰","STREET":"大安街","SECT":" ","MAREA":" ","LANE":"３３３巷","ALLEY":" ","HOUSE_NO":"９號","E_COORD97":174575.73000000001,"N_COORD97":2545730.5800000001,"ADDRESS":"大安街３３３巷９號","OBJECTID":283355},"geometry":{"x":174575.73000000045,"y":2545730.5800000019}},{"attributes":{"ID":283362,"DIS_CODE":0,"TOWNNAME":"永康區","LI":"安康里","LIN":"19鄰","STREET":"中華西街","SECT":" ","MAREA":" ","LANE":"１０４巷","ALLEY":" ","HOUSE_NO":"３號","E_COORD97":170745.84,"N_COORD97":2546122.25,"ADDRESS":"中華西街１０４巷３號","OBJECTID":283356},"geometry":{"x":170745.84000000078,"y":2546122.2500000019}},{"attributes":{"ID":283363,"DIS_CODE":0,"TOWNNAME":"永康區","LI":"成功里","LIN":"19鄰","STREET":"中華一路","SECT":" ","MAREA":" ","LANE":"３９巷","ALLEY":" ","HOUSE_NO":"５１號","E_COORD97":171893.01000000001,"N_COORD97":2544847.2400000002,"ADDRESS":"中華一路３９巷５１號","OBJECTID":283357},"geometry":{"x":171893.00999999978,"y":2544847.2400000021}},{"attributes":{"ID":283364,"DIS_CODE":0,"TOWNNAME":"永康區","LI":"西灣里","LIN":"19鄰","STREET":"大安街","SECT":" ","MAREA":" ","LANE":"３３３巷","ALLEY":" ","HOUSE_NO":"８號","E_COORD97":174573.20999999999,"N_COORD97":2545743.5800000001,"ADDRESS":"大安街３３３巷８號","OBJECTID":283358},"geometry":{"x":174573.20999999996,"y":2545743.5800000019}},{"attributes":{"ID":283365,"DIS_CODE":0,"TOWNNAME":"永康區","LI":"尚頂里","LIN":"19鄰","STREET":"南台街","SECT":" ","MAREA":" ","LANE":"３巷","ALLEY":" ","HOUSE_NO":"３６號","E_COORD97":170508.42999999999,"N_COORD97":2546803.7400000002,"ADDRESS":"南台街３巷３６號","OBJECTID":283359},"geometry":{"x":170508.4299999997,"y":2546803.7400000021}},{"attributes":{"ID":283366,"DIS_CODE":0,"TOWNNAME":"永康區","LI":"南灣里","LIN":"19鄰","STREET":"大灣路","SECT":" ","MAREA":" ","LANE":"７６４巷","ALLEY":" ","HOUSE_NO":"１５２號","E_COORD97":174279.20000000001,"N_COORD97":2544738.8900000001,"ADDRESS":"大灣路７６４巷１５２號","OBJECTID":283360},"geometry":{"x":174279.20000000205,"y":2544738.8900000025}},{"attributes":{"ID":283367,"DIS_CODE":0,"TOWNNAME":"永康區","LI":"東橋里","LIN":"19鄰","STREET":"中山南路","SECT":" ","MAREA":" ","LANE":"４７１巷","ALLEY":" ","HOUSE_NO":"３號之１","E_COORD97":172855.62,"N_COORD97":2547025.7999999998,"ADDRESS":"中山南路４７１巷３號之１","OBJECTID":283361},"geometry":{"x":172855.61999999918,"y":2547025.8000000007}},{"attributes":{"ID":283368,"DIS_CODE":0,"TOWNNAME":"永康區","LI":"南灣里","LIN":"19鄰","STREET":"大灣一街","SECT":" ","MAREA":" ","LANE":"６２巷","ALLEY":" ","HOUSE_NO":"２號","E_COORD97":174345.29000000001,"N_COORD97":2544744.4700000002,"ADDRESS":"大灣一街６２巷２號","OBJECTID":283362},"geometry":{"x":174345.29000000097,"y":2544744.4700000025}},{"attributes":{"ID":283369,"DIS_CODE":0,"TOWNNAME":"永康區","LI":"東橋里","LIN":"19鄰","STREET":"中山南路","SECT":" ","MAREA":" ","LANE":"４６７巷","ALLEY":" ","HOUSE_NO":"７號","E_COORD97":172921.85999999999,"N_COORD97":2546961.2000000002,"ADDRESS":"中山南路４６７巷７號","OBJECTID":283363},"geometry":{"x":172921.86000000034,"y":2546961.1999999993}},{"attributes":{"ID":283370,"DIS_CODE":0,"TOWNNAME":"永康區","LI":"東橋里","LIN":"19鄰","STREET":"中山南路","SECT":" ","MAREA":" ","LANE":"４７１巷","ALLEY":" ","HOUSE_NO":"６號","E_COORD97":172956.01000000001,"N_COORD97":2547098.4399999999,"ADDRESS":"中山南路４７１巷６號","OBJECTID":283364},"geometry":{"x":172956.00999999885,"y":2547098.4399999995}},{"attributes":{"ID":283371,"DIS_CODE":0,"TOWNNAME":"麻豆區","LI":"\u25A0江里","LIN":"14鄰","STREET":"民權路","SECT":" ","MAREA":" ","LANE":" ","ALLEY":" ","HOUSE_NO":"６３號之５","E_COORD97":173461.95999999999,"N_COORD97":2564479.7799999998,"ADDRESS":"民權路６３號之５","OBJECTID":283365},"geometry":{"x":173461.96000000183,"y":2564479.7800000012}},{"attributes":{"ID":283372,"DIS_CODE":0,"TOWNNAME":"南區","LI":"喜東里","LIN":"2鄰","STREET":"明興路","SECT":" ","MAREA":" ","LANE":" ","ALLEY":" ","HOUSE_NO":"３９５號","E_COORD97":166344.87,"N_COORD97":2538877.4199999999,"ADDRESS":"明興路３９５號","OBJECTID":283366},"geometry":{"x":166344.87000000104,"y":2538877.4199999999}},{"attributes":{"ID":283373,"DIS_CODE":0,"TOWNNAME":"永康區","LI":"東橋里","LIN":"19鄰","STREET":"中山南路","SECT":" ","MAREA":" ","LANE":"４７１巷","ALLEY":" ","HOUSE_NO":"３號","E_COORD97":172928.98999999999,"N_COORD97":2547039.6499999999,"ADDRESS":"中山南路４７１巷３號","OBJECTID":283367},"geometry":{"x":172928.99000000022,"y":2547039.6500000004}},{"attributes":{"ID":283374,"DIS_CODE":0,"TOWNNAME":"永康區","LI":"東橋里","LIN":"19鄰","STREET":"中山南路","SECT":" ","MAREA":" ","LANE":"４７１巷","ALLEY":" ","HOUSE_NO":"４號","E_COORD97":172954.03,"N_COORD97":2547065,"ADDRESS":"中山南路４７１巷４號","OBJECTID":283368},"geometry":{"x":172954.03000000026,"y":2547065}},{"attributes":{"ID":283375,"DIS_CODE":0,"TOWNNAME":"安南區","LI":"淵中里","LIN":"19鄰","STREET":"安中路","SECT":"四段","MAREA":" ","LANE":"１９７巷","ALLEY":" ","HOUSE_NO":"４６號","E_COORD97":164723.48000000001,"N_COORD97":2549982.7799999998,"ADDRESS":"安中路四段１９７巷４６號","OBJECTID":283369},"geometry":{"x":164723.48000000231,"y":2549982.7800000012}},{"attributes":{"ID":283376,"DIS_CODE":0,"TOWNNAME":"安南區","LI":"頂安里","LIN":"19鄰","STREET":"北安路","SECT":"三段","MAREA":" ","LANE":"３９６巷","ALLEY":" ","HOUSE_NO":"４２號","E_COORD97":168899.42000000001,"N_COORD97":2549521.3399999999,"ADDRESS":"北安路三段３９６巷４２號","OBJECTID":283370},"geometry":{"x":168899.42000000086,"y":2549521.3400000017}},{"attributes":{"ID":283377,"DIS_CODE":0,"TOWNNAME":"安南區","LI":"頂安里","LIN":"19鄰","STREET":"北安路","SECT":"三段","MAREA":" ","LANE":"３９６巷","ALLEY":" ","HOUSE_NO":"４６號","E_COORD97":168901.59,"N_COORD97":2549517.3100000001,"ADDRESS":"北安路三段３９６巷４６號","OBJECTID":283371},"geometry":{"x":168901.59000000078,"y":2549517.3100000005}},{"attributes":{"ID":283378,"DIS_CODE":0,"TOWNNAME":"東區","LI":"大同里","LIN":"19鄰","STREET":"大同路","SECT":"一段","MAREA":" ","LANE":"１７５巷","ALLEY":" ","HOUSE_NO":"５３號","E_COORD97":169304.32000000001,"N_COORD97":2542716.8300000001,"ADDRESS":"大同路一段１７５巷５３號","OBJECTID":283372},"geometry":{"x":169304.3200000003,"y":2542716.8300000038}},{"attributes":{"ID":283379,"DIS_CODE":0,"TOWNNAME":"山上區","LI":"南洲里","LIN":"2鄰","STREET":" ","SECT":" ","MAREA":"南洲","LANE":" ","ALLEY":" ","HOUSE_NO":"１０２號","E_COORD97":183897.23999999999,"N_COORD97":2555749.25,"ADDRESS":"南洲１０２號","OBJECTID":283373},"geometry":{"x":183897.24000000022,"y":2555749.25}},{"attributes":{"ID":283380,"DIS_CODE":0,"TOWNNAME":"東區","LI":"大同里","LIN":"19鄰","STREET":"大同路","SECT":"一段","MAREA":" ","LANE":"１７５巷","ALLEY":" ","HOUSE_NO":"５５號","E_COORD97":169310.17000000001,"N_COORD97":2542714.1899999999,"ADDRESS":"大同路一段１７５巷５５號","OBJECTID":283374},"geometry":{"x":169310.16999999993,"y":2542714.1900000013}},{"attributes":{"ID":283381,"DIS_CODE":0,"TOWNNAME":"東區","LI":"大同里","LIN":"19鄰","STREET":"大同路","SECT":"一段","MAREA":" ","LANE":"１７５巷","ALLEY":" ","HOUSE_NO":"５７號","E_COORD97":169314.32000000001,"N_COORD97":2542712.8700000001,"ADDRESS":"大同路一段１７５巷５７號","OBJECTID":283375},"geometry":{"x":169314.3200000003,"y":2542712.870000001}},{"attributes":{"ID":283382,"DIS_CODE":0,"TOWNNAME":"東區","LI":"大同里","LIN":"19鄰","STREET":"大同路","SECT":"一段","MAREA":" ","LANE":"１７５巷","ALLEY":" ","HOUSE_NO":"５９號","E_COORD97":169317.14999999999,"N_COORD97":2542710.4199999999,"ADDRESS":"大同路一段１７５巷５９號","OBJECTID":283376},"geometry":{"x":169317.15000000037,"y":2542710.4200000018}},{"attributes":{"ID":283383,"DIS_CODE":0,"TOWNNAME":"東區","LI":"大同里","LIN":"19鄰","STREET":"大同路","SECT":"一段","MAREA":" ","LANE":"１７５巷","ALLEY":" ","HOUSE_NO":"６１號","E_COORD97":169355.91,"N_COORD97":2542700.2799999998,"ADDRESS":"大同路一段１７５巷６１號","OBJECTID":283377},"geometry":{"x":169355.91000000015,"y":2542700.2800000012}},{"attributes":{"ID":283384,"DIS_CODE":0,"TOWNNAME":"永康區","LI":"東灣里","LIN":"19鄰","STREET":"大灣三街","SECT":" ","MAREA":" ","LANE":"７３巷","ALLEY":" ","HOUSE_NO":"１５號","E_COORD97":174872.14000000001,"N_COORD97":2544907.04,"ADDRESS":"大灣三街７３巷１５號","OBJECTID":283378},"geometry":{"x":174872.13999999966,"y":2544907.0399999991}},{"attributes":{"ID":283385,"DIS_CODE":0,"TOWNNAME":"永康區","LI":"東灣里","LIN":"19鄰","STREET":"大灣三街","SECT":" ","MAREA":" ","LANE":"５７巷","ALLEY":" ","HOUSE_NO":"２０號","E_COORD97":174925.23000000001,"N_COORD97":2544880.8100000001,"ADDRESS":"大灣三街５７巷２０號","OBJECTID":283379},"geometry":{"x":174925.23000000231,"y":2544880.8100000024}},{"attributes":{"ID":283386,"DIS_CODE":0,"TOWNNAME":"永康區","LI":"東灣里","LIN":"19鄰","STREET":"大灣三街","SECT":" ","MAREA":" ","LANE":"７３巷","ALLEY":" ","HOUSE_NO":"５１號","E_COORD97":174898.57999999999,"N_COORD97":2544872.2599999998,"ADDRESS":"大灣三街７３巷５１號","OBJECTID":283380},"geometry":{"x":174898.57999999914,"y":2544872.2599999998}},{"attributes":{"ID":283387,"DIS_CODE":0,"TOWNNAME":"南區","LI":"喜東里","LIN":"2鄰","STREET":"明興路","SECT":" ","MAREA":" ","LANE":"３９３巷","ALLEY":" ","HOUSE_NO":"２號","E_COORD97":166361.73999999999,"N_COORD97":2538868.7799999998,"ADDRESS":"明興路３９３巷２號","OBJECTID":283381},"geometry":{"x":166361.74000000022,"y":2538868.7800000012}},{"attributes":{"ID":283388,"DIS_CODE":0,"TOWNNAME":"南區","LI":"喜東里","LIN":"2鄰","STREET":"明興路","SECT":" ","MAREA":" ","LANE":" ","ALLEY":" ","HOUSE_NO":"３９７號","E_COORD97":166344.42999999999,"N_COORD97":2538873.48,"ADDRESS":"明興路３９７號","OBJECTID":283382},"geometry":{"x":166344.43000000063,"y":2538873.4800000004}},{"attributes":{"ID":283389,"DIS_CODE":0,"TOWNNAME":"南區","LI":"喜南里","LIN":"2鄰","STREET":"喜樹路","SECT":" ","MAREA":" ","LANE":" ","ALLEY":" ","HOUSE_NO":"３２６號","E_COORD97":165722.25,"N_COORD97":2537743.8199999998,"ADDRESS":"喜樹路３２６號","OBJECTID":283383},"geometry":{"x":165722.25,"y":2537743.8200000022}},{"attributes":{"ID":283390,"DIS_CODE":0,"TOWNNAME":"南區","LI":"喜南里","LIN":"2鄰","STREET":"喜樹路","SECT":" ","MAREA":" ","LANE":" ","ALLEY":" ","HOUSE_NO":"３２８號","E_COORD97":165730.26999999999,"N_COORD97":2537737.2000000002,"ADDRESS":"喜樹路３２８號","OBJECTID":283384},"geometry":{"x":165730.26999999955,"y":2537737.2000000011}},{"attributes":{"ID":283391,"DIS_CODE":0,"TOWNNAME":"南區","LI":"喜南里","LIN":"2鄰","STREET":"喜樹路","SECT":" ","MAREA":" ","LANE":" ","ALLEY":" ","HOUSE_NO":"３３４號","E_COORD97":165735.54000000001,"N_COORD97":2537723.8300000001,"ADDRESS":"喜樹路３３４號","OBJECTID":283385},"geometry":{"x":165735.54000000097,"y":2537723.8300000019}},{"attributes":{"ID":283392,"DIS_CODE":0,"TOWNNAME":"南區","LI":"喜南里","LIN":"2鄰","STREET":"喜樹路","SECT":" ","MAREA":" ","LANE":" ","ALLEY":" ","HOUSE_NO":"３３６號","E_COORD97":165729.87,"N_COORD97":2537714.3399999999,"ADDRESS":"喜樹路３３６號","OBJECTID":283386},"geometry":{"x":165729.87000000104,"y":2537714.3399999999}},{"attributes":{"ID":283393,"DIS_CODE":0,"TOWNNAME":"南區","LI":"喜南里","LIN":"2鄰","STREET":"喜樹路","SECT":" ","MAREA":" ","LANE":" ","ALLEY":" ","HOUSE_NO":"３３８號","E_COORD97":165742.92000000001,"N_COORD97":2537711.1400000001,"ADDRESS":"喜樹路３３８號","OBJECTID":283387},"geometry":{"x":165742.92000000086,"y":2537711.1400000043}},{"attributes":{"ID":283394,"DIS_CODE":0,"TOWNNAME":"永康區","LI":"埔園里","LIN":"2鄰","STREET":"永埔街","SECT":" ","MAREA":" ","LANE":" ","ALLEY":" ","HOUSE_NO":"８７號","E_COORD97":173940.38,"N_COORD97":2547729.9900000002,"ADDRESS":"永埔街８７號","OBJECTID":283388},"geometry":{"x":173940.38000000175,"y":2547729.9899999984}},{"attributes":{"ID":283395,"DIS_CODE":0,"TOWNNAME":"永康區","LI":"埔園里","LIN":"2鄰","STREET":"中山路","SECT":" ","MAREA":" ","LANE":" ","ALLEY":" ","HOUSE_NO":"１３８號","E_COORD97":173786.98000000001,"N_COORD97":2547763.25,"ADDRESS":"中山路１３８號","OBJECTID":283389},"geometry":{"x":173786.98000000045,"y":2547763.2500000019}},{"attributes":{"ID":283396,"DIS_CODE":0,"TOWNNAME":"永康區","LI":"南灣里","LIN":"19鄰","STREET":"大灣路","SECT":" ","MAREA":" ","LANE":"７６４巷","ALLEY":" ","HOUSE_NO":"１２０號","E_COORD97":174249.78,"N_COORD97":2544730.23,"ADDRESS":"大灣路７６４巷１２０號","OBJECTID":283390},"geometry":{"x":174249.78000000026,"y":2544730.2300000004}},{"attributes":{"ID":283397,"DIS_CODE":0,"TOWNNAME":"永康區","LI":"東灣里","LIN":"19鄰","STREET":"大灣三街","SECT":" ","MAREA":" ","LANE":"７３巷","ALLEY":" ","HOUSE_NO":"５３號","E_COORD97":174886.63,"N_COORD97":2544874,"ADDRESS":"大灣三街７３巷５３號","OBJECTID":283391},"geometry":{"x":174886.63000000082,"y":2544874}},{"attributes":{"ID":283398,"DIS_CODE":0,"TOWNNAME":"永康區","LI":"北灣里","LIN":"19鄰","STREET":"大同街","SECT":" ","MAREA":" ","LANE":"２９３巷","ALLEY":" ","HOUSE_NO":"６號","E_COORD97":174736.95000000001,"N_COORD97":2545963.46,"ADDRESS":"大同街２９３巷６號","OBJECTID":283392},"geometry":{"x":174736.95000000205,"y":2545963.4600000009}},{"attributes":{"ID":283399,"DIS_CODE":0,"TOWNNAME":"永康區","LI":"安康里","LIN":"19鄰","STREET":"中華西街","SECT":" ","MAREA":" ","LANE":"１０４巷","ALLEY":" ","HOUSE_NO":"２７號","E_COORD97":170801.48000000001,"N_COORD97":2546151.9900000002,"ADDRESS":"中華西街１０４巷２７號","OBJECTID":283393},"geometry":{"x":170801.48000000138,"y":2546151.9900000021}},{"attributes":{"ID":283400,"DIS_CODE":0,"TOWNNAME":"佳里區","LI":"安西里","LIN":"19鄰","STREET":"光華街","SECT":" ","MAREA":" ","LANE":"２２巷","ALLEY":" ","HOUSE_NO":"２號","E_COORD97":165442.26000000001,"N_COORD97":2562810.5800000001,"ADDRESS":"光華街２２巷２號","OBJECTID":283394},"geometry":{"x":165442.25999999978,"y":2562810.5800000019}},{"attributes":{"ID":283401,"DIS_CODE":0,"TOWNNAME":"佳里區","LI":"安西里","LIN":"19鄰","STREET":"光華街","SECT":" ","MAREA":" ","LANE":"８巷","ALLEY":" ","HOUSE_NO":"３號","E_COORD97":165466.79000000001,"N_COORD97":2562825.5899999999,"ADDRESS":"光華街８巷３號","OBJECTID":283395},"geometry":{"x":165466.78999999911,"y":2562825.5899999999}},{"attributes":{"ID":283402,"DIS_CODE":0,"TOWNNAME":"山上區","LI":"玉\u25A0里","LIN":"2鄰","STREET":" ","SECT":" ","MAREA":"蚵\u25A0潭","LANE":" ","ALLEY":" ","HOUSE_NO":"２２號","E_COORD97":187377.72,"N_COORD97":2555751.25,"ADDRESS":"蚵\u25A0潭２２號","OBJECTID":283396},"geometry":{"x":187377.72000000067,"y":2555751.2500000019}},{"attributes":{"ID":283403,"DIS_CODE":0,"TOWNNAME":"佳里區","LI":"安西里","LIN":"19鄰","STREET":"光華街","SECT":" ","MAREA":" ","LANE":"８巷","ALLEY":" ","HOUSE_NO":"４號","E_COORD97":165480.10000000001,"N_COORD97":2562825.0800000001,"ADDRESS":"光華街８巷４號","OBJECTID":283397},"geometry":{"x":165480.10000000056,"y":2562825.0800000019}},{"attributes":{"ID":283404,"DIS_CODE":0,"TOWNNAME":"山上區","LI":"山上里","LIN":"2鄰","STREET":" ","SECT":" ","MAREA":"山上","LANE":" ","ALLEY":" ","HOUSE_NO":"１９號","E_COORD97":184244.26000000001,"N_COORD97":2555270.25,"ADDRESS":"山上１９號","OBJECTID":283398},"geometry":{"x":184244.25999999978,"y":2555270.25}},{"attributes":{"ID":283405,"DIS_CODE":0,"TOWNNAME":"佳里區","LI":"安西里","LIN":"19鄰","STREET":"光華街","SECT":" ","MAREA":" ","LANE":"８巷","ALLEY":" ","HOUSE_NO":"５號","E_COORD97":165467.13,"N_COORD97":2562830.46,"ADDRESS":"光華街８巷５號","OBJECTID":283399},"geometry":{"x":165467.12999999989,"y":2562830.4600000009}},{"attributes":{"ID":283406,"DIS_CODE":0,"TOWNNAME":"佳里區","LI":"安西里","LIN":"19鄰","STREET":"光華街","SECT":" ","MAREA":" ","LANE":"８巷","ALLEY":" ","HOUSE_NO":"６號","E_COORD97":165480.32999999999,"N_COORD97":2562829.7200000002,"ADDRESS":"光華街８巷６號","OBJECTID":283400},"geometry":{"x":165480.33000000194,"y":2562829.7199999988}}]}