{"displayFieldName":"TOWNNAME","fieldAliases":{"ID":"ID","DIS_CODE":"DIS_CODE","TOWNNAME":"TOWNNAME","LI":"LI","LIN":"LIN","STREET":"STREET","SECT":"SECT","MAREA":"MAREA","LANE":"LANE","ALLEY":"ALLEY","HOUSE_NO":"HOUSE_NO","E_COORD97":"E_COORD97","N_COORD97":"N_COORD97","ADDRESS":"ADDRESS","OBJECTID":"OBJECTID"},"geometryType":"esriGeometryPoint","spatialReference":{"wkid":102443,"latestWkid":3826},"fields":[{"name":"ID","type":"esriFieldTypeDouble","alias":"ID"},{"name":"DIS_CODE","type":"esriFieldTypeInteger","alias":"DIS_CODE"},{"name":"TOWNNAME","type":"esriFieldTypeString","alias":"TOWNNAME","length":8},{"name":"LI","type":"esriFieldTypeString","alias":"LI","length":8},{"name":"LIN","type":"esriFieldTypeString","alias":"LIN","length":12},{"name":"STREET","type":"esriFieldTypeString","alias":"STREET","length":20},{"name":"SECT","type":"esriFieldTypeString","alias":"SECT","length":8},{"name":"MAREA","type":"esriFieldTypeString","alias":"MAREA","length":12},{"name":"LANE","type":"esriFieldTypeString","alias":"LANE","length":10},{"name":"ALLEY","type":"esriFieldTypeString","alias":"ALLEY","length":10},{"name":"HOUSE_NO","type":"esriFieldTypeString","alias":"HOUSE_NO","length":20},{"name":"E_COORD97","type":"esriFieldTypeDouble","alias":"E_COORD97"},{"name":"N_COORD97","type":"esriFieldTypeDouble","alias":"N_COORD97"},{"name":"ADDRESS","type":"esriFieldTypeString","alias":"ADDRESS","length":50},{"name":"OBJECTID","type":"esriFieldTypeOID","alias":"OBJECTID"}],"features":[{"attributes":{"ID":136601,"DIS_CODE":0,"TOWNNAME":"東區","LI":"泉南里","LIN":"27鄰","STREET":"府連路","SECT":" ","MAREA":" ","LANE":"２６０巷","ALLEY":"２弄","HOUSE_NO":"４３號","E_COORD97":169403.54000000001,"N_COORD97":2542833.7799999998,"ADDRESS":"府連路２６０巷２弄４３號","OBJECTID":136601},"geometry":{"x":169403.54000000097,"y":2542833.7799999993}},{"attributes":{"ID":136602,"DIS_CODE":0,"TOWNNAME":"東區","LI":"泉南里","LIN":"27鄰","STREET":"府連路","SECT":" ","MAREA":" ","LANE":"２６０巷","ALLEY":"２弄","HOUSE_NO":"４號","E_COORD97":169443.09,"N_COORD97":2542856.0600000001,"ADDRESS":"府連路２６０巷２弄４號","OBJECTID":136602},"geometry":{"x":169443.08999999985,"y":2542856.0600000024}},{"attributes":{"ID":136603,"DIS_CODE":0,"TOWNNAME":"東區","LI":"泉南里","LIN":"27鄰","STREET":"府連路","SECT":" ","MAREA":" ","LANE":"２６０巷","ALLEY":"２弄","HOUSE_NO":"５號","E_COORD97":169427.57999999999,"N_COORD97":2542833.3900000001,"ADDRESS":"府連路２６０巷２弄５號","OBJECTID":136603},"geometry":{"x":169427.58000000007,"y":2542833.3900000025}},{"attributes":{"ID":136604,"DIS_CODE":0,"TOWNNAME":"南化區","LI":"北平里","LIN":"6鄰","STREET":" ","SECT":" ","MAREA":"北平","LANE":" ","ALLEY":" ","HOUSE_NO":"７７號","E_COORD97":194014.98999999999,"N_COORD97":2551104.75,"ADDRESS":"北平７７號","OBJECTID":136604},"geometry":{"x":194014.99000000115,"y":2551104.75}},{"attributes":{"ID":136605,"DIS_CODE":0,"TOWNNAME":"南化區","LI":"南化里","LIN":"6鄰","STREET":" ","SECT":" ","MAREA":"南化","LANE":" ","ALLEY":" ","HOUSE_NO":"７７號","E_COORD97":196369.89000000001,"N_COORD97":2549098.75,"ADDRESS":"南化７７號","OBJECTID":136605},"geometry":{"x":196369.8900000006,"y":2549098.7500000019}},{"attributes":{"ID":136606,"DIS_CODE":0,"TOWNNAME":"東區","LI":"泉南里","LIN":"27鄰","STREET":"府連路","SECT":" ","MAREA":" ","LANE":"２６０巷","ALLEY":"２弄","HOUSE_NO":"６號","E_COORD97":169438.64000000001,"N_COORD97":2542854.2799999998,"ADDRESS":"府連路２６０巷２弄６號","OBJECTID":136606},"geometry":{"x":169438.63999999966,"y":2542854.2799999993}},{"attributes":{"ID":136607,"DIS_CODE":0,"TOWNNAME":"東區","LI":"泉南里","LIN":"27鄰","STREET":"府連路","SECT":" ","MAREA":" ","LANE":"２６０巷","ALLEY":"２弄","HOUSE_NO":"７號","E_COORD97":169427.57999999999,"N_COORD97":2542829.5499999998,"ADDRESS":"府連路２６０巷２弄７號","OBJECTID":136607},"geometry":{"x":169427.58000000007,"y":2542829.5500000026}},{"attributes":{"ID":136608,"DIS_CODE":0,"TOWNNAME":"東區","LI":"泉南里","LIN":"27鄰","STREET":"府連路","SECT":" ","MAREA":" ","LANE":"２６０巷","ALLEY":"２弄","HOUSE_NO":"８號","E_COORD97":169434.48999999999,"N_COORD97":2542854.5800000001,"ADDRESS":"府連路２６０巷２弄８號","OBJECTID":136608},"geometry":{"x":169434.49000000115,"y":2542854.5800000019}},{"attributes":{"ID":136609,"DIS_CODE":0,"TOWNNAME":"東區","LI":"泉南里","LIN":"27鄰","STREET":"府連路","SECT":" ","MAREA":" ","LANE":"２６０巷","ALLEY":"２弄","HOUSE_NO":"９號","E_COORD97":169428.54999999999,"N_COORD97":2542825.7000000002,"ADDRESS":"府連路２６０巷２弄９號","OBJECTID":136609},"geometry":{"x":169428.55000000075,"y":2542825.7000000011}},{"attributes":{"ID":136610,"DIS_CODE":0,"TOWNNAME":"東區","LI":"泉南里","LIN":"27鄰","STREET":"府連路","SECT":" ","MAREA":" ","LANE":"２６０巷","ALLEY":"２弄","HOUSE_NO":"３３號","E_COORD97":169417.01000000001,"N_COORD97":2542818.98,"ADDRESS":"府連路２６０巷２弄３３號","OBJECTID":136610},"geometry":{"x":169417.01000000071,"y":2542818.9800000023}},{"attributes":{"ID":136611,"DIS_CODE":0,"TOWNNAME":"東區","LI":"泉南里","LIN":"27鄰","STREET":"府連路","SECT":" ","MAREA":" ","LANE":"２６０巷","ALLEY":"２弄","HOUSE_NO":"２號","E_COORD97":169446.79000000001,"N_COORD97":2542856.5,"ADDRESS":"府連路２６０巷２弄２號","OBJECTID":136611},"geometry":{"x":169446.79000000004,"y":2542856.5}},{"attributes":{"ID":136612,"DIS_CODE":0,"TOWNNAME":"東區","LI":"泉南里","LIN":"27鄰","STREET":"府連路","SECT":" ","MAREA":" ","LANE":"２６０巷","ALLEY":"２弄","HOUSE_NO":"２５號","E_COORD97":169422.39000000001,"N_COORD97":2542801.6800000002,"ADDRESS":"府連路２６０巷２弄２５號","OBJECTID":136612},"geometry":{"x":169422.39000000153,"y":2542801.6799999997}},{"attributes":{"ID":136613,"DIS_CODE":0,"TOWNNAME":"新營區","LI":"民權里","LIN":"6鄰","STREET":"信義街","SECT":" ","MAREA":" ","LANE":" ","ALLEY":" ","HOUSE_NO":"３號","E_COORD97":179952.42000000001,"N_COORD97":2578092.2999999998,"ADDRESS":"信義街３號","OBJECTID":136613},"geometry":{"x":179952.41999999993,"y":2578092.3000000007}},{"attributes":{"ID":136614,"DIS_CODE":0,"TOWNNAME":"南化區","LI":"北平里","LIN":"6鄰","STREET":" ","SECT":" ","MAREA":"北平","LANE":" ","ALLEY":" ","HOUSE_NO":"７１號","E_COORD97":194336.69,"N_COORD97":2551304.75,"ADDRESS":"北平７１號","OBJECTID":136614},"geometry":{"x":194336.69000000041,"y":2551304.75}},{"attributes":{"ID":136615,"DIS_CODE":0,"TOWNNAME":"南化區","LI":"小崙里","LIN":"6鄰","STREET":" ","SECT":" ","MAREA":"小崙","LANE":" ","ALLEY":" ","HOUSE_NO":"６１號","E_COORD97":197652.57000000001,"N_COORD97":2549984.75,"ADDRESS":"小崙６１號","OBJECTID":136615},"geometry":{"x":197652.57000000123,"y":2549984.75}},{"attributes":{"ID":136616,"DIS_CODE":0,"TOWNNAME":"南化區","LI":"小崙里","LIN":"6鄰","STREET":" ","SECT":" ","MAREA":"小崙","LANE":" ","ALLEY":" ","HOUSE_NO":"６６號之２","E_COORD97":197772.94,"N_COORD97":2549926.7999999998,"ADDRESS":"小崙６６號之２","OBJECTID":136616},"geometry":{"x":197772.94000000041,"y":2549926.8000000026}},{"attributes":{"ID":136617,"DIS_CODE":0,"TOWNNAME":"新營區","LI":"鐵線里","LIN":"6鄰","STREET":" ","SECT":" ","MAREA":"鐵線橋","LANE":" ","ALLEY":" ","HOUSE_NO":"６０號","E_COORD97":175982.19,"N_COORD97":2573680.6699999999,"ADDRESS":"鐵線橋６０號","OBJECTID":136617},"geometry":{"x":175982.19000000134,"y":2573680.6699999999}},{"attributes":{"ID":136618,"DIS_CODE":0,"TOWNNAME":"新營區","LI":"鐵線里","LIN":"6鄰","STREET":" ","SECT":" ","MAREA":"鐵線橋","LANE":" ","ALLEY":" ","HOUSE_NO":"６５號","E_COORD97":175922.92999999999,"N_COORD97":2573699.7999999998,"ADDRESS":"鐵線橋６５號","OBJECTID":136618},"geometry":{"x":175922.9299999997,"y":2573699.8000000026}},{"attributes":{"ID":136619,"DIS_CODE":0,"TOWNNAME":"新營區","LI":"太北里","LIN":"6鄰","STREET":" ","SECT":" ","MAREA":"太子宮","LANE":" ","ALLEY":" ","HOUSE_NO":"４７之１４號","E_COORD97":175868.26999999999,"N_COORD97":2577147.6499999999,"ADDRESS":"太子宮４７之１４號","OBJECTID":136619},"geometry":{"x":175868.27000000142,"y":2577147.6500000041}},{"attributes":{"ID":136620,"DIS_CODE":0,"TOWNNAME":"新營區","LI":"鐵線里","LIN":"6鄰","STREET":" ","SECT":" ","MAREA":"鐵線橋","LANE":" ","ALLEY":" ","HOUSE_NO":"６７號","E_COORD97":175901.29999999999,"N_COORD97":2573670,"ADDRESS":"鐵線橋６７號","OBJECTID":136620},"geometry":{"x":175901.29999999981,"y":2573670.0000000019}},{"attributes":{"ID":136621,"DIS_CODE":0,"TOWNNAME":"東區","LI":"泉南里","LIN":"27鄰","STREET":"府連路","SECT":" ","MAREA":" ","LANE":"２６０巷","ALLEY":"２弄","HOUSE_NO":"２７號","E_COORD97":169419.89000000001,"N_COORD97":2542805.5299999998,"ADDRESS":"府連路２６０巷２弄２７號","OBJECTID":136621},"geometry":{"x":169419.88999999966,"y":2542805.5299999993}},{"attributes":{"ID":136622,"DIS_CODE":0,"TOWNNAME":"東區","LI":"泉南里","LIN":"27鄰","STREET":"府連路","SECT":" ","MAREA":" ","LANE":"２６０巷","ALLEY":"２弄","HOUSE_NO":"１１號","E_COORD97":169436.81,"N_COORD97":2542802.6400000001,"ADDRESS":"府連路２６０巷２弄１１號","OBJECTID":136622},"geometry":{"x":169436.81000000052,"y":2542802.6400000006}},{"attributes":{"ID":136623,"DIS_CODE":0,"TOWNNAME":"新營區","LI":"五興里","LIN":"6鄰","STREET":" ","SECT":" ","MAREA":"五間厝","LANE":" ","ALLEY":" ","HOUSE_NO":"７３之２１號","E_COORD97":175906.31,"N_COORD97":2574737.6299999999,"ADDRESS":"五間厝７３之２１號","OBJECTID":136623},"geometry":{"x":175906.30999999959,"y":2574737.629999999}},{"attributes":{"ID":136624,"DIS_CODE":0,"TOWNNAME":"新營區","LI":"五興里","LIN":"6鄰","STREET":" ","SECT":" ","MAREA":"五間厝","LANE":" ","ALLEY":" ","HOUSE_NO":"７０號","E_COORD97":175820.57999999999,"N_COORD97":2574712.52,"ADDRESS":"五間厝７０號","OBJECTID":136624},"geometry":{"x":175820.58000000007,"y":2574712.5199999996}},{"attributes":{"ID":136625,"DIS_CODE":0,"TOWNNAME":"新營區","LI":"角帶里","LIN":"6鄰","STREET":" ","SECT":" ","MAREA":"角帶圍","LANE":" ","ALLEY":" ","HOUSE_NO":"７６號","E_COORD97":174818.79999999999,"N_COORD97":2575694.3399999999,"ADDRESS":"角帶圍７６號","OBJECTID":136625},"geometry":{"x":174818.79999999888,"y":2575694.3399999999}},{"attributes":{"ID":136626,"DIS_CODE":0,"TOWNNAME":"安南區","LI":"\u25A0南里","LIN":"27鄰","STREET":"環福街","SECT":" ","MAREA":" ","LANE":"２１６巷","ALLEY":"１９弄","HOUSE_NO":"１１號","E_COORD97":170312.84,"N_COORD97":2552715.5699999998,"ADDRESS":"環福街２１６巷１９弄１１號","OBJECTID":136626},"geometry":{"x":170312.84000000171,"y":2552715.5700000003}},{"attributes":{"ID":136627,"DIS_CODE":0,"TOWNNAME":"安南區","LI":"\u25A0南里","LIN":"27鄰","STREET":"環福街","SECT":" ","MAREA":" ","LANE":"２１６巷","ALLEY":"１９弄","HOUSE_NO":"１９號","E_COORD97":170322.76999999999,"N_COORD97":2552734.1499999999,"ADDRESS":"環福街２１６巷１９弄１９號","OBJECTID":136627},"geometry":{"x":170322.76999999955,"y":2552734.1500000022}},{"attributes":{"ID":136628,"DIS_CODE":0,"TOWNNAME":"安南區","LI":"\u25A0南里","LIN":"27鄰","STREET":"環福街","SECT":" ","MAREA":" ","LANE":"２１６巷","ALLEY":"１９弄","HOUSE_NO":"２３號","E_COORD97":170312.26999999999,"N_COORD97":2552733.25,"ADDRESS":"環福街２１６巷１９弄２３號","OBJECTID":136628},"geometry":{"x":170312.26999999955,"y":2552733.2500000019}},{"attributes":{"ID":136629,"DIS_CODE":0,"TOWNNAME":"安南區","LI":"\u25A0南里","LIN":"27鄰","STREET":"環福街","SECT":" ","MAREA":" ","LANE":"２１６巷","ALLEY":"３弄","HOUSE_NO":"１０號","E_COORD97":170304.57999999999,"N_COORD97":2552681.4199999999,"ADDRESS":"環福街２１６巷３弄１０號","OBJECTID":136629},"geometry":{"x":170304.57999999914,"y":2552681.4200000018}},{"attributes":{"ID":136630,"DIS_CODE":0,"TOWNNAME":"新營區","LI":"姑爺里","LIN":"6鄰","STREET":" ","SECT":" ","MAREA":"姑爺","LANE":" ","ALLEY":" ","HOUSE_NO":"５２號","E_COORD97":174175.72,"N_COORD97":2574979.98,"ADDRESS":"姑爺５２號","OBJECTID":136630},"geometry":{"x":174175.72000000067,"y":2574979.9800000023}},{"attributes":{"ID":136631,"DIS_CODE":0,"TOWNNAME":"新化區","LI":"豐榮里","LIN":"6鄰","STREET":" ","SECT":" ","MAREA":"洋子","LANE":" ","ALLEY":" ","HOUSE_NO":"１３９號","E_COORD97":177826.38,"N_COORD97":2548131.25,"ADDRESS":"洋子１３９號","OBJECTID":136631},"geometry":{"x":177826.38000000082,"y":2548131.25}},{"attributes":{"ID":136632,"DIS_CODE":0,"TOWNNAME":"新化區","LI":"崙頂里","LIN":"6鄰","STREET":" ","SECT":" ","MAREA":"崙子頂","LANE":" ","ALLEY":" ","HOUSE_NO":"２６５號","E_COORD97":176721.63,"N_COORD97":2547024.25,"ADDRESS":"崙子頂２６５號","OBJECTID":136632},"geometry":{"x":176721.62999999989,"y":2547024.2500000019}},{"attributes":{"ID":136633,"DIS_CODE":0,"TOWNNAME":"新化區","LI":"唪口里","LIN":"6鄰","STREET":" ","SECT":" ","MAREA":"唪口","LANE":" ","ALLEY":" ","HOUSE_NO":"８５號之８","E_COORD97":177993.64999999999,"N_COORD97":2549105.2599999998,"ADDRESS":"唪口８５號之８","OBJECTID":136633},"geometry":{"x":177993.65000000037,"y":2549105.2600000016}},{"attributes":{"ID":136634,"DIS_CODE":0,"TOWNNAME":"後壁區","LI":"侯伯里","LIN":" ","STREET":" ","SECT":" ","MAREA":"後壁寮","LANE":" ","ALLEY":" ","HOUSE_NO":"１１５號","E_COORD97":185253.95000000001,"N_COORD97":2585438.25,"ADDRESS":"後壁寮１１５號","OBJECTID":136634},"geometry":{"x":185253.95000000205,"y":2585438.25}},{"attributes":{"ID":136635,"DIS_CODE":0,"TOWNNAME":"後壁區","LI":"侯伯里","LIN":"14鄰","STREET":" ","SECT":" ","MAREA":"後壁寮","LANE":" ","ALLEY":" ","HOUSE_NO":"１１７號","E_COORD97":185233.26999999999,"N_COORD97":2585425.8700000001,"ADDRESS":"後壁寮１１７號","OBJECTID":136635},"geometry":{"x":185233.26999999955,"y":2585425.870000001}},{"attributes":{"ID":136636,"DIS_CODE":0,"TOWNNAME":"安南區","LI":"\u25A0南里","LIN":"27鄰","STREET":"環福街","SECT":" ","MAREA":" ","LANE":"２１６巷","ALLEY":"３弄","HOUSE_NO":"１２號","E_COORD97":170298.31,"N_COORD97":2552690.8199999998,"ADDRESS":"環福街２１６巷３弄１２號","OBJECTID":136636},"geometry":{"x":170298.31000000052,"y":2552690.8200000003}},{"attributes":{"ID":136637,"DIS_CODE":0,"TOWNNAME":"安南區","LI":"\u25A0南里","LIN":"27鄰","STREET":"環福街","SECT":" ","MAREA":" ","LANE":"２１６巷","ALLEY":"３弄","HOUSE_NO":"２號","E_COORD97":170288.10000000001,"N_COORD97":2552671.4900000002,"ADDRESS":"環福街２１６巷３弄２號","OBJECTID":136637},"geometry":{"x":170288.09999999963,"y":2552671.4900000021}},{"attributes":{"ID":136638,"DIS_CODE":0,"TOWNNAME":"永康區","LI":"復興里","LIN":"27鄰","STREET":"復興路","SECT":" ","MAREA":" ","LANE":"２７７巷","ALLEY":"２２弄","HOUSE_NO":"１０號","E_COORD97":172292.22,"N_COORD97":2544212.0299999998,"ADDRESS":"復興路２７７巷２２弄１０號","OBJECTID":136638},"geometry":{"x":172292.22000000067,"y":2544212.0299999993}},{"attributes":{"ID":136639,"DIS_CODE":0,"TOWNNAME":"後壁區","LI":"侯伯里","LIN":" ","STREET":" ","SECT":" ","MAREA":"後壁寮","LANE":" ","ALLEY":" ","HOUSE_NO":"１２８號","E_COORD97":185209.37,"N_COORD97":2585511.8700000001,"ADDRESS":"後壁寮１２８號","OBJECTID":136639},"geometry":{"x":185209.37000000104,"y":2585511.8700000029}},{"attributes":{"ID":136640,"DIS_CODE":0,"TOWNNAME":"永康區","LI":"龍潭里","LIN":"27鄰","STREET":"中山北路","SECT":" ","MAREA":" ","LANE":"４６１巷","ALLEY":"３０弄","HOUSE_NO":"５號","E_COORD97":175118.35999999999,"N_COORD97":2547875.3399999999,"ADDRESS":"中山北路４６１巷３０弄５號","OBJECTID":136640},"geometry":{"x":175118.36000000034,"y":2547875.3399999999}},{"attributes":{"ID":136641,"DIS_CODE":0,"TOWNNAME":"永康區","LI":"龍潭里","LIN":"27鄰","STREET":"中山北路","SECT":" ","MAREA":" ","LANE":"４６１巷","ALLEY":"３０弄","HOUSE_NO":"１５號","E_COORD97":175140.04000000001,"N_COORD97":2547875.8599999999,"ADDRESS":"中山北路４６１巷３０弄１５號","OBJECTID":136641},"geometry":{"x":175140.04000000097,"y":2547875.8599999975}},{"attributes":{"ID":136642,"DIS_CODE":0,"TOWNNAME":"永康區","LI":"龍潭里","LIN":"27鄰","STREET":"中山北路","SECT":" ","MAREA":" ","LANE":"４６１巷","ALLEY":"３０弄","HOUSE_NO":"７號","E_COORD97":175123.09,"N_COORD97":2547874.6099999999,"ADDRESS":"中山北路４６１巷３０弄７號","OBJECTID":136642},"geometry":{"x":175123.08999999985,"y":2547874.6100000031}},{"attributes":{"ID":136643,"DIS_CODE":0,"TOWNNAME":"後壁區","LI":"侯伯里","LIN":" ","STREET":" ","SECT":" ","MAREA":"後壁寮","LANE":" ","ALLEY":" ","HOUSE_NO":"１５之２號","E_COORD97":186064.13,"N_COORD97":2585526.8799999999,"ADDRESS":"後壁寮１５之２號","OBJECTID":136643},"geometry":{"x":186064.12999999989,"y":2585526.8800000008}},{"attributes":{"ID":136644,"DIS_CODE":0,"TOWNNAME":"後壁區","LI":"侯伯里","LIN":" ","STREET":" ","SECT":" ","MAREA":"後壁寮","LANE":" ","ALLEY":" ","HOUSE_NO":"１７０號","E_COORD97":184220.25,"N_COORD97":2585110.8300000001,"ADDRESS":"後壁寮１７０號","OBJECTID":136644},"geometry":{"x":184220.25,"y":2585110.8300000019}},{"attributes":{"ID":136645,"DIS_CODE":0,"TOWNNAME":"後壁區","LI":"侯伯里","LIN":" ","STREET":" ","SECT":" ","MAREA":"後壁寮","LANE":" ","ALLEY":" ","HOUSE_NO":"１９之５號","E_COORD97":185933,"N_COORD97":2585599.5499999998,"ADDRESS":"後壁寮１９之５號","OBJECTID":136645},"geometry":{"x":185932.99999999907,"y":2585599.5500000007}},{"attributes":{"ID":136646,"DIS_CODE":0,"TOWNNAME":"新營區","LI":"民權里","LIN":"6鄰","STREET":"信義街","SECT":" ","MAREA":" ","LANE":" ","ALLEY":" ","HOUSE_NO":"１３號","E_COORD97":179950.69,"N_COORD97":2578128.8599999999,"ADDRESS":"信義街１３號","OBJECTID":136646},"geometry":{"x":179950.69000000134,"y":2578128.8600000013}},{"attributes":{"ID":136647,"DIS_CODE":0,"TOWNNAME":"後壁區","LI":"侯伯里","LIN":" ","STREET":" ","SECT":" ","MAREA":"後壁寮","LANE":" ","ALLEY":" ","HOUSE_NO":"１９號","E_COORD97":186002.75,"N_COORD97":2585629.2799999998,"ADDRESS":"後壁寮１９號","OBJECTID":136647},"geometry":{"x":186002.75000000186,"y":2585629.2800000012}},{"attributes":{"ID":136648,"DIS_CODE":0,"TOWNNAME":"後壁區","LI":"侯伯里","LIN":"4鄰","STREET":" ","SECT":" ","MAREA":"後壁寮","LANE":" ","ALLEY":" ","HOUSE_NO":"２８號之１","E_COORD97":185479.51999999999,"N_COORD97":2585393.2599999998,"ADDRESS":"後壁寮２８號之１","OBJECTID":136648},"geometry":{"x":185479.51999999955,"y":2585393.2600000016}},{"attributes":{"ID":136649,"DIS_CODE":0,"TOWNNAME":"新化區","LI":"協興里","LIN":"6鄰","STREET":"太平街","SECT":" ","MAREA":" ","LANE":" ","ALLEY":" ","HOUSE_NO":"１２１號之１","E_COORD97":178373.35000000001,"N_COORD97":2548679.2599999998,"ADDRESS":"太平街１２１號之１","OBJECTID":136649},"geometry":{"x":178373.35000000056,"y":2548679.2599999998}},{"attributes":{"ID":136650,"DIS_CODE":0,"TOWNNAME":"新化區","LI":"羊林里","LIN":"6鄰","STREET":" ","SECT":" ","MAREA":"\u25A0拔林","LANE":" ","ALLEY":" ","HOUSE_NO":"４８７號之１８","E_COORD97":183396.82999999999,"N_COORD97":2551759.2599999998,"ADDRESS":"\u25A0拔林４８７號之１８","OBJECTID":136650},"geometry":{"x":183396.83000000101,"y":2551759.2600000035}},{"attributes":{"ID":136651,"DIS_CODE":0,"TOWNNAME":"新化區","LI":"護國里","LIN":"6鄰","STREET":"建國街","SECT":" ","MAREA":" ","LANE":" ","ALLEY":" ","HOUSE_NO":"１４號","E_COORD97":179227.67999999999,"N_COORD97":2548558.2599999998,"ADDRESS":"建國街１４號","OBJECTID":136651},"geometry":{"x":179227.68000000063,"y":2548558.2599999998}},{"attributes":{"ID":136652,"DIS_CODE":0,"TOWNNAME":"新化區","LI":"豐榮里","LIN":"6鄰","STREET":" ","SECT":" ","MAREA":"洋子","LANE":" ","ALLEY":" ","HOUSE_NO":"１３２號之１","E_COORD97":177912.51000000001,"N_COORD97":2548135.2599999998,"ADDRESS":"洋子１３２號之１","OBJECTID":136652},"geometry":{"x":177912.50999999978,"y":2548135.2600000016}},{"attributes":{"ID":136653,"DIS_CODE":0,"TOWNNAME":"永康區","LI":"龍潭里","LIN":"27鄰","STREET":"中山北路","SECT":" ","MAREA":" ","LANE":"４６１巷","ALLEY":"２９弄","HOUSE_NO":"１１號","E_COORD97":175062.57999999999,"N_COORD97":2547849.7999999998,"ADDRESS":"中山北路４６１巷２９弄１１號","OBJECTID":136653},"geometry":{"x":175062.58000000007,"y":2547849.8000000007}},{"attributes":{"ID":136654,"DIS_CODE":0,"TOWNNAME":"永康區","LI":"龍潭里","LIN":"27鄰","STREET":"中山北路","SECT":" ","MAREA":" ","LANE":"４６１巷","ALLEY":"３０弄","HOUSE_NO":"１１號","E_COORD97":175132.17999999999,"N_COORD97":2547875.1099999999,"ADDRESS":"中山北路４６１巷３０弄１１號","OBJECTID":136654},"geometry":{"x":175132.18000000063,"y":2547875.1100000013}},{"attributes":{"ID":136655,"DIS_CODE":0,"TOWNNAME":"永康區","LI":"龍潭里","LIN":"27鄰","STREET":"中山北路","SECT":" ","MAREA":" ","LANE":"４６１巷","ALLEY":"３０弄","HOUSE_NO":"９號","E_COORD97":175127.09,"N_COORD97":2547874.8599999999,"ADDRESS":"中山北路４６１巷３０弄９號","OBJECTID":136655},"geometry":{"x":175127.08999999892,"y":2547874.8599999994}},{"attributes":{"ID":136656,"DIS_CODE":0,"TOWNNAME":"永康區","LI":"龍潭里","LIN":"27鄰","STREET":"中山北路","SECT":" ","MAREA":" ","LANE":"４６１巷","ALLEY":"３０弄","HOUSE_NO":"１２號","E_COORD97":175138.39999999999,"N_COORD97":2547861.4399999999,"ADDRESS":"中山北路４６１巷３０弄１２號","OBJECTID":136656},"geometry":{"x":175138.40000000037,"y":2547861.4399999995}},{"attributes":{"ID":136657,"DIS_CODE":0,"TOWNNAME":"新化區","LI":"唪口里","LIN":"6鄰","STREET":" ","SECT":" ","MAREA":"唪口","LANE":" ","ALLEY":" ","HOUSE_NO":"７８號","E_COORD97":178013.70000000001,"N_COORD97":2549062.25,"ADDRESS":"唪口７８號","OBJECTID":136657},"geometry":{"x":178013.70000000205,"y":2549062.2500000019}},{"attributes":{"ID":136658,"DIS_CODE":0,"TOWNNAME":"新化區","LI":"唪口里","LIN":"6鄰","STREET":" ","SECT":" ","MAREA":"唪口","LANE":" ","ALLEY":" ","HOUSE_NO":"８５號之１","E_COORD97":177974.13,"N_COORD97":2549086.2599999998,"ADDRESS":"唪口８５號之１","OBJECTID":136658},"geometry":{"x":177974.12999999989,"y":2549086.2599999998}},{"attributes":{"ID":136659,"DIS_CODE":0,"TOWNNAME":"新化區","LI":"豐榮里","LIN":"6鄰","STREET":" ","SECT":" ","MAREA":"洋子","LANE":" ","ALLEY":" ","HOUSE_NO":"１３０號","E_COORD97":177900.07999999999,"N_COORD97":2548177.25,"ADDRESS":"洋子１３０號","OBJECTID":136659},"geometry":{"x":177900.08000000007,"y":2548177.2500000019}},{"attributes":{"ID":136660,"DIS_CODE":0,"TOWNNAME":"歸仁區","LI":"沙崙里","LIN":"6鄰","STREET":" ","SECT":" ","MAREA":"沙崙","LANE":" ","ALLEY":" ","HOUSE_NO":"２８１號","E_COORD97":179568.98000000001,"N_COORD97":2537986.25,"ADDRESS":"沙崙２８１號","OBJECTID":136660},"geometry":{"x":179568.98000000138,"y":2537986.25}},{"attributes":{"ID":136661,"DIS_CODE":0,"TOWNNAME":"後壁區","LI":"後壁里","LIN":"12鄰","STREET":" ","SECT":" ","MAREA":"後壁","LANE":" ","ALLEY":" ","HOUSE_NO":"３３２號之１０","E_COORD97":186382.71055700001,"N_COORD97":2585282.0563400001,"ADDRESS":"後壁寮３３２之１０號","OBJECTID":136661},"geometry":{"x":186382.71055699978,"y":2585282.056338001}},{"attributes":{"ID":136662,"DIS_CODE":0,"TOWNNAME":"後壁區","LI":"侯伯里","LIN":" ","STREET":" ","SECT":" ","MAREA":"後壁寮","LANE":" ","ALLEY":" ","HOUSE_NO":"４５號","E_COORD97":185417.04999999999,"N_COORD97":2585277.4100000001,"ADDRESS":"後壁寮４５號","OBJECTID":136662},"geometry":{"x":185417.04999999981,"y":2585277.410000002}},{"attributes":{"ID":136663,"DIS_CODE":0,"TOWNNAME":"後壁區","LI":"侯伯里","LIN":" ","STREET":" ","SECT":" ","MAREA":"後壁寮","LANE":" ","ALLEY":" ","HOUSE_NO":"４６之３號","E_COORD97":185455.17999999999,"N_COORD97":2585270.5800000001,"ADDRESS":"後壁寮４６之３號","OBJECTID":136663},"geometry":{"x":185455.18000000156,"y":2585270.5800000001}},{"attributes":{"ID":136664,"DIS_CODE":0,"TOWNNAME":"後壁區","LI":"侯伯里","LIN":" ","STREET":" ","SECT":" ","MAREA":"後壁寮","LANE":" ","ALLEY":" ","HOUSE_NO":"５０號","E_COORD97":185365.01000000001,"N_COORD97":2585174.98,"ADDRESS":"後壁寮５０號","OBJECTID":136664},"geometry":{"x":185365.01000000164,"y":2585174.9800000023}},{"attributes":{"ID":136665,"DIS_CODE":0,"TOWNNAME":"後壁區","LI":"侯伯里","LIN":" ","STREET":" ","SECT":" ","MAREA":"後壁寮","LANE":" ","ALLEY":" ","HOUSE_NO":"５９之１０２號","E_COORD97":185169.37,"N_COORD97":2585242.71,"ADDRESS":"後壁寮５９之１０２號","OBJECTID":136665},"geometry":{"x":185169.37000000011,"y":2585242.7100000009}},{"attributes":{"ID":136666,"DIS_CODE":0,"TOWNNAME":"後壁區","LI":"侯伯里","LIN":" ","STREET":" ","SECT":" ","MAREA":"後壁寮","LANE":" ","ALLEY":" ","HOUSE_NO":"６１之１號","E_COORD97":185273.45000000001,"N_COORD97":2585269.77,"ADDRESS":"後壁寮６１之１號","OBJECTID":136666},"geometry":{"x":185273.45000000019,"y":2585269.7700000014}},{"attributes":{"ID":136667,"DIS_CODE":0,"TOWNNAME":"永康區","LI":"復興里","LIN":"27鄰","STREET":"復興路","SECT":" ","MAREA":" ","LANE":"２７７巷","ALLEY":"２８弄","HOUSE_NO":"１０號","E_COORD97":172297.64999999999,"N_COORD97":2544193.77,"ADDRESS":"復興路２７７巷２８弄１０號","OBJECTID":136667},"geometry":{"x":172297.65000000037,"y":2544193.7699999996}},{"attributes":{"ID":136668,"DIS_CODE":0,"TOWNNAME":"後壁區","LI":"侯伯里","LIN":" ","STREET":" ","SECT":" ","MAREA":"後壁寮","LANE":" ","ALLEY":" ","HOUSE_NO":"８８號","E_COORD97":185349.67000000001,"N_COORD97":2585397.3799999999,"ADDRESS":"後壁寮８８號","OBJECTID":136668},"geometry":{"x":185349.66999999993,"y":2585397.3800000008}},{"attributes":{"ID":136669,"DIS_CODE":0,"TOWNNAME":"永康區","LI":"復興里","LIN":"27鄰","STREET":"復興路","SECT":" ","MAREA":" ","LANE":"２７７巷","ALLEY":"３４弄","HOUSE_NO":"４號","E_COORD97":172317.54000000001,"N_COORD97":2544177.77,"ADDRESS":"復興路２７７巷３４弄４號","OBJECTID":136669},"geometry":{"x":172317.54000000097,"y":2544177.7700000033}},{"attributes":{"ID":136670,"DIS_CODE":0,"TOWNNAME":"永康區","LI":"龍潭里","LIN":"27鄰","STREET":"中山北路","SECT":" ","MAREA":" ","LANE":"４６１巷","ALLEY":"１１弄","HOUSE_NO":"１３號","E_COORD97":175074.35999999999,"N_COORD97":2547803.6200000001,"ADDRESS":"中山北路４６１巷１１弄１３號","OBJECTID":136670},"geometry":{"x":175074.36000000034,"y":2547803.620000001}},{"attributes":{"ID":136671,"DIS_CODE":0,"TOWNNAME":"永康區","LI":"龍潭里","LIN":"27鄰","STREET":"中山北路","SECT":" ","MAREA":" ","LANE":"４６１巷","ALLEY":"３０弄","HOUSE_NO":"１４號","E_COORD97":175143.89999999999,"N_COORD97":2547861.9399999999,"ADDRESS":"中山北路４６１巷３０弄１４號","OBJECTID":136671},"geometry":{"x":175143.90000000037,"y":2547861.9400000032}},{"attributes":{"ID":136672,"DIS_CODE":0,"TOWNNAME":"永康區","LI":"復興里","LIN":"27鄰","STREET":"復興路","SECT":" ","MAREA":" ","LANE":"２７７巷","ALLEY":"３４弄","HOUSE_NO":"１１號","E_COORD97":172297.35999999999,"N_COORD97":2544168.7799999998,"ADDRESS":"復興路２７７巷３４弄１１號","OBJECTID":136672},"geometry":{"x":172297.36000000127,"y":2544168.7800000012}},{"attributes":{"ID":136673,"DIS_CODE":0,"TOWNNAME":"後壁區","LI":"崁頂里","LIN":" ","STREET":" ","SECT":" ","MAREA":"崁頂","LANE":" ","ALLEY":" ","HOUSE_NO":"１１號","E_COORD97":182673.53,"N_COORD97":2586805.9900000002,"ADDRESS":"崁頂１１號","OBJECTID":136673},"geometry":{"x":182673.53000000119,"y":2586805.9900000021}},{"attributes":{"ID":136674,"DIS_CODE":0,"TOWNNAME":"永康區","LI":"復興里","LIN":"27鄰","STREET":"復興路","SECT":" ","MAREA":" ","LANE":"２７７巷","ALLEY":"３４弄","HOUSE_NO":"１０號","E_COORD97":172298.09,"N_COORD97":2544177.02,"ADDRESS":"復興路２７７巷３４弄１０號","OBJECTID":136674},"geometry":{"x":172298.09000000078,"y":2544177.0200000014}},{"attributes":{"ID":136675,"DIS_CODE":0,"TOWNNAME":"後壁區","LI":"崁頂里","LIN":" ","STREET":" ","SECT":" ","MAREA":"崁頂","LANE":" ","ALLEY":" ","HOUSE_NO":"２７之２號","E_COORD97":182865.23999999999,"N_COORD97":2586713.9900000002,"ADDRESS":"崁頂２７之２號","OBJECTID":136675},"geometry":{"x":182865.24000000209,"y":2586713.9900000021}},{"attributes":{"ID":136676,"DIS_CODE":0,"TOWNNAME":"歸仁區","LI":"許厝里","LIN":"6鄰","STREET":"仁愛南街","SECT":" ","MAREA":" ","LANE":" ","ALLEY":" ","HOUSE_NO":"５９號","E_COORD97":178288.89000000001,"N_COORD97":2540471.9100000001,"ADDRESS":"仁愛南街５９號","OBJECTID":136676},"geometry":{"x":178288.8900000006,"y":2540471.9100000039}},{"attributes":{"ID":136677,"DIS_CODE":0,"TOWNNAME":"歸仁區","LI":"許厝里","LIN":"6鄰","STREET":"仁愛南街","SECT":" ","MAREA":" ","LANE":" ","ALLEY":" ","HOUSE_NO":"６１號","E_COORD97":178288.73999999999,"N_COORD97":2540467.8199999998,"ADDRESS":"仁愛南街６１號","OBJECTID":136677},"geometry":{"x":178288.74000000115,"y":2540467.8200000003}},{"attributes":{"ID":136678,"DIS_CODE":0,"TOWNNAME":"歸仁區","LI":"許厝里","LIN":"6鄰","STREET":"仁愛南街","SECT":" ","MAREA":" ","LANE":" ","ALLEY":" ","HOUSE_NO":"６３號","E_COORD97":178288.57000000001,"N_COORD97":2540464,"ADDRESS":"仁愛南街６３號","OBJECTID":136678},"geometry":{"x":178288.5700000003,"y":2540464}},{"attributes":{"ID":136679,"DIS_CODE":0,"TOWNNAME":"歸仁區","LI":"許厝里","LIN":"6鄰","STREET":"仁愛南街","SECT":" ","MAREA":" ","LANE":" ","ALLEY":" ","HOUSE_NO":"６５號","E_COORD97":178288.35999999999,"N_COORD97":2540459.6400000001,"ADDRESS":"仁愛南街６５號","OBJECTID":136679},"geometry":{"x":178288.36000000034,"y":2540459.6400000006}},{"attributes":{"ID":136680,"DIS_CODE":0,"TOWNNAME":"歸仁區","LI":"武東里","LIN":"6鄰","STREET":"高鐵七路","SECT":" ","MAREA":" ","LANE":" ","ALLEY":" ","HOUSE_NO":"２８號","E_COORD97":176029.60000000001,"N_COORD97":2535844.8300000001,"ADDRESS":"高鐵七路２８號","OBJECTID":136680},"geometry":{"x":176029.59999999963,"y":2535844.8300000019}},{"attributes":{"ID":136681,"DIS_CODE":0,"TOWNNAME":"歸仁區","LI":"武東里","LIN":"6鄰","STREET":"高鐵七路","SECT":" ","MAREA":" ","LANE":" ","ALLEY":" ","HOUSE_NO":"３０號","E_COORD97":176027.60000000001,"N_COORD97":2535838.1800000002,"ADDRESS":"高鐵七路３０號","OBJECTID":136681},"geometry":{"x":176027.60000000056,"y":2535838.1799999978}},{"attributes":{"ID":136682,"DIS_CODE":0,"TOWNNAME":"歸仁區","LI":"武東里","LIN":"6鄰","STREET":"高鐵三路","SECT":" ","MAREA":" ","LANE":" ","ALLEY":" ","HOUSE_NO":"９１號","E_COORD97":176246.92999999999,"N_COORD97":2535649.04,"ADDRESS":"高鐵三路９１號","OBJECTID":136682},"geometry":{"x":176246.93000000156,"y":2535649.0400000028}},{"attributes":{"ID":136683,"DIS_CODE":0,"TOWNNAME":"歸仁區","LI":"新厝里","LIN":"6鄰","STREET":"復興路","SECT":" ","MAREA":" ","LANE":" ","ALLEY":" ","HOUSE_NO":"１４３號","E_COORD97":177702.04999999999,"N_COORD97":2540625.0499999998,"ADDRESS":"復興路１４３號","OBJECTID":136683},"geometry":{"x":177702.04999999981,"y":2540625.0500000026}},{"attributes":{"ID":136684,"DIS_CODE":0,"TOWNNAME":"永康區","LI":"龍潭里","LIN":"27鄰","STREET":"中山北路","SECT":" ","MAREA":" ","LANE":"４６１巷","ALLEY":"３０弄","HOUSE_NO":"１０號","E_COORD97":175134.20000000001,"N_COORD97":2547861.1899999999,"ADDRESS":"中山北路４６１巷３０弄１０號","OBJECTID":136684},"geometry":{"x":175134.20000000112,"y":2547861.1900000013}},{"attributes":{"ID":136685,"DIS_CODE":0,"TOWNNAME":"歸仁區","LI":"武東里","LIN":"6鄰","STREET":"歸仁十六路","SECT":" ","MAREA":" ","LANE":" ","ALLEY":" ","HOUSE_NO":"１２３號","E_COORD97":176148.54000000001,"N_COORD97":2535625.6099999999,"ADDRESS":"歸仁十六路１２３號","OBJECTID":136685},"geometry":{"x":176148.54000000097,"y":2535625.6100000013}},{"attributes":{"ID":136686,"DIS_CODE":0,"TOWNNAME":"永康區","LI":"龍潭里","LIN":"27鄰","STREET":"中山北路","SECT":" ","MAREA":" ","LANE":"４６１巷","ALLEY":"３０弄","HOUSE_NO":"１７號","E_COORD97":175145.53,"N_COORD97":2547876.3599999999,"ADDRESS":"中山北路４６１巷３０弄１７號","OBJECTID":136686},"geometry":{"x":175145.53000000119,"y":2547876.3600000013}},{"attributes":{"ID":136687,"DIS_CODE":0,"TOWNNAME":"東區","LI":"富強里","LIN":"27鄰","STREET":"東門路","SECT":"二段","MAREA":" ","LANE":"３０１巷","ALLEY":"８０弄","HOUSE_NO":"１７號","E_COORD97":170945.64000000001,"N_COORD97":2542667.4900000002,"ADDRESS":"東門路二段３０１巷８０弄１７號","OBJECTID":136687},"geometry":{"x":170945.63999999966,"y":2542667.4900000002}},{"attributes":{"ID":136688,"DIS_CODE":0,"TOWNNAME":"東區","LI":"富強里","LIN":"27鄰","STREET":"東門路","SECT":"二段","MAREA":" ","LANE":"３０１巷","ALLEY":"８０弄","HOUSE_NO":"２０號","E_COORD97":170931.09,"N_COORD97":2542661,"ADDRESS":"東門路二段３０１巷８０弄２０號","OBJECTID":136688},"geometry":{"x":170931.08999999985,"y":2542661}},{"attributes":{"ID":136689,"DIS_CODE":0,"TOWNNAME":"東區","LI":"富強里","LIN":"27鄰","STREET":"東門路","SECT":"二段","MAREA":" ","LANE":"３０１巷","ALLEY":"８０弄","HOUSE_NO":"２４號","E_COORD97":170933.04999999999,"N_COORD97":2542656.6299999999,"ADDRESS":"東門路二段３０１巷８０弄２４號","OBJECTID":136689},"geometry":{"x":170933.04999999981,"y":2542656.6300000008}},{"attributes":{"ID":136690,"DIS_CODE":0,"TOWNNAME":"東區","LI":"富強里","LIN":"27鄰","STREET":"東門路","SECT":"二段","MAREA":" ","LANE":"３０１巷","ALLEY":"８０弄","HOUSE_NO":"２５號","E_COORD97":170948.23000000001,"N_COORD97":2542644.7200000002,"ADDRESS":"東門路二段３０１巷８０弄２５號","OBJECTID":136690},"geometry":{"x":170948.23000000231,"y":2542644.7200000025}},{"attributes":{"ID":136691,"DIS_CODE":0,"TOWNNAME":"東區","LI":"富強里","LIN":"27鄰","STREET":"東門路","SECT":"二段","MAREA":" ","LANE":"３０１巷","ALLEY":"８０弄","HOUSE_NO":"２６號","E_COORD97":170932.89999999999,"N_COORD97":2542652.1000000001,"ADDRESS":"東門路二段３０１巷８０弄２６號","OBJECTID":136691},"geometry":{"x":170932.90000000037,"y":2542652.0999999996}},{"attributes":{"ID":136692,"DIS_CODE":0,"TOWNNAME":"仁德區","LI":"仁愛里","LIN":"28鄰","STREET":"大同路","SECT":"三段","MAREA":" ","LANE":"４５６巷","ALLEY":" ","HOUSE_NO":"３０號","E_COORD97":169723.28,"N_COORD97":2539294.5299999998,"ADDRESS":"大同路三段４５６巷３０號","OBJECTID":136692},"geometry":{"x":169723.28000000026,"y":2539294.5300000012}},{"attributes":{"ID":136693,"DIS_CODE":0,"TOWNNAME":"歸仁區","LI":"武東里","LIN":"6鄰","STREET":"歸仁十六路","SECT":" ","MAREA":" ","LANE":" ","ALLEY":" ","HOUSE_NO":"１２５號","E_COORD97":176139.20000000001,"N_COORD97":2535629.1600000001,"ADDRESS":"歸仁十六路１２５號","OBJECTID":136693},"geometry":{"x":176139.20000000112,"y":2535629.160000002}},{"attributes":{"ID":136694,"DIS_CODE":0,"TOWNNAME":"歸仁區","LI":"沙崙里","LIN":"6鄰","STREET":" ","SECT":" ","MAREA":"沙崙","LANE":" ","ALLEY":" ","HOUSE_NO":"２７３號","E_COORD97":179588.38,"N_COORD97":2537972.25,"ADDRESS":"沙崙２７３號","OBJECTID":136694},"geometry":{"x":179588.37999999989,"y":2537972.2500000019}},{"attributes":{"ID":136695,"DIS_CODE":0,"TOWNNAME":"後壁區","LI":"崁頂里","LIN":" ","STREET":" ","SECT":" ","MAREA":"崁頂","LANE":" ","ALLEY":" ","HOUSE_NO":"２７之３號","E_COORD97":182868.98000000001,"N_COORD97":2586713.6600000001,"ADDRESS":"崁頂２７之３號","OBJECTID":136695},"geometry":{"x":182868.98000000138,"y":2586713.6600000001}},{"attributes":{"ID":136696,"DIS_CODE":0,"TOWNNAME":"後壁區","LI":"崁頂里","LIN":" ","STREET":" ","SECT":" ","MAREA":"崁頂","LANE":" ","ALLEY":" ","HOUSE_NO":"３４號","E_COORD97":182931.87,"N_COORD97":2586835.52,"ADDRESS":"崁頂３４號","OBJECTID":136696},"geometry":{"x":182931.87000000197,"y":2586835.5200000014}},{"attributes":{"ID":136697,"DIS_CODE":0,"TOWNNAME":"後壁區","LI":"崁頂里","LIN":" ","STREET":" ","SECT":" ","MAREA":"崁頂","LANE":" ","ALLEY":" ","HOUSE_NO":"４９之１號","E_COORD97":183134.76999999999,"N_COORD97":2586697.0699999998,"ADDRESS":"崁頂４９之１號","OBJECTID":136697},"geometry":{"x":183134.76999999955,"y":2586697.0700000022}},{"attributes":{"ID":136698,"DIS_CODE":0,"TOWNNAME":"後壁區","LI":"崁頂里","LIN":" ","STREET":" ","SECT":" ","MAREA":"崁頂","LANE":" ","ALLEY":" ","HOUSE_NO":"６８號","E_COORD97":183063.48999999999,"N_COORD97":2586669.3900000001,"ADDRESS":"崁頂６８號","OBJECTID":136698},"geometry":{"x":183063.49000000209,"y":2586669.3900000006}},{"attributes":{"ID":136699,"DIS_CODE":0,"TOWNNAME":"後壁區","LI":"崁頂里","LIN":" ","STREET":" ","SECT":" ","MAREA":"崁頂","LANE":" ","ALLEY":" ","HOUSE_NO":"６９號","E_COORD97":183052.70999999999,"N_COORD97":2586653.4700000002,"ADDRESS":"崁頂６９號","OBJECTID":136699},"geometry":{"x":183052.70999999996,"y":2586653.4700000025}},{"attributes":{"ID":136700,"DIS_CODE":0,"TOWNNAME":"後壁區","LI":"崁頂里","LIN":" ","STREET":" ","SECT":" ","MAREA":"崁頂","LANE":" ","ALLEY":" ","HOUSE_NO":"８１號","E_COORD97":183005.95000000001,"N_COORD97":2586659.1000000001,"ADDRESS":"崁頂８１號","OBJECTID":136700},"geometry":{"x":183005.94999999925,"y":2586659.0999999996}},{"attributes":{"ID":136701,"DIS_CODE":0,"TOWNNAME":"後壁區","LI":"崁頂里","LIN":" ","STREET":" ","SECT":" ","MAREA":"崁頂","LANE":" ","ALLEY":" ","HOUSE_NO":"８２之１號","E_COORD97":183016.63,"N_COORD97":2586614.8700000001,"ADDRESS":"崁頂８２之１號","OBJECTID":136701},"geometry":{"x":183016.63000000082,"y":2586614.870000001}},{"attributes":{"ID":136702,"DIS_CODE":0,"TOWNNAME":"後壁區","LI":"崁頂里","LIN":" ","STREET":" ","SECT":" ","MAREA":"崁頂","LANE":" ","ALLEY":" ","HOUSE_NO":"８５號","E_COORD97":182973.07999999999,"N_COORD97":2586587.6400000001,"ADDRESS":"崁頂８５號","OBJECTID":136702},"geometry":{"x":182973.08000000101,"y":2586587.6400000025}},{"attributes":{"ID":136703,"DIS_CODE":0,"TOWNNAME":"後壁區","LI":"崁頂里","LIN":" ","STREET":" ","SECT":" ","MAREA":"崁頂","LANE":" ","ALLEY":" ","HOUSE_NO":"８８之１號","E_COORD97":182948.07000000001,"N_COORD97":2586556.8700000001,"ADDRESS":"崁頂８８之１號","OBJECTID":136703},"geometry":{"x":182948.07000000123,"y":2586556.870000001}},{"attributes":{"ID":136704,"DIS_CODE":0,"TOWNNAME":"後壁區","LI":"崁頂里","LIN":" ","STREET":" ","SECT":" ","MAREA":"崁頂","LANE":" ","ALLEY":" ","HOUSE_NO":"８９之１號","E_COORD97":182924.12,"N_COORD97":2586681.3399999999,"ADDRESS":"崁頂８９之１號","OBJECTID":136704},"geometry":{"x":182924.12000000104,"y":2586681.3399999999}},{"attributes":{"ID":136705,"DIS_CODE":0,"TOWNNAME":"後壁區","LI":"崁頂里","LIN":" ","STREET":" ","SECT":" ","MAREA":"崁頂","LANE":" ","ALLEY":" ","HOUSE_NO":"９１之３號","E_COORD97":182865.59,"N_COORD97":2586692.02,"ADDRESS":"崁頂９１之３號","OBJECTID":136705},"geometry":{"x":182865.58999999985,"y":2586692.0200000014}},{"attributes":{"ID":136706,"DIS_CODE":0,"TOWNNAME":"後壁區","LI":"烏樹里","LIN":" ","STREET":" ","SECT":" ","MAREA":"烏樹林","LANE":" ","ALLEY":" ","HOUSE_NO":"１０４號","E_COORD97":186300.53,"N_COORD97":2581268.3900000001,"ADDRESS":"烏樹林１０４號","OBJECTID":136706},"geometry":{"x":186300.53000000026,"y":2581268.3900000006}},{"attributes":{"ID":136707,"DIS_CODE":0,"TOWNNAME":"後壁區","LI":"烏樹里","LIN":" ","STREET":" ","SECT":" ","MAREA":"烏樹林","LANE":" ","ALLEY":" ","HOUSE_NO":"１０８號","E_COORD97":186320.82000000001,"N_COORD97":2581220.4300000002,"ADDRESS":"烏樹林１０８號","OBJECTID":136707},"geometry":{"x":186320.8200000003,"y":2581220.4300000034}},{"attributes":{"ID":136708,"DIS_CODE":0,"TOWNNAME":"後壁區","LI":"烏樹里","LIN":" ","STREET":" ","SECT":" ","MAREA":"烏樹林","LANE":" ","ALLEY":" ","HOUSE_NO":"１１９號","E_COORD97":186277.64999999999,"N_COORD97":2581171.6200000001,"ADDRESS":"烏樹林１１９號","OBJECTID":136708},"geometry":{"x":186277.65000000037,"y":2581171.620000001}},{"attributes":{"ID":136709,"DIS_CODE":0,"TOWNNAME":"南區","LI":"再興里","LIN":"6鄰","STREET":"三官路","SECT":" ","MAREA":" ","LANE":" ","ALLEY":" ","HOUSE_NO":"１０８之１號","E_COORD97":167319.57999999999,"N_COORD97":2542154.0600000001,"ADDRESS":"三官路１０８之１號","OBJECTID":136709},"geometry":{"x":167319.58000000194,"y":2542154.0600000024}},{"attributes":{"ID":136710,"DIS_CODE":0,"TOWNNAME":"南區","LI":"文華里","LIN":"6鄰","STREET":"金華路","SECT":"二段","MAREA":" ","LANE":" ","ALLEY":" ","HOUSE_NO":"３４７號","E_COORD97":167126.13,"N_COORD97":2542934.0699999998,"ADDRESS":"金華路二段３４７號","OBJECTID":136710},"geometry":{"x":167126.13000000082,"y":2542934.0700000022}},{"attributes":{"ID":136711,"DIS_CODE":0,"TOWNNAME":"南區","LI":"文華里","LIN":"6鄰","STREET":"金華路","SECT":"二段","MAREA":" ","LANE":" ","ALLEY":" ","HOUSE_NO":"３４９號","E_COORD97":167126.31,"N_COORD97":2542940.4500000002,"ADDRESS":"金華路二段３４９號","OBJECTID":136711},"geometry":{"x":167126.31000000052,"y":2542940.4500000011}},{"attributes":{"ID":136712,"DIS_CODE":0,"TOWNNAME":"南區","LI":"文華里","LIN":"6鄰","STREET":"金華路","SECT":"二段","MAREA":" ","LANE":" ","ALLEY":" ","HOUSE_NO":"３５１號","E_COORD97":167127.12,"N_COORD97":2542947.3500000001,"ADDRESS":"金華路二段３５１號","OBJECTID":136712},"geometry":{"x":167127.12000000011,"y":2542947.3500000015}},{"attributes":{"ID":136713,"DIS_CODE":0,"TOWNNAME":"東區","LI":"富強里","LIN":"27鄰","STREET":"東門路","SECT":"二段","MAREA":" ","LANE":"３０１巷","ALLEY":"８０弄","HOUSE_NO":"２８號","E_COORD97":170931.69,"N_COORD97":2542642.4399999999,"ADDRESS":"東門路二段３０１巷８０弄２８號","OBJECTID":136713},"geometry":{"x":170931.69000000134,"y":2542642.4400000013}},{"attributes":{"ID":136714,"DIS_CODE":0,"TOWNNAME":"東區","LI":"富強里","LIN":"27鄰","STREET":"裕農路","SECT":" ","MAREA":" ","LANE":"２８８巷","ALLEY":"７０弄","HOUSE_NO":"１１號","E_COORD97":170952.82999999999,"N_COORD97":2542896.0899999999,"ADDRESS":"裕農路２８８巷７０弄１１號","OBJECTID":136714},"geometry":{"x":170952.83000000101,"y":2542896.0900000017}},{"attributes":{"ID":136715,"DIS_CODE":0,"TOWNNAME":"東區","LI":"富強里","LIN":"27鄰","STREET":"裕農路","SECT":" ","MAREA":" ","LANE":"２８８巷","ALLEY":"７０弄","HOUSE_NO":"１３號","E_COORD97":170953.41,"N_COORD97":2542892.0699999998,"ADDRESS":"裕農路２８８巷７０弄１３號","OBJECTID":136715},"geometry":{"x":170953.40999999922,"y":2542892.0700000022}},{"attributes":{"ID":136716,"DIS_CODE":0,"TOWNNAME":"東區","LI":"富強里","LIN":"27鄰","STREET":"裕農路","SECT":" ","MAREA":" ","LANE":"２８８巷","ALLEY":"７０弄","HOUSE_NO":"１５號","E_COORD97":170953.17999999999,"N_COORD97":2542887.3199999998,"ADDRESS":"裕農路２８８巷７０弄１５號","OBJECTID":136716},"geometry":{"x":170953.18000000063,"y":2542887.3200000022}},{"attributes":{"ID":136717,"DIS_CODE":0,"TOWNNAME":"東區","LI":"富強里","LIN":"27鄰","STREET":"裕農路","SECT":" ","MAREA":" ","LANE":"２８８巷","ALLEY":"７０弄","HOUSE_NO":"１７號","E_COORD97":170953.81,"N_COORD97":2542882.3900000001,"ADDRESS":"裕農路２８８巷７０弄１７號","OBJECTID":136717},"geometry":{"x":170953.81000000052,"y":2542882.3900000006}},{"attributes":{"ID":136718,"DIS_CODE":0,"TOWNNAME":"東區","LI":"富強里","LIN":"27鄰","STREET":"裕農路","SECT":" ","MAREA":" ","LANE":"２８８巷","ALLEY":"７０弄","HOUSE_NO":"２３號","E_COORD97":170954.89999999999,"N_COORD97":2542864.77,"ADDRESS":"裕農路２８８巷７０弄２３號","OBJECTID":136718},"geometry":{"x":170954.90000000037,"y":2542864.7699999996}},{"attributes":{"ID":136719,"DIS_CODE":0,"TOWNNAME":"東區","LI":"富強里","LIN":"27鄰","STREET":"裕農路","SECT":" ","MAREA":" ","LANE":"２８８巷","ALLEY":"７０弄","HOUSE_NO":"３１號","E_COORD97":170954.19,"N_COORD97":2542852.7400000002,"ADDRESS":"裕農路２８８巷７０弄３１號","OBJECTID":136719},"geometry":{"x":170954.19000000134,"y":2542852.7400000002}},{"attributes":{"ID":136720,"DIS_CODE":0,"TOWNNAME":"東區","LI":"富強里","LIN":"27鄰","STREET":"裕農路","SECT":" ","MAREA":" ","LANE":"２８８巷","ALLEY":"７０弄","HOUSE_NO":"３１號之２","E_COORD97":170961.20999999999,"N_COORD97":2542851.3100000001,"ADDRESS":"裕農路２８８巷７０弄３１號之２","OBJECTID":136720},"geometry":{"x":170961.20999999996,"y":2542851.3100000024}},{"attributes":{"ID":136721,"DIS_CODE":0,"TOWNNAME":"東區","LI":"富強里","LIN":"27鄰","STREET":"裕農路","SECT":" ","MAREA":" ","LANE":"２８８巷","ALLEY":"７０弄","HOUSE_NO":"３９號","E_COORD97":170965.29000000001,"N_COORD97":2542824.3900000001,"ADDRESS":"裕農路２８８巷７０弄３９號","OBJECTID":136721},"geometry":{"x":170965.29000000004,"y":2542824.3900000006}},{"attributes":{"ID":136722,"DIS_CODE":0,"TOWNNAME":"東區","LI":"富強里","LIN":"27鄰","STREET":"裕農路","SECT":" ","MAREA":" ","LANE":"２８８巷","ALLEY":"７０弄","HOUSE_NO":"３９號之２","E_COORD97":170973.09,"N_COORD97":2542824.8999999999,"ADDRESS":"裕農路２８８巷７０弄３９號之２","OBJECTID":136722},"geometry":{"x":170973.09000000078,"y":2542824.8999999985}},{"attributes":{"ID":136723,"DIS_CODE":0,"TOWNNAME":"東區","LI":"富強里","LIN":"27鄰","STREET":"裕農路","SECT":" ","MAREA":" ","LANE":"２８８巷","ALLEY":"７０弄","HOUSE_NO":"３號","E_COORD97":170951.10999999999,"N_COORD97":2542914.1200000001,"ADDRESS":"裕農路２８８巷７０弄３號","OBJECTID":136723},"geometry":{"x":170951.11000000127,"y":2542914.1200000029}},{"attributes":{"ID":136724,"DIS_CODE":0,"TOWNNAME":"東區","LI":"富強里","LIN":"27鄰","STREET":"裕農路","SECT":" ","MAREA":" ","LANE":"２８８巷","ALLEY":"７０弄","HOUSE_NO":"４３號","E_COORD97":170956.5,"N_COORD97":2542805.5800000001,"ADDRESS":"裕農路２８８巷７０弄４３號","OBJECTID":136724},"geometry":{"x":170956.50000000093,"y":2542805.5800000001}},{"attributes":{"ID":136725,"DIS_CODE":0,"TOWNNAME":"東區","LI":"富強里","LIN":"27鄰","STREET":"裕農路","SECT":" ","MAREA":" ","LANE":"２８８巷","ALLEY":"７０弄","HOUSE_NO":"４９號","E_COORD97":170958.04999999999,"N_COORD97":2542782.8900000001,"ADDRESS":"裕農路２８８巷７０弄４９號","OBJECTID":136725},"geometry":{"x":170958.05000000075,"y":2542782.8900000025}},{"attributes":{"ID":136726,"DIS_CODE":0,"TOWNNAME":"東區","LI":"富強里","LIN":"27鄰","STREET":"裕農路","SECT":" ","MAREA":" ","LANE":"２８８巷","ALLEY":"７０弄","HOUSE_NO":"５３號","E_COORD97":170958.89999999999,"N_COORD97":2542768.52,"ADDRESS":"裕農路２８８巷７０弄５３號","OBJECTID":136726},"geometry":{"x":170958.90000000224,"y":2542768.5199999996}},{"attributes":{"ID":136727,"DIS_CODE":0,"TOWNNAME":"後壁區","LI":"崁頂里","LIN":" ","STREET":" ","SECT":" ","MAREA":"崩埤","LANE":" ","ALLEY":" ","HOUSE_NO":"２９號","E_COORD97":184766.60999999999,"N_COORD97":2587799.25,"ADDRESS":"崩埤２９號","OBJECTID":136727},"geometry":{"x":184766.61000000127,"y":2587799.2500000037}},{"attributes":{"ID":136728,"DIS_CODE":0,"TOWNNAME":"東區","LI":"富強里","LIN":"27鄰","STREET":"裕農路","SECT":" ","MAREA":" ","LANE":"２８８巷","ALLEY":"７０弄","HOUSE_NO":"５號","E_COORD97":170951.91,"N_COORD97":2542909.1899999999,"ADDRESS":"裕農路２８８巷７０弄５號","OBJECTID":136728},"geometry":{"x":170951.91000000201,"y":2542909.1899999995}},{"attributes":{"ID":136729,"DIS_CODE":0,"TOWNNAME":"永康區","LI":"正強里","LIN":"27鄰","STREET":"中正路","SECT":" ","MAREA":" ","LANE":"１５５巷","ALLEY":"６弄","HOUSE_NO":"１０號","E_COORD97":173200.88,"N_COORD97":2547831.4900000002,"ADDRESS":"中正路１５５巷６弄１０號","OBJECTID":136729},"geometry":{"x":173200.87999999989,"y":2547831.4900000002}},{"attributes":{"ID":136730,"DIS_CODE":0,"TOWNNAME":"後壁區","LI":"烏樹里","LIN":" ","STREET":" ","SECT":" ","MAREA":"烏樹林","LANE":" ","ALLEY":" ","HOUSE_NO":"１２６之１號","E_COORD97":186221.85000000001,"N_COORD97":2580994.8100000001,"ADDRESS":"烏樹林１２６之１號","OBJECTID":136730},"geometry":{"x":186221.8499999987,"y":2580994.8100000042}},{"attributes":{"ID":136731,"DIS_CODE":0,"TOWNNAME":"永康區","LI":"龍潭里","LIN":"27鄰","STREET":"中山北路","SECT":" ","MAREA":" ","LANE":"４６１巷","ALLEY":"２９弄","HOUSE_NO":"１４號","E_COORD97":175084.01999999999,"N_COORD97":2547869.75,"ADDRESS":"中山北路４６１巷２９弄１４號","OBJECTID":136731},"geometry":{"x":175084.02000000048,"y":2547869.75}},{"attributes":{"ID":136732,"DIS_CODE":0,"TOWNNAME":"永康區","LI":"東橋里","LIN":"27鄰","STREET":"中正路","SECT":" ","MAREA":" ","LANE":"２７９巷","ALLEY":"２１弄","HOUSE_NO":"２４號","E_COORD97":172489.57999999999,"N_COORD97":2547807.1800000002,"ADDRESS":"中正路２７９巷２１弄２４號","OBJECTID":136732},"geometry":{"x":172489.58000000007,"y":2547807.1800000016}},{"attributes":{"ID":136733,"DIS_CODE":0,"TOWNNAME":"永康區","LI":"龍潭里","LIN":"27鄰","STREET":"中山北路","SECT":" ","MAREA":" ","LANE":"４６１巷","ALLEY":"２９弄","HOUSE_NO":"９號","E_COORD97":175065.45000000001,"N_COORD97":2547850.0499999998,"ADDRESS":"中山北路４６１巷２９弄９號","OBJECTID":136733},"geometry":{"x":175065.45000000019,"y":2547850.0500000026}},{"attributes":{"ID":136734,"DIS_CODE":0,"TOWNNAME":"永康區","LI":"復興里","LIN":"27鄰","STREET":"復興路","SECT":" ","MAREA":" ","LANE":"２７７巷","ALLEY":"２２弄","HOUSE_NO":"７號","E_COORD97":172302.64999999999,"N_COORD97":2544204.02,"ADDRESS":"復興路２７７巷２２弄７號","OBJECTID":136734},"geometry":{"x":172302.65000000037,"y":2544204.0200000014}},{"attributes":{"ID":136735,"DIS_CODE":0,"TOWNNAME":"永康區","LI":"龍潭里","LIN":"27鄰","STREET":"中山北路","SECT":" ","MAREA":" ","LANE":"４６１巷","ALLEY":"２９弄","HOUSE_NO":"３２號","E_COORD97":175043.29999999999,"N_COORD97":2547869.4199999999,"ADDRESS":"中山北路４６１巷２９弄３２號","OBJECTID":136735},"geometry":{"x":175043.30000000075,"y":2547869.4200000037}},{"attributes":{"ID":136736,"DIS_CODE":0,"TOWNNAME":"後壁區","LI":"烏樹里","LIN":" ","STREET":" ","SECT":" ","MAREA":"烏樹林","LANE":" ","ALLEY":" ","HOUSE_NO":"１３０之１號","E_COORD97":186282.98999999999,"N_COORD97":2580980.8900000001,"ADDRESS":"烏樹林１３０之１號","OBJECTID":136736},"geometry":{"x":186282.99000000115,"y":2580980.8900000043}},{"attributes":{"ID":136737,"DIS_CODE":0,"TOWNNAME":"後壁區","LI":"烏樹里","LIN":" ","STREET":" ","SECT":" ","MAREA":"烏樹林","LANE":" ","ALLEY":" ","HOUSE_NO":"１３０之２號","E_COORD97":186288.01000000001,"N_COORD97":2580995.1800000002,"ADDRESS":"烏樹林１３０之２號","OBJECTID":136737},"geometry":{"x":186288.00999999978,"y":2580995.1800000016}},{"attributes":{"ID":136738,"DIS_CODE":0,"TOWNNAME":"後壁區","LI":"烏樹里","LIN":" ","STREET":" ","SECT":" ","MAREA":"烏樹林","LANE":" ","ALLEY":" ","HOUSE_NO":"１３２之３號","E_COORD97":186304.35000000001,"N_COORD97":2581001.2999999998,"ADDRESS":"烏樹林１３２之３號","OBJECTID":136738},"geometry":{"x":186304.34999999963,"y":2581001.3000000007}},{"attributes":{"ID":136739,"DIS_CODE":0,"TOWNNAME":"後壁區","LI":"烏樹里","LIN":" ","STREET":" ","SECT":" ","MAREA":"烏樹林","LANE":" ","ALLEY":" ","HOUSE_NO":"１３２之９號","E_COORD97":186289.84,"N_COORD97":2581063.3799999999,"ADDRESS":"烏樹林１３２之９號","OBJECTID":136739},"geometry":{"x":186289.83999999985,"y":2581063.379999999}},{"attributes":{"ID":136740,"DIS_CODE":0,"TOWNNAME":"後壁區","LI":"烏樹里","LIN":" ","STREET":" ","SECT":" ","MAREA":"烏樹林","LANE":" ","ALLEY":" ","HOUSE_NO":"１３４號","E_COORD97":186294.88,"N_COORD97":2580927.4500000002,"ADDRESS":"烏樹林１３４號","OBJECTID":136740},"geometry":{"x":186294.88000000175,"y":2580927.4499999993}},{"attributes":{"ID":136741,"DIS_CODE":0,"TOWNNAME":"後壁區","LI":"烏樹里","LIN":" ","STREET":" ","SECT":" ","MAREA":"烏樹林","LANE":" ","ALLEY":" ","HOUSE_NO":"１３９之６號","E_COORD97":186239.79999999999,"N_COORD97":2580950.4900000002,"ADDRESS":"烏樹林１３９之６號","OBJECTID":136741},"geometry":{"x":186239.80000000075,"y":2580950.4900000021}},{"attributes":{"ID":136742,"DIS_CODE":0,"TOWNNAME":"南區","LI":"建南里","LIN":"6鄰","STREET":"德興路","SECT":" ","MAREA":" ","LANE":" ","ALLEY":" ","HOUSE_NO":"３０７號","E_COORD97":167229.95000000001,"N_COORD97":2539888.5299999998,"ADDRESS":"德興路３０７號","OBJECTID":136742},"geometry":{"x":167229.95000000019,"y":2539888.5300000012}},{"attributes":{"ID":136743,"DIS_CODE":0,"TOWNNAME":"南區","LI":"建南里","LIN":"6鄰","STREET":"德興路","SECT":" ","MAREA":" ","LANE":" ","ALLEY":" ","HOUSE_NO":"３０９號","E_COORD97":167230.31,"N_COORD97":2539884.0699999998,"ADDRESS":"德興路３０９號","OBJECTID":136743},"geometry":{"x":167230.30999999959,"y":2539884.0700000003}},{"attributes":{"ID":136744,"DIS_CODE":0,"TOWNNAME":"後壁區","LI":"烏樹里","LIN":" ","STREET":" ","SECT":" ","MAREA":"烏樹林","LANE":" ","ALLEY":" ","HOUSE_NO":"１３９之７號","E_COORD97":186240.17000000001,"N_COORD97":2580944.8599999999,"ADDRESS":"烏樹林１３９之７號","OBJECTID":136744},"geometry":{"x":186240.16999999993,"y":2580944.8599999994}},{"attributes":{"ID":136745,"DIS_CODE":0,"TOWNNAME":"南區","LI":"建南里","LIN":"6鄰","STREET":"德興路","SECT":" ","MAREA":" ","LANE":" ","ALLEY":" ","HOUSE_NO":"３１１號","E_COORD97":167230.13,"N_COORD97":2539879.7799999998,"ADDRESS":"德興路３１１號","OBJECTID":136745},"geometry":{"x":167230.12999999989,"y":2539879.7800000012}},{"attributes":{"ID":136746,"DIS_CODE":0,"TOWNNAME":"南區","LI":"建南里","LIN":"6鄰","STREET":"德興路","SECT":" ","MAREA":" ","LANE":" ","ALLEY":" ","HOUSE_NO":"３１３號","E_COORD97":167230.13,"N_COORD97":2539874.96,"ADDRESS":"德興路３１３號","OBJECTID":136746},"geometry":{"x":167230.12999999989,"y":2539874.9600000009}},{"attributes":{"ID":136747,"DIS_CODE":0,"TOWNNAME":"南區","LI":"建南里","LIN":"6鄰","STREET":"德興路","SECT":" ","MAREA":" ","LANE":" ","ALLEY":" ","HOUSE_NO":"３１５號","E_COORD97":167229.23999999999,"N_COORD97":2539870.6800000002,"ADDRESS":"德興路３１５號","OBJECTID":136747},"geometry":{"x":167229.24000000115,"y":2539870.6800000016}},{"attributes":{"ID":136748,"DIS_CODE":0,"TOWNNAME":"南區","LI":"建南里","LIN":"6鄰","STREET":"德興路","SECT":" ","MAREA":" ","LANE":" ","ALLEY":" ","HOUSE_NO":"３１７號","E_COORD97":167229.59,"N_COORD97":2539866.04,"ADDRESS":"德興路３１７號","OBJECTID":136748},"geometry":{"x":167229.59000000078,"y":2539866.0399999991}},{"attributes":{"ID":136749,"DIS_CODE":0,"TOWNNAME":"南區","LI":"建南里","LIN":"6鄰","STREET":"德興路","SECT":" ","MAREA":" ","LANE":" ","ALLEY":" ","HOUSE_NO":"３１９號","E_COORD97":167230.85000000001,"N_COORD97":2539861.5800000001,"ADDRESS":"德興路３１９號","OBJECTID":136749},"geometry":{"x":167230.85000000149,"y":2539861.5800000019}},{"attributes":{"ID":136750,"DIS_CODE":0,"TOWNNAME":"東區","LI":"崇信里","LIN":"27鄰","STREET":"崇學路","SECT":" ","MAREA":" ","LANE":"１４２巷","ALLEY":"１０弄","HOUSE_NO":"１０號","E_COORD97":170501.94,"N_COORD97":2542341.3199999998,"ADDRESS":"崇學路１４２巷１０弄１０號","OBJECTID":136750},"geometry":{"x":170501.94000000041,"y":2542341.3200000022}},{"attributes":{"ID":136751,"DIS_CODE":0,"TOWNNAME":"東區","LI":"崇信里","LIN":"27鄰","STREET":"崇學路","SECT":" ","MAREA":" ","LANE":"１４２巷","ALLEY":"１０弄","HOUSE_NO":"１２號","E_COORD97":170499.01000000001,"N_COORD97":2542337.3500000001,"ADDRESS":"崇學路１４２巷１０弄１２號","OBJECTID":136751},"geometry":{"x":170499.00999999978,"y":2542337.3500000015}},{"attributes":{"ID":136752,"DIS_CODE":0,"TOWNNAME":"後壁區","LI":"烏樹里","LIN":" ","STREET":" ","SECT":" ","MAREA":"烏樹林","LANE":" ","ALLEY":" ","HOUSE_NO":"１３９之８號","E_COORD97":186239.69,"N_COORD97":2580938.9199999999,"ADDRESS":"烏樹林１３９之８號","OBJECTID":136752},"geometry":{"x":186239.69000000134,"y":2580938.9199999981}},{"attributes":{"ID":136753,"DIS_CODE":0,"TOWNNAME":"東區","LI":"崇信里","LIN":"27鄰","STREET":"崇學路","SECT":" ","MAREA":" ","LANE":"１４２巷","ALLEY":"１０弄","HOUSE_NO":"１４號","E_COORD97":170496.5,"N_COORD97":2542334.8500000001,"ADDRESS":"崇學路１４２巷１０弄１４號","OBJECTID":136753},"geometry":{"x":170496.5,"y":2542334.8499999996}},{"attributes":{"ID":136754,"DIS_CODE":0,"TOWNNAME":"東區","LI":"崇信里","LIN":"27鄰","STREET":"崇學路","SECT":" ","MAREA":" ","LANE":"１４２巷","ALLEY":"１０弄","HOUSE_NO":"１６號","E_COORD97":170493.79000000001,"N_COORD97":2542331.5099999998,"ADDRESS":"崇學路１４２巷１０弄１６號","OBJECTID":136754},"geometry":{"x":170493.79000000097,"y":2542331.5099999998}},{"attributes":{"ID":136755,"DIS_CODE":0,"TOWNNAME":"後壁區","LI":"烏樹里","LIN":" ","STREET":" ","SECT":" ","MAREA":"烏樹林","LANE":" ","ALLEY":" ","HOUSE_NO":"１６５號","E_COORD97":186338.78,"N_COORD97":2580870.6099999999,"ADDRESS":"烏樹林１６５號","OBJECTID":136755},"geometry":{"x":186338.78000000119,"y":2580870.6100000013}},{"attributes":{"ID":136756,"DIS_CODE":0,"TOWNNAME":"後壁區","LI":"烏樹里","LIN":" ","STREET":" ","SECT":" ","MAREA":"烏樹林","LANE":" ","ALLEY":" ","HOUSE_NO":"１７２之１號","E_COORD97":186110.57000000001,"N_COORD97":2580810.1400000001,"ADDRESS":"烏樹林１７２之１號","OBJECTID":136756},"geometry":{"x":186110.5700000003,"y":2580810.1400000025}},{"attributes":{"ID":136757,"DIS_CODE":0,"TOWNNAME":"後壁區","LI":"烏樹里","LIN":" ","STREET":" ","SECT":" ","MAREA":"烏樹林","LANE":" ","ALLEY":" ","HOUSE_NO":"１７８號","E_COORD97":186247.60000000001,"N_COORD97":2580840.4500000002,"ADDRESS":"烏樹林１７８號","OBJECTID":136757},"geometry":{"x":186247.60000000056,"y":2580840.4500000011}},{"attributes":{"ID":136758,"DIS_CODE":0,"TOWNNAME":"後壁區","LI":"烏樹里","LIN":" ","STREET":" ","SECT":" ","MAREA":"烏樹林","LANE":" ","ALLEY":" ","HOUSE_NO":"１８７號","E_COORD97":185929.14000000001,"N_COORD97":2580860.8799999999,"ADDRESS":"烏樹林１８７號","OBJECTID":136758},"geometry":{"x":185929.1400000006,"y":2580860.8800000008}},{"attributes":{"ID":136759,"DIS_CODE":0,"TOWNNAME":"後壁區","LI":"烏樹里","LIN":" ","STREET":" ","SECT":" ","MAREA":"烏樹林","LANE":" ","ALLEY":" ","HOUSE_NO":"１８９號","E_COORD97":187421.53,"N_COORD97":2582423.8199999998,"ADDRESS":"烏樹林１８９號","OBJECTID":136759},"geometry":{"x":187421.53000000212,"y":2582423.8200000003}},{"attributes":{"ID":136760,"DIS_CODE":0,"TOWNNAME":"後壁區","LI":"烏樹里","LIN":" ","STREET":" ","SECT":" ","MAREA":"烏樹林","LANE":" ","ALLEY":" ","HOUSE_NO":"１９４號","E_COORD97":186014.66,"N_COORD97":2582281.5,"ADDRESS":"烏樹林１９４號","OBJECTID":136760},"geometry":{"x":186014.66000000015,"y":2582281.5000000037}},{"attributes":{"ID":136761,"DIS_CODE":0,"TOWNNAME":"後壁區","LI":"烏樹里","LIN":" ","STREET":" ","SECT":" ","MAREA":"烏樹林","LANE":" ","ALLEY":" ","HOUSE_NO":"１９５之１號","E_COORD97":186059.98999999999,"N_COORD97":2582280.54,"ADDRESS":"烏樹林１９５之１號","OBJECTID":136761},"geometry":{"x":186059.99000000022,"y":2582280.540000001}},{"attributes":{"ID":136762,"DIS_CODE":0,"TOWNNAME":"東區","LI":"崇信里","LIN":"27鄰","STREET":"崇學路","SECT":" ","MAREA":" ","LANE":"１４２巷","ALLEY":"１０弄","HOUSE_NO":"１８號","E_COORD97":170485.85000000001,"N_COORD97":2542323.5800000001,"ADDRESS":"崇學路１４２巷１０弄１８號","OBJECTID":136762},"geometry":{"x":170485.85000000056,"y":2542323.5800000001}},{"attributes":{"ID":136763,"DIS_CODE":0,"TOWNNAME":"東區","LI":"崇信里","LIN":"27鄰","STREET":"崇學路","SECT":" ","MAREA":" ","LANE":"１４２巷","ALLEY":"１０弄","HOUSE_NO":"２４號","E_COORD97":170473.29999999999,"N_COORD97":2542310.9399999999,"ADDRESS":"崇學路１４２巷１０弄２４號","OBJECTID":136763},"geometry":{"x":170473.30000000075,"y":2542310.9399999995}},{"attributes":{"ID":136764,"DIS_CODE":0,"TOWNNAME":"東區","LI":"崇信里","LIN":"27鄰","STREET":"崇學路","SECT":" ","MAREA":" ","LANE":"１４２巷","ALLEY":"１０弄","HOUSE_NO":"２６號","E_COORD97":170467.01999999999,"N_COORD97":2542304.5,"ADDRESS":"崇學路１４２巷１０弄２６號","OBJECTID":136764},"geometry":{"x":170467.01999999955,"y":2542304.5}},{"attributes":{"ID":136765,"DIS_CODE":0,"TOWNNAME":"東區","LI":"崇信里","LIN":"27鄰","STREET":"崇學路","SECT":" ","MAREA":" ","LANE":"１４２巷","ALLEY":"１０弄","HOUSE_NO":"２８號","E_COORD97":170476.26999999999,"N_COORD97":2542296.6200000001,"ADDRESS":"崇學路１４２巷１０弄２８號","OBJECTID":136765},"geometry":{"x":170476.27000000048,"y":2542296.6200000029}},{"attributes":{"ID":136766,"DIS_CODE":0,"TOWNNAME":"東區","LI":"崇信里","LIN":"27鄰","STREET":"崇學路","SECT":" ","MAREA":" ","LANE":"１４２巷","ALLEY":"１０弄","HOUSE_NO":"２號","E_COORD97":170515.34,"N_COORD97":2542354.9300000002,"ADDRESS":"崇學路１４２巷１０弄２號","OBJECTID":136766},"geometry":{"x":170515.34000000078,"y":2542354.9299999997}},{"attributes":{"ID":136767,"DIS_CODE":0,"TOWNNAME":"南區","LI":"建南里","LIN":"6鄰","STREET":"德興路","SECT":" ","MAREA":" ","LANE":" ","ALLEY":" ","HOUSE_NO":"３２３號","E_COORD97":167231.73999999999,"N_COORD97":2539853.2799999998,"ADDRESS":"德興路３２３號","OBJECTID":136767},"geometry":{"x":167231.74000000022,"y":2539853.2799999993}},{"attributes":{"ID":136768,"DIS_CODE":0,"TOWNNAME":"後壁區","LI":"烏樹里","LIN":" ","STREET":" ","SECT":" ","MAREA":"烏樹林","LANE":" ","ALLEY":" ","HOUSE_NO":"１９９之５號","E_COORD97":185954.31,"N_COORD97":2582184.5899999999,"ADDRESS":"烏樹林１９９之５號","OBJECTID":136768},"geometry":{"x":185954.31000000145,"y":2582184.5899999999}},{"attributes":{"ID":136769,"DIS_CODE":0,"TOWNNAME":"後壁區","LI":"烏樹里","LIN":" ","STREET":" ","SECT":" ","MAREA":"烏樹林","LANE":" ","ALLEY":" ","HOUSE_NO":"１之４號","E_COORD97":186373.42999999999,"N_COORD97":2581726.9700000002,"ADDRESS":"烏樹林１之４號","OBJECTID":136769},"geometry":{"x":186373.4299999997,"y":2581726.9700000025}},{"attributes":{"ID":136770,"DIS_CODE":0,"TOWNNAME":"後壁區","LI":"烏樹里","LIN":" ","STREET":" ","SECT":" ","MAREA":"烏樹林","LANE":" ","ALLEY":" ","HOUSE_NO":"２０５之２號","E_COORD97":185935.57000000001,"N_COORD97":2582205.2000000002,"ADDRESS":"烏樹林２０５之２號","OBJECTID":136770},"geometry":{"x":185935.5700000003,"y":2582205.2000000011}},{"attributes":{"ID":136771,"DIS_CODE":0,"TOWNNAME":"後壁區","LI":"烏樹里","LIN":" ","STREET":" ","SECT":" ","MAREA":"烏樹林","LANE":" ","ALLEY":" ","HOUSE_NO":"２２之６號","E_COORD97":186299.03,"N_COORD97":2581673.4199999999,"ADDRESS":"烏樹林２２之６號","OBJECTID":136771},"geometry":{"x":186299.03000000026,"y":2581673.4199999999}},{"attributes":{"ID":136772,"DIS_CODE":0,"TOWNNAME":"後壁區","LI":"烏樹里","LIN":" ","STREET":" ","SECT":" ","MAREA":"烏樹林","LANE":" ","ALLEY":" ","HOUSE_NO":"２７號","E_COORD97":186347.5,"N_COORD97":2581537.8900000001,"ADDRESS":"烏樹林２７號","OBJECTID":136772},"geometry":{"x":186347.50000000093,"y":2581537.8900000025}},{"attributes":{"ID":136773,"DIS_CODE":0,"TOWNNAME":"東區","LI":"崇信里","LIN":"27鄰","STREET":"崇學路","SECT":" ","MAREA":" ","LANE":"１４２巷","ALLEY":"１０弄","HOUSE_NO":"２號之１","E_COORD97":170518.89000000001,"N_COORD97":2542358.8900000001,"ADDRESS":"崇學路１４２巷１０弄２號之１","OBJECTID":136773},"geometry":{"x":170518.88999999966,"y":2542358.8900000025}},{"attributes":{"ID":136774,"DIS_CODE":0,"TOWNNAME":"東區","LI":"崇信里","LIN":"27鄰","STREET":"崇學路","SECT":" ","MAREA":" ","LANE":"１４２巷","ALLEY":"１０弄","HOUSE_NO":"３０號","E_COORD97":170481.67999999999,"N_COORD97":2542302.1899999999,"ADDRESS":"崇學路１４２巷１０弄３０號","OBJECTID":136774},"geometry":{"x":170481.68000000156,"y":2542302.1899999995}},{"attributes":{"ID":136775,"DIS_CODE":0,"TOWNNAME":"東區","LI":"崇信里","LIN":"27鄰","STREET":"崇學路","SECT":" ","MAREA":" ","LANE":"１４２巷","ALLEY":"１０弄","HOUSE_NO":"４６號","E_COORD97":170504.64000000001,"N_COORD97":2542283.6000000001,"ADDRESS":"崇學路１４２巷１０弄４６號","OBJECTID":136775},"geometry":{"x":170504.6400000006,"y":2542283.5999999996}},{"attributes":{"ID":136776,"DIS_CODE":0,"TOWNNAME":"永康區","LI":"甲頂里","LIN":"27鄰","STREET":"中央路","SECT":" ","MAREA":" ","LANE":"２３巷","ALLEY":"５１弄","HOUSE_NO":"６號","E_COORD97":169421.44,"N_COORD97":2546904.7599999998,"ADDRESS":"中央路２３巷５１弄６號","OBJECTID":136776},"geometry":{"x":169421.44000000134,"y":2546904.7600000016}},{"attributes":{"ID":136777,"DIS_CODE":0,"TOWNNAME":"新營區","LI":"新北里","LIN":"27鄰","STREET":"民生路","SECT":" ","MAREA":" ","LANE":"３８５巷","ALLEY":"１３弄","HOUSE_NO":"７之３號","E_COORD97":178881.70999999999,"N_COORD97":2579127.3900000001,"ADDRESS":"民生路３８５巷１３弄７之３號","OBJECTID":136777},"geometry":{"x":178881.71000000089,"y":2579127.3900000025}},{"attributes":{"ID":136778,"DIS_CODE":0,"TOWNNAME":"新營區","LI":"新南里","LIN":"27鄰","STREET":"復興路","SECT":" ","MAREA":" ","LANE":"６２０巷","ALLEY":"６１弄","HOUSE_NO":"３６之２號","E_COORD97":177954.5,"N_COORD97":2578539.1800000002,"ADDRESS":"復興路６２０巷６１弄３６之２號","OBJECTID":136778},"geometry":{"x":177954.50000000093,"y":2578539.1799999997}},{"attributes":{"ID":136779,"DIS_CODE":0,"TOWNNAME":"新營區","LI":"南紙里","LIN":"27鄰","STREET":"太子路","SECT":" ","MAREA":" ","LANE":"２００巷","ALLEY":"１０１弄","HOUSE_NO":"４號","E_COORD97":177812.47,"N_COORD97":2578080.4199999999,"ADDRESS":"太子路２００巷１０１弄４號","OBJECTID":136779},"geometry":{"x":177812.46999999974,"y":2578080.4199999999}},{"attributes":{"ID":136780,"DIS_CODE":0,"TOWNNAME":"仁德區","LI":"仁愛里","LIN":"28鄰","STREET":"大同路","SECT":"三段","MAREA":" ","LANE":"４５６巷","ALLEY":" ","HOUSE_NO":"３２號","E_COORD97":169718.69,"N_COORD97":2539294.5299999998,"ADDRESS":"大同路三段４５６巷３２號","OBJECTID":136780},"geometry":{"x":169718.69000000041,"y":2539294.5300000012}},{"attributes":{"ID":136781,"DIS_CODE":0,"TOWNNAME":"安平區","LI":"文平里","LIN":"6鄰","STREET":"永華二街","SECT":" ","MAREA":" ","LANE":" ","ALLEY":" ","HOUSE_NO":"２０１號","E_COORD97":166376.28,"N_COORD97":2543240.4500000002,"ADDRESS":"永華二街２０１號","OBJECTID":136781},"geometry":{"x":166376.28000000119,"y":2543240.4499999974}},{"attributes":{"ID":136782,"DIS_CODE":0,"TOWNNAME":"安平區","LI":"文平里","LIN":"6鄰","STREET":"永華二街","SECT":" ","MAREA":" ","LANE":" ","ALLEY":" ","HOUSE_NO":"１９９號","E_COORD97":166375.85000000001,"N_COORD97":2543236.9100000001,"ADDRESS":"永華二街１９９號","OBJECTID":136782},"geometry":{"x":166375.84999999963,"y":2543236.9100000001}},{"attributes":{"ID":136783,"DIS_CODE":0,"TOWNNAME":"安平區","LI":"平安里","LIN":"6鄰","STREET":"安平路","SECT":" ","MAREA":" ","LANE":" ","ALLEY":" ","HOUSE_NO":"３７２號","E_COORD97":165503.98000000001,"N_COORD97":2544334.2599999998,"ADDRESS":"安平路３７２號","OBJECTID":136783},"geometry":{"x":165503.98000000138,"y":2544334.2600000035}},{"attributes":{"ID":136784,"DIS_CODE":0,"TOWNNAME":"安平區","LI":"文平里","LIN":"6鄰","STREET":"建平六街","SECT":" ","MAREA":" ","LANE":" ","ALLEY":" ","HOUSE_NO":"７２號","E_COORD97":166327.25,"N_COORD97":2543111.7799999998,"ADDRESS":"建平六街７２號","OBJECTID":136784},"geometry":{"x":166327.25000000093,"y":2543111.7799999993}},{"attributes":{"ID":136785,"DIS_CODE":0,"TOWNNAME":"安平區","LI":"文平里","LIN":"6鄰","STREET":"建平六街","SECT":" ","MAREA":" ","LANE":" ","ALLEY":" ","HOUSE_NO":"７０號","E_COORD97":166334.23999999999,"N_COORD97":2543111.7799999998,"ADDRESS":"建平六街７０號","OBJECTID":136785},"geometry":{"x":166334.24000000115,"y":2543111.7799999993}},{"attributes":{"ID":136786,"DIS_CODE":0,"TOWNNAME":"安平區","LI":"文平里","LIN":"6鄰","STREET":"建平六街","SECT":" ","MAREA":" ","LANE":" ","ALLEY":" ","HOUSE_NO":"６８號","E_COORD97":166339.32000000001,"N_COORD97":2543111.46,"ADDRESS":"建平六街６８號","OBJECTID":136786},"geometry":{"x":166339.3200000003,"y":2543111.4600000028}},{"attributes":{"ID":136787,"DIS_CODE":0,"TOWNNAME":"後壁區","LI":"烏樹里","LIN":" ","STREET":" ","SECT":" ","MAREA":"烏樹林","LANE":" ","ALLEY":" ","HOUSE_NO":"３１之２號","E_COORD97":186315.09,"N_COORD97":2581520.6600000001,"ADDRESS":"烏樹林３１之２號","OBJECTID":136787},"geometry":{"x":186315.08999999985,"y":2581520.6599999983}},{"attributes":{"ID":136788,"DIS_CODE":0,"TOWNNAME":"後壁區","LI":"烏樹里","LIN":" ","STREET":" ","SECT":" ","MAREA":"烏樹林","LANE":" ","ALLEY":" ","HOUSE_NO":"３１之３號","E_COORD97":186313.69,"N_COORD97":2581524.6299999999,"ADDRESS":"烏樹林３１之３號","OBJECTID":136788},"geometry":{"x":186313.69000000227,"y":2581524.6300000008}},{"attributes":{"ID":136789,"DIS_CODE":0,"TOWNNAME":"後壁區","LI":"烏樹里","LIN":" ","STREET":" ","SECT":" ","MAREA":"烏樹林","LANE":" ","ALLEY":" ","HOUSE_NO":"３５號","E_COORD97":186286.92000000001,"N_COORD97":2581587.9300000002,"ADDRESS":"烏樹林３５號","OBJECTID":136789},"geometry":{"x":186286.92000000086,"y":2581587.9300000016}},{"attributes":{"ID":136790,"DIS_CODE":0,"TOWNNAME":"後壁區","LI":"烏樹里","LIN":" ","STREET":" ","SECT":" ","MAREA":"烏樹林","LANE":" ","ALLEY":" ","HOUSE_NO":"３８之１號","E_COORD97":186225.48999999999,"N_COORD97":2581599.4199999999,"ADDRESS":"烏樹林３８之１號","OBJECTID":136790},"geometry":{"x":186225.49000000115,"y":2581599.4199999999}},{"attributes":{"ID":136791,"DIS_CODE":0,"TOWNNAME":"後壁區","LI":"烏樹里","LIN":" ","STREET":" ","SECT":" ","MAREA":"烏樹林","LANE":" ","ALLEY":" ","HOUSE_NO":"３９之５號","E_COORD97":186198.98000000001,"N_COORD97":2581592.6299999999,"ADDRESS":"烏樹林３９之５號","OBJECTID":136791},"geometry":{"x":186198.98000000138,"y":2581592.6300000008}},{"attributes":{"ID":136792,"DIS_CODE":0,"TOWNNAME":"後壁區","LI":"烏樹里","LIN":" ","STREET":" ","SECT":" ","MAREA":"烏樹林","LANE":" ","ALLEY":" ","HOUSE_NO":"３之２號","E_COORD97":186395.95000000001,"N_COORD97":2581658.6200000001,"ADDRESS":"烏樹林３之２號","OBJECTID":136792},"geometry":{"x":186395.95000000019,"y":2581658.6200000029}},{"attributes":{"ID":136793,"DIS_CODE":0,"TOWNNAME":"後壁區","LI":"烏樹里","LIN":"5鄰","STREET":" ","SECT":" ","MAREA":"烏樹林","LANE":" ","ALLEY":" ","HOUSE_NO":"５０號之２","E_COORD97":186198.44,"N_COORD97":2581486.2400000002,"ADDRESS":"烏樹林５０之２號","OBJECTID":136793},"geometry":{"x":186198.44000000227,"y":2581486.2400000002}},{"attributes":{"ID":136794,"DIS_CODE":0,"TOWNNAME":"後壁區","LI":"烏樹里","LIN":" ","STREET":" ","SECT":" ","MAREA":"烏樹林","LANE":" ","ALLEY":" ","HOUSE_NO":"５２之３號","E_COORD97":186165.03,"N_COORD97":2581411.8999999999,"ADDRESS":"烏樹林５２之３號","OBJECTID":136794},"geometry":{"x":186165.03000000026,"y":2581411.9000000022}},{"attributes":{"ID":136795,"DIS_CODE":0,"TOWNNAME":"後壁區","LI":"烏樹里","LIN":" ","STREET":" ","SECT":" ","MAREA":"烏樹林","LANE":" ","ALLEY":" ","HOUSE_NO":"６１之１號","E_COORD97":186321.73000000001,"N_COORD97":2581423.4100000001,"ADDRESS":"烏樹林６１之１號","OBJECTID":136795},"geometry":{"x":186321.73000000045,"y":2581423.4100000001}},{"attributes":{"ID":136796,"DIS_CODE":0,"TOWNNAME":"後壁區","LI":"烏樹里","LIN":" ","STREET":" ","SECT":" ","MAREA":"烏樹林","LANE":" ","ALLEY":" ","HOUSE_NO":"６１之２號","E_COORD97":186321.03,"N_COORD97":2581419.5299999998,"ADDRESS":"烏樹林６１之２號","OBJECTID":136796},"geometry":{"x":186321.03000000026,"y":2581419.5300000012}},{"attributes":{"ID":136797,"DIS_CODE":0,"TOWNNAME":"後壁區","LI":"烏樹里","LIN":" ","STREET":" ","SECT":" ","MAREA":"烏樹林","LANE":" ","ALLEY":" ","HOUSE_NO":"６１之３號","E_COORD97":186319.79999999999,"N_COORD97":2581415.6400000001,"ADDRESS":"烏樹林６１之３號","OBJECTID":136797},"geometry":{"x":186319.80000000075,"y":2581415.6400000006}},{"attributes":{"ID":136798,"DIS_CODE":0,"TOWNNAME":"後壁區","LI":"烏樹里","LIN":" ","STREET":" ","SECT":" ","MAREA":"烏樹林","LANE":" ","ALLEY":" ","HOUSE_NO":"６５之１號","E_COORD97":186385.67999999999,"N_COORD97":2581418.1400000001,"ADDRESS":"烏樹林６５之１號","OBJECTID":136798},"geometry":{"x":186385.6799999997,"y":2581418.1400000006}},{"attributes":{"ID":136799,"DIS_CODE":0,"TOWNNAME":"後壁區","LI":"烏樹里","LIN":" ","STREET":" ","SECT":" ","MAREA":"烏樹林","LANE":" ","ALLEY":" ","HOUSE_NO":"７７之１號","E_COORD97":186332.92999999999,"N_COORD97":2581402.2799999998,"ADDRESS":"烏樹林７７之１號","OBJECTID":136799},"geometry":{"x":186332.9299999997,"y":2581402.2799999993}},{"attributes":{"ID":136800,"DIS_CODE":0,"TOWNNAME":"後壁區","LI":"烏樹里","LIN":" ","STREET":" ","SECT":" ","MAREA":"烏樹林","LANE":" ","ALLEY":" ","HOUSE_NO":"７７之２號","E_COORD97":186333.88,"N_COORD97":2581405.5899999999,"ADDRESS":"烏樹林７７之２號","OBJECTID":136800},"geometry":{"x":186333.88000000175,"y":2581405.589999998}}]}