{"displayFieldName":"TOWNNAME","fieldAliases":{"ID":"ID","DIS_CODE":"DIS_CODE","TOWNNAME":"TOWNNAME","LI":"LI","LIN":"LIN","STREET":"STREET","SECT":"SECT","MAREA":"MAREA","LANE":"LANE","ALLEY":"ALLEY","HOUSE_NO":"HOUSE_NO","E_COORD97":"E_COORD97","N_COORD97":"N_COORD97","ADDRESS":"ADDRESS","OBJECTID":"OBJECTID"},"geometryType":"esriGeometryPoint","spatialReference":{"wkid":102443,"latestWkid":3826},"fields":[{"name":"ID","type":"esriFieldTypeDouble","alias":"ID"},{"name":"DIS_CODE","type":"esriFieldTypeInteger","alias":"DIS_CODE"},{"name":"TOWNNAME","type":"esriFieldTypeString","alias":"TOWNNAME","length":8},{"name":"LI","type":"esriFieldTypeString","alias":"LI","length":8},{"name":"LIN","type":"esriFieldTypeString","alias":"LIN","length":12},{"name":"STREET","type":"esriFieldTypeString","alias":"STREET","length":20},{"name":"SECT","type":"esriFieldTypeString","alias":"SECT","length":8},{"name":"MAREA","type":"esriFieldTypeString","alias":"MAREA","length":12},{"name":"LANE","type":"esriFieldTypeString","alias":"LANE","length":10},{"name":"ALLEY","type":"esriFieldTypeString","alias":"ALLEY","length":10},{"name":"HOUSE_NO","type":"esriFieldTypeString","alias":"HOUSE_NO","length":20},{"name":"E_COORD97","type":"esriFieldTypeDouble","alias":"E_COORD97"},{"name":"N_COORD97","type":"esriFieldTypeDouble","alias":"N_COORD97"},{"name":"ADDRESS","type":"esriFieldTypeString","alias":"ADDRESS","length":50},{"name":"OBJECTID","type":"esriFieldTypeOID","alias":"OBJECTID"}],"features":[{"attributes":{"ID":288607,"DIS_CODE":0,"TOWNNAME":"將軍區","LI":"長榮里","LIN":"2鄰","STREET":" ","SECT":" ","MAREA":"長榮","LANE":" ","ALLEY":" ","HOUSE_NO":"２１之１號","E_COORD97":163847.89999999999,"N_COORD97":2566402.0699999998,"ADDRESS":"長榮２１之１號","OBJECTID":288601},"geometry":{"x":163847.9000000013,"y":2566402.0700000022}},{"attributes":{"ID":288608,"DIS_CODE":0,"TOWNNAME":"將軍區","LI":"長榮里","LIN":"2鄰","STREET":" ","SECT":" ","MAREA":"長榮","LANE":" ","ALLEY":" ","HOUSE_NO":"２３號","E_COORD97":163847.88,"N_COORD97":2566391.0899999999,"ADDRESS":"長榮２３號","OBJECTID":288602},"geometry":{"x":163847.88000000082,"y":2566391.0900000017}},{"attributes":{"ID":288609,"DIS_CODE":0,"TOWNNAME":"將軍區","LI":"長榮里","LIN":"2鄰","STREET":" ","SECT":" ","MAREA":"長榮","LANE":" ","ALLEY":" ","HOUSE_NO":"２４號","E_COORD97":163847.31,"N_COORD97":2566387.4900000002,"ADDRESS":"長榮２４號","OBJECTID":288603},"geometry":{"x":163847.31000000145,"y":2566387.4900000039}},{"attributes":{"ID":288610,"DIS_CODE":0,"TOWNNAME":"將軍區","LI":"長榮里","LIN":"2鄰","STREET":" ","SECT":" ","MAREA":"長榮","LANE":" ","ALLEY":" ","HOUSE_NO":"２５號","E_COORD97":163846.76000000001,"N_COORD97":2566383.2200000002,"ADDRESS":"長榮２５號","OBJECTID":288604},"geometry":{"x":163846.76000000071,"y":2566383.2200000044}},{"attributes":{"ID":288611,"DIS_CODE":0,"TOWNNAME":"將軍區","LI":"將富里","LIN":"2鄰","STREET":" ","SECT":" ","MAREA":"將富","LANE":" ","ALLEY":" ","HOUSE_NO":"１５號","E_COORD97":161763.44,"N_COORD97":2568560.2200000002,"ADDRESS":"將富１５號","OBJECTID":288605},"geometry":{"x":161763.44000000041,"y":2568560.2200000025}},{"attributes":{"ID":288612,"DIS_CODE":0,"TOWNNAME":"將軍區","LI":"將富里","LIN":"2鄰","STREET":" ","SECT":" ","MAREA":"將富","LANE":" ","ALLEY":" ","HOUSE_NO":"１６號","E_COORD97":161739.98999999999,"N_COORD97":2568572,"ADDRESS":"將富１６號","OBJECTID":288606},"geometry":{"x":161739.99000000115,"y":2568572.0000000019}},{"attributes":{"ID":288613,"DIS_CODE":0,"TOWNNAME":"將軍區","LI":"鯤鯓里","LIN":"2鄰","STREET":" ","SECT":" ","MAREA":"鯤鯓","LANE":" ","ALLEY":" ","HOUSE_NO":"１１號","E_COORD97":156608.29000000001,"N_COORD97":2565609.9900000002,"ADDRESS":"鯤鯓１１號","OBJECTID":288607},"geometry":{"x":156608.29000000097,"y":2565609.9900000002}},{"attributes":{"ID":288614,"DIS_CODE":0,"TOWNNAME":"將軍區","LI":"鯤鯓里","LIN":"2鄰","STREET":" ","SECT":" ","MAREA":"鯤鯓","LANE":" ","ALLEY":" ","HOUSE_NO":"１２號","E_COORD97":156597.48999999999,"N_COORD97":2565611.75,"ADDRESS":"鯤鯓１２號","OBJECTID":288608},"geometry":{"x":156597.49000000022,"y":2565611.75}},{"attributes":{"ID":288615,"DIS_CODE":0,"TOWNNAME":"北區","LI":"正風里","LIN":"10鄰","STREET":"公園路","SECT":" ","MAREA":" ","LANE":"１０６２巷","ALLEY":" ","HOUSE_NO":"６號","E_COORD97":169642.35999999999,"N_COORD97":2546455.5600000001,"ADDRESS":"公園路１０６２巷６號","OBJECTID":288609},"geometry":{"x":169642.36000000127,"y":2546455.5600000042}},{"attributes":{"ID":288616,"DIS_CODE":0,"TOWNNAME":"將軍區","LI":"鯤鯓里","LIN":"2鄰","STREET":" ","SECT":" ","MAREA":"鯤鯓","LANE":" ","ALLEY":" ","HOUSE_NO":"１３之１號","E_COORD97":156601.28,"N_COORD97":2565628.46,"ADDRESS":"鯤鯓１３之１號","OBJECTID":288610},"geometry":{"x":156601.28000000212,"y":2565628.4600000009}},{"attributes":{"ID":288617,"DIS_CODE":0,"TOWNNAME":"將軍區","LI":"鯤鯓里","LIN":"2鄰","STREET":" ","SECT":" ","MAREA":"鯤鯓","LANE":" ","ALLEY":" ","HOUSE_NO":"１３之２號","E_COORD97":156601.75,"N_COORD97":2565633.3599999999,"ADDRESS":"鯤鯓１３之２號","OBJECTID":288611},"geometry":{"x":156601.75000000093,"y":2565633.3599999994}},{"attributes":{"ID":288618,"DIS_CODE":0,"TOWNNAME":"將軍區","LI":"鯤鯓里","LIN":"2鄰","STREET":" ","SECT":" ","MAREA":"鯤鯓","LANE":" ","ALLEY":" ","HOUSE_NO":"１３號","E_COORD97":156599.82000000001,"N_COORD97":2565620.6299999999,"ADDRESS":"鯤鯓１３號","OBJECTID":288612},"geometry":{"x":156599.82000000123,"y":2565620.6300000008}},{"attributes":{"ID":288619,"DIS_CODE":0,"TOWNNAME":"將軍區","LI":"鯤鯓里","LIN":"2鄰","STREET":" ","SECT":" ","MAREA":"鯤鯓","LANE":" ","ALLEY":" ","HOUSE_NO":"１４號","E_COORD97":156608.17000000001,"N_COORD97":2565651,"ADDRESS":"鯤鯓１４號","OBJECTID":288613},"geometry":{"x":156608.16999999993,"y":2565651}},{"attributes":{"ID":288620,"DIS_CODE":0,"TOWNNAME":"將軍區","LI":"鯤鯓里","LIN":"2鄰","STREET":" ","SECT":" ","MAREA":"鯤鯓","LANE":" ","ALLEY":" ","HOUSE_NO":"１６之１號","E_COORD97":156589.23000000001,"N_COORD97":2565668.2400000002,"ADDRESS":"鯤鯓１６之１號","OBJECTID":288614},"geometry":{"x":156589.23000000045,"y":2565668.2400000021}},{"attributes":{"ID":288621,"DIS_CODE":0,"TOWNNAME":"將軍區","LI":"鯤鯓里","LIN":"2鄰","STREET":" ","SECT":" ","MAREA":"鯤鯓","LANE":" ","ALLEY":" ","HOUSE_NO":"１６之２號","E_COORD97":156588.29999999999,"N_COORD97":2565663.6600000001,"ADDRESS":"鯤鯓１６之２號","OBJECTID":288615},"geometry":{"x":156588.29999999981,"y":2565663.6600000001}},{"attributes":{"ID":288622,"DIS_CODE":0,"TOWNNAME":"龍崎區","LI":"崎頂里","LIN":"2鄰","STREET":" ","SECT":" ","MAREA":"新市子","LANE":" ","ALLEY":" ","HOUSE_NO":"６４號","E_COORD97":184435.42000000001,"N_COORD97":2540527.25,"ADDRESS":"新市子６４號","OBJECTID":288616},"geometry":{"x":184435.42000000086,"y":2540527.2500000037}},{"attributes":{"ID":288623,"DIS_CODE":0,"TOWNNAME":"龍崎區","LI":"崎頂里","LIN":"2鄰","STREET":" ","SECT":" ","MAREA":"新市子","LANE":" ","ALLEY":" ","HOUSE_NO":"６５之２號","E_COORD97":184452.12,"N_COORD97":2540530.2999999998,"ADDRESS":"新市子６５之２號","OBJECTID":288617},"geometry":{"x":184452.12000000011,"y":2540530.3000000007}},{"attributes":{"ID":288624,"DIS_CODE":0,"TOWNNAME":"龍崎區","LI":"崎頂里","LIN":"2鄰","STREET":" ","SECT":" ","MAREA":"新市子","LANE":" ","ALLEY":" ","HOUSE_NO":"４０號","E_COORD97":184192.51999999999,"N_COORD97":2540474.25,"ADDRESS":"新市子４０號","OBJECTID":288618},"geometry":{"x":184192.51999999955,"y":2540474.2500000019}},{"attributes":{"ID":288625,"DIS_CODE":0,"TOWNNAME":"龍崎區","LI":"崎頂里","LIN":"2鄰","STREET":" ","SECT":" ","MAREA":"新市子","LANE":" ","ALLEY":" ","HOUSE_NO":"５１號","E_COORD97":184394.82000000001,"N_COORD97":2540521.25,"ADDRESS":"新市子５１號","OBJECTID":288619},"geometry":{"x":184394.8200000003,"y":2540521.2500000019}},{"attributes":{"ID":288626,"DIS_CODE":0,"TOWNNAME":"學甲區","LI":"仁得里","LIN":"1鄰","STREET":"四維街","SECT":" ","MAREA":" ","LANE":" ","ALLEY":" ","HOUSE_NO":"５４號之１","E_COORD97":166122.88,"N_COORD97":2569796.1699999999,"ADDRESS":"四維街５４號之１","OBJECTID":288620},"geometry":{"x":166122.88000000082,"y":2569796.1699999999}},{"attributes":{"ID":288627,"DIS_CODE":0,"TOWNNAME":"六甲區","LI":"甲東里","LIN":"10鄰","STREET":"忠孝街","SECT":" ","MAREA":" ","LANE":"２５０巷","ALLEY":" ","HOUSE_NO":"１４號","E_COORD97":184139.20000000001,"N_COORD97":2570126.5099999998,"ADDRESS":"忠孝街２５０巷１４號","OBJECTID":288621},"geometry":{"x":184139.20000000112,"y":2570126.5100000035}},{"attributes":{"ID":288628,"DIS_CODE":0,"TOWNNAME":"六甲區","LI":"甲東里","LIN":"10鄰","STREET":"忠孝街","SECT":" ","MAREA":" ","LANE":"２５０巷","ALLEY":" ","HOUSE_NO":"１６號","E_COORD97":184138.89000000001,"N_COORD97":2570122.75,"ADDRESS":"忠孝街２５０巷１６號","OBJECTID":288622},"geometry":{"x":184138.8900000006,"y":2570122.7500000019}},{"attributes":{"ID":288629,"DIS_CODE":0,"TOWNNAME":"安定區","LI":"新吉里","LIN":"2鄰","STREET":" ","SECT":" ","MAREA":"新吉","LANE":" ","ALLEY":" ","HOUSE_NO":"１３號","E_COORD97":169416.76999999999,"N_COORD97":2554149.25,"ADDRESS":"新吉１３號","OBJECTID":288623},"geometry":{"x":169416.77000000048,"y":2554149.25}},{"attributes":{"ID":288630,"DIS_CODE":0,"TOWNNAME":"六甲區","LI":"甲東里","LIN":"10鄰","STREET":"忠孝街","SECT":" ","MAREA":" ","LANE":"２５０巷","ALLEY":" ","HOUSE_NO":"１８號","E_COORD97":184138.89000000001,"N_COORD97":2570118.0800000001,"ADDRESS":"忠孝街２５０巷１８號","OBJECTID":288624},"geometry":{"x":184138.8900000006,"y":2570118.0800000001}},{"attributes":{"ID":288631,"DIS_CODE":0,"TOWNNAME":"六甲區","LI":"甲東里","LIN":"10鄰","STREET":"忠孝街","SECT":" ","MAREA":" ","LANE":"２５０巷","ALLEY":" ","HOUSE_NO":"２０號","E_COORD97":184138.95999999999,"N_COORD97":2570114.27,"ADDRESS":"忠孝街２５０巷２０號","OBJECTID":288625},"geometry":{"x":184138.96000000089,"y":2570114.2700000033}},{"attributes":{"ID":288632,"DIS_CODE":0,"TOWNNAME":"六甲區","LI":"甲東里","LIN":"10鄰","STREET":"忠孝街","SECT":" ","MAREA":" ","LANE":"２５０巷","ALLEY":" ","HOUSE_NO":"４號","E_COORD97":184170.70999999999,"N_COORD97":2570138.3599999999,"ADDRESS":"忠孝街２５０巷４號","OBJECTID":288626},"geometry":{"x":184170.71000000089,"y":2570138.3600000013}},{"attributes":{"ID":288633,"DIS_CODE":0,"TOWNNAME":"六甲區","LI":"甲東里","LIN":"10鄰","STREET":"曾文街","SECT":" ","MAREA":" ","LANE":"１００巷","ALLEY":" ","HOUSE_NO":"１號","E_COORD97":184320.60999999999,"N_COORD97":2570358.23,"ADDRESS":"曾文街１００巷１號","OBJECTID":288627},"geometry":{"x":184320.6100000022,"y":2570358.2300000004}},{"attributes":{"ID":288634,"DIS_CODE":0,"TOWNNAME":"六甲區","LI":"甲東里","LIN":"10鄰","STREET":"曾文街","SECT":" ","MAREA":" ","LANE":"１００巷","ALLEY":" ","HOUSE_NO":"５號","E_COORD97":184317.60999999999,"N_COORD97":2570324.5699999998,"ADDRESS":"曾文街１００巷５號","OBJECTID":288628},"geometry":{"x":184317.61000000127,"y":2570324.5700000022}},{"attributes":{"ID":288635,"DIS_CODE":0,"TOWNNAME":"六甲區","LI":"甲東里","LIN":"10鄰","STREET":"曾文街","SECT":" ","MAREA":" ","LANE":"１００巷","ALLEY":" ","HOUSE_NO":"７之１號","E_COORD97":184378.56,"N_COORD97":2570291.71,"ADDRESS":"曾文街１００巷７之１號","OBJECTID":288629},"geometry":{"x":184378.56000000052,"y":2570291.7100000009}},{"attributes":{"ID":288636,"DIS_CODE":0,"TOWNNAME":"六甲區","LI":"甲東里","LIN":"10鄰","STREET":"曾文街","SECT":" ","MAREA":" ","LANE":"１００巷","ALLEY":" ","HOUSE_NO":"７號","E_COORD97":184374.01000000001,"N_COORD97":2570291.6600000001,"ADDRESS":"曾文街１００巷７號","OBJECTID":288630},"geometry":{"x":184374.01000000071,"y":2570291.6600000001}},{"attributes":{"ID":288637,"DIS_CODE":0,"TOWNNAME":"六甲區","LI":"甲東里","LIN":"10鄰","STREET":"曾文街","SECT":" ","MAREA":" ","LANE":"１００巷","ALLEY":" ","HOUSE_NO":"９號","E_COORD97":184297.45999999999,"N_COORD97":2570287.4199999999,"ADDRESS":"曾文街１００巷９號","OBJECTID":288631},"geometry":{"x":184297.46000000183,"y":2570287.4200000018}},{"attributes":{"ID":288638,"DIS_CODE":0,"TOWNNAME":"佳里區","LI":"蚶寮里","LIN":"2鄰","STREET":" ","SECT":" ","MAREA":"蚶寮","LANE":" ","ALLEY":" ","HOUSE_NO":"１８號","E_COORD97":163893.69,"N_COORD97":2558565.8700000001,"ADDRESS":"蚶寮１８號","OBJECTID":288632},"geometry":{"x":163893.69000000134,"y":2558565.8700000029}},{"attributes":{"ID":288639,"DIS_CODE":0,"TOWNNAME":"佳里區","LI":"蚶寮里","LIN":"2鄰","STREET":" ","SECT":" ","MAREA":"蚶寮","LANE":" ","ALLEY":" ","HOUSE_NO":"１９號","E_COORD97":163921.13,"N_COORD97":2558552.48,"ADDRESS":"蚶寮１９號","OBJECTID":288633},"geometry":{"x":163921.12999999989,"y":2558552.4799999986}},{"attributes":{"ID":288640,"DIS_CODE":0,"TOWNNAME":"佳里區","LI":"蚶寮里","LIN":"2鄰","STREET":" ","SECT":" ","MAREA":"蚶寮","LANE":" ","ALLEY":" ","HOUSE_NO":"２０號","E_COORD97":163939.69,"N_COORD97":2558554.79,"ADDRESS":"蚶寮２０號","OBJECTID":288634},"geometry":{"x":163939.69000000134,"y":2558554.7899999991}},{"attributes":{"ID":288641,"DIS_CODE":0,"TOWNNAME":"學甲區","LI":"中洲里","LIN":"2鄰","STREET":" ","SECT":" ","MAREA":"中洲","LANE":" ","ALLEY":" ","HOUSE_NO":"２２號之２","E_COORD97":163993.45999999999,"N_COORD97":2571456.7599999998,"ADDRESS":"中洲２２號之２","OBJECTID":288635},"geometry":{"x":163993.45999999996,"y":2571456.7599999998}},{"attributes":{"ID":288642,"DIS_CODE":0,"TOWNNAME":"學甲區","LI":"中洲里","LIN":"2鄰","STREET":" ","SECT":" ","MAREA":"中洲","LANE":" ","ALLEY":" ","HOUSE_NO":"２２號之３","E_COORD97":163994,"N_COORD97":2571450.3799999999,"ADDRESS":"中洲２２號之３","OBJECTID":288636},"geometry":{"x":163994.00000000186,"y":2571450.3800000008}},{"attributes":{"ID":288643,"DIS_CODE":0,"TOWNNAME":"學甲區","LI":"中洲里","LIN":"2鄰","STREET":" ","SECT":" ","MAREA":"中洲","LANE":" ","ALLEY":" ","HOUSE_NO":"２２號之５","E_COORD97":163993.79999999999,"N_COORD97":2571436.3300000001,"ADDRESS":"中洲２２號之５","OBJECTID":288637},"geometry":{"x":163993.80000000075,"y":2571436.3300000001}},{"attributes":{"ID":288644,"DIS_CODE":0,"TOWNNAME":"學甲區","LI":"新達里","LIN":"2鄰","STREET":"中山路","SECT":" ","MAREA":" ","LANE":" ","ALLEY":" ","HOUSE_NO":"９４號","E_COORD97":166229.79000000001,"N_COORD97":2570495.7200000002,"ADDRESS":"中山路９４號","OBJECTID":288638},"geometry":{"x":166229.7900000019,"y":2570495.7200000044}},{"attributes":{"ID":288645,"DIS_CODE":0,"TOWNNAME":"學甲區","LI":"中洲里","LIN":"2鄰","STREET":" ","SECT":" ","MAREA":"中洲","LANE":" ","ALLEY":" ","HOUSE_NO":"２４號之１","E_COORD97":164002.89000000001,"N_COORD97":2571542.6899999999,"ADDRESS":"中洲２４號之１","OBJECTID":288639},"geometry":{"x":164002.89000000153,"y":2571542.6900000013}},{"attributes":{"ID":288646,"DIS_CODE":0,"TOWNNAME":"學甲區","LI":"新達里","LIN":"2鄰","STREET":"中山路","SECT":" ","MAREA":" ","LANE":" ","ALLEY":" ","HOUSE_NO":"９６號","E_COORD97":166224.75,"N_COORD97":2570496.6699999999,"ADDRESS":"中山路９６號","OBJECTID":288640},"geometry":{"x":166224.74999999907,"y":2570496.6700000018}},{"attributes":{"ID":288647,"DIS_CODE":0,"TOWNNAME":"學甲區","LI":"中洲里","LIN":"2鄰","STREET":" ","SECT":" ","MAREA":"中洲","LANE":" ","ALLEY":" ","HOUSE_NO":"２４號之２","E_COORD97":163999.12,"N_COORD97":2571543.75,"ADDRESS":"中洲２４號之２","OBJECTID":288641},"geometry":{"x":163999.12000000104,"y":2571543.7500000019}},{"attributes":{"ID":288648,"DIS_CODE":0,"TOWNNAME":"六甲區","LI":"甲東里","LIN":"10鄰","STREET":"曾文街","SECT":" ","MAREA":" ","LANE":"１１０巷","ALLEY":" ","HOUSE_NO":"１７號","E_COORD97":184429.28,"N_COORD97":2570316.9100000001,"ADDRESS":"曾文街１１０巷１７號","OBJECTID":288642},"geometry":{"x":184429.28000000026,"y":2570316.9100000001}},{"attributes":{"ID":288649,"DIS_CODE":0,"TOWNNAME":"新營區","LI":"新南里","LIN":"10鄰","STREET":"新北五街","SECT":" ","MAREA":" ","LANE":"１４３巷","ALLEY":" ","HOUSE_NO":"１１號","E_COORD97":178534.64000000001,"N_COORD97":2579111.29,"ADDRESS":"新北五街１４３巷１１號","OBJECTID":288643},"geometry":{"x":178534.6400000006,"y":2579111.2899999991}},{"attributes":{"ID":288650,"DIS_CODE":0,"TOWNNAME":"學甲區","LI":"中洲里","LIN":"2鄰","STREET":" ","SECT":" ","MAREA":"中洲","LANE":" ","ALLEY":" ","HOUSE_NO":"２４號之３","E_COORD97":163995.64999999999,"N_COORD97":2571545.1000000001,"ADDRESS":"中洲２４號之３","OBJECTID":288644},"geometry":{"x":163995.6500000013,"y":2571545.0999999996}},{"attributes":{"ID":288651,"DIS_CODE":0,"TOWNNAME":"新營區","LI":"新南里","LIN":"10鄰","STREET":"新北五街","SECT":" ","MAREA":" ","LANE":"１４３巷","ALLEY":" ","HOUSE_NO":"１６號","E_COORD97":178525.51000000001,"N_COORD97":2579126.8399999999,"ADDRESS":"新北五街１４３巷１６號","OBJECTID":288645},"geometry":{"x":178525.51000000071,"y":2579126.8400000017}},{"attributes":{"ID":288652,"DIS_CODE":0,"TOWNNAME":"新營區","LI":"新東里","LIN":"10鄰","STREET":"東仁街","SECT":" ","MAREA":" ","LANE":"８２巷","ALLEY":" ","HOUSE_NO":"３０號","E_COORD97":181390.07999999999,"N_COORD97":2579696.9199999999,"ADDRESS":"東仁街８２巷３０號","OBJECTID":288646},"geometry":{"x":181390.08000000101,"y":2579696.9199999999}},{"attributes":{"ID":288653,"DIS_CODE":0,"TOWNNAME":"新營區","LI":"新東里","LIN":"10鄰","STREET":"東仁街","SECT":" ","MAREA":" ","LANE":"８２巷","ALLEY":" ","HOUSE_NO":"１２號","E_COORD97":181355.28,"N_COORD97":2579709.2599999998,"ADDRESS":"東仁街８２巷１２號","OBJECTID":288647},"geometry":{"x":181355.28000000119,"y":2579709.2600000035}},{"attributes":{"ID":288654,"DIS_CODE":0,"TOWNNAME":"學甲區","LI":"中洲里","LIN":"2鄰","STREET":" ","SECT":" ","MAREA":"中洲","LANE":" ","ALLEY":" ","HOUSE_NO":"２４號之４","E_COORD97":163991.82000000001,"N_COORD97":2571546.3599999999,"ADDRESS":"中洲２４號之４","OBJECTID":288648},"geometry":{"x":163991.8200000003,"y":2571546.3599999994}},{"attributes":{"ID":288655,"DIS_CODE":0,"TOWNNAME":"新營區","LI":"新東里","LIN":"10鄰","STREET":"東仁街","SECT":" ","MAREA":" ","LANE":"８２巷","ALLEY":" ","HOUSE_NO":"２０號","E_COORD97":181370.66,"N_COORD97":2579703.6499999999,"ADDRESS":"東仁街８２巷２０號","OBJECTID":288649},"geometry":{"x":181370.66000000108,"y":2579703.6500000004}},{"attributes":{"ID":288656,"DIS_CODE":0,"TOWNNAME":"學甲區","LI":"中洲里","LIN":"2鄰","STREET":" ","SECT":" ","MAREA":"中洲","LANE":" ","ALLEY":" ","HOUSE_NO":"２４號之６","E_COORD97":163990.95000000001,"N_COORD97":2571465.73,"ADDRESS":"中洲２４號之６","OBJECTID":288650},"geometry":{"x":163990.95000000019,"y":2571465.7300000023}},{"attributes":{"ID":288657,"DIS_CODE":0,"TOWNNAME":"新營區","LI":"大宏里","LIN":"10鄰","STREET":"民治路","SECT":" ","MAREA":" ","LANE":"２９巷","ALLEY":" ","HOUSE_NO":"２號","E_COORD97":180174.87,"N_COORD97":2578847.6400000001,"ADDRESS":"民治路２９巷２號","OBJECTID":288651},"geometry":{"x":180174.87000000011,"y":2578847.6400000025}},{"attributes":{"ID":288658,"DIS_CODE":0,"TOWNNAME":"歸仁區","LI":"六甲里","LIN":"10鄰","STREET":"六甲路","SECT":" ","MAREA":" ","LANE":"１５１巷","ALLEY":" ","HOUSE_NO":"１９號","E_COORD97":176143.51000000001,"N_COORD97":2539144.25,"ADDRESS":"六甲路１５１巷１９號","OBJECTID":288652},"geometry":{"x":176143.51000000071,"y":2539144.2500000019}},{"attributes":{"ID":288659,"DIS_CODE":0,"TOWNNAME":"學甲區","LI":"新達里","LIN":"2鄰","STREET":"中山路","SECT":" ","MAREA":" ","LANE":" ","ALLEY":" ","HOUSE_NO":"９８號","E_COORD97":166217.39999999999,"N_COORD97":2570514.25,"ADDRESS":"中山路９８號","OBJECTID":288653},"geometry":{"x":166217.40000000224,"y":2570514.25}},{"attributes":{"ID":288660,"DIS_CODE":0,"TOWNNAME":"歸仁區","LI":"六甲里","LIN":"10鄰","STREET":"六甲路","SECT":" ","MAREA":" ","LANE":"１５１巷","ALLEY":" ","HOUSE_NO":"２３號","E_COORD97":176141.41,"N_COORD97":2539134.25,"ADDRESS":"六甲路１５１巷２３號","OBJECTID":288654},"geometry":{"x":176141.41000000108,"y":2539134.2500000019}},{"attributes":{"ID":288661,"DIS_CODE":0,"TOWNNAME":"學甲區","LI":"中洲里","LIN":"2鄰","STREET":" ","SECT":" ","MAREA":"中洲","LANE":" ","ALLEY":" ","HOUSE_NO":"２４號","E_COORD97":163994.64000000001,"N_COORD97":2571488.21,"ADDRESS":"中洲２４號","OBJECTID":288655},"geometry":{"x":163994.6400000006,"y":2571488.2100000009}},{"attributes":{"ID":288662,"DIS_CODE":0,"TOWNNAME":"歸仁區","LI":"後市里","LIN":"2鄰","STREET":"大順街","SECT":" ","MAREA":" ","LANE":" ","ALLEY":" ","HOUSE_NO":"８１號","E_COORD97":177197.69,"N_COORD97":2540595.6800000002,"ADDRESS":"大順街８１號","OBJECTID":288656},"geometry":{"x":177197.69000000134,"y":2540595.6800000016}},{"attributes":{"ID":288663,"DIS_CODE":0,"TOWNNAME":"歸仁區","LI":"崙頂里","LIN":"2鄰","STREET":"成功路","SECT":"一段","MAREA":" ","LANE":" ","ALLEY":" ","HOUSE_NO":"３２５號","E_COORD97":178226.79000000001,"N_COORD97":2539901.5499999998,"ADDRESS":"成功路一段３２５號","OBJECTID":288657},"geometry":{"x":178226.79000000097,"y":2539901.5500000007}},{"attributes":{"ID":288664,"DIS_CODE":0,"TOWNNAME":"歸仁區","LI":"六甲里","LIN":"10鄰","STREET":"六甲路","SECT":" ","MAREA":" ","LANE":"１５１巷","ALLEY":" ","HOUSE_NO":"４０號","E_COORD97":176115.51000000001,"N_COORD97":2539074.25,"ADDRESS":"六甲路１５１巷４０號","OBJECTID":288658},"geometry":{"x":176115.50999999978,"y":2539074.2500000019}},{"attributes":{"ID":288665,"DIS_CODE":0,"TOWNNAME":"歸仁區","LI":"新厝里","LIN":"2鄰","STREET":"中正南路","SECT":"一段","MAREA":" ","LANE":" ","ALLEY":" ","HOUSE_NO":"１３號","E_COORD97":177635.14999999999,"N_COORD97":2540690.25,"ADDRESS":"中正南路一段１３號","OBJECTID":288659},"geometry":{"x":177635.1500000013,"y":2540690.2500000019}},{"attributes":{"ID":288666,"DIS_CODE":0,"TOWNNAME":"歸仁區","LI":"新厝里","LIN":"2鄰","STREET":"中正一街","SECT":" ","MAREA":" ","LANE":" ","ALLEY":" ","HOUSE_NO":"７號","E_COORD97":177660.34,"N_COORD97":2540713.6800000002,"ADDRESS":"中正一街７號","OBJECTID":288660},"geometry":{"x":177660.34000000078,"y":2540713.6800000034}},{"attributes":{"ID":288667,"DIS_CODE":0,"TOWNNAME":"歸仁區","LI":"辜厝里","LIN":"2鄰","STREET":"中山路","SECT":"二段","MAREA":" ","LANE":" ","ALLEY":" ","HOUSE_NO":"６７號","E_COORD97":177442.73999999999,"N_COORD97":2540783.5499999998,"ADDRESS":"中山路二段６７號","OBJECTID":288661},"geometry":{"x":177442.74000000115,"y":2540783.5500000045}},{"attributes":{"ID":288668,"DIS_CODE":0,"TOWNNAME":"歸仁區","LI":"崙頂里","LIN":"2鄰","STREET":"成功路","SECT":"一段","MAREA":" ","LANE":" ","ALLEY":" ","HOUSE_NO":"３０７號","E_COORD97":178253.85999999999,"N_COORD97":2539934.3700000001,"ADDRESS":"成功路一段３０７號","OBJECTID":288662},"geometry":{"x":178253.86000000127,"y":2539934.3700000029}},{"attributes":{"ID":288669,"DIS_CODE":0,"TOWNNAME":"歸仁區","LI":"崙頂里","LIN":"2鄰","STREET":"成功路","SECT":"一段","MAREA":" ","LANE":" ","ALLEY":" ","HOUSE_NO":"３２７號","E_COORD97":178222.69,"N_COORD97":2539902.5499999998,"ADDRESS":"成功路一段３２７號","OBJECTID":288663},"geometry":{"x":178222.69000000134,"y":2539902.5500000026}},{"attributes":{"ID":288670,"DIS_CODE":0,"TOWNNAME":"歸仁區","LI":"看西里","LIN":"2鄰","STREET":"成功六街","SECT":" ","MAREA":" ","LANE":" ","ALLEY":" ","HOUSE_NO":"１２８號","E_COORD97":178410.35999999999,"N_COORD97":2540393.2000000002,"ADDRESS":"成功六街１２８號","OBJECTID":288664},"geometry":{"x":178410.36000000034,"y":2540393.1999999993}},{"attributes":{"ID":288671,"DIS_CODE":0,"TOWNNAME":"歸仁區","LI":"辜厝里","LIN":"2鄰","STREET":"中山路","SECT":"二段","MAREA":" ","LANE":" ","ALLEY":" ","HOUSE_NO":"７１號","E_COORD97":177432.44,"N_COORD97":2540782.5499999998,"ADDRESS":"中山路二段７１號","OBJECTID":288665},"geometry":{"x":177432.44000000041,"y":2540782.5500000007}},{"attributes":{"ID":288672,"DIS_CODE":0,"TOWNNAME":"中西區","LI":"安海里","LIN":"3鄰","STREET":"河中街","SECT":" ","MAREA":" ","LANE":" ","ALLEY":" ","HOUSE_NO":"２８號之３","E_COORD97":167306.53,"N_COORD97":2543988.73,"ADDRESS":"河中街２８號之３","OBJECTID":288666},"geometry":{"x":167306.53000000212,"y":2543988.7300000004}},{"attributes":{"ID":288673,"DIS_CODE":0,"TOWNNAME":"歸仁區","LI":"大潭里","LIN":"10鄰","STREET":"長榮路","SECT":"一段","MAREA":" ","LANE":"２１１巷","ALLEY":" ","HOUSE_NO":"３號","E_COORD97":175068.85999999999,"N_COORD97":2534589.2799999998,"ADDRESS":"長榮路一段２１１巷３號","OBJECTID":288667},"geometry":{"x":175068.86000000127,"y":2534589.2799999993}},{"attributes":{"ID":288674,"DIS_CODE":0,"TOWNNAME":"歸仁區","LI":"六甲里","LIN":"10鄰","STREET":"六甲路","SECT":" ","MAREA":" ","LANE":"１５１巷","ALLEY":" ","HOUSE_NO":"２９號","E_COORD97":176138.20999999999,"N_COORD97":2539120.25,"ADDRESS":"六甲路１５１巷２９號","OBJECTID":288668},"geometry":{"x":176138.20999999996,"y":2539120.2500000037}},{"attributes":{"ID":288675,"DIS_CODE":0,"TOWNNAME":"柳營區","LI":"人和里","LIN":"10鄰","STREET":"柳營路","SECT":"三段","MAREA":" ","LANE":"２７５巷","ALLEY":" ","HOUSE_NO":"１０號","E_COORD97":179653.26000000001,"N_COORD97":2576920.98,"ADDRESS":"柳營路三段２７５巷１０號","OBJECTID":288669},"geometry":{"x":179653.25999999978,"y":2576920.9800000004}},{"attributes":{"ID":288676,"DIS_CODE":0,"TOWNNAME":"柳營區","LI":"人和里","LIN":"10鄰","STREET":"柳營路","SECT":"三段","MAREA":" ","LANE":"２７５巷","ALLEY":" ","HOUSE_NO":"１２號","E_COORD97":179645.57000000001,"N_COORD97":2576924.5,"ADDRESS":"柳營路三段２７５巷１２號","OBJECTID":288670},"geometry":{"x":179645.57000000216,"y":2576924.5000000037}},{"attributes":{"ID":288677,"DIS_CODE":0,"TOWNNAME":"柳營區","LI":"人和里","LIN":"10鄰","STREET":"柳營路","SECT":"三段","MAREA":" ","LANE":"２７５巷","ALLEY":" ","HOUSE_NO":"２０號","E_COORD97":179634.47,"N_COORD97":2576933.8599999999,"ADDRESS":"柳營路三段２７５巷２０號","OBJECTID":288671},"geometry":{"x":179634.47000000067,"y":2576933.8599999994}},{"attributes":{"ID":288678,"DIS_CODE":0,"TOWNNAME":"柳營區","LI":"人和里","LIN":"10鄰","STREET":"柳營路","SECT":"三段","MAREA":" ","LANE":"２７５巷","ALLEY":" ","HOUSE_NO":"２號","E_COORD97":179659.79000000001,"N_COORD97":2576917.4199999999,"ADDRESS":"柳營路三段２７５巷２號","OBJECTID":288672},"geometry":{"x":179659.79000000097,"y":2576917.4199999999}},{"attributes":{"ID":288679,"DIS_CODE":0,"TOWNNAME":"柳營區","LI":"人和里","LIN":"10鄰","STREET":"柳營路","SECT":"三段","MAREA":" ","LANE":"２８５巷","ALLEY":" ","HOUSE_NO":"６號","E_COORD97":179640.79000000001,"N_COORD97":2576952.23,"ADDRESS":"柳營路三段２８５巷６號","OBJECTID":288673},"geometry":{"x":179640.79000000097,"y":2576952.2300000004}},{"attributes":{"ID":288680,"DIS_CODE":0,"TOWNNAME":"柳營區","LI":"篤農里","LIN":"10鄰","STREET":"義士路","SECT":"一段","MAREA":" ","LANE":"７１０巷","ALLEY":" ","HOUSE_NO":"１２７號","E_COORD97":185608.14000000001,"N_COORD97":2576246.75,"ADDRESS":"義士路一段７１０巷１２７號","OBJECTID":288674},"geometry":{"x":185608.14000000153,"y":2576246.75}},{"attributes":{"ID":288681,"DIS_CODE":0,"TOWNNAME":"柳營區","LI":"篤農里","LIN":"10鄰","STREET":"義士路","SECT":"一段","MAREA":" ","LANE":"７１０巷","ALLEY":" ","HOUSE_NO":"４３號","E_COORD97":185589.37,"N_COORD97":2576018.02,"ADDRESS":"義士路一段７１０巷４３號","OBJECTID":288675},"geometry":{"x":185589.37000000011,"y":2576018.0199999996}},{"attributes":{"ID":288682,"DIS_CODE":0,"TOWNNAME":"柳營區","LI":"光福里","LIN":"10鄰","STREET":"福安二街","SECT":" ","MAREA":" ","LANE":"３８巷","ALLEY":" ","HOUSE_NO":"２０號","E_COORD97":179764.60999999999,"N_COORD97":2575235.6499999999,"ADDRESS":"福安二街３８巷２０號","OBJECTID":288676},"geometry":{"x":179764.61000000127,"y":2575235.6500000041}},{"attributes":{"ID":288683,"DIS_CODE":0,"TOWNNAME":"柳營區","LI":"光福里","LIN":"10鄰","STREET":"福安二街","SECT":" ","MAREA":" ","LANE":"３８巷","ALLEY":" ","HOUSE_NO":"２２號","E_COORD97":179763.32000000001,"N_COORD97":2575239.6299999999,"ADDRESS":"福安二街３８巷２２號","OBJECTID":288677},"geometry":{"x":179763.3200000003,"y":2575239.629999999}},{"attributes":{"ID":288684,"DIS_CODE":0,"TOWNNAME":"柳營區","LI":"光福里","LIN":"10鄰","STREET":"福安二街","SECT":" ","MAREA":" ","LANE":"３８巷","ALLEY":" ","HOUSE_NO":"２６號","E_COORD97":179762.01999999999,"N_COORD97":2575243.6200000001,"ADDRESS":"福安二街３８巷２６號","OBJECTID":288678},"geometry":{"x":179762.02000000142,"y":2575243.6200000029}},{"attributes":{"ID":288685,"DIS_CODE":0,"TOWNNAME":"柳營區","LI":"光福里","LIN":"10鄰","STREET":"福安二街","SECT":" ","MAREA":" ","LANE":"３８巷","ALLEY":" ","HOUSE_NO":"２８號","E_COORD97":179760.73000000001,"N_COORD97":2575247.6099999999,"ADDRESS":"福安二街３８巷２８號","OBJECTID":288679},"geometry":{"x":179760.73000000045,"y":2575247.6099999994}},{"attributes":{"ID":288686,"DIS_CODE":0,"TOWNNAME":"善化區","LI":"文昌里","LIN":"13鄰","STREET":"永福路","SECT":" ","MAREA":" ","LANE":" ","ALLEY":" ","HOUSE_NO":"４９號","E_COORD97":177516.60000000001,"N_COORD97":2558863,"ADDRESS":"永福路４９號","OBJECTID":288680},"geometry":{"x":177516.59999999963,"y":2558863}},{"attributes":{"ID":288687,"DIS_CODE":0,"TOWNNAME":"柳營區","LI":"光福里","LIN":"10鄰","STREET":"福安二街","SECT":" ","MAREA":" ","LANE":"３８巷","ALLEY":" ","HOUSE_NO":"３０號","E_COORD97":179759.42999999999,"N_COORD97":2575251.5899999999,"ADDRESS":"福安二街３８巷３０號","OBJECTID":288681},"geometry":{"x":179759.43000000156,"y":2575251.5899999999}},{"attributes":{"ID":288688,"DIS_CODE":0,"TOWNNAME":"柳營區","LI":"光福里","LIN":"10鄰","STREET":"福安二街","SECT":" ","MAREA":" ","LANE":"３８巷","ALLEY":" ","HOUSE_NO":"３２號","E_COORD97":179758.14000000001,"N_COORD97":2575255.5800000001,"ADDRESS":"福安二街３８巷３２號","OBJECTID":288682},"geometry":{"x":179758.1400000006,"y":2575255.5800000001}},{"attributes":{"ID":288689,"DIS_CODE":0,"TOWNNAME":"新營區","LI":"新北里","LIN":"32鄰","STREET":"新北街","SECT":" ","MAREA":" ","LANE":" ","ALLEY":" ","HOUSE_NO":"２５０號","E_COORD97":178633.399592,"N_COORD97":2579183.28608,"ADDRESS":"新北街２５０號","OBJECTID":288683},"geometry":{"x":178633.39959200099,"y":2579183.2860840019}},{"attributes":{"ID":288690,"DIS_CODE":0,"TOWNNAME":"中西區","LI":"安海里","LIN":"3鄰","STREET":"河中街","SECT":" ","MAREA":" ","LANE":" ","ALLEY":" ","HOUSE_NO":"３４號","E_COORD97":167308.59,"N_COORD97":2544012.5899999999,"ADDRESS":"河中街３４號","OBJECTID":288684},"geometry":{"x":167308.58999999985,"y":2544012.5899999999}},{"attributes":{"ID":288691,"DIS_CODE":0,"TOWNNAME":"北區","LI":"興北里","LIN":"10鄰","STREET":"公園路","SECT":" ","MAREA":" ","LANE":"５１６巷","ALLEY":" ","HOUSE_NO":"１３號","E_COORD97":169095.72,"N_COORD97":2545255.8599999999,"ADDRESS":"公園路５１６巷１３號","OBJECTID":288685},"geometry":{"x":169095.71999999974,"y":2545255.8600000013}},{"attributes":{"ID":288692,"DIS_CODE":0,"TOWNNAME":"北區","LI":"興北里","LIN":"10鄰","STREET":"公園路","SECT":" ","MAREA":" ","LANE":"５１６巷","ALLEY":" ","HOUSE_NO":"１５號","E_COORD97":169102.84,"N_COORD97":2545255.8599999999,"ADDRESS":"公園路５１６巷１５號","OBJECTID":288686},"geometry":{"x":169102.84000000078,"y":2545255.8600000013}},{"attributes":{"ID":288693,"DIS_CODE":0,"TOWNNAME":"北區","LI":"興北里","LIN":"10鄰","STREET":"公園路","SECT":" ","MAREA":" ","LANE":"５１６巷","ALLEY":" ","HOUSE_NO":"１７號","E_COORD97":169110.37,"N_COORD97":2545256.27,"ADDRESS":"公園路５１６巷１７號","OBJECTID":288687},"geometry":{"x":169110.37000000011,"y":2545256.2700000033}},{"attributes":{"ID":288694,"DIS_CODE":0,"TOWNNAME":"北區","LI":"興北里","LIN":"10鄰","STREET":"公園路","SECT":" ","MAREA":" ","LANE":"５１６巷","ALLEY":" ","HOUSE_NO":"１９號","E_COORD97":169116.28,"N_COORD97":2545272.1800000002,"ADDRESS":"公園路５１６巷１９號","OBJECTID":288688},"geometry":{"x":169116.28000000026,"y":2545272.1799999997}},{"attributes":{"ID":288695,"DIS_CODE":0,"TOWNNAME":"歸仁區","LI":"六甲里","LIN":"10鄰","STREET":"六甲路","SECT":" ","MAREA":" ","LANE":"２０１巷","ALLEY":" ","HOUSE_NO":"５號","E_COORD97":176071.56,"N_COORD97":2539170.25,"ADDRESS":"六甲路２０１巷５號","OBJECTID":288689},"geometry":{"x":176071.56000000052,"y":2539170.25}},{"attributes":{"ID":288696,"DIS_CODE":0,"TOWNNAME":"歸仁區","LI":"武東里","LIN":"10鄰","STREET":"武東三街","SECT":" ","MAREA":" ","LANE":"４６巷","ALLEY":" ","HOUSE_NO":"３號","E_COORD97":175171.23999999999,"N_COORD97":2535260.25,"ADDRESS":"武東三街４６巷３號","OBJECTID":288690},"geometry":{"x":175171.24000000115,"y":2535260.25}},{"attributes":{"ID":288697,"DIS_CODE":0,"TOWNNAME":"歸仁區","LI":"七甲里","LIN":"10鄰","STREET":"七甲一街","SECT":" ","MAREA":" ","LANE":"３３巷","ALLEY":" ","HOUSE_NO":"１號","E_COORD97":177580.59,"N_COORD97":2542504.6600000001,"ADDRESS":"七甲一街３３巷１號","OBJECTID":288691},"geometry":{"x":177580.59000000078,"y":2542504.6600000039}},{"attributes":{"ID":288698,"DIS_CODE":0,"TOWNNAME":"歸仁區","LI":"六甲里","LIN":"10鄰","STREET":"六甲路","SECT":" ","MAREA":" ","LANE":"１５１巷","ALLEY":" ","HOUSE_NO":"４１號","E_COORD97":176128.91,"N_COORD97":2539093.25,"ADDRESS":"六甲路１５１巷４１號","OBJECTID":288692},"geometry":{"x":176128.91000000201,"y":2539093.2500000019}},{"attributes":{"ID":288699,"DIS_CODE":0,"TOWNNAME":"北區","LI":"國興里","LIN":"10鄰","STREET":"開元路","SECT":" ","MAREA":" ","LANE":"３９４巷","ALLEY":" ","HOUSE_NO":"５號","E_COORD97":170583.82000000001,"N_COORD97":2545617.5299999998,"ADDRESS":"開元路３９４巷５號","OBJECTID":288693},"geometry":{"x":170583.82000000123,"y":2545617.5300000012}},{"attributes":{"ID":288700,"DIS_CODE":0,"TOWNNAME":"北區","LI":"國興里","LIN":"10鄰","STREET":"開元路","SECT":" ","MAREA":" ","LANE":"３９４巷","ALLEY":" ","HOUSE_NO":"１１號","E_COORD97":170592.64999999999,"N_COORD97":2545610.3900000001,"ADDRESS":"開元路３９４巷１１號","OBJECTID":288694},"geometry":{"x":170592.64999999944,"y":2545610.3900000025}},{"attributes":{"ID":288701,"DIS_CODE":0,"TOWNNAME":"北區","LI":"國興里","LIN":"10鄰","STREET":"開元路","SECT":" ","MAREA":" ","LANE":"３９４巷","ALLEY":" ","HOUSE_NO":"１３號","E_COORD97":170594.17999999999,"N_COORD97":2545607.0299999998,"ADDRESS":"開元路３９４巷１３號","OBJECTID":288695},"geometry":{"x":170594.18000000063,"y":2545607.0300000012}},{"attributes":{"ID":288702,"DIS_CODE":0,"TOWNNAME":"北區","LI":"國興里","LIN":"10鄰","STREET":"開元路","SECT":" ","MAREA":" ","LANE":"３９４巷","ALLEY":" ","HOUSE_NO":"１５號","E_COORD97":170596.78,"N_COORD97":2545603.77,"ADDRESS":"開元路３９４巷１５號","OBJECTID":288696},"geometry":{"x":170596.78000000212,"y":2545603.7699999996}},{"attributes":{"ID":288703,"DIS_CODE":0,"TOWNNAME":"北區","LI":"國興里","LIN":"10鄰","STREET":"開元路","SECT":" ","MAREA":" ","LANE":"３９４巷","ALLEY":" ","HOUSE_NO":"１７號","E_COORD97":170598.5,"N_COORD97":2545600.3199999998,"ADDRESS":"開元路３９４巷１７號","OBJECTID":288697},"geometry":{"x":170598.50000000186,"y":2545600.3200000022}},{"attributes":{"ID":288704,"DIS_CODE":0,"TOWNNAME":"北區","LI":"國興里","LIN":"10鄰","STREET":"開元路","SECT":" ","MAREA":" ","LANE":"３９４巷","ALLEY":" ","HOUSE_NO":"１９號","E_COORD97":170600.04000000001,"N_COORD97":2545596.77,"ADDRESS":"開元路３９４巷１９號","OBJECTID":288698},"geometry":{"x":170600.04000000097,"y":2545596.7700000014}},{"attributes":{"ID":288705,"DIS_CODE":0,"TOWNNAME":"北區","LI":"國興里","LIN":"10鄰","STREET":"開元路","SECT":" ","MAREA":" ","LANE":"３９４巷","ALLEY":" ","HOUSE_NO":"２１號","E_COORD97":170601.87,"N_COORD97":2545593.1200000001,"ADDRESS":"開元路３９４巷２１號","OBJECTID":288699},"geometry":{"x":170601.87000000104,"y":2545593.120000001}},{"attributes":{"ID":288706,"DIS_CODE":0,"TOWNNAME":"北區","LI":"國興里","LIN":"10鄰","STREET":"開元路","SECT":" ","MAREA":" ","LANE":"３９４巷","ALLEY":" ","HOUSE_NO":"２３號","E_COORD97":170604.26999999999,"N_COORD97":2545589.9500000002,"ADDRESS":"開元路３９４巷２３號","OBJECTID":288700},"geometry":{"x":170604.26999999955,"y":2545589.9499999974}},{"attributes":{"ID":288707,"DIS_CODE":0,"TOWNNAME":"北區","LI":"國興里","LIN":"10鄰","STREET":"開元路","SECT":" ","MAREA":" ","LANE":"３９４巷","ALLEY":" ","HOUSE_NO":"２５號","E_COORD97":170607.23999999999,"N_COORD97":2545584.77,"ADDRESS":"開元路３９４巷２５號","OBJECTID":288701},"geometry":{"x":170607.24000000209,"y":2545584.7699999977}},{"attributes":{"ID":288708,"DIS_CODE":0,"TOWNNAME":"北區","LI":"永祥里","LIN":"2鄰","STREET":"大武街","SECT":" ","MAREA":" ","LANE":" ","ALLEY":" ","HOUSE_NO":"４２０號","E_COORD97":169934.73999999999,"N_COORD97":2546459.7599999998,"ADDRESS":"大武街４２０號","OBJECTID":288702},"geometry":{"x":169934.74000000115,"y":2546459.7599999979}},{"attributes":{"ID":288709,"DIS_CODE":0,"TOWNNAME":"北區","LI":"國興里","LIN":"10鄰","STREET":"開元路","SECT":" ","MAREA":" ","LANE":"３９４巷","ALLEY":" ","HOUSE_NO":"９號","E_COORD97":170591.39999999999,"N_COORD97":2545611.73,"ADDRESS":"開元路３９４巷９號","OBJECTID":288703},"geometry":{"x":170591.4000000013,"y":2545611.7300000004}},{"attributes":{"ID":288710,"DIS_CODE":0,"TOWNNAME":"北區","LI":"勝安里","LIN":"10鄰","STREET":"開元路","SECT":" ","MAREA":" ","LANE":"２４９巷","ALLEY":" ","HOUSE_NO":"２７號","E_COORD97":169877.14999999999,"N_COORD97":2545502.5299999998,"ADDRESS":"開元路２４９巷２７號","OBJECTID":288704},"geometry":{"x":169877.15000000037,"y":2545502.5300000012}},{"attributes":{"ID":288711,"DIS_CODE":0,"TOWNNAME":"北區","LI":"勝安里","LIN":"10鄰","STREET":"開元路","SECT":" ","MAREA":" ","LANE":"７３巷","ALLEY":" ","HOUSE_NO":"１００號","E_COORD97":169879.98999999999,"N_COORD97":2545481.1000000001,"ADDRESS":"開元路７３巷１００號","OBJECTID":288705},"geometry":{"x":169879.99000000209,"y":2545481.1000000034}},{"attributes":{"ID":288712,"DIS_CODE":0,"TOWNNAME":"北區","LI":"勝安里","LIN":"10鄰","STREET":"開元路","SECT":" ","MAREA":" ","LANE":"７３巷","ALLEY":" ","HOUSE_NO":"１０２號","E_COORD97":169880.14999999999,"N_COORD97":2545485.6699999999,"ADDRESS":"開元路７３巷１０２號","OBJECTID":288706},"geometry":{"x":169880.15000000037,"y":2545485.6700000018}},{"attributes":{"ID":288713,"DIS_CODE":0,"TOWNNAME":"北區","LI":"勝安里","LIN":"10鄰","STREET":"開元路","SECT":" ","MAREA":" ","LANE":"７３巷","ALLEY":" ","HOUSE_NO":"１０２號之１","E_COORD97":169879.82999999999,"N_COORD97":2545489.6099999999,"ADDRESS":"開元路７３巷１０２號之１","OBJECTID":288707},"geometry":{"x":169879.83000000101,"y":2545489.6099999994}},{"attributes":{"ID":288714,"DIS_CODE":0,"TOWNNAME":"北區","LI":"勝安里","LIN":"10鄰","STREET":"開元路","SECT":" ","MAREA":" ","LANE":"７３巷","ALLEY":" ","HOUSE_NO":"１０２號之２","E_COORD97":169878.25,"N_COORD97":2545495.1299999999,"ADDRESS":"開元路７３巷１０２號之２","OBJECTID":288708},"geometry":{"x":169878.25000000093,"y":2545495.1300000008}},{"attributes":{"ID":288715,"DIS_CODE":0,"TOWNNAME":"新營區","LI":"姑爺里","LIN":"2鄰","STREET":" ","SECT":" ","MAREA":"姑爺","LANE":" ","ALLEY":" ","HOUSE_NO":"１１號","E_COORD97":174354.26000000001,"N_COORD97":2574282.48,"ADDRESS":"姑爺１１號","OBJECTID":288709},"geometry":{"x":174354.25999999978,"y":2574282.4800000004}},{"attributes":{"ID":288716,"DIS_CODE":0,"TOWNNAME":"北區","LI":"永祥里","LIN":"2鄰","STREET":"大武街","SECT":" ","MAREA":" ","LANE":" ","ALLEY":" ","HOUSE_NO":"５２３號","E_COORD97":170049.16,"N_COORD97":2546433.5600000001,"ADDRESS":"大武街５２３號","OBJECTID":288710},"geometry":{"x":170049.16000000015,"y":2546433.5600000005}},{"attributes":{"ID":288717,"DIS_CODE":0,"TOWNNAME":"北區","LI":"勝安里","LIN":"10鄰","STREET":"開元路","SECT":" ","MAREA":" ","LANE":"７３巷","ALLEY":" ","HOUSE_NO":"１０４號","E_COORD97":169891.03,"N_COORD97":2545471.5800000001,"ADDRESS":"開元路７３巷１０４號","OBJECTID":288711},"geometry":{"x":169891.03000000026,"y":2545471.5800000038}},{"attributes":{"ID":288718,"DIS_CODE":0,"TOWNNAME":"北區","LI":"勝安里","LIN":"10鄰","STREET":"開元路","SECT":" ","MAREA":" ","LANE":"７３巷","ALLEY":" ","HOUSE_NO":"１０６號","E_COORD97":169894.66,"N_COORD97":2545471.8900000001,"ADDRESS":"開元路７３巷１０６號","OBJECTID":288712},"geometry":{"x":169894.66000000108,"y":2545471.8900000006}},{"attributes":{"ID":288719,"DIS_CODE":0,"TOWNNAME":"新營區","LI":"姑爺里","LIN":"2鄰","STREET":" ","SECT":" ","MAREA":"姑爺","LANE":" ","ALLEY":" ","HOUSE_NO":"１９號","E_COORD97":174354.84,"N_COORD97":2574196.1000000001,"ADDRESS":"姑爺１９號","OBJECTID":288713},"geometry":{"x":174354.84000000078,"y":2574196.0999999996}},{"attributes":{"ID":288720,"DIS_CODE":0,"TOWNNAME":"新營區","LI":"角帶里","LIN":"2鄰","STREET":" ","SECT":" ","MAREA":"角帶圍","LANE":" ","ALLEY":" ","HOUSE_NO":"２４號","E_COORD97":174738.98000000001,"N_COORD97":2575884.1200000001,"ADDRESS":"角帶圍２４號","OBJECTID":288714},"geometry":{"x":174738.98000000138,"y":2575884.1200000048}},{"attributes":{"ID":288721,"DIS_CODE":0,"TOWNNAME":"新營區","LI":"五興里","LIN":"2鄰","STREET":" ","SECT":" ","MAREA":"五間厝","LANE":" ","ALLEY":" ","HOUSE_NO":"１５之４號","E_COORD97":175939.51000000001,"N_COORD97":2574881.4300000002,"ADDRESS":"五間厝１５之４號","OBJECTID":288715},"geometry":{"x":175939.50999999978,"y":2574881.4300000016}},{"attributes":{"ID":288722,"DIS_CODE":0,"TOWNNAME":"新營區","LI":"護鎮里","LIN":"2鄰","STREET":" ","SECT":" ","MAREA":"後鎮","LANE":" ","ALLEY":" ","HOUSE_NO":"１７號之１０","E_COORD97":179342.91,"N_COORD97":2580948.0699999998,"ADDRESS":"後鎮１７之１０號","OBJECTID":288716},"geometry":{"x":179342.90999999922,"y":2580948.0700000003}},{"attributes":{"ID":288723,"DIS_CODE":0,"TOWNNAME":"新營區","LI":"鐵線里","LIN":"2鄰","STREET":" ","SECT":" ","MAREA":"鐵線橋","LANE":" ","ALLEY":" ","HOUSE_NO":"２０號","E_COORD97":175997.64000000001,"N_COORD97":2573895.4399999999,"ADDRESS":"鐵線橋２０號","OBJECTID":288717},"geometry":{"x":175997.63999999966,"y":2573895.4399999995}},{"attributes":{"ID":288724,"DIS_CODE":0,"TOWNNAME":"北區","LI":"勝安里","LIN":"10鄰","STREET":"開元路","SECT":" ","MAREA":" ","LANE":"７３巷","ALLEY":" ","HOUSE_NO":"１０８號","E_COORD97":169898.29000000001,"N_COORD97":2545472.5299999998,"ADDRESS":"開元路７３巷１０８號","OBJECTID":288718},"geometry":{"x":169898.29000000097,"y":2545472.5300000012}},{"attributes":{"ID":288725,"DIS_CODE":0,"TOWNNAME":"北區","LI":"勝安里","LIN":"10鄰","STREET":"開元路","SECT":" ","MAREA":" ","LANE":"７３巷","ALLEY":" ","HOUSE_NO":"１１０號","E_COORD97":169902.07999999999,"N_COORD97":2545473,"ADDRESS":"開元路７３巷１１０號","OBJECTID":288719},"geometry":{"x":169902.08000000101,"y":2545473.0000000019}},{"attributes":{"ID":288726,"DIS_CODE":0,"TOWNNAME":"北區","LI":"勝安里","LIN":"10鄰","STREET":"開元路","SECT":" ","MAREA":" ","LANE":"７３巷","ALLEY":" ","HOUSE_NO":"９６號","E_COORD97":169881.25,"N_COORD97":2545468.1800000002,"ADDRESS":"開元路７３巷９６號","OBJECTID":288720},"geometry":{"x":169881.24999999907,"y":2545468.1800000016}},{"attributes":{"ID":288727,"DIS_CODE":0,"TOWNNAME":"北區","LI":"勝安里","LIN":"10鄰","STREET":"開元路","SECT":" ","MAREA":" ","LANE":"７３巷","ALLEY":" ","HOUSE_NO":"９６號之１","E_COORD97":169880.62,"N_COORD97":2545472.2799999998,"ADDRESS":"開元路７３巷９６號之１","OBJECTID":288721},"geometry":{"x":169880.62000000197,"y":2545472.2799999993}},{"attributes":{"ID":288728,"DIS_CODE":0,"TOWNNAME":"安平區","LI":"文平里","LIN":"2鄰","STREET":"中華西路","SECT":"二段","MAREA":" ","LANE":" ","ALLEY":" ","HOUSE_NO":"５９號","E_COORD97":166608.67000000001,"N_COORD97":2543185.7999999998,"ADDRESS":"中華西路二段５９號","OBJECTID":288722},"geometry":{"x":166608.67000000086,"y":2543185.8000000045}},{"attributes":{"ID":288729,"DIS_CODE":0,"TOWNNAME":"新營區","LI":"土庫里","LIN":"2鄰","STREET":" ","SECT":" ","MAREA":"土庫","LANE":" ","ALLEY":" ","HOUSE_NO":"６之２號","E_COORD97":182862.70999999999,"N_COORD97":2580080.0499999998,"ADDRESS":"土庫６之２號","OBJECTID":288723},"geometry":{"x":182862.70999999996,"y":2580080.0500000007}},{"attributes":{"ID":288730,"DIS_CODE":0,"TOWNNAME":"新營區","LI":"五興里","LIN":"2鄰","STREET":" ","SECT":" ","MAREA":"五間厝","LANE":" ","ALLEY":" ","HOUSE_NO":"２７之８號","E_COORD97":175897.45000000001,"N_COORD97":2575049.9700000002,"ADDRESS":"五間厝２７之８號","OBJECTID":288724},"geometry":{"x":175897.45000000019,"y":2575049.9700000007}},{"attributes":{"ID":288731,"DIS_CODE":0,"TOWNNAME":"新營區","LI":"太南里","LIN":"2鄰","STREET":" ","SECT":" ","MAREA":"太子宮","LANE":" ","ALLEY":" ","HOUSE_NO":"１７８號","E_COORD97":176168.92000000001,"N_COORD97":2577027.5899999999,"ADDRESS":"太子宮１７８號","OBJECTID":288725},"geometry":{"x":176168.91999999993,"y":2577027.5899999999}},{"attributes":{"ID":288732,"DIS_CODE":0,"TOWNNAME":"新營區","LI":"五興里","LIN":"2鄰","STREET":" ","SECT":" ","MAREA":"五間厝","LANE":" ","ALLEY":" ","HOUSE_NO":"２７號","E_COORD97":175834.23999999999,"N_COORD97":2574980.4500000002,"ADDRESS":"五間厝２７號","OBJECTID":288726},"geometry":{"x":175834.24000000115,"y":2574980.4499999993}},{"attributes":{"ID":288733,"DIS_CODE":0,"TOWNNAME":"新營區","LI":"鐵線里","LIN":"2鄰","STREET":" ","SECT":" ","MAREA":"鐵線橋","LANE":" ","ALLEY":" ","HOUSE_NO":"１７號","E_COORD97":176120.45999999999,"N_COORD97":2573916.98,"ADDRESS":"鐵線橋１７號","OBJECTID":288727},"geometry":{"x":176120.46000000089,"y":2573916.9800000004}},{"attributes":{"ID":288734,"DIS_CODE":0,"TOWNNAME":"仁德區","LI":"仁德里","LIN":"3鄰","STREET":"仁中七街","SECT":" ","MAREA":" ","LANE":" ","ALLEY":" ","HOUSE_NO":"１７號","E_COORD97":173221.93872199999,"N_COORD97":2540349.1126999999,"ADDRESS":"仁中七街１７號","OBJECTID":288728},"geometry":{"x":173221.93872200139,"y":2540349.1127000004}},{"attributes":{"ID":288735,"DIS_CODE":0,"TOWNNAME":"北區","LI":"勝安里","LIN":"10鄰","STREET":"開元路","SECT":" ","MAREA":" ","LANE":"７３巷","ALLEY":" ","HOUSE_NO":"９８號","E_COORD97":169880.45999999999,"N_COORD97":2545476.6899999999,"ADDRESS":"開元路７３巷９８號","OBJECTID":288729},"geometry":{"x":169880.46000000089,"y":2545476.6899999976}},{"attributes":{"ID":288736,"DIS_CODE":0,"TOWNNAME":"北區","LI":"華興里","LIN":"10鄰","STREET":"南園街","SECT":" ","MAREA":" ","LANE":"１０１巷","ALLEY":" ","HOUSE_NO":"２號","E_COORD97":170713.35000000001,"N_COORD97":2545417.3999999999,"ADDRESS":"南園街１０１巷２號","OBJECTID":288730},"geometry":{"x":170713.35000000056,"y":2545417.4000000004}},{"attributes":{"ID":288737,"DIS_CODE":0,"TOWNNAME":"北區","LI":"華興里","LIN":"10鄰","STREET":"南園街","SECT":" ","MAREA":" ","LANE":"１０５巷","ALLEY":" ","HOUSE_NO":"４７號","E_COORD97":170715.20999999999,"N_COORD97":2545411.8900000001,"ADDRESS":"南園街１０５巷４７號","OBJECTID":288731},"geometry":{"x":170715.20999999996,"y":2545411.8900000006}},{"attributes":{"ID":288738,"DIS_CODE":0,"TOWNNAME":"北區","LI":"華興里","LIN":"10鄰","STREET":"南園街","SECT":" ","MAREA":" ","LANE":"１０５巷","ALLEY":" ","HOUSE_NO":"４號","E_COORD97":170667.63,"N_COORD97":2545371.4500000002,"ADDRESS":"南園街１０５巷４號","OBJECTID":288732},"geometry":{"x":170667.63000000082,"y":2545371.4500000011}},{"attributes":{"ID":288739,"DIS_CODE":0,"TOWNNAME":"關廟區","LI":"新光里","LIN":"10鄰","STREET":"新光街","SECT":" ","MAREA":" ","LANE":"２９６巷","ALLEY":" ","HOUSE_NO":"６號","E_COORD97":184380.57000000001,"N_COORD97":2541847.2999999998,"ADDRESS":"新光街２９６巷６號","OBJECTID":288733},"geometry":{"x":184380.57000000123,"y":2541847.3000000026}},{"attributes":{"ID":288740,"DIS_CODE":0,"TOWNNAME":"關廟區","LI":"南花里","LIN":"10鄰","STREET":"四維街","SECT":" ","MAREA":" ","LANE":"２０９巷","ALLEY":" ","HOUSE_NO":"１６號","E_COORD97":181811.245773,"N_COORD97":2540135.7704799999,"ADDRESS":"四維街２０９巷１６號","OBJECTID":288734},"geometry":{"x":181811.24577300064,"y":2540135.7704760004}},{"attributes":{"ID":288741,"DIS_CODE":0,"TOWNNAME":"關廟區","LI":"北勢里","LIN":"10鄰","STREET":"成功路","SECT":" ","MAREA":" ","LANE":"１８０巷","ALLEY":" ","HOUSE_NO":"１２號","E_COORD97":181598.32000000001,"N_COORD97":2540480.27,"ADDRESS":"成功路１８０巷１２號","OBJECTID":288735},"geometry":{"x":181598.32000000216,"y":2540480.2700000014}},{"attributes":{"ID":288742,"DIS_CODE":0,"TOWNNAME":"關廟區","LI":"北花里","LIN":"10鄰","STREET":"四維街","SECT":" ","MAREA":" ","LANE":"２７７巷","ALLEY":" ","HOUSE_NO":"５號","E_COORD97":181838.35999999999,"N_COORD97":2540297.25,"ADDRESS":"四維街２７７巷５號","OBJECTID":288736},"geometry":{"x":181838.36000000034,"y":2540297.2500000019}},{"attributes":{"ID":288743,"DIS_CODE":0,"TOWNNAME":"北區","LI":"開元里","LIN":"10鄰","STREET":"北園街","SECT":" ","MAREA":" ","LANE":"１２８巷","ALLEY":" ","HOUSE_NO":"１１號","E_COORD97":170267.91,"N_COORD97":2545997.6400000001,"ADDRESS":"北園街１２８巷１１號","OBJECTID":288737},"geometry":{"x":170267.91000000015,"y":2545997.6400000025}},{"attributes":{"ID":288744,"DIS_CODE":0,"TOWNNAME":"北區","LI":"開元里","LIN":"10鄰","STREET":"北園街","SECT":" ","MAREA":" ","LANE":"１２８巷","ALLEY":" ","HOUSE_NO":"１７號","E_COORD97":170285.42999999999,"N_COORD97":2546027.4700000002,"ADDRESS":"北園街１２８巷１７號","OBJECTID":288738},"geometry":{"x":170285.43000000063,"y":2546027.4700000007}},{"attributes":{"ID":288745,"DIS_CODE":0,"TOWNNAME":"北區","LI":"開元里","LIN":"10鄰","STREET":"北園街","SECT":" ","MAREA":" ","LANE":"１２４巷","ALLEY":" ","HOUSE_NO":"１號之４","E_COORD97":170326.89999999999,"N_COORD97":2545975.0800000001,"ADDRESS":"北園街１２４巷１號之４","OBJECTID":288739},"geometry":{"x":170326.9000000013,"y":2545975.0800000001}},{"attributes":{"ID":288746,"DIS_CODE":0,"TOWNNAME":"北區","LI":"開元里","LIN":"10鄰","STREET":"北園街","SECT":" ","MAREA":" ","LANE":"１２４巷","ALLEY":" ","HOUSE_NO":"１號之５","E_COORD97":170326.82000000001,"N_COORD97":2545970.21,"ADDRESS":"北園街１２４巷１號之５","OBJECTID":288740},"geometry":{"x":170326.8200000003,"y":2545970.2100000028}},{"attributes":{"ID":288747,"DIS_CODE":0,"TOWNNAME":"北區","LI":"開元里","LIN":"10鄰","STREET":"北園街","SECT":" ","MAREA":" ","LANE":"１２４巷","ALLEY":" ","HOUSE_NO":"３號","E_COORD97":170344.63,"N_COORD97":2545998.8700000001,"ADDRESS":"北園街１２４巷３號","OBJECTID":288741},"geometry":{"x":170344.62999999989,"y":2545998.870000001}},{"attributes":{"ID":288748,"DIS_CODE":0,"TOWNNAME":"北區","LI":"開元里","LIN":"10鄰","STREET":"北園街","SECT":" ","MAREA":" ","LANE":"１２４巷","ALLEY":" ","HOUSE_NO":"７號","E_COORD97":170371.13,"N_COORD97":2546019.9700000002,"ADDRESS":"北園街１２４巷７號","OBJECTID":288742},"geometry":{"x":170371.12999999989,"y":2546019.9700000025}},{"attributes":{"ID":288749,"DIS_CODE":0,"TOWNNAME":"北區","LI":"開元里","LIN":"10鄰","STREET":"北園街","SECT":" ","MAREA":" ","LANE":"１２８巷","ALLEY":" ","HOUSE_NO":"１０號","E_COORD97":170290.56,"N_COORD97":2546040.9100000001,"ADDRESS":"北園街１２８巷１０號","OBJECTID":288743},"geometry":{"x":170290.55999999959,"y":2546040.9100000001}},{"attributes":{"ID":288750,"DIS_CODE":0,"TOWNNAME":"北區","LI":"開元里","LIN":"10鄰","STREET":"北園街","SECT":" ","MAREA":" ","LANE":"１２８巷","ALLEY":" ","HOUSE_NO":"１２號","E_COORD97":170289.94,"N_COORD97":2546045.25,"ADDRESS":"北園街１２８巷１２號","OBJECTID":288744},"geometry":{"x":170289.94000000041,"y":2546045.25}},{"attributes":{"ID":288751,"DIS_CODE":0,"TOWNNAME":"新營區","LI":"南紙里","LIN":"2鄰","STREET":"太子路","SECT":" ","MAREA":" ","LANE":"１３９巷","ALLEY":" ","HOUSE_NO":"５２號","E_COORD97":177994.04999999999,"N_COORD97":2577734.02,"ADDRESS":"太子路１３９巷５２號","OBJECTID":288745},"geometry":{"x":177994.05000000168,"y":2577734.0199999977}},{"attributes":{"ID":288752,"DIS_CODE":0,"TOWNNAME":"仁德區","LI":"仁義里","LIN":"34鄰","STREET":"正義二街","SECT":" ","MAREA":" ","LANE":" ","ALLEY":" ","HOUSE_NO":"１４５號六樓","E_COORD97":173779.95999999999,"N_COORD97":2541607.0099999998,"ADDRESS":"正義二街１４５號六樓","OBJECTID":288746},"geometry":{"x":173779.95999999996,"y":2541607.0100000016}},{"attributes":{"ID":288753,"DIS_CODE":0,"TOWNNAME":"安平區","LI":"金城里","LIN":"2鄰","STREET":"運河路","SECT":" ","MAREA":" ","LANE":" ","ALLEY":" ","HOUSE_NO":"３７號之１","E_COORD97":163992.84,"N_COORD97":2544379.5299999998,"ADDRESS":"運河路３７號之１","OBJECTID":288747},"geometry":{"x":163992.83999999985,"y":2544379.5300000031}},{"attributes":{"ID":288754,"DIS_CODE":0,"TOWNNAME":"安平區","LI":"金城里","LIN":"2鄰","STREET":"運河路","SECT":" ","MAREA":" ","LANE":" ","ALLEY":" ","HOUSE_NO":"３９號","E_COORD97":163997.04999999999,"N_COORD97":2544371.29,"ADDRESS":"運河路３９號","OBJECTID":288748},"geometry":{"x":163997.05000000075,"y":2544371.290000001}},{"attributes":{"ID":288755,"DIS_CODE":0,"TOWNNAME":"善化區","LI":"文昌里","LIN":"13鄰","STREET":"永福路","SECT":" ","MAREA":" ","LANE":" ","ALLEY":" ","HOUSE_NO":"４７號","E_COORD97":177520.39000000001,"N_COORD97":2558864.5,"ADDRESS":"永福路４７號","OBJECTID":288749},"geometry":{"x":177520.39000000153,"y":2558864.5000000019}},{"attributes":{"ID":288756,"DIS_CODE":0,"TOWNNAME":"北區","LI":"開元里","LIN":"10鄰","STREET":"北園街","SECT":" ","MAREA":" ","LANE":"１２８巷","ALLEY":" ","HOUSE_NO":"１４號","E_COORD97":170289.94,"N_COORD97":2546051.9100000001,"ADDRESS":"北園街１２８巷１４號","OBJECTID":288750},"geometry":{"x":170289.94000000041,"y":2546051.9100000001}},{"attributes":{"ID":288757,"DIS_CODE":0,"TOWNNAME":"北區","LI":"開元里","LIN":"10鄰","STREET":"北園街","SECT":" ","MAREA":" ","LANE":"１２８巷","ALLEY":" ","HOUSE_NO":"１６號","E_COORD97":170288.78,"N_COORD97":2546057.1699999999,"ADDRESS":"北園街１２８巷１６號","OBJECTID":288751},"geometry":{"x":170288.78000000119,"y":2546057.1700000037}},{"attributes":{"ID":288758,"DIS_CODE":0,"TOWNNAME":"學甲區","LI":"宅港里","LIN":"2鄰","STREET":" ","SECT":" ","MAREA":"宅子港","LANE":" ","ALLEY":" ","HOUSE_NO":"２９號","E_COORD97":168445.03,"N_COORD97":2572895.7599999998,"ADDRESS":"宅子港２９號","OBJECTID":288752},"geometry":{"x":168445.03000000026,"y":2572895.7600000016}},{"attributes":{"ID":288759,"DIS_CODE":0,"TOWNNAME":"南區","LI":"松安里","LIN":"10鄰","STREET":"興南街","SECT":" ","MAREA":" ","LANE":"２５２巷","ALLEY":" ","HOUSE_NO":"１０２號","E_COORD97":165902.62,"N_COORD97":2536044.2000000002,"ADDRESS":"興南街２５２巷１０２號","OBJECTID":288753},"geometry":{"x":165902.62000000104,"y":2536044.1999999993}},{"attributes":{"ID":288760,"DIS_CODE":0,"TOWNNAME":"南區","LI":"松安里","LIN":"10鄰","STREET":"興南街","SECT":" ","MAREA":" ","LANE":"２５２巷","ALLEY":" ","HOUSE_NO":"１０４號","E_COORD97":165897.98000000001,"N_COORD97":2536043.3300000001,"ADDRESS":"興南街２５２巷１０４號","OBJECTID":288754},"geometry":{"x":165897.98000000045,"y":2536043.3300000001}},{"attributes":{"ID":288761,"DIS_CODE":0,"TOWNNAME":"善化區","LI":"文正里","LIN":"13鄰","STREET":"陽明路","SECT":" ","MAREA":" ","LANE":" ","ALLEY":" ","HOUSE_NO":"７２號","E_COORD97":176514.73000000001,"N_COORD97":2559344.0099999998,"ADDRESS":"陽明路７２號","OBJECTID":288755},"geometry":{"x":176514.73000000045,"y":2559344.0099999998}},{"attributes":{"ID":288762,"DIS_CODE":0,"TOWNNAME":"南區","LI":"松安里","LIN":"10鄰","STREET":"興南街","SECT":" ","MAREA":" ","LANE":"２５２巷","ALLEY":" ","HOUSE_NO":"１０６號","E_COORD97":165892.76000000001,"N_COORD97":2536042.6000000001,"ADDRESS":"興南街２５２巷１０６號","OBJECTID":288756},"geometry":{"x":165892.76000000071,"y":2536042.6000000015}},{"attributes":{"ID":288763,"DIS_CODE":0,"TOWNNAME":"南區","LI":"松安里","LIN":"10鄰","STREET":"興南街","SECT":" ","MAREA":" ","LANE":"２５２巷","ALLEY":" ","HOUSE_NO":"１０８號","E_COORD97":165887.39000000001,"N_COORD97":2536041.1499999999,"ADDRESS":"興南街２５２巷１０８號","OBJECTID":288757},"geometry":{"x":165887.38999999966,"y":2536041.1500000004}},{"attributes":{"ID":288764,"DIS_CODE":0,"TOWNNAME":"南區","LI":"松安里","LIN":"10鄰","STREET":"興南街","SECT":" ","MAREA":" ","LANE":"２５２巷","ALLEY":" ","HOUSE_NO":"１１０號","E_COORD97":165882.03,"N_COORD97":2536040,"ADDRESS":"興南街２５２巷１１０號","OBJECTID":288758},"geometry":{"x":165882.03000000026,"y":2536040.0000000037}},{"attributes":{"ID":288765,"DIS_CODE":0,"TOWNNAME":"南區","LI":"松安里","LIN":"10鄰","STREET":"興南街","SECT":" ","MAREA":" ","LANE":"２５２巷","ALLEY":" ","HOUSE_NO":"１１２號","E_COORD97":165877.23999999999,"N_COORD97":2536039.4199999999,"ADDRESS":"興南街２５２巷１１２號","OBJECTID":288759},"geometry":{"x":165877.24000000022,"y":2536039.4199999999}},{"attributes":{"ID":288766,"DIS_CODE":0,"TOWNNAME":"南區","LI":"松安里","LIN":"10鄰","STREET":"興南街","SECT":" ","MAREA":" ","LANE":"２５２巷","ALLEY":" ","HOUSE_NO":"５２號","E_COORD97":165906.01999999999,"N_COORD97":2535894.7000000002,"ADDRESS":"興南街２５２巷５２號","OBJECTID":288760},"geometry":{"x":165906.02000000048,"y":2535894.6999999993}},{"attributes":{"ID":288767,"DIS_CODE":0,"TOWNNAME":"南區","LI":"松安里","LIN":"10鄰","STREET":"興南街","SECT":" ","MAREA":" ","LANE":"２５２巷","ALLEY":" ","HOUSE_NO":"５４號","E_COORD97":165905.19,"N_COORD97":2535898.2999999998,"ADDRESS":"興南街２５２巷５４號","OBJECTID":288761},"geometry":{"x":165905.18999999948,"y":2535898.3000000007}},{"attributes":{"ID":288768,"DIS_CODE":0,"TOWNNAME":"善化區","LI":"文正里","LIN":" ","STREET":"文正路","SECT":" ","MAREA":" ","LANE":" ","ALLEY":" ","HOUSE_NO":"５３號","E_COORD97":177009.85999999999,"N_COORD97":2559283.0299999998,"ADDRESS":"文正路５３號","OBJECTID":288762},"geometry":{"x":177009.86000000127,"y":2559283.0299999993}},{"attributes":{"ID":288769,"DIS_CODE":0,"TOWNNAME":"善化區","LI":"文昌里","LIN":"14鄰","STREET":"文賢街","SECT":" ","MAREA":" ","LANE":" ","ALLEY":" ","HOUSE_NO":"２２號","E_COORD97":177634.67999999999,"N_COORD97":2558939.7799999998,"ADDRESS":"文賢街２２號","OBJECTID":288763},"geometry":{"x":177634.6799999997,"y":2558939.7800000012}},{"attributes":{"ID":288770,"DIS_CODE":0,"TOWNNAME":"善化區","LI":"光文里","LIN":"24鄰","STREET":"信義路","SECT":" ","MAREA":" ","LANE":" ","ALLEY":" ","HOUSE_NO":"１７２號","E_COORD97":178230.17999999999,"N_COORD97":2559157.5,"ADDRESS":"信義路１７２號","OBJECTID":288764},"geometry":{"x":178230.1799999997,"y":2559157.5}},{"attributes":{"ID":288771,"DIS_CODE":0,"TOWNNAME":"善化區","LI":"文正里","LIN":"14鄰","STREET":"陽明路","SECT":" ","MAREA":" ","LANE":" ","ALLEY":" ","HOUSE_NO":"８５號","E_COORD97":176478.39999999999,"N_COORD97":2559323.7599999998,"ADDRESS":"陽明路８５號","OBJECTID":288765},"geometry":{"x":176478.40000000224,"y":2559323.7600000016}},{"attributes":{"ID":288772,"DIS_CODE":0,"TOWNNAME":"善化區","LI":"文昌里","LIN":"13鄰","STREET":"文昌路","SECT":" ","MAREA":" ","LANE":" ","ALLEY":" ","HOUSE_NO":"１４號之２","E_COORD97":177541.42000000001,"N_COORD97":2558826.5299999998,"ADDRESS":"文昌路１４號之２","OBJECTID":288766},"geometry":{"x":177541.42000000086,"y":2558826.5300000012}},{"attributes":{"ID":288773,"DIS_CODE":0,"TOWNNAME":"南區","LI":"松安里","LIN":"10鄰","STREET":"興南街","SECT":" ","MAREA":" ","LANE":"２５２巷","ALLEY":" ","HOUSE_NO":"５６號","E_COORD97":165904.63,"N_COORD97":2535903.29,"ADDRESS":"興南街２５２巷５６號","OBJECTID":288767},"geometry":{"x":165904.62999999989,"y":2535903.2899999991}},{"attributes":{"ID":288774,"DIS_CODE":0,"TOWNNAME":"南區","LI":"松安里","LIN":"10鄰","STREET":"興南街","SECT":" ","MAREA":" ","LANE":"２５２巷","ALLEY":" ","HOUSE_NO":"５８號","E_COORD97":165903.79999999999,"N_COORD97":2535907.4399999999,"ADDRESS":"興南街２５２巷５８號","OBJECTID":288768},"geometry":{"x":165903.79999999888,"y":2535907.4400000032}},{"attributes":{"ID":288775,"DIS_CODE":0,"TOWNNAME":"南區","LI":"松安里","LIN":"10鄰","STREET":"興南街","SECT":" ","MAREA":" ","LANE":"２５２巷","ALLEY":" ","HOUSE_NO":"６０號","E_COORD97":165903.25,"N_COORD97":2535911.3199999998,"ADDRESS":"興南街２５２巷６０號","OBJECTID":288769},"geometry":{"x":165903.25000000093,"y":2535911.3200000003}},{"attributes":{"ID":288776,"DIS_CODE":0,"TOWNNAME":"南區","LI":"松安里","LIN":"10鄰","STREET":"興南街","SECT":" ","MAREA":" ","LANE":"２５２巷","ALLEY":" ","HOUSE_NO":"６２號","E_COORD97":165902.41,"N_COORD97":2535915.48,"ADDRESS":"興南街２５２巷６２號","OBJECTID":288770},"geometry":{"x":165902.41000000108,"y":2535915.4800000023}},{"attributes":{"ID":288777,"DIS_CODE":0,"TOWNNAME":"南區","LI":"松安里","LIN":"10鄰","STREET":"興南街","SECT":" ","MAREA":" ","LANE":"２５２巷","ALLEY":" ","HOUSE_NO":"６４號","E_COORD97":165902.41,"N_COORD97":2535919.0800000001,"ADDRESS":"興南街２５２巷６４號","OBJECTID":288771},"geometry":{"x":165902.41000000108,"y":2535919.0800000019}},{"attributes":{"ID":288778,"DIS_CODE":0,"TOWNNAME":"新營區","LI":"南興里","LIN":"10鄰","STREET":"和平路","SECT":" ","MAREA":" ","LANE":"１０２巷","ALLEY":" ","HOUSE_NO":"５之２號","E_COORD97":179387.82999999999,"N_COORD97":2577591.1600000001,"ADDRESS":"和平路１０２巷５之２號","OBJECTID":288772},"geometry":{"x":179387.83000000101,"y":2577591.1600000001}},{"attributes":{"ID":288779,"DIS_CODE":0,"TOWNNAME":"鹽水區","LI":"水仙里","LIN":"10鄰","STREET":"中山路","SECT":" ","MAREA":" ","LANE":"４５巷","ALLEY":" ","HOUSE_NO":"１號","E_COORD97":174965.13,"N_COORD97":2579889.8500000001,"ADDRESS":"中山路４５巷１號","OBJECTID":288773},"geometry":{"x":174965.12999999989,"y":2579889.8500000015}},{"attributes":{"ID":288780,"DIS_CODE":0,"TOWNNAME":"關廟區","LI":"山西里","LIN":"10鄰","STREET":"文衡路","SECT":" ","MAREA":" ","LANE":"２３８巷","ALLEY":" ","HOUSE_NO":"２號","E_COORD97":180949.44,"N_COORD97":2540634.3300000001,"ADDRESS":"文衡路２３８巷２號","OBJECTID":288774},"geometry":{"x":180949.44000000041,"y":2540634.3300000001}},{"attributes":{"ID":288781,"DIS_CODE":0,"TOWNNAME":"關廟區","LI":"山西里","LIN":"10鄰","STREET":"文衡路","SECT":" ","MAREA":" ","LANE":"２３８巷","ALLEY":" ","HOUSE_NO":"１６號","E_COORD97":180954.59,"N_COORD97":2540657.3300000001,"ADDRESS":"文衡路２３８巷１６號","OBJECTID":288775},"geometry":{"x":180954.58999999985,"y":2540657.3300000001}},{"attributes":{"ID":288782,"DIS_CODE":0,"TOWNNAME":"關廟區","LI":"布袋里","LIN":"10鄰","STREET":"長榮街","SECT":" ","MAREA":" ","LANE":"３０１巷","ALLEY":" ","HOUSE_NO":"５９號","E_COORD97":182301.09,"N_COORD97":2534091.25,"ADDRESS":"長榮街３０１巷５９號","OBJECTID":288776},"geometry":{"x":182301.08999999985,"y":2534091.25}},{"attributes":{"ID":288783,"DIS_CODE":0,"TOWNNAME":"關廟區","LI":"埤頭里","LIN":"10鄰","STREET":"關新路","SECT":"二段","MAREA":" ","LANE":"５１巷","ALLEY":" ","HOUSE_NO":"４１號","E_COORD97":178937.57000000001,"N_COORD97":2544150.2999999998,"ADDRESS":"關新路二段５１巷４１號","OBJECTID":288777},"geometry":{"x":178937.57000000123,"y":2544150.3000000007}},{"attributes":{"ID":288784,"DIS_CODE":0,"TOWNNAME":"關廟區","LI":"五甲里","LIN":"10鄰","STREET":"五甲路","SECT":" ","MAREA":" ","LANE":"２８０巷","ALLEY":" ","HOUSE_NO":"１１８號","E_COORD97":180596.17000000001,"N_COORD97":2538740.25,"ADDRESS":"五甲路２８０巷１１８號","OBJECTID":288778},"geometry":{"x":180596.17000000086,"y":2538740.2500000037}},{"attributes":{"ID":288785,"DIS_CODE":0,"TOWNNAME":"善化區","LI":"文正里","LIN":"14鄰","STREET":"興農路","SECT":" ","MAREA":" ","LANE":" ","ALLEY":" ","HOUSE_NO":"２３８號之９","E_COORD97":175847.82000000001,"N_COORD97":2559117.77,"ADDRESS":"興農路２３８號之９","OBJECTID":288779},"geometry":{"x":175847.8200000003,"y":2559117.7699999996}},{"attributes":{"ID":288786,"DIS_CODE":0,"TOWNNAME":"仁德區","LI":"仁德里","LIN":"3鄰","STREET":"仁中七街","SECT":" ","MAREA":" ","LANE":" ","ALLEY":" ","HOUSE_NO":"１９號","E_COORD97":173216.95983000001,"N_COORD97":2540349.32437,"ADDRESS":"仁中七街１９號","OBJECTID":288780},"geometry":{"x":173216.95983000007,"y":2540349.3243660014}},{"attributes":{"ID":288787,"DIS_CODE":0,"TOWNNAME":"關廟區","LI":"埤頭里","LIN":"10鄰","STREET":"關新路","SECT":"二段","MAREA":" ","LANE":"５１巷","ALLEY":" ","HOUSE_NO":"４６號","E_COORD97":178962.17000000001,"N_COORD97":2544177.29,"ADDRESS":"關新路二段５１巷４６號","OBJECTID":288781},"geometry":{"x":178962.16999999993,"y":2544177.2900000028}},{"attributes":{"ID":288788,"DIS_CODE":0,"TOWNNAME":"關廟區","LI":"東勢里","LIN":"10鄰","STREET":"旺萊路","SECT":" ","MAREA":" ","LANE":"３０６巷","ALLEY":" ","HOUSE_NO":"２２號","E_COORD97":182045.89000000001,"N_COORD97":2539441.25,"ADDRESS":"旺萊路３０６巷２２號","OBJECTID":288782},"geometry":{"x":182045.88999999966,"y":2539441.25}},{"attributes":{"ID":288789,"DIS_CODE":0,"TOWNNAME":"關廟區","LI":"東勢里","LIN":"10鄰","STREET":"旺萊路","SECT":" ","MAREA":" ","LANE":"３０６巷","ALLEY":" ","HOUSE_NO":"２６號","E_COORD97":182050.09,"N_COORD97":2539442.25,"ADDRESS":"旺萊路３０６巷２６號","OBJECTID":288783},"geometry":{"x":182050.08999999985,"y":2539442.2500000037}},{"attributes":{"ID":288790,"DIS_CODE":0,"TOWNNAME":"關廟區","LI":"埤頭里","LIN":"10鄰","STREET":"關新路","SECT":"二段","MAREA":" ","LANE":"５１巷","ALLEY":" ","HOUSE_NO":"５６號","E_COORD97":178934.87,"N_COORD97":2544164.2999999998,"ADDRESS":"關新路二段５１巷５６號","OBJECTID":288784},"geometry":{"x":178934.87000000104,"y":2544164.3000000007}},{"attributes":{"ID":288791,"DIS_CODE":0,"TOWNNAME":"關廟區","LI":"東勢里","LIN":"10鄰","STREET":"旺萊路","SECT":" ","MAREA":" ","LANE":"３０６巷","ALLEY":" ","HOUSE_NO":"２０號","E_COORD97":182041.59,"N_COORD97":2539441.25,"ADDRESS":"旺萊路３０６巷２０號","OBJECTID":288785},"geometry":{"x":182041.58999999985,"y":2539441.25}},{"attributes":{"ID":288792,"DIS_CODE":0,"TOWNNAME":"學甲區","LI":"豐和里","LIN":"2鄰","STREET":" ","SECT":" ","MAREA":"美豐","LANE":" ","ALLEY":" ","HOUSE_NO":"１２號","E_COORD97":168062.85999999999,"N_COORD97":2568930.8100000001,"ADDRESS":"美豐１２號","OBJECTID":288786},"geometry":{"x":168062.86000000127,"y":2568930.8100000005}},{"attributes":{"ID":288793,"DIS_CODE":0,"TOWNNAME":"關廟區","LI":"埤頭里","LIN":"10鄰","STREET":"關新路","SECT":"二段","MAREA":" ","LANE":"５１巷","ALLEY":" ","HOUSE_NO":"３６號","E_COORD97":178982.87,"N_COORD97":2544176.2999999998,"ADDRESS":"關新路二段５１巷３６號","OBJECTID":288787},"geometry":{"x":178982.87000000104,"y":2544176.3000000026}},{"attributes":{"ID":288794,"DIS_CODE":0,"TOWNNAME":"關廟區","LI":"南花里","LIN":"10鄰","STREET":"花園一街","SECT":" ","MAREA":" ","LANE":"１２１巷","ALLEY":" ","HOUSE_NO":"１０號","E_COORD97":181798.548003,"N_COORD97":2540154.2648399998,"ADDRESS":"花園一街１２１巷１０號","OBJECTID":288788},"geometry":{"x":181798.54800300021,"y":2540154.2648410015}},{"attributes":{"ID":288795,"DIS_CODE":0,"TOWNNAME":"關廟區","LI":"關廟里","LIN":"10鄰","STREET":"大仁街","SECT":" ","MAREA":" ","LANE":"３４６巷","ALLEY":" ","HOUSE_NO":"５１號","E_COORD97":180843.32000000001,"N_COORD97":2539583.25,"ADDRESS":"大仁街３４６巷５１號","OBJECTID":288789},"geometry":{"x":180843.3200000003,"y":2539583.25}},{"attributes":{"ID":288796,"DIS_CODE":0,"TOWNNAME":"關廟區","LI":"北勢里","LIN":"10鄰","STREET":"成功路","SECT":" ","MAREA":" ","LANE":"１８０巷","ALLEY":" ","HOUSE_NO":"２０號","E_COORD97":181602.12,"N_COORD97":2540492.27,"ADDRESS":"成功路１８０巷２０號","OBJECTID":288790},"geometry":{"x":181602.12000000011,"y":2540492.2699999996}},{"attributes":{"ID":288797,"DIS_CODE":0,"TOWNNAME":"關廟區","LI":"東勢里","LIN":"10鄰","STREET":"東榮街","SECT":" ","MAREA":" ","LANE":"２９巷","ALLEY":" ","HOUSE_NO":"１６號","E_COORD97":182025.07000000001,"N_COORD97":2539403.25,"ADDRESS":"東榮街２９巷１６號","OBJECTID":288791},"geometry":{"x":182025.0700000003,"y":2539403.25}},{"attributes":{"ID":288798,"DIS_CODE":0,"TOWNNAME":"關廟區","LI":"五甲里","LIN":"10鄰","STREET":"五甲路","SECT":" ","MAREA":" ","LANE":"２８０巷","ALLEY":" ","HOUSE_NO":"１１６號","E_COORD97":180612.67000000001,"N_COORD97":2538741.25,"ADDRESS":"五甲路２８０巷１１６號","OBJECTID":288792},"geometry":{"x":180612.67000000086,"y":2538741.2500000019}},{"attributes":{"ID":288799,"DIS_CODE":0,"TOWNNAME":"關廟區","LI":"東勢里","LIN":"10鄰","STREET":"東榮街","SECT":" ","MAREA":" ","LANE":"５５巷","ALLEY":" ","HOUSE_NO":"１３號","E_COORD97":182045.37,"N_COORD97":2539402.25,"ADDRESS":"東榮街５５巷１３號","OBJECTID":288793},"geometry":{"x":182045.37000000197,"y":2539402.2500000019}},{"attributes":{"ID":288800,"DIS_CODE":0,"TOWNNAME":"北區","LI":"大山里","LIN":"10鄰","STREET":"精忠街","SECT":" ","MAREA":" ","LANE":"２８巷","ALLEY":" ","HOUSE_NO":"７９號之１","E_COORD97":169345.37,"N_COORD97":2545535.4700000002,"ADDRESS":"精忠街２８巷７９號之１","OBJECTID":288794},"geometry":{"x":169345.37000000104,"y":2545535.4700000025}},{"attributes":{"ID":288801,"DIS_CODE":0,"TOWNNAME":"北區","LI":"大山里","LIN":"10鄰","STREET":"精忠街","SECT":" ","MAREA":" ","LANE":"２８巷","ALLEY":" ","HOUSE_NO":"８０號","E_COORD97":169339.03,"N_COORD97":2545553.5499999998,"ADDRESS":"精忠街２８巷８０號","OBJECTID":288795},"geometry":{"x":169339.03000000212,"y":2545553.5499999989}},{"attributes":{"ID":288802,"DIS_CODE":0,"TOWNNAME":"北區","LI":"大山里","LIN":"10鄰","STREET":"精忠街","SECT":" ","MAREA":" ","LANE":"２８巷","ALLEY":" ","HOUSE_NO":"８１號","E_COORD97":169344.70000000001,"N_COORD97":2545546.9199999999,"ADDRESS":"精忠街２８巷８１號","OBJECTID":288796},"geometry":{"x":169344.70000000112,"y":2545546.9200000037}},{"attributes":{"ID":288803,"DIS_CODE":0,"TOWNNAME":"北區","LI":"大山里","LIN":"10鄰","STREET":"精忠街","SECT":" ","MAREA":" ","LANE":"２８巷","ALLEY":" ","HOUSE_NO":"８２號","E_COORD97":169332.81,"N_COORD97":2545554.8599999999,"ADDRESS":"精忠街２８巷８２號","OBJECTID":288797},"geometry":{"x":169332.80999999959,"y":2545554.8600000013}},{"attributes":{"ID":288804,"DIS_CODE":0,"TOWNNAME":"北區","LI":"大山里","LIN":"10鄰","STREET":"精忠街","SECT":" ","MAREA":" ","LANE":"２８巷","ALLEY":" ","HOUSE_NO":"８３號","E_COORD97":169340.29000000001,"N_COORD97":2545548.1000000001,"ADDRESS":"精忠街２８巷８３號","OBJECTID":288798},"geometry":{"x":169340.28999999911,"y":2545548.0999999996}},{"attributes":{"ID":288805,"DIS_CODE":0,"TOWNNAME":"北區","LI":"大山里","LIN":"10鄰","STREET":"精忠街","SECT":" ","MAREA":" ","LANE":"２８巷","ALLEY":" ","HOUSE_NO":"８４號","E_COORD97":169326.85999999999,"N_COORD97":2545556.3199999998,"ADDRESS":"精忠街２８巷８４號","OBJECTID":288799},"geometry":{"x":169326.86000000127,"y":2545556.3200000022}},{"attributes":{"ID":288806,"DIS_CODE":0,"TOWNNAME":"北區","LI":"大山里","LIN":"10鄰","STREET":"精忠街","SECT":" ","MAREA":" ","LANE":"２８巷","ALLEY":" ","HOUSE_NO":"８５號","E_COORD97":169336.60999999999,"N_COORD97":2545548.8900000001,"ADDRESS":"精忠街２８巷８５號","OBJECTID":288800},"geometry":{"x":169336.61000000034,"y":2545548.8900000025}}]}