{"displayFieldName":"TOWNNAME","fieldAliases":{"ID":"ID","DIS_CODE":"DIS_CODE","TOWNNAME":"TOWNNAME","LI":"LI","LIN":"LIN","STREET":"STREET","SECT":"SECT","MAREA":"MAREA","LANE":"LANE","ALLEY":"ALLEY","HOUSE_NO":"HOUSE_NO","E_COORD97":"E_COORD97","N_COORD97":"N_COORD97","ADDRESS":"ADDRESS","OBJECTID":"OBJECTID"},"geometryType":"esriGeometryPoint","spatialReference":{"wkid":102443,"latestWkid":3826},"fields":[{"name":"ID","type":"esriFieldTypeDouble","alias":"ID"},{"name":"DIS_CODE","type":"esriFieldTypeInteger","alias":"DIS_CODE"},{"name":"TOWNNAME","type":"esriFieldTypeString","alias":"TOWNNAME","length":8},{"name":"LI","type":"esriFieldTypeString","alias":"LI","length":8},{"name":"LIN","type":"esriFieldTypeString","alias":"LIN","length":12},{"name":"STREET","type":"esriFieldTypeString","alias":"STREET","length":20},{"name":"SECT","type":"esriFieldTypeString","alias":"SECT","length":8},{"name":"MAREA","type":"esriFieldTypeString","alias":"MAREA","length":12},{"name":"LANE","type":"esriFieldTypeString","alias":"LANE","length":10},{"name":"ALLEY","type":"esriFieldTypeString","alias":"ALLEY","length":10},{"name":"HOUSE_NO","type":"esriFieldTypeString","alias":"HOUSE_NO","length":20},{"name":"E_COORD97","type":"esriFieldTypeDouble","alias":"E_COORD97"},{"name":"N_COORD97","type":"esriFieldTypeDouble","alias":"N_COORD97"},{"name":"ADDRESS","type":"esriFieldTypeString","alias":"ADDRESS","length":50},{"name":"OBJECTID","type":"esriFieldTypeOID","alias":"OBJECTID"}],"features":[{"attributes":{"ID":228605,"DIS_CODE":0,"TOWNNAME":"永康區","LI":"永康里","LIN":"23鄰","STREET":"中山南路","SECT":" ","MAREA":" ","LANE":"５５７巷","ALLEY":" ","HOUSE_NO":"２０號","E_COORD97":173426.85000000001,"N_COORD97":2547197.7400000002,"ADDRESS":"中山南路５５７巷２０號","OBJECTID":228601},"geometry":{"x":173426.85000000056,"y":2547197.7400000021}},{"attributes":{"ID":228606,"DIS_CODE":0,"TOWNNAME":"安平區","LI":"育平里","LIN":"34鄰","STREET":"郡平路","SECT":" ","MAREA":" ","LANE":" ","ALLEY":" ","HOUSE_NO":"２６２號","E_COORD97":164450.34,"N_COORD97":2543375.8100000001,"ADDRESS":"郡平路２６２號","OBJECTID":228602},"geometry":{"x":164450.33999999985,"y":2543375.8100000024}},{"attributes":{"ID":228607,"DIS_CODE":0,"TOWNNAME":"安平區","LI":"育平里","LIN":"34鄰","STREET":"郡平路","SECT":" ","MAREA":" ","LANE":" ","ALLEY":" ","HOUSE_NO":"２６６號","E_COORD97":164444.31,"N_COORD97":2543377.0800000001,"ADDRESS":"郡平路２６６號","OBJECTID":228603},"geometry":{"x":164444.31000000052,"y":2543377.0800000019}},{"attributes":{"ID":228608,"DIS_CODE":0,"TOWNNAME":"安平區","LI":"育平里","LIN":"34鄰","STREET":"郡平路","SECT":" ","MAREA":" ","LANE":" ","ALLEY":" ","HOUSE_NO":"２６８號","E_COORD97":164438.75,"N_COORD97":2543378.3500000001,"ADDRESS":"郡平路２６８號","OBJECTID":228604},"geometry":{"x":164438.75000000093,"y":2543378.3500000015}},{"attributes":{"ID":228609,"DIS_CODE":0,"TOWNNAME":"安平區","LI":"育平里","LIN":"34鄰","STREET":"郡平路","SECT":" ","MAREA":" ","LANE":" ","ALLEY":" ","HOUSE_NO":"２７０號","E_COORD97":164433.82999999999,"N_COORD97":2543379.1499999999,"ADDRESS":"郡平路２７０號","OBJECTID":228605},"geometry":{"x":164433.83000000007,"y":2543379.1500000004}},{"attributes":{"ID":228610,"DIS_CODE":0,"TOWNNAME":"安平區","LI":"育平里","LIN":"34鄰","STREET":"郡平路","SECT":" ","MAREA":" ","LANE":" ","ALLEY":" ","HOUSE_NO":"２７２號","E_COORD97":164428.14000000001,"N_COORD97":2543373.9300000002,"ADDRESS":"郡平路２７２號","OBJECTID":228606},"geometry":{"x":164428.13999999966,"y":2543373.9300000016}},{"attributes":{"ID":228611,"DIS_CODE":0,"TOWNNAME":"北區","LI":"成德里","LIN":"34鄰","STREET":"文成一路","SECT":" ","MAREA":" ","LANE":" ","ALLEY":" ","HOUSE_NO":"２１１號","E_COORD97":168265.84,"N_COORD97":2546033.75,"ADDRESS":"文成一路２１１號","OBJECTID":228607},"geometry":{"x":168265.84000000078,"y":2546033.7500000019}},{"attributes":{"ID":228612,"DIS_CODE":0,"TOWNNAME":"北區","LI":"成德里","LIN":"34鄰","STREET":"和緯路","SECT":"二段","MAREA":" ","LANE":" ","ALLEY":" ","HOUSE_NO":"３３２號","E_COORD97":168500.26000000001,"N_COORD97":2545895.6899999999,"ADDRESS":"和緯路二段３３２號","OBJECTID":228608},"geometry":{"x":168500.26000000071,"y":2545895.6899999995}},{"attributes":{"ID":228613,"DIS_CODE":0,"TOWNNAME":"北區","LI":"成德里","LIN":"34鄰","STREET":"和緯路","SECT":"二段","MAREA":" ","LANE":" ","ALLEY":" ","HOUSE_NO":"３９２號","E_COORD97":168350.39999999999,"N_COORD97":2545901.8900000001,"ADDRESS":"和緯路二段３９２號","OBJECTID":228609},"geometry":{"x":168350.4000000013,"y":2545901.8900000025}},{"attributes":{"ID":228614,"DIS_CODE":0,"TOWNNAME":"北區","LI":"成德里","LIN":"34鄰","STREET":"和緯路","SECT":"二段","MAREA":" ","LANE":" ","ALLEY":" ","HOUSE_NO":"４１２號","E_COORD97":168329.44,"N_COORD97":2545899.8199999998,"ADDRESS":"和緯路二段４１２號","OBJECTID":228610},"geometry":{"x":168329.44000000227,"y":2545899.8200000003}},{"attributes":{"ID":228615,"DIS_CODE":0,"TOWNNAME":"北區","LI":"成德里","LIN":"34鄰","STREET":"和緯路","SECT":"二段","MAREA":" ","LANE":" ","ALLEY":" ","HOUSE_NO":"３９６號","E_COORD97":168346.42999999999,"N_COORD97":2545901.25,"ADDRESS":"和緯路二段３９６號","OBJECTID":228611},"geometry":{"x":168346.43000000063,"y":2545901.2500000019}},{"attributes":{"ID":228616,"DIS_CODE":0,"TOWNNAME":"安定區","LI":"蘇林里","LIN":"23鄰","STREET":" ","SECT":" ","MAREA":"蘇厝","LANE":" ","ALLEY":" ","HOUSE_NO":"２６０之７號","E_COORD97":173357.72,"N_COORD97":2558724.2999999998,"ADDRESS":"蘇厝２６０之７號","OBJECTID":228612},"geometry":{"x":173357.71999999974,"y":2558724.3000000026}},{"attributes":{"ID":228617,"DIS_CODE":0,"TOWNNAME":"安定區","LI":"蘇林里","LIN":"23鄰","STREET":" ","SECT":" ","MAREA":"蘇厝","LANE":" ","ALLEY":" ","HOUSE_NO":"２５８之２號","E_COORD97":173361.72,"N_COORD97":2558668.29,"ADDRESS":"蘇厝２５８之２號","OBJECTID":228613},"geometry":{"x":173361.72000000067,"y":2558668.290000001}},{"attributes":{"ID":228618,"DIS_CODE":0,"TOWNNAME":"永康區","LI":"西勢里","LIN":"23鄰","STREET":"富強路","SECT":"一段","MAREA":" ","LANE":"１９４巷","ALLEY":" ","HOUSE_NO":"２６號","E_COORD97":175662.81,"N_COORD97":2546286.8199999998,"ADDRESS":"富強路一段１９４巷２６號","OBJECTID":228614},"geometry":{"x":175662.81000000145,"y":2546286.8200000003}},{"attributes":{"ID":228619,"DIS_CODE":0,"TOWNNAME":"安定區","LI":"蘇林里","LIN":"23鄰","STREET":" ","SECT":" ","MAREA":"蘇厝","LANE":" ","ALLEY":" ","HOUSE_NO":"２５６號","E_COORD97":173328.92000000001,"N_COORD97":2558700.25,"ADDRESS":"蘇厝２５６號","OBJECTID":228615},"geometry":{"x":173328.92000000086,"y":2558700.2500000019}},{"attributes":{"ID":228620,"DIS_CODE":0,"TOWNNAME":"南區","LI":"光明里","LIN":"23鄰","STREET":"新建路","SECT":" ","MAREA":" ","LANE":"２３巷","ALLEY":" ","HOUSE_NO":"５號","E_COORD97":166547.17000000001,"N_COORD97":2541383.75,"ADDRESS":"新建路２３巷５號","OBJECTID":228616},"geometry":{"x":166547.16999999993,"y":2541383.75}},{"attributes":{"ID":228621,"DIS_CODE":0,"TOWNNAME":"永康區","LI":"復華里","LIN":"3鄰","STREET":"復國二路","SECT":" ","MAREA":" ","LANE":"３３８巷","ALLEY":" ","HOUSE_NO":"１７號","E_COORD97":173073.57000000001,"N_COORD97":2546122.6499999999,"ADDRESS":"復國二路３３８巷１７號","OBJECTID":228617},"geometry":{"x":173073.57000000123,"y":2546122.6500000022}},{"attributes":{"ID":228622,"DIS_CODE":0,"TOWNNAME":"永康區","LI":"大橋里","LIN":"3鄰","STREET":"大橋三街","SECT":" ","MAREA":" ","LANE":"１２４巷","ALLEY":" ","HOUSE_NO":"１４號","E_COORD97":170783.89999999999,"N_COORD97":2546657.75,"ADDRESS":"大橋三街１２４巷１４號","OBJECTID":228618},"geometry":{"x":170783.90000000037,"y":2546657.7500000019}},{"attributes":{"ID":228623,"DIS_CODE":0,"TOWNNAME":"永康區","LI":"五王里","LIN":"3鄰","STREET":"中華二路","SECT":" ","MAREA":" ","LANE":"２０６巷","ALLEY":" ","HOUSE_NO":"４１號","E_COORD97":171595.5,"N_COORD97":2545580.2200000002,"ADDRESS":"中華二路２０６巷４１號","OBJECTID":228619},"geometry":{"x":171595.50000000093,"y":2545580.2200000025}},{"attributes":{"ID":228624,"DIS_CODE":0,"TOWNNAME":"永康區","LI":"大橋里","LIN":"3鄰","STREET":"大橋三街","SECT":" ","MAREA":" ","LANE":"１２４巷","ALLEY":" ","HOUSE_NO":"６號","E_COORD97":170771.85000000001,"N_COORD97":2546669.9900000002,"ADDRESS":"大橋三街１２４巷６號","OBJECTID":228620},"geometry":{"x":170771.8499999987,"y":2546669.9900000021}},{"attributes":{"ID":228625,"DIS_CODE":0,"TOWNNAME":"永康區","LI":"大灣里","LIN":"3鄰","STREET":"大同街","SECT":" ","MAREA":" ","LANE":"２１８巷","ALLEY":" ","HOUSE_NO":"６號","E_COORD97":174850.54000000001,"N_COORD97":2545655.7400000002,"ADDRESS":"大同街２１８巷６號","OBJECTID":228621},"geometry":{"x":174850.54000000097,"y":2545655.7400000002}},{"attributes":{"ID":228626,"DIS_CODE":0,"TOWNNAME":"安南區","LI":"溪東里","LIN":"3鄰","STREET":"府安路","SECT":"五段","MAREA":" ","LANE":"１１９巷","ALLEY":" ","HOUSE_NO":"５８號","E_COORD97":167954.72,"N_COORD97":2547292.48,"ADDRESS":"府安路五段１１９巷５８號","OBJECTID":228622},"geometry":{"x":167954.71999999974,"y":2547292.4800000004}},{"attributes":{"ID":228627,"DIS_CODE":0,"TOWNNAME":"安南區","LI":"溪東里","LIN":"3鄰","STREET":"府安路","SECT":"五段","MAREA":" ","LANE":"１１９巷","ALLEY":" ","HOUSE_NO":"６０號","E_COORD97":167953.45999999999,"N_COORD97":2547300.0099999998,"ADDRESS":"府安路五段１１９巷６０號","OBJECTID":228623},"geometry":{"x":167953.45999999996,"y":2547300.0100000016}},{"attributes":{"ID":228628,"DIS_CODE":0,"TOWNNAME":"安南區","LI":"溪東里","LIN":"3鄰","STREET":"府安路","SECT":"五段","MAREA":" ","LANE":"１１９巷","ALLEY":" ","HOUSE_NO":"６２號","E_COORD97":167952.66,"N_COORD97":2547305.02,"ADDRESS":"府安路五段１１９巷６２號","OBJECTID":228624},"geometry":{"x":167952.66000000015,"y":2547305.0199999996}},{"attributes":{"ID":228629,"DIS_CODE":0,"TOWNNAME":"安南區","LI":"溪東里","LIN":"3鄰","STREET":"府安路","SECT":"五段","MAREA":" ","LANE":"１１９巷","ALLEY":" ","HOUSE_NO":"６４號","E_COORD97":167951.06,"N_COORD97":2547310.7200000002,"ADDRESS":"府安路五段１１９巷６４號","OBJECTID":228625},"geometry":{"x":167951.05999999959,"y":2547310.7200000007}},{"attributes":{"ID":228630,"DIS_CODE":0,"TOWNNAME":"中西區","LI":"銀同里","LIN":"3鄰","STREET":"開山路","SECT":" ","MAREA":" ","LANE":"３５巷","ALLEY":" ","HOUSE_NO":"５５號","E_COORD97":168719.60000000001,"N_COORD97":2543425.4399999999,"ADDRESS":"開山路３５巷５５號","OBJECTID":228626},"geometry":{"x":168719.60000000056,"y":2543425.4400000013}},{"attributes":{"ID":228631,"DIS_CODE":0,"TOWNNAME":"中西區","LI":"銀同里","LIN":"3鄰","STREET":"開山路","SECT":" ","MAREA":" ","LANE":"３５巷","ALLEY":" ","HOUSE_NO":"５７號","E_COORD97":168723.25,"N_COORD97":2543421.46,"ADDRESS":"開山路３５巷５７號","OBJECTID":228627},"geometry":{"x":168723.25,"y":2543421.4600000009}},{"attributes":{"ID":228632,"DIS_CODE":0,"TOWNNAME":"中西區","LI":"銀同里","LIN":"3鄰","STREET":"開山路","SECT":" ","MAREA":" ","LANE":"８９巷","ALLEY":" ","HOUSE_NO":"１５號","E_COORD97":168750.64999999999,"N_COORD97":2543388.2400000002,"ADDRESS":"開山路８９巷１５號","OBJECTID":228628},"geometry":{"x":168750.6500000013,"y":2543388.2400000002}},{"attributes":{"ID":228633,"DIS_CODE":0,"TOWNNAME":"中西區","LI":"銀同里","LIN":"3鄰","STREET":"開山路","SECT":" ","MAREA":" ","LANE":"８９巷","ALLEY":" ","HOUSE_NO":"１７號","E_COORD97":168750.78,"N_COORD97":2543382.9100000001,"ADDRESS":"開山路８９巷１７號","OBJECTID":228629},"geometry":{"x":168750.78000000212,"y":2543382.9100000001}},{"attributes":{"ID":228634,"DIS_CODE":0,"TOWNNAME":"中西區","LI":"銀同里","LIN":"3鄰","STREET":"開山路","SECT":" ","MAREA":" ","LANE":"８９巷","ALLEY":" ","HOUSE_NO":"１７號之１","E_COORD97":168749.39999999999,"N_COORD97":2543379.2799999998,"ADDRESS":"開山路８９巷１７號之１","OBJECTID":228630},"geometry":{"x":168749.40000000037,"y":2543379.2799999993}},{"attributes":{"ID":228635,"DIS_CODE":0,"TOWNNAME":"中西區","LI":"銀同里","LIN":"3鄰","STREET":"開山路","SECT":" ","MAREA":" ","LANE":"８９巷","ALLEY":" ","HOUSE_NO":"１９號","E_COORD97":168749.04999999999,"N_COORD97":2543374.27,"ADDRESS":"開山路８９巷１９號","OBJECTID":228631},"geometry":{"x":168749.05000000075,"y":2543374.2700000033}},{"attributes":{"ID":228636,"DIS_CODE":0,"TOWNNAME":"中西區","LI":"銀同里","LIN":"3鄰","STREET":"開山路","SECT":" ","MAREA":" ","LANE":"８９巷","ALLEY":" ","HOUSE_NO":"１號","E_COORD97":168723.57999999999,"N_COORD97":2543412.6000000001,"ADDRESS":"開山路８９巷１號","OBJECTID":228632},"geometry":{"x":168723.58000000101,"y":2543412.5999999996}},{"attributes":{"ID":228637,"DIS_CODE":0,"TOWNNAME":"中西區","LI":"銀同里","LIN":"3鄰","STREET":"開山路","SECT":" ","MAREA":" ","LANE":"８９巷","ALLEY":" ","HOUSE_NO":"２１號","E_COORD97":168746.79999999999,"N_COORD97":2543367.3700000001,"ADDRESS":"開山路８９巷２１號","OBJECTID":228633},"geometry":{"x":168746.80000000168,"y":2543367.370000001}},{"attributes":{"ID":228638,"DIS_CODE":0,"TOWNNAME":"北區","LI":"成德里","LIN":"34鄰","STREET":"和緯路","SECT":"二段","MAREA":" ","LANE":" ","ALLEY":" ","HOUSE_NO":"４５０號","E_COORD97":168244.82999999999,"N_COORD97":2545887.1200000001,"ADDRESS":"和緯路二段４５０號","OBJECTID":228634},"geometry":{"x":168244.83000000007,"y":2545887.1200000029}},{"attributes":{"ID":228639,"DIS_CODE":0,"TOWNNAME":"北區","LI":"成德里","LIN":"34鄰","STREET":"和緯路","SECT":"二段","MAREA":" ","LANE":" ","ALLEY":" ","HOUSE_NO":"４７８號","E_COORD97":168203.39000000001,"N_COORD97":2545875.8500000001,"ADDRESS":"和緯路二段４７８號","OBJECTID":228635},"geometry":{"x":168203.38999999873,"y":2545875.8499999978}},{"attributes":{"ID":228640,"DIS_CODE":0,"TOWNNAME":"安南區","LI":"海佃里","LIN":"23鄰","STREET":"郡安路","SECT":"六段","MAREA":" ","LANE":"５５巷","ALLEY":" ","HOUSE_NO":"１８０號","E_COORD97":166760.73999999999,"N_COORD97":2547363.4300000002,"ADDRESS":"郡安路六段５５巷１８０號","OBJECTID":228636},"geometry":{"x":166760.73999999929,"y":2547363.4299999997}},{"attributes":{"ID":228641,"DIS_CODE":0,"TOWNNAME":"安南區","LI":"海佃里","LIN":"23鄰","STREET":"郡安路","SECT":"六段","MAREA":" ","LANE":"５５巷","ALLEY":" ","HOUSE_NO":"１８２號","E_COORD97":166761.20999999999,"N_COORD97":2547358.3500000001,"ADDRESS":"郡安路六段５５巷１８２號","OBJECTID":228637},"geometry":{"x":166761.21000000089,"y":2547358.3500000015}},{"attributes":{"ID":228642,"DIS_CODE":0,"TOWNNAME":"安南區","LI":"海佃里","LIN":"23鄰","STREET":"郡安路","SECT":"六段","MAREA":" ","LANE":"５５巷","ALLEY":" ","HOUSE_NO":"１８６號","E_COORD97":166762.95999999999,"N_COORD97":2547351.6899999999,"ADDRESS":"郡安路六段５５巷１８６號","OBJECTID":228638},"geometry":{"x":166762.96000000089,"y":2547351.6900000032}},{"attributes":{"ID":228643,"DIS_CODE":0,"TOWNNAME":"安南區","LI":"海佃里","LIN":"23鄰","STREET":"郡安路","SECT":"六段","MAREA":" ","LANE":"５５巷","ALLEY":" ","HOUSE_NO":"１８８號","E_COORD97":166763.60000000001,"N_COORD97":2547347.8799999999,"ADDRESS":"郡安路六段５５巷１８８號","OBJECTID":228639},"geometry":{"x":166763.60000000056,"y":2547347.8800000008}},{"attributes":{"ID":228644,"DIS_CODE":0,"TOWNNAME":"安南區","LI":"海佃里","LIN":"23鄰","STREET":"郡安路","SECT":"六段","MAREA":" ","LANE":"５５巷","ALLEY":" ","HOUSE_NO":"１９２號","E_COORD97":166765.98000000001,"N_COORD97":2547338.9900000002,"ADDRESS":"郡安路六段５５巷１９２號","OBJECTID":228640},"geometry":{"x":166765.98000000045,"y":2547338.9900000002}},{"attributes":{"ID":228645,"DIS_CODE":0,"TOWNNAME":"佳里區","LI":"鎮山里","LIN":"23鄰","STREET":" ","SECT":" ","MAREA":"鎮山","LANE":" ","ALLEY":" ","HOUSE_NO":"９４號之３８","E_COORD97":166608.57000000001,"N_COORD97":2561196.0099999998,"ADDRESS":"鎮山９４號之３８","OBJECTID":228641},"geometry":{"x":166608.57000000123,"y":2561196.0099999979}},{"attributes":{"ID":228646,"DIS_CODE":0,"TOWNNAME":"中西區","LI":"銀同里","LIN":"3鄰","STREET":"開山路","SECT":" ","MAREA":" ","LANE":"８９巷","ALLEY":" ","HOUSE_NO":"２３號","E_COORD97":168745.25,"N_COORD97":2543363.23,"ADDRESS":"開山路８９巷２３號","OBJECTID":228642},"geometry":{"x":168745.25,"y":2543363.2300000023}},{"attributes":{"ID":228647,"DIS_CODE":0,"TOWNNAME":"中西區","LI":"銀同里","LIN":"3鄰","STREET":"開山路","SECT":" ","MAREA":" ","LANE":"８９巷","ALLEY":" ","HOUSE_NO":"２５號","E_COORD97":168744.39000000001,"N_COORD97":2543360.46,"ADDRESS":"開山路８９巷２５號","OBJECTID":228643},"geometry":{"x":168744.39000000153,"y":2543360.4600000009}},{"attributes":{"ID":228648,"DIS_CODE":0,"TOWNNAME":"中西區","LI":"銀同里","LIN":"3鄰","STREET":"開山路","SECT":" ","MAREA":" ","LANE":"８９巷","ALLEY":" ","HOUSE_NO":"２７號","E_COORD97":168759.23999999999,"N_COORD97":2543363.1699999999,"ADDRESS":"開山路８９巷２７號","OBJECTID":228644},"geometry":{"x":168759.24000000022,"y":2543363.1700000018}},{"attributes":{"ID":228649,"DIS_CODE":0,"TOWNNAME":"佳里區","LI":"鎮山里","LIN":"23鄰","STREET":" ","SECT":" ","MAREA":"鎮山","LANE":" ","ALLEY":" ","HOUSE_NO":"９４號之８３","E_COORD97":166660.20000000001,"N_COORD97":2561149.3900000001,"ADDRESS":"鎮山９４號之８３","OBJECTID":228645},"geometry":{"x":166660.20000000019,"y":2561149.3900000006}},{"attributes":{"ID":228650,"DIS_CODE":0,"TOWNNAME":"中西區","LI":"銀同里","LIN":"3鄰","STREET":"開山路","SECT":" ","MAREA":" ","LANE":"８９巷","ALLEY":" ","HOUSE_NO":"２７號之１","E_COORD97":168764.28,"N_COORD97":2543363.3300000001,"ADDRESS":"開山路８９巷２７號之１","OBJECTID":228646},"geometry":{"x":168764.28000000212,"y":2543363.3300000001}},{"attributes":{"ID":228651,"DIS_CODE":0,"TOWNNAME":"中西區","LI":"銀同里","LIN":"3鄰","STREET":"開山路","SECT":" ","MAREA":" ","LANE":"８９巷","ALLEY":" ","HOUSE_NO":"２９號","E_COORD97":168750.48999999999,"N_COORD97":2543349.0299999998,"ADDRESS":"開山路８９巷２９號","OBJECTID":228647},"geometry":{"x":168750.49000000022,"y":2543349.0300000012}},{"attributes":{"ID":228652,"DIS_CODE":0,"TOWNNAME":"中西區","LI":"銀同里","LIN":"3鄰","STREET":"開山路","SECT":" ","MAREA":" ","LANE":"８９巷","ALLEY":" ","HOUSE_NO":"３號","E_COORD97":168728.41,"N_COORD97":2543413.2400000002,"ADDRESS":"開山路８９巷３號","OBJECTID":228648},"geometry":{"x":168728.41000000108,"y":2543413.2400000021}},{"attributes":{"ID":228653,"DIS_CODE":0,"TOWNNAME":"仁德區","LI":"仁愛里","LIN":"23鄰","STREET":" ","SECT":" ","MAREA":"仁愛","LANE":" ","ALLEY":" ","HOUSE_NO":"４８０號","E_COORD97":170104.10373900001,"N_COORD97":2540086.2977399998,"ADDRESS":"仁愛４８０號","OBJECTID":228649},"geometry":{"x":170104.10373899993,"y":2540086.2977360021}},{"attributes":{"ID":228654,"DIS_CODE":0,"TOWNNAME":"中西區","LI":"銀同里","LIN":"3鄰","STREET":"開山路","SECT":" ","MAREA":" ","LANE":"８９巷","ALLEY":" ","HOUSE_NO":"５號","E_COORD97":168733.23000000001,"N_COORD97":2543415.6499999999,"ADDRESS":"開山路８９巷５號","OBJECTID":228650},"geometry":{"x":168733.23000000138,"y":2543415.6500000004}},{"attributes":{"ID":228655,"DIS_CODE":0,"TOWNNAME":"中西區","LI":"銀同里","LIN":"3鄰","STREET":"開山路","SECT":" ","MAREA":" ","LANE":"８９巷","ALLEY":" ","HOUSE_NO":"７號","E_COORD97":168747.84,"N_COORD97":2543413.5800000001,"ADDRESS":"開山路８９巷７號","OBJECTID":228651},"geometry":{"x":168747.83999999985,"y":2543413.5800000038}},{"attributes":{"ID":228656,"DIS_CODE":0,"TOWNNAME":"中西區","LI":"銀同里","LIN":"3鄰","STREET":"開山路","SECT":" ","MAREA":" ","LANE":"８９巷","ALLEY":" ","HOUSE_NO":"７號之１","E_COORD97":168754.09,"N_COORD97":2543414.1299999999,"ADDRESS":"開山路８９巷７號之１","OBJECTID":228652},"geometry":{"x":168754.09000000078,"y":2543414.129999999}},{"attributes":{"ID":228657,"DIS_CODE":0,"TOWNNAME":"永康區","LI":"復國里","LIN":"3鄰","STREET":"復國一路","SECT":" ","MAREA":" ","LANE":"４４巷","ALLEY":" ","HOUSE_NO":"１９號","E_COORD97":172767.69,"N_COORD97":2544818.1299999999,"ADDRESS":"復國一路４４巷１９號","OBJECTID":228653},"geometry":{"x":172767.69000000134,"y":2544818.129999999}},{"attributes":{"ID":228658,"DIS_CODE":0,"TOWNNAME":"永康區","LI":"崑山里","LIN":"3鄰","STREET":"大灣路","SECT":" ","MAREA":" ","LANE":"８７９巷","ALLEY":" ","HOUSE_NO":"２０號","E_COORD97":173645.87,"N_COORD97":2544365.6099999999,"ADDRESS":"大灣路８７９巷２０號","OBJECTID":228654},"geometry":{"x":173645.87000000104,"y":2544365.6100000013}},{"attributes":{"ID":228659,"DIS_CODE":0,"TOWNNAME":"永康區","LI":"烏竹里","LIN":"3鄰","STREET":"竹園二街","SECT":" ","MAREA":" ","LANE":"２０６巷","ALLEY":" ","HOUSE_NO":"４０號","E_COORD97":174722.76000000001,"N_COORD97":2549371.8700000001,"ADDRESS":"竹園二街２０６巷４０號","OBJECTID":228655},"geometry":{"x":174722.76000000071,"y":2549371.870000001}},{"attributes":{"ID":228660,"DIS_CODE":0,"TOWNNAME":"北區","LI":"成德里","LIN":"34鄰","STREET":"和緯路","SECT":"二段","MAREA":" ","LANE":" ","ALLEY":" ","HOUSE_NO":"４４２號","E_COORD97":168258.01000000001,"N_COORD97":2545889.3399999999,"ADDRESS":"和緯路二段４４２號","OBJECTID":228656},"geometry":{"x":168258.00999999978,"y":2545889.3399999999}},{"attributes":{"ID":228661,"DIS_CODE":0,"TOWNNAME":"北區","LI":"成德里","LIN":"34鄰","STREET":"和緯路","SECT":"二段","MAREA":" ","LANE":" ","ALLEY":" ","HOUSE_NO":"４４０號","E_COORD97":168262.13,"N_COORD97":2545890.9300000002,"ADDRESS":"和緯路二段４４０號","OBJECTID":228657},"geometry":{"x":168262.13000000082,"y":2545890.9299999997}},{"attributes":{"ID":228662,"DIS_CODE":0,"TOWNNAME":"北區","LI":"成德里","LIN":"34鄰","STREET":"和緯路","SECT":"二段","MAREA":" ","LANE":" ","ALLEY":" ","HOUSE_NO":"４８２號","E_COORD97":168181.17000000001,"N_COORD97":2545869.5,"ADDRESS":"和緯路二段４８２號","OBJECTID":228658},"geometry":{"x":168181.16999999993,"y":2545869.5000000019}},{"attributes":{"ID":228663,"DIS_CODE":0,"TOWNNAME":"北區","LI":"成德里","LIN":"34鄰","STREET":"和緯路","SECT":"二段","MAREA":" ","LANE":" ","ALLEY":" ","HOUSE_NO":"４８６號","E_COORD97":168177.04000000001,"N_COORD97":2545868.5499999998,"ADDRESS":"和緯路二段４８６號","OBJECTID":228659},"geometry":{"x":168177.04000000004,"y":2545868.5500000007}},{"attributes":{"ID":228664,"DIS_CODE":0,"TOWNNAME":"北區","LI":"成德里","LIN":"34鄰","STREET":"和緯路","SECT":"二段","MAREA":" ","LANE":" ","ALLEY":" ","HOUSE_NO":"４８８號","E_COORD97":168172.60000000001,"N_COORD97":2545867.4399999999,"ADDRESS":"和緯路二段４８８號","OBJECTID":228660},"geometry":{"x":168172.59999999963,"y":2545867.4399999995}},{"attributes":{"ID":228665,"DIS_CODE":0,"TOWNNAME":"北區","LI":"成德里","LIN":"34鄰","STREET":"和緯路","SECT":"二段","MAREA":" ","LANE":" ","ALLEY":" ","HOUSE_NO":"４９０號","E_COORD97":168168.31,"N_COORD97":2545866.0099999998,"ADDRESS":"和緯路二段４９０號","OBJECTID":228661},"geometry":{"x":168168.30999999866,"y":2545866.0100000016}},{"attributes":{"ID":228666,"DIS_CODE":0,"TOWNNAME":"仁德區","LI":"仁愛里","LIN":"23鄰","STREET":" ","SECT":" ","MAREA":"仁愛","LANE":" ","ALLEY":" ","HOUSE_NO":"４８３號","E_COORD97":170121.901209,"N_COORD97":2540052.2723400001,"ADDRESS":"仁愛４８３號","OBJECTID":228662},"geometry":{"x":170121.9012090005,"y":2540052.2723379973}},{"attributes":{"ID":228667,"DIS_CODE":0,"TOWNNAME":"仁德區","LI":"仁義里","LIN":"23鄰","STREET":"中清路","SECT":" ","MAREA":" ","LANE":"１６０巷","ALLEY":" ","HOUSE_NO":"３號","E_COORD97":173764.14999999999,"N_COORD97":2541496.54,"ADDRESS":"中清路１６０巷３號","OBJECTID":228663},"geometry":{"x":173764.15000000037,"y":2541496.5399999991}},{"attributes":{"ID":228668,"DIS_CODE":0,"TOWNNAME":"仁德區","LI":"仁愛里","LIN":"23鄰","STREET":" ","SECT":" ","MAREA":"仁愛","LANE":" ","ALLEY":" ","HOUSE_NO":"４９２之１號","E_COORD97":170071.58098100001,"N_COORD97":2540049.0973399999,"ADDRESS":"仁愛４９２之１號","OBJECTID":228664},"geometry":{"x":170071.58098100126,"y":2540049.0973399989}},{"attributes":{"ID":228669,"DIS_CODE":0,"TOWNNAME":"永康區","LI":"西勢里","LIN":"23鄰","STREET":"富強路","SECT":"一段","MAREA":" ","LANE":"１９４巷","ALLEY":" ","HOUSE_NO":"３８號","E_COORD97":175680.56,"N_COORD97":2546270.5699999998,"ADDRESS":"富強路一段１９４巷３８號","OBJECTID":228665},"geometry":{"x":175680.56000000052,"y":2546270.5700000003}},{"attributes":{"ID":228670,"DIS_CODE":0,"TOWNNAME":"仁德區","LI":"仁愛里","LIN":"23鄰","STREET":" ","SECT":" ","MAREA":"仁愛","LANE":" ","ALLEY":" ","HOUSE_NO":"４８８號","E_COORD97":170100.131089,"N_COORD97":2540050.3673399999,"ADDRESS":"仁愛４８８號","OBJECTID":228666},"geometry":{"x":170100.13108900003,"y":2540050.3673390038}},{"attributes":{"ID":228671,"DIS_CODE":0,"TOWNNAME":"永康區","LI":"復華里","LIN":"23鄰","STREET":"國華街","SECT":" ","MAREA":" ","LANE":"１３４巷","ALLEY":" ","HOUSE_NO":"９號","E_COORD97":172717.89999999999,"N_COORD97":2546163.7400000002,"ADDRESS":"國華街１３４巷９號","OBJECTID":228667},"geometry":{"x":172717.90000000037,"y":2546163.7400000021}},{"attributes":{"ID":228672,"DIS_CODE":0,"TOWNNAME":"永康區","LI":"北灣里","LIN":"23鄰","STREET":"大灣路","SECT":" ","MAREA":" ","LANE":"４０巷","ALLEY":" ","HOUSE_NO":"２號","E_COORD97":175288.37,"N_COORD97":2545915.2200000002,"ADDRESS":"大灣路４０巷２號","OBJECTID":228668},"geometry":{"x":175288.37000000197,"y":2545915.2200000044}},{"attributes":{"ID":228673,"DIS_CODE":0,"TOWNNAME":"永康區","LI":"網寮里","LIN":"23鄰","STREET":"文化路","SECT":" ","MAREA":" ","LANE":"１２８巷","ALLEY":" ","HOUSE_NO":"１２號","E_COORD97":173895.38,"N_COORD97":2546277.25,"ADDRESS":"文化路１２８巷１２號","OBJECTID":228669},"geometry":{"x":173895.38000000082,"y":2546277.2500000037}},{"attributes":{"ID":228674,"DIS_CODE":0,"TOWNNAME":"永康區","LI":"西勢里","LIN":"23鄰","STREET":"富強路","SECT":"一段","MAREA":" ","LANE":"１９４巷","ALLEY":" ","HOUSE_NO":"２０號","E_COORD97":175654.17999999999,"N_COORD97":2546294.8199999998,"ADDRESS":"富強路一段１９４巷２０號","OBJECTID":228670},"geometry":{"x":175654.18000000063,"y":2546294.8200000022}},{"attributes":{"ID":228675,"DIS_CODE":0,"TOWNNAME":"中西區","LI":"民權里","LIN":"3鄰","STREET":"民生路","SECT":"二段","MAREA":" ","LANE":"１４４巷","ALLEY":" ","HOUSE_NO":"１９號","E_COORD97":167502.75,"N_COORD97":2544094.4900000002,"ADDRESS":"民生路二段１４４巷１９號","OBJECTID":228671},"geometry":{"x":167502.75,"y":2544094.4900000002}},{"attributes":{"ID":228676,"DIS_CODE":0,"TOWNNAME":"中西區","LI":"民權里","LIN":"3鄰","STREET":"民生路","SECT":"二段","MAREA":" ","LANE":"１４４巷","ALLEY":" ","HOUSE_NO":"２１號","E_COORD97":167500.84,"N_COORD97":2544099.75,"ADDRESS":"民生路二段１４４巷２１號","OBJECTID":228672},"geometry":{"x":167500.84000000078,"y":2544099.75}},{"attributes":{"ID":228677,"DIS_CODE":0,"TOWNNAME":"中西區","LI":"民權里","LIN":"3鄰","STREET":"民生路","SECT":"二段","MAREA":" ","LANE":"１４４巷","ALLEY":" ","HOUSE_NO":"２２號","E_COORD97":167511.88148499999,"N_COORD97":2544108.5620900001,"ADDRESS":"民生路二段１４４巷２２號","OBJECTID":228673},"geometry":{"x":167511.88148500212,"y":2544108.5620920006}},{"attributes":{"ID":228678,"DIS_CODE":0,"TOWNNAME":"北區","LI":"成德里","LIN":"34鄰","STREET":"和緯路","SECT":"二段","MAREA":" ","LANE":" ","ALLEY":" ","HOUSE_NO":"４９２號","E_COORD97":168163.54999999999,"N_COORD97":2545864.5800000001,"ADDRESS":"和緯路二段４９２號","OBJECTID":228674},"geometry":{"x":168163.55000000168,"y":2545864.5799999982}},{"attributes":{"ID":228679,"DIS_CODE":0,"TOWNNAME":"北區","LI":"成德里","LIN":"34鄰","STREET":"和緯路","SECT":"二段","MAREA":" ","LANE":" ","ALLEY":" ","HOUSE_NO":"４９６號","E_COORD97":168158.47,"N_COORD97":2545862.9900000002,"ADDRESS":"和緯路二段４９６號","OBJECTID":228675},"geometry":{"x":168158.46999999974,"y":2545862.9900000021}},{"attributes":{"ID":228680,"DIS_CODE":0,"TOWNNAME":"北區","LI":"成德里","LIN":"34鄰","STREET":"和緯路","SECT":"二段","MAREA":" ","LANE":" ","ALLEY":" ","HOUSE_NO":"４９８號","E_COORD97":168154.34,"N_COORD97":2545861.5600000001,"ADDRESS":"和緯路二段４９８號","OBJECTID":228676},"geometry":{"x":168154.33999999985,"y":2545861.5600000005}},{"attributes":{"ID":228681,"DIS_CODE":0,"TOWNNAME":"北區","LI":"成德里","LIN":"34鄰","STREET":"和緯路","SECT":"二段","MAREA":" ","LANE":" ","ALLEY":" ","HOUSE_NO":"５２８號","E_COORD97":168089.25,"N_COORD97":2545835.0499999998,"ADDRESS":"和緯路二段５２８號","OBJECTID":228677},"geometry":{"x":168089.25,"y":2545835.0500000045}},{"attributes":{"ID":228682,"DIS_CODE":0,"TOWNNAME":"北區","LI":"成德里","LIN":"34鄰","STREET":"和緯路","SECT":"二段","MAREA":" ","LANE":" ","ALLEY":" ","HOUSE_NO":"５００號","E_COORD97":168149.10000000001,"N_COORD97":2545859.5,"ADDRESS":"和緯路二段５００號","OBJECTID":228678},"geometry":{"x":168149.09999999963,"y":2545859.5000000019}},{"attributes":{"ID":228683,"DIS_CODE":0,"TOWNNAME":"善化區","LI":"坐駕里","LIN":"20鄰","STREET":" ","SECT":" ","MAREA":"坐駕","LANE":" ","ALLEY":" ","HOUSE_NO":"６５號","E_COORD97":178283.44,"N_COORD97":2558360.5,"ADDRESS":"坐駕６５號","OBJECTID":228679},"geometry":{"x":178283.43999999948,"y":2558360.5}},{"attributes":{"ID":228684,"DIS_CODE":0,"TOWNNAME":"北區","LI":"成德里","LIN":"34鄰","STREET":"和緯路","SECT":"二段","MAREA":" ","LANE":" ","ALLEY":" ","HOUSE_NO":"５０２號","E_COORD97":168144.17999999999,"N_COORD97":2545858.0699999998,"ADDRESS":"和緯路二段５０２號","OBJECTID":228680},"geometry":{"x":168144.18000000063,"y":2545858.0699999984}},{"attributes":{"ID":228685,"DIS_CODE":0,"TOWNNAME":"佳里區","LI":"鎮山里","LIN":"23鄰","STREET":" ","SECT":" ","MAREA":"鎮山","LANE":" ","ALLEY":" ","HOUSE_NO":"９４號之１０","E_COORD97":166933.98999999999,"N_COORD97":2561229.8399999999,"ADDRESS":"鎮山９４號之１０","OBJECTID":228681},"geometry":{"x":166933.99000000115,"y":2561229.8399999999}},{"attributes":{"ID":228686,"DIS_CODE":0,"TOWNNAME":"永康區","LI":"網寮里","LIN":"23鄰","STREET":"永春街","SECT":" ","MAREA":" ","LANE":"２０巷","ALLEY":" ","HOUSE_NO":"８號","E_COORD97":173796.44,"N_COORD97":2546287.2400000002,"ADDRESS":"永春街２０巷８號","OBJECTID":228682},"geometry":{"x":173796.44000000227,"y":2546287.2400000002}},{"attributes":{"ID":228687,"DIS_CODE":0,"TOWNNAME":"佳里區","LI":"鎮山里","LIN":"23鄰","STREET":" ","SECT":" ","MAREA":"鎮山","LANE":" ","ALLEY":" ","HOUSE_NO":"９４號之２６","E_COORD97":166812.51999999999,"N_COORD97":2561043.8999999999,"ADDRESS":"鎮山９４號之２６","OBJECTID":228683},"geometry":{"x":166812.52000000142,"y":2561043.9000000004}},{"attributes":{"ID":228688,"DIS_CODE":0,"TOWNNAME":"永康區","LI":"龍潭里","LIN":"23鄰","STREET":"自強路","SECT":" ","MAREA":" ","LANE":"７５０巷","ALLEY":" ","HOUSE_NO":"６０號","E_COORD97":174534.19,"N_COORD97":2548462.29,"ADDRESS":"自強路７５０巷６０號","OBJECTID":228684},"geometry":{"x":174534.19000000134,"y":2548462.2899999991}},{"attributes":{"ID":228689,"DIS_CODE":0,"TOWNNAME":"永康區","LI":"復華里","LIN":"23鄰","STREET":"國華街","SECT":" ","MAREA":" ","LANE":"１３４巷","ALLEY":" ","HOUSE_NO":"２８號","E_COORD97":172751.70000000001,"N_COORD97":2546189.7400000002,"ADDRESS":"國華街１３４巷２８號","OBJECTID":228685},"geometry":{"x":172751.70000000019,"y":2546189.7400000021}},{"attributes":{"ID":228690,"DIS_CODE":0,"TOWNNAME":"永康區","LI":"正強里","LIN":"23鄰","STREET":"自強路","SECT":" ","MAREA":" ","LANE":"２５５巷","ALLEY":" ","HOUSE_NO":"１０號","E_COORD97":173222.07999999999,"N_COORD97":2547624.7400000002,"ADDRESS":"自強路２５５巷１０號","OBJECTID":228686},"geometry":{"x":173222.08000000194,"y":2547624.7400000021}},{"attributes":{"ID":228691,"DIS_CODE":0,"TOWNNAME":"永康區","LI":"復國里","LIN":"23鄰","STREET":"復國一路","SECT":" ","MAREA":" ","LANE":"３１５巷","ALLEY":" ","HOUSE_NO":"３８號","E_COORD97":172627.81,"N_COORD97":2545638.9900000002,"ADDRESS":"復國一路３１５巷３８號","OBJECTID":228687},"geometry":{"x":172627.80999999959,"y":2545638.9900000021}},{"attributes":{"ID":228692,"DIS_CODE":0,"TOWNNAME":"永康區","LI":"永康里","LIN":"23鄰","STREET":"中山南路","SECT":" ","MAREA":" ","LANE":"５５７巷","ALLEY":" ","HOUSE_NO":"１２號","E_COORD97":173437.94,"N_COORD97":2547183.7400000002,"ADDRESS":"中山南路５５７巷１２號","OBJECTID":228688},"geometry":{"x":173437.94000000041,"y":2547183.7400000021}},{"attributes":{"ID":228693,"DIS_CODE":0,"TOWNNAME":"永康區","LI":"網寮里","LIN":"23鄰","STREET":"永春街","SECT":" ","MAREA":" ","LANE":"２０巷","ALLEY":" ","HOUSE_NO":"３９號","E_COORD97":173854.35000000001,"N_COORD97":2546325.1899999999,"ADDRESS":"永春街２０巷３９號","OBJECTID":228689},"geometry":{"x":173854.35000000056,"y":2546325.1900000013}},{"attributes":{"ID":228694,"DIS_CODE":0,"TOWNNAME":"永康區","LI":"網寮里","LIN":"23鄰","STREET":"永春街","SECT":" ","MAREA":" ","LANE":"２０巷","ALLEY":" ","HOUSE_NO":"１５號","E_COORD97":173804.64000000001,"N_COORD97":2546307.6499999999,"ADDRESS":"永春街２０巷１５號","OBJECTID":228690},"geometry":{"x":173804.6400000006,"y":2546307.6500000004}},{"attributes":{"ID":228695,"DIS_CODE":0,"TOWNNAME":"永康區","LI":"勝利里","LIN":"23鄰","STREET":"中華一路","SECT":" ","MAREA":" ","LANE":"１８１巷","ALLEY":" ","HOUSE_NO":"１８號","E_COORD97":171491.98999999999,"N_COORD97":2544901.5,"ADDRESS":"中華一路１８１巷１８號","OBJECTID":228691},"geometry":{"x":171491.98999999929,"y":2544901.5}},{"attributes":{"ID":228696,"DIS_CODE":0,"TOWNNAME":"永康區","LI":"南灣里","LIN":"23鄰","STREET":"大灣路","SECT":" ","MAREA":" ","LANE":"７６４巷","ALLEY":" ","HOUSE_NO":"９７號","E_COORD97":174221.78,"N_COORD97":2544746.5699999998,"ADDRESS":"大灣路７６４巷９７號","OBJECTID":228692},"geometry":{"x":174221.78000000119,"y":2544746.5700000022}},{"attributes":{"ID":228697,"DIS_CODE":0,"TOWNNAME":"東區","LI":"和平里","LIN":"3鄰","STREET":"東門路","SECT":"三段","MAREA":" ","LANE":"２２６巷","ALLEY":" ","HOUSE_NO":"２０號","E_COORD97":171505.70000000001,"N_COORD97":2541913.9900000002,"ADDRESS":"東門路三段２２６巷２０號","OBJECTID":228693},"geometry":{"x":171505.70000000019,"y":2541913.9900000021}},{"attributes":{"ID":228698,"DIS_CODE":0,"TOWNNAME":"東區","LI":"富強里","LIN":"3鄰","STREET":"中華東路","SECT":"二段","MAREA":" ","LANE":"２２巷","ALLEY":" ","HOUSE_NO":"２８號","E_COORD97":171282.10999999999,"N_COORD97":2543115.7400000002,"ADDRESS":"中華東路二段２２巷２８號","OBJECTID":228694},"geometry":{"x":171282.11000000034,"y":2543115.7400000021}},{"attributes":{"ID":228699,"DIS_CODE":0,"TOWNNAME":"東區","LI":"富強里","LIN":"3鄰","STREET":"中華東路","SECT":"二段","MAREA":" ","LANE":"２２巷","ALLEY":" ","HOUSE_NO":"３０號","E_COORD97":171279.66,"N_COORD97":2543115.9399999999,"ADDRESS":"中華東路二段２２巷３０號","OBJECTID":228695},"geometry":{"x":171279.66000000108,"y":2543115.9400000013}},{"attributes":{"ID":228700,"DIS_CODE":0,"TOWNNAME":"東區","LI":"富強里","LIN":"3鄰","STREET":"中華東路","SECT":"二段","MAREA":" ","LANE":"２２巷","ALLEY":" ","HOUSE_NO":"３２號","E_COORD97":171275.48999999999,"N_COORD97":2543115.7400000002,"ADDRESS":"中華東路二段２２巷３２號","OBJECTID":228696},"geometry":{"x":171275.49000000115,"y":2543115.7400000021}},{"attributes":{"ID":228701,"DIS_CODE":0,"TOWNNAME":"北區","LI":"成德里","LIN":"34鄰","STREET":"和緯路","SECT":"二段","MAREA":" ","LANE":" ","ALLEY":" ","HOUSE_NO":"５０６號","E_COORD97":168138.14999999999,"N_COORD97":2545855.8500000001,"ADDRESS":"和緯路二段５０６號","OBJECTID":228697},"geometry":{"x":168138.15000000224,"y":2545855.8500000034}},{"attributes":{"ID":228702,"DIS_CODE":0,"TOWNNAME":"北區","LI":"成德里","LIN":"34鄰","STREET":"和緯路","SECT":"二段","MAREA":" ","LANE":" ","ALLEY":" ","HOUSE_NO":"５０８號","E_COORD97":168131.95999999999,"N_COORD97":2545854.2599999998,"ADDRESS":"和緯路二段５０８號","OBJECTID":228698},"geometry":{"x":168131.95999999996,"y":2545854.2600000016}},{"attributes":{"ID":228703,"DIS_CODE":0,"TOWNNAME":"北區","LI":"成德里","LIN":"34鄰","STREET":"和緯路","SECT":"二段","MAREA":" ","LANE":" ","ALLEY":" ","HOUSE_NO":"５１０號","E_COORD97":168126.39999999999,"N_COORD97":2545852.8300000001,"ADDRESS":"和緯路二段５１０號","OBJECTID":228699},"geometry":{"x":168126.4000000013,"y":2545852.8300000038}},{"attributes":{"ID":228704,"DIS_CODE":0,"TOWNNAME":"北區","LI":"成德里","LIN":"34鄰","STREET":"和緯路","SECT":"二段","MAREA":" ","LANE":" ","ALLEY":" ","HOUSE_NO":"５１２號","E_COORD97":168120.04999999999,"N_COORD97":2545850.77,"ADDRESS":"和緯路二段５１２號","OBJECTID":228700},"geometry":{"x":168120.05000000075,"y":2545850.7700000014}},{"attributes":{"ID":228705,"DIS_CODE":0,"TOWNNAME":"北區","LI":"成德里","LIN":"34鄰","STREET":"和緯路","SECT":"二段","MAREA":" ","LANE":" ","ALLEY":" ","HOUSE_NO":"５１６號","E_COORD97":168113.85999999999,"N_COORD97":2545848.5499999998,"ADDRESS":"和緯路二段５１６號","OBJECTID":228701},"geometry":{"x":168113.86000000034,"y":2545848.5499999989}},{"attributes":{"ID":228706,"DIS_CODE":0,"TOWNNAME":"北區","LI":"成德里","LIN":"34鄰","STREET":"和緯路","SECT":"二段","MAREA":" ","LANE":" ","ALLEY":" ","HOUSE_NO":"５１８號","E_COORD97":168108.94,"N_COORD97":2545846.6400000001,"ADDRESS":"和緯路二段５１８號","OBJECTID":228702},"geometry":{"x":168108.93999999948,"y":2545846.6400000006}},{"attributes":{"ID":228707,"DIS_CODE":0,"TOWNNAME":"北區","LI":"成德里","LIN":"34鄰","STREET":"和緯路","SECT":"二段","MAREA":" ","LANE":" ","ALLEY":" ","HOUSE_NO":"５２０號","E_COORD97":168103.85999999999,"N_COORD97":2545844.4199999999,"ADDRESS":"和緯路二段５２０號","OBJECTID":228703},"geometry":{"x":168103.86000000034,"y":2545844.4199999999}},{"attributes":{"ID":228708,"DIS_CODE":0,"TOWNNAME":"北區","LI":"成德里","LIN":"34鄰","STREET":"和緯路","SECT":"二段","MAREA":" ","LANE":" ","ALLEY":" ","HOUSE_NO":"５２２號","E_COORD97":168099.41,"N_COORD97":2545841.5600000001,"ADDRESS":"和緯路二段５２２號","OBJECTID":228704},"geometry":{"x":168099.41000000108,"y":2545841.5600000042}},{"attributes":{"ID":228709,"DIS_CODE":0,"TOWNNAME":"北區","LI":"成德里","LIN":"34鄰","STREET":"和緯路","SECT":"二段","MAREA":" ","LANE":" ","ALLEY":" ","HOUSE_NO":"５２６號","E_COORD97":168093.85999999999,"N_COORD97":2545839.5,"ADDRESS":"和緯路二段５２６號","OBJECTID":228705},"geometry":{"x":168093.86000000034,"y":2545839.5000000019}},{"attributes":{"ID":228710,"DIS_CODE":0,"TOWNNAME":"北區","LI":"成德里","LIN":"34鄰","STREET":"和緯路","SECT":"二段","MAREA":" ","LANE":" ","ALLEY":" ","HOUSE_NO":"４７２號","E_COORD97":168214.98000000001,"N_COORD97":2545877.9199999999,"ADDRESS":"和緯路二段４７２號","OBJECTID":228706},"geometry":{"x":168214.98000000045,"y":2545877.9199999999}},{"attributes":{"ID":228711,"DIS_CODE":0,"TOWNNAME":"佳里區","LI":"鎮山里","LIN":"23鄰","STREET":" ","SECT":" ","MAREA":"鎮山","LANE":" ","ALLEY":" ","HOUSE_NO":"９４號之７７","E_COORD97":167539.20000000001,"N_COORD97":2561483.54,"ADDRESS":"鎮山９４號之７７","OBJECTID":228707},"geometry":{"x":167539.20000000205,"y":2561483.5400000028}},{"attributes":{"ID":228712,"DIS_CODE":0,"TOWNNAME":"東區","LI":"東安里","LIN":"3鄰","STREET":"東門路","SECT":"二段","MAREA":" ","LANE":"４３巷","ALLEY":" ","HOUSE_NO":"５號","E_COORD97":170074.03,"N_COORD97":2543006.98,"ADDRESS":"東門路二段４３巷５號","OBJECTID":228708},"geometry":{"x":170074.03000000026,"y":2543006.9800000004}},{"attributes":{"ID":228713,"DIS_CODE":0,"TOWNNAME":"佳里區","LI":"鎮山里","LIN":"23鄰","STREET":" ","SECT":" ","MAREA":"鎮山","LANE":" ","ALLEY":" ","HOUSE_NO":"９４號之７８","E_COORD97":166506.64999999999,"N_COORD97":2561345,"ADDRESS":"鎮山９４號之７８","OBJECTID":228709},"geometry":{"x":166506.65000000037,"y":2561345}},{"attributes":{"ID":228714,"DIS_CODE":0,"TOWNNAME":"佳里區","LI":"鎮山里","LIN":"23鄰","STREET":" ","SECT":" ","MAREA":"鎮山","LANE":" ","ALLEY":" ","HOUSE_NO":"９４號之８０","E_COORD97":166705.39999999999,"N_COORD97":2561140.02,"ADDRESS":"鎮山９４號之８０","OBJECTID":228710},"geometry":{"x":166705.40000000037,"y":2561140.0199999996}},{"attributes":{"ID":228715,"DIS_CODE":0,"TOWNNAME":"佳里區","LI":"鎮山里","LIN":"23鄰","STREET":" ","SECT":" ","MAREA":"鎮山","LANE":" ","ALLEY":" ","HOUSE_NO":"９４號之８１","E_COORD97":166804.29000000001,"N_COORD97":2560970.71,"ADDRESS":"鎮山９４號之８１","OBJECTID":228711},"geometry":{"x":166804.28999999911,"y":2560970.7100000009}},{"attributes":{"ID":228716,"DIS_CODE":0,"TOWNNAME":"佳里區","LI":"鎮山里","LIN":"23鄰","STREET":" ","SECT":" ","MAREA":"鎮山","LANE":" ","ALLEY":" ","HOUSE_NO":"９４號之８２","E_COORD97":166826.57000000001,"N_COORD97":2560942.2400000002,"ADDRESS":"鎮山９４號之８２","OBJECTID":228712},"geometry":{"x":166826.57000000216,"y":2560942.2400000021}},{"attributes":{"ID":228717,"DIS_CODE":0,"TOWNNAME":"佳里區","LI":"鎮山里","LIN":"23鄰","STREET":" ","SECT":" ","MAREA":"鎮山","LANE":" ","ALLEY":" ","HOUSE_NO":"９４號之８","E_COORD97":167567.67000000001,"N_COORD97":2561463.6099999999,"ADDRESS":"鎮山９４號之８","OBJECTID":228713},"geometry":{"x":167567.66999999993,"y":2561463.6100000013}},{"attributes":{"ID":228718,"DIS_CODE":0,"TOWNNAME":"佳里區","LI":"鎮山里","LIN":"23鄰","STREET":" ","SECT":" ","MAREA":"鎮山","LANE":" ","ALLEY":" ","HOUSE_NO":"９４號之９０","E_COORD97":166850.47,"N_COORD97":2560918.8900000001,"ADDRESS":"鎮山９４號之９０","OBJECTID":228714},"geometry":{"x":166850.47000000067,"y":2560918.8900000006}},{"attributes":{"ID":228719,"DIS_CODE":0,"TOWNNAME":"佳里區","LI":"鎮山里","LIN":"23鄰","STREET":" ","SECT":" ","MAREA":"鎮山","LANE":" ","ALLEY":" ","HOUSE_NO":"９４號之９５","E_COORD97":166863.79000000001,"N_COORD97":2560904.6200000001,"ADDRESS":"鎮山９４號之９５","OBJECTID":228715},"geometry":{"x":166863.7900000019,"y":2560904.620000001}},{"attributes":{"ID":228720,"DIS_CODE":0,"TOWNNAME":"佳里區","LI":"鎮山里","LIN":"23鄰","STREET":" ","SECT":" ","MAREA":"鎮山","LANE":" ","ALLEY":" ","HOUSE_NO":"９４號","E_COORD97":166556.20000000001,"N_COORD97":2561181.46,"ADDRESS":"鎮山９４號","OBJECTID":228716},"geometry":{"x":166556.20000000112,"y":2561181.4600000028}},{"attributes":{"ID":228721,"DIS_CODE":0,"TOWNNAME":"西港區","LI":"慶安里","LIN":"23鄰","STREET":"中山路","SECT":" ","MAREA":" ","LANE":"２４３巷","ALLEY":" ","HOUSE_NO":"１５號","E_COORD97":168355.85000000001,"N_COORD97":2557851.4199999999,"ADDRESS":"中山路２４３巷１５號","OBJECTID":228717},"geometry":{"x":168355.84999999963,"y":2557851.4200000018}},{"attributes":{"ID":228722,"DIS_CODE":0,"TOWNNAME":"西港區","LI":"慶安里","LIN":"23鄰","STREET":"中山路","SECT":" ","MAREA":" ","LANE":"２４３巷","ALLEY":" ","HOUSE_NO":"１９號","E_COORD97":168346.57000000001,"N_COORD97":2557850.6299999999,"ADDRESS":"中山路２４３巷１９號","OBJECTID":228718},"geometry":{"x":168346.5700000003,"y":2557850.629999999}},{"attributes":{"ID":228723,"DIS_CODE":0,"TOWNNAME":"西港區","LI":"慶安里","LIN":"23鄰","STREET":"中山路","SECT":" ","MAREA":" ","LANE":"２４３巷","ALLEY":" ","HOUSE_NO":"１號","E_COORD97":168387.95999999999,"N_COORD97":2557854.46,"ADDRESS":"中山路２４３巷１號","OBJECTID":228719},"geometry":{"x":168387.95999999996,"y":2557854.4600000009}},{"attributes":{"ID":228724,"DIS_CODE":0,"TOWNNAME":"西港區","LI":"慶安里","LIN":"23鄰","STREET":"中山路","SECT":" ","MAREA":" ","LANE":"２４３巷","ALLEY":" ","HOUSE_NO":"２１號","E_COORD97":168341.75,"N_COORD97":2557849.96,"ADDRESS":"中山路２４３巷２１號","OBJECTID":228720},"geometry":{"x":168341.75,"y":2557849.9600000009}},{"attributes":{"ID":228725,"DIS_CODE":0,"TOWNNAME":"西港區","LI":"慶安里","LIN":"23鄰","STREET":"中山路","SECT":" ","MAREA":" ","LANE":"２４３巷","ALLEY":" ","HOUSE_NO":"３號","E_COORD97":168383.42000000001,"N_COORD97":2557854.29,"ADDRESS":"中山路２４３巷３號","OBJECTID":228721},"geometry":{"x":168383.42000000179,"y":2557854.2900000028}},{"attributes":{"ID":228726,"DIS_CODE":0,"TOWNNAME":"西港區","LI":"慶安里","LIN":"23鄰","STREET":"中山路","SECT":" ","MAREA":" ","LANE":"２４３巷","ALLEY":" ","HOUSE_NO":"７號","E_COORD97":168370.19,"N_COORD97":2557853.0800000001,"ADDRESS":"中山路２４３巷７號","OBJECTID":228722},"geometry":{"x":168370.19000000227,"y":2557853.0800000038}},{"attributes":{"ID":228727,"DIS_CODE":0,"TOWNNAME":"東區","LI":"自強里","LIN":"23鄰","STREET":"富農街","SECT":"一段","MAREA":" ","LANE":"１９１巷","ALLEY":" ","HOUSE_NO":"４號","E_COORD97":171530.84,"N_COORD97":2542591.23,"ADDRESS":"富農街一段１９１巷４號","OBJECTID":228723},"geometry":{"x":171530.84000000078,"y":2542591.2300000004}},{"attributes":{"ID":228728,"DIS_CODE":0,"TOWNNAME":"東區","LI":"忠孝里","LIN":"23鄰","STREET":"崇明五街","SECT":" ","MAREA":" ","LANE":"１８巷","ALLEY":" ","HOUSE_NO":"２號","E_COORD97":169648.79000000001,"N_COORD97":2542245.8399999999,"ADDRESS":"崇明五街１８巷２號","OBJECTID":228724},"geometry":{"x":169648.78999999911,"y":2542245.8400000017}},{"attributes":{"ID":228729,"DIS_CODE":0,"TOWNNAME":"東區","LI":"裕農里","LIN":"23鄰","STREET":"裕農路","SECT":" ","MAREA":" ","LANE":"３４５巷","ALLEY":" ","HOUSE_NO":"５４號","E_COORD97":170973.32000000001,"N_COORD97":2543198.73,"ADDRESS":"裕農路３４５巷５４號","OBJECTID":228725},"geometry":{"x":170973.32000000123,"y":2543198.7300000004}},{"attributes":{"ID":228730,"DIS_CODE":0,"TOWNNAME":"永康區","LI":"龍潭里","LIN":"3鄰","STREET":"龍國街","SECT":" ","MAREA":" ","LANE":"３０９巷","ALLEY":" ","HOUSE_NO":"２８號","E_COORD97":174720.56,"N_COORD97":2548135.29,"ADDRESS":"龍國街３０９巷２８號","OBJECTID":228726},"geometry":{"x":174720.56000000052,"y":2548135.290000001}},{"attributes":{"ID":228731,"DIS_CODE":0,"TOWNNAME":"中西區","LI":"天后里","LIN":"3鄰","STREET":"永福路","SECT":"二段","MAREA":" ","LANE":"１９７巷","ALLEY":" ","HOUSE_NO":"７號","E_COORD97":168128.53,"N_COORD97":2544060.5600000001,"ADDRESS":"永福路二段１９７巷７號","OBJECTID":228727},"geometry":{"x":168128.52999999933,"y":2544060.5600000005}},{"attributes":{"ID":228732,"DIS_CODE":0,"TOWNNAME":"中西區","LI":"天后里","LIN":"3鄰","STREET":"永福路","SECT":"二段","MAREA":" ","LANE":"１９７巷","ALLEY":" ","HOUSE_NO":"８號","E_COORD97":168124.35999999999,"N_COORD97":2544062.5800000001,"ADDRESS":"永福路二段１９７巷８號","OBJECTID":228728},"geometry":{"x":168124.36000000034,"y":2544062.5800000019}},{"attributes":{"ID":228733,"DIS_CODE":0,"TOWNNAME":"中西區","LI":"天后里","LIN":"3鄰","STREET":"永福路","SECT":"二段","MAREA":" ","LANE":"１９７巷","ALLEY":" ","HOUSE_NO":"９號","E_COORD97":168121.07000000001,"N_COORD97":2544064.3500000001,"ADDRESS":"永福路二段１９７巷９號","OBJECTID":228729},"geometry":{"x":168121.0700000003,"y":2544064.3499999996}},{"attributes":{"ID":228734,"DIS_CODE":0,"TOWNNAME":"中西區","LI":"天后里","LIN":"3鄰","STREET":"永福路","SECT":"二段","MAREA":" ","LANE":"２２７巷","ALLEY":" ","HOUSE_NO":"２１號","E_COORD97":168145.56,"N_COORD97":2544109.2000000002,"ADDRESS":"永福路二段２２７巷２１號","OBJECTID":228730},"geometry":{"x":168145.55999999959,"y":2544109.1999999993}},{"attributes":{"ID":228735,"DIS_CODE":0,"TOWNNAME":"中西區","LI":"天后里","LIN":"3鄰","STREET":"永福路","SECT":"二段","MAREA":" ","LANE":"２２７巷","ALLEY":" ","HOUSE_NO":"２３號","E_COORD97":168139.94,"N_COORD97":2544110.9700000002,"ADDRESS":"永福路二段２２７巷２３號","OBJECTID":228731},"geometry":{"x":168139.94000000134,"y":2544110.9700000025}},{"attributes":{"ID":228736,"DIS_CODE":0,"TOWNNAME":"中西區","LI":"天后里","LIN":"3鄰","STREET":"永福路","SECT":"二段","MAREA":" ","LANE":"２２７巷","ALLEY":" ","HOUSE_NO":"２５號","E_COORD97":168136.41,"N_COORD97":2544113.5299999998,"ADDRESS":"永福路二段２２７巷２５號","OBJECTID":228732},"geometry":{"x":168136.41000000108,"y":2544113.5299999993}},{"attributes":{"ID":228737,"DIS_CODE":0,"TOWNNAME":"中西區","LI":"天后里","LIN":"3鄰","STREET":"永福路","SECT":"二段","MAREA":" ","LANE":"２２７巷","ALLEY":" ","HOUSE_NO":"２７號","E_COORD97":168132.56,"N_COORD97":2544114.98,"ADDRESS":"永福路二段２２７巷２７號","OBJECTID":228733},"geometry":{"x":168132.55999999959,"y":2544114.9800000004}},{"attributes":{"ID":228738,"DIS_CODE":0,"TOWNNAME":"安南區","LI":"州南里","LIN":"3鄰","STREET":"安和路","SECT":"四段","MAREA":" ","LANE":"５３３巷","ALLEY":" ","HOUSE_NO":"１５６號","E_COORD97":169599.98999999999,"N_COORD97":2551234.8100000001,"ADDRESS":"安和路四段５３３巷１５６號","OBJECTID":228734},"geometry":{"x":169599.99000000022,"y":2551234.8100000024}},{"attributes":{"ID":228739,"DIS_CODE":0,"TOWNNAME":"安南區","LI":"城中里","LIN":"3鄰","STREET":"安中路","SECT":"六段","MAREA":" ","LANE":"５１９巷","ALLEY":" ","HOUSE_NO":"２２號","E_COORD97":160879.03,"N_COORD97":2551328.2799999998,"ADDRESS":"安中路六段５１９巷２２號","OBJECTID":228735},"geometry":{"x":160879.03000000119,"y":2551328.2800000012}},{"attributes":{"ID":228740,"DIS_CODE":0,"TOWNNAME":"北區","LI":"成德里","LIN":"34鄰","STREET":"育德路","SECT":" ","MAREA":" ","LANE":" ","ALLEY":" ","HOUSE_NO":"４３３號","E_COORD97":168662.5,"N_COORD97":2546034.52,"ADDRESS":"育德路４３３號","OBJECTID":228736},"geometry":{"x":168662.50000000186,"y":2546034.5200000014}},{"attributes":{"ID":228741,"DIS_CODE":0,"TOWNNAME":"北區","LI":"成德里","LIN":"34鄰","STREET":"育德路","SECT":" ","MAREA":" ","LANE":" ","ALLEY":" ","HOUSE_NO":"４３１號","E_COORD97":168661.07000000001,"N_COORD97":2546027.8500000001,"ADDRESS":"育德路４３１號","OBJECTID":228737},"geometry":{"x":168661.07000000123,"y":2546027.8499999996}},{"attributes":{"ID":228742,"DIS_CODE":0,"TOWNNAME":"北區","LI":"成德里","LIN":"34鄰","STREET":"育德路","SECT":" ","MAREA":" ","LANE":" ","ALLEY":" ","HOUSE_NO":"４２９號","E_COORD97":168659.48999999999,"N_COORD97":2546021.5,"ADDRESS":"育德路４２９號","OBJECTID":228738},"geometry":{"x":168659.49000000209,"y":2546021.5000000019}},{"attributes":{"ID":228743,"DIS_CODE":0,"TOWNNAME":"新市區","LI":"大社里","LIN":"23鄰","STREET":" ","SECT":" ","MAREA":"大社","LANE":" ","ALLEY":" ","HOUSE_NO":"８４６號","E_COORD97":179710.67000000001,"N_COORD97":2554199.25,"ADDRESS":"大社８４６號","OBJECTID":228739},"geometry":{"x":179710.67000000179,"y":2554199.25}},{"attributes":{"ID":228744,"DIS_CODE":0,"TOWNNAME":"新市區","LI":"大社里","LIN":"23鄰","STREET":" ","SECT":" ","MAREA":"大社","LANE":" ","ALLEY":" ","HOUSE_NO":"８６０之２號","E_COORD97":179634.79000000001,"N_COORD97":2554125.7999999998,"ADDRESS":"大社８６０之２號","OBJECTID":228740},"geometry":{"x":179634.79000000004,"y":2554125.8000000007}},{"attributes":{"ID":228745,"DIS_CODE":0,"TOWNNAME":"北區","LI":"成德里","LIN":"34鄰","STREET":"育德路","SECT":" ","MAREA":" ","LANE":" ","ALLEY":" ","HOUSE_NO":"４２７號","E_COORD97":168658.06,"N_COORD97":2546015.3100000001,"ADDRESS":"育德路４２７號","OBJECTID":228741},"geometry":{"x":168658.05999999959,"y":2546015.3100000005}},{"attributes":{"ID":228746,"DIS_CODE":0,"TOWNNAME":"北區","LI":"成德里","LIN":"34鄰","STREET":"育德路","SECT":" ","MAREA":" ","LANE":" ","ALLEY":" ","HOUSE_NO":"４２５號","E_COORD97":168656.79000000001,"N_COORD97":2546011.3399999999,"ADDRESS":"育德路４２５號","OBJECTID":228742},"geometry":{"x":168656.79000000004,"y":2546011.3399999999}},{"attributes":{"ID":228747,"DIS_CODE":0,"TOWNNAME":"北區","LI":"成德里","LIN":"34鄰","STREET":"和緯路","SECT":"二段","MAREA":" ","LANE":" ","ALLEY":" ","HOUSE_NO":"３７２號","E_COORD97":168424.73999999999,"N_COORD97":2545903.3399999999,"ADDRESS":"和緯路二段３７２號","OBJECTID":228743},"geometry":{"x":168424.74000000022,"y":2545903.3400000036}},{"attributes":{"ID":228748,"DIS_CODE":0,"TOWNNAME":"北區","LI":"成德里","LIN":"34鄰","STREET":"和緯路","SECT":"二段","MAREA":" ","LANE":" ","ALLEY":" ","HOUSE_NO":"３３０號","E_COORD97":168510.10000000001,"N_COORD97":2545895.77,"ADDRESS":"和緯路二段３３０號","OBJECTID":228744},"geometry":{"x":168510.09999999963,"y":2545895.7699999996}},{"attributes":{"ID":228749,"DIS_CODE":0,"TOWNNAME":"北區","LI":"成德里","LIN":"34鄰","STREET":"和緯路","SECT":"二段","MAREA":" ","LANE":" ","ALLEY":" ","HOUSE_NO":"３３６號","E_COORD97":168490.57000000001,"N_COORD97":2545898,"ADDRESS":"和緯路二段３３６號","OBJECTID":228745},"geometry":{"x":168490.5700000003,"y":2545898}},{"attributes":{"ID":228750,"DIS_CODE":0,"TOWNNAME":"下營區","LI":"新興里","LIN":"15鄰","STREET":"中華街","SECT":" ","MAREA":" ","LANE":"２０２巷","ALLEY":" ","HOUSE_NO":"９６號","E_COORD97":175412.57698499999,"N_COORD97":2570702.2123099999,"ADDRESS":"中華街２０２巷９６號","OBJECTID":228746},"geometry":{"x":175412.57698500156,"y":2570702.2123110015}},{"attributes":{"ID":228751,"DIS_CODE":0,"TOWNNAME":"北區","LI":"成德里","LIN":"34鄰","STREET":"和緯路","SECT":"二段","MAREA":" ","LANE":" ","ALLEY":" ","HOUSE_NO":"２５２號","E_COORD97":168644.09,"N_COORD97":2545875.3700000001,"ADDRESS":"和緯路二段２５２號","OBJECTID":228747},"geometry":{"x":168644.08999999985,"y":2545875.3700000029}},{"attributes":{"ID":228752,"DIS_CODE":0,"TOWNNAME":"北區","LI":"成德里","LIN":"34鄰","STREET":"和緯路","SECT":"二段","MAREA":" ","LANE":" ","ALLEY":" ","HOUSE_NO":"３３８號","E_COORD97":168484.07000000001,"N_COORD97":2545897.9199999999,"ADDRESS":"和緯路二段３３８號","OBJECTID":228748},"geometry":{"x":168484.0700000003,"y":2545897.9199999999}},{"attributes":{"ID":228753,"DIS_CODE":0,"TOWNNAME":"南區","LI":"建南里","LIN":"2鄰","STREET":"永成路","SECT":"二段","MAREA":" ","LANE":"８８１巷","ALLEY":" ","HOUSE_NO":"８２號","E_COORD97":167271.258952,"N_COORD97":2540236.69734,"ADDRESS":"永成路二段８８１巷８２號","OBJECTID":228749},"geometry":{"x":167271.25895200111,"y":2540236.6973380018}},{"attributes":{"ID":228754,"DIS_CODE":0,"TOWNNAME":"新市區","LI":"新市里","LIN":"23鄰","STREET":"和平街","SECT":" ","MAREA":" ","LANE":"１６巷","ALLEY":" ","HOUSE_NO":"１２號","E_COORD97":177756.48999999999,"N_COORD97":2553512,"ADDRESS":"和平街１６巷１２號","OBJECTID":228750},"geometry":{"x":177756.49000000115,"y":2553512.0000000019}},{"attributes":{"ID":228755,"DIS_CODE":0,"TOWNNAME":"新市區","LI":"港墘里","LIN":"23鄰","STREET":"光華街","SECT":" ","MAREA":" ","LANE":"１５２巷","ALLEY":" ","HOUSE_NO":"３號","E_COORD97":177921.79000000001,"N_COORD97":2552817.75,"ADDRESS":"光華街１５２巷３號","OBJECTID":228751},"geometry":{"x":177921.79000000097,"y":2552817.7500000019}},{"attributes":{"ID":228756,"DIS_CODE":0,"TOWNNAME":"新市區","LI":"新市里","LIN":"23鄰","STREET":"復興路","SECT":" ","MAREA":" ","LANE":" ","ALLEY":" ","HOUSE_NO":"７３號","E_COORD97":177799.12,"N_COORD97":2553509.0299999998,"ADDRESS":"復興路７３號","OBJECTID":228752},"geometry":{"x":177799.12000000104,"y":2553509.0299999993}},{"attributes":{"ID":228757,"DIS_CODE":0,"TOWNNAME":"新市區","LI":"大社里","LIN":"23鄰","STREET":" ","SECT":" ","MAREA":"大社","LANE":" ","ALLEY":" ","HOUSE_NO":"８５５號","E_COORD97":179695.64999999999,"N_COORD97":2554128.75,"ADDRESS":"大社８５５號","OBJECTID":228753},"geometry":{"x":179695.65000000037,"y":2554128.75}},{"attributes":{"ID":228758,"DIS_CODE":0,"TOWNNAME":"新市區","LI":"大社里","LIN":"23鄰","STREET":" ","SECT":" ","MAREA":"大社","LANE":" ","ALLEY":" ","HOUSE_NO":"８４２號","E_COORD97":179733.14999999999,"N_COORD97":2554197.25,"ADDRESS":"大社８４２號","OBJECTID":228754},"geometry":{"x":179733.15000000224,"y":2554197.2500000037}},{"attributes":{"ID":228759,"DIS_CODE":0,"TOWNNAME":"新市區","LI":"大社里","LIN":"23鄰","STREET":" ","SECT":" ","MAREA":"大社","LANE":" ","ALLEY":" ","HOUSE_NO":"８４５之１號","E_COORD97":179687.57000000001,"N_COORD97":2554196.0499999998,"ADDRESS":"大社８４５之１號","OBJECTID":228755},"geometry":{"x":179687.5700000003,"y":2554196.0500000045}},{"attributes":{"ID":228760,"DIS_CODE":0,"TOWNNAME":"新市區","LI":"大社里","LIN":"23鄰","STREET":" ","SECT":" ","MAREA":"大社","LANE":" ","ALLEY":" ","HOUSE_NO":"８４７號","E_COORD97":179637.95999999999,"N_COORD97":2553964.75,"ADDRESS":"大社８４７號","OBJECTID":228756},"geometry":{"x":179637.96000000089,"y":2553964.7500000019}},{"attributes":{"ID":228761,"DIS_CODE":0,"TOWNNAME":"新市區","LI":"大營里","LIN":"23鄰","STREET":" ","SECT":" ","MAREA":"大營","LANE":" ","ALLEY":" ","HOUSE_NO":"１３０之１７號","E_COORD97":179245.98000000001,"N_COORD97":2554623.0499999998,"ADDRESS":"大營１３０之１７號","OBJECTID":228757},"geometry":{"x":179245.98000000045,"y":2554623.0500000045}},{"attributes":{"ID":228762,"DIS_CODE":0,"TOWNNAME":"新市區","LI":"新市里","LIN":"23鄰","STREET":"復興路","SECT":" ","MAREA":" ","LANE":" ","ALLEY":" ","HOUSE_NO":"６７號","E_COORD97":177799.53,"N_COORD97":2553492.7799999998,"ADDRESS":"復興路６７號","OBJECTID":228758},"geometry":{"x":177799.53000000026,"y":2553492.7799999993}},{"attributes":{"ID":228763,"DIS_CODE":0,"TOWNNAME":"新市區","LI":"新市里","LIN":"23鄰","STREET":"復興路","SECT":" ","MAREA":" ","LANE":" ","ALLEY":" ","HOUSE_NO":"７７號","E_COORD97":177798.37,"N_COORD97":2553521.0299999998,"ADDRESS":"復興路７７號","OBJECTID":228759},"geometry":{"x":177798.37000000011,"y":2553521.0300000012}},{"attributes":{"ID":228764,"DIS_CODE":0,"TOWNNAME":"新市區","LI":"大營里","LIN":"23鄰","STREET":" ","SECT":" ","MAREA":"大營","LANE":" ","ALLEY":" ","HOUSE_NO":"１３０之２號","E_COORD97":179232.63,"N_COORD97":2554644.5499999998,"ADDRESS":"大營１３０之２號","OBJECTID":228760},"geometry":{"x":179232.62999999896,"y":2554644.5500000026}},{"attributes":{"ID":228765,"DIS_CODE":0,"TOWNNAME":"新市區","LI":"港墘里","LIN":"23鄰","STREET":"光華街","SECT":" ","MAREA":" ","LANE":"１５２巷","ALLEY":" ","HOUSE_NO":"１１號","E_COORD97":177939.20000000001,"N_COORD97":2552820.75,"ADDRESS":"光華街１５２巷１１號","OBJECTID":228761},"geometry":{"x":177939.20000000205,"y":2552820.7500000037}},{"attributes":{"ID":228766,"DIS_CODE":0,"TOWNNAME":"新市區","LI":"港墘里","LIN":"23鄰","STREET":"光華街","SECT":" ","MAREA":" ","LANE":"１５２巷","ALLEY":" ","HOUSE_NO":"１９號","E_COORD97":177956.34,"N_COORD97":2552824.25,"ADDRESS":"光華街１５２巷１９號","OBJECTID":228762},"geometry":{"x":177956.33999999985,"y":2552824.2500000019}},{"attributes":{"ID":228767,"DIS_CODE":0,"TOWNNAME":"新市區","LI":"港墘里","LIN":"23鄰","STREET":"光華街","SECT":" ","MAREA":" ","LANE":"１５２巷","ALLEY":" ","HOUSE_NO":"１號","E_COORD97":177918.01000000001,"N_COORD97":2552817.25,"ADDRESS":"光華街１５２巷１號","OBJECTID":228763},"geometry":{"x":177918.01000000164,"y":2552817.2500000037}},{"attributes":{"ID":228768,"DIS_CODE":0,"TOWNNAME":"安南區","LI":"州南里","LIN":"23鄰","STREET":"安和路","SECT":"四段","MAREA":" ","LANE":"５３３巷","ALLEY":" ","HOUSE_NO":"４２號","E_COORD97":169842.64000000001,"N_COORD97":2551292.0600000001,"ADDRESS":"安和路四段５３３巷４２號","OBJECTID":228764},"geometry":{"x":169842.63999999873,"y":2551292.0600000005}},{"attributes":{"ID":228769,"DIS_CODE":0,"TOWNNAME":"安南區","LI":"州南里","LIN":"23鄰","STREET":"安和路","SECT":"四段","MAREA":" ","LANE":"５３３巷","ALLEY":" ","HOUSE_NO":"２８號","E_COORD97":169866.22,"N_COORD97":2551303.9500000002,"ADDRESS":"安和路四段５３３巷２８號","OBJECTID":228765},"geometry":{"x":169866.22000000067,"y":2551303.9500000011}},{"attributes":{"ID":228770,"DIS_CODE":0,"TOWNNAME":"安南區","LI":"城西里","LIN":"3鄰","STREET":"城西街","SECT":"三段","MAREA":" ","LANE":"５１０巷","ALLEY":" ","HOUSE_NO":"１７號","E_COORD97":157146.67999999999,"N_COORD97":2550903.8999999999,"ADDRESS":"城西街三段５１０巷１７號","OBJECTID":228766},"geometry":{"x":157146.6799999997,"y":2550903.9000000004}},{"attributes":{"ID":228771,"DIS_CODE":0,"TOWNNAME":"安南區","LI":"城西里","LIN":"3鄰","STREET":"城西街","SECT":"三段","MAREA":" ","LANE":"５１０巷","ALLEY":" ","HOUSE_NO":"４３號","E_COORD97":157156.04000000001,"N_COORD97":2550985.5600000001,"ADDRESS":"城西街三段５１０巷４３號","OBJECTID":228767},"geometry":{"x":157156.04000000097,"y":2550985.5600000024}},{"attributes":{"ID":228772,"DIS_CODE":0,"TOWNNAME":"安南區","LI":"城西里","LIN":"3鄰","STREET":"城西街","SECT":"三段","MAREA":" ","LANE":"５１０巷","ALLEY":" ","HOUSE_NO":"４５號","E_COORD97":157164.94,"N_COORD97":2550981.1200000001,"ADDRESS":"城西街三段５１０巷４５號","OBJECTID":228768},"geometry":{"x":157164.94000000227,"y":2550981.120000001}},{"attributes":{"ID":228773,"DIS_CODE":0,"TOWNNAME":"安南區","LI":"新順里","LIN":"3鄰","STREET":"安和路","SECT":"二段","MAREA":" ","LANE":"３１８巷","ALLEY":" ","HOUSE_NO":"２５號","E_COORD97":169802.60999999999,"N_COORD97":2549318.0899999999,"ADDRESS":"安和路二段３１８巷２５號","OBJECTID":228769},"geometry":{"x":169802.61000000034,"y":2549318.0899999999}},{"attributes":{"ID":228774,"DIS_CODE":0,"TOWNNAME":"安南區","LI":"南興里","LIN":"3鄰","STREET":"安興街","SECT":" ","MAREA":" ","LANE":"３６５巷","ALLEY":" ","HOUSE_NO":"１號","E_COORD97":163774.10999999999,"N_COORD97":2552303.0299999998,"ADDRESS":"安興街３６５巷１號","OBJECTID":228770},"geometry":{"x":163774.11000000034,"y":2552303.0300000012}},{"attributes":{"ID":228775,"DIS_CODE":0,"TOWNNAME":"安南區","LI":"南興里","LIN":"3鄰","STREET":"安興街","SECT":" ","MAREA":" ","LANE":"３６５巷","ALLEY":" ","HOUSE_NO":"３號","E_COORD97":163776.75,"N_COORD97":2552294.6200000001,"ADDRESS":"安興街３６５巷３號","OBJECTID":228771},"geometry":{"x":163776.75,"y":2552294.6200000029}},{"attributes":{"ID":228776,"DIS_CODE":0,"TOWNNAME":"安南區","LI":"南興里","LIN":"3鄰","STREET":"安興街","SECT":" ","MAREA":" ","LANE":"３６５巷","ALLEY":" ","HOUSE_NO":"２號","E_COORD97":163753.06,"N_COORD97":2552309.3399999999,"ADDRESS":"安興街３６５巷２號","OBJECTID":228772},"geometry":{"x":163753.06000000052,"y":2552309.3400000017}},{"attributes":{"ID":228777,"DIS_CODE":0,"TOWNNAME":"安南區","LI":"南興里","LIN":"3鄰","STREET":"安興街","SECT":" ","MAREA":" ","LANE":"３６５巷","ALLEY":" ","HOUSE_NO":"６號","E_COORD97":163755.17000000001,"N_COORD97":2552302.5,"ADDRESS":"安興街３６５巷６號","OBJECTID":228773},"geometry":{"x":163755.16999999993,"y":2552302.5}},{"attributes":{"ID":228778,"DIS_CODE":0,"TOWNNAME":"安南區","LI":"南興里","LIN":"3鄰","STREET":"安興街","SECT":" ","MAREA":" ","LANE":"３６５巷","ALLEY":" ","HOUSE_NO":"８號","E_COORD97":163758.85000000001,"N_COORD97":2552297.25,"ADDRESS":"安興街３６５巷８號","OBJECTID":228774},"geometry":{"x":163758.8499999987,"y":2552297.25}},{"attributes":{"ID":228779,"DIS_CODE":0,"TOWNNAME":"安南區","LI":"南興里","LIN":"3鄰","STREET":"安興街","SECT":" ","MAREA":" ","LANE":"３６５巷","ALLEY":" ","HOUSE_NO":"１０號","E_COORD97":163760.42999999999,"N_COORD97":2552288.8399999999,"ADDRESS":"安興街３６５巷１０號","OBJECTID":228775},"geometry":{"x":163760.43000000063,"y":2552288.8400000017}},{"attributes":{"ID":228780,"DIS_CODE":0,"TOWNNAME":"中西區","LI":"協和里","LIN":"3鄰","STREET":"文賢路","SECT":" ","MAREA":" ","LANE":"６７巷","ALLEY":" ","HOUSE_NO":"１１號","E_COORD97":167376.26999999999,"N_COORD97":2544564.3999999999,"ADDRESS":"文賢路６７巷１１號","OBJECTID":228776},"geometry":{"x":167376.26999999955,"y":2544564.4000000041}},{"attributes":{"ID":228781,"DIS_CODE":0,"TOWNNAME":"中西區","LI":"協和里","LIN":"3鄰","STREET":"文賢路","SECT":" ","MAREA":" ","LANE":"６７巷","ALLEY":" ","HOUSE_NO":"１號","E_COORD97":167375.22,"N_COORD97":2544584.2799999998,"ADDRESS":"文賢路６７巷１號","OBJECTID":228777},"geometry":{"x":167375.21999999974,"y":2544584.2799999975}},{"attributes":{"ID":228782,"DIS_CODE":0,"TOWNNAME":"中西區","LI":"協和里","LIN":"3鄰","STREET":"文賢路","SECT":" ","MAREA":" ","LANE":"６７巷","ALLEY":" ","HOUSE_NO":"３號","E_COORD97":167376.97,"N_COORD97":2544577.4199999999,"ADDRESS":"文賢路６７巷３號","OBJECTID":228778},"geometry":{"x":167376.96999999974,"y":2544577.4200000037}},{"attributes":{"ID":228783,"DIS_CODE":0,"TOWNNAME":"中西區","LI":"協和里","LIN":"3鄰","STREET":"文賢路","SECT":" ","MAREA":" ","LANE":"６７巷","ALLEY":" ","HOUSE_NO":"５號","E_COORD97":167361.84,"N_COORD97":2544573.7000000002,"ADDRESS":"文賢路６７巷５號","OBJECTID":228779},"geometry":{"x":167361.84000000078,"y":2544573.6999999993}},{"attributes":{"ID":228784,"DIS_CODE":0,"TOWNNAME":"中西區","LI":"協和里","LIN":"3鄰","STREET":"文賢路","SECT":" ","MAREA":" ","LANE":"６７巷","ALLEY":" ","HOUSE_NO":"７號","E_COORD97":167363.81,"N_COORD97":2544571.6000000001,"ADDRESS":"文賢路６７巷７號","OBJECTID":228780},"geometry":{"x":167363.81000000052,"y":2544571.5999999996}},{"attributes":{"ID":228785,"DIS_CODE":0,"TOWNNAME":"中西區","LI":"協和里","LIN":"3鄰","STREET":"文賢路","SECT":" ","MAREA":" ","LANE":"６７巷","ALLEY":" ","HOUSE_NO":"９號","E_COORD97":167367.73000000001,"N_COORD97":2544568.48,"ADDRESS":"文賢路６７巷９號","OBJECTID":228781},"geometry":{"x":167367.73000000045,"y":2544568.4800000023}},{"attributes":{"ID":228786,"DIS_CODE":0,"TOWNNAME":"中西區","LI":"協和里","LIN":"3鄰","STREET":"文賢路","SECT":" ","MAREA":" ","LANE":"６７巷","ALLEY":" ","HOUSE_NO":"１３號之１","E_COORD97":167349.01999999999,"N_COORD97":2544580.6899999999,"ADDRESS":"文賢路６７巷１３號之１","OBJECTID":228782},"geometry":{"x":167349.01999999955,"y":2544580.6899999995}},{"attributes":{"ID":228787,"DIS_CODE":0,"TOWNNAME":"北區","LI":"成德里","LIN":"34鄰","STREET":"和緯路","SECT":"二段","MAREA":" ","LANE":" ","ALLEY":" ","HOUSE_NO":"３４０號","E_COORD97":168478.82999999999,"N_COORD97":2545898.0699999998,"ADDRESS":"和緯路二段３４０號","OBJECTID":228783},"geometry":{"x":168478.83000000007,"y":2545898.0700000003}},{"attributes":{"ID":228788,"DIS_CODE":0,"TOWNNAME":"北區","LI":"成德里","LIN":"34鄰","STREET":"海安路","SECT":"三段","MAREA":" ","LANE":" ","ALLEY":" ","HOUSE_NO":"６７８號","E_COORD97":168065.66,"N_COORD97":2546012.9100000001,"ADDRESS":"海安路三段６７８號","OBJECTID":228784},"geometry":{"x":168065.66000000108,"y":2546012.910000002}},{"attributes":{"ID":228789,"DIS_CODE":0,"TOWNNAME":"歸仁區","LI":"後市里","LIN":"34鄰","STREET":"國光街","SECT":" ","MAREA":" ","LANE":" ","ALLEY":" ","HOUSE_NO":"１２６號","E_COORD97":177316.54000000001,"N_COORD97":2540973.7400000002,"ADDRESS":"國光街１２６號","OBJECTID":228785},"geometry":{"x":177316.54000000097,"y":2540973.7400000002}},{"attributes":{"ID":228790,"DIS_CODE":0,"TOWNNAME":"歸仁區","LI":"南興里","LIN":"34鄰","STREET":"文化九街","SECT":" ","MAREA":" ","LANE":" ","ALLEY":" ","HOUSE_NO":"３２號","E_COORD97":176342.42000000001,"N_COORD97":2541102.2599999998,"ADDRESS":"文化九街３２號","OBJECTID":228786},"geometry":{"x":176342.42000000086,"y":2541102.2599999998}},{"attributes":{"ID":228791,"DIS_CODE":0,"TOWNNAME":"歸仁區","LI":"南保里","LIN":"34鄰","STREET":"民權八街","SECT":" ","MAREA":" ","LANE":" ","ALLEY":" ","HOUSE_NO":"１１８號","E_COORD97":176739.45999999999,"N_COORD97":2541096.25,"ADDRESS":"民權八街１１８號","OBJECTID":228787},"geometry":{"x":176739.46000000089,"y":2541096.25}},{"attributes":{"ID":228792,"DIS_CODE":0,"TOWNNAME":"歸仁區","LI":"南保里","LIN":"34鄰","STREET":"民權八街","SECT":" ","MAREA":" ","LANE":" ","ALLEY":" ","HOUSE_NO":"１０１號","E_COORD97":176722.95999999999,"N_COORD97":2541072.25,"ADDRESS":"民權八街１０１號","OBJECTID":228788},"geometry":{"x":176722.95999999996,"y":2541072.25}},{"attributes":{"ID":228793,"DIS_CODE":0,"TOWNNAME":"山上區","LI":"明和里","LIN":"23鄰","STREET":" ","SECT":" ","MAREA":"北勢洲","LANE":" ","ALLEY":" ","HOUSE_NO":"７８號","E_COORD97":181796.73999999999,"N_COORD97":2556454.29,"ADDRESS":"北勢洲７８號","OBJECTID":228789},"geometry":{"x":181796.74000000022,"y":2556454.290000001}},{"attributes":{"ID":228794,"DIS_CODE":0,"TOWNNAME":"南區","LI":"郡南里","LIN":"23鄰","STREET":"德興路","SECT":" ","MAREA":" ","LANE":"１３９巷","ALLEY":" ","HOUSE_NO":"１７號","E_COORD97":167269.85000000001,"N_COORD97":2540466.29,"ADDRESS":"德興路１３９巷１７號","OBJECTID":228790},"geometry":{"x":167269.85000000056,"y":2540466.290000001}},{"attributes":{"ID":228795,"DIS_CODE":0,"TOWNNAME":"南區","LI":"郡南里","LIN":"23鄰","STREET":"德興路","SECT":" ","MAREA":" ","LANE":"１３９巷","ALLEY":" ","HOUSE_NO":"１９號","E_COORD97":167274.85999999999,"N_COORD97":2540466.6200000001,"ADDRESS":"德興路１３９巷１９號","OBJECTID":228791},"geometry":{"x":167274.86000000034,"y":2540466.620000001}},{"attributes":{"ID":228796,"DIS_CODE":0,"TOWNNAME":"南區","LI":"郡南里","LIN":"23鄰","STREET":"德興路","SECT":" ","MAREA":" ","LANE":"１３９巷","ALLEY":" ","HOUSE_NO":"２１號","E_COORD97":167279.20000000001,"N_COORD97":2540465.6200000001,"ADDRESS":"德興路１３９巷２１號","OBJECTID":228792},"geometry":{"x":167279.20000000019,"y":2540465.6200000029}},{"attributes":{"ID":228797,"DIS_CODE":0,"TOWNNAME":"南區","LI":"國宅里","LIN":"23鄰","STREET":"新建路","SECT":" ","MAREA":" ","LANE":"３巷","ALLEY":" ","HOUSE_NO":"１０號","E_COORD97":166565.44,"N_COORD97":2541896.3599999999,"ADDRESS":"新建路３巷１０號","OBJECTID":228793},"geometry":{"x":166565.44000000134,"y":2541896.3600000013}},{"attributes":{"ID":228798,"DIS_CODE":0,"TOWNNAME":"南區","LI":"國宅里","LIN":"23鄰","STREET":"新建路","SECT":" ","MAREA":" ","LANE":"３巷","ALLEY":" ","HOUSE_NO":"１２號","E_COORD97":166574.84,"N_COORD97":2541895.6800000002,"ADDRESS":"新建路３巷１２號","OBJECTID":228794},"geometry":{"x":166574.83999999985,"y":2541895.6799999997}},{"attributes":{"ID":228799,"DIS_CODE":0,"TOWNNAME":"南區","LI":"國宅里","LIN":"23鄰","STREET":"新建路","SECT":" ","MAREA":" ","LANE":"３巷","ALLEY":" ","HOUSE_NO":"１４號","E_COORD97":166579.42000000001,"N_COORD97":2541894.9900000002,"ADDRESS":"新建路３巷１４號","OBJECTID":228795},"geometry":{"x":166579.41999999993,"y":2541894.9900000002}},{"attributes":{"ID":228800,"DIS_CODE":0,"TOWNNAME":"南區","LI":"國宅里","LIN":"23鄰","STREET":"新建路","SECT":" ","MAREA":" ","LANE":"３巷","ALLEY":" ","HOUSE_NO":"１６號","E_COORD97":166587.89999999999,"N_COORD97":2541894.5299999998,"ADDRESS":"新建路３巷１６號","OBJECTID":228796},"geometry":{"x":166587.90000000037,"y":2541894.5300000012}},{"attributes":{"ID":228801,"DIS_CODE":0,"TOWNNAME":"南區","LI":"國宅里","LIN":"23鄰","STREET":"新建路","SECT":" ","MAREA":" ","LANE":"３巷","ALLEY":" ","HOUSE_NO":"１８號","E_COORD97":166593.85000000001,"N_COORD97":2541894.2999999998,"ADDRESS":"新建路３巷１８號","OBJECTID":228797},"geometry":{"x":166593.85000000056,"y":2541894.3000000026}},{"attributes":{"ID":228802,"DIS_CODE":0,"TOWNNAME":"南區","LI":"國宅里","LIN":"23鄰","STREET":"新建路","SECT":" ","MAREA":" ","LANE":"３巷","ALLEY":" ","HOUSE_NO":"２０號","E_COORD97":166602.79000000001,"N_COORD97":2541893.8500000001,"ADDRESS":"新建路３巷２０號","OBJECTID":228798},"geometry":{"x":166602.79000000097,"y":2541893.8500000015}},{"attributes":{"ID":228803,"DIS_CODE":0,"TOWNNAME":"南區","LI":"國宅里","LIN":"23鄰","STREET":"新建路","SECT":" ","MAREA":" ","LANE":"３巷","ALLEY":" ","HOUSE_NO":"２２號","E_COORD97":166608.06,"N_COORD97":2541893.3900000001,"ADDRESS":"新建路３巷２２號","OBJECTID":228799},"geometry":{"x":166608.05999999959,"y":2541893.3900000025}},{"attributes":{"ID":228804,"DIS_CODE":0,"TOWNNAME":"永康區","LI":"埔園里","LIN":"23鄰","STREET":"自強路","SECT":" ","MAREA":" ","LANE":"３７９巷","ALLEY":" ","HOUSE_NO":"５１號","E_COORD97":173583.07999999999,"N_COORD97":2548008.5,"ADDRESS":"自強路３７９巷５１號","OBJECTID":228800},"geometry":{"x":173583.07999999914,"y":2548008.5000000019}}]}