{"displayFieldName":"TOWNNAME","fieldAliases":{"ID":"ID","DIS_CODE":"DIS_CODE","TOWNNAME":"TOWNNAME","LI":"LI","LIN":"LIN","STREET":"STREET","SECT":"SECT","MAREA":"MAREA","LANE":"LANE","ALLEY":"ALLEY","HOUSE_NO":"HOUSE_NO","E_COORD97":"E_COORD97","N_COORD97":"N_COORD97","ADDRESS":"ADDRESS","OBJECTID":"OBJECTID"},"geometryType":"esriGeometryPoint","spatialReference":{"wkid":102443,"latestWkid":3826},"fields":[{"name":"ID","type":"esriFieldTypeDouble","alias":"ID"},{"name":"DIS_CODE","type":"esriFieldTypeInteger","alias":"DIS_CODE"},{"name":"TOWNNAME","type":"esriFieldTypeString","alias":"TOWNNAME","length":8},{"name":"LI","type":"esriFieldTypeString","alias":"LI","length":8},{"name":"LIN","type":"esriFieldTypeString","alias":"LIN","length":12},{"name":"STREET","type":"esriFieldTypeString","alias":"STREET","length":20},{"name":"SECT","type":"esriFieldTypeString","alias":"SECT","length":8},{"name":"MAREA","type":"esriFieldTypeString","alias":"MAREA","length":12},{"name":"LANE","type":"esriFieldTypeString","alias":"LANE","length":10},{"name":"ALLEY","type":"esriFieldTypeString","alias":"ALLEY","length":10},{"name":"HOUSE_NO","type":"esriFieldTypeString","alias":"HOUSE_NO","length":20},{"name":"E_COORD97","type":"esriFieldTypeDouble","alias":"E_COORD97"},{"name":"N_COORD97","type":"esriFieldTypeDouble","alias":"N_COORD97"},{"name":"ADDRESS","type":"esriFieldTypeString","alias":"ADDRESS","length":50},{"name":"OBJECTID","type":"esriFieldTypeOID","alias":"OBJECTID"}],"features":[{"attributes":{"ID":372211,"DIS_CODE":0,"TOWNNAME":"安南區","LI":"溪心里","LIN":"10鄰","STREET":"仁安八街","SECT":" ","MAREA":" ","LANE":"２８巷","ALLEY":" ","HOUSE_NO":"３號","E_COORD97":166219.91,"N_COORD97":2549846.5499999998,"ADDRESS":"仁安八街２８巷３號","OBJECTID":372201},"geometry":{"x":166219.91000000015,"y":2549846.5500000026}},{"attributes":{"ID":372212,"DIS_CODE":0,"TOWNNAME":"安南區","LI":"溪心里","LIN":"10鄰","STREET":"仁安八街","SECT":" ","MAREA":" ","LANE":"２８巷","ALLEY":" ","HOUSE_NO":"５號","E_COORD97":166207.79000000001,"N_COORD97":2549828.7200000002,"ADDRESS":"仁安八街２８巷５號","OBJECTID":372202},"geometry":{"x":166207.7900000019,"y":2549828.7200000025}},{"attributes":{"ID":372213,"DIS_CODE":0,"TOWNNAME":"安南區","LI":"溪心里","LIN":"10鄰","STREET":"仁安八街","SECT":" ","MAREA":" ","LANE":"２８巷","ALLEY":" ","HOUSE_NO":"６號","E_COORD97":166222.97,"N_COORD97":2549842.98,"ADDRESS":"仁安八街２８巷６號","OBJECTID":372203},"geometry":{"x":166222.96999999881,"y":2549842.9800000042}},{"attributes":{"ID":372214,"DIS_CODE":0,"TOWNNAME":"安南區","LI":"溪心里","LIN":"10鄰","STREET":"仁安八街","SECT":" ","MAREA":" ","LANE":"２８巷","ALLEY":" ","HOUSE_NO":"７號","E_COORD97":166211.06,"N_COORD97":2549826.48,"ADDRESS":"仁安八街２８巷７號","OBJECTID":372204},"geometry":{"x":166211.06000000052,"y":2549826.4800000023}},{"attributes":{"ID":372215,"DIS_CODE":0,"TOWNNAME":"安南區","LI":"溪心里","LIN":"10鄰","STREET":"仁安八街","SECT":" ","MAREA":" ","LANE":"２８巷","ALLEY":" ","HOUSE_NO":"８號","E_COORD97":166225.85000000001,"N_COORD97":2549841,"ADDRESS":"仁安八街２８巷８號","OBJECTID":372205},"geometry":{"x":166225.85000000056,"y":2549841}},{"attributes":{"ID":372216,"DIS_CODE":0,"TOWNNAME":"安南區","LI":"溪心里","LIN":"10鄰","STREET":"仁安八街","SECT":" ","MAREA":" ","LANE":"２８巷","ALLEY":" ","HOUSE_NO":"９號","E_COORD97":166214.70999999999,"N_COORD97":2549824.23,"ADDRESS":"仁安八街２８巷９號","OBJECTID":372206},"geometry":{"x":166214.70999999996,"y":2549824.2300000042}},{"attributes":{"ID":372217,"DIS_CODE":0,"TOWNNAME":"安南區","LI":"溪心里","LIN":"10鄰","STREET":"仁安八街","SECT":" ","MAREA":" ","LANE":"２８巷","ALLEY":" ","HOUSE_NO":"１０號","E_COORD97":166229.29999999999,"N_COORD97":2549838.5099999998,"ADDRESS":"仁安八街２８巷１０號","OBJECTID":372207},"geometry":{"x":166229.29999999888,"y":2549838.5100000035}},{"attributes":{"ID":372218,"DIS_CODE":0,"TOWNNAME":"安南區","LI":"溪心里","LIN":"10鄰","STREET":"仁安八街","SECT":" ","MAREA":" ","LANE":"２８巷","ALLEY":" ","HOUSE_NO":"１１號","E_COORD97":166217.70000000001,"N_COORD97":2549822.1800000002,"ADDRESS":"仁安八街２８巷１１號","OBJECTID":372208},"geometry":{"x":166217.70000000112,"y":2549822.1799999997}},{"attributes":{"ID":372219,"DIS_CODE":0,"TOWNNAME":"安南區","LI":"溪心里","LIN":"10鄰","STREET":"仁安八街","SECT":" ","MAREA":" ","LANE":"２８巷","ALLEY":" ","HOUSE_NO":"１２號","E_COORD97":166232.94,"N_COORD97":2549836.0800000001,"ADDRESS":"仁安八街２８巷１２號","OBJECTID":372209},"geometry":{"x":166232.94000000134,"y":2549836.0800000019}},{"attributes":{"ID":372220,"DIS_CODE":0,"TOWNNAME":"安南區","LI":"溪心里","LIN":"10鄰","STREET":"仁安八街","SECT":" ","MAREA":" ","LANE":"２８巷","ALLEY":" ","HOUSE_NO":"１６號","E_COORD97":166221.06,"N_COORD97":2549819.6600000001,"ADDRESS":"仁安八街２８巷１６號","OBJECTID":372210},"geometry":{"x":166221.06000000052,"y":2549819.6600000001}},{"attributes":{"ID":372221,"DIS_CODE":0,"TOWNNAME":"中西區","LI":"西湖里","LIN":"10鄰","STREET":"湖美一街","SECT":" ","MAREA":" ","LANE":"２０巷","ALLEY":" ","HOUSE_NO":"１５號","E_COORD97":166129.73000000001,"N_COORD97":2544516.9199999999,"ADDRESS":"湖美一街２０巷１５號","OBJECTID":372211},"geometry":{"x":166129.73000000045,"y":2544516.9200000018}},{"attributes":{"ID":372222,"DIS_CODE":0,"TOWNNAME":"中西區","LI":"西湖里","LIN":"10鄰","STREET":"湖美一街","SECT":" ","MAREA":" ","LANE":"２０巷","ALLEY":" ","HOUSE_NO":"１６號","E_COORD97":166130.94,"N_COORD97":2544497,"ADDRESS":"湖美一街２０巷１６號","OBJECTID":372212},"geometry":{"x":166130.94000000134,"y":2544497.0000000019}},{"attributes":{"ID":372223,"DIS_CODE":0,"TOWNNAME":"中西區","LI":"西湖里","LIN":"10鄰","STREET":"湖美一街","SECT":" ","MAREA":" ","LANE":"２０巷","ALLEY":" ","HOUSE_NO":"１號","E_COORD97":166076.19,"N_COORD97":2544514.25,"ADDRESS":"湖美一街２０巷１號","OBJECTID":372213},"geometry":{"x":166076.19000000041,"y":2544514.2500000037}},{"attributes":{"ID":372224,"DIS_CODE":0,"TOWNNAME":"中西區","LI":"西湖里","LIN":"10鄰","STREET":"湖美一街","SECT":" ","MAREA":" ","LANE":"２０巷","ALLEY":" ","HOUSE_NO":"２號","E_COORD97":166079.10999999999,"N_COORD97":2544495.0499999998,"ADDRESS":"湖美一街２０巷２號","OBJECTID":372214},"geometry":{"x":166079.11000000127,"y":2544495.0500000007}},{"attributes":{"ID":372225,"DIS_CODE":0,"TOWNNAME":"中西區","LI":"西湖里","LIN":"10鄰","STREET":"湖美一街","SECT":" ","MAREA":" ","LANE":"２０巷","ALLEY":" ","HOUSE_NO":"３號","E_COORD97":166082.28,"N_COORD97":2544514.4900000002,"ADDRESS":"湖美一街２０巷３號","OBJECTID":372215},"geometry":{"x":166082.28000000026,"y":2544514.4900000002}},{"attributes":{"ID":372226,"DIS_CODE":0,"TOWNNAME":"中西區","LI":"西湖里","LIN":"10鄰","STREET":"湖美一街","SECT":" ","MAREA":" ","LANE":"２０巷","ALLEY":" ","HOUSE_NO":"５號","E_COORD97":166091.04000000001,"N_COORD97":2544514.98,"ADDRESS":"湖美一街２０巷５號","OBJECTID":372216},"geometry":{"x":166091.04000000097,"y":2544514.9800000004}},{"attributes":{"ID":372227,"DIS_CODE":0,"TOWNNAME":"中西區","LI":"西湖里","LIN":"10鄰","STREET":"湖美一街","SECT":" ","MAREA":" ","LANE":"２０巷","ALLEY":" ","HOUSE_NO":"６號","E_COORD97":166091.28,"N_COORD97":2544496.75,"ADDRESS":"湖美一街２０巷６號","OBJECTID":372217},"geometry":{"x":166091.28000000119,"y":2544496.75}},{"attributes":{"ID":372228,"DIS_CODE":0,"TOWNNAME":"中西區","LI":"西湖里","LIN":"10鄰","STREET":"湖美一街","SECT":" ","MAREA":" ","LANE":"２０巷","ALLEY":" ","HOUSE_NO":"７號","E_COORD97":166098.82000000001,"N_COORD97":2544514.7400000002,"ADDRESS":"湖美一街２０巷７號","OBJECTID":372218},"geometry":{"x":166098.8200000003,"y":2544514.7400000021}},{"attributes":{"ID":372229,"DIS_CODE":0,"TOWNNAME":"中西區","LI":"西湖里","LIN":"10鄰","STREET":"湖美一街","SECT":" ","MAREA":" ","LANE":"２０巷","ALLEY":" ","HOUSE_NO":"８號","E_COORD97":166098.57999999999,"N_COORD97":2544496.5099999998,"ADDRESS":"湖美一街２０巷８號","OBJECTID":372219},"geometry":{"x":166098.58000000007,"y":2544496.5100000016}},{"attributes":{"ID":372230,"DIS_CODE":0,"TOWNNAME":"中西區","LI":"西湖里","LIN":"10鄰","STREET":"湖美一街","SECT":" ","MAREA":" ","LANE":"２０巷","ALLEY":" ","HOUSE_NO":"９號","E_COORD97":166106.37,"N_COORD97":2544515.71,"ADDRESS":"湖美一街２０巷９號","OBJECTID":372220},"geometry":{"x":166106.37000000011,"y":2544515.7100000028}},{"attributes":{"ID":372231,"DIS_CODE":0,"TOWNNAME":"中西區","LI":"西湖里","LIN":"10鄰","STREET":"湖美一街","SECT":" ","MAREA":" ","LANE":"２７巷","ALLEY":" ","HOUSE_NO":"５號","E_COORD97":166044.07000000001,"N_COORD97":2544493.8100000001,"ADDRESS":"湖美一街２７巷５號","OBJECTID":372221},"geometry":{"x":166044.07000000123,"y":2544493.8099999987}},{"attributes":{"ID":372232,"DIS_CODE":0,"TOWNNAME":"中西區","LI":"西湖里","LIN":"10鄰","STREET":"湖美一街","SECT":" ","MAREA":" ","LANE":"２７巷","ALLEY":" ","HOUSE_NO":"６號","E_COORD97":166042.13,"N_COORD97":2544513.5,"ADDRESS":"湖美一街２７巷６號","OBJECTID":372222},"geometry":{"x":166042.12999999989,"y":2544513.5000000019}},{"attributes":{"ID":372233,"DIS_CODE":0,"TOWNNAME":"中西區","LI":"西湖里","LIN":"10鄰","STREET":"湖美一街","SECT":" ","MAREA":" ","LANE":"２７巷","ALLEY":" ","HOUSE_NO":"７號","E_COORD97":166036.29000000001,"N_COORD97":2544494.2999999998,"ADDRESS":"湖美一街２７巷７號","OBJECTID":372223},"geometry":{"x":166036.29000000004,"y":2544494.3000000045}},{"attributes":{"ID":372234,"DIS_CODE":0,"TOWNNAME":"中西區","LI":"西湖里","LIN":"10鄰","STREET":"湖美一街","SECT":" ","MAREA":" ","LANE":"２７巷","ALLEY":" ","HOUSE_NO":"８號","E_COORD97":166035.79999999999,"N_COORD97":2544513.0099999998,"ADDRESS":"湖美一街２７巷８號","OBJECTID":372224},"geometry":{"x":166035.79999999981,"y":2544513.0100000016}},{"attributes":{"ID":372235,"DIS_CODE":0,"TOWNNAME":"中西區","LI":"西湖里","LIN":"10鄰","STREET":"湖美二街","SECT":" ","MAREA":" ","LANE":"２０巷","ALLEY":" ","HOUSE_NO":"１０號","E_COORD97":166170.12,"N_COORD97":2544498.7000000002,"ADDRESS":"湖美二街２０巷１０號","OBJECTID":372225},"geometry":{"x":166170.12000000104,"y":2544498.6999999993}},{"attributes":{"ID":372236,"DIS_CODE":0,"TOWNNAME":"中西區","LI":"西湖里","LIN":"10鄰","STREET":"湖美二街","SECT":" ","MAREA":" ","LANE":"２０巷","ALLEY":" ","HOUSE_NO":"１號","E_COORD97":166146.76000000001,"N_COORD97":2544518.3799999999,"ADDRESS":"湖美二街２０巷１號","OBJECTID":372226},"geometry":{"x":166146.76000000071,"y":2544518.379999999}},{"attributes":{"ID":372237,"DIS_CODE":0,"TOWNNAME":"中西區","LI":"西湖里","LIN":"10鄰","STREET":"湖美二街","SECT":" ","MAREA":" ","LANE":"２０巷","ALLEY":" ","HOUSE_NO":"２號","E_COORD97":166148.22,"N_COORD97":2544497.9700000002,"ADDRESS":"湖美二街２０巷２號","OBJECTID":372227},"geometry":{"x":166148.21999999974,"y":2544497.9700000025}},{"attributes":{"ID":372238,"DIS_CODE":0,"TOWNNAME":"中西區","LI":"西湖里","LIN":"10鄰","STREET":"湖美二街","SECT":" ","MAREA":" ","LANE":"２０巷","ALLEY":" ","HOUSE_NO":"３號","E_COORD97":166154.79000000001,"N_COORD97":2544517.4100000001,"ADDRESS":"湖美二街２０巷３號","OBJECTID":372228},"geometry":{"x":166154.79000000004,"y":2544517.410000002}},{"attributes":{"ID":372239,"DIS_CODE":0,"TOWNNAME":"中西區","LI":"西湖里","LIN":"10鄰","STREET":"湖美二街","SECT":" ","MAREA":" ","LANE":"２０巷","ALLEY":" ","HOUSE_NO":"４號","E_COORD97":166153.32999999999,"N_COORD97":2544498.21,"ADDRESS":"湖美二街２０巷４號","OBJECTID":372229},"geometry":{"x":166153.33000000101,"y":2544498.209999999}},{"attributes":{"ID":372240,"DIS_CODE":0,"TOWNNAME":"中西區","LI":"西湖里","LIN":"10鄰","STREET":"湖美二街","SECT":" ","MAREA":" ","LANE":"２０巷","ALLEY":" ","HOUSE_NO":"５號","E_COORD97":166166.23000000001,"N_COORD97":2544516.9199999999,"ADDRESS":"湖美二街２０巷５號","OBJECTID":372230},"geometry":{"x":166166.23000000231,"y":2544516.9200000018}},{"attributes":{"ID":372241,"DIS_CODE":0,"TOWNNAME":"中西區","LI":"西湖里","LIN":"10鄰","STREET":"湖美二街","SECT":" ","MAREA":" ","LANE":"２０巷","ALLEY":" ","HOUSE_NO":"６號","E_COORD97":166158.92999999999,"N_COORD97":2544498.7000000002,"ADDRESS":"湖美二街２０巷６號","OBJECTID":372231},"geometry":{"x":166158.93000000156,"y":2544498.6999999993}},{"attributes":{"ID":372242,"DIS_CODE":0,"TOWNNAME":"中西區","LI":"西湖里","LIN":"10鄰","STREET":"湖美二街","SECT":" ","MAREA":" ","LANE":"２０巷","ALLEY":" ","HOUSE_NO":"８號","E_COORD97":166164.51999999999,"N_COORD97":2544498.21,"ADDRESS":"湖美二街２０巷８號","OBJECTID":372232},"geometry":{"x":166164.51999999955,"y":2544498.209999999}},{"attributes":{"ID":372243,"DIS_CODE":0,"TOWNNAME":"仁德區","LI":"仁義里","LIN":"10鄰","STREET":"中山路","SECT":" ","MAREA":" ","LANE":"５０９巷","ALLEY":" ","HOUSE_NO":"２４號","E_COORD97":173527.54999999999,"N_COORD97":2541225.1000000001,"ADDRESS":"中山路５０９巷２４號","OBJECTID":372233},"geometry":{"x":173527.55000000075,"y":2541225.0999999996}},{"attributes":{"ID":372244,"DIS_CODE":0,"TOWNNAME":"仁德區","LI":"仁義里","LIN":"10鄰","STREET":"仁義一街","SECT":" ","MAREA":" ","LANE":"１０２巷","ALLEY":" ","HOUSE_NO":"４號","E_COORD97":173523.20999999999,"N_COORD97":2541164.1699999999,"ADDRESS":"仁義一街１０２巷４號","OBJECTID":372234},"geometry":{"x":173523.21000000089,"y":2541164.1699999999}},{"attributes":{"ID":372245,"DIS_CODE":0,"TOWNNAME":"仁德區","LI":"仁義里","LIN":"10鄰","STREET":"仁義一街","SECT":" ","MAREA":" ","LANE":"４８巷","ALLEY":" ","HOUSE_NO":"１３號","E_COORD97":173419,"N_COORD97":2541155.52,"ADDRESS":"仁義一街４８巷１３號","OBJECTID":372235},"geometry":{"x":173419,"y":2541155.5200000033}},{"attributes":{"ID":372246,"DIS_CODE":0,"TOWNNAME":"仁德區","LI":"仁德里","LIN":"10鄰","STREET":"中正路","SECT":"二段","MAREA":" ","LANE":"１２０５巷","ALLEY":" ","HOUSE_NO":"１１號底一層之２","E_COORD97":173183.92000000001,"N_COORD97":2541196.0499999998,"ADDRESS":"中正路二段１２０５巷１１號底一層之２","OBJECTID":372236},"geometry":{"x":173183.91999999993,"y":2541196.0500000007}},{"attributes":{"ID":372247,"DIS_CODE":0,"TOWNNAME":"仁德區","LI":"土庫里","LIN":"10鄰","STREET":"土庫路","SECT":" ","MAREA":" ","LANE":"９５巷","ALLEY":" ","HOUSE_NO":"１１號","E_COORD97":174359.54000000001,"N_COORD97":2543236.75,"ADDRESS":"土庫路９５巷１１號","OBJECTID":372237},"geometry":{"x":174359.54000000004,"y":2543236.7500000019}},{"attributes":{"ID":372248,"DIS_CODE":0,"TOWNNAME":"仁德區","LI":"仁德里","LIN":"10鄰","STREET":"中正路","SECT":"二段","MAREA":" ","LANE":"１２１５巷","ALLEY":" ","HOUSE_NO":"７號","E_COORD97":173243.48999999999,"N_COORD97":2541196.27,"ADDRESS":"中正路二段１２１５巷７號","OBJECTID":372238},"geometry":{"x":173243.49000000115,"y":2541196.2699999996}},{"attributes":{"ID":372249,"DIS_CODE":0,"TOWNNAME":"仁德區","LI":"土庫里","LIN":"10鄰","STREET":"土庫路","SECT":" ","MAREA":" ","LANE":"８９巷","ALLEY":" ","HOUSE_NO":"１５號","E_COORD97":174334.25,"N_COORD97":2543246.7400000002,"ADDRESS":"土庫路８９巷１５號","OBJECTID":372239},"geometry":{"x":174334.25,"y":2543246.7400000021}},{"attributes":{"ID":372250,"DIS_CODE":0,"TOWNNAME":"仁德區","LI":"土庫里","LIN":"10鄰","STREET":"土庫路","SECT":" ","MAREA":" ","LANE":"８９巷","ALLEY":" ","HOUSE_NO":"９號","E_COORD97":174307.17999999999,"N_COORD97":2543246.4900000002,"ADDRESS":"土庫路８９巷９號","OBJECTID":372240},"geometry":{"x":174307.1799999997,"y":2543246.4900000002}},{"attributes":{"ID":372251,"DIS_CODE":0,"TOWNNAME":"仁德區","LI":"土庫里","LIN":"10鄰","STREET":"土庫路","SECT":" ","MAREA":" ","LANE":"８９巷","ALLEY":" ","HOUSE_NO":"１號","E_COORD97":174284.73000000001,"N_COORD97":2543223.75,"ADDRESS":"土庫路８９巷１號","OBJECTID":372241},"geometry":{"x":174284.73000000138,"y":2543223.7500000019}},{"attributes":{"ID":372252,"DIS_CODE":0,"TOWNNAME":"仁德區","LI":"土庫里","LIN":"10鄰","STREET":"土庫路","SECT":" ","MAREA":" ","LANE":"８９巷","ALLEY":" ","HOUSE_NO":"１９號","E_COORD97":174326.73000000001,"N_COORD97":2543261.4900000002,"ADDRESS":"土庫路８９巷１９號","OBJECTID":372242},"geometry":{"x":174326.73000000231,"y":2543261.4899999984}},{"attributes":{"ID":372253,"DIS_CODE":0,"TOWNNAME":"仁德區","LI":"土庫里","LIN":"10鄰","STREET":"土庫路","SECT":" ","MAREA":" ","LANE":"９５巷","ALLEY":" ","HOUSE_NO":"４號","E_COORD97":174312.42999999999,"N_COORD97":2543201.75,"ADDRESS":"土庫路９５巷４號","OBJECTID":372243},"geometry":{"x":174312.4299999997,"y":2543201.75}},{"attributes":{"ID":372254,"DIS_CODE":0,"TOWNNAME":"仁德區","LI":"土庫里","LIN":"10鄰","STREET":"土庫路","SECT":" ","MAREA":" ","LANE":"７９巷","ALLEY":" ","HOUSE_NO":"２號","E_COORD97":174268.29999999999,"N_COORD97":2543229.75,"ADDRESS":"土庫路７９巷２號","OBJECTID":372244},"geometry":{"x":174268.30000000075,"y":2543229.7500000019}},{"attributes":{"ID":372255,"DIS_CODE":0,"TOWNNAME":"仁德區","LI":"土庫里","LIN":"10鄰","STREET":"土庫路","SECT":" ","MAREA":" ","LANE":"９５巷","ALLEY":" ","HOUSE_NO":"３號","E_COORD97":174296.92999999999,"N_COORD97":2543216.25,"ADDRESS":"土庫路９５巷３號","OBJECTID":372245},"geometry":{"x":174296.9299999997,"y":2543216.2500000019}},{"attributes":{"ID":372256,"DIS_CODE":0,"TOWNNAME":"仁德區","LI":"土庫里","LIN":"10鄰","STREET":"土庫路","SECT":" ","MAREA":" ","LANE":"９５巷","ALLEY":" ","HOUSE_NO":"６號","E_COORD97":174335.95000000001,"N_COORD97":2543221,"ADDRESS":"土庫路９５巷６號","OBJECTID":372246},"geometry":{"x":174335.95000000112,"y":2543221.0000000037}},{"attributes":{"ID":372257,"DIS_CODE":0,"TOWNNAME":"仁德區","LI":"土庫里","LIN":"10鄰","STREET":"土庫路","SECT":" ","MAREA":" ","LANE":"７９巷","ALLEY":" ","HOUSE_NO":"６號","E_COORD97":174279.98000000001,"N_COORD97":2543236.25,"ADDRESS":"土庫路７９巷６號","OBJECTID":372247},"geometry":{"x":174279.98000000138,"y":2543236.2500000037}},{"attributes":{"ID":372258,"DIS_CODE":0,"TOWNNAME":"仁德區","LI":"土庫里","LIN":"10鄰","STREET":"土庫路","SECT":" ","MAREA":" ","LANE":"８９巷","ALLEY":" ","HOUSE_NO":"１１號","E_COORD97":174305.59,"N_COORD97":2543250.7400000002,"ADDRESS":"土庫路８９巷１１號","OBJECTID":372248},"geometry":{"x":174305.59000000078,"y":2543250.7400000021}},{"attributes":{"ID":372259,"DIS_CODE":0,"TOWNNAME":"仁德區","LI":"保安里","LIN":"10鄰","STREET":"文賢二街","SECT":" ","MAREA":" ","LANE":"８巷","ALLEY":" ","HOUSE_NO":"３號","E_COORD97":171664.44,"N_COORD97":2536044.0699999998,"ADDRESS":"文賢二街８巷３號","OBJECTID":372249},"geometry":{"x":171664.44000000134,"y":2536044.0700000022}},{"attributes":{"ID":372260,"DIS_CODE":0,"TOWNNAME":"仁德區","LI":"保安里","LIN":"10鄰","STREET":"中正路","SECT":"一段","MAREA":" ","LANE":"２５９巷","ALLEY":" ","HOUSE_NO":"４號","E_COORD97":171815.26000000001,"N_COORD97":2536020.27,"ADDRESS":"中正路一段２５９巷４號","OBJECTID":372250},"geometry":{"x":171815.26000000164,"y":2536020.2699999996}},{"attributes":{"ID":372261,"DIS_CODE":0,"TOWNNAME":"東區","LI":"崇德里","LIN":"10鄰","STREET":"崇德八街","SECT":" ","MAREA":" ","LANE":"４６巷","ALLEY":" ","HOUSE_NO":"２號","E_COORD97":170909.85999999999,"N_COORD97":2541613.1299999999,"ADDRESS":"崇德八街４６巷２號","OBJECTID":372251},"geometry":{"x":170909.8599999994,"y":2541613.1300000008}},{"attributes":{"ID":372262,"DIS_CODE":0,"TOWNNAME":"安南區","LI":"海南里","LIN":"10鄰","STREET":"府安路","SECT":"七段","MAREA":" ","LANE":"１９巷","ALLEY":" ","HOUSE_NO":"１２號","E_COORD97":166062.14999999999,"N_COORD97":2546069.5499999998,"ADDRESS":"府安路七段１９巷１２號","OBJECTID":372252},"geometry":{"x":166062.1500000013,"y":2546069.5500000026}},{"attributes":{"ID":372263,"DIS_CODE":0,"TOWNNAME":"善化區","LI":"坐駕里","LIN":"10鄰","STREET":"自立路","SECT":" ","MAREA":" ","LANE":"１１１巷","ALLEY":" ","HOUSE_NO":"１７號","E_COORD97":177948.60000000001,"N_COORD97":2558575.4900000002,"ADDRESS":"自立路１１１巷１７號","OBJECTID":372253},"geometry":{"x":177948.59999999963,"y":2558575.4900000002}},{"attributes":{"ID":372264,"DIS_CODE":0,"TOWNNAME":"善化區","LI":"坐駕里","LIN":"10鄰","STREET":"自立路","SECT":" ","MAREA":" ","LANE":"１１１巷","ALLEY":" ","HOUSE_NO":"３號","E_COORD97":177982.76000000001,"N_COORD97":2558581,"ADDRESS":"自立路１１１巷３號","OBJECTID":372254},"geometry":{"x":177982.76000000071,"y":2558581}},{"attributes":{"ID":372265,"DIS_CODE":0,"TOWNNAME":"永康區","LI":"網寮里","LIN":"10鄰","STREET":"永勝街","SECT":" ","MAREA":" ","LANE":"１３９巷","ALLEY":" ","HOUSE_NO":"１２號","E_COORD97":173332.53,"N_COORD97":2546405.4300000002,"ADDRESS":"永勝街１３９巷１２號","OBJECTID":372255},"geometry":{"x":173332.53000000026,"y":2546405.4300000016}},{"attributes":{"ID":372266,"DIS_CODE":0,"TOWNNAME":"永康區","LI":"網寮里","LIN":"10鄰","STREET":"永勝街","SECT":" ","MAREA":" ","LANE":"１５１巷","ALLEY":" ","HOUSE_NO":"５號","E_COORD97":173321.42999999999,"N_COORD97":2546429.0099999998,"ADDRESS":"永勝街１５１巷５號","OBJECTID":372256},"geometry":{"x":173321.43000000063,"y":2546429.0100000016}},{"attributes":{"ID":372267,"DIS_CODE":0,"TOWNNAME":"善化區","LI":"坐駕里","LIN":"10鄰","STREET":"自強路","SECT":" ","MAREA":" ","LANE":"１１１巷","ALLEY":" ","HOUSE_NO":"３號","E_COORD97":177976.82999999999,"N_COORD97":2558685.25,"ADDRESS":"自強路１１１巷３號","OBJECTID":372257},"geometry":{"x":177976.83000000007,"y":2558685.25}},{"attributes":{"ID":372268,"DIS_CODE":0,"TOWNNAME":"善化區","LI":"坐駕里","LIN":"10鄰","STREET":"自強路","SECT":" ","MAREA":" ","LANE":"１１１巷","ALLEY":" ","HOUSE_NO":"６號","E_COORD97":177966.57999999999,"N_COORD97":2558667.4900000002,"ADDRESS":"自強路１１１巷６號","OBJECTID":372258},"geometry":{"x":177966.58000000007,"y":2558667.4900000039}},{"attributes":{"ID":372269,"DIS_CODE":0,"TOWNNAME":"善化區","LI":"坐駕里","LIN":"10鄰","STREET":"自強路","SECT":" ","MAREA":" ","LANE":"１２７巷","ALLEY":" ","HOUSE_NO":"１２號","E_COORD97":177922.54000000001,"N_COORD97":2558652.25,"ADDRESS":"自強路１２７巷１２號","OBJECTID":372259},"geometry":{"x":177922.54000000004,"y":2558652.2500000037}},{"attributes":{"ID":372270,"DIS_CODE":0,"TOWNNAME":"永康區","LI":"二王里","LIN":"10鄰","STREET":"二王路","SECT":" ","MAREA":" ","LANE":"１８１巷","ALLEY":" ","HOUSE_NO":"１１號","E_COORD97":173029.95999999999,"N_COORD97":2546440.7000000002,"ADDRESS":"二王路１８１巷１１號","OBJECTID":372260},"geometry":{"x":173029.96000000089,"y":2546440.7000000011}},{"attributes":{"ID":372271,"DIS_CODE":0,"TOWNNAME":"永康區","LI":"三合里","LIN":"10鄰","STREET":"南工街","SECT":" ","MAREA":" ","LANE":"２４７巷","ALLEY":" ","HOUSE_NO":"５５號","E_COORD97":171964.14000000001,"N_COORD97":2545712,"ADDRESS":"南工街２４７巷５５號","OBJECTID":372261},"geometry":{"x":171964.1400000006,"y":2545712}},{"attributes":{"ID":372272,"DIS_CODE":0,"TOWNNAME":"永康區","LI":"三合里","LIN":"10鄰","STREET":"南工街","SECT":" ","MAREA":" ","LANE":"２４７巷","ALLEY":" ","HOUSE_NO":"４３號","E_COORD97":171961.92999999999,"N_COORD97":2545751.7400000002,"ADDRESS":"南工街２４７巷４３號","OBJECTID":372262},"geometry":{"x":171961.93000000063,"y":2545751.7399999984}},{"attributes":{"ID":372273,"DIS_CODE":0,"TOWNNAME":"永康區","LI":"二王里","LIN":"10鄰","STREET":"二王路","SECT":" ","MAREA":" ","LANE":"１５５巷","ALLEY":" ","HOUSE_NO":"３６號","E_COORD97":173036.78,"N_COORD97":2546476.8300000001,"ADDRESS":"二王路１５５巷３６號","OBJECTID":372263},"geometry":{"x":173036.78000000119,"y":2546476.8300000038}},{"attributes":{"ID":372274,"DIS_CODE":0,"TOWNNAME":"永康區","LI":"三合里","LIN":"10鄰","STREET":"南工街","SECT":" ","MAREA":" ","LANE":"２４７巷","ALLEY":" ","HOUSE_NO":"６１號","E_COORD97":171966.17999999999,"N_COORD97":2545691.25,"ADDRESS":"南工街２４７巷６１號","OBJECTID":372264},"geometry":{"x":171966.1799999997,"y":2545691.2500000019}},{"attributes":{"ID":372275,"DIS_CODE":0,"TOWNNAME":"永康區","LI":"三合里","LIN":"10鄰","STREET":"南工街","SECT":" ","MAREA":" ","LANE":"２４７巷","ALLEY":" ","HOUSE_NO":"６５號","E_COORD97":171968.98000000001,"N_COORD97":2545673.9900000002,"ADDRESS":"南工街２４７巷６５號","OBJECTID":372265},"geometry":{"x":171968.98000000138,"y":2545673.9900000002}},{"attributes":{"ID":372276,"DIS_CODE":0,"TOWNNAME":"安南區","LI":"新順里","LIN":"10鄰","STREET":"安和路","SECT":"二段","MAREA":" ","LANE":"２８５巷","ALLEY":" ","HOUSE_NO":"１號","E_COORD97":169665.07000000001,"N_COORD97":2549249.8900000001,"ADDRESS":"安和路二段２８５巷１號","OBJECTID":372266},"geometry":{"x":169665.07000000123,"y":2549249.8900000006}},{"attributes":{"ID":372277,"DIS_CODE":0,"TOWNNAME":"安南區","LI":"新順里","LIN":"10鄰","STREET":"安和路","SECT":"二段","MAREA":" ","LANE":"２８５巷","ALLEY":" ","HOUSE_NO":"５號","E_COORD97":169655.63,"N_COORD97":2549252.29,"ADDRESS":"安和路二段２８５巷５號","OBJECTID":372267},"geometry":{"x":169655.63000000082,"y":2549252.2899999991}},{"attributes":{"ID":372278,"DIS_CODE":0,"TOWNNAME":"安南區","LI":"州南里","LIN":"10鄰","STREET":"安和路","SECT":"四段","MAREA":" ","LANE":"５８９巷","ALLEY":" ","HOUSE_NO":"１７號","E_COORD97":169905.32000000001,"N_COORD97":2551483.0800000001,"ADDRESS":"安和路四段５８９巷１７號","OBJECTID":372268},"geometry":{"x":169905.32000000123,"y":2551483.0800000019}},{"attributes":{"ID":372279,"DIS_CODE":0,"TOWNNAME":"安南區","LI":"淵東里","LIN":"10鄰","STREET":"安中路","SECT":"三段","MAREA":" ","LANE":"３５８巷","ALLEY":" ","HOUSE_NO":"１９號","E_COORD97":165497.37,"N_COORD97":2549997.7599999998,"ADDRESS":"安中路三段３５８巷１９號","OBJECTID":372269},"geometry":{"x":165497.37000000104,"y":2549997.7600000016}},{"attributes":{"ID":372280,"DIS_CODE":0,"TOWNNAME":"安南區","LI":"淵東里","LIN":"10鄰","STREET":"安中路","SECT":"三段","MAREA":" ","LANE":"３５８巷","ALLEY":" ","HOUSE_NO":"１５號","E_COORD97":165502.47,"N_COORD97":2549989.1200000001,"ADDRESS":"安中路三段３５８巷１５號","OBJECTID":372270},"geometry":{"x":165502.46999999974,"y":2549989.1200000029}},{"attributes":{"ID":372281,"DIS_CODE":0,"TOWNNAME":"安南區","LI":"淵東里","LIN":"10鄰","STREET":"安中路","SECT":"三段","MAREA":" ","LANE":"３５８巷","ALLEY":" ","HOUSE_NO":"１７號","E_COORD97":165499.59,"N_COORD97":2549993.9900000002,"ADDRESS":"安中路三段３５８巷１７號","OBJECTID":372271},"geometry":{"x":165499.58999999985,"y":2549993.9900000002}},{"attributes":{"ID":372282,"DIS_CODE":0,"TOWNNAME":"安南區","LI":"淵東里","LIN":"10鄰","STREET":"安中路","SECT":"三段","MAREA":" ","LANE":"３５８巷","ALLEY":" ","HOUSE_NO":"２１號","E_COORD97":165494.70999999999,"N_COORD97":2550002.4100000001,"ADDRESS":"安中路三段３５８巷２１號","OBJECTID":372272},"geometry":{"x":165494.71000000089,"y":2550002.4100000039}},{"attributes":{"ID":372283,"DIS_CODE":0,"TOWNNAME":"永康區","LI":"埔園里","LIN":"32鄰","STREET":"龍埔街","SECT":" ","MAREA":" ","LANE":"２８３巷","ALLEY":" ","HOUSE_NO":"２０號","E_COORD97":174028.17000000001,"N_COORD97":2548263.7400000002,"ADDRESS":"龍埔街２８３巷２０號","OBJECTID":372273},"geometry":{"x":174028.16999999899,"y":2548263.7400000002}},{"attributes":{"ID":372284,"DIS_CODE":0,"TOWNNAME":"永康區","LI":"埔園里","LIN":"35鄰","STREET":"八德街","SECT":" ","MAREA":" ","LANE":"７３巷","ALLEY":" ","HOUSE_NO":"３號","E_COORD97":174167.54000000001,"N_COORD97":2548485.27,"ADDRESS":"八德街７３巷３號","OBJECTID":372274},"geometry":{"x":174167.54000000004,"y":2548485.2700000014}},{"attributes":{"ID":372285,"DIS_CODE":0,"TOWNNAME":"東區","LI":"崇德里","LIN":"10鄰","STREET":"崇德八街","SECT":" ","MAREA":" ","LANE":"４６巷","ALLEY":" ","HOUSE_NO":"１５號","E_COORD97":170939.48000000001,"N_COORD97":2541590.8300000001,"ADDRESS":"崇德八街４６巷１５號","OBJECTID":372275},"geometry":{"x":170939.48000000045,"y":2541590.8300000001}},{"attributes":{"ID":372286,"DIS_CODE":0,"TOWNNAME":"東區","LI":"崇德里","LIN":"10鄰","STREET":"崇德八街","SECT":" ","MAREA":" ","LANE":"４６巷","ALLEY":" ","HOUSE_NO":"１７號","E_COORD97":170940.57000000001,"N_COORD97":2541586.6499999999,"ADDRESS":"崇德八街４６巷１７號","OBJECTID":372276},"geometry":{"x":170940.56999999937,"y":2541586.6500000022}},{"attributes":{"ID":372287,"DIS_CODE":0,"TOWNNAME":"東區","LI":"崇德里","LIN":"10鄰","STREET":"崇德八街","SECT":" ","MAREA":" ","LANE":"４６巷","ALLEY":" ","HOUSE_NO":"４號","E_COORD97":170910.92999999999,"N_COORD97":2541608.9700000002,"ADDRESS":"崇德八街４６巷４號","OBJECTID":372277},"geometry":{"x":170910.93000000063,"y":2541608.9700000025}},{"attributes":{"ID":372288,"DIS_CODE":0,"TOWNNAME":"東區","LI":"崇德里","LIN":"10鄰","STREET":"崇德八街","SECT":" ","MAREA":" ","LANE":"４６巷","ALLEY":" ","HOUSE_NO":"６號","E_COORD97":170911.39999999999,"N_COORD97":2541604.4700000002,"ADDRESS":"崇德八街４６巷６號","OBJECTID":372278},"geometry":{"x":170911.40000000224,"y":2541604.4700000044}},{"attributes":{"ID":372289,"DIS_CODE":0,"TOWNNAME":"東區","LI":"崇德里","LIN":"10鄰","STREET":"崇德八街","SECT":" ","MAREA":" ","LANE":"４６巷","ALLEY":" ","HOUSE_NO":"８號","E_COORD97":170912.07000000001,"N_COORD97":2541599.71,"ADDRESS":"崇德八街４６巷８號","OBJECTID":372279},"geometry":{"x":170912.07000000123,"y":2541599.7100000046}},{"attributes":{"ID":372290,"DIS_CODE":0,"TOWNNAME":"永康區","LI":"埔園里","LIN":"20鄰","STREET":"四維街","SECT":" ","MAREA":" ","LANE":"１０２巷","ALLEY":" ","HOUSE_NO":"２５號","E_COORD97":173448.22,"N_COORD97":2548243.75,"ADDRESS":"四維街１０２巷２５號","OBJECTID":372280},"geometry":{"x":173448.22000000067,"y":2548243.7500000037}},{"attributes":{"ID":372291,"DIS_CODE":0,"TOWNNAME":"東區","LI":"崇德里","LIN":"10鄰","STREET":"崇德八街","SECT":" ","MAREA":" ","LANE":"４６巷","ALLEY":" ","HOUSE_NO":"１１號","E_COORD97":170936.70999999999,"N_COORD97":2541599.8300000001,"ADDRESS":"崇德八街４６巷１１號","OBJECTID":372281},"geometry":{"x":170936.71000000089,"y":2541599.8300000001}},{"attributes":{"ID":372292,"DIS_CODE":0,"TOWNNAME":"東區","LI":"崇德里","LIN":"10鄰","STREET":"崇德八街","SECT":" ","MAREA":" ","LANE":"４６巷","ALLEY":" ","HOUSE_NO":"１３號","E_COORD97":170938.09,"N_COORD97":2541595.6800000002,"ADDRESS":"崇德八街４６巷１３號","OBJECTID":372282},"geometry":{"x":170938.08999999985,"y":2541595.6800000016}},{"attributes":{"ID":372293,"DIS_CODE":0,"TOWNNAME":"永康區","LI":"埔園里","LIN":"20鄰","STREET":"四維街","SECT":" ","MAREA":" ","LANE":"１０２巷","ALLEY":" ","HOUSE_NO":"２８號","E_COORD97":173441.16,"N_COORD97":2548232.0299999998,"ADDRESS":"四維街１０２巷２８號","OBJECTID":372283},"geometry":{"x":173441.16000000108,"y":2548232.0300000012}},{"attributes":{"ID":372294,"DIS_CODE":0,"TOWNNAME":"永康區","LI":"南灣里","LIN":"13鄰","STREET":"大灣路","SECT":" ","MAREA":" ","LANE":"５５４巷","ALLEY":" ","HOUSE_NO":"５號","E_COORD97":174636.57999999999,"N_COORD97":2544781.5,"ADDRESS":"大灣路５５４巷５號","OBJECTID":372284},"geometry":{"x":174636.58000000101,"y":2544781.5000000019}},{"attributes":{"ID":372295,"DIS_CODE":0,"TOWNNAME":"永康區","LI":"埔園里","LIN":"32鄰","STREET":"龍埔街","SECT":" ","MAREA":" ","LANE":"２８３巷","ALLEY":" ","HOUSE_NO":"３０號","E_COORD97":174026.09,"N_COORD97":2548247.4900000002,"ADDRESS":"龍埔街２８３巷３０號","OBJECTID":372285},"geometry":{"x":174026.09000000078,"y":2548247.4900000002}},{"attributes":{"ID":372296,"DIS_CODE":0,"TOWNNAME":"永康區","LI":"埔園里","LIN":"32鄰","STREET":"龍埔街","SECT":" ","MAREA":" ","LANE":"２９１巷","ALLEY":" ","HOUSE_NO":"２號","E_COORD97":173953.14999999999,"N_COORD97":2548301.5,"ADDRESS":"龍埔街２９１巷２號","OBJECTID":372286},"geometry":{"x":173953.1500000013,"y":2548301.5}},{"attributes":{"ID":372297,"DIS_CODE":0,"TOWNNAME":"永康區","LI":"東灣里","LIN":"10鄰","STREET":"立興街","SECT":" ","MAREA":" ","LANE":"２８巷","ALLEY":" ","HOUSE_NO":"４號","E_COORD97":174662.42000000001,"N_COORD97":2544887.2000000002,"ADDRESS":"立興街２８巷４號","OBJECTID":372287},"geometry":{"x":174662.42000000086,"y":2544887.2000000011}},{"attributes":{"ID":372298,"DIS_CODE":0,"TOWNNAME":"永康區","LI":"甲頂里","LIN":"8鄰","STREET":"中華路","SECT":" ","MAREA":" ","LANE":"８９５巷","ALLEY":" ","HOUSE_NO":"１２號","E_COORD97":170422.89000000001,"N_COORD97":2546678.4399999999,"ADDRESS":"中華路８９５巷１２號","OBJECTID":372288},"geometry":{"x":170422.8900000006,"y":2546678.4399999995}},{"attributes":{"ID":372299,"DIS_CODE":0,"TOWNNAME":"新市區","LI":"新和里","LIN":"10鄰","STREET":"忠孝街","SECT":" ","MAREA":" ","LANE":"２８巷","ALLEY":" ","HOUSE_NO":"５號","E_COORD97":177649.23000000001,"N_COORD97":2552447.5,"ADDRESS":"忠孝街２８巷５號","OBJECTID":372289},"geometry":{"x":177649.22999999952,"y":2552447.5000000019}},{"attributes":{"ID":372300,"DIS_CODE":0,"TOWNNAME":"新市區","LI":"新和里","LIN":"10鄰","STREET":"忠孝街","SECT":" ","MAREA":" ","LANE":"２８巷","ALLEY":" ","HOUSE_NO":"１號","E_COORD97":177647.82000000001,"N_COORD97":2552455.25,"ADDRESS":"忠孝街２８巷１號","OBJECTID":372290},"geometry":{"x":177647.8200000003,"y":2552455.2500000019}},{"attributes":{"ID":372301,"DIS_CODE":0,"TOWNNAME":"永康區","LI":"西灣里","LIN":"47鄰","STREET":"大灣路","SECT":" ","MAREA":" ","LANE":"９４２巷","ALLEY":" ","HOUSE_NO":"５８７號","E_COORD97":173933.64000000001,"N_COORD97":2545668.7400000002,"ADDRESS":"大灣路９４２巷５８７號","OBJECTID":372291},"geometry":{"x":173933.6400000006,"y":2545668.7400000021}},{"attributes":{"ID":372302,"DIS_CODE":0,"TOWNNAME":"永康區","LI":"甲頂里","LIN":"8鄰","STREET":"中華路","SECT":" ","MAREA":" ","LANE":"８９５巷","ALLEY":" ","HOUSE_NO":"１４號","E_COORD97":170420.67999999999,"N_COORD97":2546674.7000000002,"ADDRESS":"中華路８９５巷１４號","OBJECTID":372292},"geometry":{"x":170420.68000000156,"y":2546674.7000000011}},{"attributes":{"ID":372303,"DIS_CODE":0,"TOWNNAME":"永康區","LI":"西橋里","LIN":"10鄰","STREET":"中華西街","SECT":" ","MAREA":" ","LANE":"１２７巷","ALLEY":" ","HOUSE_NO":"１３號","E_COORD97":170629.56,"N_COORD97":2546157.4900000002,"ADDRESS":"中華西街１２７巷１３號","OBJECTID":372293},"geometry":{"x":170629.55999999959,"y":2546157.4900000021}},{"attributes":{"ID":372304,"DIS_CODE":0,"TOWNNAME":"中西區","LI":"建國里","LIN":"10鄰","STREET":"民生路","SECT":"一段","MAREA":" ","LANE":"１５７巷","ALLEY":" ","HOUSE_NO":"１１號","E_COORD97":168041.28,"N_COORD97":2543791.6899999999,"ADDRESS":"民生路一段１５７巷１１號","OBJECTID":372294},"geometry":{"x":168041.28000000119,"y":2543791.6899999976}},{"attributes":{"ID":372305,"DIS_CODE":0,"TOWNNAME":"中西區","LI":"建國里","LIN":"10鄰","STREET":"民生路","SECT":"一段","MAREA":" ","LANE":"１５７巷","ALLEY":" ","HOUSE_NO":"１３號","E_COORD97":168053.54000000001,"N_COORD97":2543782.6099999999,"ADDRESS":"民生路一段１５７巷１３號","OBJECTID":372295},"geometry":{"x":168053.54000000004,"y":2543782.6100000013}},{"attributes":{"ID":372306,"DIS_CODE":0,"TOWNNAME":"中西區","LI":"建國里","LIN":"10鄰","STREET":"民生路","SECT":"一段","MAREA":" ","LANE":"１５７巷","ALLEY":" ","HOUSE_NO":"１５號","E_COORD97":168058.32000000001,"N_COORD97":2543781.5,"ADDRESS":"民生路一段１５７巷１５號","OBJECTID":372296},"geometry":{"x":168058.3200000003,"y":2543781.5000000019}},{"attributes":{"ID":372307,"DIS_CODE":0,"TOWNNAME":"中西區","LI":"建國里","LIN":"10鄰","STREET":"民生路","SECT":"一段","MAREA":" ","LANE":"１５７巷","ALLEY":" ","HOUSE_NO":"１７號","E_COORD97":168055.76999999999,"N_COORD97":2543782.4500000002,"ADDRESS":"民生路一段１５７巷１７號","OBJECTID":372297},"geometry":{"x":168055.77000000048,"y":2543782.4499999993}},{"attributes":{"ID":372308,"DIS_CODE":0,"TOWNNAME":"中西區","LI":"建國里","LIN":"10鄰","STREET":"民生路","SECT":"一段","MAREA":" ","LANE":"１５７巷","ALLEY":" ","HOUSE_NO":"１號","E_COORD97":168056.48999999999,"N_COORD97":2543822.7000000002,"ADDRESS":"民生路一段１５７巷１號","OBJECTID":372298},"geometry":{"x":168056.49000000115,"y":2543822.7000000011}},{"attributes":{"ID":372309,"DIS_CODE":0,"TOWNNAME":"中西區","LI":"建國里","LIN":"10鄰","STREET":"民生路","SECT":"一段","MAREA":" ","LANE":"１５７巷","ALLEY":" ","HOUSE_NO":"３號","E_COORD97":168055.60000000001,"N_COORD97":2543819.2799999998,"ADDRESS":"民生路一段１５７巷３號","OBJECTID":372299},"geometry":{"x":168055.59999999963,"y":2543819.2800000012}},{"attributes":{"ID":372310,"DIS_CODE":0,"TOWNNAME":"中西區","LI":"建國里","LIN":"10鄰","STREET":"民生路","SECT":"一段","MAREA":" ","LANE":"１５７巷","ALLEY":" ","HOUSE_NO":"５號","E_COORD97":168053.51000000001,"N_COORD97":2543814.3700000001,"ADDRESS":"民生路一段１５７巷５號","OBJECTID":372300},"geometry":{"x":168053.50999999978,"y":2543814.370000001}},{"attributes":{"ID":372311,"DIS_CODE":0,"TOWNNAME":"中西區","LI":"建國里","LIN":"10鄰","STREET":"民生路","SECT":"一段","MAREA":" ","LANE":"１５７巷","ALLEY":" ","HOUSE_NO":"７號","E_COORD97":168056.19,"N_COORD97":2543802.3199999998,"ADDRESS":"民生路一段１５７巷７號","OBJECTID":372301},"geometry":{"x":168056.19000000041,"y":2543802.3200000022}},{"attributes":{"ID":372312,"DIS_CODE":0,"TOWNNAME":"中西區","LI":"建國里","LIN":"10鄰","STREET":"民生路","SECT":"一段","MAREA":" ","LANE":"１５７巷","ALLEY":" ","HOUSE_NO":"９號","E_COORD97":168047.70000000001,"N_COORD97":2543797.71,"ADDRESS":"民生路一段１５７巷９號","OBJECTID":372302},"geometry":{"x":168047.70000000205,"y":2543797.7100000028}},{"attributes":{"ID":372313,"DIS_CODE":0,"TOWNNAME":"永康區","LI":"甲頂里","LIN":"13鄰","STREET":"大武街","SECT":" ","MAREA":" ","LANE":"１８巷","ALLEY":" ","HOUSE_NO":"２２號","E_COORD97":170348.17999999999,"N_COORD97":2546628.5899999999,"ADDRESS":"大武街１８巷２２號","OBJECTID":372303},"geometry":{"x":170348.18000000063,"y":2546628.5900000017}},{"attributes":{"ID":372314,"DIS_CODE":0,"TOWNNAME":"永康區","LI":"甲頂里","LIN":"13鄰","STREET":"大武街","SECT":" ","MAREA":" ","LANE":"１８巷","ALLEY":" ","HOUSE_NO":"３６號","E_COORD97":170375.39000000001,"N_COORD97":2546609.8300000001,"ADDRESS":"大武街１８巷３６號","OBJECTID":372304},"geometry":{"x":170375.3900000006,"y":2546609.8300000019}},{"attributes":{"ID":372315,"DIS_CODE":0,"TOWNNAME":"永康區","LI":"西橋里","LIN":"8鄰","STREET":"中山南路","SECT":" ","MAREA":" ","LANE":"４３巷","ALLEY":" ","HOUSE_NO":"８０號","E_COORD97":170644.89000000001,"N_COORD97":2546050.4900000002,"ADDRESS":"中山南路４３巷８０號","OBJECTID":372305},"geometry":{"x":170644.8900000006,"y":2546050.4900000002}},{"attributes":{"ID":372316,"DIS_CODE":0,"TOWNNAME":"中西區","LI":"永華里","LIN":"10鄰","STREET":"開山路","SECT":" ","MAREA":" ","LANE":"１２２巷","ALLEY":" ","HOUSE_NO":"４８號","E_COORD97":168603.45000000001,"N_COORD97":2543335.1699999999,"ADDRESS":"開山路１２２巷４８號","OBJECTID":372306},"geometry":{"x":168603.45000000019,"y":2543335.1700000018}},{"attributes":{"ID":372317,"DIS_CODE":0,"TOWNNAME":"中西區","LI":"永華里","LIN":"10鄰","STREET":"開山路","SECT":" ","MAREA":" ","LANE":"１２２巷","ALLEY":" ","HOUSE_NO":"５０號","E_COORD97":168598.92000000001,"N_COORD97":2543335.3199999998,"ADDRESS":"開山路１２２巷５０號","OBJECTID":372307},"geometry":{"x":168598.92000000086,"y":2543335.3200000022}},{"attributes":{"ID":372318,"DIS_CODE":0,"TOWNNAME":"仁德區","LI":"成功里","LIN":"10鄰","STREET":"成功二街","SECT":" ","MAREA":" ","LANE":"２３巷","ALLEY":" ","HOUSE_NO":"２號","E_COORD97":170919.63,"N_COORD97":2539915.52,"ADDRESS":"成功二街２３巷２號","OBJECTID":372308},"geometry":{"x":170919.63000000175,"y":2539915.5200000014}},{"attributes":{"ID":372319,"DIS_CODE":0,"TOWNNAME":"仁德區","LI":"成功里","LIN":"10鄰","STREET":"成功二街","SECT":" ","MAREA":" ","LANE":"１５巷","ALLEY":" ","HOUSE_NO":"８號","E_COORD97":170938.69,"N_COORD97":2539949.5099999998,"ADDRESS":"成功二街１５巷８號","OBJECTID":372309},"geometry":{"x":170938.69000000134,"y":2539949.5100000016}},{"attributes":{"ID":372320,"DIS_CODE":0,"TOWNNAME":"仁德區","LI":"成功里","LIN":"10鄰","STREET":"成功二街","SECT":" ","MAREA":" ","LANE":"１５巷","ALLEY":" ","HOUSE_NO":"１６號","E_COORD97":170962.72,"N_COORD97":2539950.2599999998,"ADDRESS":"成功二街１５巷１６號","OBJECTID":372310},"geometry":{"x":170962.71999999881,"y":2539950.2599999979}},{"attributes":{"ID":372321,"DIS_CODE":0,"TOWNNAME":"仁德區","LI":"保安里","LIN":"10鄰","STREET":"文賢二街","SECT":" ","MAREA":" ","LANE":"４６巷","ALLEY":" ","HOUSE_NO":"３號","E_COORD97":171740.98999999999,"N_COORD97":2536104.3199999998,"ADDRESS":"文賢二街４６巷３號","OBJECTID":372311},"geometry":{"x":171740.99000000022,"y":2536104.3200000003}},{"attributes":{"ID":372322,"DIS_CODE":0,"TOWNNAME":"仁德區","LI":"保安里","LIN":"10鄰","STREET":"中正路","SECT":"一段","MAREA":" ","LANE":"２５１巷","ALLEY":" ","HOUSE_NO":"２６號","E_COORD97":171753.89999999999,"N_COORD97":2536053.7799999998,"ADDRESS":"中正路一段２５１巷２６號","OBJECTID":372312},"geometry":{"x":171753.90000000224,"y":2536053.7799999993}},{"attributes":{"ID":372323,"DIS_CODE":0,"TOWNNAME":"仁德區","LI":"成功里","LIN":"10鄰","STREET":"成功二街","SECT":" ","MAREA":" ","LANE":"２３巷","ALLEY":" ","HOUSE_NO":"１２號","E_COORD97":170948.51999999999,"N_COORD97":2539916.02,"ADDRESS":"成功二街２３巷１２號","OBJECTID":372313},"geometry":{"x":170948.51999999955,"y":2539916.0200000014}},{"attributes":{"ID":372324,"DIS_CODE":0,"TOWNNAME":"仁德區","LI":"保安里","LIN":"10鄰","STREET":"文賢二街","SECT":" ","MAREA":" ","LANE":"８巷","ALLEY":" ","HOUSE_NO":"１號","E_COORD97":171636.48999999999,"N_COORD97":2536057.8300000001,"ADDRESS":"文賢二街８巷１號","OBJECTID":372314},"geometry":{"x":171636.49000000115,"y":2536057.8299999982}},{"attributes":{"ID":372325,"DIS_CODE":0,"TOWNNAME":"仁德區","LI":"成功里","LIN":"10鄰","STREET":"成功二街","SECT":" ","MAREA":" ","LANE":"１５巷","ALLEY":" ","HOUSE_NO":"１２號","E_COORD97":170951.03,"N_COORD97":2539950.0099999998,"ADDRESS":"成功二街１５巷１２號","OBJECTID":372315},"geometry":{"x":170951.02999999933,"y":2539950.0100000016}},{"attributes":{"ID":372326,"DIS_CODE":0,"TOWNNAME":"仁德區","LI":"成功里","LIN":"10鄰","STREET":"成功二街","SECT":" ","MAREA":" ","LANE":"２３巷","ALLEY":" ","HOUSE_NO":"６號","E_COORD97":170931.01999999999,"N_COORD97":2539915.77,"ADDRESS":"成功二街２３巷６號","OBJECTID":372316},"geometry":{"x":170931.01999999955,"y":2539915.7699999996}},{"attributes":{"ID":372327,"DIS_CODE":0,"TOWNNAME":"仁德區","LI":"成功里","LIN":"10鄰","STREET":"成功二街","SECT":" ","MAREA":" ","LANE":"２９巷","ALLEY":" ","HOUSE_NO":"１８號","E_COORD97":170965.62,"N_COORD97":2539885.0099999998,"ADDRESS":"成功二街２９巷１８號","OBJECTID":372317},"geometry":{"x":170965.62000000197,"y":2539885.0100000016}},{"attributes":{"ID":372328,"DIS_CODE":0,"TOWNNAME":"仁德區","LI":"成功里","LIN":"10鄰","STREET":"成功二街","SECT":" ","MAREA":" ","LANE":"２３巷","ALLEY":" ","HOUSE_NO":"１０號","E_COORD97":170942.95000000001,"N_COORD97":2539916.52,"ADDRESS":"成功二街２３巷１０號","OBJECTID":372318},"geometry":{"x":170942.95000000019,"y":2539916.5199999996}},{"attributes":{"ID":372329,"DIS_CODE":0,"TOWNNAME":"仁德區","LI":"成功里","LIN":"10鄰","STREET":"成功二街","SECT":" ","MAREA":" ","LANE":"２３巷","ALLEY":" ","HOUSE_NO":"１６號","E_COORD97":170959.42000000001,"N_COORD97":2539916.77,"ADDRESS":"成功二街２３巷１６號","OBJECTID":372319},"geometry":{"x":170959.41999999993,"y":2539916.7700000014}},{"attributes":{"ID":372330,"DIS_CODE":0,"TOWNNAME":"永康區","LI":"西橋里","LIN":"8鄰","STREET":"中華西街","SECT":" ","MAREA":" ","LANE":"６３巷","ALLEY":" ","HOUSE_NO":"２２號","E_COORD97":170680.44,"N_COORD97":2546025.25,"ADDRESS":"中華西街６３巷２２號","OBJECTID":372320},"geometry":{"x":170680.44000000041,"y":2546025.25}},{"attributes":{"ID":372331,"DIS_CODE":0,"TOWNNAME":"永康區","LI":"安康里","LIN":"6鄰","STREET":"中華路","SECT":" ","MAREA":" ","LANE":"７２７巷","ALLEY":" ","HOUSE_NO":"１１號","E_COORD97":170802.13,"N_COORD97":2546383.7400000002,"ADDRESS":"中華路７２７巷１１號","OBJECTID":372321},"geometry":{"x":170802.12999999989,"y":2546383.7400000021}},{"attributes":{"ID":372332,"DIS_CODE":0,"TOWNNAME":"永康區","LI":"西勢里","LIN":"12鄰","STREET":"廣興街","SECT":" ","MAREA":" ","LANE":"１４７巷","ALLEY":" ","HOUSE_NO":"７號","E_COORD97":176119.82000000001,"N_COORD97":2546601.2400000002,"ADDRESS":"廣興街１４７巷７號","OBJECTID":372322},"geometry":{"x":176119.82000000123,"y":2546601.2400000002}},{"attributes":{"ID":372333,"DIS_CODE":0,"TOWNNAME":"仁德區","LI":"保安里","LIN":"10鄰","STREET":"文賢二街","SECT":" ","MAREA":" ","LANE":"２９巷","ALLEY":" ","HOUSE_NO":"３號","E_COORD97":171681.87,"N_COORD97":2536127.3199999998,"ADDRESS":"文賢二街２９巷３號","OBJECTID":372323},"geometry":{"x":171681.87000000011,"y":2536127.3200000022}},{"attributes":{"ID":372334,"DIS_CODE":0,"TOWNNAME":"仁德區","LI":"成功里","LIN":"10鄰","STREET":"成功二街","SECT":" ","MAREA":" ","LANE":"３１巷","ALLEY":" ","HOUSE_NO":"１３號","E_COORD97":170956.66,"N_COORD97":2539862.7599999998,"ADDRESS":"成功二街３１巷１３號","OBJECTID":372324},"geometry":{"x":170956.66000000015,"y":2539862.7600000016}},{"attributes":{"ID":372335,"DIS_CODE":0,"TOWNNAME":"仁德區","LI":"成功里","LIN":"10鄰","STREET":"成功二街","SECT":" ","MAREA":" ","LANE":"３１巷","ALLEY":" ","HOUSE_NO":"１１號","E_COORD97":170951.60999999999,"N_COORD97":2539859.2599999998,"ADDRESS":"成功二街３１巷１１號","OBJECTID":372325},"geometry":{"x":170951.61000000034,"y":2539859.2600000016}},{"attributes":{"ID":372336,"DIS_CODE":0,"TOWNNAME":"仁德區","LI":"成功里","LIN":"10鄰","STREET":"成功二街","SECT":" ","MAREA":" ","LANE":"３１巷","ALLEY":" ","HOUSE_NO":"９號","E_COORD97":170944.48999999999,"N_COORD97":2539858.0099999998,"ADDRESS":"成功二街３１巷９號","OBJECTID":372326},"geometry":{"x":170944.49000000209,"y":2539858.0100000016}},{"attributes":{"ID":372337,"DIS_CODE":0,"TOWNNAME":"仁德區","LI":"後壁里","LIN":"10鄰","STREET":"民安路","SECT":"二段","MAREA":" ","LANE":"１８２巷","ALLEY":" ","HOUSE_NO":"４９號","E_COORD97":173734.01999999999,"N_COORD97":2538834.3100000001,"ADDRESS":"民安路二段１８２巷４９號","OBJECTID":372327},"geometry":{"x":173734.02000000142,"y":2538834.3100000005}},{"attributes":{"ID":372338,"DIS_CODE":0,"TOWNNAME":"仁德區","LI":"成功里","LIN":"10鄰","STREET":"成功二街","SECT":" ","MAREA":" ","LANE":"１５巷","ALLEY":" ","HOUSE_NO":"１０號","E_COORD97":170944.95000000001,"N_COORD97":2539949.7599999998,"ADDRESS":"成功二街１５巷１０號","OBJECTID":372328},"geometry":{"x":170944.95000000112,"y":2539949.7599999998}},{"attributes":{"ID":372339,"DIS_CODE":0,"TOWNNAME":"仁德區","LI":"成功里","LIN":"10鄰","STREET":"成功二街","SECT":" ","MAREA":" ","LANE":"３１巷","ALLEY":" ","HOUSE_NO":"３號","E_COORD97":170927.70000000001,"N_COORD97":2539858.0099999998,"ADDRESS":"成功二街３１巷３號","OBJECTID":372329},"geometry":{"x":170927.70000000019,"y":2539858.0100000016}},{"attributes":{"ID":372340,"DIS_CODE":0,"TOWNNAME":"仁德區","LI":"成功里","LIN":"10鄰","STREET":"成功二街","SECT":" ","MAREA":" ","LANE":"２９巷","ALLEY":" ","HOUSE_NO":"１４號","E_COORD97":170954.88,"N_COORD97":2539884.52,"ADDRESS":"成功二街２９巷１４號","OBJECTID":372330},"geometry":{"x":170954.87999999989,"y":2539884.5200000014}},{"attributes":{"ID":372341,"DIS_CODE":0,"TOWNNAME":"仁德區","LI":"成功里","LIN":"10鄰","STREET":"成功二街","SECT":" ","MAREA":" ","LANE":"２９巷","ALLEY":" ","HOUSE_NO":"６號","E_COORD97":170930.13,"N_COORD97":2539883.02,"ADDRESS":"成功二街２９巷６號","OBJECTID":372331},"geometry":{"x":170930.13000000082,"y":2539883.0199999996}},{"attributes":{"ID":372342,"DIS_CODE":0,"TOWNNAME":"仁德區","LI":"成功里","LIN":"10鄰","STREET":"成功二街","SECT":" ","MAREA":" ","LANE":"２９巷","ALLEY":" ","HOUSE_NO":"１２號","E_COORD97":170948.62,"N_COORD97":2539884.27,"ADDRESS":"成功二街２９巷１２號","OBJECTID":372332},"geometry":{"x":170948.62000000197,"y":2539884.2699999996}},{"attributes":{"ID":372343,"DIS_CODE":0,"TOWNNAME":"仁德區","LI":"成功里","LIN":"10鄰","STREET":"成功二街","SECT":" ","MAREA":" ","LANE":"２９巷","ALLEY":" ","HOUSE_NO":"１０號","E_COORD97":170943.20999999999,"N_COORD97":2539883.77,"ADDRESS":"成功二街２９巷１０號","OBJECTID":372333},"geometry":{"x":170943.21000000089,"y":2539883.7700000014}},{"attributes":{"ID":372344,"DIS_CODE":0,"TOWNNAME":"仁德區","LI":"成功里","LIN":"10鄰","STREET":"成功二街","SECT":" ","MAREA":" ","LANE":"３１巷","ALLEY":" ","HOUSE_NO":"７號","E_COORD97":170938.64000000001,"N_COORD97":2539858.2599999998,"ADDRESS":"成功二街３１巷７號","OBJECTID":372334},"geometry":{"x":170938.6400000006,"y":2539858.2599999998}},{"attributes":{"ID":372345,"DIS_CODE":0,"TOWNNAME":"仁德區","LI":"保安里","LIN":"10鄰","STREET":"文賢二街","SECT":" ","MAREA":" ","LANE":"２９巷","ALLEY":" ","HOUSE_NO":"５號","E_COORD97":171686.92000000001,"N_COORD97":2536133.0699999998,"ADDRESS":"文賢二街２９巷５號","OBJECTID":372335},"geometry":{"x":171686.91999999993,"y":2536133.0700000003}},{"attributes":{"ID":372346,"DIS_CODE":0,"TOWNNAME":"仁德區","LI":"後壁里","LIN":"10鄰","STREET":"民安路","SECT":"二段","MAREA":" ","LANE":"１８２巷","ALLEY":" ","HOUSE_NO":"５２號","E_COORD97":173701.88,"N_COORD97":2538814.8100000001,"ADDRESS":"民安路二段１８２巷５２號","OBJECTID":372336},"geometry":{"x":173701.88000000082,"y":2538814.8099999987}},{"attributes":{"ID":372347,"DIS_CODE":0,"TOWNNAME":"仁德區","LI":"成功里","LIN":"10鄰","STREET":"成功二街","SECT":" ","MAREA":" ","LANE":"２９巷","ALLEY":" ","HOUSE_NO":"８號","E_COORD97":170935.84,"N_COORD97":2539883.52,"ADDRESS":"成功二街２９巷８號","OBJECTID":372337},"geometry":{"x":170935.84000000078,"y":2539883.5199999996}},{"attributes":{"ID":372348,"DIS_CODE":0,"TOWNNAME":"永康區","LI":"西灣里","LIN":"47鄰","STREET":"大灣路","SECT":" ","MAREA":" ","LANE":"９４２巷","ALLEY":" ","HOUSE_NO":"６２３號","E_COORD97":173911.60000000001,"N_COORD97":2545750.52,"ADDRESS":"大灣路９４２巷６２３號","OBJECTID":372338},"geometry":{"x":173911.60000000056,"y":2545750.5200000014}},{"attributes":{"ID":372349,"DIS_CODE":0,"TOWNNAME":"仁德區","LI":"後壁里","LIN":"10鄰","STREET":"民安路","SECT":"二段","MAREA":" ","LANE":"１８２巷","ALLEY":" ","HOUSE_NO":"５１號","E_COORD97":173726.38,"N_COORD97":2538823.3100000001,"ADDRESS":"民安路二段１８２巷５１號","OBJECTID":372339},"geometry":{"x":173726.37999999989,"y":2538823.3100000024}},{"attributes":{"ID":372350,"DIS_CODE":0,"TOWNNAME":"仁德區","LI":"後壁里","LIN":"10鄰","STREET":"民安路","SECT":"二段","MAREA":" ","LANE":"１８２巷","ALLEY":" ","HOUSE_NO":"５５號","E_COORD97":173721.85999999999,"N_COORD97":2538815.5600000001,"ADDRESS":"民安路二段１８２巷５５號","OBJECTID":372340},"geometry":{"x":173721.86000000034,"y":2538815.5600000005}},{"attributes":{"ID":372351,"DIS_CODE":0,"TOWNNAME":"仁德區","LI":"新田里","LIN":"10鄰","STREET":"北保路","SECT":" ","MAREA":" ","LANE":"９５巷","ALLEY":" ","HOUSE_NO":"９號","E_COORD97":173254.67000000001,"N_COORD97":2539561.9900000002,"ADDRESS":"北保路９５巷９號","OBJECTID":372341},"geometry":{"x":173254.66999999993,"y":2539561.9900000002}},{"attributes":{"ID":372352,"DIS_CODE":0,"TOWNNAME":"仁德區","LI":"新田里","LIN":"10鄰","STREET":"北保路","SECT":" ","MAREA":" ","LANE":"９５巷","ALLEY":" ","HOUSE_NO":"１１號","E_COORD97":173257.92999999999,"N_COORD97":2539566.4900000002,"ADDRESS":"北保路９５巷１１號","OBJECTID":372342},"geometry":{"x":173257.9299999997,"y":2539566.4900000021}},{"attributes":{"ID":372353,"DIS_CODE":0,"TOWNNAME":"仁德區","LI":"新田里","LIN":"10鄰","STREET":"北保路","SECT":" ","MAREA":" ","LANE":"９５巷","ALLEY":" ","HOUSE_NO":"８號","E_COORD97":173262.89999999999,"N_COORD97":2539553.9900000002,"ADDRESS":"北保路９５巷８號","OBJECTID":372343},"geometry":{"x":173262.9000000013,"y":2539553.9900000021}},{"attributes":{"ID":372354,"DIS_CODE":0,"TOWNNAME":"新市區","LI":"新和里","LIN":"10鄰","STREET":"忠孝街","SECT":" ","MAREA":" ","LANE":"２８巷","ALLEY":" ","HOUSE_NO":"３號","E_COORD97":177648.57000000001,"N_COORD97":2552451.5,"ADDRESS":"忠孝街２８巷３號","OBJECTID":372344},"geometry":{"x":177648.57000000216,"y":2552451.5}},{"attributes":{"ID":372355,"DIS_CODE":0,"TOWNNAME":"東區","LI":"東門里","LIN":"10鄰","STREET":"新樓街","SECT":" ","MAREA":" ","LANE":"２１巷","ALLEY":" ","HOUSE_NO":"８號","E_COORD97":169347.41,"N_COORD97":2543392.7599999998,"ADDRESS":"新樓街２１巷８號","OBJECTID":372345},"geometry":{"x":169347.41000000015,"y":2543392.7600000016}},{"attributes":{"ID":372356,"DIS_CODE":0,"TOWNNAME":"東區","LI":"東門里","LIN":"10鄰","STREET":"新樓街","SECT":" ","MAREA":" ","LANE":"２１巷","ALLEY":" ","HOUSE_NO":"９號","E_COORD97":169330.31,"N_COORD97":2543404.52,"ADDRESS":"新樓街２１巷９號","OBJECTID":372346},"geometry":{"x":169330.31000000052,"y":2543404.5200000014}},{"attributes":{"ID":372357,"DIS_CODE":0,"TOWNNAME":"永康區","LI":"西勢里","LIN":"12鄰","STREET":"西勢路","SECT":" ","MAREA":" ","LANE":"９３巷","ALLEY":" ","HOUSE_NO":"８號","E_COORD97":176121.72,"N_COORD97":2546668.5299999998,"ADDRESS":"西勢路９３巷８號","OBJECTID":372347},"geometry":{"x":176121.72000000067,"y":2546668.5300000012}},{"attributes":{"ID":372358,"DIS_CODE":0,"TOWNNAME":"永康區","LI":"西灣里","LIN":"9鄰","STREET":"大灣五街","SECT":" ","MAREA":" ","LANE":"１４１巷","ALLEY":" ","HOUSE_NO":"１６號","E_COORD97":174431.89999999999,"N_COORD97":2545262.4900000002,"ADDRESS":"大灣五街１４１巷１６號","OBJECTID":372348},"geometry":{"x":174431.90000000037,"y":2545262.4900000021}},{"attributes":{"ID":372359,"DIS_CODE":0,"TOWNNAME":"永康區","LI":"西灣里","LIN":"36鄰","STREET":"大勇路","SECT":" ","MAREA":" ","LANE":"１３５巷","ALLEY":" ","HOUSE_NO":"２２號","E_COORD97":174196.09,"N_COORD97":2545652,"ADDRESS":"大勇路１３５巷２２號","OBJECTID":372349},"geometry":{"x":174196.08999999985,"y":2545652.0000000019}},{"attributes":{"ID":372360,"DIS_CODE":0,"TOWNNAME":"永康區","LI":"西勢里","LIN":"24鄰","STREET":"廣興街","SECT":" ","MAREA":" ","LANE":"３８巷","ALLEY":" ","HOUSE_NO":"２１號","E_COORD97":175999.01000000001,"N_COORD97":2546481.9399999999,"ADDRESS":"廣興街３８巷２１號","OBJECTID":372350},"geometry":{"x":175999.01000000164,"y":2546481.9399999976}},{"attributes":{"ID":372361,"DIS_CODE":0,"TOWNNAME":"永康區","LI":"西灣里","LIN":"38鄰","STREET":"大勇路","SECT":" ","MAREA":" ","LANE":"１３５巷","ALLEY":" ","HOUSE_NO":"２３號","E_COORD97":174188.67000000001,"N_COORD97":2545633.3599999999,"ADDRESS":"大勇路１３５巷２３號","OBJECTID":372351},"geometry":{"x":174188.66999999993,"y":2545633.3599999994}},{"attributes":{"ID":372362,"DIS_CODE":0,"TOWNNAME":"永康區","LI":"西橋里","LIN":"7鄰","STREET":"中華西街","SECT":" ","MAREA":" ","LANE":"６３巷","ALLEY":" ","HOUSE_NO":"５號","E_COORD97":170724.37,"N_COORD97":2546013.25,"ADDRESS":"中華西街６３巷５號","OBJECTID":372352},"geometry":{"x":170724.37000000011,"y":2546013.2500000019}},{"attributes":{"ID":372363,"DIS_CODE":0,"TOWNNAME":"永康區","LI":"西橋里","LIN":"18鄰","STREET":"大橋一街","SECT":" ","MAREA":" ","LANE":"３１巷","ALLEY":" ","HOUSE_NO":"５９號","E_COORD97":170604.17999999999,"N_COORD97":2546426.25,"ADDRESS":"大橋一街３１巷５９號","OBJECTID":372353},"geometry":{"x":170604.18000000063,"y":2546426.2500000037}},{"attributes":{"ID":372364,"DIS_CODE":0,"TOWNNAME":"佳里區","LI":"建南里","LIN":"10鄰","STREET":"中和街","SECT":" ","MAREA":" ","LANE":"２９巷","ALLEY":" ","HOUSE_NO":"１０號","E_COORD97":165572.51000000001,"N_COORD97":2562146.48,"ADDRESS":"中和街２９巷１０號","OBJECTID":372354},"geometry":{"x":165572.51000000071,"y":2562146.4800000042}},{"attributes":{"ID":372365,"DIS_CODE":0,"TOWNNAME":"佳里區","LI":"建南里","LIN":"10鄰","STREET":"中和街","SECT":" ","MAREA":" ","LANE":"２９巷","ALLEY":" ","HOUSE_NO":"１１號","E_COORD97":165585.45000000001,"N_COORD97":2562110.1299999999,"ADDRESS":"中和街２９巷１１號","OBJECTID":372355},"geometry":{"x":165585.45000000019,"y":2562110.1300000027}},{"attributes":{"ID":372366,"DIS_CODE":0,"TOWNNAME":"佳里區","LI":"建南里","LIN":"10鄰","STREET":"中和街","SECT":" ","MAREA":" ","LANE":"２９巷","ALLEY":" ","HOUSE_NO":"１２號","E_COORD97":165567.22,"N_COORD97":2562145.77,"ADDRESS":"中和街２９巷１２號","OBJECTID":372356},"geometry":{"x":165567.22000000067,"y":2562145.7699999996}},{"attributes":{"ID":372367,"DIS_CODE":0,"TOWNNAME":"佳里區","LI":"建南里","LIN":"10鄰","STREET":"中和街","SECT":" ","MAREA":" ","LANE":"２９巷","ALLEY":" ","HOUSE_NO":"１３號","E_COORD97":165585.82999999999,"N_COORD97":2562105.0800000001,"ADDRESS":"中和街２９巷１３號","OBJECTID":372357},"geometry":{"x":165585.83000000101,"y":2562105.0800000019}},{"attributes":{"ID":372368,"DIS_CODE":0,"TOWNNAME":"佳里區","LI":"建南里","LIN":"10鄰","STREET":"中和街","SECT":" ","MAREA":" ","LANE":"２９巷","ALLEY":" ","HOUSE_NO":"１４號","E_COORD97":165562.12,"N_COORD97":2562145.0899999999,"ADDRESS":"中和街２９巷１４號","OBJECTID":372358},"geometry":{"x":165562.12000000104,"y":2562145.0900000036}},{"attributes":{"ID":372369,"DIS_CODE":0,"TOWNNAME":"佳里區","LI":"建南里","LIN":"10鄰","STREET":"中和街","SECT":" ","MAREA":" ","LANE":"２９巷","ALLEY":" ","HOUSE_NO":"１６號","E_COORD97":165556.91,"N_COORD97":2562144.3900000001,"ADDRESS":"中和街２９巷１６號","OBJECTID":372359},"geometry":{"x":165556.91000000015,"y":2562144.3900000025}},{"attributes":{"ID":372370,"DIS_CODE":0,"TOWNNAME":"佳里區","LI":"建南里","LIN":"10鄰","STREET":"中和街","SECT":" ","MAREA":" ","LANE":"２９巷","ALLEY":" ","HOUSE_NO":"１號","E_COORD97":165582.38,"N_COORD97":2562135.1600000001,"ADDRESS":"中和街２９巷１號","OBJECTID":372360},"geometry":{"x":165582.37999999989,"y":2562135.160000002}},{"attributes":{"ID":372371,"DIS_CODE":0,"TOWNNAME":"佳里區","LI":"建南里","LIN":"10鄰","STREET":"中和街","SECT":" ","MAREA":" ","LANE":"２９巷","ALLEY":" ","HOUSE_NO":"２６號","E_COORD97":165569.89000000001,"N_COORD97":2562116.1299999999,"ADDRESS":"中和街２９巷２６號","OBJECTID":372361},"geometry":{"x":165569.8900000006,"y":2562116.129999999}},{"attributes":{"ID":372372,"DIS_CODE":0,"TOWNNAME":"佳里區","LI":"建南里","LIN":"10鄰","STREET":"中和街","SECT":" ","MAREA":" ","LANE":"２９巷","ALLEY":" ","HOUSE_NO":"２８號","E_COORD97":165570.32999999999,"N_COORD97":2562111.4100000001,"ADDRESS":"中和街２９巷２８號","OBJECTID":372362},"geometry":{"x":165570.33000000101,"y":2562111.4100000001}},{"attributes":{"ID":372373,"DIS_CODE":0,"TOWNNAME":"佳里區","LI":"建南里","LIN":"10鄰","STREET":"中和街","SECT":" ","MAREA":" ","LANE":"２９巷","ALLEY":" ","HOUSE_NO":"２號","E_COORD97":165592.67999999999,"N_COORD97":2562149.3799999999,"ADDRESS":"中和街２９巷２號","OBJECTID":372363},"geometry":{"x":165592.68000000156,"y":2562149.3800000008}},{"attributes":{"ID":372374,"DIS_CODE":0,"TOWNNAME":"佳里區","LI":"建南里","LIN":"10鄰","STREET":"中和街","SECT":" ","MAREA":" ","LANE":"２９巷","ALLEY":" ","HOUSE_NO":"３０號","E_COORD97":165570.85999999999,"N_COORD97":2562107.0299999998,"ADDRESS":"中和街２９巷３０號","OBJECTID":372364},"geometry":{"x":165570.86000000127,"y":2562107.0299999993}},{"attributes":{"ID":372375,"DIS_CODE":0,"TOWNNAME":"佳里區","LI":"建南里","LIN":"10鄰","STREET":"中和街","SECT":" ","MAREA":" ","LANE":"２９巷","ALLEY":" ","HOUSE_NO":"３２號","E_COORD97":165571.37,"N_COORD97":2562102.6099999999,"ADDRESS":"中和街２９巷３２號","OBJECTID":372365},"geometry":{"x":165571.36999999918,"y":2562102.6099999994}},{"attributes":{"ID":372376,"DIS_CODE":0,"TOWNNAME":"佳里區","LI":"建南里","LIN":"10鄰","STREET":"中和街","SECT":" ","MAREA":" ","LANE":"２９巷","ALLEY":" ","HOUSE_NO":"３號","E_COORD97":165582.97,"N_COORD97":2562130.3300000001,"ADDRESS":"中和街２９巷３號","OBJECTID":372366},"geometry":{"x":165582.97000000067,"y":2562130.3300000038}},{"attributes":{"ID":372377,"DIS_CODE":0,"TOWNNAME":"佳里區","LI":"建南里","LIN":"10鄰","STREET":"中和街","SECT":" ","MAREA":" ","LANE":"２９巷","ALLEY":" ","HOUSE_NO":"４號","E_COORD97":165587.47,"N_COORD97":2562148.3999999999,"ADDRESS":"中和街２９巷４號","OBJECTID":372367},"geometry":{"x":165587.4700000016,"y":2562148.4000000022}},{"attributes":{"ID":372378,"DIS_CODE":0,"TOWNNAME":"佳里區","LI":"建南里","LIN":"10鄰","STREET":"中和街","SECT":" ","MAREA":" ","LANE":"２９巷","ALLEY":" ","HOUSE_NO":"５號","E_COORD97":165583.60000000001,"N_COORD97":2562125.23,"ADDRESS":"中和街２９巷５號","OBJECTID":372368},"geometry":{"x":165583.60000000056,"y":2562125.2300000023}},{"attributes":{"ID":372379,"DIS_CODE":0,"TOWNNAME":"佳里區","LI":"建南里","LIN":"10鄰","STREET":"中和街","SECT":" ","MAREA":" ","LANE":"２９巷","ALLEY":" ","HOUSE_NO":"６號","E_COORD97":165582.54000000001,"N_COORD97":2562147.7400000002,"ADDRESS":"中和街２９巷６號","OBJECTID":372369},"geometry":{"x":165582.54000000097,"y":2562147.7400000039}},{"attributes":{"ID":372380,"DIS_CODE":0,"TOWNNAME":"佳里區","LI":"建南里","LIN":"10鄰","STREET":"中和街","SECT":" ","MAREA":" ","LANE":"２９巷","ALLEY":" ","HOUSE_NO":"７號","E_COORD97":165584.19,"N_COORD97":2562120.0299999998,"ADDRESS":"中和街２９巷７號","OBJECTID":372370},"geometry":{"x":165584.19000000041,"y":2562120.0299999993}},{"attributes":{"ID":372381,"DIS_CODE":0,"TOWNNAME":"佳里區","LI":"建南里","LIN":"10鄰","STREET":"中和街","SECT":" ","MAREA":" ","LANE":"２９巷","ALLEY":" ","HOUSE_NO":"８號","E_COORD97":165577.42999999999,"N_COORD97":2562147.1699999999,"ADDRESS":"中和街２９巷８號","OBJECTID":372371},"geometry":{"x":165577.43000000156,"y":2562147.1699999999}},{"attributes":{"ID":372382,"DIS_CODE":0,"TOWNNAME":"佳里區","LI":"建南里","LIN":"10鄰","STREET":"中和街","SECT":" ","MAREA":" ","LANE":"２９巷","ALLEY":" ","HOUSE_NO":"９號","E_COORD97":165584.67999999999,"N_COORD97":2562115.1699999999,"ADDRESS":"中和街２９巷９號","OBJECTID":372372},"geometry":{"x":165584.68000000063,"y":2562115.1700000018}},{"attributes":{"ID":372383,"DIS_CODE":0,"TOWNNAME":"新化區","LI":"協興里","LIN":"10鄰","STREET":"太平街","SECT":" ","MAREA":" ","LANE":"１３４巷","ALLEY":" ","HOUSE_NO":"５０號","E_COORD97":178488.37,"N_COORD97":2548786.25,"ADDRESS":"太平街１３４巷５０號","OBJECTID":372373},"geometry":{"x":178488.37000000011,"y":2548786.2500000037}},{"attributes":{"ID":372384,"DIS_CODE":0,"TOWNNAME":"永康區","LI":"西灣里","LIN":"38鄰","STREET":"大勇路","SECT":" ","MAREA":" ","LANE":"１３５巷","ALLEY":" ","HOUSE_NO":"９號","E_COORD97":174218.98000000001,"N_COORD97":2545628.5,"ADDRESS":"大勇路１３５巷９號","OBJECTID":372374},"geometry":{"x":174218.98000000138,"y":2545628.5000000019}},{"attributes":{"ID":372385,"DIS_CODE":0,"TOWNNAME":"新化區","LI":"護國里","LIN":"10鄰","STREET":"中山路","SECT":" ","MAREA":" ","LANE":"９４巷","ALLEY":" ","HOUSE_NO":"１１號","E_COORD97":179566.31,"N_COORD97":2549112.25,"ADDRESS":"中山路９４巷１１號","OBJECTID":372375},"geometry":{"x":179566.30999999959,"y":2549112.2500000019}},{"attributes":{"ID":372386,"DIS_CODE":0,"TOWNNAME":"新化區","LI":"豐榮里","LIN":"10鄰","STREET":"正新路","SECT":" ","MAREA":" ","LANE":"２１７巷","ALLEY":" ","HOUSE_NO":"１７號","E_COORD97":178497.26999999999,"N_COORD97":2548345.25,"ADDRESS":"正新路２１７巷１７號","OBJECTID":372376},"geometry":{"x":178497.26999999955,"y":2548345.2500000037}},{"attributes":{"ID":372387,"DIS_CODE":0,"TOWNNAME":"永康區","LI":"西灣里","LIN":"40鄰","STREET":"大勇路","SECT":" ","MAREA":" ","LANE":"２３巷","ALLEY":" ","HOUSE_NO":"１１號","E_COORD97":174172.39999999999,"N_COORD97":2545386.5099999998,"ADDRESS":"大勇路２３巷１１號","OBJECTID":372377},"geometry":{"x":174172.40000000037,"y":2545386.5099999998}},{"attributes":{"ID":372388,"DIS_CODE":0,"TOWNNAME":"新化區","LI":"協興里","LIN":"10鄰","STREET":"太平街","SECT":" ","MAREA":" ","LANE":"１３４巷","ALLEY":" ","HOUSE_NO":"６８號","E_COORD97":178488.17000000001,"N_COORD97":2548795.25,"ADDRESS":"太平街１３４巷６８號","OBJECTID":372378},"geometry":{"x":178488.16999999993,"y":2548795.25}},{"attributes":{"ID":372389,"DIS_CODE":0,"TOWNNAME":"新化區","LI":"太平里","LIN":"10鄰","STREET":"中正路","SECT":" ","MAREA":" ","LANE":"７７７巷","ALLEY":" ","HOUSE_NO":"３７號之１","E_COORD97":178640.79000000001,"N_COORD97":2549293.2599999998,"ADDRESS":"中正路７７７巷３７號之１","OBJECTID":372379},"geometry":{"x":178640.79000000097,"y":2549293.2599999998}},{"attributes":{"ID":372390,"DIS_CODE":0,"TOWNNAME":"新化區","LI":"太平里","LIN":"10鄰","STREET":"中正路","SECT":" ","MAREA":" ","LANE":"７７７巷","ALLEY":" ","HOUSE_NO":"４１號","E_COORD97":178644.85999999999,"N_COORD97":2549268.25,"ADDRESS":"中正路７７７巷４１號","OBJECTID":372380},"geometry":{"x":178644.86000000034,"y":2549268.2500000019}},{"attributes":{"ID":372391,"DIS_CODE":0,"TOWNNAME":"新化區","LI":"協興里","LIN":"10鄰","STREET":"正新路","SECT":" ","MAREA":" ","LANE":"３４１巷","ALLEY":" ","HOUSE_NO":"１號","E_COORD97":178511.01999999999,"N_COORD97":2548818.25,"ADDRESS":"正新路３４１巷１號","OBJECTID":372381},"geometry":{"x":178511.02000000142,"y":2548818.25}},{"attributes":{"ID":372392,"DIS_CODE":0,"TOWNNAME":"新化區","LI":"豐榮里","LIN":"10鄰","STREET":"正新路","SECT":" ","MAREA":" ","LANE":"２１７巷","ALLEY":" ","HOUSE_NO":"２０號","E_COORD97":178507.57000000001,"N_COORD97":2548363.25,"ADDRESS":"正新路２１７巷２０號","OBJECTID":372382},"geometry":{"x":178507.5700000003,"y":2548363.2500000019}},{"attributes":{"ID":372393,"DIS_CODE":0,"TOWNNAME":"新化區","LI":"太平里","LIN":"10鄰","STREET":"中正路","SECT":" ","MAREA":" ","LANE":"７７７巷","ALLEY":" ","HOUSE_NO":"３９號","E_COORD97":178645.16,"N_COORD97":2549277.25,"ADDRESS":"中正路７７７巷３９號","OBJECTID":372383},"geometry":{"x":178645.16000000108,"y":2549277.25}},{"attributes":{"ID":372394,"DIS_CODE":0,"TOWNNAME":"安南區","LI":"海東里","LIN":"10鄰","STREET":"海環街","SECT":" ","MAREA":" ","LANE":"３２巷","ALLEY":" ","HOUSE_NO":"４６號","E_COORD97":166594.70000000001,"N_COORD97":2548971.2799999998,"ADDRESS":"海環街３２巷４６號","OBJECTID":372384},"geometry":{"x":166594.70000000019,"y":2548971.2799999993}},{"attributes":{"ID":372395,"DIS_CODE":0,"TOWNNAME":"安南區","LI":"海東里","LIN":"10鄰","STREET":"海環街","SECT":" ","MAREA":" ","LANE":"３２巷","ALLEY":" ","HOUSE_NO":"４８號","E_COORD97":166593.54000000001,"N_COORD97":2548976.1600000001,"ADDRESS":"海環街３２巷４８號","OBJECTID":372385},"geometry":{"x":166593.54000000004,"y":2548976.1600000001}},{"attributes":{"ID":372396,"DIS_CODE":0,"TOWNNAME":"安南區","LI":"淵西里","LIN":"10鄰","STREET":"安中路","SECT":"四段","MAREA":" ","LANE":"３２０巷","ALLEY":" ","HOUSE_NO":"８３號","E_COORD97":164574.54999999999,"N_COORD97":2550402.3999999999,"ADDRESS":"安中路四段３２０巷８３號","OBJECTID":372386},"geometry":{"x":164574.54999999981,"y":2550402.3999999985}},{"attributes":{"ID":372397,"DIS_CODE":0,"TOWNNAME":"安南區","LI":"淵西里","LIN":"10鄰","STREET":"安中路","SECT":"四段","MAREA":" ","LANE":"３２０巷","ALLEY":" ","HOUSE_NO":"８５號","E_COORD97":164578.09,"N_COORD97":2550405.9399999999,"ADDRESS":"安中路四段３２０巷８５號","OBJECTID":372387},"geometry":{"x":164578.09000000171,"y":2550405.9400000013}},{"attributes":{"ID":372398,"DIS_CODE":0,"TOWNNAME":"安南區","LI":"淵西里","LIN":"10鄰","STREET":"安中路","SECT":"四段","MAREA":" ","LANE":"３２０巷","ALLEY":" ","HOUSE_NO":"８７號","E_COORD97":164582.22,"N_COORD97":2550408.1000000001,"ADDRESS":"安中路四段３２０巷８７號","OBJECTID":372388},"geometry":{"x":164582.2200000016,"y":2550408.1000000015}},{"attributes":{"ID":372399,"DIS_CODE":0,"TOWNNAME":"安南區","LI":"淵西里","LIN":"10鄰","STREET":"安中路","SECT":"四段","MAREA":" ","LANE":"３２０巷","ALLEY":" ","HOUSE_NO":"８９號","E_COORD97":164585.75,"N_COORD97":2550411.4300000002,"ADDRESS":"安中路四段３２０巷８９號","OBJECTID":372389},"geometry":{"x":164585.75000000093,"y":2550411.4299999997}},{"attributes":{"ID":372400,"DIS_CODE":0,"TOWNNAME":"永康區","LI":"西灣里","LIN":"36鄰","STREET":"大勇路","SECT":" ","MAREA":" ","LANE":"１３５巷","ALLEY":" ","HOUSE_NO":"１８號","E_COORD97":174216.29000000001,"N_COORD97":2545665,"ADDRESS":"大勇路１３５巷１８號","OBJECTID":372390},"geometry":{"x":174216.29000000097,"y":2545664.9999999981}},{"attributes":{"ID":372401,"DIS_CODE":0,"TOWNNAME":"安南區","LI":"淵西里","LIN":"10鄰","STREET":"安中路","SECT":"四段","MAREA":" ","LANE":"３２０巷","ALLEY":" ","HOUSE_NO":"９３號","E_COORD97":164592.82999999999,"N_COORD97":2550418.5,"ADDRESS":"安中路四段３２０巷９３號","OBJECTID":372391},"geometry":{"x":164592.83000000007,"y":2550418.5000000037}},{"attributes":{"ID":372402,"DIS_CODE":0,"TOWNNAME":"安南區","LI":"城北里","LIN":"10鄰","STREET":"安中路","SECT":"六段","MAREA":" ","LANE":"４２９巷","ALLEY":" ","HOUSE_NO":"３０號之２","E_COORD97":161111.04000000001,"N_COORD97":2551227.2000000002,"ADDRESS":"安中路六段４２９巷３０號之２","OBJECTID":372392},"geometry":{"x":161111.04000000097,"y":2551227.2000000011}},{"attributes":{"ID":372403,"DIS_CODE":0,"TOWNNAME":"安南區","LI":"長安里","LIN":"10鄰","STREET":"公學路","SECT":"二段","MAREA":" ","LANE":"１２５巷","ALLEY":" ","HOUSE_NO":"２０號","E_COORD97":167713.69,"N_COORD97":2552208.8500000001,"ADDRESS":"公學路二段１２５巷２０號","OBJECTID":372393},"geometry":{"x":167713.69000000041,"y":2552208.8499999996}},{"attributes":{"ID":372404,"DIS_CODE":0,"TOWNNAME":"中西區","LI":"藥王里","LIN":"10鄰","STREET":"大新街","SECT":" ","MAREA":" ","LANE":"４７巷","ALLEY":" ","HOUSE_NO":"３號","E_COORD97":167133.73999999999,"N_COORD97":2544416.9500000002,"ADDRESS":"大新街４７巷３號","OBJECTID":372394},"geometry":{"x":167133.74000000209,"y":2544416.950000003}},{"attributes":{"ID":372405,"DIS_CODE":0,"TOWNNAME":"安南區","LI":"長安里","LIN":"10鄰","STREET":"公學路","SECT":"二段","MAREA":" ","LANE":"１２５巷","ALLEY":" ","HOUSE_NO":"２２號","E_COORD97":167716.22,"N_COORD97":2552211.2000000002,"ADDRESS":"公學路二段１２５巷２２號","OBJECTID":372395},"geometry":{"x":167716.21999999974,"y":2552211.2000000011}},{"attributes":{"ID":372406,"DIS_CODE":0,"TOWNNAME":"安南區","LI":"長安里","LIN":"10鄰","STREET":"公學路","SECT":"二段","MAREA":" ","LANE":"１２５巷","ALLEY":" ","HOUSE_NO":"２號","E_COORD97":167704.85999999999,"N_COORD97":2552238.9100000001,"ADDRESS":"公學路二段１２５巷２號","OBJECTID":372396},"geometry":{"x":167704.86000000127,"y":2552238.9100000001}},{"attributes":{"ID":372407,"DIS_CODE":0,"TOWNNAME":"安南區","LI":"長安里","LIN":"10鄰","STREET":"公學路","SECT":"二段","MAREA":" ","LANE":"１２５巷","ALLEY":" ","HOUSE_NO":"３６號","E_COORD97":167700.29999999999,"N_COORD97":2552205.1899999999,"ADDRESS":"公學路二段１２５巷３６號","OBJECTID":372397},"geometry":{"x":167700.29999999981,"y":2552205.1899999995}},{"attributes":{"ID":372408,"DIS_CODE":0,"TOWNNAME":"安南區","LI":"長安里","LIN":"10鄰","STREET":"公學路","SECT":"二段","MAREA":" ","LANE":"１２５巷","ALLEY":" ","HOUSE_NO":"３８號","E_COORD97":167693.85000000001,"N_COORD97":2552199,"ADDRESS":"公學路二段１２５巷３８號","OBJECTID":372398},"geometry":{"x":167693.85000000056,"y":2552199.0000000019}},{"attributes":{"ID":372409,"DIS_CODE":0,"TOWNNAME":"安南區","LI":"長安里","LIN":"10鄰","STREET":"公學路","SECT":"二段","MAREA":" ","LANE":"１２５巷","ALLEY":" ","HOUSE_NO":"４２號","E_COORD97":167719.62,"N_COORD97":2552175.77,"ADDRESS":"公學路二段１２５巷４２號","OBJECTID":372399},"geometry":{"x":167719.62000000104,"y":2552175.7700000033}},{"attributes":{"ID":372410,"DIS_CODE":0,"TOWNNAME":"安南區","LI":"長安里","LIN":"10鄰","STREET":"公學路","SECT":"二段","MAREA":" ","LANE":"１２５巷","ALLEY":" ","HOUSE_NO":"４３號","E_COORD97":167765.62,"N_COORD97":2552179.3799999999,"ADDRESS":"公學路二段１２５巷４３號","OBJECTID":372400},"geometry":{"x":167765.62000000104,"y":2552179.3800000008}}]}