{"displayFieldName":"TOWNNAME","fieldAliases":{"ID":"ID","DIS_CODE":"DIS_CODE","TOWNNAME":"TOWNNAME","LI":"LI","LIN":"LIN","STREET":"STREET","SECT":"SECT","MAREA":"MAREA","LANE":"LANE","ALLEY":"ALLEY","HOUSE_NO":"HOUSE_NO","E_COORD97":"E_COORD97","N_COORD97":"N_COORD97","ADDRESS":"ADDRESS","OBJECTID":"OBJECTID"},"geometryType":"esriGeometryPoint","spatialReference":{"wkid":102443,"latestWkid":3826},"fields":[{"name":"ID","type":"esriFieldTypeDouble","alias":"ID"},{"name":"DIS_CODE","type":"esriFieldTypeInteger","alias":"DIS_CODE"},{"name":"TOWNNAME","type":"esriFieldTypeString","alias":"TOWNNAME","length":8},{"name":"LI","type":"esriFieldTypeString","alias":"LI","length":8},{"name":"LIN","type":"esriFieldTypeString","alias":"LIN","length":12},{"name":"STREET","type":"esriFieldTypeString","alias":"STREET","length":20},{"name":"SECT","type":"esriFieldTypeString","alias":"SECT","length":8},{"name":"MAREA","type":"esriFieldTypeString","alias":"MAREA","length":12},{"name":"LANE","type":"esriFieldTypeString","alias":"LANE","length":10},{"name":"ALLEY","type":"esriFieldTypeString","alias":"ALLEY","length":10},{"name":"HOUSE_NO","type":"esriFieldTypeString","alias":"HOUSE_NO","length":20},{"name":"E_COORD97","type":"esriFieldTypeDouble","alias":"E_COORD97"},{"name":"N_COORD97","type":"esriFieldTypeDouble","alias":"N_COORD97"},{"name":"ADDRESS","type":"esriFieldTypeString","alias":"ADDRESS","length":50},{"name":"OBJECTID","type":"esriFieldTypeOID","alias":"OBJECTID"}],"features":[{"attributes":{"ID":142001,"DIS_CODE":0,"TOWNNAME":"新營區","LI":"新南里","LIN":"22鄰","STREET":"復興路","SECT":" ","MAREA":" ","LANE":"６２０巷","ALLEY":"１６弄","HOUSE_NO":"５７號","E_COORD97":178126.32999999999,"N_COORD97":2578433.29,"ADDRESS":"復興路６２０巷１６弄５７號","OBJECTID":142001},"geometry":{"x":178126.33000000194,"y":2578433.2899999991}},{"attributes":{"ID":142002,"DIS_CODE":0,"TOWNNAME":"東山區","LI":"東原里","LIN":" ","STREET":" ","SECT":" ","MAREA":"班芝花坑","LANE":" ","ALLEY":" ","HOUSE_NO":"２３之２號","E_COORD97":192351.62,"N_COORD97":2575713.5099999998,"ADDRESS":"班芝花坑２３之２號","OBJECTID":142002},"geometry":{"x":192351.62000000011,"y":2575713.5099999998}},{"attributes":{"ID":142003,"DIS_CODE":0,"TOWNNAME":"東山區","LI":"東原里","LIN":" ","STREET":" ","SECT":" ","MAREA":"班芝花坑","LANE":" ","ALLEY":" ","HOUSE_NO":"２３之３號","E_COORD97":192348.64999999999,"N_COORD97":2575712.8199999998,"ADDRESS":"班芝花坑２３之３號","OBJECTID":142003},"geometry":{"x":192348.64999999944,"y":2575712.8200000022}},{"attributes":{"ID":142004,"DIS_CODE":0,"TOWNNAME":"新營區","LI":"新南里","LIN":"22鄰","STREET":"復興路","SECT":" ","MAREA":" ","LANE":"６２０巷","ALLEY":"１６弄","HOUSE_NO":"３７號","E_COORD97":178111.92999999999,"N_COORD97":2578402.3500000001,"ADDRESS":"復興路６２０巷１６弄３７號","OBJECTID":142004},"geometry":{"x":178111.93000000063,"y":2578402.3499999996}},{"attributes":{"ID":142005,"DIS_CODE":0,"TOWNNAME":"新營區","LI":"新南里","LIN":"22鄰","STREET":"復興路","SECT":" ","MAREA":" ","LANE":"６２０巷","ALLEY":"１６弄","HOUSE_NO":"２５號","E_COORD97":178103.60000000001,"N_COORD97":2578375.8100000001,"ADDRESS":"復興路６２０巷１６弄２５號","OBJECTID":142005},"geometry":{"x":178103.60000000149,"y":2578375.8100000005}},{"attributes":{"ID":142006,"DIS_CODE":0,"TOWNNAME":"新營區","LI":"新南里","LIN":"22鄰","STREET":"復興路","SECT":" ","MAREA":" ","LANE":"６２０巷","ALLEY":"１６弄","HOUSE_NO":"８３號","E_COORD97":178125.07999999999,"N_COORD97":2578376.8100000001,"ADDRESS":"復興路６２０巷１６弄８３號","OBJECTID":142006},"geometry":{"x":178125.08000000101,"y":2578376.8100000005}},{"attributes":{"ID":142007,"DIS_CODE":0,"TOWNNAME":"新營區","LI":"新南里","LIN":"22鄰","STREET":"復興路","SECT":" ","MAREA":" ","LANE":"６２０巷","ALLEY":"１６弄","HOUSE_NO":"５１號","E_COORD97":178112.01000000001,"N_COORD97":2578432.2599999998,"ADDRESS":"復興路６２０巷１６弄５１號","OBJECTID":142007},"geometry":{"x":178112.01000000071,"y":2578432.2600000016}},{"attributes":{"ID":142008,"DIS_CODE":0,"TOWNNAME":"新營區","LI":"新南里","LIN":"22鄰","STREET":"復興路","SECT":" ","MAREA":" ","LANE":"６２０巷","ALLEY":"１６弄","HOUSE_NO":"６５號","E_COORD97":178125.20999999999,"N_COORD97":2578415.5800000001,"ADDRESS":"復興路６２０巷１６弄６５號","OBJECTID":142008},"geometry":{"x":178125.20999999903,"y":2578415.5799999982}},{"attributes":{"ID":142009,"DIS_CODE":0,"TOWNNAME":"新營區","LI":"新南里","LIN":"22鄰","STREET":"復興路","SECT":" ","MAREA":" ","LANE":"６２０巷","ALLEY":"１６弄","HOUSE_NO":"７３號","E_COORD97":178125.14999999999,"N_COORD97":2578397.8500000001,"ADDRESS":"復興路６２０巷１６弄７３號","OBJECTID":142009},"geometry":{"x":178125.1500000013,"y":2578397.8500000015}},{"attributes":{"ID":142010,"DIS_CODE":0,"TOWNNAME":"新營區","LI":"新南里","LIN":"22鄰","STREET":"復興路","SECT":" ","MAREA":" ","LANE":"６２０巷","ALLEY":"１６弄","HOUSE_NO":"１１號","E_COORD97":178065.73000000001,"N_COORD97":2578384.8500000001,"ADDRESS":"復興路６２０巷１６弄１１號","OBJECTID":142010},"geometry":{"x":178065.73000000045,"y":2578384.8499999996}},{"attributes":{"ID":142011,"DIS_CODE":0,"TOWNNAME":"永康區","LI":"崑山里","LIN":"43鄰","STREET":"大灣路","SECT":" ","MAREA":" ","LANE":"９４２巷","ALLEY":"３７１弄","HOUSE_NO":"３１號","E_COORD97":173770.10000000001,"N_COORD97":2545198.6200000001,"ADDRESS":"大灣路９４２巷３７１弄３１號","OBJECTID":142011},"geometry":{"x":173770.09999999963,"y":2545198.6200000029}},{"attributes":{"ID":142012,"DIS_CODE":0,"TOWNNAME":"南區","LI":"文南里","LIN":"22鄰","STREET":"中華西路","SECT":"一段","MAREA":" ","LANE":"１０９巷","ALLEY":"２弄","HOUSE_NO":"１號","E_COORD97":166434.5,"N_COORD97":2542436.1800000002,"ADDRESS":"中華西路一段１０９巷２弄１號","OBJECTID":142012},"geometry":{"x":166434.5,"y":2542436.1800000034}},{"attributes":{"ID":142013,"DIS_CODE":0,"TOWNNAME":"南區","LI":"文南里","LIN":"22鄰","STREET":"中華西路","SECT":"一段","MAREA":" ","LANE":"１０９巷","ALLEY":"２弄","HOUSE_NO":"３號","E_COORD97":166434.76000000001,"N_COORD97":2542440.8900000001,"ADDRESS":"中華西路一段１０９巷２弄３號","OBJECTID":142013},"geometry":{"x":166434.76000000164,"y":2542440.8900000006}},{"attributes":{"ID":142014,"DIS_CODE":0,"TOWNNAME":"南區","LI":"文南里","LIN":"22鄰","STREET":"中華西路","SECT":"一段","MAREA":" ","LANE":"１０９巷","ALLEY":"２弄","HOUSE_NO":"４號","E_COORD97":166449.89999999999,"N_COORD97":2542438.9399999999,"ADDRESS":"中華西路一段１０９巷２弄４號","OBJECTID":142014},"geometry":{"x":166449.9000000013,"y":2542438.9400000013}},{"attributes":{"ID":142015,"DIS_CODE":0,"TOWNNAME":"南區","LI":"文南里","LIN":"22鄰","STREET":"中華西路","SECT":"一段","MAREA":" ","LANE":"１０９巷","ALLEY":"２弄","HOUSE_NO":"５號","E_COORD97":166435.29000000001,"N_COORD97":2542445.5099999998,"ADDRESS":"中華西路一段１０９巷２弄５號","OBJECTID":142015},"geometry":{"x":166435.29000000097,"y":2542445.5100000016}},{"attributes":{"ID":142016,"DIS_CODE":0,"TOWNNAME":"永康區","LI":"光復里","LIN":"22鄰","STREET":"復興路","SECT":" ","MAREA":" ","LANE":"１２８巷","ALLEY":"１弄","HOUSE_NO":"６號","E_COORD97":172676.23000000001,"N_COORD97":2544380.6200000001,"ADDRESS":"復興路１２８巷１弄６號","OBJECTID":142016},"geometry":{"x":172676.23000000138,"y":2544380.6200000048}},{"attributes":{"ID":142017,"DIS_CODE":0,"TOWNNAME":"仁德區","LI":"後壁里","LIN":"6鄰","STREET":"德善二街","SECT":" ","MAREA":" ","LANE":" ","ALLEY":" ","HOUSE_NO":"８號","E_COORD97":173536.54999999999,"N_COORD97":2538882.52,"ADDRESS":"德善二街８號","OBJECTID":142017},"geometry":{"x":173536.54999999981,"y":2538882.5199999996}},{"attributes":{"ID":142018,"DIS_CODE":0,"TOWNNAME":"中西區","LI":"光賢里","LIN":"22鄰","STREET":"中華西路","SECT":"二段","MAREA":" ","LANE":"６４６巷","ALLEY":"２０弄","HOUSE_NO":"２１號","E_COORD97":166723.81,"N_COORD97":2545090.3300000001,"ADDRESS":"中華西路二段６４６巷２０弄２１號","OBJECTID":142018},"geometry":{"x":166723.80999999959,"y":2545090.3300000038}},{"attributes":{"ID":142019,"DIS_CODE":0,"TOWNNAME":"中西區","LI":"光賢里","LIN":"22鄰","STREET":"中華西路","SECT":"二段","MAREA":" ","LANE":"６４６巷","ALLEY":"２０弄","HOUSE_NO":"２３號","E_COORD97":166729.20999999999,"N_COORD97":2545090.9700000002,"ADDRESS":"中華西路二段６４６巷２０弄２３號","OBJECTID":142019},"geometry":{"x":166729.21000000089,"y":2545090.9700000025}},{"attributes":{"ID":142020,"DIS_CODE":0,"TOWNNAME":"仁德區","LI":"上崙里","LIN":"22鄰","STREET":"德崙路","SECT":" ","MAREA":" ","LANE":"１９６巷","ALLEY":"２１弄","HOUSE_NO":"３號","E_COORD97":173640.75,"N_COORD97":2538240.6600000001,"ADDRESS":"德崙路１９６巷２１弄３號","OBJECTID":142020},"geometry":{"x":173640.75,"y":2538240.660000002}},{"attributes":{"ID":142021,"DIS_CODE":0,"TOWNNAME":"永康區","LI":"埔園里","LIN":"18鄰","STREET":"龍埔街","SECT":" ","MAREA":" ","LANE":"４６７巷","ALLEY":"２４弄","HOUSE_NO":"３號","E_COORD97":173551.73000000001,"N_COORD97":2548259.7400000002,"ADDRESS":"龍埔街４６７巷２４弄３號","OBJECTID":142021},"geometry":{"x":173551.73000000045,"y":2548259.7400000002}},{"attributes":{"ID":142022,"DIS_CODE":0,"TOWNNAME":"永康區","LI":"勝利里","LIN":"18鄰","STREET":"中華一路","SECT":" ","MAREA":" ","LANE":"３５０巷","ALLEY":"２弄","HOUSE_NO":"４號","E_COORD97":171146.79000000001,"N_COORD97":2545025.9900000002,"ADDRESS":"中華一路３５０巷２弄４號","OBJECTID":142022},"geometry":{"x":171146.79000000004,"y":2545025.9900000021}},{"attributes":{"ID":142023,"DIS_CODE":0,"TOWNNAME":"永康區","LI":"崑山里","LIN":"17鄰","STREET":"大灣路","SECT":" ","MAREA":" ","LANE":"９４２巷","ALLEY":"７１弄","HOUSE_NO":"５號","E_COORD97":173627.12,"N_COORD97":2544576,"ADDRESS":"大灣路９４２巷７１弄５號","OBJECTID":142023},"geometry":{"x":173627.12000000197,"y":2544576}},{"attributes":{"ID":142024,"DIS_CODE":0,"TOWNNAME":"永康區","LI":"神洲里","LIN":"8鄰","STREET":"忠孝路","SECT":" ","MAREA":" ","LANE":"６巷","ALLEY":"１９弄","HOUSE_NO":"１號","E_COORD97":172207.57999999999,"N_COORD97":2544585.25,"ADDRESS":"忠孝路６巷１９弄１號","OBJECTID":142024},"geometry":{"x":172207.58000000007,"y":2544585.2500000037}},{"attributes":{"ID":142025,"DIS_CODE":0,"TOWNNAME":"永康區","LI":"勝利里","LIN":"26鄰","STREET":"中華路","SECT":" ","MAREA":" ","LANE":"１２１巷","ALLEY":"２１弄","HOUSE_NO":"９號","E_COORD97":171500.20000000001,"N_COORD97":2544699.4900000002,"ADDRESS":"中華路１２１巷２１弄９號","OBJECTID":142025},"geometry":{"x":171500.20000000019,"y":2544699.4900000039}},{"attributes":{"ID":142026,"DIS_CODE":0,"TOWNNAME":"東山區","LI":"東原里","LIN":" ","STREET":" ","SECT":" ","MAREA":"班芝花坑","LANE":" ","ALLEY":" ","HOUSE_NO":"２８之１號","E_COORD97":192246.60999999999,"N_COORD97":2575723.8799999999,"ADDRESS":"班芝花坑２８之１號","OBJECTID":142026},"geometry":{"x":192246.61000000034,"y":2575723.8800000027}},{"attributes":{"ID":142027,"DIS_CODE":0,"TOWNNAME":"永康區","LI":"勝利里","LIN":"26鄰","STREET":"中華路","SECT":" ","MAREA":" ","LANE":"１２１巷","ALLEY":"２１弄","HOUSE_NO":"２１號","E_COORD97":171481.29999999999,"N_COORD97":2544682.23,"ADDRESS":"中華路１２１巷２１弄２１號","OBJECTID":142027},"geometry":{"x":171481.30000000075,"y":2544682.2300000023}},{"attributes":{"ID":142028,"DIS_CODE":0,"TOWNNAME":"永康區","LI":"勝利里","LIN":"25鄰","STREET":"中華路","SECT":" ","MAREA":" ","LANE":"１５５巷","ALLEY":"３４弄","HOUSE_NO":"１號","E_COORD97":171481.82999999999,"N_COORD97":2544842.2400000002,"ADDRESS":"中華路１５５巷３４弄１號","OBJECTID":142028},"geometry":{"x":171481.83000000101,"y":2544842.2400000002}},{"attributes":{"ID":142029,"DIS_CODE":0,"TOWNNAME":"仁德區","LI":"二行里","LIN":"22鄰","STREET":"行大街","SECT":" ","MAREA":" ","LANE":"５６巷","ALLEY":"３弄","HOUSE_NO":"３３號","E_COORD97":170156.85000000001,"N_COORD97":2535265.25,"ADDRESS":"行大街５６巷３弄３３號","OBJECTID":142029},"geometry":{"x":170156.85000000056,"y":2535265.2500000037}},{"attributes":{"ID":142030,"DIS_CODE":0,"TOWNNAME":"永康區","LI":"西橋里","LIN":"22鄰","STREET":"大橋三街","SECT":" ","MAREA":" ","LANE":"５７巷","ALLEY":"７弄","HOUSE_NO":"６號","E_COORD97":170545.98999999999,"N_COORD97":2546546.5,"ADDRESS":"大橋三街５７巷７弄６號","OBJECTID":142030},"geometry":{"x":170545.99000000022,"y":2546546.4999999981}},{"attributes":{"ID":142031,"DIS_CODE":0,"TOWNNAME":"永康區","LI":"西橋里","LIN":"22鄰","STREET":"大橋三街","SECT":" ","MAREA":" ","LANE":"５７巷","ALLEY":"７弄","HOUSE_NO":"２０號","E_COORD97":170517,"N_COORD97":2546518.46,"ADDRESS":"大橋三街５７巷７弄２０號","OBJECTID":142031},"geometry":{"x":170517.00000000186,"y":2546518.4600000028}},{"attributes":{"ID":142032,"DIS_CODE":0,"TOWNNAME":"永康區","LI":"西橋里","LIN":"22鄰","STREET":"大橋三街","SECT":" ","MAREA":" ","LANE":"５７巷","ALLEY":"７弄","HOUSE_NO":"４２號","E_COORD97":170498.73000000001,"N_COORD97":2546486.4500000002,"ADDRESS":"大橋三街５７巷７弄４２號","OBJECTID":142032},"geometry":{"x":170498.73000000045,"y":2546486.4500000011}},{"attributes":{"ID":142033,"DIS_CODE":0,"TOWNNAME":"永康區","LI":"西勢里","LIN":"22鄰","STREET":"富強路","SECT":"一段","MAREA":" ","LANE":"１９４巷","ALLEY":"５弄","HOUSE_NO":"２４號","E_COORD97":175683.48999999999,"N_COORD97":2546328.8799999999,"ADDRESS":"富強路一段１９４巷５弄２４號","OBJECTID":142033},"geometry":{"x":175683.49000000022,"y":2546328.879999999}},{"attributes":{"ID":142034,"DIS_CODE":0,"TOWNNAME":"永康區","LI":"西勢里","LIN":"22鄰","STREET":"富強路","SECT":"一段","MAREA":" ","LANE":"１９４巷","ALLEY":"５弄","HOUSE_NO":"４號","E_COORD97":175645.70000000001,"N_COORD97":2546333.4300000002,"ADDRESS":"富強路一段１９４巷５弄４號","OBJECTID":142034},"geometry":{"x":175645.70000000112,"y":2546333.4300000034}},{"attributes":{"ID":142035,"DIS_CODE":0,"TOWNNAME":"永康區","LI":"尚頂里","LIN":"22鄰","STREET":"南台街","SECT":" ","MAREA":" ","LANE":"１３巷","ALLEY":"３８弄","HOUSE_NO":"５號","E_COORD97":170328.37,"N_COORD97":2546866.7200000002,"ADDRESS":"南台街１３巷３８弄５號","OBJECTID":142035},"geometry":{"x":170328.37000000104,"y":2546866.7200000007}},{"attributes":{"ID":142036,"DIS_CODE":0,"TOWNNAME":"永康區","LI":"尚頂里","LIN":"22鄰","STREET":"南台街","SECT":" ","MAREA":" ","LANE":"１３巷","ALLEY":"３８弄","HOUSE_NO":"３０號","E_COORD97":170320.42999999999,"N_COORD97":2546899.2400000002,"ADDRESS":"南台街１３巷３８弄３０號","OBJECTID":142036},"geometry":{"x":170320.4299999997,"y":2546899.2400000021}},{"attributes":{"ID":142037,"DIS_CODE":0,"TOWNNAME":"永康區","LI":"西勢里","LIN":"22鄰","STREET":"富強路","SECT":"一段","MAREA":" ","LANE":"１９４巷","ALLEY":"５弄","HOUSE_NO":"２８號","E_COORD97":175689.64000000001,"N_COORD97":2546323.1299999999,"ADDRESS":"富強路一段１９４巷５弄２８號","OBJECTID":142037},"geometry":{"x":175689.6400000006,"y":2546323.129999999}},{"attributes":{"ID":142038,"DIS_CODE":0,"TOWNNAME":"永康區","LI":"勝利里","LIN":"26鄰","STREET":"中華路","SECT":" ","MAREA":" ","LANE":"１２１巷","ALLEY":"２１弄","HOUSE_NO":"７號","E_COORD97":171480.92000000001,"N_COORD97":2544700.79,"ADDRESS":"中華路１２１巷２１弄７號","OBJECTID":142038},"geometry":{"x":171480.92000000086,"y":2544700.790000001}},{"attributes":{"ID":142039,"DIS_CODE":0,"TOWNNAME":"永康區","LI":"崑山里","LIN":"43鄰","STREET":"大灣路","SECT":" ","MAREA":" ","LANE":"９４２巷","ALLEY":"３７１弄","HOUSE_NO":"６２號","E_COORD97":173614.10000000001,"N_COORD97":2545305.7999999998,"ADDRESS":"大灣路９４２巷３７１弄６２號","OBJECTID":142039},"geometry":{"x":173614.09999999963,"y":2545305.8000000026}},{"attributes":{"ID":142040,"DIS_CODE":0,"TOWNNAME":"永康區","LI":"尚頂里","LIN":"22鄰","STREET":"南台街","SECT":" ","MAREA":" ","LANE":"１３巷","ALLEY":"３８弄","HOUSE_NO":"９號","E_COORD97":170321.41,"N_COORD97":2546871.46,"ADDRESS":"南台街１３巷３８弄９號","OBJECTID":142040},"geometry":{"x":170321.41000000108,"y":2546871.4600000028}},{"attributes":{"ID":142041,"DIS_CODE":0,"TOWNNAME":"東區","LI":"崇誨里","LIN":"22鄰","STREET":"東寧路","SECT":" ","MAREA":" ","LANE":"２９６巷","ALLEY":"６弄","HOUSE_NO":"９號","E_COORD97":170708.26000000001,"N_COORD97":2543376.54,"ADDRESS":"東寧路２９６巷６弄９號","OBJECTID":142041},"geometry":{"x":170708.26000000164,"y":2543376.540000001}},{"attributes":{"ID":142042,"DIS_CODE":0,"TOWNNAME":"安南區","LI":"海東里","LIN":"22鄰","STREET":"同安路","SECT":" ","MAREA":" ","LANE":"１７巷","ALLEY":"１弄","HOUSE_NO":"８號","E_COORD97":166821.85000000001,"N_COORD97":2548900.0899999999,"ADDRESS":"同安路１７巷１弄８號","OBJECTID":142042},"geometry":{"x":166821.84999999963,"y":2548900.0900000017}},{"attributes":{"ID":142043,"DIS_CODE":0,"TOWNNAME":"永康區","LI":"西勢里","LIN":"22鄰","STREET":"富強路","SECT":"一段","MAREA":" ","LANE":"１９４巷","ALLEY":"５弄","HOUSE_NO":"２號","E_COORD97":175641.5,"N_COORD97":2546329.4300000002,"ADDRESS":"富強路一段１９４巷５弄２號","OBJECTID":142043},"geometry":{"x":175641.49999999907,"y":2546329.4299999997}},{"attributes":{"ID":142044,"DIS_CODE":0,"TOWNNAME":"永康區","LI":"西勢里","LIN":"22鄰","STREET":"富強路","SECT":"一段","MAREA":" ","LANE":"１９４巷","ALLEY":"５弄","HOUSE_NO":"１４號","E_COORD97":175661.79999999999,"N_COORD97":2546349.1800000002,"ADDRESS":"富強路一段１９４巷５弄１４號","OBJECTID":142044},"geometry":{"x":175661.80000000075,"y":2546349.1800000016}},{"attributes":{"ID":142045,"DIS_CODE":0,"TOWNNAME":"永康區","LI":"安康里","LIN":"22鄰","STREET":"中華西街","SECT":" ","MAREA":" ","LANE":"１２２巷","ALLEY":"９弄","HOUSE_NO":"４號","E_COORD97":170742.92999999999,"N_COORD97":2546199,"ADDRESS":"中華西街１２２巷９弄４號","OBJECTID":142045},"geometry":{"x":170742.93000000063,"y":2546199.0000000019}},{"attributes":{"ID":142046,"DIS_CODE":0,"TOWNNAME":"永康區","LI":"龍潭里","LIN":"22鄰","STREET":"龍橋街","SECT":" ","MAREA":" ","LANE":"８８巷","ALLEY":"２０弄","HOUSE_NO":"２號","E_COORD97":174805.67999999999,"N_COORD97":2548516.5,"ADDRESS":"龍橋街８８巷２０弄２號","OBJECTID":142046},"geometry":{"x":174805.6799999997,"y":2548516.5000000037}},{"attributes":{"ID":142047,"DIS_CODE":0,"TOWNNAME":"永康區","LI":"\u25A0行里","LIN":"22鄰","STREET":"正南五街","SECT":" ","MAREA":" ","LANE":"５２０巷","ALLEY":"３８弄","HOUSE_NO":"１２號","E_COORD97":171662.92999999999,"N_COORD97":2548751.23,"ADDRESS":"正南五街５２０巷３８弄１２號","OBJECTID":142047},"geometry":{"x":171662.9299999997,"y":2548751.2300000004}},{"attributes":{"ID":142048,"DIS_CODE":0,"TOWNNAME":"永康區","LI":"崑山里","LIN":"7鄰","STREET":"崑大路","SECT":" ","MAREA":" ","LANE":"１５５巷","ALLEY":"１６８弄","HOUSE_NO":"５８號","E_COORD97":173453.89999999999,"N_COORD97":2543677.2400000002,"ADDRESS":"崑大路１５５巷１６８弄５８號","OBJECTID":142048},"geometry":{"x":173453.90000000037,"y":2543677.2400000039}},{"attributes":{"ID":142049,"DIS_CODE":0,"TOWNNAME":"永康區","LI":"埔園里","LIN":"23鄰","STREET":"四維街","SECT":" ","MAREA":" ","LANE":"５８巷","ALLEY":"６弄","HOUSE_NO":"１５號","E_COORD97":173473.54000000001,"N_COORD97":2548023.2400000002,"ADDRESS":"四維街５８巷６弄１５號","OBJECTID":142049},"geometry":{"x":173473.54000000097,"y":2548023.2399999984}},{"attributes":{"ID":142050,"DIS_CODE":0,"TOWNNAME":"永康區","LI":"神洲里","LIN":"20鄰","STREET":"忠孝路","SECT":" ","MAREA":" ","LANE":"７６巷","ALLEY":"６３弄","HOUSE_NO":"３２號","E_COORD97":172152.5,"N_COORD97":2545052.48,"ADDRESS":"忠孝路７６巷６３弄３２號","OBJECTID":142050},"geometry":{"x":172152.5,"y":2545052.4800000023}},{"attributes":{"ID":142051,"DIS_CODE":0,"TOWNNAME":"永康區","LI":"五王里","LIN":"33鄰","STREET":"五福街","SECT":" ","MAREA":" ","LANE":" ","ALLEY":" ","HOUSE_NO":"２１號四樓之１","E_COORD97":171308.64000000001,"N_COORD97":2545881.79,"ADDRESS":"五福街２１號四樓之１","OBJECTID":142051},"geometry":{"x":171308.63999999966,"y":2545881.7899999991}},{"attributes":{"ID":142052,"DIS_CODE":0,"TOWNNAME":"永康區","LI":"五王里","LIN":"33鄰","STREET":"五福街","SECT":" ","MAREA":" ","LANE":" ","ALLEY":" ","HOUSE_NO":"２１號五樓之１５","E_COORD97":171310.04999999999,"N_COORD97":2545881.79,"ADDRESS":"五福街２１號五樓之１５","OBJECTID":142052},"geometry":{"x":171310.05000000075,"y":2545881.7899999991}},{"attributes":{"ID":142053,"DIS_CODE":0,"TOWNNAME":"仁德區","LI":"仁義里","LIN":"1鄰","STREET":"義林五街","SECT":" ","MAREA":" ","LANE":" ","ALLEY":" ","HOUSE_NO":"１８之８號","E_COORD97":174391.98000000001,"N_COORD97":2541023.7999999998,"ADDRESS":"義林五街１８之８號","OBJECTID":142053},"geometry":{"x":174391.98000000138,"y":2541023.8000000026}},{"attributes":{"ID":142054,"DIS_CODE":0,"TOWNNAME":"永康區","LI":"崑山里","LIN":"17鄰","STREET":"大灣路","SECT":" ","MAREA":" ","LANE":"９４２巷","ALLEY":"７１弄","HOUSE_NO":"１５號","E_COORD97":173618.57000000001,"N_COORD97":2544547.25,"ADDRESS":"大灣路９４２巷７１弄１５號","OBJECTID":142054},"geometry":{"x":173618.5700000003,"y":2544547.25}},{"attributes":{"ID":142055,"DIS_CODE":0,"TOWNNAME":"永康區","LI":"龍潭里","LIN":"22鄰","STREET":"龍橋街","SECT":" ","MAREA":" ","LANE":"８８巷","ALLEY":"２０弄","HOUSE_NO":"６號","E_COORD97":174807.31,"N_COORD97":2548511.75,"ADDRESS":"龍橋街８８巷２０弄６號","OBJECTID":142055},"geometry":{"x":174807.31000000052,"y":2548511.7500000019}},{"attributes":{"ID":142056,"DIS_CODE":0,"TOWNNAME":"南區","LI":"明興里","LIN":" ","STREET":"金華路","SECT":"一段","MAREA":" ","LANE":" ","ALLEY":" ","HOUSE_NO":"１３２號","E_COORD97":166927.98999999999,"N_COORD97":2540578.1000000001,"ADDRESS":"金華路一段１３２號","OBJECTID":142056},"geometry":{"x":166927.99000000022,"y":2540578.0999999996}},{"attributes":{"ID":142057,"DIS_CODE":0,"TOWNNAME":"東區","LI":"虎尾里","LIN":"22鄰","STREET":"東成街","SECT":" ","MAREA":" ","LANE":"１８２巷","ALLEY":"２弄","HOUSE_NO":"２號","E_COORD97":171754.76999999999,"N_COORD97":2542277.1099999999,"ADDRESS":"東成街１８２巷２弄２號","OBJECTID":142057},"geometry":{"x":171754.77000000048,"y":2542277.1100000013}},{"attributes":{"ID":142058,"DIS_CODE":0,"TOWNNAME":"東區","LI":"虎尾里","LIN":"22鄰","STREET":"東成街","SECT":" ","MAREA":" ","LANE":"１８２巷","ALLEY":"２弄","HOUSE_NO":"４號","E_COORD97":171747.31,"N_COORD97":2542276.6899999999,"ADDRESS":"東成街１８２巷２弄４號","OBJECTID":142058},"geometry":{"x":171747.31000000052,"y":2542276.6900000013}},{"attributes":{"ID":142059,"DIS_CODE":0,"TOWNNAME":"永康區","LI":"烏竹里","LIN":"18鄰","STREET":"自強路","SECT":" ","MAREA":" ","LANE":"７７３巷","ALLEY":"５弄","HOUSE_NO":"４０號","E_COORD97":174413.5,"N_COORD97":2548562.4900000002,"ADDRESS":"自強路７７３巷５弄４０號","OBJECTID":142059},"geometry":{"x":174413.5,"y":2548562.4900000021}},{"attributes":{"ID":142060,"DIS_CODE":0,"TOWNNAME":"東區","LI":"虎尾里","LIN":"22鄰","STREET":"東成街","SECT":" ","MAREA":" ","LANE":"１８２巷","ALLEY":"２弄","HOUSE_NO":"６號","E_COORD97":171738.06,"N_COORD97":2542276.4199999999,"ADDRESS":"東成街１８２巷２弄６號","OBJECTID":142060},"geometry":{"x":171738.05999999959,"y":2542276.4200000018}},{"attributes":{"ID":142061,"DIS_CODE":0,"TOWNNAME":"東區","LI":"虎尾里","LIN":"22鄰","STREET":"東成街","SECT":" ","MAREA":" ","LANE":"１８２巷","ALLEY":"２弄","HOUSE_NO":"８號","E_COORD97":171729.5,"N_COORD97":2542275.1699999999,"ADDRESS":"東成街１８２巷２弄８號","OBJECTID":142061},"geometry":{"x":171729.50000000093,"y":2542275.1700000018}},{"attributes":{"ID":142062,"DIS_CODE":0,"TOWNNAME":"永康區","LI":"復興里","LIN":"22鄰","STREET":"復興路","SECT":" ","MAREA":" ","LANE":"２４６巷","ALLEY":"１１弄","HOUSE_NO":"１６號","E_COORD97":172377.37,"N_COORD97":2544451.2799999998,"ADDRESS":"復興路２４６巷１１弄１６號","OBJECTID":142062},"geometry":{"x":172377.37000000011,"y":2544451.2799999993}},{"attributes":{"ID":142063,"DIS_CODE":0,"TOWNNAME":"永康區","LI":"崑山里","LIN":"18鄰","STREET":"大灣路","SECT":" ","MAREA":" ","LANE":"９４２巷","ALLEY":"３４弄","HOUSE_NO":"９號","E_COORD97":173679.12,"N_COORD97":2544538.2400000002,"ADDRESS":"大灣路９４２巷３４弄９號","OBJECTID":142063},"geometry":{"x":173679.12000000011,"y":2544538.2400000039}},{"attributes":{"ID":142064,"DIS_CODE":0,"TOWNNAME":"永康區","LI":"埔園里","LIN":"18鄰","STREET":"龍埔街","SECT":" ","MAREA":" ","LANE":"４６７巷","ALLEY":"２８弄","HOUSE_NO":"１１號","E_COORD97":173548.54000000001,"N_COORD97":2548232.7400000002,"ADDRESS":"龍埔街４６７巷２８弄１１號","OBJECTID":142064},"geometry":{"x":173548.54000000097,"y":2548232.7400000002}},{"attributes":{"ID":142065,"DIS_CODE":0,"TOWNNAME":"永康區","LI":"復興里","LIN":"22鄰","STREET":"復興路","SECT":" ","MAREA":" ","LANE":"２４６巷","ALLEY":"２７弄","HOUSE_NO":"１７號","E_COORD97":172359.48000000001,"N_COORD97":2544475.6699999999,"ADDRESS":"復興路２４６巷２７弄１７號","OBJECTID":142065},"geometry":{"x":172359.48000000138,"y":2544475.6699999999}},{"attributes":{"ID":142066,"DIS_CODE":0,"TOWNNAME":"永康區","LI":"復國里","LIN":"22鄰","STREET":"復華六街","SECT":" ","MAREA":" ","LANE":"９３巷","ALLEY":"２０弄","HOUSE_NO":"２號","E_COORD97":172594.16,"N_COORD97":2545801.3399999999,"ADDRESS":"復華六街９３巷２０弄２號","OBJECTID":142066},"geometry":{"x":172594.16000000015,"y":2545801.3399999999}},{"attributes":{"ID":142067,"DIS_CODE":0,"TOWNNAME":"永康區","LI":"復國里","LIN":"22鄰","STREET":"復華六街","SECT":" ","MAREA":" ","LANE":"９３巷","ALLEY":"１１弄","HOUSE_NO":"１０號","E_COORD97":172640.31,"N_COORD97":2545769.2400000002,"ADDRESS":"復華六街９３巷１１弄１０號","OBJECTID":142067},"geometry":{"x":172640.31000000145,"y":2545769.2400000021}},{"attributes":{"ID":142068,"DIS_CODE":0,"TOWNNAME":"永康區","LI":"復興里","LIN":"22鄰","STREET":"復興路","SECT":" ","MAREA":" ","LANE":"２４６巷","ALLEY":"２７弄","HOUSE_NO":"４３號","E_COORD97":172340.07000000001,"N_COORD97":2544483.3799999999,"ADDRESS":"復興路２４６巷２７弄４３號","OBJECTID":142068},"geometry":{"x":172340.07000000123,"y":2544483.379999999}},{"attributes":{"ID":142069,"DIS_CODE":0,"TOWNNAME":"永康區","LI":"復興里","LIN":"22鄰","STREET":"復興路","SECT":" ","MAREA":" ","LANE":"２４６巷","ALLEY":"１１弄","HOUSE_NO":"２４號","E_COORD97":172356.38,"N_COORD97":2544441.6099999999,"ADDRESS":"復興路２４６巷１１弄２４號","OBJECTID":142069},"geometry":{"x":172356.37999999989,"y":2544441.6099999994}},{"attributes":{"ID":142070,"DIS_CODE":0,"TOWNNAME":"永康區","LI":"大橋里","LIN":"22鄰","STREET":"大橋一街","SECT":" ","MAREA":" ","LANE":"１３９巷","ALLEY":"２２弄","HOUSE_NO":"３２號","E_COORD97":171081.28,"N_COORD97":2546558.7000000002,"ADDRESS":"大橋一街１３９巷２２弄３２號","OBJECTID":142070},"geometry":{"x":171081.28000000026,"y":2546558.7000000011}},{"attributes":{"ID":142071,"DIS_CODE":0,"TOWNNAME":"永康區","LI":"二王里","LIN":"22鄰","STREET":"中山南路","SECT":" ","MAREA":" ","LANE":"５６８巷","ALLEY":"１弄","HOUSE_NO":"３７號","E_COORD97":172325.69,"N_COORD97":2546606.3599999999,"ADDRESS":"中山南路５６８巷１弄３７號","OBJECTID":142071},"geometry":{"x":172325.69000000134,"y":2546606.3599999994}},{"attributes":{"ID":142072,"DIS_CODE":0,"TOWNNAME":"永康區","LI":"勝利里","LIN":"22鄰","STREET":"勝華街","SECT":" ","MAREA":" ","LANE":"３７巷","ALLEY":"３７弄","HOUSE_NO":"２５號","E_COORD97":171488.45999999999,"N_COORD97":2545174.5099999998,"ADDRESS":"勝華街３７巷３７弄２５號","OBJECTID":142072},"geometry":{"x":171488.45999999996,"y":2545174.5100000016}},{"attributes":{"ID":142073,"DIS_CODE":0,"TOWNNAME":"永康區","LI":"二王里","LIN":"22鄰","STREET":"中山南路","SECT":" ","MAREA":" ","LANE":"５６８巷","ALLEY":"１弄","HOUSE_NO":"１９號","E_COORD97":172293.56,"N_COORD97":2546583.1099999999,"ADDRESS":"中山南路５６８巷１弄１９號","OBJECTID":142073},"geometry":{"x":172293.56000000052,"y":2546583.1100000013}},{"attributes":{"ID":142074,"DIS_CODE":0,"TOWNNAME":"東區","LI":"衛國里","LIN":"22鄰","STREET":"衛國街","SECT":" ","MAREA":" ","LANE":"１１４巷","ALLEY":"９弄","HOUSE_NO":"１０號","E_COORD97":170498.67000000001,"N_COORD97":2543179.52,"ADDRESS":"衛國街１１４巷９弄１０號","OBJECTID":142074},"geometry":{"x":170498.66999999993,"y":2543179.5200000033}},{"attributes":{"ID":142075,"DIS_CODE":0,"TOWNNAME":"東區","LI":"衛國里","LIN":"22鄰","STREET":"衛國街","SECT":" ","MAREA":" ","LANE":"１１４巷","ALLEY":"９弄","HOUSE_NO":"１０號之１","E_COORD97":170505.57000000001,"N_COORD97":2543180.6000000001,"ADDRESS":"衛國街１１４巷９弄１０號之１","OBJECTID":142075},"geometry":{"x":170505.57000000123,"y":2543180.6000000015}},{"attributes":{"ID":142076,"DIS_CODE":0,"TOWNNAME":"東山區","LI":"東原里","LIN":" ","STREET":" ","SECT":" ","MAREA":"班芝花坑","LANE":" ","ALLEY":" ","HOUSE_NO":"２８號","E_COORD97":192269.73999999999,"N_COORD97":2575737.6499999999,"ADDRESS":"班芝花坑２８號","OBJECTID":142076},"geometry":{"x":192269.74000000022,"y":2575737.6500000022}},{"attributes":{"ID":142077,"DIS_CODE":0,"TOWNNAME":"東山區","LI":"東原里","LIN":" ","STREET":" ","SECT":" ","MAREA":"班芝花坑","LANE":" ","ALLEY":" ","HOUSE_NO":"２之２號","E_COORD97":192439.60000000001,"N_COORD97":2574472.0299999998,"ADDRESS":"班芝花坑２之２號","OBJECTID":142077},"geometry":{"x":192439.59999999963,"y":2574472.0299999993}},{"attributes":{"ID":142078,"DIS_CODE":0,"TOWNNAME":"東山區","LI":"東原里","LIN":" ","STREET":" ","SECT":" ","MAREA":"班芝花坑","LANE":" ","ALLEY":" ","HOUSE_NO":"３３之３號","E_COORD97":192739.82000000001,"N_COORD97":2575811.2000000002,"ADDRESS":"班芝花坑３３之３號","OBJECTID":142078},"geometry":{"x":192739.82000000123,"y":2575811.2000000011}},{"attributes":{"ID":142079,"DIS_CODE":0,"TOWNNAME":"學甲區","LI":"三慶里","LIN":"30鄰","STREET":" ","SECT":" ","MAREA":"新芳","LANE":" ","ALLEY":" ","HOUSE_NO":"５９號","E_COORD97":167277.82999999999,"N_COORD97":2575281.3900000001,"ADDRESS":"新芳５９號","OBJECTID":142079},"geometry":{"x":167277.83000000101,"y":2575281.3900000043}},{"attributes":{"ID":142080,"DIS_CODE":0,"TOWNNAME":"永康區","LI":"五王里","LIN":"33鄰","STREET":"五福街","SECT":" ","MAREA":" ","LANE":" ","ALLEY":" ","HOUSE_NO":"２１號四樓之９","E_COORD97":171308.73000000001,"N_COORD97":2545881.79,"ADDRESS":"五福街２１號四樓之９","OBJECTID":142080},"geometry":{"x":171308.73000000045,"y":2545881.7899999991}},{"attributes":{"ID":142081,"DIS_CODE":0,"TOWNNAME":"永康區","LI":"五王里","LIN":"33鄰","STREET":"五福街","SECT":" ","MAREA":" ","LANE":" ","ALLEY":" ","HOUSE_NO":"２１號四樓之１７","E_COORD97":171309.97,"N_COORD97":2545881.79,"ADDRESS":"五福街２１號四樓之１７","OBJECTID":142081},"geometry":{"x":171309.96999999974,"y":2545881.7899999991}},{"attributes":{"ID":142082,"DIS_CODE":0,"TOWNNAME":"永康區","LI":"五王里","LIN":"33鄰","STREET":"五福街","SECT":" ","MAREA":" ","LANE":" ","ALLEY":" ","HOUSE_NO":"２１號三樓之１","E_COORD97":171308.64000000001,"N_COORD97":2545881.79,"ADDRESS":"五福街２１號三樓之１","OBJECTID":142082},"geometry":{"x":171308.63999999966,"y":2545881.7899999991}},{"attributes":{"ID":142083,"DIS_CODE":0,"TOWNNAME":"永康區","LI":"五王里","LIN":"33鄰","STREET":"五福街","SECT":" ","MAREA":" ","LANE":" ","ALLEY":" ","HOUSE_NO":"２１號四樓之８","E_COORD97":171308.79000000001,"N_COORD97":2545881.79,"ADDRESS":"五福街２１號四樓之８","OBJECTID":142083},"geometry":{"x":171308.79000000097,"y":2545881.7899999991}},{"attributes":{"ID":142084,"DIS_CODE":0,"TOWNNAME":"東區","LI":"衛國里","LIN":"22鄰","STREET":"衛國街","SECT":" ","MAREA":" ","LANE":"１１４巷","ALLEY":"９弄","HOUSE_NO":"１０號之２","E_COORD97":170505.17000000001,"N_COORD97":2543187.4900000002,"ADDRESS":"衛國街１１４巷９弄１０號之２","OBJECTID":142084},"geometry":{"x":170505.16999999993,"y":2543187.4900000021}},{"attributes":{"ID":142085,"DIS_CODE":0,"TOWNNAME":"永康區","LI":"五王里","LIN":"33鄰","STREET":"五福街","SECT":" ","MAREA":" ","LANE":" ","ALLEY":" ","HOUSE_NO":"２１號四樓之１６","E_COORD97":171310,"N_COORD97":2545881.79,"ADDRESS":"五福街２１號四樓之１６","OBJECTID":142085},"geometry":{"x":171310,"y":2545881.7899999991}},{"attributes":{"ID":142086,"DIS_CODE":0,"TOWNNAME":"東區","LI":"衛國里","LIN":"22鄰","STREET":"衛國街","SECT":" ","MAREA":" ","LANE":"１１４巷","ALLEY":"９弄","HOUSE_NO":"１０號之３","E_COORD97":170501.85000000001,"N_COORD97":2543195.29,"ADDRESS":"衛國街１１４巷９弄１０號之３","OBJECTID":142086},"geometry":{"x":170501.84999999963,"y":2543195.290000001}},{"attributes":{"ID":142087,"DIS_CODE":0,"TOWNNAME":"東區","LI":"衛國里","LIN":"22鄰","STREET":"衛國街","SECT":" ","MAREA":" ","LANE":"１１４巷","ALLEY":"９弄","HOUSE_NO":"６號","E_COORD97":170488.10999999999,"N_COORD97":2543177.6200000001,"ADDRESS":"衛國街１１４巷９弄６號","OBJECTID":142087},"geometry":{"x":170488.11000000127,"y":2543177.6200000029}},{"attributes":{"ID":142088,"DIS_CODE":0,"TOWNNAME":"東區","LI":"衛國里","LIN":"22鄰","STREET":"衛國街","SECT":" ","MAREA":" ","LANE":"１１４巷","ALLEY":"９弄","HOUSE_NO":"８號","E_COORD97":170491.48999999999,"N_COORD97":2543178.5699999998,"ADDRESS":"衛國街１１４巷９弄８號","OBJECTID":142088},"geometry":{"x":170491.49000000022,"y":2543178.5700000003}},{"attributes":{"ID":142089,"DIS_CODE":0,"TOWNNAME":"東區","LI":"衛國里","LIN":"22鄰","STREET":"衛國街","SECT":" ","MAREA":" ","LANE":"１１４巷","ALLEY":"９弄","HOUSE_NO":"１０號之４","E_COORD97":170491.88,"N_COORD97":2543194.71,"ADDRESS":"衛國街１１４巷９弄１０號之４","OBJECTID":142089},"geometry":{"x":170491.87999999989,"y":2543194.7100000028}},{"attributes":{"ID":142090,"DIS_CODE":0,"TOWNNAME":"永康區","LI":"神洲里","LIN":"15鄰","STREET":"忠孝路","SECT":" ","MAREA":" ","LANE":"７６巷","ALLEY":"６３弄","HOUSE_NO":"３５號","E_COORD97":172161.45000000001,"N_COORD97":2545019.2799999998,"ADDRESS":"忠孝路７６巷６３弄３５號","OBJECTID":142090},"geometry":{"x":172161.45000000019,"y":2545019.2800000012}},{"attributes":{"ID":142091,"DIS_CODE":0,"TOWNNAME":"永康區","LI":"崑山里","LIN":"12鄰","STREET":"大灣路","SECT":" ","MAREA":" ","LANE":"１１０２巷","ALLEY":"１７弄","HOUSE_NO":"１３６號","E_COORD97":173389.94,"N_COORD97":2544613.5,"ADDRESS":"大灣路１１０２巷１７弄１３６號","OBJECTID":142091},"geometry":{"x":173389.94000000134,"y":2544613.5}},{"attributes":{"ID":142092,"DIS_CODE":0,"TOWNNAME":"永康區","LI":"崑山里","LIN":"27鄰","STREET":"大灣路","SECT":" ","MAREA":" ","LANE":"１１０２巷","ALLEY":"１７弄","HOUSE_NO":"１０１號","E_COORD97":173411.26000000001,"N_COORD97":2544762.5,"ADDRESS":"大灣路１１０２巷１７弄１０１號","OBJECTID":142092},"geometry":{"x":173411.26000000071,"y":2544762.5}},{"attributes":{"ID":142093,"DIS_CODE":0,"TOWNNAME":"永康區","LI":"大橋里","LIN":"22鄰","STREET":"大橋一街","SECT":" ","MAREA":" ","LANE":"１３９巷","ALLEY":"２２弄","HOUSE_NO":"４８號","E_COORD97":171082.67999999999,"N_COORD97":2546579.9500000002,"ADDRESS":"大橋一街１３９巷２２弄４８號","OBJECTID":142093},"geometry":{"x":171082.6799999997,"y":2546579.9499999974}},{"attributes":{"ID":142094,"DIS_CODE":0,"TOWNNAME":"中西區","LI":"光賢里","LIN":"22鄰","STREET":"武聖路","SECT":" ","MAREA":" ","LANE":"２３９巷","ALLEY":"２８弄","HOUSE_NO":"１６號","E_COORD97":166762.39999999999,"N_COORD97":2545239.5499999998,"ADDRESS":"武聖路２３９巷２８弄１６號","OBJECTID":142094},"geometry":{"x":166762.4000000013,"y":2545239.5500000026}},{"attributes":{"ID":142095,"DIS_CODE":0,"TOWNNAME":"永康區","LI":"五王里","LIN":"33鄰","STREET":"五福街","SECT":" ","MAREA":" ","LANE":" ","ALLEY":" ","HOUSE_NO":"２１號五樓之６","E_COORD97":171308.75,"N_COORD97":2545881.79,"ADDRESS":"五福街２１號五樓之６","OBJECTID":142095},"geometry":{"x":171308.75000000186,"y":2545881.7899999991}},{"attributes":{"ID":142096,"DIS_CODE":0,"TOWNNAME":"東山區","LI":"東原里","LIN":" ","STREET":" ","SECT":" ","MAREA":"班芝花坑","LANE":" ","ALLEY":" ","HOUSE_NO":"３４之１號","E_COORD97":192747.84,"N_COORD97":2575782.8599999999,"ADDRESS":"班芝花坑３４之１號","OBJECTID":142096},"geometry":{"x":192747.84000000078,"y":2575782.8600000013}},{"attributes":{"ID":142097,"DIS_CODE":0,"TOWNNAME":"東山區","LI":"東原里","LIN":" ","STREET":" ","SECT":" ","MAREA":"班芝花坑","LANE":" ","ALLEY":" ","HOUSE_NO":"３５之１號","E_COORD97":192753.17999999999,"N_COORD97":2575770.6099999999,"ADDRESS":"班芝花坑３５之１號","OBJECTID":142097},"geometry":{"x":192753.18000000063,"y":2575770.6100000031}},{"attributes":{"ID":142098,"DIS_CODE":0,"TOWNNAME":"東山區","LI":"東原里","LIN":" ","STREET":" ","SECT":" ","MAREA":"班芝花坑","LANE":" ","ALLEY":" ","HOUSE_NO":"３之３號","E_COORD97":192464.57000000001,"N_COORD97":2574986.5099999998,"ADDRESS":"班芝花坑３之３號","OBJECTID":142098},"geometry":{"x":192464.57000000216,"y":2574986.5100000016}},{"attributes":{"ID":142099,"DIS_CODE":0,"TOWNNAME":"東山區","LI":"東原里","LIN":" ","STREET":" ","SECT":" ","MAREA":"班芝花坑","LANE":" ","ALLEY":" ","HOUSE_NO":"９之１號","E_COORD97":192574.20999999999,"N_COORD97":2575751.2200000002,"ADDRESS":"班芝花坑９之１號","OBJECTID":142099},"geometry":{"x":192574.21000000089,"y":2575751.2200000025}},{"attributes":{"ID":142100,"DIS_CODE":0,"TOWNNAME":"東山區","LI":"高原里","LIN":" ","STREET":" ","SECT":" ","MAREA":"高原","LANE":" ","ALLEY":" ","HOUSE_NO":"１００之４號","E_COORD97":199932.85999999999,"N_COORD97":2575950.7200000002,"ADDRESS":"高原１００之４號","OBJECTID":142100},"geometry":{"x":199932.86000000034,"y":2575950.7200000044}},{"attributes":{"ID":142101,"DIS_CODE":0,"TOWNNAME":"東山區","LI":"高原里","LIN":" ","STREET":" ","SECT":" ","MAREA":"高原","LANE":" ","ALLEY":" ","HOUSE_NO":"１０２之４號","E_COORD97":200130.09,"N_COORD97":2576330.8700000001,"ADDRESS":"高原１０２之４號","OBJECTID":142101},"geometry":{"x":200130.09000000078,"y":2576330.8700000029}},{"attributes":{"ID":142102,"DIS_CODE":0,"TOWNNAME":"東山區","LI":"高原里","LIN":" ","STREET":" ","SECT":" ","MAREA":"高原","LANE":" ","ALLEY":" ","HOUSE_NO":"１０９之９號","E_COORD97":199568.64000000001,"N_COORD97":2575418.6200000001,"ADDRESS":"高原１０９之９號","OBJECTID":142102},"geometry":{"x":199568.6400000006,"y":2575418.620000001}},{"attributes":{"ID":142103,"DIS_CODE":0,"TOWNNAME":"東山區","LI":"高原里","LIN":" ","STREET":" ","SECT":" ","MAREA":"高原","LANE":" ","ALLEY":" ","HOUSE_NO":"１１２之２號","E_COORD97":195810.31,"N_COORD97":2575397.54,"ADDRESS":"高原１１２之２號","OBJECTID":142103},"geometry":{"x":195810.31000000052,"y":2575397.5400000028}},{"attributes":{"ID":142104,"DIS_CODE":0,"TOWNNAME":"東山區","LI":"高原里","LIN":" ","STREET":" ","SECT":" ","MAREA":"高原","LANE":" ","ALLEY":" ","HOUSE_NO":"１１４之１號","E_COORD97":195869.64000000001,"N_COORD97":2575438.8399999999,"ADDRESS":"高原１１４之１號","OBJECTID":142104},"geometry":{"x":195869.6400000006,"y":2575438.8399999999}},{"attributes":{"ID":142105,"DIS_CODE":0,"TOWNNAME":"東山區","LI":"高原里","LIN":" ","STREET":" ","SECT":" ","MAREA":"高原","LANE":" ","ALLEY":" ","HOUSE_NO":"１１６之１號","E_COORD97":195844.34,"N_COORD97":2575412.3700000001,"ADDRESS":"高原１１６之１號","OBJECTID":142105},"geometry":{"x":195844.34000000078,"y":2575412.3700000029}},{"attributes":{"ID":142106,"DIS_CODE":0,"TOWNNAME":"東山區","LI":"高原里","LIN":" ","STREET":" ","SECT":" ","MAREA":"高原","LANE":" ","ALLEY":" ","HOUSE_NO":"１２０號","E_COORD97":195827,"N_COORD97":2575366.75,"ADDRESS":"高原１２０號","OBJECTID":142106},"geometry":{"x":195827.00000000093,"y":2575366.7500000037}},{"attributes":{"ID":142107,"DIS_CODE":0,"TOWNNAME":"東山區","LI":"高原里","LIN":" ","STREET":" ","SECT":" ","MAREA":"高原","LANE":" ","ALLEY":" ","HOUSE_NO":"１３０號","E_COORD97":195803.54000000001,"N_COORD97":2575364.3599999999,"ADDRESS":"高原１３０號","OBJECTID":142107},"geometry":{"x":195803.54000000004,"y":2575364.3599999994}},{"attributes":{"ID":142108,"DIS_CODE":0,"TOWNNAME":"東山區","LI":"高原里","LIN":" ","STREET":" ","SECT":" ","MAREA":"高原","LANE":" ","ALLEY":" ","HOUSE_NO":"１３２號","E_COORD97":195908.97,"N_COORD97":2575524.8300000001,"ADDRESS":"高原１３２號","OBJECTID":142108},"geometry":{"x":195908.96999999974,"y":2575524.8300000001}},{"attributes":{"ID":142109,"DIS_CODE":0,"TOWNNAME":"東山區","LI":"高原里","LIN":" ","STREET":" ","SECT":" ","MAREA":"高原","LANE":" ","ALLEY":" ","HOUSE_NO":"１３３號","E_COORD97":195912.12,"N_COORD97":2575528.4100000001,"ADDRESS":"高原１３３號","OBJECTID":142109},"geometry":{"x":195912.12000000197,"y":2575528.4100000039}},{"attributes":{"ID":142110,"DIS_CODE":0,"TOWNNAME":"東山區","LI":"高原里","LIN":" ","STREET":" ","SECT":" ","MAREA":"高原","LANE":" ","ALLEY":" ","HOUSE_NO":"１３４號","E_COORD97":195915.26999999999,"N_COORD97":2575531.9900000002,"ADDRESS":"高原１３４號","OBJECTID":142110},"geometry":{"x":195915.26999999955,"y":2575531.9900000021}},{"attributes":{"ID":142111,"DIS_CODE":0,"TOWNNAME":"東山區","LI":"高原里","LIN":" ","STREET":" ","SECT":" ","MAREA":"高原","LANE":" ","ALLEY":" ","HOUSE_NO":"１６之６號","E_COORD97":195929.25,"N_COORD97":2575584.6299999999,"ADDRESS":"高原１６之６號","OBJECTID":142111},"geometry":{"x":195929.25,"y":2575584.6300000008}},{"attributes":{"ID":142112,"DIS_CODE":0,"TOWNNAME":"永康區","LI":"五王里","LIN":"33鄰","STREET":"五福街","SECT":" ","MAREA":" ","LANE":" ","ALLEY":" ","HOUSE_NO":"２１號五樓之７","E_COORD97":171308.72,"N_COORD97":2545881.79,"ADDRESS":"五福街２１號五樓之７","OBJECTID":142112},"geometry":{"x":171308.7200000016,"y":2545881.7899999991}},{"attributes":{"ID":142113,"DIS_CODE":0,"TOWNNAME":"永康區","LI":"五王里","LIN":"33鄰","STREET":"五福街","SECT":" ","MAREA":" ","LANE":" ","ALLEY":" ","HOUSE_NO":"２１號三樓之１６","E_COORD97":171310,"N_COORD97":2545881.79,"ADDRESS":"五福街２１號三樓之１６","OBJECTID":142113},"geometry":{"x":171310,"y":2545881.7899999991}},{"attributes":{"ID":142114,"DIS_CODE":0,"TOWNNAME":"東山區","LI":"高原里","LIN":" ","STREET":" ","SECT":" ","MAREA":"高原","LANE":" ","ALLEY":" ","HOUSE_NO":"１６之９號","E_COORD97":195923.51999999999,"N_COORD97":2575578.3799999999,"ADDRESS":"高原１６之９號","OBJECTID":142114},"geometry":{"x":195923.51999999955,"y":2575578.3800000027}},{"attributes":{"ID":142115,"DIS_CODE":0,"TOWNNAME":"中西區","LI":"光賢里","LIN":"22鄰","STREET":"武聖路","SECT":" ","MAREA":" ","LANE":"２３９巷","ALLEY":"２８弄","HOUSE_NO":"１８號","E_COORD97":166756.63,"N_COORD97":2545241.3300000001,"ADDRESS":"武聖路２３９巷２８弄１８號","OBJECTID":142115},"geometry":{"x":166756.63000000082,"y":2545241.3300000001}},{"attributes":{"ID":142116,"DIS_CODE":0,"TOWNNAME":"中西區","LI":"光賢里","LIN":"22鄰","STREET":"武聖路","SECT":" ","MAREA":" ","LANE":"２３９巷","ALLEY":"２８弄","HOUSE_NO":"２０號","E_COORD97":166752.19,"N_COORD97":2545241.77,"ADDRESS":"武聖路２３９巷２８弄２０號","OBJECTID":142116},"geometry":{"x":166752.19000000041,"y":2545241.7699999996}},{"attributes":{"ID":142117,"DIS_CODE":0,"TOWNNAME":"中西區","LI":"光賢里","LIN":"22鄰","STREET":"武聖路","SECT":" ","MAREA":" ","LANE":"２３９巷","ALLEY":"２８弄","HOUSE_NO":"２２號","E_COORD97":166748.19,"N_COORD97":2545243.1000000001,"ADDRESS":"武聖路２３９巷２８弄２２號","OBJECTID":142117},"geometry":{"x":166748.19000000134,"y":2545243.0999999996}},{"attributes":{"ID":142118,"DIS_CODE":0,"TOWNNAME":"中西區","LI":"光賢里","LIN":"22鄰","STREET":"武聖路","SECT":" ","MAREA":" ","LANE":"２３９巷","ALLEY":"２８弄","HOUSE_NO":"２４號","E_COORD97":166732.64999999999,"N_COORD97":2545247.98,"ADDRESS":"武聖路２３９巷２８弄２４號","OBJECTID":142118},"geometry":{"x":166732.64999999944,"y":2545247.9800000004}},{"attributes":{"ID":142119,"DIS_CODE":0,"TOWNNAME":"中西區","LI":"光賢里","LIN":"22鄰","STREET":"武聖路","SECT":" ","MAREA":" ","LANE":"２３９巷","ALLEY":"２８弄","HOUSE_NO":"２６號","E_COORD97":166728.20999999999,"N_COORD97":2545247.98,"ADDRESS":"武聖路２３９巷２８弄２６號","OBJECTID":142119},"geometry":{"x":166728.20999999996,"y":2545247.9800000004}},{"attributes":{"ID":142120,"DIS_CODE":0,"TOWNNAME":"仁德區","LI":"仁義里","LIN":"34鄰","STREET":"正義三街","SECT":" ","MAREA":" ","LANE":" ","ALLEY":" ","HOUSE_NO":"１２２號","E_COORD97":173695.54999999999,"N_COORD97":2541614.2599999998,"ADDRESS":"正義三街１２２號","OBJECTID":142120},"geometry":{"x":173695.55000000075,"y":2541614.2599999998}},{"attributes":{"ID":142121,"DIS_CODE":0,"TOWNNAME":"東區","LI":"東明里","LIN":"33鄰","STREET":"怡東路","SECT":" ","MAREA":" ","LANE":" ","ALLEY":" ","HOUSE_NO":"３４號七樓","E_COORD97":170855.89999999999,"N_COORD97":2543538.3799999999,"ADDRESS":"怡東路３４號七樓","OBJECTID":142121},"geometry":{"x":170855.9000000013,"y":2543538.379999999}},{"attributes":{"ID":142122,"DIS_CODE":0,"TOWNNAME":"東山區","LI":"高原里","LIN":" ","STREET":" ","SECT":" ","MAREA":"高原","LANE":" ","ALLEY":" ","HOUSE_NO":"２０之３號","E_COORD97":196015.5,"N_COORD97":2575708.2999999998,"ADDRESS":"高原２０之３號","OBJECTID":142122},"geometry":{"x":196015.5,"y":2575708.3000000007}},{"attributes":{"ID":142123,"DIS_CODE":0,"TOWNNAME":"東山區","LI":"高原里","LIN":" ","STREET":" ","SECT":" ","MAREA":"高原","LANE":" ","ALLEY":" ","HOUSE_NO":"２１號","E_COORD97":195986.5,"N_COORD97":2575741.52,"ADDRESS":"高原２１號","OBJECTID":142123},"geometry":{"x":195986.5,"y":2575741.5200000014}},{"attributes":{"ID":142124,"DIS_CODE":0,"TOWNNAME":"東山區","LI":"高原里","LIN":" ","STREET":" ","SECT":" ","MAREA":"高原","LANE":" ","ALLEY":" ","HOUSE_NO":"３０之４號","E_COORD97":195607.59,"N_COORD97":2576203.1000000001,"ADDRESS":"高原３０之４號","OBJECTID":142124},"geometry":{"x":195607.59000000078,"y":2576203.0999999996}},{"attributes":{"ID":142125,"DIS_CODE":0,"TOWNNAME":"東山區","LI":"高原里","LIN":" ","STREET":" ","SECT":" ","MAREA":"高原","LANE":" ","ALLEY":" ","HOUSE_NO":"３１之１號","E_COORD97":195092.39000000001,"N_COORD97":2576426.52,"ADDRESS":"高原３１之１號","OBJECTID":142125},"geometry":{"x":195092.38999999966,"y":2576426.5200000014}},{"attributes":{"ID":142126,"DIS_CODE":0,"TOWNNAME":"東山區","LI":"高原里","LIN":" ","STREET":" ","SECT":" ","MAREA":"高原","LANE":" ","ALLEY":" ","HOUSE_NO":"５６之５號","E_COORD97":196824.84,"N_COORD97":2575664.3799999999,"ADDRESS":"高原５６之５號","OBJECTID":142126},"geometry":{"x":196824.83999999985,"y":2575664.3800000008}},{"attributes":{"ID":142127,"DIS_CODE":0,"TOWNNAME":"東山區","LI":"高原里","LIN":" ","STREET":" ","SECT":" ","MAREA":"高原","LANE":" ","ALLEY":" ","HOUSE_NO":"５６之６號","E_COORD97":196824.70000000001,"N_COORD97":2575659.48,"ADDRESS":"高原５６之６號","OBJECTID":142127},"geometry":{"x":196824.70000000019,"y":2575659.4800000004}},{"attributes":{"ID":142128,"DIS_CODE":0,"TOWNNAME":"東山區","LI":"高原里","LIN":" ","STREET":" ","SECT":" ","MAREA":"高原","LANE":" ","ALLEY":" ","HOUSE_NO":"５６之７號","E_COORD97":196824.56,"N_COORD97":2575654.5899999999,"ADDRESS":"高原５６之７號","OBJECTID":142128},"geometry":{"x":196824.56000000052,"y":2575654.5899999999}},{"attributes":{"ID":142129,"DIS_CODE":0,"TOWNNAME":"東山區","LI":"高原里","LIN":" ","STREET":" ","SECT":" ","MAREA":"高原","LANE":" ","ALLEY":" ","HOUSE_NO":"５６之８號","E_COORD97":196824.42999999999,"N_COORD97":2575649.6899999999,"ADDRESS":"高原５６之８號","OBJECTID":142129},"geometry":{"x":196824.4299999997,"y":2575649.6899999995}},{"attributes":{"ID":142130,"DIS_CODE":0,"TOWNNAME":"東山區","LI":"高原里","LIN":" ","STREET":" ","SECT":" ","MAREA":"高原","LANE":" ","ALLEY":" ","HOUSE_NO":"７５號","E_COORD97":198466.84,"N_COORD97":2576616.1000000001,"ADDRESS":"高原７５號","OBJECTID":142130},"geometry":{"x":198466.84000000078,"y":2576616.1000000015}},{"attributes":{"ID":142131,"DIS_CODE":0,"TOWNNAME":"東山區","LI":"高原里","LIN":" ","STREET":" ","SECT":" ","MAREA":"高原","LANE":" ","ALLEY":" ","HOUSE_NO":"８４之１０號","E_COORD97":198955.82999999999,"N_COORD97":2576741.1899999999,"ADDRESS":"高原８４之１０號","OBJECTID":142131},"geometry":{"x":198955.83000000101,"y":2576741.1900000013}},{"attributes":{"ID":142132,"DIS_CODE":0,"TOWNNAME":"東山區","LI":"高原里","LIN":" ","STREET":" ","SECT":" ","MAREA":"高原","LANE":" ","ALLEY":" ","HOUSE_NO":"８９號","E_COORD97":199252.04000000001,"N_COORD97":2576027.2599999998,"ADDRESS":"高原８９號","OBJECTID":142132},"geometry":{"x":199252.0400000019,"y":2576027.2599999979}},{"attributes":{"ID":142133,"DIS_CODE":0,"TOWNNAME":"東山區","LI":"高原里","LIN":" ","STREET":" ","SECT":" ","MAREA":"高原","LANE":" ","ALLEY":" ","HOUSE_NO":"９５之１號","E_COORD97":199722.98999999999,"N_COORD97":2576003.0699999998,"ADDRESS":"高原９５之１號","OBJECTID":142133},"geometry":{"x":199722.99000000022,"y":2576003.0700000022}},{"attributes":{"ID":142134,"DIS_CODE":0,"TOWNNAME":"東山區","LI":"高原里","LIN":" ","STREET":" ","SECT":" ","MAREA":"高原","LANE":" ","ALLEY":" ","HOUSE_NO":"９６之６號","E_COORD97":199698.14999999999,"N_COORD97":2575947.6899999999,"ADDRESS":"高原９６之６號","OBJECTID":142134},"geometry":{"x":199698.1500000013,"y":2575947.6900000013}},{"attributes":{"ID":142135,"DIS_CODE":0,"TOWNNAME":"東山區","LI":"高原里","LIN":" ","STREET":" ","SECT":" ","MAREA":"高原","LANE":" ","ALLEY":" ","HOUSE_NO":"９８之５號","E_COORD97":199706.54999999999,"N_COORD97":2576023.02,"ADDRESS":"高原９８之５號","OBJECTID":142135},"geometry":{"x":199706.55000000075,"y":2576023.0200000014}},{"attributes":{"ID":142136,"DIS_CODE":0,"TOWNNAME":"東山區","LI":"高原里","LIN":" ","STREET":" ","SECT":" ","MAREA":"高原","LANE":" ","ALLEY":" ","HOUSE_NO":"９９之１號","E_COORD97":199761.06,"N_COORD97":2575974.1899999999,"ADDRESS":"高原９９之１號","OBJECTID":142136},"geometry":{"x":199761.05999999959,"y":2575974.1900000013}},{"attributes":{"ID":142137,"DIS_CODE":0,"TOWNNAME":"東山區","LI":"三榮里","LIN":" ","STREET":" ","SECT":" ","MAREA":"許秀才","LANE":" ","ALLEY":" ","HOUSE_NO":"２３之１號","E_COORD97":187246.10000000001,"N_COORD97":2579273.1400000001,"ADDRESS":"許秀才２３之１號","OBJECTID":142137},"geometry":{"x":187246.10000000056,"y":2579273.1400000006}},{"attributes":{"ID":142138,"DIS_CODE":0,"TOWNNAME":"東山區","LI":"東中里","LIN":" ","STREET":" ","SECT":" ","MAREA":"鳳尾厝","LANE":" ","ALLEY":" ","HOUSE_NO":"３９之２號","E_COORD97":188972.85000000001,"N_COORD97":2579619.0099999998,"ADDRESS":"鳳尾厝３９之２號","OBJECTID":142138},"geometry":{"x":188972.84999999963,"y":2579619.0099999998}},{"attributes":{"ID":142139,"DIS_CODE":0,"TOWNNAME":"東山區","LI":"東中里","LIN":" ","STREET":" ","SECT":" ","MAREA":"鳳尾厝","LANE":" ","ALLEY":" ","HOUSE_NO":"４１號","E_COORD97":189005.01999999999,"N_COORD97":2579047.48,"ADDRESS":"鳳尾厝４１號","OBJECTID":142139},"geometry":{"x":189005.02000000048,"y":2579047.4800000042}},{"attributes":{"ID":142140,"DIS_CODE":0,"TOWNNAME":"東山區","LI":"東中里","LIN":" ","STREET":" ","SECT":" ","MAREA":"鳳尾厝","LANE":" ","ALLEY":" ","HOUSE_NO":"４之１號","E_COORD97":188787.25,"N_COORD97":2579747.6299999999,"ADDRESS":"鳳尾厝４之１號","OBJECTID":142140},"geometry":{"x":188787.25,"y":2579747.6300000008}},{"attributes":{"ID":142141,"DIS_CODE":0,"TOWNNAME":"安定區","LI":"保西里","LIN":" ","STREET":" ","SECT":" ","MAREA":"安定","LANE":" ","ALLEY":" ","HOUSE_NO":"４４５號","E_COORD97":171765.42000000001,"N_COORD97":2557939.3199999998,"ADDRESS":"安定４４５號","OBJECTID":142141},"geometry":{"x":171765.42000000086,"y":2557939.3200000003}},{"attributes":{"ID":142142,"DIS_CODE":0,"TOWNNAME":"安定區","LI":"新吉里","LIN":" ","STREET":" ","SECT":" ","MAREA":"新吉","LANE":" ","ALLEY":" ","HOUSE_NO":"９５號","E_COORD97":169297.26999999999,"N_COORD97":2553944.25,"ADDRESS":"新吉９５號","OBJECTID":142142},"geometry":{"x":169297.26999999955,"y":2553944.2500000019}},{"attributes":{"ID":142143,"DIS_CODE":0,"TOWNNAME":"安定區","LI":"大同里","LIN":"14鄰","STREET":" ","SECT":" ","MAREA":"牛肉寮","LANE":" ","ALLEY":" ","HOUSE_NO":"８１號","E_COORD97":170923.62,"N_COORD97":2552861.2999999998,"ADDRESS":"牛肉寮８０之１號","OBJECTID":142143},"geometry":{"x":170923.62000000104,"y":2552861.3000000007}},{"attributes":{"ID":142144,"DIS_CODE":0,"TOWNNAME":"仁德區","LI":"三甲里","LIN":" ","STREET":" ","SECT":" ","MAREA":"三甲子","LANE":" ","ALLEY":" ","HOUSE_NO":"５３之１號","E_COORD97":171975.54999999999,"N_COORD97":2536660.54,"ADDRESS":"三甲子５３之１號","OBJECTID":142144},"geometry":{"x":171975.54999999981,"y":2536660.540000001}},{"attributes":{"ID":142145,"DIS_CODE":0,"TOWNNAME":"仁德區","LI":"三甲里","LIN":" ","STREET":" ","SECT":" ","MAREA":"三甲子","LANE":" ","ALLEY":" ","HOUSE_NO":"１２之１號","E_COORD97":171912.95000000001,"N_COORD97":2537086.2999999998,"ADDRESS":"三甲子１２之１號","OBJECTID":142145},"geometry":{"x":171912.95000000112,"y":2537086.3000000045}},{"attributes":{"ID":142146,"DIS_CODE":0,"TOWNNAME":"新市區","LI":"大營里","LIN":"7鄰","STREET":" ","SECT":" ","MAREA":"大營","LANE":" ","ALLEY":" ","HOUSE_NO":"１５６之１８號","E_COORD97":179501.48999999999,"N_COORD97":2555408.0499999998,"ADDRESS":"大營１５６之１８號","OBJECTID":142146},"geometry":{"x":179501.49000000022,"y":2555408.0500000007}},{"attributes":{"ID":142147,"DIS_CODE":0,"TOWNNAME":"仁德區","LI":"中生里","LIN":"13鄰","STREET":" ","SECT":" ","MAREA":"中洲","LANE":" ","ALLEY":" ","HOUSE_NO":"２１６號","E_COORD97":173098.26000000001,"N_COORD97":2534083,"ADDRESS":"中洲２１６號","OBJECTID":142147},"geometry":{"x":173098.25999999978,"y":2534083}},{"attributes":{"ID":142148,"DIS_CODE":0,"TOWNNAME":"新市區","LI":"大營里","LIN":"7鄰","STREET":" ","SECT":" ","MAREA":"大營","LANE":" ","ALLEY":" ","HOUSE_NO":"１５６之１５號","E_COORD97":179488.26000000001,"N_COORD97":2555402.2999999998,"ADDRESS":"大營１５６之１５號","OBJECTID":142148},"geometry":{"x":179488.26000000071,"y":2555402.3000000026}},{"attributes":{"ID":142149,"DIS_CODE":0,"TOWNNAME":"新市區","LI":"三舍里","LIN":"7鄰","STREET":" ","SECT":" ","MAREA":"三舍","LANE":" ","ALLEY":" ","HOUSE_NO":"１７９之１５號","E_COORD97":177455.64000000001,"N_COORD97":2554813.5499999998,"ADDRESS":"三舍１７９之１５號","OBJECTID":142149},"geometry":{"x":177455.63999999966,"y":2554813.5500000026}},{"attributes":{"ID":142150,"DIS_CODE":0,"TOWNNAME":"新市區","LI":"大營里","LIN":"15鄰","STREET":" ","SECT":" ","MAREA":"大營","LANE":" ","ALLEY":" ","HOUSE_NO":"２８１之５號","E_COORD97":179053.62,"N_COORD97":2555431.7999999998,"ADDRESS":"大營２８１之５號","OBJECTID":142150},"geometry":{"x":179053.62000000104,"y":2555431.8000000045}},{"attributes":{"ID":142151,"DIS_CODE":0,"TOWNNAME":"新市區","LI":"大營里","LIN":"15鄰","STREET":" ","SECT":" ","MAREA":"大營","LANE":" ","ALLEY":" ","HOUSE_NO":"２８１之２８號","E_COORD97":179047.87,"N_COORD97":2555519.5499999998,"ADDRESS":"大營２８１之２８號","OBJECTID":142151},"geometry":{"x":179047.87000000011,"y":2555519.5500000026}},{"attributes":{"ID":142152,"DIS_CODE":0,"TOWNNAME":"新市區","LI":"大營里","LIN":"1鄰","STREET":" ","SECT":" ","MAREA":"大營","LANE":" ","ALLEY":" ","HOUSE_NO":"１０之４號","E_COORD97":179793.98999999999,"N_COORD97":2555584.7999999998,"ADDRESS":"大營１０之４號","OBJECTID":142152},"geometry":{"x":179793.99000000115,"y":2555584.8000000026}},{"attributes":{"ID":142153,"DIS_CODE":0,"TOWNNAME":"新市區","LI":"永就里","LIN":"4鄰","STREET":" ","SECT":" ","MAREA":"永就","LANE":" ","ALLEY":" ","HOUSE_NO":"４５之１號","E_COORD97":178522.03,"N_COORD97":2551563.7999999998,"ADDRESS":"永就４５之１號","OBJECTID":142153},"geometry":{"x":178522.03000000119,"y":2551563.8000000026}},{"attributes":{"ID":142154,"DIS_CODE":0,"TOWNNAME":"新市區","LI":"永就里","LIN":"4鄰","STREET":" ","SECT":" ","MAREA":"永就","LANE":" ","ALLEY":" ","HOUSE_NO":"４４之１號","E_COORD97":178473.45999999999,"N_COORD97":2551559.2999999998,"ADDRESS":"永就４４之１號","OBJECTID":142154},"geometry":{"x":178473.46000000089,"y":2551559.3000000007}},{"attributes":{"ID":142155,"DIS_CODE":0,"TOWNNAME":"新市區","LI":"永就里","LIN":"4鄰","STREET":" ","SECT":" ","MAREA":"永就","LANE":" ","ALLEY":" ","HOUSE_NO":"４１之２號","E_COORD97":178449.14000000001,"N_COORD97":2551502.0499999998,"ADDRESS":"永就４１之２號","OBJECTID":142155},"geometry":{"x":178449.13999999873,"y":2551502.0500000026}},{"attributes":{"ID":142156,"DIS_CODE":0,"TOWNNAME":"新市區","LI":"永就里","LIN":"4鄰","STREET":" ","SECT":" ","MAREA":"永就","LANE":" ","ALLEY":" ","HOUSE_NO":"３９之６號","E_COORD97":178518.92000000001,"N_COORD97":2551493.7999999998,"ADDRESS":"永就３９之６號","OBJECTID":142156},"geometry":{"x":178518.92000000179,"y":2551493.8000000007}},{"attributes":{"ID":142157,"DIS_CODE":0,"TOWNNAME":"新市區","LI":"大營里","LIN":"5鄰","STREET":" ","SECT":" ","MAREA":"大營","LANE":" ","ALLEY":" ","HOUSE_NO":"８２之４號","E_COORD97":179552.34,"N_COORD97":2555448.5499999998,"ADDRESS":"大營８２之４號","OBJECTID":142157},"geometry":{"x":179552.34000000078,"y":2555448.5500000026}},{"attributes":{"ID":142158,"DIS_CODE":0,"TOWNNAME":"新市區","LI":"大社里","LIN":"25鄰","STREET":" ","SECT":" ","MAREA":"大社","LANE":" ","ALLEY":" ","HOUSE_NO":"９１８之８號","E_COORD97":179934.88,"N_COORD97":2554051.2999999998,"ADDRESS":"大社９１８之８號","OBJECTID":142158},"geometry":{"x":179934.88000000082,"y":2554051.3000000007}},{"attributes":{"ID":142159,"DIS_CODE":0,"TOWNNAME":"新市區","LI":"永就里","LIN":"4鄰","STREET":" ","SECT":" ","MAREA":"永就","LANE":" ","ALLEY":" ","HOUSE_NO":"３９之２號","E_COORD97":178515.12,"N_COORD97":2551478.0499999998,"ADDRESS":"永就３９之２號","OBJECTID":142159},"geometry":{"x":178515.12000000104,"y":2551478.0500000026}},{"attributes":{"ID":142160,"DIS_CODE":0,"TOWNNAME":"新市區","LI":"潭頂里","LIN":" ","STREET":" ","SECT":" ","MAREA":"潭頂","LANE":" ","ALLEY":" ","HOUSE_NO":"１８２號","E_COORD97":180842.51000000001,"N_COORD97":2552895.5,"ADDRESS":"潭頂１８２號","OBJECTID":142160},"geometry":{"x":180842.51000000071,"y":2552895.5}},{"attributes":{"ID":142161,"DIS_CODE":0,"TOWNNAME":"新市區","LI":"潭頂里","LIN":" ","STREET":" ","SECT":" ","MAREA":"潭頂","LANE":" ","ALLEY":" ","HOUSE_NO":"１６６號","E_COORD97":180922.75,"N_COORD97":2552892.75,"ADDRESS":"潭頂１６６號","OBJECTID":142161},"geometry":{"x":180922.75000000093,"y":2552892.7500000019}},{"attributes":{"ID":142162,"DIS_CODE":0,"TOWNNAME":"新市區","LI":"永就里","LIN":"4鄰","STREET":" ","SECT":" ","MAREA":"永就","LANE":" ","ALLEY":" ","HOUSE_NO":"３９之１２號","E_COORD97":178489.67000000001,"N_COORD97":2551509.0499999998,"ADDRESS":"永就３９之１２號","OBJECTID":142162},"geometry":{"x":178489.66999999993,"y":2551509.0500000007}},{"attributes":{"ID":142163,"DIS_CODE":0,"TOWNNAME":"新市區","LI":"永就里","LIN":"4鄰","STREET":" ","SECT":" ","MAREA":"永就","LANE":" ","ALLEY":" ","HOUSE_NO":"３９之８號","E_COORD97":178519.39999999999,"N_COORD97":2551501.2999999998,"ADDRESS":"永就３９之８號","OBJECTID":142163},"geometry":{"x":178519.40000000224,"y":2551501.3000000007}},{"attributes":{"ID":142164,"DIS_CODE":0,"TOWNNAME":"新市區","LI":"永就里","LIN":"4鄰","STREET":" ","SECT":" ","MAREA":"永就","LANE":" ","ALLEY":" ","HOUSE_NO":"３９之９號","E_COORD97":178519.45000000001,"N_COORD97":2551505.5499999998,"ADDRESS":"永就３９之９號","OBJECTID":142164},"geometry":{"x":178519.45000000112,"y":2551505.5500000026}},{"attributes":{"ID":142165,"DIS_CODE":0,"TOWNNAME":"新市區","LI":"永就里","LIN":"4鄰","STREET":" ","SECT":" ","MAREA":"永就","LANE":" ","ALLEY":" ","HOUSE_NO":"３９之１３號","E_COORD97":178493.54000000001,"N_COORD97":2551508.7999999998,"ADDRESS":"永就３９之１３號","OBJECTID":142165},"geometry":{"x":178493.54000000097,"y":2551508.7999999989}},{"attributes":{"ID":142166,"DIS_CODE":0,"TOWNNAME":"新市區","LI":"永就里","LIN":"4鄰","STREET":" ","SECT":" ","MAREA":"永就","LANE":" ","ALLEY":" ","HOUSE_NO":"４０之１號","E_COORD97":178477.35999999999,"N_COORD97":2551496.7999999998,"ADDRESS":"永就４０之１號","OBJECTID":142166},"geometry":{"x":178477.3600000022,"y":2551496.8000000026}},{"attributes":{"ID":142167,"DIS_CODE":0,"TOWNNAME":"山上區","LI":"山上里","LIN":" ","STREET":" ","SECT":" ","MAREA":"山上","LANE":" ","ALLEY":" ","HOUSE_NO":"１５８之２號","E_COORD97":184120.81,"N_COORD97":2555680.2999999998,"ADDRESS":"山上１５８之２號","OBJECTID":142167},"geometry":{"x":184120.81000000052,"y":2555680.3000000026}},{"attributes":{"ID":142168,"DIS_CODE":0,"TOWNNAME":"山上區","LI":"山上里","LIN":" ","STREET":" ","SECT":" ","MAREA":"山上","LANE":" ","ALLEY":" ","HOUSE_NO":"２６號","E_COORD97":184300.35999999999,"N_COORD97":2555328.25,"ADDRESS":"山上２６號","OBJECTID":142168},"geometry":{"x":184300.3600000022,"y":2555328.25}},{"attributes":{"ID":142169,"DIS_CODE":0,"TOWNNAME":"新市區","LI":"社內里","LIN":"8鄰","STREET":" ","SECT":" ","MAREA":"社內","LANE":" ","ALLEY":" ","HOUSE_NO":"８２號之２","E_COORD97":176513.69,"N_COORD97":2553009.7999999998,"ADDRESS":"社內８２號之２","OBJECTID":142169},"geometry":{"x":176513.68999999948,"y":2553009.8000000007}},{"attributes":{"ID":142170,"DIS_CODE":0,"TOWNNAME":"山上區","LI":"山上里","LIN":" ","STREET":" ","SECT":" ","MAREA":"山上","LANE":" ","ALLEY":" ","HOUSE_NO":"４０之１７號","E_COORD97":184052.10999999999,"N_COORD97":2555336.2999999998,"ADDRESS":"山上４０之１７號","OBJECTID":142170},"geometry":{"x":184052.11000000034,"y":2555336.3000000007}},{"attributes":{"ID":142171,"DIS_CODE":0,"TOWNNAME":"山上區","LI":"明和里","LIN":" ","STREET":" ","SECT":" ","MAREA":"明和","LANE":" ","ALLEY":" ","HOUSE_NO":"１５７號","E_COORD97":183305.23999999999,"N_COORD97":2556140.25,"ADDRESS":"明和１５７號","OBJECTID":142171},"geometry":{"x":183305.24000000022,"y":2556140.2500000019}},{"attributes":{"ID":142172,"DIS_CODE":0,"TOWNNAME":"山上區","LI":"明和里","LIN":" ","STREET":" ","SECT":" ","MAREA":"北勢洲","LANE":" ","ALLEY":" ","HOUSE_NO":"５２之１號","E_COORD97":181755.34,"N_COORD97":2556641.2999999998,"ADDRESS":"北勢洲５２之１號","OBJECTID":142172},"geometry":{"x":181755.34000000171,"y":2556641.3000000007}},{"attributes":{"ID":142173,"DIS_CODE":0,"TOWNNAME":"山上區","LI":"南洲里","LIN":" ","STREET":" ","SECT":" ","MAREA":"南洲","LANE":" ","ALLEY":" ","HOUSE_NO":"３７７號","E_COORD97":183759.23999999999,"N_COORD97":2555843.25,"ADDRESS":"南洲３７７號","OBJECTID":142173},"geometry":{"x":183759.24000000115,"y":2555843.25}},{"attributes":{"ID":142174,"DIS_CODE":0,"TOWNNAME":"山上區","LI":"南洲里","LIN":" ","STREET":" ","SECT":" ","MAREA":"南洲","LANE":" ","ALLEY":" ","HOUSE_NO":"１３２號","E_COORD97":183789.14000000001,"N_COORD97":2555782.25,"ADDRESS":"南洲１３２號","OBJECTID":142174},"geometry":{"x":183789.14000000153,"y":2555782.25}},{"attributes":{"ID":142175,"DIS_CODE":0,"TOWNNAME":"山上區","LI":"南洲里","LIN":" ","STREET":" ","SECT":" ","MAREA":"南洲","LANE":" ","ALLEY":" ","HOUSE_NO":"１０７號","E_COORD97":183918.34,"N_COORD97":2555746.25,"ADDRESS":"南洲１０７號","OBJECTID":142175},"geometry":{"x":183918.33999999892,"y":2555746.2499999981}},{"attributes":{"ID":142176,"DIS_CODE":0,"TOWNNAME":"中西區","LI":"光賢里","LIN":"22鄰","STREET":"武聖路","SECT":" ","MAREA":" ","LANE":"２３９巷","ALLEY":"２８弄","HOUSE_NO":"２號","E_COORD97":166766.84,"N_COORD97":2545238.6600000001,"ADDRESS":"武聖路２３９巷２８弄２號","OBJECTID":142176},"geometry":{"x":166766.84000000078,"y":2545238.660000002}},{"attributes":{"ID":142177,"DIS_CODE":0,"TOWNNAME":"山上區","LI":"南洲里","LIN":" ","STREET":" ","SECT":" ","MAREA":"南洲","LANE":" ","ALLEY":" ","HOUSE_NO":"１８０之１號","E_COORD97":183810.34,"N_COORD97":2555637.2999999998,"ADDRESS":"南洲１８０之１號","OBJECTID":142177},"geometry":{"x":183810.34000000078,"y":2555637.3000000007}},{"attributes":{"ID":142178,"DIS_CODE":0,"TOWNNAME":"山上區","LI":"山上里","LIN":" ","STREET":" ","SECT":" ","MAREA":"山上","LANE":" ","ALLEY":" ","HOUSE_NO":"２７號","E_COORD97":184316.35999999999,"N_COORD97":2555341.25,"ADDRESS":"山上２７號","OBJECTID":142178},"geometry":{"x":184316.36000000127,"y":2555341.2500000019}},{"attributes":{"ID":142179,"DIS_CODE":0,"TOWNNAME":"山上區","LI":"南洲里","LIN":" ","STREET":" ","SECT":" ","MAREA":"南洲","LANE":" ","ALLEY":" ","HOUSE_NO":"４２號","E_COORD97":183985.98999999999,"N_COORD97":2555590.25,"ADDRESS":"南洲４２號","OBJECTID":142179},"geometry":{"x":183985.99000000115,"y":2555590.25}},{"attributes":{"ID":142180,"DIS_CODE":0,"TOWNNAME":"山上區","LI":"平陽里","LIN":"5鄰","STREET":" ","SECT":" ","MAREA":"卓猴","LANE":" ","ALLEY":" ","HOUSE_NO":"１之１號","E_COORD97":186899.96431000001,"N_COORD97":2553178.70279,"ADDRESS":"卓猴１之１號","OBJECTID":142180},"geometry":{"x":186899.96431000158,"y":2553178.7027880009}},{"attributes":{"ID":142181,"DIS_CODE":0,"TOWNNAME":"山上區","LI":"明和里","LIN":" ","STREET":" ","SECT":" ","MAREA":"北勢洲","LANE":" ","ALLEY":" ","HOUSE_NO":"９２號","E_COORD97":182096.44,"N_COORD97":2555873.29,"ADDRESS":"北勢洲９２號","OBJECTID":142181},"geometry":{"x":182096.44000000134,"y":2555873.2899999991}},{"attributes":{"ID":142182,"DIS_CODE":0,"TOWNNAME":"山上區","LI":"南洲里","LIN":" ","STREET":" ","SECT":" ","MAREA":"南洲","LANE":" ","ALLEY":" ","HOUSE_NO":"８７之５號","E_COORD97":183855.98999999999,"N_COORD97":2555728.2999999998,"ADDRESS":"南洲８７之５號","OBJECTID":142182},"geometry":{"x":183855.99000000022,"y":2555728.3000000007}},{"attributes":{"ID":142183,"DIS_CODE":0,"TOWNNAME":"東區","LI":"東明里","LIN":"33鄰","STREET":"怡東路","SECT":" ","MAREA":" ","LANE":" ","ALLEY":" ","HOUSE_NO":"３４號四樓之１","E_COORD97":170855.89999999999,"N_COORD97":2543538.3799999999,"ADDRESS":"怡東路３４號四樓之１","OBJECTID":142183},"geometry":{"x":170855.9000000013,"y":2543538.379999999}},{"attributes":{"ID":142184,"DIS_CODE":0,"TOWNNAME":"東區","LI":"東明里","LIN":"33鄰","STREET":"怡東路","SECT":" ","MAREA":" ","LANE":" ","ALLEY":" ","HOUSE_NO":"３４號四樓之２","E_COORD97":170855.89999999999,"N_COORD97":2543538.3799999999,"ADDRESS":"怡東路３４號四樓之２","OBJECTID":142184},"geometry":{"x":170855.9000000013,"y":2543538.379999999}},{"attributes":{"ID":142185,"DIS_CODE":0,"TOWNNAME":"東區","LI":"東明里","LIN":"33鄰","STREET":"怡東路","SECT":" ","MAREA":" ","LANE":" ","ALLEY":" ","HOUSE_NO":"３４號四樓之３","E_COORD97":170855.89999999999,"N_COORD97":2543538.3799999999,"ADDRESS":"怡東路３４號四樓之３","OBJECTID":142185},"geometry":{"x":170855.9000000013,"y":2543538.379999999}},{"attributes":{"ID":142186,"DIS_CODE":0,"TOWNNAME":"中西區","LI":"光賢里","LIN":"22鄰","STREET":"武聖路","SECT":" ","MAREA":" ","LANE":"２３９巷","ALLEY":"２８弄","HOUSE_NO":"３０號","E_COORD97":166720.67000000001,"N_COORD97":2545251.9700000002,"ADDRESS":"武聖路２３９巷２８弄３０號","OBJECTID":142186},"geometry":{"x":166720.67000000086,"y":2545251.9700000007}},{"attributes":{"ID":142187,"DIS_CODE":0,"TOWNNAME":"中西區","LI":"光賢里","LIN":"22鄰","STREET":"武聖路","SECT":" ","MAREA":" ","LANE":"２３９巷","ALLEY":"２８弄","HOUSE_NO":"３２號","E_COORD97":166712.67000000001,"N_COORD97":2545251.52,"ADDRESS":"武聖路２３９巷２８弄３２號","OBJECTID":142187},"geometry":{"x":166712.67000000086,"y":2545251.5200000014}},{"attributes":{"ID":142188,"DIS_CODE":0,"TOWNNAME":"中西區","LI":"光賢里","LIN":"22鄰","STREET":"武聖路","SECT":" ","MAREA":" ","LANE":"２３９巷","ALLEY":"２８弄","HOUSE_NO":"３４號","E_COORD97":166704.67999999999,"N_COORD97":2545252.4100000001,"ADDRESS":"武聖路２３９巷２８弄３４號","OBJECTID":142188},"geometry":{"x":166704.68000000156,"y":2545252.4100000039}},{"attributes":{"ID":142189,"DIS_CODE":0,"TOWNNAME":"永康區","LI":"大橋里","LIN":"22鄰","STREET":"大橋一街","SECT":" ","MAREA":" ","LANE":"１３９巷","ALLEY":"２２弄","HOUSE_NO":"５０號","E_COORD97":171078.45000000001,"N_COORD97":2546585.9500000002,"ADDRESS":"大橋一街１３９巷２２弄５０號","OBJECTID":142189},"geometry":{"x":171078.45000000019,"y":2546585.9499999993}},{"attributes":{"ID":142190,"DIS_CODE":0,"TOWNNAME":"永康區","LI":"勝利里","LIN":"25鄰","STREET":"中華路","SECT":" ","MAREA":" ","LANE":"１５５巷","ALLEY":"３４弄","HOUSE_NO":"６號","E_COORD97":171446.85000000001,"N_COORD97":2544845.4900000002,"ADDRESS":"中華路１５５巷３４弄６號","OBJECTID":142190},"geometry":{"x":171446.85000000056,"y":2544845.4900000021}},{"attributes":{"ID":142191,"DIS_CODE":0,"TOWNNAME":"永康區","LI":"復華里","LIN":"22鄰","STREET":"國華街","SECT":" ","MAREA":" ","LANE":"１３２巷","ALLEY":"２弄","HOUSE_NO":"５號","E_COORD97":172764.25,"N_COORD97":2546137,"ADDRESS":"國華街１３２巷２弄５號","OBJECTID":142191},"geometry":{"x":172764.25,"y":2546137.0000000019}},{"attributes":{"ID":142192,"DIS_CODE":0,"TOWNNAME":"永康區","LI":"復國里","LIN":"22鄰","STREET":"復華六街","SECT":" ","MAREA":" ","LANE":"９３巷","ALLEY":"１１弄","HOUSE_NO":"２４號","E_COORD97":172668.85000000001,"N_COORD97":2545770.7400000002,"ADDRESS":"復華六街９３巷１１弄２４號","OBJECTID":142192},"geometry":{"x":172668.85000000149,"y":2545770.7400000002}},{"attributes":{"ID":142193,"DIS_CODE":0,"TOWNNAME":"永康區","LI":"勝利里","LIN":"18鄰","STREET":"中華一路","SECT":" ","MAREA":" ","LANE":"３５０巷","ALLEY":"２弄","HOUSE_NO":"３號","E_COORD97":171147.94,"N_COORD97":2545036.9900000002,"ADDRESS":"中華一路３５０巷２弄３號","OBJECTID":142193},"geometry":{"x":171147.94000000041,"y":2545036.9900000002}},{"attributes":{"ID":142194,"DIS_CODE":0,"TOWNNAME":"永康區","LI":"崑山里","LIN":"10鄰","STREET":"崑大路","SECT":" ","MAREA":" ","LANE":"２０１巷","ALLEY":"２８弄","HOUSE_NO":"１６號","E_COORD97":173258.32000000001,"N_COORD97":2544237.25,"ADDRESS":"崑大路２０１巷２８弄１６號","OBJECTID":142194},"geometry":{"x":173258.32000000123,"y":2544237.2500000019}},{"attributes":{"ID":142195,"DIS_CODE":0,"TOWNNAME":"永康區","LI":"烏竹里","LIN":"16鄰","STREET":"自強路","SECT":" ","MAREA":" ","LANE":"９２５巷","ALLEY":"１１弄","HOUSE_NO":"１號","E_COORD97":174753.44,"N_COORD97":2548867.4900000002,"ADDRESS":"自強路９２５巷１１弄１號","OBJECTID":142195},"geometry":{"x":174753.44000000041,"y":2548867.4900000021}},{"attributes":{"ID":142196,"DIS_CODE":0,"TOWNNAME":"永康區","LI":"復華里","LIN":"22鄰","STREET":"國華街","SECT":" ","MAREA":" ","LANE":"１３２巷","ALLEY":"２弄","HOUSE_NO":"１１號","E_COORD97":172778.84,"N_COORD97":2546125,"ADDRESS":"國華街１３２巷２弄１１號","OBJECTID":142196},"geometry":{"x":172778.83999999985,"y":2546125}},{"attributes":{"ID":142197,"DIS_CODE":0,"TOWNNAME":"永康區","LI":"烏竹里","LIN":"18鄰","STREET":"自強路","SECT":" ","MAREA":" ","LANE":"７７３巷","ALLEY":"５弄","HOUSE_NO":"１５號","E_COORD97":174431.84,"N_COORD97":2548558.6299999999,"ADDRESS":"自強路７７３巷５弄１５號","OBJECTID":142197},"geometry":{"x":174431.83999999985,"y":2548558.6300000027}},{"attributes":{"ID":142198,"DIS_CODE":0,"TOWNNAME":"永康區","LI":"烏竹里","LIN":"18鄰","STREET":"自強路","SECT":" ","MAREA":" ","LANE":"７７３巷","ALLEY":"５弄","HOUSE_NO":"２７號","E_COORD97":174405.20999999999,"N_COORD97":2548539.1299999999,"ADDRESS":"自強路７７３巷５弄２７號","OBJECTID":142198},"geometry":{"x":174405.21000000089,"y":2548539.1300000008}},{"attributes":{"ID":142199,"DIS_CODE":0,"TOWNNAME":"山上區","LI":"山上里","LIN":" ","STREET":" ","SECT":" ","MAREA":"山上","LANE":" ","ALLEY":" ","HOUSE_NO":"１１１號","E_COORD97":184250.81,"N_COORD97":2555724.25,"ADDRESS":"山上１１１號","OBJECTID":142199},"geometry":{"x":184250.81000000052,"y":2555724.2500000019}},{"attributes":{"ID":142200,"DIS_CODE":0,"TOWNNAME":"山上區","LI":"玉\u25A0里","LIN":"2鄰","STREET":" ","SECT":" ","MAREA":"蚵\u25A0潭","LANE":" ","ALLEY":" ","HOUSE_NO":"２１之３號","E_COORD97":187356.32000000001,"N_COORD97":2555775.2999999998,"ADDRESS":"蚵\u25A0潭２１之３號","OBJECTID":142200},"geometry":{"x":187356.3200000003,"y":2555775.3000000026}}]}