{"displayFieldName":"TOWNNAME","fieldAliases":{"ID":"ID","DIS_CODE":"DIS_CODE","TOWNNAME":"TOWNNAME","LI":"LI","LIN":"LIN","STREET":"STREET","SECT":"SECT","MAREA":"MAREA","LANE":"LANE","ALLEY":"ALLEY","HOUSE_NO":"HOUSE_NO","E_COORD97":"E_COORD97","N_COORD97":"N_COORD97","ADDRESS":"ADDRESS","OBJECTID":"OBJECTID"},"geometryType":"esriGeometryPoint","spatialReference":{"wkid":102443,"latestWkid":3826},"fields":[{"name":"ID","type":"esriFieldTypeDouble","alias":"ID"},{"name":"DIS_CODE","type":"esriFieldTypeInteger","alias":"DIS_CODE"},{"name":"TOWNNAME","type":"esriFieldTypeString","alias":"TOWNNAME","length":8},{"name":"LI","type":"esriFieldTypeString","alias":"LI","length":8},{"name":"LIN","type":"esriFieldTypeString","alias":"LIN","length":12},{"name":"STREET","type":"esriFieldTypeString","alias":"STREET","length":20},{"name":"SECT","type":"esriFieldTypeString","alias":"SECT","length":8},{"name":"MAREA","type":"esriFieldTypeString","alias":"MAREA","length":12},{"name":"LANE","type":"esriFieldTypeString","alias":"LANE","length":10},{"name":"ALLEY","type":"esriFieldTypeString","alias":"ALLEY","length":10},{"name":"HOUSE_NO","type":"esriFieldTypeString","alias":"HOUSE_NO","length":20},{"name":"E_COORD97","type":"esriFieldTypeDouble","alias":"E_COORD97"},{"name":"N_COORD97","type":"esriFieldTypeDouble","alias":"N_COORD97"},{"name":"ADDRESS","type":"esriFieldTypeString","alias":"ADDRESS","length":50},{"name":"OBJECTID","type":"esriFieldTypeOID","alias":"OBJECTID"}],"features":[{"attributes":{"ID":98401,"DIS_CODE":0,"TOWNNAME":"南區","LI":"明亮里","LIN":"21鄰","STREET":"金華路","SECT":"一段","MAREA":" ","LANE":"３５２巷","ALLEY":"３４弄","HOUSE_NO":"９號","E_COORD97":167118.95999999999,"N_COORD97":2541119.1600000001,"ADDRESS":"金華路一段３５２巷３４弄９號","OBJECTID":98401},"geometry":{"x":167118.96000000089,"y":2541119.160000002}},{"attributes":{"ID":98402,"DIS_CODE":0,"TOWNNAME":"學甲區","LI":"豐和里","LIN":"10鄰","STREET":" ","SECT":" ","MAREA":"美豐","LANE":" ","ALLEY":" ","HOUSE_NO":"７８號之１","E_COORD97":168100.73999999999,"N_COORD97":2568627.8300000001,"ADDRESS":"美豐７８號之１","OBJECTID":98402},"geometry":{"x":168100.74000000115,"y":2568627.8300000001}},{"attributes":{"ID":98403,"DIS_CODE":0,"TOWNNAME":"學甲區","LI":"豐和里","LIN":"10鄰","STREET":" ","SECT":" ","MAREA":"美豐","LANE":" ","ALLEY":" ","HOUSE_NO":"７８號","E_COORD97":168121.34,"N_COORD97":2568619.8300000001,"ADDRESS":"美豐７８號","OBJECTID":98403},"geometry":{"x":168121.34000000078,"y":2568619.8300000019}},{"attributes":{"ID":98404,"DIS_CODE":0,"TOWNNAME":"學甲區","LI":"豐和里","LIN":"10鄰","STREET":" ","SECT":" ","MAREA":"美豐","LANE":" ","ALLEY":" ","HOUSE_NO":"７９號之１","E_COORD97":168100.35999999999,"N_COORD97":2568598.6299999999,"ADDRESS":"美豐７９號之１","OBJECTID":98404},"geometry":{"x":168100.36000000034,"y":2568598.629999999}},{"attributes":{"ID":98405,"DIS_CODE":0,"TOWNNAME":"學甲區","LI":"豐和里","LIN":"10鄰","STREET":" ","SECT":" ","MAREA":"美豐","LANE":" ","ALLEY":" ","HOUSE_NO":"７９號之２","E_COORD97":168130.26999999999,"N_COORD97":2568564.8100000001,"ADDRESS":"美豐７９號之２","OBJECTID":98405},"geometry":{"x":168130.27000000048,"y":2568564.8100000005}},{"attributes":{"ID":98406,"DIS_CODE":0,"TOWNNAME":"學甲區","LI":"豐和里","LIN":"10鄰","STREET":" ","SECT":" ","MAREA":"美豐","LANE":" ","ALLEY":" ","HOUSE_NO":"７９號之３","E_COORD97":168112.62,"N_COORD97":2568556.3799999999,"ADDRESS":"美豐７９號之３","OBJECTID":98406},"geometry":{"x":168112.62000000197,"y":2568556.379999999}},{"attributes":{"ID":98407,"DIS_CODE":0,"TOWNNAME":"學甲區","LI":"豐和里","LIN":"10鄰","STREET":" ","SECT":" ","MAREA":"美豐","LANE":" ","ALLEY":" ","HOUSE_NO":"７９號","E_COORD97":168124.63,"N_COORD97":2568602.6600000001,"ADDRESS":"美豐７９號","OBJECTID":98407},"geometry":{"x":168124.63000000082,"y":2568602.6600000001}},{"attributes":{"ID":98408,"DIS_CODE":0,"TOWNNAME":"學甲區","LI":"豐和里","LIN":"10鄰","STREET":" ","SECT":" ","MAREA":"美豐","LANE":" ","ALLEY":" ","HOUSE_NO":"８０號之１","E_COORD97":168087.13,"N_COORD97":2568646.5800000001,"ADDRESS":"美豐８０號之１","OBJECTID":98408},"geometry":{"x":168087.13000000082,"y":2568646.5800000001}},{"attributes":{"ID":98409,"DIS_CODE":0,"TOWNNAME":"學甲區","LI":"豐和里","LIN":"10鄰","STREET":" ","SECT":" ","MAREA":"美豐","LANE":" ","ALLEY":" ","HOUSE_NO":"８０號之３","E_COORD97":168091.29000000001,"N_COORD97":2568638.3500000001,"ADDRESS":"美豐８０號之３","OBJECTID":98409},"geometry":{"x":168091.29000000097,"y":2568638.3499999996}},{"attributes":{"ID":98410,"DIS_CODE":0,"TOWNNAME":"學甲區","LI":"豐和里","LIN":"10鄰","STREET":" ","SECT":" ","MAREA":"美豐","LANE":" ","ALLEY":" ","HOUSE_NO":"８０號之４","E_COORD97":168091.89000000001,"N_COORD97":2568634.2799999998,"ADDRESS":"美豐８０號之４","OBJECTID":98410},"geometry":{"x":168091.8900000006,"y":2568634.2799999993}},{"attributes":{"ID":98411,"DIS_CODE":0,"TOWNNAME":"南區","LI":"明亮里","LIN":"21鄰","STREET":"金華路","SECT":"一段","MAREA":" ","LANE":"３５２巷","ALLEY":"３４弄","HOUSE_NO":"１１號","E_COORD97":167122.95000000001,"N_COORD97":2541117.9399999999,"ADDRESS":"金華路一段３５２巷３４弄１１號","OBJECTID":98411},"geometry":{"x":167122.95000000112,"y":2541117.9399999995}},{"attributes":{"ID":98412,"DIS_CODE":0,"TOWNNAME":"南區","LI":"明亮里","LIN":"21鄰","STREET":"金華路","SECT":"一段","MAREA":" ","LANE":"３５２巷","ALLEY":"３４弄","HOUSE_NO":"１３號","E_COORD97":167126.64000000001,"N_COORD97":2541116.3999999999,"ADDRESS":"金華路一段３５２巷３４弄１３號","OBJECTID":98412},"geometry":{"x":167126.63999999966,"y":2541116.4000000041}},{"attributes":{"ID":98413,"DIS_CODE":0,"TOWNNAME":"北區","LI":"長德里","LIN":"1鄰","STREET":"公園南路","SECT":" ","MAREA":" ","LANE":"１５２巷","ALLEY":" ","HOUSE_NO":"１０號","E_COORD97":168680.10999999999,"N_COORD97":2544707.8199999998,"ADDRESS":"公園南路１５２巷１０號","OBJECTID":98413},"geometry":{"x":168680.11000000034,"y":2544707.8200000022}},{"attributes":{"ID":98414,"DIS_CODE":0,"TOWNNAME":"玉井區","LI":"玉田里","LIN":"15鄰","STREET":"民權路","SECT":" ","MAREA":" ","LANE":" ","ALLEY":" ","HOUSE_NO":"１５４號","E_COORD97":194519.39000000001,"N_COORD97":2557898.2799999998,"ADDRESS":"民權路１５４號","OBJECTID":98414},"geometry":{"x":194519.38999999966,"y":2557898.2799999975}},{"attributes":{"ID":98415,"DIS_CODE":0,"TOWNNAME":"玉井區","LI":"玉田里","LIN":"15鄰","STREET":"民權路","SECT":" ","MAREA":" ","LANE":" ","ALLEY":" ","HOUSE_NO":"１６４號","E_COORD97":194497.17999999999,"N_COORD97":2557902.29,"ADDRESS":"民權路１６４號","OBJECTID":98415},"geometry":{"x":194497.1799999997,"y":2557902.290000001}},{"attributes":{"ID":98416,"DIS_CODE":0,"TOWNNAME":"玉井區","LI":"玉田里","LIN":"15鄰","STREET":"民權路","SECT":" ","MAREA":" ","LANE":" ","ALLEY":" ","HOUSE_NO":"１６５號","E_COORD97":194400.17999999999,"N_COORD97":2557844.29,"ADDRESS":"民權路１６５號","OBJECTID":98416},"geometry":{"x":194400.1799999997,"y":2557844.290000001}},{"attributes":{"ID":98417,"DIS_CODE":0,"TOWNNAME":"北區","LI":"文元里","LIN":"15鄰","STREET":"文賢路","SECT":" ","MAREA":" ","LANE":" ","ALLEY":" ","HOUSE_NO":"１０００號之４","E_COORD97":167400.39999999999,"N_COORD97":2546012.6899999999,"ADDRESS":"文賢路１０００號之４","OBJECTID":98417},"geometry":{"x":167400.40000000037,"y":2546012.6900000032}},{"attributes":{"ID":98418,"DIS_CODE":0,"TOWNNAME":"學甲區","LI":"豐和里","LIN":"10鄰","STREET":" ","SECT":" ","MAREA":"美豐","LANE":" ","ALLEY":" ","HOUSE_NO":"８１號之１","E_COORD97":168065.03,"N_COORD97":2568640.4199999999,"ADDRESS":"美豐８１號之１","OBJECTID":98418},"geometry":{"x":168065.03000000119,"y":2568640.4200000018}},{"attributes":{"ID":98419,"DIS_CODE":0,"TOWNNAME":"學甲區","LI":"豐和里","LIN":"10鄰","STREET":" ","SECT":" ","MAREA":"美豐","LANE":" ","ALLEY":" ","HOUSE_NO":"８１號","E_COORD97":168066.67000000001,"N_COORD97":2568618,"ADDRESS":"美豐８１號","OBJECTID":98419},"geometry":{"x":168066.67000000086,"y":2568618.0000000037}},{"attributes":{"ID":98420,"DIS_CODE":0,"TOWNNAME":"學甲區","LI":"豐和里","LIN":"10鄰","STREET":" ","SECT":" ","MAREA":"美豐","LANE":" ","ALLEY":" ","HOUSE_NO":"８２號之１","E_COORD97":168077.34,"N_COORD97":2568582.6899999999,"ADDRESS":"美豐８２號之１","OBJECTID":98420},"geometry":{"x":168077.34000000078,"y":2568582.6900000013}},{"attributes":{"ID":98421,"DIS_CODE":0,"TOWNNAME":"學甲區","LI":"豐和里","LIN":"10鄰","STREET":" ","SECT":" ","MAREA":"美豐","LANE":" ","ALLEY":" ","HOUSE_NO":"８２號之２","E_COORD97":168069.88,"N_COORD97":2568558.3300000001,"ADDRESS":"美豐８２號之２","OBJECTID":98421},"geometry":{"x":168069.88000000175,"y":2568558.3300000038}},{"attributes":{"ID":98422,"DIS_CODE":0,"TOWNNAME":"北區","LI":"文元里","LIN":"15鄰","STREET":"文賢路","SECT":" ","MAREA":" ","LANE":" ","ALLEY":" ","HOUSE_NO":"１０００號之２","E_COORD97":167401.31069700001,"N_COORD97":2546003.5710800001,"ADDRESS":"文賢路１０００號之２","OBJECTID":98422},"geometry":{"x":167401.31069700141,"y":2546003.5710850023}},{"attributes":{"ID":98423,"DIS_CODE":0,"TOWNNAME":"學甲區","LI":"仁得里","LIN":"15鄰","STREET":"和平路","SECT":" ","MAREA":" ","LANE":" ","ALLEY":" ","HOUSE_NO":"２５５號","E_COORD97":165954.41,"N_COORD97":2570307.54,"ADDRESS":"和平路２５５號","OBJECTID":98423},"geometry":{"x":165954.41000000201,"y":2570307.5399999991}},{"attributes":{"ID":98424,"DIS_CODE":0,"TOWNNAME":"學甲區","LI":"仁得里","LIN":"15鄰","STREET":"和平路","SECT":" ","MAREA":" ","LANE":" ","ALLEY":" ","HOUSE_NO":"２５７號","E_COORD97":165955.56,"N_COORD97":2570312.23,"ADDRESS":"和平路２５７號","OBJECTID":98424},"geometry":{"x":165955.55999999959,"y":2570312.2300000042}},{"attributes":{"ID":98425,"DIS_CODE":0,"TOWNNAME":"鹽水區","LI":"水秀里","LIN":"1鄰","STREET":" ","SECT":" ","MAREA":"土庫","LANE":" ","ALLEY":" ","HOUSE_NO":"８之３號","E_COORD97":176252.38,"N_COORD97":2580317.1299999999,"ADDRESS":"土庫８之３號","OBJECTID":98425},"geometry":{"x":176252.37999999989,"y":2580317.1300000008}},{"attributes":{"ID":98426,"DIS_CODE":0,"TOWNNAME":"鹽水區","LI":"水秀里","LIN":"1鄰","STREET":" ","SECT":" ","MAREA":"土庫","LANE":" ","ALLEY":" ","HOUSE_NO":"８之５號","E_COORD97":176247.06,"N_COORD97":2580317.25,"ADDRESS":"土庫８之５號","OBJECTID":98426},"geometry":{"x":176247.05999999959,"y":2580317.2500000019}},{"attributes":{"ID":98427,"DIS_CODE":0,"TOWNNAME":"鹽水區","LI":"水秀里","LIN":"1鄰","STREET":" ","SECT":" ","MAREA":"土庫","LANE":" ","ALLEY":" ","HOUSE_NO":"８號之６","E_COORD97":176235.38,"N_COORD97":2580317.7200000002,"ADDRESS":"土庫８號之６","OBJECTID":98427},"geometry":{"x":176235.37999999989,"y":2580317.7200000044}},{"attributes":{"ID":98428,"DIS_CODE":0,"TOWNNAME":"鹽水區","LI":"水秀里","LIN":"1鄰","STREET":" ","SECT":" ","MAREA":"土庫","LANE":" ","ALLEY":" ","HOUSE_NO":"８號之７","E_COORD97":176226.14000000001,"N_COORD97":2580315.02,"ADDRESS":"土庫８號之７","OBJECTID":98428},"geometry":{"x":176226.13999999966,"y":2580315.0200000014}},{"attributes":{"ID":98429,"DIS_CODE":0,"TOWNNAME":"鹽水區","LI":"水秀里","LIN":"1鄰","STREET":" ","SECT":" ","MAREA":"土庫","LANE":" ","ALLEY":" ","HOUSE_NO":"８號之８","E_COORD97":176221.95999999999,"N_COORD97":2580314.0899999999,"ADDRESS":"土庫８號之８","OBJECTID":98429},"geometry":{"x":176221.96000000089,"y":2580314.0900000036}},{"attributes":{"ID":98430,"DIS_CODE":0,"TOWNNAME":"鹽水區","LI":"水秀里","LIN":"1鄰","STREET":" ","SECT":" ","MAREA":"土庫","LANE":" ","ALLEY":" ","HOUSE_NO":"８之９號","E_COORD97":176217.76999999999,"N_COORD97":2580313.1600000001,"ADDRESS":"土庫８之９號","OBJECTID":98430},"geometry":{"x":176217.77000000048,"y":2580313.1600000001}},{"attributes":{"ID":98431,"DIS_CODE":0,"TOWNNAME":"鹽水區","LI":"水秀里","LIN":"1鄰","STREET":" ","SECT":" ","MAREA":"土庫","LANE":" ","ALLEY":" ","HOUSE_NO":"８號","E_COORD97":176269.87,"N_COORD97":2580311.9900000002,"ADDRESS":"土庫８號","OBJECTID":98431},"geometry":{"x":176269.87000000197,"y":2580311.9900000039}},{"attributes":{"ID":98432,"DIS_CODE":0,"TOWNNAME":"南區","LI":"明亮里","LIN":"21鄰","STREET":"金華路","SECT":"一段","MAREA":" ","LANE":"３５２巷","ALLEY":"３４弄","HOUSE_NO":"１５號","E_COORD97":167129.70999999999,"N_COORD97":2541114.25,"ADDRESS":"金華路一段３５２巷３４弄１５號","OBJECTID":98432},"geometry":{"x":167129.70999999996,"y":2541114.2500000019}},{"attributes":{"ID":98433,"DIS_CODE":0,"TOWNNAME":"南區","LI":"明亮里","LIN":"21鄰","STREET":"金華路","SECT":"一段","MAREA":" ","LANE":"３５２巷","ALLEY":"３４弄","HOUSE_NO":"１７號","E_COORD97":167134.01000000001,"N_COORD97":2541113.6400000001,"ADDRESS":"金華路一段３５２巷３４弄１７號","OBJECTID":98433},"geometry":{"x":167134.01000000071,"y":2541113.6400000006}},{"attributes":{"ID":98434,"DIS_CODE":0,"TOWNNAME":"南區","LI":"明亮里","LIN":"21鄰","STREET":"金華路","SECT":"一段","MAREA":" ","LANE":"３５２巷","ALLEY":"３４弄","HOUSE_NO":"１９號","E_COORD97":167137.70000000001,"N_COORD97":2541110.27,"ADDRESS":"金華路一段３５２巷３４弄１９號","OBJECTID":98434},"geometry":{"x":167137.70000000112,"y":2541110.2700000014}},{"attributes":{"ID":98435,"DIS_CODE":0,"TOWNNAME":"南區","LI":"明亮里","LIN":"21鄰","STREET":"金華路","SECT":"一段","MAREA":" ","LANE":"３５２巷","ALLEY":"３４弄","HOUSE_NO":"２１號","E_COORD97":167142,"N_COORD97":2541108.73,"ADDRESS":"金華路一段３５２巷３４弄２１號","OBJECTID":98435},"geometry":{"x":167142.00000000186,"y":2541108.7300000023}},{"attributes":{"ID":98436,"DIS_CODE":0,"TOWNNAME":"鹽水區","LI":"水秀里","LIN":"1鄰","STREET":" ","SECT":" ","MAREA":"土庫","LANE":" ","ALLEY":" ","HOUSE_NO":"９號","E_COORD97":176264.39000000001,"N_COORD97":2580283.02,"ADDRESS":"土庫９號","OBJECTID":98436},"geometry":{"x":176264.3900000006,"y":2580283.0199999996}},{"attributes":{"ID":98437,"DIS_CODE":0,"TOWNNAME":"新營區","LI":"角帶里","LIN":"1鄰","STREET":" ","SECT":" ","MAREA":"角帶圍","LANE":" ","ALLEY":" ","HOUSE_NO":"４號","E_COORD97":174799.03,"N_COORD97":2576067.6499999999,"ADDRESS":"角帶圍４號","OBJECTID":98437},"geometry":{"x":174799.03000000026,"y":2576067.6500000022}},{"attributes":{"ID":98438,"DIS_CODE":0,"TOWNNAME":"南區","LI":"明亮里","LIN":"21鄰","STREET":"金華路","SECT":"一段","MAREA":" ","LANE":"３５２巷","ALLEY":"３４弄","HOUSE_NO":"２３號","E_COORD97":167145.38,"N_COORD97":2541106.2799999998,"ADDRESS":"金華路一段３５２巷３４弄２３號","OBJECTID":98438},"geometry":{"x":167145.37999999989,"y":2541106.2800000012}},{"attributes":{"ID":98439,"DIS_CODE":0,"TOWNNAME":"南區","LI":"明亮里","LIN":"21鄰","STREET":"金華路","SECT":"一段","MAREA":" ","LANE":"３５２巷","ALLEY":"３４弄","HOUSE_NO":"２５號","E_COORD97":167150.60000000001,"N_COORD97":2541104.4399999999,"ADDRESS":"金華路一段３５２巷３４弄２５號","OBJECTID":98439},"geometry":{"x":167150.59999999963,"y":2541104.4399999995}},{"attributes":{"ID":98440,"DIS_CODE":0,"TOWNNAME":"學甲區","LI":"豐和里","LIN":"10鄰","STREET":" ","SECT":" ","MAREA":"美豐","LANE":" ","ALLEY":" ","HOUSE_NO":"８２號之３","E_COORD97":168071.26000000001,"N_COORD97":2568542.3599999999,"ADDRESS":"美豐８２號之３","OBJECTID":98440},"geometry":{"x":168071.26000000071,"y":2568542.3599999994}},{"attributes":{"ID":98441,"DIS_CODE":0,"TOWNNAME":"北區","LI":"力行里","LIN":"1鄰","STREET":"開南街","SECT":" ","MAREA":" ","LANE":"２１３巷","ALLEY":" ","HOUSE_NO":"８號","E_COORD97":170814.95999999999,"N_COORD97":2545007.8500000001,"ADDRESS":"開南街２１３巷８號","OBJECTID":98441},"geometry":{"x":170814.95999999996,"y":2545007.8499999978}},{"attributes":{"ID":98442,"DIS_CODE":0,"TOWNNAME":"學甲區","LI":"豐和里","LIN":"10鄰","STREET":" ","SECT":" ","MAREA":"美豐","LANE":" ","ALLEY":" ","HOUSE_NO":"８２號之５","E_COORD97":168028.78,"N_COORD97":2568529.77,"ADDRESS":"美豐８２號之５","OBJECTID":98442},"geometry":{"x":168028.78000000119,"y":2568529.7699999996}},{"attributes":{"ID":98443,"DIS_CODE":0,"TOWNNAME":"學甲區","LI":"豐和里","LIN":"10鄰","STREET":" ","SECT":" ","MAREA":"美豐","LANE":" ","ALLEY":" ","HOUSE_NO":"８２號","E_COORD97":168072.34,"N_COORD97":2568601.8599999999,"ADDRESS":"美豐８２號","OBJECTID":98443},"geometry":{"x":168072.34000000078,"y":2568601.8600000013}},{"attributes":{"ID":98444,"DIS_CODE":0,"TOWNNAME":"楠西區","LI":"鹿田里","LIN":"10鄰","STREET":" ","SECT":" ","MAREA":"油車","LANE":" ","ALLEY":" ","HOUSE_NO":"５８號之８","E_COORD97":198173.48000000001,"N_COORD97":2562207.25,"ADDRESS":"油車５８號之８","OBJECTID":98444},"geometry":{"x":198173.48000000138,"y":2562207.25}},{"attributes":{"ID":98445,"DIS_CODE":0,"TOWNNAME":"鹽水區","LI":"水秀里","LIN":"8鄰","STREET":"文武街","SECT":" ","MAREA":" ","LANE":" ","ALLEY":" ","HOUSE_NO":"１６之３號","E_COORD97":175447.91,"N_COORD97":2580063.6499999999,"ADDRESS":"文武街１６之３號","OBJECTID":98445},"geometry":{"x":175447.91000000108,"y":2580063.6500000022}},{"attributes":{"ID":98446,"DIS_CODE":0,"TOWNNAME":"柳營區","LI":"八翁里","LIN":"10鄰","STREET":" ","SECT":" ","MAREA":"八老爺","LANE":" ","ALLEY":" ","HOUSE_NO":"８８之１號","E_COORD97":178220.12,"N_COORD97":2574694.2799999998,"ADDRESS":"八老爺８８之１號","OBJECTID":98446},"geometry":{"x":178220.12000000104,"y":2574694.2800000031}},{"attributes":{"ID":98447,"DIS_CODE":0,"TOWNNAME":"鹽水區","LI":"水秀里","LIN":"8鄰","STREET":"文武街","SECT":" ","MAREA":" ","LANE":" ","ALLEY":" ","HOUSE_NO":"１６之５號","E_COORD97":175463.70999999999,"N_COORD97":2580052.04,"ADDRESS":"文武街１６之５號","OBJECTID":98447},"geometry":{"x":175463.70999999996,"y":2580052.0399999991}},{"attributes":{"ID":98448,"DIS_CODE":0,"TOWNNAME":"鹽水區","LI":"水秀里","LIN":"8鄰","STREET":"文武街","SECT":" ","MAREA":" ","LANE":" ","ALLEY":" ","HOUSE_NO":"１６號","E_COORD97":175410.84,"N_COORD97":2580118.23,"ADDRESS":"文武街１６號","OBJECTID":98448},"geometry":{"x":175410.84000000078,"y":2580118.2300000023}},{"attributes":{"ID":98449,"DIS_CODE":0,"TOWNNAME":"鹽水區","LI":"三生里","LIN":"8鄰","STREET":"文武街","SECT":" ","MAREA":" ","LANE":" ","ALLEY":" ","HOUSE_NO":"７５號","E_COORD97":175165.29999999999,"N_COORD97":2580183.0499999998,"ADDRESS":"文武街７５號","OBJECTID":98449},"geometry":{"x":175165.30000000075,"y":2580183.0500000045}},{"attributes":{"ID":98450,"DIS_CODE":0,"TOWNNAME":"鹽水區","LI":"三生里","LIN":"8鄰","STREET":"文武街","SECT":" ","MAREA":" ","LANE":" ","ALLEY":" ","HOUSE_NO":"７７號","E_COORD97":175171.5,"N_COORD97":2580182.9500000002,"ADDRESS":"文武街７７號","OBJECTID":98450},"geometry":{"x":175171.5,"y":2580182.9500000011}},{"attributes":{"ID":98451,"DIS_CODE":0,"TOWNNAME":"關廟區","LI":"田中里","LIN":"8鄰","STREET":"南雄南路","SECT":" ","MAREA":" ","LANE":" ","ALLEY":" ","HOUSE_NO":"５９１號","E_COORD97":183479.98999999999,"N_COORD97":2533759.2999999998,"ADDRESS":"南雄南路５９１號","OBJECTID":98451},"geometry":{"x":183479.99000000022,"y":2533759.3000000007}},{"attributes":{"ID":98452,"DIS_CODE":0,"TOWNNAME":"麻豆區","LI":"中興里","LIN":"8鄰","STREET":"三民路","SECT":" ","MAREA":" ","LANE":" ","ALLEY":" ","HOUSE_NO":"５１號之１","E_COORD97":172810.63,"N_COORD97":2564404.7000000002,"ADDRESS":"三民路５１號之１","OBJECTID":98452},"geometry":{"x":172810.62999999989,"y":2564404.6999999993}},{"attributes":{"ID":98453,"DIS_CODE":0,"TOWNNAME":"東區","LI":"虎尾里","LIN":"21鄰","STREET":"東門路","SECT":"三段","MAREA":" ","LANE":"２７３巷","ALLEY":"２４弄","HOUSE_NO":"２４號","E_COORD97":171763.72,"N_COORD97":2541864.3199999998,"ADDRESS":"東門路三段２７３巷２４弄２４號","OBJECTID":98453},"geometry":{"x":171763.72000000067,"y":2541864.3200000022}},{"attributes":{"ID":98454,"DIS_CODE":0,"TOWNNAME":"新營區","LI":"角帶里","LIN":"1鄰","STREET":" ","SECT":" ","MAREA":"角帶圍","LANE":" ","ALLEY":" ","HOUSE_NO":"３之２號","E_COORD97":174715.62,"N_COORD97":2576070.3500000001,"ADDRESS":"角帶圍３之２號","OBJECTID":98454},"geometry":{"x":174715.62000000104,"y":2576070.3499999996}},{"attributes":{"ID":98455,"DIS_CODE":0,"TOWNNAME":"麻豆區","LI":"寮\u25A0里","LIN":"1鄰","STREET":" ","SECT":" ","MAREA":"寮子\u25A0","LANE":" ","ALLEY":" ","HOUSE_NO":"４號","E_COORD97":176479.26000000001,"N_COORD97":2565545.5499999998,"ADDRESS":"寮子\u25A0４號","OBJECTID":98455},"geometry":{"x":176479.26000000071,"y":2565545.5500000007}},{"attributes":{"ID":98456,"DIS_CODE":0,"TOWNNAME":"柳營區","LI":"八翁里","LIN":"10鄰","STREET":" ","SECT":" ","MAREA":"八老爺","LANE":" ","ALLEY":" ","HOUSE_NO":"８８號","E_COORD97":178239.81,"N_COORD97":2574702.6000000001,"ADDRESS":"八老爺８８號","OBJECTID":98456},"geometry":{"x":178239.81000000052,"y":2574702.6000000034}},{"attributes":{"ID":98457,"DIS_CODE":0,"TOWNNAME":"柳營區","LI":"八翁里","LIN":"10鄰","STREET":" ","SECT":" ","MAREA":"八老爺","LANE":" ","ALLEY":" ","HOUSE_NO":"８９號","E_COORD97":178231.17000000001,"N_COORD97":2574725.2799999998,"ADDRESS":"八老爺８９號","OBJECTID":98457},"geometry":{"x":178231.17000000086,"y":2574725.2800000012}},{"attributes":{"ID":98458,"DIS_CODE":0,"TOWNNAME":"柳營區","LI":"八翁里","LIN":"10鄰","STREET":" ","SECT":" ","MAREA":"八老爺","LANE":" ","ALLEY":" ","HOUSE_NO":"９０號","E_COORD97":178255.14999999999,"N_COORD97":2574738.98,"ADDRESS":"八老爺９０號","OBJECTID":98458},"geometry":{"x":178255.1500000013,"y":2574738.9800000023}},{"attributes":{"ID":98459,"DIS_CODE":0,"TOWNNAME":"柳營區","LI":"八翁里","LIN":"10鄰","STREET":" ","SECT":" ","MAREA":"八老爺","LANE":" ","ALLEY":" ","HOUSE_NO":"９１號","E_COORD97":178275.89000000001,"N_COORD97":2574736.1200000001,"ADDRESS":"八老爺９１號","OBJECTID":98459},"geometry":{"x":178275.88999999966,"y":2574736.1200000029}},{"attributes":{"ID":98460,"DIS_CODE":0,"TOWNNAME":"柳營區","LI":"八翁里","LIN":"10鄰","STREET":" ","SECT":" ","MAREA":"八老爺","LANE":" ","ALLEY":" ","HOUSE_NO":"９２號","E_COORD97":178254.98000000001,"N_COORD97":2574762.96,"ADDRESS":"八老爺９２號","OBJECTID":98460},"geometry":{"x":178254.98000000138,"y":2574762.9600000028}},{"attributes":{"ID":98461,"DIS_CODE":0,"TOWNNAME":"柳營區","LI":"八翁里","LIN":"10鄰","STREET":" ","SECT":" ","MAREA":"八老爺","LANE":" ","ALLEY":" ","HOUSE_NO":"９３號","E_COORD97":178283.44,"N_COORD97":2574762.6400000001,"ADDRESS":"八老爺９３號","OBJECTID":98461},"geometry":{"x":178283.43999999948,"y":2574762.6400000025}},{"attributes":{"ID":98462,"DIS_CODE":0,"TOWNNAME":"柳營區","LI":"八翁里","LIN":"10鄰","STREET":" ","SECT":" ","MAREA":"八老爺","LANE":" ","ALLEY":" ","HOUSE_NO":"９４號","E_COORD97":178262.23000000001,"N_COORD97":2574801.5099999998,"ADDRESS":"八老爺９４號","OBJECTID":98462},"geometry":{"x":178262.23000000045,"y":2574801.5099999998}},{"attributes":{"ID":98463,"DIS_CODE":0,"TOWNNAME":"學甲區","LI":"三慶里","LIN":"10鄰","STREET":" ","SECT":" ","MAREA":"頂洲","LANE":" ","ALLEY":" ","HOUSE_NO":"１３５號","E_COORD97":168349.47,"N_COORD97":2576520.3900000001,"ADDRESS":"頂洲１３５號","OBJECTID":98463},"geometry":{"x":168349.47000000067,"y":2576520.3900000025}},{"attributes":{"ID":98464,"DIS_CODE":0,"TOWNNAME":"學甲區","LI":"三慶里","LIN":"10鄰","STREET":" ","SECT":" ","MAREA":"頂洲","LANE":" ","ALLEY":" ","HOUSE_NO":"１３６號","E_COORD97":168352.69,"N_COORD97":2576503.0899999999,"ADDRESS":"頂洲１３６號","OBJECTID":98464},"geometry":{"x":168352.69000000041,"y":2576503.089999998}},{"attributes":{"ID":98465,"DIS_CODE":0,"TOWNNAME":"學甲區","LI":"三慶里","LIN":"10鄰","STREET":" ","SECT":" ","MAREA":"頂洲","LANE":" ","ALLEY":" ","HOUSE_NO":"１３７號","E_COORD97":168363.38,"N_COORD97":2576482.0699999998,"ADDRESS":"頂洲１３７號","OBJECTID":98465},"geometry":{"x":168363.38000000082,"y":2576482.0700000003}},{"attributes":{"ID":98466,"DIS_CODE":0,"TOWNNAME":"學甲區","LI":"三慶里","LIN":"10鄰","STREET":" ","SECT":" ","MAREA":"頂洲","LANE":" ","ALLEY":" ","HOUSE_NO":"１３８號","E_COORD97":168381.67000000001,"N_COORD97":2576479.3500000001,"ADDRESS":"頂洲１３８號","OBJECTID":98466},"geometry":{"x":168381.67000000179,"y":2576479.3499999996}},{"attributes":{"ID":98467,"DIS_CODE":0,"TOWNNAME":"學甲區","LI":"三慶里","LIN":"10鄰","STREET":" ","SECT":" ","MAREA":"頂洲","LANE":" ","ALLEY":" ","HOUSE_NO":"１３９號","E_COORD97":168375.89999999999,"N_COORD97":2576510.6000000001,"ADDRESS":"頂洲１３９號","OBJECTID":98467},"geometry":{"x":168375.9000000013,"y":2576510.6000000015}},{"attributes":{"ID":98468,"DIS_CODE":0,"TOWNNAME":"學甲區","LI":"平和里","LIN":"10鄰","STREET":" ","SECT":" ","MAREA":"學甲寮","LANE":" ","ALLEY":" ","HOUSE_NO":"８５號","E_COORD97":169616.31,"N_COORD97":2573352.9199999999,"ADDRESS":"學甲寮８５號","OBJECTID":98468},"geometry":{"x":169616.31000000052,"y":2573352.9200000018}},{"attributes":{"ID":98469,"DIS_CODE":0,"TOWNNAME":"學甲區","LI":"平和里","LIN":"10鄰","STREET":" ","SECT":" ","MAREA":"學甲寮","LANE":" ","ALLEY":" ","HOUSE_NO":"８６號","E_COORD97":169622.60999999999,"N_COORD97":2573369.96,"ADDRESS":"學甲寮８６號","OBJECTID":98469},"geometry":{"x":169622.61000000034,"y":2573369.9600000028}},{"attributes":{"ID":98470,"DIS_CODE":0,"TOWNNAME":"學甲區","LI":"平和里","LIN":"10鄰","STREET":" ","SECT":" ","MAREA":"學甲寮","LANE":" ","ALLEY":" ","HOUSE_NO":"８７號之２","E_COORD97":169595.91,"N_COORD97":2573338.0299999998,"ADDRESS":"學甲寮８７號之２","OBJECTID":98470},"geometry":{"x":169595.91000000108,"y":2573338.0300000012}},{"attributes":{"ID":98471,"DIS_CODE":0,"TOWNNAME":"學甲區","LI":"平和里","LIN":"10鄰","STREET":" ","SECT":" ","MAREA":"學甲寮","LANE":" ","ALLEY":" ","HOUSE_NO":"８７號","E_COORD97":169610.51999999999,"N_COORD97":2573364.48,"ADDRESS":"學甲寮８７號","OBJECTID":98471},"geometry":{"x":169610.51999999955,"y":2573364.4800000004}},{"attributes":{"ID":98472,"DIS_CODE":0,"TOWNNAME":"學甲區","LI":"平和里","LIN":"10鄰","STREET":" ","SECT":" ","MAREA":"學甲寮","LANE":" ","ALLEY":" ","HOUSE_NO":"８９號之１","E_COORD97":169612.37,"N_COORD97":2573394.1299999999,"ADDRESS":"學甲寮８９號之１","OBJECTID":98472},"geometry":{"x":169612.37000000011,"y":2573394.1300000008}},{"attributes":{"ID":98473,"DIS_CODE":0,"TOWNNAME":"學甲區","LI":"平和里","LIN":"10鄰","STREET":" ","SECT":" ","MAREA":"學甲寮","LANE":" ","ALLEY":" ","HOUSE_NO":"８９號","E_COORD97":169616.70999999999,"N_COORD97":2573405.1400000001,"ADDRESS":"學甲寮８９號","OBJECTID":98473},"geometry":{"x":169616.70999999996,"y":2573405.1400000043}},{"attributes":{"ID":98474,"DIS_CODE":0,"TOWNNAME":"學甲區","LI":"平和里","LIN":"10鄰","STREET":" ","SECT":" ","MAREA":"學甲寮","LANE":" ","ALLEY":" ","HOUSE_NO":"９１號之１","E_COORD97":169624.45999999999,"N_COORD97":2573446.75,"ADDRESS":"學甲寮９１號之１","OBJECTID":98474},"geometry":{"x":169624.46000000089,"y":2573446.75}},{"attributes":{"ID":98475,"DIS_CODE":0,"TOWNNAME":"學甲區","LI":"平和里","LIN":"10鄰","STREET":" ","SECT":" ","MAREA":"學甲寮","LANE":" ","ALLEY":" ","HOUSE_NO":"９１號之２","E_COORD97":169620.89000000001,"N_COORD97":2573445.9100000001,"ADDRESS":"學甲寮９１號之２","OBJECTID":98475},"geometry":{"x":169620.8900000006,"y":2573445.9100000001}},{"attributes":{"ID":98476,"DIS_CODE":0,"TOWNNAME":"學甲區","LI":"平和里","LIN":"10鄰","STREET":" ","SECT":" ","MAREA":"學甲寮","LANE":" ","ALLEY":" ","HOUSE_NO":"９１號之３","E_COORD97":169617.14000000001,"N_COORD97":2573445.1699999999,"ADDRESS":"學甲寮９１號之３","OBJECTID":98476},"geometry":{"x":169617.13999999966,"y":2573445.1700000018}},{"attributes":{"ID":98477,"DIS_CODE":0,"TOWNNAME":"東區","LI":"崇善里","LIN":"21鄰","STREET":"崇善十一街","SECT":" ","MAREA":" ","LANE":"１２巷","ALLEY":"１７弄","HOUSE_NO":"１４號","E_COORD97":171235.20999999999,"N_COORD97":2541146.4300000002,"ADDRESS":"崇善十一街１２巷１７弄１４號","OBJECTID":98477},"geometry":{"x":171235.20999999996,"y":2541146.4300000016}},{"attributes":{"ID":98478,"DIS_CODE":0,"TOWNNAME":"安南區","LI":"安東里","LIN":"21鄰","STREET":"安和路","SECT":"一段","MAREA":" ","LANE":"４９６巷","ALLEY":"２３弄","HOUSE_NO":"３０號","E_COORD97":169580.20000000001,"N_COORD97":2548433.2599999998,"ADDRESS":"安和路一段４９６巷２３弄３０號","OBJECTID":98478},"geometry":{"x":169580.20000000205,"y":2548433.2600000035}},{"attributes":{"ID":98479,"DIS_CODE":0,"TOWNNAME":"新營區","LI":"大宏里","LIN":"1鄰","STREET":"民族路","SECT":" ","MAREA":" ","LANE":" ","ALLEY":" ","HOUSE_NO":"６４號","E_COORD97":180326.51999999999,"N_COORD97":2578871.2999999998,"ADDRESS":"民族路６４號","OBJECTID":98479},"geometry":{"x":180326.52000000142,"y":2578871.3000000007}},{"attributes":{"ID":98480,"DIS_CODE":0,"TOWNNAME":"學甲區","LI":"平和里","LIN":"10鄰","STREET":" ","SECT":" ","MAREA":"學甲寮","LANE":" ","ALLEY":" ","HOUSE_NO":"９１號之４","E_COORD97":169605.89999999999,"N_COORD97":2573434.8900000001,"ADDRESS":"學甲寮９１號之４","OBJECTID":98480},"geometry":{"x":169605.90000000037,"y":2573434.8900000025}},{"attributes":{"ID":98481,"DIS_CODE":0,"TOWNNAME":"學甲區","LI":"平和里","LIN":"10鄰","STREET":" ","SECT":" ","MAREA":"學甲寮","LANE":" ","ALLEY":" ","HOUSE_NO":"９１號","E_COORD97":169615.14000000001,"N_COORD97":2573469.4399999999,"ADDRESS":"學甲寮９１號","OBJECTID":98481},"geometry":{"x":169615.13999999966,"y":2573469.4400000032}},{"attributes":{"ID":98482,"DIS_CODE":0,"TOWNNAME":"善化區","LI":"溪美里","LIN":"17鄰","STREET":" ","SECT":" ","MAREA":"溪尾","LANE":" ","ALLEY":" ","HOUSE_NO":"１６５號之１","E_COORD97":176942.60000000001,"N_COORD97":2561278.52,"ADDRESS":"溪尾１６５號之１","OBJECTID":98482},"geometry":{"x":176942.60000000056,"y":2561278.5200000014}},{"attributes":{"ID":98483,"DIS_CODE":0,"TOWNNAME":"善化區","LI":"文昌里","LIN":"17鄰","STREET":" ","SECT":" ","MAREA":"益民寮","LANE":" ","ALLEY":" ","HOUSE_NO":"１６號","E_COORD97":177907.79000000001,"N_COORD97":2557206.0099999998,"ADDRESS":"益民寮１６號","OBJECTID":98483},"geometry":{"x":177907.78999999911,"y":2557206.0100000016}},{"attributes":{"ID":98484,"DIS_CODE":0,"TOWNNAME":"善化區","LI":"溪美里","LIN":"1鄰","STREET":" ","SECT":" ","MAREA":"溪尾","LANE":" ","ALLEY":" ","HOUSE_NO":"９４０號","E_COORD97":177085.01000000001,"N_COORD97":2560087.52,"ADDRESS":"溪尾９４０號","OBJECTID":98484},"geometry":{"x":177085.00999999978,"y":2560087.5200000033}},{"attributes":{"ID":98485,"DIS_CODE":0,"TOWNNAME":"善化區","LI":"胡厝里","LIN":"12鄰","STREET":" ","SECT":" ","MAREA":"百二甲","LANE":" ","ALLEY":" ","HOUSE_NO":"２５號","E_COORD97":175125.62,"N_COORD97":2559817,"ADDRESS":"百二甲２５號","OBJECTID":98485},"geometry":{"x":175125.62000000197,"y":2559817.0000000019}},{"attributes":{"ID":98486,"DIS_CODE":0,"TOWNNAME":"新營區","LI":"新北里","LIN":"1鄰","STREET":"三興街","SECT":" ","MAREA":" ","LANE":" ","ALLEY":" ","HOUSE_NO":"５７號","E_COORD97":179437.95999999999,"N_COORD97":2578927.5499999998,"ADDRESS":"三興街５７號","OBJECTID":98486},"geometry":{"x":179437.96000000089,"y":2578927.5500000007}},{"attributes":{"ID":98487,"DIS_CODE":0,"TOWNNAME":"新化區","LI":"羊林里","LIN":"1鄰","STREET":" ","SECT":" ","MAREA":"\u25A0拔林","LANE":" ","ALLEY":" ","HOUSE_NO":"３７１號","E_COORD97":183532.62,"N_COORD97":2551798.25,"ADDRESS":"\u25A0拔林３７１號","OBJECTID":98487},"geometry":{"x":183532.62000000104,"y":2551798.2500000019}},{"attributes":{"ID":98488,"DIS_CODE":0,"TOWNNAME":"新化區","LI":"崙頂里","LIN":"1鄰","STREET":" ","SECT":" ","MAREA":"崙子頂","LANE":" ","ALLEY":" ","HOUSE_NO":"１１號","E_COORD97":176972.78,"N_COORD97":2546808.25,"ADDRESS":"崙子頂１１號","OBJECTID":98488},"geometry":{"x":176972.78000000119,"y":2546808.25}},{"attributes":{"ID":98489,"DIS_CODE":0,"TOWNNAME":"善化區","LI":"東昌里","LIN":"9鄰","STREET":" ","SECT":" ","MAREA":"東勢寮","LANE":" ","ALLEY":" ","HOUSE_NO":"１２６號","E_COORD97":180366.42000000001,"N_COORD97":2561898.2599999998,"ADDRESS":"東勢寮１２６號","OBJECTID":98489},"geometry":{"x":180366.41999999993,"y":2561898.2599999998}},{"attributes":{"ID":98490,"DIS_CODE":0,"TOWNNAME":"善化區","LI":"胡厝里","LIN":"16鄰","STREET":" ","SECT":" ","MAREA":"胡厝寮","LANE":" ","ALLEY":" ","HOUSE_NO":"２３６號之１","E_COORD97":174961.60000000001,"N_COORD97":2560140.02,"ADDRESS":"胡厝寮２３６號之１","OBJECTID":98490},"geometry":{"x":174961.60000000056,"y":2560140.0199999996}},{"attributes":{"ID":98491,"DIS_CODE":0,"TOWNNAME":"安南區","LI":"安東里","LIN":"21鄰","STREET":"安和路","SECT":"一段","MAREA":" ","LANE":"４９６巷","ALLEY":"２３弄","HOUSE_NO":"３４號","E_COORD97":169588.45000000001,"N_COORD97":2548434.1000000001,"ADDRESS":"安和路一段４９６巷２３弄３４號","OBJECTID":98491},"geometry":{"x":169588.45000000019,"y":2548434.1000000034}},{"attributes":{"ID":98492,"DIS_CODE":0,"TOWNNAME":"善化區","LI":"六德里","LIN":"11鄰","STREET":" ","SECT":" ","MAREA":"六分寮","LANE":" ","ALLEY":" ","HOUSE_NO":"２８９號之２","E_COORD97":178570.07000000001,"N_COORD97":2561622.02,"ADDRESS":"六分寮２８９號之２","OBJECTID":98492},"geometry":{"x":178570.0700000003,"y":2561622.0199999996}},{"attributes":{"ID":98493,"DIS_CODE":0,"TOWNNAME":"安南區","LI":"安東里","LIN":"21鄰","STREET":"安和路","SECT":"一段","MAREA":" ","LANE":"４９６巷","ALLEY":"２３弄","HOUSE_NO":"３６號","E_COORD97":169591.79999999999,"N_COORD97":2548435.9100000001,"ADDRESS":"安和路一段４９６巷２３弄３６號","OBJECTID":98493},"geometry":{"x":169591.80000000075,"y":2548435.9100000039}},{"attributes":{"ID":98494,"DIS_CODE":0,"TOWNNAME":"善化區","LI":"六德里","LIN":" ","STREET":" ","SECT":" ","MAREA":"六分寮","LANE":" ","ALLEY":" ","HOUSE_NO":"２９３之７號","E_COORD97":178499.62,"N_COORD97":2561694.02,"ADDRESS":"六分寮２９３之７號","OBJECTID":98494},"geometry":{"x":178499.62000000104,"y":2561694.0199999977}},{"attributes":{"ID":98495,"DIS_CODE":0,"TOWNNAME":"善化區","LI":"小新里","LIN":"7鄰","STREET":" ","SECT":" ","MAREA":"小新營","LANE":" ","ALLEY":" ","HOUSE_NO":"５６號之１２","E_COORD97":179582.64999999999,"N_COORD97":2558625.52,"ADDRESS":"小新營５６號之１２","OBJECTID":98495},"geometry":{"x":179582.6500000013,"y":2558625.5199999996}},{"attributes":{"ID":98496,"DIS_CODE":0,"TOWNNAME":"佳里區","LI":"禮化里","LIN":"10鄰","STREET":" ","SECT":" ","MAREA":"佳里興","LANE":" ","ALLEY":" ","HOUSE_NO":"３２８號之３","E_COORD97":166866.79999999999,"N_COORD97":2565645.6000000001,"ADDRESS":"佳里興３２８號之３","OBJECTID":98496},"geometry":{"x":166866.80000000168,"y":2565645.5999999996}},{"attributes":{"ID":98497,"DIS_CODE":0,"TOWNNAME":"佳里區","LI":"禮化里","LIN":"10鄰","STREET":" ","SECT":" ","MAREA":"佳里興","LANE":" ","ALLEY":" ","HOUSE_NO":"３２８號","E_COORD97":166879.25,"N_COORD97":2565649.77,"ADDRESS":"佳里興３２８號","OBJECTID":98497},"geometry":{"x":166879.25000000186,"y":2565649.7700000014}},{"attributes":{"ID":98498,"DIS_CODE":0,"TOWNNAME":"佳里區","LI":"禮化里","LIN":"10鄰","STREET":" ","SECT":" ","MAREA":"佳里興","LANE":" ","ALLEY":" ","HOUSE_NO":"３２９號之１","E_COORD97":166847.12,"N_COORD97":2565635.4300000002,"ADDRESS":"佳里興３２９號之１","OBJECTID":98498},"geometry":{"x":166847.12000000104,"y":2565635.4300000016}},{"attributes":{"ID":98499,"DIS_CODE":0,"TOWNNAME":"七股區","LI":"三股里","LIN":"4鄰","STREET":" ","SECT":" ","MAREA":"三股","LANE":" ","ALLEY":" ","HOUSE_NO":"４７號","E_COORD97":159787.45000000001,"N_COORD97":2555591.4900000002,"ADDRESS":"三股４７號","OBJECTID":98499},"geometry":{"x":159787.45000000112,"y":2555591.4900000002}},{"attributes":{"ID":98500,"DIS_CODE":0,"TOWNNAME":"佳里區","LI":"禮化里","LIN":"10鄰","STREET":" ","SECT":" ","MAREA":"佳里興","LANE":" ","ALLEY":" ","HOUSE_NO":"３２９號之４","E_COORD97":166843.82999999999,"N_COORD97":2565635.1600000001,"ADDRESS":"佳里興３２９號之４","OBJECTID":98500},"geometry":{"x":166843.83000000101,"y":2565635.160000002}},{"attributes":{"ID":98501,"DIS_CODE":0,"TOWNNAME":"佳里區","LI":"禮化里","LIN":"10鄰","STREET":" ","SECT":" ","MAREA":"佳里興","LANE":" ","ALLEY":" ","HOUSE_NO":"３２９號","E_COORD97":166856.31,"N_COORD97":2565635.0099999998,"ADDRESS":"佳里興３２９號","OBJECTID":98501},"geometry":{"x":166856.31000000145,"y":2565635.0100000016}},{"attributes":{"ID":98502,"DIS_CODE":0,"TOWNNAME":"善化區","LI":"嘉北里","LIN":"5鄰","STREET":" ","SECT":" ","MAREA":"茄拔","LANE":" ","ALLEY":" ","HOUSE_NO":"１５８號","E_COORD97":181037.39000000001,"N_COORD97":2559752.0099999998,"ADDRESS":"茄拔１５８號","OBJECTID":98502},"geometry":{"x":181037.38999999966,"y":2559752.0100000035}},{"attributes":{"ID":98503,"DIS_CODE":0,"TOWNNAME":"善化區","LI":"田寮里","LIN":"13鄰","STREET":" ","SECT":" ","MAREA":"六分寮","LANE":" ","ALLEY":" ","HOUSE_NO":"１４１之７號","E_COORD97":178695.95999999999,"N_COORD97":2561233.77,"ADDRESS":"六分寮１４１之７號","OBJECTID":98503},"geometry":{"x":178695.95999999996,"y":2561233.7699999996}},{"attributes":{"ID":98504,"DIS_CODE":0,"TOWNNAME":"善化區","LI":"六德里","LIN":"15鄰","STREET":" ","SECT":" ","MAREA":"六分寮","LANE":" ","ALLEY":" ","HOUSE_NO":"３１９號","E_COORD97":178483.56,"N_COORD97":2561466.25,"ADDRESS":"六分寮３１９號","OBJECTID":98504},"geometry":{"x":178483.56000000145,"y":2561466.2500000037}},{"attributes":{"ID":98505,"DIS_CODE":0,"TOWNNAME":"佳里區","LI":"禮化里","LIN":"10鄰","STREET":" ","SECT":" ","MAREA":"佳里興","LANE":" ","ALLEY":" ","HOUSE_NO":"３３０號之１","E_COORD97":166841.82000000001,"N_COORD97":2565663.1000000001,"ADDRESS":"佳里興３３０號之１","OBJECTID":98505},"geometry":{"x":166841.82000000216,"y":2565663.0999999996}},{"attributes":{"ID":98506,"DIS_CODE":0,"TOWNNAME":"佳里區","LI":"禮化里","LIN":"10鄰","STREET":" ","SECT":" ","MAREA":"佳里興","LANE":" ","ALLEY":" ","HOUSE_NO":"３３０號之２","E_COORD97":166841.31,"N_COORD97":2565667.8199999998,"ADDRESS":"佳里興３３０號之２","OBJECTID":98506},"geometry":{"x":166841.31000000052,"y":2565667.8200000022}},{"attributes":{"ID":98507,"DIS_CODE":0,"TOWNNAME":"佳里區","LI":"禮化里","LIN":"10鄰","STREET":" ","SECT":" ","MAREA":"佳里興","LANE":" ","ALLEY":" ","HOUSE_NO":"３３０號之３","E_COORD97":166840.42000000001,"N_COORD97":2565672.1499999999,"ADDRESS":"佳里興３３０號之３","OBJECTID":98507},"geometry":{"x":166840.41999999993,"y":2565672.1500000022}},{"attributes":{"ID":98508,"DIS_CODE":0,"TOWNNAME":"佳里區","LI":"禮化里","LIN":"10鄰","STREET":" ","SECT":" ","MAREA":"佳里興","LANE":" ","ALLEY":" ","HOUSE_NO":"３３０號之４","E_COORD97":166839.91,"N_COORD97":2565676.29,"ADDRESS":"佳里興３３０號之４","OBJECTID":98508},"geometry":{"x":166839.91000000108,"y":2565676.290000001}},{"attributes":{"ID":98509,"DIS_CODE":0,"TOWNNAME":"佳里區","LI":"禮化里","LIN":"10鄰","STREET":" ","SECT":" ","MAREA":"佳里興","LANE":" ","ALLEY":" ","HOUSE_NO":"３３０號","E_COORD97":166863.23000000001,"N_COORD97":2565674.7400000002,"ADDRESS":"佳里興３３０號","OBJECTID":98509},"geometry":{"x":166863.23000000138,"y":2565674.7400000021}},{"attributes":{"ID":98510,"DIS_CODE":0,"TOWNNAME":"佳里區","LI":"禮化里","LIN":"10鄰","STREET":" ","SECT":" ","MAREA":"佳里興","LANE":" ","ALLEY":" ","HOUSE_NO":"３３１號","E_COORD97":166884.66,"N_COORD97":2565675.9900000002,"ADDRESS":"佳里興３３１號","OBJECTID":98510},"geometry":{"x":166884.66000000015,"y":2565675.9900000021}},{"attributes":{"ID":98511,"DIS_CODE":0,"TOWNNAME":"佳里區","LI":"禮化里","LIN":"10鄰","STREET":" ","SECT":" ","MAREA":"佳里興","LANE":" ","ALLEY":" ","HOUSE_NO":"３３２號","E_COORD97":166894.42000000001,"N_COORD97":2565702.5299999998,"ADDRESS":"佳里興３３２號","OBJECTID":98511},"geometry":{"x":166894.41999999993,"y":2565702.5300000012}},{"attributes":{"ID":98512,"DIS_CODE":0,"TOWNNAME":"佳里區","LI":"禮化里","LIN":"10鄰","STREET":" ","SECT":" ","MAREA":"佳里興","LANE":" ","ALLEY":" ","HOUSE_NO":"３３３號之１１","E_COORD97":166857.75,"N_COORD97":2565702.7200000002,"ADDRESS":"佳里興３３３號之１１","OBJECTID":98512},"geometry":{"x":166857.75000000093,"y":2565702.7200000025}},{"attributes":{"ID":98513,"DIS_CODE":0,"TOWNNAME":"安南區","LI":"安東里","LIN":"21鄰","STREET":"安和路","SECT":"一段","MAREA":" ","LANE":"４９６巷","ALLEY":"２３弄","HOUSE_NO":"６２號","E_COORD97":169646.51000000001,"N_COORD97":2548438.2799999998,"ADDRESS":"安和路一段４９６巷２３弄６２號","OBJECTID":98513},"geometry":{"x":169646.50999999978,"y":2548438.2799999993}},{"attributes":{"ID":98514,"DIS_CODE":0,"TOWNNAME":"佳里區","LI":"禮化里","LIN":"10鄰","STREET":" ","SECT":" ","MAREA":"佳里興","LANE":" ","ALLEY":" ","HOUSE_NO":"３３３號之１３","E_COORD97":166852.89999999999,"N_COORD97":2565702.6400000001,"ADDRESS":"佳里興３３３號之１３","OBJECTID":98514},"geometry":{"x":166852.90000000037,"y":2565702.6400000025}},{"attributes":{"ID":98515,"DIS_CODE":0,"TOWNNAME":"中西區","LI":"三民里","LIN":"21鄰","STREET":"忠義路","SECT":"二段","MAREA":" ","LANE":"１５８巷","ALLEY":"２０弄","HOUSE_NO":"２號","E_COORD97":168411.63,"N_COORD97":2544002.4700000002,"ADDRESS":"忠義路二段１５８巷２０弄２號","OBJECTID":98515},"geometry":{"x":168411.62999999989,"y":2544002.4700000025}},{"attributes":{"ID":98516,"DIS_CODE":0,"TOWNNAME":"善化區","LI":"小新里","LIN":"17鄰","STREET":" ","SECT":" ","MAREA":"小新營","LANE":" ","ALLEY":" ","HOUSE_NO":"１４４號","E_COORD97":179910.51000000001,"N_COORD97":2558164.25,"ADDRESS":"小新營１４４號","OBJECTID":98516},"geometry":{"x":179910.51000000071,"y":2558164.2500000019}},{"attributes":{"ID":98517,"DIS_CODE":0,"TOWNNAME":"中西區","LI":"三民里","LIN":"21鄰","STREET":"忠義路","SECT":"二段","MAREA":" ","LANE":"１５８巷","ALLEY":"２０弄","HOUSE_NO":"２號之１","E_COORD97":168408.56,"N_COORD97":2543998.79,"ADDRESS":"忠義路二段１５８巷２０弄２號之１","OBJECTID":98517},"geometry":{"x":168408.55999999959,"y":2543998.790000001}},{"attributes":{"ID":98518,"DIS_CODE":0,"TOWNNAME":"北區","LI":"賢北里","LIN":"1鄰","STREET":"和緯路","SECT":"五段","MAREA":" ","LANE":" ","ALLEY":" ","HOUSE_NO":"４２號","E_COORD97":166477.88,"N_COORD97":2545245.6400000001,"ADDRESS":"和緯路五段４２號","OBJECTID":98518},"geometry":{"x":166477.87999999989,"y":2545245.6400000025}},{"attributes":{"ID":98519,"DIS_CODE":0,"TOWNNAME":"北區","LI":"大港里","LIN":"1鄰","STREET":"大和路","SECT":" ","MAREA":" ","LANE":" ","ALLEY":" ","HOUSE_NO":"１７３號","E_COORD97":166962.82000000001,"N_COORD97":2545878.3500000001,"ADDRESS":"大和路１７３號","OBJECTID":98519},"geometry":{"x":166962.82000000123,"y":2545878.3499999996}},{"attributes":{"ID":98520,"DIS_CODE":0,"TOWNNAME":"佳里區","LI":"禮化里","LIN":"10鄰","STREET":" ","SECT":" ","MAREA":"佳里興","LANE":" ","ALLEY":" ","HOUSE_NO":"３３３號之１","E_COORD97":166880.60000000001,"N_COORD97":2565703.0099999998,"ADDRESS":"佳里興３３３號之１","OBJECTID":98520},"geometry":{"x":166880.60000000056,"y":2565703.0100000016}},{"attributes":{"ID":98521,"DIS_CODE":0,"TOWNNAME":"佳里區","LI":"禮化里","LIN":"10鄰","STREET":" ","SECT":" ","MAREA":"佳里興","LANE":" ","ALLEY":" ","HOUSE_NO":"３３３號之３","E_COORD97":166875.69,"N_COORD97":2565702.9399999999,"ADDRESS":"佳里興３３３號之３","OBJECTID":98521},"geometry":{"x":166875.69000000134,"y":2565702.9400000013}},{"attributes":{"ID":98522,"DIS_CODE":0,"TOWNNAME":"佳里區","LI":"禮化里","LIN":"10鄰","STREET":" ","SECT":" ","MAREA":"佳里興","LANE":" ","ALLEY":" ","HOUSE_NO":"３３３號之５","E_COORD97":166871.17999999999,"N_COORD97":2565702.75,"ADDRESS":"佳里興３３３號之５","OBJECTID":98522},"geometry":{"x":166871.18000000063,"y":2565702.75}},{"attributes":{"ID":98523,"DIS_CODE":0,"TOWNNAME":"中西區","LI":"三民里","LIN":"21鄰","STREET":"忠義路","SECT":"二段","MAREA":" ","LANE":"１５８巷","ALLEY":"２０弄","HOUSE_NO":"２號之２","E_COORD97":168412.10000000001,"N_COORD97":2544007.4399999999,"ADDRESS":"忠義路二段１５８巷２０弄２號之２","OBJECTID":98523},"geometry":{"x":168412.09999999963,"y":2544007.4400000013}},{"attributes":{"ID":98524,"DIS_CODE":0,"TOWNNAME":"佳里區","LI":"禮化里","LIN":"10鄰","STREET":" ","SECT":" ","MAREA":"佳里興","LANE":" ","ALLEY":" ","HOUSE_NO":"３３３號之７","E_COORD97":166866.87,"N_COORD97":2565702.75,"ADDRESS":"佳里興３３３號之７","OBJECTID":98524},"geometry":{"x":166866.87000000104,"y":2565702.75}},{"attributes":{"ID":98525,"DIS_CODE":0,"TOWNNAME":"佳里區","LI":"禮化里","LIN":"10鄰","STREET":" ","SECT":" ","MAREA":"佳里興","LANE":" ","ALLEY":" ","HOUSE_NO":"３３３號之９","E_COORD97":166862.12,"N_COORD97":2565702.6400000001,"ADDRESS":"佳里興３３３號之９","OBJECTID":98525},"geometry":{"x":166862.12000000104,"y":2565702.6400000025}},{"attributes":{"ID":98526,"DIS_CODE":0,"TOWNNAME":"佳里區","LI":"禮化里","LIN":"10鄰","STREET":" ","SECT":" ","MAREA":"佳里興","LANE":" ","ALLEY":" ","HOUSE_NO":"３３７號之１","E_COORD97":166888.22,"N_COORD97":2565743.54,"ADDRESS":"佳里興３３７號之１","OBJECTID":98526},"geometry":{"x":166888.22000000067,"y":2565743.5399999991}},{"attributes":{"ID":98527,"DIS_CODE":0,"TOWNNAME":"佳里區","LI":"禮化里","LIN":"10鄰","STREET":" ","SECT":" ","MAREA":"佳里興","LANE":" ","ALLEY":" ","HOUSE_NO":"３３７號之２","E_COORD97":166867.85000000001,"N_COORD97":2565749.1200000001,"ADDRESS":"佳里興３３７號之２","OBJECTID":98527},"geometry":{"x":166867.8499999987,"y":2565749.120000001}},{"attributes":{"ID":98528,"DIS_CODE":0,"TOWNNAME":"佳里區","LI":"禮化里","LIN":"10鄰","STREET":" ","SECT":" ","MAREA":"佳里興","LANE":" ","ALLEY":" ","HOUSE_NO":"３３７號之３","E_COORD97":166863.10999999999,"N_COORD97":2565747.0099999998,"ADDRESS":"佳里興３３７號之３","OBJECTID":98528},"geometry":{"x":166863.11000000034,"y":2565747.0100000016}},{"attributes":{"ID":98529,"DIS_CODE":0,"TOWNNAME":"佳里區","LI":"禮化里","LIN":"10鄰","STREET":" ","SECT":" ","MAREA":"佳里興","LANE":" ","ALLEY":" ","HOUSE_NO":"３３７號","E_COORD97":166876.17000000001,"N_COORD97":2565748.29,"ADDRESS":"佳里興３３７號","OBJECTID":98529},"geometry":{"x":166876.16999999899,"y":2565748.290000001}},{"attributes":{"ID":98530,"DIS_CODE":0,"TOWNNAME":"佳里區","LI":"興化里","LIN":"10鄰","STREET":" ","SECT":" ","MAREA":"佳里興","LANE":" ","ALLEY":" ","HOUSE_NO":"５０６號","E_COORD97":166722.37,"N_COORD97":2565435.75,"ADDRESS":"佳里興５０６號","OBJECTID":98530},"geometry":{"x":166722.37000000011,"y":2565435.75}},{"attributes":{"ID":98531,"DIS_CODE":0,"TOWNNAME":"佳里區","LI":"興化里","LIN":"10鄰","STREET":" ","SECT":" ","MAREA":"佳里興","LANE":" ","ALLEY":" ","HOUSE_NO":"５０７號之１","E_COORD97":166693.98000000001,"N_COORD97":2565405.48,"ADDRESS":"佳里興５０７號之１","OBJECTID":98531},"geometry":{"x":166693.98000000138,"y":2565405.4800000023}},{"attributes":{"ID":98532,"DIS_CODE":0,"TOWNNAME":"佳里區","LI":"興化里","LIN":"10鄰","STREET":" ","SECT":" ","MAREA":"佳里興","LANE":" ","ALLEY":" ","HOUSE_NO":"５０７號","E_COORD97":166685.48999999999,"N_COORD97":2565419.7799999998,"ADDRESS":"佳里興５０７號","OBJECTID":98532},"geometry":{"x":166685.49000000022,"y":2565419.7800000012}},{"attributes":{"ID":98533,"DIS_CODE":0,"TOWNNAME":"佳里區","LI":"興化里","LIN":"10鄰","STREET":" ","SECT":" ","MAREA":"佳里興","LANE":" ","ALLEY":" ","HOUSE_NO":"５０８號","E_COORD97":166669.94,"N_COORD97":2565386.25,"ADDRESS":"佳里興５０８號","OBJECTID":98533},"geometry":{"x":166669.94000000227,"y":2565386.2500000019}},{"attributes":{"ID":98534,"DIS_CODE":0,"TOWNNAME":"佳里區","LI":"興化里","LIN":"10鄰","STREET":" ","SECT":" ","MAREA":"佳里興","LANE":" ","ALLEY":" ","HOUSE_NO":"５０９號之１","E_COORD97":166678.25,"N_COORD97":2565396.9300000002,"ADDRESS":"佳里興５０９號之１","OBJECTID":98534},"geometry":{"x":166678.25000000093,"y":2565396.9299999997}},{"attributes":{"ID":98535,"DIS_CODE":0,"TOWNNAME":"佳里區","LI":"興化里","LIN":"10鄰","STREET":" ","SECT":" ","MAREA":"佳里興","LANE":" ","ALLEY":" ","HOUSE_NO":"５０９號","E_COORD97":166676.73000000001,"N_COORD97":2565385.7200000002,"ADDRESS":"佳里興５０９號","OBJECTID":98535},"geometry":{"x":166676.73000000138,"y":2565385.7200000007}},{"attributes":{"ID":98536,"DIS_CODE":0,"TOWNNAME":"佳里區","LI":"興化里","LIN":"10鄰","STREET":" ","SECT":" ","MAREA":"佳里興","LANE":" ","ALLEY":" ","HOUSE_NO":"５１０號之１","E_COORD97":166654.28,"N_COORD97":2565399.21,"ADDRESS":"佳里興５１０號之１","OBJECTID":98536},"geometry":{"x":166654.28000000119,"y":2565399.2100000009}},{"attributes":{"ID":98537,"DIS_CODE":0,"TOWNNAME":"佳里區","LI":"興化里","LIN":"10鄰","STREET":" ","SECT":" ","MAREA":"佳里興","LANE":" ","ALLEY":" ","HOUSE_NO":"５１０號","E_COORD97":166661.70000000001,"N_COORD97":2565395.1800000002,"ADDRESS":"佳里興５１０號","OBJECTID":98537},"geometry":{"x":166661.70000000112,"y":2565395.1799999997}},{"attributes":{"ID":98538,"DIS_CODE":0,"TOWNNAME":"佳里區","LI":"興化里","LIN":"10鄰","STREET":" ","SECT":" ","MAREA":"佳里興","LANE":" ","ALLEY":" ","HOUSE_NO":"５１２號","E_COORD97":166647.57000000001,"N_COORD97":2565403.25,"ADDRESS":"佳里興５１２號","OBJECTID":98538},"geometry":{"x":166647.57000000123,"y":2565403.2500000019}},{"attributes":{"ID":98539,"DIS_CODE":0,"TOWNNAME":"佳里區","LI":"興化里","LIN":"10鄰","STREET":" ","SECT":" ","MAREA":"佳里興","LANE":" ","ALLEY":" ","HOUSE_NO":"５１４號","E_COORD97":166604.85999999999,"N_COORD97":2565402.96,"ADDRESS":"佳里興５１４號","OBJECTID":98539},"geometry":{"x":166604.86000000127,"y":2565402.9600000028}},{"attributes":{"ID":98540,"DIS_CODE":0,"TOWNNAME":"佳里區","LI":"興化里","LIN":"10鄰","STREET":" ","SECT":" ","MAREA":"佳里興","LANE":" ","ALLEY":" ","HOUSE_NO":"５１５號","E_COORD97":166613.72,"N_COORD97":2565408.4700000002,"ADDRESS":"佳里興５１５號","OBJECTID":98540},"geometry":{"x":166613.72000000067,"y":2565408.4700000044}},{"attributes":{"ID":98541,"DIS_CODE":0,"TOWNNAME":"善化區","LI":"六德里","LIN":"14鄰","STREET":" ","SECT":" ","MAREA":"六分寮","LANE":" ","ALLEY":" ","HOUSE_NO":"３１０號","E_COORD97":178513.79999999999,"N_COORD97":2561535.5,"ADDRESS":"六分寮３１０號","OBJECTID":98541},"geometry":{"x":178513.79999999981,"y":2561535.5000000037}},{"attributes":{"ID":98542,"DIS_CODE":0,"TOWNNAME":"善化區","LI":"東昌里","LIN":"1鄰","STREET":" ","SECT":" ","MAREA":"東勢寮","LANE":" ","ALLEY":" ","HOUSE_NO":"１２號","E_COORD97":181001.29999999999,"N_COORD97":2561854.2599999998,"ADDRESS":"東勢寮１２號","OBJECTID":98542},"geometry":{"x":181001.30000000168,"y":2561854.2599999998}},{"attributes":{"ID":98543,"DIS_CODE":0,"TOWNNAME":"善化區","LI":"胡家里","LIN":"6鄰","STREET":" ","SECT":" ","MAREA":"胡厝寮","LANE":" ","ALLEY":" ","HOUSE_NO":"４８之８號","E_COORD97":175465.76999999999,"N_COORD97":2560584.02,"ADDRESS":"胡厝寮４８之８號","OBJECTID":98543},"geometry":{"x":175465.76999999955,"y":2560584.0199999996}},{"attributes":{"ID":98544,"DIS_CODE":0,"TOWNNAME":"佳里區","LI":"興化里","LIN":"10鄰","STREET":" ","SECT":" ","MAREA":"佳里興","LANE":" ","ALLEY":" ","HOUSE_NO":"５１７號","E_COORD97":166628.54000000001,"N_COORD97":2565432.0699999998,"ADDRESS":"佳里興５１７號","OBJECTID":98544},"geometry":{"x":166628.54000000097,"y":2565432.0700000022}},{"attributes":{"ID":98545,"DIS_CODE":0,"TOWNNAME":"中西區","LI":"三民里","LIN":"21鄰","STREET":"忠義路","SECT":"二段","MAREA":" ","LANE":"１５８巷","ALLEY":"２０弄","HOUSE_NO":"６號","E_COORD97":168408.31,"N_COORD97":2543994.4300000002,"ADDRESS":"忠義路二段１５８巷２０弄６號","OBJECTID":98545},"geometry":{"x":168408.30999999959,"y":2543994.4300000016}},{"attributes":{"ID":98546,"DIS_CODE":0,"TOWNNAME":"南區","LI":"郡南里","LIN":"21鄰","STREET":"新都路","SECT":" ","MAREA":" ","LANE":"３５３巷","ALLEY":"１弄","HOUSE_NO":"４號","E_COORD97":167579.79999999999,"N_COORD97":2540832.3999999999,"ADDRESS":"新都路３５３巷１弄４號","OBJECTID":98546},"geometry":{"x":167579.79999999981,"y":2540832.4000000022}},{"attributes":{"ID":98547,"DIS_CODE":0,"TOWNNAME":"南區","LI":"郡南里","LIN":"21鄰","STREET":"新都路","SECT":" ","MAREA":" ","LANE":"３５３巷","ALLEY":"１弄","HOUSE_NO":"５號","E_COORD97":167583.39000000001,"N_COORD97":2540858.5299999998,"ADDRESS":"新都路３５３巷１弄５號","OBJECTID":98547},"geometry":{"x":167583.3900000006,"y":2540858.5299999993}},{"attributes":{"ID":98548,"DIS_CODE":0,"TOWNNAME":"南區","LI":"郡南里","LIN":"21鄰","STREET":"新都路","SECT":" ","MAREA":" ","LANE":"３５３巷","ALLEY":"１弄","HOUSE_NO":"６號","E_COORD97":167584.19,"N_COORD97":2540833.54,"ADDRESS":"新都路３５３巷１弄６號","OBJECTID":98548},"geometry":{"x":167584.19000000134,"y":2540833.540000001}},{"attributes":{"ID":98549,"DIS_CODE":0,"TOWNNAME":"南區","LI":"郡南里","LIN":"21鄰","STREET":"新都路","SECT":" ","MAREA":" ","LANE":"３５３巷","ALLEY":"１弄","HOUSE_NO":"７號","E_COORD97":167589.42999999999,"N_COORD97":2540857.5699999998,"ADDRESS":"新都路３５３巷１弄７號","OBJECTID":98549},"geometry":{"x":167589.4299999997,"y":2540857.570000004}},{"attributes":{"ID":98550,"DIS_CODE":0,"TOWNNAME":"南區","LI":"郡南里","LIN":"21鄰","STREET":"新都路","SECT":" ","MAREA":" ","LANE":"３５３巷","ALLEY":"１弄","HOUSE_NO":"８號","E_COORD97":167588.54000000001,"N_COORD97":2540834.48,"ADDRESS":"新都路３５３巷１弄８號","OBJECTID":98550},"geometry":{"x":167588.54000000004,"y":2540834.4800000042}},{"attributes":{"ID":98551,"DIS_CODE":0,"TOWNNAME":"南區","LI":"郡南里","LIN":"21鄰","STREET":"新都路","SECT":" ","MAREA":" ","LANE":"３５３巷","ALLEY":"１弄","HOUSE_NO":"９號","E_COORD97":167593.25,"N_COORD97":2540858.8399999999,"ADDRESS":"新都路３５３巷１弄９號","OBJECTID":98551},"geometry":{"x":167593.25000000093,"y":2540858.8400000017}},{"attributes":{"ID":98552,"DIS_CODE":0,"TOWNNAME":"南區","LI":"郡南里","LIN":"21鄰","STREET":"新都路","SECT":" ","MAREA":" ","LANE":"３５３巷","ALLEY":"１弄","HOUSE_NO":"１０號","E_COORD97":167593.92999999999,"N_COORD97":2540833.25,"ADDRESS":"新都路３５３巷１弄１０號","OBJECTID":98552},"geometry":{"x":167593.9299999997,"y":2540833.2500000019}},{"attributes":{"ID":98553,"DIS_CODE":0,"TOWNNAME":"南區","LI":"郡南里","LIN":"21鄰","STREET":"新都路","SECT":" ","MAREA":" ","LANE":"３５３巷","ALLEY":"１弄","HOUSE_NO":"１１號","E_COORD97":167598.97,"N_COORD97":2540859.7999999998,"ADDRESS":"新都路３５３巷１弄１１號","OBJECTID":98553},"geometry":{"x":167598.96999999974,"y":2540859.8000000045}},{"attributes":{"ID":98554,"DIS_CODE":0,"TOWNNAME":"大內區","LI":"大內里","LIN":"1鄰","STREET":" ","SECT":" ","MAREA":"內庄","LANE":" ","ALLEY":" ","HOUSE_NO":"７號之９","E_COORD97":184409,"N_COORD97":2557576.2999999998,"ADDRESS":"內庄７號之９","OBJECTID":98554},"geometry":{"x":184409,"y":2557576.3000000007}},{"attributes":{"ID":98555,"DIS_CODE":0,"TOWNNAME":"佳里區","LI":"興化里","LIN":"10鄰","STREET":" ","SECT":" ","MAREA":"佳里興","LANE":" ","ALLEY":" ","HOUSE_NO":"５１８號","E_COORD97":166646.25,"N_COORD97":2565429.1400000001,"ADDRESS":"佳里興５１８號","OBJECTID":98555},"geometry":{"x":166646.25,"y":2565429.1400000006}},{"attributes":{"ID":98556,"DIS_CODE":0,"TOWNNAME":"佳里區","LI":"興化里","LIN":"10鄰","STREET":" ","SECT":" ","MAREA":"佳里興","LANE":" ","ALLEY":" ","HOUSE_NO":"５１９號","E_COORD97":166675.23999999999,"N_COORD97":2565415.1899999999,"ADDRESS":"佳里興５１９號","OBJECTID":98556},"geometry":{"x":166675.24000000022,"y":2565415.1899999995}},{"attributes":{"ID":98557,"DIS_CODE":0,"TOWNNAME":"佳里區","LI":"興化里","LIN":"10鄰","STREET":" ","SECT":" ","MAREA":"佳里興","LANE":" ","ALLEY":" ","HOUSE_NO":"５２０號","E_COORD97":166666.12,"N_COORD97":2565429.3700000001,"ADDRESS":"佳里興５２０號","OBJECTID":98557},"geometry":{"x":166666.12000000011,"y":2565429.370000001}},{"attributes":{"ID":98558,"DIS_CODE":0,"TOWNNAME":"佳里區","LI":"佳化里","LIN":"10鄰","STREET":" ","SECT":" ","MAREA":"佳里興","LANE":" ","ALLEY":" ","HOUSE_NO":"９４號","E_COORD97":167448.82999999999,"N_COORD97":2565010.1899999999,"ADDRESS":"佳里興９４號","OBJECTID":98558},"geometry":{"x":167448.83000000101,"y":2565010.1900000013}},{"attributes":{"ID":98559,"DIS_CODE":0,"TOWNNAME":"南區","LI":"郡南里","LIN":"21鄰","STREET":"新都路","SECT":" ","MAREA":" ","LANE":"３５３巷","ALLEY":"１弄","HOUSE_NO":"１２號","E_COORD97":167597.81,"N_COORD97":2540834.2000000002,"ADDRESS":"新都路３５３巷１弄１２號","OBJECTID":98559},"geometry":{"x":167597.81000000052,"y":2540834.1999999993}},{"attributes":{"ID":98560,"DIS_CODE":0,"TOWNNAME":"南區","LI":"郡南里","LIN":"21鄰","STREET":"新都路","SECT":" ","MAREA":" ","LANE":"３５３巷","ALLEY":"１弄","HOUSE_NO":"１３號","E_COORD97":167603.10999999999,"N_COORD97":2540855.3500000001,"ADDRESS":"新都路３５３巷１弄１３號","OBJECTID":98560},"geometry":{"x":167603.11000000127,"y":2540855.3500000015}},{"attributes":{"ID":98561,"DIS_CODE":0,"TOWNNAME":"佳里區","LI":"佳化里","LIN":"10鄰","STREET":" ","SECT":" ","MAREA":"佳里興","LANE":" ","ALLEY":" ","HOUSE_NO":"９５號","E_COORD97":167442.51999999999,"N_COORD97":2564987.8900000001,"ADDRESS":"佳里興９５號","OBJECTID":98561},"geometry":{"x":167442.51999999955,"y":2564987.8900000006}},{"attributes":{"ID":98562,"DIS_CODE":0,"TOWNNAME":"佳里區","LI":"佳化里","LIN":"10鄰","STREET":" ","SECT":" ","MAREA":"佳里興","LANE":" ","ALLEY":" ","HOUSE_NO":"９６號之１","E_COORD97":167453.12,"N_COORD97":2564964.7599999998,"ADDRESS":"佳里興９６號之１","OBJECTID":98562},"geometry":{"x":167453.12000000197,"y":2564964.7600000035}},{"attributes":{"ID":98563,"DIS_CODE":0,"TOWNNAME":"佳里區","LI":"佳化里","LIN":"10鄰","STREET":" ","SECT":" ","MAREA":"佳里興","LANE":" ","ALLEY":" ","HOUSE_NO":"９６號","E_COORD97":167431.98000000001,"N_COORD97":2564954.6899999999,"ADDRESS":"佳里興９６號","OBJECTID":98563},"geometry":{"x":167431.98000000045,"y":2564954.6900000032}},{"attributes":{"ID":98564,"DIS_CODE":0,"TOWNNAME":"南區","LI":"郡南里","LIN":"21鄰","STREET":"新都路","SECT":" ","MAREA":" ","LANE":"３５３巷","ALLEY":"１弄","HOUSE_NO":"１４號","E_COORD97":167603.10000000001,"N_COORD97":2540834.8599999999,"ADDRESS":"新都路３５３巷１弄１４號","OBJECTID":98564},"geometry":{"x":167603.09999999963,"y":2540834.8600000013}},{"attributes":{"ID":98565,"DIS_CODE":0,"TOWNNAME":"佳里區","LI":"佳化里","LIN":"10鄰","STREET":" ","SECT":" ","MAREA":"佳里興","LANE":" ","ALLEY":" ","HOUSE_NO":"９７號","E_COORD97":167442.63,"N_COORD97":2564940.8599999999,"ADDRESS":"佳里興９７號","OBJECTID":98565},"geometry":{"x":167442.63000000175,"y":2564940.8600000013}},{"attributes":{"ID":98566,"DIS_CODE":0,"TOWNNAME":"佳里區","LI":"佳化里","LIN":"10鄰","STREET":" ","SECT":" ","MAREA":"佳里興","LANE":" ","ALLEY":" ","HOUSE_NO":"９８號","E_COORD97":167430.51999999999,"N_COORD97":2564920.9500000002,"ADDRESS":"佳里興９８號","OBJECTID":98566},"geometry":{"x":167430.51999999955,"y":2564920.9499999993}},{"attributes":{"ID":98567,"DIS_CODE":0,"TOWNNAME":"南區","LI":"郡南里","LIN":"21鄰","STREET":"新都路","SECT":" ","MAREA":" ","LANE":"３５３巷","ALLEY":"１弄","HOUSE_NO":"１５號","E_COORD97":167607.23999999999,"N_COORD97":2540858.5299999998,"ADDRESS":"新都路３５３巷１弄１５號","OBJECTID":98567},"geometry":{"x":167607.24000000115,"y":2540858.5299999993}},{"attributes":{"ID":98568,"DIS_CODE":0,"TOWNNAME":"南區","LI":"郡南里","LIN":"21鄰","STREET":"新都路","SECT":" ","MAREA":" ","LANE":"３５３巷","ALLEY":"１弄","HOUSE_NO":"１６號","E_COORD97":167606.88,"N_COORD97":2540834.8599999999,"ADDRESS":"新都路３５３巷１弄１６號","OBJECTID":98568},"geometry":{"x":167606.87999999989,"y":2540834.8600000013}},{"attributes":{"ID":98569,"DIS_CODE":0,"TOWNNAME":"佳里區","LI":"佳化里","LIN":"10鄰","STREET":" ","SECT":" ","MAREA":"佳里興","LANE":" ","ALLEY":" ","HOUSE_NO":"９９號之１","E_COORD97":167401.07999999999,"N_COORD97":2564920.2599999998,"ADDRESS":"佳里興９９號之１","OBJECTID":98569},"geometry":{"x":167401.08000000101,"y":2564920.2599999998}},{"attributes":{"ID":98570,"DIS_CODE":0,"TOWNNAME":"佳里區","LI":"佳化里","LIN":"10鄰","STREET":" ","SECT":" ","MAREA":"佳里興","LANE":" ","ALLEY":" ","HOUSE_NO":"９９號之２","E_COORD97":167422.04999999999,"N_COORD97":2564907.4199999999,"ADDRESS":"佳里興９９號之２","OBJECTID":98570},"geometry":{"x":167422.04999999981,"y":2564907.4200000018}},{"attributes":{"ID":98571,"DIS_CODE":0,"TOWNNAME":"佳里區","LI":"佳化里","LIN":"10鄰","STREET":" ","SECT":" ","MAREA":"佳里興","LANE":" ","ALLEY":" ","HOUSE_NO":"９９號之３","E_COORD97":167407.26000000001,"N_COORD97":2564858.77,"ADDRESS":"佳里興９９號之３","OBJECTID":98571},"geometry":{"x":167407.25999999978,"y":2564858.7699999996}},{"attributes":{"ID":98572,"DIS_CODE":0,"TOWNNAME":"佳里區","LI":"佳化里","LIN":"10鄰","STREET":" ","SECT":" ","MAREA":"佳里興","LANE":" ","ALLEY":" ","HOUSE_NO":"９９號之４","E_COORD97":167407.45000000001,"N_COORD97":2564853.2599999998,"ADDRESS":"佳里興９９號之４","OBJECTID":98572},"geometry":{"x":167407.45000000112,"y":2564853.2600000016}},{"attributes":{"ID":98573,"DIS_CODE":0,"TOWNNAME":"佳里區","LI":"佳化里","LIN":"10鄰","STREET":" ","SECT":" ","MAREA":"佳里興","LANE":" ","ALLEY":" ","HOUSE_NO":"９９號之６","E_COORD97":167401.45000000001,"N_COORD97":2564859.21,"ADDRESS":"佳里興９９號之６","OBJECTID":98573},"geometry":{"x":167401.45000000019,"y":2564859.2100000028}},{"attributes":{"ID":98574,"DIS_CODE":0,"TOWNNAME":"佳里區","LI":"佳化里","LIN":"10鄰","STREET":" ","SECT":" ","MAREA":"佳里興","LANE":" ","ALLEY":" ","HOUSE_NO":"９９號之７","E_COORD97":167515.45000000001,"N_COORD97":2564870.1299999999,"ADDRESS":"佳里興９９號之７","OBJECTID":98574},"geometry":{"x":167515.45000000205,"y":2564870.1300000008}},{"attributes":{"ID":98575,"DIS_CODE":0,"TOWNNAME":"佳里區","LI":"佳化里","LIN":"10鄰","STREET":" ","SECT":" ","MAREA":"佳里興","LANE":" ","ALLEY":" ","HOUSE_NO":"９９號","E_COORD97":167406.28,"N_COORD97":2564942.8900000001,"ADDRESS":"佳里興９９號","OBJECTID":98575},"geometry":{"x":167406.28000000026,"y":2564942.8900000006}},{"attributes":{"ID":98576,"DIS_CODE":0,"TOWNNAME":"南區","LI":"郡南里","LIN":"21鄰","STREET":"新都路","SECT":" ","MAREA":" ","LANE":"３５３巷","ALLEY":"１弄","HOUSE_NO":"１７號","E_COORD97":167612.97,"N_COORD97":2540857.8900000001,"ADDRESS":"新都路３５３巷１弄１７號","OBJECTID":98576},"geometry":{"x":167612.96999999974,"y":2540857.8900000006}},{"attributes":{"ID":98577,"DIS_CODE":0,"TOWNNAME":"南區","LI":"郡南里","LIN":"21鄰","STREET":"新都路","SECT":" ","MAREA":" ","LANE":"３５３巷","ALLEY":"１弄","HOUSE_NO":"１８號","E_COORD97":167611.89999999999,"N_COORD97":2540835.3300000001,"ADDRESS":"新都路３５３巷１弄１８號","OBJECTID":98577},"geometry":{"x":167611.90000000037,"y":2540835.3300000038}},{"attributes":{"ID":98578,"DIS_CODE":0,"TOWNNAME":"南區","LI":"郡南里","LIN":"21鄰","STREET":"新都路","SECT":" ","MAREA":" ","LANE":"３５３巷","ALLEY":"１弄","HOUSE_NO":"１９號","E_COORD97":167616.47,"N_COORD97":2540857.8900000001,"ADDRESS":"新都路３５３巷１弄１９號","OBJECTID":98578},"geometry":{"x":167616.4700000016,"y":2540857.8900000006}},{"attributes":{"ID":98579,"DIS_CODE":0,"TOWNNAME":"南區","LI":"郡南里","LIN":"21鄰","STREET":"新都路","SECT":" ","MAREA":" ","LANE":"３５３巷","ALLEY":"１弄","HOUSE_NO":"２０號","E_COORD97":167615.10999999999,"N_COORD97":2540836.0899999999,"ADDRESS":"新都路３５３巷１弄２０號","OBJECTID":98579},"geometry":{"x":167615.11000000127,"y":2540836.0899999999}},{"attributes":{"ID":98580,"DIS_CODE":0,"TOWNNAME":"南區","LI":"郡南里","LIN":"21鄰","STREET":"新都路","SECT":" ","MAREA":" ","LANE":"３５３巷","ALLEY":"２弄","HOUSE_NO":"１號","E_COORD97":167557.56,"N_COORD97":2540830.52,"ADDRESS":"新都路３５３巷２弄１號","OBJECTID":98580},"geometry":{"x":167557.55999999959,"y":2540830.5200000014}},{"attributes":{"ID":98581,"DIS_CODE":0,"TOWNNAME":"南區","LI":"郡南里","LIN":"21鄰","STREET":"新都路","SECT":" ","MAREA":" ","LANE":"３５３巷","ALLEY":"２弄","HOUSE_NO":"２號","E_COORD97":167558.84,"N_COORD97":2540853.71,"ADDRESS":"新都路３５３巷２弄２號","OBJECTID":98581},"geometry":{"x":167558.84000000078,"y":2540853.7100000046}},{"attributes":{"ID":98582,"DIS_CODE":0,"TOWNNAME":"永康區","LI":"\u25A0行里","LIN":"1鄰","STREET":"中正北路","SECT":" ","MAREA":" ","LANE":" ","ALLEY":" ","HOUSE_NO":"１０４號","E_COORD97":172282.62,"N_COORD97":2549069.6699999999,"ADDRESS":"中正北路１０４號","OBJECTID":98582},"geometry":{"x":172282.62000000011,"y":2549069.6699999999}},{"attributes":{"ID":98583,"DIS_CODE":0,"TOWNNAME":"善化區","LI":"胡家里","LIN":"4鄰","STREET":" ","SECT":" ","MAREA":"胡厝寮","LANE":" ","ALLEY":" ","HOUSE_NO":"３０２號之６","E_COORD97":175547.81,"N_COORD97":2560365.02,"ADDRESS":"胡厝寮３０２號之６","OBJECTID":98583},"geometry":{"x":175547.81000000052,"y":2560365.0199999977}},{"attributes":{"ID":98584,"DIS_CODE":0,"TOWNNAME":"下營區","LI":"西連里","LIN":"10鄰","STREET":" ","SECT":" ","MAREA":"西寮","LANE":" ","ALLEY":" ","HOUSE_NO":"５７號之３","E_COORD97":174548.48000000001,"N_COORD97":2567277.29,"ADDRESS":"西寮５７號之３","OBJECTID":98584},"geometry":{"x":174548.48000000045,"y":2567277.290000001}},{"attributes":{"ID":98585,"DIS_CODE":0,"TOWNNAME":"下營區","LI":"西連里","LIN":"10鄰","STREET":" ","SECT":" ","MAREA":"西寮","LANE":" ","ALLEY":" ","HOUSE_NO":"５７號之４","E_COORD97":174551.66,"N_COORD97":2567290.4700000002,"ADDRESS":"西寮５７號之４","OBJECTID":98585},"geometry":{"x":174551.66000000015,"y":2567290.4700000025}},{"attributes":{"ID":98586,"DIS_CODE":0,"TOWNNAME":"下營區","LI":"西連里","LIN":"10鄰","STREET":" ","SECT":" ","MAREA":"西寮","LANE":" ","ALLEY":" ","HOUSE_NO":"５７號之５","E_COORD97":174491.85999999999,"N_COORD97":2567247.3999999999,"ADDRESS":"西寮５７號之５","OBJECTID":98586},"geometry":{"x":174491.8600000022,"y":2567247.4000000022}},{"attributes":{"ID":98587,"DIS_CODE":0,"TOWNNAME":"南區","LI":"郡南里","LIN":"21鄰","STREET":"新都路","SECT":" ","MAREA":" ","LANE":"３５３巷","ALLEY":"２弄","HOUSE_NO":"３號","E_COORD97":167553.10999999999,"N_COORD97":2540831.4700000002,"ADDRESS":"新都路３５３巷２弄３號","OBJECTID":98587},"geometry":{"x":167553.11000000034,"y":2540831.4700000044}},{"attributes":{"ID":98588,"DIS_CODE":0,"TOWNNAME":"南區","LI":"郡南里","LIN":"21鄰","STREET":"新都路","SECT":" ","MAREA":" ","LANE":"３５３巷","ALLEY":"２弄","HOUSE_NO":"４號","E_COORD97":167552.47,"N_COORD97":2540853.0699999998,"ADDRESS":"新都路３５３巷２弄４號","OBJECTID":98588},"geometry":{"x":167552.47000000067,"y":2540853.0700000003}},{"attributes":{"ID":98589,"DIS_CODE":0,"TOWNNAME":"南區","LI":"郡南里","LIN":"21鄰","STREET":"新都路","SECT":" ","MAREA":" ","LANE":"３５３巷","ALLEY":"２弄","HOUSE_NO":"５號","E_COORD97":167545.79000000001,"N_COORD97":2540831.1499999999,"ADDRESS":"新都路３５３巷２弄５號","OBJECTID":98589},"geometry":{"x":167545.79000000097,"y":2540831.1500000022}},{"attributes":{"ID":98590,"DIS_CODE":0,"TOWNNAME":"南區","LI":"郡南里","LIN":"21鄰","STREET":"新都路","SECT":" ","MAREA":" ","LANE":"３５３巷","ALLEY":"２弄","HOUSE_NO":"６號","E_COORD97":167548.01999999999,"N_COORD97":2540853.3900000001,"ADDRESS":"新都路３５３巷２弄６號","OBJECTID":98590},"geometry":{"x":167548.01999999955,"y":2540853.3900000025}},{"attributes":{"ID":98591,"DIS_CODE":0,"TOWNNAME":"南區","LI":"郡南里","LIN":"21鄰","STREET":"新都路","SECT":" ","MAREA":" ","LANE":"３５３巷","ALLEY":"２弄","HOUSE_NO":"７號","E_COORD97":167541.01999999999,"N_COORD97":2540830.2000000002,"ADDRESS":"新都路３５３巷２弄７號","OBJECTID":98591},"geometry":{"x":167541.01999999955,"y":2540830.1999999993}},{"attributes":{"ID":98592,"DIS_CODE":0,"TOWNNAME":"南區","LI":"郡南里","LIN":"21鄰","STREET":"新都路","SECT":" ","MAREA":" ","LANE":"３５３巷","ALLEY":"２弄","HOUSE_NO":"８號","E_COORD97":167539.75,"N_COORD97":2540850.8500000001,"ADDRESS":"新都路３５３巷２弄８號","OBJECTID":98592},"geometry":{"x":167539.75,"y":2540850.8499999996}},{"attributes":{"ID":98593,"DIS_CODE":0,"TOWNNAME":"南區","LI":"郡南里","LIN":"21鄰","STREET":"新都路","SECT":" ","MAREA":" ","LANE":"３５３巷","ALLEY":"２弄","HOUSE_NO":"９號","E_COORD97":167534.66,"N_COORD97":2540830.8399999999,"ADDRESS":"新都路３５３巷２弄９號","OBJECTID":98593},"geometry":{"x":167534.66000000108,"y":2540830.8399999999}},{"attributes":{"ID":98594,"DIS_CODE":0,"TOWNNAME":"南區","LI":"郡南里","LIN":"21鄰","STREET":"新都路","SECT":" ","MAREA":" ","LANE":"３５３巷","ALLEY":"２弄","HOUSE_NO":"１０號","E_COORD97":167535.29999999999,"N_COORD97":2540849.8999999999,"ADDRESS":"新都路３５３巷２弄１０號","OBJECTID":98594},"geometry":{"x":167535.30000000075,"y":2540849.9000000022}},{"attributes":{"ID":98595,"DIS_CODE":0,"TOWNNAME":"南區","LI":"國宅里","LIN":"21鄰","STREET":"新興路","SECT":" ","MAREA":" ","LANE":"５００巷","ALLEY":"５弄","HOUSE_NO":"３號","E_COORD97":166563.78,"N_COORD97":2541811.3500000001,"ADDRESS":"新興路５００巷５弄３號","OBJECTID":98595},"geometry":{"x":166563.78000000026,"y":2541811.3500000015}},{"attributes":{"ID":98596,"DIS_CODE":0,"TOWNNAME":"南區","LI":"國宅里","LIN":"21鄰","STREET":"新興路","SECT":" ","MAREA":" ","LANE":"５００巷","ALLEY":"５弄","HOUSE_NO":"４號","E_COORD97":166570.29999999999,"N_COORD97":2541829.9199999999,"ADDRESS":"新興路５００巷５弄４號","OBJECTID":98596},"geometry":{"x":166570.30000000075,"y":2541829.9199999999}},{"attributes":{"ID":98597,"DIS_CODE":0,"TOWNNAME":"南區","LI":"國宅里","LIN":"21鄰","STREET":"新興路","SECT":" ","MAREA":" ","LANE":"５００巷","ALLEY":"５弄","HOUSE_NO":"５號","E_COORD97":166558.03,"N_COORD97":2541811.1600000001,"ADDRESS":"新興路５００巷５弄５號","OBJECTID":98597},"geometry":{"x":166558.03000000026,"y":2541811.1600000001}},{"attributes":{"ID":98598,"DIS_CODE":0,"TOWNNAME":"南區","LI":"國宅里","LIN":"21鄰","STREET":"新興路","SECT":" ","MAREA":" ","LANE":"５００巷","ALLEY":"５弄","HOUSE_NO":"６號","E_COORD97":166564.73999999999,"N_COORD97":2541830.4900000002,"ADDRESS":"新興路５００巷５弄６號","OBJECTID":98598},"geometry":{"x":166564.74000000115,"y":2541830.4900000002}},{"attributes":{"ID":98599,"DIS_CODE":0,"TOWNNAME":"南區","LI":"國宅里","LIN":"21鄰","STREET":"新興路","SECT":" ","MAREA":" ","LANE":"５００巷","ALLEY":"５弄","HOUSE_NO":"７號","E_COORD97":166549.22,"N_COORD97":2541812.1200000001,"ADDRESS":"新興路５００巷５弄７號","OBJECTID":98599},"geometry":{"x":166549.22000000067,"y":2541812.1200000029}},{"attributes":{"ID":98600,"DIS_CODE":0,"TOWNNAME":"南區","LI":"國宅里","LIN":"21鄰","STREET":"新興路","SECT":" ","MAREA":" ","LANE":"５００巷","ALLEY":"５弄","HOUSE_NO":"８號","E_COORD97":166554.97,"N_COORD97":2541831.4500000002,"ADDRESS":"新興路５００巷５弄８號","OBJECTID":98600},"geometry":{"x":166554.96999999974,"y":2541831.4500000011}}]}