{"displayFieldName":"TOWNNAME","fieldAliases":{"ID":"ID","DIS_CODE":"DIS_CODE","TOWNNAME":"TOWNNAME","LI":"LI","LIN":"LIN","STREET":"STREET","SECT":"SECT","MAREA":"MAREA","LANE":"LANE","ALLEY":"ALLEY","HOUSE_NO":"HOUSE_NO","E_COORD97":"E_COORD97","N_COORD97":"N_COORD97","ADDRESS":"ADDRESS","OBJECTID":"OBJECTID"},"geometryType":"esriGeometryPoint","spatialReference":{"wkid":102443,"latestWkid":3826},"fields":[{"name":"ID","type":"esriFieldTypeDouble","alias":"ID"},{"name":"DIS_CODE","type":"esriFieldTypeInteger","alias":"DIS_CODE"},{"name":"TOWNNAME","type":"esriFieldTypeString","alias":"TOWNNAME","length":8},{"name":"LI","type":"esriFieldTypeString","alias":"LI","length":8},{"name":"LIN","type":"esriFieldTypeString","alias":"LIN","length":12},{"name":"STREET","type":"esriFieldTypeString","alias":"STREET","length":20},{"name":"SECT","type":"esriFieldTypeString","alias":"SECT","length":8},{"name":"MAREA","type":"esriFieldTypeString","alias":"MAREA","length":12},{"name":"LANE","type":"esriFieldTypeString","alias":"LANE","length":10},{"name":"ALLEY","type":"esriFieldTypeString","alias":"ALLEY","length":10},{"name":"HOUSE_NO","type":"esriFieldTypeString","alias":"HOUSE_NO","length":20},{"name":"E_COORD97","type":"esriFieldTypeDouble","alias":"E_COORD97"},{"name":"N_COORD97","type":"esriFieldTypeDouble","alias":"N_COORD97"},{"name":"ADDRESS","type":"esriFieldTypeString","alias":"ADDRESS","length":50},{"name":"OBJECTID","type":"esriFieldTypeOID","alias":"OBJECTID"}],"features":[{"attributes":{"ID":96201,"DIS_CODE":0,"TOWNNAME":"後壁區","LI":"土溝里","LIN":"10鄰","STREET":" ","SECT":" ","MAREA":"土溝","LANE":" ","ALLEY":" ","HOUSE_NO":"９９號之２","E_COORD97":187766.32999999999,"N_COORD97":2585733.77,"ADDRESS":"土溝９９號之２","OBJECTID":96201},"geometry":{"x":187766.33000000007,"y":2585733.7700000033}},{"attributes":{"ID":96202,"DIS_CODE":0,"TOWNNAME":"後壁區","LI":"土溝里","LIN":"10鄰","STREET":" ","SECT":" ","MAREA":"土溝","LANE":" ","ALLEY":" ","HOUSE_NO":"９９號之３","E_COORD97":187769.20999999999,"N_COORD97":2585797.5600000001,"ADDRESS":"土溝９９號之３","OBJECTID":96202},"geometry":{"x":187769.21000000183,"y":2585797.5600000024}},{"attributes":{"ID":96203,"DIS_CODE":0,"TOWNNAME":"後壁區","LI":"土溝里","LIN":"10鄰","STREET":" ","SECT":" ","MAREA":"土溝","LANE":" ","ALLEY":" ","HOUSE_NO":"９９號之４","E_COORD97":187777.72,"N_COORD97":2585815.2799999998,"ADDRESS":"土溝９９號之４","OBJECTID":96203},"geometry":{"x":187777.72000000067,"y":2585815.2800000012}},{"attributes":{"ID":96204,"DIS_CODE":0,"TOWNNAME":"後壁區","LI":"土溝里","LIN":"10鄰","STREET":" ","SECT":" ","MAREA":"土溝","LANE":" ","ALLEY":" ","HOUSE_NO":"９９號之５","E_COORD97":187783.20000000001,"N_COORD97":2585840.5099999998,"ADDRESS":"土溝９９號之５","OBJECTID":96204},"geometry":{"x":187783.20000000205,"y":2585840.5099999998}},{"attributes":{"ID":96205,"DIS_CODE":0,"TOWNNAME":"南區","LI":"府南里","LIN":"15鄰","STREET":"金華路","SECT":"一段","MAREA":" ","LANE":" ","ALLEY":" ","HOUSE_NO":"５０８之２號","E_COORD97":167062.79999999999,"N_COORD97":2541584.27,"ADDRESS":"金華路一段５０８之２號","OBJECTID":96205},"geometry":{"x":167062.79999999981,"y":2541584.2700000033}},{"attributes":{"ID":96206,"DIS_CODE":0,"TOWNNAME":"南區","LI":"府南里","LIN":"15鄰","STREET":"金華路","SECT":"一段","MAREA":" ","LANE":" ","ALLEY":" ","HOUSE_NO":"５１０號","E_COORD97":167045.97,"N_COORD97":2541600.2999999998,"ADDRESS":"金華路一段５１０號","OBJECTID":96206},"geometry":{"x":167045.97000000067,"y":2541600.3000000026}},{"attributes":{"ID":96207,"DIS_CODE":0,"TOWNNAME":"南區","LI":"府南里","LIN":"15鄰","STREET":"金華路","SECT":"一段","MAREA":" ","LANE":" ","ALLEY":" ","HOUSE_NO":"５１２號","E_COORD97":167046.60999999999,"N_COORD97":2541606.6499999999,"ADDRESS":"金華路一段５１２號","OBJECTID":96207},"geometry":{"x":167046.6100000022,"y":2541606.6500000022}},{"attributes":{"ID":96208,"DIS_CODE":0,"TOWNNAME":"永康區","LI":"烏竹里","LIN":"21鄰","STREET":"自強路","SECT":" ","MAREA":" ","LANE":"７７３巷","ALLEY":"２弄","HOUSE_NO":"５號二樓之３","E_COORD97":174501.44,"N_COORD97":2548640.27,"ADDRESS":"自強路７７３巷２弄５號二樓之３","OBJECTID":96208},"geometry":{"x":174501.44000000041,"y":2548640.2700000014}},{"attributes":{"ID":96209,"DIS_CODE":0,"TOWNNAME":"永康區","LI":"神洲里","LIN":"21鄰","STREET":"忠孝路","SECT":" ","MAREA":" ","LANE":"７６巷","ALLEY":"４９弄","HOUSE_NO":"１７號三樓","E_COORD97":172201.70000000001,"N_COORD97":2544966.0099999998,"ADDRESS":"忠孝路７６巷４９弄１７號三樓","OBJECTID":96209},"geometry":{"x":172201.70000000112,"y":2544966.0099999998}},{"attributes":{"ID":96210,"DIS_CODE":0,"TOWNNAME":"永康區","LI":"神洲里","LIN":"21鄰","STREET":"忠孝路","SECT":" ","MAREA":" ","LANE":"７６巷","ALLEY":"４９弄","HOUSE_NO":"２１號五樓","E_COORD97":172174.76999999999,"N_COORD97":2544967.2599999998,"ADDRESS":"忠孝路７６巷４９弄２１號五樓","OBJECTID":96210},"geometry":{"x":172174.77000000048,"y":2544967.2599999998}},{"attributes":{"ID":96211,"DIS_CODE":0,"TOWNNAME":"永康區","LI":"烏竹里","LIN":"21鄰","STREET":"自強路","SECT":" ","MAREA":" ","LANE":"７７３巷","ALLEY":"２弄","HOUSE_NO":"５號四樓之２","E_COORD97":174501.48000000001,"N_COORD97":2548640.27,"ADDRESS":"自強路７７３巷２弄５號四樓之２","OBJECTID":96211},"geometry":{"x":174501.48000000231,"y":2548640.2700000014}},{"attributes":{"ID":96212,"DIS_CODE":0,"TOWNNAME":"永康區","LI":"神洲里","LIN":"21鄰","STREET":"忠孝路","SECT":" ","MAREA":" ","LANE":"７６巷","ALLEY":"４９弄","HOUSE_NO":"１９號五樓","E_COORD97":172187.04000000001,"N_COORD97":2544965.7599999998,"ADDRESS":"忠孝路７６巷４９弄１９號五樓","OBJECTID":96212},"geometry":{"x":172187.04000000097,"y":2544965.7600000016}},{"attributes":{"ID":96213,"DIS_CODE":0,"TOWNNAME":"永康區","LI":"烏竹里","LIN":"21鄰","STREET":"自強路","SECT":" ","MAREA":" ","LANE":"７７３巷","ALLEY":"２弄","HOUSE_NO":"５號二樓之２","E_COORD97":174501.48000000001,"N_COORD97":2548640.27,"ADDRESS":"自強路７７３巷２弄５號二樓之２","OBJECTID":96213},"geometry":{"x":174501.48000000231,"y":2548640.2700000014}},{"attributes":{"ID":96214,"DIS_CODE":0,"TOWNNAME":"後壁區","LI":"土溝里","LIN":"10鄰","STREET":" ","SECT":" ","MAREA":"土溝","LANE":" ","ALLEY":" ","HOUSE_NO":"９９號之６","E_COORD97":187724.37,"N_COORD97":2585843.8599999999,"ADDRESS":"土溝９９號之６","OBJECTID":96214},"geometry":{"x":187724.37000000197,"y":2585843.8599999994}},{"attributes":{"ID":96215,"DIS_CODE":0,"TOWNNAME":"後壁區","LI":"土溝里","LIN":"10鄰","STREET":" ","SECT":" ","MAREA":"土溝","LANE":" ","ALLEY":" ","HOUSE_NO":"９９號之７","E_COORD97":187761.44,"N_COORD97":2585760.5899999999,"ADDRESS":"土溝９９號之７","OBJECTID":96215},"geometry":{"x":187761.44000000227,"y":2585760.5900000017}},{"attributes":{"ID":96216,"DIS_CODE":0,"TOWNNAME":"後壁區","LI":"土溝里","LIN":"10鄰","STREET":" ","SECT":" ","MAREA":"土溝","LANE":" ","ALLEY":" ","HOUSE_NO":"９９號之８","E_COORD97":187765.98000000001,"N_COORD97":2585759.7000000002,"ADDRESS":"土溝９９號之８","OBJECTID":96216},"geometry":{"x":187765.98000000045,"y":2585759.6999999993}},{"attributes":{"ID":96217,"DIS_CODE":0,"TOWNNAME":"後壁區","LI":"土溝里","LIN":"10鄰","STREET":" ","SECT":" ","MAREA":"土溝","LANE":" ","ALLEY":" ","HOUSE_NO":"９９號之９","E_COORD97":187765.14999999999,"N_COORD97":2585787.3500000001,"ADDRESS":"土溝９９號之９","OBJECTID":96217},"geometry":{"x":187765.1500000013,"y":2585787.3499999978}},{"attributes":{"ID":96218,"DIS_CODE":0,"TOWNNAME":"後壁區","LI":"土溝里","LIN":"10鄰","STREET":" ","SECT":" ","MAREA":"土溝","LANE":" ","ALLEY":" ","HOUSE_NO":"９９號","E_COORD97":187740.03,"N_COORD97":2585805.23,"ADDRESS":"土溝９９號","OBJECTID":96218},"geometry":{"x":187740.03000000026,"y":2585805.2300000004}},{"attributes":{"ID":96219,"DIS_CODE":0,"TOWNNAME":"永康區","LI":"烏竹里","LIN":"21鄰","STREET":"自強路","SECT":" ","MAREA":" ","LANE":"７７３巷","ALLEY":"２弄","HOUSE_NO":"２號二樓","E_COORD97":174491.12,"N_COORD97":2548601.9700000002,"ADDRESS":"自強路７７３巷２弄２號二樓","OBJECTID":96219},"geometry":{"x":174491.12000000011,"y":2548601.9699999988}},{"attributes":{"ID":96220,"DIS_CODE":0,"TOWNNAME":"永康區","LI":"烏竹里","LIN":"21鄰","STREET":"自強路","SECT":" ","MAREA":" ","LANE":"７７３巷","ALLEY":"２弄","HOUSE_NO":"１４號三樓","E_COORD97":174528.17000000001,"N_COORD97":2548631.2000000002,"ADDRESS":"自強路７７３巷２弄１４號三樓","OBJECTID":96220},"geometry":{"x":174528.16999999993,"y":2548631.2000000011}},{"attributes":{"ID":96221,"DIS_CODE":0,"TOWNNAME":"永康區","LI":"烏竹里","LIN":"21鄰","STREET":"自強路","SECT":" ","MAREA":" ","LANE":"７７３巷","ALLEY":"２弄","HOUSE_NO":"１６號二樓","E_COORD97":174534.76000000001,"N_COORD97":2548636.46,"ADDRESS":"自強路７７３巷２弄１６號二樓","OBJECTID":96221},"geometry":{"x":174534.76000000071,"y":2548636.4600000046}},{"attributes":{"ID":96222,"DIS_CODE":0,"TOWNNAME":"永康區","LI":"烏竹里","LIN":"21鄰","STREET":"自強路","SECT":" ","MAREA":" ","LANE":"７７３巷","ALLEY":"２弄","HOUSE_NO":"３號五樓之１","E_COORD97":174491.92000000001,"N_COORD97":2548636.77,"ADDRESS":"自強路７７３巷２弄３號五樓之１","OBJECTID":96222},"geometry":{"x":174491.91999999993,"y":2548636.7700000014}},{"attributes":{"ID":96223,"DIS_CODE":0,"TOWNNAME":"永康區","LI":"神洲里","LIN":"21鄰","STREET":"忠孝路","SECT":" ","MAREA":" ","LANE":"７６巷","ALLEY":"４９弄","HOUSE_NO":"２３號四樓","E_COORD97":172161.92000000001,"N_COORD97":2544967.5099999998,"ADDRESS":"忠孝路７６巷４９弄２３號四樓","OBJECTID":96223},"geometry":{"x":172161.92000000179,"y":2544967.5100000016}},{"attributes":{"ID":96224,"DIS_CODE":0,"TOWNNAME":"永康區","LI":"神洲里","LIN":"21鄰","STREET":"忠孝路","SECT":" ","MAREA":" ","LANE":"７６巷","ALLEY":"４７弄","HOUSE_NO":"４號五樓","E_COORD97":172185.42000000001,"N_COORD97":2544952.75,"ADDRESS":"忠孝路７６巷４７弄４號五樓","OBJECTID":96224},"geometry":{"x":172185.41999999993,"y":2544952.7500000019}},{"attributes":{"ID":96225,"DIS_CODE":0,"TOWNNAME":"永康區","LI":"神洲里","LIN":"21鄰","STREET":"忠孝路","SECT":" ","MAREA":" ","LANE":"７６巷","ALLEY":"４９弄","HOUSE_NO":"２１號四樓","E_COORD97":172174.76999999999,"N_COORD97":2544967.2599999998,"ADDRESS":"忠孝路７６巷４９弄２１號四樓","OBJECTID":96225},"geometry":{"x":172174.77000000048,"y":2544967.2599999998}},{"attributes":{"ID":96226,"DIS_CODE":0,"TOWNNAME":"永康區","LI":"烏竹里","LIN":"21鄰","STREET":"自強路","SECT":" ","MAREA":" ","LANE":"７７３巷","ALLEY":"２弄","HOUSE_NO":"６號三樓","E_COORD97":174501.70999999999,"N_COORD97":2548610.9700000002,"ADDRESS":"自強路７７３巷２弄６號三樓","OBJECTID":96226},"geometry":{"x":174501.71000000089,"y":2548610.9700000007}},{"attributes":{"ID":96227,"DIS_CODE":0,"TOWNNAME":"永康區","LI":"神洲里","LIN":"21鄰","STREET":"忠孝路","SECT":" ","MAREA":" ","LANE":"７６巷","ALLEY":"４７弄","HOUSE_NO":"２號四樓","E_COORD97":172198.64999999999,"N_COORD97":2544952,"ADDRESS":"忠孝路７６巷４７弄２號四樓","OBJECTID":96227},"geometry":{"x":172198.6500000013,"y":2544952}},{"attributes":{"ID":96228,"DIS_CODE":0,"TOWNNAME":"永康區","LI":"神洲里","LIN":"21鄰","STREET":"忠孝路","SECT":" ","MAREA":" ","LANE":"７６巷","ALLEY":"４９弄","HOUSE_NO":"２３號三樓","E_COORD97":172161.92000000001,"N_COORD97":2544967.5099999998,"ADDRESS":"忠孝路７６巷４９弄２３號三樓","OBJECTID":96228},"geometry":{"x":172161.92000000179,"y":2544967.5100000016}},{"attributes":{"ID":96229,"DIS_CODE":0,"TOWNNAME":"後壁區","LI":"長安里","LIN":"10鄰","STREET":" ","SECT":" ","MAREA":"中寮","LANE":" ","ALLEY":" ","HOUSE_NO":"１３１號之１","E_COORD97":184172.73999999999,"N_COORD97":2581321.1299999999,"ADDRESS":"中寮１３１號之１","OBJECTID":96229},"geometry":{"x":184172.74000000115,"y":2581321.1300000008}},{"attributes":{"ID":96230,"DIS_CODE":0,"TOWNNAME":"後壁區","LI":"長安里","LIN":"10鄰","STREET":" ","SECT":" ","MAREA":"中寮","LANE":" ","ALLEY":" ","HOUSE_NO":"１３２號之１","E_COORD97":184188.70999999999,"N_COORD97":2581308.7200000002,"ADDRESS":"中寮１３２號之１","OBJECTID":96230},"geometry":{"x":184188.70999999996,"y":2581308.7200000025}},{"attributes":{"ID":96231,"DIS_CODE":0,"TOWNNAME":"後壁區","LI":"長安里","LIN":"10鄰","STREET":" ","SECT":" ","MAREA":"中寮","LANE":" ","ALLEY":" ","HOUSE_NO":"１３３號","E_COORD97":184221.04000000001,"N_COORD97":2581313.52,"ADDRESS":"中寮１３３號","OBJECTID":96231},"geometry":{"x":184221.04000000097,"y":2581313.5199999996}},{"attributes":{"ID":96232,"DIS_CODE":0,"TOWNNAME":"後壁區","LI":"長安里","LIN":"10鄰","STREET":" ","SECT":" ","MAREA":"中寮","LANE":" ","ALLEY":" ","HOUSE_NO":"１３４號","E_COORD97":184230.60000000001,"N_COORD97":2581296.52,"ADDRESS":"中寮１３４號","OBJECTID":96232},"geometry":{"x":184230.60000000056,"y":2581296.5199999996}},{"attributes":{"ID":96233,"DIS_CODE":0,"TOWNNAME":"後壁區","LI":"長安里","LIN":"10鄰","STREET":" ","SECT":" ","MAREA":"中寮","LANE":" ","ALLEY":" ","HOUSE_NO":"１３６號","E_COORD97":184241.10000000001,"N_COORD97":2581318.2400000002,"ADDRESS":"中寮１３６號","OBJECTID":96233},"geometry":{"x":184241.09999999963,"y":2581318.2400000021}},{"attributes":{"ID":96234,"DIS_CODE":0,"TOWNNAME":"後壁區","LI":"長安里","LIN":"10鄰","STREET":" ","SECT":" ","MAREA":"中寮","LANE":" ","ALLEY":" ","HOUSE_NO":"１３７號","E_COORD97":184289.19,"N_COORD97":2581307.1699999999,"ADDRESS":"中寮１３７號","OBJECTID":96234},"geometry":{"x":184289.19000000041,"y":2581307.1700000037}},{"attributes":{"ID":96235,"DIS_CODE":0,"TOWNNAME":"永康區","LI":"烏竹里","LIN":"21鄰","STREET":"自強路","SECT":" ","MAREA":" ","LANE":"７７３巷","ALLEY":"２弄","HOUSE_NO":"２０號三樓","E_COORD97":174547.97,"N_COORD97":2548646.71,"ADDRESS":"自強路７７３巷２弄２０號三樓","OBJECTID":96235},"geometry":{"x":174547.96999999974,"y":2548646.7100000009}},{"attributes":{"ID":96236,"DIS_CODE":0,"TOWNNAME":"南區","LI":"佛壇里","LIN":"15鄰","STREET":"灣裡路","SECT":" ","MAREA":" ","LANE":" ","ALLEY":" ","HOUSE_NO":"６３８號","E_COORD97":166090.76000000001,"N_COORD97":2535609.3999999999,"ADDRESS":"灣裡路６３８號","OBJECTID":96236},"geometry":{"x":166090.76000000071,"y":2535609.4000000004}},{"attributes":{"ID":96237,"DIS_CODE":0,"TOWNNAME":"後壁區","LI":"長安里","LIN":"10鄰","STREET":" ","SECT":" ","MAREA":"中寮","LANE":" ","ALLEY":" ","HOUSE_NO":"１３８號之１０","E_COORD97":184265.89000000001,"N_COORD97":2581327.6200000001,"ADDRESS":"中寮１３８號之１０","OBJECTID":96237},"geometry":{"x":184265.8900000006,"y":2581327.620000001}},{"attributes":{"ID":96238,"DIS_CODE":0,"TOWNNAME":"後壁區","LI":"長安里","LIN":"10鄰","STREET":" ","SECT":" ","MAREA":"中寮","LANE":" ","ALLEY":" ","HOUSE_NO":"１３８號之１","E_COORD97":184286.01999999999,"N_COORD97":2581346.6000000001,"ADDRESS":"中寮１３８號之１","OBJECTID":96238},"geometry":{"x":184286.01999999955,"y":2581346.5999999996}},{"attributes":{"ID":96239,"DIS_CODE":0,"TOWNNAME":"後壁區","LI":"長安里","LIN":"10鄰","STREET":" ","SECT":" ","MAREA":"中寮","LANE":" ","ALLEY":" ","HOUSE_NO":"１３８號之２","E_COORD97":184283.16,"N_COORD97":2581340.9399999999,"ADDRESS":"中寮１３８號之２","OBJECTID":96239},"geometry":{"x":184283.16000000108,"y":2581340.9399999995}},{"attributes":{"ID":96240,"DIS_CODE":0,"TOWNNAME":"安南區","LI":"學東里","LIN":"13鄰","STREET":"公學路","SECT":"七段","MAREA":" ","LANE":" ","ALLEY":" ","HOUSE_NO":"６３號","E_COORD97":161846.20000000001,"N_COORD97":2553352.6499999999,"ADDRESS":"公學路七段６３號","OBJECTID":96240},"geometry":{"x":161846.20000000019,"y":2553352.6500000004}},{"attributes":{"ID":96241,"DIS_CODE":0,"TOWNNAME":"安南區","LI":"城東里","LIN":"1鄰","STREET":"安明路","SECT":"四段","MAREA":" ","LANE":" ","ALLEY":" ","HOUSE_NO":"７０２號之６","E_COORD97":161309.20000000001,"N_COORD97":2551801.25,"ADDRESS":"安明路四段７０２號之６","OBJECTID":96241},"geometry":{"x":161309.19999999925,"y":2551801.2500000019}},{"attributes":{"ID":96242,"DIS_CODE":0,"TOWNNAME":"新營區","LI":"五興里","LIN":"12鄰","STREET":" ","SECT":" ","MAREA":"五間厝","LANE":" ","ALLEY":" ","HOUSE_NO":"１３１號之１","E_COORD97":175462.42000000001,"N_COORD97":2574365.5299999998,"ADDRESS":"五間厝１３１之１號","OBJECTID":96242},"geometry":{"x":175462.42000000179,"y":2574365.5299999993}},{"attributes":{"ID":96243,"DIS_CODE":0,"TOWNNAME":"後壁區","LI":"長安里","LIN":"10鄰","STREET":" ","SECT":" ","MAREA":"中寮","LANE":" ","ALLEY":" ","HOUSE_NO":"１３８號之３","E_COORD97":184284.78,"N_COORD97":2581334.8100000001,"ADDRESS":"中寮１３８號之３","OBJECTID":96243},"geometry":{"x":184284.78000000026,"y":2581334.8100000024}},{"attributes":{"ID":96244,"DIS_CODE":0,"TOWNNAME":"永康區","LI":"神洲里","LIN":"21鄰","STREET":"忠孝路","SECT":" ","MAREA":" ","LANE":"７６巷","ALLEY":"４９弄","HOUSE_NO":"１９號三樓","E_COORD97":172187.04000000001,"N_COORD97":2544965.7599999998,"ADDRESS":"忠孝路７６巷４９弄１９號三樓","OBJECTID":96244},"geometry":{"x":172187.04000000097,"y":2544965.7600000016}},{"attributes":{"ID":96245,"DIS_CODE":0,"TOWNNAME":"永康區","LI":"神洲里","LIN":"21鄰","STREET":"忠孝路","SECT":" ","MAREA":" ","LANE":"７６巷","ALLEY":"４９弄","HOUSE_NO":"１９號四樓","E_COORD97":172187.04000000001,"N_COORD97":2544965.7599999998,"ADDRESS":"忠孝路７６巷４９弄１９號四樓","OBJECTID":96245},"geometry":{"x":172187.04000000097,"y":2544965.7600000016}},{"attributes":{"ID":96246,"DIS_CODE":0,"TOWNNAME":"永康區","LI":"烏竹里","LIN":"21鄰","STREET":"自強路","SECT":" ","MAREA":" ","LANE":"７７３巷","ALLEY":"２弄","HOUSE_NO":"５號五樓之３","E_COORD97":174501.44,"N_COORD97":2548640.27,"ADDRESS":"自強路７７３巷２弄５號五樓之３","OBJECTID":96246},"geometry":{"x":174501.44000000041,"y":2548640.2700000014}},{"attributes":{"ID":96247,"DIS_CODE":0,"TOWNNAME":"永康區","LI":"神洲里","LIN":"21鄰","STREET":"忠孝路","SECT":" ","MAREA":" ","LANE":"７６巷","ALLEY":"４９弄","HOUSE_NO":"２１號三樓","E_COORD97":172174.76999999999,"N_COORD97":2544967.2599999998,"ADDRESS":"忠孝路７６巷４９弄２１號三樓","OBJECTID":96247},"geometry":{"x":172174.77000000048,"y":2544967.2599999998}},{"attributes":{"ID":96248,"DIS_CODE":0,"TOWNNAME":"永康區","LI":"神洲里","LIN":"21鄰","STREET":"忠孝路","SECT":" ","MAREA":" ","LANE":"７６巷","ALLEY":"４７弄","HOUSE_NO":"２號二樓","E_COORD97":172198.64999999999,"N_COORD97":2544952,"ADDRESS":"忠孝路７６巷４７弄２號二樓","OBJECTID":96248},"geometry":{"x":172198.6500000013,"y":2544952}},{"attributes":{"ID":96249,"DIS_CODE":0,"TOWNNAME":"永康區","LI":"烏竹里","LIN":"21鄰","STREET":"自強路","SECT":" ","MAREA":" ","LANE":"７７３巷","ALLEY":"２弄","HOUSE_NO":"１６號三樓","E_COORD97":174534.76000000001,"N_COORD97":2548636.46,"ADDRESS":"自強路７７３巷２弄１６號三樓","OBJECTID":96249},"geometry":{"x":174534.76000000071,"y":2548636.4600000046}},{"attributes":{"ID":96250,"DIS_CODE":0,"TOWNNAME":"永康區","LI":"烏竹里","LIN":"21鄰","STREET":"自強路","SECT":" ","MAREA":" ","LANE":"７７３巷","ALLEY":"２弄","HOUSE_NO":"２０號二樓","E_COORD97":174547.97,"N_COORD97":2548646.71,"ADDRESS":"自強路７７３巷２弄２０號二樓","OBJECTID":96250},"geometry":{"x":174547.96999999974,"y":2548646.7100000009}},{"attributes":{"ID":96251,"DIS_CODE":0,"TOWNNAME":"永康區","LI":"烏竹里","LIN":"21鄰","STREET":"自強路","SECT":" ","MAREA":" ","LANE":"７７３巷","ALLEY":"２弄","HOUSE_NO":"２０號四樓","E_COORD97":174547.97,"N_COORD97":2548646.71,"ADDRESS":"自強路７７３巷２弄２０號四樓","OBJECTID":96251},"geometry":{"x":174547.96999999974,"y":2548646.7100000009}},{"attributes":{"ID":96252,"DIS_CODE":0,"TOWNNAME":"新化區","LI":"協興里","LIN":"10鄰","STREET":"正新路","SECT":" ","MAREA":" ","LANE":"３６３巷","ALLEY":"３６弄","HOUSE_NO":"３號","E_COORD97":178434.17000000001,"N_COORD97":2548920.25,"ADDRESS":"正新路３６３巷３６弄３號","OBJECTID":96252},"geometry":{"x":178434.17000000179,"y":2548920.25}},{"attributes":{"ID":96253,"DIS_CODE":0,"TOWNNAME":"東區","LI":"東聖里","LIN":"21鄰","STREET":"中華東路","SECT":"二段","MAREA":" ","LANE":"１３３巷","ALLEY":"７７弄","HOUSE_NO":"１０號三樓","E_COORD97":171599.62,"N_COORD97":2542864.0899999999,"ADDRESS":"中華東路二段１３３巷７７弄１０號三樓","OBJECTID":96253},"geometry":{"x":171599.62000000197,"y":2542864.0900000036}},{"attributes":{"ID":96254,"DIS_CODE":0,"TOWNNAME":"東區","LI":"崇明里","LIN":"21鄰","STREET":"中華東路","SECT":"三段","MAREA":" ","LANE":"３９９巷","ALLEY":"２１弄","HOUSE_NO":"１號五樓","E_COORD97":170088.78,"N_COORD97":2541471.7200000002,"ADDRESS":"中華東路三段３９９巷２１弄１號五樓","OBJECTID":96254},"geometry":{"x":170088.78000000119,"y":2541471.7200000025}},{"attributes":{"ID":96255,"DIS_CODE":0,"TOWNNAME":"東區","LI":"東聖里","LIN":"21鄰","STREET":"中華東路","SECT":"二段","MAREA":" ","LANE":"１３３巷","ALLEY":"７７弄","HOUSE_NO":"１０號三樓之１","E_COORD97":171599.62,"N_COORD97":2542864.0899999999,"ADDRESS":"中華東路二段１３３巷７７弄１０號三樓之１","OBJECTID":96255},"geometry":{"x":171599.62000000197,"y":2542864.0900000036}},{"attributes":{"ID":96256,"DIS_CODE":0,"TOWNNAME":"東區","LI":"東聖里","LIN":"21鄰","STREET":"中華東路","SECT":"二段","MAREA":" ","LANE":"１３３巷","ALLEY":"７７弄","HOUSE_NO":"１０號三樓之２","E_COORD97":171599.62,"N_COORD97":2542864.0899999999,"ADDRESS":"中華東路二段１３３巷７７弄１０號三樓之２","OBJECTID":96256},"geometry":{"x":171599.62000000197,"y":2542864.0900000036}},{"attributes":{"ID":96257,"DIS_CODE":0,"TOWNNAME":"東區","LI":"東聖里","LIN":"21鄰","STREET":"中華東路","SECT":"二段","MAREA":" ","LANE":"１３３巷","ALLEY":"７７弄","HOUSE_NO":"１０號三樓之３","E_COORD97":171599.62,"N_COORD97":2542864.0899999999,"ADDRESS":"中華東路二段１３３巷７７弄１０號三樓之３","OBJECTID":96257},"geometry":{"x":171599.62000000197,"y":2542864.0900000036}},{"attributes":{"ID":96258,"DIS_CODE":0,"TOWNNAME":"東區","LI":"東聖里","LIN":"21鄰","STREET":"中華東路","SECT":"二段","MAREA":" ","LANE":"１３３巷","ALLEY":"７７弄","HOUSE_NO":"１０號三樓之４","E_COORD97":171599.62,"N_COORD97":2542864.0899999999,"ADDRESS":"中華東路二段１３３巷７７弄１０號三樓之４","OBJECTID":96258},"geometry":{"x":171599.62000000197,"y":2542864.0900000036}},{"attributes":{"ID":96259,"DIS_CODE":0,"TOWNNAME":"東區","LI":"東聖里","LIN":"21鄰","STREET":"中華東路","SECT":"二段","MAREA":" ","LANE":"１３３巷","ALLEY":"７７弄","HOUSE_NO":"１０號三樓之５","E_COORD97":171599.62,"N_COORD97":2542864.0899999999,"ADDRESS":"中華東路二段１３３巷７７弄１０號三樓之５","OBJECTID":96259},"geometry":{"x":171599.62000000197,"y":2542864.0900000036}},{"attributes":{"ID":96260,"DIS_CODE":0,"TOWNNAME":"東區","LI":"東聖里","LIN":"21鄰","STREET":"中華東路","SECT":"二段","MAREA":" ","LANE":"１３３巷","ALLEY":"７７弄","HOUSE_NO":"１０號三樓之６","E_COORD97":171599.62,"N_COORD97":2542864.0899999999,"ADDRESS":"中華東路二段１３３巷７７弄１０號三樓之６","OBJECTID":96260},"geometry":{"x":171599.62000000197,"y":2542864.0900000036}},{"attributes":{"ID":96261,"DIS_CODE":0,"TOWNNAME":"東區","LI":"東聖里","LIN":"21鄰","STREET":"中華東路","SECT":"二段","MAREA":" ","LANE":"１３３巷","ALLEY":"７７弄","HOUSE_NO":"１０號五樓","E_COORD97":171599.62,"N_COORD97":2542864.0899999999,"ADDRESS":"中華東路二段１３３巷７７弄１０號五樓","OBJECTID":96261},"geometry":{"x":171599.62000000197,"y":2542864.0900000036}},{"attributes":{"ID":96262,"DIS_CODE":0,"TOWNNAME":"東區","LI":"東聖里","LIN":"21鄰","STREET":"中華東路","SECT":"二段","MAREA":" ","LANE":"１３３巷","ALLEY":"７７弄","HOUSE_NO":"１０號五樓之１","E_COORD97":171599.62,"N_COORD97":2542864.0899999999,"ADDRESS":"中華東路二段１３３巷７７弄１０號五樓之１","OBJECTID":96262},"geometry":{"x":171599.62000000197,"y":2542864.0900000036}},{"attributes":{"ID":96263,"DIS_CODE":0,"TOWNNAME":"東區","LI":"東聖里","LIN":"21鄰","STREET":"中華東路","SECT":"二段","MAREA":" ","LANE":"１３３巷","ALLEY":"７７弄","HOUSE_NO":"１０號五樓之２","E_COORD97":171599.62,"N_COORD97":2542864.0899999999,"ADDRESS":"中華東路二段１３３巷７７弄１０號五樓之２","OBJECTID":96263},"geometry":{"x":171599.62000000197,"y":2542864.0900000036}},{"attributes":{"ID":96264,"DIS_CODE":0,"TOWNNAME":"新營區","LI":"三仙里","LIN":"13鄰","STREET":"武昌街","SECT":" ","MAREA":" ","LANE":" ","ALLEY":" ","HOUSE_NO":"６３號","E_COORD97":179613.88,"N_COORD97":2578284.3900000001,"ADDRESS":"武昌街６３號","OBJECTID":96264},"geometry":{"x":179613.87999999989,"y":2578284.3900000006}},{"attributes":{"ID":96265,"DIS_CODE":0,"TOWNNAME":"新營區","LI":"三仙里","LIN":" ","STREET":"正義街","SECT":" ","MAREA":" ","LANE":" ","ALLEY":" ","HOUSE_NO":"１２之３號","E_COORD97":179691.06,"N_COORD97":2578072.5600000001,"ADDRESS":"正義街１２之３號","OBJECTID":96265},"geometry":{"x":179691.06000000052,"y":2578072.5600000005}},{"attributes":{"ID":96266,"DIS_CODE":0,"TOWNNAME":"新營區","LI":"興安里","LIN":" ","STREET":"新進路","SECT":" ","MAREA":" ","LANE":" ","ALLEY":" ","HOUSE_NO":"３５９號","E_COORD97":179840.72,"N_COORD97":2577737.3500000001,"ADDRESS":"新進路３５９號","OBJECTID":96266},"geometry":{"x":179840.72000000067,"y":2577737.3499999996}},{"attributes":{"ID":96267,"DIS_CODE":0,"TOWNNAME":"新營區","LI":"太北里","LIN":"6鄰","STREET":" ","SECT":" ","MAREA":"太子宮","LANE":" ","ALLEY":" ","HOUSE_NO":"４７號之１３","E_COORD97":175868.25,"N_COORD97":2577142.1099999999,"ADDRESS":"太子宮４７號之１３","OBJECTID":96267},"geometry":{"x":175868.25,"y":2577142.1099999994}},{"attributes":{"ID":96268,"DIS_CODE":0,"TOWNNAME":"善化區","LI":"小新里","LIN":"15鄰","STREET":" ","SECT":" ","MAREA":"小新營","LANE":" ","ALLEY":" ","HOUSE_NO":"１１３號之２","E_COORD97":179845.17999999999,"N_COORD97":2558079.27,"ADDRESS":"小新營１１３號之２","OBJECTID":96268},"geometry":{"x":179845.1799999997,"y":2558079.2700000014}},{"attributes":{"ID":96269,"DIS_CODE":0,"TOWNNAME":"東區","LI":"東聖里","LIN":"21鄰","STREET":"中華東路","SECT":"二段","MAREA":" ","LANE":"１３３巷","ALLEY":"７７弄","HOUSE_NO":"１０號五樓之３","E_COORD97":171599.62,"N_COORD97":2542864.0899999999,"ADDRESS":"中華東路二段１３３巷７７弄１０號五樓之３","OBJECTID":96269},"geometry":{"x":171599.62000000197,"y":2542864.0900000036}},{"attributes":{"ID":96270,"DIS_CODE":0,"TOWNNAME":"東區","LI":"東聖里","LIN":"21鄰","STREET":"中華東路","SECT":"二段","MAREA":" ","LANE":"１３３巷","ALLEY":"７７弄","HOUSE_NO":"１０號五樓之４","E_COORD97":171599.62,"N_COORD97":2542864.0899999999,"ADDRESS":"中華東路二段１３３巷７７弄１０號五樓之４","OBJECTID":96270},"geometry":{"x":171599.62000000197,"y":2542864.0900000036}},{"attributes":{"ID":96271,"DIS_CODE":0,"TOWNNAME":"東區","LI":"東聖里","LIN":"21鄰","STREET":"中華東路","SECT":"二段","MAREA":" ","LANE":"１３３巷","ALLEY":"７７弄","HOUSE_NO":"１０號五樓之５","E_COORD97":171599.62,"N_COORD97":2542864.0899999999,"ADDRESS":"中華東路二段１３３巷７７弄１０號五樓之５","OBJECTID":96271},"geometry":{"x":171599.62000000197,"y":2542864.0900000036}},{"attributes":{"ID":96272,"DIS_CODE":0,"TOWNNAME":"東區","LI":"東聖里","LIN":"21鄰","STREET":"中華東路","SECT":"二段","MAREA":" ","LANE":"１３３巷","ALLEY":"７７弄","HOUSE_NO":"１０號五樓之６","E_COORD97":171599.62,"N_COORD97":2542864.0899999999,"ADDRESS":"中華東路二段１３３巷７７弄１０號五樓之６","OBJECTID":96272},"geometry":{"x":171599.62000000197,"y":2542864.0900000036}},{"attributes":{"ID":96273,"DIS_CODE":0,"TOWNNAME":"東區","LI":"東聖里","LIN":"21鄰","STREET":"中華東路","SECT":"二段","MAREA":" ","LANE":"１３３巷","ALLEY":"７７弄","HOUSE_NO":"１０號六樓","E_COORD97":171599.62,"N_COORD97":2542864.0899999999,"ADDRESS":"中華東路二段１３３巷７７弄１０號六樓","OBJECTID":96273},"geometry":{"x":171599.62000000197,"y":2542864.0900000036}},{"attributes":{"ID":96274,"DIS_CODE":0,"TOWNNAME":"東區","LI":"東聖里","LIN":"21鄰","STREET":"中華東路","SECT":"二段","MAREA":" ","LANE":"１３３巷","ALLEY":"７７弄","HOUSE_NO":"１０號六樓之１","E_COORD97":171599.62,"N_COORD97":2542864.0899999999,"ADDRESS":"中華東路二段１３３巷７７弄１０號六樓之１","OBJECTID":96274},"geometry":{"x":171599.62000000197,"y":2542864.0900000036}},{"attributes":{"ID":96275,"DIS_CODE":0,"TOWNNAME":"東區","LI":"東聖里","LIN":"21鄰","STREET":"中華東路","SECT":"二段","MAREA":" ","LANE":"１３３巷","ALLEY":"７７弄","HOUSE_NO":"１０號六樓之２","E_COORD97":171599.62,"N_COORD97":2542864.0899999999,"ADDRESS":"中華東路二段１３３巷７７弄１０號六樓之２","OBJECTID":96275},"geometry":{"x":171599.62000000197,"y":2542864.0900000036}},{"attributes":{"ID":96276,"DIS_CODE":0,"TOWNNAME":"東區","LI":"東聖里","LIN":"21鄰","STREET":"中華東路","SECT":"二段","MAREA":" ","LANE":"１３３巷","ALLEY":"７７弄","HOUSE_NO":"１０號六樓之３","E_COORD97":171599.62,"N_COORD97":2542864.0899999999,"ADDRESS":"中華東路二段１３３巷７７弄１０號六樓之３","OBJECTID":96276},"geometry":{"x":171599.62000000197,"y":2542864.0900000036}},{"attributes":{"ID":96277,"DIS_CODE":0,"TOWNNAME":"東區","LI":"東聖里","LIN":"21鄰","STREET":"中華東路","SECT":"二段","MAREA":" ","LANE":"１３３巷","ALLEY":"７７弄","HOUSE_NO":"１０號六樓之４","E_COORD97":171599.62,"N_COORD97":2542864.0899999999,"ADDRESS":"中華東路二段１３３巷７７弄１０號六樓之４","OBJECTID":96277},"geometry":{"x":171599.62000000197,"y":2542864.0900000036}},{"attributes":{"ID":96278,"DIS_CODE":0,"TOWNNAME":"南區","LI":"大忠里","LIN":"22鄰","STREET":"中華南路","SECT":"一段","MAREA":" ","LANE":"１７５巷","ALLEY":"５弄","HOUSE_NO":"８號","E_COORD97":169141.89000000001,"N_COORD97":2541146.6800000002,"ADDRESS":"中華南路一段１７５巷５弄８號","OBJECTID":96278},"geometry":{"x":169141.88999999966,"y":2541146.6799999997}},{"attributes":{"ID":96279,"DIS_CODE":0,"TOWNNAME":"東區","LI":"東聖里","LIN":"21鄰","STREET":"中華東路","SECT":"二段","MAREA":" ","LANE":"１３３巷","ALLEY":"７７弄","HOUSE_NO":"１０號六樓之５","E_COORD97":171599.62,"N_COORD97":2542864.0899999999,"ADDRESS":"中華東路二段１３３巷７７弄１０號六樓之５","OBJECTID":96279},"geometry":{"x":171599.62000000197,"y":2542864.0900000036}},{"attributes":{"ID":96280,"DIS_CODE":0,"TOWNNAME":"東區","LI":"東聖里","LIN":"21鄰","STREET":"中華東路","SECT":"二段","MAREA":" ","LANE":"１３３巷","ALLEY":"７７弄","HOUSE_NO":"１０號六樓之６","E_COORD97":171599.62,"N_COORD97":2542864.0899999999,"ADDRESS":"中華東路二段１３３巷７７弄１０號六樓之６","OBJECTID":96280},"geometry":{"x":171599.62000000197,"y":2542864.0900000036}},{"attributes":{"ID":96281,"DIS_CODE":0,"TOWNNAME":"東區","LI":"東聖里","LIN":"21鄰","STREET":"中華東路","SECT":"二段","MAREA":" ","LANE":"１３３巷","ALLEY":"７７弄","HOUSE_NO":"１０號四樓","E_COORD97":171599.62,"N_COORD97":2542864.0899999999,"ADDRESS":"中華東路二段１３３巷７７弄１０號四樓","OBJECTID":96281},"geometry":{"x":171599.62000000197,"y":2542864.0900000036}},{"attributes":{"ID":96282,"DIS_CODE":0,"TOWNNAME":"東區","LI":"東聖里","LIN":"21鄰","STREET":"中華東路","SECT":"二段","MAREA":" ","LANE":"１３３巷","ALLEY":"７７弄","HOUSE_NO":"１０號四樓之１","E_COORD97":171599.62,"N_COORD97":2542864.0899999999,"ADDRESS":"中華東路二段１３３巷７７弄１０號四樓之１","OBJECTID":96282},"geometry":{"x":171599.62000000197,"y":2542864.0900000036}},{"attributes":{"ID":96283,"DIS_CODE":0,"TOWNNAME":"新營區","LI":"民榮里","LIN":"20鄰","STREET":"裕民路","SECT":" ","MAREA":" ","LANE":"１２巷","ALLEY":" ","HOUSE_NO":"１號","E_COORD97":179107.78,"N_COORD97":2577951.2400000002,"ADDRESS":"裕民路１２巷１號","OBJECTID":96283},"geometry":{"x":179107.78000000026,"y":2577951.2400000021}},{"attributes":{"ID":96284,"DIS_CODE":0,"TOWNNAME":"玉井區","LI":"竹圍里","LIN":"15鄰","STREET":"仁愛街","SECT":" ","MAREA":" ","LANE":" ","ALLEY":" ","HOUSE_NO":"３６６號","E_COORD97":195384.42000000001,"N_COORD97":2558285.5299999998,"ADDRESS":"仁愛街３６６號","OBJECTID":96284},"geometry":{"x":195384.42000000086,"y":2558285.5299999993}},{"attributes":{"ID":96285,"DIS_CODE":0,"TOWNNAME":"玉井區","LI":"玉田里","LIN":"15鄰","STREET":"民權路","SECT":" ","MAREA":" ","LANE":" ","ALLEY":" ","HOUSE_NO":"１５８號","E_COORD97":194511.09,"N_COORD97":2557896.2799999998,"ADDRESS":"民權路１５８號","OBJECTID":96285},"geometry":{"x":194511.08999999985,"y":2557896.2800000012}},{"attributes":{"ID":96286,"DIS_CODE":0,"TOWNNAME":"玉井區","LI":"玉田里","LIN":"15鄰","STREET":"民權路","SECT":" ","MAREA":" ","LANE":" ","ALLEY":" ","HOUSE_NO":"１５０號","E_COORD97":194527.57999999999,"N_COORD97":2557899.2799999998,"ADDRESS":"民權路１５０號","OBJECTID":96286},"geometry":{"x":194527.58000000101,"y":2557899.2800000012}},{"attributes":{"ID":96287,"DIS_CODE":0,"TOWNNAME":"玉井區","LI":"玉田里","LIN":"15鄰","STREET":"民權路","SECT":" ","MAREA":" ","LANE":" ","ALLEY":" ","HOUSE_NO":"１４４號","E_COORD97":194539.5,"N_COORD97":2557899.2799999998,"ADDRESS":"民權路１４４號","OBJECTID":96287},"geometry":{"x":194539.49999999907,"y":2557899.2800000012}},{"attributes":{"ID":96288,"DIS_CODE":0,"TOWNNAME":"玉井區","LI":"玉田里","LIN":"15鄰","STREET":"民權路","SECT":" ","MAREA":" ","LANE":" ","ALLEY":" ","HOUSE_NO":"１６２號","E_COORD97":194501.88,"N_COORD97":2557895.2799999998,"ADDRESS":"民權路１６２號","OBJECTID":96288},"geometry":{"x":194501.88000000082,"y":2557895.2800000031}},{"attributes":{"ID":96289,"DIS_CODE":0,"TOWNNAME":"玉井區","LI":"玉田里","LIN":"15鄰","STREET":"民權路","SECT":" ","MAREA":" ","LANE":" ","ALLEY":" ","HOUSE_NO":"１６０號","E_COORD97":194506.57999999999,"N_COORD97":2557895.2799999998,"ADDRESS":"民權路１６０號","OBJECTID":96289},"geometry":{"x":194506.58000000007,"y":2557895.2800000031}},{"attributes":{"ID":96290,"DIS_CODE":0,"TOWNNAME":"玉井區","LI":"玉田里","LIN":"15鄰","STREET":"民權路","SECT":" ","MAREA":" ","LANE":" ","ALLEY":" ","HOUSE_NO":"１４９號","E_COORD97":194440.09,"N_COORD97":2557857.2799999998,"ADDRESS":"民權路１４９號","OBJECTID":96290},"geometry":{"x":194440.08999999985,"y":2557857.2799999993}},{"attributes":{"ID":96291,"DIS_CODE":0,"TOWNNAME":"玉井區","LI":"玉田里","LIN":"15鄰","STREET":"民權路","SECT":" ","MAREA":" ","LANE":" ","ALLEY":" ","HOUSE_NO":"１５３號","E_COORD97":194430.07999999999,"N_COORD97":2557853.2799999998,"ADDRESS":"民權路１５３號","OBJECTID":96291},"geometry":{"x":194430.08000000007,"y":2557853.2799999993}},{"attributes":{"ID":96292,"DIS_CODE":0,"TOWNNAME":"玉井區","LI":"玉田里","LIN":"15鄰","STREET":"民權路","SECT":" ","MAREA":" ","LANE":" ","ALLEY":" ","HOUSE_NO":"１３４號","E_COORD97":194573.67999999999,"N_COORD97":2557907.29,"ADDRESS":"民權路１３４號","OBJECTID":96292},"geometry":{"x":194573.68000000156,"y":2557907.2899999991}},{"attributes":{"ID":96293,"DIS_CODE":0,"TOWNNAME":"玉井區","LI":"玉田里","LIN":"15鄰","STREET":"民權路","SECT":" ","MAREA":" ","LANE":" ","ALLEY":" ","HOUSE_NO":"１５２號","E_COORD97":194523.79000000001,"N_COORD97":2557899.2799999998,"ADDRESS":"民權路１５２號","OBJECTID":96293},"geometry":{"x":194523.79000000004,"y":2557899.2800000012}},{"attributes":{"ID":96294,"DIS_CODE":0,"TOWNNAME":"安南區","LI":"原佃里","LIN":"1鄰","STREET":"怡安路","SECT":"二段","MAREA":" ","LANE":" ","ALLEY":" ","HOUSE_NO":"４９０號","E_COORD97":167524.84,"N_COORD97":2549478.8100000001,"ADDRESS":"怡安路二段４９０號","OBJECTID":96294},"geometry":{"x":167524.84000000078,"y":2549478.8100000024}},{"attributes":{"ID":96295,"DIS_CODE":0,"TOWNNAME":"南區","LI":"白雪里","LIN":" ","STREET":"鹽埕路","SECT":" ","MAREA":" ","LANE":" ","ALLEY":" ","HOUSE_NO":"７０號","E_COORD97":166824.19,"N_COORD97":2540873.3799999999,"ADDRESS":"鹽埕路７０號","OBJECTID":96295},"geometry":{"x":166824.19000000227,"y":2540873.379999999}},{"attributes":{"ID":96296,"DIS_CODE":0,"TOWNNAME":"東區","LI":"東聖里","LIN":"21鄰","STREET":"中華東路","SECT":"二段","MAREA":" ","LANE":"１３３巷","ALLEY":"７７弄","HOUSE_NO":"１０號四樓之２","E_COORD97":171599.62,"N_COORD97":2542864.0899999999,"ADDRESS":"中華東路二段１３３巷７７弄１０號四樓之２","OBJECTID":96296},"geometry":{"x":171599.62000000197,"y":2542864.0900000036}},{"attributes":{"ID":96297,"DIS_CODE":0,"TOWNNAME":"東區","LI":"東聖里","LIN":"21鄰","STREET":"中華東路","SECT":"二段","MAREA":" ","LANE":"１３３巷","ALLEY":"７７弄","HOUSE_NO":"１０號四樓之３","E_COORD97":171599.62,"N_COORD97":2542864.0899999999,"ADDRESS":"中華東路二段１３３巷７７弄１０號四樓之３","OBJECTID":96297},"geometry":{"x":171599.62000000197,"y":2542864.0900000036}},{"attributes":{"ID":96298,"DIS_CODE":0,"TOWNNAME":"東區","LI":"東聖里","LIN":"21鄰","STREET":"中華東路","SECT":"二段","MAREA":" ","LANE":"１３３巷","ALLEY":"７７弄","HOUSE_NO":"１０號四樓之４","E_COORD97":171599.62,"N_COORD97":2542864.0899999999,"ADDRESS":"中華東路二段１３３巷７７弄１０號四樓之４","OBJECTID":96298},"geometry":{"x":171599.62000000197,"y":2542864.0900000036}},{"attributes":{"ID":96299,"DIS_CODE":0,"TOWNNAME":"後壁區","LI":"長安里","LIN":"10鄰","STREET":" ","SECT":" ","MAREA":"中寮","LANE":" ","ALLEY":" ","HOUSE_NO":"１４４號之１","E_COORD97":184174.73999999999,"N_COORD97":2581340.4300000002,"ADDRESS":"中寮１４４號之１","OBJECTID":96299},"geometry":{"x":184174.74000000022,"y":2581340.4300000016}},{"attributes":{"ID":96300,"DIS_CODE":0,"TOWNNAME":"東區","LI":"東聖里","LIN":"21鄰","STREET":"中華東路","SECT":"二段","MAREA":" ","LANE":"１３３巷","ALLEY":"７７弄","HOUSE_NO":"１０號四樓之５","E_COORD97":171599.62,"N_COORD97":2542864.0899999999,"ADDRESS":"中華東路二段１３３巷７７弄１０號四樓之５","OBJECTID":96300},"geometry":{"x":171599.62000000197,"y":2542864.0900000036}},{"attributes":{"ID":96301,"DIS_CODE":0,"TOWNNAME":"東區","LI":"東聖里","LIN":"21鄰","STREET":"中華東路","SECT":"二段","MAREA":" ","LANE":"１３３巷","ALLEY":"７７弄","HOUSE_NO":"１０號四樓之６","E_COORD97":171599.62,"N_COORD97":2542864.0899999999,"ADDRESS":"中華東路二段１３３巷７７弄１０號四樓之６","OBJECTID":96301},"geometry":{"x":171599.62000000197,"y":2542864.0900000036}},{"attributes":{"ID":96302,"DIS_CODE":0,"TOWNNAME":"永康區","LI":"\u25A0行里","LIN":"21鄰","STREET":"正南五街","SECT":" ","MAREA":" ","LANE":"５２０巷","ALLEY":"５６弄","HOUSE_NO":"２７號五樓","E_COORD97":171731.51999999999,"N_COORD97":2548722.7000000002,"ADDRESS":"正南五街５２０巷５６弄２７號五樓","OBJECTID":96302},"geometry":{"x":171731.51999999955,"y":2548722.7000000011}},{"attributes":{"ID":96303,"DIS_CODE":0,"TOWNNAME":"永康區","LI":"烏竹里","LIN":"21鄰","STREET":"自強路","SECT":" ","MAREA":" ","LANE":"７７３巷","ALLEY":"２弄","HOUSE_NO":"５號六樓之１","E_COORD97":174501.34,"N_COORD97":2548640.27,"ADDRESS":"自強路７７３巷２弄５號六樓之１","OBJECTID":96303},"geometry":{"x":174501.33999999985,"y":2548640.2700000014}},{"attributes":{"ID":96304,"DIS_CODE":0,"TOWNNAME":"永康區","LI":"烏竹里","LIN":"21鄰","STREET":"自強路","SECT":" ","MAREA":" ","LANE":"７７３巷","ALLEY":"２弄","HOUSE_NO":"５號七樓之２","E_COORD97":174501.48000000001,"N_COORD97":2548640.27,"ADDRESS":"自強路７７３巷２弄５號七樓之２","OBJECTID":96304},"geometry":{"x":174501.48000000231,"y":2548640.2700000014}},{"attributes":{"ID":96305,"DIS_CODE":0,"TOWNNAME":"永康區","LI":"烏竹里","LIN":"21鄰","STREET":"自強路","SECT":" ","MAREA":" ","LANE":"７７３巷","ALLEY":"２弄","HOUSE_NO":"５號四樓之４","E_COORD97":174501.37,"N_COORD97":2548640.27,"ADDRESS":"自強路７７３巷２弄５號四樓之４","OBJECTID":96305},"geometry":{"x":174501.37000000011,"y":2548640.2700000014}},{"attributes":{"ID":96306,"DIS_CODE":0,"TOWNNAME":"永康區","LI":"烏竹里","LIN":"21鄰","STREET":"自強路","SECT":" ","MAREA":" ","LANE":"７７３巷","ALLEY":"２弄","HOUSE_NO":"５號六樓之４","E_COORD97":174501.37,"N_COORD97":2548640.27,"ADDRESS":"自強路７７３巷２弄５號六樓之４","OBJECTID":96306},"geometry":{"x":174501.37000000011,"y":2548640.2700000014}},{"attributes":{"ID":96307,"DIS_CODE":0,"TOWNNAME":"永康區","LI":"烏竹里","LIN":"21鄰","STREET":"自強路","SECT":" ","MAREA":" ","LANE":"７７３巷","ALLEY":"２弄","HOUSE_NO":"５號二樓之１","E_COORD97":174501.34,"N_COORD97":2548640.27,"ADDRESS":"自強路７７３巷２弄５號二樓之１","OBJECTID":96307},"geometry":{"x":174501.33999999985,"y":2548640.2700000014}},{"attributes":{"ID":96308,"DIS_CODE":0,"TOWNNAME":"後壁區","LI":"長安里","LIN":"10鄰","STREET":" ","SECT":" ","MAREA":"中寮","LANE":" ","ALLEY":" ","HOUSE_NO":"１３８號之６","E_COORD97":184285.60000000001,"N_COORD97":2581325.2999999998,"ADDRESS":"中寮１３８號之６","OBJECTID":96308},"geometry":{"x":184285.59999999963,"y":2581325.3000000026}},{"attributes":{"ID":96309,"DIS_CODE":0,"TOWNNAME":"後壁區","LI":"長安里","LIN":"10鄰","STREET":" ","SECT":" ","MAREA":"中寮","LANE":" ","ALLEY":" ","HOUSE_NO":"１３８號","E_COORD97":184275.95000000001,"N_COORD97":2581346.2400000002,"ADDRESS":"中寮１３８號","OBJECTID":96309},"geometry":{"x":184275.95000000112,"y":2581346.2400000002}},{"attributes":{"ID":96310,"DIS_CODE":0,"TOWNNAME":"東區","LI":"崇明里","LIN":"21鄰","STREET":"中華東路","SECT":"三段","MAREA":" ","LANE":"３９９巷","ALLEY":"１１弄","HOUSE_NO":"１０號七樓","E_COORD97":170123.26999999999,"N_COORD97":2541514.3300000001,"ADDRESS":"中華東路三段３９９巷１１弄１０號七樓","OBJECTID":96310},"geometry":{"x":170123.27000000142,"y":2541514.3300000019}},{"attributes":{"ID":96311,"DIS_CODE":0,"TOWNNAME":"東區","LI":"崇明里","LIN":"21鄰","STREET":"中華東路","SECT":"三段","MAREA":" ","LANE":"３９９巷","ALLEY":"１１弄","HOUSE_NO":"１０號七樓之１","E_COORD97":170123.26999999999,"N_COORD97":2541514.3300000001,"ADDRESS":"中華東路三段３９９巷１１弄１０號七樓之１","OBJECTID":96311},"geometry":{"x":170123.27000000142,"y":2541514.3300000019}},{"attributes":{"ID":96312,"DIS_CODE":0,"TOWNNAME":"後壁區","LI":"長安里","LIN":"10鄰","STREET":" ","SECT":" ","MAREA":"中寮","LANE":" ","ALLEY":" ","HOUSE_NO":"１３９號","E_COORD97":184226.09,"N_COORD97":2581330.6699999999,"ADDRESS":"中寮１３９號","OBJECTID":96312},"geometry":{"x":184226.09000000078,"y":2581330.6700000037}},{"attributes":{"ID":96313,"DIS_CODE":0,"TOWNNAME":"東區","LI":"崇明里","LIN":"21鄰","STREET":"中華東路","SECT":"三段","MAREA":" ","LANE":"３９９巷","ALLEY":"１１弄","HOUSE_NO":"１０號二樓","E_COORD97":170123.26999999999,"N_COORD97":2541514.3300000001,"ADDRESS":"中華東路三段３９９巷１１弄１０號二樓","OBJECTID":96313},"geometry":{"x":170123.27000000142,"y":2541514.3300000019}},{"attributes":{"ID":96314,"DIS_CODE":0,"TOWNNAME":"東區","LI":"崇明里","LIN":"21鄰","STREET":"中華東路","SECT":"三段","MAREA":" ","LANE":"３９９巷","ALLEY":"１１弄","HOUSE_NO":"１０號二樓之１","E_COORD97":170123.26999999999,"N_COORD97":2541514.3300000001,"ADDRESS":"中華東路三段３９９巷１１弄１０號二樓之１","OBJECTID":96314},"geometry":{"x":170123.27000000142,"y":2541514.3300000019}},{"attributes":{"ID":96315,"DIS_CODE":0,"TOWNNAME":"東區","LI":"崇明里","LIN":"21鄰","STREET":"中華東路","SECT":"三段","MAREA":" ","LANE":"３９９巷","ALLEY":"１１弄","HOUSE_NO":"１０號八樓","E_COORD97":170123.26999999999,"N_COORD97":2541514.3300000001,"ADDRESS":"中華東路三段３９９巷１１弄１０號八樓","OBJECTID":96315},"geometry":{"x":170123.27000000142,"y":2541514.3300000019}},{"attributes":{"ID":96316,"DIS_CODE":0,"TOWNNAME":"東區","LI":"崇明里","LIN":"21鄰","STREET":"中華東路","SECT":"三段","MAREA":" ","LANE":"３９９巷","ALLEY":"１１弄","HOUSE_NO":"１０號八樓之１","E_COORD97":170123.26999999999,"N_COORD97":2541514.3300000001,"ADDRESS":"中華東路三段３９９巷１１弄１０號八樓之１","OBJECTID":96316},"geometry":{"x":170123.27000000142,"y":2541514.3300000019}},{"attributes":{"ID":96317,"DIS_CODE":0,"TOWNNAME":"安南區","LI":"佃西里","LIN":"15鄰","STREET":"海佃路","SECT":"四段","MAREA":" ","LANE":" ","ALLEY":" ","HOUSE_NO":"４６２號","E_COORD97":165428.66,"N_COORD97":2551596.27,"ADDRESS":"海佃路四段４６２號","OBJECTID":96317},"geometry":{"x":165428.66000000015,"y":2551596.2700000033}},{"attributes":{"ID":96318,"DIS_CODE":0,"TOWNNAME":"安南區","LI":"佃西里","LIN":"15鄰","STREET":"海佃路","SECT":"四段","MAREA":" ","LANE":" ","ALLEY":" ","HOUSE_NO":"４６６號","E_COORD97":165419.73999999999,"N_COORD97":2551610.8700000001,"ADDRESS":"海佃路四段４６６號","OBJECTID":96318},"geometry":{"x":165419.74000000022,"y":2551610.8700000029}},{"attributes":{"ID":96319,"DIS_CODE":0,"TOWNNAME":"安南區","LI":"佃西里","LIN":"15鄰","STREET":"海佃路","SECT":"四段","MAREA":" ","LANE":" ","ALLEY":" ","HOUSE_NO":"４６８號","E_COORD97":165414.31,"N_COORD97":2551605.46,"ADDRESS":"海佃路四段４６８號","OBJECTID":96319},"geometry":{"x":165414.31000000052,"y":2551605.4600000009}},{"attributes":{"ID":96320,"DIS_CODE":0,"TOWNNAME":"安南區","LI":"佃西里","LIN":"15鄰","STREET":"海佃路","SECT":"四段","MAREA":" ","LANE":" ","ALLEY":" ","HOUSE_NO":"４７６號","E_COORD97":165378.51000000001,"N_COORD97":2551620.9300000002,"ADDRESS":"海佃路四段４７６號","OBJECTID":96320},"geometry":{"x":165378.50999999885,"y":2551620.9299999997}},{"attributes":{"ID":96321,"DIS_CODE":0,"TOWNNAME":"安南區","LI":"佃西里","LIN":"15鄰","STREET":"海佃路","SECT":"四段","MAREA":" ","LANE":" ","ALLEY":" ","HOUSE_NO":"４８０號","E_COORD97":165367.22,"N_COORD97":2551621.5699999998,"ADDRESS":"海佃路四段４８０號","OBJECTID":96321},"geometry":{"x":165367.22000000067,"y":2551621.5700000003}},{"attributes":{"ID":96322,"DIS_CODE":0,"TOWNNAME":"後壁區","LI":"長安里","LIN":"10鄰","STREET":" ","SECT":" ","MAREA":"中寮","LANE":" ","ALLEY":" ","HOUSE_NO":"１４１號","E_COORD97":184217.51000000001,"N_COORD97":2581342.79,"ADDRESS":"中寮１４１號","OBJECTID":96322},"geometry":{"x":184217.51000000071,"y":2581342.7900000028}},{"attributes":{"ID":96323,"DIS_CODE":0,"TOWNNAME":"新營區","LI":"五興里","LIN":"8鄰","STREET":" ","SECT":" ","MAREA":"五間厝","LANE":" ","ALLEY":" ","HOUSE_NO":"９２號","E_COORD97":175691.79999999999,"N_COORD97":2574954.5899999999,"ADDRESS":"五間厝９２號","OBJECTID":96323},"geometry":{"x":175691.79999999981,"y":2574954.5900000017}},{"attributes":{"ID":96324,"DIS_CODE":0,"TOWNNAME":"善化區","LI":"六德里","LIN":"15鄰","STREET":" ","SECT":" ","MAREA":"六分寮","LANE":" ","ALLEY":" ","HOUSE_NO":"３２５之１５號","E_COORD97":178434.95000000001,"N_COORD97":2561474.52,"ADDRESS":"六分寮３２５之１５號","OBJECTID":96324},"geometry":{"x":178434.95000000112,"y":2561474.5200000014}},{"attributes":{"ID":96325,"DIS_CODE":0,"TOWNNAME":"永康區","LI":"甲頂里","LIN":"15鄰","STREET":"正新街","SECT":" ","MAREA":" ","LANE":" ","ALLEY":" ","HOUSE_NO":"６１號","E_COORD97":170281.29000000001,"N_COORD97":2546724.75,"ADDRESS":"正新街６１號","OBJECTID":96325},"geometry":{"x":170281.2900000019,"y":2546724.7500000037}},{"attributes":{"ID":96326,"DIS_CODE":0,"TOWNNAME":"善化區","LI":"六德里","LIN":"15鄰","STREET":" ","SECT":" ","MAREA":"六分寮","LANE":" ","ALLEY":" ","HOUSE_NO":"３２２之３號","E_COORD97":178488.45999999999,"N_COORD97":2561445.02,"ADDRESS":"六分寮３２２之３號","OBJECTID":96326},"geometry":{"x":178488.46000000089,"y":2561445.0200000014}},{"attributes":{"ID":96327,"DIS_CODE":0,"TOWNNAME":"東區","LI":"崇明里","LIN":"21鄰","STREET":"中華東路","SECT":"三段","MAREA":" ","LANE":"３９９巷","ALLEY":"１１弄","HOUSE_NO":"１０號三樓","E_COORD97":170123.26999999999,"N_COORD97":2541514.3300000001,"ADDRESS":"中華東路三段３９９巷１１弄１０號三樓","OBJECTID":96327},"geometry":{"x":170123.27000000142,"y":2541514.3300000019}},{"attributes":{"ID":96328,"DIS_CODE":0,"TOWNNAME":"東區","LI":"崇明里","LIN":"21鄰","STREET":"中華東路","SECT":"三段","MAREA":" ","LANE":"３９９巷","ALLEY":"１１弄","HOUSE_NO":"１０號三樓之１","E_COORD97":170123.26999999999,"N_COORD97":2541514.3300000001,"ADDRESS":"中華東路三段３９９巷１１弄１０號三樓之１","OBJECTID":96328},"geometry":{"x":170123.27000000142,"y":2541514.3300000019}},{"attributes":{"ID":96329,"DIS_CODE":0,"TOWNNAME":"後壁區","LI":"長安里","LIN":"10鄰","STREET":" ","SECT":" ","MAREA":"中寮","LANE":" ","ALLEY":" ","HOUSE_NO":"１４２號","E_COORD97":184218.94,"N_COORD97":2581331.75,"ADDRESS":"中寮１４２號","OBJECTID":96329},"geometry":{"x":184218.94000000134,"y":2581331.7500000019}},{"attributes":{"ID":96330,"DIS_CODE":0,"TOWNNAME":"後壁區","LI":"長安里","LIN":"10鄰","STREET":" ","SECT":" ","MAREA":"中寮","LANE":" ","ALLEY":" ","HOUSE_NO":"１４４號","E_COORD97":184199.42000000001,"N_COORD97":2581332.3599999999,"ADDRESS":"中寮１４４號","OBJECTID":96330},"geometry":{"x":184199.42000000179,"y":2581332.3600000031}},{"attributes":{"ID":96331,"DIS_CODE":0,"TOWNNAME":"東區","LI":"崇明里","LIN":"21鄰","STREET":"中華東路","SECT":"三段","MAREA":" ","LANE":"３９９巷","ALLEY":"１１弄","HOUSE_NO":"１０號五樓","E_COORD97":170123.26999999999,"N_COORD97":2541514.3300000001,"ADDRESS":"中華東路三段３９９巷１１弄１０號五樓","OBJECTID":96331},"geometry":{"x":170123.27000000142,"y":2541514.3300000019}},{"attributes":{"ID":96332,"DIS_CODE":0,"TOWNNAME":"東區","LI":"崇明里","LIN":"21鄰","STREET":"中華東路","SECT":"三段","MAREA":" ","LANE":"３９９巷","ALLEY":"１１弄","HOUSE_NO":"１０號五樓之１","E_COORD97":170123.26999999999,"N_COORD97":2541514.3300000001,"ADDRESS":"中華東路三段３９９巷１１弄１０號五樓之１","OBJECTID":96332},"geometry":{"x":170123.27000000142,"y":2541514.3300000019}},{"attributes":{"ID":96333,"DIS_CODE":0,"TOWNNAME":"東區","LI":"崇明里","LIN":"21鄰","STREET":"中華東路","SECT":"三段","MAREA":" ","LANE":"３９９巷","ALLEY":"１１弄","HOUSE_NO":"１０號六樓","E_COORD97":170123.26999999999,"N_COORD97":2541514.3300000001,"ADDRESS":"中華東路三段３９９巷１１弄１０號六樓","OBJECTID":96333},"geometry":{"x":170123.27000000142,"y":2541514.3300000019}},{"attributes":{"ID":96334,"DIS_CODE":0,"TOWNNAME":"東區","LI":"崇明里","LIN":"21鄰","STREET":"中華東路","SECT":"三段","MAREA":" ","LANE":"３９９巷","ALLEY":"１１弄","HOUSE_NO":"１０號六樓之１","E_COORD97":170123.26999999999,"N_COORD97":2541514.3300000001,"ADDRESS":"中華東路三段３９９巷１１弄１０號六樓之１","OBJECTID":96334},"geometry":{"x":170123.27000000142,"y":2541514.3300000019}},{"attributes":{"ID":96335,"DIS_CODE":0,"TOWNNAME":"東區","LI":"崇明里","LIN":"21鄰","STREET":"中華東路","SECT":"三段","MAREA":" ","LANE":"３９９巷","ALLEY":"１１弄","HOUSE_NO":"１０號四樓","E_COORD97":170123.26999999999,"N_COORD97":2541514.3300000001,"ADDRESS":"中華東路三段３９９巷１１弄１０號四樓","OBJECTID":96335},"geometry":{"x":170123.27000000142,"y":2541514.3300000019}},{"attributes":{"ID":96336,"DIS_CODE":0,"TOWNNAME":"白河區","LI":"六溪里","LIN":"1鄰","STREET":" ","SECT":" ","MAREA":"檨子坑","LANE":" ","ALLEY":" ","HOUSE_NO":"１２號","E_COORD97":193040.09,"N_COORD97":2580307.9399999999,"ADDRESS":"檨子坑１２號","OBJECTID":96336},"geometry":{"x":193040.08999999985,"y":2580307.9400000032}},{"attributes":{"ID":96337,"DIS_CODE":0,"TOWNNAME":"東區","LI":"崇明里","LIN":"21鄰","STREET":"中華東路","SECT":"三段","MAREA":" ","LANE":"３９９巷","ALLEY":"１１弄","HOUSE_NO":"１０號四樓之１","E_COORD97":170123.26999999999,"N_COORD97":2541514.3300000001,"ADDRESS":"中華東路三段３９９巷１１弄１０號四樓之１","OBJECTID":96337},"geometry":{"x":170123.27000000142,"y":2541514.3300000019}},{"attributes":{"ID":96338,"DIS_CODE":0,"TOWNNAME":"安南區","LI":"佃西里","LIN":"15鄰","STREET":"海佃路","SECT":"四段","MAREA":" ","LANE":" ","ALLEY":" ","HOUSE_NO":"４６０號","E_COORD97":165434.45999999999,"N_COORD97":2551599.0099999998,"ADDRESS":"海佃路四段４６０號","OBJECTID":96338},"geometry":{"x":165434.45999999996,"y":2551599.0100000016}},{"attributes":{"ID":96339,"DIS_CODE":0,"TOWNNAME":"安南區","LI":"海東里","LIN":"15鄰","STREET":"海中街","SECT":" ","MAREA":" ","LANE":" ","ALLEY":" ","HOUSE_NO":"３０號","E_COORD97":166499.76000000001,"N_COORD97":2548857.1000000001,"ADDRESS":"海中街３０號","OBJECTID":96339},"geometry":{"x":166499.76000000071,"y":2548857.0999999996}},{"attributes":{"ID":96340,"DIS_CODE":0,"TOWNNAME":"後壁區","LI":"竹新里","LIN":"10鄰","STREET":" ","SECT":" ","MAREA":"竹圍後","LANE":" ","ALLEY":" ","HOUSE_NO":"１０５號之７","E_COORD97":178640.42000000001,"N_COORD97":2582398.8599999999,"ADDRESS":"竹圍後１０５號之７","OBJECTID":96340},"geometry":{"x":178640.41999999993,"y":2582398.8599999994}},{"attributes":{"ID":96341,"DIS_CODE":0,"TOWNNAME":"善化區","LI":"文昌里","LIN":"15鄰","STREET":"文昌路","SECT":" ","MAREA":" ","LANE":" ","ALLEY":" ","HOUSE_NO":"１號","E_COORD97":177637.41,"N_COORD97":2558837.7799999998,"ADDRESS":"文昌路１號","OBJECTID":96341},"geometry":{"x":177637.41000000015,"y":2558837.7800000031}},{"attributes":{"ID":96342,"DIS_CODE":0,"TOWNNAME":"安南區","LI":"安順里","LIN":"15鄰","STREET":"育安一街","SECT":" ","MAREA":" ","LANE":" ","ALLEY":" ","HOUSE_NO":"１５０號","E_COORD97":169507.56,"N_COORD97":2550004.77,"ADDRESS":"育安一街１５０號","OBJECTID":96342},"geometry":{"x":169507.56000000145,"y":2550004.7699999996}},{"attributes":{"ID":96343,"DIS_CODE":0,"TOWNNAME":"安南區","LI":"安順里","LIN":"15鄰","STREET":"育安一街","SECT":" ","MAREA":" ","LANE":" ","ALLEY":" ","HOUSE_NO":"１５２號","E_COORD97":169507.29000000001,"N_COORD97":2550008.75,"ADDRESS":"育安一街１５２號","OBJECTID":96343},"geometry":{"x":169507.29000000097,"y":2550008.75}},{"attributes":{"ID":96344,"DIS_CODE":0,"TOWNNAME":"後壁區","LI":"竹新里","LIN":"10鄰","STREET":" ","SECT":" ","MAREA":"竹圍後","LANE":" ","ALLEY":" ","HOUSE_NO":"１０６號之３","E_COORD97":178665.98000000001,"N_COORD97":2582399.9100000001,"ADDRESS":"竹圍後１０６號之３","OBJECTID":96344},"geometry":{"x":178665.98000000045,"y":2582399.9100000001}},{"attributes":{"ID":96345,"DIS_CODE":0,"TOWNNAME":"後壁區","LI":"竹新里","LIN":"10鄰","STREET":" ","SECT":" ","MAREA":"竹圍後","LANE":" ","ALLEY":" ","HOUSE_NO":"１０６號之４","E_COORD97":178666.70999999999,"N_COORD97":2582395.9199999999,"ADDRESS":"竹圍後１０６號之４","OBJECTID":96345},"geometry":{"x":178666.71000000089,"y":2582395.9199999999}},{"attributes":{"ID":96346,"DIS_CODE":0,"TOWNNAME":"後壁區","LI":"竹新里","LIN":"10鄰","STREET":" ","SECT":" ","MAREA":"竹圍後","LANE":" ","ALLEY":" ","HOUSE_NO":"１０６號之５","E_COORD97":178664.34,"N_COORD97":2582385.3799999999,"ADDRESS":"竹圍後１０６號之５","OBJECTID":96346},"geometry":{"x":178664.33999999985,"y":2582385.379999999}},{"attributes":{"ID":96347,"DIS_CODE":0,"TOWNNAME":"善化區","LI":"文昌里","LIN":"15鄰","STREET":"光復路","SECT":" ","MAREA":" ","LANE":" ","ALLEY":" ","HOUSE_NO":"４２號","E_COORD97":177571.70000000001,"N_COORD97":2558717.2599999998,"ADDRESS":"光復路４２號","OBJECTID":96347},"geometry":{"x":177571.70000000112,"y":2558717.2600000016}},{"attributes":{"ID":96348,"DIS_CODE":0,"TOWNNAME":"善化區","LI":"光文里","LIN":"15鄰","STREET":"樹人路","SECT":" ","MAREA":" ","LANE":" ","ALLEY":" ","HOUSE_NO":"３３號之１","E_COORD97":178366.54000000001,"N_COORD97":2558974.27,"ADDRESS":"樹人路３３號之１","OBJECTID":96348},"geometry":{"x":178366.54000000004,"y":2558974.2700000014}},{"attributes":{"ID":96349,"DIS_CODE":0,"TOWNNAME":"善化區","LI":"光文里","LIN":"15鄰","STREET":"民生路","SECT":" ","MAREA":" ","LANE":" ","ALLEY":" ","HOUSE_NO":"２１９號","E_COORD97":178344.95999999999,"N_COORD97":2558934.2599999998,"ADDRESS":"民生路２１９號","OBJECTID":96349},"geometry":{"x":178344.95999999996,"y":2558934.2600000016}},{"attributes":{"ID":96350,"DIS_CODE":0,"TOWNNAME":"善化區","LI":"文昌里","LIN":"15鄰","STREET":"大信路","SECT":" ","MAREA":" ","LANE":" ","ALLEY":" ","HOUSE_NO":"４２號之１","E_COORD97":177565.26000000001,"N_COORD97":2558784.52,"ADDRESS":"大信路４２號之１","OBJECTID":96350},"geometry":{"x":177565.25999999885,"y":2558784.5199999996}},{"attributes":{"ID":96351,"DIS_CODE":0,"TOWNNAME":"善化區","LI":"田寮里","LIN":"15鄰","STREET":" ","SECT":" ","MAREA":"六分寮","LANE":" ","ALLEY":" ","HOUSE_NO":"１６１號之２","E_COORD97":178694.34,"N_COORD97":2561539.52,"ADDRESS":"六分寮１６１號之２","OBJECTID":96351},"geometry":{"x":178694.34000000078,"y":2561539.5200000014}},{"attributes":{"ID":96352,"DIS_CODE":0,"TOWNNAME":"善化區","LI":"牛庄里","LIN":"15鄰","STREET":" ","SECT":" ","MAREA":"牛庄","LANE":" ","ALLEY":" ","HOUSE_NO":"３５１號之３","E_COORD97":179732.51999999999,"N_COORD97":2560039.77,"ADDRESS":"牛庄３５１號之３","OBJECTID":96352},"geometry":{"x":179732.51999999955,"y":2560039.7700000014}},{"attributes":{"ID":96353,"DIS_CODE":0,"TOWNNAME":"善化區","LI":"小新里","LIN":"15鄰","STREET":" ","SECT":" ","MAREA":"小新營","LANE":" ","ALLEY":" ","HOUSE_NO":"１１３之３４號","E_COORD97":179827.89999999999,"N_COORD97":2558005.02,"ADDRESS":"小新營１１３之３４號","OBJECTID":96353},"geometry":{"x":179827.90000000037,"y":2558005.0199999996}},{"attributes":{"ID":96354,"DIS_CODE":0,"TOWNNAME":"善化區","LI":"牛庄里","LIN":"15鄰","STREET":" ","SECT":" ","MAREA":"牛庄","LANE":" ","ALLEY":" ","HOUSE_NO":"１３５號之１８","E_COORD97":179893.45000000001,"N_COORD97":2559991.27,"ADDRESS":"牛庄１３５號之１８","OBJECTID":96354},"geometry":{"x":179893.45000000019,"y":2559991.2700000014}},{"attributes":{"ID":96355,"DIS_CODE":0,"TOWNNAME":"東區","LI":"崇明里","LIN":"21鄰","STREET":"中華東路","SECT":"三段","MAREA":" ","LANE":"３９９巷","ALLEY":"１１弄","HOUSE_NO":"１６號七樓","E_COORD97":170158.63,"N_COORD97":2541521.9500000002,"ADDRESS":"中華東路三段３９９巷１１弄１６號七樓","OBJECTID":96355},"geometry":{"x":170158.63000000082,"y":2541521.950000003}},{"attributes":{"ID":96356,"DIS_CODE":0,"TOWNNAME":"東區","LI":"崇明里","LIN":"21鄰","STREET":"中華東路","SECT":"三段","MAREA":" ","LANE":"３９９巷","ALLEY":"１１弄","HOUSE_NO":"１６號七樓之１","E_COORD97":170158.63,"N_COORD97":2541521.9500000002,"ADDRESS":"中華東路三段３９９巷１１弄１６號七樓之１","OBJECTID":96356},"geometry":{"x":170158.63000000082,"y":2541521.950000003}},{"attributes":{"ID":96357,"DIS_CODE":0,"TOWNNAME":"東區","LI":"崇明里","LIN":"21鄰","STREET":"中華東路","SECT":"三段","MAREA":" ","LANE":"３９９巷","ALLEY":"１１弄","HOUSE_NO":"１６號二樓","E_COORD97":170158.63,"N_COORD97":2541521.9500000002,"ADDRESS":"中華東路三段３９９巷１１弄１６號二樓","OBJECTID":96357},"geometry":{"x":170158.63000000082,"y":2541521.950000003}},{"attributes":{"ID":96358,"DIS_CODE":0,"TOWNNAME":"善化區","LI":"胡家里","LIN":"15鄰","STREET":" ","SECT":" ","MAREA":"胡厝寮","LANE":" ","ALLEY":" ","HOUSE_NO":"１３６之１號","E_COORD97":175376.20999999999,"N_COORD97":2560773.27,"ADDRESS":"胡厝寮１３６之１號","OBJECTID":96358},"geometry":{"x":175376.21000000089,"y":2560773.2699999996}},{"attributes":{"ID":96359,"DIS_CODE":0,"TOWNNAME":"善化區","LI":"六德里","LIN":"15鄰","STREET":" ","SECT":" ","MAREA":"六分寮","LANE":" ","ALLEY":" ","HOUSE_NO":"３２５之２６號","E_COORD97":178387.85000000001,"N_COORD97":2561490.02,"ADDRESS":"六分寮３２５之２６號","OBJECTID":96359},"geometry":{"x":178387.84999999963,"y":2561490.0199999996}},{"attributes":{"ID":96360,"DIS_CODE":0,"TOWNNAME":"將軍區","LI":"鯤溟里","LIN":"1鄰","STREET":" ","SECT":" ","MAREA":"鯤溟","LANE":" ","ALLEY":" ","HOUSE_NO":"８號","E_COORD97":156647.48999999999,"N_COORD97":2565430.8100000001,"ADDRESS":"鯤溟８號","OBJECTID":96360},"geometry":{"x":156647.49000000115,"y":2565430.8100000024}},{"attributes":{"ID":96361,"DIS_CODE":0,"TOWNNAME":"善化區","LI":"胡家里","LIN":"15鄰","STREET":" ","SECT":" ","MAREA":"胡厝寮","LANE":" ","ALLEY":" ","HOUSE_NO":"１３６號之６","E_COORD97":175384.5,"N_COORD97":2560758.27,"ADDRESS":"胡厝寮１３６號之６","OBJECTID":96361},"geometry":{"x":175384.50000000093,"y":2560758.2700000014}},{"attributes":{"ID":96362,"DIS_CODE":0,"TOWNNAME":"善化區","LI":"牛庄里","LIN":"15鄰","STREET":" ","SECT":" ","MAREA":"牛庄","LANE":" ","ALLEY":" ","HOUSE_NO":"５３７號","E_COORD97":179535.32000000001,"N_COORD97":2560283.75,"ADDRESS":"牛庄５３７號","OBJECTID":96362},"geometry":{"x":179535.32000000216,"y":2560283.7500000019}},{"attributes":{"ID":96363,"DIS_CODE":0,"TOWNNAME":"善化區","LI":"牛庄里","LIN":"15鄰","STREET":" ","SECT":" ","MAREA":"牛庄","LANE":" ","ALLEY":" ","HOUSE_NO":"３５１之１號","E_COORD97":179843.92999999999,"N_COORD97":2559882.52,"ADDRESS":"牛庄３５１之１號","OBJECTID":96363},"geometry":{"x":179843.9299999997,"y":2559882.5199999996}},{"attributes":{"ID":96364,"DIS_CODE":0,"TOWNNAME":"善化區","LI":"六德里","LIN":"15鄰","STREET":" ","SECT":" ","MAREA":"六分寮","LANE":" ","ALLEY":" ","HOUSE_NO":"３２５之２０號","E_COORD97":178405.57999999999,"N_COORD97":2561475.27,"ADDRESS":"六分寮３２５之２０號","OBJECTID":96364},"geometry":{"x":178405.58000000007,"y":2561475.2699999996}},{"attributes":{"ID":96365,"DIS_CODE":0,"TOWNNAME":"善化區","LI":"六德里","LIN":"15鄰","STREET":" ","SECT":" ","MAREA":"六分寮","LANE":" ","ALLEY":" ","HOUSE_NO":"３２１號之２","E_COORD97":178529.95999999999,"N_COORD97":2561467.77,"ADDRESS":"六分寮３２１號之２","OBJECTID":96365},"geometry":{"x":178529.95999999996,"y":2561467.7699999996}},{"attributes":{"ID":96366,"DIS_CODE":0,"TOWNNAME":"東區","LI":"崇明里","LIN":"21鄰","STREET":"中華東路","SECT":"三段","MAREA":" ","LANE":"３９９巷","ALLEY":"１１弄","HOUSE_NO":"１６號二樓之１","E_COORD97":170158.63,"N_COORD97":2541521.9500000002,"ADDRESS":"中華東路三段３９９巷１１弄１６號二樓之１","OBJECTID":96366},"geometry":{"x":170158.63000000082,"y":2541521.950000003}},{"attributes":{"ID":96367,"DIS_CODE":0,"TOWNNAME":"善化區","LI":"六德里","LIN":"15鄰","STREET":" ","SECT":" ","MAREA":"六分寮","LANE":" ","ALLEY":" ","HOUSE_NO":"３２１號之９","E_COORD97":178527.35000000001,"N_COORD97":2561505.02,"ADDRESS":"六分寮３２１號之９","OBJECTID":96367},"geometry":{"x":178527.3499999987,"y":2561505.0200000014}},{"attributes":{"ID":96368,"DIS_CODE":0,"TOWNNAME":"東區","LI":"崇明里","LIN":"21鄰","STREET":"中華東路","SECT":"三段","MAREA":" ","LANE":"３９９巷","ALLEY":"１１弄","HOUSE_NO":"１６號八樓","E_COORD97":170158.63,"N_COORD97":2541521.9500000002,"ADDRESS":"中華東路三段３９９巷１１弄１６號八樓","OBJECTID":96368},"geometry":{"x":170158.63000000082,"y":2541521.950000003}},{"attributes":{"ID":96369,"DIS_CODE":0,"TOWNNAME":"善化區","LI":"六德里","LIN":"15鄰","STREET":" ","SECT":" ","MAREA":"六分寮","LANE":" ","ALLEY":" ","HOUSE_NO":"３２１號之４","E_COORD97":178522.26000000001,"N_COORD97":2561463.52,"ADDRESS":"六分寮３２１號之４","OBJECTID":96369},"geometry":{"x":178522.26000000071,"y":2561463.5199999977}},{"attributes":{"ID":96370,"DIS_CODE":0,"TOWNNAME":"善化區","LI":"六德里","LIN":"15鄰","STREET":" ","SECT":" ","MAREA":"六分寮","LANE":" ","ALLEY":" ","HOUSE_NO":"３２５之７號","E_COORD97":178440.95000000001,"N_COORD97":2561451.27,"ADDRESS":"六分寮３２５之７號","OBJECTID":96370},"geometry":{"x":178440.95000000205,"y":2561451.2699999996}},{"attributes":{"ID":96371,"DIS_CODE":0,"TOWNNAME":"善化區","LI":"六德里","LIN":"15鄰","STREET":" ","SECT":" ","MAREA":"六分寮","LANE":" ","ALLEY":" ","HOUSE_NO":"３２５之１２號","E_COORD97":178415.84,"N_COORD97":2561453.52,"ADDRESS":"六分寮３２５之１２號","OBJECTID":96371},"geometry":{"x":178415.84000000171,"y":2561453.5200000033}},{"attributes":{"ID":96372,"DIS_CODE":0,"TOWNNAME":"善化區","LI":"六德里","LIN":"15鄰","STREET":" ","SECT":" ","MAREA":"六分寮","LANE":" ","ALLEY":" ","HOUSE_NO":"３２２號","E_COORD97":178473.60000000001,"N_COORD97":2561438.5,"ADDRESS":"六分寮３２２號","OBJECTID":96372},"geometry":{"x":178473.60000000056,"y":2561438.5000000019}},{"attributes":{"ID":96373,"DIS_CODE":0,"TOWNNAME":"善化區","LI":"小新里","LIN":"15鄰","STREET":" ","SECT":" ","MAREA":"小新營","LANE":" ","ALLEY":" ","HOUSE_NO":"１１４號","E_COORD97":179808.02840899999,"N_COORD97":2558124.0315,"ADDRESS":"小新營１１４號","OBJECTID":96373},"geometry":{"x":179808.02840899955,"y":2558124.0315009989}},{"attributes":{"ID":96374,"DIS_CODE":0,"TOWNNAME":"善化區","LI":"六德里","LIN":"15鄰","STREET":" ","SECT":" ","MAREA":"六分寮","LANE":" ","ALLEY":" ","HOUSE_NO":"３２５之２３號","E_COORD97":178342.95999999999,"N_COORD97":2561518.52,"ADDRESS":"六分寮３２５之２３號","OBJECTID":96374},"geometry":{"x":178342.96000000089,"y":2561518.5200000014}},{"attributes":{"ID":96375,"DIS_CODE":0,"TOWNNAME":"善化區","LI":"六德里","LIN":"15鄰","STREET":" ","SECT":" ","MAREA":"六分寮","LANE":" ","ALLEY":" ","HOUSE_NO":"３２５號之２","E_COORD97":178439.07999999999,"N_COORD97":2561419.77,"ADDRESS":"六分寮３２５號之２","OBJECTID":96375},"geometry":{"x":178439.08000000007,"y":2561419.7699999996}},{"attributes":{"ID":96376,"DIS_CODE":0,"TOWNNAME":"善化區","LI":"小新里","LIN":"15鄰","STREET":" ","SECT":" ","MAREA":"小新營","LANE":" ","ALLEY":" ","HOUSE_NO":"１１４號之２","E_COORD97":179819.88985400001,"N_COORD97":2558126.35983,"ADDRESS":"小新營１１４號之２","OBJECTID":96376},"geometry":{"x":179819.88985400088,"y":2558126.3598330002}},{"attributes":{"ID":96377,"DIS_CODE":0,"TOWNNAME":"善化區","LI":"小新里","LIN":"15鄰","STREET":" ","SECT":" ","MAREA":"小新營","LANE":" ","ALLEY":" ","HOUSE_NO":"１１３之４１號","E_COORD97":179827.60000000001,"N_COORD97":2557961.02,"ADDRESS":"小新營１１３之４１號","OBJECTID":96377},"geometry":{"x":179827.5999999987,"y":2557961.0199999996}},{"attributes":{"ID":96378,"DIS_CODE":0,"TOWNNAME":"新營區","LI":"太南里","LIN":"4鄰","STREET":" ","SECT":" ","MAREA":"太子宮","LANE":" ","ALLEY":" ","HOUSE_NO":"３３２之２１號","E_COORD97":176337.89999999999,"N_COORD97":2577116.52,"ADDRESS":"太子宮３３２之２１號","OBJECTID":96378},"geometry":{"x":176337.9000000013,"y":2577116.5199999996}},{"attributes":{"ID":96379,"DIS_CODE":0,"TOWNNAME":"新營區","LI":"角帶里","LIN":"7鄰","STREET":" ","SECT":" ","MAREA":"角帶圍","LANE":" ","ALLEY":" ","HOUSE_NO":"８７之１０號","E_COORD97":174766.16,"N_COORD97":2575459.8999999999,"ADDRESS":"角帶圍８７之１０號","OBJECTID":96379},"geometry":{"x":174766.16000000108,"y":2575459.9000000004}},{"attributes":{"ID":96380,"DIS_CODE":0,"TOWNNAME":"善化區","LI":"小新里","LIN":"15鄰","STREET":" ","SECT":" ","MAREA":"小新營","LANE":" ","ALLEY":" ","HOUSE_NO":"１１３之３８號","E_COORD97":179827.48000000001,"N_COORD97":2557980.52,"ADDRESS":"小新營１１３之３８號","OBJECTID":96380},"geometry":{"x":179827.48000000045,"y":2557980.5199999996}},{"attributes":{"ID":96381,"DIS_CODE":0,"TOWNNAME":"善化區","LI":"小新里","LIN":"15鄰","STREET":" ","SECT":" ","MAREA":"小新營","LANE":" ","ALLEY":" ","HOUSE_NO":"１１４號之１","E_COORD97":179817.55992699999,"N_COORD97":2558144.3514899998,"ADDRESS":"小新營１１４號之１","OBJECTID":96381},"geometry":{"x":179817.55992700066,"y":2558144.351490004}},{"attributes":{"ID":96382,"DIS_CODE":0,"TOWNNAME":"善化區","LI":"小新里","LIN":"15鄰","STREET":" ","SECT":" ","MAREA":"小新營","LANE":" ","ALLEY":" ","HOUSE_NO":"１３９號","E_COORD97":179860.35000000001,"N_COORD97":2558123.5,"ADDRESS":"小新營１３９號","OBJECTID":96382},"geometry":{"x":179860.35000000056,"y":2558123.5}},{"attributes":{"ID":96383,"DIS_CODE":0,"TOWNNAME":"善化區","LI":"六德里","LIN":"15鄰","STREET":" ","SECT":" ","MAREA":"六分寮","LANE":" ","ALLEY":" ","HOUSE_NO":"３２２之４號","E_COORD97":178513.45999999999,"N_COORD97":2561508.52,"ADDRESS":"六分寮３２２之４號","OBJECTID":96383},"geometry":{"x":178513.46000000183,"y":2561508.5200000014}},{"attributes":{"ID":96384,"DIS_CODE":0,"TOWNNAME":"善化區","LI":"小新里","LIN":"15鄰","STREET":" ","SECT":" ","MAREA":"小新營","LANE":" ","ALLEY":" ","HOUSE_NO":"１１２號","E_COORD97":179794.95999999999,"N_COORD97":2558095.5,"ADDRESS":"小新營１１２號","OBJECTID":96384},"geometry":{"x":179794.95999999903,"y":2558095.5000000019}},{"attributes":{"ID":96385,"DIS_CODE":0,"TOWNNAME":"善化區","LI":"小新里","LIN":"15鄰","STREET":" ","SECT":" ","MAREA":"小新營","LANE":" ","ALLEY":" ","HOUSE_NO":"１１３號之４","E_COORD97":179838.07000000001,"N_COORD97":2558079.02,"ADDRESS":"小新營１１３號之４","OBJECTID":96385},"geometry":{"x":179838.0700000003,"y":2558079.0199999996}},{"attributes":{"ID":96386,"DIS_CODE":0,"TOWNNAME":"善化區","LI":"小新里","LIN":"15鄰","STREET":" ","SECT":" ","MAREA":"小新營","LANE":" ","ALLEY":" ","HOUSE_NO":"１１３號","E_COORD97":179842.26000000001,"N_COORD97":2558100.25,"ADDRESS":"小新營１１３號","OBJECTID":96386},"geometry":{"x":179842.26000000071,"y":2558100.2500000019}},{"attributes":{"ID":96387,"DIS_CODE":0,"TOWNNAME":"善化區","LI":"六德里","LIN":"15鄰","STREET":" ","SECT":" ","MAREA":"六分寮","LANE":" ","ALLEY":" ","HOUSE_NO":"３１８號之１","E_COORD97":178466.25,"N_COORD97":2561446.77,"ADDRESS":"六分寮３１８號之１","OBJECTID":96387},"geometry":{"x":178466.25000000093,"y":2561446.7700000014}},{"attributes":{"ID":96388,"DIS_CODE":0,"TOWNNAME":"善化區","LI":"小新里","LIN":"15鄰","STREET":" ","SECT":" ","MAREA":"小新營","LANE":" ","ALLEY":" ","HOUSE_NO":"１１３之１７號","E_COORD97":179823.01999999999,"N_COORD97":2558077.52,"ADDRESS":"小新營１１３之１７號","OBJECTID":96388},"geometry":{"x":179823.02000000142,"y":2558077.5200000014}},{"attributes":{"ID":96389,"DIS_CODE":0,"TOWNNAME":"善化區","LI":"小新里","LIN":"15鄰","STREET":" ","SECT":" ","MAREA":"小新營","LANE":" ","ALLEY":" ","HOUSE_NO":"１１３號之１９","E_COORD97":179809.13,"N_COORD97":2558076.52,"ADDRESS":"小新營１１３號之１９","OBJECTID":96389},"geometry":{"x":179809.13000000175,"y":2558076.5199999977}},{"attributes":{"ID":96390,"DIS_CODE":0,"TOWNNAME":"善化區","LI":"小新里","LIN":"15鄰","STREET":" ","SECT":" ","MAREA":"小新營","LANE":" ","ALLEY":" ","HOUSE_NO":"１３９號之１","E_COORD97":179862.47664400001,"N_COORD97":2558143.1654099999,"ADDRESS":"小新營１３９號之１","OBJECTID":96390},"geometry":{"x":179862.47664400004,"y":2558143.1654090025}},{"attributes":{"ID":96391,"DIS_CODE":0,"TOWNNAME":"東區","LI":"崇明里","LIN":"21鄰","STREET":"中華東路","SECT":"三段","MAREA":" ","LANE":"３９９巷","ALLEY":"１１弄","HOUSE_NO":"１６號八樓之１","E_COORD97":170158.63,"N_COORD97":2541521.9500000002,"ADDRESS":"中華東路三段３９９巷１１弄１６號八樓之１","OBJECTID":96391},"geometry":{"x":170158.63000000082,"y":2541521.950000003}},{"attributes":{"ID":96392,"DIS_CODE":0,"TOWNNAME":"東區","LI":"崇明里","LIN":"21鄰","STREET":"中華東路","SECT":"三段","MAREA":" ","LANE":"３９９巷","ALLEY":"１１弄","HOUSE_NO":"１６號三樓","E_COORD97":170158.63,"N_COORD97":2541521.9500000002,"ADDRESS":"中華東路三段３９９巷１１弄１６號三樓","OBJECTID":96392},"geometry":{"x":170158.63000000082,"y":2541521.950000003}},{"attributes":{"ID":96393,"DIS_CODE":0,"TOWNNAME":"玉井區","LI":"玉田里","LIN":"15鄰","STREET":"民權路","SECT":" ","MAREA":" ","LANE":" ","ALLEY":" ","HOUSE_NO":"１５５號","E_COORD97":194424.67999999999,"N_COORD97":2557852.2799999998,"ADDRESS":"民權路１５５號","OBJECTID":96393},"geometry":{"x":194424.68000000063,"y":2557852.2800000012}},{"attributes":{"ID":96394,"DIS_CODE":0,"TOWNNAME":"玉井區","LI":"玉田里","LIN":"15鄰","STREET":"民權路","SECT":" ","MAREA":" ","LANE":" ","ALLEY":" ","HOUSE_NO":"１５９號","E_COORD97":194415.38,"N_COORD97":2557849.29,"ADDRESS":"民權路１５９號","OBJECTID":96394},"geometry":{"x":194415.38000000082,"y":2557849.2899999991}},{"attributes":{"ID":96395,"DIS_CODE":0,"TOWNNAME":"東區","LI":"崇明里","LIN":"21鄰","STREET":"中華東路","SECT":"三段","MAREA":" ","LANE":"３９９巷","ALLEY":"１１弄","HOUSE_NO":"１６號三樓之１","E_COORD97":170158.63,"N_COORD97":2541521.9500000002,"ADDRESS":"中華東路三段３９９巷１１弄１６號三樓之１","OBJECTID":96395},"geometry":{"x":170158.63000000082,"y":2541521.950000003}},{"attributes":{"ID":96396,"DIS_CODE":0,"TOWNNAME":"東區","LI":"崇明里","LIN":"21鄰","STREET":"中華東路","SECT":"三段","MAREA":" ","LANE":"３９９巷","ALLEY":"１１弄","HOUSE_NO":"１６號五樓","E_COORD97":170158.63,"N_COORD97":2541521.9500000002,"ADDRESS":"中華東路三段３９９巷１１弄１６號五樓","OBJECTID":96396},"geometry":{"x":170158.63000000082,"y":2541521.950000003}},{"attributes":{"ID":96397,"DIS_CODE":0,"TOWNNAME":"東區","LI":"崇明里","LIN":"21鄰","STREET":"中華東路","SECT":"三段","MAREA":" ","LANE":"３９９巷","ALLEY":"１１弄","HOUSE_NO":"１６號五樓之１","E_COORD97":170158.63,"N_COORD97":2541521.9500000002,"ADDRESS":"中華東路三段３９９巷１１弄１６號五樓之１","OBJECTID":96397},"geometry":{"x":170158.63000000082,"y":2541521.950000003}},{"attributes":{"ID":96398,"DIS_CODE":0,"TOWNNAME":"東區","LI":"崇明里","LIN":"21鄰","STREET":"中華東路","SECT":"三段","MAREA":" ","LANE":"３９９巷","ALLEY":"１１弄","HOUSE_NO":"１６號六樓","E_COORD97":170158.63,"N_COORD97":2541521.9500000002,"ADDRESS":"中華東路三段３９９巷１１弄１６號六樓","OBJECTID":96398},"geometry":{"x":170158.63000000082,"y":2541521.950000003}},{"attributes":{"ID":96399,"DIS_CODE":0,"TOWNNAME":"東區","LI":"崇明里","LIN":"21鄰","STREET":"中華東路","SECT":"三段","MAREA":" ","LANE":"３９９巷","ALLEY":"１１弄","HOUSE_NO":"１６號六樓之１","E_COORD97":170158.63,"N_COORD97":2541521.9500000002,"ADDRESS":"中華東路三段３９９巷１１弄１６號六樓之１","OBJECTID":96399},"geometry":{"x":170158.63000000082,"y":2541521.950000003}},{"attributes":{"ID":96400,"DIS_CODE":0,"TOWNNAME":"東區","LI":"崇明里","LIN":"21鄰","STREET":"中華東路","SECT":"三段","MAREA":" ","LANE":"３９９巷","ALLEY":"１１弄","HOUSE_NO":"１６號四樓","E_COORD97":170158.63,"N_COORD97":2541521.9500000002,"ADDRESS":"中華東路三段３９９巷１１弄１６號四樓","OBJECTID":96400},"geometry":{"x":170158.63000000082,"y":2541521.950000003}}]}