{"displayFieldName":"TOWNNAME","fieldAliases":{"ID":"ID","DIS_CODE":"DIS_CODE","TOWNNAME":"TOWNNAME","LI":"LI","LIN":"LIN","STREET":"STREET","SECT":"SECT","MAREA":"MAREA","LANE":"LANE","ALLEY":"ALLEY","HOUSE_NO":"HOUSE_NO","E_COORD97":"E_COORD97","N_COORD97":"N_COORD97","ADDRESS":"ADDRESS","OBJECTID":"OBJECTID"},"geometryType":"esriGeometryPoint","spatialReference":{"wkid":102443,"latestWkid":3826},"fields":[{"name":"ID","type":"esriFieldTypeDouble","alias":"ID"},{"name":"DIS_CODE","type":"esriFieldTypeInteger","alias":"DIS_CODE"},{"name":"TOWNNAME","type":"esriFieldTypeString","alias":"TOWNNAME","length":8},{"name":"LI","type":"esriFieldTypeString","alias":"LI","length":8},{"name":"LIN","type":"esriFieldTypeString","alias":"LIN","length":12},{"name":"STREET","type":"esriFieldTypeString","alias":"STREET","length":20},{"name":"SECT","type":"esriFieldTypeString","alias":"SECT","length":8},{"name":"MAREA","type":"esriFieldTypeString","alias":"MAREA","length":12},{"name":"LANE","type":"esriFieldTypeString","alias":"LANE","length":10},{"name":"ALLEY","type":"esriFieldTypeString","alias":"ALLEY","length":10},{"name":"HOUSE_NO","type":"esriFieldTypeString","alias":"HOUSE_NO","length":20},{"name":"E_COORD97","type":"esriFieldTypeDouble","alias":"E_COORD97"},{"name":"N_COORD97","type":"esriFieldTypeDouble","alias":"N_COORD97"},{"name":"ADDRESS","type":"esriFieldTypeString","alias":"ADDRESS","length":50},{"name":"OBJECTID","type":"esriFieldTypeOID","alias":"OBJECTID"}],"features":[{"attributes":{"ID":601628,"DIS_CODE":0,"TOWNNAME":"中西區","LI":"永福里","LIN":"9鄰","STREET":"永福路","SECT":"二段","MAREA":" ","LANE":" ","ALLEY":" ","HOUSE_NO":"１１２號","E_COORD97":168107.42999999999,"N_COORD97":2543771.8300000001,"ADDRESS":"永福路二段１１２號","OBJECTID":601601},"geometry":{"x":168107.43000000063,"y":2543771.8300000019}},{"attributes":{"ID":601629,"DIS_CODE":0,"TOWNNAME":"中西區","LI":"永福里","LIN":"9鄰","STREET":"永福路","SECT":"二段","MAREA":" ","LANE":" ","ALLEY":" ","HOUSE_NO":"７２號","E_COORD97":168083.13,"N_COORD97":2543668.7799999998,"ADDRESS":"永福路二段７２號","OBJECTID":601602},"geometry":{"x":168083.12999999989,"y":2543668.7799999975}},{"attributes":{"ID":601630,"DIS_CODE":0,"TOWNNAME":"中西區","LI":"永福里","LIN":"9鄰","STREET":"永福路","SECT":"二段","MAREA":" ","LANE":" ","ALLEY":" ","HOUSE_NO":"７４號","E_COORD97":168084.92999999999,"N_COORD97":2543673.9100000001,"ADDRESS":"永福路二段７４號","OBJECTID":601603},"geometry":{"x":168084.93000000063,"y":2543673.910000002}},{"attributes":{"ID":601631,"DIS_CODE":0,"TOWNNAME":"中西區","LI":"永福里","LIN":"9鄰","STREET":"永福路","SECT":"二段","MAREA":" ","LANE":" ","ALLEY":" ","HOUSE_NO":"７６號","E_COORD97":168085.35000000001,"N_COORD97":2543678.2000000002,"ADDRESS":"永福路二段７６號","OBJECTID":601604},"geometry":{"x":168085.35000000056,"y":2543678.1999999993}},{"attributes":{"ID":601632,"DIS_CODE":0,"TOWNNAME":"中西區","LI":"永福里","LIN":"9鄰","STREET":"永福路","SECT":"二段","MAREA":" ","LANE":" ","ALLEY":" ","HOUSE_NO":"８６號之１","E_COORD97":168108.10000000001,"N_COORD97":2543718.6499999999,"ADDRESS":"永福路二段８６號之１","OBJECTID":601605},"geometry":{"x":168108.09999999963,"y":2543718.6500000041}},{"attributes":{"ID":601633,"DIS_CODE":0,"TOWNNAME":"中西區","LI":"永福里","LIN":"9鄰","STREET":"永福路","SECT":"二段","MAREA":" ","LANE":" ","ALLEY":" ","HOUSE_NO":"８６號之２","E_COORD97":168109.91,"N_COORD97":2543729.3100000001,"ADDRESS":"永福路二段８６號之２","OBJECTID":601606},"geometry":{"x":168109.91000000015,"y":2543729.3100000024}},{"attributes":{"ID":601634,"DIS_CODE":0,"TOWNNAME":"中西區","LI":"永福里","LIN":"9鄰","STREET":"永福路","SECT":"二段","MAREA":" ","LANE":" ","ALLEY":" ","HOUSE_NO":"８８號","E_COORD97":168095.76000000001,"N_COORD97":2543720.3100000001,"ADDRESS":"永福路二段８８號","OBJECTID":601607},"geometry":{"x":168095.75999999978,"y":2543720.3100000005}},{"attributes":{"ID":601635,"DIS_CODE":0,"TOWNNAME":"中西區","LI":"永福里","LIN":"9鄰","STREET":"永福路","SECT":"二段","MAREA":" ","LANE":" ","ALLEY":" ","HOUSE_NO":"９０號","E_COORD97":168096.73999999999,"N_COORD97":2543722.9399999999,"ADDRESS":"永福路二段９０號","OBJECTID":601608},"geometry":{"x":168096.74000000209,"y":2543722.9400000013}},{"attributes":{"ID":601636,"DIS_CODE":0,"TOWNNAME":"中西區","LI":"永福里","LIN":"9鄰","STREET":"永福路","SECT":"二段","MAREA":" ","LANE":" ","ALLEY":" ","HOUSE_NO":"９２號","E_COORD97":168097.57000000001,"N_COORD97":2543726.8199999998,"ADDRESS":"永福路二段９２號","OBJECTID":601609},"geometry":{"x":168097.5700000003,"y":2543726.8200000003}},{"attributes":{"ID":601637,"DIS_CODE":0,"TOWNNAME":"中西區","LI":"永福里","LIN":"9鄰","STREET":"永福路","SECT":"二段","MAREA":" ","LANE":" ","ALLEY":" ","HOUSE_NO":"９４號","E_COORD97":168098.54000000001,"N_COORD97":2543731.5299999998,"ADDRESS":"永福路二段９４號","OBJECTID":601610},"geometry":{"x":168098.54000000097,"y":2543731.5299999975}},{"attributes":{"ID":601638,"DIS_CODE":0,"TOWNNAME":"歸仁區","LI":"八甲里","LIN":"22鄰","STREET":"大仁街","SECT":" ","MAREA":" ","LANE":" ","ALLEY":" ","HOUSE_NO":"２７５號","E_COORD97":178225.29000000001,"N_COORD97":2541342.25,"ADDRESS":"大仁街２７５號","OBJECTID":601611},"geometry":{"x":178225.29000000097,"y":2541342.2500000019}},{"attributes":{"ID":601639,"DIS_CODE":0,"TOWNNAME":"歸仁區","LI":"八甲里","LIN":"22鄰","STREET":"文化街","SECT":"一段","MAREA":" ","LANE":" ","ALLEY":" ","HOUSE_NO":"１６號","E_COORD97":178253.62,"N_COORD97":2541306.1299999999,"ADDRESS":"文化街一段１６號","OBJECTID":601612},"geometry":{"x":178253.62000000104,"y":2541306.129999999}},{"attributes":{"ID":601640,"DIS_CODE":0,"TOWNNAME":"歸仁區","LI":"八甲里","LIN":"22鄰","STREET":"大仁街","SECT":" ","MAREA":" ","LANE":" ","ALLEY":" ","HOUSE_NO":"２７７號","E_COORD97":178206.89000000001,"N_COORD97":2541345.25,"ADDRESS":"大仁街２７７號","OBJECTID":601613},"geometry":{"x":178206.89000000153,"y":2541345.2500000019}},{"attributes":{"ID":601641,"DIS_CODE":0,"TOWNNAME":"歸仁區","LI":"大廟里","LIN":"22鄰","STREET":"大廟一街","SECT":" ","MAREA":" ","LANE":" ","ALLEY":" ","HOUSE_NO":"４０號","E_COORD97":175819.37,"N_COORD97":2544047.25,"ADDRESS":"大廟一街４０號","OBJECTID":601614},"geometry":{"x":175819.37000000104,"y":2544047.2500000019}},{"attributes":{"ID":601642,"DIS_CODE":0,"TOWNNAME":"歸仁區","LI":"大廟里","LIN":"22鄰","STREET":"大廟一街","SECT":" ","MAREA":" ","LANE":" ","ALLEY":" ","HOUSE_NO":"６８號","E_COORD97":175768.87,"N_COORD97":2543988.25,"ADDRESS":"大廟一街６８號","OBJECTID":601615},"geometry":{"x":175768.87000000104,"y":2543988.25}},{"attributes":{"ID":601643,"DIS_CODE":0,"TOWNNAME":"歸仁區","LI":"八甲里","LIN":"22鄰","STREET":"大仁街","SECT":" ","MAREA":" ","LANE":" ","ALLEY":" ","HOUSE_NO":"２５５號","E_COORD97":178243.69,"N_COORD97":2541336.25,"ADDRESS":"大仁街２５５號","OBJECTID":601616},"geometry":{"x":178243.69000000134,"y":2541336.25}},{"attributes":{"ID":601644,"DIS_CODE":0,"TOWNNAME":"歸仁區","LI":"八甲里","LIN":"22鄰","STREET":"大仁街","SECT":" ","MAREA":" ","LANE":" ","ALLEY":" ","HOUSE_NO":"２５１號","E_COORD97":178254.98999999999,"N_COORD97":2541327.25,"ADDRESS":"大仁街２５１號","OBJECTID":601617},"geometry":{"x":178254.99000000115,"y":2541327.2500000037}},{"attributes":{"ID":601645,"DIS_CODE":0,"TOWNNAME":"歸仁區","LI":"大廟里","LIN":"22鄰","STREET":"大廟一街","SECT":" ","MAREA":" ","LANE":" ","ALLEY":" ","HOUSE_NO":"６４號","E_COORD97":175789.37,"N_COORD97":2543999.25,"ADDRESS":"大廟一街６４號","OBJECTID":601618},"geometry":{"x":175789.37000000011,"y":2543999.2500000019}},{"attributes":{"ID":601646,"DIS_CODE":0,"TOWNNAME":"歸仁區","LI":"八甲里","LIN":"22鄰","STREET":"大德路","SECT":" ","MAREA":" ","LANE":" ","ALLEY":" ","HOUSE_NO":"９０號","E_COORD97":178178.22,"N_COORD97":2541289.1200000001,"ADDRESS":"大德路９０號","OBJECTID":601619},"geometry":{"x":178178.22000000067,"y":2541289.1200000029}},{"attributes":{"ID":601647,"DIS_CODE":0,"TOWNNAME":"歸仁區","LI":"八甲里","LIN":"22鄰","STREET":"大德路","SECT":" ","MAREA":" ","LANE":" ","ALLEY":" ","HOUSE_NO":"６０號","E_COORD97":178224.48000000001,"N_COORD97":2541303.1200000001,"ADDRESS":"大德路６０號","OBJECTID":601620},"geometry":{"x":178224.48000000138,"y":2541303.1200000029}},{"attributes":{"ID":601648,"DIS_CODE":0,"TOWNNAME":"歸仁區","LI":"八甲里","LIN":"22鄰","STREET":"大德路","SECT":" ","MAREA":" ","LANE":" ","ALLEY":" ","HOUSE_NO":"８６號","E_COORD97":178186.42000000001,"N_COORD97":2541286.1200000001,"ADDRESS":"大德路８６號","OBJECTID":601621},"geometry":{"x":178186.41999999993,"y":2541286.1200000029}},{"attributes":{"ID":601649,"DIS_CODE":0,"TOWNNAME":"歸仁區","LI":"八甲里","LIN":"22鄰","STREET":"大德路","SECT":" ","MAREA":" ","LANE":" ","ALLEY":" ","HOUSE_NO":"８８號","E_COORD97":178182.32000000001,"N_COORD97":2541288.1200000001,"ADDRESS":"大德路８８號","OBJECTID":601622},"geometry":{"x":178182.3200000003,"y":2541288.120000001}},{"attributes":{"ID":601650,"DIS_CODE":0,"TOWNNAME":"歸仁區","LI":"八甲里","LIN":"22鄰","STREET":"大仁街","SECT":" ","MAREA":" ","LANE":" ","ALLEY":" ","HOUSE_NO":"２８５號","E_COORD97":178227.48999999999,"N_COORD97":2541372.25,"ADDRESS":"大仁街２８５號","OBJECTID":601623},"geometry":{"x":178227.49000000115,"y":2541372.2500000019}},{"attributes":{"ID":601651,"DIS_CODE":0,"TOWNNAME":"歸仁區","LI":"八甲里","LIN":"22鄰","STREET":"大德路","SECT":" ","MAREA":" ","LANE":" ","ALLEY":" ","HOUSE_NO":"６８號","E_COORD97":178201.34,"N_COORD97":2541314.25,"ADDRESS":"大德路６８號","OBJECTID":601624},"geometry":{"x":178201.34000000078,"y":2541314.2500000019}},{"attributes":{"ID":601652,"DIS_CODE":0,"TOWNNAME":"歸仁區","LI":"文化里","LIN":"22鄰","STREET":"大德路","SECT":" ","MAREA":" ","LANE":" ","ALLEY":" ","HOUSE_NO":"２４３號","E_COORD97":177147.84,"N_COORD97":2541520.3300000001,"ADDRESS":"大德路２４３號","OBJECTID":601625},"geometry":{"x":177147.84000000171,"y":2541520.3300000019}},{"attributes":{"ID":601653,"DIS_CODE":0,"TOWNNAME":"歸仁區","LI":"文化里","LIN":"22鄰","STREET":"大德路","SECT":" ","MAREA":" ","LANE":" ","ALLEY":" ","HOUSE_NO":"２４１號","E_COORD97":177147.84,"N_COORD97":2541520.3300000001,"ADDRESS":"大德路２４１號","OBJECTID":601626},"geometry":{"x":177147.84000000171,"y":2541520.3300000019}},{"attributes":{"ID":601654,"DIS_CODE":0,"TOWNNAME":"歸仁區","LI":"文化里","LIN":"22鄰","STREET":"大德路","SECT":" ","MAREA":" ","LANE":" ","ALLEY":" ","HOUSE_NO":"２４７號","E_COORD97":177147.84,"N_COORD97":2541520.3300000001,"ADDRESS":"大德路２４７號","OBJECTID":601627},"geometry":{"x":177147.84000000171,"y":2541520.3300000019}},{"attributes":{"ID":601655,"DIS_CODE":0,"TOWNNAME":"南區","LI":"金華里","LIN":"22鄰","STREET":"賢南街","SECT":" ","MAREA":" ","LANE":" ","ALLEY":" ","HOUSE_NO":"１０２號","E_COORD97":166756.95000000001,"N_COORD97":2542419.6499999999,"ADDRESS":"賢南街１０２號","OBJECTID":601628},"geometry":{"x":166756.95000000019,"y":2542419.6500000004}},{"attributes":{"ID":601656,"DIS_CODE":0,"TOWNNAME":"南區","LI":"金華里","LIN":"22鄰","STREET":"賢南街","SECT":" ","MAREA":" ","LANE":" ","ALLEY":" ","HOUSE_NO":"１０４號","E_COORD97":166740.60999999999,"N_COORD97":2542417.1299999999,"ADDRESS":"賢南街１０４號","OBJECTID":601629},"geometry":{"x":166740.61000000127,"y":2542417.129999999}},{"attributes":{"ID":601657,"DIS_CODE":0,"TOWNNAME":"南區","LI":"金華里","LIN":"22鄰","STREET":"賢南街","SECT":" ","MAREA":" ","LANE":" ","ALLEY":" ","HOUSE_NO":"１２號","E_COORD97":166889.54000000001,"N_COORD97":2542443.1899999999,"ADDRESS":"賢南街１２號","OBJECTID":601630},"geometry":{"x":166889.54000000097,"y":2542443.1900000013}},{"attributes":{"ID":601658,"DIS_CODE":0,"TOWNNAME":"南區","LI":"金華里","LIN":"22鄰","STREET":"賢南街","SECT":" ","MAREA":" ","LANE":" ","ALLEY":" ","HOUSE_NO":"１４號","E_COORD97":166885.07000000001,"N_COORD97":2542443.1899999999,"ADDRESS":"賢南街１４號","OBJECTID":601631},"geometry":{"x":166885.0700000003,"y":2542443.1900000013}},{"attributes":{"ID":601659,"DIS_CODE":0,"TOWNNAME":"中西區","LI":"萬昌里","LIN":"11鄰","STREET":"北門路","SECT":"一段","MAREA":" ","LANE":" ","ALLEY":" ","HOUSE_NO":"１７號","E_COORD97":169143.45999999999,"N_COORD97":2543332.2400000002,"ADDRESS":"北門路一段１７號","OBJECTID":601632},"geometry":{"x":169143.45999999996,"y":2543332.2400000021}},{"attributes":{"ID":601660,"DIS_CODE":0,"TOWNNAME":"南區","LI":"金華里","LIN":"22鄰","STREET":"賢南街","SECT":" ","MAREA":" ","LANE":" ","ALLEY":" ","HOUSE_NO":"１６號","E_COORD97":166880.85999999999,"N_COORD97":2542442.1400000001,"ADDRESS":"賢南街１６號","OBJECTID":601633},"geometry":{"x":166880.86000000127,"y":2542442.1400000025}},{"attributes":{"ID":601661,"DIS_CODE":0,"TOWNNAME":"南區","LI":"金華里","LIN":"22鄰","STREET":"賢南街","SECT":" ","MAREA":" ","LANE":" ","ALLEY":" ","HOUSE_NO":"１８號","E_COORD97":166875.85999999999,"N_COORD97":2542441.3500000001,"ADDRESS":"賢南街１８號","OBJECTID":601634},"geometry":{"x":166875.86000000127,"y":2542441.3499999978}},{"attributes":{"ID":601662,"DIS_CODE":0,"TOWNNAME":"南區","LI":"金華里","LIN":"22鄰","STREET":"賢南街","SECT":" ","MAREA":" ","LANE":" ","ALLEY":" ","HOUSE_NO":"２０號","E_COORD97":166871.64999999999,"N_COORD97":2542440.8300000001,"ADDRESS":"賢南街２０號","OBJECTID":601635},"geometry":{"x":166871.64999999944,"y":2542440.8300000001}},{"attributes":{"ID":601663,"DIS_CODE":0,"TOWNNAME":"南區","LI":"金華里","LIN":"22鄰","STREET":"賢南街","SECT":" ","MAREA":" ","LANE":" ","ALLEY":" ","HOUSE_NO":"２２號","E_COORD97":166861.38,"N_COORD97":2542436.6200000001,"ADDRESS":"賢南街２２號","OBJECTID":601636},"geometry":{"x":166861.38000000082,"y":2542436.620000001}},{"attributes":{"ID":601664,"DIS_CODE":0,"TOWNNAME":"南區","LI":"金華里","LIN":"22鄰","STREET":"賢南街","SECT":" ","MAREA":" ","LANE":" ","ALLEY":" ","HOUSE_NO":"２４號","E_COORD97":166860.32999999999,"N_COORD97":2542440.8300000001,"ADDRESS":"賢南街２４號","OBJECTID":601637},"geometry":{"x":166860.33000000101,"y":2542440.8300000001}},{"attributes":{"ID":601665,"DIS_CODE":0,"TOWNNAME":"南區","LI":"金華里","LIN":"22鄰","STREET":"賢南街","SECT":" ","MAREA":" ","LANE":" ","ALLEY":" ","HOUSE_NO":"２６號","E_COORD97":166860.59,"N_COORD97":2542447.3999999999,"ADDRESS":"賢南街２６號","OBJECTID":601638},"geometry":{"x":166860.59000000078,"y":2542447.4000000004}},{"attributes":{"ID":601666,"DIS_CODE":0,"TOWNNAME":"南區","LI":"金華里","LIN":"22鄰","STREET":"賢南街","SECT":" ","MAREA":" ","LANE":" ","ALLEY":" ","HOUSE_NO":"２８號","E_COORD97":166859.01000000001,"N_COORD97":2542452.3900000001,"ADDRESS":"賢南街２８號","OBJECTID":601639},"geometry":{"x":166859.01000000071,"y":2542452.3900000043}},{"attributes":{"ID":601667,"DIS_CODE":0,"TOWNNAME":"南區","LI":"金華里","LIN":"22鄰","STREET":"賢南街","SECT":" ","MAREA":" ","LANE":" ","ALLEY":" ","HOUSE_NO":"２號","E_COORD97":166908.22,"N_COORD97":2542448.4500000002,"ADDRESS":"賢南街２號","OBJECTID":601640},"geometry":{"x":166908.22000000067,"y":2542448.4500000011}},{"attributes":{"ID":601668,"DIS_CODE":0,"TOWNNAME":"南區","LI":"金華里","LIN":"22鄰","STREET":"賢南街","SECT":" ","MAREA":" ","LANE":" ","ALLEY":" ","HOUSE_NO":"３０號","E_COORD97":166859.28,"N_COORD97":2542457.1200000001,"ADDRESS":"賢南街３０號","OBJECTID":601641},"geometry":{"x":166859.28000000119,"y":2542457.120000001}},{"attributes":{"ID":601669,"DIS_CODE":0,"TOWNNAME":"南區","LI":"金華里","LIN":"22鄰","STREET":"賢南街","SECT":" ","MAREA":" ","LANE":" ","ALLEY":" ","HOUSE_NO":"３２號","E_COORD97":166841.64999999999,"N_COORD97":2542459.2200000002,"ADDRESS":"賢南街３２號","OBJECTID":601642},"geometry":{"x":166841.6500000013,"y":2542459.2200000007}},{"attributes":{"ID":601670,"DIS_CODE":0,"TOWNNAME":"南區","LI":"金華里","LIN":"22鄰","STREET":"賢南街","SECT":" ","MAREA":" ","LANE":" ","ALLEY":" ","HOUSE_NO":"３４號","E_COORD97":166843.48999999999,"N_COORD97":2542453.9700000002,"ADDRESS":"賢南街３４號","OBJECTID":601643},"geometry":{"x":166843.49000000022,"y":2542453.9700000007}},{"attributes":{"ID":601671,"DIS_CODE":0,"TOWNNAME":"南區","LI":"金華里","LIN":"22鄰","STREET":"賢南街","SECT":" ","MAREA":" ","LANE":" ","ALLEY":" ","HOUSE_NO":"３６號","E_COORD97":166844.54000000001,"N_COORD97":2542449.7599999998,"ADDRESS":"賢南街３６號","OBJECTID":601644},"geometry":{"x":166844.54000000004,"y":2542449.7600000016}},{"attributes":{"ID":601672,"DIS_CODE":0,"TOWNNAME":"南區","LI":"金華里","LIN":"22鄰","STREET":"賢南街","SECT":" ","MAREA":" ","LANE":" ","ALLEY":" ","HOUSE_NO":"３８號","E_COORD97":166844.54000000001,"N_COORD97":2542443.98,"ADDRESS":"賢南街３８號","OBJECTID":601645},"geometry":{"x":166844.54000000004,"y":2542443.9800000004}},{"attributes":{"ID":601673,"DIS_CODE":0,"TOWNNAME":"南區","LI":"金華里","LIN":"22鄰","STREET":"賢南街","SECT":" ","MAREA":" ","LANE":" ","ALLEY":" ","HOUSE_NO":"４０號","E_COORD97":166845.59,"N_COORD97":2542438.73,"ADDRESS":"賢南街４０號","OBJECTID":601646},"geometry":{"x":166845.58999999985,"y":2542438.7300000004}},{"attributes":{"ID":601674,"DIS_CODE":0,"TOWNNAME":"南區","LI":"金華里","LIN":"22鄰","STREET":"賢南街","SECT":" ","MAREA":" ","LANE":" ","ALLEY":" ","HOUSE_NO":"４２號","E_COORD97":166846.64999999999,"N_COORD97":2542434,"ADDRESS":"賢南街４２號","OBJECTID":601647},"geometry":{"x":166846.6500000013,"y":2542433.9999999981}},{"attributes":{"ID":601675,"DIS_CODE":0,"TOWNNAME":"南區","LI":"金華里","LIN":"22鄰","STREET":"賢南街","SECT":" ","MAREA":" ","LANE":" ","ALLEY":" ","HOUSE_NO":"５０號","E_COORD97":166800.44,"N_COORD97":2542459.3700000001,"ADDRESS":"賢南街５０號","OBJECTID":601648},"geometry":{"x":166800.44000000227,"y":2542459.370000001}},{"attributes":{"ID":601676,"DIS_CODE":0,"TOWNNAME":"六甲區","LI":"甲東里","LIN":"22鄰","STREET":"裕農街","SECT":" ","MAREA":" ","LANE":" ","ALLEY":" ","HOUSE_NO":"６１號","E_COORD97":184183.31,"N_COORD97":2569718.3300000001,"ADDRESS":"裕農街６１號","OBJECTID":601649},"geometry":{"x":184183.31000000052,"y":2569718.3300000019}},{"attributes":{"ID":601677,"DIS_CODE":0,"TOWNNAME":"中西區","LI":"萬昌里","LIN":"11鄰","STREET":"民權路","SECT":"一段","MAREA":" ","LANE":" ","ALLEY":" ","HOUSE_NO":"１８號","E_COORD97":169094.04000000001,"N_COORD97":2543332.98,"ADDRESS":"民權路一段１８號","OBJECTID":601650},"geometry":{"x":169094.04000000004,"y":2543332.9799999986}},{"attributes":{"ID":601678,"DIS_CODE":0,"TOWNNAME":"六甲區","LI":"六甲里","LIN":"22鄰","STREET":"建國街","SECT":" ","MAREA":" ","LANE":" ","ALLEY":" ","HOUSE_NO":"７１號","E_COORD97":183679.17999999999,"N_COORD97":2570077.6000000001,"ADDRESS":"建國街６９號","OBJECTID":601651},"geometry":{"x":183679.18000000063,"y":2570077.5999999996}},{"attributes":{"ID":601679,"DIS_CODE":0,"TOWNNAME":"關廟區","LI":"北勢里","LIN":"22鄰","STREET":"成功路","SECT":" ","MAREA":" ","LANE":" ","ALLEY":" ","HOUSE_NO":"２０３號","E_COORD97":181476.37,"N_COORD97":2540468.27,"ADDRESS":"成功路２０３號","OBJECTID":601652},"geometry":{"x":181476.37000000104,"y":2540468.2699999996}},{"attributes":{"ID":601680,"DIS_CODE":0,"TOWNNAME":"關廟區","LI":"東勢里","LIN":"22鄰","STREET":"東昌街","SECT":" ","MAREA":" ","LANE":" ","ALLEY":" ","HOUSE_NO":"１００號","E_COORD97":181888.57000000001,"N_COORD97":2539196.25,"ADDRESS":"東昌街１００號","OBJECTID":601653},"geometry":{"x":181888.57000000123,"y":2539196.2500000019}},{"attributes":{"ID":601681,"DIS_CODE":0,"TOWNNAME":"關廟區","LI":"北勢里","LIN":"22鄰","STREET":"仁愛路","SECT":" ","MAREA":" ","LANE":" ","ALLEY":" ","HOUSE_NO":"１７０號","E_COORD97":181388.48999999999,"N_COORD97":2540395.2799999998,"ADDRESS":"仁愛路１７０號","OBJECTID":601654},"geometry":{"x":181388.48999999929,"y":2540395.2800000012}},{"attributes":{"ID":601682,"DIS_CODE":0,"TOWNNAME":"關廟區","LI":"東勢里","LIN":"22鄰","STREET":"東德街","SECT":" ","MAREA":" ","LANE":" ","ALLEY":" ","HOUSE_NO":"１２３號","E_COORD97":181808.76999999999,"N_COORD97":2539200.27,"ADDRESS":"東德街１２３號","OBJECTID":601655},"geometry":{"x":181808.77000000048,"y":2539200.2699999996}},{"attributes":{"ID":601683,"DIS_CODE":0,"TOWNNAME":"關廟區","LI":"北勢里","LIN":"22鄰","STREET":"仁愛路","SECT":" ","MAREA":" ","LANE":" ","ALLEY":" ","HOUSE_NO":"１６８號","E_COORD97":181386.19,"N_COORD97":2540391.2799999998,"ADDRESS":"仁愛路１６８號","OBJECTID":601656},"geometry":{"x":181386.19000000134,"y":2540391.2800000012}},{"attributes":{"ID":601684,"DIS_CODE":0,"TOWNNAME":"關廟區","LI":"北勢里","LIN":"22鄰","STREET":"仁愛路","SECT":" ","MAREA":" ","LANE":" ","ALLEY":" ","HOUSE_NO":"１４６號","E_COORD97":181374.98999999999,"N_COORD97":2540357.2799999998,"ADDRESS":"仁愛路１４６號","OBJECTID":601657},"geometry":{"x":181374.99000000209,"y":2540357.2800000012}},{"attributes":{"ID":601685,"DIS_CODE":0,"TOWNNAME":"關廟區","LI":"香洋里","LIN":"22鄰","STREET":"中山路","SECT":"一段","MAREA":" ","LANE":" ","ALLEY":" ","HOUSE_NO":"２２９號","E_COORD97":181400.45999999999,"N_COORD97":2539893.2799999998,"ADDRESS":"中山路一段２２９號","OBJECTID":601658},"geometry":{"x":181400.46000000183,"y":2539893.2800000012}},{"attributes":{"ID":601686,"DIS_CODE":0,"TOWNNAME":"關廟區","LI":"東勢里","LIN":"22鄰","STREET":"東德街","SECT":" ","MAREA":" ","LANE":" ","ALLEY":" ","HOUSE_NO":"１２９號","E_COORD97":181797.26999999999,"N_COORD97":2539195.27,"ADDRESS":"東德街１２９號","OBJECTID":601659},"geometry":{"x":181797.26999999955,"y":2539195.2700000014}},{"attributes":{"ID":601687,"DIS_CODE":0,"TOWNNAME":"關廟區","LI":"東勢里","LIN":"22鄰","STREET":"東德街","SECT":" ","MAREA":" ","LANE":" ","ALLEY":" ","HOUSE_NO":"１１８號","E_COORD97":181804.57000000001,"N_COORD97":2539218.27,"ADDRESS":"東德街１１８號","OBJECTID":601660},"geometry":{"x":181804.5700000003,"y":2539218.2700000014}},{"attributes":{"ID":601688,"DIS_CODE":0,"TOWNNAME":"關廟區","LI":"香洋里","LIN":"22鄰","STREET":"中山路","SECT":"一段","MAREA":" ","LANE":" ","ALLEY":" ","HOUSE_NO":"２１９號","E_COORD97":181421.16,"N_COORD97":2539888.2799999998,"ADDRESS":"中山路一段２１９號","OBJECTID":601661},"geometry":{"x":181421.15999999922,"y":2539888.2799999993}},{"attributes":{"ID":601689,"DIS_CODE":0,"TOWNNAME":"關廟區","LI":"香洋里","LIN":"22鄰","STREET":"民族街","SECT":" ","MAREA":" ","LANE":" ","ALLEY":" ","HOUSE_NO":"１１６號","E_COORD97":181419.09,"N_COORD97":2539862.29,"ADDRESS":"民族街１１６號","OBJECTID":601662},"geometry":{"x":181419.08999999985,"y":2539862.290000001}},{"attributes":{"ID":601690,"DIS_CODE":0,"TOWNNAME":"關廟區","LI":"香洋里","LIN":"22鄰","STREET":"民族街","SECT":" ","MAREA":" ","LANE":" ","ALLEY":" ","HOUSE_NO":"８９號","E_COORD97":181388.23999999999,"N_COORD97":2539820.29,"ADDRESS":"民族街８９號","OBJECTID":601663},"geometry":{"x":181388.24000000022,"y":2539820.2899999991}},{"attributes":{"ID":601691,"DIS_CODE":0,"TOWNNAME":"關廟區","LI":"香洋里","LIN":"22鄰","STREET":"中山路","SECT":"一段","MAREA":" ","LANE":" ","ALLEY":" ","HOUSE_NO":"２３７號","E_COORD97":181383.95999999999,"N_COORD97":2539896.2799999998,"ADDRESS":"中山路一段２３７號","OBJECTID":601664},"geometry":{"x":181383.96000000089,"y":2539896.2800000012}},{"attributes":{"ID":601692,"DIS_CODE":0,"TOWNNAME":"關廟區","LI":"香洋里","LIN":"22鄰","STREET":"民族街","SECT":" ","MAREA":" ","LANE":" ","ALLEY":" ","HOUSE_NO":"９５號","E_COORD97":181364.04000000001,"N_COORD97":2539833.29,"ADDRESS":"民族街９５號","OBJECTID":601665},"geometry":{"x":181364.04000000004,"y":2539833.2899999991}},{"attributes":{"ID":601693,"DIS_CODE":0,"TOWNNAME":"關廟區","LI":"東勢里","LIN":"22鄰","STREET":"東德街","SECT":" ","MAREA":" ","LANE":" ","ALLEY":" ","HOUSE_NO":"１１１號","E_COORD97":181833.67000000001,"N_COORD97":2539212.27,"ADDRESS":"東德街１１１號","OBJECTID":601666},"geometry":{"x":181833.67000000086,"y":2539212.2700000014}},{"attributes":{"ID":601694,"DIS_CODE":0,"TOWNNAME":"關廟區","LI":"北勢里","LIN":"22鄰","STREET":"仁愛路","SECT":" ","MAREA":" ","LANE":" ","ALLEY":" ","HOUSE_NO":"２００號","E_COORD97":181405.69,"N_COORD97":2540443.2799999998,"ADDRESS":"仁愛路２００號","OBJECTID":601667},"geometry":{"x":181405.69000000041,"y":2540443.2799999993}},{"attributes":{"ID":601695,"DIS_CODE":0,"TOWNNAME":"關廟區","LI":"北勢里","LIN":"22鄰","STREET":"仁愛路","SECT":" ","MAREA":" ","LANE":" ","ALLEY":" ","HOUSE_NO":"２１８號","E_COORD97":181414.98999999999,"N_COORD97":2540469.2799999998,"ADDRESS":"仁愛路２１８號","OBJECTID":601668},"geometry":{"x":181414.99000000022,"y":2540469.2800000012}},{"attributes":{"ID":601696,"DIS_CODE":0,"TOWNNAME":"東山區","LI":"東中里","LIN":"22鄰","STREET":"中興路","SECT":" ","MAREA":" ","LANE":" ","ALLEY":" ","HOUSE_NO":"５４號","E_COORD97":188996.19,"N_COORD97":2580145.8599999999,"ADDRESS":"中興路５４號","OBJECTID":601669},"geometry":{"x":188996.19000000134,"y":2580145.8600000031}},{"attributes":{"ID":601697,"DIS_CODE":0,"TOWNNAME":"東山區","LI":"東中里","LIN":"22鄰","STREET":"中興路","SECT":" ","MAREA":" ","LANE":" ","ALLEY":" ","HOUSE_NO":"５６號","E_COORD97":188996.12,"N_COORD97":2580149.6899999999,"ADDRESS":"中興路５６號","OBJECTID":601670},"geometry":{"x":188996.12000000104,"y":2580149.6899999995}},{"attributes":{"ID":601698,"DIS_CODE":0,"TOWNNAME":"北區","LI":"文元里","LIN":"22鄰","STREET":"和緯路","SECT":"三段","MAREA":" ","LANE":" ","ALLEY":" ","HOUSE_NO":"１８２號","E_COORD97":167920.84,"N_COORD97":2545770.5499999998,"ADDRESS":"和緯路三段１８２號","OBJECTID":601671},"geometry":{"x":167920.83999999892,"y":2545770.5499999989}},{"attributes":{"ID":601699,"DIS_CODE":0,"TOWNNAME":"北區","LI":"文元里","LIN":"22鄰","STREET":"和緯路","SECT":"三段","MAREA":" ","LANE":" ","ALLEY":" ","HOUSE_NO":"１８６號","E_COORD97":167912.57999999999,"N_COORD97":2545768.48,"ADDRESS":"和緯路三段１８６號","OBJECTID":601672},"geometry":{"x":167912.58000000007,"y":2545768.4800000023}},{"attributes":{"ID":601700,"DIS_CODE":0,"TOWNNAME":"北區","LI":"文元里","LIN":"22鄰","STREET":"和緯路","SECT":"三段","MAREA":" ","LANE":" ","ALLEY":" ","HOUSE_NO":"１８８號","E_COORD97":167906.39000000001,"N_COORD97":2545764.9900000002,"ADDRESS":"和緯路三段１８８號","OBJECTID":601673},"geometry":{"x":167906.38999999966,"y":2545764.9900000021}},{"attributes":{"ID":601701,"DIS_CODE":0,"TOWNNAME":"北區","LI":"文元里","LIN":"22鄰","STREET":"和緯路","SECT":"三段","MAREA":" ","LANE":" ","ALLEY":" ","HOUSE_NO":"１９０號","E_COORD97":167897.98000000001,"N_COORD97":2545761.6600000001,"ADDRESS":"和緯路三段１９０號","OBJECTID":601674},"geometry":{"x":167897.98000000045,"y":2545761.6600000001}},{"attributes":{"ID":601702,"DIS_CODE":0,"TOWNNAME":"北區","LI":"文元里","LIN":"22鄰","STREET":"和緯路","SECT":"三段","MAREA":" ","LANE":" ","ALLEY":" ","HOUSE_NO":"１９２號","E_COORD97":167888.60999999999,"N_COORD97":2545758.0099999998,"ADDRESS":"和緯路三段１９２號","OBJECTID":601675},"geometry":{"x":167888.61000000034,"y":2545758.0100000016}},{"attributes":{"ID":601703,"DIS_CODE":0,"TOWNNAME":"北區","LI":"文元里","LIN":"22鄰","STREET":"和緯路","SECT":"三段","MAREA":" ","LANE":" ","ALLEY":" ","HOUSE_NO":"１９６號","E_COORD97":167878.45000000001,"N_COORD97":2545753.3999999999,"ADDRESS":"和緯路三段１９６號","OBJECTID":601676},"geometry":{"x":167878.45000000112,"y":2545753.4000000004}},{"attributes":{"ID":601704,"DIS_CODE":0,"TOWNNAME":"北區","LI":"文元里","LIN":"22鄰","STREET":"和緯路","SECT":"三段","MAREA":" ","LANE":" ","ALLEY":" ","HOUSE_NO":"１９８號","E_COORD97":167868.60999999999,"N_COORD97":2545750.0699999998,"ADDRESS":"和緯路三段１９８號","OBJECTID":601677},"geometry":{"x":167868.61000000034,"y":2545750.0700000022}},{"attributes":{"ID":601705,"DIS_CODE":0,"TOWNNAME":"北區","LI":"文元里","LIN":"22鄰","STREET":"和緯路","SECT":"三段","MAREA":" ","LANE":" ","ALLEY":" ","HOUSE_NO":"２１０號","E_COORD97":167845.10999999999,"N_COORD97":2545741.6499999999,"ADDRESS":"和緯路三段２１０號","OBJECTID":601678},"geometry":{"x":167845.1100000022,"y":2545741.6500000004}},{"attributes":{"ID":601706,"DIS_CODE":0,"TOWNNAME":"北區","LI":"文元里","LIN":"22鄰","STREET":"和緯路","SECT":"三段","MAREA":" ","LANE":" ","ALLEY":" ","HOUSE_NO":"２２０號","E_COORD97":167761.13,"N_COORD97":2545726.1000000001,"ADDRESS":"和緯路三段２２０號","OBJECTID":601679},"geometry":{"x":167761.12999999989,"y":2545726.1000000015}},{"attributes":{"ID":601707,"DIS_CODE":0,"TOWNNAME":"北區","LI":"文元里","LIN":"22鄰","STREET":"和緯路","SECT":"三段","MAREA":" ","LANE":" ","ALLEY":" ","HOUSE_NO":"２２８號","E_COORD97":167736.04999999999,"N_COORD97":2545698.3199999998,"ADDRESS":"和緯路三段２２８號","OBJECTID":601680},"geometry":{"x":167736.04999999981,"y":2545698.3200000022}},{"attributes":{"ID":601708,"DIS_CODE":0,"TOWNNAME":"安平區","LI":"平通里","LIN":"22鄰","STREET":"育平九街","SECT":" ","MAREA":" ","LANE":" ","ALLEY":" ","HOUSE_NO":"３６８號","E_COORD97":164604.89000000001,"N_COORD97":2544059.8399999999,"ADDRESS":"育平九街３６８號","OBJECTID":601681},"geometry":{"x":164604.8900000006,"y":2544059.8400000017}},{"attributes":{"ID":601709,"DIS_CODE":0,"TOWNNAME":"安平區","LI":"平通里","LIN":"22鄰","STREET":"育平九街","SECT":" ","MAREA":" ","LANE":" ","ALLEY":" ","HOUSE_NO":"３６９號","E_COORD97":164605.42000000001,"N_COORD97":2544027.9300000002,"ADDRESS":"育平九街３６９號","OBJECTID":601682},"geometry":{"x":164605.42000000086,"y":2544027.9300000034}},{"attributes":{"ID":601710,"DIS_CODE":0,"TOWNNAME":"安平區","LI":"平通里","LIN":"22鄰","STREET":"育平九街","SECT":" ","MAREA":" ","LANE":" ","ALLEY":" ","HOUSE_NO":"３７０號","E_COORD97":164599.91,"N_COORD97":2544059.8999999999,"ADDRESS":"育平九街３７０號","OBJECTID":601683},"geometry":{"x":164599.91000000201,"y":2544059.9000000022}},{"attributes":{"ID":601711,"DIS_CODE":0,"TOWNNAME":"中西區","LI":"銀同里","LIN":"6鄰","STREET":"府中街","SECT":" ","MAREA":" ","LANE":" ","ALLEY":" ","HOUSE_NO":"５１號","E_COORD97":168750.01999999999,"N_COORD97":2543465.54,"ADDRESS":"府中街５１號","OBJECTID":601684},"geometry":{"x":168750.02000000142,"y":2543465.5399999991}},{"attributes":{"ID":601712,"DIS_CODE":0,"TOWNNAME":"安平區","LI":"平通里","LIN":"22鄰","STREET":"育平九街","SECT":" ","MAREA":" ","LANE":" ","ALLEY":" ","HOUSE_NO":"３８１號","E_COORD97":164569.67000000001,"N_COORD97":2544024.3900000001,"ADDRESS":"育平九街３８１號","OBJECTID":601685},"geometry":{"x":164569.67000000086,"y":2544024.3900000006}},{"attributes":{"ID":601713,"DIS_CODE":0,"TOWNNAME":"安平區","LI":"平通里","LIN":"22鄰","STREET":"育平九街","SECT":" ","MAREA":" ","LANE":" ","ALLEY":" ","HOUSE_NO":"３８３號","E_COORD97":164565.91,"N_COORD97":2544024.2200000002,"ADDRESS":"育平九街３８３號","OBJECTID":601686},"geometry":{"x":164565.90999999922,"y":2544024.2200000025}},{"attributes":{"ID":601714,"DIS_CODE":0,"TOWNNAME":"安平區","LI":"平通里","LIN":"22鄰","STREET":"育平九街","SECT":" ","MAREA":" ","LANE":" ","ALLEY":" ","HOUSE_NO":"３８５號","E_COORD97":164561.64000000001,"N_COORD97":2544024.3399999999,"ADDRESS":"育平九街３８５號","OBJECTID":601687},"geometry":{"x":164561.63999999966,"y":2544024.3399999999}},{"attributes":{"ID":601715,"DIS_CODE":0,"TOWNNAME":"安平區","LI":"平通里","LIN":"22鄰","STREET":"育平九街","SECT":" ","MAREA":" ","LANE":" ","ALLEY":" ","HOUSE_NO":"３８７號","E_COORD97":164557.48999999999,"N_COORD97":2544024.2799999998,"ADDRESS":"育平九街３８７號","OBJECTID":601688},"geometry":{"x":164557.49000000115,"y":2544024.2799999993}},{"attributes":{"ID":601716,"DIS_CODE":0,"TOWNNAME":"安平區","LI":"平通里","LIN":"22鄰","STREET":"育平九街","SECT":" ","MAREA":" ","LANE":" ","ALLEY":" ","HOUSE_NO":"３８９號","E_COORD97":164553.28,"N_COORD97":2544024.3399999999,"ADDRESS":"育平九街３８９號","OBJECTID":601689},"geometry":{"x":164553.28000000026,"y":2544024.3399999999}},{"attributes":{"ID":601717,"DIS_CODE":0,"TOWNNAME":"安平區","LI":"平通里","LIN":"22鄰","STREET":"育平九街","SECT":" ","MAREA":" ","LANE":" ","ALLEY":" ","HOUSE_NO":"３９１號","E_COORD97":164549.17999999999,"N_COORD97":2544024.2799999998,"ADDRESS":"育平九街３９１號","OBJECTID":601690},"geometry":{"x":164549.18000000063,"y":2544024.2799999993}},{"attributes":{"ID":601718,"DIS_CODE":0,"TOWNNAME":"安平區","LI":"平通里","LIN":"22鄰","STREET":"育平九街","SECT":" ","MAREA":" ","LANE":" ","ALLEY":" ","HOUSE_NO":"３９３號","E_COORD97":164545.14000000001,"N_COORD97":2544024.2200000002,"ADDRESS":"育平九街３９３號","OBJECTID":601691},"geometry":{"x":164545.13999999966,"y":2544024.2200000025}},{"attributes":{"ID":601719,"DIS_CODE":0,"TOWNNAME":"安平區","LI":"平通里","LIN":"22鄰","STREET":"育平九街","SECT":" ","MAREA":" ","LANE":" ","ALLEY":" ","HOUSE_NO":"３９５號","E_COORD97":164540.92999999999,"N_COORD97":2544024.3900000001,"ADDRESS":"育平九街３９５號","OBJECTID":601692},"geometry":{"x":164540.9299999997,"y":2544024.3900000006}},{"attributes":{"ID":601720,"DIS_CODE":0,"TOWNNAME":"安平區","LI":"平通里","LIN":"22鄰","STREET":"育平九街","SECT":" ","MAREA":" ","LANE":" ","ALLEY":" ","HOUSE_NO":"３９９號","E_COORD97":164532.35999999999,"N_COORD97":2544024.1600000001,"ADDRESS":"育平九街３９９號","OBJECTID":601693},"geometry":{"x":164532.36000000034,"y":2544024.160000002}},{"attributes":{"ID":601721,"DIS_CODE":0,"TOWNNAME":"安平區","LI":"平通里","LIN":"22鄰","STREET":"育平九街","SECT":" ","MAREA":" ","LANE":" ","ALLEY":" ","HOUSE_NO":"４０１號","E_COORD97":164528.51000000001,"N_COORD97":2544024,"ADDRESS":"育平九街４０１號","OBJECTID":601694},"geometry":{"x":164528.50999999978,"y":2544023.9999999981}},{"attributes":{"ID":601722,"DIS_CODE":0,"TOWNNAME":"安平區","LI":"平通里","LIN":"22鄰","STREET":"育平九街","SECT":" ","MAREA":" ","LANE":" ","ALLEY":" ","HOUSE_NO":"４０３號","E_COORD97":164524.22,"N_COORD97":2544024,"ADDRESS":"育平九街４０３號","OBJECTID":601695},"geometry":{"x":164524.21999999974,"y":2544023.9999999981}},{"attributes":{"ID":601723,"DIS_CODE":0,"TOWNNAME":"東山區","LI":"東中里","LIN":"22鄰","STREET":"中興路","SECT":" ","MAREA":" ","LANE":" ","ALLEY":" ","HOUSE_NO":"８６號","E_COORD97":188997.14000000001,"N_COORD97":2580212.96,"ADDRESS":"中興路８６號","OBJECTID":601696},"geometry":{"x":188997.1400000006,"y":2580212.9600000009}},{"attributes":{"ID":601724,"DIS_CODE":0,"TOWNNAME":"東山區","LI":"東中里","LIN":"22鄰","STREET":"中興路","SECT":" ","MAREA":" ","LANE":" ","ALLEY":" ","HOUSE_NO":"５０號","E_COORD97":188998.76000000001,"N_COORD97":2580138.1099999999,"ADDRESS":"中興路５０號","OBJECTID":601697},"geometry":{"x":188998.75999999978,"y":2580138.1100000013}},{"attributes":{"ID":601725,"DIS_CODE":0,"TOWNNAME":"東山區","LI":"東中里","LIN":"22鄰","STREET":"中興路","SECT":" ","MAREA":" ","LANE":" ","ALLEY":" ","HOUSE_NO":"５２號","E_COORD97":188995.92000000001,"N_COORD97":2580141.5499999998,"ADDRESS":"中興路５２號","OBJECTID":601698},"geometry":{"x":188995.92000000086,"y":2580141.5500000007}},{"attributes":{"ID":601726,"DIS_CODE":0,"TOWNNAME":"東山區","LI":"東中里","LIN":"22鄰","STREET":"中興路","SECT":" ","MAREA":" ","LANE":" ","ALLEY":" ","HOUSE_NO":"６０號","E_COORD97":188996.45999999999,"N_COORD97":2580156.96,"ADDRESS":"中興路６０號","OBJECTID":601699},"geometry":{"x":188996.45999999903,"y":2580156.9600000046}},{"attributes":{"ID":601727,"DIS_CODE":0,"TOWNNAME":"東山區","LI":"東中里","LIN":"22鄰","STREET":"中興路","SECT":" ","MAREA":" ","LANE":" ","ALLEY":" ","HOUSE_NO":"６２號","E_COORD97":188996.70000000001,"N_COORD97":2580161.1200000001,"ADDRESS":"中興路６２號","OBJECTID":601700},"geometry":{"x":188996.70000000019,"y":2580161.120000001}},{"attributes":{"ID":601728,"DIS_CODE":0,"TOWNNAME":"東山區","LI":"東中里","LIN":"22鄰","STREET":"中興路","SECT":" ","MAREA":" ","LANE":" ","ALLEY":" ","HOUSE_NO":"６４號","E_COORD97":188996.66,"N_COORD97":2580164.8500000001,"ADDRESS":"中興路６４號","OBJECTID":601701},"geometry":{"x":188996.66000000015,"y":2580164.8499999996}},{"attributes":{"ID":601729,"DIS_CODE":0,"TOWNNAME":"東山區","LI":"東中里","LIN":"22鄰","STREET":"中興路","SECT":" ","MAREA":" ","LANE":" ","ALLEY":" ","HOUSE_NO":"６６號","E_COORD97":188996.78,"N_COORD97":2580168.3900000001,"ADDRESS":"中興路６６號","OBJECTID":601702},"geometry":{"x":188996.78000000119,"y":2580168.3900000025}},{"attributes":{"ID":601730,"DIS_CODE":0,"TOWNNAME":"東山區","LI":"東中里","LIN":"22鄰","STREET":"中興路","SECT":" ","MAREA":" ","LANE":" ","ALLEY":" ","HOUSE_NO":"６８號","E_COORD97":188997.20999999999,"N_COORD97":2580171.9199999999,"ADDRESS":"中興路６８號","OBJECTID":601703},"geometry":{"x":188997.21000000089,"y":2580171.9199999999}},{"attributes":{"ID":601731,"DIS_CODE":0,"TOWNNAME":"東山區","LI":"東中里","LIN":"22鄰","STREET":"中興路","SECT":" ","MAREA":" ","LANE":" ","ALLEY":" ","HOUSE_NO":"７４號","E_COORD97":189000.29999999999,"N_COORD97":2580185.8500000001,"ADDRESS":"中興路７４號","OBJECTID":601704},"geometry":{"x":189000.29999999981,"y":2580185.8499999996}},{"attributes":{"ID":601732,"DIS_CODE":0,"TOWNNAME":"東山區","LI":"東中里","LIN":"22鄰","STREET":"中興路","SECT":" ","MAREA":" ","LANE":" ","ALLEY":" ","HOUSE_NO":"７６號","E_COORD97":189000,"N_COORD97":2580190.5600000001,"ADDRESS":"中興路７６號","OBJECTID":601705},"geometry":{"x":189000.00000000093,"y":2580190.5600000024}},{"attributes":{"ID":601733,"DIS_CODE":0,"TOWNNAME":"東山區","LI":"東中里","LIN":"22鄰","STREET":"中興路","SECT":" ","MAREA":" ","LANE":" ","ALLEY":" ","HOUSE_NO":"７８號","E_COORD97":188999.42000000001,"N_COORD97":2580194.4399999999,"ADDRESS":"中興路７８號","OBJECTID":601706},"geometry":{"x":188999.41999999993,"y":2580194.4399999995}},{"attributes":{"ID":601734,"DIS_CODE":0,"TOWNNAME":"東山區","LI":"東中里","LIN":"22鄰","STREET":"中興路","SECT":" ","MAREA":" ","LANE":" ","ALLEY":" ","HOUSE_NO":"８０號","E_COORD97":188998.95000000001,"N_COORD97":2580198.3199999998,"ADDRESS":"中興路８０號","OBJECTID":601707},"geometry":{"x":188998.95000000112,"y":2580198.3200000022}},{"attributes":{"ID":601735,"DIS_CODE":0,"TOWNNAME":"東山區","LI":"東中里","LIN":"22鄰","STREET":"中興路","SECT":" ","MAREA":" ","LANE":" ","ALLEY":" ","HOUSE_NO":"８２號","E_COORD97":188998.31,"N_COORD97":2580203.1200000001,"ADDRESS":"中興路８２號","OBJECTID":601708},"geometry":{"x":188998.30999999959,"y":2580203.1199999992}},{"attributes":{"ID":601736,"DIS_CODE":0,"TOWNNAME":"東山區","LI":"東中里","LIN":"22鄰","STREET":"中興路","SECT":" ","MAREA":" ","LANE":" ","ALLEY":" ","HOUSE_NO":"８８號","E_COORD97":188996.64000000001,"N_COORD97":2580218.0899999999,"ADDRESS":"中興路８８號","OBJECTID":601709},"geometry":{"x":188996.63999999873,"y":2580218.0899999999}},{"attributes":{"ID":601737,"DIS_CODE":0,"TOWNNAME":"新營區","LI":"王公里","LIN":"22鄰","STREET":"大勇街","SECT":" ","MAREA":" ","LANE":" ","ALLEY":" ","HOUSE_NO":"１０４號","E_COORD97":180478.70999999999,"N_COORD97":2579434.27,"ADDRESS":"大勇街１０４號","OBJECTID":601710},"geometry":{"x":180478.71000000089,"y":2579434.2699999977}},{"attributes":{"ID":601738,"DIS_CODE":0,"TOWNNAME":"新營區","LI":"大宏里","LIN":"22鄰","STREET":"開元路","SECT":" ","MAREA":" ","LANE":" ","ALLEY":" ","HOUSE_NO":"６７號","E_COORD97":180908.94,"N_COORD97":2578742.3199999998,"ADDRESS":"開元路６７號","OBJECTID":601711},"geometry":{"x":180908.94000000041,"y":2578742.3200000003}},{"attributes":{"ID":601739,"DIS_CODE":0,"TOWNNAME":"新營區","LI":"新東里","LIN":"22鄰","STREET":"長榮路","SECT":"一段","MAREA":" ","LANE":" ","ALLEY":" ","HOUSE_NO":"３０９號","E_COORD97":180913.42000000001,"N_COORD97":2579857.5,"ADDRESS":"長榮路一段３０９號","OBJECTID":601712},"geometry":{"x":180913.41999999993,"y":2579857.5000000019}},{"attributes":{"ID":601740,"DIS_CODE":0,"TOWNNAME":"新營區","LI":"南紙里","LIN":"22鄰","STREET":"建業路","SECT":" ","MAREA":" ","LANE":" ","ALLEY":" ","HOUSE_NO":"２２１號","E_COORD97":178137.42999999999,"N_COORD97":2577501.8799999999,"ADDRESS":"建業路２２１號","OBJECTID":601713},"geometry":{"x":178137.43000000063,"y":2577501.8800000008}},{"attributes":{"ID":601741,"DIS_CODE":0,"TOWNNAME":"新營區","LI":"新東里","LIN":"22鄰","STREET":"長榮路","SECT":"一段","MAREA":" ","LANE":" ","ALLEY":" ","HOUSE_NO":"３１３號","E_COORD97":180895.03,"N_COORD97":2579862.0299999998,"ADDRESS":"長榮路一段３１３號","OBJECTID":601714},"geometry":{"x":180895.03000000212,"y":2579862.0299999993}},{"attributes":{"ID":601742,"DIS_CODE":0,"TOWNNAME":"新營區","LI":"新東里","LIN":"22鄰","STREET":"長榮路","SECT":"一段","MAREA":" ","LANE":" ","ALLEY":" ","HOUSE_NO":"３０１號","E_COORD97":180930.81,"N_COORD97":2579858.5299999998,"ADDRESS":"長榮路一段３０１號","OBJECTID":601715},"geometry":{"x":180930.80999999959,"y":2579858.5299999993}},{"attributes":{"ID":601743,"DIS_CODE":0,"TOWNNAME":"新營區","LI":"民生里","LIN":"22鄰","STREET":"公園路","SECT":"一段","MAREA":" ","LANE":" ","ALLEY":" ","HOUSE_NO":"５８號","E_COORD97":179113.26999999999,"N_COORD97":2578406.3799999999,"ADDRESS":"公園路一段５８號","OBJECTID":601716},"geometry":{"x":179113.27000000048,"y":2578406.3800000008}},{"attributes":{"ID":601744,"DIS_CODE":0,"TOWNNAME":"新營區","LI":"三仙里","LIN":"22鄰","STREET":"民治路","SECT":" ","MAREA":" ","LANE":" ","ALLEY":" ","HOUSE_NO":"７２號","E_COORD97":179619.67000000001,"N_COORD97":2578851.3799999999,"ADDRESS":"民治路７２號","OBJECTID":601717},"geometry":{"x":179619.67000000086,"y":2578851.3800000008}},{"attributes":{"ID":601745,"DIS_CODE":0,"TOWNNAME":"新營區","LI":"三仙里","LIN":"22鄰","STREET":"民治路","SECT":" ","MAREA":" ","LANE":" ","ALLEY":" ","HOUSE_NO":"７０號","E_COORD97":179661.60999999999,"N_COORD97":2578852.29,"ADDRESS":"民治路７０號","OBJECTID":601718},"geometry":{"x":179661.61000000034,"y":2578852.290000001}},{"attributes":{"ID":601746,"DIS_CODE":0,"TOWNNAME":"新營區","LI":"民榮里","LIN":"22鄰","STREET":"裕民路","SECT":" ","MAREA":" ","LANE":" ","ALLEY":" ","HOUSE_NO":"５０號","E_COORD97":179133.04000000001,"N_COORD97":2577835.9500000002,"ADDRESS":"裕民路５０號","OBJECTID":601719},"geometry":{"x":179133.04000000004,"y":2577835.950000003}},{"attributes":{"ID":601747,"DIS_CODE":0,"TOWNNAME":"新營區","LI":"民權里","LIN":"22鄰","STREET":"三民路","SECT":" ","MAREA":" ","LANE":" ","ALLEY":" ","HOUSE_NO":"１３０號","E_COORD97":179733.69,"N_COORD97":2578480.9500000002,"ADDRESS":"三民路１３０號","OBJECTID":601720},"geometry":{"x":179733.69000000134,"y":2578480.9500000011}},{"attributes":{"ID":601748,"DIS_CODE":0,"TOWNNAME":"新營區","LI":"民權里","LIN":"22鄰","STREET":"三民路","SECT":" ","MAREA":" ","LANE":" ","ALLEY":" ","HOUSE_NO":"１２８號之４","E_COORD97":179734.69,"N_COORD97":2578453.3300000001,"ADDRESS":"三民路１２８號之４","OBJECTID":601721},"geometry":{"x":179734.69000000227,"y":2578453.3300000001}},{"attributes":{"ID":601749,"DIS_CODE":0,"TOWNNAME":"新營區","LI":"民榮里","LIN":"22鄰","STREET":"裕民路","SECT":" ","MAREA":" ","LANE":" ","ALLEY":" ","HOUSE_NO":"５２號","E_COORD97":179133.01999999999,"N_COORD97":2577831.52,"ADDRESS":"裕民路５２號","OBJECTID":601722},"geometry":{"x":179133.01999999862,"y":2577831.5199999996}},{"attributes":{"ID":601750,"DIS_CODE":0,"TOWNNAME":"新營區","LI":"民權里","LIN":"22鄰","STREET":"三民路","SECT":" ","MAREA":" ","LANE":" ","ALLEY":" ","HOUSE_NO":"１３０號之５","E_COORD97":179715.5,"N_COORD97":2578477.7799999998,"ADDRESS":"三民路１３０號之５","OBJECTID":601723},"geometry":{"x":179715.50000000093,"y":2578477.7799999993}},{"attributes":{"ID":601751,"DIS_CODE":0,"TOWNNAME":"新營區","LI":"民榮里","LIN":"22鄰","STREET":"裕民路","SECT":" ","MAREA":" ","LANE":" ","ALLEY":" ","HOUSE_NO":"４２號","E_COORD97":179132.17000000001,"N_COORD97":2577853.6699999999,"ADDRESS":"裕民路４２號","OBJECTID":601724},"geometry":{"x":179132.16999999993,"y":2577853.6700000018}},{"attributes":{"ID":601752,"DIS_CODE":0,"TOWNNAME":"新營區","LI":"民榮里","LIN":"22鄰","STREET":"裕民路","SECT":" ","MAREA":" ","LANE":" ","ALLEY":" ","HOUSE_NO":"６０號","E_COORD97":179131.85000000001,"N_COORD97":2577802.7400000002,"ADDRESS":"裕民路６０號","OBJECTID":601725},"geometry":{"x":179131.84999999963,"y":2577802.7400000021}},{"attributes":{"ID":601753,"DIS_CODE":0,"TOWNNAME":"新營區","LI":"民榮里","LIN":"22鄰","STREET":"裕民路","SECT":" ","MAREA":" ","LANE":" ","ALLEY":" ","HOUSE_NO":"４０號","E_COORD97":179132.19,"N_COORD97":2577858.1000000001,"ADDRESS":"裕民路４０號","OBJECTID":601726},"geometry":{"x":179132.19000000041,"y":2577858.0999999996}},{"attributes":{"ID":601754,"DIS_CODE":0,"TOWNNAME":"新營區","LI":"王公里","LIN":"22鄰","STREET":"民族路","SECT":" ","MAREA":" ","LANE":" ","ALLEY":" ","HOUSE_NO":"１６８號之１","E_COORD97":180483.16,"N_COORD97":2579413.2799999998,"ADDRESS":"民族路１６８號之１","OBJECTID":601727},"geometry":{"x":180483.16000000015,"y":2579413.2799999993}},{"attributes":{"ID":601755,"DIS_CODE":0,"TOWNNAME":"新營區","LI":"民權里","LIN":"22鄰","STREET":"三民路","SECT":" ","MAREA":" ","LANE":" ","ALLEY":" ","HOUSE_NO":"１３２號之２","E_COORD97":179708.20999999999,"N_COORD97":2578452.3500000001,"ADDRESS":"三民路１３２號之２","OBJECTID":601728},"geometry":{"x":179708.20999999996,"y":2578452.3500000015}},{"attributes":{"ID":601756,"DIS_CODE":0,"TOWNNAME":"中西區","LI":"萬昌里","LIN":"16鄰","STREET":"青年路","SECT":" ","MAREA":" ","LANE":" ","ALLEY":" ","HOUSE_NO":"１０２號","E_COORD97":168856.60000000001,"N_COORD97":2543603.5099999998,"ADDRESS":"青年路１０２號","OBJECTID":601729},"geometry":{"x":168856.60000000056,"y":2543603.5100000035}},{"attributes":{"ID":601757,"DIS_CODE":0,"TOWNNAME":"中西區","LI":"萬昌里","LIN":"16鄰","STREET":"青年路","SECT":" ","MAREA":" ","LANE":" ","ALLEY":" ","HOUSE_NO":"１０４號","E_COORD97":168860.82000000001,"N_COORD97":2543602.3900000001,"ADDRESS":"青年路１０４號","OBJECTID":601730},"geometry":{"x":168860.82000000216,"y":2543602.3900000025}},{"attributes":{"ID":601758,"DIS_CODE":0,"TOWNNAME":"中西區","LI":"萬昌里","LIN":"16鄰","STREET":"青年路","SECT":" ","MAREA":" ","LANE":" ","ALLEY":" ","HOUSE_NO":"１０６號","E_COORD97":168863.29999999999,"N_COORD97":2543601.6499999999,"ADDRESS":"青年路１０６號","OBJECTID":601731},"geometry":{"x":168863.29999999981,"y":2543601.6500000004}},{"attributes":{"ID":601759,"DIS_CODE":0,"TOWNNAME":"中西區","LI":"萬昌里","LIN":"16鄰","STREET":"青年路","SECT":" ","MAREA":" ","LANE":" ","ALLEY":" ","HOUSE_NO":"１０８號","E_COORD97":168866.28,"N_COORD97":2543601.2799999998,"ADDRESS":"青年路１０８號","OBJECTID":601732},"geometry":{"x":168866.28000000119,"y":2543601.2800000031}},{"attributes":{"ID":601760,"DIS_CODE":0,"TOWNNAME":"中西區","LI":"萬昌里","LIN":"16鄰","STREET":"青年路","SECT":" ","MAREA":" ","LANE":" ","ALLEY":" ","HOUSE_NO":"１１２號","E_COORD97":168870,"N_COORD97":2543600.9100000001,"ADDRESS":"青年路１１２號","OBJECTID":601733},"geometry":{"x":168870.00000000093,"y":2543600.9100000001}},{"attributes":{"ID":601761,"DIS_CODE":0,"TOWNNAME":"北區","LI":"成德里","LIN":"22鄰","STREET":"中華北路","SECT":"二段","MAREA":" ","LANE":" ","ALLEY":" ","HOUSE_NO":"２２１之１２號","E_COORD97":168346.29999999999,"N_COORD97":2546793.5299999998,"ADDRESS":"中華北路二段２２１之１２號","OBJECTID":601734},"geometry":{"x":168346.29999999981,"y":2546793.5300000031}},{"attributes":{"ID":601762,"DIS_CODE":0,"TOWNNAME":"北區","LI":"成德里","LIN":"22鄰","STREET":"中華北路","SECT":"二段","MAREA":" ","LANE":" ","ALLEY":" ","HOUSE_NO":"２２１之１３號","E_COORD97":168332.85999999999,"N_COORD97":2546791.4500000002,"ADDRESS":"中華北路二段２２１之１３號","OBJECTID":601735},"geometry":{"x":168332.86000000034,"y":2546791.4500000011}},{"attributes":{"ID":601763,"DIS_CODE":0,"TOWNNAME":"北區","LI":"成德里","LIN":"22鄰","STREET":"中華北路","SECT":"二段","MAREA":" ","LANE":" ","ALLEY":" ","HOUSE_NO":"２２１號","E_COORD97":168486.85000000001,"N_COORD97":2546840.4100000001,"ADDRESS":"中華北路二段２２１號","OBJECTID":601736},"geometry":{"x":168486.85000000149,"y":2546840.410000002}},{"attributes":{"ID":601764,"DIS_CODE":0,"TOWNNAME":"北區","LI":"成德里","LIN":"22鄰","STREET":"中華北路","SECT":"二段","MAREA":" ","LANE":" ","ALLEY":" ","HOUSE_NO":"２２１號之１","E_COORD97":168477.32000000001,"N_COORD97":2546838.5,"ADDRESS":"中華北路二段２２１號之１","OBJECTID":601737},"geometry":{"x":168477.3200000003,"y":2546838.5000000037}},{"attributes":{"ID":601765,"DIS_CODE":0,"TOWNNAME":"北區","LI":"成德里","LIN":"22鄰","STREET":"中華北路","SECT":"二段","MAREA":" ","LANE":" ","ALLEY":" ","HOUSE_NO":"２２１號之３","E_COORD97":168466.53,"N_COORD97":2546836.9199999999,"ADDRESS":"中華北路二段２２１號之３","OBJECTID":601738},"geometry":{"x":168466.53000000119,"y":2546836.9200000018}},{"attributes":{"ID":601766,"DIS_CODE":0,"TOWNNAME":"北區","LI":"成德里","LIN":"22鄰","STREET":"中華北路","SECT":"二段","MAREA":" ","LANE":" ","ALLEY":" ","HOUSE_NO":"２２３號","E_COORD97":168471.28,"N_COORD97":2546878.27,"ADDRESS":"中華北路二段２２３號","OBJECTID":601739},"geometry":{"x":168471.28000000119,"y":2546878.2700000014}},{"attributes":{"ID":601767,"DIS_CODE":0,"TOWNNAME":"北區","LI":"成德里","LIN":"22鄰","STREET":"中華北路","SECT":"二段","MAREA":" ","LANE":" ","ALLEY":" ","HOUSE_NO":"２２４號","E_COORD97":168479.06,"N_COORD97":2546879,"ADDRESS":"中華北路二段２２４號","OBJECTID":601740},"geometry":{"x":168479.06000000052,"y":2546879.0000000037}},{"attributes":{"ID":601768,"DIS_CODE":0,"TOWNNAME":"北區","LI":"成德里","LIN":"22鄰","STREET":"北成路","SECT":" ","MAREA":" ","LANE":" ","ALLEY":" ","HOUSE_NO":"３００號","E_COORD97":168492.48999999999,"N_COORD97":2546731.96,"ADDRESS":"北成路３００號","OBJECTID":601741},"geometry":{"x":168492.49000000022,"y":2546731.9600000028}},{"attributes":{"ID":601769,"DIS_CODE":0,"TOWNNAME":"北區","LI":"成德里","LIN":"22鄰","STREET":"北成路","SECT":" ","MAREA":" ","LANE":" ","ALLEY":" ","HOUSE_NO":"３０８號","E_COORD97":168476.88,"N_COORD97":2546726.8599999999,"ADDRESS":"北成路３０８號","OBJECTID":601742},"geometry":{"x":168476.88000000175,"y":2546726.8600000031}},{"attributes":{"ID":601770,"DIS_CODE":0,"TOWNNAME":"北區","LI":"成德里","LIN":"22鄰","STREET":"北成路","SECT":" ","MAREA":" ","LANE":" ","ALLEY":" ","HOUSE_NO":"３１８號","E_COORD97":168448.94,"N_COORD97":2546719.5,"ADDRESS":"北成路３１８號","OBJECTID":601743},"geometry":{"x":168448.94000000041,"y":2546719.5000000037}},{"attributes":{"ID":601771,"DIS_CODE":0,"TOWNNAME":"北區","LI":"成德里","LIN":"22鄰","STREET":"北成路","SECT":" ","MAREA":" ","LANE":" ","ALLEY":" ","HOUSE_NO":"３２０號","E_COORD97":168444.82999999999,"N_COORD97":2546717.6499999999,"ADDRESS":"北成路３２０號","OBJECTID":601744},"geometry":{"x":168444.83000000007,"y":2546717.6500000004}},{"attributes":{"ID":601772,"DIS_CODE":0,"TOWNNAME":"北區","LI":"成德里","LIN":"22鄰","STREET":"北成路","SECT":" ","MAREA":" ","LANE":" ","ALLEY":" ","HOUSE_NO":"３３２號","E_COORD97":168415.64000000001,"N_COORD97":2546708.4500000002,"ADDRESS":"北成路３３２號","OBJECTID":601745},"geometry":{"x":168415.6400000006,"y":2546708.4499999993}},{"attributes":{"ID":601773,"DIS_CODE":0,"TOWNNAME":"北區","LI":"成德里","LIN":"22鄰","STREET":"北成路","SECT":" ","MAREA":" ","LANE":" ","ALLEY":" ","HOUSE_NO":"３５０號","E_COORD97":168378.26999999999,"N_COORD97":2546687.73,"ADDRESS":"北成路３５０號","OBJECTID":601746},"geometry":{"x":168378.26999999955,"y":2546687.7299999986}},{"attributes":{"ID":601774,"DIS_CODE":0,"TOWNNAME":"北區","LI":"成德里","LIN":"22鄰","STREET":"育成路","SECT":" ","MAREA":" ","LANE":" ","ALLEY":" ","HOUSE_NO":"３０１號","E_COORD97":168517.31,"N_COORD97":2546744.79,"ADDRESS":"育成路３０１號","OBJECTID":601747},"geometry":{"x":168517.30999999959,"y":2546744.790000001}},{"attributes":{"ID":601775,"DIS_CODE":0,"TOWNNAME":"北區","LI":"成德里","LIN":"22鄰","STREET":"育成路","SECT":" ","MAREA":" ","LANE":" ","ALLEY":" ","HOUSE_NO":"３１９號","E_COORD97":168477.42999999999,"N_COORD97":2546860.0299999998,"ADDRESS":"育成路３１９號","OBJECTID":601748},"geometry":{"x":168477.4299999997,"y":2546860.0299999993}},{"attributes":{"ID":601776,"DIS_CODE":0,"TOWNNAME":"關廟區","LI":"北勢里","LIN":"22鄰","STREET":"北仁街","SECT":" ","MAREA":" ","LANE":" ","ALLEY":" ","HOUSE_NO":"１２０號","E_COORD97":181391.89000000001,"N_COORD97":2540353.25,"ADDRESS":"北仁街１２０號","OBJECTID":601749},"geometry":{"x":181391.88999999966,"y":2540353.25}},{"attributes":{"ID":601777,"DIS_CODE":0,"TOWNNAME":"關廟區","LI":"北勢里","LIN":"22鄰","STREET":"北仁街","SECT":" ","MAREA":" ","LANE":" ","ALLEY":" ","HOUSE_NO":"１１８號","E_COORD97":181396.09,"N_COORD97":2540352.25,"ADDRESS":"北仁街１１８號","OBJECTID":601750},"geometry":{"x":181396.09000000171,"y":2540352.2500000019}},{"attributes":{"ID":601778,"DIS_CODE":0,"TOWNNAME":"南區","LI":"文華里","LIN":"22鄰","STREET":"南樂街","SECT":" ","MAREA":" ","LANE":" ","ALLEY":" ","HOUSE_NO":"４７號","E_COORD97":166753.26999999999,"N_COORD97":2543075.75,"ADDRESS":"南樂街４７號","OBJECTID":601751},"geometry":{"x":166753.27000000142,"y":2543075.75}},{"attributes":{"ID":601779,"DIS_CODE":0,"TOWNNAME":"南區","LI":"文華里","LIN":"22鄰","STREET":"南樂街","SECT":" ","MAREA":" ","LANE":" ","ALLEY":" ","HOUSE_NO":"４９號","E_COORD97":166750.26999999999,"N_COORD97":2543072.6899999999,"ADDRESS":"南樂街４９號","OBJECTID":601752},"geometry":{"x":166750.27000000048,"y":2543072.6899999995}},{"attributes":{"ID":601780,"DIS_CODE":0,"TOWNNAME":"南區","LI":"文華里","LIN":"22鄰","STREET":"南樂街","SECT":" ","MAREA":" ","LANE":" ","ALLEY":" ","HOUSE_NO":"５１號","E_COORD97":166747.48999999999,"N_COORD97":2543069.5800000001,"ADDRESS":"南樂街５１號","OBJECTID":601753},"geometry":{"x":166747.49000000115,"y":2543069.5800000001}},{"attributes":{"ID":601781,"DIS_CODE":0,"TOWNNAME":"南區","LI":"文華里","LIN":"22鄰","STREET":"南樂街","SECT":" ","MAREA":" ","LANE":" ","ALLEY":" ","HOUSE_NO":"５３號","E_COORD97":166743.85000000001,"N_COORD97":2543066.3799999999,"ADDRESS":"南樂街５３號","OBJECTID":601754},"geometry":{"x":166743.84999999963,"y":2543066.379999999}},{"attributes":{"ID":601782,"DIS_CODE":0,"TOWNNAME":"南區","LI":"文華里","LIN":"22鄰","STREET":"南樂街","SECT":" ","MAREA":" ","LANE":" ","ALLEY":" ","HOUSE_NO":"５５號","E_COORD97":166739.98999999999,"N_COORD97":2543064.2400000002,"ADDRESS":"南樂街５５號","OBJECTID":601755},"geometry":{"x":166739.99000000022,"y":2543064.2400000021}},{"attributes":{"ID":601783,"DIS_CODE":0,"TOWNNAME":"南區","LI":"文華里","LIN":"22鄰","STREET":"南樂街","SECT":" ","MAREA":" ","LANE":" ","ALLEY":" ","HOUSE_NO":"５７號","E_COORD97":166737.53,"N_COORD97":2543061.3500000001,"ADDRESS":"南樂街５７號","OBJECTID":601756},"geometry":{"x":166737.53000000119,"y":2543061.3499999996}},{"attributes":{"ID":601784,"DIS_CODE":0,"TOWNNAME":"南區","LI":"文華里","LIN":"22鄰","STREET":"南樂街","SECT":" ","MAREA":" ","LANE":" ","ALLEY":" ","HOUSE_NO":"５９號","E_COORD97":166734.10000000001,"N_COORD97":2543059.21,"ADDRESS":"南樂街５９號","OBJECTID":601757},"geometry":{"x":166734.10000000149,"y":2543059.2100000009}},{"attributes":{"ID":601785,"DIS_CODE":0,"TOWNNAME":"南區","LI":"文華里","LIN":"22鄰","STREET":"南樂街","SECT":" ","MAREA":" ","LANE":" ","ALLEY":" ","HOUSE_NO":"６１號","E_COORD97":166730.67000000001,"N_COORD97":2543056.6400000001,"ADDRESS":"南樂街６１號","OBJECTID":601758},"geometry":{"x":166730.67000000086,"y":2543056.6400000006}},{"attributes":{"ID":601786,"DIS_CODE":0,"TOWNNAME":"南區","LI":"文華里","LIN":"22鄰","STREET":"南樂街","SECT":" ","MAREA":" ","LANE":" ","ALLEY":" ","HOUSE_NO":"６３號","E_COORD97":166727.89000000001,"N_COORD97":2543054.1800000002,"ADDRESS":"南樂街６３號","OBJECTID":601759},"geometry":{"x":166727.88999999966,"y":2543054.1800000016}},{"attributes":{"ID":601787,"DIS_CODE":0,"TOWNNAME":"南區","LI":"文華里","LIN":"22鄰","STREET":"南樂街","SECT":" ","MAREA":" ","LANE":" ","ALLEY":" ","HOUSE_NO":"６５號","E_COORD97":166724.45999999999,"N_COORD97":2543051.6099999999,"ADDRESS":"南樂街６５號","OBJECTID":601760},"geometry":{"x":166724.45999999996,"y":2543051.6099999994}},{"attributes":{"ID":601788,"DIS_CODE":0,"TOWNNAME":"南區","LI":"文華里","LIN":"22鄰","STREET":"南樂街","SECT":" ","MAREA":" ","LANE":" ","ALLEY":" ","HOUSE_NO":"６７號","E_COORD97":166720.29000000001,"N_COORD97":2543049.8999999999,"ADDRESS":"南樂街６７號","OBJECTID":601761},"geometry":{"x":166720.29000000097,"y":2543049.9000000022}},{"attributes":{"ID":601789,"DIS_CODE":0,"TOWNNAME":"南區","LI":"文華里","LIN":"22鄰","STREET":"南樂街","SECT":" ","MAREA":" ","LANE":" ","ALLEY":" ","HOUSE_NO":"６９號","E_COORD97":166717.29000000001,"N_COORD97":2543047.1200000001,"ADDRESS":"南樂街６９號","OBJECTID":601762},"geometry":{"x":166717.29000000004,"y":2543047.120000001}},{"attributes":{"ID":601790,"DIS_CODE":0,"TOWNNAME":"南區","LI":"文華里","LIN":"22鄰","STREET":"南樂街","SECT":" ","MAREA":" ","LANE":" ","ALLEY":" ","HOUSE_NO":"７１號","E_COORD97":166711.60999999999,"N_COORD97":2543042.6299999999,"ADDRESS":"南樂街７１號","OBJECTID":601763},"geometry":{"x":166711.61000000127,"y":2543042.6300000027}},{"attributes":{"ID":601791,"DIS_CODE":0,"TOWNNAME":"南區","LI":"文華里","LIN":"22鄰","STREET":"南樂街","SECT":" ","MAREA":" ","LANE":" ","ALLEY":" ","HOUSE_NO":"７３號","E_COORD97":166707.22,"N_COORD97":2543039.1000000001,"ADDRESS":"南樂街７３號","OBJECTID":601764},"geometry":{"x":166707.21999999974,"y":2543039.0999999996}},{"attributes":{"ID":601792,"DIS_CODE":0,"TOWNNAME":"南區","LI":"文華里","LIN":"22鄰","STREET":"南樂街","SECT":" ","MAREA":" ","LANE":" ","ALLEY":" ","HOUSE_NO":"７５號","E_COORD97":166704.22,"N_COORD97":2543036.3100000001,"ADDRESS":"南樂街７５號","OBJECTID":601765},"geometry":{"x":166704.21999999974,"y":2543036.3100000042}},{"attributes":{"ID":601793,"DIS_CODE":0,"TOWNNAME":"南區","LI":"文華里","LIN":"22鄰","STREET":"南樂街","SECT":" ","MAREA":" ","LANE":" ","ALLEY":" ","HOUSE_NO":"７７號","E_COORD97":166700.16,"N_COORD97":2543033.75,"ADDRESS":"南樂街７７號","OBJECTID":601766},"geometry":{"x":166700.15999999922,"y":2543033.7500000019}},{"attributes":{"ID":601794,"DIS_CODE":0,"TOWNNAME":"南區","LI":"文華里","LIN":"22鄰","STREET":"南樂街","SECT":" ","MAREA":" ","LANE":" ","ALLEY":" ","HOUSE_NO":"７９號","E_COORD97":166696.84,"N_COORD97":2543030.9700000002,"ADDRESS":"南樂街７９號","OBJECTID":601767},"geometry":{"x":166696.83999999985,"y":2543030.9700000007}},{"attributes":{"ID":601795,"DIS_CODE":0,"TOWNNAME":"南區","LI":"文華里","LIN":"22鄰","STREET":"南樂街","SECT":" ","MAREA":" ","LANE":" ","ALLEY":" ","HOUSE_NO":"８１號","E_COORD97":166693.84,"N_COORD97":2543028.8300000001,"ADDRESS":"南樂街８１號","OBJECTID":601768},"geometry":{"x":166693.84000000078,"y":2543028.8300000038}},{"attributes":{"ID":601796,"DIS_CODE":0,"TOWNNAME":"南區","LI":"文華里","LIN":"22鄰","STREET":"南樂街","SECT":" ","MAREA":" ","LANE":" ","ALLEY":" ","HOUSE_NO":"８３號","E_COORD97":166690.09,"N_COORD97":2543026.04,"ADDRESS":"南樂街８３號","OBJECTID":601769},"geometry":{"x":166690.08999999985,"y":2543026.0399999972}},{"attributes":{"ID":601797,"DIS_CODE":0,"TOWNNAME":"南區","LI":"文華里","LIN":"22鄰","STREET":"南樂街","SECT":" ","MAREA":" ","LANE":" ","ALLEY":" ","HOUSE_NO":"８５號","E_COORD97":166687.20000000001,"N_COORD97":2543023.9100000001,"ADDRESS":"南樂街８５號","OBJECTID":601770},"geometry":{"x":166687.20000000112,"y":2543023.9100000001}},{"attributes":{"ID":601798,"DIS_CODE":0,"TOWNNAME":"南區","LI":"文華里","LIN":"22鄰","STREET":"南樂街","SECT":" ","MAREA":" ","LANE":" ","ALLEY":" ","HOUSE_NO":"８７號","E_COORD97":166683.78,"N_COORD97":2543021.6400000001,"ADDRESS":"南樂街８７號","OBJECTID":601771},"geometry":{"x":166683.78000000026,"y":2543021.6400000025}},{"attributes":{"ID":601799,"DIS_CODE":0,"TOWNNAME":"南區","LI":"文華里","LIN":"22鄰","STREET":"南樂街","SECT":" ","MAREA":" ","LANE":" ","ALLEY":" ","HOUSE_NO":"８９號","E_COORD97":166680.67999999999,"N_COORD97":2543019.29,"ADDRESS":"南樂街８９號","OBJECTID":601772},"geometry":{"x":166680.6799999997,"y":2543019.290000001}},{"attributes":{"ID":601800,"DIS_CODE":0,"TOWNNAME":"南區","LI":"文華里","LIN":"22鄰","STREET":"南樂街","SECT":" ","MAREA":" ","LANE":" ","ALLEY":" ","HOUSE_NO":"９１號","E_COORD97":166677.04000000001,"N_COORD97":2543016.9399999999,"ADDRESS":"南樂街９１號","OBJECTID":601773},"geometry":{"x":166677.04000000004,"y":2543016.9399999976}},{"attributes":{"ID":601801,"DIS_CODE":0,"TOWNNAME":"南區","LI":"文華里","LIN":"22鄰","STREET":"南樂街","SECT":" ","MAREA":" ","LANE":" ","ALLEY":" ","HOUSE_NO":"９３號","E_COORD97":166673.39999999999,"N_COORD97":2543014.5800000001,"ADDRESS":"南樂街９３號","OBJECTID":601774},"geometry":{"x":166673.40000000224,"y":2543014.5800000019}},{"attributes":{"ID":601802,"DIS_CODE":0,"TOWNNAME":"南區","LI":"文華里","LIN":"22鄰","STREET":"南樂街","SECT":" ","MAREA":" ","LANE":" ","ALLEY":" ","HOUSE_NO":"９５號","E_COORD97":166669.64999999999,"N_COORD97":2543011.48,"ADDRESS":"南樂街９５號","OBJECTID":601775},"geometry":{"x":166669.65000000037,"y":2543011.4800000023}},{"attributes":{"ID":601803,"DIS_CODE":0,"TOWNNAME":"南區","LI":"文華里","LIN":"22鄰","STREET":"南樂街","SECT":" ","MAREA":" ","LANE":" ","ALLEY":" ","HOUSE_NO":"９７號","E_COORD97":166666.32999999999,"N_COORD97":2543009.5499999998,"ADDRESS":"南樂街９７號","OBJECTID":601776},"geometry":{"x":166666.33000000007,"y":2543009.5500000007}},{"attributes":{"ID":601804,"DIS_CODE":0,"TOWNNAME":"南區","LI":"文華里","LIN":"22鄰","STREET":"南樂街","SECT":" ","MAREA":" ","LANE":" ","ALLEY":" ","HOUSE_NO":"９９號","E_COORD97":166662.57999999999,"N_COORD97":2543007.2000000002,"ADDRESS":"南樂街９９號","OBJECTID":601777},"geometry":{"x":166662.58000000101,"y":2543007.1999999993}},{"attributes":{"ID":601805,"DIS_CODE":0,"TOWNNAME":"南區","LI":"文華里","LIN":"22鄰","STREET":"南樂街","SECT":" ","MAREA":" ","LANE":" ","ALLEY":" ","HOUSE_NO":"１０１號","E_COORD97":166658.29999999999,"N_COORD97":2543004.9500000002,"ADDRESS":"南樂街１０１號","OBJECTID":601778},"geometry":{"x":166658.30000000168,"y":2543004.9500000011}},{"attributes":{"ID":601806,"DIS_CODE":0,"TOWNNAME":"南區","LI":"文華里","LIN":"22鄰","STREET":"德南街","SECT":" ","MAREA":" ","LANE":" ","ALLEY":" ","HOUSE_NO":"４６號","E_COORD97":166772.22,"N_COORD97":2543052.9700000002,"ADDRESS":"德南街４６號","OBJECTID":601779},"geometry":{"x":166772.21999999881,"y":2543052.9700000025}},{"attributes":{"ID":601807,"DIS_CODE":0,"TOWNNAME":"南區","LI":"文華里","LIN":"22鄰","STREET":"德南街","SECT":" ","MAREA":" ","LANE":" ","ALLEY":" ","HOUSE_NO":"４８號","E_COORD97":166770.07999999999,"N_COORD97":2543048.8999999999,"ADDRESS":"德南街４８號","OBJECTID":601780},"geometry":{"x":166770.08000000007,"y":2543048.9000000041}},{"attributes":{"ID":601808,"DIS_CODE":0,"TOWNNAME":"南區","LI":"文華里","LIN":"22鄰","STREET":"德南街","SECT":" ","MAREA":" ","LANE":" ","ALLEY":" ","HOUSE_NO":"５０號","E_COORD97":166766.44,"N_COORD97":2543046.5499999998,"ADDRESS":"德南街５０號","OBJECTID":601781},"geometry":{"x":166766.44000000227,"y":2543046.5500000026}},{"attributes":{"ID":601809,"DIS_CODE":0,"TOWNNAME":"南區","LI":"文華里","LIN":"22鄰","STREET":"德南街","SECT":" ","MAREA":" ","LANE":" ","ALLEY":" ","HOUSE_NO":"５２號","E_COORD97":166763.44,"N_COORD97":2543043.5499999998,"ADDRESS":"德南街５２號","OBJECTID":601782},"geometry":{"x":166763.44000000134,"y":2543043.5500000007}},{"attributes":{"ID":601810,"DIS_CODE":0,"TOWNNAME":"南區","LI":"文華里","LIN":"22鄰","STREET":"德南街","SECT":" ","MAREA":" ","LANE":" ","ALLEY":" ","HOUSE_NO":"５４號","E_COORD97":166760.44,"N_COORD97":2543041.52,"ADDRESS":"德南街５４號","OBJECTID":601783},"geometry":{"x":166760.44000000134,"y":2543041.5200000014}},{"attributes":{"ID":601811,"DIS_CODE":0,"TOWNNAME":"南區","LI":"文華里","LIN":"22鄰","STREET":"德南街","SECT":" ","MAREA":" ","LANE":" ","ALLEY":" ","HOUSE_NO":"５６號","E_COORD97":166757.12,"N_COORD97":2543038.7400000002,"ADDRESS":"德南街５６號","OBJECTID":601784},"geometry":{"x":166757.12000000104,"y":2543038.7400000002}},{"attributes":{"ID":601812,"DIS_CODE":0,"TOWNNAME":"南區","LI":"文華里","LIN":"22鄰","STREET":"德南街","SECT":" ","MAREA":" ","LANE":" ","ALLEY":" ","HOUSE_NO":"５８號","E_COORD97":166754.23000000001,"N_COORD97":2543035.96,"ADDRESS":"德南街５８號","OBJECTID":601785},"geometry":{"x":166754.22999999952,"y":2543035.9600000028}},{"attributes":{"ID":601813,"DIS_CODE":0,"TOWNNAME":"南區","LI":"文華里","LIN":"22鄰","STREET":"德南街","SECT":" ","MAREA":" ","LANE":" ","ALLEY":" ","HOUSE_NO":"６０號","E_COORD97":166750.70000000001,"N_COORD97":2543032.9100000001,"ADDRESS":"德南街６０號","OBJECTID":601786},"geometry":{"x":166750.70000000019,"y":2543032.910000002}},{"attributes":{"ID":601814,"DIS_CODE":0,"TOWNNAME":"南區","LI":"文華里","LIN":"22鄰","STREET":"德南街","SECT":" ","MAREA":" ","LANE":" ","ALLEY":" ","HOUSE_NO":"６２號","E_COORD97":166746.84,"N_COORD97":2543030.5499999998,"ADDRESS":"德南街６２號","OBJECTID":601787},"geometry":{"x":166746.84000000078,"y":2543030.5500000007}},{"attributes":{"ID":601815,"DIS_CODE":0,"TOWNNAME":"南區","LI":"文華里","LIN":"22鄰","STREET":"德南街","SECT":" ","MAREA":" ","LANE":" ","ALLEY":" ","HOUSE_NO":"６４號","E_COORD97":166744.59,"N_COORD97":2543027.77,"ADDRESS":"德南街６４號","OBJECTID":601788},"geometry":{"x":166744.59000000171,"y":2543027.7699999996}},{"attributes":{"ID":601816,"DIS_CODE":0,"TOWNNAME":"南區","LI":"文華里","LIN":"22鄰","STREET":"德南街","SECT":" ","MAREA":" ","LANE":" ","ALLEY":" ","HOUSE_NO":"６６號","E_COORD97":166741.17000000001,"N_COORD97":2543025.2000000002,"ADDRESS":"德南街６６號","OBJECTID":601789},"geometry":{"x":166741.17000000086,"y":2543025.200000003}},{"attributes":{"ID":601817,"DIS_CODE":0,"TOWNNAME":"中西區","LI":"公正里","LIN":"8鄰","STREET":"民族路","SECT":"二段","MAREA":" ","LANE":" ","ALLEY":" ","HOUSE_NO":"３７號","E_COORD97":169083.19,"N_COORD97":2543872.0699999998,"ADDRESS":"民族路二段３７號","OBJECTID":601790},"geometry":{"x":169083.19000000041,"y":2543872.0700000022}},{"attributes":{"ID":601818,"DIS_CODE":0,"TOWNNAME":"中西區","LI":"公正里","LIN":"8鄰","STREET":"民族路","SECT":"二段","MAREA":" ","LANE":" ","ALLEY":" ","HOUSE_NO":"３９號","E_COORD97":169079.98000000001,"N_COORD97":2543871.7200000002,"ADDRESS":"民族路二段３９號","OBJECTID":601791},"geometry":{"x":169079.98000000045,"y":2543871.7200000025}},{"attributes":{"ID":601819,"DIS_CODE":0,"TOWNNAME":"中西區","LI":"公正里","LIN":"8鄰","STREET":"民族路","SECT":"二段","MAREA":" ","LANE":" ","ALLEY":" ","HOUSE_NO":"４１號","E_COORD97":169073.75,"N_COORD97":2543871.3599999999,"ADDRESS":"民族路二段４１號","OBJECTID":601792},"geometry":{"x":169073.75,"y":2543871.3599999994}},{"attributes":{"ID":601820,"DIS_CODE":0,"TOWNNAME":"中西區","LI":"公正里","LIN":"8鄰","STREET":"民族路","SECT":"二段","MAREA":" ","LANE":" ","ALLEY":" ","HOUSE_NO":"４３號","E_COORD97":169068.95000000001,"N_COORD97":2543870.6499999999,"ADDRESS":"民族路二段４３號","OBJECTID":601793},"geometry":{"x":169068.95000000112,"y":2543870.6500000004}},{"attributes":{"ID":601821,"DIS_CODE":0,"TOWNNAME":"中西區","LI":"公正里","LIN":"8鄰","STREET":"民族路","SECT":"二段","MAREA":" ","LANE":" ","ALLEY":" ","HOUSE_NO":"４５號","E_COORD97":169064.14000000001,"N_COORD97":2543869.4100000001,"ADDRESS":"民族路二段４５號","OBJECTID":601794},"geometry":{"x":169064.13999999966,"y":2543869.410000002}},{"attributes":{"ID":601822,"DIS_CODE":0,"TOWNNAME":"中西區","LI":"公正里","LIN":"8鄰","STREET":"民族路","SECT":"二段","MAREA":" ","LANE":" ","ALLEY":" ","HOUSE_NO":"４７號","E_COORD97":169059.87,"N_COORD97":2543869.5899999999,"ADDRESS":"民族路二段４７號","OBJECTID":601795},"geometry":{"x":169059.87000000011,"y":2543869.5899999999}},{"attributes":{"ID":601823,"DIS_CODE":0,"TOWNNAME":"中西區","LI":"公正里","LIN":"8鄰","STREET":"民族路","SECT":"二段","MAREA":" ","LANE":" ","ALLEY":" ","HOUSE_NO":"４９號","E_COORD97":169055.07000000001,"N_COORD97":2543869.9399999999,"ADDRESS":"民族路二段４９號","OBJECTID":601796},"geometry":{"x":169055.0700000003,"y":2543869.9399999995}},{"attributes":{"ID":601824,"DIS_CODE":0,"TOWNNAME":"中西區","LI":"公正里","LIN":"8鄰","STREET":"民族路","SECT":"二段","MAREA":" ","LANE":" ","ALLEY":" ","HOUSE_NO":"５１號","E_COORD97":169050.62,"N_COORD97":2543870.1200000001,"ADDRESS":"民族路二段５１號","OBJECTID":601797},"geometry":{"x":169050.62000000104,"y":2543870.1200000029}},{"attributes":{"ID":601825,"DIS_CODE":0,"TOWNNAME":"中西區","LI":"公正里","LIN":"8鄰","STREET":"民族路","SECT":"二段","MAREA":" ","LANE":" ","ALLEY":" ","HOUSE_NO":"５３號","E_COORD97":169044.20999999999,"N_COORD97":2543871.7200000002,"ADDRESS":"民族路二段５３號","OBJECTID":601798},"geometry":{"x":169044.21000000183,"y":2543871.7200000025}},{"attributes":{"ID":601826,"DIS_CODE":0,"TOWNNAME":"關廟區","LI":"北勢里","LIN":"22鄰","STREET":"仁愛路","SECT":" ","MAREA":" ","LANE":" ","ALLEY":" ","HOUSE_NO":"２０８號","E_COORD97":181409.98999999999,"N_COORD97":2540456.2799999998,"ADDRESS":"仁愛路２０８號","OBJECTID":601799},"geometry":{"x":181409.99000000022,"y":2540456.2800000012}},{"attributes":{"ID":601827,"DIS_CODE":0,"TOWNNAME":"鹽水區","LI":"橋南里","LIN":"22鄰","STREET":"四維路","SECT":" ","MAREA":" ","LANE":" ","ALLEY":" ","HOUSE_NO":"１１０號","E_COORD97":175837.75,"N_COORD97":2578597.9900000002,"ADDRESS":"四維路１１０號","OBJECTID":601800},"geometry":{"x":175837.75,"y":2578597.9900000002}}]}