{"displayFieldName":"TOWNNAME","fieldAliases":{"ID":"ID","DIS_CODE":"DIS_CODE","TOWNNAME":"TOWNNAME","LI":"LI","LIN":"LIN","STREET":"STREET","SECT":"SECT","MAREA":"MAREA","LANE":"LANE","ALLEY":"ALLEY","HOUSE_NO":"HOUSE_NO","E_COORD97":"E_COORD97","N_COORD97":"N_COORD97","ADDRESS":"ADDRESS","OBJECTID":"OBJECTID"},"geometryType":"esriGeometryPoint","spatialReference":{"wkid":102443,"latestWkid":3826},"fields":[{"name":"ID","type":"esriFieldTypeDouble","alias":"ID"},{"name":"DIS_CODE","type":"esriFieldTypeInteger","alias":"DIS_CODE"},{"name":"TOWNNAME","type":"esriFieldTypeString","alias":"TOWNNAME","length":8},{"name":"LI","type":"esriFieldTypeString","alias":"LI","length":8},{"name":"LIN","type":"esriFieldTypeString","alias":"LIN","length":12},{"name":"STREET","type":"esriFieldTypeString","alias":"STREET","length":20},{"name":"SECT","type":"esriFieldTypeString","alias":"SECT","length":8},{"name":"MAREA","type":"esriFieldTypeString","alias":"MAREA","length":12},{"name":"LANE","type":"esriFieldTypeString","alias":"LANE","length":10},{"name":"ALLEY","type":"esriFieldTypeString","alias":"ALLEY","length":10},{"name":"HOUSE_NO","type":"esriFieldTypeString","alias":"HOUSE_NO","length":20},{"name":"E_COORD97","type":"esriFieldTypeDouble","alias":"E_COORD97"},{"name":"N_COORD97","type":"esriFieldTypeDouble","alias":"N_COORD97"},{"name":"ADDRESS","type":"esriFieldTypeString","alias":"ADDRESS","length":50},{"name":"OBJECTID","type":"esriFieldTypeOID","alias":"OBJECTID"}],"features":[{"attributes":{"ID":157602,"DIS_CODE":0,"TOWNNAME":"安南區","LI":"安富里","LIN":"19鄰","STREET":"安富街","SECT":" ","MAREA":" ","LANE":" ","ALLEY":" ","HOUSE_NO":"２４３號","E_COORD97":167603.76000000001,"N_COORD97":2547449.7799999998,"ADDRESS":"安富街２４３號","OBJECTID":157601},"geometry":{"x":167603.75999999978,"y":2547449.7800000012}},{"attributes":{"ID":157603,"DIS_CODE":0,"TOWNNAME":"安平區","LI":"港仔里","LIN":"2鄰","STREET":"安平路","SECT":" ","MAREA":" ","LANE":"５１巷","ALLEY":"１６弄","HOUSE_NO":"１３號","E_COORD97":164456.51000000001,"N_COORD97":2544388.5600000001,"ADDRESS":"安平路５１巷１６弄１３號","OBJECTID":157602},"geometry":{"x":164456.51000000164,"y":2544388.5600000024}},{"attributes":{"ID":157604,"DIS_CODE":0,"TOWNNAME":"安平區","LI":"港仔里","LIN":"2鄰","STREET":"安平路","SECT":" ","MAREA":" ","LANE":"５１巷","ALLEY":"１６弄","HOUSE_NO":"１４號","E_COORD97":164497.10999999999,"N_COORD97":2544398.5499999998,"ADDRESS":"安平路５１巷１６弄１４號","OBJECTID":157603},"geometry":{"x":164497.1100000022,"y":2544398.5500000026}},{"attributes":{"ID":157605,"DIS_CODE":0,"TOWNNAME":"安平區","LI":"港仔里","LIN":"2鄰","STREET":"安平路","SECT":" ","MAREA":" ","LANE":"５１巷","ALLEY":"１６弄","HOUSE_NO":"１５號","E_COORD97":164449.47,"N_COORD97":2544384.4199999999,"ADDRESS":"安平路５１巷１６弄１５號","OBJECTID":157604},"geometry":{"x":164449.46999999974,"y":2544384.4200000018}},{"attributes":{"ID":157606,"DIS_CODE":0,"TOWNNAME":"安平區","LI":"港仔里","LIN":"2鄰","STREET":"安平路","SECT":" ","MAREA":" ","LANE":"５１巷","ALLEY":"１６弄","HOUSE_NO":"１６號","E_COORD97":164490.39000000001,"N_COORD97":2544398.5499999998,"ADDRESS":"安平路５１巷１６弄１６號","OBJECTID":157605},"geometry":{"x":164490.38999999966,"y":2544398.5500000026}},{"attributes":{"ID":157607,"DIS_CODE":0,"TOWNNAME":"安平區","LI":"港仔里","LIN":"2鄰","STREET":"安平路","SECT":" ","MAREA":" ","LANE":"５１巷","ALLEY":"１６弄","HOUSE_NO":"１號","E_COORD97":164495.69,"N_COORD97":2544384.1400000001,"ADDRESS":"安平路５１巷１６弄１號","OBJECTID":157606},"geometry":{"x":164495.69000000134,"y":2544384.1400000025}},{"attributes":{"ID":157608,"DIS_CODE":0,"TOWNNAME":"安平區","LI":"港仔里","LIN":"2鄰","STREET":"安平路","SECT":" ","MAREA":" ","LANE":"５１巷","ALLEY":"１６弄","HOUSE_NO":"６號","E_COORD97":164523.85000000001,"N_COORD97":2544390.1200000001,"ADDRESS":"安平路５１巷１６弄６號","OBJECTID":157607},"geometry":{"x":164523.85000000056,"y":2544390.120000001}},{"attributes":{"ID":157609,"DIS_CODE":0,"TOWNNAME":"安平區","LI":"港仔里","LIN":"2鄰","STREET":"安平路","SECT":" ","MAREA":" ","LANE":"５１巷","ALLEY":"１６弄","HOUSE_NO":"８號","E_COORD97":164518.22,"N_COORD97":2544394.7999999998,"ADDRESS":"安平路５１巷１６弄８號","OBJECTID":157608},"geometry":{"x":164518.22000000067,"y":2544394.8000000007}},{"attributes":{"ID":157610,"DIS_CODE":0,"TOWNNAME":"善化區","LI":"坐駕里","LIN":"19鄰","STREET":" ","SECT":" ","MAREA":"坐駕","LANE":" ","ALLEY":" ","HOUSE_NO":"６之３號","E_COORD97":178377.91,"N_COORD97":2558346.02,"ADDRESS":"坐駕６之３號","OBJECTID":157609},"geometry":{"x":178377.91000000015,"y":2558346.0200000014}},{"attributes":{"ID":157611,"DIS_CODE":0,"TOWNNAME":"善化區","LI":"胡厝里","LIN":"19鄰","STREET":" ","SECT":" ","MAREA":"西衛","LANE":" ","ALLEY":" ","HOUSE_NO":"２７號之３","E_COORD97":174203.29999999999,"N_COORD97":2559354.02,"ADDRESS":"西衛２７號之３","OBJECTID":157610},"geometry":{"x":174203.29999999981,"y":2559354.0199999996}},{"attributes":{"ID":157612,"DIS_CODE":0,"TOWNNAME":"善化區","LI":"胡家里","LIN":"19鄰","STREET":" ","SECT":" ","MAREA":"胡厝寮","LANE":" ","ALLEY":" ","HOUSE_NO":"１０６號","E_COORD97":175294.51999999999,"N_COORD97":2560569,"ADDRESS":"胡厝寮１０６號","OBJECTID":157611},"geometry":{"x":175294.51999999955,"y":2560569}},{"attributes":{"ID":157613,"DIS_CODE":0,"TOWNNAME":"善化區","LI":"胡厝里","LIN":"19鄰","STREET":" ","SECT":" ","MAREA":"西衛","LANE":" ","ALLEY":" ","HOUSE_NO":"２３之２號","E_COORD97":174329.34,"N_COORD97":2559384.02,"ADDRESS":"西衛２３之２號","OBJECTID":157612},"geometry":{"x":174329.34000000078,"y":2559384.0199999996}},{"attributes":{"ID":157614,"DIS_CODE":0,"TOWNNAME":"善化區","LI":"胡厝里","LIN":"19鄰","STREET":" ","SECT":" ","MAREA":"西衛","LANE":" ","ALLEY":" ","HOUSE_NO":"２４號之２","E_COORD97":174248.29000000001,"N_COORD97":2559347.27,"ADDRESS":"西衛２４號之２","OBJECTID":157613},"geometry":{"x":174248.29000000097,"y":2559347.2700000014}},{"attributes":{"ID":157615,"DIS_CODE":0,"TOWNNAME":"善化區","LI":"坐駕里","LIN":"19鄰","STREET":" ","SECT":" ","MAREA":"坐駕","LANE":" ","ALLEY":" ","HOUSE_NO":"３８號","E_COORD97":178602.26000000001,"N_COORD97":2558528,"ADDRESS":"坐駕３８號","OBJECTID":157614},"geometry":{"x":178602.25999999978,"y":2558528}},{"attributes":{"ID":157616,"DIS_CODE":0,"TOWNNAME":"安平區","LI":"港仔里","LIN":"2鄰","STREET":"安平路","SECT":" ","MAREA":" ","LANE":"５１巷","ALLEY":"２０弄","HOUSE_NO":"１０號","E_COORD97":164517.53,"N_COORD97":2544373.1400000001,"ADDRESS":"安平路５１巷２０弄１０號","OBJECTID":157615},"geometry":{"x":164517.53000000026,"y":2544373.1400000043}},{"attributes":{"ID":157617,"DIS_CODE":0,"TOWNNAME":"安平區","LI":"港仔里","LIN":"2鄰","STREET":"安平路","SECT":" ","MAREA":" ","LANE":"５１巷","ALLEY":"２０弄","HOUSE_NO":"１２號","E_COORD97":164509.64999999999,"N_COORD97":2544370.8100000001,"ADDRESS":"安平路５１巷２０弄１２號","OBJECTID":157616},"geometry":{"x":164509.65000000037,"y":2544370.8100000005}},{"attributes":{"ID":157618,"DIS_CODE":0,"TOWNNAME":"安平區","LI":"港仔里","LIN":"2鄰","STREET":"安平路","SECT":" ","MAREA":" ","LANE":"５１巷","ALLEY":"２０弄","HOUSE_NO":"１４號","E_COORD97":164504.54999999999,"N_COORD97":2544373.2799999998,"ADDRESS":"安平路５１巷２０弄１４號","OBJECTID":157617},"geometry":{"x":164504.54999999981,"y":2544373.2799999993}},{"attributes":{"ID":157619,"DIS_CODE":0,"TOWNNAME":"安平區","LI":"港仔里","LIN":"2鄰","STREET":"安平路","SECT":" ","MAREA":" ","LANE":"５１巷","ALLEY":"２０弄","HOUSE_NO":"１６號","E_COORD97":164501.92000000001,"N_COORD97":2544381.8799999999,"ADDRESS":"安平路５１巷２０弄１６號","OBJECTID":157618},"geometry":{"x":164501.92000000086,"y":2544381.879999999}},{"attributes":{"ID":157620,"DIS_CODE":0,"TOWNNAME":"安平區","LI":"港仔里","LIN":"2鄰","STREET":"安平路","SECT":" ","MAREA":" ","LANE":"５１巷","ALLEY":"２０弄","HOUSE_NO":"１８號","E_COORD97":164492.73000000001,"N_COORD97":2544371.54,"ADDRESS":"安平路５１巷２０弄１８號","OBJECTID":157619},"geometry":{"x":164492.73000000045,"y":2544371.5399999991}},{"attributes":{"ID":157621,"DIS_CODE":0,"TOWNNAME":"東區","LI":"裕聖里","LIN":"15鄰","STREET":"裕孝路","SECT":" ","MAREA":" ","LANE":" ","ALLEY":" ","HOUSE_NO":"３０７號","E_COORD97":172451.34,"N_COORD97":2542366.2599999998,"ADDRESS":"裕孝路３０７號","OBJECTID":157620},"geometry":{"x":172451.34000000078,"y":2542366.2599999998}},{"attributes":{"ID":157622,"DIS_CODE":0,"TOWNNAME":"善化區","LI":"胡厝里","LIN":"19鄰","STREET":" ","SECT":" ","MAREA":"西衛","LANE":" ","ALLEY":" ","HOUSE_NO":"３０之４號","E_COORD97":174190.42000000001,"N_COORD97":2559257.02,"ADDRESS":"西衛３０之４號","OBJECTID":157621},"geometry":{"x":174190.41999999993,"y":2559257.0200000014}},{"attributes":{"ID":157623,"DIS_CODE":0,"TOWNNAME":"善化區","LI":"胡厝里","LIN":"19鄰","STREET":" ","SECT":" ","MAREA":"西衛","LANE":" ","ALLEY":" ","HOUSE_NO":"２３號之１４","E_COORD97":174343.41,"N_COORD97":2559385.77,"ADDRESS":"西衛２３號之１４","OBJECTID":157622},"geometry":{"x":174343.41000000015,"y":2559385.7699999996}},{"attributes":{"ID":157624,"DIS_CODE":0,"TOWNNAME":"善化區","LI":"坐駕里","LIN":"19鄰","STREET":" ","SECT":" ","MAREA":"坐駕","LANE":" ","ALLEY":" ","HOUSE_NO":"１號之３","E_COORD97":178313.07999999999,"N_COORD97":2558466.77,"ADDRESS":"坐駕１號之３","OBJECTID":157623},"geometry":{"x":178313.08000000101,"y":2558466.7699999996}},{"attributes":{"ID":157625,"DIS_CODE":0,"TOWNNAME":"善化區","LI":"胡厝里","LIN":"19鄰","STREET":" ","SECT":" ","MAREA":"西衛","LANE":" ","ALLEY":" ","HOUSE_NO":"２３號之１１","E_COORD97":174341.45000000001,"N_COORD97":2559331.77,"ADDRESS":"西衛２３號之１１","OBJECTID":157624},"geometry":{"x":174341.45000000019,"y":2559331.7699999996}},{"attributes":{"ID":157626,"DIS_CODE":0,"TOWNNAME":"善化區","LI":"溪美里","LIN":"18鄰","STREET":" ","SECT":" ","MAREA":"溪尾","LANE":" ","ALLEY":" ","HOUSE_NO":"２２１號","E_COORD97":177281.79999999999,"N_COORD97":2561465.52,"ADDRESS":"溪尾２２１號","OBJECTID":157625},"geometry":{"x":177281.79999999981,"y":2561465.5199999996}},{"attributes":{"ID":157627,"DIS_CODE":0,"TOWNNAME":"善化區","LI":"胡厝里","LIN":"19鄰","STREET":" ","SECT":" ","MAREA":"西衛","LANE":" ","ALLEY":" ","HOUSE_NO":"３０之３號","E_COORD97":174195.31,"N_COORD97":2559258.02,"ADDRESS":"西衛３０之３號","OBJECTID":157626},"geometry":{"x":174195.31000000052,"y":2559258.0200000014}},{"attributes":{"ID":157628,"DIS_CODE":0,"TOWNNAME":"善化區","LI":"胡厝里","LIN":"19鄰","STREET":" ","SECT":" ","MAREA":"西衛","LANE":" ","ALLEY":" ","HOUSE_NO":"３０號","E_COORD97":174205.88,"N_COORD97":2559262,"ADDRESS":"西衛３０號","OBJECTID":157627},"geometry":{"x":174205.87999999989,"y":2559262.0000000019}},{"attributes":{"ID":157629,"DIS_CODE":0,"TOWNNAME":"善化區","LI":"胡厝里","LIN":"19鄰","STREET":" ","SECT":" ","MAREA":"西衛","LANE":" ","ALLEY":" ","HOUSE_NO":"２７號之１","E_COORD97":174232.19,"N_COORD97":2559378.2000000002,"ADDRESS":"西衛２７號之１","OBJECTID":157628},"geometry":{"x":174232.19000000227,"y":2559378.2000000011}},{"attributes":{"ID":157630,"DIS_CODE":0,"TOWNNAME":"善化區","LI":"胡厝里","LIN":"19鄰","STREET":" ","SECT":" ","MAREA":"西衛","LANE":" ","ALLEY":" ","HOUSE_NO":"２３號之９","E_COORD97":174338.67999999999,"N_COORD97":2559343.52,"ADDRESS":"西衛２３號之９","OBJECTID":157629},"geometry":{"x":174338.68000000063,"y":2559343.5199999996}},{"attributes":{"ID":157631,"DIS_CODE":0,"TOWNNAME":"東山區","LI":"大客里","LIN":"12鄰","STREET":" ","SECT":" ","MAREA":"大庄","LANE":" ","ALLEY":" ","HOUSE_NO":"８６號","E_COORD97":190473.28,"N_COORD97":2578859.48,"ADDRESS":"大庄８６號","OBJECTID":157630},"geometry":{"x":190473.28000000119,"y":2578859.4800000004}},{"attributes":{"ID":157632,"DIS_CODE":0,"TOWNNAME":"善化區","LI":"胡家里","LIN":"19鄰","STREET":" ","SECT":" ","MAREA":"胡厝寮","LANE":" ","ALLEY":" ","HOUSE_NO":"１０５號","E_COORD97":175302.35000000001,"N_COORD97":2560583,"ADDRESS":"胡厝寮１０５號","OBJECTID":157631},"geometry":{"x":175302.35000000056,"y":2560583.0000000037}},{"attributes":{"ID":157633,"DIS_CODE":0,"TOWNNAME":"善化區","LI":"胡厝里","LIN":"19鄰","STREET":" ","SECT":" ","MAREA":"西衛","LANE":" ","ALLEY":" ","HOUSE_NO":"２６號之１","E_COORD97":174232.76000000001,"N_COORD97":2559321.52,"ADDRESS":"西衛２６號之１","OBJECTID":157632},"geometry":{"x":174232.76000000071,"y":2559321.5200000014}},{"attributes":{"ID":157634,"DIS_CODE":0,"TOWNNAME":"善化區","LI":"胡家里","LIN":"19鄰","STREET":" ","SECT":" ","MAREA":"胡厝寮","LANE":" ","ALLEY":" ","HOUSE_NO":"１１０號","E_COORD97":175247.76999999999,"N_COORD97":2560580.75,"ADDRESS":"胡厝寮１１０號","OBJECTID":157633},"geometry":{"x":175247.77000000142,"y":2560580.75}},{"attributes":{"ID":157635,"DIS_CODE":0,"TOWNNAME":"善化區","LI":"坐駕里","LIN":"19鄰","STREET":" ","SECT":" ","MAREA":"坐駕","LANE":" ","ALLEY":" ","HOUSE_NO":"３６號","E_COORD97":178717.67000000001,"N_COORD97":2558490.75,"ADDRESS":"坐駕３６號","OBJECTID":157634},"geometry":{"x":178717.67000000086,"y":2558490.7500000019}},{"attributes":{"ID":157636,"DIS_CODE":0,"TOWNNAME":"安平區","LI":"港仔里","LIN":"2鄰","STREET":"安平路","SECT":" ","MAREA":" ","LANE":"５１巷","ALLEY":"２０弄","HOUSE_NO":"２０號","E_COORD97":164487.04999999999,"N_COORD97":2544371.3900000001,"ADDRESS":"安平路５１巷２０弄２０號","OBJECTID":157635},"geometry":{"x":164487.05000000075,"y":2544371.3900000043}},{"attributes":{"ID":157637,"DIS_CODE":0,"TOWNNAME":"安平區","LI":"港仔里","LIN":"2鄰","STREET":"安平路","SECT":" ","MAREA":" ","LANE":"５１巷","ALLEY":"２０弄","HOUSE_NO":"２２號","E_COORD97":164481.51000000001,"N_COORD97":2544374.6000000001,"ADDRESS":"安平路５１巷２０弄２２號","OBJECTID":157636},"geometry":{"x":164481.50999999978,"y":2544374.5999999996}},{"attributes":{"ID":157638,"DIS_CODE":0,"TOWNNAME":"善化區","LI":"光文里","LIN":"19鄰","STREET":"民生路","SECT":" ","MAREA":" ","LANE":" ","ALLEY":" ","HOUSE_NO":"２８４號","E_COORD97":178186.51999999999,"N_COORD97":2558926.7599999998,"ADDRESS":"民生路２８４號","OBJECTID":157637},"geometry":{"x":178186.51999999955,"y":2558926.7600000016}},{"attributes":{"ID":157639,"DIS_CODE":0,"TOWNNAME":"安平區","LI":"港仔里","LIN":"2鄰","STREET":"安平路","SECT":" ","MAREA":" ","LANE":"５１巷","ALLEY":"２０弄","HOUSE_NO":"２６號","E_COORD97":164464.88,"N_COORD97":2544369.6400000001,"ADDRESS":"安平路５１巷２０弄２６號","OBJECTID":157638},"geometry":{"x":164464.88000000082,"y":2544369.6400000043}},{"attributes":{"ID":157640,"DIS_CODE":0,"TOWNNAME":"安平區","LI":"港仔里","LIN":"2鄰","STREET":"安平路","SECT":" ","MAREA":" ","LANE":"５１巷","ALLEY":"２０弄","HOUSE_NO":"２８號","E_COORD97":164453.64999999999,"N_COORD97":2544368.6200000001,"ADDRESS":"安平路５１巷２０弄２８號","OBJECTID":157639},"geometry":{"x":164453.65000000037,"y":2544368.6200000029}},{"attributes":{"ID":157641,"DIS_CODE":0,"TOWNNAME":"善化區","LI":"坐駕里","LIN":"19鄰","STREET":" ","SECT":" ","MAREA":"坐駕","LANE":" ","ALLEY":" ","HOUSE_NO":"３６號之１","E_COORD97":178702.76999999999,"N_COORD97":2558452.27,"ADDRESS":"坐駕３６號之１","OBJECTID":157640},"geometry":{"x":178702.77000000048,"y":2558452.2700000014}},{"attributes":{"ID":157642,"DIS_CODE":0,"TOWNNAME":"善化區","LI":"坐駕里","LIN":"19鄰","STREET":" ","SECT":" ","MAREA":"坐駕","LANE":" ","ALLEY":" ","HOUSE_NO":"５０號","E_COORD97":178556.91,"N_COORD97":2558469.75,"ADDRESS":"坐駕５０號","OBJECTID":157641},"geometry":{"x":178556.91000000108,"y":2558469.7500000019}},{"attributes":{"ID":157643,"DIS_CODE":0,"TOWNNAME":"善化區","LI":"胡家里","LIN":"19鄰","STREET":" ","SECT":" ","MAREA":"胡厝寮","LANE":" ","ALLEY":" ","HOUSE_NO":"１１１號之３","E_COORD97":175293.89999999999,"N_COORD97":2560596.52,"ADDRESS":"胡厝寮１１１號之３","OBJECTID":157642},"geometry":{"x":175293.9000000013,"y":2560596.5200000014}},{"attributes":{"ID":157644,"DIS_CODE":0,"TOWNNAME":"南化區","LI":"東和里","LIN":"5鄰","STREET":" ","SECT":" ","MAREA":"東和","LANE":" ","ALLEY":" ","HOUSE_NO":"３８號之２","E_COORD97":195727.73999999999,"N_COORD97":2545117.7999999998,"ADDRESS":"東和３８號之２","OBJECTID":157643},"geometry":{"x":195727.74000000022,"y":2545117.8000000007}},{"attributes":{"ID":157645,"DIS_CODE":0,"TOWNNAME":"南化區","LI":"西埔里","LIN":"5鄰","STREET":" ","SECT":" ","MAREA":"西埔","LANE":" ","ALLEY":" ","HOUSE_NO":"３５號","E_COORD97":195637.44,"N_COORD97":2547942.75,"ADDRESS":"西埔３５號","OBJECTID":157644},"geometry":{"x":195637.44000000134,"y":2547942.7500000019}},{"attributes":{"ID":157646,"DIS_CODE":0,"TOWNNAME":"南化區","LI":"玉山里","LIN":"5鄰","STREET":" ","SECT":" ","MAREA":"玉山","LANE":" ","ALLEY":" ","HOUSE_NO":"５２號","E_COORD97":200809.87,"N_COORD97":2552566.75,"ADDRESS":"玉山５２號","OBJECTID":157645},"geometry":{"x":200809.87000000104,"y":2552566.7500000019}},{"attributes":{"ID":157647,"DIS_CODE":0,"TOWNNAME":"南化區","LI":"玉山里","LIN":"5鄰","STREET":" ","SECT":" ","MAREA":"玉山","LANE":" ","ALLEY":" ","HOUSE_NO":"４４號","E_COORD97":200704.76999999999,"N_COORD97":2552531.75,"ADDRESS":"玉山４４號","OBJECTID":157646},"geometry":{"x":200704.77000000048,"y":2552531.75}},{"attributes":{"ID":157648,"DIS_CODE":0,"TOWNNAME":"南化區","LI":"小崙里","LIN":"5鄰","STREET":" ","SECT":" ","MAREA":"小崙","LANE":" ","ALLEY":" ","HOUSE_NO":"５５號","E_COORD97":197650.67000000001,"N_COORD97":2549561.75,"ADDRESS":"小崙５５號","OBJECTID":157647},"geometry":{"x":197650.67000000179,"y":2549561.75}},{"attributes":{"ID":157649,"DIS_CODE":0,"TOWNNAME":"南化區","LI":"小崙里","LIN":"5鄰","STREET":" ","SECT":" ","MAREA":"小崙","LANE":" ","ALLEY":" ","HOUSE_NO":"４８號之７","E_COORD97":197219.28,"N_COORD97":2549770.7999999998,"ADDRESS":"小崙４８號之７","OBJECTID":157648},"geometry":{"x":197219.28000000026,"y":2549770.8000000026}},{"attributes":{"ID":157650,"DIS_CODE":0,"TOWNNAME":"南化區","LI":"東和里","LIN":"5鄰","STREET":" ","SECT":" ","MAREA":"東和","LANE":" ","ALLEY":" ","HOUSE_NO":"４３號","E_COORD97":195508.87,"N_COORD97":2544961.75,"ADDRESS":"東和４３號","OBJECTID":157649},"geometry":{"x":195508.87000000104,"y":2544961.7500000037}},{"attributes":{"ID":157651,"DIS_CODE":0,"TOWNNAME":"南化區","LI":"北寮里","LIN":"5鄰","STREET":" ","SECT":" ","MAREA":"北寮","LANE":" ","ALLEY":" ","HOUSE_NO":"７５號","E_COORD97":197760.79000000001,"N_COORD97":2553141.75,"ADDRESS":"北寮７５號","OBJECTID":157650},"geometry":{"x":197760.79000000097,"y":2553141.75}},{"attributes":{"ID":157652,"DIS_CODE":0,"TOWNNAME":"南化區","LI":"北平里","LIN":"5鄰","STREET":" ","SECT":" ","MAREA":"北平","LANE":" ","ALLEY":" ","HOUSE_NO":"５１號","E_COORD97":195214.09,"N_COORD97":2551417.75,"ADDRESS":"北平５１號","OBJECTID":157651},"geometry":{"x":195214.09000000078,"y":2551417.7500000019}},{"attributes":{"ID":157653,"DIS_CODE":0,"TOWNNAME":"南化區","LI":"關山里","LIN":"5鄰","STREET":" ","SECT":" ","MAREA":"西阿里關","LANE":" ","ALLEY":" ","HOUSE_NO":"１１０號","E_COORD97":209208.89000000001,"N_COORD97":2565221.75,"ADDRESS":"西阿里關１１０號","OBJECTID":157652},"geometry":{"x":209208.8900000006,"y":2565221.75}},{"attributes":{"ID":157654,"DIS_CODE":0,"TOWNNAME":"南化區","LI":"關山里","LIN":"5鄰","STREET":" ","SECT":" ","MAREA":"西阿里關","LANE":" ","ALLEY":" ","HOUSE_NO":"１０３號之２","E_COORD97":209222.45999999999,"N_COORD97":2564188.7999999998,"ADDRESS":"西阿里關１０３號之２","OBJECTID":157653},"geometry":{"x":209222.46000000089,"y":2564188.7999999989}},{"attributes":{"ID":157655,"DIS_CODE":0,"TOWNNAME":"南化區","LI":"北寮里","LIN":"5鄰","STREET":" ","SECT":" ","MAREA":"北寮","LANE":" ","ALLEY":" ","HOUSE_NO":"６１號","E_COORD97":197589.89000000001,"N_COORD97":2553478.75,"ADDRESS":"北寮６１號","OBJECTID":157654},"geometry":{"x":197589.8900000006,"y":2553478.7500000019}},{"attributes":{"ID":157656,"DIS_CODE":0,"TOWNNAME":"安平區","LI":"港仔里","LIN":"2鄰","STREET":"安平路","SECT":" ","MAREA":" ","LANE":"５１巷","ALLEY":"２０弄","HOUSE_NO":"３０號","E_COORD97":164444.47,"N_COORD97":2544368.04,"ADDRESS":"安平路５１巷２０弄３０號","OBJECTID":157655},"geometry":{"x":164444.46999999974,"y":2544368.0399999991}},{"attributes":{"ID":157657,"DIS_CODE":0,"TOWNNAME":"安平區","LI":"港仔里","LIN":"2鄰","STREET":"安平路","SECT":" ","MAREA":" ","LANE":"５１巷","ALLEY":"２０弄","HOUSE_NO":"３２號","E_COORD97":164436.59,"N_COORD97":2544366,"ADDRESS":"安平路５１巷２０弄３２號","OBJECTID":157656},"geometry":{"x":164436.58999999985,"y":2544366}},{"attributes":{"ID":157658,"DIS_CODE":0,"TOWNNAME":"南區","LI":"南華里","LIN":"2鄰","STREET":"中華南路","SECT":"二段","MAREA":" ","LANE":"４００巷","ALLEY":"１弄","HOUSE_NO":"１０號","E_COORD97":166357.92999999999,"N_COORD97":2540333.5899999999,"ADDRESS":"中華南路二段４００巷１弄１０號","OBJECTID":157657},"geometry":{"x":166357.93000000063,"y":2540333.5899999999}},{"attributes":{"ID":157659,"DIS_CODE":0,"TOWNNAME":"南區","LI":"南華里","LIN":"2鄰","STREET":"中華南路","SECT":"二段","MAREA":" ","LANE":"４００巷","ALLEY":"１弄","HOUSE_NO":"１２號","E_COORD97":166349.85000000001,"N_COORD97":2540333.5899999999,"ADDRESS":"中華南路二段４００巷１弄１２號","OBJECTID":157658},"geometry":{"x":166349.85000000056,"y":2540333.5899999999}},{"attributes":{"ID":157660,"DIS_CODE":0,"TOWNNAME":"南區","LI":"南華里","LIN":"2鄰","STREET":"中華南路","SECT":"二段","MAREA":" ","LANE":"４００巷","ALLEY":"１弄","HOUSE_NO":"１４號","E_COORD97":166340.48000000001,"N_COORD97":2540333.2400000002,"ADDRESS":"中華南路二段４００巷１弄１４號","OBJECTID":157659},"geometry":{"x":166340.48000000045,"y":2540333.2400000002}},{"attributes":{"ID":157661,"DIS_CODE":0,"TOWNNAME":"南區","LI":"南華里","LIN":"2鄰","STREET":"中華南路","SECT":"二段","MAREA":" ","LANE":"４００巷","ALLEY":"１弄","HOUSE_NO":"１６號","E_COORD97":166334.14999999999,"N_COORD97":2540333.5899999999,"ADDRESS":"中華南路二段４００巷１弄１６號","OBJECTID":157660},"geometry":{"x":166334.15000000037,"y":2540333.5899999999}},{"attributes":{"ID":157662,"DIS_CODE":0,"TOWNNAME":"南區","LI":"南華里","LIN":"2鄰","STREET":"中華南路","SECT":"二段","MAREA":" ","LANE":"４００巷","ALLEY":"１弄","HOUSE_NO":"２號","E_COORD97":166394.23999999999,"N_COORD97":2540334.1800000002,"ADDRESS":"中華南路二段４００巷１弄２號","OBJECTID":157661},"geometry":{"x":166394.24000000022,"y":2540334.1800000034}},{"attributes":{"ID":157663,"DIS_CODE":0,"TOWNNAME":"南區","LI":"南華里","LIN":"2鄰","STREET":"中華南路","SECT":"二段","MAREA":" ","LANE":"４００巷","ALLEY":"１弄","HOUSE_NO":"４號","E_COORD97":166384.39999999999,"N_COORD97":2540333.2400000002,"ADDRESS":"中華南路二段４００巷１弄４號","OBJECTID":157662},"geometry":{"x":166384.4000000013,"y":2540333.2400000002}},{"attributes":{"ID":157664,"DIS_CODE":0,"TOWNNAME":"南區","LI":"南華里","LIN":"2鄰","STREET":"中華南路","SECT":"二段","MAREA":" ","LANE":"４００巷","ALLEY":"１弄","HOUSE_NO":"６號","E_COORD97":166375.97,"N_COORD97":2540334.0600000001,"ADDRESS":"中華南路二段４００巷１弄６號","OBJECTID":157663},"geometry":{"x":166375.97000000067,"y":2540334.0600000005}},{"attributes":{"ID":157665,"DIS_CODE":0,"TOWNNAME":"南化區","LI":"關山里","LIN":"5鄰","STREET":" ","SECT":" ","MAREA":"西阿里關","LANE":" ","ALLEY":" ","HOUSE_NO":"１０２號","E_COORD97":208927.79000000001,"N_COORD97":2564501.75,"ADDRESS":"西阿里關１０２號","OBJECTID":157664},"geometry":{"x":208927.79000000004,"y":2564501.7500000019}},{"attributes":{"ID":157666,"DIS_CODE":0,"TOWNNAME":"南化區","LI":"關山里","LIN":"5鄰","STREET":" ","SECT":" ","MAREA":"西阿里關","LANE":" ","ALLEY":" ","HOUSE_NO":"１１３號","E_COORD97":209163.48999999999,"N_COORD97":2565446.75,"ADDRESS":"西阿里關１１３號","OBJECTID":157665},"geometry":{"x":209163.49000000022,"y":2565446.7500000019}},{"attributes":{"ID":157667,"DIS_CODE":0,"TOWNNAME":"中西區","LI":"小西里","LIN":"4鄰","STREET":"西門路","SECT":"一段","MAREA":" ","LANE":" ","ALLEY":" ","HOUSE_NO":"６７０號","E_COORD97":167743.01999999999,"N_COORD97":2543295.1600000001,"ADDRESS":"西門路一段６７０號","OBJECTID":157666},"geometry":{"x":167743.01999999862,"y":2543295.160000002}},{"attributes":{"ID":157668,"DIS_CODE":0,"TOWNNAME":"永康區","LI":"網寮里","LIN":"19鄰","STREET":"文化路","SECT":" ","MAREA":" ","LANE":" ","ALLEY":" ","HOUSE_NO":"３００號","E_COORD97":173450.03,"N_COORD97":2546168.77,"ADDRESS":"文化路３００號","OBJECTID":157667},"geometry":{"x":173450.03000000119,"y":2546168.7700000014}},{"attributes":{"ID":157669,"DIS_CODE":0,"TOWNNAME":"永康區","LI":"網寮里","LIN":"19鄰","STREET":"文化路","SECT":" ","MAREA":" ","LANE":" ","ALLEY":" ","HOUSE_NO":"２７６號","E_COORD97":173469.76000000001,"N_COORD97":2546141.8100000001,"ADDRESS":"文化路２７６號","OBJECTID":157668},"geometry":{"x":173469.76000000164,"y":2546141.8100000042}},{"attributes":{"ID":157670,"DIS_CODE":0,"TOWNNAME":"永康區","LI":"網寮里","LIN":"19鄰","STREET":"永二街","SECT":" ","MAREA":" ","LANE":" ","ALLEY":" ","HOUSE_NO":"２１９號","E_COORD97":173399.17999999999,"N_COORD97":2546275.4700000002,"ADDRESS":"永二街２１９號","OBJECTID":157669},"geometry":{"x":173399.18000000156,"y":2546275.4700000007}},{"attributes":{"ID":157671,"DIS_CODE":0,"TOWNNAME":"南區","LI":"南華里","LIN":"2鄰","STREET":"中華南路","SECT":"二段","MAREA":" ","LANE":"４００巷","ALLEY":"１弄","HOUSE_NO":"８號","E_COORD97":166367.42000000001,"N_COORD97":2540333.4700000002,"ADDRESS":"中華南路二段４００巷１弄８號","OBJECTID":157670},"geometry":{"x":166367.41999999993,"y":2540333.4700000025}},{"attributes":{"ID":157672,"DIS_CODE":0,"TOWNNAME":"新營區","LI":"忠政里","LIN":"2鄰","STREET":"中正路","SECT":" ","MAREA":" ","LANE":"３１巷","ALLEY":"９弄","HOUSE_NO":"６號","E_COORD97":180048.91,"N_COORD97":2579047.5800000001,"ADDRESS":"中正路３１巷９弄６號","OBJECTID":157671},"geometry":{"x":180048.91000000108,"y":2579047.5800000019}},{"attributes":{"ID":157673,"DIS_CODE":0,"TOWNNAME":"北區","LI":"新勝里","LIN":"2鄰","STREET":"開元路","SECT":" ","MAREA":" ","LANE":"３３３巷","ALLEY":"４弄","HOUSE_NO":"１０號","E_COORD97":170231.69,"N_COORD97":2545491.48,"ADDRESS":"開元路３３３巷４弄１０號","OBJECTID":157672},"geometry":{"x":170231.69000000134,"y":2545491.4800000004}},{"attributes":{"ID":157674,"DIS_CODE":0,"TOWNNAME":"南區","LI":"田寮里","LIN":"2鄰","STREET":"新興路","SECT":" ","MAREA":" ","LANE":"２６７巷","ALLEY":"１５弄","HOUSE_NO":"９號","E_COORD97":167264.10999999999,"N_COORD97":2541809.02,"ADDRESS":"新興路２６７巷１５弄９號","OBJECTID":157673},"geometry":{"x":167264.11000000127,"y":2541809.0199999996}},{"attributes":{"ID":157675,"DIS_CODE":0,"TOWNNAME":"北區","LI":"文元里","LIN":"2鄰","STREET":"海安路","SECT":"三段","MAREA":" ","LANE":"９８５巷","ALLEY":"２７弄","HOUSE_NO":"１３號","E_COORD97":167915.62,"N_COORD97":2546586.4300000002,"ADDRESS":"海安路三段９８５巷２７弄１３號","OBJECTID":157674},"geometry":{"x":167915.62000000011,"y":2546586.4299999997}},{"attributes":{"ID":157676,"DIS_CODE":0,"TOWNNAME":"南化區","LI":"西埔里","LIN":"5鄰","STREET":" ","SECT":" ","MAREA":"西埔","LANE":" ","ALLEY":" ","HOUSE_NO":"４０號","E_COORD97":195393.94,"N_COORD97":2548115.75,"ADDRESS":"西埔４０號","OBJECTID":157675},"geometry":{"x":195393.94000000134,"y":2548115.7500000019}},{"attributes":{"ID":157677,"DIS_CODE":0,"TOWNNAME":"北區","LI":"文元里","LIN":"2鄰","STREET":"海安路","SECT":"三段","MAREA":" ","LANE":"９８５巷","ALLEY":"２７弄","HOUSE_NO":"１５號","E_COORD97":167917.39999999999,"N_COORD97":2546579.8300000001,"ADDRESS":"海安路三段９８５巷２７弄１５號","OBJECTID":157676},"geometry":{"x":167917.40000000037,"y":2546579.8300000019}},{"attributes":{"ID":157678,"DIS_CODE":0,"TOWNNAME":"北區","LI":"文元里","LIN":"2鄰","STREET":"海安路","SECT":"三段","MAREA":" ","LANE":"９８５巷","ALLEY":"２７弄","HOUSE_NO":"１７號","E_COORD97":167919.29999999999,"N_COORD97":2546573.23,"ADDRESS":"海安路三段９８５巷２７弄１７號","OBJECTID":157677},"geometry":{"x":167919.29999999981,"y":2546573.2300000023}},{"attributes":{"ID":157679,"DIS_CODE":0,"TOWNNAME":"安平區","LI":"文平里","LIN":"2鄰","STREET":"中華西路","SECT":"二段","MAREA":" ","LANE":"４９巷","ALLEY":"２４弄","HOUSE_NO":"９２號","E_COORD97":166575.22,"N_COORD97":2543188.4199999999,"ADDRESS":"中華西路二段４９巷２４弄９２號","OBJECTID":157678},"geometry":{"x":166575.21999999974,"y":2543188.4200000018}},{"attributes":{"ID":157680,"DIS_CODE":0,"TOWNNAME":"永康區","LI":"成功里","LIN":"29鄰","STREET":"中華路","SECT":" ","MAREA":" ","LANE":"１３４巷","ALLEY":"５４弄","HOUSE_NO":"２號","E_COORD97":171742.60999999999,"N_COORD97":2544806.7400000002,"ADDRESS":"中華路１３４巷５４弄２號","OBJECTID":157679},"geometry":{"x":171742.61000000127,"y":2544806.7400000021}},{"attributes":{"ID":157681,"DIS_CODE":0,"TOWNNAME":"永康區","LI":"南灣里","LIN":"5鄰","STREET":"大灣路","SECT":" ","MAREA":" ","LANE":"５３７巷","ALLEY":"１５弄","HOUSE_NO":"１號之１","E_COORD97":174490.23000000001,"N_COORD97":2544499.21,"ADDRESS":"大灣路５３７巷１５弄１號之１","OBJECTID":157680},"geometry":{"x":174490.23000000138,"y":2544499.2100000028}},{"attributes":{"ID":157682,"DIS_CODE":0,"TOWNNAME":"南區","LI":"竹溪里","LIN":"2鄰","STREET":"健康路","SECT":"一段","MAREA":" ","LANE":"１３３巷","ALLEY":"７５弄","HOUSE_NO":"１２號","E_COORD97":168928.67000000001,"N_COORD97":2542238.1299999999,"ADDRESS":"健康路一段１３３巷７５弄１２號","OBJECTID":157681},"geometry":{"x":168928.66999999993,"y":2542238.129999999}},{"attributes":{"ID":157683,"DIS_CODE":0,"TOWNNAME":"南區","LI":"竹溪里","LIN":"2鄰","STREET":"健康路","SECT":"一段","MAREA":" ","LANE":"１３３巷","ALLEY":"７５弄","HOUSE_NO":"１４號","E_COORD97":168933.54000000001,"N_COORD97":2542238.1299999999,"ADDRESS":"健康路一段１３３巷７５弄１４號","OBJECTID":157682},"geometry":{"x":168933.5400000019,"y":2542238.129999999}},{"attributes":{"ID":157684,"DIS_CODE":0,"TOWNNAME":"南區","LI":"竹溪里","LIN":"2鄰","STREET":"健康路","SECT":"一段","MAREA":" ","LANE":"１３３巷","ALLEY":"７５弄","HOUSE_NO":"８號","E_COORD97":168912.42999999999,"N_COORD97":2542236.5,"ADDRESS":"健康路一段１３３巷７５弄８號","OBJECTID":157683},"geometry":{"x":168912.43000000063,"y":2542236.5}},{"attributes":{"ID":157685,"DIS_CODE":0,"TOWNNAME":"南區","LI":"竹溪里","LIN":"2鄰","STREET":"健康路","SECT":"一段","MAREA":" ","LANE":"１３３巷","ALLEY":"７５弄","HOUSE_NO":"１０號","E_COORD97":168918.39000000001,"N_COORD97":2542236.5,"ADDRESS":"健康路一段１３３巷７５弄１０號","OBJECTID":157684},"geometry":{"x":168918.38999999966,"y":2542236.5}},{"attributes":{"ID":157686,"DIS_CODE":0,"TOWNNAME":"南區","LI":"竹溪里","LIN":"2鄰","STREET":"健康路","SECT":"一段","MAREA":" ","LANE":"１３３巷","ALLEY":"７５弄","HOUSE_NO":"７號","E_COORD97":168914.47,"N_COORD97":2542257.7000000002,"ADDRESS":"健康路一段１３３巷７５弄７號","OBJECTID":157685},"geometry":{"x":168914.46999999974,"y":2542257.6999999993}},{"attributes":{"ID":157687,"DIS_CODE":0,"TOWNNAME":"仁德區","LI":"保安里","LIN":"2鄰","STREET":"文賢路","SECT":"一段","MAREA":" ","LANE":"５５４巷","ALLEY":"８弄","HOUSE_NO":"１７號","E_COORD97":171066.39000000001,"N_COORD97":2536932.8199999998,"ADDRESS":"文賢路一段５５４巷８弄１７號","OBJECTID":157686},"geometry":{"x":171066.38999999966,"y":2536932.8200000003}},{"attributes":{"ID":157688,"DIS_CODE":0,"TOWNNAME":"南化區","LI":"西埔里","LIN":"5鄰","STREET":" ","SECT":" ","MAREA":"西埔","LANE":" ","ALLEY":" ","HOUSE_NO":"１８號之１","E_COORD97":195327.38,"N_COORD97":2547715.7999999998,"ADDRESS":"西埔１８號之１","OBJECTID":157687},"geometry":{"x":195327.38000000082,"y":2547715.8000000026}},{"attributes":{"ID":157689,"DIS_CODE":0,"TOWNNAME":"永康區","LI":"西灣里","LIN":"36鄰","STREET":"國光八街","SECT":" ","MAREA":" ","LANE":"８７巷","ALLEY":"２２弄","HOUSE_NO":"１２之１號","E_COORD97":174215.32000000001,"N_COORD97":2545716.04,"ADDRESS":"國光八街８７巷２２弄１２之１號","OBJECTID":157688},"geometry":{"x":174215.3200000003,"y":2545716.040000001}},{"attributes":{"ID":157690,"DIS_CODE":0,"TOWNNAME":"南化區","LI":"小崙里","LIN":"5鄰","STREET":" ","SECT":" ","MAREA":"小崙","LANE":" ","ALLEY":" ","HOUSE_NO":"４８號之２","E_COORD97":197215.54000000001,"N_COORD97":2549750.7999999998,"ADDRESS":"小崙４８號之２","OBJECTID":157689},"geometry":{"x":197215.54000000004,"y":2549750.8000000026}},{"attributes":{"ID":157691,"DIS_CODE":0,"TOWNNAME":"南化區","LI":"小崙里","LIN":"5鄰","STREET":" ","SECT":" ","MAREA":"小崙","LANE":" ","ALLEY":" ","HOUSE_NO":"４８號之９","E_COORD97":197220.29000000001,"N_COORD97":2549775.7999999998,"ADDRESS":"小崙４８號之９","OBJECTID":157690},"geometry":{"x":197220.29000000097,"y":2549775.8000000007}},{"attributes":{"ID":157692,"DIS_CODE":0,"TOWNNAME":"永康區","LI":"北灣里","LIN":"38鄰","STREET":"大灣路","SECT":" ","MAREA":" ","LANE":"４０巷","ALLEY":"１５３弄","HOUSE_NO":"９號","E_COORD97":174882.12,"N_COORD97":2546204.8799999999,"ADDRESS":"大灣路４０巷１５３弄９號","OBJECTID":157691},"geometry":{"x":174882.12000000104,"y":2546204.8800000008}},{"attributes":{"ID":157693,"DIS_CODE":0,"TOWNNAME":"永康區","LI":"六合里","LIN":"2鄰","STREET":"新興街","SECT":" ","MAREA":" ","LANE":"３５巷","ALLEY":"１３弄","HOUSE_NO":"３號","E_COORD97":170960.82000000001,"N_COORD97":2545846.9900000002,"ADDRESS":"新興街３５巷１３弄３號","OBJECTID":157692},"geometry":{"x":170960.8200000003,"y":2545846.9900000002}},{"attributes":{"ID":157694,"DIS_CODE":0,"TOWNNAME":"永康區","LI":"六合里","LIN":"2鄰","STREET":"新興街","SECT":" ","MAREA":" ","LANE":"３５巷","ALLEY":"１５弄","HOUSE_NO":"１號","E_COORD97":170975.73999999999,"N_COORD97":2545843.2400000002,"ADDRESS":"新興街３５巷１５弄１號","OBJECTID":157693},"geometry":{"x":170975.74000000115,"y":2545843.2399999984}},{"attributes":{"ID":157695,"DIS_CODE":0,"TOWNNAME":"南化區","LI":"小崙里","LIN":"5鄰","STREET":" ","SECT":" ","MAREA":"小崙","LANE":" ","ALLEY":" ","HOUSE_NO":"５７號之２","E_COORD97":197664.14000000001,"N_COORD97":2549611.7999999998,"ADDRESS":"小崙５７號之２","OBJECTID":157694},"geometry":{"x":197664.13999999873,"y":2549611.8000000026}},{"attributes":{"ID":157696,"DIS_CODE":0,"TOWNNAME":"東山區","LI":"大客里","LIN":"12鄰","STREET":" ","SECT":" ","MAREA":"大庄","LANE":" ","ALLEY":" ","HOUSE_NO":"８８號","E_COORD97":190523.12,"N_COORD97":2578949.0699999998,"ADDRESS":"大庄８８號","OBJECTID":157695},"geometry":{"x":190523.12000000197,"y":2578949.0700000022}},{"attributes":{"ID":157697,"DIS_CODE":0,"TOWNNAME":"南化區","LI":"小崙里","LIN":"5鄰","STREET":" ","SECT":" ","MAREA":"小崙","LANE":" ","ALLEY":" ","HOUSE_NO":"４８號之１３","E_COORD97":197223.14999999999,"N_COORD97":2549788.7999999998,"ADDRESS":"小崙４８號之１３","OBJECTID":157696},"geometry":{"x":197223.1500000013,"y":2549788.8000000007}},{"attributes":{"ID":157698,"DIS_CODE":0,"TOWNNAME":"南化區","LI":"玉山里","LIN":"5鄰","STREET":" ","SECT":" ","MAREA":"玉山","LANE":" ","ALLEY":" ","HOUSE_NO":"５３號之４","E_COORD97":200777.13,"N_COORD97":2552586.7999999998,"ADDRESS":"玉山５３號之４","OBJECTID":157697},"geometry":{"x":200777.13000000082,"y":2552586.8000000007}},{"attributes":{"ID":157699,"DIS_CODE":0,"TOWNNAME":"南化區","LI":"西埔里","LIN":"5鄰","STREET":" ","SECT":" ","MAREA":"西埔","LANE":" ","ALLEY":" ","HOUSE_NO":"３４號","E_COORD97":195811.04000000001,"N_COORD97":2547953.75,"ADDRESS":"西埔３４號","OBJECTID":157698},"geometry":{"x":195811.04000000097,"y":2547953.75}},{"attributes":{"ID":157700,"DIS_CODE":0,"TOWNNAME":"新市區","LI":"社內里","LIN":"19鄰","STREET":" ","SECT":" ","MAREA":"社內","LANE":" ","ALLEY":" ","HOUSE_NO":"１９８之１號","E_COORD97":175990.13292599999,"N_COORD97":2553082.48496,"ADDRESS":"社內１９８之１號","OBJECTID":157699},"geometry":{"x":175990.13292600028,"y":2553082.4849550016}},{"attributes":{"ID":157701,"DIS_CODE":0,"TOWNNAME":"南化區","LI":"玉山里","LIN":"5鄰","STREET":" ","SECT":" ","MAREA":"玉山","LANE":" ","ALLEY":" ","HOUSE_NO":"５３號之１","E_COORD97":200777.79999999999,"N_COORD97":2552572.7999999998,"ADDRESS":"玉山５３號之１","OBJECTID":157700},"geometry":{"x":200777.80000000075,"y":2552572.8000000007}},{"attributes":{"ID":157702,"DIS_CODE":0,"TOWNNAME":"南化區","LI":"西埔里","LIN":"5鄰","STREET":" ","SECT":" ","MAREA":"西埔","LANE":" ","ALLEY":" ","HOUSE_NO":"４２之３號","E_COORD97":194946.73999999999,"N_COORD97":2548384.7999999998,"ADDRESS":"西埔４２之３號","OBJECTID":157701},"geometry":{"x":194946.74000000209,"y":2548384.8000000007}},{"attributes":{"ID":157703,"DIS_CODE":0,"TOWNNAME":"南化區","LI":"玉山里","LIN":"5鄰","STREET":" ","SECT":" ","MAREA":"玉山","LANE":" ","ALLEY":" ","HOUSE_NO":"５１號","E_COORD97":200833.67000000001,"N_COORD97":2552545.75,"ADDRESS":"玉山５１號","OBJECTID":157702},"geometry":{"x":200833.66999999993,"y":2552545.7499999981}},{"attributes":{"ID":157704,"DIS_CODE":0,"TOWNNAME":"南化區","LI":"北寮里","LIN":"5鄰","STREET":" ","SECT":" ","MAREA":"北寮","LANE":" ","ALLEY":" ","HOUSE_NO":"６５號","E_COORD97":197715.98999999999,"N_COORD97":2553191.75,"ADDRESS":"北寮６５號","OBJECTID":157703},"geometry":{"x":197715.99000000022,"y":2553191.7500000019}},{"attributes":{"ID":157705,"DIS_CODE":0,"TOWNNAME":"南化區","LI":"玉山里","LIN":"5鄰","STREET":" ","SECT":" ","MAREA":"玉山","LANE":" ","ALLEY":" ","HOUSE_NO":"４５之１號","E_COORD97":200747.37,"N_COORD97":2552456.7999999998,"ADDRESS":"玉山４５之１號","OBJECTID":157704},"geometry":{"x":200747.37000000104,"y":2552456.8000000007}},{"attributes":{"ID":157706,"DIS_CODE":0,"TOWNNAME":"南化區","LI":"小崙里","LIN":"5鄰","STREET":" ","SECT":" ","MAREA":"小崙","LANE":" ","ALLEY":" ","HOUSE_NO":"４８之１４號","E_COORD97":197223.51999999999,"N_COORD97":2549791.7999999998,"ADDRESS":"小崙４８之１４號","OBJECTID":157705},"geometry":{"x":197223.51999999955,"y":2549791.8000000007}},{"attributes":{"ID":157707,"DIS_CODE":0,"TOWNNAME":"永康區","LI":"正強里","LIN":"20鄰","STREET":"中山南路","SECT":" ","MAREA":" ","LANE":"４７１巷","ALLEY":"１５弄","HOUSE_NO":"１１號","E_COORD97":173119.59,"N_COORD97":2547248,"ADDRESS":"中山南路４７１巷１５弄１１號","OBJECTID":157706},"geometry":{"x":173119.58999999985,"y":2547248}},{"attributes":{"ID":157708,"DIS_CODE":0,"TOWNNAME":"南化區","LI":"小崙里","LIN":"5鄰","STREET":" ","SECT":" ","MAREA":"小崙","LANE":" ","ALLEY":" ","HOUSE_NO":"４７號","E_COORD97":197199.57000000001,"N_COORD97":2549715.75,"ADDRESS":"小崙４７號","OBJECTID":157707},"geometry":{"x":197199.57000000123,"y":2549715.7500000019}},{"attributes":{"ID":157709,"DIS_CODE":0,"TOWNNAME":"南化區","LI":"玉山里","LIN":"5鄰","STREET":" ","SECT":" ","MAREA":"玉山","LANE":" ","ALLEY":" ","HOUSE_NO":"５０之２號","E_COORD97":200779.57000000001,"N_COORD97":2552546.7999999998,"ADDRESS":"玉山５０之２號","OBJECTID":157708},"geometry":{"x":200779.57000000123,"y":2552546.8000000026}},{"attributes":{"ID":157710,"DIS_CODE":0,"TOWNNAME":"南化區","LI":"小崙里","LIN":"5鄰","STREET":" ","SECT":" ","MAREA":"小崙","LANE":" ","ALLEY":" ","HOUSE_NO":"４７號之１","E_COORD97":197203,"N_COORD97":2549718.7999999998,"ADDRESS":"小崙４７號之１","OBJECTID":157709},"geometry":{"x":197203.00000000093,"y":2549718.8000000045}},{"attributes":{"ID":157711,"DIS_CODE":0,"TOWNNAME":"永康區","LI":"埔園里","LIN":"2鄰","STREET":"永埔街","SECT":" ","MAREA":" ","LANE":"１１６巷","ALLEY":"９弄","HOUSE_NO":"１６號","E_COORD97":174000.95999999999,"N_COORD97":2547723.8300000001,"ADDRESS":"永埔街１１６巷９弄１６號","OBJECTID":157710},"geometry":{"x":174000.96000000183,"y":2547723.8300000001}},{"attributes":{"ID":157712,"DIS_CODE":0,"TOWNNAME":"永康區","LI":"埔園里","LIN":"2鄰","STREET":"永埔街","SECT":" ","MAREA":" ","LANE":"１１６巷","ALLEY":"９弄","HOUSE_NO":"２６號","E_COORD97":173993.01000000001,"N_COORD97":2547740.9199999999,"ADDRESS":"永埔街１１６巷９弄２６號","OBJECTID":157711},"geometry":{"x":173993.00999999978,"y":2547740.9200000018}},{"attributes":{"ID":157713,"DIS_CODE":0,"TOWNNAME":"永康區","LI":"建國里","LIN":"31鄰","STREET":"復興路","SECT":" ","MAREA":" ","LANE":"７１巷","ALLEY":"１１２弄","HOUSE_NO":"５９號","E_COORD97":172680.12,"N_COORD97":2543651.6800000002,"ADDRESS":"復興路７１巷１１２弄５９號","OBJECTID":157712},"geometry":{"x":172680.12000000104,"y":2543651.6799999997}},{"attributes":{"ID":157714,"DIS_CODE":0,"TOWNNAME":"永康區","LI":"西勢里","LIN":"21鄰","STREET":"富強路","SECT":"一段","MAREA":" ","LANE":"９８巷","ALLEY":"５６弄","HOUSE_NO":"３６號","E_COORD97":175553.29000000001,"N_COORD97":2546012.8999999999,"ADDRESS":"富強路一段９８巷５６弄３６號","OBJECTID":157713},"geometry":{"x":175553.2900000019,"y":2546012.9000000022}},{"attributes":{"ID":157715,"DIS_CODE":0,"TOWNNAME":"永康區","LI":"東灣里","LIN":"34鄰","STREET":"民族路","SECT":" ","MAREA":" ","LANE":"１８１巷","ALLEY":"３弄","HOUSE_NO":"１４號","E_COORD97":175221.54999999999,"N_COORD97":2544782.2999999998,"ADDRESS":"民族路１８１巷３弄１４號","OBJECTID":157714},"geometry":{"x":175221.54999999981,"y":2544782.2999999989}},{"attributes":{"ID":157716,"DIS_CODE":0,"TOWNNAME":"永康區","LI":"北灣里","LIN":"33鄰","STREET":"大灣路","SECT":" ","MAREA":" ","LANE":"３７巷","ALLEY":"６弄","HOUSE_NO":"４號","E_COORD97":175336.23999999999,"N_COORD97":2545851.2400000002,"ADDRESS":"大灣路３７巷６弄４號","OBJECTID":157715},"geometry":{"x":175336.24000000022,"y":2545851.2400000021}},{"attributes":{"ID":157717,"DIS_CODE":0,"TOWNNAME":"永康區","LI":"甲頂里","LIN":"19鄰","STREET":"中正南路","SECT":" ","MAREA":" ","LANE":"５２巷","ALLEY":"４６弄","HOUSE_NO":"７２號","E_COORD97":169914.79000000001,"N_COORD97":2546603.3300000001,"ADDRESS":"中正南路５２巷４６弄７２號","OBJECTID":157716},"geometry":{"x":169914.79000000004,"y":2546603.3300000019}},{"attributes":{"ID":157718,"DIS_CODE":0,"TOWNNAME":"新化區","LI":"武安里","LIN":"2鄰","STREET":"正新南路","SECT":" ","MAREA":" ","LANE":"６１巷","ALLEY":"１７弄","HOUSE_NO":"１８號","E_COORD97":179078.42000000001,"N_COORD97":2547994.25,"ADDRESS":"正新南路６１巷１７弄１８號","OBJECTID":157717},"geometry":{"x":179078.42000000086,"y":2547994.2500000019}},{"attributes":{"ID":157719,"DIS_CODE":0,"TOWNNAME":"永康區","LI":"正強里","LIN":"19鄰","STREET":"中山南路","SECT":" ","MAREA":" ","LANE":"４７１巷","ALLEY":" ","HOUSE_NO":"４９號","E_COORD97":173197.85999999999,"N_COORD97":2547176.6000000001,"ADDRESS":"中山南路４７１巷４９號","OBJECTID":157718},"geometry":{"x":173197.86000000034,"y":2547176.6000000015}},{"attributes":{"ID":157720,"DIS_CODE":0,"TOWNNAME":"東區","LI":"崇信里","LIN":"24鄰","STREET":"崇善一街","SECT":" ","MAREA":" ","LANE":" ","ALLEY":" ","HOUSE_NO":"７８號十四樓之２","E_COORD97":170831.85999999999,"N_COORD97":2542290.75,"ADDRESS":"崇善一街７８號十四樓之２","OBJECTID":157719},"geometry":{"x":170831.8599999994,"y":2542290.7500000019}},{"attributes":{"ID":157721,"DIS_CODE":0,"TOWNNAME":"東區","LI":"崇信里","LIN":"24鄰","STREET":"崇善一街","SECT":" ","MAREA":" ","LANE":" ","ALLEY":" ","HOUSE_NO":"７８號十樓之１","E_COORD97":170831.85999999999,"N_COORD97":2542290.75,"ADDRESS":"崇善一街７８號十樓之１","OBJECTID":157720},"geometry":{"x":170831.8599999994,"y":2542290.7500000019}},{"attributes":{"ID":157722,"DIS_CODE":0,"TOWNNAME":"東區","LI":"崇信里","LIN":"24鄰","STREET":"崇善一街","SECT":" ","MAREA":" ","LANE":" ","ALLEY":" ","HOUSE_NO":"７８號十樓之２","E_COORD97":170831.85999999999,"N_COORD97":2542290.75,"ADDRESS":"崇善一街７８號十樓之２","OBJECTID":157721},"geometry":{"x":170831.8599999994,"y":2542290.7500000019}},{"attributes":{"ID":157723,"DIS_CODE":0,"TOWNNAME":"東區","LI":"崇信里","LIN":"24鄰","STREET":"崇善一街","SECT":" ","MAREA":" ","LANE":" ","ALLEY":" ","HOUSE_NO":"７８號三樓","E_COORD97":170831.85999999999,"N_COORD97":2542290.75,"ADDRESS":"崇善一街７８號三樓","OBJECTID":157722},"geometry":{"x":170831.8599999994,"y":2542290.7500000019}},{"attributes":{"ID":157724,"DIS_CODE":0,"TOWNNAME":"東區","LI":"崇信里","LIN":"24鄰","STREET":"崇善一街","SECT":" ","MAREA":" ","LANE":" ","ALLEY":" ","HOUSE_NO":"７８號三樓之１","E_COORD97":170831.85999999999,"N_COORD97":2542290.75,"ADDRESS":"崇善一街７８號三樓之１","OBJECTID":157723},"geometry":{"x":170831.8599999994,"y":2542290.7500000019}},{"attributes":{"ID":157725,"DIS_CODE":0,"TOWNNAME":"東區","LI":"崇信里","LIN":"24鄰","STREET":"崇善一街","SECT":" ","MAREA":" ","LANE":" ","ALLEY":" ","HOUSE_NO":"７８號三樓之２","E_COORD97":170831.85999999999,"N_COORD97":2542290.75,"ADDRESS":"崇善一街７８號三樓之２","OBJECTID":157724},"geometry":{"x":170831.8599999994,"y":2542290.7500000019}},{"attributes":{"ID":157726,"DIS_CODE":0,"TOWNNAME":"東區","LI":"崇信里","LIN":"24鄰","STREET":"崇善一街","SECT":" ","MAREA":" ","LANE":" ","ALLEY":" ","HOUSE_NO":"７８號五樓","E_COORD97":170831.85999999999,"N_COORD97":2542290.75,"ADDRESS":"崇善一街７８號五樓","OBJECTID":157725},"geometry":{"x":170831.8599999994,"y":2542290.7500000019}},{"attributes":{"ID":157727,"DIS_CODE":0,"TOWNNAME":"中西區","LI":"大涼里","LIN":"19鄰","STREET":"中華西路","SECT":"二段","MAREA":" ","LANE":" ","ALLEY":" ","HOUSE_NO":"２０６號","E_COORD97":166622.70000000001,"N_COORD97":2544083.0800000001,"ADDRESS":"中華西路二段２０６號","OBJECTID":157726},"geometry":{"x":166622.70000000112,"y":2544083.0800000019}},{"attributes":{"ID":157728,"DIS_CODE":0,"TOWNNAME":"中西區","LI":"大涼里","LIN":"19鄰","STREET":"中華西路","SECT":"二段","MAREA":" ","LANE":" ","ALLEY":" ","HOUSE_NO":"２５０號","E_COORD97":166621.56,"N_COORD97":2544156.2799999998,"ADDRESS":"中華西路二段２５０號","OBJECTID":157727},"geometry":{"x":166621.55999999959,"y":2544156.2799999993}},{"attributes":{"ID":157729,"DIS_CODE":0,"TOWNNAME":"中西區","LI":"大涼里","LIN":"19鄰","STREET":"府前一街","SECT":" ","MAREA":" ","LANE":" ","ALLEY":" ","HOUSE_NO":"１４５號","E_COORD97":166674.16,"N_COORD97":2544110.1400000001,"ADDRESS":"府前一街１４５號","OBJECTID":157728},"geometry":{"x":166674.16000000015,"y":2544110.1400000025}},{"attributes":{"ID":157730,"DIS_CODE":0,"TOWNNAME":"鹽水區","LI":"河南里","LIN":"5鄰","STREET":" ","SECT":" ","MAREA":"?頭港","LANE":" ","ALLEY":" ","HOUSE_NO":"３９號","E_COORD97":173023.20999999999,"N_COORD97":2572710.1899999999,"ADDRESS":"?頭港３９號","OBJECTID":157729},"geometry":{"x":173023.21000000089,"y":2572710.1899999995}},{"attributes":{"ID":157731,"DIS_CODE":0,"TOWNNAME":"中西區","LI":"大涼里","LIN":"19鄰","STREET":"府前一街","SECT":" ","MAREA":" ","LANE":" ","ALLEY":" ","HOUSE_NO":"１４７號","E_COORD97":166660.66,"N_COORD97":2544105.8100000001,"ADDRESS":"府前一街１４７號","OBJECTID":157730},"geometry":{"x":166660.66000000015,"y":2544105.8100000005}},{"attributes":{"ID":157732,"DIS_CODE":0,"TOWNNAME":"中西區","LI":"大涼里","LIN":"19鄰","STREET":"府前一街","SECT":" ","MAREA":" ","LANE":" ","ALLEY":" ","HOUSE_NO":"１４９號","E_COORD97":166652.42999999999,"N_COORD97":2544103.29,"ADDRESS":"府前一街１４９號","OBJECTID":157731},"geometry":{"x":166652.43000000063,"y":2544103.290000001}},{"attributes":{"ID":157733,"DIS_CODE":0,"TOWNNAME":"永康區","LI":"尚頂里","LIN":"2鄰","STREET":"中正南路","SECT":" ","MAREA":" ","LANE":"３４４巷","ALLEY":"１１弄","HOUSE_NO":"１６號","E_COORD97":171091.42999999999,"N_COORD97":2547983.1099999999,"ADDRESS":"中正南路３４４巷１１弄１６號","OBJECTID":157732},"geometry":{"x":171091.4299999997,"y":2547983.1100000013}},{"attributes":{"ID":157734,"DIS_CODE":0,"TOWNNAME":"南化區","LI":"小崙里","LIN":"5鄰","STREET":" ","SECT":" ","MAREA":"小崙","LANE":" ","ALLEY":" ","HOUSE_NO":"４８號之１２","E_COORD97":197222.98999999999,"N_COORD97":2549785.7999999998,"ADDRESS":"小崙４８號之１２","OBJECTID":157733},"geometry":{"x":197222.99000000022,"y":2549785.8000000007}},{"attributes":{"ID":157735,"DIS_CODE":0,"TOWNNAME":"南化區","LI":"玉山里","LIN":"5鄰","STREET":" ","SECT":" ","MAREA":"玉山","LANE":" ","ALLEY":" ","HOUSE_NO":"４９號之２","E_COORD97":200802.14000000001,"N_COORD97":2552474.7999999998,"ADDRESS":"玉山４９號之２","OBJECTID":157734},"geometry":{"x":200802.14000000153,"y":2552474.8000000007}},{"attributes":{"ID":157736,"DIS_CODE":0,"TOWNNAME":"南化區","LI":"玉山里","LIN":"5鄰","STREET":" ","SECT":" ","MAREA":"玉山","LANE":" ","ALLEY":" ","HOUSE_NO":"４８號之２","E_COORD97":200755.14000000001,"N_COORD97":2552619.7999999998,"ADDRESS":"玉山４８號之２","OBJECTID":157735},"geometry":{"x":200755.1400000006,"y":2552619.8000000007}},{"attributes":{"ID":157737,"DIS_CODE":0,"TOWNNAME":"南化區","LI":"玉山里","LIN":"5鄰","STREET":" ","SECT":" ","MAREA":"玉山","LANE":" ","ALLEY":" ","HOUSE_NO":"４６號","E_COORD97":200718.26999999999,"N_COORD97":2552555.75,"ADDRESS":"玉山４６號","OBJECTID":157736},"geometry":{"x":200718.27000000048,"y":2552555.75}},{"attributes":{"ID":157738,"DIS_CODE":0,"TOWNNAME":"南化區","LI":"東和里","LIN":"5鄰","STREET":" ","SECT":" ","MAREA":"東和","LANE":" ","ALLEY":" ","HOUSE_NO":"４０號之４","E_COORD97":195653.82999999999,"N_COORD97":2545066.7999999998,"ADDRESS":"東和４０號之４","OBJECTID":157737},"geometry":{"x":195653.83000000007,"y":2545066.8000000007}},{"attributes":{"ID":157739,"DIS_CODE":0,"TOWNNAME":"南化區","LI":"玉山里","LIN":"5鄰","STREET":" ","SECT":" ","MAREA":"玉山","LANE":" ","ALLEY":" ","HOUSE_NO":"４８號之１５","E_COORD97":200757.10999999999,"N_COORD97":2552574.7999999998,"ADDRESS":"玉山４８號之１５","OBJECTID":157738},"geometry":{"x":200757.1100000022,"y":2552574.8000000026}},{"attributes":{"ID":157740,"DIS_CODE":0,"TOWNNAME":"南化區","LI":"北寮里","LIN":"5鄰","STREET":" ","SECT":" ","MAREA":"北寮","LANE":" ","ALLEY":" ","HOUSE_NO":"６０之８號","E_COORD97":197522.98999999999,"N_COORD97":2553635.7999999998,"ADDRESS":"北寮６０之８號","OBJECTID":157739},"geometry":{"x":197522.99000000022,"y":2553635.8000000026}},{"attributes":{"ID":157741,"DIS_CODE":0,"TOWNNAME":"南化區","LI":"小崙里","LIN":"5鄰","STREET":" ","SECT":" ","MAREA":"小崙","LANE":" ","ALLEY":" ","HOUSE_NO":"５０號之５","E_COORD97":197207.06,"N_COORD97":2549675.7999999998,"ADDRESS":"小崙５０號之５","OBJECTID":157740},"geometry":{"x":197207.06000000145,"y":2549675.8000000026}},{"attributes":{"ID":157742,"DIS_CODE":0,"TOWNNAME":"永康區","LI":"南灣里","LIN":"4鄰","STREET":"大灣路","SECT":" ","MAREA":" ","LANE":"５３７巷","ALLEY":"１３弄","HOUSE_NO":"５號","E_COORD97":174506.64999999999,"N_COORD97":2544546.7000000002,"ADDRESS":"大灣路５３７巷１３弄５號","OBJECTID":157741},"geometry":{"x":174506.65000000037,"y":2544546.6999999993}},{"attributes":{"ID":157743,"DIS_CODE":0,"TOWNNAME":"南化區","LI":"東和里","LIN":"5鄰","STREET":" ","SECT":" ","MAREA":"東和","LANE":" ","ALLEY":" ","HOUSE_NO":"３８號","E_COORD97":195801.26999999999,"N_COORD97":2545125.75,"ADDRESS":"東和３８號","OBJECTID":157742},"geometry":{"x":195801.26999999955,"y":2545125.7500000019}},{"attributes":{"ID":157744,"DIS_CODE":0,"TOWNNAME":"永康區","LI":"尚頂里","LIN":"2鄰","STREET":"中正南路","SECT":" ","MAREA":" ","LANE":"３４４巷","ALLEY":"１１弄","HOUSE_NO":"４號","E_COORD97":171067.26999999999,"N_COORD97":2547953.8500000001,"ADDRESS":"中正南路３４４巷１１弄４號","OBJECTID":157743},"geometry":{"x":171067.26999999862,"y":2547953.8499999996}},{"attributes":{"ID":157745,"DIS_CODE":0,"TOWNNAME":"仁德區","LI":"二行里","LIN":"2鄰","STREET":"二行一路","SECT":" ","MAREA":" ","LANE":"１５３巷","ALLEY":"１６弄","HOUSE_NO":"２６號","E_COORD97":170467.76999999999,"N_COORD97":2535600.4900000002,"ADDRESS":"二行一路１５３巷１６弄２６號","OBJECTID":157744},"geometry":{"x":170467.77000000048,"y":2535600.4900000021}},{"attributes":{"ID":157746,"DIS_CODE":0,"TOWNNAME":"東區","LI":"虎尾里","LIN":"2鄰","STREET":"東門路","SECT":"三段","MAREA":" ","LANE":"１７９巷","ALLEY":"１６弄","HOUSE_NO":"２號","E_COORD97":171575.01999999999,"N_COORD97":2542000.4700000002,"ADDRESS":"東門路三段１７９巷１６弄２號","OBJECTID":157745},"geometry":{"x":171575.02000000048,"y":2542000.4700000007}},{"attributes":{"ID":157747,"DIS_CODE":0,"TOWNNAME":"東區","LI":"虎尾里","LIN":"2鄰","STREET":"東門路","SECT":"三段","MAREA":" ","LANE":"１７９巷","ALLEY":"１６弄","HOUSE_NO":"３號","E_COORD97":171587.10000000001,"N_COORD97":2541994.0099999998,"ADDRESS":"東門路三段１７９巷１６弄３號","OBJECTID":157746},"geometry":{"x":171587.09999999963,"y":2541994.0100000016}},{"attributes":{"ID":157748,"DIS_CODE":0,"TOWNNAME":"東區","LI":"虎尾里","LIN":"2鄰","STREET":"東門路","SECT":"三段","MAREA":" ","LANE":"１７９巷","ALLEY":"１６弄","HOUSE_NO":"５號","E_COORD97":171587.10000000001,"N_COORD97":2541989.0699999998,"ADDRESS":"東門路三段１７９巷１６弄５號","OBJECTID":157747},"geometry":{"x":171587.09999999963,"y":2541989.0700000003}},{"attributes":{"ID":157749,"DIS_CODE":0,"TOWNNAME":"東區","LI":"虎尾里","LIN":"2鄰","STREET":"東門路","SECT":"三段","MAREA":" ","LANE":"１７９巷","ALLEY":"１６弄","HOUSE_NO":"６號","E_COORD97":171575.70000000001,"N_COORD97":2541994.3500000001,"ADDRESS":"東門路三段１７９巷１６弄６號","OBJECTID":157748},"geometry":{"x":171575.70000000112,"y":2541994.3500000015}},{"attributes":{"ID":157750,"DIS_CODE":0,"TOWNNAME":"南化區","LI":"玉山里","LIN":"5鄰","STREET":" ","SECT":" ","MAREA":"玉山","LANE":" ","ALLEY":" ","HOUSE_NO":"５０號之１","E_COORD97":200780.89999999999,"N_COORD97":2552540.7999999998,"ADDRESS":"玉山５０號之１","OBJECTID":157749},"geometry":{"x":200780.9000000013,"y":2552540.8000000026}},{"attributes":{"ID":157751,"DIS_CODE":0,"TOWNNAME":"東區","LI":"虎尾里","LIN":"2鄰","STREET":"東門路","SECT":"三段","MAREA":" ","LANE":"１７９巷","ALLEY":"１６弄","HOUSE_NO":"７號","E_COORD97":171587.60999999999,"N_COORD97":2541984.8199999998,"ADDRESS":"東門路三段１７９巷１６弄７號","OBJECTID":157750},"geometry":{"x":171587.61000000034,"y":2541984.820000004}},{"attributes":{"ID":157752,"DIS_CODE":0,"TOWNNAME":"東區","LI":"虎尾里","LIN":"2鄰","STREET":"東門路","SECT":"三段","MAREA":" ","LANE":"１７９巷","ALLEY":"１６弄","HOUSE_NO":"１號","E_COORD97":171586.59,"N_COORD97":2542001.4900000002,"ADDRESS":"東門路三段１７９巷１６弄１號","OBJECTID":157751},"geometry":{"x":171586.59000000078,"y":2542001.4900000021}},{"attributes":{"ID":157753,"DIS_CODE":0,"TOWNNAME":"中西區","LI":"大涼里","LIN":"19鄰","STREET":"府前一街","SECT":" ","MAREA":" ","LANE":" ","ALLEY":" ","HOUSE_NO":"１５１號","E_COORD97":166652.01000000001,"N_COORD97":2544109.02,"ADDRESS":"府前一街１５１號","OBJECTID":157752},"geometry":{"x":166652.01000000071,"y":2544109.0200000014}},{"attributes":{"ID":157754,"DIS_CODE":0,"TOWNNAME":"南化區","LI":"玉山里","LIN":"5鄰","STREET":" ","SECT":" ","MAREA":"玉山","LANE":" ","ALLEY":" ","HOUSE_NO":"５３號之２","E_COORD97":200777.94,"N_COORD97":2552578.7999999998,"ADDRESS":"玉山５３號之２","OBJECTID":157753},"geometry":{"x":200777.94000000041,"y":2552578.8000000007}},{"attributes":{"ID":157755,"DIS_CODE":0,"TOWNNAME":"南化區","LI":"玉山里","LIN":"5鄰","STREET":" ","SECT":" ","MAREA":"玉山","LANE":" ","ALLEY":" ","HOUSE_NO":"４５之３號","E_COORD97":200753.97,"N_COORD97":2552489.7999999998,"ADDRESS":"玉山４５之３號","OBJECTID":157754},"geometry":{"x":200753.96999999881,"y":2552489.8000000026}},{"attributes":{"ID":157756,"DIS_CODE":0,"TOWNNAME":"南化區","LI":"北寮里","LIN":"5鄰","STREET":" ","SECT":" ","MAREA":"北寮","LANE":" ","ALLEY":" ","HOUSE_NO":"７６號","E_COORD97":197762.98999999999,"N_COORD97":2553133.75,"ADDRESS":"北寮７６號","OBJECTID":157755},"geometry":{"x":197762.99000000115,"y":2553133.7500000019}},{"attributes":{"ID":157757,"DIS_CODE":0,"TOWNNAME":"南化區","LI":"東和里","LIN":"5鄰","STREET":" ","SECT":" ","MAREA":"東和","LANE":" ","ALLEY":" ","HOUSE_NO":"４１號之１","E_COORD97":195609.60000000001,"N_COORD97":2545009.7999999998,"ADDRESS":"東和４１號之１","OBJECTID":157756},"geometry":{"x":195609.59999999963,"y":2545009.8000000045}},{"attributes":{"ID":157758,"DIS_CODE":0,"TOWNNAME":"南化區","LI":"東和里","LIN":"5鄰","STREET":" ","SECT":" ","MAREA":"東和","LANE":" ","ALLEY":" ","HOUSE_NO":"４６號之１","E_COORD97":195608,"N_COORD97":2544860.7999999998,"ADDRESS":"東和４６號之１","OBJECTID":157757},"geometry":{"x":195608.00000000093,"y":2544860.8000000026}},{"attributes":{"ID":157759,"DIS_CODE":0,"TOWNNAME":"南化區","LI":"玉山里","LIN":"5鄰","STREET":" ","SECT":" ","MAREA":"玉山","LANE":" ","ALLEY":" ","HOUSE_NO":"４４號之５","E_COORD97":200785.35999999999,"N_COORD97":2552289.7999999998,"ADDRESS":"玉山４４號之５","OBJECTID":157758},"geometry":{"x":200785.36000000034,"y":2552289.8000000026}},{"attributes":{"ID":157760,"DIS_CODE":0,"TOWNNAME":"南化區","LI":"東和里","LIN":"5鄰","STREET":" ","SECT":" ","MAREA":"東和","LANE":" ","ALLEY":" ","HOUSE_NO":"３９號之６","E_COORD97":195651.81,"N_COORD97":2545108.7999999998,"ADDRESS":"東和３９號之６","OBJECTID":157759},"geometry":{"x":195651.80999999959,"y":2545108.8000000026}},{"attributes":{"ID":157761,"DIS_CODE":0,"TOWNNAME":"南化區","LI":"東和里","LIN":"5鄰","STREET":" ","SECT":" ","MAREA":"東和","LANE":" ","ALLEY":" ","HOUSE_NO":"４０號之５","E_COORD97":195654.16,"N_COORD97":2545063.7999999998,"ADDRESS":"東和４０號之５","OBJECTID":157760},"geometry":{"x":195654.16000000201,"y":2545063.8000000045}},{"attributes":{"ID":157762,"DIS_CODE":0,"TOWNNAME":"東區","LI":"崇信里","LIN":"19鄰","STREET":"崇善一街","SECT":" ","MAREA":" ","LANE":" ","ALLEY":" ","HOUSE_NO":"４０號","E_COORD97":170742.34,"N_COORD97":2542183.48,"ADDRESS":"崇善一街４０號","OBJECTID":157761},"geometry":{"x":170742.34000000078,"y":2542183.4800000004}},{"attributes":{"ID":157763,"DIS_CODE":0,"TOWNNAME":"東山區","LI":"大客里","LIN":"12鄰","STREET":" ","SECT":" ","MAREA":"大庄","LANE":" ","ALLEY":" ","HOUSE_NO":"９４號","E_COORD97":190560.64000000001,"N_COORD97":2578930.52,"ADDRESS":"大庄９４號","OBJECTID":157762},"geometry":{"x":190560.63999999966,"y":2578930.5199999996}},{"attributes":{"ID":157764,"DIS_CODE":0,"TOWNNAME":"東區","LI":"崇信里","LIN":"19鄰","STREET":"崇善一街","SECT":" ","MAREA":" ","LANE":" ","ALLEY":" ","HOUSE_NO":"４８號","E_COORD97":170752.35000000001,"N_COORD97":2542197.5699999998,"ADDRESS":"崇善一街４８號","OBJECTID":157763},"geometry":{"x":170752.35000000056,"y":2542197.5700000022}},{"attributes":{"ID":157765,"DIS_CODE":0,"TOWNNAME":"東區","LI":"崇信里","LIN":"19鄰","STREET":"崇善一街","SECT":" ","MAREA":" ","LANE":" ","ALLEY":" ","HOUSE_NO":"５０號","E_COORD97":170757.32999999999,"N_COORD97":2542201.0800000001,"ADDRESS":"崇善一街５０號","OBJECTID":157764},"geometry":{"x":170757.33000000194,"y":2542201.0800000019}},{"attributes":{"ID":157766,"DIS_CODE":0,"TOWNNAME":"東區","LI":"崇信里","LIN":"19鄰","STREET":"崇善一街","SECT":" ","MAREA":" ","LANE":" ","ALLEY":" ","HOUSE_NO":"５０號之１","E_COORD97":170759.17000000001,"N_COORD97":2542205.1299999999,"ADDRESS":"崇善一街５０號之１","OBJECTID":157765},"geometry":{"x":170759.16999999993,"y":2542205.1300000027}},{"attributes":{"ID":157767,"DIS_CODE":0,"TOWNNAME":"東區","LI":"崇信里","LIN":"19鄰","STREET":"崇善一街","SECT":" ","MAREA":" ","LANE":" ","ALLEY":" ","HOUSE_NO":"５０號之２","E_COORD97":170762.48999999999,"N_COORD97":2542208.0800000001,"ADDRESS":"崇善一街５０號之２","OBJECTID":157766},"geometry":{"x":170762.49000000022,"y":2542208.0800000019}},{"attributes":{"ID":157768,"DIS_CODE":0,"TOWNNAME":"中西區","LI":"保安里","LIN":" ","STREET":"康樂街","SECT":" ","MAREA":" ","LANE":" ","ALLEY":" ","HOUSE_NO":"９６之６號","E_COORD97":167449.23000000001,"N_COORD97":2543694.3300000001,"ADDRESS":"康樂街９６之６號","OBJECTID":157767},"geometry":{"x":167449.23000000045,"y":2543694.3300000019}},{"attributes":{"ID":157769,"DIS_CODE":0,"TOWNNAME":"中西區","LI":"保安里","LIN":" ","STREET":"康樂街","SECT":" ","MAREA":" ","LANE":" ","ALLEY":" ","HOUSE_NO":"９６之９號","E_COORD97":167454.48000000001,"N_COORD97":2543688.7000000002,"ADDRESS":"康樂街９６之９號","OBJECTID":157768},"geometry":{"x":167454.48000000231,"y":2543688.6999999993}},{"attributes":{"ID":157770,"DIS_CODE":0,"TOWNNAME":"中西區","LI":"保安里","LIN":" ","STREET":"康樂街","SECT":" ","MAREA":" ","LANE":" ","ALLEY":" ","HOUSE_NO":"９６之１０號","E_COORD97":167457.23000000001,"N_COORD97":2543691.5800000001,"ADDRESS":"康樂街９６之１０號","OBJECTID":157769},"geometry":{"x":167457.23000000045,"y":2543691.5800000038}},{"attributes":{"ID":157771,"DIS_CODE":0,"TOWNNAME":"中西區","LI":"保安里","LIN":" ","STREET":"康樂街","SECT":" ","MAREA":" ","LANE":" ","ALLEY":" ","HOUSE_NO":"９６之１１號","E_COORD97":167456.85999999999,"N_COORD97":2543688.8300000001,"ADDRESS":"康樂街９６之１１號","OBJECTID":157770},"geometry":{"x":167456.8600000022,"y":2543688.8300000001}},{"attributes":{"ID":157772,"DIS_CODE":0,"TOWNNAME":"東區","LI":"虎尾里","LIN":"2鄰","STREET":"東門路","SECT":"三段","MAREA":" ","LANE":"１７９巷","ALLEY":"１６弄","HOUSE_NO":"１０號","E_COORD97":171578.25,"N_COORD97":2541979.21,"ADDRESS":"東門路三段１７９巷１６弄１０號","OBJECTID":157771},"geometry":{"x":171578.25000000186,"y":2541979.209999999}},{"attributes":{"ID":157773,"DIS_CODE":0,"TOWNNAME":"東區","LI":"虎尾里","LIN":"2鄰","STREET":"東門路","SECT":"三段","MAREA":" ","LANE":"１７９巷","ALLEY":"１６弄","HOUSE_NO":"１１號","E_COORD97":171587.95000000001,"N_COORD97":2541974.1099999999,"ADDRESS":"東門路三段１７９巷１６弄１１號","OBJECTID":157772},"geometry":{"x":171587.95000000112,"y":2541974.1099999994}},{"attributes":{"ID":157774,"DIS_CODE":0,"TOWNNAME":"中西區","LI":"保安里","LIN":" ","STREET":"康樂街","SECT":" ","MAREA":" ","LANE":" ","ALLEY":" ","HOUSE_NO":"９６之１２號","E_COORD97":167456.23000000001,"N_COORD97":2543685.71,"ADDRESS":"康樂街９６之１２號","OBJECTID":157773},"geometry":{"x":167456.23000000231,"y":2543685.7100000028}},{"attributes":{"ID":157775,"DIS_CODE":0,"TOWNNAME":"東區","LI":"虎尾里","LIN":"2鄰","STREET":"東門路","SECT":"三段","MAREA":" ","LANE":"１７９巷","ALLEY":"１６弄","HOUSE_NO":"１２號","E_COORD97":171578.25,"N_COORD97":2541973.2599999998,"ADDRESS":"東門路三段１７９巷１６弄１２號","OBJECTID":157774},"geometry":{"x":171578.25000000186,"y":2541973.2599999998}},{"attributes":{"ID":157776,"DIS_CODE":0,"TOWNNAME":"東區","LI":"虎尾里","LIN":"2鄰","STREET":"東門路","SECT":"三段","MAREA":" ","LANE":"１７９巷","ALLEY":"１６弄","HOUSE_NO":"１３號","E_COORD97":171588.79999999999,"N_COORD97":2541968.6600000001,"ADDRESS":"東門路三段１７９巷１６弄１３號","OBJECTID":157775},"geometry":{"x":171588.79999999981,"y":2541968.6600000039}},{"attributes":{"ID":157777,"DIS_CODE":0,"TOWNNAME":"東區","LI":"虎尾里","LIN":"2鄰","STREET":"東門路","SECT":"三段","MAREA":" ","LANE":"１７９巷","ALLEY":"１６弄","HOUSE_NO":"１５號","E_COORD97":171589.48000000001,"N_COORD97":2541962.3700000001,"ADDRESS":"東門路三段１７９巷１６弄１５號","OBJECTID":157776},"geometry":{"x":171589.48000000138,"y":2541962.3700000029}},{"attributes":{"ID":157778,"DIS_CODE":0,"TOWNNAME":"東區","LI":"虎尾里","LIN":"2鄰","STREET":"東門路","SECT":"三段","MAREA":" ","LANE":"１７９巷","ALLEY":"１６弄","HOUSE_NO":"１６號","E_COORD97":171579.44,"N_COORD97":2541967.4700000002,"ADDRESS":"東門路三段１７９巷１６弄１６號","OBJECTID":157777},"geometry":{"x":171579.44000000134,"y":2541967.4700000044}},{"attributes":{"ID":157779,"DIS_CODE":0,"TOWNNAME":"永康區","LI":"中興里","LIN":"10鄰","STREET":"忠孝路","SECT":" ","MAREA":" ","LANE":"２３９巷","ALLEY":"２０弄","HOUSE_NO":"８號","E_COORD97":172035.01000000001,"N_COORD97":2545081.5,"ADDRESS":"忠孝路２３９巷２０弄８號","OBJECTID":157778},"geometry":{"x":172035.00999999978,"y":2545081.5}},{"attributes":{"ID":157780,"DIS_CODE":0,"TOWNNAME":"東區","LI":"虎尾里","LIN":"2鄰","STREET":"東門路","SECT":"三段","MAREA":" ","LANE":"１７９巷","ALLEY":"１６弄","HOUSE_NO":"１７號","E_COORD97":171589.64999999999,"N_COORD97":2541957.1000000001,"ADDRESS":"東門路三段１７９巷１６弄１７號","OBJECTID":157779},"geometry":{"x":171589.6500000013,"y":2541957.0999999996}},{"attributes":{"ID":157781,"DIS_CODE":0,"TOWNNAME":"東區","LI":"虎尾里","LIN":"2鄰","STREET":"東門路","SECT":"三段","MAREA":" ","LANE":"１７９巷","ALLEY":"１６弄","HOUSE_NO":"１８號","E_COORD97":171579.44,"N_COORD97":2541961.0099999998,"ADDRESS":"東門路三段１７９巷１６弄１８號","OBJECTID":157780},"geometry":{"x":171579.44000000134,"y":2541961.0099999998}},{"attributes":{"ID":157782,"DIS_CODE":0,"TOWNNAME":"永康區","LI":"西灣里","LIN":"27鄰","STREET":"國光八街","SECT":" ","MAREA":" ","LANE":"１２巷","ALLEY":"３弄","HOUSE_NO":"２號","E_COORD97":174431.22,"N_COORD97":2545811.5099999998,"ADDRESS":"國光八街１２巷３弄２號","OBJECTID":157781},"geometry":{"x":174431.2200000016,"y":2545811.5100000016}},{"attributes":{"ID":157783,"DIS_CODE":0,"TOWNNAME":"永康區","LI":"龍潭里","LIN":"2鄰","STREET":"龍潭街","SECT":" ","MAREA":" ","LANE":"８９巷","ALLEY":"６弄","HOUSE_NO":"１號","E_COORD97":174809.98999999999,"N_COORD97":2548129.29,"ADDRESS":"龍潭街８９巷６弄１號","OBJECTID":157782},"geometry":{"x":174809.99000000115,"y":2548129.2899999991}},{"attributes":{"ID":157784,"DIS_CODE":0,"TOWNNAME":"永康區","LI":"東橋里","LIN":"27鄰","STREET":"中正路","SECT":" ","MAREA":" ","LANE":"２７９巷","ALLEY":"２弄","HOUSE_NO":"３５號","E_COORD97":172681.67999999999,"N_COORD97":2547926.4900000002,"ADDRESS":"中正路２７９巷２弄３５號","OBJECTID":157783},"geometry":{"x":172681.6799999997,"y":2547926.4900000002}},{"attributes":{"ID":157785,"DIS_CODE":0,"TOWNNAME":"永康區","LI":"蔦松里","LIN":"2鄰","STREET":"中正北路","SECT":" ","MAREA":" ","LANE":"５２１巷","ALLEY":"８弄","HOUSE_NO":"１６號","E_COORD97":173862.72,"N_COORD97":2549207,"ADDRESS":"中正北路５２１巷８弄１６號","OBJECTID":157784},"geometry":{"x":173862.71999999974,"y":2549207}},{"attributes":{"ID":157786,"DIS_CODE":0,"TOWNNAME":"永康區","LI":"蔦松里","LIN":"2鄰","STREET":"蔦松二街","SECT":" ","MAREA":" ","LANE":"１２４巷","ALLEY":"３５弄","HOUSE_NO":"２號之５","E_COORD97":173868.94,"N_COORD97":2549283.0299999998,"ADDRESS":"蔦松二街１２４巷３５弄２號之５","OBJECTID":157785},"geometry":{"x":173868.94000000041,"y":2549283.0300000012}},{"attributes":{"ID":157787,"DIS_CODE":0,"TOWNNAME":"永康區","LI":"龍潭里","LIN":"2鄰","STREET":"龍潭街","SECT":" ","MAREA":" ","LANE":"８９巷","ALLEY":"６弄","HOUSE_NO":"２３號","E_COORD97":174813.63,"N_COORD97":2548138.04,"ADDRESS":"龍潭街８９巷６弄２３號","OBJECTID":157786},"geometry":{"x":174813.63000000082,"y":2548138.0399999991}},{"attributes":{"ID":157788,"DIS_CODE":0,"TOWNNAME":"中西區","LI":"保安里","LIN":" ","STREET":"康樂街","SECT":" ","MAREA":" ","LANE":" ","ALLEY":" ","HOUSE_NO":"９６之１３號","E_COORD97":167455.73000000001,"N_COORD97":2543682.21,"ADDRESS":"康樂街９６之１３號","OBJECTID":157787},"geometry":{"x":167455.73000000045,"y":2543682.2100000028}},{"attributes":{"ID":157789,"DIS_CODE":0,"TOWNNAME":"佳里區","LI":"忠仁里","LIN":"19鄰","STREET":" ","SECT":" ","MAREA":"忠仁","LANE":" ","ALLEY":" ","HOUSE_NO":"１１２號","E_COORD97":166105.16,"N_COORD97":2562057,"ADDRESS":"忠仁１１２號","OBJECTID":157788},"geometry":{"x":166105.15999999922,"y":2562057}},{"attributes":{"ID":157790,"DIS_CODE":0,"TOWNNAME":"南化區","LI":"北寮里","LIN":"5鄰","STREET":" ","SECT":" ","MAREA":"北寮","LANE":" ","ALLEY":" ","HOUSE_NO":"６０號","E_COORD97":197603.98999999999,"N_COORD97":2553432.75,"ADDRESS":"北寮６０號","OBJECTID":157789},"geometry":{"x":197603.99000000022,"y":2553432.75}},{"attributes":{"ID":157791,"DIS_CODE":0,"TOWNNAME":"南化區","LI":"玉山里","LIN":"5鄰","STREET":" ","SECT":" ","MAREA":"玉山","LANE":" ","ALLEY":" ","HOUSE_NO":"４９之３號","E_COORD97":200777.76999999999,"N_COORD97":2552519.7999999998,"ADDRESS":"玉山４９之３號","OBJECTID":157790},"geometry":{"x":200777.77000000048,"y":2552519.8000000026}},{"attributes":{"ID":157792,"DIS_CODE":0,"TOWNNAME":"南化區","LI":"玉山里","LIN":"5鄰","STREET":" ","SECT":" ","MAREA":"玉山","LANE":" ","ALLEY":" ","HOUSE_NO":"４５號之２","E_COORD97":200710.84,"N_COORD97":2552483.7999999998,"ADDRESS":"玉山４５號之２","OBJECTID":157791},"geometry":{"x":200710.83999999985,"y":2552483.8000000007}},{"attributes":{"ID":157793,"DIS_CODE":0,"TOWNNAME":"南化區","LI":"東和里","LIN":"5鄰","STREET":" ","SECT":" ","MAREA":"東和","LANE":" ","ALLEY":" ","HOUSE_NO":"４１號之４","E_COORD97":195601.82999999999,"N_COORD97":2545036.7999999998,"ADDRESS":"東和４１號之４","OBJECTID":157792},"geometry":{"x":195601.83000000007,"y":2545036.8000000045}},{"attributes":{"ID":157794,"DIS_CODE":0,"TOWNNAME":"永康區","LI":"龍潭里","LIN":"2鄰","STREET":"龍潭街","SECT":" ","MAREA":" ","LANE":"８９巷","ALLEY":"６弄","HOUSE_NO":"４０號","E_COORD97":174780.95999999999,"N_COORD97":2548142.79,"ADDRESS":"龍潭街８９巷６弄４０號","OBJECTID":157793},"geometry":{"x":174780.96000000089,"y":2548142.7899999991}},{"attributes":{"ID":157795,"DIS_CODE":0,"TOWNNAME":"南化區","LI":"南化里","LIN":"5鄰","STREET":" ","SECT":" ","MAREA":"南化","LANE":" ","ALLEY":" ","HOUSE_NO":"４７號之４","E_COORD97":196170.35000000001,"N_COORD97":2549284.7999999998,"ADDRESS":"南化４７號之４","OBJECTID":157794},"geometry":{"x":196170.34999999963,"y":2549284.8000000045}},{"attributes":{"ID":157796,"DIS_CODE":0,"TOWNNAME":"永康區","LI":"龍潭里","LIN":"2鄰","STREET":"龍潭街","SECT":" ","MAREA":" ","LANE":"８９巷","ALLEY":"６弄","HOUSE_NO":"１３號","E_COORD97":174786.79000000001,"N_COORD97":2548145.29,"ADDRESS":"龍潭街８９巷６弄１３號","OBJECTID":157795},"geometry":{"x":174786.79000000004,"y":2548145.290000001}},{"attributes":{"ID":157797,"DIS_CODE":0,"TOWNNAME":"永康區","LI":"西勢里","LIN":"24鄰","STREET":"廣興街","SECT":" ","MAREA":" ","LANE":"３８巷","ALLEY":"１４弄","HOUSE_NO":"２號","E_COORD97":175943.04000000001,"N_COORD97":2546509.2000000002,"ADDRESS":"廣興街３８巷１４弄２號","OBJECTID":157796},"geometry":{"x":175943.03999999911,"y":2546509.1999999993}},{"attributes":{"ID":157798,"DIS_CODE":0,"TOWNNAME":"永康區","LI":"北灣里","LIN":"24鄰","STREET":"大灣路","SECT":" ","MAREA":" ","LANE":"３７巷","ALLEY":"３０弄","HOUSE_NO":"１８號","E_COORD97":175427.06,"N_COORD97":2545813.4700000002,"ADDRESS":"大灣路３７巷３０弄１８號","OBJECTID":157797},"geometry":{"x":175427.05999999866,"y":2545813.4700000025}},{"attributes":{"ID":157799,"DIS_CODE":0,"TOWNNAME":"東區","LI":"泉南里","LIN":"2鄰","STREET":"東門路","SECT":"一段","MAREA":" ","LANE":"５２巷","ALLEY":"３弄","HOUSE_NO":"１０號","E_COORD97":169334.42999999999,"N_COORD97":2543155.1699999999,"ADDRESS":"東門路一段５２巷３弄１０號","OBJECTID":157798},"geometry":{"x":169334.43000000063,"y":2543155.1700000037}},{"attributes":{"ID":157800,"DIS_CODE":0,"TOWNNAME":"東區","LI":"泉南里","LIN":"2鄰","STREET":"東門路","SECT":"一段","MAREA":" ","LANE":"５２巷","ALLEY":"３弄","HOUSE_NO":"１２號","E_COORD97":169341.12,"N_COORD97":2543153.0800000001,"ADDRESS":"東門路一段５２巷３弄１２號","OBJECTID":157799},"geometry":{"x":169341.12000000011,"y":2543153.0800000019}},{"attributes":{"ID":157801,"DIS_CODE":0,"TOWNNAME":"東區","LI":"虎尾里","LIN":"2鄰","STREET":"東門路","SECT":"三段","MAREA":" ","LANE":"１７９巷","ALLEY":"５８弄","HOUSE_NO":"１２號","E_COORD97":171682.97,"N_COORD97":2541977.5600000001,"ADDRESS":"東門路三段１７９巷５８弄１２號","OBJECTID":157800},"geometry":{"x":171682.96999999974,"y":2541977.5600000024}}]}