{"displayFieldName":"TOWNNAME","fieldAliases":{"ID":"ID","DIS_CODE":"DIS_CODE","TOWNNAME":"TOWNNAME","LI":"LI","LIN":"LIN","STREET":"STREET","SECT":"SECT","MAREA":"MAREA","LANE":"LANE","ALLEY":"ALLEY","HOUSE_NO":"HOUSE_NO","E_COORD97":"E_COORD97","N_COORD97":"N_COORD97","ADDRESS":"ADDRESS","OBJECTID":"OBJECTID"},"geometryType":"esriGeometryPoint","spatialReference":{"wkid":102443,"latestWkid":3826},"fields":[{"name":"ID","type":"esriFieldTypeDouble","alias":"ID"},{"name":"DIS_CODE","type":"esriFieldTypeInteger","alias":"DIS_CODE"},{"name":"TOWNNAME","type":"esriFieldTypeString","alias":"TOWNNAME","length":8},{"name":"LI","type":"esriFieldTypeString","alias":"LI","length":8},{"name":"LIN","type":"esriFieldTypeString","alias":"LIN","length":12},{"name":"STREET","type":"esriFieldTypeString","alias":"STREET","length":20},{"name":"SECT","type":"esriFieldTypeString","alias":"SECT","length":8},{"name":"MAREA","type":"esriFieldTypeString","alias":"MAREA","length":12},{"name":"LANE","type":"esriFieldTypeString","alias":"LANE","length":10},{"name":"ALLEY","type":"esriFieldTypeString","alias":"ALLEY","length":10},{"name":"HOUSE_NO","type":"esriFieldTypeString","alias":"HOUSE_NO","length":20},{"name":"E_COORD97","type":"esriFieldTypeDouble","alias":"E_COORD97"},{"name":"N_COORD97","type":"esriFieldTypeDouble","alias":"N_COORD97"},{"name":"ADDRESS","type":"esriFieldTypeString","alias":"ADDRESS","length":50},{"name":"OBJECTID","type":"esriFieldTypeOID","alias":"OBJECTID"}],"features":[{"attributes":{"ID":54601,"DIS_CODE":0,"TOWNNAME":"北區","LI":"永祥里","LIN":"1鄰","STREET":"大武街","SECT":" ","MAREA":" ","LANE":"５２５巷","ALLEY":"１弄","HOUSE_NO":"３１號","E_COORD97":169998.17000000001,"N_COORD97":2546478.0299999998,"ADDRESS":"大武街５２５巷１弄３１號","OBJECTID":54601},"geometry":{"x":169998.16999999993,"y":2546478.0300000031}},{"attributes":{"ID":54602,"DIS_CODE":0,"TOWNNAME":"北區","LI":"永祥里","LIN":"1鄰","STREET":"大武街","SECT":" ","MAREA":" ","LANE":"５２５巷","ALLEY":"１弄","HOUSE_NO":"３號","E_COORD97":170050.56,"N_COORD97":2546459.6400000001,"ADDRESS":"大武街５２５巷１弄３號","OBJECTID":54602},"geometry":{"x":170050.56000000052,"y":2546459.6400000025}},{"attributes":{"ID":54603,"DIS_CODE":0,"TOWNNAME":"北區","LI":"永祥里","LIN":"1鄰","STREET":"大武街","SECT":" ","MAREA":" ","LANE":"５２５巷","ALLEY":"１弄","HOUSE_NO":"４號","E_COORD97":170050.85000000001,"N_COORD97":2546474.5800000001,"ADDRESS":"大武街５２５巷１弄４號","OBJECTID":54603},"geometry":{"x":170050.84999999963,"y":2546474.5800000001}},{"attributes":{"ID":54604,"DIS_CODE":0,"TOWNNAME":"北區","LI":"永祥里","LIN":"1鄰","STREET":"大武街","SECT":" ","MAREA":" ","LANE":"５２５巷","ALLEY":"１弄","HOUSE_NO":"５號","E_COORD97":170047.39999999999,"N_COORD97":2546460.8199999998,"ADDRESS":"大武街５２５巷１弄５號","OBJECTID":54604},"geometry":{"x":170047.4000000013,"y":2546460.8200000022}},{"attributes":{"ID":54605,"DIS_CODE":0,"TOWNNAME":"北區","LI":"永祥里","LIN":"1鄰","STREET":"大武街","SECT":" ","MAREA":" ","LANE":"５２５巷","ALLEY":"１弄","HOUSE_NO":"６號","E_COORD97":170047.73999999999,"N_COORD97":2546475.9900000002,"ADDRESS":"大武街５２５巷１弄６號","OBJECTID":54605},"geometry":{"x":170047.74000000209,"y":2546475.9900000039}},{"attributes":{"ID":54606,"DIS_CODE":0,"TOWNNAME":"北區","LI":"永祥里","LIN":"1鄰","STREET":"大武街","SECT":" ","MAREA":" ","LANE":"５２５巷","ALLEY":"１弄","HOUSE_NO":"７號","E_COORD97":170043.95999999999,"N_COORD97":2546461.9900000002,"ADDRESS":"大武街５２５巷１弄７號","OBJECTID":54606},"geometry":{"x":170043.95999999996,"y":2546461.9899999984}},{"attributes":{"ID":54607,"DIS_CODE":0,"TOWNNAME":"北區","LI":"永祥里","LIN":"1鄰","STREET":"大武街","SECT":" ","MAREA":" ","LANE":"５２５巷","ALLEY":"１弄","HOUSE_NO":"８號","E_COORD97":170044.48999999999,"N_COORD97":2546477.2599999998,"ADDRESS":"大武街５２５巷１弄８號","OBJECTID":54607},"geometry":{"x":170044.49000000209,"y":2546477.2600000016}},{"attributes":{"ID":54608,"DIS_CODE":0,"TOWNNAME":"官田區","LI":"南\u25A0里","LIN":"1鄰","STREET":" ","SECT":" ","MAREA":"南\u25A0","LANE":" ","ALLEY":" ","HOUSE_NO":"２１號","E_COORD97":178895.48999999999,"N_COORD97":2567722.0600000001,"ADDRESS":"南\u25A0２１號","OBJECTID":54608},"geometry":{"x":178895.49000000115,"y":2567722.0600000005}},{"attributes":{"ID":54609,"DIS_CODE":0,"TOWNNAME":"北區","LI":"永祥里","LIN":"1鄰","STREET":"大武街","SECT":" ","MAREA":" ","LANE":"５２５巷","ALLEY":"１弄","HOUSE_NO":"９號","E_COORD97":170040.60999999999,"N_COORD97":2546463.0800000001,"ADDRESS":"大武街５２５巷１弄９號","OBJECTID":54609},"geometry":{"x":170040.61000000127,"y":2546463.0800000019}},{"attributes":{"ID":54610,"DIS_CODE":0,"TOWNNAME":"北區","LI":"永祥里","LIN":"1鄰","STREET":"大武街","SECT":" ","MAREA":" ","LANE":"５２５巷","ALLEY":"３弄","HOUSE_NO":"１０號","E_COORD97":170048.19,"N_COORD97":2546517.3700000001,"ADDRESS":"大武街５２５巷３弄１０號","OBJECTID":54610},"geometry":{"x":170048.19000000041,"y":2546517.370000001}},{"attributes":{"ID":54611,"DIS_CODE":0,"TOWNNAME":"官田區","LI":"南\u25A0里","LIN":"1鄰","STREET":" ","SECT":" ","MAREA":"南\u25A0","LANE":" ","ALLEY":" ","HOUSE_NO":"８號之７８","E_COORD97":179376.45999999999,"N_COORD97":2567615.29,"ADDRESS":"南\u25A0８號之７８","OBJECTID":54611},"geometry":{"x":179376.46000000183,"y":2567615.290000001}},{"attributes":{"ID":54612,"DIS_CODE":0,"TOWNNAME":"官田區","LI":"南\u25A0里","LIN":"1鄰","STREET":" ","SECT":" ","MAREA":"南\u25A0","LANE":" ","ALLEY":" ","HOUSE_NO":"６號之１０２","E_COORD97":179453.35000000001,"N_COORD97":2567476.6499999999,"ADDRESS":"南\u25A0６號之１０２","OBJECTID":54612},"geometry":{"x":179453.35000000056,"y":2567476.6500000004}},{"attributes":{"ID":54613,"DIS_CODE":0,"TOWNNAME":"官田區","LI":"南\u25A0里","LIN":"1鄰","STREET":" ","SECT":" ","MAREA":"南\u25A0","LANE":" ","ALLEY":" ","HOUSE_NO":"６號之１０３","E_COORD97":179451.12,"N_COORD97":2567480.1899999999,"ADDRESS":"南\u25A0６號之１０３","OBJECTID":54613},"geometry":{"x":179451.12000000011,"y":2567480.1899999976}},{"attributes":{"ID":54614,"DIS_CODE":0,"TOWNNAME":"官田區","LI":"南\u25A0里","LIN":"1鄰","STREET":" ","SECT":" ","MAREA":"南\u25A0","LANE":" ","ALLEY":" ","HOUSE_NO":"６號之１０８","E_COORD97":179440.14000000001,"N_COORD97":2567499.9500000002,"ADDRESS":"南\u25A0６號之１０８","OBJECTID":54614},"geometry":{"x":179440.13999999966,"y":2567499.9500000011}},{"attributes":{"ID":54615,"DIS_CODE":0,"TOWNNAME":"官田區","LI":"南\u25A0里","LIN":"1鄰","STREET":" ","SECT":" ","MAREA":"南\u25A0","LANE":" ","ALLEY":" ","HOUSE_NO":"６號之１０９","E_COORD97":179437.70000000001,"N_COORD97":2567503.9900000002,"ADDRESS":"南\u25A0６號之１０９","OBJECTID":54615},"geometry":{"x":179437.70000000205,"y":2567503.9900000021}},{"attributes":{"ID":54616,"DIS_CODE":0,"TOWNNAME":"官田區","LI":"南\u25A0里","LIN":"1鄰","STREET":" ","SECT":" ","MAREA":"南\u25A0","LANE":" ","ALLEY":" ","HOUSE_NO":"６號之８５","E_COORD97":179466.67999999999,"N_COORD97":2567449.8999999999,"ADDRESS":"南\u25A0６號之８５","OBJECTID":54616},"geometry":{"x":179466.68000000063,"y":2567449.9000000022}},{"attributes":{"ID":54617,"DIS_CODE":0,"TOWNNAME":"永康區","LI":"正強里","LIN":"8鄰","STREET":"正義街","SECT":" ","MAREA":" ","LANE":" ","ALLEY":" ","HOUSE_NO":"８３號","E_COORD97":173468.10000000001,"N_COORD97":2547571.46,"ADDRESS":"正義街８３號","OBJECTID":54617},"geometry":{"x":173468.10000000056,"y":2547571.4600000009}},{"attributes":{"ID":54618,"DIS_CODE":0,"TOWNNAME":"永康區","LI":"西勢里","LIN":"8鄰","STREET":"廣興街","SECT":" ","MAREA":" ","LANE":" ","ALLEY":" ","HOUSE_NO":"２３號","E_COORD97":175796.39999999999,"N_COORD97":2546591.2400000002,"ADDRESS":"廣興街２３號","OBJECTID":54618},"geometry":{"x":175796.40000000037,"y":2546591.2400000002}},{"attributes":{"ID":54619,"DIS_CODE":0,"TOWNNAME":"永康區","LI":"西勢里","LIN":"8鄰","STREET":"富強路","SECT":"一段","MAREA":" ","LANE":" ","ALLEY":" ","HOUSE_NO":"２９０號","E_COORD97":175739.38,"N_COORD97":2546618.5299999998,"ADDRESS":"富強路一段２９０號","OBJECTID":54619},"geometry":{"x":175739.38000000082,"y":2546618.5300000012}},{"attributes":{"ID":54620,"DIS_CODE":0,"TOWNNAME":"官田區","LI":"南\u25A0里","LIN":"1鄰","STREET":" ","SECT":" ","MAREA":"南\u25A0","LANE":" ","ALLEY":" ","HOUSE_NO":"６號之８６","E_COORD97":179421.76000000001,"N_COORD97":2567434.98,"ADDRESS":"南\u25A0６號之８６","OBJECTID":54620},"geometry":{"x":179421.76000000071,"y":2567434.9800000004}},{"attributes":{"ID":54621,"DIS_CODE":0,"TOWNNAME":"永康區","LI":"南灣里","LIN":"8鄰","STREET":"南興路","SECT":" ","MAREA":" ","LANE":" ","ALLEY":" ","HOUSE_NO":"８６號","E_COORD97":174269.42000000001,"N_COORD97":2544305.9900000002,"ADDRESS":"南興路８６號","OBJECTID":54621},"geometry":{"x":174269.42000000086,"y":2544305.9900000039}},{"attributes":{"ID":54622,"DIS_CODE":0,"TOWNNAME":"官田區","LI":"南\u25A0里","LIN":"1鄰","STREET":" ","SECT":" ","MAREA":"南\u25A0","LANE":" ","ALLEY":" ","HOUSE_NO":"６號之８７","E_COORD97":179462.23999999999,"N_COORD97":2567457.25,"ADDRESS":"南\u25A0６號之８７","OBJECTID":54622},"geometry":{"x":179462.24000000022,"y":2567457.2500000019}},{"attributes":{"ID":54623,"DIS_CODE":0,"TOWNNAME":"官田區","LI":"南\u25A0里","LIN":"1鄰","STREET":" ","SECT":" ","MAREA":"南\u25A0","LANE":" ","ALLEY":" ","HOUSE_NO":"６號之８８","E_COORD97":179460.10999999999,"N_COORD97":2567461,"ADDRESS":"南\u25A0６號之８８","OBJECTID":54623},"geometry":{"x":179460.11000000034,"y":2567461}},{"attributes":{"ID":54624,"DIS_CODE":0,"TOWNNAME":"官田區","LI":"南\u25A0里","LIN":"1鄰","STREET":" ","SECT":" ","MAREA":"南\u25A0","LANE":" ","ALLEY":" ","HOUSE_NO":"６號之８９","E_COORD97":179458.10000000001,"N_COORD97":2567464.4700000002,"ADDRESS":"南\u25A0６號之８９","OBJECTID":54624},"geometry":{"x":179458.10000000149,"y":2567464.4700000025}},{"attributes":{"ID":54625,"DIS_CODE":0,"TOWNNAME":"官田區","LI":"南\u25A0里","LIN":"1鄰","STREET":" ","SECT":" ","MAREA":"南\u25A0","LANE":" ","ALLEY":" ","HOUSE_NO":"６號之９０","E_COORD97":179456.01000000001,"N_COORD97":2567468.8199999998,"ADDRESS":"南\u25A0６號之９０","OBJECTID":54625},"geometry":{"x":179456.01000000071,"y":2567468.8200000003}},{"attributes":{"ID":54626,"DIS_CODE":0,"TOWNNAME":"永康區","LI":"正強里","LIN":"8鄰","STREET":"正義街","SECT":" ","MAREA":" ","LANE":" ","ALLEY":" ","HOUSE_NO":"７７號","E_COORD97":173483.35999999999,"N_COORD97":2547582.7200000002,"ADDRESS":"正義街７７號","OBJECTID":54626},"geometry":{"x":173483.3600000022,"y":2547582.7200000007}},{"attributes":{"ID":54627,"DIS_CODE":0,"TOWNNAME":"官田區","LI":"湖山里","LIN":"1鄰","STREET":" ","SECT":" ","MAREA":"烏山頭","LANE":" ","ALLEY":" ","HOUSE_NO":"４號之１","E_COORD97":183256.54999999999,"N_COORD97":2567488.1299999999,"ADDRESS":"烏山頭４號之１","OBJECTID":54627},"geometry":{"x":183256.55000000075,"y":2567488.1300000008}},{"attributes":{"ID":54628,"DIS_CODE":0,"TOWNNAME":"北區","LI":"永祥里","LIN":"1鄰","STREET":"大武街","SECT":" ","MAREA":" ","LANE":"５２５巷","ALLEY":"３弄","HOUSE_NO":"１１號","E_COORD97":170043.03,"N_COORD97":2546504.5,"ADDRESS":"大武街５２５巷３弄１１號","OBJECTID":54628},"geometry":{"x":170043.03000000119,"y":2546504.5}},{"attributes":{"ID":54629,"DIS_CODE":0,"TOWNNAME":"北區","LI":"永祥里","LIN":"1鄰","STREET":"大武街","SECT":" ","MAREA":" ","LANE":"５２５巷","ALLEY":"３弄","HOUSE_NO":"１２號","E_COORD97":170044.57999999999,"N_COORD97":2546518.8999999999,"ADDRESS":"大武街５２５巷３弄１２號","OBJECTID":54629},"geometry":{"x":170044.58000000007,"y":2546518.9000000022}},{"attributes":{"ID":54630,"DIS_CODE":0,"TOWNNAME":"北區","LI":"永祥里","LIN":"1鄰","STREET":"大武街","SECT":" ","MAREA":" ","LANE":"５２５巷","ALLEY":"３弄","HOUSE_NO":"１３號","E_COORD97":170039.5,"N_COORD97":2546505.77,"ADDRESS":"大武街５２５巷３弄１３號","OBJECTID":54630},"geometry":{"x":170039.50000000093,"y":2546505.7699999996}},{"attributes":{"ID":54631,"DIS_CODE":0,"TOWNNAME":"北區","LI":"永祥里","LIN":"1鄰","STREET":"大武街","SECT":" ","MAREA":" ","LANE":"５２５巷","ALLEY":"３弄","HOUSE_NO":"１５號","E_COORD97":170035.79000000001,"N_COORD97":2546506.9399999999,"ADDRESS":"大武街５２５巷３弄１５號","OBJECTID":54631},"geometry":{"x":170035.79000000097,"y":2546506.9400000013}},{"attributes":{"ID":54632,"DIS_CODE":0,"TOWNNAME":"北區","LI":"永祥里","LIN":"1鄰","STREET":"大武街","SECT":" ","MAREA":" ","LANE":"５２５巷","ALLEY":"３弄","HOUSE_NO":"１號","E_COORD97":170060.67000000001,"N_COORD97":2546498.1699999999,"ADDRESS":"大武街５２５巷３弄１號","OBJECTID":54632},"geometry":{"x":170060.67000000086,"y":2546498.1700000037}},{"attributes":{"ID":54633,"DIS_CODE":0,"TOWNNAME":"北區","LI":"永祥里","LIN":"1鄰","STREET":"大武街","SECT":" ","MAREA":" ","LANE":"５２５巷","ALLEY":"３弄","HOUSE_NO":"２號","E_COORD97":170063.20999999999,"N_COORD97":2546511.9399999999,"ADDRESS":"大武街５２５巷３弄２號","OBJECTID":54633},"geometry":{"x":170063.21000000089,"y":2546511.9399999995}},{"attributes":{"ID":54634,"DIS_CODE":0,"TOWNNAME":"官田區","LI":"湖山里","LIN":"1鄰","STREET":" ","SECT":" ","MAREA":"烏山頭","LANE":" ","ALLEY":" ","HOUSE_NO":"５號之１２","E_COORD97":183260.45000000001,"N_COORD97":2567467.7000000002,"ADDRESS":"烏山頭５號之１２","OBJECTID":54634},"geometry":{"x":183260.45000000205,"y":2567467.7000000011}},{"attributes":{"ID":54635,"DIS_CODE":0,"TOWNNAME":"官田區","LI":"湖山里","LIN":"1鄰","STREET":" ","SECT":" ","MAREA":"烏山頭","LANE":" ","ALLEY":" ","HOUSE_NO":"５號之１","E_COORD97":183330.12,"N_COORD97":2567444.96,"ADDRESS":"烏山頭５號之１","OBJECTID":54635},"geometry":{"x":183330.12000000011,"y":2567444.9600000009}},{"attributes":{"ID":54636,"DIS_CODE":0,"TOWNNAME":"北區","LI":"永祥里","LIN":"1鄰","STREET":"大武街","SECT":" ","MAREA":" ","LANE":"５２５巷","ALLEY":"３弄","HOUSE_NO":"３號","E_COORD97":170056.87,"N_COORD97":2546499.3500000001,"ADDRESS":"大武街５２５巷３弄３號","OBJECTID":54636},"geometry":{"x":170056.86999999918,"y":2546499.3499999996}},{"attributes":{"ID":54637,"DIS_CODE":0,"TOWNNAME":"北區","LI":"永祥里","LIN":"1鄰","STREET":"大武街","SECT":" ","MAREA":" ","LANE":"５２５巷","ALLEY":"３弄","HOUSE_NO":"４號","E_COORD97":170059.76999999999,"N_COORD97":2546512.7599999998,"ADDRESS":"大武街５２５巷３弄４號","OBJECTID":54637},"geometry":{"x":170059.76999999955,"y":2546512.7599999998}},{"attributes":{"ID":54638,"DIS_CODE":0,"TOWNNAME":"北區","LI":"永祥里","LIN":"1鄰","STREET":"大武街","SECT":" ","MAREA":" ","LANE":"５２５巷","ALLEY":"３弄","HOUSE_NO":"５號","E_COORD97":170053.34,"N_COORD97":2546500.6099999999,"ADDRESS":"大武街５２５巷３弄５號","OBJECTID":54638},"geometry":{"x":170053.33999999985,"y":2546500.6099999994}},{"attributes":{"ID":54639,"DIS_CODE":0,"TOWNNAME":"官田區","LI":"湖山里","LIN":"1鄰","STREET":" ","SECT":" ","MAREA":"烏山頭","LANE":" ","ALLEY":" ","HOUSE_NO":"５號之２","E_COORD97":183301.78,"N_COORD97":2567437.3500000001,"ADDRESS":"烏山頭５號之２","OBJECTID":54639},"geometry":{"x":183301.78000000026,"y":2567437.3499999996}},{"attributes":{"ID":54640,"DIS_CODE":0,"TOWNNAME":"北區","LI":"永祥里","LIN":"1鄰","STREET":"大武街","SECT":" ","MAREA":" ","LANE":"５２５巷","ALLEY":"３弄","HOUSE_NO":"６號","E_COORD97":170055.97,"N_COORD97":2546514.5600000001,"ADDRESS":"大武街５２５巷３弄６號","OBJECTID":54640},"geometry":{"x":170055.9700000016,"y":2546514.5600000024}},{"attributes":{"ID":54641,"DIS_CODE":0,"TOWNNAME":"北區","LI":"永祥里","LIN":"1鄰","STREET":"大武街","SECT":" ","MAREA":" ","LANE":"５２５巷","ALLEY":"３弄","HOUSE_NO":"７號","E_COORD97":170049.81,"N_COORD97":2546502.1499999999,"ADDRESS":"大武街５２５巷３弄７號","OBJECTID":54641},"geometry":{"x":170049.80999999959,"y":2546502.1500000041}},{"attributes":{"ID":54642,"DIS_CODE":0,"TOWNNAME":"西港區","LI":"新復里","LIN":"8鄰","STREET":" ","SECT":" ","MAREA":"溪埔寮","LANE":" ","ALLEY":" ","HOUSE_NO":"８號","E_COORD97":166508.34,"N_COORD97":2554004.7200000002,"ADDRESS":"溪埔寮８號","OBJECTID":54642},"geometry":{"x":166508.33999999985,"y":2554004.7200000044}},{"attributes":{"ID":54643,"DIS_CODE":0,"TOWNNAME":"北區","LI":"永祥里","LIN":"1鄰","STREET":"大武街","SECT":" ","MAREA":" ","LANE":"５２５巷","ALLEY":"３弄","HOUSE_NO":"８號","E_COORD97":170052.07999999999,"N_COORD97":2546515.9199999999,"ADDRESS":"大武街５２５巷３弄８號","OBJECTID":54643},"geometry":{"x":170052.08000000194,"y":2546515.9199999999}},{"attributes":{"ID":54644,"DIS_CODE":0,"TOWNNAME":"官田區","LI":"湖山里","LIN":"1鄰","STREET":" ","SECT":" ","MAREA":"烏山頭","LANE":" ","ALLEY":" ","HOUSE_NO":"５號","E_COORD97":183450.39999999999,"N_COORD97":2567725.77,"ADDRESS":"烏山頭５號","OBJECTID":54644},"geometry":{"x":183450.40000000037,"y":2567725.7700000014}},{"attributes":{"ID":54645,"DIS_CODE":0,"TOWNNAME":"北區","LI":"永祥里","LIN":"1鄰","STREET":"大武街","SECT":" ","MAREA":" ","LANE":"５２５巷","ALLEY":"３弄","HOUSE_NO":"９號","E_COORD97":170046.64999999999,"N_COORD97":2546503.3300000001,"ADDRESS":"大武街５２５巷３弄９號","OBJECTID":54645},"geometry":{"x":170046.65000000037,"y":2546503.3300000001}},{"attributes":{"ID":54646,"DIS_CODE":0,"TOWNNAME":"北區","LI":"永祥里","LIN":"1鄰","STREET":"大武街","SECT":" ","MAREA":" ","LANE":"５２５巷","ALLEY":"５弄","HOUSE_NO":"１１號","E_COORD97":170052.28,"N_COORD97":2546543.0600000001,"ADDRESS":"大武街５２５巷５弄１１號","OBJECTID":54646},"geometry":{"x":170052.28000000026,"y":2546543.0600000005}},{"attributes":{"ID":54647,"DIS_CODE":0,"TOWNNAME":"官田區","LI":"南\u25A0里","LIN":"1鄰","STREET":" ","SECT":" ","MAREA":"南\u25A0","LANE":" ","ALLEY":" ","HOUSE_NO":"８號之３９","E_COORD97":179413.82000000001,"N_COORD97":2567545.9399999999,"ADDRESS":"南\u25A0８號之３９","OBJECTID":54647},"geometry":{"x":179413.82000000123,"y":2567545.9399999995}},{"attributes":{"ID":54648,"DIS_CODE":0,"TOWNNAME":"北區","LI":"永祥里","LIN":"1鄰","STREET":"大武街","SECT":" ","MAREA":" ","LANE":"５２５巷","ALLEY":"５弄","HOUSE_NO":"１號","E_COORD97":170071.37,"N_COORD97":2546535.7400000002,"ADDRESS":"大武街５２５巷５弄１號","OBJECTID":54648},"geometry":{"x":170071.37000000104,"y":2546535.7400000021}},{"attributes":{"ID":54649,"DIS_CODE":0,"TOWNNAME":"北區","LI":"永祥里","LIN":"1鄰","STREET":"大武街","SECT":" ","MAREA":" ","LANE":"５２５巷","ALLEY":"５弄","HOUSE_NO":"３號","E_COORD97":170067.66,"N_COORD97":2546537.3700000001,"ADDRESS":"大武街５２５巷５弄３號","OBJECTID":54649},"geometry":{"x":170067.66000000108,"y":2546537.370000001}},{"attributes":{"ID":54650,"DIS_CODE":0,"TOWNNAME":"官田區","LI":"南\u25A0里","LIN":"1鄰","STREET":" ","SECT":" ","MAREA":"南\u25A0","LANE":" ","ALLEY":" ","HOUSE_NO":"８號之３","E_COORD97":179428.23000000001,"N_COORD97":2567521.79,"ADDRESS":"南\u25A0８號之３","OBJECTID":54650},"geometry":{"x":179428.23000000138,"y":2567521.7899999991}},{"attributes":{"ID":54651,"DIS_CODE":0,"TOWNNAME":"官田區","LI":"南\u25A0里","LIN":"1鄰","STREET":" ","SECT":" ","MAREA":"南\u25A0","LANE":" ","ALLEY":" ","HOUSE_NO":"８號之４０","E_COORD97":179411.73000000001,"N_COORD97":2567549.79,"ADDRESS":"南\u25A0８號之４０","OBJECTID":54651},"geometry":{"x":179411.73000000045,"y":2567549.7899999991}},{"attributes":{"ID":54652,"DIS_CODE":0,"TOWNNAME":"官田區","LI":"南\u25A0里","LIN":"1鄰","STREET":" ","SECT":" ","MAREA":"南\u25A0","LANE":" ","ALLEY":" ","HOUSE_NO":"８號之４１","E_COORD97":179409.44,"N_COORD97":2567553.71,"ADDRESS":"南\u25A0８號之４１","OBJECTID":54652},"geometry":{"x":179409.44000000134,"y":2567553.7100000028}},{"attributes":{"ID":54653,"DIS_CODE":0,"TOWNNAME":"官田區","LI":"南\u25A0里","LIN":"1鄰","STREET":" ","SECT":" ","MAREA":"南\u25A0","LANE":" ","ALLEY":" ","HOUSE_NO":"８號之４２","E_COORD97":179407.45000000001,"N_COORD97":2567557.5699999998,"ADDRESS":"南\u25A0８號之４２","OBJECTID":54653},"geometry":{"x":179407.45000000112,"y":2567557.5700000022}},{"attributes":{"ID":54654,"DIS_CODE":0,"TOWNNAME":"官田區","LI":"南\u25A0里","LIN":"1鄰","STREET":" ","SECT":" ","MAREA":"南\u25A0","LANE":" ","ALLEY":" ","HOUSE_NO":"８號之４３","E_COORD97":179405.09,"N_COORD97":2567561.8900000001,"ADDRESS":"南\u25A0８號之４３","OBJECTID":54654},"geometry":{"x":179405.08999999985,"y":2567561.8900000043}},{"attributes":{"ID":54655,"DIS_CODE":0,"TOWNNAME":"官田區","LI":"南\u25A0里","LIN":"1鄰","STREET":" ","SECT":" ","MAREA":"南\u25A0","LANE":" ","ALLEY":" ","HOUSE_NO":"８號之４５","E_COORD97":179400.57000000001,"N_COORD97":2567569.5099999998,"ADDRESS":"南\u25A0８號之４５","OBJECTID":54655},"geometry":{"x":179400.5700000003,"y":2567569.5099999998}},{"attributes":{"ID":54656,"DIS_CODE":0,"TOWNNAME":"北區","LI":"永祥里","LIN":"1鄰","STREET":"大武街","SECT":" ","MAREA":" ","LANE":"５２５巷","ALLEY":"５弄","HOUSE_NO":"５號","E_COORD97":170063.76999999999,"N_COORD97":2546538.9100000001,"ADDRESS":"大武街５２５巷５弄５號","OBJECTID":54656},"geometry":{"x":170063.76999999862,"y":2546538.910000002}},{"attributes":{"ID":54657,"DIS_CODE":0,"TOWNNAME":"官田區","LI":"南\u25A0里","LIN":"1鄰","STREET":" ","SECT":" ","MAREA":"南\u25A0","LANE":" ","ALLEY":" ","HOUSE_NO":"８號之４６","E_COORD97":179398.31,"N_COORD97":2567573.6699999999,"ADDRESS":"南\u25A0８號之４６","OBJECTID":54657},"geometry":{"x":179398.30999999959,"y":2567573.6700000018}},{"attributes":{"ID":54658,"DIS_CODE":0,"TOWNNAME":"永康區","LI":"南灣里","LIN":"8鄰","STREET":"南興路","SECT":" ","MAREA":" ","LANE":" ","ALLEY":" ","HOUSE_NO":"７６號","E_COORD97":174265.23000000001,"N_COORD97":2544247.9100000001,"ADDRESS":"南興路７６號","OBJECTID":54658},"geometry":{"x":174265.23000000045,"y":2544247.9100000001}},{"attributes":{"ID":54659,"DIS_CODE":0,"TOWNNAME":"永康區","LI":"南灣里","LIN":"8鄰","STREET":"南興路","SECT":" ","MAREA":" ","LANE":" ","ALLEY":" ","HOUSE_NO":"３２號","E_COORD97":174205.88,"N_COORD97":2543996.29,"ADDRESS":"南興路３２號","OBJECTID":54659},"geometry":{"x":174205.87999999989,"y":2543996.2899999991}},{"attributes":{"ID":54660,"DIS_CODE":0,"TOWNNAME":"永康區","LI":"南灣里","LIN":"8鄰","STREET":"南興路","SECT":" ","MAREA":" ","LANE":" ","ALLEY":" ","HOUSE_NO":"５８號","E_COORD97":174250.13,"N_COORD97":2544196.7400000002,"ADDRESS":"南興路５８號","OBJECTID":54660},"geometry":{"x":174250.12999999989,"y":2544196.7400000021}},{"attributes":{"ID":54661,"DIS_CODE":0,"TOWNNAME":"永康區","LI":"南灣里","LIN":"8鄰","STREET":"大灣東路","SECT":" ","MAREA":" ","LANE":" ","ALLEY":" ","HOUSE_NO":"１４６號","E_COORD97":174528.34,"N_COORD97":2544347.5,"ADDRESS":"大灣東路１４６號","OBJECTID":54661},"geometry":{"x":174528.33999999985,"y":2544347.5000000019}},{"attributes":{"ID":54662,"DIS_CODE":0,"TOWNNAME":"永康區","LI":"南灣里","LIN":"8鄰","STREET":"南興路","SECT":" ","MAREA":" ","LANE":" ","ALLEY":" ","HOUSE_NO":"７０號","E_COORD97":174260.5,"N_COORD97":2544228.1600000001,"ADDRESS":"南興路７０號","OBJECTID":54662},"geometry":{"x":174260.50000000093,"y":2544228.160000002}},{"attributes":{"ID":54663,"DIS_CODE":0,"TOWNNAME":"永康區","LI":"南灣里","LIN":"8鄰","STREET":"南興路","SECT":" ","MAREA":" ","LANE":" ","ALLEY":" ","HOUSE_NO":"５０號之８","E_COORD97":174239.14999999999,"N_COORD97":2544132.0499999998,"ADDRESS":"南興路５０號之８","OBJECTID":54663},"geometry":{"x":174239.15000000224,"y":2544132.0500000007}},{"attributes":{"ID":54664,"DIS_CODE":0,"TOWNNAME":"七股區","LI":"大寮里","LIN":"8鄰","STREET":" ","SECT":" ","MAREA":"大寮","LANE":" ","ALLEY":" ","HOUSE_NO":"６９號之２","E_COORD97":163250.85000000001,"N_COORD97":2560931.48,"ADDRESS":"大寮６９號之２","OBJECTID":54664},"geometry":{"x":163250.85000000056,"y":2560931.4800000004}},{"attributes":{"ID":54665,"DIS_CODE":0,"TOWNNAME":"北區","LI":"永祥里","LIN":"1鄰","STREET":"大武街","SECT":" ","MAREA":" ","LANE":"５２５巷","ALLEY":"５弄","HOUSE_NO":"７號","E_COORD97":170059.97,"N_COORD97":2546540.2599999998,"ADDRESS":"大武街５２５巷５弄７號","OBJECTID":54665},"geometry":{"x":170059.97000000067,"y":2546540.2599999998}},{"attributes":{"ID":54666,"DIS_CODE":0,"TOWNNAME":"北區","LI":"永祥里","LIN":"1鄰","STREET":"大武街","SECT":" ","MAREA":" ","LANE":"５２５巷","ALLEY":"５弄","HOUSE_NO":"９號","E_COORD97":170056.26000000001,"N_COORD97":2546541.4399999999,"ADDRESS":"大武街５２５巷５弄９號","OBJECTID":54666},"geometry":{"x":170056.26000000071,"y":2546541.4400000013}},{"attributes":{"ID":54667,"DIS_CODE":0,"TOWNNAME":"七股區","LI":"大寮里","LIN":"8鄰","STREET":" ","SECT":" ","MAREA":"大寮","LANE":" ","ALLEY":" ","HOUSE_NO":"６９號","E_COORD97":163225.48999999999,"N_COORD97":2560908.4700000002,"ADDRESS":"大寮６９號","OBJECTID":54667},"geometry":{"x":163225.49000000115,"y":2560908.4700000007}},{"attributes":{"ID":54668,"DIS_CODE":0,"TOWNNAME":"歸仁區","LI":"大廟里","LIN":"1鄰","STREET":"大廟三街","SECT":" ","MAREA":" ","LANE":"２０巷","ALLEY":"１２弄","HOUSE_NO":"１號","E_COORD97":176047.45999999999,"N_COORD97":2544040.8900000001,"ADDRESS":"大廟三街２０巷１２弄１號","OBJECTID":54668},"geometry":{"x":176047.46000000089,"y":2544040.8900000006}},{"attributes":{"ID":54669,"DIS_CODE":0,"TOWNNAME":"七股區","LI":"大寮里","LIN":"8鄰","STREET":" ","SECT":" ","MAREA":"大寮","LANE":" ","ALLEY":" ","HOUSE_NO":"７１號","E_COORD97":163217.23999999999,"N_COORD97":2560926.1200000001,"ADDRESS":"大寮７１號","OBJECTID":54669},"geometry":{"x":163217.24000000022,"y":2560926.1200000029}},{"attributes":{"ID":54670,"DIS_CODE":0,"TOWNNAME":"七股區","LI":"大寮里","LIN":"8鄰","STREET":" ","SECT":" ","MAREA":"大寮","LANE":" ","ALLEY":" ","HOUSE_NO":"７２號之１","E_COORD97":163245.45999999999,"N_COORD97":2560934.3700000001,"ADDRESS":"大寮７２號之１","OBJECTID":54670},"geometry":{"x":163245.46000000089,"y":2560934.3700000029}},{"attributes":{"ID":54671,"DIS_CODE":0,"TOWNNAME":"七股區","LI":"大寮里","LIN":"8鄰","STREET":" ","SECT":" ","MAREA":"大寮","LANE":" ","ALLEY":" ","HOUSE_NO":"７２號","E_COORD97":163237.03,"N_COORD97":2560946.3599999999,"ADDRESS":"大寮７２號","OBJECTID":54671},"geometry":{"x":163237.03000000119,"y":2560946.3600000013}},{"attributes":{"ID":54672,"DIS_CODE":0,"TOWNNAME":"永康區","LI":"南灣里","LIN":"8鄰","STREET":"大灣東路","SECT":" ","MAREA":" ","LANE":" ","ALLEY":" ","HOUSE_NO":"１６２號","E_COORD97":174579.03,"N_COORD97":2544405.8900000001,"ADDRESS":"大灣東路１６２號","OBJECTID":54672},"geometry":{"x":174579.03000000119,"y":2544405.8900000025}},{"attributes":{"ID":54673,"DIS_CODE":0,"TOWNNAME":"七股區","LI":"大寮里","LIN":"8鄰","STREET":" ","SECT":" ","MAREA":"大寮","LANE":" ","ALLEY":" ","HOUSE_NO":"７３號","E_COORD97":163257.94,"N_COORD97":2560963.79,"ADDRESS":"大寮７３號","OBJECTID":54673},"geometry":{"x":163257.94000000134,"y":2560963.790000001}},{"attributes":{"ID":54674,"DIS_CODE":0,"TOWNNAME":"七股區","LI":"大寮里","LIN":"8鄰","STREET":" ","SECT":" ","MAREA":"大寮","LANE":" ","ALLEY":" ","HOUSE_NO":"７４號","E_COORD97":163238.79999999999,"N_COORD97":2561011.21,"ADDRESS":"大寮７４號","OBJECTID":54674},"geometry":{"x":163238.79999999981,"y":2561011.2100000028}},{"attributes":{"ID":54675,"DIS_CODE":0,"TOWNNAME":"永康區","LI":"南灣里","LIN":"8鄰","STREET":"大灣東路","SECT":" ","MAREA":" ","LANE":" ","ALLEY":" ","HOUSE_NO":"５２號","E_COORD97":174286.23999999999,"N_COORD97":2544320.9900000002,"ADDRESS":"大灣東路５２號","OBJECTID":54675},"geometry":{"x":174286.24000000115,"y":2544320.9900000021}},{"attributes":{"ID":54676,"DIS_CODE":0,"TOWNNAME":"七股區","LI":"永吉里","LIN":"8鄰","STREET":" ","SECT":" ","MAREA":"永吉","LANE":" ","ALLEY":" ","HOUSE_NO":"８８號之２","E_COORD97":160254.44,"N_COORD97":2555054.7200000002,"ADDRESS":"永吉８８號之２","OBJECTID":54676},"geometry":{"x":160254.44000000041,"y":2555054.7200000007}},{"attributes":{"ID":54677,"DIS_CODE":0,"TOWNNAME":"七股區","LI":"永吉里","LIN":"8鄰","STREET":" ","SECT":" ","MAREA":"永吉","LANE":" ","ALLEY":" ","HOUSE_NO":"８８號之３","E_COORD97":160249.53,"N_COORD97":2555056.8199999998,"ADDRESS":"永吉８８號之３","OBJECTID":54677},"geometry":{"x":160249.53000000119,"y":2555056.8200000003}},{"attributes":{"ID":54678,"DIS_CODE":0,"TOWNNAME":"七股區","LI":"永吉里","LIN":"8鄰","STREET":" ","SECT":" ","MAREA":"永吉","LANE":" ","ALLEY":" ","HOUSE_NO":"８８號之４","E_COORD97":160244.62,"N_COORD97":2555059.1400000001,"ADDRESS":"永吉８８號之４","OBJECTID":54678},"geometry":{"x":160244.62000000011,"y":2555059.1400000006}},{"attributes":{"ID":54679,"DIS_CODE":0,"TOWNNAME":"七股區","LI":"永吉里","LIN":"8鄰","STREET":" ","SECT":" ","MAREA":"永吉","LANE":" ","ALLEY":" ","HOUSE_NO":"８８號之５","E_COORD97":160239.75,"N_COORD97":2555061.0499999998,"ADDRESS":"永吉８８號之５","OBJECTID":54679},"geometry":{"x":160239.75000000093,"y":2555061.0500000026}},{"attributes":{"ID":54680,"DIS_CODE":0,"TOWNNAME":"七股區","LI":"永吉里","LIN":"8鄰","STREET":" ","SECT":" ","MAREA":"永吉","LANE":" ","ALLEY":" ","HOUSE_NO":"８８號之７","E_COORD97":160250.04999999999,"N_COORD97":2555080.1000000001,"ADDRESS":"永吉８８號之７","OBJECTID":54680},"geometry":{"x":160250.04999999981,"y":2555080.1000000015}},{"attributes":{"ID":54681,"DIS_CODE":0,"TOWNNAME":"七股區","LI":"永吉里","LIN":"8鄰","STREET":" ","SECT":" ","MAREA":"永吉","LANE":" ","ALLEY":" ","HOUSE_NO":"８８號之８","E_COORD97":160252.06,"N_COORD97":2555084.3700000001,"ADDRESS":"永吉８８號之８","OBJECTID":54681},"geometry":{"x":160252.06000000052,"y":2555084.370000001}},{"attributes":{"ID":54682,"DIS_CODE":0,"TOWNNAME":"七股區","LI":"永吉里","LIN":"8鄰","STREET":" ","SECT":" ","MAREA":"永吉","LANE":" ","ALLEY":" ","HOUSE_NO":"８８號之９","E_COORD97":160253.72,"N_COORD97":2555089.0800000001,"ADDRESS":"永吉８８號之９","OBJECTID":54682},"geometry":{"x":160253.71999999974,"y":2555089.0800000001}},{"attributes":{"ID":54683,"DIS_CODE":0,"TOWNNAME":"七股區","LI":"玉成里","LIN":"8鄰","STREET":" ","SECT":" ","MAREA":"玉成","LANE":" ","ALLEY":" ","HOUSE_NO":"７２號","E_COORD97":161039.70999999999,"N_COORD97":2559738.9300000002,"ADDRESS":"玉成７２號","OBJECTID":54683},"geometry":{"x":161039.71000000089,"y":2559738.9300000034}},{"attributes":{"ID":54684,"DIS_CODE":0,"TOWNNAME":"七股區","LI":"玉成里","LIN":"8鄰","STREET":" ","SECT":" ","MAREA":"玉成","LANE":" ","ALLEY":" ","HOUSE_NO":"７３號之１","E_COORD97":161052.92000000001,"N_COORD97":2559803.25,"ADDRESS":"玉成７３號之１","OBJECTID":54684},"geometry":{"x":161052.91999999993,"y":2559803.25}},{"attributes":{"ID":54685,"DIS_CODE":0,"TOWNNAME":"七股區","LI":"玉成里","LIN":"8鄰","STREET":" ","SECT":" ","MAREA":"玉成","LANE":" ","ALLEY":" ","HOUSE_NO":"７３號","E_COORD97":161052.69,"N_COORD97":2559834.3100000001,"ADDRESS":"玉成７３號","OBJECTID":54685},"geometry":{"x":161052.69000000134,"y":2559834.3100000005}},{"attributes":{"ID":54686,"DIS_CODE":0,"TOWNNAME":"七股區","LI":"玉成里","LIN":"8鄰","STREET":" ","SECT":" ","MAREA":"玉成","LANE":" ","ALLEY":" ","HOUSE_NO":"７４號","E_COORD97":161077.48999999999,"N_COORD97":2559783.4199999999,"ADDRESS":"玉成７４號","OBJECTID":54686},"geometry":{"x":161077.49000000115,"y":2559783.4200000037}},{"attributes":{"ID":54687,"DIS_CODE":0,"TOWNNAME":"歸仁區","LI":"七甲里","LIN":"1鄰","STREET":"中正北路","SECT":"二段","MAREA":" ","LANE":"７５巷","ALLEY":"３８弄","HOUSE_NO":"２９９號","E_COORD97":176943.73999999999,"N_COORD97":2542376.7599999998,"ADDRESS":"中正北路二段７５巷３８弄２９９號","OBJECTID":54687},"geometry":{"x":176943.73999999929,"y":2542376.7599999998}},{"attributes":{"ID":54688,"DIS_CODE":0,"TOWNNAME":"七股區","LI":"玉成里","LIN":"8鄰","STREET":" ","SECT":" ","MAREA":"玉成","LANE":" ","ALLEY":" ","HOUSE_NO":"７５號","E_COORD97":161094.04000000001,"N_COORD97":2559818.8199999998,"ADDRESS":"玉成７５號","OBJECTID":54688},"geometry":{"x":161094.04000000097,"y":2559818.8200000022}},{"attributes":{"ID":54689,"DIS_CODE":0,"TOWNNAME":"七股區","LI":"玉成里","LIN":"8鄰","STREET":" ","SECT":" ","MAREA":"玉成","LANE":" ","ALLEY":" ","HOUSE_NO":"７６號之１","E_COORD97":161099.57999999999,"N_COORD97":2559837.9500000002,"ADDRESS":"玉成７６號之１","OBJECTID":54689},"geometry":{"x":161099.58000000007,"y":2559837.9500000011}},{"attributes":{"ID":54690,"DIS_CODE":0,"TOWNNAME":"麻豆區","LI":"磚井里","LIN":"8鄰","STREET":" ","SECT":" ","MAREA":"磚子井","LANE":" ","ALLEY":" ","HOUSE_NO":"８０號之２","E_COORD97":173558.29000000001,"N_COORD97":2563470.1800000002,"ADDRESS":"磚子井８０號之２","OBJECTID":54690},"geometry":{"x":173558.29000000097,"y":2563470.1800000034}},{"attributes":{"ID":54691,"DIS_CODE":0,"TOWNNAME":"歸仁區","LI":"七甲里","LIN":"1鄰","STREET":"七甲五街","SECT":" ","MAREA":" ","LANE":"１０２巷","ALLEY":"３９弄","HOUSE_NO":"３８號","E_COORD97":177120.75,"N_COORD97":2542585.9300000002,"ADDRESS":"七甲五街１０２巷３９弄３８號","OBJECTID":54691},"geometry":{"x":177120.75,"y":2542585.9299999997}},{"attributes":{"ID":54692,"DIS_CODE":0,"TOWNNAME":"七股區","LI":"玉成里","LIN":"8鄰","STREET":" ","SECT":" ","MAREA":"玉成","LANE":" ","ALLEY":" ","HOUSE_NO":"７６號","E_COORD97":161070.88,"N_COORD97":2559834,"ADDRESS":"玉成７６號","OBJECTID":54692},"geometry":{"x":161070.88000000082,"y":2559834.0000000019}},{"attributes":{"ID":54693,"DIS_CODE":0,"TOWNNAME":"七股區","LI":"玉成里","LIN":"8鄰","STREET":" ","SECT":" ","MAREA":"玉成","LANE":" ","ALLEY":" ","HOUSE_NO":"７７號","E_COORD97":161102.94,"N_COORD97":2559786.0099999998,"ADDRESS":"玉成７７號","OBJECTID":54693},"geometry":{"x":161102.94000000227,"y":2559786.0100000035}},{"attributes":{"ID":54694,"DIS_CODE":0,"TOWNNAME":"七股區","LI":"竹港里","LIN":"8鄰","STREET":" ","SECT":" ","MAREA":"竹港","LANE":" ","ALLEY":" ","HOUSE_NO":"７２號","E_COORD97":164881.54999999999,"N_COORD97":2556785.4100000001,"ADDRESS":"竹港７２號","OBJECTID":54694},"geometry":{"x":164881.54999999981,"y":2556785.4100000001}},{"attributes":{"ID":54695,"DIS_CODE":0,"TOWNNAME":"歸仁區","LI":"大廟里","LIN":"1鄰","STREET":"大廟三街","SECT":" ","MAREA":" ","LANE":"２０巷","ALLEY":"１２弄","HOUSE_NO":"２號","E_COORD97":176037.16,"N_COORD97":2544047.8900000001,"ADDRESS":"大廟三街２０巷１２弄２號","OBJECTID":54695},"geometry":{"x":176037.16000000015,"y":2544047.8900000006}},{"attributes":{"ID":54696,"DIS_CODE":0,"TOWNNAME":"北區","LI":"文元里","LIN":"1鄰","STREET":"北成路","SECT":" ","MAREA":" ","LANE":"４８１巷","ALLEY":"１７弄","HOUSE_NO":"１５號","E_COORD97":167867.04999999999,"N_COORD97":2546515.1299999999,"ADDRESS":"北成路４８１巷１７弄１５號","OBJECTID":54696},"geometry":{"x":167867.05000000168,"y":2546515.1300000008}},{"attributes":{"ID":54697,"DIS_CODE":0,"TOWNNAME":"七股區","LI":"竹港里","LIN":"8鄰","STREET":" ","SECT":" ","MAREA":"竹港","LANE":" ","ALLEY":" ","HOUSE_NO":"７３號","E_COORD97":164856.73000000001,"N_COORD97":2556727.3799999999,"ADDRESS":"竹港７３號","OBJECTID":54697},"geometry":{"x":164856.73000000045,"y":2556727.379999999}},{"attributes":{"ID":54698,"DIS_CODE":0,"TOWNNAME":"新市區","LI":"港墘里","LIN":"8鄰","STREET":" ","SECT":" ","MAREA":"崙頂","LANE":" ","ALLEY":" ","HOUSE_NO":"１８之１號","E_COORD97":178977.89999999999,"N_COORD97":2552601.0499999998,"ADDRESS":"崙頂１８之１號","OBJECTID":54698},"geometry":{"x":178977.9000000013,"y":2552601.0500000007}},{"attributes":{"ID":54699,"DIS_CODE":0,"TOWNNAME":"新市區","LI":"港墘里","LIN":"8鄰","STREET":" ","SECT":" ","MAREA":"崙頂","LANE":" ","ALLEY":" ","HOUSE_NO":"１９號","E_COORD97":178973.01000000001,"N_COORD97":2552622,"ADDRESS":"崙頂１９號","OBJECTID":54699},"geometry":{"x":178973.01000000071,"y":2552621.9999999981}},{"attributes":{"ID":54700,"DIS_CODE":0,"TOWNNAME":"新市區","LI":"永就里","LIN":"8鄰","STREET":" ","SECT":" ","MAREA":"永就","LANE":" ","ALLEY":" ","HOUSE_NO":"８４之１２號","E_COORD97":177532.45000000001,"N_COORD97":2551612.5499999998,"ADDRESS":"永就８４之１２號","OBJECTID":54700},"geometry":{"x":177532.45000000112,"y":2551612.5500000045}},{"attributes":{"ID":54701,"DIS_CODE":0,"TOWNNAME":"新市區","LI":"社內里","LIN":"8鄰","STREET":" ","SECT":" ","MAREA":"社內","LANE":" ","ALLEY":" ","HOUSE_NO":"８４號","E_COORD97":176475.69,"N_COORD97":2553040.75,"ADDRESS":"社內８４號","OBJECTID":54701},"geometry":{"x":176475.69000000041,"y":2553040.7499999981}},{"attributes":{"ID":54702,"DIS_CODE":0,"TOWNNAME":"新市區","LI":"潭頂里","LIN":"8鄰","STREET":" ","SECT":" ","MAREA":"潭頂","LANE":" ","ALLEY":" ","HOUSE_NO":"３０５號","E_COORD97":180707.07999999999,"N_COORD97":2552917.5,"ADDRESS":"潭頂３０５號","OBJECTID":54702},"geometry":{"x":180707.08000000101,"y":2552917.5000000019}},{"attributes":{"ID":54703,"DIS_CODE":0,"TOWNNAME":"麻豆區","LI":"寮\u25A0里","LIN":"8鄰","STREET":" ","SECT":" ","MAREA":"寮子\u25A0","LANE":" ","ALLEY":" ","HOUSE_NO":"６１號之５","E_COORD97":176985.73999999999,"N_COORD97":2565184.2000000002,"ADDRESS":"寮子\u25A0６１號之５","OBJECTID":54703},"geometry":{"x":176985.74000000022,"y":2565184.1999999993}},{"attributes":{"ID":54704,"DIS_CODE":0,"TOWNNAME":"麻豆區","LI":"寮\u25A0里","LIN":"8鄰","STREET":" ","SECT":" ","MAREA":"寮子\u25A0","LANE":" ","ALLEY":" ","HOUSE_NO":"６１號之６","E_COORD97":176984.69,"N_COORD97":2565179.8799999999,"ADDRESS":"寮子\u25A0６１號之６","OBJECTID":54704},"geometry":{"x":176984.69000000041,"y":2565179.8800000027}},{"attributes":{"ID":54705,"DIS_CODE":0,"TOWNNAME":"麻豆區","LI":"寮\u25A0里","LIN":"8鄰","STREET":" ","SECT":" ","MAREA":"寮子\u25A0","LANE":" ","ALLEY":" ","HOUSE_NO":"６１號","E_COORD97":176988.76999999999,"N_COORD97":2565191.1600000001,"ADDRESS":"寮子\u25A0６１號","OBJECTID":54705},"geometry":{"x":176988.77000000142,"y":2565191.1600000001}},{"attributes":{"ID":54706,"DIS_CODE":0,"TOWNNAME":"麻豆區","LI":"寮\u25A0里","LIN":"8鄰","STREET":" ","SECT":" ","MAREA":"寮子\u25A0","LANE":" ","ALLEY":" ","HOUSE_NO":"６２號之１","E_COORD97":176977.39000000001,"N_COORD97":2565157.1400000001,"ADDRESS":"寮子\u25A0６２號之１","OBJECTID":54706},"geometry":{"x":176977.38999999966,"y":2565157.1400000025}},{"attributes":{"ID":54707,"DIS_CODE":0,"TOWNNAME":"麻豆區","LI":"寮\u25A0里","LIN":"8鄰","STREET":" ","SECT":" ","MAREA":"寮子\u25A0","LANE":" ","ALLEY":" ","HOUSE_NO":"６２號之２","E_COORD97":176973.48000000001,"N_COORD97":2565143.7000000002,"ADDRESS":"寮子\u25A0６２號之２","OBJECTID":54707},"geometry":{"x":176973.48000000138,"y":2565143.6999999993}},{"attributes":{"ID":54708,"DIS_CODE":0,"TOWNNAME":"麻豆區","LI":"寮\u25A0里","LIN":"8鄰","STREET":" ","SECT":" ","MAREA":"寮子\u25A0","LANE":" ","ALLEY":" ","HOUSE_NO":"６２號","E_COORD97":176991.44,"N_COORD97":2565163.3799999999,"ADDRESS":"寮子\u25A0６２號","OBJECTID":54708},"geometry":{"x":176991.44000000041,"y":2565163.3800000008}},{"attributes":{"ID":54709,"DIS_CODE":0,"TOWNNAME":"麻豆區","LI":"寮\u25A0里","LIN":"8鄰","STREET":" ","SECT":" ","MAREA":"寮子\u25A0","LANE":" ","ALLEY":" ","HOUSE_NO":"６３號之１","E_COORD97":176875.41,"N_COORD97":2565165.27,"ADDRESS":"寮子\u25A0６３號之１","OBJECTID":54709},"geometry":{"x":176875.41000000108,"y":2565165.2700000014}},{"attributes":{"ID":54710,"DIS_CODE":0,"TOWNNAME":"麻豆區","LI":"寮\u25A0里","LIN":"8鄰","STREET":" ","SECT":" ","MAREA":"寮子\u25A0","LANE":" ","ALLEY":" ","HOUSE_NO":"６３號","E_COORD97":176879.82999999999,"N_COORD97":2565156.48,"ADDRESS":"寮子\u25A0６３號","OBJECTID":54710},"geometry":{"x":176879.83000000007,"y":2565156.4800000004}},{"attributes":{"ID":54711,"DIS_CODE":0,"TOWNNAME":"麻豆區","LI":"寮\u25A0里","LIN":"8鄰","STREET":" ","SECT":" ","MAREA":"寮子\u25A0","LANE":" ","ALLEY":" ","HOUSE_NO":"６４號之２","E_COORD97":176953.98000000001,"N_COORD97":2565121.3999999999,"ADDRESS":"寮子\u25A0６４號之２","OBJECTID":54711},"geometry":{"x":176953.98000000045,"y":2565121.4000000022}},{"attributes":{"ID":54712,"DIS_CODE":0,"TOWNNAME":"麻豆區","LI":"寮\u25A0里","LIN":"8鄰","STREET":" ","SECT":" ","MAREA":"寮子\u25A0","LANE":" ","ALLEY":" ","HOUSE_NO":"６４號","E_COORD97":176897.20999999999,"N_COORD97":2565150.2200000002,"ADDRESS":"寮子\u25A0６４號","OBJECTID":54712},"geometry":{"x":176897.20999999996,"y":2565150.2200000025}},{"attributes":{"ID":54713,"DIS_CODE":0,"TOWNNAME":"麻豆區","LI":"寮\u25A0里","LIN":"8鄰","STREET":" ","SECT":" ","MAREA":"寮子\u25A0","LANE":" ","ALLEY":" ","HOUSE_NO":"６６號之１","E_COORD97":176844.60999999999,"N_COORD97":2565154.29,"ADDRESS":"寮子\u25A0６６號之１","OBJECTID":54713},"geometry":{"x":176844.61000000034,"y":2565154.290000001}},{"attributes":{"ID":54714,"DIS_CODE":0,"TOWNNAME":"麻豆區","LI":"寮\u25A0里","LIN":"8鄰","STREET":" ","SECT":" ","MAREA":"寮子\u25A0","LANE":" ","ALLEY":" ","HOUSE_NO":"６６號之２","E_COORD97":176852.32000000001,"N_COORD97":2565151.9300000002,"ADDRESS":"寮子\u25A0６６號之２","OBJECTID":54714},"geometry":{"x":176852.32000000123,"y":2565151.9299999997}},{"attributes":{"ID":54715,"DIS_CODE":0,"TOWNNAME":"麻豆區","LI":"寮\u25A0里","LIN":"8鄰","STREET":" ","SECT":" ","MAREA":"寮子\u25A0","LANE":" ","ALLEY":" ","HOUSE_NO":"６７號之１","E_COORD97":176846.73999999999,"N_COORD97":2565180.3700000001,"ADDRESS":"寮子\u25A0６７號之１","OBJECTID":54715},"geometry":{"x":176846.74000000022,"y":2565180.3700000029}},{"attributes":{"ID":54716,"DIS_CODE":0,"TOWNNAME":"西港區","LI":"劉厝里","LIN":"8鄰","STREET":" ","SECT":" ","MAREA":"劉厝","LANE":" ","ALLEY":" ","HOUSE_NO":"５８號","E_COORD97":165991.98000000001,"N_COORD97":2558730.27,"ADDRESS":"劉厝５８號","OBJECTID":54716},"geometry":{"x":165991.98000000138,"y":2558730.2700000014}},{"attributes":{"ID":54717,"DIS_CODE":0,"TOWNNAME":"麻豆區","LI":"磚井里","LIN":"8鄰","STREET":" ","SECT":" ","MAREA":"磚子井","LANE":" ","ALLEY":" ","HOUSE_NO":"７４號之１","E_COORD97":173658.92000000001,"N_COORD97":2563457.2799999998,"ADDRESS":"磚子井７４號之１","OBJECTID":54717},"geometry":{"x":173658.92000000086,"y":2563457.2799999993}},{"attributes":{"ID":54718,"DIS_CODE":0,"TOWNNAME":"麻豆區","LI":"磚井里","LIN":"8鄰","STREET":" ","SECT":" ","MAREA":"磚子井","LANE":" ","ALLEY":" ","HOUSE_NO":"７４號之２","E_COORD97":173653.82999999999,"N_COORD97":2563428.6299999999,"ADDRESS":"磚子井７４號之２","OBJECTID":54718},"geometry":{"x":173653.83000000007,"y":2563428.6299999971}},{"attributes":{"ID":54719,"DIS_CODE":0,"TOWNNAME":"麻豆區","LI":"磚井里","LIN":"8鄰","STREET":" ","SECT":" ","MAREA":"磚子井","LANE":" ","ALLEY":" ","HOUSE_NO":"７４號之３","E_COORD97":173659.13,"N_COORD97":2563429.2200000002,"ADDRESS":"磚子井７４號之３","OBJECTID":54719},"geometry":{"x":173659.13000000082,"y":2563429.2200000007}},{"attributes":{"ID":54720,"DIS_CODE":0,"TOWNNAME":"麻豆區","LI":"磚井里","LIN":"8鄰","STREET":" ","SECT":" ","MAREA":"磚子井","LANE":" ","ALLEY":" ","HOUSE_NO":"７４號","E_COORD97":173653.01999999999,"N_COORD97":2563456.2999999998,"ADDRESS":"磚子井７４號","OBJECTID":54720},"geometry":{"x":173653.02000000048,"y":2563456.3000000007}},{"attributes":{"ID":54721,"DIS_CODE":0,"TOWNNAME":"官田區","LI":"南\u25A0里","LIN":"1鄰","STREET":" ","SECT":" ","MAREA":"南\u25A0","LANE":" ","ALLEY":" ","HOUSE_NO":"８號之４７","E_COORD97":179395.95999999999,"N_COORD97":2567577.71,"ADDRESS":"南\u25A0８號之４７","OBJECTID":54721},"geometry":{"x":179395.95999999996,"y":2567577.7100000028}},{"attributes":{"ID":54722,"DIS_CODE":0,"TOWNNAME":"官田區","LI":"南\u25A0里","LIN":"1鄰","STREET":" ","SECT":" ","MAREA":"南\u25A0","LANE":" ","ALLEY":" ","HOUSE_NO":"８號之４８","E_COORD97":179394.26000000001,"N_COORD97":2567581.9300000002,"ADDRESS":"南\u25A0８號之４８","OBJECTID":54722},"geometry":{"x":179394.25999999978,"y":2567581.9300000016}},{"attributes":{"ID":54723,"DIS_CODE":0,"TOWNNAME":"官田區","LI":"南\u25A0里","LIN":"1鄰","STREET":" ","SECT":" ","MAREA":"南\u25A0","LANE":" ","ALLEY":" ","HOUSE_NO":"８號之４","E_COORD97":179426.26999999999,"N_COORD97":2567525.2999999998,"ADDRESS":"南\u25A0８號之４","OBJECTID":54723},"geometry":{"x":179426.26999999862,"y":2567525.3000000045}},{"attributes":{"ID":54724,"DIS_CODE":0,"TOWNNAME":"官田區","LI":"南\u25A0里","LIN":"1鄰","STREET":" ","SECT":" ","MAREA":"南\u25A0","LANE":" ","ALLEY":" ","HOUSE_NO":"８號之５０","E_COORD97":179402.66,"N_COORD97":2567565.8300000001,"ADDRESS":"南\u25A0８號之５０","OBJECTID":54724},"geometry":{"x":179402.66000000108,"y":2567565.8300000019}},{"attributes":{"ID":54725,"DIS_CODE":0,"TOWNNAME":"官田區","LI":"南\u25A0里","LIN":"1鄰","STREET":" ","SECT":" ","MAREA":"南\u25A0","LANE":" ","ALLEY":" ","HOUSE_NO":"８號之５","E_COORD97":179423.82999999999,"N_COORD97":2567529.6200000001,"ADDRESS":"南\u25A0８號之５","OBJECTID":54725},"geometry":{"x":179423.83000000101,"y":2567529.620000001}},{"attributes":{"ID":54726,"DIS_CODE":0,"TOWNNAME":"北區","LI":"文元里","LIN":"1鄰","STREET":"北成路","SECT":" ","MAREA":" ","LANE":"４８１巷","ALLEY":"１７弄","HOUSE_NO":"１７號","E_COORD97":167870.48000000001,"N_COORD97":2546515.3799999999,"ADDRESS":"北成路４８１巷１７弄１７號","OBJECTID":54726},"geometry":{"x":167870.48000000138,"y":2546515.379999999}},{"attributes":{"ID":54727,"DIS_CODE":0,"TOWNNAME":"北區","LI":"大豐里","LIN":"1鄰","STREET":"文賢路","SECT":" ","MAREA":" ","LANE":"３１３巷","ALLEY":"１１弄","HOUSE_NO":"１１號","E_COORD97":167277.87,"N_COORD97":2545194.8799999999,"ADDRESS":"文賢路３１３巷１１弄１１號","OBJECTID":54727},"geometry":{"x":167277.87000000011,"y":2545194.8800000008}},{"attributes":{"ID":54728,"DIS_CODE":0,"TOWNNAME":"麻豆區","LI":"磚井里","LIN":"8鄰","STREET":" ","SECT":" ","MAREA":"磚子井","LANE":" ","ALLEY":" ","HOUSE_NO":"８０號之３","E_COORD97":173551.17999999999,"N_COORD97":2563468.5499999998,"ADDRESS":"磚子井８０號之３","OBJECTID":54728},"geometry":{"x":173551.1799999997,"y":2563468.5500000045}},{"attributes":{"ID":54729,"DIS_CODE":0,"TOWNNAME":"北區","LI":"大豐里","LIN":"1鄰","STREET":"文賢路","SECT":" ","MAREA":" ","LANE":"３１３巷","ALLEY":"１１弄","HOUSE_NO":"１３號","E_COORD97":167276.97,"N_COORD97":2545190.5699999998,"ADDRESS":"文賢路３１３巷１１弄１３號","OBJECTID":54729},"geometry":{"x":167276.96999999974,"y":2545190.570000004}},{"attributes":{"ID":54730,"DIS_CODE":0,"TOWNNAME":"北區","LI":"大豐里","LIN":"1鄰","STREET":"文賢路","SECT":" ","MAREA":" ","LANE":"３１３巷","ALLEY":"１１弄","HOUSE_NO":"１５號","E_COORD97":167276.47,"N_COORD97":2545185.75,"ADDRESS":"文賢路３１３巷１１弄１５號","OBJECTID":54730},"geometry":{"x":167276.47000000067,"y":2545185.7500000019}},{"attributes":{"ID":54731,"DIS_CODE":0,"TOWNNAME":"北區","LI":"大豐里","LIN":"1鄰","STREET":"文賢路","SECT":" ","MAREA":" ","LANE":"３１３巷","ALLEY":"１１弄","HOUSE_NO":"１７號","E_COORD97":167276.47,"N_COORD97":2545179.3999999999,"ADDRESS":"文賢路３１３巷１１弄１７號","OBJECTID":54731},"geometry":{"x":167276.47000000067,"y":2545179.4000000022}},{"attributes":{"ID":54732,"DIS_CODE":0,"TOWNNAME":"北區","LI":"大豐里","LIN":"1鄰","STREET":"文賢路","SECT":" ","MAREA":" ","LANE":"３１３巷","ALLEY":"１１弄","HOUSE_NO":"１號","E_COORD97":167280.67999999999,"N_COORD97":2545217,"ADDRESS":"文賢路３１３巷１１弄１號","OBJECTID":54732},"geometry":{"x":167280.6799999997,"y":2545217}},{"attributes":{"ID":54733,"DIS_CODE":0,"TOWNNAME":"官田區","LI":"南\u25A0里","LIN":"1鄰","STREET":" ","SECT":" ","MAREA":"南\u25A0","LANE":" ","ALLEY":" ","HOUSE_NO":"８號之６","E_COORD97":179421.34,"N_COORD97":2567533.8900000001,"ADDRESS":"南\u25A0８號之６","OBJECTID":54733},"geometry":{"x":179421.34000000078,"y":2567533.8900000006}},{"attributes":{"ID":54734,"DIS_CODE":0,"TOWNNAME":"官田區","LI":"南\u25A0里","LIN":"1鄰","STREET":" ","SECT":" ","MAREA":"南\u25A0","LANE":" ","ALLEY":" ","HOUSE_NO":"８號之７３","E_COORD97":179387.79000000001,"N_COORD97":2567595.4900000002,"ADDRESS":"南\u25A0８號之７３","OBJECTID":54734},"geometry":{"x":179387.7900000019,"y":2567595.4900000021}},{"attributes":{"ID":54735,"DIS_CODE":0,"TOWNNAME":"官田區","LI":"南\u25A0里","LIN":"1鄰","STREET":" ","SECT":" ","MAREA":"南\u25A0","LANE":" ","ALLEY":" ","HOUSE_NO":"８號之７４","E_COORD97":179385.70999999999,"N_COORD97":2567599.4700000002,"ADDRESS":"南\u25A0８號之７４","OBJECTID":54735},"geometry":{"x":179385.70999999996,"y":2567599.4700000025}},{"attributes":{"ID":54736,"DIS_CODE":0,"TOWNNAME":"官田區","LI":"南\u25A0里","LIN":"1鄰","STREET":" ","SECT":" ","MAREA":"南\u25A0","LANE":" ","ALLEY":" ","HOUSE_NO":"８號之７５","E_COORD97":179383.20000000001,"N_COORD97":2567603.4399999999,"ADDRESS":"南\u25A0８號之７５","OBJECTID":54736},"geometry":{"x":179383.20000000019,"y":2567603.4399999995}},{"attributes":{"ID":54737,"DIS_CODE":0,"TOWNNAME":"官田區","LI":"南\u25A0里","LIN":"1鄰","STREET":" ","SECT":" ","MAREA":"南\u25A0","LANE":" ","ALLEY":" ","HOUSE_NO":"８號之７６","E_COORD97":179381.28,"N_COORD97":2567607.3399999999,"ADDRESS":"南\u25A0８號之７６","OBJECTID":54737},"geometry":{"x":179381.28000000212,"y":2567607.3399999999}},{"attributes":{"ID":54738,"DIS_CODE":0,"TOWNNAME":"官田區","LI":"南\u25A0里","LIN":"1鄰","STREET":" ","SECT":" ","MAREA":"南\u25A0","LANE":" ","ALLEY":" ","HOUSE_NO":"８號之８０","E_COORD97":179372.32999999999,"N_COORD97":2567622.8300000001,"ADDRESS":"南\u25A0８號之８０","OBJECTID":54738},"geometry":{"x":179372.33000000194,"y":2567622.8300000019}},{"attributes":{"ID":54739,"DIS_CODE":0,"TOWNNAME":"官田區","LI":"南\u25A0里","LIN":"1鄰","STREET":" ","SECT":" ","MAREA":"南\u25A0","LANE":" ","ALLEY":" ","HOUSE_NO":"８號之８１","E_COORD97":179370.20000000001,"N_COORD97":2567626.9300000002,"ADDRESS":"南\u25A0８號之８１","OBJECTID":54739},"geometry":{"x":179370.20000000112,"y":2567626.9299999997}},{"attributes":{"ID":54740,"DIS_CODE":0,"TOWNNAME":"官田區","LI":"南\u25A0里","LIN":"1鄰","STREET":" ","SECT":" ","MAREA":"南\u25A0","LANE":" ","ALLEY":" ","HOUSE_NO":"８號之８２","E_COORD97":179367.89999999999,"N_COORD97":2567631.0099999998,"ADDRESS":"南\u25A0８號之８２","OBJECTID":54740},"geometry":{"x":179367.90000000037,"y":2567631.0099999979}},{"attributes":{"ID":54741,"DIS_CODE":0,"TOWNNAME":"官田區","LI":"南\u25A0里","LIN":"1鄰","STREET":" ","SECT":" ","MAREA":"南\u25A0","LANE":" ","ALLEY":" ","HOUSE_NO":"８號","E_COORD97":179435.51999999999,"N_COORD97":2567509.71,"ADDRESS":"南\u25A0８號","OBJECTID":54741},"geometry":{"x":179435.52000000048,"y":2567509.7100000028}},{"attributes":{"ID":54742,"DIS_CODE":0,"TOWNNAME":"北區","LI":"大豐里","LIN":"1鄰","STREET":"文賢路","SECT":" ","MAREA":" ","LANE":"３１３巷","ALLEY":"１１弄","HOUSE_NO":"３號","E_COORD97":167280.28,"N_COORD97":2545212.5899999999,"ADDRESS":"文賢路３１３巷１１弄３號","OBJECTID":54742},"geometry":{"x":167280.28000000026,"y":2545212.5899999999}},{"attributes":{"ID":54743,"DIS_CODE":0,"TOWNNAME":"北區","LI":"大豐里","LIN":"1鄰","STREET":"文賢路","SECT":" ","MAREA":" ","LANE":"３１３巷","ALLEY":"１１弄","HOUSE_NO":"５號","E_COORD97":167279.88,"N_COORD97":2545208.6800000002,"ADDRESS":"文賢路３１３巷１１弄５號","OBJECTID":54743},"geometry":{"x":167279.87999999896,"y":2545208.6799999997}},{"attributes":{"ID":54744,"DIS_CODE":0,"TOWNNAME":"北區","LI":"大豐里","LIN":"1鄰","STREET":"文賢路","SECT":" ","MAREA":" ","LANE":"３１３巷","ALLEY":"１１弄","HOUSE_NO":"７號","E_COORD97":167278.26999999999,"N_COORD97":2545203.71,"ADDRESS":"文賢路３１３巷１１弄７號","OBJECTID":54744},"geometry":{"x":167278.26999999955,"y":2545203.7100000046}},{"attributes":{"ID":54745,"DIS_CODE":0,"TOWNNAME":"北區","LI":"大豐里","LIN":"1鄰","STREET":"文賢路","SECT":" ","MAREA":" ","LANE":"３１３巷","ALLEY":"１１弄","HOUSE_NO":"９號","E_COORD97":167278.37,"N_COORD97":2545199.7999999998,"ADDRESS":"文賢路３１３巷１１弄９號","OBJECTID":54745},"geometry":{"x":167278.37000000011,"y":2545199.8000000026}},{"attributes":{"ID":54746,"DIS_CODE":0,"TOWNNAME":"官田區","LI":"南\u25A0里","LIN":"1鄰","STREET":" ","SECT":" ","MAREA":"南\u25A0","LANE":" ","ALLEY":" ","HOUSE_NO":"９號之１０","E_COORD97":179337.07000000001,"N_COORD97":2567682.9700000002,"ADDRESS":"南\u25A0９號之１０","OBJECTID":54746},"geometry":{"x":179337.07000000216,"y":2567682.9699999988}},{"attributes":{"ID":54747,"DIS_CODE":0,"TOWNNAME":"官田區","LI":"南\u25A0里","LIN":"1鄰","STREET":" ","SECT":" ","MAREA":"南\u25A0","LANE":" ","ALLEY":" ","HOUSE_NO":"９號之１１","E_COORD97":179335.14999999999,"N_COORD97":2567686.8599999999,"ADDRESS":"南\u25A0９號之１１","OBJECTID":54747},"geometry":{"x":179335.1500000013,"y":2567686.8600000013}},{"attributes":{"ID":54748,"DIS_CODE":0,"TOWNNAME":"官田區","LI":"南\u25A0里","LIN":"1鄰","STREET":" ","SECT":" ","MAREA":"南\u25A0","LANE":" ","ALLEY":" ","HOUSE_NO":"９號之１２","E_COORD97":179332.35999999999,"N_COORD97":2567690.8100000001,"ADDRESS":"南\u25A0９號之１２","OBJECTID":54748},"geometry":{"x":179332.36000000127,"y":2567690.8100000042}},{"attributes":{"ID":54749,"DIS_CODE":0,"TOWNNAME":"官田區","LI":"南\u25A0里","LIN":"1鄰","STREET":" ","SECT":" ","MAREA":"南\u25A0","LANE":" ","ALLEY":" ","HOUSE_NO":"９號之１３","E_COORD97":179330.38,"N_COORD97":2567694.96,"ADDRESS":"南\u25A0９號之１３","OBJECTID":54749},"geometry":{"x":179330.37999999989,"y":2567694.9600000028}},{"attributes":{"ID":54750,"DIS_CODE":0,"TOWNNAME":"官田區","LI":"南\u25A0里","LIN":"1鄰","STREET":" ","SECT":" ","MAREA":"南\u25A0","LANE":" ","ALLEY":" ","HOUSE_NO":"９號之１４","E_COORD97":179328.60000000001,"N_COORD97":2567698.8999999999,"ADDRESS":"南\u25A0９號之１４","OBJECTID":54750},"geometry":{"x":179328.59999999963,"y":2567698.9000000004}},{"attributes":{"ID":54751,"DIS_CODE":0,"TOWNNAME":"麻豆區","LI":"磚井里","LIN":"8鄰","STREET":" ","SECT":" ","MAREA":"磚子井","LANE":" ","ALLEY":" ","HOUSE_NO":"７５號之１","E_COORD97":173637.22,"N_COORD97":2563435.6200000001,"ADDRESS":"磚子井７５號之１","OBJECTID":54751},"geometry":{"x":173637.21999999974,"y":2563435.6200000029}},{"attributes":{"ID":54752,"DIS_CODE":0,"TOWNNAME":"麻豆區","LI":"磚井里","LIN":"8鄰","STREET":" ","SECT":" ","MAREA":"磚子井","LANE":" ","ALLEY":" ","HOUSE_NO":"７５號之２","E_COORD97":173636.73999999999,"N_COORD97":2563460.48,"ADDRESS":"磚子井７５號之２","OBJECTID":54752},"geometry":{"x":173636.74000000115,"y":2563460.4800000004}},{"attributes":{"ID":54753,"DIS_CODE":0,"TOWNNAME":"麻豆區","LI":"磚井里","LIN":"8鄰","STREET":" ","SECT":" ","MAREA":"磚子井","LANE":" ","ALLEY":" ","HOUSE_NO":"７５號","E_COORD97":173639.35999999999,"N_COORD97":2563447.79,"ADDRESS":"磚子井７５號","OBJECTID":54753},"geometry":{"x":173639.36000000127,"y":2563447.7899999991}},{"attributes":{"ID":54754,"DIS_CODE":0,"TOWNNAME":"麻豆區","LI":"磚井里","LIN":"8鄰","STREET":" ","SECT":" ","MAREA":"磚子井","LANE":" ","ALLEY":" ","HOUSE_NO":"７７號之１","E_COORD97":173577.20999999999,"N_COORD97":2563396.8500000001,"ADDRESS":"磚子井７７號之１","OBJECTID":54754},"geometry":{"x":173577.21000000183,"y":2563396.8499999996}},{"attributes":{"ID":54755,"DIS_CODE":0,"TOWNNAME":"麻豆區","LI":"磚井里","LIN":"8鄰","STREET":" ","SECT":" ","MAREA":"磚子井","LANE":" ","ALLEY":" ","HOUSE_NO":"７７號之２","E_COORD97":173578.56,"N_COORD97":2563369.54,"ADDRESS":"磚子井７７號之２","OBJECTID":54755},"geometry":{"x":173578.56000000052,"y":2563369.540000001}},{"attributes":{"ID":54756,"DIS_CODE":0,"TOWNNAME":"麻豆區","LI":"磚井里","LIN":"8鄰","STREET":" ","SECT":" ","MAREA":"磚子井","LANE":" ","ALLEY":" ","HOUSE_NO":"７７號之３","E_COORD97":173574.53,"N_COORD97":2563358.75,"ADDRESS":"磚子井７７號之３","OBJECTID":54756},"geometry":{"x":173574.53000000026,"y":2563358.7500000019}},{"attributes":{"ID":54757,"DIS_CODE":0,"TOWNNAME":"麻豆區","LI":"磚井里","LIN":"8鄰","STREET":" ","SECT":" ","MAREA":"磚子井","LANE":" ","ALLEY":" ","HOUSE_NO":"７７號之４","E_COORD97":173586.07999999999,"N_COORD97":2563352.3399999999,"ADDRESS":"磚子井７７號之４","OBJECTID":54757},"geometry":{"x":173586.08000000007,"y":2563352.3399999999}},{"attributes":{"ID":54758,"DIS_CODE":0,"TOWNNAME":"麻豆區","LI":"磚井里","LIN":"8鄰","STREET":" ","SECT":" ","MAREA":"磚子井","LANE":" ","ALLEY":" ","HOUSE_NO":"７７號之５","E_COORD97":173586.70000000001,"N_COORD97":2563346.0800000001,"ADDRESS":"磚子井７７號之５","OBJECTID":54758},"geometry":{"x":173586.70000000112,"y":2563346.0800000019}},{"attributes":{"ID":54759,"DIS_CODE":0,"TOWNNAME":"麻豆區","LI":"磚井里","LIN":"8鄰","STREET":" ","SECT":" ","MAREA":"磚子井","LANE":" ","ALLEY":" ","HOUSE_NO":"７７號之６","E_COORD97":173576.19,"N_COORD97":2563387.73,"ADDRESS":"磚子井７７號之６","OBJECTID":54759},"geometry":{"x":173576.19000000134,"y":2563387.7300000004}},{"attributes":{"ID":54760,"DIS_CODE":0,"TOWNNAME":"麻豆區","LI":"磚井里","LIN":"8鄰","STREET":" ","SECT":" ","MAREA":"磚子井","LANE":" ","ALLEY":" ","HOUSE_NO":"７７號之７","E_COORD97":173595.73000000001,"N_COORD97":2563396.71,"ADDRESS":"磚子井７７號之７","OBJECTID":54760},"geometry":{"x":173595.73000000045,"y":2563396.7100000028}},{"attributes":{"ID":54761,"DIS_CODE":0,"TOWNNAME":"麻豆區","LI":"磚井里","LIN":"8鄰","STREET":" ","SECT":" ","MAREA":"磚子井","LANE":" ","ALLEY":" ","HOUSE_NO":"７７號之８","E_COORD97":173601.17999999999,"N_COORD97":2563397.6299999999,"ADDRESS":"磚子井７７號之８","OBJECTID":54761},"geometry":{"x":173601.18000000063,"y":2563397.629999999}},{"attributes":{"ID":54762,"DIS_CODE":0,"TOWNNAME":"麻豆區","LI":"磚井里","LIN":"8鄰","STREET":" ","SECT":" ","MAREA":"磚子井","LANE":" ","ALLEY":" ","HOUSE_NO":"７７號之９","E_COORD97":173576.47,"N_COORD97":2563377.75,"ADDRESS":"磚子井７７號之９","OBJECTID":54762},"geometry":{"x":173576.46999999974,"y":2563377.75}},{"attributes":{"ID":54763,"DIS_CODE":0,"TOWNNAME":"麻豆區","LI":"磚井里","LIN":"8鄰","STREET":" ","SECT":" ","MAREA":"磚子井","LANE":" ","ALLEY":" ","HOUSE_NO":"７７號","E_COORD97":173579.84,"N_COORD97":2563424.54,"ADDRESS":"磚子井７７號","OBJECTID":54763},"geometry":{"x":173579.84000000078,"y":2563424.5399999991}},{"attributes":{"ID":54764,"DIS_CODE":0,"TOWNNAME":"麻豆區","LI":"磚井里","LIN":"8鄰","STREET":" ","SECT":" ","MAREA":"磚子井","LANE":" ","ALLEY":" ","HOUSE_NO":"８０號之１","E_COORD97":173563.72,"N_COORD97":2563470.6000000001,"ADDRESS":"磚子井８０號之１","OBJECTID":54764},"geometry":{"x":173563.72000000067,"y":2563470.6000000034}},{"attributes":{"ID":54765,"DIS_CODE":0,"TOWNNAME":"七股區","LI":"竹橋里","LIN":"8鄰","STREET":" ","SECT":" ","MAREA":"竹橋","LANE":" ","ALLEY":" ","HOUSE_NO":"４０號","E_COORD97":164231.03,"N_COORD97":2556062.71,"ADDRESS":"竹橋４０號","OBJECTID":54765},"geometry":{"x":164231.03000000026,"y":2556062.7100000009}},{"attributes":{"ID":54766,"DIS_CODE":0,"TOWNNAME":"麻豆區","LI":"磚井里","LIN":"8鄰","STREET":" ","SECT":" ","MAREA":"磚子井","LANE":" ","ALLEY":" ","HOUSE_NO":"８０號之４","E_COORD97":173553.59,"N_COORD97":2563453.9700000002,"ADDRESS":"磚子井８０號之４","OBJECTID":54766},"geometry":{"x":173553.58999999985,"y":2563453.9700000007}},{"attributes":{"ID":54767,"DIS_CODE":0,"TOWNNAME":"麻豆區","LI":"磚井里","LIN":"8鄰","STREET":" ","SECT":" ","MAREA":"磚子井","LANE":" ","ALLEY":" ","HOUSE_NO":"８０號之５","E_COORD97":173553.76000000001,"N_COORD97":2563449.25,"ADDRESS":"磚子井８０號之５","OBJECTID":54767},"geometry":{"x":173553.75999999978,"y":2563449.2499999981}},{"attributes":{"ID":54768,"DIS_CODE":0,"TOWNNAME":"北門區","LI":"錦湖里","LIN":"8鄰","STREET":" ","SECT":" ","MAREA":"渡子頭","LANE":" ","ALLEY":" ","HOUSE_NO":"８１號之１","E_COORD97":164733.73000000001,"N_COORD97":2577396.71,"ADDRESS":"渡子頭８１號之１","OBJECTID":54768},"geometry":{"x":164733.73000000231,"y":2577396.7100000028}},{"attributes":{"ID":54769,"DIS_CODE":0,"TOWNNAME":"北門區","LI":"錦湖里","LIN":"8鄰","STREET":" ","SECT":" ","MAREA":"渡子頭","LANE":" ","ALLEY":" ","HOUSE_NO":"８１號之２","E_COORD97":164855.20999999999,"N_COORD97":2577472.2000000002,"ADDRESS":"渡子頭８１號之２","OBJECTID":54769},"geometry":{"x":164855.20999999996,"y":2577472.2000000011}},{"attributes":{"ID":54770,"DIS_CODE":0,"TOWNNAME":"北門區","LI":"錦湖里","LIN":"8鄰","STREET":" ","SECT":" ","MAREA":"渡子頭","LANE":" ","ALLEY":" ","HOUSE_NO":"８１號之３","E_COORD97":164789.56,"N_COORD97":2577454.3399999999,"ADDRESS":"渡子頭８１號之３","OBJECTID":54770},"geometry":{"x":164789.55999999959,"y":2577454.3400000036}},{"attributes":{"ID":54771,"DIS_CODE":0,"TOWNNAME":"北門區","LI":"錦湖里","LIN":"8鄰","STREET":" ","SECT":" ","MAREA":"渡子頭","LANE":" ","ALLEY":" ","HOUSE_NO":"８１之６號","E_COORD97":164721.63,"N_COORD97":2577414.8700000001,"ADDRESS":"渡子頭８１之６號","OBJECTID":54771},"geometry":{"x":164721.62999999989,"y":2577414.8700000048}},{"attributes":{"ID":54772,"DIS_CODE":0,"TOWNNAME":"北門區","LI":"錦湖里","LIN":"8鄰","STREET":" ","SECT":" ","MAREA":"渡子頭","LANE":" ","ALLEY":" ","HOUSE_NO":"８１號","E_COORD97":164893.70999999999,"N_COORD97":2577485.0800000001,"ADDRESS":"渡子頭８１號","OBJECTID":54772},"geometry":{"x":164893.70999999996,"y":2577485.0800000019}},{"attributes":{"ID":54773,"DIS_CODE":0,"TOWNNAME":"北門區","LI":"中樞里","LIN":"8鄰","STREET":" ","SECT":" ","MAREA":"溪底寮","LANE":" ","ALLEY":" ","HOUSE_NO":"５９號之１","E_COORD97":160961.04000000001,"N_COORD97":2571287.7400000002,"ADDRESS":"溪底寮５９號之１","OBJECTID":54773},"geometry":{"x":160961.0400000019,"y":2571287.7400000002}},{"attributes":{"ID":54774,"DIS_CODE":0,"TOWNNAME":"北門區","LI":"中樞里","LIN":"8鄰","STREET":" ","SECT":" ","MAREA":"溪底寮","LANE":" ","ALLEY":" ","HOUSE_NO":"５９號","E_COORD97":160985.73999999999,"N_COORD97":2571276.52,"ADDRESS":"溪底寮５９號","OBJECTID":54774},"geometry":{"x":160985.74000000115,"y":2571276.5200000014}},{"attributes":{"ID":54775,"DIS_CODE":0,"TOWNNAME":"北門區","LI":"中樞里","LIN":"8鄰","STREET":" ","SECT":" ","MAREA":"溪底寮","LANE":" ","ALLEY":" ","HOUSE_NO":"６０號","E_COORD97":160997.44,"N_COORD97":2571289.8900000001,"ADDRESS":"溪底寮６０號","OBJECTID":54775},"geometry":{"x":160997.44000000041,"y":2571289.8900000006}},{"attributes":{"ID":54776,"DIS_CODE":0,"TOWNNAME":"北門區","LI":"中樞里","LIN":"8鄰","STREET":" ","SECT":" ","MAREA":"溪底寮","LANE":" ","ALLEY":" ","HOUSE_NO":"６１號之１","E_COORD97":161025.28,"N_COORD97":2571281.4900000002,"ADDRESS":"溪底寮６１號之１","OBJECTID":54776},"geometry":{"x":161025.28000000026,"y":2571281.4900000021}},{"attributes":{"ID":54777,"DIS_CODE":0,"TOWNNAME":"北門區","LI":"中樞里","LIN":"8鄰","STREET":" ","SECT":" ","MAREA":"溪底寮","LANE":" ","ALLEY":" ","HOUSE_NO":"６１號","E_COORD97":161012.95000000001,"N_COORD97":2571279.7400000002,"ADDRESS":"溪底寮６１號","OBJECTID":54777},"geometry":{"x":161012.95000000112,"y":2571279.7400000021}},{"attributes":{"ID":54778,"DIS_CODE":0,"TOWNNAME":"北門區","LI":"中樞里","LIN":"8鄰","STREET":" ","SECT":" ","MAREA":"溪底寮","LANE":" ","ALLEY":" ","HOUSE_NO":"６３之１號","E_COORD97":161036.63,"N_COORD97":2571313.6800000002,"ADDRESS":"溪底寮６３之１號","OBJECTID":54778},"geometry":{"x":161036.63000000175,"y":2571313.6799999997}},{"attributes":{"ID":54779,"DIS_CODE":0,"TOWNNAME":"北門區","LI":"中樞里","LIN":"8鄰","STREET":" ","SECT":" ","MAREA":"溪底寮","LANE":" ","ALLEY":" ","HOUSE_NO":"６３號","E_COORD97":161046.92999999999,"N_COORD97":2571284.9100000001,"ADDRESS":"溪底寮６３號","OBJECTID":54779},"geometry":{"x":161046.93000000063,"y":2571284.910000002}},{"attributes":{"ID":54780,"DIS_CODE":0,"TOWNNAME":"北門區","LI":"中樞里","LIN":"8鄰","STREET":" ","SECT":" ","MAREA":"溪底寮","LANE":" ","ALLEY":" ","HOUSE_NO":"６４號","E_COORD97":161029.09,"N_COORD97":2571315.5800000001,"ADDRESS":"溪底寮６４號","OBJECTID":54780},"geometry":{"x":161029.09000000078,"y":2571315.5800000001}},{"attributes":{"ID":54781,"DIS_CODE":0,"TOWNNAME":"北門區","LI":"中樞里","LIN":"8鄰","STREET":" ","SECT":" ","MAREA":"溪底寮","LANE":" ","ALLEY":" ","HOUSE_NO":"６５號","E_COORD97":161014.57000000001,"N_COORD97":2571314.6099999999,"ADDRESS":"溪底寮６５號","OBJECTID":54781},"geometry":{"x":161014.5700000003,"y":2571314.6099999994}},{"attributes":{"ID":54782,"DIS_CODE":0,"TOWNNAME":"北門區","LI":"雙春里","LIN":"8鄰","STREET":" ","SECT":" ","MAREA":"雙春","LANE":" ","ALLEY":" ","HOUSE_NO":"５６號","E_COORD97":160930.29000000001,"N_COORD97":2577756.4399999999,"ADDRESS":"雙春５６號","OBJECTID":54782},"geometry":{"x":160930.29000000004,"y":2577756.4400000013}},{"attributes":{"ID":54783,"DIS_CODE":0,"TOWNNAME":"北門區","LI":"雙春里","LIN":"8鄰","STREET":" ","SECT":" ","MAREA":"雙春","LANE":" ","ALLEY":" ","HOUSE_NO":"５７號","E_COORD97":160925.35000000001,"N_COORD97":2577746.54,"ADDRESS":"雙春５７號","OBJECTID":54783},"geometry":{"x":160925.35000000056,"y":2577746.5399999991}},{"attributes":{"ID":54784,"DIS_CODE":0,"TOWNNAME":"北門區","LI":"雙春里","LIN":"8鄰","STREET":" ","SECT":" ","MAREA":"雙春","LANE":" ","ALLEY":" ","HOUSE_NO":"５８號之１","E_COORD97":160907.23000000001,"N_COORD97":2577723.2000000002,"ADDRESS":"雙春５８號之１","OBJECTID":54784},"geometry":{"x":160907.23000000045,"y":2577723.2000000011}},{"attributes":{"ID":54785,"DIS_CODE":0,"TOWNNAME":"北門區","LI":"雙春里","LIN":"8鄰","STREET":" ","SECT":" ","MAREA":"雙春","LANE":" ","ALLEY":" ","HOUSE_NO":"５８號之２","E_COORD97":160906.14999999999,"N_COORD97":2577718.8700000001,"ADDRESS":"雙春５８號之２","OBJECTID":54785},"geometry":{"x":160906.15000000037,"y":2577718.870000001}},{"attributes":{"ID":54786,"DIS_CODE":0,"TOWNNAME":"北門區","LI":"雙春里","LIN":"8鄰","STREET":" ","SECT":" ","MAREA":"雙春","LANE":" ","ALLEY":" ","HOUSE_NO":"５８號","E_COORD97":160917.26000000001,"N_COORD97":2577733.9199999999,"ADDRESS":"雙春５８號","OBJECTID":54786},"geometry":{"x":160917.26000000071,"y":2577733.9199999999}},{"attributes":{"ID":54787,"DIS_CODE":0,"TOWNNAME":"官田區","LI":"南\u25A0里","LIN":"1鄰","STREET":" ","SECT":" ","MAREA":"南\u25A0","LANE":" ","ALLEY":" ","HOUSE_NO":"９號之１５","E_COORD97":179326.07999999999,"N_COORD97":2567702.77,"ADDRESS":"南\u25A0９號之１５","OBJECTID":54787},"geometry":{"x":179326.08000000007,"y":2567702.7699999996}},{"attributes":{"ID":54788,"DIS_CODE":0,"TOWNNAME":"官田區","LI":"南\u25A0里","LIN":"1鄰","STREET":" ","SECT":" ","MAREA":"南\u25A0","LANE":" ","ALLEY":" ","HOUSE_NO":"９號之１","E_COORD97":179357.51000000001,"N_COORD97":2567648.2400000002,"ADDRESS":"南\u25A0９號之１","OBJECTID":54788},"geometry":{"x":179357.51000000071,"y":2567648.2400000021}},{"attributes":{"ID":54789,"DIS_CODE":0,"TOWNNAME":"官田區","LI":"二鎮里","LIN":"8鄰","STREET":" ","SECT":" ","MAREA":"二鎮","LANE":" ","ALLEY":" ","HOUSE_NO":"７５號之８","E_COORD97":181528.07999999999,"N_COORD97":2568921.8999999999,"ADDRESS":"二鎮７５號之８","OBJECTID":54789},"geometry":{"x":181528.08000000007,"y":2568921.9000000022}},{"attributes":{"ID":54790,"DIS_CODE":0,"TOWNNAME":"官田區","LI":"二鎮里","LIN":"8鄰","STREET":" ","SECT":" ","MAREA":"二鎮","LANE":" ","ALLEY":" ","HOUSE_NO":"７５號之９","E_COORD97":181821.59,"N_COORD97":2568934.0899999999,"ADDRESS":"二鎮７５號之９","OBJECTID":54790},"geometry":{"x":181821.59000000171,"y":2568934.0900000017}},{"attributes":{"ID":54791,"DIS_CODE":0,"TOWNNAME":"官田區","LI":"二鎮里","LIN":"8鄰","STREET":" ","SECT":" ","MAREA":"二鎮","LANE":" ","ALLEY":" ","HOUSE_NO":"７５號","E_COORD97":181500.42999999999,"N_COORD97":2568491.54,"ADDRESS":"二鎮７５號","OBJECTID":54791},"geometry":{"x":181500.43000000156,"y":2568491.5400000028}},{"attributes":{"ID":54792,"DIS_CODE":0,"TOWNNAME":"官田區","LI":"二鎮里","LIN":"8鄰","STREET":" ","SECT":" ","MAREA":"二鎮","LANE":" ","ALLEY":" ","HOUSE_NO":"７６號之１","E_COORD97":181533.48999999999,"N_COORD97":2568478.6000000001,"ADDRESS":"二鎮７６號之１","OBJECTID":54792},"geometry":{"x":181533.49000000115,"y":2568478.6000000015}},{"attributes":{"ID":54793,"DIS_CODE":0,"TOWNNAME":"官田區","LI":"二鎮里","LIN":"8鄰","STREET":" ","SECT":" ","MAREA":"二鎮","LANE":" ","ALLEY":" ","HOUSE_NO":"７６號之２","E_COORD97":181533.19,"N_COORD97":2568484.2000000002,"ADDRESS":"二鎮７６號之２","OBJECTID":54793},"geometry":{"x":181533.19000000227,"y":2568484.2000000011}},{"attributes":{"ID":54794,"DIS_CODE":0,"TOWNNAME":"官田區","LI":"二鎮里","LIN":"8鄰","STREET":" ","SECT":" ","MAREA":"二鎮","LANE":" ","ALLEY":" ","HOUSE_NO":"７６號","E_COORD97":181522.62,"N_COORD97":2568448.5899999999,"ADDRESS":"二鎮７６號","OBJECTID":54794},"geometry":{"x":181522.62000000011,"y":2568448.5900000017}},{"attributes":{"ID":54795,"DIS_CODE":0,"TOWNNAME":"官田區","LI":"二鎮里","LIN":"8鄰","STREET":" ","SECT":" ","MAREA":"二鎮","LANE":" ","ALLEY":" ","HOUSE_NO":"７７號","E_COORD97":181497.57999999999,"N_COORD97":2568442.04,"ADDRESS":"二鎮７７號","OBJECTID":54795},"geometry":{"x":181497.58000000007,"y":2568442.040000001}},{"attributes":{"ID":54796,"DIS_CODE":0,"TOWNNAME":"官田區","LI":"二鎮里","LIN":"8鄰","STREET":" ","SECT":" ","MAREA":"二鎮","LANE":" ","ALLEY":" ","HOUSE_NO":"７８號之１","E_COORD97":181528.26999999999,"N_COORD97":2568431.9300000002,"ADDRESS":"二鎮７８號之１","OBJECTID":54796},"geometry":{"x":181528.26999999955,"y":2568431.9300000034}},{"attributes":{"ID":54797,"DIS_CODE":0,"TOWNNAME":"歸仁區","LI":"七甲里","LIN":"1鄰","STREET":"中正北路","SECT":"二段","MAREA":" ","LANE":"７５巷","ALLEY":"３８弄","HOUSE_NO":"２００號","E_COORD97":177189.20999999999,"N_COORD97":2542415.25,"ADDRESS":"中正北路二段７５巷３８弄２００號","OBJECTID":54797},"geometry":{"x":177189.20999999996,"y":2542415.2499999981}},{"attributes":{"ID":54798,"DIS_CODE":0,"TOWNNAME":"歸仁區","LI":"大廟里","LIN":"1鄰","STREET":"大廟三街","SECT":" ","MAREA":" ","LANE":"２０巷","ALLEY":"１２弄","HOUSE_NO":"１０號","E_COORD97":176039.41,"N_COORD97":2544035.8900000001,"ADDRESS":"大廟三街２０巷１２弄１０號","OBJECTID":54798},"geometry":{"x":176039.41000000108,"y":2544035.8900000043}},{"attributes":{"ID":54799,"DIS_CODE":0,"TOWNNAME":"官田區","LI":"二鎮里","LIN":"8鄰","STREET":" ","SECT":" ","MAREA":"二鎮","LANE":" ","ALLEY":" ","HOUSE_NO":"７８號之２","E_COORD97":181496.94,"N_COORD97":2568424.4700000002,"ADDRESS":"二鎮７８號之２","OBJECTID":54799},"geometry":{"x":181496.94000000041,"y":2568424.4700000007}},{"attributes":{"ID":54800,"DIS_CODE":0,"TOWNNAME":"官田區","LI":"二鎮里","LIN":"8鄰","STREET":" ","SECT":" ","MAREA":"二鎮","LANE":" ","ALLEY":" ","HOUSE_NO":"７８號","E_COORD97":181503.01000000001,"N_COORD97":2568424.6800000002,"ADDRESS":"二鎮７８號","OBJECTID":54800},"geometry":{"x":181503.00999999978,"y":2568424.6800000016}}]}