{"displayFieldName":"TOWNNAME","fieldAliases":{"ID":"ID","DIS_CODE":"DIS_CODE","TOWNNAME":"TOWNNAME","LI":"LI","LIN":"LIN","STREET":"STREET","SECT":"SECT","MAREA":"MAREA","LANE":"LANE","ALLEY":"ALLEY","HOUSE_NO":"HOUSE_NO","E_COORD97":"E_COORD97","N_COORD97":"N_COORD97","ADDRESS":"ADDRESS","OBJECTID":"OBJECTID"},"geometryType":"esriGeometryPoint","spatialReference":{"wkid":102443,"latestWkid":3826},"fields":[{"name":"ID","type":"esriFieldTypeDouble","alias":"ID"},{"name":"DIS_CODE","type":"esriFieldTypeInteger","alias":"DIS_CODE"},{"name":"TOWNNAME","type":"esriFieldTypeString","alias":"TOWNNAME","length":8},{"name":"LI","type":"esriFieldTypeString","alias":"LI","length":8},{"name":"LIN","type":"esriFieldTypeString","alias":"LIN","length":12},{"name":"STREET","type":"esriFieldTypeString","alias":"STREET","length":20},{"name":"SECT","type":"esriFieldTypeString","alias":"SECT","length":8},{"name":"MAREA","type":"esriFieldTypeString","alias":"MAREA","length":12},{"name":"LANE","type":"esriFieldTypeString","alias":"LANE","length":10},{"name":"ALLEY","type":"esriFieldTypeString","alias":"ALLEY","length":10},{"name":"HOUSE_NO","type":"esriFieldTypeString","alias":"HOUSE_NO","length":20},{"name":"E_COORD97","type":"esriFieldTypeDouble","alias":"E_COORD97"},{"name":"N_COORD97","type":"esriFieldTypeDouble","alias":"N_COORD97"},{"name":"ADDRESS","type":"esriFieldTypeString","alias":"ADDRESS","length":50},{"name":"OBJECTID","type":"esriFieldTypeOID","alias":"OBJECTID"}],"features":[{"attributes":{"ID":470426,"DIS_CODE":0,"TOWNNAME":"東區","LI":"大德里","LIN":"5鄰","STREET":"立德十路","SECT":" ","MAREA":" ","LANE":" ","ALLEY":" ","HOUSE_NO":"３４號","E_COORD97":169480.73999999999,"N_COORD97":2542038.04,"ADDRESS":"立德十路３４號","OBJECTID":470401},"geometry":{"x":169480.74000000115,"y":2542038.0399999991}},{"attributes":{"ID":470427,"DIS_CODE":0,"TOWNNAME":"東區","LI":"大德里","LIN":"5鄰","STREET":"立德十路","SECT":" ","MAREA":" ","LANE":" ","ALLEY":" ","HOUSE_NO":"２０號","E_COORD97":169448.60000000001,"N_COORD97":2542030.3799999999,"ADDRESS":"立德十路２０號","OBJECTID":470402},"geometry":{"x":169448.60000000056,"y":2542030.3800000027}},{"attributes":{"ID":470428,"DIS_CODE":0,"TOWNNAME":"東區","LI":"大德里","LIN":"5鄰","STREET":"立德十路","SECT":" ","MAREA":" ","LANE":" ","ALLEY":" ","HOUSE_NO":"４８號","E_COORD97":169508.95000000001,"N_COORD97":2542038.2400000002,"ADDRESS":"立德十路４８號","OBJECTID":470403},"geometry":{"x":169508.95000000205,"y":2542038.2400000002}},{"attributes":{"ID":470429,"DIS_CODE":0,"TOWNNAME":"永康區","LI":"勝利里","LIN":"18鄰","STREET":"勝學路","SECT":" ","MAREA":" ","LANE":" ","ALLEY":" ","HOUSE_NO":"１９２號","E_COORD97":171195.73999999999,"N_COORD97":2545107.0099999998,"ADDRESS":"勝學路１９２號","OBJECTID":470404},"geometry":{"x":171195.74000000115,"y":2545107.0100000016}},{"attributes":{"ID":470430,"DIS_CODE":0,"TOWNNAME":"永康區","LI":"永康里","LIN":" ","STREET":"永二街","SECT":" ","MAREA":" ","LANE":" ","ALLEY":" ","HOUSE_NO":"１０號","E_COORD97":173789.48999999999,"N_COORD97":2547147.5899999999,"ADDRESS":"永二街１０號","OBJECTID":470405},"geometry":{"x":173789.49000000115,"y":2547147.5900000017}},{"attributes":{"ID":470431,"DIS_CODE":0,"TOWNNAME":"永康區","LI":"北灣里","LIN":" ","STREET":"信義街","SECT":" ","MAREA":" ","LANE":" ","ALLEY":" ","HOUSE_NO":"１之３號","E_COORD97":175639.23999999999,"N_COORD97":2545636.7799999998,"ADDRESS":"信義街１之３號","OBJECTID":470406},"geometry":{"x":175639.24000000115,"y":2545636.7800000012}},{"attributes":{"ID":470432,"DIS_CODE":0,"TOWNNAME":"東區","LI":"大德里","LIN":"5鄰","STREET":"立德十路","SECT":" ","MAREA":" ","LANE":" ","ALLEY":" ","HOUSE_NO":"５０號","E_COORD97":169513.17000000001,"N_COORD97":2542043.8500000001,"ADDRESS":"立德十路５０號","OBJECTID":470407},"geometry":{"x":169513.16999999993,"y":2542043.8499999996}},{"attributes":{"ID":470433,"DIS_CODE":0,"TOWNNAME":"東區","LI":"大德里","LIN":"5鄰","STREET":"立德十路","SECT":" ","MAREA":" ","LANE":" ","ALLEY":" ","HOUSE_NO":"５０號之１","E_COORD97":169517.48000000001,"N_COORD97":2542045.0800000001,"ADDRESS":"立德十路５０號之１","OBJECTID":470408},"geometry":{"x":169517.48000000231,"y":2542045.0800000019}},{"attributes":{"ID":470434,"DIS_CODE":0,"TOWNNAME":"東區","LI":"大德里","LIN":"5鄰","STREET":"立德十路","SECT":" ","MAREA":" ","LANE":" ","ALLEY":" ","HOUSE_NO":"５８號","E_COORD97":169532.04000000001,"N_COORD97":2542046.7200000002,"ADDRESS":"立德十路５８號","OBJECTID":470409},"geometry":{"x":169532.0400000019,"y":2542046.7199999988}},{"attributes":{"ID":470435,"DIS_CODE":0,"TOWNNAME":"東區","LI":"大德里","LIN":"5鄰","STREET":"立德十路","SECT":" ","MAREA":" ","LANE":" ","ALLEY":" ","HOUSE_NO":"６２號","E_COORD97":169540.04999999999,"N_COORD97":2542047.54,"ADDRESS":"立德十路６２號","OBJECTID":470410},"geometry":{"x":169540.05000000168,"y":2542047.540000001}},{"attributes":{"ID":470436,"DIS_CODE":0,"TOWNNAME":"東區","LI":"大德里","LIN":"5鄰","STREET":"立德十路","SECT":" ","MAREA":" ","LANE":" ","ALLEY":" ","HOUSE_NO":"６４號","E_COORD97":169542.92000000001,"N_COORD97":2542050.2000000002,"ADDRESS":"立德十路６４號","OBJECTID":470411},"geometry":{"x":169542.92000000179,"y":2542050.2000000011}},{"attributes":{"ID":470437,"DIS_CODE":0,"TOWNNAME":"東區","LI":"圍下里","LIN":"5鄰","STREET":"衛民街","SECT":" ","MAREA":" ","LANE":" ","ALLEY":" ","HOUSE_NO":"１９號","E_COORD97":169286.67999999999,"N_COORD97":2543671.3799999999,"ADDRESS":"衛民街１９號","OBJECTID":470412},"geometry":{"x":169286.68000000063,"y":2543671.3800000027}},{"attributes":{"ID":470438,"DIS_CODE":0,"TOWNNAME":"東區","LI":"小東里","LIN":"5鄰","STREET":"小東路","SECT":" ","MAREA":" ","LANE":" ","ALLEY":" ","HOUSE_NO":"２３４號","E_COORD97":170912.29000000001,"N_COORD97":2544433.1400000001,"ADDRESS":"小東路２３４號","OBJECTID":470413},"geometry":{"x":170912.29000000097,"y":2544433.1400000006}},{"attributes":{"ID":470439,"DIS_CODE":0,"TOWNNAME":"東區","LI":"小東里","LIN":"5鄰","STREET":"小東路","SECT":" ","MAREA":" ","LANE":" ","ALLEY":" ","HOUSE_NO":"２３６號","E_COORD97":170916.5,"N_COORD97":2544431.6400000001,"ADDRESS":"小東路２３６號","OBJECTID":470414},"geometry":{"x":170916.5,"y":2544431.6400000025}},{"attributes":{"ID":470440,"DIS_CODE":0,"TOWNNAME":"東區","LI":"小東里","LIN":"5鄰","STREET":"小東路","SECT":" ","MAREA":" ","LANE":" ","ALLEY":" ","HOUSE_NO":"２３８號","E_COORD97":170919.95000000001,"N_COORD97":2544430.29,"ADDRESS":"小東路２３８號","OBJECTID":470415},"geometry":{"x":170919.95000000112,"y":2544430.2899999991}},{"attributes":{"ID":470441,"DIS_CODE":0,"TOWNNAME":"東區","LI":"富裕里","LIN":"5鄰","STREET":"裕農路","SECT":" ","MAREA":" ","LANE":" ","ALLEY":" ","HOUSE_NO":"９２號","E_COORD97":170703.54000000001,"N_COORD97":2542898.2000000002,"ADDRESS":"裕農路９２號","OBJECTID":470416},"geometry":{"x":170703.54000000097,"y":2542898.1999999993}},{"attributes":{"ID":470442,"DIS_CODE":0,"TOWNNAME":"東區","LI":"小東里","LIN":"5鄰","STREET":"小東路","SECT":" ","MAREA":" ","LANE":" ","ALLEY":" ","HOUSE_NO":"２３２號","E_COORD97":170908.38,"N_COORD97":2544434.4900000002,"ADDRESS":"小東路２３２號","OBJECTID":470417},"geometry":{"x":170908.38000000082,"y":2544434.4900000002}},{"attributes":{"ID":470443,"DIS_CODE":0,"TOWNNAME":"東區","LI":"小東里","LIN":"5鄰","STREET":"小東路","SECT":" ","MAREA":" ","LANE":" ","ALLEY":" ","HOUSE_NO":"２４２號","E_COORD97":170936.34,"N_COORD97":2544425.3500000001,"ADDRESS":"小東路２４２號","OBJECTID":470418},"geometry":{"x":170936.33999999985,"y":2544425.3500000015}},{"attributes":{"ID":470444,"DIS_CODE":0,"TOWNNAME":"東區","LI":"小東里","LIN":"5鄰","STREET":"小東路","SECT":" ","MAREA":" ","LANE":" ","ALLEY":" ","HOUSE_NO":"２４２號之１","E_COORD97":170939.95000000001,"N_COORD97":2544424.2999999998,"ADDRESS":"小東路２４２號之１","OBJECTID":470419},"geometry":{"x":170939.95000000112,"y":2544424.3000000026}},{"attributes":{"ID":470445,"DIS_CODE":0,"TOWNNAME":"東區","LI":"富裕里","LIN":"5鄰","STREET":"裕農路","SECT":" ","MAREA":" ","LANE":" ","ALLEY":" ","HOUSE_NO":"１０６號","E_COORD97":170751.89999999999,"N_COORD97":2542917.8799999999,"ADDRESS":"裕農路１０６號","OBJECTID":470420},"geometry":{"x":170751.90000000037,"y":2542917.879999999}},{"attributes":{"ID":470446,"DIS_CODE":0,"TOWNNAME":"永康區","LI":"\u25A0洲里","LIN":"26鄰","STREET":"洲尾街","SECT":" ","MAREA":" ","LANE":" ","ALLEY":" ","HOUSE_NO":"２０７號","E_COORD97":170905.38,"N_COORD97":2549020.3700000001,"ADDRESS":"洲尾街２０７號","OBJECTID":470421},"geometry":{"x":170905.37999999989,"y":2549020.3700000048}},{"attributes":{"ID":470447,"DIS_CODE":0,"TOWNNAME":"東區","LI":"富裕里","LIN":"5鄰","STREET":"裕農路","SECT":" ","MAREA":" ","LANE":" ","ALLEY":" ","HOUSE_NO":"１０８號","E_COORD97":170754.19,"N_COORD97":2542921.46,"ADDRESS":"裕農路１０８號","OBJECTID":470422},"geometry":{"x":170754.19000000134,"y":2542921.4600000028}},{"attributes":{"ID":470448,"DIS_CODE":0,"TOWNNAME":"東區","LI":"富裕里","LIN":"5鄰","STREET":"裕農路","SECT":" ","MAREA":" ","LANE":" ","ALLEY":" ","HOUSE_NO":"１１０號","E_COORD97":170758.35999999999,"N_COORD97":2542923.1499999999,"ADDRESS":"裕農路１１０號","OBJECTID":470423},"geometry":{"x":170758.36000000034,"y":2542923.1500000022}},{"attributes":{"ID":470449,"DIS_CODE":0,"TOWNNAME":"東區","LI":"富裕里","LIN":"5鄰","STREET":"裕農路","SECT":" ","MAREA":" ","LANE":" ","ALLEY":" ","HOUSE_NO":"１１２號","E_COORD97":170762.67999999999,"N_COORD97":2542924.23,"ADDRESS":"裕農路１１２號","OBJECTID":470424},"geometry":{"x":170762.6799999997,"y":2542924.2300000004}},{"attributes":{"ID":470450,"DIS_CODE":0,"TOWNNAME":"東區","LI":"富裕里","LIN":"5鄰","STREET":"裕農路","SECT":" ","MAREA":" ","LANE":" ","ALLEY":" ","HOUSE_NO":"８６號之２","E_COORD97":170690.69,"N_COORD97":2542895.2000000002,"ADDRESS":"裕農路８６號之２","OBJECTID":470425},"geometry":{"x":170690.68999999948,"y":2542895.1999999993}},{"attributes":{"ID":470451,"DIS_CODE":0,"TOWNNAME":"東區","LI":"富裕里","LIN":"5鄰","STREET":"裕農路","SECT":" ","MAREA":" ","LANE":" ","ALLEY":" ","HOUSE_NO":"８８號","E_COORD97":170695.5,"N_COORD97":2542896.4500000002,"ADDRESS":"裕農路８８號","OBJECTID":470426},"geometry":{"x":170695.50000000093,"y":2542896.4500000011}},{"attributes":{"ID":470452,"DIS_CODE":0,"TOWNNAME":"東區","LI":"富裕里","LIN":"5鄰","STREET":"裕農路","SECT":" ","MAREA":" ","LANE":" ","ALLEY":" ","HOUSE_NO":"９４號","E_COORD97":170708.64000000001,"N_COORD97":2542899.73,"ADDRESS":"裕農路９４號","OBJECTID":470427},"geometry":{"x":170708.63999999966,"y":2542899.7300000004}},{"attributes":{"ID":470453,"DIS_CODE":0,"TOWNNAME":"善化區","LI":"南關里","LIN":"5鄰","STREET":"三民路","SECT":" ","MAREA":" ","LANE":" ","ALLEY":" ","HOUSE_NO":"８號","E_COORD97":177104.98000000001,"N_COORD97":2558831.7599999998,"ADDRESS":"三民路８號","OBJECTID":470428},"geometry":{"x":177104.98000000045,"y":2558831.7600000016}},{"attributes":{"ID":470454,"DIS_CODE":0,"TOWNNAME":"永康區","LI":"北灣里","LIN":" ","STREET":"永大路","SECT":"二段","MAREA":" ","LANE":" ","ALLEY":" ","HOUSE_NO":"８８０號","E_COORD97":174527.91,"N_COORD97":2546149.6099999999,"ADDRESS":"永大路二段８８０號","OBJECTID":470429},"geometry":{"x":174527.91000000015,"y":2546149.6100000013}},{"attributes":{"ID":470455,"DIS_CODE":0,"TOWNNAME":"永康區","LI":"\u25A0行里","LIN":"18鄰","STREET":"中正南路","SECT":" ","MAREA":" ","LANE":" ","ALLEY":" ","HOUSE_NO":"６６８號","E_COORD97":171586.07999999999,"N_COORD97":2548822.75,"ADDRESS":"中正南路６６８號","OBJECTID":470430},"geometry":{"x":171586.08000000007,"y":2548822.75}},{"attributes":{"ID":470456,"DIS_CODE":0,"TOWNNAME":"永康區","LI":"正強里","LIN":" ","STREET":"正強街","SECT":" ","MAREA":" ","LANE":" ","ALLEY":" ","HOUSE_NO":"２０９號","E_COORD97":173294.85000000001,"N_COORD97":2547691.5800000001,"ADDRESS":"正強街２０９號","OBJECTID":470431},"geometry":{"x":173294.85000000056,"y":2547691.5800000001}},{"attributes":{"ID":470457,"DIS_CODE":0,"TOWNNAME":"永康區","LI":"五王里","LIN":" ","STREET":"成功路","SECT":" ","MAREA":" ","LANE":" ","ALLEY":" ","HOUSE_NO":"８６號","E_COORD97":171468.60000000001,"N_COORD97":2545573.3399999999,"ADDRESS":"成功路８６號","OBJECTID":470432},"geometry":{"x":171468.5999999987,"y":2545573.3399999999}},{"attributes":{"ID":470458,"DIS_CODE":0,"TOWNNAME":"下營區","LI":"仁里里","LIN":"8鄰","STREET":"蚵寮街","SECT":" ","MAREA":" ","LANE":" ","ALLEY":" ","HOUSE_NO":"４９號","E_COORD97":174026.57000000001,"N_COORD97":2570320.29,"ADDRESS":"蚵寮街４９號","OBJECTID":470433},"geometry":{"x":174026.57000000123,"y":2570320.2899999972}},{"attributes":{"ID":470459,"DIS_CODE":0,"TOWNNAME":"東區","LI":"富裕里","LIN":"5鄰","STREET":"裕農路","SECT":" ","MAREA":" ","LANE":" ","ALLEY":" ","HOUSE_NO":"１１４號","E_COORD97":170767,"N_COORD97":2542924.8399999999,"ADDRESS":"裕農路１１４號","OBJECTID":470434},"geometry":{"x":170767.00000000093,"y":2542924.8400000017}},{"attributes":{"ID":470460,"DIS_CODE":0,"TOWNNAME":"東區","LI":"龍山里","LIN":"5鄰","STREET":"龍山街","SECT":" ","MAREA":" ","LANE":" ","ALLEY":" ","HOUSE_NO":"８１號","E_COORD97":170329.76999999999,"N_COORD97":2542696.1699999999,"ADDRESS":"龍山街８１號","OBJECTID":470435},"geometry":{"x":170329.76999999955,"y":2542696.1699999999}},{"attributes":{"ID":470461,"DIS_CODE":0,"TOWNNAME":"永康區","LI":"西橋里","LIN":"5鄰","STREET":"中華西街","SECT":" ","MAREA":" ","LANE":" ","ALLEY":" ","HOUSE_NO":"３３號","E_COORD97":170778.95999999999,"N_COORD97":2545993.0299999998,"ADDRESS":"中華西街３３號","OBJECTID":470436},"geometry":{"x":170778.96000000089,"y":2545993.0300000031}},{"attributes":{"ID":470462,"DIS_CODE":0,"TOWNNAME":"永康區","LI":"西灣里","LIN":"5鄰","STREET":"大灣五街","SECT":" ","MAREA":" ","LANE":" ","ALLEY":" ","HOUSE_NO":"７５號","E_COORD97":174672.76000000001,"N_COORD97":2545266.0899999999,"ADDRESS":"大灣五街７５號","OBJECTID":470437},"geometry":{"x":174672.75999999978,"y":2545266.0899999999}},{"attributes":{"ID":470463,"DIS_CODE":0,"TOWNNAME":"永康區","LI":"西灣里","LIN":"5鄰","STREET":"大灣五街","SECT":" ","MAREA":" ","LANE":" ","ALLEY":" ","HOUSE_NO":"７３號","E_COORD97":174678.54000000001,"N_COORD97":2545265.0899999999,"ADDRESS":"大灣五街７３號","OBJECTID":470438},"geometry":{"x":174678.5400000019,"y":2545265.0900000017}},{"attributes":{"ID":470464,"DIS_CODE":0,"TOWNNAME":"永康區","LI":"二王里","LIN":" ","STREET":"忠孝路","SECT":" ","MAREA":" ","LANE":" ","ALLEY":" ","HOUSE_NO":"４５３號","E_COORD97":172454.82999999999,"N_COORD97":2546598.8999999999,"ADDRESS":"忠孝路４５３號","OBJECTID":470439},"geometry":{"x":172454.83000000101,"y":2546598.9000000022}},{"attributes":{"ID":470465,"DIS_CODE":0,"TOWNNAME":"中西區","LI":"公正里","LIN":"5鄰","STREET":"民族路","SECT":"二段","MAREA":" ","LANE":" ","ALLEY":" ","HOUSE_NO":"２２號","E_COORD97":169113.85000000001,"N_COORD97":2543918.1800000002,"ADDRESS":"民族路二段２２號","OBJECTID":470440},"geometry":{"x":169113.84999999963,"y":2543918.1800000016}},{"attributes":{"ID":470466,"DIS_CODE":0,"TOWNNAME":"中西區","LI":"公正里","LIN":"5鄰","STREET":"民族路","SECT":"二段","MAREA":" ","LANE":" ","ALLEY":" ","HOUSE_NO":"２４號","E_COORD97":169109.25,"N_COORD97":2543917.77,"ADDRESS":"民族路二段２４號","OBJECTID":470441},"geometry":{"x":169109.25,"y":2543917.7700000014}},{"attributes":{"ID":470467,"DIS_CODE":0,"TOWNNAME":"中西區","LI":"公正里","LIN":"5鄰","STREET":"民族路","SECT":"二段","MAREA":" ","LANE":" ","ALLEY":" ","HOUSE_NO":"２６號","E_COORD97":169105.17000000001,"N_COORD97":2543917.2400000002,"ADDRESS":"民族路二段２６號","OBJECTID":470442},"geometry":{"x":169105.16999999993,"y":2543917.2400000002}},{"attributes":{"ID":470468,"DIS_CODE":0,"TOWNNAME":"中西區","LI":"公正里","LIN":"5鄰","STREET":"民族路","SECT":"二段","MAREA":" ","LANE":" ","ALLEY":" ","HOUSE_NO":"２８號","E_COORD97":169101.12,"N_COORD97":2543916.7200000002,"ADDRESS":"民族路二段２８號","OBJECTID":470443},"geometry":{"x":169101.12000000104,"y":2543916.7200000007}},{"attributes":{"ID":470469,"DIS_CODE":0,"TOWNNAME":"中西區","LI":"公正里","LIN":"5鄰","STREET":"民族路","SECT":"二段","MAREA":" ","LANE":" ","ALLEY":" ","HOUSE_NO":"３０號","E_COORD97":169097.32999999999,"N_COORD97":2543915.96,"ADDRESS":"民族路二段３０號","OBJECTID":470444},"geometry":{"x":169097.33000000007,"y":2543915.9600000009}},{"attributes":{"ID":470470,"DIS_CODE":0,"TOWNNAME":"中西區","LI":"公正里","LIN":"5鄰","STREET":"民族路","SECT":"二段","MAREA":" ","LANE":" ","ALLEY":" ","HOUSE_NO":"３２號","E_COORD97":169093.34,"N_COORD97":2543915.02,"ADDRESS":"民族路二段３２號","OBJECTID":470445},"geometry":{"x":169093.33999999985,"y":2543915.0200000033}},{"attributes":{"ID":470471,"DIS_CODE":0,"TOWNNAME":"中西區","LI":"公正里","LIN":"5鄰","STREET":"民族路","SECT":"二段","MAREA":" ","LANE":" ","ALLEY":" ","HOUSE_NO":"３４號","E_COORD97":169114.26000000001,"N_COORD97":2543901.9199999999,"ADDRESS":"民族路二段３４號","OBJECTID":470446},"geometry":{"x":169114.25999999978,"y":2543901.9199999999}},{"attributes":{"ID":470472,"DIS_CODE":0,"TOWNNAME":"中西區","LI":"公正里","LIN":"5鄰","STREET":"民族路","SECT":"二段","MAREA":" ","LANE":" ","ALLEY":" ","HOUSE_NO":"３８號","E_COORD97":169110.82000000001,"N_COORD97":2543902.1200000001,"ADDRESS":"民族路二段３８號","OBJECTID":470447},"geometry":{"x":169110.8200000003,"y":2543902.120000001}},{"attributes":{"ID":470473,"DIS_CODE":0,"TOWNNAME":"中西區","LI":"公正里","LIN":"5鄰","STREET":"民族路","SECT":"二段","MAREA":" ","LANE":" ","ALLEY":" ","HOUSE_NO":"４０號","E_COORD97":169107.38,"N_COORD97":2543901.9199999999,"ADDRESS":"民族路二段４０號","OBJECTID":470448},"geometry":{"x":169107.38000000175,"y":2543901.9199999999}},{"attributes":{"ID":470474,"DIS_CODE":0,"TOWNNAME":"中西區","LI":"公正里","LIN":"5鄰","STREET":"民族路","SECT":"二段","MAREA":" ","LANE":" ","ALLEY":" ","HOUSE_NO":"４２號","E_COORD97":169101.91,"N_COORD97":2543901.1099999999,"ADDRESS":"民族路二段４２號","OBJECTID":470449},"geometry":{"x":169101.91000000015,"y":2543901.1100000013}},{"attributes":{"ID":470475,"DIS_CODE":0,"TOWNNAME":"中西區","LI":"公正里","LIN":"5鄰","STREET":"民族路","SECT":"二段","MAREA":" ","LANE":" ","ALLEY":" ","HOUSE_NO":"４２號之１","E_COORD97":169098.07000000001,"N_COORD97":2543901.3100000001,"ADDRESS":"民族路二段４２號之１","OBJECTID":470450},"geometry":{"x":169098.07000000216,"y":2543901.3100000024}},{"attributes":{"ID":470476,"DIS_CODE":0,"TOWNNAME":"永康區","LI":"龍潭里","LIN":"13鄰","STREET":"龍橋街","SECT":" ","MAREA":" ","LANE":" ","ALLEY":" ","HOUSE_NO":"８９號","E_COORD97":174711.62,"N_COORD97":2548452.6499999999,"ADDRESS":"龍橋街８９號","OBJECTID":470451},"geometry":{"x":174711.62000000011,"y":2548452.6500000022}},{"attributes":{"ID":470477,"DIS_CODE":0,"TOWNNAME":"中西區","LI":"公正里","LIN":"5鄰","STREET":"民族路","SECT":"二段","MAREA":" ","LANE":" ","ALLEY":" ","HOUSE_NO":"４６號","E_COORD97":169094.01999999999,"N_COORD97":2543901.1099999999,"ADDRESS":"民族路二段４６號","OBJECTID":470452},"geometry":{"x":169094.01999999955,"y":2543901.1100000013}},{"attributes":{"ID":470478,"DIS_CODE":0,"TOWNNAME":"中西區","LI":"公正里","LIN":"5鄰","STREET":"民族路","SECT":"二段","MAREA":" ","LANE":" ","ALLEY":" ","HOUSE_NO":"４８號","E_COORD97":169089.97,"N_COORD97":2543902.52,"ADDRESS":"民族路二段４８號","OBJECTID":470453},"geometry":{"x":169089.97000000067,"y":2543902.5200000014}},{"attributes":{"ID":470479,"DIS_CODE":0,"TOWNNAME":"永康區","LI":"永康里","LIN":" ","STREET":"永大路","SECT":"二段","MAREA":" ","LANE":" ","ALLEY":" ","HOUSE_NO":"１４８４號","E_COORD97":174268.04999999999,"N_COORD97":2547179.2000000002,"ADDRESS":"永大路二段１４８４號","OBJECTID":470454},"geometry":{"x":174268.05000000168,"y":2547179.2000000011}},{"attributes":{"ID":470480,"DIS_CODE":0,"TOWNNAME":"中西區","LI":"萬昌里","LIN":"5鄰","STREET":"萬昌街","SECT":" ","MAREA":" ","LANE":" ","ALLEY":" ","HOUSE_NO":"１５號","E_COORD97":168993.79000000001,"N_COORD97":2543338.52,"ADDRESS":"萬昌街１５號","OBJECTID":470455},"geometry":{"x":168993.79000000004,"y":2543338.5199999977}},{"attributes":{"ID":470481,"DIS_CODE":0,"TOWNNAME":"中西區","LI":"萬昌里","LIN":"5鄰","STREET":"萬昌街","SECT":" ","MAREA":" ","LANE":" ","ALLEY":" ","HOUSE_NO":"１９號","E_COORD97":168997.29999999999,"N_COORD97":2543348.8300000001,"ADDRESS":"萬昌街１９號","OBJECTID":470456},"geometry":{"x":168997.29999999981,"y":2543348.8300000019}},{"attributes":{"ID":470482,"DIS_CODE":0,"TOWNNAME":"中西區","LI":"萬昌里","LIN":"5鄰","STREET":"萬昌街","SECT":" ","MAREA":" ","LANE":" ","ALLEY":" ","HOUSE_NO":"２１號","E_COORD97":168996.63,"N_COORD97":2543352.1899999999,"ADDRESS":"萬昌街２１號","OBJECTID":470457},"geometry":{"x":168996.62999999989,"y":2543352.1900000013}},{"attributes":{"ID":470483,"DIS_CODE":0,"TOWNNAME":"永康區","LI":"\u25A0洲里","LIN":"32鄰","STREET":"\u25A0行路","SECT":" ","MAREA":" ","LANE":" ","ALLEY":" ","HOUSE_NO":"３４４號","E_COORD97":170950.35000000001,"N_COORD97":2548935.0099999998,"ADDRESS":"\u25A0行路３４４號","OBJECTID":470458},"geometry":{"x":170950.35000000056,"y":2548935.0099999998}},{"attributes":{"ID":470484,"DIS_CODE":0,"TOWNNAME":"新化區","LI":"護國里","LIN":"5鄰","STREET":"護安街","SECT":" ","MAREA":" ","LANE":" ","ALLEY":" ","HOUSE_NO":"７４號","E_COORD97":179204.07999999999,"N_COORD97":2548411.2599999998,"ADDRESS":"護安街７４號","OBJECTID":470459},"geometry":{"x":179204.08000000007,"y":2548411.2599999998}},{"attributes":{"ID":470485,"DIS_CODE":0,"TOWNNAME":"新化區","LI":"護國里","LIN":"5鄰","STREET":"護安街","SECT":" ","MAREA":" ","LANE":" ","ALLEY":" ","HOUSE_NO":"５４號","E_COORD97":179209.88,"N_COORD97":2548381.2599999998,"ADDRESS":"護安街５４號","OBJECTID":470460},"geometry":{"x":179209.87999999989,"y":2548381.2599999998}},{"attributes":{"ID":470486,"DIS_CODE":0,"TOWNNAME":"新化區","LI":"護國里","LIN":"5鄰","STREET":"護安街","SECT":" ","MAREA":" ","LANE":" ","ALLEY":" ","HOUSE_NO":"９２號","E_COORD97":179194.98000000001,"N_COORD97":2548441.2599999998,"ADDRESS":"護安街９２號","OBJECTID":470461},"geometry":{"x":179194.98000000045,"y":2548441.2600000016}},{"attributes":{"ID":470487,"DIS_CODE":0,"TOWNNAME":"新化區","LI":"竹林里","LIN":"5鄰","STREET":"民族街","SECT":" ","MAREA":" ","LANE":" ","ALLEY":" ","HOUSE_NO":"２５號","E_COORD97":178865.26000000001,"N_COORD97":2548513.25,"ADDRESS":"民族街２５號","OBJECTID":470462},"geometry":{"x":178865.25999999978,"y":2548513.25}},{"attributes":{"ID":470488,"DIS_CODE":0,"TOWNNAME":"新化區","LI":"東榮里","LIN":"5鄰","STREET":"信義路","SECT":" ","MAREA":" ","LANE":" ","ALLEY":" ","HOUSE_NO":"１０７號","E_COORD97":179749.23000000001,"N_COORD97":2548609.25,"ADDRESS":"信義路１０７號","OBJECTID":470463},"geometry":{"x":179749.23000000045,"y":2548609.25}},{"attributes":{"ID":470489,"DIS_CODE":0,"TOWNNAME":"新化區","LI":"中央里","LIN":"5鄰","STREET":"和平街","SECT":" ","MAREA":" ","LANE":" ","ALLEY":" ","HOUSE_NO":"１９２號之１","E_COORD97":178895.95000000001,"N_COORD97":2548365.2599999998,"ADDRESS":"和平街１９２號之１","OBJECTID":470464},"geometry":{"x":178895.95000000112,"y":2548365.2600000035}},{"attributes":{"ID":470490,"DIS_CODE":0,"TOWNNAME":"新化區","LI":"護國里","LIN":"5鄰","STREET":"護安街","SECT":" ","MAREA":" ","LANE":" ","ALLEY":" ","HOUSE_NO":"８４號","E_COORD97":179196.67999999999,"N_COORD97":2548430.2599999998,"ADDRESS":"護安街８４號","OBJECTID":470465},"geometry":{"x":179196.68000000156,"y":2548430.2600000016}},{"attributes":{"ID":470491,"DIS_CODE":0,"TOWNNAME":"新化區","LI":"護國里","LIN":"5鄰","STREET":"護安街","SECT":" ","MAREA":" ","LANE":" ","ALLEY":" ","HOUSE_NO":"６８號","E_COORD97":179205.28,"N_COORD97":2548403.2599999998,"ADDRESS":"護安街６８號","OBJECTID":470466},"geometry":{"x":179205.28000000119,"y":2548403.2600000016}},{"attributes":{"ID":470492,"DIS_CODE":0,"TOWNNAME":"新化區","LI":"護國里","LIN":"5鄰","STREET":"護安街","SECT":" ","MAREA":" ","LANE":" ","ALLEY":" ","HOUSE_NO":"６６號","E_COORD97":179206.17999999999,"N_COORD97":2548399.2599999998,"ADDRESS":"護安街６６號","OBJECTID":470467},"geometry":{"x":179206.1799999997,"y":2548399.2600000035}},{"attributes":{"ID":470493,"DIS_CODE":0,"TOWNNAME":"永康區","LI":"復華里","LIN":"39鄰","STREET":"復國一路","SECT":" ","MAREA":" ","LANE":" ","ALLEY":" ","HOUSE_NO":"３７９號","E_COORD97":172757.60999999999,"N_COORD97":2545915.75,"ADDRESS":"復國一路３７９號","OBJECTID":470468},"geometry":{"x":172757.6099999994,"y":2545915.7500000019}},{"attributes":{"ID":470494,"DIS_CODE":0,"TOWNNAME":"新化區","LI":"護國里","LIN":"5鄰","STREET":"護安街","SECT":" ","MAREA":" ","LANE":" ","ALLEY":" ","HOUSE_NO":"８８號","E_COORD97":179195.38,"N_COORD97":2548438.2599999998,"ADDRESS":"護安街８８號","OBJECTID":470469},"geometry":{"x":179195.38000000175,"y":2548438.2599999998}},{"attributes":{"ID":470495,"DIS_CODE":0,"TOWNNAME":"新化區","LI":"竹林里","LIN":"5鄰","STREET":"民族街","SECT":" ","MAREA":" ","LANE":" ","ALLEY":" ","HOUSE_NO":"２３號","E_COORD97":178868.06,"N_COORD97":2548506.25,"ADDRESS":"民族街２３號","OBJECTID":470470},"geometry":{"x":178868.05999999959,"y":2548506.2500000019}},{"attributes":{"ID":470496,"DIS_CODE":0,"TOWNNAME":"永康區","LI":"\u25A0洲里","LIN":"4鄰","STREET":"\u25A0洲二街","SECT":" ","MAREA":" ","LANE":" ","ALLEY":" ","HOUSE_NO":"１１９號","E_COORD97":171658.29999999999,"N_COORD97":2549519.8799999999,"ADDRESS":"\u25A0洲二街１１９號","OBJECTID":470471},"geometry":{"x":171658.29999999981,"y":2549519.8800000027}},{"attributes":{"ID":470497,"DIS_CODE":0,"TOWNNAME":"新化區","LI":"清水里","LIN":"5鄰","STREET":"長青街","SECT":" ","MAREA":" ","LANE":" ","ALLEY":" ","HOUSE_NO":"８２號","E_COORD97":178628.48000000001,"N_COORD97":2548487.25,"ADDRESS":"長青街８２號","OBJECTID":470472},"geometry":{"x":178628.48000000045,"y":2548487.25}},{"attributes":{"ID":470498,"DIS_CODE":0,"TOWNNAME":"新化區","LI":"協興里","LIN":"5鄰","STREET":"中山路","SECT":" ","MAREA":" ","LANE":" ","ALLEY":" ","HOUSE_NO":"５５４號","E_COORD97":178431,"N_COORD97":2548463.8500000001,"ADDRESS":"中山路５５４號","OBJECTID":470473},"geometry":{"x":178431.00000000093,"y":2548463.8500000015}},{"attributes":{"ID":470499,"DIS_CODE":0,"TOWNNAME":"新化區","LI":"東榮里","LIN":"5鄰","STREET":"信義路","SECT":" ","MAREA":" ","LANE":" ","ALLEY":" ","HOUSE_NO":"９５號之２","E_COORD97":179776.19,"N_COORD97":2548651.3199999998,"ADDRESS":"信義路９５之２號","OBJECTID":470474},"geometry":{"x":179776.19000000041,"y":2548651.3200000022}},{"attributes":{"ID":470500,"DIS_CODE":0,"TOWNNAME":"新化區","LI":"東榮里","LIN":"5鄰","STREET":"信義路","SECT":" ","MAREA":" ","LANE":" ","ALLEY":" ","HOUSE_NO":"９５號之３","E_COORD97":179772.51000000001,"N_COORD97":2548647.8999999999,"ADDRESS":"信義路９５之３號","OBJECTID":470475},"geometry":{"x":179772.51000000164,"y":2548647.9000000022}},{"attributes":{"ID":470501,"DIS_CODE":0,"TOWNNAME":"新化區","LI":"東榮里","LIN":"5鄰","STREET":"信義路","SECT":" ","MAREA":" ","LANE":" ","ALLEY":" ","HOUSE_NO":"９５號之６","E_COORD97":179765.94,"N_COORD97":2548639.6299999999,"ADDRESS":"信義路９５之６號","OBJECTID":470476},"geometry":{"x":179765.94000000134,"y":2548639.629999999}},{"attributes":{"ID":470502,"DIS_CODE":0,"TOWNNAME":"新化區","LI":"武安里","LIN":"5鄰","STREET":"中正路","SECT":" ","MAREA":" ","LANE":" ","ALLEY":" ","HOUSE_NO":"３６３號","E_COORD97":179107.51000000001,"N_COORD97":2548265.6099999999,"ADDRESS":"中正路３６３號","OBJECTID":470477},"geometry":{"x":179107.50999999978,"y":2548265.6100000013}},{"attributes":{"ID":470503,"DIS_CODE":0,"TOWNNAME":"新化區","LI":"豐榮里","LIN":"5鄰","STREET":"中山路","SECT":" ","MAREA":" ","LANE":" ","ALLEY":" ","HOUSE_NO":"８１１號","E_COORD97":177518.16,"N_COORD97":2548346.77,"ADDRESS":"中山路８１１號","OBJECTID":470478},"geometry":{"x":177518.16000000015,"y":2548346.7699999996}},{"attributes":{"ID":470504,"DIS_CODE":0,"TOWNNAME":"新化區","LI":"豐榮里","LIN":"5鄰","STREET":"中山路","SECT":" ","MAREA":" ","LANE":" ","ALLEY":" ","HOUSE_NO":"８１３號","E_COORD97":177507.84,"N_COORD97":2548345.3900000001,"ADDRESS":"中山路８１３號","OBJECTID":470479},"geometry":{"x":177507.84000000078,"y":2548345.3900000025}},{"attributes":{"ID":470505,"DIS_CODE":0,"TOWNNAME":"新化區","LI":"東榮里","LIN":"5鄰","STREET":"信義路","SECT":" ","MAREA":" ","LANE":" ","ALLEY":" ","HOUSE_NO":"９５號之５","E_COORD97":179768.728787,"N_COORD97":2548644.0790900001,"ADDRESS":"信義路９５號之５","OBJECTID":470480},"geometry":{"x":179768.72878700029,"y":2548644.0790890008}},{"attributes":{"ID":470506,"DIS_CODE":0,"TOWNNAME":"安南區","LI":"城南里","LIN":"5鄰","STREET":"城西街","SECT":"一段","MAREA":" ","LANE":" ","ALLEY":" ","HOUSE_NO":"１８３號","E_COORD97":160499.20999999999,"N_COORD97":2551262.4700000002,"ADDRESS":"城西街一段１８３號","OBJECTID":470481},"geometry":{"x":160499.21000000089,"y":2551262.4700000007}},{"attributes":{"ID":470507,"DIS_CODE":0,"TOWNNAME":"安南區","LI":"城南里","LIN":"5鄰","STREET":"城西街","SECT":"一段","MAREA":" ","LANE":" ","ALLEY":" ","HOUSE_NO":"１８３號之５","E_COORD97":160482.79999999999,"N_COORD97":2551255.27,"ADDRESS":"城西街一段１８３號之５","OBJECTID":470482},"geometry":{"x":160482.80000000168,"y":2551255.2700000014}},{"attributes":{"ID":470508,"DIS_CODE":0,"TOWNNAME":"安南區","LI":"城南里","LIN":"5鄰","STREET":"城西街","SECT":"一段","MAREA":" ","LANE":" ","ALLEY":" ","HOUSE_NO":"２０１號","E_COORD97":160458.67999999999,"N_COORD97":2551238.6699999999,"ADDRESS":"城西街一段２０１號","OBJECTID":470483},"geometry":{"x":160458.68000000063,"y":2551238.6700000018}},{"attributes":{"ID":470509,"DIS_CODE":0,"TOWNNAME":"安南區","LI":"城南里","LIN":"5鄰","STREET":"城西街","SECT":"一段","MAREA":" ","LANE":" ","ALLEY":" ","HOUSE_NO":"２０７號","E_COORD97":160451.97,"N_COORD97":2551233.9500000002,"ADDRESS":"城西街一段２０７號","OBJECTID":470484},"geometry":{"x":160451.96999999974,"y":2551233.9499999993}},{"attributes":{"ID":470510,"DIS_CODE":0,"TOWNNAME":"安南區","LI":"城南里","LIN":"5鄰","STREET":"城西街","SECT":"一段","MAREA":" ","LANE":" ","ALLEY":" ","HOUSE_NO":"２０９號","E_COORD97":160448.73999999999,"N_COORD97":2551229.98,"ADDRESS":"城西街一段２０９號","OBJECTID":470485},"geometry":{"x":160448.74000000115,"y":2551229.9800000023}},{"attributes":{"ID":470511,"DIS_CODE":0,"TOWNNAME":"安南區","LI":"城南里","LIN":"5鄰","STREET":"城西街","SECT":"一段","MAREA":" ","LANE":" ","ALLEY":" ","HOUSE_NO":"２１１號","E_COORD97":160446,"N_COORD97":2551225.7599999998,"ADDRESS":"城西街一段２１１號","OBJECTID":470486},"geometry":{"x":160446.00000000186,"y":2551225.7599999998}},{"attributes":{"ID":470512,"DIS_CODE":0,"TOWNNAME":"安南區","LI":"城南里","LIN":"5鄰","STREET":"城西街","SECT":"一段","MAREA":" ","LANE":" ","ALLEY":" ","HOUSE_NO":"２１４號","E_COORD97":160417.98000000001,"N_COORD97":2551258.75,"ADDRESS":"城西街一段２１４號","OBJECTID":470487},"geometry":{"x":160417.98000000138,"y":2551258.7500000019}},{"attributes":{"ID":470513,"DIS_CODE":0,"TOWNNAME":"安南區","LI":"城南里","LIN":"5鄰","STREET":"城西街","SECT":"一段","MAREA":" ","LANE":" ","ALLEY":" ","HOUSE_NO":"２１６號","E_COORD97":160415.23999999999,"N_COORD97":2551250.0600000001,"ADDRESS":"城西街一段２１６號","OBJECTID":470488},"geometry":{"x":160415.24000000022,"y":2551250.0600000024}},{"attributes":{"ID":470514,"DIS_CODE":0,"TOWNNAME":"永康區","LI":"網寮里","LIN":"25鄰","STREET":"永華路","SECT":" ","MAREA":" ","LANE":" ","ALLEY":" ","HOUSE_NO":"４５９號","E_COORD97":173860.07999999999,"N_COORD97":2546580.21,"ADDRESS":"永華路４５９號","OBJECTID":470489},"geometry":{"x":173860.08000000101,"y":2546580.2100000046}},{"attributes":{"ID":470515,"DIS_CODE":0,"TOWNNAME":"安南區","LI":"城南里","LIN":"5鄰","STREET":"城西街","SECT":"一段","MAREA":" ","LANE":" ","ALLEY":" ","HOUSE_NO":"２１８號","E_COORD97":160412.01000000001,"N_COORD97":2551247.5800000001,"ADDRESS":"城西街一段２１８號","OBJECTID":470490},"geometry":{"x":160412.01000000071,"y":2551247.5800000001}},{"attributes":{"ID":470516,"DIS_CODE":0,"TOWNNAME":"安南區","LI":"城南里","LIN":"5鄰","STREET":"城西街","SECT":"一段","MAREA":" ","LANE":" ","ALLEY":" ","HOUSE_NO":"２２２號","E_COORD97":160404.79999999999,"N_COORD97":2551240.1299999999,"ADDRESS":"城西街一段２２２號","OBJECTID":470491},"geometry":{"x":160404.80000000168,"y":2551240.1299999971}},{"attributes":{"ID":470517,"DIS_CODE":0,"TOWNNAME":"安南區","LI":"城南里","LIN":"5鄰","STREET":"城西街","SECT":"一段","MAREA":" ","LANE":" ","ALLEY":" ","HOUSE_NO":"２３２號","E_COORD97":160378.45000000001,"N_COORD97":2551230.46,"ADDRESS":"城西街一段２３２號","OBJECTID":470492},"geometry":{"x":160378.45000000019,"y":2551230.4600000028}},{"attributes":{"ID":470518,"DIS_CODE":0,"TOWNNAME":"安南區","LI":"城南里","LIN":"5鄰","STREET":"城西街","SECT":"一段","MAREA":" ","LANE":" ","ALLEY":" ","HOUSE_NO":"２３４號","E_COORD97":160371.73000000001,"N_COORD97":2551225.25,"ADDRESS":"城西街一段２３４號","OBJECTID":470493},"geometry":{"x":160371.73000000045,"y":2551225.2500000019}},{"attributes":{"ID":470519,"DIS_CODE":0,"TOWNNAME":"安南區","LI":"城西里","LIN":"5鄰","STREET":"城西街","SECT":"三段","MAREA":" ","LANE":" ","ALLEY":" ","HOUSE_NO":"５１３號","E_COORD97":157119.67000000001,"N_COORD97":2550828.8799999999,"ADDRESS":"城西街三段５１３號","OBJECTID":470494},"geometry":{"x":157119.66999999993,"y":2550828.8800000008}},{"attributes":{"ID":470520,"DIS_CODE":0,"TOWNNAME":"安南區","LI":"城西里","LIN":"5鄰","STREET":"城西街","SECT":"三段","MAREA":" ","LANE":" ","ALLEY":" ","HOUSE_NO":"５１４號","E_COORD97":157127.94,"N_COORD97":2550856.6699999999,"ADDRESS":"城西街三段５１４號","OBJECTID":470495},"geometry":{"x":157127.94000000134,"y":2550856.6699999999}},{"attributes":{"ID":470521,"DIS_CODE":0,"TOWNNAME":"安南區","LI":"城西里","LIN":"5鄰","STREET":"城西街","SECT":"三段","MAREA":" ","LANE":" ","ALLEY":" ","HOUSE_NO":"６０５號","E_COORD97":156950.23999999999,"N_COORD97":2550794.3999999999,"ADDRESS":"城西街三段６０５號","OBJECTID":470496},"geometry":{"x":156950.24000000022,"y":2550794.4000000004}},{"attributes":{"ID":470522,"DIS_CODE":0,"TOWNNAME":"安南區","LI":"城西里","LIN":"5鄰","STREET":"城西街","SECT":"三段","MAREA":" ","LANE":" ","ALLEY":" ","HOUSE_NO":"６１８號","E_COORD97":156906.20999999999,"N_COORD97":2550811.3500000001,"ADDRESS":"城西街三段６１８號","OBJECTID":470497},"geometry":{"x":156906.20999999996,"y":2550811.3499999996}},{"attributes":{"ID":470523,"DIS_CODE":0,"TOWNNAME":"安南區","LI":"青草里","LIN":"5鄰","STREET":"青砂街","SECT":"二段","MAREA":" ","LANE":" ","ALLEY":" ","HOUSE_NO":"４３６號","E_COORD97":158869.17999999999,"N_COORD97":2552971.5600000001,"ADDRESS":"青砂街二段４３６號","OBJECTID":470498},"geometry":{"x":158869.1799999997,"y":2552971.5600000042}},{"attributes":{"ID":470524,"DIS_CODE":0,"TOWNNAME":"安南區","LI":"青草里","LIN":"5鄰","STREET":"青砂街","SECT":"二段","MAREA":" ","LANE":" ","ALLEY":" ","HOUSE_NO":"４４２號","E_COORD97":158846.13,"N_COORD97":2552969.73,"ADDRESS":"青砂街二段４４２號","OBJECTID":470499},"geometry":{"x":158846.12999999989,"y":2552969.7300000004}},{"attributes":{"ID":470525,"DIS_CODE":0,"TOWNNAME":"安南區","LI":"青草里","LIN":"5鄰","STREET":"青砂街","SECT":"二段","MAREA":" ","LANE":" ","ALLEY":" ","HOUSE_NO":"４６０號","E_COORD97":158800.66,"N_COORD97":2552949.7000000002,"ADDRESS":"青砂街二段４６０號","OBJECTID":470500},"geometry":{"x":158800.66000000201,"y":2552949.7000000011}},{"attributes":{"ID":470526,"DIS_CODE":0,"TOWNNAME":"安南區","LI":"青草里","LIN":"5鄰","STREET":"青砂街","SECT":"二段","MAREA":" ","LANE":" ","ALLEY":" ","HOUSE_NO":"４６４號","E_COORD97":158794.60999999999,"N_COORD97":2552950.2400000002,"ADDRESS":"青砂街二段４６４號","OBJECTID":470501},"geometry":{"x":158794.61000000127,"y":2552950.2400000021}},{"attributes":{"ID":470527,"DIS_CODE":0,"TOWNNAME":"安南區","LI":"淵中里","LIN":"5鄰","STREET":"安中路","SECT":"四段","MAREA":" ","LANE":" ","ALLEY":" ","HOUSE_NO":"１００號","E_COORD97":165106.10000000001,"N_COORD97":2550003.3700000001,"ADDRESS":"安中路四段１００號","OBJECTID":470502},"geometry":{"x":165106.09999999963,"y":2550003.3700000048}},{"attributes":{"ID":470528,"DIS_CODE":0,"TOWNNAME":"安南區","LI":"淵中里","LIN":"5鄰","STREET":"安中路","SECT":"四段","MAREA":" ","LANE":" ","ALLEY":" ","HOUSE_NO":"１０號","E_COORD97":165278.39000000001,"N_COORD97":2550122.3300000001,"ADDRESS":"安中路四段１０號","OBJECTID":470503},"geometry":{"x":165278.3900000006,"y":2550122.3300000019}},{"attributes":{"ID":470529,"DIS_CODE":0,"TOWNNAME":"安南區","LI":"淵中里","LIN":"5鄰","STREET":"安中路","SECT":"四段","MAREA":" ","LANE":" ","ALLEY":" ","HOUSE_NO":"１２號","E_COORD97":165274.32000000001,"N_COORD97":2550120.1600000001,"ADDRESS":"安中路四段１２號","OBJECTID":470504},"geometry":{"x":165274.32000000123,"y":2550120.160000002}},{"attributes":{"ID":470530,"DIS_CODE":0,"TOWNNAME":"安南區","LI":"淵中里","LIN":"5鄰","STREET":"安中路","SECT":"四段","MAREA":" ","LANE":" ","ALLEY":" ","HOUSE_NO":"２０號","E_COORD97":165263.28,"N_COORD97":2550111.8300000001,"ADDRESS":"安中路四段２０號","OBJECTID":470505},"geometry":{"x":165263.28000000026,"y":2550111.8300000019}},{"attributes":{"ID":470531,"DIS_CODE":0,"TOWNNAME":"安南區","LI":"淵中里","LIN":"5鄰","STREET":"安中路","SECT":"四段","MAREA":" ","LANE":" ","ALLEY":" ","HOUSE_NO":"２２號","E_COORD97":165261.38,"N_COORD97":2550107.77,"ADDRESS":"安中路四段２２號","OBJECTID":470506},"geometry":{"x":165261.38000000082,"y":2550107.7700000033}},{"attributes":{"ID":470532,"DIS_CODE":0,"TOWNNAME":"安南區","LI":"淵中里","LIN":"5鄰","STREET":"安中路","SECT":"四段","MAREA":" ","LANE":" ","ALLEY":" ","HOUSE_NO":"６號","E_COORD97":165289.06,"N_COORD97":2550129.4500000002,"ADDRESS":"安中路四段６號","OBJECTID":470507},"geometry":{"x":165289.06000000052,"y":2550129.4499999993}},{"attributes":{"ID":470533,"DIS_CODE":0,"TOWNNAME":"安南區","LI":"原佃里","LIN":"5鄰","STREET":"本原街","SECT":"一段","MAREA":" ","LANE":" ","ALLEY":" ","HOUSE_NO":"１９１號","E_COORD97":167787.89000000001,"N_COORD97":2550176.6099999999,"ADDRESS":"本原街一段１９１號","OBJECTID":470508},"geometry":{"x":167787.88999999966,"y":2550176.6100000031}},{"attributes":{"ID":470534,"DIS_CODE":0,"TOWNNAME":"安南區","LI":"城東里","LIN":"5鄰","STREET":"城北路","SECT":" ","MAREA":" ","LANE":" ","ALLEY":" ","HOUSE_NO":"１４８號","E_COORD97":161027.17000000001,"N_COORD97":2551682.6099999999,"ADDRESS":"城北路１４８號","OBJECTID":470509},"geometry":{"x":161027.16999999993,"y":2551682.6100000013}},{"attributes":{"ID":470535,"DIS_CODE":0,"TOWNNAME":"安南區","LI":"城南里","LIN":"5鄰","STREET":"城西街","SECT":"一段","MAREA":" ","LANE":" ","ALLEY":" ","HOUSE_NO":"２００號","E_COORD97":160449.48000000001,"N_COORD97":2551268.7400000002,"ADDRESS":"城西街一段２００號","OBJECTID":470510},"geometry":{"x":160449.48000000045,"y":2551268.7400000021}},{"attributes":{"ID":470536,"DIS_CODE":0,"TOWNNAME":"安南區","LI":"城南里","LIN":"5鄰","STREET":"城西街","SECT":"一段","MAREA":" ","LANE":" ","ALLEY":" ","HOUSE_NO":"２０２號","E_COORD97":160445.75,"N_COORD97":2551266.5,"ADDRESS":"城西街一段２０２號","OBJECTID":470511},"geometry":{"x":160445.75,"y":2551266.5000000019}},{"attributes":{"ID":470537,"DIS_CODE":0,"TOWNNAME":"安南區","LI":"城南里","LIN":"5鄰","STREET":"城西街","SECT":"一段","MAREA":" ","LANE":" ","ALLEY":" ","HOUSE_NO":"２０４號","E_COORD97":160442.76999999999,"N_COORD97":2551263.77,"ADDRESS":"城西街一段２０４號","OBJECTID":470512},"geometry":{"x":160442.77000000048,"y":2551263.7700000033}},{"attributes":{"ID":470538,"DIS_CODE":0,"TOWNNAME":"安南區","LI":"城南里","LIN":"5鄰","STREET":"城西街","SECT":"一段","MAREA":" ","LANE":" ","ALLEY":" ","HOUSE_NO":"２０６號","E_COORD97":160439.04000000001,"N_COORD97":2551261.79,"ADDRESS":"城西街一段２０６號","OBJECTID":470513},"geometry":{"x":160439.0400000019,"y":2551261.7899999991}},{"attributes":{"ID":470539,"DIS_CODE":0,"TOWNNAME":"安南區","LI":"城南里","LIN":"5鄰","STREET":"城西街","SECT":"一段","MAREA":" ","LANE":" ","ALLEY":" ","HOUSE_NO":"２０８號","E_COORD97":160435.81,"N_COORD97":2551259.0499999998,"ADDRESS":"城西街一段２０８號","OBJECTID":470514},"geometry":{"x":160435.80999999959,"y":2551259.0500000007}},{"attributes":{"ID":470540,"DIS_CODE":0,"TOWNNAME":"安南區","LI":"城南里","LIN":"5鄰","STREET":"城西街","SECT":"一段","MAREA":" ","LANE":" ","ALLEY":" ","HOUSE_NO":"２１０號","E_COORD97":160432.57999999999,"N_COORD97":2551255.5800000001,"ADDRESS":"城西街一段２１０號","OBJECTID":470515},"geometry":{"x":160432.58000000101,"y":2551255.5800000038}},{"attributes":{"ID":470541,"DIS_CODE":0,"TOWNNAME":"安南區","LI":"安慶里","LIN":"5鄰","STREET":"怡安路","SECT":"一段","MAREA":" ","LANE":" ","ALLEY":" ","HOUSE_NO":"２６３號","E_COORD97":169013.32999999999,"N_COORD97":2549070.1899999999,"ADDRESS":"怡安路一段２６３號","OBJECTID":470516},"geometry":{"x":169013.33000000101,"y":2549070.1899999995}},{"attributes":{"ID":470542,"DIS_CODE":0,"TOWNNAME":"安南區","LI":"安慶里","LIN":"5鄰","STREET":"怡安路","SECT":"一段","MAREA":" ","LANE":" ","ALLEY":" ","HOUSE_NO":"２６４號","E_COORD97":169000.64999999999,"N_COORD97":2549123.0299999998,"ADDRESS":"怡安路一段２６４號","OBJECTID":470517},"geometry":{"x":169000.65000000037,"y":2549123.0300000012}},{"attributes":{"ID":470543,"DIS_CODE":0,"TOWNNAME":"安南區","LI":"安慶里","LIN":"5鄰","STREET":"怡安路","SECT":"一段","MAREA":" ","LANE":" ","ALLEY":" ","HOUSE_NO":"２７０號","E_COORD97":169001.53,"N_COORD97":2549109.6000000001,"ADDRESS":"怡安路一段２７０號","OBJECTID":470518},"geometry":{"x":169001.52999999933,"y":2549109.6000000015}},{"attributes":{"ID":470544,"DIS_CODE":0,"TOWNNAME":"善化區","LI":"文昌里","LIN":"5鄰","STREET":"自由路","SECT":" ","MAREA":" ","LANE":" ","ALLEY":" ","HOUSE_NO":"６９號","E_COORD97":177244.57999999999,"N_COORD97":2558871.5,"ADDRESS":"自由路６９號","OBJECTID":470519},"geometry":{"x":177244.58000000007,"y":2558871.5000000019}},{"attributes":{"ID":470545,"DIS_CODE":0,"TOWNNAME":"西港區","LI":"慶安里","LIN":"5鄰","STREET":"中山路","SECT":" ","MAREA":" ","LANE":" ","ALLEY":" ","HOUSE_NO":"４５９號","E_COORD97":168174.42999999999,"N_COORD97":2558697.21,"ADDRESS":"中山路４５９號","OBJECTID":470520},"geometry":{"x":168174.43000000156,"y":2558697.2100000046}},{"attributes":{"ID":470546,"DIS_CODE":0,"TOWNNAME":"西港區","LI":"慶安里","LIN":"5鄰","STREET":"中山路","SECT":" ","MAREA":" ","LANE":" ","ALLEY":" ","HOUSE_NO":"４６３號","E_COORD97":168182.42999999999,"N_COORD97":2558699.6400000001,"ADDRESS":"中山路４６３號","OBJECTID":470521},"geometry":{"x":168182.4299999997,"y":2558699.6400000006}},{"attributes":{"ID":470547,"DIS_CODE":0,"TOWNNAME":"善化區","LI":"坐駕里","LIN":"5鄰","STREET":"民生路","SECT":" ","MAREA":" ","LANE":" ","ALLEY":" ","HOUSE_NO":"４２７號","E_COORD97":177819.17999999999,"N_COORD97":2558852.7599999998,"ADDRESS":"民生路４２７號","OBJECTID":470522},"geometry":{"x":177819.18000000063,"y":2558852.7600000016}},{"attributes":{"ID":470548,"DIS_CODE":0,"TOWNNAME":"善化區","LI":"坐駕里","LIN":"5鄰","STREET":"民生路","SECT":" ","MAREA":" ","LANE":" ","ALLEY":" ","HOUSE_NO":"４３１號","E_COORD97":177810.35000000001,"N_COORD97":2558852.0099999998,"ADDRESS":"民生路４３１號","OBJECTID":470523},"geometry":{"x":177810.35000000149,"y":2558852.0099999998}},{"attributes":{"ID":470549,"DIS_CODE":0,"TOWNNAME":"善化區","LI":"文昌里","LIN":"5鄰","STREET":"自由路","SECT":" ","MAREA":" ","LANE":" ","ALLEY":" ","HOUSE_NO":"７９號","E_COORD97":177208.98999999999,"N_COORD97":2558860.5,"ADDRESS":"自由路７９號","OBJECTID":470524},"geometry":{"x":177208.99000000115,"y":2558860.5000000037}},{"attributes":{"ID":470550,"DIS_CODE":0,"TOWNNAME":"善化區","LI":"坐駕里","LIN":"5鄰","STREET":"民生路","SECT":" ","MAREA":" ","LANE":" ","ALLEY":" ","HOUSE_NO":"４２３號","E_COORD97":177828.62,"N_COORD97":2558854.2599999998,"ADDRESS":"民生路４２３號","OBJECTID":470525},"geometry":{"x":177828.62000000011,"y":2558854.2599999998}},{"attributes":{"ID":470551,"DIS_CODE":0,"TOWNNAME":"善化區","LI":"西關里","LIN":"5鄰","STREET":"中山路","SECT":" ","MAREA":" ","LANE":" ","ALLEY":" ","HOUSE_NO":"５１１號","E_COORD97":177138.62,"N_COORD97":2559137,"ADDRESS":"中山路５１１號","OBJECTID":470526},"geometry":{"x":177138.62000000104,"y":2559137}},{"attributes":{"ID":470552,"DIS_CODE":0,"TOWNNAME":"善化區","LI":"坐駕里","LIN":"5鄰","STREET":"民生路","SECT":" ","MAREA":" ","LANE":" ","ALLEY":" ","HOUSE_NO":"４２９號","E_COORD97":177814.73999999999,"N_COORD97":2558851.5099999998,"ADDRESS":"民生路４２９號","OBJECTID":470527},"geometry":{"x":177814.74000000022,"y":2558851.5100000016}},{"attributes":{"ID":470553,"DIS_CODE":0,"TOWNNAME":"善化區","LI":"西關里","LIN":"5鄰","STREET":"中山路","SECT":" ","MAREA":" ","LANE":" ","ALLEY":" ","HOUSE_NO":"５０３號","E_COORD97":177162.12,"N_COORD97":2559132,"ADDRESS":"中山路５０３號","OBJECTID":470528},"geometry":{"x":177162.12000000104,"y":2559132.0000000037}},{"attributes":{"ID":470554,"DIS_CODE":0,"TOWNNAME":"善化區","LI":"坐駕里","LIN":"5鄰","STREET":"民生路","SECT":" ","MAREA":" ","LANE":" ","ALLEY":" ","HOUSE_NO":"４２４號","E_COORD97":177812.76000000001,"N_COORD97":2558868.7599999998,"ADDRESS":"民生路４２４號","OBJECTID":470529},"geometry":{"x":177812.75999999885,"y":2558868.7600000035}},{"attributes":{"ID":470555,"DIS_CODE":0,"TOWNNAME":"善化區","LI":"西關里","LIN":"5鄰","STREET":"中山路","SECT":" ","MAREA":" ","LANE":" ","ALLEY":" ","HOUSE_NO":"５０７號","E_COORD97":177151.48000000001,"N_COORD97":2559134.75,"ADDRESS":"中山路５０７號","OBJECTID":470530},"geometry":{"x":177151.48000000138,"y":2559134.7500000019}},{"attributes":{"ID":470556,"DIS_CODE":0,"TOWNNAME":"善化區","LI":"坐駕里","LIN":"5鄰","STREET":"民生路","SECT":" ","MAREA":" ","LANE":" ","ALLEY":" ","HOUSE_NO":"４２８號","E_COORD97":177803.29999999999,"N_COORD97":2558868.2599999998,"ADDRESS":"民生路４２８號","OBJECTID":470531},"geometry":{"x":177803.30000000075,"y":2558868.2599999998}},{"attributes":{"ID":470557,"DIS_CODE":0,"TOWNNAME":"東區","LI":"崇學里","LIN":"7鄰","STREET":"崇德四街","SECT":" ","MAREA":" ","LANE":" ","ALLEY":" ","HOUSE_NO":"９號地下層","E_COORD97":170561.67000000001,"N_COORD97":2542025.52,"ADDRESS":"崇德四街９號地下層","OBJECTID":470532},"geometry":{"x":170561.67000000179,"y":2542025.5199999996}},{"attributes":{"ID":470558,"DIS_CODE":0,"TOWNNAME":"東區","LI":"崇學里","LIN":"7鄰","STREET":"崇德四街","SECT":" ","MAREA":" ","LANE":" ","ALLEY":" ","HOUSE_NO":"９號地下層之１","E_COORD97":170561.67000000001,"N_COORD97":2542025.52,"ADDRESS":"崇德四街９號地下層之１","OBJECTID":470533},"geometry":{"x":170561.67000000179,"y":2542025.5199999996}},{"attributes":{"ID":470559,"DIS_CODE":0,"TOWNNAME":"善化區","LI":"西關里","LIN":"5鄰","STREET":"中興路","SECT":" ","MAREA":" ","LANE":" ","ALLEY":" ","HOUSE_NO":"２０６號","E_COORD97":177129.57999999999,"N_COORD97":2559086.25,"ADDRESS":"中興路２０６號","OBJECTID":470534},"geometry":{"x":177129.58000000194,"y":2559086.2500000037}},{"attributes":{"ID":470560,"DIS_CODE":0,"TOWNNAME":"善化區","LI":"坐駕里","LIN":"5鄰","STREET":"民生路","SECT":" ","MAREA":" ","LANE":" ","ALLEY":" ","HOUSE_NO":"４２５號","E_COORD97":177822.95999999999,"N_COORD97":2558853.5099999998,"ADDRESS":"民生路４２５號","OBJECTID":470535},"geometry":{"x":177822.95999999996,"y":2558853.5100000035}},{"attributes":{"ID":470561,"DIS_CODE":0,"TOWNNAME":"善化區","LI":"坐駕里","LIN":"5鄰","STREET":"民生路","SECT":" ","MAREA":" ","LANE":" ","ALLEY":" ","HOUSE_NO":"４５６號","E_COORD97":177735.63,"N_COORD97":2558869.7599999998,"ADDRESS":"民生路４５６號","OBJECTID":470536},"geometry":{"x":177735.62999999989,"y":2558869.7600000016}},{"attributes":{"ID":470562,"DIS_CODE":0,"TOWNNAME":"善化區","LI":"坐駕里","LIN":"5鄰","STREET":"民生路","SECT":" ","MAREA":" ","LANE":" ","ALLEY":" ","HOUSE_NO":"４３２號之１","E_COORD97":177783.09,"N_COORD97":2558869.02,"ADDRESS":"民生路４３２號之１","OBJECTID":470537},"geometry":{"x":177783.08999999985,"y":2558869.0199999996}},{"attributes":{"ID":470563,"DIS_CODE":0,"TOWNNAME":"善化區","LI":"文正里","LIN":"5鄰","STREET":"文正路","SECT":" ","MAREA":" ","LANE":" ","ALLEY":" ","HOUSE_NO":"７３號之２","E_COORD97":177150.54000000001,"N_COORD97":2559307.2799999998,"ADDRESS":"文正路７３號之２","OBJECTID":470538},"geometry":{"x":177150.54000000097,"y":2559307.2799999993}},{"attributes":{"ID":470564,"DIS_CODE":0,"TOWNNAME":"善化區","LI":"坐駕里","LIN":"5鄰","STREET":"光明路","SECT":" ","MAREA":" ","LANE":" ","ALLEY":" ","HOUSE_NO":"５５號","E_COORD97":177800.69,"N_COORD97":2558937.5,"ADDRESS":"光明路５５號","OBJECTID":470539},"geometry":{"x":177800.69000000134,"y":2558937.5}},{"attributes":{"ID":470565,"DIS_CODE":0,"TOWNNAME":"善化區","LI":"坐駕里","LIN":"5鄰","STREET":"民生路","SECT":" ","MAREA":" ","LANE":" ","ALLEY":" ","HOUSE_NO":"４５８號","E_COORD97":177729.23000000001,"N_COORD97":2558870.2599999998,"ADDRESS":"民生路４５８號","OBJECTID":470540},"geometry":{"x":177729.23000000138,"y":2558870.2600000016}},{"attributes":{"ID":470566,"DIS_CODE":0,"TOWNNAME":"善化區","LI":"坐駕里","LIN":"5鄰","STREET":"民生路","SECT":" ","MAREA":" ","LANE":" ","ALLEY":" ","HOUSE_NO":"４３９號","E_COORD97":177790.89999999999,"N_COORD97":2558848.0099999998,"ADDRESS":"民生路４３９號","OBJECTID":470541},"geometry":{"x":177790.9000000013,"y":2558848.0100000016}},{"attributes":{"ID":470567,"DIS_CODE":0,"TOWNNAME":"善化區","LI":"文正里","LIN":"5鄰","STREET":"文正路","SECT":" ","MAREA":" ","LANE":" ","ALLEY":" ","HOUSE_NO":"７３號","E_COORD97":177144.73000000001,"N_COORD97":2559297.5299999998,"ADDRESS":"文正路７３號","OBJECTID":470542},"geometry":{"x":177144.73000000138,"y":2559297.5300000012}},{"attributes":{"ID":470568,"DIS_CODE":0,"TOWNNAME":"善化區","LI":"西關里","LIN":"5鄰","STREET":"中興路","SECT":" ","MAREA":" ","LANE":" ","ALLEY":" ","HOUSE_NO":"２０８號","E_COORD97":177120.75,"N_COORD97":2559070.75,"ADDRESS":"中興路２０８號","OBJECTID":470543},"geometry":{"x":177120.75,"y":2559070.75}},{"attributes":{"ID":470569,"DIS_CODE":0,"TOWNNAME":"善化區","LI":"坐駕里","LIN":"5鄰","STREET":"民生路","SECT":" ","MAREA":" ","LANE":" ","ALLEY":" ","HOUSE_NO":"３７７號","E_COORD97":177959.67000000001,"N_COORD97":2558873.7599999998,"ADDRESS":"民生路３７７號","OBJECTID":470544},"geometry":{"x":177959.67000000086,"y":2558873.7600000016}},{"attributes":{"ID":470570,"DIS_CODE":0,"TOWNNAME":"善化區","LI":"坐駕里","LIN":"5鄰","STREET":"民生路","SECT":" ","MAREA":" ","LANE":" ","ALLEY":" ","HOUSE_NO":"３７９號","E_COORD97":177955.37,"N_COORD97":2558873.0099999998,"ADDRESS":"民生路３７９號","OBJECTID":470545},"geometry":{"x":177955.37000000104,"y":2558873.0099999998}},{"attributes":{"ID":470571,"DIS_CODE":0,"TOWNNAME":"善化區","LI":"西關里","LIN":"5鄰","STREET":"三民路","SECT":" ","MAREA":" ","LANE":" ","ALLEY":" ","HOUSE_NO":"７４號","E_COORD97":177121.23000000001,"N_COORD97":2559117.2599999998,"ADDRESS":"三民路７４號","OBJECTID":470546},"geometry":{"x":177121.23000000138,"y":2559117.2600000016}},{"attributes":{"ID":470572,"DIS_CODE":0,"TOWNNAME":"善化區","LI":"坐駕里","LIN":"5鄰","STREET":"民生路","SECT":" ","MAREA":" ","LANE":" ","ALLEY":" ","HOUSE_NO":"４１５號","E_COORD97":177870.45999999999,"N_COORD97":2558859.2599999998,"ADDRESS":"民生路４１５號","OBJECTID":470547},"geometry":{"x":177870.45999999996,"y":2558859.2600000016}},{"attributes":{"ID":470573,"DIS_CODE":0,"TOWNNAME":"善化區","LI":"坐駕里","LIN":"5鄰","STREET":"中正路","SECT":" ","MAREA":" ","LANE":" ","ALLEY":" ","HOUSE_NO":"４１２號","E_COORD97":177716.07999999999,"N_COORD97":2558849.25,"ADDRESS":"中正路４１２號","OBJECTID":470548},"geometry":{"x":177716.08000000194,"y":2558849.2500000019}},{"attributes":{"ID":470574,"DIS_CODE":0,"TOWNNAME":"善化區","LI":"坐駕里","LIN":"5鄰","STREET":"大智路","SECT":" ","MAREA":" ","LANE":" ","ALLEY":" ","HOUSE_NO":"１號","E_COORD97":177761.87,"N_COORD97":2558813.75,"ADDRESS":"大智路１號","OBJECTID":470549},"geometry":{"x":177761.87000000104,"y":2558813.75}},{"attributes":{"ID":470575,"DIS_CODE":0,"TOWNNAME":"善化區","LI":"西關里","LIN":"5鄰","STREET":"三民路","SECT":" ","MAREA":" ","LANE":" ","ALLEY":" ","HOUSE_NO":"７４號之３","E_COORD97":177127.07000000001,"N_COORD97":2559131.02,"ADDRESS":"三民路７４號之３","OBJECTID":470550},"geometry":{"x":177127.07000000123,"y":2559131.0199999977}},{"attributes":{"ID":470576,"DIS_CODE":0,"TOWNNAME":"善化區","LI":"北關里","LIN":"5鄰","STREET":"中山路","SECT":" ","MAREA":" ","LANE":" ","ALLEY":" ","HOUSE_NO":"５１２號","E_COORD97":177174.42000000001,"N_COORD97":2559152,"ADDRESS":"中山路５１２號","OBJECTID":470551},"geometry":{"x":177174.41999999899,"y":2559152.0000000037}},{"attributes":{"ID":470577,"DIS_CODE":0,"TOWNNAME":"善化區","LI":"坐駕里","LIN":"5鄰","STREET":"中正路","SECT":" ","MAREA":" ","LANE":" ","ALLEY":" ","HOUSE_NO":"４００號","E_COORD97":177702.51999999999,"N_COORD97":2558821.25,"ADDRESS":"中正路４００號","OBJECTID":470552},"geometry":{"x":177702.52000000048,"y":2558821.25}},{"attributes":{"ID":470578,"DIS_CODE":0,"TOWNNAME":"善化區","LI":"北關里","LIN":"5鄰","STREET":"中山路","SECT":" ","MAREA":" ","LANE":" ","ALLEY":" ","HOUSE_NO":"５１６號之２","E_COORD97":177147.45999999999,"N_COORD97":2559157.52,"ADDRESS":"中山路５１６號之２","OBJECTID":470553},"geometry":{"x":177147.46000000089,"y":2559157.5199999996}},{"attributes":{"ID":470579,"DIS_CODE":0,"TOWNNAME":"善化區","LI":"西關里","LIN":"5鄰","STREET":"三民路","SECT":" ","MAREA":" ","LANE":" ","ALLEY":" ","HOUSE_NO":"７０號","E_COORD97":177123.98000000001,"N_COORD97":2559106.7599999998,"ADDRESS":"三民路７０號","OBJECTID":470554},"geometry":{"x":177123.98000000138,"y":2559106.7600000016}},{"attributes":{"ID":470580,"DIS_CODE":0,"TOWNNAME":"善化區","LI":"坐駕里","LIN":"5鄰","STREET":"中正路","SECT":" ","MAREA":" ","LANE":" ","ALLEY":" ","HOUSE_NO":"３９８號","E_COORD97":177702.51999999999,"N_COORD97":2558817,"ADDRESS":"中正路３９８號","OBJECTID":470555},"geometry":{"x":177702.52000000048,"y":2558817.0000000019}},{"attributes":{"ID":470581,"DIS_CODE":0,"TOWNNAME":"善化區","LI":"北關里","LIN":"5鄰","STREET":"中山路","SECT":" ","MAREA":" ","LANE":" ","ALLEY":" ","HOUSE_NO":"５１６號之１","E_COORD97":177151.57999999999,"N_COORD97":2559157.27,"ADDRESS":"中山路５１６號之１","OBJECTID":470556},"geometry":{"x":177151.58000000194,"y":2559157.2700000014}},{"attributes":{"ID":470582,"DIS_CODE":0,"TOWNNAME":"善化區","LI":"坐駕里","LIN":"5鄰","STREET":"中正路","SECT":" ","MAREA":" ","LANE":" ","ALLEY":" ","HOUSE_NO":"４０２號","E_COORD97":177702.42000000001,"N_COORD97":2558825.5,"ADDRESS":"中正路４０２號","OBJECTID":470557},"geometry":{"x":177702.42000000086,"y":2558825.5}},{"attributes":{"ID":470583,"DIS_CODE":0,"TOWNNAME":"西港區","LI":"西港里","LIN":"5鄰","STREET":"文化路","SECT":" ","MAREA":" ","LANE":" ","ALLEY":" ","HOUSE_NO":"９４號","E_COORD97":168882.60000000001,"N_COORD97":2558213.3100000001,"ADDRESS":"文化路９４號","OBJECTID":470558},"geometry":{"x":168882.60000000056,"y":2558213.3100000005}},{"attributes":{"ID":470584,"DIS_CODE":0,"TOWNNAME":"東區","LI":"莊敬里","LIN":"5鄰","STREET":"小東路","SECT":" ","MAREA":" ","LANE":" ","ALLEY":" ","HOUSE_NO":"２８６號","E_COORD97":171209.10000000001,"N_COORD97":2544332.3300000001,"ADDRESS":"小東路２８６號","OBJECTID":470559},"geometry":{"x":171209.09999999963,"y":2544332.3300000001}},{"attributes":{"ID":470585,"DIS_CODE":0,"TOWNNAME":"東區","LI":"富裕里","LIN":"5鄰","STREET":"裕農路","SECT":" ","MAREA":" ","LANE":" ","ALLEY":" ","HOUSE_NO":"８４號","E_COORD97":170687.59,"N_COORD97":2542871.2799999998,"ADDRESS":"裕農路８４號","OBJECTID":470560},"geometry":{"x":170687.59000000171,"y":2542871.2799999993}},{"attributes":{"ID":470586,"DIS_CODE":0,"TOWNNAME":"東區","LI":"小東里","LIN":"5鄰","STREET":"小東路","SECT":" ","MAREA":" ","LANE":" ","ALLEY":" ","HOUSE_NO":"２４０號之２","E_COORD97":170932.13,"N_COORD97":2544426.3999999999,"ADDRESS":"小東路２４０號之２","OBJECTID":470561},"geometry":{"x":170932.13000000082,"y":2544426.4000000022}},{"attributes":{"ID":470587,"DIS_CODE":0,"TOWNNAME":"東區","LI":"虎尾里","LIN":"5鄰","STREET":"富農街","SECT":"一段","MAREA":" ","LANE":" ","ALLEY":" ","HOUSE_NO":"５２號","E_COORD97":171501.73999999999,"N_COORD97":2542137.0699999998,"ADDRESS":"富農街一段５２號","OBJECTID":470562},"geometry":{"x":171501.74000000022,"y":2542137.0700000022}},{"attributes":{"ID":470588,"DIS_CODE":0,"TOWNNAME":"東區","LI":"虎尾里","LIN":"5鄰","STREET":"富農街","SECT":"一段","MAREA":" ","LANE":" ","ALLEY":" ","HOUSE_NO":"５４號","E_COORD97":171502.07000000001,"N_COORD97":2542141.3799999999,"ADDRESS":"富農街一段５４號","OBJECTID":470563},"geometry":{"x":171502.07000000123,"y":2542141.379999999}},{"attributes":{"ID":470589,"DIS_CODE":0,"TOWNNAME":"東區","LI":"虎尾里","LIN":"5鄰","STREET":"富農街","SECT":"一段","MAREA":" ","LANE":" ","ALLEY":" ","HOUSE_NO":"５６號","E_COORD97":171501.41,"N_COORD97":2542148.6699999999,"ADDRESS":"富農街一段５６號","OBJECTID":470564},"geometry":{"x":171501.41000000108,"y":2542148.6700000018}},{"attributes":{"ID":470590,"DIS_CODE":0,"TOWNNAME":"東區","LI":"虎尾里","LIN":"5鄰","STREET":"富農街","SECT":"一段","MAREA":" ","LANE":" ","ALLEY":" ","HOUSE_NO":"５８號","E_COORD97":171502.07000000001,"N_COORD97":2542154.3100000001,"ADDRESS":"富農街一段５８號","OBJECTID":470565},"geometry":{"x":171502.07000000123,"y":2542154.3100000005}},{"attributes":{"ID":470591,"DIS_CODE":0,"TOWNNAME":"東區","LI":"虎尾里","LIN":"5鄰","STREET":"富農街","SECT":"一段","MAREA":" ","LANE":" ","ALLEY":" ","HOUSE_NO":"６０號","E_COORD97":171500.91,"N_COORD97":2542159.1099999999,"ADDRESS":"富農街一段６０號","OBJECTID":470566},"geometry":{"x":171500.90999999922,"y":2542159.1100000013}},{"attributes":{"ID":470592,"DIS_CODE":0,"TOWNNAME":"東區","LI":"虎尾里","LIN":"5鄰","STREET":"富農街","SECT":"一段","MAREA":" ","LANE":" ","ALLEY":" ","HOUSE_NO":"６２號","E_COORD97":171504.89000000001,"N_COORD97":2542163.4199999999,"ADDRESS":"富農街一段６２號","OBJECTID":470567},"geometry":{"x":171504.8900000006,"y":2542163.4200000037}},{"attributes":{"ID":470593,"DIS_CODE":0,"TOWNNAME":"東區","LI":"虎尾里","LIN":"5鄰","STREET":"富農街","SECT":"一段","MAREA":" ","LANE":" ","ALLEY":" ","HOUSE_NO":"６８號","E_COORD97":171516.57999999999,"N_COORD97":2542152.8900000001,"ADDRESS":"富農街一段６８號","OBJECTID":470568},"geometry":{"x":171516.58000000007,"y":2542152.8900000006}},{"attributes":{"ID":470594,"DIS_CODE":0,"TOWNNAME":"東區","LI":"虎尾里","LIN":"5鄰","STREET":"富農街","SECT":"一段","MAREA":" ","LANE":" ","ALLEY":" ","HOUSE_NO":"６６號","E_COORD97":171510.03,"N_COORD97":2542170.7200000002,"ADDRESS":"富農街一段６６號","OBJECTID":470569},"geometry":{"x":171510.03000000026,"y":2542170.7200000007}},{"attributes":{"ID":470595,"DIS_CODE":0,"TOWNNAME":"東區","LI":"虎尾里","LIN":"5鄰","STREET":"富農街","SECT":"一段","MAREA":" ","LANE":" ","ALLEY":" ","HOUSE_NO":"５０號","E_COORD97":171503.07000000001,"N_COORD97":2542132.1000000001,"ADDRESS":"富農街一段５０號","OBJECTID":470570},"geometry":{"x":171503.0700000003,"y":2542132.1000000015}},{"attributes":{"ID":470596,"DIS_CODE":0,"TOWNNAME":"東區","LI":"虎尾里","LIN":"5鄰","STREET":"富農街","SECT":"一段","MAREA":" ","LANE":" ","ALLEY":" ","HOUSE_NO":"６４號","E_COORD97":171506.88,"N_COORD97":2542167.2400000002,"ADDRESS":"富農街一段６４號","OBJECTID":470571},"geometry":{"x":171506.88000000082,"y":2542167.2400000002}},{"attributes":{"ID":470597,"DIS_CODE":0,"TOWNNAME":"東區","LI":"虎尾里","LIN":"5鄰","STREET":"富農街","SECT":"一段","MAREA":" ","LANE":" ","ALLEY":" ","HOUSE_NO":"７０號","E_COORD97":171520.17000000001,"N_COORD97":2542153.9300000002,"ADDRESS":"富農街一段７０號","OBJECTID":470572},"geometry":{"x":171520.17000000086,"y":2542153.9300000016}},{"attributes":{"ID":470598,"DIS_CODE":0,"TOWNNAME":"東區","LI":"龍山里","LIN":"5鄰","STREET":"林森路","SECT":"一段","MAREA":" ","LANE":" ","ALLEY":" ","HOUSE_NO":"４１８號","E_COORD97":170239.38,"N_COORD97":2542834.9399999999,"ADDRESS":"林森路一段４１８號","OBJECTID":470573},"geometry":{"x":170239.37999999989,"y":2542834.9400000013}},{"attributes":{"ID":470599,"DIS_CODE":0,"TOWNNAME":"永康區","LI":"尚頂里","LIN":"5鄰","STREET":"\u25A0信街","SECT":" ","MAREA":" ","LANE":" ","ALLEY":" ","HOUSE_NO":"５８號","E_COORD97":170871.10999999999,"N_COORD97":2547483.1400000001,"ADDRESS":"\u25A0信街５８號","OBJECTID":470574},"geometry":{"x":170871.11000000127,"y":2547483.1400000025}},{"attributes":{"ID":470600,"DIS_CODE":0,"TOWNNAME":"永康區","LI":"尚頂里","LIN":"5鄰","STREET":"\u25A0信街","SECT":" ","MAREA":" ","LANE":" ","ALLEY":" ","HOUSE_NO":"７６號","E_COORD97":170878.03,"N_COORD97":2547548.1400000001,"ADDRESS":"\u25A0信街７６號","OBJECTID":470575},"geometry":{"x":170878.03000000026,"y":2547548.1400000025}},{"attributes":{"ID":470601,"DIS_CODE":0,"TOWNNAME":"永康區","LI":"尚頂里","LIN":"5鄰","STREET":"\u25A0信街","SECT":" ","MAREA":" ","LANE":" ","ALLEY":" ","HOUSE_NO":"６８號","E_COORD97":170876.79000000001,"N_COORD97":2547518.1299999999,"ADDRESS":"\u25A0信街６８號","OBJECTID":470576},"geometry":{"x":170876.79000000097,"y":2547518.1300000008}},{"attributes":{"ID":470602,"DIS_CODE":0,"TOWNNAME":"麻豆區","LI":"\u25A0江里","LIN":"5鄰","STREET":"信義路","SECT":" ","MAREA":" ","LANE":" ","ALLEY":" ","HOUSE_NO":"１０號之３","E_COORD97":173246.31,"N_COORD97":2564612.8500000001,"ADDRESS":"信義路１０號之３","OBJECTID":470577},"geometry":{"x":173246.31000000052,"y":2564612.8500000015}},{"attributes":{"ID":470603,"DIS_CODE":0,"TOWNNAME":"麻豆區","LI":"\u25A0江里","LIN":"5鄰","STREET":"信義路","SECT":" ","MAREA":" ","LANE":" ","ALLEY":" ","HOUSE_NO":"１０號之５","E_COORD97":173252.91,"N_COORD97":2564612.6200000001,"ADDRESS":"信義路１０號之５","OBJECTID":470578},"geometry":{"x":173252.91000000108,"y":2564612.620000001}},{"attributes":{"ID":470604,"DIS_CODE":0,"TOWNNAME":"麻豆區","LI":"\u25A0江里","LIN":"5鄰","STREET":"信義路","SECT":" ","MAREA":" ","LANE":" ","ALLEY":" ","HOUSE_NO":"１０號之６","E_COORD97":173259.17999999999,"N_COORD97":2564612.5299999998,"ADDRESS":"信義路１０號之６","OBJECTID":470579},"geometry":{"x":173259.18000000063,"y":2564612.5299999993}},{"attributes":{"ID":470605,"DIS_CODE":0,"TOWNNAME":"麻豆區","LI":"\u25A0江里","LIN":"5鄰","STREET":"信義路","SECT":" ","MAREA":" ","LANE":" ","ALLEY":" ","HOUSE_NO":"１０號","E_COORD97":173211.29000000001,"N_COORD97":2564614.1099999999,"ADDRESS":"信義路１０號","OBJECTID":470580},"geometry":{"x":173211.29000000097,"y":2564614.1100000013}},{"attributes":{"ID":470606,"DIS_CODE":0,"TOWNNAME":"麻豆區","LI":"\u25A0江里","LIN":"5鄰","STREET":"信義路","SECT":" ","MAREA":" ","LANE":" ","ALLEY":" ","HOUSE_NO":"１２號之１２","E_COORD97":173307.20000000001,"N_COORD97":2564610.48,"ADDRESS":"信義路１２號之１２","OBJECTID":470581},"geometry":{"x":173307.20000000019,"y":2564610.4800000004}},{"attributes":{"ID":470607,"DIS_CODE":0,"TOWNNAME":"麻豆區","LI":"\u25A0江里","LIN":"5鄰","STREET":"信義路","SECT":" ","MAREA":" ","LANE":" ","ALLEY":" ","HOUSE_NO":"１２號之１３","E_COORD97":173316.76999999999,"N_COORD97":2564610.5099999998,"ADDRESS":"信義路１２號之１３","OBJECTID":470582},"geometry":{"x":173316.76999999955,"y":2564610.5100000035}},{"attributes":{"ID":470608,"DIS_CODE":0,"TOWNNAME":"麻豆區","LI":"\u25A0江里","LIN":"5鄰","STREET":"信義路","SECT":" ","MAREA":" ","LANE":" ","ALLEY":" ","HOUSE_NO":"１２號之１４","E_COORD97":173322.69,"N_COORD97":2564610.8100000001,"ADDRESS":"信義路１２號之１４","OBJECTID":470583},"geometry":{"x":173322.69000000041,"y":2564610.8100000005}},{"attributes":{"ID":470609,"DIS_CODE":0,"TOWNNAME":"麻豆區","LI":"\u25A0江里","LIN":"5鄰","STREET":"信義路","SECT":" ","MAREA":" ","LANE":" ","ALLEY":" ","HOUSE_NO":"１２號之１５","E_COORD97":173327.48999999999,"N_COORD97":2564610.5,"ADDRESS":"信義路１２號之１５","OBJECTID":470584},"geometry":{"x":173327.49000000022,"y":2564610.5000000037}},{"attributes":{"ID":470610,"DIS_CODE":0,"TOWNNAME":"麻豆區","LI":"\u25A0江里","LIN":"5鄰","STREET":"信義路","SECT":" ","MAREA":" ","LANE":" ","ALLEY":" ","HOUSE_NO":"１２號之１６","E_COORD97":173332.07000000001,"N_COORD97":2564610.6800000002,"ADDRESS":"信義路１２號之１６","OBJECTID":470585},"geometry":{"x":173332.0700000003,"y":2564610.6800000016}},{"attributes":{"ID":470611,"DIS_CODE":0,"TOWNNAME":"麻豆區","LI":"\u25A0江里","LIN":"5鄰","STREET":"信義路","SECT":" ","MAREA":" ","LANE":" ","ALLEY":" ","HOUSE_NO":"１２號之１","E_COORD97":173264.82000000001,"N_COORD97":2564613.29,"ADDRESS":"信義路１２號之１","OBJECTID":470586},"geometry":{"x":173264.82000000216,"y":2564613.2899999991}},{"attributes":{"ID":470612,"DIS_CODE":0,"TOWNNAME":"麻豆區","LI":"\u25A0江里","LIN":"5鄰","STREET":"信義路","SECT":" ","MAREA":" ","LANE":" ","ALLEY":" ","HOUSE_NO":"１２號之２","E_COORD97":173268.63,"N_COORD97":2564613.3700000001,"ADDRESS":"信義路１２號之２","OBJECTID":470587},"geometry":{"x":173268.62999999989,"y":2564613.3700000029}},{"attributes":{"ID":470613,"DIS_CODE":0,"TOWNNAME":"麻豆區","LI":"\u25A0江里","LIN":"5鄰","STREET":"信義路","SECT":" ","MAREA":" ","LANE":" ","ALLEY":" ","HOUSE_NO":"１２號之３","E_COORD97":173273.32000000001,"N_COORD97":2564613.2000000002,"ADDRESS":"信義路１２號之３","OBJECTID":470588},"geometry":{"x":173273.32000000216,"y":2564613.2000000011}},{"attributes":{"ID":470614,"DIS_CODE":0,"TOWNNAME":"麻豆區","LI":"\u25A0江里","LIN":"5鄰","STREET":"信義路","SECT":" ","MAREA":" ","LANE":" ","ALLEY":" ","HOUSE_NO":"１２號之４","E_COORD97":173277.60999999999,"N_COORD97":2564612.9700000002,"ADDRESS":"信義路１２號之４","OBJECTID":470589},"geometry":{"x":173277.61000000034,"y":2564612.9700000025}},{"attributes":{"ID":470615,"DIS_CODE":0,"TOWNNAME":"麻豆區","LI":"\u25A0江里","LIN":"5鄰","STREET":"信義路","SECT":" ","MAREA":" ","LANE":" ","ALLEY":" ","HOUSE_NO":"１２號之５","E_COORD97":173281.91,"N_COORD97":2564613.0899999999,"ADDRESS":"信義路１２號之５","OBJECTID":470590},"geometry":{"x":173281.91000000015,"y":2564613.089999998}},{"attributes":{"ID":470616,"DIS_CODE":0,"TOWNNAME":"麻豆區","LI":"\u25A0江里","LIN":"5鄰","STREET":"信義路","SECT":" ","MAREA":" ","LANE":" ","ALLEY":" ","HOUSE_NO":"１２號之６","E_COORD97":173286.07000000001,"N_COORD97":2564613.1299999999,"ADDRESS":"信義路１２號之６","OBJECTID":470591},"geometry":{"x":173286.0700000003,"y":2564613.1300000008}},{"attributes":{"ID":470617,"DIS_CODE":0,"TOWNNAME":"麻豆區","LI":"\u25A0江里","LIN":"5鄰","STREET":"信義路","SECT":" ","MAREA":" ","LANE":" ","ALLEY":" ","HOUSE_NO":"１２號之７","E_COORD97":173290.12,"N_COORD97":2564612.8300000001,"ADDRESS":"信義路１２號之７","OBJECTID":470592},"geometry":{"x":173290.12000000104,"y":2564612.8300000019}},{"attributes":{"ID":470618,"DIS_CODE":0,"TOWNNAME":"永康區","LI":"蔦松里","LIN":"5鄰","STREET":"蔦松二街","SECT":" ","MAREA":" ","LANE":" ","ALLEY":" ","HOUSE_NO":"１２３號","E_COORD97":173797.75,"N_COORD97":2549400.6800000002,"ADDRESS":"蔦松二街１２３號","OBJECTID":470593},"geometry":{"x":173797.75000000093,"y":2549400.6800000016}},{"attributes":{"ID":470619,"DIS_CODE":0,"TOWNNAME":"永康區","LI":"網寮里","LIN":"5鄰","STREET":"永二街","SECT":" ","MAREA":" ","LANE":" ","ALLEY":" ","HOUSE_NO":"１５１號","E_COORD97":173502.98999999999,"N_COORD97":2546418.27,"ADDRESS":"永二街１５１號","OBJECTID":470594},"geometry":{"x":173502.99000000115,"y":2546418.2699999996}},{"attributes":{"ID":470620,"DIS_CODE":0,"TOWNNAME":"仁德區","LI":"大甲里","LIN":"5鄰","STREET":"行大一街","SECT":" ","MAREA":" ","LANE":" ","ALLEY":" ","HOUSE_NO":"２４６之１號","E_COORD97":169717.95999999999,"N_COORD97":2535066.04,"ADDRESS":"行大一街２４６之１號","OBJECTID":470595},"geometry":{"x":169717.96000000089,"y":2535066.040000001}},{"attributes":{"ID":470621,"DIS_CODE":0,"TOWNNAME":"仁德區","LI":"大甲里","LIN":"5鄰","STREET":"行大街","SECT":" ","MAREA":" ","LANE":" ","ALLEY":" ","HOUSE_NO":"２９１之２號","E_COORD97":169739.06,"N_COORD97":2535151.5499999998,"ADDRESS":"行大街２９１之２號","OBJECTID":470596},"geometry":{"x":169739.05999999959,"y":2535151.5500000007}},{"attributes":{"ID":470622,"DIS_CODE":0,"TOWNNAME":"仁德區","LI":"土庫里","LIN":"5鄰","STREET":"土庫三街","SECT":" ","MAREA":" ","LANE":" ","ALLEY":" ","HOUSE_NO":"２７之１號","E_COORD97":174140.73999999999,"N_COORD97":2543086.04,"ADDRESS":"土庫三街２７之１號","OBJECTID":470597},"geometry":{"x":174140.74000000115,"y":2543086.0399999991}},{"attributes":{"ID":470623,"DIS_CODE":0,"TOWNNAME":"仁德區","LI":"土庫里","LIN":"5鄰","STREET":"土庫三街","SECT":" ","MAREA":" ","LANE":" ","ALLEY":" ","HOUSE_NO":"４１號","E_COORD97":174220.14000000001,"N_COORD97":2543089.75,"ADDRESS":"土庫三街４１號","OBJECTID":470598},"geometry":{"x":174220.1400000006,"y":2543089.75}},{"attributes":{"ID":470624,"DIS_CODE":0,"TOWNNAME":"仁德區","LI":"土庫里","LIN":"5鄰","STREET":"土庫三街","SECT":" ","MAREA":" ","LANE":" ","ALLEY":" ","HOUSE_NO":"３７號","E_COORD97":174205.26000000001,"N_COORD97":2543087.2400000002,"ADDRESS":"土庫三街３７號","OBJECTID":470599},"geometry":{"x":174205.25999999978,"y":2543087.2400000039}},{"attributes":{"ID":470625,"DIS_CODE":0,"TOWNNAME":"仁德區","LI":"上崙里","LIN":"5鄰","STREET":"德崙路","SECT":" ","MAREA":" ","LANE":" ","ALLEY":" ","HOUSE_NO":"３１３之１號","E_COORD97":173922.73999999999,"N_COORD97":2538130.5499999998,"ADDRESS":"德崙路３１３之１號","OBJECTID":470600},"geometry":{"x":173922.74000000022,"y":2538130.5500000007}}]}