{"displayFieldName":"TOWNNAME","fieldAliases":{"ID":"ID","DIS_CODE":"DIS_CODE","TOWNNAME":"TOWNNAME","LI":"LI","LIN":"LIN","STREET":"STREET","SECT":"SECT","MAREA":"MAREA","LANE":"LANE","ALLEY":"ALLEY","HOUSE_NO":"HOUSE_NO","E_COORD97":"E_COORD97","N_COORD97":"N_COORD97","ADDRESS":"ADDRESS","OBJECTID":"OBJECTID"},"geometryType":"esriGeometryPoint","spatialReference":{"wkid":102443,"latestWkid":3826},"fields":[{"name":"ID","type":"esriFieldTypeDouble","alias":"ID"},{"name":"DIS_CODE","type":"esriFieldTypeInteger","alias":"DIS_CODE"},{"name":"TOWNNAME","type":"esriFieldTypeString","alias":"TOWNNAME","length":8},{"name":"LI","type":"esriFieldTypeString","alias":"LI","length":8},{"name":"LIN","type":"esriFieldTypeString","alias":"LIN","length":12},{"name":"STREET","type":"esriFieldTypeString","alias":"STREET","length":20},{"name":"SECT","type":"esriFieldTypeString","alias":"SECT","length":8},{"name":"MAREA","type":"esriFieldTypeString","alias":"MAREA","length":12},{"name":"LANE","type":"esriFieldTypeString","alias":"LANE","length":10},{"name":"ALLEY","type":"esriFieldTypeString","alias":"ALLEY","length":10},{"name":"HOUSE_NO","type":"esriFieldTypeString","alias":"HOUSE_NO","length":20},{"name":"E_COORD97","type":"esriFieldTypeDouble","alias":"E_COORD97"},{"name":"N_COORD97","type":"esriFieldTypeDouble","alias":"N_COORD97"},{"name":"ADDRESS","type":"esriFieldTypeString","alias":"ADDRESS","length":50},{"name":"OBJECTID","type":"esriFieldTypeOID","alias":"OBJECTID"}],"features":[{"attributes":{"ID":281207,"DIS_CODE":0,"TOWNNAME":"關廟區","LI":"布袋里","LIN":"6鄰","STREET":"南雄南路","SECT":" ","MAREA":" ","LANE":"３１８巷","ALLEY":" ","HOUSE_NO":"３１號","E_COORD97":183415.94,"N_COORD97":2534936.2999999998,"ADDRESS":"南雄南路３１８巷３１號","OBJECTID":281201},"geometry":{"x":183415.94000000041,"y":2534936.3000000007}},{"attributes":{"ID":281208,"DIS_CODE":0,"TOWNNAME":"關廟區","LI":"布袋里","LIN":"6鄰","STREET":"南雄南路","SECT":" ","MAREA":" ","LANE":"３１８巷","ALLEY":" ","HOUSE_NO":"２７號","E_COORD97":183458.34,"N_COORD97":2534965.25,"ADDRESS":"南雄南路３１８巷２７號","OBJECTID":281202},"geometry":{"x":183458.33999999985,"y":2534965.25}},{"attributes":{"ID":281209,"DIS_CODE":0,"TOWNNAME":"關廟區","LI":"北花里","LIN":"6鄰","STREET":"四維街","SECT":" ","MAREA":" ","LANE":"３５０巷","ALLEY":" ","HOUSE_NO":"３號","E_COORD97":181885.56,"N_COORD97":2540242.25,"ADDRESS":"四維街３５０巷３號","OBJECTID":281203},"geometry":{"x":181885.55999999959,"y":2540242.2500000037}},{"attributes":{"ID":281210,"DIS_CODE":0,"TOWNNAME":"關廟區","LI":"北花里","LIN":"6鄰","STREET":"四維街","SECT":" ","MAREA":" ","LANE":"３５０巷","ALLEY":" ","HOUSE_NO":"１號","E_COORD97":181878.35999999999,"N_COORD97":2540243.25,"ADDRESS":"四維街３５０巷１號","OBJECTID":281204},"geometry":{"x":181878.36000000127,"y":2540243.2500000019}},{"attributes":{"ID":281211,"DIS_CODE":0,"TOWNNAME":"東區","LI":"崇誨里","LIN":"21鄰","STREET":"東寧路","SECT":" ","MAREA":" ","LANE":" ","ALLEY":" ","HOUSE_NO":"２９８號","E_COORD97":170742.32000000001,"N_COORD97":2543408.6899999999,"ADDRESS":"東寧路２９８號","OBJECTID":281205},"geometry":{"x":170742.32000000216,"y":2543408.6900000032}},{"attributes":{"ID":281212,"DIS_CODE":0,"TOWNNAME":"麻豆區","LI":"龍泉里","LIN":"2鄰","STREET":" ","SECT":" ","MAREA":"溝子墘","LANE":" ","ALLEY":" ","HOUSE_NO":"１６號","E_COORD97":173825.39999999999,"N_COORD97":2564258.29,"ADDRESS":"溝子墘１６號","OBJECTID":281206},"geometry":{"x":173825.40000000224,"y":2564258.2899999972}},{"attributes":{"ID":281213,"DIS_CODE":0,"TOWNNAME":"麻豆區","LI":"龍泉里","LIN":"2鄰","STREET":" ","SECT":" ","MAREA":"溝子墘","LANE":" ","ALLEY":" ","HOUSE_NO":"１９號","E_COORD97":173886.69,"N_COORD97":2564233.25,"ADDRESS":"溝子墘１９號","OBJECTID":281207},"geometry":{"x":173886.69000000134,"y":2564233.2500000019}},{"attributes":{"ID":281214,"DIS_CODE":0,"TOWNNAME":"麻豆區","LI":"龍泉里","LIN":"2鄰","STREET":" ","SECT":" ","MAREA":"溝子墘","LANE":" ","ALLEY":" ","HOUSE_NO":"１０號之１","E_COORD97":173914.47,"N_COORD97":2564084.1899999999,"ADDRESS":"溝子墘１０號之１","OBJECTID":281208},"geometry":{"x":173914.47000000067,"y":2564084.1900000013}},{"attributes":{"ID":281215,"DIS_CODE":0,"TOWNNAME":"麻豆區","LI":"龍泉里","LIN":"2鄰","STREET":" ","SECT":" ","MAREA":"溝子墘","LANE":" ","ALLEY":" ","HOUSE_NO":"１０號","E_COORD97":173934.54000000001,"N_COORD97":2564083.8500000001,"ADDRESS":"溝子墘１０號","OBJECTID":281209},"geometry":{"x":173934.54000000097,"y":2564083.8500000015}},{"attributes":{"ID":281216,"DIS_CODE":0,"TOWNNAME":"麻豆區","LI":"龍泉里","LIN":"2鄰","STREET":" ","SECT":" ","MAREA":"溝子墘","LANE":" ","ALLEY":" ","HOUSE_NO":"１１號","E_COORD97":173919.48999999999,"N_COORD97":2564136.8900000001,"ADDRESS":"溝子墘１１號","OBJECTID":281210},"geometry":{"x":173919.48999999929,"y":2564136.8900000006}},{"attributes":{"ID":281217,"DIS_CODE":0,"TOWNNAME":"麻豆區","LI":"龍泉里","LIN":"2鄰","STREET":" ","SECT":" ","MAREA":"溝子墘","LANE":" ","ALLEY":" ","HOUSE_NO":"１２號","E_COORD97":173901.37,"N_COORD97":2564139.3799999999,"ADDRESS":"溝子墘１２號","OBJECTID":281211},"geometry":{"x":173901.37000000011,"y":2564139.3800000008}},{"attributes":{"ID":281218,"DIS_CODE":0,"TOWNNAME":"麻豆區","LI":"龍泉里","LIN":"2鄰","STREET":" ","SECT":" ","MAREA":"溝子墘","LANE":" ","ALLEY":" ","HOUSE_NO":"１３號","E_COORD97":173907.51000000001,"N_COORD97":2564152.73,"ADDRESS":"溝子墘１３號","OBJECTID":281212},"geometry":{"x":173907.51000000071,"y":2564152.7300000023}},{"attributes":{"ID":281219,"DIS_CODE":0,"TOWNNAME":"麻豆區","LI":"龍泉里","LIN":"2鄰","STREET":" ","SECT":" ","MAREA":"溝子墘","LANE":" ","ALLEY":" ","HOUSE_NO":"１４號之１","E_COORD97":173866.45000000001,"N_COORD97":2564200.2200000002,"ADDRESS":"溝子墘１４號之１","OBJECTID":281213},"geometry":{"x":173866.45000000019,"y":2564200.2200000025}},{"attributes":{"ID":281220,"DIS_CODE":0,"TOWNNAME":"麻豆區","LI":"龍泉里","LIN":"2鄰","STREET":" ","SECT":" ","MAREA":"溝子墘","LANE":" ","ALLEY":" ","HOUSE_NO":"１４號","E_COORD97":173905.01000000001,"N_COORD97":2564182.1600000001,"ADDRESS":"溝子墘１４號","OBJECTID":281214},"geometry":{"x":173905.00999999978,"y":2564182.1600000001}},{"attributes":{"ID":281221,"DIS_CODE":0,"TOWNNAME":"安南區","LI":"四草里","LIN":"1鄰","STREET":"大眾六街","SECT":" ","MAREA":" ","LANE":" ","ALLEY":" ","HOUSE_NO":"１０１號","E_COORD97":160451.761463,"N_COORD97":2546583.4473999999,"ADDRESS":"大眾六街１０１號","OBJECTID":281215},"geometry":{"x":160451.7614630023,"y":2546583.4473949987}},{"attributes":{"ID":281222,"DIS_CODE":0,"TOWNNAME":"關廟區","LI":"香洋里","LIN":"6鄰","STREET":"中央路","SECT":" ","MAREA":" ","LANE":"２５２巷","ALLEY":" ","HOUSE_NO":"１７號","E_COORD97":181061.85999999999,"N_COORD97":2540186.0600000001,"ADDRESS":"中央路２５２巷１７號","OBJECTID":281216},"geometry":{"x":181061.86000000034,"y":2540186.0600000005}},{"attributes":{"ID":281223,"DIS_CODE":0,"TOWNNAME":"新化區","LI":"東榮里","LIN":"6鄰","STREET":"信義路","SECT":" ","MAREA":" ","LANE":"１１７巷","ALLEY":" ","HOUSE_NO":"３７號","E_COORD97":179712.67999999999,"N_COORD97":2548372.25,"ADDRESS":"信義路１１７巷３７號","OBJECTID":281217},"geometry":{"x":179712.68000000063,"y":2548372.2499999981}},{"attributes":{"ID":281224,"DIS_CODE":0,"TOWNNAME":"新營區","LI":"王公里","LIN":"22鄰","STREET":"大勇街","SECT":" ","MAREA":" ","LANE":" ","ALLEY":" ","HOUSE_NO":"８０號","E_COORD97":180423.02366000001,"N_COORD97":2579429.6168800001,"ADDRESS":"大勇街８０號","OBJECTID":281218},"geometry":{"x":180423.02366000134,"y":2579429.6168770045}},{"attributes":{"ID":281225,"DIS_CODE":0,"TOWNNAME":"新化區","LI":"東榮里","LIN":"6鄰","STREET":"信義路","SECT":" ","MAREA":" ","LANE":"１１７巷","ALLEY":" ","HOUSE_NO":"４９號之２","E_COORD97":179757.82999999999,"N_COORD97":2548353.2599999998,"ADDRESS":"信義路１１７巷４９號之２","OBJECTID":281219},"geometry":{"x":179757.83000000101,"y":2548353.2600000016}},{"attributes":{"ID":281226,"DIS_CODE":0,"TOWNNAME":"新化區","LI":"東榮里","LIN":"6鄰","STREET":"信義路","SECT":" ","MAREA":" ","LANE":"１１７巷","ALLEY":" ","HOUSE_NO":"４９號之１５","E_COORD97":179789.39000000001,"N_COORD97":2548379.2599999998,"ADDRESS":"信義路１１７巷４９號之１５","OBJECTID":281220},"geometry":{"x":179789.38999999966,"y":2548379.2600000016}},{"attributes":{"ID":281227,"DIS_CODE":0,"TOWNNAME":"南區","LI":"同安里","LIN":"6鄰","STREET":"明興路","SECT":" ","MAREA":" ","LANE":"１１８１巷","ALLEY":" ","HOUSE_NO":"８號","E_COORD97":166510.92000000001,"N_COORD97":2536316.1099999999,"ADDRESS":"明興路１１８１巷８號","OBJECTID":281221},"geometry":{"x":166510.92000000086,"y":2536316.1099999994}},{"attributes":{"ID":281228,"DIS_CODE":0,"TOWNNAME":"南區","LI":"同安里","LIN":"6鄰","STREET":"明興路","SECT":" ","MAREA":" ","LANE":"１１８１巷","ALLEY":" ","HOUSE_NO":"４８號","E_COORD97":166519.51999999999,"N_COORD97":2536277.0099999998,"ADDRESS":"明興路１１８１巷４８號","OBJECTID":281222},"geometry":{"x":166519.52000000048,"y":2536277.0100000035}},{"attributes":{"ID":281229,"DIS_CODE":0,"TOWNNAME":"歸仁區","LI":"南興里","LIN":"2鄰","STREET":"文化十二街","SECT":" ","MAREA":" ","LANE":"７６巷","ALLEY":" ","HOUSE_NO":"１７號","E_COORD97":176529.84,"N_COORD97":2541341.3300000001,"ADDRESS":"文化十二街７６巷１７號","OBJECTID":281223},"geometry":{"x":176529.84000000078,"y":2541341.3300000019}},{"attributes":{"ID":281230,"DIS_CODE":0,"TOWNNAME":"仁德區","LI":"仁義里","LIN":"34鄰","STREET":"正義二街","SECT":" ","MAREA":" ","LANE":" ","ALLEY":" ","HOUSE_NO":"１６４號四樓","E_COORD97":173836.39000000001,"N_COORD97":2541581.02,"ADDRESS":"正義二街１６４號四樓","OBJECTID":281224},"geometry":{"x":173836.38999999966,"y":2541581.0199999996}},{"attributes":{"ID":281231,"DIS_CODE":0,"TOWNNAME":"歸仁區","LI":"沙崙里","LIN":"2鄰","STREET":" ","SECT":" ","MAREA":"二甲","LANE":" ","ALLEY":" ","HOUSE_NO":"６１號","E_COORD97":178366.88,"N_COORD97":2539253.8900000001,"ADDRESS":"二甲６１號","OBJECTID":281225},"geometry":{"x":178366.88000000082,"y":2539253.8900000006}},{"attributes":{"ID":281232,"DIS_CODE":0,"TOWNNAME":"北區","LI":"新勝里","LIN":"6鄰","STREET":"北園街","SECT":" ","MAREA":" ","LANE":"５３巷","ALLEY":" ","HOUSE_NO":"３８號","E_COORD97":170266.81,"N_COORD97":2545587.8700000001,"ADDRESS":"北園街５３巷３８號","OBJECTID":281226},"geometry":{"x":170266.80999999959,"y":2545587.870000001}},{"attributes":{"ID":281233,"DIS_CODE":0,"TOWNNAME":"北區","LI":"新勝里","LIN":"6鄰","STREET":"北園街","SECT":" ","MAREA":" ","LANE":"５３巷","ALLEY":" ","HOUSE_NO":"４０號之１","E_COORD97":170262.12,"N_COORD97":2545601.8799999999,"ADDRESS":"北園街５３巷４０號之１","OBJECTID":281227},"geometry":{"x":170262.12000000197,"y":2545601.8800000008}},{"attributes":{"ID":281234,"DIS_CODE":0,"TOWNNAME":"北區","LI":"新勝里","LIN":"6鄰","STREET":"北園街","SECT":" ","MAREA":" ","LANE":"５３巷","ALLEY":" ","HOUSE_NO":"４０號之２","E_COORD97":170274.23999999999,"N_COORD97":2545605.6099999999,"ADDRESS":"北園街５３巷４０號之２","OBJECTID":281228},"geometry":{"x":170274.24000000022,"y":2545605.6099999994}},{"attributes":{"ID":281235,"DIS_CODE":0,"TOWNNAME":"北區","LI":"新勝里","LIN":"6鄰","STREET":"北園街","SECT":" ","MAREA":" ","LANE":"５３巷","ALLEY":" ","HOUSE_NO":"４４號","E_COORD97":170279.38,"N_COORD97":2545607.8300000001,"ADDRESS":"北園街５３巷４４號","OBJECTID":281229},"geometry":{"x":170279.38000000082,"y":2545607.8300000001}},{"attributes":{"ID":281236,"DIS_CODE":0,"TOWNNAME":"南區","LI":"建南里","LIN":"6鄰","STREET":"德興路","SECT":" ","MAREA":" ","LANE":"３２５巷","ALLEY":" ","HOUSE_NO":"１號","E_COORD97":167258.78,"N_COORD97":2539858.8399999999,"ADDRESS":"德興路３２５巷１號","OBJECTID":281230},"geometry":{"x":167258.78000000026,"y":2539858.8400000017}},{"attributes":{"ID":281237,"DIS_CODE":0,"TOWNNAME":"安平區","LI":"華平里","LIN":"6鄰","STREET":"怡平路","SECT":" ","MAREA":" ","LANE":"４１０巷","ALLEY":" ","HOUSE_NO":"１０３號","E_COORD97":165429.95999999999,"N_COORD97":2544082.2200000002,"ADDRESS":"怡平路４１０巷１０３號","OBJECTID":281231},"geometry":{"x":165429.95999999903,"y":2544082.2200000025}},{"attributes":{"ID":281238,"DIS_CODE":0,"TOWNNAME":"安平區","LI":"華平里","LIN":"6鄰","STREET":"怡平路","SECT":" ","MAREA":" ","LANE":"４１０巷","ALLEY":" ","HOUSE_NO":"１０５號","E_COORD97":165431.01999999999,"N_COORD97":2544086.8599999999,"ADDRESS":"怡平路４１０巷１０５號","OBJECTID":281232},"geometry":{"x":165431.02000000142,"y":2544086.8600000013}},{"attributes":{"ID":281239,"DIS_CODE":0,"TOWNNAME":"安平區","LI":"億載里","LIN":"6鄰","STREET":"平豐路","SECT":" ","MAREA":" ","LANE":"２５１巷","ALLEY":" ","HOUSE_NO":"６３號","E_COORD97":164111.91,"N_COORD97":2543685.54,"ADDRESS":"平豐路２５１巷６３號","OBJECTID":281233},"geometry":{"x":164111.91000000108,"y":2543685.540000001}},{"attributes":{"ID":281240,"DIS_CODE":0,"TOWNNAME":"鹽水區","LI":"橋南里","LIN":"6鄰","STREET":"南門路","SECT":" ","MAREA":" ","LANE":"１４７巷","ALLEY":" ","HOUSE_NO":"１號","E_COORD97":175352.70000000001,"N_COORD97":2579102.27,"ADDRESS":"南門路１４７巷１號","OBJECTID":281234},"geometry":{"x":175352.70000000112,"y":2579102.2700000033}},{"attributes":{"ID":281241,"DIS_CODE":0,"TOWNNAME":"安平區","LI":"國平里","LIN":"6鄰","STREET":"文平路","SECT":" ","MAREA":" ","LANE":"１８７巷","ALLEY":" ","HOUSE_NO":"１００號","E_COORD97":165447.564457,"N_COORD97":2543101.3100700001,"ADDRESS":"文平路１８７巷１００號","OBJECTID":281235},"geometry":{"x":165447.56445700023,"y":2543101.3100680001}},{"attributes":{"ID":281242,"DIS_CODE":0,"TOWNNAME":"麻豆區","LI":"東角里","LIN":"14鄰","STREET":"民生路","SECT":" ","MAREA":" ","LANE":" ","ALLEY":" ","HOUSE_NO":"２７號","E_COORD97":173650.04999999999,"N_COORD97":2564652.2400000002,"ADDRESS":"民生路２７號","OBJECTID":281236},"geometry":{"x":173650.05000000075,"y":2564652.2400000002}},{"attributes":{"ID":281243,"DIS_CODE":0,"TOWNNAME":"歸仁區","LI":"沙崙里","LIN":"2鄰","STREET":" ","SECT":" ","MAREA":"二甲","LANE":" ","ALLEY":" ","HOUSE_NO":"１０８號","E_COORD97":178413.53,"N_COORD97":2539287.8900000001,"ADDRESS":"二甲１０８號","OBJECTID":281237},"geometry":{"x":178413.53000000119,"y":2539287.8900000006}},{"attributes":{"ID":281244,"DIS_CODE":0,"TOWNNAME":"歸仁區","LI":"歸仁里","LIN":"2鄰","STREET":"文化街","SECT":"一段","MAREA":" ","LANE":" ","ALLEY":" ","HOUSE_NO":"１６５號","E_COORD97":177788.79000000001,"N_COORD97":2541116.0499999998,"ADDRESS":"文化街一段１６５號","OBJECTID":281238},"geometry":{"x":177788.79000000004,"y":2541116.0500000026}},{"attributes":{"ID":281245,"DIS_CODE":0,"TOWNNAME":"安平區","LI":"國平里","LIN":"6鄰","STREET":"文平路","SECT":" ","MAREA":" ","LANE":"１８７巷","ALLEY":" ","HOUSE_NO":"１０２號","E_COORD97":165441.84295300001,"N_COORD97":2543101.5217300002,"ADDRESS":"文平路１８７巷１０２號","OBJECTID":281239},"geometry":{"x":165441.84295300115,"y":2543101.5217340011}},{"attributes":{"ID":281246,"DIS_CODE":0,"TOWNNAME":"北區","LI":"大和里","LIN":"6鄰","STREET":"大興街","SECT":" ","MAREA":" ","LANE":"１３２巷","ALLEY":" ","HOUSE_NO":"３６號","E_COORD97":167036.91,"N_COORD97":2545851.2599999998,"ADDRESS":"大興街１３２巷３６號","OBJECTID":281240},"geometry":{"x":167036.91000000015,"y":2545851.2600000016}},{"attributes":{"ID":281247,"DIS_CODE":0,"TOWNNAME":"北區","LI":"大和里","LIN":"6鄰","STREET":"大興街","SECT":" ","MAREA":" ","LANE":"１３２巷","ALLEY":" ","HOUSE_NO":"３８號","E_COORD97":167035.79999999999,"N_COORD97":2545856.8199999998,"ADDRESS":"大興街１３２巷３８號","OBJECTID":281241},"geometry":{"x":167035.79999999981,"y":2545856.820000004}},{"attributes":{"ID":281248,"DIS_CODE":0,"TOWNNAME":"北區","LI":"光武里","LIN":"6鄰","STREET":"北門路","SECT":"二段","MAREA":" ","LANE":"５４７巷","ALLEY":" ","HOUSE_NO":"７６之１號","E_COORD97":169505.35999999999,"N_COORD97":2545739.3900000001,"ADDRESS":"北門路二段５４７巷７６之１號","OBJECTID":281242},"geometry":{"x":169505.36000000127,"y":2545739.3900000025}},{"attributes":{"ID":281249,"DIS_CODE":0,"TOWNNAME":"歸仁區","LI":"沙崙里","LIN":"2鄰","STREET":" ","SECT":" ","MAREA":"二甲","LANE":" ","ALLEY":" ","HOUSE_NO":"８０號","E_COORD97":178396.78,"N_COORD97":2539280.8900000001,"ADDRESS":"二甲８０號","OBJECTID":281243},"geometry":{"x":178396.78000000119,"y":2539280.8900000006}},{"attributes":{"ID":281250,"DIS_CODE":0,"TOWNNAME":"歸仁區","LI":"沙崙里","LIN":"2鄰","STREET":" ","SECT":" ","MAREA":"二甲","LANE":" ","ALLEY":" ","HOUSE_NO":"７７號","E_COORD97":178383.48000000001,"N_COORD97":2539280.8900000001,"ADDRESS":"二甲７７號","OBJECTID":281244},"geometry":{"x":178383.48000000231,"y":2539280.8900000006}},{"attributes":{"ID":281251,"DIS_CODE":0,"TOWNNAME":"南區","LI":"喜南里","LIN":"6鄰","STREET":"喜樹路","SECT":" ","MAREA":" ","LANE":"３０２巷","ALLEY":" ","HOUSE_NO":"４６號","E_COORD97":165552.42000000001,"N_COORD97":2537767.98,"ADDRESS":"喜樹路３０２巷４６號","OBJECTID":281245},"geometry":{"x":165552.42000000179,"y":2537767.9800000004}},{"attributes":{"ID":281252,"DIS_CODE":0,"TOWNNAME":"南區","LI":"喜南里","LIN":"6鄰","STREET":"喜樹路","SECT":" ","MAREA":" ","LANE":"３０２巷","ALLEY":" ","HOUSE_NO":"４６號之１","E_COORD97":165548.57000000001,"N_COORD97":2537763.1699999999,"ADDRESS":"喜樹路３０２巷４６號之１","OBJECTID":281246},"geometry":{"x":165548.57000000123,"y":2537763.1699999999}},{"attributes":{"ID":281253,"DIS_CODE":0,"TOWNNAME":"南區","LI":"大恩里","LIN":"6鄰","STREET":"大同路","SECT":"二段","MAREA":" ","LANE":"７０４巷","ALLEY":" ","HOUSE_NO":"４１號","E_COORD97":169436.75,"N_COORD97":2540824.8799999999,"ADDRESS":"大同路二段７０４巷４１號","OBJECTID":281247},"geometry":{"x":169436.75,"y":2540824.8800000008}},{"attributes":{"ID":281254,"DIS_CODE":0,"TOWNNAME":"北區","LI":"大港里","LIN":"6鄰","STREET":"大興街","SECT":" ","MAREA":" ","LANE":"２１２巷","ALLEY":" ","HOUSE_NO":"１０號","E_COORD97":166784.09,"N_COORD97":2545746.2000000002,"ADDRESS":"大興街２１２巷１０號","OBJECTID":281248},"geometry":{"x":166784.09000000078,"y":2545746.1999999993}},{"attributes":{"ID":281255,"DIS_CODE":0,"TOWNNAME":"北區","LI":"大港里","LIN":"6鄰","STREET":"大興街","SECT":" ","MAREA":" ","LANE":"２１２巷","ALLEY":" ","HOUSE_NO":"１２號","E_COORD97":166784.09,"N_COORD97":2545751.21,"ADDRESS":"大興街２１２巷１２號","OBJECTID":281249},"geometry":{"x":166784.09000000078,"y":2545751.2100000009}},{"attributes":{"ID":281256,"DIS_CODE":0,"TOWNNAME":"北區","LI":"大港里","LIN":"6鄰","STREET":"大興街","SECT":" ","MAREA":" ","LANE":"２１２巷","ALLEY":" ","HOUSE_NO":"１４號","E_COORD97":166783.42000000001,"N_COORD97":2545757.3900000001,"ADDRESS":"大興街２１２巷１４號","OBJECTID":281250},"geometry":{"x":166783.42000000086,"y":2545757.3900000006}},{"attributes":{"ID":281257,"DIS_CODE":0,"TOWNNAME":"北區","LI":"大港里","LIN":"6鄰","STREET":"大興街","SECT":" ","MAREA":" ","LANE":"２１２巷","ALLEY":" ","HOUSE_NO":"１６號","E_COORD97":166783.26000000001,"N_COORD97":2545763.2400000002,"ADDRESS":"大興街２１２巷１６號","OBJECTID":281251},"geometry":{"x":166783.25999999978,"y":2545763.2400000021}},{"attributes":{"ID":281258,"DIS_CODE":0,"TOWNNAME":"北區","LI":"大港里","LIN":"6鄰","STREET":"大興街","SECT":" ","MAREA":" ","LANE":"２１２巷","ALLEY":" ","HOUSE_NO":"１８號","E_COORD97":166783.09,"N_COORD97":2545768.0800000001,"ADDRESS":"大興街２１２巷１８號","OBJECTID":281252},"geometry":{"x":166783.08999999985,"y":2545768.0800000019}},{"attributes":{"ID":281259,"DIS_CODE":0,"TOWNNAME":"歸仁區","LI":"新厝里","LIN":"2鄰","STREET":"中正一街","SECT":" ","MAREA":" ","LANE":" ","ALLEY":" ","HOUSE_NO":"２２號","E_COORD97":177688.04999999999,"N_COORD97":2540697.25,"ADDRESS":"中正一街２２號","OBJECTID":281253},"geometry":{"x":177688.04999999981,"y":2540697.2500000019}},{"attributes":{"ID":281260,"DIS_CODE":0,"TOWNNAME":"新營區","LI":"埤寮里","LIN":"2鄰","STREET":" ","SECT":" ","MAREA":"許丑","LANE":" ","ALLEY":" ","HOUSE_NO":"２２號之１","E_COORD97":180026.01999999999,"N_COORD97":2580971.3999999999,"ADDRESS":"許丑２２號之１","OBJECTID":281254},"geometry":{"x":180026.01999999955,"y":2580971.4000000022}},{"attributes":{"ID":281261,"DIS_CODE":0,"TOWNNAME":"新營區","LI":"埤寮里","LIN":"2鄰","STREET":" ","SECT":" ","MAREA":"許丑","LANE":" ","ALLEY":" ","HOUSE_NO":"２２號","E_COORD97":180002.03,"N_COORD97":2580968.1299999999,"ADDRESS":"許丑２２號","OBJECTID":281255},"geometry":{"x":180002.03000000119,"y":2580968.1300000008}},{"attributes":{"ID":281262,"DIS_CODE":0,"TOWNNAME":"新營區","LI":"埤寮里","LIN":"2鄰","STREET":" ","SECT":" ","MAREA":"許丑","LANE":" ","ALLEY":" ","HOUSE_NO":"２２之８號","E_COORD97":180012.51999999999,"N_COORD97":2580928.27,"ADDRESS":"許丑２２之８號","OBJECTID":281256},"geometry":{"x":180012.51999999955,"y":2580928.2699999996}},{"attributes":{"ID":281263,"DIS_CODE":0,"TOWNNAME":"新營區","LI":"太北里","LIN":"2鄰","STREET":" ","SECT":" ","MAREA":"太子宮","LANE":" ","ALLEY":" ","HOUSE_NO":"１５之２３號","E_COORD97":176150.81,"N_COORD97":2577203.8300000001,"ADDRESS":"太子宮１５之２３號","OBJECTID":281257},"geometry":{"x":176150.80999999959,"y":2577203.8300000038}},{"attributes":{"ID":281264,"DIS_CODE":0,"TOWNNAME":"北區","LI":"大港里","LIN":"6鄰","STREET":"大興街","SECT":" ","MAREA":" ","LANE":"２１２巷","ALLEY":" ","HOUSE_NO":"２０號","E_COORD97":166782.92000000001,"N_COORD97":2545772.4199999999,"ADDRESS":"大興街２１２巷２０號","OBJECTID":281258},"geometry":{"x":166782.91999999899,"y":2545772.4200000018}},{"attributes":{"ID":281265,"DIS_CODE":0,"TOWNNAME":"北區","LI":"大港里","LIN":"6鄰","STREET":"大興街","SECT":" ","MAREA":" ","LANE":"２１２巷","ALLEY":" ","HOUSE_NO":"２２號","E_COORD97":166783.26000000001,"N_COORD97":2545783.1200000001,"ADDRESS":"大興街２１２巷２２號","OBJECTID":281259},"geometry":{"x":166783.25999999978,"y":2545783.120000001}},{"attributes":{"ID":281266,"DIS_CODE":0,"TOWNNAME":"新營區","LI":"埤寮里","LIN":"2鄰","STREET":" ","SECT":" ","MAREA":"許丑","LANE":" ","ALLEY":" ","HOUSE_NO":"２４之５號","E_COORD97":179944.23999999999,"N_COORD97":2580978.4300000002,"ADDRESS":"許丑２４之５號","OBJECTID":281260},"geometry":{"x":179944.23999999929,"y":2580978.4299999997}},{"attributes":{"ID":281267,"DIS_CODE":0,"TOWNNAME":"新營區","LI":"埤寮里","LIN":"2鄰","STREET":" ","SECT":" ","MAREA":"許丑","LANE":" ","ALLEY":" ","HOUSE_NO":"２２之１３號","E_COORD97":180007.53,"N_COORD97":2580905.0499999998,"ADDRESS":"許丑２２之１３號","OBJECTID":281261},"geometry":{"x":180007.53000000119,"y":2580905.0499999989}},{"attributes":{"ID":281268,"DIS_CODE":0,"TOWNNAME":"新營區","LI":"太北里","LIN":"2鄰","STREET":" ","SECT":" ","MAREA":"太子宮","LANE":" ","ALLEY":" ","HOUSE_NO":"１５之２５號","E_COORD97":176138.42000000001,"N_COORD97":2577179.5299999998,"ADDRESS":"太子宮１５之２５號","OBJECTID":281262},"geometry":{"x":176138.41999999993,"y":2577179.5300000012}},{"attributes":{"ID":281269,"DIS_CODE":0,"TOWNNAME":"新營區","LI":"埤寮里","LIN":"2鄰","STREET":" ","SECT":" ","MAREA":"許丑","LANE":" ","ALLEY":" ","HOUSE_NO":"２３號","E_COORD97":179975.35000000001,"N_COORD97":2580949.4300000002,"ADDRESS":"許丑２３號","OBJECTID":281263},"geometry":{"x":179975.35000000056,"y":2580949.4300000016}},{"attributes":{"ID":281270,"DIS_CODE":0,"TOWNNAME":"新營區","LI":"鐵線里","LIN":"2鄰","STREET":" ","SECT":" ","MAREA":"鐵線橋","LANE":" ","ALLEY":" ","HOUSE_NO":"１１號","E_COORD97":176043.81,"N_COORD97":2573933.9700000002,"ADDRESS":"鐵線橋１１號","OBJECTID":281264},"geometry":{"x":176043.80999999959,"y":2573933.9700000007}},{"attributes":{"ID":281271,"DIS_CODE":0,"TOWNNAME":"新營區","LI":"埤寮里","LIN":"2鄰","STREET":" ","SECT":" ","MAREA":"許丑","LANE":" ","ALLEY":" ","HOUSE_NO":"２２之１２號","E_COORD97":180009.60000000001,"N_COORD97":2580910.5800000001,"ADDRESS":"許丑２２之１２號","OBJECTID":281265},"geometry":{"x":180009.60000000056,"y":2580910.5800000001}},{"attributes":{"ID":281272,"DIS_CODE":0,"TOWNNAME":"新營區","LI":"埤寮里","LIN":"2鄰","STREET":" ","SECT":" ","MAREA":"許丑","LANE":" ","ALLEY":" ","HOUSE_NO":"２２之５號","E_COORD97":180018.73999999999,"N_COORD97":2580944.8500000001,"ADDRESS":"許丑２２之５號","OBJECTID":281266},"geometry":{"x":180018.74000000022,"y":2580944.8499999996}},{"attributes":{"ID":281273,"DIS_CODE":0,"TOWNNAME":"新營區","LI":"埤寮里","LIN":"2鄰","STREET":" ","SECT":" ","MAREA":"許丑","LANE":" ","ALLEY":" ","HOUSE_NO":"２５號","E_COORD97":179952.82999999999,"N_COORD97":2580946.2000000002,"ADDRESS":"許丑２５號","OBJECTID":281267},"geometry":{"x":179952.83000000101,"y":2580946.1999999993}},{"attributes":{"ID":281274,"DIS_CODE":0,"TOWNNAME":"新營區","LI":"鐵線里","LIN":"2鄰","STREET":" ","SECT":" ","MAREA":"鐵線橋","LANE":" ","ALLEY":" ","HOUSE_NO":"１８之１３號","E_COORD97":176174.07999999999,"N_COORD97":2573863.6299999999,"ADDRESS":"鐵線橋１８之１３號","OBJECTID":281268},"geometry":{"x":176174.08000000101,"y":2573863.629999999}},{"attributes":{"ID":281275,"DIS_CODE":0,"TOWNNAME":"北區","LI":"大港里","LIN":"6鄰","STREET":"大興街","SECT":" ","MAREA":" ","LANE":"２１２巷","ALLEY":" ","HOUSE_NO":"３３號","E_COORD97":166770.48999999999,"N_COORD97":2545812.21,"ADDRESS":"大興街２１２巷３３號","OBJECTID":281269},"geometry":{"x":166770.49000000022,"y":2545812.2100000009}},{"attributes":{"ID":281276,"DIS_CODE":0,"TOWNNAME":"北區","LI":"大港里","LIN":"6鄰","STREET":"大興街","SECT":" ","MAREA":" ","LANE":"２１２巷","ALLEY":" ","HOUSE_NO":"３５號","E_COORD97":166770.09,"N_COORD97":2545816.79,"ADDRESS":"大興街２１２巷３５號","OBJECTID":281270},"geometry":{"x":166770.09000000078,"y":2545816.7899999991}},{"attributes":{"ID":281277,"DIS_CODE":0,"TOWNNAME":"新化區","LI":"東榮里","LIN":"6鄰","STREET":"信義路","SECT":" ","MAREA":" ","LANE":"１１７巷","ALLEY":" ","HOUSE_NO":"２５號","E_COORD97":179770.88,"N_COORD97":2548424.25,"ADDRESS":"信義路１１７巷２５號","OBJECTID":281271},"geometry":{"x":179770.88000000082,"y":2548424.2500000019}},{"attributes":{"ID":281278,"DIS_CODE":0,"TOWNNAME":"新營區","LI":"埤寮里","LIN":"2鄰","STREET":" ","SECT":" ","MAREA":"許丑","LANE":" ","ALLEY":" ","HOUSE_NO":"２５之２號","E_COORD97":179946.14000000001,"N_COORD97":2580947.4100000001,"ADDRESS":"許丑２５之２號","OBJECTID":281272},"geometry":{"x":179946.14000000153,"y":2580947.410000002}},{"attributes":{"ID":281279,"DIS_CODE":0,"TOWNNAME":"新營區","LI":"鐵線里","LIN":"2鄰","STREET":" ","SECT":" ","MAREA":"鐵線橋","LANE":" ","ALLEY":" ","HOUSE_NO":"１５之１７號","E_COORD97":176063.17999999999,"N_COORD97":2573989.3199999998,"ADDRESS":"鐵線橋１５之１７號","OBJECTID":281273},"geometry":{"x":176063.1799999997,"y":2573989.3200000003}},{"attributes":{"ID":281280,"DIS_CODE":0,"TOWNNAME":"新營區","LI":"新南里","LIN":"2鄰","STREET":"新北一街","SECT":" ","MAREA":" ","LANE":" ","ALLEY":" ","HOUSE_NO":"１８號","E_COORD97":178797.28,"N_COORD97":2578640.4700000002,"ADDRESS":"新北一街１８號","OBJECTID":281274},"geometry":{"x":178797.28000000119,"y":2578640.4700000007}},{"attributes":{"ID":281281,"DIS_CODE":0,"TOWNNAME":"新營區","LI":"埤寮里","LIN":"2鄰","STREET":" ","SECT":" ","MAREA":"許丑","LANE":" ","ALLEY":" ","HOUSE_NO":"２２號之１０","E_COORD97":180010.67999999999,"N_COORD97":2580921.6400000001,"ADDRESS":"許丑２２號之１０","OBJECTID":281275},"geometry":{"x":180010.68000000063,"y":2580921.6400000043}},{"attributes":{"ID":281282,"DIS_CODE":0,"TOWNNAME":"新營區","LI":"鐵線里","LIN":"2鄰","STREET":" ","SECT":" ","MAREA":"鐵線橋","LANE":" ","ALLEY":" ","HOUSE_NO":"１８之２號","E_COORD97":176140.13,"N_COORD97":2573870.4300000002,"ADDRESS":"鐵線橋１８之２號","OBJECTID":281276},"geometry":{"x":176140.12999999989,"y":2573870.4300000016}},{"attributes":{"ID":281283,"DIS_CODE":0,"TOWNNAME":"新營區","LI":"埤寮里","LIN":"2鄰","STREET":" ","SECT":" ","MAREA":"許丑","LANE":" ","ALLEY":" ","HOUSE_NO":"２１號","E_COORD97":180004.26999999999,"N_COORD97":2581009.1000000001,"ADDRESS":"許丑２１號","OBJECTID":281277},"geometry":{"x":180004.26999999955,"y":2581009.1000000015}},{"attributes":{"ID":281284,"DIS_CODE":0,"TOWNNAME":"新營區","LI":"五興里","LIN":"2鄰","STREET":" ","SECT":" ","MAREA":"五間厝","LANE":" ","ALLEY":" ","HOUSE_NO":"１５號之７","E_COORD97":176004.56,"N_COORD97":2574852.2999999998,"ADDRESS":"五間厝１５號之７","OBJECTID":281278},"geometry":{"x":176004.55999999959,"y":2574852.3000000026}},{"attributes":{"ID":281285,"DIS_CODE":0,"TOWNNAME":"歸仁區","LI":"沙崙里","LIN":"2鄰","STREET":" ","SECT":" ","MAREA":"二甲","LANE":" ","ALLEY":" ","HOUSE_NO":"４６號","E_COORD97":178336.38,"N_COORD97":2539302.8900000001,"ADDRESS":"二甲４６號","OBJECTID":281279},"geometry":{"x":178336.38000000082,"y":2539302.8900000043}},{"attributes":{"ID":281286,"DIS_CODE":0,"TOWNNAME":"歸仁區","LI":"沙崙里","LIN":"2鄰","STREET":" ","SECT":" ","MAREA":"二甲","LANE":" ","ALLEY":" ","HOUSE_NO":"３５號","E_COORD97":178196.01999999999,"N_COORD97":2539408.25,"ADDRESS":"二甲３５號","OBJECTID":281280},"geometry":{"x":178196.02000000048,"y":2539408.2500000037}},{"attributes":{"ID":281287,"DIS_CODE":0,"TOWNNAME":"歸仁區","LI":"沙崙里","LIN":"2鄰","STREET":" ","SECT":" ","MAREA":"二甲","LANE":" ","ALLEY":" ","HOUSE_NO":"６３號","E_COORD97":178367.98000000001,"N_COORD97":2539265.8900000001,"ADDRESS":"二甲６３號","OBJECTID":281281},"geometry":{"x":178367.97999999952,"y":2539265.8900000025}},{"attributes":{"ID":281288,"DIS_CODE":0,"TOWNNAME":"新化區","LI":"東榮里","LIN":"6鄰","STREET":"信義路","SECT":" ","MAREA":" ","LANE":"１１７巷","ALLEY":" ","HOUSE_NO":"４９號","E_COORD97":179748.17999999999,"N_COORD97":2548352.25,"ADDRESS":"信義路１１７巷４９號","OBJECTID":281282},"geometry":{"x":179748.18000000063,"y":2548352.2500000037}},{"attributes":{"ID":281289,"DIS_CODE":0,"TOWNNAME":"歸仁區","LI":"七甲里","LIN":"6鄰","STREET":"七甲三街","SECT":" ","MAREA":" ","LANE":"７２巷","ALLEY":" ","HOUSE_NO":"１９號","E_COORD97":177631.72,"N_COORD97":2542827.7200000002,"ADDRESS":"七甲三街７２巷１９號","OBJECTID":281283},"geometry":{"x":177631.7200000016,"y":2542827.7200000025}},{"attributes":{"ID":281290,"DIS_CODE":0,"TOWNNAME":"新營區","LI":"新南里","LIN":"2鄰","STREET":"新北一街","SECT":" ","MAREA":" ","LANE":" ","ALLEY":" ","HOUSE_NO":"７５號","E_COORD97":178716.78,"N_COORD97":2578696.2200000002,"ADDRESS":"新北一街７５號","OBJECTID":281284},"geometry":{"x":178716.78000000212,"y":2578696.2200000007}},{"attributes":{"ID":281291,"DIS_CODE":0,"TOWNNAME":"歸仁區","LI":"許厝里","LIN":"2鄰","STREET":"仁愛一街","SECT":" ","MAREA":" ","LANE":" ","ALLEY":" ","HOUSE_NO":"１９號","E_COORD97":178351.32000000001,"N_COORD97":2540624.48,"ADDRESS":"仁愛一街１９號","OBJECTID":281285},"geometry":{"x":178351.3200000003,"y":2540624.4800000042}},{"attributes":{"ID":281292,"DIS_CODE":0,"TOWNNAME":"歸仁區","LI":"許厝里","LIN":"6鄰","STREET":"仁愛南街","SECT":" ","MAREA":" ","LANE":"５７巷","ALLEY":" ","HOUSE_NO":"１０號","E_COORD97":178316.60000000001,"N_COORD97":2540481.9500000002,"ADDRESS":"仁愛南街５７巷１０號","OBJECTID":281286},"geometry":{"x":178316.59999999963,"y":2540481.9500000011}},{"attributes":{"ID":281293,"DIS_CODE":0,"TOWNNAME":"麻豆區","LI":"寮\u25A0里","LIN":"2鄰","STREET":" ","SECT":" ","MAREA":"寮子\u25A0","LANE":" ","ALLEY":" ","HOUSE_NO":"１６號之１","E_COORD97":176544.95999999999,"N_COORD97":2565535.5699999998,"ADDRESS":"寮子\u25A0１６號之１","OBJECTID":281287},"geometry":{"x":176544.95999999996,"y":2565535.5700000003}},{"attributes":{"ID":281294,"DIS_CODE":0,"TOWNNAME":"歸仁區","LI":"歸南里","LIN":"2鄰","STREET":"民權南路","SECT":" ","MAREA":" ","LANE":" ","ALLEY":" ","HOUSE_NO":"２１６號","E_COORD97":176945.79000000001,"N_COORD97":2540301.0299999998,"ADDRESS":"民權南路２１６號","OBJECTID":281288},"geometry":{"x":176945.79000000097,"y":2540301.0300000012}},{"attributes":{"ID":281295,"DIS_CODE":0,"TOWNNAME":"麻豆區","LI":"寮\u25A0里","LIN":"2鄰","STREET":" ","SECT":" ","MAREA":"寮子\u25A0","LANE":" ","ALLEY":" ","HOUSE_NO":"１８號","E_COORD97":176525.82000000001,"N_COORD97":2565528.48,"ADDRESS":"寮子\u25A0１８號","OBJECTID":281289},"geometry":{"x":176525.8200000003,"y":2565528.4800000004}},{"attributes":{"ID":281296,"DIS_CODE":0,"TOWNNAME":"歸仁區","LI":"大潭里","LIN":"2鄰","STREET":"中正南路","SECT":"三段","MAREA":" ","LANE":" ","ALLEY":" ","HOUSE_NO":"１９３號","E_COORD97":175213.20999999999,"N_COORD97":2534805.2799999998,"ADDRESS":"中正南路三段１９３號","OBJECTID":281290},"geometry":{"x":175213.21000000089,"y":2534805.2799999993}},{"attributes":{"ID":281297,"DIS_CODE":0,"TOWNNAME":"麻豆區","LI":"寮\u25A0里","LIN":"2鄰","STREET":" ","SECT":" ","MAREA":"寮子\u25A0","LANE":" ","ALLEY":" ","HOUSE_NO":"１９號之１","E_COORD97":176507.79000000001,"N_COORD97":2565508.3399999999,"ADDRESS":"寮子\u25A0１９號之１","OBJECTID":281291},"geometry":{"x":176507.79000000097,"y":2565508.3399999999}},{"attributes":{"ID":281298,"DIS_CODE":0,"TOWNNAME":"麻豆區","LI":"寮\u25A0里","LIN":"2鄰","STREET":" ","SECT":" ","MAREA":"寮子\u25A0","LANE":" ","ALLEY":" ","HOUSE_NO":"１９號","E_COORD97":176525.51999999999,"N_COORD97":2565514.8999999999,"ADDRESS":"寮子\u25A0１９號","OBJECTID":281292},"geometry":{"x":176525.51999999955,"y":2565514.9000000022}},{"attributes":{"ID":281299,"DIS_CODE":0,"TOWNNAME":"東山區","LI":"三榮里","LIN":"2鄰","STREET":" ","SECT":" ","MAREA":"許秀才","LANE":" ","ALLEY":" ","HOUSE_NO":"２０號","E_COORD97":187269.35999999999,"N_COORD97":2579315.8500000001,"ADDRESS":"許秀才２０號","OBJECTID":281293},"geometry":{"x":187269.36000000127,"y":2579315.8500000015}},{"attributes":{"ID":281300,"DIS_CODE":0,"TOWNNAME":"關廟區","LI":"田中里","LIN":"2鄰","STREET":"田大路","SECT":" ","MAREA":" ","LANE":" ","ALLEY":" ","HOUSE_NO":"１３０號","E_COORD97":184333.78062500001,"N_COORD97":2533742.2626,"ADDRESS":"田大路１３０號","OBJECTID":281294},"geometry":{"x":184333.7806250006,"y":2533742.2625990007}},{"attributes":{"ID":281301,"DIS_CODE":0,"TOWNNAME":"歸仁區","LI":"許厝里","LIN":"6鄰","STREET":"仁愛南街","SECT":" ","MAREA":" ","LANE":"５７巷","ALLEY":" ","HOUSE_NO":"２號","E_COORD97":178305.01999999999,"N_COORD97":2540478.4500000002,"ADDRESS":"仁愛南街５７巷２號","OBJECTID":281295},"geometry":{"x":178305.01999999955,"y":2540478.4500000011}},{"attributes":{"ID":281302,"DIS_CODE":0,"TOWNNAME":"歸仁區","LI":"許厝里","LIN":"6鄰","STREET":"仁愛南街","SECT":" ","MAREA":" ","LANE":"５７巷","ALLEY":" ","HOUSE_NO":"６號","E_COORD97":178308.28,"N_COORD97":2540479.3300000001,"ADDRESS":"仁愛南街５７巷６號","OBJECTID":281296},"geometry":{"x":178308.28000000212,"y":2540479.3300000038}},{"attributes":{"ID":281303,"DIS_CODE":0,"TOWNNAME":"歸仁區","LI":"許厝里","LIN":"6鄰","STREET":"仁愛南街","SECT":" ","MAREA":" ","LANE":"５７巷","ALLEY":" ","HOUSE_NO":"８號","E_COORD97":178312.51999999999,"N_COORD97":2540480.5600000001,"ADDRESS":"仁愛南街５７巷８號","OBJECTID":281297},"geometry":{"x":178312.51999999862,"y":2540480.5600000005}},{"attributes":{"ID":281304,"DIS_CODE":0,"TOWNNAME":"南區","LI":"田寮里","LIN":"6鄰","STREET":"新興路","SECT":" ","MAREA":" ","LANE":"２１７巷","ALLEY":" ","HOUSE_NO":"２４號","E_COORD97":167391.37,"N_COORD97":2541907.5600000001,"ADDRESS":"新興路２１７巷２４號","OBJECTID":281298},"geometry":{"x":167391.37000000011,"y":2541907.5600000005}},{"attributes":{"ID":281305,"DIS_CODE":0,"TOWNNAME":"南區","LI":"田寮里","LIN":"6鄰","STREET":"新興路","SECT":" ","MAREA":" ","LANE":"２１７巷","ALLEY":" ","HOUSE_NO":"２４號之１","E_COORD97":167396.54000000001,"N_COORD97":2541905.5299999998,"ADDRESS":"新興路２１７巷２４號之１","OBJECTID":281299},"geometry":{"x":167396.54000000097,"y":2541905.5300000012}},{"attributes":{"ID":281306,"DIS_CODE":0,"TOWNNAME":"南區","LI":"田寮里","LIN":"6鄰","STREET":"新興路","SECT":" ","MAREA":" ","LANE":"２１７巷","ALLEY":" ","HOUSE_NO":"２８號","E_COORD97":167406.42999999999,"N_COORD97":2541900.6200000001,"ADDRESS":"新興路２１７巷２８號","OBJECTID":281300},"geometry":{"x":167406.42999999877,"y":2541900.620000001}},{"attributes":{"ID":281307,"DIS_CODE":0,"TOWNNAME":"南區","LI":"田寮里","LIN":"6鄰","STREET":"新興路","SECT":" ","MAREA":" ","LANE":"２１７巷","ALLEY":" ","HOUSE_NO":"２８號之２","E_COORD97":167414.91,"N_COORD97":2541896.75,"ADDRESS":"新興路２１７巷２８號之２","OBJECTID":281301},"geometry":{"x":167414.91000000015,"y":2541896.7500000037}},{"attributes":{"ID":281308,"DIS_CODE":0,"TOWNNAME":"南區","LI":"建南里","LIN":"6鄰","STREET":"德興路","SECT":" ","MAREA":" ","LANE":"３２５巷","ALLEY":" ","HOUSE_NO":"１５之１號","E_COORD97":167301.32000000001,"N_COORD97":2539857.6000000001,"ADDRESS":"德興路３２５巷１５之１號","OBJECTID":281302},"geometry":{"x":167301.32000000123,"y":2539857.6000000015}},{"attributes":{"ID":281309,"DIS_CODE":0,"TOWNNAME":"南區","LI":"建南里","LIN":"6鄰","STREET":"德興路","SECT":" ","MAREA":" ","LANE":"３２５巷","ALLEY":" ","HOUSE_NO":"１５號","E_COORD97":167298.14000000001,"N_COORD97":2539857.4399999999,"ADDRESS":"德興路３２５巷１５號","OBJECTID":281303},"geometry":{"x":167298.13999999966,"y":2539857.4400000032}},{"attributes":{"ID":281310,"DIS_CODE":0,"TOWNNAME":"南區","LI":"建南里","LIN":"6鄰","STREET":"德興路","SECT":" ","MAREA":" ","LANE":"３２５巷","ALLEY":" ","HOUSE_NO":"１３號","E_COORD97":167296.23999999999,"N_COORD97":2539857.7599999998,"ADDRESS":"德興路３２５巷１３號","OBJECTID":281304},"geometry":{"x":167296.24000000022,"y":2539857.7599999998}},{"attributes":{"ID":281311,"DIS_CODE":0,"TOWNNAME":"南區","LI":"建南里","LIN":"6鄰","STREET":"德興路","SECT":" ","MAREA":" ","LANE":"３２５巷","ALLEY":" ","HOUSE_NO":"１１號","E_COORD97":167292.59,"N_COORD97":2539857.7599999998,"ADDRESS":"德興路３２５巷１１號","OBJECTID":281305},"geometry":{"x":167292.59000000078,"y":2539857.7599999998}},{"attributes":{"ID":281312,"DIS_CODE":0,"TOWNNAME":"關廟區","LI":"北花里","LIN":"2鄰","STREET":"中正路","SECT":" ","MAREA":" ","LANE":" ","ALLEY":" ","HOUSE_NO":"６４０號","E_COORD97":181850.85999999999,"N_COORD97":2540416.25,"ADDRESS":"中正路６４０號","OBJECTID":281306},"geometry":{"x":181850.86000000127,"y":2540416.2500000019}},{"attributes":{"ID":281313,"DIS_CODE":0,"TOWNNAME":"南區","LI":"竹溪里","LIN":"6鄰","STREET":"體育路","SECT":" ","MAREA":" ","LANE":"２５巷","ALLEY":" ","HOUSE_NO":"１２號","E_COORD97":168756.73999999999,"N_COORD97":2542307.96,"ADDRESS":"體育路２５巷１２號","OBJECTID":281307},"geometry":{"x":168756.74000000115,"y":2542307.9600000028}},{"attributes":{"ID":281314,"DIS_CODE":0,"TOWNNAME":"南區","LI":"竹溪里","LIN":"6鄰","STREET":"體育路","SECT":" ","MAREA":" ","LANE":"２５巷","ALLEY":" ","HOUSE_NO":"１４號","E_COORD97":168756.47,"N_COORD97":2542314.0099999998,"ADDRESS":"體育路２５巷１４號","OBJECTID":281308},"geometry":{"x":168756.47000000067,"y":2542314.0099999998}},{"attributes":{"ID":281315,"DIS_CODE":0,"TOWNNAME":"南區","LI":"明德里","LIN":"6鄰","STREET":"大成路","SECT":"一段","MAREA":" ","LANE":"６１巷","ALLEY":" ","HOUSE_NO":"６８號","E_COORD97":168074.81,"N_COORD97":2541625.5099999998,"ADDRESS":"大成路一段６１巷６８號","OBJECTID":281309},"geometry":{"x":168074.80999999959,"y":2541625.5099999998}},{"attributes":{"ID":281316,"DIS_CODE":0,"TOWNNAME":"南區","LI":"明德里","LIN":"6鄰","STREET":"大成路","SECT":"一段","MAREA":" ","LANE":"６１巷","ALLEY":" ","HOUSE_NO":"７２號","E_COORD97":168067.76000000001,"N_COORD97":2541628.1200000001,"ADDRESS":"大成路一段６１巷７２號","OBJECTID":281310},"geometry":{"x":168067.76000000071,"y":2541628.1200000029}},{"attributes":{"ID":281317,"DIS_CODE":0,"TOWNNAME":"南區","LI":"同安里","LIN":"6鄰","STREET":"明興路","SECT":" ","MAREA":" ","LANE":"１１８１巷","ALLEY":" ","HOUSE_NO":"１２０號","E_COORD97":166721.26000000001,"N_COORD97":2536271.0600000001,"ADDRESS":"明興路１１８１巷１２０號","OBJECTID":281311},"geometry":{"x":166721.26000000164,"y":2536271.0600000024}},{"attributes":{"ID":281318,"DIS_CODE":0,"TOWNNAME":"南區","LI":"同安里","LIN":"6鄰","STREET":"明興路","SECT":" ","MAREA":" ","LANE":"１１８１巷","ALLEY":" ","HOUSE_NO":"１２４號","E_COORD97":166713.73000000001,"N_COORD97":2536227.27,"ADDRESS":"明興路１１８１巷１２４號","OBJECTID":281312},"geometry":{"x":166713.73000000231,"y":2536227.2699999977}},{"attributes":{"ID":281319,"DIS_CODE":0,"TOWNNAME":"南區","LI":"同安里","LIN":"6鄰","STREET":"明興路","SECT":" ","MAREA":" ","LANE":"１１８１巷","ALLEY":" ","HOUSE_NO":"１２６號","E_COORD97":166718.69,"N_COORD97":2536196.2999999998,"ADDRESS":"明興路１１８１巷１２６號","OBJECTID":281313},"geometry":{"x":166718.69000000041,"y":2536196.3000000026}},{"attributes":{"ID":281320,"DIS_CODE":0,"TOWNNAME":"安平區","LI":"文平里","LIN":"6鄰","STREET":"建平六街","SECT":" ","MAREA":" ","LANE":"７４巷","ALLEY":" ","HOUSE_NO":"２號","E_COORD97":166331.04999999999,"N_COORD97":2543130.8500000001,"ADDRESS":"建平六街７４巷２號","OBJECTID":281314},"geometry":{"x":166331.05000000168,"y":2543130.8500000015}},{"attributes":{"ID":281321,"DIS_CODE":0,"TOWNNAME":"安平區","LI":"文平里","LIN":"6鄰","STREET":"建平六街","SECT":" ","MAREA":" ","LANE":"７４巷","ALLEY":" ","HOUSE_NO":"６號","E_COORD97":166331.69,"N_COORD97":2543136.5699999998,"ADDRESS":"建平六街７４巷６號","OBJECTID":281315},"geometry":{"x":166331.69000000041,"y":2543136.5700000022}},{"attributes":{"ID":281322,"DIS_CODE":0,"TOWNNAME":"安平區","LI":"文平里","LIN":"6鄰","STREET":"建平六街","SECT":" ","MAREA":" ","LANE":"７４巷","ALLEY":" ","HOUSE_NO":"８號","E_COORD97":166332.48000000001,"N_COORD97":2543141,"ADDRESS":"建平六街７４巷８號","OBJECTID":281316},"geometry":{"x":166332.48000000138,"y":2543141.0000000019}},{"attributes":{"ID":281323,"DIS_CODE":0,"TOWNNAME":"安平區","LI":"文平里","LIN":"6鄰","STREET":"建平六街","SECT":" ","MAREA":" ","LANE":"７４巷","ALLEY":" ","HOUSE_NO":"１０號","E_COORD97":166333.59,"N_COORD97":2543145.9300000002,"ADDRESS":"建平六街７４巷１０號","OBJECTID":281317},"geometry":{"x":166333.58999999985,"y":2543145.9299999997}},{"attributes":{"ID":281324,"DIS_CODE":0,"TOWNNAME":"安平區","LI":"文平里","LIN":"6鄰","STREET":"建平六街","SECT":" ","MAREA":" ","LANE":"７４巷","ALLEY":" ","HOUSE_NO":"１２號","E_COORD97":166334.85999999999,"N_COORD97":2543150.8599999999,"ADDRESS":"建平六街７４巷１２號","OBJECTID":281318},"geometry":{"x":166334.86000000127,"y":2543150.8600000013}},{"attributes":{"ID":281325,"DIS_CODE":0,"TOWNNAME":"關廟區","LI":"松腳里","LIN":"2鄰","STREET":"松柏街","SECT":" ","MAREA":" ","LANE":" ","ALLEY":" ","HOUSE_NO":"５號","E_COORD97":181959.37,"N_COORD97":2539680.25,"ADDRESS":"松柏街５號","OBJECTID":281319},"geometry":{"x":181959.37000000104,"y":2539680.2500000019}},{"attributes":{"ID":281326,"DIS_CODE":0,"TOWNNAME":"關廟區","LI":"埤頭里","LIN":"2鄰","STREET":"關新路","SECT":"一段","MAREA":" ","LANE":" ","ALLEY":" ","HOUSE_NO":"７８９號","E_COORD97":179108.51999999999,"N_COORD97":2543797.2999999998,"ADDRESS":"關新路一段７８９號","OBJECTID":281320},"geometry":{"x":179108.52000000048,"y":2543797.3000000026}},{"attributes":{"ID":281327,"DIS_CODE":0,"TOWNNAME":"安平區","LI":"文平里","LIN":"6鄰","STREET":"建平六街","SECT":" ","MAREA":" ","LANE":"７４巷","ALLEY":" ","HOUSE_NO":"１６號","E_COORD97":166336.13,"N_COORD97":2543156.0899999999,"ADDRESS":"建平六街７４巷１６號","OBJECTID":281321},"geometry":{"x":166336.13000000082,"y":2543156.0900000017}},{"attributes":{"ID":281328,"DIS_CODE":0,"TOWNNAME":"歸仁區","LI":"崙頂里","LIN":"6鄰","STREET":"信義南路","SECT":" ","MAREA":" ","LANE":"２０２巷","ALLEY":" ","HOUSE_NO":"４９號","E_COORD97":178039.76999999999,"N_COORD97":2540054.6800000002,"ADDRESS":"信義南路２０２巷４９號","OBJECTID":281322},"geometry":{"x":178039.77000000142,"y":2540054.6799999997}},{"attributes":{"ID":281329,"DIS_CODE":0,"TOWNNAME":"關廟區","LI":"埤頭里","LIN":"2鄰","STREET":" ","SECT":" ","MAREA":"埤頭","LANE":" ","ALLEY":" ","HOUSE_NO":"１５之６號","E_COORD97":179119.47,"N_COORD97":2543723.2999999998,"ADDRESS":"埤頭１５之６號","OBJECTID":281323},"geometry":{"x":179119.46999999974,"y":2543723.3000000007}},{"attributes":{"ID":281330,"DIS_CODE":0,"TOWNNAME":"北區","LI":"文元里","LIN":"6鄰","STREET":"海安路","SECT":"三段","MAREA":" ","LANE":"７８１巷","ALLEY":" ","HOUSE_NO":"１４２號","E_COORD97":167740.14000000001,"N_COORD97":2545993.6800000002,"ADDRESS":"海安路三段７８１巷１４２號","OBJECTID":281324},"geometry":{"x":167740.13999999966,"y":2545993.6800000016}},{"attributes":{"ID":281331,"DIS_CODE":0,"TOWNNAME":"北區","LI":"文元里","LIN":"6鄰","STREET":"海安路","SECT":"三段","MAREA":" ","LANE":"７８１巷","ALLEY":" ","HOUSE_NO":"１４６號","E_COORD97":167733.72,"N_COORD97":2545994.1200000001,"ADDRESS":"海安路三段７８１巷１４６號","OBJECTID":281325},"geometry":{"x":167733.72000000067,"y":2545994.1199999992}},{"attributes":{"ID":281332,"DIS_CODE":0,"TOWNNAME":"北區","LI":"文元里","LIN":"6鄰","STREET":"海安路","SECT":"三段","MAREA":" ","LANE":"７８１巷","ALLEY":" ","HOUSE_NO":"１５０號","E_COORD97":167722.41,"N_COORD97":2545994.1200000001,"ADDRESS":"海安路三段７８１巷１５０號","OBJECTID":281326},"geometry":{"x":167722.41000000201,"y":2545994.1199999992}},{"attributes":{"ID":281333,"DIS_CODE":0,"TOWNNAME":"北區","LI":"文元里","LIN":"6鄰","STREET":"海安路","SECT":"三段","MAREA":" ","LANE":"７８１巷","ALLEY":" ","HOUSE_NO":"１５２號","E_COORD97":167716.20000000001,"N_COORD97":2545994.7799999998,"ADDRESS":"海安路三段７８１巷１５２號","OBJECTID":281327},"geometry":{"x":167716.20000000112,"y":2545994.7800000031}},{"attributes":{"ID":281334,"DIS_CODE":0,"TOWNNAME":"新營區","LI":"興業里","LIN":"6鄰","STREET":"公誠街","SECT":" ","MAREA":" ","LANE":"１１巷","ALLEY":" ","HOUSE_NO":"３之１號","E_COORD97":180312.39000000001,"N_COORD97":2577975.4900000002,"ADDRESS":"公誠街１１巷３之１號","OBJECTID":281328},"geometry":{"x":180312.39000000153,"y":2577975.4900000002}},{"attributes":{"ID":281335,"DIS_CODE":0,"TOWNNAME":"新營區","LI":"新南里","LIN":"6鄰","STREET":"秦漢街","SECT":" ","MAREA":" ","LANE":"１２０巷","ALLEY":" ","HOUSE_NO":"３８號","E_COORD97":178336.60999999999,"N_COORD97":2578963.8500000001,"ADDRESS":"秦漢街１２０巷３８號","OBJECTID":281329},"geometry":{"x":178336.6100000022,"y":2578963.8500000015}},{"attributes":{"ID":281336,"DIS_CODE":0,"TOWNNAME":"新營區","LI":"新北里","LIN":"6鄰","STREET":"三興街","SECT":" ","MAREA":" ","LANE":"２０５巷","ALLEY":" ","HOUSE_NO":"３４號","E_COORD97":179222.45999999999,"N_COORD97":2579620.7400000002,"ADDRESS":"三興街２０５巷３４號","OBJECTID":281330},"geometry":{"x":179222.46000000089,"y":2579620.7400000002}},{"attributes":{"ID":281337,"DIS_CODE":0,"TOWNNAME":"新營區","LI":"新北里","LIN":"6鄰","STREET":"三興街","SECT":" ","MAREA":" ","LANE":"２０５巷","ALLEY":" ","HOUSE_NO":"２８號","E_COORD97":179242.89999999999,"N_COORD97":2579622.8599999999,"ADDRESS":"三興街２０５巷２８號","OBJECTID":281331},"geometry":{"x":179242.90000000037,"y":2579622.8599999994}},{"attributes":{"ID":281338,"DIS_CODE":0,"TOWNNAME":"新營區","LI":"新北里","LIN":"6鄰","STREET":"三興街","SECT":" ","MAREA":" ","LANE":"２０５巷","ALLEY":" ","HOUSE_NO":"３號","E_COORD97":179326.47,"N_COORD97":2579603.6299999999,"ADDRESS":"三興街２０５巷３號","OBJECTID":281332},"geometry":{"x":179326.46999999974,"y":2579603.629999999}},{"attributes":{"ID":281339,"DIS_CODE":0,"TOWNNAME":"新營區","LI":"新北里","LIN":"6鄰","STREET":"三興街","SECT":" ","MAREA":" ","LANE":"２０５巷","ALLEY":" ","HOUSE_NO":"３２號","E_COORD97":179229.62,"N_COORD97":2579621.8100000001,"ADDRESS":"三興街２０５巷３２號","OBJECTID":281333},"geometry":{"x":179229.62000000197,"y":2579621.8100000042}},{"attributes":{"ID":281340,"DIS_CODE":0,"TOWNNAME":"新營區","LI":"新北里","LIN":"6鄰","STREET":"三興街","SECT":" ","MAREA":" ","LANE":"２０５巷","ALLEY":" ","HOUSE_NO":"１９號","E_COORD97":179304.20999999999,"N_COORD97":2579625.8799999999,"ADDRESS":"三興街２０５巷１９號","OBJECTID":281334},"geometry":{"x":179304.21000000089,"y":2579625.879999999}},{"attributes":{"ID":281341,"DIS_CODE":0,"TOWNNAME":"新營區","LI":"新北里","LIN":"6鄰","STREET":"三興街","SECT":" ","MAREA":" ","LANE":"２０５巷","ALLEY":" ","HOUSE_NO":"１７號","E_COORD97":179310.35000000001,"N_COORD97":2579626.96,"ADDRESS":"三興街２０５巷１７號","OBJECTID":281335},"geometry":{"x":179310.34999999963,"y":2579626.9600000009}},{"attributes":{"ID":281342,"DIS_CODE":0,"TOWNNAME":"新營區","LI":"新北里","LIN":"6鄰","STREET":"三興街","SECT":" ","MAREA":" ","LANE":"２７５巷","ALLEY":" ","HOUSE_NO":"２７號","E_COORD97":179240.97,"N_COORD97":2579647.23,"ADDRESS":"三興街２７５巷２７號","OBJECTID":281336},"geometry":{"x":179240.97000000067,"y":2579647.2300000023}},{"attributes":{"ID":281343,"DIS_CODE":0,"TOWNNAME":"新營區","LI":"新北里","LIN":"6鄰","STREET":"三興街","SECT":" ","MAREA":" ","LANE":"２０５巷","ALLEY":" ","HOUSE_NO":"４５號","E_COORD97":179181.39999999999,"N_COORD97":2579593.25,"ADDRESS":"三興街２０５巷４５號","OBJECTID":281337},"geometry":{"x":179181.4000000013,"y":2579593.25}},{"attributes":{"ID":281344,"DIS_CODE":0,"TOWNNAME":"永康區","LI":"埔園里","LIN":"6鄰","STREET":"自強路","SECT":" ","MAREA":" ","LANE":"４６８巷","ALLEY":" ","HOUSE_NO":"８號","E_COORD97":173799.07000000001,"N_COORD97":2547935.7000000002,"ADDRESS":"自強路４６８巷８號","OBJECTID":281338},"geometry":{"x":173799.07000000123,"y":2547935.7000000011}},{"attributes":{"ID":281345,"DIS_CODE":0,"TOWNNAME":"永康區","LI":"埔園里","LIN":"6鄰","STREET":"自強路","SECT":" ","MAREA":" ","LANE":"４６８巷","ALLEY":" ","HOUSE_NO":"１０號","E_COORD97":173804.01999999999,"N_COORD97":2547934.3799999999,"ADDRESS":"自強路４６８巷１０號","OBJECTID":281339},"geometry":{"x":173804.02000000048,"y":2547934.3800000008}},{"attributes":{"ID":281346,"DIS_CODE":0,"TOWNNAME":"永康區","LI":"埔園里","LIN":"6鄰","STREET":"自強路","SECT":" ","MAREA":" ","LANE":"４６８巷","ALLEY":" ","HOUSE_NO":"６號","E_COORD97":173792.82000000001,"N_COORD97":2547937.48,"ADDRESS":"自強路４６８巷６號","OBJECTID":281340},"geometry":{"x":173792.82000000123,"y":2547937.4800000042}},{"attributes":{"ID":281347,"DIS_CODE":0,"TOWNNAME":"永康區","LI":"埔園里","LIN":"6鄰","STREET":"自強路","SECT":" ","MAREA":" ","LANE":"４６８巷","ALLEY":" ","HOUSE_NO":"２６號","E_COORD97":173827.23000000001,"N_COORD97":2547913.4199999999,"ADDRESS":"自強路４６８巷２６號","OBJECTID":281341},"geometry":{"x":173827.23000000138,"y":2547913.4200000037}},{"attributes":{"ID":281348,"DIS_CODE":0,"TOWNNAME":"永康區","LI":"埔園里","LIN":"6鄰","STREET":"自強路","SECT":" ","MAREA":" ","LANE":"４６８巷","ALLEY":" ","HOUSE_NO":"２６之３號","E_COORD97":173842.45999999999,"N_COORD97":2547906.02,"ADDRESS":"自強路４６８巷２６之３號","OBJECTID":281342},"geometry":{"x":173842.45999999996,"y":2547906.0200000014}},{"attributes":{"ID":281349,"DIS_CODE":0,"TOWNNAME":"永康區","LI":"埔園里","LIN":"6鄰","STREET":"自強路","SECT":" ","MAREA":" ","LANE":"４６８巷","ALLEY":" ","HOUSE_NO":"１８號","E_COORD97":173816.48999999999,"N_COORD97":2547926.04,"ADDRESS":"自強路４６８巷１８號","OBJECTID":281343},"geometry":{"x":173816.49000000115,"y":2547926.040000001}},{"attributes":{"ID":281350,"DIS_CODE":0,"TOWNNAME":"南區","LI":"文華里","LIN":"6鄰","STREET":"金華路","SECT":"二段","MAREA":" ","LANE":"３７３巷","ALLEY":" ","HOUSE_NO":"５號","E_COORD97":167110.78,"N_COORD97":2542989.6000000001,"ADDRESS":"金華路二段３７３巷５號","OBJECTID":281344},"geometry":{"x":167110.78000000026,"y":2542989.6000000015}},{"attributes":{"ID":281351,"DIS_CODE":0,"TOWNNAME":"南區","LI":"文華里","LIN":"6鄰","STREET":"金華路","SECT":"二段","MAREA":" ","LANE":"３７３巷","ALLEY":" ","HOUSE_NO":"７號","E_COORD97":167106.20000000001,"N_COORD97":2542990.0499999998,"ADDRESS":"金華路二段３７３巷７號","OBJECTID":281345},"geometry":{"x":167106.20000000019,"y":2542990.0500000007}},{"attributes":{"ID":281352,"DIS_CODE":0,"TOWNNAME":"南區","LI":"文華里","LIN":"6鄰","STREET":"金華路","SECT":"二段","MAREA":" ","LANE":"３７３巷","ALLEY":" ","HOUSE_NO":"９號","E_COORD97":167101.89000000001,"N_COORD97":2542989.5099999998,"ADDRESS":"金華路二段３７３巷９號","OBJECTID":281346},"geometry":{"x":167101.8900000006,"y":2542989.5099999998}},{"attributes":{"ID":281353,"DIS_CODE":0,"TOWNNAME":"南區","LI":"文華里","LIN":"6鄰","STREET":"金華路","SECT":"二段","MAREA":" ","LANE":"３７３巷","ALLEY":" ","HOUSE_NO":"１１號","E_COORD97":167098.57000000001,"N_COORD97":2542990.3199999998,"ADDRESS":"金華路二段３７３巷１１號","OBJECTID":281347},"geometry":{"x":167098.5700000003,"y":2542990.3200000003}},{"attributes":{"ID":281354,"DIS_CODE":0,"TOWNNAME":"關廟區","LI":"深坑里","LIN":"2鄰","STREET":"南雄路","SECT":"一段","MAREA":" ","LANE":" ","ALLEY":" ","HOUSE_NO":"３１０號","E_COORD97":181855.97,"N_COORD97":2537469.2999999998,"ADDRESS":"南雄路一段３１０號","OBJECTID":281348},"geometry":{"x":181855.96999999974,"y":2537469.3000000045}},{"attributes":{"ID":281355,"DIS_CODE":0,"TOWNNAME":"關廟區","LI":"關廟里","LIN":"2鄰","STREET":"忠孝街","SECT":" ","MAREA":" ","LANE":" ","ALLEY":" ","HOUSE_NO":"１９號","E_COORD97":180943.09,"N_COORD97":2540083.25,"ADDRESS":"忠孝街１９號","OBJECTID":281349},"geometry":{"x":180943.08999999985,"y":2540083.2500000019}},{"attributes":{"ID":281356,"DIS_CODE":0,"TOWNNAME":"關廟區","LI":"關廟里","LIN":"2鄰","STREET":"忠孝街","SECT":" ","MAREA":" ","LANE":" ","ALLEY":" ","HOUSE_NO":"７號","E_COORD97":180934.94,"N_COORD97":2540061.25,"ADDRESS":"忠孝街７號","OBJECTID":281350},"geometry":{"x":180934.94000000227,"y":2540061.25}},{"attributes":{"ID":281357,"DIS_CODE":0,"TOWNNAME":"南區","LI":"田寮里","LIN":"6鄰","STREET":"新興路","SECT":" ","MAREA":" ","LANE":"２１７巷","ALLEY":" ","HOUSE_NO":"４號","E_COORD97":167336.07000000001,"N_COORD97":2541938.5899999999,"ADDRESS":"新興路２１７巷４號","OBJECTID":281351},"geometry":{"x":167336.0700000003,"y":2541938.5900000036}},{"attributes":{"ID":281358,"DIS_CODE":0,"TOWNNAME":"新化區","LI":"羊林里","LIN":"2鄰","STREET":" ","SECT":" ","MAREA":"\u25A0拔林","LANE":" ","ALLEY":" ","HOUSE_NO":"４０２號","E_COORD97":183711.72,"N_COORD97":2551868.25,"ADDRESS":"\u25A0拔林４０２號","OBJECTID":281352},"geometry":{"x":183711.71999999974,"y":2551868.2500000019}},{"attributes":{"ID":281359,"DIS_CODE":0,"TOWNNAME":"關廟區","LI":"新光里","LIN":"6鄰","STREET":"北寮街","SECT":" ","MAREA":" ","LANE":" ","ALLEY":" ","HOUSE_NO":"８６號","E_COORD97":184213.46733700001,"N_COORD97":2541867.5620800001,"ADDRESS":"北寮街８６號","OBJECTID":281353},"geometry":{"x":184213.46733700112,"y":2541867.5620840024}},{"attributes":{"ID":281360,"DIS_CODE":0,"TOWNNAME":"新化區","LI":"崙頂里","LIN":"2鄰","STREET":" ","SECT":" ","MAREA":"崙子頂","LANE":" ","ALLEY":" ","HOUSE_NO":"７３之２號","E_COORD97":176909.17999999999,"N_COORD97":2546812.25,"ADDRESS":"崙子頂７３之２號","OBJECTID":281354},"geometry":{"x":176909.1799999997,"y":2546812.25}},{"attributes":{"ID":281361,"DIS_CODE":0,"TOWNNAME":"新化區","LI":"\u25A0拔里","LIN":"2鄰","STREET":" ","SECT":" ","MAREA":"\u25A0拔林","LANE":" ","ALLEY":" ","HOUSE_NO":"８５號","E_COORD97":183517.76999999999,"N_COORD97":2552090.25,"ADDRESS":"\u25A0拔林８５號","OBJECTID":281355},"geometry":{"x":183517.76999999955,"y":2552090.25}},{"attributes":{"ID":281362,"DIS_CODE":0,"TOWNNAME":"新化區","LI":"豐榮里","LIN":"2鄰","STREET":" ","SECT":" ","MAREA":"洋子","LANE":" ","ALLEY":" ","HOUSE_NO":"４２號之２","E_COORD97":178064.67999999999,"N_COORD97":2548269.2599999998,"ADDRESS":"洋子４２號之２","OBJECTID":281356},"geometry":{"x":178064.68000000063,"y":2548269.2599999998}},{"attributes":{"ID":281363,"DIS_CODE":0,"TOWNNAME":"南區","LI":"田寮里","LIN":"6鄰","STREET":"新興路","SECT":" ","MAREA":" ","LANE":"２１７巷","ALLEY":" ","HOUSE_NO":"６號","E_COORD97":167341.41,"N_COORD97":2541936.8799999999,"ADDRESS":"新興路２１７巷６號","OBJECTID":281357},"geometry":{"x":167341.41000000108,"y":2541936.8800000008}},{"attributes":{"ID":281364,"DIS_CODE":0,"TOWNNAME":"新化區","LI":"豐榮里","LIN":"2鄰","STREET":" ","SECT":" ","MAREA":"洋子","LANE":" ","ALLEY":" ","HOUSE_NO":"４３號之１","E_COORD97":178051.85999999999,"N_COORD97":2548319.2599999998,"ADDRESS":"洋子４３號之１","OBJECTID":281358},"geometry":{"x":178051.8600000022,"y":2548319.2600000016}},{"attributes":{"ID":281365,"DIS_CODE":0,"TOWNNAME":"新化區","LI":"知義里","LIN":"2鄰","STREET":" ","SECT":" ","MAREA":"知母義","LANE":" ","ALLEY":" ","HOUSE_NO":"１３７號","E_COORD97":179817.92000000001,"N_COORD97":2547041.25,"ADDRESS":"知母義１３７號","OBJECTID":281359},"geometry":{"x":179817.92000000086,"y":2547041.2500000019}},{"attributes":{"ID":281366,"DIS_CODE":0,"TOWNNAME":"新化區","LI":"知義里","LIN":"2鄰","STREET":" ","SECT":" ","MAREA":"知母義","LANE":" ","ALLEY":" ","HOUSE_NO":"５８號","E_COORD97":179742.37,"N_COORD97":2546997.25,"ADDRESS":"知母義５８號","OBJECTID":281360},"geometry":{"x":179742.37000000104,"y":2546997.2500000019}},{"attributes":{"ID":281367,"DIS_CODE":0,"TOWNNAME":"新化區","LI":"\u25A0拔里","LIN":"2鄰","STREET":" ","SECT":" ","MAREA":"\u25A0拔林","LANE":" ","ALLEY":" ","HOUSE_NO":"８７號之３","E_COORD97":183356.12,"N_COORD97":2552103.2599999998,"ADDRESS":"\u25A0拔林８７號之３","OBJECTID":281361},"geometry":{"x":183356.12000000104,"y":2552103.2599999998}},{"attributes":{"ID":281368,"DIS_CODE":0,"TOWNNAME":"新化區","LI":"\u25A0拔里","LIN":"2鄰","STREET":" ","SECT":" ","MAREA":"\u25A0拔林","LANE":" ","ALLEY":" ","HOUSE_NO":"７７號之２","E_COORD97":183535.63,"N_COORD97":2552026.2599999998,"ADDRESS":"\u25A0拔林７７號之２","OBJECTID":281362},"geometry":{"x":183535.63000000082,"y":2552026.2599999998}},{"attributes":{"ID":281369,"DIS_CODE":0,"TOWNNAME":"新化區","LI":"豐榮里","LIN":"2鄰","STREET":" ","SECT":" ","MAREA":"洋子","LANE":" ","ALLEY":" ","HOUSE_NO":"３８號之１","E_COORD97":178087.26000000001,"N_COORD97":2548232.2599999998,"ADDRESS":"洋子３８號之１","OBJECTID":281363},"geometry":{"x":178087.25999999978,"y":2548232.2599999998}},{"attributes":{"ID":281370,"DIS_CODE":0,"TOWNNAME":"南區","LI":"田寮里","LIN":"6鄰","STREET":"新興路","SECT":" ","MAREA":" ","LANE":"２１７巷","ALLEY":" ","HOUSE_NO":"８號","E_COORD97":167346.54999999999,"N_COORD97":2541933.46,"ADDRESS":"新興路２１７巷８號","OBJECTID":281364},"geometry":{"x":167346.55000000168,"y":2541933.459999999}},{"attributes":{"ID":281371,"DIS_CODE":0,"TOWNNAME":"永康區","LI":"安康里","LIN":"6鄰","STREET":"中華西街","SECT":" ","MAREA":" ","LANE":"２３０巷","ALLEY":" ","HOUSE_NO":"１號","E_COORD97":170715.81,"N_COORD97":2546435,"ADDRESS":"中華西街２３０巷１號","OBJECTID":281365},"geometry":{"x":170715.80999999959,"y":2546435.0000000037}},{"attributes":{"ID":281372,"DIS_CODE":0,"TOWNNAME":"永康區","LI":"甲頂里","LIN":"6鄰","STREET":"中正南路","SECT":" ","MAREA":" ","LANE":"１６８巷","ALLEY":" ","HOUSE_NO":"３８號","E_COORD97":169925.07999999999,"N_COORD97":2546911.4900000002,"ADDRESS":"中正南路１６８巷３８號","OBJECTID":281366},"geometry":{"x":169925.08000000194,"y":2546911.4900000002}},{"attributes":{"ID":281373,"DIS_CODE":0,"TOWNNAME":"永康區","LI":"甲頂里","LIN":"6鄰","STREET":"中正南路","SECT":" ","MAREA":" ","LANE":"１６８巷","ALLEY":" ","HOUSE_NO":"２１號","E_COORD97":169941.12,"N_COORD97":2546897.2000000002,"ADDRESS":"中正南路１６８巷２１號","OBJECTID":281367},"geometry":{"x":169941.12000000011,"y":2546897.200000003}},{"attributes":{"ID":281374,"DIS_CODE":0,"TOWNNAME":"永康區","LI":"甲頂里","LIN":"6鄰","STREET":"中正南路","SECT":" ","MAREA":" ","LANE":"１６８巷","ALLEY":" ","HOUSE_NO":"１１號","E_COORD97":169940.29000000001,"N_COORD97":2546925.3799999999,"ADDRESS":"中正南路１６８巷１１號","OBJECTID":281368},"geometry":{"x":169940.29000000004,"y":2546925.379999999}},{"attributes":{"ID":281375,"DIS_CODE":0,"TOWNNAME":"永康區","LI":"甲頂里","LIN":"6鄰","STREET":"中正南路","SECT":" ","MAREA":" ","LANE":"１６８巷","ALLEY":" ","HOUSE_NO":"４２號","E_COORD97":169931.76999999999,"N_COORD97":2546904.2400000002,"ADDRESS":"中正南路１６８巷４２號","OBJECTID":281369},"geometry":{"x":169931.77000000048,"y":2546904.2400000002}},{"attributes":{"ID":281376,"DIS_CODE":0,"TOWNNAME":"關廟區","LI":"關廟里","LIN":"2鄰","STREET":"忠孝街","SECT":" ","MAREA":" ","LANE":" ","ALLEY":" ","HOUSE_NO":"２１號","E_COORD97":180944.98999999999,"N_COORD97":2540087.25,"ADDRESS":"忠孝街２１號","OBJECTID":281370},"geometry":{"x":180944.99000000115,"y":2540087.2500000019}},{"attributes":{"ID":281377,"DIS_CODE":0,"TOWNNAME":"永康區","LI":"甲頂里","LIN":"6鄰","STREET":"中正南路","SECT":" ","MAREA":" ","LANE":"１６８巷","ALLEY":" ","HOUSE_NO":"５１號","E_COORD97":169947.53,"N_COORD97":2546824.6899999999,"ADDRESS":"中正南路１６８巷５１號","OBJECTID":281371},"geometry":{"x":169947.53000000212,"y":2546824.6899999995}},{"attributes":{"ID":281378,"DIS_CODE":0,"TOWNNAME":"永康區","LI":"安康里","LIN":"6鄰","STREET":"中華路","SECT":" ","MAREA":" ","LANE":"７２７巷","ALLEY":" ","HOUSE_NO":"６９號","E_COORD97":170667.79999999999,"N_COORD97":2546313.77,"ADDRESS":"中華路７２７巷６９號","OBJECTID":281372},"geometry":{"x":170667.80000000075,"y":2546313.7700000033}},{"attributes":{"ID":281379,"DIS_CODE":0,"TOWNNAME":"永康區","LI":"甲頂里","LIN":"6鄰","STREET":"中正南路","SECT":" ","MAREA":" ","LANE":"１６８巷","ALLEY":" ","HOUSE_NO":"１７號","E_COORD97":169946.95999999999,"N_COORD97":2546909.6299999999,"ADDRESS":"中正南路１６８巷１７號","OBJECTID":281373},"geometry":{"x":169946.95999999996,"y":2546909.629999999}},{"attributes":{"ID":281380,"DIS_CODE":0,"TOWNNAME":"永康區","LI":"安康里","LIN":"6鄰","STREET":"中華路","SECT":" ","MAREA":" ","LANE":"７２７巷","ALLEY":" ","HOUSE_NO":"５７號","E_COORD97":170694.28,"N_COORD97":2546330.4900000002,"ADDRESS":"中華路７２７巷５７號","OBJECTID":281374},"geometry":{"x":170694.28000000119,"y":2546330.4900000021}},{"attributes":{"ID":281381,"DIS_CODE":0,"TOWNNAME":"永康區","LI":"安康里","LIN":"6鄰","STREET":"中華路","SECT":" ","MAREA":" ","LANE":"７２７巷","ALLEY":" ","HOUSE_NO":"１７號","E_COORD97":170782.73999999999,"N_COORD97":2546382.2400000002,"ADDRESS":"中華路７２７巷１７號","OBJECTID":281375},"geometry":{"x":170782.74000000022,"y":2546382.2400000002}},{"attributes":{"ID":281382,"DIS_CODE":0,"TOWNNAME":"永康區","LI":"安康里","LIN":"6鄰","STREET":"中華路","SECT":" ","MAREA":" ","LANE":"７２７巷","ALLEY":" ","HOUSE_NO":"５０號","E_COORD97":170726.35000000001,"N_COORD97":2546364.7000000002,"ADDRESS":"中華路７２７巷５０號","OBJECTID":281376},"geometry":{"x":170726.35000000056,"y":2546364.6999999974}},{"attributes":{"ID":281383,"DIS_CODE":0,"TOWNNAME":"永康區","LI":"正強里","LIN":"6鄰","STREET":"自強路","SECT":" ","MAREA":" ","LANE":"３６８巷","ALLEY":" ","HOUSE_NO":"１１號","E_COORD97":173532.51000000001,"N_COORD97":2547700.7400000002,"ADDRESS":"自強路３６８巷１１號","OBJECTID":281377},"geometry":{"x":173532.51000000164,"y":2547700.7400000002}},{"attributes":{"ID":281384,"DIS_CODE":0,"TOWNNAME":"新化區","LI":"太平里","LIN":"6鄰","STREET":"民生路","SECT":" ","MAREA":" ","LANE":"３１４巷","ALLEY":" ","HOUSE_NO":"９號","E_COORD97":178945.70999999999,"N_COORD97":2549232.25,"ADDRESS":"民生路３１４巷９號","OBJECTID":281378},"geometry":{"x":178945.70999999903,"y":2549232.25}},{"attributes":{"ID":281385,"DIS_CODE":0,"TOWNNAME":"新化區","LI":"太平里","LIN":"6鄰","STREET":"民生路","SECT":" ","MAREA":" ","LANE":"３１４巷","ALLEY":" ","HOUSE_NO":"８９號","E_COORD97":179004.35999999999,"N_COORD97":2549258.25,"ADDRESS":"民生路３１４巷８９號","OBJECTID":281379},"geometry":{"x":179004.3599999994,"y":2549258.2500000019}},{"attributes":{"ID":281386,"DIS_CODE":0,"TOWNNAME":"北區","LI":"光武里","LIN":"2鄰","STREET":"長榮路","SECT":"五段","MAREA":" ","LANE":" ","ALLEY":" ","HOUSE_NO":"３０３號","E_COORD97":169718.42000000001,"N_COORD97":2545905.9700000002,"ADDRESS":"長榮路五段３０３號","OBJECTID":281380},"geometry":{"x":169718.41999999993,"y":2545905.9700000007}},{"attributes":{"ID":281387,"DIS_CODE":0,"TOWNNAME":"北區","LI":"光武里","LIN":"2鄰","STREET":"長榮路","SECT":"五段","MAREA":" ","LANE":" ","ALLEY":" ","HOUSE_NO":"３０５號","E_COORD97":169717.37,"N_COORD97":2545908.3500000001,"ADDRESS":"長榮路五段３０５號","OBJECTID":281381},"geometry":{"x":169717.37000000011,"y":2545908.3499999996}},{"attributes":{"ID":281388,"DIS_CODE":0,"TOWNNAME":"北區","LI":"光武里","LIN":"2鄰","STREET":"長榮路","SECT":"五段","MAREA":" ","LANE":" ","ALLEY":" ","HOUSE_NO":"３０９號","E_COORD97":169707.16,"N_COORD97":2545910.25,"ADDRESS":"長榮路五段３０９號","OBJECTID":281382},"geometry":{"x":169707.16000000015,"y":2545910.25}},{"attributes":{"ID":281389,"DIS_CODE":0,"TOWNNAME":"北區","LI":"光武里","LIN":"2鄰","STREET":"長榮路","SECT":"五段","MAREA":" ","LANE":" ","ALLEY":" ","HOUSE_NO":"３１１號","E_COORD97":169702.64000000001,"N_COORD97":2545910.48,"ADDRESS":"長榮路五段３１１號","OBJECTID":281383},"geometry":{"x":169702.6400000006,"y":2545910.4800000023}},{"attributes":{"ID":281390,"DIS_CODE":0,"TOWNNAME":"北區","LI":"興南里","LIN":"2鄰","STREET":"公園路","SECT":" ","MAREA":" ","LANE":" ","ALLEY":" ","HOUSE_NO":"３１９號之１","E_COORD97":169025.01999999999,"N_COORD97":2544923.7000000002,"ADDRESS":"公園路３１９號之１","OBJECTID":281384},"geometry":{"x":169025.02000000048,"y":2544923.6999999974}},{"attributes":{"ID":281391,"DIS_CODE":0,"TOWNNAME":"北區","LI":"永祥里","LIN":"2鄰","STREET":"大武街","SECT":" ","MAREA":" ","LANE":" ","ALLEY":" ","HOUSE_NO":"４４２之１號","E_COORD97":169984.54000000001,"N_COORD97":2546440.5800000001,"ADDRESS":"大武街４４２之１號","OBJECTID":281385},"geometry":{"x":169984.5400000019,"y":2546440.5800000001}},{"attributes":{"ID":281392,"DIS_CODE":0,"TOWNNAME":"安南區","LI":"安順里","LIN":"6鄰","STREET":"安和路","SECT":"四段","MAREA":" ","LANE":"２５巷","ALLEY":" ","HOUSE_NO":"６３號","E_COORD97":169806.76000000001,"N_COORD97":2550214.54,"ADDRESS":"安和路四段２５巷６３號","OBJECTID":281386},"geometry":{"x":169806.76000000071,"y":2550214.540000001}},{"attributes":{"ID":281393,"DIS_CODE":0,"TOWNNAME":"安南區","LI":"安順里","LIN":"6鄰","STREET":"安和路","SECT":"四段","MAREA":" ","LANE":"２５巷","ALLEY":" ","HOUSE_NO":"７７號","E_COORD97":169761.84,"N_COORD97":2550222.5800000001,"ADDRESS":"安和路四段２５巷７７號","OBJECTID":281387},"geometry":{"x":169761.83999999892,"y":2550222.5800000019}},{"attributes":{"ID":281394,"DIS_CODE":0,"TOWNNAME":"安南區","LI":"安西里","LIN":"6鄰","STREET":"安和路","SECT":"一段","MAREA":" ","LANE":"２８５巷","ALLEY":" ","HOUSE_NO":"４５號","E_COORD97":169140.54000000001,"N_COORD97":2548029.0099999998,"ADDRESS":"安和路一段２８５巷４５號","OBJECTID":281388},"geometry":{"x":169140.54000000097,"y":2548029.0100000016}},{"attributes":{"ID":281395,"DIS_CODE":0,"TOWNNAME":"安南區","LI":"溪心里","LIN":"6鄰","STREET":"本原街","SECT":"二段","MAREA":" ","LANE":"１１６巷","ALLEY":" ","HOUSE_NO":"４１號","E_COORD97":166733.38,"N_COORD97":2550957.2999999998,"ADDRESS":"本原街二段１１６巷４１號","OBJECTID":281389},"geometry":{"x":166733.37999999989,"y":2550957.3000000026}},{"attributes":{"ID":281396,"DIS_CODE":0,"TOWNNAME":"安南區","LI":"溪心里","LIN":"6鄰","STREET":"本原街","SECT":"二段","MAREA":" ","LANE":"１１６巷","ALLEY":" ","HOUSE_NO":"４３號","E_COORD97":166732.03,"N_COORD97":2550961.1899999999,"ADDRESS":"本原街二段１１６巷４３號","OBJECTID":281390},"geometry":{"x":166732.03000000119,"y":2550961.1899999995}},{"attributes":{"ID":281397,"DIS_CODE":0,"TOWNNAME":"南區","LI":"田寮里","LIN":"2鄰","STREET":"新興路","SECT":" ","MAREA":" ","LANE":" ","ALLEY":" ","HOUSE_NO":"２８９號之１","E_COORD97":167194.81,"N_COORD97":2541851.9399999999,"ADDRESS":"新興路２８９號之１","OBJECTID":281391},"geometry":{"x":167194.80999999959,"y":2541851.9400000013}},{"attributes":{"ID":281398,"DIS_CODE":0,"TOWNNAME":"鹽水區","LI":"田寮里","LIN":"2鄰","STREET":" ","SECT":" ","MAREA":"田寮","LANE":" ","ALLEY":" ","HOUSE_NO":"１４號","E_COORD97":171041.91,"N_COORD97":2575072.5600000001,"ADDRESS":"田寮１４號","OBJECTID":281392},"geometry":{"x":171041.91000000108,"y":2575072.5600000005}},{"attributes":{"ID":281399,"DIS_CODE":0,"TOWNNAME":"鹽水區","LI":"田寮里","LIN":"2鄰","STREET":" ","SECT":" ","MAREA":"田寮","LANE":" ","ALLEY":" ","HOUSE_NO":"１７號","E_COORD97":171001.38,"N_COORD97":2575073.5600000001,"ADDRESS":"田寮１７號","OBJECTID":281393},"geometry":{"x":171001.38000000082,"y":2575073.5600000042}},{"attributes":{"ID":281400,"DIS_CODE":0,"TOWNNAME":"鹽水區","LI":"田寮里","LIN":"2鄰","STREET":" ","SECT":" ","MAREA":"田寮","LANE":" ","ALLEY":" ","HOUSE_NO":"１８號","E_COORD97":170990.44,"N_COORD97":2575085.0699999998,"ADDRESS":"田寮１８號","OBJECTID":281394},"geometry":{"x":170990.44000000041,"y":2575085.0700000003}},{"attributes":{"ID":281401,"DIS_CODE":0,"TOWNNAME":"鹽水區","LI":"田寮里","LIN":"2鄰","STREET":" ","SECT":" ","MAREA":"田寮","LANE":" ","ALLEY":" ","HOUSE_NO":"１９號之１","E_COORD97":170984.45999999999,"N_COORD97":2575108.46,"ADDRESS":"田寮１９號之１","OBJECTID":281395},"geometry":{"x":170984.45999999996,"y":2575108.4600000046}},{"attributes":{"ID":281402,"DIS_CODE":0,"TOWNNAME":"鹽水區","LI":"田寮里","LIN":"2鄰","STREET":" ","SECT":" ","MAREA":"田寮","LANE":" ","ALLEY":" ","HOUSE_NO":"１９號","E_COORD97":170969.32999999999,"N_COORD97":2575102.96,"ADDRESS":"田寮１９號","OBJECTID":281396},"geometry":{"x":170969.33000000194,"y":2575102.9600000028}},{"attributes":{"ID":281403,"DIS_CODE":0,"TOWNNAME":"鹽水區","LI":"田寮里","LIN":"2鄰","STREET":" ","SECT":" ","MAREA":"田寮","LANE":" ","ALLEY":" ","HOUSE_NO":"２０號","E_COORD97":170973.5,"N_COORD97":2575084.0299999998,"ADDRESS":"田寮２０號","OBJECTID":281397},"geometry":{"x":170973.50000000093,"y":2575084.0300000012}},{"attributes":{"ID":281404,"DIS_CODE":0,"TOWNNAME":"鹽水區","LI":"田寮里","LIN":"2鄰","STREET":" ","SECT":" ","MAREA":"田寮","LANE":" ","ALLEY":" ","HOUSE_NO":"２１號之１","E_COORD97":170986.10000000001,"N_COORD97":2575043.27,"ADDRESS":"田寮２１號之１","OBJECTID":281398},"geometry":{"x":170986.10000000056,"y":2575043.2699999996}},{"attributes":{"ID":281405,"DIS_CODE":0,"TOWNNAME":"鹽水區","LI":"田寮里","LIN":"2鄰","STREET":" ","SECT":" ","MAREA":"田寮","LANE":" ","ALLEY":" ","HOUSE_NO":"２２號","E_COORD97":170965.34,"N_COORD97":2575054.4100000001,"ADDRESS":"田寮２２號","OBJECTID":281399},"geometry":{"x":170965.33999999985,"y":2575054.410000002}},{"attributes":{"ID":281406,"DIS_CODE":0,"TOWNNAME":"南區","LI":"建南里","LIN":"2鄰","STREET":"中華南路","SECT":"二段","MAREA":" ","LANE":" ","ALLEY":" ","HOUSE_NO":"６５號","E_COORD97":167322,"N_COORD97":2540284.8700000001,"ADDRESS":"中華南路二段６５號","OBJECTID":281400},"geometry":{"x":167322.00000000093,"y":2540284.8700000029}}]}