{"displayFieldName":"TOWNNAME","fieldAliases":{"ID":"ID","DIS_CODE":"DIS_CODE","TOWNNAME":"TOWNNAME","LI":"LI","LIN":"LIN","STREET":"STREET","SECT":"SECT","MAREA":"MAREA","LANE":"LANE","ALLEY":"ALLEY","HOUSE_NO":"HOUSE_NO","E_COORD97":"E_COORD97","N_COORD97":"N_COORD97","ADDRESS":"ADDRESS","OBJECTID":"OBJECTID"},"geometryType":"esriGeometryPoint","spatialReference":{"wkid":102443,"latestWkid":3826},"fields":[{"name":"ID","type":"esriFieldTypeDouble","alias":"ID"},{"name":"DIS_CODE","type":"esriFieldTypeInteger","alias":"DIS_CODE"},{"name":"TOWNNAME","type":"esriFieldTypeString","alias":"TOWNNAME","length":8},{"name":"LI","type":"esriFieldTypeString","alias":"LI","length":8},{"name":"LIN","type":"esriFieldTypeString","alias":"LIN","length":12},{"name":"STREET","type":"esriFieldTypeString","alias":"STREET","length":20},{"name":"SECT","type":"esriFieldTypeString","alias":"SECT","length":8},{"name":"MAREA","type":"esriFieldTypeString","alias":"MAREA","length":12},{"name":"LANE","type":"esriFieldTypeString","alias":"LANE","length":10},{"name":"ALLEY","type":"esriFieldTypeString","alias":"ALLEY","length":10},{"name":"HOUSE_NO","type":"esriFieldTypeString","alias":"HOUSE_NO","length":20},{"name":"E_COORD97","type":"esriFieldTypeDouble","alias":"E_COORD97"},{"name":"N_COORD97","type":"esriFieldTypeDouble","alias":"N_COORD97"},{"name":"ADDRESS","type":"esriFieldTypeString","alias":"ADDRESS","length":50},{"name":"OBJECTID","type":"esriFieldTypeOID","alias":"OBJECTID"}],"features":[{"attributes":{"ID":267206,"DIS_CODE":0,"TOWNNAME":"東區","LI":"龍山里","LIN":"14鄰","STREET":"崇學路","SECT":" ","MAREA":" ","LANE":"２６３巷","ALLEY":" ","HOUSE_NO":"１０６號","E_COORD97":170499.37,"N_COORD97":2542595.6299999999,"ADDRESS":"崇學路２６３巷１０６號","OBJECTID":267201},"geometry":{"x":170499.37000000197,"y":2542595.6300000008}},{"attributes":{"ID":267207,"DIS_CODE":0,"TOWNNAME":"東區","LI":"龍山里","LIN":"14鄰","STREET":"崇學路","SECT":" ","MAREA":" ","LANE":"２６３巷","ALLEY":" ","HOUSE_NO":"１０８號","E_COORD97":170494.64000000001,"N_COORD97":2542592.2400000002,"ADDRESS":"崇學路２６３巷１０８號","OBJECTID":267202},"geometry":{"x":170494.63999999966,"y":2542592.2400000039}},{"attributes":{"ID":267208,"DIS_CODE":0,"TOWNNAME":"東區","LI":"龍山里","LIN":"14鄰","STREET":"崇學路","SECT":" ","MAREA":" ","LANE":"２６３巷","ALLEY":" ","HOUSE_NO":"１１０號","E_COORD97":170493.13,"N_COORD97":2542588.4700000002,"ADDRESS":"崇學路２６３巷１１０號","OBJECTID":267203},"geometry":{"x":170493.13000000082,"y":2542588.4700000025}},{"attributes":{"ID":267209,"DIS_CODE":0,"TOWNNAME":"東區","LI":"龍山里","LIN":"14鄰","STREET":"崇學路","SECT":" ","MAREA":" ","LANE":"２６３巷","ALLEY":" ","HOUSE_NO":"１１２號","E_COORD97":170489.72,"N_COORD97":2542584.6899999999,"ADDRESS":"崇學路２６３巷１１２號","OBJECTID":267204},"geometry":{"x":170489.71999999974,"y":2542584.6899999976}},{"attributes":{"ID":267210,"DIS_CODE":0,"TOWNNAME":"南區","LI":"田寮里","LIN":"14鄰","STREET":"西門路","SECT":"一段","MAREA":" ","LANE":"３６１巷","ALLEY":" ","HOUSE_NO":"１４號","E_COORD97":167675.32000000001,"N_COORD97":2542125.29,"ADDRESS":"西門路一段３６１巷１４號","OBJECTID":267205},"geometry":{"x":167675.3200000003,"y":2542125.2899999991}},{"attributes":{"ID":267211,"DIS_CODE":0,"TOWNNAME":"南區","LI":"田寮里","LIN":"14鄰","STREET":"新興路","SECT":" ","MAREA":" ","LANE":"４１巷","ALLEY":" ","HOUSE_NO":"１９號","E_COORD97":167672.22,"N_COORD97":2542150.21,"ADDRESS":"新興路４１巷１９號","OBJECTID":267206},"geometry":{"x":167672.21999999974,"y":2542150.2100000028}},{"attributes":{"ID":267212,"DIS_CODE":0,"TOWNNAME":"南區","LI":"田寮里","LIN":"14鄰","STREET":"新興路","SECT":" ","MAREA":" ","LANE":"４１巷","ALLEY":" ","HOUSE_NO":"２５號","E_COORD97":167675.32000000001,"N_COORD97":2542135.5699999998,"ADDRESS":"新興路４１巷２５號","OBJECTID":267207},"geometry":{"x":167675.3200000003,"y":2542135.570000004}},{"attributes":{"ID":267213,"DIS_CODE":0,"TOWNNAME":"南區","LI":"田寮里","LIN":"14鄰","STREET":"西門路","SECT":"一段","MAREA":" ","LANE":"３７３巷","ALLEY":" ","HOUSE_NO":"１７號","E_COORD97":167676.45000000001,"N_COORD97":2542145.8500000001,"ADDRESS":"西門路一段３７３巷１７號","OBJECTID":267208},"geometry":{"x":167676.45000000205,"y":2542145.8499999996}},{"attributes":{"ID":267214,"DIS_CODE":0,"TOWNNAME":"仁德區","LI":"太子里","LIN":"25鄰","STREET":"長興五街","SECT":" ","MAREA":" ","LANE":" ","ALLEY":" ","HOUSE_NO":"２７之３號","E_COORD97":173534.928957,"N_COORD97":2543624.4145399998,"ADDRESS":"長興五街２７之３號","OBJECTID":267209},"geometry":{"x":173534.92895700037,"y":2543624.4145350009}},{"attributes":{"ID":267215,"DIS_CODE":0,"TOWNNAME":"南區","LI":"田寮里","LIN":"14鄰","STREET":"西門路","SECT":"一段","MAREA":" ","LANE":"３７３巷","ALLEY":" ","HOUSE_NO":"１５號","E_COORD97":167684.63,"N_COORD97":2542143.46,"ADDRESS":"西門路一段３７３巷１５號","OBJECTID":267210},"geometry":{"x":167684.62999999989,"y":2542143.4600000009}},{"attributes":{"ID":267216,"DIS_CODE":0,"TOWNNAME":"南區","LI":"田寮里","LIN":"14鄰","STREET":"西門路","SECT":"一段","MAREA":" ","LANE":"３７３巷","ALLEY":" ","HOUSE_NO":"１３號","E_COORD97":167689,"N_COORD97":2542144.02,"ADDRESS":"西門路一段３７３巷１３號","OBJECTID":267211},"geometry":{"x":167689,"y":2542144.0199999996}},{"attributes":{"ID":267217,"DIS_CODE":0,"TOWNNAME":"南區","LI":"田寮里","LIN":"14鄰","STREET":"西門路","SECT":"一段","MAREA":" ","LANE":"３７３巷","ALLEY":" ","HOUSE_NO":"１１號","E_COORD97":167694.78,"N_COORD97":2542143.8799999999,"ADDRESS":"西門路一段３７３巷１１號","OBJECTID":267212},"geometry":{"x":167694.78000000212,"y":2542143.8800000008}},{"attributes":{"ID":267218,"DIS_CODE":0,"TOWNNAME":"南區","LI":"田寮里","LIN":"14鄰","STREET":"西門路","SECT":"一段","MAREA":" ","LANE":"３７３巷","ALLEY":" ","HOUSE_NO":"９號","E_COORD97":167699.85999999999,"N_COORD97":2542143.6000000001,"ADDRESS":"西門路一段３７３巷９號","OBJECTID":267213},"geometry":{"x":167699.86000000127,"y":2542143.5999999996}},{"attributes":{"ID":267219,"DIS_CODE":0,"TOWNNAME":"南區","LI":"田寮里","LIN":"14鄰","STREET":"西門路","SECT":"一段","MAREA":" ","LANE":"３７３巷","ALLEY":" ","HOUSE_NO":"７號","E_COORD97":167705.20999999999,"N_COORD97":2542145.4300000002,"ADDRESS":"西門路一段３７３巷７號","OBJECTID":267214},"geometry":{"x":167705.21000000089,"y":2542145.4299999997}},{"attributes":{"ID":267220,"DIS_CODE":0,"TOWNNAME":"南區","LI":"田寮里","LIN":"14鄰","STREET":"西門路","SECT":"一段","MAREA":" ","LANE":"３７３巷","ALLEY":" ","HOUSE_NO":"５號","E_COORD97":167710.01000000001,"N_COORD97":2542146.8300000001,"ADDRESS":"西門路一段３７３巷５號","OBJECTID":267215},"geometry":{"x":167710.01000000071,"y":2542146.8300000001}},{"attributes":{"ID":267221,"DIS_CODE":0,"TOWNNAME":"南區","LI":"田寮里","LIN":"14鄰","STREET":"西門路","SECT":"一段","MAREA":" ","LANE":"３７３巷","ALLEY":" ","HOUSE_NO":"３號","E_COORD97":167713.53,"N_COORD97":2542147.54,"ADDRESS":"西門路一段３７３巷３號","OBJECTID":267216},"geometry":{"x":167713.53000000119,"y":2542147.5399999991}},{"attributes":{"ID":267222,"DIS_CODE":0,"TOWNNAME":"東區","LI":"龍山里","LIN":"14鄰","STREET":"崇學路","SECT":" ","MAREA":" ","LANE":"２６３巷","ALLEY":" ","HOUSE_NO":"６２號","E_COORD97":170516.17999999999,"N_COORD97":2542569.96,"ADDRESS":"崇學路２６３巷６２號","OBJECTID":267217},"geometry":{"x":170516.18000000063,"y":2542569.9600000009}},{"attributes":{"ID":267223,"DIS_CODE":0,"TOWNNAME":"東區","LI":"龍山里","LIN":"14鄰","STREET":"崇學路","SECT":" ","MAREA":" ","LANE":"２６３巷","ALLEY":" ","HOUSE_NO":"６６號","E_COORD97":170513.54000000001,"N_COORD97":2542565.7999999998,"ADDRESS":"崇學路２６３巷６６號","OBJECTID":267218},"geometry":{"x":170513.5400000019,"y":2542565.8000000026}},{"attributes":{"ID":267224,"DIS_CODE":0,"TOWNNAME":"中西區","LI":"民生里","LIN":"14鄰","STREET":"大仁街","SECT":" ","MAREA":" ","LANE":"１３９巷","ALLEY":" ","HOUSE_NO":"２９號","E_COORD97":167149.5,"N_COORD97":2543448.79,"ADDRESS":"大仁街１３９巷２９號","OBJECTID":267219},"geometry":{"x":167149.50000000093,"y":2543448.790000001}},{"attributes":{"ID":267225,"DIS_CODE":0,"TOWNNAME":"中西區","LI":"民生里","LIN":"14鄰","STREET":"大仁街","SECT":" ","MAREA":" ","LANE":"１３９巷","ALLEY":" ","HOUSE_NO":"３１號","E_COORD97":167141.51999999999,"N_COORD97":2543450.6099999999,"ADDRESS":"大仁街１３９巷３１號","OBJECTID":267220},"geometry":{"x":167141.52000000048,"y":2543450.6100000013}},{"attributes":{"ID":267226,"DIS_CODE":0,"TOWNNAME":"中西區","LI":"民生里","LIN":"14鄰","STREET":"大仁街","SECT":" ","MAREA":" ","LANE":"１３９巷","ALLEY":" ","HOUSE_NO":"３３號","E_COORD97":167137.88,"N_COORD97":2543451.0699999998,"ADDRESS":"大仁街１３９巷３３號","OBJECTID":267221},"geometry":{"x":167137.88000000082,"y":2543451.070000004}},{"attributes":{"ID":267227,"DIS_CODE":0,"TOWNNAME":"中西區","LI":"民生里","LIN":"14鄰","STREET":"大仁街","SECT":" ","MAREA":" ","LANE":"１３９巷","ALLEY":" ","HOUSE_NO":"３５號","E_COORD97":167134,"N_COORD97":2543451.9700000002,"ADDRESS":"大仁街１３９巷３５號","OBJECTID":267222},"geometry":{"x":167134.00000000093,"y":2543451.9699999988}},{"attributes":{"ID":267228,"DIS_CODE":0,"TOWNNAME":"永康區","LI":"甲頂里","LIN":"14鄰","STREET":"大武街","SECT":" ","MAREA":" ","LANE":"１８巷","ALLEY":" ","HOUSE_NO":"２３號","E_COORD97":170359.48999999999,"N_COORD97":2546636.6600000001,"ADDRESS":"大武街１８巷２３號","OBJECTID":267223},"geometry":{"x":170359.49000000022,"y":2546636.6600000001}},{"attributes":{"ID":267229,"DIS_CODE":0,"TOWNNAME":"永康區","LI":"甲頂里","LIN":"14鄰","STREET":"大武街","SECT":" ","MAREA":" ","LANE":"１８巷","ALLEY":" ","HOUSE_NO":"２５號","E_COORD97":170363.23999999999,"N_COORD97":2546634.1600000001,"ADDRESS":"大武街１８巷２５號","OBJECTID":267224},"geometry":{"x":170363.24000000209,"y":2546634.1600000039}},{"attributes":{"ID":267230,"DIS_CODE":0,"TOWNNAME":"永康區","LI":"甲頂里","LIN":"14鄰","STREET":"大武街","SECT":" ","MAREA":" ","LANE":"１８巷","ALLEY":" ","HOUSE_NO":"４１號","E_COORD97":170408.20000000001,"N_COORD97":2546608.9900000002,"ADDRESS":"大武街１８巷４１號","OBJECTID":267225},"geometry":{"x":170408.20000000112,"y":2546608.9900000021}},{"attributes":{"ID":267231,"DIS_CODE":0,"TOWNNAME":"永康區","LI":"正強里","LIN":"14鄰","STREET":"自強路","SECT":" ","MAREA":" ","LANE":"１８８巷","ALLEY":" ","HOUSE_NO":"６５號","E_COORD97":173232.78,"N_COORD97":2547307.8300000001,"ADDRESS":"自強路１８８巷６５號","OBJECTID":267226},"geometry":{"x":173232.78000000212,"y":2547307.8300000019}},{"attributes":{"ID":267232,"DIS_CODE":0,"TOWNNAME":"永康區","LI":"永康里","LIN":"14鄰","STREET":"永中街","SECT":" ","MAREA":" ","LANE":"１００巷","ALLEY":" ","HOUSE_NO":"３８號","E_COORD97":174066.13,"N_COORD97":2547096.3300000001,"ADDRESS":"永中街１００巷３８號","OBJECTID":267227},"geometry":{"x":174066.13000000082,"y":2547096.3300000001}},{"attributes":{"ID":267233,"DIS_CODE":0,"TOWNNAME":"永康區","LI":"永康里","LIN":"14鄰","STREET":"永中街","SECT":" ","MAREA":" ","LANE":"１００巷","ALLEY":" ","HOUSE_NO":"４０號","E_COORD97":174062.42999999999,"N_COORD97":2547092.5800000001,"ADDRESS":"永中街１００巷４０號","OBJECTID":267228},"geometry":{"x":174062.43000000063,"y":2547092.5800000019}},{"attributes":{"ID":267234,"DIS_CODE":0,"TOWNNAME":"永康區","LI":"甲頂里","LIN":"14鄰","STREET":"大武街","SECT":" ","MAREA":" ","LANE":"１８巷","ALLEY":" ","HOUSE_NO":"３號","E_COORD97":170319.75,"N_COORD97":2546662.8999999999,"ADDRESS":"大武街１８巷３號","OBJECTID":267229},"geometry":{"x":170319.75,"y":2546662.9000000041}},{"attributes":{"ID":267235,"DIS_CODE":0,"TOWNNAME":"永康區","LI":"永康里","LIN":"14鄰","STREET":"永中街","SECT":" ","MAREA":" ","LANE":"６０巷","ALLEY":" ","HOUSE_NO":"１２號","E_COORD97":173961.85000000001,"N_COORD97":2547120.1499999999,"ADDRESS":"永中街６０巷１２號","OBJECTID":267230},"geometry":{"x":173961.84999999963,"y":2547120.1500000022}},{"attributes":{"ID":267236,"DIS_CODE":0,"TOWNNAME":"永康區","LI":"正強里","LIN":"14鄰","STREET":"自強路","SECT":" ","MAREA":" ","LANE":"１８８巷","ALLEY":" ","HOUSE_NO":"３５號","E_COORD97":173223.22,"N_COORD97":2547374.0899999999,"ADDRESS":"自強路１８８巷３５號","OBJECTID":267231},"geometry":{"x":173223.22000000067,"y":2547374.0900000017}},{"attributes":{"ID":267237,"DIS_CODE":0,"TOWNNAME":"安南區","LI":"學東里","LIN":"14鄰","STREET":"公學路","SECT":"七段","MAREA":" ","LANE":"９７巷","ALLEY":" ","HOUSE_NO":"４２號","E_COORD97":161726.48000000001,"N_COORD97":2553295.1200000001,"ADDRESS":"公學路七段９７巷４２號","OBJECTID":267232},"geometry":{"x":161726.48000000231,"y":2553295.1200000029}},{"attributes":{"ID":267238,"DIS_CODE":0,"TOWNNAME":"六甲區","LI":"六甲里","LIN":"5鄰","STREET":"民權街","SECT":" ","MAREA":" ","LANE":"１８巷","ALLEY":" ","HOUSE_NO":"１９號","E_COORD97":183473.20999999999,"N_COORD97":2569692.02,"ADDRESS":"民權街１８巷１９號","OBJECTID":267233},"geometry":{"x":183473.20999999996,"y":2569692.0199999977}},{"attributes":{"ID":267239,"DIS_CODE":0,"TOWNNAME":"六甲區","LI":"六甲里","LIN":"5鄰","STREET":"民權街","SECT":" ","MAREA":" ","LANE":"１８巷","ALLEY":" ","HOUSE_NO":"１號","E_COORD97":183463.20000000001,"N_COORD97":2569655.3300000001,"ADDRESS":"民權街１８巷１號","OBJECTID":267234},"geometry":{"x":183463.20000000019,"y":2569655.3300000001}},{"attributes":{"ID":267240,"DIS_CODE":0,"TOWNNAME":"安南區","LI":"海南里","LIN":"14鄰","STREET":"府安路","SECT":"七段","MAREA":" ","LANE":"６６巷","ALLEY":" ","HOUSE_NO":"２１號","E_COORD97":165862.84,"N_COORD97":2545961.8900000001,"ADDRESS":"府安路七段６６巷２１號","OBJECTID":267235},"geometry":{"x":165862.83999999985,"y":2545961.8900000025}},{"attributes":{"ID":267241,"DIS_CODE":0,"TOWNNAME":"安南區","LI":"安順里","LIN":"14鄰","STREET":"總安街","SECT":"一段","MAREA":" ","LANE":"１４２巷","ALLEY":" ","HOUSE_NO":"１２號","E_COORD97":169624.64999999999,"N_COORD97":2550237.3799999999,"ADDRESS":"總安街一段１４２巷１２號","OBJECTID":267236},"geometry":{"x":169624.64999999944,"y":2550237.379999999}},{"attributes":{"ID":267242,"DIS_CODE":0,"TOWNNAME":"安南區","LI":"安順里","LIN":"14鄰","STREET":"總安街","SECT":"一段","MAREA":" ","LANE":"１４２巷","ALLEY":" ","HOUSE_NO":"１４號","E_COORD97":169624.97,"N_COORD97":2550241.3700000001,"ADDRESS":"總安街一段１４２巷１４號","OBJECTID":267237},"geometry":{"x":169624.96999999974,"y":2550241.3700000029}},{"attributes":{"ID":267243,"DIS_CODE":0,"TOWNNAME":"安南區","LI":"安順里","LIN":"14鄰","STREET":"總安街","SECT":"一段","MAREA":" ","LANE":"１４２巷","ALLEY":" ","HOUSE_NO":"１６號","E_COORD97":169624.81,"N_COORD97":2550246.0099999998,"ADDRESS":"總安街一段１４２巷１６號","OBJECTID":267238},"geometry":{"x":169624.81000000052,"y":2550246.0100000016}},{"attributes":{"ID":267244,"DIS_CODE":0,"TOWNNAME":"安南區","LI":"安順里","LIN":"14鄰","STREET":"總安街","SECT":"一段","MAREA":" ","LANE":"１４２巷","ALLEY":" ","HOUSE_NO":"１８號","E_COORD97":169624.97,"N_COORD97":2550251.4399999999,"ADDRESS":"總安街一段１４２巷１８號","OBJECTID":267239},"geometry":{"x":169624.96999999974,"y":2550251.4399999995}},{"attributes":{"ID":267245,"DIS_CODE":0,"TOWNNAME":"安南區","LI":"安順里","LIN":"14鄰","STREET":"總安街","SECT":"一段","MAREA":" ","LANE":"１４２巷","ALLEY":" ","HOUSE_NO":"２號","E_COORD97":169621.13,"N_COORD97":2550214.6099999999,"ADDRESS":"總安街一段１４２巷２號","OBJECTID":267240},"geometry":{"x":169621.13000000175,"y":2550214.6100000013}},{"attributes":{"ID":267246,"DIS_CODE":0,"TOWNNAME":"六甲區","LI":"六甲里","LIN":"5鄰","STREET":"民權街","SECT":" ","MAREA":" ","LANE":"１８巷","ALLEY":" ","HOUSE_NO":"２１號","E_COORD97":183474.60000000001,"N_COORD97":2569696.6499999999,"ADDRESS":"民權街１８巷２１號","OBJECTID":267241},"geometry":{"x":183474.60000000056,"y":2569696.6500000022}},{"attributes":{"ID":267247,"DIS_CODE":0,"TOWNNAME":"安南區","LI":"新順里","LIN":"14鄰","STREET":"安和路","SECT":"二段","MAREA":" ","LANE":"３１８巷","ALLEY":" ","HOUSE_NO":"１１３號","E_COORD97":170059.79999999999,"N_COORD97":2549281.0099999998,"ADDRESS":"安和路二段３１８巷１１３號","OBJECTID":267242},"geometry":{"x":170059.79999999981,"y":2549281.0099999998}},{"attributes":{"ID":267248,"DIS_CODE":0,"TOWNNAME":"安南區","LI":"新順里","LIN":"14鄰","STREET":"安和路","SECT":"二段","MAREA":" ","LANE":"３１８巷","ALLEY":" ","HOUSE_NO":"１２３號","E_COORD97":170079.41,"N_COORD97":2549272.8500000001,"ADDRESS":"安和路二段３１８巷１２３號","OBJECTID":267243},"geometry":{"x":170079.41000000108,"y":2549272.8499999996}},{"attributes":{"ID":267249,"DIS_CODE":0,"TOWNNAME":"安南區","LI":"新順里","LIN":"14鄰","STREET":"安和路","SECT":"二段","MAREA":" ","LANE":"３１８巷","ALLEY":" ","HOUSE_NO":"１３１號","E_COORD97":170114.28,"N_COORD97":2549262.6400000001,"ADDRESS":"安和路二段３１８巷１３１號","OBJECTID":267244},"geometry":{"x":170114.28000000119,"y":2549262.6400000025}},{"attributes":{"ID":267250,"DIS_CODE":0,"TOWNNAME":"安南區","LI":"新順里","LIN":"14鄰","STREET":"安和路","SECT":"二段","MAREA":" ","LANE":"３１８巷","ALLEY":" ","HOUSE_NO":"１５１號","E_COORD97":170234.04999999999,"N_COORD97":2549267.5899999999,"ADDRESS":"安和路二段３１８巷１５１號","OBJECTID":267245},"geometry":{"x":170234.05000000075,"y":2549267.5899999999}},{"attributes":{"ID":267251,"DIS_CODE":0,"TOWNNAME":"安南區","LI":"新順里","LIN":"14鄰","STREET":"安和路","SECT":"二段","MAREA":" ","LANE":"３１８巷","ALLEY":" ","HOUSE_NO":"５６號","E_COORD97":169905.54000000001,"N_COORD97":2549231.52,"ADDRESS":"安和路二段３１８巷５６號","OBJECTID":267246},"geometry":{"x":169905.54000000097,"y":2549231.5200000033}},{"attributes":{"ID":267252,"DIS_CODE":0,"TOWNNAME":"安南區","LI":"新順里","LIN":"14鄰","STREET":"安和路","SECT":"二段","MAREA":" ","LANE":"３１８巷","ALLEY":" ","HOUSE_NO":"６３之１號","E_COORD97":169914.48000000001,"N_COORD97":2549294.02,"ADDRESS":"安和路二段３１８巷６３之１號","OBJECTID":267247},"geometry":{"x":169914.48000000138,"y":2549294.0199999996}},{"attributes":{"ID":267253,"DIS_CODE":0,"TOWNNAME":"新化區","LI":"協興里","LIN":"14鄰","STREET":"太平街","SECT":" ","MAREA":" ","LANE":"１５０巷","ALLEY":" ","HOUSE_NO":"６９號","E_COORD97":178272.26999999999,"N_COORD97":2548773.25,"ADDRESS":"太平街１５０巷６９號","OBJECTID":267248},"geometry":{"x":178272.27000000048,"y":2548773.2500000019}},{"attributes":{"ID":267254,"DIS_CODE":0,"TOWNNAME":"新化區","LI":"協興里","LIN":"14鄰","STREET":"太平街","SECT":" ","MAREA":" ","LANE":"１５０巷","ALLEY":" ","HOUSE_NO":"１７號","E_COORD97":178331.87,"N_COORD97":2548740.25,"ADDRESS":"太平街１５０巷１７號","OBJECTID":267249},"geometry":{"x":178331.87000000104,"y":2548740.2500000019}},{"attributes":{"ID":267255,"DIS_CODE":0,"TOWNNAME":"新化區","LI":"協興里","LIN":"14鄰","STREET":"太平街","SECT":" ","MAREA":" ","LANE":"１５０巷","ALLEY":" ","HOUSE_NO":"５號","E_COORD97":178336.82000000001,"N_COORD97":2548717.25,"ADDRESS":"太平街１５０巷５號","OBJECTID":267250},"geometry":{"x":178336.82000000216,"y":2548717.25}},{"attributes":{"ID":267256,"DIS_CODE":0,"TOWNNAME":"新化區","LI":"知義里","LIN":"14鄰","STREET":"中正路","SECT":" ","MAREA":" ","LANE":"１２７巷","ALLEY":" ","HOUSE_NO":"１８號","E_COORD97":179047.45999999999,"N_COORD97":2547488.25,"ADDRESS":"中正路１２７巷１８號","OBJECTID":267251},"geometry":{"x":179047.46000000183,"y":2547488.2500000019}},{"attributes":{"ID":267257,"DIS_CODE":0,"TOWNNAME":"北區","LI":"五福里","LIN":"3鄰","STREET":"西門路","SECT":"三段","MAREA":" ","LANE":" ","ALLEY":" ","HOUSE_NO":"１３４號八樓之４","E_COORD97":168308.98000000001,"N_COORD97":2544716.5299999998,"ADDRESS":"西門路三段１３４號八樓之４","OBJECTID":267252},"geometry":{"x":168308.98000000138,"y":2544716.5300000012}},{"attributes":{"ID":267258,"DIS_CODE":0,"TOWNNAME":"新化區","LI":"知義里","LIN":"14鄰","STREET":"中正路","SECT":" ","MAREA":" ","LANE":"２００巷","ALLEY":" ","HOUSE_NO":"１３號","E_COORD97":179177.45999999999,"N_COORD97":2547610.25,"ADDRESS":"中正路２００巷１３號","OBJECTID":267253},"geometry":{"x":179177.45999999996,"y":2547610.2500000019}},{"attributes":{"ID":267259,"DIS_CODE":0,"TOWNNAME":"安南區","LI":"新順里","LIN":"14鄰","STREET":"安和路","SECT":"二段","MAREA":" ","LANE":"３１８巷","ALLEY":" ","HOUSE_NO":"８８號","E_COORD97":170005.23999999999,"N_COORD97":2549252.0600000001,"ADDRESS":"安和路二段３１８巷８８號","OBJECTID":267254},"geometry":{"x":170005.24000000022,"y":2549252.0600000005}},{"attributes":{"ID":267260,"DIS_CODE":0,"TOWNNAME":"南區","LI":"再興里","LIN":"14鄰","STREET":"金華路","SECT":"二段","MAREA":" ","LANE":"１００巷","ALLEY":" ","HOUSE_NO":"６號","E_COORD97":167169.54999999999,"N_COORD97":2542082.02,"ADDRESS":"金華路二段１００巷６號","OBJECTID":267255},"geometry":{"x":167169.54999999981,"y":2542082.0200000014}},{"attributes":{"ID":267261,"DIS_CODE":0,"TOWNNAME":"南區","LI":"再興里","LIN":"14鄰","STREET":"金華路","SECT":"二段","MAREA":" ","LANE":"１００巷","ALLEY":" ","HOUSE_NO":"７號","E_COORD97":167122.42999999999,"N_COORD97":2542099.3500000001,"ADDRESS":"金華路二段１００巷７號","OBJECTID":267256},"geometry":{"x":167122.43000000063,"y":2542099.3500000034}},{"attributes":{"ID":267262,"DIS_CODE":0,"TOWNNAME":"北區","LI":"五福里","LIN":"3鄰","STREET":"西門路","SECT":"三段","MAREA":" ","LANE":" ","ALLEY":" ","HOUSE_NO":"１３４號五樓之６","E_COORD97":168308.98000000001,"N_COORD97":2544716.5299999998,"ADDRESS":"西門路三段１３４號五樓之６","OBJECTID":267257},"geometry":{"x":168308.98000000138,"y":2544716.5300000012}},{"attributes":{"ID":267263,"DIS_CODE":0,"TOWNNAME":"北區","LI":"五福里","LIN":"3鄰","STREET":"西門路","SECT":"三段","MAREA":" ","LANE":" ","ALLEY":" ","HOUSE_NO":"１３４號六樓之１","E_COORD97":168308.98000000001,"N_COORD97":2544716.5299999998,"ADDRESS":"西門路三段１３４號六樓之１","OBJECTID":267258},"geometry":{"x":168308.98000000138,"y":2544716.5300000012}},{"attributes":{"ID":267264,"DIS_CODE":0,"TOWNNAME":"北區","LI":"五福里","LIN":"3鄰","STREET":"西門路","SECT":"三段","MAREA":" ","LANE":" ","ALLEY":" ","HOUSE_NO":"１３４號六樓之２","E_COORD97":168308.98000000001,"N_COORD97":2544716.5299999998,"ADDRESS":"西門路三段１３４號六樓之２","OBJECTID":267259},"geometry":{"x":168308.98000000138,"y":2544716.5300000012}},{"attributes":{"ID":267265,"DIS_CODE":0,"TOWNNAME":"南區","LI":"再興里","LIN":"14鄰","STREET":"金華路","SECT":"二段","MAREA":" ","LANE":"１００巷","ALLEY":" ","HOUSE_NO":"８號","E_COORD97":167178.56,"N_COORD97":2542082.02,"ADDRESS":"金華路二段１００巷８號","OBJECTID":267260},"geometry":{"x":167178.56000000052,"y":2542082.0200000014}},{"attributes":{"ID":267266,"DIS_CODE":0,"TOWNNAME":"東區","LI":"德光里","LIN":"14鄰","STREET":"崇德二街","SECT":" ","MAREA":" ","LANE":"７６巷","ALLEY":" ","HOUSE_NO":"２０號","E_COORD97":170195.91,"N_COORD97":2542353.7000000002,"ADDRESS":"崇德二街７６巷２０號","OBJECTID":267261},"geometry":{"x":170195.91000000108,"y":2542353.6999999993}},{"attributes":{"ID":267267,"DIS_CODE":0,"TOWNNAME":"仁德區","LI":"二行里","LIN":"14鄰","STREET":"中正西路","SECT":" ","MAREA":" ","LANE":"３５３巷","ALLEY":" ","HOUSE_NO":"２４號","E_COORD97":169813.45000000001,"N_COORD97":2535336.5,"ADDRESS":"中正西路３５３巷２４號","OBJECTID":267262},"geometry":{"x":169813.45000000019,"y":2535336.5}},{"attributes":{"ID":267268,"DIS_CODE":0,"TOWNNAME":"北區","LI":"五福里","LIN":"3鄰","STREET":"西門路","SECT":"三段","MAREA":" ","LANE":" ","ALLEY":" ","HOUSE_NO":"１３４號六樓之３","E_COORD97":168308.98000000001,"N_COORD97":2544716.5299999998,"ADDRESS":"西門路三段１３４號六樓之３","OBJECTID":267263},"geometry":{"x":168308.98000000138,"y":2544716.5300000012}},{"attributes":{"ID":267269,"DIS_CODE":0,"TOWNNAME":"仁德區","LI":"二行里","LIN":"14鄰","STREET":"行大街","SECT":" ","MAREA":" ","LANE":"１７２巷","ALLEY":" ","HOUSE_NO":"７２號","E_COORD97":169820.45999999999,"N_COORD97":2535227.5,"ADDRESS":"行大街１７２巷７２號","OBJECTID":267264},"geometry":{"x":169820.45999999903,"y":2535227.5000000019}},{"attributes":{"ID":267270,"DIS_CODE":0,"TOWNNAME":"仁德區","LI":"太子里","LIN":"14鄰","STREET":"長興路","SECT":" ","MAREA":" ","LANE":"８７巷","ALLEY":" ","HOUSE_NO":"２９之２號","E_COORD97":173995.85000000001,"N_COORD97":2543736.5499999998,"ADDRESS":"長興路８７巷２９之２號","OBJECTID":267265},"geometry":{"x":173995.84999999963,"y":2543736.5500000045}},{"attributes":{"ID":267271,"DIS_CODE":0,"TOWNNAME":"仁德區","LI":"太子里","LIN":"14鄰","STREET":"長興路","SECT":" ","MAREA":" ","LANE":"８７巷","ALLEY":" ","HOUSE_NO":"２７號","E_COORD97":173999.82999999999,"N_COORD97":2543782.75,"ADDRESS":"長興路８７巷２７號","OBJECTID":267266},"geometry":{"x":173999.83000000007,"y":2543782.7500000019}},{"attributes":{"ID":267272,"DIS_CODE":0,"TOWNNAME":"仁德區","LI":"仁義里","LIN":"14鄰","STREET":"義林路","SECT":" ","MAREA":" ","LANE":"２００巷","ALLEY":" ","HOUSE_NO":"５４號","E_COORD97":174702.79000000001,"N_COORD97":2541284.0099999998,"ADDRESS":"義林路２００巷５４號","OBJECTID":267267},"geometry":{"x":174702.79000000097,"y":2541284.0099999998}},{"attributes":{"ID":267273,"DIS_CODE":0,"TOWNNAME":"仁德區","LI":"後壁里","LIN":"34鄰","STREET":"德洋路","SECT":" ","MAREA":" ","LANE":"１８３巷","ALLEY":" ","HOUSE_NO":"３號","E_COORD97":172472.25,"N_COORD97":2539404.27,"ADDRESS":"德洋路１８３巷３號","OBJECTID":267268},"geometry":{"x":172472.25000000093,"y":2539404.2700000033}},{"attributes":{"ID":267274,"DIS_CODE":0,"TOWNNAME":"仁德區","LI":"保安里","LIN":"4鄰","STREET":"文賢路","SECT":"一段","MAREA":" ","LANE":" ","ALLEY":" ","HOUSE_NO":"８７８號","E_COORD97":171607.84,"N_COORD97":2536007.3199999998,"ADDRESS":"文賢路一段８７８號","OBJECTID":267269},"geometry":{"x":171607.83999999985,"y":2536007.3199999984}},{"attributes":{"ID":267275,"DIS_CODE":0,"TOWNNAME":"安南區","LI":"淵東里","LIN":"15鄰","STREET":"安中路","SECT":"三段","MAREA":" ","LANE":"４００巷","ALLEY":" ","HOUSE_NO":"１４７號","E_COORD97":165553.22,"N_COORD97":2550246.52,"ADDRESS":"安中路三段４００巷１４７號","OBJECTID":267270},"geometry":{"x":165553.21999999974,"y":2550246.5200000014}},{"attributes":{"ID":267276,"DIS_CODE":0,"TOWNNAME":"安南區","LI":"理想里","LIN":"15鄰","STREET":"大安街","SECT":" ","MAREA":" ","LANE":"１５９巷","ALLEY":" ","HOUSE_NO":"２號","E_COORD97":167318.20000000001,"N_COORD97":2548242.6000000001,"ADDRESS":"大安街１５９巷２號","OBJECTID":267271},"geometry":{"x":167318.20000000019,"y":2548242.5999999996}},{"attributes":{"ID":267277,"DIS_CODE":0,"TOWNNAME":"安南區","LI":"理想里","LIN":"15鄰","STREET":"大安街","SECT":" ","MAREA":" ","LANE":"１５９巷","ALLEY":" ","HOUSE_NO":"１４號","E_COORD97":167288.06,"N_COORD97":2548262.4100000001,"ADDRESS":"大安街１５９巷１４號","OBJECTID":267272},"geometry":{"x":167288.05999999959,"y":2548262.4100000001}},{"attributes":{"ID":267278,"DIS_CODE":0,"TOWNNAME":"安南區","LI":"理想里","LIN":"15鄰","STREET":"大安街","SECT":" ","MAREA":" ","LANE":"１４５巷","ALLEY":" ","HOUSE_NO":"２號","E_COORD97":167300.41,"N_COORD97":2548214.4500000002,"ADDRESS":"大安街１４５巷２號","OBJECTID":267273},"geometry":{"x":167300.41000000201,"y":2548214.450000003}},{"attributes":{"ID":267279,"DIS_CODE":0,"TOWNNAME":"仁德區","LI":"太子里","LIN":"14鄰","STREET":"長興路","SECT":" ","MAREA":" ","LANE":"８７巷","ALLEY":" ","HOUSE_NO":"２０號","E_COORD97":174051.42999999999,"N_COORD97":2543813,"ADDRESS":"長興路８７巷２０號","OBJECTID":267274},"geometry":{"x":174051.4299999997,"y":2543813}},{"attributes":{"ID":267280,"DIS_CODE":0,"TOWNNAME":"仁德區","LI":"後壁里","LIN":"14鄰","STREET":"德善路","SECT":" ","MAREA":" ","LANE":"１９８巷","ALLEY":" ","HOUSE_NO":"１２之３號","E_COORD97":173672.25,"N_COORD97":2538681.1899999999,"ADDRESS":"德善路１９８巷１２之３號","OBJECTID":267275},"geometry":{"x":173672.25000000093,"y":2538681.1899999995}},{"attributes":{"ID":267281,"DIS_CODE":0,"TOWNNAME":"永康區","LI":"正強里","LIN":"14鄰","STREET":"自強路","SECT":" ","MAREA":" ","LANE":"１８８巷","ALLEY":" ","HOUSE_NO":"３３號","E_COORD97":173222.88,"N_COORD97":2547386.2200000002,"ADDRESS":"自強路１８８巷３３號","OBJECTID":267276},"geometry":{"x":173222.87999999989,"y":2547386.2200000007}},{"attributes":{"ID":267282,"DIS_CODE":0,"TOWNNAME":"永康區","LI":"永康里","LIN":"14鄰","STREET":"永中街","SECT":" ","MAREA":" ","LANE":"６０巷","ALLEY":" ","HOUSE_NO":"８號","E_COORD97":173940.29000000001,"N_COORD97":2547127.4900000002,"ADDRESS":"永中街６０巷８號","OBJECTID":267277},"geometry":{"x":173940.29000000004,"y":2547127.4900000021}},{"attributes":{"ID":267283,"DIS_CODE":0,"TOWNNAME":"永康區","LI":"正強里","LIN":"14鄰","STREET":"自強路","SECT":" ","MAREA":" ","LANE":"１８８巷","ALLEY":" ","HOUSE_NO":"４７號","E_COORD97":173226.85000000001,"N_COORD97":2547347.5899999999,"ADDRESS":"自強路１８８巷４７號","OBJECTID":267278},"geometry":{"x":173226.85000000056,"y":2547347.5900000017}},{"attributes":{"ID":267284,"DIS_CODE":0,"TOWNNAME":"永康區","LI":"正強里","LIN":"14鄰","STREET":"自強路","SECT":" ","MAREA":" ","LANE":"１８８巷","ALLEY":" ","HOUSE_NO":"５１號","E_COORD97":173228.22,"N_COORD97":2547339.3399999999,"ADDRESS":"自強路１８８巷５１號","OBJECTID":267279},"geometry":{"x":173228.22000000067,"y":2547339.3399999999}},{"attributes":{"ID":267285,"DIS_CODE":0,"TOWNNAME":"永康區","LI":"大橋里","LIN":"14鄰","STREET":"大橋一街","SECT":" ","MAREA":" ","LANE":"７３巷","ALLEY":" ","HOUSE_NO":"１５號","E_COORD97":170889.73000000001,"N_COORD97":2546469.2400000002,"ADDRESS":"大橋一街７３巷１５號","OBJECTID":267280},"geometry":{"x":170889.73000000138,"y":2546469.2400000002}},{"attributes":{"ID":267286,"DIS_CODE":0,"TOWNNAME":"永康區","LI":"甲頂里","LIN":"14鄰","STREET":"大武街","SECT":" ","MAREA":" ","LANE":"１８巷","ALLEY":" ","HOUSE_NO":"４７號","E_COORD97":170418.14000000001,"N_COORD97":2546600.2400000002,"ADDRESS":"大武街１８巷４７號","OBJECTID":267281},"geometry":{"x":170418.1400000006,"y":2546600.2400000021}},{"attributes":{"ID":267287,"DIS_CODE":0,"TOWNNAME":"永康區","LI":"正強里","LIN":"14鄰","STREET":"自強路","SECT":" ","MAREA":" ","LANE":"１８８巷","ALLEY":" ","HOUSE_NO":"３７號","E_COORD97":173223.66,"N_COORD97":2547369.8399999999,"ADDRESS":"自強路１８８巷３７號","OBJECTID":267282},"geometry":{"x":173223.66000000108,"y":2547369.8399999999}},{"attributes":{"ID":267288,"DIS_CODE":0,"TOWNNAME":"永康區","LI":"二王里","LIN":"14鄰","STREET":"永二街","SECT":" ","MAREA":" ","LANE":"４６１巷","ALLEY":" ","HOUSE_NO":"３號","E_COORD97":172580.32000000001,"N_COORD97":2546655.48,"ADDRESS":"永二街４６１巷３號","OBJECTID":267283},"geometry":{"x":172580.32000000123,"y":2546655.4800000004}},{"attributes":{"ID":267289,"DIS_CODE":0,"TOWNNAME":"永康區","LI":"勝利里","LIN":"14鄰","STREET":"勝利街","SECT":" ","MAREA":" ","LANE":"７７巷","ALLEY":" ","HOUSE_NO":"４號","E_COORD97":171317.10000000001,"N_COORD97":2544779.0099999998,"ADDRESS":"勝利街７７巷４號","OBJECTID":267284},"geometry":{"x":171317.09999999963,"y":2544779.0099999998}},{"attributes":{"ID":267290,"DIS_CODE":0,"TOWNNAME":"永康區","LI":"尚頂里","LIN":"14鄰","STREET":"正南一街","SECT":" ","MAREA":" ","LANE":"１８１巷","ALLEY":" ","HOUSE_NO":"７號","E_COORD97":170649.32999999999,"N_COORD97":2547356.77,"ADDRESS":"正南一街１８１巷７號","OBJECTID":267285},"geometry":{"x":170649.33000000101,"y":2547356.7699999996}},{"attributes":{"ID":267291,"DIS_CODE":0,"TOWNNAME":"永康區","LI":"三民里","LIN":"14鄰","STREET":"和平路","SECT":" ","MAREA":" ","LANE":"２０６巷","ALLEY":" ","HOUSE_NO":"２２號","E_COORD97":174948.92999999999,"N_COORD97":2550547.5,"ADDRESS":"和平路２０６巷２２號","OBJECTID":267286},"geometry":{"x":174948.93000000063,"y":2550547.5000000037}},{"attributes":{"ID":267292,"DIS_CODE":0,"TOWNNAME":"永康區","LI":"網寮里","LIN":"14鄰","STREET":"永勝街","SECT":" ","MAREA":" ","LANE":"２４８巷","ALLEY":" ","HOUSE_NO":"２號","E_COORD97":173387.28,"N_COORD97":2546638.3399999999,"ADDRESS":"永勝街２４８巷２號","OBJECTID":267287},"geometry":{"x":173387.28000000119,"y":2546638.3399999999}},{"attributes":{"ID":267293,"DIS_CODE":0,"TOWNNAME":"永康區","LI":"勝利里","LIN":"14鄰","STREET":"勝利街","SECT":" ","MAREA":" ","LANE":"７７巷","ALLEY":" ","HOUSE_NO":"２３號","E_COORD97":171268.17999999999,"N_COORD97":2544772.0099999998,"ADDRESS":"勝利街７７巷２３號","OBJECTID":267288},"geometry":{"x":171268.18000000156,"y":2544772.0099999998}},{"attributes":{"ID":267294,"DIS_CODE":0,"TOWNNAME":"北區","LI":"正覺里","LIN":"3鄰","STREET":"西門路","SECT":"四段","MAREA":" ","LANE":" ","ALLEY":" ","HOUSE_NO":"３７４號六樓","E_COORD97":169016.69,"N_COORD97":2546089.8999999999,"ADDRESS":"西門路四段３７４號六樓","OBJECTID":267289},"geometry":{"x":169016.69000000134,"y":2546089.8999999985}},{"attributes":{"ID":267295,"DIS_CODE":0,"TOWNNAME":"仁德區","LI":"太子里","LIN":"10鄰","STREET":"長興路","SECT":" ","MAREA":" ","LANE":" ","ALLEY":" ","HOUSE_NO":"４０號","E_COORD97":174140.5,"N_COORD97":2543670.5,"ADDRESS":"長興路４０號","OBJECTID":267290},"geometry":{"x":174140.50000000093,"y":2543670.5}},{"attributes":{"ID":267296,"DIS_CODE":0,"TOWNNAME":"永康區","LI":"中興里","LIN":"14鄰","STREET":"中興街","SECT":" ","MAREA":" ","LANE":"６９巷","ALLEY":" ","HOUSE_NO":"３７號","E_COORD97":171953.48999999999,"N_COORD97":2545286.7799999998,"ADDRESS":"中興街６９巷３７號","OBJECTID":267291},"geometry":{"x":171953.49000000115,"y":2545286.7800000012}},{"attributes":{"ID":267297,"DIS_CODE":0,"TOWNNAME":"永康區","LI":"復興里","LIN":"14鄰","STREET":"復興路","SECT":" ","MAREA":" ","LANE":"２８２巷","ALLEY":" ","HOUSE_NO":"４號","E_COORD97":172376.22,"N_COORD97":2544364.5299999998,"ADDRESS":"復興路２８２巷４號","OBJECTID":267292},"geometry":{"x":172376.21999999974,"y":2544364.5299999993}},{"attributes":{"ID":267298,"DIS_CODE":0,"TOWNNAME":"永康區","LI":"復華里","LIN":"14鄰","STREET":"國華街","SECT":" ","MAREA":" ","LANE":"９６巷","ALLEY":" ","HOUSE_NO":"２０號","E_COORD97":172903.12,"N_COORD97":2545917.75,"ADDRESS":"國華街９６巷２０號","OBJECTID":267293},"geometry":{"x":172903.11999999918,"y":2545917.7500000037}},{"attributes":{"ID":267299,"DIS_CODE":0,"TOWNNAME":"安南區","LI":"學東里","LIN":"14鄰","STREET":"公學路","SECT":"七段","MAREA":" ","LANE":"９７巷","ALLEY":" ","HOUSE_NO":"４２之７５號","E_COORD97":161698.10999999999,"N_COORD97":2553254.79,"ADDRESS":"公學路七段９７巷４２之７５號","OBJECTID":267294},"geometry":{"x":161698.11000000034,"y":2553254.790000001}},{"attributes":{"ID":267300,"DIS_CODE":0,"TOWNNAME":"南區","LI":"明亮里","LIN":"14鄰","STREET":"金華路","SECT":"一段","MAREA":" ","LANE":"３５２巷","ALLEY":" ","HOUSE_NO":"１１３號","E_COORD97":167282.54999999999,"N_COORD97":2541043.3300000001,"ADDRESS":"金華路一段３５２巷１１３號","OBJECTID":267295},"geometry":{"x":167282.55000000075,"y":2541043.3300000019}},{"attributes":{"ID":267301,"DIS_CODE":0,"TOWNNAME":"南區","LI":"明亮里","LIN":"14鄰","STREET":"金華路","SECT":"一段","MAREA":" ","LANE":"３５２巷","ALLEY":" ","HOUSE_NO":"１１５號","E_COORD97":167284.95999999999,"N_COORD97":2541039.7200000002,"ADDRESS":"金華路一段３５２巷１１５號","OBJECTID":267296},"geometry":{"x":167284.96000000089,"y":2541039.7199999988}},{"attributes":{"ID":267302,"DIS_CODE":0,"TOWNNAME":"安南區","LI":"總頭里","LIN":"9鄰","STREET":"長溪路","SECT":"二段","MAREA":" ","LANE":"５８１巷","ALLEY":" ","HOUSE_NO":"４２號","E_COORD97":168130.84539500001,"N_COORD97":2550630.1472499999,"ADDRESS":"長溪路二段５８１巷４２號","OBJECTID":267297},"geometry":{"x":168130.84539499972,"y":2550630.1472540013}},{"attributes":{"ID":267303,"DIS_CODE":0,"TOWNNAME":"南區","LI":"明亮里","LIN":"14鄰","STREET":"金華路","SECT":"一段","MAREA":" ","LANE":"３５２巷","ALLEY":" ","HOUSE_NO":"１１７號","E_COORD97":167286.97,"N_COORD97":2541036.5099999998,"ADDRESS":"金華路一段３５２巷１１７號","OBJECTID":267298},"geometry":{"x":167286.96999999974,"y":2541036.5099999998}},{"attributes":{"ID":267304,"DIS_CODE":0,"TOWNNAME":"南區","LI":"明亮里","LIN":"14鄰","STREET":"金華路","SECT":"一段","MAREA":" ","LANE":"３５２巷","ALLEY":" ","HOUSE_NO":"１１９號","E_COORD97":167290.19,"N_COORD97":2541033.2999999998,"ADDRESS":"金華路一段３５２巷１１９號","OBJECTID":267299},"geometry":{"x":167290.18999999948,"y":2541033.3000000026}},{"attributes":{"ID":267305,"DIS_CODE":0,"TOWNNAME":"南區","LI":"明亮里","LIN":"14鄰","STREET":"金華路","SECT":"一段","MAREA":" ","LANE":"３５２巷","ALLEY":" ","HOUSE_NO":"１２１號","E_COORD97":167292.20000000001,"N_COORD97":2541030.4900000002,"ADDRESS":"金華路一段３５２巷１２１號","OBJECTID":267300},"geometry":{"x":167292.20000000112,"y":2541030.4900000002}},{"attributes":{"ID":267306,"DIS_CODE":0,"TOWNNAME":"南區","LI":"明亮里","LIN":"14鄰","STREET":"金華路","SECT":"一段","MAREA":" ","LANE":"３５２巷","ALLEY":" ","HOUSE_NO":"１２３號","E_COORD97":167294.60999999999,"N_COORD97":2541027.2799999998,"ADDRESS":"金華路一段３５２巷１２３號","OBJECTID":267301},"geometry":{"x":167294.61000000127,"y":2541027.2799999993}},{"attributes":{"ID":267307,"DIS_CODE":0,"TOWNNAME":"南區","LI":"明亮里","LIN":"14鄰","STREET":"金華路","SECT":"一段","MAREA":" ","LANE":"３５２巷","ALLEY":" ","HOUSE_NO":"１２５號","E_COORD97":167299.03,"N_COORD97":2541024.0699999998,"ADDRESS":"金華路一段３５２巷１２５號","OBJECTID":267302},"geometry":{"x":167299.03000000026,"y":2541024.0700000022}},{"attributes":{"ID":267308,"DIS_CODE":0,"TOWNNAME":"南區","LI":"明亮里","LIN":"14鄰","STREET":"金華路","SECT":"一段","MAREA":" ","LANE":"３５２巷","ALLEY":" ","HOUSE_NO":"１２７號","E_COORD97":167301.04000000001,"N_COORD97":2541021.6699999999,"ADDRESS":"金華路一段３５２巷１２７號","OBJECTID":267303},"geometry":{"x":167301.0400000019,"y":2541021.6699999999}},{"attributes":{"ID":267309,"DIS_CODE":0,"TOWNNAME":"南區","LI":"明亮里","LIN":"14鄰","STREET":"金華路","SECT":"一段","MAREA":" ","LANE":"３５２巷","ALLEY":" ","HOUSE_NO":"１２９號","E_COORD97":167305.45000000001,"N_COORD97":2541018.0499999998,"ADDRESS":"金華路一段３５２巷１２９號","OBJECTID":267304},"geometry":{"x":167305.45000000112,"y":2541018.0500000026}},{"attributes":{"ID":267310,"DIS_CODE":0,"TOWNNAME":"南區","LI":"明亮里","LIN":"14鄰","STREET":"金華路","SECT":"一段","MAREA":" ","LANE":"３５２巷","ALLEY":" ","HOUSE_NO":"１３１號","E_COORD97":167308.67000000001,"N_COORD97":2541015.6499999999,"ADDRESS":"金華路一段３５２巷１３１號","OBJECTID":267305},"geometry":{"x":167308.67000000179,"y":2541015.6500000004}},{"attributes":{"ID":267311,"DIS_CODE":0,"TOWNNAME":"南區","LI":"明亮里","LIN":"14鄰","STREET":"金華路","SECT":"一段","MAREA":" ","LANE":"３５２巷","ALLEY":" ","HOUSE_NO":"１４３號","E_COORD97":167330.73000000001,"N_COORD97":2540993.7000000002,"ADDRESS":"金華路一段３５２巷１４３號","OBJECTID":267306},"geometry":{"x":167330.73000000231,"y":2540993.6999999993}},{"attributes":{"ID":267312,"DIS_CODE":0,"TOWNNAME":"南區","LI":"明亮里","LIN":"14鄰","STREET":"金華路","SECT":"一段","MAREA":" ","LANE":"３５２巷","ALLEY":" ","HOUSE_NO":"１４５號","E_COORD97":167332.34,"N_COORD97":2540990.4900000002,"ADDRESS":"金華路一段３５２巷１４５號","OBJECTID":267307},"geometry":{"x":167332.33999999985,"y":2540990.4900000021}},{"attributes":{"ID":267313,"DIS_CODE":0,"TOWNNAME":"南區","LI":"明興里","LIN":"14鄰","STREET":"金華路","SECT":"一段","MAREA":" ","LANE":"８巷","ALLEY":" ","HOUSE_NO":"１０號","E_COORD97":167015.16,"N_COORD97":2540298.5899999999,"ADDRESS":"金華路一段８巷１０號","OBJECTID":267308},"geometry":{"x":167015.16000000015,"y":2540298.5900000017}},{"attributes":{"ID":267314,"DIS_CODE":0,"TOWNNAME":"北區","LI":"元寶里","LIN":"3鄰","STREET":"北園街","SECT":" ","MAREA":" ","LANE":"８０巷","ALLEY":" ","HOUSE_NO":"６８號二樓之１","E_COORD97":170404.51999999999,"N_COORD97":2545885.3300000001,"ADDRESS":"北園街８０巷６８號二樓之１","OBJECTID":267309},"geometry":{"x":170404.52000000142,"y":2545885.3300000001}},{"attributes":{"ID":267315,"DIS_CODE":0,"TOWNNAME":"中西區","LI":"西湖里","LIN":"34鄰","STREET":"西湖街","SECT":" ","MAREA":" ","LANE":" ","ALLEY":" ","HOUSE_NO":"１５６號","E_COORD97":166363.95000000001,"N_COORD97":2544916.8799999999,"ADDRESS":"西湖街１５６號","OBJECTID":267310},"geometry":{"x":166363.95000000019,"y":2544916.8800000008}},{"attributes":{"ID":267316,"DIS_CODE":0,"TOWNNAME":"東區","LI":"大福里","LIN":"4鄰","STREET":"立德二路","SECT":" ","MAREA":" ","LANE":" ","ALLEY":" ","HOUSE_NO":"２０號","E_COORD97":169497.29000000001,"N_COORD97":2541716.6099999999,"ADDRESS":"立德二路２０號","OBJECTID":267311},"geometry":{"x":169497.29000000004,"y":2541716.6099999994}},{"attributes":{"ID":267317,"DIS_CODE":0,"TOWNNAME":"南區","LI":"建南里","LIN":"17鄰","STREET":"明興路","SECT":" ","MAREA":" ","LANE":" ","ALLEY":" ","HOUSE_NO":"３７號","E_COORD97":166797.64000000001,"N_COORD97":2540107.27,"ADDRESS":"明興路３７號","OBJECTID":267312},"geometry":{"x":166797.63999999966,"y":2540107.2700000014}},{"attributes":{"ID":267318,"DIS_CODE":0,"TOWNNAME":"東區","LI":"東光里","LIN":"14鄰","STREET":"莊敬路","SECT":" ","MAREA":" ","LANE":"８１巷","ALLEY":" ","HOUSE_NO":"２號","E_COORD97":171375.20999999999,"N_COORD97":2543854.9900000002,"ADDRESS":"莊敬路８１巷２號","OBJECTID":267313},"geometry":{"x":171375.21000000089,"y":2543854.9900000039}},{"attributes":{"ID":267319,"DIS_CODE":0,"TOWNNAME":"東區","LI":"東光里","LIN":"14鄰","STREET":"莊敬路","SECT":" ","MAREA":" ","LANE":"８１巷","ALLEY":" ","HOUSE_NO":"４號","E_COORD97":171379.23000000001,"N_COORD97":2543851.98,"ADDRESS":"莊敬路８１巷４號","OBJECTID":267314},"geometry":{"x":171379.23000000138,"y":2543851.9800000042}},{"attributes":{"ID":267320,"DIS_CODE":0,"TOWNNAME":"東區","LI":"東光里","LIN":"14鄰","STREET":"莊敬路","SECT":" ","MAREA":" ","LANE":"８１巷","ALLEY":" ","HOUSE_NO":"６號","E_COORD97":171383.44,"N_COORD97":2543854.9900000002,"ADDRESS":"莊敬路８１巷６號","OBJECTID":267315},"geometry":{"x":171383.44000000041,"y":2543854.9900000039}},{"attributes":{"ID":267321,"DIS_CODE":0,"TOWNNAME":"東區","LI":"東光里","LIN":"14鄰","STREET":"莊敬路","SECT":" ","MAREA":" ","LANE":"８１巷","ALLEY":" ","HOUSE_NO":"８號","E_COORD97":171387.45999999999,"N_COORD97":2543851.98,"ADDRESS":"莊敬路８１巷８號","OBJECTID":267316},"geometry":{"x":171387.46000000089,"y":2543851.9800000042}},{"attributes":{"ID":267322,"DIS_CODE":0,"TOWNNAME":"東區","LI":"東光里","LIN":"14鄰","STREET":"莊敬路","SECT":" ","MAREA":" ","LANE":"８１巷","ALLEY":" ","HOUSE_NO":"１０號","E_COORD97":171375.70999999999,"N_COORD97":2543838.4399999999,"ADDRESS":"莊敬路８１巷１０號","OBJECTID":267317},"geometry":{"x":171375.71000000089,"y":2543838.4400000013}},{"attributes":{"ID":267323,"DIS_CODE":0,"TOWNNAME":"東區","LI":"東光里","LIN":"14鄰","STREET":"莊敬路","SECT":" ","MAREA":" ","LANE":"８１巷","ALLEY":" ","HOUSE_NO":"１２號","E_COORD97":171400.51000000001,"N_COORD97":2543836.4300000002,"ADDRESS":"莊敬路８１巷１２號","OBJECTID":267318},"geometry":{"x":171400.51000000071,"y":2543836.4299999997}},{"attributes":{"ID":267324,"DIS_CODE":0,"TOWNNAME":"東區","LI":"東光里","LIN":"14鄰","STREET":"莊敬路","SECT":" ","MAREA":" ","LANE":"８１巷","ALLEY":" ","HOUSE_NO":"１４號","E_COORD97":171397.70000000001,"N_COORD97":2543850.6800000002,"ADDRESS":"莊敬路８１巷１４號","OBJECTID":267319},"geometry":{"x":171397.70000000112,"y":2543850.6800000016}},{"attributes":{"ID":267325,"DIS_CODE":0,"TOWNNAME":"東區","LI":"富強里","LIN":"14鄰","STREET":"裕農路","SECT":" ","MAREA":" ","LANE":"２８８巷","ALLEY":" ","HOUSE_NO":"１５９號","E_COORD97":171080.62,"N_COORD97":2542873.7200000002,"ADDRESS":"裕農路２８８巷１５９號","OBJECTID":267320},"geometry":{"x":171080.62000000011,"y":2542873.7200000007}},{"attributes":{"ID":267326,"DIS_CODE":0,"TOWNNAME":"東區","LI":"富強里","LIN":"14鄰","STREET":"裕農路","SECT":" ","MAREA":" ","LANE":"２８８巷","ALLEY":" ","HOUSE_NO":"１６１號","E_COORD97":171080.45999999999,"N_COORD97":2542870.52,"ADDRESS":"裕農路２８８巷１６１號","OBJECTID":267321},"geometry":{"x":171080.46000000089,"y":2542870.5199999996}},{"attributes":{"ID":267327,"DIS_CODE":0,"TOWNNAME":"東區","LI":"富強里","LIN":"14鄰","STREET":"裕農路","SECT":" ","MAREA":" ","LANE":"２８８巷","ALLEY":" ","HOUSE_NO":"１４３號","E_COORD97":171079.97,"N_COORD97":2542908.4900000002,"ADDRESS":"裕農路２８８巷１４３號","OBJECTID":267322},"geometry":{"x":171079.97000000067,"y":2542908.4900000002}},{"attributes":{"ID":267328,"DIS_CODE":0,"TOWNNAME":"東區","LI":"富強里","LIN":"14鄰","STREET":"裕農路","SECT":" ","MAREA":" ","LANE":"２８８巷","ALLEY":" ","HOUSE_NO":"１４１號","E_COORD97":171080.28,"N_COORD97":2542912.21,"ADDRESS":"裕農路２８８巷１４１號","OBJECTID":267323},"geometry":{"x":171080.28000000119,"y":2542912.2100000028}},{"attributes":{"ID":267329,"DIS_CODE":0,"TOWNNAME":"東區","LI":"富強里","LIN":"14鄰","STREET":"裕農路","SECT":" ","MAREA":" ","LANE":"２８８巷","ALLEY":" ","HOUSE_NO":"１３９號","E_COORD97":171080.07000000001,"N_COORD97":2542916.1400000001,"ADDRESS":"裕農路２８８巷１３９號","OBJECTID":267324},"geometry":{"x":171080.07000000123,"y":2542916.1400000025}},{"attributes":{"ID":267330,"DIS_CODE":0,"TOWNNAME":"東區","LI":"富強里","LIN":"14鄰","STREET":"裕農路","SECT":" ","MAREA":" ","LANE":"２８８巷","ALLEY":" ","HOUSE_NO":"１３７號","E_COORD97":171075.39000000001,"N_COORD97":2542939.3799999999,"ADDRESS":"裕農路２８８巷１３７號","OBJECTID":267325},"geometry":{"x":171075.3900000006,"y":2542939.3800000008}},{"attributes":{"ID":267331,"DIS_CODE":0,"TOWNNAME":"南區","LI":"郡南里","LIN":"14鄰","STREET":"永興三街","SECT":" ","MAREA":" ","LANE":"４５巷","ALLEY":" ","HOUSE_NO":"２號","E_COORD97":167366.22,"N_COORD97":2540576.8900000001,"ADDRESS":"永興三街４５巷２號","OBJECTID":267326},"geometry":{"x":167366.22000000067,"y":2540576.8900000006}},{"attributes":{"ID":267332,"DIS_CODE":0,"TOWNNAME":"東區","LI":"大智里","LIN":"14鄰","STREET":"德東街","SECT":" ","MAREA":" ","LANE":"１３６巷","ALLEY":" ","HOUSE_NO":"５５號","E_COORD97":171235.84,"N_COORD97":2540106.2200000002,"ADDRESS":"德東街１３６巷５５號","OBJECTID":267327},"geometry":{"x":171235.84000000078,"y":2540106.2200000007}},{"attributes":{"ID":267333,"DIS_CODE":0,"TOWNNAME":"東區","LI":"大智里","LIN":"14鄰","STREET":"德東街","SECT":" ","MAREA":" ","LANE":"１３６巷","ALLEY":" ","HOUSE_NO":"５３號","E_COORD97":171235.01000000001,"N_COORD97":2540118.7999999998,"ADDRESS":"德東街１３６巷５３號","OBJECTID":267328},"geometry":{"x":171235.00999999978,"y":2540118.8000000026}},{"attributes":{"ID":267334,"DIS_CODE":0,"TOWNNAME":"東區","LI":"大智里","LIN":"14鄰","STREET":"德東街","SECT":" ","MAREA":" ","LANE":"１３６巷","ALLEY":" ","HOUSE_NO":"５１號","E_COORD97":171228.54999999999,"N_COORD97":2540118.4700000002,"ADDRESS":"德東街１３６巷５１號","OBJECTID":267329},"geometry":{"x":171228.55000000168,"y":2540118.4700000007}},{"attributes":{"ID":267335,"DIS_CODE":0,"TOWNNAME":"東區","LI":"大智里","LIN":"14鄰","STREET":"德東街","SECT":" ","MAREA":" ","LANE":"１３６巷","ALLEY":" ","HOUSE_NO":"４９號","E_COORD97":171223.09,"N_COORD97":2540117.98,"ADDRESS":"德東街１３６巷４９號","OBJECTID":267330},"geometry":{"x":171223.08999999892,"y":2540117.9800000004}},{"attributes":{"ID":267336,"DIS_CODE":0,"TOWNNAME":"東區","LI":"大智里","LIN":"14鄰","STREET":"德東街","SECT":" ","MAREA":" ","LANE":"１３６巷","ALLEY":" ","HOUSE_NO":"６１號","E_COORD97":171218.94,"N_COORD97":2540104.5600000001,"ADDRESS":"德東街１３６巷６１號","OBJECTID":267331},"geometry":{"x":171218.94000000041,"y":2540104.5600000005}},{"attributes":{"ID":267337,"DIS_CODE":0,"TOWNNAME":"東區","LI":"大智里","LIN":"14鄰","STREET":"德東街","SECT":" ","MAREA":" ","LANE":"１３６巷","ALLEY":" ","HOUSE_NO":"４７號","E_COORD97":171218.60999999999,"N_COORD97":2540117.6499999999,"ADDRESS":"德東街１３６巷４７號","OBJECTID":267332},"geometry":{"x":171218.6100000022,"y":2540117.6499999985}},{"attributes":{"ID":267338,"DIS_CODE":0,"TOWNNAME":"東區","LI":"大智里","LIN":"14鄰","STREET":"德東街","SECT":" ","MAREA":" ","LANE":"１３６巷","ALLEY":" ","HOUSE_NO":"５９號","E_COORD97":171224.25,"N_COORD97":2540105.5499999998,"ADDRESS":"德東街１３６巷５９號","OBJECTID":267333},"geometry":{"x":171224.25000000093,"y":2540105.5500000045}},{"attributes":{"ID":267339,"DIS_CODE":0,"TOWNNAME":"東區","LI":"大智里","LIN":"14鄰","STREET":"德東街","SECT":" ","MAREA":" ","LANE":"１３６巷","ALLEY":" ","HOUSE_NO":"５７號","E_COORD97":171229.70999999999,"N_COORD97":2540106.0499999998,"ADDRESS":"德東街１３６巷５７號","OBJECTID":267334},"geometry":{"x":171229.71000000089,"y":2540106.0500000026}},{"attributes":{"ID":267340,"DIS_CODE":0,"TOWNNAME":"新市區","LI":"港墘里","LIN":"14鄰","STREET":"長安街","SECT":" ","MAREA":" ","LANE":"３６巷","ALLEY":" ","HOUSE_NO":"２７號","E_COORD97":178279.42999999999,"N_COORD97":2552764.0699999998,"ADDRESS":"長安街３６巷２７號","OBJECTID":267335},"geometry":{"x":178279.43000000156,"y":2552764.0700000003}},{"attributes":{"ID":267341,"DIS_CODE":0,"TOWNNAME":"新市區","LI":"港墘里","LIN":"14鄰","STREET":"長安街","SECT":" ","MAREA":" ","LANE":"３６巷","ALLEY":" ","HOUSE_NO":"１３號","E_COORD97":178286.67999999999,"N_COORD97":2552727.0699999998,"ADDRESS":"長安街３６巷１３號","OBJECTID":267336},"geometry":{"x":178286.68000000063,"y":2552727.070000004}},{"attributes":{"ID":267342,"DIS_CODE":0,"TOWNNAME":"新市區","LI":"新市里","LIN":"14鄰","STREET":"中正路","SECT":" ","MAREA":" ","LANE":"３０１巷","ALLEY":" ","HOUSE_NO":"１２號","E_COORD97":177590.12,"N_COORD97":2553287.75,"ADDRESS":"中正路３０１巷１２號","OBJECTID":267337},"geometry":{"x":177590.12000000011,"y":2553287.75}},{"attributes":{"ID":267343,"DIS_CODE":0,"TOWNNAME":"新市區","LI":"新市里","LIN":"14鄰","STREET":"中正路","SECT":" ","MAREA":" ","LANE":"３２３巷","ALLEY":" ","HOUSE_NO":"１７之１號","E_COORD97":177653.82000000001,"N_COORD97":2553347.5499999998,"ADDRESS":"中正路３２３巷１７之１號","OBJECTID":267338},"geometry":{"x":177653.82000000123,"y":2553347.5500000007}},{"attributes":{"ID":267344,"DIS_CODE":0,"TOWNNAME":"新市區","LI":"港墘里","LIN":"14鄰","STREET":"長安街","SECT":" ","MAREA":" ","LANE":"３６巷","ALLEY":" ","HOUSE_NO":"１０之１號","E_COORD97":178303.73999999999,"N_COORD97":2552743.0699999998,"ADDRESS":"長安街３６巷１０之１號","OBJECTID":267339},"geometry":{"x":178303.74000000115,"y":2552743.0700000003}},{"attributes":{"ID":267345,"DIS_CODE":0,"TOWNNAME":"安南區","LI":"安西里","LIN":"14鄰","STREET":"安和路","SECT":"一段","MAREA":" ","LANE":"１５９巷","ALLEY":" ","HOUSE_NO":"８６號","E_COORD97":169202.20000000001,"N_COORD97":2547878.6699999999,"ADDRESS":"安和路一段１５９巷８６號","OBJECTID":267340},"geometry":{"x":169202.20000000205,"y":2547878.6700000018}},{"attributes":{"ID":267346,"DIS_CODE":0,"TOWNNAME":"中西區","LI":"小西里","LIN":"14鄰","STREET":"府前路","SECT":"一段","MAREA":" ","LANE":"３５９巷","ALLEY":" ","HOUSE_NO":"１８號","E_COORD97":167897.20999999999,"N_COORD97":2543350.04,"ADDRESS":"府前路一段３５９巷１８號","OBJECTID":267341},"geometry":{"x":167897.21000000089,"y":2543350.040000001}},{"attributes":{"ID":267347,"DIS_CODE":0,"TOWNNAME":"中西區","LI":"小西里","LIN":"14鄰","STREET":"府前路","SECT":"一段","MAREA":" ","LANE":"３５９巷","ALLEY":" ","HOUSE_NO":"２２號","E_COORD97":167900.48000000001,"N_COORD97":2543374.7799999998,"ADDRESS":"府前路一段３５９巷２２號","OBJECTID":267342},"geometry":{"x":167900.48000000138,"y":2543374.7800000012}},{"attributes":{"ID":267348,"DIS_CODE":0,"TOWNNAME":"東區","LI":"圍下里","LIN":"13鄰","STREET":"衛民街","SECT":" ","MAREA":" ","LANE":" ","ALLEY":" ","HOUSE_NO":"１號之１","E_COORD97":169333.59,"N_COORD97":2543691.3599999999,"ADDRESS":"衛民街１號之１","OBJECTID":267343},"geometry":{"x":169333.59000000078,"y":2543691.3599999994}},{"attributes":{"ID":267349,"DIS_CODE":0,"TOWNNAME":"中西區","LI":"大南里","LIN":"14鄰","STREET":"樹林街","SECT":"二段","MAREA":" ","LANE":"１２５巷","ALLEY":" ","HOUSE_NO":"１２號","E_COORD97":168235.64000000001,"N_COORD97":2542939.3100000001,"ADDRESS":"樹林街二段１２５巷１２號","OBJECTID":267344},"geometry":{"x":168235.63999999873,"y":2542939.3100000024}},{"attributes":{"ID":267350,"DIS_CODE":0,"TOWNNAME":"中西區","LI":"大南里","LIN":"14鄰","STREET":"樹林街","SECT":"二段","MAREA":" ","LANE":"１２５巷","ALLEY":" ","HOUSE_NO":"１４號","E_COORD97":168224.72,"N_COORD97":2542941.4199999999,"ADDRESS":"樹林街二段１２５巷１４號","OBJECTID":267345},"geometry":{"x":168224.71999999974,"y":2542941.4200000018}},{"attributes":{"ID":267351,"DIS_CODE":0,"TOWNNAME":"中西區","LI":"大南里","LIN":"14鄰","STREET":"樹林街","SECT":"二段","MAREA":" ","LANE":"１２５巷","ALLEY":" ","HOUSE_NO":"１７號","E_COORD97":168221.98000000001,"N_COORD97":2542921.79,"ADDRESS":"樹林街二段１２５巷１７號","OBJECTID":267346},"geometry":{"x":168221.98000000045,"y":2542921.7899999991}},{"attributes":{"ID":267352,"DIS_CODE":0,"TOWNNAME":"中西區","LI":"大南里","LIN":"14鄰","STREET":"樹林街","SECT":"二段","MAREA":" ","LANE":"１２５巷","ALLEY":" ","HOUSE_NO":"１９號","E_COORD97":168213.45000000001,"N_COORD97":2542922.77,"ADDRESS":"樹林街二段１２５巷１９號","OBJECTID":267347},"geometry":{"x":168213.45000000019,"y":2542922.7699999996}},{"attributes":{"ID":267353,"DIS_CODE":0,"TOWNNAME":"中西區","LI":"大南里","LIN":"14鄰","STREET":"樹林街","SECT":"二段","MAREA":" ","LANE":"１２５巷","ALLEY":" ","HOUSE_NO":"１號","E_COORD97":168254.66,"N_COORD97":2542918.2000000002,"ADDRESS":"樹林街二段１２５巷１號","OBJECTID":267348},"geometry":{"x":168254.65999999922,"y":2542918.2000000011}},{"attributes":{"ID":267354,"DIS_CODE":0,"TOWNNAME":"中西區","LI":"大南里","LIN":"14鄰","STREET":"樹林街","SECT":"二段","MAREA":" ","LANE":"１２５巷","ALLEY":" ","HOUSE_NO":"２１號","E_COORD97":168205.35000000001,"N_COORD97":2542925.23,"ADDRESS":"樹林街二段１２５巷２１號","OBJECTID":267349},"geometry":{"x":168205.3499999987,"y":2542925.2300000023}},{"attributes":{"ID":267355,"DIS_CODE":0,"TOWNNAME":"中西區","LI":"大南里","LIN":"14鄰","STREET":"樹林街","SECT":"二段","MAREA":" ","LANE":"１２５巷","ALLEY":" ","HOUSE_NO":"２２號","E_COORD97":168202.53,"N_COORD97":2542945.6400000001,"ADDRESS":"樹林街二段１２５巷２２號","OBJECTID":267350},"geometry":{"x":168202.53000000026,"y":2542945.6399999987}},{"attributes":{"ID":267356,"DIS_CODE":0,"TOWNNAME":"中西區","LI":"大南里","LIN":"14鄰","STREET":"樹林街","SECT":"二段","MAREA":" ","LANE":"１２５巷","ALLEY":" ","HOUSE_NO":"２９號","E_COORD97":168192.67000000001,"N_COORD97":2542938.9500000002,"ADDRESS":"樹林街二段１２５巷２９號","OBJECTID":267351},"geometry":{"x":168192.66999999993,"y":2542938.950000003}},{"attributes":{"ID":267357,"DIS_CODE":0,"TOWNNAME":"中西區","LI":"大南里","LIN":"14鄰","STREET":"樹林街","SECT":"二段","MAREA":" ","LANE":"１２５巷","ALLEY":" ","HOUSE_NO":"２號","E_COORD97":168259.95000000001,"N_COORD97":2542935.4399999999,"ADDRESS":"樹林街二段１２５巷２號","OBJECTID":267352},"geometry":{"x":168259.95000000112,"y":2542935.4399999995}},{"attributes":{"ID":267358,"DIS_CODE":0,"TOWNNAME":"中西區","LI":"大南里","LIN":"14鄰","STREET":"樹林街","SECT":"二段","MAREA":" ","LANE":"１２５巷","ALLEY":" ","HOUSE_NO":"３３號","E_COORD97":168188.79000000001,"N_COORD97":2542951.6200000001,"ADDRESS":"樹林街二段１２５巷３３號","OBJECTID":267353},"geometry":{"x":168188.79000000004,"y":2542951.620000001}},{"attributes":{"ID":267359,"DIS_CODE":0,"TOWNNAME":"安南區","LI":"淵中里","LIN":"14鄰","STREET":"安中路","SECT":"四段","MAREA":" ","LANE":"１５４巷","ALLEY":" ","HOUSE_NO":"９６號","E_COORD97":165105.88,"N_COORD97":2550175.2799999998,"ADDRESS":"安中路四段１５４巷９６號","OBJECTID":267354},"geometry":{"x":165105.87999999989,"y":2550175.2800000031}},{"attributes":{"ID":267360,"DIS_CODE":0,"TOWNNAME":"安南區","LI":"淵中里","LIN":"14鄰","STREET":"安中路","SECT":"四段","MAREA":" ","LANE":"１５４巷","ALLEY":" ","HOUSE_NO":"１００號","E_COORD97":165112.64000000001,"N_COORD97":2550179.8799999999,"ADDRESS":"安中路四段１５４巷１００號","OBJECTID":267355},"geometry":{"x":165112.63999999966,"y":2550179.879999999}},{"attributes":{"ID":267361,"DIS_CODE":0,"TOWNNAME":"安南區","LI":"淵中里","LIN":"14鄰","STREET":"安中路","SECT":"四段","MAREA":" ","LANE":"１５４巷","ALLEY":" ","HOUSE_NO":"１０４號","E_COORD97":165121.01999999999,"N_COORD97":2550183.0299999998,"ADDRESS":"安中路四段１５４巷１０４號","OBJECTID":267356},"geometry":{"x":165121.02000000048,"y":2550183.0299999993}},{"attributes":{"ID":267362,"DIS_CODE":0,"TOWNNAME":"安南區","LI":"淵中里","LIN":"14鄰","STREET":"安中路","SECT":"四段","MAREA":" ","LANE":"１５４巷","ALLEY":" ","HOUSE_NO":"９８號","E_COORD97":165109.20999999999,"N_COORD97":2550177.54,"ADDRESS":"安中路四段１５４巷９８號","OBJECTID":267357},"geometry":{"x":165109.20999999996,"y":2550177.540000001}},{"attributes":{"ID":267363,"DIS_CODE":0,"TOWNNAME":"南區","LI":"國宅里","LIN":"14鄰","STREET":"新興路","SECT":" ","MAREA":" ","LANE":"４１６巷","ALLEY":" ","HOUSE_NO":"６號","E_COORD97":166747.97,"N_COORD97":2541786.4500000002,"ADDRESS":"新興路４１６巷６號","OBJECTID":267358},"geometry":{"x":166747.96999999974,"y":2541786.4500000011}},{"attributes":{"ID":267364,"DIS_CODE":0,"TOWNNAME":"南區","LI":"郡南里","LIN":"14鄰","STREET":"永興三街","SECT":" ","MAREA":" ","LANE":"４５巷","ALLEY":" ","HOUSE_NO":"４號","E_COORD97":167367.67999999999,"N_COORD97":2540572.2200000002,"ADDRESS":"永興三街４５巷４號","OBJECTID":267359},"geometry":{"x":167367.68000000156,"y":2540572.2200000044}},{"attributes":{"ID":267365,"DIS_CODE":0,"TOWNNAME":"南區","LI":"郡南里","LIN":"14鄰","STREET":"永興三街","SECT":" ","MAREA":" ","LANE":"４５巷","ALLEY":" ","HOUSE_NO":"６號","E_COORD97":167368.26999999999,"N_COORD97":2540567.5499999998,"ADDRESS":"永興三街４５巷６號","OBJECTID":267360},"geometry":{"x":167368.26999999955,"y":2540567.5500000026}},{"attributes":{"ID":267366,"DIS_CODE":0,"TOWNNAME":"南區","LI":"郡南里","LIN":"14鄰","STREET":"永興三街","SECT":" ","MAREA":" ","LANE":"４５巷","ALLEY":" ","HOUSE_NO":"８號","E_COORD97":167367.97,"N_COORD97":2540562.8799999999,"ADDRESS":"永興三街４５巷８號","OBJECTID":267361},"geometry":{"x":167367.97000000067,"y":2540562.8800000008}},{"attributes":{"ID":267367,"DIS_CODE":0,"TOWNNAME":"南區","LI":"郡南里","LIN":"14鄰","STREET":"永興三街","SECT":" ","MAREA":" ","LANE":"４５巷","ALLEY":" ","HOUSE_NO":"１０號","E_COORD97":167366.51000000001,"N_COORD97":2540559.0800000001,"ADDRESS":"永興三街４５巷１０號","OBJECTID":267362},"geometry":{"x":167366.50999999978,"y":2540559.0800000038}},{"attributes":{"ID":267368,"DIS_CODE":0,"TOWNNAME":"南區","LI":"郡南里","LIN":"14鄰","STREET":"永興三街","SECT":" ","MAREA":" ","LANE":"４５巷","ALLEY":" ","HOUSE_NO":"１２號","E_COORD97":167366.51000000001,"N_COORD97":2540555,"ADDRESS":"永興三街４５巷１２號","OBJECTID":267363},"geometry":{"x":167366.50999999978,"y":2540555}},{"attributes":{"ID":267369,"DIS_CODE":0,"TOWNNAME":"南區","LI":"郡南里","LIN":"14鄰","STREET":"永興三街","SECT":" ","MAREA":" ","LANE":"４５巷","ALLEY":" ","HOUSE_NO":"１４號","E_COORD97":167367.39000000001,"N_COORD97":2540550.6200000001,"ADDRESS":"永興三街４５巷１４號","OBJECTID":267364},"geometry":{"x":167367.38999999966,"y":2540550.6200000029}},{"attributes":{"ID":267370,"DIS_CODE":0,"TOWNNAME":"南區","LI":"郡南里","LIN":"14鄰","STREET":"永興三街","SECT":" ","MAREA":" ","LANE":"４５巷","ALLEY":" ","HOUSE_NO":"１６號","E_COORD97":167367.10000000001,"N_COORD97":2540545.9500000002,"ADDRESS":"永興三街４５巷１６號","OBJECTID":267365},"geometry":{"x":167367.10000000056,"y":2540545.9500000011}},{"attributes":{"ID":267371,"DIS_CODE":0,"TOWNNAME":"南區","LI":"郡南里","LIN":"14鄰","STREET":"永興三街","SECT":" ","MAREA":" ","LANE":"４５巷","ALLEY":" ","HOUSE_NO":"１８號","E_COORD97":167367.67999999999,"N_COORD97":2540541.8599999999,"ADDRESS":"永興三街４５巷１８號","OBJECTID":267366},"geometry":{"x":167367.68000000156,"y":2540541.8599999994}},{"attributes":{"ID":267372,"DIS_CODE":0,"TOWNNAME":"南區","LI":"郡南里","LIN":"14鄰","STREET":"永興三街","SECT":" ","MAREA":" ","LANE":"５９巷","ALLEY":" ","HOUSE_NO":"１號","E_COORD97":167350.14000000001,"N_COORD97":2540576.8900000001,"ADDRESS":"永興三街５９巷１號","OBJECTID":267367},"geometry":{"x":167350.13999999966,"y":2540576.8900000006}},{"attributes":{"ID":267373,"DIS_CODE":0,"TOWNNAME":"南區","LI":"郡南里","LIN":"14鄰","STREET":"永興三街","SECT":" ","MAREA":" ","LANE":"５９巷","ALLEY":" ","HOUSE_NO":"２號","E_COORD97":167329.38,"N_COORD97":2540578.3500000001,"ADDRESS":"永興三街５９巷２號","OBJECTID":267368},"geometry":{"x":167329.38000000082,"y":2540578.3500000015}},{"attributes":{"ID":267374,"DIS_CODE":0,"TOWNNAME":"南區","LI":"郡南里","LIN":"14鄰","STREET":"永興三街","SECT":" ","MAREA":" ","LANE":"５９巷","ALLEY":" ","HOUSE_NO":"３號","E_COORD97":167351.31,"N_COORD97":2540572.2200000002,"ADDRESS":"永興三街５９巷３號","OBJECTID":267369},"geometry":{"x":167351.31000000145,"y":2540572.2200000044}},{"attributes":{"ID":267375,"DIS_CODE":0,"TOWNNAME":"仁德區","LI":"保安里","LIN":"16鄰","STREET":"中正路","SECT":"一段","MAREA":" ","LANE":" ","ALLEY":" ","HOUSE_NO":"１５９號","E_COORD97":171468.04918500001,"N_COORD97":2535679.8769499999,"ADDRESS":"中正路一段１５９號","OBJECTID":267370},"geometry":{"x":171468.04918500036,"y":2535679.8769509997}},{"attributes":{"ID":267376,"DIS_CODE":0,"TOWNNAME":"南區","LI":"郡南里","LIN":"14鄰","STREET":"永興三街","SECT":" ","MAREA":" ","LANE":"５９巷","ALLEY":" ","HOUSE_NO":"４號","E_COORD97":167330.26000000001,"N_COORD97":2540574.27,"ADDRESS":"永興三街５９巷４號","OBJECTID":267371},"geometry":{"x":167330.26000000071,"y":2540574.2700000014}},{"attributes":{"ID":267377,"DIS_CODE":0,"TOWNNAME":"南區","LI":"國宅里","LIN":"14鄰","STREET":"新興路","SECT":" ","MAREA":" ","LANE":"４１６巷","ALLEY":" ","HOUSE_NO":"７號","E_COORD97":166752.59,"N_COORD97":2541786.21,"ADDRESS":"新興路４１６巷７號","OBJECTID":267372},"geometry":{"x":166752.58999999985,"y":2541786.2100000046}},{"attributes":{"ID":267378,"DIS_CODE":0,"TOWNNAME":"南區","LI":"國宅里","LIN":"14鄰","STREET":"新興路","SECT":" ","MAREA":" ","LANE":"４１６巷","ALLEY":" ","HOUSE_NO":"８號","E_COORD97":166756.72,"N_COORD97":2541785.7200000002,"ADDRESS":"新興路４１６巷８號","OBJECTID":267373},"geometry":{"x":166756.71999999974,"y":2541785.7200000044}},{"attributes":{"ID":267379,"DIS_CODE":0,"TOWNNAME":"南區","LI":"國宅里","LIN":"14鄰","STREET":"新興路","SECT":" ","MAREA":" ","LANE":"４１６巷","ALLEY":" ","HOUSE_NO":"９號","E_COORD97":166761.82000000001,"N_COORD97":2541785.48,"ADDRESS":"新興路４１６巷９號","OBJECTID":267374},"geometry":{"x":166761.8200000003,"y":2541785.4800000023}},{"attributes":{"ID":267380,"DIS_CODE":0,"TOWNNAME":"南區","LI":"國宅里","LIN":"14鄰","STREET":"新興路","SECT":" ","MAREA":" ","LANE":"４１６巷","ALLEY":" ","HOUSE_NO":"１０號","E_COORD97":166765.95000000001,"N_COORD97":2541785.2400000002,"ADDRESS":"新興路４１６巷１０號","OBJECTID":267375},"geometry":{"x":166765.95000000019,"y":2541785.2400000039}},{"attributes":{"ID":267381,"DIS_CODE":0,"TOWNNAME":"南區","LI":"國宅里","LIN":"14鄰","STREET":"新興路","SECT":" ","MAREA":" ","LANE":"４１６巷","ALLEY":" ","HOUSE_NO":"１１號","E_COORD97":166771.54000000001,"N_COORD97":2541785.2400000002,"ADDRESS":"新興路４１６巷１１號","OBJECTID":267376},"geometry":{"x":166771.54000000004,"y":2541785.2400000039}},{"attributes":{"ID":267382,"DIS_CODE":0,"TOWNNAME":"南區","LI":"國宅里","LIN":"14鄰","STREET":"新興路","SECT":" ","MAREA":" ","LANE":"４１６巷","ALLEY":" ","HOUSE_NO":"１２號","E_COORD97":166776.16,"N_COORD97":2541784.75,"ADDRESS":"新興路４１６巷１２號","OBJECTID":267377},"geometry":{"x":166776.16000000015,"y":2541784.7499999981}},{"attributes":{"ID":267383,"DIS_CODE":0,"TOWNNAME":"南區","LI":"國宅里","LIN":"14鄰","STREET":"新興路","SECT":" ","MAREA":" ","LANE":"４１６巷","ALLEY":" ","HOUSE_NO":"１３號","E_COORD97":166769.84,"N_COORD97":2541801.98,"ADDRESS":"新興路４１６巷１３號","OBJECTID":267378},"geometry":{"x":166769.83999999892,"y":2541801.9800000023}},{"attributes":{"ID":267384,"DIS_CODE":0,"TOWNNAME":"南區","LI":"國宅里","LIN":"14鄰","STREET":"新興路","SECT":" ","MAREA":" ","LANE":"４１６巷","ALLEY":" ","HOUSE_NO":"１４號","E_COORD97":166763.76999999999,"N_COORD97":2541802.2200000002,"ADDRESS":"新興路４１６巷１４號","OBJECTID":267379},"geometry":{"x":166763.77000000048,"y":2541802.2200000007}},{"attributes":{"ID":267385,"DIS_CODE":0,"TOWNNAME":"南區","LI":"國宅里","LIN":"14鄰","STREET":"新興路","SECT":" ","MAREA":" ","LANE":"４１６巷","ALLEY":" ","HOUSE_NO":"１５號","E_COORD97":166756.95999999999,"N_COORD97":2541802.4700000002,"ADDRESS":"新興路４１６巷１５號","OBJECTID":267380},"geometry":{"x":166756.95999999996,"y":2541802.4700000025}},{"attributes":{"ID":267386,"DIS_CODE":0,"TOWNNAME":"南區","LI":"國宅里","LIN":"14鄰","STREET":"新興路","SECT":" ","MAREA":" ","LANE":"４１６巷","ALLEY":" ","HOUSE_NO":"１６號","E_COORD97":166751.38,"N_COORD97":2541802.9500000002,"ADDRESS":"新興路４１６巷１６號","OBJECTID":267381},"geometry":{"x":166751.38000000082,"y":2541802.9499999974}},{"attributes":{"ID":267387,"DIS_CODE":0,"TOWNNAME":"南區","LI":"國宅里","LIN":"14鄰","STREET":"新興路","SECT":" ","MAREA":" ","LANE":"４１６巷","ALLEY":" ","HOUSE_NO":"１７號","E_COORD97":166746.03,"N_COORD97":2541803.1899999999,"ADDRESS":"新興路４１６巷１７號","OBJECTID":267382},"geometry":{"x":166746.03000000119,"y":2541803.1900000013}},{"attributes":{"ID":267388,"DIS_CODE":0,"TOWNNAME":"南區","LI":"國宅里","LIN":"14鄰","STREET":"新興路","SECT":" ","MAREA":" ","LANE":"４１６巷","ALLEY":" ","HOUSE_NO":"１８號","E_COORD97":166739.70999999999,"N_COORD97":2541803.6800000002,"ADDRESS":"新興路４１６巷１８號","OBJECTID":267383},"geometry":{"x":166739.70999999996,"y":2541803.6800000016}},{"attributes":{"ID":267389,"DIS_CODE":0,"TOWNNAME":"南區","LI":"國宅里","LIN":"14鄰","STREET":"新興路","SECT":" ","MAREA":" ","LANE":"４１６巷","ALLEY":" ","HOUSE_NO":"１９號","E_COORD97":166733.64000000001,"N_COORD97":2541803.9199999999,"ADDRESS":"新興路４１６巷１９號","OBJECTID":267384},"geometry":{"x":166733.63999999966,"y":2541803.9200000037}},{"attributes":{"ID":267390,"DIS_CODE":0,"TOWNNAME":"南區","LI":"國宅里","LIN":"14鄰","STREET":"新興路","SECT":" ","MAREA":" ","LANE":"４１６巷","ALLEY":" ","HOUSE_NO":"２０號","E_COORD97":166728.29999999999,"N_COORD97":2541804.6499999999,"ADDRESS":"新興路４１６巷２０號","OBJECTID":267385},"geometry":{"x":166728.30000000075,"y":2541804.6500000004}},{"attributes":{"ID":267391,"DIS_CODE":0,"TOWNNAME":"南區","LI":"喜北里","LIN":"14鄰","STREET":"喜樹路","SECT":" ","MAREA":" ","LANE":"２２２巷","ALLEY":" ","HOUSE_NO":"１０號","E_COORD97":165694.45000000001,"N_COORD97":2538097.8599999999,"ADDRESS":"喜樹路２２２巷１０號","OBJECTID":267386},"geometry":{"x":165694.45000000019,"y":2538097.8599999994}},{"attributes":{"ID":267392,"DIS_CODE":0,"TOWNNAME":"南區","LI":"喜北里","LIN":"14鄰","STREET":"喜樹路","SECT":" ","MAREA":" ","LANE":"２２２巷","ALLEY":" ","HOUSE_NO":"１２號","E_COORD97":165689.56,"N_COORD97":2538094.6299999999,"ADDRESS":"喜樹路２２２巷１２號","OBJECTID":267387},"geometry":{"x":165689.55999999959,"y":2538094.629999999}},{"attributes":{"ID":267393,"DIS_CODE":0,"TOWNNAME":"南區","LI":"喜北里","LIN":"14鄰","STREET":"喜樹路","SECT":" ","MAREA":" ","LANE":"２２２巷","ALLEY":" ","HOUSE_NO":"１４號","E_COORD97":165685.62,"N_COORD97":2538091.8700000001,"ADDRESS":"喜樹路２２２巷１４號","OBJECTID":267388},"geometry":{"x":165685.62000000104,"y":2538091.870000001}},{"attributes":{"ID":267394,"DIS_CODE":0,"TOWNNAME":"南區","LI":"喜北里","LIN":"14鄰","STREET":"喜樹路","SECT":" ","MAREA":" ","LANE":"２２２巷","ALLEY":" ","HOUSE_NO":"２２號","E_COORD97":165673.89000000001,"N_COORD97":2538071.77,"ADDRESS":"喜樹路２２２巷２２號","OBJECTID":267389},"geometry":{"x":165673.88999999966,"y":2538071.7700000033}},{"attributes":{"ID":267395,"DIS_CODE":0,"TOWNNAME":"南區","LI":"喜北里","LIN":"14鄰","STREET":"喜樹路","SECT":" ","MAREA":" ","LANE":"２２２巷","ALLEY":" ","HOUSE_NO":"２２號之１","E_COORD97":165668.42999999999,"N_COORD97":2538084.8399999999,"ADDRESS":"喜樹路２２２巷２２號之１","OBJECTID":267390},"geometry":{"x":165668.4299999997,"y":2538084.8399999999}},{"attributes":{"ID":267396,"DIS_CODE":0,"TOWNNAME":"南區","LI":"喜北里","LIN":"14鄰","STREET":"喜樹路","SECT":" ","MAREA":" ","LANE":"２２２巷","ALLEY":" ","HOUSE_NO":"２４號","E_COORD97":165665.5,"N_COORD97":2538069.2799999998,"ADDRESS":"喜樹路２２２巷２４號","OBJECTID":267391},"geometry":{"x":165665.50000000186,"y":2538069.2800000012}},{"attributes":{"ID":267397,"DIS_CODE":0,"TOWNNAME":"南區","LI":"喜北里","LIN":"14鄰","STREET":"喜樹路","SECT":" ","MAREA":" ","LANE":"２２２巷","ALLEY":" ","HOUSE_NO":"２６號","E_COORD97":165660.67000000001,"N_COORD97":2538065.9700000002,"ADDRESS":"喜樹路２２２巷２６號","OBJECTID":267392},"geometry":{"x":165660.66999999993,"y":2538065.9700000025}},{"attributes":{"ID":267398,"DIS_CODE":0,"TOWNNAME":"南區","LI":"喜北里","LIN":"14鄰","STREET":"喜樹路","SECT":" ","MAREA":" ","LANE":"２２２巷","ALLEY":" ","HOUSE_NO":"２８號","E_COORD97":165656.67000000001,"N_COORD97":2538064.71,"ADDRESS":"喜樹路２２２巷２８號","OBJECTID":267393},"geometry":{"x":165656.66999999993,"y":2538064.7100000028}},{"attributes":{"ID":267399,"DIS_CODE":0,"TOWNNAME":"南區","LI":"喜北里","LIN":"14鄰","STREET":"喜樹路","SECT":" ","MAREA":" ","LANE":"２２２巷","ALLEY":" ","HOUSE_NO":"３２號","E_COORD97":165650.28,"N_COORD97":2538063.1099999999,"ADDRESS":"喜樹路２２２巷３２號","OBJECTID":267394},"geometry":{"x":165650.28000000212,"y":2538063.1100000013}},{"attributes":{"ID":267400,"DIS_CODE":0,"TOWNNAME":"南區","LI":"喜北里","LIN":"14鄰","STREET":"喜樹路","SECT":" ","MAREA":" ","LANE":"２２２巷","ALLEY":" ","HOUSE_NO":"３４號","E_COORD97":165643.12,"N_COORD97":2538062.2400000002,"ADDRESS":"喜樹路２２２巷３４號","OBJECTID":267395},"geometry":{"x":165643.12000000104,"y":2538062.2400000002}},{"attributes":{"ID":267401,"DIS_CODE":0,"TOWNNAME":"南區","LI":"喜北里","LIN":"14鄰","STREET":"喜樹路","SECT":" ","MAREA":" ","LANE":"２２２巷","ALLEY":" ","HOUSE_NO":"３６號","E_COORD97":165635.57000000001,"N_COORD97":2538064.2000000002,"ADDRESS":"喜樹路２２２巷３６號","OBJECTID":267396},"geometry":{"x":165635.57000000123,"y":2538064.1999999993}},{"attributes":{"ID":267402,"DIS_CODE":0,"TOWNNAME":"南區","LI":"喜北里","LIN":"14鄰","STREET":"喜樹路","SECT":" ","MAREA":" ","LANE":"２２２巷","ALLEY":" ","HOUSE_NO":"４８號","E_COORD97":165601.42999999999,"N_COORD97":2538058.8999999999,"ADDRESS":"喜樹路２２２巷４８號","OBJECTID":267397},"geometry":{"x":165601.43000000063,"y":2538058.9000000022}},{"attributes":{"ID":267403,"DIS_CODE":0,"TOWNNAME":"善化區","LI":"坐駕里","LIN":"14鄰","STREET":"大成路","SECT":" ","MAREA":" ","LANE":"３６７巷","ALLEY":" ","HOUSE_NO":"３６號","E_COORD97":178229.37,"N_COORD97":2558649.75,"ADDRESS":"大成路３６７巷３６號","OBJECTID":267398},"geometry":{"x":178229.36999999918,"y":2558649.7500000019}},{"attributes":{"ID":267404,"DIS_CODE":0,"TOWNNAME":"仁德區","LI":"後壁里","LIN":"14鄰","STREET":"德南路","SECT":" ","MAREA":" ","LANE":"１３７巷","ALLEY":" ","HOUSE_NO":"４９號","E_COORD97":173609.60000000001,"N_COORD97":2538698.7599999998,"ADDRESS":"德南路１３７巷４９號","OBJECTID":267399},"geometry":{"x":173609.5999999987,"y":2538698.7599999998}},{"attributes":{"ID":267405,"DIS_CODE":0,"TOWNNAME":"仁德區","LI":"後壁里","LIN":"14鄰","STREET":"德善路","SECT":" ","MAREA":" ","LANE":"１９８巷","ALLEY":" ","HOUSE_NO":"１２之７號","E_COORD97":173661,"N_COORD97":2538689.4300000002,"ADDRESS":"德善路１９８巷１２之７號","OBJECTID":267400},"geometry":{"x":173661,"y":2538689.4300000016}}]}