{"displayFieldName":"TOWNNAME","fieldAliases":{"ID":"ID","DIS_CODE":"DIS_CODE","TOWNNAME":"TOWNNAME","LI":"LI","LIN":"LIN","STREET":"STREET","SECT":"SECT","MAREA":"MAREA","LANE":"LANE","ALLEY":"ALLEY","HOUSE_NO":"HOUSE_NO","E_COORD97":"E_COORD97","N_COORD97":"N_COORD97","ADDRESS":"ADDRESS","OBJECTID":"OBJECTID"},"geometryType":"esriGeometryPoint","spatialReference":{"wkid":102443,"latestWkid":3826},"fields":[{"name":"ID","type":"esriFieldTypeDouble","alias":"ID"},{"name":"DIS_CODE","type":"esriFieldTypeInteger","alias":"DIS_CODE"},{"name":"TOWNNAME","type":"esriFieldTypeString","alias":"TOWNNAME","length":8},{"name":"LI","type":"esriFieldTypeString","alias":"LI","length":8},{"name":"LIN","type":"esriFieldTypeString","alias":"LIN","length":12},{"name":"STREET","type":"esriFieldTypeString","alias":"STREET","length":20},{"name":"SECT","type":"esriFieldTypeString","alias":"SECT","length":8},{"name":"MAREA","type":"esriFieldTypeString","alias":"MAREA","length":12},{"name":"LANE","type":"esriFieldTypeString","alias":"LANE","length":10},{"name":"ALLEY","type":"esriFieldTypeString","alias":"ALLEY","length":10},{"name":"HOUSE_NO","type":"esriFieldTypeString","alias":"HOUSE_NO","length":20},{"name":"E_COORD97","type":"esriFieldTypeDouble","alias":"E_COORD97"},{"name":"N_COORD97","type":"esriFieldTypeDouble","alias":"N_COORD97"},{"name":"ADDRESS","type":"esriFieldTypeString","alias":"ADDRESS","length":50},{"name":"OBJECTID","type":"esriFieldTypeOID","alias":"OBJECTID"}],"features":[{"attributes":{"ID":564628,"DIS_CODE":0,"TOWNNAME":"關廟區","LI":"北花里","LIN":"9鄰","STREET":"四維街","SECT":" ","MAREA":" ","LANE":" ","ALLEY":" ","HOUSE_NO":"３１７號","E_COORD97":181873.56,"N_COORD97":2540375.25,"ADDRESS":"四維街３１７號","OBJECTID":564601},"geometry":{"x":181873.55999999959,"y":2540375.2500000019}},{"attributes":{"ID":564629,"DIS_CODE":0,"TOWNNAME":"關廟區","LI":"香洋里","LIN":"9鄰","STREET":"中山路","SECT":"二段","MAREA":" ","LANE":" ","ALLEY":" ","HOUSE_NO":"７０號","E_COORD97":180951.60999999999,"N_COORD97":2540035.2799999998,"ADDRESS":"中山路二段７０號","OBJECTID":564602},"geometry":{"x":180951.61000000034,"y":2540035.2800000012}},{"attributes":{"ID":564630,"DIS_CODE":0,"TOWNNAME":"關廟區","LI":"關廟里","LIN":"9鄰","STREET":"民生街","SECT":" ","MAREA":" ","LANE":" ","ALLEY":" ","HOUSE_NO":"８５號","E_COORD97":180902.64000000001,"N_COORD97":2539674.29,"ADDRESS":"民生街８５號","OBJECTID":564603},"geometry":{"x":180902.6400000006,"y":2539674.2899999991}},{"attributes":{"ID":564631,"DIS_CODE":0,"TOWNNAME":"關廟區","LI":"關廟里","LIN":"9鄰","STREET":"民生街","SECT":" ","MAREA":" ","LANE":" ","ALLEY":" ","HOUSE_NO":"３２號","E_COORD97":180909.64000000001,"N_COORD97":2539541.29,"ADDRESS":"民生街３２號","OBJECTID":564604},"geometry":{"x":180909.6400000006,"y":2539541.2899999991}},{"attributes":{"ID":564632,"DIS_CODE":0,"TOWNNAME":"關廟區","LI":"新埔里","LIN":"9鄰","STREET":"忠孝街","SECT":" ","MAREA":" ","LANE":" ","ALLEY":" ","HOUSE_NO":"３１８號","E_COORD97":181214.14000000001,"N_COORD97":2540979.25,"ADDRESS":"忠孝街３１８號","OBJECTID":564605},"geometry":{"x":181214.14000000153,"y":2540979.2500000019}},{"attributes":{"ID":564633,"DIS_CODE":0,"TOWNNAME":"關廟區","LI":"關廟里","LIN":"9鄰","STREET":"民生街","SECT":" ","MAREA":" ","LANE":" ","ALLEY":" ","HOUSE_NO":"８１號","E_COORD97":180905.04000000001,"N_COORD97":2539656.29,"ADDRESS":"民生街８１號","OBJECTID":564606},"geometry":{"x":180905.0400000019,"y":2539656.2899999991}},{"attributes":{"ID":564634,"DIS_CODE":0,"TOWNNAME":"關廟區","LI":"新埔里","LIN":"9鄰","STREET":"新埔二街","SECT":" ","MAREA":" ","LANE":" ","ALLEY":" ","HOUSE_NO":"２００號","E_COORD97":181268.82000000001,"N_COORD97":2541066.25,"ADDRESS":"新埔二街２００號","OBJECTID":564607},"geometry":{"x":181268.8200000003,"y":2541066.2500000037}},{"attributes":{"ID":564635,"DIS_CODE":0,"TOWNNAME":"關廟區","LI":"新埔里","LIN":"9鄰","STREET":"新埔三街","SECT":" ","MAREA":" ","LANE":" ","ALLEY":" ","HOUSE_NO":"１２６號","E_COORD97":181252.22,"N_COORD97":2541092.25,"ADDRESS":"新埔三街１２６號","OBJECTID":564608},"geometry":{"x":181252.21999999974,"y":2541092.25}},{"attributes":{"ID":564636,"DIS_CODE":0,"TOWNNAME":"關廟區","LI":"香洋里","LIN":"9鄰","STREET":"中山路","SECT":"二段","MAREA":" ","LANE":" ","ALLEY":" ","HOUSE_NO":"６２號","E_COORD97":180960.81,"N_COORD97":2540034.2799999998,"ADDRESS":"中山路二段６２號","OBJECTID":564609},"geometry":{"x":180960.81000000052,"y":2540034.2799999993}},{"attributes":{"ID":564637,"DIS_CODE":0,"TOWNNAME":"關廟區","LI":"新埔里","LIN":"9鄰","STREET":"新埔二街","SECT":" ","MAREA":" ","LANE":" ","ALLEY":" ","HOUSE_NO":"１８０號","E_COORD97":181277.62,"N_COORD97":2541014.25,"ADDRESS":"新埔二街１８０號","OBJECTID":564610},"geometry":{"x":181277.62000000104,"y":2541014.25}},{"attributes":{"ID":564638,"DIS_CODE":0,"TOWNNAME":"關廟區","LI":"新埔里","LIN":"9鄰","STREET":"新埔三街","SECT":" ","MAREA":" ","LANE":" ","ALLEY":" ","HOUSE_NO":"１１０號","E_COORD97":181216.62,"N_COORD97":2541095.25,"ADDRESS":"新埔三街１１０號","OBJECTID":564611},"geometry":{"x":181216.62000000104,"y":2541095.25}},{"attributes":{"ID":564639,"DIS_CODE":0,"TOWNNAME":"關廟區","LI":"新埔里","LIN":"9鄰","STREET":"新埔三街","SECT":" ","MAREA":" ","LANE":" ","ALLEY":" ","HOUSE_NO":"１２０號","E_COORD97":181233.42000000001,"N_COORD97":2541094.25,"ADDRESS":"新埔三街１２０號","OBJECTID":564612},"geometry":{"x":181233.42000000086,"y":2541094.2500000019}},{"attributes":{"ID":564640,"DIS_CODE":0,"TOWNNAME":"關廟區","LI":"南花里","LIN":"9鄰","STREET":"四維街","SECT":" ","MAREA":" ","LANE":" ","ALLEY":" ","HOUSE_NO":"２１９號","E_COORD97":181842.06,"N_COORD97":2540162.25,"ADDRESS":"四維街２１９號","OBJECTID":564613},"geometry":{"x":181842.06000000052,"y":2540162.2500000019}},{"attributes":{"ID":564641,"DIS_CODE":0,"TOWNNAME":"關廟區","LI":"香洋里","LIN":"9鄰","STREET":"中山路","SECT":"二段","MAREA":" ","LANE":" ","ALLEY":" ","HOUSE_NO":"６８號","E_COORD97":180955.10999999999,"N_COORD97":2540035.2799999998,"ADDRESS":"中山路二段６８號","OBJECTID":564614},"geometry":{"x":180955.11000000034,"y":2540035.2800000012}},{"attributes":{"ID":564642,"DIS_CODE":0,"TOWNNAME":"關廟區","LI":"新埔里","LIN":"9鄰","STREET":"忠孝街","SECT":" ","MAREA":" ","LANE":" ","ALLEY":" ","HOUSE_NO":"３３６號","E_COORD97":181213.73999999999,"N_COORD97":2541008.25,"ADDRESS":"忠孝街３３６號","OBJECTID":564615},"geometry":{"x":181213.74000000022,"y":2541008.2499999981}},{"attributes":{"ID":564643,"DIS_CODE":0,"TOWNNAME":"關廟區","LI":"香洋里","LIN":"9鄰","STREET":"中山路","SECT":"二段","MAREA":" ","LANE":" ","ALLEY":" ","HOUSE_NO":"６０號","E_COORD97":180968.10999999999,"N_COORD97":2540032.2799999998,"ADDRESS":"中山路二段６０號","OBJECTID":564616},"geometry":{"x":180968.11000000127,"y":2540032.2800000012}},{"attributes":{"ID":564644,"DIS_CODE":0,"TOWNNAME":"關廟區","LI":"新埔里","LIN":"9鄰","STREET":"北新街","SECT":" ","MAREA":" ","LANE":" ","ALLEY":" ","HOUSE_NO":"３４５號","E_COORD97":181275.59,"N_COORD97":2541091.25,"ADDRESS":"北新街３４５號","OBJECTID":564617},"geometry":{"x":181275.58999999892,"y":2541091.2500000019}},{"attributes":{"ID":564645,"DIS_CODE":0,"TOWNNAME":"關廟區","LI":"新埔里","LIN":"9鄰","STREET":"忠孝街","SECT":" ","MAREA":" ","LANE":" ","ALLEY":" ","HOUSE_NO":"３５６號","E_COORD97":181207.23999999999,"N_COORD97":2541077.25,"ADDRESS":"忠孝街３５６號","OBJECTID":564618},"geometry":{"x":181207.24000000209,"y":2541077.2500000019}},{"attributes":{"ID":564646,"DIS_CODE":0,"TOWNNAME":"關廟區","LI":"新埔里","LIN":"9鄰","STREET":"忠孝街","SECT":" ","MAREA":" ","LANE":" ","ALLEY":" ","HOUSE_NO":"３２６號","E_COORD97":181212.23999999999,"N_COORD97":2540991.25,"ADDRESS":"忠孝街３２６號","OBJECTID":564619},"geometry":{"x":181212.23999999929,"y":2540991.25}},{"attributes":{"ID":564647,"DIS_CODE":0,"TOWNNAME":"關廟區","LI":"香洋里","LIN":"9鄰","STREET":"中山路","SECT":"二段","MAREA":" ","LANE":" ","ALLEY":" ","HOUSE_NO":"７２號","E_COORD97":180948.10999999999,"N_COORD97":2540036.2799999998,"ADDRESS":"中山路二段７２號","OBJECTID":564620},"geometry":{"x":180948.11000000034,"y":2540036.2799999993}},{"attributes":{"ID":564648,"DIS_CODE":0,"TOWNNAME":"關廟區","LI":"南花里","LIN":"9鄰","STREET":"四維街","SECT":" ","MAREA":" ","LANE":" ","ALLEY":" ","HOUSE_NO":"２２１號","E_COORD97":181843.56,"N_COORD97":2540174.25,"ADDRESS":"四維街２２１號","OBJECTID":564621},"geometry":{"x":181843.56000000145,"y":2540174.2499999981}},{"attributes":{"ID":564649,"DIS_CODE":0,"TOWNNAME":"關廟區","LI":"新埔里","LIN":"9鄰","STREET":"忠孝街","SECT":" ","MAREA":" ","LANE":" ","ALLEY":" ","HOUSE_NO":"３１６號","E_COORD97":181215.34,"N_COORD97":2540970.25,"ADDRESS":"忠孝街３１６號","OBJECTID":564622},"geometry":{"x":181215.34000000078,"y":2540970.25}},{"attributes":{"ID":564650,"DIS_CODE":0,"TOWNNAME":"關廟區","LI":"新埔里","LIN":"9鄰","STREET":"北新街","SECT":" ","MAREA":" ","LANE":" ","ALLEY":" ","HOUSE_NO":"３５１號","E_COORD97":181298.69,"N_COORD97":2541058.25,"ADDRESS":"北新街３５１號","OBJECTID":564623},"geometry":{"x":181298.69000000041,"y":2541058.25}},{"attributes":{"ID":564651,"DIS_CODE":0,"TOWNNAME":"關廟區","LI":"新埔里","LIN":"9鄰","STREET":"忠孝街","SECT":" ","MAREA":" ","LANE":" ","ALLEY":" ","HOUSE_NO":"３４６號","E_COORD97":181207.23999999999,"N_COORD97":2541050.25,"ADDRESS":"忠孝街３４６號","OBJECTID":564624},"geometry":{"x":181207.24000000209,"y":2541050.2500000019}},{"attributes":{"ID":564652,"DIS_CODE":0,"TOWNNAME":"關廟區","LI":"松腳里","LIN":"9鄰","STREET":"四維街","SECT":" ","MAREA":" ","LANE":" ","ALLEY":" ","HOUSE_NO":"１１５號","E_COORD97":181865.85999999999,"N_COORD97":2539724.25,"ADDRESS":"四維街１１５號","OBJECTID":564625},"geometry":{"x":181865.8599999994,"y":2539724.2500000019}},{"attributes":{"ID":564653,"DIS_CODE":0,"TOWNNAME":"關廟區","LI":"松腳里","LIN":"9鄰","STREET":"四維街","SECT":" ","MAREA":" ","LANE":" ","ALLEY":" ","HOUSE_NO":"１１７號","E_COORD97":181863.95999999999,"N_COORD97":2539731.25,"ADDRESS":"四維街１１７號","OBJECTID":564626},"geometry":{"x":181863.96000000089,"y":2539731.2500000019}},{"attributes":{"ID":564654,"DIS_CODE":0,"TOWNNAME":"關廟區","LI":"深坑里","LIN":"9鄰","STREET":"深坑三街","SECT":" ","MAREA":" ","LANE":" ","ALLEY":" ","HOUSE_NO":"２７號","E_COORD97":181832.62,"N_COORD97":2537821.2999999998,"ADDRESS":"深坑三街２７號","OBJECTID":564627},"geometry":{"x":181832.62000000011,"y":2537821.3000000007}},{"attributes":{"ID":564655,"DIS_CODE":0,"TOWNNAME":"關廟區","LI":"北花里","LIN":"9鄰","STREET":"中正路","SECT":" ","MAREA":" ","LANE":" ","ALLEY":" ","HOUSE_NO":"７２３號","E_COORD97":181894.26000000001,"N_COORD97":2540390.25,"ADDRESS":"中正路７２３號","OBJECTID":564628},"geometry":{"x":181894.25999999978,"y":2540390.25}},{"attributes":{"ID":564656,"DIS_CODE":0,"TOWNNAME":"關廟區","LI":"新埔里","LIN":"9鄰","STREET":"新埔二街","SECT":" ","MAREA":" ","LANE":" ","ALLEY":" ","HOUSE_NO":"１２７號","E_COORD97":181256.51999999999,"N_COORD97":2541013.25,"ADDRESS":"新埔二街１２７號","OBJECTID":564629},"geometry":{"x":181256.51999999955,"y":2541013.2500000019}},{"attributes":{"ID":564657,"DIS_CODE":0,"TOWNNAME":"關廟區","LI":"關廟里","LIN":"9鄰","STREET":"民生街","SECT":" ","MAREA":" ","LANE":" ","ALLEY":" ","HOUSE_NO":"６９號","E_COORD97":180913.44,"N_COORD97":2539626.29,"ADDRESS":"民生街６９號","OBJECTID":564630},"geometry":{"x":180913.44000000134,"y":2539626.2899999991}},{"attributes":{"ID":564658,"DIS_CODE":0,"TOWNNAME":"新化區","LI":"豐榮里","LIN":"9鄰","STREET":"大智路","SECT":" ","MAREA":" ","LANE":" ","ALLEY":" ","HOUSE_NO":"３７號","E_COORD97":178324.78,"N_COORD97":2548367.25,"ADDRESS":"大智路３７號","OBJECTID":564631},"geometry":{"x":178324.78000000026,"y":2548367.2500000019}},{"attributes":{"ID":564659,"DIS_CODE":0,"TOWNNAME":"新化區","LI":"武安里","LIN":"9鄰","STREET":"大同街","SECT":" ","MAREA":" ","LANE":" ","ALLEY":" ","HOUSE_NO":"５９號之１","E_COORD97":178968.81,"N_COORD97":2548191.2599999998,"ADDRESS":"大同街５９號之１","OBJECTID":564632},"geometry":{"x":178968.81000000052,"y":2548191.2599999998}},{"attributes":{"ID":564660,"DIS_CODE":0,"TOWNNAME":"新化區","LI":"武安里","LIN":"9鄰","STREET":"大同街","SECT":" ","MAREA":" ","LANE":" ","ALLEY":" ","HOUSE_NO":"５９號","E_COORD97":178972.17999999999,"N_COORD97":2548192.25,"ADDRESS":"大同街５９號","OBJECTID":564633},"geometry":{"x":178972.1799999997,"y":2548192.25}},{"attributes":{"ID":564661,"DIS_CODE":0,"TOWNNAME":"北區","LI":"新勝里","LIN":"9鄰","STREET":"長榮路","SECT":"五段","MAREA":" ","LANE":" ","ALLEY":" ","HOUSE_NO":"２４號","E_COORD97":170117.95999999999,"N_COORD97":2545532.7400000002,"ADDRESS":"長榮路五段２４號","OBJECTID":564634},"geometry":{"x":170117.96000000089,"y":2545532.7400000021}},{"attributes":{"ID":564662,"DIS_CODE":0,"TOWNNAME":"北區","LI":"新勝里","LIN":"9鄰","STREET":"長榮路","SECT":"五段","MAREA":" ","LANE":" ","ALLEY":" ","HOUSE_NO":"２６號","E_COORD97":170116.98999999999,"N_COORD97":2545538.3900000001,"ADDRESS":"長榮路五段２６號","OBJECTID":564635},"geometry":{"x":170116.99000000022,"y":2545538.3900000025}},{"attributes":{"ID":564663,"DIS_CODE":0,"TOWNNAME":"北區","LI":"新勝里","LIN":"9鄰","STREET":"長榮路","SECT":"五段","MAREA":" ","LANE":" ","ALLEY":" ","HOUSE_NO":"２８號","E_COORD97":170116.59,"N_COORD97":2545542.6499999999,"ADDRESS":"長榮路五段２８號","OBJECTID":564636},"geometry":{"x":170116.59000000078,"y":2545542.6500000041}},{"attributes":{"ID":564664,"DIS_CODE":0,"TOWNNAME":"北區","LI":"新勝里","LIN":"9鄰","STREET":"長榮路","SECT":"五段","MAREA":" ","LANE":" ","ALLEY":" ","HOUSE_NO":"２８號之１","E_COORD97":170132.70999999999,"N_COORD97":2545545.04,"ADDRESS":"長榮路五段２８號之１","OBJECTID":564637},"geometry":{"x":170132.71000000089,"y":2545545.0399999972}},{"attributes":{"ID":564665,"DIS_CODE":0,"TOWNNAME":"北區","LI":"裕民里","LIN":"8鄰","STREET":"臨安路","SECT":"二段","MAREA":" ","LANE":" ","ALLEY":" ","HOUSE_NO":"１４號","E_COORD97":167542.75,"N_COORD97":2544752.4199999999,"ADDRESS":"臨安路二段１４號","OBJECTID":564638},"geometry":{"x":167542.75000000093,"y":2544752.4199999999}},{"attributes":{"ID":564666,"DIS_CODE":0,"TOWNNAME":"北區","LI":"裕民里","LIN":"8鄰","STREET":"臨安路","SECT":"二段","MAREA":" ","LANE":" ","ALLEY":" ","HOUSE_NO":"１５號","E_COORD97":167528.06,"N_COORD97":2544783.8900000001,"ADDRESS":"臨安路二段１５號","OBJECTID":564639},"geometry":{"x":167528.06000000052,"y":2544783.8900000006}},{"attributes":{"ID":564667,"DIS_CODE":0,"TOWNNAME":"北區","LI":"裕民里","LIN":"8鄰","STREET":"臨安路","SECT":"二段","MAREA":" ","LANE":" ","ALLEY":" ","HOUSE_NO":"１６號","E_COORD97":167546.92000000001,"N_COORD97":2544754.4500000002,"ADDRESS":"臨安路二段１６號","OBJECTID":564640},"geometry":{"x":167546.91999999993,"y":2544754.4499999993}},{"attributes":{"ID":564668,"DIS_CODE":0,"TOWNNAME":"北區","LI":"裕民里","LIN":"8鄰","STREET":"臨安路","SECT":"二段","MAREA":" ","LANE":" ","ALLEY":" ","HOUSE_NO":"１７號","E_COORD97":167538.78,"N_COORD97":2544793.1099999999,"ADDRESS":"臨安路二段１７號","OBJECTID":564641},"geometry":{"x":167538.78000000212,"y":2544793.1100000013}},{"attributes":{"ID":564669,"DIS_CODE":0,"TOWNNAME":"北區","LI":"裕民里","LIN":"8鄰","STREET":"臨安路","SECT":"二段","MAREA":" ","LANE":" ","ALLEY":" ","HOUSE_NO":"１７號地下一層","E_COORD97":167538.78,"N_COORD97":2544793.1099999999,"ADDRESS":"臨安路二段１７號地下一層","OBJECTID":564642},"geometry":{"x":167538.78000000212,"y":2544793.1100000013}},{"attributes":{"ID":564670,"DIS_CODE":0,"TOWNNAME":"北區","LI":"裕民里","LIN":"8鄰","STREET":"臨安路","SECT":"二段","MAREA":" ","LANE":" ","ALLEY":" ","HOUSE_NO":"１７號地下二層","E_COORD97":167538.78,"N_COORD97":2544793.1099999999,"ADDRESS":"臨安路二段１７號地下二層","OBJECTID":564643},"geometry":{"x":167538.78000000212,"y":2544793.1100000013}},{"attributes":{"ID":564671,"DIS_CODE":0,"TOWNNAME":"北區","LI":"裕民里","LIN":"8鄰","STREET":"臨安路","SECT":"二段","MAREA":" ","LANE":" ","ALLEY":" ","HOUSE_NO":"２７號","E_COORD97":167554.66,"N_COORD97":2544793.48,"ADDRESS":"臨安路二段２７號","OBJECTID":564644},"geometry":{"x":167554.66000000201,"y":2544793.4800000004}},{"attributes":{"ID":564672,"DIS_CODE":0,"TOWNNAME":"北區","LI":"裕民里","LIN":"8鄰","STREET":"臨安路","SECT":"二段","MAREA":" ","LANE":" ","ALLEY":" ","HOUSE_NO":"２９號","E_COORD97":167557.62,"N_COORD97":2544794.2200000002,"ADDRESS":"臨安路二段２９號","OBJECTID":564645},"geometry":{"x":167557.62000000011,"y":2544794.2200000025}},{"attributes":{"ID":564673,"DIS_CODE":0,"TOWNNAME":"北區","LI":"裕民里","LIN":"8鄰","STREET":"臨安路","SECT":"二段","MAREA":" ","LANE":" ","ALLEY":" ","HOUSE_NO":"３１號","E_COORD97":167560.27856800001,"N_COORD97":2544795.3627800001,"ADDRESS":"臨安路二段３１號","OBJECTID":564646},"geometry":{"x":167560.2785679996,"y":2544795.3627760019}},{"attributes":{"ID":564674,"DIS_CODE":0,"TOWNNAME":"北區","LI":"裕民里","LIN":"8鄰","STREET":"臨安路","SECT":"二段","MAREA":" ","LANE":" ","ALLEY":" ","HOUSE_NO":"３３號","E_COORD97":167563.03188200001,"N_COORD97":2544795.5744400001,"ADDRESS":"臨安路二段３３號","OBJECTID":564647},"geometry":{"x":167563.03188200016,"y":2544795.5744430032}},{"attributes":{"ID":564675,"DIS_CODE":0,"TOWNNAME":"北區","LI":"裕民里","LIN":"8鄰","STREET":"臨安路","SECT":"二段","MAREA":" ","LANE":" ","ALLEY":" ","HOUSE_NO":"３５號","E_COORD97":167578.67999999999,"N_COORD97":2544799.3799999999,"ADDRESS":"臨安路二段３５號","OBJECTID":564648},"geometry":{"x":167578.6799999997,"y":2544799.379999999}},{"attributes":{"ID":564676,"DIS_CODE":0,"TOWNNAME":"北區","LI":"裕民里","LIN":"8鄰","STREET":"臨安路","SECT":"二段","MAREA":" ","LANE":" ","ALLEY":" ","HOUSE_NO":"３７號","E_COORD97":167582,"N_COORD97":2544800.4900000002,"ADDRESS":"臨安路二段３７號","OBJECTID":564649},"geometry":{"x":167582,"y":2544800.4900000002}},{"attributes":{"ID":564677,"DIS_CODE":0,"TOWNNAME":"北區","LI":"裕民里","LIN":"8鄰","STREET":"臨安路","SECT":"二段","MAREA":" ","LANE":" ","ALLEY":" ","HOUSE_NO":"３９號","E_COORD97":167584.59,"N_COORD97":2544801.9700000002,"ADDRESS":"臨安路二段３９號","OBJECTID":564650},"geometry":{"x":167584.58999999985,"y":2544801.9700000025}},{"attributes":{"ID":564678,"DIS_CODE":0,"TOWNNAME":"北區","LI":"裕民里","LIN":"8鄰","STREET":"臨安路","SECT":"二段","MAREA":" ","LANE":" ","ALLEY":" ","HOUSE_NO":"４１號","E_COORD97":167591.98000000001,"N_COORD97":2544805.6600000001,"ADDRESS":"臨安路二段４１號","OBJECTID":564651},"geometry":{"x":167591.98000000138,"y":2544805.6600000001}},{"attributes":{"ID":564679,"DIS_CODE":0,"TOWNNAME":"北區","LI":"裕民里","LIN":"8鄰","STREET":"臨安路","SECT":"二段","MAREA":" ","LANE":" ","ALLEY":" ","HOUSE_NO":"４３號","E_COORD97":167597.14999999999,"N_COORD97":2544808.2400000002,"ADDRESS":"臨安路二段４３號","OBJECTID":564652},"geometry":{"x":167597.15000000037,"y":2544808.2400000002}},{"attributes":{"ID":564680,"DIS_CODE":0,"TOWNNAME":"北區","LI":"裕民里","LIN":"8鄰","STREET":"臨安路","SECT":"二段","MAREA":" ","LANE":" ","ALLEY":" ","HOUSE_NO":"４５號","E_COORD97":167602.32000000001,"N_COORD97":2544810.8199999998,"ADDRESS":"臨安路二段４５號","OBJECTID":564653},"geometry":{"x":167602.3200000003,"y":2544810.8200000003}},{"attributes":{"ID":564681,"DIS_CODE":0,"TOWNNAME":"北區","LI":"裕民里","LIN":"8鄰","STREET":"臨安路","SECT":"二段","MAREA":" ","LANE":" ","ALLEY":" ","HOUSE_NO":"４７號","E_COORD97":167606.01999999999,"N_COORD97":2544813.77,"ADDRESS":"臨安路二段４７號","OBJECTID":564654},"geometry":{"x":167606.02000000048,"y":2544813.7699999996}},{"attributes":{"ID":564682,"DIS_CODE":0,"TOWNNAME":"北區","LI":"裕民里","LIN":"9鄰","STREET":"臨安路","SECT":"二段","MAREA":" ","LANE":" ","ALLEY":" ","HOUSE_NO":"４９號","E_COORD97":167611.19,"N_COORD97":2544814.8799999999,"ADDRESS":"臨安路二段４９號","OBJECTID":564655},"geometry":{"x":167611.19000000134,"y":2544814.8800000008}},{"attributes":{"ID":564683,"DIS_CODE":0,"TOWNNAME":"北區","LI":"裕民里","LIN":"9鄰","STREET":"臨安路","SECT":"二段","MAREA":" ","LANE":" ","ALLEY":" ","HOUSE_NO":"５１號","E_COORD97":167616.98000000001,"N_COORD97":2544817.0899999999,"ADDRESS":"臨安路二段５１號","OBJECTID":564656},"geometry":{"x":167616.98000000045,"y":2544817.0900000036}},{"attributes":{"ID":564684,"DIS_CODE":0,"TOWNNAME":"南區","LI":"日新里","LIN":"9鄰","STREET":"利南街","SECT":" ","MAREA":" ","LANE":" ","ALLEY":" ","HOUSE_NO":"１５０號","E_COORD97":166843.04999999999,"N_COORD97":2541533.8399999999,"ADDRESS":"利南街１５０號","OBJECTID":564657},"geometry":{"x":166843.05000000168,"y":2541533.8400000017}},{"attributes":{"ID":564685,"DIS_CODE":0,"TOWNNAME":"南區","LI":"日新里","LIN":"9鄰","STREET":"利南街","SECT":" ","MAREA":" ","LANE":" ","ALLEY":" ","HOUSE_NO":"１５２號","E_COORD97":166839.89999999999,"N_COORD97":2541537.0699999998,"ADDRESS":"利南街１５２號","OBJECTID":564658},"geometry":{"x":166839.9000000013,"y":2541537.0700000022}},{"attributes":{"ID":564686,"DIS_CODE":0,"TOWNNAME":"永康區","LI":"\u25A0行里","LIN":"17鄰","STREET":"中正南路","SECT":" ","MAREA":" ","LANE":" ","ALLEY":" ","HOUSE_NO":"７２２號","E_COORD97":171697.25,"N_COORD97":2548925,"ADDRESS":"中正南路７２２號","OBJECTID":564659},"geometry":{"x":171697.25000000093,"y":2548925.0000000019}},{"attributes":{"ID":564687,"DIS_CODE":0,"TOWNNAME":"永康區","LI":"復國里","LIN":" ","STREET":"復國一路","SECT":" ","MAREA":" ","LANE":" ","ALLEY":" ","HOUSE_NO":"２８９號","E_COORD97":172735.91,"N_COORD97":2545519.0299999998,"ADDRESS":"復國一路２８９號","OBJECTID":564660},"geometry":{"x":172735.91000000108,"y":2545519.0300000012}},{"attributes":{"ID":564688,"DIS_CODE":0,"TOWNNAME":"永康區","LI":"\u25A0行里","LIN":"18鄰","STREET":"中正南路","SECT":" ","MAREA":" ","LANE":" ","ALLEY":" ","HOUSE_NO":"７７８號","E_COORD97":171791.42999999999,"N_COORD97":2549005,"ADDRESS":"中正南路７７８號","OBJECTID":564661},"geometry":{"x":171791.4299999997,"y":2549005.0000000019}},{"attributes":{"ID":564689,"DIS_CODE":0,"TOWNNAME":"鹽水區","LI":"武廟里","LIN":"9鄰","STREET":"武廟路","SECT":" ","MAREA":" ","LANE":" ","ALLEY":" ","HOUSE_NO":"２５號","E_COORD97":174885.63,"N_COORD97":2580072.77,"ADDRESS":"武廟路２５號","OBJECTID":564662},"geometry":{"x":174885.62999999989,"y":2580072.7700000014}},{"attributes":{"ID":564690,"DIS_CODE":0,"TOWNNAME":"鹽水區","LI":"武廟里","LIN":"9鄰","STREET":"武廟路","SECT":" ","MAREA":" ","LANE":" ","ALLEY":" ","HOUSE_NO":"２７號","E_COORD97":174890.73999999999,"N_COORD97":2580080.3700000001,"ADDRESS":"武廟路２７號","OBJECTID":564663},"geometry":{"x":174890.74000000022,"y":2580080.3700000029}},{"attributes":{"ID":564691,"DIS_CODE":0,"TOWNNAME":"鹽水區","LI":"中境里","LIN":"9鄰","STREET":"武廟路","SECT":" ","MAREA":" ","LANE":" ","ALLEY":" ","HOUSE_NO":"２號之１","E_COORD97":174909.48999999999,"N_COORD97":2579953.5699999998,"ADDRESS":"武廟路２號之１","OBJECTID":564664},"geometry":{"x":174909.48999999929,"y":2579953.5700000022}},{"attributes":{"ID":564692,"DIS_CODE":0,"TOWNNAME":"鹽水區","LI":"中境里","LIN":"9鄰","STREET":"武廟路","SECT":" ","MAREA":" ","LANE":" ","ALLEY":" ","HOUSE_NO":"２號","E_COORD97":174910.66,"N_COORD97":2579957.9199999999,"ADDRESS":"武廟路２號","OBJECTID":564665},"geometry":{"x":174910.66000000108,"y":2579957.9199999999}},{"attributes":{"ID":564693,"DIS_CODE":0,"TOWNNAME":"鹽水區","LI":"武廟里","LIN":"9鄰","STREET":"武廟路","SECT":" ","MAREA":" ","LANE":" ","ALLEY":" ","HOUSE_NO":"３１號之１","E_COORD97":174856.32999999999,"N_COORD97":2580102.7999999998,"ADDRESS":"武廟路３１號之１","OBJECTID":564666},"geometry":{"x":174856.33000000194,"y":2580102.8000000007}},{"attributes":{"ID":564694,"DIS_CODE":0,"TOWNNAME":"鹽水區","LI":"武廟里","LIN":"9鄰","STREET":"武廟路","SECT":" ","MAREA":" ","LANE":" ","ALLEY":" ","HOUSE_NO":"３１號","E_COORD97":174890.47,"N_COORD97":2580095.1000000001,"ADDRESS":"武廟路３１號","OBJECTID":564667},"geometry":{"x":174890.46999999881,"y":2580095.1000000015}},{"attributes":{"ID":564695,"DIS_CODE":0,"TOWNNAME":"鹽水區","LI":"武廟里","LIN":"9鄰","STREET":"武廟路","SECT":" ","MAREA":" ","LANE":" ","ALLEY":" ","HOUSE_NO":"３３號","E_COORD97":174897.42999999999,"N_COORD97":2580106.8999999999,"ADDRESS":"武廟路３３號","OBJECTID":564668},"geometry":{"x":174897.4299999997,"y":2580106.9000000022}},{"attributes":{"ID":564696,"DIS_CODE":0,"TOWNNAME":"鹽水區","LI":"武廟里","LIN":"9鄰","STREET":"武廟路","SECT":" ","MAREA":" ","LANE":" ","ALLEY":" ","HOUSE_NO":"３５號","E_COORD97":174897.16,"N_COORD97":2580111.6000000001,"ADDRESS":"武廟路３５號","OBJECTID":564669},"geometry":{"x":174897.16000000108,"y":2580111.6000000015}},{"attributes":{"ID":564697,"DIS_CODE":0,"TOWNNAME":"鹽水區","LI":"武廟里","LIN":"9鄰","STREET":"武廟路","SECT":" ","MAREA":" ","LANE":" ","ALLEY":" ","HOUSE_NO":"３７號","E_COORD97":174897.59,"N_COORD97":2580116.6499999999,"ADDRESS":"武廟路３７號","OBJECTID":564670},"geometry":{"x":174897.58999999985,"y":2580116.6500000004}},{"attributes":{"ID":564698,"DIS_CODE":0,"TOWNNAME":"鹽水區","LI":"中境里","LIN":"9鄰","STREET":"武廟路","SECT":" ","MAREA":" ","LANE":" ","ALLEY":" ","HOUSE_NO":"４號","E_COORD97":174911.10000000001,"N_COORD97":2579962.3999999999,"ADDRESS":"武廟路４號","OBJECTID":564671},"geometry":{"x":174911.09999999963,"y":2579962.4000000004}},{"attributes":{"ID":564699,"DIS_CODE":0,"TOWNNAME":"安平區","LI":"西門里","LIN":"9鄰","STREET":"國勝路","SECT":" ","MAREA":" ","LANE":" ","ALLEY":" ","HOUSE_NO":"６７號","E_COORD97":163843.42000000001,"N_COORD97":2544726.1299999999,"ADDRESS":"國勝路６７號","OBJECTID":564672},"geometry":{"x":163843.41999999993,"y":2544726.129999999}},{"attributes":{"ID":564700,"DIS_CODE":0,"TOWNNAME":"安平區","LI":"西門里","LIN":"9鄰","STREET":"國勝路","SECT":" ","MAREA":" ","LANE":" ","ALLEY":" ","HOUSE_NO":"７１號之１","E_COORD97":163847.51999999999,"N_COORD97":2544749.7599999998,"ADDRESS":"國勝路７１號之１","OBJECTID":564673},"geometry":{"x":163847.52000000142,"y":2544749.7599999998}},{"attributes":{"ID":564701,"DIS_CODE":0,"TOWNNAME":"安平區","LI":"港仔里","LIN":"9鄰","STREET":"安平路","SECT":" ","MAREA":" ","LANE":" ","ALLEY":" ","HOUSE_NO":"１２５號","E_COORD97":164212.39000000001,"N_COORD97":2544502.9500000002,"ADDRESS":"安平路１２５號","OBJECTID":564674},"geometry":{"x":164212.38999999966,"y":2544502.9500000011}},{"attributes":{"ID":564702,"DIS_CODE":0,"TOWNNAME":"永康區","LI":"\u25A0洲里","LIN":"7鄰","STREET":"三村二街","SECT":" ","MAREA":" ","LANE":" ","ALLEY":" ","HOUSE_NO":"９３號","E_COORD97":171727.17999999999,"N_COORD97":2549526.75,"ADDRESS":"三村二街９３號","OBJECTID":564675},"geometry":{"x":171727.1799999997,"y":2549526.7500000019}},{"attributes":{"ID":564703,"DIS_CODE":0,"TOWNNAME":"永康區","LI":"\u25A0洲里","LIN":"7鄰","STREET":"三村二街","SECT":" ","MAREA":" ","LANE":" ","ALLEY":" ","HOUSE_NO":"６９號","E_COORD97":171778.92999999999,"N_COORD97":2549497.2400000002,"ADDRESS":"三村二街６９號","OBJECTID":564676},"geometry":{"x":171778.93000000063,"y":2549497.2400000002}},{"attributes":{"ID":564704,"DIS_CODE":0,"TOWNNAME":"永康區","LI":"\u25A0行里","LIN":"15鄰","STREET":"中正南路","SECT":" ","MAREA":" ","LANE":" ","ALLEY":" ","HOUSE_NO":"７４６號","E_COORD97":171737.39999999999,"N_COORD97":2548961.7400000002,"ADDRESS":"中正南路７４６號","OBJECTID":564677},"geometry":{"x":171737.4000000013,"y":2548961.7400000002}},{"attributes":{"ID":564705,"DIS_CODE":0,"TOWNNAME":"永康區","LI":"\u25A0行里","LIN":"10鄰","STREET":"中正路","SECT":" ","MAREA":" ","LANE":" ","ALLEY":" ","HOUSE_NO":"４９９號","E_COORD97":172229.14000000001,"N_COORD97":2548647.5800000001,"ADDRESS":"中正路４９９號","OBJECTID":564678},"geometry":{"x":172229.13999999966,"y":2548647.5800000001}},{"attributes":{"ID":564706,"DIS_CODE":0,"TOWNNAME":"安平區","LI":"港仔里","LIN":"9鄰","STREET":"安平路","SECT":" ","MAREA":" ","LANE":" ","ALLEY":" ","HOUSE_NO":"１４７號","E_COORD97":164132.98000000001,"N_COORD97":2544523.8599999999,"ADDRESS":"安平路１４７號","OBJECTID":564679},"geometry":{"x":164132.98000000045,"y":2544523.8600000013}},{"attributes":{"ID":564707,"DIS_CODE":0,"TOWNNAME":"安平區","LI":"港仔里","LIN":"9鄰","STREET":"安平路","SECT":" ","MAREA":" ","LANE":" ","ALLEY":" ","HOUSE_NO":"７４０號","E_COORD97":164227.17000000001,"N_COORD97":2544523.7400000002,"ADDRESS":"安平路７４０號","OBJECTID":564680},"geometry":{"x":164227.17000000086,"y":2544523.7400000002}},{"attributes":{"ID":564708,"DIS_CODE":0,"TOWNNAME":"安平區","LI":"港仔里","LIN":"9鄰","STREET":"安平路","SECT":" ","MAREA":" ","LANE":" ","ALLEY":" ","HOUSE_NO":"７４２號","E_COORD97":164215.64000000001,"N_COORD97":2544527.3300000001,"ADDRESS":"安平路７４２號","OBJECTID":564681},"geometry":{"x":164215.63999999966,"y":2544527.3300000038}},{"attributes":{"ID":564709,"DIS_CODE":0,"TOWNNAME":"安平區","LI":"怡平里","LIN":"9鄰","STREET":"慶平路","SECT":" ","MAREA":" ","LANE":" ","ALLEY":" ","HOUSE_NO":"１９１號","E_COORD97":165822.95999999999,"N_COORD97":2544167.3799999999,"ADDRESS":"慶平路１９１號","OBJECTID":564682},"geometry":{"x":165822.95999999996,"y":2544167.3800000008}},{"attributes":{"ID":564710,"DIS_CODE":0,"TOWNNAME":"安平區","LI":"港仔里","LIN":"9鄰","STREET":"安平路","SECT":" ","MAREA":" ","LANE":" ","ALLEY":" ","HOUSE_NO":"７３６號","E_COORD97":164193.10000000001,"N_COORD97":2544536.8500000001,"ADDRESS":"安平路７３６號","OBJECTID":564683},"geometry":{"x":164193.10000000056,"y":2544536.8500000034}},{"attributes":{"ID":564711,"DIS_CODE":0,"TOWNNAME":"安平區","LI":"港仔里","LIN":"9鄰","STREET":"安平路","SECT":" ","MAREA":" ","LANE":" ","ALLEY":" ","HOUSE_NO":"７４４號","E_COORD97":164209.20999999999,"N_COORD97":2544529.2200000002,"ADDRESS":"安平路７４４號","OBJECTID":564684},"geometry":{"x":164209.20999999996,"y":2544529.2200000025}},{"attributes":{"ID":564712,"DIS_CODE":0,"TOWNNAME":"安平區","LI":"華平里","LIN":"9鄰","STREET":"健康二街","SECT":" ","MAREA":" ","LANE":" ","ALLEY":" ","HOUSE_NO":"４７８號","E_COORD97":165360.22,"N_COORD97":2543889.5099999998,"ADDRESS":"健康二街４７８號","OBJECTID":564685},"geometry":{"x":165360.2200000016,"y":2543889.5100000016}},{"attributes":{"ID":564713,"DIS_CODE":0,"TOWNNAME":"安平區","LI":"建平里","LIN":"9鄰","STREET":"建平十五街","SECT":" ","MAREA":" ","LANE":" ","ALLEY":" ","HOUSE_NO":"２０７號","E_COORD97":166049.31,"N_COORD97":2544123.1699999999,"ADDRESS":"建平十五街２０７號","OBJECTID":564686},"geometry":{"x":166049.30999999866,"y":2544123.1699999999}},{"attributes":{"ID":564714,"DIS_CODE":0,"TOWNNAME":"鹽水區","LI":"中境里","LIN":"9鄰","STREET":"武廟路","SECT":" ","MAREA":" ","LANE":" ","ALLEY":" ","HOUSE_NO":"６號","E_COORD97":174912.23999999999,"N_COORD97":2579967.3300000001,"ADDRESS":"武廟路６號","OBJECTID":564687},"geometry":{"x":174912.24000000022,"y":2579967.3300000019}},{"attributes":{"ID":564715,"DIS_CODE":0,"TOWNNAME":"安平區","LI":"港仔里","LIN":"9鄰","STREET":"安平路","SECT":" ","MAREA":" ","LANE":" ","ALLEY":" ","HOUSE_NO":"１２３之１號","E_COORD97":164230.69,"N_COORD97":2544501.3199999998,"ADDRESS":"安平路１２３之１號","OBJECTID":564688},"geometry":{"x":164230.69000000134,"y":2544501.3200000022}},{"attributes":{"ID":564716,"DIS_CODE":0,"TOWNNAME":"永康區","LI":"復國里","LIN":" ","STREET":"復國一路","SECT":" ","MAREA":" ","LANE":" ","ALLEY":" ","HOUSE_NO":"２８７號","E_COORD97":172735.72,"N_COORD97":2545515.5299999998,"ADDRESS":"復國一路２８７號","OBJECTID":564689},"geometry":{"x":172735.71999999974,"y":2545515.5300000012}},{"attributes":{"ID":564717,"DIS_CODE":0,"TOWNNAME":"永康區","LI":"\u25A0行里","LIN":"28鄰","STREET":"中正三街","SECT":" ","MAREA":" ","LANE":" ","ALLEY":" ","HOUSE_NO":"５１２號","E_COORD97":173004.23000000001,"N_COORD97":2548528.4900000002,"ADDRESS":"中正三街５１２號","OBJECTID":564690},"geometry":{"x":173004.23000000045,"y":2548528.4900000021}},{"attributes":{"ID":564718,"DIS_CODE":0,"TOWNNAME":"永康區","LI":"\u25A0行里","LIN":"31鄰","STREET":"仁愛街","SECT":" ","MAREA":" ","LANE":" ","ALLEY":" ","HOUSE_NO":"６號","E_COORD97":171887.14999999999,"N_COORD97":2549114.8900000001,"ADDRESS":"仁愛街６號","OBJECTID":564691},"geometry":{"x":171887.15000000037,"y":2549114.8900000025}},{"attributes":{"ID":564719,"DIS_CODE":0,"TOWNNAME":"永康區","LI":"\u25A0行里","LIN":"12鄰","STREET":"中正路","SECT":" ","MAREA":" ","LANE":" ","ALLEY":" ","HOUSE_NO":"５５３號","E_COORD97":171974.60000000001,"N_COORD97":2548899.73,"ADDRESS":"中正路５５３號","OBJECTID":564692},"geometry":{"x":171974.60000000056,"y":2548899.7300000023}},{"attributes":{"ID":564720,"DIS_CODE":0,"TOWNNAME":"永康區","LI":"正強里","LIN":"9鄰","STREET":"正義街","SECT":" ","MAREA":" ","LANE":" ","ALLEY":" ","HOUSE_NO":"１１２號","E_COORD97":173405.35000000001,"N_COORD97":2547567.52,"ADDRESS":"正義街１１２號","OBJECTID":564693},"geometry":{"x":173405.35000000056,"y":2547567.5200000014}},{"attributes":{"ID":564721,"DIS_CODE":0,"TOWNNAME":"鹽水區","LI":"中境里","LIN":"9鄰","STREET":"武廟路","SECT":" ","MAREA":" ","LANE":" ","ALLEY":" ","HOUSE_NO":"８號","E_COORD97":174936.20000000001,"N_COORD97":2579969.1400000001,"ADDRESS":"武廟路８號","OBJECTID":564694},"geometry":{"x":174936.20000000019,"y":2579969.1400000025}},{"attributes":{"ID":564722,"DIS_CODE":0,"TOWNNAME":"鹽水區","LI":"橋南里","LIN":"9鄰","STREET":"南門路","SECT":" ","MAREA":" ","LANE":" ","ALLEY":" ","HOUSE_NO":"１５６號","E_COORD97":175318.09,"N_COORD97":2579057.6099999999,"ADDRESS":"南門路１５６號","OBJECTID":564695},"geometry":{"x":175318.08999999985,"y":2579057.6099999994}},{"attributes":{"ID":564723,"DIS_CODE":0,"TOWNNAME":"鹽水區","LI":"橋南里","LIN":"9鄰","STREET":"南門路","SECT":" ","MAREA":" ","LANE":" ","ALLEY":" ","HOUSE_NO":"１５８號","E_COORD97":175319.85000000001,"N_COORD97":2579054.5099999998,"ADDRESS":"南門路１５８號","OBJECTID":564696},"geometry":{"x":175319.84999999963,"y":2579054.5100000016}},{"attributes":{"ID":564724,"DIS_CODE":0,"TOWNNAME":"鹽水區","LI":"橋南里","LIN":"9鄰","STREET":"南門路","SECT":" ","MAREA":" ","LANE":" ","ALLEY":" ","HOUSE_NO":"１６０號","E_COORD97":175321.48999999999,"N_COORD97":2579050.1499999999,"ADDRESS":"南門路１６０號","OBJECTID":564697},"geometry":{"x":175321.49000000209,"y":2579050.1500000022}},{"attributes":{"ID":564725,"DIS_CODE":0,"TOWNNAME":"鹽水區","LI":"橋南里","LIN":"9鄰","STREET":"南門路","SECT":" ","MAREA":" ","LANE":" ","ALLEY":" ","HOUSE_NO":"１６４號","E_COORD97":175327.70999999999,"N_COORD97":2579041.6299999999,"ADDRESS":"南門路１６４號","OBJECTID":564698},"geometry":{"x":175327.70999999996,"y":2579041.6300000027}},{"attributes":{"ID":564726,"DIS_CODE":0,"TOWNNAME":"鹽水區","LI":"橋南里","LIN":"9鄰","STREET":"南門路","SECT":" ","MAREA":" ","LANE":" ","ALLEY":" ","HOUSE_NO":"１６６號","E_COORD97":175329.85000000001,"N_COORD97":2579038.5,"ADDRESS":"南門路１６６號","OBJECTID":564699},"geometry":{"x":175329.84999999963,"y":2579038.5}},{"attributes":{"ID":564727,"DIS_CODE":0,"TOWNNAME":"鹽水區","LI":"橋南里","LIN":"9鄰","STREET":"南門路","SECT":" ","MAREA":" ","LANE":" ","ALLEY":" ","HOUSE_NO":"１７０號","E_COORD97":175336.82999999999,"N_COORD97":2579028.3300000001,"ADDRESS":"南門路１７０號","OBJECTID":564700},"geometry":{"x":175336.83000000101,"y":2579028.3300000019}},{"attributes":{"ID":564728,"DIS_CODE":0,"TOWNNAME":"鹽水區","LI":"橋南里","LIN":"9鄰","STREET":"南門路","SECT":" ","MAREA":" ","LANE":" ","ALLEY":" ","HOUSE_NO":"１７２號","E_COORD97":175340.57999999999,"N_COORD97":2579024.6600000001,"ADDRESS":"南門路１７２號","OBJECTID":564701},"geometry":{"x":175340.58000000007,"y":2579024.6600000001}},{"attributes":{"ID":564729,"DIS_CODE":0,"TOWNNAME":"鹽水區","LI":"橋南里","LIN":"9鄰","STREET":"南門路","SECT":" ","MAREA":" ","LANE":" ","ALLEY":" ","HOUSE_NO":"１７４號","E_COORD97":175343.79000000001,"N_COORD97":2579021.0899999999,"ADDRESS":"南門路１７４號","OBJECTID":564702},"geometry":{"x":175343.79000000097,"y":2579021.0899999999}},{"attributes":{"ID":564730,"DIS_CODE":0,"TOWNNAME":"鹽水區","LI":"橋南里","LIN":"9鄰","STREET":"南門路","SECT":" ","MAREA":" ","LANE":" ","ALLEY":" ","HOUSE_NO":"１７８號","E_COORD97":175351.25,"N_COORD97":2579012.7200000002,"ADDRESS":"南門路１７８號","OBJECTID":564703},"geometry":{"x":175351.25,"y":2579012.7200000025}},{"attributes":{"ID":564731,"DIS_CODE":0,"TOWNNAME":"鹽水區","LI":"橋南里","LIN":"9鄰","STREET":"南門路","SECT":" ","MAREA":" ","LANE":" ","ALLEY":" ","HOUSE_NO":"１８０號","E_COORD97":175353.94,"N_COORD97":2579008.8399999999,"ADDRESS":"南門路１８０號","OBJECTID":564704},"geometry":{"x":175353.94000000041,"y":2579008.8399999999}},{"attributes":{"ID":564732,"DIS_CODE":0,"TOWNNAME":"永康區","LI":"南灣里","LIN":" ","STREET":"南興路","SECT":" ","MAREA":" ","LANE":" ","ALLEY":" ","HOUSE_NO":"１５號之６","E_COORD97":174054.17000000001,"N_COORD97":2543967.0499999998,"ADDRESS":"南興路１５號之６","OBJECTID":564705},"geometry":{"x":174054.17000000086,"y":2543967.0500000045}},{"attributes":{"ID":564733,"DIS_CODE":0,"TOWNNAME":"永康區","LI":"\u25A0行里","LIN":"48鄰","STREET":"新行街","SECT":" ","MAREA":" ","LANE":" ","ALLEY":" ","HOUSE_NO":"９４號","E_COORD97":172322.20999999999,"N_COORD97":2548949.23,"ADDRESS":"新行街９４號","OBJECTID":564706},"geometry":{"x":172322.20999999996,"y":2548949.2299999986}},{"attributes":{"ID":564734,"DIS_CODE":0,"TOWNNAME":"永康區","LI":"\u25A0洲里","LIN":"5鄰","STREET":"仁愛街","SECT":" ","MAREA":" ","LANE":" ","ALLEY":" ","HOUSE_NO":"８９號","E_COORD97":172029.20000000001,"N_COORD97":2549435.2799999998,"ADDRESS":"仁愛街８９號","OBJECTID":564707},"geometry":{"x":172029.20000000019,"y":2549435.2799999993}},{"attributes":{"ID":564735,"DIS_CODE":0,"TOWNNAME":"永康區","LI":"\u25A0行里","LIN":"7鄰","STREET":"中正路","SECT":" ","MAREA":" ","LANE":" ","ALLEY":" ","HOUSE_NO":"８１０號","E_COORD97":172203,"N_COORD97":2548701.9300000002,"ADDRESS":"中正路８１０號","OBJECTID":564708},"geometry":{"x":172203,"y":2548701.9299999997}},{"attributes":{"ID":564736,"DIS_CODE":0,"TOWNNAME":"永康區","LI":"\u25A0洲里","LIN":"9鄰","STREET":"\u25A0洲二街","SECT":" ","MAREA":" ","LANE":" ","ALLEY":" ","HOUSE_NO":"６１號","E_COORD97":171508.17000000001,"N_COORD97":2549216,"ADDRESS":"\u25A0洲二街６１號","OBJECTID":564709},"geometry":{"x":171508.17000000086,"y":2549216.0000000019}},{"attributes":{"ID":564737,"DIS_CODE":0,"TOWNNAME":"永康區","LI":"大橋里","LIN":" ","STREET":"大橋二街","SECT":" ","MAREA":" ","LANE":" ","ALLEY":" ","HOUSE_NO":"１４８號","E_COORD97":171038.64000000001,"N_COORD97":2546739.25,"ADDRESS":"大橋二街１４８號","OBJECTID":564710},"geometry":{"x":171038.6400000006,"y":2546739.2500000019}},{"attributes":{"ID":564738,"DIS_CODE":0,"TOWNNAME":"永康區","LI":"南灣里","LIN":" ","STREET":"南興路","SECT":" ","MAREA":" ","LANE":" ","ALLEY":" ","HOUSE_NO":"８之４號","E_COORD97":174465.76999999999,"N_COORD97":2544294.79,"ADDRESS":"南興路８之４號","OBJECTID":564711},"geometry":{"x":174465.76999999955,"y":2544294.7899999991}},{"attributes":{"ID":564739,"DIS_CODE":0,"TOWNNAME":"永康區","LI":"\u25A0洲里","LIN":"25鄰","STREET":"洲工街","SECT":" ","MAREA":" ","LANE":" ","ALLEY":" ","HOUSE_NO":"３號","E_COORD97":170654.67000000001,"N_COORD97":2548036.9900000002,"ADDRESS":"洲工街３號","OBJECTID":564712},"geometry":{"x":170654.66999999993,"y":2548036.9900000021}},{"attributes":{"ID":564740,"DIS_CODE":0,"TOWNNAME":"永康區","LI":"\u25A0行里","LIN":"34鄰","STREET":"新行街","SECT":" ","MAREA":" ","LANE":" ","ALLEY":" ","HOUSE_NO":"１６９號","E_COORD97":172324.45999999999,"N_COORD97":2549187.3700000001,"ADDRESS":"新行街１６９號","OBJECTID":564713},"geometry":{"x":172324.46000000183,"y":2549187.3700000029}},{"attributes":{"ID":564741,"DIS_CODE":0,"TOWNNAME":"永康區","LI":"\u25A0洲里","LIN":"7鄰","STREET":"三村二街","SECT":" ","MAREA":" ","LANE":" ","ALLEY":" ","HOUSE_NO":"７１號","E_COORD97":171774.25,"N_COORD97":2549499.2400000002,"ADDRESS":"三村二街７１號","OBJECTID":564714},"geometry":{"x":171774.25,"y":2549499.2400000021}},{"attributes":{"ID":564742,"DIS_CODE":0,"TOWNNAME":"永康區","LI":"\u25A0洲里","LIN":"7鄰","STREET":"三村二街","SECT":" ","MAREA":" ","LANE":" ","ALLEY":" ","HOUSE_NO":"６５號","E_COORD97":171832.14999999999,"N_COORD97":2549463.4900000002,"ADDRESS":"三村二街６５號","OBJECTID":564715},"geometry":{"x":171832.1500000013,"y":2549463.4900000021}},{"attributes":{"ID":564743,"DIS_CODE":0,"TOWNNAME":"永康區","LI":"\u25A0行里","LIN":"31鄰","STREET":"仁愛街","SECT":" ","MAREA":" ","LANE":" ","ALLEY":" ","HOUSE_NO":"５０號","E_COORD97":171955.63,"N_COORD97":2549213.4700000002,"ADDRESS":"仁愛街５０號","OBJECTID":564716},"geometry":{"x":171955.63000000082,"y":2549213.4700000025}},{"attributes":{"ID":564744,"DIS_CODE":0,"TOWNNAME":"永康區","LI":"\u25A0行里","LIN":"44鄰","STREET":"\u25A0和街","SECT":" ","MAREA":" ","LANE":" ","ALLEY":" ","HOUSE_NO":"２０３號","E_COORD97":171833.82000000001,"N_COORD97":2548042.46,"ADDRESS":"\u25A0和街２０３號","OBJECTID":564717},"geometry":{"x":171833.8200000003,"y":2548042.4600000009}},{"attributes":{"ID":564745,"DIS_CODE":0,"TOWNNAME":"永康區","LI":"復國里","LIN":" ","STREET":"復國一路","SECT":" ","MAREA":" ","LANE":" ","ALLEY":" ","HOUSE_NO":"２８１號","E_COORD97":172734.60000000001,"N_COORD97":2545500.7799999998,"ADDRESS":"復國一路２８１號","OBJECTID":564718},"geometry":{"x":172734.59999999963,"y":2545500.7800000012}},{"attributes":{"ID":564746,"DIS_CODE":0,"TOWNNAME":"永康區","LI":"\u25A0行里","LIN":"26鄰","STREET":"中正南路","SECT":" ","MAREA":" ","LANE":" ","ALLEY":" ","HOUSE_NO":"３９０號","E_COORD97":171022.14999999999,"N_COORD97":2548256.5899999999,"ADDRESS":"中正南路３９０號","OBJECTID":564719},"geometry":{"x":171022.1500000013,"y":2548256.5899999999}},{"attributes":{"ID":564747,"DIS_CODE":0,"TOWNNAME":"永康區","LI":"\u25A0行里","LIN":"13鄰","STREET":"中正南路","SECT":" ","MAREA":" ","LANE":" ","ALLEY":" ","HOUSE_NO":"７９８號","E_COORD97":171831.82000000001,"N_COORD97":2549028.5,"ADDRESS":"中正南路７９８號","OBJECTID":564720},"geometry":{"x":171831.8200000003,"y":2549028.5000000037}},{"attributes":{"ID":564748,"DIS_CODE":0,"TOWNNAME":"永康區","LI":"\u25A0行里","LIN":"31鄰","STREET":"仁愛街","SECT":" ","MAREA":" ","LANE":" ","ALLEY":" ","HOUSE_NO":"６０號","E_COORD97":172017.82000000001,"N_COORD97":2549346.2799999998,"ADDRESS":"仁愛街６０號","OBJECTID":564721},"geometry":{"x":172017.82000000123,"y":2549346.2799999993}},{"attributes":{"ID":564749,"DIS_CODE":0,"TOWNNAME":"永康區","LI":"\u25A0洲里","LIN":"4鄰","STREET":"\u25A0洲二街","SECT":" ","MAREA":" ","LANE":" ","ALLEY":" ","HOUSE_NO":"９７號","E_COORD97":171587.73999999999,"N_COORD97":2549280.9900000002,"ADDRESS":"\u25A0洲二街９７號","OBJECTID":564722},"geometry":{"x":171587.74000000115,"y":2549280.9900000021}},{"attributes":{"ID":564750,"DIS_CODE":0,"TOWNNAME":"永康區","LI":"正強里","LIN":" ","STREET":"中正路","SECT":" ","MAREA":" ","LANE":" ","ALLEY":" ","HOUSE_NO":"１７９號","E_COORD97":173204.67999999999,"N_COORD97":2547904.0499999998,"ADDRESS":"中正路１７９號","OBJECTID":564723},"geometry":{"x":173204.68000000063,"y":2547904.0500000026}},{"attributes":{"ID":564751,"DIS_CODE":0,"TOWNNAME":"永康區","LI":"五王里","LIN":" ","STREET":"成功路","SECT":" ","MAREA":" ","LANE":" ","ALLEY":" ","HOUSE_NO":"９５號","E_COORD97":171446.07000000001,"N_COORD97":2545573.7599999998,"ADDRESS":"成功路９５號","OBJECTID":564724},"geometry":{"x":171446.07000000123,"y":2545573.7599999998}},{"attributes":{"ID":564752,"DIS_CODE":0,"TOWNNAME":"永康區","LI":"\u25A0洲里","LIN":"7鄰","STREET":"三村二街","SECT":" ","MAREA":" ","LANE":" ","ALLEY":" ","HOUSE_NO":"１００號","E_COORD97":171764.12,"N_COORD97":2549531.75,"ADDRESS":"三村二街１００號","OBJECTID":564725},"geometry":{"x":171764.12000000197,"y":2549531.7499999981}},{"attributes":{"ID":564753,"DIS_CODE":0,"TOWNNAME":"永康區","LI":"\u25A0洲里","LIN":"7鄰","STREET":"三村二街","SECT":" ","MAREA":" ","LANE":" ","ALLEY":" ","HOUSE_NO":"７６號","E_COORD97":171807.26999999999,"N_COORD97":2549507.9900000002,"ADDRESS":"三村二街７６號","OBJECTID":564726},"geometry":{"x":171807.27000000048,"y":2549507.9900000021}},{"attributes":{"ID":564754,"DIS_CODE":0,"TOWNNAME":"永康區","LI":"\u25A0行里","LIN":"31鄰","STREET":"仁愛街","SECT":" ","MAREA":" ","LANE":" ","ALLEY":" ","HOUSE_NO":"３８號","E_COORD97":171932.48000000001,"N_COORD97":2549171.7200000002,"ADDRESS":"仁愛街３８號","OBJECTID":564727},"geometry":{"x":171932.48000000045,"y":2549171.7200000025}},{"attributes":{"ID":564755,"DIS_CODE":0,"TOWNNAME":"鹽水區","LI":"水秀里","LIN":"9鄰","STREET":"康樂路","SECT":" ","MAREA":" ","LANE":" ","ALLEY":" ","HOUSE_NO":"１８７號","E_COORD97":175389.57000000001,"N_COORD97":2580056.1499999999,"ADDRESS":"康樂路１８７號","OBJECTID":564728},"geometry":{"x":175389.57000000123,"y":2580056.1500000004}},{"attributes":{"ID":564756,"DIS_CODE":0,"TOWNNAME":"鹽水區","LI":"水秀里","LIN":"9鄰","STREET":"康樂路","SECT":" ","MAREA":" ","LANE":" ","ALLEY":" ","HOUSE_NO":"１８９號","E_COORD97":175393.09,"N_COORD97":2580058.5800000001,"ADDRESS":"康樂路１８９號","OBJECTID":564729},"geometry":{"x":175393.08999999985,"y":2580058.5800000001}},{"attributes":{"ID":564757,"DIS_CODE":0,"TOWNNAME":"鹽水區","LI":"水秀里","LIN":"9鄰","STREET":"康樂路","SECT":" ","MAREA":" ","LANE":" ","ALLEY":" ","HOUSE_NO":"１９１號","E_COORD97":175398.17999999999,"N_COORD97":2580061.7799999998,"ADDRESS":"康樂路１９１號","OBJECTID":564730},"geometry":{"x":175398.18000000063,"y":2580061.7800000012}},{"attributes":{"ID":564758,"DIS_CODE":0,"TOWNNAME":"鹽水區","LI":"水秀里","LIN":"9鄰","STREET":"康樂路","SECT":" ","MAREA":" ","LANE":" ","ALLEY":" ","HOUSE_NO":"１９３號","E_COORD97":175402.48999999999,"N_COORD97":2580063.9500000002,"ADDRESS":"康樂路１９３號","OBJECTID":564731},"geometry":{"x":175402.49000000022,"y":2580063.9500000011}},{"attributes":{"ID":564759,"DIS_CODE":0,"TOWNNAME":"鹽水區","LI":"水秀里","LIN":"9鄰","STREET":"康樂路","SECT":" ","MAREA":" ","LANE":" ","ALLEY":" ","HOUSE_NO":"１９５號","E_COORD97":175406.70999999999,"N_COORD97":2580066.8399999999,"ADDRESS":"康樂路１９５號","OBJECTID":564732},"geometry":{"x":175406.71000000089,"y":2580066.8399999999}},{"attributes":{"ID":564760,"DIS_CODE":0,"TOWNNAME":"永康區","LI":"\u25A0行里","LIN":"29鄰","STREET":"竹林街","SECT":" ","MAREA":" ","LANE":" ","ALLEY":" ","HOUSE_NO":"２９號","E_COORD97":172763.78,"N_COORD97":2548877.9700000002,"ADDRESS":"竹林街２９號","OBJECTID":564733},"geometry":{"x":172763.78000000119,"y":2548877.9700000025}},{"attributes":{"ID":564761,"DIS_CODE":0,"TOWNNAME":"永康區","LI":"五王里","LIN":" ","STREET":"成功路","SECT":" ","MAREA":" ","LANE":" ","ALLEY":" ","HOUSE_NO":"２４０號","E_COORD97":171339.09,"N_COORD97":2545798.52,"ADDRESS":"成功路２４０號","OBJECTID":564734},"geometry":{"x":171339.09000000078,"y":2545798.5199999996}},{"attributes":{"ID":564762,"DIS_CODE":0,"TOWNNAME":"永康區","LI":"\u25A0行里","LIN":"31鄰","STREET":"仁愛街","SECT":" ","MAREA":" ","LANE":" ","ALLEY":" ","HOUSE_NO":"４６號之７","E_COORD97":171984.14999999999,"N_COORD97":2549218.9500000002,"ADDRESS":"仁愛街４６號之７","OBJECTID":564735},"geometry":{"x":171984.15000000037,"y":2549218.9500000011}},{"attributes":{"ID":564763,"DIS_CODE":0,"TOWNNAME":"北區","LI":"仁愛里","LIN":"9鄰","STREET":"長榮路","SECT":"四段","MAREA":" ","LANE":" ","ALLEY":" ","HOUSE_NO":"５２號","E_COORD97":170318.88,"N_COORD97":2544926.4500000002,"ADDRESS":"長榮路四段５２號","OBJECTID":564736},"geometry":{"x":170318.87999999989,"y":2544926.4500000011}},{"attributes":{"ID":564764,"DIS_CODE":0,"TOWNNAME":"永康區","LI":"\u25A0洲里","LIN":"25鄰","STREET":"中正南路","SECT":" ","MAREA":" ","LANE":" ","ALLEY":" ","HOUSE_NO":"４３５號","E_COORD97":170791.89000000001,"N_COORD97":2548074.75,"ADDRESS":"中正南路４３５號","OBJECTID":564737},"geometry":{"x":170791.88999999966,"y":2548074.7500000019}},{"attributes":{"ID":564765,"DIS_CODE":0,"TOWNNAME":"永康區","LI":"\u25A0行里","LIN":"17鄰","STREET":"中正南路","SECT":" ","MAREA":" ","LANE":" ","ALLEY":" ","HOUSE_NO":"７０４號","E_COORD97":171670.26999999999,"N_COORD97":2548900,"ADDRESS":"中正南路７０４號","OBJECTID":564738},"geometry":{"x":171670.26999999955,"y":2548900.0000000019}},{"attributes":{"ID":564766,"DIS_CODE":0,"TOWNNAME":"北區","LI":"仁愛里","LIN":"9鄰","STREET":"長榮路","SECT":"四段","MAREA":" ","LANE":" ","ALLEY":" ","HOUSE_NO":"５６號","E_COORD97":170321.89999999999,"N_COORD97":2544950.5800000001,"ADDRESS":"長榮路四段５６號","OBJECTID":564739},"geometry":{"x":170321.9000000013,"y":2544950.5800000019}},{"attributes":{"ID":564767,"DIS_CODE":0,"TOWNNAME":"北區","LI":"正風里","LIN":"9鄰","STREET":"大武街","SECT":" ","MAREA":" ","LANE":" ","ALLEY":" ","HOUSE_NO":"３９７之１６號","E_COORD97":169702.64000000001,"N_COORD97":2546478.98,"ADDRESS":"大武街３９７之１６號","OBJECTID":564740},"geometry":{"x":169702.6400000006,"y":2546478.9800000004}},{"attributes":{"ID":564768,"DIS_CODE":0,"TOWNNAME":"北區","LI":"成德里","LIN":"9鄰","STREET":"西門路","SECT":"四段","MAREA":" ","LANE":" ","ALLEY":" ","HOUSE_NO":"１５５號","E_COORD97":168789.59,"N_COORD97":2545595.6699999999,"ADDRESS":"西門路四段１５５號","OBJECTID":564741},"geometry":{"x":168789.59000000078,"y":2545595.6699999999}},{"attributes":{"ID":564769,"DIS_CODE":0,"TOWNNAME":"北區","LI":"成德里","LIN":"9鄰","STREET":"西門路","SECT":"四段","MAREA":" ","LANE":" ","ALLEY":" ","HOUSE_NO":"１５７號","E_COORD97":168794.54000000001,"N_COORD97":2545605.8300000001,"ADDRESS":"西門路四段１５７號","OBJECTID":564742},"geometry":{"x":168794.5400000019,"y":2545605.8300000019}},{"attributes":{"ID":564770,"DIS_CODE":0,"TOWNNAME":"北區","LI":"大港里","LIN":"9鄰","STREET":"大興街","SECT":" ","MAREA":" ","LANE":" ","ALLEY":" ","HOUSE_NO":"２７４號","E_COORD97":166628.47,"N_COORD97":2545671.7000000002,"ADDRESS":"大興街２７４號","OBJECTID":564743},"geometry":{"x":166628.47000000067,"y":2545671.6999999993}},{"attributes":{"ID":564771,"DIS_CODE":0,"TOWNNAME":"南區","LI":"新昌里","LIN":"9鄰","STREET":"府緯街","SECT":" ","MAREA":" ","LANE":" ","ALLEY":" ","HOUSE_NO":"７３號","E_COORD97":167674.70999999999,"N_COORD97":2542712.0099999998,"ADDRESS":"府緯街７３號","OBJECTID":564744},"geometry":{"x":167674.71000000089,"y":2542712.0100000035}},{"attributes":{"ID":564772,"DIS_CODE":0,"TOWNNAME":"南區","LI":"文南里","LIN":"9鄰","STREET":"文南路","SECT":" ","MAREA":" ","LANE":" ","ALLEY":" ","HOUSE_NO":"７２號","E_COORD97":166949.26999999999,"N_COORD97":2542696.75,"ADDRESS":"文南路７２號","OBJECTID":564745},"geometry":{"x":166949.26999999955,"y":2542696.7499999981}},{"attributes":{"ID":564773,"DIS_CODE":0,"TOWNNAME":"南區","LI":"文南里","LIN":"9鄰","STREET":"文南路","SECT":" ","MAREA":" ","LANE":" ","ALLEY":" ","HOUSE_NO":"７６號","E_COORD97":166949.64999999999,"N_COORD97":2542702.1499999999,"ADDRESS":"文南路７６號","OBJECTID":564746},"geometry":{"x":166949.64999999944,"y":2542702.1500000022}},{"attributes":{"ID":564774,"DIS_CODE":0,"TOWNNAME":"南區","LI":"新昌里","LIN":"9鄰","STREET":"國華街","SECT":"一段","MAREA":" ","LANE":" ","ALLEY":" ","HOUSE_NO":"６９號","E_COORD97":167600.57000000001,"N_COORD97":2542738.6400000001,"ADDRESS":"國華街一段６９號","OBJECTID":564747},"geometry":{"x":167600.5700000003,"y":2542738.6400000006}},{"attributes":{"ID":564775,"DIS_CODE":0,"TOWNNAME":"新化區","LI":"武安里","LIN":"9鄰","STREET":"大同街","SECT":" ","MAREA":" ","LANE":" ","ALLEY":" ","HOUSE_NO":"５９號之２","E_COORD97":178962.03,"N_COORD97":2548190.2599999998,"ADDRESS":"大同街５９號之２","OBJECTID":564748},"geometry":{"x":178962.03000000026,"y":2548190.2600000016}},{"attributes":{"ID":564776,"DIS_CODE":0,"TOWNNAME":"新化區","LI":"武安里","LIN":"9鄰","STREET":"大同街","SECT":" ","MAREA":" ","LANE":" ","ALLEY":" ","HOUSE_NO":"８１號","E_COORD97":178991.88,"N_COORD97":2548249.25,"ADDRESS":"大同街８１號","OBJECTID":564749},"geometry":{"x":178991.87999999896,"y":2548249.25}},{"attributes":{"ID":564777,"DIS_CODE":0,"TOWNNAME":"新化區","LI":"豐榮里","LIN":"9鄰","STREET":"大智路","SECT":" ","MAREA":" ","LANE":" ","ALLEY":" ","HOUSE_NO":"３５號之１","E_COORD97":178328.20999999999,"N_COORD97":2548372.2599999998,"ADDRESS":"大智路３５號之１","OBJECTID":564750},"geometry":{"x":178328.20999999996,"y":2548372.2600000035}},{"attributes":{"ID":564778,"DIS_CODE":0,"TOWNNAME":"新化區","LI":"豐榮里","LIN":"9鄰","STREET":"大智路","SECT":" ","MAREA":" ","LANE":" ","ALLEY":" ","HOUSE_NO":"３５號","E_COORD97":178331.28,"N_COORD97":2548376.25,"ADDRESS":"大智路３５號","OBJECTID":564751},"geometry":{"x":178331.28000000026,"y":2548376.2500000019}},{"attributes":{"ID":564779,"DIS_CODE":0,"TOWNNAME":"永康區","LI":"東灣里","LIN":" ","STREET":"大灣一街","SECT":" ","MAREA":" ","LANE":" ","ALLEY":" ","HOUSE_NO":"１９６號","E_COORD97":174826.23999999999,"N_COORD97":2544569.5,"ADDRESS":"大灣一街１９６號","OBJECTID":564752},"geometry":{"x":174826.24000000022,"y":2544569.5}},{"attributes":{"ID":564780,"DIS_CODE":0,"TOWNNAME":"永康區","LI":"復華里","LIN":" ","STREET":"復華六街","SECT":" ","MAREA":" ","LANE":" ","ALLEY":" ","HOUSE_NO":"１７５號","E_COORD97":172948.54000000001,"N_COORD97":2545847.8599999999,"ADDRESS":"復華六街１７５號","OBJECTID":564753},"geometry":{"x":172948.54000000097,"y":2545847.8599999994}},{"attributes":{"ID":564781,"DIS_CODE":0,"TOWNNAME":"永康區","LI":"復國里","LIN":"15鄰","STREET":"復國二路","SECT":" ","MAREA":" ","LANE":" ","ALLEY":" ","HOUSE_NO":"１５５號","E_COORD97":172910.28,"N_COORD97":2545712.6000000001,"ADDRESS":"復國二路１５５號","OBJECTID":564754},"geometry":{"x":172910.28000000026,"y":2545712.6000000015}},{"attributes":{"ID":564782,"DIS_CODE":0,"TOWNNAME":"永康區","LI":"\u25A0行里","LIN":"44鄰","STREET":"\u25A0和街","SECT":" ","MAREA":" ","LANE":" ","ALLEY":" ","HOUSE_NO":"２１０號","E_COORD97":171826.45999999999,"N_COORD97":2548084.6899999999,"ADDRESS":"\u25A0和街２１０號","OBJECTID":564755},"geometry":{"x":171826.46000000089,"y":2548084.6900000013}},{"attributes":{"ID":564783,"DIS_CODE":0,"TOWNNAME":"永康區","LI":"\u25A0行里","LIN":"44鄰","STREET":"\u25A0和街","SECT":" ","MAREA":" ","LANE":" ","ALLEY":" ","HOUSE_NO":"２０８號","E_COORD97":171830.32000000001,"N_COORD97":2548077.6899999999,"ADDRESS":"\u25A0和街２０８號","OBJECTID":564756},"geometry":{"x":171830.3200000003,"y":2548077.6900000013}},{"attributes":{"ID":564784,"DIS_CODE":0,"TOWNNAME":"永康區","LI":"\u25A0洲里","LIN":"20鄰","STREET":"中正南路","SECT":" ","MAREA":" ","LANE":" ","ALLEY":" ","HOUSE_NO":"７８９號","E_COORD97":171691.14999999999,"N_COORD97":2548970.4900000002,"ADDRESS":"中正南路７８９號","OBJECTID":564757},"geometry":{"x":171691.15000000224,"y":2548970.4900000002}},{"attributes":{"ID":564785,"DIS_CODE":0,"TOWNNAME":"永康區","LI":"西勢里","LIN":" ","STREET":"西勢路","SECT":" ","MAREA":" ","LANE":" ","ALLEY":" ","HOUSE_NO":"３５號","E_COORD97":176225.20000000001,"N_COORD97":2546744.79,"ADDRESS":"西勢路３５號","OBJECTID":564758},"geometry":{"x":176225.19999999925,"y":2546744.790000001}},{"attributes":{"ID":564786,"DIS_CODE":0,"TOWNNAME":"永康區","LI":"崑山里","LIN":" ","STREET":"大仁街","SECT":" ","MAREA":" ","LANE":" ","ALLEY":" ","HOUSE_NO":"３２之４號","E_COORD97":173809.39000000001,"N_COORD97":2544621.9100000001,"ADDRESS":"大仁街３２之４號","OBJECTID":564759},"geometry":{"x":173809.38999999873,"y":2544621.9100000039}},{"attributes":{"ID":564787,"DIS_CODE":0,"TOWNNAME":"永康區","LI":"\u25A0洲里","LIN":"14鄰","STREET":"\u25A0洲一街","SECT":" ","MAREA":" ","LANE":" ","ALLEY":" ","HOUSE_NO":"４８號","E_COORD97":171564.44,"N_COORD97":2549023.75,"ADDRESS":"\u25A0洲一街４８號","OBJECTID":564760},"geometry":{"x":171564.44000000134,"y":2549023.7500000019}},{"attributes":{"ID":564788,"DIS_CODE":0,"TOWNNAME":"永康區","LI":"勝利里","LIN":"17鄰","STREET":"中華一路","SECT":" ","MAREA":" ","LANE":" ","ALLEY":" ","HOUSE_NO":"３２２號","E_COORD97":171219.35999999999,"N_COORD97":2545002,"ADDRESS":"中華一路３２２號","OBJECTID":564761},"geometry":{"x":171219.36000000034,"y":2545002.0000000019}},{"attributes":{"ID":564789,"DIS_CODE":0,"TOWNNAME":"關廟區","LI":"深坑里","LIN":"9鄰","STREET":"深坑三街","SECT":" ","MAREA":" ","LANE":" ","ALLEY":" ","HOUSE_NO":"１７號","E_COORD97":181782.87,"N_COORD97":2537839.2799999998,"ADDRESS":"深坑三街１７號","OBJECTID":564762},"geometry":{"x":181782.87000000104,"y":2537839.2800000012}},{"attributes":{"ID":564790,"DIS_CODE":0,"TOWNNAME":"關廟區","LI":"新埔里","LIN":"9鄰","STREET":"新埔二街","SECT":" ","MAREA":" ","LANE":" ","ALLEY":" ","HOUSE_NO":"１４１號","E_COORD97":181251.51999999999,"N_COORD97":2541041.25,"ADDRESS":"新埔二街１４１號","OBJECTID":564763},"geometry":{"x":181251.51999999955,"y":2541041.25}},{"attributes":{"ID":564791,"DIS_CODE":0,"TOWNNAME":"永康區","LI":"王行里","LIN":" ","STREET":"王行路","SECT":" ","MAREA":" ","LANE":" ","ALLEY":" ","HOUSE_NO":"１１０２之號","E_COORD97":175639.98000000001,"N_COORD97":2550231.04,"ADDRESS":"王行路１１０２之號","OBJECTID":564764},"geometry":{"x":175639.98000000045,"y":2550231.0400000028}},{"attributes":{"ID":564792,"DIS_CODE":0,"TOWNNAME":"永康區","LI":"南灣里","LIN":" ","STREET":"立興街","SECT":" ","MAREA":" ","LANE":" ","ALLEY":" ","HOUSE_NO":"５６號","E_COORD97":174584.59,"N_COORD97":2544850.6800000002,"ADDRESS":"立興街５６號","OBJECTID":564765},"geometry":{"x":174584.58999999985,"y":2544850.6800000016}},{"attributes":{"ID":564793,"DIS_CODE":0,"TOWNNAME":"永康區","LI":"\u25A0洲里","LIN":"7鄰","STREET":"\u25A0洲二街","SECT":" ","MAREA":" ","LANE":" ","ALLEY":" ","HOUSE_NO":"２１１號","E_COORD97":171787.23999999999,"N_COORD97":2549470.9900000002,"ADDRESS":"\u25A0洲二街２１１號","OBJECTID":564766},"geometry":{"x":171787.24000000115,"y":2549470.9900000021}},{"attributes":{"ID":564794,"DIS_CODE":0,"TOWNNAME":"關廟區","LI":"關廟里","LIN":"9鄰","STREET":"民生街","SECT":" ","MAREA":" ","LANE":" ","ALLEY":" ","HOUSE_NO":"７１號","E_COORD97":180913.44,"N_COORD97":2539631.29,"ADDRESS":"民生街７１號","OBJECTID":564767},"geometry":{"x":180913.44000000134,"y":2539631.290000001}},{"attributes":{"ID":564795,"DIS_CODE":0,"TOWNNAME":"關廟區","LI":"松腳里","LIN":"9鄰","STREET":"四維街","SECT":" ","MAREA":" ","LANE":" ","ALLEY":" ","HOUSE_NO":"１０５號","E_COORD97":181870.06,"N_COORD97":2539706.25,"ADDRESS":"四維街１０５號","OBJECTID":564768},"geometry":{"x":181870.05999999959,"y":2539706.25}},{"attributes":{"ID":564796,"DIS_CODE":0,"TOWNNAME":"關廟區","LI":"香洋里","LIN":"9鄰","STREET":"中山路","SECT":"二段","MAREA":" ","LANE":" ","ALLEY":" ","HOUSE_NO":"１２號","E_COORD97":181056.81,"N_COORD97":2540016.2799999998,"ADDRESS":"中山路二段１２號","OBJECTID":564769},"geometry":{"x":181056.80999999866,"y":2540016.2799999993}},{"attributes":{"ID":564797,"DIS_CODE":0,"TOWNNAME":"關廟區","LI":"深坑里","LIN":"9鄰","STREET":"深坑三街","SECT":" ","MAREA":" ","LANE":" ","ALLEY":" ","HOUSE_NO":"２９號","E_COORD97":181839.51999999999,"N_COORD97":2537813.2999999998,"ADDRESS":"深坑三街２９號","OBJECTID":564770},"geometry":{"x":181839.51999999955,"y":2537813.3000000026}},{"attributes":{"ID":564798,"DIS_CODE":0,"TOWNNAME":"關廟區","LI":"新埔里","LIN":"9鄰","STREET":"新埔二街","SECT":" ","MAREA":" ","LANE":" ","ALLEY":" ","HOUSE_NO":"１５３號","E_COORD97":181256.12,"N_COORD97":2541076.25,"ADDRESS":"新埔二街１５３號","OBJECTID":564771},"geometry":{"x":181256.12000000104,"y":2541076.2500000037}},{"attributes":{"ID":564799,"DIS_CODE":0,"TOWNNAME":"永康區","LI":"蔦松里","LIN":" ","STREET":"中正北路","SECT":" ","MAREA":" ","LANE":" ","ALLEY":" ","HOUSE_NO":"５６４號","E_COORD97":174172.17999999999,"N_COORD97":2549376.7400000002,"ADDRESS":"中正北路５６４號","OBJECTID":564772},"geometry":{"x":174172.18000000156,"y":2549376.7400000021}},{"attributes":{"ID":564800,"DIS_CODE":0,"TOWNNAME":"永康區","LI":"\u25A0洲里","LIN":"24鄰","STREET":"正南二街","SECT":" ","MAREA":" ","LANE":" ","ALLEY":" ","HOUSE_NO":"９號","E_COORD97":170895.20999999999,"N_COORD97":2548219.4900000002,"ADDRESS":"正南二街９號","OBJECTID":564773},"geometry":{"x":170895.20999999903,"y":2548219.4900000021}},{"attributes":{"ID":564801,"DIS_CODE":0,"TOWNNAME":"永康區","LI":"\u25A0洲里","LIN":"8鄰","STREET":"中正南路","SECT":" ","MAREA":" ","LANE":" ","ALLEY":" ","HOUSE_NO":"８６９號","E_COORD97":171808.04999999999,"N_COORD97":2549073.2400000002,"ADDRESS":"中正南路８６９號","OBJECTID":564774},"geometry":{"x":171808.04999999981,"y":2549073.2400000002}},{"attributes":{"ID":564802,"DIS_CODE":0,"TOWNNAME":"永康區","LI":"\u25A0洲里","LIN":"33鄰","STREET":"洲尾街","SECT":" ","MAREA":" ","LANE":" ","ALLEY":" ","HOUSE_NO":"９６號","E_COORD97":170921.85000000001,"N_COORD97":2549008.48,"ADDRESS":"洲尾街９６號","OBJECTID":564775},"geometry":{"x":170921.85000000056,"y":2549008.4799999986}},{"attributes":{"ID":564803,"DIS_CODE":0,"TOWNNAME":"關廟區","LI":"山西里","LIN":"9鄰","STREET":"文衡路","SECT":" ","MAREA":" ","LANE":" ","ALLEY":" ","HOUSE_NO":"３１２號","E_COORD97":180917.01000000001,"N_COORD97":2540759.1000000001,"ADDRESS":"文衡路３１２號","OBJECTID":564776},"geometry":{"x":180917.01000000071,"y":2540759.1000000015}},{"attributes":{"ID":564804,"DIS_CODE":0,"TOWNNAME":"關廟區","LI":"山西里","LIN":"9鄰","STREET":"文衡路","SECT":" ","MAREA":" ","LANE":" ","ALLEY":" ","HOUSE_NO":"３１６號","E_COORD97":180917.85000000001,"N_COORD97":2540762.9500000002,"ADDRESS":"文衡路３１６號","OBJECTID":564777},"geometry":{"x":180917.85000000056,"y":2540762.9500000011}},{"attributes":{"ID":564805,"DIS_CODE":0,"TOWNNAME":"永康區","LI":"尚頂里","LIN":"4鄰","STREET":"中正南路","SECT":" ","MAREA":" ","LANE":" ","ALLEY":" ","HOUSE_NO":"２８０號","E_COORD97":170544.88,"N_COORD97":2547730.5600000001,"ADDRESS":"中正南路２８０號","OBJECTID":564778},"geometry":{"x":170544.88000000175,"y":2547730.5600000024}},{"attributes":{"ID":564806,"DIS_CODE":0,"TOWNNAME":"關廟區","LI":"東勢里","LIN":"9鄰","STREET":"旺萊路","SECT":" ","MAREA":" ","LANE":" ","ALLEY":" ","HOUSE_NO":"３６８號","E_COORD97":182099.07000000001,"N_COORD97":2539540.3300000001,"ADDRESS":"旺萊路３６８號","OBJECTID":564779},"geometry":{"x":182099.07000000123,"y":2539540.3300000019}},{"attributes":{"ID":564807,"DIS_CODE":0,"TOWNNAME":"關廟區","LI":"南花里","LIN":"9鄰","STREET":"花園一街","SECT":" ","MAREA":" ","LANE":" ","ALLEY":" ","HOUSE_NO":"１３８號","E_COORD97":181792.88,"N_COORD97":2540197.1699999999,"ADDRESS":"花園一街１３８號","OBJECTID":564780},"geometry":{"x":181792.88000000082,"y":2540197.1699999999}},{"attributes":{"ID":564808,"DIS_CODE":0,"TOWNNAME":"關廟區","LI":"南花里","LIN":"9鄰","STREET":"花園一街","SECT":" ","MAREA":" ","LANE":" ","ALLEY":" ","HOUSE_NO":"１４０號","E_COORD97":181788.62,"N_COORD97":2540197.4700000002,"ADDRESS":"花園一街１４０號","OBJECTID":564781},"geometry":{"x":181788.62000000011,"y":2540197.4700000044}},{"attributes":{"ID":564809,"DIS_CODE":0,"TOWNNAME":"關廟區","LI":"五甲里","LIN":"9鄰","STREET":"南雄路","SECT":"一段","MAREA":" ","LANE":" ","ALLEY":" ","HOUSE_NO":"５３９號","E_COORD97":181581.88,"N_COORD97":2538393.0800000001,"ADDRESS":"南雄路一段５３９號","OBJECTID":564782},"geometry":{"x":181581.87999999989,"y":2538393.0800000019}},{"attributes":{"ID":564810,"DIS_CODE":0,"TOWNNAME":"永康區","LI":"王行里","LIN":" ","STREET":"王行路","SECT":" ","MAREA":" ","LANE":" ","ALLEY":" ","HOUSE_NO":"９０４號","E_COORD97":175847.06,"N_COORD97":2550064.3700000001,"ADDRESS":"王行路９０４號","OBJECTID":564783},"geometry":{"x":175847.05999999959,"y":2550064.3700000048}},{"attributes":{"ID":564811,"DIS_CODE":0,"TOWNNAME":"永康區","LI":"安康里","LIN":" ","STREET":"大橋一街","SECT":" ","MAREA":" ","LANE":" ","ALLEY":" ","HOUSE_NO":"５６號","E_COORD97":170664.23999999999,"N_COORD97":2546261.6699999999,"ADDRESS":"大橋一街５６號","OBJECTID":564784},"geometry":{"x":170664.24000000022,"y":2546261.6700000018}},{"attributes":{"ID":564812,"DIS_CODE":0,"TOWNNAME":"永康區","LI":"大橋里","LIN":" ","STREET":"大橋二街","SECT":" ","MAREA":" ","LANE":" ","ALLEY":" ","HOUSE_NO":"４８號","E_COORD97":170825.04000000001,"N_COORD97":2546593.3100000001,"ADDRESS":"大橋二街４８號","OBJECTID":564785},"geometry":{"x":170825.04000000004,"y":2546593.3100000024}},{"attributes":{"ID":564813,"DIS_CODE":0,"TOWNNAME":"永康區","LI":"\u25A0洲里","LIN":"22鄰","STREET":"\u25A0忠街","SECT":" ","MAREA":" ","LANE":" ","ALLEY":" ","HOUSE_NO":"１號","E_COORD97":171567.31,"N_COORD97":2548874.8500000001,"ADDRESS":"\u25A0忠街１號","OBJECTID":564786},"geometry":{"x":171567.31000000145,"y":2548874.8499999996}},{"attributes":{"ID":564814,"DIS_CODE":0,"TOWNNAME":"永康區","LI":"\u25A0洲里","LIN":"5鄰","STREET":"仁愛街","SECT":" ","MAREA":" ","LANE":" ","ALLEY":" ","HOUSE_NO":"９７號","E_COORD97":172035.70000000001,"N_COORD97":2549451.5299999998,"ADDRESS":"仁愛街９７號","OBJECTID":564787},"geometry":{"x":172035.70000000019,"y":2549451.5300000031}},{"attributes":{"ID":564815,"DIS_CODE":0,"TOWNNAME":"永康區","LI":"神洲里","LIN":"1鄰","STREET":"忠孝路","SECT":" ","MAREA":" ","LANE":" ","ALLEY":" ","HOUSE_NO":"４號","E_COORD97":172095.37,"N_COORD97":2544566.5,"ADDRESS":"忠孝路４號","OBJECTID":564788},"geometry":{"x":172095.37000000104,"y":2544566.4999999981}},{"attributes":{"ID":564816,"DIS_CODE":0,"TOWNNAME":"新營區","LI":"永生里","LIN":"9鄰","STREET":"康樂街","SECT":" ","MAREA":" ","LANE":" ","ALLEY":" ","HOUSE_NO":"１之７號","E_COORD97":180078.81,"N_COORD97":2577920.1099999999,"ADDRESS":"康樂街１之７號","OBJECTID":564789},"geometry":{"x":180078.81000000145,"y":2577920.1100000031}},{"attributes":{"ID":564817,"DIS_CODE":0,"TOWNNAME":"新營區","LI":"民權里","LIN":"9鄰","STREET":"仁愛街","SECT":" ","MAREA":" ","LANE":" ","ALLEY":" ","HOUSE_NO":"１０號之３","E_COORD97":179873.39999999999,"N_COORD97":2578185.7599999998,"ADDRESS":"仁愛街１０號之３","OBJECTID":564790},"geometry":{"x":179873.40000000037,"y":2578185.7599999998}},{"attributes":{"ID":564818,"DIS_CODE":0,"TOWNNAME":"永康區","LI":"\u25A0洲里","LIN":"3鄰","STREET":"\u25A0行路","SECT":" ","MAREA":" ","LANE":" ","ALLEY":" ","HOUSE_NO":"３６號","E_COORD97":171675.76999999999,"N_COORD97":2549184.6400000001,"ADDRESS":"\u25A0行路３６號","OBJECTID":564791},"geometry":{"x":171675.76999999955,"y":2549184.6400000025}},{"attributes":{"ID":564819,"DIS_CODE":0,"TOWNNAME":"永康區","LI":"勝利里","LIN":" ","STREET":"中華一路","SECT":" ","MAREA":" ","LANE":" ","ALLEY":" ","HOUSE_NO":"２０７號","E_COORD97":171434.23999999999,"N_COORD97":2544963.5,"ADDRESS":"中華一路２０７號","OBJECTID":564792},"geometry":{"x":171434.24000000022,"y":2544963.5000000037}},{"attributes":{"ID":564820,"DIS_CODE":0,"TOWNNAME":"永康區","LI":"大灣里","LIN":" ","STREET":"大安街","SECT":" ","MAREA":" ","LANE":" ","ALLEY":" ","HOUSE_NO":"２９４號","E_COORD97":174706.29000000001,"N_COORD97":2545491.1099999999,"ADDRESS":"大安街２９４號","OBJECTID":564793},"geometry":{"x":174706.29000000097,"y":2545491.1100000031}},{"attributes":{"ID":564821,"DIS_CODE":0,"TOWNNAME":"永康區","LI":"大灣里","LIN":" ","STREET":"大灣路","SECT":" ","MAREA":" ","LANE":" ","ALLEY":" ","HOUSE_NO":"２３０之６號","E_COORD97":173395.35000000001,"N_COORD97":2545169.4100000001,"ADDRESS":"大灣路２３０之６號","OBJECTID":564794},"geometry":{"x":173395.34999999963,"y":2545169.4100000001}},{"attributes":{"ID":564822,"DIS_CODE":0,"TOWNNAME":"永康區","LI":"\u25A0洲里","LIN":"24鄰","STREET":"正南二街","SECT":" ","MAREA":" ","LANE":" ","ALLEY":" ","HOUSE_NO":"８８號","E_COORD97":170733.85999999999,"N_COORD97":2548387.8500000001,"ADDRESS":"正南二街８８號","OBJECTID":564795},"geometry":{"x":170733.86000000127,"y":2548387.8499999996}},{"attributes":{"ID":564823,"DIS_CODE":0,"TOWNNAME":"永康區","LI":"\u25A0行里","LIN":"31鄰","STREET":"仁愛街","SECT":" ","MAREA":" ","LANE":" ","ALLEY":" ","HOUSE_NO":"５０號之３","E_COORD97":171964,"N_COORD97":2549226.48,"ADDRESS":"仁愛街５０號之３","OBJECTID":564796},"geometry":{"x":171964,"y":2549226.4800000023}},{"attributes":{"ID":564824,"DIS_CODE":0,"TOWNNAME":"新營區","LI":"永生里","LIN":"9鄰","STREET":"康樂街","SECT":" ","MAREA":" ","LANE":" ","ALLEY":" ","HOUSE_NO":"１之６號","E_COORD97":180070.62,"N_COORD97":2577919.04,"ADDRESS":"康樂街１之６號","OBJECTID":564797},"geometry":{"x":180070.62000000104,"y":2577919.0399999991}},{"attributes":{"ID":564825,"DIS_CODE":0,"TOWNNAME":"新營區","LI":"王公里","LIN":"9鄰","STREET":"同濟街","SECT":" ","MAREA":" ","LANE":" ","ALLEY":" ","HOUSE_NO":"２１１號","E_COORD97":180432.82000000001,"N_COORD97":2579010.3399999999,"ADDRESS":"同濟街２１１號","OBJECTID":564798},"geometry":{"x":180432.82000000123,"y":2579010.339999998}},{"attributes":{"ID":564826,"DIS_CODE":0,"TOWNNAME":"新營區","LI":"王公里","LIN":"9鄰","STREET":"義和街","SECT":" ","MAREA":" ","LANE":" ","ALLEY":" ","HOUSE_NO":"４２號","E_COORD97":180324.37,"N_COORD97":2579051.8199999998,"ADDRESS":"義和街４２號","OBJECTID":564799},"geometry":{"x":180324.37000000011,"y":2579051.820000004}},{"attributes":{"ID":564827,"DIS_CODE":0,"TOWNNAME":"永康區","LI":"南灣里","LIN":" ","STREET":"南興路","SECT":" ","MAREA":" ","LANE":" ","ALLEY":" ","HOUSE_NO":"８之２號","E_COORD97":174453.88,"N_COORD97":2544330.29,"ADDRESS":"南興路８之２號","OBJECTID":564800},"geometry":{"x":174453.87999999896,"y":2544330.290000001}}]}