{"displayFieldName":"TOWNNAME","fieldAliases":{"ID":"ID","DIS_CODE":"DIS_CODE","TOWNNAME":"TOWNNAME","LI":"LI","LIN":"LIN","STREET":"STREET","SECT":"SECT","MAREA":"MAREA","LANE":"LANE","ALLEY":"ALLEY","HOUSE_NO":"HOUSE_NO","E_COORD97":"E_COORD97","N_COORD97":"N_COORD97","ADDRESS":"ADDRESS","OBJECTID":"OBJECTID"},"geometryType":"esriGeometryPoint","spatialReference":{"wkid":102443,"latestWkid":3826},"fields":[{"name":"ID","type":"esriFieldTypeDouble","alias":"ID"},{"name":"DIS_CODE","type":"esriFieldTypeInteger","alias":"DIS_CODE"},{"name":"TOWNNAME","type":"esriFieldTypeString","alias":"TOWNNAME","length":8},{"name":"LI","type":"esriFieldTypeString","alias":"LI","length":8},{"name":"LIN","type":"esriFieldTypeString","alias":"LIN","length":12},{"name":"STREET","type":"esriFieldTypeString","alias":"STREET","length":20},{"name":"SECT","type":"esriFieldTypeString","alias":"SECT","length":8},{"name":"MAREA","type":"esriFieldTypeString","alias":"MAREA","length":12},{"name":"LANE","type":"esriFieldTypeString","alias":"LANE","length":10},{"name":"ALLEY","type":"esriFieldTypeString","alias":"ALLEY","length":10},{"name":"HOUSE_NO","type":"esriFieldTypeString","alias":"HOUSE_NO","length":20},{"name":"E_COORD97","type":"esriFieldTypeDouble","alias":"E_COORD97"},{"name":"N_COORD97","type":"esriFieldTypeDouble","alias":"N_COORD97"},{"name":"ADDRESS","type":"esriFieldTypeString","alias":"ADDRESS","length":50},{"name":"OBJECTID","type":"esriFieldTypeOID","alias":"OBJECTID"}],"features":[{"attributes":{"ID":657628,"DIS_CODE":0,"TOWNNAME":"北區","LI":"國興里","LIN":"9鄰","STREET":"開元路","SECT":" ","MAREA":" ","LANE":"４４２巷","ALLEY":"２６弄","HOUSE_NO":"８９號","E_COORD97":170793.67754400001,"N_COORD97":2545517.39279,"ADDRESS":"開元路４４２巷２６弄８９號","OBJECTID":657601},"geometry":{"x":170793.67754399963,"y":2545517.3927860018}},{"attributes":{"ID":657629,"DIS_CODE":0,"TOWNNAME":"北區","LI":"國興里","LIN":"9鄰","STREET":"開元路","SECT":" ","MAREA":" ","LANE":"４４２巷","ALLEY":"２６弄","HOUSE_NO":"９１號","E_COORD97":170790.71243700001,"N_COORD97":2545522.0494499998,"ADDRESS":"開元路４４２巷２６弄９１號","OBJECTID":657602},"geometry":{"x":170790.71243700013,"y":2545522.0494510029}},{"attributes":{"ID":657630,"DIS_CODE":0,"TOWNNAME":"北區","LI":"國興里","LIN":"9鄰","STREET":"開元路","SECT":" ","MAREA":" ","LANE":"４４２巷","ALLEY":"２６弄","HOUSE_NO":"９３號","E_COORD97":170787.74732900001,"N_COORD97":2545527.3411099999,"ADDRESS":"開元路４４２巷２６弄９３號","OBJECTID":657603},"geometry":{"x":170787.74732900038,"y":2545527.3411139995}},{"attributes":{"ID":657631,"DIS_CODE":0,"TOWNNAME":"北區","LI":"國興里","LIN":"9鄰","STREET":"開元路","SECT":" ","MAREA":" ","LANE":"４４２巷","ALLEY":"２６弄","HOUSE_NO":"９５號","E_COORD97":170784.78222200001,"N_COORD97":2545531.5744400001,"ADDRESS":"開元路４４２巷２６弄９５號","OBJECTID":657604},"geometry":{"x":170784.78222199995,"y":2545531.5744450018}},{"attributes":{"ID":657632,"DIS_CODE":0,"TOWNNAME":"北區","LI":"國興里","LIN":"9鄰","STREET":"開元路","SECT":" ","MAREA":" ","LANE":"４４２巷","ALLEY":"２６弄","HOUSE_NO":"９７號","E_COORD97":170782.24070200001,"N_COORD97":2545535.5961099998,"ADDRESS":"開元路４４２巷２６弄９７號","OBJECTID":657605},"geometry":{"x":170782.24070200138,"y":2545535.5961100012}},{"attributes":{"ID":657633,"DIS_CODE":0,"TOWNNAME":"北區","LI":"國興里","LIN":"9鄰","STREET":"開元路","SECT":" ","MAREA":" ","LANE":"４４２巷","ALLEY":"２６弄","HOUSE_NO":"９９號","E_COORD97":170779.27559500001,"N_COORD97":2545539.1944400002,"ADDRESS":"開元路４４２巷２６弄９９號","OBJECTID":657606},"geometry":{"x":170779.27559500095,"y":2545539.194441}},{"attributes":{"ID":657634,"DIS_CODE":0,"TOWNNAME":"北區","LI":"成德里","LIN":"23鄰","STREET":"育德二路","SECT":" ","MAREA":" ","LANE":" ","ALLEY":" ","HOUSE_NO":"７８０號","E_COORD97":168164.787602,"N_COORD97":2546690.2903200001,"ADDRESS":"育德二路７８０號","OBJECTID":657607},"geometry":{"x":168164.7876020018,"y":2546690.2903189994}},{"attributes":{"ID":657635,"DIS_CODE":0,"TOWNNAME":"北區","LI":"成德里","LIN":"23鄰","STREET":"育德二路","SECT":" ","MAREA":" ","LANE":" ","ALLEY":" ","HOUSE_NO":"７８２號","E_COORD97":168161.187275,"N_COORD97":2546696.4286500001,"ADDRESS":"育德二路７８２號","OBJECTID":657608},"geometry":{"x":168161.18727499992,"y":2546696.4286490008}},{"attributes":{"ID":657636,"DIS_CODE":0,"TOWNNAME":"北區","LI":"成德里","LIN":"23鄰","STREET":"育德二路","SECT":" ","MAREA":" ","LANE":" ","ALLEY":" ","HOUSE_NO":"７７８號","E_COORD97":168166.05830500001,"N_COORD97":2546685.4219900002,"ADDRESS":"育德二路７７８號","OBJECTID":657609},"geometry":{"x":168166.05830499995,"y":2546685.4219890013}},{"attributes":{"ID":657637,"DIS_CODE":0,"TOWNNAME":"北區","LI":"成德里","LIN":"23鄰","STREET":"育德二路","SECT":" ","MAREA":" ","LANE":" ","ALLEY":" ","HOUSE_NO":"７７６號","E_COORD97":168166.90544100001,"N_COORD97":2546681.40032,"ADDRESS":"育德二路７７６號","OBJECTID":657610},"geometry":{"x":168166.90544099919,"y":2546681.400324}},{"attributes":{"ID":657638,"DIS_CODE":0,"TOWNNAME":"北區","LI":"成德里","LIN":"23鄰","STREET":"育德二路","SECT":" ","MAREA":" ","LANE":" ","ALLEY":" ","HOUSE_NO":"７７２號","E_COORD97":168168.176145,"N_COORD97":2546677.3786599999,"ADDRESS":"育德二路７７２號","OBJECTID":657611},"geometry":{"x":168168.17614500038,"y":2546677.3786600046}},{"attributes":{"ID":657639,"DIS_CODE":0,"TOWNNAME":"北區","LI":"成德里","LIN":"23鄰","STREET":"育德二路","SECT":" ","MAREA":" ","LANE":" ","ALLEY":" ","HOUSE_NO":"７７０號","E_COORD97":168169.44684799999,"N_COORD97":2546673.5686599999,"ADDRESS":"育德二路７７０號","OBJECTID":657612},"geometry":{"x":168169.44684800133,"y":2546673.5686620008}},{"attributes":{"ID":657640,"DIS_CODE":0,"TOWNNAME":"北區","LI":"成德里","LIN":"23鄰","STREET":"育德二路","SECT":" ","MAREA":" ","LANE":" ","ALLEY":" ","HOUSE_NO":"７６８號","E_COORD97":168170.0822,"N_COORD97":2546669.9703299999,"ADDRESS":"育德二路７６８號","OBJECTID":657613},"geometry":{"x":168170.08220000006,"y":2546669.9703300018}},{"attributes":{"ID":657641,"DIS_CODE":0,"TOWNNAME":"北區","LI":"成德里","LIN":"23鄰","STREET":"育德二路","SECT":" ","MAREA":" ","LANE":" ","ALLEY":" ","HOUSE_NO":"７６６號","E_COORD97":168171.352904,"N_COORD97":2546665.9486699998,"ADDRESS":"育德二路７６６號","OBJECTID":657614},"geometry":{"x":168171.35290400032,"y":2546665.9486660007}},{"attributes":{"ID":657642,"DIS_CODE":0,"TOWNNAME":"北區","LI":"成德里","LIN":"23鄰","STREET":"育德二路","SECT":" ","MAREA":" ","LANE":" ","ALLEY":" ","HOUSE_NO":"７６２號","E_COORD97":168172.62360699999,"N_COORD97":2546661.9270000001,"ADDRESS":"育德二路７６２號","OBJECTID":657615},"geometry":{"x":168172.62360700127,"y":2546661.9270010013}},{"attributes":{"ID":657643,"DIS_CODE":0,"TOWNNAME":"北區","LI":"成德里","LIN":"23鄰","STREET":"育德二路","SECT":" ","MAREA":" ","LANE":" ","ALLEY":" ","HOUSE_NO":"７６０號","E_COORD97":168173.89431100001,"N_COORD97":2546657.4819999998,"ADDRESS":"育德二路７６０號","OBJECTID":657616},"geometry":{"x":168173.89431099966,"y":2546657.4820040017}},{"attributes":{"ID":657644,"DIS_CODE":0,"TOWNNAME":"北區","LI":"成德里","LIN":"23鄰","STREET":"育德二路","SECT":" ","MAREA":" ","LANE":" ","ALLEY":" ","HOUSE_NO":"７５８號","E_COORD97":168175.165014,"N_COORD97":2546653.6720099999,"ADDRESS":"育德二路７５８號","OBJECTID":657617},"geometry":{"x":168175.16501400061,"y":2546653.6720060017}},{"attributes":{"ID":657645,"DIS_CODE":0,"TOWNNAME":"北區","LI":"成德里","LIN":"23鄰","STREET":"育德二路","SECT":" ","MAREA":" ","LANE":" ","ALLEY":" ","HOUSE_NO":"７５６號","E_COORD97":168176.43571799999,"N_COORD97":2546649.4386700001,"ADDRESS":"育德二路７５６號","OBJECTID":657618},"geometry":{"x":168176.43571800087,"y":2546649.4386749994}},{"attributes":{"ID":657646,"DIS_CODE":0,"TOWNNAME":"北區","LI":"力行里","LIN":"15鄰","STREET":"力行街","SECT":" ","MAREA":" ","LANE":" ","ALLEY":" ","HOUSE_NO":"４７號","E_COORD97":170948.47554099999,"N_COORD97":2545346.5252100001,"ADDRESS":"力行街４７號","OBJECTID":657619},"geometry":{"x":170948.47554100025,"y":2545346.5252120011}},{"attributes":{"ID":657647,"DIS_CODE":0,"TOWNNAME":"北區","LI":"國興里","LIN":"7鄰","STREET":"南園街","SECT":" ","MAREA":" ","LANE":"１０１巷","ALLEY":" ","HOUSE_NO":"１９之１號","E_COORD97":170650.495555,"N_COORD97":2545406.2151799998,"ADDRESS":"南園街１０１巷１９之１號","OBJECTID":657620},"geometry":{"x":170650.49555500224,"y":2545406.2151790019}},{"attributes":{"ID":657648,"DIS_CODE":0,"TOWNNAME":"北區","LI":"國興里","LIN":"7鄰","STREET":"南園街","SECT":" ","MAREA":" ","LANE":"１０１巷","ALLEY":" ","HOUSE_NO":"１９之２號","E_COORD97":170655.36658599999,"N_COORD97":2545407.90851,"ADDRESS":"南園街１０１巷１９之２號","OBJECTID":657621},"geometry":{"x":170655.36658600159,"y":2545407.908512}},{"attributes":{"ID":657649,"DIS_CODE":0,"TOWNNAME":"北區","LI":"國興里","LIN":"7鄰","STREET":"南園街","SECT":" ","MAREA":" ","LANE":"１０１巷","ALLEY":" ","HOUSE_NO":"１９之３號","E_COORD97":170658.966912,"N_COORD97":2545409.8135099998,"ADDRESS":"南園街１０１巷１９之３號","OBJECTID":657622},"geometry":{"x":170658.96691200137,"y":2545409.8135109991}},{"attributes":{"ID":657650,"DIS_CODE":0,"TOWNNAME":"北區","LI":"國興里","LIN":"7鄰","STREET":"南園街","SECT":" ","MAREA":" ","LANE":"１０１巷","ALLEY":" ","HOUSE_NO":"１９之５號","E_COORD97":170661.72010400001,"N_COORD97":2545411.5068399999,"ADDRESS":"南園街１０１巷１９之５號","OBJECTID":657623},"geometry":{"x":170661.7201039996,"y":2545411.5068430025}},{"attributes":{"ID":657651,"DIS_CODE":0,"TOWNNAME":"北區","LI":"國興里","LIN":"7鄰","STREET":"南園街","SECT":" ","MAREA":" ","LANE":"１０１巷","ALLEY":" ","HOUSE_NO":"１９之６號","E_COORD97":170665.53221400001,"N_COORD97":2545412.9885100001,"ADDRESS":"南園街１０１巷１９之６號","OBJECTID":657624},"geometry":{"x":170665.53221399989,"y":2545412.9885089993}},{"attributes":{"ID":657652,"DIS_CODE":0,"TOWNNAME":"北區","LI":"國興里","LIN":"7鄰","STREET":"南園街","SECT":" ","MAREA":" ","LANE":"１０１巷","ALLEY":" ","HOUSE_NO":"１９之７號","E_COORD97":170669.34432500001,"N_COORD97":2545414.04684,"ADDRESS":"南園街１０１巷１９之７號","OBJECTID":657625},"geometry":{"x":170669.34432500135,"y":2545414.0468420014}},{"attributes":{"ID":657653,"DIS_CODE":0,"TOWNNAME":"北區","LI":"國興里","LIN":"7鄰","STREET":"南園街","SECT":" ","MAREA":" ","LANE":"１０１巷","ALLEY":" ","HOUSE_NO":"１９之８號","E_COORD97":170671.67394800001,"N_COORD97":2545414.6818400002,"ADDRESS":"南園街１０１巷１９之８號","OBJECTID":657626},"geometry":{"x":170671.67394800019,"y":2545414.6818420012}},{"attributes":{"ID":657654,"DIS_CODE":0,"TOWNNAME":"北區","LI":"國興里","LIN":"7鄰","STREET":"南園街","SECT":" ","MAREA":" ","LANE":"１０１巷","ALLEY":" ","HOUSE_NO":"１９之９號","E_COORD97":170673.36822,"N_COORD97":2545414.8935099998,"ADDRESS":"南園街１０１巷１９之９號","OBJECTID":657627},"geometry":{"x":170673.3682199996,"y":2545414.8935080022}},{"attributes":{"ID":657655,"DIS_CODE":0,"TOWNNAME":"北區","LI":"國興里","LIN":"7鄰","STREET":"南園街","SECT":" ","MAREA":" ","LANE":"１０１巷","ALLEY":" ","HOUSE_NO":"１９之１０號","E_COORD97":170675.48605899999,"N_COORD97":2545415.31684,"ADDRESS":"南園街１０１巷１９之１０號","OBJECTID":657628},"geometry":{"x":170675.48605899978,"y":2545415.3168410007}},{"attributes":{"ID":657656,"DIS_CODE":0,"TOWNNAME":"北區","LI":"國興里","LIN":"7鄰","STREET":"南園街","SECT":" ","MAREA":" ","LANE":"１０１巷","ALLEY":" ","HOUSE_NO":"１９之１１號","E_COORD97":170677.18033,"N_COORD97":2545416.1635099999,"ADDRESS":"南園街１０１巷１９之１１號","OBJECTID":657629},"geometry":{"x":170677.18032999989,"y":2545416.1635070033}},{"attributes":{"ID":657657,"DIS_CODE":0,"TOWNNAME":"北區","LI":"國興里","LIN":"7鄰","STREET":"南園街","SECT":" ","MAREA":" ","LANE":"１０１巷","ALLEY":" ","HOUSE_NO":"１９之１２號","E_COORD97":170678.874602,"N_COORD97":2545417.0101700001,"ADDRESS":"南園街１０１巷１９之１２號","OBJECTID":657630},"geometry":{"x":170678.87460200023,"y":2545417.0101740025}},{"attributes":{"ID":657658,"DIS_CODE":0,"TOWNNAME":"北區","LI":"國興里","LIN":"7鄰","STREET":"南園街","SECT":" ","MAREA":" ","LANE":"１０１巷","ALLEY":" ","HOUSE_NO":"１９之１３號","E_COORD97":170680.56887300001,"N_COORD97":2545417.6451699999,"ADDRESS":"南園街１０１巷１９之１３號","OBJECTID":657631},"geometry":{"x":170680.56887300033,"y":2545417.6451730002}},{"attributes":{"ID":657659,"DIS_CODE":0,"TOWNNAME":"北區","LI":"國興里","LIN":"7鄰","STREET":"南園街","SECT":" ","MAREA":" ","LANE":"１０１巷","ALLEY":" ","HOUSE_NO":"１９之１６號","E_COORD97":170682.47492800001,"N_COORD97":2545418.4918399998,"ADDRESS":"南園街１０１巷１９之１６號","OBJECTID":657632},"geometry":{"x":170682.47492800001,"y":2545418.4918399993}},{"attributes":{"ID":657660,"DIS_CODE":0,"TOWNNAME":"北區","LI":"國興里","LIN":"7鄰","STREET":"南園街","SECT":" ","MAREA":" ","LANE":"１０１巷","ALLEY":" ","HOUSE_NO":"１９之１８號","E_COORD97":170683.95741599999,"N_COORD97":2545419.9735099999,"ADDRESS":"南園街１０１巷１９之１８號","OBJECTID":657633},"geometry":{"x":170683.95741600078,"y":2545419.9735050015}},{"attributes":{"ID":657661,"DIS_CODE":0,"TOWNNAME":"北區","LI":"國興里","LIN":"7鄰","STREET":"南園街","SECT":" ","MAREA":" ","LANE":"１０１巷","ALLEY":" ","HOUSE_NO":"１９之２０號","E_COORD97":170685.43990299999,"N_COORD97":2545420.6085000001,"ADDRESS":"南園街１０１巷１９之２０號","OBJECTID":657634},"geometry":{"x":170685.43990300037,"y":2545420.6085050013}},{"attributes":{"ID":657662,"DIS_CODE":0,"TOWNNAME":"北區","LI":"成德里","LIN":"34鄰","STREET":"育德三街","SECT":" ","MAREA":" ","LANE":" ","ALLEY":" ","HOUSE_NO":"５０號","E_COORD97":168180.286135,"N_COORD97":2546009.5011499999,"ADDRESS":"育德三街５０號","OBJECTID":657635},"geometry":{"x":168180.28613500018,"y":2546009.5011470001}},{"attributes":{"ID":657663,"DIS_CODE":0,"TOWNNAME":"北區","LI":"小康里","LIN":"9鄰","STREET":"實踐街","SECT":" ","MAREA":" ","LANE":"１５巷","ALLEY":" ","HOUSE_NO":"９號","E_COORD97":169715.04594899999,"N_COORD97":2546189.38142,"ADDRESS":"實踐街１５巷９號","OBJECTID":657636},"geometry":{"x":169715.04594899993,"y":2546189.3814230002}},{"attributes":{"ID":657664,"DIS_CODE":0,"TOWNNAME":"北區","LI":"大和里","LIN":"4鄰","STREET":"大興街","SECT":" ","MAREA":" ","LANE":" ","ALLEY":" ","HOUSE_NO":"１０２號","E_COORD97":167115.18645899999,"N_COORD97":2545776.6316499999,"ADDRESS":"大興街１０２號","OBJECTID":657637},"geometry":{"x":167115.18645900115,"y":2545776.6316460017}},{"attributes":{"ID":657665,"DIS_CODE":0,"TOWNNAME":"北區","LI":"文元里","LIN":"17鄰","STREET":"文成路","SECT":" ","MAREA":" ","LANE":"７５０巷","ALLEY":" ","HOUSE_NO":"２０５號","E_COORD97":167603.77197900001,"N_COORD97":2546145.1431100001,"ADDRESS":"文成路７５０巷２０５號","OBJECTID":657638},"geometry":{"x":167603.77197900042,"y":2546145.1431140043}},{"attributes":{"ID":657666,"DIS_CODE":0,"TOWNNAME":"北區","LI":"文元里","LIN":"17鄰","STREET":"文成路","SECT":" ","MAREA":" ","LANE":"７５０巷","ALLEY":" ","HOUSE_NO":"２０７號","E_COORD97":167603.77197900001,"N_COORD97":2546151.4931100002,"ADDRESS":"文成路７５０巷２０７號","OBJECTID":657639},"geometry":{"x":167603.77197900042,"y":2546151.4931100029}},{"attributes":{"ID":657667,"DIS_CODE":0,"TOWNNAME":"北區","LI":"成功里","LIN":"18鄰","STREET":"北成路","SECT":" ","MAREA":" ","LANE":"１２８巷","ALLEY":"２３弄","HOUSE_NO":"３２號","E_COORD97":168861.13315499999,"N_COORD97":2546808.2944200002,"ADDRESS":"北成路１２８巷２３弄３２號","OBJECTID":657640},"geometry":{"x":168861.13315500133,"y":2546808.2944220006}},{"attributes":{"ID":657668,"DIS_CODE":0,"TOWNNAME":"北區","LI":"文元里","LIN":"14鄰","STREET":"文賢路","SECT":" ","MAREA":" ","LANE":"１０３０巷","ALLEY":"３弄","HOUSE_NO":"１９號","E_COORD97":167392.895192,"N_COORD97":2546142.2471799999,"ADDRESS":"文賢路１０３０巷３弄１９號","OBJECTID":657641},"geometry":{"x":167392.89519200008,"y":2546142.2471810002}},{"attributes":{"ID":657669,"DIS_CODE":0,"TOWNNAME":"北區","LI":"成德里","LIN":"34鄰","STREET":"和緯路","SECT":"二段","MAREA":" ","LANE":" ","ALLEY":" ","HOUSE_NO":"２９０號","E_COORD97":168568.50777200001,"N_COORD97":2545886.1306500002,"ADDRESS":"和緯路二段２９０號","OBJECTID":657642},"geometry":{"x":168568.50777200144,"y":2545886.130652003}},{"attributes":{"ID":657670,"DIS_CODE":0,"TOWNNAME":"北區","LI":"成德里","LIN":"34鄰","STREET":"和緯路","SECT":"二段","MAREA":" ","LANE":" ","ALLEY":" ","HOUSE_NO":"２９２號","E_COORD97":168558.76571099999,"N_COORD97":2545887.4006500002,"ADDRESS":"和緯路二段２９２號","OBJECTID":657643},"geometry":{"x":168558.76571100205,"y":2545887.4006520025}},{"attributes":{"ID":657671,"DIS_CODE":0,"TOWNNAME":"關廟區","LI":"東勢里","LIN":"13鄰","STREET":"旺萊路","SECT":" ","MAREA":" ","LANE":"３５６巷","ALLEY":" ","HOUSE_NO":"３５號","E_COORD97":182124.223577,"N_COORD97":2539420.9178399998,"ADDRESS":"旺萊路３５６巷３５號","OBJECTID":657644},"geometry":{"x":182124.2235770002,"y":2539420.9178350028}},{"attributes":{"ID":657672,"DIS_CODE":0,"TOWNNAME":"關廟區","LI":"東勢里","LIN":"13鄰","STREET":"旺萊路","SECT":" ","MAREA":" ","LANE":"３５６巷","ALLEY":" ","HOUSE_NO":"３７號","E_COORD97":182113.20621999999,"N_COORD97":2539409.5936699999,"ADDRESS":"旺萊路３５６巷３７號","OBJECTID":657645},"geometry":{"x":182113.20622000098,"y":2539409.5936740022}},{"attributes":{"ID":657673,"DIS_CODE":0,"TOWNNAME":"北區","LI":"勝安里","LIN":"1鄰","STREET":"開元路","SECT":" ","MAREA":" ","LANE":" ","ALLEY":" ","HOUSE_NO":"１號","E_COORD97":169502.639356,"N_COORD97":2545098.6513,"ADDRESS":"開元路１號","OBJECTID":657646},"geometry":{"x":169502.63935600035,"y":2545098.6513030026}},{"attributes":{"ID":657674,"DIS_CODE":0,"TOWNNAME":"北區","LI":"公園里","LIN":"16鄰","STREET":"成功路","SECT":" ","MAREA":" ","LANE":"２２巷","ALLEY":" ","HOUSE_NO":"１號十樓之２","E_COORD97":168906.06956999999,"N_COORD97":2544339.6150500001,"ADDRESS":"成功路２２巷１號十樓之２","OBJECTID":657647},"geometry":{"x":168906.06957000121,"y":2544339.6150460001}},{"attributes":{"ID":657675,"DIS_CODE":0,"TOWNNAME":"北區","LI":"公園里","LIN":"16鄰","STREET":"成功路","SECT":" ","MAREA":" ","LANE":"２２巷","ALLEY":" ","HOUSE_NO":"１號三樓之１","E_COORD97":168906.06956999999,"N_COORD97":2544339.6150500001,"ADDRESS":"成功路２２巷１號三樓之１","OBJECTID":657648},"geometry":{"x":168906.06957000121,"y":2544339.6150460001}},{"attributes":{"ID":657676,"DIS_CODE":0,"TOWNNAME":"北區","LI":"公園里","LIN":"16鄰","STREET":"成功路","SECT":" ","MAREA":" ","LANE":"２２巷","ALLEY":" ","HOUSE_NO":"１號三樓之２","E_COORD97":168906.06956999999,"N_COORD97":2544339.6150500001,"ADDRESS":"成功路２２巷１號三樓之２","OBJECTID":657649},"geometry":{"x":168906.06957000121,"y":2544339.6150460001}},{"attributes":{"ID":657677,"DIS_CODE":0,"TOWNNAME":"北區","LI":"公園里","LIN":"16鄰","STREET":"成功路","SECT":" ","MAREA":" ","LANE":"２２巷","ALLEY":" ","HOUSE_NO":"１號四樓之１","E_COORD97":168906.06956999999,"N_COORD97":2544339.6150500001,"ADDRESS":"成功路２２巷１號四樓之１","OBJECTID":657650},"geometry":{"x":168906.06957000121,"y":2544339.6150460001}},{"attributes":{"ID":657678,"DIS_CODE":0,"TOWNNAME":"北區","LI":"公園里","LIN":"16鄰","STREET":"成功路","SECT":" ","MAREA":" ","LANE":"２２巷","ALLEY":" ","HOUSE_NO":"１號四樓之２","E_COORD97":168906.06956999999,"N_COORD97":2544339.6150500001,"ADDRESS":"成功路２２巷１號四樓之２","OBJECTID":657651},"geometry":{"x":168906.06957000121,"y":2544339.6150460001}},{"attributes":{"ID":657679,"DIS_CODE":0,"TOWNNAME":"北區","LI":"公園里","LIN":"16鄰","STREET":"成功路","SECT":" ","MAREA":" ","LANE":"２２巷","ALLEY":" ","HOUSE_NO":"１號五樓之１","E_COORD97":168906.06956999999,"N_COORD97":2544339.6150500001,"ADDRESS":"成功路２２巷１號五樓之１","OBJECTID":657652},"geometry":{"x":168906.06957000121,"y":2544339.6150460001}},{"attributes":{"ID":657680,"DIS_CODE":0,"TOWNNAME":"北區","LI":"公園里","LIN":"16鄰","STREET":"成功路","SECT":" ","MAREA":" ","LANE":"２２巷","ALLEY":" ","HOUSE_NO":"１號五樓之２","E_COORD97":168906.06956999999,"N_COORD97":2544339.6150500001,"ADDRESS":"成功路２２巷１號五樓之２","OBJECTID":657653},"geometry":{"x":168906.06957000121,"y":2544339.6150460001}},{"attributes":{"ID":657681,"DIS_CODE":0,"TOWNNAME":"北區","LI":"公園里","LIN":"16鄰","STREET":"成功路","SECT":" ","MAREA":" ","LANE":"２２巷","ALLEY":" ","HOUSE_NO":"１號六樓之１","E_COORD97":168906.06956999999,"N_COORD97":2544339.6150500001,"ADDRESS":"成功路２２巷１號六樓之１","OBJECTID":657654},"geometry":{"x":168906.06957000121,"y":2544339.6150460001}},{"attributes":{"ID":657682,"DIS_CODE":0,"TOWNNAME":"北區","LI":"公園里","LIN":"16鄰","STREET":"成功路","SECT":" ","MAREA":" ","LANE":"２２巷","ALLEY":" ","HOUSE_NO":"１號六樓之２","E_COORD97":168906.06956999999,"N_COORD97":2544339.6150500001,"ADDRESS":"成功路２２巷１號六樓之２","OBJECTID":657655},"geometry":{"x":168906.06957000121,"y":2544339.6150460001}},{"attributes":{"ID":657683,"DIS_CODE":0,"TOWNNAME":"安定區","LI":"海寮里","LIN":"16鄰","STREET":" ","SECT":" ","MAREA":"海寮","LANE":" ","ALLEY":" ","HOUSE_NO":"１５５之６號","E_COORD97":169237.80254800001,"N_COORD97":2555643.5136799999,"ADDRESS":"海寮１５５之６號","OBJECTID":657656},"geometry":{"x":169237.80254799966,"y":2555643.5136800017}},{"attributes":{"ID":657684,"DIS_CODE":0,"TOWNNAME":"仁德區","LI":"後壁里","LIN":"28鄰","STREET":"德洋路","SECT":" ","MAREA":" ","LANE":"４１巷","ALLEY":" ","HOUSE_NO":"６８號","E_COORD97":172803.212489,"N_COORD97":2538954.3919600002,"ADDRESS":"德洋路４１巷６８號","OBJECTID":657657},"geometry":{"x":172803.21248899866,"y":2538954.3919639997}},{"attributes":{"ID":657685,"DIS_CODE":0,"TOWNNAME":"安定區","LI":"安加里","LIN":"12鄰","STREET":" ","SECT":" ","MAREA":"安定","LANE":" ","ALLEY":" ","HOUSE_NO":"２７８之２號","E_COORD97":171565.44310500001,"N_COORD97":2557494.9081000001,"ADDRESS":"安定２７８之２號","OBJECTID":657658},"geometry":{"x":171565.44310500007,"y":2557494.9080970008}},{"attributes":{"ID":657686,"DIS_CODE":0,"TOWNNAME":"安定區","LI":"新吉里","LIN":"7鄰","STREET":" ","SECT":" ","MAREA":"新吉","LANE":" ","ALLEY":" ","HOUSE_NO":"５６之１６３號","E_COORD97":168214.911769,"N_COORD97":2553899.96337,"ADDRESS":"新吉５６之１６３號","OBJECTID":657659},"geometry":{"x":168214.91176899988,"y":2553899.9633719996}},{"attributes":{"ID":657687,"DIS_CODE":0,"TOWNNAME":"安定區","LI":"港口里","LIN":"21鄰","STREET":" ","SECT":" ","MAREA":"港口","LANE":" ","ALLEY":" ","HOUSE_NO":"４０４之６號","E_COORD97":171475.83291600001,"N_COORD97":2555113.97688,"ADDRESS":"港口４０４之６號","OBJECTID":657660},"geometry":{"x":171475.83291600179,"y":2555113.9768829998}},{"attributes":{"ID":657688,"DIS_CODE":0,"TOWNNAME":"北區","LI":"公園里","LIN":"16鄰","STREET":"成功路","SECT":" ","MAREA":" ","LANE":"２２巷","ALLEY":" ","HOUSE_NO":"１號二樓之１","E_COORD97":168906.06956999999,"N_COORD97":2544339.6150500001,"ADDRESS":"成功路２２巷１號二樓之１","OBJECTID":657661},"geometry":{"x":168906.06957000121,"y":2544339.6150460001}},{"attributes":{"ID":657689,"DIS_CODE":0,"TOWNNAME":"七股區","LI":"竹港里","LIN":"1鄰","STREET":" ","SECT":" ","MAREA":"竹港","LANE":" ","ALLEY":" ","HOUSE_NO":"１號之８","E_COORD97":164897.478175,"N_COORD97":2557547.3954599998,"ADDRESS":"竹港１號之８","OBJECTID":657662},"geometry":{"x":164897.47817500215,"y":2557547.3954640012}},{"attributes":{"ID":657690,"DIS_CODE":0,"TOWNNAME":"仁德區","LI":"後壁里","LIN":"9鄰","STREET":"民安路","SECT":"二段","MAREA":" ","LANE":" ","ALLEY":" ","HOUSE_NO":"１５６號","E_COORD97":173730.48196,"N_COORD97":2538995.34944,"ADDRESS":"民安路二段１５６號","OBJECTID":657663},"geometry":{"x":173730.48196000047,"y":2538995.3494419996}},{"attributes":{"ID":657691,"DIS_CODE":0,"TOWNNAME":"新營區","LI":"王公里","LIN":"9鄰","STREET":"民治路","SECT":" ","MAREA":" ","LANE":"１８巷","ALLEY":" ","HOUSE_NO":"１２號","E_COORD97":180393.08371800001,"N_COORD97":2578997.1109799999,"ADDRESS":"民治路１８巷１２號","OBJECTID":657664},"geometry":{"x":180393.08371800091,"y":2578997.1109770015}},{"attributes":{"ID":657692,"DIS_CODE":0,"TOWNNAME":"新營區","LI":"王公里","LIN":"9鄰","STREET":"民治路","SECT":" ","MAREA":" ","LANE":"１８巷","ALLEY":" ","HOUSE_NO":"１２號之４","E_COORD97":180387.36289799999,"N_COORD97":2579017.0076299999,"ADDRESS":"民治路１８巷１２號之４","OBJECTID":657665},"geometry":{"x":180387.36289800145,"y":2579017.0076330025}},{"attributes":{"ID":657693,"DIS_CODE":0,"TOWNNAME":"新營區","LI":"王公里","LIN":"9鄰","STREET":"民治路","SECT":" ","MAREA":" ","LANE":"１８巷","ALLEY":" ","HOUSE_NO":"１２號之５","E_COORD97":180386.93913399999,"N_COORD97":2579020.8176299999,"ADDRESS":"民治路１８巷１２號之５","OBJECTID":657666},"geometry":{"x":180386.93913399987,"y":2579020.8176310025}},{"attributes":{"ID":657694,"DIS_CODE":0,"TOWNNAME":"新營區","LI":"王公里","LIN":"9鄰","STREET":"民治路","SECT":" ","MAREA":" ","LANE":"１８巷","ALLEY":" ","HOUSE_NO":"１２之２號","E_COORD97":180386.303487,"N_COORD97":2579008.3292999999,"ADDRESS":"民治路１８巷１２之２號","OBJECTID":657667},"geometry":{"x":180386.30348700006,"y":2579008.3293040022}},{"attributes":{"ID":657695,"DIS_CODE":0,"TOWNNAME":"新營區","LI":"王公里","LIN":"9鄰","STREET":"民治路","SECT":" ","MAREA":" ","LANE":"１８巷","ALLEY":" ","HOUSE_NO":"１２之６號","E_COORD97":180387.36289799999,"N_COORD97":2579025.6859599999,"ADDRESS":"民治路１８巷１２之６號","OBJECTID":657668},"geometry":{"x":180387.36289800145,"y":2579025.6859610006}},{"attributes":{"ID":657696,"DIS_CODE":0,"TOWNNAME":"新營區","LI":"王公里","LIN":"9鄰","STREET":"義和街","SECT":" ","MAREA":" ","LANE":" ","ALLEY":" ","HOUSE_NO":"１１號之３","E_COORD97":180406.220416,"N_COORD97":2579041.3492899998,"ADDRESS":"義和街１１號之３","OBJECTID":657669},"geometry":{"x":180406.22041600198,"y":2579041.3492860012}},{"attributes":{"ID":657697,"DIS_CODE":0,"TOWNNAME":"新營區","LI":"王公里","LIN":"9鄰","STREET":"義和街","SECT":" ","MAREA":" ","LANE":" ","ALLEY":" ","HOUSE_NO":"１１號之６","E_COORD97":180431.01063599999,"N_COORD97":2579041.3492899998,"ADDRESS":"義和街１１號之６","OBJECTID":657670},"geometry":{"x":180431.01063600183,"y":2579041.3492860012}},{"attributes":{"ID":657698,"DIS_CODE":0,"TOWNNAME":"新營區","LI":"王公里","LIN":"9鄰","STREET":"民治路","SECT":" ","MAREA":" ","LANE":"１８巷","ALLEY":" ","HOUSE_NO":"１４號之２","E_COORD97":180415.96699799999,"N_COORD97":2578997.4284799998,"ADDRESS":"民治路１８巷１４號之２","OBJECTID":657671},"geometry":{"x":180415.9669979997,"y":2578997.4284770023}},{"attributes":{"ID":657699,"DIS_CODE":0,"TOWNNAME":"新營區","LI":"王公里","LIN":"9鄰","STREET":"民治路","SECT":" ","MAREA":" ","LANE":"１８巷","ALLEY":" ","HOUSE_NO":"１４號之３","E_COORD97":180419.78087799999,"N_COORD97":2578997.6401399998,"ADDRESS":"民治路１８巷１４號之３","OBJECTID":657672},"geometry":{"x":180419.78087800182,"y":2578997.6401429996}},{"attributes":{"ID":657700,"DIS_CODE":0,"TOWNNAME":"新營區","LI":"王公里","LIN":"9鄰","STREET":"義和街","SECT":" ","MAREA":" ","LANE":" ","ALLEY":" ","HOUSE_NO":"１７之１號","E_COORD97":180345.62210099999,"N_COORD97":2579017.8542999998,"ADDRESS":"義和街１７之１號","OBJECTID":657673},"geometry":{"x":180345.62210100051,"y":2579017.8542989995}},{"attributes":{"ID":657701,"DIS_CODE":0,"TOWNNAME":"新營區","LI":"王公里","LIN":"9鄰","STREET":"義和街","SECT":" ","MAREA":" ","LANE":" ","ALLEY":" ","HOUSE_NO":"４４號","E_COORD97":180319.77247,"N_COORD97":2579052.5676099998,"ADDRESS":"義和街４４號","OBJECTID":657674},"geometry":{"x":180319.77247000206,"y":2579052.5676140022}},{"attributes":{"ID":657702,"DIS_CODE":0,"TOWNNAME":"新營區","LI":"王公里","LIN":"11鄰","STREET":"義和街","SECT":" ","MAREA":" ","LANE":" ","ALLEY":" ","HOUSE_NO":"２４號","E_COORD97":180440.96909999999,"N_COORD97":2579064.9501100001,"ADDRESS":"義和街２４號","OBJECTID":657675},"geometry":{"x":180440.96910000127,"y":2579064.9501070026}},{"attributes":{"ID":657703,"DIS_CODE":0,"TOWNNAME":"新營區","LI":"王公里","LIN":"11鄰","STREET":"義和街","SECT":" ","MAREA":" ","LANE":" ","ALLEY":" ","HOUSE_NO":"２４號之１","E_COORD97":180433.976987,"N_COORD97":2579064.3151099999,"ADDRESS":"義和街２４號之１","OBJECTID":657676},"geometry":{"x":180433.97698700149,"y":2579064.3151070029}},{"attributes":{"ID":657704,"DIS_CODE":0,"TOWNNAME":"新營區","LI":"王公里","LIN":"11鄰","STREET":"義和街","SECT":" ","MAREA":" ","LANE":" ","ALLEY":" ","HOUSE_NO":"１８號","E_COORD97":180453.04638700001,"N_COORD97":2579066.6434399998,"ADDRESS":"義和街１８號","OBJECTID":657677},"geometry":{"x":180453.04638700094,"y":2579066.6434390005}},{"attributes":{"ID":657705,"DIS_CODE":0,"TOWNNAME":"新營區","LI":"王公里","LIN":"11鄰","STREET":"義和街","SECT":" ","MAREA":" ","LANE":" ","ALLEY":" ","HOUSE_NO":"１２號","E_COORD97":180471.90390400001,"N_COORD97":2579069.1834399998,"ADDRESS":"義和街１２號","OBJECTID":657678},"geometry":{"x":180471.9039040003,"y":2579069.1834379993}},{"attributes":{"ID":657706,"DIS_CODE":0,"TOWNNAME":"新營區","LI":"王公里","LIN":"11鄰","STREET":"義和街","SECT":" ","MAREA":" ","LANE":" ","ALLEY":" ","HOUSE_NO":"１０號","E_COORD97":180491.185187,"N_COORD97":2579072.2525999998,"ADDRESS":"義和街１０號","OBJECTID":657679},"geometry":{"x":180491.18518699892,"y":2579072.2526030038}},{"attributes":{"ID":657707,"DIS_CODE":0,"TOWNNAME":"新營區","LI":"王公里","LIN":"11鄰","STREET":"義和街","SECT":" ","MAREA":" ","LANE":" ","ALLEY":" ","HOUSE_NO":"１６號","E_COORD97":180457.28403099999,"N_COORD97":2579068.01927,"ADDRESS":"義和街１６號","OBJECTID":657680},"geometry":{"x":180457.28403099906,"y":2579068.0192720015}},{"attributes":{"ID":657708,"DIS_CODE":0,"TOWNNAME":"新營區","LI":"王公里","LIN":"11鄰","STREET":"義和街","SECT":" ","MAREA":" ","LANE":" ","ALLEY":" ","HOUSE_NO":"２８號","E_COORD97":180397.321363,"N_COORD97":2579063.3626100002,"ADDRESS":"義和街２８號","OBJECTID":657681},"geometry":{"x":180397.3213630002,"y":2579063.3626080006}},{"attributes":{"ID":657709,"DIS_CODE":0,"TOWNNAME":"新營區","LI":"王公里","LIN":"11鄰","STREET":"義和街","SECT":" ","MAREA":" ","LANE":" ","ALLEY":" ","HOUSE_NO":"２８號之１","E_COORD97":180392.87183600001,"N_COORD97":2579064.20927,"ADDRESS":"義和街２８號之１","OBJECTID":657682},"geometry":{"x":180392.87183600105,"y":2579064.2092740014}},{"attributes":{"ID":657710,"DIS_CODE":0,"TOWNNAME":"新營區","LI":"王公里","LIN":"10鄰","STREET":"民族路","SECT":" ","MAREA":" ","LANE":" ","ALLEY":" ","HOUSE_NO":"１０８號","E_COORD97":180333.54481399999,"N_COORD97":2579175.86338,"ADDRESS":"民族路１０８號","OBJECTID":657683},"geometry":{"x":180333.54481400084,"y":2579175.86338}},{"attributes":{"ID":657711,"DIS_CODE":0,"TOWNNAME":"新營區","LI":"王公里","LIN":"10鄰","STREET":"民族路","SECT":" ","MAREA":" ","LANE":" ","ALLEY":" ","HOUSE_NO":"９０號","E_COORD97":180319.13682300001,"N_COORD97":2579130.7784099998,"ADDRESS":"民族路９０號","OBJECTID":657684},"geometry":{"x":180319.13682300132,"y":2579130.7784050032}},{"attributes":{"ID":657712,"DIS_CODE":0,"TOWNNAME":"新營區","LI":"王公里","LIN":"14鄰","STREET":"中正路","SECT":" ","MAREA":" ","LANE":" ","ALLEY":" ","HOUSE_NO":"１０８之２號","E_COORD97":180126.45310000001,"N_COORD97":2579379.14597,"ADDRESS":"中正路１０８之２號","OBJECTID":657685},"geometry":{"x":180126.45310000051,"y":2579379.1459710002}},{"attributes":{"ID":657713,"DIS_CODE":0,"TOWNNAME":"新營區","LI":"王公里","LIN":"14鄰","STREET":"中正路","SECT":" ","MAREA":" ","LANE":" ","ALLEY":" ","HOUSE_NO":"８８之１號","E_COORD97":180125.817453,"N_COORD97":2579294.9026799998,"ADDRESS":"中正路８８之１號","OBJECTID":657686},"geometry":{"x":180125.81745300069,"y":2579294.9026830029}},{"attributes":{"ID":657714,"DIS_CODE":0,"TOWNNAME":"新營區","LI":"王公里","LIN":"14鄰","STREET":"中正路","SECT":" ","MAREA":" ","LANE":" ","ALLEY":" ","HOUSE_NO":"９２號之１","E_COORD97":180131.11450900001,"N_COORD97":2579305.4860100001,"ADDRESS":"中正路９２號之１","OBJECTID":657687},"geometry":{"x":180131.11450900137,"y":2579305.4860100001}},{"attributes":{"ID":657715,"DIS_CODE":0,"TOWNNAME":"新市區","LI":"社內里","LIN":"17鄰","STREET":" ","SECT":" ","MAREA":"社內","LANE":" ","ALLEY":" ","HOUSE_NO":"１７７之３號","E_COORD97":176040.67214400001,"N_COORD97":2552929.02122,"ADDRESS":"社內１７７之３號","OBJECTID":657688},"geometry":{"x":176040.67214400042,"y":2552929.0212169997}},{"attributes":{"ID":657716,"DIS_CODE":0,"TOWNNAME":"新營區","LI":"王公里","LIN":"24鄰","STREET":"中正路","SECT":" ","MAREA":" ","LANE":" ","ALLEY":" ","HOUSE_NO":"１２０號之１","E_COORD97":180144.14526600001,"N_COORD97":2579477.7296699998,"ADDRESS":"中正路１２０號之１","OBJECTID":657689},"geometry":{"x":180144.14526600018,"y":2579477.7296670005}},{"attributes":{"ID":657717,"DIS_CODE":0,"TOWNNAME":"新營區","LI":"王公里","LIN":"24鄰","STREET":"中正路","SECT":" ","MAREA":" ","LANE":" ","ALLEY":" ","HOUSE_NO":"１２０號之２","E_COORD97":180115.117401,"N_COORD97":2579477.7296699998,"ADDRESS":"中正路１２０號之２","OBJECTID":657690},"geometry":{"x":180115.11740100011,"y":2579477.7296670005}},{"attributes":{"ID":657718,"DIS_CODE":0,"TOWNNAME":"新營區","LI":"王公里","LIN":"24鄰","STREET":"中正路","SECT":" ","MAREA":" ","LANE":" ","ALLEY":" ","HOUSE_NO":"１２０之３號","E_COORD97":180128.46598099999,"N_COORD97":2579478.36467,"ADDRESS":"中正路１２０之３號","OBJECTID":657691},"geometry":{"x":180128.46598100103,"y":2579478.3646670002}},{"attributes":{"ID":657719,"DIS_CODE":0,"TOWNNAME":"新營區","LI":"王公里","LIN":"25鄰","STREET":"中正路","SECT":" ","MAREA":" ","LANE":" ","ALLEY":" ","HOUSE_NO":"１３０之３號","E_COORD97":180099.43811700001,"N_COORD97":2579529.48214,"ADDRESS":"中正路１３０之３號","OBJECTID":657692},"geometry":{"x":180099.43811700027,"y":2579529.4821390025}},{"attributes":{"ID":657720,"DIS_CODE":0,"TOWNNAME":"新市區","LI":"潭頂里","LIN":"1鄰","STREET":" ","SECT":" ","MAREA":"潭頂","LANE":" ","ALLEY":" ","HOUSE_NO":"１７之６２號","E_COORD97":180753.91049499999,"N_COORD97":2551098.52887,"ADDRESS":"潭頂１７之６２號","OBJECTID":657693},"geometry":{"x":180753.91049499996,"y":2551098.5288719982}},{"attributes":{"ID":657721,"DIS_CODE":0,"TOWNNAME":"新營區","LI":"王公里","LIN":"21鄰","STREET":"民族路","SECT":" ","MAREA":" ","LANE":"１５０巷","ALLEY":" ","HOUSE_NO":"１１號","E_COORD97":180472.006517,"N_COORD97":2579352.8860900002,"ADDRESS":"民族路１５０巷１１號","OBJECTID":657694},"geometry":{"x":180472.0065170005,"y":2579352.8860890009}},{"attributes":{"ID":657722,"DIS_CODE":0,"TOWNNAME":"新營區","LI":"王公里","LIN":"21鄰","STREET":"民族路","SECT":" ","MAREA":" ","LANE":"１５０巷","ALLEY":" ","HOUSE_NO":"１３號","E_COORD97":180477.51545499999,"N_COORD97":2579353.9444200001,"ADDRESS":"民族路１５０巷１３號","OBJECTID":657695},"geometry":{"x":180477.51545500103,"y":2579353.9444219992}},{"attributes":{"ID":657723,"DIS_CODE":0,"TOWNNAME":"新營區","LI":"王公里","LIN":"21鄰","STREET":"民族路","SECT":" ","MAREA":" ","LANE":"１５０巷","ALLEY":" ","HOUSE_NO":"１５號","E_COORD97":180487.050155,"N_COORD97":2579357.54275,"ADDRESS":"民族路１５０巷１５號","OBJECTID":657696},"geometry":{"x":180487.05015499983,"y":2579357.5427530017}},{"attributes":{"ID":657724,"DIS_CODE":0,"TOWNNAME":"新市區","LI":"潭頂里","LIN":"11鄰","STREET":" ","SECT":" ","MAREA":"潭頂","LANE":" ","ALLEY":" ","HOUSE_NO":"３７２之１號","E_COORD97":180616.135244,"N_COORD97":2552891.8737400002,"ADDRESS":"潭頂３７２之１號","OBJECTID":657697},"geometry":{"x":180616.13524399977,"y":2552891.8737369999}},{"attributes":{"ID":657725,"DIS_CODE":0,"TOWNNAME":"新營區","LI":"王公里","LIN":"21鄰","STREET":"民族路","SECT":" ","MAREA":" ","LANE":"１５０巷","ALLEY":" ","HOUSE_NO":"２３號","E_COORD97":180504.424497,"N_COORD97":2579360.0827500001,"ADDRESS":"民族路１５０巷２３號","OBJECTID":657698},"geometry":{"x":180504.42449700087,"y":2579360.0827520005}},{"attributes":{"ID":657726,"DIS_CODE":0,"TOWNNAME":"善化區","LI":"文昌里","LIN":"21鄰","STREET":"中正路","SECT":" ","MAREA":" ","LANE":" ","ALLEY":" ","HOUSE_NO":"１９７號","E_COORD97":177694.49265100001,"N_COORD97":2558119.1786000002,"ADDRESS":"中正路１９７號","OBJECTID":657699},"geometry":{"x":177694.49265099969,"y":2558119.1786030028}},{"attributes":{"ID":657727,"DIS_CODE":0,"TOWNNAME":"新營區","LI":"王公里","LIN":"7鄰","STREET":"民治路","SECT":" ","MAREA":" ","LANE":"２６巷","ALLEY":" ","HOUSE_NO":"７之１號","E_COORD97":180182.99916800001,"N_COORD97":2578927.11882,"ADDRESS":"民治路２６巷７之１號","OBJECTID":657700},"geometry":{"x":180182.99916800018,"y":2578927.1188190021}},{"attributes":{"ID":657728,"DIS_CODE":0,"TOWNNAME":"新營區","LI":"王公里","LIN":"7鄰","STREET":"民治路","SECT":" ","MAREA":" ","LANE":"２６巷","ALLEY":" ","HOUSE_NO":"７之２號","E_COORD97":180176.218937,"N_COORD97":2578888.1721700002,"ADDRESS":"民治路２６巷７之２號","OBJECTID":657701},"geometry":{"x":180176.21893700119,"y":2578888.1721730046}},{"attributes":{"ID":657729,"DIS_CODE":0,"TOWNNAME":"新營區","LI":"王公里","LIN":"8鄰","STREET":"民治路","SECT":" ","MAREA":" ","LANE":" ","ALLEY":" ","HOUSE_NO":"２４號之７","E_COORD97":180231.62613799999,"N_COORD97":2578891.4000900001,"ADDRESS":"民治路２４號之７","OBJECTID":657702},"geometry":{"x":180231.62613800075,"y":2578891.400088001}},{"attributes":{"ID":657730,"DIS_CODE":0,"TOWNNAME":"新營區","LI":"王公里","LIN":"9鄰","STREET":"民治路","SECT":" ","MAREA":" ","LANE":"１８巷","ALLEY":" ","HOUSE_NO":"１４號","E_COORD97":180424.650841,"N_COORD97":2578998.6091999998,"ADDRESS":"民治路１８巷１４號","OBJECTID":657703},"geometry":{"x":180424.65084099956,"y":2578998.609197}},{"attributes":{"ID":657731,"DIS_CODE":0,"TOWNNAME":"安定區","LI":"港南里","LIN":"18鄰","STREET":" ","SECT":" ","MAREA":"港口","LANE":" ","ALLEY":" ","HOUSE_NO":"２４４之２９號","E_COORD97":171782.40577799999,"N_COORD97":2554719.89267,"ADDRESS":"港口２４４之２９號","OBJECTID":657704},"geometry":{"x":171782.40577800106,"y":2554719.8926669974}},{"attributes":{"ID":657732,"DIS_CODE":0,"TOWNNAME":"新營區","LI":"王公里","LIN":"8鄰","STREET":"民治路","SECT":" ","MAREA":" ","LANE":" ","ALLEY":" ","HOUSE_NO":"２４號之３","E_COORD97":180247.623245,"N_COORD97":2578889.9713400002,"ADDRESS":"民治路２４號之３","OBJECTID":657705},"geometry":{"x":180247.62324499991,"y":2578889.9713390023}},{"attributes":{"ID":657733,"DIS_CODE":0,"TOWNNAME":"新營區","LI":"王公里","LIN":"8鄰","STREET":"民治路","SECT":" ","MAREA":" ","LANE":" ","ALLEY":" ","HOUSE_NO":"２４號","E_COORD97":180262.613912,"N_COORD97":2578890.4211300001,"ADDRESS":"民治路２４號","OBJECTID":657706},"geometry":{"x":180262.61391200032,"y":2578890.4211300034}},{"attributes":{"ID":657734,"DIS_CODE":0,"TOWNNAME":"安定區","LI":"大同里","LIN":"14鄰","STREET":" ","SECT":" ","MAREA":"牛肉寮","LANE":" ","ALLEY":" ","HOUSE_NO":"８之６號","E_COORD97":170727.10280299999,"N_COORD97":2552868.23367,"ADDRESS":"牛肉寮８之６號","OBJECTID":657707},"geometry":{"x":170727.10280299932,"y":2552868.233667003}},{"attributes":{"ID":657735,"DIS_CODE":0,"TOWNNAME":"安定區","LI":"港南里","LIN":"3鄰","STREET":" ","SECT":" ","MAREA":"港口","LANE":" ","ALLEY":" ","HOUSE_NO":"２３之３１號","E_COORD97":171491.86115700001,"N_COORD97":2553680.8215600001,"ADDRESS":"港口２３之３１號","OBJECTID":657708},"geometry":{"x":171491.861157001,"y":2553680.8215620033}},{"attributes":{"ID":657736,"DIS_CODE":0,"TOWNNAME":"安定區","LI":"中榮里","LIN":"9鄰","STREET":" ","SECT":" ","MAREA":"許中營","LANE":" ","ALLEY":" ","HOUSE_NO":"７４之１號","E_COORD97":172352.585032,"N_COORD97":2555088.50997,"ADDRESS":"許中營７４之１號","OBJECTID":657709},"geometry":{"x":172352.58503200114,"y":2555088.5099680014}},{"attributes":{"ID":657737,"DIS_CODE":0,"TOWNNAME":"安定區","LI":"中榮里","LIN":"9鄰","STREET":" ","SECT":" ","MAREA":"許中營","LANE":" ","ALLEY":" ","HOUSE_NO":"７４之２號","E_COORD97":172352.16134399999,"N_COORD97":2555097.71746,"ADDRESS":"許中營７４之２號","OBJECTID":657710},"geometry":{"x":172352.16134400107,"y":2555097.7174630016}},{"attributes":{"ID":657738,"DIS_CODE":0,"TOWNNAME":"善化區","LI":"文昌里","LIN":"17鄰","STREET":" ","SECT":" ","MAREA":"益民寮","LANE":" ","ALLEY":" ","HOUSE_NO":"１３號之１","E_COORD97":177584.957195,"N_COORD97":2557265.42111,"ADDRESS":"益民寮１３號之１","OBJECTID":657711},"geometry":{"x":177584.95719500072,"y":2557265.4211120028}},{"attributes":{"ID":657739,"DIS_CODE":0,"TOWNNAME":"善化區","LI":"文昌里","LIN":"17鄰","STREET":" ","SECT":" ","MAREA":"益民寮","LANE":" ","ALLEY":" ","HOUSE_NO":"５０號之３","E_COORD97":176825.62436300001,"N_COORD97":2556884.3684,"ADDRESS":"益民寮５０號之３","OBJECTID":657712},"geometry":{"x":176825.62436300144,"y":2556884.3684010021}},{"attributes":{"ID":657740,"DIS_CODE":0,"TOWNNAME":"安定區","LI":"港南里","LIN":"1鄰","STREET":" ","SECT":" ","MAREA":"港口","LANE":" ","ALLEY":" ","HOUSE_NO":"１之８６號","E_COORD97":170087.544501,"N_COORD97":2554351.3812000002,"ADDRESS":"港口１之８６號","OBJECTID":657713},"geometry":{"x":170087.54450100195,"y":2554351.3812000006}},{"attributes":{"ID":657741,"DIS_CODE":0,"TOWNNAME":"善化區","LI":"文昌里","LIN":"17鄰","STREET":" ","SECT":" ","MAREA":"益民寮","LANE":" ","ALLEY":" ","HOUSE_NO":"５１號","E_COORD97":176797.02226100001,"N_COORD97":2556864.0484099998,"ADDRESS":"益民寮５１號","OBJECTID":657714},"geometry":{"x":176797.02226100117,"y":2556864.0484120008}},{"attributes":{"ID":657742,"DIS_CODE":0,"TOWNNAME":"安定區","LI":"安定里","LIN":"5鄰","STREET":" ","SECT":" ","MAREA":"安定","LANE":" ","ALLEY":" ","HOUSE_NO":"２８之１０號","E_COORD97":172031.88926200001,"N_COORD97":2557990.7530899998,"ADDRESS":"安定２８之１０號","OBJECTID":657715},"geometry":{"x":172031.88926200103,"y":2557990.7530860025}},{"attributes":{"ID":657743,"DIS_CODE":0,"TOWNNAME":"山上區","LI":"山上里","LIN":"14鄰","STREET":" ","SECT":" ","MAREA":"山上","LANE":" ","ALLEY":" ","HOUSE_NO":"２０３號","E_COORD97":184172.55606500001,"N_COORD97":2555580.3429399999,"ADDRESS":"山上２０３號","OBJECTID":657716},"geometry":{"x":184172.55606500059,"y":2555580.3429419994}},{"attributes":{"ID":657744,"DIS_CODE":0,"TOWNNAME":"山上區","LI":"山上里","LIN":"14鄰","STREET":" ","SECT":" ","MAREA":"山上","LANE":" ","ALLEY":" ","HOUSE_NO":"２０５號","E_COORD97":184188.76251,"N_COORD97":2555588.6508499999,"ADDRESS":"山上２０５號","OBJECTID":657717},"geometry":{"x":184188.76251000073,"y":2555588.6508540008}},{"attributes":{"ID":657745,"DIS_CODE":0,"TOWNNAME":"山上區","LI":"山上里","LIN":"14鄰","STREET":" ","SECT":" ","MAREA":"山上","LANE":" ","ALLEY":" ","HOUSE_NO":"２０８號","E_COORD97":184198.295713,"N_COORD97":2555597.7525200001,"ADDRESS":"山上２０８號","OBJECTID":657718},"geometry":{"x":184198.29571300093,"y":2555597.7525159996}},{"attributes":{"ID":657746,"DIS_CODE":0,"TOWNNAME":"山上區","LI":"山上里","LIN":"15鄰","STREET":" ","SECT":" ","MAREA":"山上","LANE":" ","ALLEY":" ","HOUSE_NO":"２５４號","E_COORD97":184033.268579,"N_COORD97":2555600.4216100001,"ADDRESS":"山上２５４號","OBJECTID":657719},"geometry":{"x":184033.26857899968,"y":2555600.4216100015}},{"attributes":{"ID":657747,"DIS_CODE":0,"TOWNNAME":"善化區","LI":"胡厝里","LIN":"21鄰","STREET":" ","SECT":" ","MAREA":"百二甲","LANE":" ","ALLEY":" ","HOUSE_NO":"４３號之８０（該建築","E_COORD97":174849.14728,"N_COORD97":2559403.35721,"ADDRESS":"百二甲４３號之８０（該建築物係為農業設施不得設籍）","OBJECTID":657720},"geometry":{"x":174849.14728000108,"y":2559403.3572070003}},{"attributes":{"ID":657748,"DIS_CODE":0,"TOWNNAME":"山上區","LI":"山上里","LIN":"15鄰","STREET":" ","SECT":" ","MAREA":"山上","LANE":" ","ALLEY":" ","HOUSE_NO":"２５５號","E_COORD97":184031.15009000001,"N_COORD97":2555596.08244,"ADDRESS":"山上２５５號","OBJECTID":657721},"geometry":{"x":184031.15009000152,"y":2555596.0824449994}},{"attributes":{"ID":657749,"DIS_CODE":0,"TOWNNAME":"善化區","LI":"胡厝里","LIN":"21鄰","STREET":" ","SECT":" ","MAREA":"百二甲","LANE":" ","ALLEY":" ","HOUSE_NO":"１０６號","E_COORD97":174862.50248,"N_COORD97":2559355.3089000001,"ADDRESS":"百二甲１０６號","OBJECTID":657722},"geometry":{"x":174862.50248000119,"y":2559355.3089000005}},{"attributes":{"ID":657750,"DIS_CODE":0,"TOWNNAME":"善化區","LI":"胡厝里","LIN":"21鄰","STREET":" ","SECT":" ","MAREA":"百二甲","LANE":" ","ALLEY":" ","HOUSE_NO":"４３號之９０","E_COORD97":174805.05392000001,"N_COORD97":2559418.5972000002,"ADDRESS":"百二甲４３號之９０","OBJECTID":657723},"geometry":{"x":174805.05391999986,"y":2559418.5971990023}},{"attributes":{"ID":657751,"DIS_CODE":0,"TOWNNAME":"善化區","LI":"胡厝里","LIN":"21鄰","STREET":" ","SECT":" ","MAREA":"百二甲","LANE":" ","ALLEY":" ","HOUSE_NO":"６１號","E_COORD97":175143.491656,"N_COORD97":2559065.3257200001,"ADDRESS":"百二甲６１號","OBJECTID":657724},"geometry":{"x":175143.49165599979,"y":2559065.3257230017}},{"attributes":{"ID":657752,"DIS_CODE":0,"TOWNNAME":"善化區","LI":"光文里","LIN":"30鄰","STREET":"北子店","SECT":" ","MAREA":" ","LANE":" ","ALLEY":" ","HOUSE_NO":"５０１號之１","E_COORD97":179243.397861,"N_COORD97":2559776.5929399999,"ADDRESS":"北子店５０１號之１","OBJECTID":657725},"geometry":{"x":179243.39786100201,"y":2559776.5929430015}},{"attributes":{"ID":657753,"DIS_CODE":0,"TOWNNAME":"山上區","LI":"山上里","LIN":"11鄰","STREET":" ","SECT":" ","MAREA":"山上","LANE":" ","ALLEY":" ","HOUSE_NO":"１７１號","E_COORD97":184243.846437,"N_COORD97":2555627.0915999999,"ADDRESS":"山上１７１號","OBJECTID":657726},"geometry":{"x":184243.84643700067,"y":2555627.0915950034}},{"attributes":{"ID":657754,"DIS_CODE":0,"TOWNNAME":"善化區","LI":"胡厝里","LIN":"21鄰","STREET":" ","SECT":" ","MAREA":"百二甲","LANE":" ","ALLEY":" ","HOUSE_NO":"４３號之５０","E_COORD97":175027.110625,"N_COORD97":2559538.4004700002,"ADDRESS":"百二甲４３號之５０","OBJECTID":657727},"geometry":{"x":175027.11062500067,"y":2559538.4004670028}},{"attributes":{"ID":657755,"DIS_CODE":0,"TOWNNAME":"山上區","LI":"山上里","LIN":"11鄰","STREET":" ","SECT":" ","MAREA":"山上","LANE":" ","ALLEY":" ","HOUSE_NO":"１７３號","E_COORD97":184249.99005699999,"N_COORD97":2555620.9532699999,"ADDRESS":"山上１７３號","OBJECTID":657728},"geometry":{"x":184249.99005699996,"y":2555620.9532650001}},{"attributes":{"ID":657756,"DIS_CODE":0,"TOWNNAME":"善化區","LI":"胡厝里","LIN":"15鄰","STREET":" ","SECT":" ","MAREA":"胡厝寮","LANE":" ","ALLEY":" ","HOUSE_NO":"２４４號之２（該建物","E_COORD97":174852.75106400001,"N_COORD97":2560267.5917400001,"ADDRESS":"胡厝寮２４４號之２（該建物係農業設施不得設籍）","OBJECTID":657729},"geometry":{"x":174852.75106399972,"y":2560267.591740001}},{"attributes":{"ID":657757,"DIS_CODE":0,"TOWNNAME":"善化區","LI":"胡厝里","LIN":"11鄰","STREET":" ","SECT":" ","MAREA":"百二甲","LANE":" ","ALLEY":" ","HOUSE_NO":"１１號之１１（該建物","E_COORD97":175448.753379,"N_COORD97":2559710.2737099999,"ADDRESS":"百二甲１１號之１１（該建物係農業設施不得設籍）","OBJECTID":657730},"geometry":{"x":175448.75337900128,"y":2559710.2737080026}},{"attributes":{"ID":657758,"DIS_CODE":0,"TOWNNAME":"山上區","LI":"山上里","LIN":"3鄰","STREET":" ","SECT":" ","MAREA":"山上","LANE":" ","ALLEY":" ","HOUSE_NO":"６７號","E_COORD97":184342.98534700001,"N_COORD97":2555628.2854200001,"ADDRESS":"山上６７號","OBJECTID":657731},"geometry":{"x":184342.98534700088,"y":2555628.2854160015}},{"attributes":{"ID":657759,"DIS_CODE":0,"TOWNNAME":"山上區","LI":"山上里","LIN":"3鄰","STREET":" ","SECT":" ","MAREA":"山上","LANE":" ","ALLEY":" ","HOUSE_NO":"７１號","E_COORD97":184327.308525,"N_COORD97":2555640.6679099998,"ADDRESS":"山上７１號","OBJECTID":657732},"geometry":{"x":184327.3085250007,"y":2555640.6679100022}},{"attributes":{"ID":657760,"DIS_CODE":0,"TOWNNAME":"山上區","LI":"山上里","LIN":"6鄰","STREET":" ","SECT":" ","MAREA":"山上","LANE":" ","ALLEY":" ","HOUSE_NO":"１２１號","E_COORD97":184228.79876000001,"N_COORD97":2555807.7786500002,"ADDRESS":"山上１２１號","OBJECTID":657733},"geometry":{"x":184228.79875999875,"y":2555807.7786500026}},{"attributes":{"ID":657761,"DIS_CODE":0,"TOWNNAME":"山上區","LI":"山上里","LIN":"6鄰","STREET":" ","SECT":" ","MAREA":"山上","LANE":" ","ALLEY":" ","HOUSE_NO":"１１７號","E_COORD97":184220.01023099999,"N_COORD97":2555750.4106200002,"ADDRESS":"山上１１７號","OBJECTID":657734},"geometry":{"x":184220.01023100037,"y":2555750.4106229991}},{"attributes":{"ID":657762,"DIS_CODE":0,"TOWNNAME":"山上區","LI":"山上里","LIN":"9鄰","STREET":" ","SECT":" ","MAREA":"山上","LANE":" ","ALLEY":" ","HOUSE_NO":"１５８之３號","E_COORD97":184118.534583,"N_COORD97":2555686.6989899999,"ADDRESS":"山上１５８之３號","OBJECTID":657735},"geometry":{"x":184118.5345830014,"y":2555686.6989910025}},{"attributes":{"ID":657763,"DIS_CODE":0,"TOWNNAME":"山上區","LI":"山上里","LIN":"9鄰","STREET":" ","SECT":" ","MAREA":"山上","LANE":" ","ALLEY":" ","HOUSE_NO":"１５９號","E_COORD97":184169.37833100001,"N_COORD97":2555673.4201099998,"ADDRESS":"山上１５９號","OBJECTID":657736},"geometry":{"x":184169.37833100092,"y":2555673.4201120026}},{"attributes":{"ID":657764,"DIS_CODE":0,"TOWNNAME":"善化區","LI":"胡家里","LIN":"5鄰","STREET":" ","SECT":" ","MAREA":"胡厝寮","LANE":" ","ALLEY":" ","HOUSE_NO":"４４號之１","E_COORD97":175420.71337000001,"N_COORD97":2560525.7228199998,"ADDRESS":"胡厝寮４４號之１","OBJECTID":657737},"geometry":{"x":175420.71337000001,"y":2560525.7228199989}},{"attributes":{"ID":657765,"DIS_CODE":0,"TOWNNAME":"新營區","LI":"土庫里","LIN":"16鄰","STREET":" ","SECT":" ","MAREA":"卯舍","LANE":" ","ALLEY":" ","HOUSE_NO":"１２號","E_COORD97":181731.95762900001,"N_COORD97":2580166.0528099998,"ADDRESS":"卯舍１２號","OBJECTID":657738},"geometry":{"x":181731.95762900077,"y":2580166.0528120026}},{"attributes":{"ID":657766,"DIS_CODE":0,"TOWNNAME":"新營區","LI":"土庫里","LIN":"16鄰","STREET":" ","SECT":" ","MAREA":"卯舍","LANE":" ","ALLEY":" ","HOUSE_NO":"１２之３１號","E_COORD97":181713.05871899999,"N_COORD97":2580114.6823200001,"ADDRESS":"卯舍１２之３１號","OBJECTID":657739},"geometry":{"x":181713.05871899985,"y":2580114.6823229995}},{"attributes":{"ID":657767,"DIS_CODE":0,"TOWNNAME":"新營區","LI":"土庫里","LIN":"16鄰","STREET":" ","SECT":" ","MAREA":"卯舍","LANE":" ","ALLEY":" ","HOUSE_NO":"２號","E_COORD97":181975.58079099999,"N_COORD97":2580165.1647999999,"ADDRESS":"卯舍２號","OBJECTID":657740},"geometry":{"x":181975.58079100121,"y":2580165.1647960003}},{"attributes":{"ID":657768,"DIS_CODE":0,"TOWNNAME":"新營區","LI":"土庫里","LIN":"16鄰","STREET":" ","SECT":" ","MAREA":"卯舍","LANE":" ","ALLEY":" ","HOUSE_NO":"３號","E_COORD97":181990.200664,"N_COORD97":2580141.56397,"ADDRESS":"卯舍３號","OBJECTID":657741},"geometry":{"x":181990.20066399965,"y":2580141.5639750008}},{"attributes":{"ID":657769,"DIS_CODE":0,"TOWNNAME":"仁德區","LI":"新田里","LIN":"7鄰","STREET":"新田一街","SECT":" ","MAREA":" ","LANE":"６１巷","ALLEY":" ","HOUSE_NO":"７５號","E_COORD97":173814.10850100001,"N_COORD97":2539098.36412,"ADDRESS":"新田一街６１巷７５號","OBJECTID":657742},"geometry":{"x":173814.10850100033,"y":2539098.3641219996}},{"attributes":{"ID":657770,"DIS_CODE":0,"TOWNNAME":"西港區","LI":"慶安里","LIN":"3鄰","STREET":" ","SECT":" ","MAREA":"中州","LANE":" ","ALLEY":" ","HOUSE_NO":"２１號之２","E_COORD97":167563.55058000001,"N_COORD97":2559614.0090899998,"ADDRESS":"中州２１號之２","OBJECTID":657743},"geometry":{"x":167563.55058000144,"y":2559614.0090899989}},{"attributes":{"ID":657771,"DIS_CODE":0,"TOWNNAME":"新營區","LI":"大宏里","LIN":"10鄰","STREET":"民治路","SECT":" ","MAREA":" ","LANE":"２９巷","ALLEY":" ","HOUSE_NO":"１０之１號","E_COORD97":180151.466724,"N_COORD97":2578837.9479700001,"ADDRESS":"民治路２９巷１０之１號","OBJECTID":657744},"geometry":{"x":180151.46672399994,"y":2578837.9479660038}},{"attributes":{"ID":657772,"DIS_CODE":0,"TOWNNAME":"新營區","LI":"大宏里","LIN":"10鄰","STREET":"中正路","SECT":" ","MAREA":" ","LANE":" ","ALLEY":" ","HOUSE_NO":"２６號","E_COORD97":180076.24438700001,"N_COORD97":2578734.9721900001,"ADDRESS":"中正路２６號","OBJECTID":657745},"geometry":{"x":180076.24438699987,"y":2578734.9721890017}},{"attributes":{"ID":657773,"DIS_CODE":0,"TOWNNAME":"新營區","LI":"大宏里","LIN":"10鄰","STREET":"中正路","SECT":" ","MAREA":" ","LANE":" ","ALLEY":" ","HOUSE_NO":"２８號","E_COORD97":180076.668175,"N_COORD97":2578741.5338499998,"ADDRESS":"中正路２８號","OBJECTID":657746},"geometry":{"x":180076.6681750007,"y":2578741.5338520017}},{"attributes":{"ID":657774,"DIS_CODE":0,"TOWNNAME":"新營區","LI":"大宏里","LIN":"10鄰","STREET":"民治路","SECT":" ","MAREA":" ","LANE":"２９巷","ALLEY":" ","HOUSE_NO":"２６之１３號","E_COORD97":180099.34082300001,"N_COORD97":2578736.8771899999,"ADDRESS":"民治路２９巷２６之１３號","OBJECTID":657747},"geometry":{"x":180099.3408230003,"y":2578736.8771870025}},{"attributes":{"ID":657775,"DIS_CODE":0,"TOWNNAME":"東區","LI":"龍山里","LIN":"10鄰","STREET":"府東街","SECT":" ","MAREA":" ","LANE":" ","ALLEY":" ","HOUSE_NO":"５８號","E_COORD97":169963.59952399999,"N_COORD97":2542942.0611899998,"ADDRESS":"府東街５８號","OBJECTID":657748},"geometry":{"x":169963.59952400066,"y":2542942.0611939989}},{"attributes":{"ID":657776,"DIS_CODE":0,"TOWNNAME":"東區","LI":"龍山里","LIN":"10鄰","STREET":"府東街","SECT":" ","MAREA":" ","LANE":" ","ALLEY":" ","HOUSE_NO":"５６號","E_COORD97":169948.74885,"N_COORD97":2542920.2177599999,"ADDRESS":"府東街５６號","OBJECTID":657749},"geometry":{"x":169948.74885000009,"y":2542920.217763003}},{"attributes":{"ID":657777,"DIS_CODE":0,"TOWNNAME":"關廟區","LI":"松腳里","LIN":"4鄰","STREET":"旺萊路","SECT":" ","MAREA":" ","LANE":"４６６巷","ALLEY":" ","HOUSE_NO":"３０號","E_COORD97":182700.816708,"N_COORD97":2539502.0898899999,"ADDRESS":"旺萊路４６６巷３０號","OBJECTID":657750},"geometry":{"x":182700.81670800131,"y":2539502.0898870043}},{"attributes":{"ID":657778,"DIS_CODE":0,"TOWNNAME":"官田區","LI":"南\u25A0里","LIN":"8鄰","STREET":" ","SECT":" ","MAREA":"南\u25A0","LANE":" ","ALLEY":" ","HOUSE_NO":"１０５號之９","E_COORD97":177545.817602,"N_COORD97":2568463.0838600001,"ADDRESS":"南\u25A0１０５號之９","OBJECTID":657751},"geometry":{"x":177545.81760199927,"y":2568463.0838619992}},{"attributes":{"ID":657779,"DIS_CODE":0,"TOWNNAME":"山上區","LI":"新莊里","LIN":"7鄰","STREET":" ","SECT":" ","MAREA":"大庄","LANE":" ","ALLEY":" ","HOUSE_NO":"１７之１６號","E_COORD97":183666.56444300001,"N_COORD97":2554589.5509899999,"ADDRESS":"大庄１７之１６號","OBJECTID":657752},"geometry":{"x":183666.56444299966,"y":2554589.5509920027}},{"attributes":{"ID":657780,"DIS_CODE":0,"TOWNNAME":"山上區","LI":"新莊里","LIN":"7鄰","STREET":" ","SECT":" ","MAREA":"大庄","LANE":" ","ALLEY":" ","HOUSE_NO":"１７號之６","E_COORD97":183742.19451,"N_COORD97":2554659.5067799999,"ADDRESS":"大庄１７號之６","OBJECTID":657753},"geometry":{"x":183742.19450999983,"y":2554659.5067800023}},{"attributes":{"ID":657781,"DIS_CODE":0,"TOWNNAME":"山上區","LI":"新莊里","LIN":"7鄰","STREET":" ","SECT":" ","MAREA":"大庄","LANE":" ","ALLEY":" ","HOUSE_NO":"１７號之２","E_COORD97":183844.30571300001,"N_COORD97":2554687.2382999999,"ADDRESS":"大庄１７號之２","OBJECTID":657754},"geometry":{"x":183844.30571299978,"y":2554687.2383030038}},{"attributes":{"ID":657782,"DIS_CODE":0,"TOWNNAME":"山上區","LI":"新莊里","LIN":"9鄰","STREET":" ","SECT":" ","MAREA":"大庄","LANE":" ","ALLEY":" ","HOUSE_NO":"６６之５號","E_COORD97":182969.79324,"N_COORD97":2554343.1743200002,"ADDRESS":"大庄６６之５號","OBJECTID":657755},"geometry":{"x":182969.79323999956,"y":2554343.1743219998}},{"attributes":{"ID":657783,"DIS_CODE":0,"TOWNNAME":"山上區","LI":"新莊里","LIN":"6鄰","STREET":" ","SECT":" ","MAREA":"大庄","LANE":" ","ALLEY":" ","HOUSE_NO":"８之１８號","E_COORD97":183988.89262299999,"N_COORD97":2554846.3586300001,"ADDRESS":"大庄８之１８號","OBJECTID":657756},"geometry":{"x":183988.89262300078,"y":2554846.3586330041}},{"attributes":{"ID":657784,"DIS_CODE":0,"TOWNNAME":"山上區","LI":"新莊里","LIN":"7鄰","STREET":" ","SECT":" ","MAREA":"大庄","LANE":" ","ALLEY":" ","HOUSE_NO":"１３號之２","E_COORD97":183945.88408600001,"N_COORD97":2554826.7233600002,"ADDRESS":"大庄１３號之２","OBJECTID":657757},"geometry":{"x":183945.8840859998,"y":2554826.7233640011}},{"attributes":{"ID":657785,"DIS_CODE":0,"TOWNNAME":"山上區","LI":"新莊里","LIN":"2鄰","STREET":" ","SECT":" ","MAREA":"新庄","LANE":" ","ALLEY":" ","HOUSE_NO":"１８號","E_COORD97":184922.71960300001,"N_COORD97":2555276.3031199998,"ADDRESS":"新庄１８號","OBJECTID":657758},"geometry":{"x":184922.71960300207,"y":2555276.3031210005}},{"attributes":{"ID":657786,"DIS_CODE":0,"TOWNNAME":"山上區","LI":"新莊里","LIN":"9鄰","STREET":" ","SECT":" ","MAREA":"大庄","LANE":" ","ALLEY":" ","HOUSE_NO":"３２之３號","E_COORD97":183885.08343699999,"N_COORD97":2554889.3766600001,"ADDRESS":"大庄３２之３號","OBJECTID":657759},"geometry":{"x":183885.08343700133,"y":2554889.3766629975}},{"attributes":{"ID":657787,"DIS_CODE":0,"TOWNNAME":"山上區","LI":"新莊里","LIN":"5鄰","STREET":" ","SECT":" ","MAREA":"新庄","LANE":" ","ALLEY":" ","HOUSE_NO":"５３之２號","E_COORD97":184878.65502100001,"N_COORD97":2555245.6114699999,"ADDRESS":"新庄５３之２號","OBJECTID":657760},"geometry":{"x":184878.65502099972,"y":2555245.6114710011}},{"attributes":{"ID":657788,"DIS_CODE":0,"TOWNNAME":"山上區","LI":"新莊里","LIN":"5鄰","STREET":" ","SECT":" ","MAREA":"新庄","LANE":" ","ALLEY":" ","HOUSE_NO":"５３號","E_COORD97":184884.16309399999,"N_COORD97":2555254.9248000002,"ADDRESS":"新庄５３號","OBJECTID":657761},"geometry":{"x":184884.16309400089,"y":2555254.9247990027}},{"attributes":{"ID":657789,"DIS_CODE":0,"TOWNNAME":"山上區","LI":"新莊里","LIN":"5鄰","STREET":" ","SECT":" ","MAREA":"新庄","LANE":" ","ALLEY":" ","HOUSE_NO":"５４之１號","E_COORD97":184877.38392699999,"N_COORD97":2555233.75814,"ADDRESS":"新庄５４之１號","OBJECTID":657762},"geometry":{"x":184877.38392699976,"y":2555233.7581439987}},{"attributes":{"ID":657790,"DIS_CODE":0,"TOWNNAME":"山上區","LI":"新莊里","LIN":"5鄰","STREET":" ","SECT":" ","MAREA":"新庄","LANE":" ","ALLEY":" ","HOUSE_NO":"５６號","E_COORD97":184854.05814499999,"N_COORD97":2555188.29636,"ADDRESS":"新庄５６號","OBJECTID":657763},"geometry":{"x":184854.0581450006,"y":2555188.2963580005}},{"attributes":{"ID":657791,"DIS_CODE":0,"TOWNNAME":"善化區","LI":"光文里","LIN":"30鄰","STREET":" ","SECT":" ","MAREA":"北子店","LANE":" ","ALLEY":" ","HOUSE_NO":"６３１號","E_COORD97":179455.62525499999,"N_COORD97":2560288.82534,"ADDRESS":"北子店６３１號","OBJECTID":657764},"geometry":{"x":179455.62525500078,"y":2560288.8253370021}},{"attributes":{"ID":657792,"DIS_CODE":0,"TOWNNAME":"善化區","LI":"光文里","LIN":"30鄰","STREET":" ","SECT":" ","MAREA":"北子店","LANE":" ","ALLEY":" ","HOUSE_NO":"６６７號","E_COORD97":179634.44751299999,"N_COORD97":2560604.1688100002,"ADDRESS":"北子店６６７號","OBJECTID":657765},"geometry":{"x":179634.44751300197,"y":2560604.1688120011}},{"attributes":{"ID":657793,"DIS_CODE":0,"TOWNNAME":"善化區","LI":"光文里","LIN":"30鄰","STREET":" ","SECT":" ","MAREA":"北子店","LANE":" ","ALLEY":" ","HOUSE_NO":"７０７號","E_COORD97":179645.46499800001,"N_COORD97":2560621.3138000001,"ADDRESS":"北子店７０７號","OBJECTID":657766},"geometry":{"x":179645.46499800123,"y":2560621.3138030041}},{"attributes":{"ID":657794,"DIS_CODE":0,"TOWNNAME":"山上區","LI":"新莊里","LIN":"1鄰","STREET":" ","SECT":" ","MAREA":"新庄","LANE":" ","ALLEY":" ","HOUSE_NO":"８號之１","E_COORD97":185231.13967999999,"N_COORD97":2555040.50019,"ADDRESS":"新庄８號之１","OBJECTID":657767},"geometry":{"x":185231.13968000095,"y":2555040.5001880005}},{"attributes":{"ID":657795,"DIS_CODE":0,"TOWNNAME":"山上區","LI":"新莊里","LIN":"1鄰","STREET":" ","SECT":" ","MAREA":"新庄","LANE":" ","ALLEY":" ","HOUSE_NO":"８之３號","E_COORD97":185251.00195100001,"N_COORD97":2555053.8511600001,"ADDRESS":"新庄８之３號","OBJECTID":657768},"geometry":{"x":185251.00195100065,"y":2555053.8511650041}},{"attributes":{"ID":657796,"DIS_CODE":0,"TOWNNAME":"山上區","LI":"新莊里","LIN":"8鄰","STREET":" ","SECT":" ","MAREA":"大庄","LANE":" ","ALLEY":" ","HOUSE_NO":"３０號之１","E_COORD97":183877.84857599999,"N_COORD97":2554858.1494499999,"ADDRESS":"大庄３０號之１","OBJECTID":657769},"geometry":{"x":183877.84857600089,"y":2554858.1494529992}},{"attributes":{"ID":657797,"DIS_CODE":0,"TOWNNAME":"山上區","LI":"新莊里","LIN":"6鄰","STREET":" ","SECT":" ","MAREA":"大庄","LANE":" ","ALLEY":" ","HOUSE_NO":"６號","E_COORD97":183922.97240299999,"N_COORD97":2554880.9036099999,"ADDRESS":"大庄６號","OBJECTID":657770},"geometry":{"x":183922.97240300104,"y":2554880.9036069997}},{"attributes":{"ID":657798,"DIS_CODE":0,"TOWNNAME":"善化區","LI":"坐駕里","LIN":"7鄰","STREET":"大成路","SECT":" ","MAREA":" ","LANE":" ","ALLEY":" ","HOUSE_NO":"３７６號","E_COORD97":177912.00722999999,"N_COORD97":2558805.8970499998,"ADDRESS":"大成路３７６號","OBJECTID":657771},"geometry":{"x":177912.00722999964,"y":2558805.8970500007}},{"attributes":{"ID":657799,"DIS_CODE":0,"TOWNNAME":"善化區","LI":"坐駕里","LIN":"7鄰","STREET":"大成路","SECT":" ","MAREA":" ","LANE":" ","ALLEY":" ","HOUSE_NO":"３５０號","E_COORD97":177972.37427,"N_COORD97":2558815.4220400001,"ADDRESS":"大成路３５０號","OBJECTID":657772},"geometry":{"x":177972.37426999956,"y":2558815.4220400024}},{"attributes":{"ID":657800,"DIS_CODE":0,"TOWNNAME":"官田區","LI":"南\u25A0里","LIN":"1鄰","STREET":" ","SECT":" ","MAREA":"南\u25A0","LANE":" ","ALLEY":" ","HOUSE_NO":"１１號之１","E_COORD97":179205.91133500001,"N_COORD97":2567856.6878900002,"ADDRESS":"南\u25A0１１號之１","OBJECTID":657773},"geometry":{"x":179205.91133500077,"y":2567856.6878870018}},{"attributes":{"ID":657801,"DIS_CODE":0,"TOWNNAME":"善化區","LI":"坐駕里","LIN":"14鄰","STREET":"自立路","SECT":" ","MAREA":" ","LANE":" ","ALLEY":" ","HOUSE_NO":"７３號","E_COORD97":178150.364589,"N_COORD97":2558643.9389599999,"ADDRESS":"自立路７３號","OBJECTID":657774},"geometry":{"x":178150.36458900012,"y":2558643.9389580004}},{"attributes":{"ID":657802,"DIS_CODE":0,"TOWNNAME":"官田區","LI":"渡頭里","LIN":"29鄰","STREET":" ","SECT":" ","MAREA":"三塊厝","LANE":" ","ALLEY":" ","HOUSE_NO":"１４３號之３","E_COORD97":182990.59779100001,"N_COORD97":2561349.6363300001,"ADDRESS":"三塊厝１４３號之３","OBJECTID":657775},"geometry":{"x":182990.5977910012,"y":2561349.6363290008}},{"attributes":{"ID":657803,"DIS_CODE":0,"TOWNNAME":"西港區","LI":"慶安里","LIN":"6鄰","STREET":"中山路","SECT":" ","MAREA":" ","LANE":" ","ALLEY":" ","HOUSE_NO":"３９３號","E_COORD97":168271.96867,"N_COORD97":2558392.6173,"ADDRESS":"中山路３９３號","OBJECTID":657776},"geometry":{"x":168271.96867000218,"y":2558392.6173}},{"attributes":{"ID":657804,"DIS_CODE":0,"TOWNNAME":"西港區","LI":"慶安里","LIN":"7鄰","STREET":"中山路","SECT":" ","MAREA":" ","LANE":" ","ALLEY":" ","HOUSE_NO":"３７７號","E_COORD97":168337.63748999999,"N_COORD97":2558308.7973500001,"ADDRESS":"中山路３７７號","OBJECTID":657777},"geometry":{"x":168337.63748999871,"y":2558308.7973500025}},{"attributes":{"ID":657805,"DIS_CODE":0,"TOWNNAME":"西港區","LI":"慶安里","LIN":"7鄰","STREET":"中山路","SECT":" ","MAREA":" ","LANE":" ","ALLEY":" ","HOUSE_NO":"３７９號","E_COORD97":168343.56886999999,"N_COORD97":2558326.5773399998,"ADDRESS":"中山路３７９號","OBJECTID":657778},"geometry":{"x":168343.56886999961,"y":2558326.5773399994}},{"attributes":{"ID":657806,"DIS_CODE":0,"TOWNNAME":"新營區","LI":"忠政里","LIN":"1鄰","STREET":"中正路","SECT":" ","MAREA":" ","LANE":" ","ALLEY":" ","HOUSE_NO":"２７號之４","E_COORD97":180105.26487799999,"N_COORD97":2578980.0718200002,"ADDRESS":"中正路２７號之４","OBJECTID":657779},"geometry":{"x":180105.26487800013,"y":2578980.0718189999}},{"attributes":{"ID":657807,"DIS_CODE":0,"TOWNNAME":"安南區","LI":"南興里","LIN":"8鄰","STREET":"安興街","SECT":" ","MAREA":" ","LANE":"６４０巷","ALLEY":" ","HOUSE_NO":"７號","E_COORD97":163490.39864299999,"N_COORD97":2552516.4191200002,"ADDRESS":"安興街６４０巷７號","OBJECTID":657780},"geometry":{"x":163490.39864300005,"y":2552516.4191200025}},{"attributes":{"ID":657808,"DIS_CODE":0,"TOWNNAME":"新營區","LI":"大宏里","LIN":"14鄰","STREET":"中正路","SECT":" ","MAREA":" ","LANE":" ","ALLEY":" ","HOUSE_NO":"１２號","E_COORD97":180075.18491800001,"N_COORD97":2578703.0010700002,"ADDRESS":"中正路１２號","OBJECTID":657781},"geometry":{"x":180075.18491800129,"y":2578703.0010670014}},{"attributes":{"ID":657809,"DIS_CODE":0,"TOWNNAME":"新營區","LI":"大宏里","LIN":"14鄰","STREET":"中正路","SECT":" ","MAREA":" ","LANE":" ","ALLEY":" ","HOUSE_NO":"１６號","E_COORD97":180074.76113,"N_COORD97":2578708.9277300001,"ADDRESS":"中正路１６號","OBJECTID":657782},"geometry":{"x":180074.7611300014,"y":2578708.9277310017}},{"attributes":{"ID":657810,"DIS_CODE":0,"TOWNNAME":"新營區","LI":"大宏里","LIN":"14鄰","STREET":"中正路","SECT":" ","MAREA":" ","LANE":" ","ALLEY":" ","HOUSE_NO":"１８號","E_COORD97":180074.54923599999,"N_COORD97":2578715.7010599999,"ADDRESS":"中正路１８號","OBJECTID":657783},"geometry":{"x":180074.54923600145,"y":2578715.7010600008}},{"attributes":{"ID":657811,"DIS_CODE":0,"TOWNNAME":"新營區","LI":"大宏里","LIN":"14鄰","STREET":"中正路","SECT":" ","MAREA":" ","LANE":" ","ALLEY":" ","HOUSE_NO":"２０號","E_COORD97":180074.76113,"N_COORD97":2578721.6277200002,"ADDRESS":"中正路２０號","OBJECTID":657784},"geometry":{"x":180074.7611300014,"y":2578721.6277240012}},{"attributes":{"ID":657812,"DIS_CODE":0,"TOWNNAME":"新營區","LI":"大宏里","LIN":"14鄰","STREET":"中正路","SECT":" ","MAREA":" ","LANE":"２２巷","ALLEY":" ","HOUSE_NO":"２號","E_COORD97":180088.95801999999,"N_COORD97":2578722.6860500001,"ADDRESS":"中正路２２巷２號","OBJECTID":657785},"geometry":{"x":180088.95801999979,"y":2578722.6860499997}},{"attributes":{"ID":657813,"DIS_CODE":0,"TOWNNAME":"新營區","LI":"大宏里","LIN":"14鄰","STREET":"中正路","SECT":" ","MAREA":" ","LANE":"２２巷","ALLEY":" ","HOUSE_NO":"６號","E_COORD97":180099.976505,"N_COORD97":2578724.1677199998,"ADDRESS":"中正路２２巷６號","OBJECTID":657786},"geometry":{"x":180099.97650500014,"y":2578724.1677219998}},{"attributes":{"ID":657814,"DIS_CODE":0,"TOWNNAME":"新營區","LI":"大宏里","LIN":"14鄰","STREET":"中正路","SECT":" ","MAREA":" ","LANE":"２２巷","ALLEY":" ","HOUSE_NO":"１０號","E_COORD97":180112.266351,"N_COORD97":2578727.9777199998,"ADDRESS":"中正路２２巷１０號","OBJECTID":657787},"geometry":{"x":180112.26635100134,"y":2578727.9777199998}},{"attributes":{"ID":657815,"DIS_CODE":0,"TOWNNAME":"善化區","LI":"坐駕里","LIN":"22鄰","STREET":" ","SECT":" ","MAREA":"坐駕","LANE":" ","ALLEY":" ","HOUSE_NO":"４５號之７","E_COORD97":178017.00065999999,"N_COORD97":2558232.94887,"ADDRESS":"坐駕４５號之７","OBJECTID":657788},"geometry":{"x":178017.0006600013,"y":2558232.9488699995}},{"attributes":{"ID":657816,"DIS_CODE":0,"TOWNNAME":"新營區","LI":"大宏里","LIN":"14鄰","STREET":"中正路","SECT":" ","MAREA":" ","LANE":"２２巷","ALLEY":" ","HOUSE_NO":"１２號","E_COORD97":180122.437259,"N_COORD97":2578728.6127200001,"ADDRESS":"中正路２２巷１２號","OBJECTID":657789},"geometry":{"x":180122.43725899979,"y":2578728.6127199996}},{"attributes":{"ID":657817,"DIS_CODE":0,"TOWNNAME":"新營區","LI":"大宏里","LIN":"14鄰","STREET":"中正路","SECT":" ","MAREA":" ","LANE":"２２巷","ALLEY":" ","HOUSE_NO":"１６號","E_COORD97":180133.03195400001,"N_COORD97":2578728.40105,"ADDRESS":"中正路２２巷１６號","OBJECTID":657790},"geometry":{"x":180133.03195399977,"y":2578728.4010530021}},{"attributes":{"ID":657818,"DIS_CODE":0,"TOWNNAME":"新營區","LI":"大宏里","LIN":"14鄰","STREET":"中正路","SECT":" ","MAREA":" ","LANE":"２２巷","ALLEY":" ","HOUSE_NO":"１８號","E_COORD97":180142.143392,"N_COORD97":2578728.40105,"ADDRESS":"中正路２２巷１８號","OBJECTID":657791},"geometry":{"x":180142.14339199942,"y":2578728.4010530021}},{"attributes":{"ID":657819,"DIS_CODE":0,"TOWNNAME":"新營區","LI":"大宏里","LIN":"14鄰","STREET":"中正路","SECT":" ","MAREA":" ","LANE":"２２巷","ALLEY":" ","HOUSE_NO":"２０號","E_COORD97":180150.619148,"N_COORD97":2578728.40105,"ADDRESS":"中正路２２巷２０號","OBJECTID":657792},"geometry":{"x":180150.61914800014,"y":2578728.4010530021}},{"attributes":{"ID":657820,"DIS_CODE":0,"TOWNNAME":"新營區","LI":"大宏里","LIN":"14鄰","STREET":"中正路","SECT":" ","MAREA":" ","LANE":"２２巷","ALLEY":" ","HOUSE_NO":"２２號","E_COORD97":180159.30679800001,"N_COORD97":2578728.40105,"ADDRESS":"中正路２２巷２２號","OBJECTID":657793},"geometry":{"x":180159.30679799989,"y":2578728.4010530021}},{"attributes":{"ID":657821,"DIS_CODE":0,"TOWNNAME":"善化區","LI":"坐駕里","LIN":"5鄰","STREET":"青年路","SECT":" ","MAREA":" ","LANE":" ","ALLEY":" ","HOUSE_NO":"１４１號","E_COORD97":177823.40251000001,"N_COORD97":2558927.6384999999,"ADDRESS":"青年路１４１號","OBJECTID":657794},"geometry":{"x":177823.40251000039,"y":2558927.6384970006}},{"attributes":{"ID":657822,"DIS_CODE":0,"TOWNNAME":"新營區","LI":"大宏里","LIN":"14鄰","STREET":"中正路","SECT":" ","MAREA":" ","LANE":"２２巷","ALLEY":" ","HOUSE_NO":"２６號","E_COORD97":180170.537175,"N_COORD97":2578728.40105,"ADDRESS":"中正路２２巷２６號","OBJECTID":657795},"geometry":{"x":180170.53717499971,"y":2578728.4010530021}},{"attributes":{"ID":657823,"DIS_CODE":0,"TOWNNAME":"新營區","LI":"大宏里","LIN":"14鄰","STREET":"中正路","SECT":" ","MAREA":" ","LANE":"２２巷","ALLEY":" ","HOUSE_NO":"２８號","E_COORD97":180179.01293200001,"N_COORD97":2578728.6127200001,"ADDRESS":"中正路２２巷２８號","OBJECTID":657796},"geometry":{"x":180179.01293200161,"y":2578728.6127199996}},{"attributes":{"ID":657824,"DIS_CODE":0,"TOWNNAME":"善化區","LI":"坐駕里","LIN":"5鄰","STREET":"光明路","SECT":" ","MAREA":" ","LANE":" ","ALLEY":" ","HOUSE_NO":"４９號","E_COORD97":177811.54091700001,"N_COORD97":2558947.1118200002,"ADDRESS":"光明路４９號","OBJECTID":657797},"geometry":{"x":177811.5409169998,"y":2558947.1118190009}},{"attributes":{"ID":657825,"DIS_CODE":0,"TOWNNAME":"善化區","LI":"坐駕里","LIN":"5鄰","STREET":"中正路","SECT":" ","MAREA":" ","LANE":"４１８巷","ALLEY":" ","HOUSE_NO":"１號","E_COORD97":177746.30215100001,"N_COORD97":2558822.4402200002,"ADDRESS":"中正路４１８巷１號","OBJECTID":657798},"geometry":{"x":177746.30215100013,"y":2558822.4402200021}},{"attributes":{"ID":657826,"DIS_CODE":0,"TOWNNAME":"新營區","LI":"大宏里","LIN":"14鄰","STREET":"民治路","SECT":" ","MAREA":" ","LANE":"２９巷","ALLEY":" ","HOUSE_NO":"５２號","E_COORD97":180183.593532,"N_COORD97":2578648.48263,"ADDRESS":"民治路２９巷５２號","OBJECTID":657799},"geometry":{"x":180183.59353200067,"y":2578648.4826250002}},{"attributes":{"ID":657827,"DIS_CODE":0,"TOWNNAME":"新營區","LI":"大宏里","LIN":"14鄰","STREET":"民治路","SECT":" ","MAREA":" ","LANE":"２９巷","ALLEY":" ","HOUSE_NO":"５０號","E_COORD97":180184.01757600001,"N_COORD97":2578655.9967899998,"ADDRESS":"民治路２９巷５０號","OBJECTID":657800},"geometry":{"x":180184.01757599972,"y":2578655.9967880026}}]}