{"displayFieldName":"TOWNNAME","fieldAliases":{"ID":"ID","DIS_CODE":"DIS_CODE","TOWNNAME":"TOWNNAME","LI":"LI","LIN":"LIN","STREET":"STREET","SECT":"SECT","MAREA":"MAREA","LANE":"LANE","ALLEY":"ALLEY","HOUSE_NO":"HOUSE_NO","E_COORD97":"E_COORD97","N_COORD97":"N_COORD97","ADDRESS":"ADDRESS","OBJECTID":"OBJECTID"},"geometryType":"esriGeometryPoint","spatialReference":{"wkid":102443,"latestWkid":3826},"fields":[{"name":"ID","type":"esriFieldTypeDouble","alias":"ID"},{"name":"DIS_CODE","type":"esriFieldTypeInteger","alias":"DIS_CODE"},{"name":"TOWNNAME","type":"esriFieldTypeString","alias":"TOWNNAME","length":8},{"name":"LI","type":"esriFieldTypeString","alias":"LI","length":8},{"name":"LIN","type":"esriFieldTypeString","alias":"LIN","length":12},{"name":"STREET","type":"esriFieldTypeString","alias":"STREET","length":20},{"name":"SECT","type":"esriFieldTypeString","alias":"SECT","length":8},{"name":"MAREA","type":"esriFieldTypeString","alias":"MAREA","length":12},{"name":"LANE","type":"esriFieldTypeString","alias":"LANE","length":10},{"name":"ALLEY","type":"esriFieldTypeString","alias":"ALLEY","length":10},{"name":"HOUSE_NO","type":"esriFieldTypeString","alias":"HOUSE_NO","length":20},{"name":"E_COORD97","type":"esriFieldTypeDouble","alias":"E_COORD97"},{"name":"N_COORD97","type":"esriFieldTypeDouble","alias":"N_COORD97"},{"name":"ADDRESS","type":"esriFieldTypeString","alias":"ADDRESS","length":50},{"name":"OBJECTID","type":"esriFieldTypeOID","alias":"OBJECTID"}],"features":[{"attributes":{"ID":508028,"DIS_CODE":0,"TOWNNAME":"關廟區","LI":"松腳里","LIN":"15鄰","STREET":"民權街","SECT":" ","MAREA":" ","LANE":" ","ALLEY":" ","HOUSE_NO":"１６號","E_COORD97":181655.84,"N_COORD97":2539722.29,"ADDRESS":"民權街１６號","OBJECTID":508001},"geometry":{"x":181655.84000000078,"y":2539722.2900000028}},{"attributes":{"ID":508029,"DIS_CODE":0,"TOWNNAME":"歸仁區","LI":"看東里","LIN":"15鄰","STREET":"成功路","SECT":"一段","MAREA":" ","LANE":" ","ALLEY":" ","HOUSE_NO":"１１０號","E_COORD97":178718.03,"N_COORD97":2540292.25,"ADDRESS":"成功路一段１１０號","OBJECTID":508002},"geometry":{"x":178718.03000000026,"y":2540292.25}},{"attributes":{"ID":508030,"DIS_CODE":0,"TOWNNAME":"歸仁區","LI":"南興里","LIN":"15鄰","STREET":"文化街","SECT":"三段","MAREA":" ","LANE":" ","ALLEY":" ","HOUSE_NO":"５３４號","E_COORD97":175779.14000000001,"N_COORD97":2541214.3300000001,"ADDRESS":"文化街三段５３４號","OBJECTID":508003},"geometry":{"x":175779.13999999966,"y":2541214.3300000001}},{"attributes":{"ID":508031,"DIS_CODE":0,"TOWNNAME":"歸仁區","LI":"看西里","LIN":"15鄰","STREET":"成功路","SECT":"一段","MAREA":" ","LANE":" ","ALLEY":" ","HOUSE_NO":"２４４號","E_COORD97":178389.51000000001,"N_COORD97":2540082.1200000001,"ADDRESS":"成功路一段２４４號","OBJECTID":508004},"geometry":{"x":178389.51000000071,"y":2540082.1200000029}},{"attributes":{"ID":508032,"DIS_CODE":0,"TOWNNAME":"歸仁區","LI":"西埔里","LIN":"15鄰","STREET":"西埔二街","SECT":" ","MAREA":" ","LANE":" ","ALLEY":" ","HOUSE_NO":"８８號","E_COORD97":176842.14000000001,"N_COORD97":2544815.25,"ADDRESS":"西埔二街８８號","OBJECTID":508005},"geometry":{"x":176842.14000000153,"y":2544815.25}},{"attributes":{"ID":508033,"DIS_CODE":0,"TOWNNAME":"歸仁區","LI":"看西里","LIN":"15鄰","STREET":"成功路","SECT":"一段","MAREA":" ","LANE":" ","ALLEY":" ","HOUSE_NO":"２４６號","E_COORD97":178386.41,"N_COORD97":2540078.1200000001,"ADDRESS":"成功路一段２４６號","OBJECTID":508006},"geometry":{"x":178386.41000000015,"y":2540078.1200000048}},{"attributes":{"ID":508034,"DIS_CODE":0,"TOWNNAME":"歸仁區","LI":"武東里","LIN":"15鄰","STREET":"高鐵十二路","SECT":" ","MAREA":" ","LANE":" ","ALLEY":" ","HOUSE_NO":"９１號","E_COORD97":175893.95999999999,"N_COORD97":2536297.21,"ADDRESS":"高鐵十二路９１號","OBJECTID":508007},"geometry":{"x":175893.95999999996,"y":2536297.2100000046}},{"attributes":{"ID":508035,"DIS_CODE":0,"TOWNNAME":"歸仁區","LI":"許厝里","LIN":"15鄰","STREET":"仁愛六街","SECT":" ","MAREA":" ","LANE":" ","ALLEY":" ","HOUSE_NO":"２９號","E_COORD97":178247.54000000001,"N_COORD97":2540767.5600000001,"ADDRESS":"仁愛六街２９號","OBJECTID":508008},"geometry":{"x":178247.54000000097,"y":2540767.5600000024}},{"attributes":{"ID":508036,"DIS_CODE":0,"TOWNNAME":"歸仁區","LI":"六甲里","LIN":"15鄰","STREET":"六甲一街","SECT":" ","MAREA":" ","LANE":" ","ALLEY":" ","HOUSE_NO":"４２號","E_COORD97":175838.17000000001,"N_COORD97":2539115.25,"ADDRESS":"六甲一街４２號","OBJECTID":508009},"geometry":{"x":175838.16999999993,"y":2539115.25}},{"attributes":{"ID":508037,"DIS_CODE":0,"TOWNNAME":"歸仁區","LI":"西埔里","LIN":"15鄰","STREET":"西埔一街","SECT":" ","MAREA":" ","LANE":" ","ALLEY":" ","HOUSE_NO":"２３５號","E_COORD97":177040.39000000001,"N_COORD97":2544814.9500000002,"ADDRESS":"西埔一街２３５號","OBJECTID":508010},"geometry":{"x":177040.38999999966,"y":2544814.9500000011}},{"attributes":{"ID":508038,"DIS_CODE":0,"TOWNNAME":"歸仁區","LI":"大廟里","LIN":"15鄰","STREET":"大廟六街","SECT":" ","MAREA":" ","LANE":" ","ALLEY":" ","HOUSE_NO":"１６３號","E_COORD97":176328.92000000001,"N_COORD97":2544416.25,"ADDRESS":"大廟六街１６３號","OBJECTID":508011},"geometry":{"x":176328.92000000086,"y":2544416.2500000019}},{"attributes":{"ID":508039,"DIS_CODE":0,"TOWNNAME":"歸仁區","LI":"歸南里","LIN":"15鄰","STREET":"民生十一街","SECT":" ","MAREA":" ","LANE":" ","ALLEY":" ","HOUSE_NO":"２７號","E_COORD97":176170.54000000001,"N_COORD97":2539731.29,"ADDRESS":"民生十一街２７號","OBJECTID":508012},"geometry":{"x":176170.54000000097,"y":2539731.2899999991}},{"attributes":{"ID":508040,"DIS_CODE":0,"TOWNNAME":"歸仁區","LI":"武東里","LIN":"15鄰","STREET":"高鐵十二路","SECT":" ","MAREA":" ","LANE":" ","ALLEY":" ","HOUSE_NO":"６９號","E_COORD97":175875.35999999999,"N_COORD97":2536252.21,"ADDRESS":"高鐵十二路６９號","OBJECTID":508013},"geometry":{"x":175875.36000000127,"y":2536252.2100000009}},{"attributes":{"ID":508041,"DIS_CODE":0,"TOWNNAME":"新營區","LI":"新北里","LIN":"15鄰","STREET":"南新街","SECT":" ","MAREA":" ","LANE":" ","ALLEY":" ","HOUSE_NO":"７號","E_COORD97":179351.26000000001,"N_COORD97":2578809.46,"ADDRESS":"南新街７號","OBJECTID":508014},"geometry":{"x":179351.25999999978,"y":2578809.4600000009}},{"attributes":{"ID":508042,"DIS_CODE":0,"TOWNNAME":"新營區","LI":"三仙里","LIN":"15鄰","STREET":"三民路","SECT":" ","MAREA":" ","LANE":" ","ALLEY":" ","HOUSE_NO":"９９號","E_COORD97":179636.95999999999,"N_COORD97":2578412.75,"ADDRESS":"三民路９９號","OBJECTID":508015},"geometry":{"x":179636.95999999996,"y":2578412.7500000019}},{"attributes":{"ID":508043,"DIS_CODE":0,"TOWNNAME":"新營區","LI":"三仙里","LIN":"15鄰","STREET":"武昌街","SECT":" ","MAREA":" ","LANE":" ","ALLEY":" ","HOUSE_NO":"５８之３號","E_COORD97":179629.88,"N_COORD97":2578323.1400000001,"ADDRESS":"武昌街５８之３號","OBJECTID":508016},"geometry":{"x":179629.88000000082,"y":2578323.1400000006}},{"attributes":{"ID":508044,"DIS_CODE":0,"TOWNNAME":"新營區","LI":"永生里","LIN":"15鄰","STREET":"康樂街","SECT":" ","MAREA":" ","LANE":" ","ALLEY":" ","HOUSE_NO":"３０號","E_COORD97":179914.82999999999,"N_COORD97":2577882.0600000001,"ADDRESS":"康樂街３０號","OBJECTID":508017},"geometry":{"x":179914.83000000194,"y":2577882.0600000024}},{"attributes":{"ID":508045,"DIS_CODE":0,"TOWNNAME":"新營區","LI":"民權里","LIN":"15鄰","STREET":"三民路","SECT":" ","MAREA":" ","LANE":" ","ALLEY":" ","HOUSE_NO":"１２０之２號","E_COORD97":179818.17999999999,"N_COORD97":2578516.0600000001,"ADDRESS":"三民路１２０之２號","OBJECTID":508018},"geometry":{"x":179818.1799999997,"y":2578516.0600000024}},{"attributes":{"ID":508046,"DIS_CODE":0,"TOWNNAME":"新營區","LI":"王公里","LIN":"15鄰","STREET":"大勇街","SECT":" ","MAREA":" ","LANE":" ","ALLEY":" ","HOUSE_NO":"１８號","E_COORD97":180229.92000000001,"N_COORD97":2579426.5800000001,"ADDRESS":"大勇街１８號","OBJECTID":508019},"geometry":{"x":180229.92000000086,"y":2579426.5800000019}},{"attributes":{"ID":508047,"DIS_CODE":0,"TOWNNAME":"歸仁區","LI":"武東里","LIN":"15鄰","STREET":"高鐵十二路","SECT":" ","MAREA":" ","LANE":" ","ALLEY":" ","HOUSE_NO":"１０１號","E_COORD97":175903.60999999999,"N_COORD97":2536317.21,"ADDRESS":"高鐵十二路１０１號","OBJECTID":508020},"geometry":{"x":175903.61000000034,"y":2536317.209999999}},{"attributes":{"ID":508048,"DIS_CODE":0,"TOWNNAME":"歸仁區","LI":"許厝里","LIN":"15鄰","STREET":"中山路","SECT":"一段","MAREA":" ","LANE":" ","ALLEY":" ","HOUSE_NO":"３８８號","E_COORD97":178207.04000000001,"N_COORD97":2540716.6499999999,"ADDRESS":"中山路一段３８８號","OBJECTID":508021},"geometry":{"x":178207.04000000097,"y":2540716.6500000004}},{"attributes":{"ID":508049,"DIS_CODE":0,"TOWNNAME":"歸仁區","LI":"六甲里","LIN":"15鄰","STREET":"六甲一街","SECT":" ","MAREA":" ","LANE":" ","ALLEY":" ","HOUSE_NO":"２８號","E_COORD97":175840.26999999999,"N_COORD97":2539144.25,"ADDRESS":"六甲一街２８號","OBJECTID":508022},"geometry":{"x":175840.26999999955,"y":2539144.2500000019}},{"attributes":{"ID":508050,"DIS_CODE":0,"TOWNNAME":"關廟區","LI":"東勢里","LIN":"15鄰","STREET":"東興路","SECT":" ","MAREA":" ","LANE":" ","ALLEY":" ","HOUSE_NO":"１７７號","E_COORD97":181624.47,"N_COORD97":2539570.25,"ADDRESS":"東興路１７７號","OBJECTID":508023},"geometry":{"x":181624.47000000067,"y":2539570.25}},{"attributes":{"ID":508051,"DIS_CODE":0,"TOWNNAME":"關廟區","LI":"松腳里","LIN":"15鄰","STREET":"民權街","SECT":" ","MAREA":" ","LANE":" ","ALLEY":" ","HOUSE_NO":"４５號","E_COORD97":181581.34,"N_COORD97":2539704.29,"ADDRESS":"民權街４５號","OBJECTID":508024},"geometry":{"x":181581.34000000078,"y":2539704.2899999991}},{"attributes":{"ID":508052,"DIS_CODE":0,"TOWNNAME":"關廟區","LI":"松腳里","LIN":"15鄰","STREET":"民權街","SECT":" ","MAREA":" ","LANE":" ","ALLEY":" ","HOUSE_NO":"２２號","E_COORD97":181646.94,"N_COORD97":2539732.29,"ADDRESS":"民權街２２號","OBJECTID":508025},"geometry":{"x":181646.94000000227,"y":2539732.2899999972}},{"attributes":{"ID":508053,"DIS_CODE":0,"TOWNNAME":"關廟區","LI":"五甲里","LIN":"15鄰","STREET":"東興二街","SECT":" ","MAREA":" ","LANE":" ","ALLEY":" ","HOUSE_NO":"９０號","E_COORD97":181326.26999999999,"N_COORD97":2539456.25,"ADDRESS":"東興二街９０號","OBJECTID":508026},"geometry":{"x":181326.26999999955,"y":2539456.2500000019}},{"attributes":{"ID":508054,"DIS_CODE":0,"TOWNNAME":"關廟區","LI":"五甲里","LIN":"15鄰","STREET":"東興二街","SECT":" ","MAREA":" ","LANE":" ","ALLEY":" ","HOUSE_NO":"１０８號","E_COORD97":181304.82000000001,"N_COORD97":2539430.25,"ADDRESS":"東興二街１０８號","OBJECTID":508027},"geometry":{"x":181304.8200000003,"y":2539430.2500000019}},{"attributes":{"ID":508055,"DIS_CODE":0,"TOWNNAME":"關廟區","LI":"松腳里","LIN":"15鄰","STREET":"民權街","SECT":" ","MAREA":" ","LANE":" ","ALLEY":" ","HOUSE_NO":"１號","E_COORD97":181656.48999999999,"N_COORD97":2539706.29,"ADDRESS":"民權街１號","OBJECTID":508028},"geometry":{"x":181656.49000000209,"y":2539706.290000001}},{"attributes":{"ID":508056,"DIS_CODE":0,"TOWNNAME":"關廟區","LI":"東勢里","LIN":"15鄰","STREET":"東興路","SECT":" ","MAREA":" ","LANE":" ","ALLEY":" ","HOUSE_NO":"１９０號","E_COORD97":181621.47,"N_COORD97":2539554.25,"ADDRESS":"東興路１９０號","OBJECTID":508029},"geometry":{"x":181621.46999999974,"y":2539554.2500000037}},{"attributes":{"ID":508057,"DIS_CODE":0,"TOWNNAME":"關廟區","LI":"松腳里","LIN":"15鄰","STREET":"民權街","SECT":" ","MAREA":" ","LANE":" ","ALLEY":" ","HOUSE_NO":"１０號","E_COORD97":181664.64000000001,"N_COORD97":2539721.29,"ADDRESS":"民權街１０號","OBJECTID":508030},"geometry":{"x":181664.63999999966,"y":2539721.2899999991}},{"attributes":{"ID":508058,"DIS_CODE":0,"TOWNNAME":"關廟區","LI":"松腳里","LIN":"15鄰","STREET":"和平路","SECT":" ","MAREA":" ","LANE":" ","ALLEY":" ","HOUSE_NO":"１７１號","E_COORD97":181685.54000000001,"N_COORD97":2539738.25,"ADDRESS":"和平路１７１號","OBJECTID":508031},"geometry":{"x":181685.54000000097,"y":2539738.2500000019}},{"attributes":{"ID":508059,"DIS_CODE":0,"TOWNNAME":"北區","LI":"賢北里","LIN":"7鄰","STREET":"賢北街","SECT":" ","MAREA":" ","LANE":" ","ALLEY":" ","HOUSE_NO":"５號","E_COORD97":166339.45000000001,"N_COORD97":2545206.5,"ADDRESS":"賢北街５號","OBJECTID":508032},"geometry":{"x":166339.45000000112,"y":2545206.5}},{"attributes":{"ID":508060,"DIS_CODE":0,"TOWNNAME":"北區","LI":"賢北里","LIN":"7鄰","STREET":"賢北街","SECT":" ","MAREA":" ","LANE":" ","ALLEY":" ","HOUSE_NO":"７號","E_COORD97":166338.12,"N_COORD97":2545212.3199999998,"ADDRESS":"賢北街７號","OBJECTID":508033},"geometry":{"x":166338.12000000104,"y":2545212.320000004}},{"attributes":{"ID":508061,"DIS_CODE":0,"TOWNNAME":"關廟區","LI":"五甲里","LIN":"15鄰","STREET":"東興二街","SECT":" ","MAREA":" ","LANE":" ","ALLEY":" ","HOUSE_NO":"８８號","E_COORD97":181324.67000000001,"N_COORD97":2539460.25,"ADDRESS":"東興二街８８號","OBJECTID":508034},"geometry":{"x":181324.67000000086,"y":2539460.2500000019}},{"attributes":{"ID":508062,"DIS_CODE":0,"TOWNNAME":"關廟區","LI":"五甲里","LIN":"15鄰","STREET":"東興二街","SECT":" ","MAREA":" ","LANE":" ","ALLEY":" ","HOUSE_NO":"９１號","E_COORD97":181345.47,"N_COORD97":2539415.25,"ADDRESS":"東興二街９１號","OBJECTID":508035},"geometry":{"x":181345.46999999974,"y":2539415.2500000037}},{"attributes":{"ID":508063,"DIS_CODE":0,"TOWNNAME":"關廟區","LI":"香洋里","LIN":"15鄰","STREET":"中央路","SECT":" ","MAREA":" ","LANE":" ","ALLEY":" ","HOUSE_NO":"１７８號","E_COORD97":181367.95999999999,"N_COORD97":2540031.3199999998,"ADDRESS":"中央路１７８號","OBJECTID":508036},"geometry":{"x":181367.95999999996,"y":2540031.3200000003}},{"attributes":{"ID":508064,"DIS_CODE":0,"TOWNNAME":"關廟區","LI":"香洋里","LIN":"15鄰","STREET":"中央路","SECT":" ","MAREA":" ","LANE":" ","ALLEY":" ","HOUSE_NO":"１８２號","E_COORD97":181338.45999999999,"N_COORD97":2540046.3199999998,"ADDRESS":"中央路１８２號","OBJECTID":508037},"geometry":{"x":181338.46000000089,"y":2540046.3200000022}},{"attributes":{"ID":508065,"DIS_CODE":0,"TOWNNAME":"關廟區","LI":"香洋里","LIN":"15鄰","STREET":"中央路","SECT":" ","MAREA":" ","LANE":" ","ALLEY":" ","HOUSE_NO":"１３２號","E_COORD97":181414.85999999999,"N_COORD97":2540016.3199999998,"ADDRESS":"中央路１３２號","OBJECTID":508038},"geometry":{"x":181414.86000000034,"y":2540016.3200000022}},{"attributes":{"ID":508066,"DIS_CODE":0,"TOWNNAME":"關廟區","LI":"松腳里","LIN":"15鄰","STREET":"和平路","SECT":" ","MAREA":" ","LANE":" ","ALLEY":" ","HOUSE_NO":"１７３號","E_COORD97":181685.54000000001,"N_COORD97":2539746.25,"ADDRESS":"和平路１７３號","OBJECTID":508039},"geometry":{"x":181685.54000000097,"y":2539746.25}},{"attributes":{"ID":508067,"DIS_CODE":0,"TOWNNAME":"北區","LI":"成德里","LIN":"15鄰","STREET":"西門路","SECT":"四段","MAREA":" ","LANE":" ","ALLEY":" ","HOUSE_NO":"２７５號","E_COORD97":168927.32000000001,"N_COORD97":2545978.9100000001,"ADDRESS":"西門路四段２７５號","OBJECTID":508040},"geometry":{"x":168927.32000000123,"y":2545978.910000002}},{"attributes":{"ID":508068,"DIS_CODE":0,"TOWNNAME":"北區","LI":"成德里","LIN":"15鄰","STREET":"西門路","SECT":"四段","MAREA":" ","LANE":" ","ALLEY":" ","HOUSE_NO":"２７７號","E_COORD97":168929.35999999999,"N_COORD97":2545983.8300000001,"ADDRESS":"西門路四段２７７號","OBJECTID":508041},"geometry":{"x":168929.36000000034,"y":2545983.8300000001}},{"attributes":{"ID":508069,"DIS_CODE":0,"TOWNNAME":"北區","LI":"成德里","LIN":"15鄰","STREET":"西門路","SECT":"四段","MAREA":" ","LANE":" ","ALLEY":" ","HOUSE_NO":"２７９號","E_COORD97":168930.79999999999,"N_COORD97":2545990.73,"ADDRESS":"西門路四段２７９號","OBJECTID":508042},"geometry":{"x":168930.79999999981,"y":2545990.7300000023}},{"attributes":{"ID":508070,"DIS_CODE":0,"TOWNNAME":"關廟區","LI":"南花里","LIN":"15鄰","STREET":"和平路","SECT":" ","MAREA":" ","LANE":" ","ALLEY":" ","HOUSE_NO":"２９１號","E_COORD97":181617.94,"N_COORD97":2540159.25,"ADDRESS":"和平路２９１號","OBJECTID":508043},"geometry":{"x":181617.94000000227,"y":2540159.25}},{"attributes":{"ID":508071,"DIS_CODE":0,"TOWNNAME":"關廟區","LI":"香洋里","LIN":"15鄰","STREET":"香洋路","SECT":" ","MAREA":" ","LANE":" ","ALLEY":" ","HOUSE_NO":"５２號","E_COORD97":181362.59,"N_COORD97":2540045.25,"ADDRESS":"香洋路５２號","OBJECTID":508044},"geometry":{"x":181362.59000000078,"y":2540045.25}},{"attributes":{"ID":508072,"DIS_CODE":0,"TOWNNAME":"關廟區","LI":"南花里","LIN":"15鄰","STREET":"和平路","SECT":" ","MAREA":" ","LANE":" ","ALLEY":" ","HOUSE_NO":"３１３號","E_COORD97":181597.64000000001,"N_COORD97":2540220.25,"ADDRESS":"和平路３１３號","OBJECTID":508045},"geometry":{"x":181597.6400000006,"y":2540220.25}},{"attributes":{"ID":508073,"DIS_CODE":0,"TOWNNAME":"關廟區","LI":"北花里","LIN":"15鄰","STREET":"中正路","SECT":" ","MAREA":" ","LANE":" ","ALLEY":" ","HOUSE_NO":"２０７號","E_COORD97":183390.85999999999,"N_COORD97":2540880.25,"ADDRESS":"中正路２０７號","OBJECTID":508046},"geometry":{"x":183390.86000000034,"y":2540880.2500000019}},{"attributes":{"ID":508074,"DIS_CODE":0,"TOWNNAME":"關廟區","LI":"香洋里","LIN":"15鄰","STREET":"香洋路","SECT":" ","MAREA":" ","LANE":" ","ALLEY":" ","HOUSE_NO":"６３號","E_COORD97":181351.89000000001,"N_COORD97":2540092.25,"ADDRESS":"香洋路６３號","OBJECTID":508047},"geometry":{"x":181351.8900000006,"y":2540092.25}},{"attributes":{"ID":508075,"DIS_CODE":0,"TOWNNAME":"關廟區","LI":"北勢里","LIN":"15鄰","STREET":"北新街","SECT":" ","MAREA":" ","LANE":" ","ALLEY":" ","HOUSE_NO":"１１１號","E_COORD97":181337.39000000001,"N_COORD97":2540574.25,"ADDRESS":"北新街１１１號","OBJECTID":508048},"geometry":{"x":181337.38999999966,"y":2540574.25}},{"attributes":{"ID":508076,"DIS_CODE":0,"TOWNNAME":"關廟區","LI":"北勢里","LIN":"15鄰","STREET":"北新街","SECT":" ","MAREA":" ","LANE":" ","ALLEY":" ","HOUSE_NO":"９５號","E_COORD97":181333.44,"N_COORD97":2540535.25,"ADDRESS":"北新街９５號","OBJECTID":508049},"geometry":{"x":181333.44000000134,"y":2540535.2500000019}},{"attributes":{"ID":508077,"DIS_CODE":0,"TOWNNAME":"關廟區","LI":"香洋里","LIN":"15鄰","STREET":"香洋路","SECT":" ","MAREA":" ","LANE":" ","ALLEY":" ","HOUSE_NO":"５８號","E_COORD97":181394.09,"N_COORD97":2540074.25,"ADDRESS":"香洋路５８號","OBJECTID":508050},"geometry":{"x":181394.08999999985,"y":2540074.2500000019}},{"attributes":{"ID":508078,"DIS_CODE":0,"TOWNNAME":"關廟區","LI":"北花里","LIN":"15鄰","STREET":"中正路","SECT":" ","MAREA":" ","LANE":" ","ALLEY":" ","HOUSE_NO":"１４９號","E_COORD97":183504.85999999999,"N_COORD97":2540904.25,"ADDRESS":"中正路１４９號","OBJECTID":508051},"geometry":{"x":183504.86000000034,"y":2540904.2500000019}},{"attributes":{"ID":508079,"DIS_CODE":0,"TOWNNAME":"關廟區","LI":"南花里","LIN":"15鄰","STREET":"花園一街","SECT":" ","MAREA":" ","LANE":" ","ALLEY":" ","HOUSE_NO":"２０８號","E_COORD97":181606.48999999999,"N_COORD97":2540153.25,"ADDRESS":"花園一街２０８號","OBJECTID":508052},"geometry":{"x":181606.49000000022,"y":2540153.25}},{"attributes":{"ID":508080,"DIS_CODE":0,"TOWNNAME":"關廟區","LI":"北花里","LIN":"15鄰","STREET":"中正路","SECT":" ","MAREA":" ","LANE":" ","ALLEY":" ","HOUSE_NO":"１５９號","E_COORD97":183482.56,"N_COORD97":2540899.25,"ADDRESS":"中正路１５９號","OBJECTID":508053},"geometry":{"x":183482.55999999959,"y":2540899.25}},{"attributes":{"ID":508081,"DIS_CODE":0,"TOWNNAME":"關廟區","LI":"北花里","LIN":"15鄰","STREET":"中正路","SECT":" ","MAREA":" ","LANE":" ","ALLEY":" ","HOUSE_NO":"１４０號","E_COORD97":183432.35999999999,"N_COORD97":2540920.25,"ADDRESS":"中正路１４０號","OBJECTID":508054},"geometry":{"x":183432.3600000022,"y":2540920.2500000037}},{"attributes":{"ID":508082,"DIS_CODE":0,"TOWNNAME":"關廟區","LI":"北花里","LIN":"15鄰","STREET":"中正路","SECT":" ","MAREA":" ","LANE":" ","ALLEY":" ","HOUSE_NO":"１７３號","E_COORD97":183458.06,"N_COORD97":2540895.25,"ADDRESS":"中正路１７３號","OBJECTID":508055},"geometry":{"x":183458.06000000052,"y":2540895.25}},{"attributes":{"ID":508083,"DIS_CODE":0,"TOWNNAME":"關廟區","LI":"北花里","LIN":"15鄰","STREET":"中正路","SECT":" ","MAREA":" ","LANE":" ","ALLEY":" ","HOUSE_NO":"１６５號","E_COORD97":183470.35999999999,"N_COORD97":2540897.25,"ADDRESS":"中正路１６５號","OBJECTID":508056},"geometry":{"x":183470.36000000127,"y":2540897.2500000019}},{"attributes":{"ID":508084,"DIS_CODE":0,"TOWNNAME":"關廟區","LI":"北花里","LIN":"15鄰","STREET":"中正路","SECT":" ","MAREA":" ","LANE":" ","ALLEY":" ","HOUSE_NO":"１４５號","E_COORD97":183511.76000000001,"N_COORD97":2540905.25,"ADDRESS":"中正路１４５號","OBJECTID":508057},"geometry":{"x":183511.75999999978,"y":2540905.25}},{"attributes":{"ID":508085,"DIS_CODE":0,"TOWNNAME":"關廟區","LI":"北勢里","LIN":"15鄰","STREET":"北新街","SECT":" ","MAREA":" ","LANE":" ","ALLEY":" ","HOUSE_NO":"９３號","E_COORD97":181332.73999999999,"N_COORD97":2540530.25,"ADDRESS":"北新街９３號","OBJECTID":508058},"geometry":{"x":181332.74000000209,"y":2540530.2499999981}},{"attributes":{"ID":508086,"DIS_CODE":0,"TOWNNAME":"關廟區","LI":"北花里","LIN":"15鄰","STREET":"中正路","SECT":" ","MAREA":" ","LANE":" ","ALLEY":" ","HOUSE_NO":"１３３號","E_COORD97":183536.35999999999,"N_COORD97":2540909.25,"ADDRESS":"中正路１３３號","OBJECTID":508059},"geometry":{"x":183536.36000000127,"y":2540909.25}},{"attributes":{"ID":508087,"DIS_CODE":0,"TOWNNAME":"關廟區","LI":"北勢里","LIN":"15鄰","STREET":"北新街","SECT":" ","MAREA":" ","LANE":" ","ALLEY":" ","HOUSE_NO":"９７號","E_COORD97":181334.23999999999,"N_COORD97":2540539.25,"ADDRESS":"北新街９７號","OBJECTID":508060},"geometry":{"x":181334.23999999929,"y":2540539.25}},{"attributes":{"ID":508088,"DIS_CODE":0,"TOWNNAME":"新營區","LI":"三仙里","LIN":"15鄰","STREET":"民權路","SECT":" ","MAREA":" ","LANE":" ","ALLEY":" ","HOUSE_NO":"６１號","E_COORD97":179662.32000000001,"N_COORD97":2578360.5800000001,"ADDRESS":"民權路６１號","OBJECTID":508061},"geometry":{"x":179662.31999999937,"y":2578360.5800000001}},{"attributes":{"ID":508089,"DIS_CODE":0,"TOWNNAME":"新營區","LI":"永生里","LIN":"15鄰","STREET":"康樂街","SECT":" ","MAREA":" ","LANE":" ","ALLEY":" ","HOUSE_NO":"２０號","E_COORD97":179938.39999999999,"N_COORD97":2577894.1400000001,"ADDRESS":"康樂街２０號","OBJECTID":508062},"geometry":{"x":179938.40000000224,"y":2577894.1400000025}},{"attributes":{"ID":508090,"DIS_CODE":0,"TOWNNAME":"新營區","LI":"大宏里","LIN":"15鄰","STREET":"大同路","SECT":" ","MAREA":" ","LANE":" ","ALLEY":" ","HOUSE_NO":"４７之１號","E_COORD97":180670.78,"N_COORD97":2578885.2400000002,"ADDRESS":"大同路４７之１號","OBJECTID":508063},"geometry":{"x":180670.78000000026,"y":2578885.2400000002}},{"attributes":{"ID":508091,"DIS_CODE":0,"TOWNNAME":"新營區","LI":"民權里","LIN":"15鄰","STREET":"三民路","SECT":" ","MAREA":" ","LANE":" ","ALLEY":" ","HOUSE_NO":"１０４之３號","E_COORD97":179881.35999999999,"N_COORD97":2578464.8100000001,"ADDRESS":"三民路１０４之３號","OBJECTID":508064},"geometry":{"x":179881.36000000127,"y":2578464.8100000005}},{"attributes":{"ID":508092,"DIS_CODE":0,"TOWNNAME":"新營區","LI":"三仙里","LIN":"15鄰","STREET":"民權路","SECT":" ","MAREA":" ","LANE":" ","ALLEY":" ","HOUSE_NO":"６３之７號","E_COORD97":179676.26999999999,"N_COORD97":2578403.7599999998,"ADDRESS":"民權路６３之７號","OBJECTID":508065},"geometry":{"x":179676.27000000048,"y":2578403.7599999998}},{"attributes":{"ID":508093,"DIS_CODE":0,"TOWNNAME":"新營區","LI":"民權里","LIN":"15鄰","STREET":"三民路","SECT":" ","MAREA":" ","LANE":" ","ALLEY":" ","HOUSE_NO":"１０４號","E_COORD97":179901.37,"N_COORD97":2578466.8700000001,"ADDRESS":"三民路１０４號","OBJECTID":508066},"geometry":{"x":179901.37000000104,"y":2578466.8700000029}},{"attributes":{"ID":508094,"DIS_CODE":0,"TOWNNAME":"新營區","LI":"大宏里","LIN":"15鄰","STREET":"大同路","SECT":" ","MAREA":" ","LANE":" ","ALLEY":" ","HOUSE_NO":"４３之１４號","E_COORD97":180697.42000000001,"N_COORD97":2578845.2599999998,"ADDRESS":"大同路４３之１４號","OBJECTID":508067},"geometry":{"x":180697.42000000086,"y":2578845.2600000016}},{"attributes":{"ID":508095,"DIS_CODE":0,"TOWNNAME":"新營區","LI":"民權里","LIN":"15鄰","STREET":"三民路","SECT":" ","MAREA":" ","LANE":" ","ALLEY":" ","HOUSE_NO":"１０８號","E_COORD97":179845.10000000001,"N_COORD97":2578462.71,"ADDRESS":"三民路１０８號","OBJECTID":508068},"geometry":{"x":179845.10000000056,"y":2578462.7100000009}},{"attributes":{"ID":508096,"DIS_CODE":0,"TOWNNAME":"南區","LI":"佛壇里","LIN":"15鄰","STREET":"興南街","SECT":" ","MAREA":" ","LANE":" ","ALLEY":" ","HOUSE_NO":"１１７號","E_COORD97":166131.37,"N_COORD97":2535835.3700000001,"ADDRESS":"興南街１１７號","OBJECTID":508069},"geometry":{"x":166131.37000000104,"y":2535835.3700000029}},{"attributes":{"ID":508097,"DIS_CODE":0,"TOWNNAME":"南區","LI":"佛壇里","LIN":"15鄰","STREET":"興南街","SECT":" ","MAREA":" ","LANE":" ","ALLEY":" ","HOUSE_NO":"１１９號","E_COORD97":166126.76999999999,"N_COORD97":2535834.0899999999,"ADDRESS":"興南街１１９號","OBJECTID":508070},"geometry":{"x":166126.76999999955,"y":2535834.0899999999}},{"attributes":{"ID":508098,"DIS_CODE":0,"TOWNNAME":"南區","LI":"佛壇里","LIN":"15鄰","STREET":"興南街","SECT":" ","MAREA":" ","LANE":" ","ALLEY":" ","HOUSE_NO":"１２１號","E_COORD97":166122.73000000001,"N_COORD97":2535832.7999999998,"ADDRESS":"興南街１２１號","OBJECTID":508071},"geometry":{"x":166122.73000000138,"y":2535832.8000000026}},{"attributes":{"ID":508099,"DIS_CODE":0,"TOWNNAME":"歸仁區","LI":"武東里","LIN":"15鄰","STREET":"中正南路","SECT":"二段","MAREA":" ","LANE":" ","ALLEY":" ","HOUSE_NO":"７５號","E_COORD97":175835.16,"N_COORD97":2536289.5,"ADDRESS":"中正南路二段７５號","OBJECTID":508072},"geometry":{"x":175835.16000000015,"y":2536289.5}},{"attributes":{"ID":508100,"DIS_CODE":0,"TOWNNAME":"歸仁區","LI":"大廟里","LIN":"15鄰","STREET":"大廟五街","SECT":" ","MAREA":" ","LANE":" ","ALLEY":" ","HOUSE_NO":"１００號","E_COORD97":176045.63,"N_COORD97":2544388.0899999999,"ADDRESS":"大廟五街１００號","OBJECTID":508073},"geometry":{"x":176045.62999999989,"y":2544388.0899999999}},{"attributes":{"ID":508101,"DIS_CODE":0,"TOWNNAME":"歸仁區","LI":"大廟里","LIN":"15鄰","STREET":"大廟五街","SECT":" ","MAREA":" ","LANE":" ","ALLEY":" ","HOUSE_NO":"１８０號","E_COORD97":176201.07000000001,"N_COORD97":2544614.8700000001,"ADDRESS":"大廟五街１８０號","OBJECTID":508074},"geometry":{"x":176201.07000000123,"y":2544614.870000001}},{"attributes":{"ID":508102,"DIS_CODE":0,"TOWNNAME":"歸仁區","LI":"看東里","LIN":"15鄰","STREET":"中山一街","SECT":" ","MAREA":" ","LANE":" ","ALLEY":" ","HOUSE_NO":"３１號","E_COORD97":178629.38,"N_COORD97":2540546.3700000001,"ADDRESS":"中山一街３１號","OBJECTID":508075},"geometry":{"x":178629.38000000082,"y":2540546.370000001}},{"attributes":{"ID":508103,"DIS_CODE":0,"TOWNNAME":"安平區","LI":"怡平里","LIN":"15鄰","STREET":"建平十一街","SECT":" ","MAREA":" ","LANE":" ","ALLEY":" ","HOUSE_NO":"２３２之１號","E_COORD97":165789.25,"N_COORD97":2543978.3799999999,"ADDRESS":"建平十一街２３２之１號","OBJECTID":508076},"geometry":{"x":165789.25000000186,"y":2543978.379999999}},{"attributes":{"ID":508104,"DIS_CODE":0,"TOWNNAME":"安平區","LI":"建平里","LIN":"15鄰","STREET":"建平十二街","SECT":" ","MAREA":" ","LANE":" ","ALLEY":" ","HOUSE_NO":"１０６號","E_COORD97":166090.82999999999,"N_COORD97":2543987.3100000001,"ADDRESS":"建平十二街１０６號","OBJECTID":508077},"geometry":{"x":166090.83000000101,"y":2543987.3100000005}},{"attributes":{"ID":508105,"DIS_CODE":0,"TOWNNAME":"安南區","LI":"新順里","LIN":"15鄰","STREET":"安豐四街","SECT":" ","MAREA":" ","LANE":" ","ALLEY":" ","HOUSE_NO":"１０號","E_COORD97":169427.13,"N_COORD97":2549749.9300000002,"ADDRESS":"安豐四街１０號","OBJECTID":508078},"geometry":{"x":169427.12999999989,"y":2549749.9299999997}},{"attributes":{"ID":508106,"DIS_CODE":0,"TOWNNAME":"安平區","LI":"建平里","LIN":"15鄰","STREET":"建平十二街","SECT":" ","MAREA":" ","LANE":" ","ALLEY":" ","HOUSE_NO":"１０８號","E_COORD97":166085.91,"N_COORD97":2543987.7799999998,"ADDRESS":"建平十二街１０８號","OBJECTID":508079},"geometry":{"x":166085.91000000015,"y":2543987.7800000031}},{"attributes":{"ID":508107,"DIS_CODE":0,"TOWNNAME":"安平區","LI":"億載里","LIN":"15鄰","STREET":"光州路","SECT":" ","MAREA":" ","LANE":" ","ALLEY":" ","HOUSE_NO":"５８號","E_COORD97":163975.76999999999,"N_COORD97":2543125.9399999999,"ADDRESS":"光州路５８號","OBJECTID":508080},"geometry":{"x":163975.76999999955,"y":2543125.9400000013}},{"attributes":{"ID":508108,"DIS_CODE":0,"TOWNNAME":"安平區","LI":"億載里","LIN":"15鄰","STREET":"光州四街","SECT":" ","MAREA":" ","LANE":" ","ALLEY":" ","HOUSE_NO":"５８號","E_COORD97":164089.26000000001,"N_COORD97":2543189.1600000001,"ADDRESS":"光州四街５８號","OBJECTID":508081},"geometry":{"x":164089.26000000071,"y":2543189.1600000039}},{"attributes":{"ID":508109,"DIS_CODE":0,"TOWNNAME":"安平區","LI":"億載里","LIN":"15鄰","STREET":"光州四街","SECT":" ","MAREA":" ","LANE":" ","ALLEY":" ","HOUSE_NO":"６０號","E_COORD97":164094.01999999999,"N_COORD97":2543189.7999999998,"ADDRESS":"光州四街６０號","OBJECTID":508082},"geometry":{"x":164094.02000000048,"y":2543189.8000000026}},{"attributes":{"ID":508110,"DIS_CODE":0,"TOWNNAME":"安平區","LI":"怡平里","LIN":"15鄰","STREET":"建平十一街","SECT":" ","MAREA":" ","LANE":" ","ALLEY":" ","HOUSE_NO":"２３６號","E_COORD97":165784.48999999999,"N_COORD97":2543978.8599999999,"ADDRESS":"建平十一街２３６號","OBJECTID":508083},"geometry":{"x":165784.49000000209,"y":2543978.8599999994}},{"attributes":{"ID":508111,"DIS_CODE":0,"TOWNNAME":"安平區","LI":"怡平里","LIN":"15鄰","STREET":"建平十一街","SECT":" ","MAREA":" ","LANE":" ","ALLEY":" ","HOUSE_NO":"２３８號","E_COORD97":165780.51999999999,"N_COORD97":2543979.8100000001,"ADDRESS":"建平十一街２３８號","OBJECTID":508084},"geometry":{"x":165780.52000000048,"y":2543979.8100000024}},{"attributes":{"ID":508112,"DIS_CODE":0,"TOWNNAME":"安平區","LI":"怡平里","LIN":"15鄰","STREET":"建平十一街","SECT":" ","MAREA":" ","LANE":" ","ALLEY":" ","HOUSE_NO":"２３８之１號","E_COORD97":165775.28,"N_COORD97":2543980.29,"ADDRESS":"建平十一街２３８之１號","OBJECTID":508085},"geometry":{"x":165775.28000000026,"y":2543980.2899999991}},{"attributes":{"ID":508113,"DIS_CODE":0,"TOWNNAME":"安平區","LI":"怡平里","LIN":"15鄰","STREET":"建平十一街","SECT":" ","MAREA":" ","LANE":" ","ALLEY":" ","HOUSE_NO":"２４０號","E_COORD97":165771.31,"N_COORD97":2543980.7599999998,"ADDRESS":"建平十一街２４０號","OBJECTID":508086},"geometry":{"x":165771.30999999866,"y":2543980.7599999998}},{"attributes":{"ID":508114,"DIS_CODE":0,"TOWNNAME":"安平區","LI":"怡平里","LIN":"15鄰","STREET":"建平十一街","SECT":" ","MAREA":" ","LANE":" ","ALLEY":" ","HOUSE_NO":"２４０之１號","E_COORD97":165766.87,"N_COORD97":2543981.2400000002,"ADDRESS":"建平十一街２４０之１號","OBJECTID":508087},"geometry":{"x":165766.87000000104,"y":2543981.2400000002}},{"attributes":{"ID":508115,"DIS_CODE":0,"TOWNNAME":"安平區","LI":"怡平里","LIN":"15鄰","STREET":"建平十一街","SECT":" ","MAREA":" ","LANE":" ","ALLEY":" ","HOUSE_NO":"２４２號","E_COORD97":165762.57999999999,"N_COORD97":2543981.7200000002,"ADDRESS":"建平十一街２４２號","OBJECTID":508088},"geometry":{"x":165762.58000000007,"y":2543981.7200000007}},{"attributes":{"ID":508116,"DIS_CODE":0,"TOWNNAME":"安平區","LI":"怡平里","LIN":"15鄰","STREET":"建平十一街","SECT":" ","MAREA":" ","LANE":" ","ALLEY":" ","HOUSE_NO":"２４６號","E_COORD97":165757.82000000001,"N_COORD97":2543981.7200000002,"ADDRESS":"建平十一街２４６號","OBJECTID":508089},"geometry":{"x":165757.8200000003,"y":2543981.7200000007}},{"attributes":{"ID":508117,"DIS_CODE":0,"TOWNNAME":"安平區","LI":"怡平里","LIN":"15鄰","STREET":"建平十一街","SECT":" ","MAREA":" ","LANE":" ","ALLEY":" ","HOUSE_NO":"２４８號","E_COORD97":165753.04999999999,"N_COORD97":2543982.3500000001,"ADDRESS":"建平十一街２４８號","OBJECTID":508090},"geometry":{"x":165753.05000000168,"y":2543982.3500000015}},{"attributes":{"ID":508118,"DIS_CODE":0,"TOWNNAME":"安平區","LI":"怡平里","LIN":"15鄰","STREET":"建平十一街","SECT":" ","MAREA":" ","LANE":" ","ALLEY":" ","HOUSE_NO":"２４８之１號","E_COORD97":165748.60999999999,"N_COORD97":2543982.6699999999,"ADDRESS":"建平十一街２４８之１號","OBJECTID":508091},"geometry":{"x":165748.61000000127,"y":2543982.6700000018}},{"attributes":{"ID":508119,"DIS_CODE":0,"TOWNNAME":"安平區","LI":"怡平里","LIN":"15鄰","STREET":"建平十一街","SECT":" ","MAREA":" ","LANE":" ","ALLEY":" ","HOUSE_NO":"２５０號","E_COORD97":165743.69,"N_COORD97":2543982.9900000002,"ADDRESS":"建平十一街２５０號","OBJECTID":508092},"geometry":{"x":165743.69000000041,"y":2543982.9900000002}},{"attributes":{"ID":508120,"DIS_CODE":0,"TOWNNAME":"安平區","LI":"怡平里","LIN":"15鄰","STREET":"建平十一街","SECT":" ","MAREA":" ","LANE":" ","ALLEY":" ","HOUSE_NO":"２５０之１號","E_COORD97":165738.60999999999,"N_COORD97":2543983.9399999999,"ADDRESS":"建平十一街２５０之１號","OBJECTID":508093},"geometry":{"x":165738.61000000127,"y":2543983.9400000013}},{"attributes":{"ID":508121,"DIS_CODE":0,"TOWNNAME":"安平區","LI":"文平里","LIN":"15鄰","STREET":"建平五街","SECT":" ","MAREA":" ","LANE":" ","ALLEY":" ","HOUSE_NO":"５６號","E_COORD97":165976.28,"N_COORD97":2543148.02,"ADDRESS":"建平五街５６號","OBJECTID":508094},"geometry":{"x":165976.28000000119,"y":2543148.0199999996}},{"attributes":{"ID":508122,"DIS_CODE":0,"TOWNNAME":"安平區","LI":"文平里","LIN":"15鄰","STREET":"建平五街","SECT":" ","MAREA":" ","LANE":" ","ALLEY":" ","HOUSE_NO":"７２號","E_COORD97":165930.07999999999,"N_COORD97":2543149.29,"ADDRESS":"建平五街７２號","OBJECTID":508095},"geometry":{"x":165930.08000000101,"y":2543149.2899999991}},{"attributes":{"ID":508123,"DIS_CODE":0,"TOWNNAME":"安平區","LI":"文平里","LIN":"15鄰","STREET":"建平路","SECT":" ","MAREA":" ","LANE":" ","ALLEY":" ","HOUSE_NO":"１５１號","E_COORD97":166114.23000000001,"N_COORD97":2543006.3999999999,"ADDRESS":"建平路１５１號","OBJECTID":508096},"geometry":{"x":166114.23000000138,"y":2543006.4000000022}},{"attributes":{"ID":508124,"DIS_CODE":0,"TOWNNAME":"安平區","LI":"文平里","LIN":"15鄰","STREET":"建平五街","SECT":" ","MAREA":" ","LANE":" ","ALLEY":" ","HOUSE_NO":"７０號","E_COORD97":165936.91,"N_COORD97":2543149.77,"ADDRESS":"建平五街７０號","OBJECTID":508097},"geometry":{"x":165936.91000000015,"y":2543149.7699999996}},{"attributes":{"ID":508125,"DIS_CODE":0,"TOWNNAME":"安平區","LI":"文平里","LIN":"15鄰","STREET":"建平五街","SECT":" ","MAREA":" ","LANE":" ","ALLEY":" ","HOUSE_NO":"６８號","E_COORD97":165944.20999999999,"N_COORD97":2543150.3999999999,"ADDRESS":"建平五街６８號","OBJECTID":508098},"geometry":{"x":165944.21000000089,"y":2543150.3999999985}},{"attributes":{"ID":508126,"DIS_CODE":0,"TOWNNAME":"安平區","LI":"國平里","LIN":"15鄰","STREET":"華平路","SECT":" ","MAREA":" ","LANE":" ","ALLEY":" ","HOUSE_NO":"４１號","E_COORD97":165320.25,"N_COORD97":2542839.3999999999,"ADDRESS":"華平路４１號","OBJECTID":508099},"geometry":{"x":165320.25000000093,"y":2542839.4000000022}},{"attributes":{"ID":508127,"DIS_CODE":0,"TOWNNAME":"安平區","LI":"國平里","LIN":"15鄰","STREET":"華平路","SECT":" ","MAREA":" ","LANE":" ","ALLEY":" ","HOUSE_NO":"３９號","E_COORD97":165319.29999999999,"N_COORD97":2542833.8399999999,"ADDRESS":"華平路３９號","OBJECTID":508100},"geometry":{"x":165319.30000000075,"y":2542833.8399999999}},{"attributes":{"ID":508128,"DIS_CODE":0,"TOWNNAME":"安平區","LI":"億載里","LIN":"15鄰","STREET":"光州三街","SECT":" ","MAREA":" ","LANE":" ","ALLEY":" ","HOUSE_NO":"４１號","E_COORD97":164117.92000000001,"N_COORD97":2543158.3300000001,"ADDRESS":"光州三街４１號","OBJECTID":508101},"geometry":{"x":164117.91999999993,"y":2543158.3300000019}},{"attributes":{"ID":508129,"DIS_CODE":0,"TOWNNAME":"安平區","LI":"億載里","LIN":"15鄰","STREET":"光州三街","SECT":" ","MAREA":" ","LANE":" ","ALLEY":" ","HOUSE_NO":"３９號","E_COORD97":164112.67999999999,"N_COORD97":2543160.3999999999,"ADDRESS":"光州三街３９號","OBJECTID":508102},"geometry":{"x":164112.67999999877,"y":2543160.4000000004}},{"attributes":{"ID":508130,"DIS_CODE":0,"TOWNNAME":"安平區","LI":"億載里","LIN":"15鄰","STREET":"光州三街","SECT":" ","MAREA":" ","LANE":" ","ALLEY":" ","HOUSE_NO":"３７號","E_COORD97":164107.60000000001,"N_COORD97":2543160.2400000002,"ADDRESS":"光州三街３７號","OBJECTID":508103},"geometry":{"x":164107.59999999963,"y":2543160.2400000002}},{"attributes":{"ID":508131,"DIS_CODE":0,"TOWNNAME":"安平區","LI":"億載里","LIN":"15鄰","STREET":"光州三街","SECT":" ","MAREA":" ","LANE":" ","ALLEY":" ","HOUSE_NO":"３５號","E_COORD97":164103.31,"N_COORD97":2543159.4500000002,"ADDRESS":"光州三街３５號","OBJECTID":508104},"geometry":{"x":164103.31000000145,"y":2543159.450000003}},{"attributes":{"ID":508132,"DIS_CODE":0,"TOWNNAME":"安平區","LI":"億載里","LIN":"15鄰","STREET":"光州三街","SECT":" ","MAREA":" ","LANE":" ","ALLEY":" ","HOUSE_NO":"３３號","E_COORD97":164098.54999999999,"N_COORD97":2543158.8100000001,"ADDRESS":"光州三街３３號","OBJECTID":508105},"geometry":{"x":164098.55000000168,"y":2543158.8100000024}},{"attributes":{"ID":508133,"DIS_CODE":0,"TOWNNAME":"安平區","LI":"億載里","LIN":"15鄰","STREET":"光州四街","SECT":" ","MAREA":" ","LANE":" ","ALLEY":" ","HOUSE_NO":"５０號","E_COORD97":164056.82000000001,"N_COORD97":2543192.3599999999,"ADDRESS":"光州四街５０號","OBJECTID":508106},"geometry":{"x":164056.82000000123,"y":2543192.3599999994}},{"attributes":{"ID":508134,"DIS_CODE":0,"TOWNNAME":"安平區","LI":"億載里","LIN":"15鄰","STREET":"光州四街","SECT":" ","MAREA":" ","LANE":" ","ALLEY":" ","HOUSE_NO":"４６號","E_COORD97":164052.78,"N_COORD97":2543192.7400000002,"ADDRESS":"光州四街４６號","OBJECTID":508107},"geometry":{"x":164052.78000000026,"y":2543192.7400000021}},{"attributes":{"ID":508135,"DIS_CODE":0,"TOWNNAME":"安平區","LI":"億載里","LIN":"15鄰","STREET":"光州四街","SECT":" ","MAREA":" ","LANE":" ","ALLEY":" ","HOUSE_NO":"４２號","E_COORD97":164048.47,"N_COORD97":2543192.3599999999,"ADDRESS":"光州四街４２號","OBJECTID":508108},"geometry":{"x":164048.47000000067,"y":2543192.3599999994}},{"attributes":{"ID":508136,"DIS_CODE":0,"TOWNNAME":"安平區","LI":"億載里","LIN":"15鄰","STREET":"光州四街","SECT":" ","MAREA":" ","LANE":" ","ALLEY":" ","HOUSE_NO":"４０號","E_COORD97":164041.79000000001,"N_COORD97":2543190.75,"ADDRESS":"光州四街４０號","OBJECTID":508109},"geometry":{"x":164041.79000000097,"y":2543190.75}},{"attributes":{"ID":508137,"DIS_CODE":0,"TOWNNAME":"安平區","LI":"億載里","LIN":"15鄰","STREET":"光州四街","SECT":" ","MAREA":" ","LANE":" ","ALLEY":" ","HOUSE_NO":"１７號","E_COORD97":164006.23000000001,"N_COORD97":2543202.8599999999,"ADDRESS":"光州四街１７號","OBJECTID":508110},"geometry":{"x":164006.23000000045,"y":2543202.8599999994}},{"attributes":{"ID":508138,"DIS_CODE":0,"TOWNNAME":"安平區","LI":"金城里","LIN":"15鄰","STREET":"州平三街","SECT":" ","MAREA":" ","LANE":" ","ALLEY":" ","HOUSE_NO":"１５之３號","E_COORD97":162703.98000000001,"N_COORD97":2544388.3700000001,"ADDRESS":"州平三街１５之３號","OBJECTID":508111},"geometry":{"x":162703.98000000045,"y":2544388.370000001}},{"attributes":{"ID":508139,"DIS_CODE":0,"TOWNNAME":"安平區","LI":"金城里","LIN":"15鄰","STREET":"州平三街","SECT":" ","MAREA":" ","LANE":" ","ALLEY":" ","HOUSE_NO":"１３之２號","E_COORD97":162717.47,"N_COORD97":2544383.4500000002,"ADDRESS":"州平三街１３之２號","OBJECTID":508112},"geometry":{"x":162717.4700000016,"y":2544383.450000003}},{"attributes":{"ID":508140,"DIS_CODE":0,"TOWNNAME":"安平區","LI":"金城里","LIN":"15鄰","STREET":"州平三街","SECT":" ","MAREA":" ","LANE":" ","ALLEY":" ","HOUSE_NO":"１３之３號","E_COORD97":162708.26000000001,"N_COORD97":2544378.5299999998,"ADDRESS":"州平三街１３之３號","OBJECTID":508113},"geometry":{"x":162708.25999999978,"y":2544378.5299999993}},{"attributes":{"ID":508141,"DIS_CODE":0,"TOWNNAME":"安平區","LI":"金城里","LIN":"15鄰","STREET":"州平三街","SECT":" ","MAREA":" ","LANE":" ","ALLEY":" ","HOUSE_NO":"１７號","E_COORD97":162730.01000000001,"N_COORD97":2544419.6400000001,"ADDRESS":"州平三街１７號","OBJECTID":508114},"geometry":{"x":162730.00999999978,"y":2544419.6400000006}},{"attributes":{"ID":508142,"DIS_CODE":0,"TOWNNAME":"安平區","LI":"金城里","LIN":"15鄰","STREET":"州平三街","SECT":" ","MAREA":" ","LANE":" ","ALLEY":" ","HOUSE_NO":"１７之２號","E_COORD97":162706.20000000001,"N_COORD97":2544407.2599999998,"ADDRESS":"州平三街１７之２號","OBJECTID":508115},"geometry":{"x":162706.20000000205,"y":2544407.2599999998}},{"attributes":{"ID":508143,"DIS_CODE":0,"TOWNNAME":"安平區","LI":"金城里","LIN":"15鄰","STREET":"州平三街","SECT":" ","MAREA":" ","LANE":" ","ALLEY":" ","HOUSE_NO":"１７之５號","E_COORD97":162685.07999999999,"N_COORD97":2544397.2599999998,"ADDRESS":"州平三街１７之５號","OBJECTID":508116},"geometry":{"x":162685.08000000101,"y":2544397.2599999998}},{"attributes":{"ID":508144,"DIS_CODE":0,"TOWNNAME":"安平區","LI":"國平里","LIN":"15鄰","STREET":"華平路","SECT":" ","MAREA":" ","LANE":" ","ALLEY":" ","HOUSE_NO":"４９號","E_COORD97":165323.75,"N_COORD97":2542861.9399999999,"ADDRESS":"華平路４９號","OBJECTID":508117},"geometry":{"x":165323.75000000093,"y":2542861.9400000013}},{"attributes":{"ID":508145,"DIS_CODE":0,"TOWNNAME":"安平區","LI":"金城里","LIN":"15鄰","STREET":"州平二街","SECT":" ","MAREA":" ","LANE":" ","ALLEY":" ","HOUSE_NO":"１０號","E_COORD97":163028.17000000001,"N_COORD97":2544131.96,"ADDRESS":"州平二街１０號","OBJECTID":508118},"geometry":{"x":163028.17000000179,"y":2544131.9600000028}},{"attributes":{"ID":508146,"DIS_CODE":0,"TOWNNAME":"安平區","LI":"金城里","LIN":"15鄰","STREET":"州平二街","SECT":" ","MAREA":" ","LANE":" ","ALLEY":" ","HOUSE_NO":"８號","E_COORD97":163030.70999999999,"N_COORD97":2544122.75,"ADDRESS":"州平二街８號","OBJECTID":508119},"geometry":{"x":163030.70999999996,"y":2544122.75}},{"attributes":{"ID":508147,"DIS_CODE":0,"TOWNNAME":"安平區","LI":"文平里","LIN":"15鄰","STREET":"建平路","SECT":" ","MAREA":" ","LANE":" ","ALLEY":" ","HOUSE_NO":"２７１號","E_COORD97":166144.31,"N_COORD97":2543233.2599999998,"ADDRESS":"建平路２７１號","OBJECTID":508120},"geometry":{"x":166144.31000000145,"y":2543233.2600000016}},{"attributes":{"ID":508148,"DIS_CODE":0,"TOWNNAME":"安平區","LI":"億載里","LIN":"15鄰","STREET":"府平路","SECT":" ","MAREA":" ","LANE":" ","ALLEY":" ","HOUSE_NO":"５６０號","E_COORD97":164055.132216,"N_COORD97":2543096.4096300001,"ADDRESS":"府平路５６０號","OBJECTID":508121},"geometry":{"x":164055.132216,"y":2543096.409630999}},{"attributes":{"ID":508149,"DIS_CODE":0,"TOWNNAME":"安平區","LI":"金城里","LIN":"15鄰","STREET":"州平二街","SECT":" ","MAREA":" ","LANE":" ","ALLEY":" ","HOUSE_NO":"１８６號","E_COORD97":162882.67000000001,"N_COORD97":2544481.0299999998,"ADDRESS":"州平二街１８６號","OBJECTID":508122},"geometry":{"x":162882.67000000086,"y":2544481.0300000031}},{"attributes":{"ID":508150,"DIS_CODE":0,"TOWNNAME":"安平區","LI":"金城里","LIN":"15鄰","STREET":"州平二街","SECT":" ","MAREA":" ","LANE":" ","ALLEY":" ","HOUSE_NO":"１８８號","E_COORD97":162877.79999999999,"N_COORD97":2544489.9199999999,"ADDRESS":"州平二街１８８號","OBJECTID":508123},"geometry":{"x":162877.79999999981,"y":2544489.9200000018}},{"attributes":{"ID":508151,"DIS_CODE":0,"TOWNNAME":"南區","LI":"文華里","LIN":"15鄰","STREET":"美南街","SECT":" ","MAREA":" ","LANE":" ","ALLEY":" ","HOUSE_NO":"１００號","E_COORD97":166784.56,"N_COORD97":2543000.1499999999,"ADDRESS":"美南街１００號","OBJECTID":508124},"geometry":{"x":166784.55999999959,"y":2543000.1500000022}},{"attributes":{"ID":508152,"DIS_CODE":0,"TOWNNAME":"南區","LI":"文華里","LIN":"15鄰","STREET":"美南街","SECT":" ","MAREA":" ","LANE":" ","ALLEY":" ","HOUSE_NO":"１０２號","E_COORD97":166781.13,"N_COORD97":2542997.3700000001,"ADDRESS":"美南街１０２號","OBJECTID":508125},"geometry":{"x":166781.12999999989,"y":2542997.370000001}},{"attributes":{"ID":508153,"DIS_CODE":0,"TOWNNAME":"南區","LI":"文華里","LIN":"15鄰","STREET":"美南街","SECT":" ","MAREA":" ","LANE":" ","ALLEY":" ","HOUSE_NO":"１０４號","E_COORD97":166777.39000000001,"N_COORD97":2542994.3700000001,"ADDRESS":"美南街１０４號","OBJECTID":508126},"geometry":{"x":166777.38999999966,"y":2542994.370000001}},{"attributes":{"ID":508154,"DIS_CODE":0,"TOWNNAME":"南區","LI":"文華里","LIN":"15鄰","STREET":"美南街","SECT":" ","MAREA":" ","LANE":" ","ALLEY":" ","HOUSE_NO":"１０６號","E_COORD97":166774.28,"N_COORD97":2542991.9100000001,"ADDRESS":"美南街１０６號","OBJECTID":508127},"geometry":{"x":166774.28000000212,"y":2542991.910000002}},{"attributes":{"ID":508155,"DIS_CODE":0,"TOWNNAME":"南區","LI":"文華里","LIN":"15鄰","STREET":"美南街","SECT":" ","MAREA":" ","LANE":" ","ALLEY":" ","HOUSE_NO":"１０８號","E_COORD97":166770.32000000001,"N_COORD97":2542989.1299999999,"ADDRESS":"美南街１０８號","OBJECTID":508128},"geometry":{"x":166770.3200000003,"y":2542989.1300000008}},{"attributes":{"ID":508156,"DIS_CODE":0,"TOWNNAME":"南區","LI":"文華里","LIN":"15鄰","STREET":"美南街","SECT":" ","MAREA":" ","LANE":" ","ALLEY":" ","HOUSE_NO":"１１０號","E_COORD97":166767.10999999999,"N_COORD97":2542985.6000000001,"ADDRESS":"美南街１１０號","OBJECTID":508129},"geometry":{"x":166767.11000000127,"y":2542985.6000000034}},{"attributes":{"ID":508157,"DIS_CODE":0,"TOWNNAME":"南區","LI":"文華里","LIN":"15鄰","STREET":"美南街","SECT":" ","MAREA":" ","LANE":" ","ALLEY":" ","HOUSE_NO":"１１２號","E_COORD97":166763.89000000001,"N_COORD97":2542983,"ADDRESS":"美南街１１２號","OBJECTID":508130},"geometry":{"x":166763.88999999966,"y":2542983}},{"attributes":{"ID":508158,"DIS_CODE":0,"TOWNNAME":"南區","LI":"文華里","LIN":"15鄰","STREET":"美南街","SECT":" ","MAREA":" ","LANE":" ","ALLEY":" ","HOUSE_NO":"１１４號","E_COORD97":166760.67999999999,"N_COORD97":2542980.0099999998,"ADDRESS":"美南街１１４號","OBJECTID":508131},"geometry":{"x":166760.68000000156,"y":2542980.0100000016}},{"attributes":{"ID":508159,"DIS_CODE":0,"TOWNNAME":"南區","LI":"文華里","LIN":"15鄰","STREET":"美南街","SECT":" ","MAREA":" ","LANE":" ","ALLEY":" ","HOUSE_NO":"１１６號","E_COORD97":166757.04000000001,"N_COORD97":2542977.6600000001,"ADDRESS":"美南街１１６號","OBJECTID":508132},"geometry":{"x":166757.0400000019,"y":2542977.6600000001}},{"attributes":{"ID":508160,"DIS_CODE":0,"TOWNNAME":"南區","LI":"文華里","LIN":"15鄰","STREET":"美南街","SECT":" ","MAREA":" ","LANE":" ","ALLEY":" ","HOUSE_NO":"１１８號","E_COORD97":166752.85999999999,"N_COORD97":2542974.8700000001,"ADDRESS":"美南街１１８號","OBJECTID":508133},"geometry":{"x":166752.86000000034,"y":2542974.870000001}},{"attributes":{"ID":508161,"DIS_CODE":0,"TOWNNAME":"南區","LI":"文華里","LIN":"15鄰","STREET":"美南街","SECT":" ","MAREA":" ","LANE":" ","ALLEY":" ","HOUSE_NO":"１２０號","E_COORD97":166749.54000000001,"N_COORD97":2542971.6600000001,"ADDRESS":"美南街１２０號","OBJECTID":508134},"geometry":{"x":166749.54000000004,"y":2542971.6600000001}},{"attributes":{"ID":508162,"DIS_CODE":0,"TOWNNAME":"南區","LI":"文華里","LIN":"15鄰","STREET":"美南街","SECT":" ","MAREA":" ","LANE":" ","ALLEY":" ","HOUSE_NO":"１２２號","E_COORD97":166746.01000000001,"N_COORD97":2542968.3500000001,"ADDRESS":"美南街１２２號","OBJECTID":508135},"geometry":{"x":166746.00999999978,"y":2542968.3500000015}},{"attributes":{"ID":508163,"DIS_CODE":0,"TOWNNAME":"南區","LI":"文華里","LIN":"15鄰","STREET":"美南街","SECT":" ","MAREA":" ","LANE":" ","ALLEY":" ","HOUSE_NO":"１２４號","E_COORD97":166742.69,"N_COORD97":2542965.6699999999,"ADDRESS":"美南街１２４號","OBJECTID":508136},"geometry":{"x":166742.69000000227,"y":2542965.6700000018}},{"attributes":{"ID":508164,"DIS_CODE":0,"TOWNNAME":"南區","LI":"文華里","LIN":"15鄰","STREET":"美南街","SECT":" ","MAREA":" ","LANE":" ","ALLEY":" ","HOUSE_NO":"１２４號之１","E_COORD97":166738.62,"N_COORD97":2542963.8599999999,"ADDRESS":"美南街１２４號之１","OBJECTID":508137},"geometry":{"x":166738.62000000104,"y":2542963.8600000013}},{"attributes":{"ID":508165,"DIS_CODE":0,"TOWNNAME":"南區","LI":"文華里","LIN":"15鄰","STREET":"美南街","SECT":" ","MAREA":" ","LANE":" ","ALLEY":" ","HOUSE_NO":"９６號","E_COORD97":166791.84,"N_COORD97":2543005.8199999998,"ADDRESS":"美南街９６號","OBJECTID":508138},"geometry":{"x":166791.83999999892,"y":2543005.8200000022}},{"attributes":{"ID":508166,"DIS_CODE":0,"TOWNNAME":"南區","LI":"文華里","LIN":"15鄰","STREET":"美南街","SECT":" ","MAREA":" ","LANE":" ","ALLEY":" ","HOUSE_NO":"９８號","E_COORD97":166787.98999999999,"N_COORD97":2543002.5,"ADDRESS":"美南街９８號","OBJECTID":508139},"geometry":{"x":166787.99000000209,"y":2543002.5}},{"attributes":{"ID":508167,"DIS_CODE":0,"TOWNNAME":"南區","LI":"文華里","LIN":"15鄰","STREET":"敬南街","SECT":" ","MAREA":" ","LANE":" ","ALLEY":" ","HOUSE_NO":"１０號","E_COORD97":166797.41,"N_COORD97":2543019.1099999999,"ADDRESS":"敬南街１０號","OBJECTID":508140},"geometry":{"x":166797.41000000108,"y":2543019.1099999975}},{"attributes":{"ID":508168,"DIS_CODE":0,"TOWNNAME":"南區","LI":"文華里","LIN":"15鄰","STREET":"敬南街","SECT":" ","MAREA":" ","LANE":" ","ALLEY":" ","HOUSE_NO":"１２號","E_COORD97":166799.98000000001,"N_COORD97":2543015.3700000001,"ADDRESS":"敬南街１２號","OBJECTID":508141},"geometry":{"x":166799.98000000045,"y":2543015.370000001}},{"attributes":{"ID":508169,"DIS_CODE":0,"TOWNNAME":"南區","LI":"文華里","LIN":"15鄰","STREET":"敬南街","SECT":" ","MAREA":" ","LANE":" ","ALLEY":" ","HOUSE_NO":"２號","E_COORD97":166781.35000000001,"N_COORD97":2543038.9100000001,"ADDRESS":"敬南街２號","OBJECTID":508142},"geometry":{"x":166781.34999999963,"y":2543038.910000002}},{"attributes":{"ID":508170,"DIS_CODE":0,"TOWNNAME":"南區","LI":"文華里","LIN":"15鄰","STREET":"敬南街","SECT":" ","MAREA":" ","LANE":" ","ALLEY":" ","HOUSE_NO":"４號","E_COORD97":166783.81,"N_COORD97":2543035.48,"ADDRESS":"敬南街４號","OBJECTID":508143},"geometry":{"x":166783.81000000052,"y":2543035.4800000023}},{"attributes":{"ID":508171,"DIS_CODE":0,"TOWNNAME":"南區","LI":"文華里","LIN":"15鄰","STREET":"敬南街","SECT":" ","MAREA":" ","LANE":" ","ALLEY":" ","HOUSE_NO":"６號","E_COORD97":166789.06,"N_COORD97":2543030.0299999998,"ADDRESS":"敬南街６號","OBJECTID":508144},"geometry":{"x":166789.06000000052,"y":2543030.0300000031}},{"attributes":{"ID":508172,"DIS_CODE":0,"TOWNNAME":"南區","LI":"文華里","LIN":"15鄰","STREET":"敬南街","SECT":" ","MAREA":" ","LANE":" ","ALLEY":" ","HOUSE_NO":"８號","E_COORD97":166793.23000000001,"N_COORD97":2543025.1099999999,"ADDRESS":"敬南街８號","OBJECTID":508145},"geometry":{"x":166793.22999999952,"y":2543025.1099999994}},{"attributes":{"ID":508173,"DIS_CODE":0,"TOWNNAME":"南區","LI":"文華里","LIN":"15鄰","STREET":"德南街","SECT":" ","MAREA":" ","LANE":" ","ALLEY":" ","HOUSE_NO":"１０１號","E_COORD97":166727.57000000001,"N_COORD97":2542998.5,"ADDRESS":"德南街１０１號","OBJECTID":508146},"geometry":{"x":166727.5700000003,"y":2542998.5000000019}},{"attributes":{"ID":508174,"DIS_CODE":0,"TOWNNAME":"鹽水區","LI":"水秀里","LIN":"15鄰","STREET":"朝琴路","SECT":" ","MAREA":" ","LANE":" ","ALLEY":" ","HOUSE_NO":"１３６號之４","E_COORD97":175528.17999999999,"N_COORD97":2580214.4399999999,"ADDRESS":"朝琴路１３６號之４","OBJECTID":508147},"geometry":{"x":175528.18000000156,"y":2580214.4400000013}},{"attributes":{"ID":508175,"DIS_CODE":0,"TOWNNAME":"鹽水區","LI":"水秀里","LIN":"15鄰","STREET":"朝琴路","SECT":" ","MAREA":" ","LANE":" ","ALLEY":" ","HOUSE_NO":"１３６之５號","E_COORD97":175533.47,"N_COORD97":2580214.0899999999,"ADDRESS":"朝琴路１３６之５號","OBJECTID":508148},"geometry":{"x":175533.47000000067,"y":2580214.0899999999}},{"attributes":{"ID":508176,"DIS_CODE":0,"TOWNNAME":"鹽水區","LI":"水秀里","LIN":"15鄰","STREET":"朝琴路","SECT":" ","MAREA":" ","LANE":" ","ALLEY":" ","HOUSE_NO":"１３６號之６","E_COORD97":175538.54999999999,"N_COORD97":2580213.5299999998,"ADDRESS":"朝琴路１３６號之６","OBJECTID":508149},"geometry":{"x":175538.54999999981,"y":2580213.5300000012}},{"attributes":{"ID":508177,"DIS_CODE":0,"TOWNNAME":"鹽水區","LI":"岸內里","LIN":"15鄰","STREET":"蔦松路","SECT":" ","MAREA":" ","LANE":" ","ALLEY":" ","HOUSE_NO":"５７號","E_COORD97":175532.72,"N_COORD97":2580493.52,"ADDRESS":"蔦松路５７號","OBJECTID":508150},"geometry":{"x":175532.71999999974,"y":2580493.5199999996}},{"attributes":{"ID":508178,"DIS_CODE":0,"TOWNNAME":"鹽水區","LI":"岸內里","LIN":"15鄰","STREET":"蔦松路","SECT":" ","MAREA":" ","LANE":" ","ALLEY":" ","HOUSE_NO":"５號","E_COORD97":175551.60000000001,"N_COORD97":2580356.9399999999,"ADDRESS":"蔦松路５號","OBJECTID":508151},"geometry":{"x":175551.59999999963,"y":2580356.9400000013}},{"attributes":{"ID":508179,"DIS_CODE":0,"TOWNNAME":"鹽水區","LI":"岸內里","LIN":"15鄰","STREET":"蔦松路","SECT":" ","MAREA":" ","LANE":" ","ALLEY":" ","HOUSE_NO":"４９號","E_COORD97":175546.78,"N_COORD97":2580464.2799999998,"ADDRESS":"蔦松路４９號","OBJECTID":508152},"geometry":{"x":175546.78000000212,"y":2580464.2799999993}},{"attributes":{"ID":508180,"DIS_CODE":0,"TOWNNAME":"鹽水區","LI":"岸內里","LIN":"15鄰","STREET":"蔦松路","SECT":" ","MAREA":" ","LANE":" ","ALLEY":" ","HOUSE_NO":"１３號","E_COORD97":175550.39999999999,"N_COORD97":2580381.6200000001,"ADDRESS":"蔦松路１３號","OBJECTID":508153},"geometry":{"x":175550.40000000037,"y":2580381.620000001}},{"attributes":{"ID":508181,"DIS_CODE":0,"TOWNNAME":"鹽水區","LI":"岸內里","LIN":"15鄰","STREET":"蔦松路","SECT":" ","MAREA":" ","LANE":" ","ALLEY":" ","HOUSE_NO":"１５號","E_COORD97":175550.22,"N_COORD97":2580386.02,"ADDRESS":"蔦松路１５號","OBJECTID":508154},"geometry":{"x":175550.22000000067,"y":2580386.0200000014}},{"attributes":{"ID":508182,"DIS_CODE":0,"TOWNNAME":"鹽水區","LI":"岸內里","LIN":"15鄰","STREET":"蔦松路","SECT":" ","MAREA":" ","LANE":" ","ALLEY":" ","HOUSE_NO":"１７號","E_COORD97":175550.04000000001,"N_COORD97":2580390.4199999999,"ADDRESS":"蔦松路１７號","OBJECTID":508155},"geometry":{"x":175550.04000000097,"y":2580390.4200000018}},{"attributes":{"ID":508183,"DIS_CODE":0,"TOWNNAME":"鹽水區","LI":"岸內里","LIN":"15鄰","STREET":"蔦松路","SECT":" ","MAREA":" ","LANE":" ","ALLEY":" ","HOUSE_NO":"１９號","E_COORD97":175549.85999999999,"N_COORD97":2580394.8300000001,"ADDRESS":"蔦松路１９號","OBJECTID":508156},"geometry":{"x":175549.86000000127,"y":2580394.8300000019}},{"attributes":{"ID":508184,"DIS_CODE":0,"TOWNNAME":"鹽水區","LI":"岸內里","LIN":"15鄰","STREET":"蔦松路","SECT":" ","MAREA":" ","LANE":" ","ALLEY":" ","HOUSE_NO":"２１號","E_COORD97":175549.69,"N_COORD97":2580399.23,"ADDRESS":"蔦松路２１號","OBJECTID":508157},"geometry":{"x":175549.69000000134,"y":2580399.2300000023}},{"attributes":{"ID":508185,"DIS_CODE":0,"TOWNNAME":"鹽水區","LI":"岸內里","LIN":"15鄰","STREET":"蔦松路","SECT":" ","MAREA":" ","LANE":" ","ALLEY":" ","HOUSE_NO":"２３號","E_COORD97":175549.51000000001,"N_COORD97":2580403.6299999999,"ADDRESS":"蔦松路２３號","OBJECTID":508158},"geometry":{"x":175549.50999999978,"y":2580403.629999999}},{"attributes":{"ID":508186,"DIS_CODE":0,"TOWNNAME":"鹽水區","LI":"岸內里","LIN":"15鄰","STREET":"蔦松路","SECT":" ","MAREA":" ","LANE":" ","ALLEY":" ","HOUSE_NO":"２５號","E_COORD97":175549.32999999999,"N_COORD97":2580408.04,"ADDRESS":"蔦松路２５號","OBJECTID":508159},"geometry":{"x":175549.33000000007,"y":2580408.0399999991}},{"attributes":{"ID":508187,"DIS_CODE":0,"TOWNNAME":"安平區","LI":"怡平里","LIN":"15鄰","STREET":"建平十一街","SECT":" ","MAREA":" ","LANE":" ","ALLEY":" ","HOUSE_NO":"２３９號","E_COORD97":165765.07999999999,"N_COORD97":2543960.6699999999,"ADDRESS":"建平十一街２３９號","OBJECTID":508160},"geometry":{"x":165765.08000000194,"y":2543960.6699999999}},{"attributes":{"ID":508188,"DIS_CODE":0,"TOWNNAME":"安平區","LI":"怡平里","LIN":"15鄰","STREET":"建平十一街","SECT":" ","MAREA":" ","LANE":" ","ALLEY":" ","HOUSE_NO":"２４１號","E_COORD97":165760.70000000001,"N_COORD97":2543961.8300000001,"ADDRESS":"建平十一街２４１號","OBJECTID":508161},"geometry":{"x":165760.70000000019,"y":2543961.8300000019}},{"attributes":{"ID":508189,"DIS_CODE":0,"TOWNNAME":"鹽水區","LI":"岸內里","LIN":"14鄰","STREET":"蔦松路","SECT":" ","MAREA":" ","LANE":" ","ALLEY":" ","HOUSE_NO":"１０號","E_COORD97":175586.64000000001,"N_COORD97":2580358.6899999999,"ADDRESS":"蔦松路１０號","OBJECTID":508162},"geometry":{"x":175586.6400000006,"y":2580358.6900000013}},{"attributes":{"ID":508190,"DIS_CODE":0,"TOWNNAME":"安平區","LI":"怡平里","LIN":"15鄰","STREET":"建平十一街","SECT":" ","MAREA":" ","LANE":" ","ALLEY":" ","HOUSE_NO":"２４３號","E_COORD97":165756.32000000001,"N_COORD97":2543961.54,"ADDRESS":"建平十一街２４３號","OBJECTID":508163},"geometry":{"x":165756.3200000003,"y":2543961.5399999991}},{"attributes":{"ID":508191,"DIS_CODE":0,"TOWNNAME":"安平區","LI":"怡平里","LIN":"15鄰","STREET":"建平十一街","SECT":" ","MAREA":" ","LANE":" ","ALLEY":" ","HOUSE_NO":"２４５號","E_COORD97":165751.35000000001,"N_COORD97":2543961.8300000001,"ADDRESS":"建平十一街２４５號","OBJECTID":508164},"geometry":{"x":165751.35000000056,"y":2543961.8300000019}},{"attributes":{"ID":508192,"DIS_CODE":0,"TOWNNAME":"安平區","LI":"怡平里","LIN":"15鄰","STREET":"建平十一街","SECT":" ","MAREA":" ","LANE":" ","ALLEY":" ","HOUSE_NO":"２４７號","E_COORD97":165746.38,"N_COORD97":2543962.4199999999,"ADDRESS":"建平十一街２４７號","OBJECTID":508165},"geometry":{"x":165746.38000000082,"y":2543962.4199999999}},{"attributes":{"ID":508193,"DIS_CODE":0,"TOWNNAME":"安平區","LI":"怡平里","LIN":"15鄰","STREET":"建平十一街","SECT":" ","MAREA":" ","LANE":" ","ALLEY":" ","HOUSE_NO":"２４９號","E_COORD97":165742.57999999999,"N_COORD97":2543963.29,"ADDRESS":"建平十一街２４９號","OBJECTID":508166},"geometry":{"x":165742.58000000007,"y":2543963.2899999991}},{"attributes":{"ID":508194,"DIS_CODE":0,"TOWNNAME":"安平區","LI":"怡平里","LIN":"15鄰","STREET":"建平十一街","SECT":" ","MAREA":" ","LANE":" ","ALLEY":" ","HOUSE_NO":"２５５號","E_COORD97":165728.85000000001,"N_COORD97":2543965.04,"ADDRESS":"建平十一街２５５號","OBJECTID":508167},"geometry":{"x":165728.85000000149,"y":2543965.0399999991}},{"attributes":{"ID":508195,"DIS_CODE":0,"TOWNNAME":"安平區","LI":"怡平里","LIN":"15鄰","STREET":"建平十一街","SECT":" ","MAREA":" ","LANE":" ","ALLEY":" ","HOUSE_NO":"２５７號","E_COORD97":165724.76000000001,"N_COORD97":2543965.3300000001,"ADDRESS":"建平十一街２５７號","OBJECTID":508168},"geometry":{"x":165724.76000000071,"y":2543965.3300000019}},{"attributes":{"ID":508196,"DIS_CODE":0,"TOWNNAME":"安平區","LI":"怡平里","LIN":"15鄰","STREET":"建平十一街","SECT":" ","MAREA":" ","LANE":" ","ALLEY":" ","HOUSE_NO":"２５９號","E_COORD97":165720.38,"N_COORD97":2543965.9199999999,"ADDRESS":"建平十一街２５９號","OBJECTID":508169},"geometry":{"x":165720.38000000175,"y":2543965.9199999999}},{"attributes":{"ID":508197,"DIS_CODE":0,"TOWNNAME":"安平區","LI":"怡平里","LIN":"15鄰","STREET":"建平十一街","SECT":" ","MAREA":" ","LANE":" ","ALLEY":" ","HOUSE_NO":"２６９號","E_COORD97":165698.45999999999,"N_COORD97":2543968.54,"ADDRESS":"建平十一街２６９號","OBJECTID":508170},"geometry":{"x":165698.46000000089,"y":2543968.5399999972}},{"attributes":{"ID":508198,"DIS_CODE":0,"TOWNNAME":"安平區","LI":"怡平里","LIN":"15鄰","STREET":"建平十一街","SECT":" ","MAREA":" ","LANE":" ","ALLEY":" ","HOUSE_NO":"２７１號","E_COORD97":165694.07999999999,"N_COORD97":2543969.4199999999,"ADDRESS":"建平十一街２７１號","OBJECTID":508171},"geometry":{"x":165694.08000000101,"y":2543969.4199999999}},{"attributes":{"ID":508199,"DIS_CODE":0,"TOWNNAME":"安平區","LI":"怡平里","LIN":"15鄰","STREET":"建平十一街","SECT":" ","MAREA":" ","LANE":" ","ALLEY":" ","HOUSE_NO":"２７３號","E_COORD97":165689.41,"N_COORD97":2543969.4199999999,"ADDRESS":"建平十一街２７３號","OBJECTID":508172},"geometry":{"x":165689.41000000015,"y":2543969.4199999999}},{"attributes":{"ID":508200,"DIS_CODE":0,"TOWNNAME":"安平區","LI":"怡平里","LIN":"15鄰","STREET":"建平十一街","SECT":" ","MAREA":" ","LANE":" ","ALLEY":" ","HOUSE_NO":"２７７號","E_COORD97":165680.64000000001,"N_COORD97":2543971.1699999999,"ADDRESS":"建平十一街２７７號","OBJECTID":508173},"geometry":{"x":165680.63999999966,"y":2543971.1699999999}},{"attributes":{"ID":508201,"DIS_CODE":0,"TOWNNAME":"安平區","LI":"怡平里","LIN":"15鄰","STREET":"建平十一街","SECT":" ","MAREA":" ","LANE":" ","ALLEY":" ","HOUSE_NO":"２７９號","E_COORD97":165676.54999999999,"N_COORD97":2543972.0499999998,"ADDRESS":"建平十一街２７９號","OBJECTID":508174},"geometry":{"x":165676.54999999981,"y":2543972.0500000026}},{"attributes":{"ID":508202,"DIS_CODE":0,"TOWNNAME":"安平區","LI":"怡平里","LIN":"15鄰","STREET":"建平十一街","SECT":" ","MAREA":" ","LANE":" ","ALLEY":" ","HOUSE_NO":"２８１號","E_COORD97":165671.88,"N_COORD97":2543972.3399999999,"ADDRESS":"建平十一街２８１號","OBJECTID":508175},"geometry":{"x":165671.88000000082,"y":2543972.3400000017}},{"attributes":{"ID":508203,"DIS_CODE":0,"TOWNNAME":"安平區","LI":"怡平里","LIN":"15鄰","STREET":"建平十一街","SECT":" ","MAREA":" ","LANE":" ","ALLEY":" ","HOUSE_NO":"２８３號","E_COORD97":165667.48999999999,"N_COORD97":2543973.21,"ADDRESS":"建平十一街２８３號","OBJECTID":508176},"geometry":{"x":165667.49000000209,"y":2543973.2100000028}},{"attributes":{"ID":508204,"DIS_CODE":0,"TOWNNAME":"安平區","LI":"建平里","LIN":"15鄰","STREET":"建平十二街","SECT":" ","MAREA":" ","LANE":" ","ALLEY":" ","HOUSE_NO":"１００號","E_COORD97":166118.73000000001,"N_COORD97":2543985.73,"ADDRESS":"建平十二街１００號","OBJECTID":508177},"geometry":{"x":166118.73000000231,"y":2543985.7300000042}},{"attributes":{"ID":508205,"DIS_CODE":0,"TOWNNAME":"安平區","LI":"建平里","LIN":"15鄰","STREET":"建平十二街","SECT":" ","MAREA":" ","LANE":" ","ALLEY":" ","HOUSE_NO":"１０２號","E_COORD97":166114.95000000001,"N_COORD97":2543987.1000000001,"ADDRESS":"建平十二街１０２號","OBJECTID":508178},"geometry":{"x":166114.95000000019,"y":2543987.1000000015}},{"attributes":{"ID":508206,"DIS_CODE":0,"TOWNNAME":"安平區","LI":"建平里","LIN":"15鄰","STREET":"建平十二街","SECT":" ","MAREA":" ","LANE":" ","ALLEY":" ","HOUSE_NO":"１０４號","E_COORD97":166110.53,"N_COORD97":2543988.3599999999,"ADDRESS":"建平十二街１０４號","OBJECTID":508179},"geometry":{"x":166110.53000000026,"y":2543988.3600000013}},{"attributes":{"ID":508207,"DIS_CODE":0,"TOWNNAME":"安平區","LI":"建平里","LIN":"15鄰","STREET":"建平十二街","SECT":" ","MAREA":" ","LANE":" ","ALLEY":" ","HOUSE_NO":"１１０號","E_COORD97":166078.10000000001,"N_COORD97":2543990.6699999999,"ADDRESS":"建平十二街１１０號","OBJECTID":508180},"geometry":{"x":166078.10000000149,"y":2543990.6700000018}},{"attributes":{"ID":508208,"DIS_CODE":0,"TOWNNAME":"安平區","LI":"建平里","LIN":"15鄰","STREET":"建平十二街","SECT":" ","MAREA":" ","LANE":" ","ALLEY":" ","HOUSE_NO":"１１２號","E_COORD97":166071.89999999999,"N_COORD97":2543992.8799999999,"ADDRESS":"建平十二街１１２號","OBJECTID":508181},"geometry":{"x":166071.9000000013,"y":2543992.879999999}},{"attributes":{"ID":508209,"DIS_CODE":0,"TOWNNAME":"安平區","LI":"建平里","LIN":"15鄰","STREET":"建平十二街","SECT":" ","MAREA":" ","LANE":" ","ALLEY":" ","HOUSE_NO":"１１４號","E_COORD97":166067.06,"N_COORD97":2543993.1899999999,"ADDRESS":"建平十二街１１４號","OBJECTID":508182},"geometry":{"x":166067.06000000052,"y":2543993.1900000013}},{"attributes":{"ID":508210,"DIS_CODE":0,"TOWNNAME":"安平區","LI":"建平里","LIN":"15鄰","STREET":"建平十二街","SECT":" ","MAREA":" ","LANE":" ","ALLEY":" ","HOUSE_NO":"１１６號","E_COORD97":166062.32999999999,"N_COORD97":2543993.5099999998,"ADDRESS":"建平十二街１１６號","OBJECTID":508183},"geometry":{"x":166062.33000000101,"y":2543993.5100000035}},{"attributes":{"ID":508211,"DIS_CODE":0,"TOWNNAME":"南區","LI":"大忠里","LIN":"15鄰","STREET":"公英六街","SECT":" ","MAREA":" ","LANE":" ","ALLEY":" ","HOUSE_NO":"３號","E_COORD97":169425.04999999999,"N_COORD97":2541091.7400000002,"ADDRESS":"公英六街３號","OBJECTID":508184},"geometry":{"x":169425.05000000075,"y":2541091.7400000021}},{"attributes":{"ID":508212,"DIS_CODE":0,"TOWNNAME":"安平區","LI":"建平里","LIN":"15鄰","STREET":"建平十二街","SECT":" ","MAREA":" ","LANE":" ","ALLEY":" ","HOUSE_NO":"１１８號","E_COORD97":166058.01999999999,"N_COORD97":2543994.2400000002,"ADDRESS":"建平十二街１１８號","OBJECTID":508185},"geometry":{"x":166058.01999999862,"y":2543994.2400000002}},{"attributes":{"ID":508213,"DIS_CODE":0,"TOWNNAME":"安平區","LI":"建平里","LIN":"15鄰","STREET":"建平十二街","SECT":" ","MAREA":" ","LANE":" ","ALLEY":" ","HOUSE_NO":"６４號","E_COORD97":166246.95999999999,"N_COORD97":2543971.0499999998,"ADDRESS":"建平十二街６４號","OBJECTID":508186},"geometry":{"x":166246.95999999996,"y":2543971.0500000026}},{"attributes":{"ID":508214,"DIS_CODE":0,"TOWNNAME":"安平區","LI":"建平里","LIN":"15鄰","STREET":"建平十二街","SECT":" ","MAREA":" ","LANE":" ","ALLEY":" ","HOUSE_NO":"６６號","E_COORD97":166242.76999999999,"N_COORD97":2543971.1699999999,"ADDRESS":"建平十二街６６號","OBJECTID":508187},"geometry":{"x":166242.76999999862,"y":2543971.1699999999}},{"attributes":{"ID":508215,"DIS_CODE":0,"TOWNNAME":"安平區","LI":"建平里","LIN":"15鄰","STREET":"建平十二街","SECT":" ","MAREA":" ","LANE":" ","ALLEY":" ","HOUSE_NO":"６８號","E_COORD97":166238.10999999999,"N_COORD97":2543971.6400000001,"ADDRESS":"建平十二街６８號","OBJECTID":508188},"geometry":{"x":166238.1100000022,"y":2543971.6400000006}},{"attributes":{"ID":508216,"DIS_CODE":0,"TOWNNAME":"安平區","LI":"建平里","LIN":"15鄰","STREET":"建平十二街","SECT":" ","MAREA":" ","LANE":" ","ALLEY":" ","HOUSE_NO":"７０號","E_COORD97":166233.92999999999,"N_COORD97":2543971.8799999999,"ADDRESS":"建平十二街７０號","OBJECTID":508189},"geometry":{"x":166233.93000000063,"y":2543971.879999999}},{"attributes":{"ID":508217,"DIS_CODE":0,"TOWNNAME":"南區","LI":"大忠里","LIN":"15鄰","STREET":"公英六街","SECT":" ","MAREA":" ","LANE":" ","ALLEY":" ","HOUSE_NO":"８號","E_COORD97":169414.13,"N_COORD97":2541107.4199999999,"ADDRESS":"公英六街８號","OBJECTID":508190},"geometry":{"x":169414.13000000175,"y":2541107.4199999999}},{"attributes":{"ID":508218,"DIS_CODE":0,"TOWNNAME":"南區","LI":"大忠里","LIN":"15鄰","STREET":"公英六街","SECT":" ","MAREA":" ","LANE":" ","ALLEY":" ","HOUSE_NO":"１０號","E_COORD97":169410.31,"N_COORD97":2541106.75,"ADDRESS":"公英六街１０號","OBJECTID":508191},"geometry":{"x":169410.30999999959,"y":2541106.7500000037}},{"attributes":{"ID":508219,"DIS_CODE":0,"TOWNNAME":"南區","LI":"大忠里","LIN":"15鄰","STREET":"公英六街","SECT":" ","MAREA":" ","LANE":" ","ALLEY":" ","HOUSE_NO":"１１號","E_COORD97":169408.98000000001,"N_COORD97":2541089.2599999998,"ADDRESS":"公英六街１１號","OBJECTID":508192},"geometry":{"x":169408.98000000231,"y":2541089.2599999998}},{"attributes":{"ID":508220,"DIS_CODE":0,"TOWNNAME":"南區","LI":"大忠里","LIN":"15鄰","STREET":"公英六街","SECT":" ","MAREA":" ","LANE":" ","ALLEY":" ","HOUSE_NO":"１２號","E_COORD97":169406.26999999999,"N_COORD97":2541106.0699999998,"ADDRESS":"公英六街１２號","OBJECTID":508193},"geometry":{"x":169406.27000000048,"y":2541106.0700000022}},{"attributes":{"ID":508221,"DIS_CODE":0,"TOWNNAME":"南區","LI":"大忠里","LIN":"15鄰","STREET":"公英六街","SECT":" ","MAREA":" ","LANE":" ","ALLEY":" ","HOUSE_NO":"１３號","E_COORD97":169405.16,"N_COORD97":2541088.1200000001,"ADDRESS":"公英六街１３號","OBJECTID":508194},"geometry":{"x":169405.16000000015,"y":2541088.120000001}},{"attributes":{"ID":508222,"DIS_CODE":0,"TOWNNAME":"新營區","LI":"中營里","LIN":"15鄰","STREET":"東山三路","SECT":" ","MAREA":" ","LANE":" ","ALLEY":" ","HOUSE_NO":"１５７之１號","E_COORD97":181580.70000000001,"N_COORD97":2579209.9300000002,"ADDRESS":"東山三路１５７之１號","OBJECTID":508195},"geometry":{"x":181580.70000000112,"y":2579209.9300000034}},{"attributes":{"ID":508223,"DIS_CODE":0,"TOWNNAME":"新營區","LI":"中營里","LIN":"15鄰","STREET":"東山三路","SECT":" ","MAREA":" ","LANE":" ","ALLEY":" ","HOUSE_NO":"１７１號","E_COORD97":181618.07999999999,"N_COORD97":2579206.3700000001,"ADDRESS":"東山三路１７１號","OBJECTID":508196},"geometry":{"x":181618.08000000007,"y":2579206.3700000029}},{"attributes":{"ID":508224,"DIS_CODE":0,"TOWNNAME":"新營區","LI":"中營里","LIN":"15鄰","STREET":"東山三路","SECT":" ","MAREA":" ","LANE":" ","ALLEY":" ","HOUSE_NO":"１８１號","E_COORD97":181594.70000000001,"N_COORD97":2579239.71,"ADDRESS":"東山三路１８１號","OBJECTID":508197},"geometry":{"x":181594.70000000112,"y":2579239.7100000046}},{"attributes":{"ID":508225,"DIS_CODE":0,"TOWNNAME":"新營區","LI":"中營里","LIN":"15鄰","STREET":"東山三路","SECT":" ","MAREA":" ","LANE":" ","ALLEY":" ","HOUSE_NO":"１５６號","E_COORD97":181589.66,"N_COORD97":2579256.3399999999,"ADDRESS":"東山三路１５６號","OBJECTID":508198},"geometry":{"x":181589.66000000108,"y":2579256.3399999999}},{"attributes":{"ID":508226,"DIS_CODE":0,"TOWNNAME":"新營區","LI":"中營里","LIN":"15鄰","STREET":"東山三路","SECT":" ","MAREA":" ","LANE":" ","ALLEY":" ","HOUSE_NO":"１５８號","E_COORD97":181578.35999999999,"N_COORD97":2579245.3199999998,"ADDRESS":"東山三路１５８號","OBJECTID":508199},"geometry":{"x":181578.36000000127,"y":2579245.3200000022}},{"attributes":{"ID":508227,"DIS_CODE":0,"TOWNNAME":"新營區","LI":"中營里","LIN":"15鄰","STREET":"東山三路","SECT":" ","MAREA":" ","LANE":" ","ALLEY":" ","HOUSE_NO":"１７６號","E_COORD97":181667.20999999999,"N_COORD97":2579213.8999999999,"ADDRESS":"東山三路１７６號","OBJECTID":508200},"geometry":{"x":181667.21000000089,"y":2579213.8999999985}}]}