{"displayFieldName":"TOWNNAME","fieldAliases":{"ID":"ID","DIS_CODE":"DIS_CODE","TOWNNAME":"TOWNNAME","LI":"LI","LIN":"LIN","STREET":"STREET","SECT":"SECT","MAREA":"MAREA","LANE":"LANE","ALLEY":"ALLEY","HOUSE_NO":"HOUSE_NO","E_COORD97":"E_COORD97","N_COORD97":"N_COORD97","ADDRESS":"ADDRESS","OBJECTID":"OBJECTID"},"geometryType":"esriGeometryPoint","spatialReference":{"wkid":102443,"latestWkid":3826},"fields":[{"name":"ID","type":"esriFieldTypeDouble","alias":"ID"},{"name":"DIS_CODE","type":"esriFieldTypeInteger","alias":"DIS_CODE"},{"name":"TOWNNAME","type":"esriFieldTypeString","alias":"TOWNNAME","length":8},{"name":"LI","type":"esriFieldTypeString","alias":"LI","length":8},{"name":"LIN","type":"esriFieldTypeString","alias":"LIN","length":12},{"name":"STREET","type":"esriFieldTypeString","alias":"STREET","length":20},{"name":"SECT","type":"esriFieldTypeString","alias":"SECT","length":8},{"name":"MAREA","type":"esriFieldTypeString","alias":"MAREA","length":12},{"name":"LANE","type":"esriFieldTypeString","alias":"LANE","length":10},{"name":"ALLEY","type":"esriFieldTypeString","alias":"ALLEY","length":10},{"name":"HOUSE_NO","type":"esriFieldTypeString","alias":"HOUSE_NO","length":20},{"name":"E_COORD97","type":"esriFieldTypeDouble","alias":"E_COORD97"},{"name":"N_COORD97","type":"esriFieldTypeDouble","alias":"N_COORD97"},{"name":"ADDRESS","type":"esriFieldTypeString","alias":"ADDRESS","length":50},{"name":"OBJECTID","type":"esriFieldTypeOID","alias":"OBJECTID"}],"features":[{"attributes":{"ID":536028,"DIS_CODE":0,"TOWNNAME":"東區","LI":"泉南里","LIN":" ","STREET":"光華街","SECT":" ","MAREA":" ","LANE":" ","ALLEY":" ","HOUSE_NO":"１４１號","E_COORD97":169713.79000000001,"N_COORD97":2542921.48,"ADDRESS":"光華街１４１號","OBJECTID":536001},"geometry":{"x":169713.79000000097,"y":2542921.4800000004}},{"attributes":{"ID":536029,"DIS_CODE":0,"TOWNNAME":"東區","LI":"崇善里","LIN":"4鄰","STREET":"崇善路","SECT":" ","MAREA":" ","LANE":" ","ALLEY":" ","HOUSE_NO":"４０３號","E_COORD97":170893.69,"N_COORD97":2541923.0699999998,"ADDRESS":"崇善路４０３號","OBJECTID":536002},"geometry":{"x":170893.69000000041,"y":2541923.0700000022}},{"attributes":{"ID":536030,"DIS_CODE":0,"TOWNNAME":"東區","LI":"崇善里","LIN":"4鄰","STREET":"崇善二街","SECT":" ","MAREA":" ","LANE":" ","ALLEY":" ","HOUSE_NO":"１５號","E_COORD97":170905.62,"N_COORD97":2542053.5800000001,"ADDRESS":"崇善二街１５號","OBJECTID":536003},"geometry":{"x":170905.62000000011,"y":2542053.5800000001}},{"attributes":{"ID":536031,"DIS_CODE":0,"TOWNNAME":"東區","LI":"崇善里","LIN":"7鄰","STREET":"崇善七街","SECT":" ","MAREA":" ","LANE":" ","ALLEY":" ","HOUSE_NO":"３７號","E_COORD97":171138.66,"N_COORD97":2541512.29,"ADDRESS":"崇善七街３７號","OBJECTID":536004},"geometry":{"x":171138.66000000108,"y":2541512.2899999972}},{"attributes":{"ID":536032,"DIS_CODE":0,"TOWNNAME":"東區","LI":"崇善里","LIN":"1鄰","STREET":"中華東路","SECT":"三段","MAREA":" ","LANE":" ","ALLEY":" ","HOUSE_NO":"１２５號","E_COORD97":170773.01000000001,"N_COORD97":2542098.27,"ADDRESS":"中華東路三段１２５號","OBJECTID":536005},"geometry":{"x":170773.01000000071,"y":2542098.2699999996}},{"attributes":{"ID":536033,"DIS_CODE":0,"TOWNNAME":"東區","LI":"崇善里","LIN":"1鄰","STREET":"中華東路","SECT":"三段","MAREA":" ","LANE":" ","ALLEY":" ","HOUSE_NO":"１１９號","E_COORD97":170783.54999999999,"N_COORD97":2542111.7599999998,"ADDRESS":"中華東路三段１１９號","OBJECTID":536006},"geometry":{"x":170783.54999999981,"y":2542111.7600000016}},{"attributes":{"ID":536034,"DIS_CODE":0,"TOWNNAME":"東區","LI":"崇善里","LIN":"1鄰","STREET":"中華東路","SECT":"三段","MAREA":" ","LANE":" ","ALLEY":" ","HOUSE_NO":"６５號","E_COORD97":170900.13,"N_COORD97":2542237.3799999999,"ADDRESS":"中華東路三段６５號","OBJECTID":536007},"geometry":{"x":170900.12999999989,"y":2542237.3800000027}},{"attributes":{"ID":536035,"DIS_CODE":0,"TOWNNAME":"佳里區","LI":"忠仁里","LIN":"19鄰","STREET":"忠仁街","SECT":" ","MAREA":" ","LANE":" ","ALLEY":" ","HOUSE_NO":"５６號","E_COORD97":166057.34,"N_COORD97":2562063.3599999999,"ADDRESS":"忠仁街５６號","OBJECTID":536008},"geometry":{"x":166057.33999999985,"y":2562063.3599999994}},{"attributes":{"ID":536036,"DIS_CODE":0,"TOWNNAME":"佳里區","LI":"安西里","LIN":"19鄰","STREET":"忠孝路","SECT":" ","MAREA":" ","LANE":" ","ALLEY":" ","HOUSE_NO":"７３號","E_COORD97":165501.26000000001,"N_COORD97":2562863.8599999999,"ADDRESS":"忠孝路７３號","OBJECTID":536009},"geometry":{"x":165501.26000000071,"y":2562863.8599999994}},{"attributes":{"ID":536037,"DIS_CODE":0,"TOWNNAME":"佳里區","LI":"忠仁里","LIN":"19鄰","STREET":"忠仁街","SECT":" ","MAREA":" ","LANE":" ","ALLEY":" ","HOUSE_NO":"６２號","E_COORD97":166054.42999999999,"N_COORD97":2562076.2200000002,"ADDRESS":"忠仁街６２號","OBJECTID":536010},"geometry":{"x":166054.43000000063,"y":2562076.2200000007}},{"attributes":{"ID":536038,"DIS_CODE":0,"TOWNNAME":"佳里區","LI":"忠仁里","LIN":"19鄰","STREET":"忠仁街","SECT":" ","MAREA":" ","LANE":" ","ALLEY":" ","HOUSE_NO":"６４號","E_COORD97":166054.01000000001,"N_COORD97":2562080.5099999998,"ADDRESS":"忠仁街６４號","OBJECTID":536011},"geometry":{"x":166054.01000000071,"y":2562080.5099999998}},{"attributes":{"ID":536039,"DIS_CODE":0,"TOWNNAME":"佳里區","LI":"安西里","LIN":"19鄰","STREET":"忠孝路","SECT":" ","MAREA":" ","LANE":" ","ALLEY":" ","HOUSE_NO":"１０１號","E_COORD97":165456.45999999999,"N_COORD97":2562926.9100000001,"ADDRESS":"忠孝路１０１號","OBJECTID":536012},"geometry":{"x":165456.45999999996,"y":2562926.910000002}},{"attributes":{"ID":536040,"DIS_CODE":0,"TOWNNAME":"佳里區","LI":"安西里","LIN":"19鄰","STREET":"忠孝路","SECT":" ","MAREA":" ","LANE":" ","ALLEY":" ","HOUSE_NO":"１０９號","E_COORD97":165450.39000000001,"N_COORD97":2562932.2000000002,"ADDRESS":"忠孝路１０９號","OBJECTID":536013},"geometry":{"x":165450.38999999966,"y":2562932.1999999993}},{"attributes":{"ID":536041,"DIS_CODE":0,"TOWNNAME":"東區","LI":"崇善里","LIN":" ","STREET":"崇善七街","SECT":" ","MAREA":" ","LANE":" ","ALLEY":" ","HOUSE_NO":"３５號","E_COORD97":171122.23000000001,"N_COORD97":2541501.5600000001,"ADDRESS":"崇善七街３５號","OBJECTID":536014},"geometry":{"x":171122.23000000045,"y":2541501.5600000005}},{"attributes":{"ID":536042,"DIS_CODE":0,"TOWNNAME":"東區","LI":"崇善里","LIN":" ","STREET":"崇善六街","SECT":" ","MAREA":" ","LANE":" ","ALLEY":" ","HOUSE_NO":"１４號","E_COORD97":171074.39000000001,"N_COORD97":2541493.3799999999,"ADDRESS":"崇善六街１４號","OBJECTID":536015},"geometry":{"x":171074.38999999966,"y":2541493.379999999}},{"attributes":{"ID":536043,"DIS_CODE":0,"TOWNNAME":"東區","LI":"崇善里","LIN":" ","STREET":"中華東路","SECT":"三段","MAREA":" ","LANE":" ","ALLEY":" ","HOUSE_NO":"１０３號","E_COORD97":170808.41,"N_COORD97":2542140.9500000002,"ADDRESS":"中華東路三段１０３號","OBJECTID":536016},"geometry":{"x":170808.41000000108,"y":2542140.9499999993}},{"attributes":{"ID":536044,"DIS_CODE":0,"TOWNNAME":"佳里區","LI":"安西里","LIN":"19鄰","STREET":"忠孝路","SECT":" ","MAREA":" ","LANE":" ","ALLEY":" ","HOUSE_NO":"８５號","E_COORD97":165484.01999999999,"N_COORD97":2562885.5299999998,"ADDRESS":"忠孝路８５號","OBJECTID":536017},"geometry":{"x":165484.02000000048,"y":2562885.5300000012}},{"attributes":{"ID":536045,"DIS_CODE":0,"TOWNNAME":"佳里區","LI":"安西里","LIN":"19鄰","STREET":"忠孝路","SECT":" ","MAREA":" ","LANE":" ","ALLEY":" ","HOUSE_NO":"７１號","E_COORD97":165500.84,"N_COORD97":2562859.0499999998,"ADDRESS":"忠孝路７１號","OBJECTID":536018},"geometry":{"x":165500.84000000078,"y":2562859.0500000026}},{"attributes":{"ID":536046,"DIS_CODE":0,"TOWNNAME":"佳里區","LI":"安西里","LIN":"19鄰","STREET":"忠孝路","SECT":" ","MAREA":" ","LANE":" ","ALLEY":" ","HOUSE_NO":"７７號","E_COORD97":165496.73000000001,"N_COORD97":2562874.27,"ADDRESS":"忠孝路７７號","OBJECTID":536019},"geometry":{"x":165496.73000000138,"y":2562874.2699999996}},{"attributes":{"ID":536047,"DIS_CODE":0,"TOWNNAME":"佳里區","LI":"安西里","LIN":"19鄰","STREET":"忠孝路","SECT":" ","MAREA":" ","LANE":" ","ALLEY":" ","HOUSE_NO":"７９號","E_COORD97":165493.51000000001,"N_COORD97":2562876.73,"ADDRESS":"忠孝路７９號","OBJECTID":536020},"geometry":{"x":165493.50999999978,"y":2562876.7300000004}},{"attributes":{"ID":536048,"DIS_CODE":0,"TOWNNAME":"佳里區","LI":"安西里","LIN":"19鄰","STREET":"忠孝路","SECT":" ","MAREA":" ","LANE":" ","ALLEY":" ","HOUSE_NO":"８１號","E_COORD97":165490.48999999999,"N_COORD97":2562879.5899999999,"ADDRESS":"忠孝路８１號","OBJECTID":536021},"geometry":{"x":165490.49000000022,"y":2562879.5899999999}},{"attributes":{"ID":536049,"DIS_CODE":0,"TOWNNAME":"佳里區","LI":"安西里","LIN":"19鄰","STREET":"忠孝路","SECT":" ","MAREA":" ","LANE":" ","ALLEY":" ","HOUSE_NO":"８３號","E_COORD97":165487.56,"N_COORD97":2562882.3700000001,"ADDRESS":"忠孝路８３號","OBJECTID":536022},"geometry":{"x":165487.55999999959,"y":2562882.370000001}},{"attributes":{"ID":536050,"DIS_CODE":0,"TOWNNAME":"佳里區","LI":"安西里","LIN":"19鄰","STREET":"忠孝路","SECT":" ","MAREA":" ","LANE":" ","ALLEY":" ","HOUSE_NO":"８９號","E_COORD97":165474.91,"N_COORD97":2562895.3500000001,"ADDRESS":"忠孝路８９號","OBJECTID":536023},"geometry":{"x":165474.91000000108,"y":2562895.3499999996}},{"attributes":{"ID":536051,"DIS_CODE":0,"TOWNNAME":"佳里區","LI":"安西里","LIN":"19鄰","STREET":"忠孝路","SECT":" ","MAREA":" ","LANE":" ","ALLEY":" ","HOUSE_NO":"９１號","E_COORD97":165473.26999999999,"N_COORD97":2562899.0499999998,"ADDRESS":"忠孝路９１號","OBJECTID":536024},"geometry":{"x":165473.27000000142,"y":2562899.0500000045}},{"attributes":{"ID":536052,"DIS_CODE":0,"TOWNNAME":"佳里區","LI":"安西里","LIN":"19鄰","STREET":"忠孝路","SECT":" ","MAREA":" ","LANE":" ","ALLEY":" ","HOUSE_NO":"９３號","E_COORD97":165471.10000000001,"N_COORD97":2562902.3599999999,"ADDRESS":"忠孝路９３號","OBJECTID":536025},"geometry":{"x":165471.10000000149,"y":2562902.3600000031}},{"attributes":{"ID":536053,"DIS_CODE":0,"TOWNNAME":"佳里區","LI":"安西里","LIN":"19鄰","STREET":"忠孝路","SECT":" ","MAREA":" ","LANE":" ","ALLEY":" ","HOUSE_NO":"９５號","E_COORD97":165469.17999999999,"N_COORD97":2562905.8999999999,"ADDRESS":"忠孝路９５號","OBJECTID":536026},"geometry":{"x":165469.18000000063,"y":2562905.9000000004}},{"attributes":{"ID":536054,"DIS_CODE":0,"TOWNNAME":"佳里區","LI":"安西里","LIN":"19鄰","STREET":"忠孝路","SECT":" ","MAREA":" ","LANE":" ","ALLEY":" ","HOUSE_NO":"９７號","E_COORD97":165467.23999999999,"N_COORD97":2562908.9500000002,"ADDRESS":"忠孝路９７號","OBJECTID":536027},"geometry":{"x":165467.24000000022,"y":2562908.9500000011}},{"attributes":{"ID":536055,"DIS_CODE":0,"TOWNNAME":"東區","LI":"崇德里","LIN":" ","STREET":"崇善路","SECT":" ","MAREA":" ","LANE":" ","ALLEY":" ","HOUSE_NO":"４４２號","E_COORD97":170977.54999999999,"N_COORD97":2541548.4300000002,"ADDRESS":"崇善路４４２號","OBJECTID":536028},"geometry":{"x":170977.54999999888,"y":2541548.4299999997}},{"attributes":{"ID":536056,"DIS_CODE":0,"TOWNNAME":"佳里區","LI":"東寧里","LIN":"19鄰","STREET":"信義一街","SECT":" ","MAREA":" ","LANE":" ","ALLEY":" ","HOUSE_NO":"４２０號","E_COORD97":166204.31,"N_COORD97":2562421.23,"ADDRESS":"信義一街４２０號","OBJECTID":536029},"geometry":{"x":166204.31000000052,"y":2562421.2300000004}},{"attributes":{"ID":536057,"DIS_CODE":0,"TOWNNAME":"佳里區","LI":"東寧里","LIN":"19鄰","STREET":"信義一街","SECT":" ","MAREA":" ","LANE":" ","ALLEY":" ","HOUSE_NO":"４２２號","E_COORD97":166203.70000000001,"N_COORD97":2562425.9100000001,"ADDRESS":"信義一街４２２號","OBJECTID":536030},"geometry":{"x":166203.70000000112,"y":2562425.910000002}},{"attributes":{"ID":536058,"DIS_CODE":0,"TOWNNAME":"佳里區","LI":"東寧里","LIN":"19鄰","STREET":"信義一街","SECT":" ","MAREA":" ","LANE":" ","ALLEY":" ","HOUSE_NO":"４２６號","E_COORD97":166203.22,"N_COORD97":2562430.7799999998,"ADDRESS":"信義一街４２６號","OBJECTID":536031},"geometry":{"x":166203.22000000067,"y":2562430.7799999993}},{"attributes":{"ID":536059,"DIS_CODE":0,"TOWNNAME":"佳里區","LI":"忠仁里","LIN":"19鄰","STREET":"信義一街","SECT":" ","MAREA":" ","LANE":" ","ALLEY":" ","HOUSE_NO":"２３３號","E_COORD97":166159.54000000001,"N_COORD97":2562113.2799999998,"ADDRESS":"信義一街２３３號","OBJECTID":536032},"geometry":{"x":166159.54000000004,"y":2562113.2800000012}},{"attributes":{"ID":536060,"DIS_CODE":0,"TOWNNAME":"佳里區","LI":"東寧里","LIN":"19鄰","STREET":"信義一街","SECT":" ","MAREA":" ","LANE":" ","ALLEY":" ","HOUSE_NO":"３９０號","E_COORD97":166251.10000000001,"N_COORD97":2562380.96,"ADDRESS":"信義一街３９０號","OBJECTID":536033},"geometry":{"x":166251.10000000056,"y":2562380.9600000046}},{"attributes":{"ID":536061,"DIS_CODE":0,"TOWNNAME":"佳里區","LI":"東寧里","LIN":"19鄰","STREET":"信義一街","SECT":" ","MAREA":" ","LANE":" ","ALLEY":" ","HOUSE_NO":"４０８號","E_COORD97":166212.13,"N_COORD97":2562399.0600000001,"ADDRESS":"信義一街４０８號","OBJECTID":536034},"geometry":{"x":166212.13000000082,"y":2562399.0600000005}},{"attributes":{"ID":536062,"DIS_CODE":0,"TOWNNAME":"佳里區","LI":"東寧里","LIN":"19鄰","STREET":"信義一街","SECT":" ","MAREA":" ","LANE":" ","ALLEY":" ","HOUSE_NO":"４１０號","E_COORD97":166210.25,"N_COORD97":2562402.9700000002,"ADDRESS":"信義一街４１０號","OBJECTID":536035},"geometry":{"x":166210.25000000093,"y":2562402.9700000007}},{"attributes":{"ID":536063,"DIS_CODE":0,"TOWNNAME":"佳里區","LI":"東寧里","LIN":"19鄰","STREET":"信義一街","SECT":" ","MAREA":" ","LANE":" ","ALLEY":" ","HOUSE_NO":"４１２號","E_COORD97":166208.57999999999,"N_COORD97":2562406.6899999999,"ADDRESS":"信義一街４１２號","OBJECTID":536036},"geometry":{"x":166208.58000000007,"y":2562406.6900000013}},{"attributes":{"ID":536064,"DIS_CODE":0,"TOWNNAME":"佳里區","LI":"東寧里","LIN":"19鄰","STREET":"信義一街","SECT":" ","MAREA":" ","LANE":" ","ALLEY":" ","HOUSE_NO":"４１６號","E_COORD97":166208.12,"N_COORD97":2562410.8700000001,"ADDRESS":"信義一街４１６號","OBJECTID":536037},"geometry":{"x":166208.12000000011,"y":2562410.870000001}},{"attributes":{"ID":536065,"DIS_CODE":0,"TOWNNAME":"新市區","LI":"永就里","LIN":"19鄰","STREET":"永華三街","SECT":" ","MAREA":" ","LANE":" ","ALLEY":" ","HOUSE_NO":"１３號","E_COORD97":177582.06,"N_COORD97":2551014,"ADDRESS":"永華三街１３號","OBJECTID":536038},"geometry":{"x":177582.06000000052,"y":2551014}},{"attributes":{"ID":536066,"DIS_CODE":0,"TOWNNAME":"新市區","LI":"永就里","LIN":"19鄰","STREET":"永華三街","SECT":" ","MAREA":" ","LANE":" ","ALLEY":" ","HOUSE_NO":"１６號","E_COORD97":177562.34,"N_COORD97":2551016.25,"ADDRESS":"永華三街１６號","OBJECTID":536039},"geometry":{"x":177562.34000000078,"y":2551016.25}},{"attributes":{"ID":536067,"DIS_CODE":0,"TOWNNAME":"下營區","LI":"新興里","LIN":"19鄰","STREET":"慈惠街","SECT":" ","MAREA":" ","LANE":" ","ALLEY":" ","HOUSE_NO":"１２２號","E_COORD97":174972.94,"N_COORD97":2570611.79,"ADDRESS":"慈惠街１２２號","OBJECTID":536040},"geometry":{"x":174972.94000000227,"y":2570611.7899999991}},{"attributes":{"ID":536068,"DIS_CODE":0,"TOWNNAME":"下營區","LI":"新興里","LIN":"19鄰","STREET":"慈惠街","SECT":" ","MAREA":" ","LANE":" ","ALLEY":" ","HOUSE_NO":"１２６號","E_COORD97":174959.31,"N_COORD97":2570652.4700000002,"ADDRESS":"慈惠街１２６號","OBJECTID":536041},"geometry":{"x":174959.31000000145,"y":2570652.4700000007}},{"attributes":{"ID":536069,"DIS_CODE":0,"TOWNNAME":"新營區","LI":"永生里","LIN":"19鄰","STREET":"中山路","SECT":" ","MAREA":" ","LANE":" ","ALLEY":" ","HOUSE_NO":"２５７號","E_COORD97":179824.23000000001,"N_COORD97":2577931.23,"ADDRESS":"中山路２５７號","OBJECTID":536042},"geometry":{"x":179824.23000000231,"y":2577931.2300000023}},{"attributes":{"ID":536070,"DIS_CODE":0,"TOWNNAME":"新營區","LI":"民生里","LIN":"19鄰","STREET":"民治路","SECT":" ","MAREA":" ","LANE":" ","ALLEY":" ","HOUSE_NO":"１７７號","E_COORD97":178822.29000000001,"N_COORD97":2578475.3399999999,"ADDRESS":"民治路１７７號","OBJECTID":536043},"geometry":{"x":178822.29000000097,"y":2578475.3400000017}},{"attributes":{"ID":536071,"DIS_CODE":0,"TOWNNAME":"新營區","LI":"忠政里","LIN":"19鄰","STREET":"長榮路","SECT":"二段","MAREA":" ","LANE":" ","ALLEY":" ","HOUSE_NO":"３５號","E_COORD97":179965.03,"N_COORD97":2579844.23,"ADDRESS":"長榮路二段３５號","OBJECTID":536044},"geometry":{"x":179965.03000000119,"y":2579844.2300000004}},{"attributes":{"ID":536072,"DIS_CODE":0,"TOWNNAME":"新營區","LI":"南紙里","LIN":"19鄰","STREET":"太子路","SECT":" ","MAREA":" ","LANE":" ","ALLEY":" ","HOUSE_NO":"２５２號","E_COORD97":177774.75,"N_COORD97":2577804.8700000001,"ADDRESS":"太子路２５２號","OBJECTID":536045},"geometry":{"x":177774.75000000093,"y":2577804.8700000029}},{"attributes":{"ID":536073,"DIS_CODE":0,"TOWNNAME":"新營區","LI":"忠政里","LIN":"19鄰","STREET":"長榮路","SECT":"二段","MAREA":" ","LANE":" ","ALLEY":" ","HOUSE_NO":"１號","E_COORD97":180041.44,"N_COORD97":2579848.2999999998,"ADDRESS":"長榮路二段１號","OBJECTID":536046},"geometry":{"x":180041.44000000227,"y":2579848.3000000007}},{"attributes":{"ID":536074,"DIS_CODE":0,"TOWNNAME":"新營區","LI":"民權里","LIN":"19鄰","STREET":"中華路","SECT":" ","MAREA":" ","LANE":" ","ALLEY":" ","HOUSE_NO":"２９之７號","E_COORD97":179764.41,"N_COORD97":2578209.5499999998,"ADDRESS":"中華路２９之７號","OBJECTID":536047},"geometry":{"x":179764.41000000015,"y":2578209.5500000007}},{"attributes":{"ID":536075,"DIS_CODE":0,"TOWNNAME":"新營區","LI":"王公里","LIN":"19鄰","STREET":"民族路","SECT":" ","MAREA":" ","LANE":" ","ALLEY":" ","HOUSE_NO":"１１０號","E_COORD97":180336.44,"N_COORD97":2579193.52,"ADDRESS":"民族路１１０號","OBJECTID":536048},"geometry":{"x":180336.44000000227,"y":2579193.5200000014}},{"attributes":{"ID":536076,"DIS_CODE":0,"TOWNNAME":"新營區","LI":"王公里","LIN":"19鄰","STREET":"民族路","SECT":" ","MAREA":" ","LANE":" ","ALLEY":" ","HOUSE_NO":"１１２號地下室","E_COORD97":180352.5,"N_COORD97":2579207.8599999999,"ADDRESS":"民族路１１２號地下室","OBJECTID":536049},"geometry":{"x":180352.50000000186,"y":2579207.8600000013}},{"attributes":{"ID":536077,"DIS_CODE":0,"TOWNNAME":"東區","LI":"圍下里","LIN":"1鄰","STREET":"勝利路","SECT":" ","MAREA":" ","LANE":" ","ALLEY":" ","HOUSE_NO":"５３號之３","E_COORD97":169755.57999999999,"N_COORD97":2543407.4700000002,"ADDRESS":"勝利路５３號之３","OBJECTID":536050},"geometry":{"x":169755.58000000194,"y":2543407.4700000007}},{"attributes":{"ID":536078,"DIS_CODE":0,"TOWNNAME":"東區","LI":"圍下里","LIN":"1鄰","STREET":"勝利路","SECT":" ","MAREA":" ","LANE":" ","ALLEY":" ","HOUSE_NO":"５５號之２","E_COORD97":169761.5,"N_COORD97":2543413.7799999998,"ADDRESS":"勝利路５５號之２","OBJECTID":536051},"geometry":{"x":169761.50000000093,"y":2543413.7799999993}},{"attributes":{"ID":536079,"DIS_CODE":0,"TOWNNAME":"東區","LI":"圍下里","LIN":"1鄰","STREET":"勝利路","SECT":" ","MAREA":" ","LANE":" ","ALLEY":" ","HOUSE_NO":"５５號之３","E_COORD97":169754.91,"N_COORD97":2543413.1099999999,"ADDRESS":"勝利路５５號之３","OBJECTID":536052},"geometry":{"x":169754.90999999922,"y":2543413.1100000013}},{"attributes":{"ID":536080,"DIS_CODE":0,"TOWNNAME":"東區","LI":"圍下里","LIN":"1鄰","STREET":"勝利路","SECT":" ","MAREA":" ","LANE":" ","ALLEY":" ","HOUSE_NO":"６９號地下一層","E_COORD97":169791.25,"N_COORD97":2543485.1800000002,"ADDRESS":"勝利路６９號地下一層","OBJECTID":536053},"geometry":{"x":169791.25,"y":2543485.1800000016}},{"attributes":{"ID":536081,"DIS_CODE":0,"TOWNNAME":"東區","LI":"圍下里","LIN":"19鄰","STREET":"慶東街","SECT":" ","MAREA":" ","LANE":" ","ALLEY":" ","HOUSE_NO":"１３５號","E_COORD97":169623.26000000001,"N_COORD97":2543449.5800000001,"ADDRESS":"慶東街１３５號","OBJECTID":536054},"geometry":{"x":169623.25999999885,"y":2543449.5800000001}},{"attributes":{"ID":536082,"DIS_CODE":0,"TOWNNAME":"新營區","LI":"民生里","LIN":"19鄰","STREET":"民治路","SECT":" ","MAREA":" ","LANE":" ","ALLEY":" ","HOUSE_NO":"１５９號","E_COORD97":178861.45000000001,"N_COORD97":2578536.0699999998,"ADDRESS":"民治路１５９號","OBJECTID":536055},"geometry":{"x":178861.45000000205,"y":2578536.0700000022}},{"attributes":{"ID":536083,"DIS_CODE":0,"TOWNNAME":"新營區","LI":"新東里","LIN":"19鄰","STREET":"東學路","SECT":" ","MAREA":" ","LANE":" ","ALLEY":" ","HOUSE_NO":"８６號","E_COORD97":180908.79999999999,"N_COORD97":2579358.0600000001,"ADDRESS":"東學路８６號","OBJECTID":536056},"geometry":{"x":180908.80000000075,"y":2579358.0600000005}},{"attributes":{"ID":536084,"DIS_CODE":0,"TOWNNAME":"六甲區","LI":"二甲里","LIN":"19鄰","STREET":"中山路","SECT":" ","MAREA":" ","LANE":" ","ALLEY":" ","HOUSE_NO":"１４７號","E_COORD97":183305.23000000001,"N_COORD97":2570041.9199999999,"ADDRESS":"中山路１４７號","OBJECTID":536057},"geometry":{"x":183305.23000000138,"y":2570041.9199999999}},{"attributes":{"ID":536085,"DIS_CODE":0,"TOWNNAME":"六甲區","LI":"二甲里","LIN":"19鄰","STREET":"中山路","SECT":" ","MAREA":" ","LANE":" ","ALLEY":" ","HOUSE_NO":"１４９號","E_COORD97":183301.26000000001,"N_COORD97":2570043.3199999998,"ADDRESS":"中山路１４９號","OBJECTID":536058},"geometry":{"x":183301.25999999978,"y":2570043.3199999984}},{"attributes":{"ID":536086,"DIS_CODE":0,"TOWNNAME":"六甲區","LI":"二甲里","LIN":"19鄰","STREET":"中山路","SECT":" ","MAREA":" ","LANE":" ","ALLEY":" ","HOUSE_NO":"１５１號","E_COORD97":183297.20000000001,"N_COORD97":2570044.73,"ADDRESS":"中山路１５１號","OBJECTID":536059},"geometry":{"x":183297.20000000019,"y":2570044.7300000023}},{"attributes":{"ID":536087,"DIS_CODE":0,"TOWNNAME":"六甲區","LI":"二甲里","LIN":"19鄰","STREET":"中山路","SECT":" ","MAREA":" ","LANE":" ","ALLEY":" ","HOUSE_NO":"１５３號","E_COORD97":183293.06,"N_COORD97":2570045.98,"ADDRESS":"中山路１５３號","OBJECTID":536060},"geometry":{"x":183293.06000000052,"y":2570045.9800000042}},{"attributes":{"ID":536088,"DIS_CODE":0,"TOWNNAME":"六甲區","LI":"二甲里","LIN":"19鄰","STREET":"中山路","SECT":" ","MAREA":" ","LANE":" ","ALLEY":" ","HOUSE_NO":"１５５號","E_COORD97":183288.91,"N_COORD97":2570046.96,"ADDRESS":"中山路１５５號","OBJECTID":536061},"geometry":{"x":183288.91000000015,"y":2570046.9600000028}},{"attributes":{"ID":536089,"DIS_CODE":0,"TOWNNAME":"六甲區","LI":"二甲里","LIN":"19鄰","STREET":"中山路","SECT":" ","MAREA":" ","LANE":" ","ALLEY":" ","HOUSE_NO":"１５７號","E_COORD97":183284.75,"N_COORD97":2570048.23,"ADDRESS":"中山路１５７號","OBJECTID":536062},"geometry":{"x":183284.75,"y":2570048.2300000023}},{"attributes":{"ID":536090,"DIS_CODE":0,"TOWNNAME":"六甲區","LI":"二甲里","LIN":"19鄰","STREET":"中山路","SECT":" ","MAREA":" ","LANE":" ","ALLEY":" ","HOUSE_NO":"１５９號","E_COORD97":183280.73999999999,"N_COORD97":2570050,"ADDRESS":"中山路１５９號","OBJECTID":536063},"geometry":{"x":183280.74000000115,"y":2570050.0000000019}},{"attributes":{"ID":536091,"DIS_CODE":0,"TOWNNAME":"六甲區","LI":"二甲里","LIN":"19鄰","STREET":"中山路","SECT":" ","MAREA":" ","LANE":" ","ALLEY":" ","HOUSE_NO":"１６３號","E_COORD97":183274.09,"N_COORD97":2570052.7999999998,"ADDRESS":"中山路１６３號","OBJECTID":536064},"geometry":{"x":183274.08999999985,"y":2570052.8000000007}},{"attributes":{"ID":536092,"DIS_CODE":0,"TOWNNAME":"東區","LI":"圍下里","LIN":" ","STREET":"勝利路","SECT":" ","MAREA":" ","LANE":" ","ALLEY":" ","HOUSE_NO":"８３號","E_COORD97":169792.89000000001,"N_COORD97":2543544.23,"ADDRESS":"勝利路８３號","OBJECTID":536065},"geometry":{"x":169792.88999999966,"y":2543544.2300000004}},{"attributes":{"ID":536093,"DIS_CODE":0,"TOWNNAME":"六甲區","LI":"二甲里","LIN":"19鄰","STREET":"中山路","SECT":" ","MAREA":" ","LANE":" ","ALLEY":" ","HOUSE_NO":"１６５號","E_COORD97":183269.42999999999,"N_COORD97":2570053.9100000001,"ADDRESS":"中山路１６５號","OBJECTID":536066},"geometry":{"x":183269.4299999997,"y":2570053.910000002}},{"attributes":{"ID":536094,"DIS_CODE":0,"TOWNNAME":"六甲區","LI":"六甲里","LIN":"19鄰","STREET":"仁愛街","SECT":" ","MAREA":" ","LANE":" ","ALLEY":" ","HOUSE_NO":"１０１號","E_COORD97":183864.17999999999,"N_COORD97":2570120.7000000002,"ADDRESS":"仁愛街１０１號","OBJECTID":536067},"geometry":{"x":183864.18000000063,"y":2570120.6999999993}},{"attributes":{"ID":536095,"DIS_CODE":0,"TOWNNAME":"六甲區","LI":"六甲里","LIN":"19鄰","STREET":"仁愛街","SECT":" ","MAREA":" ","LANE":" ","ALLEY":" ","HOUSE_NO":"１０３號","E_COORD97":183863.34,"N_COORD97":2570126.2200000002,"ADDRESS":"仁愛街１０３號","OBJECTID":536068},"geometry":{"x":183863.34000000078,"y":2570126.2200000044}},{"attributes":{"ID":536096,"DIS_CODE":0,"TOWNNAME":"六甲區","LI":"甲南里","LIN":"19鄰","STREET":"仁愛街","SECT":" ","MAREA":" ","LANE":" ","ALLEY":" ","HOUSE_NO":"１號","E_COORD97":183878.10999999999,"N_COORD97":2569860.3999999999,"ADDRESS":"仁愛街１號","OBJECTID":536069},"geometry":{"x":183878.1100000022,"y":2569860.4000000022}},{"attributes":{"ID":536097,"DIS_CODE":0,"TOWNNAME":"六甲區","LI":"甲南里","LIN":"19鄰","STREET":"仁愛街","SECT":" ","MAREA":" ","LANE":" ","ALLEY":" ","HOUSE_NO":"３號","E_COORD97":183876.73000000001,"N_COORD97":2569865.3700000001,"ADDRESS":"仁愛街３號","OBJECTID":536070},"geometry":{"x":183876.73000000045,"y":2569865.3700000029}},{"attributes":{"ID":536098,"DIS_CODE":0,"TOWNNAME":"六甲區","LI":"六甲里","LIN":"19鄰","STREET":"仁愛街","SECT":" ","MAREA":" ","LANE":" ","ALLEY":" ","HOUSE_NO":"８５號","E_COORD97":183863.42000000001,"N_COORD97":2570081.9199999999,"ADDRESS":"仁愛街８５號","OBJECTID":536071},"geometry":{"x":183863.41999999993,"y":2570081.9199999999}},{"attributes":{"ID":536099,"DIS_CODE":0,"TOWNNAME":"六甲區","LI":"六甲里","LIN":"19鄰","STREET":"仁愛街","SECT":" ","MAREA":" ","LANE":" ","ALLEY":" ","HOUSE_NO":"８７號","E_COORD97":183863.35999999999,"N_COORD97":2570087.4399999999,"ADDRESS":"仁愛街８７號","OBJECTID":536072},"geometry":{"x":183863.36000000127,"y":2570087.4400000013}},{"attributes":{"ID":536100,"DIS_CODE":0,"TOWNNAME":"六甲區","LI":"甲南里","LIN":"19鄰","STREET":"仁愛街","SECT":" ","MAREA":" ","LANE":" ","ALLEY":" ","HOUSE_NO":"９號","E_COORD97":183873.57000000001,"N_COORD97":2569885.6299999999,"ADDRESS":"仁愛街９號","OBJECTID":536073},"geometry":{"x":183873.57000000123,"y":2569885.6300000008}},{"attributes":{"ID":536101,"DIS_CODE":0,"TOWNNAME":"六甲區","LI":"甲南里","LIN":"19鄰","STREET":"文化街","SECT":" ","MAREA":" ","LANE":" ","ALLEY":" ","HOUSE_NO":"３８號","E_COORD97":183862.69,"N_COORD97":2569844.9500000002,"ADDRESS":"文化街３８號","OBJECTID":536074},"geometry":{"x":183862.69000000134,"y":2569844.950000003}},{"attributes":{"ID":536102,"DIS_CODE":0,"TOWNNAME":"六甲區","LI":"甲南里","LIN":"19鄰","STREET":"文化街","SECT":" ","MAREA":" ","LANE":" ","ALLEY":" ","HOUSE_NO":"４０號","E_COORD97":183858.12,"N_COORD97":2569842.9399999999,"ADDRESS":"文化街４０號","OBJECTID":536075},"geometry":{"x":183858.12000000104,"y":2569842.9400000013}},{"attributes":{"ID":536103,"DIS_CODE":0,"TOWNNAME":"六甲區","LI":"甲南里","LIN":"19鄰","STREET":"文化街","SECT":" ","MAREA":" ","LANE":" ","ALLEY":" ","HOUSE_NO":"４２號","E_COORD97":183852.53,"N_COORD97":2569836.52,"ADDRESS":"文化街４２號","OBJECTID":536076},"geometry":{"x":183852.53000000026,"y":2569836.5199999996}},{"attributes":{"ID":536104,"DIS_CODE":0,"TOWNNAME":"新營區","LI":"興業里","LIN":"19鄰","STREET":"中山路","SECT":" ","MAREA":" ","LANE":" ","ALLEY":" ","HOUSE_NO":"９５號","E_COORD97":180448.59,"N_COORD97":2578301.4900000002,"ADDRESS":"中山路９５號","OBJECTID":536077},"geometry":{"x":180448.59000000078,"y":2578301.4900000039}},{"attributes":{"ID":536105,"DIS_CODE":0,"TOWNNAME":"新營區","LI":"民生里","LIN":"19鄰","STREET":"民治路","SECT":" ","MAREA":" ","LANE":" ","ALLEY":" ","HOUSE_NO":"１６７號","E_COORD97":178839.82999999999,"N_COORD97":2578506.2599999998,"ADDRESS":"民治路１６７號","OBJECTID":536078},"geometry":{"x":178839.83000000007,"y":2578506.2600000016}},{"attributes":{"ID":536106,"DIS_CODE":0,"TOWNNAME":"新營區","LI":"民生里","LIN":"19鄰","STREET":"民治路","SECT":" ","MAREA":" ","LANE":" ","ALLEY":" ","HOUSE_NO":"１６３號","E_COORD97":178848.06,"N_COORD97":2578517.3100000001,"ADDRESS":"民治路１６３號","OBJECTID":536079},"geometry":{"x":178848.06000000145,"y":2578517.3100000024}},{"attributes":{"ID":536107,"DIS_CODE":0,"TOWNNAME":"柳營區","LI":"八翁里","LIN":"19鄰","STREET":"仁愛路","SECT":" ","MAREA":" ","LANE":" ","ALLEY":" ","HOUSE_NO":"５９號","E_COORD97":179101.62,"N_COORD97":2575124.0099999998,"ADDRESS":"仁愛路５９號","OBJECTID":536080},"geometry":{"x":179101.62000000104,"y":2575124.0100000035}},{"attributes":{"ID":536108,"DIS_CODE":0,"TOWNNAME":"新營區","LI":"民生里","LIN":"19鄰","STREET":"民治路","SECT":" ","MAREA":" ","LANE":" ","ALLEY":" ","HOUSE_NO":"１６５號","E_COORD97":178842.92000000001,"N_COORD97":2578511.7799999998,"ADDRESS":"民治路１６５號","OBJECTID":536081},"geometry":{"x":178842.92000000086,"y":2578511.7799999975}},{"attributes":{"ID":536109,"DIS_CODE":0,"TOWNNAME":"柳營區","LI":"東昇里","LIN":"19鄰","STREET":"中山西路","SECT":"一段","MAREA":" ","LANE":" ","ALLEY":" ","HOUSE_NO":"１２７號","E_COORD97":180586.41,"N_COORD97":2575313.8300000001,"ADDRESS":"中山西路一段１２７號","OBJECTID":536082},"geometry":{"x":180586.41000000108,"y":2575313.8300000001}},{"attributes":{"ID":536110,"DIS_CODE":0,"TOWNNAME":"柳營區","LI":"東昇里","LIN":"19鄰","STREET":"中山西路","SECT":"一段","MAREA":" ","LANE":" ","ALLEY":" ","HOUSE_NO":"１３５號","E_COORD97":180574.10999999999,"N_COORD97":2575332.29,"ADDRESS":"中山西路一段１３５號","OBJECTID":536083},"geometry":{"x":180574.1099999994,"y":2575332.290000001}},{"attributes":{"ID":536111,"DIS_CODE":0,"TOWNNAME":"柳營區","LI":"東昇里","LIN":"19鄰","STREET":"中山西路","SECT":"一段","MAREA":" ","LANE":" ","ALLEY":" ","HOUSE_NO":"１３７號","E_COORD97":180569.72,"N_COORD97":2575332.3700000001,"ADDRESS":"中山西路一段１３７號","OBJECTID":536084},"geometry":{"x":180569.72000000067,"y":2575332.370000001}},{"attributes":{"ID":536112,"DIS_CODE":0,"TOWNNAME":"柳營區","LI":"東昇里","LIN":"19鄰","STREET":"中山西路","SECT":"一段","MAREA":" ","LANE":" ","ALLEY":" ","HOUSE_NO":"１３９號","E_COORD97":180565.29000000001,"N_COORD97":2575332.0699999998,"ADDRESS":"中山西路一段１３９號","OBJECTID":536085},"geometry":{"x":180565.29000000004,"y":2575332.0700000022}},{"attributes":{"ID":536113,"DIS_CODE":0,"TOWNNAME":"柳營區","LI":"東昇里","LIN":"19鄰","STREET":"中山西路","SECT":"一段","MAREA":" ","LANE":" ","ALLEY":" ","HOUSE_NO":"１４１號","E_COORD97":180560.70999999999,"N_COORD97":2575332.21,"ADDRESS":"中山西路一段１４１號","OBJECTID":536086},"geometry":{"x":180560.70999999996,"y":2575332.2100000028}},{"attributes":{"ID":536114,"DIS_CODE":0,"TOWNNAME":"柳營區","LI":"東昇里","LIN":"19鄰","STREET":"中山西路","SECT":"一段","MAREA":" ","LANE":" ","ALLEY":" ","HOUSE_NO":"１７３號","E_COORD97":180504.67999999999,"N_COORD97":2575332.8999999999,"ADDRESS":"中山西路一段１７３號","OBJECTID":536087},"geometry":{"x":180504.6799999997,"y":2575332.9000000022}},{"attributes":{"ID":536115,"DIS_CODE":0,"TOWNNAME":"柳營區","LI":"八翁里","LIN":"19鄰","STREET":"仁愛路","SECT":" ","MAREA":" ","LANE":" ","ALLEY":" ","HOUSE_NO":"１１５號","E_COORD97":178982.01999999999,"N_COORD97":2575223.0800000001,"ADDRESS":"仁愛路１１５號","OBJECTID":536088},"geometry":{"x":178982.01999999955,"y":2575223.0800000019}},{"attributes":{"ID":536116,"DIS_CODE":0,"TOWNNAME":"柳營區","LI":"八翁里","LIN":"19鄰","STREET":"仁愛路","SECT":" ","MAREA":" ","LANE":" ","ALLEY":" ","HOUSE_NO":"１５９號","E_COORD97":178933.98999999999,"N_COORD97":2575232.23,"ADDRESS":"仁愛路１５９號","OBJECTID":536089},"geometry":{"x":178933.99000000209,"y":2575232.2300000023}},{"attributes":{"ID":536117,"DIS_CODE":0,"TOWNNAME":"柳營區","LI":"八翁里","LIN":"19鄰","STREET":"仁愛路","SECT":" ","MAREA":" ","LANE":" ","ALLEY":" ","HOUSE_NO":"２７３號","E_COORD97":178702.32000000001,"N_COORD97":2575409.8599999999,"ADDRESS":"仁愛路２７３號","OBJECTID":536090},"geometry":{"x":178702.3200000003,"y":2575409.8600000013}},{"attributes":{"ID":536118,"DIS_CODE":0,"TOWNNAME":"柳營區","LI":"八翁里","LIN":"19鄰","STREET":"仁愛路","SECT":" ","MAREA":" ","LANE":" ","ALLEY":" ","HOUSE_NO":"３５號","E_COORD97":179143.62,"N_COORD97":2575087.6800000002,"ADDRESS":"仁愛路３５號","OBJECTID":536091},"geometry":{"x":179143.62000000104,"y":2575087.6799999997}},{"attributes":{"ID":536119,"DIS_CODE":0,"TOWNNAME":"柳營區","LI":"八翁里","LIN":"19鄰","STREET":"仁愛路","SECT":" ","MAREA":" ","LANE":" ","ALLEY":" ","HOUSE_NO":"３６５號","E_COORD97":178569.35999999999,"N_COORD97":2575562.2799999998,"ADDRESS":"仁愛路３６５號","OBJECTID":536092},"geometry":{"x":178569.36000000127,"y":2575562.2800000031}},{"attributes":{"ID":536120,"DIS_CODE":0,"TOWNNAME":"柳營區","LI":"八翁里","LIN":"19鄰","STREET":"仁愛路","SECT":" ","MAREA":" ","LANE":" ","ALLEY":" ","HOUSE_NO":"３７號","E_COORD97":179139.70999999999,"N_COORD97":2575090.7200000002,"ADDRESS":"仁愛路３７號","OBJECTID":536093},"geometry":{"x":179139.71000000089,"y":2575090.7200000025}},{"attributes":{"ID":536121,"DIS_CODE":0,"TOWNNAME":"柳營區","LI":"八翁里","LIN":"19鄰","STREET":"仁愛路","SECT":" ","MAREA":" ","LANE":" ","ALLEY":" ","HOUSE_NO":"４０７號","E_COORD97":178501.82000000001,"N_COORD97":2575629.9300000002,"ADDRESS":"仁愛路４０７號","OBJECTID":536094},"geometry":{"x":178501.82000000123,"y":2575629.9300000016}},{"attributes":{"ID":536122,"DIS_CODE":0,"TOWNNAME":"柳營區","LI":"八翁里","LIN":"19鄰","STREET":"仁愛路","SECT":" ","MAREA":" ","LANE":" ","ALLEY":" ","HOUSE_NO":"４１號","E_COORD97":179132.04999999999,"N_COORD97":2575096.6899999999,"ADDRESS":"仁愛路４１號","OBJECTID":536095},"geometry":{"x":179132.05000000075,"y":2575096.6900000013}},{"attributes":{"ID":536123,"DIS_CODE":0,"TOWNNAME":"柳營區","LI":"八翁里","LIN":"19鄰","STREET":"仁愛路","SECT":" ","MAREA":" ","LANE":" ","ALLEY":" ","HOUSE_NO":"５３號","E_COORD97":179111.62,"N_COORD97":2575115.5699999998,"ADDRESS":"仁愛路５３號","OBJECTID":536096},"geometry":{"x":179111.62000000104,"y":2575115.5700000003}},{"attributes":{"ID":536124,"DIS_CODE":0,"TOWNNAME":"柳營區","LI":"八翁里","LIN":"19鄰","STREET":"仁愛路","SECT":" ","MAREA":" ","LANE":" ","ALLEY":" ","HOUSE_NO":"５５號","E_COORD97":179107.89000000001,"N_COORD97":2575118.29,"ADDRESS":"仁愛路５５號","OBJECTID":536097},"geometry":{"x":179107.88999999966,"y":2575118.290000001}},{"attributes":{"ID":536125,"DIS_CODE":0,"TOWNNAME":"柳營區","LI":"八翁里","LIN":"19鄰","STREET":"仁愛路","SECT":" ","MAREA":" ","LANE":" ","ALLEY":" ","HOUSE_NO":"５７號","E_COORD97":179104.91,"N_COORD97":2575121.04,"ADDRESS":"仁愛路５７號","OBJECTID":536098},"geometry":{"x":179104.91000000015,"y":2575121.040000001}},{"attributes":{"ID":536126,"DIS_CODE":0,"TOWNNAME":"柳營區","LI":"八翁里","LIN":"19鄰","STREET":"仁愛路","SECT":" ","MAREA":" ","LANE":" ","ALLEY":" ","HOUSE_NO":"６３號","E_COORD97":179094.92999999999,"N_COORD97":2575129.1800000002,"ADDRESS":"仁愛路６３號","OBJECTID":536099},"geometry":{"x":179094.93000000156,"y":2575129.1799999978}},{"attributes":{"ID":536127,"DIS_CODE":0,"TOWNNAME":"柳營區","LI":"八翁里","LIN":"19鄰","STREET":"仁愛路","SECT":" ","MAREA":" ","LANE":" ","ALLEY":" ","HOUSE_NO":"６５號","E_COORD97":179091.91,"N_COORD97":2575131.9900000002,"ADDRESS":"仁愛路６５號","OBJECTID":536100},"geometry":{"x":179091.91000000015,"y":2575131.9900000021}},{"attributes":{"ID":536128,"DIS_CODE":0,"TOWNNAME":"柳營區","LI":"八翁里","LIN":"19鄰","STREET":"仁愛路","SECT":" ","MAREA":" ","LANE":" ","ALLEY":" ","HOUSE_NO":"６７號","E_COORD97":179088.48999999999,"N_COORD97":2575134.8900000001,"ADDRESS":"仁愛路６７號","OBJECTID":536101},"geometry":{"x":179088.49000000115,"y":2575134.8900000006}},{"attributes":{"ID":536129,"DIS_CODE":0,"TOWNNAME":"柳營區","LI":"八翁里","LIN":"19鄰","STREET":"仁愛路","SECT":" ","MAREA":" ","LANE":" ","ALLEY":" ","HOUSE_NO":"７１號","E_COORD97":179079.76999999999,"N_COORD97":2575141.7999999998,"ADDRESS":"仁愛路７１號","OBJECTID":536102},"geometry":{"x":179079.76999999955,"y":2575141.8000000007}},{"attributes":{"ID":536130,"DIS_CODE":0,"TOWNNAME":"柳營區","LI":"八翁里","LIN":"19鄰","STREET":"仁愛路","SECT":" ","MAREA":" ","LANE":" ","ALLEY":" ","HOUSE_NO":"７３號","E_COORD97":179076.64000000001,"N_COORD97":2575144.5600000001,"ADDRESS":"仁愛路７３號","OBJECTID":536103},"geometry":{"x":179076.6400000006,"y":2575144.5600000042}},{"attributes":{"ID":536131,"DIS_CODE":0,"TOWNNAME":"柳營區","LI":"八翁里","LIN":"19鄰","STREET":"仁愛路","SECT":" ","MAREA":" ","LANE":" ","ALLEY":" ","HOUSE_NO":"７５號","E_COORD97":179073.51000000001,"N_COORD97":2575147.3100000001,"ADDRESS":"仁愛路７５號","OBJECTID":536104},"geometry":{"x":179073.50999999978,"y":2575147.3100000024}},{"attributes":{"ID":536132,"DIS_CODE":0,"TOWNNAME":"柳營區","LI":"八翁里","LIN":"19鄰","STREET":"仁愛路","SECT":" ","MAREA":" ","LANE":" ","ALLEY":" ","HOUSE_NO":"７７號","E_COORD97":179070.38,"N_COORD97":2575150.0899999999,"ADDRESS":"仁愛路７７號","OBJECTID":536105},"geometry":{"x":179070.38000000082,"y":2575150.0899999999}},{"attributes":{"ID":536133,"DIS_CODE":0,"TOWNNAME":"柳營區","LI":"八翁里","LIN":"19鄰","STREET":"仁愛路","SECT":" ","MAREA":" ","LANE":" ","ALLEY":" ","HOUSE_NO":"７９號","E_COORD97":179067.25,"N_COORD97":2575152.8500000001,"ADDRESS":"仁愛路７９號","OBJECTID":536106},"geometry":{"x":179067.25,"y":2575152.8500000015}},{"attributes":{"ID":536134,"DIS_CODE":0,"TOWNNAME":"柳營區","LI":"八翁里","LIN":"19鄰","STREET":"仁愛路","SECT":" ","MAREA":" ","LANE":" ","ALLEY":" ","HOUSE_NO":"８１號","E_COORD97":179064.12,"N_COORD97":2575155.6099999999,"ADDRESS":"仁愛路８１號","OBJECTID":536107},"geometry":{"x":179064.12000000104,"y":2575155.6099999994}},{"attributes":{"ID":536135,"DIS_CODE":0,"TOWNNAME":"柳營區","LI":"八翁里","LIN":"19鄰","STREET":"仁愛路","SECT":" ","MAREA":" ","LANE":" ","ALLEY":" ","HOUSE_NO":"８３號","E_COORD97":179060.98999999999,"N_COORD97":2575158.3700000001,"ADDRESS":"仁愛路８３號","OBJECTID":536108},"geometry":{"x":179060.98999999929,"y":2575158.3700000029}},{"attributes":{"ID":536136,"DIS_CODE":0,"TOWNNAME":"柳營區","LI":"八翁里","LIN":"19鄰","STREET":"仁愛路","SECT":" ","MAREA":" ","LANE":" ","ALLEY":" ","HOUSE_NO":"８５號","E_COORD97":179057.87,"N_COORD97":2575161.1299999999,"ADDRESS":"仁愛路８５號","OBJECTID":536109},"geometry":{"x":179057.87000000011,"y":2575161.1300000008}},{"attributes":{"ID":536137,"DIS_CODE":0,"TOWNNAME":"柳營區","LI":"八翁里","LIN":"19鄰","STREET":"仁愛路","SECT":" ","MAREA":" ","LANE":" ","ALLEY":" ","HOUSE_NO":"８７號","E_COORD97":179054.73999999999,"N_COORD97":2575163.8900000001,"ADDRESS":"仁愛路８７號","OBJECTID":536110},"geometry":{"x":179054.74000000115,"y":2575163.8900000025}},{"attributes":{"ID":536138,"DIS_CODE":0,"TOWNNAME":"柳營區","LI":"八翁里","LIN":"19鄰","STREET":"仁愛路","SECT":" ","MAREA":" ","LANE":" ","ALLEY":" ","HOUSE_NO":"８９號","E_COORD97":179051.60999999999,"N_COORD97":2575166.6600000001,"ADDRESS":"仁愛路８９號","OBJECTID":536111},"geometry":{"x":179051.61000000034,"y":2575166.6600000001}},{"attributes":{"ID":536139,"DIS_CODE":0,"TOWNNAME":"柳營區","LI":"八翁里","LIN":"19鄰","STREET":"仁愛路","SECT":" ","MAREA":" ","LANE":" ","ALLEY":" ","HOUSE_NO":"９１號","E_COORD97":179048.48000000001,"N_COORD97":2575169.4199999999,"ADDRESS":"仁愛路９１號","OBJECTID":536112},"geometry":{"x":179048.48000000138,"y":2575169.4200000018}},{"attributes":{"ID":536140,"DIS_CODE":0,"TOWNNAME":"柳營區","LI":"光福里","LIN":"19鄰","STREET":"光福七街","SECT":" ","MAREA":" ","LANE":" ","ALLEY":" ","HOUSE_NO":"８１號","E_COORD97":179689.56,"N_COORD97":2575689.7799999998,"ADDRESS":"光福七街８１號","OBJECTID":536113},"geometry":{"x":179689.56000000052,"y":2575689.7799999993}},{"attributes":{"ID":536141,"DIS_CODE":0,"TOWNNAME":"柳營區","LI":"光福里","LIN":"19鄰","STREET":"光福七街","SECT":" ","MAREA":" ","LANE":" ","ALLEY":" ","HOUSE_NO":"８７之１號","E_COORD97":179708.01000000001,"N_COORD97":2575711.3500000001,"ADDRESS":"光福七街８７之１號","OBJECTID":536114},"geometry":{"x":179708.01000000164,"y":2575711.3500000034}},{"attributes":{"ID":536142,"DIS_CODE":0,"TOWNNAME":"柳營區","LI":"士林里","LIN":"19鄰","STREET":"育英街","SECT":" ","MAREA":" ","LANE":" ","ALLEY":" ","HOUSE_NO":"１０７號","E_COORD97":179382.10000000001,"N_COORD97":2574886.8599999999,"ADDRESS":"育英街１０７號","OBJECTID":536115},"geometry":{"x":179382.10000000056,"y":2574886.8599999994}},{"attributes":{"ID":536143,"DIS_CODE":0,"TOWNNAME":"柳營區","LI":"士林里","LIN":"19鄰","STREET":"育英街","SECT":" ","MAREA":" ","LANE":" ","ALLEY":" ","HOUSE_NO":"１０９號","E_COORD97":179377.91,"N_COORD97":2574886.6200000001,"ADDRESS":"育英街１０９號","OBJECTID":536116},"geometry":{"x":179377.91000000015,"y":2574886.620000001}},{"attributes":{"ID":536144,"DIS_CODE":0,"TOWNNAME":"柳營區","LI":"士林里","LIN":"19鄰","STREET":"育英街","SECT":" ","MAREA":" ","LANE":" ","ALLEY":" ","HOUSE_NO":"１１１號","E_COORD97":179373.72,"N_COORD97":2574886.3799999999,"ADDRESS":"育英街１１１號","OBJECTID":536117},"geometry":{"x":179373.71999999974,"y":2574886.3799999971}},{"attributes":{"ID":536145,"DIS_CODE":0,"TOWNNAME":"柳營區","LI":"士林里","LIN":"19鄰","STREET":"育英街","SECT":" ","MAREA":" ","LANE":" ","ALLEY":" ","HOUSE_NO":"１１３號","E_COORD97":179369.53,"N_COORD97":2574886.1400000001,"ADDRESS":"育英街１１３號","OBJECTID":536118},"geometry":{"x":179369.53000000212,"y":2574886.1400000006}},{"attributes":{"ID":536146,"DIS_CODE":0,"TOWNNAME":"柳營區","LI":"士林里","LIN":"19鄰","STREET":"育英街","SECT":" ","MAREA":" ","LANE":" ","ALLEY":" ","HOUSE_NO":"１１５號","E_COORD97":179365.34,"N_COORD97":2574885.8999999999,"ADDRESS":"育英街１１５號","OBJECTID":536119},"geometry":{"x":179365.34000000078,"y":2574885.9000000022}},{"attributes":{"ID":536147,"DIS_CODE":0,"TOWNNAME":"柳營區","LI":"士林里","LIN":"19鄰","STREET":"育英街","SECT":" ","MAREA":" ","LANE":" ","ALLEY":" ","HOUSE_NO":"１１７號","E_COORD97":179361.14999999999,"N_COORD97":2574885.6600000001,"ADDRESS":"育英街１１７號","OBJECTID":536120},"geometry":{"x":179361.15000000037,"y":2574885.6600000001}},{"attributes":{"ID":536148,"DIS_CODE":0,"TOWNNAME":"柳營區","LI":"士林里","LIN":"19鄰","STREET":"育英街","SECT":" ","MAREA":" ","LANE":" ","ALLEY":" ","HOUSE_NO":"１１９號","E_COORD97":179356.95999999999,"N_COORD97":2574885.4199999999,"ADDRESS":"育英街１１９號","OBJECTID":536121},"geometry":{"x":179356.95999999996,"y":2574885.4200000018}},{"attributes":{"ID":536149,"DIS_CODE":0,"TOWNNAME":"柳營區","LI":"士林里","LIN":"19鄰","STREET":"育英街","SECT":" ","MAREA":" ","LANE":" ","ALLEY":" ","HOUSE_NO":"１２１號","E_COORD97":179352.76999999999,"N_COORD97":2574885.1800000002,"ADDRESS":"育英街１２１號","OBJECTID":536122},"geometry":{"x":179352.76999999955,"y":2574885.1799999978}},{"attributes":{"ID":536150,"DIS_CODE":0,"TOWNNAME":"柳營區","LI":"士林里","LIN":"19鄰","STREET":"育英街","SECT":" ","MAREA":" ","LANE":" ","ALLEY":" ","HOUSE_NO":"１２３號","E_COORD97":179348.57000000001,"N_COORD97":2574884.9399999999,"ADDRESS":"育英街１２３號","OBJECTID":536123},"geometry":{"x":179348.5700000003,"y":2574884.9400000013}},{"attributes":{"ID":536151,"DIS_CODE":0,"TOWNNAME":"柳營區","LI":"士林里","LIN":"19鄰","STREET":"育英街","SECT":" ","MAREA":" ","LANE":" ","ALLEY":" ","HOUSE_NO":"１２５號","E_COORD97":179344.28,"N_COORD97":2574885.8799999999,"ADDRESS":"育英街１２５號","OBJECTID":536124},"geometry":{"x":179344.28000000119,"y":2574885.879999999}},{"attributes":{"ID":536152,"DIS_CODE":0,"TOWNNAME":"柳營區","LI":"士林里","LIN":"19鄰","STREET":"育英街","SECT":" ","MAREA":" ","LANE":" ","ALLEY":" ","HOUSE_NO":"１２７號","E_COORD97":179339.48000000001,"N_COORD97":2574887.7999999998,"ADDRESS":"育英街１２７號","OBJECTID":536125},"geometry":{"x":179339.48000000231,"y":2574887.8000000007}},{"attributes":{"ID":536153,"DIS_CODE":0,"TOWNNAME":"柳營區","LI":"士林里","LIN":"19鄰","STREET":"育英街","SECT":" ","MAREA":" ","LANE":" ","ALLEY":" ","HOUSE_NO":"１２９號","E_COORD97":179334.67000000001,"N_COORD97":2574889.7200000002,"ADDRESS":"育英街１２９號","OBJECTID":536126},"geometry":{"x":179334.67000000086,"y":2574889.7200000044}},{"attributes":{"ID":536154,"DIS_CODE":0,"TOWNNAME":"南區","LI":"建南里","LIN":"19鄰","STREET":"明興路","SECT":" ","MAREA":" ","LANE":" ","ALLEY":" ","HOUSE_NO":"７５號","E_COORD97":166671.87,"N_COORD97":2539982.5600000001,"ADDRESS":"明興路７５號","OBJECTID":536127},"geometry":{"x":166671.87000000104,"y":2539982.5600000005}},{"attributes":{"ID":536155,"DIS_CODE":0,"TOWNNAME":"南區","LI":"彰南里","LIN":"19鄰","STREET":"新樂路","SECT":" ","MAREA":" ","LANE":" ","ALLEY":" ","HOUSE_NO":"３６號","E_COORD97":165596.28,"N_COORD97":2541722.1000000001,"ADDRESS":"新樂路３６號","OBJECTID":536128},"geometry":{"x":165596.28000000119,"y":2541722.1000000015}},{"attributes":{"ID":536156,"DIS_CODE":0,"TOWNNAME":"南區","LI":"彰南里","LIN":"19鄰","STREET":"新樂路","SECT":" ","MAREA":" ","LANE":" ","ALLEY":" ","HOUSE_NO":"４６號之１","E_COORD97":165541.14000000001,"N_COORD97":2541520.5099999998,"ADDRESS":"新樂路４６號之１","OBJECTID":536129},"geometry":{"x":165541.1400000006,"y":2541520.5099999998}},{"attributes":{"ID":536157,"DIS_CODE":0,"TOWNNAME":"南區","LI":"彰南里","LIN":"19鄰","STREET":"新樂路","SECT":" ","MAREA":" ","LANE":" ","ALLEY":" ","HOUSE_NO":"４８號","E_COORD97":165533.20000000001,"N_COORD97":2541457.9199999999,"ADDRESS":"新樂路４８號","OBJECTID":536130},"geometry":{"x":165533.20000000019,"y":2541457.9199999999}},{"attributes":{"ID":536158,"DIS_CODE":0,"TOWNNAME":"南區","LI":"彰南里","LIN":"19鄰","STREET":"新樂路","SECT":" ","MAREA":" ","LANE":" ","ALLEY":" ","HOUSE_NO":"５０號","E_COORD97":165537.60999999999,"N_COORD97":2541426.1800000002,"ADDRESS":"新樂路５０號","OBJECTID":536131},"geometry":{"x":165537.61000000034,"y":2541426.1800000016}},{"attributes":{"ID":536159,"DIS_CODE":0,"TOWNNAME":"南區","LI":"彰南里","LIN":"19鄰","STREET":"新樂路","SECT":" ","MAREA":" ","LANE":" ","ALLEY":" ","HOUSE_NO":"５２號","E_COORD97":165525.26000000001,"N_COORD97":2541397.0899999999,"ADDRESS":"新樂路５２號","OBJECTID":536132},"geometry":{"x":165525.26000000071,"y":2541397.0900000017}},{"attributes":{"ID":536160,"DIS_CODE":0,"TOWNNAME":"南區","LI":"彰南里","LIN":"19鄰","STREET":"新樂路","SECT":" ","MAREA":" ","LANE":" ","ALLEY":" ","HOUSE_NO":"５６號","E_COORD97":165523.64999999999,"N_COORD97":2541329.4900000002,"ADDRESS":"新樂路５６號","OBJECTID":536133},"geometry":{"x":165523.65000000037,"y":2541329.4900000021}},{"attributes":{"ID":536161,"DIS_CODE":0,"TOWNNAME":"南區","LI":"彰南里","LIN":"19鄰","STREET":"新樂路","SECT":" ","MAREA":" ","LANE":" ","ALLEY":" ","HOUSE_NO":"５８號","E_COORD97":165508.67999999999,"N_COORD97":2541301.29,"ADDRESS":"新樂路５８號","OBJECTID":536134},"geometry":{"x":165508.68000000063,"y":2541301.2899999991}},{"attributes":{"ID":536162,"DIS_CODE":0,"TOWNNAME":"南區","LI":"彰南里","LIN":"19鄰","STREET":"新樂路","SECT":" ","MAREA":" ","LANE":" ","ALLEY":" ","HOUSE_NO":"６０號","E_COORD97":165521.35000000001,"N_COORD97":2541265.3599999999,"ADDRESS":"新樂路６０號","OBJECTID":536135},"geometry":{"x":165521.34999999963,"y":2541265.3600000013}},{"attributes":{"ID":536163,"DIS_CODE":0,"TOWNNAME":"南區","LI":"彰南里","LIN":"19鄰","STREET":"新樂路","SECT":" ","MAREA":" ","LANE":" ","ALLEY":" ","HOUSE_NO":"６４號","E_COORD97":165460.88,"N_COORD97":2541223.3500000001,"ADDRESS":"新樂路６４號","OBJECTID":536136},"geometry":{"x":165460.87999999896,"y":2541223.3499999996}},{"attributes":{"ID":536164,"DIS_CODE":0,"TOWNNAME":"南區","LI":"彰南里","LIN":"19鄰","STREET":"新樂路","SECT":" ","MAREA":" ","LANE":" ","ALLEY":" ","HOUSE_NO":"６６號","E_COORD97":165414.23000000001,"N_COORD97":2541222.7799999998,"ADDRESS":"新樂路６６號","OBJECTID":536137},"geometry":{"x":165414.23000000138,"y":2541222.7800000012}},{"attributes":{"ID":536165,"DIS_CODE":0,"TOWNNAME":"南區","LI":"彰南里","LIN":"19鄰","STREET":"新樂路","SECT":" ","MAREA":" ","LANE":" ","ALLEY":" ","HOUSE_NO":"６８號","E_COORD97":165416.53,"N_COORD97":2541184.7999999998,"ADDRESS":"新樂路６８號","OBJECTID":536138},"geometry":{"x":165416.53000000119,"y":2541184.8000000007}},{"attributes":{"ID":536166,"DIS_CODE":0,"TOWNNAME":"南區","LI":"彰南里","LIN":"19鄰","STREET":"新樂路","SECT":" ","MAREA":" ","LANE":" ","ALLEY":" ","HOUSE_NO":"６８號之２","E_COORD97":165397.51999999999,"N_COORD97":2541179.0499999998,"ADDRESS":"新樂路６８號之２","OBJECTID":536139},"geometry":{"x":165397.52000000048,"y":2541179.0500000007}},{"attributes":{"ID":536167,"DIS_CODE":0,"TOWNNAME":"南區","LI":"彰南里","LIN":"19鄰","STREET":"新樂路","SECT":" ","MAREA":" ","LANE":" ","ALLEY":" ","HOUSE_NO":"６號","E_COORD97":165690.12,"N_COORD97":2542215.6499999999,"ADDRESS":"新樂路６號","OBJECTID":536140},"geometry":{"x":165690.12000000197,"y":2542215.6500000004}},{"attributes":{"ID":536168,"DIS_CODE":0,"TOWNNAME":"南區","LI":"彰南里","LIN":"19鄰","STREET":"新樂路","SECT":" ","MAREA":" ","LANE":" ","ALLEY":" ","HOUSE_NO":"７２號之１","E_COORD97":165331.19,"N_COORD97":2541159.2400000002,"ADDRESS":"新樂路７２號之１","OBJECTID":536141},"geometry":{"x":165331.19000000134,"y":2541159.2400000021}},{"attributes":{"ID":536169,"DIS_CODE":0,"TOWNNAME":"南區","LI":"建南里","LIN":"19鄰","STREET":"明興路","SECT":" ","MAREA":" ","LANE":" ","ALLEY":" ","HOUSE_NO":"７９號","E_COORD97":166650.95000000001,"N_COORD97":2539953.6099999999,"ADDRESS":"明興路７９號","OBJECTID":536142},"geometry":{"x":166650.95000000205,"y":2539953.6099999994}},{"attributes":{"ID":536170,"DIS_CODE":0,"TOWNNAME":"南區","LI":"廣州里","LIN":"19鄰","STREET":"福吉四街","SECT":" ","MAREA":" ","LANE":" ","ALLEY":" ","HOUSE_NO":"６８號","E_COORD97":167194.5,"N_COORD97":2542726.02,"ADDRESS":"福吉四街６８號","OBJECTID":536143},"geometry":{"x":167194.50000000186,"y":2542726.0200000014}},{"attributes":{"ID":536171,"DIS_CODE":0,"TOWNNAME":"南區","LI":"彰南里","LIN":"19鄰","STREET":"新樂路","SECT":" ","MAREA":" ","LANE":" ","ALLEY":" ","HOUSE_NO":"３６號之２","E_COORD97":165587.25,"N_COORD97":2541685.6099999999,"ADDRESS":"新樂路３６號之２","OBJECTID":536144},"geometry":{"x":165587.25,"y":2541685.6099999994}},{"attributes":{"ID":536172,"DIS_CODE":0,"TOWNNAME":"南區","LI":"建南里","LIN":"19鄰","STREET":"明興路","SECT":" ","MAREA":" ","LANE":" ","ALLEY":" ","HOUSE_NO":"９５號","E_COORD97":166641.73999999999,"N_COORD97":2539920.3599999999,"ADDRESS":"明興路９５號","OBJECTID":536145},"geometry":{"x":166641.74000000022,"y":2539920.3600000013}},{"attributes":{"ID":536173,"DIS_CODE":0,"TOWNNAME":"南區","LI":"廣州里","LIN":"19鄰","STREET":"褔吉三街","SECT":" ","MAREA":" ","LANE":" ","ALLEY":" ","HOUSE_NO":"５５號","E_COORD97":167244.14999999999,"N_COORD97":2542715.8999999999,"ADDRESS":"褔吉三街５５號","OBJECTID":536146},"geometry":{"x":167244.15000000037,"y":2542715.9000000004}},{"attributes":{"ID":536174,"DIS_CODE":0,"TOWNNAME":"南區","LI":"建南里","LIN":"19鄰","STREET":"明興路","SECT":" ","MAREA":" ","LANE":" ","ALLEY":" ","HOUSE_NO":"６７號","E_COORD97":166687.75,"N_COORD97":2539996.9700000002,"ADDRESS":"明興路６７號","OBJECTID":536147},"geometry":{"x":166687.75000000186,"y":2539996.9700000007}},{"attributes":{"ID":536175,"DIS_CODE":0,"TOWNNAME":"南區","LI":"彰南里","LIN":"19鄰","STREET":"新樂路","SECT":" ","MAREA":" ","LANE":" ","ALLEY":" ","HOUSE_NO":"２號之３","E_COORD97":165694.62,"N_COORD97":2542273.3700000001,"ADDRESS":"新樂路２號之３","OBJECTID":536148},"geometry":{"x":165694.62000000011,"y":2542273.3700000048}},{"attributes":{"ID":536176,"DIS_CODE":0,"TOWNNAME":"南區","LI":"建南里","LIN":"19鄰","STREET":"明興路","SECT":" ","MAREA":" ","LANE":" ","ALLEY":" ","HOUSE_NO":"７１號","E_COORD97":166681.01000000001,"N_COORD97":2539991.9199999999,"ADDRESS":"明興路７１號","OBJECTID":536149},"geometry":{"x":166681.01000000071,"y":2539991.9199999999}},{"attributes":{"ID":536177,"DIS_CODE":0,"TOWNNAME":"南區","LI":"建南里","LIN":"19鄰","STREET":"明興路","SECT":" ","MAREA":" ","LANE":" ","ALLEY":" ","HOUSE_NO":"９７號","E_COORD97":166640.75,"N_COORD97":2539915.4100000001,"ADDRESS":"明興路９７號","OBJECTID":536150},"geometry":{"x":166640.75000000093,"y":2539915.4100000001}},{"attributes":{"ID":536178,"DIS_CODE":0,"TOWNNAME":"南區","LI":"彰南里","LIN":"19鄰","STREET":"新樂路","SECT":" ","MAREA":" ","LANE":" ","ALLEY":" ","HOUSE_NO":"４６號","E_COORD97":165533.20000000001,"N_COORD97":2541488.77,"ADDRESS":"新樂路４６號","OBJECTID":536151},"geometry":{"x":165533.20000000019,"y":2541488.7699999996}},{"attributes":{"ID":536179,"DIS_CODE":0,"TOWNNAME":"南區","LI":"建南里","LIN":"19鄰","STREET":"明興路","SECT":" ","MAREA":" ","LANE":" ","ALLEY":" ","HOUSE_NO":"１０１號","E_COORD97":166633.92999999999,"N_COORD97":2539900.48,"ADDRESS":"明興路１０１號","OBJECTID":536152},"geometry":{"x":166633.93000000063,"y":2539900.4800000004}},{"attributes":{"ID":536180,"DIS_CODE":0,"TOWNNAME":"南區","LI":"建南里","LIN":"19鄰","STREET":"明興路","SECT":" ","MAREA":" ","LANE":" ","ALLEY":" ","HOUSE_NO":"１８５號","E_COORD97":166616.608783,"N_COORD97":2539839.3804100002,"ADDRESS":"明興路１８５號","OBJECTID":536153},"geometry":{"x":166616.60878300108,"y":2539839.380412003}},{"attributes":{"ID":536181,"DIS_CODE":0,"TOWNNAME":"南區","LI":"建南里","LIN":"19鄰","STREET":"明興路","SECT":" ","MAREA":" ","LANE":" ","ALLEY":" ","HOUSE_NO":"６１號","E_COORD97":166697.13,"N_COORD97":2540008.2599999998,"ADDRESS":"明興路６１號","OBJECTID":536154},"geometry":{"x":166697.13000000082,"y":2540008.2600000035}},{"attributes":{"ID":536182,"DIS_CODE":0,"TOWNNAME":"南區","LI":"建南里","LIN":"19鄰","STREET":"明興路","SECT":" ","MAREA":" ","LANE":" ","ALLEY":" ","HOUSE_NO":"６３號","E_COORD97":166694,"N_COORD97":2540003.6899999999,"ADDRESS":"明興路６３號","OBJECTID":536155},"geometry":{"x":166694,"y":2540003.6899999995}},{"attributes":{"ID":536183,"DIS_CODE":0,"TOWNNAME":"南區","LI":"建南里","LIN":"19鄰","STREET":"明興路","SECT":" ","MAREA":" ","LANE":" ","ALLEY":" ","HOUSE_NO":"６５號","E_COORD97":166691.35000000001,"N_COORD97":2540000.0899999999,"ADDRESS":"明興路６５號","OBJECTID":536156},"geometry":{"x":166691.34999999963,"y":2540000.0900000017}},{"attributes":{"ID":536184,"DIS_CODE":0,"TOWNNAME":"南區","LI":"建南里","LIN":"19鄰","STREET":"明興路","SECT":" ","MAREA":" ","LANE":" ","ALLEY":" ","HOUSE_NO":"８１號","E_COORD97":166649.39999999999,"N_COORD97":2539949.3700000001,"ADDRESS":"明興路８１號","OBJECTID":536157},"geometry":{"x":166649.40000000037,"y":2539949.370000001}},{"attributes":{"ID":536185,"DIS_CODE":0,"TOWNNAME":"南區","LI":"建南里","LIN":"19鄰","STREET":"明興路","SECT":" ","MAREA":" ","LANE":" ","ALLEY":" ","HOUSE_NO":"８３號","E_COORD97":166648.54999999999,"N_COORD97":2539945.2599999998,"ADDRESS":"明興路８３號","OBJECTID":536158},"geometry":{"x":166648.55000000075,"y":2539945.2600000016}},{"attributes":{"ID":536186,"DIS_CODE":0,"TOWNNAME":"南區","LI":"建南里","LIN":"19鄰","STREET":"明興路","SECT":" ","MAREA":" ","LANE":" ","ALLEY":" ","HOUSE_NO":"８５號","E_COORD97":166647.54999999999,"N_COORD97":2539942.1499999999,"ADDRESS":"明興路８５號","OBJECTID":536159},"geometry":{"x":166647.54999999981,"y":2539942.1500000022}},{"attributes":{"ID":536187,"DIS_CODE":0,"TOWNNAME":"南區","LI":"建南里","LIN":"19鄰","STREET":"明興路","SECT":" ","MAREA":" ","LANE":" ","ALLEY":" ","HOUSE_NO":"８７號","E_COORD97":166645.42999999999,"N_COORD97":2539937.48,"ADDRESS":"明興路８７號","OBJECTID":536160},"geometry":{"x":166645.43000000156,"y":2539937.4800000023}},{"attributes":{"ID":536188,"DIS_CODE":0,"TOWNNAME":"南區","LI":"建南里","LIN":"19鄰","STREET":"明興路","SECT":" ","MAREA":" ","LANE":" ","ALLEY":" ","HOUSE_NO":"８９號","E_COORD97":166645.98999999999,"N_COORD97":2539933.1000000001,"ADDRESS":"明興路８９號","OBJECTID":536161},"geometry":{"x":166645.99000000115,"y":2539933.0999999996}},{"attributes":{"ID":536189,"DIS_CODE":0,"TOWNNAME":"南區","LI":"建南里","LIN":"19鄰","STREET":"明興路","SECT":" ","MAREA":" ","LANE":" ","ALLEY":" ","HOUSE_NO":"９１號","E_COORD97":166643.87,"N_COORD97":2539928.8500000001,"ADDRESS":"明興路９１號","OBJECTID":536162},"geometry":{"x":166643.87000000011,"y":2539928.8499999996}},{"attributes":{"ID":536190,"DIS_CODE":0,"TOWNNAME":"南區","LI":"建南里","LIN":"19鄰","STREET":"明興路","SECT":" ","MAREA":" ","LANE":" ","ALLEY":" ","HOUSE_NO":"９３號","E_COORD97":166643.44,"N_COORD97":2539924.75,"ADDRESS":"明興路９３號","OBJECTID":536163},"geometry":{"x":166643.44000000134,"y":2539924.7500000019}},{"attributes":{"ID":536191,"DIS_CODE":0,"TOWNNAME":"歸仁區","LI":"許厝里","LIN":"19鄰","STREET":"仁愛北街","SECT":" ","MAREA":" ","LANE":" ","ALLEY":" ","HOUSE_NO":"６６號","E_COORD97":178299.92999999999,"N_COORD97":2540875.25,"ADDRESS":"仁愛北街６６號","OBJECTID":536164},"geometry":{"x":178299.93000000156,"y":2540875.25}},{"attributes":{"ID":536192,"DIS_CODE":0,"TOWNNAME":"歸仁區","LI":"看西里","LIN":"19鄰","STREET":"成功路","SECT":"二段","MAREA":" ","LANE":" ","ALLEY":" ","HOUSE_NO":"３８號","E_COORD97":178146.89000000001,"N_COORD97":2539874.0299999998,"ADDRESS":"成功路二段３８號","OBJECTID":536165},"geometry":{"x":178146.88999999966,"y":2539874.0300000012}},{"attributes":{"ID":536193,"DIS_CODE":0,"TOWNNAME":"玉井區","LI":"玉井里","LIN":"19鄰","STREET":"太子街","SECT":" ","MAREA":" ","LANE":" ","ALLEY":" ","HOUSE_NO":"５４號","E_COORD97":195048.39000000001,"N_COORD97":2557973.25,"ADDRESS":"太子街５４號","OBJECTID":536166},"geometry":{"x":195048.38999999966,"y":2557973.25}},{"attributes":{"ID":536194,"DIS_CODE":0,"TOWNNAME":"歸仁區","LI":"南興里","LIN":"19鄰","STREET":"南興一街","SECT":" ","MAREA":" ","LANE":" ","ALLEY":" ","HOUSE_NO":"３４號","E_COORD97":175706.70999999999,"N_COORD97":2541331.25,"ADDRESS":"南興一街３４號","OBJECTID":536167},"geometry":{"x":175706.71000000089,"y":2541331.2500000019}},{"attributes":{"ID":536195,"DIS_CODE":0,"TOWNNAME":"歸仁區","LI":"南保里","LIN":"19鄰","STREET":"民權六街","SECT":" ","MAREA":" ","LANE":" ","ALLEY":" ","HOUSE_NO":"１０號","E_COORD97":176969.69,"N_COORD97":2541105.29,"ADDRESS":"民權六街１０號","OBJECTID":536168},"geometry":{"x":176969.68999999948,"y":2541105.2899999991}},{"attributes":{"ID":536196,"DIS_CODE":0,"TOWNNAME":"歸仁區","LI":"文化里","LIN":"19鄰","STREET":"文化北二街","SECT":" ","MAREA":" ","LANE":" ","ALLEY":" ","HOUSE_NO":"４２號","E_COORD97":177174.70999999999,"N_COORD97":2541473.3399999999,"ADDRESS":"文化北二街４２號","OBJECTID":536169},"geometry":{"x":177174.71000000089,"y":2541473.3400000017}},{"attributes":{"ID":536197,"DIS_CODE":0,"TOWNNAME":"歸仁區","LI":"文化里","LIN":"19鄰","STREET":"文化北二街","SECT":" ","MAREA":" ","LANE":" ","ALLEY":" ","HOUSE_NO":"４６號","E_COORD97":177170.60999999999,"N_COORD97":2541473.3399999999,"ADDRESS":"文化北二街４６號","OBJECTID":536170},"geometry":{"x":177170.61000000127,"y":2541473.3400000017}},{"attributes":{"ID":536198,"DIS_CODE":0,"TOWNNAME":"歸仁區","LI":"文化里","LIN":"19鄰","STREET":"文化北二街","SECT":" ","MAREA":" ","LANE":" ","ALLEY":" ","HOUSE_NO":"３４號","E_COORD97":177194.20999999999,"N_COORD97":2541474.3399999999,"ADDRESS":"文化北二街３４號","OBJECTID":536171},"geometry":{"x":177194.20999999996,"y":2541474.3399999999}},{"attributes":{"ID":536199,"DIS_CODE":0,"TOWNNAME":"歸仁區","LI":"文化里","LIN":"19鄰","STREET":"文化北二街","SECT":" ","MAREA":" ","LANE":" ","ALLEY":" ","HOUSE_NO":"３８號","E_COORD97":177186.01000000001,"N_COORD97":2541474.3399999999,"ADDRESS":"文化北二街３８號","OBJECTID":536172},"geometry":{"x":177186.01000000071,"y":2541474.3399999999}},{"attributes":{"ID":536200,"DIS_CODE":0,"TOWNNAME":"歸仁區","LI":"文化里","LIN":"19鄰","STREET":"文化北二街","SECT":" ","MAREA":" ","LANE":" ","ALLEY":" ","HOUSE_NO":"５８號","E_COORD97":177146.01000000001,"N_COORD97":2541474.3399999999,"ADDRESS":"文化北二街５８號","OBJECTID":536173},"geometry":{"x":177146.00999999978,"y":2541474.3399999999}},{"attributes":{"ID":536201,"DIS_CODE":0,"TOWNNAME":"歸仁區","LI":"文化里","LIN":"19鄰","STREET":"文化北二街","SECT":" ","MAREA":" ","LANE":" ","ALLEY":" ","HOUSE_NO":"５４號","E_COORD97":177154.20999999999,"N_COORD97":2541474.3399999999,"ADDRESS":"文化北二街５４號","OBJECTID":536174},"geometry":{"x":177154.21000000089,"y":2541474.3399999999}},{"attributes":{"ID":536202,"DIS_CODE":0,"TOWNNAME":"歸仁區","LI":"南興里","LIN":"19鄰","STREET":"南興一街","SECT":" ","MAREA":" ","LANE":" ","ALLEY":" ","HOUSE_NO":"３８號","E_COORD97":175721.79000000001,"N_COORD97":2541332.25,"ADDRESS":"南興一街３８號","OBJECTID":536175},"geometry":{"x":175721.79000000097,"y":2541332.2500000019}},{"attributes":{"ID":536203,"DIS_CODE":0,"TOWNNAME":"歸仁區","LI":"文化里","LIN":"19鄰","STREET":"文化北二街","SECT":" ","MAREA":" ","LANE":" ","ALLEY":" ","HOUSE_NO":"３２號","E_COORD97":177198.31,"N_COORD97":2541473.3399999999,"ADDRESS":"文化北二街３２號","OBJECTID":536176},"geometry":{"x":177198.30999999959,"y":2541473.3400000017}},{"attributes":{"ID":536204,"DIS_CODE":0,"TOWNNAME":"歸仁區","LI":"文化里","LIN":"19鄰","STREET":"文化北二街","SECT":" ","MAREA":" ","LANE":" ","ALLEY":" ","HOUSE_NO":"６８號","E_COORD97":177121.41,"N_COORD97":2541477.3399999999,"ADDRESS":"文化北二街６８號","OBJECTID":536177},"geometry":{"x":177121.41000000108,"y":2541477.3399999999}},{"attributes":{"ID":536205,"DIS_CODE":0,"TOWNNAME":"歸仁區","LI":"文化里","LIN":"19鄰","STREET":"文化北二街","SECT":" ","MAREA":" ","LANE":" ","ALLEY":" ","HOUSE_NO":"６６號","E_COORD97":177125.51000000001,"N_COORD97":2541477.3399999999,"ADDRESS":"文化北二街６６號","OBJECTID":536178},"geometry":{"x":177125.50999999978,"y":2541477.3399999999}},{"attributes":{"ID":536206,"DIS_CODE":0,"TOWNNAME":"歸仁區","LI":"文化里","LIN":"19鄰","STREET":"文化北二街","SECT":" ","MAREA":" ","LANE":" ","ALLEY":" ","HOUSE_NO":"３０號","E_COORD97":177202.41,"N_COORD97":2541473.3399999999,"ADDRESS":"文化北二街３０號","OBJECTID":536179},"geometry":{"x":177202.41000000108,"y":2541473.3400000017}},{"attributes":{"ID":536207,"DIS_CODE":0,"TOWNNAME":"歸仁區","LI":"文化里","LIN":"19鄰","STREET":"文化北二街","SECT":" ","MAREA":" ","LANE":" ","ALLEY":" ","HOUSE_NO":"２４號","E_COORD97":177213.60999999999,"N_COORD97":2541472.3399999999,"ADDRESS":"文化北二街２４號","OBJECTID":536180},"geometry":{"x":177213.61000000034,"y":2541472.3400000036}},{"attributes":{"ID":536208,"DIS_CODE":0,"TOWNNAME":"歸仁區","LI":"文化里","LIN":"19鄰","STREET":"文化北二街","SECT":" ","MAREA":" ","LANE":" ","ALLEY":" ","HOUSE_NO":"５２號","E_COORD97":177159.31,"N_COORD97":2541474.3399999999,"ADDRESS":"文化北二街５２號","OBJECTID":536181},"geometry":{"x":177159.30999999959,"y":2541474.3399999999}},{"attributes":{"ID":536209,"DIS_CODE":0,"TOWNNAME":"歸仁區","LI":"文化里","LIN":"19鄰","STREET":"文化北二街","SECT":" ","MAREA":" ","LANE":" ","ALLEY":" ","HOUSE_NO":"２８號","E_COORD97":177205.41,"N_COORD97":2541473.3399999999,"ADDRESS":"文化北二街２８號","OBJECTID":536182},"geometry":{"x":177205.41000000201,"y":2541473.3400000017}},{"attributes":{"ID":536210,"DIS_CODE":0,"TOWNNAME":"歸仁區","LI":"文化里","LIN":"19鄰","STREET":"文化北二街","SECT":" ","MAREA":" ","LANE":" ","ALLEY":" ","HOUSE_NO":"２０號","E_COORD97":177221.81,"N_COORD97":2541472.3399999999,"ADDRESS":"文化北二街２０號","OBJECTID":536183},"geometry":{"x":177221.80999999959,"y":2541472.3400000036}},{"attributes":{"ID":536211,"DIS_CODE":0,"TOWNNAME":"歸仁區","LI":"六甲里","LIN":"19鄰","STREET":"六甲三街","SECT":" ","MAREA":" ","LANE":" ","ALLEY":" ","HOUSE_NO":"１２８號","E_COORD97":175366.22,"N_COORD97":2539046.25,"ADDRESS":"六甲三街１２８號","OBJECTID":536184},"geometry":{"x":175366.21999999974,"y":2539046.2500000019}},{"attributes":{"ID":536212,"DIS_CODE":0,"TOWNNAME":"歸仁區","LI":"文化里","LIN":"19鄰","STREET":"文化北二街","SECT":" ","MAREA":" ","LANE":" ","ALLEY":" ","HOUSE_NO":"５６號","E_COORD97":177150.10999999999,"N_COORD97":2541474.3399999999,"ADDRESS":"文化北二街５６號","OBJECTID":536185},"geometry":{"x":177150.11000000127,"y":2541474.3399999999}},{"attributes":{"ID":536213,"DIS_CODE":0,"TOWNNAME":"歸仁區","LI":"文化里","LIN":"19鄰","STREET":"文化北二街","SECT":" ","MAREA":" ","LANE":" ","ALLEY":" ","HOUSE_NO":"５０號","E_COORD97":177162.41,"N_COORD97":2541474.3399999999,"ADDRESS":"文化北二街５０號","OBJECTID":536186},"geometry":{"x":177162.41000000015,"y":2541474.3399999999}},{"attributes":{"ID":536214,"DIS_CODE":0,"TOWNNAME":"歸仁區","LI":"文化里","LIN":"19鄰","STREET":"文化北二街","SECT":" ","MAREA":" ","LANE":" ","ALLEY":" ","HOUSE_NO":"２６號","E_COORD97":177209.60999999999,"N_COORD97":2541473.3399999999,"ADDRESS":"文化北二街２６號","OBJECTID":536187},"geometry":{"x":177209.61000000127,"y":2541473.3400000017}},{"attributes":{"ID":536215,"DIS_CODE":0,"TOWNNAME":"歸仁區","LI":"文化里","LIN":"19鄰","STREET":"文化北二街","SECT":" ","MAREA":" ","LANE":" ","ALLEY":" ","HOUSE_NO":"４０號","E_COORD97":177182.91,"N_COORD97":2541474.3399999999,"ADDRESS":"文化北二街４０號","OBJECTID":536188},"geometry":{"x":177182.91000000015,"y":2541474.3399999999}},{"attributes":{"ID":536216,"DIS_CODE":0,"TOWNNAME":"玉井區","LI":"玉井里","LIN":"19鄰","STREET":"中正路","SECT":" ","MAREA":" ","LANE":" ","ALLEY":" ","HOUSE_NO":"７２號","E_COORD97":194791.39999999999,"N_COORD97":2558136.25,"ADDRESS":"中正路７２號","OBJECTID":536189},"geometry":{"x":194791.40000000037,"y":2558136.25}},{"attributes":{"ID":536217,"DIS_CODE":0,"TOWNNAME":"歸仁區","LI":"文化里","LIN":"19鄰","STREET":"文化北二街","SECT":" ","MAREA":" ","LANE":" ","ALLEY":" ","HOUSE_NO":"２２號","E_COORD97":177217.81,"N_COORD97":2541472.3399999999,"ADDRESS":"文化北二街２２號","OBJECTID":536190},"geometry":{"x":177217.81000000052,"y":2541472.3400000036}},{"attributes":{"ID":536218,"DIS_CODE":0,"TOWNNAME":"南區","LI":"大林里","LIN":"19鄰","STREET":"大林路","SECT":" ","MAREA":" ","LANE":" ","ALLEY":" ","HOUSE_NO":"１０９號地下室","E_COORD97":169146.59,"N_COORD97":2541775.1299999999,"ADDRESS":"大林路１０９號地下室","OBJECTID":536191},"geometry":{"x":169146.59000000171,"y":2541775.1300000008}},{"attributes":{"ID":536219,"DIS_CODE":0,"TOWNNAME":"新化區","LI":"太平里","LIN":"10鄰","STREET":"中正路","SECT":" ","MAREA":" ","LANE":" ","ALLEY":" ","HOUSE_NO":"８６１號","E_COORD97":178598.70999999999,"N_COORD97":2549532.25,"ADDRESS":"中正路８６１號","OBJECTID":536192},"geometry":{"x":178598.71000000089,"y":2549532.2500000019}},{"attributes":{"ID":536220,"DIS_CODE":0,"TOWNNAME":"玉井區","LI":"玉田里","LIN":"19鄰","STREET":"民族路","SECT":" ","MAREA":" ","LANE":" ","ALLEY":" ","HOUSE_NO":"６０號","E_COORD97":195114.73999999999,"N_COORD97":2558094.2799999998,"ADDRESS":"民族路６０號","OBJECTID":536193},"geometry":{"x":195114.74000000115,"y":2558094.2799999993}},{"attributes":{"ID":536221,"DIS_CODE":0,"TOWNNAME":"玉井區","LI":"玉田里","LIN":"19鄰","STREET":"民族路","SECT":" ","MAREA":" ","LANE":" ","ALLEY":" ","HOUSE_NO":"７２號","E_COORD97":195131.04000000001,"N_COORD97":2558065.2799999998,"ADDRESS":"民族路７２號","OBJECTID":536194},"geometry":{"x":195131.0400000019,"y":2558065.2800000012}},{"attributes":{"ID":536222,"DIS_CODE":0,"TOWNNAME":"玉井區","LI":"玉田里","LIN":"19鄰","STREET":"民主街","SECT":" ","MAREA":" ","LANE":" ","ALLEY":" ","HOUSE_NO":"８０號","E_COORD97":195074.53,"N_COORD97":2558094.2799999998,"ADDRESS":"民主街８０號","OBJECTID":536195},"geometry":{"x":195074.53000000026,"y":2558094.2799999993}},{"attributes":{"ID":536223,"DIS_CODE":0,"TOWNNAME":"玉井區","LI":"玉田里","LIN":"19鄰","STREET":"民族路","SECT":" ","MAREA":" ","LANE":" ","ALLEY":" ","HOUSE_NO":"７４號","E_COORD97":195131.04000000001,"N_COORD97":2558059.2799999998,"ADDRESS":"民族路７４號","OBJECTID":536196},"geometry":{"x":195131.0400000019,"y":2558059.2800000012}},{"attributes":{"ID":536224,"DIS_CODE":0,"TOWNNAME":"玉井區","LI":"玉田里","LIN":"19鄰","STREET":"民族路","SECT":" ","MAREA":" ","LANE":" ","ALLEY":" ","HOUSE_NO":"７８號","E_COORD97":195085.82999999999,"N_COORD97":2557983.2799999998,"ADDRESS":"民族路７８號","OBJECTID":536197},"geometry":{"x":195085.83000000007,"y":2557983.2800000031}},{"attributes":{"ID":536225,"DIS_CODE":0,"TOWNNAME":"玉井區","LI":"玉田里","LIN":"19鄰","STREET":"民族路","SECT":" ","MAREA":" ","LANE":" ","ALLEY":" ","HOUSE_NO":"６２號","E_COORD97":195118.84,"N_COORD97":2558094.2799999998,"ADDRESS":"民族路６２號","OBJECTID":536198},"geometry":{"x":195118.84000000078,"y":2558094.2799999993}},{"attributes":{"ID":536226,"DIS_CODE":0,"TOWNNAME":"玉井區","LI":"玉田里","LIN":"19鄰","STREET":"民族路","SECT":" ","MAREA":" ","LANE":" ","ALLEY":" ","HOUSE_NO":"７０號","E_COORD97":195134.32999999999,"N_COORD97":2558074.2799999998,"ADDRESS":"民族路７０號","OBJECTID":536199},"geometry":{"x":195134.33000000101,"y":2558074.2799999993}},{"attributes":{"ID":536227,"DIS_CODE":0,"TOWNNAME":"玉井區","LI":"玉田里","LIN":"19鄰","STREET":"民族路","SECT":" ","MAREA":" ","LANE":" ","ALLEY":" ","HOUSE_NO":"６６號","E_COORD97":195124.42999999999,"N_COORD97":2558094.2799999998,"ADDRESS":"民族路６６號","OBJECTID":536200},"geometry":{"x":195124.4299999997,"y":2558094.2799999993}}]}