{"displayFieldName":"TOWNNAME","fieldAliases":{"ID":"ID","DIS_CODE":"DIS_CODE","TOWNNAME":"TOWNNAME","LI":"LI","LIN":"LIN","STREET":"STREET","SECT":"SECT","MAREA":"MAREA","LANE":"LANE","ALLEY":"ALLEY","HOUSE_NO":"HOUSE_NO","E_COORD97":"E_COORD97","N_COORD97":"N_COORD97","ADDRESS":"ADDRESS","OBJECTID":"OBJECTID"},"geometryType":"esriGeometryPoint","spatialReference":{"wkid":102443,"latestWkid":3826},"fields":[{"name":"ID","type":"esriFieldTypeDouble","alias":"ID"},{"name":"DIS_CODE","type":"esriFieldTypeInteger","alias":"DIS_CODE"},{"name":"TOWNNAME","type":"esriFieldTypeString","alias":"TOWNNAME","length":8},{"name":"LI","type":"esriFieldTypeString","alias":"LI","length":8},{"name":"LIN","type":"esriFieldTypeString","alias":"LIN","length":12},{"name":"STREET","type":"esriFieldTypeString","alias":"STREET","length":20},{"name":"SECT","type":"esriFieldTypeString","alias":"SECT","length":8},{"name":"MAREA","type":"esriFieldTypeString","alias":"MAREA","length":12},{"name":"LANE","type":"esriFieldTypeString","alias":"LANE","length":10},{"name":"ALLEY","type":"esriFieldTypeString","alias":"ALLEY","length":10},{"name":"HOUSE_NO","type":"esriFieldTypeString","alias":"HOUSE_NO","length":20},{"name":"E_COORD97","type":"esriFieldTypeDouble","alias":"E_COORD97"},{"name":"N_COORD97","type":"esriFieldTypeDouble","alias":"N_COORD97"},{"name":"ADDRESS","type":"esriFieldTypeString","alias":"ADDRESS","length":50},{"name":"OBJECTID","type":"esriFieldTypeOID","alias":"OBJECTID"}],"features":[{"attributes":{"ID":568228,"DIS_CODE":0,"TOWNNAME":"永康區","LI":"大橋里","LIN":"28鄰","STREET":"中華路","SECT":" ","MAREA":" ","LANE":" ","ALLEY":" ","HOUSE_NO":"６７６號","E_COORD97":171051.42999999999,"N_COORD97":2546190.1600000001,"ADDRESS":"中華路６７６號","OBJECTID":568201},"geometry":{"x":171051.43000000063,"y":2546190.160000002}},{"attributes":{"ID":568229,"DIS_CODE":0,"TOWNNAME":"永康區","LI":"大橋里","LIN":"28鄰","STREET":"中華路","SECT":" ","MAREA":" ","LANE":" ","ALLEY":" ","HOUSE_NO":"７４４號","E_COORD97":170923.17999999999,"N_COORD97":2546366.9900000002,"ADDRESS":"中華路７４４號","OBJECTID":568202},"geometry":{"x":170923.18000000063,"y":2546366.9900000002}},{"attributes":{"ID":568230,"DIS_CODE":0,"TOWNNAME":"永康區","LI":"大橋里","LIN":"28鄰","STREET":"中華路","SECT":" ","MAREA":" ","LANE":" ","ALLEY":" ","HOUSE_NO":"７５８號","E_COORD97":170912.31,"N_COORD97":2546381.2400000002,"ADDRESS":"中華路７５８號","OBJECTID":568203},"geometry":{"x":170912.30999999959,"y":2546381.2400000002}},{"attributes":{"ID":568231,"DIS_CODE":0,"TOWNNAME":"永康區","LI":"大橋里","LIN":"28鄰","STREET":"中華路","SECT":" ","MAREA":" ","LANE":" ","ALLEY":" ","HOUSE_NO":"７２４號","E_COORD97":170955.89000000001,"N_COORD97":2546333.52,"ADDRESS":"中華路７２４號","OBJECTID":568204},"geometry":{"x":170955.88999999966,"y":2546333.5200000014}},{"attributes":{"ID":568232,"DIS_CODE":0,"TOWNNAME":"永康區","LI":"大橋里","LIN":"28鄰","STREET":"中華路","SECT":" ","MAREA":" ","LANE":" ","ALLEY":" ","HOUSE_NO":"７０６號","E_COORD97":170980.14000000001,"N_COORD97":2546300.5099999998,"ADDRESS":"中華路７０６號","OBJECTID":568205},"geometry":{"x":170980.13999999873,"y":2546300.5100000016}},{"attributes":{"ID":568233,"DIS_CODE":0,"TOWNNAME":"永康區","LI":"大橋里","LIN":"28鄰","STREET":"中華路","SECT":" ","MAREA":" ","LANE":" ","ALLEY":" ","HOUSE_NO":"７２０號","E_COORD97":170961.25,"N_COORD97":2546326.27,"ADDRESS":"中華路７２０號","OBJECTID":568206},"geometry":{"x":170961.25000000186,"y":2546326.2699999996}},{"attributes":{"ID":568234,"DIS_CODE":0,"TOWNNAME":"永康區","LI":"大橋里","LIN":"28鄰","STREET":"中華路","SECT":" ","MAREA":" ","LANE":" ","ALLEY":" ","HOUSE_NO":"６９８號","E_COORD97":170995.39000000001,"N_COORD97":2546279.5099999998,"ADDRESS":"中華路６９８號","OBJECTID":568207},"geometry":{"x":170995.38999999873,"y":2546279.5100000016}},{"attributes":{"ID":568235,"DIS_CODE":0,"TOWNNAME":"永康區","LI":"大橋里","LIN":"28鄰","STREET":"中華路","SECT":" ","MAREA":" ","LANE":" ","ALLEY":" ","HOUSE_NO":"７２６號","E_COORD97":170953.60999999999,"N_COORD97":2546336.52,"ADDRESS":"中華路７２６號","OBJECTID":568208},"geometry":{"x":170953.61000000034,"y":2546336.5200000014}},{"attributes":{"ID":568236,"DIS_CODE":0,"TOWNNAME":"永康區","LI":"大灣里","LIN":"28鄰","STREET":"文賢街","SECT":" ","MAREA":" ","LANE":" ","ALLEY":" ","HOUSE_NO":"４５號","E_COORD97":175295,"N_COORD97":2545038.5499999998,"ADDRESS":"文賢街４５號","OBJECTID":568209},"geometry":{"x":175295,"y":2545038.5500000045}},{"attributes":{"ID":568237,"DIS_CODE":0,"TOWNNAME":"永康區","LI":"大橋里","LIN":"28鄰","STREET":"中華路","SECT":" ","MAREA":" ","LANE":" ","ALLEY":" ","HOUSE_NO":"７１４號","E_COORD97":170969.34,"N_COORD97":2546315.27,"ADDRESS":"中華路７１４號","OBJECTID":568210},"geometry":{"x":170969.34000000078,"y":2546315.2700000014}},{"attributes":{"ID":568238,"DIS_CODE":0,"TOWNNAME":"永康區","LI":"大橋里","LIN":"28鄰","STREET":"中華路","SECT":" ","MAREA":" ","LANE":" ","ALLEY":" ","HOUSE_NO":"７３４號","E_COORD97":170946.01000000001,"N_COORD97":2546340.25,"ADDRESS":"中華路７３４號","OBJECTID":568211},"geometry":{"x":170946.01000000071,"y":2546340.25}},{"attributes":{"ID":568239,"DIS_CODE":0,"TOWNNAME":"永康區","LI":"大橋里","LIN":"28鄰","STREET":"中華路","SECT":" ","MAREA":" ","LANE":" ","ALLEY":" ","HOUSE_NO":"７６０號","E_COORD97":170907.35000000001,"N_COORD97":2546388.9900000002,"ADDRESS":"中華路７６０號","OBJECTID":568212},"geometry":{"x":170907.34999999963,"y":2546388.9900000021}},{"attributes":{"ID":568240,"DIS_CODE":0,"TOWNNAME":"永康區","LI":"大橋里","LIN":"28鄰","STREET":"中華路","SECT":" ","MAREA":" ","LANE":" ","ALLEY":" ","HOUSE_NO":"７３８號","E_COORD97":170934.34,"N_COORD97":2546354.2400000002,"ADDRESS":"中華路７３８號","OBJECTID":568213},"geometry":{"x":170934.33999999985,"y":2546354.2400000002}},{"attributes":{"ID":568241,"DIS_CODE":0,"TOWNNAME":"永康區","LI":"復華里","LIN":"15鄰","STREET":"復國一路","SECT":" ","MAREA":" ","LANE":" ","ALLEY":" ","HOUSE_NO":"３８０號","E_COORD97":172781.76000000001,"N_COORD97":2545870.3799999999,"ADDRESS":"復國一路３８０號","OBJECTID":568214},"geometry":{"x":172781.76000000071,"y":2545870.379999999}},{"attributes":{"ID":568242,"DIS_CODE":0,"TOWNNAME":"東區","LI":"小東里","LIN":"28鄰","STREET":"東和路","SECT":" ","MAREA":" ","LANE":" ","ALLEY":" ","HOUSE_NO":"１３３號","E_COORD97":170751.29000000001,"N_COORD97":2544278.8399999999,"ADDRESS":"東和路１３３號","OBJECTID":568215},"geometry":{"x":170751.29000000097,"y":2544278.8399999999}},{"attributes":{"ID":568243,"DIS_CODE":0,"TOWNNAME":"東區","LI":"小東里","LIN":"28鄰","STREET":"東和路","SECT":" ","MAREA":" ","LANE":" ","ALLEY":" ","HOUSE_NO":"１３５號","E_COORD97":170751.07000000001,"N_COORD97":2544274.5699999998,"ADDRESS":"東和路１３５號","OBJECTID":568216},"geometry":{"x":170751.07000000123,"y":2544274.5700000003}},{"attributes":{"ID":568244,"DIS_CODE":0,"TOWNNAME":"東區","LI":"小東里","LIN":"28鄰","STREET":"東和路","SECT":" ","MAREA":" ","LANE":" ","ALLEY":" ","HOUSE_NO":"１３７號","E_COORD97":170730.28,"N_COORD97":2544274.9900000002,"ADDRESS":"東和路１３７號","OBJECTID":568217},"geometry":{"x":170730.28000000026,"y":2544274.9900000002}},{"attributes":{"ID":568245,"DIS_CODE":0,"TOWNNAME":"東區","LI":"小東里","LIN":"28鄰","STREET":"東和路","SECT":" ","MAREA":" ","LANE":" ","ALLEY":" ","HOUSE_NO":"１３９號","E_COORD97":170730.28,"N_COORD97":2544279.2599999998,"ADDRESS":"東和路１３９號","OBJECTID":568218},"geometry":{"x":170730.28000000026,"y":2544279.2599999998}},{"attributes":{"ID":568246,"DIS_CODE":0,"TOWNNAME":"東區","LI":"小東里","LIN":"28鄰","STREET":"東和路","SECT":" ","MAREA":" ","LANE":" ","ALLEY":" ","HOUSE_NO":"１４１號","E_COORD97":170729.91,"N_COORD97":2544283.2400000002,"ADDRESS":"東和路１４１號","OBJECTID":568219},"geometry":{"x":170729.91000000108,"y":2544283.2400000002}},{"attributes":{"ID":568247,"DIS_CODE":0,"TOWNNAME":"柳營區","LI":"中埕里","LIN":"4鄰","STREET":"中興街","SECT":" ","MAREA":" ","LANE":" ","ALLEY":" ","HOUSE_NO":"１號","E_COORD97":179993.06,"N_COORD97":2575142.7400000002,"ADDRESS":"中興街１號","OBJECTID":568220},"geometry":{"x":179993.06000000052,"y":2575142.7400000002}},{"attributes":{"ID":568248,"DIS_CODE":0,"TOWNNAME":"東區","LI":"小東里","LIN":"28鄰","STREET":"東和路","SECT":" ","MAREA":" ","LANE":" ","ALLEY":" ","HOUSE_NO":"１４３號","E_COORD97":170730.06,"N_COORD97":2544287.29,"ADDRESS":"東和路１４３號","OBJECTID":568221},"geometry":{"x":170730.06000000052,"y":2544287.290000001}},{"attributes":{"ID":568249,"DIS_CODE":0,"TOWNNAME":"東區","LI":"小東里","LIN":"28鄰","STREET":"東和路","SECT":" ","MAREA":" ","LANE":" ","ALLEY":" ","HOUSE_NO":"１４５號","E_COORD97":170730.35999999999,"N_COORD97":2544291.3399999999,"ADDRESS":"東和路１４５號","OBJECTID":568222},"geometry":{"x":170730.3600000022,"y":2544291.3399999999}},{"attributes":{"ID":568250,"DIS_CODE":0,"TOWNNAME":"東區","LI":"小東里","LIN":"28鄰","STREET":"東和路","SECT":" ","MAREA":" ","LANE":" ","ALLEY":" ","HOUSE_NO":"１４７號","E_COORD97":170733.82000000001,"N_COORD97":2544305.3799999999,"ADDRESS":"東和路１４７號","OBJECTID":568223},"geometry":{"x":170733.81999999937,"y":2544305.3800000027}},{"attributes":{"ID":568251,"DIS_CODE":0,"TOWNNAME":"東區","LI":"小東里","LIN":"28鄰","STREET":"東和路","SECT":" ","MAREA":" ","LANE":" ","ALLEY":" ","HOUSE_NO":"１４９號","E_COORD97":170728.95999999999,"N_COORD97":2544305.2999999998,"ADDRESS":"東和路１４９號","OBJECTID":568224},"geometry":{"x":170728.95999999996,"y":2544305.3000000026}},{"attributes":{"ID":568252,"DIS_CODE":0,"TOWNNAME":"東區","LI":"小東里","LIN":"28鄰","STREET":"東和路","SECT":" ","MAREA":" ","LANE":" ","ALLEY":" ","HOUSE_NO":"１５５號","E_COORD97":170712.56,"N_COORD97":2544304.9700000002,"ADDRESS":"東和路１５５號","OBJECTID":568225},"geometry":{"x":170712.55999999959,"y":2544304.9700000007}},{"attributes":{"ID":568253,"DIS_CODE":0,"TOWNNAME":"東區","LI":"小東里","LIN":"28鄰","STREET":"東和路","SECT":" ","MAREA":" ","LANE":" ","ALLEY":" ","HOUSE_NO":"１６９號","E_COORD97":170666.23000000001,"N_COORD97":2544310.7799999998,"ADDRESS":"東和路１６９號","OBJECTID":568226},"geometry":{"x":170666.23000000045,"y":2544310.7800000012}},{"attributes":{"ID":568254,"DIS_CODE":0,"TOWNNAME":"中西區","LI":"永福里","LIN":"1鄰","STREET":"中正路","SECT":" ","MAREA":" ","LANE":" ","ALLEY":" ","HOUSE_NO":"３１號","E_COORD97":168230.37,"N_COORD97":2543603.23,"ADDRESS":"中正路３１號","OBJECTID":568227},"geometry":{"x":168230.37000000104,"y":2543603.2300000023}},{"attributes":{"ID":568255,"DIS_CODE":0,"TOWNNAME":"中西區","LI":"永福里","LIN":"1鄰","STREET":"中正路","SECT":" ","MAREA":" ","LANE":" ","ALLEY":" ","HOUSE_NO":"３３號","E_COORD97":168225.41,"N_COORD97":2543604.9500000002,"ADDRESS":"中正路３３號","OBJECTID":568228},"geometry":{"x":168225.41000000015,"y":2543604.9500000011}},{"attributes":{"ID":568256,"DIS_CODE":0,"TOWNNAME":"中西區","LI":"永福里","LIN":"1鄰","STREET":"中正路","SECT":" ","MAREA":" ","LANE":" ","ALLEY":" ","HOUSE_NO":"３５號","E_COORD97":168218.26999999999,"N_COORD97":2543606.3799999999,"ADDRESS":"中正路３５號","OBJECTID":568229},"geometry":{"x":168218.27000000048,"y":2543606.379999999}},{"attributes":{"ID":568257,"DIS_CODE":0,"TOWNNAME":"中西區","LI":"永福里","LIN":"1鄰","STREET":"中正路","SECT":" ","MAREA":" ","LANE":" ","ALLEY":" ","HOUSE_NO":"３７號","E_COORD97":168207.42999999999,"N_COORD97":2543608.04,"ADDRESS":"中正路３７號","OBJECTID":568230},"geometry":{"x":168207.43000000063,"y":2543608.0399999991}},{"attributes":{"ID":568258,"DIS_CODE":0,"TOWNNAME":"中西區","LI":"永福里","LIN":"1鄰","STREET":"友愛街","SECT":" ","MAREA":" ","LANE":" ","ALLEY":" ","HOUSE_NO":"１６號","E_COORD97":168216.62,"N_COORD97":2543511.2200000002,"ADDRESS":"友愛街１６號","OBJECTID":568231},"geometry":{"x":168216.62000000104,"y":2543511.2200000007}},{"attributes":{"ID":568259,"DIS_CODE":0,"TOWNNAME":"中西區","LI":"永福里","LIN":"1鄰","STREET":"友愛街","SECT":" ","MAREA":" ","LANE":" ","ALLEY":" ","HOUSE_NO":"１８號","E_COORD97":168208.23999999999,"N_COORD97":2543513.3599999999,"ADDRESS":"友愛街１８號","OBJECTID":568232},"geometry":{"x":168208.24000000022,"y":2543513.3600000013}},{"attributes":{"ID":568260,"DIS_CODE":0,"TOWNNAME":"中西區","LI":"永福里","LIN":"1鄰","STREET":"忠義路","SECT":"二段","MAREA":" ","LANE":" ","ALLEY":" ","HOUSE_NO":"４１號","E_COORD97":168234.89999999999,"N_COORD97":2543514.3700000001,"ADDRESS":"忠義路二段４１號","OBJECTID":568233},"geometry":{"x":168234.9000000013,"y":2543514.3700000048}},{"attributes":{"ID":568261,"DIS_CODE":0,"TOWNNAME":"東區","LI":"大智里","LIN":"28鄰","STREET":"德東街","SECT":" ","MAREA":" ","LANE":" ","ALLEY":" ","HOUSE_NO":"２７４號","E_COORD97":171492.42999999999,"N_COORD97":2540245.6600000001,"ADDRESS":"德東街２７４號","OBJECTID":568234},"geometry":{"x":171492.43000000063,"y":2540245.6600000001}},{"attributes":{"ID":568262,"DIS_CODE":0,"TOWNNAME":"永康區","LI":"大灣里","LIN":"28鄰","STREET":"文賢街","SECT":" ","MAREA":" ","LANE":" ","ALLEY":" ","HOUSE_NO":"３７號","E_COORD97":175289.94,"N_COORD97":2545020.7999999998,"ADDRESS":"文賢街３７號","OBJECTID":568235},"geometry":{"x":175289.94000000227,"y":2545020.8000000026}},{"attributes":{"ID":568263,"DIS_CODE":0,"TOWNNAME":"永康區","LI":"大灣里","LIN":"28鄰","STREET":"民族路","SECT":" ","MAREA":" ","LANE":" ","ALLEY":" ","HOUSE_NO":"１７６號之１","E_COORD97":175157.5,"N_COORD97":2545038.02,"ADDRESS":"民族路１７６號之１","OBJECTID":568236},"geometry":{"x":175157.50000000093,"y":2545038.0200000014}},{"attributes":{"ID":568264,"DIS_CODE":0,"TOWNNAME":"永康區","LI":"大橋里","LIN":"28鄰","STREET":"中華路","SECT":" ","MAREA":" ","LANE":" ","ALLEY":" ","HOUSE_NO":"６１４號","E_COORD97":171152.04999999999,"N_COORD97":2546054.7400000002,"ADDRESS":"中華路６１４號","OBJECTID":568237},"geometry":{"x":171152.04999999981,"y":2546054.7400000021}},{"attributes":{"ID":568265,"DIS_CODE":0,"TOWNNAME":"永康區","LI":"大橋里","LIN":"28鄰","STREET":"中華路","SECT":" ","MAREA":" ","LANE":" ","ALLEY":" ","HOUSE_NO":"６４０號","E_COORD97":171098.38,"N_COORD97":2546106.5,"ADDRESS":"中華路６４０號","OBJECTID":568238},"geometry":{"x":171098.37999999989,"y":2546106.5000000019}},{"attributes":{"ID":568266,"DIS_CODE":0,"TOWNNAME":"中西區","LI":"永福里","LIN":"7鄰","STREET":"中正路","SECT":" ","MAREA":" ","LANE":" ","ALLEY":" ","HOUSE_NO":"４３號","E_COORD97":168192.38,"N_COORD97":2543611.9500000002,"ADDRESS":"中正路４３號","OBJECTID":568239},"geometry":{"x":168192.38000000082,"y":2543611.9499999993}},{"attributes":{"ID":568267,"DIS_CODE":0,"TOWNNAME":"中西區","LI":"永福里","LIN":"7鄰","STREET":"中正路","SECT":" ","MAREA":" ","LANE":" ","ALLEY":" ","HOUSE_NO":"４５號","E_COORD97":168188.60999999999,"N_COORD97":2543612.5499999998,"ADDRESS":"中正路４５號","OBJECTID":568240},"geometry":{"x":168188.61000000034,"y":2543612.5500000026}},{"attributes":{"ID":568268,"DIS_CODE":0,"TOWNNAME":"中西區","LI":"永福里","LIN":"1鄰","STREET":"忠義路","SECT":"二段","MAREA":" ","LANE":" ","ALLEY":" ","HOUSE_NO":"４１號底層","E_COORD97":168234.89999999999,"N_COORD97":2543514.3700000001,"ADDRESS":"忠義路二段４１號底層","OBJECTID":568241},"geometry":{"x":168234.9000000013,"y":2543514.3700000048}},{"attributes":{"ID":568269,"DIS_CODE":0,"TOWNNAME":"中西區","LI":"永福里","LIN":"1鄰","STREET":"忠義路","SECT":"二段","MAREA":" ","LANE":" ","ALLEY":" ","HOUSE_NO":"４７號底一層","E_COORD97":168239.42000000001,"N_COORD97":2543535.9399999999,"ADDRESS":"忠義路二段４７號底一層","OBJECTID":568242},"geometry":{"x":168239.42000000086,"y":2543535.9400000032}},{"attributes":{"ID":568270,"DIS_CODE":0,"TOWNNAME":"中西區","LI":"永福里","LIN":"1鄰","STREET":"忠義路","SECT":"二段","MAREA":" ","LANE":" ","ALLEY":" ","HOUSE_NO":"５３號","E_COORD97":168244.98999999999,"N_COORD97":2543559.3799999999,"ADDRESS":"忠義路二段５３號","OBJECTID":568243},"geometry":{"x":168244.99000000022,"y":2543559.3800000027}},{"attributes":{"ID":568271,"DIS_CODE":0,"TOWNNAME":"中西區","LI":"永福里","LIN":"1鄰","STREET":"忠義路","SECT":"二段","MAREA":" ","LANE":" ","ALLEY":" ","HOUSE_NO":"６３號","E_COORD97":168251.01999999999,"N_COORD97":2543587.1899999999,"ADDRESS":"忠義路二段６３號","OBJECTID":568244},"geometry":{"x":168251.01999999955,"y":2543587.1899999995}},{"attributes":{"ID":568272,"DIS_CODE":0,"TOWNNAME":"永康區","LI":"大橋里","LIN":"28鄰","STREET":"中華路","SECT":" ","MAREA":" ","LANE":" ","ALLEY":" ","HOUSE_NO":"７５４號","E_COORD97":170917.22,"N_COORD97":2546374.2400000002,"ADDRESS":"中華路７５４號","OBJECTID":568245},"geometry":{"x":170917.22000000067,"y":2546374.2400000002}},{"attributes":{"ID":568273,"DIS_CODE":0,"TOWNNAME":"仁德區","LI":"太子里","LIN":"28鄰","STREET":"太子五街","SECT":" ","MAREA":" ","LANE":" ","ALLEY":" ","HOUSE_NO":"８號","E_COORD97":173108.91,"N_COORD97":2543330.7599999998,"ADDRESS":"太子五街８號","OBJECTID":568246},"geometry":{"x":173108.91000000108,"y":2543330.7600000035}},{"attributes":{"ID":568274,"DIS_CODE":0,"TOWNNAME":"善化區","LI":"光文里","LIN":"28鄰","STREET":"公園路","SECT":" ","MAREA":" ","LANE":" ","ALLEY":" ","HOUSE_NO":"１０６號","E_COORD97":178051.95000000001,"N_COORD97":2559201.6800000002,"ADDRESS":"公園路１０６號","OBJECTID":568247},"geometry":{"x":178051.95000000019,"y":2559201.6800000034}},{"attributes":{"ID":568275,"DIS_CODE":0,"TOWNNAME":"善化區","LI":"光文里","LIN":"28鄰","STREET":"公園路","SECT":" ","MAREA":" ","LANE":" ","ALLEY":" ","HOUSE_NO":"１６６號","E_COORD97":177840.53,"N_COORD97":2559175.9500000002,"ADDRESS":"公園路１６６號","OBJECTID":568248},"geometry":{"x":177840.53000000119,"y":2559175.9500000011}},{"attributes":{"ID":568276,"DIS_CODE":0,"TOWNNAME":"善化區","LI":"光文里","LIN":"28鄰","STREET":"公園路","SECT":" ","MAREA":" ","LANE":" ","ALLEY":" ","HOUSE_NO":"１６８號","E_COORD97":177835.19,"N_COORD97":2559175.1099999999,"ADDRESS":"公園路１６８號","OBJECTID":568249},"geometry":{"x":177835.19000000041,"y":2559175.1100000013}},{"attributes":{"ID":568277,"DIS_CODE":0,"TOWNNAME":"善化區","LI":"光文里","LIN":"28鄰","STREET":"公園路","SECT":" ","MAREA":" ","LANE":" ","ALLEY":" ","HOUSE_NO":"１７０號","E_COORD97":177829.85999999999,"N_COORD97":2559174.2799999998,"ADDRESS":"公園路１７０號","OBJECTID":568250},"geometry":{"x":177829.86000000127,"y":2559174.2800000012}},{"attributes":{"ID":568278,"DIS_CODE":0,"TOWNNAME":"善化區","LI":"光文里","LIN":"28鄰","STREET":"公園路","SECT":" ","MAREA":" ","LANE":" ","ALLEY":" ","HOUSE_NO":"１７２號","E_COORD97":177825.766882,"N_COORD97":2559174.0969600002,"ADDRESS":"公園路１７２號","OBJECTID":568251},"geometry":{"x":177825.76688199956,"y":2559174.0969560016}},{"attributes":{"ID":568279,"DIS_CODE":0,"TOWNNAME":"善化區","LI":"光文里","LIN":"28鄰","STREET":"公園路","SECT":" ","MAREA":" ","LANE":" ","ALLEY":" ","HOUSE_NO":"１２２號","E_COORD97":178002.5,"N_COORD97":2559204.71,"ADDRESS":"公園路１２２號","OBJECTID":568252},"geometry":{"x":178002.5,"y":2559204.7100000009}},{"attributes":{"ID":568280,"DIS_CODE":0,"TOWNNAME":"善化區","LI":"光文里","LIN":"28鄰","STREET":"公園路","SECT":" ","MAREA":" ","LANE":" ","ALLEY":" ","HOUSE_NO":"１２６號","E_COORD97":177996.60999999999,"N_COORD97":2559203.79,"ADDRESS":"公園路１２６號","OBJECTID":568253},"geometry":{"x":177996.61000000127,"y":2559203.790000001}},{"attributes":{"ID":568281,"DIS_CODE":0,"TOWNNAME":"善化區","LI":"光文里","LIN":"28鄰","STREET":"公園路","SECT":" ","MAREA":" ","LANE":" ","ALLEY":" ","HOUSE_NO":"１２８號","E_COORD97":177991.5,"N_COORD97":2559202.9900000002,"ADDRESS":"公園路１２８號","OBJECTID":568254},"geometry":{"x":177991.50000000093,"y":2559202.9900000002}},{"attributes":{"ID":568282,"DIS_CODE":0,"TOWNNAME":"善化區","LI":"光文里","LIN":"28鄰","STREET":"公園路","SECT":" ","MAREA":" ","LANE":" ","ALLEY":" ","HOUSE_NO":"１３０號","E_COORD97":177985.25,"N_COORD97":2559202.98,"ADDRESS":"公園路１３０號","OBJECTID":568255},"geometry":{"x":177985.25,"y":2559202.9800000004}},{"attributes":{"ID":568283,"DIS_CODE":0,"TOWNNAME":"善化區","LI":"光文里","LIN":"28鄰","STREET":"公園路","SECT":" ","MAREA":" ","LANE":" ","ALLEY":" ","HOUSE_NO":"１６２號","E_COORD97":177846.31,"N_COORD97":2559180.0800000001,"ADDRESS":"公園路１６２號","OBJECTID":568256},"geometry":{"x":177846.31000000145,"y":2559180.0800000019}},{"attributes":{"ID":568284,"DIS_CODE":0,"TOWNNAME":"善化區","LI":"光文里","LIN":"28鄰","STREET":"和平路","SECT":" ","MAREA":" ","LANE":" ","ALLEY":" ","HOUSE_NO":"２１３號","E_COORD97":178064.03,"N_COORD97":2559257.5899999999,"ADDRESS":"和平路２１３號","OBJECTID":568257},"geometry":{"x":178064.02999999933,"y":2559257.5900000017}},{"attributes":{"ID":568285,"DIS_CODE":0,"TOWNNAME":"善化區","LI":"光文里","LIN":"28鄰","STREET":"和平路","SECT":" ","MAREA":" ","LANE":" ","ALLEY":" ","HOUSE_NO":"２１５號","E_COORD97":178063.07999999999,"N_COORD97":2559262.1899999999,"ADDRESS":"和平路２１５號","OBJECTID":568258},"geometry":{"x":178063.08000000007,"y":2559262.1900000032}},{"attributes":{"ID":568286,"DIS_CODE":0,"TOWNNAME":"善化區","LI":"光文里","LIN":"28鄰","STREET":"和平路","SECT":" ","MAREA":" ","LANE":" ","ALLEY":" ","HOUSE_NO":"２１７號","E_COORD97":178069.72,"N_COORD97":2559268.29,"ADDRESS":"和平路２１７號","OBJECTID":568259},"geometry":{"x":178069.72000000067,"y":2559268.290000001}},{"attributes":{"ID":568287,"DIS_CODE":0,"TOWNNAME":"善化區","LI":"光文里","LIN":"28鄰","STREET":"和平路","SECT":" ","MAREA":" ","LANE":" ","ALLEY":" ","HOUSE_NO":"２１９號","E_COORD97":178061.12,"N_COORD97":2559271.73,"ADDRESS":"和平路２１９號","OBJECTID":568260},"geometry":{"x":178061.12000000011,"y":2559271.7300000004}},{"attributes":{"ID":568288,"DIS_CODE":0,"TOWNNAME":"善化區","LI":"光文里","LIN":"28鄰","STREET":"和平路","SECT":" ","MAREA":" ","LANE":" ","ALLEY":" ","HOUSE_NO":"２２１號","E_COORD97":178066.62,"N_COORD97":2559275.7400000002,"ADDRESS":"和平路２２１號","OBJECTID":568261},"geometry":{"x":178066.61999999918,"y":2559275.7400000002}},{"attributes":{"ID":568289,"DIS_CODE":0,"TOWNNAME":"善化區","LI":"光文里","LIN":"28鄰","STREET":"和平路","SECT":" ","MAREA":" ","LANE":" ","ALLEY":" ","HOUSE_NO":"２２３號","E_COORD97":178070.79000000001,"N_COORD97":2559281.1600000001,"ADDRESS":"和平路２２３號","OBJECTID":568262},"geometry":{"x":178070.79000000097,"y":2559281.160000002}},{"attributes":{"ID":568290,"DIS_CODE":0,"TOWNNAME":"善化區","LI":"光文里","LIN":"28鄰","STREET":"和平路","SECT":" ","MAREA":" ","LANE":" ","ALLEY":" ","HOUSE_NO":"２２５號","E_COORD97":178065.17000000001,"N_COORD97":2559285.8399999999,"ADDRESS":"和平路２２５號","OBJECTID":568263},"geometry":{"x":178065.17000000086,"y":2559285.8400000017}},{"attributes":{"ID":568291,"DIS_CODE":0,"TOWNNAME":"善化區","LI":"光文里","LIN":"28鄰","STREET":"和平路","SECT":" ","MAREA":" ","LANE":" ","ALLEY":" ","HOUSE_NO":"２２７號","E_COORD97":178068.51000000001,"N_COORD97":2559291.3799999999,"ADDRESS":"和平路２２７號","OBJECTID":568264},"geometry":{"x":178068.50999999978,"y":2559291.3800000008}},{"attributes":{"ID":568292,"DIS_CODE":0,"TOWNNAME":"善化區","LI":"光文里","LIN":"28鄰","STREET":"和平路","SECT":" ","MAREA":" ","LANE":" ","ALLEY":" ","HOUSE_NO":"２２９號","E_COORD97":178070.64000000001,"N_COORD97":2559296.8599999999,"ADDRESS":"和平路２２９號","OBJECTID":568265},"geometry":{"x":178070.63999999966,"y":2559296.8599999994}},{"attributes":{"ID":568293,"DIS_CODE":0,"TOWNNAME":"善化區","LI":"光文里","LIN":"28鄰","STREET":"和平路","SECT":" ","MAREA":" ","LANE":" ","ALLEY":" ","HOUSE_NO":"２３１號","E_COORD97":178069.39000000001,"N_COORD97":2559303,"ADDRESS":"和平路２３１號","OBJECTID":568266},"geometry":{"x":178069.38999999873,"y":2559303}},{"attributes":{"ID":568294,"DIS_CODE":0,"TOWNNAME":"善化區","LI":"光文里","LIN":"28鄰","STREET":"公園路","SECT":" ","MAREA":" ","LANE":" ","ALLEY":" ","HOUSE_NO":"１５２號","E_COORD97":177886.73999999999,"N_COORD97":2559184.9700000002,"ADDRESS":"公園路１５２號","OBJECTID":568267},"geometry":{"x":177886.74000000115,"y":2559184.9700000025}},{"attributes":{"ID":568295,"DIS_CODE":0,"TOWNNAME":"善化區","LI":"光文里","LIN":"28鄰","STREET":"公園路","SECT":" ","MAREA":" ","LANE":" ","ALLEY":" ","HOUSE_NO":"１５２之１號","E_COORD97":177881.97,"N_COORD97":2559185.54,"ADDRESS":"公園路１５２之１號","OBJECTID":568268},"geometry":{"x":177881.96999999974,"y":2559185.540000001}},{"attributes":{"ID":568296,"DIS_CODE":0,"TOWNNAME":"中西區","LI":"法華里","LIN":"10鄰","STREET":"五妃街","SECT":" ","MAREA":" ","LANE":" ","ALLEY":" ","HOUSE_NO":"３３號","E_COORD97":169011.25,"N_COORD97":2542518.2999999998,"ADDRESS":"五妃街３３號","OBJECTID":568269},"geometry":{"x":169011.25,"y":2542518.3000000026}},{"attributes":{"ID":568297,"DIS_CODE":0,"TOWNNAME":"善化區","LI":"光文里","LIN":"28鄰","STREET":"公園路","SECT":" ","MAREA":" ","LANE":" ","ALLEY":" ","HOUSE_NO":"１５２之３號","E_COORD97":177871.20999999999,"N_COORD97":2559184.3100000001,"ADDRESS":"公園路１５２之３號","OBJECTID":568270},"geometry":{"x":177871.21000000089,"y":2559184.3099999987}},{"attributes":{"ID":568298,"DIS_CODE":0,"TOWNNAME":"中西區","LI":"西湖里","LIN":"28鄰","STREET":"湖美街","SECT":" ","MAREA":" ","LANE":" ","ALLEY":" ","HOUSE_NO":"６２號","E_COORD97":165977.35999999999,"N_COORD97":2544699.8500000001,"ADDRESS":"湖美街６２號","OBJECTID":568271},"geometry":{"x":165977.36000000127,"y":2544699.8500000015}},{"attributes":{"ID":568299,"DIS_CODE":0,"TOWNNAME":"中西區","LI":"西湖里","LIN":"28鄰","STREET":"湖美街","SECT":" ","MAREA":" ","LANE":" ","ALLEY":" ","HOUSE_NO":"６６號","E_COORD97":165948.48000000001,"N_COORD97":2544704.3900000001,"ADDRESS":"湖美街６６號","OBJECTID":568272},"geometry":{"x":165948.48000000045,"y":2544704.3900000025}},{"attributes":{"ID":568300,"DIS_CODE":0,"TOWNNAME":"中西區","LI":"西湖里","LIN":"28鄰","STREET":"湖美街","SECT":" ","MAREA":" ","LANE":" ","ALLEY":" ","HOUSE_NO":"７２號","E_COORD97":165947.67999999999,"N_COORD97":2544765.02,"ADDRESS":"湖美街７２號","OBJECTID":568273},"geometry":{"x":165947.68000000063,"y":2544765.0199999996}},{"attributes":{"ID":568301,"DIS_CODE":0,"TOWNNAME":"中西區","LI":"西湖里","LIN":"28鄰","STREET":"湖美街","SECT":" ","MAREA":" ","LANE":" ","ALLEY":" ","HOUSE_NO":"７４號","E_COORD97":165948.48000000001,"N_COORD97":2544778.9100000001,"ADDRESS":"湖美街７４號","OBJECTID":568274},"geometry":{"x":165948.48000000045,"y":2544778.910000002}},{"attributes":{"ID":568302,"DIS_CODE":0,"TOWNNAME":"中西區","LI":"西湖里","LIN":"28鄰","STREET":"湖美街","SECT":" ","MAREA":" ","LANE":" ","ALLEY":" ","HOUSE_NO":"７６號","E_COORD97":165948.75,"N_COORD97":2544782.9100000001,"ADDRESS":"湖美街７６號","OBJECTID":568275},"geometry":{"x":165948.75000000093,"y":2544782.9100000001}},{"attributes":{"ID":568303,"DIS_CODE":0,"TOWNNAME":"中西區","LI":"西湖里","LIN":"28鄰","STREET":"湖美街","SECT":" ","MAREA":" ","LANE":" ","ALLEY":" ","HOUSE_NO":"７８號","E_COORD97":165949.28,"N_COORD97":2544787.4500000002,"ADDRESS":"湖美街７８號","OBJECTID":568276},"geometry":{"x":165949.28000000119,"y":2544787.4500000011}},{"attributes":{"ID":568304,"DIS_CODE":0,"TOWNNAME":"中西區","LI":"西湖里","LIN":"28鄰","STREET":"湖美街","SECT":" ","MAREA":" ","LANE":" ","ALLEY":" ","HOUSE_NO":"８０號","E_COORD97":165949.01000000001,"N_COORD97":2544792.7999999998,"ADDRESS":"湖美街８０號","OBJECTID":568277},"geometry":{"x":165949.01000000071,"y":2544792.8000000045}},{"attributes":{"ID":568305,"DIS_CODE":0,"TOWNNAME":"新市區","LI":"港墘里","LIN":"28鄰","STREET":"南昌街","SECT":" ","MAREA":" ","LANE":" ","ALLEY":" ","HOUSE_NO":"７７號","E_COORD97":178009.70999999999,"N_COORD97":2553072.25,"ADDRESS":"南昌街７７號","OBJECTID":568278},"geometry":{"x":178009.70999999996,"y":2553072.2500000019}},{"attributes":{"ID":568306,"DIS_CODE":0,"TOWNNAME":"新市區","LI":"港墘里","LIN":"28鄰","STREET":"華美街","SECT":" ","MAREA":" ","LANE":" ","ALLEY":" ","HOUSE_NO":"７１號","E_COORD97":178188.01000000001,"N_COORD97":2553060.0499999998,"ADDRESS":"華美街７１號","OBJECTID":568279},"geometry":{"x":178188.01000000071,"y":2553060.0500000045}},{"attributes":{"ID":568307,"DIS_CODE":0,"TOWNNAME":"中西區","LI":"法華里","LIN":"10鄰","STREET":"五妃街","SECT":" ","MAREA":" ","LANE":" ","ALLEY":" ","HOUSE_NO":"３５號","E_COORD97":169015.42999999999,"N_COORD97":2542526.6400000001,"ADDRESS":"五妃街３５號","OBJECTID":568280},"geometry":{"x":169015.43000000063,"y":2542526.6400000025}},{"attributes":{"ID":568308,"DIS_CODE":0,"TOWNNAME":"新市區","LI":"新市里","LIN":"28鄰","STREET":"復興路","SECT":" ","MAREA":" ","LANE":" ","ALLEY":" ","HOUSE_NO":"３６號","E_COORD97":177828.57000000001,"N_COORD97":2553412.0299999998,"ADDRESS":"復興路３６號","OBJECTID":568281},"geometry":{"x":177828.57000000123,"y":2553412.0300000012}},{"attributes":{"ID":568309,"DIS_CODE":0,"TOWNNAME":"東區","LI":"大智里","LIN":"28鄰","STREET":"德東街","SECT":" ","MAREA":" ","LANE":" ","ALLEY":" ","HOUSE_NO":"２２６號","E_COORD97":171407.07999999999,"N_COORD97":2540244.8599999999,"ADDRESS":"德東街２２６號","OBJECTID":568282},"geometry":{"x":171407.08000000101,"y":2540244.8600000013}},{"attributes":{"ID":568310,"DIS_CODE":0,"TOWNNAME":"東區","LI":"大智里","LIN":"28鄰","STREET":"德東街","SECT":" ","MAREA":" ","LANE":" ","ALLEY":" ","HOUSE_NO":"２２８號","E_COORD97":171411.53,"N_COORD97":2540243.27,"ADDRESS":"德東街２２８號","OBJECTID":568283},"geometry":{"x":171411.53000000026,"y":2540243.2700000014}},{"attributes":{"ID":568311,"DIS_CODE":0,"TOWNNAME":"東區","LI":"大智里","LIN":"28鄰","STREET":"德東街","SECT":" ","MAREA":" ","LANE":" ","ALLEY":" ","HOUSE_NO":"２３０號","E_COORD97":171415.64000000001,"N_COORD97":2540245.5499999998,"ADDRESS":"德東街２３０號","OBJECTID":568284},"geometry":{"x":171415.63999999966,"y":2540245.5500000026}},{"attributes":{"ID":568312,"DIS_CODE":0,"TOWNNAME":"東區","LI":"大智里","LIN":"28鄰","STREET":"德東街","SECT":" ","MAREA":" ","LANE":" ","ALLEY":" ","HOUSE_NO":"２３２號","E_COORD97":171419.39999999999,"N_COORD97":2540243.3799999999,"ADDRESS":"德東街２３２號","OBJECTID":568285},"geometry":{"x":171419.40000000037,"y":2540243.379999999}},{"attributes":{"ID":568313,"DIS_CODE":0,"TOWNNAME":"東區","LI":"大智里","LIN":"28鄰","STREET":"德東街","SECT":" ","MAREA":" ","LANE":" ","ALLEY":" ","HOUSE_NO":"２３４號","E_COORD97":171423.51000000001,"N_COORD97":2540245.5499999998,"ADDRESS":"德東街２３４號","OBJECTID":568286},"geometry":{"x":171423.50999999978,"y":2540245.5500000026}},{"attributes":{"ID":568314,"DIS_CODE":0,"TOWNNAME":"東區","LI":"大智里","LIN":"28鄰","STREET":"德東街","SECT":" ","MAREA":" ","LANE":" ","ALLEY":" ","HOUSE_NO":"２３６號","E_COORD97":171427.16,"N_COORD97":2540243.7200000002,"ADDRESS":"德東街２３６號","OBJECTID":568287},"geometry":{"x":171427.16000000108,"y":2540243.7200000025}},{"attributes":{"ID":568315,"DIS_CODE":0,"TOWNNAME":"東區","LI":"大智里","LIN":"28鄰","STREET":"德東街","SECT":" ","MAREA":" ","LANE":" ","ALLEY":" ","HOUSE_NO":"２３８號","E_COORD97":171430.92999999999,"N_COORD97":2540245.9300000002,"ADDRESS":"德東街２３８號","OBJECTID":568288},"geometry":{"x":171430.93000000156,"y":2540245.9299999997}},{"attributes":{"ID":568316,"DIS_CODE":0,"TOWNNAME":"東區","LI":"大智里","LIN":"28鄰","STREET":"德東街","SECT":" ","MAREA":" ","LANE":" ","ALLEY":" ","HOUSE_NO":"２４０號","E_COORD97":171435,"N_COORD97":2540243.5600000001,"ADDRESS":"德東街２４０號","OBJECTID":568289},"geometry":{"x":171435.00000000093,"y":2540243.5600000005}},{"attributes":{"ID":568317,"DIS_CODE":0,"TOWNNAME":"東區","LI":"大智里","LIN":"28鄰","STREET":"德東街","SECT":" ","MAREA":" ","LANE":" ","ALLEY":" ","HOUSE_NO":"２４３號","E_COORD97":171415.32000000001,"N_COORD97":2540266.0499999998,"ADDRESS":"德東街２４３號","OBJECTID":568290},"geometry":{"x":171415.32000000216,"y":2540266.0500000026}},{"attributes":{"ID":568318,"DIS_CODE":0,"TOWNNAME":"東區","LI":"大智里","LIN":"28鄰","STREET":"德東街","SECT":" ","MAREA":" ","LANE":" ","ALLEY":" ","HOUSE_NO":"２４５號","E_COORD97":171419.14000000001,"N_COORD97":2540264.5899999999,"ADDRESS":"德東街２４５號","OBJECTID":568291},"geometry":{"x":171419.13999999966,"y":2540264.5900000017}},{"attributes":{"ID":568319,"DIS_CODE":0,"TOWNNAME":"東區","LI":"大智里","LIN":"28鄰","STREET":"德東街","SECT":" ","MAREA":" ","LANE":" ","ALLEY":" ","HOUSE_NO":"２４６號","E_COORD97":171446.54999999999,"N_COORD97":2540245.9300000002,"ADDRESS":"德東街２４６號","OBJECTID":568292},"geometry":{"x":171446.54999999981,"y":2540245.9299999997}},{"attributes":{"ID":568320,"DIS_CODE":0,"TOWNNAME":"東區","LI":"大智里","LIN":"28鄰","STREET":"德東街","SECT":" ","MAREA":" ","LANE":" ","ALLEY":" ","HOUSE_NO":"２４９號","E_COORD97":171427.39000000001,"N_COORD97":2540264.48,"ADDRESS":"德東街２４９號","OBJECTID":568293},"geometry":{"x":171427.38999999966,"y":2540264.4800000004}},{"attributes":{"ID":568321,"DIS_CODE":0,"TOWNNAME":"東區","LI":"大智里","LIN":"28鄰","STREET":"德東街","SECT":" ","MAREA":" ","LANE":" ","ALLEY":" ","HOUSE_NO":"２５０號","E_COORD97":171454.70999999999,"N_COORD97":2540245.25,"ADDRESS":"德東街２５０號","OBJECTID":568294},"geometry":{"x":171454.71000000183,"y":2540245.25}},{"attributes":{"ID":568322,"DIS_CODE":0,"TOWNNAME":"東區","LI":"大智里","LIN":"28鄰","STREET":"德東街","SECT":" ","MAREA":" ","LANE":" ","ALLEY":" ","HOUSE_NO":"２５１號","E_COORD97":171430.92999999999,"N_COORD97":2540265.3199999998,"ADDRESS":"德東街２５１號","OBJECTID":568295},"geometry":{"x":171430.93000000156,"y":2540265.3200000003}},{"attributes":{"ID":568323,"DIS_CODE":0,"TOWNNAME":"東區","LI":"大智里","LIN":"28鄰","STREET":"德東街","SECT":" ","MAREA":" ","LANE":" ","ALLEY":" ","HOUSE_NO":"２５４號","E_COORD97":171467.82000000001,"N_COORD97":2540245.0699999998,"ADDRESS":"德東街２５４號","OBJECTID":568296},"geometry":{"x":171467.81999999937,"y":2540245.0700000022}},{"attributes":{"ID":568324,"DIS_CODE":0,"TOWNNAME":"東區","LI":"大智里","LIN":"28鄰","STREET":"德東街","SECT":" ","MAREA":" ","LANE":" ","ALLEY":" ","HOUSE_NO":"２５５號","E_COORD97":171439.22,"N_COORD97":2540262.6200000001,"ADDRESS":"德東街２５５號","OBJECTID":568297},"geometry":{"x":171439.2200000016,"y":2540262.6200000029}},{"attributes":{"ID":568325,"DIS_CODE":0,"TOWNNAME":"東區","LI":"大智里","LIN":"28鄰","STREET":"德東街","SECT":" ","MAREA":" ","LANE":" ","ALLEY":" ","HOUSE_NO":"２５７號","E_COORD97":171443.32999999999,"N_COORD97":2540265.1800000002,"ADDRESS":"德東街２５７號","OBJECTID":568298},"geometry":{"x":171443.33000000007,"y":2540265.1799999997}},{"attributes":{"ID":568326,"DIS_CODE":0,"TOWNNAME":"東區","LI":"大智里","LIN":"28鄰","STREET":"德東街","SECT":" ","MAREA":" ","LANE":" ","ALLEY":" ","HOUSE_NO":"２５８號","E_COORD97":171472.57999999999,"N_COORD97":2540244.1200000001,"ADDRESS":"德東街２５８號","OBJECTID":568299},"geometry":{"x":171472.57999999914,"y":2540244.1199999992}},{"attributes":{"ID":568327,"DIS_CODE":0,"TOWNNAME":"東區","LI":"大智里","LIN":"28鄰","STREET":"德東街","SECT":" ","MAREA":" ","LANE":" ","ALLEY":" ","HOUSE_NO":"２５９號","E_COORD97":171447.26999999999,"N_COORD97":2540261.7599999998,"ADDRESS":"德東街２５９號","OBJECTID":568300},"geometry":{"x":171447.27000000048,"y":2540261.7599999998}},{"attributes":{"ID":568328,"DIS_CODE":0,"TOWNNAME":"東區","LI":"大智里","LIN":"28鄰","STREET":"德東街","SECT":" ","MAREA":" ","LANE":" ","ALLEY":" ","HOUSE_NO":"２６０號","E_COORD97":171476.31,"N_COORD97":2540245.7000000002,"ADDRESS":"德東街２６０號","OBJECTID":568301},"geometry":{"x":171476.31000000052,"y":2540245.7000000011}},{"attributes":{"ID":568329,"DIS_CODE":0,"TOWNNAME":"東區","LI":"大智里","LIN":"28鄰","STREET":"德東街","SECT":" ","MAREA":" ","LANE":" ","ALLEY":" ","HOUSE_NO":"２６２號","E_COORD97":171478.79000000001,"N_COORD97":2540245.8900000001,"ADDRESS":"德東街２６２號","OBJECTID":568302},"geometry":{"x":171478.79000000097,"y":2540245.8900000025}},{"attributes":{"ID":568330,"DIS_CODE":0,"TOWNNAME":"東區","LI":"大智里","LIN":"28鄰","STREET":"德東街","SECT":" ","MAREA":" ","LANE":" ","ALLEY":" ","HOUSE_NO":"２６３號","E_COORD97":171456.17999999999,"N_COORD97":2540262.27,"ADDRESS":"德東街２６３號","OBJECTID":568303},"geometry":{"x":171456.1799999997,"y":2540262.2700000033}},{"attributes":{"ID":568331,"DIS_CODE":0,"TOWNNAME":"東區","LI":"大智里","LIN":"28鄰","STREET":"德東街","SECT":" ","MAREA":" ","LANE":" ","ALLEY":" ","HOUSE_NO":"２６５號","E_COORD97":171459.42999999999,"N_COORD97":2540265.7000000002,"ADDRESS":"德東街２６５號","OBJECTID":568304},"geometry":{"x":171459.4299999997,"y":2540265.700000003}},{"attributes":{"ID":568332,"DIS_CODE":0,"TOWNNAME":"東區","LI":"大智里","LIN":"28鄰","STREET":"德東街","SECT":" ","MAREA":" ","LANE":" ","ALLEY":" ","HOUSE_NO":"２７３號","E_COORD97":171475.54000000001,"N_COORD97":2540265.3599999999,"ADDRESS":"德東街２７３號","OBJECTID":568305},"geometry":{"x":171475.54000000004,"y":2540265.3600000013}},{"attributes":{"ID":568333,"DIS_CODE":0,"TOWNNAME":"東區","LI":"大智里","LIN":"28鄰","STREET":"德東街","SECT":" ","MAREA":" ","LANE":" ","ALLEY":" ","HOUSE_NO":"２７５號","E_COORD97":171479.48000000001,"N_COORD97":2540262.1000000001,"ADDRESS":"德東街２７５號","OBJECTID":568306},"geometry":{"x":171479.48000000138,"y":2540262.0999999996}},{"attributes":{"ID":568334,"DIS_CODE":0,"TOWNNAME":"中西區","LI":"天后里","LIN":"1鄰","STREET":"永福路","SECT":"二段","MAREA":" ","LANE":" ","ALLEY":" ","HOUSE_NO":"２１３號","E_COORD97":168173.01000000001,"N_COORD97":2544064.6600000001,"ADDRESS":"永福路二段２１３號","OBJECTID":568307},"geometry":{"x":168173.01000000071,"y":2544064.660000002}},{"attributes":{"ID":568335,"DIS_CODE":0,"TOWNNAME":"中西區","LI":"天后里","LIN":"1鄰","STREET":"永福路","SECT":"二段","MAREA":" ","LANE":" ","ALLEY":" ","HOUSE_NO":"２１５號","E_COORD97":168175.35999999999,"N_COORD97":2544069.0499999998,"ADDRESS":"永福路二段２１５號","OBJECTID":568308},"geometry":{"x":168175.36000000034,"y":2544069.0500000026}},{"attributes":{"ID":568336,"DIS_CODE":0,"TOWNNAME":"中西區","LI":"天后里","LIN":"1鄰","STREET":"永福路","SECT":"二段","MAREA":" ","LANE":" ","ALLEY":" ","HOUSE_NO":"２１７號","E_COORD97":168174.76999999999,"N_COORD97":2544073,"ADDRESS":"永福路二段２１７號","OBJECTID":568309},"geometry":{"x":168174.76999999955,"y":2544073.0000000019}},{"attributes":{"ID":568337,"DIS_CODE":0,"TOWNNAME":"東區","LI":"大智里","LIN":"28鄰","STREET":"德東街","SECT":" ","MAREA":" ","LANE":" ","ALLEY":" ","HOUSE_NO":"２７６號","E_COORD97":171496.72,"N_COORD97":2540245.8300000001,"ADDRESS":"德東街２７６號","OBJECTID":568310},"geometry":{"x":171496.71999999881,"y":2540245.8300000019}},{"attributes":{"ID":568338,"DIS_CODE":0,"TOWNNAME":"東區","LI":"大智里","LIN":"28鄰","STREET":"德東街","SECT":" ","MAREA":" ","LANE":" ","ALLEY":" ","HOUSE_NO":"２７８號","E_COORD97":171502.48000000001,"N_COORD97":2540245.5699999998,"ADDRESS":"德東街２７８號","OBJECTID":568311},"geometry":{"x":171502.47999999952,"y":2540245.5700000003}},{"attributes":{"ID":568339,"DIS_CODE":0,"TOWNNAME":"東區","LI":"大智里","LIN":"28鄰","STREET":"德東街","SECT":" ","MAREA":" ","LANE":" ","ALLEY":" ","HOUSE_NO":"２８１號","E_COORD97":171490.95999999999,"N_COORD97":2540264.3300000001,"ADDRESS":"德東街２８１號","OBJECTID":568312},"geometry":{"x":171490.96000000089,"y":2540264.3300000001}},{"attributes":{"ID":568340,"DIS_CODE":0,"TOWNNAME":"永康區","LI":"大灣里","LIN":"28鄰","STREET":"民族路","SECT":" ","MAREA":" ","LANE":" ","ALLEY":" ","HOUSE_NO":"１８４號","E_COORD97":175145.37,"N_COORD97":2545048.2599999998,"ADDRESS":"民族路１８４號","OBJECTID":568313},"geometry":{"x":175145.37000000011,"y":2545048.2599999998}},{"attributes":{"ID":568341,"DIS_CODE":0,"TOWNNAME":"永康區","LI":"大灣里","LIN":"28鄰","STREET":"民族路","SECT":" ","MAREA":" ","LANE":" ","ALLEY":" ","HOUSE_NO":"１４２號","E_COORD97":175240.5,"N_COORD97":2544946.1600000001,"ADDRESS":"民族路１４２號","OBJECTID":568314},"geometry":{"x":175240.50000000093,"y":2544946.160000002}},{"attributes":{"ID":568342,"DIS_CODE":0,"TOWNNAME":"官田區","LI":"隆本里","LIN":"28鄰","STREET":"信義街","SECT":"二段","MAREA":" ","LANE":" ","ALLEY":" ","HOUSE_NO":"５號","E_COORD97":179736.87,"N_COORD97":2565861.73,"ADDRESS":"信義街二段５號","OBJECTID":568315},"geometry":{"x":179736.87000000104,"y":2565861.7300000023}},{"attributes":{"ID":568343,"DIS_CODE":0,"TOWNNAME":"官田區","LI":"隆本里","LIN":"28鄰","STREET":"信義街","SECT":"二段","MAREA":" ","LANE":" ","ALLEY":" ","HOUSE_NO":"７號之１","E_COORD97":179738.54000000001,"N_COORD97":2565871.4300000002,"ADDRESS":"信義街二段７號之１","OBJECTID":568316},"geometry":{"x":179738.53999999911,"y":2565871.4299999997}},{"attributes":{"ID":568344,"DIS_CODE":0,"TOWNNAME":"官田區","LI":"隆本里","LIN":"28鄰","STREET":"信義街","SECT":"二段","MAREA":" ","LANE":" ","ALLEY":" ","HOUSE_NO":"７號","E_COORD97":179737.97,"N_COORD97":2565866.9500000002,"ADDRESS":"信義街二段７號","OBJECTID":568317},"geometry":{"x":179737.97000000067,"y":2565866.9499999993}},{"attributes":{"ID":568345,"DIS_CODE":0,"TOWNNAME":"永康區","LI":"大橋里","LIN":"28鄰","STREET":"中山南路","SECT":" ","MAREA":" ","LANE":" ","ALLEY":" ","HOUSE_NO":"１９３號","E_COORD97":171436.91,"N_COORD97":2546098.75,"ADDRESS":"中山南路１９３號","OBJECTID":568318},"geometry":{"x":171436.91000000108,"y":2546098.7500000019}},{"attributes":{"ID":568346,"DIS_CODE":0,"TOWNNAME":"永康區","LI":"大橋里","LIN":"28鄰","STREET":"中華路","SECT":" ","MAREA":" ","LANE":" ","ALLEY":" ","HOUSE_NO":"７１２號","E_COORD97":170972.20000000001,"N_COORD97":2546311.27,"ADDRESS":"中華路７１２號","OBJECTID":568319},"geometry":{"x":170972.20000000112,"y":2546311.2700000014}},{"attributes":{"ID":568347,"DIS_CODE":0,"TOWNNAME":"永康區","LI":"大橋里","LIN":"28鄰","STREET":"中華路","SECT":" ","MAREA":" ","LANE":" ","ALLEY":" ","HOUSE_NO":"６４４號","E_COORD97":171093.89000000001,"N_COORD97":2546114,"ADDRESS":"中華路６４４號","OBJECTID":568320},"geometry":{"x":171093.89000000153,"y":2546114.0000000019}},{"attributes":{"ID":568348,"DIS_CODE":0,"TOWNNAME":"永康區","LI":"大橋里","LIN":"28鄰","STREET":"中華路","SECT":" ","MAREA":" ","LANE":" ","ALLEY":" ","HOUSE_NO":"６９２號","E_COORD97":171020.23000000001,"N_COORD97":2546253.9100000001,"ADDRESS":"中華路６９２號","OBJECTID":568321},"geometry":{"x":171020.23000000138,"y":2546253.910000002}},{"attributes":{"ID":568349,"DIS_CODE":0,"TOWNNAME":"永康區","LI":"大橋里","LIN":"28鄰","STREET":"中華路","SECT":" ","MAREA":" ","LANE":" ","ALLEY":" ","HOUSE_NO":"７４６號","E_COORD97":170938.67999999999,"N_COORD97":2546376.7400000002,"ADDRESS":"中華路７４６號","OBJECTID":568322},"geometry":{"x":170938.6799999997,"y":2546376.7400000021}},{"attributes":{"ID":568350,"DIS_CODE":0,"TOWNNAME":"永康區","LI":"大灣里","LIN":"28鄰","STREET":"大灣六街","SECT":" ","MAREA":" ","LANE":" ","ALLEY":" ","HOUSE_NO":"１７號","E_COORD97":175283.92000000001,"N_COORD97":2545191.8500000001,"ADDRESS":"大灣六街１７號","OBJECTID":568323},"geometry":{"x":175283.91999999993,"y":2545191.8500000015}},{"attributes":{"ID":568351,"DIS_CODE":0,"TOWNNAME":"永康區","LI":"大灣里","LIN":"28鄰","STREET":"文賢街","SECT":" ","MAREA":" ","LANE":" ","ALLEY":" ","HOUSE_NO":"６３號","E_COORD97":175302.62,"N_COORD97":2545072.46,"ADDRESS":"文賢街６３號","OBJECTID":568324},"geometry":{"x":175302.62000000104,"y":2545072.4600000009}},{"attributes":{"ID":568352,"DIS_CODE":0,"TOWNNAME":"永康區","LI":"大橋里","LIN":"28鄰","STREET":"中華路","SECT":" ","MAREA":" ","LANE":" ","ALLEY":" ","HOUSE_NO":"６１２號","E_COORD97":171148.20999999999,"N_COORD97":2546052.4900000002,"ADDRESS":"中華路６１２號","OBJECTID":568325},"geometry":{"x":171148.21000000089,"y":2546052.4900000021}},{"attributes":{"ID":568353,"DIS_CODE":0,"TOWNNAME":"永康區","LI":"大橋里","LIN":"28鄰","STREET":"中華路","SECT":" ","MAREA":" ","LANE":" ","ALLEY":" ","HOUSE_NO":"６４８號","E_COORD97":171089.67999999999,"N_COORD97":2546121.5,"ADDRESS":"中華路６４８號","OBJECTID":568326},"geometry":{"x":171089.6799999997,"y":2546121.5}},{"attributes":{"ID":568354,"DIS_CODE":0,"TOWNNAME":"永康區","LI":"大橋里","LIN":"28鄰","STREET":"中華路","SECT":" ","MAREA":" ","LANE":" ","ALLEY":" ","HOUSE_NO":"７１６號","E_COORD97":170966.5,"N_COORD97":2546319.02,"ADDRESS":"中華路７１６號","OBJECTID":568327},"geometry":{"x":170966.50000000093,"y":2546319.0200000033}},{"attributes":{"ID":568355,"DIS_CODE":0,"TOWNNAME":"永康區","LI":"大橋里","LIN":"28鄰","STREET":"中華路","SECT":" ","MAREA":" ","LANE":" ","ALLEY":" ","HOUSE_NO":"６２８號","E_COORD97":171113.39999999999,"N_COORD97":2546082.9900000002,"ADDRESS":"中華路６２８號","OBJECTID":568328},"geometry":{"x":171113.4000000013,"y":2546082.9900000021}},{"attributes":{"ID":568356,"DIS_CODE":0,"TOWNNAME":"永康區","LI":"大灣里","LIN":"28鄰","STREET":"文賢街","SECT":" ","MAREA":" ","LANE":" ","ALLEY":" ","HOUSE_NO":"５３號","E_COORD97":175277.07000000001,"N_COORD97":2545062.9500000002,"ADDRESS":"文賢街５３號","OBJECTID":568329},"geometry":{"x":175277.07000000216,"y":2545062.9499999993}},{"attributes":{"ID":568357,"DIS_CODE":0,"TOWNNAME":"永康區","LI":"大灣里","LIN":"28鄰","STREET":"民族路","SECT":" ","MAREA":" ","LANE":" ","ALLEY":" ","HOUSE_NO":"１８６號","E_COORD97":175141.92000000001,"N_COORD97":2545053.0099999998,"ADDRESS":"民族路１８６號","OBJECTID":568330},"geometry":{"x":175141.91999999899,"y":2545053.0099999998}},{"attributes":{"ID":568358,"DIS_CODE":0,"TOWNNAME":"永康區","LI":"大灣里","LIN":"28鄰","STREET":"文賢街","SECT":" ","MAREA":" ","LANE":" ","ALLEY":" ","HOUSE_NO":"４３號","E_COORD97":175294,"N_COORD97":2545034.0499999998,"ADDRESS":"文賢街４３號","OBJECTID":568331},"geometry":{"x":175293.99999999907,"y":2545034.0500000007}},{"attributes":{"ID":568359,"DIS_CODE":0,"TOWNNAME":"永康區","LI":"大橋里","LIN":"28鄰","STREET":"中華路","SECT":" ","MAREA":" ","LANE":" ","ALLEY":" ","HOUSE_NO":"６７２號","E_COORD97":171056.14000000001,"N_COORD97":2546181.9100000001,"ADDRESS":"中華路６７２號","OBJECTID":568332},"geometry":{"x":171056.13999999966,"y":2546181.910000002}},{"attributes":{"ID":568360,"DIS_CODE":0,"TOWNNAME":"永康區","LI":"大灣里","LIN":"28鄰","STREET":"民族路","SECT":" ","MAREA":" ","LANE":" ","ALLEY":" ","HOUSE_NO":"１８８號","E_COORD97":175137.82999999999,"N_COORD97":2545058.27,"ADDRESS":"民族路１８８號","OBJECTID":568333},"geometry":{"x":175137.83000000101,"y":2545058.2699999996}},{"attributes":{"ID":568361,"DIS_CODE":0,"TOWNNAME":"永康區","LI":"大橋里","LIN":"28鄰","STREET":"中華路","SECT":" ","MAREA":" ","LANE":" ","ALLEY":" ","HOUSE_NO":"６２４號","E_COORD97":171118.17999999999,"N_COORD97":2546074.4900000002,"ADDRESS":"中華路６２４號","OBJECTID":568334},"geometry":{"x":171118.1799999997,"y":2546074.4900000002}},{"attributes":{"ID":568362,"DIS_CODE":0,"TOWNNAME":"永康區","LI":"大灣里","LIN":"28鄰","STREET":"文賢街","SECT":" ","MAREA":" ","LANE":" ","ALLEY":" ","HOUSE_NO":"６１號","E_COORD97":175302.09,"N_COORD97":2545067.96,"ADDRESS":"文賢街６１號","OBJECTID":568335},"geometry":{"x":175302.09000000078,"y":2545067.9600000028}},{"attributes":{"ID":568363,"DIS_CODE":0,"TOWNNAME":"永康區","LI":"大灣里","LIN":"28鄰","STREET":"民族路","SECT":" ","MAREA":" ","LANE":" ","ALLEY":" ","HOUSE_NO":"１５２號","E_COORD97":175216.81,"N_COORD97":2544998.2400000002,"ADDRESS":"民族路１５２號","OBJECTID":568336},"geometry":{"x":175216.80999999959,"y":2544998.2400000002}},{"attributes":{"ID":568364,"DIS_CODE":0,"TOWNNAME":"永康區","LI":"五王里","LIN":"28鄰","STREET":"五福街","SECT":" ","MAREA":" ","LANE":" ","ALLEY":" ","HOUSE_NO":"１７８號","E_COORD97":171647.10000000001,"N_COORD97":2546035.5,"ADDRESS":"五福街１７８號","OBJECTID":568337},"geometry":{"x":171647.10000000056,"y":2546035.5000000019}},{"attributes":{"ID":568365,"DIS_CODE":0,"TOWNNAME":"永康區","LI":"五王里","LIN":"28鄰","STREET":"五福街","SECT":" ","MAREA":" ","LANE":" ","ALLEY":" ","HOUSE_NO":"１１４號","E_COORD97":171550.29000000001,"N_COORD97":2545987.4900000002,"ADDRESS":"五福街１１４號","OBJECTID":568338},"geometry":{"x":171550.29000000004,"y":2545987.4900000039}},{"attributes":{"ID":568366,"DIS_CODE":0,"TOWNNAME":"永康區","LI":"五王里","LIN":"28鄰","STREET":"五福街","SECT":" ","MAREA":" ","LANE":" ","ALLEY":" ","HOUSE_NO":"１７６號","E_COORD97":171643.45000000001,"N_COORD97":2546034,"ADDRESS":"五福街１７６號","OBJECTID":568339},"geometry":{"x":171643.45000000112,"y":2546034}},{"attributes":{"ID":568367,"DIS_CODE":0,"TOWNNAME":"永康區","LI":"復國里","LIN":"28鄰","STREET":"復華二街","SECT":" ","MAREA":" ","LANE":" ","ALLEY":" ","HOUSE_NO":"２４號","E_COORD97":172622.38,"N_COORD97":2545362.27,"ADDRESS":"復華二街２４號","OBJECTID":568340},"geometry":{"x":172622.37999999989,"y":2545362.2700000014}},{"attributes":{"ID":568368,"DIS_CODE":0,"TOWNNAME":"安南區","LI":"安慶里","LIN":"28鄰","STREET":"怡安路","SECT":"一段","MAREA":" ","LANE":" ","ALLEY":" ","HOUSE_NO":"１８１號","E_COORD97":169192.76999999999,"N_COORD97":2549019.1699999999,"ADDRESS":"怡安路一段１８１號","OBJECTID":568341},"geometry":{"x":169192.77000000048,"y":2549019.1699999999}},{"attributes":{"ID":568369,"DIS_CODE":0,"TOWNNAME":"安南區","LI":"安慶里","LIN":"28鄰","STREET":"怡安路","SECT":"一段","MAREA":" ","LANE":" ","ALLEY":" ","HOUSE_NO":"１８３號","E_COORD97":169188.63,"N_COORD97":2549020.5699999998,"ADDRESS":"怡安路一段１８３號","OBJECTID":568342},"geometry":{"x":169188.62999999896,"y":2549020.5700000003}},{"attributes":{"ID":568370,"DIS_CODE":0,"TOWNNAME":"安南區","LI":"安慶里","LIN":"28鄰","STREET":"怡安路","SECT":"一段","MAREA":" ","LANE":" ","ALLEY":" ","HOUSE_NO":"１８５號","E_COORD97":169184.41,"N_COORD97":2549021.3500000001,"ADDRESS":"怡安路一段１８５號","OBJECTID":568343},"geometry":{"x":169184.41000000108,"y":2549021.3499999996}},{"attributes":{"ID":568371,"DIS_CODE":0,"TOWNNAME":"安南區","LI":"安慶里","LIN":"28鄰","STREET":"怡安路","SECT":"一段","MAREA":" ","LANE":" ","ALLEY":" ","HOUSE_NO":"１８７號","E_COORD97":169180.5,"N_COORD97":2549022.3700000001,"ADDRESS":"怡安路一段１８７號","OBJECTID":568344},"geometry":{"x":169180.5,"y":2549022.370000001}},{"attributes":{"ID":568372,"DIS_CODE":0,"TOWNNAME":"安南區","LI":"安慶里","LIN":"28鄰","STREET":"怡安路","SECT":"一段","MAREA":" ","LANE":" ","ALLEY":" ","HOUSE_NO":"１８９號","E_COORD97":169175.97,"N_COORD97":2549022.8399999999,"ADDRESS":"怡安路一段１８９號","OBJECTID":568345},"geometry":{"x":169175.96999999881,"y":2549022.8400000036}},{"attributes":{"ID":568373,"DIS_CODE":0,"TOWNNAME":"安南區","LI":"安慶里","LIN":"28鄰","STREET":"怡安路","SECT":"一段","MAREA":" ","LANE":" ","ALLEY":" ","HOUSE_NO":"１９１號","E_COORD97":169172.14000000001,"N_COORD97":2549023.77,"ADDRESS":"怡安路一段１９１號","OBJECTID":568346},"geometry":{"x":169172.1400000006,"y":2549023.7700000014}},{"attributes":{"ID":568374,"DIS_CODE":0,"TOWNNAME":"仁德區","LI":"仁義里","LIN":"28鄰","STREET":"中清路","SECT":" ","MAREA":" ","LANE":" ","ALLEY":" ","HOUSE_NO":"１６５號","E_COORD97":173718.26000000001,"N_COORD97":2541526.54,"ADDRESS":"中清路１６５號","OBJECTID":568347},"geometry":{"x":173718.25999999978,"y":2541526.5399999991}},{"attributes":{"ID":568375,"DIS_CODE":0,"TOWNNAME":"仁德區","LI":"太子里","LIN":"28鄰","STREET":"太子路","SECT":" ","MAREA":" ","LANE":" ","ALLEY":" ","HOUSE_NO":"７０９之１號","E_COORD97":173124.75373500001,"N_COORD97":2543467.60934,"ADDRESS":"太子路７０９之１號","OBJECTID":568348},"geometry":{"x":173124.75373500027,"y":2543467.6093380004}},{"attributes":{"ID":568376,"DIS_CODE":0,"TOWNNAME":"東區","LI":"大智里","LIN":"28鄰","STREET":"德東街","SECT":" ","MAREA":" ","LANE":" ","ALLEY":" ","HOUSE_NO":"２２４號","E_COORD97":171400.57999999999,"N_COORD97":2540242.2400000002,"ADDRESS":"德東街２２４號","OBJECTID":568349},"geometry":{"x":171400.58000000101,"y":2540242.2400000002}},{"attributes":{"ID":568377,"DIS_CODE":0,"TOWNNAME":"東區","LI":"大智里","LIN":"28鄰","STREET":"德東街","SECT":" ","MAREA":" ","LANE":" ","ALLEY":" ","HOUSE_NO":"２５６號","E_COORD97":171470.48999999999,"N_COORD97":2540244.6899999999,"ADDRESS":"德東街２５６號","OBJECTID":568350},"geometry":{"x":171470.49000000115,"y":2540244.6899999995}},{"attributes":{"ID":568378,"DIS_CODE":0,"TOWNNAME":"仁德區","LI":"成功里","LIN":"28鄰","STREET":"成功一街","SECT":" ","MAREA":" ","LANE":" ","ALLEY":" ","HOUSE_NO":"１４號","E_COORD97":170535.45000000001,"N_COORD97":2540189.2599999998,"ADDRESS":"成功一街１４號","OBJECTID":568351},"geometry":{"x":170535.45000000019,"y":2540189.2600000016}},{"attributes":{"ID":568379,"DIS_CODE":0,"TOWNNAME":"仁德區","LI":"成功里","LIN":"28鄰","STREET":"成功一街","SECT":" ","MAREA":" ","LANE":" ","ALLEY":" ","HOUSE_NO":"１２號","E_COORD97":170535.79000000001,"N_COORD97":2540193.52,"ADDRESS":"成功一街１２號","OBJECTID":568352},"geometry":{"x":170535.79000000097,"y":2540193.5200000014}},{"attributes":{"ID":568380,"DIS_CODE":0,"TOWNNAME":"仁德區","LI":"上崙里","LIN":"28鄰","STREET":"中正路","SECT":"一段","MAREA":" ","LANE":" ","ALLEY":" ","HOUSE_NO":"６８２號","E_COORD97":172879.13,"N_COORD97":2537594.52,"ADDRESS":"中正路一段６８２號","OBJECTID":568353},"geometry":{"x":172879.13000000175,"y":2537594.5199999996}},{"attributes":{"ID":568381,"DIS_CODE":0,"TOWNNAME":"安南區","LI":"安慶里","LIN":"28鄰","STREET":"怡安路","SECT":"一段","MAREA":" ","LANE":" ","ALLEY":" ","HOUSE_NO":"１９０號","E_COORD97":169211.35000000001,"N_COORD97":2549053.1299999999,"ADDRESS":"怡安路一段１９０號","OBJECTID":568354},"geometry":{"x":169211.35000000056,"y":2549053.129999999}},{"attributes":{"ID":568382,"DIS_CODE":0,"TOWNNAME":"安南區","LI":"安慶里","LIN":"28鄰","STREET":"怡安路","SECT":"一段","MAREA":" ","LANE":" ","ALLEY":" ","HOUSE_NO":"２１０號","E_COORD97":169168.29999999999,"N_COORD97":2549064.1699999999,"ADDRESS":"怡安路一段２１０號","OBJECTID":568355},"geometry":{"x":169168.29999999981,"y":2549064.1699999999}},{"attributes":{"ID":568383,"DIS_CODE":0,"TOWNNAME":"安南區","LI":"安慶里","LIN":"28鄰","STREET":"怡安路","SECT":"一段","MAREA":" ","LANE":" ","ALLEY":" ","HOUSE_NO":"１９０號之１","E_COORD97":169241.97,"N_COORD97":2549042.0499999998,"ADDRESS":"怡安路一段１９０號之１","OBJECTID":568356},"geometry":{"x":169241.96999999974,"y":2549042.0500000007}},{"attributes":{"ID":568384,"DIS_CODE":0,"TOWNNAME":"中西區","LI":"法華里","LIN":"14鄰","STREET":"五妃街","SECT":" ","MAREA":" ","LANE":" ","ALLEY":" ","HOUSE_NO":"６７號","E_COORD97":168933.37,"N_COORD97":2542553.4100000001,"ADDRESS":"五妃街６７號","OBJECTID":568357},"geometry":{"x":168933.37000000104,"y":2542553.4099999983}},{"attributes":{"ID":568385,"DIS_CODE":0,"TOWNNAME":"永康區","LI":"大橋里","LIN":"28鄰","STREET":"中華路","SECT":" ","MAREA":" ","LANE":" ","ALLEY":" ","HOUSE_NO":"７１０號","E_COORD97":170975,"N_COORD97":2546307.77,"ADDRESS":"中華路７１０號","OBJECTID":568358},"geometry":{"x":170975.00000000093,"y":2546307.7700000014}},{"attributes":{"ID":568386,"DIS_CODE":0,"TOWNNAME":"永康區","LI":"大灣里","LIN":"28鄰","STREET":"文賢街","SECT":" ","MAREA":" ","LANE":" ","ALLEY":" ","HOUSE_NO":"４９號","E_COORD97":175297,"N_COORD97":2545048.5499999998,"ADDRESS":"文賢街４９號","OBJECTID":568359},"geometry":{"x":175297,"y":2545048.5500000045}},{"attributes":{"ID":568387,"DIS_CODE":0,"TOWNNAME":"永康區","LI":"大橋里","LIN":"28鄰","STREET":"中華路","SECT":" ","MAREA":" ","LANE":" ","ALLEY":" ","HOUSE_NO":"６８２號之１","E_COORD97":171032.66,"N_COORD97":2546227.21,"ADDRESS":"中華路６８２號之１","OBJECTID":568360},"geometry":{"x":171032.66000000015,"y":2546227.2100000009}},{"attributes":{"ID":568388,"DIS_CODE":0,"TOWNNAME":"永康區","LI":"大灣里","LIN":"28鄰","STREET":"大灣六街","SECT":" ","MAREA":" ","LANE":" ","ALLEY":" ","HOUSE_NO":"１５號","E_COORD97":175288.73000000001,"N_COORD97":2545192.3500000001,"ADDRESS":"大灣六街１５號","OBJECTID":568361},"geometry":{"x":175288.73000000138,"y":2545192.3500000015}},{"attributes":{"ID":568389,"DIS_CODE":0,"TOWNNAME":"永康區","LI":"大橋里","LIN":"28鄰","STREET":"中華路","SECT":" ","MAREA":" ","LANE":" ","ALLEY":" ","HOUSE_NO":"６７０號","E_COORD97":171060.73000000001,"N_COORD97":2546175.1600000001,"ADDRESS":"中華路６７０號","OBJECTID":568362},"geometry":{"x":171060.73000000138,"y":2546175.1600000001}},{"attributes":{"ID":568390,"DIS_CODE":0,"TOWNNAME":"永康區","LI":"五王里","LIN":"28鄰","STREET":"五福街","SECT":" ","MAREA":" ","LANE":" ","ALLEY":" ","HOUSE_NO":"１７０號","E_COORD97":171636.39999999999,"N_COORD97":2546030.25,"ADDRESS":"五福街１７０號","OBJECTID":568363},"geometry":{"x":171636.40000000037,"y":2546030.2500000019}},{"attributes":{"ID":568391,"DIS_CODE":0,"TOWNNAME":"南區","LI":"彰南里","LIN":"19鄰","STREET":"新樂路","SECT":" ","MAREA":" ","LANE":" ","ALLEY":" ","HOUSE_NO":"２號","E_COORD97":165734.84,"N_COORD97":2542301.4900000002,"ADDRESS":"新樂路２號","OBJECTID":568364},"geometry":{"x":165734.84000000078,"y":2542301.4900000002}},{"attributes":{"ID":568392,"DIS_CODE":0,"TOWNNAME":"永康區","LI":"五王里","LIN":"28鄰","STREET":"五福街","SECT":" ","MAREA":" ","LANE":" ","ALLEY":" ","HOUSE_NO":"１４６號","E_COORD97":171600.57000000001,"N_COORD97":2546012.5,"ADDRESS":"五福街１４６號","OBJECTID":568365},"geometry":{"x":171600.57000000123,"y":2546012.5000000019}},{"attributes":{"ID":568393,"DIS_CODE":0,"TOWNNAME":"永康區","LI":"大橋里","LIN":"28鄰","STREET":"中華路","SECT":" ","MAREA":" ","LANE":" ","ALLEY":" ","HOUSE_NO":"７００號","E_COORD97":170992.5,"N_COORD97":2546284.5099999998,"ADDRESS":"中華路７００號","OBJECTID":568366},"geometry":{"x":170992.50000000093,"y":2546284.5099999998}},{"attributes":{"ID":568394,"DIS_CODE":0,"TOWNNAME":"永康區","LI":"埔園里","LIN":"28鄰","STREET":"埔園街","SECT":" ","MAREA":" ","LANE":" ","ALLEY":" ","HOUSE_NO":"２０７號","E_COORD97":173703.32000000001,"N_COORD97":2548237.6800000002,"ADDRESS":"埔園街２０７號","OBJECTID":568367},"geometry":{"x":173703.3200000003,"y":2548237.6800000016}},{"attributes":{"ID":568395,"DIS_CODE":0,"TOWNNAME":"永康區","LI":"埔園里","LIN":"28鄰","STREET":"中山路","SECT":" ","MAREA":" ","LANE":" ","ALLEY":" ","HOUSE_NO":"３５０號","E_COORD97":173654.26999999999,"N_COORD97":2548264.4700000002,"ADDRESS":"中山路３５０號","OBJECTID":568368},"geometry":{"x":173654.27000000142,"y":2548264.4700000025}},{"attributes":{"ID":568396,"DIS_CODE":0,"TOWNNAME":"永康區","LI":"埔園里","LIN":"28鄰","STREET":"中山路","SECT":" ","MAREA":" ","LANE":" ","ALLEY":" ","HOUSE_NO":"３４４號","E_COORD97":173657.01000000001,"N_COORD97":2548251.2200000002,"ADDRESS":"中山路３４４號","OBJECTID":568369},"geometry":{"x":173657.01000000071,"y":2548251.2200000044}},{"attributes":{"ID":568397,"DIS_CODE":0,"TOWNNAME":"永康區","LI":"埔園里","LIN":"28鄰","STREET":"中山路","SECT":" ","MAREA":" ","LANE":" ","ALLEY":" ","HOUSE_NO":"３３６號","E_COORD97":173669.64999999999,"N_COORD97":2548215.4399999999,"ADDRESS":"中山路３３６號","OBJECTID":568370},"geometry":{"x":173669.6500000013,"y":2548215.4400000013}},{"attributes":{"ID":568398,"DIS_CODE":0,"TOWNNAME":"安南區","LI":"安富里","LIN":"28鄰","STREET":"府安路","SECT":"五段","MAREA":" ","LANE":" ","ALLEY":" ","HOUSE_NO":"２２７號","E_COORD97":167495.20000000001,"N_COORD97":2546910.7599999998,"ADDRESS":"府安路五段２２７號","OBJECTID":568371},"geometry":{"x":167495.20000000205,"y":2546910.7600000035}},{"attributes":{"ID":568399,"DIS_CODE":0,"TOWNNAME":"安南區","LI":"安富里","LIN":"28鄰","STREET":"府安路","SECT":"五段","MAREA":" ","LANE":" ","ALLEY":" ","HOUSE_NO":"２２８號","E_COORD97":167488.79999999999,"N_COORD97":2546907.25,"ADDRESS":"府安路五段２２８號","OBJECTID":568372},"geometry":{"x":167488.79999999888,"y":2546907.25}},{"attributes":{"ID":568400,"DIS_CODE":0,"TOWNNAME":"中西區","LI":"天后里","LIN":"8鄰","STREET":"西門路","SECT":"二段","MAREA":" ","LANE":" ","ALLEY":" ","HOUSE_NO":"３２４號","E_COORD97":168039.81,"N_COORD97":2544199.2599999998,"ADDRESS":"西門路二段３２４號","OBJECTID":568373},"geometry":{"x":168039.81000000052,"y":2544199.2600000016}},{"attributes":{"ID":568401,"DIS_CODE":0,"TOWNNAME":"中西區","LI":"天后里","LIN":"8鄰","STREET":"西門路","SECT":"二段","MAREA":" ","LANE":" ","ALLEY":" ","HOUSE_NO":"３２６號","E_COORD97":168041.42000000001,"N_COORD97":2544201.54,"ADDRESS":"西門路二段３２６號","OBJECTID":568374},"geometry":{"x":168041.42000000086,"y":2544201.5399999991}},{"attributes":{"ID":568402,"DIS_CODE":0,"TOWNNAME":"中西區","LI":"天后里","LIN":"8鄰","STREET":"西門路","SECT":"二段","MAREA":" ","LANE":" ","ALLEY":" ","HOUSE_NO":"３２８號","E_COORD97":168045.17999999999,"N_COORD97":2544203.9500000002,"ADDRESS":"西門路二段３２８號","OBJECTID":568375},"geometry":{"x":168045.1799999997,"y":2544203.9500000011}},{"attributes":{"ID":568403,"DIS_CODE":0,"TOWNNAME":"安南區","LI":"安富里","LIN":"28鄰","STREET":"府安路","SECT":"五段","MAREA":" ","LANE":" ","ALLEY":" ","HOUSE_NO":"２２９號","E_COORD97":167483.69,"N_COORD97":2546905.6499999999,"ADDRESS":"府安路五段２２９號","OBJECTID":568376},"geometry":{"x":167483.69000000134,"y":2546905.6500000041}},{"attributes":{"ID":568404,"DIS_CODE":0,"TOWNNAME":"中西區","LI":"法華里","LIN":"14鄰","STREET":"五妃街","SECT":" ","MAREA":" ","LANE":" ","ALLEY":" ","HOUSE_NO":"６９號","E_COORD97":168928.26000000001,"N_COORD97":2542555.3700000001,"ADDRESS":"五妃街６９號","OBJECTID":568377},"geometry":{"x":168928.25999999885,"y":2542555.3700000029}},{"attributes":{"ID":568405,"DIS_CODE":0,"TOWNNAME":"東區","LI":"中西里","LIN":"28鄰","STREET":"東寧路","SECT":" ","MAREA":" ","LANE":" ","ALLEY":" ","HOUSE_NO":"１４２號","E_COORD97":170313.41,"N_COORD97":2543524.75,"ADDRESS":"東寧路１４２號","OBJECTID":568378},"geometry":{"x":170313.41000000108,"y":2543524.7500000019}},{"attributes":{"ID":568406,"DIS_CODE":0,"TOWNNAME":"東區","LI":"中西里","LIN":"28鄰","STREET":"東寧路","SECT":" ","MAREA":" ","LANE":" ","ALLEY":" ","HOUSE_NO":"１４４號","E_COORD97":170319.03,"N_COORD97":2543526.4300000002,"ADDRESS":"東寧路１４４號","OBJECTID":568379},"geometry":{"x":170319.03000000119,"y":2543526.4300000016}},{"attributes":{"ID":568407,"DIS_CODE":0,"TOWNNAME":"東區","LI":"中西里","LIN":"28鄰","STREET":"東寧路","SECT":" ","MAREA":" ","LANE":" ","ALLEY":" ","HOUSE_NO":"１４６號","E_COORD97":170324.38,"N_COORD97":2543527.98,"ADDRESS":"東寧路１４６號","OBJECTID":568380},"geometry":{"x":170324.37999999896,"y":2543527.9800000023}},{"attributes":{"ID":568408,"DIS_CODE":0,"TOWNNAME":"東區","LI":"中西里","LIN":"28鄰","STREET":"東寧路","SECT":" ","MAREA":" ","LANE":" ","ALLEY":" ","HOUSE_NO":"１４８號","E_COORD97":170331.84,"N_COORD97":2543531.0699999998,"ADDRESS":"東寧路１４８號","OBJECTID":568381},"geometry":{"x":170331.84000000078,"y":2543531.0700000003}},{"attributes":{"ID":568409,"DIS_CODE":0,"TOWNNAME":"東區","LI":"後甲里","LIN":"28鄰","STREET":"裕永一街","SECT":" ","MAREA":" ","LANE":" ","ALLEY":" ","HOUSE_NO":"７６號","E_COORD97":172432.10999999999,"N_COORD97":2543411.8300000001,"ADDRESS":"裕永一街７６號","OBJECTID":568382},"geometry":{"x":172432.1099999994,"y":2543411.8300000038}},{"attributes":{"ID":568410,"DIS_CODE":0,"TOWNNAME":"安南區","LI":"溪墘里","LIN":"28鄰","STREET":"海佃路","SECT":"一段","MAREA":" ","LANE":" ","ALLEY":" ","HOUSE_NO":"１００號","E_COORD97":167200.64999999999,"N_COORD97":2546982.8199999998,"ADDRESS":"海佃路一段１００號","OBJECTID":568383},"geometry":{"x":167200.65000000224,"y":2546982.8200000022}},{"attributes":{"ID":568411,"DIS_CODE":0,"TOWNNAME":"安南區","LI":"溪墘里","LIN":"28鄰","STREET":"海佃路","SECT":"一段","MAREA":" ","LANE":" ","ALLEY":" ","HOUSE_NO":"１０４號","E_COORD97":167199.35999999999,"N_COORD97":2546986.7000000002,"ADDRESS":"海佃路一段１０４號","OBJECTID":568384},"geometry":{"x":167199.36000000127,"y":2546986.7000000011}},{"attributes":{"ID":568412,"DIS_CODE":0,"TOWNNAME":"安南區","LI":"溪墘里","LIN":"28鄰","STREET":"海佃路","SECT":"一段","MAREA":" ","LANE":" ","ALLEY":" ","HOUSE_NO":"１０８號","E_COORD97":167200.51000000001,"N_COORD97":2546995.8300000001,"ADDRESS":"海佃路一段１０８號","OBJECTID":568385},"geometry":{"x":167200.50999999978,"y":2546995.8300000019}},{"attributes":{"ID":568413,"DIS_CODE":0,"TOWNNAME":"安南區","LI":"溪墘里","LIN":"28鄰","STREET":"海佃路","SECT":"一段","MAREA":" ","LANE":" ","ALLEY":" ","HOUSE_NO":"１０號","E_COORD97":167239.76000000001,"N_COORD97":2546775.4900000002,"ADDRESS":"海佃路一段１０號","OBJECTID":568386},"geometry":{"x":167239.75999999978,"y":2546775.4900000021}},{"attributes":{"ID":568414,"DIS_CODE":0,"TOWNNAME":"安南區","LI":"溪墘里","LIN":"28鄰","STREET":"海佃路","SECT":"一段","MAREA":" ","LANE":" ","ALLEY":" ","HOUSE_NO":"１４號","E_COORD97":167238.67999999999,"N_COORD97":2546784.1699999999,"ADDRESS":"海佃路一段１４號","OBJECTID":568387},"geometry":{"x":167238.68000000156,"y":2546784.1700000018}},{"attributes":{"ID":568415,"DIS_CODE":0,"TOWNNAME":"中西區","LI":"法華里","LIN":"1鄰","STREET":"府連路","SECT":" ","MAREA":" ","LANE":" ","ALLEY":" ","HOUSE_NO":"１２７號","E_COORD97":169057.98999999999,"N_COORD97":2542742.9500000002,"ADDRESS":"府連路１２７號","OBJECTID":568388},"geometry":{"x":169057.99000000115,"y":2542742.9500000011}},{"attributes":{"ID":568416,"DIS_CODE":0,"TOWNNAME":"中西區","LI":"法華里","LIN":"1鄰","STREET":"府連路","SECT":" ","MAREA":" ","LANE":" ","ALLEY":" ","HOUSE_NO":"１２９號","E_COORD97":169063.59,"N_COORD97":2542744.3500000001,"ADDRESS":"府連路１２９號","OBJECTID":568389},"geometry":{"x":169063.59000000171,"y":2542744.3500000015}},{"attributes":{"ID":568417,"DIS_CODE":0,"TOWNNAME":"中西區","LI":"法華里","LIN":"1鄰","STREET":"府連路","SECT":" ","MAREA":" ","LANE":" ","ALLEY":" ","HOUSE_NO":"１３１號","E_COORD97":169065.26000000001,"N_COORD97":2542748.2599999998,"ADDRESS":"府連路１３１號","OBJECTID":568390},"geometry":{"x":169065.25999999978,"y":2542748.2600000016}},{"attributes":{"ID":568418,"DIS_CODE":0,"TOWNNAME":"中西區","LI":"法華里","LIN":"1鄰","STREET":"府連路","SECT":" ","MAREA":" ","LANE":" ","ALLEY":" ","HOUSE_NO":"１３３號","E_COORD97":169068.62,"N_COORD97":2542750.77,"ADDRESS":"府連路１３３號","OBJECTID":568391},"geometry":{"x":169068.62000000197,"y":2542750.7700000033}},{"attributes":{"ID":568419,"DIS_CODE":0,"TOWNNAME":"中西區","LI":"法華里","LIN":"1鄰","STREET":"府連路","SECT":" ","MAREA":" ","LANE":" ","ALLEY":" ","HOUSE_NO":"１３５號","E_COORD97":169071.51000000001,"N_COORD97":2542754.1699999999,"ADDRESS":"府連路１３５號","OBJECTID":568392},"geometry":{"x":169071.51000000071,"y":2542754.1699999999}},{"attributes":{"ID":568420,"DIS_CODE":0,"TOWNNAME":"安南區","LI":"溪墘里","LIN":"28鄰","STREET":"海佃路","SECT":"一段","MAREA":" ","LANE":" ","ALLEY":" ","HOUSE_NO":"１８號","E_COORD97":167236.758741,"N_COORD97":2546794.15069,"ADDRESS":"海佃路一段１８號","OBJECTID":568393},"geometry":{"x":167236.75874100067,"y":2546794.1506860014}},{"attributes":{"ID":568421,"DIS_CODE":0,"TOWNNAME":"中西區","LI":"法華里","LIN":"1鄰","STREET":"府連路","SECT":" ","MAREA":" ","LANE":" ","ALLEY":" ","HOUSE_NO":"１３７號","E_COORD97":169070.81,"N_COORD97":2542758.5699999998,"ADDRESS":"府連路１３７號","OBJECTID":568394},"geometry":{"x":169070.81000000052,"y":2542758.5700000003}},{"attributes":{"ID":568422,"DIS_CODE":0,"TOWNNAME":"中西區","LI":"法華里","LIN":"1鄰","STREET":"府連路","SECT":" ","MAREA":" ","LANE":" ","ALLEY":" ","HOUSE_NO":"１３９號","E_COORD97":169071.04000000001,"N_COORD97":2542764.6000000001,"ADDRESS":"府連路１３９號","OBJECTID":568395},"geometry":{"x":169071.04000000097,"y":2542764.5999999996}},{"attributes":{"ID":568423,"DIS_CODE":0,"TOWNNAME":"中西區","LI":"法華里","LIN":"1鄰","STREET":"法華街","SECT":" ","MAREA":" ","LANE":" ","ALLEY":" ","HOUSE_NO":"２３號","E_COORD97":169043.70999999999,"N_COORD97":2542752.4500000002,"ADDRESS":"法華街２３號","OBJECTID":568396},"geometry":{"x":169043.70999999996,"y":2542752.450000003}},{"attributes":{"ID":568424,"DIS_CODE":0,"TOWNNAME":"中西區","LI":"法華里","LIN":"1鄰","STREET":"法華街","SECT":" ","MAREA":" ","LANE":" ","ALLEY":" ","HOUSE_NO":"２５號","E_COORD97":169040.91,"N_COORD97":2542748.8199999998,"ADDRESS":"法華街２５號","OBJECTID":568397},"geometry":{"x":169040.91000000015,"y":2542748.8200000022}},{"attributes":{"ID":568425,"DIS_CODE":0,"TOWNNAME":"中西區","LI":"法華里","LIN":"1鄰","STREET":"法華街","SECT":" ","MAREA":" ","LANE":" ","ALLEY":" ","HOUSE_NO":"２７號","E_COORD97":169035.59,"N_COORD97":2542745.4700000002,"ADDRESS":"法華街２７號","OBJECTID":568398},"geometry":{"x":169035.58999999985,"y":2542745.4700000007}},{"attributes":{"ID":568426,"DIS_CODE":0,"TOWNNAME":"安南區","LI":"溪墘里","LIN":"28鄰","STREET":"海佃路","SECT":"一段","MAREA":" ","LANE":" ","ALLEY":" ","HOUSE_NO":"６２號","E_COORD97":167218.70999999999,"N_COORD97":2546885.21,"ADDRESS":"海佃路一段６２號","OBJECTID":568399},"geometry":{"x":167218.71000000089,"y":2546885.2100000046}},{"attributes":{"ID":568427,"DIS_CODE":0,"TOWNNAME":"安南區","LI":"溪墘里","LIN":"28鄰","STREET":"海佃路","SECT":"一段","MAREA":" ","LANE":" ","ALLEY":" ","HOUSE_NO":"６４之１號","E_COORD97":167216.29999999999,"N_COORD97":2546895.4500000002,"ADDRESS":"海佃路一段６４之１號","OBJECTID":568400},"geometry":{"x":167216.30000000075,"y":2546895.450000003}}]}