{"displayFieldName":"TOWNNAME","fieldAliases":{"ID":"ID","DIS_CODE":"DIS_CODE","TOWNNAME":"TOWNNAME","LI":"LI","LIN":"LIN","STREET":"STREET","SECT":"SECT","MAREA":"MAREA","LANE":"LANE","ALLEY":"ALLEY","HOUSE_NO":"HOUSE_NO","E_COORD97":"E_COORD97","N_COORD97":"N_COORD97","ADDRESS":"ADDRESS","OBJECTID":"OBJECTID"},"geometryType":"esriGeometryPoint","spatialReference":{"wkid":102443,"latestWkid":3826},"fields":[{"name":"ID","type":"esriFieldTypeDouble","alias":"ID"},{"name":"DIS_CODE","type":"esriFieldTypeInteger","alias":"DIS_CODE"},{"name":"TOWNNAME","type":"esriFieldTypeString","alias":"TOWNNAME","length":8},{"name":"LI","type":"esriFieldTypeString","alias":"LI","length":8},{"name":"LIN","type":"esriFieldTypeString","alias":"LIN","length":12},{"name":"STREET","type":"esriFieldTypeString","alias":"STREET","length":20},{"name":"SECT","type":"esriFieldTypeString","alias":"SECT","length":8},{"name":"MAREA","type":"esriFieldTypeString","alias":"MAREA","length":12},{"name":"LANE","type":"esriFieldTypeString","alias":"LANE","length":10},{"name":"ALLEY","type":"esriFieldTypeString","alias":"ALLEY","length":10},{"name":"HOUSE_NO","type":"esriFieldTypeString","alias":"HOUSE_NO","length":20},{"name":"E_COORD97","type":"esriFieldTypeDouble","alias":"E_COORD97"},{"name":"N_COORD97","type":"esriFieldTypeDouble","alias":"N_COORD97"},{"name":"ADDRESS","type":"esriFieldTypeString","alias":"ADDRESS","length":50},{"name":"OBJECTID","type":"esriFieldTypeOID","alias":"OBJECTID"}],"features":[{"attributes":{"ID":651028,"DIS_CODE":0,"TOWNNAME":"佳里區","LI":"佳化里","LIN":"10鄰","STREET":" ","SECT":" ","MAREA":"佳里興","LANE":" ","ALLEY":" ","HOUSE_NO":"１２５號之１","E_COORD97":167398.48972099999,"N_COORD97":2565035.0768400002,"ADDRESS":"佳里興１２５號之１","OBJECTID":651001},"geometry":{"x":167398.48972100019,"y":2565035.0768410023}},{"attributes":{"ID":651029,"DIS_CODE":0,"TOWNNAME":"楠西區","LI":"龜丹里","LIN":"4鄰","STREET":" ","SECT":" ","MAREA":"龜丹","LANE":" ","ALLEY":" ","HOUSE_NO":"４０號之２６","E_COORD97":198278.24746099999,"N_COORD97":2559252.9253500002,"ADDRESS":"龜丹４０號之２６","OBJECTID":651002},"geometry":{"x":198278.24746100139,"y":2559252.9253499992}},{"attributes":{"ID":651030,"DIS_CODE":0,"TOWNNAME":"仁德區","LI":"土庫里","LIN":"2鄰","STREET":"太乙九街","SECT":" ","MAREA":" ","LANE":" ","ALLEY":" ","HOUSE_NO":"１號","E_COORD97":173309.45454499999,"N_COORD97":2542573.6935700001,"ADDRESS":"太乙九街１號","OBJECTID":651003},"geometry":{"x":173309.45454499964,"y":2542573.6935709976}},{"attributes":{"ID":651031,"DIS_CODE":0,"TOWNNAME":"新營區","LI":"好平里","LIN":"4鄰","STREET":"長春街","SECT":" ","MAREA":" ","LANE":" ","ALLEY":" ","HOUSE_NO":"７３號","E_COORD97":179583.03373900001,"N_COORD97":2577825.9828599999,"ADDRESS":"長春街７３號","OBJECTID":651004},"geometry":{"x":179583.03373900056,"y":2577825.9828580022}},{"attributes":{"ID":651032,"DIS_CODE":0,"TOWNNAME":"佳里區","LI":"佳化里","LIN":"11鄰","STREET":" ","SECT":" ","MAREA":"佳里興","LANE":" ","ALLEY":" ","HOUSE_NO":"１０５號","E_COORD97":167375.82003500001,"N_COORD97":2564938.34577,"ADDRESS":"佳里興１０５號","OBJECTID":651005},"geometry":{"x":167375.8200349994,"y":2564938.3457720019}},{"attributes":{"ID":651033,"DIS_CODE":0,"TOWNNAME":"七股區","LI":"大埕里","LIN":"10鄰","STREET":" ","SECT":" ","MAREA":"大埕","LANE":" ","ALLEY":" ","HOUSE_NO":"３４１號","E_COORD97":162042.83094700001,"N_COORD97":2560148.8072500001,"ADDRESS":"大埕３４１號","OBJECTID":651006},"geometry":{"x":162042.83094700146,"y":2560148.8072490022}},{"attributes":{"ID":651034,"DIS_CODE":0,"TOWNNAME":"仁德區","LI":"土庫里","LIN":"2鄰","STREET":"太乙九街","SECT":" ","MAREA":" ","LANE":" ","ALLEY":" ","HOUSE_NO":"２號","E_COORD97":173332.976352,"N_COORD97":2542571.8944100002,"ADDRESS":"太乙九街２號","OBJECTID":651007},"geometry":{"x":173332.97635200154,"y":2542571.8944060039}},{"attributes":{"ID":651035,"DIS_CODE":0,"TOWNNAME":"仁德區","LI":"土庫里","LIN":"2鄰","STREET":"太乙九街","SECT":" ","MAREA":" ","LANE":" ","ALLEY":" ","HOUSE_NO":"８號","E_COORD97":173339.96932100001,"N_COORD97":2542600.6810599999,"ADDRESS":"太乙九街８號","OBJECTID":651008},"geometry":{"x":173339.96932100039,"y":2542600.6810570005}},{"attributes":{"ID":651036,"DIS_CODE":0,"TOWNNAME":"佳里區","LI":"佳化里","LIN":"12鄰","STREET":" ","SECT":" ","MAREA":"佳里興","LANE":" ","ALLEY":" ","HOUSE_NO":"１２１號","E_COORD97":167366.074188,"N_COORD97":2564958.8773099999,"ADDRESS":"佳里興１２１號","OBJECTID":651009},"geometry":{"x":167366.07418800145,"y":2564958.8773120046}},{"attributes":{"ID":651037,"DIS_CODE":0,"TOWNNAME":"仁德區","LI":"二行里","LIN":"16鄰","STREET":"行大二街","SECT":" ","MAREA":" ","LANE":" ","ALLEY":" ","HOUSE_NO":"４７號","E_COORD97":169680.333537,"N_COORD97":2535245.2596300002,"ADDRESS":"行大二街４７號","OBJECTID":651010},"geometry":{"x":169680.33353700023,"y":2535245.2596310023}},{"attributes":{"ID":651038,"DIS_CODE":0,"TOWNNAME":"新營區","LI":"好平里","LIN":"4鄰","STREET":"長春街","SECT":" ","MAREA":" ","LANE":" ","ALLEY":" ","HOUSE_NO":"７５號","E_COORD97":179579.64305899999,"N_COORD97":2577825.5595200001,"ADDRESS":"長春街７５號","OBJECTID":651011},"geometry":{"x":179579.64305900037,"y":2577825.5595249999}},{"attributes":{"ID":651039,"DIS_CODE":0,"TOWNNAME":"仁德區","LI":"二行里","LIN":"16鄰","STREET":"行大二街","SECT":" ","MAREA":" ","LANE":" ","ALLEY":" ","HOUSE_NO":"４９號","E_COORD97":169678.425907,"N_COORD97":2535236.6871400001,"ADDRESS":"行大二街４９號","OBJECTID":651012},"geometry":{"x":169678.42590699997,"y":2535236.6871360019}},{"attributes":{"ID":651040,"DIS_CODE":0,"TOWNNAME":"佳里區","LI":"佳化里","LIN":"12鄰","STREET":" ","SECT":" ","MAREA":"佳里興","LANE":" ","ALLEY":" ","HOUSE_NO":"１１７號之１","E_COORD97":167303.997385,"N_COORD97":2564949.7757000001,"ADDRESS":"佳里興１１７號之１","OBJECTID":651013},"geometry":{"x":167303.99738499988,"y":2564949.7757009994}},{"attributes":{"ID":651041,"DIS_CODE":0,"TOWNNAME":"仁德區","LI":"田厝里","LIN":"7鄰","STREET":"中正路","SECT":"一段","MAREA":" ","LANE":" ","ALLEY":" ","HOUSE_NO":"５８１號","E_COORD97":172903.46562100001,"N_COORD97":2537781.3837199998,"ADDRESS":"中正路一段５８１號","OBJECTID":651014},"geometry":{"x":172903.46562100016,"y":2537781.383715}},{"attributes":{"ID":651042,"DIS_CODE":0,"TOWNNAME":"仁德區","LI":"二行里","LIN":"16鄰","STREET":"行大街","SECT":" ","MAREA":" ","LANE":"１７２巷","ALLEY":" ","HOUSE_NO":"６３號","E_COORD97":169763.034583,"N_COORD97":2535236.7400500001,"ADDRESS":"行大街１７２巷６３號","OBJECTID":651015},"geometry":{"x":169763.03458299953,"y":2535236.7400529999}},{"attributes":{"ID":651043,"DIS_CODE":0,"TOWNNAME":"仁德區","LI":"田厝里","LIN":"7鄰","STREET":"中正路","SECT":"一段","MAREA":" ","LANE":" ","ALLEY":" ","HOUSE_NO":"５６７號","E_COORD97":172896.05322599999,"N_COORD97":2537734.1820700001,"ADDRESS":"中正路一段５６７號","OBJECTID":651016},"geometry":{"x":172896.05322600063,"y":2537734.1820730027}},{"attributes":{"ID":651044,"DIS_CODE":0,"TOWNNAME":"關廟區","LI":"南花里","LIN":"2鄰","STREET":"中山路","SECT":"一段","MAREA":" ","LANE":"２０２巷","ALLEY":" ","HOUSE_NO":"１６號","E_COORD97":181933.87221999999,"N_COORD97":2540021.6822100002,"ADDRESS":"中山路一段２０２巷１６號","OBJECTID":651017},"geometry":{"x":181933.87222000118,"y":2540021.6822050028}},{"attributes":{"ID":651045,"DIS_CODE":0,"TOWNNAME":"仁德區","LI":"二行里","LIN":"16鄰","STREET":"行大街","SECT":" ","MAREA":" ","LANE":"１７２巷","ALLEY":" ","HOUSE_NO":"９２號","E_COORD97":169765.10118200001,"N_COORD97":2535265.42087,"ADDRESS":"行大街１７２巷９２號","OBJECTID":651018},"geometry":{"x":169765.10118200164,"y":2535265.4208700005}},{"attributes":{"ID":651046,"DIS_CODE":0,"TOWNNAME":"佳里區","LI":"佳化里","LIN":"15鄰","STREET":" ","SECT":" ","MAREA":"佳里興","LANE":" ","ALLEY":" ","HOUSE_NO":"１４３號","E_COORD97":167356.469373,"N_COORD97":2565100.6861,"ADDRESS":"佳里興１４３號","OBJECTID":651019},"geometry":{"x":167356.46937300172,"y":2565100.6861000042}},{"attributes":{"ID":651047,"DIS_CODE":0,"TOWNNAME":"佳里區","LI":"佳化里","LIN":"15鄰","STREET":" ","SECT":" ","MAREA":"佳里興","LANE":" ","ALLEY":" ","HOUSE_NO":"１４３號之１","E_COORD97":167357.104976,"N_COORD97":2565093.27777,"ADDRESS":"佳里興１４３號之１","OBJECTID":651020},"geometry":{"x":167357.10497600026,"y":2565093.2777710017}},{"attributes":{"ID":651048,"DIS_CODE":0,"TOWNNAME":"白河區","LI":"草店里","LIN":"11鄰","STREET":" ","SECT":" ","MAREA":"草店","LANE":" ","ALLEY":" ","HOUSE_NO":"１之１６號","E_COORD97":192833.828713,"N_COORD97":2587948.6167700002,"ADDRESS":"草店１之１６號","OBJECTID":651021},"geometry":{"x":192833.82871300075,"y":2587948.6167670004}},{"attributes":{"ID":651049,"DIS_CODE":0,"TOWNNAME":"仁德區","LI":"二行里","LIN":"17鄰","STREET":"行大街","SECT":" ","MAREA":" ","LANE":"１７２巷","ALLEY":"６１弄","HOUSE_NO":"１３號","E_COORD97":169741.30880100001,"N_COORD97":2535187.1042499999,"ADDRESS":"行大街１７２巷６１弄１３號","OBJECTID":651022},"geometry":{"x":169741.30880100001,"y":2535187.1042459998}},{"attributes":{"ID":651050,"DIS_CODE":0,"TOWNNAME":"七股區","LI":"大埕里","LIN":"10鄰","STREET":" ","SECT":" ","MAREA":"大埕","LANE":" ","ALLEY":" ","HOUSE_NO":"３４７號之１","E_COORD97":162068.39264800001,"N_COORD97":2560109.80852,"ADDRESS":"大埕３４７號之１","OBJECTID":651023},"geometry":{"x":162068.3926480012,"y":2560109.8085160013}},{"attributes":{"ID":651051,"DIS_CODE":0,"TOWNNAME":"佳里區","LI":"佳化里","LIN":"15鄰","STREET":" ","SECT":" ","MAREA":"佳里興","LANE":" ","ALLEY":" ","HOUSE_NO":"１４６號","E_COORD97":167363.67286600001,"N_COORD97":2565053.8019599998,"ADDRESS":"佳里興１４６號","OBJECTID":651024},"geometry":{"x":167363.67286600079,"y":2565053.8019590024}},{"attributes":{"ID":651052,"DIS_CODE":0,"TOWNNAME":"佳里區","LI":"佳化里","LIN":"15鄰","STREET":" ","SECT":" ","MAREA":"佳里興","LANE":" ","ALLEY":" ","HOUSE_NO":"１４８號","E_COORD97":167331.89275299999,"N_COORD97":2565037.2919700001,"ADDRESS":"佳里興１４８號","OBJECTID":651025},"geometry":{"x":167331.89275300037,"y":2565037.2919680011}},{"attributes":{"ID":651053,"DIS_CODE":0,"TOWNNAME":"仁德區","LI":"二行里","LIN":"17鄰","STREET":"行大街","SECT":" ","MAREA":" ","LANE":" ","ALLEY":" ","HOUSE_NO":"３３０號","E_COORD97":169661.20425000001,"N_COORD97":2535207.4771500002,"ADDRESS":"行大街３３０號","OBJECTID":651026},"geometry":{"x":169661.20425000135,"y":2535207.477152003}},{"attributes":{"ID":651054,"DIS_CODE":0,"TOWNNAME":"仁德區","LI":"田厝里","LIN":"7鄰","STREET":"中正路","SECT":"一段","MAREA":" ","LANE":" ","ALLEY":" ","HOUSE_NO":"５７１號","E_COORD97":172900.71244500001,"N_COORD97":2537750.4803999998,"ADDRESS":"中正路一段５７１號","OBJECTID":651027},"geometry":{"x":172900.71244500112,"y":2537750.4803979993}},{"attributes":{"ID":651055,"DIS_CODE":0,"TOWNNAME":"後壁區","LI":"頂長里","LIN":"7鄰","STREET":" ","SECT":" ","MAREA":"長短樹","LANE":" ","ALLEY":" ","HOUSE_NO":"１１８號","E_COORD97":181684.29142600001,"N_COORD97":2583799.2440800001,"ADDRESS":"長短樹１１８號","OBJECTID":651028},"geometry":{"x":181684.29142600112,"y":2583799.2440830003}},{"attributes":{"ID":651056,"DIS_CODE":0,"TOWNNAME":"佳里區","LI":"佳化里","LIN":"16鄰","STREET":" ","SECT":" ","MAREA":"佳里興","LANE":" ","ALLEY":" ","HOUSE_NO":"１５５號之３","E_COORD97":167296.51089400001,"N_COORD97":2565083.85861,"ADDRESS":"佳里興１５５號之３","OBJECTID":651029},"geometry":{"x":167296.5108939996,"y":2565083.8586090002}},{"attributes":{"ID":651057,"DIS_CODE":0,"TOWNNAME":"佳里區","LI":"佳化里","LIN":"18鄰","STREET":" ","SECT":" ","MAREA":"佳里興","LANE":" ","ALLEY":" ","HOUSE_NO":"１７８號","E_COORD97":167197.145074,"N_COORD97":2565039.9378,"ADDRESS":"佳里興１７８號","OBJECTID":651030},"geometry":{"x":167197.14507400058,"y":2565039.937799003}},{"attributes":{"ID":651058,"DIS_CODE":0,"TOWNNAME":"佳里區","LI":"佳化里","LIN":"20鄰","STREET":" ","SECT":" ","MAREA":"佳里興","LANE":" ","ALLEY":" ","HOUSE_NO":"２０１號之１","E_COORD97":167231.67946300001,"N_COORD97":2565263.45768,"ADDRESS":"佳里興２０１號之１","OBJECTID":651031},"geometry":{"x":167231.67946300097,"y":2565263.4576789998}},{"attributes":{"ID":651059,"DIS_CODE":0,"TOWNNAME":"關廟區","LI":"南花里","LIN":"11鄰","STREET":"四維街","SECT":" ","MAREA":" ","LANE":" ","ALLEY":" ","HOUSE_NO":"１８１號","E_COORD97":181849.94365299999,"N_COORD97":2540021.76938,"ADDRESS":"四維街１８１號","OBJECTID":651032},"geometry":{"x":181849.94365300052,"y":2540021.7693830002}},{"attributes":{"ID":651060,"DIS_CODE":0,"TOWNNAME":"佳里區","LI":"佳化里","LIN":"21鄰","STREET":" ","SECT":" ","MAREA":"佳里興","LANE":" ","ALLEY":" ","HOUSE_NO":"２０３號","E_COORD97":167242.90843700001,"N_COORD97":2565310.0243199999,"ADDRESS":"佳里興２０３號","OBJECTID":651033},"geometry":{"x":167242.90843699966,"y":2565310.0243199989}},{"attributes":{"ID":651061,"DIS_CODE":0,"TOWNNAME":"白河區","LI":"內角里","LIN":"2鄰","STREET":" ","SECT":" ","MAREA":"內角","LANE":" ","ALLEY":" ","HOUSE_NO":"２４之３號","E_COORD97":192630.37611300001,"N_COORD97":2588559.6865699999,"ADDRESS":"內角２４之３號","OBJECTID":651034},"geometry":{"x":192630.37611300033,"y":2588559.6865679994}},{"attributes":{"ID":651062,"DIS_CODE":0,"TOWNNAME":"佳里區","LI":"佳化里","LIN":"21鄰","STREET":" ","SECT":" ","MAREA":"佳里興","LANE":" ","ALLEY":" ","HOUSE_NO":"２０７號之９","E_COORD97":167287.61246199999,"N_COORD97":2565293.3555800002,"ADDRESS":"佳里興２０７號之９","OBJECTID":651035},"geometry":{"x":167287.61246200092,"y":2565293.3555790018}},{"attributes":{"ID":651063,"DIS_CODE":0,"TOWNNAME":"白河區","LI":"草店里","LIN":"7鄰","STREET":" ","SECT":" ","MAREA":"草店","LANE":" ","ALLEY":" ","HOUSE_NO":"６９號","E_COORD97":192045.88161099999,"N_COORD97":2587601.5284199999,"ADDRESS":"草店６９號","OBJECTID":651036},"geometry":{"x":192045.88161099982,"y":2587601.5284210015}},{"attributes":{"ID":651064,"DIS_CODE":0,"TOWNNAME":"關廟區","LI":"南花里","LIN":"8鄰","STREET":"四維街","SECT":" ","MAREA":" ","LANE":" ","ALLEY":" ","HOUSE_NO":"２３７號之１","E_COORD97":181821.11970099999,"N_COORD97":2540240.7384299999,"ADDRESS":"四維街２３７號之１","OBJECTID":651037},"geometry":{"x":181821.11970099993,"y":2540240.7384309992}},{"attributes":{"ID":651065,"DIS_CODE":0,"TOWNNAME":"白河區","LI":"關嶺里","LIN":"3鄰","STREET":" ","SECT":" ","MAREA":"關子嶺","LANE":" ","ALLEY":" ","HOUSE_NO":"２９８號","E_COORD97":198987.402397,"N_COORD97":2581792.8860200001,"ADDRESS":"關子嶺２９８號","OBJECTID":651038},"geometry":{"x":198987.40239700116,"y":2581792.8860209994}},{"attributes":{"ID":651066,"DIS_CODE":0,"TOWNNAME":"仁德區","LI":"二行里","LIN":"21鄰","STREET":"中正西路","SECT":" ","MAREA":" ","LANE":" ","ALLEY":" ","HOUSE_NO":"１４５號","E_COORD97":170195.790978,"N_COORD97":2535383.4778900002,"ADDRESS":"中正西路１４５號","OBJECTID":651039},"geometry":{"x":170195.79097800143,"y":2535383.4778899997}},{"attributes":{"ID":651067,"DIS_CODE":0,"TOWNNAME":"佳里區","LI":"佳化里","LIN":"22鄰","STREET":" ","SECT":" ","MAREA":"佳里興","LANE":" ","ALLEY":" ","HOUSE_NO":"２１９號之２","E_COORD97":167118.86006199999,"N_COORD97":2565457.5029899999,"ADDRESS":"佳里興２１９號之２","OBJECTID":651040},"geometry":{"x":167118.86006200034,"y":2565457.5029910039}},{"attributes":{"ID":651068,"DIS_CODE":0,"TOWNNAME":"關廟區","LI":"南花里","LIN":"11鄰","STREET":"四維街","SECT":" ","MAREA":" ","LANE":" ","ALLEY":" ","HOUSE_NO":"１６５號","E_COORD97":181853.12276599999,"N_COORD97":2539981.3410700001,"ADDRESS":"四維街１６５號","OBJECTID":651041},"geometry":{"x":181853.12276600115,"y":2539981.3410710003}},{"attributes":{"ID":651069,"DIS_CODE":0,"TOWNNAME":"仁德區","LI":"二行里","LIN":"21鄰","STREET":"二行一路","SECT":" ","MAREA":" ","LANE":"７１巷","ALLEY":" ","HOUSE_NO":"１５號","E_COORD97":170331.550625,"N_COORD97":2535321.1420900002,"ADDRESS":"二行一路７１巷１５號","OBJECTID":651042},"geometry":{"x":170331.55062500201,"y":2535321.1420900021}},{"attributes":{"ID":651070,"DIS_CODE":0,"TOWNNAME":"佳里區","LI":"佳化里","LIN":"22鄰","STREET":" ","SECT":" ","MAREA":"佳里興","LANE":" ","ALLEY":" ","HOUSE_NO":"１９６號之１２","E_COORD97":167179.45414399999,"N_COORD97":2565442.4746699999,"ADDRESS":"佳里興１９６號之１２","OBJECTID":651043},"geometry":{"x":167179.45414400101,"y":2565442.4746650029}},{"attributes":{"ID":651071,"DIS_CODE":0,"TOWNNAME":"關廟區","LI":"南花里","LIN":"5鄰","STREET":"花園一街","SECT":" ","MAREA":" ","LANE":" ","ALLEY":" ","HOUSE_NO":"９２號","E_COORD97":181940.65432599999,"N_COORD97":2540205.8134499998,"ADDRESS":"花園一街９２號","OBJECTID":651044},"geometry":{"x":181940.65432600211,"y":2540205.8134500012}},{"attributes":{"ID":651072,"DIS_CODE":0,"TOWNNAME":"佳里區","LI":"佳化里","LIN":"22鄰","STREET":" ","SECT":" ","MAREA":"佳里興","LANE":" ","ALLEY":" ","HOUSE_NO":"１９６號之２５","E_COORD97":167160.28014300001,"N_COORD97":2565493.9096400002,"ADDRESS":"佳里興１９６號之２５","OBJECTID":651045},"geometry":{"x":167160.28014300112,"y":2565493.9096380025}},{"attributes":{"ID":651073,"DIS_CODE":0,"TOWNNAME":"仁德區","LI":"二行里","LIN":"19鄰","STREET":"行大街","SECT":" ","MAREA":" ","LANE":" ","ALLEY":" ","HOUSE_NO":"２７２號","E_COORD97":169768.852854,"N_COORD97":2535151.9146799999,"ADDRESS":"行大街２７２號","OBJECTID":651046},"geometry":{"x":169768.8528540004,"y":2535151.9146820009}},{"attributes":{"ID":651074,"DIS_CODE":0,"TOWNNAME":"佳里區","LI":"佳化里","LIN":"22鄰","STREET":" ","SECT":" ","MAREA":"佳里興","LANE":" ","ALLEY":" ","HOUSE_NO":"１９６號之３４","E_COORD97":167160.49200999999,"N_COORD97":2565489.4646399999,"ADDRESS":"佳里興１９６號之３４","OBJECTID":651047},"geometry":{"x":167160.49201000016,"y":2565489.464639999}},{"attributes":{"ID":651075,"DIS_CODE":0,"TOWNNAME":"白河區","LI":"草店里","LIN":"3鄰","STREET":" ","SECT":" ","MAREA":"草店","LANE":" ","ALLEY":" ","HOUSE_NO":"２２之３號","E_COORD97":192249.60704800001,"N_COORD97":2588019.2442399999,"ADDRESS":"草店２２之３號","OBJECTID":651048},"geometry":{"x":192249.60704800021,"y":2588019.2442439999}},{"attributes":{"ID":651076,"DIS_CODE":0,"TOWNNAME":"佳里區","LI":"佳化里","LIN":"22鄰","STREET":" ","SECT":" ","MAREA":"佳里興","LANE":" ","ALLEY":" ","HOUSE_NO":"２１７號之２","E_COORD97":167239.73042499999,"N_COORD97":2565458.8788200002,"ADDRESS":"佳里興２１７號之２","OBJECTID":651049},"geometry":{"x":167239.73042500112,"y":2565458.8788230047}},{"attributes":{"ID":651077,"DIS_CODE":0,"TOWNNAME":"關廟區","LI":"南花里","LIN":"12鄰","STREET":"和平路","SECT":" ","MAREA":" ","LANE":" ","ALLEY":" ","HOUSE_NO":"２６２號","E_COORD97":181669.37007,"N_COORD97":2539948.5327599999,"ADDRESS":"和平路２６２號","OBJECTID":651050},"geometry":{"x":181669.37007000204,"y":2539948.5327560026}},{"attributes":{"ID":651078,"DIS_CODE":0,"TOWNNAME":"仁德區","LI":"二行里","LIN":"19鄰","STREET":"行大街","SECT":" ","MAREA":" ","LANE":" ","ALLEY":" ","HOUSE_NO":"２７０號","E_COORD97":169773.26159800001,"N_COORD97":2535151.6395100001,"ADDRESS":"行大街２７０號","OBJECTID":651051},"geometry":{"x":169773.2615980003,"y":2535151.6395149995}},{"attributes":{"ID":651079,"DIS_CODE":0,"TOWNNAME":"佳里區","LI":"佳化里","LIN":"22鄰","STREET":" ","SECT":" ","MAREA":"佳里興","LANE":" ","ALLEY":" ","HOUSE_NO":"２１４號之２","E_COORD97":167275.53601899999,"N_COORD97":2565704.4120200002,"ADDRESS":"佳里興２１４號之２","OBJECTID":651052},"geometry":{"x":167275.53601900116,"y":2565704.4120240007}},{"attributes":{"ID":651080,"DIS_CODE":0,"TOWNNAME":"仁德區","LI":"田厝里","LIN":"7鄰","STREET":"中正路","SECT":"一段","MAREA":" ","LANE":" ","ALLEY":" ","HOUSE_NO":"５７５號","E_COORD97":172905.58344799999,"N_COORD97":2537769.9537200001,"ADDRESS":"中正路一段５７５號","OBJECTID":651053},"geometry":{"x":172905.58344800025,"y":2537769.9537210017}},{"attributes":{"ID":651081,"DIS_CODE":0,"TOWNNAME":"仁德區","LI":"二行里","LIN":"19鄰","STREET":"行大街","SECT":" ","MAREA":" ","LANE":" ","ALLEY":" ","HOUSE_NO":"４３號","E_COORD97":169818.991721,"N_COORD97":2535211.9750700002,"ADDRESS":"行大街４３號","OBJECTID":651054},"geometry":{"x":169818.99172100145,"y":2535211.9750660006}},{"attributes":{"ID":651082,"DIS_CODE":0,"TOWNNAME":"東山區","LI":"東原里","LIN":"15鄰","STREET":" ","SECT":" ","MAREA":"瓦厝子","LANE":" ","ALLEY":" ","HOUSE_NO":"６號之１３","E_COORD97":193741.56522700001,"N_COORD97":2574319.6705299998,"ADDRESS":"瓦厝子６號之１３","OBJECTID":651055},"geometry":{"x":193741.56522700004,"y":2574319.6705339979}},{"attributes":{"ID":651083,"DIS_CODE":0,"TOWNNAME":"仁德區","LI":"二行里","LIN":"19鄰","STREET":"行大街","SECT":" ","MAREA":" ","LANE":" ","ALLEY":" ","HOUSE_NO":"３３號","E_COORD97":169844.95668100001,"N_COORD97":2535184.6700800001,"ADDRESS":"行大街３３號","OBJECTID":651056},"geometry":{"x":169844.956681001,"y":2535184.6700810008}},{"attributes":{"ID":651084,"DIS_CODE":0,"TOWNNAME":"仁德區","LI":"二行里","LIN":"19鄰","STREET":"行大街","SECT":" ","MAREA":" ","LANE":"１７２巷","ALLEY":"３１弄","HOUSE_NO":"１４號","E_COORD97":169804.896457,"N_COORD97":2535193.13674,"ADDRESS":"行大街１７２巷３１弄１４號","OBJECTID":651057},"geometry":{"x":169804.89645700064,"y":2535193.1367429998}},{"attributes":{"ID":651085,"DIS_CODE":0,"TOWNNAME":"仁德區","LI":"二行里","LIN":"19鄰","STREET":"行大街","SECT":" ","MAREA":" ","LANE":"１７２巷","ALLEY":"３１弄","HOUSE_NO":"９號","E_COORD97":169787.83376899999,"N_COORD97":2535181.91842,"ADDRESS":"行大街１７２巷３１弄９號","OBJECTID":651058},"geometry":{"x":169787.83376900107,"y":2535181.9184160028}},{"attributes":{"ID":651086,"DIS_CODE":0,"TOWNNAME":"仁德區","LI":"田厝里","LIN":"7鄰","STREET":"中正路","SECT":"一段","MAREA":" ","LANE":" ","ALLEY":" ","HOUSE_NO":"５７７號","E_COORD97":172907.48949199999,"N_COORD97":2537773.34039,"ADDRESS":"中正路一段５７７號","OBJECTID":651059},"geometry":{"x":172907.48949200101,"y":2537773.3403859995}},{"attributes":{"ID":651087,"DIS_CODE":0,"TOWNNAME":"後壁區","LI":"新嘉里","LIN":"22鄰","STREET":" ","SECT":" ","MAREA":"白沙屯","LANE":" ","ALLEY":" ","HOUSE_NO":"２３９號","E_COORD97":178878.58073799999,"N_COORD97":2585741.1788699999,"ADDRESS":"白沙屯２３９號","OBJECTID":651060},"geometry":{"x":178878.58073799964,"y":2585741.1788680013}},{"attributes":{"ID":651088,"DIS_CODE":0,"TOWNNAME":"仁德區","LI":"中洲里","LIN":"3鄰","STREET":" ","SECT":" ","MAREA":"中洲","LANE":" ","ALLEY":" ","HOUSE_NO":"２２號","E_COORD97":173246.63505800001,"N_COORD97":2534436.4357599998,"ADDRESS":"中洲２２號","OBJECTID":651061},"geometry":{"x":173246.63505799975,"y":2534436.4357580002}},{"attributes":{"ID":651089,"DIS_CODE":0,"TOWNNAME":"仁德區","LI":"中洲里","LIN":"3鄰","STREET":" ","SECT":" ","MAREA":"中洲","LANE":" ","ALLEY":" ","HOUSE_NO":"２１號之２","E_COORD97":173262.73671100001,"N_COORD97":2534466.9157400001,"ADDRESS":"中洲２１號之２","OBJECTID":651062},"geometry":{"x":173262.73671100102,"y":2534466.9157409985}},{"attributes":{"ID":651090,"DIS_CODE":0,"TOWNNAME":"仁德區","LI":"中洲里","LIN":"3鄰","STREET":" ","SECT":" ","MAREA":"中洲","LANE":" ","ALLEY":" ","HOUSE_NO":"２５號","E_COORD97":173251.71979100001,"N_COORD97":2534415.2691000002,"ADDRESS":"中洲２５號","OBJECTID":651063},"geometry":{"x":173251.71979100071,"y":2534415.2691020016}},{"attributes":{"ID":651091,"DIS_CODE":0,"TOWNNAME":"仁德區","LI":"中洲里","LIN":"3鄰","STREET":" ","SECT":" ","MAREA":"中洲","LANE":" ","ALLEY":" ","HOUSE_NO":"２７號","E_COORD97":173237.10118500001,"N_COORD97":2534436.01242,"ADDRESS":"中洲２７號","OBJECTID":651064},"geometry":{"x":173237.10118500143,"y":2534436.0124250017}},{"attributes":{"ID":651092,"DIS_CODE":0,"TOWNNAME":"仁德區","LI":"中洲里","LIN":"3鄰","STREET":" ","SECT":" ","MAREA":"中洲","LANE":" ","ALLEY":" ","HOUSE_NO":"２８號","E_COORD97":173237.10118500001,"N_COORD97":2534436.01242,"ADDRESS":"中洲２８號","OBJECTID":651065},"geometry":{"x":173237.10118500143,"y":2534436.0124250017}},{"attributes":{"ID":651093,"DIS_CODE":0,"TOWNNAME":"仁德區","LI":"中洲里","LIN":"3鄰","STREET":" ","SECT":" ","MAREA":"中洲","LANE":" ","ALLEY":" ","HOUSE_NO":"２８號","E_COORD97":173237.10118500001,"N_COORD97":2534436.01242,"ADDRESS":"中洲２８號","OBJECTID":651066},"geometry":{"x":173237.10118500143,"y":2534436.0124250017}},{"attributes":{"ID":651094,"DIS_CODE":0,"TOWNNAME":"仁德區","LI":"中洲里","LIN":"3鄰","STREET":" ","SECT":" ","MAREA":"中洲","LANE":" ","ALLEY":" ","HOUSE_NO":"２８號之２","E_COORD97":173233.92322699999,"N_COORD97":2534388.8107799999,"ADDRESS":"中洲２８號之２","OBJECTID":651067},"geometry":{"x":173233.92322700098,"y":2534388.8107830044}},{"attributes":{"ID":651095,"DIS_CODE":0,"TOWNNAME":"仁德區","LI":"中洲里","LIN":"4鄰","STREET":" ","SECT":" ","MAREA":"中洲","LANE":" ","ALLEY":" ","HOUSE_NO":"４１號之１","E_COORD97":173266.33839600001,"N_COORD97":2534356.84913,"ADDRESS":"中洲４１號之１","OBJECTID":651068},"geometry":{"x":173266.33839600068,"y":2534356.8491340037}},{"attributes":{"ID":651096,"DIS_CODE":0,"TOWNNAME":"後壁區","LI":"新嘉里","LIN":"21鄰","STREET":" ","SECT":" ","MAREA":"白沙屯","LANE":" ","ALLEY":" ","HOUSE_NO":"２２２號","E_COORD97":179440.12534100001,"N_COORD97":2585635.13393,"ADDRESS":"白沙屯２２２號","OBJECTID":651069},"geometry":{"x":179440.12534100097,"y":2585635.1339250021}},{"attributes":{"ID":651097,"DIS_CODE":0,"TOWNNAME":"後壁區","LI":"新嘉里","LIN":"21鄰","STREET":" ","SECT":" ","MAREA":"白沙屯","LANE":" ","ALLEY":" ","HOUSE_NO":"２２３號","E_COORD97":179451.98746800001,"N_COORD97":2585631.53559,"ADDRESS":"白沙屯２２３號","OBJECTID":651070},"geometry":{"x":179451.9874680005,"y":2585631.5355939995}},{"attributes":{"ID":651098,"DIS_CODE":0,"TOWNNAME":"仁德區","LI":"中洲里","LIN":"4鄰","STREET":" ","SECT":" ","MAREA":"中洲","LANE":" ","ALLEY":" ","HOUSE_NO":"４３之５號","E_COORD97":173172.69457399999,"N_COORD97":2534362.98746,"ADDRESS":"中洲４３之５號","OBJECTID":651071},"geometry":{"x":173172.69457399938,"y":2534362.9874639995}},{"attributes":{"ID":651099,"DIS_CODE":0,"TOWNNAME":"後壁區","LI":"新嘉里","LIN":"21鄰","STREET":" ","SECT":" ","MAREA":"白沙屯","LANE":" ","ALLEY":" ","HOUSE_NO":"２３２號","E_COORD97":179434.19427800001,"N_COORD97":2585568.8822900001,"ADDRESS":"白沙屯２３２號","OBJECTID":651072},"geometry":{"x":179434.19427799992,"y":2585568.8822939992}},{"attributes":{"ID":651100,"DIS_CODE":0,"TOWNNAME":"後壁區","LI":"新嘉里","LIN":"6鄰","STREET":" ","SECT":" ","MAREA":"白沙屯","LANE":" ","ALLEY":" ","HOUSE_NO":"６７號","E_COORD97":179687.74723499999,"N_COORD97":2585707.94722,"ADDRESS":"白沙屯６７號","OBJECTID":651073},"geometry":{"x":179687.74723500013,"y":2585707.9472190011}},{"attributes":{"ID":651101,"DIS_CODE":0,"TOWNNAME":"後壁區","LI":"新嘉里","LIN":"6鄰","STREET":" ","SECT":" ","MAREA":"白沙屯","LANE":" ","ALLEY":" ","HOUSE_NO":"６６號之４","E_COORD97":179704.69313,"N_COORD97":2585667.0955699999,"ADDRESS":"白沙屯６６號之４","OBJECTID":651074},"geometry":{"x":179704.69312999956,"y":2585667.0955700018}},{"attributes":{"ID":651102,"DIS_CODE":0,"TOWNNAME":"後壁區","LI":"新嘉里","LIN":"15鄰","STREET":" ","SECT":" ","MAREA":"白沙屯","LANE":" ","ALLEY":" ","HOUSE_NO":"１６８號","E_COORD97":179532.26864600001,"N_COORD97":2585570.1522900001,"ADDRESS":"白沙屯１６８號","OBJECTID":651075},"geometry":{"x":179532.26864600088,"y":2585570.1522930022}},{"attributes":{"ID":651103,"DIS_CODE":0,"TOWNNAME":"後壁區","LI":"新嘉里","LIN":"16鄰","STREET":" ","SECT":" ","MAREA":"白沙屯","LANE":" ","ALLEY":" ","HOUSE_NO":"１６９號","E_COORD97":179548.36724699999,"N_COORD97":2585479.55901,"ADDRESS":"白沙屯１６９號","OBJECTID":651076},"geometry":{"x":179548.36724700034,"y":2585479.5590090007}},{"attributes":{"ID":651104,"DIS_CODE":0,"TOWNNAME":"後壁區","LI":"新嘉里","LIN":"17鄰","STREET":" ","SECT":" ","MAREA":"白沙屯","LANE":" ","ALLEY":" ","HOUSE_NO":"１８５號之６","E_COORD97":179554.721957,"N_COORD97":2585684.0288999998,"ADDRESS":"白沙屯１８５號之６","OBJECTID":651077},"geometry":{"x":179554.72195700184,"y":2585684.0288990028}},{"attributes":{"ID":651105,"DIS_CODE":0,"TOWNNAME":"善化區","LI":"小新里","LIN":"11鄰","STREET":" ","SECT":" ","MAREA":"小新營","LANE":" ","ALLEY":" ","HOUSE_NO":"９５號","E_COORD97":179476.387174,"N_COORD97":2558184.0558099998,"ADDRESS":"小新營９５號","OBJECTID":651078},"geometry":{"x":179476.38717400003,"y":2558184.055807}},{"attributes":{"ID":651106,"DIS_CODE":0,"TOWNNAME":"善化區","LI":"小新里","LIN":"11鄰","STREET":" ","SECT":" ","MAREA":"小新營","LANE":" ","ALLEY":" ","HOUSE_NO":"９７號之１","E_COORD97":179386.36671,"N_COORD97":2558180.8807999999,"ADDRESS":"小新營９７號之１","OBJECTID":651079},"geometry":{"x":179386.3667100016,"y":2558180.8807999995}},{"attributes":{"ID":651107,"DIS_CODE":0,"TOWNNAME":"善化區","LI":"小新里","LIN":"11鄰","STREET":" ","SECT":" ","MAREA":"小新營","LANE":" ","ALLEY":" ","HOUSE_NO":"９７號之１３","E_COORD97":179337.43794,"N_COORD97":2558132.1974999998,"ADDRESS":"小新營９７號之１３","OBJECTID":651080},"geometry":{"x":179337.43793999963,"y":2558132.1974999998}},{"attributes":{"ID":651108,"DIS_CODE":0,"TOWNNAME":"善化區","LI":"小新里","LIN":"11鄰","STREET":" ","SECT":" ","MAREA":"小新營","LANE":" ","ALLEY":" ","HOUSE_NO":"９７號之１０","E_COORD97":179317.49486800001,"N_COORD97":2558369.9274599999,"ADDRESS":"小新營９７號之１０","OBJECTID":651081},"geometry":{"x":179317.49486800097,"y":2558369.927461002}},{"attributes":{"ID":651109,"DIS_CODE":0,"TOWNNAME":"善化區","LI":"小新里","LIN":"11鄰","STREET":" ","SECT":" ","MAREA":"小新營","LANE":" ","ALLEY":" ","HOUSE_NO":"９４號之１１","E_COORD97":179466.22015000001,"N_COORD97":2558257.2924299999,"ADDRESS":"小新營９４號之１１","OBJECTID":651082},"geometry":{"x":179466.22015000228,"y":2558257.2924300022}},{"attributes":{"ID":651110,"DIS_CODE":0,"TOWNNAME":"善化區","LI":"小新里","LIN":"12鄰","STREET":" ","SECT":" ","MAREA":"小新營","LANE":" ","ALLEY":" ","HOUSE_NO":"９８號之６","E_COORD97":179518.74974,"N_COORD97":2558156.9624800002,"ADDRESS":"小新營９８號之６","OBJECTID":651083},"geometry":{"x":179518.74974000081,"y":2558156.962480003}},{"attributes":{"ID":651111,"DIS_CODE":0,"TOWNNAME":"善化區","LI":"小新里","LIN":"11鄰","STREET":" ","SECT":" ","MAREA":"小新營","LANE":" ","ALLEY":" ","HOUSE_NO":"９７號之２０","E_COORD97":179011.45798000001,"N_COORD97":2558323.5440600002,"ADDRESS":"小新營９７號之２０","OBJECTID":651084},"geometry":{"x":179011.45798000041,"y":2558323.5440600011}},{"attributes":{"ID":651112,"DIS_CODE":0,"TOWNNAME":"善化區","LI":"小新里","LIN":"12鄰","STREET":" ","SECT":" ","MAREA":"小新營","LANE":" ","ALLEY":" ","HOUSE_NO":"１００號之１","E_COORD97":179644.35475,"N_COORD97":2558042.0275500002,"ADDRESS":"小新營１００號之１","OBJECTID":651085},"geometry":{"x":179644.35474999994,"y":2558042.0275500007}},{"attributes":{"ID":651113,"DIS_CODE":0,"TOWNNAME":"善化區","LI":"小新里","LIN":"11鄰","STREET":" ","SECT":" ","MAREA":"小新營","LANE":" ","ALLEY":" ","HOUSE_NO":"９４號之１６","E_COORD97":179432.33009999999,"N_COORD97":2558315.2890699999,"ADDRESS":"小新營９４號之１６","OBJECTID":651086},"geometry":{"x":179432.33010000084,"y":2558315.289069999}},{"attributes":{"ID":651114,"DIS_CODE":0,"TOWNNAME":"善化區","LI":"小新里","LIN":"13鄰","STREET":" ","SECT":" ","MAREA":"小新營","LANE":" ","ALLEY":" ","HOUSE_NO":"１０７號之９","E_COORD97":179722.72550999999,"N_COORD97":2557980.6442499999,"ADDRESS":"小新營１０７號之９","OBJECTID":651087},"geometry":{"x":179722.72551000118,"y":2557980.6442500036}},{"attributes":{"ID":651115,"DIS_CODE":0,"TOWNNAME":"白河區","LI":"關嶺里","LIN":"1鄰","STREET":" ","SECT":" ","MAREA":"關子嶺","LANE":" ","ALLEY":" ","HOUSE_NO":"２４之３２號","E_COORD97":199397.17014,"N_COORD97":2581813.9154599998,"ADDRESS":"關子嶺２４之３２號","OBJECTID":651088},"geometry":{"x":199397.17014000006,"y":2581813.9154629987}},{"attributes":{"ID":651116,"DIS_CODE":0,"TOWNNAME":"新營區","LI":"王公里","LIN":"15鄰","STREET":"民族路","SECT":" ","MAREA":" ","LANE":" ","ALLEY":" ","HOUSE_NO":"１９７號","E_COORD97":180360.20058199999,"N_COORD97":2579429.5639599999,"ADDRESS":"民族路１９７號","OBJECTID":651089},"geometry":{"x":180360.20058200229,"y":2579429.5639600009}},{"attributes":{"ID":651117,"DIS_CODE":0,"TOWNNAME":"新營區","LI":"王公里","LIN":"16鄰","STREET":"大仁街","SECT":" ","MAREA":" ","LANE":" ","ALLEY":" ","HOUSE_NO":"８號之１","E_COORD97":180195.99186099999,"N_COORD97":2579344.7915099999,"ADDRESS":"大仁街８號之１","OBJECTID":651090},"geometry":{"x":180195.99186099879,"y":2579344.7915059999}},{"attributes":{"ID":651118,"DIS_CODE":0,"TOWNNAME":"新營區","LI":"王公里","LIN":"16鄰","STREET":"大仁街","SECT":" ","MAREA":" ","LANE":" ","ALLEY":" ","HOUSE_NO":"８號之２","E_COORD97":180195.99186099999,"N_COORD97":2579344.7915099999,"ADDRESS":"大仁街８號之２","OBJECTID":651091},"geometry":{"x":180195.99186099879,"y":2579344.7915059999}},{"attributes":{"ID":651119,"DIS_CODE":0,"TOWNNAME":"新營區","LI":"王公里","LIN":"16鄰","STREET":"大仁街","SECT":" ","MAREA":" ","LANE":" ","ALLEY":" ","HOUSE_NO":"８號之２","E_COORD97":180195.77997800001,"N_COORD97":2579340.13484,"ADDRESS":"大仁街８號之２","OBJECTID":651092},"geometry":{"x":180195.77997800056,"y":2579340.1348420046}},{"attributes":{"ID":651120,"DIS_CODE":0,"TOWNNAME":"新營區","LI":"王公里","LIN":"17鄰","STREET":"大智街","SECT":" ","MAREA":" ","LANE":" ","ALLEY":" ","HOUSE_NO":"３８號","E_COORD97":180276.08334000001,"N_COORD97":2579313.8881899999,"ADDRESS":"大智街３８號","OBJECTID":651093},"geometry":{"x":180276.08334000129,"y":2579313.8881889973}},{"attributes":{"ID":651121,"DIS_CODE":0,"TOWNNAME":"新營區","LI":"王公里","LIN":"17鄰","STREET":"大智街","SECT":" ","MAREA":" ","LANE":" ","ALLEY":" ","HOUSE_NO":"４２號","E_COORD97":180284.55862900001,"N_COORD97":2579314.09986,"ADDRESS":"大智街４２號","OBJECTID":651094},"geometry":{"x":180284.55862899963,"y":2579314.0998560041}},{"attributes":{"ID":651122,"DIS_CODE":0,"TOWNNAME":"新營區","LI":"王公里","LIN":"17鄰","STREET":"大智街","SECT":" ","MAREA":" ","LANE":" ","ALLEY":" ","HOUSE_NO":"５２號","E_COORD97":180306.17061599999,"N_COORD97":2579314.5761099998,"ADDRESS":"大智街５２號","OBJECTID":651095},"geometry":{"x":180306.17061599996,"y":2579314.5761050005}},{"attributes":{"ID":651123,"DIS_CODE":0,"TOWNNAME":"新營區","LI":"王公里","LIN":"17鄰","STREET":"大智街","SECT":" ","MAREA":" ","LANE":" ","ALLEY":" ","HOUSE_NO":"５８號","E_COORD97":180319.307313,"N_COORD97":2579315.6344400002,"ADDRESS":"大智街５８號","OBJECTID":651096},"geometry":{"x":180319.30731299985,"y":2579315.6344380043}},{"attributes":{"ID":651124,"DIS_CODE":0,"TOWNNAME":"新營區","LI":"王公里","LIN":"17鄰","STREET":"大智街","SECT":" ","MAREA":" ","LANE":" ","ALLEY":" ","HOUSE_NO":"４７號","E_COORD97":180279.47345600001,"N_COORD97":2579326.3235999998,"ADDRESS":"大智街４７號","OBJECTID":651097},"geometry":{"x":180279.47345599998,"y":2579326.3235990014}},{"attributes":{"ID":651125,"DIS_CODE":0,"TOWNNAME":"安平區","LI":"建平里","LIN":"8鄰","STREET":"中華西路","SECT":"二段","MAREA":" ","LANE":" ","ALLEY":" ","HOUSE_NO":"３５１號之１","E_COORD97":166611.66659499999,"N_COORD97":2543764.2820000001,"ADDRESS":"中華西路二段３５１號之１","OBJECTID":651098},"geometry":{"x":166611.66659499984,"y":2543764.2820020039}},{"attributes":{"ID":651126,"DIS_CODE":0,"TOWNNAME":"北門區","LI":"錦湖里","LIN":"15鄰","STREET":" ","SECT":" ","MAREA":"渡子頭","LANE":" ","ALLEY":" ","HOUSE_NO":"１５０號之２","E_COORD97":163740.31429499999,"N_COORD97":2577354.33403,"ADDRESS":"渡子頭１５０號之２","OBJECTID":651099},"geometry":{"x":163740.3142950004,"y":2577354.3340290003}},{"attributes":{"ID":651127,"DIS_CODE":0,"TOWNNAME":"安平區","LI":"建平里","LIN":"8鄰","STREET":"中華西路","SECT":"二段","MAREA":" ","LANE":" ","ALLEY":" ","HOUSE_NO":"３５７號","E_COORD97":166602.76647900001,"N_COORD97":2543791.3753200001,"ADDRESS":"中華西路二段３５７號","OBJECTID":651100},"geometry":{"x":166602.76647900045,"y":2543791.3753200024}},{"attributes":{"ID":651128,"DIS_CODE":0,"TOWNNAME":"新營區","LI":"王公里","LIN":"17鄰","STREET":"民族路","SECT":" ","MAREA":" ","LANE":" ","ALLEY":" ","HOUSE_NO":"１６１號","E_COORD97":180341.87276999999,"N_COORD97":2579341.4577600001,"ADDRESS":"民族路１６１號","OBJECTID":651101},"geometry":{"x":180341.87277000211,"y":2579341.4577570017}},{"attributes":{"ID":651129,"DIS_CODE":0,"TOWNNAME":"安平區","LI":"建平里","LIN":"21鄰","STREET":"平通路","SECT":" ","MAREA":" ","LANE":" ","ALLEY":" ","HOUSE_NO":"８６之１號地下樓","E_COORD97":166034.854314,"N_COORD97":2543685.1187100001,"ADDRESS":"平通路８６之１號地下樓","OBJECTID":651102},"geometry":{"x":166034.85431400221,"y":2543685.1187110003}},{"attributes":{"ID":651130,"DIS_CODE":0,"TOWNNAME":"安平區","LI":"建平里","LIN":"21鄰","STREET":"平通路","SECT":" ","MAREA":" ","LANE":"８４巷","ALLEY":" ","HOUSE_NO":"３號一樓","E_COORD97":166046.933043,"N_COORD97":2543695.2787100002,"ADDRESS":"平通路８４巷３號一樓","OBJECTID":651103},"geometry":{"x":166046.93304300029,"y":2543695.2787059993}},{"attributes":{"ID":651131,"DIS_CODE":0,"TOWNNAME":"後壁區","LI":"嘉苳里","LIN":"9鄰","STREET":" ","SECT":" ","MAREA":"下茄苳","LANE":" ","ALLEY":" ","HOUSE_NO":"１１０號之８","E_COORD97":184290.557631,"N_COORD97":2583273.0811700001,"ADDRESS":"下茄苳１１０號之８","OBJECTID":651104},"geometry":{"x":184290.55763100088,"y":2583273.0811690036}},{"attributes":{"ID":651132,"DIS_CODE":0,"TOWNNAME":"新營區","LI":"王公里","LIN":"22鄰","STREET":"民族路","SECT":" ","MAREA":" ","LANE":" ","ALLEY":" ","HOUSE_NO":"１７２號","E_COORD97":180366.21606800001,"N_COORD97":2579351.8409899999,"ADDRESS":"民族路１７２號","OBJECTID":651105},"geometry":{"x":180366.21606800053,"y":2579351.8409850001}},{"attributes":{"ID":651133,"DIS_CODE":0,"TOWNNAME":"新化區","LI":"武安里","LIN":"3鄰","STREET":"中正路","SECT":" ","MAREA":" ","LANE":" ","ALLEY":" ","HOUSE_NO":"２９３號","E_COORD97":179134.65067999999,"N_COORD97":2548078.5175700001,"ADDRESS":"中正路２９３號","OBJECTID":651106},"geometry":{"x":179134.65067999996,"y":2548078.5175699983}},{"attributes":{"ID":651134,"DIS_CODE":0,"TOWNNAME":"新化區","LI":"武安里","LIN":"3鄰","STREET":"中正路","SECT":" ","MAREA":" ","LANE":" ","ALLEY":" ","HOUSE_NO":"２９５號","E_COORD97":179134.01506400001,"N_COORD97":2548082.96257,"ADDRESS":"中正路２９５號","OBJECTID":651107},"geometry":{"x":179134.01506400015,"y":2548082.9625680018}},{"attributes":{"ID":651135,"DIS_CODE":0,"TOWNNAME":"新營區","LI":"王公里","LIN":"31鄰","STREET":"民族路","SECT":" ","MAREA":" ","LANE":" ","ALLEY":" ","HOUSE_NO":"２０７號","E_COORD97":180366.851715,"N_COORD97":2579471.4325899999,"ADDRESS":"民族路２０７號","OBJECTID":651108},"geometry":{"x":180366.85171500035,"y":2579471.4325869996}},{"attributes":{"ID":651136,"DIS_CODE":0,"TOWNNAME":"新營區","LI":"王公里","LIN":"31鄰","STREET":"民族路","SECT":" ","MAREA":" ","LANE":" ","ALLEY":" ","HOUSE_NO":"２１５號","E_COORD97":180370.02994800001,"N_COORD97":2579487.94258,"ADDRESS":"民族路２１５號","OBJECTID":651109},"geometry":{"x":180370.02994799893,"y":2579487.9425780009}},{"attributes":{"ID":651137,"DIS_CODE":0,"TOWNNAME":"新化區","LI":"武安里","LIN":"3鄰","STREET":"中正路","SECT":" ","MAREA":" ","LANE":" ","ALLEY":" ","HOUSE_NO":"３０１號之１","E_COORD97":179133.37944700001,"N_COORD97":2548107.9127600002,"ADDRESS":"中正路３０１號之１","OBJECTID":651110},"geometry":{"x":179133.3794470001,"y":2548107.9127630033}},{"attributes":{"ID":651138,"DIS_CODE":0,"TOWNNAME":"新化區","LI":"武安里","LIN":"6鄰","STREET":"中正路","SECT":" ","MAREA":" ","LANE":"３６９巷","ALLEY":" ","HOUSE_NO":"４號","E_COORD97":179104.35294700001,"N_COORD97":2548281.1581700002,"ADDRESS":"中正路３６９巷４號","OBJECTID":651111},"geometry":{"x":179104.35294700135,"y":2548281.1581689995}},{"attributes":{"ID":651139,"DIS_CODE":0,"TOWNNAME":"新化區","LI":"武安里","LIN":"6鄰","STREET":"中正路","SECT":" ","MAREA":" ","LANE":"３６９巷","ALLEY":" ","HOUSE_NO":"８號","E_COORD97":179096.51367399999,"N_COORD97":2548279.0414999998,"ADDRESS":"中正路３６９巷８號","OBJECTID":651112},"geometry":{"x":179096.51367400214,"y":2548279.0415030047}},{"attributes":{"ID":651140,"DIS_CODE":0,"TOWNNAME":"後壁區","LI":"嘉苳里","LIN":"10鄰","STREET":" ","SECT":" ","MAREA":"下茄苳","LANE":" ","ALLEY":" ","HOUSE_NO":"１２８號之９０","E_COORD97":184271.17707800001,"N_COORD97":2583653.3401299999,"ADDRESS":"下茄苳１２８號之９０","OBJECTID":651113},"geometry":{"x":184271.17707800027,"y":2583653.3401299994}},{"attributes":{"ID":651141,"DIS_CODE":0,"TOWNNAME":"新營區","LI":"王公里","LIN":"2鄰","STREET":"義和街","SECT":" ","MAREA":" ","LANE":" ","ALLEY":" ","HOUSE_NO":"２５之１２號","E_COORD97":180210.82361600001,"N_COORD97":2578990.2318099998,"ADDRESS":"義和街２５之１２號","OBJECTID":651114},"geometry":{"x":180210.82361599989,"y":2578990.2318140026}},{"attributes":{"ID":651142,"DIS_CODE":0,"TOWNNAME":"新營區","LI":"王公里","LIN":"2鄰","STREET":"義和街","SECT":" ","MAREA":" ","LANE":" ","ALLEY":" ","HOUSE_NO":"２５之１３號","E_COORD97":180212.09490900001,"N_COORD97":2578985.5751499999,"ADDRESS":"義和街２５之１３號","OBJECTID":651115},"geometry":{"x":180212.09490900021,"y":2578985.5751500018}},{"attributes":{"ID":651143,"DIS_CODE":0,"TOWNNAME":"安南區","LI":"城北里","LIN":"2鄰","STREET":"城北路","SECT":" ","MAREA":" ","LANE":" ","ALLEY":" ","HOUSE_NO":"６８號","E_COORD97":160966.59559899999,"N_COORD97":2551539.0792700001,"ADDRESS":"城北路６８號","OBJECTID":651116},"geometry":{"x":160966.59559900034,"y":2551539.0792700015}},{"attributes":{"ID":651144,"DIS_CODE":0,"TOWNNAME":"新營區","LI":"王公里","LIN":"5鄰","STREET":"民治路","SECT":" ","MAREA":" ","LANE":"１８巷","ALLEY":" ","HOUSE_NO":"２之２號","E_COORD97":180377.36304200001,"N_COORD97":2578936.1510100001,"ADDRESS":"民治路１８巷２之２號","OBJECTID":651117},"geometry":{"x":180377.36304199882,"y":2578936.1510100029}},{"attributes":{"ID":651145,"DIS_CODE":0,"TOWNNAME":"安南區","LI":"城北里","LIN":"9鄰","STREET":"城北路","SECT":" ","MAREA":" ","LANE":" ","ALLEY":" ","HOUSE_NO":"８５號","E_COORD97":160977.18225099999,"N_COORD97":2551584.7992500002,"ADDRESS":"城北路８５號","OBJECTID":651118},"geometry":{"x":160977.18225100078,"y":2551584.799246002}},{"attributes":{"ID":651146,"DIS_CODE":0,"TOWNNAME":"新營區","LI":"王公里","LIN":"5鄰","STREET":"民治路","SECT":" ","MAREA":" ","LANE":"１８巷","ALLEY":" ","HOUSE_NO":"２號之３","E_COORD97":180381.38880399999,"N_COORD97":2578947.3693400002,"ADDRESS":"民治路１８巷２號之３","OBJECTID":651119},"geometry":{"x":180381.38880399987,"y":2578947.369337}},{"attributes":{"ID":651147,"DIS_CODE":0,"TOWNNAME":"新營區","LI":"王公里","LIN":"5鄰","STREET":"民治路","SECT":" ","MAREA":" ","LANE":"１８巷","ALLEY":" ","HOUSE_NO":"２號之５","E_COORD97":180395.373031,"N_COORD97":2578934.8810100001,"ADDRESS":"民治路１８巷２號之５","OBJECTID":651120},"geometry":{"x":180395.37303100061,"y":2578934.8810100034}},{"attributes":{"ID":651148,"DIS_CODE":0,"TOWNNAME":"新營區","LI":"王公里","LIN":"5鄰","STREET":"民治路","SECT":" ","MAREA":" ","LANE":"１８巷","ALLEY":" ","HOUSE_NO":"２號之６","E_COORD97":180400.24632199999,"N_COORD97":2578934.6164299999,"ADDRESS":"民治路１８巷２號之６","OBJECTID":651121},"geometry":{"x":180400.2463220004,"y":2578934.6164270025}},{"attributes":{"ID":651149,"DIS_CODE":0,"TOWNNAME":"新營區","LI":"王公里","LIN":"5鄰","STREET":"民治路","SECT":" ","MAREA":" ","LANE":"１８巷","ALLEY":" ","HOUSE_NO":"４之１號","E_COORD97":180384.355155,"N_COORD97":2578962.5564100002,"ADDRESS":"民治路１８巷４之１號","OBJECTID":651122},"geometry":{"x":180384.35515500233,"y":2578962.5564120021}},{"attributes":{"ID":651150,"DIS_CODE":0,"TOWNNAME":"安南區","LI":"城北里","LIN":"9鄰","STREET":"城北路","SECT":" ","MAREA":" ","LANE":" ","ALLEY":" ","HOUSE_NO":"９７號","E_COORD97":160993.909162,"N_COORD97":2551596.2292399998,"ADDRESS":"城北路９７號","OBJECTID":651123},"geometry":{"x":160993.90916199982,"y":2551596.2292400002}},{"attributes":{"ID":651151,"DIS_CODE":0,"TOWNNAME":"安南區","LI":"城北里","LIN":"9鄰","STREET":"城北路","SECT":" ","MAREA":" ","LANE":" ","ALLEY":" ","HOUSE_NO":"９３號","E_COORD97":160984.804641,"N_COORD97":2551588.18591,"ADDRESS":"城北路９３號","OBJECTID":651124},"geometry":{"x":160984.80464100186,"y":2551588.1859109979}},{"attributes":{"ID":651152,"DIS_CODE":0,"TOWNNAME":"新營區","LI":"王公里","LIN":"5鄰","STREET":"民治路","SECT":" ","MAREA":" ","LANE":"１８巷","ALLEY":" ","HOUSE_NO":"６號之４","E_COORD97":180417.40878200001,"N_COORD97":2578976.4205700001,"ADDRESS":"民治路１８巷６號之４","OBJECTID":651125},"geometry":{"x":180417.40878199972,"y":2578976.4205709994}},{"attributes":{"ID":651153,"DIS_CODE":0,"TOWNNAME":"安南區","LI":"梅花里","LIN":"1鄰","STREET":"安中路","SECT":"一段","MAREA":" ","LANE":"６３９巷","ALLEY":" ","HOUSE_NO":"１８號","E_COORD97":167746.77152899999,"N_COORD97":2549109.6001300002,"ADDRESS":"安中路一段６３９巷１８號","OBJECTID":651126},"geometry":{"x":167746.77152900118,"y":2549109.600134002}},{"attributes":{"ID":651154,"DIS_CODE":0,"TOWNNAME":"中西區","LI":"藥王里","LIN":"15鄰","STREET":"民權路","SECT":"三段","MAREA":" ","LANE":" ","ALLEY":" ","HOUSE_NO":"４０４號","E_COORD97":166836.73994599999,"N_COORD97":2544415.7989500002,"ADDRESS":"民權路三段４０４號","OBJECTID":651127},"geometry":{"x":166836.73994600214,"y":2544415.7989490014}},{"attributes":{"ID":651155,"DIS_CODE":0,"TOWNNAME":"新營區","LI":"王公里","LIN":"5鄰","STREET":"民治路","SECT":" ","MAREA":" ","LANE":"１８巷","ALLEY":" ","HOUSE_NO":"６號之５","E_COORD97":180388.80468199999,"N_COORD97":2578977.0555699999,"ADDRESS":"民治路１８巷６號之５","OBJECTID":651128},"geometry":{"x":180388.80468200147,"y":2578977.0555710047}},{"attributes":{"ID":651156,"DIS_CODE":0,"TOWNNAME":"安南區","LI":"梅花里","LIN":"1鄰","STREET":"安中路","SECT":"一段","MAREA":" ","LANE":"６３９巷","ALLEY":" ","HOUSE_NO":"２０號","E_COORD97":167741.68876300001,"N_COORD97":2549101.9801400001,"ADDRESS":"安中路一段６３９巷２０號","OBJECTID":651129},"geometry":{"x":167741.688763001,"y":2549101.9801380001}},{"attributes":{"ID":651157,"DIS_CODE":0,"TOWNNAME":"新營區","LI":"王公里","LIN":"5鄰","STREET":"民治路","SECT":" ","MAREA":" ","LANE":"１８巷","ALLEY":" ","HOUSE_NO":"６號之６","E_COORD97":180383.50762600001,"N_COORD97":2578978.53724,"ADDRESS":"民治路１８巷６號之６","OBJECTID":651130},"geometry":{"x":180383.50762599986,"y":2578978.5372370016}},{"attributes":{"ID":651158,"DIS_CODE":0,"TOWNNAME":"安南區","LI":"梅花里","LIN":"1鄰","STREET":"安中路","SECT":"一段","MAREA":" ","LANE":"６３９巷","ALLEY":"１６弄","HOUSE_NO":"１號","E_COORD97":167733.42926800001,"N_COORD97":2549110.4468,"ADDRESS":"安中路一段６３９巷１６弄１號","OBJECTID":651131},"geometry":{"x":167733.42926799972,"y":2549110.4468000047}},{"attributes":{"ID":651159,"DIS_CODE":0,"TOWNNAME":"安南區","LI":"梅花里","LIN":"1鄰","STREET":"安中路","SECT":"一段","MAREA":" ","LANE":"６３９巷","ALLEY":"１６弄","HOUSE_NO":"３號","E_COORD97":167727.71115700001,"N_COORD97":2549112.5634699999,"ADDRESS":"安中路一段６３９巷１６弄３號","OBJECTID":651132},"geometry":{"x":167727.71115700062,"y":2549112.5634650011}},{"attributes":{"ID":651160,"DIS_CODE":0,"TOWNNAME":"安南區","LI":"梅花里","LIN":"1鄰","STREET":"安中路","SECT":"一段","MAREA":" ","LANE":"６３９巷","ALLEY":"１６弄","HOUSE_NO":"５號","E_COORD97":167722.840173,"N_COORD97":2549114.04513,"ADDRESS":"安中路一段６３９巷１６弄５號","OBJECTID":651133},"geometry":{"x":167722.8401730014,"y":2549114.0451310016}},{"attributes":{"ID":651161,"DIS_CODE":0,"TOWNNAME":"安南區","LI":"梅花里","LIN":"1鄰","STREET":"安中路","SECT":"一段","MAREA":" ","LANE":"６３９巷","ALLEY":"１６弄","HOUSE_NO":"７號","E_COORD97":167718.60453400001,"N_COORD97":2549116.1617999999,"ADDRESS":"安中路一段６３９巷１６弄７號","OBJECTID":651134},"geometry":{"x":167718.60453400016,"y":2549116.1617970038}},{"attributes":{"ID":651162,"DIS_CODE":0,"TOWNNAME":"安南區","LI":"梅花里","LIN":"1鄰","STREET":"安中路","SECT":"一段","MAREA":" ","LANE":"６３９巷","ALLEY":"１６弄","HOUSE_NO":"９號","E_COORD97":167713.52176900001,"N_COORD97":2549118.0668000001,"ADDRESS":"安中路一段６３９巷１６弄９號","OBJECTID":651135},"geometry":{"x":167713.52176900208,"y":2549118.0667960029}},{"attributes":{"ID":651163,"DIS_CODE":0,"TOWNNAME":"新營區","LI":"王公里","LIN":"5鄰","STREET":"民治路","SECT":" ","MAREA":" ","LANE":"１８巷","ALLEY":" ","HOUSE_NO":"７號","E_COORD97":180353.42035100001,"N_COORD97":2578959.4872499998,"ADDRESS":"民治路１８巷７號","OBJECTID":651136},"geometry":{"x":180353.42035100143,"y":2578959.4872469995}},{"attributes":{"ID":651164,"DIS_CODE":0,"TOWNNAME":"安南區","LI":"梅花里","LIN":"1鄰","STREET":"安中路","SECT":"一段","MAREA":" ","LANE":"６３９巷","ALLEY":"１６弄","HOUSE_NO":"１１號","E_COORD97":167709.92147599999,"N_COORD97":2549119.9717999999,"ADDRESS":"安中路一段６３９巷１６弄１１號","OBJECTID":651137},"geometry":{"x":167709.92147600185,"y":2549119.971795002}},{"attributes":{"ID":651165,"DIS_CODE":0,"TOWNNAME":"新營區","LI":"王公里","LIN":"5鄰","STREET":"民治路","SECT":" ","MAREA":" ","LANE":"１８巷","ALLEY":" ","HOUSE_NO":"９號","E_COORD97":180358.71740600001,"N_COORD97":2578961.1805799999,"ADDRESS":"民治路１８巷９號","OBJECTID":651138},"geometry":{"x":180358.71740600001,"y":2578961.1805800013}},{"attributes":{"ID":651166,"DIS_CODE":0,"TOWNNAME":"安南區","LI":"梅花里","LIN":"1鄰","STREET":"安中路","SECT":"一段","MAREA":" ","LANE":"６３９巷","ALLEY":"１６弄","HOUSE_NO":"１３號","E_COORD97":167704.62692800001,"N_COORD97":2549121.2417899999,"ADDRESS":"安中路一段６３９巷１６弄１３號","OBJECTID":651139},"geometry":{"x":167704.62692799978,"y":2549121.2417940032}},{"attributes":{"ID":651167,"DIS_CODE":0,"TOWNNAME":"安南區","LI":"梅花里","LIN":"1鄰","STREET":"安中路","SECT":"一段","MAREA":" ","LANE":"６３９巷","ALLEY":"１６弄","HOUSE_NO":"１５號","E_COORD97":167699.967726,"N_COORD97":2549122.72346,"ADDRESS":"安中路一段６３９巷１６弄１５號","OBJECTID":651140},"geometry":{"x":167699.96772600058,"y":2549122.7234599981}},{"attributes":{"ID":651168,"DIS_CODE":0,"TOWNNAME":"安南區","LI":"梅花里","LIN":"1鄰","STREET":"安中路","SECT":"一段","MAREA":" ","LANE":"６３９巷","ALLEY":"１６弄","HOUSE_NO":"１７號","E_COORD97":167695.09674199999,"N_COORD97":2549124.8401299999,"ADDRESS":"安中路一段６３９巷１６弄１７號","OBJECTID":651141},"geometry":{"x":167695.0967419995,"y":2549124.8401250001}},{"attributes":{"ID":651169,"DIS_CODE":0,"TOWNNAME":"安南區","LI":"梅花里","LIN":"1鄰","STREET":"安中路","SECT":"一段","MAREA":" ","LANE":"６３９巷","ALLEY":"１６弄","HOUSE_NO":"１９號","E_COORD97":167690.22575799999,"N_COORD97":2549126.1101299999,"ADDRESS":"安中路一段６３９巷１６弄１９號","OBJECTID":651142},"geometry":{"x":167690.22575800121,"y":2549126.1101249997}},{"attributes":{"ID":651170,"DIS_CODE":0,"TOWNNAME":"安南區","LI":"梅花里","LIN":"1鄰","STREET":"安中路","SECT":"一段","MAREA":" ","LANE":"６３９巷","ALLEY":"１６弄","HOUSE_NO":"２１號","E_COORD97":167685.56655600001,"N_COORD97":2549128.2267900002,"ADDRESS":"安中路一段６３９巷１６弄２１號","OBJECTID":651143},"geometry":{"x":167685.56655600015,"y":2549128.2267900016}},{"attributes":{"ID":651171,"DIS_CODE":0,"TOWNNAME":"安南區","LI":"梅花里","LIN":"1鄰","STREET":"安中路","SECT":"一段","MAREA":" ","LANE":"６３９巷","ALLEY":"１６弄","HOUSE_NO":"２３號","E_COORD97":167680.907354,"N_COORD97":2549130.7667899998,"ADDRESS":"安中路一段６３９巷１６弄２３號","OBJECTID":651144},"geometry":{"x":167680.90735400189,"y":2549130.7667890005}},{"attributes":{"ID":651172,"DIS_CODE":0,"TOWNNAME":"安南區","LI":"梅花里","LIN":"1鄰","STREET":"安中路","SECT":"一段","MAREA":" ","LANE":"６３９巷","ALLEY":"１６弄","HOUSE_NO":"８號","E_COORD97":167693.19070499999,"N_COORD97":2549145.7951099998,"ADDRESS":"安中路一段６３９巷１６弄８號","OBJECTID":651145},"geometry":{"x":167693.19070500042,"y":2549145.7951140013}},{"attributes":{"ID":651173,"DIS_CODE":0,"TOWNNAME":"安南區","LI":"梅花里","LIN":"1鄰","STREET":"安中路","SECT":"一段","MAREA":" ","LANE":"６３９巷","ALLEY":"１６弄","HOUSE_NO":"６號","E_COORD97":167707.59187500001,"N_COORD97":2549140.5034500002,"ADDRESS":"安中路一段６３９巷１６弄６號","OBJECTID":651146},"geometry":{"x":167707.59187500086,"y":2549140.5034500007}},{"attributes":{"ID":651174,"DIS_CODE":0,"TOWNNAME":"安南區","LI":"城北里","LIN":"2鄰","STREET":"城北路","SECT":" ","MAREA":" ","LANE":"９８巷","ALLEY":"６弄","HOUSE_NO":"２０號","E_COORD97":161008.94220799999,"N_COORD97":2551537.5976,"ADDRESS":"城北路９８巷６弄２０號","OBJECTID":651147},"geometry":{"x":161008.94220799953,"y":2551537.5976049993}},{"attributes":{"ID":651175,"DIS_CODE":0,"TOWNNAME":"安南區","LI":"梅花里","LIN":"1鄰","STREET":"安中路","SECT":"一段","MAREA":" ","LANE":" ","ALLEY":" ","HOUSE_NO":"６７１號","E_COORD97":167744.67804900001,"N_COORD97":2549134.8714299998,"ADDRESS":"安中路一段６７１號","OBJECTID":651148},"geometry":{"x":167744.67804899905,"y":2549134.8714280017}},{"attributes":{"ID":651176,"DIS_CODE":0,"TOWNNAME":"新營區","LI":"王公里","LIN":"6鄰","STREET":"民治路","SECT":" ","MAREA":" ","LANE":" ","ALLEY":" ","HOUSE_NO":"１６號之３","E_COORD97":180375.03233700001,"N_COORD97":2578899.1622799998,"ADDRESS":"民治路１６號之３","OBJECTID":651149},"geometry":{"x":180375.03233700059,"y":2578899.1622800007}},{"attributes":{"ID":651177,"DIS_CODE":0,"TOWNNAME":"安南區","LI":"梅花里","LIN":"1鄰","STREET":"安中路","SECT":"一段","MAREA":" ","LANE":" ","ALLEY":" ","HOUSE_NO":"６７５號","E_COORD97":167737.453125,"N_COORD97":2549137.75178,"ADDRESS":"安中路一段６７５號","OBJECTID":651150},"geometry":{"x":167737.45312500186,"y":2549137.7517849989}},{"attributes":{"ID":651178,"DIS_CODE":0,"TOWNNAME":"安南區","LI":"梅花里","LIN":"1鄰","STREET":"安中路","SECT":"一段","MAREA":" ","LANE":" ","ALLEY":" ","HOUSE_NO":"６７７號","E_COORD97":167732.79392200001,"N_COORD97":2549140.9267799999,"ADDRESS":"安中路一段６７７號","OBJECTID":651151},"geometry":{"x":167732.7939220015,"y":2549140.9267829992}},{"attributes":{"ID":651179,"DIS_CODE":0,"TOWNNAME":"安南區","LI":"梅花里","LIN":"1鄰","STREET":"安中路","SECT":"一段","MAREA":" ","LANE":" ","ALLEY":" ","HOUSE_NO":"６７９號","E_COORD97":167732.79392200001,"N_COORD97":2549140.9267799999,"ADDRESS":"安中路一段６７９號","OBJECTID":651152},"geometry":{"x":167732.7939220015,"y":2549140.9267829992}},{"attributes":{"ID":651180,"DIS_CODE":0,"TOWNNAME":"安南區","LI":"梅花里","LIN":"1鄰","STREET":"安中路","SECT":"一段","MAREA":" ","LANE":" ","ALLEY":" ","HOUSE_NO":"６７９號","E_COORD97":167732.79392200001,"N_COORD97":2549140.9267799999,"ADDRESS":"安中路一段６７９號","OBJECTID":651153},"geometry":{"x":167732.7939220015,"y":2549140.9267829992}},{"attributes":{"ID":651181,"DIS_CODE":0,"TOWNNAME":"安南區","LI":"梅花里","LIN":"1鄰","STREET":"安中路","SECT":"一段","MAREA":" ","LANE":" ","ALLEY":" ","HOUSE_NO":"６８１號","E_COORD97":167721.78126300001,"N_COORD97":2549143.89011,"ADDRESS":"安中路一段６８１號","OBJECTID":651154},"geometry":{"x":167721.78126300126,"y":2549143.8901150022}},{"attributes":{"ID":651182,"DIS_CODE":0,"TOWNNAME":"安南區","LI":"梅花里","LIN":"1鄰","STREET":"安中路","SECT":"一段","MAREA":" ","LANE":" ","ALLEY":" ","HOUSE_NO":"６７９號","E_COORD97":167726.22868299999,"N_COORD97":2549140.0801200001,"ADDRESS":"安中路一段６７９號","OBJECTID":651155},"geometry":{"x":167726.22868300136,"y":2549140.0801170021}},{"attributes":{"ID":651183,"DIS_CODE":0,"TOWNNAME":"新營區","LI":"王公里","LIN":"5鄰","STREET":"民治路","SECT":" ","MAREA":" ","LANE":"１８巷","ALLEY":" ","HOUSE_NO":"１號","E_COORD97":180364.86199100001,"N_COORD97":2578922.8689299999,"ADDRESS":"民治路１８巷１號","OBJECTID":651156},"geometry":{"x":180364.86199100036,"y":2578922.8689340018}},{"attributes":{"ID":651184,"DIS_CODE":0,"TOWNNAME":"安南區","LI":"城北里","LIN":"4鄰","STREET":"城北路","SECT":" ","MAREA":" ","LANE":"４４巷","ALLEY":" ","HOUSE_NO":"２號","E_COORD97":160928.06018500001,"N_COORD97":2551504.3659600001,"ADDRESS":"城北路４４巷２號","OBJECTID":651157},"geometry":{"x":160928.0601850003,"y":2551504.3659560047}},{"attributes":{"ID":651185,"DIS_CODE":0,"TOWNNAME":"麻豆區","LI":"莊禮里","LIN":"7鄰","STREET":" ","SECT":" ","MAREA":"莊禮寮","LANE":" ","ALLEY":" ","HOUSE_NO":"９０號","E_COORD97":169018.037461,"N_COORD97":2565944.9879100001,"ADDRESS":"莊禮寮９０號","OBJECTID":651158},"geometry":{"x":169018.03746100049,"y":2565944.9879080001}},{"attributes":{"ID":651186,"DIS_CODE":0,"TOWNNAME":"新營區","LI":"王公里","LIN":"5鄰","STREET":"民治路","SECT":" ","MAREA":" ","LANE":"１８巷","ALLEY":" ","HOUSE_NO":"３號","E_COORD97":180341.766829,"N_COORD97":2578927.5255999998,"ADDRESS":"民治路１８巷３號","OBJECTID":651159},"geometry":{"x":180341.76682899985,"y":2578927.5255980026}},{"attributes":{"ID":651187,"DIS_CODE":0,"TOWNNAME":"安南區","LI":"城北里","LIN":"4鄰","STREET":"城北路","SECT":" ","MAREA":" ","LANE":"４４巷","ALLEY":" ","HOUSE_NO":"４號","E_COORD97":160930.600981,"N_COORD97":2551499.28596,"ADDRESS":"城北路４４巷４號","OBJECTID":651160},"geometry":{"x":160930.60098100081,"y":2551499.2859589998}},{"attributes":{"ID":651188,"DIS_CODE":0,"TOWNNAME":"安南區","LI":"城北里","LIN":"4鄰","STREET":"城北路","SECT":" ","MAREA":" ","LANE":"４４巷","ALLEY":" ","HOUSE_NO":"６號","E_COORD97":160930.600981,"N_COORD97":2551499.28596,"ADDRESS":"城北路４４巷６號","OBJECTID":651161},"geometry":{"x":160930.60098100081,"y":2551499.2859589998}},{"attributes":{"ID":651189,"DIS_CODE":0,"TOWNNAME":"新營區","LI":"王公里","LIN":"5鄰","STREET":"民治路","SECT":" ","MAREA":" ","LANE":"１８巷","ALLEY":" ","HOUSE_NO":"５號","E_COORD97":180337.52918400001,"N_COORD97":2578936.4155899999,"ADDRESS":"民治路１８巷５號","OBJECTID":651162},"geometry":{"x":180337.52918399964,"y":2578936.415593002}},{"attributes":{"ID":651190,"DIS_CODE":0,"TOWNNAME":"新營區","LI":"王公里","LIN":"5鄰","STREET":"民治路","SECT":" ","MAREA":" ","LANE":"１８巷","ALLEY":" ","HOUSE_NO":"６號","E_COORD97":180403.42455500001,"N_COORD97":2578976.73807,"ADDRESS":"民治路１８巷６號","OBJECTID":651163},"geometry":{"x":180403.42455499992,"y":2578976.7380710021}},{"attributes":{"ID":651191,"DIS_CODE":0,"TOWNNAME":"安南區","LI":"城北里","LIN":"6鄰","STREET":"城北路","SECT":" ","MAREA":" ","LANE":"５００巷","ALLEY":" ","HOUSE_NO":"２０號","E_COORD97":161048.74802,"N_COORD97":2551397.8976799999,"ADDRESS":"城北路５００巷２０號","OBJECTID":651164},"geometry":{"x":161048.74801999982,"y":2551397.8976800013}},{"attributes":{"ID":651192,"DIS_CODE":0,"TOWNNAME":"善化區","LI":"坐駕里","LIN":"15鄰","STREET":"大成路","SECT":" ","MAREA":" ","LANE":" ","ALLEY":" ","HOUSE_NO":"１９５號之２８","E_COORD97":178313.07107000001,"N_COORD97":2558674.2072700001,"ADDRESS":"大成路１９５號之２８","OBJECTID":651165},"geometry":{"x":178313.0710699996,"y":2558674.207270002}},{"attributes":{"ID":651193,"DIS_CODE":0,"TOWNNAME":"後壁區","LI":"嘉苳里","LIN":"5鄰","STREET":" ","SECT":" ","MAREA":"下茄苳","LANE":" ","ALLEY":" ","HOUSE_NO":"５８號之５０","E_COORD97":184957.89004,"N_COORD97":2583065.6876300001,"ADDRESS":"下茄苳５８號之５０","OBJECTID":651166},"geometry":{"x":184957.89004000183,"y":2583065.6876350027}},{"attributes":{"ID":651194,"DIS_CODE":0,"TOWNNAME":"新營區","LI":"王公里","LIN":"7鄰","STREET":"民治路","SECT":" ","MAREA":" ","LANE":"２６巷","ALLEY":" ","HOUSE_NO":"２１之５號","E_COORD97":180170.77786999999,"N_COORD97":2578954.5660000001,"ADDRESS":"民治路２６巷２１之５號","OBJECTID":651167},"geometry":{"x":180170.77787000034,"y":2578954.5659999996}},{"attributes":{"ID":651195,"DIS_CODE":0,"TOWNNAME":"安南區","LI":"城北里","LIN":"8鄰","STREET":"安中路","SECT":"六段","MAREA":" ","LANE":"４２９巷","ALLEY":"１２０弄","HOUSE_NO":"５１號","E_COORD97":161242.06028999999,"N_COORD97":2550975.1995700002,"ADDRESS":"安中路六段４２９巷１２０弄５１號","OBJECTID":651168},"geometry":{"x":161242.0602900004,"y":2550975.199570002}},{"attributes":{"ID":651196,"DIS_CODE":0,"TOWNNAME":"安南區","LI":"梅花里","LIN":"1鄰","STREET":"北安路","SECT":"二段","MAREA":" ","LANE":" ","ALLEY":" ","HOUSE_NO":"３１９之６號","E_COORD97":168392.23722700001,"N_COORD97":2548250.1582399998,"ADDRESS":"北安路二段３１９之６號","OBJECTID":651169},"geometry":{"x":168392.2372270003,"y":2548250.1582430024}},{"attributes":{"ID":651197,"DIS_CODE":0,"TOWNNAME":"安南區","LI":"城北里","LIN":"8鄰","STREET":"安中路","SECT":"六段","MAREA":" ","LANE":"４２９巷","ALLEY":"１２０弄","HOUSE_NO":"５１號之５","E_COORD97":161254.12907299999,"N_COORD97":2550970.7545799999,"ADDRESS":"安中路六段４２９巷１２０弄５１號之５","OBJECTID":651170},"geometry":{"x":161254.12907300051,"y":2550970.7545769997}},{"attributes":{"ID":651198,"DIS_CODE":0,"TOWNNAME":"安南區","LI":"城北里","LIN":"8鄰","STREET":"安中路","SECT":"六段","MAREA":" ","LANE":"４２９巷","ALLEY":"１２０弄","HOUSE_NO":"５１號之１０","E_COORD97":161265.56265800001,"N_COORD97":2550966.3095800001,"ADDRESS":"安中路六段４２９巷１２０弄５１號之１０","OBJECTID":651171},"geometry":{"x":161265.56265800074,"y":2550966.3095800001}},{"attributes":{"ID":651199,"DIS_CODE":0,"TOWNNAME":"安南區","LI":"城北里","LIN":"8鄰","STREET":"安中路","SECT":"六段","MAREA":" ","LANE":"４２９巷","ALLEY":"１２０弄","HOUSE_NO":"７１號","E_COORD97":161216.652324,"N_COORD97":2550933.9246,"ADDRESS":"安中路六段４２９巷１２０弄７１號","OBJECTID":651172},"geometry":{"x":161216.6523240013,"y":2550933.9245970007}},{"attributes":{"ID":651200,"DIS_CODE":0,"TOWNNAME":"新營區","LI":"王公里","LIN":"7鄰","STREET":"民治路","SECT":" ","MAREA":" ","LANE":"２６巷","ALLEY":" ","HOUSE_NO":"７號","E_COORD97":180178.829401,"N_COORD97":2578932.6171599999,"ADDRESS":"民治路２６巷７號","OBJECTID":651173},"geometry":{"x":180178.82940100227,"y":2578932.6171620004}},{"attributes":{"ID":651201,"DIS_CODE":0,"TOWNNAME":"安南區","LI":"城北里","LIN":"8鄰","STREET":"安中路","SECT":"六段","MAREA":" ","LANE":"４２９巷","ALLEY":"１２０弄","HOUSE_NO":"７１號之２０","E_COORD97":161206.065672,"N_COORD97":2550924.6112700002,"ADDRESS":"安中路六段４２９巷１２０弄７１號之２０","OBJECTID":651174},"geometry":{"x":161206.06567199994,"y":2550924.6112690046}},{"attributes":{"ID":651202,"DIS_CODE":0,"TOWNNAME":"新營區","LI":"王公里","LIN":"7鄰","STREET":"民治路","SECT":" ","MAREA":" ","LANE":"２６巷","ALLEY":" ","HOUSE_NO":"１１號","E_COORD97":180221.84149200001,"N_COORD97":2578934.7338299998,"ADDRESS":"民治路２６巷１１號","OBJECTID":651175},"geometry":{"x":180221.84149200004,"y":2578934.7338270023}},{"attributes":{"ID":651203,"DIS_CODE":0,"TOWNNAME":"楠西區","LI":"龜丹里","LIN":"4鄰","STREET":" ","SECT":" ","MAREA":"龜丹","LANE":" ","ALLEY":" ","HOUSE_NO":"４０號之６","E_COORD97":198364.54790899999,"N_COORD97":2559246.0233999998,"ADDRESS":"龜丹４０號之６","OBJECTID":651176},"geometry":{"x":198364.54790899996,"y":2559246.0233960021}},{"attributes":{"ID":651204,"DIS_CODE":0,"TOWNNAME":"後壁區","LI":"嘉苳里","LIN":"1鄰","STREET":" ","SECT":" ","MAREA":"下茄苳","LANE":" ","ALLEY":" ","HOUSE_NO":"１號之１","E_COORD97":185656.648996,"N_COORD97":2583592.1023499998,"ADDRESS":"下茄苳１號之１","OBJECTID":651177},"geometry":{"x":185656.64899600018,"y":2583592.1023510043}},{"attributes":{"ID":651205,"DIS_CODE":0,"TOWNNAME":"楠西區","LI":"龜丹里","LIN":"4鄰","STREET":" ","SECT":" ","MAREA":"龜丹","LANE":" ","ALLEY":" ","HOUSE_NO":"４３號","E_COORD97":198386.79449599999,"N_COORD97":2559244.4358999999,"ADDRESS":"龜丹４３號","OBJECTID":651178},"geometry":{"x":198386.79449600074,"y":2559244.4358970001}},{"attributes":{"ID":651206,"DIS_CODE":0,"TOWNNAME":"安南區","LI":"城北里","LIN":"9鄰","STREET":"城北路","SECT":" ","MAREA":" ","LANE":" ","ALLEY":" ","HOUSE_NO":"３３號","E_COORD97":160892.70076599999,"N_COORD97":2551525.9559399998,"ADDRESS":"城北路３３號","OBJECTID":651179},"geometry":{"x":160892.70076599997,"y":2551525.9559440017}},{"attributes":{"ID":651207,"DIS_CODE":0,"TOWNNAME":"楠西區","LI":"龜丹里","LIN":"4鄰","STREET":" ","SECT":" ","MAREA":"龜丹","LANE":" ","ALLEY":" ","HOUSE_NO":"４９號","E_COORD97":198426.20273600001,"N_COORD97":2559250.4683900001,"ADDRESS":"龜丹４９號","OBJECTID":651180},"geometry":{"x":198426.20273600053,"y":2559250.4683930017}},{"attributes":{"ID":651208,"DIS_CODE":0,"TOWNNAME":"中西區","LI":"藥王里","LIN":"18鄰","STREET":"美麗街","SECT":" ","MAREA":" ","LANE":" ","ALLEY":" ","HOUSE_NO":"２號","E_COORD97":166869.169154,"N_COORD97":2544534.915,"ADDRESS":"美麗街２號","OBJECTID":651181},"geometry":{"x":166869.1691540014,"y":2544534.9150029998}},{"attributes":{"ID":651209,"DIS_CODE":0,"TOWNNAME":"安平區","LI":"怡平里","LIN":"25鄰","STREET":"建平八街","SECT":" ","MAREA":" ","LANE":" ","ALLEY":" ","HOUSE_NO":"３３１號","E_COORD97":165515.67800099999,"N_COORD97":2543533.051,"ADDRESS":"建平八街３３１號","OBJECTID":651182},"geometry":{"x":165515.67800100148,"y":2543533.0510020014}},{"attributes":{"ID":651210,"DIS_CODE":0,"TOWNNAME":"楠西區","LI":"龜丹里","LIN":"4鄰","STREET":" ","SECT":" ","MAREA":"龜丹","LANE":" ","ALLEY":" ","HOUSE_NO":"４７號之１","E_COORD97":198370.05658800001,"N_COORD97":2559217.55424,"ADDRESS":"龜丹４７號之１","OBJECTID":651183},"geometry":{"x":198370.05658800155,"y":2559217.5542440005}},{"attributes":{"ID":651211,"DIS_CODE":0,"TOWNNAME":"安南區","LI":"城北里","LIN":"9鄰","STREET":"城北路","SECT":" ","MAREA":" ","LANE":" ","ALLEY":" ","HOUSE_NO":"４１號","E_COORD97":160900.091541,"N_COORD97":2551529.3426100002,"ADDRESS":"城北路４１號","OBJECTID":651184},"geometry":{"x":160900.09154099971,"y":2551529.3426090013}},{"attributes":{"ID":651212,"DIS_CODE":0,"TOWNNAME":"關廟區","LI":"東勢里","LIN":"1鄰","STREET":"東安街","SECT":" ","MAREA":" ","LANE":" ","ALLEY":" ","HOUSE_NO":"１５９號","E_COORD97":181450.991347,"N_COORD97":2539491.9319600002,"ADDRESS":"東安街１５９號","OBJECTID":651185},"geometry":{"x":181450.991347,"y":2539491.9319630042}},{"attributes":{"ID":651213,"DIS_CODE":0,"TOWNNAME":"安南區","LI":"城北里","LIN":"3鄰","STREET":"安中路","SECT":"六段","MAREA":" ","LANE":"５７８巷","ALLEY":" ","HOUSE_NO":"８１號","E_COORD97":161014.63911799999,"N_COORD97":2551502.88429,"ADDRESS":"安中路六段５７８巷８１號","OBJECTID":651186},"geometry":{"x":161014.63911799993,"y":2551502.8842900023}},{"attributes":{"ID":651214,"DIS_CODE":0,"TOWNNAME":"麻豆區","LI":"麻口里","LIN":"1鄰","STREET":" ","SECT":" ","MAREA":"麻豆口","LANE":" ","ALLEY":" ","HOUSE_NO":"５號之６","E_COORD97":170150.93655099999,"N_COORD97":2563977.92619,"ADDRESS":"麻豆口５號之６","OBJECTID":651187},"geometry":{"x":170150.93655099999,"y":2563977.9261920024}},{"attributes":{"ID":651215,"DIS_CODE":0,"TOWNNAME":"仁德區","LI":"仁義里","LIN":"1鄰","STREET":"中山路","SECT":" ","MAREA":" ","LANE":" ","ALLEY":" ","HOUSE_NO":"１４９號","E_COORD97":174589.182672,"N_COORD97":2541149.2754500001,"ADDRESS":"中山路１４９號","OBJECTID":651188},"geometry":{"x":174589.18267200049,"y":2541149.2754470017}},{"attributes":{"ID":651216,"DIS_CODE":0,"TOWNNAME":"安平區","LI":"建平里","LIN":"14鄰","STREET":"永華三街","SECT":" ","MAREA":" ","LANE":" ","ALLEY":" ","HOUSE_NO":"２６７號一樓","E_COORD97":166131.057451,"N_COORD97":2543998.9290800001,"ADDRESS":"永華三街２６７號一樓","OBJECTID":651189},"geometry":{"x":166131.05745100137,"y":2543998.9290830027}},{"attributes":{"ID":651217,"DIS_CODE":0,"TOWNNAME":"麻豆區","LI":"麻口里","LIN":"1鄰","STREET":" ","SECT":" ","MAREA":"麻豆口","LANE":" ","ALLEY":" ","HOUSE_NO":"５號之３０","E_COORD97":170119.15421800001,"N_COORD97":2563436.1656499999,"ADDRESS":"麻豆口５號之３０","OBJECTID":651190},"geometry":{"x":170119.15421800222,"y":2563436.1656510029}},{"attributes":{"ID":651218,"DIS_CODE":0,"TOWNNAME":"麻豆區","LI":"巷口里","LIN":"7鄰","STREET":"民族路","SECT":" ","MAREA":" ","LANE":" ","ALLEY":" ","HOUSE_NO":"３７號之１","E_COORD97":173176.48024,"N_COORD97":2564452.9113500002,"ADDRESS":"民族路３７號之１","OBJECTID":651191},"geometry":{"x":173176.48023999948,"y":2564452.9113470018}},{"attributes":{"ID":651219,"DIS_CODE":0,"TOWNNAME":"麻豆區","LI":"巷口里","LIN":"7鄰","STREET":"民族路","SECT":" ","MAREA":" ","LANE":" ","ALLEY":" ","HOUSE_NO":"３７號之２","E_COORD97":173179.022707,"N_COORD97":2564460.7430099999,"ADDRESS":"民族路３７號之２","OBJECTID":651192},"geometry":{"x":173179.02270700131,"y":2564460.7430090029}},{"attributes":{"ID":651220,"DIS_CODE":0,"TOWNNAME":"安南區","LI":"公\u25A0里","LIN":"4鄰","STREET":"安興街","SECT":" ","MAREA":" ","LANE":"９１巷","ALLEY":" ","HOUSE_NO":"１０號","E_COORD97":164278.83314199999,"N_COORD97":2552135.5310999998,"ADDRESS":"安興街９１巷１０號","OBJECTID":651193},"geometry":{"x":164278.83314200025,"y":2552135.5311009996}},{"attributes":{"ID":651221,"DIS_CODE":0,"TOWNNAME":"麻豆區","LI":"麻口里","LIN":"1鄰","STREET":" ","SECT":" ","MAREA":"麻豆口","LANE":" ","ALLEY":" ","HOUSE_NO":"５號之１３","E_COORD97":170196.91499300001,"N_COORD97":2563949.35121,"ADDRESS":"麻豆口５號之１３","OBJECTID":651194},"geometry":{"x":170196.91499300022,"y":2563949.351207003}},{"attributes":{"ID":651222,"DIS_CODE":0,"TOWNNAME":"安南區","LI":"城北里","LIN":"10鄰","STREET":"安中路","SECT":"六段","MAREA":" ","LANE":" ","ALLEY":" ","HOUSE_NO":"４９９號之３","E_COORD97":160985.20822500001,"N_COORD97":2551311.3260599999,"ADDRESS":"安中路六段４９９號之３","OBJECTID":651195},"geometry":{"x":160985.20822499972,"y":2551311.3260600008}},{"attributes":{"ID":651223,"DIS_CODE":0,"TOWNNAME":"佳里區","LI":"建南里","LIN":"34鄰","STREET":" ","SECT":" ","MAREA":"建南","LANE":" ","ALLEY":" ","HOUSE_NO":"１０５號之２","E_COORD97":166046.331293,"N_COORD97":2560634.0794600002,"ADDRESS":"建南１０５號之２","OBJECTID":651196},"geometry":{"x":166046.33129300084,"y":2560634.0794600006}},{"attributes":{"ID":651224,"DIS_CODE":0,"TOWNNAME":"新營區","LI":"王公里","LIN":"9鄰","STREET":"義和街","SECT":" ","MAREA":" ","LANE":" ","ALLEY":" ","HOUSE_NO":"１５號之５","E_COORD97":180326.12893599999,"N_COORD97":2579036.90429,"ADDRESS":"義和街１５號之５","OBJECTID":651197},"geometry":{"x":180326.12893600017,"y":2579036.9042890016}},{"attributes":{"ID":651225,"DIS_CODE":0,"TOWNNAME":"新營區","LI":"王公里","LIN":"9鄰","STREET":"義和街","SECT":" ","MAREA":" ","LANE":" ","ALLEY":" ","HOUSE_NO":"１５號","E_COORD97":180359.81821,"N_COORD97":2579037.5392900002,"ADDRESS":"義和街１５號","OBJECTID":651198},"geometry":{"x":180359.81821000017,"y":2579037.5392880011}},{"attributes":{"ID":651226,"DIS_CODE":0,"TOWNNAME":"安南區","LI":"城北里","LIN":"8鄰","STREET":"安中路","SECT":"六段","MAREA":" ","LANE":" ","ALLEY":" ","HOUSE_NO":"３５５號之１","E_COORD97":161200.81211,"N_COORD97":2551288.6379900002,"ADDRESS":"安中路六段３５５號之１","OBJECTID":651199},"geometry":{"x":161200.81211000122,"y":2551288.6379869971}},{"attributes":{"ID":651227,"DIS_CODE":0,"TOWNNAME":"麻豆區","LI":"南勢里","LIN":"20鄰","STREET":" ","SECT":" ","MAREA":"南勢","LANE":" ","ALLEY":" ","HOUSE_NO":"３８號之７６","E_COORD97":174478.78050699999,"N_COORD97":2564612.28694,"ADDRESS":"南勢３８號之７６","OBJECTID":651200},"geometry":{"x":174478.78050700109,"y":2564612.2869430035}}]}