{"displayFieldName":"TOWNNAME","fieldAliases":{"ID":"ID","DIS_CODE":"DIS_CODE","TOWNNAME":"TOWNNAME","LI":"LI","LIN":"LIN","STREET":"STREET","SECT":"SECT","MAREA":"MAREA","LANE":"LANE","ALLEY":"ALLEY","HOUSE_NO":"HOUSE_NO","E_COORD97":"E_COORD97","N_COORD97":"N_COORD97","ADDRESS":"ADDRESS","OBJECTID":"OBJECTID"},"geometryType":"esriGeometryPoint","spatialReference":{"wkid":102443,"latestWkid":3826},"fields":[{"name":"ID","type":"esriFieldTypeDouble","alias":"ID"},{"name":"DIS_CODE","type":"esriFieldTypeInteger","alias":"DIS_CODE"},{"name":"TOWNNAME","type":"esriFieldTypeString","alias":"TOWNNAME","length":8},{"name":"LI","type":"esriFieldTypeString","alias":"LI","length":8},{"name":"LIN","type":"esriFieldTypeString","alias":"LIN","length":12},{"name":"STREET","type":"esriFieldTypeString","alias":"STREET","length":20},{"name":"SECT","type":"esriFieldTypeString","alias":"SECT","length":8},{"name":"MAREA","type":"esriFieldTypeString","alias":"MAREA","length":12},{"name":"LANE","type":"esriFieldTypeString","alias":"LANE","length":10},{"name":"ALLEY","type":"esriFieldTypeString","alias":"ALLEY","length":10},{"name":"HOUSE_NO","type":"esriFieldTypeString","alias":"HOUSE_NO","length":20},{"name":"E_COORD97","type":"esriFieldTypeDouble","alias":"E_COORD97"},{"name":"N_COORD97","type":"esriFieldTypeDouble","alias":"N_COORD97"},{"name":"ADDRESS","type":"esriFieldTypeString","alias":"ADDRESS","length":50},{"name":"OBJECTID","type":"esriFieldTypeOID","alias":"OBJECTID"}],"features":[{"attributes":{"ID":651828,"DIS_CODE":0,"TOWNNAME":"中西區","LI":"青年里","LIN":"19鄰","STREET":"中山路","SECT":" ","MAREA":" ","LANE":" ","ALLEY":" ","HOUSE_NO":"１２號","E_COORD97":168594.75690400001,"N_COORD97":2543724.9278199999,"ADDRESS":"中山路１２號","OBJECTID":651801},"geometry":{"x":168594.75690400135,"y":2543724.927821001}},{"attributes":{"ID":651829,"DIS_CODE":0,"TOWNNAME":"中西區","LI":"青年里","LIN":"13鄰","STREET":"青年路","SECT":" ","MAREA":" ","LANE":"４７巷","ALLEY":" ","HOUSE_NO":"２８號","E_COORD97":168659.381746,"N_COORD97":2543733.7119800001,"ADDRESS":"青年路４７巷２８號","OBJECTID":651802},"geometry":{"x":168659.38174599968,"y":2543733.711982999}},{"attributes":{"ID":651830,"DIS_CODE":0,"TOWNNAME":"佳里區","LI":"頂\u25A0里","LIN":"9鄰","STREET":" ","SECT":" ","MAREA":"頂\u25A0","LANE":" ","ALLEY":" ","HOUSE_NO":"１０９號","E_COORD97":163021.279419,"N_COORD97":2563812.3741799998,"ADDRESS":"頂\u25A0１０９號","OBJECTID":651803},"geometry":{"x":163021.27941900026,"y":2563812.3741840031}},{"attributes":{"ID":651831,"DIS_CODE":0,"TOWNNAME":"佳里區","LI":"頂\u25A0里","LIN":"9鄰","STREET":" ","SECT":" ","MAREA":"頂\u25A0","LANE":" ","ALLEY":" ","HOUSE_NO":"１０６號之１","E_COORD97":163002.00334600001,"N_COORD97":2563760.93921,"ADDRESS":"頂\u25A0１０６號之１","OBJECTID":651804},"geometry":{"x":163002.0033460008,"y":2563760.9392120019}},{"attributes":{"ID":651832,"DIS_CODE":0,"TOWNNAME":"佳里區","LI":"頂\u25A0里","LIN":"9鄰","STREET":" ","SECT":" ","MAREA":"頂\u25A0","LANE":" ","ALLEY":" ","HOUSE_NO":"１１９號","E_COORD97":162919.17977700001,"N_COORD97":2563741.04256,"ADDRESS":"頂\u25A0１１９號","OBJECTID":651805},"geometry":{"x":162919.1797770001,"y":2563741.042555999}},{"attributes":{"ID":651833,"DIS_CODE":0,"TOWNNAME":"安平區","LI":"建平里","LIN":"3鄰","STREET":"永華三街","SECT":" ","MAREA":" ","LANE":" ","ALLEY":" ","HOUSE_NO":"３３３號","E_COORD97":166164.056125,"N_COORD97":2544221.87567,"ADDRESS":"永華三街３３３號","OBJECTID":651806},"geometry":{"x":166164.05612500198,"y":2544221.8756719995}},{"attributes":{"ID":651834,"DIS_CODE":0,"TOWNNAME":"安平區","LI":"建平里","LIN":"3鄰","STREET":"永華三街","SECT":" ","MAREA":" ","LANE":" ","ALLEY":" ","HOUSE_NO":"３３３號七樓之１","E_COORD97":166164.056125,"N_COORD97":2544221.87567,"ADDRESS":"永華三街３３３號七樓之１","OBJECTID":651807},"geometry":{"x":166164.05612500198,"y":2544221.8756719995}},{"attributes":{"ID":651835,"DIS_CODE":0,"TOWNNAME":"安平區","LI":"建平里","LIN":"3鄰","STREET":"永華三街","SECT":" ","MAREA":" ","LANE":" ","ALLEY":" ","HOUSE_NO":"３３３號七樓之２","E_COORD97":166164.056125,"N_COORD97":2544221.87567,"ADDRESS":"永華三街３３３號七樓之２","OBJECTID":651808},"geometry":{"x":166164.05612500198,"y":2544221.8756719995}},{"attributes":{"ID":651836,"DIS_CODE":0,"TOWNNAME":"安平區","LI":"建平里","LIN":"3鄰","STREET":"永華三街","SECT":" ","MAREA":" ","LANE":" ","ALLEY":" ","HOUSE_NO":"３３３號九樓之１","E_COORD97":166164.056125,"N_COORD97":2544221.87567,"ADDRESS":"永華三街３３３號九樓之１","OBJECTID":651809},"geometry":{"x":166164.05612500198,"y":2544221.8756719995}},{"attributes":{"ID":651837,"DIS_CODE":0,"TOWNNAME":"安平區","LI":"建平里","LIN":"3鄰","STREET":"永華三街","SECT":" ","MAREA":" ","LANE":" ","ALLEY":" ","HOUSE_NO":"３３３號九樓之２","E_COORD97":166164.056125,"N_COORD97":2544221.87567,"ADDRESS":"永華三街３３３號九樓之２","OBJECTID":651810},"geometry":{"x":166164.05612500198,"y":2544221.8756719995}},{"attributes":{"ID":651838,"DIS_CODE":0,"TOWNNAME":"安平區","LI":"建平里","LIN":"3鄰","STREET":"永華三街","SECT":" ","MAREA":" ","LANE":" ","ALLEY":" ","HOUSE_NO":"３３３號八樓之１","E_COORD97":166164.056125,"N_COORD97":2544221.87567,"ADDRESS":"永華三街３３３號八樓之１","OBJECTID":651811},"geometry":{"x":166164.05612500198,"y":2544221.8756719995}},{"attributes":{"ID":651839,"DIS_CODE":0,"TOWNNAME":"安平區","LI":"建平里","LIN":"3鄰","STREET":"永華三街","SECT":" ","MAREA":" ","LANE":" ","ALLEY":" ","HOUSE_NO":"３３３號八樓之２","E_COORD97":166164.056125,"N_COORD97":2544221.87567,"ADDRESS":"永華三街３３３號八樓之２","OBJECTID":651812},"geometry":{"x":166164.05612500198,"y":2544221.8756719995}},{"attributes":{"ID":651840,"DIS_CODE":0,"TOWNNAME":"安平區","LI":"建平里","LIN":"3鄰","STREET":"永華三街","SECT":" ","MAREA":" ","LANE":" ","ALLEY":" ","HOUSE_NO":"３３３號十一樓之１","E_COORD97":166164.056125,"N_COORD97":2544221.87567,"ADDRESS":"永華三街３３３號十一樓之１","OBJECTID":651813},"geometry":{"x":166164.05612500198,"y":2544221.8756719995}},{"attributes":{"ID":651841,"DIS_CODE":0,"TOWNNAME":"安平區","LI":"建平里","LIN":"3鄰","STREET":"永華三街","SECT":" ","MAREA":" ","LANE":" ","ALLEY":" ","HOUSE_NO":"３３３號十一樓之２","E_COORD97":166164.056125,"N_COORD97":2544221.87567,"ADDRESS":"永華三街３３３號十一樓之２","OBJECTID":651814},"geometry":{"x":166164.05612500198,"y":2544221.8756719995}},{"attributes":{"ID":651842,"DIS_CODE":0,"TOWNNAME":"安平區","LI":"建平里","LIN":"3鄰","STREET":"永華三街","SECT":" ","MAREA":" ","LANE":" ","ALLEY":" ","HOUSE_NO":"３３３號十二樓之１","E_COORD97":166164.056125,"N_COORD97":2544221.87567,"ADDRESS":"永華三街３３３號十二樓之１","OBJECTID":651815},"geometry":{"x":166164.05612500198,"y":2544221.8756719995}},{"attributes":{"ID":651843,"DIS_CODE":0,"TOWNNAME":"安平區","LI":"建平里","LIN":"3鄰","STREET":"永華三街","SECT":" ","MAREA":" ","LANE":" ","ALLEY":" ","HOUSE_NO":"３３３號十二樓之２","E_COORD97":166164.056125,"N_COORD97":2544221.87567,"ADDRESS":"永華三街３３３號十二樓之２","OBJECTID":651816},"geometry":{"x":166164.05612500198,"y":2544221.8756719995}},{"attributes":{"ID":651844,"DIS_CODE":0,"TOWNNAME":"安平區","LI":"建平里","LIN":"3鄰","STREET":"永華三街","SECT":" ","MAREA":" ","LANE":" ","ALLEY":" ","HOUSE_NO":"３３３號十樓之２","E_COORD97":166164.056125,"N_COORD97":2544221.87567,"ADDRESS":"永華三街３３３號十樓之２","OBJECTID":651817},"geometry":{"x":166164.05612500198,"y":2544221.8756719995}},{"attributes":{"ID":651845,"DIS_CODE":0,"TOWNNAME":"安平區","LI":"建平里","LIN":"3鄰","STREET":"永華三街","SECT":" ","MAREA":" ","LANE":" ","ALLEY":" ","HOUSE_NO":"３３３號十樓之１","E_COORD97":166164.056125,"N_COORD97":2544221.87567,"ADDRESS":"永華三街３３３號十樓之１","OBJECTID":651818},"geometry":{"x":166164.05612500198,"y":2544221.8756719995}},{"attributes":{"ID":651846,"DIS_CODE":0,"TOWNNAME":"安平區","LI":"建平里","LIN":"3鄰","STREET":"永華三街","SECT":" ","MAREA":" ","LANE":" ","ALLEY":" ","HOUSE_NO":"３３３號三樓之１","E_COORD97":166164.056125,"N_COORD97":2544221.87567,"ADDRESS":"永華三街３３３號三樓之１","OBJECTID":651819},"geometry":{"x":166164.05612500198,"y":2544221.8756719995}},{"attributes":{"ID":651847,"DIS_CODE":0,"TOWNNAME":"安平區","LI":"建平里","LIN":"3鄰","STREET":"永華三街","SECT":" ","MAREA":" ","LANE":" ","ALLEY":" ","HOUSE_NO":"３３３號三樓之２","E_COORD97":166164.056125,"N_COORD97":2544221.87567,"ADDRESS":"永華三街３３３號三樓之２","OBJECTID":651820},"geometry":{"x":166164.05612500198,"y":2544221.8756719995}},{"attributes":{"ID":651848,"DIS_CODE":0,"TOWNNAME":"安平區","LI":"建平里","LIN":"3鄰","STREET":"永華三街","SECT":" ","MAREA":" ","LANE":" ","ALLEY":" ","HOUSE_NO":"３３３號五樓之２","E_COORD97":166164.056125,"N_COORD97":2544221.87567,"ADDRESS":"永華三街３３３號五樓之２","OBJECTID":651821},"geometry":{"x":166164.05612500198,"y":2544221.8756719995}},{"attributes":{"ID":651849,"DIS_CODE":0,"TOWNNAME":"安平區","LI":"建平里","LIN":"3鄰","STREET":"永華三街","SECT":" ","MAREA":" ","LANE":" ","ALLEY":" ","HOUSE_NO":"３３３號五樓之１","E_COORD97":166164.056125,"N_COORD97":2544221.87567,"ADDRESS":"永華三街３３３號五樓之１","OBJECTID":651822},"geometry":{"x":166164.05612500198,"y":2544221.8756719995}},{"attributes":{"ID":651850,"DIS_CODE":0,"TOWNNAME":"安平區","LI":"建平里","LIN":"3鄰","STREET":"永華三街","SECT":" ","MAREA":" ","LANE":" ","ALLEY":" ","HOUSE_NO":"３３３號五樓之３","E_COORD97":166164.056125,"N_COORD97":2544221.87567,"ADDRESS":"永華三街３３３號五樓之３","OBJECTID":651823},"geometry":{"x":166164.05612500198,"y":2544221.8756719995}},{"attributes":{"ID":651851,"DIS_CODE":0,"TOWNNAME":"安平區","LI":"建平里","LIN":"3鄰","STREET":"永華三街","SECT":" ","MAREA":" ","LANE":" ","ALLEY":" ","HOUSE_NO":"３３３號六樓之３","E_COORD97":166164.056125,"N_COORD97":2544221.87567,"ADDRESS":"永華三街３３３號六樓之３","OBJECTID":651824},"geometry":{"x":166164.05612500198,"y":2544221.8756719995}},{"attributes":{"ID":651852,"DIS_CODE":0,"TOWNNAME":"安平區","LI":"建平里","LIN":"3鄰","STREET":"永華三街","SECT":" ","MAREA":" ","LANE":" ","ALLEY":" ","HOUSE_NO":"３３３號六樓之２","E_COORD97":166164.056125,"N_COORD97":2544221.87567,"ADDRESS":"永華三街３３３號六樓之２","OBJECTID":651825},"geometry":{"x":166164.05612500198,"y":2544221.8756719995}},{"attributes":{"ID":651853,"DIS_CODE":0,"TOWNNAME":"安平區","LI":"建平里","LIN":"3鄰","STREET":"永華三街","SECT":" ","MAREA":" ","LANE":" ","ALLEY":" ","HOUSE_NO":"３３３號六樓之１","E_COORD97":166164.056125,"N_COORD97":2544221.87567,"ADDRESS":"永華三街３３３號六樓之１","OBJECTID":651826},"geometry":{"x":166164.05612500198,"y":2544221.8756719995}},{"attributes":{"ID":651854,"DIS_CODE":0,"TOWNNAME":"安平區","LI":"建平里","LIN":"3鄰","STREET":"永華三街","SECT":" ","MAREA":" ","LANE":" ","ALLEY":" ","HOUSE_NO":"３３３號四樓之１","E_COORD97":166164.056125,"N_COORD97":2544221.87567,"ADDRESS":"永華三街３３３號四樓之１","OBJECTID":651827},"geometry":{"x":166164.05612500198,"y":2544221.8756719995}},{"attributes":{"ID":651855,"DIS_CODE":0,"TOWNNAME":"安平區","LI":"建平里","LIN":"3鄰","STREET":"永華三街","SECT":" ","MAREA":" ","LANE":" ","ALLEY":" ","HOUSE_NO":"３３３號四樓之２","E_COORD97":166164.056125,"N_COORD97":2544221.87567,"ADDRESS":"永華三街３３３號四樓之２","OBJECTID":651828},"geometry":{"x":166164.05612500198,"y":2544221.8756719995}},{"attributes":{"ID":651856,"DIS_CODE":0,"TOWNNAME":"安平區","LI":"建平里","LIN":"3鄰","STREET":"永華三街","SECT":" ","MAREA":" ","LANE":" ","ALLEY":" ","HOUSE_NO":"３３３號四樓之３","E_COORD97":166164.056125,"N_COORD97":2544221.87567,"ADDRESS":"永華三街３３３號四樓之３","OBJECTID":651829},"geometry":{"x":166164.05612500198,"y":2544221.8756719995}},{"attributes":{"ID":651857,"DIS_CODE":0,"TOWNNAME":"安平區","LI":"建平里","LIN":"3鄰","STREET":"永華三街","SECT":" ","MAREA":" ","LANE":" ","ALLEY":" ","HOUSE_NO":"３３３號地下一樓","E_COORD97":166164.05611999999,"N_COORD97":2544221.87567,"ADDRESS":"永華三街３３３號地下一樓","OBJECTID":651830},"geometry":{"x":166164.05612000078,"y":2544221.8756700009}},{"attributes":{"ID":651858,"DIS_CODE":0,"TOWNNAME":"安平區","LI":"建平里","LIN":"3鄰","STREET":"永華三街","SECT":" ","MAREA":" ","LANE":" ","ALLEY":" ","HOUSE_NO":"３３３號地下二樓","E_COORD97":166164.05611999999,"N_COORD97":2544221.87567,"ADDRESS":"永華三街３３３號地下二樓","OBJECTID":651831},"geometry":{"x":166164.05612000078,"y":2544221.8756700009}},{"attributes":{"ID":651859,"DIS_CODE":0,"TOWNNAME":"佳里區","LI":"營頂里","LIN":"9鄰","STREET":" ","SECT":" ","MAREA":"營頂","LANE":" ","ALLEY":" ","HOUSE_NO":"１０２號之３０","E_COORD97":167637.26358,"N_COORD97":2566747.5542700002,"ADDRESS":"營頂１０２號之３０","OBJECTID":651832},"geometry":{"x":167637.26358000003,"y":2566747.554266002}},{"attributes":{"ID":651860,"DIS_CODE":0,"TOWNNAME":"新營區","LI":"永生里","LIN":"19鄰","STREET":"中山路","SECT":" ","MAREA":" ","LANE":" ","ALLEY":" ","HOUSE_NO":"２４９號","E_COORD97":179832.74295000001,"N_COORD97":2577939.9290800001,"ADDRESS":"中山路２４９號","OBJECTID":651833},"geometry":{"x":179832.74294999987,"y":2577939.9290810041}},{"attributes":{"ID":651861,"DIS_CODE":0,"TOWNNAME":"新營區","LI":"永生里","LIN":"16鄰","STREET":"中山路","SECT":" ","MAREA":" ","LANE":" ","ALLEY":" ","HOUSE_NO":"２４３號","E_COORD97":179845.66776000001,"N_COORD97":2577950.5123999999,"ADDRESS":"中山路２４３號","OBJECTID":651834},"geometry":{"x":179845.66776000056,"y":2577950.5124000013}},{"attributes":{"ID":651862,"DIS_CODE":0,"TOWNNAME":"新營區","LI":"延平里","LIN":"4鄰","STREET":"成功街","SECT":" ","MAREA":" ","LANE":" ","ALLEY":" ","HOUSE_NO":"２８號","E_COORD97":179703.23432700001,"N_COORD97":2577834.9852900002,"ADDRESS":"成功街２８號","OBJECTID":651835},"geometry":{"x":179703.23432700057,"y":2577834.9852869995}},{"attributes":{"ID":651863,"DIS_CODE":0,"TOWNNAME":"新營區","LI":"延平里","LIN":"4鄰","STREET":"成功街","SECT":" ","MAREA":" ","LANE":" ","ALLEY":" ","HOUSE_NO":"３０號","E_COORD97":179702.59855699999,"N_COORD97":2577839.0069499998,"ADDRESS":"成功街３０號","OBJECTID":651836},"geometry":{"x":179702.59855700098,"y":2577839.0069519989}},{"attributes":{"ID":651864,"DIS_CODE":0,"TOWNNAME":"新營區","LI":"延平里","LIN":"4鄰","STREET":"成功街","SECT":" ","MAREA":" ","LANE":" ","ALLEY":" ","HOUSE_NO":"３２號之１","E_COORD97":179699.207784,"N_COORD97":2577848.4261099999,"ADDRESS":"成功街３２號之１","OBJECTID":651837},"geometry":{"x":179699.20778400078,"y":2577848.426113002}},{"attributes":{"ID":651865,"DIS_CODE":0,"TOWNNAME":"新營區","LI":"永生里","LIN":"16鄰","STREET":"中山路","SECT":" ","MAREA":" ","LANE":"２４５巷","ALLEY":" ","HOUSE_NO":"１３號","E_COORD97":179861.34705000001,"N_COORD97":2577896.7491000001,"ADDRESS":"中山路２４５巷１３號","OBJECTID":651838},"geometry":{"x":179861.34705000091,"y":2577896.7491050009}},{"attributes":{"ID":651866,"DIS_CODE":0,"TOWNNAME":"安平區","LI":"建平里","LIN":"19鄰","STREET":"怡平路","SECT":" ","MAREA":" ","LANE":"１４０巷","ALLEY":"２７弄","HOUSE_NO":"１號之１","E_COORD97":165893.23830900001,"N_COORD97":2543848.91921,"ADDRESS":"怡平路１４０巷２７弄１號之１","OBJECTID":651839},"geometry":{"x":165893.23830900155,"y":2543848.9192060027}},{"attributes":{"ID":651867,"DIS_CODE":0,"TOWNNAME":"安平區","LI":"建平里","LIN":"19鄰","STREET":"怡平路","SECT":" ","MAREA":" ","LANE":"１４０巷","ALLEY":"２７弄","HOUSE_NO":"１號之２","E_COORD97":165893.23830900001,"N_COORD97":2543848.91921,"ADDRESS":"怡平路１４０巷２７弄１號之２","OBJECTID":651840},"geometry":{"x":165893.23830900155,"y":2543848.9192060027}},{"attributes":{"ID":651868,"DIS_CODE":0,"TOWNNAME":"新營區","LI":"永生里","LIN":"16鄰","STREET":"中山路","SECT":" ","MAREA":" ","LANE":"２４５巷","ALLEY":" ","HOUSE_NO":"７號","E_COORD97":179854.778701,"N_COORD97":2577930.1924200002,"ADDRESS":"中山路２４５巷７號","OBJECTID":651841},"geometry":{"x":179854.77870099992,"y":2577930.1924200039}},{"attributes":{"ID":651869,"DIS_CODE":0,"TOWNNAME":"安南區","LI":"溪心里","LIN":"1鄰","STREET":"安中路","SECT":"三段","MAREA":" ","LANE":" ","ALLEY":" ","HOUSE_NO":"３１號","E_COORD97":166297.565519,"N_COORD97":2549740.21068,"ADDRESS":"安中路三段３１號","OBJECTID":651842},"geometry":{"x":166297.56551900227,"y":2549740.2106839977}},{"attributes":{"ID":651870,"DIS_CODE":0,"TOWNNAME":"安平區","LI":"建平里","LIN":"19鄰","STREET":"怡平路","SECT":" ","MAREA":" ","LANE":"１４０巷","ALLEY":"２７弄","HOUSE_NO":"１號之３","E_COORD97":165893.23830900001,"N_COORD97":2543848.91921,"ADDRESS":"怡平路１４０巷２７弄１號之３","OBJECTID":651843},"geometry":{"x":165893.23830900155,"y":2543848.9192060027}},{"attributes":{"ID":651871,"DIS_CODE":0,"TOWNNAME":"安平區","LI":"建平里","LIN":"19鄰","STREET":"怡平路","SECT":" ","MAREA":" ","LANE":"１４０巷","ALLEY":"２７弄","HOUSE_NO":"１號之４","E_COORD97":165893.23830900001,"N_COORD97":2543848.91921,"ADDRESS":"怡平路１４０巷２７弄１號之４","OBJECTID":651844},"geometry":{"x":165893.23830900155,"y":2543848.9192060027}},{"attributes":{"ID":651872,"DIS_CODE":0,"TOWNNAME":"安平區","LI":"建平里","LIN":"19鄰","STREET":"怡平路","SECT":" ","MAREA":" ","LANE":"１４０巷","ALLEY":"２７弄","HOUSE_NO":"１號之５","E_COORD97":165893.23830900001,"N_COORD97":2543848.91921,"ADDRESS":"怡平路１４０巷２７弄１號之５","OBJECTID":651845},"geometry":{"x":165893.23830900155,"y":2543848.9192060027}},{"attributes":{"ID":651873,"DIS_CODE":0,"TOWNNAME":"安平區","LI":"建平里","LIN":"19鄰","STREET":"怡平路","SECT":" ","MAREA":" ","LANE":"１４０巷","ALLEY":"２７弄","HOUSE_NO":"１號之５六樓","E_COORD97":165893.23830900001,"N_COORD97":2543848.91921,"ADDRESS":"怡平路１４０巷２７弄１號之５六樓","OBJECTID":651846},"geometry":{"x":165893.23830900155,"y":2543848.9192060027}},{"attributes":{"ID":651874,"DIS_CODE":0,"TOWNNAME":"安平區","LI":"建平里","LIN":"19鄰","STREET":"怡平路","SECT":" ","MAREA":" ","LANE":"１４０巷","ALLEY":"２７弄","HOUSE_NO":"３號之１","E_COORD97":165888.576344,"N_COORD97":2543849.13087,"ADDRESS":"怡平路１４０巷２７弄３號之１","OBJECTID":651847},"geometry":{"x":165888.57634400204,"y":2543849.1308730002}},{"attributes":{"ID":651875,"DIS_CODE":0,"TOWNNAME":"新營區","LI":"永生里","LIN":"16鄰","STREET":"中山路","SECT":" ","MAREA":" ","LANE":"２４５巷","ALLEY":" ","HOUSE_NO":"９號","E_COORD97":179857.321287,"N_COORD97":2577905.2157700001,"ADDRESS":"中山路２４５巷９號","OBJECTID":651848},"geometry":{"x":179857.32128700055,"y":2577905.2157670017}},{"attributes":{"ID":651876,"DIS_CODE":0,"TOWNNAME":"安平區","LI":"建平里","LIN":"19鄰","STREET":"怡平路","SECT":" ","MAREA":" ","LANE":"１４０巷","ALLEY":"２７弄","HOUSE_NO":"３號之２","E_COORD97":165888.576344,"N_COORD97":2543849.13087,"ADDRESS":"怡平路１４０巷２７弄３號之２","OBJECTID":651849},"geometry":{"x":165888.57634400204,"y":2543849.1308730002}},{"attributes":{"ID":651877,"DIS_CODE":0,"TOWNNAME":"安平區","LI":"建平里","LIN":"19鄰","STREET":"怡平路","SECT":" ","MAREA":" ","LANE":"１４０巷","ALLEY":"２７弄","HOUSE_NO":"３號之３","E_COORD97":165888.576344,"N_COORD97":2543849.13087,"ADDRESS":"怡平路１４０巷２７弄３號之３","OBJECTID":651850},"geometry":{"x":165888.57634400204,"y":2543849.1308730002}},{"attributes":{"ID":651878,"DIS_CODE":0,"TOWNNAME":"官田區","LI":"南\u25A0里","LIN":"1鄰","STREET":" ","SECT":" ","MAREA":"南\u25A0","LANE":" ","ALLEY":" ","HOUSE_NO":"５號之１０","E_COORD97":179147.16787,"N_COORD97":2567096.73422,"ADDRESS":"南\u25A0５號之１０","OBJECTID":651851},"geometry":{"x":179147.16787000094,"y":2567096.73422}},{"attributes":{"ID":651879,"DIS_CODE":0,"TOWNNAME":"安平區","LI":"建平里","LIN":"19鄰","STREET":"怡平路","SECT":" ","MAREA":" ","LANE":"１４０巷","ALLEY":"２７弄","HOUSE_NO":"３號之４","E_COORD97":165888.576344,"N_COORD97":2543849.13087,"ADDRESS":"怡平路１４０巷２７弄３號之４","OBJECTID":651852},"geometry":{"x":165888.57634400204,"y":2543849.1308730002}},{"attributes":{"ID":651880,"DIS_CODE":0,"TOWNNAME":"安平區","LI":"建平里","LIN":"19鄰","STREET":"怡平路","SECT":" ","MAREA":" ","LANE":"１４０巷","ALLEY":"２７弄","HOUSE_NO":"３號之５","E_COORD97":165888.576344,"N_COORD97":2543849.13087,"ADDRESS":"怡平路１４０巷２７弄３號之５","OBJECTID":651853},"geometry":{"x":165888.57634400204,"y":2543849.1308730002}},{"attributes":{"ID":651881,"DIS_CODE":0,"TOWNNAME":"安平區","LI":"建平里","LIN":"19鄰","STREET":"怡平路","SECT":" ","MAREA":" ","LANE":"１４０巷","ALLEY":"２７弄","HOUSE_NO":"５號之１","E_COORD97":165879.88813499999,"N_COORD97":2543849.7658699998,"ADDRESS":"怡平路１４０巷２７弄５號之１","OBJECTID":651854},"geometry":{"x":165879.88813500013,"y":2543849.765873}},{"attributes":{"ID":651882,"DIS_CODE":0,"TOWNNAME":"新營區","LI":"永生里","LIN":"16鄰","STREET":"中山路","SECT":" ","MAREA":" ","LANE":"２４５巷","ALLEY":" ","HOUSE_NO":"９號之１","E_COORD97":179864.31340099999,"N_COORD97":2577907.1207699999,"ADDRESS":"中山路２４５巷９號之１","OBJECTID":651855},"geometry":{"x":179864.31340100057,"y":2577907.1207660008}},{"attributes":{"ID":651883,"DIS_CODE":0,"TOWNNAME":"安平區","LI":"建平里","LIN":"19鄰","STREET":"怡平路","SECT":" ","MAREA":" ","LANE":"１４０巷","ALLEY":"２７弄","HOUSE_NO":"５號之２","E_COORD97":165879.676228,"N_COORD97":2543849.7658699998,"ADDRESS":"怡平路１４０巷２７弄５號之２","OBJECTID":651856},"geometry":{"x":165879.67622800078,"y":2543849.765873}},{"attributes":{"ID":651884,"DIS_CODE":0,"TOWNNAME":"安平區","LI":"建平里","LIN":"19鄰","STREET":"怡平路","SECT":" ","MAREA":" ","LANE":"１４０巷","ALLEY":"２７弄","HOUSE_NO":"５號之３","E_COORD97":165879.46432,"N_COORD97":2543849.7658699998,"ADDRESS":"怡平路１４０巷２７弄５號之３","OBJECTID":651857},"geometry":{"x":165879.46432000119,"y":2543849.765873}},{"attributes":{"ID":651885,"DIS_CODE":0,"TOWNNAME":"安平區","LI":"建平里","LIN":"19鄰","STREET":"怡平路","SECT":" ","MAREA":" ","LANE":"１４０巷","ALLEY":"２７弄","HOUSE_NO":"５號之４","E_COORD97":165888.57634,"N_COORD97":2543849.13087,"ADDRESS":"怡平路１４０巷２７弄５號之４","OBJECTID":651858},"geometry":{"x":165888.57634000015,"y":2543849.1308700014}},{"attributes":{"ID":651886,"DIS_CODE":0,"TOWNNAME":"安平區","LI":"建平里","LIN":"19鄰","STREET":"怡平路","SECT":" ","MAREA":" ","LANE":"１４０巷","ALLEY":"２７弄","HOUSE_NO":"５號之５","E_COORD97":165879.46432,"N_COORD97":2543849.9775399999,"ADDRESS":"怡平路１４０巷２７弄５號之５","OBJECTID":651859},"geometry":{"x":165879.46432000119,"y":2543849.977539001}},{"attributes":{"ID":651887,"DIS_CODE":0,"TOWNNAME":"新營區","LI":"永生里","LIN":"16鄰","STREET":"中山路","SECT":" ","MAREA":" ","LANE":" ","ALLEY":" ","HOUSE_NO":"２４５號","E_COORD97":179842.91329600001,"N_COORD97":2577948.18408,"ADDRESS":"中山路２４５號","OBJECTID":651860},"geometry":{"x":179842.91329600196,"y":2577948.1840770021}},{"attributes":{"ID":651888,"DIS_CODE":0,"TOWNNAME":"安平區","LI":"建平里","LIN":"19鄰","STREET":"怡平路","SECT":" ","MAREA":" ","LANE":"１４０巷","ALLEY":"２７弄","HOUSE_NO":"７號之１","E_COORD97":165875.438077,"N_COORD97":2543850.8242100002,"ADDRESS":"怡平路１４０巷２７弄７號之１","OBJECTID":651861},"geometry":{"x":165875.4380770009,"y":2543850.8242050037}},{"attributes":{"ID":651889,"DIS_CODE":0,"TOWNNAME":"安平區","LI":"建平里","LIN":"19鄰","STREET":"怡平路","SECT":" ","MAREA":" ","LANE":"１４０巷","ALLEY":"２７弄","HOUSE_NO":"７號之２","E_COORD97":165875.438077,"N_COORD97":2543850.8242100002,"ADDRESS":"怡平路１４０巷２７弄７號之２","OBJECTID":651862},"geometry":{"x":165875.4380770009,"y":2543850.8242050037}},{"attributes":{"ID":651890,"DIS_CODE":0,"TOWNNAME":"安平區","LI":"建平里","LIN":"19鄰","STREET":"怡平路","SECT":" ","MAREA":" ","LANE":"１４０巷","ALLEY":"２７弄","HOUSE_NO":"７號之３","E_COORD97":165875.438077,"N_COORD97":2543850.8242100002,"ADDRESS":"怡平路１４０巷２７弄７號之３","OBJECTID":651863},"geometry":{"x":165875.4380770009,"y":2543850.8242050037}},{"attributes":{"ID":651891,"DIS_CODE":0,"TOWNNAME":"安平區","LI":"建平里","LIN":"19鄰","STREET":"怡平路","SECT":" ","MAREA":" ","LANE":"１４０巷","ALLEY":"２７弄","HOUSE_NO":"７號之４","E_COORD97":165875.438077,"N_COORD97":2543850.8242100002,"ADDRESS":"怡平路１４０巷２７弄７號之４","OBJECTID":651864},"geometry":{"x":165875.4380770009,"y":2543850.8242050037}},{"attributes":{"ID":651892,"DIS_CODE":0,"TOWNNAME":"安平區","LI":"建平里","LIN":"19鄰","STREET":"怡平路","SECT":" ","MAREA":" ","LANE":"１４０巷","ALLEY":"２７弄","HOUSE_NO":"７號之５","E_COORD97":165875.438077,"N_COORD97":2543850.8242100002,"ADDRESS":"怡平路１４０巷２７弄７號之５","OBJECTID":651865},"geometry":{"x":165875.4380770009,"y":2543850.8242050037}},{"attributes":{"ID":651893,"DIS_CODE":0,"TOWNNAME":"新營區","LI":"永生里","LIN":"16鄰","STREET":"永安街","SECT":" ","MAREA":" ","LANE":" ","ALLEY":" ","HOUSE_NO":"２４號","E_COORD97":179882.95903599999,"N_COORD97":2577904.8982699998,"ADDRESS":"永安街２４號","OBJECTID":651866},"geometry":{"x":179882.95903600007,"y":2577904.8982670046}},{"attributes":{"ID":651894,"DIS_CODE":0,"TOWNNAME":"安南區","LI":"溪心里","LIN":"2鄰","STREET":"海環街","SECT":" ","MAREA":" ","LANE":" ","ALLEY":" ","HOUSE_NO":"６１５號","E_COORD97":166462.76236299999,"N_COORD97":2549303.51174,"ADDRESS":"海環街６１５號","OBJECTID":651867},"geometry":{"x":166462.76236300077,"y":2549303.5117440037}},{"attributes":{"ID":651895,"DIS_CODE":0,"TOWNNAME":"新營區","LI":"永生里","LIN":"16鄰","STREET":"永安街","SECT":" ","MAREA":" ","LANE":" ","ALLEY":" ","HOUSE_NO":"４號","E_COORD97":179865.58469399999,"N_COORD97":2577951.8882399998,"ADDRESS":"永安街４號","OBJECTID":651868},"geometry":{"x":179865.58469400089,"y":2577951.8882420007}},{"attributes":{"ID":651896,"DIS_CODE":0,"TOWNNAME":"安平區","LI":"建平里","LIN":"28鄰","STREET":"建平九街","SECT":" ","MAREA":" ","LANE":" ","ALLEY":" ","HOUSE_NO":"５０號之１","E_COORD97":166039.87831599999,"N_COORD97":2543535.6527100001,"ADDRESS":"建平九街５０號之１","OBJECTID":651869},"geometry":{"x":166039.8783160001,"y":2543535.6527090017}},{"attributes":{"ID":651897,"DIS_CODE":0,"TOWNNAME":"安平區","LI":"建平里","LIN":"28鄰","STREET":"建平九街","SECT":" ","MAREA":" ","LANE":" ","ALLEY":" ","HOUSE_NO":"５０號之２","E_COORD97":166039.87831599999,"N_COORD97":2543535.6527100001,"ADDRESS":"建平九街５０號之２","OBJECTID":651870},"geometry":{"x":166039.8783160001,"y":2543535.6527090017}},{"attributes":{"ID":651898,"DIS_CODE":0,"TOWNNAME":"安平區","LI":"建平里","LIN":"28鄰","STREET":"建平九街","SECT":" ","MAREA":" ","LANE":" ","ALLEY":" ","HOUSE_NO":"５０號之３","E_COORD97":166039.87831599999,"N_COORD97":2543535.6527100001,"ADDRESS":"建平九街５０號之３","OBJECTID":651871},"geometry":{"x":166039.8783160001,"y":2543535.6527090017}},{"attributes":{"ID":651899,"DIS_CODE":0,"TOWNNAME":"安平區","LI":"建平里","LIN":"28鄰","STREET":"建平九街","SECT":" ","MAREA":" ","LANE":" ","ALLEY":" ","HOUSE_NO":"５０號之４","E_COORD97":166039.87831599999,"N_COORD97":2543535.6527100001,"ADDRESS":"建平九街５０號之４","OBJECTID":651872},"geometry":{"x":166039.8783160001,"y":2543535.6527090017}},{"attributes":{"ID":651900,"DIS_CODE":0,"TOWNNAME":"安平區","LI":"建平里","LIN":"28鄰","STREET":"建平九街","SECT":" ","MAREA":" ","LANE":" ","ALLEY":" ","HOUSE_NO":"５０號之５","E_COORD97":166039.87831599999,"N_COORD97":2543535.6527100001,"ADDRESS":"建平九街５０號之５","OBJECTID":651873},"geometry":{"x":166039.8783160001,"y":2543535.6527090017}},{"attributes":{"ID":651901,"DIS_CODE":0,"TOWNNAME":"安平區","LI":"建平里","LIN":"28鄰","STREET":"建平九街","SECT":" ","MAREA":" ","LANE":" ","ALLEY":" ","HOUSE_NO":"５２號之１","E_COORD97":166036.06398000001,"N_COORD97":2543535.4410399999,"ADDRESS":"建平九街５２號之１","OBJECTID":651874},"geometry":{"x":166036.06398000009,"y":2543535.4410420004}},{"attributes":{"ID":651902,"DIS_CODE":0,"TOWNNAME":"安平區","LI":"建平里","LIN":"28鄰","STREET":"建平九街","SECT":" ","MAREA":" ","LANE":" ","ALLEY":" ","HOUSE_NO":"５２號之２","E_COORD97":166036.06398000001,"N_COORD97":2543535.4410399999,"ADDRESS":"建平九街５２號之２","OBJECTID":651875},"geometry":{"x":166036.06398000009,"y":2543535.4410420004}},{"attributes":{"ID":651903,"DIS_CODE":0,"TOWNNAME":"安平區","LI":"建平里","LIN":"28鄰","STREET":"建平九街","SECT":" ","MAREA":" ","LANE":" ","ALLEY":" ","HOUSE_NO":"５２號之３","E_COORD97":166036.06398000001,"N_COORD97":2543535.4410399999,"ADDRESS":"建平九街５２號之３","OBJECTID":651876},"geometry":{"x":166036.06398000009,"y":2543535.4410420004}},{"attributes":{"ID":651904,"DIS_CODE":0,"TOWNNAME":"安平區","LI":"建平里","LIN":"28鄰","STREET":"建平九街","SECT":" ","MAREA":" ","LANE":" ","ALLEY":" ","HOUSE_NO":"５２號之４","E_COORD97":166036.06398000001,"N_COORD97":2543535.4410399999,"ADDRESS":"建平九街５２號之４","OBJECTID":651877},"geometry":{"x":166036.06398000009,"y":2543535.4410420004}},{"attributes":{"ID":651905,"DIS_CODE":0,"TOWNNAME":"安平區","LI":"建平里","LIN":"28鄰","STREET":"建平九街","SECT":" ","MAREA":" ","LANE":" ","ALLEY":" ","HOUSE_NO":"５２號之５","E_COORD97":166036.06398000001,"N_COORD97":2543535.4410399999,"ADDRESS":"建平九街５２號之５","OBJECTID":651878},"geometry":{"x":166036.06398000009,"y":2543535.4410420004}},{"attributes":{"ID":651906,"DIS_CODE":0,"TOWNNAME":"善化區","LI":"什乃里","LIN":"1鄰","STREET":" ","SECT":" ","MAREA":"什乃","LANE":" ","ALLEY":" ","HOUSE_NO":"１２號之１","E_COORD97":176281.0209,"N_COORD97":2560473.5997299999,"ADDRESS":"什乃１２號之１","OBJECTID":651879},"geometry":{"x":176281.02090000175,"y":2560473.5997300018}},{"attributes":{"ID":651907,"DIS_CODE":0,"TOWNNAME":"新營區","LI":"永生里","LIN":"16鄰","STREET":"永安街","SECT":" ","MAREA":" ","LANE":" ","ALLEY":" ","HOUSE_NO":"１２號","E_COORD97":179869.61045599999,"N_COORD97":2577938.4474200001,"ADDRESS":"永安街１２號","OBJECTID":651880},"geometry":{"x":179869.61045600008,"y":2577938.4474160019}},{"attributes":{"ID":651908,"DIS_CODE":0,"TOWNNAME":"安平區","LI":"建平里","LIN":"25鄰","STREET":"建平九街","SECT":" ","MAREA":" ","LANE":"６０巷","ALLEY":" ","HOUSE_NO":"３６號之１六樓之２","E_COORD97":166051.74513,"N_COORD97":2543586.24101,"ADDRESS":"建平九街６０巷３６號之１六樓之２","OBJECTID":651881},"geometry":{"x":166051.74513000157,"y":2543586.2410099991}},{"attributes":{"ID":651909,"DIS_CODE":0,"TOWNNAME":"安平區","LI":"建平里","LIN":"25鄰","STREET":"建平九街","SECT":" ","MAREA":" ","LANE":"６０巷","ALLEY":" ","HOUSE_NO":"３６之４號三樓","E_COORD97":166043.05692900001,"N_COORD97":2543608.0426699999,"ADDRESS":"建平九街６０巷３６之４號三樓","OBJECTID":651882},"geometry":{"x":166043.05692900158,"y":2543608.0426700022}},{"attributes":{"ID":651910,"DIS_CODE":0,"TOWNNAME":"安平區","LI":"建平里","LIN":"25鄰","STREET":"建平九街","SECT":" ","MAREA":" ","LANE":"６０巷","ALLEY":" ","HOUSE_NO":"３６號之４二樓","E_COORD97":166043.05692,"N_COORD97":2543608.0426699999,"ADDRESS":"建平九街６０巷３６號之４二樓","OBJECTID":651883},"geometry":{"x":166043.05692000128,"y":2543608.0426700022}},{"attributes":{"ID":651911,"DIS_CODE":0,"TOWNNAME":"新營區","LI":"永生里","LIN":"17鄰","STREET":"永安街","SECT":" ","MAREA":" ","LANE":" ","ALLEY":" ","HOUSE_NO":"３０號","E_COORD97":179887.408563,"N_COORD97":2577890.6107800002,"ADDRESS":"永安街３０號","OBJECTID":651884},"geometry":{"x":179887.40856300201,"y":2577890.6107749995}},{"attributes":{"ID":651912,"DIS_CODE":0,"TOWNNAME":"安平區","LI":"建平里","LIN":"25鄰","STREET":"建平九街","SECT":" ","MAREA":" ","LANE":"６０巷","ALLEY":" ","HOUSE_NO":"３６號之４四樓","E_COORD97":166043.05692,"N_COORD97":2543608.0426699999,"ADDRESS":"建平九街６０巷３６號之４四樓","OBJECTID":651885},"geometry":{"x":166043.05692000128,"y":2543608.0426700022}},{"attributes":{"ID":651913,"DIS_CODE":0,"TOWNNAME":"安平區","LI":"建平里","LIN":"25鄰","STREET":"建平九街","SECT":" ","MAREA":" ","LANE":"６０巷","ALLEY":" ","HOUSE_NO":"３６號之８二樓","E_COORD97":166056.40710000001,"N_COORD97":2543614.81599,"ADDRESS":"建平九街６０巷３６號之８二樓","OBJECTID":651886},"geometry":{"x":166056.40710000228,"y":2543614.815990001}},{"attributes":{"ID":651914,"DIS_CODE":0,"TOWNNAME":"善化區","LI":"什乃里","LIN":"10鄰","STREET":" ","SECT":" ","MAREA":"什乃","LANE":" ","ALLEY":" ","HOUSE_NO":"１３６號之２","E_COORD97":176530.44270000001,"N_COORD97":2560153.98324,"ADDRESS":"什乃１３６號之２","OBJECTID":651887},"geometry":{"x":176530.44270000234,"y":2560153.9832400028}},{"attributes":{"ID":651915,"DIS_CODE":0,"TOWNNAME":"新營區","LI":"延平里","LIN":"4鄰","STREET":"成功街","SECT":" ","MAREA":" ","LANE":" ","ALLEY":" ","HOUSE_NO":"３６號之１","E_COORD97":179696.45277999999,"N_COORD97":2577860.4911099998,"ADDRESS":"成功街３６號之１","OBJECTID":651888},"geometry":{"x":179696.45277999993,"y":2577860.491107}},{"attributes":{"ID":651916,"DIS_CODE":0,"TOWNNAME":"安平區","LI":"建平里","LIN":"25鄰","STREET":"建平九街","SECT":" ","MAREA":" ","LANE":"６０巷","ALLEY":" ","HOUSE_NO":"３６號之８三樓","E_COORD97":166056.40710000001,"N_COORD97":2543614.81599,"ADDRESS":"建平九街６０巷３６號之８三樓","OBJECTID":651889},"geometry":{"x":166056.40710000228,"y":2543614.815990001}},{"attributes":{"ID":651917,"DIS_CODE":0,"TOWNNAME":"安平區","LI":"建平里","LIN":"25鄰","STREET":"建平九街","SECT":" ","MAREA":" ","LANE":"６０巷","ALLEY":" ","HOUSE_NO":"３６號之８四樓","E_COORD97":166056.40710000001,"N_COORD97":2543614.81599,"ADDRESS":"建平九街６０巷３６號之８四樓","OBJECTID":651890},"geometry":{"x":166056.40710000228,"y":2543614.815990001}},{"attributes":{"ID":651918,"DIS_CODE":0,"TOWNNAME":"安平區","LI":"建平里","LIN":"25鄰","STREET":"建平九街","SECT":" ","MAREA":" ","LANE":"６０巷","ALLEY":" ","HOUSE_NO":"３６號之８五樓","E_COORD97":166056.40710000001,"N_COORD97":2543614.81599,"ADDRESS":"建平九街６０巷３６號之８五樓","OBJECTID":651891},"geometry":{"x":166056.40710000228,"y":2543614.815990001}},{"attributes":{"ID":651919,"DIS_CODE":0,"TOWNNAME":"楠西區","LI":"鹿田里","LIN":"7鄰","STREET":" ","SECT":" ","MAREA":"油車","LANE":" ","ALLEY":" ","HOUSE_NO":"１５號之２８","E_COORD97":197801.04269599999,"N_COORD97":2562089.0551800001,"ADDRESS":"油車１５號之２８","OBJECTID":651892},"geometry":{"x":197801.04269600194,"y":2562089.0551779997}},{"attributes":{"ID":651920,"DIS_CODE":0,"TOWNNAME":"六甲區","LI":"甲東里","LIN":"11鄰","STREET":"曾文街","SECT":" ","MAREA":" ","LANE":"１５０巷","ALLEY":" ","HOUSE_NO":"１６號","E_COORD97":185403.88950300001,"N_COORD97":2570292.2785100001,"ADDRESS":"曾文街１５０巷１６號","OBJECTID":651893},"geometry":{"x":185403.8895030003,"y":2570292.2785059996}},{"attributes":{"ID":651921,"DIS_CODE":0,"TOWNNAME":"安南區","LI":"溪心里","LIN":"12鄰","STREET":"海佃路","SECT":"二段","MAREA":" ","LANE":" ","ALLEY":" ","HOUSE_NO":"６６８號之１","E_COORD97":166597.63631199999,"N_COORD97":2549429.45334,"ADDRESS":"海佃路二段６６８號之１","OBJECTID":651894},"geometry":{"x":166597.63631200138,"y":2549429.4533420019}},{"attributes":{"ID":651922,"DIS_CODE":0,"TOWNNAME":"楠西區","LI":"鹿田里","LIN":"7鄰","STREET":" ","SECT":" ","MAREA":"油車","LANE":" ","ALLEY":" ","HOUSE_NO":"１５號之２３","E_COORD97":197771.804324,"N_COORD97":2562102.39017,"ADDRESS":"油車１５號之２３","OBJECTID":651895},"geometry":{"x":197771.80432400107,"y":2562102.390170997}},{"attributes":{"ID":651923,"DIS_CODE":0,"TOWNNAME":"新營區","LI":"好平里","LIN":"4鄰","STREET":"長春街","SECT":" ","MAREA":" ","LANE":" ","ALLEY":" ","HOUSE_NO":"１０９號","E_COORD97":179518.18698999999,"N_COORD97":2577815.1878599999,"ADDRESS":"長春街１０９號","OBJECTID":651896},"geometry":{"x":179518.18699000031,"y":2577815.187864}},{"attributes":{"ID":651924,"DIS_CODE":0,"TOWNNAME":"新營區","LI":"延平里","LIN":"4鄰","STREET":"武侯街","SECT":" ","MAREA":" ","LANE":" ","ALLEY":" ","HOUSE_NO":"３０號","E_COORD97":179646.22695000001,"N_COORD97":2577772.1203200002,"ADDRESS":"武侯街３０號","OBJECTID":651897},"geometry":{"x":179646.2269500019,"y":2577772.120321}},{"attributes":{"ID":651925,"DIS_CODE":0,"TOWNNAME":"新營區","LI":"延平里","LIN":"4鄰","STREET":"武侯街","SECT":" ","MAREA":" ","LANE":" ","ALLEY":" ","HOUSE_NO":"３２號","E_COORD97":179642.41232999999,"N_COORD97":2577793.2869799999,"ADDRESS":"武侯街３２號","OBJECTID":651898},"geometry":{"x":179642.41232999973,"y":2577793.2869770024}},{"attributes":{"ID":651926,"DIS_CODE":0,"TOWNNAME":"安南區","LI":"溪心里","LIN":"8鄰","STREET":"安中路","SECT":"二段","MAREA":" ","LANE":"７１巷","ALLEY":" ","HOUSE_NO":"１８號","E_COORD97":166715.57161799999,"N_COORD97":2549583.5465899999,"ADDRESS":"安中路二段７１巷１８號","OBJECTID":651899},"geometry":{"x":166715.57161800005,"y":2549583.5465920009}},{"attributes":{"ID":651927,"DIS_CODE":0,"TOWNNAME":"北門區","LI":"永隆里","LIN":"5鄰","STREET":" ","SECT":" ","MAREA":"北門","LANE":" ","ALLEY":" ","HOUSE_NO":"６７號","E_COORD97":160237.61429500001,"N_COORD97":2574426.7459,"ADDRESS":"北門６７號","OBJECTID":651900},"geometry":{"x":160237.61429500021,"y":2574426.7459029984}},{"attributes":{"ID":651928,"DIS_CODE":0,"TOWNNAME":"安南區","LI":"溪心里","LIN":"8鄰","STREET":"安中路","SECT":"二段","MAREA":" ","LANE":"７１巷","ALLEY":"１６弄","HOUSE_NO":"１號","E_COORD97":166702.867635,"N_COORD97":2549587.35659,"ADDRESS":"安中路二段７１巷１６弄１號","OBJECTID":651901},"geometry":{"x":166702.86763500143,"y":2549587.3565900009}},{"attributes":{"ID":651929,"DIS_CODE":0,"TOWNNAME":"安南區","LI":"溪心里","LIN":"8鄰","STREET":"安中路","SECT":"二段","MAREA":" ","LANE":"７１巷","ALLEY":" ","HOUSE_NO":"２０號","E_COORD97":166715.99508399999,"N_COORD97":2549576.7732600002,"ADDRESS":"安中路二段７１巷２０號","OBJECTID":651902},"geometry":{"x":166715.99508399982,"y":2549576.7732630037}},{"attributes":{"ID":651930,"DIS_CODE":0,"TOWNNAME":"新營區","LI":"好平里","LIN":"4鄰","STREET":"長春街","SECT":" ","MAREA":" ","LANE":"１１３巷","ALLEY":" ","HOUSE_NO":"１９號","E_COORD97":179512.88905299999,"N_COORD97":2577759.3078899998,"ADDRESS":"長春街１１３巷１９號","OBJECTID":651903},"geometry":{"x":179512.88905300014,"y":2577759.3078940008}},{"attributes":{"ID":651931,"DIS_CODE":0,"TOWNNAME":"安南區","LI":"溪心里","LIN":"8鄰","STREET":"安中路","SECT":"二段","MAREA":" ","LANE":"７１巷","ALLEY":" ","HOUSE_NO":"２２號","E_COORD97":166715.99508399999,"N_COORD97":2549571.26993,"ADDRESS":"安中路二段７１巷２２號","OBJECTID":651904},"geometry":{"x":166715.99508399982,"y":2549571.2699320018}},{"attributes":{"ID":651932,"DIS_CODE":0,"TOWNNAME":"安南區","LI":"溪心里","LIN":"8鄰","STREET":"安中路","SECT":"二段","MAREA":" ","LANE":"７１巷","ALLEY":" ","HOUSE_NO":"２６號","E_COORD97":166716.41855,"N_COORD97":2549566.18994,"ADDRESS":"安中路二段７１巷２６號","OBJECTID":651905},"geometry":{"x":166716.41855000053,"y":2549566.1899350025}},{"attributes":{"ID":651933,"DIS_CODE":0,"TOWNNAME":"新營區","LI":"好平里","LIN":"4鄰","STREET":"長春街","SECT":" ","MAREA":" ","LANE":"１１３巷","ALLEY":" ","HOUSE_NO":"１７號","E_COORD97":179511.40562999999,"N_COORD97":2577763.1178899999,"ADDRESS":"長春街１１３巷１７號","OBJECTID":651906},"geometry":{"x":179511.40562999994,"y":2577763.1178920045}},{"attributes":{"ID":651934,"DIS_CODE":0,"TOWNNAME":"安南區","LI":"溪心里","LIN":"8鄰","STREET":"安中路","SECT":"二段","MAREA":" ","LANE":"７１巷","ALLEY":" ","HOUSE_NO":"２８號","E_COORD97":166715.78335099999,"N_COORD97":2549560.26327,"ADDRESS":"安中路二段７１巷２８號","OBJECTID":651907},"geometry":{"x":166715.7833510004,"y":2549560.2632720023}},{"attributes":{"ID":651935,"DIS_CODE":0,"TOWNNAME":"安南區","LI":"溪心里","LIN":"8鄰","STREET":"安中路","SECT":"二段","MAREA":" ","LANE":"７１巷","ALLEY":"３８弄","HOUSE_NO":"２號","E_COORD97":166698.63297400001,"N_COORD97":2549546.2932799999,"ADDRESS":"安中路二段７１巷３８弄２號","OBJECTID":651908},"geometry":{"x":166698.63297400065,"y":2549546.2932789996}},{"attributes":{"ID":651936,"DIS_CODE":0,"TOWNNAME":"新營區","LI":"好平里","LIN":"4鄰","STREET":"長春街","SECT":" ","MAREA":" ","LANE":"１１３巷","ALLEY":" ","HOUSE_NO":"１３號","E_COORD97":179511.61754800001,"N_COORD97":2577771.5845499998,"ADDRESS":"長春街１１３巷１３號","OBJECTID":651909},"geometry":{"x":179511.617548001,"y":2577771.5845539998}},{"attributes":{"ID":651937,"DIS_CODE":0,"TOWNNAME":"北門區","LI":"永隆里","LIN":"9鄰","STREET":" ","SECT":" ","MAREA":"北門","LANE":" ","ALLEY":" ","HOUSE_NO":"１２２號","E_COORD97":160226.80905700001,"N_COORD97":2574391.0800899998,"ADDRESS":"北門１２２號","OBJECTID":651910},"geometry":{"x":160226.80905700009,"y":2574391.0800889991}},{"attributes":{"ID":651938,"DIS_CODE":0,"TOWNNAME":"新營區","LI":"好平里","LIN":"4鄰","STREET":"長春街","SECT":" ","MAREA":" ","LANE":"１１３巷","ALLEY":" ","HOUSE_NO":"１１號","E_COORD97":179510.981795,"N_COORD97":2577775.60622,"ADDRESS":"長春街１１３巷１１號","OBJECTID":651911},"geometry":{"x":179510.98179500084,"y":2577775.6062180009}},{"attributes":{"ID":651939,"DIS_CODE":0,"TOWNNAME":"安平區","LI":"建平里","LIN":"28鄰","STREET":"建平九街","SECT":" ","MAREA":" ","LANE":" ","ALLEY":" ","HOUSE_NO":"６２號之１","E_COORD97":166008.72790999999,"N_COORD97":2543544.5427000001,"ADDRESS":"建平九街６２號之１","OBJECTID":651912},"geometry":{"x":166008.72791000083,"y":2543544.5427040048}},{"attributes":{"ID":651940,"DIS_CODE":0,"TOWNNAME":"新營區","LI":"延平里","LIN":"4鄰","STREET":"武侯街","SECT":" ","MAREA":" ","LANE":" ","ALLEY":" ","HOUSE_NO":"３２號之２","E_COORD97":179672.08159700001,"N_COORD97":2577805.1403000001,"ADDRESS":"武侯街３２號之２","OBJECTID":651913},"geometry":{"x":179672.08159700036,"y":2577805.1403029989}},{"attributes":{"ID":651941,"DIS_CODE":0,"TOWNNAME":"楠西區","LI":"鹿田里","LIN":"7鄰","STREET":" ","SECT":" ","MAREA":"油車","LANE":" ","ALLEY":" ","HOUSE_NO":"１４號之２","E_COORD97":197708.90107600001,"N_COORD97":2561991.1821900001,"ADDRESS":"油車１４號之２","OBJECTID":651914},"geometry":{"x":197708.90107600018,"y":2561991.1821890008}},{"attributes":{"ID":651942,"DIS_CODE":0,"TOWNNAME":"安平區","LI":"建平里","LIN":"28鄰","STREET":"建平九街","SECT":" ","MAREA":" ","LANE":" ","ALLEY":" ","HOUSE_NO":"６２號之２","E_COORD97":166008.72790999999,"N_COORD97":2543544.5427000001,"ADDRESS":"建平九街６２號之２","OBJECTID":651915},"geometry":{"x":166008.72791000083,"y":2543544.5427040048}},{"attributes":{"ID":651943,"DIS_CODE":0,"TOWNNAME":"新營區","LI":"好平里","LIN":"4鄰","STREET":"長春街","SECT":" ","MAREA":" ","LANE":"１１３巷","ALLEY":" ","HOUSE_NO":"９號","E_COORD97":179510.346043,"N_COORD97":2577780.0512199998,"ADDRESS":"長春街１１３巷９號","OBJECTID":651916},"geometry":{"x":179510.346043,"y":2577780.0512159988}},{"attributes":{"ID":651944,"DIS_CODE":0,"TOWNNAME":"安平區","LI":"建平里","LIN":"28鄰","STREET":"建平九街","SECT":" ","MAREA":" ","LANE":" ","ALLEY":" ","HOUSE_NO":"６２號之３","E_COORD97":166008.72790999999,"N_COORD97":2543544.5427000001,"ADDRESS":"建平九街６２號之３","OBJECTID":651917},"geometry":{"x":166008.72791000083,"y":2543544.5427040048}},{"attributes":{"ID":651945,"DIS_CODE":0,"TOWNNAME":"新營區","LI":"永生里","LIN":"17鄰","STREET":"永安街","SECT":" ","MAREA":" ","LANE":" ","ALLEY":" ","HOUSE_NO":"３６號","E_COORD97":179891.43432500001,"N_COORD97":2577883.51994,"ADDRESS":"永安街３６號","OBJECTID":651918},"geometry":{"x":179891.43432500027,"y":2577883.5199450012}},{"attributes":{"ID":651946,"DIS_CODE":0,"TOWNNAME":"新營區","LI":"延平里","LIN":"4鄰","STREET":"武侯街","SECT":" ","MAREA":" ","LANE":" ","ALLEY":" ","HOUSE_NO":"３２號之３","E_COORD97":179676.53198699999,"N_COORD97":2577807.0452999999,"ADDRESS":"武侯街３２號之３","OBJECTID":651919},"geometry":{"x":179676.53198700212,"y":2577807.0453019999}},{"attributes":{"ID":651947,"DIS_CODE":0,"TOWNNAME":"北門區","LI":"永隆里","LIN":"7鄰","STREET":" ","SECT":" ","MAREA":"北門","LANE":" ","ALLEY":" ","HOUSE_NO":"８６號","E_COORD97":160166.21497500001,"N_COORD97":2574499.9825300002,"ADDRESS":"北門８６號","OBJECTID":651920},"geometry":{"x":160166.21497500129,"y":2574499.9825300016}},{"attributes":{"ID":651948,"DIS_CODE":0,"TOWNNAME":"安南區","LI":"溪心里","LIN":"8鄰","STREET":"安中路","SECT":"二段","MAREA":" ","LANE":"７１巷","ALLEY":" ","HOUSE_NO":"３６號","E_COORD97":166712.81908799999,"N_COORD97":2549543.3299500002,"ADDRESS":"安中路二段７１巷３６號","OBJECTID":651921},"geometry":{"x":166712.81908799987,"y":2549543.3299470022}},{"attributes":{"ID":651949,"DIS_CODE":0,"TOWNNAME":"安平區","LI":"建平里","LIN":"28鄰","STREET":"建平九街","SECT":" ","MAREA":" ","LANE":" ","ALLEY":" ","HOUSE_NO":"６２號之４","E_COORD97":166008.72790999999,"N_COORD97":2543544.5427000001,"ADDRESS":"建平九街６２號之４","OBJECTID":651922},"geometry":{"x":166008.72791000083,"y":2543544.5427040048}},{"attributes":{"ID":651950,"DIS_CODE":0,"TOWNNAME":"安南區","LI":"溪心里","LIN":"8鄰","STREET":"安中路","SECT":"二段","MAREA":" ","LANE":"７１巷","ALLEY":"３８弄","HOUSE_NO":"６號","E_COORD97":166694.18658000001,"N_COORD97":2549547.5632799999,"ADDRESS":"安中路二段７１巷３８弄６號","OBJECTID":651923},"geometry":{"x":166694.18658000045,"y":2549547.5632779989}},{"attributes":{"ID":651951,"DIS_CODE":0,"TOWNNAME":"新營區","LI":"延平里","LIN":"4鄰","STREET":"武侯街","SECT":" ","MAREA":" ","LANE":" ","ALLEY":" ","HOUSE_NO":"３６號","E_COORD97":179675.47237,"N_COORD97":2577814.4536299999,"ADDRESS":"武侯街３６號","OBJECTID":651924},"geometry":{"x":179675.47237000056,"y":2577814.4536320008}},{"attributes":{"ID":651952,"DIS_CODE":0,"TOWNNAME":"新營區","LI":"好平里","LIN":"4鄰","STREET":"長春街","SECT":" ","MAREA":" ","LANE":"１１３巷","ALLEY":" ","HOUSE_NO":"５號","E_COORD97":179510.76986999999,"N_COORD97":2577789.1528699999,"ADDRESS":"長春街１１３巷５號","OBJECTID":651925},"geometry":{"x":179510.76986999996,"y":2577789.1528700013}},{"attributes":{"ID":651953,"DIS_CODE":0,"TOWNNAME":"北門區","LI":"永隆里","LIN":"8鄰","STREET":" ","SECT":" ","MAREA":"北門","LANE":" ","ALLEY":" ","HOUSE_NO":"１０６號","E_COORD97":160096.93432900001,"N_COORD97":2574497.4425300001,"ADDRESS":"北門１０６號","OBJECTID":651926},"geometry":{"x":160096.93432900123,"y":2574497.4425310027}},{"attributes":{"ID":651954,"DIS_CODE":0,"TOWNNAME":"安平區","LI":"建平里","LIN":"28鄰","STREET":"建平九街","SECT":" ","MAREA":" ","LANE":" ","ALLEY":" ","HOUSE_NO":"６４號之１","E_COORD97":165999.192071,"N_COORD97":2543544.9660399999,"ADDRESS":"建平九街６４號之１","OBJECTID":651927},"geometry":{"x":165999.19207100105,"y":2543544.9660370033}},{"attributes":{"ID":651955,"DIS_CODE":0,"TOWNNAME":"安平區","LI":"建平里","LIN":"28鄰","STREET":"建平九街","SECT":" ","MAREA":" ","LANE":" ","ALLEY":" ","HOUSE_NO":"６４號之２","E_COORD97":165999.192071,"N_COORD97":2543544.9660399999,"ADDRESS":"建平九街６４號之２","OBJECTID":651928},"geometry":{"x":165999.19207100105,"y":2543544.9660370033}},{"attributes":{"ID":651956,"DIS_CODE":0,"TOWNNAME":"安平區","LI":"建平里","LIN":"28鄰","STREET":"建平九街","SECT":" ","MAREA":" ","LANE":" ","ALLEY":" ","HOUSE_NO":"６４號之３","E_COORD97":165999.192071,"N_COORD97":2543544.9660399999,"ADDRESS":"建平九街６４號之３","OBJECTID":651929},"geometry":{"x":165999.19207100105,"y":2543544.9660370033}},{"attributes":{"ID":651957,"DIS_CODE":0,"TOWNNAME":"安平區","LI":"建平里","LIN":"28鄰","STREET":"建平九街","SECT":" ","MAREA":" ","LANE":" ","ALLEY":" ","HOUSE_NO":"６４號之４","E_COORD97":165999.192071,"N_COORD97":2543544.9660399999,"ADDRESS":"建平九街６４號之４","OBJECTID":651930},"geometry":{"x":165999.19207100105,"y":2543544.9660370033}},{"attributes":{"ID":651958,"DIS_CODE":0,"TOWNNAME":"楠西區","LI":"鹿田里","LIN":"7鄰","STREET":" ","SECT":" ","MAREA":"油車","LANE":" ","ALLEY":" ","HOUSE_NO":"１３號之１","E_COORD97":197682.99329899999,"N_COORD97":2562307.3061899999,"ADDRESS":"油車１３號之１","OBJECTID":651931},"geometry":{"x":197682.9932990009,"y":2562307.3061849996}},{"attributes":{"ID":651959,"DIS_CODE":0,"TOWNNAME":"安南區","LI":"溪心里","LIN":"8鄰","STREET":"安中路","SECT":"二段","MAREA":" ","LANE":"７１巷","ALLEY":" ","HOUSE_NO":"３２號","E_COORD97":166714.512953,"N_COORD97":2549549.4682800001,"ADDRESS":"安中路二段７１巷３２號","OBJECTID":651932},"geometry":{"x":166714.51295300014,"y":2549549.4682769999}},{"attributes":{"ID":651960,"DIS_CODE":0,"TOWNNAME":"新營區","LI":"延平里","LIN":"4鄰","STREET":"武侯街","SECT":" ","MAREA":" ","LANE":" ","ALLEY":" ","HOUSE_NO":"３８號","E_COORD97":179639.86924999999,"N_COORD97":2577803.8703000001,"ADDRESS":"武侯街３８號","OBJECTID":651933},"geometry":{"x":179639.86924999952,"y":2577803.8703039996}},{"attributes":{"ID":651961,"DIS_CODE":0,"TOWNNAME":"安南區","LI":"溪心里","LIN":"8鄰","STREET":"安中路","SECT":"二段","MAREA":" ","LANE":"７１巷","ALLEY":" ","HOUSE_NO":"３０號","E_COORD97":166715.57161799999,"N_COORD97":2549555.1832699999,"ADDRESS":"安中路二段７１巷３０號","OBJECTID":651934},"geometry":{"x":166715.57161800005,"y":2549555.1832740027}},{"attributes":{"ID":651962,"DIS_CODE":0,"TOWNNAME":"安南區","LI":"溪心里","LIN":"8鄰","STREET":"安中路","SECT":"二段","MAREA":" ","LANE":"７１巷","ALLEY":"１６弄","HOUSE_NO":"３號","E_COORD97":166698.421241,"N_COORD97":2549588.8382600001,"ADDRESS":"安中路二段７１巷１６弄３號","OBJECTID":651935},"geometry":{"x":166698.42124100123,"y":2549588.8382560015}},{"attributes":{"ID":651963,"DIS_CODE":0,"TOWNNAME":"新營區","LI":"好平里","LIN":"4鄰","STREET":"長春街","SECT":" ","MAREA":" ","LANE":"１１３巷","ALLEY":" ","HOUSE_NO":"３號","E_COORD97":179509.922208,"N_COORD97":2577794.3387099998,"ADDRESS":"長春街１１３巷３號","OBJECTID":651936},"geometry":{"x":179509.92220800091,"y":2577794.3387080003}},{"attributes":{"ID":651964,"DIS_CODE":0,"TOWNNAME":"善化區","LI":"什乃里","LIN":"2鄰","STREET":" ","SECT":" ","MAREA":"什乃","LANE":" ","ALLEY":" ","HOUSE_NO":"１８號之２７","E_COORD97":176330.39666999999,"N_COORD97":2560935.6678200001,"ADDRESS":"什乃１８號之２７","OBJECTID":651937},"geometry":{"x":176330.3966699997,"y":2560935.6678199992}},{"attributes":{"ID":651965,"DIS_CODE":0,"TOWNNAME":"安平區","LI":"建平里","LIN":"6鄰","STREET":"建平十七街","SECT":" ","MAREA":" ","LANE":" ","ALLEY":" ","HOUSE_NO":"１２１號之１","E_COORD97":165922.05773199999,"N_COORD97":2544236.4806599999,"ADDRESS":"建平十七街１２１號之１","OBJECTID":651938},"geometry":{"x":165922.05773200188,"y":2544236.4806640018}},{"attributes":{"ID":651966,"DIS_CODE":0,"TOWNNAME":"安平區","LI":"建平里","LIN":"2鄰","STREET":"建平十七街","SECT":" ","MAREA":" ","LANE":" ","ALLEY":" ","HOUSE_NO":"４３之６號","E_COORD97":166197.537514,"N_COORD97":2544207.4823500002,"ADDRESS":"建平十七街４３之６號","OBJECTID":651939},"geometry":{"x":166197.53751400113,"y":2544207.4823459983}},{"attributes":{"ID":651967,"DIS_CODE":0,"TOWNNAME":"楠西區","LI":"鹿田里","LIN":"7鄰","STREET":" ","SECT":" ","MAREA":"油車","LANE":" ","ALLEY":" ","HOUSE_NO":"１３號之２０","E_COORD97":197724.55681000001,"N_COORD97":2562449.9319799999,"ADDRESS":"油車１３號之２０","OBJECTID":651940},"geometry":{"x":197724.55681000091,"y":2562449.9319799989}},{"attributes":{"ID":651968,"DIS_CODE":0,"TOWNNAME":"新營區","LI":"永生里","LIN":"17鄰","STREET":"康樂街","SECT":" ","MAREA":" ","LANE":" ","ALLEY":" ","HOUSE_NO":"４２號","E_COORD97":179882.74715400001,"N_COORD97":2577867.8566200002,"ADDRESS":"康樂街４２號","OBJECTID":651941},"geometry":{"x":179882.74715400115,"y":2577867.8566200007}},{"attributes":{"ID":651969,"DIS_CODE":0,"TOWNNAME":"安平區","LI":"建平里","LIN":"4鄰","STREET":"建平十七街","SECT":" ","MAREA":" ","LANE":" ","ALLEY":" ","HOUSE_NO":"８１號之１","E_COORD97":166034.15681300001,"N_COORD97":2544235.8456600001,"ADDRESS":"建平十七街８１號之１","OBJECTID":651942},"geometry":{"x":166034.15681300033,"y":2544235.845664002}},{"attributes":{"ID":651970,"DIS_CODE":0,"TOWNNAME":"安平區","LI":"建平里","LIN":"4鄰","STREET":"建平十七街","SECT":" ","MAREA":" ","LANE":" ","ALLEY":" ","HOUSE_NO":"８１號之１地下層","E_COORD97":166034.15681300001,"N_COORD97":2544235.8456600001,"ADDRESS":"建平十七街８１號之１地下層","OBJECTID":651943},"geometry":{"x":166034.15681300033,"y":2544235.845664002}},{"attributes":{"ID":651971,"DIS_CODE":0,"TOWNNAME":"楠西區","LI":"鹿田里","LIN":"7鄰","STREET":" ","SECT":" ","MAREA":"油車","LANE":" ","ALLEY":" ","HOUSE_NO":"１０號之１２","E_COORD97":197649.130286,"N_COORD97":2562220.8029399998,"ADDRESS":"油車１０號之１２","OBJECTID":651944},"geometry":{"x":197649.13028599974,"y":2562220.8029370029}},{"attributes":{"ID":651972,"DIS_CODE":0,"TOWNNAME":"新營區","LI":"延平里","LIN":"4鄰","STREET":"長春街","SECT":" ","MAREA":" ","LANE":" ","ALLEY":" ","HOUSE_NO":"３５號","E_COORD97":179729.93666800001,"N_COORD97":2577892.2410900001,"ADDRESS":"長春街３５號","OBJECTID":651945},"geometry":{"x":179729.93666800018,"y":2577892.2410899997}},{"attributes":{"ID":651973,"DIS_CODE":0,"TOWNNAME":"安南區","LI":"溪心里","LIN":"13鄰","STREET":"樂安一街","SECT":" ","MAREA":" ","LANE":" ","ALLEY":" ","HOUSE_NO":"３１號","E_COORD97":166128.43588599999,"N_COORD97":2549719.8598500001,"ADDRESS":"樂安一街３１號","OBJECTID":651946},"geometry":{"x":166128.43588600121,"y":2549719.8598520029}},{"attributes":{"ID":651974,"DIS_CODE":0,"TOWNNAME":"新營區","LI":"好平里","LIN":"4鄰","STREET":"長春街","SECT":" ","MAREA":" ","LANE":"７７巷","ALLEY":" ","HOUSE_NO":"３號","E_COORD97":179578.583472,"N_COORD97":2577805.98037,"ADDRESS":"長春街７７巷３號","OBJECTID":651947},"geometry":{"x":179578.58347200043,"y":2577805.9803689979}},{"attributes":{"ID":651975,"DIS_CODE":0,"TOWNNAME":"安南區","LI":"溪心里","LIN":"13鄰","STREET":"樂安一街","SECT":" ","MAREA":" ","LANE":"２７巷","ALLEY":" ","HOUSE_NO":"６號","E_COORD97":166148.550525,"N_COORD97":2549711.3931900002,"ADDRESS":"樂安一街２７巷６號","OBJECTID":651948},"geometry":{"x":166148.55052500032,"y":2549711.3931900039}},{"attributes":{"ID":651976,"DIS_CODE":0,"TOWNNAME":"安南區","LI":"溪心里","LIN":"13鄰","STREET":"樂安一街","SECT":" ","MAREA":" ","LANE":"２７巷","ALLEY":" ","HOUSE_NO":"８號","E_COORD97":166147.06839299999,"N_COORD97":2549707.5831900002,"ADDRESS":"樂安一街２７巷８號","OBJECTID":651949},"geometry":{"x":166147.06839300133,"y":2549707.5831920002}},{"attributes":{"ID":651977,"DIS_CODE":0,"TOWNNAME":"楠西區","LI":"鹿田里","LIN":"7鄰","STREET":" ","SECT":" ","MAREA":"油車","LANE":" ","ALLEY":" ","HOUSE_NO":"１５號之２","E_COORD97":197717.14128099999,"N_COORD97":2562039.31354,"ADDRESS":"油車１５號之２","OBJECTID":651950},"geometry":{"x":197717.14128100127,"y":2562039.3135380037}},{"attributes":{"ID":651978,"DIS_CODE":0,"TOWNNAME":"新營區","LI":"好平里","LIN":"4鄰","STREET":"長春街","SECT":" ","MAREA":" ","LANE":"７７巷","ALLEY":" ","HOUSE_NO":"１２號","E_COORD97":179568.835268,"N_COORD97":2577803.8637000001,"ADDRESS":"長春街７７巷１２號","OBJECTID":651951},"geometry":{"x":179568.83526800107,"y":2577803.8637030032}},{"attributes":{"ID":651979,"DIS_CODE":0,"TOWNNAME":"新營區","LI":"好平里","LIN":"4鄰","STREET":"長春街","SECT":" ","MAREA":" ","LANE":"７７巷","ALLEY":" ","HOUSE_NO":"１６號","E_COORD97":179571.37827700001,"N_COORD97":2577794.0212099999,"ADDRESS":"長春街７７巷１６號","OBJECTID":651952},"geometry":{"x":179571.3782770019,"y":2577794.0212080013}},{"attributes":{"ID":651980,"DIS_CODE":0,"TOWNNAME":"安南區","LI":"溪心里","LIN":"13鄰","STREET":"樂安一街","SECT":" ","MAREA":" ","LANE":"２７巷","ALLEY":" ","HOUSE_NO":"２號","E_COORD97":166148.762258,"N_COORD97":2549716.89652,"ADDRESS":"樂安一街２７巷２號","OBJECTID":651953},"geometry":{"x":166148.76225800067,"y":2549716.89652}},{"attributes":{"ID":651981,"DIS_CODE":0,"TOWNNAME":"安南區","LI":"溪心里","LIN":"13鄰","STREET":"樂安一街","SECT":" ","MAREA":" ","LANE":"２７巷","ALLEY":" ","HOUSE_NO":"１２號","E_COORD97":166148.762258,"N_COORD97":2549716.89652,"ADDRESS":"樂安一街２７巷１２號","OBJECTID":651954},"geometry":{"x":166148.76225800067,"y":2549716.89652}},{"attributes":{"ID":651982,"DIS_CODE":0,"TOWNNAME":"安平區","LI":"建平里","LIN":"14鄰","STREET":"建平十三街","SECT":" ","MAREA":" ","LANE":" ","ALLEY":" ","HOUSE_NO":"１９號一樓","E_COORD97":166280.817171,"N_COORD97":2543988.1957999999,"ADDRESS":"建平十三街１９號一樓","OBJECTID":651955},"geometry":{"x":166280.81717099994,"y":2543988.195798004}},{"attributes":{"ID":651983,"DIS_CODE":0,"TOWNNAME":"安南區","LI":"溪心里","LIN":"13鄰","STREET":"樂安一街","SECT":" ","MAREA":" ","LANE":"２７巷","ALLEY":" ","HOUSE_NO":"１０號","E_COORD97":166145.797995,"N_COORD97":2549702.5031900001,"ADDRESS":"樂安一街２７巷１０號","OBJECTID":651956},"geometry":{"x":166145.79799500108,"y":2549702.5031950008}},{"attributes":{"ID":651984,"DIS_CODE":0,"TOWNNAME":"安南區","LI":"溪心里","LIN":"13鄰","STREET":"樂安一街","SECT":" ","MAREA":" ","LANE":" ","ALLEY":" ","HOUSE_NO":"２９號","E_COORD97":166132.67054600001,"N_COORD97":2549718.5898500001,"ADDRESS":"樂安一街２９號","OBJECTID":651957},"geometry":{"x":166132.67054599989,"y":2549718.5898530036}},{"attributes":{"ID":651985,"DIS_CODE":0,"TOWNNAME":"新營區","LI":"好平里","LIN":"4鄰","STREET":"長春街","SECT":" ","MAREA":" ","LANE":"７７巷","ALLEY":" ","HOUSE_NO":"１８號","E_COORD97":179572.86170000001,"N_COORD97":2577788.9412099998,"ADDRESS":"長春街７７巷１８號","OBJECTID":651958},"geometry":{"x":179572.8617000021,"y":2577788.9412110019}},{"attributes":{"ID":651986,"DIS_CODE":0,"TOWNNAME":"安平區","LI":"建平里","LIN":"10鄰","STREET":"建平十五街","SECT":" ","MAREA":" ","LANE":" ","ALLEY":" ","HOUSE_NO":"１３１號之１","E_COORD97":166240.97855599999,"N_COORD97":2544099.1090699998,"ADDRESS":"建平十五街１３１號之１","OBJECTID":651959},"geometry":{"x":166240.9785559997,"y":2544099.1090710014}},{"attributes":{"ID":651987,"DIS_CODE":0,"TOWNNAME":"佳里區","LI":"營頂里","LIN":"9鄰","STREET":" ","SECT":" ","MAREA":"營頂","LANE":" ","ALLEY":" ","HOUSE_NO":"１０３號之４８","E_COORD97":167537.12237999999,"N_COORD97":2566779.4409400001,"ADDRESS":"營頂１０３號之４８","OBJECTID":651960},"geometry":{"x":167537.12238000054,"y":2566779.4409380015}},{"attributes":{"ID":651988,"DIS_CODE":0,"TOWNNAME":"安平區","LI":"建平里","LIN":"10鄰","STREET":"建平十五街","SECT":" ","MAREA":" ","LANE":" ","ALLEY":" ","HOUSE_NO":"１３１號之２","E_COORD97":166240.97855599999,"N_COORD97":2544099.1090699998,"ADDRESS":"建平十五街１３１號之２","OBJECTID":651961},"geometry":{"x":166240.9785559997,"y":2544099.1090710014}},{"attributes":{"ID":651989,"DIS_CODE":0,"TOWNNAME":"新營區","LI":"好平里","LIN":"4鄰","STREET":"長春街","SECT":" ","MAREA":" ","LANE":"７７巷","ALLEY":" ","HOUSE_NO":"２２號","E_COORD97":179577.94771899999,"N_COORD97":2577782.8028799999,"ADDRESS":"長春街７７巷２２號","OBJECTID":651962},"geometry":{"x":179577.94771900028,"y":2577782.8028810006}},{"attributes":{"ID":651990,"DIS_CODE":0,"TOWNNAME":"楠西區","LI":"鹿田里","LIN":"7鄰","STREET":" ","SECT":" ","MAREA":"油車","LANE":" ","ALLEY":" ","HOUSE_NO":"１５號之４","E_COORD97":197699.555884,"N_COORD97":2562058.5751999998,"ADDRESS":"油車１５號之４","OBJECTID":651963},"geometry":{"x":197699.55588400178,"y":2562058.5751950014}},{"attributes":{"ID":651991,"DIS_CODE":0,"TOWNNAME":"佳里區","LI":"營頂里","LIN":"9鄰","STREET":" ","SECT":" ","MAREA":"營頂","LANE":" ","ALLEY":" ","HOUSE_NO":"１０３號之４９","E_COORD97":167468.49108499999,"N_COORD97":2566783.0392700001,"ADDRESS":"營頂１０３號之４９","OBJECTID":651964},"geometry":{"x":167468.49108500127,"y":2566783.0392689984}},{"attributes":{"ID":651992,"DIS_CODE":0,"TOWNNAME":"安平區","LI":"建平里","LIN":"11鄰","STREET":"建平十五街","SECT":" ","MAREA":" ","LANE":" ","ALLEY":" ","HOUSE_NO":"５６號之１","E_COORD97":166204.530462,"N_COORD97":2544128.5307200002,"ADDRESS":"建平十五街５６號之１","OBJECTID":651965},"geometry":{"x":166204.53046200052,"y":2544128.5307220016}},{"attributes":{"ID":651993,"DIS_CODE":0,"TOWNNAME":"安平區","LI":"建平里","LIN":"11鄰","STREET":"建平十五街","SECT":" ","MAREA":" ","LANE":" ","ALLEY":" ","HOUSE_NO":"５６號之２","E_COORD97":166204.530462,"N_COORD97":2544128.5307200002,"ADDRESS":"建平十五街５６號之２","OBJECTID":651966},"geometry":{"x":166204.53046200052,"y":2544128.5307220016}},{"attributes":{"ID":651994,"DIS_CODE":0,"TOWNNAME":"安平區","LI":"建平里","LIN":"11鄰","STREET":"建平十五街","SECT":" ","MAREA":" ","LANE":" ","ALLEY":" ","HOUSE_NO":"５６號之３","E_COORD97":166204.530462,"N_COORD97":2544128.5307200002,"ADDRESS":"建平十五街５６號之３","OBJECTID":651967},"geometry":{"x":166204.53046200052,"y":2544128.5307220016}},{"attributes":{"ID":651995,"DIS_CODE":0,"TOWNNAME":"安平區","LI":"建平里","LIN":"11鄰","STREET":"建平十五街","SECT":" ","MAREA":" ","LANE":" ","ALLEY":" ","HOUSE_NO":"５６號之４","E_COORD97":166204.530462,"N_COORD97":2544128.5307200002,"ADDRESS":"建平十五街５６號之４","OBJECTID":651968},"geometry":{"x":166204.53046200052,"y":2544128.5307220016}},{"attributes":{"ID":651996,"DIS_CODE":0,"TOWNNAME":"楠西區","LI":"鹿田里","LIN":"7鄰","STREET":" ","SECT":" ","MAREA":"油車","LANE":" ","ALLEY":" ","HOUSE_NO":"１５號之７","E_COORD97":197713.32758000001,"N_COORD97":2562070.0051899999,"ADDRESS":"油車１５號之７","OBJECTID":651969},"geometry":{"x":197713.32758000121,"y":2562070.0051890034}},{"attributes":{"ID":651997,"DIS_CODE":0,"TOWNNAME":"新營區","LI":"好平里","LIN":"4鄰","STREET":"長春街","SECT":" ","MAREA":" ","LANE":"７７巷","ALLEY":" ","HOUSE_NO":"５之４號","E_COORD97":179597.444127,"N_COORD97":2577782.5912199998,"ADDRESS":"長春街７７巷５之４號","OBJECTID":651970},"geometry":{"x":179597.4441270018,"y":2577782.5912149996}},{"attributes":{"ID":651998,"DIS_CODE":0,"TOWNNAME":"佳里區","LI":"營頂里","LIN":"9鄰","STREET":" ","SECT":" ","MAREA":"營頂","LANE":" ","ALLEY":" ","HOUSE_NO":"９１號","E_COORD97":167070.471938,"N_COORD97":2566616.0343599999,"ADDRESS":"營頂９１號","OBJECTID":651971},"geometry":{"x":167070.47193800006,"y":2566616.0343590006}},{"attributes":{"ID":651999,"DIS_CODE":0,"TOWNNAME":"安南區","LI":"溪心里","LIN":"13鄰","STREET":"樂安一街","SECT":" ","MAREA":" ","LANE":" ","ALLEY":" ","HOUSE_NO":"６１號","E_COORD97":166000.337394,"N_COORD97":2549749.06984,"ADDRESS":"樂安一街６１號","OBJECTID":651972},"geometry":{"x":166000.33739400096,"y":2549749.0698360037}},{"attributes":{"ID":652000,"DIS_CODE":0,"TOWNNAME":"楠西區","LI":"鹿田里","LIN":"7鄰","STREET":" ","SECT":" ","MAREA":"油車","LANE":" ","ALLEY":" ","HOUSE_NO":"１５號之８","E_COORD97":197710.57324100001,"N_COORD97":2562082,"ADDRESS":"油車１５號之８","OBJECTID":651973},"geometry":{"x":197710.57324100006,"y":2562082.0000000019}},{"attributes":{"ID":652001,"DIS_CODE":0,"TOWNNAME":"安南區","LI":"溪心里","LIN":"13鄰","STREET":"樂安一街","SECT":" ","MAREA":" ","LANE":" ","ALLEY":" ","HOUSE_NO":"５９號","E_COORD97":166010.50057999999,"N_COORD97":2549748.4348399998,"ADDRESS":"樂安一街５９號","OBJECTID":651974},"geometry":{"x":166010.50058000069,"y":2549748.4348370023}},{"attributes":{"ID":652002,"DIS_CODE":0,"TOWNNAME":"楠西區","LI":"鹿田里","LIN":"7鄰","STREET":" ","SECT":" ","MAREA":"油車","LANE":" ","ALLEY":" ","HOUSE_NO":"１５號之９","E_COORD97":197714,"N_COORD97":2562092,"ADDRESS":"油車１５號之９","OBJECTID":651975},"geometry":{"x":197714,"y":2562092.0000000019}},{"attributes":{"ID":652003,"DIS_CODE":0,"TOWNNAME":"安平區","LI":"建平里","LIN":"12鄰","STREET":"建平十四街","SECT":" ","MAREA":" ","LANE":" ","ALLEY":" ","HOUSE_NO":"１４０號","E_COORD97":166026.10432700001,"N_COORD97":2544096.9924099999,"ADDRESS":"建平十四街１４０號","OBJECTID":651976},"geometry":{"x":166026.10432699975,"y":2544096.9924059995}},{"attributes":{"ID":652004,"DIS_CODE":0,"TOWNNAME":"佳里區","LI":"營頂里","LIN":"9鄰","STREET":" ","SECT":" ","MAREA":"營頂","LANE":" ","ALLEY":" ","HOUSE_NO":"９７號之１","E_COORD97":167159.01478200001,"N_COORD97":2566627.0410199999,"ADDRESS":"營頂９７號之１","OBJECTID":651977},"geometry":{"x":167159.0147820022,"y":2566627.0410200004}},{"attributes":{"ID":652005,"DIS_CODE":0,"TOWNNAME":"新營區","LI":"好平里","LIN":"4鄰","STREET":"長春街","SECT":" ","MAREA":" ","LANE":" ","ALLEY":" ","HOUSE_NO":"９１號","E_COORD97":179548.27927200001,"N_COORD97":2577820.1620299998,"ADDRESS":"長春街９１號","OBJECTID":651978},"geometry":{"x":179548.27927200031,"y":2577820.1620280016}},{"attributes":{"ID":652006,"DIS_CODE":0,"TOWNNAME":"楠西區","LI":"鹿田里","LIN":"7鄰","STREET":" ","SECT":" ","MAREA":"油車","LANE":" ","ALLEY":" ","HOUSE_NO":"１５號之１０","E_COORD97":197688,"N_COORD97":2562105,"ADDRESS":"油車１５號之１０","OBJECTID":651979},"geometry":{"x":197688.00000000093,"y":2562104.9999999981}},{"attributes":{"ID":652007,"DIS_CODE":0,"TOWNNAME":"鹽水區","LI":"岸內里","LIN":"6鄰","STREET":" ","SECT":" ","MAREA":"岸內","LANE":" ","ALLEY":" ","HOUSE_NO":"７之６號","E_COORD97":174755.44371799999,"N_COORD97":2581011.04495,"ADDRESS":"岸內７之６號","OBJECTID":651980},"geometry":{"x":174755.44371800032,"y":2581011.044946}},{"attributes":{"ID":652008,"DIS_CODE":0,"TOWNNAME":"佳里區","LI":"營頂里","LIN":"9鄰","STREET":" ","SECT":" ","MAREA":"營頂","LANE":" ","ALLEY":" ","HOUSE_NO":"９９號","E_COORD97":167194.601379,"N_COORD97":2566607.5677,"ADDRESS":"營頂９９號","OBJECTID":651981},"geometry":{"x":167194.60137899965,"y":2566607.5676970016}},{"attributes":{"ID":652009,"DIS_CODE":0,"TOWNNAME":"楠西區","LI":"鹿田里","LIN":"7鄰","STREET":" ","SECT":" ","MAREA":"油車","LANE":" ","ALLEY":" ","HOUSE_NO":"１５號之１１","E_COORD97":197682,"N_COORD97":2562116,"ADDRESS":"油車１５號之１１","OBJECTID":651982},"geometry":{"x":197682,"y":2562116.0000000019}},{"attributes":{"ID":652010,"DIS_CODE":0,"TOWNNAME":"安南區","LI":"溪心里","LIN":"11鄰","STREET":"安吉路","SECT":"一段","MAREA":" ","LANE":" ","ALLEY":" ","HOUSE_NO":"６７９之１號","E_COORD97":166967.11047499999,"N_COORD97":2550397.19282,"ADDRESS":"安吉路一段６７９之１號","OBJECTID":651983},"geometry":{"x":166967.11047500093,"y":2550397.1928200033}},{"attributes":{"ID":652011,"DIS_CODE":0,"TOWNNAME":"安南區","LI":"溪心里","LIN":"11鄰","STREET":"安吉路","SECT":"一段","MAREA":" ","LANE":" ","ALLEY":" ","HOUSE_NO":"６７９之２號","E_COORD97":166964.569678,"N_COORD97":2550388.3028199999,"ADDRESS":"安吉路一段６７９之２號","OBJECTID":651984},"geometry":{"x":166964.56967800111,"y":2550388.3028239999}},{"attributes":{"ID":652012,"DIS_CODE":0,"TOWNNAME":"楠西區","LI":"鹿田里","LIN":"7鄰","STREET":" ","SECT":" ","MAREA":"油車","LANE":" ","ALLEY":" ","HOUSE_NO":"１５號之１３","E_COORD97":197685,"N_COORD97":2562121,"ADDRESS":"油車１５號之１３","OBJECTID":651985},"geometry":{"x":197685.00000000093,"y":2562121}},{"attributes":{"ID":652013,"DIS_CODE":0,"TOWNNAME":"安南區","LI":"溪心里","LIN":"11鄰","STREET":"安吉路","SECT":"一段","MAREA":" ","LANE":" ","ALLEY":" ","HOUSE_NO":"６７９之３號","E_COORD97":166961.81714900001,"N_COORD97":2550379.4128299998,"ADDRESS":"安吉路一段６７９之３號","OBJECTID":651986},"geometry":{"x":166961.81714900024,"y":2550379.4128290024}},{"attributes":{"ID":652014,"DIS_CODE":0,"TOWNNAME":"佳里區","LI":"營頂里","LIN":"9鄰","STREET":" ","SECT":" ","MAREA":"營頂","LANE":" ","ALLEY":" ","HOUSE_NO":"１０８號","E_COORD97":167353.04646799999,"N_COORD97":2566918.5058599999,"ADDRESS":"營頂１０８號","OBJECTID":651987},"geometry":{"x":167353.04646800086,"y":2566918.5058620013}},{"attributes":{"ID":652015,"DIS_CODE":0,"TOWNNAME":"楠西區","LI":"鹿田里","LIN":"7鄰","STREET":" ","SECT":" ","MAREA":"油車","LANE":" ","ALLEY":" ","HOUSE_NO":"１５號之１４","E_COORD97":197684,"N_COORD97":2562126,"ADDRESS":"油車１５號之１４","OBJECTID":651988},"geometry":{"x":197684,"y":2562126.0000000019}},{"attributes":{"ID":652016,"DIS_CODE":0,"TOWNNAME":"安平區","LI":"海頭里","LIN":"2鄰","STREET":"\u25A0忠街","SECT":" ","MAREA":" ","LANE":" ","ALLEY":" ","HOUSE_NO":"３３號之１","E_COORD97":164206.53988,"N_COORD97":2544639.13215,"ADDRESS":"\u25A0忠街３３號之１","OBJECTID":651989},"geometry":{"x":164206.53988000099,"y":2544639.13215}},{"attributes":{"ID":652017,"DIS_CODE":0,"TOWNNAME":"安平區","LI":"海頭里","LIN":"2鄰","STREET":"\u25A0忠街","SECT":" ","MAREA":" ","LANE":" ","ALLEY":" ","HOUSE_NO":"３３號之２","E_COORD97":164203.57318000001,"N_COORD97":2544632.3588200002,"ADDRESS":"\u25A0忠街３３號之２","OBJECTID":651990},"geometry":{"x":164203.5731800003,"y":2544632.3588200025}},{"attributes":{"ID":652018,"DIS_CODE":0,"TOWNNAME":"佳里區","LI":"營頂里","LIN":"9鄰","STREET":" ","SECT":" ","MAREA":"營頂","LANE":" ","ALLEY":" ","HOUSE_NO":"１１０號之１","E_COORD97":167397.95336499999,"N_COORD97":2566956.3941799998,"ADDRESS":"營頂１１０號之１","OBJECTID":651991},"geometry":{"x":167397.9533650009,"y":2566956.3941750024}},{"attributes":{"ID":652019,"DIS_CODE":0,"TOWNNAME":"新營區","LI":"永生里","LIN":"18鄰","STREET":"新進路","SECT":" ","MAREA":" ","LANE":"３１８巷","ALLEY":" ","HOUSE_NO":"１０號","E_COORD97":179945.25240900001,"N_COORD97":2577847.2191300001,"ADDRESS":"新進路３１８巷１０號","OBJECTID":651992},"geometry":{"x":179945.25240899995,"y":2577847.2191320006}},{"attributes":{"ID":652020,"DIS_CODE":0,"TOWNNAME":"佳里區","LI":"營頂里","LIN":"9鄰","STREET":" ","SECT":" ","MAREA":"營頂","LANE":" ","ALLEY":" ","HOUSE_NO":"１１２號","E_COORD97":167374.65261700001,"N_COORD97":2566976.9258300001,"ADDRESS":"營頂１１２號","OBJECTID":651993},"geometry":{"x":167374.65261700004,"y":2566976.9258309994}},{"attributes":{"ID":652021,"DIS_CODE":0,"TOWNNAME":"新營區","LI":"永生里","LIN":"18鄰","STREET":"新進路","SECT":" ","MAREA":" ","LANE":"３１８巷","ALLEY":" ","HOUSE_NO":"１４號","E_COORD97":179946.94746699999,"N_COORD97":2577855.68579,"ADDRESS":"新進路３１８巷１４號","OBJECTID":651994},"geometry":{"x":179946.94746700116,"y":2577855.6857940014}},{"attributes":{"ID":652022,"DIS_CODE":0,"TOWNNAME":"善化區","LI":"嘉南里","LIN":"2鄰","STREET":" ","SECT":" ","MAREA":"茄拔","LANE":" ","ALLEY":" ","HOUSE_NO":"３５８號之５","E_COORD97":181159.26206000001,"N_COORD97":2558043.8793799998,"ADDRESS":"茄拔３５８號之５","OBJECTID":651995},"geometry":{"x":181159.26206000056,"y":2558043.8793800026}},{"attributes":{"ID":652023,"DIS_CODE":0,"TOWNNAME":"新營區","LI":"永生里","LIN":"18鄰","STREET":"新進路","SECT":" ","MAREA":" ","LANE":"３１８巷","ALLEY":" ","HOUSE_NO":"６號","E_COORD97":179946.73558499999,"N_COORD97":2577837.9057999998,"ADDRESS":"新進路３１８巷６號","OBJECTID":651996},"geometry":{"x":179946.73558499943,"y":2577837.9058030006}},{"attributes":{"ID":652024,"DIS_CODE":0,"TOWNNAME":"安南區","LI":"溪心里","LIN":"2鄰","STREET":"海環街","SECT":" ","MAREA":" ","LANE":"７１５巷","ALLEY":" ","HOUSE_NO":"４４之１號","E_COORD97":166473.13728200001,"N_COORD97":2549420.56335,"ADDRESS":"海環街７１５巷４４之１號","OBJECTID":651997},"geometry":{"x":166473.13728199992,"y":2549420.5633470025}},{"attributes":{"ID":652025,"DIS_CODE":0,"TOWNNAME":"北門區","LI":"保吉里","LIN":"14鄰","STREET":" ","SECT":" ","MAREA":"蚵寮","LANE":" ","ALLEY":" ","HOUSE_NO":"３６４之４號","E_COORD97":161135.98880299999,"N_COORD97":2576496.38747,"ADDRESS":"蚵寮３６４之４號","OBJECTID":651998},"geometry":{"x":161135.98880300112,"y":2576496.3874730039}},{"attributes":{"ID":652026,"DIS_CODE":0,"TOWNNAME":"安平區","LI":"海頭里","LIN":"2鄰","STREET":"\u25A0忠街","SECT":" ","MAREA":" ","LANE":" ","ALLEY":" ","HOUSE_NO":"４８號","E_COORD97":164215.01618800001,"N_COORD97":2544660.08714,"ADDRESS":"\u25A0忠街４８號","OBJECTID":651999},"geometry":{"x":164215.01618800033,"y":2544660.0871440005}},{"attributes":{"ID":652027,"DIS_CODE":0,"TOWNNAME":"新營區","LI":"永生里","LIN":"18鄰","STREET":"新進路","SECT":" ","MAREA":" ","LANE":" ","ALLEY":" ","HOUSE_NO":"３２４號","E_COORD97":179943.557351,"N_COORD97":2577824.1474799998,"ADDRESS":"新進路３２４號","OBJECTID":652000},"geometry":{"x":179943.55735099874,"y":2577824.1474770047}}]}