{"displayFieldName":"TOWNNAME","fieldAliases":{"ID":"ID","DIS_CODE":"DIS_CODE","TOWNNAME":"TOWNNAME","LI":"LI","LIN":"LIN","STREET":"STREET","SECT":"SECT","MAREA":"MAREA","LANE":"LANE","ALLEY":"ALLEY","HOUSE_NO":"HOUSE_NO","E_COORD97":"E_COORD97","N_COORD97":"N_COORD97","ADDRESS":"ADDRESS","OBJECTID":"OBJECTID"},"geometryType":"esriGeometryPoint","spatialReference":{"wkid":102443,"latestWkid":3826},"fields":[{"name":"ID","type":"esriFieldTypeDouble","alias":"ID"},{"name":"DIS_CODE","type":"esriFieldTypeInteger","alias":"DIS_CODE"},{"name":"TOWNNAME","type":"esriFieldTypeString","alias":"TOWNNAME","length":8},{"name":"LI","type":"esriFieldTypeString","alias":"LI","length":8},{"name":"LIN","type":"esriFieldTypeString","alias":"LIN","length":12},{"name":"STREET","type":"esriFieldTypeString","alias":"STREET","length":20},{"name":"SECT","type":"esriFieldTypeString","alias":"SECT","length":8},{"name":"MAREA","type":"esriFieldTypeString","alias":"MAREA","length":12},{"name":"LANE","type":"esriFieldTypeString","alias":"LANE","length":10},{"name":"ALLEY","type":"esriFieldTypeString","alias":"ALLEY","length":10},{"name":"HOUSE_NO","type":"esriFieldTypeString","alias":"HOUSE_NO","length":20},{"name":"E_COORD97","type":"esriFieldTypeDouble","alias":"E_COORD97"},{"name":"N_COORD97","type":"esriFieldTypeDouble","alias":"N_COORD97"},{"name":"ADDRESS","type":"esriFieldTypeString","alias":"ADDRESS","length":50},{"name":"OBJECTID","type":"esriFieldTypeOID","alias":"OBJECTID"}],"features":[{"attributes":{"ID":94201,"DIS_CODE":0,"TOWNNAME":"新營區","LI":"新南里","LIN":"8鄰","STREET":"新北五街","SECT":" ","MAREA":" ","LANE":" ","ALLEY":" ","HOUSE_NO":"１２６號","E_COORD97":178595.26000000001,"N_COORD97":2579122.0800000001,"ADDRESS":"新北五街１２６號","OBJECTID":94201},"geometry":{"x":178595.25999999978,"y":2579122.0800000019}},{"attributes":{"ID":94202,"DIS_CODE":0,"TOWNNAME":"佳里區","LI":"民安里","LIN":"10鄰","STREET":" ","SECT":" ","MAREA":"同安寮","LANE":" ","ALLEY":" ","HOUSE_NO":"３１號之２０","E_COORD97":167172.01999999999,"N_COORD97":2562300.1200000001,"ADDRESS":"同安寮３１號之２０","OBJECTID":94202},"geometry":{"x":167172.02000000048,"y":2562300.1200000029}},{"attributes":{"ID":94203,"DIS_CODE":0,"TOWNNAME":"佳里區","LI":"民安里","LIN":"10鄰","STREET":" ","SECT":" ","MAREA":"同安寮","LANE":" ","ALLEY":" ","HOUSE_NO":"３１號之３","E_COORD97":167177.95000000001,"N_COORD97":2562350.7599999998,"ADDRESS":"同安寮３１號之３","OBJECTID":94203},"geometry":{"x":167177.94999999925,"y":2562350.7600000035}},{"attributes":{"ID":94204,"DIS_CODE":0,"TOWNNAME":"佳里區","LI":"民安里","LIN":"10鄰","STREET":" ","SECT":" ","MAREA":"同安寮","LANE":" ","ALLEY":" ","HOUSE_NO":"３１號之６","E_COORD97":167187.14000000001,"N_COORD97":2562342.04,"ADDRESS":"同安寮３１號之６","OBJECTID":94204},"geometry":{"x":167187.1400000006,"y":2562342.040000001}},{"attributes":{"ID":94205,"DIS_CODE":0,"TOWNNAME":"佳里區","LI":"民安里","LIN":"10鄰","STREET":" ","SECT":" ","MAREA":"同安寮","LANE":" ","ALLEY":" ","HOUSE_NO":"３１號之７","E_COORD97":167167.39999999999,"N_COORD97":2562337.5,"ADDRESS":"同安寮３１號之７","OBJECTID":94205},"geometry":{"x":167167.4000000013,"y":2562337.5}},{"attributes":{"ID":94206,"DIS_CODE":0,"TOWNNAME":"佳里區","LI":"民安里","LIN":"10鄰","STREET":" ","SECT":" ","MAREA":"同安寮","LANE":" ","ALLEY":" ","HOUSE_NO":"３１號之８","E_COORD97":167184.97,"N_COORD97":2562335.9700000002,"ADDRESS":"同安寮３１號之８","OBJECTID":94206},"geometry":{"x":167184.97000000067,"y":2562335.9700000007}},{"attributes":{"ID":94207,"DIS_CODE":0,"TOWNNAME":"佳里區","LI":"民安里","LIN":"10鄰","STREET":" ","SECT":" ","MAREA":"同安寮","LANE":" ","ALLEY":" ","HOUSE_NO":"３１號之９","E_COORD97":167165.45000000001,"N_COORD97":2562332.6600000001,"ADDRESS":"同安寮３１號之９","OBJECTID":94207},"geometry":{"x":167165.45000000019,"y":2562332.660000002}},{"attributes":{"ID":94208,"DIS_CODE":0,"TOWNNAME":"佳里區","LI":"民安里","LIN":"10鄰","STREET":" ","SECT":" ","MAREA":"同安寮","LANE":" ","ALLEY":" ","HOUSE_NO":"３１號","E_COORD97":167194.31,"N_COORD97":2562352.5600000001,"ADDRESS":"同安寮３１號","OBJECTID":94208},"geometry":{"x":167194.31000000052,"y":2562352.5599999987}},{"attributes":{"ID":94209,"DIS_CODE":0,"TOWNNAME":"佳里區","LI":"民安里","LIN":"10鄰","STREET":" ","SECT":" ","MAREA":"同安寮","LANE":" ","ALLEY":" ","HOUSE_NO":"３２號之１","E_COORD97":167210.79999999999,"N_COORD97":2562342.4700000002,"ADDRESS":"同安寮３２號之１","OBJECTID":94209},"geometry":{"x":167210.79999999888,"y":2562342.4700000007}},{"attributes":{"ID":94210,"DIS_CODE":0,"TOWNNAME":"佳里區","LI":"民安里","LIN":"10鄰","STREET":" ","SECT":" ","MAREA":"同安寮","LANE":" ","ALLEY":" ","HOUSE_NO":"３２號","E_COORD97":167226.26999999999,"N_COORD97":2562304.8799999999,"ADDRESS":"同安寮３２號","OBJECTID":94210},"geometry":{"x":167226.27000000048,"y":2562304.8800000027}},{"attributes":{"ID":94211,"DIS_CODE":0,"TOWNNAME":"佳里區","LI":"民安里","LIN":"10鄰","STREET":" ","SECT":" ","MAREA":"同安寮","LANE":" ","ALLEY":" ","HOUSE_NO":"３３號","E_COORD97":167258.04000000001,"N_COORD97":2562296.9100000001,"ADDRESS":"同安寮３３號","OBJECTID":94211},"geometry":{"x":167258.04000000004,"y":2562296.910000002}},{"attributes":{"ID":94212,"DIS_CODE":0,"TOWNNAME":"七股區","LI":"城內里","LIN":"10鄰","STREET":" ","SECT":" ","MAREA":"城內","LANE":" ","ALLEY":" ","HOUSE_NO":"８１號","E_COORD97":161606.75,"N_COORD97":2564379.5499999998,"ADDRESS":"城內８１號","OBJECTID":94212},"geometry":{"x":161606.75,"y":2564379.5500000007}},{"attributes":{"ID":94213,"DIS_CODE":0,"TOWNNAME":"七股區","LI":"城內里","LIN":"10鄰","STREET":" ","SECT":" ","MAREA":"城內","LANE":" ","ALLEY":" ","HOUSE_NO":"８２號之１","E_COORD97":161588.54999999999,"N_COORD97":2564349.1200000001,"ADDRESS":"城內８２號之１","OBJECTID":94213},"geometry":{"x":161588.55000000075,"y":2564349.120000001}},{"attributes":{"ID":94214,"DIS_CODE":0,"TOWNNAME":"七股區","LI":"城內里","LIN":"10鄰","STREET":" ","SECT":" ","MAREA":"城內","LANE":" ","ALLEY":" ","HOUSE_NO":"８２號","E_COORD97":161604.85000000001,"N_COORD97":2564353.0600000001,"ADDRESS":"城內８２號","OBJECTID":94214},"geometry":{"x":161604.85000000056,"y":2564353.0600000042}},{"attributes":{"ID":94215,"DIS_CODE":0,"TOWNNAME":"七股區","LI":"看坪里","LIN":"10鄰","STREET":" ","SECT":" ","MAREA":"看坪","LANE":" ","ALLEY":" ","HOUSE_NO":"７１號之３","E_COORD97":161690.14000000001,"N_COORD97":2558123.9700000002,"ADDRESS":"看坪７１號之３","OBJECTID":94215},"geometry":{"x":161690.13999999966,"y":2558123.9700000025}},{"attributes":{"ID":94216,"DIS_CODE":0,"TOWNNAME":"七股區","LI":"看坪里","LIN":"10鄰","STREET":" ","SECT":" ","MAREA":"看坪","LANE":" ","ALLEY":" ","HOUSE_NO":"８０號","E_COORD97":161715.41,"N_COORD97":2558018.04,"ADDRESS":"看坪８０號","OBJECTID":94216},"geometry":{"x":161715.41000000108,"y":2558018.0399999991}},{"attributes":{"ID":94217,"DIS_CODE":0,"TOWNNAME":"永康區","LI":"西橋里","LIN":"21鄰","STREET":"大橋三街","SECT":" ","MAREA":" ","LANE":"５７巷","ALLEY":"７弄","HOUSE_NO":"６２號","E_COORD97":170474.12,"N_COORD97":2546446.21,"ADDRESS":"大橋三街５７巷７弄６２號","OBJECTID":94217},"geometry":{"x":170474.12000000197,"y":2546446.2100000009}},{"attributes":{"ID":94218,"DIS_CODE":0,"TOWNNAME":"永康區","LI":"北灣里","LIN":"21鄰","STREET":"大同街","SECT":" ","MAREA":" ","LANE":"３８０巷","ALLEY":"４１弄","HOUSE_NO":"４９號","E_COORD97":174902.53,"N_COORD97":2546142.2200000002,"ADDRESS":"大同街３８０巷４１弄４９號","OBJECTID":94218},"geometry":{"x":174902.53000000212,"y":2546142.2199999988}},{"attributes":{"ID":94219,"DIS_CODE":0,"TOWNNAME":"左鎮區","LI":"中正里","LIN":"15鄰","STREET":" ","SECT":" ","MAREA":"中正","LANE":" ","ALLEY":" ","HOUSE_NO":"８４號之３","E_COORD97":189317.89999999999,"N_COORD97":2550953.2999999998,"ADDRESS":"中正８４號之３","OBJECTID":94219},"geometry":{"x":189317.90000000224,"y":2550953.3000000026}},{"attributes":{"ID":94220,"DIS_CODE":0,"TOWNNAME":"永康區","LI":"西勢里","LIN":"21鄰","STREET":"富強路","SECT":"一段","MAREA":" ","LANE":"９８巷","ALLEY":"３４弄","HOUSE_NO":"２３號","E_COORD97":175504.73000000001,"N_COORD97":2546034.1499999999,"ADDRESS":"富強路一段９８巷３４弄２３號","OBJECTID":94220},"geometry":{"x":175504.73000000045,"y":2546034.1500000041}},{"attributes":{"ID":94221,"DIS_CODE":0,"TOWNNAME":"安南區","LI":"州北里","LIN":"21鄰","STREET":"北安路","SECT":"四段","MAREA":" ","LANE":"６００巷","ALLEY":"１弄","HOUSE_NO":"２號","E_COORD97":169612.23000000001,"N_COORD97":2552077.4199999999,"ADDRESS":"北安路四段６００巷１弄２號","OBJECTID":94221},"geometry":{"x":169612.23000000045,"y":2552077.4200000018}},{"attributes":{"ID":94222,"DIS_CODE":0,"TOWNNAME":"安南區","LI":"州北里","LIN":"21鄰","STREET":"北安路","SECT":"四段","MAREA":" ","LANE":"６００巷","ALLEY":"１弄","HOUSE_NO":"４號","E_COORD97":169612.13,"N_COORD97":2552081.8799999999,"ADDRESS":"北安路四段６００巷１弄４號","OBJECTID":94222},"geometry":{"x":169612.12999999989,"y":2552081.879999999}},{"attributes":{"ID":94223,"DIS_CODE":0,"TOWNNAME":"安南區","LI":"州北里","LIN":"21鄰","STREET":"北安路","SECT":"四段","MAREA":" ","LANE":"６００巷","ALLEY":"１弄","HOUSE_NO":"６號","E_COORD97":169611.53,"N_COORD97":2552086.6400000001,"ADDRESS":"北安路四段６００巷１弄６號","OBJECTID":94223},"geometry":{"x":169611.53000000026,"y":2552086.6400000025}},{"attributes":{"ID":94224,"DIS_CODE":0,"TOWNNAME":"安南區","LI":"州北里","LIN":"21鄰","STREET":"北安路","SECT":"四段","MAREA":" ","LANE":"６００巷","ALLEY":"１弄","HOUSE_NO":"８號","E_COORD97":169611.23999999999,"N_COORD97":2552090.71,"ADDRESS":"北安路四段６００巷１弄８號","OBJECTID":94224},"geometry":{"x":169611.24000000115,"y":2552090.7100000028}},{"attributes":{"ID":94225,"DIS_CODE":0,"TOWNNAME":"安南區","LI":"州北里","LIN":"21鄰","STREET":"北安路","SECT":"四段","MAREA":" ","LANE":"６００巷","ALLEY":"２弄","HOUSE_NO":"１號","E_COORD97":169601.92000000001,"N_COORD97":2552020.4300000002,"ADDRESS":"北安路四段６００巷２弄１號","OBJECTID":94225},"geometry":{"x":169601.91999999993,"y":2552020.4300000016}},{"attributes":{"ID":94226,"DIS_CODE":0,"TOWNNAME":"安南區","LI":"州北里","LIN":"21鄰","STREET":"北安路","SECT":"四段","MAREA":" ","LANE":"６００巷","ALLEY":"２弄","HOUSE_NO":"３號","E_COORD97":169601.82999999999,"N_COORD97":2552015.9300000002,"ADDRESS":"北安路四段６００巷２弄３號","OBJECTID":94226},"geometry":{"x":169601.83000000101,"y":2552015.9300000016}},{"attributes":{"ID":94227,"DIS_CODE":0,"TOWNNAME":"七股區","LI":"三股里","LIN":"10鄰","STREET":" ","SECT":" ","MAREA":"海埔","LANE":" ","ALLEY":" ","HOUSE_NO":"１１號之７","E_COORD97":152849.29999999999,"N_COORD97":2557037.0499999998,"ADDRESS":"海埔１１號之７","OBJECTID":94227},"geometry":{"x":152849.30000000168,"y":2557037.0500000045}},{"attributes":{"ID":94228,"DIS_CODE":0,"TOWNNAME":"七股區","LI":"三股里","LIN":"10鄰","STREET":" ","SECT":" ","MAREA":"海埔","LANE":" ","ALLEY":" ","HOUSE_NO":"１２號","E_COORD97":154126.25,"N_COORD97":2556689.8500000001,"ADDRESS":"海埔１２號","OBJECTID":94228},"geometry":{"x":154126.25000000186,"y":2556689.8499999996}},{"attributes":{"ID":94229,"DIS_CODE":0,"TOWNNAME":"七股區","LI":"十份里","LIN":"10鄰","STREET":" ","SECT":" ","MAREA":"海埔","LANE":" ","ALLEY":" ","HOUSE_NO":"１３號","E_COORD97":152910.45999999999,"N_COORD97":2557094.77,"ADDRESS":"海埔１３號","OBJECTID":94229},"geometry":{"x":152910.45999999996,"y":2557094.7699999996}},{"attributes":{"ID":94230,"DIS_CODE":0,"TOWNNAME":"七股區","LI":"十份里","LIN":"10鄰","STREET":" ","SECT":" ","MAREA":"海埔","LANE":" ","ALLEY":" ","HOUSE_NO":"１５號","E_COORD97":154641.48999999999,"N_COORD97":2553795.7999999998,"ADDRESS":"海埔１５號","OBJECTID":94230},"geometry":{"x":154641.49000000022,"y":2553795.8000000007}},{"attributes":{"ID":94231,"DIS_CODE":0,"TOWNNAME":"七股區","LI":"十份里","LIN":"10鄰","STREET":" ","SECT":" ","MAREA":"海埔","LANE":" ","ALLEY":" ","HOUSE_NO":"１６號之１","E_COORD97":154351.35000000001,"N_COORD97":2554235.1400000001,"ADDRESS":"海埔１６號之１","OBJECTID":94231},"geometry":{"x":154351.35000000056,"y":2554235.1400000006}},{"attributes":{"ID":94232,"DIS_CODE":0,"TOWNNAME":"七股區","LI":"十份里","LIN":"10鄰","STREET":" ","SECT":" ","MAREA":"海埔","LANE":" ","ALLEY":" ","HOUSE_NO":"１７號","E_COORD97":154156.20000000001,"N_COORD97":2553809.2000000002,"ADDRESS":"海埔１７號","OBJECTID":94232},"geometry":{"x":154156.20000000112,"y":2553809.1999999993}},{"attributes":{"ID":94233,"DIS_CODE":0,"TOWNNAME":"七股區","LI":"三股里","LIN":"10鄰","STREET":" ","SECT":" ","MAREA":"海埔","LANE":" ","ALLEY":" ","HOUSE_NO":"１８號","E_COORD97":153463.95999999999,"N_COORD97":2553910.73,"ADDRESS":"海埔１８號","OBJECTID":94233},"geometry":{"x":153463.96000000089,"y":2553910.7300000023}},{"attributes":{"ID":94234,"DIS_CODE":0,"TOWNNAME":"七股區","LI":"三股里","LIN":"10鄰","STREET":" ","SECT":" ","MAREA":"海埔","LANE":" ","ALLEY":" ","HOUSE_NO":"１號","E_COORD97":154948.06,"N_COORD97":2556246.29,"ADDRESS":"海埔１號","OBJECTID":94234},"geometry":{"x":154948.06000000052,"y":2556246.2899999991}},{"attributes":{"ID":94235,"DIS_CODE":0,"TOWNNAME":"中西區","LI":"光賢里","LIN":"21鄰","STREET":"光賢街","SECT":" ","MAREA":" ","LANE":"２１巷","ALLEY":"２弄","HOUSE_NO":"１１號","E_COORD97":166739.69,"N_COORD97":2545075.8199999998,"ADDRESS":"光賢街２１巷２弄１１號","OBJECTID":94235},"geometry":{"x":166739.69000000134,"y":2545075.8200000003}},{"attributes":{"ID":94236,"DIS_CODE":0,"TOWNNAME":"中西區","LI":"光賢里","LIN":"21鄰","STREET":"光賢街","SECT":" ","MAREA":" ","LANE":"２１巷","ALLEY":"２弄","HOUSE_NO":"１３號","E_COORD97":166748.38,"N_COORD97":2545077.5299999998,"ADDRESS":"光賢街２１巷２弄１３號","OBJECTID":94236},"geometry":{"x":166748.38000000082,"y":2545077.5299999975}},{"attributes":{"ID":94237,"DIS_CODE":0,"TOWNNAME":"中西區","LI":"光賢里","LIN":"21鄰","STREET":"光賢街","SECT":" ","MAREA":" ","LANE":"２１巷","ALLEY":"２弄","HOUSE_NO":"１５號","E_COORD97":166754.42000000001,"N_COORD97":2545078.3599999999,"ADDRESS":"光賢街２１巷２弄１５號","OBJECTID":94237},"geometry":{"x":166754.42000000086,"y":2545078.3599999994}},{"attributes":{"ID":94238,"DIS_CODE":0,"TOWNNAME":"中西區","LI":"光賢里","LIN":"21鄰","STREET":"光賢街","SECT":" ","MAREA":" ","LANE":"２１巷","ALLEY":"２弄","HOUSE_NO":"１７號","E_COORD97":166758.85999999999,"N_COORD97":2545078.79,"ADDRESS":"光賢街２１巷２弄１７號","OBJECTID":94238},"geometry":{"x":166758.86000000127,"y":2545078.7899999991}},{"attributes":{"ID":94239,"DIS_CODE":0,"TOWNNAME":"中西區","LI":"光賢里","LIN":"21鄰","STREET":"光賢街","SECT":" ","MAREA":" ","LANE":"２１巷","ALLEY":"２弄","HOUSE_NO":"１９號","E_COORD97":166763.20000000001,"N_COORD97":2545079.4199999999,"ADDRESS":"光賢街２１巷２弄１９號","OBJECTID":94239},"geometry":{"x":166763.20000000112,"y":2545079.4200000018}},{"attributes":{"ID":94240,"DIS_CODE":0,"TOWNNAME":"中西區","LI":"光賢里","LIN":"21鄰","STREET":"光賢街","SECT":" ","MAREA":" ","LANE":"２１巷","ALLEY":"２弄","HOUSE_NO":"２１號","E_COORD97":166767.54000000001,"N_COORD97":2545079.7400000002,"ADDRESS":"光賢街２１巷２弄２１號","OBJECTID":94240},"geometry":{"x":166767.54000000097,"y":2545079.7400000002}},{"attributes":{"ID":94241,"DIS_CODE":0,"TOWNNAME":"中西區","LI":"光賢里","LIN":"21鄰","STREET":"光賢街","SECT":" ","MAREA":" ","LANE":"２１巷","ALLEY":"２弄","HOUSE_NO":"２３號","E_COORD97":166772.41,"N_COORD97":2545080.3700000001,"ADDRESS":"光賢街２１巷２弄２３號","OBJECTID":94241},"geometry":{"x":166772.41000000015,"y":2545080.3699999992}},{"attributes":{"ID":94242,"DIS_CODE":0,"TOWNNAME":"中西區","LI":"光賢里","LIN":"21鄰","STREET":"光賢街","SECT":" ","MAREA":" ","LANE":"２１巷","ALLEY":"２弄","HOUSE_NO":"２５號","E_COORD97":166778.04000000001,"N_COORD97":2545081.04,"ADDRESS":"光賢街２１巷２弄２５號","OBJECTID":94242},"geometry":{"x":166778.04000000097,"y":2545081.0400000028}},{"attributes":{"ID":94243,"DIS_CODE":0,"TOWNNAME":"七股區","LI":"十份里","LIN":"10鄰","STREET":" ","SECT":" ","MAREA":"海埔","LANE":" ","ALLEY":" ","HOUSE_NO":"２０號之１","E_COORD97":152326.64000000001,"N_COORD97":2553710.6200000001,"ADDRESS":"海埔２０號之１","OBJECTID":94243},"geometry":{"x":152326.6400000006,"y":2553710.6199999992}},{"attributes":{"ID":94244,"DIS_CODE":0,"TOWNNAME":"七股區","LI":"十份里","LIN":"10鄰","STREET":" ","SECT":" ","MAREA":"海埔","LANE":" ","ALLEY":" ","HOUSE_NO":"２１號","E_COORD97":153374.75,"N_COORD97":2553723.9199999999,"ADDRESS":"海埔２１號","OBJECTID":94244},"geometry":{"x":153374.75,"y":2553723.9199999999}},{"attributes":{"ID":94245,"DIS_CODE":0,"TOWNNAME":"七股區","LI":"十份里","LIN":"10鄰","STREET":" ","SECT":" ","MAREA":"海埔","LANE":" ","ALLEY":" ","HOUSE_NO":"２２號","E_COORD97":153496.01000000001,"N_COORD97":2554182.6000000001,"ADDRESS":"海埔２２號","OBJECTID":94245},"geometry":{"x":153496.01000000071,"y":2554182.5999999996}},{"attributes":{"ID":94246,"DIS_CODE":0,"TOWNNAME":"七股區","LI":"十份里","LIN":"10鄰","STREET":" ","SECT":" ","MAREA":"海埔","LANE":" ","ALLEY":" ","HOUSE_NO":"２３號","E_COORD97":153369.39999999999,"N_COORD97":2554729.7000000002,"ADDRESS":"海埔２３號","OBJECTID":94246},"geometry":{"x":153369.40000000037,"y":2554729.7000000011}},{"attributes":{"ID":94247,"DIS_CODE":0,"TOWNNAME":"七股區","LI":"十份里","LIN":"10鄰","STREET":" ","SECT":" ","MAREA":"海埔","LANE":" ","ALLEY":" ","HOUSE_NO":"２７號之１","E_COORD97":153806.03,"N_COORD97":2555359.2200000002,"ADDRESS":"海埔２７號之１","OBJECTID":94247},"geometry":{"x":153806.03000000212,"y":2555359.2200000007}},{"attributes":{"ID":94248,"DIS_CODE":0,"TOWNNAME":"七股區","LI":"十份里","LIN":"10鄰","STREET":" ","SECT":" ","MAREA":"海埔","LANE":" ","ALLEY":" ","HOUSE_NO":"３０號之１０","E_COORD97":151915.37,"N_COORD97":2555082.04,"ADDRESS":"海埔３０號之１０","OBJECTID":94248},"geometry":{"x":151915.37000000104,"y":2555082.0399999991}},{"attributes":{"ID":94249,"DIS_CODE":0,"TOWNNAME":"七股區","LI":"十份里","LIN":"10鄰","STREET":" ","SECT":" ","MAREA":"海埔","LANE":" ","ALLEY":" ","HOUSE_NO":"３０號之２","E_COORD97":151931.95999999999,"N_COORD97":2556423.77,"ADDRESS":"海埔３０號之２","OBJECTID":94249},"geometry":{"x":151931.96000000089,"y":2556423.7699999977}},{"attributes":{"ID":94250,"DIS_CODE":0,"TOWNNAME":"中西區","LI":"光賢里","LIN":"21鄰","STREET":"光賢街","SECT":" ","MAREA":" ","LANE":"２１巷","ALLEY":"２弄","HOUSE_NO":"２７號","E_COORD97":166783.94,"N_COORD97":2545081.6400000001,"ADDRESS":"光賢街２１巷２弄２７號","OBJECTID":94250},"geometry":{"x":166783.94000000134,"y":2545081.6400000043}},{"attributes":{"ID":94251,"DIS_CODE":0,"TOWNNAME":"中西區","LI":"光賢里","LIN":"21鄰","STREET":"光賢街","SECT":" ","MAREA":" ","LANE":"２１巷","ALLEY":"２弄","HOUSE_NO":"２９號","E_COORD97":166789.34,"N_COORD97":2545082.2799999998,"ADDRESS":"光賢街２１巷２弄２９號","OBJECTID":94251},"geometry":{"x":166789.34000000078,"y":2545082.2799999993}},{"attributes":{"ID":94252,"DIS_CODE":0,"TOWNNAME":"中西區","LI":"光賢里","LIN":"21鄰","STREET":"光賢街","SECT":" ","MAREA":" ","LANE":"２１巷","ALLEY":"２弄","HOUSE_NO":"３１號","E_COORD97":166794.84,"N_COORD97":2545082.7000000002,"ADDRESS":"光賢街２１巷２弄３１號","OBJECTID":94252},"geometry":{"x":166794.83999999985,"y":2545082.6999999993}},{"attributes":{"ID":94253,"DIS_CODE":0,"TOWNNAME":"中西區","LI":"光賢里","LIN":"21鄰","STREET":"光賢街","SECT":" ","MAREA":" ","LANE":"２１巷","ALLEY":"２弄","HOUSE_NO":"３３號","E_COORD97":166800.92000000001,"N_COORD97":2545083.4500000002,"ADDRESS":"光賢街２１巷２弄３３號","OBJECTID":94253},"geometry":{"x":166800.91999999993,"y":2545083.4499999993}},{"attributes":{"ID":94254,"DIS_CODE":0,"TOWNNAME":"中西區","LI":"光賢里","LIN":"21鄰","STREET":"光賢街","SECT":" ","MAREA":" ","LANE":"２１巷","ALLEY":"２弄","HOUSE_NO":"３５號","E_COORD97":166806.63,"N_COORD97":2545084.0099999998,"ADDRESS":"光賢街２１巷２弄３５號","OBJECTID":94254},"geometry":{"x":166806.62999999989,"y":2545084.0099999998}},{"attributes":{"ID":94255,"DIS_CODE":0,"TOWNNAME":"東區","LI":"自強里","LIN":"21鄰","STREET":"中華東路","SECT":"二段","MAREA":" ","LANE":"２４３巷","ALLEY":"５７弄","HOUSE_NO":"１０號","E_COORD97":171457.37,"N_COORD97":2542611.0600000001,"ADDRESS":"中華東路二段２４３巷５７弄１０號","OBJECTID":94255},"geometry":{"x":171457.37000000104,"y":2542611.0600000024}},{"attributes":{"ID":94256,"DIS_CODE":0,"TOWNNAME":"東區","LI":"自強里","LIN":"21鄰","STREET":"中華東路","SECT":"二段","MAREA":" ","LANE":"２４３巷","ALLEY":"５７弄","HOUSE_NO":"１２號","E_COORD97":171457.10999999999,"N_COORD97":2542615.1800000002,"ADDRESS":"中華東路二段２４３巷５７弄１２號","OBJECTID":94256},"geometry":{"x":171457.11000000034,"y":2542615.1799999997}},{"attributes":{"ID":94257,"DIS_CODE":0,"TOWNNAME":"東區","LI":"自強里","LIN":"21鄰","STREET":"中華東路","SECT":"二段","MAREA":" ","LANE":"２４３巷","ALLEY":"５７弄","HOUSE_NO":"１４號","E_COORD97":171457.88,"N_COORD97":2542618.7799999998,"ADDRESS":"中華東路二段２４３巷５７弄１４號","OBJECTID":94257},"geometry":{"x":171457.87999999989,"y":2542618.7800000012}},{"attributes":{"ID":94258,"DIS_CODE":0,"TOWNNAME":"東區","LI":"自強里","LIN":"21鄰","STREET":"中華東路","SECT":"二段","MAREA":" ","LANE":"２４３巷","ALLEY":"５７弄","HOUSE_NO":"１６號","E_COORD97":171457.88,"N_COORD97":2542622.1299999999,"ADDRESS":"中華東路二段２４３巷５７弄１６號","OBJECTID":94258},"geometry":{"x":171457.87999999989,"y":2542622.1300000027}},{"attributes":{"ID":94259,"DIS_CODE":0,"TOWNNAME":"東區","LI":"自強里","LIN":"21鄰","STREET":"中華東路","SECT":"二段","MAREA":" ","LANE":"２４３巷","ALLEY":"５７弄","HOUSE_NO":"１８號","E_COORD97":171458.92000000001,"N_COORD97":2542627.2799999998,"ADDRESS":"中華東路二段２４３巷５７弄１８號","OBJECTID":94259},"geometry":{"x":171458.92000000086,"y":2542627.2799999993}},{"attributes":{"ID":94260,"DIS_CODE":0,"TOWNNAME":"東區","LI":"自強里","LIN":"21鄰","STREET":"中華東路","SECT":"二段","MAREA":" ","LANE":"２４３巷","ALLEY":"５７弄","HOUSE_NO":"１號","E_COORD97":171442.79000000001,"N_COORD97":2542590.7200000002,"ADDRESS":"中華東路二段２４３巷５７弄１號","OBJECTID":94260},"geometry":{"x":171442.79000000097,"y":2542590.7200000025}},{"attributes":{"ID":94261,"DIS_CODE":0,"TOWNNAME":"東區","LI":"自強里","LIN":"21鄰","STREET":"中華東路","SECT":"二段","MAREA":" ","LANE":"２４３巷","ALLEY":"５７弄","HOUSE_NO":"２６號","E_COORD97":171467.60000000001,"N_COORD97":2542640.4900000002,"ADDRESS":"中華東路二段２４３巷５７弄２６號","OBJECTID":94261},"geometry":{"x":171467.60000000056,"y":2542640.4900000002}},{"attributes":{"ID":94262,"DIS_CODE":0,"TOWNNAME":"東區","LI":"自強里","LIN":"21鄰","STREET":"中華東路","SECT":"二段","MAREA":" ","LANE":"２４３巷","ALLEY":"５７弄","HOUSE_NO":"２８號","E_COORD97":171458.5,"N_COORD97":2542639.7200000002,"ADDRESS":"中華東路二段２４３巷５７弄２８號","OBJECTID":94262},"geometry":{"x":171458.50000000093,"y":2542639.7200000007}},{"attributes":{"ID":94263,"DIS_CODE":0,"TOWNNAME":"七股區","LI":"十份里","LIN":"10鄰","STREET":" ","SECT":" ","MAREA":"海埔","LANE":" ","ALLEY":" ","HOUSE_NO":"３０號之４","E_COORD97":152399.41,"N_COORD97":2555773.4300000002,"ADDRESS":"海埔３０號之４","OBJECTID":94263},"geometry":{"x":152399.41000000015,"y":2555773.4300000016}},{"attributes":{"ID":94264,"DIS_CODE":0,"TOWNNAME":"東區","LI":"自強里","LIN":"21鄰","STREET":"中華東路","SECT":"二段","MAREA":" ","LANE":"２４３巷","ALLEY":"５７弄","HOUSE_NO":"２號","E_COORD97":171457.10999999999,"N_COORD97":2542594.5800000001,"ADDRESS":"中華東路二段２４３巷５７弄２號","OBJECTID":94264},"geometry":{"x":171457.11000000034,"y":2542594.5800000019}},{"attributes":{"ID":94265,"DIS_CODE":0,"TOWNNAME":"東區","LI":"自強里","LIN":"21鄰","STREET":"中華東路","SECT":"二段","MAREA":" ","LANE":"２４３巷","ALLEY":"５７弄","HOUSE_NO":"３０號","E_COORD97":171456.76000000001,"N_COORD97":2542656.3399999999,"ADDRESS":"中華東路二段２４３巷５７弄３０號","OBJECTID":94265},"geometry":{"x":171456.75999999978,"y":2542656.3400000017}},{"attributes":{"ID":94266,"DIS_CODE":0,"TOWNNAME":"東區","LI":"自強里","LIN":"21鄰","STREET":"中華東路","SECT":"二段","MAREA":" ","LANE":"２４３巷","ALLEY":"５７弄","HOUSE_NO":"３２號","E_COORD97":171457.14999999999,"N_COORD97":2542661.9500000002,"ADDRESS":"中華東路二段２４３巷５７弄３２號","OBJECTID":94266},"geometry":{"x":171457.14999999944,"y":2542661.9500000011}},{"attributes":{"ID":94267,"DIS_CODE":0,"TOWNNAME":"東區","LI":"自強里","LIN":"21鄰","STREET":"中華東路","SECT":"二段","MAREA":" ","LANE":"２４３巷","ALLEY":"５７弄","HOUSE_NO":"３４號","E_COORD97":171456.37,"N_COORD97":2542670.8399999999,"ADDRESS":"中華東路二段２４３巷５７弄３４號","OBJECTID":94267},"geometry":{"x":171456.37000000011,"y":2542670.8399999999}},{"attributes":{"ID":94268,"DIS_CODE":0,"TOWNNAME":"東區","LI":"自強里","LIN":"21鄰","STREET":"中華東路","SECT":"二段","MAREA":" ","LANE":"２４３巷","ALLEY":"５７弄","HOUSE_NO":"３號","E_COORD97":171443.31,"N_COORD97":2542595.6099999999,"ADDRESS":"中華東路二段２４３巷５７弄３號","OBJECTID":94268},"geometry":{"x":171443.30999999959,"y":2542595.6100000031}},{"attributes":{"ID":94269,"DIS_CODE":0,"TOWNNAME":"東區","LI":"自強里","LIN":"21鄰","STREET":"中華東路","SECT":"二段","MAREA":" ","LANE":"２４３巷","ALLEY":"５７弄","HOUSE_NO":"４號","E_COORD97":171457.10999999999,"N_COORD97":2542598.7000000002,"ADDRESS":"中華東路二段２４３巷５７弄４號","OBJECTID":94269},"geometry":{"x":171457.11000000034,"y":2542598.7000000011}},{"attributes":{"ID":94270,"DIS_CODE":0,"TOWNNAME":"東區","LI":"自強里","LIN":"21鄰","STREET":"中華東路","SECT":"二段","MAREA":" ","LANE":"２４３巷","ALLEY":"５７弄","HOUSE_NO":"５號","E_COORD97":171443.31,"N_COORD97":2542599.73,"ADDRESS":"中華東路二段２４３巷５７弄５號","OBJECTID":94270},"geometry":{"x":171443.30999999959,"y":2542599.7300000023}},{"attributes":{"ID":94271,"DIS_CODE":0,"TOWNNAME":"七股區","LI":"十份里","LIN":"10鄰","STREET":" ","SECT":" ","MAREA":"海埔","LANE":" ","ALLEY":" ","HOUSE_NO":"３０號之５","E_COORD97":152660.70999999999,"N_COORD97":2555641.9500000002,"ADDRESS":"海埔３０號之５","OBJECTID":94271},"geometry":{"x":152660.71000000089,"y":2555641.9499999993}},{"attributes":{"ID":94272,"DIS_CODE":0,"TOWNNAME":"七股區","LI":"十份里","LIN":"10鄰","STREET":" ","SECT":" ","MAREA":"海埔","LANE":" ","ALLEY":" ","HOUSE_NO":"３０號之６","E_COORD97":152660.20999999999,"N_COORD97":2555677.0299999998,"ADDRESS":"海埔３０號之６","OBJECTID":94272},"geometry":{"x":152660.21000000183,"y":2555677.0300000012}},{"attributes":{"ID":94273,"DIS_CODE":0,"TOWNNAME":"七股區","LI":"十份里","LIN":"10鄰","STREET":" ","SECT":" ","MAREA":"海埔","LANE":" ","ALLEY":" ","HOUSE_NO":"３０號之９","E_COORD97":152119.04999999999,"N_COORD97":2556558.7599999998,"ADDRESS":"海埔３０號之９","OBJECTID":94273},"geometry":{"x":152119.05000000075,"y":2556558.7599999998}},{"attributes":{"ID":94274,"DIS_CODE":0,"TOWNNAME":"七股區","LI":"十份里","LIN":"10鄰","STREET":" ","SECT":" ","MAREA":"海埔","LANE":" ","ALLEY":" ","HOUSE_NO":"３０號","E_COORD97":152263.64999999999,"N_COORD97":2556352.1000000001,"ADDRESS":"海埔３０號","OBJECTID":94274},"geometry":{"x":152263.65000000037,"y":2556352.1000000015}},{"attributes":{"ID":94275,"DIS_CODE":0,"TOWNNAME":"七股區","LI":"十份里","LIN":"10鄰","STREET":" ","SECT":" ","MAREA":"海埔","LANE":" ","ALLEY":" ","HOUSE_NO":"３３號之２","E_COORD97":152077.41,"N_COORD97":2555743.8799999999,"ADDRESS":"海埔３３號之２","OBJECTID":94275},"geometry":{"x":152077.41000000015,"y":2555743.879999999}},{"attributes":{"ID":94276,"DIS_CODE":0,"TOWNNAME":"七股區","LI":"十份里","LIN":"10鄰","STREET":" ","SECT":" ","MAREA":"海埔","LANE":" ","ALLEY":" ","HOUSE_NO":"３４號","E_COORD97":152114.06,"N_COORD97":2555071.46,"ADDRESS":"海埔３４號","OBJECTID":94276},"geometry":{"x":152114.06000000052,"y":2555071.4600000046}},{"attributes":{"ID":94277,"DIS_CODE":0,"TOWNNAME":"七股區","LI":"十份里","LIN":"10鄰","STREET":" ","SECT":" ","MAREA":"海埔","LANE":" ","ALLEY":" ","HOUSE_NO":"３５號","E_COORD97":151863.29000000001,"N_COORD97":2554581.75,"ADDRESS":"海埔３５號","OBJECTID":94277},"geometry":{"x":151863.29000000097,"y":2554581.7500000019}},{"attributes":{"ID":94278,"DIS_CODE":0,"TOWNNAME":"七股區","LI":"十份里","LIN":"10鄰","STREET":" ","SECT":" ","MAREA":"海埔","LANE":" ","ALLEY":" ","HOUSE_NO":"３７號之１","E_COORD97":151691.42999999999,"N_COORD97":2554407.98,"ADDRESS":"海埔３７號之１","OBJECTID":94278},"geometry":{"x":151691.4299999997,"y":2554407.9800000004}},{"attributes":{"ID":94279,"DIS_CODE":0,"TOWNNAME":"七股區","LI":"十份里","LIN":"10鄰","STREET":" ","SECT":" ","MAREA":"海埔","LANE":" ","ALLEY":" ","HOUSE_NO":"３７號之２","E_COORD97":151810.57999999999,"N_COORD97":2554516.98,"ADDRESS":"海埔３７號之２","OBJECTID":94279},"geometry":{"x":151810.58000000101,"y":2554516.9800000004}},{"attributes":{"ID":94280,"DIS_CODE":0,"TOWNNAME":"七股區","LI":"十份里","LIN":"10鄰","STREET":" ","SECT":" ","MAREA":"海埔","LANE":" ","ALLEY":" ","HOUSE_NO":"４２號之３","E_COORD97":151544.85999999999,"N_COORD97":2553555.5099999998,"ADDRESS":"海埔４２號之３","OBJECTID":94280},"geometry":{"x":151544.86000000127,"y":2553555.5100000016}},{"attributes":{"ID":94281,"DIS_CODE":0,"TOWNNAME":"七股區","LI":"十份里","LIN":"10鄰","STREET":" ","SECT":" ","MAREA":"海埔","LANE":" ","ALLEY":" ","HOUSE_NO":"４２號","E_COORD97":151585.81,"N_COORD97":2553332.8500000001,"ADDRESS":"海埔４２號","OBJECTID":94281},"geometry":{"x":151585.80999999959,"y":2553332.8500000015}},{"attributes":{"ID":94282,"DIS_CODE":0,"TOWNNAME":"七股區","LI":"十份里","LIN":"10鄰","STREET":" ","SECT":" ","MAREA":"海埔","LANE":" ","ALLEY":" ","HOUSE_NO":"４７號","E_COORD97":153963.10999999999,"N_COORD97":2553599.3900000001,"ADDRESS":"海埔４７號","OBJECTID":94282},"geometry":{"x":153963.1100000022,"y":2553599.3900000006}},{"attributes":{"ID":94283,"DIS_CODE":0,"TOWNNAME":"七股區","LI":"三股里","LIN":"10鄰","STREET":" ","SECT":" ","MAREA":"海埔","LANE":" ","ALLEY":" ","HOUSE_NO":"４號","E_COORD97":155760.13,"N_COORD97":2558129.6800000002,"ADDRESS":"海埔４號","OBJECTID":94283},"geometry":{"x":155760.13000000082,"y":2558129.6799999997}},{"attributes":{"ID":94284,"DIS_CODE":0,"TOWNNAME":"七股區","LI":"十份里","LIN":"10鄰","STREET":" ","SECT":" ","MAREA":"海埔","LANE":" ","ALLEY":" ","HOUSE_NO":"６９號","E_COORD97":152952.79999999999,"N_COORD97":2553350.2400000002,"ADDRESS":"海埔６９號","OBJECTID":94284},"geometry":{"x":152952.80000000168,"y":2553350.2400000021}},{"attributes":{"ID":94285,"DIS_CODE":0,"TOWNNAME":"七股區","LI":"頂山里","LIN":"10鄰","STREET":" ","SECT":" ","MAREA":"頂山","LANE":" ","ALLEY":" ","HOUSE_NO":"１０１號之１","E_COORD97":158955.63,"N_COORD97":2564398.1800000002,"ADDRESS":"頂山１０１號之１","OBJECTID":94285},"geometry":{"x":158955.63000000082,"y":2564398.1799999997}},{"attributes":{"ID":94286,"DIS_CODE":0,"TOWNNAME":"東區","LI":"自強里","LIN":"21鄰","STREET":"中華東路","SECT":"二段","MAREA":" ","LANE":"２４３巷","ALLEY":"５７弄","HOUSE_NO":"６號","E_COORD97":171457.10999999999,"N_COORD97":2542603.0800000001,"ADDRESS":"中華東路二段２４３巷５７弄６號","OBJECTID":94286},"geometry":{"x":171457.11000000034,"y":2542603.0800000038}},{"attributes":{"ID":94287,"DIS_CODE":0,"TOWNNAME":"東區","LI":"自強里","LIN":"21鄰","STREET":"中華東路","SECT":"二段","MAREA":" ","LANE":"２４３巷","ALLEY":"５７弄","HOUSE_NO":"７號","E_COORD97":171443.04999999999,"N_COORD97":2542604.1099999999,"ADDRESS":"中華東路二段２４３巷５７弄７號","OBJECTID":94287},"geometry":{"x":171443.04999999981,"y":2542604.1099999994}},{"attributes":{"ID":94288,"DIS_CODE":0,"TOWNNAME":"東區","LI":"自強里","LIN":"21鄰","STREET":"中華東路","SECT":"二段","MAREA":" ","LANE":"２４３巷","ALLEY":"５７弄","HOUSE_NO":"８號","E_COORD97":171457.10999999999,"N_COORD97":2542606.4300000002,"ADDRESS":"中華東路二段２４３巷５７弄８號","OBJECTID":94288},"geometry":{"x":171457.11000000034,"y":2542606.4299999997}},{"attributes":{"ID":94289,"DIS_CODE":0,"TOWNNAME":"永康區","LI":"復興里","LIN":"21鄰","STREET":"復興路","SECT":" ","MAREA":" ","LANE":"２９６巷","ALLEY":"１３弄","HOUSE_NO":"１１號","E_COORD97":172320.01999999999,"N_COORD97":2544396.52,"ADDRESS":"復興路２９６巷１３弄１１號","OBJECTID":94289},"geometry":{"x":172320.01999999862,"y":2544396.5200000033}},{"attributes":{"ID":94290,"DIS_CODE":0,"TOWNNAME":"永康區","LI":"西勢里","LIN":"21鄰","STREET":"富強路","SECT":"一段","MAREA":" ","LANE":"９８巷","ALLEY":"５６弄","HOUSE_NO":"３０號","E_COORD97":175559.59,"N_COORD97":2546019.6499999999,"ADDRESS":"富強路一段９８巷５６弄３０號","OBJECTID":94290},"geometry":{"x":175559.59000000171,"y":2546019.6500000004}},{"attributes":{"ID":94291,"DIS_CODE":0,"TOWNNAME":"永康區","LI":"西勢里","LIN":"21鄰","STREET":"富強路","SECT":"一段","MAREA":" ","LANE":"９８巷","ALLEY":"３８弄","HOUSE_NO":"２３號","E_COORD97":175545.5,"N_COORD97":2546033.1499999999,"ADDRESS":"富強路一段９８巷３８弄２３號","OBJECTID":94291},"geometry":{"x":175545.50000000093,"y":2546033.1500000004}},{"attributes":{"ID":94292,"DIS_CODE":0,"TOWNNAME":"永康區","LI":"西勢里","LIN":"21鄰","STREET":"富強路","SECT":"一段","MAREA":" ","LANE":"９８巷","ALLEY":"３８弄","HOUSE_NO":"１８號","E_COORD97":175552.25,"N_COORD97":2546056.8900000001,"ADDRESS":"富強路一段９８巷３８弄１８號","OBJECTID":94292},"geometry":{"x":175552.25000000093,"y":2546056.8900000025}},{"attributes":{"ID":94293,"DIS_CODE":0,"TOWNNAME":"永康區","LI":"西勢里","LIN":"21鄰","STREET":"富強路","SECT":"一段","MAREA":" ","LANE":"９８巷","ALLEY":"３８弄","HOUSE_NO":"７號","E_COORD97":175568.79999999999,"N_COORD97":2546059.1400000001,"ADDRESS":"富強路一段９８巷３８弄７號","OBJECTID":94293},"geometry":{"x":175568.80000000075,"y":2546059.1400000025}},{"attributes":{"ID":94294,"DIS_CODE":0,"TOWNNAME":"永康區","LI":"西勢里","LIN":"21鄰","STREET":"富強路","SECT":"一段","MAREA":" ","LANE":"９８巷","ALLEY":"２０弄","HOUSE_NO":"１６號","E_COORD97":175497.78,"N_COORD97":2546110.52,"ADDRESS":"富強路一段９８巷２０弄１６號","OBJECTID":94294},"geometry":{"x":175497.78000000119,"y":2546110.5199999996}},{"attributes":{"ID":94295,"DIS_CODE":0,"TOWNNAME":"永康區","LI":"尚頂里","LIN":"21鄰","STREET":"南台街","SECT":" ","MAREA":" ","LANE":"１３巷","ALLEY":"１４弄","HOUSE_NO":"６號","E_COORD97":170372.23999999999,"N_COORD97":2546919.7400000002,"ADDRESS":"南台街１３巷１４弄６號","OBJECTID":94295},"geometry":{"x":170372.24000000115,"y":2546919.7400000021}},{"attributes":{"ID":94296,"DIS_CODE":0,"TOWNNAME":"永康區","LI":"尚頂里","LIN":"21鄰","STREET":"南台街","SECT":" ","MAREA":" ","LANE":"１３巷","ALLEY":"１４弄","HOUSE_NO":"２９號","E_COORD97":170331.17000000001,"N_COORD97":2546922.75,"ADDRESS":"南台街１３巷１４弄２９號","OBJECTID":94296},"geometry":{"x":170331.17000000179,"y":2546922.7500000019}},{"attributes":{"ID":94297,"DIS_CODE":0,"TOWNNAME":"永康區","LI":"尚頂里","LIN":"21鄰","STREET":"南台街","SECT":" ","MAREA":" ","LANE":"１３巷","ALLEY":"１４弄","HOUSE_NO":"２１號","E_COORD97":170349.45999999999,"N_COORD97":2546912.2400000002,"ADDRESS":"南台街１３巷１４弄２１號","OBJECTID":94297},"geometry":{"x":170349.46000000183,"y":2546912.2400000021}},{"attributes":{"ID":94298,"DIS_CODE":0,"TOWNNAME":"永康區","LI":"尚頂里","LIN":"21鄰","STREET":"南台街","SECT":" ","MAREA":" ","LANE":"１３巷","ALLEY":"１４弄","HOUSE_NO":"１５號","E_COORD97":170360.32999999999,"N_COORD97":2546905.7400000002,"ADDRESS":"南台街１３巷１４弄１５號","OBJECTID":94298},"geometry":{"x":170360.33000000007,"y":2546905.7400000021}},{"attributes":{"ID":94299,"DIS_CODE":0,"TOWNNAME":"永康區","LI":"尚頂里","LIN":"21鄰","STREET":"南台街","SECT":" ","MAREA":" ","LANE":"４５巷","ALLEY":" ","HOUSE_NO":"１號","E_COORD97":170339.85000000001,"N_COORD97":2546945,"ADDRESS":"南台街４５巷１號","OBJECTID":94299},"geometry":{"x":170339.85000000056,"y":2546945.0000000019}},{"attributes":{"ID":94300,"DIS_CODE":0,"TOWNNAME":"東區","LI":"東聖里","LIN":"21鄰","STREET":"中華東路","SECT":"二段","MAREA":" ","LANE":"１３３巷","ALLEY":"７７弄","HOUSE_NO":"１０號","E_COORD97":171599.62,"N_COORD97":2542864.0899999999,"ADDRESS":"中華東路二段１３３巷７７弄１０號","OBJECTID":94300},"geometry":{"x":171599.62000000197,"y":2542864.0900000036}},{"attributes":{"ID":94301,"DIS_CODE":0,"TOWNNAME":"東區","LI":"富強里","LIN":"18鄰","STREET":"裕農路","SECT":" ","MAREA":" ","LANE":"２８８巷","ALLEY":"１９６弄","HOUSE_NO":"１５號","E_COORD97":171036.85999999999,"N_COORD97":2542827,"ADDRESS":"裕農路２８８巷１９６弄１５號","OBJECTID":94301},"geometry":{"x":171036.86000000034,"y":2542827}},{"attributes":{"ID":94302,"DIS_CODE":0,"TOWNNAME":"永康區","LI":"尚頂里","LIN":"21鄰","STREET":"南台街","SECT":" ","MAREA":" ","LANE":"１３巷","ALLEY":"１４弄","HOUSE_NO":"２號","E_COORD97":170379.75,"N_COORD97":2546915.2400000002,"ADDRESS":"南台街１３巷１４弄２號","OBJECTID":94302},"geometry":{"x":170379.75000000186,"y":2546915.2400000021}},{"attributes":{"ID":94303,"DIS_CODE":0,"TOWNNAME":"永康區","LI":"尚頂里","LIN":"21鄰","STREET":"南台街","SECT":" ","MAREA":" ","LANE":"１３巷","ALLEY":"１４弄","HOUSE_NO":"１９號","E_COORD97":170353.31,"N_COORD97":2546910.2400000002,"ADDRESS":"南台街１３巷１４弄１９號","OBJECTID":94303},"geometry":{"x":170353.30999999959,"y":2546910.2400000002}},{"attributes":{"ID":94304,"DIS_CODE":0,"TOWNNAME":"永康區","LI":"尚頂里","LIN":"21鄰","STREET":"南台街","SECT":" ","MAREA":" ","LANE":"１３巷","ALLEY":"１４弄","HOUSE_NO":"９號","E_COORD97":170369.70000000001,"N_COORD97":2546899.9900000002,"ADDRESS":"南台街１３巷１４弄９號","OBJECTID":94304},"geometry":{"x":170369.70000000019,"y":2546899.9900000021}},{"attributes":{"ID":94305,"DIS_CODE":0,"TOWNNAME":"永康區","LI":"尚頂里","LIN":"21鄰","STREET":"南台街","SECT":" ","MAREA":" ","LANE":"１３巷","ALLEY":"１４弄","HOUSE_NO":"２４號","E_COORD97":170340.5,"N_COORD97":2546938,"ADDRESS":"南台街１３巷１４弄２４號","OBJECTID":94305},"geometry":{"x":170340.5,"y":2546938.0000000019}},{"attributes":{"ID":94306,"DIS_CODE":0,"TOWNNAME":"永康區","LI":"尚頂里","LIN":"21鄰","STREET":"南台街","SECT":" ","MAREA":" ","LANE":"１３巷","ALLEY":"１４弄","HOUSE_NO":"３號","E_COORD97":170381.29000000001,"N_COORD97":2546893.2400000002,"ADDRESS":"南台街１３巷１４弄３號","OBJECTID":94306},"geometry":{"x":170381.2900000019,"y":2546893.2400000002}},{"attributes":{"ID":94307,"DIS_CODE":0,"TOWNNAME":"永康區","LI":"尚頂里","LIN":"21鄰","STREET":"南台街","SECT":" ","MAREA":" ","LANE":"１３巷","ALLEY":"１４弄","HOUSE_NO":"２０號","E_COORD97":170347.75,"N_COORD97":2546933.75,"ADDRESS":"南台街１３巷１４弄２０號","OBJECTID":94307},"geometry":{"x":170347.75000000093,"y":2546933.75}},{"attributes":{"ID":94308,"DIS_CODE":0,"TOWNNAME":"七股區","LI":"頂山里","LIN":"10鄰","STREET":" ","SECT":" ","MAREA":"頂山","LANE":" ","ALLEY":" ","HOUSE_NO":"１０１號之２","E_COORD97":158955.32999999999,"N_COORD97":2564394.27,"ADDRESS":"頂山１０１號之２","OBJECTID":94308},"geometry":{"x":158955.32999999914,"y":2564394.2699999996}},{"attributes":{"ID":94309,"DIS_CODE":0,"TOWNNAME":"七股區","LI":"頂山里","LIN":"10鄰","STREET":" ","SECT":" ","MAREA":"頂山","LANE":" ","ALLEY":" ","HOUSE_NO":"１０１號之３","E_COORD97":158955.01999999999,"N_COORD97":2564390.3599999999,"ADDRESS":"頂山１０１號之３","OBJECTID":94309},"geometry":{"x":158955.01999999955,"y":2564390.3599999975}},{"attributes":{"ID":94310,"DIS_CODE":0,"TOWNNAME":"七股區","LI":"頂山里","LIN":"10鄰","STREET":" ","SECT":" ","MAREA":"頂山","LANE":" ","ALLEY":" ","HOUSE_NO":"１０１號","E_COORD97":158955.92999999999,"N_COORD97":2564402.0899999999,"ADDRESS":"頂山１０１號","OBJECTID":94310},"geometry":{"x":158955.92999999877,"y":2564402.0899999999}},{"attributes":{"ID":94311,"DIS_CODE":0,"TOWNNAME":"七股區","LI":"頂山里","LIN":"10鄰","STREET":" ","SECT":" ","MAREA":"頂山","LANE":" ","ALLEY":" ","HOUSE_NO":"１０３號","E_COORD97":158937.78,"N_COORD97":2564421.8999999999,"ADDRESS":"頂山１０３號","OBJECTID":94311},"geometry":{"x":158937.78000000119,"y":2564421.9000000041}},{"attributes":{"ID":94312,"DIS_CODE":0,"TOWNNAME":"七股區","LI":"頂山里","LIN":"10鄰","STREET":" ","SECT":" ","MAREA":"頂山","LANE":" ","ALLEY":" ","HOUSE_NO":"１０４號","E_COORD97":158918.60999999999,"N_COORD97":2564433.75,"ADDRESS":"頂山１０４號","OBJECTID":94312},"geometry":{"x":158918.61000000127,"y":2564433.7500000019}},{"attributes":{"ID":94313,"DIS_CODE":0,"TOWNNAME":"七股區","LI":"頂山里","LIN":"10鄰","STREET":" ","SECT":" ","MAREA":"頂山","LANE":" ","ALLEY":" ","HOUSE_NO":"９５號","E_COORD97":158985.01000000001,"N_COORD97":2564484.6099999999,"ADDRESS":"頂山９５號","OBJECTID":94313},"geometry":{"x":158985.01000000071,"y":2564484.6100000013}},{"attributes":{"ID":94314,"DIS_CODE":0,"TOWNNAME":"永康區","LI":"尚頂里","LIN":"21鄰","STREET":"南台街","SECT":" ","MAREA":" ","LANE":"１３巷","ALLEY":"１４弄","HOUSE_NO":"５號","E_COORD97":170377.57999999999,"N_COORD97":2546895.2400000002,"ADDRESS":"南台街１３巷１４弄５號","OBJECTID":94314},"geometry":{"x":170377.58000000194,"y":2546895.2400000021}},{"attributes":{"ID":94315,"DIS_CODE":0,"TOWNNAME":"永康區","LI":"尚頂里","LIN":"21鄰","STREET":"南台街","SECT":" ","MAREA":" ","LANE":"１３巷","ALLEY":"１４弄","HOUSE_NO":"４號","E_COORD97":170376.10000000001,"N_COORD97":2546917.4900000002,"ADDRESS":"南台街１３巷１４弄４號","OBJECTID":94315},"geometry":{"x":170376.10000000056,"y":2546917.4900000021}},{"attributes":{"ID":94316,"DIS_CODE":0,"TOWNNAME":"永康區","LI":"西勢里","LIN":"21鄰","STREET":"富強路","SECT":"一段","MAREA":" ","LANE":"９８巷","ALLEY":"５６弄","HOUSE_NO":"３２號","E_COORD97":175556.44,"N_COORD97":2546016.3999999999,"ADDRESS":"富強路一段９８巷５６弄３２號","OBJECTID":94316},"geometry":{"x":175556.44000000134,"y":2546016.4000000022}},{"attributes":{"ID":94317,"DIS_CODE":0,"TOWNNAME":"永康區","LI":"尚頂里","LIN":"21鄰","STREET":"南台街","SECT":" ","MAREA":" ","LANE":"１３巷","ALLEY":"１４弄","HOUSE_NO":"１號","E_COORD97":170384.97,"N_COORD97":2546890.9900000002,"ADDRESS":"南台街１３巷１４弄１號","OBJECTID":94317},"geometry":{"x":170384.97000000067,"y":2546890.9900000021}},{"attributes":{"ID":94318,"DIS_CODE":0,"TOWNNAME":"永康區","LI":"尚頂里","LIN":"21鄰","STREET":"南台街","SECT":" ","MAREA":" ","LANE":"１３巷","ALLEY":"１４弄","HOUSE_NO":"８號","E_COORD97":170368.44,"N_COORD97":2546921.2400000002,"ADDRESS":"南台街１３巷１４弄８號","OBJECTID":94318},"geometry":{"x":170368.44000000041,"y":2546921.2400000002}},{"attributes":{"ID":94319,"DIS_CODE":0,"TOWNNAME":"永康區","LI":"尚頂里","LIN":"21鄰","STREET":"南台街","SECT":" ","MAREA":" ","LANE":"１３巷","ALLEY":"１４弄","HOUSE_NO":"２５號","E_COORD97":170341.76000000001,"N_COORD97":2546915.9900000002,"ADDRESS":"南台街１３巷１４弄２５號","OBJECTID":94319},"geometry":{"x":170341.75999999978,"y":2546915.9900000002}},{"attributes":{"ID":94320,"DIS_CODE":0,"TOWNNAME":"永康區","LI":"尚頂里","LIN":"21鄰","STREET":"南台街","SECT":" ","MAREA":" ","LANE":"１３巷","ALLEY":"１４弄","HOUSE_NO":"１０號","E_COORD97":170365.69,"N_COORD97":2546923.5,"ADDRESS":"南台街１３巷１４弄１０號","OBJECTID":94320},"geometry":{"x":170365.69000000134,"y":2546923.5000000019}},{"attributes":{"ID":94321,"DIS_CODE":0,"TOWNNAME":"永康區","LI":"北灣里","LIN":"21鄰","STREET":"大同街","SECT":" ","MAREA":" ","LANE":"３８０巷","ALLEY":"４１弄","HOUSE_NO":"６號","E_COORD97":174845.87,"N_COORD97":2546042.2799999998,"ADDRESS":"大同街３８０巷４１弄６號","OBJECTID":94321},"geometry":{"x":174845.87000000197,"y":2546042.2800000031}},{"attributes":{"ID":94322,"DIS_CODE":0,"TOWNNAME":"永康區","LI":"北灣里","LIN":"21鄰","STREET":"大同街","SECT":" ","MAREA":" ","LANE":"３８０巷","ALLEY":"４１弄","HOUSE_NO":"２０號","E_COORD97":174867.45999999999,"N_COORD97":2546067.02,"ADDRESS":"大同街３８０巷４１弄２０號","OBJECTID":94322},"geometry":{"x":174867.46000000089,"y":2546067.0199999996}},{"attributes":{"ID":94323,"DIS_CODE":0,"TOWNNAME":"永康區","LI":"北灣里","LIN":"21鄰","STREET":"大同街","SECT":" ","MAREA":" ","LANE":"３８０巷","ALLEY":"３１弄","HOUSE_NO":"５號","E_COORD97":174805.73999999999,"N_COORD97":2546085.75,"ADDRESS":"大同街３８０巷３１弄５號","OBJECTID":94323},"geometry":{"x":174805.74000000022,"y":2546085.75}},{"attributes":{"ID":94324,"DIS_CODE":0,"TOWNNAME":"永康區","LI":"北灣里","LIN":"21鄰","STREET":"大同街","SECT":" ","MAREA":" ","LANE":"３８０巷","ALLEY":"３１弄","HOUSE_NO":"７號","E_COORD97":174809.13,"N_COORD97":2546086,"ADDRESS":"大同街３８０巷３１弄７號","OBJECTID":94324},"geometry":{"x":174809.13000000082,"y":2546086.0000000019}},{"attributes":{"ID":94325,"DIS_CODE":0,"TOWNNAME":"安南區","LI":"理想里","LIN":"21鄰","STREET":"大安街","SECT":" ","MAREA":" ","LANE":"４６１巷","ALLEY":"３７弄","HOUSE_NO":"２２之１１號","E_COORD97":167213.42000000001,"N_COORD97":2548628.1200000001,"ADDRESS":"大安街４６１巷３７弄２２之１１號","OBJECTID":94325},"geometry":{"x":167213.41999999993,"y":2548628.120000001}},{"attributes":{"ID":94326,"DIS_CODE":0,"TOWNNAME":"安南區","LI":"理想里","LIN":"21鄰","STREET":"大安街","SECT":" ","MAREA":" ","LANE":"４６１巷","ALLEY":"３７弄","HOUSE_NO":"２２之１８號","E_COORD97":167186.88,"N_COORD97":2548592.6600000001,"ADDRESS":"大安街４６１巷３７弄２２之１８號","OBJECTID":94326},"geometry":{"x":167186.88000000082,"y":2548592.6600000001}},{"attributes":{"ID":94327,"DIS_CODE":0,"TOWNNAME":"安南區","LI":"理想里","LIN":"21鄰","STREET":"大安街","SECT":" ","MAREA":" ","LANE":"４６１巷","ALLEY":"３７弄","HOUSE_NO":"２２之３號","E_COORD97":167239.27776500001,"N_COORD97":2548632.0440600002,"ADDRESS":"大安街４６１巷３７弄２２之３號","OBJECTID":94327},"geometry":{"x":167239.27776500024,"y":2548632.0440620035}},{"attributes":{"ID":94328,"DIS_CODE":0,"TOWNNAME":"安南區","LI":"理想里","LIN":"21鄰","STREET":"大安街","SECT":" ","MAREA":" ","LANE":"４６１巷","ALLEY":"３７弄","HOUSE_NO":"２２之５號","E_COORD97":167243.092214,"N_COORD97":2548636.7007300002,"ADDRESS":"大安街４６１巷３７弄２２之５號","OBJECTID":94328},"geometry":{"x":167243.09221400041,"y":2548636.7007260043}},{"attributes":{"ID":94329,"DIS_CODE":0,"TOWNNAME":"七股區","LI":"義合里","LIN":"10鄰","STREET":" ","SECT":" ","MAREA":"義合","LANE":" ","ALLEY":" ","HOUSE_NO":"７５之１３號","E_COORD97":161971.20000000001,"N_COORD97":2555710.7000000002,"ADDRESS":"義合７５之１３號","OBJECTID":94329},"geometry":{"x":161971.20000000112,"y":2555710.6999999993}},{"attributes":{"ID":94330,"DIS_CODE":0,"TOWNNAME":"安南區","LI":"理想里","LIN":"21鄰","STREET":"大安街","SECT":" ","MAREA":" ","LANE":"４６１巷","ALLEY":"３７弄","HOUSE_NO":"２２之７號","E_COORD97":167250.08537099999,"N_COORD97":2548647.2840499999,"ADDRESS":"大安街４６１巷３７弄２２之７號","OBJECTID":94330},"geometry":{"x":167250.08537100069,"y":2548647.2840539999}},{"attributes":{"ID":94331,"DIS_CODE":0,"TOWNNAME":"安南區","LI":"理想里","LIN":"21鄰","STREET":"大安街","SECT":" ","MAREA":" ","LANE":"４６１巷","ALLEY":"３７弄","HOUSE_NO":"２２之８號","E_COORD97":167255.383217,"N_COORD97":2548653.8457200001,"ADDRESS":"大安街４６１巷３７弄２２之８號","OBJECTID":94331},"geometry":{"x":167255.38321700133,"y":2548653.8457169998}},{"attributes":{"ID":94332,"DIS_CODE":0,"TOWNNAME":"安南區","LI":"理想里","LIN":"21鄰","STREET":"大安街","SECT":" ","MAREA":" ","LANE":"４６１巷","ALLEY":"３７弄","HOUSE_NO":"２２之９號","E_COORD97":167258.56192499999,"N_COORD97":2548658.9257100001,"ADDRESS":"大安街４６１巷３７弄２２之９號","OBJECTID":94332},"geometry":{"x":167258.56192499958,"y":2548658.9257140048}},{"attributes":{"ID":94333,"DIS_CODE":0,"TOWNNAME":"安南區","LI":"安富里","LIN":"21鄰","STREET":"郡安路","SECT":"五段","MAREA":" ","LANE":"１６４巷","ALLEY":"１１弄","HOUSE_NO":"１６號","E_COORD97":167728.60000000001,"N_COORD97":2547552.0299999998,"ADDRESS":"郡安路五段１６４巷１１弄１６號","OBJECTID":94333},"geometry":{"x":167728.59999999963,"y":2547552.0299999993}},{"attributes":{"ID":94334,"DIS_CODE":0,"TOWNNAME":"安南區","LI":"理想里","LIN":"21鄰","STREET":"大安街","SECT":" ","MAREA":" ","LANE":"４６１巷","ALLEY":"３７弄","HOUSE_NO":"２２之１２號","E_COORD97":167205.17000000001,"N_COORD97":2548618.8500000001,"ADDRESS":"大安街４６１巷３７弄２２之１２號","OBJECTID":94334},"geometry":{"x":167205.17000000179,"y":2548618.8500000034}},{"attributes":{"ID":94335,"DIS_CODE":0,"TOWNNAME":"安南區","LI":"理想里","LIN":"21鄰","STREET":"大安街","SECT":" ","MAREA":" ","LANE":"４６１巷","ALLEY":"３７弄","HOUSE_NO":"２２之１３號","E_COORD97":167199.57999999999,"N_COORD97":2548610.7200000002,"ADDRESS":"大安街４６１巷３７弄２２之１３號","OBJECTID":94335},"geometry":{"x":167199.58000000101,"y":2548610.7200000044}},{"attributes":{"ID":94336,"DIS_CODE":0,"TOWNNAME":"安南區","LI":"理想里","LIN":"21鄰","STREET":"大安街","SECT":" ","MAREA":" ","LANE":"４６１巷","ALLEY":"３７弄","HOUSE_NO":"２２之１５號","E_COORD97":167192.97,"N_COORD97":2548603.23,"ADDRESS":"大安街４６１巷３７弄２２之１５號","OBJECTID":94336},"geometry":{"x":167192.97000000067,"y":2548603.2300000004}},{"attributes":{"ID":94337,"DIS_CODE":0,"TOWNNAME":"中西區","LI":"大涼里","LIN":"21鄰","STREET":"府前一街","SECT":" ","MAREA":" ","LANE":"９巷","ALLEY":"１２弄","HOUSE_NO":"７３號","E_COORD97":166710.42000000001,"N_COORD97":2543890.7799999998,"ADDRESS":"府前一街９巷１２弄７３號","OBJECTID":94337},"geometry":{"x":166710.42000000086,"y":2543890.7800000012}},{"attributes":{"ID":94338,"DIS_CODE":0,"TOWNNAME":"左鎮區","LI":"中正里","LIN":"15鄰","STREET":" ","SECT":" ","MAREA":"中正","LANE":" ","ALLEY":" ","HOUSE_NO":"８９號","E_COORD97":189358.45999999999,"N_COORD97":2550911.25,"ADDRESS":"中正８９號","OBJECTID":94338},"geometry":{"x":189358.46000000089,"y":2550911.25}},{"attributes":{"ID":94339,"DIS_CODE":0,"TOWNNAME":"左鎮區","LI":"中正里","LIN":"15鄰","STREET":" ","SECT":" ","MAREA":"中正","LANE":" ","ALLEY":" ","HOUSE_NO":"８６號","E_COORD97":189367.06,"N_COORD97":2550919.25,"ADDRESS":"中正８６號","OBJECTID":94339},"geometry":{"x":189367.06000000052,"y":2550919.2500000019}},{"attributes":{"ID":94340,"DIS_CODE":0,"TOWNNAME":"左鎮區","LI":"中正里","LIN":"15鄰","STREET":" ","SECT":" ","MAREA":"中正","LANE":" ","ALLEY":" ","HOUSE_NO":"８４號","E_COORD97":189305.06,"N_COORD97":2550944.25,"ADDRESS":"中正８４號","OBJECTID":94340},"geometry":{"x":189305.05999999959,"y":2550944.25}},{"attributes":{"ID":94341,"DIS_CODE":0,"TOWNNAME":"左鎮區","LI":"中正里","LIN":"15鄰","STREET":" ","SECT":" ","MAREA":"中正","LANE":" ","ALLEY":" ","HOUSE_NO":"９０號","E_COORD97":189356.16,"N_COORD97":2550906.25,"ADDRESS":"中正９０號","OBJECTID":94341},"geometry":{"x":189356.16000000015,"y":2550906.2500000019}},{"attributes":{"ID":94342,"DIS_CODE":0,"TOWNNAME":"左鎮區","LI":"中正里","LIN":"15鄰","STREET":" ","SECT":" ","MAREA":"中正","LANE":" ","ALLEY":" ","HOUSE_NO":"９５號","E_COORD97":189340.45999999999,"N_COORD97":2550895.25,"ADDRESS":"中正９５號","OBJECTID":94342},"geometry":{"x":189340.45999999996,"y":2550895.2500000019}},{"attributes":{"ID":94343,"DIS_CODE":0,"TOWNNAME":"左鎮區","LI":"中正里","LIN":"15鄰","STREET":" ","SECT":" ","MAREA":"中正","LANE":" ","ALLEY":" ","HOUSE_NO":"８４號之１","E_COORD97":189310.5,"N_COORD97":2550947.2999999998,"ADDRESS":"中正８４號之１","OBJECTID":94343},"geometry":{"x":189310.50000000093,"y":2550947.3000000026}},{"attributes":{"ID":94344,"DIS_CODE":0,"TOWNNAME":"左鎮區","LI":"中正里","LIN":"15鄰","STREET":" ","SECT":" ","MAREA":"中正","LANE":" ","ALLEY":" ","HOUSE_NO":"９８號之２","E_COORD97":189330.03,"N_COORD97":2550888.2999999998,"ADDRESS":"中正９８號之２","OBJECTID":94344},"geometry":{"x":189330.03000000026,"y":2550888.2999999989}},{"attributes":{"ID":94345,"DIS_CODE":0,"TOWNNAME":"左鎮區","LI":"中正里","LIN":"15鄰","STREET":" ","SECT":" ","MAREA":"中正","LANE":" ","ALLEY":" ","HOUSE_NO":"９８號之１","E_COORD97":189319.39999999999,"N_COORD97":2550884.2999999998,"ADDRESS":"中正９８號之１","OBJECTID":94345},"geometry":{"x":189319.39999999944,"y":2550884.3000000007}},{"attributes":{"ID":94346,"DIS_CODE":0,"TOWNNAME":"左鎮區","LI":"中正里","LIN":"15鄰","STREET":" ","SECT":" ","MAREA":"中正","LANE":" ","ALLEY":" ","HOUSE_NO":"８５號","E_COORD97":189340.06,"N_COORD97":2550934.25,"ADDRESS":"中正８５號","OBJECTID":94346},"geometry":{"x":189340.06000000052,"y":2550934.25}},{"attributes":{"ID":94347,"DIS_CODE":0,"TOWNNAME":"左鎮區","LI":"中正里","LIN":"15鄰","STREET":" ","SECT":" ","MAREA":"中正","LANE":" ","ALLEY":" ","HOUSE_NO":"８４號之２","E_COORD97":189314.23000000001,"N_COORD97":2550950.2999999998,"ADDRESS":"中正８４號之２","OBJECTID":94347},"geometry":{"x":189314.23000000138,"y":2550950.3000000026}},{"attributes":{"ID":94348,"DIS_CODE":0,"TOWNNAME":"左鎮區","LI":"中正里","LIN":"15鄰","STREET":" ","SECT":" ","MAREA":"中正","LANE":" ","ALLEY":" ","HOUSE_NO":"１００號之１","E_COORD97":189287.45000000001,"N_COORD97":2550867.2999999998,"ADDRESS":"中正１００號之１","OBJECTID":94348},"geometry":{"x":189287.45000000112,"y":2550867.3000000007}},{"attributes":{"ID":94349,"DIS_CODE":0,"TOWNNAME":"左鎮區","LI":"中正里","LIN":"15鄰","STREET":" ","SECT":" ","MAREA":"中正","LANE":" ","ALLEY":" ","HOUSE_NO":"８５號之１","E_COORD97":189331.89999999999,"N_COORD97":2550955.2999999998,"ADDRESS":"中正８５號之１","OBJECTID":94349},"geometry":{"x":189331.9000000013,"y":2550955.3000000007}},{"attributes":{"ID":94350,"DIS_CODE":0,"TOWNNAME":"左鎮區","LI":"中正里","LIN":"15鄰","STREET":" ","SECT":" ","MAREA":"中正","LANE":" ","ALLEY":" ","HOUSE_NO":"８５號之２","E_COORD97":189328.92999999999,"N_COORD97":2550959.2999999998,"ADDRESS":"中正８５號之２","OBJECTID":94350},"geometry":{"x":189328.93000000063,"y":2550959.3000000007}},{"attributes":{"ID":94351,"DIS_CODE":0,"TOWNNAME":"左鎮區","LI":"中正里","LIN":"15鄰","STREET":" ","SECT":" ","MAREA":"中正","LANE":" ","ALLEY":" ","HOUSE_NO":"１００號之２","E_COORD97":189294.07999999999,"N_COORD97":2550871.2999999998,"ADDRESS":"中正１００號之２","OBJECTID":94351},"geometry":{"x":189294.07999999914,"y":2550871.2999999989}},{"attributes":{"ID":94352,"DIS_CODE":0,"TOWNNAME":"左鎮區","LI":"中正里","LIN":"15鄰","STREET":" ","SECT":" ","MAREA":"中正","LANE":" ","ALLEY":" ","HOUSE_NO":"９８號之３","E_COORD97":189301,"N_COORD97":2550880.0899999999,"ADDRESS":"中正９８號之３","OBJECTID":94352},"geometry":{"x":189301,"y":2550880.0900000017}},{"attributes":{"ID":94353,"DIS_CODE":0,"TOWNNAME":"七股區","LI":"頂山里","LIN":"10鄰","STREET":" ","SECT":" ","MAREA":"頂山","LANE":" ","ALLEY":" ","HOUSE_NO":"９６號","E_COORD97":158974.10000000001,"N_COORD97":2564469.7400000002,"ADDRESS":"頂山９６號","OBJECTID":94353},"geometry":{"x":158974.10000000056,"y":2564469.7400000002}},{"attributes":{"ID":94354,"DIS_CODE":0,"TOWNNAME":"七股區","LI":"頂山里","LIN":"10鄰","STREET":" ","SECT":" ","MAREA":"頂山","LANE":" ","ALLEY":" ","HOUSE_NO":"９７號","E_COORD97":158978.23000000001,"N_COORD97":2564457.7200000002,"ADDRESS":"頂山９７號","OBJECTID":94354},"geometry":{"x":158978.23000000045,"y":2564457.7200000025}},{"attributes":{"ID":94355,"DIS_CODE":0,"TOWNNAME":"七股區","LI":"頂山里","LIN":"10鄰","STREET":" ","SECT":" ","MAREA":"頂山","LANE":" ","ALLEY":" ","HOUSE_NO":"９８號","E_COORD97":158960.20999999999,"N_COORD97":2564376.6400000001,"ADDRESS":"頂山９８號","OBJECTID":94355},"geometry":{"x":158960.21000000089,"y":2564376.6400000043}},{"attributes":{"ID":94356,"DIS_CODE":0,"TOWNNAME":"七股區","LI":"頂山里","LIN":"10鄰","STREET":" ","SECT":" ","MAREA":"頂山","LANE":" ","ALLEY":" ","HOUSE_NO":"９９號之１","E_COORD97":158919.34,"N_COORD97":2564391.3300000001,"ADDRESS":"頂山９９號之１","OBJECTID":94356},"geometry":{"x":158919.33999999985,"y":2564391.3299999982}},{"attributes":{"ID":94357,"DIS_CODE":0,"TOWNNAME":"七股區","LI":"頂山里","LIN":"10鄰","STREET":" ","SECT":" ","MAREA":"頂山","LANE":" ","ALLEY":" ","HOUSE_NO":"９９號","E_COORD97":158937.64000000001,"N_COORD97":2564370.2200000002,"ADDRESS":"頂山９９號","OBJECTID":94357},"geometry":{"x":158937.64000000153,"y":2564370.2200000025}},{"attributes":{"ID":94358,"DIS_CODE":0,"TOWNNAME":"七股區","LI":"後港里","LIN":"10鄰","STREET":" ","SECT":" ","MAREA":"港西","LANE":" ","ALLEY":" ","HOUSE_NO":"１１號","E_COORD97":162459.03,"N_COORD97":2564969.7000000002,"ADDRESS":"港西１１號","OBJECTID":94358},"geometry":{"x":162459.03000000119,"y":2564969.6999999993}},{"attributes":{"ID":94359,"DIS_CODE":0,"TOWNNAME":"七股區","LI":"後港里","LIN":"10鄰","STREET":" ","SECT":" ","MAREA":"港西","LANE":" ","ALLEY":" ","HOUSE_NO":"１４號","E_COORD97":162449.17999999999,"N_COORD97":2564898.3399999999,"ADDRESS":"港西１４號","OBJECTID":94359},"geometry":{"x":162449.1799999997,"y":2564898.3399999999}},{"attributes":{"ID":94360,"DIS_CODE":0,"TOWNNAME":"七股區","LI":"後港里","LIN":"10鄰","STREET":" ","SECT":" ","MAREA":"港西","LANE":" ","ALLEY":" ","HOUSE_NO":"８號","E_COORD97":162517,"N_COORD97":2564948.1899999999,"ADDRESS":"港西８號","OBJECTID":94360},"geometry":{"x":162517,"y":2564948.1900000013}},{"attributes":{"ID":94361,"DIS_CODE":0,"TOWNNAME":"七股區","LI":"後港里","LIN":"10鄰","STREET":" ","SECT":" ","MAREA":"港西","LANE":" ","ALLEY":" ","HOUSE_NO":"９號","E_COORD97":162556.69,"N_COORD97":2564943.25,"ADDRESS":"港西９號","OBJECTID":94361},"geometry":{"x":162556.69000000041,"y":2564943.25}},{"attributes":{"ID":94362,"DIS_CODE":0,"TOWNNAME":"七股區","LI":"義合里","LIN":"10鄰","STREET":" ","SECT":" ","MAREA":"義合","LANE":" ","ALLEY":" ","HOUSE_NO":"７５號之１０","E_COORD97":161936.10000000001,"N_COORD97":2555708.2200000002,"ADDRESS":"義合７５號之１０","OBJECTID":94362},"geometry":{"x":161936.09999999963,"y":2555708.2200000025}},{"attributes":{"ID":94363,"DIS_CODE":0,"TOWNNAME":"七股區","LI":"義合里","LIN":"10鄰","STREET":" ","SECT":" ","MAREA":"義合","LANE":" ","ALLEY":" ","HOUSE_NO":"７５號之１１","E_COORD97":162088.07999999999,"N_COORD97":2555736.1200000001,"ADDRESS":"義合７５號之１１","OBJECTID":94363},"geometry":{"x":162088.08000000194,"y":2555736.1200000029}},{"attributes":{"ID":94364,"DIS_CODE":0,"TOWNNAME":"七股區","LI":"義合里","LIN":"10鄰","STREET":" ","SECT":" ","MAREA":"義合","LANE":" ","ALLEY":" ","HOUSE_NO":"７５號之１２","E_COORD97":162121.35999999999,"N_COORD97":2555731.2400000002,"ADDRESS":"義合７５號之１２","OBJECTID":94364},"geometry":{"x":162121.36000000034,"y":2555731.2400000021}},{"attributes":{"ID":94365,"DIS_CODE":0,"TOWNNAME":"七股區","LI":"義合里","LIN":"10鄰","STREET":" ","SECT":" ","MAREA":"義合","LANE":" ","ALLEY":" ","HOUSE_NO":"７５號之１３","E_COORD97":161971.20000000001,"N_COORD97":2555710.7000000002,"ADDRESS":"義合７５號之１３","OBJECTID":94365},"geometry":{"x":161971.20000000112,"y":2555710.6999999993}},{"attributes":{"ID":94366,"DIS_CODE":0,"TOWNNAME":"七股區","LI":"義合里","LIN":"10鄰","STREET":" ","SECT":" ","MAREA":"義合","LANE":" ","ALLEY":" ","HOUSE_NO":"７５號之１６","E_COORD97":162022.91,"N_COORD97":2555718.5800000001,"ADDRESS":"義合７５號之１６","OBJECTID":94366},"geometry":{"x":162022.91000000015,"y":2555718.5800000019}},{"attributes":{"ID":94367,"DIS_CODE":0,"TOWNNAME":"七股區","LI":"義合里","LIN":"10鄰","STREET":" ","SECT":" ","MAREA":"義合","LANE":" ","ALLEY":" ","HOUSE_NO":"７５號之１７","E_COORD97":162017.95999999999,"N_COORD97":2555717.4900000002,"ADDRESS":"義合７５號之１７","OBJECTID":94367},"geometry":{"x":162017.96000000089,"y":2555717.4900000002}},{"attributes":{"ID":94368,"DIS_CODE":0,"TOWNNAME":"七股區","LI":"義合里","LIN":"10鄰","STREET":" ","SECT":" ","MAREA":"義合","LANE":" ","ALLEY":" ","HOUSE_NO":"７５號之２０","E_COORD97":162038.10000000001,"N_COORD97":2555709.3999999999,"ADDRESS":"義合７５號之２０","OBJECTID":94368},"geometry":{"x":162038.09999999963,"y":2555709.4000000022}},{"attributes":{"ID":94369,"DIS_CODE":0,"TOWNNAME":"七股區","LI":"義合里","LIN":"10鄰","STREET":" ","SECT":" ","MAREA":"義合","LANE":" ","ALLEY":" ","HOUSE_NO":"７５號之２１","E_COORD97":162043.67999999999,"N_COORD97":2555710.27,"ADDRESS":"義合７５號之２１","OBJECTID":94369},"geometry":{"x":162043.68000000063,"y":2555710.2700000014}},{"attributes":{"ID":94370,"DIS_CODE":0,"TOWNNAME":"七股區","LI":"義合里","LIN":"10鄰","STREET":" ","SECT":" ","MAREA":"義合","LANE":" ","ALLEY":" ","HOUSE_NO":"７５號之２２","E_COORD97":162053.72,"N_COORD97":2555712.9700000002,"ADDRESS":"義合７５號之２２","OBJECTID":94370},"geometry":{"x":162053.72000000067,"y":2555712.9700000025}},{"attributes":{"ID":94371,"DIS_CODE":0,"TOWNNAME":"中西區","LI":"大涼里","LIN":"21鄰","STREET":"府前一街","SECT":" ","MAREA":" ","LANE":"９巷","ALLEY":"１２弄","HOUSE_NO":"４７號","E_COORD97":166729.79000000001,"N_COORD97":2543841.8799999999,"ADDRESS":"府前一街９巷１２弄４７號","OBJECTID":94371},"geometry":{"x":166729.7900000019,"y":2543841.8800000008}},{"attributes":{"ID":94372,"DIS_CODE":0,"TOWNNAME":"七股區","LI":"義合里","LIN":"10鄰","STREET":" ","SECT":" ","MAREA":"義合","LANE":" ","ALLEY":" ","HOUSE_NO":"７５號之２３","E_COORD97":162058.81,"N_COORD97":2555713.9700000002,"ADDRESS":"義合７５號之２３","OBJECTID":94372},"geometry":{"x":162058.80999999866,"y":2555713.9700000007}},{"attributes":{"ID":94373,"DIS_CODE":0,"TOWNNAME":"七股區","LI":"義合里","LIN":"10鄰","STREET":" ","SECT":" ","MAREA":"義合","LANE":" ","ALLEY":" ","HOUSE_NO":"７５號之２４","E_COORD97":162050.56,"N_COORD97":2555719.7999999998,"ADDRESS":"義合７５號之２４","OBJECTID":94373},"geometry":{"x":162050.56000000145,"y":2555719.8000000045}},{"attributes":{"ID":94374,"DIS_CODE":0,"TOWNNAME":"七股區","LI":"義合里","LIN":"10鄰","STREET":" ","SECT":" ","MAREA":"義合","LANE":" ","ALLEY":" ","HOUSE_NO":"７５號之２５","E_COORD97":162049.04999999999,"N_COORD97":2555725.9500000002,"ADDRESS":"義合７５號之２５","OBJECTID":94374},"geometry":{"x":162049.05000000168,"y":2555725.9499999993}},{"attributes":{"ID":94375,"DIS_CODE":0,"TOWNNAME":"七股區","LI":"義合里","LIN":"10鄰","STREET":" ","SECT":" ","MAREA":"義合","LANE":" ","ALLEY":" ","HOUSE_NO":"７５號之２６","E_COORD97":162047.64000000001,"N_COORD97":2555732.2999999998,"ADDRESS":"義合７５號之２６","OBJECTID":94375},"geometry":{"x":162047.63999999966,"y":2555732.3000000007}},{"attributes":{"ID":94376,"DIS_CODE":0,"TOWNNAME":"七股區","LI":"義合里","LIN":"10鄰","STREET":" ","SECT":" ","MAREA":"義合","LANE":" ","ALLEY":" ","HOUSE_NO":"７５號之２７","E_COORD97":162046.32999999999,"N_COORD97":2555738.6000000001,"ADDRESS":"義合７５號之２７","OBJECTID":94376},"geometry":{"x":162046.33000000101,"y":2555738.6000000015}},{"attributes":{"ID":94377,"DIS_CODE":0,"TOWNNAME":"七股區","LI":"義合里","LIN":"10鄰","STREET":" ","SECT":" ","MAREA":"義合","LANE":" ","ALLEY":" ","HOUSE_NO":"７５號之２９","E_COORD97":162043.41,"N_COORD97":2555751.27,"ADDRESS":"義合７５號之２９","OBJECTID":94377},"geometry":{"x":162043.41000000015,"y":2555751.2699999996}},{"attributes":{"ID":94378,"DIS_CODE":0,"TOWNNAME":"七股區","LI":"義合里","LIN":"10鄰","STREET":" ","SECT":" ","MAREA":"義合","LANE":" ","ALLEY":" ","HOUSE_NO":"７５號之３０","E_COORD97":162041.92000000001,"N_COORD97":2555757.7000000002,"ADDRESS":"義合７５號之３０","OBJECTID":94378},"geometry":{"x":162041.92000000086,"y":2555757.7000000011}},{"attributes":{"ID":94379,"DIS_CODE":0,"TOWNNAME":"七股區","LI":"義合里","LIN":"10鄰","STREET":" ","SECT":" ","MAREA":"義合","LANE":" ","ALLEY":" ","HOUSE_NO":"７５號之３１","E_COORD97":162040.35000000001,"N_COORD97":2555763.98,"ADDRESS":"義合７５號之３１","OBJECTID":94379},"geometry":{"x":162040.35000000056,"y":2555763.9800000023}},{"attributes":{"ID":94380,"DIS_CODE":0,"TOWNNAME":"七股區","LI":"義合里","LIN":"10鄰","STREET":" ","SECT":" ","MAREA":"義合","LANE":" ","ALLEY":" ","HOUSE_NO":"７５號之３２","E_COORD97":162044.75,"N_COORD97":2555777.5099999998,"ADDRESS":"義合７５號之３２","OBJECTID":94380},"geometry":{"x":162044.75000000093,"y":2555777.5099999998}},{"attributes":{"ID":94381,"DIS_CODE":0,"TOWNNAME":"七股區","LI":"義合里","LIN":"10鄰","STREET":" ","SECT":" ","MAREA":"義合","LANE":" ","ALLEY":" ","HOUSE_NO":"７５號之３３","E_COORD97":162040.64000000001,"N_COORD97":2555776.7000000002,"ADDRESS":"義合７５號之３３","OBJECTID":94381},"geometry":{"x":162040.6400000006,"y":2555776.700000003}},{"attributes":{"ID":94382,"DIS_CODE":0,"TOWNNAME":"七股區","LI":"義合里","LIN":"10鄰","STREET":" ","SECT":" ","MAREA":"義合","LANE":" ","ALLEY":" ","HOUSE_NO":"７５號之３４","E_COORD97":162036.63,"N_COORD97":2555775.8199999998,"ADDRESS":"義合７５號之３４","OBJECTID":94382},"geometry":{"x":162036.62999999896,"y":2555775.8200000003}},{"attributes":{"ID":94383,"DIS_CODE":0,"TOWNNAME":"七股區","LI":"義合里","LIN":"10鄰","STREET":" ","SECT":" ","MAREA":"義合","LANE":" ","ALLEY":" ","HOUSE_NO":"７５號之３５","E_COORD97":162032.22,"N_COORD97":2555774.8799999999,"ADDRESS":"義合７５號之３５","OBJECTID":94383},"geometry":{"x":162032.21999999974,"y":2555774.8800000027}},{"attributes":{"ID":94384,"DIS_CODE":0,"TOWNNAME":"七股區","LI":"義合里","LIN":"10鄰","STREET":" ","SECT":" ","MAREA":"義合","LANE":" ","ALLEY":" ","HOUSE_NO":"７５號之３６","E_COORD97":162027.76000000001,"N_COORD97":2555773.7200000002,"ADDRESS":"義合７５號之３６","OBJECTID":94384},"geometry":{"x":162027.76000000071,"y":2555773.7200000007}},{"attributes":{"ID":94385,"DIS_CODE":0,"TOWNNAME":"七股區","LI":"十份里","LIN":"1鄰","STREET":" ","SECT":" ","MAREA":"十份","LANE":" ","ALLEY":" ","HOUSE_NO":"１２號","E_COORD97":158287.20000000001,"N_COORD97":2555332.4700000002,"ADDRESS":"十份１２號","OBJECTID":94385},"geometry":{"x":158287.20000000112,"y":2555332.4700000025}},{"attributes":{"ID":94386,"DIS_CODE":0,"TOWNNAME":"七股區","LI":"義合里","LIN":"10鄰","STREET":" ","SECT":" ","MAREA":"義合","LANE":" ","ALLEY":" ","HOUSE_NO":"７５號之３７","E_COORD97":162024.23000000001,"N_COORD97":2555773.1800000002,"ADDRESS":"義合７５號之３７","OBJECTID":94386},"geometry":{"x":162024.23000000045,"y":2555773.1799999997}},{"attributes":{"ID":94387,"DIS_CODE":0,"TOWNNAME":"七股區","LI":"義合里","LIN":"10鄰","STREET":" ","SECT":" ","MAREA":"義合","LANE":" ","ALLEY":" ","HOUSE_NO":"７５號之３８","E_COORD97":162024.54000000001,"N_COORD97":2555760.7599999998,"ADDRESS":"義合７５號之３８","OBJECTID":94387},"geometry":{"x":162024.54000000097,"y":2555760.7600000016}},{"attributes":{"ID":94388,"DIS_CODE":0,"TOWNNAME":"七股區","LI":"義合里","LIN":"10鄰","STREET":" ","SECT":" ","MAREA":"義合","LANE":" ","ALLEY":" ","HOUSE_NO":"７５號之３９","E_COORD97":162026.04000000001,"N_COORD97":2555754.1699999999,"ADDRESS":"義合７５號之３９","OBJECTID":94388},"geometry":{"x":162026.04000000097,"y":2555754.1700000018}},{"attributes":{"ID":94389,"DIS_CODE":0,"TOWNNAME":"七股區","LI":"義合里","LIN":"10鄰","STREET":" ","SECT":" ","MAREA":"義合","LANE":" ","ALLEY":" ","HOUSE_NO":"７５號之３","E_COORD97":161984.48000000001,"N_COORD97":2555761.6800000002,"ADDRESS":"義合７５號之３","OBJECTID":94389},"geometry":{"x":161984.48000000138,"y":2555761.6800000016}},{"attributes":{"ID":94390,"DIS_CODE":0,"TOWNNAME":"七股區","LI":"義合里","LIN":"10鄰","STREET":" ","SECT":" ","MAREA":"義合","LANE":" ","ALLEY":" ","HOUSE_NO":"７５號之４０","E_COORD97":162027.57999999999,"N_COORD97":2555747.8799999999,"ADDRESS":"義合７５號之４０","OBJECTID":94390},"geometry":{"x":162027.58000000101,"y":2555747.8800000027}},{"attributes":{"ID":94391,"DIS_CODE":0,"TOWNNAME":"七股區","LI":"義合里","LIN":"10鄰","STREET":" ","SECT":" ","MAREA":"義合","LANE":" ","ALLEY":" ","HOUSE_NO":"７５號之４１","E_COORD97":162029,"N_COORD97":2555741.6000000001,"ADDRESS":"義合７５號之４１","OBJECTID":94391},"geometry":{"x":162029,"y":2555741.6000000015}},{"attributes":{"ID":94392,"DIS_CODE":0,"TOWNNAME":"七股區","LI":"義合里","LIN":"10鄰","STREET":" ","SECT":" ","MAREA":"義合","LANE":" ","ALLEY":" ","HOUSE_NO":"７５號之４２","E_COORD97":162030.45999999999,"N_COORD97":2555735.2400000002,"ADDRESS":"義合７５號之４２","OBJECTID":94392},"geometry":{"x":162030.45999999996,"y":2555735.2400000002}},{"attributes":{"ID":94393,"DIS_CODE":0,"TOWNNAME":"七股區","LI":"義合里","LIN":"10鄰","STREET":" ","SECT":" ","MAREA":"義合","LANE":" ","ALLEY":" ","HOUSE_NO":"７５號之４３","E_COORD97":162031.76000000001,"N_COORD97":2555728.8700000001,"ADDRESS":"義合７５號之４３","OBJECTID":94393},"geometry":{"x":162031.75999999978,"y":2555728.870000001}},{"attributes":{"ID":94394,"DIS_CODE":0,"TOWNNAME":"七股區","LI":"義合里","LIN":"10鄰","STREET":" ","SECT":" ","MAREA":"義合","LANE":" ","ALLEY":" ","HOUSE_NO":"７５號之４５","E_COORD97":162033.19,"N_COORD97":2555722.4300000002,"ADDRESS":"義合７５號之４５","OBJECTID":94394},"geometry":{"x":162033.19000000041,"y":2555722.4300000016}},{"attributes":{"ID":94395,"DIS_CODE":0,"TOWNNAME":"七股區","LI":"義合里","LIN":"10鄰","STREET":" ","SECT":" ","MAREA":"義合","LANE":" ","ALLEY":" ","HOUSE_NO":"７５號之４６","E_COORD97":162034.70999999999,"N_COORD97":2555716.29,"ADDRESS":"義合７５號之４６","OBJECTID":94395},"geometry":{"x":162034.71000000089,"y":2555716.290000001}},{"attributes":{"ID":94396,"DIS_CODE":0,"TOWNNAME":"七股區","LI":"義合里","LIN":"10鄰","STREET":" ","SECT":" ","MAREA":"義合","LANE":" ","ALLEY":" ","HOUSE_NO":"７５號之４","E_COORD97":161992.23999999999,"N_COORD97":2555727.5699999998,"ADDRESS":"義合７５號之４","OBJECTID":94396},"geometry":{"x":161992.24000000209,"y":2555727.570000004}},{"attributes":{"ID":94397,"DIS_CODE":0,"TOWNNAME":"七股區","LI":"義合里","LIN":"10鄰","STREET":" ","SECT":" ","MAREA":"義合","LANE":" ","ALLEY":" ","HOUSE_NO":"７５號之７","E_COORD97":162066.92999999999,"N_COORD97":2555771.5099999998,"ADDRESS":"義合７５號之７","OBJECTID":94397},"geometry":{"x":162066.93000000063,"y":2555771.5100000035}},{"attributes":{"ID":94398,"DIS_CODE":0,"TOWNNAME":"七股區","LI":"義合里","LIN":"10鄰","STREET":" ","SECT":" ","MAREA":"義合","LANE":" ","ALLEY":" ","HOUSE_NO":"７５號之８","E_COORD97":161917.13,"N_COORD97":2555679.75,"ADDRESS":"義合７５號之８","OBJECTID":94398},"geometry":{"x":161917.13000000082,"y":2555679.7500000019}},{"attributes":{"ID":94399,"DIS_CODE":0,"TOWNNAME":"七股區","LI":"義合里","LIN":"10鄰","STREET":" ","SECT":" ","MAREA":"義合","LANE":" ","ALLEY":" ","HOUSE_NO":"７５號之９","E_COORD97":161931.28,"N_COORD97":2555708.1400000001,"ADDRESS":"義合７５號之９","OBJECTID":94399},"geometry":{"x":161931.28000000119,"y":2555708.1400000025}},{"attributes":{"ID":94400,"DIS_CODE":0,"TOWNNAME":"七股區","LI":"義合里","LIN":"10鄰","STREET":" ","SECT":" ","MAREA":"義合","LANE":" ","ALLEY":" ","HOUSE_NO":"７５號","E_COORD97":161911.66,"N_COORD97":2555724.0600000001,"ADDRESS":"義合７５號","OBJECTID":94400},"geometry":{"x":161911.66000000108,"y":2555724.0600000005}}]}