{"displayFieldName":"TOWNNAME","fieldAliases":{"ID":"ID","DIS_CODE":"DIS_CODE","TOWNNAME":"TOWNNAME","LI":"LI","LIN":"LIN","STREET":"STREET","SECT":"SECT","MAREA":"MAREA","LANE":"LANE","ALLEY":"ALLEY","HOUSE_NO":"HOUSE_NO","E_COORD97":"E_COORD97","N_COORD97":"N_COORD97","ADDRESS":"ADDRESS","OBJECTID":"OBJECTID"},"geometryType":"esriGeometryPoint","spatialReference":{"wkid":102443,"latestWkid":3826},"fields":[{"name":"ID","type":"esriFieldTypeDouble","alias":"ID"},{"name":"DIS_CODE","type":"esriFieldTypeInteger","alias":"DIS_CODE"},{"name":"TOWNNAME","type":"esriFieldTypeString","alias":"TOWNNAME","length":8},{"name":"LI","type":"esriFieldTypeString","alias":"LI","length":8},{"name":"LIN","type":"esriFieldTypeString","alias":"LIN","length":12},{"name":"STREET","type":"esriFieldTypeString","alias":"STREET","length":20},{"name":"SECT","type":"esriFieldTypeString","alias":"SECT","length":8},{"name":"MAREA","type":"esriFieldTypeString","alias":"MAREA","length":12},{"name":"LANE","type":"esriFieldTypeString","alias":"LANE","length":10},{"name":"ALLEY","type":"esriFieldTypeString","alias":"ALLEY","length":10},{"name":"HOUSE_NO","type":"esriFieldTypeString","alias":"HOUSE_NO","length":20},{"name":"E_COORD97","type":"esriFieldTypeDouble","alias":"E_COORD97"},{"name":"N_COORD97","type":"esriFieldTypeDouble","alias":"N_COORD97"},{"name":"ADDRESS","type":"esriFieldTypeString","alias":"ADDRESS","length":50},{"name":"OBJECTID","type":"esriFieldTypeOID","alias":"OBJECTID"}],"features":[{"attributes":{"ID":281407,"DIS_CODE":0,"TOWNNAME":"安南區","LI":"四草里","LIN":"1鄰","STREET":"大眾六街","SECT":" ","MAREA":" ","LANE":" ","ALLEY":" ","HOUSE_NO":"１０２號","E_COORD97":160470.82270799999,"N_COORD97":2546597.4173900001,"ADDRESS":"大眾六街１０２號","OBJECTID":281401},"geometry":{"x":160470.82270800136,"y":2546597.4173880015}},{"attributes":{"ID":281408,"DIS_CODE":0,"TOWNNAME":"安南區","LI":"溪心里","LIN":"6鄰","STREET":"本原街","SECT":"二段","MAREA":" ","LANE":"１１６巷","ALLEY":" ","HOUSE_NO":"４５號","E_COORD97":166731.69,"N_COORD97":2550966.27,"ADDRESS":"本原街二段１１６巷４５號","OBJECTID":281402},"geometry":{"x":166731.69000000134,"y":2550966.2700000014}},{"attributes":{"ID":281409,"DIS_CODE":0,"TOWNNAME":"鹽水區","LI":"田寮里","LIN":"2鄰","STREET":" ","SECT":" ","MAREA":"田寮","LANE":" ","ALLEY":" ","HOUSE_NO":"２３號","E_COORD97":170954.14000000001,"N_COORD97":2575070.8399999999,"ADDRESS":"田寮２３號","OBJECTID":281403},"geometry":{"x":170954.13999999966,"y":2575070.8400000036}},{"attributes":{"ID":281410,"DIS_CODE":0,"TOWNNAME":"鹽水區","LI":"田寮里","LIN":"2鄰","STREET":" ","SECT":" ","MAREA":"田寮","LANE":" ","ALLEY":" ","HOUSE_NO":"２４號","E_COORD97":170945.53,"N_COORD97":2575055.1800000002,"ADDRESS":"田寮２４號","OBJECTID":281404},"geometry":{"x":170945.53000000026,"y":2575055.1800000016}},{"attributes":{"ID":281411,"DIS_CODE":0,"TOWNNAME":"南區","LI":"建南里","LIN":"2鄰","STREET":"中華南路","SECT":"二段","MAREA":" ","LANE":" ","ALLEY":" ","HOUSE_NO":"６７號","E_COORD97":167317.81,"N_COORD97":2540284.5099999998,"ADDRESS":"中華南路二段６７號","OBJECTID":281405},"geometry":{"x":167317.81000000052,"y":2540284.5100000035}},{"attributes":{"ID":281412,"DIS_CODE":0,"TOWNNAME":"安南區","LI":"溪心里","LIN":"6鄰","STREET":"本原街","SECT":"二段","MAREA":" ","LANE":"１１６巷","ALLEY":" ","HOUSE_NO":"４９號","E_COORD97":166732.87,"N_COORD97":2550979.9700000002,"ADDRESS":"本原街二段１１６巷４９號","OBJECTID":281406},"geometry":{"x":166732.87000000104,"y":2550979.9700000025}},{"attributes":{"ID":281413,"DIS_CODE":0,"TOWNNAME":"鹽水區","LI":"田寮里","LIN":"2鄰","STREET":" ","SECT":" ","MAREA":"田寮","LANE":" ","ALLEY":" ","HOUSE_NO":"２５號之１","E_COORD97":170592.39000000001,"N_COORD97":2574815.0600000001,"ADDRESS":"田寮２５號之１","OBJECTID":281407},"geometry":{"x":170592.3900000006,"y":2574815.0600000005}},{"attributes":{"ID":281414,"DIS_CODE":0,"TOWNNAME":"鹽水區","LI":"田寮里","LIN":"2鄰","STREET":" ","SECT":" ","MAREA":"田寮","LANE":" ","ALLEY":" ","HOUSE_NO":"２５號","E_COORD97":170909.28,"N_COORD97":2575052.0899999999,"ADDRESS":"田寮２５號","OBJECTID":281408},"geometry":{"x":170909.28000000119,"y":2575052.0900000036}},{"attributes":{"ID":281415,"DIS_CODE":0,"TOWNNAME":"鹽水區","LI":"岸內里","LIN":"2鄰","STREET":" ","SECT":" ","MAREA":"岸內","LANE":" ","ALLEY":" ","HOUSE_NO":"４７號","E_COORD97":174781.85999999999,"N_COORD97":2581473.6800000002,"ADDRESS":"岸內４７號","OBJECTID":281409},"geometry":{"x":174781.8600000022,"y":2581473.6800000016}},{"attributes":{"ID":281416,"DIS_CODE":0,"TOWNNAME":"鹽水區","LI":"岸內里","LIN":"2鄰","STREET":" ","SECT":" ","MAREA":"岸內","LANE":" ","ALLEY":" ","HOUSE_NO":"３９號","E_COORD97":174725.41,"N_COORD97":2581511.8300000001,"ADDRESS":"岸內３９號","OBJECTID":281410},"geometry":{"x":174725.41000000201,"y":2581511.8300000001}},{"attributes":{"ID":281417,"DIS_CODE":0,"TOWNNAME":"鹽水區","LI":"岸內里","LIN":"2鄰","STREET":" ","SECT":" ","MAREA":"岸內","LANE":" ","ALLEY":" ","HOUSE_NO":"４０號","E_COORD97":174746.45000000001,"N_COORD97":2581523.5899999999,"ADDRESS":"岸內４０號","OBJECTID":281411},"geometry":{"x":174746.45000000019,"y":2581523.5899999999}},{"attributes":{"ID":281418,"DIS_CODE":0,"TOWNNAME":"鹽水區","LI":"岸內里","LIN":"2鄰","STREET":" ","SECT":" ","MAREA":"岸內","LANE":" ","ALLEY":" ","HOUSE_NO":"４１號","E_COORD97":174762.67000000001,"N_COORD97":2581538.1899999999,"ADDRESS":"岸內４１號","OBJECTID":281412},"geometry":{"x":174762.67000000086,"y":2581538.1900000013}},{"attributes":{"ID":281419,"DIS_CODE":0,"TOWNNAME":"安南區","LI":"四草里","LIN":"1鄰","STREET":"大眾六街","SECT":" ","MAREA":" ","LANE":" ","ALLEY":" ","HOUSE_NO":"１０３號","E_COORD97":160446.46667299999,"N_COORD97":2546580.4840600002,"ADDRESS":"大眾六街１０３號","OBJECTID":281413},"geometry":{"x":160446.46667299978,"y":2546580.4840630013}},{"attributes":{"ID":281420,"DIS_CODE":0,"TOWNNAME":"安南區","LI":"溪心里","LIN":"6鄰","STREET":"本原街","SECT":"二段","MAREA":" ","LANE":"１１６巷","ALLEY":" ","HOUSE_NO":"５１號","E_COORD97":166733.04000000001,"N_COORD97":2550984.2000000002,"ADDRESS":"本原街二段１１６巷５１號","OBJECTID":281414},"geometry":{"x":166733.03999999911,"y":2550984.2000000011}},{"attributes":{"ID":281421,"DIS_CODE":0,"TOWNNAME":"安南區","LI":"溪心里","LIN":"6鄰","STREET":"本原街","SECT":"二段","MAREA":" ","LANE":"１１６巷","ALLEY":" ","HOUSE_NO":"５３號","E_COORD97":166732.20000000001,"N_COORD97":2550987.75,"ADDRESS":"本原街二段１１６巷５３號","OBJECTID":281415},"geometry":{"x":166732.20000000205,"y":2550987.7500000019}},{"attributes":{"ID":281422,"DIS_CODE":0,"TOWNNAME":"安南區","LI":"溪心里","LIN":"6鄰","STREET":"本原街","SECT":"二段","MAREA":" ","LANE":"１１６巷","ALLEY":" ","HOUSE_NO":"５５號","E_COORD97":166731.69,"N_COORD97":2550991.98,"ADDRESS":"本原街二段１１６巷５５號","OBJECTID":281416},"geometry":{"x":166731.69000000134,"y":2550991.9800000042}},{"attributes":{"ID":281423,"DIS_CODE":0,"TOWNNAME":"安南區","LI":"溪心里","LIN":"6鄰","STREET":"本原街","SECT":"二段","MAREA":" ","LANE":"１１６巷","ALLEY":" ","HOUSE_NO":"５７號","E_COORD97":166732.45999999999,"N_COORD97":2550996.8799999999,"ADDRESS":"本原街二段１１６巷５７號","OBJECTID":281417},"geometry":{"x":166732.46000000089,"y":2550996.879999999}},{"attributes":{"ID":281424,"DIS_CODE":0,"TOWNNAME":"仁德區","LI":"仁義里","LIN":"34鄰","STREET":"正義二街","SECT":" ","MAREA":" ","LANE":" ","ALLEY":" ","HOUSE_NO":"１５１號七樓","E_COORD97":173794.29999999999,"N_COORD97":2541595.0099999998,"ADDRESS":"正義二街１５１號七樓","OBJECTID":281418},"geometry":{"x":173794.29999999981,"y":2541595.0099999998}},{"attributes":{"ID":281425,"DIS_CODE":0,"TOWNNAME":"鹽水區","LI":"岸內里","LIN":"2鄰","STREET":" ","SECT":" ","MAREA":"岸內","LANE":" ","ALLEY":" ","HOUSE_NO":"４２號","E_COORD97":174775.42000000001,"N_COORD97":2581553.5699999998,"ADDRESS":"岸內４２號","OBJECTID":281419},"geometry":{"x":174775.41999999993,"y":2581553.5700000022}},{"attributes":{"ID":281426,"DIS_CODE":0,"TOWNNAME":"鹽水區","LI":"岸內里","LIN":"2鄰","STREET":" ","SECT":" ","MAREA":"岸內","LANE":" ","ALLEY":" ","HOUSE_NO":"４８之１號","E_COORD97":174811.85999999999,"N_COORD97":2581461.6800000002,"ADDRESS":"岸內４８之１號","OBJECTID":281420},"geometry":{"x":174811.86000000034,"y":2581461.6799999997}},{"attributes":{"ID":281427,"DIS_CODE":0,"TOWNNAME":"鹽水區","LI":"岸內里","LIN":"2鄰","STREET":" ","SECT":" ","MAREA":"岸內","LANE":" ","ALLEY":" ","HOUSE_NO":"４８號之１","E_COORD97":174811.85999999999,"N_COORD97":2581461.6800000002,"ADDRESS":"岸內４８號之１","OBJECTID":281421},"geometry":{"x":174811.86000000034,"y":2581461.6799999997}},{"attributes":{"ID":281428,"DIS_CODE":0,"TOWNNAME":"鹽水區","LI":"岸內里","LIN":"2鄰","STREET":" ","SECT":" ","MAREA":"岸內","LANE":" ","ALLEY":" ","HOUSE_NO":"４８號之２","E_COORD97":174917.95000000001,"N_COORD97":2581453,"ADDRESS":"岸內４８號之２","OBJECTID":281422},"geometry":{"x":174917.95000000019,"y":2581453}},{"attributes":{"ID":281429,"DIS_CODE":0,"TOWNNAME":"鹽水區","LI":"岸內里","LIN":"2鄰","STREET":" ","SECT":" ","MAREA":"岸內","LANE":" ","ALLEY":" ","HOUSE_NO":"４８號之３","E_COORD97":174820.51999999999,"N_COORD97":2581461.52,"ADDRESS":"岸內４８號之３","OBJECTID":281423},"geometry":{"x":174820.52000000142,"y":2581461.5200000014}},{"attributes":{"ID":281430,"DIS_CODE":0,"TOWNNAME":"鹽水區","LI":"岸內里","LIN":"2鄰","STREET":" ","SECT":" ","MAREA":"岸內","LANE":" ","ALLEY":" ","HOUSE_NO":"４８號","E_COORD97":174807.38,"N_COORD97":2581480.54,"ADDRESS":"岸內４８號","OBJECTID":281424},"geometry":{"x":174807.38000000082,"y":2581480.540000001}},{"attributes":{"ID":281431,"DIS_CODE":0,"TOWNNAME":"鹽水區","LI":"岸內里","LIN":"2鄰","STREET":" ","SECT":" ","MAREA":"岸內","LANE":" ","ALLEY":" ","HOUSE_NO":"４９號","E_COORD97":174812.23999999999,"N_COORD97":2581494.2799999998,"ADDRESS":"岸內４９號","OBJECTID":281425},"geometry":{"x":174812.24000000022,"y":2581494.2799999993}},{"attributes":{"ID":281432,"DIS_CODE":0,"TOWNNAME":"鹽水區","LI":"後宅里","LIN":"2鄰","STREET":" ","SECT":" ","MAREA":"後寮","LANE":" ","ALLEY":" ","HOUSE_NO":"１３號","E_COORD97":173532.79999999999,"N_COORD97":2578555.6699999999,"ADDRESS":"後寮１３號","OBJECTID":281426},"geometry":{"x":173532.80000000075,"y":2578555.6700000018}},{"attributes":{"ID":281433,"DIS_CODE":0,"TOWNNAME":"鹽水區","LI":"後宅里","LIN":"2鄰","STREET":" ","SECT":" ","MAREA":"後寮","LANE":" ","ALLEY":" ","HOUSE_NO":"１７號","E_COORD97":173485.70999999999,"N_COORD97":2578569.46,"ADDRESS":"後寮１７號","OBJECTID":281427},"geometry":{"x":173485.71000000183,"y":2578569.4600000009}},{"attributes":{"ID":281434,"DIS_CODE":0,"TOWNNAME":"安南區","LI":"溪心里","LIN":"6鄰","STREET":"本原街","SECT":"二段","MAREA":" ","LANE":"１１６巷","ALLEY":" ","HOUSE_NO":"５９號","E_COORD97":166761.51999999999,"N_COORD97":2550977.1699999999,"ADDRESS":"本原街二段１１６巷５９號","OBJECTID":281428},"geometry":{"x":166761.51999999862,"y":2550977.1700000018}},{"attributes":{"ID":281435,"DIS_CODE":0,"TOWNNAME":"鹽水區","LI":"後宅里","LIN":"2鄰","STREET":" ","SECT":" ","MAREA":"後寮","LANE":" ","ALLEY":" ","HOUSE_NO":"１８之１號","E_COORD97":173458.87,"N_COORD97":2578514.8700000001,"ADDRESS":"後寮１８之１號","OBJECTID":281429},"geometry":{"x":173458.87000000011,"y":2578514.870000001}},{"attributes":{"ID":281436,"DIS_CODE":0,"TOWNNAME":"鹽水區","LI":"後宅里","LIN":"2鄰","STREET":" ","SECT":" ","MAREA":"後寮","LANE":" ","ALLEY":" ","HOUSE_NO":"１８號","E_COORD97":173448.51000000001,"N_COORD97":2578515.0299999998,"ADDRESS":"後寮１８號","OBJECTID":281430},"geometry":{"x":173448.51000000071,"y":2578515.0300000012}},{"attributes":{"ID":281437,"DIS_CODE":0,"TOWNNAME":"鹽水區","LI":"後宅里","LIN":"2鄰","STREET":" ","SECT":" ","MAREA":"後寮","LANE":" ","ALLEY":" ","HOUSE_NO":"１９之１號","E_COORD97":173428.26000000001,"N_COORD97":2578514.0499999998,"ADDRESS":"後寮１９之１號","OBJECTID":281431},"geometry":{"x":173428.25999999978,"y":2578514.0500000007}},{"attributes":{"ID":281438,"DIS_CODE":0,"TOWNNAME":"鹽水區","LI":"後宅里","LIN":"2鄰","STREET":" ","SECT":" ","MAREA":"後寮","LANE":" ","ALLEY":" ","HOUSE_NO":"１９號","E_COORD97":173448.38,"N_COORD97":2578503.8700000001,"ADDRESS":"後寮１９號","OBJECTID":281432},"geometry":{"x":173448.37999999989,"y":2578503.8700000029}},{"attributes":{"ID":281439,"DIS_CODE":0,"TOWNNAME":"鹽水區","LI":"後宅里","LIN":"2鄰","STREET":" ","SECT":" ","MAREA":"後寮","LANE":" ","ALLEY":" ","HOUSE_NO":"２０號","E_COORD97":173466.51000000001,"N_COORD97":2578518.6299999999,"ADDRESS":"後寮２０號","OBJECTID":281433},"geometry":{"x":173466.51000000164,"y":2578518.629999999}},{"attributes":{"ID":281440,"DIS_CODE":0,"TOWNNAME":"鹽水區","LI":"孫厝里","LIN":"2鄰","STREET":" ","SECT":" ","MAREA":"孫厝寮","LANE":" ","ALLEY":" ","HOUSE_NO":"１０號","E_COORD97":170564.73000000001,"N_COORD97":2576995.1800000002,"ADDRESS":"孫厝寮１０號","OBJECTID":281434},"geometry":{"x":170564.73000000045,"y":2576995.1800000016}},{"attributes":{"ID":281441,"DIS_CODE":0,"TOWNNAME":"鹽水區","LI":"孫厝里","LIN":"2鄰","STREET":" ","SECT":" ","MAREA":"孫厝寮","LANE":" ","ALLEY":" ","HOUSE_NO":"１１號","E_COORD97":170543.45999999999,"N_COORD97":2577001.6099999999,"ADDRESS":"孫厝寮１１號","OBJECTID":281435},"geometry":{"x":170543.46000000089,"y":2577001.6100000013}},{"attributes":{"ID":281442,"DIS_CODE":0,"TOWNNAME":"鹽水區","LI":"孫厝里","LIN":"2鄰","STREET":" ","SECT":" ","MAREA":"孫厝寮","LANE":" ","ALLEY":" ","HOUSE_NO":"１３號","E_COORD97":170547.17999999999,"N_COORD97":2576959.2999999998,"ADDRESS":"孫厝寮１３號","OBJECTID":281436},"geometry":{"x":170547.1799999997,"y":2576959.3000000007}},{"attributes":{"ID":281443,"DIS_CODE":0,"TOWNNAME":"鹽水區","LI":"孫厝里","LIN":"2鄰","STREET":" ","SECT":" ","MAREA":"孫厝寮","LANE":" ","ALLEY":" ","HOUSE_NO":"１７號","E_COORD97":170481.32000000001,"N_COORD97":2576930.1000000001,"ADDRESS":"孫厝寮１７號","OBJECTID":281437},"geometry":{"x":170481.32000000216,"y":2576930.1000000034}},{"attributes":{"ID":281444,"DIS_CODE":0,"TOWNNAME":"鹽水區","LI":"孫厝里","LIN":"2鄰","STREET":" ","SECT":" ","MAREA":"孫厝寮","LANE":" ","ALLEY":" ","HOUSE_NO":"１８號","E_COORD97":170513.35000000001,"N_COORD97":2576975.5099999998,"ADDRESS":"孫厝寮１８號","OBJECTID":281438},"geometry":{"x":170513.35000000056,"y":2576975.5100000016}},{"attributes":{"ID":281445,"DIS_CODE":0,"TOWNNAME":"鹽水區","LI":"孫厝里","LIN":"2鄰","STREET":" ","SECT":" ","MAREA":"孫厝寮","LANE":" ","ALLEY":" ","HOUSE_NO":"１９號","E_COORD97":170500.14999999999,"N_COORD97":2576987.6299999999,"ADDRESS":"孫厝寮１９號","OBJECTID":281439},"geometry":{"x":170500.1500000013,"y":2576987.6300000008}},{"attributes":{"ID":281446,"DIS_CODE":0,"TOWNNAME":"鹽水區","LI":"孫厝里","LIN":"2鄰","STREET":" ","SECT":" ","MAREA":"孫厝寮","LANE":" ","ALLEY":" ","HOUSE_NO":"２０號","E_COORD97":170524.75,"N_COORD97":2576962.2999999998,"ADDRESS":"孫厝寮２０號","OBJECTID":281440},"geometry":{"x":170524.75,"y":2576962.3000000007}},{"attributes":{"ID":281447,"DIS_CODE":0,"TOWNNAME":"安南區","LI":"溪心里","LIN":"6鄰","STREET":"本原街","SECT":"二段","MAREA":" ","LANE":"１１６巷","ALLEY":" ","HOUSE_NO":"６１號","E_COORD97":166764.75,"N_COORD97":2551002.46,"ADDRESS":"本原街二段１１６巷６１號","OBJECTID":281441},"geometry":{"x":166764.75000000093,"y":2551002.4600000009}},{"attributes":{"ID":281448,"DIS_CODE":0,"TOWNNAME":"鹽水區","LI":"孫厝里","LIN":"2鄰","STREET":" ","SECT":" ","MAREA":"孫厝寮","LANE":" ","ALLEY":" ","HOUSE_NO":"２１號","E_COORD97":170502.29999999999,"N_COORD97":2576924.2799999998,"ADDRESS":"孫厝寮２１號","OBJECTID":281442},"geometry":{"x":170502.29999999981,"y":2576924.2799999993}},{"attributes":{"ID":281449,"DIS_CODE":0,"TOWNNAME":"鹽水區","LI":"桐寮里","LIN":"2鄰","STREET":" ","SECT":" ","MAREA":"桐寮","LANE":" ","ALLEY":" ","HOUSE_NO":"１０號","E_COORD97":174045.31,"N_COORD97":2576622.6499999999,"ADDRESS":"桐寮１０號","OBJECTID":281443},"geometry":{"x":174045.30999999959,"y":2576622.6500000022}},{"attributes":{"ID":281450,"DIS_CODE":0,"TOWNNAME":"鹽水區","LI":"桐寮里","LIN":"2鄰","STREET":" ","SECT":" ","MAREA":"桐寮","LANE":" ","ALLEY":" ","HOUSE_NO":"１２號","E_COORD97":174063.72,"N_COORD97":2576648.7999999998,"ADDRESS":"桐寮１２號","OBJECTID":281444},"geometry":{"x":174063.72000000067,"y":2576648.8000000045}},{"attributes":{"ID":281451,"DIS_CODE":0,"TOWNNAME":"鹽水區","LI":"桐寮里","LIN":"2鄰","STREET":" ","SECT":" ","MAREA":"桐寮","LANE":" ","ALLEY":" ","HOUSE_NO":"２４號","E_COORD97":174067.67000000001,"N_COORD97":2576517.5499999998,"ADDRESS":"桐寮１４號","OBJECTID":281445},"geometry":{"x":174067.67000000086,"y":2576517.5500000007}},{"attributes":{"ID":281452,"DIS_CODE":0,"TOWNNAME":"鹽水區","LI":"桐寮里","LIN":"2鄰","STREET":" ","SECT":" ","MAREA":"桐寮","LANE":" ","ALLEY":" ","HOUSE_NO":"１６號","E_COORD97":174018.39999999999,"N_COORD97":2576619.5099999998,"ADDRESS":"桐寮１６號","OBJECTID":281446},"geometry":{"x":174018.40000000037,"y":2576619.5100000016}},{"attributes":{"ID":281453,"DIS_CODE":0,"TOWNNAME":"鹽水區","LI":"桐寮里","LIN":"2鄰","STREET":" ","SECT":" ","MAREA":"桐寮","LANE":" ","ALLEY":" ","HOUSE_NO":"９號","E_COORD97":174060.91,"N_COORD97":2576610.5299999998,"ADDRESS":"桐寮９號","OBJECTID":281447},"geometry":{"x":174060.91000000201,"y":2576610.5299999993}},{"attributes":{"ID":281454,"DIS_CODE":0,"TOWNNAME":"鹽水區","LI":"水正里","LIN":"2鄰","STREET":"康樂路","SECT":" ","MAREA":" ","LANE":" ","ALLEY":" ","HOUSE_NO":"１００號","E_COORD97":175254.97,"N_COORD97":2579965.6699999999,"ADDRESS":"康樂路１００號","OBJECTID":281448},"geometry":{"x":175254.96999999881,"y":2579965.6700000018}},{"attributes":{"ID":281455,"DIS_CODE":0,"TOWNNAME":"安南區","LI":"四草里","LIN":"1鄰","STREET":"大眾六街","SECT":" ","MAREA":" ","LANE":" ","ALLEY":" ","HOUSE_NO":"１０５號","E_COORD97":160447.94921399999,"N_COORD97":2546595.0890500001,"ADDRESS":"大眾六街１０５號","OBJECTID":281449},"geometry":{"x":160447.94921400025,"y":2546595.0890549999}},{"attributes":{"ID":281456,"DIS_CODE":0,"TOWNNAME":"安南區","LI":"溪心里","LIN":"6鄰","STREET":"本原街","SECT":"二段","MAREA":" ","LANE":"１１６巷","ALLEY":" ","HOUSE_NO":"６３號","E_COORD97":166784.35999999999,"N_COORD97":2550966.1800000002,"ADDRESS":"本原街二段１１６巷６３號","OBJECTID":281450},"geometry":{"x":166784.36000000127,"y":2550966.1800000034}},{"attributes":{"ID":281457,"DIS_CODE":0,"TOWNNAME":"安南區","LI":"海西里","LIN":"6鄰","STREET":"海中街","SECT":" ","MAREA":" ","LANE":"１２１巷","ALLEY":" ","HOUSE_NO":"９９號","E_COORD97":166183.67999999999,"N_COORD97":2548927.21,"ADDRESS":"海中街１２１巷９９號","OBJECTID":281451},"geometry":{"x":166183.6799999997,"y":2548927.2100000028}},{"attributes":{"ID":281458,"DIS_CODE":0,"TOWNNAME":"安南區","LI":"\u25A0南里","LIN":"6鄰","STREET":"安昌街","SECT":" ","MAREA":" ","LANE":"２１９巷","ALLEY":" ","HOUSE_NO":"２０號","E_COORD97":170019.39000000001,"N_COORD97":2552521.9900000002,"ADDRESS":"安昌街２１９巷２０號","OBJECTID":281452},"geometry":{"x":170019.3900000006,"y":2552521.9900000021}},{"attributes":{"ID":281459,"DIS_CODE":0,"TOWNNAME":"安南區","LI":"\u25A0南里","LIN":"6鄰","STREET":"安昌街","SECT":" ","MAREA":" ","LANE":"２１９巷","ALLEY":" ","HOUSE_NO":"２２號","E_COORD97":170012.53,"N_COORD97":2552521.4199999999,"ADDRESS":"安昌街２１９巷２２號","OBJECTID":281453},"geometry":{"x":170012.53000000119,"y":2552521.4200000018}},{"attributes":{"ID":281460,"DIS_CODE":0,"TOWNNAME":"安南區","LI":"安順里","LIN":"6鄰","STREET":"總安街","SECT":"一段","MAREA":" ","LANE":"１１０巷","ALLEY":" ","HOUSE_NO":"１１號","E_COORD97":169678.03,"N_COORD97":2550207.5800000001,"ADDRESS":"總安街一段１１０巷１１號","OBJECTID":281454},"geometry":{"x":169678.03000000212,"y":2550207.5799999982}},{"attributes":{"ID":281461,"DIS_CODE":0,"TOWNNAME":"鹽水區","LI":"水正里","LIN":"2鄰","STREET":"康樂路","SECT":" ","MAREA":" ","LANE":" ","ALLEY":" ","HOUSE_NO":"１０２號","E_COORD97":175258.32000000001,"N_COORD97":2579968.6400000001,"ADDRESS":"康樂路１０２號","OBJECTID":281455},"geometry":{"x":175258.32000000216,"y":2579968.6400000043}},{"attributes":{"ID":281462,"DIS_CODE":0,"TOWNNAME":"安南區","LI":"安順里","LIN":"6鄰","STREET":"總安街","SECT":"一段","MAREA":" ","LANE":"１１０巷","ALLEY":" ","HOUSE_NO":"１３號","E_COORD97":169679.32999999999,"N_COORD97":2550212.4900000002,"ADDRESS":"總安街一段１１０巷１３號","OBJECTID":281456},"geometry":{"x":169679.33000000101,"y":2550212.4900000021}},{"attributes":{"ID":281463,"DIS_CODE":0,"TOWNNAME":"安南區","LI":"安順里","LIN":"6鄰","STREET":"總安街","SECT":"一段","MAREA":" ","LANE":"１１０巷","ALLEY":" ","HOUSE_NO":"１５號","E_COORD97":169681.14000000001,"N_COORD97":2550216.3700000001,"ADDRESS":"總安街一段１１０巷１５號","OBJECTID":281457},"geometry":{"x":169681.13999999966,"y":2550216.370000001}},{"attributes":{"ID":281464,"DIS_CODE":0,"TOWNNAME":"安南區","LI":"安順里","LIN":"6鄰","STREET":"總安街","SECT":"一段","MAREA":" ","LANE":"１１０巷","ALLEY":" ","HOUSE_NO":"１７號","E_COORD97":169683.98000000001,"N_COORD97":2550219.7200000002,"ADDRESS":"總安街一段１１０巷１７號","OBJECTID":281458},"geometry":{"x":169683.98000000138,"y":2550219.7200000007}},{"attributes":{"ID":281465,"DIS_CODE":0,"TOWNNAME":"新化區","LI":"崙頂里","LIN":"2鄰","STREET":" ","SECT":" ","MAREA":"崙子頂","LANE":" ","ALLEY":" ","HOUSE_NO":"７５號","E_COORD97":176911.48325799999,"N_COORD97":2546794.74737,"ADDRESS":"崙子頂７５號","OBJECTID":281459},"geometry":{"x":176911.48325799964,"y":2546794.747366}},{"attributes":{"ID":281466,"DIS_CODE":0,"TOWNNAME":"新化區","LI":"\u25A0拔里","LIN":"2鄰","STREET":" ","SECT":" ","MAREA":"\u25A0拔林","LANE":" ","ALLEY":" ","HOUSE_NO":"７９號之２","E_COORD97":183514.13,"N_COORD97":2552061.2599999998,"ADDRESS":"\u25A0拔林７９號之２","OBJECTID":281460},"geometry":{"x":183514.12999999989,"y":2552061.2600000016}},{"attributes":{"ID":281467,"DIS_CODE":0,"TOWNNAME":"新化區","LI":"羊林里","LIN":"2鄰","STREET":" ","SECT":" ","MAREA":"\u25A0拔林","LANE":" ","ALLEY":" ","HOUSE_NO":"４１１號","E_COORD97":183786.82000000001,"N_COORD97":2551837.25,"ADDRESS":"\u25A0拔林４１１號","OBJECTID":281461},"geometry":{"x":183786.82000000216,"y":2551837.2500000037}},{"attributes":{"ID":281468,"DIS_CODE":0,"TOWNNAME":"新化區","LI":"知義里","LIN":"2鄰","STREET":" ","SECT":" ","MAREA":"知母義","LANE":" ","ALLEY":" ","HOUSE_NO":"１５４號","E_COORD97":179751.01999999999,"N_COORD97":2547077.23,"ADDRESS":"知母義１５４號","OBJECTID":281462},"geometry":{"x":179751.01999999955,"y":2547077.2300000004}},{"attributes":{"ID":281469,"DIS_CODE":0,"TOWNNAME":"安南區","LI":"安順里","LIN":"6鄰","STREET":"總安街","SECT":"一段","MAREA":" ","LANE":"１１０巷","ALLEY":" ","HOUSE_NO":"１９號","E_COORD97":169686.04999999999,"N_COORD97":2550223.8599999999,"ADDRESS":"總安街一段１１０巷１９號","OBJECTID":281463},"geometry":{"x":169686.05000000075,"y":2550223.8600000013}},{"attributes":{"ID":281470,"DIS_CODE":0,"TOWNNAME":"安南區","LI":"安順里","LIN":"6鄰","STREET":"總安街","SECT":"一段","MAREA":" ","LANE":"１１０巷","ALLEY":" ","HOUSE_NO":"２１號","E_COORD97":169687.60999999999,"N_COORD97":2550227.48,"ADDRESS":"總安街一段１１０巷２１號","OBJECTID":281464},"geometry":{"x":169687.6099999994,"y":2550227.4800000023}},{"attributes":{"ID":281471,"DIS_CODE":0,"TOWNNAME":"新化區","LI":"東榮里","LIN":"6鄰","STREET":"信義路","SECT":" ","MAREA":" ","LANE":"１１７巷","ALLEY":" ","HOUSE_NO":"４９號之１２","E_COORD97":179800.38,"N_COORD97":2548365.2599999998,"ADDRESS":"信義路１１７巷４９號之１２","OBJECTID":281465},"geometry":{"x":179800.37999999989,"y":2548365.2600000035}},{"attributes":{"ID":281472,"DIS_CODE":0,"TOWNNAME":"新化區","LI":"觀音里","LIN":"6鄰","STREET":"中正路","SECT":" ","MAREA":" ","LANE":"５４９巷","ALLEY":" ","HOUSE_NO":"３號之３","E_COORD97":178972.85999999999,"N_COORD97":2548648.2599999998,"ADDRESS":"中正路５４９巷３號之３","OBJECTID":281466},"geometry":{"x":178972.86000000127,"y":2548648.2600000016}},{"attributes":{"ID":281473,"DIS_CODE":0,"TOWNNAME":"新化區","LI":"觀音里","LIN":"6鄰","STREET":"中正路","SECT":" ","MAREA":" ","LANE":"５４９巷","ALLEY":" ","HOUSE_NO":"５號之３","E_COORD97":178948.45999999999,"N_COORD97":2548643.2599999998,"ADDRESS":"中正路５４９巷５號之３","OBJECTID":281467},"geometry":{"x":178948.45999999996,"y":2548643.2600000035}},{"attributes":{"ID":281474,"DIS_CODE":0,"TOWNNAME":"新化區","LI":"協興里","LIN":"6鄰","STREET":"忠孝路","SECT":" ","MAREA":" ","LANE":"１９０巷","ALLEY":" ","HOUSE_NO":"５號之２","E_COORD97":178395.07999999999,"N_COORD97":2548644.2599999998,"ADDRESS":"忠孝路１９０巷５號之２","OBJECTID":281468},"geometry":{"x":178395.08000000007,"y":2548644.2600000016}},{"attributes":{"ID":281475,"DIS_CODE":0,"TOWNNAME":"安南區","LI":"城北里","LIN":"6鄰","STREET":"安中路","SECT":"六段","MAREA":" ","LANE":"５５４巷","ALLEY":" ","HOUSE_NO":"２２號","E_COORD97":160941.54999999999,"N_COORD97":2551419.6600000001,"ADDRESS":"安中路六段５５４巷２２號","OBJECTID":281469},"geometry":{"x":160941.54999999981,"y":2551419.6600000001}},{"attributes":{"ID":281476,"DIS_CODE":0,"TOWNNAME":"南區","LI":"光明里","LIN":"6鄰","STREET":"新興路","SECT":" ","MAREA":" ","LANE":"５３３巷","ALLEY":" ","HOUSE_NO":"３號","E_COORD97":166659.03,"N_COORD97":2541672.6400000001,"ADDRESS":"新興路５３３巷３號","OBJECTID":281470},"geometry":{"x":166659.03000000119,"y":2541672.6400000025}},{"attributes":{"ID":281477,"DIS_CODE":0,"TOWNNAME":"南區","LI":"光明里","LIN":"6鄰","STREET":"新興路","SECT":" ","MAREA":" ","LANE":"５３３巷","ALLEY":" ","HOUSE_NO":"５號","E_COORD97":166660.60000000001,"N_COORD97":2541668.3900000001,"ADDRESS":"新興路５３３巷５號","OBJECTID":281471},"geometry":{"x":166660.59999999963,"y":2541668.3900000006}},{"attributes":{"ID":281478,"DIS_CODE":0,"TOWNNAME":"南區","LI":"光明里","LIN":"6鄰","STREET":"新興路","SECT":" ","MAREA":" ","LANE":"５３３巷","ALLEY":" ","HOUSE_NO":"７號","E_COORD97":166661.10000000001,"N_COORD97":2541664.2400000002,"ADDRESS":"新興路５３３巷７號","OBJECTID":281472},"geometry":{"x":166661.10000000149,"y":2541664.2400000021}},{"attributes":{"ID":281479,"DIS_CODE":0,"TOWNNAME":"南區","LI":"光明里","LIN":"6鄰","STREET":"新興路","SECT":" ","MAREA":" ","LANE":"５３３巷","ALLEY":" ","HOUSE_NO":"９號","E_COORD97":166661.73000000001,"N_COORD97":2541660.3500000001,"ADDRESS":"新興路５３３巷９號","OBJECTID":281473},"geometry":{"x":166661.73000000138,"y":2541660.3499999996}},{"attributes":{"ID":281480,"DIS_CODE":0,"TOWNNAME":"南區","LI":"光明里","LIN":"6鄰","STREET":"新興路","SECT":" ","MAREA":" ","LANE":"５３３巷","ALLEY":" ","HOUSE_NO":"１１號","E_COORD97":166661.84,"N_COORD97":2541655.3199999998,"ADDRESS":"新興路５３３巷１１號","OBJECTID":281474},"geometry":{"x":166661.84000000078,"y":2541655.3200000003}},{"attributes":{"ID":281481,"DIS_CODE":0,"TOWNNAME":"南區","LI":"竹溪里","LIN":"6鄰","STREET":"體育路","SECT":" ","MAREA":" ","LANE":"２１巷","ALLEY":" ","HOUSE_NO":"３６號","E_COORD97":168838.32999999999,"N_COORD97":2542330.5899999999,"ADDRESS":"體育路２１巷３６號","OBJECTID":281475},"geometry":{"x":168838.33000000194,"y":2542330.5899999999}},{"attributes":{"ID":281482,"DIS_CODE":0,"TOWNNAME":"南區","LI":"竹溪里","LIN":"6鄰","STREET":"體育路","SECT":" ","MAREA":" ","LANE":"２１巷","ALLEY":" ","HOUSE_NO":"４０號","E_COORD97":168865.44,"N_COORD97":2542329.3399999999,"ADDRESS":"體育路２１巷４０號","OBJECTID":281476},"geometry":{"x":168865.44000000134,"y":2542329.3399999999}},{"attributes":{"ID":281483,"DIS_CODE":0,"TOWNNAME":"南區","LI":"竹溪里","LIN":"6鄰","STREET":"體育路","SECT":" ","MAREA":" ","LANE":"２１巷","ALLEY":" ","HOUSE_NO":"４０號之１","E_COORD97":168870.03,"N_COORD97":2542328.9300000002,"ADDRESS":"體育路２１巷４０號之１","OBJECTID":281477},"geometry":{"x":168870.03000000119,"y":2542328.9299999997}},{"attributes":{"ID":281484,"DIS_CODE":0,"TOWNNAME":"南區","LI":"竹溪里","LIN":"6鄰","STREET":"體育路","SECT":" ","MAREA":" ","LANE":"２１巷","ALLEY":" ","HOUSE_NO":"４４號","E_COORD97":168881.70999999999,"N_COORD97":2542331.4300000002,"ADDRESS":"體育路２１巷４４號","OBJECTID":281478},"geometry":{"x":168881.71000000089,"y":2542331.4299999997}},{"attributes":{"ID":281485,"DIS_CODE":0,"TOWNNAME":"南區","LI":"竹溪里","LIN":"6鄰","STREET":"健康路","SECT":"一段","MAREA":" ","LANE":"１３３巷","ALLEY":" ","HOUSE_NO":"１６號","E_COORD97":168885.88,"N_COORD97":2542330.1800000002,"ADDRESS":"健康路一段１３３巷１６號","OBJECTID":281479},"geometry":{"x":168885.88000000082,"y":2542330.1799999997}},{"attributes":{"ID":281486,"DIS_CODE":0,"TOWNNAME":"南區","LI":"竹溪里","LIN":"6鄰","STREET":"健康路","SECT":"一段","MAREA":" ","LANE":"１３３巷","ALLEY":" ","HOUSE_NO":"２２號","E_COORD97":168879.63,"N_COORD97":2542321.8399999999,"ADDRESS":"健康路一段１３３巷２２號","OBJECTID":281480},"geometry":{"x":168879.62999999989,"y":2542321.8399999999}},{"attributes":{"ID":281487,"DIS_CODE":0,"TOWNNAME":"南區","LI":"竹溪里","LIN":"6鄰","STREET":"體育路","SECT":" ","MAREA":" ","LANE":"２５巷","ALLEY":" ","HOUSE_NO":"２０號","E_COORD97":168806.06,"N_COORD97":2542312.9100000001,"ADDRESS":"體育路２５巷２０號","OBJECTID":281481},"geometry":{"x":168806.06000000052,"y":2542312.9100000039}},{"attributes":{"ID":281488,"DIS_CODE":0,"TOWNNAME":"南區","LI":"竹溪里","LIN":"6鄰","STREET":"體育路","SECT":" ","MAREA":" ","LANE":"２５巷","ALLEY":" ","HOUSE_NO":"１８號","E_COORD97":168794.76000000001,"N_COORD97":2542314.8399999999,"ADDRESS":"體育路２５巷１８號","OBJECTID":281482},"geometry":{"x":168794.76000000071,"y":2542314.8399999999}},{"attributes":{"ID":281489,"DIS_CODE":0,"TOWNNAME":"南區","LI":"佛壇里","LIN":"6鄰","STREET":"興南街","SECT":" ","MAREA":" ","LANE":"１２４巷","ALLEY":" ","HOUSE_NO":"１２號","E_COORD97":166131.42999999999,"N_COORD97":2535965.4500000002,"ADDRESS":"興南街１２４巷１２號","OBJECTID":281483},"geometry":{"x":166131.4299999997,"y":2535965.4500000011}},{"attributes":{"ID":281490,"DIS_CODE":0,"TOWNNAME":"南區","LI":"佛壇里","LIN":"6鄰","STREET":"興南街","SECT":" ","MAREA":" ","LANE":"１２４巷","ALLEY":" ","HOUSE_NO":"１４號","E_COORD97":166138.42000000001,"N_COORD97":2535973.7200000002,"ADDRESS":"興南街１２４巷１４號","OBJECTID":281484},"geometry":{"x":166138.41999999993,"y":2535973.7200000007}},{"attributes":{"ID":281491,"DIS_CODE":0,"TOWNNAME":"北區","LI":"成功里","LIN":"2鄰","STREET":"北安路","SECT":"一段","MAREA":" ","LANE":" ","ALLEY":" ","HOUSE_NO":"１２０號","E_COORD97":169019.31,"N_COORD97":2546387.71,"ADDRESS":"北安路一段１２０號","OBJECTID":281485},"geometry":{"x":169019.31000000145,"y":2546387.7100000028}},{"attributes":{"ID":281492,"DIS_CODE":0,"TOWNNAME":"南區","LI":"佛壇里","LIN":"6鄰","STREET":"興南街","SECT":" ","MAREA":" ","LANE":"１２４巷","ALLEY":" ","HOUSE_NO":"１６號","E_COORD97":166146.88,"N_COORD97":2535981.0699999998,"ADDRESS":"興南街１２４巷１６號","OBJECTID":281486},"geometry":{"x":166146.87999999989,"y":2535981.0700000003}},{"attributes":{"ID":281493,"DIS_CODE":0,"TOWNNAME":"南區","LI":"佛壇里","LIN":"6鄰","STREET":"興南街","SECT":" ","MAREA":" ","LANE":"１２４巷","ALLEY":" ","HOUSE_NO":"１８號","E_COORD97":166151.48000000001,"N_COORD97":2535986.21,"ADDRESS":"興南街１２４巷１８號","OBJECTID":281487},"geometry":{"x":166151.48000000138,"y":2535986.2100000028}},{"attributes":{"ID":281494,"DIS_CODE":0,"TOWNNAME":"南區","LI":"佛壇里","LIN":"6鄰","STREET":"興南街","SECT":" ","MAREA":" ","LANE":"１２４巷","ALLEY":" ","HOUSE_NO":"２０號","E_COORD97":166152.20999999999,"N_COORD97":2535991.9100000001,"ADDRESS":"興南街１２４巷２０號","OBJECTID":281488},"geometry":{"x":166152.21000000183,"y":2535991.9100000001}},{"attributes":{"ID":281495,"DIS_CODE":0,"TOWNNAME":"南區","LI":"佛壇里","LIN":"6鄰","STREET":"興南街","SECT":" ","MAREA":" ","LANE":"１２４巷","ALLEY":" ","HOUSE_NO":"２４號","E_COORD97":166139.29000000001,"N_COORD97":2535998.96,"ADDRESS":"興南街１２４巷２４號","OBJECTID":281489},"geometry":{"x":166139.29000000004,"y":2535998.9600000009}},{"attributes":{"ID":281496,"DIS_CODE":0,"TOWNNAME":"東區","LI":"忠孝里","LIN":"6鄰","STREET":"榮譽街","SECT":" ","MAREA":" ","LANE":"８４巷","ALLEY":" ","HOUSE_NO":"３７之３號","E_COORD97":169858.03,"N_COORD97":2541682.3300000001,"ADDRESS":"榮譽街８４巷３７之３號","OBJECTID":281490},"geometry":{"x":169858.03000000119,"y":2541682.3300000001}},{"attributes":{"ID":281497,"DIS_CODE":0,"TOWNNAME":"仁德區","LI":"上崙里","LIN":"6鄰","STREET":"德南路","SECT":" ","MAREA":" ","LANE":"３９９巷","ALLEY":" ","HOUSE_NO":"１６號","E_COORD97":173967.79000000001,"N_COORD97":2538263.02,"ADDRESS":"德南路３９９巷１６號","OBJECTID":281491},"geometry":{"x":173967.79000000004,"y":2538263.0199999996}},{"attributes":{"ID":281498,"DIS_CODE":0,"TOWNNAME":"仁德區","LI":"上崙里","LIN":"6鄰","STREET":"德南路","SECT":" ","MAREA":" ","LANE":"３９９巷","ALLEY":" ","HOUSE_NO":"８號","E_COORD97":173950.57999999999,"N_COORD97":2538258.27,"ADDRESS":"德南路３９９巷８號","OBJECTID":281492},"geometry":{"x":173950.58000000007,"y":2538258.2700000033}},{"attributes":{"ID":281499,"DIS_CODE":0,"TOWNNAME":"仁德區","LI":"上崙里","LIN":"6鄰","STREET":"德南路","SECT":" ","MAREA":" ","LANE":"４０９巷","ALLEY":" ","HOUSE_NO":"５號","E_COORD97":173960.17999999999,"N_COORD97":2538231.52,"ADDRESS":"德南路４０９巷５號","OBJECTID":281493},"geometry":{"x":173960.18000000156,"y":2538231.5199999996}},{"attributes":{"ID":281500,"DIS_CODE":0,"TOWNNAME":"仁德區","LI":"仁德里","LIN":"6鄰","STREET":"仁德三街","SECT":" ","MAREA":" ","LANE":"９巷","ALLEY":" ","HOUSE_NO":"３號","E_COORD97":173322.31,"N_COORD97":2540970.7599999998,"ADDRESS":"仁德三街９巷３號","OBJECTID":281494},"geometry":{"x":173322.31000000052,"y":2540970.7599999979}},{"attributes":{"ID":281501,"DIS_CODE":0,"TOWNNAME":"仁德區","LI":"仁德里","LIN":"6鄰","STREET":"仁德三街","SECT":" ","MAREA":" ","LANE":"３５巷","ALLEY":" ","HOUSE_NO":"１號","E_COORD97":173253.79000000001,"N_COORD97":2540968.7599999998,"ADDRESS":"仁德三街３５巷１號","OBJECTID":281495},"geometry":{"x":173253.79000000004,"y":2540968.7600000016}},{"attributes":{"ID":281502,"DIS_CODE":0,"TOWNNAME":"仁德區","LI":"二行里","LIN":"6鄰","STREET":"二仁路","SECT":"一段","MAREA":" ","LANE":"６３巷","ALLEY":" ","HOUSE_NO":"３號","E_COORD97":170539.23000000001,"N_COORD97":2535376.27,"ADDRESS":"二仁路一段６３巷３號","OBJECTID":281496},"geometry":{"x":170539.23000000045,"y":2535376.2699999977}},{"attributes":{"ID":281503,"DIS_CODE":0,"TOWNNAME":"永康區","LI":"安康里","LIN":"6鄰","STREET":"中華路","SECT":" ","MAREA":" ","LANE":"７２７巷","ALLEY":" ","HOUSE_NO":"７１號","E_COORD97":170663.59,"N_COORD97":2546312.02,"ADDRESS":"中華路７２７巷７１號","OBJECTID":281497},"geometry":{"x":170663.58999999985,"y":2546312.0200000033}},{"attributes":{"ID":281504,"DIS_CODE":0,"TOWNNAME":"永康區","LI":"安康里","LIN":"6鄰","STREET":"中華路","SECT":" ","MAREA":" ","LANE":"７２７巷","ALLEY":" ","HOUSE_NO":"３９號","E_COORD97":170733.98999999999,"N_COORD97":2546353.7400000002,"ADDRESS":"中華路７２７巷３９號","OBJECTID":281498},"geometry":{"x":170733.99000000022,"y":2546353.7400000021}},{"attributes":{"ID":281505,"DIS_CODE":0,"TOWNNAME":"永康區","LI":"安康里","LIN":"6鄰","STREET":"中華路","SECT":" ","MAREA":" ","LANE":"７２７巷","ALLEY":" ","HOUSE_NO":"７６號","E_COORD97":170682.87,"N_COORD97":2546339.7799999998,"ADDRESS":"中華路７２７巷７６號","OBJECTID":281499},"geometry":{"x":170682.87000000104,"y":2546339.7799999993}},{"attributes":{"ID":281506,"DIS_CODE":0,"TOWNNAME":"永康區","LI":"安康里","LIN":"6鄰","STREET":"中華路","SECT":" ","MAREA":" ","LANE":"７２７巷","ALLEY":" ","HOUSE_NO":"８０號","E_COORD97":170669.69,"N_COORD97":2546331.9199999999,"ADDRESS":"中華路７２７巷８０號","OBJECTID":281500},"geometry":{"x":170669.69000000041,"y":2546331.9199999999}},{"attributes":{"ID":281507,"DIS_CODE":0,"TOWNNAME":"永康區","LI":"安康里","LIN":"6鄰","STREET":"中華路","SECT":" ","MAREA":" ","LANE":"７２７巷","ALLEY":" ","HOUSE_NO":"４６號","E_COORD97":170734.87,"N_COORD97":2546370.5600000001,"ADDRESS":"中華路７２７巷４６號","OBJECTID":281501},"geometry":{"x":170734.87000000011,"y":2546370.5600000042}},{"attributes":{"ID":281508,"DIS_CODE":0,"TOWNNAME":"永康區","LI":"正強里","LIN":"6鄰","STREET":"自強路","SECT":" ","MAREA":" ","LANE":"３６８巷","ALLEY":" ","HOUSE_NO":"６號","E_COORD97":173515.25,"N_COORD97":2547696.5,"ADDRESS":"自強路３６８巷６號","OBJECTID":281502},"geometry":{"x":173515.25,"y":2547696.5000000019}},{"attributes":{"ID":281509,"DIS_CODE":0,"TOWNNAME":"新營區","LI":"新南里","LIN":"2鄰","STREET":"新北一街","SECT":" ","MAREA":" ","LANE":" ","ALLEY":" ","HOUSE_NO":"４９號","E_COORD97":178757.150934,"N_COORD97":2578630.90962,"ADDRESS":"新北一街４９號","OBJECTID":281503},"geometry":{"x":178757.15093399957,"y":2578630.9096249994}},{"attributes":{"ID":281510,"DIS_CODE":0,"TOWNNAME":"永康區","LI":"三民里","LIN":"6鄰","STREET":"三民街","SECT":" ","MAREA":" ","LANE":"１１２巷","ALLEY":" ","HOUSE_NO":"９２號","E_COORD97":172954.29000000001,"N_COORD97":2550524.2799999998,"ADDRESS":"三民街１１２巷９２號","OBJECTID":281504},"geometry":{"x":172954.29000000004,"y":2550524.2800000031}},{"attributes":{"ID":281511,"DIS_CODE":0,"TOWNNAME":"永康區","LI":"神洲里","LIN":"6鄰","STREET":"忠孝路","SECT":" ","MAREA":" ","LANE":"５４巷","ALLEY":" ","HOUSE_NO":"８號","E_COORD97":172119.39000000001,"N_COORD97":2544752.1400000001,"ADDRESS":"忠孝路５４巷８號","OBJECTID":281505},"geometry":{"x":172119.39000000153,"y":2544752.1400000006}},{"attributes":{"ID":281512,"DIS_CODE":0,"TOWNNAME":"關廟區","LI":"關廟里","LIN":"2鄰","STREET":"忠孝街","SECT":" ","MAREA":" ","LANE":" ","ALLEY":" ","HOUSE_NO":"５３號","E_COORD97":180972.98999999999,"N_COORD97":2540161.25,"ADDRESS":"忠孝街５３號","OBJECTID":281506},"geometry":{"x":180972.99000000022,"y":2540161.2500000019}},{"attributes":{"ID":281513,"DIS_CODE":0,"TOWNNAME":"北區","LI":"成功里","LIN":"2鄰","STREET":"北安路","SECT":"一段","MAREA":" ","LANE":" ","ALLEY":" ","HOUSE_NO":"９６號","E_COORD97":169060.73999999999,"N_COORD97":2546356.9199999999,"ADDRESS":"北安路一段９６號","OBJECTID":281507},"geometry":{"x":169060.74000000022,"y":2546356.9199999999}},{"attributes":{"ID":281514,"DIS_CODE":0,"TOWNNAME":"北區","LI":"大港里","LIN":"2鄰","STREET":"大興街","SECT":" ","MAREA":" ","LANE":" ","ALLEY":" ","HOUSE_NO":"１６０號","E_COORD97":166958.45000000001,"N_COORD97":2545717.1499999999,"ADDRESS":"大興街１６０號","OBJECTID":281508},"geometry":{"x":166958.45000000112,"y":2545717.1500000004}},{"attributes":{"ID":281515,"DIS_CODE":0,"TOWNNAME":"北區","LI":"大港里","LIN":"2鄰","STREET":"大興街","SECT":" ","MAREA":" ","LANE":" ","ALLEY":" ","HOUSE_NO":"１６２號","E_COORD97":166944.31,"N_COORD97":2545713.6899999999,"ADDRESS":"大興街１６２號","OBJECTID":281509},"geometry":{"x":166944.30999999959,"y":2545713.6899999995}},{"attributes":{"ID":281516,"DIS_CODE":0,"TOWNNAME":"東區","LI":"崇誨里","LIN":"21鄰","STREET":"東寧路","SECT":" ","MAREA":" ","LANE":" ","ALLEY":" ","HOUSE_NO":"３１４號","E_COORD97":170773.01999999999,"N_COORD97":2543396.0099999998,"ADDRESS":"東寧路３１４號","OBJECTID":281510},"geometry":{"x":170773.02000000048,"y":2543396.0099999998}},{"attributes":{"ID":281517,"DIS_CODE":0,"TOWNNAME":"東區","LI":"崇誨里","LIN":"21鄰","STREET":"東寧路","SECT":" ","MAREA":" ","LANE":" ","ALLEY":" ","HOUSE_NO":"３１８號","E_COORD97":170780.67000000001,"N_COORD97":2543393.8100000001,"ADDRESS":"東寧路３１８號","OBJECTID":281511},"geometry":{"x":170780.67000000086,"y":2543393.8100000005}},{"attributes":{"ID":281518,"DIS_CODE":0,"TOWNNAME":"東區","LI":"崇誨里","LIN":"21鄰","STREET":"東寧路","SECT":" ","MAREA":" ","LANE":" ","ALLEY":" ","HOUSE_NO":"３２６號","E_COORD97":170795.63,"N_COORD97":2543387.98,"ADDRESS":"東寧路３２６號","OBJECTID":281512},"geometry":{"x":170795.62999999989,"y":2543387.9800000023}},{"attributes":{"ID":281519,"DIS_CODE":0,"TOWNNAME":"東區","LI":"崇誨里","LIN":"21鄰","STREET":"東寧路","SECT":" ","MAREA":" ","LANE":" ","ALLEY":" ","HOUSE_NO":"３３６號","E_COORD97":170814.42000000001,"N_COORD97":2543381.8399999999,"ADDRESS":"東寧路３３６號","OBJECTID":281513},"geometry":{"x":170814.42000000086,"y":2543381.8400000017}},{"attributes":{"ID":281520,"DIS_CODE":0,"TOWNNAME":"東區","LI":"崇誨里","LIN":"21鄰","STREET":"東寧路","SECT":" ","MAREA":" ","LANE":" ","ALLEY":" ","HOUSE_NO":"３００號","E_COORD97":170746.47,"N_COORD97":2543405.7200000002,"ADDRESS":"東寧路３００號","OBJECTID":281514},"geometry":{"x":170746.47000000067,"y":2543405.7200000007}},{"attributes":{"ID":281521,"DIS_CODE":0,"TOWNNAME":"官田區","LI":"隆本里","LIN":"20鄰","STREET":"忠孝街","SECT":" ","MAREA":" ","LANE":" ","ALLEY":" ","HOUSE_NO":"５２號","E_COORD97":180062.19,"N_COORD97":2566201.4399999999,"ADDRESS":"忠孝街５２號","OBJECTID":281515},"geometry":{"x":180062.19000000134,"y":2566201.4400000013}},{"attributes":{"ID":281522,"DIS_CODE":0,"TOWNNAME":"東區","LI":"裕農里","LIN":"6鄰","STREET":"裕農路","SECT":" ","MAREA":" ","LANE":" ","ALLEY":" ","HOUSE_NO":"３５１號之１１","E_COORD97":171002.47,"N_COORD97":2543168.7599999998,"ADDRESS":"裕農路３５１號之１１","OBJECTID":281516},"geometry":{"x":171002.47000000067,"y":2543168.7600000016}},{"attributes":{"ID":281523,"DIS_CODE":0,"TOWNNAME":"東區","LI":"崇善里","LIN":"22鄰","STREET":"崇善十二街","SECT":" ","MAREA":" ","LANE":" ","ALLEY":" ","HOUSE_NO":"２７號之２","E_COORD97":171238.45999999999,"N_COORD97":2541102.8900000001,"ADDRESS":"崇善十二街２７號之２","OBJECTID":281517},"geometry":{"x":171238.46000000089,"y":2541102.8899999987}},{"attributes":{"ID":281524,"DIS_CODE":0,"TOWNNAME":"永康區","LI":"王行里","LIN":"6鄰","STREET":"育樂街","SECT":" ","MAREA":" ","LANE":"１４３巷","ALLEY":" ","HOUSE_NO":"２８號","E_COORD97":175076.31,"N_COORD97":2548231.4500000002,"ADDRESS":"育樂街１４３巷２８號","OBJECTID":281518},"geometry":{"x":175076.31000000145,"y":2548231.450000003}},{"attributes":{"ID":281525,"DIS_CODE":0,"TOWNNAME":"永康區","LI":"埔園里","LIN":"6鄰","STREET":"中山路","SECT":" ","MAREA":" ","LANE":"１６８巷","ALLEY":" ","HOUSE_NO":"４號","E_COORD97":173792.88,"N_COORD97":2547840.8300000001,"ADDRESS":"中山路１６８巷４號","OBJECTID":281519},"geometry":{"x":173792.88000000175,"y":2547840.8300000019}},{"attributes":{"ID":281526,"DIS_CODE":0,"TOWNNAME":"永康區","LI":"埔園里","LIN":"6鄰","STREET":"自強路","SECT":" ","MAREA":" ","LANE":"４６０巷","ALLEY":" ","HOUSE_NO":"１號","E_COORD97":173776.28,"N_COORD97":2547935.4900000002,"ADDRESS":"自強路４６０巷１號","OBJECTID":281520},"geometry":{"x":173776.28000000026,"y":2547935.4900000002}},{"attributes":{"ID":281527,"DIS_CODE":0,"TOWNNAME":"永康區","LI":"埔園里","LIN":"6鄰","STREET":"中山路","SECT":" ","MAREA":" ","LANE":"１５８巷","ALLEY":" ","HOUSE_NO":"３３號","E_COORD97":173904.66,"N_COORD97":2547865.75,"ADDRESS":"中山路１５８巷３３號","OBJECTID":281521},"geometry":{"x":173904.66000000015,"y":2547865.75}},{"attributes":{"ID":281528,"DIS_CODE":0,"TOWNNAME":"永康區","LI":"東灣里","LIN":"6鄰","STREET":"大灣路","SECT":" ","MAREA":" ","LANE":"４３６巷","ALLEY":" ","HOUSE_NO":"２２號","E_COORD97":174715.64999999999,"N_COORD97":2545007.5800000001,"ADDRESS":"大灣路４３６巷２２號","OBJECTID":281522},"geometry":{"x":174715.6500000013,"y":2545007.5800000019}},{"attributes":{"ID":281529,"DIS_CODE":0,"TOWNNAME":"新營區","LI":"姑爺里","LIN":"2鄰","STREET":" ","SECT":" ","MAREA":"姑爺","LANE":" ","ALLEY":" ","HOUSE_NO":"１６號","E_COORD97":174363.26999999999,"N_COORD97":2574244.7799999998,"ADDRESS":"姑爺１６號","OBJECTID":281523},"geometry":{"x":174363.27000000048,"y":2574244.7800000012}},{"attributes":{"ID":281530,"DIS_CODE":0,"TOWNNAME":"南區","LI":"明德里","LIN":"6鄰","STREET":"大成路","SECT":"一段","MAREA":" ","LANE":"６１巷","ALLEY":" ","HOUSE_NO":"２７號","E_COORD97":168110.03,"N_COORD97":2541662.6899999999,"ADDRESS":"大成路一段６１巷２７號","OBJECTID":281524},"geometry":{"x":168110.03000000212,"y":2541662.6900000032}},{"attributes":{"ID":281531,"DIS_CODE":0,"TOWNNAME":"南區","LI":"明德里","LIN":"6鄰","STREET":"大成路","SECT":"一段","MAREA":" ","LANE":"６１巷","ALLEY":" ","HOUSE_NO":"３１號","E_COORD97":168115.25,"N_COORD97":2541661.9100000001,"ADDRESS":"大成路一段６１巷３１號","OBJECTID":281525},"geometry":{"x":168115.25000000093,"y":2541661.9100000039}},{"attributes":{"ID":281532,"DIS_CODE":0,"TOWNNAME":"南區","LI":"明德里","LIN":"6鄰","STREET":"大成路","SECT":"一段","MAREA":" ","LANE":"６１巷","ALLEY":" ","HOUSE_NO":"３３號","E_COORD97":168118.38,"N_COORD97":2541660.8700000001,"ADDRESS":"大成路一段６１巷３３號","OBJECTID":281526},"geometry":{"x":168118.37999999989,"y":2541660.8700000029}},{"attributes":{"ID":281533,"DIS_CODE":0,"TOWNNAME":"南區","LI":"明德里","LIN":"6鄰","STREET":"大成路","SECT":"一段","MAREA":" ","LANE":"６１巷","ALLEY":" ","HOUSE_NO":"２９號","E_COORD97":168112.64000000001,"N_COORD97":2541663.21,"ADDRESS":"大成路一段６１巷２９號","OBJECTID":281527},"geometry":{"x":168112.6400000006,"y":2541663.2100000009}},{"attributes":{"ID":281534,"DIS_CODE":0,"TOWNNAME":"南區","LI":"明德里","LIN":"6鄰","STREET":"大成路","SECT":"一段","MAREA":" ","LANE":"６１巷","ALLEY":" ","HOUSE_NO":"３５號","E_COORD97":168121.25,"N_COORD97":2541660.0800000001,"ADDRESS":"大成路一段６１巷３５號","OBJECTID":281528},"geometry":{"x":168121.25,"y":2541660.0800000001}},{"attributes":{"ID":281535,"DIS_CODE":0,"TOWNNAME":"南區","LI":"明德里","LIN":"6鄰","STREET":"大成路","SECT":"一段","MAREA":" ","LANE":"６１巷","ALLEY":" ","HOUSE_NO":"４９號","E_COORD97":168101.94,"N_COORD97":2541646.1000000001,"ADDRESS":"大成路一段６１巷４９號","OBJECTID":281529},"geometry":{"x":168101.94000000041,"y":2541646.0999999996}},{"attributes":{"ID":281536,"DIS_CODE":0,"TOWNNAME":"南區","LI":"明德里","LIN":"6鄰","STREET":"大成路","SECT":"一段","MAREA":" ","LANE":"６１巷","ALLEY":" ","HOUSE_NO":"５１號","E_COORD97":168106.38,"N_COORD97":2541644.2799999998,"ADDRESS":"大成路一段６１巷５１號","OBJECTID":281530},"geometry":{"x":168106.37999999989,"y":2541644.2799999993}},{"attributes":{"ID":281537,"DIS_CODE":0,"TOWNNAME":"南區","LI":"明德里","LIN":"6鄰","STREET":"大成路","SECT":"一段","MAREA":" ","LANE":"６１巷","ALLEY":" ","HOUSE_NO":"５４號","E_COORD97":168076.89000000001,"N_COORD97":2541649.23,"ADDRESS":"大成路一段６１巷５４號","OBJECTID":281531},"geometry":{"x":168076.8900000006,"y":2541649.2300000004}},{"attributes":{"ID":281538,"DIS_CODE":0,"TOWNNAME":"南區","LI":"明德里","LIN":"6鄰","STREET":"大成路","SECT":"一段","MAREA":" ","LANE":"６１巷","ALLEY":" ","HOUSE_NO":"５５號","E_COORD97":168112.38,"N_COORD97":2541645.8399999999,"ADDRESS":"大成路一段６１巷５５號","OBJECTID":281532},"geometry":{"x":168112.38000000175,"y":2541645.8400000017}},{"attributes":{"ID":281539,"DIS_CODE":0,"TOWNNAME":"南區","LI":"明德里","LIN":"6鄰","STREET":"大成路","SECT":"一段","MAREA":" ","LANE":"６１巷","ALLEY":" ","HOUSE_NO":"５６號","E_COORD97":168079.76000000001,"N_COORD97":2541648.71,"ADDRESS":"大成路一段６１巷５６號","OBJECTID":281533},"geometry":{"x":168079.76000000071,"y":2541648.7100000028}},{"attributes":{"ID":281540,"DIS_CODE":0,"TOWNNAME":"南區","LI":"明德里","LIN":"6鄰","STREET":"大成路","SECT":"一段","MAREA":" ","LANE":"６１巷","ALLEY":" ","HOUSE_NO":"５７號","E_COORD97":168114.98999999999,"N_COORD97":2541646.3599999999,"ADDRESS":"大成路一段６１巷５７號","OBJECTID":281534},"geometry":{"x":168114.99000000022,"y":2541646.3599999994}},{"attributes":{"ID":281541,"DIS_CODE":0,"TOWNNAME":"新化區","LI":"護國里","LIN":"6鄰","STREET":"中山路","SECT":" ","MAREA":" ","LANE":"１４６巷","ALLEY":" ","HOUSE_NO":"３號","E_COORD97":179266.41,"N_COORD97":2548567.25,"ADDRESS":"中山路１４６巷３號","OBJECTID":281535},"geometry":{"x":179266.41000000015,"y":2548567.2500000019}},{"attributes":{"ID":281542,"DIS_CODE":0,"TOWNNAME":"新化區","LI":"護國里","LIN":"6鄰","STREET":"中山路","SECT":" ","MAREA":" ","LANE":"１４６巷","ALLEY":" ","HOUSE_NO":"７號","E_COORD97":179256.60999999999,"N_COORD97":2548562.25,"ADDRESS":"中山路１４６巷７號","OBJECTID":281536},"geometry":{"x":179256.61000000034,"y":2548562.2500000037}},{"attributes":{"ID":281543,"DIS_CODE":0,"TOWNNAME":"新化區","LI":"協興里","LIN":"6鄰","STREET":"忠孝路","SECT":" ","MAREA":" ","LANE":"１９０巷","ALLEY":" ","HOUSE_NO":"１號之１","E_COORD97":178401.14999999999,"N_COORD97":2548603.2599999998,"ADDRESS":"忠孝路１９０巷１號之１","OBJECTID":281537},"geometry":{"x":178401.1500000013,"y":2548603.2600000016}},{"attributes":{"ID":281544,"DIS_CODE":0,"TOWNNAME":"新化區","LI":"護國里","LIN":"6鄰","STREET":"中山路","SECT":" ","MAREA":" ","LANE":"１４６巷","ALLEY":" ","HOUSE_NO":"１０號","E_COORD97":179252.06,"N_COORD97":2548550.25,"ADDRESS":"中山路１４６巷１０號","OBJECTID":281538},"geometry":{"x":179252.06000000052,"y":2548550.2500000019}},{"attributes":{"ID":281545,"DIS_CODE":0,"TOWNNAME":"新化區","LI":"護國里","LIN":"6鄰","STREET":"中山路","SECT":" ","MAREA":" ","LANE":"１４６巷","ALLEY":" ","HOUSE_NO":"９號","E_COORD97":179258.81,"N_COORD97":2548546.25,"ADDRESS":"中山路１４６巷９號","OBJECTID":281539},"geometry":{"x":179258.81000000052,"y":2548546.2500000019}},{"attributes":{"ID":281546,"DIS_CODE":0,"TOWNNAME":"東區","LI":"仁和里","LIN":"6鄰","STREET":"仁和路","SECT":" ","MAREA":" ","LANE":"１１１巷","ALLEY":" ","HOUSE_NO":"５４號","E_COORD97":171511.29999999999,"N_COORD97":2541288.8999999999,"ADDRESS":"仁和路１１１巷５４號","OBJECTID":281540},"geometry":{"x":171511.29999999981,"y":2541288.9000000004}},{"attributes":{"ID":281547,"DIS_CODE":0,"TOWNNAME":"東區","LI":"仁和里","LIN":"6鄰","STREET":"仁和路","SECT":" ","MAREA":" ","LANE":"１１１巷","ALLEY":" ","HOUSE_NO":"５２號","E_COORD97":171507.32999999999,"N_COORD97":2541289.0899999999,"ADDRESS":"仁和路１１１巷５２號","OBJECTID":281541},"geometry":{"x":171507.33000000101,"y":2541289.0900000017}},{"attributes":{"ID":281548,"DIS_CODE":0,"TOWNNAME":"東區","LI":"仁和里","LIN":"6鄰","STREET":"仁和路","SECT":" ","MAREA":" ","LANE":"１１１巷","ALLEY":" ","HOUSE_NO":"５０號","E_COORD97":171501.48000000001,"N_COORD97":2541290.2200000002,"ADDRESS":"仁和路１１１巷５０號","OBJECTID":281542},"geometry":{"x":171501.48000000138,"y":2541290.2200000007}},{"attributes":{"ID":281549,"DIS_CODE":0,"TOWNNAME":"東區","LI":"仁和里","LIN":"6鄰","STREET":"仁和路","SECT":" ","MAREA":" ","LANE":"１１１巷","ALLEY":" ","HOUSE_NO":"４８號","E_COORD97":171496.95000000001,"N_COORD97":2541289.8399999999,"ADDRESS":"仁和路１１１巷４８號","OBJECTID":281543},"geometry":{"x":171496.95000000019,"y":2541289.8400000017}},{"attributes":{"ID":281550,"DIS_CODE":0,"TOWNNAME":"東區","LI":"仁和里","LIN":"6鄰","STREET":"仁和路","SECT":" ","MAREA":" ","LANE":"１１１巷","ALLEY":" ","HOUSE_NO":"４６號","E_COORD97":171491.85999999999,"N_COORD97":2541290.7799999998,"ADDRESS":"仁和路１１１巷４６號","OBJECTID":281544},"geometry":{"x":171491.86000000127,"y":2541290.7799999993}},{"attributes":{"ID":281551,"DIS_CODE":0,"TOWNNAME":"東區","LI":"仁和里","LIN":"6鄰","STREET":"仁和路","SECT":" ","MAREA":" ","LANE":"１１１巷","ALLEY":" ","HOUSE_NO":"４２之１號","E_COORD97":171486.76000000001,"N_COORD97":2541290.9700000002,"ADDRESS":"仁和路１１１巷４２之１號","OBJECTID":281545},"geometry":{"x":171486.76000000071,"y":2541290.9700000007}},{"attributes":{"ID":281552,"DIS_CODE":0,"TOWNNAME":"南區","LI":"光明里","LIN":" ","STREET":"鹽埕路","SECT":" ","MAREA":" ","LANE":"２９１巷","ALLEY":" ","HOUSE_NO":"１６號","E_COORD97":166757.07999999999,"N_COORD97":2541356.7400000002,"ADDRESS":"鹽埕路２９１巷１６號","OBJECTID":281546},"geometry":{"x":166757.08000000101,"y":2541356.7400000002}},{"attributes":{"ID":281553,"DIS_CODE":0,"TOWNNAME":"南區","LI":"光明里","LIN":" ","STREET":"鹽埕路","SECT":" ","MAREA":" ","LANE":"２９１巷","ALLEY":" ","HOUSE_NO":"２２號","E_COORD97":166739.19,"N_COORD97":2541367.6000000001,"ADDRESS":"鹽埕路２９１巷２２號","OBJECTID":281547},"geometry":{"x":166739.19000000041,"y":2541367.5999999996}},{"attributes":{"ID":281554,"DIS_CODE":0,"TOWNNAME":"南區","LI":"光明里","LIN":" ","STREET":"鹽埕路","SECT":" ","MAREA":" ","LANE":"２９１巷","ALLEY":" ","HOUSE_NO":"３０號","E_COORD97":166721.32999999999,"N_COORD97":2541372.5,"ADDRESS":"鹽埕路２９１巷３０號","OBJECTID":281548},"geometry":{"x":166721.33000000101,"y":2541372.5}},{"attributes":{"ID":281555,"DIS_CODE":0,"TOWNNAME":"南區","LI":"光明里","LIN":" ","STREET":"鹽埕路","SECT":" ","MAREA":" ","LANE":"２９１巷","ALLEY":" ","HOUSE_NO":"３４號","E_COORD97":166706.85999999999,"N_COORD97":2541345.2400000002,"ADDRESS":"鹽埕路２９１巷３４號","OBJECTID":281549},"geometry":{"x":166706.86000000034,"y":2541345.2400000021}},{"attributes":{"ID":281556,"DIS_CODE":0,"TOWNNAME":"南區","LI":"光明里","LIN":" ","STREET":"鹽埕路","SECT":" ","MAREA":" ","LANE":"２９１巷","ALLEY":" ","HOUSE_NO":"３６號","E_COORD97":166704.97,"N_COORD97":2541338.21,"ADDRESS":"鹽埕路２９１巷３６號","OBJECTID":281550},"geometry":{"x":166704.97000000067,"y":2541338.2100000009}},{"attributes":{"ID":281557,"DIS_CODE":0,"TOWNNAME":"南區","LI":"光明里","LIN":" ","STREET":"鹽埕路","SECT":" ","MAREA":" ","LANE":"２９１巷","ALLEY":" ","HOUSE_NO":"３８號","E_COORD97":166708.98999999999,"N_COORD97":2541326.1600000001,"ADDRESS":"鹽埕路２９１巷３８號","OBJECTID":281551},"geometry":{"x":166708.99000000115,"y":2541326.160000002}},{"attributes":{"ID":281558,"DIS_CODE":0,"TOWNNAME":"新市區","LI":"新和里","LIN":"6鄰","STREET":"富強路","SECT":" ","MAREA":" ","LANE":"４１巷","ALLEY":" ","HOUSE_NO":"２號","E_COORD97":177303.17999999999,"N_COORD97":2552405.75,"ADDRESS":"富強路４１巷２號","OBJECTID":281552},"geometry":{"x":177303.18000000156,"y":2552405.75}},{"attributes":{"ID":281559,"DIS_CODE":0,"TOWNNAME":"新市區","LI":"新和里","LIN":"6鄰","STREET":"富強路","SECT":" ","MAREA":" ","LANE":"３１巷","ALLEY":" ","HOUSE_NO":"１３號","E_COORD97":177347.26000000001,"N_COORD97":2552397,"ADDRESS":"富強路３１巷１３號","OBJECTID":281553},"geometry":{"x":177347.26000000071,"y":2552397}},{"attributes":{"ID":281560,"DIS_CODE":0,"TOWNNAME":"新市區","LI":"新和里","LIN":"6鄰","STREET":"富強路","SECT":" ","MAREA":" ","LANE":"３１巷","ALLEY":" ","HOUSE_NO":"１５號","E_COORD97":177348.51000000001,"N_COORD97":2552393,"ADDRESS":"富強路３１巷１５號","OBJECTID":281554},"geometry":{"x":177348.51000000164,"y":2552393.0000000019}},{"attributes":{"ID":281561,"DIS_CODE":0,"TOWNNAME":"安南區","LI":"溪墘里","LIN":"6鄰","STREET":"海佃路","SECT":"一段","MAREA":" ","LANE":"２４６巷","ALLEY":" ","HOUSE_NO":"１９號","E_COORD97":167208.12,"N_COORD97":2547344.27,"ADDRESS":"海佃路一段２４６巷１９號","OBJECTID":281555},"geometry":{"x":167208.12000000104,"y":2547344.2699999977}},{"attributes":{"ID":281562,"DIS_CODE":0,"TOWNNAME":"中西區","LI":"小西里","LIN":"6鄰","STREET":"西門路","SECT":"一段","MAREA":" ","LANE":"７３４巷","ALLEY":" ","HOUSE_NO":"１８號","E_COORD97":167836.20999999999,"N_COORD97":2543350.0600000001,"ADDRESS":"西門路一段７３４巷１８號","OBJECTID":281556},"geometry":{"x":167836.21000000089,"y":2543350.0600000024}},{"attributes":{"ID":281563,"DIS_CODE":0,"TOWNNAME":"中西區","LI":"法華里","LIN":"6鄰","STREET":"健康路","SECT":"一段","MAREA":" ","LANE":"５０巷","ALLEY":" ","HOUSE_NO":"１２號","E_COORD97":169063.69,"N_COORD97":2542480.77,"ADDRESS":"健康路一段５０巷１２號","OBJECTID":281557},"geometry":{"x":169063.69000000134,"y":2542480.7700000014}},{"attributes":{"ID":281564,"DIS_CODE":0,"TOWNNAME":"南區","LI":"郡南里","LIN":"6鄰","STREET":"德興路","SECT":" ","MAREA":" ","LANE":"１２１巷","ALLEY":" ","HOUSE_NO":"１號","E_COORD97":167238.45999999999,"N_COORD97":2540535.1400000001,"ADDRESS":"德興路１２１巷１號","OBJECTID":281558},"geometry":{"x":167238.45999999996,"y":2540535.1400000043}},{"attributes":{"ID":281565,"DIS_CODE":0,"TOWNNAME":"南區","LI":"郡南里","LIN":"6鄰","STREET":"德興路","SECT":" ","MAREA":" ","LANE":"１２１巷","ALLEY":" ","HOUSE_NO":"２號","E_COORD97":167242.51000000001,"N_COORD97":2540534.3300000001,"ADDRESS":"德興路１２１巷２號","OBJECTID":281559},"geometry":{"x":167242.50999999978,"y":2540534.3300000019}},{"attributes":{"ID":281566,"DIS_CODE":0,"TOWNNAME":"南區","LI":"郡南里","LIN":"6鄰","STREET":"德興路","SECT":" ","MAREA":" ","LANE":"１２１巷","ALLEY":" ","HOUSE_NO":"４號","E_COORD97":167250.60999999999,"N_COORD97":2540533.5299999998,"ADDRESS":"德興路１２１巷４號","OBJECTID":281560},"geometry":{"x":167250.61000000127,"y":2540533.5299999993}},{"attributes":{"ID":281567,"DIS_CODE":0,"TOWNNAME":"南區","LI":"喜東里","LIN":"6鄰","STREET":"喜樹路","SECT":" ","MAREA":" ","LANE":"１２７巷","ALLEY":" ","HOUSE_NO":"２號","E_COORD97":165908.14000000001,"N_COORD97":2538197.5800000001,"ADDRESS":"喜樹路１２７巷２號","OBJECTID":281561},"geometry":{"x":165908.13999999873,"y":2538197.5800000001}},{"attributes":{"ID":281568,"DIS_CODE":0,"TOWNNAME":"南區","LI":"喜南里","LIN":"6鄰","STREET":"喜樹路","SECT":" ","MAREA":" ","LANE":"３０２巷","ALLEY":" ","HOUSE_NO":"４９號","E_COORD97":165557.29999999999,"N_COORD97":2537754.8900000001,"ADDRESS":"喜樹路３０２巷４９號","OBJECTID":281562},"geometry":{"x":165557.29999999981,"y":2537754.8900000025}},{"attributes":{"ID":281569,"DIS_CODE":0,"TOWNNAME":"南區","LI":"喜南里","LIN":"6鄰","STREET":"喜樹路","SECT":" ","MAREA":" ","LANE":"３０２巷","ALLEY":" ","HOUSE_NO":"５０號","E_COORD97":165527.39000000001,"N_COORD97":2537751.6299999999,"ADDRESS":"喜樹路３０２巷５０號","OBJECTID":281563},"geometry":{"x":165527.3900000006,"y":2537751.6300000008}},{"attributes":{"ID":281570,"DIS_CODE":0,"TOWNNAME":"永康區","LI":"南灣里","LIN":"6鄰","STREET":"大灣路","SECT":" ","MAREA":" ","LANE":"５３７巷","ALLEY":" ","HOUSE_NO":"２３號","E_COORD97":174488.73000000001,"N_COORD97":2544437.5699999998,"ADDRESS":"大灣路５３７巷２３號","OBJECTID":281564},"geometry":{"x":174488.73000000045,"y":2544437.5699999984}},{"attributes":{"ID":281571,"DIS_CODE":0,"TOWNNAME":"永康區","LI":"東橋里","LIN":"6鄰","STREET":"中山南路","SECT":" ","MAREA":" ","LANE":"１９５巷","ALLEY":" ","HOUSE_NO":"２８號之２","E_COORD97":171472.44,"N_COORD97":2546347.7799999998,"ADDRESS":"中山南路１９５巷２８號之２","OBJECTID":281565},"geometry":{"x":171472.44000000134,"y":2546347.7800000012}},{"attributes":{"ID":281572,"DIS_CODE":0,"TOWNNAME":"永康區","LI":"埔園里","LIN":"6鄰","STREET":"中山路","SECT":" ","MAREA":" ","LANE":"１５８巷","ALLEY":" ","HOUSE_NO":"１９號","E_COORD97":173876.81,"N_COORD97":2547859,"ADDRESS":"中山路１５８巷１９號","OBJECTID":281566},"geometry":{"x":173876.81000000052,"y":2547859.0000000037}},{"attributes":{"ID":281573,"DIS_CODE":0,"TOWNNAME":"永康區","LI":"南灣里","LIN":"6鄰","STREET":"大灣路","SECT":" ","MAREA":" ","LANE":"５３７巷","ALLEY":" ","HOUSE_NO":"１９號","E_COORD97":174496.32999999999,"N_COORD97":2544439.5699999998,"ADDRESS":"大灣路５３７巷１９號","OBJECTID":281567},"geometry":{"x":174496.33000000007,"y":2544439.5700000003}},{"attributes":{"ID":281574,"DIS_CODE":0,"TOWNNAME":"永康區","LI":"南灣里","LIN":"6鄰","STREET":"大灣路","SECT":" ","MAREA":" ","LANE":"５３７巷","ALLEY":" ","HOUSE_NO":"２５號","E_COORD97":174484.82000000001,"N_COORD97":2544436.0600000001,"ADDRESS":"大灣路５３７巷２５號","OBJECTID":281568},"geometry":{"x":174484.8200000003,"y":2544436.0600000024}},{"attributes":{"ID":281575,"DIS_CODE":0,"TOWNNAME":"永康區","LI":"東橋里","LIN":"6鄰","STREET":"中山南路","SECT":" ","MAREA":" ","LANE":"１９５巷","ALLEY":" ","HOUSE_NO":"２５號","E_COORD97":171492.26999999999,"N_COORD97":2546320,"ADDRESS":"中山南路１９５巷２５號","OBJECTID":281569},"geometry":{"x":171492.26999999955,"y":2546320.0000000019}},{"attributes":{"ID":281576,"DIS_CODE":0,"TOWNNAME":"永康區","LI":"南灣里","LIN":"6鄰","STREET":"大灣路","SECT":" ","MAREA":" ","LANE":"５３７巷","ALLEY":" ","HOUSE_NO":"２１號","E_COORD97":174492.51999999999,"N_COORD97":2544438.8199999998,"ADDRESS":"大灣路５３７巷２１號","OBJECTID":281570},"geometry":{"x":174492.52000000048,"y":2544438.8200000003}},{"attributes":{"ID":281577,"DIS_CODE":0,"TOWNNAME":"白河區","LI":"內角里","LIN":"4鄰","STREET":" ","SECT":" ","MAREA":"內角","LANE":" ","ALLEY":" ","HOUSE_NO":"４６號","E_COORD97":192501.67999999999,"N_COORD97":2588445.9399999999,"ADDRESS":"內角４６號","OBJECTID":281571},"geometry":{"x":192501.6799999997,"y":2588445.9400000013}},{"attributes":{"ID":281578,"DIS_CODE":0,"TOWNNAME":"永康區","LI":"埔園里","LIN":"6鄰","STREET":"中山路","SECT":" ","MAREA":" ","LANE":"１５８巷","ALLEY":" ","HOUSE_NO":"２３號","E_COORD97":173884.95999999999,"N_COORD97":2547861,"ADDRESS":"中山路１５８巷２３號","OBJECTID":281572},"geometry":{"x":173884.95999999996,"y":2547861}},{"attributes":{"ID":281579,"DIS_CODE":0,"TOWNNAME":"永康區","LI":"埔園里","LIN":"6鄰","STREET":"中山路","SECT":" ","MAREA":" ","LANE":"１６８巷","ALLEY":" ","HOUSE_NO":"５號","E_COORD97":173798.37,"N_COORD97":2547843.5800000001,"ADDRESS":"中山路１６８巷５號","OBJECTID":281573},"geometry":{"x":173798.37000000197,"y":2547843.5800000001}},{"attributes":{"ID":281580,"DIS_CODE":0,"TOWNNAME":"永康區","LI":"東橋里","LIN":"6鄰","STREET":"中山南路","SECT":" ","MAREA":" ","LANE":"１９５巷","ALLEY":" ","HOUSE_NO":"２７號","E_COORD97":171477.28,"N_COORD97":2546336.4900000002,"ADDRESS":"中山南路１９５巷２７號","OBJECTID":281574},"geometry":{"x":171477.28000000119,"y":2546336.4900000002}},{"attributes":{"ID":281581,"DIS_CODE":0,"TOWNNAME":"永康區","LI":"埔園里","LIN":"6鄰","STREET":"中山路","SECT":" ","MAREA":" ","LANE":"１５８巷","ALLEY":" ","HOUSE_NO":"１５號","E_COORD97":173868.76000000001,"N_COORD97":2547856.75,"ADDRESS":"中山路１５８巷１５號","OBJECTID":281575},"geometry":{"x":173868.76000000071,"y":2547856.75}},{"attributes":{"ID":281582,"DIS_CODE":0,"TOWNNAME":"永康區","LI":"埔園里","LIN":"6鄰","STREET":"中山路","SECT":" ","MAREA":" ","LANE":"１５８巷","ALLEY":" ","HOUSE_NO":"３５號","E_COORD97":173909.95999999999,"N_COORD97":2547864.75,"ADDRESS":"中山路１５８巷３５號","OBJECTID":281576},"geometry":{"x":173909.96000000089,"y":2547864.7500000019}},{"attributes":{"ID":281583,"DIS_CODE":0,"TOWNNAME":"永康區","LI":"埔園里","LIN":"6鄰","STREET":"中山路","SECT":" ","MAREA":" ","LANE":"１５８巷","ALLEY":" ","HOUSE_NO":"１３號","E_COORD97":173864.56,"N_COORD97":2547855.75,"ADDRESS":"中山路１５８巷１３號","OBJECTID":281577},"geometry":{"x":173864.56000000052,"y":2547855.75}},{"attributes":{"ID":281584,"DIS_CODE":0,"TOWNNAME":"安南區","LI":"淵東里","LIN":"6鄰","STREET":"本原街","SECT":"三段","MAREA":" ","LANE":"１３６巷","ALLEY":" ","HOUSE_NO":"３９號","E_COORD97":165439.13,"N_COORD97":2550370.02,"ADDRESS":"本原街三段１３６巷３９號","OBJECTID":281578},"geometry":{"x":165439.13000000082,"y":2550370.0199999996}},{"attributes":{"ID":281585,"DIS_CODE":0,"TOWNNAME":"安南區","LI":"城東里","LIN":"6鄰","STREET":"城北路","SECT":" ","MAREA":" ","LANE":"１１２巷","ALLEY":" ","HOUSE_NO":"６６號","E_COORD97":161165.01000000001,"N_COORD97":2551655.9300000002,"ADDRESS":"城北路１１２巷６６號","OBJECTID":281579},"geometry":{"x":161165.01000000071,"y":2551655.9299999978}},{"attributes":{"ID":281586,"DIS_CODE":0,"TOWNNAME":"安南區","LI":"城東里","LIN":"6鄰","STREET":"城北路","SECT":" ","MAREA":" ","LANE":"１１２巷","ALLEY":" ","HOUSE_NO":"６７號","E_COORD97":161168.60999999999,"N_COORD97":2551681.8199999998,"ADDRESS":"城北路１１２巷６７號","OBJECTID":281580},"geometry":{"x":161168.61000000034,"y":2551681.8200000022}},{"attributes":{"ID":281587,"DIS_CODE":0,"TOWNNAME":"安南區","LI":"城東里","LIN":"6鄰","STREET":"城北路","SECT":" ","MAREA":" ","LANE":"１１２巷","ALLEY":" ","HOUSE_NO":"６８號","E_COORD97":161168.85000000001,"N_COORD97":2551655.8300000001,"ADDRESS":"城北路１１２巷６８號","OBJECTID":281581},"geometry":{"x":161168.85000000149,"y":2551655.8300000001}},{"attributes":{"ID":281588,"DIS_CODE":0,"TOWNNAME":"安南區","LI":"城東里","LIN":"6鄰","STREET":"城北路","SECT":" ","MAREA":" ","LANE":"１１２巷","ALLEY":" ","HOUSE_NO":"７０號","E_COORD97":161172.98999999999,"N_COORD97":2551656.2200000002,"ADDRESS":"城北路１１２巷７０號","OBJECTID":281582},"geometry":{"x":161172.99000000022,"y":2551656.2200000025}},{"attributes":{"ID":281589,"DIS_CODE":0,"TOWNNAME":"安南區","LI":"城東里","LIN":"6鄰","STREET":"城北路","SECT":" ","MAREA":" ","LANE":"１１２巷","ALLEY":" ","HOUSE_NO":"７１號","E_COORD97":161175.07999999999,"N_COORD97":2551682.4100000001,"ADDRESS":"城北路１１２巷７１號","OBJECTID":281583},"geometry":{"x":161175.08000000101,"y":2551682.4100000001}},{"attributes":{"ID":281590,"DIS_CODE":0,"TOWNNAME":"南區","LI":"再興里","LIN":"19鄰","STREET":"新慶街","SECT":" ","MAREA":" ","LANE":"３３巷","ALLEY":" ","HOUSE_NO":"２５號","E_COORD97":167220.87,"N_COORD97":2542226.4100000001,"ADDRESS":"新慶街３３巷２５號","OBJECTID":281584},"geometry":{"x":167220.87000000197,"y":2542226.410000002}},{"attributes":{"ID":281591,"DIS_CODE":0,"TOWNNAME":"仁德區","LI":"田厝里","LIN":"6鄰","STREET":"田厝三街","SECT":" ","MAREA":" ","LANE":"９６巷","ALLEY":" ","HOUSE_NO":"１５號","E_COORD97":172628.64999999999,"N_COORD97":2537371.9900000002,"ADDRESS":"田厝三街９６巷１５號","OBJECTID":281585},"geometry":{"x":172628.65000000224,"y":2537371.9900000002}},{"attributes":{"ID":281592,"DIS_CODE":0,"TOWNNAME":"仁德區","LI":"仁德里","LIN":"6鄰","STREET":"仁德三街","SECT":" ","MAREA":" ","LANE":"９巷","ALLEY":" ","HOUSE_NO":"５號","E_COORD97":173322.42999999999,"N_COORD97":2540964.27,"ADDRESS":"仁德三街９巷５號","OBJECTID":281586},"geometry":{"x":173322.4299999997,"y":2540964.2700000014}},{"attributes":{"ID":281593,"DIS_CODE":0,"TOWNNAME":"南化區","LI":"西埔里","LIN":"2鄰","STREET":" ","SECT":" ","MAREA":"西埔","LANE":" ","ALLEY":" ","HOUSE_NO":"８號之２","E_COORD97":196177.76000000001,"N_COORD97":2547982.7999999998,"ADDRESS":"西埔８號之２","OBJECTID":281587},"geometry":{"x":196177.75999999978,"y":2547982.7999999989}},{"attributes":{"ID":281594,"DIS_CODE":0,"TOWNNAME":"仁德區","LI":"田厝里","LIN":"6鄰","STREET":"田厝三街","SECT":" ","MAREA":" ","LANE":"７０巷","ALLEY":" ","HOUSE_NO":"５號","E_COORD97":172537.42999999999,"N_COORD97":2537386.4900000002,"ADDRESS":"田厝三街７０巷５號","OBJECTID":281588},"geometry":{"x":172537.4299999997,"y":2537386.4900000021}},{"attributes":{"ID":281595,"DIS_CODE":0,"TOWNNAME":"仁德區","LI":"後壁里","LIN":"6鄰","STREET":"德善二街","SECT":" ","MAREA":" ","LANE":"６巷","ALLEY":" ","HOUSE_NO":"５號","E_COORD97":173540.82999999999,"N_COORD97":2538866.02,"ADDRESS":"德善二街６巷５號","OBJECTID":281589},"geometry":{"x":173540.83000000194,"y":2538866.0199999996}},{"attributes":{"ID":281596,"DIS_CODE":0,"TOWNNAME":"仁德區","LI":"上崙里","LIN":"6鄰","STREET":"德南路","SECT":" ","MAREA":" ","LANE":"４０９巷","ALLEY":" ","HOUSE_NO":"７號","E_COORD97":173965.13,"N_COORD97":2538232.02,"ADDRESS":"德南路４０９巷７號","OBJECTID":281590},"geometry":{"x":173965.12999999989,"y":2538232.0199999996}},{"attributes":{"ID":281597,"DIS_CODE":0,"TOWNNAME":"仁德區","LI":"一甲里","LIN":"6鄰","STREET":"中正路","SECT":"三段","MAREA":" ","LANE":"１６２巷","ALLEY":" ","HOUSE_NO":"１５號","E_COORD97":173545.95999999999,"N_COORD97":2541764.54,"ADDRESS":"中正路三段１６２巷１５號","OBJECTID":281591},"geometry":{"x":173545.95999999996,"y":2541764.5399999991}},{"attributes":{"ID":281598,"DIS_CODE":0,"TOWNNAME":"仁德區","LI":"上崙里","LIN":"6鄰","STREET":"德南路","SECT":" ","MAREA":" ","LANE":"４０９巷","ALLEY":" ","HOUSE_NO":"３號","E_COORD97":173955.29000000001,"N_COORD97":2538231.02,"ADDRESS":"德南路４０９巷３號","OBJECTID":281592},"geometry":{"x":173955.29000000097,"y":2538231.0200000014}},{"attributes":{"ID":281599,"DIS_CODE":0,"TOWNNAME":"仁德區","LI":"一甲里","LIN":"6鄰","STREET":"中正路","SECT":"三段","MAREA":" ","LANE":"１６２巷","ALLEY":" ","HOUSE_NO":"２５號","E_COORD97":173570.48000000001,"N_COORD97":2541783.7000000002,"ADDRESS":"中正路三段１６２巷２５號","OBJECTID":281593},"geometry":{"x":173570.48000000045,"y":2541783.6999999993}},{"attributes":{"ID":281600,"DIS_CODE":0,"TOWNNAME":"仁德區","LI":"上崙里","LIN":"6鄰","STREET":"德南路","SECT":" ","MAREA":" ","LANE":"３９９巷","ALLEY":" ","HOUSE_NO":"４號","E_COORD97":173942.89000000001,"N_COORD97":2538255.52,"ADDRESS":"德南路３９９巷４號","OBJECTID":281594},"geometry":{"x":173942.88999999966,"y":2538255.5199999996}},{"attributes":{"ID":281601,"DIS_CODE":0,"TOWNNAME":"仁德區","LI":"上崙里","LIN":"6鄰","STREET":"德南路","SECT":" ","MAREA":" ","LANE":"３９９巷","ALLEY":" ","HOUSE_NO":"３４號","E_COORD97":174004.29000000001,"N_COORD97":2538274.5099999998,"ADDRESS":"德南路３９９巷３４號","OBJECTID":281595},"geometry":{"x":174004.29000000097,"y":2538274.5100000016}},{"attributes":{"ID":281602,"DIS_CODE":0,"TOWNNAME":"仁德區","LI":"二行里","LIN":"6鄰","STREET":"二仁路","SECT":"一段","MAREA":" ","LANE":"６３巷","ALLEY":" ","HOUSE_NO":"１號","E_COORD97":170543.87,"N_COORD97":2535376.02,"ADDRESS":"二仁路一段６３巷１號","OBJECTID":281596},"geometry":{"x":170543.87000000104,"y":2535376.0200000014}},{"attributes":{"ID":281603,"DIS_CODE":0,"TOWNNAME":"仁德區","LI":"一甲里","LIN":"6鄰","STREET":"中正路","SECT":"三段","MAREA":" ","LANE":"１６２巷","ALLEY":" ","HOUSE_NO":"１１號","E_COORD97":173537.26999999999,"N_COORD97":2541767.54,"ADDRESS":"中正路三段１６２巷１１號","OBJECTID":281597},"geometry":{"x":173537.27000000142,"y":2541767.5399999991}},{"attributes":{"ID":281604,"DIS_CODE":0,"TOWNNAME":"仁德區","LI":"一甲里","LIN":"6鄰","STREET":"中正路","SECT":"三段","MAREA":" ","LANE":"１６２巷","ALLEY":" ","HOUSE_NO":"１３號","E_COORD97":173541.66,"N_COORD97":2541766.29,"ADDRESS":"中正路三段１６２巷１３號","OBJECTID":281598},"geometry":{"x":173541.66000000015,"y":2541766.2899999991}},{"attributes":{"ID":281605,"DIS_CODE":0,"TOWNNAME":"仁德區","LI":"一甲里","LIN":"6鄰","STREET":"中正路","SECT":"三段","MAREA":" ","LANE":"１６２巷","ALLEY":" ","HOUSE_NO":"９號","E_COORD97":173531.91,"N_COORD97":2541769.04,"ADDRESS":"中正路三段１６２巷９號","OBJECTID":281599},"geometry":{"x":173531.91000000201,"y":2541769.040000001}},{"attributes":{"ID":281606,"DIS_CODE":0,"TOWNNAME":"仁德區","LI":"上崙里","LIN":"6鄰","STREET":"德南路","SECT":" ","MAREA":" ","LANE":"４０９巷","ALLEY":" ","HOUSE_NO":"１號","E_COORD97":173950.42999999999,"N_COORD97":2538230.52,"ADDRESS":"德南路４０９巷１號","OBJECTID":281600},"geometry":{"x":173950.43000000063,"y":2538230.5200000014}}]}