{"displayFieldName":"TOWNNAME","fieldAliases":{"ID":"ID","DIS_CODE":"DIS_CODE","TOWNNAME":"TOWNNAME","LI":"LI","LIN":"LIN","STREET":"STREET","SECT":"SECT","MAREA":"MAREA","LANE":"LANE","ALLEY":"ALLEY","HOUSE_NO":"HOUSE_NO","E_COORD97":"E_COORD97","N_COORD97":"N_COORD97","ADDRESS":"ADDRESS","OBJECTID":"OBJECTID"},"geometryType":"esriGeometryPoint","spatialReference":{"wkid":102443,"latestWkid":3826},"fields":[{"name":"ID","type":"esriFieldTypeDouble","alias":"ID"},{"name":"DIS_CODE","type":"esriFieldTypeInteger","alias":"DIS_CODE"},{"name":"TOWNNAME","type":"esriFieldTypeString","alias":"TOWNNAME","length":8},{"name":"LI","type":"esriFieldTypeString","alias":"LI","length":8},{"name":"LIN","type":"esriFieldTypeString","alias":"LIN","length":12},{"name":"STREET","type":"esriFieldTypeString","alias":"STREET","length":20},{"name":"SECT","type":"esriFieldTypeString","alias":"SECT","length":8},{"name":"MAREA","type":"esriFieldTypeString","alias":"MAREA","length":12},{"name":"LANE","type":"esriFieldTypeString","alias":"LANE","length":10},{"name":"ALLEY","type":"esriFieldTypeString","alias":"ALLEY","length":10},{"name":"HOUSE_NO","type":"esriFieldTypeString","alias":"HOUSE_NO","length":20},{"name":"E_COORD97","type":"esriFieldTypeDouble","alias":"E_COORD97"},{"name":"N_COORD97","type":"esriFieldTypeDouble","alias":"N_COORD97"},{"name":"ADDRESS","type":"esriFieldTypeString","alias":"ADDRESS","length":50},{"name":"OBJECTID","type":"esriFieldTypeOID","alias":"OBJECTID"}],"features":[{"attributes":{"ID":376211,"DIS_CODE":0,"TOWNNAME":"南區","LI":"文華里","LIN":"10鄰","STREET":"建南路","SECT":" ","MAREA":" ","LANE":"１２０巷","ALLEY":" ","HOUSE_NO":"１４號","E_COORD97":167048.78,"N_COORD97":2542890.1299999999,"ADDRESS":"建南路１２０巷１４號","OBJECTID":376201},"geometry":{"x":167048.78000000212,"y":2542890.1300000027}},{"attributes":{"ID":376212,"DIS_CODE":0,"TOWNNAME":"南區","LI":"喜東里","LIN":"10鄰","STREET":"明興路","SECT":" ","MAREA":" ","LANE":"６１９巷","ALLEY":" ","HOUSE_NO":"４２４號","E_COORD97":167126.17999999999,"N_COORD97":2537910.8900000001,"ADDRESS":"明興路６１９巷４２４號","OBJECTID":376202},"geometry":{"x":167126.1799999997,"y":2537910.8900000025}},{"attributes":{"ID":376213,"DIS_CODE":0,"TOWNNAME":"南區","LI":"喜東里","LIN":"10鄰","STREET":"明興路","SECT":" ","MAREA":" ","LANE":"６１９巷","ALLEY":" ","HOUSE_NO":"４６號","E_COORD97":166227.76999999999,"N_COORD97":2537934.1099999999,"ADDRESS":"明興路６１９巷４６號","OBJECTID":376203},"geometry":{"x":166227.77000000048,"y":2537934.1100000013}},{"attributes":{"ID":376214,"DIS_CODE":0,"TOWNNAME":"南區","LI":"興農里","LIN":"10鄰","STREET":"灣裡路","SECT":" ","MAREA":" ","LANE":"３５１巷","ALLEY":" ","HOUSE_NO":"４５號之１","E_COORD97":166381.5,"N_COORD97":2536276.0699999998,"ADDRESS":"灣裡路３５１巷４５號之１","OBJECTID":376204},"geometry":{"x":166381.50000000093,"y":2536276.0700000003}},{"attributes":{"ID":376215,"DIS_CODE":0,"TOWNNAME":"南區","LI":"喜東里","LIN":"10鄰","STREET":"明興路","SECT":" ","MAREA":" ","LANE":"６１９巷","ALLEY":" ","HOUSE_NO":"３４３號","E_COORD97":166736.32000000001,"N_COORD97":2537950.25,"ADDRESS":"明興路６１９巷３４３號","OBJECTID":376205},"geometry":{"x":166736.3200000003,"y":2537950.2500000037}},{"attributes":{"ID":376216,"DIS_CODE":0,"TOWNNAME":"南區","LI":"田寮里","LIN":"10鄰","STREET":"大成路","SECT":"二段","MAREA":" ","LANE":"５６巷","ALLEY":" ","HOUSE_NO":"１０１號","E_COORD97":167558.69,"N_COORD97":2541928.8199999998,"ADDRESS":"大成路二段５６巷１０１號","OBJECTID":376206},"geometry":{"x":167558.69000000134,"y":2541928.8200000022}},{"attributes":{"ID":376217,"DIS_CODE":0,"TOWNNAME":"南區","LI":"喜東里","LIN":"10鄰","STREET":"明興路","SECT":" ","MAREA":" ","LANE":"６１９巷","ALLEY":" ","HOUSE_NO":"１１０號","E_COORD97":166387.12,"N_COORD97":2537940.2999999998,"ADDRESS":"明興路６１９巷１１０號","OBJECTID":376207},"geometry":{"x":166387.12000000104,"y":2537940.3000000007}},{"attributes":{"ID":376218,"DIS_CODE":0,"TOWNNAME":"安平區","LI":"平通里","LIN":"10鄰","STREET":"育平九街","SECT":" ","MAREA":" ","LANE":"２４６巷","ALLEY":" ","HOUSE_NO":"３１號","E_COORD97":164897.05527899999,"N_COORD97":2544096.1751600001,"ADDRESS":"育平九街２４６巷３１號","OBJECTID":376208},"geometry":{"x":164897.05527899973,"y":2544096.1751560029}},{"attributes":{"ID":376219,"DIS_CODE":0,"TOWNNAME":"安平區","LI":"平通里","LIN":"10鄰","STREET":"育平九街","SECT":" ","MAREA":" ","LANE":"２４６巷","ALLEY":" ","HOUSE_NO":"３３號","E_COORD97":164897.26718699999,"N_COORD97":2544100.1968200002,"ADDRESS":"育平九街２４６巷３３號","OBJECTID":376209},"geometry":{"x":164897.26718700118,"y":2544100.1968200002}},{"attributes":{"ID":376220,"DIS_CODE":0,"TOWNNAME":"安平區","LI":"國平里","LIN":"10鄰","STREET":"建平一街","SECT":" ","MAREA":" ","LANE":"２０６巷","ALLEY":" ","HOUSE_NO":"２３號","E_COORD97":165490.47,"N_COORD97":2542858.1200000001,"ADDRESS":"建平一街２０６巷２３號","OBJECTID":376210},"geometry":{"x":165490.46999999974,"y":2542858.1200000048}},{"attributes":{"ID":376221,"DIS_CODE":0,"TOWNNAME":"安平區","LI":"國平里","LIN":"10鄰","STREET":"建平一街","SECT":" ","MAREA":" ","LANE":"２０６巷","ALLEY":" ","HOUSE_NO":"２５號","E_COORD97":165490.94,"N_COORD97":2542862.73,"ADDRESS":"建平一街２０６巷２５號","OBJECTID":376211},"geometry":{"x":165490.94000000041,"y":2542862.7300000004}},{"attributes":{"ID":376222,"DIS_CODE":0,"TOWNNAME":"安平區","LI":"國平里","LIN":"10鄰","STREET":"建平一街","SECT":" ","MAREA":" ","LANE":"２３８巷","ALLEY":" ","HOUSE_NO":"２１號","E_COORD97":165396.76999999999,"N_COORD97":2542874.4300000002,"ADDRESS":"建平一街２３８巷２１號","OBJECTID":376212},"geometry":{"x":165396.76999999955,"y":2542874.4299999997}},{"attributes":{"ID":376223,"DIS_CODE":0,"TOWNNAME":"安平區","LI":"國平里","LIN":"10鄰","STREET":"建平一街","SECT":" ","MAREA":" ","LANE":"２３８巷","ALLEY":" ","HOUSE_NO":"１５號","E_COORD97":165393.31,"N_COORD97":2542858.1200000001,"ADDRESS":"建平一街２３８巷１５號","OBJECTID":376213},"geometry":{"x":165393.31000000145,"y":2542858.1200000048}},{"attributes":{"ID":376224,"DIS_CODE":0,"TOWNNAME":"安平區","LI":"國平里","LIN":"10鄰","STREET":"建平一街","SECT":" ","MAREA":" ","LANE":"２３８巷","ALLEY":" ","HOUSE_NO":"１７號","E_COORD97":165394.73999999999,"N_COORD97":2542863.2000000002,"ADDRESS":"建平一街２３８巷１７號","OBJECTID":376214},"geometry":{"x":165394.74000000115,"y":2542863.2000000011}},{"attributes":{"ID":376225,"DIS_CODE":0,"TOWNNAME":"安平區","LI":"國平里","LIN":"10鄰","STREET":"建平一街","SECT":" ","MAREA":" ","LANE":"２３８巷","ALLEY":" ","HOUSE_NO":"１９號","E_COORD97":165395.06,"N_COORD97":2542868.6000000001,"ADDRESS":"建平一街２３８巷１９號","OBJECTID":376215},"geometry":{"x":165395.06000000145,"y":2542868.6000000015}},{"attributes":{"ID":376226,"DIS_CODE":0,"TOWNNAME":"安平區","LI":"平通里","LIN":"10鄰","STREET":"育平九街","SECT":" ","MAREA":" ","LANE":"２４６巷","ALLEY":" ","HOUSE_NO":"８號","E_COORD97":162723.34,"N_COORD97":2544425.3599999999,"ADDRESS":"育平九街２４６巷８號","OBJECTID":376216},"geometry":{"x":162723.33999999985,"y":2544425.3600000013}},{"attributes":{"ID":376227,"DIS_CODE":0,"TOWNNAME":"安平區","LI":"平通里","LIN":"10鄰","STREET":"育平九街","SECT":" ","MAREA":" ","LANE":"２４６巷","ALLEY":" ","HOUSE_NO":"１０號","E_COORD97":162721.12,"N_COORD97":2544427.2599999998,"ADDRESS":"育平九街２４６巷１０號","OBJECTID":376217},"geometry":{"x":162721.12000000011,"y":2544427.2600000016}},{"attributes":{"ID":376228,"DIS_CODE":0,"TOWNNAME":"安平區","LI":"平通里","LIN":"10鄰","STREET":"育平九街","SECT":" ","MAREA":" ","LANE":"２４６巷","ALLEY":" ","HOUSE_NO":"１８號","E_COORD97":162719.51000000001,"N_COORD97":2544428.98,"ADDRESS":"育平九街２４６巷１８號","OBJECTID":376218},"geometry":{"x":162719.51000000071,"y":2544428.9800000023}},{"attributes":{"ID":376229,"DIS_CODE":0,"TOWNNAME":"新化區","LI":"太平里","LIN":"10鄰","STREET":"中正路","SECT":" ","MAREA":" ","LANE":"７４７巷","ALLEY":" ","HOUSE_NO":"３號","E_COORD97":178712.51000000001,"N_COORD97":2549242.25,"ADDRESS":"中正路７４７巷３號","OBJECTID":376219},"geometry":{"x":178712.50999999978,"y":2549242.25}},{"attributes":{"ID":376230,"DIS_CODE":0,"TOWNNAME":"安平區","LI":"平通里","LIN":"10鄰","STREET":"育平九街","SECT":" ","MAREA":" ","LANE":"２４６巷","ALLEY":" ","HOUSE_NO":"３８號","E_COORD97":164922.5,"N_COORD97":2544100.3399999999,"ADDRESS":"育平九街２４６巷３８號","OBJECTID":376220},"geometry":{"x":164922.5,"y":2544100.3400000017}},{"attributes":{"ID":376231,"DIS_CODE":0,"TOWNNAME":"安南區","LI":"安順里","LIN":"13鄰","STREET":"育安街","SECT":" ","MAREA":" ","LANE":" ","ALLEY":" ","HOUSE_NO":"２８８號","E_COORD97":169611.06,"N_COORD97":2550152.3700000001,"ADDRESS":"育安街２８８號","OBJECTID":376221},"geometry":{"x":169611.06000000145,"y":2550152.370000001}},{"attributes":{"ID":376232,"DIS_CODE":0,"TOWNNAME":"安平區","LI":"平通里","LIN":"10鄰","STREET":"育平九街","SECT":" ","MAREA":" ","LANE":"２４６巷","ALLEY":" ","HOUSE_NO":"４０號","E_COORD97":164923.13,"N_COORD97":2544104.6299999999,"ADDRESS":"育平九街２４６巷４０號","OBJECTID":376222},"geometry":{"x":164923.12999999989,"y":2544104.6300000008}},{"attributes":{"ID":376233,"DIS_CODE":0,"TOWNNAME":"安平區","LI":"平通里","LIN":"10鄰","STREET":"育平九街","SECT":" ","MAREA":" ","LANE":"２４６巷","ALLEY":" ","HOUSE_NO":"４２號","E_COORD97":164923.60999999999,"N_COORD97":2544109.5499999998,"ADDRESS":"育平九街２４６巷４２號","OBJECTID":376223},"geometry":{"x":164923.61000000034,"y":2544109.5500000045}},{"attributes":{"ID":376234,"DIS_CODE":0,"TOWNNAME":"安平區","LI":"怡平里","LIN":"10鄰","STREET":"永華六街","SECT":" ","MAREA":" ","LANE":"２０６巷","ALLEY":" ","HOUSE_NO":"２２號","E_COORD97":165757.26000000001,"N_COORD97":2544109.5899999999,"ADDRESS":"永華六街２０６巷２２號","OBJECTID":376224},"geometry":{"x":165757.26000000071,"y":2544109.5900000017}},{"attributes":{"ID":376235,"DIS_CODE":0,"TOWNNAME":"安平區","LI":"怡平里","LIN":"10鄰","STREET":"永華六街","SECT":" ","MAREA":" ","LANE":"２０６巷","ALLEY":" ","HOUSE_NO":"２６號","E_COORD97":165761.87,"N_COORD97":2544108.8199999998,"ADDRESS":"永華六街２０６巷２６號","OBJECTID":376225},"geometry":{"x":165761.87000000104,"y":2544108.8200000022}},{"attributes":{"ID":376236,"DIS_CODE":0,"TOWNNAME":"安平區","LI":"怡平里","LIN":"10鄰","STREET":"永華六街","SECT":" ","MAREA":" ","LANE":"２０６巷","ALLEY":" ","HOUSE_NO":"２８號","E_COORD97":165768.26000000001,"N_COORD97":2544109.0800000001,"ADDRESS":"永華六街２０６巷２８號","OBJECTID":376226},"geometry":{"x":165768.25999999978,"y":2544109.0800000019}},{"attributes":{"ID":376237,"DIS_CODE":0,"TOWNNAME":"安平區","LI":"怡平里","LIN":"10鄰","STREET":"永華六街","SECT":" ","MAREA":" ","LANE":"２０６巷","ALLEY":" ","HOUSE_NO":"３０號","E_COORD97":165773.76000000001,"N_COORD97":2544108.0499999998,"ADDRESS":"永華六街２０６巷３０號","OBJECTID":376227},"geometry":{"x":165773.76000000071,"y":2544108.0500000007}},{"attributes":{"ID":376238,"DIS_CODE":0,"TOWNNAME":"安平區","LI":"平通里","LIN":"10鄰","STREET":"育平九街","SECT":" ","MAREA":" ","LANE":"２４６巷","ALLEY":" ","HOUSE_NO":"９號","E_COORD97":164889.002794,"N_COORD97":2544047.91518,"ADDRESS":"育平九街２４６巷９號","OBJECTID":376228},"geometry":{"x":164889.00279400125,"y":2544047.9151820038}},{"attributes":{"ID":376239,"DIS_CODE":0,"TOWNNAME":"安平區","LI":"怡平里","LIN":"10鄰","STREET":"建平十二街","SECT":" ","MAREA":" ","LANE":"１９２巷","ALLEY":" ","HOUSE_NO":"１號","E_COORD97":165696.37,"N_COORD97":2544039.3399999999,"ADDRESS":"建平十二街１９２巷１號","OBJECTID":376229},"geometry":{"x":165696.37000000011,"y":2544039.3400000017}},{"attributes":{"ID":376240,"DIS_CODE":0,"TOWNNAME":"安平區","LI":"怡平里","LIN":"10鄰","STREET":"建平十二街","SECT":" ","MAREA":" ","LANE":"１９２巷","ALLEY":" ","HOUSE_NO":"３號","E_COORD97":165696.66,"N_COORD97":2544044.9399999999,"ADDRESS":"建平十二街１９２巷３號","OBJECTID":376230},"geometry":{"x":165696.66000000201,"y":2544044.9400000013}},{"attributes":{"ID":376241,"DIS_CODE":0,"TOWNNAME":"安平區","LI":"怡平里","LIN":"10鄰","STREET":"建平十二街","SECT":" ","MAREA":" ","LANE":"１９２巷","ALLEY":" ","HOUSE_NO":"５號","E_COORD97":165696.85999999999,"N_COORD97":2544049.27,"ADDRESS":"建平十二街１９２巷５號","OBJECTID":376231},"geometry":{"x":165696.86000000034,"y":2544049.2700000033}},{"attributes":{"ID":376242,"DIS_CODE":0,"TOWNNAME":"安平區","LI":"怡平里","LIN":"10鄰","STREET":"建平十二街","SECT":" ","MAREA":" ","LANE":"１９２巷","ALLEY":" ","HOUSE_NO":"７號","E_COORD97":165697.25,"N_COORD97":2544053.79,"ADDRESS":"建平十二街１９２巷７號","OBJECTID":376232},"geometry":{"x":165697.25,"y":2544053.7899999991}},{"attributes":{"ID":376243,"DIS_CODE":0,"TOWNNAME":"南區","LI":"大忠里","LIN":"10鄰","STREET":"中華南路","SECT":"一段","MAREA":" ","LANE":"９７巷","ALLEY":" ","HOUSE_NO":"６６號","E_COORD97":169258.94,"N_COORD97":2541131.9900000002,"ADDRESS":"中華南路一段９７巷６６號","OBJECTID":376233},"geometry":{"x":169258.94000000134,"y":2541131.9900000002}},{"attributes":{"ID":376244,"DIS_CODE":0,"TOWNNAME":"南區","LI":"大忠里","LIN":"10鄰","STREET":"中華南路","SECT":"一段","MAREA":" ","LANE":"９７巷","ALLEY":" ","HOUSE_NO":"６８號","E_COORD97":169260.07000000001,"N_COORD97":2541125.8500000001,"ADDRESS":"中華南路一段９７巷６８號","OBJECTID":376234},"geometry":{"x":169260.0700000003,"y":2541125.8499999978}},{"attributes":{"ID":376245,"DIS_CODE":0,"TOWNNAME":"歸仁區","LI":"許厝里","LIN":"10鄰","STREET":"公園路","SECT":" ","MAREA":" ","LANE":"３９巷","ALLEY":" ","HOUSE_NO":"１６號","E_COORD97":178170.01999999999,"N_COORD97":2540503.1000000001,"ADDRESS":"公園路３９巷１６號","OBJECTID":376235},"geometry":{"x":178170.01999999955,"y":2540503.0999999996}},{"attributes":{"ID":376246,"DIS_CODE":0,"TOWNNAME":"歸仁區","LI":"看東里","LIN":"10鄰","STREET":"忠孝南路","SECT":" ","MAREA":" ","LANE":"１３９巷","ALLEY":" ","HOUSE_NO":"１９號","E_COORD97":178615.97,"N_COORD97":2540301.6800000002,"ADDRESS":"忠孝南路１３９巷１９號","OBJECTID":376236},"geometry":{"x":178615.96999999974,"y":2540301.6800000016}},{"attributes":{"ID":376247,"DIS_CODE":0,"TOWNNAME":"歸仁區","LI":"看東里","LIN":"10鄰","STREET":"忠孝南路","SECT":" ","MAREA":" ","LANE":"１３９巷","ALLEY":" ","HOUSE_NO":"３５號","E_COORD97":178619.87,"N_COORD97":2540266.6800000002,"ADDRESS":"忠孝南路１３９巷３５號","OBJECTID":376237},"geometry":{"x":178619.87000000104,"y":2540266.6800000016}},{"attributes":{"ID":376248,"DIS_CODE":0,"TOWNNAME":"歸仁區","LI":"崙頂里","LIN":"10鄰","STREET":"成功路","SECT":"二段","MAREA":" ","LANE":"８８巷","ALLEY":" ","HOUSE_NO":"５號","E_COORD97":178053.42000000001,"N_COORD97":2539817.3599999999,"ADDRESS":"成功路二段８８巷５號","OBJECTID":376238},"geometry":{"x":178053.42000000086,"y":2539817.3600000031}},{"attributes":{"ID":376249,"DIS_CODE":0,"TOWNNAME":"歸仁區","LI":"看東里","LIN":"10鄰","STREET":"忠孝南路","SECT":" ","MAREA":" ","LANE":"１３９巷","ALLEY":" ","HOUSE_NO":"２６號","E_COORD97":178603.47,"N_COORD97":2540272.6800000002,"ADDRESS":"忠孝南路１３９巷２６號","OBJECTID":376239},"geometry":{"x":178603.47000000067,"y":2540272.6799999978}},{"attributes":{"ID":376250,"DIS_CODE":0,"TOWNNAME":"歸仁區","LI":"崙頂里","LIN":"10鄰","STREET":"成功路","SECT":"二段","MAREA":" ","LANE":"８８巷","ALLEY":" ","HOUSE_NO":"１３號","E_COORD97":178040.26999999999,"N_COORD97":2539804.3599999999,"ADDRESS":"成功路二段８８巷１３號","OBJECTID":376240},"geometry":{"x":178040.27000000048,"y":2539804.3600000013}},{"attributes":{"ID":376251,"DIS_CODE":0,"TOWNNAME":"歸仁區","LI":"崙頂里","LIN":"10鄰","STREET":"成功路","SECT":"二段","MAREA":" ","LANE":"１６８巷","ALLEY":" ","HOUSE_NO":"４２號","E_COORD97":177950.19,"N_COORD97":2539816.25,"ADDRESS":"成功路二段１６８巷４２號","OBJECTID":376241},"geometry":{"x":177950.19000000134,"y":2539816.2500000019}},{"attributes":{"ID":376252,"DIS_CODE":0,"TOWNNAME":"歸仁區","LI":"許厝里","LIN":"10鄰","STREET":"信義南路","SECT":" ","MAREA":" ","LANE":"１０１巷","ALLEY":" ","HOUSE_NO":"１９號","E_COORD97":178174.89000000001,"N_COORD97":2540448.0899999999,"ADDRESS":"信義南路１０１巷１９號","OBJECTID":376242},"geometry":{"x":178174.8900000006,"y":2540448.0900000017}},{"attributes":{"ID":376253,"DIS_CODE":0,"TOWNNAME":"歸仁區","LI":"看東里","LIN":"10鄰","STREET":"忠孝南路","SECT":" ","MAREA":" ","LANE":"１３９巷","ALLEY":" ","HOUSE_NO":"２７號","E_COORD97":178617.87,"N_COORD97":2540283.6699999999,"ADDRESS":"忠孝南路１３９巷２７號","OBJECTID":376243},"geometry":{"x":178617.87000000104,"y":2540283.6700000037}},{"attributes":{"ID":376254,"DIS_CODE":0,"TOWNNAME":"新市區","LI":"永就里","LIN":"10鄰","STREET":"中山路","SECT":" ","MAREA":" ","LANE":"２７１巷","ALLEY":" ","HOUSE_NO":"８號","E_COORD97":176931.73999999999,"N_COORD97":2551523.25,"ADDRESS":"中山路２７１巷８號","OBJECTID":376244},"geometry":{"x":176931.74000000022,"y":2551523.2500000019}},{"attributes":{"ID":376255,"DIS_CODE":0,"TOWNNAME":"歸仁區","LI":"崙頂里","LIN":"10鄰","STREET":"成功路","SECT":"二段","MAREA":" ","LANE":"８８巷","ALLEY":" ","HOUSE_NO":"１５號","E_COORD97":178037.17000000001,"N_COORD97":2539801.3599999999,"ADDRESS":"成功路二段８８巷１５號","OBJECTID":376245},"geometry":{"x":178037.16999999993,"y":2539801.3600000013}},{"attributes":{"ID":376256,"DIS_CODE":0,"TOWNNAME":"歸仁區","LI":"許厝里","LIN":"10鄰","STREET":"信義南路","SECT":" ","MAREA":" ","LANE":"１０１巷","ALLEY":" ","HOUSE_NO":"１２號","E_COORD97":178176.79000000001,"N_COORD97":2540427.1000000001,"ADDRESS":"信義南路１０１巷１２號","OBJECTID":376246},"geometry":{"x":178176.79000000004,"y":2540427.1000000015}},{"attributes":{"ID":376257,"DIS_CODE":0,"TOWNNAME":"歸仁區","LI":"許厝里","LIN":"10鄰","STREET":"公園路","SECT":" ","MAREA":" ","LANE":"３９巷","ALLEY":" ","HOUSE_NO":"１２號","E_COORD97":178167.92000000001,"N_COORD97":2540510.1000000001,"ADDRESS":"公園路３９巷１２號","OBJECTID":376247},"geometry":{"x":178167.92000000179,"y":2540510.0999999996}},{"attributes":{"ID":376258,"DIS_CODE":0,"TOWNNAME":"歸仁區","LI":"許厝里","LIN":"10鄰","STREET":"公園路","SECT":" ","MAREA":" ","LANE":"３９巷","ALLEY":" ","HOUSE_NO":"１０號","E_COORD97":178168.01999999999,"N_COORD97":2540515.1000000001,"ADDRESS":"公園路３９巷１０號","OBJECTID":376248},"geometry":{"x":178168.01999999955,"y":2540515.1000000015}},{"attributes":{"ID":376259,"DIS_CODE":0,"TOWNNAME":"歸仁區","LI":"看東里","LIN":"10鄰","STREET":"忠孝南路","SECT":" ","MAREA":" ","LANE":"１３９巷","ALLEY":" ","HOUSE_NO":"３７號","E_COORD97":178619.87,"N_COORD97":2540262.6800000002,"ADDRESS":"忠孝南路１３９巷３７號","OBJECTID":376249},"geometry":{"x":178619.87000000104,"y":2540262.6800000034}},{"attributes":{"ID":376260,"DIS_CODE":0,"TOWNNAME":"歸仁區","LI":"許厝里","LIN":"10鄰","STREET":"公園路","SECT":" ","MAREA":" ","LANE":"３９巷","ALLEY":" ","HOUSE_NO":"８號","E_COORD97":178166.67000000001,"N_COORD97":2540518.1000000001,"ADDRESS":"公園路３９巷８號","OBJECTID":376250},"geometry":{"x":178166.67000000086,"y":2540518.1000000015}},{"attributes":{"ID":376261,"DIS_CODE":0,"TOWNNAME":"歸仁區","LI":"許厝里","LIN":"10鄰","STREET":"公園路","SECT":" ","MAREA":" ","LANE":"３９巷","ALLEY":" ","HOUSE_NO":"１８號","E_COORD97":178169.92000000001,"N_COORD97":2540499.1000000001,"ADDRESS":"公園路３９巷１８號","OBJECTID":376251},"geometry":{"x":178169.92000000086,"y":2540499.0999999996}},{"attributes":{"ID":376262,"DIS_CODE":0,"TOWNNAME":"歸仁區","LI":"崙頂里","LIN":"10鄰","STREET":"成功路","SECT":"二段","MAREA":" ","LANE":"８８巷","ALLEY":" ","HOUSE_NO":"１號","E_COORD97":178061.72,"N_COORD97":2539821.3599999999,"ADDRESS":"成功路二段８８巷１號","OBJECTID":376252},"geometry":{"x":178061.71999999974,"y":2539821.3600000013}},{"attributes":{"ID":376263,"DIS_CODE":0,"TOWNNAME":"歸仁區","LI":"看東里","LIN":"10鄰","STREET":"忠孝南路","SECT":" ","MAREA":" ","LANE":"１３９巷","ALLEY":" ","HOUSE_NO":"３１號","E_COORD97":178618.87,"N_COORD97":2540275.6800000002,"ADDRESS":"忠孝南路１３９巷３１號","OBJECTID":376253},"geometry":{"x":178618.87000000011,"y":2540275.6799999997}},{"attributes":{"ID":376264,"DIS_CODE":0,"TOWNNAME":"歸仁區","LI":"崙頂里","LIN":"10鄰","STREET":"成功路","SECT":"二段","MAREA":" ","LANE":"８８巷","ALLEY":" ","HOUSE_NO":"９號","E_COORD97":178047.32000000001,"N_COORD97":2539810.3599999999,"ADDRESS":"成功路二段８８巷９號","OBJECTID":376254},"geometry":{"x":178047.32000000123,"y":2539810.3600000031}},{"attributes":{"ID":376265,"DIS_CODE":0,"TOWNNAME":"北區","LI":"大和里","LIN":"10鄰","STREET":"文賢路","SECT":" ","MAREA":" ","LANE":"７３５巷","ALLEY":" ","HOUSE_NO":"６７號","E_COORD97":167204.10999999999,"N_COORD97":2546113.4300000002,"ADDRESS":"文賢路７３５巷６７號","OBJECTID":376255},"geometry":{"x":167204.11000000034,"y":2546113.4300000016}},{"attributes":{"ID":376266,"DIS_CODE":0,"TOWNNAME":"北區","LI":"六甲里","LIN":"10鄰","STREET":"公園路","SECT":" ","MAREA":" ","LANE":"４５１巷","ALLEY":" ","HOUSE_NO":"３０號","E_COORD97":168920.70999999999,"N_COORD97":2545499.7000000002,"ADDRESS":"公園路４５１巷３０號","OBJECTID":376256},"geometry":{"x":168920.71000000089,"y":2545499.6999999993}},{"attributes":{"ID":376267,"DIS_CODE":0,"TOWNNAME":"北區","LI":"六甲里","LIN":"10鄰","STREET":"公園路","SECT":" ","MAREA":" ","LANE":"４５１巷","ALLEY":" ","HOUSE_NO":"３２號","E_COORD97":168914.17083799999,"N_COORD97":2545502.8319299999,"ADDRESS":"公園路４５１巷３２號","OBJECTID":376257},"geometry":{"x":168914.17083800118,"y":2545502.8319259994}},{"attributes":{"ID":376268,"DIS_CODE":0,"TOWNNAME":"北區","LI":"六甲里","LIN":"10鄰","STREET":"公園路","SECT":" ","MAREA":" ","LANE":"４５１巷","ALLEY":" ","HOUSE_NO":"３４號之１","E_COORD97":168904.003031,"N_COORD97":2545509.6052600001,"ADDRESS":"公園路４５１巷３４號之１","OBJECTID":376258},"geometry":{"x":168904.00303100049,"y":2545509.6052560024}},{"attributes":{"ID":376269,"DIS_CODE":0,"TOWNNAME":"北區","LI":"六甲里","LIN":"10鄰","STREET":"公園路","SECT":" ","MAREA":" ","LANE":"４５１巷","ALLEY":" ","HOUSE_NO":"３６號","E_COORD97":168892.01999999999,"N_COORD97":2545518.6699999999,"ADDRESS":"公園路４５１巷３６號","OBJECTID":376259},"geometry":{"x":168892.01999999955,"y":2545518.6700000018}},{"attributes":{"ID":376270,"DIS_CODE":0,"TOWNNAME":"北區","LI":"六甲里","LIN":"10鄰","STREET":"公園路","SECT":" ","MAREA":" ","LANE":"４５１巷","ALLEY":" ","HOUSE_NO":"３６號之１","E_COORD97":168894.20000000001,"N_COORD97":2545530.7200000002,"ADDRESS":"公園路４５１巷３６號之１","OBJECTID":376260},"geometry":{"x":168894.20000000112,"y":2545530.7200000007}},{"attributes":{"ID":376271,"DIS_CODE":0,"TOWNNAME":"北區","LI":"六甲里","LIN":"10鄰","STREET":"公園路","SECT":" ","MAREA":" ","LANE":"４５１巷","ALLEY":" ","HOUSE_NO":"３６號之２","E_COORD97":168895.39000000001,"N_COORD97":2545535.0699999998,"ADDRESS":"公園路４５１巷３６號之２","OBJECTID":376261},"geometry":{"x":168895.3900000006,"y":2545535.0700000003}},{"attributes":{"ID":376272,"DIS_CODE":0,"TOWNNAME":"北區","LI":"六甲里","LIN":"10鄰","STREET":"公園路","SECT":" ","MAREA":" ","LANE":"４５１巷","ALLEY":" ","HOUSE_NO":"３６號之３","E_COORD97":168897.17000000001,"N_COORD97":2545540.0099999998,"ADDRESS":"公園路４５１巷３６號之３","OBJECTID":376262},"geometry":{"x":168897.17000000086,"y":2545540.0100000016}},{"attributes":{"ID":376273,"DIS_CODE":0,"TOWNNAME":"北區","LI":"六甲里","LIN":"10鄰","STREET":"公園路","SECT":" ","MAREA":" ","LANE":"４５１巷","ALLEY":" ","HOUSE_NO":"３６號之４","E_COORD97":168897.56,"N_COORD97":2545542.9700000002,"ADDRESS":"公園路４５１巷３６號之４","OBJECTID":376263},"geometry":{"x":168897.56000000052,"y":2545542.9700000007}},{"attributes":{"ID":376274,"DIS_CODE":0,"TOWNNAME":"北區","LI":"六甲里","LIN":"10鄰","STREET":"公園路","SECT":" ","MAREA":" ","LANE":"４５１巷","ALLEY":" ","HOUSE_NO":"３６號之６","E_COORD97":168911.60999999999,"N_COORD97":2545537.0499999998,"ADDRESS":"公園路４５１巷３６號之６","OBJECTID":376264},"geometry":{"x":168911.61000000127,"y":2545537.0500000045}},{"attributes":{"ID":376275,"DIS_CODE":0,"TOWNNAME":"北區","LI":"六甲里","LIN":"10鄰","STREET":"公園路","SECT":" ","MAREA":" ","LANE":"４５１巷","ALLEY":" ","HOUSE_NO":"３６號之７","E_COORD97":168909.44,"N_COORD97":2545532.2999999998,"ADDRESS":"公園路４５１巷３６號之７","OBJECTID":376265},"geometry":{"x":168909.44000000134,"y":2545532.3000000026}},{"attributes":{"ID":376276,"DIS_CODE":0,"TOWNNAME":"北區","LI":"六甲里","LIN":"10鄰","STREET":"公園路","SECT":" ","MAREA":" ","LANE":"４８７巷","ALLEY":" ","HOUSE_NO":"２５號","E_COORD97":168929.81,"N_COORD97":2545517.6800000002,"ADDRESS":"公園路４８７巷２５號","OBJECTID":376266},"geometry":{"x":168929.81000000052,"y":2545517.6799999978}},{"attributes":{"ID":376277,"DIS_CODE":0,"TOWNNAME":"北區","LI":"六甲里","LIN":"10鄰","STREET":"公園路","SECT":" ","MAREA":" ","LANE":"４８７巷","ALLEY":" ","HOUSE_NO":"２７號","E_COORD97":168929.42999999999,"N_COORD97":2545526.2599999998,"ADDRESS":"公園路４８７巷２７號","OBJECTID":376267},"geometry":{"x":168929.43000000063,"y":2545526.2599999998}},{"attributes":{"ID":376278,"DIS_CODE":0,"TOWNNAME":"北區","LI":"六甲里","LIN":"10鄰","STREET":"公園路","SECT":" ","MAREA":" ","LANE":"４８７巷","ALLEY":" ","HOUSE_NO":"２７號之１","E_COORD97":168931.41,"N_COORD97":2545531.2000000002,"ADDRESS":"公園路４８７巷２７號之１","OBJECTID":376268},"geometry":{"x":168931.41000000108,"y":2545531.2000000011}},{"attributes":{"ID":376279,"DIS_CODE":0,"TOWNNAME":"北區","LI":"六甲里","LIN":"10鄰","STREET":"公園路","SECT":" ","MAREA":" ","LANE":"４８７巷","ALLEY":" ","HOUSE_NO":"３５號","E_COORD97":168932.79000000001,"N_COORD97":2545550.5600000001,"ADDRESS":"公園路４８７巷３５號","OBJECTID":376269},"geometry":{"x":168932.79000000004,"y":2545550.5600000024}},{"attributes":{"ID":376280,"DIS_CODE":0,"TOWNNAME":"北區","LI":"六甲里","LIN":"10鄰","STREET":"公園路","SECT":" ","MAREA":" ","LANE":"４８７巷","ALLEY":" ","HOUSE_NO":"３９號","E_COORD97":168938.32999999999,"N_COORD97":2545563.6000000001,"ADDRESS":"公園路４８７巷３９號","OBJECTID":376270},"geometry":{"x":168938.33000000194,"y":2545563.6000000015}},{"attributes":{"ID":376281,"DIS_CODE":0,"TOWNNAME":"北區","LI":"文元里","LIN":"10鄰","STREET":"文賢路","SECT":" ","MAREA":" ","LANE":"１１２２巷","ALLEY":" ","HOUSE_NO":"２６號","E_COORD97":167402.72,"N_COORD97":2546327.5800000001,"ADDRESS":"文賢路１１２２巷２６號","OBJECTID":376271},"geometry":{"x":167402.71999999974,"y":2546327.5800000001}},{"attributes":{"ID":376282,"DIS_CODE":0,"TOWNNAME":"北區","LI":"延平里","LIN":"10鄰","STREET":"公園路","SECT":" ","MAREA":" ","LANE":"８２０巷","ALLEY":" ","HOUSE_NO":"１９號","E_COORD97":169282.95999999999,"N_COORD97":2545834.8300000001,"ADDRESS":"公園路８２０巷１９號","OBJECTID":376272},"geometry":{"x":169282.95999999996,"y":2545834.8300000001}},{"attributes":{"ID":376283,"DIS_CODE":0,"TOWNNAME":"北區","LI":"延平里","LIN":"10鄰","STREET":"公園路","SECT":" ","MAREA":" ","LANE":"８２０巷","ALLEY":" ","HOUSE_NO":"２１號","E_COORD97":169279.53,"N_COORD97":2545829.6899999999,"ADDRESS":"公園路８２０巷２１號","OBJECTID":376273},"geometry":{"x":169279.52999999933,"y":2545829.6900000032}},{"attributes":{"ID":376284,"DIS_CODE":0,"TOWNNAME":"北區","LI":"延平里","LIN":"10鄰","STREET":"公園路","SECT":" ","MAREA":" ","LANE":"８２０巷","ALLEY":" ","HOUSE_NO":"２３號","E_COORD97":169278.5,"N_COORD97":2545827.1099999999,"ADDRESS":"公園路８２０巷２３號","OBJECTID":376274},"geometry":{"x":169278.50000000093,"y":2545827.1100000013}},{"attributes":{"ID":376285,"DIS_CODE":0,"TOWNNAME":"北區","LI":"延平里","LIN":"10鄰","STREET":"公園路","SECT":" ","MAREA":" ","LANE":"８２０巷","ALLEY":" ","HOUSE_NO":"３２號","E_COORD97":169280.73000000001,"N_COORD97":2545808.2000000002,"ADDRESS":"公園路８２０巷３２號","OBJECTID":376275},"geometry":{"x":169280.73000000138,"y":2545808.1999999993}},{"attributes":{"ID":376286,"DIS_CODE":0,"TOWNNAME":"北區","LI":"延平里","LIN":"10鄰","STREET":"公園路","SECT":" ","MAREA":" ","LANE":"８２０巷","ALLEY":" ","HOUSE_NO":"３４號","E_COORD97":169272.48999999999,"N_COORD97":2545811.2799999998,"ADDRESS":"公園路８２０巷３４號","OBJECTID":376276},"geometry":{"x":169272.49000000022,"y":2545811.2799999993}},{"attributes":{"ID":376287,"DIS_CODE":0,"TOWNNAME":"北區","LI":"延平里","LIN":"10鄰","STREET":"公園路","SECT":" ","MAREA":" ","LANE":"８２０巷","ALLEY":" ","HOUSE_NO":"３６號","E_COORD97":169286.22,"N_COORD97":2545800.6499999999,"ADDRESS":"公園路８２０巷３６號","OBJECTID":376277},"geometry":{"x":169286.2200000016,"y":2545800.6500000022}},{"attributes":{"ID":376288,"DIS_CODE":0,"TOWNNAME":"北區","LI":"延平里","LIN":"10鄰","STREET":"公園路","SECT":" ","MAREA":" ","LANE":"８２０巷","ALLEY":" ","HOUSE_NO":"３０號","E_COORD97":169264.81,"N_COORD97":2545799.9300000002,"ADDRESS":"公園路８２０巷３０號","OBJECTID":376278},"geometry":{"x":169264.80999999959,"y":2545799.9299999997}},{"attributes":{"ID":376289,"DIS_CODE":0,"TOWNNAME":"新營區","LI":"南興里","LIN":"10鄰","STREET":"和平路","SECT":" ","MAREA":" ","LANE":"１０４巷","ALLEY":" ","HOUSE_NO":"８號","E_COORD97":179378.10000000001,"N_COORD97":2577565.6600000001,"ADDRESS":"和平路１０４巷８號","OBJECTID":376279},"geometry":{"x":179378.09999999963,"y":2577565.660000002}},{"attributes":{"ID":376290,"DIS_CODE":0,"TOWNNAME":"新營區","LI":"嘉芳里","LIN":"10鄰","STREET":"嘉芳街","SECT":" ","MAREA":" ","LANE":"２５巷","ALLEY":" ","HOUSE_NO":"２７號","E_COORD97":177030.44,"N_COORD97":2578550.5,"ADDRESS":"嘉芳街２５巷２７號","OBJECTID":376280},"geometry":{"x":177030.44000000041,"y":2578550.5}},{"attributes":{"ID":376291,"DIS_CODE":0,"TOWNNAME":"新營區","LI":"新東里","LIN":"10鄰","STREET":"東仁街","SECT":" ","MAREA":" ","LANE":"１０巷","ALLEY":" ","HOUSE_NO":"３號","E_COORD97":181282.11343900001,"N_COORD97":2579531.4549500002,"ADDRESS":"東仁街１０巷３號","OBJECTID":376281},"geometry":{"x":181282.11343900114,"y":2579531.4549470022}},{"attributes":{"ID":376292,"DIS_CODE":0,"TOWNNAME":"新營區","LI":"新東里","LIN":"10鄰","STREET":"東仁街","SECT":" ","MAREA":" ","LANE":"８２巷","ALLEY":" ","HOUSE_NO":"３５號","E_COORD97":181411.29999999999,"N_COORD97":2579703.7000000002,"ADDRESS":"東仁街８２巷３５號","OBJECTID":376282},"geometry":{"x":181411.29999999981,"y":2579703.7000000011}},{"attributes":{"ID":376293,"DIS_CODE":0,"TOWNNAME":"新營區","LI":"新東里","LIN":"10鄰","STREET":"東仁街","SECT":" ","MAREA":" ","LANE":"８２巷","ALLEY":" ","HOUSE_NO":"３７號","E_COORD97":181415.42000000001,"N_COORD97":2579702.3700000001,"ADDRESS":"東仁街８２巷３７號","OBJECTID":376283},"geometry":{"x":181415.41999999993,"y":2579702.370000001}},{"attributes":{"ID":376294,"DIS_CODE":0,"TOWNNAME":"新營區","LI":"新東里","LIN":"10鄰","STREET":"東仁街","SECT":" ","MAREA":" ","LANE":"８２巷","ALLEY":" ","HOUSE_NO":"３９號","E_COORD97":181419.70000000001,"N_COORD97":2579700.8100000001,"ADDRESS":"東仁街８２巷３９號","OBJECTID":376284},"geometry":{"x":181419.70000000112,"y":2579700.8100000024}},{"attributes":{"ID":376295,"DIS_CODE":0,"TOWNNAME":"新營區","LI":"新東里","LIN":"10鄰","STREET":"東仁街","SECT":" ","MAREA":" ","LANE":"８２巷","ALLEY":" ","HOUSE_NO":"４１號","E_COORD97":181423.23000000001,"N_COORD97":2579699.6800000002,"ADDRESS":"東仁街８２巷４１號","OBJECTID":376285},"geometry":{"x":181423.23000000138,"y":2579699.6800000034}},{"attributes":{"ID":376296,"DIS_CODE":0,"TOWNNAME":"新營區","LI":"新東里","LIN":"10鄰","STREET":"東昌街","SECT":" ","MAREA":" ","LANE":"５６巷","ALLEY":" ","HOUSE_NO":"５號","E_COORD97":181374.28,"N_COORD97":2579538.7400000002,"ADDRESS":"東昌街５６巷５號","OBJECTID":376286},"geometry":{"x":181374.28000000026,"y":2579538.7400000021}},{"attributes":{"ID":376297,"DIS_CODE":0,"TOWNNAME":"新營區","LI":"新東里","LIN":"10鄰","STREET":"東昌街","SECT":" ","MAREA":" ","LANE":"５６巷","ALLEY":" ","HOUSE_NO":"６號","E_COORD97":181366.45999999999,"N_COORD97":2579547.2999999998,"ADDRESS":"東昌街５６巷６號","OBJECTID":376287},"geometry":{"x":181366.46000000183,"y":2579547.3000000045}},{"attributes":{"ID":376298,"DIS_CODE":0,"TOWNNAME":"永康區","LI":"南灣里","LIN":"10鄰","STREET":"大灣東路","SECT":" ","MAREA":" ","LANE":"２２巷","ALLEY":" ","HOUSE_NO":"１３８號","E_COORD97":173925.17999999999,"N_COORD97":2543839.8700000001,"ADDRESS":"大灣東路２２巷１３８號","OBJECTID":376288},"geometry":{"x":173925.18000000063,"y":2543839.8700000048}},{"attributes":{"ID":376299,"DIS_CODE":0,"TOWNNAME":"永康區","LI":"神洲里","LIN":"10鄰","STREET":"忠孝路","SECT":" ","MAREA":" ","LANE":"１５２巷","ALLEY":" ","HOUSE_NO":"３３號","E_COORD97":172187.56,"N_COORD97":2545091.5,"ADDRESS":"忠孝路１５２巷３３號","OBJECTID":376289},"geometry":{"x":172187.55999999866,"y":2545091.5}},{"attributes":{"ID":376300,"DIS_CODE":0,"TOWNNAME":"永康區","LI":"南灣里","LIN":"10鄰","STREET":"南興路","SECT":" ","MAREA":" ","LANE":"３巷","ALLEY":" ","HOUSE_NO":"３號之２","E_COORD97":174033.64999999999,"N_COORD97":2543857.0499999998,"ADDRESS":"南興路３巷３號之２","OBJECTID":376290},"geometry":{"x":174033.65000000037,"y":2543857.0500000007}},{"attributes":{"ID":376301,"DIS_CODE":0,"TOWNNAME":"永康區","LI":"神洲里","LIN":"10鄰","STREET":"忠孝路","SECT":" ","MAREA":" ","LANE":"１５２巷","ALLEY":" ","HOUSE_NO":"２７號","E_COORD97":172175.42000000001,"N_COORD97":2545092,"ADDRESS":"忠孝路１５２巷２７號","OBJECTID":376291},"geometry":{"x":172175.42000000179,"y":2545091.9999999981}},{"attributes":{"ID":376302,"DIS_CODE":0,"TOWNNAME":"永康區","LI":"南灣里","LIN":"10鄰","STREET":"南興路","SECT":" ","MAREA":" ","LANE":"３巷","ALLEY":" ","HOUSE_NO":"１號","E_COORD97":174054.53,"N_COORD97":2543868.9900000002,"ADDRESS":"南興路３巷１號","OBJECTID":376292},"geometry":{"x":174054.53000000026,"y":2543868.9900000021}},{"attributes":{"ID":376303,"DIS_CODE":0,"TOWNNAME":"永康區","LI":"神洲里","LIN":"10鄰","STREET":"忠孝路","SECT":" ","MAREA":" ","LANE":"１５２巷","ALLEY":" ","HOUSE_NO":"３７號","E_COORD97":172201.13,"N_COORD97":2545091,"ADDRESS":"忠孝路１５２巷３７號","OBJECTID":376293},"geometry":{"x":172201.13000000175,"y":2545091}},{"attributes":{"ID":376304,"DIS_CODE":0,"TOWNNAME":"南區","LI":"府南里","LIN":"10鄰","STREET":"金華路","SECT":"一段","MAREA":" ","LANE":"４８４巷","ALLEY":" ","HOUSE_NO":"２５３號","E_COORD97":167463.54999999999,"N_COORD97":2541075.0099999998,"ADDRESS":"金華路一段４８４巷２５３號","OBJECTID":376294},"geometry":{"x":167463.55000000168,"y":2541075.0100000016}},{"attributes":{"ID":376305,"DIS_CODE":0,"TOWNNAME":"南區","LI":"明興里","LIN":"10鄰","STREET":"金華路","SECT":"一段","MAREA":" ","LANE":"１０２巷","ALLEY":" ","HOUSE_NO":"３號","E_COORD97":166945.17000000001,"N_COORD97":2540509.6299999999,"ADDRESS":"金華路一段１０２巷３號","OBJECTID":376295},"geometry":{"x":166945.16999999993,"y":2540509.6299999971}},{"attributes":{"ID":376306,"DIS_CODE":0,"TOWNNAME":"南區","LI":"明興里","LIN":"10鄰","STREET":"金華路","SECT":"一段","MAREA":" ","LANE":"１０２巷","ALLEY":" ","HOUSE_NO":"４號","E_COORD97":166950.64999999999,"N_COORD97":2540510.0600000001,"ADDRESS":"金華路一段１０２巷４號","OBJECTID":376296},"geometry":{"x":166950.65000000037,"y":2540510.0600000024}},{"attributes":{"ID":376307,"DIS_CODE":0,"TOWNNAME":"南區","LI":"明興里","LIN":"10鄰","STREET":"金華路","SECT":"一段","MAREA":" ","LANE":"１０２巷","ALLEY":" ","HOUSE_NO":"５號","E_COORD97":166954.47,"N_COORD97":2540510.3100000001,"ADDRESS":"金華路一段１０２巷５號","OBJECTID":376297},"geometry":{"x":166954.47000000067,"y":2540510.3100000042}},{"attributes":{"ID":376308,"DIS_CODE":0,"TOWNNAME":"南區","LI":"明興里","LIN":"10鄰","STREET":"金華路","SECT":"一段","MAREA":" ","LANE":"１０２巷","ALLEY":" ","HOUSE_NO":"６號","E_COORD97":166957.95999999999,"N_COORD97":2540510.6499999999,"ADDRESS":"金華路一段１０２巷６號","OBJECTID":376298},"geometry":{"x":166957.96000000089,"y":2540510.6500000004}},{"attributes":{"ID":376309,"DIS_CODE":0,"TOWNNAME":"南區","LI":"明興里","LIN":"10鄰","STREET":"金華路","SECT":"一段","MAREA":" ","LANE":"１０２巷","ALLEY":" ","HOUSE_NO":"７號","E_COORD97":166963.31,"N_COORD97":2540510.0600000001,"ADDRESS":"金華路一段１０２巷７號","OBJECTID":376299},"geometry":{"x":166963.31000000052,"y":2540510.0600000024}},{"attributes":{"ID":376310,"DIS_CODE":0,"TOWNNAME":"南區","LI":"明興里","LIN":"10鄰","STREET":"金華路","SECT":"一段","MAREA":" ","LANE":"１０２巷","ALLEY":" ","HOUSE_NO":"８號","E_COORD97":166968.48999999999,"N_COORD97":2540510.0600000001,"ADDRESS":"金華路一段１０２巷８號","OBJECTID":376300},"geometry":{"x":166968.49000000115,"y":2540510.0600000024}},{"attributes":{"ID":376311,"DIS_CODE":0,"TOWNNAME":"南區","LI":"明興里","LIN":"10鄰","STREET":"金華路","SECT":"一段","MAREA":" ","LANE":"１０２巷","ALLEY":" ","HOUSE_NO":"９號","E_COORD97":166972.62,"N_COORD97":2540510.3999999999,"ADDRESS":"金華路一段１０２巷９號","OBJECTID":376301},"geometry":{"x":166972.62000000011,"y":2540510.4000000022}},{"attributes":{"ID":376312,"DIS_CODE":0,"TOWNNAME":"南區","LI":"明興里","LIN":"10鄰","STREET":"金華路","SECT":"一段","MAREA":" ","LANE":"１０２巷","ALLEY":" ","HOUSE_NO":"１０號","E_COORD97":166977.47,"N_COORD97":2540510.8199999998,"ADDRESS":"金華路一段１０２巷１０號","OBJECTID":376302},"geometry":{"x":166977.4700000016,"y":2540510.8200000022}},{"attributes":{"ID":376313,"DIS_CODE":0,"TOWNNAME":"新營區","LI":"新東里","LIN":"10鄰","STREET":"東昌街","SECT":" ","MAREA":" ","LANE":"５６巷","ALLEY":" ","HOUSE_NO":"７號","E_COORD97":181372.25,"N_COORD97":2579533.5800000001,"ADDRESS":"東昌街５６巷７號","OBJECTID":376303},"geometry":{"x":181372.25,"y":2579533.5800000001}},{"attributes":{"ID":376314,"DIS_CODE":0,"TOWNNAME":"新營區","LI":"新東里","LIN":"10鄰","STREET":"東昌街","SECT":" ","MAREA":" ","LANE":"５６巷","ALLEY":" ","HOUSE_NO":"８號","E_COORD97":181364.60999999999,"N_COORD97":2579542.0800000001,"ADDRESS":"東昌街５６巷８號","OBJECTID":376304},"geometry":{"x":181364.61000000127,"y":2579542.0800000019}},{"attributes":{"ID":376315,"DIS_CODE":0,"TOWNNAME":"新營區","LI":"新東里","LIN":"10鄰","STREET":"東昌街","SECT":" ","MAREA":" ","LANE":"５６巷","ALLEY":" ","HOUSE_NO":"９號","E_COORD97":181370.32999999999,"N_COORD97":2579528.5800000001,"ADDRESS":"東昌街５６巷９號","OBJECTID":376305},"geometry":{"x":181370.33000000007,"y":2579528.5800000019}},{"attributes":{"ID":376316,"DIS_CODE":0,"TOWNNAME":"新化區","LI":"豐榮里","LIN":"10鄰","STREET":"信義路","SECT":" ","MAREA":" ","LANE":"４８４巷","ALLEY":" ","HOUSE_NO":"２９號","E_COORD97":178369.67999999999,"N_COORD97":2548355.25,"ADDRESS":"信義路４８４巷２９號","OBJECTID":376306},"geometry":{"x":178369.68000000063,"y":2548355.2499999981}},{"attributes":{"ID":376317,"DIS_CODE":0,"TOWNNAME":"新化區","LI":"東榮里","LIN":"10鄰","STREET":"信義路","SECT":" ","MAREA":" ","LANE":"１３１巷","ALLEY":" ","HOUSE_NO":"２６號","E_COORD97":179643.28,"N_COORD97":2548409.25,"ADDRESS":"信義路１３１巷２６號","OBJECTID":376307},"geometry":{"x":179643.28000000026,"y":2548409.25}},{"attributes":{"ID":376318,"DIS_CODE":0,"TOWNNAME":"新化區","LI":"東榮里","LIN":"10鄰","STREET":"信義路","SECT":" ","MAREA":" ","LANE":"１３１巷","ALLEY":" ","HOUSE_NO":"２２號","E_COORD97":179644.17999999999,"N_COORD97":2548421.25,"ADDRESS":"信義路１３１巷２２號","OBJECTID":376308},"geometry":{"x":179644.18000000156,"y":2548421.2500000019}},{"attributes":{"ID":376319,"DIS_CODE":0,"TOWNNAME":"新化區","LI":"豐榮里","LIN":"10鄰","STREET":"正新路","SECT":" ","MAREA":" ","LANE":"２１７巷","ALLEY":" ","HOUSE_NO":"１１號","E_COORD97":178522.57000000001,"N_COORD97":2548343.25,"ADDRESS":"正新路２１７巷１１號","OBJECTID":376309},"geometry":{"x":178522.5700000003,"y":2548343.2500000019}},{"attributes":{"ID":376320,"DIS_CODE":0,"TOWNNAME":"新化區","LI":"協興里","LIN":"10鄰","STREET":"正新路","SECT":" ","MAREA":" ","LANE":"３６３巷","ALLEY":" ","HOUSE_NO":"３１號","E_COORD97":178454.47,"N_COORD97":2548862.25,"ADDRESS":"正新路３６３巷３１號","OBJECTID":376310},"geometry":{"x":178454.47000000067,"y":2548862.2500000019}},{"attributes":{"ID":376321,"DIS_CODE":0,"TOWNNAME":"新化區","LI":"協興里","LIN":"10鄰","STREET":"正新路","SECT":" ","MAREA":" ","LANE":"３６３巷","ALLEY":" ","HOUSE_NO":"４１號","E_COORD97":178432.76999999999,"N_COORD97":2548859.25,"ADDRESS":"正新路３６３巷４１號","OBJECTID":376311},"geometry":{"x":178432.76999999955,"y":2548859.25}},{"attributes":{"ID":376322,"DIS_CODE":0,"TOWNNAME":"新化區","LI":"協興里","LIN":"10鄰","STREET":"正新路","SECT":" ","MAREA":" ","LANE":"３６３巷","ALLEY":" ","HOUSE_NO":"４６號","E_COORD97":178424.87,"N_COORD97":2548894.25,"ADDRESS":"正新路３６３巷４６號","OBJECTID":376312},"geometry":{"x":178424.87000000104,"y":2548894.25}},{"attributes":{"ID":376323,"DIS_CODE":0,"TOWNNAME":"新化區","LI":"協興里","LIN":"10鄰","STREET":"正新路","SECT":" ","MAREA":" ","LANE":"３４１巷","ALLEY":" ","HOUSE_NO":"７０號","E_COORD97":178393.87,"N_COORD97":2548807.25,"ADDRESS":"正新路３４１巷７０號","OBJECTID":376313},"geometry":{"x":178393.87000000197,"y":2548807.2500000019}},{"attributes":{"ID":376324,"DIS_CODE":0,"TOWNNAME":"新營區","LI":"新東里","LIN":"10鄰","STREET":"東仁街","SECT":" ","MAREA":" ","LANE":"１０巷","ALLEY":" ","HOUSE_NO":"７號","E_COORD97":181292.28378500001,"N_COORD97":2579530.6082799998,"ADDRESS":"東仁街１０巷７號","OBJECTID":376314},"geometry":{"x":181292.28378500137,"y":2579530.6082800012}},{"attributes":{"ID":376325,"DIS_CODE":0,"TOWNNAME":"新化區","LI":"護國里","LIN":"10鄰","STREET":"中山路","SECT":" ","MAREA":" ","LANE":"９４巷","ALLEY":" ","HOUSE_NO":"３號","E_COORD97":179583.85999999999,"N_COORD97":2549115.25,"ADDRESS":"中山路９４巷３號","OBJECTID":376315},"geometry":{"x":179583.86000000034,"y":2549115.2500000019}},{"attributes":{"ID":376326,"DIS_CODE":0,"TOWNNAME":"新化區","LI":"武安里","LIN":"10鄰","STREET":"和平街","SECT":" ","MAREA":" ","LANE":"１４３巷","ALLEY":" ","HOUSE_NO":"２號之１","E_COORD97":178879.14999999999,"N_COORD97":2548184.2599999998,"ADDRESS":"和平街１４３巷２號之１","OBJECTID":376316},"geometry":{"x":178879.1500000013,"y":2548184.2599999998}},{"attributes":{"ID":376327,"DIS_CODE":0,"TOWNNAME":"新化區","LI":"協興里","LIN":"10鄰","STREET":"正新路","SECT":" ","MAREA":" ","LANE":"３６３巷","ALLEY":" ","HOUSE_NO":"３７號","E_COORD97":178440.76999999999,"N_COORD97":2548860.25,"ADDRESS":"正新路３６３巷３７號","OBJECTID":376317},"geometry":{"x":178440.76999999955,"y":2548860.25}},{"attributes":{"ID":376328,"DIS_CODE":0,"TOWNNAME":"新化區","LI":"協興里","LIN":"10鄰","STREET":"正新路","SECT":" ","MAREA":" ","LANE":"３６３巷","ALLEY":" ","HOUSE_NO":"２６號","E_COORD97":178458.26999999999,"N_COORD97":2548898.25,"ADDRESS":"正新路３６３巷２６號","OBJECTID":376318},"geometry":{"x":178458.26999999955,"y":2548898.2500000019}},{"attributes":{"ID":376329,"DIS_CODE":0,"TOWNNAME":"新化區","LI":"協興里","LIN":"10鄰","STREET":"太平街","SECT":" ","MAREA":" ","LANE":"１３４巷","ALLEY":" ","HOUSE_NO":"６４號","E_COORD97":178520.07000000001,"N_COORD97":2548790.25,"ADDRESS":"太平街１３４巷６４號","OBJECTID":376319},"geometry":{"x":178520.07000000123,"y":2548790.2500000019}},{"attributes":{"ID":376330,"DIS_CODE":0,"TOWNNAME":"新化區","LI":"協興里","LIN":"10鄰","STREET":"太平街","SECT":" ","MAREA":" ","LANE":"１３４巷","ALLEY":" ","HOUSE_NO":"７０號","E_COORD97":178493.47,"N_COORD97":2548795.25,"ADDRESS":"太平街１３４巷７０號","OBJECTID":376320},"geometry":{"x":178493.47000000067,"y":2548795.25}},{"attributes":{"ID":376331,"DIS_CODE":0,"TOWNNAME":"新化區","LI":"協興里","LIN":"10鄰","STREET":"正新路","SECT":" ","MAREA":" ","LANE":"３４１巷","ALLEY":" ","HOUSE_NO":"８０號","E_COORD97":178376.57000000001,"N_COORD97":2548804.25,"ADDRESS":"正新路３４１巷８０號","OBJECTID":376321},"geometry":{"x":178376.57000000123,"y":2548804.2500000019}},{"attributes":{"ID":376332,"DIS_CODE":0,"TOWNNAME":"新化區","LI":"東榮里","LIN":"10鄰","STREET":"信義路","SECT":" ","MAREA":" ","LANE":"１３１巷","ALLEY":" ","HOUSE_NO":"４號","E_COORD97":179638.73000000001,"N_COORD97":2548463.25,"ADDRESS":"信義路１３１巷４號","OBJECTID":376322},"geometry":{"x":179638.73000000045,"y":2548463.25}},{"attributes":{"ID":376333,"DIS_CODE":0,"TOWNNAME":"新化區","LI":"協興里","LIN":"10鄰","STREET":"正新路","SECT":" ","MAREA":" ","LANE":"３４１巷","ALLEY":" ","HOUSE_NO":"６２號","E_COORD97":178412.87,"N_COORD97":2548810.25,"ADDRESS":"正新路３４１巷６２號","OBJECTID":376323},"geometry":{"x":178412.87000000104,"y":2548810.2500000019}},{"attributes":{"ID":376334,"DIS_CODE":0,"TOWNNAME":"新化區","LI":"協興里","LIN":"10鄰","STREET":"正新路","SECT":" ","MAREA":" ","LANE":"３４１巷","ALLEY":" ","HOUSE_NO":"２２號","E_COORD97":178480.26999999999,"N_COORD97":2548822.25,"ADDRESS":"正新路３４１巷２２號","OBJECTID":376324},"geometry":{"x":178480.26999999955,"y":2548822.25}},{"attributes":{"ID":376335,"DIS_CODE":0,"TOWNNAME":"新化區","LI":"東榮里","LIN":"10鄰","STREET":"信義路","SECT":" ","MAREA":" ","LANE":"１３１巷","ALLEY":" ","HOUSE_NO":"２２號之１","E_COORD97":179644.60999999999,"N_COORD97":2548416.2599999998,"ADDRESS":"信義路１３１巷２２號之１","OBJECTID":376325},"geometry":{"x":179644.61000000034,"y":2548416.2600000035}},{"attributes":{"ID":376336,"DIS_CODE":0,"TOWNNAME":"新化區","LI":"協興里","LIN":"10鄰","STREET":"正新路","SECT":" ","MAREA":" ","LANE":"３４１巷","ALLEY":" ","HOUSE_NO":"２０號","E_COORD97":178483.87,"N_COORD97":2548823.25,"ADDRESS":"正新路３４１巷２０號","OBJECTID":376326},"geometry":{"x":178483.87000000197,"y":2548823.2500000037}},{"attributes":{"ID":376337,"DIS_CODE":0,"TOWNNAME":"新化區","LI":"協興里","LIN":"10鄰","STREET":"正新路","SECT":" ","MAREA":" ","LANE":"３４１巷","ALLEY":" ","HOUSE_NO":"１１號","E_COORD97":178468.67000000001,"N_COORD97":2548799.25,"ADDRESS":"正新路３４１巷１１號","OBJECTID":376327},"geometry":{"x":178468.67000000086,"y":2548799.25}},{"attributes":{"ID":376338,"DIS_CODE":0,"TOWNNAME":"新化區","LI":"豐榮里","LIN":"10鄰","STREET":"信義路","SECT":" ","MAREA":" ","LANE":"４８４巷","ALLEY":" ","HOUSE_NO":"３４號","E_COORD97":178387.98000000001,"N_COORD97":2548361.25,"ADDRESS":"信義路４８４巷３４號","OBJECTID":376328},"geometry":{"x":178387.98000000045,"y":2548361.25}},{"attributes":{"ID":376339,"DIS_CODE":0,"TOWNNAME":"新化區","LI":"協興里","LIN":"10鄰","STREET":"正新路","SECT":" ","MAREA":" ","LANE":"３４１巷","ALLEY":" ","HOUSE_NO":"１６號","E_COORD97":178491.76999999999,"N_COORD97":2548824.25,"ADDRESS":"正新路３４１巷１６號","OBJECTID":376329},"geometry":{"x":178491.76999999955,"y":2548824.2500000019}},{"attributes":{"ID":376340,"DIS_CODE":0,"TOWNNAME":"新化區","LI":"豐榮里","LIN":"10鄰","STREET":"信義路","SECT":" ","MAREA":" ","LANE":"４８４巷","ALLEY":" ","HOUSE_NO":"１６號","E_COORD97":178430.78,"N_COORD97":2548317.25,"ADDRESS":"信義路４８４巷１６號","OBJECTID":376330},"geometry":{"x":178430.78000000119,"y":2548317.25}},{"attributes":{"ID":376341,"DIS_CODE":0,"TOWNNAME":"新化區","LI":"協興里","LIN":"10鄰","STREET":"正新路","SECT":" ","MAREA":" ","LANE":"３４１巷","ALLEY":" ","HOUSE_NO":"３號","E_COORD97":178501.22,"N_COORD97":2548816.25,"ADDRESS":"正新路３４１巷３號","OBJECTID":376331},"geometry":{"x":178501.21999999881,"y":2548816.25}},{"attributes":{"ID":376342,"DIS_CODE":0,"TOWNNAME":"新化區","LI":"豐榮里","LIN":"10鄰","STREET":"信義路","SECT":" ","MAREA":" ","LANE":"４７０巷","ALLEY":" ","HOUSE_NO":"６號","E_COORD97":178520.23000000001,"N_COORD97":2548308.25,"ADDRESS":"信義路４７０巷６號","OBJECTID":376332},"geometry":{"x":178520.23000000045,"y":2548308.2500000037}},{"attributes":{"ID":376343,"DIS_CODE":0,"TOWNNAME":"新化區","LI":"協興里","LIN":"10鄰","STREET":"正新路","SECT":" ","MAREA":" ","LANE":"３６３巷","ALLEY":" ","HOUSE_NO":"２１號","E_COORD97":178475.97,"N_COORD97":2548866.25,"ADDRESS":"正新路３６３巷２１號","OBJECTID":376333},"geometry":{"x":178475.9700000016,"y":2548866.25}},{"attributes":{"ID":376344,"DIS_CODE":0,"TOWNNAME":"新化區","LI":"太平里","LIN":"10鄰","STREET":"中正路","SECT":" ","MAREA":" ","LANE":"７７７巷","ALLEY":" ","HOUSE_NO":"４５號","E_COORD97":178628.35999999999,"N_COORD97":2549255.25,"ADDRESS":"中正路７７７巷４５號","OBJECTID":376334},"geometry":{"x":178628.36000000127,"y":2549255.2500000019}},{"attributes":{"ID":376345,"DIS_CODE":0,"TOWNNAME":"新化區","LI":"太平里","LIN":"10鄰","STREET":"中正路","SECT":" ","MAREA":" ","LANE":"７７７巷","ALLEY":" ","HOUSE_NO":"２１號","E_COORD97":178673.56,"N_COORD97":2549261.25,"ADDRESS":"中正路７７７巷２１號","OBJECTID":376335},"geometry":{"x":178673.56000000145,"y":2549261.2500000019}},{"attributes":{"ID":376346,"DIS_CODE":0,"TOWNNAME":"新化區","LI":"豐榮里","LIN":"10鄰","STREET":"正新路","SECT":" ","MAREA":" ","LANE":"２１７巷","ALLEY":" ","HOUSE_NO":"３８號","E_COORD97":178475.17000000001,"N_COORD97":2548365.25,"ADDRESS":"正新路２１７巷３８號","OBJECTID":376336},"geometry":{"x":178475.17000000086,"y":2548365.25}},{"attributes":{"ID":376347,"DIS_CODE":0,"TOWNNAME":"新化區","LI":"協興里","LIN":"10鄰","STREET":"正新路","SECT":" ","MAREA":" ","LANE":"３６３巷","ALLEY":" ","HOUSE_NO":"３號","E_COORD97":178501.62,"N_COORD97":2548870.25,"ADDRESS":"正新路３６３巷３號","OBJECTID":376337},"geometry":{"x":178501.62000000011,"y":2548870.25}},{"attributes":{"ID":376348,"DIS_CODE":0,"TOWNNAME":"新化區","LI":"東榮里","LIN":"10鄰","STREET":"信義路","SECT":" ","MAREA":" ","LANE":"１３１巷","ALLEY":" ","HOUSE_NO":"６號","E_COORD97":179626.32999999999,"N_COORD97":2548444.25,"ADDRESS":"信義路１３１巷６號","OBJECTID":376338},"geometry":{"x":179626.33000000007,"y":2548444.2500000019}},{"attributes":{"ID":376349,"DIS_CODE":0,"TOWNNAME":"新化區","LI":"協興里","LIN":"10鄰","STREET":"太平街","SECT":" ","MAREA":" ","LANE":"１３４巷","ALLEY":" ","HOUSE_NO":"３８號","E_COORD97":178503.17000000001,"N_COORD97":2548760.25,"ADDRESS":"太平街１３４巷３８號","OBJECTID":376339},"geometry":{"x":178503.16999999993,"y":2548760.2500000019}},{"attributes":{"ID":376350,"DIS_CODE":0,"TOWNNAME":"新化區","LI":"東榮里","LIN":"10鄰","STREET":"信義路","SECT":" ","MAREA":" ","LANE":"１３１巷","ALLEY":" ","HOUSE_NO":"１２號","E_COORD97":179647.48000000001,"N_COORD97":2548442.25,"ADDRESS":"信義路１３１巷１２號","OBJECTID":376340},"geometry":{"x":179647.48000000045,"y":2548442.25}},{"attributes":{"ID":376351,"DIS_CODE":0,"TOWNNAME":"新化區","LI":"豐榮里","LIN":"10鄰","STREET":"正新路","SECT":" ","MAREA":" ","LANE":"２１７巷","ALLEY":" ","HOUSE_NO":"５６號","E_COORD97":178444.76999999999,"N_COORD97":2548368.25,"ADDRESS":"正新路２１７巷５６號","OBJECTID":376341},"geometry":{"x":178444.76999999862,"y":2548368.25}},{"attributes":{"ID":376352,"DIS_CODE":0,"TOWNNAME":"新化區","LI":"協興里","LIN":"10鄰","STREET":"太平街","SECT":" ","MAREA":" ","LANE":"１３４巷","ALLEY":" ","HOUSE_NO":"４２號之１","E_COORD97":178515.76999999999,"N_COORD97":2548762.25,"ADDRESS":"太平街１３４巷４２號之１","OBJECTID":376342},"geometry":{"x":178515.76999999955,"y":2548762.2500000037}},{"attributes":{"ID":376353,"DIS_CODE":0,"TOWNNAME":"新化區","LI":"武安里","LIN":"10鄰","STREET":"和平街","SECT":" ","MAREA":" ","LANE":"１４３巷","ALLEY":" ","HOUSE_NO":"６號","E_COORD97":178874.92000000001,"N_COORD97":2548184.25,"ADDRESS":"和平街１４３巷６號","OBJECTID":376343},"geometry":{"x":178874.92000000179,"y":2548184.25}},{"attributes":{"ID":376354,"DIS_CODE":0,"TOWNNAME":"新化區","LI":"東榮里","LIN":"10鄰","STREET":"信義路","SECT":" ","MAREA":" ","LANE":"１３１巷","ALLEY":" ","HOUSE_NO":"８號","E_COORD97":179642.42999999999,"N_COORD97":2548448.25,"ADDRESS":"信義路１３１巷８號","OBJECTID":376344},"geometry":{"x":179642.43000000156,"y":2548448.2500000019}},{"attributes":{"ID":376355,"DIS_CODE":0,"TOWNNAME":"仁德區","LI":"上崙里","LIN":"15鄰","STREET":"德崙路","SECT":" ","MAREA":" ","LANE":"３９６巷","ALLEY":" ","HOUSE_NO":"１號","E_COORD97":174083.79999999999,"N_COORD97":2538067.7599999998,"ADDRESS":"德崙路３９６巷１號","OBJECTID":376345},"geometry":{"x":174083.80000000075,"y":2538067.7599999998}},{"attributes":{"ID":376356,"DIS_CODE":0,"TOWNNAME":"新化區","LI":"協興里","LIN":"10鄰","STREET":"太平街","SECT":" ","MAREA":" ","LANE":"１３４巷","ALLEY":" ","HOUSE_NO":"４０號","E_COORD97":178507.76999999999,"N_COORD97":2548761.25,"ADDRESS":"太平街１３４巷４０號","OBJECTID":376346},"geometry":{"x":178507.77000000048,"y":2548761.25}},{"attributes":{"ID":376357,"DIS_CODE":0,"TOWNNAME":"新化區","LI":"協興里","LIN":"10鄰","STREET":"太平街","SECT":" ","MAREA":" ","LANE":"１３４巷","ALLEY":" ","HOUSE_NO":"３３號","E_COORD97":178478.67000000001,"N_COORD97":2548778.25,"ADDRESS":"太平街１３４巷３３號","OBJECTID":376347},"geometry":{"x":178478.67000000086,"y":2548778.25}},{"attributes":{"ID":376358,"DIS_CODE":0,"TOWNNAME":"新化區","LI":"協興里","LIN":"10鄰","STREET":"太平街","SECT":" ","MAREA":" ","LANE":"１３４巷","ALLEY":" ","HOUSE_NO":"２５號","E_COORD97":178464.37,"N_COORD97":2548776.25,"ADDRESS":"太平街１３４巷２５號","OBJECTID":376348},"geometry":{"x":178464.37000000011,"y":2548776.2500000019}},{"attributes":{"ID":376359,"DIS_CODE":0,"TOWNNAME":"新化區","LI":"太平里","LIN":"10鄰","STREET":"中正路","SECT":" ","MAREA":" ","LANE":"７４７巷","ALLEY":" ","HOUSE_NO":"７號","E_COORD97":178708.20999999999,"N_COORD97":2549248.25,"ADDRESS":"中正路７４７巷７號","OBJECTID":376349},"geometry":{"x":178708.20999999996,"y":2549248.2500000019}},{"attributes":{"ID":376360,"DIS_CODE":0,"TOWNNAME":"新化區","LI":"太平里","LIN":"10鄰","STREET":"中正路","SECT":" ","MAREA":" ","LANE":"７７７巷","ALLEY":" ","HOUSE_NO":"１６號","E_COORD97":178629.56,"N_COORD97":2549331.25,"ADDRESS":"中正路７７７巷１６號","OBJECTID":376350},"geometry":{"x":178629.56000000052,"y":2549331.25}},{"attributes":{"ID":376361,"DIS_CODE":0,"TOWNNAME":"新化區","LI":"協興里","LIN":"10鄰","STREET":"太平街","SECT":" ","MAREA":" ","LANE":"１３４巷","ALLEY":" ","HOUSE_NO":"５２號之１","E_COORD97":178496.97,"N_COORD97":2548787.25,"ADDRESS":"太平街１３４巷５２號之１","OBJECTID":376351},"geometry":{"x":178496.97000000067,"y":2548787.2500000019}},{"attributes":{"ID":376362,"DIS_CODE":0,"TOWNNAME":"新化區","LI":"豐榮里","LIN":"10鄰","STREET":"正新路","SECT":" ","MAREA":" ","LANE":"２１７巷","ALLEY":" ","HOUSE_NO":"６２號","E_COORD97":178432.26999999999,"N_COORD97":2548374.25,"ADDRESS":"正新路２１７巷６２號","OBJECTID":376352},"geometry":{"x":178432.26999999955,"y":2548374.25}},{"attributes":{"ID":376363,"DIS_CODE":0,"TOWNNAME":"新化區","LI":"協興里","LIN":"10鄰","STREET":"太平街","SECT":" ","MAREA":" ","LANE":"１３４巷","ALLEY":" ","HOUSE_NO":"５８號","E_COORD97":178506.47,"N_COORD97":2548788.25,"ADDRESS":"太平街１３４巷５８號","OBJECTID":376353},"geometry":{"x":178506.4700000016,"y":2548788.25}},{"attributes":{"ID":376364,"DIS_CODE":0,"TOWNNAME":"仁德區","LI":"仁義里","LIN":"18鄰","STREET":"正義三街","SECT":" ","MAREA":" ","LANE":"２８６巷","ALLEY":" ","HOUSE_NO":"２１號","E_COORD97":174028.92000000001,"N_COORD97":2541480.1699999999,"ADDRESS":"正義三街２８６巷２１號","OBJECTID":376354},"geometry":{"x":174028.92000000086,"y":2541480.1700000037}},{"attributes":{"ID":376365,"DIS_CODE":0,"TOWNNAME":"新化區","LI":"協興里","LIN":"10鄰","STREET":"太平街","SECT":" ","MAREA":" ","LANE":"１３４巷","ALLEY":" ","HOUSE_NO":"４８號","E_COORD97":178523.47,"N_COORD97":2548763.25,"ADDRESS":"太平街１３４巷４８號","OBJECTID":376355},"geometry":{"x":178523.4700000016,"y":2548763.2500000019}},{"attributes":{"ID":376366,"DIS_CODE":0,"TOWNNAME":"新化區","LI":"協興里","LIN":"10鄰","STREET":"太平街","SECT":" ","MAREA":" ","LANE":"１３４巷","ALLEY":" ","HOUSE_NO":"３７號","E_COORD97":178475.17000000001,"N_COORD97":2548790.25,"ADDRESS":"太平街１３４巷３７號","OBJECTID":376356},"geometry":{"x":178475.17000000086,"y":2548790.2500000019}},{"attributes":{"ID":376367,"DIS_CODE":0,"TOWNNAME":"新化區","LI":"協興里","LIN":"10鄰","STREET":"太平街","SECT":" ","MAREA":" ","LANE":"１３４巷","ALLEY":" ","HOUSE_NO":"１７號之３","E_COORD97":178432.72,"N_COORD97":2548761.2599999998,"ADDRESS":"太平街１３４巷１７號之３","OBJECTID":376357},"geometry":{"x":178432.71999999974,"y":2548761.2599999998}},{"attributes":{"ID":376368,"DIS_CODE":0,"TOWNNAME":"新化區","LI":"協興里","LIN":"10鄰","STREET":"太平街","SECT":" ","MAREA":" ","LANE":"１３４巷","ALLEY":" ","HOUSE_NO":"１７號之２","E_COORD97":178426.53,"N_COORD97":2548759.2599999998,"ADDRESS":"太平街１３４巷１７號之２","OBJECTID":376358},"geometry":{"x":178426.53000000026,"y":2548759.2600000016}},{"attributes":{"ID":376369,"DIS_CODE":0,"TOWNNAME":"新化區","LI":"東榮里","LIN":"10鄰","STREET":"信義路","SECT":" ","MAREA":" ","LANE":"１３１巷","ALLEY":" ","HOUSE_NO":"２８號","E_COORD97":179652.78,"N_COORD97":2548395.25,"ADDRESS":"信義路１３１巷２８號","OBJECTID":376359},"geometry":{"x":179652.78000000119,"y":2548395.25}},{"attributes":{"ID":376370,"DIS_CODE":0,"TOWNNAME":"新化區","LI":"協興里","LIN":"10鄰","STREET":"太平街","SECT":" ","MAREA":" ","LANE":"１３４巷","ALLEY":" ","HOUSE_NO":"３１號","E_COORD97":178474.97,"N_COORD97":2548762.25,"ADDRESS":"太平街１３４巷３１號","OBJECTID":376360},"geometry":{"x":178474.97000000067,"y":2548762.2500000037}},{"attributes":{"ID":376371,"DIS_CODE":0,"TOWNNAME":"新化區","LI":"豐榮里","LIN":"10鄰","STREET":"正新路","SECT":" ","MAREA":" ","LANE":"２１７巷","ALLEY":" ","HOUSE_NO":"７６號","E_COORD97":178415.76999999999,"N_COORD97":2548354.25,"ADDRESS":"正新路２１７巷７６號","OBJECTID":376361},"geometry":{"x":178415.76999999955,"y":2548354.25}},{"attributes":{"ID":376372,"DIS_CODE":0,"TOWNNAME":"新化區","LI":"豐榮里","LIN":"10鄰","STREET":"正新路","SECT":" ","MAREA":" ","LANE":"２１７巷","ALLEY":" ","HOUSE_NO":"５８號","E_COORD97":178441.07000000001,"N_COORD97":2548368.25,"ADDRESS":"正新路２１７巷５８號","OBJECTID":376362},"geometry":{"x":178441.0700000003,"y":2548368.25}},{"attributes":{"ID":376373,"DIS_CODE":0,"TOWNNAME":"新化區","LI":"豐榮里","LIN":"10鄰","STREET":"正新路","SECT":" ","MAREA":" ","LANE":"２１７巷","ALLEY":" ","HOUSE_NO":"７２號","E_COORD97":178420.26999999999,"N_COORD97":2548358.25,"ADDRESS":"正新路２１７巷７２號","OBJECTID":376363},"geometry":{"x":178420.27000000048,"y":2548358.25}},{"attributes":{"ID":376374,"DIS_CODE":0,"TOWNNAME":"新化區","LI":"協興里","LIN":"10鄰","STREET":"太平街","SECT":" ","MAREA":" ","LANE":"１３４巷","ALLEY":" ","HOUSE_NO":"１７號之１","E_COORD97":178419.70000000001,"N_COORD97":2548751.2599999998,"ADDRESS":"太平街１３４巷１７號之１","OBJECTID":376364},"geometry":{"x":178419.70000000112,"y":2548751.2599999998}},{"attributes":{"ID":376375,"DIS_CODE":0,"TOWNNAME":"新化區","LI":"協興里","LIN":"10鄰","STREET":"太平街","SECT":" ","MAREA":" ","LANE":"１３４巷","ALLEY":" ","HOUSE_NO":"４６號","E_COORD97":178519.37,"N_COORD97":2548762.25,"ADDRESS":"太平街１３４巷４６號","OBJECTID":376365},"geometry":{"x":178519.37000000197,"y":2548762.2500000037}},{"attributes":{"ID":376376,"DIS_CODE":0,"TOWNNAME":"新化區","LI":"護國里","LIN":"10鄰","STREET":"中山路","SECT":" ","MAREA":" ","LANE":"９４巷","ALLEY":" ","HOUSE_NO":"１號","E_COORD97":179591.56,"N_COORD97":2549117.25,"ADDRESS":"中山路９４巷１號","OBJECTID":376366},"geometry":{"x":179591.55999999959,"y":2549117.25}},{"attributes":{"ID":376377,"DIS_CODE":0,"TOWNNAME":"新化區","LI":"協興里","LIN":"10鄰","STREET":"太平街","SECT":" ","MAREA":" ","LANE":"１３４巷","ALLEY":" ","HOUSE_NO":"２５號之１","E_COORD97":178465.39999999999,"N_COORD97":2548772.2599999998,"ADDRESS":"太平街１３４巷２５號之１","OBJECTID":376367},"geometry":{"x":178465.4000000013,"y":2548772.2600000035}},{"attributes":{"ID":376378,"DIS_CODE":0,"TOWNNAME":"新化區","LI":"太平里","LIN":"10鄰","STREET":"中正路","SECT":" ","MAREA":" ","LANE":"７４７巷","ALLEY":" ","HOUSE_NO":"１號","E_COORD97":178714.20999999999,"N_COORD97":2549240.25,"ADDRESS":"中正路７４７巷１號","OBJECTID":376368},"geometry":{"x":178714.21000000089,"y":2549240.2500000037}},{"attributes":{"ID":376379,"DIS_CODE":0,"TOWNNAME":"新化區","LI":"協興里","LIN":"10鄰","STREET":"太平街","SECT":" ","MAREA":" ","LANE":"１３４巷","ALLEY":" ","HOUSE_NO":"３６號","E_COORD97":178499.37,"N_COORD97":2548760.25,"ADDRESS":"太平街１３４巷３６號","OBJECTID":376369},"geometry":{"x":178499.37000000104,"y":2548760.2500000019}},{"attributes":{"ID":376380,"DIS_CODE":0,"TOWNNAME":"新化區","LI":"協興里","LIN":"10鄰","STREET":"太平街","SECT":" ","MAREA":" ","LANE":"１３４巷","ALLEY":" ","HOUSE_NO":"１１號","E_COORD97":178399.97,"N_COORD97":2548784.25,"ADDRESS":"太平街１３４巷１１號","OBJECTID":376370},"geometry":{"x":178399.97000000067,"y":2548784.2500000019}},{"attributes":{"ID":376381,"DIS_CODE":0,"TOWNNAME":"新化區","LI":"豐榮里","LIN":"10鄰","STREET":"正新路","SECT":" ","MAREA":" ","LANE":"２１７巷","ALLEY":" ","HOUSE_NO":"４６號","E_COORD97":178462.07000000001,"N_COORD97":2548366.25,"ADDRESS":"正新路２１７巷４６號","OBJECTID":376371},"geometry":{"x":178462.0700000003,"y":2548366.2500000019}},{"attributes":{"ID":376382,"DIS_CODE":0,"TOWNNAME":"新化區","LI":"豐榮里","LIN":"10鄰","STREET":"正新路","SECT":" ","MAREA":" ","LANE":"２１７巷","ALLEY":" ","HOUSE_NO":"６８號","E_COORD97":178427.26999999999,"N_COORD97":2548364.25,"ADDRESS":"正新路２１７巷６８號","OBJECTID":376372},"geometry":{"x":178427.26999999955,"y":2548364.25}},{"attributes":{"ID":376383,"DIS_CODE":0,"TOWNNAME":"新化區","LI":"豐榮里","LIN":"10鄰","STREET":"正新路","SECT":" ","MAREA":" ","LANE":"２１７巷","ALLEY":" ","HOUSE_NO":"１０號","E_COORD97":178531.26999999999,"N_COORD97":2548361.25,"ADDRESS":"正新路２１７巷１０號","OBJECTID":376373},"geometry":{"x":178531.27000000142,"y":2548361.25}},{"attributes":{"ID":376384,"DIS_CODE":0,"TOWNNAME":"新化區","LI":"協興里","LIN":"10鄰","STREET":"太平街","SECT":" ","MAREA":" ","LANE":"１３４巷","ALLEY":" ","HOUSE_NO":"１７號","E_COORD97":178412.76999999999,"N_COORD97":2548748.25,"ADDRESS":"太平街１３４巷１７號","OBJECTID":376374},"geometry":{"x":178412.77000000142,"y":2548748.25}},{"attributes":{"ID":376385,"DIS_CODE":0,"TOWNNAME":"新化區","LI":"協興里","LIN":"10鄰","STREET":"太平街","SECT":" ","MAREA":" ","LANE":"１３４巷","ALLEY":" ","HOUSE_NO":"５６號","E_COORD97":178501.57000000001,"N_COORD97":2548788.25,"ADDRESS":"太平街１３４巷５６號","OBJECTID":376375},"geometry":{"x":178501.57000000123,"y":2548788.25}},{"attributes":{"ID":376386,"DIS_CODE":0,"TOWNNAME":"新化區","LI":"護國里","LIN":"10鄰","STREET":"中山路","SECT":" ","MAREA":" ","LANE":"９４巷","ALLEY":" ","HOUSE_NO":"５號","E_COORD97":179579.45999999999,"N_COORD97":2549114.25,"ADDRESS":"中山路９４巷５號","OBJECTID":376376},"geometry":{"x":179579.45999999996,"y":2549114.25}},{"attributes":{"ID":376387,"DIS_CODE":0,"TOWNNAME":"新化區","LI":"太平里","LIN":"10鄰","STREET":"中正路","SECT":" ","MAREA":" ","LANE":"８５３巷","ALLEY":" ","HOUSE_NO":"１３號","E_COORD97":178605.16,"N_COORD97":2549442.25,"ADDRESS":"中正路８５３巷１３號","OBJECTID":376377},"geometry":{"x":178605.16000000015,"y":2549442.25}},{"attributes":{"ID":376388,"DIS_CODE":0,"TOWNNAME":"新化區","LI":"豐榮里","LIN":"10鄰","STREET":"正新路","SECT":" ","MAREA":" ","LANE":"２１７巷","ALLEY":" ","HOUSE_NO":"６０號","E_COORD97":178437.07000000001,"N_COORD97":2548368.25,"ADDRESS":"正新路２１７巷６０號","OBJECTID":376378},"geometry":{"x":178437.07000000123,"y":2548368.25}},{"attributes":{"ID":376389,"DIS_CODE":0,"TOWNNAME":"新化區","LI":"護國里","LIN":"10鄰","STREET":"民生路","SECT":" ","MAREA":" ","LANE":"１８６巷","ALLEY":" ","HOUSE_NO":"８９號","E_COORD97":179293.85999999999,"N_COORD97":2549246.25,"ADDRESS":"民生路１８６巷８９號","OBJECTID":376379},"geometry":{"x":179293.86000000034,"y":2549246.25}},{"attributes":{"ID":376390,"DIS_CODE":0,"TOWNNAME":"新化區","LI":"豐榮里","LIN":"10鄰","STREET":"信義路","SECT":" ","MAREA":" ","LANE":"４８４巷","ALLEY":" ","HOUSE_NO":"５號","E_COORD97":178431.73000000001,"N_COORD97":2548297.25,"ADDRESS":"信義路４８４巷５號","OBJECTID":376380},"geometry":{"x":178431.73000000045,"y":2548297.25}},{"attributes":{"ID":376391,"DIS_CODE":0,"TOWNNAME":"新化區","LI":"協興里","LIN":"10鄰","STREET":"太平街","SECT":" ","MAREA":" ","LANE":"１３４巷","ALLEY":" ","HOUSE_NO":"６６號","E_COORD97":178484.57000000001,"N_COORD97":2548795.25,"ADDRESS":"太平街１３４巷６６號","OBJECTID":376381},"geometry":{"x":178484.57000000123,"y":2548795.25}},{"attributes":{"ID":376392,"DIS_CODE":0,"TOWNNAME":"新化區","LI":"豐榮里","LIN":"10鄰","STREET":"正新路","SECT":" ","MAREA":" ","LANE":"２１７巷","ALLEY":" ","HOUSE_NO":"１３號","E_COORD97":178516.87,"N_COORD97":2548343.25,"ADDRESS":"正新路２１７巷１３號","OBJECTID":376382},"geometry":{"x":178516.87000000011,"y":2548343.2500000019}},{"attributes":{"ID":376393,"DIS_CODE":0,"TOWNNAME":"新化區","LI":"豐榮里","LIN":"10鄰","STREET":"正新路","SECT":" ","MAREA":" ","LANE":"２１７巷","ALLEY":" ","HOUSE_NO":"３５號","E_COORD97":178441.97,"N_COORD97":2548344.25,"ADDRESS":"正新路２１７巷３５號","OBJECTID":376383},"geometry":{"x":178441.9700000016,"y":2548344.25}},{"attributes":{"ID":376394,"DIS_CODE":0,"TOWNNAME":"新化區","LI":"豐榮里","LIN":"10鄰","STREET":"正新路","SECT":" ","MAREA":" ","LANE":"２１７巷","ALLEY":" ","HOUSE_NO":"３６號","E_COORD97":178480.47,"N_COORD97":2548365.25,"ADDRESS":"正新路２１７巷３６號","OBJECTID":376384},"geometry":{"x":178480.46999999974,"y":2548365.25}},{"attributes":{"ID":376395,"DIS_CODE":0,"TOWNNAME":"新化區","LI":"協興里","LIN":"10鄰","STREET":"正新路","SECT":" ","MAREA":" ","LANE":"３４１巷","ALLEY":" ","HOUSE_NO":"４６號","E_COORD97":178444.97,"N_COORD97":2548817.25,"ADDRESS":"正新路３４１巷４６號","OBJECTID":376385},"geometry":{"x":178444.96999999974,"y":2548817.2500000019}},{"attributes":{"ID":376396,"DIS_CODE":0,"TOWNNAME":"新化區","LI":"協興里","LIN":"10鄰","STREET":"太平街","SECT":" ","MAREA":" ","LANE":"１３４巷","ALLEY":" ","HOUSE_NO":"７６號","E_COORD97":178508.47,"N_COORD97":2548798.25,"ADDRESS":"太平街１３４巷７６號","OBJECTID":376386},"geometry":{"x":178508.47000000067,"y":2548798.25}},{"attributes":{"ID":376397,"DIS_CODE":0,"TOWNNAME":"新化區","LI":"協興里","LIN":"10鄰","STREET":"正新路","SECT":" ","MAREA":" ","LANE":"３４１巷","ALLEY":" ","HOUSE_NO":"２８號","E_COORD97":178472.17000000001,"N_COORD97":2548821.25,"ADDRESS":"正新路３４１巷２８號","OBJECTID":376387},"geometry":{"x":178472.17000000086,"y":2548821.2500000019}},{"attributes":{"ID":376398,"DIS_CODE":0,"TOWNNAME":"新化區","LI":"豐榮里","LIN":"10鄰","STREET":"信義路","SECT":" ","MAREA":" ","LANE":"４７０巷","ALLEY":" ","HOUSE_NO":"１３號","E_COORD97":178493.78,"N_COORD97":2548313.25,"ADDRESS":"信義路４７０巷１３號","OBJECTID":376388},"geometry":{"x":178493.78000000119,"y":2548313.25}},{"attributes":{"ID":376399,"DIS_CODE":0,"TOWNNAME":"新化區","LI":"協興里","LIN":"10鄰","STREET":"正新路","SECT":" ","MAREA":" ","LANE":"３４１巷","ALLEY":" ","HOUSE_NO":"６號","E_COORD97":178508.32000000001,"N_COORD97":2548827.25,"ADDRESS":"正新路３４１巷６號","OBJECTID":376389},"geometry":{"x":178508.32000000123,"y":2548827.2500000019}},{"attributes":{"ID":376400,"DIS_CODE":0,"TOWNNAME":"新化區","LI":"豐榮里","LIN":"10鄰","STREET":"信義路","SECT":" ","MAREA":" ","LANE":"４８４巷","ALLEY":" ","HOUSE_NO":"２０號","E_COORD97":178424.28,"N_COORD97":2548323.25,"ADDRESS":"信義路４８４巷２０號","OBJECTID":376390},"geometry":{"x":178424.28000000119,"y":2548323.25}},{"attributes":{"ID":376401,"DIS_CODE":0,"TOWNNAME":"新化區","LI":"協興里","LIN":"10鄰","STREET":"正新路","SECT":" ","MAREA":" ","LANE":"３６３巷","ALLEY":" ","HOUSE_NO":"５０號","E_COORD97":178415.07000000001,"N_COORD97":2548893.25,"ADDRESS":"正新路３６３巷５０號","OBJECTID":376391},"geometry":{"x":178415.07000000123,"y":2548893.25}},{"attributes":{"ID":376402,"DIS_CODE":0,"TOWNNAME":"新化區","LI":"豐榮里","LIN":"10鄰","STREET":"信義路","SECT":" ","MAREA":" ","LANE":"４８４巷","ALLEY":" ","HOUSE_NO":"２１號","E_COORD97":178385.88,"N_COORD97":2548340.25,"ADDRESS":"信義路４８４巷２１號","OBJECTID":376392},"geometry":{"x":178385.88000000082,"y":2548340.25}},{"attributes":{"ID":376403,"DIS_CODE":0,"TOWNNAME":"新化區","LI":"護國里","LIN":"10鄰","STREET":"民生路","SECT":" ","MAREA":" ","LANE":"１８６巷","ALLEY":" ","HOUSE_NO":"８７號","E_COORD97":179298.26000000001,"N_COORD97":2549205.25,"ADDRESS":"民生路１８６巷８７號","OBJECTID":376393},"geometry":{"x":179298.26000000071,"y":2549205.25}},{"attributes":{"ID":376404,"DIS_CODE":0,"TOWNNAME":"新化區","LI":"協興里","LIN":"10鄰","STREET":"正新路","SECT":" ","MAREA":" ","LANE":"３４１巷","ALLEY":" ","HOUSE_NO":"２６號","E_COORD97":178475.97,"N_COORD97":2548821.25,"ADDRESS":"正新路３４１巷２６號","OBJECTID":376394},"geometry":{"x":178475.9700000016,"y":2548821.2500000019}},{"attributes":{"ID":376405,"DIS_CODE":0,"TOWNNAME":"新化區","LI":"豐榮里","LIN":"10鄰","STREET":"信義路","SECT":" ","MAREA":" ","LANE":"４７０巷","ALLEY":" ","HOUSE_NO":"２號","E_COORD97":178519.82999999999,"N_COORD97":2548303.25,"ADDRESS":"信義路４７０巷２號","OBJECTID":376395},"geometry":{"x":178519.83000000101,"y":2548303.25}},{"attributes":{"ID":376406,"DIS_CODE":0,"TOWNNAME":"新化區","LI":"協興里","LIN":"10鄰","STREET":"正新路","SECT":" ","MAREA":" ","LANE":"３４１巷","ALLEY":" ","HOUSE_NO":"３０號","E_COORD97":178468.07000000001,"N_COORD97":2548821.25,"ADDRESS":"正新路３４１巷３０號","OBJECTID":376396},"geometry":{"x":178468.07000000123,"y":2548821.2500000019}},{"attributes":{"ID":376407,"DIS_CODE":0,"TOWNNAME":"新化區","LI":"協興里","LIN":"10鄰","STREET":"正新路","SECT":" ","MAREA":" ","LANE":"３４１巷","ALLEY":" ","HOUSE_NO":"５號","E_COORD97":178491.82000000001,"N_COORD97":2548815.25,"ADDRESS":"正新路３４１巷５號","OBJECTID":376397},"geometry":{"x":178491.82000000123,"y":2548815.25}},{"attributes":{"ID":376408,"DIS_CODE":0,"TOWNNAME":"新化區","LI":"豐榮里","LIN":"10鄰","STREET":"信義路","SECT":" ","MAREA":" ","LANE":"４８４巷","ALLEY":" ","HOUSE_NO":"２３號","E_COORD97":178382.57999999999,"N_COORD97":2548344.25,"ADDRESS":"信義路４８４巷２３號","OBJECTID":376398},"geometry":{"x":178382.58000000101,"y":2548344.25}},{"attributes":{"ID":376409,"DIS_CODE":0,"TOWNNAME":"新化區","LI":"豐榮里","LIN":"10鄰","STREET":"信義路","SECT":" ","MAREA":" ","LANE":"４８４巷","ALLEY":" ","HOUSE_NO":"２７號","E_COORD97":178374.78,"N_COORD97":2548351.25,"ADDRESS":"信義路４８４巷２７號","OBJECTID":376399},"geometry":{"x":178374.78000000119,"y":2548351.25}},{"attributes":{"ID":376410,"DIS_CODE":0,"TOWNNAME":"新化區","LI":"豐榮里","LIN":"10鄰","STREET":"信義路","SECT":" ","MAREA":" ","LANE":"４８４巷","ALLEY":" ","HOUSE_NO":"２號","E_COORD97":178453.73000000001,"N_COORD97":2548295.25,"ADDRESS":"信義路４８４巷２號","OBJECTID":376400},"geometry":{"x":178453.73000000045,"y":2548295.2500000019}}]}