{"displayFieldName":"TOWNNAME","fieldAliases":{"ID":"ID","DIS_CODE":"DIS_CODE","TOWNNAME":"TOWNNAME","LI":"LI","LIN":"LIN","STREET":"STREET","SECT":"SECT","MAREA":"MAREA","LANE":"LANE","ALLEY":"ALLEY","HOUSE_NO":"HOUSE_NO","E_COORD97":"E_COORD97","N_COORD97":"N_COORD97","ADDRESS":"ADDRESS","OBJECTID":"OBJECTID"},"geometryType":"esriGeometryPoint","spatialReference":{"wkid":102443,"latestWkid":3826},"fields":[{"name":"ID","type":"esriFieldTypeDouble","alias":"ID"},{"name":"DIS_CODE","type":"esriFieldTypeInteger","alias":"DIS_CODE"},{"name":"TOWNNAME","type":"esriFieldTypeString","alias":"TOWNNAME","length":8},{"name":"LI","type":"esriFieldTypeString","alias":"LI","length":8},{"name":"LIN","type":"esriFieldTypeString","alias":"LIN","length":12},{"name":"STREET","type":"esriFieldTypeString","alias":"STREET","length":20},{"name":"SECT","type":"esriFieldTypeString","alias":"SECT","length":8},{"name":"MAREA","type":"esriFieldTypeString","alias":"MAREA","length":12},{"name":"LANE","type":"esriFieldTypeString","alias":"LANE","length":10},{"name":"ALLEY","type":"esriFieldTypeString","alias":"ALLEY","length":10},{"name":"HOUSE_NO","type":"esriFieldTypeString","alias":"HOUSE_NO","length":20},{"name":"E_COORD97","type":"esriFieldTypeDouble","alias":"E_COORD97"},{"name":"N_COORD97","type":"esriFieldTypeDouble","alias":"N_COORD97"},{"name":"ADDRESS","type":"esriFieldTypeString","alias":"ADDRESS","length":50},{"name":"OBJECTID","type":"esriFieldTypeOID","alias":"OBJECTID"}],"features":[{"attributes":{"ID":33001,"DIS_CODE":0,"TOWNNAME":"新市區","LI":"潭頂里","LIN":"7鄰","STREET":" ","SECT":" ","MAREA":"潭頂","LANE":" ","ALLEY":" ","HOUSE_NO":"３０２之２號","E_COORD97":180739.34,"N_COORD97":2552865.7999999998,"ADDRESS":"潭頂３０２之２號","OBJECTID":33001},"geometry":{"x":180739.33999999985,"y":2552865.8000000026}},{"attributes":{"ID":33002,"DIS_CODE":0,"TOWNNAME":"新市區","LI":"潭頂里","LIN":"7鄰","STREET":" ","SECT":" ","MAREA":"潭頂","LANE":" ","ALLEY":" ","HOUSE_NO":"２９２號","E_COORD97":180784.64999999999,"N_COORD97":2552768.75,"ADDRESS":"潭頂２９２號","OBJECTID":33002},"geometry":{"x":180784.6500000013,"y":2552768.75}},{"attributes":{"ID":33003,"DIS_CODE":0,"TOWNNAME":"安定區","LI":"保西里","LIN":"7鄰","STREET":" ","SECT":" ","MAREA":"安定","LANE":" ","ALLEY":" ","HOUSE_NO":"３９１之２號","E_COORD97":171644.42000000001,"N_COORD97":2557753.3199999998,"ADDRESS":"安定３９１之２號","OBJECTID":33003},"geometry":{"x":171644.41999999993,"y":2557753.320000004}},{"attributes":{"ID":33004,"DIS_CODE":0,"TOWNNAME":"安定區","LI":"安定里","LIN":"7鄰","STREET":" ","SECT":" ","MAREA":"安定","LANE":" ","ALLEY":" ","HOUSE_NO":"５２之８號","E_COORD97":171990.48046200001,"N_COORD97":2558028.9059799998,"ADDRESS":"安定５２之８號","OBJECTID":33004},"geometry":{"x":171990.48046199884,"y":2558028.9059819989}},{"attributes":{"ID":33005,"DIS_CODE":0,"TOWNNAME":"安定區","LI":"安加里","LIN":"7鄰","STREET":" ","SECT":" ","MAREA":"安定","LANE":" ","ALLEY":" ","HOUSE_NO":"２２３之１號","E_COORD97":171875.01999999999,"N_COORD97":2557460.3199999998,"ADDRESS":"安定２２３之１號","OBJECTID":33005},"geometry":{"x":171875.02000000048,"y":2557460.3200000003}},{"attributes":{"ID":33006,"DIS_CODE":0,"TOWNNAME":"七股區","LI":"後港里","LIN":"15鄰","STREET":" ","SECT":" ","MAREA":"港西","LANE":" ","ALLEY":" ","HOUSE_NO":"５０號","E_COORD97":162268.94,"N_COORD97":2564867.5,"ADDRESS":"港西５０號","OBJECTID":33006},"geometry":{"x":162268.94000000041,"y":2564867.5}},{"attributes":{"ID":33007,"DIS_CODE":0,"TOWNNAME":"安定區","LI":"六嘉里","LIN":"7鄰","STREET":" ","SECT":" ","MAREA":"六塊寮","LANE":" ","ALLEY":" ","HOUSE_NO":"５６號之１","E_COORD97":170102.85000000001,"N_COORD97":2553378.2999999998,"ADDRESS":"六塊寮５６號之１","OBJECTID":33007},"geometry":{"x":170102.85000000056,"y":2553378.3000000026}},{"attributes":{"ID":33008,"DIS_CODE":0,"TOWNNAME":"安定區","LI":"六嘉里","LIN":"7鄰","STREET":" ","SECT":" ","MAREA":"六塊寮","LANE":" ","ALLEY":" ","HOUSE_NO":"６３之５號","E_COORD97":170157.62,"N_COORD97":2553276.2999999998,"ADDRESS":"六塊寮６３之５號","OBJECTID":33008},"geometry":{"x":170157.62000000104,"y":2553276.3000000026}},{"attributes":{"ID":33009,"DIS_CODE":0,"TOWNNAME":"安定區","LI":"大同里","LIN":"7鄰","STREET":" ","SECT":" ","MAREA":"大同","LANE":" ","ALLEY":" ","HOUSE_NO":"７５號","E_COORD97":170456.17000000001,"N_COORD97":2553855.25,"ADDRESS":"大同７５號","OBJECTID":33009},"geometry":{"x":170456.16999999993,"y":2553855.2500000019}},{"attributes":{"ID":33010,"DIS_CODE":0,"TOWNNAME":"安定區","LI":"港尾里","LIN":"7鄰","STREET":" ","SECT":" ","MAREA":"港子尾","LANE":" ","ALLEY":" ","HOUSE_NO":"３５之１９號","E_COORD97":172360.94,"N_COORD97":2555774.2999999998,"ADDRESS":"港子尾３５之１９號","OBJECTID":33010},"geometry":{"x":172360.94000000134,"y":2555774.3000000045}},{"attributes":{"ID":33011,"DIS_CODE":0,"TOWNNAME":"安定區","LI":"大同里","LIN":"7鄰","STREET":" ","SECT":" ","MAREA":"大同","LANE":" ","ALLEY":" ","HOUSE_NO":"７６號","E_COORD97":170471.17000000001,"N_COORD97":2553838.25,"ADDRESS":"大同７６號","OBJECTID":33011},"geometry":{"x":170471.16999999993,"y":2553838.2500000019}},{"attributes":{"ID":33012,"DIS_CODE":0,"TOWNNAME":"安定區","LI":"大同里","LIN":"7鄰","STREET":" ","SECT":" ","MAREA":"大同","LANE":" ","ALLEY":" ","HOUSE_NO":"７１之２號","E_COORD97":170413.67000000001,"N_COORD97":2553818.2999999998,"ADDRESS":"大同７１之２號","OBJECTID":33012},"geometry":{"x":170413.66999999993,"y":2553818.3000000026}},{"attributes":{"ID":33013,"DIS_CODE":0,"TOWNNAME":"安定區","LI":"六嘉里","LIN":"7鄰","STREET":" ","SECT":" ","MAREA":"六塊寮","LANE":" ","ALLEY":" ","HOUSE_NO":"６２之１號","E_COORD97":170128.12,"N_COORD97":2553319.2999999998,"ADDRESS":"六塊寮６２之１號","OBJECTID":33013},"geometry":{"x":170128.12000000197,"y":2553319.3000000045}},{"attributes":{"ID":33014,"DIS_CODE":0,"TOWNNAME":"安定區","LI":"港尾里","LIN":"7鄰","STREET":" ","SECT":" ","MAREA":"港子尾","LANE":" ","ALLEY":" ","HOUSE_NO":"３７之１５號","E_COORD97":171732.63692600001,"N_COORD97":2555696.8981900001,"ADDRESS":"港子尾３７之１５號","OBJECTID":33014},"geometry":{"x":171732.63692600001,"y":2555696.8981870022}},{"attributes":{"ID":33015,"DIS_CODE":0,"TOWNNAME":"安定區","LI":"港口里","LIN":"7鄰","STREET":" ","SECT":" ","MAREA":"港口","LANE":" ","ALLEY":" ","HOUSE_NO":"２８３號之２","E_COORD97":171442.76000000001,"N_COORD97":2554656.2999999998,"ADDRESS":"港口２８３號之２","OBJECTID":33015},"geometry":{"x":171442.76000000071,"y":2554656.3000000026}},{"attributes":{"ID":33016,"DIS_CODE":0,"TOWNNAME":"安定區","LI":"六嘉里","LIN":"7鄰","STREET":" ","SECT":" ","MAREA":"六塊寮","LANE":" ","ALLEY":" ","HOUSE_NO":"６３之１號","E_COORD97":170150.01999999999,"N_COORD97":2553286.2999999998,"ADDRESS":"六塊寮６３之１號","OBJECTID":33016},"geometry":{"x":170150.01999999955,"y":2553286.3000000026}},{"attributes":{"ID":33017,"DIS_CODE":0,"TOWNNAME":"安定區","LI":"大同里","LIN":"7鄰","STREET":" ","SECT":" ","MAREA":"大同","LANE":" ","ALLEY":" ","HOUSE_NO":"７７號","E_COORD97":170456.47,"N_COORD97":2553825.25,"ADDRESS":"大同７７號","OBJECTID":33017},"geometry":{"x":170456.47000000067,"y":2553825.2500000019}},{"attributes":{"ID":33018,"DIS_CODE":0,"TOWNNAME":"安定區","LI":"安定里","LIN":"7鄰","STREET":" ","SECT":" ","MAREA":"安定","LANE":" ","ALLEY":" ","HOUSE_NO":"５２之１１號","E_COORD97":172001.09742400001,"N_COORD97":2558045.9980600001,"ADDRESS":"安定５２之１１號","OBJECTID":33018},"geometry":{"x":172001.0974240005,"y":2558045.9980560038}},{"attributes":{"ID":33019,"DIS_CODE":0,"TOWNNAME":"安定區","LI":"大同里","LIN":"7鄰","STREET":" ","SECT":" ","MAREA":"大同","LANE":" ","ALLEY":" ","HOUSE_NO":"８２號","E_COORD97":170465.17000000001,"N_COORD97":2553806.25,"ADDRESS":"大同８２號","OBJECTID":33019},"geometry":{"x":170465.17000000086,"y":2553806.25}},{"attributes":{"ID":33020,"DIS_CODE":0,"TOWNNAME":"安定區","LI":"六嘉里","LIN":"7鄰","STREET":" ","SECT":" ","MAREA":"六塊寮","LANE":" ","ALLEY":" ","HOUSE_NO":"５７號","E_COORD97":170112.92000000001,"N_COORD97":2553337.27,"ADDRESS":"六塊寮５７號","OBJECTID":33020},"geometry":{"x":170112.92000000086,"y":2553337.2699999996}},{"attributes":{"ID":33021,"DIS_CODE":0,"TOWNNAME":"安定區","LI":"安加里","LIN":"7鄰","STREET":" ","SECT":" ","MAREA":"安定","LANE":" ","ALLEY":" ","HOUSE_NO":"２２３號之５","E_COORD97":171823.60999999999,"N_COORD97":2557458.3199999998,"ADDRESS":"安定２２３號之５","OBJECTID":33021},"geometry":{"x":171823.6100000022,"y":2557458.3199999984}},{"attributes":{"ID":33022,"DIS_CODE":0,"TOWNNAME":"安定區","LI":"安定里","LIN":"7鄰","STREET":" ","SECT":" ","MAREA":"安定","LANE":" ","ALLEY":" ","HOUSE_NO":"５２之１５號","E_COORD97":172026.54106600001,"N_COORD97":2558061.9788799998,"ADDRESS":"安定５２之１５號","OBJECTID":33022},"geometry":{"x":172026.54106600024,"y":2558061.9788810015}},{"attributes":{"ID":33023,"DIS_CODE":0,"TOWNNAME":"安定區","LI":"安加里","LIN":"7鄰","STREET":" ","SECT":" ","MAREA":"安定","LANE":" ","ALLEY":" ","HOUSE_NO":"２２５號","E_COORD97":171815.32000000001,"N_COORD97":2557482.3199999998,"ADDRESS":"安定２２５號","OBJECTID":33023},"geometry":{"x":171815.31999999937,"y":2557482.320000004}},{"attributes":{"ID":33024,"DIS_CODE":0,"TOWNNAME":"安南區","LI":"新順里","LIN":"8鄰","STREET":"總安街","SECT":"一段","MAREA":" ","LANE":"３６２巷","ALLEY":"２８弄","HOUSE_NO":"２６號","E_COORD97":169332.53,"N_COORD97":2550460.0600000001,"ADDRESS":"總安街一段３６２巷２８弄２６號","OBJECTID":33024},"geometry":{"x":169332.53000000119,"y":2550460.0600000024}},{"attributes":{"ID":33025,"DIS_CODE":0,"TOWNNAME":"安南區","LI":"新順里","LIN":"8鄰","STREET":"總安街","SECT":"一段","MAREA":" ","LANE":"３６２巷","ALLEY":"２８弄","HOUSE_NO":"２８號","E_COORD97":169336.98999999999,"N_COORD97":2550458.7000000002,"ADDRESS":"總安街一段３６２巷２８弄２８號","OBJECTID":33025},"geometry":{"x":169336.99000000022,"y":2550458.7000000011}},{"attributes":{"ID":33026,"DIS_CODE":0,"TOWNNAME":"安南區","LI":"新順里","LIN":"8鄰","STREET":"總安街","SECT":"一段","MAREA":" ","LANE":"３６２巷","ALLEY":"２８弄","HOUSE_NO":"３０號","E_COORD97":169341.85000000001,"N_COORD97":2550459.0899999999,"ADDRESS":"總安街一段３６２巷２８弄３０號","OBJECTID":33026},"geometry":{"x":169341.85000000056,"y":2550459.0900000017}},{"attributes":{"ID":33027,"DIS_CODE":0,"TOWNNAME":"安南區","LI":"新順里","LIN":"8鄰","STREET":"總安街","SECT":"一段","MAREA":" ","LANE":"３６２巷","ALLEY":"２８弄","HOUSE_NO":"３２號","E_COORD97":169345.92999999999,"N_COORD97":2550457.1499999999,"ADDRESS":"總安街一段３６２巷２８弄３２號","OBJECTID":33027},"geometry":{"x":169345.93000000156,"y":2550457.1500000004}},{"attributes":{"ID":33028,"DIS_CODE":0,"TOWNNAME":"安南區","LI":"新順里","LIN":"8鄰","STREET":"總安街","SECT":"一段","MAREA":" ","LANE":"３６２巷","ALLEY":"４６弄","HOUSE_NO":"５號","E_COORD97":169245.14999999999,"N_COORD97":2550530.25,"ADDRESS":"總安街一段３６２巷４６弄５號","OBJECTID":33028},"geometry":{"x":169245.15000000224,"y":2550530.2500000019}},{"attributes":{"ID":33029,"DIS_CODE":0,"TOWNNAME":"安南區","LI":"新順里","LIN":"8鄰","STREET":"總安街","SECT":"一段","MAREA":" ","LANE":"３６２巷","ALLEY":"４６弄","HOUSE_NO":"６號","E_COORD97":169255.95000000001,"N_COORD97":2550503.4900000002,"ADDRESS":"總安街一段３６２巷４６弄６號","OBJECTID":33029},"geometry":{"x":169255.95000000019,"y":2550503.4900000039}},{"attributes":{"ID":33030,"DIS_CODE":0,"TOWNNAME":"安南區","LI":"新順里","LIN":"8鄰","STREET":"總安街","SECT":"一段","MAREA":" ","LANE":"３６２巷","ALLEY":"４６弄","HOUSE_NO":"７號","E_COORD97":169287.67999999999,"N_COORD97":2550536.3599999999,"ADDRESS":"總安街一段３６２巷４６弄７號","OBJECTID":33030},"geometry":{"x":169287.6799999997,"y":2550536.3599999994}},{"attributes":{"ID":33031,"DIS_CODE":0,"TOWNNAME":"安南區","LI":"新順里","LIN":"8鄰","STREET":"總安街","SECT":"一段","MAREA":" ","LANE":"３６２巷","ALLEY":"４６弄","HOUSE_NO":"８號","E_COORD97":169272.17000000001,"N_COORD97":2550509.5899999999,"ADDRESS":"總安街一段３６２巷４６弄８號","OBJECTID":33031},"geometry":{"x":169272.17000000086,"y":2550509.5900000017}},{"attributes":{"ID":33032,"DIS_CODE":0,"TOWNNAME":"安南區","LI":"新順里","LIN":"8鄰","STREET":"總安街","SECT":"一段","MAREA":" ","LANE":"３６２巷","ALLEY":"４６弄","HOUSE_NO":"１２號","E_COORD97":169303.66,"N_COORD97":2550498.3199999998,"ADDRESS":"總安街一段３６２巷４６弄１２號","OBJECTID":33032},"geometry":{"x":169303.66000000015,"y":2550498.3200000022}},{"attributes":{"ID":33033,"DIS_CODE":0,"TOWNNAME":"安南區","LI":"新順里","LIN":"8鄰","STREET":"總安街","SECT":"一段","MAREA":" ","LANE":"３６２巷","ALLEY":"４６弄","HOUSE_NO":"１３號","E_COORD97":169314.70000000001,"N_COORD97":2550540.5800000001,"ADDRESS":"總安街一段３６２巷４６弄１３號","OBJECTID":33033},"geometry":{"x":169314.70000000112,"y":2550540.5800000019}},{"attributes":{"ID":33034,"DIS_CODE":0,"TOWNNAME":"東區","LI":"大德里","LIN":"14鄰","STREET":"立德十路","SECT":" ","MAREA":" ","LANE":" ","ALLEY":" ","HOUSE_NO":"３號七樓之２","E_COORD97":169421.59,"N_COORD97":2542056.4399999999,"ADDRESS":"立德十路３號七樓之２","OBJECTID":33034},"geometry":{"x":169421.59000000078,"y":2542056.4399999995}},{"attributes":{"ID":33035,"DIS_CODE":0,"TOWNNAME":"東區","LI":"大德里","LIN":"14鄰","STREET":"立德十路","SECT":" ","MAREA":" ","LANE":" ","ALLEY":" ","HOUSE_NO":"３號七樓之３","E_COORD97":169421.59,"N_COORD97":2542056.4399999999,"ADDRESS":"立德十路３號七樓之３","OBJECTID":33035},"geometry":{"x":169421.59000000078,"y":2542056.4399999995}},{"attributes":{"ID":33036,"DIS_CODE":0,"TOWNNAME":"安定區","LI":"大同里","LIN":"7鄰","STREET":" ","SECT":" ","MAREA":"大同","LANE":" ","ALLEY":" ","HOUSE_NO":"７９號","E_COORD97":170434.37,"N_COORD97":2553806.25,"ADDRESS":"大同７９號","OBJECTID":33036},"geometry":{"x":170434.37000000011,"y":2553806.25}},{"attributes":{"ID":33037,"DIS_CODE":0,"TOWNNAME":"安定區","LI":"港尾里","LIN":"7鄰","STREET":" ","SECT":" ","MAREA":"港子尾","LANE":" ","ALLEY":" ","HOUSE_NO":"３６之２號","E_COORD97":171698.29000000001,"N_COORD97":2555885.2999999998,"ADDRESS":"港子尾３６之２號","OBJECTID":33037},"geometry":{"x":171698.28999999911,"y":2555885.3000000007}},{"attributes":{"ID":33038,"DIS_CODE":0,"TOWNNAME":"安定區","LI":"安加里","LIN":"7鄰","STREET":" ","SECT":" ","MAREA":"安定","LANE":" ","ALLEY":" ","HOUSE_NO":"２１７之６號","E_COORD97":171756.75153000001,"N_COORD97":2557453.6423800001,"ADDRESS":"安定２１７之６號","OBJECTID":33038},"geometry":{"x":171756.75153000094,"y":2557453.6423760001}},{"attributes":{"ID":33039,"DIS_CODE":0,"TOWNNAME":"安南區","LI":"溪心里","LIN":"8鄰","STREET":"海佃路","SECT":"二段","MAREA":" ","LANE":"７６６巷","ALLEY":"１１弄","HOUSE_NO":"２２號","E_COORD97":166474.88,"N_COORD97":2549660.1400000001,"ADDRESS":"海佃路二段７６６巷１１弄２２號","OBJECTID":33039},"geometry":{"x":166474.88000000082,"y":2549660.1400000025}},{"attributes":{"ID":33040,"DIS_CODE":0,"TOWNNAME":"安平區","LI":"港仔里","LIN":"5鄰","STREET":"安平路","SECT":" ","MAREA":" ","LANE":"７５巷","ALLEY":"１２弄","HOUSE_NO":"１０號","E_COORD97":164407.03,"N_COORD97":2544422.8999999999,"ADDRESS":"安平路７５巷１２弄１０號","OBJECTID":33040},"geometry":{"x":164407.03000000026,"y":2544422.9000000022}},{"attributes":{"ID":33041,"DIS_CODE":0,"TOWNNAME":"安平區","LI":"港仔里","LIN":"5鄰","STREET":"安平路","SECT":" ","MAREA":" ","LANE":"７５巷","ALLEY":"１２弄","HOUSE_NO":"１２號","E_COORD97":164403.76000000001,"N_COORD97":2544424.3500000001,"ADDRESS":"安平路７５巷１２弄１２號","OBJECTID":33041},"geometry":{"x":164403.75999999978,"y":2544424.3499999996}},{"attributes":{"ID":33042,"DIS_CODE":0,"TOWNNAME":"安定區","LI":"新吉里","LIN":"7鄰","STREET":" ","SECT":" ","MAREA":"新吉","LANE":" ","ALLEY":" ","HOUSE_NO":"５５之２４號","E_COORD97":168748.22,"N_COORD97":2553918.2999999998,"ADDRESS":"新吉５５之２４號","OBJECTID":33042},"geometry":{"x":168748.21999999974,"y":2553918.3000000007}},{"attributes":{"ID":33043,"DIS_CODE":0,"TOWNNAME":"安平區","LI":"港仔里","LIN":"5鄰","STREET":"安平路","SECT":" ","MAREA":" ","LANE":"７５巷","ALLEY":"１２弄","HOUSE_NO":"１４號","E_COORD97":164398.10000000001,"N_COORD97":2544429.5499999998,"ADDRESS":"安平路７５巷１２弄１４號","OBJECTID":33043},"geometry":{"x":164398.10000000149,"y":2544429.5500000026}},{"attributes":{"ID":33044,"DIS_CODE":0,"TOWNNAME":"安平區","LI":"港仔里","LIN":"5鄰","STREET":"安平路","SECT":" ","MAREA":" ","LANE":"７５巷","ALLEY":"１２弄","HOUSE_NO":"１６號","E_COORD97":164394.04999999999,"N_COORD97":2544431.3100000001,"ADDRESS":"安平路７５巷１２弄１６號","OBJECTID":33044},"geometry":{"x":164394.05000000075,"y":2544431.3100000005}},{"attributes":{"ID":33045,"DIS_CODE":0,"TOWNNAME":"安平區","LI":"港仔里","LIN":"5鄰","STREET":"安平路","SECT":" ","MAREA":" ","LANE":"７５巷","ALLEY":"１２弄","HOUSE_NO":"１８號","E_COORD97":164386.88,"N_COORD97":2544434.7599999998,"ADDRESS":"安平路７５巷１２弄１８號","OBJECTID":33045},"geometry":{"x":164386.88000000082,"y":2544434.7599999998}},{"attributes":{"ID":33046,"DIS_CODE":0,"TOWNNAME":"安平區","LI":"港仔里","LIN":"5鄰","STREET":"安平路","SECT":" ","MAREA":" ","LANE":"７５巷","ALLEY":"１２弄","HOUSE_NO":"１號","E_COORD97":164381.70000000001,"N_COORD97":2544418.5,"ADDRESS":"安平路７５巷１２弄１號","OBJECTID":33046},"geometry":{"x":164381.70000000112,"y":2544418.5000000019}},{"attributes":{"ID":33047,"DIS_CODE":0,"TOWNNAME":"安平區","LI":"港仔里","LIN":"5鄰","STREET":"安平路","SECT":" ","MAREA":" ","LANE":"７５巷","ALLEY":"１２弄","HOUSE_NO":"２０號","E_COORD97":164382.32000000001,"N_COORD97":2544437.6299999999,"ADDRESS":"安平路７５巷１２弄２０號","OBJECTID":33047},"geometry":{"x":164382.32000000123,"y":2544437.629999999}},{"attributes":{"ID":33048,"DIS_CODE":0,"TOWNNAME":"安平區","LI":"港仔里","LIN":"4鄰","STREET":"安平路","SECT":" ","MAREA":" ","LANE":"７５巷","ALLEY":"２２弄","HOUSE_NO":"１７號","E_COORD97":164327.03,"N_COORD97":2544362.0699999998,"ADDRESS":"安平路７５巷２２弄１７號","OBJECTID":33048},"geometry":{"x":164327.03000000119,"y":2544362.0700000003}},{"attributes":{"ID":33049,"DIS_CODE":0,"TOWNNAME":"安平區","LI":"港仔里","LIN":"4鄰","STREET":"安平路","SECT":" ","MAREA":" ","LANE":"７５巷","ALLEY":"２２弄","HOUSE_NO":"１９號","E_COORD97":164311.28,"N_COORD97":2544372.9900000002,"ADDRESS":"安平路７５巷２２弄１９號","OBJECTID":33049},"geometry":{"x":164311.28000000119,"y":2544372.9900000002}},{"attributes":{"ID":33050,"DIS_CODE":0,"TOWNNAME":"安定區","LI":"港南里","LIN":"7鄰","STREET":" ","SECT":" ","MAREA":"港口","LANE":" ","ALLEY":" ","HOUSE_NO":"５３之１號","E_COORD97":171578.73999999999,"N_COORD97":2554288.2999999998,"ADDRESS":"港口５３之１號","OBJECTID":33050},"geometry":{"x":171578.74000000115,"y":2554288.3000000007}},{"attributes":{"ID":33051,"DIS_CODE":0,"TOWNNAME":"安平區","LI":"港仔里","LIN":"4鄰","STREET":"安平路","SECT":" ","MAREA":" ","LANE":"７５巷","ALLEY":"２２弄","HOUSE_NO":"２４號","E_COORD97":164327.32000000001,"N_COORD97":2544378.9700000002,"ADDRESS":"安平路７５巷２２弄２４號","OBJECTID":33051},"geometry":{"x":164327.3200000003,"y":2544378.9700000025}},{"attributes":{"ID":33052,"DIS_CODE":0,"TOWNNAME":"安定區","LI":"港南里","LIN":"7鄰","STREET":" ","SECT":" ","MAREA":"港口","LANE":" ","ALLEY":" ","HOUSE_NO":"５２之１號","E_COORD97":171571.94,"N_COORD97":2554250.2999999998,"ADDRESS":"港口５２之１號","OBJECTID":33052},"geometry":{"x":171571.94000000041,"y":2554250.3000000007}},{"attributes":{"ID":33053,"DIS_CODE":0,"TOWNNAME":"安定區","LI":"新吉里","LIN":"7鄰","STREET":" ","SECT":" ","MAREA":"新吉","LANE":" ","ALLEY":" ","HOUSE_NO":"５９之４０號","E_COORD97":168960.72,"N_COORD97":2553975.2999999998,"ADDRESS":"新吉５９之４０號","OBJECTID":33053},"geometry":{"x":168960.71999999881,"y":2553975.3000000026}},{"attributes":{"ID":33054,"DIS_CODE":0,"TOWNNAME":"安定區","LI":"蘇厝里","LIN":"7鄰","STREET":" ","SECT":" ","MAREA":"蘇厝","LANE":" ","ALLEY":" ","HOUSE_NO":"３４１之６號","E_COORD97":172937.42000000001,"N_COORD97":2558540.2999999998,"ADDRESS":"蘇厝３４１之６號","OBJECTID":33054},"geometry":{"x":172937.41999999993,"y":2558540.3000000007}},{"attributes":{"ID":33055,"DIS_CODE":0,"TOWNNAME":"安定區","LI":"蘇厝里","LIN":"7鄰","STREET":" ","SECT":" ","MAREA":"蘇厝","LANE":" ","ALLEY":" ","HOUSE_NO":"３４１號之１","E_COORD97":172911.14999999999,"N_COORD97":2558533.2999999998,"ADDRESS":"蘇厝３４１號之１","OBJECTID":33055},"geometry":{"x":172911.15000000037,"y":2558533.3000000007}},{"attributes":{"ID":33056,"DIS_CODE":0,"TOWNNAME":"安定區","LI":"新吉里","LIN":"7鄰","STREET":" ","SECT":" ","MAREA":"新吉","LANE":" ","ALLEY":" ","HOUSE_NO":"５５之２３號","E_COORD97":168748.72,"N_COORD97":2553913.2999999998,"ADDRESS":"新吉５５之２３號","OBJECTID":33056},"geometry":{"x":168748.71999999974,"y":2553913.3000000026}},{"attributes":{"ID":33057,"DIS_CODE":0,"TOWNNAME":"安平區","LI":"平通里","LIN":"20鄰","STREET":"育平九街","SECT":" ","MAREA":" ","LANE":"３７２巷","ALLEY":"１８９弄","HOUSE_NO":"２１號","E_COORD97":164538.66,"N_COORD97":2544192.9700000002,"ADDRESS":"育平九街３７２巷１８９弄２１號","OBJECTID":33057},"geometry":{"x":164538.66000000015,"y":2544192.9700000025}},{"attributes":{"ID":33058,"DIS_CODE":0,"TOWNNAME":"安平區","LI":"平通里","LIN":"20鄰","STREET":"育平九街","SECT":" ","MAREA":" ","LANE":"３７２巷","ALLEY":"１８９弄","HOUSE_NO":"２３號","E_COORD97":164533.95999999999,"N_COORD97":2544192.8399999999,"ADDRESS":"育平九街３７２巷１８９弄２３號","OBJECTID":33058},"geometry":{"x":164533.96000000089,"y":2544192.8400000017}},{"attributes":{"ID":33059,"DIS_CODE":0,"TOWNNAME":"安平區","LI":"平通里","LIN":"20鄰","STREET":"育平九街","SECT":" ","MAREA":" ","LANE":"３７２巷","ALLEY":"１８９弄","HOUSE_NO":"２５號","E_COORD97":164529,"N_COORD97":2544192.6499999999,"ADDRESS":"育平九街３７２巷１８９弄２５號","OBJECTID":33059},"geometry":{"x":164529,"y":2544192.6500000004}},{"attributes":{"ID":33060,"DIS_CODE":0,"TOWNNAME":"安平區","LI":"平通里","LIN":"20鄰","STREET":"育平九街","SECT":" ","MAREA":" ","LANE":"３７２巷","ALLEY":"１８９弄","HOUSE_NO":"２６號","E_COORD97":164529.45999999999,"N_COORD97":2544224.6099999999,"ADDRESS":"育平九街３７２巷１８９弄２６號","OBJECTID":33060},"geometry":{"x":164529.45999999996,"y":2544224.6099999994}},{"attributes":{"ID":33061,"DIS_CODE":0,"TOWNNAME":"安平區","LI":"平通里","LIN":"20鄰","STREET":"育平九街","SECT":" ","MAREA":" ","LANE":"３７２巷","ALLEY":"１８９弄","HOUSE_NO":"２７號","E_COORD97":164524.07000000001,"N_COORD97":2544192.3900000001,"ADDRESS":"育平九街３７２巷１８９弄２７號","OBJECTID":33061},"geometry":{"x":164524.0700000003,"y":2544192.3900000025}},{"attributes":{"ID":33062,"DIS_CODE":0,"TOWNNAME":"佳里區","LI":"忠仁里","LIN":"14鄰","STREET":"佳東路","SECT":" ","MAREA":" ","LANE":" ","ALLEY":" ","HOUSE_NO":"２４７號","E_COORD97":166373.89999999999,"N_COORD97":2562015.3100000001,"ADDRESS":"佳東路２４７號","OBJECTID":33062},"geometry":{"x":166373.9000000013,"y":2562015.3100000042}},{"attributes":{"ID":33063,"DIS_CODE":0,"TOWNNAME":"永康區","LI":"大橋里","LIN":"14鄰","STREET":"大橋二街","SECT":" ","MAREA":" ","LANE":" ","ALLEY":" ","HOUSE_NO":"２４號四樓","E_COORD97":170775.35000000001,"N_COORD97":2546535.9700000002,"ADDRESS":"大橋二街２４號四樓","OBJECTID":33063},"geometry":{"x":170775.35000000149,"y":2546535.9700000007}},{"attributes":{"ID":33064,"DIS_CODE":0,"TOWNNAME":"永康區","LI":"大橋里","LIN":"14鄰","STREET":"大橋二街","SECT":" ","MAREA":" ","LANE":" ","ALLEY":" ","HOUSE_NO":"２４號五樓之１","E_COORD97":170777.48999999999,"N_COORD97":2546536,"ADDRESS":"大橋二街２４號五樓之１","OBJECTID":33064},"geometry":{"x":170777.49000000115,"y":2546536}},{"attributes":{"ID":33065,"DIS_CODE":0,"TOWNNAME":"南區","LI":"田寮里","LIN":"18鄰","STREET":"西門路","SECT":"一段","MAREA":" ","LANE":" ","ALLEY":" ","HOUSE_NO":"２２５號","E_COORD97":167715.17000000001,"N_COORD97":2541807.6600000001,"ADDRESS":"西門路一段２２５號","OBJECTID":33065},"geometry":{"x":167715.16999999993,"y":2541807.660000002}},{"attributes":{"ID":33066,"DIS_CODE":0,"TOWNNAME":"南區","LI":"田寮里","LIN":"18鄰","STREET":"西門路","SECT":"一段","MAREA":" ","LANE":" ","ALLEY":" ","HOUSE_NO":"２２７號","E_COORD97":167715.17000000001,"N_COORD97":2541811.9199999999,"ADDRESS":"西門路一段２２７號","OBJECTID":33066},"geometry":{"x":167715.16999999993,"y":2541811.9200000018}},{"attributes":{"ID":33067,"DIS_CODE":0,"TOWNNAME":"安平區","LI":"平通里","LIN":"20鄰","STREET":"育平九街","SECT":" ","MAREA":" ","LANE":"３７２巷","ALLEY":"１８９弄","HOUSE_NO":"２８號","E_COORD97":164525.32000000001,"N_COORD97":2544224.54,"ADDRESS":"育平九街３７２巷１８９弄２８號","OBJECTID":33067},"geometry":{"x":164525.3200000003,"y":2544224.540000001}},{"attributes":{"ID":33068,"DIS_CODE":0,"TOWNNAME":"安平區","LI":"平通里","LIN":"20鄰","STREET":"育平九街","SECT":" ","MAREA":" ","LANE":"３７２巷","ALLEY":"１８９弄","HOUSE_NO":"２９號","E_COORD97":164519.01999999999,"N_COORD97":2544192.3199999998,"ADDRESS":"育平九街３７２巷１８９弄２９號","OBJECTID":33068},"geometry":{"x":164519.02000000048,"y":2544192.3200000022}},{"attributes":{"ID":33069,"DIS_CODE":0,"TOWNNAME":"安平區","LI":"平通里","LIN":"20鄰","STREET":"育平九街","SECT":" ","MAREA":" ","LANE":"３７２巷","ALLEY":"１８９弄","HOUSE_NO":"２號","E_COORD97":164577.32000000001,"N_COORD97":2544228.2799999998,"ADDRESS":"育平九街３７２巷１８９弄２號","OBJECTID":33069},"geometry":{"x":164577.32000000123,"y":2544228.2799999975}},{"attributes":{"ID":33070,"DIS_CODE":0,"TOWNNAME":"安平區","LI":"平通里","LIN":"20鄰","STREET":"育平九街","SECT":" ","MAREA":" ","LANE":"３７２巷","ALLEY":"１８９弄","HOUSE_NO":"３０號","E_COORD97":164520.87,"N_COORD97":2544224.8599999999,"ADDRESS":"育平九街３７２巷１８９弄３０號","OBJECTID":33070},"geometry":{"x":164520.87000000104,"y":2544224.8600000031}},{"attributes":{"ID":33071,"DIS_CODE":0,"TOWNNAME":"安平區","LI":"平通里","LIN":"20鄰","STREET":"育平九街","SECT":" ","MAREA":" ","LANE":"３７２巷","ALLEY":"１８９弄","HOUSE_NO":"３２號","E_COORD97":164516.75,"N_COORD97":2544224.3799999999,"ADDRESS":"育平九街３７２巷１８９弄３２號","OBJECTID":33071},"geometry":{"x":164516.75000000093,"y":2544224.3800000008}},{"attributes":{"ID":33072,"DIS_CODE":0,"TOWNNAME":"安平區","LI":"平通里","LIN":"20鄰","STREET":"育平九街","SECT":" ","MAREA":" ","LANE":"３７２巷","ALLEY":"１８９弄","HOUSE_NO":"３４號","E_COORD97":164512.45999999999,"N_COORD97":2544224.7000000002,"ADDRESS":"育平九街３７２巷１８９弄３４號","OBJECTID":33072},"geometry":{"x":164512.45999999996,"y":2544224.6999999993}},{"attributes":{"ID":33073,"DIS_CODE":0,"TOWNNAME":"安平區","LI":"平通里","LIN":"20鄰","STREET":"育平九街","SECT":" ","MAREA":" ","LANE":"３７２巷","ALLEY":"１８９弄","HOUSE_NO":"３５號","E_COORD97":164501.26000000001,"N_COORD97":2544192.1400000001,"ADDRESS":"育平九街３７２巷１８９弄３５號","OBJECTID":33073},"geometry":{"x":164501.26000000071,"y":2544192.1400000006}},{"attributes":{"ID":33074,"DIS_CODE":0,"TOWNNAME":"安平區","LI":"平通里","LIN":"20鄰","STREET":"育平九街","SECT":" ","MAREA":" ","LANE":"３７２巷","ALLEY":"１８９弄","HOUSE_NO":"３６號","E_COORD97":164506.04000000001,"N_COORD97":2544223.75,"ADDRESS":"育平九街３７２巷１８９弄３６號","OBJECTID":33074},"geometry":{"x":164506.04000000097,"y":2544223.7500000019}},{"attributes":{"ID":33075,"DIS_CODE":0,"TOWNNAME":"安平區","LI":"平通里","LIN":"20鄰","STREET":"育平九街","SECT":" ","MAREA":" ","LANE":"３７２巷","ALLEY":"１８９弄","HOUSE_NO":"３７號","E_COORD97":164497.12,"N_COORD97":2544192.02,"ADDRESS":"育平九街３７２巷１８９弄３７號","OBJECTID":33075},"geometry":{"x":164497.12000000104,"y":2544192.0199999996}},{"attributes":{"ID":33076,"DIS_CODE":0,"TOWNNAME":"安平區","LI":"平通里","LIN":"20鄰","STREET":"育平九街","SECT":" ","MAREA":" ","LANE":"３７２巷","ALLEY":"１８９弄","HOUSE_NO":"３８號","E_COORD97":164502.92999999999,"N_COORD97":2544224.3799999999,"ADDRESS":"育平九街３７２巷１８９弄３８號","OBJECTID":33076},"geometry":{"x":164502.93000000063,"y":2544224.3800000008}},{"attributes":{"ID":33077,"DIS_CODE":0,"TOWNNAME":"安平區","LI":"平通里","LIN":"20鄰","STREET":"育平九街","SECT":" ","MAREA":" ","LANE":"３７２巷","ALLEY":"１８９弄","HOUSE_NO":"３９號","E_COORD97":164492.16,"N_COORD97":2544191.77,"ADDRESS":"育平九街３７２巷１８９弄３９號","OBJECTID":33077},"geometry":{"x":164492.16000000108,"y":2544191.7700000014}},{"attributes":{"ID":33078,"DIS_CODE":0,"TOWNNAME":"安平區","LI":"平通里","LIN":"20鄰","STREET":"育平九街","SECT":" ","MAREA":" ","LANE":"３７２巷","ALLEY":"１８９弄","HOUSE_NO":"４０號","E_COORD97":164496.64000000001,"N_COORD97":2544223.4399999999,"ADDRESS":"育平九街３７２巷１８９弄４０號","OBJECTID":33078},"geometry":{"x":164496.6400000006,"y":2544223.4399999995}},{"attributes":{"ID":33079,"DIS_CODE":0,"TOWNNAME":"安平區","LI":"平通里","LIN":"20鄰","STREET":"育平九街","SECT":" ","MAREA":" ","LANE":"３７２巷","ALLEY":"１８９弄","HOUSE_NO":"４２號","E_COORD97":164492.44,"N_COORD97":2544223.21,"ADDRESS":"育平九街３７２巷１８９弄４２號","OBJECTID":33079},"geometry":{"x":164492.44000000041,"y":2544223.2100000009}},{"attributes":{"ID":33080,"DIS_CODE":0,"TOWNNAME":"安平區","LI":"平通里","LIN":"20鄰","STREET":"育平九街","SECT":" ","MAREA":" ","LANE":"３７２巷","ALLEY":"１８９弄","HOUSE_NO":"４３號","E_COORD97":164483.89999999999,"N_COORD97":2544191.2799999998,"ADDRESS":"育平九街３７２巷１８９弄４３號","OBJECTID":33080},"geometry":{"x":164483.9000000013,"y":2544191.2800000031}},{"attributes":{"ID":33081,"DIS_CODE":0,"TOWNNAME":"安定區","LI":"安定里","LIN":"7鄰","STREET":" ","SECT":" ","MAREA":"安定","LANE":" ","ALLEY":" ","HOUSE_NO":"４９號","E_COORD97":171954.67000000001,"N_COORD97":2557930.3199999998,"ADDRESS":"安定４９號","OBJECTID":33081},"geometry":{"x":171954.66999999993,"y":2557930.3200000022}},{"attributes":{"ID":33082,"DIS_CODE":0,"TOWNNAME":"安定區","LI":"新吉里","LIN":"7鄰","STREET":" ","SECT":" ","MAREA":"新吉","LANE":" ","ALLEY":" ","HOUSE_NO":"５５之１４號","E_COORD97":168761.88,"N_COORD97":2553916.2999999998,"ADDRESS":"新吉５５號之１４","OBJECTID":33082},"geometry":{"x":168761.88000000082,"y":2553916.3000000045}},{"attributes":{"ID":33083,"DIS_CODE":0,"TOWNNAME":"安平區","LI":"平通里","LIN":"20鄰","STREET":"育平九街","SECT":" ","MAREA":" ","LANE":"３７２巷","ALLEY":"１８９弄","HOUSE_NO":"４４號","E_COORD97":164488.09,"N_COORD97":2544223.0600000001,"ADDRESS":"育平九街３７２巷１８９弄４４號","OBJECTID":33083},"geometry":{"x":164488.08999999892,"y":2544223.0600000005}},{"attributes":{"ID":33084,"DIS_CODE":0,"TOWNNAME":"安平區","LI":"平通里","LIN":"20鄰","STREET":"育平九街","SECT":" ","MAREA":" ","LANE":"３７２巷","ALLEY":"１８９弄","HOUSE_NO":"４５號","E_COORD97":164480.13,"N_COORD97":2544191.2799999998,"ADDRESS":"育平九街３７２巷１８９弄４５號","OBJECTID":33084},"geometry":{"x":164480.13000000082,"y":2544191.2800000031}},{"attributes":{"ID":33085,"DIS_CODE":0,"TOWNNAME":"安平區","LI":"港仔里","LIN":"5鄰","STREET":"安平路","SECT":" ","MAREA":" ","LANE":"７５巷","ALLEY":"８弄","HOUSE_NO":"２號","E_COORD97":164454.97,"N_COORD97":2544429.7000000002,"ADDRESS":"安平路７５巷８弄２號","OBJECTID":33085},"geometry":{"x":164454.9700000016,"y":2544429.7000000011}},{"attributes":{"ID":33086,"DIS_CODE":0,"TOWNNAME":"安平區","LI":"港仔里","LIN":"5鄰","STREET":"安平路","SECT":" ","MAREA":" ","LANE":"７５巷","ALLEY":"８弄","HOUSE_NO":"４號","E_COORD97":164446.59,"N_COORD97":2544430.1000000001,"ADDRESS":"安平路７５巷８弄４號","OBJECTID":33086},"geometry":{"x":164446.59000000078,"y":2544430.1000000034}},{"attributes":{"ID":33087,"DIS_CODE":0,"TOWNNAME":"安平區","LI":"港仔里","LIN":"5鄰","STREET":"安平路","SECT":" ","MAREA":" ","LANE":"７５巷","ALLEY":"８弄","HOUSE_NO":"６號","E_COORD97":164442.51000000001,"N_COORD97":2544432.1899999999,"ADDRESS":"安平路７５巷８弄６號","OBJECTID":33087},"geometry":{"x":164442.50999999978,"y":2544432.1899999995}},{"attributes":{"ID":33088,"DIS_CODE":0,"TOWNNAME":"安平區","LI":"平通里","LIN":"21鄰","STREET":"育平九街","SECT":" ","MAREA":" ","LANE":"３７２巷","ALLEY":"１６５弄","HOUSE_NO":"１０號","E_COORD97":164565.91,"N_COORD97":2544165.71,"ADDRESS":"育平九街３７２巷１６５弄１０號","OBJECTID":33088},"geometry":{"x":164565.90999999922,"y":2544165.7100000009}},{"attributes":{"ID":33089,"DIS_CODE":0,"TOWNNAME":"安平區","LI":"平通里","LIN":"21鄰","STREET":"育平九街","SECT":" ","MAREA":" ","LANE":"３７２巷","ALLEY":"１６５弄","HOUSE_NO":"１２號","E_COORD97":164561.45000000001,"N_COORD97":2544165.8900000001,"ADDRESS":"育平九街３７２巷１６５弄１２號","OBJECTID":33089},"geometry":{"x":164561.45000000112,"y":2544165.8900000025}},{"attributes":{"ID":33090,"DIS_CODE":0,"TOWNNAME":"安平區","LI":"港仔里","LIN":"6鄰","STREET":"安平路","SECT":" ","MAREA":" ","LANE":"５１巷","ALLEY":"１２弄","HOUSE_NO":"１０號","E_COORD97":164505.95999999999,"N_COORD97":2544417.5499999998,"ADDRESS":"安平路５１巷１２弄１０號","OBJECTID":33090},"geometry":{"x":164505.95999999996,"y":2544417.5500000007}},{"attributes":{"ID":33091,"DIS_CODE":0,"TOWNNAME":"仁德區","LI":"保安里","LIN":"8鄰","STREET":"文賢路","SECT":"一段","MAREA":" ","LANE":"７６３巷","ALLEY":"１８弄","HOUSE_NO":"８號之２","E_COORD97":171584.294246,"N_COORD97":2536119.59571,"ADDRESS":"文賢路一段７６３巷１８弄８號之２","OBJECTID":33091},"geometry":{"x":171584.29424600024,"y":2536119.5957089998}},{"attributes":{"ID":33092,"DIS_CODE":0,"TOWNNAME":"仁德區","LI":"保安里","LIN":"8鄰","STREET":"文賢路","SECT":"一段","MAREA":" ","LANE":"７６３巷","ALLEY":"１８弄","HOUSE_NO":"１０號","E_COORD97":171599.20000000001,"N_COORD97":2536113.8199999998,"ADDRESS":"文賢路一段７６３巷１８弄１０號","OBJECTID":33092},"geometry":{"x":171599.20000000205,"y":2536113.8200000022}},{"attributes":{"ID":33093,"DIS_CODE":0,"TOWNNAME":"仁德區","LI":"保安里","LIN":"8鄰","STREET":"文賢路","SECT":"一段","MAREA":" ","LANE":"７６３巷","ALLEY":"１８弄","HOUSE_NO":"８之１號","E_COORD97":171581.32847000001,"N_COORD97":2536123.8290400002,"ADDRESS":"文賢路一段７６３巷１８弄８之１號","OBJECTID":33093},"geometry":{"x":171581.328470001,"y":2536123.8290400021}},{"attributes":{"ID":33094,"DIS_CODE":0,"TOWNNAME":"永康區","LI":"建國里","LIN":"8鄰","STREET":"復國一路","SECT":" ","MAREA":" ","LANE":"６巷","ALLEY":"６６弄","HOUSE_NO":"５６號","E_COORD97":172818.73999999999,"N_COORD97":2544673.2599999998,"ADDRESS":"復國一路６巷６６弄５６號","OBJECTID":33094},"geometry":{"x":172818.74000000022,"y":2544673.2600000035}},{"attributes":{"ID":33095,"DIS_CODE":0,"TOWNNAME":"北區","LI":"永祥里","LIN":"8鄰","STREET":"實踐街","SECT":" ","MAREA":" ","LANE":"３９巷","ALLEY":"４弄","HOUSE_NO":"１０號","E_COORD97":169926.72,"N_COORD97":2546049.0099999998,"ADDRESS":"實踐街３９巷４弄１０號","OBJECTID":33095},"geometry":{"x":169926.71999999974,"y":2546049.0100000016}},{"attributes":{"ID":33096,"DIS_CODE":0,"TOWNNAME":"佳里區","LI":"忠仁里","LIN":"14鄰","STREET":"佳東路","SECT":" ","MAREA":" ","LANE":" ","ALLEY":" ","HOUSE_NO":"２５１號","E_COORD97":166373.03,"N_COORD97":2562024,"ADDRESS":"佳東路２５１號","OBJECTID":33096},"geometry":{"x":166373.03000000119,"y":2562024.0000000037}},{"attributes":{"ID":33097,"DIS_CODE":0,"TOWNNAME":"北區","LI":"永祥里","LIN":"8鄰","STREET":"實踐街","SECT":" ","MAREA":" ","LANE":"３９巷","ALLEY":"４弄","HOUSE_NO":"１２號","E_COORD97":169935.20999999999,"N_COORD97":2546048.6200000001,"ADDRESS":"實踐街３９巷４弄１２號","OBJECTID":33097},"geometry":{"x":169935.20999999996,"y":2546048.6200000048}},{"attributes":{"ID":33098,"DIS_CODE":0,"TOWNNAME":"北區","LI":"永祥里","LIN":"8鄰","STREET":"實踐街","SECT":" ","MAREA":" ","LANE":"３９巷","ALLEY":"４弄","HOUSE_NO":"１４號","E_COORD97":169939.76000000001,"N_COORD97":2546048.1200000001,"ADDRESS":"實踐街３９巷４弄１４號","OBJECTID":33098},"geometry":{"x":169939.75999999978,"y":2546048.120000001}},{"attributes":{"ID":33099,"DIS_CODE":0,"TOWNNAME":"北區","LI":"永祥里","LIN":"8鄰","STREET":"實踐街","SECT":" ","MAREA":" ","LANE":"３９巷","ALLEY":"４弄","HOUSE_NO":"２號","E_COORD97":169908.82999999999,"N_COORD97":2546049.5800000001,"ADDRESS":"實踐街３９巷４弄２號","OBJECTID":33099},"geometry":{"x":169908.83000000101,"y":2546049.5800000001}},{"attributes":{"ID":33100,"DIS_CODE":0,"TOWNNAME":"安定區","LI":"港南里","LIN":"7鄰","STREET":" ","SECT":" ","MAREA":"港口","LANE":" ","ALLEY":" ","HOUSE_NO":"５１之１號","E_COORD97":171607.84,"N_COORD97":2554238.2999999998,"ADDRESS":"港口５１之１號","OBJECTID":33100},"geometry":{"x":171607.83999999985,"y":2554238.3000000045}},{"attributes":{"ID":33101,"DIS_CODE":0,"TOWNNAME":"北區","LI":"永祥里","LIN":"8鄰","STREET":"實踐街","SECT":" ","MAREA":" ","LANE":"３９巷","ALLEY":"４弄","HOUSE_NO":"２號之１","E_COORD97":169901.76000000001,"N_COORD97":2546052.2999999998,"ADDRESS":"實踐街３９巷４弄２號之１","OBJECTID":33101},"geometry":{"x":169901.76000000071,"y":2546052.3000000007}},{"attributes":{"ID":33102,"DIS_CODE":0,"TOWNNAME":"北區","LI":"永祥里","LIN":"8鄰","STREET":"實踐街","SECT":" ","MAREA":" ","LANE":"３９巷","ALLEY":"４弄","HOUSE_NO":"６號","E_COORD97":169915.85000000001,"N_COORD97":2546049.3300000001,"ADDRESS":"實踐街３９巷４弄６號","OBJECTID":33102},"geometry":{"x":169915.85000000149,"y":2546049.3299999982}},{"attributes":{"ID":33103,"DIS_CODE":0,"TOWNNAME":"歸仁區","LI":"看西里","LIN":"23鄰","STREET":"成功五街","SECT":" ","MAREA":" ","LANE":"８８巷","ALLEY":"９７弄","HOUSE_NO":"３號","E_COORD97":178354.08927200001,"N_COORD97":2539818.3993199999,"ADDRESS":"成功五街８８巷９７弄３號","OBJECTID":33103},"geometry":{"x":178354.0892719999,"y":2539818.3993170038}},{"attributes":{"ID":33104,"DIS_CODE":0,"TOWNNAME":"北區","LI":"永祥里","LIN":"8鄰","STREET":"實踐街","SECT":" ","MAREA":" ","LANE":"３９巷","ALLEY":"４弄","HOUSE_NO":"８號","E_COORD97":169922.17000000001,"N_COORD97":2546049.77,"ADDRESS":"實踐街３９巷４弄８號","OBJECTID":33104},"geometry":{"x":169922.16999999993,"y":2546049.7700000014}},{"attributes":{"ID":33105,"DIS_CODE":0,"TOWNNAME":"新營區","LI":"新北里","LIN":"8鄰","STREET":"三興街","SECT":" ","MAREA":" ","LANE":"２７５巷","ALLEY":"６６弄","HOUSE_NO":"６號","E_COORD97":179169.22,"N_COORD97":2579674.1499999999,"ADDRESS":"三興街２７５巷６６弄６號","OBJECTID":33105},"geometry":{"x":179169.2200000016,"y":2579674.1500000022}},{"attributes":{"ID":33106,"DIS_CODE":0,"TOWNNAME":"新營區","LI":"新北里","LIN":"8鄰","STREET":"三興街","SECT":" ","MAREA":" ","LANE":"２７５巷","ALLEY":"６６弄","HOUSE_NO":"１５號","E_COORD97":179156.23000000001,"N_COORD97":2579693.04,"ADDRESS":"三興街２７５巷６６弄１５號","OBJECTID":33106},"geometry":{"x":179156.22999999952,"y":2579693.0399999972}},{"attributes":{"ID":33107,"DIS_CODE":0,"TOWNNAME":"新營區","LI":"新北里","LIN":"8鄰","STREET":"三興街","SECT":" ","MAREA":" ","LANE":"２７５巷","ALLEY":"６６弄","HOUSE_NO":"１號","E_COORD97":179155.85999999999,"N_COORD97":2579664.25,"ADDRESS":"三興街２７５巷６６弄１號","OBJECTID":33107},"geometry":{"x":179155.86000000127,"y":2579664.25}},{"attributes":{"ID":33108,"DIS_CODE":0,"TOWNNAME":"歸仁區","LI":"媽廟里","LIN":"8鄰","STREET":"中正北路","SECT":"三段","MAREA":" ","LANE":"２０５巷","ALLEY":"２５弄","HOUSE_NO":"２１號","E_COORD97":177473.85999999999,"N_COORD97":2543801.7200000002,"ADDRESS":"中正北路三段２０５巷２５弄２１號","OBJECTID":33108},"geometry":{"x":177473.8600000022,"y":2543801.7200000007}},{"attributes":{"ID":33109,"DIS_CODE":0,"TOWNNAME":"安平區","LI":"海頭里","LIN":"17鄰","STREET":"古堡街","SECT":" ","MAREA":" ","LANE":"１１８巷","ALLEY":"２５弄","HOUSE_NO":"１０號","E_COORD97":163796.57000000001,"N_COORD97":2545037.9300000002,"ADDRESS":"古堡街１１８巷２５弄１０號","OBJECTID":33109},"geometry":{"x":163796.5700000003,"y":2545037.9299999978}},{"attributes":{"ID":33110,"DIS_CODE":0,"TOWNNAME":"安平區","LI":"海頭里","LIN":"17鄰","STREET":"古堡街","SECT":" ","MAREA":" ","LANE":"１１８巷","ALLEY":"２５弄","HOUSE_NO":"１１號","E_COORD97":163796.01000000001,"N_COORD97":2545042.6299999999,"ADDRESS":"古堡街１１８巷２５弄１１號","OBJECTID":33110},"geometry":{"x":163796.01000000071,"y":2545042.6299999971}},{"attributes":{"ID":33111,"DIS_CODE":0,"TOWNNAME":"安平區","LI":"海頭里","LIN":"17鄰","STREET":"古堡街","SECT":" ","MAREA":" ","LANE":"１１８巷","ALLEY":"２５弄","HOUSE_NO":"１２號","E_COORD97":163774.94,"N_COORD97":2545048.7400000002,"ADDRESS":"古堡街１１８巷２５弄１２號","OBJECTID":33111},"geometry":{"x":163774.94000000134,"y":2545048.7400000002}},{"attributes":{"ID":33112,"DIS_CODE":0,"TOWNNAME":"安平區","LI":"海頭里","LIN":"17鄰","STREET":"古堡街","SECT":" ","MAREA":" ","LANE":"１１８巷","ALLEY":"２５弄","HOUSE_NO":"１３號","E_COORD97":163774.47,"N_COORD97":2545043.9500000002,"ADDRESS":"古堡街１１８巷２５弄１３號","OBJECTID":33112},"geometry":{"x":163774.46999999974,"y":2545043.9499999993}},{"attributes":{"ID":33113,"DIS_CODE":0,"TOWNNAME":"安平區","LI":"海頭里","LIN":"17鄰","STREET":"古堡街","SECT":" ","MAREA":" ","LANE":"１１８巷","ALLEY":"２５弄","HOUSE_NO":"１４號","E_COORD97":163774.47,"N_COORD97":2545039.9100000001,"ADDRESS":"古堡街１１８巷２５弄１４號","OBJECTID":33113},"geometry":{"x":163774.46999999974,"y":2545039.910000002}},{"attributes":{"ID":33114,"DIS_CODE":0,"TOWNNAME":"安平區","LI":"海頭里","LIN":"17鄰","STREET":"古堡街","SECT":" ","MAREA":" ","LANE":"１１８巷","ALLEY":"２５弄","HOUSE_NO":"１５號","E_COORD97":163774.85000000001,"N_COORD97":2545034.9199999999,"ADDRESS":"古堡街１１８巷２５弄１５號","OBJECTID":33114},"geometry":{"x":163774.85000000056,"y":2545034.9200000037}},{"attributes":{"ID":33115,"DIS_CODE":0,"TOWNNAME":"安平區","LI":"海頭里","LIN":"17鄰","STREET":"古堡街","SECT":" ","MAREA":" ","LANE":"１１８巷","ALLEY":"２５弄","HOUSE_NO":"１６號","E_COORD97":163775.41,"N_COORD97":2545030.23,"ADDRESS":"古堡街１１８巷２５弄１６號","OBJECTID":33115},"geometry":{"x":163775.41000000015,"y":2545030.2300000042}},{"attributes":{"ID":33116,"DIS_CODE":0,"TOWNNAME":"安平區","LI":"海頭里","LIN":"17鄰","STREET":"古堡街","SECT":" ","MAREA":" ","LANE":"１１８巷","ALLEY":"２５弄","HOUSE_NO":"１７號","E_COORD97":163776.45000000001,"N_COORD97":2545024.5899999999,"ADDRESS":"古堡街１１８巷２５弄１７號","OBJECTID":33116},"geometry":{"x":163776.45000000112,"y":2545024.5900000017}},{"attributes":{"ID":33117,"DIS_CODE":0,"TOWNNAME":"安平區","LI":"海頭里","LIN":"17鄰","STREET":"古堡街","SECT":" ","MAREA":" ","LANE":"１１８巷","ALLEY":"２５弄","HOUSE_NO":"１８號","E_COORD97":163784.44,"N_COORD97":2545012.0099999998,"ADDRESS":"古堡街１１８巷２５弄１８號","OBJECTID":33117},"geometry":{"x":163784.44000000041,"y":2545012.0100000016}},{"attributes":{"ID":33118,"DIS_CODE":0,"TOWNNAME":"安平區","LI":"海頭里","LIN":"17鄰","STREET":"古堡街","SECT":" ","MAREA":" ","LANE":"１１８巷","ALLEY":"２５弄","HOUSE_NO":"１號","E_COORD97":163823.47,"N_COORD97":2545016.1499999999,"ADDRESS":"古堡街１１８巷２５弄１號","OBJECTID":33118},"geometry":{"x":163823.47000000067,"y":2545016.1500000004}},{"attributes":{"ID":33119,"DIS_CODE":0,"TOWNNAME":"玉井區","LI":"中正里","LIN":"8鄰","STREET":"大埕街","SECT":" ","MAREA":" ","LANE":"５０巷","ALLEY":"１弄","HOUSE_NO":"３號","E_COORD97":195527,"N_COORD97":2558817.2400000002,"ADDRESS":"大埕街５０巷１弄３號","OBJECTID":33119},"geometry":{"x":195527.00000000093,"y":2558817.2400000002}},{"attributes":{"ID":33120,"DIS_CODE":0,"TOWNNAME":"北區","LI":"成德里","LIN":"8鄰","STREET":"西門路","SECT":"四段","MAREA":" ","LANE":"６５巷","ALLEY":"１３０弄","HOUSE_NO":"２１號","E_COORD97":168425.26000000001,"N_COORD97":2545549.1600000001,"ADDRESS":"西門路四段６５巷１３０弄２１號","OBJECTID":33120},"geometry":{"x":168425.26000000071,"y":2545549.1600000039}},{"attributes":{"ID":33121,"DIS_CODE":0,"TOWNNAME":"北區","LI":"文元里","LIN":"8鄰","STREET":"中華北路","SECT":"二段","MAREA":" ","LANE":"５３巷","ALLEY":"２０弄","HOUSE_NO":"５號","E_COORD97":167567.26000000001,"N_COORD97":2546497.5,"ADDRESS":"中華北路二段５３巷２０弄５號","OBJECTID":33121},"geometry":{"x":167567.26000000164,"y":2546497.5000000019}},{"attributes":{"ID":33122,"DIS_CODE":0,"TOWNNAME":"北區","LI":"振興里","LIN":"8鄰","STREET":"開元路","SECT":" ","MAREA":" ","LANE":"１４８巷","ALLEY":"４３弄","HOUSE_NO":"４６號","E_COORD97":170149.47,"N_COORD97":2545106.7000000002,"ADDRESS":"開元路１４８巷４３弄４６號","OBJECTID":33122},"geometry":{"x":170149.47000000067,"y":2545106.6999999993}},{"attributes":{"ID":33123,"DIS_CODE":0,"TOWNNAME":"北區","LI":"振興里","LIN":"8鄰","STREET":"開元路","SECT":" ","MAREA":" ","LANE":"１４８巷","ALLEY":"４３弄","HOUSE_NO":"４８號","E_COORD97":170158.29999999999,"N_COORD97":2545106.7000000002,"ADDRESS":"開元路１４８巷４３弄４８號","OBJECTID":33123},"geometry":{"x":170158.29999999981,"y":2545106.6999999993}},{"attributes":{"ID":33124,"DIS_CODE":0,"TOWNNAME":"北區","LI":"振興里","LIN":"8鄰","STREET":"開元路","SECT":" ","MAREA":" ","LANE":"１４８巷","ALLEY":"４３弄","HOUSE_NO":"５０號","E_COORD97":170165.06,"N_COORD97":2545113.1299999999,"ADDRESS":"開元路１４８巷４３弄５０號","OBJECTID":33124},"geometry":{"x":170165.05999999959,"y":2545113.129999999}},{"attributes":{"ID":33125,"DIS_CODE":0,"TOWNNAME":"北區","LI":"延平里","LIN":"8鄰","STREET":"長榮路","SECT":"五段","MAREA":" ","LANE":"４０１巷","ALLEY":"１４９弄","HOUSE_NO":"１０號","E_COORD97":169308.85000000001,"N_COORD97":2545705.8199999998,"ADDRESS":"長榮路五段４０１巷１４９弄１０號","OBJECTID":33125},"geometry":{"x":169308.84999999963,"y":2545705.8200000003}},{"attributes":{"ID":33126,"DIS_CODE":0,"TOWNNAME":"北區","LI":"延平里","LIN":"8鄰","STREET":"長榮路","SECT":"五段","MAREA":" ","LANE":"４０１巷","ALLEY":"１４９弄","HOUSE_NO":"１２號","E_COORD97":169316.63,"N_COORD97":2545706.4700000002,"ADDRESS":"長榮路五段４０１巷１４９弄１２號","OBJECTID":33126},"geometry":{"x":169316.63000000082,"y":2545706.4700000007}},{"attributes":{"ID":33127,"DIS_CODE":0,"TOWNNAME":"佳里區","LI":"忠仁里","LIN":"14鄰","STREET":"佳東路","SECT":" ","MAREA":" ","LANE":" ","ALLEY":" ","HOUSE_NO":"２５３號","E_COORD97":166372.17999999999,"N_COORD97":2562028.8599999999,"ADDRESS":"佳東路２５３號","OBJECTID":33127},"geometry":{"x":166372.1799999997,"y":2562028.8600000013}},{"attributes":{"ID":33128,"DIS_CODE":0,"TOWNNAME":"安定區","LI":"新吉里","LIN":"7鄰","STREET":" ","SECT":" ","MAREA":"新吉","LANE":" ","ALLEY":" ","HOUSE_NO":"５９之２０號","E_COORD97":168990.62,"N_COORD97":2553954.2999999998,"ADDRESS":"新吉５９之２０號","OBJECTID":33128},"geometry":{"x":168990.61999999918,"y":2553954.3000000026}},{"attributes":{"ID":33129,"DIS_CODE":0,"TOWNNAME":"永康區","LI":"神洲里","LIN":"8鄰","STREET":"忠孝路","SECT":" ","MAREA":" ","LANE":"６巷","ALLEY":"２５弄","HOUSE_NO":"９號","E_COORD97":172244.76000000001,"N_COORD97":2544595.9900000002,"ADDRESS":"忠孝路６巷２５弄９號","OBJECTID":33129},"geometry":{"x":172244.76000000071,"y":2544595.9900000002}},{"attributes":{"ID":33130,"DIS_CODE":0,"TOWNNAME":"北區","LI":"延平里","LIN":"8鄰","STREET":"長榮路","SECT":"五段","MAREA":" ","LANE":"４０１巷","ALLEY":"１４９弄","HOUSE_NO":"１４號","E_COORD97":169322.25,"N_COORD97":2545703.6600000001,"ADDRESS":"長榮路五段４０１巷１４９弄１４號","OBJECTID":33130},"geometry":{"x":169322.25000000093,"y":2545703.6600000001}},{"attributes":{"ID":33131,"DIS_CODE":0,"TOWNNAME":"南區","LI":"永寧里","LIN":"8鄰","STREET":"灣裡路","SECT":" ","MAREA":" ","LANE":"８８巷","ALLEY":"９３弄","HOUSE_NO":"５９號","E_COORD97":165980.98999999999,"N_COORD97":2536460.3700000001,"ADDRESS":"灣裡路８８巷９３弄５９號","OBJECTID":33131},"geometry":{"x":165980.99000000209,"y":2536460.3700000029}},{"attributes":{"ID":33132,"DIS_CODE":0,"TOWNNAME":"北區","LI":"延平里","LIN":"8鄰","STREET":"長榮路","SECT":"五段","MAREA":" ","LANE":"４０１巷","ALLEY":"１４９弄","HOUSE_NO":"２號","E_COORD97":169293.07000000001,"N_COORD97":2545711.8700000001,"ADDRESS":"長榮路五段４０１巷１４９弄２號","OBJECTID":33132},"geometry":{"x":169293.07000000216,"y":2545711.8700000029}},{"attributes":{"ID":33133,"DIS_CODE":0,"TOWNNAME":"北區","LI":"延平里","LIN":"8鄰","STREET":"長榮路","SECT":"五段","MAREA":" ","LANE":"４０１巷","ALLEY":"１４９弄","HOUSE_NO":"４號","E_COORD97":169296.73999999999,"N_COORD97":2545710.5699999998,"ADDRESS":"長榮路五段４０１巷１４９弄４號","OBJECTID":33133},"geometry":{"x":169296.73999999929,"y":2545710.5700000022}},{"attributes":{"ID":33134,"DIS_CODE":0,"TOWNNAME":"北區","LI":"延平里","LIN":"8鄰","STREET":"長榮路","SECT":"五段","MAREA":" ","LANE":"４０１巷","ALLEY":"１４９弄","HOUSE_NO":"６號","E_COORD97":169299.98999999999,"N_COORD97":2545708.8399999999,"ADDRESS":"長榮路五段４０１巷１４９弄６號","OBJECTID":33134},"geometry":{"x":169299.99000000022,"y":2545708.8399999999}},{"attributes":{"ID":33135,"DIS_CODE":0,"TOWNNAME":"東山區","LI":"東中里","LIN":"2鄰","STREET":"新東路","SECT":"一段","MAREA":" ","LANE":" ","ALLEY":" ","HOUSE_NO":"６３號","E_COORD97":188749.89000000001,"N_COORD97":2580070.9100000001,"ADDRESS":"新東路一段６３號","OBJECTID":33135},"geometry":{"x":188749.8900000006,"y":2580070.9100000001}},{"attributes":{"ID":33136,"DIS_CODE":0,"TOWNNAME":"東山區","LI":"東中里","LIN":"2鄰","STREET":"新東路","SECT":"一段","MAREA":" ","LANE":" ","ALLEY":" ","HOUSE_NO":"６７號","E_COORD97":188738.87,"N_COORD97":2580064.6099999999,"ADDRESS":"新東路一段６７號","OBJECTID":33136},"geometry":{"x":188738.87000000011,"y":2580064.6099999994}},{"attributes":{"ID":33137,"DIS_CODE":0,"TOWNNAME":"東山區","LI":"東中里","LIN":"20鄰","STREET":"新東路","SECT":"一段","MAREA":" ","LANE":" ","ALLEY":" ","HOUSE_NO":"８號","E_COORD97":188959.04000000001,"N_COORD97":2580160.1699999999,"ADDRESS":"新東路一段８號","OBJECTID":33137},"geometry":{"x":188959.04000000097,"y":2580160.1699999999}},{"attributes":{"ID":33138,"DIS_CODE":0,"TOWNNAME":"玉井區","LI":"望明里","LIN":"14鄰","STREET":" ","SECT":" ","MAREA":"望明","LANE":" ","ALLEY":" ","HOUSE_NO":"１４８號","E_COORD97":192842.59,"N_COORD97":2556225.2400000002,"ADDRESS":"望明１４８號","OBJECTID":33138},"geometry":{"x":192842.59000000078,"y":2556225.2400000021}},{"attributes":{"ID":33139,"DIS_CODE":0,"TOWNNAME":"北區","LI":"延平里","LIN":"8鄰","STREET":"長榮路","SECT":"五段","MAREA":" ","LANE":"４０１巷","ALLEY":"１４９弄","HOUSE_NO":"８號","E_COORD97":169304.53,"N_COORD97":2545707.3300000001,"ADDRESS":"長榮路五段４０１巷１４９弄８號","OBJECTID":33139},"geometry":{"x":169304.53000000026,"y":2545707.3300000038}},{"attributes":{"ID":33140,"DIS_CODE":0,"TOWNNAME":"北區","LI":"大豐里","LIN":"8鄰","STREET":"文賢路","SECT":" ","MAREA":" ","LANE":"３１３巷","ALLEY":"１２弄","HOUSE_NO":"２９號","E_COORD97":167271.95000000001,"N_COORD97":2545347.7999999998,"ADDRESS":"文賢路３１３巷１２弄２９號","OBJECTID":33140},"geometry":{"x":167271.95000000112,"y":2545347.8000000007}},{"attributes":{"ID":33141,"DIS_CODE":0,"TOWNNAME":"歸仁區","LI":"辜厝里","LIN":"4鄰","STREET":"民族南街","SECT":" ","MAREA":" ","LANE":"１８巷","ALLEY":"２７弄","HOUSE_NO":"１７號","E_COORD97":177364.96244800001,"N_COORD97":2540703.97426,"ADDRESS":"民族南街１８巷２７弄１７號","OBJECTID":33141},"geometry":{"x":177364.96244800091,"y":2540703.9742640033}},{"attributes":{"ID":33142,"DIS_CODE":0,"TOWNNAME":"北區","LI":"大豐里","LIN":"8鄰","STREET":"文賢路","SECT":" ","MAREA":" ","LANE":"３１３巷","ALLEY":"１２弄","HOUSE_NO":"３１號","E_COORD97":167273.17000000001,"N_COORD97":2545355.3199999998,"ADDRESS":"文賢路３１３巷１２弄３１號","OBJECTID":33142},"geometry":{"x":167273.17000000086,"y":2545355.3200000022}},{"attributes":{"ID":33143,"DIS_CODE":0,"TOWNNAME":"北區","LI":"大豐里","LIN":"8鄰","STREET":"文賢路","SECT":" ","MAREA":" ","LANE":"３１３巷","ALLEY":"１２弄","HOUSE_NO":"１１號","E_COORD97":167262.60999999999,"N_COORD97":2545306.0299999998,"ADDRESS":"文賢路３１３巷１２弄１１號","OBJECTID":33143},"geometry":{"x":167262.61000000127,"y":2545306.0300000012}},{"attributes":{"ID":33144,"DIS_CODE":0,"TOWNNAME":"北區","LI":"大豐里","LIN":"8鄰","STREET":"文賢路","SECT":" ","MAREA":" ","LANE":"３１３巷","ALLEY":"１２弄","HOUSE_NO":"２７號","E_COORD97":167254.57999999999,"N_COORD97":2545339.27,"ADDRESS":"文賢路３１３巷１２弄２７號","OBJECTID":33144},"geometry":{"x":167254.58000000007,"y":2545339.2699999996}},{"attributes":{"ID":33145,"DIS_CODE":0,"TOWNNAME":"北區","LI":"大豐里","LIN":"8鄰","STREET":"文賢路","SECT":" ","MAREA":" ","LANE":"３１３巷","ALLEY":"１２弄","HOUSE_NO":"２７號之１","E_COORD97":167255.87,"N_COORD97":2545348.4900000002,"ADDRESS":"文賢路３１３巷１２弄２７號之１","OBJECTID":33145},"geometry":{"x":167255.87000000011,"y":2545348.4900000021}},{"attributes":{"ID":33146,"DIS_CODE":0,"TOWNNAME":"北區","LI":"大豐里","LIN":"8鄰","STREET":"文賢路","SECT":" ","MAREA":" ","LANE":"３１３巷","ALLEY":"１２弄","HOUSE_NO":"２７號之２","E_COORD97":167261.48000000001,"N_COORD97":2545348.8100000001,"ADDRESS":"文賢路３１３巷１２弄２７號之２","OBJECTID":33146},"geometry":{"x":167261.48000000138,"y":2545348.8100000024}},{"attributes":{"ID":33147,"DIS_CODE":0,"TOWNNAME":"北區","LI":"大豐里","LIN":"8鄰","STREET":"文賢路","SECT":" ","MAREA":" ","LANE":"３１３巷","ALLEY":"１２弄","HOUSE_NO":"２８號","E_COORD97":167305.73000000001,"N_COORD97":2545348.0499999998,"ADDRESS":"文賢路３１３巷１２弄２８號","OBJECTID":33147},"geometry":{"x":167305.73000000138,"y":2545348.0500000026}},{"attributes":{"ID":33148,"DIS_CODE":0,"TOWNNAME":"北區","LI":"大豐里","LIN":"8鄰","STREET":"文賢路","SECT":" ","MAREA":" ","LANE":"３１３巷","ALLEY":"１２弄","HOUSE_NO":"３０號","E_COORD97":167291.62,"N_COORD97":2545347.8199999998,"ADDRESS":"文賢路３１３巷１２弄３０號","OBJECTID":33148},"geometry":{"x":167291.62000000011,"y":2545347.8199999984}},{"attributes":{"ID":33149,"DIS_CODE":0,"TOWNNAME":"北區","LI":"大豐里","LIN":"8鄰","STREET":"文賢路","SECT":" ","MAREA":" ","LANE":"３１３巷","ALLEY":"１２弄","HOUSE_NO":"３２號","E_COORD97":167291.70000000001,"N_COORD97":2545353.3500000001,"ADDRESS":"文賢路３１３巷１２弄３２號","OBJECTID":33149},"geometry":{"x":167291.70000000205,"y":2545353.3499999996}},{"attributes":{"ID":33150,"DIS_CODE":0,"TOWNNAME":"玉井區","LI":"豐里里","LIN":"6鄰","STREET":" ","SECT":" ","MAREA":"豐里","LANE":" ","ALLEY":" ","HOUSE_NO":"６６號","E_COORD97":193049.26000000001,"N_COORD97":2558003.2400000002,"ADDRESS":"豐里６６號","OBJECTID":33150},"geometry":{"x":193049.26000000164,"y":2558003.2400000002}},{"attributes":{"ID":33151,"DIS_CODE":0,"TOWNNAME":"北區","LI":"大豐里","LIN":"8鄰","STREET":"文賢路","SECT":" ","MAREA":" ","LANE":"３１３巷","ALLEY":"３４弄","HOUSE_NO":"２４號","E_COORD97":167235.73000000001,"N_COORD97":2545336.3100000001,"ADDRESS":"文賢路３１３巷３４弄２４號","OBJECTID":33151},"geometry":{"x":167235.73000000231,"y":2545336.3100000024}},{"attributes":{"ID":33152,"DIS_CODE":0,"TOWNNAME":"北區","LI":"大豐里","LIN":"8鄰","STREET":"文賢路","SECT":" ","MAREA":" ","LANE":"３１３巷","ALLEY":"３４弄","HOUSE_NO":"２６號","E_COORD97":167236.42000000001,"N_COORD97":2545340.7200000002,"ADDRESS":"文賢路３１３巷３４弄２６號","OBJECTID":33152},"geometry":{"x":167236.42000000086,"y":2545340.7200000007}},{"attributes":{"ID":33153,"DIS_CODE":0,"TOWNNAME":"北區","LI":"大豐里","LIN":"8鄰","STREET":"文賢路","SECT":" ","MAREA":" ","LANE":"３１３巷","ALLEY":"３４弄","HOUSE_NO":"２８號","E_COORD97":167236.16,"N_COORD97":2545345.3799999999,"ADDRESS":"文賢路３１３巷３４弄２８號","OBJECTID":33153},"geometry":{"x":167236.16000000108,"y":2545345.379999999}},{"attributes":{"ID":33154,"DIS_CODE":0,"TOWNNAME":"北區","LI":"大豐里","LIN":"8鄰","STREET":"文賢路","SECT":" ","MAREA":" ","LANE":"３１３巷","ALLEY":"３４弄","HOUSE_NO":"３０號","E_COORD97":167236.67999999999,"N_COORD97":2545349.8799999999,"ADDRESS":"文賢路３１３巷３４弄３０號","OBJECTID":33154},"geometry":{"x":167236.6799999997,"y":2545349.8800000008}},{"attributes":{"ID":33155,"DIS_CODE":0,"TOWNNAME":"北區","LI":"大豐里","LIN":"8鄰","STREET":"文賢路","SECT":" ","MAREA":" ","LANE":"３１３巷","ALLEY":"３４弄","HOUSE_NO":"３２號","E_COORD97":167236.85000000001,"N_COORD97":2545353.9399999999,"ADDRESS":"文賢路３１３巷３４弄３２號","OBJECTID":33155},"geometry":{"x":167236.84999999963,"y":2545353.9400000013}},{"attributes":{"ID":33156,"DIS_CODE":0,"TOWNNAME":"玉井區","LI":"玉田里","LIN":"36鄰","STREET":"民生路","SECT":" ","MAREA":" ","LANE":" ","ALLEY":" ","HOUSE_NO":"１９３號","E_COORD97":195058.48999999999,"N_COORD97":2558324.29,"ADDRESS":"民生路１９３號","OBJECTID":33156},"geometry":{"x":195058.48999999929,"y":2558324.2899999991}},{"attributes":{"ID":33157,"DIS_CODE":0,"TOWNNAME":"玉井區","LI":"玉田里","LIN":"7鄰","STREET":"民主街","SECT":" ","MAREA":" ","LANE":" ","ALLEY":" ","HOUSE_NO":"８１號","E_COORD97":195002.13,"N_COORD97":2558055.29,"ADDRESS":"民主街８１號","OBJECTID":33157},"geometry":{"x":195002.13000000082,"y":2558055.290000001}},{"attributes":{"ID":33158,"DIS_CODE":0,"TOWNNAME":"佳里區","LI":"東寧里","LIN":"14鄰","STREET":"和平街","SECT":" ","MAREA":" ","LANE":" ","ALLEY":" ","HOUSE_NO":"７１號","E_COORD97":165898.57999999999,"N_COORD97":2562507.25,"ADDRESS":"和平街７１號","OBJECTID":33158},"geometry":{"x":165898.58000000007,"y":2562507.2500000019}},{"attributes":{"ID":33159,"DIS_CODE":0,"TOWNNAME":"玉井區","LI":"層林里","LIN":"6鄰","STREET":" ","SECT":" ","MAREA":"層林","LANE":" ","ALLEY":" ","HOUSE_NO":"６２號","E_COORD97":190414.57000000001,"N_COORD97":2552550.25,"ADDRESS":"層林６２號","OBJECTID":33159},"geometry":{"x":190414.5700000003,"y":2552550.2500000019}},{"attributes":{"ID":33160,"DIS_CODE":0,"TOWNNAME":"北區","LI":"大豐里","LIN":"8鄰","STREET":"文賢路","SECT":" ","MAREA":" ","LANE":"３１３巷","ALLEY":"３４弄","HOUSE_NO":"３４號","E_COORD97":167237.37,"N_COORD97":2545357.8199999998,"ADDRESS":"文賢路３１３巷３４弄３４號","OBJECTID":33160},"geometry":{"x":167237.37000000011,"y":2545357.8200000003}},{"attributes":{"ID":33161,"DIS_CODE":0,"TOWNNAME":"歸仁區","LI":"大潭里","LIN":"8鄰","STREET":"長榮路","SECT":"一段","MAREA":" ","LANE":"２００巷","ALLEY":"６５弄","HOUSE_NO":"２之１號","E_COORD97":175157.42000000001,"N_COORD97":2534480.9900000002,"ADDRESS":"長榮路一段２００巷６５弄２之１號","OBJECTID":33161},"geometry":{"x":175157.42000000086,"y":2534480.9900000021}},{"attributes":{"ID":33162,"DIS_CODE":0,"TOWNNAME":"南區","LI":"同安里","LIN":"8鄰","STREET":"灣裡路","SECT":" ","MAREA":" ","LANE":"３５１巷","ALLEY":"１５弄","HOUSE_NO":"１之１號","E_COORD97":166256.5,"N_COORD97":2536215.6499999999,"ADDRESS":"灣裡路３５１巷１５弄１之１號","OBJECTID":33162},"geometry":{"x":166256.5,"y":2536215.6500000041}},{"attributes":{"ID":33163,"DIS_CODE":0,"TOWNNAME":"南區","LI":"大恩里","LIN":"8鄰","STREET":"大同路","SECT":"二段","MAREA":" ","LANE":"７５０巷","ALLEY":"４０弄","HOUSE_NO":"１０號","E_COORD97":169461.09,"N_COORD97":2540757.3399999999,"ADDRESS":"大同路二段７５０巷４０弄１０號","OBJECTID":33163},"geometry":{"x":169461.08999999985,"y":2540757.3400000017}},{"attributes":{"ID":33164,"DIS_CODE":0,"TOWNNAME":"南區","LI":"大恩里","LIN":"8鄰","STREET":"大同路","SECT":"二段","MAREA":" ","LANE":"７５０巷","ALLEY":"４０弄","HOUSE_NO":"１１號","E_COORD97":169426.62,"N_COORD97":2540737.3599999999,"ADDRESS":"大同路二段７５０巷４０弄１１號","OBJECTID":33164},"geometry":{"x":169426.62000000104,"y":2540737.3600000013}},{"attributes":{"ID":33165,"DIS_CODE":0,"TOWNNAME":"南區","LI":"大恩里","LIN":"8鄰","STREET":"大同路","SECT":"二段","MAREA":" ","LANE":"７５０巷","ALLEY":"４０弄","HOUSE_NO":"１２號","E_COORD97":169460.34,"N_COORD97":2540761.0899999999,"ADDRESS":"大同路二段７５０巷４０弄１２號","OBJECTID":33165},"geometry":{"x":169460.34000000078,"y":2540761.0899999999}},{"attributes":{"ID":33166,"DIS_CODE":0,"TOWNNAME":"南區","LI":"大恩里","LIN":"8鄰","STREET":"大同路","SECT":"二段","MAREA":" ","LANE":"７５０巷","ALLEY":"４０弄","HOUSE_NO":"１３號","E_COORD97":169422.64999999999,"N_COORD97":2540737.46,"ADDRESS":"大同路二段７５０巷４０弄１３號","OBJECTID":33166},"geometry":{"x":169422.65000000037,"y":2540737.4600000028}},{"attributes":{"ID":33167,"DIS_CODE":0,"TOWNNAME":"南區","LI":"大恩里","LIN":"8鄰","STREET":"大同路","SECT":"二段","MAREA":" ","LANE":"７５０巷","ALLEY":"４０弄","HOUSE_NO":"１４號","E_COORD97":169460.01999999999,"N_COORD97":2540765.4900000002,"ADDRESS":"大同路二段７５０巷４０弄１４號","OBJECTID":33167},"geometry":{"x":169460.01999999955,"y":2540765.4900000002}},{"attributes":{"ID":33168,"DIS_CODE":0,"TOWNNAME":"南區","LI":"大恩里","LIN":"8鄰","STREET":"大同路","SECT":"二段","MAREA":" ","LANE":"７５０巷","ALLEY":"４０弄","HOUSE_NO":"１５號","E_COORD97":169418.25,"N_COORD97":2540737.46,"ADDRESS":"大同路二段７５０巷４０弄１５號","OBJECTID":33168},"geometry":{"x":169418.25,"y":2540737.4600000028}},{"attributes":{"ID":33169,"DIS_CODE":0,"TOWNNAME":"安定區","LI":"蘇厝里","LIN":"7鄰","STREET":" ","SECT":" ","MAREA":"蘇厝","LANE":" ","ALLEY":" ","HOUSE_NO":"３４１號","E_COORD97":172934.92000000001,"N_COORD97":2558551.25,"ADDRESS":"蘇厝３４１號","OBJECTID":33169},"geometry":{"x":172934.92000000179,"y":2558551.2500000019}},{"attributes":{"ID":33170,"DIS_CODE":0,"TOWNNAME":"南區","LI":"大恩里","LIN":"8鄰","STREET":"大同路","SECT":"二段","MAREA":" ","LANE":"７５０巷","ALLEY":"４０弄","HOUSE_NO":"１６號","E_COORD97":169459.48000000001,"N_COORD97":2540769.46,"ADDRESS":"大同路二段７５０巷４０弄１６號","OBJECTID":33170},"geometry":{"x":169459.48000000045,"y":2540769.4600000009}},{"attributes":{"ID":33171,"DIS_CODE":0,"TOWNNAME":"南區","LI":"大恩里","LIN":"8鄰","STREET":"大同路","SECT":"二段","MAREA":" ","LANE":"７５０巷","ALLEY":"４０弄","HOUSE_NO":"１７號","E_COORD97":169413.95000000001,"N_COORD97":2540737.25,"ADDRESS":"大同路二段７５０巷４０弄１７號","OBJECTID":33171},"geometry":{"x":169413.94999999925,"y":2540737.2500000037}},{"attributes":{"ID":33172,"DIS_CODE":0,"TOWNNAME":"南區","LI":"大恩里","LIN":"8鄰","STREET":"大同路","SECT":"二段","MAREA":" ","LANE":"７５０巷","ALLEY":"４０弄","HOUSE_NO":"１８號","E_COORD97":169459.16,"N_COORD97":2540774.3999999999,"ADDRESS":"大同路二段７５０巷４０弄１８號","OBJECTID":33172},"geometry":{"x":169459.16000000108,"y":2540774.4000000022}},{"attributes":{"ID":33173,"DIS_CODE":0,"TOWNNAME":"南區","LI":"大恩里","LIN":"8鄰","STREET":"大同路","SECT":"二段","MAREA":" ","LANE":"７５０巷","ALLEY":"４０弄","HOUSE_NO":"１９號","E_COORD97":169412.34,"N_COORD97":2540757.0299999998,"ADDRESS":"大同路二段７５０巷４０弄１９號","OBJECTID":33173},"geometry":{"x":169412.33999999985,"y":2540757.0299999993}},{"attributes":{"ID":33174,"DIS_CODE":0,"TOWNNAME":"南區","LI":"大恩里","LIN":"8鄰","STREET":"大同路","SECT":"二段","MAREA":" ","LANE":"７５０巷","ALLEY":"４０弄","HOUSE_NO":"１號","E_COORD97":169447.23999999999,"N_COORD97":2540739.9300000002,"ADDRESS":"大同路二段７５０巷４０弄１號","OBJECTID":33174},"geometry":{"x":169447.24000000022,"y":2540739.9300000016}},{"attributes":{"ID":33175,"DIS_CODE":0,"TOWNNAME":"南區","LI":"大恩里","LIN":"8鄰","STREET":"大同路","SECT":"二段","MAREA":" ","LANE":"７５０巷","ALLEY":"４０弄","HOUSE_NO":"２０號","E_COORD97":169458.73000000001,"N_COORD97":2540778.0499999998,"ADDRESS":"大同路二段７５０巷４０弄２０號","OBJECTID":33175},"geometry":{"x":169458.73000000138,"y":2540778.0500000026}},{"attributes":{"ID":33176,"DIS_CODE":0,"TOWNNAME":"南區","LI":"大恩里","LIN":"8鄰","STREET":"大同路","SECT":"二段","MAREA":" ","LANE":"７５０巷","ALLEY":"４０弄","HOUSE_NO":"２１號","E_COORD97":169416.31,"N_COORD97":2540757.46,"ADDRESS":"大同路二段７５０巷４０弄２１號","OBJECTID":33176},"geometry":{"x":169416.31000000052,"y":2540757.4600000028}},{"attributes":{"ID":33177,"DIS_CODE":0,"TOWNNAME":"南區","LI":"大恩里","LIN":"8鄰","STREET":"大同路","SECT":"二段","MAREA":" ","LANE":"７５０巷","ALLEY":"４０弄","HOUSE_NO":"２２號","E_COORD97":169458.19,"N_COORD97":2540782.3399999999,"ADDRESS":"大同路二段７５０巷４０弄２２號","OBJECTID":33177},"geometry":{"x":169458.19000000041,"y":2540782.3399999999}},{"attributes":{"ID":33178,"DIS_CODE":0,"TOWNNAME":"南區","LI":"大恩里","LIN":"8鄰","STREET":"大同路","SECT":"二段","MAREA":" ","LANE":"７５０巷","ALLEY":"４０弄","HOUSE_NO":"２３號","E_COORD97":169420.17999999999,"N_COORD97":2540758,"ADDRESS":"大同路二段７５０巷４０弄２３號","OBJECTID":33178},"geometry":{"x":169420.1799999997,"y":2540758}},{"attributes":{"ID":33179,"DIS_CODE":0,"TOWNNAME":"南區","LI":"大恩里","LIN":"8鄰","STREET":"大同路","SECT":"二段","MAREA":" ","LANE":"７５０巷","ALLEY":"４０弄","HOUSE_NO":"２２之１號","E_COORD97":169462.38,"N_COORD97":2540798.4700000002,"ADDRESS":"大同路二段７５０巷４０弄２２之１號","OBJECTID":33179},"geometry":{"x":169462.38000000082,"y":2540798.4700000025}},{"attributes":{"ID":33180,"DIS_CODE":0,"TOWNNAME":"南區","LI":"大恩里","LIN":"8鄰","STREET":"大同路","SECT":"二段","MAREA":" ","LANE":"７５０巷","ALLEY":"４０弄","HOUSE_NO":"２５號","E_COORD97":169424.48000000001,"N_COORD97":2540757.6800000002,"ADDRESS":"大同路二段７５０巷４０弄２５號","OBJECTID":33180},"geometry":{"x":169424.48000000138,"y":2540757.6800000034}},{"attributes":{"ID":33181,"DIS_CODE":0,"TOWNNAME":"南區","LI":"大恩里","LIN":"8鄰","STREET":"大同路","SECT":"二段","MAREA":" ","LANE":"７５０巷","ALLEY":"４０弄","HOUSE_NO":"２６號","E_COORD97":169458.07999999999,"N_COORD97":2540798.1499999999,"ADDRESS":"大同路二段７５０巷４０弄２６號","OBJECTID":33181},"geometry":{"x":169458.08000000007,"y":2540798.1500000004}},{"attributes":{"ID":33182,"DIS_CODE":0,"TOWNNAME":"南區","LI":"大恩里","LIN":"8鄰","STREET":"大同路","SECT":"二段","MAREA":" ","LANE":"７５０巷","ALLEY":"４０弄","HOUSE_NO":"２７號","E_COORD97":169428.34,"N_COORD97":2540758.6400000001,"ADDRESS":"大同路二段７５０巷４０弄２７號","OBJECTID":33182},"geometry":{"x":169428.34000000078,"y":2540758.6400000006}},{"attributes":{"ID":33183,"DIS_CODE":0,"TOWNNAME":"南區","LI":"大恩里","LIN":"8鄰","STREET":"大同路","SECT":"二段","MAREA":" ","LANE":"７５０巷","ALLEY":"４０弄","HOUSE_NO":"２８號","E_COORD97":169453.79000000001,"N_COORD97":2540797.6200000001,"ADDRESS":"大同路二段７５０巷４０弄２８號","OBJECTID":33183},"geometry":{"x":169453.79000000004,"y":2540797.6200000029}},{"attributes":{"ID":33184,"DIS_CODE":0,"TOWNNAME":"南區","LI":"大恩里","LIN":"8鄰","STREET":"大同路","SECT":"二段","MAREA":" ","LANE":"７５０巷","ALLEY":"４０弄","HOUSE_NO":"２９號","E_COORD97":169432.64000000001,"N_COORD97":2540759.0600000001,"ADDRESS":"大同路二段７５０巷４０弄２９號","OBJECTID":33184},"geometry":{"x":169432.64000000153,"y":2540759.0600000005}},{"attributes":{"ID":33185,"DIS_CODE":0,"TOWNNAME":"南區","LI":"大恩里","LIN":"8鄰","STREET":"大同路","SECT":"二段","MAREA":" ","LANE":"７５０巷","ALLEY":"４０弄","HOUSE_NO":"２號","E_COORD97":169462.16,"N_COORD97":2540740.2799999998,"ADDRESS":"大同路二段７５０巷４０弄２號","OBJECTID":33185},"geometry":{"x":169462.16000000108,"y":2540740.2800000012}},{"attributes":{"ID":33186,"DIS_CODE":0,"TOWNNAME":"南區","LI":"大恩里","LIN":"8鄰","STREET":"大同路","SECT":"二段","MAREA":" ","LANE":"７５０巷","ALLEY":"４０弄","HOUSE_NO":"３０號","E_COORD97":169449.92000000001,"N_COORD97":2540796.9700000002,"ADDRESS":"大同路二段７５０巷４０弄３０號","OBJECTID":33186},"geometry":{"x":169449.92000000086,"y":2540796.9700000007}},{"attributes":{"ID":33187,"DIS_CODE":0,"TOWNNAME":"南區","LI":"大恩里","LIN":"8鄰","STREET":"大同路","SECT":"二段","MAREA":" ","LANE":"７５０巷","ALLEY":"４０弄","HOUSE_NO":"３１號","E_COORD97":169436.72,"N_COORD97":2540759.3900000001,"ADDRESS":"大同路二段７５０巷４０弄３１號","OBJECTID":33187},"geometry":{"x":169436.71999999974,"y":2540759.3900000006}},{"attributes":{"ID":33188,"DIS_CODE":0,"TOWNNAME":"南區","LI":"大恩里","LIN":"8鄰","STREET":"大同路","SECT":"二段","MAREA":" ","LANE":"７５０巷","ALLEY":"４０弄","HOUSE_NO":"３２號","E_COORD97":169445.63,"N_COORD97":2540796.54,"ADDRESS":"大同路二段７５０巷４０弄３２號","OBJECTID":33188},"geometry":{"x":169445.62999999989,"y":2540796.540000001}},{"attributes":{"ID":33189,"DIS_CODE":0,"TOWNNAME":"南區","LI":"大恩里","LIN":"8鄰","STREET":"大同路","SECT":"二段","MAREA":" ","LANE":"７５０巷","ALLEY":"４０弄","HOUSE_NO":"３３號","E_COORD97":169440.79999999999,"N_COORD97":2540759.0600000001,"ADDRESS":"大同路二段７５０巷４０弄３３號","OBJECTID":33189},"geometry":{"x":169440.80000000075,"y":2540759.0600000005}},{"attributes":{"ID":33190,"DIS_CODE":0,"TOWNNAME":"南區","LI":"大恩里","LIN":"8鄰","STREET":"大同路","SECT":"二段","MAREA":" ","LANE":"７５０巷","ALLEY":"４０弄","HOUSE_NO":"３４號","E_COORD97":169441.76000000001,"N_COORD97":2540795.5800000001,"ADDRESS":"大同路二段７５０巷４０弄３４號","OBJECTID":33190},"geometry":{"x":169441.75999999978,"y":2540795.5800000001}},{"attributes":{"ID":33191,"DIS_CODE":0,"TOWNNAME":"南區","LI":"大恩里","LIN":"8鄰","STREET":"大同路","SECT":"二段","MAREA":" ","LANE":"７５０巷","ALLEY":"４０弄","HOUSE_NO":"３５號","E_COORD97":169445.09,"N_COORD97":2540760.3599999999,"ADDRESS":"大同路二段７５０巷４０弄３５號","OBJECTID":33191},"geometry":{"x":169445.09000000078,"y":2540760.3600000013}},{"attributes":{"ID":33192,"DIS_CODE":0,"TOWNNAME":"南區","LI":"大恩里","LIN":"8鄰","STREET":"大同路","SECT":"二段","MAREA":" ","LANE":"７５０巷","ALLEY":"４０弄","HOUSE_NO":"３６號","E_COORD97":169437.47,"N_COORD97":2540795.1499999999,"ADDRESS":"大同路二段７５０巷４０弄３６號","OBJECTID":33192},"geometry":{"x":169437.47000000067,"y":2540795.1500000004}},{"attributes":{"ID":33193,"DIS_CODE":0,"TOWNNAME":"南區","LI":"大恩里","LIN":"8鄰","STREET":"大同路","SECT":"二段","MAREA":" ","LANE":"７５０巷","ALLEY":"４０弄","HOUSE_NO":"３７號","E_COORD97":169443.70000000001,"N_COORD97":2540775.0600000001,"ADDRESS":"大同路二段７５０巷４０弄３７號","OBJECTID":33193},"geometry":{"x":169443.70000000019,"y":2540775.0600000005}},{"attributes":{"ID":33194,"DIS_CODE":0,"TOWNNAME":"南區","LI":"大恩里","LIN":"8鄰","STREET":"大同路","SECT":"二段","MAREA":" ","LANE":"７５０巷","ALLEY":"４０弄","HOUSE_NO":"３８號","E_COORD97":169433.5,"N_COORD97":2540795.3599999999,"ADDRESS":"大同路二段７５０巷４０弄３８號","OBJECTID":33194},"geometry":{"x":169433.5,"y":2540795.3599999994}},{"attributes":{"ID":33195,"DIS_CODE":0,"TOWNNAME":"南區","LI":"大恩里","LIN":"8鄰","STREET":"大同路","SECT":"二段","MAREA":" ","LANE":"７５０巷","ALLEY":"４０弄","HOUSE_NO":"３９號","E_COORD97":169439.51000000001,"N_COORD97":2540773.8799999999,"ADDRESS":"大同路二段７５０巷４０弄３９號","OBJECTID":33195},"geometry":{"x":169439.50999999978,"y":2540773.8800000008}},{"attributes":{"ID":33196,"DIS_CODE":0,"TOWNNAME":"南區","LI":"大恩里","LIN":"8鄰","STREET":"大同路","SECT":"二段","MAREA":" ","LANE":"７５０巷","ALLEY":"４０弄","HOUSE_NO":"３號","E_COORD97":169442.73000000001,"N_COORD97":2540739.6099999999,"ADDRESS":"大同路二段７５０巷４０弄３號","OBJECTID":33196},"geometry":{"x":169442.73000000045,"y":2540739.6099999994}},{"attributes":{"ID":33197,"DIS_CODE":0,"TOWNNAME":"南區","LI":"大恩里","LIN":"8鄰","STREET":"大同路","SECT":"二段","MAREA":" ","LANE":"７５０巷","ALLEY":"４０弄","HOUSE_NO":"４０號","E_COORD97":169429.51999999999,"N_COORD97":2540794.7200000002,"ADDRESS":"大同路二段７５０巷４０弄４０號","OBJECTID":33197},"geometry":{"x":169429.51999999955,"y":2540794.7200000007}},{"attributes":{"ID":33198,"DIS_CODE":0,"TOWNNAME":"南區","LI":"大恩里","LIN":"8鄰","STREET":"大同路","SECT":"二段","MAREA":" ","LANE":"７５０巷","ALLEY":"４０弄","HOUSE_NO":"４１號","E_COORD97":169435.10999999999,"N_COORD97":2540773.6600000001,"ADDRESS":"大同路二段７５０巷４０弄４１號","OBJECTID":33198},"geometry":{"x":169435.1100000022,"y":2540773.6600000001}},{"attributes":{"ID":33199,"DIS_CODE":0,"TOWNNAME":"南區","LI":"大恩里","LIN":"8鄰","STREET":"大同路","SECT":"二段","MAREA":" ","LANE":"７５０巷","ALLEY":"４０弄","HOUSE_NO":"４３號","E_COORD97":169431.13,"N_COORD97":2540773.3399999999,"ADDRESS":"大同路二段７５０巷４０弄４３號","OBJECTID":33199},"geometry":{"x":169431.13000000175,"y":2540773.3399999999}},{"attributes":{"ID":33200,"DIS_CODE":0,"TOWNNAME":"南區","LI":"大恩里","LIN":"8鄰","STREET":"大同路","SECT":"二段","MAREA":" ","LANE":"７５０巷","ALLEY":"４０弄","HOUSE_NO":"４４號","E_COORD97":169421.14999999999,"N_COORD97":2540793.9700000002,"ADDRESS":"大同路二段７５０巷４０弄４４號","OBJECTID":33200},"geometry":{"x":169421.15000000037,"y":2540793.9699999988}}]}