{"displayFieldName":"TOWNNAME","fieldAliases":{"ID":"ID","DIS_CODE":"DIS_CODE","TOWNNAME":"TOWNNAME","LI":"LI","LIN":"LIN","STREET":"STREET","SECT":"SECT","MAREA":"MAREA","LANE":"LANE","ALLEY":"ALLEY","HOUSE_NO":"HOUSE_NO","E_COORD97":"E_COORD97","N_COORD97":"N_COORD97","ADDRESS":"ADDRESS","OBJECTID":"OBJECTID"},"geometryType":"esriGeometryPoint","spatialReference":{"wkid":102443,"latestWkid":3826},"fields":[{"name":"ID","type":"esriFieldTypeDouble","alias":"ID"},{"name":"DIS_CODE","type":"esriFieldTypeInteger","alias":"DIS_CODE"},{"name":"TOWNNAME","type":"esriFieldTypeString","alias":"TOWNNAME","length":8},{"name":"LI","type":"esriFieldTypeString","alias":"LI","length":8},{"name":"LIN","type":"esriFieldTypeString","alias":"LIN","length":12},{"name":"STREET","type":"esriFieldTypeString","alias":"STREET","length":20},{"name":"SECT","type":"esriFieldTypeString","alias":"SECT","length":8},{"name":"MAREA","type":"esriFieldTypeString","alias":"MAREA","length":12},{"name":"LANE","type":"esriFieldTypeString","alias":"LANE","length":10},{"name":"ALLEY","type":"esriFieldTypeString","alias":"ALLEY","length":10},{"name":"HOUSE_NO","type":"esriFieldTypeString","alias":"HOUSE_NO","length":20},{"name":"E_COORD97","type":"esriFieldTypeDouble","alias":"E_COORD97"},{"name":"N_COORD97","type":"esriFieldTypeDouble","alias":"N_COORD97"},{"name":"ADDRESS","type":"esriFieldTypeString","alias":"ADDRESS","length":50},{"name":"OBJECTID","type":"esriFieldTypeOID","alias":"OBJECTID"}],"features":[{"attributes":{"ID":605428,"DIS_CODE":0,"TOWNNAME":"永康區","LI":"\u25A0行里","LIN":"3鄰","STREET":"中正七街","SECT":" ","MAREA":" ","LANE":" ","ALLEY":" ","HOUSE_NO":"１０號五樓之８","E_COORD97":172079.09,"N_COORD97":2548864.48,"ADDRESS":"中正七街１０號五樓之８","OBJECTID":605401},"geometry":{"x":172079.08999999985,"y":2548864.4800000023}},{"attributes":{"ID":605429,"DIS_CODE":0,"TOWNNAME":"永康區","LI":"永康里","LIN":"3鄰","STREET":"中山路","SECT":" ","MAREA":" ","LANE":" ","ALLEY":" ","HOUSE_NO":"１２號四樓之３","E_COORD97":173882.53,"N_COORD97":2547415.23,"ADDRESS":"中山路１２號四樓之３","OBJECTID":605402},"geometry":{"x":173882.53000000119,"y":2547415.2300000023}},{"attributes":{"ID":605430,"DIS_CODE":0,"TOWNNAME":"永康區","LI":"\u25A0行里","LIN":"3鄰","STREET":"中正七街","SECT":" ","MAREA":" ","LANE":" ","ALLEY":" ","HOUSE_NO":"１０號二樓之２","E_COORD97":172079.07999999999,"N_COORD97":2548864.48,"ADDRESS":"中正七街１０號二樓之２","OBJECTID":605403},"geometry":{"x":172079.08000000007,"y":2548864.4800000023}},{"attributes":{"ID":605431,"DIS_CODE":0,"TOWNNAME":"永康區","LI":"永康里","LIN":"3鄰","STREET":"中山路","SECT":" ","MAREA":" ","LANE":" ","ALLEY":" ","HOUSE_NO":"１２號五樓之３","E_COORD97":173882.53,"N_COORD97":2547415.23,"ADDRESS":"中山路１２號五樓之３","OBJECTID":605404},"geometry":{"x":173882.53000000119,"y":2547415.2300000023}},{"attributes":{"ID":605432,"DIS_CODE":0,"TOWNNAME":"永康區","LI":"\u25A0行里","LIN":"3鄰","STREET":"中正七街","SECT":" ","MAREA":" ","LANE":" ","ALLEY":" ","HOUSE_NO":"１０號七樓之７","E_COORD97":172079.01999999999,"N_COORD97":2548864.48,"ADDRESS":"中正七街１０號七樓之７","OBJECTID":605405},"geometry":{"x":172079.01999999955,"y":2548864.4800000023}},{"attributes":{"ID":605433,"DIS_CODE":0,"TOWNNAME":"中西區","LI":"赤嵌里","LIN":"3鄰","STREET":"民族路","SECT":"二段","MAREA":" ","LANE":" ","ALLEY":" ","HOUSE_NO":"７６號之１０七樓之１","E_COORD97":168848.04999999999,"N_COORD97":2543948.4900000002,"ADDRESS":"民族路二段７６號之１０七樓之１","OBJECTID":605406},"geometry":{"x":168848.04999999981,"y":2543948.4900000002}},{"attributes":{"ID":605434,"DIS_CODE":0,"TOWNNAME":"中西區","LI":"赤嵌里","LIN":"3鄰","STREET":"民族路","SECT":"二段","MAREA":" ","LANE":" ","ALLEY":" ","HOUSE_NO":"７６號之１０七樓之２","E_COORD97":168848.04999999999,"N_COORD97":2543948.4900000002,"ADDRESS":"民族路二段７６號之１０七樓之２","OBJECTID":605407},"geometry":{"x":168848.04999999981,"y":2543948.4900000002}},{"attributes":{"ID":605435,"DIS_CODE":0,"TOWNNAME":"中西區","LI":"赤嵌里","LIN":"3鄰","STREET":"民族路","SECT":"二段","MAREA":" ","LANE":" ","ALLEY":" ","HOUSE_NO":"７６號之１０七樓之３","E_COORD97":168848.04999999999,"N_COORD97":2543948.4900000002,"ADDRESS":"民族路二段７６號之１０七樓之３","OBJECTID":605408},"geometry":{"x":168848.04999999981,"y":2543948.4900000002}},{"attributes":{"ID":605436,"DIS_CODE":0,"TOWNNAME":"中西區","LI":"赤嵌里","LIN":"3鄰","STREET":"民族路","SECT":"二段","MAREA":" ","LANE":" ","ALLEY":" ","HOUSE_NO":"７６號之１０七樓之４","E_COORD97":168848.04999999999,"N_COORD97":2543948.4900000002,"ADDRESS":"民族路二段７６號之１０七樓之４","OBJECTID":605409},"geometry":{"x":168848.04999999981,"y":2543948.4900000002}},{"attributes":{"ID":605437,"DIS_CODE":0,"TOWNNAME":"中西區","LI":"赤嵌里","LIN":"3鄰","STREET":"民族路","SECT":"二段","MAREA":" ","LANE":" ","ALLEY":" ","HOUSE_NO":"７６號之１０九樓之１","E_COORD97":168848.04999999999,"N_COORD97":2543948.4900000002,"ADDRESS":"民族路二段７６號之１０九樓之１","OBJECTID":605410},"geometry":{"x":168848.04999999981,"y":2543948.4900000002}},{"attributes":{"ID":605438,"DIS_CODE":0,"TOWNNAME":"中西區","LI":"赤嵌里","LIN":"3鄰","STREET":"民族路","SECT":"二段","MAREA":" ","LANE":" ","ALLEY":" ","HOUSE_NO":"７６號之１０九樓之２","E_COORD97":168848.04999999999,"N_COORD97":2543948.4900000002,"ADDRESS":"民族路二段７６號之１０九樓之２","OBJECTID":605411},"geometry":{"x":168848.04999999981,"y":2543948.4900000002}},{"attributes":{"ID":605439,"DIS_CODE":0,"TOWNNAME":"東區","LI":"東光里","LIN":"31鄰","STREET":"東平路","SECT":" ","MAREA":" ","LANE":" ","ALLEY":" ","HOUSE_NO":"２５號","E_COORD97":171401.35999999999,"N_COORD97":2543904.9199999999,"ADDRESS":"東平路２５號","OBJECTID":605412},"geometry":{"x":171401.36000000034,"y":2543904.9199999999}},{"attributes":{"ID":605440,"DIS_CODE":0,"TOWNNAME":"東區","LI":"東光里","LIN":"31鄰","STREET":"東平路","SECT":" ","MAREA":" ","LANE":" ","ALLEY":" ","HOUSE_NO":"２７號","E_COORD97":171397.32000000001,"N_COORD97":2543905.4300000002,"ADDRESS":"東平路２７號","OBJECTID":605413},"geometry":{"x":171397.32000000123,"y":2543905.4299999997}},{"attributes":{"ID":605441,"DIS_CODE":0,"TOWNNAME":"東區","LI":"東光里","LIN":"31鄰","STREET":"東平路","SECT":" ","MAREA":" ","LANE":" ","ALLEY":" ","HOUSE_NO":"２９號","E_COORD97":171392.23000000001,"N_COORD97":2543903.1600000001,"ADDRESS":"東平路２９號","OBJECTID":605414},"geometry":{"x":171392.23000000045,"y":2543903.1600000001}},{"attributes":{"ID":605442,"DIS_CODE":0,"TOWNNAME":"東區","LI":"東光里","LIN":"31鄰","STREET":"東平路","SECT":" ","MAREA":" ","LANE":" ","ALLEY":" ","HOUSE_NO":"３１號","E_COORD97":171388.17999999999,"N_COORD97":2543903.7400000002,"ADDRESS":"東平路３１號","OBJECTID":605415},"geometry":{"x":171388.1799999997,"y":2543903.7400000002}},{"attributes":{"ID":605443,"DIS_CODE":0,"TOWNNAME":"東區","LI":"東光里","LIN":"31鄰","STREET":"東平路","SECT":" ","MAREA":" ","LANE":" ","ALLEY":" ","HOUSE_NO":"３３號","E_COORD97":171383.82999999999,"N_COORD97":2543905.8599999999,"ADDRESS":"東平路３３號","OBJECTID":605416},"geometry":{"x":171383.83000000007,"y":2543905.8600000031}},{"attributes":{"ID":605444,"DIS_CODE":0,"TOWNNAME":"東區","LI":"東光里","LIN":"31鄰","STREET":"東平路","SECT":" ","MAREA":" ","LANE":" ","ALLEY":" ","HOUSE_NO":"３５號","E_COORD97":171380.45000000001,"N_COORD97":2543906.8300000001,"ADDRESS":"東平路３５號","OBJECTID":605417},"geometry":{"x":171380.45000000205,"y":2543906.8300000038}},{"attributes":{"ID":605445,"DIS_CODE":0,"TOWNNAME":"東區","LI":"東光里","LIN":"31鄰","STREET":"東平路","SECT":" ","MAREA":" ","LANE":" ","ALLEY":" ","HOUSE_NO":"３５號之１","E_COORD97":171375.82000000001,"N_COORD97":2543906.8300000001,"ADDRESS":"東平路３５號之１","OBJECTID":605418},"geometry":{"x":171375.8200000003,"y":2543906.8300000038}},{"attributes":{"ID":605446,"DIS_CODE":0,"TOWNNAME":"東區","LI":"東光里","LIN":"31鄰","STREET":"東平路","SECT":" ","MAREA":" ","LANE":" ","ALLEY":" ","HOUSE_NO":"３５號之２","E_COORD97":171371.48000000001,"N_COORD97":2543907.3100000001,"ADDRESS":"東平路３５號之２","OBJECTID":605419},"geometry":{"x":171371.48000000045,"y":2543907.3100000042}},{"attributes":{"ID":605447,"DIS_CODE":0,"TOWNNAME":"東區","LI":"東光里","LIN":"30鄰","STREET":"東平路","SECT":" ","MAREA":" ","LANE":" ","ALLEY":" ","HOUSE_NO":"３號","E_COORD97":171466.57999999999,"N_COORD97":2543892.5099999998,"ADDRESS":"東平路３號","OBJECTID":605420},"geometry":{"x":171466.58000000101,"y":2543892.5100000016}},{"attributes":{"ID":605448,"DIS_CODE":0,"TOWNNAME":"東區","LI":"東光里","LIN":"30鄰","STREET":"東平路","SECT":" ","MAREA":" ","LANE":" ","ALLEY":" ","HOUSE_NO":"５號","E_COORD97":171456.20000000001,"N_COORD97":2543893.2599999998,"ADDRESS":"東平路５號","OBJECTID":605421},"geometry":{"x":171456.20000000019,"y":2543893.2599999979}},{"attributes":{"ID":605449,"DIS_CODE":0,"TOWNNAME":"東區","LI":"東光里","LIN":"30鄰","STREET":"東平路","SECT":" ","MAREA":" ","LANE":" ","ALLEY":" ","HOUSE_NO":"７號","E_COORD97":171447.87,"N_COORD97":2543893.7999999998,"ADDRESS":"東平路７號","OBJECTID":605422},"geometry":{"x":171447.87000000104,"y":2543893.8000000007}},{"attributes":{"ID":605450,"DIS_CODE":0,"TOWNNAME":"中西區","LI":"赤嵌里","LIN":"3鄰","STREET":"民族路","SECT":"二段","MAREA":" ","LANE":" ","ALLEY":" ","HOUSE_NO":"７６號之１０九樓之３","E_COORD97":168848.04999999999,"N_COORD97":2543948.4900000002,"ADDRESS":"民族路二段７６號之１０九樓之３","OBJECTID":605423},"geometry":{"x":168848.04999999981,"y":2543948.4900000002}},{"attributes":{"ID":605451,"DIS_CODE":0,"TOWNNAME":"中西區","LI":"赤嵌里","LIN":"3鄰","STREET":"民族路","SECT":"二段","MAREA":" ","LANE":" ","ALLEY":" ","HOUSE_NO":"７６號之１０九樓之４","E_COORD97":168848.04999999999,"N_COORD97":2543948.4900000002,"ADDRESS":"民族路二段７６號之１０九樓之４","OBJECTID":605424},"geometry":{"x":168848.04999999981,"y":2543948.4900000002}},{"attributes":{"ID":605452,"DIS_CODE":0,"TOWNNAME":"中西區","LI":"赤嵌里","LIN":"3鄰","STREET":"民族路","SECT":"二段","MAREA":" ","LANE":" ","ALLEY":" ","HOUSE_NO":"７６號之１０八樓之１","E_COORD97":168848.04999999999,"N_COORD97":2543948.4900000002,"ADDRESS":"民族路二段７６號之１０八樓之１","OBJECTID":605425},"geometry":{"x":168848.04999999981,"y":2543948.4900000002}},{"attributes":{"ID":605453,"DIS_CODE":0,"TOWNNAME":"中西區","LI":"赤嵌里","LIN":"3鄰","STREET":"民族路","SECT":"二段","MAREA":" ","LANE":" ","ALLEY":" ","HOUSE_NO":"７６號之１０八樓之２","E_COORD97":168848.04999999999,"N_COORD97":2543948.4900000002,"ADDRESS":"民族路二段７６號之１０八樓之２","OBJECTID":605426},"geometry":{"x":168848.04999999981,"y":2543948.4900000002}},{"attributes":{"ID":605454,"DIS_CODE":0,"TOWNNAME":"中西區","LI":"赤嵌里","LIN":"3鄰","STREET":"民族路","SECT":"二段","MAREA":" ","LANE":" ","ALLEY":" ","HOUSE_NO":"７６號之１０八樓之３","E_COORD97":168848.04999999999,"N_COORD97":2543948.4900000002,"ADDRESS":"民族路二段７６號之１０八樓之３","OBJECTID":605427},"geometry":{"x":168848.04999999981,"y":2543948.4900000002}},{"attributes":{"ID":605455,"DIS_CODE":0,"TOWNNAME":"中西區","LI":"赤嵌里","LIN":"3鄰","STREET":"民族路","SECT":"二段","MAREA":" ","LANE":" ","ALLEY":" ","HOUSE_NO":"７６號之１０十一樓之","E_COORD97":168848.04999999999,"N_COORD97":2543948.4900000002,"ADDRESS":"民族路二段７６號之１０十一樓之１","OBJECTID":605428},"geometry":{"x":168848.04999999981,"y":2543948.4900000002}},{"attributes":{"ID":605456,"DIS_CODE":0,"TOWNNAME":"中西區","LI":"赤嵌里","LIN":"3鄰","STREET":"民族路","SECT":"二段","MAREA":" ","LANE":" ","ALLEY":" ","HOUSE_NO":"７６號之１０十一樓之","E_COORD97":168848.04999999999,"N_COORD97":2543948.4900000002,"ADDRESS":"民族路二段７６號之１０十一樓之２","OBJECTID":605429},"geometry":{"x":168848.04999999981,"y":2543948.4900000002}},{"attributes":{"ID":605457,"DIS_CODE":0,"TOWNNAME":"中西區","LI":"赤嵌里","LIN":"3鄰","STREET":"民族路","SECT":"二段","MAREA":" ","LANE":" ","ALLEY":" ","HOUSE_NO":"７６號之１０十一樓之","E_COORD97":168848.04999999999,"N_COORD97":2543948.4900000002,"ADDRESS":"民族路二段７６號之１０十一樓之３","OBJECTID":605430},"geometry":{"x":168848.04999999981,"y":2543948.4900000002}},{"attributes":{"ID":605458,"DIS_CODE":0,"TOWNNAME":"中西區","LI":"赤嵌里","LIN":"3鄰","STREET":"民族路","SECT":"二段","MAREA":" ","LANE":" ","ALLEY":" ","HOUSE_NO":"７６號之１０十一樓之","E_COORD97":168848.04999999999,"N_COORD97":2543948.4900000002,"ADDRESS":"民族路二段７６號之１０十一樓之４","OBJECTID":605431},"geometry":{"x":168848.04999999981,"y":2543948.4900000002}},{"attributes":{"ID":605459,"DIS_CODE":0,"TOWNNAME":"中西區","LI":"赤嵌里","LIN":"3鄰","STREET":"民族路","SECT":"二段","MAREA":" ","LANE":" ","ALLEY":" ","HOUSE_NO":"７６號之１０十二樓之","E_COORD97":168848.04999999999,"N_COORD97":2543948.4900000002,"ADDRESS":"民族路二段７６號之１０十二樓之１","OBJECTID":605432},"geometry":{"x":168848.04999999981,"y":2543948.4900000002}},{"attributes":{"ID":605460,"DIS_CODE":0,"TOWNNAME":"中西區","LI":"赤嵌里","LIN":"3鄰","STREET":"民族路","SECT":"二段","MAREA":" ","LANE":" ","ALLEY":" ","HOUSE_NO":"７６號之１０十二樓之","E_COORD97":168848.04999999999,"N_COORD97":2543948.4900000002,"ADDRESS":"民族路二段７６號之１０十二樓之２","OBJECTID":605433},"geometry":{"x":168848.04999999981,"y":2543948.4900000002}},{"attributes":{"ID":605461,"DIS_CODE":0,"TOWNNAME":"中西區","LI":"赤嵌里","LIN":"3鄰","STREET":"民族路","SECT":"二段","MAREA":" ","LANE":" ","ALLEY":" ","HOUSE_NO":"７６號之１０十三樓之","E_COORD97":168848.04999999999,"N_COORD97":2543948.4900000002,"ADDRESS":"民族路二段７６號之１０十三樓之１","OBJECTID":605434},"geometry":{"x":168848.04999999981,"y":2543948.4900000002}},{"attributes":{"ID":605462,"DIS_CODE":0,"TOWNNAME":"中西區","LI":"赤嵌里","LIN":"3鄰","STREET":"民族路","SECT":"二段","MAREA":" ","LANE":" ","ALLEY":" ","HOUSE_NO":"７６號之１０十三樓之","E_COORD97":168848.04999999999,"N_COORD97":2543948.4900000002,"ADDRESS":"民族路二段７６號之１０十三樓之２","OBJECTID":605435},"geometry":{"x":168848.04999999981,"y":2543948.4900000002}},{"attributes":{"ID":605463,"DIS_CODE":0,"TOWNNAME":"中西區","LI":"赤嵌里","LIN":"3鄰","STREET":"民族路","SECT":"二段","MAREA":" ","LANE":" ","ALLEY":" ","HOUSE_NO":"７６號之１０十五樓","E_COORD97":168848.04999999999,"N_COORD97":2543948.4900000002,"ADDRESS":"民族路二段７６號之１０十五樓","OBJECTID":605436},"geometry":{"x":168848.04999999981,"y":2543948.4900000002}},{"attributes":{"ID":605464,"DIS_CODE":0,"TOWNNAME":"中西區","LI":"赤嵌里","LIN":"3鄰","STREET":"民族路","SECT":"二段","MAREA":" ","LANE":" ","ALLEY":" ","HOUSE_NO":"７６號之１０十四樓","E_COORD97":168848.04999999999,"N_COORD97":2543948.4900000002,"ADDRESS":"民族路二段７６號之１０十四樓","OBJECTID":605437},"geometry":{"x":168848.04999999981,"y":2543948.4900000002}},{"attributes":{"ID":605465,"DIS_CODE":0,"TOWNNAME":"中西區","LI":"赤嵌里","LIN":"3鄰","STREET":"民族路","SECT":"二段","MAREA":" ","LANE":" ","ALLEY":" ","HOUSE_NO":"７６號之１０十樓之１","E_COORD97":168848.04999999999,"N_COORD97":2543948.4900000002,"ADDRESS":"民族路二段７６號之１０十樓之１","OBJECTID":605438},"geometry":{"x":168848.04999999981,"y":2543948.4900000002}},{"attributes":{"ID":605466,"DIS_CODE":0,"TOWNNAME":"中西區","LI":"赤嵌里","LIN":"3鄰","STREET":"民族路","SECT":"二段","MAREA":" ","LANE":" ","ALLEY":" ","HOUSE_NO":"７６號之１０十樓之２","E_COORD97":168848.04999999999,"N_COORD97":2543948.4900000002,"ADDRESS":"民族路二段７６號之１０十樓之２","OBJECTID":605439},"geometry":{"x":168848.04999999981,"y":2543948.4900000002}},{"attributes":{"ID":605467,"DIS_CODE":0,"TOWNNAME":"中西區","LI":"赤嵌里","LIN":"3鄰","STREET":"民族路","SECT":"二段","MAREA":" ","LANE":" ","ALLEY":" ","HOUSE_NO":"７６號之１０十樓之３","E_COORD97":168848.04999999999,"N_COORD97":2543948.4900000002,"ADDRESS":"民族路二段７６號之１０十樓之３","OBJECTID":605440},"geometry":{"x":168848.04999999981,"y":2543948.4900000002}},{"attributes":{"ID":605468,"DIS_CODE":0,"TOWNNAME":"東區","LI":"東光里","LIN":"31鄰","STREET":"莊敬路","SECT":" ","MAREA":" ","LANE":" ","ALLEY":" ","HOUSE_NO":"８２號","E_COORD97":171359.20000000001,"N_COORD97":2543881.1600000001,"ADDRESS":"莊敬路８２號","OBJECTID":605441},"geometry":{"x":171359.20000000112,"y":2543881.1600000039}},{"attributes":{"ID":605469,"DIS_CODE":0,"TOWNNAME":"中西區","LI":"赤嵌里","LIN":"3鄰","STREET":"民族路","SECT":"二段","MAREA":" ","LANE":" ","ALLEY":" ","HOUSE_NO":"７６號之１０十樓之４","E_COORD97":168848.04999999999,"N_COORD97":2543948.4900000002,"ADDRESS":"民族路二段７６號之１０十樓之４","OBJECTID":605442},"geometry":{"x":168848.04999999981,"y":2543948.4900000002}},{"attributes":{"ID":605470,"DIS_CODE":0,"TOWNNAME":"中西區","LI":"赤嵌里","LIN":"3鄰","STREET":"民族路","SECT":"二段","MAREA":" ","LANE":" ","ALLEY":" ","HOUSE_NO":"７６號之１０五樓之１","E_COORD97":168848.04999999999,"N_COORD97":2543948.4900000002,"ADDRESS":"民族路二段７６號之１０五樓之１","OBJECTID":605443},"geometry":{"x":168848.04999999981,"y":2543948.4900000002}},{"attributes":{"ID":605471,"DIS_CODE":0,"TOWNNAME":"中西區","LI":"赤嵌里","LIN":"3鄰","STREET":"民族路","SECT":"二段","MAREA":" ","LANE":" ","ALLEY":" ","HOUSE_NO":"７６號之１０五樓之２","E_COORD97":168848.04999999999,"N_COORD97":2543948.4900000002,"ADDRESS":"民族路二段７６號之１０五樓之２","OBJECTID":605444},"geometry":{"x":168848.04999999981,"y":2543948.4900000002}},{"attributes":{"ID":605472,"DIS_CODE":0,"TOWNNAME":"中西區","LI":"赤嵌里","LIN":"3鄰","STREET":"民族路","SECT":"二段","MAREA":" ","LANE":" ","ALLEY":" ","HOUSE_NO":"７６號之１０五樓之３","E_COORD97":168848.04999999999,"N_COORD97":2543948.4900000002,"ADDRESS":"民族路二段７６號之１０五樓之３","OBJECTID":605445},"geometry":{"x":168848.04999999981,"y":2543948.4900000002}},{"attributes":{"ID":605473,"DIS_CODE":0,"TOWNNAME":"中西區","LI":"赤嵌里","LIN":"3鄰","STREET":"民族路","SECT":"二段","MAREA":" ","LANE":" ","ALLEY":" ","HOUSE_NO":"７６號之１０五樓之４","E_COORD97":168848.04999999999,"N_COORD97":2543948.4900000002,"ADDRESS":"民族路二段７６號之１０五樓之４","OBJECTID":605446},"geometry":{"x":168848.04999999981,"y":2543948.4900000002}},{"attributes":{"ID":605474,"DIS_CODE":0,"TOWNNAME":"中西區","LI":"赤嵌里","LIN":"3鄰","STREET":"民族路","SECT":"二段","MAREA":" ","LANE":" ","ALLEY":" ","HOUSE_NO":"７６號之１０六樓之１","E_COORD97":168848.04999999999,"N_COORD97":2543948.4900000002,"ADDRESS":"民族路二段７６號之１０六樓之１","OBJECTID":605447},"geometry":{"x":168848.04999999981,"y":2543948.4900000002}},{"attributes":{"ID":605475,"DIS_CODE":0,"TOWNNAME":"中西區","LI":"赤嵌里","LIN":"3鄰","STREET":"民族路","SECT":"二段","MAREA":" ","LANE":" ","ALLEY":" ","HOUSE_NO":"７６號之１０六樓之２","E_COORD97":168848.04999999999,"N_COORD97":2543948.4900000002,"ADDRESS":"民族路二段７６號之１０六樓之２","OBJECTID":605448},"geometry":{"x":168848.04999999981,"y":2543948.4900000002}},{"attributes":{"ID":605476,"DIS_CODE":0,"TOWNNAME":"中西區","LI":"赤嵌里","LIN":"3鄰","STREET":"民族路","SECT":"二段","MAREA":" ","LANE":" ","ALLEY":" ","HOUSE_NO":"７６號之１０六樓之３","E_COORD97":168848.04999999999,"N_COORD97":2543948.4900000002,"ADDRESS":"民族路二段７６號之１０六樓之３","OBJECTID":605449},"geometry":{"x":168848.04999999981,"y":2543948.4900000002}},{"attributes":{"ID":605477,"DIS_CODE":0,"TOWNNAME":"中西區","LI":"赤嵌里","LIN":"3鄰","STREET":"民族路","SECT":"二段","MAREA":" ","LANE":" ","ALLEY":" ","HOUSE_NO":"７６號之１０六樓之４","E_COORD97":168848.04999999999,"N_COORD97":2543948.4900000002,"ADDRESS":"民族路二段７６號之１０六樓之４","OBJECTID":605450},"geometry":{"x":168848.04999999981,"y":2543948.4900000002}},{"attributes":{"ID":605478,"DIS_CODE":0,"TOWNNAME":"仁德區","LI":"後壁里","LIN":"12鄰","STREET":"德南路","SECT":" ","MAREA":" ","LANE":" ","ALLEY":" ","HOUSE_NO":"１８５號","E_COORD97":173660.37,"N_COORD97":2538543.02,"ADDRESS":"德南路１８５號","OBJECTID":605451},"geometry":{"x":173660.37000000011,"y":2538543.0200000014}},{"attributes":{"ID":605479,"DIS_CODE":0,"TOWNNAME":"中西區","LI":"赤嵌里","LIN":"3鄰","STREET":"民族路","SECT":"二段","MAREA":" ","LANE":" ","ALLEY":" ","HOUSE_NO":"７６號之１０四樓之１","E_COORD97":168848.04999999999,"N_COORD97":2543948.4900000002,"ADDRESS":"民族路二段７６號之１０四樓之１","OBJECTID":605452},"geometry":{"x":168848.04999999981,"y":2543948.4900000002}},{"attributes":{"ID":605480,"DIS_CODE":0,"TOWNNAME":"中西區","LI":"赤嵌里","LIN":"3鄰","STREET":"民族路","SECT":"二段","MAREA":" ","LANE":" ","ALLEY":" ","HOUSE_NO":"７６號之１０四樓之３","E_COORD97":168848.04999999999,"N_COORD97":2543948.4900000002,"ADDRESS":"民族路二段７６號之１０四樓之３","OBJECTID":605453},"geometry":{"x":168848.04999999981,"y":2543948.4900000002}},{"attributes":{"ID":605481,"DIS_CODE":0,"TOWNNAME":"中西區","LI":"赤嵌里","LIN":"3鄰","STREET":"民族路","SECT":"二段","MAREA":" ","LANE":" ","ALLEY":" ","HOUSE_NO":"７６號之１７七樓之２","E_COORD97":168801.73000000001,"N_COORD97":2543963.3999999999,"ADDRESS":"民族路二段７６號之１７七樓之２","OBJECTID":605454},"geometry":{"x":168801.73000000045,"y":2543963.4000000004}},{"attributes":{"ID":605482,"DIS_CODE":0,"TOWNNAME":"中西區","LI":"赤嵌里","LIN":"3鄰","STREET":"民族路","SECT":"二段","MAREA":" ","LANE":" ","ALLEY":" ","HOUSE_NO":"７６號之１７九樓之１","E_COORD97":168801.73000000001,"N_COORD97":2543963.3999999999,"ADDRESS":"民族路二段７６號之１７九樓之１","OBJECTID":605455},"geometry":{"x":168801.73000000045,"y":2543963.4000000004}},{"attributes":{"ID":605483,"DIS_CODE":0,"TOWNNAME":"中西區","LI":"赤嵌里","LIN":"3鄰","STREET":"民族路","SECT":"二段","MAREA":" ","LANE":" ","ALLEY":" ","HOUSE_NO":"７６號之１７九樓之２","E_COORD97":168801.73000000001,"N_COORD97":2543963.3999999999,"ADDRESS":"民族路二段７６號之１７九樓之２","OBJECTID":605456},"geometry":{"x":168801.73000000045,"y":2543963.4000000004}},{"attributes":{"ID":605484,"DIS_CODE":0,"TOWNNAME":"中西區","LI":"赤嵌里","LIN":"3鄰","STREET":"民族路","SECT":"二段","MAREA":" ","LANE":" ","ALLEY":" ","HOUSE_NO":"７６號之１７八樓之１","E_COORD97":168801.73000000001,"N_COORD97":2543963.3999999999,"ADDRESS":"民族路二段７６號之１７八樓之１","OBJECTID":605457},"geometry":{"x":168801.73000000045,"y":2543963.4000000004}},{"attributes":{"ID":605485,"DIS_CODE":0,"TOWNNAME":"中西區","LI":"赤嵌里","LIN":"3鄰","STREET":"民族路","SECT":"二段","MAREA":" ","LANE":" ","ALLEY":" ","HOUSE_NO":"７６號之１７八樓之２","E_COORD97":168801.73000000001,"N_COORD97":2543963.3999999999,"ADDRESS":"民族路二段７６號之１７八樓之２","OBJECTID":605458},"geometry":{"x":168801.73000000045,"y":2543963.4000000004}},{"attributes":{"ID":605486,"DIS_CODE":0,"TOWNNAME":"中西區","LI":"赤嵌里","LIN":"3鄰","STREET":"民族路","SECT":"二段","MAREA":" ","LANE":" ","ALLEY":" ","HOUSE_NO":"７６號之１７十一樓之","E_COORD97":168801.73000000001,"N_COORD97":2543963.3999999999,"ADDRESS":"民族路二段７６號之１７十一樓之１","OBJECTID":605459},"geometry":{"x":168801.73000000045,"y":2543963.4000000004}},{"attributes":{"ID":605487,"DIS_CODE":0,"TOWNNAME":"中西區","LI":"赤嵌里","LIN":"3鄰","STREET":"民族路","SECT":"二段","MAREA":" ","LANE":" ","ALLEY":" ","HOUSE_NO":"７６號之１７十一樓之","E_COORD97":168801.73000000001,"N_COORD97":2543963.3999999999,"ADDRESS":"民族路二段７６號之１７十一樓之２","OBJECTID":605460},"geometry":{"x":168801.73000000045,"y":2543963.4000000004}},{"attributes":{"ID":605488,"DIS_CODE":0,"TOWNNAME":"中西區","LI":"赤嵌里","LIN":"3鄰","STREET":"民族路","SECT":"二段","MAREA":" ","LANE":" ","ALLEY":" ","HOUSE_NO":"７６號之１７十二樓之","E_COORD97":168801.73000000001,"N_COORD97":2543963.3999999999,"ADDRESS":"民族路二段７６號之１７十二樓之１","OBJECTID":605461},"geometry":{"x":168801.73000000045,"y":2543963.4000000004}},{"attributes":{"ID":605489,"DIS_CODE":0,"TOWNNAME":"中西區","LI":"赤嵌里","LIN":"3鄰","STREET":"民族路","SECT":"二段","MAREA":" ","LANE":" ","ALLEY":" ","HOUSE_NO":"７６號之１７十二樓之","E_COORD97":168801.73000000001,"N_COORD97":2543963.3999999999,"ADDRESS":"民族路二段７６號之１７十二樓之２","OBJECTID":605462},"geometry":{"x":168801.73000000045,"y":2543963.4000000004}},{"attributes":{"ID":605490,"DIS_CODE":0,"TOWNNAME":"中西區","LI":"赤嵌里","LIN":"3鄰","STREET":"民族路","SECT":"二段","MAREA":" ","LANE":" ","ALLEY":" ","HOUSE_NO":"７６號之１７十三樓","E_COORD97":168801.73000000001,"N_COORD97":2543963.3999999999,"ADDRESS":"民族路二段７６號之１７十三樓","OBJECTID":605463},"geometry":{"x":168801.73000000045,"y":2543963.4000000004}},{"attributes":{"ID":605491,"DIS_CODE":0,"TOWNNAME":"中西區","LI":"赤嵌里","LIN":"3鄰","STREET":"民族路","SECT":"二段","MAREA":" ","LANE":" ","ALLEY":" ","HOUSE_NO":"７６號之１７十樓之１","E_COORD97":168801.73000000001,"N_COORD97":2543963.3999999999,"ADDRESS":"民族路二段７６號之１７十樓之１","OBJECTID":605464},"geometry":{"x":168801.73000000045,"y":2543963.4000000004}},{"attributes":{"ID":605492,"DIS_CODE":0,"TOWNNAME":"中西區","LI":"赤嵌里","LIN":"3鄰","STREET":"民族路","SECT":"二段","MAREA":" ","LANE":" ","ALLEY":" ","HOUSE_NO":"７６號之１７十樓之２","E_COORD97":168801.73000000001,"N_COORD97":2543963.3999999999,"ADDRESS":"民族路二段７６號之１７十樓之２","OBJECTID":605465},"geometry":{"x":168801.73000000045,"y":2543963.4000000004}},{"attributes":{"ID":605493,"DIS_CODE":0,"TOWNNAME":"中西區","LI":"赤嵌里","LIN":"3鄰","STREET":"民族路","SECT":"二段","MAREA":" ","LANE":" ","ALLEY":" ","HOUSE_NO":"７６號之１７五樓之１","E_COORD97":168801.73000000001,"N_COORD97":2543963.3999999999,"ADDRESS":"民族路二段７６號之１７五樓之１","OBJECTID":605466},"geometry":{"x":168801.73000000045,"y":2543963.4000000004}},{"attributes":{"ID":605494,"DIS_CODE":0,"TOWNNAME":"中西區","LI":"赤嵌里","LIN":"3鄰","STREET":"民族路","SECT":"二段","MAREA":" ","LANE":" ","ALLEY":" ","HOUSE_NO":"７６號之１７五樓之２","E_COORD97":168801.73000000001,"N_COORD97":2543963.3999999999,"ADDRESS":"民族路二段７６號之１７五樓之２","OBJECTID":605467},"geometry":{"x":168801.73000000045,"y":2543963.4000000004}},{"attributes":{"ID":605495,"DIS_CODE":0,"TOWNNAME":"中西區","LI":"赤嵌里","LIN":"3鄰","STREET":"民族路","SECT":"二段","MAREA":" ","LANE":" ","ALLEY":" ","HOUSE_NO":"７６號之１７六樓之１","E_COORD97":168801.73000000001,"N_COORD97":2543963.3999999999,"ADDRESS":"民族路二段７６號之１７六樓之１","OBJECTID":605468},"geometry":{"x":168801.73000000045,"y":2543963.4000000004}},{"attributes":{"ID":605496,"DIS_CODE":0,"TOWNNAME":"中西區","LI":"赤嵌里","LIN":"3鄰","STREET":"民族路","SECT":"二段","MAREA":" ","LANE":" ","ALLEY":" ","HOUSE_NO":"７６號之１７六樓之２","E_COORD97":168801.73000000001,"N_COORD97":2543963.3999999999,"ADDRESS":"民族路二段７６號之１７六樓之２","OBJECTID":605469},"geometry":{"x":168801.73000000045,"y":2543963.4000000004}},{"attributes":{"ID":605497,"DIS_CODE":0,"TOWNNAME":"中西區","LI":"赤嵌里","LIN":"3鄰","STREET":"民族路","SECT":"二段","MAREA":" ","LANE":" ","ALLEY":" ","HOUSE_NO":"７６號之１７四樓之１","E_COORD97":168801.73000000001,"N_COORD97":2543963.3999999999,"ADDRESS":"民族路二段７６號之１７四樓之１","OBJECTID":605470},"geometry":{"x":168801.73000000045,"y":2543963.4000000004}},{"attributes":{"ID":605498,"DIS_CODE":0,"TOWNNAME":"中西區","LI":"赤嵌里","LIN":"3鄰","STREET":"民族路","SECT":"二段","MAREA":" ","LANE":" ","ALLEY":" ","HOUSE_NO":"７６號之１７四樓之２","E_COORD97":168801.73000000001,"N_COORD97":2543963.3999999999,"ADDRESS":"民族路二段７６號之１７四樓之２","OBJECTID":605471},"geometry":{"x":168801.73000000045,"y":2543963.4000000004}},{"attributes":{"ID":605499,"DIS_CODE":0,"TOWNNAME":"中西區","LI":"民權里","LIN":"3鄰","STREET":"民生路","SECT":"二段","MAREA":" ","LANE":" ","ALLEY":" ","HOUSE_NO":"１６０號九樓之１","E_COORD97":167461,"N_COORD97":2544066.5800000001,"ADDRESS":"民生路二段１６０號九樓之１","OBJECTID":605472},"geometry":{"x":167461.00000000093,"y":2544066.5800000001}},{"attributes":{"ID":605500,"DIS_CODE":0,"TOWNNAME":"佳里區","LI":"安西里","LIN":"3鄰","STREET":"光復路","SECT":" ","MAREA":" ","LANE":" ","ALLEY":" ","HOUSE_NO":"２９６號七樓之１１","E_COORD97":165521.54000000001,"N_COORD97":2562653.8300000001,"ADDRESS":"光復路２９６號七樓之１１","OBJECTID":605473},"geometry":{"x":165521.54000000097,"y":2562653.8300000019}},{"attributes":{"ID":605501,"DIS_CODE":0,"TOWNNAME":"佳里區","LI":"安西里","LIN":"3鄰","STREET":"光復路","SECT":" ","MAREA":" ","LANE":" ","ALLEY":" ","HOUSE_NO":"２９６號七樓之１２","E_COORD97":165521.54000000001,"N_COORD97":2562653.8300000001,"ADDRESS":"光復路２９６號七樓之１２","OBJECTID":605474},"geometry":{"x":165521.54000000097,"y":2562653.8300000019}},{"attributes":{"ID":605502,"DIS_CODE":0,"TOWNNAME":"佳里區","LI":"安西里","LIN":"3鄰","STREET":"光復路","SECT":" ","MAREA":" ","LANE":" ","ALLEY":" ","HOUSE_NO":"２９６號七樓之１３","E_COORD97":165521.54000000001,"N_COORD97":2562653.8300000001,"ADDRESS":"光復路２９６號七樓之１３","OBJECTID":605475},"geometry":{"x":165521.54000000097,"y":2562653.8300000019}},{"attributes":{"ID":605503,"DIS_CODE":0,"TOWNNAME":"佳里區","LI":"安西里","LIN":"3鄰","STREET":"光復路","SECT":" ","MAREA":" ","LANE":" ","ALLEY":" ","HOUSE_NO":"２９６號七樓之１４","E_COORD97":165521.54000000001,"N_COORD97":2562653.8300000001,"ADDRESS":"光復路２９６號七樓之１４","OBJECTID":605476},"geometry":{"x":165521.54000000097,"y":2562653.8300000019}},{"attributes":{"ID":605504,"DIS_CODE":0,"TOWNNAME":"佳里區","LI":"安西里","LIN":"3鄰","STREET":"光復路","SECT":" ","MAREA":" ","LANE":" ","ALLEY":" ","HOUSE_NO":"２９６號七樓之１５","E_COORD97":165521.54000000001,"N_COORD97":2562653.8300000001,"ADDRESS":"光復路２９６號七樓之１５","OBJECTID":605477},"geometry":{"x":165521.54000000097,"y":2562653.8300000019}},{"attributes":{"ID":605505,"DIS_CODE":0,"TOWNNAME":"佳里區","LI":"安西里","LIN":"3鄰","STREET":"光復路","SECT":" ","MAREA":" ","LANE":" ","ALLEY":" ","HOUSE_NO":"２９６號七樓之１６","E_COORD97":165521.54000000001,"N_COORD97":2562653.8300000001,"ADDRESS":"光復路２９６號七樓之１６","OBJECTID":605478},"geometry":{"x":165521.54000000097,"y":2562653.8300000019}},{"attributes":{"ID":605506,"DIS_CODE":0,"TOWNNAME":"佳里區","LI":"安西里","LIN":"3鄰","STREET":"光復路","SECT":" ","MAREA":" ","LANE":" ","ALLEY":" ","HOUSE_NO":"２９６號七樓之１７","E_COORD97":165521.54000000001,"N_COORD97":2562653.8300000001,"ADDRESS":"光復路２９６號七樓之１７","OBJECTID":605479},"geometry":{"x":165521.54000000097,"y":2562653.8300000019}},{"attributes":{"ID":605507,"DIS_CODE":0,"TOWNNAME":"佳里區","LI":"安西里","LIN":"3鄰","STREET":"光復路","SECT":" ","MAREA":" ","LANE":" ","ALLEY":" ","HOUSE_NO":"２９６號七樓之１８","E_COORD97":165521.54000000001,"N_COORD97":2562653.8300000001,"ADDRESS":"光復路２９６號七樓之１８","OBJECTID":605480},"geometry":{"x":165521.54000000097,"y":2562653.8300000019}},{"attributes":{"ID":605508,"DIS_CODE":0,"TOWNNAME":"佳里區","LI":"安西里","LIN":"3鄰","STREET":"光復路","SECT":" ","MAREA":" ","LANE":" ","ALLEY":" ","HOUSE_NO":"２９６號七樓之２","E_COORD97":165521.54000000001,"N_COORD97":2562653.8300000001,"ADDRESS":"光復路２９６號七樓之２","OBJECTID":605481},"geometry":{"x":165521.54000000097,"y":2562653.8300000019}},{"attributes":{"ID":605509,"DIS_CODE":0,"TOWNNAME":"佳里區","LI":"安西里","LIN":"3鄰","STREET":"光復路","SECT":" ","MAREA":" ","LANE":" ","ALLEY":" ","HOUSE_NO":"２９６號七樓之３","E_COORD97":165521.54000000001,"N_COORD97":2562653.8300000001,"ADDRESS":"光復路２９６號七樓之３","OBJECTID":605482},"geometry":{"x":165521.54000000097,"y":2562653.8300000019}},{"attributes":{"ID":605510,"DIS_CODE":0,"TOWNNAME":"佳里區","LI":"安西里","LIN":"3鄰","STREET":"光復路","SECT":" ","MAREA":" ","LANE":" ","ALLEY":" ","HOUSE_NO":"２９６號七樓之４","E_COORD97":165521.54000000001,"N_COORD97":2562653.8300000001,"ADDRESS":"光復路２９６號七樓之４","OBJECTID":605483},"geometry":{"x":165521.54000000097,"y":2562653.8300000019}},{"attributes":{"ID":605511,"DIS_CODE":0,"TOWNNAME":"佳里區","LI":"安西里","LIN":"3鄰","STREET":"光復路","SECT":" ","MAREA":" ","LANE":" ","ALLEY":" ","HOUSE_NO":"２９６號七樓之５","E_COORD97":165521.54000000001,"N_COORD97":2562653.8300000001,"ADDRESS":"光復路２９６號七樓之５","OBJECTID":605484},"geometry":{"x":165521.54000000097,"y":2562653.8300000019}},{"attributes":{"ID":605512,"DIS_CODE":0,"TOWNNAME":"佳里區","LI":"安西里","LIN":"3鄰","STREET":"光復路","SECT":" ","MAREA":" ","LANE":" ","ALLEY":" ","HOUSE_NO":"２９６號七樓之６","E_COORD97":165521.54000000001,"N_COORD97":2562653.8300000001,"ADDRESS":"光復路２９６號七樓之６","OBJECTID":605485},"geometry":{"x":165521.54000000097,"y":2562653.8300000019}},{"attributes":{"ID":605513,"DIS_CODE":0,"TOWNNAME":"佳里區","LI":"安西里","LIN":"3鄰","STREET":"光復路","SECT":" ","MAREA":" ","LANE":" ","ALLEY":" ","HOUSE_NO":"２９６號七樓之７","E_COORD97":165521.54000000001,"N_COORD97":2562653.8300000001,"ADDRESS":"光復路２９６號七樓之７","OBJECTID":605486},"geometry":{"x":165521.54000000097,"y":2562653.8300000019}},{"attributes":{"ID":605514,"DIS_CODE":0,"TOWNNAME":"佳里區","LI":"安西里","LIN":"3鄰","STREET":"光復路","SECT":" ","MAREA":" ","LANE":" ","ALLEY":" ","HOUSE_NO":"２９６號七樓之８","E_COORD97":165521.54000000001,"N_COORD97":2562653.8300000001,"ADDRESS":"光復路２９６號七樓之８","OBJECTID":605487},"geometry":{"x":165521.54000000097,"y":2562653.8300000019}},{"attributes":{"ID":605515,"DIS_CODE":0,"TOWNNAME":"佳里區","LI":"安西里","LIN":"3鄰","STREET":"光復路","SECT":" ","MAREA":" ","LANE":" ","ALLEY":" ","HOUSE_NO":"２９６號七樓之９","E_COORD97":165521.54000000001,"N_COORD97":2562653.8300000001,"ADDRESS":"光復路２９６號七樓之９","OBJECTID":605488},"geometry":{"x":165521.54000000097,"y":2562653.8300000019}},{"attributes":{"ID":605516,"DIS_CODE":0,"TOWNNAME":"佳里區","LI":"安西里","LIN":"3鄰","STREET":"光復路","SECT":" ","MAREA":" ","LANE":" ","ALLEY":" ","HOUSE_NO":"２９６號二樓之１","E_COORD97":165521.54000000001,"N_COORD97":2562653.8300000001,"ADDRESS":"光復路２９６號二樓之１","OBJECTID":605489},"geometry":{"x":165521.54000000097,"y":2562653.8300000019}},{"attributes":{"ID":605517,"DIS_CODE":0,"TOWNNAME":"佳里區","LI":"安西里","LIN":"3鄰","STREET":"光復路","SECT":" ","MAREA":" ","LANE":" ","ALLEY":" ","HOUSE_NO":"２９６號二樓之２","E_COORD97":165521.54000000001,"N_COORD97":2562653.8300000001,"ADDRESS":"光復路２９６號二樓之２","OBJECTID":605490},"geometry":{"x":165521.54000000097,"y":2562653.8300000019}},{"attributes":{"ID":605518,"DIS_CODE":0,"TOWNNAME":"佳里區","LI":"安西里","LIN":"3鄰","STREET":"光復路","SECT":" ","MAREA":" ","LANE":" ","ALLEY":" ","HOUSE_NO":"２９６號三樓１之２","E_COORD97":165521.54000000001,"N_COORD97":2562653.8300000001,"ADDRESS":"光復路２９６號三樓１之２","OBJECTID":605491},"geometry":{"x":165521.54000000097,"y":2562653.8300000019}},{"attributes":{"ID":605519,"DIS_CODE":0,"TOWNNAME":"佳里區","LI":"安西里","LIN":"3鄰","STREET":"光復路","SECT":" ","MAREA":" ","LANE":" ","ALLEY":" ","HOUSE_NO":"２９６號三樓之１","E_COORD97":165521.54000000001,"N_COORD97":2562653.8300000001,"ADDRESS":"光復路２９６號三樓之１","OBJECTID":605492},"geometry":{"x":165521.54000000097,"y":2562653.8300000019}},{"attributes":{"ID":605520,"DIS_CODE":0,"TOWNNAME":"佳里區","LI":"安西里","LIN":"3鄰","STREET":"光復路","SECT":" ","MAREA":" ","LANE":" ","ALLEY":" ","HOUSE_NO":"２９６號五樓之１","E_COORD97":165521.54000000001,"N_COORD97":2562653.8300000001,"ADDRESS":"光復路２９６號五樓之１","OBJECTID":605493},"geometry":{"x":165521.54000000097,"y":2562653.8300000019}},{"attributes":{"ID":605521,"DIS_CODE":0,"TOWNNAME":"佳里區","LI":"安西里","LIN":"3鄰","STREET":"光復路","SECT":" ","MAREA":" ","LANE":" ","ALLEY":" ","HOUSE_NO":"２９６號五樓之１０","E_COORD97":165521.54000000001,"N_COORD97":2562653.8300000001,"ADDRESS":"光復路２９６號五樓之１０","OBJECTID":605494},"geometry":{"x":165521.54000000097,"y":2562653.8300000019}},{"attributes":{"ID":605522,"DIS_CODE":0,"TOWNNAME":"佳里區","LI":"安西里","LIN":"3鄰","STREET":"光復路","SECT":" ","MAREA":" ","LANE":" ","ALLEY":" ","HOUSE_NO":"２９６號五樓之１１","E_COORD97":165521.54000000001,"N_COORD97":2562653.8300000001,"ADDRESS":"光復路２９６號五樓之１１","OBJECTID":605495},"geometry":{"x":165521.54000000097,"y":2562653.8300000019}},{"attributes":{"ID":605523,"DIS_CODE":0,"TOWNNAME":"佳里區","LI":"安西里","LIN":"3鄰","STREET":"光復路","SECT":" ","MAREA":" ","LANE":" ","ALLEY":" ","HOUSE_NO":"２９６號五樓之１２","E_COORD97":165521.54000000001,"N_COORD97":2562653.8300000001,"ADDRESS":"光復路２９６號五樓之１２","OBJECTID":605496},"geometry":{"x":165521.54000000097,"y":2562653.8300000019}},{"attributes":{"ID":605524,"DIS_CODE":0,"TOWNNAME":"佳里區","LI":"安西里","LIN":"3鄰","STREET":"光復路","SECT":" ","MAREA":" ","LANE":" ","ALLEY":" ","HOUSE_NO":"２９６號五樓之１３","E_COORD97":165521.54000000001,"N_COORD97":2562653.8300000001,"ADDRESS":"光復路２９６號五樓之１３","OBJECTID":605497},"geometry":{"x":165521.54000000097,"y":2562653.8300000019}},{"attributes":{"ID":605525,"DIS_CODE":0,"TOWNNAME":"佳里區","LI":"安西里","LIN":"3鄰","STREET":"光復路","SECT":" ","MAREA":" ","LANE":" ","ALLEY":" ","HOUSE_NO":"２９６號五樓之１４","E_COORD97":165521.54000000001,"N_COORD97":2562653.8300000001,"ADDRESS":"光復路２９６號五樓之１４","OBJECTID":605498},"geometry":{"x":165521.54000000097,"y":2562653.8300000019}},{"attributes":{"ID":605526,"DIS_CODE":0,"TOWNNAME":"佳里區","LI":"安西里","LIN":"3鄰","STREET":"光復路","SECT":" ","MAREA":" ","LANE":" ","ALLEY":" ","HOUSE_NO":"２９６號五樓之１５","E_COORD97":165521.54000000001,"N_COORD97":2562653.8300000001,"ADDRESS":"光復路２９６號五樓之１５","OBJECTID":605499},"geometry":{"x":165521.54000000097,"y":2562653.8300000019}},{"attributes":{"ID":605527,"DIS_CODE":0,"TOWNNAME":"佳里區","LI":"安西里","LIN":"3鄰","STREET":"光復路","SECT":" ","MAREA":" ","LANE":" ","ALLEY":" ","HOUSE_NO":"２９６號五樓之１６","E_COORD97":165521.54000000001,"N_COORD97":2562653.8300000001,"ADDRESS":"光復路２９６號五樓之１６","OBJECTID":605500},"geometry":{"x":165521.54000000097,"y":2562653.8300000019}},{"attributes":{"ID":605528,"DIS_CODE":0,"TOWNNAME":"佳里區","LI":"安西里","LIN":"3鄰","STREET":"光復路","SECT":" ","MAREA":" ","LANE":" ","ALLEY":" ","HOUSE_NO":"２９６號五樓之１７","E_COORD97":165521.54000000001,"N_COORD97":2562653.8300000001,"ADDRESS":"光復路２９６號五樓之１７","OBJECTID":605501},"geometry":{"x":165521.54000000097,"y":2562653.8300000019}},{"attributes":{"ID":605529,"DIS_CODE":0,"TOWNNAME":"佳里區","LI":"安西里","LIN":"3鄰","STREET":"光復路","SECT":" ","MAREA":" ","LANE":" ","ALLEY":" ","HOUSE_NO":"２９６號五樓之１８","E_COORD97":165521.54000000001,"N_COORD97":2562653.8300000001,"ADDRESS":"光復路２９６號五樓之１８","OBJECTID":605502},"geometry":{"x":165521.54000000097,"y":2562653.8300000019}},{"attributes":{"ID":605530,"DIS_CODE":0,"TOWNNAME":"佳里區","LI":"安西里","LIN":"3鄰","STREET":"光復路","SECT":" ","MAREA":" ","LANE":" ","ALLEY":" ","HOUSE_NO":"２９６號五樓之２","E_COORD97":165521.54000000001,"N_COORD97":2562653.8300000001,"ADDRESS":"光復路２９６號五樓之２","OBJECTID":605503},"geometry":{"x":165521.54000000097,"y":2562653.8300000019}},{"attributes":{"ID":605531,"DIS_CODE":0,"TOWNNAME":"佳里區","LI":"安西里","LIN":"3鄰","STREET":"光復路","SECT":" ","MAREA":" ","LANE":" ","ALLEY":" ","HOUSE_NO":"２９６號五樓之３","E_COORD97":165521.54000000001,"N_COORD97":2562653.8300000001,"ADDRESS":"光復路２９６號五樓之３","OBJECTID":605504},"geometry":{"x":165521.54000000097,"y":2562653.8300000019}},{"attributes":{"ID":605532,"DIS_CODE":0,"TOWNNAME":"佳里區","LI":"安西里","LIN":"3鄰","STREET":"光復路","SECT":" ","MAREA":" ","LANE":" ","ALLEY":" ","HOUSE_NO":"２９６號五樓之４","E_COORD97":165521.54000000001,"N_COORD97":2562653.8300000001,"ADDRESS":"光復路２９６號五樓之４","OBJECTID":605505},"geometry":{"x":165521.54000000097,"y":2562653.8300000019}},{"attributes":{"ID":605533,"DIS_CODE":0,"TOWNNAME":"佳里區","LI":"安西里","LIN":"3鄰","STREET":"光復路","SECT":" ","MAREA":" ","LANE":" ","ALLEY":" ","HOUSE_NO":"２９６號五樓之５","E_COORD97":165521.54000000001,"N_COORD97":2562653.8300000001,"ADDRESS":"光復路２９６號五樓之５","OBJECTID":605506},"geometry":{"x":165521.54000000097,"y":2562653.8300000019}},{"attributes":{"ID":605534,"DIS_CODE":0,"TOWNNAME":"佳里區","LI":"安西里","LIN":"3鄰","STREET":"光復路","SECT":" ","MAREA":" ","LANE":" ","ALLEY":" ","HOUSE_NO":"２９６號五樓之６","E_COORD97":165521.54000000001,"N_COORD97":2562653.8300000001,"ADDRESS":"光復路２９６號五樓之６","OBJECTID":605507},"geometry":{"x":165521.54000000097,"y":2562653.8300000019}},{"attributes":{"ID":605535,"DIS_CODE":0,"TOWNNAME":"佳里區","LI":"安西里","LIN":"3鄰","STREET":"光復路","SECT":" ","MAREA":" ","LANE":" ","ALLEY":" ","HOUSE_NO":"２９６號五樓之７","E_COORD97":165521.54000000001,"N_COORD97":2562653.8300000001,"ADDRESS":"光復路２９６號五樓之７","OBJECTID":605508},"geometry":{"x":165521.54000000097,"y":2562653.8300000019}},{"attributes":{"ID":605536,"DIS_CODE":0,"TOWNNAME":"佳里區","LI":"安西里","LIN":"3鄰","STREET":"光復路","SECT":" ","MAREA":" ","LANE":" ","ALLEY":" ","HOUSE_NO":"２９６號五樓之８","E_COORD97":165521.54000000001,"N_COORD97":2562653.8300000001,"ADDRESS":"光復路２９６號五樓之８","OBJECTID":605509},"geometry":{"x":165521.54000000097,"y":2562653.8300000019}},{"attributes":{"ID":605537,"DIS_CODE":0,"TOWNNAME":"佳里區","LI":"安西里","LIN":"3鄰","STREET":"光復路","SECT":" ","MAREA":" ","LANE":" ","ALLEY":" ","HOUSE_NO":"２９６號五樓之９","E_COORD97":165521.54000000001,"N_COORD97":2562653.8300000001,"ADDRESS":"光復路２９６號五樓之９","OBJECTID":605510},"geometry":{"x":165521.54000000097,"y":2562653.8300000019}},{"attributes":{"ID":605538,"DIS_CODE":0,"TOWNNAME":"佳里區","LI":"安西里","LIN":"3鄰","STREET":"光復路","SECT":" ","MAREA":" ","LANE":" ","ALLEY":" ","HOUSE_NO":"２９６號六樓之１","E_COORD97":165521.54000000001,"N_COORD97":2562653.8300000001,"ADDRESS":"光復路２９６號六樓之１","OBJECTID":605511},"geometry":{"x":165521.54000000097,"y":2562653.8300000019}},{"attributes":{"ID":605539,"DIS_CODE":0,"TOWNNAME":"佳里區","LI":"安西里","LIN":"3鄰","STREET":"光復路","SECT":" ","MAREA":" ","LANE":" ","ALLEY":" ","HOUSE_NO":"２９６號六樓之１０","E_COORD97":165521.54000000001,"N_COORD97":2562653.8300000001,"ADDRESS":"光復路２９６號六樓之１０","OBJECTID":605512},"geometry":{"x":165521.54000000097,"y":2562653.8300000019}},{"attributes":{"ID":605540,"DIS_CODE":0,"TOWNNAME":"佳里區","LI":"安西里","LIN":"3鄰","STREET":"光復路","SECT":" ","MAREA":" ","LANE":" ","ALLEY":" ","HOUSE_NO":"２９６號六樓之１１","E_COORD97":165521.54000000001,"N_COORD97":2562653.8300000001,"ADDRESS":"光復路２９６號六樓之１１","OBJECTID":605513},"geometry":{"x":165521.54000000097,"y":2562653.8300000019}},{"attributes":{"ID":605541,"DIS_CODE":0,"TOWNNAME":"佳里區","LI":"安西里","LIN":"3鄰","STREET":"光復路","SECT":" ","MAREA":" ","LANE":" ","ALLEY":" ","HOUSE_NO":"２９６號六樓之１２","E_COORD97":165521.54000000001,"N_COORD97":2562653.8300000001,"ADDRESS":"光復路２９６號六樓之１２","OBJECTID":605514},"geometry":{"x":165521.54000000097,"y":2562653.8300000019}},{"attributes":{"ID":605542,"DIS_CODE":0,"TOWNNAME":"佳里區","LI":"安西里","LIN":"3鄰","STREET":"光復路","SECT":" ","MAREA":" ","LANE":" ","ALLEY":" ","HOUSE_NO":"２９６號六樓之１３","E_COORD97":165521.54000000001,"N_COORD97":2562653.8300000001,"ADDRESS":"光復路２９６號六樓之１３","OBJECTID":605515},"geometry":{"x":165521.54000000097,"y":2562653.8300000019}},{"attributes":{"ID":605543,"DIS_CODE":0,"TOWNNAME":"佳里區","LI":"安西里","LIN":"3鄰","STREET":"光復路","SECT":" ","MAREA":" ","LANE":" ","ALLEY":" ","HOUSE_NO":"２９６號六樓之１４","E_COORD97":165521.54000000001,"N_COORD97":2562653.8300000001,"ADDRESS":"光復路２９６號六樓之１４","OBJECTID":605516},"geometry":{"x":165521.54000000097,"y":2562653.8300000019}},{"attributes":{"ID":605544,"DIS_CODE":0,"TOWNNAME":"佳里區","LI":"安西里","LIN":"3鄰","STREET":"光復路","SECT":" ","MAREA":" ","LANE":" ","ALLEY":" ","HOUSE_NO":"２９６號六樓之１５","E_COORD97":165521.54000000001,"N_COORD97":2562653.8300000001,"ADDRESS":"光復路２９６號六樓之１５","OBJECTID":605517},"geometry":{"x":165521.54000000097,"y":2562653.8300000019}},{"attributes":{"ID":605545,"DIS_CODE":0,"TOWNNAME":"佳里區","LI":"安西里","LIN":"3鄰","STREET":"光復路","SECT":" ","MAREA":" ","LANE":" ","ALLEY":" ","HOUSE_NO":"２９６號六樓之１６","E_COORD97":165521.54000000001,"N_COORD97":2562653.8300000001,"ADDRESS":"光復路２９６號六樓之１６","OBJECTID":605518},"geometry":{"x":165521.54000000097,"y":2562653.8300000019}},{"attributes":{"ID":605546,"DIS_CODE":0,"TOWNNAME":"佳里區","LI":"安西里","LIN":"3鄰","STREET":"光復路","SECT":" ","MAREA":" ","LANE":" ","ALLEY":" ","HOUSE_NO":"２９６號六樓之１７","E_COORD97":165521.54000000001,"N_COORD97":2562653.8300000001,"ADDRESS":"光復路２９６號六樓之１７","OBJECTID":605519},"geometry":{"x":165521.54000000097,"y":2562653.8300000019}},{"attributes":{"ID":605547,"DIS_CODE":0,"TOWNNAME":"佳里區","LI":"安西里","LIN":"3鄰","STREET":"光復路","SECT":" ","MAREA":" ","LANE":" ","ALLEY":" ","HOUSE_NO":"２９６號六樓之１８","E_COORD97":165521.54000000001,"N_COORD97":2562653.8300000001,"ADDRESS":"光復路２９６號六樓之１８","OBJECTID":605520},"geometry":{"x":165521.54000000097,"y":2562653.8300000019}},{"attributes":{"ID":605548,"DIS_CODE":0,"TOWNNAME":"佳里區","LI":"安西里","LIN":"3鄰","STREET":"光復路","SECT":" ","MAREA":" ","LANE":" ","ALLEY":" ","HOUSE_NO":"２９６號六樓之２","E_COORD97":165521.54000000001,"N_COORD97":2562653.8300000001,"ADDRESS":"光復路２９６號六樓之２","OBJECTID":605521},"geometry":{"x":165521.54000000097,"y":2562653.8300000019}},{"attributes":{"ID":605549,"DIS_CODE":0,"TOWNNAME":"佳里區","LI":"安西里","LIN":"3鄰","STREET":"光復路","SECT":" ","MAREA":" ","LANE":" ","ALLEY":" ","HOUSE_NO":"２９６號六樓之３","E_COORD97":165521.54000000001,"N_COORD97":2562653.8300000001,"ADDRESS":"光復路２９６號六樓之３","OBJECTID":605522},"geometry":{"x":165521.54000000097,"y":2562653.8300000019}},{"attributes":{"ID":605550,"DIS_CODE":0,"TOWNNAME":"佳里區","LI":"安西里","LIN":"3鄰","STREET":"光復路","SECT":" ","MAREA":" ","LANE":" ","ALLEY":" ","HOUSE_NO":"２９６號六樓之５","E_COORD97":165521.54000000001,"N_COORD97":2562653.8300000001,"ADDRESS":"光復路２９６號六樓之５","OBJECTID":605523},"geometry":{"x":165521.54000000097,"y":2562653.8300000019}},{"attributes":{"ID":605551,"DIS_CODE":0,"TOWNNAME":"佳里區","LI":"安西里","LIN":"3鄰","STREET":"光復路","SECT":" ","MAREA":" ","LANE":" ","ALLEY":" ","HOUSE_NO":"２９６號六樓之６","E_COORD97":165521.54000000001,"N_COORD97":2562653.8300000001,"ADDRESS":"光復路２９６號六樓之６","OBJECTID":605524},"geometry":{"x":165521.54000000097,"y":2562653.8300000019}},{"attributes":{"ID":605552,"DIS_CODE":0,"TOWNNAME":"佳里區","LI":"安西里","LIN":"3鄰","STREET":"光復路","SECT":" ","MAREA":" ","LANE":" ","ALLEY":" ","HOUSE_NO":"２９６號六樓之７","E_COORD97":165521.54000000001,"N_COORD97":2562653.8300000001,"ADDRESS":"光復路２９６號六樓之７","OBJECTID":605525},"geometry":{"x":165521.54000000097,"y":2562653.8300000019}},{"attributes":{"ID":605553,"DIS_CODE":0,"TOWNNAME":"佳里區","LI":"安西里","LIN":"3鄰","STREET":"光復路","SECT":" ","MAREA":" ","LANE":" ","ALLEY":" ","HOUSE_NO":"２９６號六樓之８","E_COORD97":165521.54000000001,"N_COORD97":2562653.8300000001,"ADDRESS":"光復路２９６號六樓之８","OBJECTID":605526},"geometry":{"x":165521.54000000097,"y":2562653.8300000019}},{"attributes":{"ID":605554,"DIS_CODE":0,"TOWNNAME":"佳里區","LI":"安西里","LIN":"3鄰","STREET":"光復路","SECT":" ","MAREA":" ","LANE":" ","ALLEY":" ","HOUSE_NO":"２９６號六樓之９","E_COORD97":165521.54000000001,"N_COORD97":2562653.8300000001,"ADDRESS":"光復路２９６號六樓之９","OBJECTID":605527},"geometry":{"x":165521.54000000097,"y":2562653.8300000019}},{"attributes":{"ID":605555,"DIS_CODE":0,"TOWNNAME":"佳里區","LI":"安西里","LIN":"3鄰","STREET":"光復路","SECT":" ","MAREA":" ","LANE":" ","ALLEY":" ","HOUSE_NO":"２９６號四樓之１","E_COORD97":165521.54000000001,"N_COORD97":2562653.8300000001,"ADDRESS":"光復路２９６號四樓之１","OBJECTID":605528},"geometry":{"x":165521.54000000097,"y":2562653.8300000019}},{"attributes":{"ID":605556,"DIS_CODE":0,"TOWNNAME":"佳里區","LI":"安西里","LIN":"3鄰","STREET":"光復路","SECT":" ","MAREA":" ","LANE":" ","ALLEY":" ","HOUSE_NO":"２９６號四樓之２","E_COORD97":165521.54000000001,"N_COORD97":2562653.8300000001,"ADDRESS":"光復路２９６號四樓之２","OBJECTID":605529},"geometry":{"x":165521.54000000097,"y":2562653.8300000019}},{"attributes":{"ID":605557,"DIS_CODE":0,"TOWNNAME":"中西區","LI":"安海里","LIN":"3鄰","STREET":"金華路","SECT":"三段","MAREA":" ","LANE":" ","ALLEY":" ","HOUSE_NO":"２５７號二樓之１","E_COORD97":167327.94,"N_COORD97":2544024.71,"ADDRESS":"金華路三段２５７號二樓之１","OBJECTID":605530},"geometry":{"x":167327.94000000134,"y":2544024.7100000028}},{"attributes":{"ID":605558,"DIS_CODE":0,"TOWNNAME":"中西區","LI":"安海里","LIN":"3鄰","STREET":"金華路","SECT":"三段","MAREA":" ","LANE":" ","ALLEY":" ","HOUSE_NO":"２５７號二樓之２","E_COORD97":167327.94,"N_COORD97":2544024.71,"ADDRESS":"金華路三段２５７號二樓之２","OBJECTID":605531},"geometry":{"x":167327.94000000134,"y":2544024.7100000028}},{"attributes":{"ID":605559,"DIS_CODE":0,"TOWNNAME":"中西區","LI":"安海里","LIN":"3鄰","STREET":"金華路","SECT":"三段","MAREA":" ","LANE":" ","ALLEY":" ","HOUSE_NO":"２５７號二樓之３","E_COORD97":167327.94,"N_COORD97":2544024.71,"ADDRESS":"金華路三段２５７號二樓之３","OBJECTID":605532},"geometry":{"x":167327.94000000134,"y":2544024.7100000028}},{"attributes":{"ID":605560,"DIS_CODE":0,"TOWNNAME":"中西區","LI":"安海里","LIN":"3鄰","STREET":"金華路","SECT":"三段","MAREA":" ","LANE":" ","ALLEY":" ","HOUSE_NO":"２５７號二樓之４","E_COORD97":167327.94,"N_COORD97":2544024.71,"ADDRESS":"金華路三段２５７號二樓之４","OBJECTID":605533},"geometry":{"x":167327.94000000134,"y":2544024.7100000028}},{"attributes":{"ID":605561,"DIS_CODE":0,"TOWNNAME":"中西區","LI":"安海里","LIN":"3鄰","STREET":"金華路","SECT":"三段","MAREA":" ","LANE":" ","ALLEY":" ","HOUSE_NO":"２５７號三樓之１","E_COORD97":167327.94,"N_COORD97":2544024.71,"ADDRESS":"金華路三段２５７號三樓之１","OBJECTID":605534},"geometry":{"x":167327.94000000134,"y":2544024.7100000028}},{"attributes":{"ID":605562,"DIS_CODE":0,"TOWNNAME":"中西區","LI":"安海里","LIN":"3鄰","STREET":"金華路","SECT":"三段","MAREA":" ","LANE":" ","ALLEY":" ","HOUSE_NO":"２５７號三樓之２","E_COORD97":167327.94,"N_COORD97":2544024.71,"ADDRESS":"金華路三段２５７號三樓之２","OBJECTID":605535},"geometry":{"x":167327.94000000134,"y":2544024.7100000028}},{"attributes":{"ID":605563,"DIS_CODE":0,"TOWNNAME":"中西區","LI":"安海里","LIN":"3鄰","STREET":"金華路","SECT":"三段","MAREA":" ","LANE":" ","ALLEY":" ","HOUSE_NO":"２５７號三樓之３","E_COORD97":167327.94,"N_COORD97":2544024.71,"ADDRESS":"金華路三段２５７號三樓之３","OBJECTID":605536},"geometry":{"x":167327.94000000134,"y":2544024.7100000028}},{"attributes":{"ID":605564,"DIS_CODE":0,"TOWNNAME":"中西區","LI":"安海里","LIN":"3鄰","STREET":"金華路","SECT":"三段","MAREA":" ","LANE":" ","ALLEY":" ","HOUSE_NO":"２５７號三樓之４","E_COORD97":167327.94,"N_COORD97":2544024.71,"ADDRESS":"金華路三段２５７號三樓之４","OBJECTID":605537},"geometry":{"x":167327.94000000134,"y":2544024.7100000028}},{"attributes":{"ID":605565,"DIS_CODE":0,"TOWNNAME":"中西區","LI":"安海里","LIN":"3鄰","STREET":"金華路","SECT":"三段","MAREA":" ","LANE":" ","ALLEY":" ","HOUSE_NO":"２５７號五樓之１","E_COORD97":167327.94,"N_COORD97":2544024.71,"ADDRESS":"金華路三段２５７號五樓之１","OBJECTID":605538},"geometry":{"x":167327.94000000134,"y":2544024.7100000028}},{"attributes":{"ID":605566,"DIS_CODE":0,"TOWNNAME":"中西區","LI":"安海里","LIN":"3鄰","STREET":"金華路","SECT":"三段","MAREA":" ","LANE":" ","ALLEY":" ","HOUSE_NO":"２５７號五樓之２","E_COORD97":167327.94,"N_COORD97":2544024.71,"ADDRESS":"金華路三段２５７號五樓之２","OBJECTID":605539},"geometry":{"x":167327.94000000134,"y":2544024.7100000028}},{"attributes":{"ID":605567,"DIS_CODE":0,"TOWNNAME":"中西區","LI":"安海里","LIN":"3鄰","STREET":"金華路","SECT":"三段","MAREA":" ","LANE":" ","ALLEY":" ","HOUSE_NO":"２５７號五樓之３","E_COORD97":167327.94,"N_COORD97":2544024.71,"ADDRESS":"金華路三段２５７號五樓之３","OBJECTID":605540},"geometry":{"x":167327.94000000134,"y":2544024.7100000028}},{"attributes":{"ID":605568,"DIS_CODE":0,"TOWNNAME":"中西區","LI":"安海里","LIN":"3鄰","STREET":"金華路","SECT":"三段","MAREA":" ","LANE":" ","ALLEY":" ","HOUSE_NO":"２５７號五樓之４","E_COORD97":167327.94,"N_COORD97":2544024.71,"ADDRESS":"金華路三段２５７號五樓之４","OBJECTID":605541},"geometry":{"x":167327.94000000134,"y":2544024.7100000028}},{"attributes":{"ID":605569,"DIS_CODE":0,"TOWNNAME":"中西區","LI":"安海里","LIN":"3鄰","STREET":"金華路","SECT":"三段","MAREA":" ","LANE":" ","ALLEY":" ","HOUSE_NO":"２５７號四樓之１","E_COORD97":167327.94,"N_COORD97":2544024.71,"ADDRESS":"金華路三段２５７號四樓之１","OBJECTID":605542},"geometry":{"x":167327.94000000134,"y":2544024.7100000028}},{"attributes":{"ID":605570,"DIS_CODE":0,"TOWNNAME":"中西區","LI":"安海里","LIN":"3鄰","STREET":"金華路","SECT":"三段","MAREA":" ","LANE":" ","ALLEY":" ","HOUSE_NO":"２５７號四樓之２","E_COORD97":167327.94,"N_COORD97":2544024.71,"ADDRESS":"金華路三段２５７號四樓之２","OBJECTID":605543},"geometry":{"x":167327.94000000134,"y":2544024.7100000028}},{"attributes":{"ID":605571,"DIS_CODE":0,"TOWNNAME":"中西區","LI":"安海里","LIN":"3鄰","STREET":"金華路","SECT":"三段","MAREA":" ","LANE":" ","ALLEY":" ","HOUSE_NO":"２５７號四樓之３","E_COORD97":167327.94,"N_COORD97":2544024.71,"ADDRESS":"金華路三段２５７號四樓之３","OBJECTID":605544},"geometry":{"x":167327.94000000134,"y":2544024.7100000028}},{"attributes":{"ID":605572,"DIS_CODE":0,"TOWNNAME":"東區","LI":"崇成里","LIN":"3鄰","STREET":"崇德十二街","SECT":" ","MAREA":" ","LANE":" ","ALLEY":" ","HOUSE_NO":"１６號二樓之１","E_COORD97":170847.48000000001,"N_COORD97":2541333.1400000001,"ADDRESS":"崇德十二街１６號二樓之１","OBJECTID":605545},"geometry":{"x":170847.48000000045,"y":2541333.1400000025}},{"attributes":{"ID":605573,"DIS_CODE":0,"TOWNNAME":"東區","LI":"崇成里","LIN":"3鄰","STREET":"崇德十二街","SECT":" ","MAREA":" ","LANE":" ","ALLEY":" ","HOUSE_NO":"１６號二樓之２","E_COORD97":170847.48000000001,"N_COORD97":2541333.1400000001,"ADDRESS":"崇德十二街１６號二樓之２","OBJECTID":605546},"geometry":{"x":170847.48000000045,"y":2541333.1400000025}},{"attributes":{"ID":605574,"DIS_CODE":0,"TOWNNAME":"東區","LI":"崇成里","LIN":"3鄰","STREET":"崇德十二街","SECT":" ","MAREA":" ","LANE":" ","ALLEY":" ","HOUSE_NO":"１６號二樓之３","E_COORD97":170847.48000000001,"N_COORD97":2541333.1400000001,"ADDRESS":"崇德十二街１６號二樓之３","OBJECTID":605547},"geometry":{"x":170847.48000000045,"y":2541333.1400000025}},{"attributes":{"ID":605575,"DIS_CODE":0,"TOWNNAME":"東區","LI":"崇成里","LIN":"3鄰","STREET":"崇德十二街","SECT":" ","MAREA":" ","LANE":" ","ALLEY":" ","HOUSE_NO":"１６號三樓之１","E_COORD97":170847.48000000001,"N_COORD97":2541333.1400000001,"ADDRESS":"崇德十二街１６號三樓之１","OBJECTID":605548},"geometry":{"x":170847.48000000045,"y":2541333.1400000025}},{"attributes":{"ID":605576,"DIS_CODE":0,"TOWNNAME":"東區","LI":"崇成里","LIN":"3鄰","STREET":"崇德十二街","SECT":" ","MAREA":" ","LANE":" ","ALLEY":" ","HOUSE_NO":"１６號三樓之２","E_COORD97":170847.48000000001,"N_COORD97":2541333.1400000001,"ADDRESS":"崇德十二街１６號三樓之２","OBJECTID":605549},"geometry":{"x":170847.48000000045,"y":2541333.1400000025}},{"attributes":{"ID":605577,"DIS_CODE":0,"TOWNNAME":"東區","LI":"崇成里","LIN":"3鄰","STREET":"崇德十二街","SECT":" ","MAREA":" ","LANE":" ","ALLEY":" ","HOUSE_NO":"１６號三樓之３","E_COORD97":170847.48000000001,"N_COORD97":2541333.1400000001,"ADDRESS":"崇德十二街１６號三樓之３","OBJECTID":605550},"geometry":{"x":170847.48000000045,"y":2541333.1400000025}},{"attributes":{"ID":605578,"DIS_CODE":0,"TOWNNAME":"東區","LI":"崇成里","LIN":"3鄰","STREET":"崇德十二街","SECT":" ","MAREA":" ","LANE":" ","ALLEY":" ","HOUSE_NO":"１６號五樓之１","E_COORD97":170847.48000000001,"N_COORD97":2541333.1400000001,"ADDRESS":"崇德十二街１６號五樓之１","OBJECTID":605551},"geometry":{"x":170847.48000000045,"y":2541333.1400000025}},{"attributes":{"ID":605579,"DIS_CODE":0,"TOWNNAME":"東區","LI":"崇成里","LIN":"3鄰","STREET":"崇德十二街","SECT":" ","MAREA":" ","LANE":" ","ALLEY":" ","HOUSE_NO":"１６號五樓之２","E_COORD97":170847.48000000001,"N_COORD97":2541333.1400000001,"ADDRESS":"崇德十二街１６號五樓之２","OBJECTID":605552},"geometry":{"x":170847.48000000045,"y":2541333.1400000025}},{"attributes":{"ID":605580,"DIS_CODE":0,"TOWNNAME":"東區","LI":"崇成里","LIN":"3鄰","STREET":"崇德十二街","SECT":" ","MAREA":" ","LANE":" ","ALLEY":" ","HOUSE_NO":"１６號五樓之３","E_COORD97":170847.48000000001,"N_COORD97":2541333.1400000001,"ADDRESS":"崇德十二街１６號五樓之３","OBJECTID":605553},"geometry":{"x":170847.48000000045,"y":2541333.1400000025}},{"attributes":{"ID":605581,"DIS_CODE":0,"TOWNNAME":"東區","LI":"崇成里","LIN":"3鄰","STREET":"崇德十二街","SECT":" ","MAREA":" ","LANE":" ","ALLEY":" ","HOUSE_NO":"１６號四樓之１","E_COORD97":170847.48000000001,"N_COORD97":2541333.1400000001,"ADDRESS":"崇德十二街１６號四樓之１","OBJECTID":605554},"geometry":{"x":170847.48000000045,"y":2541333.1400000025}},{"attributes":{"ID":605582,"DIS_CODE":0,"TOWNNAME":"東區","LI":"崇成里","LIN":"3鄰","STREET":"崇德十二街","SECT":" ","MAREA":" ","LANE":" ","ALLEY":" ","HOUSE_NO":"１６號四樓之２","E_COORD97":170847.48000000001,"N_COORD97":2541333.1400000001,"ADDRESS":"崇德十二街１６號四樓之２","OBJECTID":605555},"geometry":{"x":170847.48000000045,"y":2541333.1400000025}},{"attributes":{"ID":605583,"DIS_CODE":0,"TOWNNAME":"東區","LI":"崇成里","LIN":"3鄰","STREET":"崇德十二街","SECT":" ","MAREA":" ","LANE":" ","ALLEY":" ","HOUSE_NO":"１６號四樓之３","E_COORD97":170847.48000000001,"N_COORD97":2541333.1400000001,"ADDRESS":"崇德十二街１６號四樓之３","OBJECTID":605556},"geometry":{"x":170847.48000000045,"y":2541333.1400000025}},{"attributes":{"ID":605584,"DIS_CODE":0,"TOWNNAME":"東區","LI":"崇成里","LIN":"3鄰","STREET":"崇德十二街","SECT":" ","MAREA":" ","LANE":" ","ALLEY":" ","HOUSE_NO":"１６號四樓之４","E_COORD97":170847.48000000001,"N_COORD97":2541333.1400000001,"ADDRESS":"崇德十二街１６號四樓之４","OBJECTID":605557},"geometry":{"x":170847.48000000045,"y":2541333.1400000025}},{"attributes":{"ID":605585,"DIS_CODE":0,"TOWNNAME":"東區","LI":"崇成里","LIN":"3鄰","STREET":"崇德十二街","SECT":" ","MAREA":" ","LANE":" ","ALLEY":" ","HOUSE_NO":"４８號七樓","E_COORD97":170919.42000000001,"N_COORD97":2541334.2200000002,"ADDRESS":"崇德十二街４８號七樓","OBJECTID":605558},"geometry":{"x":170919.42000000179,"y":2541334.2200000007}},{"attributes":{"ID":605586,"DIS_CODE":0,"TOWNNAME":"東區","LI":"崇成里","LIN":"3鄰","STREET":"崇德十二街","SECT":" ","MAREA":" ","LANE":" ","ALLEY":" ","HOUSE_NO":"４８號七樓之１","E_COORD97":170919.42000000001,"N_COORD97":2541334.2200000002,"ADDRESS":"崇德十二街４８號七樓之１","OBJECTID":605559},"geometry":{"x":170919.42000000179,"y":2541334.2200000007}},{"attributes":{"ID":605587,"DIS_CODE":0,"TOWNNAME":"東區","LI":"崇成里","LIN":"3鄰","STREET":"崇德十二街","SECT":" ","MAREA":" ","LANE":" ","ALLEY":" ","HOUSE_NO":"４８號七樓之２","E_COORD97":170919.42000000001,"N_COORD97":2541334.2200000002,"ADDRESS":"崇德十二街４８號七樓之２","OBJECTID":605560},"geometry":{"x":170919.42000000179,"y":2541334.2200000007}},{"attributes":{"ID":605588,"DIS_CODE":0,"TOWNNAME":"東區","LI":"崇成里","LIN":"3鄰","STREET":"崇德十二街","SECT":" ","MAREA":" ","LANE":" ","ALLEY":" ","HOUSE_NO":"４８號七樓之３","E_COORD97":170919.42000000001,"N_COORD97":2541334.2200000002,"ADDRESS":"崇德十二街４８號七樓之３","OBJECTID":605561},"geometry":{"x":170919.42000000179,"y":2541334.2200000007}},{"attributes":{"ID":605589,"DIS_CODE":0,"TOWNNAME":"東區","LI":"崇成里","LIN":"3鄰","STREET":"崇德十二街","SECT":" ","MAREA":" ","LANE":" ","ALLEY":" ","HOUSE_NO":"４８號七樓之４","E_COORD97":170919.42000000001,"N_COORD97":2541334.2200000002,"ADDRESS":"崇德十二街４８號七樓之４","OBJECTID":605562},"geometry":{"x":170919.42000000179,"y":2541334.2200000007}},{"attributes":{"ID":605590,"DIS_CODE":0,"TOWNNAME":"東區","LI":"崇成里","LIN":"3鄰","STREET":"崇德十二街","SECT":" ","MAREA":" ","LANE":" ","ALLEY":" ","HOUSE_NO":"４８號七樓之５","E_COORD97":170919.42000000001,"N_COORD97":2541334.2200000002,"ADDRESS":"崇德十二街４８號七樓之５","OBJECTID":605563},"geometry":{"x":170919.42000000179,"y":2541334.2200000007}},{"attributes":{"ID":605591,"DIS_CODE":0,"TOWNNAME":"東區","LI":"崇成里","LIN":"3鄰","STREET":"崇德十二街","SECT":" ","MAREA":" ","LANE":" ","ALLEY":" ","HOUSE_NO":"４８號二樓","E_COORD97":170919.42000000001,"N_COORD97":2541334.2200000002,"ADDRESS":"崇德十二街４８號二樓","OBJECTID":605564},"geometry":{"x":170919.42000000179,"y":2541334.2200000007}},{"attributes":{"ID":605592,"DIS_CODE":0,"TOWNNAME":"東區","LI":"崇成里","LIN":"3鄰","STREET":"崇德十二街","SECT":" ","MAREA":" ","LANE":" ","ALLEY":" ","HOUSE_NO":"４８號二樓之１","E_COORD97":170919.42000000001,"N_COORD97":2541334.2200000002,"ADDRESS":"崇德十二街４８號二樓之１","OBJECTID":605565},"geometry":{"x":170919.42000000179,"y":2541334.2200000007}},{"attributes":{"ID":605593,"DIS_CODE":0,"TOWNNAME":"東區","LI":"崇成里","LIN":"3鄰","STREET":"崇德十二街","SECT":" ","MAREA":" ","LANE":" ","ALLEY":" ","HOUSE_NO":"４８號二樓之２","E_COORD97":170919.42000000001,"N_COORD97":2541334.2200000002,"ADDRESS":"崇德十二街４８號二樓之２","OBJECTID":605566},"geometry":{"x":170919.42000000179,"y":2541334.2200000007}},{"attributes":{"ID":605594,"DIS_CODE":0,"TOWNNAME":"東區","LI":"崇成里","LIN":"3鄰","STREET":"崇德十二街","SECT":" ","MAREA":" ","LANE":" ","ALLEY":" ","HOUSE_NO":"４８號二樓之３","E_COORD97":170919.42000000001,"N_COORD97":2541334.2200000002,"ADDRESS":"崇德十二街４８號二樓之３","OBJECTID":605567},"geometry":{"x":170919.42000000179,"y":2541334.2200000007}},{"attributes":{"ID":605595,"DIS_CODE":0,"TOWNNAME":"東區","LI":"崇成里","LIN":"3鄰","STREET":"崇德十二街","SECT":" ","MAREA":" ","LANE":" ","ALLEY":" ","HOUSE_NO":"４８號三樓","E_COORD97":170919.42000000001,"N_COORD97":2541334.2200000002,"ADDRESS":"崇德十二街４８號三樓","OBJECTID":605568},"geometry":{"x":170919.42000000179,"y":2541334.2200000007}},{"attributes":{"ID":605596,"DIS_CODE":0,"TOWNNAME":"東區","LI":"崇成里","LIN":"3鄰","STREET":"崇德十二街","SECT":" ","MAREA":" ","LANE":" ","ALLEY":" ","HOUSE_NO":"４８號三樓之１","E_COORD97":170919.42000000001,"N_COORD97":2541334.2200000002,"ADDRESS":"崇德十二街４８號三樓之１","OBJECTID":605569},"geometry":{"x":170919.42000000179,"y":2541334.2200000007}},{"attributes":{"ID":605597,"DIS_CODE":0,"TOWNNAME":"東區","LI":"崇成里","LIN":"3鄰","STREET":"崇德十二街","SECT":" ","MAREA":" ","LANE":" ","ALLEY":" ","HOUSE_NO":"４８號三樓之２","E_COORD97":170919.42000000001,"N_COORD97":2541334.2200000002,"ADDRESS":"崇德十二街４８號三樓之２","OBJECTID":605570},"geometry":{"x":170919.42000000179,"y":2541334.2200000007}},{"attributes":{"ID":605598,"DIS_CODE":0,"TOWNNAME":"東區","LI":"崇成里","LIN":"3鄰","STREET":"崇德十二街","SECT":" ","MAREA":" ","LANE":" ","ALLEY":" ","HOUSE_NO":"４８號三樓之３","E_COORD97":170919.42000000001,"N_COORD97":2541334.2200000002,"ADDRESS":"崇德十二街４８號三樓之３","OBJECTID":605571},"geometry":{"x":170919.42000000179,"y":2541334.2200000007}},{"attributes":{"ID":605599,"DIS_CODE":0,"TOWNNAME":"東區","LI":"崇成里","LIN":"3鄰","STREET":"崇德十二街","SECT":" ","MAREA":" ","LANE":" ","ALLEY":" ","HOUSE_NO":"４８號五樓","E_COORD97":170919.42000000001,"N_COORD97":2541334.2200000002,"ADDRESS":"崇德十二街４８號五樓","OBJECTID":605572},"geometry":{"x":170919.42000000179,"y":2541334.2200000007}},{"attributes":{"ID":605600,"DIS_CODE":0,"TOWNNAME":"東區","LI":"崇成里","LIN":"3鄰","STREET":"崇德十二街","SECT":" ","MAREA":" ","LANE":" ","ALLEY":" ","HOUSE_NO":"４８號五樓之１","E_COORD97":170919.42000000001,"N_COORD97":2541334.2200000002,"ADDRESS":"崇德十二街４８號五樓之１","OBJECTID":605573},"geometry":{"x":170919.42000000179,"y":2541334.2200000007}},{"attributes":{"ID":605601,"DIS_CODE":0,"TOWNNAME":"東區","LI":"崇成里","LIN":"3鄰","STREET":"崇德十二街","SECT":" ","MAREA":" ","LANE":" ","ALLEY":" ","HOUSE_NO":"４８號五樓之２","E_COORD97":170919.42000000001,"N_COORD97":2541334.2200000002,"ADDRESS":"崇德十二街４８號五樓之２","OBJECTID":605574},"geometry":{"x":170919.42000000179,"y":2541334.2200000007}},{"attributes":{"ID":605602,"DIS_CODE":0,"TOWNNAME":"東區","LI":"崇成里","LIN":"3鄰","STREET":"崇德十二街","SECT":" ","MAREA":" ","LANE":" ","ALLEY":" ","HOUSE_NO":"４８號五樓之３","E_COORD97":170919.42000000001,"N_COORD97":2541334.2200000002,"ADDRESS":"崇德十二街４８號五樓之３","OBJECTID":605575},"geometry":{"x":170919.42000000179,"y":2541334.2200000007}},{"attributes":{"ID":605603,"DIS_CODE":0,"TOWNNAME":"東區","LI":"崇成里","LIN":"3鄰","STREET":"崇德十二街","SECT":" ","MAREA":" ","LANE":" ","ALLEY":" ","HOUSE_NO":"４８號六樓","E_COORD97":170919.42000000001,"N_COORD97":2541334.2200000002,"ADDRESS":"崇德十二街４８號六樓","OBJECTID":605576},"geometry":{"x":170919.42000000179,"y":2541334.2200000007}},{"attributes":{"ID":605604,"DIS_CODE":0,"TOWNNAME":"東區","LI":"崇成里","LIN":"3鄰","STREET":"崇德十二街","SECT":" ","MAREA":" ","LANE":" ","ALLEY":" ","HOUSE_NO":"４８號六樓之１","E_COORD97":170919.42000000001,"N_COORD97":2541334.2200000002,"ADDRESS":"崇德十二街４８號六樓之１","OBJECTID":605577},"geometry":{"x":170919.42000000179,"y":2541334.2200000007}},{"attributes":{"ID":605605,"DIS_CODE":0,"TOWNNAME":"東區","LI":"崇成里","LIN":"3鄰","STREET":"崇德十二街","SECT":" ","MAREA":" ","LANE":" ","ALLEY":" ","HOUSE_NO":"４８號六樓之２","E_COORD97":170919.42000000001,"N_COORD97":2541334.2200000002,"ADDRESS":"崇德十二街４８號六樓之２","OBJECTID":605578},"geometry":{"x":170919.42000000179,"y":2541334.2200000007}},{"attributes":{"ID":605606,"DIS_CODE":0,"TOWNNAME":"中西區","LI":"元安里","LIN":"3鄰","STREET":"國華街","SECT":"二段","MAREA":" ","LANE":" ","ALLEY":" ","HOUSE_NO":"４５號四樓之６","E_COORD97":167587.14000000001,"N_COORD97":2543280.5,"ADDRESS":"國華街二段４５號四樓之６","OBJECTID":605579},"geometry":{"x":167587.1400000006,"y":2543280.5}},{"attributes":{"ID":605607,"DIS_CODE":0,"TOWNNAME":"中西區","LI":"元安里","LIN":"3鄰","STREET":"國華街","SECT":"二段","MAREA":" ","LANE":" ","ALLEY":" ","HOUSE_NO":"４５號七樓之６","E_COORD97":167587.14000000001,"N_COORD97":2543280.5,"ADDRESS":"國華街二段４５號七樓之６","OBJECTID":605580},"geometry":{"x":167587.1400000006,"y":2543280.5}},{"attributes":{"ID":605608,"DIS_CODE":0,"TOWNNAME":"永康區","LI":"永康里","LIN":"3鄰","STREET":"中山路","SECT":" ","MAREA":" ","LANE":" ","ALLEY":" ","HOUSE_NO":"１２號二樓之２","E_COORD97":173882.56,"N_COORD97":2547415.23,"ADDRESS":"中山路１２號二樓之２","OBJECTID":605581},"geometry":{"x":173882.55999999959,"y":2547415.2300000023}},{"attributes":{"ID":605609,"DIS_CODE":0,"TOWNNAME":"永康區","LI":"永康里","LIN":"3鄰","STREET":"中山路","SECT":" ","MAREA":" ","LANE":" ","ALLEY":" ","HOUSE_NO":"１２號四樓之６","E_COORD97":173882.53,"N_COORD97":2547415.23,"ADDRESS":"中山路１２號四樓之６","OBJECTID":605582},"geometry":{"x":173882.53000000119,"y":2547415.2300000023}},{"attributes":{"ID":605610,"DIS_CODE":0,"TOWNNAME":"永康區","LI":"永康里","LIN":"3鄰","STREET":"中山路","SECT":" ","MAREA":" ","LANE":" ","ALLEY":" ","HOUSE_NO":"１２號二樓之３","E_COORD97":173882.53,"N_COORD97":2547415.23,"ADDRESS":"中山路１２號二樓之３","OBJECTID":605583},"geometry":{"x":173882.53000000119,"y":2547415.2300000023}},{"attributes":{"ID":605611,"DIS_CODE":0,"TOWNNAME":"永康區","LI":"永康里","LIN":"3鄰","STREET":"中山路","SECT":" ","MAREA":" ","LANE":" ","ALLEY":" ","HOUSE_NO":"１２號六樓之２","E_COORD97":173882.56,"N_COORD97":2547415.23,"ADDRESS":"中山路１２號六樓之２","OBJECTID":605584},"geometry":{"x":173882.55999999959,"y":2547415.2300000023}},{"attributes":{"ID":605612,"DIS_CODE":0,"TOWNNAME":"永康區","LI":"永康里","LIN":"3鄰","STREET":"中山路","SECT":" ","MAREA":" ","LANE":" ","ALLEY":" ","HOUSE_NO":"１２號六樓之１","E_COORD97":173882.42999999999,"N_COORD97":2547415.23,"ADDRESS":"中山路１２號六樓之１","OBJECTID":605585},"geometry":{"x":173882.43000000063,"y":2547415.2300000023}},{"attributes":{"ID":605613,"DIS_CODE":0,"TOWNNAME":"永康區","LI":"永康里","LIN":"3鄰","STREET":"中山路","SECT":" ","MAREA":" ","LANE":" ","ALLEY":" ","HOUSE_NO":"１２號七樓之３","E_COORD97":173882.53,"N_COORD97":2547415.23,"ADDRESS":"中山路１２號七樓之３","OBJECTID":605586},"geometry":{"x":173882.53000000119,"y":2547415.2300000023}},{"attributes":{"ID":605614,"DIS_CODE":0,"TOWNNAME":"永康區","LI":"永康里","LIN":"3鄰","STREET":"中山路","SECT":" ","MAREA":" ","LANE":" ","ALLEY":" ","HOUSE_NO":"１２號三樓之３","E_COORD97":173882.53,"N_COORD97":2547415.23,"ADDRESS":"中山路１２號三樓之３","OBJECTID":605587},"geometry":{"x":173882.53000000119,"y":2547415.2300000023}},{"attributes":{"ID":605615,"DIS_CODE":0,"TOWNNAME":"永康區","LI":"永康里","LIN":"3鄰","STREET":"中山路","SECT":" ","MAREA":" ","LANE":" ","ALLEY":" ","HOUSE_NO":"１２號六樓之５","E_COORD97":173882.57999999999,"N_COORD97":2547415.23,"ADDRESS":"中山路１２號六樓之５","OBJECTID":605588},"geometry":{"x":173882.58000000007,"y":2547415.2300000023}},{"attributes":{"ID":605616,"DIS_CODE":0,"TOWNNAME":"永康區","LI":"永康里","LIN":"3鄰","STREET":"中山路","SECT":" ","MAREA":" ","LANE":" ","ALLEY":" ","HOUSE_NO":"１２號八樓之３","E_COORD97":173882.53,"N_COORD97":2547415.23,"ADDRESS":"中山路１２號八樓之３","OBJECTID":605589},"geometry":{"x":173882.53000000119,"y":2547415.2300000023}},{"attributes":{"ID":605617,"DIS_CODE":0,"TOWNNAME":"永康區","LI":"永康里","LIN":"3鄰","STREET":"中山路","SECT":" ","MAREA":" ","LANE":" ","ALLEY":" ","HOUSE_NO":"１２號七樓之５","E_COORD97":173882.57999999999,"N_COORD97":2547415.23,"ADDRESS":"中山路１２號七樓之５","OBJECTID":605590},"geometry":{"x":173882.58000000007,"y":2547415.2300000023}},{"attributes":{"ID":605618,"DIS_CODE":0,"TOWNNAME":"永康區","LI":"永康里","LIN":"3鄰","STREET":"中山路","SECT":" ","MAREA":" ","LANE":" ","ALLEY":" ","HOUSE_NO":"１２號七樓之６","E_COORD97":173882.53,"N_COORD97":2547415.23,"ADDRESS":"中山路１２號七樓之６","OBJECTID":605591},"geometry":{"x":173882.53000000119,"y":2547415.2300000023}},{"attributes":{"ID":605619,"DIS_CODE":0,"TOWNNAME":"永康區","LI":"永康里","LIN":"3鄰","STREET":"中山路","SECT":" ","MAREA":" ","LANE":" ","ALLEY":" ","HOUSE_NO":"１２號五樓之６","E_COORD97":173882.53,"N_COORD97":2547415.23,"ADDRESS":"中山路１２號五樓之６","OBJECTID":605592},"geometry":{"x":173882.53000000119,"y":2547415.2300000023}},{"attributes":{"ID":605620,"DIS_CODE":0,"TOWNNAME":"永康區","LI":"永康里","LIN":"3鄰","STREET":"中山路","SECT":" ","MAREA":" ","LANE":" ","ALLEY":" ","HOUSE_NO":"１２號三樓之６","E_COORD97":173882.53,"N_COORD97":2547415.23,"ADDRESS":"中山路１２號三樓之６","OBJECTID":605593},"geometry":{"x":173882.53000000119,"y":2547415.2300000023}},{"attributes":{"ID":605621,"DIS_CODE":0,"TOWNNAME":"中西區","LI":"水仙里","LIN":"3鄰","STREET":"民生路","SECT":"二段","MAREA":" ","LANE":" ","ALLEY":" ","HOUSE_NO":"６４號七樓","E_COORD97":167726.72,"N_COORD97":2543975.6600000001,"ADDRESS":"民生路二段６４號七樓","OBJECTID":605594},"geometry":{"x":167726.7200000016,"y":2543975.6599999983}},{"attributes":{"ID":605622,"DIS_CODE":0,"TOWNNAME":"中西區","LI":"水仙里","LIN":"3鄰","STREET":"民生路","SECT":"二段","MAREA":" ","LANE":" ","ALLEY":" ","HOUSE_NO":"６４號九樓","E_COORD97":167726.72,"N_COORD97":2543975.6600000001,"ADDRESS":"民生路二段６４號九樓","OBJECTID":605595},"geometry":{"x":167726.7200000016,"y":2543975.6599999983}},{"attributes":{"ID":605623,"DIS_CODE":0,"TOWNNAME":"中西區","LI":"水仙里","LIN":"3鄰","STREET":"民生路","SECT":"二段","MAREA":" ","LANE":" ","ALLEY":" ","HOUSE_NO":"６４號二樓","E_COORD97":167726.72,"N_COORD97":2543975.6600000001,"ADDRESS":"民生路二段６４號二樓","OBJECTID":605596},"geometry":{"x":167726.7200000016,"y":2543975.6599999983}},{"attributes":{"ID":605624,"DIS_CODE":0,"TOWNNAME":"中西區","LI":"水仙里","LIN":"3鄰","STREET":"民生路","SECT":"二段","MAREA":" ","LANE":" ","ALLEY":" ","HOUSE_NO":"６４號八樓","E_COORD97":167726.72,"N_COORD97":2543975.6600000001,"ADDRESS":"民生路二段６４號八樓","OBJECTID":605597},"geometry":{"x":167726.7200000016,"y":2543975.6599999983}},{"attributes":{"ID":605625,"DIS_CODE":0,"TOWNNAME":"中西區","LI":"水仙里","LIN":"3鄰","STREET":"民生路","SECT":"二段","MAREA":" ","LANE":" ","ALLEY":" ","HOUSE_NO":"６４號十一樓","E_COORD97":167726.72,"N_COORD97":2543975.6600000001,"ADDRESS":"民生路二段６４號十一樓","OBJECTID":605598},"geometry":{"x":167726.7200000016,"y":2543975.6599999983}},{"attributes":{"ID":605626,"DIS_CODE":0,"TOWNNAME":"中西區","LI":"水仙里","LIN":"3鄰","STREET":"民生路","SECT":"二段","MAREA":" ","LANE":" ","ALLEY":" ","HOUSE_NO":"６４號十樓","E_COORD97":167726.72,"N_COORD97":2543975.6600000001,"ADDRESS":"民生路二段６４號十樓","OBJECTID":605599},"geometry":{"x":167726.7200000016,"y":2543975.6599999983}},{"attributes":{"ID":605627,"DIS_CODE":0,"TOWNNAME":"中西區","LI":"水仙里","LIN":"3鄰","STREET":"民生路","SECT":"二段","MAREA":" ","LANE":" ","ALLEY":" ","HOUSE_NO":"６４號三樓","E_COORD97":167726.72,"N_COORD97":2543975.6600000001,"ADDRESS":"民生路二段６４號三樓","OBJECTID":605600},"geometry":{"x":167726.7200000016,"y":2543975.6599999983}}]}