{"displayFieldName":"TOWNNAME","fieldAliases":{"ID":"ID","DIS_CODE":"DIS_CODE","TOWNNAME":"TOWNNAME","LI":"LI","LIN":"LIN","STREET":"STREET","SECT":"SECT","MAREA":"MAREA","LANE":"LANE","ALLEY":"ALLEY","HOUSE_NO":"HOUSE_NO","E_COORD97":"E_COORD97","N_COORD97":"N_COORD97","ADDRESS":"ADDRESS","OBJECTID":"OBJECTID"},"geometryType":"esriGeometryPoint","spatialReference":{"wkid":102443,"latestWkid":3826},"fields":[{"name":"ID","type":"esriFieldTypeDouble","alias":"ID"},{"name":"DIS_CODE","type":"esriFieldTypeInteger","alias":"DIS_CODE"},{"name":"TOWNNAME","type":"esriFieldTypeString","alias":"TOWNNAME","length":8},{"name":"LI","type":"esriFieldTypeString","alias":"LI","length":8},{"name":"LIN","type":"esriFieldTypeString","alias":"LIN","length":12},{"name":"STREET","type":"esriFieldTypeString","alias":"STREET","length":20},{"name":"SECT","type":"esriFieldTypeString","alias":"SECT","length":8},{"name":"MAREA","type":"esriFieldTypeString","alias":"MAREA","length":12},{"name":"LANE","type":"esriFieldTypeString","alias":"LANE","length":10},{"name":"ALLEY","type":"esriFieldTypeString","alias":"ALLEY","length":10},{"name":"HOUSE_NO","type":"esriFieldTypeString","alias":"HOUSE_NO","length":20},{"name":"E_COORD97","type":"esriFieldTypeDouble","alias":"E_COORD97"},{"name":"N_COORD97","type":"esriFieldTypeDouble","alias":"N_COORD97"},{"name":"ADDRESS","type":"esriFieldTypeString","alias":"ADDRESS","length":50},{"name":"OBJECTID","type":"esriFieldTypeOID","alias":"OBJECTID"}],"features":[{"attributes":{"ID":520228,"DIS_CODE":0,"TOWNNAME":"永康區","LI":"埔園里","LIN":"35鄰","STREET":"自強路","SECT":" ","MAREA":" ","LANE":" ","ALLEY":" ","HOUSE_NO":"６１３號","E_COORD97":174188.57999999999,"N_COORD97":2548336.5600000001,"ADDRESS":"自強路６１３號","OBJECTID":520201},"geometry":{"x":174188.58000000101,"y":2548336.5600000005}},{"attributes":{"ID":520229,"DIS_CODE":0,"TOWNNAME":"永康區","LI":"埔園里","LIN":"35鄰","STREET":"永大路","SECT":"三段","MAREA":" ","LANE":" ","ALLEY":" ","HOUSE_NO":"４４０號","E_COORD97":174111.82000000001,"N_COORD97":2548399.2799999998,"ADDRESS":"永大路三段４４０號","OBJECTID":520202},"geometry":{"x":174111.8200000003,"y":2548399.2800000012}},{"attributes":{"ID":520230,"DIS_CODE":0,"TOWNNAME":"永康區","LI":"埔園里","LIN":"35鄰","STREET":"自強路","SECT":" ","MAREA":" ","LANE":" ","ALLEY":" ","HOUSE_NO":"６７７號","E_COORD97":174323.70000000001,"N_COORD97":2548438.5699999998,"ADDRESS":"自強路６７７號","OBJECTID":520203},"geometry":{"x":174323.70000000112,"y":2548438.570000004}},{"attributes":{"ID":520231,"DIS_CODE":0,"TOWNNAME":"永康區","LI":"埔園里","LIN":"35鄰","STREET":"自強路","SECT":" ","MAREA":" ","LANE":" ","ALLEY":" ","HOUSE_NO":"６４１號","E_COORD97":174238.14000000001,"N_COORD97":2548375.1000000001,"ADDRESS":"自強路６４１號","OBJECTID":520204},"geometry":{"x":174238.13999999966,"y":2548375.0999999996}},{"attributes":{"ID":520232,"DIS_CODE":0,"TOWNNAME":"永康區","LI":"埔園里","LIN":"35鄰","STREET":"永大路","SECT":"三段","MAREA":" ","LANE":" ","ALLEY":" ","HOUSE_NO":"４４２號","E_COORD97":174111.75,"N_COORD97":2548403.5299999998,"ADDRESS":"永大路三段４４２號","OBJECTID":520205},"geometry":{"x":174111.75,"y":2548403.5299999975}},{"attributes":{"ID":520233,"DIS_CODE":0,"TOWNNAME":"永康區","LI":"埔園里","LIN":"35鄰","STREET":"自強路","SECT":" ","MAREA":" ","LANE":" ","ALLEY":" ","HOUSE_NO":"６９１號","E_COORD97":174347.22,"N_COORD97":2548458.0699999998,"ADDRESS":"自強路６９１號","OBJECTID":520206},"geometry":{"x":174347.22000000067,"y":2548458.0700000003}},{"attributes":{"ID":520234,"DIS_CODE":0,"TOWNNAME":"永康區","LI":"埔園里","LIN":"35鄰","STREET":"自強路","SECT":" ","MAREA":" ","LANE":" ","ALLEY":" ","HOUSE_NO":"６８７號","E_COORD97":174340.22,"N_COORD97":2548452.5699999998,"ADDRESS":"自強路６８７號","OBJECTID":520207},"geometry":{"x":174340.22000000067,"y":2548452.5700000022}},{"attributes":{"ID":520235,"DIS_CODE":0,"TOWNNAME":"佳里區","LI":"建南里","LIN":"35鄰","STREET":"公園路","SECT":" ","MAREA":" ","LANE":" ","ALLEY":" ","HOUSE_NO":"２７３號","E_COORD97":165252.51000000001,"N_COORD97":2562068.0099999998,"ADDRESS":"公園路２７３號","OBJECTID":520208},"geometry":{"x":165252.50999999978,"y":2562068.0100000016}},{"attributes":{"ID":520236,"DIS_CODE":0,"TOWNNAME":"佳里區","LI":"建南里","LIN":"35鄰","STREET":"公園路","SECT":" ","MAREA":" ","LANE":" ","ALLEY":" ","HOUSE_NO":"２７５號","E_COORD97":165251.76000000001,"N_COORD97":2562072.0499999998,"ADDRESS":"公園路２７５號","OBJECTID":520209},"geometry":{"x":165251.76000000071,"y":2562072.0500000026}},{"attributes":{"ID":520237,"DIS_CODE":0,"TOWNNAME":"佳里區","LI":"建南里","LIN":"35鄰","STREET":"公園路","SECT":" ","MAREA":" ","LANE":" ","ALLEY":" ","HOUSE_NO":"２７７號","E_COORD97":165251.17000000001,"N_COORD97":2562076.1200000001,"ADDRESS":"公園路２７７號","OBJECTID":520210},"geometry":{"x":165251.17000000086,"y":2562076.1200000029}},{"attributes":{"ID":520238,"DIS_CODE":0,"TOWNNAME":"佳里區","LI":"建南里","LIN":"35鄰","STREET":"公園路","SECT":" ","MAREA":" ","LANE":" ","ALLEY":" ","HOUSE_NO":"２７９號","E_COORD97":165251.07000000001,"N_COORD97":2562080.2400000002,"ADDRESS":"公園路２７９號","OBJECTID":520211},"geometry":{"x":165251.0700000003,"y":2562080.2400000039}},{"attributes":{"ID":520239,"DIS_CODE":0,"TOWNNAME":"佳里區","LI":"建南里","LIN":"35鄰","STREET":"公園路","SECT":" ","MAREA":" ","LANE":" ","ALLEY":" ","HOUSE_NO":"２８１號","E_COORD97":165250.12,"N_COORD97":2562084.1099999999,"ADDRESS":"公園路２８１號","OBJECTID":520212},"geometry":{"x":165250.12000000104,"y":2562084.1100000013}},{"attributes":{"ID":520240,"DIS_CODE":0,"TOWNNAME":"佳里區","LI":"建南里","LIN":"35鄰","STREET":"公園路","SECT":" ","MAREA":" ","LANE":" ","ALLEY":" ","HOUSE_NO":"２８５號","E_COORD97":165247.64999999999,"N_COORD97":2562101.79,"ADDRESS":"公園路２８５號","OBJECTID":520213},"geometry":{"x":165247.65000000037,"y":2562101.7899999991}},{"attributes":{"ID":520241,"DIS_CODE":0,"TOWNNAME":"佳里區","LI":"建南里","LIN":"35鄰","STREET":"公園路","SECT":" ","MAREA":" ","LANE":" ","ALLEY":" ","HOUSE_NO":"２８７號","E_COORD97":165247.79999999999,"N_COORD97":2562105.9500000002,"ADDRESS":"公園路２８７號","OBJECTID":520214},"geometry":{"x":165247.79999999888,"y":2562105.9500000011}},{"attributes":{"ID":520242,"DIS_CODE":0,"TOWNNAME":"佳里區","LI":"建南里","LIN":"35鄰","STREET":"公園路","SECT":" ","MAREA":" ","LANE":" ","ALLEY":" ","HOUSE_NO":"２８９號","E_COORD97":165247.35999999999,"N_COORD97":2562109.9199999999,"ADDRESS":"公園路２８９號","OBJECTID":520215},"geometry":{"x":165247.36000000034,"y":2562109.9200000018}},{"attributes":{"ID":520243,"DIS_CODE":0,"TOWNNAME":"佳里區","LI":"建南里","LIN":"35鄰","STREET":"公園路","SECT":" ","MAREA":" ","LANE":" ","ALLEY":" ","HOUSE_NO":"２９１號","E_COORD97":165247.07999999999,"N_COORD97":2562113.7400000002,"ADDRESS":"公園路２９１號","OBJECTID":520216},"geometry":{"x":165247.08000000101,"y":2562113.7399999984}},{"attributes":{"ID":520244,"DIS_CODE":0,"TOWNNAME":"佳里區","LI":"建南里","LIN":"35鄰","STREET":"公園路","SECT":" ","MAREA":" ","LANE":" ","ALLEY":" ","HOUSE_NO":"２９３號","E_COORD97":165246.56,"N_COORD97":2562117.29,"ADDRESS":"公園路２９３號","OBJECTID":520217},"geometry":{"x":165246.56000000052,"y":2562117.290000001}},{"attributes":{"ID":520245,"DIS_CODE":0,"TOWNNAME":"佳里區","LI":"建南里","LIN":"35鄰","STREET":"公園路","SECT":" ","MAREA":" ","LANE":" ","ALLEY":" ","HOUSE_NO":"２９５號","E_COORD97":165245.79000000001,"N_COORD97":2562121.9100000001,"ADDRESS":"公園路２９５號","OBJECTID":520218},"geometry":{"x":165245.79000000004,"y":2562121.9100000001}},{"attributes":{"ID":520246,"DIS_CODE":0,"TOWNNAME":"永康區","LI":"東橋里","LIN":"14鄰","STREET":"東橋一路","SECT":" ","MAREA":" ","LANE":" ","ALLEY":" ","HOUSE_NO":"２６０號","E_COORD97":171415.85000000001,"N_COORD97":2546638.5800000001,"ADDRESS":"東橋一路２６０號","OBJECTID":520219},"geometry":{"x":171415.84999999963,"y":2546638.5800000019}},{"attributes":{"ID":520247,"DIS_CODE":0,"TOWNNAME":"西港區","LI":"慶安里","LIN":"35鄰","STREET":"中山路","SECT":" ","MAREA":" ","LANE":" ","ALLEY":" ","HOUSE_NO":"７３號","E_COORD97":168472.87,"N_COORD97":2557251.4399999999,"ADDRESS":"中山路７３號","OBJECTID":520220},"geometry":{"x":168472.87000000011,"y":2557251.4400000013}},{"attributes":{"ID":520248,"DIS_CODE":0,"TOWNNAME":"西港區","LI":"慶安里","LIN":"35鄰","STREET":"中山路","SECT":" ","MAREA":" ","LANE":" ","ALLEY":" ","HOUSE_NO":"７７號","E_COORD97":168466.09,"N_COORD97":2557269.1800000002,"ADDRESS":"中山路７７號","OBJECTID":520221},"geometry":{"x":168466.08999999985,"y":2557269.1800000034}},{"attributes":{"ID":520249,"DIS_CODE":0,"TOWNNAME":"西港區","LI":"慶安里","LIN":"35鄰","STREET":"中山路","SECT":" ","MAREA":" ","LANE":" ","ALLEY":" ","HOUSE_NO":"５５號","E_COORD97":168479.14000000001,"N_COORD97":2557204.2200000002,"ADDRESS":"中山路５５號","OBJECTID":520222},"geometry":{"x":168479.13999999966,"y":2557204.2200000007}},{"attributes":{"ID":520250,"DIS_CODE":0,"TOWNNAME":"西港區","LI":"慶安里","LIN":"35鄰","STREET":"中山路","SECT":" ","MAREA":" ","LANE":" ","ALLEY":" ","HOUSE_NO":"８１號","E_COORD97":168472.59,"N_COORD97":2557308.5499999998,"ADDRESS":"中山路８１號","OBJECTID":520223},"geometry":{"x":168472.59000000078,"y":2557308.5500000026}},{"attributes":{"ID":520251,"DIS_CODE":0,"TOWNNAME":"西港區","LI":"慶安里","LIN":"35鄰","STREET":"中山路","SECT":" ","MAREA":" ","LANE":" ","ALLEY":" ","HOUSE_NO":"６３號","E_COORD97":168478.07999999999,"N_COORD97":2557209.8999999999,"ADDRESS":"中山路６３號","OBJECTID":520224},"geometry":{"x":168478.08000000101,"y":2557209.9000000004}},{"attributes":{"ID":520252,"DIS_CODE":0,"TOWNNAME":"西港區","LI":"慶安里","LIN":"35鄰","STREET":"中山路","SECT":" ","MAREA":" ","LANE":" ","ALLEY":" ","HOUSE_NO":"４９號","E_COORD97":168438.09,"N_COORD97":2557196.29,"ADDRESS":"中山路４９號","OBJECTID":520225},"geometry":{"x":168438.09000000171,"y":2557196.2900000028}},{"attributes":{"ID":520253,"DIS_CODE":0,"TOWNNAME":"西港區","LI":"慶安里","LIN":"35鄰","STREET":"中山路","SECT":" ","MAREA":" ","LANE":" ","ALLEY":" ","HOUSE_NO":"５３號之１","E_COORD97":168429.54000000001,"N_COORD97":2557218.98,"ADDRESS":"中山路５３號之１","OBJECTID":520226},"geometry":{"x":168429.54000000004,"y":2557218.9800000004}},{"attributes":{"ID":520254,"DIS_CODE":0,"TOWNNAME":"西港區","LI":"慶安里","LIN":"35鄰","STREET":"中山路","SECT":" ","MAREA":" ","LANE":" ","ALLEY":" ","HOUSE_NO":"５３號之２","E_COORD97":168400.97,"N_COORD97":2557193.9399999999,"ADDRESS":"中山路５３號之２","OBJECTID":520227},"geometry":{"x":168400.96999999974,"y":2557193.9400000013}},{"attributes":{"ID":520255,"DIS_CODE":0,"TOWNNAME":"西港區","LI":"慶安里","LIN":"35鄰","STREET":"中山路","SECT":" ","MAREA":" ","LANE":" ","ALLEY":" ","HOUSE_NO":"５３號","E_COORD97":168441.78,"N_COORD97":2557209.8999999999,"ADDRESS":"中山路５３號","OBJECTID":520228},"geometry":{"x":168441.78000000026,"y":2557209.9000000004}},{"attributes":{"ID":520256,"DIS_CODE":0,"TOWNNAME":"西港區","LI":"慶安里","LIN":"35鄰","STREET":"中山路","SECT":" ","MAREA":" ","LANE":" ","ALLEY":" ","HOUSE_NO":"６９號","E_COORD97":168474.60999999999,"N_COORD97":2557234.3700000001,"ADDRESS":"中山路６９號","OBJECTID":520229},"geometry":{"x":168474.61000000127,"y":2557234.370000001}},{"attributes":{"ID":520257,"DIS_CODE":0,"TOWNNAME":"西港區","LI":"慶安里","LIN":"35鄰","STREET":"中山路","SECT":" ","MAREA":" ","LANE":" ","ALLEY":" ","HOUSE_NO":"８５之１號","E_COORD97":168461.12,"N_COORD97":2557345.21,"ADDRESS":"中山路８５之１號","OBJECTID":520230},"geometry":{"x":168461.12000000011,"y":2557345.2100000028}},{"attributes":{"ID":520258,"DIS_CODE":0,"TOWNNAME":"西港區","LI":"慶安里","LIN":"35鄰","STREET":"中山路","SECT":" ","MAREA":" ","LANE":" ","ALLEY":" ","HOUSE_NO":"８５號之３","E_COORD97":168462.37,"N_COORD97":2557351.6899999999,"ADDRESS":"中山路８５號之３","OBJECTID":520231},"geometry":{"x":168462.37000000104,"y":2557351.6899999995}},{"attributes":{"ID":520259,"DIS_CODE":0,"TOWNNAME":"東區","LI":"忠孝里","LIN":"35鄰","STREET":"崇明路","SECT":" ","MAREA":" ","LANE":" ","ALLEY":" ","HOUSE_NO":"４０號","E_COORD97":169653.75,"N_COORD97":2542409.25,"ADDRESS":"崇明路４０號","OBJECTID":520232},"geometry":{"x":169653.75,"y":2542409.2500000019}},{"attributes":{"ID":520260,"DIS_CODE":0,"TOWNNAME":"東區","LI":"忠孝里","LIN":"35鄰","STREET":"崇明路","SECT":" ","MAREA":" ","LANE":" ","ALLEY":" ","HOUSE_NO":"４２號","E_COORD97":169658.04999999999,"N_COORD97":2542405.6400000001,"ADDRESS":"崇明路４２號","OBJECTID":520233},"geometry":{"x":169658.04999999981,"y":2542405.6400000006}},{"attributes":{"ID":520261,"DIS_CODE":0,"TOWNNAME":"東區","LI":"中西里","LIN":"35鄰","STREET":"林森路","SECT":"二段","MAREA":" ","LANE":" ","ALLEY":" ","HOUSE_NO":"１０９號","E_COORD97":170412.79000000001,"N_COORD97":2543407.3599999999,"ADDRESS":"林森路二段１０９號","OBJECTID":520234},"geometry":{"x":170412.79000000004,"y":2543407.3599999975}},{"attributes":{"ID":520262,"DIS_CODE":0,"TOWNNAME":"東區","LI":"中西里","LIN":"35鄰","STREET":"林森路","SECT":"二段","MAREA":" ","LANE":" ","ALLEY":" ","HOUSE_NO":"１０３號","E_COORD97":170423.94,"N_COORD97":2543382.3599999999,"ADDRESS":"林森路二段１０３號","OBJECTID":520235},"geometry":{"x":170423.94000000041,"y":2543382.3599999994}},{"attributes":{"ID":520263,"DIS_CODE":0,"TOWNNAME":"東區","LI":"中西里","LIN":"35鄰","STREET":"林森路","SECT":"二段","MAREA":" ","LANE":" ","ALLEY":" ","HOUSE_NO":"１０５號","E_COORD97":170427.48000000001,"N_COORD97":2543390.7400000002,"ADDRESS":"林森路二段１０５號","OBJECTID":520236},"geometry":{"x":170427.48000000045,"y":2543390.7400000002}},{"attributes":{"ID":520264,"DIS_CODE":0,"TOWNNAME":"東區","LI":"忠孝里","LIN":"35鄰","STREET":"崇明路","SECT":" ","MAREA":" ","LANE":" ","ALLEY":" ","HOUSE_NO":"２６號","E_COORD97":169632.94,"N_COORD97":2542441.7799999998,"ADDRESS":"崇明路２６號","OBJECTID":520237},"geometry":{"x":169632.93999999948,"y":2542441.7800000031}},{"attributes":{"ID":520265,"DIS_CODE":0,"TOWNNAME":"東區","LI":"忠孝里","LIN":"35鄰","STREET":"崇明路","SECT":" ","MAREA":" ","LANE":" ","ALLEY":" ","HOUSE_NO":"５２號","E_COORD97":169666.87,"N_COORD97":2542386.21,"ADDRESS":"崇明路５２號","OBJECTID":520238},"geometry":{"x":169666.87000000011,"y":2542386.2100000046}},{"attributes":{"ID":520266,"DIS_CODE":0,"TOWNNAME":"東區","LI":"忠孝里","LIN":"35鄰","STREET":"崇明路","SECT":" ","MAREA":" ","LANE":" ","ALLEY":" ","HOUSE_NO":"５４號","E_COORD97":169669.35000000001,"N_COORD97":2542382.1499999999,"ADDRESS":"崇明路５４號","OBJECTID":520239},"geometry":{"x":169669.34999999963,"y":2542382.1500000004}},{"attributes":{"ID":520267,"DIS_CODE":0,"TOWNNAME":"東區","LI":"忠孝里","LIN":"35鄰","STREET":"崇明路","SECT":" ","MAREA":" ","LANE":" ","ALLEY":" ","HOUSE_NO":"５６號","E_COORD97":169670.70999999999,"N_COORD97":2542378.5299999998,"ADDRESS":"崇明路５６號","OBJECTID":520240},"geometry":{"x":169670.70999999996,"y":2542378.5299999993}},{"attributes":{"ID":520268,"DIS_CODE":0,"TOWNNAME":"東區","LI":"忠孝里","LIN":"35鄰","STREET":"崇明路","SECT":" ","MAREA":" ","LANE":" ","ALLEY":" ","HOUSE_NO":"５８號","E_COORD97":169671.62,"N_COORD97":2542374.0099999998,"ADDRESS":"崇明路５８號","OBJECTID":520241},"geometry":{"x":169671.62000000011,"y":2542374.0100000016}},{"attributes":{"ID":520269,"DIS_CODE":0,"TOWNNAME":"東區","LI":"虎尾里","LIN":"35鄰","STREET":"富農街","SECT":"一段","MAREA":" ","LANE":" ","ALLEY":" ","HOUSE_NO":"１９號","E_COORD97":171471.45999999999,"N_COORD97":2542140.9700000002,"ADDRESS":"富農街一段１９號","OBJECTID":520242},"geometry":{"x":171471.45999999996,"y":2542140.9700000025}},{"attributes":{"ID":520270,"DIS_CODE":0,"TOWNNAME":"新市區","LI":"新和里","LIN":"35鄰","STREET":"仁愛街","SECT":" ","MAREA":" ","LANE":" ","ALLEY":" ","HOUSE_NO":"２６７號","E_COORD97":177626.17000000001,"N_COORD97":2552965.0299999998,"ADDRESS":"仁愛街２６７號","OBJECTID":520243},"geometry":{"x":177626.17000000086,"y":2552965.0300000012}},{"attributes":{"ID":520271,"DIS_CODE":0,"TOWNNAME":"永康區","LI":"永康里","LIN":"32鄰","STREET":"大同街","SECT":" ","MAREA":" ","LANE":" ","ALLEY":" ","HOUSE_NO":"９７２之１號","E_COORD97":174400.78,"N_COORD97":2547100.1699999999,"ADDRESS":"大同街９７２之１號","OBJECTID":520244},"geometry":{"x":174400.78000000212,"y":2547100.1699999999}},{"attributes":{"ID":520272,"DIS_CODE":0,"TOWNNAME":"永康區","LI":"\u25A0洲里","LIN":"1鄰","STREET":"三村一街","SECT":" ","MAREA":" ","LANE":" ","ALLEY":" ","HOUSE_NO":"１７８號","E_COORD97":171909.54999999999,"N_COORD97":2549301.6899999999,"ADDRESS":"三村一街１７８號","OBJECTID":520245},"geometry":{"x":171909.54999999981,"y":2549301.6900000013}},{"attributes":{"ID":520273,"DIS_CODE":0,"TOWNNAME":"永康區","LI":"埔園里","LIN":"35鄰","STREET":"龍中街","SECT":" ","MAREA":" ","LANE":" ","ALLEY":" ","HOUSE_NO":"４６９號","E_COORD97":174354.98999999999,"N_COORD97":2548332.5800000001,"ADDRESS":"龍中街４６９號","OBJECTID":520246},"geometry":{"x":174354.99000000022,"y":2548332.5800000001}},{"attributes":{"ID":520274,"DIS_CODE":0,"TOWNNAME":"永康區","LI":"埔園里","LIN":"35鄰","STREET":"自強路","SECT":" ","MAREA":" ","LANE":" ","ALLEY":" ","HOUSE_NO":"６２３號","E_COORD97":174204.97,"N_COORD97":2548350.0600000001,"ADDRESS":"自強路６２３號","OBJECTID":520247},"geometry":{"x":174204.96999999974,"y":2548350.0600000005}},{"attributes":{"ID":520275,"DIS_CODE":0,"TOWNNAME":"永康區","LI":"埔園里","LIN":"35鄰","STREET":"自強路","SECT":" ","MAREA":" ","LANE":" ","ALLEY":" ","HOUSE_NO":"６２７號","E_COORD97":174212.13,"N_COORD97":2548355.8100000001,"ADDRESS":"自強路６２７號","OBJECTID":520248},"geometry":{"x":174212.13000000082,"y":2548355.8100000042}},{"attributes":{"ID":520276,"DIS_CODE":0,"TOWNNAME":"永康區","LI":"埔園里","LIN":"35鄰","STREET":"永大路","SECT":"三段","MAREA":" ","LANE":" ","ALLEY":" ","HOUSE_NO":"４３０號","E_COORD97":174114.76000000001,"N_COORD97":2548382.2799999998,"ADDRESS":"永大路三段４３０號","OBJECTID":520249},"geometry":{"x":174114.76000000071,"y":2548382.2800000012}},{"attributes":{"ID":520277,"DIS_CODE":0,"TOWNNAME":"永康區","LI":"埔園里","LIN":"35鄰","STREET":"自強路","SECT":" ","MAREA":" ","LANE":" ","ALLEY":" ","HOUSE_NO":"６４５號","E_COORD97":174244.87,"N_COORD97":2548380.6000000001,"ADDRESS":"自強路６４５號","OBJECTID":520250},"geometry":{"x":174244.87000000104,"y":2548380.6000000015}},{"attributes":{"ID":520278,"DIS_CODE":0,"TOWNNAME":"永康區","LI":"東橋里","LIN":"17鄰","STREET":"東橋三路","SECT":" ","MAREA":" ","LANE":" ","ALLEY":" ","HOUSE_NO":"２０７號","E_COORD97":171429.67000000001,"N_COORD97":2546895.7999999998,"ADDRESS":"東橋三路２０７號","OBJECTID":520251},"geometry":{"x":171429.67000000179,"y":2546895.8000000026}},{"attributes":{"ID":520279,"DIS_CODE":0,"TOWNNAME":"永康區","LI":"埔園里","LIN":"35鄰","STREET":"自強路","SECT":" ","MAREA":" ","LANE":" ","ALLEY":" ","HOUSE_NO":"６０９號","E_COORD97":174182.07999999999,"N_COORD97":2548330.8100000001,"ADDRESS":"自強路６０９號","OBJECTID":520252},"geometry":{"x":174182.08000000101,"y":2548330.8100000005}},{"attributes":{"ID":520280,"DIS_CODE":0,"TOWNNAME":"永康區","LI":"埔園里","LIN":"35鄰","STREET":"永大路","SECT":"三段","MAREA":" ","LANE":" ","ALLEY":" ","HOUSE_NO":"４２０號","E_COORD97":174116.89000000001,"N_COORD97":2548365.02,"ADDRESS":"永大路三段４２０號","OBJECTID":520253},"geometry":{"x":174116.8900000006,"y":2548365.0199999996}},{"attributes":{"ID":520281,"DIS_CODE":0,"TOWNNAME":"永康區","LI":"埔園里","LIN":"35鄰","STREET":"自強路","SECT":" ","MAREA":" ","LANE":" ","ALLEY":" ","HOUSE_NO":"６４３號","E_COORD97":174241.62,"N_COORD97":2548377.8500000001,"ADDRESS":"自強路６４３號","OBJECTID":520254},"geometry":{"x":174241.62000000011,"y":2548377.8499999978}},{"attributes":{"ID":520282,"DIS_CODE":0,"TOWNNAME":"永康區","LI":"埔園里","LIN":"35鄰","STREET":"自強路","SECT":" ","MAREA":" ","LANE":" ","ALLEY":" ","HOUSE_NO":"６３１號","E_COORD97":174218.47,"N_COORD97":2548360.8100000001,"ADDRESS":"自強路６３１號","OBJECTID":520255},"geometry":{"x":174218.46999999974,"y":2548360.8100000005}},{"attributes":{"ID":520283,"DIS_CODE":0,"TOWNNAME":"永康區","LI":"埔園里","LIN":"35鄰","STREET":"自強路","SECT":" ","MAREA":" ","LANE":" ","ALLEY":" ","HOUSE_NO":"６８１號","E_COORD97":174331.06,"N_COORD97":2548445.3199999998,"ADDRESS":"自強路６８１號","OBJECTID":520256},"geometry":{"x":174331.06000000052,"y":2548445.3200000003}},{"attributes":{"ID":520284,"DIS_CODE":0,"TOWNNAME":"東區","LI":"崇文里","LIN":"35鄰","STREET":"崇德二十二街","SECT":" ","MAREA":" ","LANE":" ","ALLEY":" ","HOUSE_NO":"１２８號","E_COORD97":171151.82999999999,"N_COORD97":2540797.2200000002,"ADDRESS":"崇德二十二街１２８號","OBJECTID":520257},"geometry":{"x":171151.83000000007,"y":2540797.2200000025}},{"attributes":{"ID":520285,"DIS_CODE":0,"TOWNNAME":"仁德區","LI":"後壁里","LIN":"35鄰","STREET":"德洋二街","SECT":" ","MAREA":" ","LANE":" ","ALLEY":" ","HOUSE_NO":"３６號","E_COORD97":172372.88,"N_COORD97":2539471.77,"ADDRESS":"德洋二街３６號","OBJECTID":520258},"geometry":{"x":172372.88000000082,"y":2539471.7699999996}},{"attributes":{"ID":520286,"DIS_CODE":0,"TOWNNAME":"仁德區","LI":"仁義里","LIN":"35鄰","STREET":"中正路","SECT":"二段","MAREA":" ","LANE":" ","ALLEY":" ","HOUSE_NO":"６５４號","E_COORD97":173390.78,"N_COORD97":2539824.0299999998,"ADDRESS":"中正路二段６５４號","OBJECTID":520259},"geometry":{"x":173390.78000000119,"y":2539824.0300000012}},{"attributes":{"ID":520287,"DIS_CODE":0,"TOWNNAME":"仁德區","LI":"仁德里","LIN":"35鄰","STREET":"裕華三街","SECT":" ","MAREA":" ","LANE":" ","ALLEY":" ","HOUSE_NO":"３２７號","E_COORD97":172784.95000000001,"N_COORD97":2541720.2400000002,"ADDRESS":"裕華三街３２７號","OBJECTID":520260},"geometry":{"x":172784.95000000019,"y":2541720.2400000002}},{"attributes":{"ID":520288,"DIS_CODE":0,"TOWNNAME":"仁德區","LI":"仁義里","LIN":"35鄰","STREET":"中正路","SECT":"二段","MAREA":" ","LANE":" ","ALLEY":" ","HOUSE_NO":"６６４號","E_COORD97":173392.84,"N_COORD97":2539847.77,"ADDRESS":"中正路二段６６４號","OBJECTID":520261},"geometry":{"x":173392.83999999985,"y":2539847.7699999996}},{"attributes":{"ID":520289,"DIS_CODE":0,"TOWNNAME":"仁德區","LI":"仁德里","LIN":"35鄰","STREET":"文山路","SECT":" ","MAREA":" ","LANE":" ","ALLEY":" ","HOUSE_NO":"１０５號","E_COORD97":172821.26999999999,"N_COORD97":2541747.8300000001,"ADDRESS":"文山路１０５號","OBJECTID":520262},"geometry":{"x":172821.26999999955,"y":2541747.8300000019}},{"attributes":{"ID":520290,"DIS_CODE":0,"TOWNNAME":"仁德區","LI":"仁義里","LIN":"35鄰","STREET":"中正路","SECT":"二段","MAREA":" ","LANE":" ","ALLEY":" ","HOUSE_NO":"６８６號","E_COORD97":173399.91,"N_COORD97":2539911.2799999998,"ADDRESS":"中正路二段６８６號","OBJECTID":520263},"geometry":{"x":173399.91000000108,"y":2539911.2799999993}},{"attributes":{"ID":520291,"DIS_CODE":0,"TOWNNAME":"仁德區","LI":"太子里","LIN":"35鄰","STREET":"太子路","SECT":" ","MAREA":" ","LANE":" ","ALLEY":" ","HOUSE_NO":"４５５號","E_COORD97":174230.81,"N_COORD97":2543493,"ADDRESS":"太子路４５５號","OBJECTID":520264},"geometry":{"x":174230.81000000052,"y":2543493.0000000019}},{"attributes":{"ID":520292,"DIS_CODE":0,"TOWNNAME":"仁德區","LI":"後壁里","LIN":"35鄰","STREET":"德洋二街","SECT":" ","MAREA":" ","LANE":" ","ALLEY":" ","HOUSE_NO":"２６號","E_COORD97":172373.70999999999,"N_COORD97":2539449.5099999998,"ADDRESS":"德洋二街２６號","OBJECTID":520265},"geometry":{"x":172373.71000000089,"y":2539449.5099999998}},{"attributes":{"ID":520293,"DIS_CODE":0,"TOWNNAME":"西港區","LI":"慶安里","LIN":"35鄰","STREET":"新興街","SECT":" ","MAREA":" ","LANE":" ","ALLEY":" ","HOUSE_NO":"３之５號","E_COORD97":168319.95999999999,"N_COORD97":2557148.0899999999,"ADDRESS":"新興街３之５號","OBJECTID":520266},"geometry":{"x":168319.95999999996,"y":2557148.0900000017}},{"attributes":{"ID":520294,"DIS_CODE":0,"TOWNNAME":"西港區","LI":"慶安里","LIN":"35鄰","STREET":"新興街","SECT":" ","MAREA":" ","LANE":" ","ALLEY":" ","HOUSE_NO":"３號之６","E_COORD97":168319.82000000001,"N_COORD97":2557152.2599999998,"ADDRESS":"新興街３號之６","OBJECTID":520267},"geometry":{"x":168319.81999999937,"y":2557152.2599999998}},{"attributes":{"ID":520295,"DIS_CODE":0,"TOWNNAME":"西港區","LI":"慶安里","LIN":"35鄰","STREET":"新興街","SECT":" ","MAREA":" ","LANE":" ","ALLEY":" ","HOUSE_NO":"３號之９","E_COORD97":168316.01000000001,"N_COORD97":2557177.6099999999,"ADDRESS":"新興街３號之９","OBJECTID":520268},"geometry":{"x":168316.00999999978,"y":2557177.6100000031}},{"attributes":{"ID":520296,"DIS_CODE":0,"TOWNNAME":"西港區","LI":"慶安里","LIN":"35鄰","STREET":"新興街","SECT":" ","MAREA":" ","LANE":" ","ALLEY":" ","HOUSE_NO":"５號之８","E_COORD97":168282.64999999999,"N_COORD97":2557244.5699999998,"ADDRESS":"新興街５號之８","OBJECTID":520269},"geometry":{"x":168282.6500000013,"y":2557244.5700000022}},{"attributes":{"ID":520297,"DIS_CODE":0,"TOWNNAME":"西港區","LI":"慶安里","LIN":"35鄰","STREET":"新興街","SECT":" ","MAREA":" ","LANE":" ","ALLEY":" ","HOUSE_NO":"５號","E_COORD97":168313.10999999999,"N_COORD97":2557194.25,"ADDRESS":"新興街５號","OBJECTID":520270},"geometry":{"x":168313.11000000127,"y":2557194.2500000037}},{"attributes":{"ID":520298,"DIS_CODE":0,"TOWNNAME":"西港區","LI":"慶安里","LIN":"35鄰","STREET":"新興街","SECT":" ","MAREA":" ","LANE":" ","ALLEY":" ","HOUSE_NO":"６號之１２","E_COORD97":168358.63,"N_COORD97":2557180.8100000001,"ADDRESS":"新興街６號之１２","OBJECTID":520271},"geometry":{"x":168358.63000000082,"y":2557180.8100000042}},{"attributes":{"ID":520299,"DIS_CODE":0,"TOWNNAME":"西港區","LI":"慶安里","LIN":"35鄰","STREET":"新興街","SECT":" ","MAREA":" ","LANE":" ","ALLEY":" ","HOUSE_NO":"６號之１３","E_COORD97":168357.53,"N_COORD97":2557184.4700000002,"ADDRESS":"新興街６號之１３","OBJECTID":520272},"geometry":{"x":168357.53000000212,"y":2557184.4700000025}},{"attributes":{"ID":520300,"DIS_CODE":0,"TOWNNAME":"西港區","LI":"慶安里","LIN":"35鄰","STREET":"新興街","SECT":" ","MAREA":" ","LANE":" ","ALLEY":" ","HOUSE_NO":"８號之１１","E_COORD97":168346.14000000001,"N_COORD97":2557257.4900000002,"ADDRESS":"新興街８號之１１","OBJECTID":520273},"geometry":{"x":168346.1400000006,"y":2557257.4900000021}},{"attributes":{"ID":520301,"DIS_CODE":0,"TOWNNAME":"西港區","LI":"慶安里","LIN":"35鄰","STREET":"新興街","SECT":" ","MAREA":" ","LANE":" ","ALLEY":" ","HOUSE_NO":"８號","E_COORD97":168355.29999999999,"N_COORD97":2557196.5499999998,"ADDRESS":"新興街８號","OBJECTID":520274},"geometry":{"x":168355.30000000075,"y":2557196.5500000045}},{"attributes":{"ID":520302,"DIS_CODE":0,"TOWNNAME":"永康區","LI":"埔園里","LIN":"35鄰","STREET":"自強路","SECT":" ","MAREA":" ","LANE":" ","ALLEY":" ","HOUSE_NO":"６５７號","E_COORD97":174289.57000000001,"N_COORD97":2548416.0499999998,"ADDRESS":"自強路６５７號","OBJECTID":520275},"geometry":{"x":174289.5700000003,"y":2548416.0500000026}},{"attributes":{"ID":520303,"DIS_CODE":0,"TOWNNAME":"永康區","LI":"埔園里","LIN":"35鄰","STREET":"自強路","SECT":" ","MAREA":" ","LANE":" ","ALLEY":" ","HOUSE_NO":"６７９號","E_COORD97":174327.14000000001,"N_COORD97":2548442.3199999998,"ADDRESS":"自強路６７９號","OBJECTID":520276},"geometry":{"x":174327.1400000006,"y":2548442.3200000003}},{"attributes":{"ID":520304,"DIS_CODE":0,"TOWNNAME":"永康區","LI":"埔園里","LIN":"35鄰","STREET":"自強路","SECT":" ","MAREA":" ","LANE":" ","ALLEY":" ","HOUSE_NO":"６２５號","E_COORD97":174208.22,"N_COORD97":2548352.8100000001,"ADDRESS":"自強路６２５號","OBJECTID":520277},"geometry":{"x":174208.22000000067,"y":2548352.8100000024}},{"attributes":{"ID":520305,"DIS_CODE":0,"TOWNNAME":"永康區","LI":"埔園里","LIN":"35鄰","STREET":"自強路","SECT":" ","MAREA":" ","LANE":" ","ALLEY":" ","HOUSE_NO":"６３９號","E_COORD97":174234.89000000001,"N_COORD97":2548372.3500000001,"ADDRESS":"自強路６３９號","OBJECTID":520278},"geometry":{"x":174234.88999999873,"y":2548372.3500000015}},{"attributes":{"ID":520306,"DIS_CODE":0,"TOWNNAME":"永康區","LI":"埔園里","LIN":"35鄰","STREET":"自強路","SECT":" ","MAREA":" ","LANE":" ","ALLEY":" ","HOUSE_NO":"６１７號","E_COORD97":174195.32999999999,"N_COORD97":2548342.0600000001,"ADDRESS":"自強路６１７號","OBJECTID":520279},"geometry":{"x":174195.33000000101,"y":2548342.0600000005}},{"attributes":{"ID":520307,"DIS_CODE":0,"TOWNNAME":"永康區","LI":"西灣里","LIN":"35鄰","STREET":"大勇路","SECT":" ","MAREA":" ","LANE":" ","ALLEY":" ","HOUSE_NO":"１６９號","E_COORD97":174287.14000000001,"N_COORD97":2545721.0899999999,"ADDRESS":"大勇路１６９號","OBJECTID":520280},"geometry":{"x":174287.13999999966,"y":2545721.0899999999}},{"attributes":{"ID":520308,"DIS_CODE":0,"TOWNNAME":"仁德區","LI":"仁義里","LIN":"35鄰","STREET":"勝利路","SECT":" ","MAREA":" ","LANE":" ","ALLEY":" ","HOUSE_NO":"４８之２號","E_COORD97":173567.72,"N_COORD97":2539913.5499999998,"ADDRESS":"勝利路４８之２號","OBJECTID":520281},"geometry":{"x":173567.71999999974,"y":2539913.5500000026}},{"attributes":{"ID":520309,"DIS_CODE":0,"TOWNNAME":"東區","LI":"後甲里","LIN":"35鄰","STREET":"中華東路","SECT":"一段","MAREA":" ","LANE":" ","ALLEY":" ","HOUSE_NO":"２３號","E_COORD97":171519.01000000001,"N_COORD97":2543917.1899999999,"ADDRESS":"中華東路一段２３號","OBJECTID":520282},"geometry":{"x":171519.01000000071,"y":2543917.1900000032}},{"attributes":{"ID":520310,"DIS_CODE":0,"TOWNNAME":"東區","LI":"後甲里","LIN":"35鄰","STREET":"中華東路","SECT":"一段","MAREA":" ","LANE":" ","ALLEY":" ","HOUSE_NO":"２７號","E_COORD97":171518.39999999999,"N_COORD97":2543899.7599999998,"ADDRESS":"中華東路一段２７號","OBJECTID":520283},"geometry":{"x":171518.40000000224,"y":2543899.7599999998}},{"attributes":{"ID":520311,"DIS_CODE":0,"TOWNNAME":"東區","LI":"後甲里","LIN":"35鄰","STREET":"中華東路","SECT":"一段","MAREA":" ","LANE":" ","ALLEY":" ","HOUSE_NO":"２９號","E_COORD97":171517.29999999999,"N_COORD97":2543895.25,"ADDRESS":"中華東路一段２９號","OBJECTID":520284},"geometry":{"x":171517.30000000075,"y":2543895.2500000019}},{"attributes":{"ID":520312,"DIS_CODE":0,"TOWNNAME":"東區","LI":"後甲里","LIN":"35鄰","STREET":"中華東路","SECT":"一段","MAREA":" ","LANE":" ","ALLEY":" ","HOUSE_NO":"３７號","E_COORD97":171517.06,"N_COORD97":2543878.5499999998,"ADDRESS":"中華東路一段３７號","OBJECTID":520285},"geometry":{"x":171517.06000000052,"y":2543878.5500000007}},{"attributes":{"ID":520313,"DIS_CODE":0,"TOWNNAME":"東區","LI":"後甲里","LIN":"35鄰","STREET":"中華東路","SECT":"一段","MAREA":" ","LANE":" ","ALLEY":" ","HOUSE_NO":"４１號之１","E_COORD97":171516.57000000001,"N_COORD97":2543860.75,"ADDRESS":"中華東路一段４１號之１","OBJECTID":520286},"geometry":{"x":171516.5700000003,"y":2543860.7500000019}},{"attributes":{"ID":520314,"DIS_CODE":0,"TOWNNAME":"東區","LI":"後甲里","LIN":"35鄰","STREET":"中華東路","SECT":"一段","MAREA":" ","LANE":" ","ALLEY":" ","HOUSE_NO":"６５號","E_COORD97":171505.84,"N_COORD97":2543761.54,"ADDRESS":"中華東路一段６５號","OBJECTID":520287},"geometry":{"x":171505.83999999985,"y":2543761.5399999991}},{"attributes":{"ID":520315,"DIS_CODE":0,"TOWNNAME":"永康區","LI":"龍潭里","LIN":"35鄰","STREET":"自強路","SECT":" ","MAREA":" ","LANE":" ","ALLEY":" ","HOUSE_NO":"８３０號","E_COORD97":174628.82000000001,"N_COORD97":2548650.9199999999,"ADDRESS":"自強路８３０號","OBJECTID":520288},"geometry":{"x":174628.8200000003,"y":2548650.9199999999}},{"attributes":{"ID":520316,"DIS_CODE":0,"TOWNNAME":"西港區","LI":"慶安里","LIN":"35鄰","STREET":"中山路","SECT":" ","MAREA":" ","LANE":" ","ALLEY":" ","HOUSE_NO":"６７號","E_COORD97":168473.45000000001,"N_COORD97":2557225.8799999999,"ADDRESS":"中山路６７號","OBJECTID":520289},"geometry":{"x":168473.45000000112,"y":2557225.8799999971}},{"attributes":{"ID":520317,"DIS_CODE":0,"TOWNNAME":"東區","LI":"虎尾里","LIN":"35鄰","STREET":"富農街","SECT":"一段","MAREA":" ","LANE":" ","ALLEY":" ","HOUSE_NO":"１０號","E_COORD97":171507.85000000001,"N_COORD97":2542028.23,"ADDRESS":"富農街一段１０號","OBJECTID":520290},"geometry":{"x":171507.85000000056,"y":2542028.2300000004}},{"attributes":{"ID":520318,"DIS_CODE":0,"TOWNNAME":"東區","LI":"虎尾里","LIN":"35鄰","STREET":"富農街","SECT":"一段","MAREA":" ","LANE":" ","ALLEY":" ","HOUSE_NO":"１２號","E_COORD97":171508,"N_COORD97":2542032.52,"ADDRESS":"富農街一段１２號","OBJECTID":520291},"geometry":{"x":171508,"y":2542032.5199999996}},{"attributes":{"ID":520319,"DIS_CODE":0,"TOWNNAME":"東區","LI":"虎尾里","LIN":"35鄰","STREET":"富農街","SECT":"一段","MAREA":" ","LANE":" ","ALLEY":" ","HOUSE_NO":"１４號","E_COORD97":171507.23999999999,"N_COORD97":2542036.0499999998,"ADDRESS":"富農街一段１４號","OBJECTID":520292},"geometry":{"x":171507.23999999929,"y":2542036.0500000026}},{"attributes":{"ID":520320,"DIS_CODE":0,"TOWNNAME":"東區","LI":"虎尾里","LIN":"35鄰","STREET":"富農街","SECT":"一段","MAREA":" ","LANE":" ","ALLEY":" ","HOUSE_NO":"１６號","E_COORD97":171506.92999999999,"N_COORD97":2542040.6499999999,"ADDRESS":"富農街一段１６號","OBJECTID":520293},"geometry":{"x":171506.9299999997,"y":2542040.6500000022}},{"attributes":{"ID":520321,"DIS_CODE":0,"TOWNNAME":"東區","LI":"虎尾里","LIN":"35鄰","STREET":"富農街","SECT":"一段","MAREA":" ","LANE":" ","ALLEY":" ","HOUSE_NO":"１８號","E_COORD97":171506.16,"N_COORD97":2542043.5600000001,"ADDRESS":"富農街一段１８號","OBJECTID":520294},"geometry":{"x":171506.16000000201,"y":2542043.5600000005}},{"attributes":{"ID":520322,"DIS_CODE":0,"TOWNNAME":"東區","LI":"虎尾里","LIN":"35鄰","STREET":"富農街","SECT":"一段","MAREA":" ","LANE":" ","ALLEY":" ","HOUSE_NO":"２０號","E_COORD97":171505.85999999999,"N_COORD97":2542047.2400000002,"ADDRESS":"富農街一段２０號","OBJECTID":520295},"geometry":{"x":171505.86000000034,"y":2542047.2400000021}},{"attributes":{"ID":520323,"DIS_CODE":0,"TOWNNAME":"東區","LI":"仁和里","LIN":"15鄰","STREET":"自由路","SECT":"一段","MAREA":" ","LANE":" ","ALLEY":" ","HOUSE_NO":"２８０號","E_COORD97":171842.84,"N_COORD97":2541157.9100000001,"ADDRESS":"自由路一段２８０號","OBJECTID":520296},"geometry":{"x":171842.83999999985,"y":2541157.910000002}},{"attributes":{"ID":520324,"DIS_CODE":0,"TOWNNAME":"東區","LI":"虎尾里","LIN":"35鄰","STREET":"富農街","SECT":"一段","MAREA":" ","LANE":" ","ALLEY":" ","HOUSE_NO":"２１號","E_COORD97":171469.79999999999,"N_COORD97":2542147.4300000002,"ADDRESS":"富農街一段２１號","OBJECTID":520297},"geometry":{"x":171469.80000000075,"y":2542147.4300000016}},{"attributes":{"ID":520325,"DIS_CODE":0,"TOWNNAME":"東區","LI":"虎尾里","LIN":"35鄰","STREET":"富農街","SECT":"一段","MAREA":" ","LANE":" ","ALLEY":" ","HOUSE_NO":"４號","E_COORD97":171508.92000000001,"N_COORD97":2542016.4300000002,"ADDRESS":"富農街一段４號","OBJECTID":520298},"geometry":{"x":171508.91999999993,"y":2542016.4299999997}},{"attributes":{"ID":520326,"DIS_CODE":0,"TOWNNAME":"東區","LI":"虎尾里","LIN":"35鄰","STREET":"富農街","SECT":"一段","MAREA":" ","LANE":" ","ALLEY":" ","HOUSE_NO":"６號","E_COORD97":171508.76999999999,"N_COORD97":2542020.4199999999,"ADDRESS":"富農街一段６號","OBJECTID":520299},"geometry":{"x":171508.77000000048,"y":2542020.4199999999}},{"attributes":{"ID":520327,"DIS_CODE":0,"TOWNNAME":"東區","LI":"虎尾里","LIN":"35鄰","STREET":"富農街","SECT":"一段","MAREA":" ","LANE":" ","ALLEY":" ","HOUSE_NO":"８號","E_COORD97":171508.31,"N_COORD97":2542024.3999999999,"ADDRESS":"富農街一段８號","OBJECTID":520300},"geometry":{"x":171508.31000000052,"y":2542024.4000000004}},{"attributes":{"ID":520328,"DIS_CODE":0,"TOWNNAME":"東區","LI":"虎尾里","LIN":"35鄰","STREET":"富農街","SECT":"一段","MAREA":" ","LANE":" ","ALLEY":" ","HOUSE_NO":"２號","E_COORD97":171509,"N_COORD97":2542012.9700000002,"ADDRESS":"富農街一段２號","OBJECTID":520301},"geometry":{"x":171509.00000000093,"y":2542012.9700000007}},{"attributes":{"ID":520329,"DIS_CODE":0,"TOWNNAME":"東區","LI":"中西里","LIN":"35鄰","STREET":"林森路","SECT":"二段","MAREA":" ","LANE":" ","ALLEY":" ","HOUSE_NO":"１０３號之１","E_COORD97":170413.5,"N_COORD97":2543423.71,"ADDRESS":"林森路二段１０３號之１","OBJECTID":520302},"geometry":{"x":170413.5,"y":2543423.7100000046}},{"attributes":{"ID":520330,"DIS_CODE":0,"TOWNNAME":"東區","LI":"中西里","LIN":"35鄰","STREET":"林森路","SECT":"二段","MAREA":" ","LANE":" ","ALLEY":" ","HOUSE_NO":"１０３號之２","E_COORD97":170413.5,"N_COORD97":2543423.71,"ADDRESS":"林森路二段１０３號之２","OBJECTID":520303},"geometry":{"x":170413.5,"y":2543423.7100000046}},{"attributes":{"ID":520331,"DIS_CODE":0,"TOWNNAME":"東區","LI":"中西里","LIN":"35鄰","STREET":"林森路","SECT":"二段","MAREA":" ","LANE":" ","ALLEY":" ","HOUSE_NO":"１０３號之３","E_COORD97":170413.5,"N_COORD97":2543423.71,"ADDRESS":"林森路二段１０３號之３","OBJECTID":520304},"geometry":{"x":170413.5,"y":2543423.7100000046}},{"attributes":{"ID":520332,"DIS_CODE":0,"TOWNNAME":"東區","LI":"中西里","LIN":"35鄰","STREET":"林森路","SECT":"二段","MAREA":" ","LANE":" ","ALLEY":" ","HOUSE_NO":"１０３號之４","E_COORD97":170413.5,"N_COORD97":2543423.71,"ADDRESS":"林森路二段１０３號之４","OBJECTID":520305},"geometry":{"x":170413.5,"y":2543423.7100000046}},{"attributes":{"ID":520333,"DIS_CODE":0,"TOWNNAME":"東區","LI":"中西里","LIN":"35鄰","STREET":"林森路","SECT":"二段","MAREA":" ","LANE":" ","ALLEY":" ","HOUSE_NO":"１０３號之５","E_COORD97":170413.5,"N_COORD97":2543423.71,"ADDRESS":"林森路二段１０３號之５","OBJECTID":520306},"geometry":{"x":170413.5,"y":2543423.7100000046}},{"attributes":{"ID":520334,"DIS_CODE":0,"TOWNNAME":"東區","LI":"中西里","LIN":"35鄰","STREET":"林森路","SECT":"二段","MAREA":" ","LANE":" ","ALLEY":" ","HOUSE_NO":"１０３號之６","E_COORD97":170413.5,"N_COORD97":2543423.71,"ADDRESS":"林森路二段１０３號之６","OBJECTID":520307},"geometry":{"x":170413.5,"y":2543423.7100000046}},{"attributes":{"ID":520335,"DIS_CODE":0,"TOWNNAME":"東區","LI":"中西里","LIN":"35鄰","STREET":"林森路","SECT":"二段","MAREA":" ","LANE":" ","ALLEY":" ","HOUSE_NO":"１０３號之７","E_COORD97":170413.5,"N_COORD97":2543423.71,"ADDRESS":"林森路二段１０３號之７","OBJECTID":520308},"geometry":{"x":170413.5,"y":2543423.7100000046}},{"attributes":{"ID":520336,"DIS_CODE":0,"TOWNNAME":"東區","LI":"中西里","LIN":"35鄰","STREET":"林森路","SECT":"二段","MAREA":" ","LANE":" ","ALLEY":" ","HOUSE_NO":"１０３號之８","E_COORD97":170413.5,"N_COORD97":2543423.71,"ADDRESS":"林森路二段１０３號之８","OBJECTID":520309},"geometry":{"x":170413.5,"y":2543423.7100000046}},{"attributes":{"ID":520337,"DIS_CODE":0,"TOWNNAME":"仁德區","LI":"仁德里","LIN":"35鄰","STREET":"裕華三街","SECT":" ","MAREA":" ","LANE":" ","ALLEY":" ","HOUSE_NO":"２５８號","E_COORD97":172744.64999999999,"N_COORD97":2541731.7400000002,"ADDRESS":"裕華三街２５８號","OBJECTID":520310},"geometry":{"x":172744.6500000013,"y":2541731.7400000021}},{"attributes":{"ID":520338,"DIS_CODE":0,"TOWNNAME":"東區","LI":"中西里","LIN":"35鄰","STREET":"林森路","SECT":"二段","MAREA":" ","LANE":" ","ALLEY":" ","HOUSE_NO":"１０３號之９","E_COORD97":170413.5,"N_COORD97":2543423.71,"ADDRESS":"林森路二段１０３號之９","OBJECTID":520311},"geometry":{"x":170413.5,"y":2543423.7100000046}},{"attributes":{"ID":520339,"DIS_CODE":0,"TOWNNAME":"東區","LI":"中西里","LIN":"35鄰","STREET":"林森路","SECT":"二段","MAREA":" ","LANE":" ","ALLEY":" ","HOUSE_NO":"１０３號之１０","E_COORD97":170413.5,"N_COORD97":2543423.71,"ADDRESS":"林森路二段１０３號之１０","OBJECTID":520312},"geometry":{"x":170413.5,"y":2543423.7100000046}},{"attributes":{"ID":520340,"DIS_CODE":0,"TOWNNAME":"東區","LI":"中西里","LIN":"35鄰","STREET":"林森路","SECT":"二段","MAREA":" ","LANE":" ","ALLEY":" ","HOUSE_NO":"１０３號之１１","E_COORD97":170413.5,"N_COORD97":2543423.71,"ADDRESS":"林森路二段１０３號之１１","OBJECTID":520313},"geometry":{"x":170413.5,"y":2543423.7100000046}},{"attributes":{"ID":520341,"DIS_CODE":0,"TOWNNAME":"東區","LI":"中西里","LIN":"35鄰","STREET":"林森路","SECT":"二段","MAREA":" ","LANE":" ","ALLEY":" ","HOUSE_NO":"１０５號之１","E_COORD97":170413.5,"N_COORD97":2543423.71,"ADDRESS":"林森路二段１０５號之１","OBJECTID":520314},"geometry":{"x":170413.5,"y":2543423.7100000046}},{"attributes":{"ID":520342,"DIS_CODE":0,"TOWNNAME":"東區","LI":"中西里","LIN":"35鄰","STREET":"林森路","SECT":"二段","MAREA":" ","LANE":" ","ALLEY":" ","HOUSE_NO":"１０５號之２","E_COORD97":170413.5,"N_COORD97":2543423.71,"ADDRESS":"林森路二段１０５號之２","OBJECTID":520315},"geometry":{"x":170413.5,"y":2543423.7100000046}},{"attributes":{"ID":520343,"DIS_CODE":0,"TOWNNAME":"東區","LI":"中西里","LIN":"35鄰","STREET":"林森路","SECT":"二段","MAREA":" ","LANE":" ","ALLEY":" ","HOUSE_NO":"１０５號之３","E_COORD97":170413.5,"N_COORD97":2543423.71,"ADDRESS":"林森路二段１０５號之３","OBJECTID":520316},"geometry":{"x":170413.5,"y":2543423.7100000046}},{"attributes":{"ID":520344,"DIS_CODE":0,"TOWNNAME":"東區","LI":"中西里","LIN":"35鄰","STREET":"林森路","SECT":"二段","MAREA":" ","LANE":" ","ALLEY":" ","HOUSE_NO":"１０５號之４","E_COORD97":170413.5,"N_COORD97":2543423.71,"ADDRESS":"林森路二段１０５號之４","OBJECTID":520317},"geometry":{"x":170413.5,"y":2543423.7100000046}},{"attributes":{"ID":520345,"DIS_CODE":0,"TOWNNAME":"東區","LI":"中西里","LIN":"35鄰","STREET":"林森路","SECT":"二段","MAREA":" ","LANE":" ","ALLEY":" ","HOUSE_NO":"１０５號之５","E_COORD97":170413.5,"N_COORD97":2543423.71,"ADDRESS":"林森路二段１０５號之５","OBJECTID":520318},"geometry":{"x":170413.5,"y":2543423.7100000046}},{"attributes":{"ID":520346,"DIS_CODE":0,"TOWNNAME":"東區","LI":"中西里","LIN":"35鄰","STREET":"林森路","SECT":"二段","MAREA":" ","LANE":" ","ALLEY":" ","HOUSE_NO":"１０５號之６","E_COORD97":170413.5,"N_COORD97":2543423.71,"ADDRESS":"林森路二段１０５號之６","OBJECTID":520319},"geometry":{"x":170413.5,"y":2543423.7100000046}},{"attributes":{"ID":520347,"DIS_CODE":0,"TOWNNAME":"東區","LI":"中西里","LIN":"35鄰","STREET":"林森路","SECT":"二段","MAREA":" ","LANE":" ","ALLEY":" ","HOUSE_NO":"１０５號之７","E_COORD97":170413.5,"N_COORD97":2543423.71,"ADDRESS":"林森路二段１０５號之７","OBJECTID":520320},"geometry":{"x":170413.5,"y":2543423.7100000046}},{"attributes":{"ID":520348,"DIS_CODE":0,"TOWNNAME":"東區","LI":"中西里","LIN":"35鄰","STREET":"林森路","SECT":"二段","MAREA":" ","LANE":" ","ALLEY":" ","HOUSE_NO":"１０５號之８","E_COORD97":170413.5,"N_COORD97":2543423.71,"ADDRESS":"林森路二段１０５號之８","OBJECTID":520321},"geometry":{"x":170413.5,"y":2543423.7100000046}},{"attributes":{"ID":520349,"DIS_CODE":0,"TOWNNAME":"東區","LI":"中西里","LIN":"35鄰","STREET":"林森路","SECT":"二段","MAREA":" ","LANE":" ","ALLEY":" ","HOUSE_NO":"１０５號之９","E_COORD97":170413.5,"N_COORD97":2543423.71,"ADDRESS":"林森路二段１０５號之９","OBJECTID":520322},"geometry":{"x":170413.5,"y":2543423.7100000046}},{"attributes":{"ID":520350,"DIS_CODE":0,"TOWNNAME":"東區","LI":"中西里","LIN":"35鄰","STREET":"林森路","SECT":"二段","MAREA":" ","LANE":" ","ALLEY":" ","HOUSE_NO":"１０５號之１０","E_COORD97":170413.5,"N_COORD97":2543423.71,"ADDRESS":"林森路二段１０５號之１０","OBJECTID":520323},"geometry":{"x":170413.5,"y":2543423.7100000046}},{"attributes":{"ID":520351,"DIS_CODE":0,"TOWNNAME":"東區","LI":"小東里","LIN":"35鄰","STREET":"東興路","SECT":" ","MAREA":" ","LANE":" ","ALLEY":" ","HOUSE_NO":"３４７號","E_COORD97":171021.75,"N_COORD97":2544239.3799999999,"ADDRESS":"東興路３４７號","OBJECTID":520324},"geometry":{"x":171021.75,"y":2544239.379999999}},{"attributes":{"ID":520352,"DIS_CODE":0,"TOWNNAME":"東區","LI":"中西里","LIN":"35鄰","STREET":"林森路","SECT":"二段","MAREA":" ","LANE":" ","ALLEY":" ","HOUSE_NO":"１０５號之１１","E_COORD97":170413.5,"N_COORD97":2543423.71,"ADDRESS":"林森路二段１０５號之１１","OBJECTID":520325},"geometry":{"x":170413.5,"y":2543423.7100000046}},{"attributes":{"ID":520353,"DIS_CODE":0,"TOWNNAME":"東區","LI":"中西里","LIN":"35鄰","STREET":"林森路","SECT":"二段","MAREA":" ","LANE":" ","ALLEY":" ","HOUSE_NO":"１０９號之１","E_COORD97":170413.5,"N_COORD97":2543423.71,"ADDRESS":"林森路二段１０９號之１","OBJECTID":520326},"geometry":{"x":170413.5,"y":2543423.7100000046}},{"attributes":{"ID":520354,"DIS_CODE":0,"TOWNNAME":"東區","LI":"中西里","LIN":"35鄰","STREET":"林森路","SECT":"二段","MAREA":" ","LANE":" ","ALLEY":" ","HOUSE_NO":"１０９號之２","E_COORD97":170413.5,"N_COORD97":2543423.71,"ADDRESS":"林森路二段１０９號之２","OBJECTID":520327},"geometry":{"x":170413.5,"y":2543423.7100000046}},{"attributes":{"ID":520355,"DIS_CODE":0,"TOWNNAME":"永康區","LI":"龍潭里","LIN":"35鄰","STREET":"龍橋街","SECT":" ","MAREA":" ","LANE":" ","ALLEY":" ","HOUSE_NO":"１０９之１號","E_COORD97":174669.47,"N_COORD97":2548543.5499999998,"ADDRESS":"龍橋街１０９之１號","OBJECTID":520328},"geometry":{"x":174669.46999999974,"y":2548543.5500000007}},{"attributes":{"ID":520356,"DIS_CODE":0,"TOWNNAME":"永康區","LI":"龍潭里","LIN":"35鄰","STREET":"龍橋街","SECT":" ","MAREA":" ","LANE":" ","ALLEY":" ","HOUSE_NO":"１３１號","E_COORD97":174656.51000000001,"N_COORD97":2548588,"ADDRESS":"龍橋街１３１號","OBJECTID":520329},"geometry":{"x":174656.51000000164,"y":2548588.0000000019}},{"attributes":{"ID":520357,"DIS_CODE":0,"TOWNNAME":"永康區","LI":"龍潭里","LIN":"35鄰","STREET":"自強路","SECT":" ","MAREA":" ","LANE":" ","ALLEY":" ","HOUSE_NO":"７６８號","E_COORD97":174501.98000000001,"N_COORD97":2548545.7999999998,"ADDRESS":"自強路７６８號","OBJECTID":520330},"geometry":{"x":174501.98000000138,"y":2548545.8000000045}},{"attributes":{"ID":520358,"DIS_CODE":0,"TOWNNAME":"永康區","LI":"龍潭里","LIN":"35鄰","STREET":"自強路","SECT":" ","MAREA":" ","LANE":" ","ALLEY":" ","HOUSE_NO":"７８４號","E_COORD97":174530.92999999999,"N_COORD97":2548568.5499999998,"ADDRESS":"自強路７８４號","OBJECTID":520331},"geometry":{"x":174530.9299999997,"y":2548568.5500000026}},{"attributes":{"ID":520359,"DIS_CODE":0,"TOWNNAME":"永康區","LI":"龍潭里","LIN":"35鄰","STREET":"龍安街","SECT":" ","MAREA":" ","LANE":" ","ALLEY":" ","HOUSE_NO":"１８５號","E_COORD97":174639.59,"N_COORD97":2548502.0699999998,"ADDRESS":"龍安街１８５號","OBJECTID":520332},"geometry":{"x":174639.59000000078,"y":2548502.0700000003}},{"attributes":{"ID":520360,"DIS_CODE":0,"TOWNNAME":"永康區","LI":"龍潭里","LIN":"35鄰","STREET":"自強路","SECT":" ","MAREA":" ","LANE":" ","ALLEY":" ","HOUSE_NO":"７５２號","E_COORD97":174433.72,"N_COORD97":2548491.25,"ADDRESS":"自強路７５２號","OBJECTID":520333},"geometry":{"x":174433.72000000067,"y":2548491.2500000037}},{"attributes":{"ID":520361,"DIS_CODE":0,"TOWNNAME":"永康區","LI":"龍潭里","LIN":"35鄰","STREET":"自強路","SECT":" ","MAREA":" ","LANE":" ","ALLEY":" ","HOUSE_NO":"７９２號","E_COORD97":174548.42999999999,"N_COORD97":2548585.54,"ADDRESS":"自強路７９２號","OBJECTID":520334},"geometry":{"x":174548.43000000156,"y":2548585.5399999991}},{"attributes":{"ID":520362,"DIS_CODE":0,"TOWNNAME":"永康區","LI":"龍潭里","LIN":"35鄰","STREET":"自強路","SECT":" ","MAREA":" ","LANE":" ","ALLEY":" ","HOUSE_NO":"８０４號","E_COORD97":174578.67999999999,"N_COORD97":2548609.8700000001,"ADDRESS":"自強路８０４號","OBJECTID":520335},"geometry":{"x":174578.6799999997,"y":2548609.8699999992}},{"attributes":{"ID":520363,"DIS_CODE":0,"TOWNNAME":"永康區","LI":"龍潭里","LIN":"35鄰","STREET":"龍安街","SECT":" ","MAREA":" ","LANE":" ","ALLEY":" ","HOUSE_NO":"１７３號","E_COORD97":174623.48999999999,"N_COORD97":2548479.5699999998,"ADDRESS":"龍安街１７３號","OBJECTID":520336},"geometry":{"x":174623.49000000115,"y":2548479.5700000022}},{"attributes":{"ID":520364,"DIS_CODE":0,"TOWNNAME":"永康區","LI":"龍潭里","LIN":"35鄰","STREET":"龍安街","SECT":" ","MAREA":" ","LANE":" ","ALLEY":" ","HOUSE_NO":"１７１號","E_COORD97":174621.51999999999,"N_COORD97":2548476.3199999998,"ADDRESS":"龍安街１７１號","OBJECTID":520337},"geometry":{"x":174621.51999999955,"y":2548476.3200000003}},{"attributes":{"ID":520365,"DIS_CODE":0,"TOWNNAME":"永康區","LI":"龍潭里","LIN":"35鄰","STREET":"龍安街","SECT":" ","MAREA":" ","LANE":" ","ALLEY":" ","HOUSE_NO":"１６５號","E_COORD97":174613.98999999999,"N_COORD97":2548465.3100000001,"ADDRESS":"龍安街１６５號","OBJECTID":520338},"geometry":{"x":174613.99000000022,"y":2548465.3100000024}},{"attributes":{"ID":520366,"DIS_CODE":0,"TOWNNAME":"永康區","LI":"龍潭里","LIN":"35鄰","STREET":"龍安街","SECT":" ","MAREA":" ","LANE":" ","ALLEY":" ","HOUSE_NO":"１６９號","E_COORD97":174619.14999999999,"N_COORD97":2548472.8100000001,"ADDRESS":"龍安街１６９號","OBJECTID":520339},"geometry":{"x":174619.1500000013,"y":2548472.8100000005}},{"attributes":{"ID":520367,"DIS_CODE":0,"TOWNNAME":"永康區","LI":"龍潭里","LIN":"35鄰","STREET":"龍安街","SECT":" ","MAREA":" ","LANE":" ","ALLEY":" ","HOUSE_NO":"１８１號","E_COORD97":174634.34,"N_COORD97":2548495.0699999998,"ADDRESS":"龍安街１８１號","OBJECTID":520340},"geometry":{"x":174634.34000000078,"y":2548495.0700000003}},{"attributes":{"ID":520368,"DIS_CODE":0,"TOWNNAME":"永康區","LI":"龍潭里","LIN":"35鄰","STREET":"龍安街","SECT":" ","MAREA":" ","LANE":" ","ALLEY":" ","HOUSE_NO":"１７５號","E_COORD97":174626.26999999999,"N_COORD97":2548483.0699999998,"ADDRESS":"龍安街１７５號","OBJECTID":520341},"geometry":{"x":174626.27000000048,"y":2548483.0700000022}},{"attributes":{"ID":520369,"DIS_CODE":0,"TOWNNAME":"永康區","LI":"龍潭里","LIN":"35鄰","STREET":"龍安街","SECT":" ","MAREA":" ","LANE":" ","ALLEY":" ","HOUSE_NO":"２２０號","E_COORD97":174649.01000000001,"N_COORD97":2548473.9900000002,"ADDRESS":"龍安街２２０號","OBJECTID":520342},"geometry":{"x":174649.00999999978,"y":2548473.9900000021}},{"attributes":{"ID":520370,"DIS_CODE":0,"TOWNNAME":"永康區","LI":"龍潭里","LIN":"35鄰","STREET":"龍安街","SECT":" ","MAREA":" ","LANE":" ","ALLEY":" ","HOUSE_NO":"１７９號","E_COORD97":174631.64999999999,"N_COORD97":2548491.0699999998,"ADDRESS":"龍安街１７９號","OBJECTID":520343},"geometry":{"x":174631.65000000037,"y":2548491.0700000003}},{"attributes":{"ID":520371,"DIS_CODE":0,"TOWNNAME":"仁德區","LI":"太子里","LIN":"35鄰","STREET":"太子二街","SECT":" ","MAREA":" ","LANE":" ","ALLEY":" ","HOUSE_NO":"６號","E_COORD97":174271.78,"N_COORD97":2543469.75,"ADDRESS":"太子二街６號","OBJECTID":520344},"geometry":{"x":174271.78000000026,"y":2543469.7499999981}},{"attributes":{"ID":520372,"DIS_CODE":0,"TOWNNAME":"仁德區","LI":"仁德里","LIN":"35鄰","STREET":"文山路","SECT":" ","MAREA":" ","LANE":" ","ALLEY":" ","HOUSE_NO":"６２號","E_COORD97":172845.92000000001,"N_COORD97":2541770.5800000001,"ADDRESS":"文山路６２號","OBJECTID":520345},"geometry":{"x":172845.91999999993,"y":2541770.5800000019}},{"attributes":{"ID":520373,"DIS_CODE":0,"TOWNNAME":"仁德區","LI":"仁德里","LIN":"35鄰","STREET":"文山路","SECT":" ","MAREA":" ","LANE":" ","ALLEY":" ","HOUSE_NO":"６７號","E_COORD97":172851.85999999999,"N_COORD97":2541682.0800000001,"ADDRESS":"文山路６７號","OBJECTID":520346},"geometry":{"x":172851.86000000034,"y":2541682.0800000019}},{"attributes":{"ID":520374,"DIS_CODE":0,"TOWNNAME":"仁德區","LI":"仁德里","LIN":"35鄰","STREET":"裕華三街","SECT":" ","MAREA":" ","LANE":" ","ALLEY":" ","HOUSE_NO":"２７３號","E_COORD97":172792.17000000001,"N_COORD97":2541790.25,"ADDRESS":"裕華三街２７３號","OBJECTID":520347},"geometry":{"x":172792.16999999993,"y":2541790.25}},{"attributes":{"ID":520375,"DIS_CODE":0,"TOWNNAME":"仁德區","LI":"仁德里","LIN":"35鄰","STREET":"文山路","SECT":" ","MAREA":" ","LANE":" ","ALLEY":" ","HOUSE_NO":"７７號","E_COORD97":172840.81,"N_COORD97":2541694.8199999998,"ADDRESS":"文山路７７號","OBJECTID":520348},"geometry":{"x":172840.81000000052,"y":2541694.8200000022}},{"attributes":{"ID":520376,"DIS_CODE":0,"TOWNNAME":"仁德區","LI":"仁德里","LIN":"35鄰","STREET":"文山路","SECT":" ","MAREA":" ","LANE":" ","ALLEY":" ","HOUSE_NO":"８８號","E_COORD97":172799.41,"N_COORD97":2541770.8300000001,"ADDRESS":"文山路８８號","OBJECTID":520349},"geometry":{"x":172799.41000000015,"y":2541770.8300000038}},{"attributes":{"ID":520377,"DIS_CODE":0,"TOWNNAME":"仁德區","LI":"仁德里","LIN":"35鄰","STREET":"文山路","SECT":" ","MAREA":" ","LANE":" ","ALLEY":" ","HOUSE_NO":"５７號","E_COORD97":172852.5,"N_COORD97":2541717.0699999998,"ADDRESS":"文山路５７號","OBJECTID":520350},"geometry":{"x":172852.5,"y":2541717.0700000003}},{"attributes":{"ID":520378,"DIS_CODE":0,"TOWNNAME":"仁德區","LI":"仁德里","LIN":"35鄰","STREET":"文山路","SECT":" ","MAREA":" ","LANE":" ","ALLEY":" ","HOUSE_NO":"６５號","E_COORD97":172851.76000000001,"N_COORD97":2541688.8300000001,"ADDRESS":"文山路６５號","OBJECTID":520351},"geometry":{"x":172851.76000000071,"y":2541688.8300000001}},{"attributes":{"ID":520379,"DIS_CODE":0,"TOWNNAME":"仁德區","LI":"仁德里","LIN":"35鄰","STREET":"裕華三街","SECT":" ","MAREA":" ","LANE":" ","ALLEY":" ","HOUSE_NO":"２５２號","E_COORD97":172759.95000000001,"N_COORD97":2541728.2400000002,"ADDRESS":"裕華三街２５２號","OBJECTID":520352},"geometry":{"x":172759.95000000019,"y":2541728.2400000021}},{"attributes":{"ID":520380,"DIS_CODE":0,"TOWNNAME":"仁德區","LI":"仁義里","LIN":"35鄰","STREET":"勝利路","SECT":" ","MAREA":" ","LANE":" ","ALLEY":" ","HOUSE_NO":"６０號","E_COORD97":173585.14999999999,"N_COORD97":2539904.7599999998,"ADDRESS":"勝利路６０號","OBJECTID":520353},"geometry":{"x":173585.1500000013,"y":2539904.7599999998}},{"attributes":{"ID":520381,"DIS_CODE":0,"TOWNNAME":"仁德區","LI":"仁義里","LIN":"35鄰","STREET":"勝利路","SECT":" ","MAREA":" ","LANE":" ","ALLEY":" ","HOUSE_NO":"７０號","E_COORD97":173642.20000000001,"N_COORD97":2539855.5,"ADDRESS":"勝利路７０號","OBJECTID":520354},"geometry":{"x":173642.20000000112,"y":2539855.5000000019}},{"attributes":{"ID":520382,"DIS_CODE":0,"TOWNNAME":"仁德區","LI":"仁德里","LIN":"35鄰","STREET":"文山路","SECT":" ","MAREA":" ","LANE":" ","ALLEY":" ","HOUSE_NO":"７２號","E_COORD97":172827.5,"N_COORD97":2541770.3300000001,"ADDRESS":"文山路７２號","OBJECTID":520355},"geometry":{"x":172827.49999999907,"y":2541770.3300000001}},{"attributes":{"ID":520383,"DIS_CODE":0,"TOWNNAME":"仁德區","LI":"仁德里","LIN":"35鄰","STREET":"文山路","SECT":" ","MAREA":" ","LANE":" ","ALLEY":" ","HOUSE_NO":"６９號","E_COORD97":172852.04000000001,"N_COORD97":2541675.5800000001,"ADDRESS":"文山路６９號","OBJECTID":520356},"geometry":{"x":172852.04000000004,"y":2541675.5800000019}},{"attributes":{"ID":520384,"DIS_CODE":0,"TOWNNAME":"仁德區","LI":"仁德里","LIN":"35鄰","STREET":"文山路","SECT":" ","MAREA":" ","LANE":" ","ALLEY":" ","HOUSE_NO":"７３號","E_COORD97":172841.09,"N_COORD97":2541685.8300000001,"ADDRESS":"文山路７３號","OBJECTID":520357},"geometry":{"x":172841.09000000078,"y":2541685.8300000001}},{"attributes":{"ID":520385,"DIS_CODE":0,"TOWNNAME":"仁德區","LI":"仁義里","LIN":"35鄰","STREET":"勝利路","SECT":" ","MAREA":" ","LANE":" ","ALLEY":" ","HOUSE_NO":"７０之１號","E_COORD97":173599.38,"N_COORD97":2539895.0499999998,"ADDRESS":"勝利路７０之１號","OBJECTID":520358},"geometry":{"x":173599.37999999989,"y":2539895.0499999989}},{"attributes":{"ID":520386,"DIS_CODE":0,"TOWNNAME":"仁德區","LI":"仁德里","LIN":"35鄰","STREET":"文山路","SECT":" ","MAREA":" ","LANE":" ","ALLEY":" ","HOUSE_NO":"１４７號","E_COORD97":172801.26999999999,"N_COORD97":2541747.3300000001,"ADDRESS":"文山路１４７號","OBJECTID":520359},"geometry":{"x":172801.26999999955,"y":2541747.3300000038}},{"attributes":{"ID":520387,"DIS_CODE":0,"TOWNNAME":"仁德區","LI":"仁德里","LIN":"35鄰","STREET":"文山路","SECT":" ","MAREA":" ","LANE":" ","ALLEY":" ","HOUSE_NO":"１５５號","E_COORD97":172781.60000000001,"N_COORD97":2541746.3300000001,"ADDRESS":"文山路１５５號","OBJECTID":520360},"geometry":{"x":172781.60000000056,"y":2541746.3300000001}},{"attributes":{"ID":520388,"DIS_CODE":0,"TOWNNAME":"東區","LI":"小東里","LIN":"35鄰","STREET":"東興路","SECT":" ","MAREA":" ","LANE":" ","ALLEY":" ","HOUSE_NO":"３４９號","E_COORD97":171020.95999999999,"N_COORD97":2544245.48,"ADDRESS":"東興路３４９號","OBJECTID":520361},"geometry":{"x":171020.96000000089,"y":2544245.4800000042}},{"attributes":{"ID":520389,"DIS_CODE":0,"TOWNNAME":"東區","LI":"小東里","LIN":"35鄰","STREET":"東興路","SECT":" ","MAREA":" ","LANE":" ","ALLEY":" ","HOUSE_NO":"３５７號","E_COORD97":171014.41,"N_COORD97":2544266.9900000002,"ADDRESS":"東興路３５７號","OBJECTID":520362},"geometry":{"x":171014.40999999922,"y":2544266.9900000002}},{"attributes":{"ID":520390,"DIS_CODE":0,"TOWNNAME":"東區","LI":"小東里","LIN":"35鄰","STREET":"東興路","SECT":" ","MAREA":" ","LANE":" ","ALLEY":" ","HOUSE_NO":"３５９號","E_COORD97":171013.94,"N_COORD97":2544276.3900000001,"ADDRESS":"東興路３５９號","OBJECTID":520363},"geometry":{"x":171013.94000000041,"y":2544276.3900000043}},{"attributes":{"ID":520391,"DIS_CODE":0,"TOWNNAME":"東區","LI":"小東里","LIN":"35鄰","STREET":"東興路","SECT":" ","MAREA":" ","LANE":" ","ALLEY":" ","HOUSE_NO":"３６１號","E_COORD97":171013.31,"N_COORD97":2544280.9300000002,"ADDRESS":"東興路３６１號","OBJECTID":520364},"geometry":{"x":171013.31000000052,"y":2544280.9299999997}},{"attributes":{"ID":520392,"DIS_CODE":0,"TOWNNAME":"東區","LI":"小東里","LIN":"35鄰","STREET":"東興路","SECT":" ","MAREA":" ","LANE":" ","ALLEY":" ","HOUSE_NO":"３６３號","E_COORD97":171012.67999999999,"N_COORD97":2544285.6299999999,"ADDRESS":"東興路３６３號","OBJECTID":520365},"geometry":{"x":171012.68000000063,"y":2544285.629999999}},{"attributes":{"ID":520393,"DIS_CODE":0,"TOWNNAME":"東區","LI":"小東里","LIN":"35鄰","STREET":"東興路","SECT":" ","MAREA":" ","LANE":" ","ALLEY":" ","HOUSE_NO":"３５７號之１","E_COORD97":171013.47,"N_COORD97":2544271.6899999999,"ADDRESS":"東興路３５７號之１","OBJECTID":520366},"geometry":{"x":171013.46999999974,"y":2544271.6899999995}},{"attributes":{"ID":520394,"DIS_CODE":0,"TOWNNAME":"永康區","LI":"龍潭里","LIN":"35鄰","STREET":"自強路","SECT":" ","MAREA":" ","LANE":" ","ALLEY":" ","HOUSE_NO":"７７０號","E_COORD97":174505.53,"N_COORD97":2548548.5499999998,"ADDRESS":"自強路７７０號","OBJECTID":520367},"geometry":{"x":174505.53000000026,"y":2548548.5500000026}},{"attributes":{"ID":520395,"DIS_CODE":0,"TOWNNAME":"永康區","LI":"龍潭里","LIN":"35鄰","STREET":"龍安街","SECT":" ","MAREA":" ","LANE":" ","ALLEY":" ","HOUSE_NO":"１７７號","E_COORD97":174628.85000000001,"N_COORD97":2548486.3199999998,"ADDRESS":"龍安街１７７號","OBJECTID":520368},"geometry":{"x":174628.85000000056,"y":2548486.3200000003}},{"attributes":{"ID":520396,"DIS_CODE":0,"TOWNNAME":"永康區","LI":"龍潭里","LIN":"35鄰","STREET":"自強路","SECT":" ","MAREA":" ","LANE":" ","ALLEY":" ","HOUSE_NO":"７７６號","E_COORD97":174515.23999999999,"N_COORD97":2548556.2999999998,"ADDRESS":"自強路７７６號","OBJECTID":520369},"geometry":{"x":174515.24000000115,"y":2548556.3000000026}},{"attributes":{"ID":520397,"DIS_CODE":0,"TOWNNAME":"東區","LI":"崇文里","LIN":"35鄰","STREET":"生產路","SECT":" ","MAREA":" ","LANE":" ","ALLEY":" ","HOUSE_NO":"３７３號","E_COORD97":171206.53,"N_COORD97":2540761.1699999999,"ADDRESS":"生產路３７３號","OBJECTID":520370},"geometry":{"x":171206.53000000026,"y":2540761.1699999999}},{"attributes":{"ID":520398,"DIS_CODE":0,"TOWNNAME":"東區","LI":"崇文里","LIN":"35鄰","STREET":"生產路","SECT":" ","MAREA":" ","LANE":" ","ALLEY":" ","HOUSE_NO":"３７５號","E_COORD97":171209.60999999999,"N_COORD97":2540763.8500000001,"ADDRESS":"生產路３７５號","OBJECTID":520371},"geometry":{"x":171209.61000000034,"y":2540763.8500000015}},{"attributes":{"ID":520399,"DIS_CODE":0,"TOWNNAME":"東區","LI":"崇文里","LIN":"35鄰","STREET":"生產路","SECT":" ","MAREA":" ","LANE":" ","ALLEY":" ","HOUSE_NO":"３７７號","E_COORD97":171212.79999999999,"N_COORD97":2540766.54,"ADDRESS":"生產路３７７號","OBJECTID":520372},"geometry":{"x":171212.79999999981,"y":2540766.540000001}},{"attributes":{"ID":520400,"DIS_CODE":0,"TOWNNAME":"東區","LI":"崇文里","LIN":"35鄰","STREET":"生產路","SECT":" ","MAREA":" ","LANE":" ","ALLEY":" ","HOUSE_NO":"３７９號","E_COORD97":171215.98000000001,"N_COORD97":2540769.4199999999,"ADDRESS":"生產路３７９號","OBJECTID":520373},"geometry":{"x":171215.97999999952,"y":2540769.4199999999}},{"attributes":{"ID":520401,"DIS_CODE":0,"TOWNNAME":"仁德區","LI":"仁義里","LIN":"31鄰","STREET":"正義二街","SECT":" ","MAREA":" ","LANE":" ","ALLEY":" ","HOUSE_NO":"７６號","E_COORD97":173586.23000000001,"N_COORD97":2541563.52,"ADDRESS":"正義二街７６號","OBJECTID":520374},"geometry":{"x":173586.23000000138,"y":2541563.5200000014}},{"attributes":{"ID":520402,"DIS_CODE":0,"TOWNNAME":"安南區","LI":"新順里","LIN":"10鄰","STREET":"安和路","SECT":"二段","MAREA":" ","LANE":" ","ALLEY":" ","HOUSE_NO":"２１７號二樓之５","E_COORD97":169586.98000000001,"N_COORD97":2549014.1800000002,"ADDRESS":"安和路二段２１７號二樓之５","OBJECTID":520375},"geometry":{"x":169586.98000000231,"y":2549014.1800000016}},{"attributes":{"ID":520403,"DIS_CODE":0,"TOWNNAME":"安南區","LI":"新順里","LIN":"10鄰","STREET":"安和路","SECT":"二段","MAREA":" ","LANE":" ","ALLEY":" ","HOUSE_NO":"２１７號四樓之１","E_COORD97":169586.98000000001,"N_COORD97":2549014.1800000002,"ADDRESS":"安和路二段２１７號四樓之１","OBJECTID":520376},"geometry":{"x":169586.98000000231,"y":2549014.1800000016}},{"attributes":{"ID":520404,"DIS_CODE":0,"TOWNNAME":"安南區","LI":"新順里","LIN":"10鄰","STREET":"安和路","SECT":"二段","MAREA":" ","LANE":" ","ALLEY":" ","HOUSE_NO":"２１７號四樓之２","E_COORD97":169586.98000000001,"N_COORD97":2549014.1800000002,"ADDRESS":"安和路二段２１７號四樓之２","OBJECTID":520377},"geometry":{"x":169586.98000000231,"y":2549014.1800000016}},{"attributes":{"ID":520405,"DIS_CODE":0,"TOWNNAME":"安南區","LI":"新順里","LIN":"10鄰","STREET":"安和路","SECT":"二段","MAREA":" ","LANE":" ","ALLEY":" ","HOUSE_NO":"２１７號三樓之１","E_COORD97":169586.98000000001,"N_COORD97":2549014.1800000002,"ADDRESS":"安和路二段２１７號三樓之１","OBJECTID":520378},"geometry":{"x":169586.98000000231,"y":2549014.1800000016}},{"attributes":{"ID":520406,"DIS_CODE":0,"TOWNNAME":"安南區","LI":"新順里","LIN":"10鄰","STREET":"安和路","SECT":"二段","MAREA":" ","LANE":" ","ALLEY":" ","HOUSE_NO":"２１７號二樓之１","E_COORD97":169586.98000000001,"N_COORD97":2549014.1800000002,"ADDRESS":"安和路二段２１７號二樓之１","OBJECTID":520379},"geometry":{"x":169586.98000000231,"y":2549014.1800000016}},{"attributes":{"ID":520407,"DIS_CODE":0,"TOWNNAME":"安南區","LI":"新順里","LIN":"10鄰","STREET":"安和路","SECT":"二段","MAREA":" ","LANE":" ","ALLEY":" ","HOUSE_NO":"２１７號二樓之２","E_COORD97":169586.98000000001,"N_COORD97":2549014.1800000002,"ADDRESS":"安和路二段２１７號二樓之２","OBJECTID":520380},"geometry":{"x":169586.98000000231,"y":2549014.1800000016}},{"attributes":{"ID":520408,"DIS_CODE":0,"TOWNNAME":"安南區","LI":"新順里","LIN":"10鄰","STREET":"安和路","SECT":"二段","MAREA":" ","LANE":" ","ALLEY":" ","HOUSE_NO":"２１７號二樓之３","E_COORD97":169586.98000000001,"N_COORD97":2549014.1800000002,"ADDRESS":"安和路二段２１７號二樓之３","OBJECTID":520381},"geometry":{"x":169586.98000000231,"y":2549014.1800000016}},{"attributes":{"ID":520409,"DIS_CODE":0,"TOWNNAME":"安平區","LI":"平安里","LIN":"10鄰","STREET":"安平路","SECT":" ","MAREA":" ","LANE":" ","ALLEY":" ","HOUSE_NO":"４７８號","E_COORD97":165192.82999999999,"N_COORD97":2544331.0699999998,"ADDRESS":"安平路４７８號","OBJECTID":520382},"geometry":{"x":165192.83000000101,"y":2544331.0700000003}},{"attributes":{"ID":520410,"DIS_CODE":0,"TOWNNAME":"南區","LI":"白雪里","LIN":"10鄰","STREET":"鹽埕路","SECT":" ","MAREA":" ","LANE":" ","ALLEY":" ","HOUSE_NO":"１１號","E_COORD97":166892.48999999999,"N_COORD97":2540667.7599999998,"ADDRESS":"鹽埕路１１號","OBJECTID":520383},"geometry":{"x":166892.49000000022,"y":2540667.7599999998}},{"attributes":{"ID":520411,"DIS_CODE":0,"TOWNNAME":"南區","LI":"白雪里","LIN":"10鄰","STREET":"鹽埕路","SECT":" ","MAREA":" ","LANE":" ","ALLEY":" ","HOUSE_NO":"５３號","E_COORD97":166862.35000000001,"N_COORD97":2540756.3799999999,"ADDRESS":"鹽埕路５３號","OBJECTID":520384},"geometry":{"x":166862.34999999963,"y":2540756.3800000008}},{"attributes":{"ID":520412,"DIS_CODE":0,"TOWNNAME":"南區","LI":"白雪里","LIN":"10鄰","STREET":"鹽埕路","SECT":" ","MAREA":" ","LANE":" ","ALLEY":" ","HOUSE_NO":"３７號","E_COORD97":166877.10999999999,"N_COORD97":2540724.3100000001,"ADDRESS":"鹽埕路３７號","OBJECTID":520385},"geometry":{"x":166877.1100000022,"y":2540724.3100000024}},{"attributes":{"ID":520413,"DIS_CODE":0,"TOWNNAME":"南區","LI":"白雪里","LIN":"10鄰","STREET":"鹽埕路","SECT":" ","MAREA":" ","LANE":" ","ALLEY":" ","HOUSE_NO":"３９號","E_COORD97":166872.88,"N_COORD97":2540727.0800000001,"ADDRESS":"鹽埕路３９號","OBJECTID":520386},"geometry":{"x":166872.87999999989,"y":2540727.0800000001}},{"attributes":{"ID":520414,"DIS_CODE":0,"TOWNNAME":"安平區","LI":"平安里","LIN":"10鄰","STREET":"安平路","SECT":" ","MAREA":" ","LANE":" ","ALLEY":" ","HOUSE_NO":"４９０號之１","E_COORD97":165160.92000000001,"N_COORD97":2544336.0899999999,"ADDRESS":"安平路４９０號之１","OBJECTID":520387},"geometry":{"x":165160.92000000086,"y":2544336.0900000017}},{"attributes":{"ID":520415,"DIS_CODE":0,"TOWNNAME":"安平區","LI":"平安里","LIN":"10鄰","STREET":"安平路","SECT":" ","MAREA":" ","LANE":" ","ALLEY":" ","HOUSE_NO":"４９４號","E_COORD97":165151.84,"N_COORD97":2544333.1899999999,"ADDRESS":"安平路４９４號","OBJECTID":520388},"geometry":{"x":165151.84000000078,"y":2544333.1899999995}},{"attributes":{"ID":520416,"DIS_CODE":0,"TOWNNAME":"安平區","LI":"平安里","LIN":"10鄰","STREET":"安平路","SECT":" ","MAREA":" ","LANE":" ","ALLEY":" ","HOUSE_NO":"４９６號","E_COORD97":165146.72,"N_COORD97":2544332.9300000002,"ADDRESS":"安平路４９６號","OBJECTID":520389},"geometry":{"x":165146.7200000016,"y":2544332.9300000034}},{"attributes":{"ID":520417,"DIS_CODE":0,"TOWNNAME":"新營區","LI":"新北里","LIN":"31鄰","STREET":"新北六街","SECT":" ","MAREA":" ","LANE":" ","ALLEY":" ","HOUSE_NO":"２５號","E_COORD97":178720.66,"N_COORD97":2579069.4199999999,"ADDRESS":"新北六街２５號","OBJECTID":520390},"geometry":{"x":178720.66000000015,"y":2579069.4199999999}},{"attributes":{"ID":520418,"DIS_CODE":0,"TOWNNAME":"歸仁區","LI":"辜厝里","LIN":"31鄰","STREET":"大順三街","SECT":" ","MAREA":" ","LANE":" ","ALLEY":" ","HOUSE_NO":"８４號","E_COORD97":177402.32999999999,"N_COORD97":2540448.9500000002,"ADDRESS":"大順三街８４號","OBJECTID":520391},"geometry":{"x":177402.32999999914,"y":2540448.9499999993}},{"attributes":{"ID":520419,"DIS_CODE":0,"TOWNNAME":"北區","LI":"成德里","LIN":"31鄰","STREET":"和緯路","SECT":"二段","MAREA":" ","LANE":" ","ALLEY":" ","HOUSE_NO":"１６０號","E_COORD97":168822.95000000001,"N_COORD97":2545823.77,"ADDRESS":"和緯路二段１６０號","OBJECTID":520392},"geometry":{"x":168822.95000000112,"y":2545823.7700000014}},{"attributes":{"ID":520420,"DIS_CODE":0,"TOWNNAME":"新營區","LI":"王公里","LIN":"31鄰","STREET":"大勇街","SECT":" ","MAREA":" ","LANE":" ","ALLEY":" ","HOUSE_NO":"６３號","E_COORD97":180326.13,"N_COORD97":2579441.6299999999,"ADDRESS":"大勇街６３號","OBJECTID":520393},"geometry":{"x":180326.13000000175,"y":2579441.6300000027}},{"attributes":{"ID":520421,"DIS_CODE":0,"TOWNNAME":"新營區","LI":"新北里","LIN":"31鄰","STREET":"新北六街","SECT":" ","MAREA":" ","LANE":" ","ALLEY":" ","HOUSE_NO":"７５號","E_COORD97":178811.56,"N_COORD97":2579050.1600000001,"ADDRESS":"新北六街７５號","OBJECTID":520394},"geometry":{"x":178811.56000000052,"y":2579050.160000002}},{"attributes":{"ID":520422,"DIS_CODE":0,"TOWNNAME":"新營區","LI":"新北里","LIN":"31鄰","STREET":"新北六街","SECT":" ","MAREA":" ","LANE":" ","ALLEY":" ","HOUSE_NO":"２９號","E_COORD97":178719.67999999999,"N_COORD97":2579077.1800000002,"ADDRESS":"新北六街２９號","OBJECTID":520395},"geometry":{"x":178719.6799999997,"y":2579077.1800000016}},{"attributes":{"ID":520423,"DIS_CODE":0,"TOWNNAME":"新營區","LI":"王公里","LIN":"31鄰","STREET":"大勇街","SECT":" ","MAREA":" ","LANE":" ","ALLEY":" ","HOUSE_NO":"６５號","E_COORD97":180331.26000000001,"N_COORD97":2579442.71,"ADDRESS":"大勇街６５號","OBJECTID":520396},"geometry":{"x":180331.25999999978,"y":2579442.7100000009}},{"attributes":{"ID":520424,"DIS_CODE":0,"TOWNNAME":"安平區","LI":"華平里","LIN":"31鄰","STREET":"永華八街","SECT":" ","MAREA":" ","LANE":" ","ALLEY":" ","HOUSE_NO":"２０７號","E_COORD97":165162.70000000001,"N_COORD97":2543826.7000000002,"ADDRESS":"永華八街２０７號","OBJECTID":520397},"geometry":{"x":165162.70000000112,"y":2543826.7000000011}},{"attributes":{"ID":520425,"DIS_CODE":0,"TOWNNAME":"安平區","LI":"華平里","LIN":"31鄰","STREET":"永華八街","SECT":" ","MAREA":" ","LANE":" ","ALLEY":" ","HOUSE_NO":"２０９號","E_COORD97":165163.35999999999,"N_COORD97":2543831.8300000001,"ADDRESS":"永華八街２０９號","OBJECTID":520398},"geometry":{"x":165163.3600000022,"y":2543831.8300000001}},{"attributes":{"ID":520426,"DIS_CODE":0,"TOWNNAME":"安平區","LI":"華平里","LIN":"31鄰","STREET":"永華八街","SECT":" ","MAREA":" ","LANE":" ","ALLEY":" ","HOUSE_NO":"２１１號","E_COORD97":165164.03,"N_COORD97":2543836.2999999998,"ADDRESS":"永華八街２１１號","OBJECTID":520399},"geometry":{"x":165164.03000000119,"y":2543836.2999999989}},{"attributes":{"ID":520427,"DIS_CODE":0,"TOWNNAME":"北區","LI":"和順里","LIN":"31鄰","STREET":"臨安路","SECT":"二段","MAREA":" ","LANE":" ","ALLEY":" ","HOUSE_NO":"１４９號","E_COORD97":167789.20000000001,"N_COORD97":2544881.98,"ADDRESS":"臨安路二段１４９號","OBJECTID":520400},"geometry":{"x":167789.20000000019,"y":2544881.9800000004}}]}