{"displayFieldName":"TOWNNAME","fieldAliases":{"ID":"ID","DIS_CODE":"DIS_CODE","TOWNNAME":"TOWNNAME","LI":"LI","LIN":"LIN","STREET":"STREET","SECT":"SECT","MAREA":"MAREA","LANE":"LANE","ALLEY":"ALLEY","HOUSE_NO":"HOUSE_NO","E_COORD97":"E_COORD97","N_COORD97":"N_COORD97","ADDRESS":"ADDRESS","OBJECTID":"OBJECTID"},"geometryType":"esriGeometryPoint","spatialReference":{"wkid":102443,"latestWkid":3826},"fields":[{"name":"ID","type":"esriFieldTypeDouble","alias":"ID"},{"name":"DIS_CODE","type":"esriFieldTypeInteger","alias":"DIS_CODE"},{"name":"TOWNNAME","type":"esriFieldTypeString","alias":"TOWNNAME","length":8},{"name":"LI","type":"esriFieldTypeString","alias":"LI","length":8},{"name":"LIN","type":"esriFieldTypeString","alias":"LIN","length":12},{"name":"STREET","type":"esriFieldTypeString","alias":"STREET","length":20},{"name":"SECT","type":"esriFieldTypeString","alias":"SECT","length":8},{"name":"MAREA","type":"esriFieldTypeString","alias":"MAREA","length":12},{"name":"LANE","type":"esriFieldTypeString","alias":"LANE","length":10},{"name":"ALLEY","type":"esriFieldTypeString","alias":"ALLEY","length":10},{"name":"HOUSE_NO","type":"esriFieldTypeString","alias":"HOUSE_NO","length":20},{"name":"E_COORD97","type":"esriFieldTypeDouble","alias":"E_COORD97"},{"name":"N_COORD97","type":"esriFieldTypeDouble","alias":"N_COORD97"},{"name":"ADDRESS","type":"esriFieldTypeString","alias":"ADDRESS","length":50},{"name":"OBJECTID","type":"esriFieldTypeOID","alias":"OBJECTID"}],"features":[{"attributes":{"ID":314409,"DIS_CODE":0,"TOWNNAME":"南區","LI":"文華里","LIN":"7鄰","STREET":"建南路","SECT":" ","MAREA":" ","LANE":"１０２巷","ALLEY":" ","HOUSE_NO":"１０號","E_COORD97":167093.89000000001,"N_COORD97":2542906.73,"ADDRESS":"建南路１０２巷１０號","OBJECTID":314401},"geometry":{"x":167093.8900000006,"y":2542906.7300000004}},{"attributes":{"ID":314410,"DIS_CODE":0,"TOWNNAME":"南區","LI":"文華里","LIN":"7鄰","STREET":"建南路","SECT":" ","MAREA":" ","LANE":"１０２巷","ALLEY":" ","HOUSE_NO":"２號","E_COORD97":167088.59,"N_COORD97":2542856.5600000001,"ADDRESS":"建南路１０２巷２號","OBJECTID":314402},"geometry":{"x":167088.59000000171,"y":2542856.5600000005}},{"attributes":{"ID":314411,"DIS_CODE":0,"TOWNNAME":"南區","LI":"文華里","LIN":"7鄰","STREET":"建南路","SECT":" ","MAREA":" ","LANE":"１０２巷","ALLEY":" ","HOUSE_NO":"４號","E_COORD97":167088.59,"N_COORD97":2542861.1200000001,"ADDRESS":"建南路１０２巷４號","OBJECTID":314403},"geometry":{"x":167088.59000000171,"y":2542861.120000001}},{"attributes":{"ID":314412,"DIS_CODE":0,"TOWNNAME":"南區","LI":"文華里","LIN":"7鄰","STREET":"建南路","SECT":" ","MAREA":" ","LANE":"１０２巷","ALLEY":" ","HOUSE_NO":"６號","E_COORD97":167092.17999999999,"N_COORD97":2542891.5699999998,"ADDRESS":"建南路１０２巷６號","OBJECTID":314404},"geometry":{"x":167092.1799999997,"y":2542891.570000004}},{"attributes":{"ID":314413,"DIS_CODE":0,"TOWNNAME":"南區","LI":"文華里","LIN":"7鄰","STREET":"建南路","SECT":" ","MAREA":" ","LANE":"１０２巷","ALLEY":" ","HOUSE_NO":"８號","E_COORD97":167092.81,"N_COORD97":2542901.5299999998,"ADDRESS":"建南路１０２巷８號","OBJECTID":314405},"geometry":{"x":167092.80999999959,"y":2542901.5300000012}},{"attributes":{"ID":314414,"DIS_CODE":0,"TOWNNAME":"南區","LI":"喜南里","LIN":"7鄰","STREET":"喜樹路","SECT":" ","MAREA":" ","LANE":"３４０巷","ALLEY":" ","HOUSE_NO":"３１號之１","E_COORD97":165554.01000000001,"N_COORD97":2537630.52,"ADDRESS":"喜樹路３４０巷３１號之１","OBJECTID":314406},"geometry":{"x":165554.01000000071,"y":2537630.5200000014}},{"attributes":{"ID":314415,"DIS_CODE":0,"TOWNNAME":"南區","LI":"竹溪里","LIN":"7鄰","STREET":"體育路","SECT":" ","MAREA":" ","LANE":"２１巷","ALLEY":" ","HOUSE_NO":"１９號","E_COORD97":168867.07000000001,"N_COORD97":2542355.8100000001,"ADDRESS":"體育路２１巷１９號","OBJECTID":314407},"geometry":{"x":168867.0700000003,"y":2542355.8100000024}},{"attributes":{"ID":314416,"DIS_CODE":0,"TOWNNAME":"學甲區","LI":"仁得里","LIN":"17鄰","STREET":"自立街","SECT":" ","MAREA":" ","LANE":" ","ALLEY":" ","HOUSE_NO":"１０８號","E_COORD97":165850.57999999999,"N_COORD97":2569996.9900000002,"ADDRESS":"自立街１０８號","OBJECTID":314408},"geometry":{"x":165850.58000000101,"y":2569996.9900000002}},{"attributes":{"ID":314417,"DIS_CODE":0,"TOWNNAME":"學甲區","LI":"仁得里","LIN":"17鄰","STREET":"自立街","SECT":" ","MAREA":" ","LANE":" ","ALLEY":" ","HOUSE_NO":"１１０號","E_COORD97":165846.87,"N_COORD97":2569998.4199999999,"ADDRESS":"自立街１１０號","OBJECTID":314409},"geometry":{"x":165846.87000000104,"y":2569998.4200000037}},{"attributes":{"ID":314418,"DIS_CODE":0,"TOWNNAME":"學甲區","LI":"仁得里","LIN":"17鄰","STREET":"自立街","SECT":" ","MAREA":" ","LANE":" ","ALLEY":" ","HOUSE_NO":"１１２號","E_COORD97":165842.56,"N_COORD97":2569999.98,"ADDRESS":"自立街１１２號","OBJECTID":314410},"geometry":{"x":165842.56000000145,"y":2569999.9800000023}},{"attributes":{"ID":314419,"DIS_CODE":0,"TOWNNAME":"歸仁區","LI":"七甲里","LIN":"7鄰","STREET":"七甲一街","SECT":" ","MAREA":" ","LANE":"５５巷","ALLEY":" ","HOUSE_NO":"３０號","E_COORD97":177595.73999999999,"N_COORD97":2542609.6600000001,"ADDRESS":"七甲一街５５巷３０號","OBJECTID":314411},"geometry":{"x":177595.74000000022,"y":2542609.6600000039}},{"attributes":{"ID":314420,"DIS_CODE":0,"TOWNNAME":"歸仁區","LI":"武東里","LIN":"4鄰","STREET":"武東二街","SECT":" ","MAREA":" ","LANE":"４２巷","ALLEY":" ","HOUSE_NO":"８號","E_COORD97":175541.73999999999,"N_COORD97":2535299.25,"ADDRESS":"武東二街４２巷８號","OBJECTID":314412},"geometry":{"x":175541.74000000022,"y":2535299.2500000037}},{"attributes":{"ID":314421,"DIS_CODE":0,"TOWNNAME":"歸仁區","LI":"八甲里","LIN":"4鄰","STREET":"大光街","SECT":" ","MAREA":" ","LANE":"９０巷","ALLEY":" ","HOUSE_NO":"２８號","E_COORD97":178026.82000000001,"N_COORD97":2541747.6099999999,"ADDRESS":"大光街９０巷２８號","OBJECTID":314413},"geometry":{"x":178026.82000000123,"y":2541747.6099999994}},{"attributes":{"ID":314422,"DIS_CODE":0,"TOWNNAME":"歸仁區","LI":"武東里","LIN":"4鄰","STREET":"武東二街","SECT":" ","MAREA":" ","LANE":"３６巷","ALLEY":" ","HOUSE_NO":"１６號","E_COORD97":175507.09,"N_COORD97":2535301.25,"ADDRESS":"武東二街３６巷１６號","OBJECTID":314414},"geometry":{"x":175507.09000000078,"y":2535301.25}},{"attributes":{"ID":314423,"DIS_CODE":0,"TOWNNAME":"新營區","LI":"南紙里","LIN":"19鄰","STREET":"太子路","SECT":" ","MAREA":" ","LANE":"２３８巷","ALLEY":" ","HOUSE_NO":"１３號","E_COORD97":177785.01999999999,"N_COORD97":2577874.5699999998,"ADDRESS":"太子路２３８巷１３號","OBJECTID":314415},"geometry":{"x":177785.01999999955,"y":2577874.5700000022}},{"attributes":{"ID":314424,"DIS_CODE":0,"TOWNNAME":"新營區","LI":"忠政里","LIN":"29鄰","STREET":"中正路","SECT":" ","MAREA":" ","LANE":"３９巷","ALLEY":" ","HOUSE_NO":"１００號","E_COORD97":179749.57999999999,"N_COORD97":2579242.8100000001,"ADDRESS":"中正路３９巷１００號","OBJECTID":314416},"geometry":{"x":179749.58000000007,"y":2579242.8100000024}},{"attributes":{"ID":314425,"DIS_CODE":0,"TOWNNAME":"安平區","LI":"建平里","LIN":"7鄰","STREET":"府前四街","SECT":" ","MAREA":" ","LANE":"１６６巷","ALLEY":" ","HOUSE_NO":"２號","E_COORD97":166483.85999999999,"N_COORD97":2544098.23,"ADDRESS":"府前四街１６６巷２號","OBJECTID":314417},"geometry":{"x":166483.8600000022,"y":2544098.2300000023}},{"attributes":{"ID":314426,"DIS_CODE":0,"TOWNNAME":"安平區","LI":"建平里","LIN":"7鄰","STREET":"府前四街","SECT":" ","MAREA":" ","LANE":"１６６巷","ALLEY":" ","HOUSE_NO":"６號","E_COORD97":166498.45999999999,"N_COORD97":2544090.3100000001,"ADDRESS":"府前四街１６６巷６號","OBJECTID":314418},"geometry":{"x":166498.46000000089,"y":2544090.3099999987}},{"attributes":{"ID":314427,"DIS_CODE":0,"TOWNNAME":"安平區","LI":"國平里","LIN":"7鄰","STREET":"建平三街","SECT":" ","MAREA":" ","LANE":"２１６巷","ALLEY":" ","HOUSE_NO":"１６號","E_COORD97":165424.75,"N_COORD97":2543015.7400000002,"ADDRESS":"建平三街２１６巷１６號","OBJECTID":314419},"geometry":{"x":165424.75000000186,"y":2543015.7399999984}},{"attributes":{"ID":314428,"DIS_CODE":0,"TOWNNAME":"安平區","LI":"文平里","LIN":"7鄰","STREET":"建平七街","SECT":" ","MAREA":" ","LANE":"５８巷","ALLEY":" ","HOUSE_NO":"２７號","E_COORD97":166328.76000000001,"N_COORD97":2543254.8799999999,"ADDRESS":"建平七街５８巷２７號","OBJECTID":314420},"geometry":{"x":166328.76000000071,"y":2543254.8800000008}},{"attributes":{"ID":314429,"DIS_CODE":0,"TOWNNAME":"安平區","LI":"金城里","LIN":"7鄰","STREET":"同平路","SECT":" ","MAREA":" ","LANE":"１０８巷","ALLEY":" ","HOUSE_NO":"５２號","E_COORD97":163077.45000000001,"N_COORD97":2544086.96,"ADDRESS":"同平路１０８巷５２號","OBJECTID":314421},"geometry":{"x":163077.45000000205,"y":2544086.9600000028}},{"attributes":{"ID":314430,"DIS_CODE":0,"TOWNNAME":"安平區","LI":"金城里","LIN":"7鄰","STREET":"同平路","SECT":" ","MAREA":" ","LANE":"１０８巷","ALLEY":" ","HOUSE_NO":"５６號","E_COORD97":163078.88,"N_COORD97":2544082.52,"ADDRESS":"同平路１０８巷５６號","OBJECTID":314422},"geometry":{"x":163078.87999999989,"y":2544082.5200000014}},{"attributes":{"ID":314431,"DIS_CODE":0,"TOWNNAME":"安平區","LI":"金城里","LIN":"7鄰","STREET":"同平路","SECT":" ","MAREA":" ","LANE":"１０８巷","ALLEY":" ","HOUSE_NO":"５８號","E_COORD97":163080.45999999999,"N_COORD97":2544077.1200000001,"ADDRESS":"同平路１０８巷５８號","OBJECTID":314423},"geometry":{"x":163080.46000000183,"y":2544077.120000001}},{"attributes":{"ID":314432,"DIS_CODE":0,"TOWNNAME":"學甲區","LI":"仁得里","LIN":"17鄰","STREET":"自立街","SECT":" ","MAREA":" ","LANE":" ","ALLEY":" ","HOUSE_NO":"１１４號","E_COORD97":165838.67000000001,"N_COORD97":2570001.3399999999,"ADDRESS":"自立街１１４號","OBJECTID":314424},"geometry":{"x":165838.66999999899,"y":2570001.3399999999}},{"attributes":{"ID":314433,"DIS_CODE":0,"TOWNNAME":"學甲區","LI":"仁得里","LIN":"17鄰","STREET":"自立街","SECT":" ","MAREA":" ","LANE":" ","ALLEY":" ","HOUSE_NO":"１１６號","E_COORD97":165829.67999999999,"N_COORD97":2570003.7799999998,"ADDRESS":"自立街１１６號","OBJECTID":314425},"geometry":{"x":165829.6799999997,"y":2570003.7800000012}},{"attributes":{"ID":314434,"DIS_CODE":0,"TOWNNAME":"學甲區","LI":"仁得里","LIN":"17鄰","STREET":"自立街","SECT":" ","MAREA":" ","LANE":" ","ALLEY":" ","HOUSE_NO":"１１８號","E_COORD97":165825.17000000001,"N_COORD97":2570005.02,"ADDRESS":"自立街１１８號","OBJECTID":314426},"geometry":{"x":165825.16999999899,"y":2570005.0200000014}},{"attributes":{"ID":314435,"DIS_CODE":0,"TOWNNAME":"學甲區","LI":"仁得里","LIN":"17鄰","STREET":"自立街","SECT":" ","MAREA":" ","LANE":" ","ALLEY":" ","HOUSE_NO":"１２０號","E_COORD97":165821.32999999999,"N_COORD97":2570006.04,"ADDRESS":"自立街１２０號","OBJECTID":314427},"geometry":{"x":165821.33000000101,"y":2570006.0399999991}},{"attributes":{"ID":314436,"DIS_CODE":0,"TOWNNAME":"東山區","LI":"南勢里","LIN":"5鄰","STREET":" ","SECT":" ","MAREA":"大洋","LANE":" ","ALLEY":" ","HOUSE_NO":"５０號","E_COORD97":195719.14999999999,"N_COORD97":2573542.1800000002,"ADDRESS":"大洋５０號","OBJECTID":314428},"geometry":{"x":195719.1500000013,"y":2573542.1799999997}},{"attributes":{"ID":314437,"DIS_CODE":0,"TOWNNAME":"歸仁區","LI":"沙崙里","LIN":"5鄰","STREET":" ","SECT":" ","MAREA":"沙崙","LANE":" ","ALLEY":" ","HOUSE_NO":"３３２號","E_COORD97":179581.67999999999,"N_COORD97":2538075.25,"ADDRESS":"沙崙３３２號","OBJECTID":314429},"geometry":{"x":179581.68000000063,"y":2538075.25}},{"attributes":{"ID":314438,"DIS_CODE":0,"TOWNNAME":"歸仁區","LI":"六甲里","LIN":"42鄰","STREET":"六甲二街","SECT":" ","MAREA":" ","LANE":"６９巷","ALLEY":" ","HOUSE_NO":"２０號","E_COORD97":175957.92000000001,"N_COORD97":2539362.25,"ADDRESS":"六甲二街６９巷２０號","OBJECTID":314430},"geometry":{"x":175957.92000000086,"y":2539362.2500000019}},{"attributes":{"ID":314439,"DIS_CODE":0,"TOWNNAME":"歸仁區","LI":"大廟里","LIN":"4鄰","STREET":"和順路","SECT":"二段","MAREA":" ","LANE":"１５１巷","ALLEY":" ","HOUSE_NO":"５１號","E_COORD97":176158.75,"N_COORD97":2543508.98,"ADDRESS":"和順路二段１５１巷５１號","OBJECTID":314431},"geometry":{"x":176158.75000000186,"y":2543508.9800000004}},{"attributes":{"ID":314440,"DIS_CODE":0,"TOWNNAME":"歸仁區","LI":"八甲里","LIN":"4鄰","STREET":"大光街","SECT":" ","MAREA":" ","LANE":"９０巷","ALLEY":" ","HOUSE_NO":"１６號","E_COORD97":178030.01999999999,"N_COORD97":2541771.6099999999,"ADDRESS":"大光街９０巷１６號","OBJECTID":314432},"geometry":{"x":178030.02000000048,"y":2541771.6100000031}},{"attributes":{"ID":314441,"DIS_CODE":0,"TOWNNAME":"安平區","LI":"金城里","LIN":"7鄰","STREET":"同平路","SECT":" ","MAREA":" ","LANE":"１０８巷","ALLEY":" ","HOUSE_NO":"６０號","E_COORD97":163082.69,"N_COORD97":2544071.5600000001,"ADDRESS":"同平路１０８巷６０號","OBJECTID":314433},"geometry":{"x":163082.68999999948,"y":2544071.5600000005}},{"attributes":{"ID":314442,"DIS_CODE":0,"TOWNNAME":"安平區","LI":"文平里","LIN":"7鄰","STREET":"建平七街","SECT":" ","MAREA":" ","LANE":"５８巷","ALLEY":" ","HOUSE_NO":"２９號","E_COORD97":166330.03,"N_COORD97":2543265.04,"ADDRESS":"建平七街５８巷２９號","OBJECTID":314434},"geometry":{"x":166330.03000000212,"y":2543265.040000001}},{"attributes":{"ID":314443,"DIS_CODE":0,"TOWNNAME":"南化區","LI":"中坑里","LIN":"2鄰","STREET":" ","SECT":" ","MAREA":"中坑","LANE":" ","ALLEY":" ","HOUSE_NO":"１３號","E_COORD97":194679.332639,"N_COORD97":2549739.26987,"ADDRESS":"中坑１３號","OBJECTID":314435},"geometry":{"x":194679.33263900224,"y":2549739.2698710021}},{"attributes":{"ID":314444,"DIS_CODE":0,"TOWNNAME":"新營區","LI":"忠政里","LIN":"1鄰","STREET":"中正路","SECT":" ","MAREA":" ","LANE":"３１巷","ALLEY":" ","HOUSE_NO":"４６號","E_COORD97":180044.79999999999,"N_COORD97":2578981.1499999999,"ADDRESS":"中正路３１巷４６號","OBJECTID":314436},"geometry":{"x":180044.79999999981,"y":2578981.1500000004}},{"attributes":{"ID":314445,"DIS_CODE":0,"TOWNNAME":"新營區","LI":"南紙里","LIN":"8鄰","STREET":"太子路","SECT":" ","MAREA":" ","LANE":"１３９巷","ALLEY":" ","HOUSE_NO":"８４號","E_COORD97":177992.54000000001,"N_COORD97":2577623.2799999998,"ADDRESS":"太子路１３９巷８４號","OBJECTID":314437},"geometry":{"x":177992.53999999911,"y":2577623.2799999993}},{"attributes":{"ID":314446,"DIS_CODE":0,"TOWNNAME":"南區","LI":"竹溪里","LIN":"7鄰","STREET":"體育路","SECT":" ","MAREA":" ","LANE":"２５巷","ALLEY":" ","HOUSE_NO":"７號","E_COORD97":168734.97,"N_COORD97":2542335.1699999999,"ADDRESS":"體育路２５巷７號","OBJECTID":314438},"geometry":{"x":168734.96999999974,"y":2542335.1700000018}},{"attributes":{"ID":314447,"DIS_CODE":0,"TOWNNAME":"南區","LI":"竹溪里","LIN":"7鄰","STREET":"體育路","SECT":" ","MAREA":" ","LANE":"２５巷","ALLEY":" ","HOUSE_NO":"９號","E_COORD97":168742.41,"N_COORD97":2542335.7200000002,"ADDRESS":"體育路２５巷９號","OBJECTID":314439},"geometry":{"x":168742.41000000015,"y":2542335.7200000025}},{"attributes":{"ID":314448,"DIS_CODE":0,"TOWNNAME":"南區","LI":"竹溪里","LIN":"7鄰","STREET":"體育路","SECT":" ","MAREA":" ","LANE":"５巷","ALLEY":" ","HOUSE_NO":"１０號","E_COORD97":168756.45999999999,"N_COORD97":2542394.0600000001,"ADDRESS":"體育路５巷１０號","OBJECTID":314440},"geometry":{"x":168756.46000000089,"y":2542394.0600000024}},{"attributes":{"ID":314449,"DIS_CODE":0,"TOWNNAME":"學甲區","LI":"仁得里","LIN":"17鄰","STREET":"自立街","SECT":" ","MAREA":" ","LANE":" ","ALLEY":" ","HOUSE_NO":"１２２號之１","E_COORD97":165814.19,"N_COORD97":2570008.5299999998,"ADDRESS":"自立街１２２號之１","OBJECTID":314441},"geometry":{"x":165814.19000000134,"y":2570008.5300000012}},{"attributes":{"ID":314450,"DIS_CODE":0,"TOWNNAME":"學甲區","LI":"仁得里","LIN":"17鄰","STREET":"自立街","SECT":" ","MAREA":" ","LANE":" ","ALLEY":" ","HOUSE_NO":"１２２號","E_COORD97":165817.97,"N_COORD97":2570007.3300000001,"ADDRESS":"自立街１２２號","OBJECTID":314442},"geometry":{"x":165817.9700000016,"y":2570007.3300000019}},{"attributes":{"ID":314451,"DIS_CODE":0,"TOWNNAME":"學甲區","LI":"仁得里","LIN":"17鄰","STREET":"自立街","SECT":" ","MAREA":" ","LANE":" ","ALLEY":" ","HOUSE_NO":"１３０號","E_COORD97":165784.45000000001,"N_COORD97":2570021.9700000002,"ADDRESS":"自立街１３０號","OBJECTID":314443},"geometry":{"x":165784.45000000019,"y":2570021.9700000007}},{"attributes":{"ID":314452,"DIS_CODE":0,"TOWNNAME":"學甲區","LI":"仁得里","LIN":"17鄰","STREET":"自立街","SECT":" ","MAREA":" ","LANE":" ","ALLEY":" ","HOUSE_NO":"１３２號","E_COORD97":165780.23000000001,"N_COORD97":2570023.6600000001,"ADDRESS":"自立街１３２號","OBJECTID":314444},"geometry":{"x":165780.23000000138,"y":2570023.6600000001}},{"attributes":{"ID":314453,"DIS_CODE":0,"TOWNNAME":"歸仁區","LI":"大廟里","LIN":"4鄰","STREET":"南丁路","SECT":" ","MAREA":" ","LANE":"７０６巷","ALLEY":" ","HOUSE_NO":"８９號","E_COORD97":176233.72,"N_COORD97":2543442.1200000001,"ADDRESS":"南丁路７０６巷８９號","OBJECTID":314445},"geometry":{"x":176233.72000000067,"y":2543442.1200000029}},{"attributes":{"ID":314454,"DIS_CODE":0,"TOWNNAME":"歸仁區","LI":"沙崙里","LIN":"4鄰","STREET":" ","SECT":" ","MAREA":"沙崙","LANE":" ","ALLEY":" ","HOUSE_NO":"３６１號","E_COORD97":179552.28,"N_COORD97":2538155.25,"ADDRESS":"沙崙３６１號","OBJECTID":314446},"geometry":{"x":179552.28000000026,"y":2538155.2500000019}},{"attributes":{"ID":314455,"DIS_CODE":0,"TOWNNAME":"歸仁區","LI":"六甲里","LIN":"13鄰","STREET":"六甲路","SECT":" ","MAREA":" ","LANE":"２５７巷","ALLEY":" ","HOUSE_NO":"７號","E_COORD97":175930.06,"N_COORD97":2539170.25,"ADDRESS":"六甲路２５７巷７號","OBJECTID":314447},"geometry":{"x":175930.05999999959,"y":2539170.25}},{"attributes":{"ID":314456,"DIS_CODE":0,"TOWNNAME":"歸仁區","LI":"八甲里","LIN":"4鄰","STREET":"大光街","SECT":" ","MAREA":" ","LANE":"９０巷","ALLEY":" ","HOUSE_NO":"１７號","E_COORD97":178034.12,"N_COORD97":2541786.6099999999,"ADDRESS":"大光街９０巷１７號","OBJECTID":314448},"geometry":{"x":178034.12000000011,"y":2541786.6100000013}},{"attributes":{"ID":314457,"DIS_CODE":0,"TOWNNAME":"歸仁區","LI":"文化里","LIN":"18鄰","STREET":"文化北二街","SECT":" ","MAREA":" ","LANE":"４５巷","ALLEY":" ","HOUSE_NO":"６號","E_COORD97":177124.81,"N_COORD97":2541439.3399999999,"ADDRESS":"文化北二街４５巷６號","OBJECTID":314449},"geometry":{"x":177124.81000000052,"y":2541439.3400000017}},{"attributes":{"ID":314458,"DIS_CODE":0,"TOWNNAME":"歸仁區","LI":"西埔里","LIN":"5鄰","STREET":"保大路","SECT":"二段","MAREA":" ","LANE":"１７０巷","ALLEY":" ","HOUSE_NO":"３２號","E_COORD97":176943.01999999999,"N_COORD97":2544239.2799999998,"ADDRESS":"保大路二段１７０巷３２號","OBJECTID":314450},"geometry":{"x":176943.02000000142,"y":2544239.2800000012}},{"attributes":{"ID":314459,"DIS_CODE":0,"TOWNNAME":"歸仁區","LI":"後市里","LIN":"20鄰","STREET":"民族北街","SECT":" ","MAREA":" ","LANE":"１２巷","ALLEY":" ","HOUSE_NO":"７號","E_COORD97":177476.17999999999,"N_COORD97":2540869.25,"ADDRESS":"民族北街１２巷７號","OBJECTID":314451},"geometry":{"x":177476.18000000063,"y":2540869.2499999981}},{"attributes":{"ID":314460,"DIS_CODE":0,"TOWNNAME":"歸仁區","LI":"南保里","LIN":"60鄰","STREET":"中山七街","SECT":" ","MAREA":" ","LANE":"１１巷","ALLEY":" ","HOUSE_NO":"６３號","E_COORD97":176771.59,"N_COORD97":2540815.2599999998,"ADDRESS":"中山七街１１巷６３號","OBJECTID":314452},"geometry":{"x":176771.59000000171,"y":2540815.2600000016}},{"attributes":{"ID":314461,"DIS_CODE":0,"TOWNNAME":"南區","LI":"竹溪里","LIN":"7鄰","STREET":"體育路","SECT":" ","MAREA":" ","LANE":"５巷","ALLEY":" ","HOUSE_NO":"１２號","E_COORD97":168761.70000000001,"N_COORD97":2542394.0600000001,"ADDRESS":"體育路５巷１２號","OBJECTID":314453},"geometry":{"x":168761.70000000112,"y":2542394.0600000024}},{"attributes":{"ID":314462,"DIS_CODE":0,"TOWNNAME":"南區","LI":"竹溪里","LIN":"7鄰","STREET":"體育路","SECT":" ","MAREA":" ","LANE":"５巷","ALLEY":" ","HOUSE_NO":"１４號","E_COORD97":168765.82999999999,"N_COORD97":2542393.7799999998,"ADDRESS":"體育路５巷１４號","OBJECTID":314454},"geometry":{"x":168765.83000000101,"y":2542393.7799999993}},{"attributes":{"ID":314463,"DIS_CODE":0,"TOWNNAME":"南區","LI":"竹溪里","LIN":"7鄰","STREET":"體育路","SECT":" ","MAREA":" ","LANE":"５巷","ALLEY":" ","HOUSE_NO":"１６號","E_COORD97":168770.79000000001,"N_COORD97":2542393.7799999998,"ADDRESS":"體育路５巷１６號","OBJECTID":314455},"geometry":{"x":168770.7900000019,"y":2542393.7799999993}},{"attributes":{"ID":314464,"DIS_CODE":0,"TOWNNAME":"南區","LI":"竹溪里","LIN":"7鄰","STREET":"體育路","SECT":" ","MAREA":" ","LANE":"５巷","ALLEY":" ","HOUSE_NO":"１號","E_COORD97":168728.91,"N_COORD97":2542408.3599999999,"ADDRESS":"體育路５巷１號","OBJECTID":314456},"geometry":{"x":168728.91000000015,"y":2542408.3600000013}},{"attributes":{"ID":314465,"DIS_CODE":0,"TOWNNAME":"學甲區","LI":"仁得里","LIN":"17鄰","STREET":"自立街","SECT":" ","MAREA":" ","LANE":" ","ALLEY":" ","HOUSE_NO":"１３４號之１","E_COORD97":165784.95000000001,"N_COORD97":2570038.3500000001,"ADDRESS":"自立街１３４號之１","OBJECTID":314457},"geometry":{"x":165784.95000000112,"y":2570038.3499999996}},{"attributes":{"ID":314466,"DIS_CODE":0,"TOWNNAME":"學甲區","LI":"仁得里","LIN":"17鄰","STREET":"自立街","SECT":" ","MAREA":" ","LANE":" ","ALLEY":" ","HOUSE_NO":"１３４號之２","E_COORD97":165786.39000000001,"N_COORD97":2570041.98,"ADDRESS":"自立街１３４號之２","OBJECTID":314458},"geometry":{"x":165786.3900000006,"y":2570041.9800000004}},{"attributes":{"ID":314467,"DIS_CODE":0,"TOWNNAME":"學甲區","LI":"仁得里","LIN":"17鄰","STREET":"自立街","SECT":" ","MAREA":" ","LANE":" ","ALLEY":" ","HOUSE_NO":"１３４號之３","E_COORD97":165787.89000000001,"N_COORD97":2570046.1000000001,"ADDRESS":"自立街１３４號之３","OBJECTID":314459},"geometry":{"x":165787.89000000153,"y":2570046.0999999996}},{"attributes":{"ID":314468,"DIS_CODE":0,"TOWNNAME":"學甲區","LI":"仁得里","LIN":"17鄰","STREET":"自立街","SECT":" ","MAREA":" ","LANE":" ","ALLEY":" ","HOUSE_NO":"１３４號","E_COORD97":165776.26000000001,"N_COORD97":2570025.3799999999,"ADDRESS":"自立街１３４號","OBJECTID":314460},"geometry":{"x":165776.25999999978,"y":2570025.3800000008}},{"attributes":{"ID":314469,"DIS_CODE":0,"TOWNNAME":"學甲區","LI":"仁得里","LIN":"17鄰","STREET":"自立街","SECT":" ","MAREA":" ","LANE":" ","ALLEY":" ","HOUSE_NO":"１３６號之１","E_COORD97":165767.67000000001,"N_COORD97":2570044.5899999999,"ADDRESS":"自立街１３６號之１","OBJECTID":314461},"geometry":{"x":165767.67000000179,"y":2570044.5900000036}},{"attributes":{"ID":314470,"DIS_CODE":0,"TOWNNAME":"學甲區","LI":"仁得里","LIN":"17鄰","STREET":"自立街","SECT":" ","MAREA":" ","LANE":" ","ALLEY":" ","HOUSE_NO":"１３６號之２","E_COORD97":165770.23999999999,"N_COORD97":2570049.6000000001,"ADDRESS":"自立街１３６號之２","OBJECTID":314462},"geometry":{"x":165770.24000000022,"y":2570049.5999999996}},{"attributes":{"ID":314471,"DIS_CODE":0,"TOWNNAME":"學甲區","LI":"仁得里","LIN":"17鄰","STREET":"自立街","SECT":" ","MAREA":" ","LANE":" ","ALLEY":" ","HOUSE_NO":"１４７號","E_COORD97":165783.60999999999,"N_COORD97":2569998.5,"ADDRESS":"自立街１４７號","OBJECTID":314463},"geometry":{"x":165783.6099999994,"y":2569998.5000000019}},{"attributes":{"ID":314472,"DIS_CODE":0,"TOWNNAME":"歸仁區","LI":"八甲里","LIN":"14鄰","STREET":"大明三街","SECT":" ","MAREA":" ","LANE":" ","ALLEY":" ","HOUSE_NO":"１７號","E_COORD97":178074.72,"N_COORD97":2541788.6099999999,"ADDRESS":"大明三街１７號","OBJECTID":314464},"geometry":{"x":178074.72000000067,"y":2541788.6100000031}},{"attributes":{"ID":314473,"DIS_CODE":0,"TOWNNAME":"歸仁區","LI":"大廟里","LIN":"17鄰","STREET":"保大路","SECT":"三段","MAREA":" ","LANE":"３６６巷","ALLEY":" ","HOUSE_NO":"３２號","E_COORD97":175635.12,"N_COORD97":2544920.2799999998,"ADDRESS":"保大路三段３６６巷３２號","OBJECTID":314465},"geometry":{"x":175635.12000000011,"y":2544920.2800000031}},{"attributes":{"ID":314474,"DIS_CODE":0,"TOWNNAME":"歸仁區","LI":"八甲里","LIN":"4鄰","STREET":"大光街","SECT":" ","MAREA":" ","LANE":"９０巷","ALLEY":" ","HOUSE_NO":"９號","E_COORD97":178012.37,"N_COORD97":2541785.6099999999,"ADDRESS":"大光街９０巷９號","OBJECTID":314466},"geometry":{"x":178012.36999999918,"y":2541785.6100000013}},{"attributes":{"ID":314475,"DIS_CODE":0,"TOWNNAME":"歸仁區","LI":"文化里","LIN":"18鄰","STREET":"文化北二街","SECT":" ","MAREA":" ","LANE":"２３巷","ALLEY":" ","HOUSE_NO":"１號","E_COORD97":177185.31,"N_COORD97":2541440.3399999999,"ADDRESS":"文化北二街２３巷１號","OBJECTID":314467},"geometry":{"x":177185.31000000052,"y":2541440.3399999999}},{"attributes":{"ID":314476,"DIS_CODE":0,"TOWNNAME":"歸仁區","LI":"沙崙里","LIN":"5鄰","STREET":" ","SECT":" ","MAREA":"沙崙","LANE":" ","ALLEY":" ","HOUSE_NO":"３３６號","E_COORD97":179538.57999999999,"N_COORD97":2538075.25,"ADDRESS":"沙崙３３６號","OBJECTID":314468},"geometry":{"x":179538.58000000101,"y":2538075.25}},{"attributes":{"ID":314477,"DIS_CODE":0,"TOWNNAME":"歸仁區","LI":"沙崙里","LIN":"2鄰","STREET":" ","SECT":" ","MAREA":"二甲","LANE":" ","ALLEY":" ","HOUSE_NO":"７６號","E_COORD97":178391.78,"N_COORD97":2539293.8900000001,"ADDRESS":"二甲７６號","OBJECTID":314469},"geometry":{"x":178391.78000000119,"y":2539293.8900000025}},{"attributes":{"ID":314478,"DIS_CODE":0,"TOWNNAME":"歸仁區","LI":"大廟里","LIN":"5鄰","STREET":"南丁路","SECT":" ","MAREA":" ","LANE":"７０６巷","ALLEY":" ","HOUSE_NO":"２１號","E_COORD97":176153.72,"N_COORD97":2543422.1200000001,"ADDRESS":"南丁路７０６巷２１號","OBJECTID":314470},"geometry":{"x":176153.72000000067,"y":2543422.1200000029}},{"attributes":{"ID":314479,"DIS_CODE":0,"TOWNNAME":"南區","LI":"竹溪里","LIN":"7鄰","STREET":"體育路","SECT":" ","MAREA":" ","LANE":"５巷","ALLEY":" ","HOUSE_NO":"３號","E_COORD97":168733.32000000001,"N_COORD97":2542408.0899999999,"ADDRESS":"體育路５巷３號","OBJECTID":314471},"geometry":{"x":168733.3200000003,"y":2542408.0899999999}},{"attributes":{"ID":314480,"DIS_CODE":0,"TOWNNAME":"南區","LI":"竹溪里","LIN":"7鄰","STREET":"體育路","SECT":" ","MAREA":" ","LANE":"５巷","ALLEY":" ","HOUSE_NO":"４號","E_COORD97":168741.03,"N_COORD97":2542394.8799999999,"ADDRESS":"體育路５巷４號","OBJECTID":314472},"geometry":{"x":168741.03000000119,"y":2542394.8800000008}},{"attributes":{"ID":314481,"DIS_CODE":0,"TOWNNAME":"南區","LI":"竹溪里","LIN":"7鄰","STREET":"體育路","SECT":" ","MAREA":" ","LANE":"５巷","ALLEY":" ","HOUSE_NO":"５號","E_COORD97":168737.73000000001,"N_COORD97":2542408.0899999999,"ADDRESS":"體育路５巷５號","OBJECTID":314473},"geometry":{"x":168737.73000000231,"y":2542408.0899999999}},{"attributes":{"ID":314482,"DIS_CODE":0,"TOWNNAME":"南區","LI":"竹溪里","LIN":"7鄰","STREET":"體育路","SECT":" ","MAREA":" ","LANE":"５巷","ALLEY":" ","HOUSE_NO":"６號","E_COORD97":168749.29999999999,"N_COORD97":2542394.0600000001,"ADDRESS":"體育路５巷６號","OBJECTID":314474},"geometry":{"x":168749.29999999981,"y":2542394.0600000024}},{"attributes":{"ID":314483,"DIS_CODE":0,"TOWNNAME":"南區","LI":"竹溪里","LIN":"7鄰","STREET":"體育路","SECT":" ","MAREA":" ","LANE":"５巷","ALLEY":" ","HOUSE_NO":"７號","E_COORD97":168742.41,"N_COORD97":2542407.8100000001,"ADDRESS":"體育路５巷７號","OBJECTID":314475},"geometry":{"x":168742.41000000015,"y":2542407.8100000005}},{"attributes":{"ID":314484,"DIS_CODE":0,"TOWNNAME":"南區","LI":"竹溪里","LIN":"7鄰","STREET":"體育路","SECT":" ","MAREA":" ","LANE":"５巷","ALLEY":" ","HOUSE_NO":"８號","E_COORD97":168752.60000000001,"N_COORD97":2542394.8799999999,"ADDRESS":"體育路５巷８號","OBJECTID":314476},"geometry":{"x":168752.59999999963,"y":2542394.8800000008}},{"attributes":{"ID":314485,"DIS_CODE":0,"TOWNNAME":"南區","LI":"松安里","LIN":"7鄰","STREET":"灣裡路","SECT":" ","MAREA":" ","LANE":"２８２巷","ALLEY":" ","HOUSE_NO":"３２號","E_COORD97":166025.42000000001,"N_COORD97":2536360.0600000001,"ADDRESS":"灣裡路２８２巷３２號","OBJECTID":314477},"geometry":{"x":166025.42000000086,"y":2536360.0600000024}},{"attributes":{"ID":314486,"DIS_CODE":0,"TOWNNAME":"學甲區","LI":"仁得里","LIN":"17鄰","STREET":"自立街","SECT":" ","MAREA":" ","LANE":" ","ALLEY":" ","HOUSE_NO":"１４９號","E_COORD97":165779.35000000001,"N_COORD97":2570000.3700000001,"ADDRESS":"自立街１４９號","OBJECTID":314478},"geometry":{"x":165779.34999999963,"y":2570000.3700000029}},{"attributes":{"ID":314487,"DIS_CODE":0,"TOWNNAME":"學甲區","LI":"仁得里","LIN":"17鄰","STREET":"自立街","SECT":" ","MAREA":" ","LANE":" ","ALLEY":" ","HOUSE_NO":"１５１號","E_COORD97":165774.20999999999,"N_COORD97":2570002.54,"ADDRESS":"自立街１５１號","OBJECTID":314479},"geometry":{"x":165774.21000000183,"y":2570002.5399999991}},{"attributes":{"ID":314488,"DIS_CODE":0,"TOWNNAME":"學甲區","LI":"仁得里","LIN":"17鄰","STREET":"自立街","SECT":" ","MAREA":" ","LANE":" ","ALLEY":" ","HOUSE_NO":"１６１號","E_COORD97":165756.10000000001,"N_COORD97":2569998.1099999999,"ADDRESS":"自立街１６１號","OBJECTID":314480},"geometry":{"x":165756.10000000056,"y":2569998.1100000013}},{"attributes":{"ID":314489,"DIS_CODE":0,"TOWNNAME":"學甲區","LI":"仁得里","LIN":"17鄰","STREET":"自立街","SECT":" ","MAREA":" ","LANE":" ","ALLEY":" ","HOUSE_NO":"９３號","E_COORD97":165835.28,"N_COORD97":2569979.4500000002,"ADDRESS":"自立街９３號","OBJECTID":314481},"geometry":{"x":165835.28000000119,"y":2569979.4499999993}},{"attributes":{"ID":314490,"DIS_CODE":0,"TOWNNAME":"歸仁區","LI":"沙崙里","LIN":"4鄰","STREET":" ","SECT":" ","MAREA":"沙崙","LANE":" ","ALLEY":" ","HOUSE_NO":"３６２號","E_COORD97":179566.78,"N_COORD97":2538165.25,"ADDRESS":"沙崙３６２號","OBJECTID":314482},"geometry":{"x":179566.78000000119,"y":2538165.2500000019}},{"attributes":{"ID":314491,"DIS_CODE":0,"TOWNNAME":"歸仁區","LI":"西埔里","LIN":"4鄰","STREET":"保大路","SECT":"二段","MAREA":" ","LANE":" ","ALLEY":" ","HOUSE_NO":"１３０號","E_COORD97":177033.90088,"N_COORD97":2544147.1074600001,"ADDRESS":"保大路二段１３０號","OBJECTID":314483},"geometry":{"x":177033.90087999962,"y":2544147.1074570026}},{"attributes":{"ID":314492,"DIS_CODE":0,"TOWNNAME":"歸仁區","LI":"大廟里","LIN":"4鄰","STREET":"和順路","SECT":"二段","MAREA":" ","LANE":"１５１巷","ALLEY":" ","HOUSE_NO":"２９號","E_COORD97":176168.25,"N_COORD97":2543560.98,"ADDRESS":"和順路二段１５１巷２９號","OBJECTID":314484},"geometry":{"x":176168.25,"y":2543560.9800000023}},{"attributes":{"ID":314493,"DIS_CODE":0,"TOWNNAME":"歸仁區","LI":"大廟里","LIN":"4鄰","STREET":"和順路","SECT":"二段","MAREA":" ","LANE":"４１巷","ALLEY":" ","HOUSE_NO":"４０號","E_COORD97":176472.64000000001,"N_COORD97":2543501.2799999998,"ADDRESS":"和順路二段４１巷４０號","OBJECTID":314485},"geometry":{"x":176472.64000000153,"y":2543501.2799999993}},{"attributes":{"ID":314494,"DIS_CODE":0,"TOWNNAME":"歸仁區","LI":"文化里","LIN":"13鄰","STREET":"大德路","SECT":" ","MAREA":" ","LANE":"１９３巷","ALLEY":" ","HOUSE_NO":"４１號","E_COORD97":177422.32000000001,"N_COORD97":2541481.3300000001,"ADDRESS":"大德路１９３巷４１號","OBJECTID":314486},"geometry":{"x":177422.3200000003,"y":2541481.3300000001}},{"attributes":{"ID":314495,"DIS_CODE":0,"TOWNNAME":"歸仁區","LI":"八甲里","LIN":"4鄰","STREET":"大光街","SECT":" ","MAREA":" ","LANE":"９０巷","ALLEY":" ","HOUSE_NO":"２０號","E_COORD97":178029.92000000001,"N_COORD97":2541762.6099999999,"ADDRESS":"大光街９０巷２０號","OBJECTID":314487},"geometry":{"x":178029.91999999993,"y":2541762.6100000013}},{"attributes":{"ID":314496,"DIS_CODE":0,"TOWNNAME":"歸仁區","LI":"八甲里","LIN":"5鄰","STREET":"大光街","SECT":" ","MAREA":" ","LANE":"１０１巷","ALLEY":" ","HOUSE_NO":"１６號","E_COORD97":177955.67000000001,"N_COORD97":2541827.6099999999,"ADDRESS":"大光街１０１巷１６號","OBJECTID":314488},"geometry":{"x":177955.66999999993,"y":2541827.6099999994}},{"attributes":{"ID":314497,"DIS_CODE":0,"TOWNNAME":"歸仁區","LI":"六甲里","LIN":"18鄰","STREET":"六甲路","SECT":" ","MAREA":" ","LANE":"３４１巷","ALLEY":" ","HOUSE_NO":"１６號","E_COORD97":175683.71088299999,"N_COORD97":2539162.6031999998,"ADDRESS":"六甲路３４１巷１６號","OBJECTID":314489},"geometry":{"x":175683.71088299993,"y":2539162.6031950023}},{"attributes":{"ID":314498,"DIS_CODE":0,"TOWNNAME":"歸仁區","LI":"六甲里","LIN":"43鄰","STREET":"民生十二街","SECT":" ","MAREA":" ","LANE":"７１巷","ALLEY":" ","HOUSE_NO":"１４號","E_COORD97":175838.39999999999,"N_COORD97":2539436.7999999998,"ADDRESS":"民生十二街７１巷１４號","OBJECTID":314490},"geometry":{"x":175838.4000000013,"y":2539436.8000000026}},{"attributes":{"ID":314499,"DIS_CODE":0,"TOWNNAME":"南區","LI":"松安里","LIN":"7鄰","STREET":"灣裡路","SECT":" ","MAREA":" ","LANE":"２８２巷","ALLEY":" ","HOUSE_NO":"３２號之１","E_COORD97":166008.87,"N_COORD97":2536359.3300000001,"ADDRESS":"灣裡路２８２巷３２號之１","OBJECTID":314491},"geometry":{"x":166008.87000000197,"y":2536359.3300000001}},{"attributes":{"ID":314500,"DIS_CODE":0,"TOWNNAME":"南區","LI":"松安里","LIN":"7鄰","STREET":"灣裡路","SECT":" ","MAREA":" ","LANE":"２８２巷","ALLEY":" ","HOUSE_NO":"３４號","E_COORD97":166023.95000000001,"N_COORD97":2536350.9900000002,"ADDRESS":"灣裡路２８２巷３４號","OBJECTID":314492},"geometry":{"x":166023.95000000112,"y":2536350.9900000002}},{"attributes":{"ID":314501,"DIS_CODE":0,"TOWNNAME":"學甲區","LI":"仁得里","LIN":"17鄰","STREET":"自立街","SECT":" ","MAREA":" ","LANE":" ","ALLEY":" ","HOUSE_NO":"９５號","E_COORD97":165831.89000000001,"N_COORD97":2569981.25,"ADDRESS":"自立街９５號","OBJECTID":314493},"geometry":{"x":165831.89000000153,"y":2569981.25}},{"attributes":{"ID":314502,"DIS_CODE":0,"TOWNNAME":"學甲區","LI":"仁得里","LIN":"17鄰","STREET":"自立街","SECT":" ","MAREA":" ","LANE":" ","ALLEY":" ","HOUSE_NO":"９９號","E_COORD97":165815.88,"N_COORD97":2569978.4399999999,"ADDRESS":"自立街９９號","OBJECTID":314494},"geometry":{"x":165815.88000000082,"y":2569978.4400000013}},{"attributes":{"ID":314503,"DIS_CODE":0,"TOWNNAME":"學甲區","LI":"仁得里","LIN":"17鄰","STREET":"自強路","SECT":" ","MAREA":" ","LANE":" ","ALLEY":" ","HOUSE_NO":"１１６號","E_COORD97":165836.44,"N_COORD97":2569935.0899999999,"ADDRESS":"自強路１１６號","OBJECTID":314495},"geometry":{"x":165836.44000000134,"y":2569935.0899999999}},{"attributes":{"ID":314504,"DIS_CODE":0,"TOWNNAME":"歸仁區","LI":"七甲里","LIN":"13鄰","STREET":"南丁路","SECT":" ","MAREA":" ","LANE":" ","ALLEY":" ","HOUSE_NO":"５１５號","E_COORD97":176025.39000000001,"N_COORD97":2543002.25,"ADDRESS":"南丁路５１５號","OBJECTID":314496},"geometry":{"x":176025.3900000006,"y":2543002.2500000037}},{"attributes":{"ID":314505,"DIS_CODE":0,"TOWNNAME":"學甲區","LI":"仁得里","LIN":"17鄰","STREET":"自強路","SECT":" ","MAREA":" ","LANE":" ","ALLEY":" ","HOUSE_NO":"１２８號","E_COORD97":165786.53,"N_COORD97":2569950.8599999999,"ADDRESS":"自強路１２８號","OBJECTID":314497},"geometry":{"x":165786.53000000119,"y":2569950.8600000031}},{"attributes":{"ID":314506,"DIS_CODE":0,"TOWNNAME":"學甲區","LI":"仁得里","LIN":"17鄰","STREET":"自強路","SECT":" ","MAREA":" ","LANE":" ","ALLEY":" ","HOUSE_NO":"１３６號","E_COORD97":165763.51000000001,"N_COORD97":2569963.4399999999,"ADDRESS":"自強路１３６號","OBJECTID":314498},"geometry":{"x":165763.51000000164,"y":2569963.4399999995}},{"attributes":{"ID":314507,"DIS_CODE":0,"TOWNNAME":"學甲區","LI":"仁得里","LIN":"17鄰","STREET":"自強路","SECT":" ","MAREA":" ","LANE":" ","ALLEY":" ","HOUSE_NO":"１３８號之１","E_COORD97":165745.32999999999,"N_COORD97":2569962.2799999998,"ADDRESS":"自強路１３８號之１","OBJECTID":314499},"geometry":{"x":165745.33000000101,"y":2569962.2800000012}},{"attributes":{"ID":314508,"DIS_CODE":0,"TOWNNAME":"學甲區","LI":"仁得里","LIN":"17鄰","STREET":"自強路","SECT":" ","MAREA":" ","LANE":" ","ALLEY":" ","HOUSE_NO":"１３８號","E_COORD97":165756.69,"N_COORD97":2569965.5899999999,"ADDRESS":"自強路１３８號","OBJECTID":314500},"geometry":{"x":165756.69000000134,"y":2569965.5899999999}},{"attributes":{"ID":314509,"DIS_CODE":0,"TOWNNAME":"歸仁區","LI":"沙崙里","LIN":"7鄰","STREET":" ","SECT":" ","MAREA":"沙崙","LANE":" ","ALLEY":" ","HOUSE_NO":"２５９號","E_COORD97":179556.70178800001,"N_COORD97":2537910.7806699998,"ADDRESS":"沙崙２５９號","OBJECTID":314501},"geometry":{"x":179556.70178800076,"y":2537910.7806710042}},{"attributes":{"ID":314510,"DIS_CODE":0,"TOWNNAME":"歸仁區","LI":"八甲里","LIN":"25鄰","STREET":"忠孝北路","SECT":" ","MAREA":" ","LANE":"２６６巷","ALLEY":" ","HOUSE_NO":"８號","E_COORD97":177993.63,"N_COORD97":2541418.25,"ADDRESS":"忠孝北路２６６巷８號","OBJECTID":314502},"geometry":{"x":177993.63000000175,"y":2541418.25}},{"attributes":{"ID":314511,"DIS_CODE":0,"TOWNNAME":"東山區","LI":"三榮里","LIN":"17鄰","STREET":" ","SECT":" ","MAREA":"下寮子","LANE":" ","ALLEY":" ","HOUSE_NO":"３３號","E_COORD97":187605.79999999999,"N_COORD97":2581208.79,"ADDRESS":"下寮子３３號","OBJECTID":314503},"geometry":{"x":187605.80000000168,"y":2581208.7899999991}},{"attributes":{"ID":314512,"DIS_CODE":0,"TOWNNAME":"歸仁區","LI":"六甲里","LIN":"42鄰","STREET":"六甲二街","SECT":" ","MAREA":" ","LANE":"６９巷","ALLEY":" ","HOUSE_NO":"２號","E_COORD97":175953.37,"N_COORD97":2539303.25,"ADDRESS":"六甲二街６９巷２號","OBJECTID":314504},"geometry":{"x":175953.37000000104,"y":2539303.2500000037}},{"attributes":{"ID":314513,"DIS_CODE":0,"TOWNNAME":"歸仁區","LI":"沙崙里","LIN":"6鄰","STREET":" ","SECT":" ","MAREA":"沙崙","LANE":" ","ALLEY":" ","HOUSE_NO":"２９１號","E_COORD97":179628.88,"N_COORD97":2538066.25,"ADDRESS":"沙崙２９１號","OBJECTID":314505},"geometry":{"x":179628.87999999989,"y":2538066.2500000019}},{"attributes":{"ID":314514,"DIS_CODE":0,"TOWNNAME":"新營區","LI":"南紙里","LIN":"17鄰","STREET":"南紙街","SECT":" ","MAREA":" ","LANE":"１６２巷","ALLEY":" ","HOUSE_NO":"２３號","E_COORD97":177799.60999999999,"N_COORD97":2577286.4500000002,"ADDRESS":"南紙街１６２巷２３號","OBJECTID":314506},"geometry":{"x":177799.61000000127,"y":2577286.4499999993}},{"attributes":{"ID":314515,"DIS_CODE":0,"TOWNNAME":"南區","LI":"松安里","LIN":"7鄰","STREET":"灣裡路","SECT":" ","MAREA":" ","LANE":"３２４巷","ALLEY":" ","HOUSE_NO":"１０號","E_COORD97":166078.51000000001,"N_COORD97":2536340.7200000002,"ADDRESS":"灣裡路３２４巷１０號","OBJECTID":314507},"geometry":{"x":166078.50999999978,"y":2536340.7199999988}},{"attributes":{"ID":314516,"DIS_CODE":0,"TOWNNAME":"南區","LI":"松安里","LIN":"7鄰","STREET":"灣裡路","SECT":" ","MAREA":" ","LANE":"３２４巷","ALLEY":" ","HOUSE_NO":"１２號","E_COORD97":166092.82000000001,"N_COORD97":2536325.3399999999,"ADDRESS":"灣裡路３２４巷１２號","OBJECTID":314508},"geometry":{"x":166092.82000000123,"y":2536325.3399999999}},{"attributes":{"ID":314517,"DIS_CODE":0,"TOWNNAME":"南區","LI":"松安里","LIN":"7鄰","STREET":"灣裡路","SECT":" ","MAREA":" ","LANE":"３２４巷","ALLEY":" ","HOUSE_NO":"１４號","E_COORD97":166078.51000000001,"N_COORD97":2536322.9900000002,"ADDRESS":"灣裡路３２４巷１４號","OBJECTID":314509},"geometry":{"x":166078.50999999978,"y":2536322.9900000021}},{"attributes":{"ID":314518,"DIS_CODE":0,"TOWNNAME":"南區","LI":"松安里","LIN":"7鄰","STREET":"灣裡路","SECT":" ","MAREA":" ","LANE":"３２４巷","ALLEY":" ","HOUSE_NO":"１６號","E_COORD97":166079.42000000001,"N_COORD97":2536313.9399999999,"ADDRESS":"灣裡路３２４巷１６號","OBJECTID":314510},"geometry":{"x":166079.41999999899,"y":2536313.9399999995}},{"attributes":{"ID":314519,"DIS_CODE":0,"TOWNNAME":"學甲區","LI":"仁得里","LIN":"17鄰","STREET":"自強路","SECT":" ","MAREA":" ","LANE":" ","ALLEY":" ","HOUSE_NO":"１４０號","E_COORD97":165752.67999999999,"N_COORD97":2569966.8700000001,"ADDRESS":"自強路１４０號","OBJECTID":314511},"geometry":{"x":165752.68000000063,"y":2569966.8700000029}},{"attributes":{"ID":314520,"DIS_CODE":0,"TOWNNAME":"學甲區","LI":"仁得里","LIN":"17鄰","STREET":"自強路","SECT":" ","MAREA":" ","LANE":" ","ALLEY":" ","HOUSE_NO":"１４９號","E_COORD97":165870.85999999999,"N_COORD97":2569886.5699999998,"ADDRESS":"自強路１４９號","OBJECTID":314512},"geometry":{"x":165870.86000000127,"y":2569886.5700000022}},{"attributes":{"ID":314521,"DIS_CODE":0,"TOWNNAME":"麻豆區","LI":"港尾里","LIN":"4鄰","STREET":" ","SECT":" ","MAREA":"姓陳寮","LANE":" ","ALLEY":" ","HOUSE_NO":"１９號之１","E_COORD97":168716.23000000001,"N_COORD97":2566749.75,"ADDRESS":"姓陳寮１９號之１","OBJECTID":314513},"geometry":{"x":168716.23000000138,"y":2566749.7500000019}},{"attributes":{"ID":314522,"DIS_CODE":0,"TOWNNAME":"麻豆區","LI":"港尾里","LIN":"4鄰","STREET":" ","SECT":" ","MAREA":"姓陳寮","LANE":" ","ALLEY":" ","HOUSE_NO":"１９號之２","E_COORD97":168735.29999999999,"N_COORD97":2566745.3500000001,"ADDRESS":"姓陳寮１９號之２","OBJECTID":314514},"geometry":{"x":168735.30000000075,"y":2566745.3500000015}},{"attributes":{"ID":314523,"DIS_CODE":0,"TOWNNAME":"麻豆區","LI":"港尾里","LIN":"4鄰","STREET":" ","SECT":" ","MAREA":"姓陳寮","LANE":" ","ALLEY":" ","HOUSE_NO":"１９號之５","E_COORD97":168641.89999999999,"N_COORD97":2566767.8399999999,"ADDRESS":"姓陳寮１９號之５","OBJECTID":314515},"geometry":{"x":168641.9000000013,"y":2566767.8400000036}},{"attributes":{"ID":314524,"DIS_CODE":0,"TOWNNAME":"麻豆區","LI":"港尾里","LIN":"4鄰","STREET":" ","SECT":" ","MAREA":"姓陳寮","LANE":" ","ALLEY":" ","HOUSE_NO":"１９號之６","E_COORD97":168639.10000000001,"N_COORD97":2566752.2999999998,"ADDRESS":"姓陳寮１９號之６","OBJECTID":314516},"geometry":{"x":168639.09999999963,"y":2566752.3000000045}},{"attributes":{"ID":314525,"DIS_CODE":0,"TOWNNAME":"麻豆區","LI":"港尾里","LIN":"4鄰","STREET":" ","SECT":" ","MAREA":"姓陳寮","LANE":" ","ALLEY":" ","HOUSE_NO":"１９號","E_COORD97":168695.91,"N_COORD97":2566753.4900000002,"ADDRESS":"姓陳寮１９號","OBJECTID":314517},"geometry":{"x":168695.91000000108,"y":2566753.4899999984}},{"attributes":{"ID":314526,"DIS_CODE":0,"TOWNNAME":"麻豆區","LI":"港尾里","LIN":"4鄰","STREET":" ","SECT":" ","MAREA":"姓陳寮","LANE":" ","ALLEY":" ","HOUSE_NO":"２０號","E_COORD97":168706.17000000001,"N_COORD97":2566796.4399999999,"ADDRESS":"姓陳寮２０號","OBJECTID":314518},"geometry":{"x":168706.17000000086,"y":2566796.4399999995}},{"attributes":{"ID":314527,"DIS_CODE":0,"TOWNNAME":"麻豆區","LI":"港尾里","LIN":"4鄰","STREET":" ","SECT":" ","MAREA":"姓陳寮","LANE":" ","ALLEY":" ","HOUSE_NO":"２１號","E_COORD97":168733.04999999999,"N_COORD97":2566797.4399999999,"ADDRESS":"姓陳寮２１號","OBJECTID":314519},"geometry":{"x":168733.04999999981,"y":2566797.4400000032}},{"attributes":{"ID":314528,"DIS_CODE":0,"TOWNNAME":"麻豆區","LI":"港尾里","LIN":"4鄰","STREET":" ","SECT":" ","MAREA":"姓陳寮","LANE":" ","ALLEY":" ","HOUSE_NO":"２２號","E_COORD97":168759.95000000001,"N_COORD97":2566795.0299999998,"ADDRESS":"姓陳寮２２號","OBJECTID":314520},"geometry":{"x":168759.95000000112,"y":2566795.0299999993}},{"attributes":{"ID":314529,"DIS_CODE":0,"TOWNNAME":"麻豆區","LI":"港尾里","LIN":"4鄰","STREET":" ","SECT":" ","MAREA":"姓陳寮","LANE":" ","ALLEY":" ","HOUSE_NO":"２３號","E_COORD97":168738.64000000001,"N_COORD97":2566830.1200000001,"ADDRESS":"姓陳寮２３號","OBJECTID":314521},"geometry":{"x":168738.63999999966,"y":2566830.120000001}},{"attributes":{"ID":314530,"DIS_CODE":0,"TOWNNAME":"麻豆區","LI":"港尾里","LIN":"4鄰","STREET":" ","SECT":" ","MAREA":"姓陳寮","LANE":" ","ALLEY":" ","HOUSE_NO":"２４號之１","E_COORD97":168697.10000000001,"N_COORD97":2566817.7799999998,"ADDRESS":"姓陳寮２４號之１","OBJECTID":314522},"geometry":{"x":168697.10000000149,"y":2566817.7799999993}},{"attributes":{"ID":314531,"DIS_CODE":0,"TOWNNAME":"麻豆區","LI":"港尾里","LIN":"4鄰","STREET":" ","SECT":" ","MAREA":"姓陳寮","LANE":" ","ALLEY":" ","HOUSE_NO":"２４號","E_COORD97":168713.48999999999,"N_COORD97":2566823.0800000001,"ADDRESS":"姓陳寮２４號","OBJECTID":314523},"geometry":{"x":168713.49000000022,"y":2566823.0800000001}},{"attributes":{"ID":314532,"DIS_CODE":0,"TOWNNAME":"麻豆區","LI":"港尾里","LIN":"4鄰","STREET":" ","SECT":" ","MAREA":"姓陳寮","LANE":" ","ALLEY":" ","HOUSE_NO":"２５號","E_COORD97":168707.48999999999,"N_COORD97":2566854.1400000001,"ADDRESS":"姓陳寮２５號","OBJECTID":314524},"geometry":{"x":168707.49000000115,"y":2566854.1400000006}},{"attributes":{"ID":314533,"DIS_CODE":0,"TOWNNAME":"麻豆區","LI":"港尾里","LIN":"4鄰","STREET":" ","SECT":" ","MAREA":"姓陳寮","LANE":" ","ALLEY":" ","HOUSE_NO":"３２號之１","E_COORD97":168671.98000000001,"N_COORD97":2566910.9500000002,"ADDRESS":"姓陳寮３２號之１","OBJECTID":314525},"geometry":{"x":168671.98000000138,"y":2566910.9499999993}},{"attributes":{"ID":314534,"DIS_CODE":0,"TOWNNAME":"麻豆區","LI":"港尾里","LIN":"4鄰","STREET":" ","SECT":" ","MAREA":"姓陳寮","LANE":" ","ALLEY":" ","HOUSE_NO":"３２號","E_COORD97":168667.04999999999,"N_COORD97":2566911.0499999998,"ADDRESS":"姓陳寮３２號","OBJECTID":314526},"geometry":{"x":168667.05000000168,"y":2566911.0500000026}},{"attributes":{"ID":314535,"DIS_CODE":0,"TOWNNAME":"新市區","LI":"三舍里","LIN":"7鄰","STREET":" ","SECT":" ","MAREA":"三舍","LANE":" ","ALLEY":" ","HOUSE_NO":"１６８之１５０號","E_COORD97":177516.899259,"N_COORD97":2554345.3875699998,"ADDRESS":"三舍１６８之１５０號","OBJECTID":314527},"geometry":{"x":177516.89925900102,"y":2554345.3875719998}},{"attributes":{"ID":314536,"DIS_CODE":0,"TOWNNAME":"麻豆區","LI":"港尾里","LIN":"3鄰","STREET":" ","SECT":" ","MAREA":"姓陳寮","LANE":" ","ALLEY":" ","HOUSE_NO":"２號之１０","E_COORD97":168899.84,"N_COORD97":2567032.3900000001,"ADDRESS":"姓陳寮２號之１０","OBJECTID":314528},"geometry":{"x":168899.84000000078,"y":2567032.3900000006}},{"attributes":{"ID":314537,"DIS_CODE":0,"TOWNNAME":"麻豆區","LI":"港尾里","LIN":"3鄰","STREET":" ","SECT":" ","MAREA":"姓陳寮","LANE":" ","ALLEY":" ","HOUSE_NO":"２號之１","E_COORD97":168838.29000000001,"N_COORD97":2566853.3700000001,"ADDRESS":"姓陳寮２號之１","OBJECTID":314529},"geometry":{"x":168838.29000000004,"y":2566853.370000001}},{"attributes":{"ID":314538,"DIS_CODE":0,"TOWNNAME":"東山區","LI":"三榮里","LIN":"17鄰","STREET":" ","SECT":" ","MAREA":"下寮子","LANE":" ","ALLEY":" ","HOUSE_NO":"３０號","E_COORD97":187528.35000000001,"N_COORD97":2581289.2599999998,"ADDRESS":"下寮子３０號","OBJECTID":314530},"geometry":{"x":187528.34999999963,"y":2581289.2600000035}},{"attributes":{"ID":314539,"DIS_CODE":0,"TOWNNAME":"東山區","LI":"三榮里","LIN":"17鄰","STREET":" ","SECT":" ","MAREA":"下寮子","LANE":" ","ALLEY":" ","HOUSE_NO":"３４號之１","E_COORD97":187602.37,"N_COORD97":2581181.1499999999,"ADDRESS":"下寮子３４號之１","OBJECTID":314531},"geometry":{"x":187602.37000000104,"y":2581181.1500000004}},{"attributes":{"ID":314540,"DIS_CODE":0,"TOWNNAME":"東山區","LI":"三榮里","LIN":"17鄰","STREET":" ","SECT":" ","MAREA":"下寮子","LANE":" ","ALLEY":" ","HOUSE_NO":"３４號","E_COORD97":187589.44,"N_COORD97":2581205.7000000002,"ADDRESS":"下寮子３４號","OBJECTID":314532},"geometry":{"x":187589.44000000041,"y":2581205.7000000011}},{"attributes":{"ID":314541,"DIS_CODE":0,"TOWNNAME":"東山區","LI":"三榮里","LIN":"17鄰","STREET":" ","SECT":" ","MAREA":"下寮子","LANE":" ","ALLEY":" ","HOUSE_NO":"３５號之１","E_COORD97":187544.92000000001,"N_COORD97":2581170.6899999999,"ADDRESS":"下寮子３５號之１","OBJECTID":314533},"geometry":{"x":187544.91999999993,"y":2581170.6900000032}},{"attributes":{"ID":314542,"DIS_CODE":0,"TOWNNAME":"東山區","LI":"三榮里","LIN":"17鄰","STREET":" ","SECT":" ","MAREA":"下寮子","LANE":" ","ALLEY":" ","HOUSE_NO":"３５號","E_COORD97":187567.23999999999,"N_COORD97":2581189.3500000001,"ADDRESS":"下寮子３５號","OBJECTID":314534},"geometry":{"x":187567.24000000022,"y":2581189.3499999996}},{"attributes":{"ID":314543,"DIS_CODE":0,"TOWNNAME":"南區","LI":"松安里","LIN":"7鄰","STREET":"灣裡路","SECT":" ","MAREA":" ","LANE":"３２４巷","ALLEY":" ","HOUSE_NO":"１８號","E_COORD97":166086.12,"N_COORD97":2536314.8399999999,"ADDRESS":"灣裡路３２４巷１８號","OBJECTID":314535},"geometry":{"x":166086.12000000011,"y":2536314.8399999999}},{"attributes":{"ID":314544,"DIS_CODE":0,"TOWNNAME":"南區","LI":"松安里","LIN":"7鄰","STREET":"灣裡路","SECT":" ","MAREA":" ","LANE":"３２４巷","ALLEY":" ","HOUSE_NO":"２０號","E_COORD97":166091.19,"N_COORD97":2536316.29,"ADDRESS":"灣裡路３２４巷２０號","OBJECTID":314536},"geometry":{"x":166091.19000000041,"y":2536316.290000001}},{"attributes":{"ID":314545,"DIS_CODE":0,"TOWNNAME":"南區","LI":"松安里","LIN":"7鄰","STREET":"灣裡路","SECT":" ","MAREA":" ","LANE":"３２４巷","ALLEY":" ","HOUSE_NO":"２０號之１","E_COORD97":166094.81,"N_COORD97":2536316.6499999999,"ADDRESS":"灣裡路３２４巷２０號之１","OBJECTID":314537},"geometry":{"x":166094.80999999959,"y":2536316.6500000004}},{"attributes":{"ID":314546,"DIS_CODE":0,"TOWNNAME":"南區","LI":"松安里","LIN":"7鄰","STREET":"灣裡路","SECT":" ","MAREA":" ","LANE":"３２４巷","ALLEY":" ","HOUSE_NO":"２４號","E_COORD97":166069.69,"N_COORD97":2536310.4500000002,"ADDRESS":"灣裡路３２４巷２４號","OBJECTID":314538},"geometry":{"x":166069.69000000227,"y":2536310.4499999974}},{"attributes":{"ID":314547,"DIS_CODE":0,"TOWNNAME":"東山區","LI":"科里里","LIN":"4鄰","STREET":" ","SECT":" ","MAREA":"下庄子","LANE":" ","ALLEY":" ","HOUSE_NO":"１２號","E_COORD97":189640.17999999999,"N_COORD97":2578427.1299999999,"ADDRESS":"下庄子１２號","OBJECTID":314539},"geometry":{"x":189640.1799999997,"y":2578427.129999999}},{"attributes":{"ID":314548,"DIS_CODE":0,"TOWNNAME":"東山區","LI":"科里里","LIN":"4鄰","STREET":" ","SECT":" ","MAREA":"下庄子","LANE":" ","ALLEY":" ","HOUSE_NO":"１３號","E_COORD97":189624.92000000001,"N_COORD97":2578435.75,"ADDRESS":"下庄子１３號","OBJECTID":314540},"geometry":{"x":189624.91999999993,"y":2578435.7500000019}},{"attributes":{"ID":314549,"DIS_CODE":0,"TOWNNAME":"東山區","LI":"南勢里","LIN":"4鄰","STREET":" ","SECT":" ","MAREA":"大洋","LANE":" ","ALLEY":" ","HOUSE_NO":"１２號","E_COORD97":198530.64999999999,"N_COORD97":2573886.9500000002,"ADDRESS":"大洋１２號","OBJECTID":314541},"geometry":{"x":198530.65000000037,"y":2573886.9500000011}},{"attributes":{"ID":314550,"DIS_CODE":0,"TOWNNAME":"南化區","LI":"中坑里","LIN":"2鄰","STREET":" ","SECT":" ","MAREA":"中坑","LANE":" ","ALLEY":" ","HOUSE_NO":"２之３號","E_COORD97":195739.88020300001,"N_COORD97":2550463.5399000002,"ADDRESS":"中坑２之３號","OBJECTID":314542},"geometry":{"x":195739.88020300027,"y":2550463.5398969986}},{"attributes":{"ID":314551,"DIS_CODE":0,"TOWNNAME":"東山區","LI":"南勢里","LIN":"20鄰","STREET":" ","SECT":" ","MAREA":"大洋","LANE":" ","ALLEY":" ","HOUSE_NO":"４０號之１１","E_COORD97":199402.39999999999,"N_COORD97":2573447.23,"ADDRESS":"大洋４０號之１１","OBJECTID":314543},"geometry":{"x":199402.40000000224,"y":2573447.2300000004}},{"attributes":{"ID":314552,"DIS_CODE":0,"TOWNNAME":"東山區","LI":"南勢里","LIN":"17鄰","STREET":" ","SECT":" ","MAREA":"大洋","LANE":" ","ALLEY":" ","HOUSE_NO":"３１號之１","E_COORD97":195846.13,"N_COORD97":2573540.3300000001,"ADDRESS":"大洋３１號之１","OBJECTID":314544},"geometry":{"x":195846.13000000082,"y":2573540.3300000019}},{"attributes":{"ID":314553,"DIS_CODE":0,"TOWNNAME":"東山區","LI":"南勢里","LIN":"17鄰","STREET":" ","SECT":" ","MAREA":"大洋","LANE":" ","ALLEY":" ","HOUSE_NO":"３１號","E_COORD97":195884.35000000001,"N_COORD97":2573544.0699999998,"ADDRESS":"大洋３１號","OBJECTID":314545},"geometry":{"x":195884.34999999963,"y":2573544.070000004}},{"attributes":{"ID":314554,"DIS_CODE":0,"TOWNNAME":"東山區","LI":"南勢里","LIN":"17鄰","STREET":" ","SECT":" ","MAREA":"大洋","LANE":" ","ALLEY":" ","HOUSE_NO":"３２號","E_COORD97":195987.42000000001,"N_COORD97":2573601.5699999998,"ADDRESS":"大洋３２號","OBJECTID":314546},"geometry":{"x":195987.41999999993,"y":2573601.5699999984}},{"attributes":{"ID":314555,"DIS_CODE":0,"TOWNNAME":"南區","LI":"松安里","LIN":"7鄰","STREET":"灣裡路","SECT":" ","MAREA":" ","LANE":"３２４巷","ALLEY":" ","HOUSE_NO":"２８號","E_COORD97":166056.91,"N_COORD97":2536307.5800000001,"ADDRESS":"灣裡路３２４巷２８號","OBJECTID":314547},"geometry":{"x":166056.91000000108,"y":2536307.5800000019}},{"attributes":{"ID":314556,"DIS_CODE":0,"TOWNNAME":"南區","LI":"松安里","LIN":"7鄰","STREET":"灣裡路","SECT":" ","MAREA":" ","LANE":"３２４巷","ALLEY":" ","HOUSE_NO":"８號","E_COORD97":166087.57000000001,"N_COORD97":2536334.3799999999,"ADDRESS":"灣裡路３２４巷８號","OBJECTID":314548},"geometry":{"x":166087.57000000123,"y":2536334.3799999971}},{"attributes":{"ID":314557,"DIS_CODE":0,"TOWNNAME":"南區","LI":"松安里","LIN":"7鄰","STREET":"灣裡路","SECT":" ","MAREA":" ","LANE":"８８巷","ALLEY":" ","HOUSE_NO":"２６０之２號","E_COORD97":165894.48000000001,"N_COORD97":2536424.6699999999,"ADDRESS":"灣裡路８８巷２６０之２號","OBJECTID":314549},"geometry":{"x":165894.48000000045,"y":2536424.6699999999}},{"attributes":{"ID":314558,"DIS_CODE":0,"TOWNNAME":"東山區","LI":"南勢里","LIN":"18鄰","STREET":" ","SECT":" ","MAREA":"大洋","LANE":" ","ALLEY":" ","HOUSE_NO":"５０號之３","E_COORD97":195423.81,"N_COORD97":2573574.3599999999,"ADDRESS":"大洋５０號之３","OBJECTID":314550},"geometry":{"x":195423.81000000052,"y":2573574.3599999994}},{"attributes":{"ID":314559,"DIS_CODE":0,"TOWNNAME":"東山區","LI":"南勢里","LIN":"18鄰","STREET":" ","SECT":" ","MAREA":"大洋","LANE":" ","ALLEY":" ","HOUSE_NO":"５０號之４","E_COORD97":195347.63,"N_COORD97":2573466.0499999998,"ADDRESS":"大洋５０號之４","OBJECTID":314551},"geometry":{"x":195347.63000000082,"y":2573466.0500000007}},{"attributes":{"ID":314560,"DIS_CODE":0,"TOWNNAME":"東山區","LI":"南勢里","LIN":"17鄰","STREET":" ","SECT":" ","MAREA":"大洋","LANE":" ","ALLEY":" ","HOUSE_NO":"５２號之１","E_COORD97":196164.12,"N_COORD97":2573629.4100000001,"ADDRESS":"大洋５２號之１","OBJECTID":314552},"geometry":{"x":196164.12000000011,"y":2573629.4100000001}},{"attributes":{"ID":314561,"DIS_CODE":0,"TOWNNAME":"東山區","LI":"南勢里","LIN":"17鄰","STREET":" ","SECT":" ","MAREA":"大洋","LANE":" ","ALLEY":" ","HOUSE_NO":"５２號之２","E_COORD97":196222.53,"N_COORD97":2573644.04,"ADDRESS":"大洋５２號之２","OBJECTID":314553},"geometry":{"x":196222.53000000026,"y":2573644.0399999991}},{"attributes":{"ID":314562,"DIS_CODE":0,"TOWNNAME":"東山區","LI":"南勢里","LIN":"17鄰","STREET":" ","SECT":" ","MAREA":"大洋","LANE":" ","ALLEY":" ","HOUSE_NO":"５２號","E_COORD97":195478.79999999999,"N_COORD97":2573878.5800000001,"ADDRESS":"大洋５２號","OBJECTID":314554},"geometry":{"x":195478.80000000075,"y":2573878.5800000001}},{"attributes":{"ID":314563,"DIS_CODE":0,"TOWNNAME":"東山區","LI":"南勢里","LIN":"8鄰","STREET":" ","SECT":" ","MAREA":"大洋","LANE":" ","ALLEY":" ","HOUSE_NO":"７３號","E_COORD97":195283.13,"N_COORD97":2572751.3399999999,"ADDRESS":"大洋７３號","OBJECTID":314555},"geometry":{"x":195283.13000000082,"y":2572751.3399999999}},{"attributes":{"ID":314564,"DIS_CODE":0,"TOWNNAME":"東山區","LI":"南勢里","LIN":"8鄰","STREET":" ","SECT":" ","MAREA":"大洋","LANE":" ","ALLEY":" ","HOUSE_NO":"７４號","E_COORD97":195323.32000000001,"N_COORD97":2572749.9300000002,"ADDRESS":"大洋７４號","OBJECTID":314556},"geometry":{"x":195323.32000000123,"y":2572749.9299999997}},{"attributes":{"ID":314565,"DIS_CODE":0,"TOWNNAME":"南區","LI":"松安里","LIN":"7鄰","STREET":"灣裡路","SECT":" ","MAREA":" ","LANE":"８８巷","ALLEY":" ","HOUSE_NO":"２６０號","E_COORD97":165837.26999999999,"N_COORD97":2536421.7000000002,"ADDRESS":"灣裡路８８巷２６０號","OBJECTID":314557},"geometry":{"x":165837.26999999955,"y":2536421.7000000011}},{"attributes":{"ID":314566,"DIS_CODE":0,"TOWNNAME":"南區","LI":"松安里","LIN":"7鄰","STREET":"灣裡路","SECT":" ","MAREA":" ","LANE":"８８巷","ALLEY":" ","HOUSE_NO":"２６０號之１","E_COORD97":165794.57999999999,"N_COORD97":2536439.4900000002,"ADDRESS":"灣裡路８８巷２６０號之１","OBJECTID":314558},"geometry":{"x":165794.58000000101,"y":2536439.4900000002}},{"attributes":{"ID":314567,"DIS_CODE":0,"TOWNNAME":"南區","LI":"松安里","LIN":"7鄰","STREET":"灣裡路","SECT":" ","MAREA":" ","LANE":"８８巷","ALLEY":" ","HOUSE_NO":"２７２號","E_COORD97":165946.88,"N_COORD97":2536407.2599999998,"ADDRESS":"灣裡路８８巷２７２號","OBJECTID":314559},"geometry":{"x":165946.87999999989,"y":2536407.2599999979}},{"attributes":{"ID":314568,"DIS_CODE":0,"TOWNNAME":"南區","LI":"松安里","LIN":"7鄰","STREET":"灣裡路","SECT":" ","MAREA":" ","LANE":"８８巷","ALLEY":" ","HOUSE_NO":"２７４號","E_COORD97":165939.54000000001,"N_COORD97":2536405.3999999999,"ADDRESS":"灣裡路８８巷２７４號","OBJECTID":314560},"geometry":{"x":165939.54000000004,"y":2536405.4000000022}},{"attributes":{"ID":314569,"DIS_CODE":0,"TOWNNAME":"南區","LI":"松安里","LIN":"7鄰","STREET":"灣裡路","SECT":" ","MAREA":" ","LANE":"８８巷","ALLEY":" ","HOUSE_NO":"２７６號","E_COORD97":165936.26000000001,"N_COORD97":2536403.21,"ADDRESS":"灣裡路８８巷２７６號","OBJECTID":314561},"geometry":{"x":165936.25999999885,"y":2536403.2100000028}},{"attributes":{"ID":314570,"DIS_CODE":0,"TOWNNAME":"新市區","LI":"三舍里","LIN":"8鄰","STREET":" ","SECT":" ","MAREA":"三舍","LANE":" ","ALLEY":" ","HOUSE_NO":"１８０之１號","E_COORD97":177456.51670199999,"N_COORD97":2554946.7322499999,"ADDRESS":"三舍１８０之１號","OBJECTID":314562},"geometry":{"x":177456.51670200098,"y":2554946.7322470006}},{"attributes":{"ID":314571,"DIS_CODE":0,"TOWNNAME":"學甲區","LI":"仁得里","LIN":"17鄰","STREET":"自強路","SECT":" ","MAREA":" ","LANE":" ","ALLEY":" ","HOUSE_NO":"１５１號","E_COORD97":165866.76000000001,"N_COORD97":2569887.8100000001,"ADDRESS":"自強路１５１號","OBJECTID":314563},"geometry":{"x":165866.75999999885,"y":2569887.8100000042}},{"attributes":{"ID":314572,"DIS_CODE":0,"TOWNNAME":"東山區","LI":"南勢里","LIN":"8鄰","STREET":" ","SECT":" ","MAREA":"大洋","LANE":" ","ALLEY":" ","HOUSE_NO":"７５號","E_COORD97":197334.32999999999,"N_COORD97":2574490.2999999998,"ADDRESS":"大洋７５號","OBJECTID":314564},"geometry":{"x":197334.33000000007,"y":2574490.3000000026}},{"attributes":{"ID":314573,"DIS_CODE":0,"TOWNNAME":"東山區","LI":"南勢里","LIN":"8鄰","STREET":" ","SECT":" ","MAREA":"大洋","LANE":" ","ALLEY":" ","HOUSE_NO":"７６號","E_COORD97":195350.31,"N_COORD97":2572701.6099999999,"ADDRESS":"大洋７６號","OBJECTID":314565},"geometry":{"x":195350.30999999959,"y":2572701.6099999994}},{"attributes":{"ID":314574,"DIS_CODE":0,"TOWNNAME":"東山區","LI":"南勢里","LIN":"8鄰","STREET":" ","SECT":" ","MAREA":"大洋","LANE":" ","ALLEY":" ","HOUSE_NO":"７７號","E_COORD97":195264.94,"N_COORD97":2572820.1299999999,"ADDRESS":"大洋７７號","OBJECTID":314566},"geometry":{"x":195264.94000000134,"y":2572820.1300000027}},{"attributes":{"ID":314575,"DIS_CODE":0,"TOWNNAME":"東山區","LI":"大客里","LIN":"4鄰","STREET":" ","SECT":" ","MAREA":"大庄","LANE":" ","ALLEY":" ","HOUSE_NO":"３２號","E_COORD97":189726.60999999999,"N_COORD97":2578903.1899999999,"ADDRESS":"大庄３２號","OBJECTID":314567},"geometry":{"x":189726.6100000022,"y":2578903.1900000013}},{"attributes":{"ID":314576,"DIS_CODE":0,"TOWNNAME":"南區","LI":"松安里","LIN":"7鄰","STREET":"灣裡路","SECT":" ","MAREA":" ","LANE":"８８巷","ALLEY":" ","HOUSE_NO":"２８６號","E_COORD97":165948.56,"N_COORD97":2536364.4500000002,"ADDRESS":"灣裡路８８巷２８６號","OBJECTID":314568},"geometry":{"x":165948.55999999959,"y":2536364.4499999993}},{"attributes":{"ID":314577,"DIS_CODE":0,"TOWNNAME":"南區","LI":"松安里","LIN":"7鄰","STREET":"灣裡路","SECT":" ","MAREA":" ","LANE":"８８巷","ALLEY":" ","HOUSE_NO":"２８８號","E_COORD97":165959.82999999999,"N_COORD97":2536361.96,"ADDRESS":"灣裡路８８巷２８８號","OBJECTID":314569},"geometry":{"x":165959.82999999914,"y":2536361.9600000009}},{"attributes":{"ID":314578,"DIS_CODE":0,"TOWNNAME":"南區","LI":"松安里","LIN":"7鄰","STREET":"灣裡路","SECT":" ","MAREA":" ","LANE":"８８巷","ALLEY":" ","HOUSE_NO":"２９２號","E_COORD97":165971.92000000001,"N_COORD97":2536383.1099999999,"ADDRESS":"灣裡路８８巷２９２號","OBJECTID":314570},"geometry":{"x":165971.91999999993,"y":2536383.1099999994}},{"attributes":{"ID":314579,"DIS_CODE":0,"TOWNNAME":"南區","LI":"松安里","LIN":"7鄰","STREET":"灣裡路","SECT":" ","MAREA":" ","LANE":"８８巷","ALLEY":" ","HOUSE_NO":"２９４號","E_COORD97":165975.73000000001,"N_COORD97":2536383.9399999999,"ADDRESS":"灣裡路８８巷２９４號","OBJECTID":314571},"geometry":{"x":165975.73000000045,"y":2536383.9399999995}},{"attributes":{"ID":314580,"DIS_CODE":0,"TOWNNAME":"南區","LI":"松安里","LIN":"7鄰","STREET":"灣裡路","SECT":" ","MAREA":" ","LANE":"８８巷","ALLEY":" ","HOUSE_NO":"２９４號之１","E_COORD97":165979.04999999999,"N_COORD97":2536384.4399999999,"ADDRESS":"灣裡路８８巷２９４號之１","OBJECTID":314572},"geometry":{"x":165979.05000000075,"y":2536384.4399999995}},{"attributes":{"ID":314581,"DIS_CODE":0,"TOWNNAME":"南區","LI":"松安里","LIN":"7鄰","STREET":"灣裡路","SECT":" ","MAREA":" ","LANE":"８８巷","ALLEY":" ","HOUSE_NO":"２９４號之２","E_COORD97":165983.19,"N_COORD97":2536385.2599999998,"ADDRESS":"灣裡路８８巷２９４號之２","OBJECTID":314573},"geometry":{"x":165983.18999999948,"y":2536385.2600000016}},{"attributes":{"ID":314582,"DIS_CODE":0,"TOWNNAME":"南區","LI":"松安里","LIN":"7鄰","STREET":"灣裡路","SECT":" ","MAREA":" ","LANE":"８８巷","ALLEY":" ","HOUSE_NO":"３００號","E_COORD97":165988,"N_COORD97":2536384.9300000002,"ADDRESS":"灣裡路８８巷３００號","OBJECTID":314574},"geometry":{"x":165988.00000000093,"y":2536384.9299999997}},{"attributes":{"ID":314583,"DIS_CODE":0,"TOWNNAME":"鹽水區","LI":"三生里","LIN":"7鄰","STREET":"朝琴路","SECT":" ","MAREA":" ","LANE":"５５巷","ALLEY":" ","HOUSE_NO":"７號","E_COORD97":175188.92999999999,"N_COORD97":2580065.9399999999,"ADDRESS":"朝琴路５５巷７號","OBJECTID":314575},"geometry":{"x":175188.9299999997,"y":2580065.9399999995}},{"attributes":{"ID":314584,"DIS_CODE":0,"TOWNNAME":"南區","LI":"松安里","LIN":"7鄰","STREET":"灣裡路","SECT":" ","MAREA":" ","LANE":"８８巷","ALLEY":" ","HOUSE_NO":"３００號之２","E_COORD97":165995.13,"N_COORD97":2536384.77,"ADDRESS":"灣裡路８８巷３００號之２","OBJECTID":314576},"geometry":{"x":165995.13000000175,"y":2536384.7700000014}},{"attributes":{"ID":314585,"DIS_CODE":0,"TOWNNAME":"南區","LI":"大忠里","LIN":"7鄰","STREET":"中華南路","SECT":"一段","MAREA":" ","LANE":"５３巷","ALLEY":" ","HOUSE_NO":"３０號","E_COORD97":169354.35000000001,"N_COORD97":2541314.52,"ADDRESS":"中華南路一段５３巷３０號","OBJECTID":314577},"geometry":{"x":169354.34999999963,"y":2541314.5199999977}},{"attributes":{"ID":314586,"DIS_CODE":0,"TOWNNAME":"南區","LI":"松安里","LIN":"7鄰","STREET":"灣裡路","SECT":" ","MAREA":" ","LANE":"８８巷","ALLEY":" ","HOUSE_NO":"３０８號","E_COORD97":166005.91,"N_COORD97":2536387.75,"ADDRESS":"灣裡路８８巷３０８號","OBJECTID":314578},"geometry":{"x":166005.91000000108,"y":2536387.7500000019}},{"attributes":{"ID":314587,"DIS_CODE":0,"TOWNNAME":"南區","LI":"松安里","LIN":"7鄰","STREET":"灣裡路","SECT":" ","MAREA":" ","LANE":"８８巷","ALLEY":" ","HOUSE_NO":"３０８號之１","E_COORD97":166010.88,"N_COORD97":2536388.5800000001,"ADDRESS":"灣裡路８８巷３０８號之１","OBJECTID":314579},"geometry":{"x":166010.88000000082,"y":2536388.5800000038}},{"attributes":{"ID":314588,"DIS_CODE":0,"TOWNNAME":"歸仁區","LI":"沙崙里","LIN":"6鄰","STREET":"沙崙","SECT":" ","MAREA":" ","LANE":" ","ALLEY":" ","HOUSE_NO":"３１５號","E_COORD97":179510.51529400001,"N_COORD97":2537903.4245099998,"ADDRESS":"沙崙３１５號","OBJECTID":314580},"geometry":{"x":179510.51529399958,"y":2537903.4245049991}},{"attributes":{"ID":314589,"DIS_CODE":0,"TOWNNAME":"南區","LI":"松安里","LIN":"7鄰","STREET":"灣裡路","SECT":" ","MAREA":" ","LANE":"８８巷","ALLEY":" ","HOUSE_NO":"３１２號","E_COORD97":166015.53,"N_COORD97":2536388.9100000001,"ADDRESS":"灣裡路８８巷３１２號","OBJECTID":314581},"geometry":{"x":166015.53000000119,"y":2536388.9100000001}},{"attributes":{"ID":314590,"DIS_CODE":0,"TOWNNAME":"新營區","LI":"忠政里","LIN":"15鄰","STREET":"府西路","SECT":" ","MAREA":" ","LANE":"２３０巷","ALLEY":" ","HOUSE_NO":"３８號","E_COORD97":179920.92000000001,"N_COORD97":2579599.7000000002,"ADDRESS":"府西路２３０巷３８號","OBJECTID":314582},"geometry":{"x":179920.92000000086,"y":2579599.6999999993}},{"attributes":{"ID":314591,"DIS_CODE":0,"TOWNNAME":"新營區","LI":"南紙里","LIN":"13鄰","STREET":"太子路","SECT":" ","MAREA":" ","LANE":"２００巷","ALLEY":" ","HOUSE_NO":"３７號","E_COORD97":177867.37,"N_COORD97":2577962.77,"ADDRESS":"太子路２００巷３７號","OBJECTID":314583},"geometry":{"x":177867.37000000104,"y":2577962.7699999977}},{"attributes":{"ID":314592,"DIS_CODE":0,"TOWNNAME":"新營區","LI":"南紙里","LIN":"24鄰","STREET":"南紙街","SECT":" ","MAREA":" ","LANE":"１１７巷","ALLEY":" ","HOUSE_NO":"５４號","E_COORD97":177942.60999999999,"N_COORD97":2577464.0499999998,"ADDRESS":"南紙街１１７巷５４號","OBJECTID":314584},"geometry":{"x":177942.61000000034,"y":2577464.0500000045}},{"attributes":{"ID":314593,"DIS_CODE":0,"TOWNNAME":"鹽水區","LI":"三生里","LIN":"7鄰","STREET":"朝琴路","SECT":" ","MAREA":" ","LANE":"５５巷","ALLEY":" ","HOUSE_NO":"８號","E_COORD97":175173.37,"N_COORD97":2580051.0699999998,"ADDRESS":"朝琴路５５巷８號","OBJECTID":314585},"geometry":{"x":175173.37000000104,"y":2580051.0700000022}},{"attributes":{"ID":314594,"DIS_CODE":0,"TOWNNAME":"鹽水區","LI":"三生里","LIN":"7鄰","STREET":"朝琴路","SECT":" ","MAREA":" ","LANE":"５５巷","ALLEY":" ","HOUSE_NO":"９號","E_COORD97":175180.37,"N_COORD97":2580065.3900000001,"ADDRESS":"朝琴路５５巷９號","OBJECTID":314586},"geometry":{"x":175180.37000000104,"y":2580065.3900000043}},{"attributes":{"ID":314595,"DIS_CODE":0,"TOWNNAME":"鹽水區","LI":"福得里","LIN":"7鄰","STREET":"朝琴路","SECT":" ","MAREA":" ","LANE":"８４巷","ALLEY":" ","HOUSE_NO":"４號","E_COORD97":175350.14999999999,"N_COORD97":2580059.4900000002,"ADDRESS":"朝琴路８４巷４號","OBJECTID":314587},"geometry":{"x":175350.1500000013,"y":2580059.4900000002}},{"attributes":{"ID":314596,"DIS_CODE":0,"TOWNNAME":"鹽水區","LI":"福得里","LIN":"7鄰","STREET":"朝琴路","SECT":" ","MAREA":" ","LANE":"８４巷","ALLEY":" ","HOUSE_NO":"６號之１","E_COORD97":175361.03,"N_COORD97":2580049.7000000002,"ADDRESS":"朝琴路８４巷６號之１","OBJECTID":314588},"geometry":{"x":175361.03000000119,"y":2580049.7000000011}},{"attributes":{"ID":314597,"DIS_CODE":0,"TOWNNAME":"鹽水區","LI":"福得里","LIN":"7鄰","STREET":"朝琴路","SECT":" ","MAREA":" ","LANE":"８４巷","ALLEY":" ","HOUSE_NO":"６號","E_COORD97":175356.39000000001,"N_COORD97":2580052.5,"ADDRESS":"朝琴路８４巷６號","OBJECTID":314589},"geometry":{"x":175356.38999999966,"y":2580052.5}},{"attributes":{"ID":314598,"DIS_CODE":0,"TOWNNAME":"鹽水區","LI":"橋南里","LIN":"7鄰","STREET":"新太路","SECT":" ","MAREA":" ","LANE":"１２巷","ALLEY":" ","HOUSE_NO":"３３號","E_COORD97":175437.78,"N_COORD97":2578628.8300000001,"ADDRESS":"新太路１２巷３３號","OBJECTID":314590},"geometry":{"x":175437.78000000026,"y":2578628.8300000019}},{"attributes":{"ID":314599,"DIS_CODE":0,"TOWNNAME":"鹽水區","LI":"橋南里","LIN":"7鄰","STREET":"新太路","SECT":" ","MAREA":" ","LANE":"１巷","ALLEY":" ","HOUSE_NO":"１１號","E_COORD97":175559.32999999999,"N_COORD97":2578704.1400000001,"ADDRESS":"新太路１巷１１號","OBJECTID":314591},"geometry":{"x":175559.33000000007,"y":2578704.1400000043}},{"attributes":{"ID":314600,"DIS_CODE":0,"TOWNNAME":"新營區","LI":"忠政里","LIN":"21鄰","STREET":"府西路","SECT":" ","MAREA":" ","LANE":"２３１巷","ALLEY":" ","HOUSE_NO":"３１號","E_COORD97":179704.07999999999,"N_COORD97":2579598.5099999998,"ADDRESS":"府西路２３１巷３１號","OBJECTID":314592},"geometry":{"x":179704.08000000007,"y":2579598.5099999998}},{"attributes":{"ID":314601,"DIS_CODE":0,"TOWNNAME":"新營區","LI":"南紙里","LIN":"24鄰","STREET":"南紙街","SECT":" ","MAREA":" ","LANE":"１１７巷","ALLEY":" ","HOUSE_NO":"６０號","E_COORD97":177958.97,"N_COORD97":2577462.8599999999,"ADDRESS":"南紙街１１７巷６０號","OBJECTID":314593},"geometry":{"x":177958.9700000016,"y":2577462.8599999994}},{"attributes":{"ID":314602,"DIS_CODE":0,"TOWNNAME":"新營區","LI":"忠政里","LIN":"5鄰","STREET":"安和街","SECT":" ","MAREA":" ","LANE":"２５巷","ALLEY":" ","HOUSE_NO":"５號","E_COORD97":180024.20000000001,"N_COORD97":2579225.9900000002,"ADDRESS":"安和街２５巷５號","OBJECTID":314594},"geometry":{"x":180024.20000000205,"y":2579225.9900000002}},{"attributes":{"ID":314603,"DIS_CODE":0,"TOWNNAME":"新營區","LI":"南紙里","LIN":"17鄰","STREET":"南紙街","SECT":" ","MAREA":" ","LANE":"１６２巷","ALLEY":" ","HOUSE_NO":"６３號","E_COORD97":177881.45999999999,"N_COORD97":2577302.6600000001,"ADDRESS":"南紙街１６２巷６３號","OBJECTID":314595},"geometry":{"x":177881.46000000089,"y":2577302.6600000001}},{"attributes":{"ID":314604,"DIS_CODE":0,"TOWNNAME":"新營區","LI":"忠政里","LIN":"7鄰","STREET":"中正路","SECT":" ","MAREA":" ","LANE":"３５巷","ALLEY":" ","HOUSE_NO":"１５號","E_COORD97":180022.76999999999,"N_COORD97":2579095.3199999998,"ADDRESS":"中正路３５巷１５號","OBJECTID":314596},"geometry":{"x":180022.76999999955,"y":2579095.3200000003}},{"attributes":{"ID":314605,"DIS_CODE":0,"TOWNNAME":"新營區","LI":"南紙里","LIN":"4鄰","STREET":"南紙街","SECT":" ","MAREA":" ","LANE":"１５巷","ALLEY":" ","HOUSE_NO":"２號","E_COORD97":177836.5,"N_COORD97":2577765.79,"ADDRESS":"南紙街１５巷２號","OBJECTID":314597},"geometry":{"x":177836.5,"y":2577765.7900000028}},{"attributes":{"ID":314606,"DIS_CODE":0,"TOWNNAME":"新營區","LI":"忠政里","LIN":"1鄰","STREET":"中正路","SECT":" ","MAREA":" ","LANE":"３１巷","ALLEY":" ","HOUSE_NO":"２０號","E_COORD97":180044.82999999999,"N_COORD97":2578986.6899999999,"ADDRESS":"中正路３１巷２０號","OBJECTID":314598},"geometry":{"x":180044.83000000007,"y":2578986.6899999995}},{"attributes":{"ID":314607,"DIS_CODE":0,"TOWNNAME":"新營區","LI":"南紙里","LIN":"17鄰","STREET":"南紙街","SECT":" ","MAREA":" ","LANE":"１６２巷","ALLEY":" ","HOUSE_NO":"３號","E_COORD97":177757.42000000001,"N_COORD97":2577277.79,"ADDRESS":"南紙街１６２巷３號","OBJECTID":314599},"geometry":{"x":177757.41999999993,"y":2577277.7900000028}},{"attributes":{"ID":314608,"DIS_CODE":0,"TOWNNAME":"新營區","LI":"忠政里","LIN":"17鄰","STREET":"府西路","SECT":" ","MAREA":" ","LANE":"２５８巷","ALLEY":" ","HOUSE_NO":"４５號","E_COORD97":179912.37,"N_COORD97":2579741.4900000002,"ADDRESS":"府西路２５８巷４５號","OBJECTID":314600},"geometry":{"x":179912.37000000011,"y":2579741.4900000002}}]}