{"displayFieldName":"TOWNNAME","fieldAliases":{"ID":"ID","DIS_CODE":"DIS_CODE","TOWNNAME":"TOWNNAME","LI":"LI","LIN":"LIN","STREET":"STREET","SECT":"SECT","MAREA":"MAREA","LANE":"LANE","ALLEY":"ALLEY","HOUSE_NO":"HOUSE_NO","E_COORD97":"E_COORD97","N_COORD97":"N_COORD97","ADDRESS":"ADDRESS","OBJECTID":"OBJECTID"},"geometryType":"esriGeometryPoint","spatialReference":{"wkid":102443,"latestWkid":3826},"fields":[{"name":"ID","type":"esriFieldTypeDouble","alias":"ID"},{"name":"DIS_CODE","type":"esriFieldTypeInteger","alias":"DIS_CODE"},{"name":"TOWNNAME","type":"esriFieldTypeString","alias":"TOWNNAME","length":8},{"name":"LI","type":"esriFieldTypeString","alias":"LI","length":8},{"name":"LIN","type":"esriFieldTypeString","alias":"LIN","length":12},{"name":"STREET","type":"esriFieldTypeString","alias":"STREET","length":20},{"name":"SECT","type":"esriFieldTypeString","alias":"SECT","length":8},{"name":"MAREA","type":"esriFieldTypeString","alias":"MAREA","length":12},{"name":"LANE","type":"esriFieldTypeString","alias":"LANE","length":10},{"name":"ALLEY","type":"esriFieldTypeString","alias":"ALLEY","length":10},{"name":"HOUSE_NO","type":"esriFieldTypeString","alias":"HOUSE_NO","length":20},{"name":"E_COORD97","type":"esriFieldTypeDouble","alias":"E_COORD97"},{"name":"N_COORD97","type":"esriFieldTypeDouble","alias":"N_COORD97"},{"name":"ADDRESS","type":"esriFieldTypeString","alias":"ADDRESS","length":50},{"name":"OBJECTID","type":"esriFieldTypeOID","alias":"OBJECTID"}],"features":[{"attributes":{"ID":40801,"DIS_CODE":0,"TOWNNAME":"麻豆區","LI":"安東里","LIN":"3鄰","STREET":" ","SECT":" ","MAREA":"安業","LANE":" ","ALLEY":" ","HOUSE_NO":"２９號","E_COORD97":173036.07000000001,"N_COORD97":2562848.29,"ADDRESS":"安業２９號","OBJECTID":40801},"geometry":{"x":173036.07000000216,"y":2562848.2900000028}},{"attributes":{"ID":40802,"DIS_CODE":0,"TOWNNAME":"將軍區","LI":"忠興里","LIN":"14鄰","STREET":" ","SECT":" ","MAREA":"忠興","LANE":" ","ALLEY":" ","HOUSE_NO":"１３６之１０號","E_COORD97":163711.20000000001,"N_COORD97":2567100.27,"ADDRESS":"忠興１３６之１０號","OBJECTID":40802},"geometry":{"x":163711.20000000019,"y":2567100.2700000033}},{"attributes":{"ID":40803,"DIS_CODE":0,"TOWNNAME":"新市區","LI":"大營里","LIN":"7鄰","STREET":" ","SECT":" ","MAREA":"大營","LANE":" ","ALLEY":" ","HOUSE_NO":"１５６之２８號","E_COORD97":179486.73000000001,"N_COORD97":2555469.2999999998,"ADDRESS":"大營１５６之２８號","OBJECTID":40803},"geometry":{"x":179486.73000000045,"y":2555469.3000000026}},{"attributes":{"ID":40804,"DIS_CODE":0,"TOWNNAME":"新市區","LI":"大營里","LIN":"7鄰","STREET":" ","SECT":" ","MAREA":"大營","LANE":" ","ALLEY":" ","HOUSE_NO":"１５６之２２號","E_COORD97":179495.63,"N_COORD97":2555439.2999999998,"ADDRESS":"大營１５６之２２號","OBJECTID":40804},"geometry":{"x":179495.63000000082,"y":2555439.3000000026}},{"attributes":{"ID":40805,"DIS_CODE":0,"TOWNNAME":"新市區","LI":"永就里","LIN":"7鄰","STREET":" ","SECT":" ","MAREA":"永就","LANE":" ","ALLEY":" ","HOUSE_NO":"７７之１號","E_COORD97":177590.75,"N_COORD97":2551491.7999999998,"ADDRESS":"永就７７之１號","OBJECTID":40805},"geometry":{"x":177590.75,"y":2551491.7999999989}},{"attributes":{"ID":40806,"DIS_CODE":0,"TOWNNAME":"新市區","LI":"永就里","LIN":"7鄰","STREET":" ","SECT":" ","MAREA":"永就","LANE":" ","ALLEY":" ","HOUSE_NO":"７８之３號","E_COORD97":177578.67000000001,"N_COORD97":2551527.2999999998,"ADDRESS":"永就７８之３號","OBJECTID":40806},"geometry":{"x":177578.67000000086,"y":2551527.3000000026}},{"attributes":{"ID":40807,"DIS_CODE":0,"TOWNNAME":"安平區","LI":"平安里","LIN":"7鄰","STREET":"安平路","SECT":" ","MAREA":" ","LANE":"３７０巷","ALLEY":"３弄","HOUSE_NO":"１９號二樓","E_COORD97":165442.91,"N_COORD97":2544367.48,"ADDRESS":"安平路３７０巷３弄１９號二樓","OBJECTID":40807},"geometry":{"x":165442.91000000108,"y":2544367.4800000042}},{"attributes":{"ID":40808,"DIS_CODE":0,"TOWNNAME":"新市區","LI":"永就里","LIN":"7鄰","STREET":" ","SECT":" ","MAREA":"永就","LANE":" ","ALLEY":" ","HOUSE_NO":"７８之１號","E_COORD97":177586.81,"N_COORD97":2551525.0499999998,"ADDRESS":"永就７８之１號","OBJECTID":40808},"geometry":{"x":177586.81000000145,"y":2551525.0500000026}},{"attributes":{"ID":40809,"DIS_CODE":0,"TOWNNAME":"新市區","LI":"永就里","LIN":"7鄰","STREET":" ","SECT":" ","MAREA":"永就","LANE":" ","ALLEY":" ","HOUSE_NO":"７８之２號","E_COORD97":177582.87,"N_COORD97":2551526.0499999998,"ADDRESS":"永就７８之２號","OBJECTID":40809},"geometry":{"x":177582.87000000011,"y":2551526.0500000007}},{"attributes":{"ID":40810,"DIS_CODE":0,"TOWNNAME":"新市區","LI":"三舍里","LIN":"7鄰","STREET":" ","SECT":" ","MAREA":"三舍","LANE":" ","ALLEY":" ","HOUSE_NO":"１７４之１號","E_COORD97":177500.10000000001,"N_COORD97":2554833.2999999998,"ADDRESS":"三舍１７４之１號","OBJECTID":40810},"geometry":{"x":177500.0999999987,"y":2554833.3000000007}},{"attributes":{"ID":40811,"DIS_CODE":0,"TOWNNAME":"新市區","LI":"三舍里","LIN":"7鄰","STREET":" ","SECT":" ","MAREA":"三舍","LANE":" ","ALLEY":" ","HOUSE_NO":"１７９之２號","E_COORD97":177433.14999999999,"N_COORD97":2554868.0499999998,"ADDRESS":"三舍１７９之２號","OBJECTID":40811},"geometry":{"x":177433.1500000013,"y":2554868.0500000026}},{"attributes":{"ID":40812,"DIS_CODE":0,"TOWNNAME":"七股區","LI":"十份里","LIN":"1鄰","STREET":" ","SECT":" ","MAREA":"十份","LANE":" ","ALLEY":" ","HOUSE_NO":"７號之３","E_COORD97":158345.31,"N_COORD97":2555374.0899999999,"ADDRESS":"十份７號之３","OBJECTID":40812},"geometry":{"x":158345.31000000052,"y":2555374.0899999999}},{"attributes":{"ID":40813,"DIS_CODE":0,"TOWNNAME":"安平區","LI":"平安里","LIN":"7鄰","STREET":"安平路","SECT":" ","MAREA":" ","LANE":"３７０巷","ALLEY":"３弄","HOUSE_NO":"１９號三樓","E_COORD97":165442.91,"N_COORD97":2544367.48,"ADDRESS":"安平路３７０巷３弄１９號三樓","OBJECTID":40813},"geometry":{"x":165442.91000000108,"y":2544367.4800000042}},{"attributes":{"ID":40814,"DIS_CODE":0,"TOWNNAME":"安平區","LI":"平安里","LIN":"7鄰","STREET":"安平路","SECT":" ","MAREA":" ","LANE":"３７０巷","ALLEY":"３弄","HOUSE_NO":"１９號四樓","E_COORD97":165442.91,"N_COORD97":2544367.48,"ADDRESS":"安平路３７０巷３弄１９號四樓","OBJECTID":40814},"geometry":{"x":165442.91000000108,"y":2544367.4800000042}},{"attributes":{"ID":40815,"DIS_CODE":0,"TOWNNAME":"安平區","LI":"平安里","LIN":"7鄰","STREET":"安平路","SECT":" ","MAREA":" ","LANE":"３７０巷","ALLEY":"３弄","HOUSE_NO":"２０號二樓","E_COORD97":165445.38,"N_COORD97":2544385.1600000001,"ADDRESS":"安平路３７０巷３弄２０號二樓","OBJECTID":40815},"geometry":{"x":165445.37999999989,"y":2544385.1600000001}},{"attributes":{"ID":40816,"DIS_CODE":0,"TOWNNAME":"安平區","LI":"平安里","LIN":"7鄰","STREET":"安平路","SECT":" ","MAREA":" ","LANE":"３７０巷","ALLEY":"３弄","HOUSE_NO":"２０號三樓","E_COORD97":165445.38,"N_COORD97":2544385.1600000001,"ADDRESS":"安平路３７０巷３弄２０號三樓","OBJECTID":40816},"geometry":{"x":165445.37999999989,"y":2544385.1600000001}},{"attributes":{"ID":40817,"DIS_CODE":0,"TOWNNAME":"歸仁區","LI":"看西里","LIN":"23鄰","STREET":"成功五街","SECT":" ","MAREA":" ","LANE":"８８巷","ALLEY":"９７弄","HOUSE_NO":"１４號","E_COORD97":178348.68665300001,"N_COORD97":2539804.6013000002,"ADDRESS":"成功五街８８巷９７弄１４號","OBJECTID":40817},"geometry":{"x":178348.68665300123,"y":2539804.6013040021}},{"attributes":{"ID":40818,"DIS_CODE":0,"TOWNNAME":"安平區","LI":"平安里","LIN":"7鄰","STREET":"安平路","SECT":" ","MAREA":" ","LANE":"３７０巷","ALLEY":"３弄","HOUSE_NO":"２０號四樓","E_COORD97":165445.38,"N_COORD97":2544385.1600000001,"ADDRESS":"安平路３７０巷３弄２０號四樓","OBJECTID":40818},"geometry":{"x":165445.37999999989,"y":2544385.1600000001}},{"attributes":{"ID":40819,"DIS_CODE":0,"TOWNNAME":"安平區","LI":"平安里","LIN":"7鄰","STREET":"安平路","SECT":" ","MAREA":" ","LANE":"３７０巷","ALLEY":"３弄","HOUSE_NO":"２１號二樓","E_COORD97":165431.59,"N_COORD97":2544366.0299999998,"ADDRESS":"安平路３７０巷３弄２１號二樓","OBJECTID":40819},"geometry":{"x":165431.58999999985,"y":2544366.0300000031}},{"attributes":{"ID":40820,"DIS_CODE":0,"TOWNNAME":"安平區","LI":"平安里","LIN":"7鄰","STREET":"安平路","SECT":" ","MAREA":" ","LANE":"３７０巷","ALLEY":"３弄","HOUSE_NO":"２１號三樓","E_COORD97":165431.59,"N_COORD97":2544366.0299999998,"ADDRESS":"安平路３７０巷３弄２１號三樓","OBJECTID":40820},"geometry":{"x":165431.58999999985,"y":2544366.0300000031}},{"attributes":{"ID":40821,"DIS_CODE":0,"TOWNNAME":"安平區","LI":"平安里","LIN":"7鄰","STREET":"安平路","SECT":" ","MAREA":" ","LANE":"３７０巷","ALLEY":"３弄","HOUSE_NO":"２１號四樓","E_COORD97":165431.59,"N_COORD97":2544366.0299999998,"ADDRESS":"安平路３７０巷３弄２１號四樓","OBJECTID":40821},"geometry":{"x":165431.58999999985,"y":2544366.0300000031}},{"attributes":{"ID":40822,"DIS_CODE":0,"TOWNNAME":"安平區","LI":"平安里","LIN":"7鄰","STREET":"安平路","SECT":" ","MAREA":" ","LANE":"３７０巷","ALLEY":"３弄","HOUSE_NO":"２２號二樓","E_COORD97":165437.94,"N_COORD97":2544384.3599999999,"ADDRESS":"安平路３７０巷３弄２２號二樓","OBJECTID":40822},"geometry":{"x":165437.94000000134,"y":2544384.3600000013}},{"attributes":{"ID":40823,"DIS_CODE":0,"TOWNNAME":"安平區","LI":"平安里","LIN":"7鄰","STREET":"安平路","SECT":" ","MAREA":" ","LANE":"３７０巷","ALLEY":"３弄","HOUSE_NO":"２２號三樓","E_COORD97":165437.94,"N_COORD97":2544384.3599999999,"ADDRESS":"安平路３７０巷３弄２２號三樓","OBJECTID":40823},"geometry":{"x":165437.94000000134,"y":2544384.3600000013}},{"attributes":{"ID":40824,"DIS_CODE":0,"TOWNNAME":"安平區","LI":"平安里","LIN":"7鄰","STREET":"安平路","SECT":" ","MAREA":" ","LANE":"３７０巷","ALLEY":"３弄","HOUSE_NO":"２２號四樓","E_COORD97":165437.94,"N_COORD97":2544384.3599999999,"ADDRESS":"安平路３７０巷３弄２２號四樓","OBJECTID":40824},"geometry":{"x":165437.94000000134,"y":2544384.3600000013}},{"attributes":{"ID":40825,"DIS_CODE":0,"TOWNNAME":"新市區","LI":"大營里","LIN":"7鄰","STREET":" ","SECT":" ","MAREA":"大營","LANE":" ","ALLEY":" ","HOUSE_NO":"１６６之９號","E_COORD97":179337.34,"N_COORD97":2555497.0499999998,"ADDRESS":"大營１６６之９號","OBJECTID":40825},"geometry":{"x":179337.33999999985,"y":2555497.0500000007}},{"attributes":{"ID":40826,"DIS_CODE":0,"TOWNNAME":"新市區","LI":"三舍里","LIN":"7鄰","STREET":" ","SECT":" ","MAREA":"三舍","LANE":" ","ALLEY":" ","HOUSE_NO":"１７９之１４號","E_COORD97":177453.92999999999,"N_COORD97":2554817.5499999998,"ADDRESS":"三舍１７９之１４號","OBJECTID":40826},"geometry":{"x":177453.93000000156,"y":2554817.5500000026}},{"attributes":{"ID":40827,"DIS_CODE":0,"TOWNNAME":"新市區","LI":"大營里","LIN":"7鄰","STREET":" ","SECT":" ","MAREA":"大營","LANE":" ","ALLEY":" ","HOUSE_NO":"１６９之１號","E_COORD97":179384.45000000001,"N_COORD97":2555541.7999999998,"ADDRESS":"大營１６９之１號","OBJECTID":40827},"geometry":{"x":179384.45000000019,"y":2555541.8000000026}},{"attributes":{"ID":40828,"DIS_CODE":0,"TOWNNAME":"安平區","LI":"平安里","LIN":"7鄰","STREET":"安平路","SECT":" ","MAREA":" ","LANE":"３７０巷","ALLEY":"３弄","HOUSE_NO":"２３號二樓","E_COORD97":165419.70999999999,"N_COORD97":2544363.8900000001,"ADDRESS":"安平路３７０巷３弄２３號二樓","OBJECTID":40828},"geometry":{"x":165419.70999999996,"y":2544363.8900000006}},{"attributes":{"ID":40829,"DIS_CODE":0,"TOWNNAME":"安平區","LI":"平安里","LIN":"7鄰","STREET":"安平路","SECT":" ","MAREA":" ","LANE":"３７０巷","ALLEY":"３弄","HOUSE_NO":"２３號三樓","E_COORD97":165419.70999999999,"N_COORD97":2544363.8900000001,"ADDRESS":"安平路３７０巷３弄２３號三樓","OBJECTID":40829},"geometry":{"x":165419.70999999996,"y":2544363.8900000006}},{"attributes":{"ID":40830,"DIS_CODE":0,"TOWNNAME":"將軍區","LI":"忠興里","LIN":"14鄰","STREET":" ","SECT":" ","MAREA":"忠興","LANE":" ","ALLEY":" ","HOUSE_NO":"１３６之１１號","E_COORD97":163710.56,"N_COORD97":2567105.7999999998,"ADDRESS":"忠興１３６之１１號","OBJECTID":40830},"geometry":{"x":163710.56000000052,"y":2567105.8000000026}},{"attributes":{"ID":40831,"DIS_CODE":0,"TOWNNAME":"將軍區","LI":"忠興里","LIN":"14鄰","STREET":" ","SECT":" ","MAREA":"忠興","LANE":" ","ALLEY":" ","HOUSE_NO":"１３６之１２號","E_COORD97":163709.62,"N_COORD97":2567111.2000000002,"ADDRESS":"忠興１３６之１２號","OBJECTID":40831},"geometry":{"x":163709.62000000011,"y":2567111.2000000011}},{"attributes":{"ID":40832,"DIS_CODE":0,"TOWNNAME":"將軍區","LI":"忠興里","LIN":"14鄰","STREET":" ","SECT":" ","MAREA":"忠興","LANE":" ","ALLEY":" ","HOUSE_NO":"１４１之１２號","E_COORD97":163570.70000000001,"N_COORD97":2567140.71,"ADDRESS":"忠興１４１之１２號","OBJECTID":40832},"geometry":{"x":163570.70000000205,"y":2567140.7100000028}},{"attributes":{"ID":40833,"DIS_CODE":0,"TOWNNAME":"安平區","LI":"平安里","LIN":"7鄰","STREET":"安平路","SECT":" ","MAREA":" ","LANE":"３７０巷","ALLEY":"３弄","HOUSE_NO":"２３號四樓","E_COORD97":165419.70999999999,"N_COORD97":2544363.8900000001,"ADDRESS":"安平路３７０巷３弄２３號四樓","OBJECTID":40833},"geometry":{"x":165419.70999999996,"y":2544363.8900000006}},{"attributes":{"ID":40834,"DIS_CODE":0,"TOWNNAME":"安平區","LI":"平安里","LIN":"7鄰","STREET":"安平路","SECT":" ","MAREA":" ","LANE":"３７０巷","ALLEY":"３弄","HOUSE_NO":"２４號二樓","E_COORD97":165431.76000000001,"N_COORD97":2544383.8999999999,"ADDRESS":"安平路３７０巷３弄２４號二樓","OBJECTID":40834},"geometry":{"x":165431.76000000071,"y":2544383.9000000004}},{"attributes":{"ID":40835,"DIS_CODE":0,"TOWNNAME":"安平區","LI":"平安里","LIN":"7鄰","STREET":"安平路","SECT":" ","MAREA":" ","LANE":"３７０巷","ALLEY":"３弄","HOUSE_NO":"２４號三樓","E_COORD97":165431.76000000001,"N_COORD97":2544383.8999999999,"ADDRESS":"安平路３７０巷３弄２４號三樓","OBJECTID":40835},"geometry":{"x":165431.76000000071,"y":2544383.9000000004}},{"attributes":{"ID":40836,"DIS_CODE":0,"TOWNNAME":"安平區","LI":"平安里","LIN":"7鄰","STREET":"安平路","SECT":" ","MAREA":" ","LANE":"３７０巷","ALLEY":"３弄","HOUSE_NO":"２４號四樓","E_COORD97":165431.76000000001,"N_COORD97":2544383.8999999999,"ADDRESS":"安平路３７０巷３弄２４號四樓","OBJECTID":40836},"geometry":{"x":165431.76000000071,"y":2544383.9000000004}},{"attributes":{"ID":40837,"DIS_CODE":0,"TOWNNAME":"安平區","LI":"石門里","LIN":"7鄰","STREET":"安北路","SECT":" ","MAREA":" ","LANE":"４０巷","ALLEY":"１７弄","HOUSE_NO":"９號之１二樓","E_COORD97":164583.79000000001,"N_COORD97":2544642.5299999998,"ADDRESS":"安北路４０巷１７弄９號之１二樓","OBJECTID":40837},"geometry":{"x":164583.7900000019,"y":2544642.5299999993}},{"attributes":{"ID":40838,"DIS_CODE":0,"TOWNNAME":"安平區","LI":"石門里","LIN":"7鄰","STREET":"安北路","SECT":" ","MAREA":" ","LANE":"４０巷","ALLEY":"１７弄","HOUSE_NO":"９號之１三樓","E_COORD97":164583.79000000001,"N_COORD97":2544642.5299999998,"ADDRESS":"安北路４０巷１７弄９號之１三樓","OBJECTID":40838},"geometry":{"x":164583.7900000019,"y":2544642.5299999993}},{"attributes":{"ID":40839,"DIS_CODE":0,"TOWNNAME":"新市區","LI":"新和里","LIN":"51鄰","STREET":"中正路","SECT":" ","MAREA":" ","LANE":"９２巷","ALLEY":"５弄","HOUSE_NO":"９號","E_COORD97":177507.41,"N_COORD97":2552530.5,"ADDRESS":"中正路９２巷５弄９號","OBJECTID":40839},"geometry":{"x":177507.41000000108,"y":2552530.4999999981}},{"attributes":{"ID":40840,"DIS_CODE":0,"TOWNNAME":"安平區","LI":"石門里","LIN":"7鄰","STREET":"安北路","SECT":" ","MAREA":" ","LANE":"４０巷","ALLEY":"１７弄","HOUSE_NO":"９號之１五樓","E_COORD97":164583.79000000001,"N_COORD97":2544642.5299999998,"ADDRESS":"安北路４０巷１７弄９號之１五樓","OBJECTID":40840},"geometry":{"x":164583.7900000019,"y":2544642.5299999993}},{"attributes":{"ID":40841,"DIS_CODE":0,"TOWNNAME":"東區","LI":"崇學里","LIN":"14鄰","STREET":"崇德路","SECT":" ","MAREA":" ","LANE":" ","ALLEY":" ","HOUSE_NO":"２７２號","E_COORD97":170249.87,"N_COORD97":2542009.48,"ADDRESS":"崇德路２７２號","OBJECTID":40841},"geometry":{"x":170249.87000000011,"y":2542009.4800000004}},{"attributes":{"ID":40842,"DIS_CODE":0,"TOWNNAME":"安平區","LI":"石門里","LIN":"7鄰","STREET":"安北路","SECT":" ","MAREA":" ","LANE":"４０巷","ALLEY":"１７弄","HOUSE_NO":"９號之１四樓","E_COORD97":164583.79000000001,"N_COORD97":2544642.5299999998,"ADDRESS":"安北路４０巷１７弄９號之１四樓","OBJECTID":40842},"geometry":{"x":164583.7900000019,"y":2544642.5299999993}},{"attributes":{"ID":40843,"DIS_CODE":0,"TOWNNAME":"新營區","LI":"新南里","LIN":"28鄰","STREET":"秦漢街","SECT":" ","MAREA":" ","LANE":" ","ALLEY":" ","HOUSE_NO":"６１之１號","E_COORD97":178454.670828,"N_COORD97":2578734.8792500002,"ADDRESS":"秦漢街６１之１號","OBJECTID":40843},"geometry":{"x":178454.67082800064,"y":2578734.8792520016}},{"attributes":{"ID":40844,"DIS_CODE":0,"TOWNNAME":"永康區","LI":"王行里","LIN":"14鄰","STREET":"環工路","SECT":" ","MAREA":" ","LANE":" ","ALLEY":" ","HOUSE_NO":"５號","E_COORD97":175721,"N_COORD97":2550052.73,"ADDRESS":"環工路５號","OBJECTID":40844},"geometry":{"x":175721,"y":2550052.7300000023}},{"attributes":{"ID":40845,"DIS_CODE":0,"TOWNNAME":"永康區","LI":"\u25A0行里","LIN":"14鄰","STREET":"中正六街","SECT":" ","MAREA":" ","LANE":" ","ALLEY":" ","HOUSE_NO":"１６１號","E_COORD97":171838.79999999999,"N_COORD97":2548827.25,"ADDRESS":"中正六街１６１號","OBJECTID":40845},"geometry":{"x":171838.80000000168,"y":2548827.2500000019}},{"attributes":{"ID":40846,"DIS_CODE":0,"TOWNNAME":"永康區","LI":"復國里","LIN":"14鄰","STREET":"復國二路","SECT":" ","MAREA":" ","LANE":" ","ALLEY":" ","HOUSE_NO":"１６２號","E_COORD97":172933.88,"N_COORD97":2545662.7799999998,"ADDRESS":"復國二路１６２號","OBJECTID":40846},"geometry":{"x":172933.88000000082,"y":2545662.7800000031}},{"attributes":{"ID":40847,"DIS_CODE":0,"TOWNNAME":"永康區","LI":"龍潭里","LIN":"14鄰","STREET":"龍安街","SECT":" ","MAREA":" ","LANE":" ","ALLEY":" ","HOUSE_NO":"８３號","E_COORD97":174588.48000000001,"N_COORD97":2548288.5299999998,"ADDRESS":"龍安街８３號","OBJECTID":40847},"geometry":{"x":174588.48000000138,"y":2548288.5300000031}},{"attributes":{"ID":40848,"DIS_CODE":0,"TOWNNAME":"永康區","LI":"龍潭里","LIN":"14鄰","STREET":"龍埔街","SECT":" ","MAREA":" ","LANE":" ","ALLEY":" ","HOUSE_NO":"８８號","E_COORD97":174582.39000000001,"N_COORD97":2548259.0099999998,"ADDRESS":"龍埔街８８號","OBJECTID":40848},"geometry":{"x":174582.38999999873,"y":2548259.0100000016}},{"attributes":{"ID":40849,"DIS_CODE":0,"TOWNNAME":"安平區","LI":"石門里","LIN":"7鄰","STREET":"安北路","SECT":" ","MAREA":" ","LANE":"４０巷","ALLEY":"１７弄","HOUSE_NO":"９號之２二樓","E_COORD97":164579.76999999999,"N_COORD97":2544650.0299999998,"ADDRESS":"安北路４０巷１７弄９號之２二樓","OBJECTID":40849},"geometry":{"x":164579.76999999862,"y":2544650.0299999993}},{"attributes":{"ID":40850,"DIS_CODE":0,"TOWNNAME":"安平區","LI":"石門里","LIN":"7鄰","STREET":"安北路","SECT":" ","MAREA":" ","LANE":"４０巷","ALLEY":"１７弄","HOUSE_NO":"９號之２五樓","E_COORD97":164579.76999999999,"N_COORD97":2544650.0299999998,"ADDRESS":"安北路４０巷１７弄９號之２五樓","OBJECTID":40850},"geometry":{"x":164579.76999999862,"y":2544650.0299999993}},{"attributes":{"ID":40851,"DIS_CODE":0,"TOWNNAME":"安平區","LI":"石門里","LIN":"7鄰","STREET":"安北路","SECT":" ","MAREA":" ","LANE":"４０巷","ALLEY":"１７弄","HOUSE_NO":"９號之２四樓","E_COORD97":164579.76999999999,"N_COORD97":2544650.0299999998,"ADDRESS":"安北路４０巷１７弄９號之２四樓","OBJECTID":40851},"geometry":{"x":164579.76999999862,"y":2544650.0299999993}},{"attributes":{"ID":40852,"DIS_CODE":0,"TOWNNAME":"安南區","LI":"總頭里","LIN":"7鄰","STREET":"長溪路","SECT":"二段","MAREA":" ","LANE":"５７０巷","ALLEY":"２３弄","HOUSE_NO":"１６號","E_COORD97":168322.62,"N_COORD97":2550690.2000000002,"ADDRESS":"長溪路二段５７０巷２３弄１６號","OBJECTID":40852},"geometry":{"x":168322.62000000011,"y":2550690.1999999993}},{"attributes":{"ID":40853,"DIS_CODE":0,"TOWNNAME":"安南區","LI":"總頭里","LIN":"7鄰","STREET":"長溪路","SECT":"二段","MAREA":" ","LANE":"５７０巷","ALLEY":"３１弄","HOUSE_NO":"１０號","E_COORD97":168418.76999999999,"N_COORD97":2550665.71,"ADDRESS":"長溪路二段５７０巷３１弄１０號","OBJECTID":40853},"geometry":{"x":168418.76999999955,"y":2550665.7100000046}},{"attributes":{"ID":40854,"DIS_CODE":0,"TOWNNAME":"安南區","LI":"總頭里","LIN":"7鄰","STREET":"長溪路","SECT":"二段","MAREA":" ","LANE":"５７０巷","ALLEY":"３１弄","HOUSE_NO":"１４號","E_COORD97":168430.19,"N_COORD97":2550665.5600000001,"ADDRESS":"長溪路二段５７０巷３１弄１４號","OBJECTID":40854},"geometry":{"x":168430.19000000134,"y":2550665.5600000005}},{"attributes":{"ID":40855,"DIS_CODE":0,"TOWNNAME":"將軍區","LI":"長沙里","LIN":"14鄰","STREET":" ","SECT":" ","MAREA":"長沙","LANE":" ","ALLEY":" ","HOUSE_NO":"１２６之１號","E_COORD97":157626.39000000001,"N_COORD97":2569078.9700000002,"ADDRESS":"長沙１２６之１號","OBJECTID":40855},"geometry":{"x":157626.38999999966,"y":2569078.9700000007}},{"attributes":{"ID":40856,"DIS_CODE":0,"TOWNNAME":"將軍區","LI":"長沙里","LIN":"14鄰","STREET":" ","SECT":" ","MAREA":"長沙","LANE":" ","ALLEY":" ","HOUSE_NO":"１２６之２號","E_COORD97":157598.26999999999,"N_COORD97":2569127.5899999999,"ADDRESS":"長沙１２６之２號","OBJECTID":40856},"geometry":{"x":157598.26999999955,"y":2569127.5899999999}},{"attributes":{"ID":40857,"DIS_CODE":0,"TOWNNAME":"將軍區","LI":"長沙里","LIN":"14鄰","STREET":" ","SECT":" ","MAREA":"長沙","LANE":" ","ALLEY":" ","HOUSE_NO":"１２６之３號","E_COORD97":157570.09,"N_COORD97":2569147.8500000001,"ADDRESS":"長沙１２６之３號","OBJECTID":40857},"geometry":{"x":157570.09000000171,"y":2569147.8500000034}},{"attributes":{"ID":40858,"DIS_CODE":0,"TOWNNAME":"將軍區","LI":"長沙里","LIN":"14鄰","STREET":" ","SECT":" ","MAREA":"長沙","LANE":" ","ALLEY":" ","HOUSE_NO":"１２６之４號","E_COORD97":157597.73000000001,"N_COORD97":2569171.1800000002,"ADDRESS":"長沙１２６之４號","OBJECTID":40858},"geometry":{"x":157597.73000000138,"y":2569171.1799999997}},{"attributes":{"ID":40859,"DIS_CODE":0,"TOWNNAME":"佳里區","LI":"忠仁里","LIN":"14鄰","STREET":" ","SECT":" ","MAREA":"忠仁","LANE":" ","ALLEY":" ","HOUSE_NO":"１０６號之８","E_COORD97":166105.19,"N_COORD97":2562150.21,"ADDRESS":"忠仁１０６號之８","OBJECTID":40859},"geometry":{"x":166105.19000000041,"y":2562150.2100000028}},{"attributes":{"ID":40860,"DIS_CODE":0,"TOWNNAME":"佳里區","LI":"忠仁里","LIN":"14鄰","STREET":" ","SECT":" ","MAREA":"忠仁","LANE":" ","ALLEY":" ","HOUSE_NO":"１０６號之９","E_COORD97":166104.67999999999,"N_COORD97":2562154.02,"ADDRESS":"忠仁１０６號之９","OBJECTID":40860},"geometry":{"x":166104.68000000156,"y":2562154.0199999996}},{"attributes":{"ID":40861,"DIS_CODE":0,"TOWNNAME":"新市區","LI":"三舍里","LIN":"7鄰","STREET":" ","SECT":" ","MAREA":"三舍","LANE":" ","ALLEY":" ","HOUSE_NO":"１６４之３號","E_COORD97":177543.56,"N_COORD97":2554786.7999999998,"ADDRESS":"三舍１６４之３號","OBJECTID":40861},"geometry":{"x":177543.56000000052,"y":2554786.8000000007}},{"attributes":{"ID":40862,"DIS_CODE":0,"TOWNNAME":"新營區","LI":"姑爺里","LIN":"6鄰","STREET":" ","SECT":" ","MAREA":"姑爺","LANE":" ","ALLEY":" ","HOUSE_NO":"４８號","E_COORD97":174259.14000000001,"N_COORD97":2574875.4500000002,"ADDRESS":"姑爺４８號","OBJECTID":40862},"geometry":{"x":174259.1400000006,"y":2574875.4499999993}},{"attributes":{"ID":40863,"DIS_CODE":0,"TOWNNAME":"佳里區","LI":"海澄里","LIN":"7鄰","STREET":" ","SECT":" ","MAREA":"番子寮","LANE":" ","ALLEY":" ","HOUSE_NO":"３８號","E_COORD97":164131.78,"N_COORD97":2564442.0699999998,"ADDRESS":"番子寮３８號","OBJECTID":40863},"geometry":{"x":164131.78000000119,"y":2564442.0700000022}},{"attributes":{"ID":40864,"DIS_CODE":0,"TOWNNAME":"佳里區","LI":"海澄里","LIN":"7鄰","STREET":" ","SECT":" ","MAREA":"番子寮","LANE":" ","ALLEY":" ","HOUSE_NO":"４１號之１１","E_COORD97":164270.73999999999,"N_COORD97":2564399.1499999999,"ADDRESS":"番子寮４１號之１１","OBJECTID":40864},"geometry":{"x":164270.74000000115,"y":2564399.1500000004}},{"attributes":{"ID":40865,"DIS_CODE":0,"TOWNNAME":"佳里區","LI":"海澄里","LIN":"7鄰","STREET":" ","SECT":" ","MAREA":"番子寮","LANE":" ","ALLEY":" ","HOUSE_NO":"４１號之１２","E_COORD97":164276.95999999999,"N_COORD97":2564372.2400000002,"ADDRESS":"番子寮４１號之１２","OBJECTID":40865},"geometry":{"x":164276.95999999996,"y":2564372.2400000021}},{"attributes":{"ID":40866,"DIS_CODE":0,"TOWNNAME":"佳里區","LI":"海澄里","LIN":"7鄰","STREET":" ","SECT":" ","MAREA":"番子寮","LANE":" ","ALLEY":" ","HOUSE_NO":"４１號之１３","E_COORD97":164265.35000000001,"N_COORD97":2564397.6899999999,"ADDRESS":"番子寮４１號之１３","OBJECTID":40866},"geometry":{"x":164265.34999999963,"y":2564397.6899999995}},{"attributes":{"ID":40867,"DIS_CODE":0,"TOWNNAME":"佳里區","LI":"海澄里","LIN":"7鄰","STREET":" ","SECT":" ","MAREA":"番子寮","LANE":" ","ALLEY":" ","HOUSE_NO":"４１號之１４","E_COORD97":164271.85999999999,"N_COORD97":2564370.3500000001,"ADDRESS":"番子寮４１號之１４","OBJECTID":40867},"geometry":{"x":164271.86000000127,"y":2564370.3499999978}},{"attributes":{"ID":40868,"DIS_CODE":0,"TOWNNAME":"安南區","LI":"總頭里","LIN":"7鄰","STREET":"長溪路","SECT":"二段","MAREA":" ","LANE":"５７０巷","ALLEY":"３１弄","HOUSE_NO":"１６號","E_COORD97":168435.01000000001,"N_COORD97":2550666.3599999999,"ADDRESS":"長溪路二段５７０巷３１弄１６號","OBJECTID":40868},"geometry":{"x":168435.01000000164,"y":2550666.3600000031}},{"attributes":{"ID":40869,"DIS_CODE":0,"TOWNNAME":"安南區","LI":"總頭里","LIN":"7鄰","STREET":"長溪路","SECT":"二段","MAREA":" ","LANE":"５７０巷","ALLEY":"３１弄","HOUSE_NO":"２６號","E_COORD97":168403.79999999999,"N_COORD97":2550674.6200000001,"ADDRESS":"長溪路二段５７０巷３１弄２６號","OBJECTID":40869},"geometry":{"x":168403.79999999981,"y":2550674.6200000029}},{"attributes":{"ID":40870,"DIS_CODE":0,"TOWNNAME":"東區","LI":"崇學里","LIN":"14鄰","STREET":"崇德路","SECT":" ","MAREA":" ","LANE":" ","ALLEY":" ","HOUSE_NO":"２６０號地下一層","E_COORD97":170226.48999999999,"N_COORD97":2542024.9399999999,"ADDRESS":"崇德路２６０號地下一層","OBJECTID":40870},"geometry":{"x":170226.49000000115,"y":2542024.9400000013}},{"attributes":{"ID":40871,"DIS_CODE":0,"TOWNNAME":"東區","LI":"崇學里","LIN":"14鄰","STREET":"崇德路","SECT":" ","MAREA":" ","LANE":" ","ALLEY":" ","HOUSE_NO":"２６６號","E_COORD97":170237.48999999999,"N_COORD97":2542018.0699999998,"ADDRESS":"崇德路２６６號","OBJECTID":40871},"geometry":{"x":170237.49000000022,"y":2542018.0700000022}},{"attributes":{"ID":40872,"DIS_CODE":0,"TOWNNAME":"東區","LI":"崇學里","LIN":"14鄰","STREET":"崇德路","SECT":" ","MAREA":" ","LANE":" ","ALLEY":" ","HOUSE_NO":"２６８號","E_COORD97":170241.79000000001,"N_COORD97":2542015.3199999998,"ADDRESS":"崇德路２６８號","OBJECTID":40872},"geometry":{"x":170241.79000000004,"y":2542015.320000004}},{"attributes":{"ID":40873,"DIS_CODE":0,"TOWNNAME":"東區","LI":"崇學里","LIN":"14鄰","STREET":"崇德路","SECT":" ","MAREA":" ","LANE":" ","ALLEY":" ","HOUSE_NO":"２７０號","E_COORD97":170246.26000000001,"N_COORD97":2542012.23,"ADDRESS":"崇德路２７０號","OBJECTID":40873},"geometry":{"x":170246.26000000071,"y":2542012.2300000004}},{"attributes":{"ID":40874,"DIS_CODE":0,"TOWNNAME":"佳里區","LI":"海澄里","LIN":"7鄰","STREET":" ","SECT":" ","MAREA":"番子寮","LANE":" ","ALLEY":" ","HOUSE_NO":"４１號之１５","E_COORD97":164260.35999999999,"N_COORD97":2564396.6800000002,"ADDRESS":"番子寮４１號之１５","OBJECTID":40874},"geometry":{"x":164260.36000000127,"y":2564396.6800000016}},{"attributes":{"ID":40875,"DIS_CODE":0,"TOWNNAME":"學甲區","LI":"大灣里","LIN":"14鄰","STREET":" ","SECT":" ","MAREA":"大灣","LANE":" ","ALLEY":" ","HOUSE_NO":"１４３號","E_COORD97":166711.56,"N_COORD97":2567648.5800000001,"ADDRESS":"大灣１４３號","OBJECTID":40875},"geometry":{"x":166711.55999999959,"y":2567648.5800000019}},{"attributes":{"ID":40876,"DIS_CODE":0,"TOWNNAME":"佳里區","LI":"海澄里","LIN":"7鄰","STREET":" ","SECT":" ","MAREA":"番子寮","LANE":" ","ALLEY":" ","HOUSE_NO":"４１號之１６","E_COORD97":164266.39999999999,"N_COORD97":2564369.7599999998,"ADDRESS":"番子寮４１號之１６","OBJECTID":40876},"geometry":{"x":164266.40000000224,"y":2564369.7599999998}},{"attributes":{"ID":40877,"DIS_CODE":0,"TOWNNAME":"佳里區","LI":"海澄里","LIN":"7鄰","STREET":" ","SECT":" ","MAREA":"番子寮","LANE":" ","ALLEY":" ","HOUSE_NO":"４１號之１７","E_COORD97":164255.09,"N_COORD97":2564395.4100000001,"ADDRESS":"番子寮４１號之１７","OBJECTID":40877},"geometry":{"x":164255.09000000078,"y":2564395.410000002}},{"attributes":{"ID":40878,"DIS_CODE":0,"TOWNNAME":"安南區","LI":"總頭里","LIN":"7鄰","STREET":"長溪路","SECT":"二段","MAREA":" ","LANE":"５７０巷","ALLEY":"３１弄","HOUSE_NO":"３１號","E_COORD97":168360.63,"N_COORD97":2550726.9199999999,"ADDRESS":"長溪路二段５７０巷３１弄３１號","OBJECTID":40878},"geometry":{"x":168360.63000000082,"y":2550726.9199999999}},{"attributes":{"ID":40879,"DIS_CODE":0,"TOWNNAME":"安南區","LI":"總頭里","LIN":"7鄰","STREET":"長溪路","SECT":"二段","MAREA":" ","LANE":"５７０巷","ALLEY":"３１弄","HOUSE_NO":"３６號","E_COORD97":168389.31,"N_COORD97":2550705.4500000002,"ADDRESS":"長溪路二段５７０巷３１弄３６號","OBJECTID":40879},"geometry":{"x":168389.31000000052,"y":2550705.4499999993}},{"attributes":{"ID":40880,"DIS_CODE":0,"TOWNNAME":"佳里區","LI":"海澄里","LIN":"7鄰","STREET":" ","SECT":" ","MAREA":"番子寮","LANE":" ","ALLEY":" ","HOUSE_NO":"４１號之１８","E_COORD97":164261.14999999999,"N_COORD97":2564368.1299999999,"ADDRESS":"番子寮４１號之１８","OBJECTID":40880},"geometry":{"x":164261.15000000224,"y":2564368.1300000027}},{"attributes":{"ID":40881,"DIS_CODE":0,"TOWNNAME":"佳里區","LI":"海澄里","LIN":"7鄰","STREET":" ","SECT":" ","MAREA":"番子寮","LANE":" ","ALLEY":" ","HOUSE_NO":"４１號之１９","E_COORD97":164250.09,"N_COORD97":2564393.7200000002,"ADDRESS":"番子寮４１號之１９","OBJECTID":40881},"geometry":{"x":164250.08999999985,"y":2564393.7200000025}},{"attributes":{"ID":40882,"DIS_CODE":0,"TOWNNAME":"新營區","LI":"太南里","LIN":"19鄰","STREET":" ","SECT":" ","MAREA":"太子宮","LANE":" ","ALLEY":" ","HOUSE_NO":"３０９之３９號","E_COORD97":175946.26000000001,"N_COORD97":2576533.73,"ADDRESS":"太子宮３０９之３９號","OBJECTID":40882},"geometry":{"x":175946.25999999978,"y":2576533.7300000042}},{"attributes":{"ID":40883,"DIS_CODE":0,"TOWNNAME":"佳里區","LI":"海澄里","LIN":"7鄰","STREET":" ","SECT":" ","MAREA":"番子寮","LANE":" ","ALLEY":" ","HOUSE_NO":"４１號之１","E_COORD97":164202.20000000001,"N_COORD97":2564413.7000000002,"ADDRESS":"番子寮４１號之１","OBJECTID":40883},"geometry":{"x":164202.20000000019,"y":2564413.6999999993}},{"attributes":{"ID":40884,"DIS_CODE":0,"TOWNNAME":"佳里區","LI":"海澄里","LIN":"7鄰","STREET":" ","SECT":" ","MAREA":"番子寮","LANE":" ","ALLEY":" ","HOUSE_NO":"４１號之２０","E_COORD97":164255.89999999999,"N_COORD97":2564366.9300000002,"ADDRESS":"番子寮４１號之２０","OBJECTID":40884},"geometry":{"x":164255.90000000037,"y":2564366.9300000034}},{"attributes":{"ID":40885,"DIS_CODE":0,"TOWNNAME":"佳里區","LI":"海澄里","LIN":"7鄰","STREET":" ","SECT":" ","MAREA":"番子寮","LANE":" ","ALLEY":" ","HOUSE_NO":"４１號之２１","E_COORD97":164245.10999999999,"N_COORD97":2564393.1000000001,"ADDRESS":"番子寮４１號之２１","OBJECTID":40885},"geometry":{"x":164245.11000000127,"y":2564393.1000000015}},{"attributes":{"ID":40886,"DIS_CODE":0,"TOWNNAME":"佳里區","LI":"海澄里","LIN":"7鄰","STREET":" ","SECT":" ","MAREA":"番子寮","LANE":" ","ALLEY":" ","HOUSE_NO":"４１號之２２","E_COORD97":164250.35999999999,"N_COORD97":2564365.6400000001,"ADDRESS":"番子寮４１號之２２","OBJECTID":40886},"geometry":{"x":164250.36000000127,"y":2564365.6400000006}},{"attributes":{"ID":40887,"DIS_CODE":0,"TOWNNAME":"佳里區","LI":"海澄里","LIN":"7鄰","STREET":" ","SECT":" ","MAREA":"番子寮","LANE":" ","ALLEY":" ","HOUSE_NO":"４１號之２３","E_COORD97":164239.76000000001,"N_COORD97":2564391.6400000001,"ADDRESS":"番子寮４１號之２３","OBJECTID":40887},"geometry":{"x":164239.76000000071,"y":2564391.6400000006}},{"attributes":{"ID":40888,"DIS_CODE":0,"TOWNNAME":"佳里區","LI":"海澄里","LIN":"7鄰","STREET":" ","SECT":" ","MAREA":"番子寮","LANE":" ","ALLEY":" ","HOUSE_NO":"４１號之３６","E_COORD97":164212.28,"N_COORD97":2564355.7999999998,"ADDRESS":"番子寮４１號之３６","OBJECTID":40888},"geometry":{"x":164212.28000000026,"y":2564355.8000000026}},{"attributes":{"ID":40889,"DIS_CODE":0,"TOWNNAME":"佳里區","LI":"海澄里","LIN":"7鄰","STREET":" ","SECT":" ","MAREA":"番子寮","LANE":" ","ALLEY":" ","HOUSE_NO":"４１號之３７","E_COORD97":164203.09,"N_COORD97":2564382.9300000002,"ADDRESS":"番子寮４１號之３７","OBJECTID":40889},"geometry":{"x":164203.08999999985,"y":2564382.9299999997}},{"attributes":{"ID":40890,"DIS_CODE":0,"TOWNNAME":"佳里區","LI":"海澄里","LIN":"7鄰","STREET":" ","SECT":" ","MAREA":"番子寮","LANE":" ","ALLEY":" ","HOUSE_NO":"４１號之３８","E_COORD97":164206.84,"N_COORD97":2564354.77,"ADDRESS":"番子寮４１號之３８","OBJECTID":40890},"geometry":{"x":164206.84000000171,"y":2564354.7700000014}},{"attributes":{"ID":40891,"DIS_CODE":0,"TOWNNAME":"安南區","LI":"總頭里","LIN":"7鄰","STREET":"長溪路","SECT":"二段","MAREA":" ","LANE":"５７０巷","ALLEY":"３１弄","HOUSE_NO":"４６號","E_COORD97":168390.95999999999,"N_COORD97":2550748.3900000001,"ADDRESS":"長溪路二段５７０巷３１弄４６號","OBJECTID":40891},"geometry":{"x":168390.95999999996,"y":2550748.3900000006}},{"attributes":{"ID":40892,"DIS_CODE":0,"TOWNNAME":"安南區","LI":"總頭里","LIN":"7鄰","STREET":"長溪路","SECT":"二段","MAREA":" ","LANE":"５９８巷","ALLEY":"８９弄","HOUSE_NO":"１２號","E_COORD97":168397.57999999999,"N_COORD97":2550884.7999999998,"ADDRESS":"長溪路二段５９８巷８９弄１２號","OBJECTID":40892},"geometry":{"x":168397.58000000194,"y":2550884.8000000007}},{"attributes":{"ID":40893,"DIS_CODE":0,"TOWNNAME":"佳里區","LI":"海澄里","LIN":"7鄰","STREET":" ","SECT":" ","MAREA":"番子寮","LANE":" ","ALLEY":" ","HOUSE_NO":"４１號之３９","E_COORD97":164197.32999999999,"N_COORD97":2564381.6400000001,"ADDRESS":"番子寮４１號之３９","OBJECTID":40893},"geometry":{"x":164197.33000000101,"y":2564381.6400000006}},{"attributes":{"ID":40894,"DIS_CODE":0,"TOWNNAME":"佳里區","LI":"海澄里","LIN":"7鄰","STREET":" ","SECT":" ","MAREA":"番子寮","LANE":" ","ALLEY":" ","HOUSE_NO":"４１號之３","E_COORD97":164398.35000000001,"N_COORD97":2564163.8799999999,"ADDRESS":"番子寮４１號之３","OBJECTID":40894},"geometry":{"x":164398.35000000056,"y":2564163.8800000008}},{"attributes":{"ID":40895,"DIS_CODE":0,"TOWNNAME":"佳里區","LI":"海澄里","LIN":"7鄰","STREET":" ","SECT":" ","MAREA":"番子寮","LANE":" ","ALLEY":" ","HOUSE_NO":"４１號之４０","E_COORD97":164200.82000000001,"N_COORD97":2564353.6600000001,"ADDRESS":"番子寮４１號之４０","OBJECTID":40895},"geometry":{"x":164200.82000000123,"y":2564353.660000002}},{"attributes":{"ID":40896,"DIS_CODE":0,"TOWNNAME":"佳里區","LI":"海澄里","LIN":"7鄰","STREET":" ","SECT":" ","MAREA":"番子寮","LANE":" ","ALLEY":" ","HOUSE_NO":"４１號之４１","E_COORD97":164191.84,"N_COORD97":2564380.4100000001,"ADDRESS":"番子寮４１號之４１","OBJECTID":40896},"geometry":{"x":164191.84000000078,"y":2564380.4100000001}},{"attributes":{"ID":40897,"DIS_CODE":0,"TOWNNAME":"佳里區","LI":"海澄里","LIN":"7鄰","STREET":" ","SECT":" ","MAREA":"番子寮","LANE":" ","ALLEY":" ","HOUSE_NO":"４１號之４２","E_COORD97":164195.94,"N_COORD97":2564352.5,"ADDRESS":"番子寮４１號之４２","OBJECTID":40897},"geometry":{"x":164195.94000000041,"y":2564352.5}},{"attributes":{"ID":40898,"DIS_CODE":0,"TOWNNAME":"佳里區","LI":"海澄里","LIN":"7鄰","STREET":" ","SECT":" ","MAREA":"番子寮","LANE":" ","ALLEY":" ","HOUSE_NO":"４１號之４３","E_COORD97":164186.57999999999,"N_COORD97":2564379.0899999999,"ADDRESS":"番子寮４１號之４３","OBJECTID":40898},"geometry":{"x":164186.58000000007,"y":2564379.089999998}},{"attributes":{"ID":40899,"DIS_CODE":0,"TOWNNAME":"安南區","LI":"總頭里","LIN":"7鄰","STREET":"長溪路","SECT":"二段","MAREA":" ","LANE":"５９８巷","ALLEY":"８９弄","HOUSE_NO":"２７號","E_COORD97":168365.60000000001,"N_COORD97":2550860.5800000001,"ADDRESS":"長溪路二段５９８巷８９弄２７號","OBJECTID":40899},"geometry":{"x":168365.60000000056,"y":2550860.5800000001}},{"attributes":{"ID":40900,"DIS_CODE":0,"TOWNNAME":"安南區","LI":"總頭里","LIN":"7鄰","STREET":"長溪路","SECT":"二段","MAREA":" ","LANE":"５９８巷","ALLEY":"８９弄","HOUSE_NO":"４６號","E_COORD97":168280.34,"N_COORD97":2550875.73,"ADDRESS":"長溪路二段５９８巷８９弄４６號","OBJECTID":40900},"geometry":{"x":168280.34000000171,"y":2550875.7300000023}},{"attributes":{"ID":40901,"DIS_CODE":0,"TOWNNAME":"佳里區","LI":"海澄里","LIN":"7鄰","STREET":" ","SECT":" ","MAREA":"番子寮","LANE":" ","ALLEY":" ","HOUSE_NO":"４１號之４４","E_COORD97":164191.17000000001,"N_COORD97":2564351.1600000001,"ADDRESS":"番子寮４１號之４４","OBJECTID":40901},"geometry":{"x":164191.17000000179,"y":2564351.1600000001}},{"attributes":{"ID":40902,"DIS_CODE":0,"TOWNNAME":"佳里區","LI":"海澄里","LIN":"7鄰","STREET":" ","SECT":" ","MAREA":"番子寮","LANE":" ","ALLEY":" ","HOUSE_NO":"４１號之４５","E_COORD97":164180.98999999999,"N_COORD97":2564377.7599999998,"ADDRESS":"番子寮４１號之４５","OBJECTID":40902},"geometry":{"x":164180.99000000115,"y":2564377.7599999998}},{"attributes":{"ID":40903,"DIS_CODE":0,"TOWNNAME":"佳里區","LI":"海澄里","LIN":"7鄰","STREET":" ","SECT":" ","MAREA":"番子寮","LANE":" ","ALLEY":" ","HOUSE_NO":"４１號之４６","E_COORD97":164185.41,"N_COORD97":2564349.4399999999,"ADDRESS":"番子寮４１號之４６","OBJECTID":40903},"geometry":{"x":164185.41000000108,"y":2564349.4400000032}},{"attributes":{"ID":40904,"DIS_CODE":0,"TOWNNAME":"佳里區","LI":"安西里","LIN":"14鄰","STREET":"長安街","SECT":" ","MAREA":" ","LANE":" ","ALLEY":" ","HOUSE_NO":"９２號","E_COORD97":165434.92000000001,"N_COORD97":2562526.6800000002,"ADDRESS":"長安街９２號","OBJECTID":40904},"geometry":{"x":165434.91999999993,"y":2562526.6799999997}},{"attributes":{"ID":40905,"DIS_CODE":0,"TOWNNAME":"永康區","LI":"\u25A0行里","LIN":"14鄰","STREET":"中正六街","SECT":" ","MAREA":" ","LANE":" ","ALLEY":" ","HOUSE_NO":"１７３號","E_COORD97":171862.10999999999,"N_COORD97":2548855.25,"ADDRESS":"中正六街１７３號","OBJECTID":40905},"geometry":{"x":171862.11000000034,"y":2548855.2500000019}},{"attributes":{"ID":40906,"DIS_CODE":0,"TOWNNAME":"東區","LI":"崇信里","LIN":"14鄰","STREET":"崇學路","SECT":" ","MAREA":" ","LANE":" ","ALLEY":" ","HOUSE_NO":"１４４號","E_COORD97":170505.41,"N_COORD97":2542397.4199999999,"ADDRESS":"崇學路１４４號","OBJECTID":40906},"geometry":{"x":170505.41000000015,"y":2542397.4200000037}},{"attributes":{"ID":40907,"DIS_CODE":0,"TOWNNAME":"新營區","LI":"五興里","LIN":"14鄰","STREET":" ","SECT":" ","MAREA":"五間厝","LANE":" ","ALLEY":" ","HOUSE_NO":"１５２號","E_COORD97":175381.26000000001,"N_COORD97":2574390.25,"ADDRESS":"五間厝１５２號","OBJECTID":40907},"geometry":{"x":175381.25999999978,"y":2574390.2500000037}},{"attributes":{"ID":40908,"DIS_CODE":0,"TOWNNAME":"楠西區","LI":"灣丘里","LIN":"14鄰","STREET":" ","SECT":" ","MAREA":"鳳興","LANE":" ","ALLEY":" ","HOUSE_NO":"１９號之１","E_COORD97":198581.89999999999,"N_COORD97":2562573.2999999998,"ADDRESS":"鳳興１９號之１","OBJECTID":40908},"geometry":{"x":198581.89999999944,"y":2562573.3000000026}},{"attributes":{"ID":40909,"DIS_CODE":0,"TOWNNAME":"楠西區","LI":"灣丘里","LIN":"14鄰","STREET":" ","SECT":" ","MAREA":"鳳興","LANE":" ","ALLEY":" ","HOUSE_NO":"１３號","E_COORD97":198680.47,"N_COORD97":2562658.25,"ADDRESS":"鳳興１３號","OBJECTID":40909},"geometry":{"x":198680.46999999974,"y":2562658.25}},{"attributes":{"ID":40910,"DIS_CODE":0,"TOWNNAME":"新營區","LI":"太南里","LIN":"14鄰","STREET":" ","SECT":" ","MAREA":"太子宮","LANE":" ","ALLEY":" ","HOUSE_NO":"２８４之１號","E_COORD97":176172.84,"N_COORD97":2576683.2200000002,"ADDRESS":"太子宮２８４之１號","OBJECTID":40910},"geometry":{"x":176172.83999999985,"y":2576683.2200000044}},{"attributes":{"ID":40911,"DIS_CODE":0,"TOWNNAME":"新營區","LI":"鐵線里","LIN":"14鄰","STREET":" ","SECT":" ","MAREA":"秀才","LANE":" ","ALLEY":" ","HOUSE_NO":"１７之２號","E_COORD97":174698.70000000001,"N_COORD97":2573920.8599999999,"ADDRESS":"秀才１７之２號","OBJECTID":40911},"geometry":{"x":174698.70000000112,"y":2573920.8600000031}},{"attributes":{"ID":40912,"DIS_CODE":0,"TOWNNAME":"佳里區","LI":"海澄里","LIN":"7鄰","STREET":" ","SECT":" ","MAREA":"番子寮","LANE":" ","ALLEY":" ","HOUSE_NO":"４１號之４７","E_COORD97":164175.29000000001,"N_COORD97":2564376.4100000001,"ADDRESS":"番子寮４１號之４７","OBJECTID":40912},"geometry":{"x":164175.29000000097,"y":2564376.4100000001}},{"attributes":{"ID":40913,"DIS_CODE":0,"TOWNNAME":"佳里區","LI":"海澄里","LIN":"7鄰","STREET":" ","SECT":" ","MAREA":"番子寮","LANE":" ","ALLEY":" ","HOUSE_NO":"４１號之４８","E_COORD97":164179.88,"N_COORD97":2564348.0499999998,"ADDRESS":"番子寮４１號之４８","OBJECTID":40913},"geometry":{"x":164179.88000000082,"y":2564348.0500000026}},{"attributes":{"ID":40914,"DIS_CODE":0,"TOWNNAME":"佳里區","LI":"海澄里","LIN":"7鄰","STREET":" ","SECT":" ","MAREA":"番子寮","LANE":" ","ALLEY":" ","HOUSE_NO":"４１號之４９","E_COORD97":164170.39999999999,"N_COORD97":2564375.3199999998,"ADDRESS":"番子寮４１號之４９","OBJECTID":40914},"geometry":{"x":164170.4000000013,"y":2564375.3200000022}},{"attributes":{"ID":40915,"DIS_CODE":0,"TOWNNAME":"佳里區","LI":"海澄里","LIN":"7鄰","STREET":" ","SECT":" ","MAREA":"番子寮","LANE":" ","ALLEY":" ","HOUSE_NO":"４１號之４","E_COORD97":164377.75,"N_COORD97":2564211.3500000001,"ADDRESS":"番子寮４１號之４","OBJECTID":40915},"geometry":{"x":164377.75000000093,"y":2564211.3500000034}},{"attributes":{"ID":40916,"DIS_CODE":0,"TOWNNAME":"佳里區","LI":"海澄里","LIN":"7鄰","STREET":" ","SECT":" ","MAREA":"番子寮","LANE":" ","ALLEY":" ","HOUSE_NO":"４１號之５０","E_COORD97":164175.01000000001,"N_COORD97":2564347.46,"ADDRESS":"番子寮４１號之５０","OBJECTID":40916},"geometry":{"x":164175.01000000164,"y":2564347.4600000046}},{"attributes":{"ID":40917,"DIS_CODE":0,"TOWNNAME":"佳里區","LI":"海澄里","LIN":"7鄰","STREET":" ","SECT":" ","MAREA":"番子寮","LANE":" ","ALLEY":" ","HOUSE_NO":"４１號之５１","E_COORD97":164164.78,"N_COORD97":2564374.2000000002,"ADDRESS":"番子寮４１號之５１","OBJECTID":40917},"geometry":{"x":164164.78000000026,"y":2564374.1999999993}},{"attributes":{"ID":40918,"DIS_CODE":0,"TOWNNAME":"佳里區","LI":"海澄里","LIN":"7鄰","STREET":" ","SECT":" ","MAREA":"番子寮","LANE":" ","ALLEY":" ","HOUSE_NO":"４１號之５２","E_COORD97":164168.44,"N_COORD97":2564346.1600000001,"ADDRESS":"番子寮４１號之５２","OBJECTID":40918},"geometry":{"x":164168.44000000134,"y":2564346.160000002}},{"attributes":{"ID":40919,"DIS_CODE":0,"TOWNNAME":"安定區","LI":"六嘉里","LIN":"7鄰","STREET":" ","SECT":" ","MAREA":"六塊寮","LANE":" ","ALLEY":" ","HOUSE_NO":"５７號之１","E_COORD97":170130.04999999999,"N_COORD97":2553360.2999999998,"ADDRESS":"六塊寮５７號之１","OBJECTID":40919},"geometry":{"x":170130.05000000168,"y":2553360.3000000045}},{"attributes":{"ID":40920,"DIS_CODE":0,"TOWNNAME":"安南區","LI":"總頭里","LIN":"7鄰","STREET":"長溪路","SECT":"二段","MAREA":" ","LANE":"５９８巷","ALLEY":"８９弄","HOUSE_NO":"４７號","E_COORD97":168299.64000000001,"N_COORD97":2550877.9300000002,"ADDRESS":"長溪路二段５９８巷８９弄４７號","OBJECTID":40920},"geometry":{"x":168299.63999999966,"y":2550877.9300000016}},{"attributes":{"ID":40921,"DIS_CODE":0,"TOWNNAME":"安定區","LI":"安定里","LIN":"7鄰","STREET":" ","SECT":" ","MAREA":"安定","LANE":" ","ALLEY":" ","HOUSE_NO":"４７號之６","E_COORD97":171995.20999999999,"N_COORD97":2557933.3199999998,"ADDRESS":"安定４７號之６","OBJECTID":40921},"geometry":{"x":171995.20999999996,"y":2557933.320000004}},{"attributes":{"ID":40922,"DIS_CODE":0,"TOWNNAME":"安定區","LI":"大同里","LIN":"7鄰","STREET":" ","SECT":" ","MAREA":"大同","LANE":" ","ALLEY":" ","HOUSE_NO":"８０之１號","E_COORD97":170423.37,"N_COORD97":2553793.2999999998,"ADDRESS":"大同８０之１號","OBJECTID":40922},"geometry":{"x":170423.37000000104,"y":2553793.3000000007}},{"attributes":{"ID":40923,"DIS_CODE":0,"TOWNNAME":"安定區","LI":"蘇林里","LIN":"7鄰","STREET":" ","SECT":" ","MAREA":"蘇厝","LANE":" ","ALLEY":" ","HOUSE_NO":"７６號","E_COORD97":173676.57000000001,"N_COORD97":2558675.25,"ADDRESS":"蘇厝７６號","OBJECTID":40923},"geometry":{"x":173676.5700000003,"y":2558675.25}},{"attributes":{"ID":40924,"DIS_CODE":0,"TOWNNAME":"安定區","LI":"新吉里","LIN":"7鄰","STREET":" ","SECT":" ","MAREA":"新吉","LANE":" ","ALLEY":" ","HOUSE_NO":"１２６之９號","E_COORD97":169038.12,"N_COORD97":2553868.2999999998,"ADDRESS":"新吉１２６之９號","OBJECTID":40924},"geometry":{"x":169038.12000000197,"y":2553868.3000000007}},{"attributes":{"ID":40925,"DIS_CODE":0,"TOWNNAME":"安南區","LI":"總頭里","LIN":"7鄰","STREET":"長溪路","SECT":"二段","MAREA":" ","LANE":"５９８巷","ALLEY":"８９弄","HOUSE_NO":"４８號","E_COORD97":168279.23999999999,"N_COORD97":2550870.77,"ADDRESS":"長溪路二段５９８巷８９弄４８號","OBJECTID":40925},"geometry":{"x":168279.24000000022,"y":2550870.7700000033}},{"attributes":{"ID":40926,"DIS_CODE":0,"TOWNNAME":"安定區","LI":"新吉里","LIN":"7鄰","STREET":" ","SECT":" ","MAREA":"新吉","LANE":" ","ALLEY":" ","HOUSE_NO":"１２６之４號","E_COORD97":169058.92000000001,"N_COORD97":2553870.2999999998,"ADDRESS":"新吉１２６之４號","OBJECTID":40926},"geometry":{"x":169058.91999999993,"y":2553870.3000000026}},{"attributes":{"ID":40927,"DIS_CODE":0,"TOWNNAME":"安定區","LI":"新吉里","LIN":"7鄰","STREET":" ","SECT":" ","MAREA":"新吉","LANE":" ","ALLEY":" ","HOUSE_NO":"５５之２８號","E_COORD97":168794.92000000001,"N_COORD97":2553875.2999999998,"ADDRESS":"新吉５５之２８號","OBJECTID":40927},"geometry":{"x":168794.91999999993,"y":2553875.2999999989}},{"attributes":{"ID":40928,"DIS_CODE":0,"TOWNNAME":"安南區","LI":"總頭里","LIN":"7鄰","STREET":"長溪路","SECT":"二段","MAREA":" ","LANE":"５９８巷","ALLEY":"８９弄","HOUSE_NO":"４９號","E_COORD97":168299.09,"N_COORD97":2550871.3199999998,"ADDRESS":"長溪路二段５９８巷８９弄４９號","OBJECTID":40928},"geometry":{"x":168299.09000000171,"y":2550871.3200000022}},{"attributes":{"ID":40929,"DIS_CODE":0,"TOWNNAME":"安定區","LI":"海寮里","LIN":"7鄰","STREET":" ","SECT":" ","MAREA":"海寮","LANE":" ","ALLEY":" ","HOUSE_NO":"７５號","E_COORD97":169348.39000000001,"N_COORD97":2555398.25,"ADDRESS":"海寮７５號","OBJECTID":40929},"geometry":{"x":169348.3900000006,"y":2555398.2500000019}},{"attributes":{"ID":40930,"DIS_CODE":0,"TOWNNAME":"安定區","LI":"港尾里","LIN":"7鄰","STREET":" ","SECT":" ","MAREA":"港子尾","LANE":" ","ALLEY":" ","HOUSE_NO":"３４號","E_COORD97":171643.79000000001,"N_COORD97":2556046.2599999998,"ADDRESS":"港子尾３４號","OBJECTID":40930},"geometry":{"x":171643.79000000004,"y":2556046.2599999998}},{"attributes":{"ID":40931,"DIS_CODE":0,"TOWNNAME":"歸仁區","LI":"許厝里","LIN":"14鄰","STREET":"信義北路","SECT":" ","MAREA":" ","LANE":"３０巷","ALLEY":" ","HOUSE_NO":"３１號","E_COORD97":178079.88,"N_COORD97":2540822.25,"ADDRESS":"信義北路３０巷３１號","OBJECTID":40931},"geometry":{"x":178079.87999999896,"y":2540822.2500000037}},{"attributes":{"ID":40932,"DIS_CODE":0,"TOWNNAME":"北區","LI":"賢北里","LIN":"14鄰","STREET":"賢北街","SECT":" ","MAREA":" ","LANE":" ","ALLEY":" ","HOUSE_NO":"５９號","E_COORD97":166237.85999999999,"N_COORD97":2545474.1499999999,"ADDRESS":"賢北街５９號","OBJECTID":40932},"geometry":{"x":166237.86000000034,"y":2545474.1500000004}},{"attributes":{"ID":40933,"DIS_CODE":0,"TOWNNAME":"北區","LI":"賢北里","LIN":"14鄰","STREET":"賢北街","SECT":" ","MAREA":" ","LANE":" ","ALLEY":" ","HOUSE_NO":"６５號","E_COORD97":166231.76999999999,"N_COORD97":2545494.6800000002,"ADDRESS":"賢北街６５號","OBJECTID":40933},"geometry":{"x":166231.77000000048,"y":2545494.6800000016}},{"attributes":{"ID":40934,"DIS_CODE":0,"TOWNNAME":"學甲區","LI":"三慶里","LIN":"14鄰","STREET":" ","SECT":" ","MAREA":"頂洲","LANE":" ","ALLEY":" ","HOUSE_NO":"１８５號","E_COORD97":168244.85999999999,"N_COORD97":2576476.3900000001,"ADDRESS":"頂洲１８５號","OBJECTID":40934},"geometry":{"x":168244.86000000034,"y":2576476.3900000025}},{"attributes":{"ID":40935,"DIS_CODE":0,"TOWNNAME":"學甲區","LI":"三慶里","LIN":"14鄰","STREET":" ","SECT":" ","MAREA":"頂洲","LANE":" ","ALLEY":" ","HOUSE_NO":"１８３號","E_COORD97":168209.76999999999,"N_COORD97":2576500.7599999998,"ADDRESS":"頂洲１８３號","OBJECTID":40935},"geometry":{"x":168209.77000000048,"y":2576500.7599999998}},{"attributes":{"ID":40936,"DIS_CODE":0,"TOWNNAME":"安定區","LI":"海寮里","LIN":"7鄰","STREET":" ","SECT":" ","MAREA":"海寮","LANE":" ","ALLEY":" ","HOUSE_NO":"６９號之１","E_COORD97":169377.03,"N_COORD97":2555378.2999999998,"ADDRESS":"海寮６９號之１","OBJECTID":40936},"geometry":{"x":169377.03000000119,"y":2555378.3000000026}},{"attributes":{"ID":40937,"DIS_CODE":0,"TOWNNAME":"安定區","LI":"港尾里","LIN":"7鄰","STREET":" ","SECT":" ","MAREA":"港子尾","LANE":" ","ALLEY":" ","HOUSE_NO":"３５之５號","E_COORD97":171774.48000000001,"N_COORD97":2556101.2999999998,"ADDRESS":"港子尾３５號之５","OBJECTID":40937},"geometry":{"x":171774.48000000138,"y":2556101.3000000007}},{"attributes":{"ID":40938,"DIS_CODE":0,"TOWNNAME":"安定區","LI":"港尾里","LIN":"7鄰","STREET":" ","SECT":" ","MAREA":"港子尾","LANE":" ","ALLEY":" ","HOUSE_NO":"３５號之１０","E_COORD97":171754.323787,"N_COORD97":2556030.7699099998,"ADDRESS":"港子尾３５號之１０","OBJECTID":40938},"geometry":{"x":171754.32378700096,"y":2556030.7699060012}},{"attributes":{"ID":40939,"DIS_CODE":0,"TOWNNAME":"安定區","LI":"港尾里","LIN":"7鄰","STREET":" ","SECT":" ","MAREA":"港子尾","LANE":" ","ALLEY":" ","HOUSE_NO":"３７之１１號","E_COORD97":171858.14000000001,"N_COORD97":2556015.2999999998,"ADDRESS":"港子尾３７之１１號","OBJECTID":40939},"geometry":{"x":171858.13999999966,"y":2556015.3000000026}},{"attributes":{"ID":40940,"DIS_CODE":0,"TOWNNAME":"安定區","LI":"新吉里","LIN":"7鄰","STREET":" ","SECT":" ","MAREA":"新吉","LANE":" ","ALLEY":" ","HOUSE_NO":"５６之９５號","E_COORD97":168361.32000000001,"N_COORD97":2553603.2999999998,"ADDRESS":"新吉５６之９５號","OBJECTID":40940},"geometry":{"x":168361.32000000123,"y":2553603.3000000007}},{"attributes":{"ID":40941,"DIS_CODE":0,"TOWNNAME":"安定區","LI":"港尾里","LIN":"7鄰","STREET":" ","SECT":" ","MAREA":"港子尾","LANE":" ","ALLEY":" ","HOUSE_NO":"３６號之１","E_COORD97":171696.42999999999,"N_COORD97":2555979.2999999998,"ADDRESS":"港子尾３６號之１","OBJECTID":40941},"geometry":{"x":171696.4299999997,"y":2555979.3000000007}},{"attributes":{"ID":40942,"DIS_CODE":0,"TOWNNAME":"安定區","LI":"港尾里","LIN":"7鄰","STREET":" ","SECT":" ","MAREA":"港子尾","LANE":" ","ALLEY":" ","HOUSE_NO":"３７之６號","E_COORD97":171977.69,"N_COORD97":2556027.2999999998,"ADDRESS":"港子尾３７之６號","OBJECTID":40942},"geometry":{"x":171977.69000000134,"y":2556027.3000000007}},{"attributes":{"ID":40943,"DIS_CODE":0,"TOWNNAME":"安定區","LI":"新吉里","LIN":"7鄰","STREET":" ","SECT":" ","MAREA":"新吉","LANE":" ","ALLEY":" ","HOUSE_NO":"５６之４號","E_COORD97":168649.07000000001,"N_COORD97":2553715.2999999998,"ADDRESS":"新吉５６之４號","OBJECTID":40943},"geometry":{"x":168649.07000000123,"y":2553715.3000000007}},{"attributes":{"ID":40944,"DIS_CODE":0,"TOWNNAME":"安定區","LI":"港南里","LIN":"7鄰","STREET":" ","SECT":" ","MAREA":"港口","LANE":" ","ALLEY":" ","HOUSE_NO":"５１號","E_COORD97":171606.54000000001,"N_COORD97":2554261.25,"ADDRESS":"港口５１號","OBJECTID":40944},"geometry":{"x":171606.54000000004,"y":2554261.2499999981}},{"attributes":{"ID":40945,"DIS_CODE":0,"TOWNNAME":"安定區","LI":"新吉里","LIN":"7鄰","STREET":" ","SECT":" ","MAREA":"新吉","LANE":" ","ALLEY":" ","HOUSE_NO":"５５之１３號","E_COORD97":168762.82000000001,"N_COORD97":2553906.2999999998,"ADDRESS":"新吉５５之１３號","OBJECTID":40945},"geometry":{"x":168762.82000000123,"y":2553906.3000000026}},{"attributes":{"ID":40946,"DIS_CODE":0,"TOWNNAME":"安定區","LI":"新吉里","LIN":"7鄰","STREET":" ","SECT":" ","MAREA":"新吉","LANE":" ","ALLEY":" ","HOUSE_NO":"５５之１７號","E_COORD97":168752.12,"N_COORD97":2553885.2999999998,"ADDRESS":"新吉５５之１７號","OBJECTID":40946},"geometry":{"x":168752.12000000104,"y":2553885.3000000007}},{"attributes":{"ID":40947,"DIS_CODE":0,"TOWNNAME":"安定區","LI":"新吉里","LIN":"7鄰","STREET":" ","SECT":" ","MAREA":"新吉","LANE":" ","ALLEY":" ","HOUSE_NO":"５５之８號","E_COORD97":168746.97,"N_COORD97":2553860.2999999998,"ADDRESS":"新吉５５之８號","OBJECTID":40947},"geometry":{"x":168746.96999999974,"y":2553860.3000000007}},{"attributes":{"ID":40948,"DIS_CODE":0,"TOWNNAME":"安南區","LI":"總頭里","LIN":"7鄰","STREET":"長溪路","SECT":"二段","MAREA":" ","LANE":"５９８巷","ALLEY":"８９弄","HOUSE_NO":"５０號","E_COORD97":168280.34,"N_COORD97":2550863.0600000001,"ADDRESS":"長溪路二段５９８巷８９弄５０號","OBJECTID":40948},"geometry":{"x":168280.34000000171,"y":2550863.0600000024}},{"attributes":{"ID":40949,"DIS_CODE":0,"TOWNNAME":"安南區","LI":"總頭里","LIN":"7鄰","STREET":"長溪路","SECT":"二段","MAREA":" ","LANE":"５９８巷","ALLEY":"８９弄","HOUSE_NO":"５１號","E_COORD97":168299.64000000001,"N_COORD97":2550864.1600000001,"ADDRESS":"長溪路二段５９８巷８９弄５１號","OBJECTID":40949},"geometry":{"x":168299.63999999966,"y":2550864.1600000001}},{"attributes":{"ID":40950,"DIS_CODE":0,"TOWNNAME":"安南區","LI":"總頭里","LIN":"7鄰","STREET":"長溪路","SECT":"二段","MAREA":" ","LANE":"５９８巷","ALLEY":"８９弄","HOUSE_NO":"５２號","E_COORD97":168281.44,"N_COORD97":2550855.9100000001,"ADDRESS":"長溪路二段５９８巷８９弄５２號","OBJECTID":40950},"geometry":{"x":168281.44000000041,"y":2550855.9100000001}},{"attributes":{"ID":40951,"DIS_CODE":0,"TOWNNAME":"安南區","LI":"總頭里","LIN":"7鄰","STREET":"長溪路","SECT":"二段","MAREA":" ","LANE":"５９８巷","ALLEY":"８９弄","HOUSE_NO":"５３號","E_COORD97":168297.98999999999,"N_COORD97":2550858.6600000001,"ADDRESS":"長溪路二段５９８巷８９弄５３號","OBJECTID":40951},"geometry":{"x":168297.99000000022,"y":2550858.660000002}},{"attributes":{"ID":40952,"DIS_CODE":0,"TOWNNAME":"安南區","LI":"總頭里","LIN":"7鄰","STREET":"長溪路","SECT":"二段","MAREA":" ","LANE":"５９８巷","ALLEY":"８９弄","HOUSE_NO":"５４號","E_COORD97":168278.69,"N_COORD97":2550841.6000000001,"ADDRESS":"長溪路二段５９８巷８９弄５４號","OBJECTID":40952},"geometry":{"x":168278.69000000227,"y":2550841.6000000015}},{"attributes":{"ID":40953,"DIS_CODE":0,"TOWNNAME":"安南區","LI":"總頭里","LIN":"7鄰","STREET":"長溪路","SECT":"二段","MAREA":" ","LANE":"５９８巷","ALLEY":"８９弄","HOUSE_NO":"５５號","E_COORD97":168298.54000000001,"N_COORD97":2550850.9500000002,"ADDRESS":"長溪路二段５９８巷８９弄５５號","OBJECTID":40953},"geometry":{"x":168298.54000000097,"y":2550850.9499999993}},{"attributes":{"ID":40954,"DIS_CODE":0,"TOWNNAME":"安南區","LI":"總頭里","LIN":"7鄰","STREET":"長溪路","SECT":"二段","MAREA":" ","LANE":"５９８巷","ALLEY":"８９弄","HOUSE_NO":"５６號","E_COORD97":168276.48000000001,"N_COORD97":2550831.1400000001,"ADDRESS":"長溪路二段５９８巷８９弄５６號","OBJECTID":40954},"geometry":{"x":168276.48000000045,"y":2550831.1400000006}},{"attributes":{"ID":40955,"DIS_CODE":0,"TOWNNAME":"安南區","LI":"長安里","LIN":"7鄰","STREET":"長溪路","SECT":"三段","MAREA":" ","LANE":"４０５巷","ALLEY":"４０弄","HOUSE_NO":"１６號","E_COORD97":167551.51000000001,"N_COORD97":2552047.1099999999,"ADDRESS":"長溪路三段４０５巷４０弄１６號","OBJECTID":40955},"geometry":{"x":167551.50999999978,"y":2552047.1099999994}},{"attributes":{"ID":40956,"DIS_CODE":0,"TOWNNAME":"新營區","LI":"大宏里","LIN":" ","STREET":"大同路","SECT":" ","MAREA":" ","LANE":" ","ALLEY":" ","HOUSE_NO":"２１之８號","E_COORD97":180678.98000000001,"N_COORD97":2578672.5800000001,"ADDRESS":"大同路２１之８號","OBJECTID":40956},"geometry":{"x":180678.98000000138,"y":2578672.5800000001}},{"attributes":{"ID":40957,"DIS_CODE":0,"TOWNNAME":"新營區","LI":"興安里","LIN":"14鄰","STREET":"延平路","SECT":" ","MAREA":" ","LANE":" ","ALLEY":" ","HOUSE_NO":"１０１號之４","E_COORD97":179779.92999999999,"N_COORD97":2577639.1299999999,"ADDRESS":"延平路１０１號之４","OBJECTID":40957},"geometry":{"x":179779.93000000063,"y":2577639.1300000008}},{"attributes":{"ID":40958,"DIS_CODE":0,"TOWNNAME":"安定區","LI":"安定里","LIN":"7鄰","STREET":" ","SECT":" ","MAREA":"安定","LANE":" ","ALLEY":" ","HOUSE_NO":"６１號","E_COORD97":171894.47,"N_COORD97":2557871.3199999998,"ADDRESS":"安定６１號","OBJECTID":40958},"geometry":{"x":171894.46999999974,"y":2557871.3200000003}},{"attributes":{"ID":40959,"DIS_CODE":0,"TOWNNAME":"新營區","LI":"興安里","LIN":"14鄰","STREET":"延平路","SECT":" ","MAREA":" ","LANE":" ","ALLEY":" ","HOUSE_NO":"１０１號之３","E_COORD97":179782.07999999999,"N_COORD97":2577646.8700000001,"ADDRESS":"延平路１０１號之３","OBJECTID":40959},"geometry":{"x":179782.08000000007,"y":2577646.8700000029}},{"attributes":{"ID":40960,"DIS_CODE":0,"TOWNNAME":"安定區","LI":"新吉里","LIN":"7鄰","STREET":" ","SECT":" ","MAREA":"新吉","LANE":" ","ALLEY":" ","HOUSE_NO":"５９之６０號","E_COORD97":169016.12,"N_COORD97":2554005.2999999998,"ADDRESS":"新吉５９之６０號","OBJECTID":40960},"geometry":{"x":169016.12000000197,"y":2554005.3000000026}},{"attributes":{"ID":40961,"DIS_CODE":0,"TOWNNAME":"安定區","LI":"新吉里","LIN":"7鄰","STREET":" ","SECT":" ","MAREA":"新吉","LANE":" ","ALLEY":" ","HOUSE_NO":"５５號之２２","E_COORD97":168750.48999999999,"N_COORD97":2553908.2999999998,"ADDRESS":"新吉５５號之２２","OBJECTID":40961},"geometry":{"x":168750.49000000022,"y":2553908.3000000007}},{"attributes":{"ID":40962,"DIS_CODE":0,"TOWNNAME":"安定區","LI":"新吉里","LIN":"7鄰","STREET":" ","SECT":" ","MAREA":"新吉","LANE":" ","ALLEY":" ","HOUSE_NO":"１２６之１５號","E_COORD97":169100.37,"N_COORD97":2553815.2999999998,"ADDRESS":"新吉１２６之１５號","OBJECTID":40962},"geometry":{"x":169100.37000000011,"y":2553815.3000000026}},{"attributes":{"ID":40963,"DIS_CODE":0,"TOWNNAME":"安平區","LI":"建平里","LIN":"14鄰","STREET":"永華三街","SECT":" ","MAREA":" ","LANE":" ","ALLEY":" ","HOUSE_NO":"２５７號","E_COORD97":166128.89999999999,"N_COORD97":2543962.2799999998,"ADDRESS":"永華三街２５７號","OBJECTID":40963},"geometry":{"x":166128.90000000037,"y":2543962.2800000012}},{"attributes":{"ID":40964,"DIS_CODE":0,"TOWNNAME":"安平區","LI":"建平里","LIN":"14鄰","STREET":"永華三街","SECT":" ","MAREA":" ","LANE":" ","ALLEY":" ","HOUSE_NO":"２５８號","E_COORD97":166156.29999999999,"N_COORD97":2543977.6099999999,"ADDRESS":"永華三街２５８號","OBJECTID":40964},"geometry":{"x":166156.29999999981,"y":2543977.6099999994}},{"attributes":{"ID":40965,"DIS_CODE":0,"TOWNNAME":"歸仁區","LI":"南保里","LIN":"55鄰","STREET":"民權十二街","SECT":" ","MAREA":" ","LANE":" ","ALLEY":" ","HOUSE_NO":"５號","E_COORD97":176920.89000000001,"N_COORD97":2540400.1899999999,"ADDRESS":"民權十二街５號","OBJECTID":40965},"geometry":{"x":176920.8900000006,"y":2540400.1899999995}},{"attributes":{"ID":40966,"DIS_CODE":0,"TOWNNAME":"安定區","LI":"新吉里","LIN":"7鄰","STREET":" ","SECT":" ","MAREA":"新吉","LANE":" ","ALLEY":" ","HOUSE_NO":"５６之１０３號","E_COORD97":168474.26999999999,"N_COORD97":2553640.2999999998,"ADDRESS":"新吉５６之１０３號","OBJECTID":40966},"geometry":{"x":168474.27000000048,"y":2553640.3000000007}},{"attributes":{"ID":40967,"DIS_CODE":0,"TOWNNAME":"安定區","LI":"港尾里","LIN":"7鄰","STREET":" ","SECT":" ","MAREA":"港子尾","LANE":" ","ALLEY":" ","HOUSE_NO":"３７號之１０","E_COORD97":171727.23000000001,"N_COORD97":2556018.2999999998,"ADDRESS":"港子尾３７號之１０","OBJECTID":40967},"geometry":{"x":171727.23000000045,"y":2556018.3000000045}},{"attributes":{"ID":40968,"DIS_CODE":0,"TOWNNAME":"安定區","LI":"新吉里","LIN":"7鄰","STREET":" ","SECT":" ","MAREA":"新吉","LANE":" ","ALLEY":" ","HOUSE_NO":"５６之５４號","E_COORD97":168587.82000000001,"N_COORD97":2553643.2999999998,"ADDRESS":"新吉５６之５４號","OBJECTID":40968},"geometry":{"x":168587.82000000216,"y":2553643.3000000007}},{"attributes":{"ID":40969,"DIS_CODE":0,"TOWNNAME":"安定區","LI":"港口里","LIN":"7鄰","STREET":" ","SECT":" ","MAREA":"港口","LANE":" ","ALLEY":" ","HOUSE_NO":"２７９號之６","E_COORD97":171484.42999999999,"N_COORD97":2554611.2999999998,"ADDRESS":"港口２７９號之６","OBJECTID":40969},"geometry":{"x":171484.4299999997,"y":2554611.3000000045}},{"attributes":{"ID":40970,"DIS_CODE":0,"TOWNNAME":"安定區","LI":"六嘉里","LIN":"7鄰","STREET":" ","SECT":" ","MAREA":"六塊寮","LANE":" ","ALLEY":" ","HOUSE_NO":"５７之３號","E_COORD97":170112.12,"N_COORD97":2553342.2999999998,"ADDRESS":"六塊寮５７之３號","OBJECTID":40970},"geometry":{"x":170112.12000000011,"y":2553342.3000000007}},{"attributes":{"ID":40971,"DIS_CODE":0,"TOWNNAME":"安定區","LI":"新吉里","LIN":"7鄰","STREET":" ","SECT":" ","MAREA":"新吉","LANE":" ","ALLEY":" ","HOUSE_NO":"５６之３３號","E_COORD97":168470.42000000001,"N_COORD97":2554058.2999999998,"ADDRESS":"新吉５６之３３號","OBJECTID":40971},"geometry":{"x":168470.42000000086,"y":2554058.2999999989}},{"attributes":{"ID":40972,"DIS_CODE":0,"TOWNNAME":"安定區","LI":"新吉里","LIN":"7鄰","STREET":" ","SECT":" ","MAREA":"新吉","LANE":" ","ALLEY":" ","HOUSE_NO":"５６之８１號","E_COORD97":168470.01999999999,"N_COORD97":2553562.2999999998,"ADDRESS":"新吉５６之８１號","OBJECTID":40972},"geometry":{"x":168470.01999999955,"y":2553562.3000000007}},{"attributes":{"ID":40973,"DIS_CODE":0,"TOWNNAME":"安南區","LI":"長安里","LIN":"7鄰","STREET":"長溪路","SECT":"三段","MAREA":" ","LANE":"４０５巷","ALLEY":"４０弄","HOUSE_NO":"１７號","E_COORD97":167519.84,"N_COORD97":2552041.0299999998,"ADDRESS":"長溪路三段４０５巷４０弄１７號","OBJECTID":40973},"geometry":{"x":167519.84000000078,"y":2552041.0299999993}},{"attributes":{"ID":40974,"DIS_CODE":0,"TOWNNAME":"新市區","LI":"新和里","LIN":"51鄰","STREET":"中正路","SECT":" ","MAREA":" ","LANE":"９２巷","ALLEY":"５弄","HOUSE_NO":"１號","E_COORD97":177507.95999999999,"N_COORD97":2552514.5,"ADDRESS":"中正路９２巷５弄１號","OBJECTID":40974},"geometry":{"x":177507.95999999996,"y":2552514.5000000019}},{"attributes":{"ID":40975,"DIS_CODE":0,"TOWNNAME":"安南區","LI":"長安里","LIN":"7鄰","STREET":"長溪路","SECT":"三段","MAREA":" ","LANE":"４０５巷","ALLEY":"４０弄","HOUSE_NO":"１８號","E_COORD97":167545.32999999999,"N_COORD97":2552053.8799999999,"ADDRESS":"長溪路三段４０５巷４０弄１８號","OBJECTID":40975},"geometry":{"x":167545.33000000101,"y":2552053.8800000008}},{"attributes":{"ID":40976,"DIS_CODE":0,"TOWNNAME":"安南區","LI":"長安里","LIN":"7鄰","STREET":"長溪路","SECT":"三段","MAREA":" ","LANE":"４０５巷","ALLEY":"４０弄","HOUSE_NO":"１９號","E_COORD97":167517.17999999999,"N_COORD97":2552044.7400000002,"ADDRESS":"長溪路三段４０５巷４０弄１９號","OBJECTID":40976},"geometry":{"x":167517.18000000063,"y":2552044.7400000039}},{"attributes":{"ID":40977,"DIS_CODE":0,"TOWNNAME":"安南區","LI":"長安里","LIN":"7鄰","STREET":"長溪路","SECT":"三段","MAREA":" ","LANE":"４０５巷","ALLEY":"４０弄","HOUSE_NO":"２０號","E_COORD97":167540.63,"N_COORD97":2552058.4500000002,"ADDRESS":"長溪路三段４０５巷４０弄２０號","OBJECTID":40977},"geometry":{"x":167540.62999999989,"y":2552058.4499999993}},{"attributes":{"ID":40978,"DIS_CODE":0,"TOWNNAME":"安南區","LI":"長安里","LIN":"7鄰","STREET":"長溪路","SECT":"三段","MAREA":" ","LANE":"４０５巷","ALLEY":"４０弄","HOUSE_NO":"２１號","E_COORD97":167514.32999999999,"N_COORD97":2552047.9100000001,"ADDRESS":"長溪路三段４０５巷４０弄２１號","OBJECTID":40978},"geometry":{"x":167514.32999999914,"y":2552047.910000002}},{"attributes":{"ID":40979,"DIS_CODE":0,"TOWNNAME":"安南區","LI":"長安里","LIN":"7鄰","STREET":"長溪路","SECT":"三段","MAREA":" ","LANE":"４０５巷","ALLEY":"４０弄","HOUSE_NO":"２３號","E_COORD97":167507.19,"N_COORD97":2552038.9100000001,"ADDRESS":"長溪路三段４０５巷４０弄２３號","OBJECTID":40979},"geometry":{"x":167507.19000000227,"y":2552038.9100000001}},{"attributes":{"ID":40980,"DIS_CODE":0,"TOWNNAME":"安南區","LI":"長安里","LIN":"7鄰","STREET":"長溪路","SECT":"三段","MAREA":" ","LANE":"４０５巷","ALLEY":"４０弄","HOUSE_NO":"２５號","E_COORD97":167503.22,"N_COORD97":2552036.46,"ADDRESS":"長溪路三段４０５巷４０弄２５號","OBJECTID":40980},"geometry":{"x":167503.22000000067,"y":2552036.4600000009}},{"attributes":{"ID":40981,"DIS_CODE":0,"TOWNNAME":"安南區","LI":"長安里","LIN":"7鄰","STREET":"長溪路","SECT":"三段","MAREA":" ","LANE":"４０５巷","ALLEY":"４０弄","HOUSE_NO":"２６號","E_COORD97":167496.51000000001,"N_COORD97":2552083.8399999999,"ADDRESS":"長溪路三段４０５巷４０弄２６號","OBJECTID":40981},"geometry":{"x":167496.51000000071,"y":2552083.839999998}},{"attributes":{"ID":40982,"DIS_CODE":0,"TOWNNAME":"安南區","LI":"長安里","LIN":"7鄰","STREET":"長溪路","SECT":"三段","MAREA":" ","LANE":"４０５巷","ALLEY":"４０弄","HOUSE_NO":"２７號","E_COORD97":167520.01999999999,"N_COORD97":2552021.0099999998,"ADDRESS":"長溪路三段４０５巷４０弄２７號","OBJECTID":40982},"geometry":{"x":167520.02000000048,"y":2552021.0099999998}},{"attributes":{"ID":40983,"DIS_CODE":0,"TOWNNAME":"安南區","LI":"長安里","LIN":"7鄰","STREET":"長溪路","SECT":"三段","MAREA":" ","LANE":"４０５巷","ALLEY":"４０弄","HOUSE_NO":"２９號","E_COORD97":167516,"N_COORD97":2552018.6099999999,"ADDRESS":"長溪路三段４０５巷４０弄２９號","OBJECTID":40983},"geometry":{"x":167516,"y":2552018.6100000013}},{"attributes":{"ID":40984,"DIS_CODE":0,"TOWNNAME":"安南區","LI":"長安里","LIN":"7鄰","STREET":"長溪路","SECT":"三段","MAREA":" ","LANE":"４０５巷","ALLEY":"４０弄","HOUSE_NO":"３１號","E_COORD97":167510.35000000001,"N_COORD97":2552013.9199999999,"ADDRESS":"長溪路三段４０５巷４０弄３１號","OBJECTID":40984},"geometry":{"x":167510.3499999987,"y":2552013.9200000018}},{"attributes":{"ID":40985,"DIS_CODE":0,"TOWNNAME":"北區","LI":"中樓里","LIN":"14鄰","STREET":"開元路","SECT":" ","MAREA":" ","LANE":"９０巷","ALLEY":" ","HOUSE_NO":"１號","E_COORD97":169797.63,"N_COORD97":2545174.3999999999,"ADDRESS":"開元路９０巷１號","OBJECTID":40985},"geometry":{"x":169797.63000000082,"y":2545174.3999999985}},{"attributes":{"ID":40986,"DIS_CODE":0,"TOWNNAME":"北區","LI":"振興里","LIN":"14鄰","STREET":"長榮路","SECT":"四段","MAREA":" ","LANE":" ","ALLEY":" ","HOUSE_NO":"１０６號","E_COORD97":170293.54999999999,"N_COORD97":2545111.3100000001,"ADDRESS":"長榮路四段１０６號","OBJECTID":40986},"geometry":{"x":170293.55000000075,"y":2545111.3100000024}},{"attributes":{"ID":40987,"DIS_CODE":0,"TOWNNAME":"歸仁區","LI":"南保里","LIN":"55鄰","STREET":"民權十二街","SECT":" ","MAREA":" ","LANE":" ","ALLEY":" ","HOUSE_NO":"１號","E_COORD97":176925.01999999999,"N_COORD97":2540396.6099999999,"ADDRESS":"民權十二街１號","OBJECTID":40987},"geometry":{"x":176925.02000000048,"y":2540396.6100000013}},{"attributes":{"ID":40988,"DIS_CODE":0,"TOWNNAME":"北區","LI":"振興里","LIN":"14鄰","STREET":"長榮路","SECT":"四段","MAREA":" ","LANE":" ","ALLEY":" ","HOUSE_NO":"１０８號","E_COORD97":170291.48000000001,"N_COORD97":2545115.4500000002,"ADDRESS":"長榮路四段１０８號","OBJECTID":40988},"geometry":{"x":170291.48000000045,"y":2545115.450000003}},{"attributes":{"ID":40989,"DIS_CODE":0,"TOWNNAME":"北區","LI":"振興里","LIN":"14鄰","STREET":"長榮路","SECT":"四段","MAREA":" ","LANE":" ","ALLEY":" ","HOUSE_NO":"１１０號","E_COORD97":170288.32000000001,"N_COORD97":2545120.8999999999,"ADDRESS":"長榮路四段１１０號","OBJECTID":40989},"geometry":{"x":170288.32000000123,"y":2545120.9000000022}},{"attributes":{"ID":40990,"DIS_CODE":0,"TOWNNAME":"新營區","LI":"民榮里","LIN":"14鄰","STREET":"復興路","SECT":" ","MAREA":" ","LANE":" ","ALLEY":" ","HOUSE_NO":"１６９之３號","E_COORD97":178882.45999999999,"N_COORD97":2577916.96,"ADDRESS":"復興路１６９之３號","OBJECTID":40990},"geometry":{"x":178882.45999999996,"y":2577916.9600000028}},{"attributes":{"ID":40991,"DIS_CODE":0,"TOWNNAME":"新營區","LI":"中營里","LIN":"14鄰","STREET":"東山五路","SECT":" ","MAREA":" ","LANE":" ","ALLEY":" ","HOUSE_NO":"１６８號","E_COORD97":181823.23999999999,"N_COORD97":2579380.96,"ADDRESS":"東山五路１６８號","OBJECTID":40991},"geometry":{"x":181823.24000000115,"y":2579380.9600000028}},{"attributes":{"ID":40992,"DIS_CODE":0,"TOWNNAME":"新營區","LI":"好平里","LIN":"14鄰","STREET":"和平路","SECT":" ","MAREA":" ","LANE":" ","ALLEY":" ","HOUSE_NO":"２７號","E_COORD97":179426.14999999999,"N_COORD97":2577941.98,"ADDRESS":"和平路２７號","OBJECTID":40992},"geometry":{"x":179426.15000000037,"y":2577941.9799999986}},{"attributes":{"ID":40993,"DIS_CODE":0,"TOWNNAME":"新營區","LI":"嘉芳里","LIN":"14鄰","STREET":"五福路","SECT":" ","MAREA":" ","LANE":" ","ALLEY":" ","HOUSE_NO":"２５號","E_COORD97":176531.98783299999,"N_COORD97":2578287.2928999998,"ADDRESS":"五福路２５號","OBJECTID":40993},"geometry":{"x":176531.98783300072,"y":2578287.2929039989}},{"attributes":{"ID":40994,"DIS_CODE":0,"TOWNNAME":"新營區","LI":"嘉芳里","LIN":"14鄰","STREET":"五福路","SECT":" ","MAREA":" ","LANE":" ","ALLEY":" ","HOUSE_NO":"１３４號","E_COORD97":176087.51999999999,"N_COORD97":2578344.77,"ADDRESS":"五福路１３４號","OBJECTID":40994},"geometry":{"x":176087.52000000048,"y":2578344.7699999996}},{"attributes":{"ID":40995,"DIS_CODE":0,"TOWNNAME":"歸仁區","LI":"看東里","LIN":"8鄰","STREET":"成功一街","SECT":" ","MAREA":" ","LANE":" ","ALLEY":" ","HOUSE_NO":"３９號","E_COORD97":178663.54999999999,"N_COORD97":2540096.4500000002,"ADDRESS":"成功一街３９號","OBJECTID":40995},"geometry":{"x":178663.55000000168,"y":2540096.4499999993}},{"attributes":{"ID":40996,"DIS_CODE":0,"TOWNNAME":"歸仁區","LI":"西埔里","LIN":"8鄰","STREET":"保大路","SECT":"二段","MAREA":" ","LANE":" ","ALLEY":" ","HOUSE_NO":"３１６號","E_COORD97":176564.67000000001,"N_COORD97":2544160.2799999998,"ADDRESS":"保大路二段３１６號","OBJECTID":40996},"geometry":{"x":176564.67000000086,"y":2544160.2799999993}},{"attributes":{"ID":40997,"DIS_CODE":0,"TOWNNAME":"安定區","LI":"安加里","LIN":"7鄰","STREET":" ","SECT":" ","MAREA":"安定","LANE":" ","ALLEY":" ","HOUSE_NO":"２１７號之４","E_COORD97":171758.12829699999,"N_COORD97":2557463.2732000002,"ADDRESS":"安定２１７號之４","OBJECTID":40997},"geometry":{"x":171758.12829700112,"y":2557463.2732040025}},{"attributes":{"ID":40998,"DIS_CODE":0,"TOWNNAME":"安定區","LI":"安定里","LIN":"7鄰","STREET":" ","SECT":" ","MAREA":"安定","LANE":" ","ALLEY":" ","HOUSE_NO":"４７之１７號","E_COORD97":172019.62,"N_COORD97":2557968.3199999998,"ADDRESS":"安定４７之１７號","OBJECTID":40998},"geometry":{"x":172019.62000000011,"y":2557968.3200000022}},{"attributes":{"ID":40999,"DIS_CODE":0,"TOWNNAME":"安定區","LI":"新吉里","LIN":"7鄰","STREET":" ","SECT":" ","MAREA":"新吉","LANE":" ","ALLEY":" ","HOUSE_NO":"５９之２６號","E_COORD97":168962.12,"N_COORD97":2553951.2999999998,"ADDRESS":"新吉５９之２６號","OBJECTID":40999},"geometry":{"x":168962.12000000104,"y":2553951.3000000026}},{"attributes":{"ID":41000,"DIS_CODE":0,"TOWNNAME":"安南區","LI":"長安里","LIN":"7鄰","STREET":"長溪路","SECT":"三段","MAREA":" ","LANE":"４０５巷","ALLEY":"４０弄","HOUSE_NO":"３３號","E_COORD97":167500.28,"N_COORD97":2552031.79,"ADDRESS":"長溪路三段４０５巷４０弄３３號","OBJECTID":41000},"geometry":{"x":167500.28000000119,"y":2552031.7899999991}}]}