{"displayFieldName":"TOWNNAME","fieldAliases":{"ID":"ID","DIS_CODE":"DIS_CODE","TOWNNAME":"TOWNNAME","LI":"LI","LIN":"LIN","STREET":"STREET","SECT":"SECT","MAREA":"MAREA","LANE":"LANE","ALLEY":"ALLEY","HOUSE_NO":"HOUSE_NO","E_COORD97":"E_COORD97","N_COORD97":"N_COORD97","ADDRESS":"ADDRESS","OBJECTID":"OBJECTID"},"geometryType":"esriGeometryPoint","spatialReference":{"wkid":102443,"latestWkid":3826},"fields":[{"name":"ID","type":"esriFieldTypeDouble","alias":"ID"},{"name":"DIS_CODE","type":"esriFieldTypeInteger","alias":"DIS_CODE"},{"name":"TOWNNAME","type":"esriFieldTypeString","alias":"TOWNNAME","length":8},{"name":"LI","type":"esriFieldTypeString","alias":"LI","length":8},{"name":"LIN","type":"esriFieldTypeString","alias":"LIN","length":12},{"name":"STREET","type":"esriFieldTypeString","alias":"STREET","length":20},{"name":"SECT","type":"esriFieldTypeString","alias":"SECT","length":8},{"name":"MAREA","type":"esriFieldTypeString","alias":"MAREA","length":12},{"name":"LANE","type":"esriFieldTypeString","alias":"LANE","length":10},{"name":"ALLEY","type":"esriFieldTypeString","alias":"ALLEY","length":10},{"name":"HOUSE_NO","type":"esriFieldTypeString","alias":"HOUSE_NO","length":20},{"name":"E_COORD97","type":"esriFieldTypeDouble","alias":"E_COORD97"},{"name":"N_COORD97","type":"esriFieldTypeDouble","alias":"N_COORD97"},{"name":"ADDRESS","type":"esriFieldTypeString","alias":"ADDRESS","length":50},{"name":"OBJECTID","type":"esriFieldTypeOID","alias":"OBJECTID"}],"features":[{"attributes":{"ID":581428,"DIS_CODE":0,"TOWNNAME":"中西區","LI":"永華里","LIN":"8鄰","STREET":"南門路","SECT":" ","MAREA":" ","LANE":" ","ALLEY":" ","HOUSE_NO":"４３號","E_COORD97":168481.78,"N_COORD97":2543428.3100000001,"ADDRESS":"南門路４３號","OBJECTID":581401},"geometry":{"x":168481.78000000119,"y":2543428.3100000005}},{"attributes":{"ID":581429,"DIS_CODE":0,"TOWNNAME":"中西區","LI":"永華里","LIN":"8鄰","STREET":"南門路","SECT":" ","MAREA":" ","LANE":" ","ALLEY":" ","HOUSE_NO":"４５號","E_COORD97":168481.78,"N_COORD97":2543424.6699999999,"ADDRESS":"南門路４５號","OBJECTID":581402},"geometry":{"x":168481.78000000119,"y":2543424.6699999999}},{"attributes":{"ID":581430,"DIS_CODE":0,"TOWNNAME":"中西區","LI":"永華里","LIN":"8鄰","STREET":"南門路","SECT":" ","MAREA":" ","LANE":" ","ALLEY":" ","HOUSE_NO":"４７號","E_COORD97":168480.66,"N_COORD97":2543420.48,"ADDRESS":"南門路４７號","OBJECTID":581403},"geometry":{"x":168480.66000000108,"y":2543420.4800000004}},{"attributes":{"ID":581431,"DIS_CODE":0,"TOWNNAME":"中西區","LI":"永華里","LIN":"8鄰","STREET":"南門路","SECT":" ","MAREA":" ","LANE":" ","ALLEY":" ","HOUSE_NO":"４９號","E_COORD97":168480.37,"N_COORD97":2543416.8399999999,"ADDRESS":"南門路４９號","OBJECTID":581404},"geometry":{"x":168480.36999999918,"y":2543416.8399999999}},{"attributes":{"ID":581432,"DIS_CODE":0,"TOWNNAME":"中西區","LI":"永華里","LIN":"8鄰","STREET":"南門路","SECT":" ","MAREA":" ","LANE":" ","ALLEY":" ","HOUSE_NO":"５１號","E_COORD97":168479.92000000001,"N_COORD97":2543410.9900000002,"ADDRESS":"南門路５１號","OBJECTID":581405},"geometry":{"x":168479.92000000179,"y":2543410.9900000039}},{"attributes":{"ID":581433,"DIS_CODE":0,"TOWNNAME":"中西區","LI":"永華里","LIN":"9鄰","STREET":"府中街","SECT":" ","MAREA":" ","LANE":" ","ALLEY":" ","HOUSE_NO":"１０７號","E_COORD97":168580.22,"N_COORD97":2543405.0699999998,"ADDRESS":"府中街１０７號","OBJECTID":581406},"geometry":{"x":168580.22000000067,"y":2543405.0700000022}},{"attributes":{"ID":581434,"DIS_CODE":0,"TOWNNAME":"歸仁區","LI":"許厝里","LIN":"16鄰","STREET":"中山路","SECT":"一段","MAREA":" ","LANE":" ","ALLEY":" ","HOUSE_NO":"３２０號","E_COORD97":178426.60999999999,"N_COORD97":2540689.25,"ADDRESS":"中山路一段３２０號","OBJECTID":581407},"geometry":{"x":178426.61000000127,"y":2540689.25}},{"attributes":{"ID":581435,"DIS_CODE":0,"TOWNNAME":"歸仁區","LI":"崙頂里","LIN":"16鄰","STREET":"崙頂街","SECT":" ","MAREA":" ","LANE":" ","ALLEY":" ","HOUSE_NO":"４３號","E_COORD97":177867.35999999999,"N_COORD97":2539990.1099999999,"ADDRESS":"崙頂街４３號","OBJECTID":581408},"geometry":{"x":177867.36000000127,"y":2539990.1099999994}},{"attributes":{"ID":581436,"DIS_CODE":0,"TOWNNAME":"歸仁區","LI":"許厝里","LIN":"16鄰","STREET":"忠孝北路","SECT":" ","MAREA":" ","LANE":" ","ALLEY":" ","HOUSE_NO":"４１號","E_COORD97":178435.62,"N_COORD97":2540741.25,"ADDRESS":"忠孝北路４１號","OBJECTID":581409},"geometry":{"x":178435.62000000011,"y":2540741.2500000019}},{"attributes":{"ID":581437,"DIS_CODE":0,"TOWNNAME":"中西區","LI":"永華里","LIN":"10鄰","STREET":"府中街","SECT":" ","MAREA":" ","LANE":" ","ALLEY":" ","HOUSE_NO":"１０３號","E_COORD97":168596.70999999999,"N_COORD97":2543406.1099999999,"ADDRESS":"府中街１０３號","OBJECTID":581410},"geometry":{"x":168596.71000000183,"y":2543406.1100000013}},{"attributes":{"ID":581438,"DIS_CODE":0,"TOWNNAME":"中西區","LI":"永華里","LIN":"10鄰","STREET":"府中街","SECT":" ","MAREA":" ","LANE":" ","ALLEY":" ","HOUSE_NO":"１０５號","E_COORD97":168590.62,"N_COORD97":2543405.8799999999,"ADDRESS":"府中街１０５號","OBJECTID":581411},"geometry":{"x":168590.62000000197,"y":2543405.879999999}},{"attributes":{"ID":581439,"DIS_CODE":0,"TOWNNAME":"中西區","LI":"法華里","LIN":"16鄰","STREET":"五妃街","SECT":" ","MAREA":" ","LANE":" ","ALLEY":" ","HOUSE_NO":"７８號","E_COORD97":168851.89000000001,"N_COORD97":2542581.1299999999,"ADDRESS":"五妃街７８號","OBJECTID":581412},"geometry":{"x":168851.8900000006,"y":2542581.1299999971}},{"attributes":{"ID":581440,"DIS_CODE":0,"TOWNNAME":"新營區","LI":"大宏里","LIN":"16鄰","STREET":"民治東路","SECT":" ","MAREA":" ","LANE":" ","ALLEY":" ","HOUSE_NO":"９號","E_COORD97":180737.51000000001,"N_COORD97":2578887.0800000001,"ADDRESS":"民治東路９號","OBJECTID":581413},"geometry":{"x":180737.51000000071,"y":2578887.0800000038}},{"attributes":{"ID":581441,"DIS_CODE":0,"TOWNNAME":"新營區","LI":"民生里","LIN":"16鄰","STREET":"中華路","SECT":" ","MAREA":" ","LANE":" ","ALLEY":" ","HOUSE_NO":"１１８之１４號","E_COORD97":179161.38,"N_COORD97":2578227.9300000002,"ADDRESS":"中華路１１８之１４號","OBJECTID":581414},"geometry":{"x":179161.37999999989,"y":2578227.9300000016}},{"attributes":{"ID":581442,"DIS_CODE":0,"TOWNNAME":"新營區","LI":"民生里","LIN":"16鄰","STREET":"中華路","SECT":" ","MAREA":" ","LANE":" ","ALLEY":" ","HOUSE_NO":"１１８之２號","E_COORD97":179144.60999999999,"N_COORD97":2578191.4500000002,"ADDRESS":"中華路１１８之２號","OBJECTID":581415},"geometry":{"x":179144.61000000034,"y":2578191.4499999993}},{"attributes":{"ID":581443,"DIS_CODE":0,"TOWNNAME":"新營區","LI":"王公里","LIN":"16鄰","STREET":"大仁街","SECT":" ","MAREA":" ","LANE":" ","ALLEY":" ","HOUSE_NO":"２３號","E_COORD97":180225.67000000001,"N_COORD97":2579380.0899999999,"ADDRESS":"大仁街２３號","OBJECTID":581416},"geometry":{"x":180225.66999999993,"y":2579380.0899999999}},{"attributes":{"ID":581444,"DIS_CODE":0,"TOWNNAME":"楠西區","LI":"東勢里","LIN":"16鄰","STREET":"茄拔路","SECT":" ","MAREA":" ","LANE":" ","ALLEY":" ","HOUSE_NO":"２４３號","E_COORD97":197605.84,"N_COORD97":2563736.2799999998,"ADDRESS":"茄拔路２４３號","OBJECTID":581417},"geometry":{"x":197605.84000000078,"y":2563736.2799999993}},{"attributes":{"ID":581445,"DIS_CODE":0,"TOWNNAME":"鹽水區","LI":"橋南里","LIN":"16鄰","STREET":"月津路","SECT":" ","MAREA":" ","LANE":" ","ALLEY":" ","HOUSE_NO":"８１號","E_COORD97":174840.13,"N_COORD97":2579104.6499999999,"ADDRESS":"月津路８１號","OBJECTID":581418},"geometry":{"x":174840.12999999989,"y":2579104.6500000022}},{"attributes":{"ID":581446,"DIS_CODE":0,"TOWNNAME":"中西區","LI":"永華里","LIN":"12鄰","STREET":"開山路","SECT":" ","MAREA":" ","LANE":" ","ALLEY":" ","HOUSE_NO":"１００號","E_COORD97":168701.35999999999,"N_COORD97":2543357.29,"ADDRESS":"開山路１００號","OBJECTID":581419},"geometry":{"x":168701.36000000127,"y":2543357.290000001}},{"attributes":{"ID":581447,"DIS_CODE":0,"TOWNNAME":"中西區","LI":"永華里","LIN":"12鄰","STREET":"開山路","SECT":" ","MAREA":" ","LANE":" ","ALLEY":" ","HOUSE_NO":"１０２號","E_COORD97":168703.20999999999,"N_COORD97":2543354.3900000001,"ADDRESS":"開山路１０２號","OBJECTID":581420},"geometry":{"x":168703.20999999996,"y":2543354.3900000043}},{"attributes":{"ID":581448,"DIS_CODE":0,"TOWNNAME":"永康區","LI":"王行里","LIN":"16鄰","STREET":"永科環路","SECT":" ","MAREA":" ","LANE":" ","ALLEY":" ","HOUSE_NO":"３０３號","E_COORD97":175630.97,"N_COORD97":2548881.1400000001,"ADDRESS":"永科環路３０３號","OBJECTID":581421},"geometry":{"x":175630.96999999974,"y":2548881.1400000006}},{"attributes":{"ID":581449,"DIS_CODE":0,"TOWNNAME":"安南區","LI":"淵東里","LIN":"16鄰","STREET":"安中路","SECT":"三段","MAREA":" ","LANE":" ","ALLEY":" ","HOUSE_NO":"２９６號","E_COORD97":165623.06,"N_COORD97":2549928.8199999998,"ADDRESS":"安中路三段２９６號","OBJECTID":581422},"geometry":{"x":165623.06000000052,"y":2549928.8200000022}},{"attributes":{"ID":581450,"DIS_CODE":0,"TOWNNAME":"安南區","LI":"淵東里","LIN":"16鄰","STREET":"安中路","SECT":"三段","MAREA":" ","LANE":" ","ALLEY":" ","HOUSE_NO":"２９８號","E_COORD97":165619.20000000001,"N_COORD97":2549929.5600000001,"ADDRESS":"安中路三段２９８號","OBJECTID":581423},"geometry":{"x":165619.20000000112,"y":2549929.5600000005}},{"attributes":{"ID":581451,"DIS_CODE":0,"TOWNNAME":"安南區","LI":"淵東里","LIN":"16鄰","STREET":"安中路","SECT":"三段","MAREA":" ","LANE":" ","ALLEY":" ","HOUSE_NO":"３０４號","E_COORD97":165602.26999999999,"N_COORD97":2549934.3100000001,"ADDRESS":"安中路三段３０４號","OBJECTID":581424},"geometry":{"x":165602.27000000048,"y":2549934.3100000005}},{"attributes":{"ID":581452,"DIS_CODE":0,"TOWNNAME":"安南區","LI":"淵東里","LIN":"16鄰","STREET":"安中路","SECT":"三段","MAREA":" ","LANE":" ","ALLEY":" ","HOUSE_NO":"３０６號","E_COORD97":165597.81,"N_COORD97":2549935.2000000002,"ADDRESS":"安中路三段３０６號","OBJECTID":581425},"geometry":{"x":165597.80999999959,"y":2549935.2000000011}},{"attributes":{"ID":581453,"DIS_CODE":0,"TOWNNAME":"南區","LI":"再興里","LIN":"16鄰","STREET":"金華路","SECT":"二段","MAREA":" ","LANE":" ","ALLEY":" ","HOUSE_NO":"７８號","E_COORD97":167083.14000000001,"N_COORD97":2542039.0899999999,"ADDRESS":"金華路二段７８號","OBJECTID":581426},"geometry":{"x":167083.1400000006,"y":2542039.0899999999}},{"attributes":{"ID":581454,"DIS_CODE":0,"TOWNNAME":"東區","LI":"中西里","LIN":"3鄰","STREET":"勝利路","SECT":" ","MAREA":" ","LANE":" ","ALLEY":" ","HOUSE_NO":"８號","E_COORD97":169781.07999999999,"N_COORD97":2543127.1000000001,"ADDRESS":"勝利路８號","OBJECTID":581427},"geometry":{"x":169781.08000000101,"y":2543127.0999999996}},{"attributes":{"ID":581455,"DIS_CODE":0,"TOWNNAME":"南區","LI":"再興里","LIN":"16鄰","STREET":"金華路","SECT":"二段","MAREA":" ","LANE":" ","ALLEY":" ","HOUSE_NO":"８０號","E_COORD97":167084.07999999999,"N_COORD97":2542047.3599999999,"ADDRESS":"金華路二段８０號","OBJECTID":581428},"geometry":{"x":167084.08000000101,"y":2542047.3599999994}},{"attributes":{"ID":581456,"DIS_CODE":0,"TOWNNAME":"南區","LI":"再興里","LIN":"16鄰","STREET":"金華路","SECT":"二段","MAREA":" ","LANE":" ","ALLEY":" ","HOUSE_NO":"８６號","E_COORD97":167085.34,"N_COORD97":2542061.2799999998,"ADDRESS":"金華路二段８６號","OBJECTID":581429},"geometry":{"x":167085.34000000171,"y":2542061.2799999993}},{"attributes":{"ID":581457,"DIS_CODE":0,"TOWNNAME":"南區","LI":"再興里","LIN":"16鄰","STREET":"金華路","SECT":"二段","MAREA":" ","LANE":" ","ALLEY":" ","HOUSE_NO":"９０號","E_COORD97":167087.22,"N_COORD97":2542070.0699999998,"ADDRESS":"金華路二段９０號","OBJECTID":581430},"geometry":{"x":167087.21999999974,"y":2542070.0700000003}},{"attributes":{"ID":581458,"DIS_CODE":0,"TOWNNAME":"南區","LI":"再興里","LIN":"16鄰","STREET":"金華路","SECT":"二段","MAREA":" ","LANE":" ","ALLEY":" ","HOUSE_NO":"９２號","E_COORD97":167087.42999999999,"N_COORD97":2542074.3599999999,"ADDRESS":"金華路二段９２號","OBJECTID":581431},"geometry":{"x":167087.4299999997,"y":2542074.3599999994}},{"attributes":{"ID":581459,"DIS_CODE":0,"TOWNNAME":"南區","LI":"再興里","LIN":"16鄰","STREET":"金華路","SECT":"二段","MAREA":" ","LANE":" ","ALLEY":" ","HOUSE_NO":"９６號","E_COORD97":167087.85000000001,"N_COORD97":2542083.2000000002,"ADDRESS":"金華路二段９６號","OBJECTID":581432},"geometry":{"x":167087.84999999963,"y":2542083.2000000011}},{"attributes":{"ID":581460,"DIS_CODE":0,"TOWNNAME":"南區","LI":"再興里","LIN":"16鄰","STREET":"金華路","SECT":"二段","MAREA":" ","LANE":" ","ALLEY":" ","HOUSE_NO":"９８號","E_COORD97":167088.26999999999,"N_COORD97":2542087.5899999999,"ADDRESS":"金華路二段９８號","OBJECTID":581433},"geometry":{"x":167088.26999999955,"y":2542087.5900000036}},{"attributes":{"ID":581461,"DIS_CODE":0,"TOWNNAME":"東區","LI":"德光里","LIN":"16鄰","STREET":"德光街","SECT":" ","MAREA":" ","LANE":" ","ALLEY":" ","HOUSE_NO":"６４號","E_COORD97":170223.79000000001,"N_COORD97":2542358.5499999998,"ADDRESS":"德光街６４號","OBJECTID":581434},"geometry":{"x":170223.79000000097,"y":2542358.5500000007}},{"attributes":{"ID":581462,"DIS_CODE":0,"TOWNNAME":"東區","LI":"德光里","LIN":"16鄰","STREET":"德光街","SECT":" ","MAREA":" ","LANE":" ","ALLEY":" ","HOUSE_NO":"６８號","E_COORD97":170219.85999999999,"N_COORD97":2542352.1899999999,"ADDRESS":"德光街６８號","OBJECTID":581435},"geometry":{"x":170219.86000000034,"y":2542352.1900000013}},{"attributes":{"ID":581463,"DIS_CODE":0,"TOWNNAME":"永康區","LI":"埔園里","LIN":"16鄰","STREET":"中山路","SECT":" ","MAREA":" ","LANE":" ","ALLEY":" ","HOUSE_NO":"４０５號","E_COORD97":173543.73000000001,"N_COORD97":2548597.71,"ADDRESS":"中山路４０５號","OBJECTID":581436},"geometry":{"x":173543.73000000138,"y":2548597.7100000028}},{"attributes":{"ID":581464,"DIS_CODE":0,"TOWNNAME":"永康區","LI":"烏竹里","LIN":"16鄰","STREET":"龍橋街","SECT":" ","MAREA":" ","LANE":" ","ALLEY":" ","HOUSE_NO":"１８４號","E_COORD97":174636.73000000001,"N_COORD97":2548718.75,"ADDRESS":"龍橋街１８４號","OBJECTID":581437},"geometry":{"x":174636.73000000045,"y":2548718.7500000019}},{"attributes":{"ID":581465,"DIS_CODE":0,"TOWNNAME":"中西區","LI":"郡王里","LIN":"16鄰","STREET":"建業街","SECT":" ","MAREA":" ","LANE":" ","ALLEY":" ","HOUSE_NO":"１６號","E_COORD97":168705.23000000001,"N_COORD97":2543199.0499999998,"ADDRESS":"建業街１６號","OBJECTID":581438},"geometry":{"x":168705.23000000045,"y":2543199.0500000026}},{"attributes":{"ID":581466,"DIS_CODE":0,"TOWNNAME":"永康區","LI":"烏竹里","LIN":"16鄰","STREET":"龍橋街","SECT":" ","MAREA":" ","LANE":" ","ALLEY":" ","HOUSE_NO":"２０６號","E_COORD97":174611.17000000001,"N_COORD97":2548766.1699999999,"ADDRESS":"龍橋街２０６號","OBJECTID":581439},"geometry":{"x":174611.16999999993,"y":2548766.1700000037}},{"attributes":{"ID":581467,"DIS_CODE":0,"TOWNNAME":"永康區","LI":"東灣里","LIN":"16鄰","STREET":"大灣三街","SECT":" ","MAREA":" ","LANE":" ","ALLEY":" ","HOUSE_NO":"５０號","E_COORD97":174946.03,"N_COORD97":2544958.1200000001,"ADDRESS":"大灣三街５０號","OBJECTID":581440},"geometry":{"x":174946.03000000026,"y":2544958.1200000029}},{"attributes":{"ID":581468,"DIS_CODE":0,"TOWNNAME":"永康區","LI":"埔園里","LIN":"16鄰","STREET":"中山路","SECT":" ","MAREA":" ","LANE":" ","ALLEY":" ","HOUSE_NO":"３９９號","E_COORD97":173549.10000000001,"N_COORD97":2548581.8199999998,"ADDRESS":"中山路３９９號","OBJECTID":581441},"geometry":{"x":173549.10000000056,"y":2548581.8200000003}},{"attributes":{"ID":581469,"DIS_CODE":0,"TOWNNAME":"東區","LI":"裕聖里","LIN":"16鄰","STREET":"裕孝路","SECT":" ","MAREA":" ","LANE":" ","ALLEY":" ","HOUSE_NO":"８５０號","E_COORD97":172421.29999999999,"N_COORD97":2542059.52,"ADDRESS":"裕孝路８５０號","OBJECTID":581442},"geometry":{"x":172421.29999999981,"y":2542059.5199999996}},{"attributes":{"ID":581470,"DIS_CODE":0,"TOWNNAME":"東區","LI":"裕聖里","LIN":"16鄰","STREET":"裕孝路","SECT":" ","MAREA":" ","LANE":" ","ALLEY":" ","HOUSE_NO":"８５２號","E_COORD97":172420.91,"N_COORD97":2542052.7799999998,"ADDRESS":"裕孝路８５２號","OBJECTID":581443},"geometry":{"x":172420.91000000015,"y":2542052.7800000012}},{"attributes":{"ID":581471,"DIS_CODE":0,"TOWNNAME":"東區","LI":"裕聖里","LIN":"16鄰","STREET":"裕孝路","SECT":" ","MAREA":" ","LANE":" ","ALLEY":" ","HOUSE_NO":"８５６號","E_COORD97":172413.01000000001,"N_COORD97":2542052.7799999998,"ADDRESS":"裕孝路８５６號","OBJECTID":581444},"geometry":{"x":172413.00999999978,"y":2542052.7800000012}},{"attributes":{"ID":581472,"DIS_CODE":0,"TOWNNAME":"東區","LI":"裕聖里","LIN":"16鄰","STREET":"裕孝路","SECT":" ","MAREA":" ","LANE":" ","ALLEY":" ","HOUSE_NO":"８５８號","E_COORD97":172408.38,"N_COORD97":2542056.4399999999,"ADDRESS":"裕孝路８５８號","OBJECTID":581445},"geometry":{"x":172408.38000000082,"y":2542056.4399999995}},{"attributes":{"ID":581473,"DIS_CODE":0,"TOWNNAME":"東區","LI":"裕聖里","LIN":"16鄰","STREET":"裕孝路","SECT":" ","MAREA":" ","LANE":" ","ALLEY":" ","HOUSE_NO":"８６０號","E_COORD97":172403.37,"N_COORD97":2542053.3500000001,"ADDRESS":"裕孝路８６０號","OBJECTID":581446},"geometry":{"x":172403.37000000104,"y":2542053.3500000015}},{"attributes":{"ID":581474,"DIS_CODE":0,"TOWNNAME":"東區","LI":"裕聖里","LIN":"16鄰","STREET":"裕孝路","SECT":" ","MAREA":" ","LANE":" ","ALLEY":" ","HOUSE_NO":"８６２號","E_COORD97":172397.59,"N_COORD97":2542056.8199999998,"ADDRESS":"裕孝路８６２號","OBJECTID":581447},"geometry":{"x":172397.58999999985,"y":2542056.8200000022}},{"attributes":{"ID":581475,"DIS_CODE":0,"TOWNNAME":"東區","LI":"裕聖里","LIN":"16鄰","STREET":"裕孝路","SECT":" ","MAREA":" ","LANE":" ","ALLEY":" ","HOUSE_NO":"８６６號","E_COORD97":172390.45999999999,"N_COORD97":2542053.1600000001,"ADDRESS":"裕孝路８６６號","OBJECTID":581448},"geometry":{"x":172390.46000000183,"y":2542053.1600000001}},{"attributes":{"ID":581476,"DIS_CODE":0,"TOWNNAME":"東區","LI":"裕聖里","LIN":"16鄰","STREET":"裕孝路","SECT":" ","MAREA":" ","LANE":" ","ALLEY":" ","HOUSE_NO":"８６８號","E_COORD97":172384.67999999999,"N_COORD97":2542056.4399999999,"ADDRESS":"裕孝路８６８號","OBJECTID":581449},"geometry":{"x":172384.6799999997,"y":2542056.4399999995}},{"attributes":{"ID":581477,"DIS_CODE":0,"TOWNNAME":"東區","LI":"裕聖里","LIN":"16鄰","STREET":"裕孝路","SECT":" ","MAREA":" ","LANE":" ","ALLEY":" ","HOUSE_NO":"８７０號","E_COORD97":172376.39000000001,"N_COORD97":2542053.7400000002,"ADDRESS":"裕孝路８７０號","OBJECTID":581450},"geometry":{"x":172376.38999999966,"y":2542053.7400000021}},{"attributes":{"ID":581478,"DIS_CODE":0,"TOWNNAME":"東區","LI":"裕聖里","LIN":"16鄰","STREET":"裕孝路","SECT":" ","MAREA":" ","LANE":" ","ALLEY":" ","HOUSE_NO":"８７２號","E_COORD97":172376.57999999999,"N_COORD97":2542043.52,"ADDRESS":"裕孝路８７２號","OBJECTID":581451},"geometry":{"x":172376.58000000101,"y":2542043.5199999977}},{"attributes":{"ID":581479,"DIS_CODE":0,"TOWNNAME":"東區","LI":"裕聖里","LIN":"16鄰","STREET":"裕孝路","SECT":" ","MAREA":" ","LANE":" ","ALLEY":" ","HOUSE_NO":"８７６號","E_COORD97":172382.75,"N_COORD97":2542041.3999999999,"ADDRESS":"裕孝路８７６號","OBJECTID":581452},"geometry":{"x":172382.75,"y":2542041.4000000004}},{"attributes":{"ID":581480,"DIS_CODE":0,"TOWNNAME":"東區","LI":"裕聖里","LIN":"16鄰","STREET":"裕孝路","SECT":" ","MAREA":" ","LANE":" ","ALLEY":" ","HOUSE_NO":"８７８號","E_COORD97":172388.14999999999,"N_COORD97":2542044.2999999998,"ADDRESS":"裕孝路８７８號","OBJECTID":581453},"geometry":{"x":172388.1500000013,"y":2542044.3000000026}},{"attributes":{"ID":581481,"DIS_CODE":0,"TOWNNAME":"東區","LI":"裕聖里","LIN":"16鄰","STREET":"裕孝路","SECT":" ","MAREA":" ","LANE":" ","ALLEY":" ","HOUSE_NO":"８８０號","E_COORD97":172395.28,"N_COORD97":2542041.6000000001,"ADDRESS":"裕孝路８８０號","OBJECTID":581454},"geometry":{"x":172395.27999999933,"y":2542041.5999999996}},{"attributes":{"ID":581482,"DIS_CODE":0,"TOWNNAME":"東區","LI":"裕聖里","LIN":"16鄰","STREET":"裕孝路","SECT":" ","MAREA":" ","LANE":" ","ALLEY":" ","HOUSE_NO":"８８２號","E_COORD97":172400.87,"N_COORD97":2542043.7200000002,"ADDRESS":"裕孝路８８２號","OBJECTID":581455},"geometry":{"x":172400.87000000011,"y":2542043.7200000044}},{"attributes":{"ID":581483,"DIS_CODE":0,"TOWNNAME":"東區","LI":"裕聖里","LIN":"16鄰","STREET":"裕孝路","SECT":" ","MAREA":" ","LANE":" ","ALLEY":" ","HOUSE_NO":"８８６號","E_COORD97":172407.04000000001,"N_COORD97":2542041.02,"ADDRESS":"裕孝路８８６號","OBJECTID":581456},"geometry":{"x":172407.0400000019,"y":2542041.0200000014}},{"attributes":{"ID":581484,"DIS_CODE":0,"TOWNNAME":"東區","LI":"裕聖里","LIN":"16鄰","STREET":"裕孝路","SECT":" ","MAREA":" ","LANE":" ","ALLEY":" ","HOUSE_NO":"８８８號","E_COORD97":172413.01000000001,"N_COORD97":2542043.3300000001,"ADDRESS":"裕孝路８８８號","OBJECTID":581457},"geometry":{"x":172413.00999999978,"y":2542043.3300000019}},{"attributes":{"ID":581485,"DIS_CODE":0,"TOWNNAME":"東區","LI":"裕聖里","LIN":"16鄰","STREET":"裕孝路","SECT":" ","MAREA":" ","LANE":" ","ALLEY":" ","HOUSE_NO":"８９０號","E_COORD97":172420.91,"N_COORD97":2542044.1000000001,"ADDRESS":"裕孝路８９０號","OBJECTID":581458},"geometry":{"x":172420.91000000015,"y":2542044.1000000015}},{"attributes":{"ID":581486,"DIS_CODE":0,"TOWNNAME":"東區","LI":"裕聖里","LIN":"16鄰","STREET":"裕孝路","SECT":" ","MAREA":" ","LANE":" ","ALLEY":" ","HOUSE_NO":"８９２號","E_COORD97":172420.53,"N_COORD97":2542036.5899999999,"ADDRESS":"裕孝路８９２號","OBJECTID":581459},"geometry":{"x":172420.53000000026,"y":2542036.5900000036}},{"attributes":{"ID":581487,"DIS_CODE":0,"TOWNNAME":"仁德區","LI":"太子里","LIN":"16鄰","STREET":"太子北路","SECT":" ","MAREA":" ","LANE":" ","ALLEY":" ","HOUSE_NO":"８５號","E_COORD97":174092.56,"N_COORD97":2543655.7599999998,"ADDRESS":"太子北路８５號","OBJECTID":581460},"geometry":{"x":174092.55999999959,"y":2543655.7599999998}},{"attributes":{"ID":581488,"DIS_CODE":0,"TOWNNAME":"永康區","LI":"南灣里","LIN":"16鄰","STREET":"立興街","SECT":" ","MAREA":" ","LANE":" ","ALLEY":" ","HOUSE_NO":"９１號","E_COORD97":174526.89999999999,"N_COORD97":2544735.4900000002,"ADDRESS":"立興街９１號","OBJECTID":581461},"geometry":{"x":174526.90000000037,"y":2544735.4900000002}},{"attributes":{"ID":581489,"DIS_CODE":0,"TOWNNAME":"永康區","LI":"西橋里","LIN":"16鄰","STREET":"大橋三街","SECT":" ","MAREA":" ","LANE":" ","ALLEY":" ","HOUSE_NO":"２０號之１","E_COORD97":170538.85999999999,"N_COORD97":2546403.04,"ADDRESS":"大橋三街２０號之１","OBJECTID":581462},"geometry":{"x":170538.86000000127,"y":2546403.0400000028}},{"attributes":{"ID":581490,"DIS_CODE":0,"TOWNNAME":"永康區","LI":"西灣里","LIN":"16鄰","STREET":"大安街","SECT":" ","MAREA":" ","LANE":" ","ALLEY":" ","HOUSE_NO":"２０３號","E_COORD97":174655.12,"N_COORD97":2545311.4500000002,"ADDRESS":"大安街２０３號","OBJECTID":581463},"geometry":{"x":174655.12000000104,"y":2545311.4499999993}},{"attributes":{"ID":581491,"DIS_CODE":0,"TOWNNAME":"東區","LI":"裕聖里","LIN":"16鄰","STREET":"裕敬路","SECT":" ","MAREA":" ","LANE":" ","ALLEY":" ","HOUSE_NO":"３８號","E_COORD97":172307.56,"N_COORD97":2542234.5099999998,"ADDRESS":"裕敬路３８號","OBJECTID":581464},"geometry":{"x":172307.55999999959,"y":2542234.5100000016}},{"attributes":{"ID":581492,"DIS_CODE":0,"TOWNNAME":"東區","LI":"關聖里","LIN":"16鄰","STREET":"裕英街","SECT":" ","MAREA":" ","LANE":" ","ALLEY":" ","HOUSE_NO":"８２號","E_COORD97":172280.76999999999,"N_COORD97":2543004.46,"ADDRESS":"裕英街８２號","OBJECTID":581465},"geometry":{"x":172280.76999999955,"y":2543004.4600000009}},{"attributes":{"ID":581493,"DIS_CODE":0,"TOWNNAME":"東區","LI":"關聖里","LIN":"16鄰","STREET":"裕英街","SECT":" ","MAREA":" ","LANE":" ","ALLEY":" ","HOUSE_NO":"８６號","E_COORD97":172285.79999999999,"N_COORD97":2543004.3300000001,"ADDRESS":"裕英街８６號","OBJECTID":581466},"geometry":{"x":172285.79999999981,"y":2543004.3300000001}},{"attributes":{"ID":581494,"DIS_CODE":0,"TOWNNAME":"東區","LI":"關聖里","LIN":"16鄰","STREET":"裕英街","SECT":" ","MAREA":" ","LANE":" ","ALLEY":" ","HOUSE_NO":"８８號","E_COORD97":172291.09,"N_COORD97":2543004.46,"ADDRESS":"裕英街８８號","OBJECTID":581467},"geometry":{"x":172291.08999999892,"y":2543004.4600000009}},{"attributes":{"ID":581495,"DIS_CODE":0,"TOWNNAME":"東區","LI":"文聖里","LIN":"16鄰","STREET":"裕孝路","SECT":" ","MAREA":" ","LANE":" ","ALLEY":" ","HOUSE_NO":"１８３之１７號","E_COORD97":172507.82000000001,"N_COORD97":2542741.6099999999,"ADDRESS":"裕孝路１８３之１７號","OBJECTID":581468},"geometry":{"x":172507.82000000123,"y":2542741.6100000013}},{"attributes":{"ID":581496,"DIS_CODE":0,"TOWNNAME":"東區","LI":"文聖里","LIN":"16鄰","STREET":"裕孝路","SECT":" ","MAREA":" ","LANE":" ","ALLEY":" ","HOUSE_NO":"１８３之１８號","E_COORD97":172514.25,"N_COORD97":2542744.73,"ADDRESS":"裕孝路１８３之１８號","OBJECTID":581469},"geometry":{"x":172514.25000000093,"y":2542744.7299999986}},{"attributes":{"ID":581497,"DIS_CODE":0,"TOWNNAME":"東區","LI":"文聖里","LIN":"16鄰","STREET":"裕孝路","SECT":" ","MAREA":" ","LANE":" ","ALLEY":" ","HOUSE_NO":"１８３之２號","E_COORD97":172461.63,"N_COORD97":2542746.0899999999,"ADDRESS":"裕孝路１８３之２號","OBJECTID":581470},"geometry":{"x":172461.62999999989,"y":2542746.0900000017}},{"attributes":{"ID":581498,"DIS_CODE":0,"TOWNNAME":"東區","LI":"文聖里","LIN":"16鄰","STREET":"裕孝路","SECT":" ","MAREA":" ","LANE":" ","ALLEY":" ","HOUSE_NO":"１８３之３號","E_COORD97":172464.75,"N_COORD97":2542743.3599999999,"ADDRESS":"裕孝路１８３之３號","OBJECTID":581471},"geometry":{"x":172464.74999999907,"y":2542743.3600000013}},{"attributes":{"ID":581499,"DIS_CODE":0,"TOWNNAME":"東區","LI":"文聖里","LIN":"16鄰","STREET":"裕孝路","SECT":" ","MAREA":" ","LANE":" ","ALLEY":" ","HOUSE_NO":"１８３之５號","E_COORD97":172470.60000000001,"N_COORD97":2542745.8999999999,"ADDRESS":"裕孝路１８３之５號","OBJECTID":581472},"geometry":{"x":172470.60000000149,"y":2542745.9000000004}},{"attributes":{"ID":581500,"DIS_CODE":0,"TOWNNAME":"東區","LI":"文聖里","LIN":"16鄰","STREET":"裕孝路","SECT":" ","MAREA":" ","LANE":" ","ALLEY":" ","HOUSE_NO":"１８３之６號","E_COORD97":172473.72,"N_COORD97":2542742.98,"ADDRESS":"裕孝路１８３之６號","OBJECTID":581473},"geometry":{"x":172473.72000000067,"y":2542742.9800000004}},{"attributes":{"ID":581501,"DIS_CODE":0,"TOWNNAME":"東區","LI":"文聖里","LIN":"16鄰","STREET":"裕孝路","SECT":" ","MAREA":" ","LANE":" ","ALLEY":" ","HOUSE_NO":"１８３之７號","E_COORD97":172479.37,"N_COORD97":2542746.0899999999,"ADDRESS":"裕孝路１８３之７號","OBJECTID":581474},"geometry":{"x":172479.37000000197,"y":2542746.0900000017}},{"attributes":{"ID":581502,"DIS_CODE":0,"TOWNNAME":"東區","LI":"大學里","LIN":"16鄰","STREET":"東寧路","SECT":" ","MAREA":" ","LANE":" ","ALLEY":" ","HOUSE_NO":"５７號","E_COORD97":170217.63,"N_COORD97":2543620.5699999998,"ADDRESS":"東寧路５７號","OBJECTID":581475},"geometry":{"x":170217.62999999896,"y":2543620.570000004}},{"attributes":{"ID":581503,"DIS_CODE":0,"TOWNNAME":"東區","LI":"文聖里","LIN":"16鄰","STREET":"裕孝路","SECT":" ","MAREA":" ","LANE":" ","ALLEY":" ","HOUSE_NO":"１８３之８號","E_COORD97":172481.31,"N_COORD97":2542742.5899999999,"ADDRESS":"裕孝路１８３之８號","OBJECTID":581476},"geometry":{"x":172481.31000000052,"y":2542742.5900000017}},{"attributes":{"ID":581504,"DIS_CODE":0,"TOWNNAME":"東區","LI":"文聖里","LIN":"16鄰","STREET":"裕孝路","SECT":" ","MAREA":" ","LANE":" ","ALLEY":" ","HOUSE_NO":"１８３之９號","E_COORD97":172486.97,"N_COORD97":2542745.8999999999,"ADDRESS":"裕孝路１８３之９號","OBJECTID":581477},"geometry":{"x":172486.97000000067,"y":2542745.9000000004}},{"attributes":{"ID":581505,"DIS_CODE":0,"TOWNNAME":"安南區","LI":"城南里","LIN":"16鄰","STREET":"青砂街","SECT":"一段","MAREA":" ","LANE":" ","ALLEY":" ","HOUSE_NO":"７５號","E_COORD97":160586.67000000001,"N_COORD97":2551623.3799999999,"ADDRESS":"青砂街一段７５號","OBJECTID":581478},"geometry":{"x":160586.66999999993,"y":2551623.3800000008}},{"attributes":{"ID":581506,"DIS_CODE":0,"TOWNNAME":"東區","LI":"崇明里","LIN":"16鄰","STREET":"崇明路","SECT":" ","MAREA":" ","LANE":" ","ALLEY":" ","HOUSE_NO":"１００６號","E_COORD97":170560.39000000001,"N_COORD97":2540834.5099999998,"ADDRESS":"崇明路１００６號","OBJECTID":581479},"geometry":{"x":170560.3900000006,"y":2540834.5100000016}},{"attributes":{"ID":581507,"DIS_CODE":0,"TOWNNAME":"東區","LI":"裕聖里","LIN":"16鄰","STREET":"裕孝路","SECT":" ","MAREA":" ","LANE":" ","ALLEY":" ","HOUSE_NO":"９２０號","E_COORD97":172386.09,"N_COORD97":2542011.3999999999,"ADDRESS":"裕孝路９２０號","OBJECTID":581480},"geometry":{"x":172386.09000000171,"y":2542011.4000000041}},{"attributes":{"ID":581508,"DIS_CODE":0,"TOWNNAME":"東區","LI":"裕聖里","LIN":"16鄰","STREET":"裕孝路","SECT":" ","MAREA":" ","LANE":" ","ALLEY":" ","HOUSE_NO":"９２２號","E_COORD97":172392.45999999999,"N_COORD97":2542011.1800000002,"ADDRESS":"裕孝路９２２號","OBJECTID":581481},"geometry":{"x":172392.46000000089,"y":2542011.1799999997}},{"attributes":{"ID":581509,"DIS_CODE":0,"TOWNNAME":"東區","LI":"裕聖里","LIN":"16鄰","STREET":"裕孝路","SECT":" ","MAREA":" ","LANE":" ","ALLEY":" ","HOUSE_NO":"９２６號","E_COORD97":172397.92999999999,"N_COORD97":2542011.0699999998,"ADDRESS":"裕孝路９２６號","OBJECTID":581482},"geometry":{"x":172397.93000000063,"y":2542011.0700000022}},{"attributes":{"ID":581510,"DIS_CODE":0,"TOWNNAME":"東區","LI":"裕聖里","LIN":"16鄰","STREET":"裕孝路","SECT":" ","MAREA":" ","LANE":" ","ALLEY":" ","HOUSE_NO":"９２８號","E_COORD97":172404.29999999999,"N_COORD97":2542011.0699999998,"ADDRESS":"裕孝路９２８號","OBJECTID":581483},"geometry":{"x":172404.29999999981,"y":2542011.0700000022}},{"attributes":{"ID":581511,"DIS_CODE":0,"TOWNNAME":"東區","LI":"裕聖里","LIN":"16鄰","STREET":"裕孝路","SECT":" ","MAREA":" ","LANE":" ","ALLEY":" ","HOUSE_NO":"９３０號","E_COORD97":172410.78,"N_COORD97":2542010.96,"ADDRESS":"裕孝路９３０號","OBJECTID":581484},"geometry":{"x":172410.78000000212,"y":2542010.9600000009}},{"attributes":{"ID":581512,"DIS_CODE":0,"TOWNNAME":"東區","LI":"裕聖里","LIN":"16鄰","STREET":"裕孝路","SECT":" ","MAREA":" ","LANE":" ","ALLEY":" ","HOUSE_NO":"９３２號","E_COORD97":172416.25,"N_COORD97":2542010.96,"ADDRESS":"裕孝路９３２號","OBJECTID":581485},"geometry":{"x":172416.25000000093,"y":2542010.9600000009}},{"attributes":{"ID":581513,"DIS_CODE":0,"TOWNNAME":"東區","LI":"崇明里","LIN":"16鄰","STREET":"崇明路","SECT":" ","MAREA":" ","LANE":" ","ALLEY":" ","HOUSE_NO":"９６０之１號","E_COORD97":170588.37,"N_COORD97":2540886.3199999998,"ADDRESS":"崇明路９６０之１號","OBJECTID":581486},"geometry":{"x":170588.37000000104,"y":2540886.320000004}},{"attributes":{"ID":581514,"DIS_CODE":0,"TOWNNAME":"永康區","LI":"西橋里","LIN":"16鄰","STREET":"大橋三街","SECT":" ","MAREA":" ","LANE":" ","ALLEY":" ","HOUSE_NO":"１６號之１","E_COORD97":170523.56,"N_COORD97":2546381.79,"ADDRESS":"大橋三街１６號之１","OBJECTID":581487},"geometry":{"x":170523.56000000052,"y":2546381.790000001}},{"attributes":{"ID":581515,"DIS_CODE":0,"TOWNNAME":"永康區","LI":"\u25A0行里","LIN":"16鄰","STREET":"中正六街","SECT":" ","MAREA":" ","LANE":" ","ALLEY":" ","HOUSE_NO":"２６８號","E_COORD97":171936.03,"N_COORD97":2548911.6000000001,"ADDRESS":"中正六街２６８號","OBJECTID":581488},"geometry":{"x":171936.03000000212,"y":2548911.5999999996}},{"attributes":{"ID":581516,"DIS_CODE":0,"TOWNNAME":"永康區","LI":"\u25A0行里","LIN":"16鄰","STREET":"中正六街","SECT":" ","MAREA":" ","LANE":" ","ALLEY":" ","HOUSE_NO":"２１６號","E_COORD97":171885.19,"N_COORD97":2548853.3599999999,"ADDRESS":"中正六街２１６號","OBJECTID":581489},"geometry":{"x":171885.19000000041,"y":2548853.3600000013}},{"attributes":{"ID":581517,"DIS_CODE":0,"TOWNNAME":"中西區","LI":"小西里","LIN":"16鄰","STREET":"西門路","SECT":"一段","MAREA":" ","LANE":" ","ALLEY":" ","HOUSE_NO":"５３６號","E_COORD97":167765.20999999999,"N_COORD97":2542892.8900000001,"ADDRESS":"西門路一段５３６號","OBJECTID":581490},"geometry":{"x":167765.20999999996,"y":2542892.8900000006}},{"attributes":{"ID":581518,"DIS_CODE":0,"TOWNNAME":"中西區","LI":"小西里","LIN":"16鄰","STREET":"西門路","SECT":"一段","MAREA":" ","LANE":" ","ALLEY":" ","HOUSE_NO":"５３８號","E_COORD97":167765.85000000001,"N_COORD97":2542895.9500000002,"ADDRESS":"西門路一段５３８號","OBJECTID":581491},"geometry":{"x":167765.84999999963,"y":2542895.9500000011}},{"attributes":{"ID":581519,"DIS_CODE":0,"TOWNNAME":"中西區","LI":"小西里","LIN":"16鄰","STREET":"西門路","SECT":"一段","MAREA":" ","LANE":" ","ALLEY":" ","HOUSE_NO":"５４０號","E_COORD97":167750.26999999999,"N_COORD97":2542896.9199999999,"ADDRESS":"西門路一段５４０號","OBJECTID":581492},"geometry":{"x":167750.27000000048,"y":2542896.9200000018}},{"attributes":{"ID":581520,"DIS_CODE":0,"TOWNNAME":"中西區","LI":"小西里","LIN":"16鄰","STREET":"西門路","SECT":"一段","MAREA":" ","LANE":" ","ALLEY":" ","HOUSE_NO":"５４２號","E_COORD97":167750.51999999999,"N_COORD97":2542902.1499999999,"ADDRESS":"西門路一段５４２號","OBJECTID":581493},"geometry":{"x":167750.52000000048,"y":2542902.1500000022}},{"attributes":{"ID":581521,"DIS_CODE":0,"TOWNNAME":"中西區","LI":"小西里","LIN":"16鄰","STREET":"西門路","SECT":"一段","MAREA":" ","LANE":" ","ALLEY":" ","HOUSE_NO":"５４４號","E_COORD97":167765.73000000001,"N_COORD97":2542900.0299999998,"ADDRESS":"西門路一段５４４號","OBJECTID":581494},"geometry":{"x":167765.73000000045,"y":2542900.0299999993}},{"attributes":{"ID":581522,"DIS_CODE":0,"TOWNNAME":"中西區","LI":"小西里","LIN":"16鄰","STREET":"西門路","SECT":"一段","MAREA":" ","LANE":" ","ALLEY":" ","HOUSE_NO":"５４６號","E_COORD97":167765.60000000001,"N_COORD97":2542903.6099999999,"ADDRESS":"西門路一段５４６號","OBJECTID":581495},"geometry":{"x":167765.59999999963,"y":2542903.6099999994}},{"attributes":{"ID":581523,"DIS_CODE":0,"TOWNNAME":"中西區","LI":"小西里","LIN":"16鄰","STREET":"西門路","SECT":"一段","MAREA":" ","LANE":" ","ALLEY":" ","HOUSE_NO":"５４８號","E_COORD97":167765.47,"N_COORD97":2542907.3100000001,"ADDRESS":"西門路一段５４８號","OBJECTID":581496},"geometry":{"x":167765.46999999974,"y":2542907.3100000042}},{"attributes":{"ID":581524,"DIS_CODE":0,"TOWNNAME":"官田區","LI":"隆田里","LIN":"2鄰","STREET":"裕民街","SECT":" ","MAREA":" ","LANE":" ","ALLEY":" ","HOUSE_NO":"９號","E_COORD97":180227.12,"N_COORD97":2565705.8799999999,"ADDRESS":"裕民街９號","OBJECTID":581497},"geometry":{"x":180227.12000000104,"y":2565705.8800000008}},{"attributes":{"ID":581525,"DIS_CODE":0,"TOWNNAME":"中西區","LI":"仙草里","LIN":"16鄰","STREET":"永福路","SECT":"一段","MAREA":" ","LANE":" ","ALLEY":" ","HOUSE_NO":"２９號之１","E_COORD97":167960.06,"N_COORD97":2542528.1800000002,"ADDRESS":"永福路一段２９號之１","OBJECTID":581498},"geometry":{"x":167960.06000000052,"y":2542528.1800000016}},{"attributes":{"ID":581526,"DIS_CODE":0,"TOWNNAME":"中西區","LI":"仙草里","LIN":"16鄰","STREET":"永福路","SECT":"一段","MAREA":" ","LANE":" ","ALLEY":" ","HOUSE_NO":"２９號之２","E_COORD97":167958.88,"N_COORD97":2542534.8500000001,"ADDRESS":"永福路一段２９號之２","OBJECTID":581499},"geometry":{"x":167958.87999999989,"y":2542534.8499999996}},{"attributes":{"ID":581527,"DIS_CODE":0,"TOWNNAME":"中西區","LI":"仙草里","LIN":"16鄰","STREET":"永福路","SECT":"一段","MAREA":" ","LANE":" ","ALLEY":" ","HOUSE_NO":"２９號之３","E_COORD97":167956.92000000001,"N_COORD97":2542546.7400000002,"ADDRESS":"永福路一段２９號之３","OBJECTID":581500},"geometry":{"x":167956.92000000086,"y":2542546.7400000002}},{"attributes":{"ID":581528,"DIS_CODE":0,"TOWNNAME":"中西區","LI":"仙草里","LIN":"16鄰","STREET":"永福路","SECT":"一段","MAREA":" ","LANE":" ","ALLEY":" ","HOUSE_NO":"２９號之４","E_COORD97":167956.51999999999,"N_COORD97":2542554.98,"ADDRESS":"永福路一段２９號之４","OBJECTID":581501},"geometry":{"x":167956.51999999955,"y":2542554.9800000023}},{"attributes":{"ID":581529,"DIS_CODE":0,"TOWNNAME":"中西區","LI":"仙草里","LIN":"16鄰","STREET":"永福路","SECT":"一段","MAREA":" ","LANE":" ","ALLEY":" ","HOUSE_NO":"２９號之５","E_COORD97":167962.60999999999,"N_COORD97":2542556.1600000001,"ADDRESS":"永福路一段２９號之５","OBJECTID":581502},"geometry":{"x":167962.61000000127,"y":2542556.160000002}},{"attributes":{"ID":581530,"DIS_CODE":0,"TOWNNAME":"中西區","LI":"仙草里","LIN":"16鄰","STREET":"永福路","SECT":"一段","MAREA":" ","LANE":" ","ALLEY":" ","HOUSE_NO":"３３號","E_COORD97":167978.12,"N_COORD97":2542544.4700000002,"ADDRESS":"永福路一段３３號","OBJECTID":581503},"geometry":{"x":167978.12000000011,"y":2542544.4700000025}},{"attributes":{"ID":581531,"DIS_CODE":0,"TOWNNAME":"東區","LI":"大學里","LIN":"16鄰","STREET":"東寧路","SECT":" ","MAREA":" ","LANE":" ","ALLEY":" ","HOUSE_NO":"６１號","E_COORD97":170232.57999999999,"N_COORD97":2543614.3199999998,"ADDRESS":"東寧路６１號","OBJECTID":581504},"geometry":{"x":170232.58000000101,"y":2543614.3200000003}},{"attributes":{"ID":581532,"DIS_CODE":0,"TOWNNAME":"中西區","LI":"仙草里","LIN":"16鄰","STREET":"永福路","SECT":"一段","MAREA":" ","LANE":" ","ALLEY":" ","HOUSE_NO":"３５號","E_COORD97":167978.91,"N_COORD97":2542548.98,"ADDRESS":"永福路一段３５號","OBJECTID":581505},"geometry":{"x":167978.91000000108,"y":2542548.9800000004}},{"attributes":{"ID":581533,"DIS_CODE":0,"TOWNNAME":"中西區","LI":"仙草里","LIN":"16鄰","STREET":"永福路","SECT":"一段","MAREA":" ","LANE":" ","ALLEY":" ","HOUSE_NO":"３７號","E_COORD97":167978.70999999999,"N_COORD97":2542554.8700000001,"ADDRESS":"永福路一段３７號","OBJECTID":581506},"geometry":{"x":167978.71000000089,"y":2542554.8700000048}},{"attributes":{"ID":581534,"DIS_CODE":0,"TOWNNAME":"中西區","LI":"青年里","LIN":"8鄰","STREET":"青年路","SECT":" ","MAREA":" ","LANE":" ","ALLEY":" ","HOUSE_NO":"８３號","E_COORD97":168817.26999999999,"N_COORD97":2543636.4399999999,"ADDRESS":"青年路８３號","OBJECTID":581507},"geometry":{"x":168817.26999999955,"y":2543636.4399999995}},{"attributes":{"ID":581535,"DIS_CODE":0,"TOWNNAME":"中西區","LI":"青年里","LIN":"7鄰","STREET":"青年路","SECT":" ","MAREA":" ","LANE":" ","ALLEY":" ","HOUSE_NO":"１０１號","E_COORD97":168855.01000000001,"N_COORD97":2543658.02,"ADDRESS":"青年路１０１號","OBJECTID":581508},"geometry":{"x":168855.00999999978,"y":2543658.0200000014}},{"attributes":{"ID":581536,"DIS_CODE":0,"TOWNNAME":"中西區","LI":"青年里","LIN":"7鄰","STREET":"青年路","SECT":" ","MAREA":" ","LANE":" ","ALLEY":" ","HOUSE_NO":"１０３號","E_COORD97":168853.01999999999,"N_COORD97":2543655.46,"ADDRESS":"青年路１０３號","OBJECTID":581509},"geometry":{"x":168853.01999999955,"y":2543655.4600000009}},{"attributes":{"ID":581537,"DIS_CODE":0,"TOWNNAME":"中西區","LI":"青年里","LIN":"7鄰","STREET":"青年路","SECT":" ","MAREA":" ","LANE":" ","ALLEY":" ","HOUSE_NO":"１０５號","E_COORD97":168853.31,"N_COORD97":2543651.77,"ADDRESS":"青年路１０５號","OBJECTID":581510},"geometry":{"x":168853.31000000145,"y":2543651.7699999996}},{"attributes":{"ID":581538,"DIS_CODE":0,"TOWNNAME":"中西區","LI":"青年里","LIN":"7鄰","STREET":"青年路","SECT":" ","MAREA":" ","LANE":" ","ALLEY":" ","HOUSE_NO":"１０７號","E_COORD97":168852.73999999999,"N_COORD97":2543648.0699999998,"ADDRESS":"青年路１０７號","OBJECTID":581511},"geometry":{"x":168852.74000000209,"y":2543648.0700000022}},{"attributes":{"ID":581539,"DIS_CODE":0,"TOWNNAME":"中西區","LI":"青年里","LIN":"7鄰","STREET":"青年路","SECT":" ","MAREA":" ","LANE":" ","ALLEY":" ","HOUSE_NO":"１０９號","E_COORD97":168843.84,"N_COORD97":2543635.8700000001,"ADDRESS":"青年路１０９號","OBJECTID":581512},"geometry":{"x":168843.84000000078,"y":2543635.870000001}},{"attributes":{"ID":581540,"DIS_CODE":0,"TOWNNAME":"中西區","LI":"青年里","LIN":"7鄰","STREET":"青年路","SECT":" ","MAREA":" ","LANE":" ","ALLEY":" ","HOUSE_NO":"１１１號","E_COORD97":168848.07999999999,"N_COORD97":2543635.5699999998,"ADDRESS":"青年路１１１號","OBJECTID":581513},"geometry":{"x":168848.08000000007,"y":2543635.5700000022}},{"attributes":{"ID":581541,"DIS_CODE":0,"TOWNNAME":"中西區","LI":"青年里","LIN":"7鄰","STREET":"青年路","SECT":" ","MAREA":" ","LANE":" ","ALLEY":" ","HOUSE_NO":"１１３號","E_COORD97":168851.88,"N_COORD97":2543634.7200000002,"ADDRESS":"青年路１１３號","OBJECTID":581514},"geometry":{"x":168851.88000000082,"y":2543634.7200000025}},{"attributes":{"ID":581542,"DIS_CODE":0,"TOWNNAME":"中西區","LI":"銀同里","LIN":"16鄰","STREET":"開山路","SECT":" ","MAREA":" ","LANE":" ","ALLEY":" ","HOUSE_NO":"１號","E_COORD97":168566.03,"N_COORD97":2543642.5099999998,"ADDRESS":"開山路１號","OBJECTID":581515},"geometry":{"x":168566.03000000212,"y":2543642.5100000016}},{"attributes":{"ID":581543,"DIS_CODE":0,"TOWNNAME":"中西區","LI":"青年里","LIN":"7鄰","STREET":"青年路","SECT":" ","MAREA":" ","LANE":" ","ALLEY":" ","HOUSE_NO":"１１５號","E_COORD97":168855.87,"N_COORD97":2543631.3100000001,"ADDRESS":"青年路１１５號","OBJECTID":581516},"geometry":{"x":168855.87000000104,"y":2543631.3100000005}},{"attributes":{"ID":581544,"DIS_CODE":0,"TOWNNAME":"中西區","LI":"青年里","LIN":"7鄰","STREET":"青年路","SECT":" ","MAREA":" ","LANE":" ","ALLEY":" ","HOUSE_NO":"１１７號","E_COORD97":168861.84,"N_COORD97":2543631.6000000001,"ADDRESS":"青年路１１７號","OBJECTID":581517},"geometry":{"x":168861.84000000171,"y":2543631.5999999996}},{"attributes":{"ID":581545,"DIS_CODE":0,"TOWNNAME":"中西區","LI":"青年里","LIN":"7鄰","STREET":"青年路","SECT":" ","MAREA":" ","LANE":" ","ALLEY":" ","HOUSE_NO":"１１９號","E_COORD97":168865.54000000001,"N_COORD97":2543631.3100000001,"ADDRESS":"青年路１１９號","OBJECTID":581518},"geometry":{"x":168865.54000000004,"y":2543631.3100000005}},{"attributes":{"ID":581546,"DIS_CODE":0,"TOWNNAME":"中西區","LI":"青年里","LIN":"7鄰","STREET":"青年路","SECT":" ","MAREA":" ","LANE":" ","ALLEY":" ","HOUSE_NO":"１２１號","E_COORD97":168868.67000000001,"N_COORD97":2543630.1800000002,"ADDRESS":"青年路１２１號","OBJECTID":581519},"geometry":{"x":168868.67000000086,"y":2543630.1800000016}},{"attributes":{"ID":581547,"DIS_CODE":0,"TOWNNAME":"中西區","LI":"青年里","LIN":"7鄰","STREET":"青年路","SECT":" ","MAREA":" ","LANE":" ","ALLEY":" ","HOUSE_NO":"１２３號","E_COORD97":168875.79000000001,"N_COORD97":2543627.3300000001,"ADDRESS":"青年路１２３號","OBJECTID":581520},"geometry":{"x":168875.78999999911,"y":2543627.3300000001}},{"attributes":{"ID":581548,"DIS_CODE":0,"TOWNNAME":"中西區","LI":"青年里","LIN":"7鄰","STREET":"青年路","SECT":" ","MAREA":" ","LANE":" ","ALLEY":" ","HOUSE_NO":"１２５號","E_COORD97":168887.79000000001,"N_COORD97":2543632.0499999998,"ADDRESS":"青年路１２５號","OBJECTID":581521},"geometry":{"x":168887.7900000019,"y":2543632.0500000026}},{"attributes":{"ID":581549,"DIS_CODE":0,"TOWNNAME":"中西區","LI":"仙草里","LIN":"16鄰","STREET":"永福路","SECT":"一段","MAREA":" ","LANE":" ","ALLEY":" ","HOUSE_NO":"３９號","E_COORD97":167977.73000000001,"N_COORD97":2542559.5800000001,"ADDRESS":"永福路一段３９號","OBJECTID":581522},"geometry":{"x":167977.73000000045,"y":2542559.5800000019}},{"attributes":{"ID":581550,"DIS_CODE":0,"TOWNNAME":"中西區","LI":"仙草里","LIN":"16鄰","STREET":"永福路","SECT":"一段","MAREA":" ","LANE":" ","ALLEY":" ","HOUSE_NO":"３號","E_COORD97":167974.59,"N_COORD97":2542484.3399999999,"ADDRESS":"永福路一段３號","OBJECTID":581523},"geometry":{"x":167974.58999999985,"y":2542484.3399999999}},{"attributes":{"ID":581551,"DIS_CODE":0,"TOWNNAME":"中西區","LI":"仙草里","LIN":"16鄰","STREET":"永福路","SECT":"一段","MAREA":" ","LANE":" ","ALLEY":" ","HOUSE_NO":"５號","E_COORD97":167974.20000000001,"N_COORD97":2542488.2599999998,"ADDRESS":"永福路一段５號","OBJECTID":581524},"geometry":{"x":167974.20000000019,"y":2542488.2599999998}},{"attributes":{"ID":581552,"DIS_CODE":0,"TOWNNAME":"中西區","LI":"仙草里","LIN":"16鄰","STREET":"永福路","SECT":"一段","MAREA":" ","LANE":" ","ALLEY":" ","HOUSE_NO":"７號","E_COORD97":167974.59,"N_COORD97":2542492.3900000001,"ADDRESS":"永福路一段７號","OBJECTID":581525},"geometry":{"x":167974.58999999985,"y":2542492.3900000006}},{"attributes":{"ID":581553,"DIS_CODE":0,"TOWNNAME":"中西區","LI":"仙草里","LIN":"16鄰","STREET":"永福路","SECT":"一段","MAREA":" ","LANE":" ","ALLEY":" ","HOUSE_NO":"９號","E_COORD97":167974.39000000001,"N_COORD97":2542496.7000000002,"ADDRESS":"永福路一段９號","OBJECTID":581526},"geometry":{"x":167974.38999999966,"y":2542496.700000003}},{"attributes":{"ID":581554,"DIS_CODE":0,"TOWNNAME":"中西區","LI":"仙草里","LIN":"16鄰","STREET":"健康路","SECT":"一段","MAREA":" ","LANE":" ","ALLEY":" ","HOUSE_NO":"３４６號","E_COORD97":167972.04000000001,"N_COORD97":2542468.4399999999,"ADDRESS":"健康路一段３４６號","OBJECTID":581527},"geometry":{"x":167972.04000000004,"y":2542468.4400000013}},{"attributes":{"ID":581555,"DIS_CODE":0,"TOWNNAME":"中西區","LI":"仙草里","LIN":"16鄰","STREET":"健康路","SECT":"一段","MAREA":" ","LANE":" ","ALLEY":" ","HOUSE_NO":"３４８號","E_COORD97":167962.81,"N_COORD97":2542465.5,"ADDRESS":"健康路一段３４８號","OBJECTID":581528},"geometry":{"x":167962.80999999959,"y":2542465.5000000019}},{"attributes":{"ID":581556,"DIS_CODE":0,"TOWNNAME":"中西區","LI":"仙草里","LIN":"16鄰","STREET":"健康路","SECT":"一段","MAREA":" ","LANE":" ","ALLEY":" ","HOUSE_NO":"３５２號","E_COORD97":167955.34,"N_COORD97":2542465.5,"ADDRESS":"健康路一段３５２號","OBJECTID":581529},"geometry":{"x":167955.34000000078,"y":2542465.5000000019}},{"attributes":{"ID":581557,"DIS_CODE":0,"TOWNNAME":"中西區","LI":"仙草里","LIN":"16鄰","STREET":"健康路","SECT":"一段","MAREA":" ","LANE":" ","ALLEY":" ","HOUSE_NO":"３６６號","E_COORD97":167935.31,"N_COORD97":2542467.27,"ADDRESS":"健康路一段３６６號","OBJECTID":581530},"geometry":{"x":167935.30999999959,"y":2542467.2700000014}},{"attributes":{"ID":581558,"DIS_CODE":0,"TOWNNAME":"中西區","LI":"仙草里","LIN":"16鄰","STREET":"健康路","SECT":"一段","MAREA":" ","LANE":" ","ALLEY":" ","HOUSE_NO":"３７０號","E_COORD97":167914.10000000001,"N_COORD97":2542467.0699999998,"ADDRESS":"健康路一段３７０號","OBJECTID":581531},"geometry":{"x":167914.10000000056,"y":2542467.0700000003}},{"attributes":{"ID":581559,"DIS_CODE":0,"TOWNNAME":"中西區","LI":"仙草里","LIN":"16鄰","STREET":"健康路","SECT":"一段","MAREA":" ","LANE":" ","ALLEY":" ","HOUSE_NO":"３７０號之１","E_COORD97":167903.70000000001,"N_COORD97":2542467.46,"ADDRESS":"健康路一段３７０號之１","OBJECTID":581532},"geometry":{"x":167903.70000000205,"y":2542467.4600000028}},{"attributes":{"ID":581560,"DIS_CODE":0,"TOWNNAME":"中西區","LI":"仙草里","LIN":"16鄰","STREET":"健康路","SECT":"一段","MAREA":" ","LANE":" ","ALLEY":" ","HOUSE_NO":"３７０號之２","E_COORD97":167894.07000000001,"N_COORD97":2542473.3500000001,"ADDRESS":"健康路一段３７０號之２","OBJECTID":581533},"geometry":{"x":167894.0700000003,"y":2542473.3500000015}},{"attributes":{"ID":581561,"DIS_CODE":0,"TOWNNAME":"中西區","LI":"仙草里","LIN":"16鄰","STREET":"健康路","SECT":"一段","MAREA":" ","LANE":" ","ALLEY":" ","HOUSE_NO":"３７２號","E_COORD97":167888.38,"N_COORD97":2542470.4100000001,"ADDRESS":"健康路一段３７２號","OBJECTID":581534},"geometry":{"x":167888.37999999989,"y":2542470.410000002}},{"attributes":{"ID":581562,"DIS_CODE":0,"TOWNNAME":"東區","LI":"大學里","LIN":"16鄰","STREET":"長榮路","SECT":"三段","MAREA":" ","LANE":" ","ALLEY":" ","HOUSE_NO":"２號","E_COORD97":170208.57000000001,"N_COORD97":2543623.77,"ADDRESS":"長榮路三段２號","OBJECTID":581535},"geometry":{"x":170208.57000000123,"y":2543623.7699999996}},{"attributes":{"ID":581563,"DIS_CODE":0,"TOWNNAME":"東區","LI":"後甲里","LIN":"16鄰","STREET":"裕農路","SECT":" ","MAREA":" ","LANE":" ","ALLEY":" ","HOUSE_NO":"５８７號","E_COORD97":171501.91,"N_COORD97":2543233.5699999998,"ADDRESS":"裕農路５８７號","OBJECTID":581536},"geometry":{"x":171501.91000000015,"y":2543233.5700000003}},{"attributes":{"ID":581564,"DIS_CODE":0,"TOWNNAME":"永康區","LI":"西灣里","LIN":"16鄰","STREET":"民族路","SECT":" ","MAREA":" ","LANE":" ","ALLEY":" ","HOUSE_NO":"４４５號","E_COORD97":174671.20000000001,"N_COORD97":2545405.8100000001,"ADDRESS":"民族路４４５號","OBJECTID":581537},"geometry":{"x":174671.20000000112,"y":2545405.8099999987}},{"attributes":{"ID":581565,"DIS_CODE":0,"TOWNNAME":"仁德區","LI":"仁義里","LIN":"16鄰","STREET":"林頂街","SECT":" ","MAREA":" ","LANE":" ","ALLEY":" ","HOUSE_NO":"５６號","E_COORD97":174491.45000000001,"N_COORD97":2541319.2400000002,"ADDRESS":"林頂街５６號","OBJECTID":581538},"geometry":{"x":174491.45000000112,"y":2541319.2400000002}},{"attributes":{"ID":581566,"DIS_CODE":0,"TOWNNAME":"仁德區","LI":"仁德里","LIN":"16鄰","STREET":"中山路","SECT":" ","MAREA":" ","LANE":" ","ALLEY":" ","HOUSE_NO":"８６３號","E_COORD97":172483.01000000001,"N_COORD97":2541556.5,"ADDRESS":"中山路８６３號","OBJECTID":581539},"geometry":{"x":172483.00999999978,"y":2541556.5000000019}},{"attributes":{"ID":581567,"DIS_CODE":0,"TOWNNAME":"仁德區","LI":"仁義里","LIN":"16鄰","STREET":"林頂街","SECT":" ","MAREA":" ","LANE":" ","ALLEY":" ","HOUSE_NO":"１６號","E_COORD97":174439.04000000001,"N_COORD97":2541259.8700000001,"ADDRESS":"林頂街１６號","OBJECTID":581540},"geometry":{"x":174439.04000000004,"y":2541259.8700000048}},{"attributes":{"ID":581568,"DIS_CODE":0,"TOWNNAME":"善化區","LI":"光文里","LIN":"16鄰","STREET":"民族路","SECT":" ","MAREA":" ","LANE":" ","ALLEY":" ","HOUSE_NO":"１４６號","E_COORD97":178202.47,"N_COORD97":2559079.7599999998,"ADDRESS":"民族路１４６號","OBJECTID":581541},"geometry":{"x":178202.46999999974,"y":2559079.7600000016}},{"attributes":{"ID":581569,"DIS_CODE":0,"TOWNNAME":"永康區","LI":"復華里","LIN":"16鄰","STREET":"復華七街","SECT":" ","MAREA":" ","LANE":" ","ALLEY":" ","HOUSE_NO":"９８號","E_COORD97":172847.94,"N_COORD97":2546145.9199999999,"ADDRESS":"復華七街９８號","OBJECTID":581542},"geometry":{"x":172847.94000000134,"y":2546145.9199999999}},{"attributes":{"ID":581570,"DIS_CODE":0,"TOWNNAME":"永康區","LI":"復華里","LIN":"16鄰","STREET":"復華七街","SECT":" ","MAREA":" ","LANE":" ","ALLEY":" ","HOUSE_NO":"６６號","E_COORD97":172766.09,"N_COORD97":2546066.6699999999,"ADDRESS":"復華七街６６號","OBJECTID":581543},"geometry":{"x":172766.09000000078,"y":2546066.6699999999}},{"attributes":{"ID":581571,"DIS_CODE":0,"TOWNNAME":"中西區","LI":"法華里","LIN":"16鄰","STREET":"五妃街","SECT":" ","MAREA":" ","LANE":" ","ALLEY":" ","HOUSE_NO":"７６號","E_COORD97":168863.81,"N_COORD97":2542580.6800000002,"ADDRESS":"五妃街７６號","OBJECTID":581544},"geometry":{"x":168863.81000000052,"y":2542580.6799999997}},{"attributes":{"ID":581572,"DIS_CODE":0,"TOWNNAME":"中西區","LI":"法華里","LIN":"16鄰","STREET":"法華街","SECT":" ","MAREA":" ","LANE":" ","ALLEY":" ","HOUSE_NO":"１００號","E_COORD97":168968.67999999999,"N_COORD97":2542700.9399999999,"ADDRESS":"法華街１００號","OBJECTID":581545},"geometry":{"x":168968.6799999997,"y":2542700.9399999995}},{"attributes":{"ID":581573,"DIS_CODE":0,"TOWNNAME":"中西區","LI":"法華里","LIN":"16鄰","STREET":"法華街","SECT":" ","MAREA":" ","LANE":" ","ALLEY":" ","HOUSE_NO":"１０２號","E_COORD97":168903.32999999999,"N_COORD97":2542688.2400000002,"ADDRESS":"法華街１０２號","OBJECTID":581546},"geometry":{"x":168903.33000000101,"y":2542688.2400000021}},{"attributes":{"ID":581574,"DIS_CODE":0,"TOWNNAME":"中西區","LI":"法華里","LIN":"16鄰","STREET":"法華街","SECT":" ","MAREA":" ","LANE":" ","ALLEY":" ","HOUSE_NO":"１０４號","E_COORD97":168903.12,"N_COORD97":2542667.0299999998,"ADDRESS":"法華街１０４號","OBJECTID":581547},"geometry":{"x":168903.12000000104,"y":2542667.0299999975}},{"attributes":{"ID":581575,"DIS_CODE":0,"TOWNNAME":"中西區","LI":"青年里","LIN":"6鄰","STREET":"武德街","SECT":" ","MAREA":" ","LANE":" ","ALLEY":" ","HOUSE_NO":"３７號之１","E_COORD97":168964.64000000001,"N_COORD97":2543706.3900000001,"ADDRESS":"武德街３７號之１","OBJECTID":581548},"geometry":{"x":168964.64000000153,"y":2543706.3900000006}},{"attributes":{"ID":581576,"DIS_CODE":0,"TOWNNAME":"中西區","LI":"青年里","LIN":"6鄰","STREET":"武德街","SECT":" ","MAREA":" ","LANE":" ","ALLEY":" ","HOUSE_NO":"３７號之２","E_COORD97":168965.35999999999,"N_COORD97":2543709.6200000001,"ADDRESS":"武德街３７號之２","OBJECTID":581549},"geometry":{"x":168965.36000000034,"y":2543709.6200000029}},{"attributes":{"ID":581577,"DIS_CODE":0,"TOWNNAME":"中西區","LI":"青年里","LIN":"6鄰","STREET":"武德街","SECT":" ","MAREA":" ","LANE":" ","ALLEY":" ","HOUSE_NO":"３９號","E_COORD97":168973.62,"N_COORD97":2543704.6000000001,"ADDRESS":"武德街３９號","OBJECTID":581550},"geometry":{"x":168973.61999999918,"y":2543704.6000000034}},{"attributes":{"ID":581578,"DIS_CODE":0,"TOWNNAME":"中西區","LI":"青年里","LIN":"6鄰","STREET":"武德街","SECT":" ","MAREA":" ","LANE":" ","ALLEY":" ","HOUSE_NO":"４１號","E_COORD97":168978.29000000001,"N_COORD97":2543702.8100000001,"ADDRESS":"武德街４１號","OBJECTID":581551},"geometry":{"x":168978.29000000097,"y":2543702.8100000005}},{"attributes":{"ID":581579,"DIS_CODE":0,"TOWNNAME":"中西區","LI":"青年里","LIN":"6鄰","STREET":"衛民街","SECT":" ","MAREA":" ","LANE":" ","ALLEY":" ","HOUSE_NO":"６９號","E_COORD97":168978.64999999999,"N_COORD97":2543714.2799999998,"ADDRESS":"衛民街６９號","OBJECTID":581552},"geometry":{"x":168978.65000000037,"y":2543714.2800000012}},{"attributes":{"ID":581580,"DIS_CODE":0,"TOWNNAME":"永康區","LI":"中興里","LIN":"16鄰","STREET":"中華二路","SECT":" ","MAREA":" ","LANE":" ","ALLEY":" ","HOUSE_NO":"１３９號","E_COORD97":171977.51999999999,"N_COORD97":2545425.7400000002,"ADDRESS":"中華二路１３９號","OBJECTID":581553},"geometry":{"x":171977.51999999955,"y":2545425.7400000002}},{"attributes":{"ID":581581,"DIS_CODE":0,"TOWNNAME":"麻豆區","LI":"中興里","LIN":"16鄰","STREET":"三民路","SECT":" ","MAREA":" ","LANE":" ","ALLEY":" ","HOUSE_NO":"６０號之１０","E_COORD97":172748.01999999999,"N_COORD97":2564405.96,"ADDRESS":"三民路６０號之１０","OBJECTID":581554},"geometry":{"x":172748.02000000048,"y":2564405.9600000028}},{"attributes":{"ID":581582,"DIS_CODE":0,"TOWNNAME":"麻豆區","LI":"中興里","LIN":"16鄰","STREET":"三民路","SECT":" ","MAREA":" ","LANE":" ","ALLEY":" ","HOUSE_NO":"６０號之１１","E_COORD97":172749.29000000001,"N_COORD97":2564400.25,"ADDRESS":"三民路６０號之１１","OBJECTID":581555},"geometry":{"x":172749.28999999911,"y":2564400.2500000019}},{"attributes":{"ID":581583,"DIS_CODE":0,"TOWNNAME":"麻豆區","LI":"中興里","LIN":"16鄰","STREET":"三民路","SECT":" ","MAREA":" ","LANE":" ","ALLEY":" ","HOUSE_NO":"６０號之６","E_COORD97":172744.70999999999,"N_COORD97":2564430.0899999999,"ADDRESS":"三民路６０號之６","OBJECTID":581556},"geometry":{"x":172744.71000000183,"y":2564430.0900000036}},{"attributes":{"ID":581584,"DIS_CODE":0,"TOWNNAME":"麻豆區","LI":"中興里","LIN":"16鄰","STREET":"三民路","SECT":" ","MAREA":" ","LANE":" ","ALLEY":" ","HOUSE_NO":"６０號之７","E_COORD97":172745.69,"N_COORD97":2564424.3199999998,"ADDRESS":"三民路６０號之７","OBJECTID":581557},"geometry":{"x":172745.69000000134,"y":2564424.3200000003}},{"attributes":{"ID":581585,"DIS_CODE":0,"TOWNNAME":"麻豆區","LI":"中興里","LIN":"16鄰","STREET":"三民路","SECT":" ","MAREA":" ","LANE":" ","ALLEY":" ","HOUSE_NO":"６０號之８","E_COORD97":172746.69,"N_COORD97":2564417.7200000002,"ADDRESS":"三民路６０號之８","OBJECTID":581558},"geometry":{"x":172746.69000000041,"y":2564417.7200000025}},{"attributes":{"ID":581586,"DIS_CODE":0,"TOWNNAME":"麻豆區","LI":"中興里","LIN":"16鄰","STREET":"三民路","SECT":" ","MAREA":" ","LANE":" ","ALLEY":" ","HOUSE_NO":"６０號之９","E_COORD97":172747.26000000001,"N_COORD97":2564411.98,"ADDRESS":"三民路６０號之９","OBJECTID":581559},"geometry":{"x":172747.25999999978,"y":2564411.9800000023}},{"attributes":{"ID":581587,"DIS_CODE":0,"TOWNNAME":"麻豆區","LI":"中興里","LIN":"16鄰","STREET":"三民路","SECT":" ","MAREA":" ","LANE":" ","ALLEY":" ","HOUSE_NO":"６０號","E_COORD97":172728.89000000001,"N_COORD97":2564417.6000000001,"ADDRESS":"三民路６０號","OBJECTID":581560},"geometry":{"x":172728.88999999966,"y":2564417.6000000015}},{"attributes":{"ID":581588,"DIS_CODE":0,"TOWNNAME":"永康區","LI":"復國里","LIN":"16鄰","STREET":"復國二路","SECT":" ","MAREA":" ","LANE":" ","ALLEY":" ","HOUSE_NO":"２０２號","E_COORD97":172953.5,"N_COORD97":2545811.5299999998,"ADDRESS":"復國二路２０２號","OBJECTID":581561},"geometry":{"x":172953.50000000093,"y":2545811.5300000012}},{"attributes":{"ID":581589,"DIS_CODE":0,"TOWNNAME":"永康區","LI":"復華里","LIN":"16鄰","STREET":"復華七街","SECT":" ","MAREA":" ","LANE":" ","ALLEY":" ","HOUSE_NO":"９６號","E_COORD97":172844.98999999999,"N_COORD97":2546142.1800000002,"ADDRESS":"復華七街９６號","OBJECTID":581562},"geometry":{"x":172844.99000000209,"y":2546142.1800000016}},{"attributes":{"ID":581590,"DIS_CODE":0,"TOWNNAME":"善化區","LI":"東關里","LIN":"16鄰","STREET":"中和街","SECT":" ","MAREA":" ","LANE":" ","ALLEY":" ","HOUSE_NO":"５號之３","E_COORD97":177449.59,"N_COORD97":2558973.27,"ADDRESS":"中和街５號之３","OBJECTID":581563},"geometry":{"x":177449.59000000171,"y":2558973.2699999977}},{"attributes":{"ID":581591,"DIS_CODE":0,"TOWNNAME":"善化區","LI":"東關里","LIN":"16鄰","STREET":"中和街","SECT":" ","MAREA":" ","LANE":" ","ALLEY":" ","HOUSE_NO":"９之１號","E_COORD97":177455.17999999999,"N_COORD97":2558948.77,"ADDRESS":"中和街９之１號","OBJECTID":581564},"geometry":{"x":177455.1799999997,"y":2558948.7699999996}},{"attributes":{"ID":581592,"DIS_CODE":0,"TOWNNAME":"善化區","LI":"坐駕里","LIN":"16鄰","STREET":"健康街","SECT":" ","MAREA":" ","LANE":" ","ALLEY":" ","HOUSE_NO":"１１號","E_COORD97":178872.20999999999,"N_COORD97":2558861.27,"ADDRESS":"健康街１１號","OBJECTID":581565},"geometry":{"x":178872.20999999996,"y":2558861.2699999996}},{"attributes":{"ID":581593,"DIS_CODE":0,"TOWNNAME":"中西區","LI":"青年里","LIN":"5鄰","STREET":"青年路","SECT":" ","MAREA":" ","LANE":" ","ALLEY":" ","HOUSE_NO":"１３９號","E_COORD97":168945.64000000001,"N_COORD97":2543619.1800000002,"ADDRESS":"青年路１３９號","OBJECTID":581566},"geometry":{"x":168945.63999999966,"y":2543619.1800000034}},{"attributes":{"ID":581594,"DIS_CODE":0,"TOWNNAME":"中西區","LI":"青年里","LIN":"5鄰","STREET":"青年路","SECT":" ","MAREA":" ","LANE":" ","ALLEY":" ","HOUSE_NO":"１４１號","E_COORD97":168950.98999999999,"N_COORD97":2543615.73,"ADDRESS":"青年路１４１號","OBJECTID":581567},"geometry":{"x":168950.99000000209,"y":2543615.7300000004}},{"attributes":{"ID":581595,"DIS_CODE":0,"TOWNNAME":"中西區","LI":"青年里","LIN":"5鄰","STREET":"青年路","SECT":" ","MAREA":" ","LANE":" ","ALLEY":" ","HOUSE_NO":"１４３號","E_COORD97":168955.07999999999,"N_COORD97":2543614.1600000001,"ADDRESS":"青年路１４３號","OBJECTID":581568},"geometry":{"x":168955.08000000007,"y":2543614.160000002}},{"attributes":{"ID":581596,"DIS_CODE":0,"TOWNNAME":"中西區","LI":"青年里","LIN":"5鄰","STREET":"青年路","SECT":" ","MAREA":" ","LANE":" ","ALLEY":" ","HOUSE_NO":"１４５號","E_COORD97":168958.85000000001,"N_COORD97":2543613.5299999998,"ADDRESS":"青年路１４５號","OBJECTID":581569},"geometry":{"x":168958.85000000056,"y":2543613.5300000012}},{"attributes":{"ID":581597,"DIS_CODE":0,"TOWNNAME":"中西區","LI":"青年里","LIN":"5鄰","STREET":"青年路","SECT":" ","MAREA":" ","LANE":" ","ALLEY":" ","HOUSE_NO":"１４７號","E_COORD97":168962.31,"N_COORD97":2543612.5899999999,"ADDRESS":"青年路１４７號","OBJECTID":581570},"geometry":{"x":168962.31000000052,"y":2543612.5899999999}},{"attributes":{"ID":581598,"DIS_CODE":0,"TOWNNAME":"永康區","LI":"二王里","LIN":"16鄰","STREET":"忠孝路","SECT":" ","MAREA":" ","LANE":" ","ALLEY":" ","HOUSE_NO":"４４２號之１","E_COORD97":172481.10999999999,"N_COORD97":2546598.3300000001,"ADDRESS":"忠孝路４４２號之１","OBJECTID":581571},"geometry":{"x":172481.11000000034,"y":2546598.3300000001}},{"attributes":{"ID":581599,"DIS_CODE":0,"TOWNNAME":"東區","LI":"虎尾里","LIN":"16鄰","STREET":"東成街","SECT":" ","MAREA":" ","LANE":" ","ALLEY":" ","HOUSE_NO":"８２號之１","E_COORD97":171459.59,"N_COORD97":2542263.52,"ADDRESS":"東成街８２號之１","OBJECTID":581572},"geometry":{"x":171459.59000000078,"y":2542263.5199999996}},{"attributes":{"ID":581600,"DIS_CODE":0,"TOWNNAME":"東區","LI":"虎尾里","LIN":"16鄰","STREET":"東成街","SECT":" ","MAREA":" ","LANE":" ","ALLEY":" ","HOUSE_NO":"８２號之２","E_COORD97":171464.01999999999,"N_COORD97":2542264.1200000001,"ADDRESS":"東成街８２號之２","OBJECTID":581573},"geometry":{"x":171464.02000000142,"y":2542264.120000001}},{"attributes":{"ID":581601,"DIS_CODE":0,"TOWNNAME":"中西區","LI":"五妃里","LIN":"16鄰","STREET":"慶中街","SECT":" ","MAREA":" ","LANE":" ","ALLEY":" ","HOUSE_NO":"２００號","E_COORD97":168562.67000000001,"N_COORD97":2542797.77,"ADDRESS":"慶中街２００號","OBJECTID":581574},"geometry":{"x":168562.66999999993,"y":2542797.7699999977}},{"attributes":{"ID":581602,"DIS_CODE":0,"TOWNNAME":"中西區","LI":"五妃里","LIN":"16鄰","STREET":"慶中街","SECT":" ","MAREA":" ","LANE":" ","ALLEY":" ","HOUSE_NO":"２０２號","E_COORD97":168564.45999999999,"N_COORD97":2542805.04,"ADDRESS":"慶中街２０２號","OBJECTID":581575},"geometry":{"x":168564.46000000183,"y":2542805.0399999991}},{"attributes":{"ID":581603,"DIS_CODE":0,"TOWNNAME":"中西區","LI":"五妃里","LIN":"16鄰","STREET":"慶中街","SECT":" ","MAREA":" ","LANE":" ","ALLEY":" ","HOUSE_NO":"２０４號","E_COORD97":168564.97,"N_COORD97":2542811.9199999999,"ADDRESS":"慶中街２０４號","OBJECTID":581576},"geometry":{"x":168564.97000000067,"y":2542811.9200000018}},{"attributes":{"ID":581604,"DIS_CODE":0,"TOWNNAME":"中西區","LI":"五妃里","LIN":"16鄰","STREET":"慶中街","SECT":" ","MAREA":" ","LANE":" ","ALLEY":" ","HOUSE_NO":"２０８號","E_COORD97":168568.54000000001,"N_COORD97":2542824.5299999998,"ADDRESS":"慶中街２０８號","OBJECTID":581577},"geometry":{"x":168568.54000000004,"y":2542824.5300000012}},{"attributes":{"ID":581605,"DIS_CODE":0,"TOWNNAME":"東區","LI":"虎尾里","LIN":"16鄰","STREET":"東成街","SECT":" ","MAREA":" ","LANE":" ","ALLEY":" ","HOUSE_NO":"５２號","E_COORD97":171370.73000000001,"N_COORD97":2542251.3100000001,"ADDRESS":"東成街５２號","OBJECTID":581578},"geometry":{"x":171370.73000000138,"y":2542251.3100000005}},{"attributes":{"ID":581606,"DIS_CODE":0,"TOWNNAME":"東區","LI":"虎尾里","LIN":"16鄰","STREET":"東成街","SECT":" ","MAREA":" ","LANE":" ","ALLEY":" ","HOUSE_NO":"７０號","E_COORD97":171421.51000000001,"N_COORD97":2542236.9500000002,"ADDRESS":"東成街７０號","OBJECTID":581579},"geometry":{"x":171421.50999999978,"y":2542236.950000003}},{"attributes":{"ID":581607,"DIS_CODE":0,"TOWNNAME":"東區","LI":"虎尾里","LIN":"16鄰","STREET":"東成街","SECT":" ","MAREA":" ","LANE":" ","ALLEY":" ","HOUSE_NO":"７６號","E_COORD97":171453.34,"N_COORD97":2542238.1499999999,"ADDRESS":"東成街７６號","OBJECTID":581580},"geometry":{"x":171453.33999999985,"y":2542238.1500000022}},{"attributes":{"ID":581608,"DIS_CODE":0,"TOWNNAME":"東區","LI":"虎尾里","LIN":"16鄰","STREET":"東成街","SECT":" ","MAREA":" ","LANE":" ","ALLEY":" ","HOUSE_NO":"８６號","E_COORD97":171492.63,"N_COORD97":2542272.1699999999,"ADDRESS":"東成街８６號","OBJECTID":581581},"geometry":{"x":171492.63000000175,"y":2542272.1699999999}},{"attributes":{"ID":581609,"DIS_CODE":0,"TOWNNAME":"永康區","LI":"網寮里","LIN":"16鄰","STREET":"永勝街","SECT":" ","MAREA":" ","LANE":" ","ALLEY":" ","HOUSE_NO":"２５９號","E_COORD97":173402.59,"N_COORD97":2546763.5099999998,"ADDRESS":"永勝街２５９號","OBJECTID":581582},"geometry":{"x":173402.58999999985,"y":2546763.5100000035}},{"attributes":{"ID":581610,"DIS_CODE":0,"TOWNNAME":"中西區","LI":"法華里","LIN":"16鄰","STREET":"法華街","SECT":" ","MAREA":" ","LANE":" ","ALLEY":" ","HOUSE_NO":"１０４號之１","E_COORD97":168920.07000000001,"N_COORD97":2542661.25,"ADDRESS":"法華街１０４號之１","OBJECTID":581583},"geometry":{"x":168920.07000000216,"y":2542661.2500000019}},{"attributes":{"ID":581611,"DIS_CODE":0,"TOWNNAME":"中西區","LI":"法華里","LIN":"16鄰","STREET":"法華街","SECT":" ","MAREA":" ","LANE":" ","ALLEY":" ","HOUSE_NO":"１０４號之２","E_COORD97":168922.45000000001,"N_COORD97":2542669.2400000002,"ADDRESS":"法華街１０４號之２","OBJECTID":581584},"geometry":{"x":168922.45000000205,"y":2542669.2400000002}},{"attributes":{"ID":581612,"DIS_CODE":0,"TOWNNAME":"中西區","LI":"法華里","LIN":"16鄰","STREET":"法華街","SECT":" ","MAREA":" ","LANE":" ","ALLEY":" ","HOUSE_NO":"１０６號","E_COORD97":168922.85999999999,"N_COORD97":2542664.6699999999,"ADDRESS":"法華街１０６號","OBJECTID":581585},"geometry":{"x":168922.86000000034,"y":2542664.6700000018}},{"attributes":{"ID":581613,"DIS_CODE":0,"TOWNNAME":"中西區","LI":"法華里","LIN":"16鄰","STREET":"法華街","SECT":" ","MAREA":" ","LANE":" ","ALLEY":" ","HOUSE_NO":"１０６號之１","E_COORD97":168907.84,"N_COORD97":2542669.1699999999,"ADDRESS":"法華街１０６號之１","OBJECTID":581586},"geometry":{"x":168907.84000000078,"y":2542669.1699999999}},{"attributes":{"ID":581614,"DIS_CODE":0,"TOWNNAME":"中西區","LI":"法華里","LIN":"16鄰","STREET":"法華街","SECT":" ","MAREA":" ","LANE":" ","ALLEY":" ","HOUSE_NO":"１０６號之２","E_COORD97":168911.92000000001,"N_COORD97":2542667.0299999998,"ADDRESS":"法華街１０６號之２","OBJECTID":581587},"geometry":{"x":168911.91999999993,"y":2542667.0299999975}},{"attributes":{"ID":581615,"DIS_CODE":0,"TOWNNAME":"中西區","LI":"法華里","LIN":"16鄰","STREET":"法華街","SECT":" ","MAREA":" ","LANE":" ","ALLEY":" ","HOUSE_NO":"１０８號","E_COORD97":168888.10000000001,"N_COORD97":2542663.3900000001,"ADDRESS":"法華街１０８號","OBJECTID":581588},"geometry":{"x":168888.09999999963,"y":2542663.3900000025}},{"attributes":{"ID":581616,"DIS_CODE":0,"TOWNNAME":"中西區","LI":"法華里","LIN":"16鄰","STREET":"法華街","SECT":" ","MAREA":" ","LANE":" ","ALLEY":" ","HOUSE_NO":"１０８號之１","E_COORD97":168899.47,"N_COORD97":2542669.8199999998,"ADDRESS":"法華街１０８號之１","OBJECTID":581589},"geometry":{"x":168899.46999999974,"y":2542669.820000004}},{"attributes":{"ID":581617,"DIS_CODE":0,"TOWNNAME":"中西區","LI":"法華里","LIN":"16鄰","STREET":"法華街","SECT":" ","MAREA":" ","LANE":" ","ALLEY":" ","HOUSE_NO":"１３２號","E_COORD97":168888.67000000001,"N_COORD97":2542632.3199999998,"ADDRESS":"法華街１３２號","OBJECTID":581590},"geometry":{"x":168888.67000000086,"y":2542632.320000004}},{"attributes":{"ID":581618,"DIS_CODE":0,"TOWNNAME":"中西區","LI":"法華里","LIN":"16鄰","STREET":"法華街","SECT":" ","MAREA":" ","LANE":" ","ALLEY":" ","HOUSE_NO":"１３４號","E_COORD97":168885.01999999999,"N_COORD97":2542636.3900000001,"ADDRESS":"法華街１３４號","OBJECTID":581591},"geometry":{"x":168885.01999999955,"y":2542636.3900000025}},{"attributes":{"ID":581619,"DIS_CODE":0,"TOWNNAME":"中西區","LI":"法華里","LIN":"16鄰","STREET":"法華街","SECT":" ","MAREA":" ","LANE":" ","ALLEY":" ","HOUSE_NO":"１３６號","E_COORD97":168878.79999999999,"N_COORD97":2542637.04,"ADDRESS":"法華街１３６號","OBJECTID":581592},"geometry":{"x":168878.79999999981,"y":2542637.040000001}},{"attributes":{"ID":581620,"DIS_CODE":0,"TOWNNAME":"中西區","LI":"法華里","LIN":"16鄰","STREET":"法華街","SECT":" ","MAREA":" ","LANE":" ","ALLEY":" ","HOUSE_NO":"１４０號","E_COORD97":168865.70999999999,"N_COORD97":2542631.4700000002,"ADDRESS":"法華街１４０號","OBJECTID":581593},"geometry":{"x":168865.70999999996,"y":2542631.4699999988}},{"attributes":{"ID":581621,"DIS_CODE":0,"TOWNNAME":"中西區","LI":"法華里","LIN":"16鄰","STREET":"法華街","SECT":" ","MAREA":" ","LANE":" ","ALLEY":" ","HOUSE_NO":"１４２號","E_COORD97":168882.01999999999,"N_COORD97":2542619.98,"ADDRESS":"法華街１４２號","OBJECTID":581594},"geometry":{"x":168882.01999999955,"y":2542619.9800000004}},{"attributes":{"ID":581622,"DIS_CODE":0,"TOWNNAME":"中西區","LI":"法華里","LIN":"16鄰","STREET":"法華街","SECT":" ","MAREA":" ","LANE":" ","ALLEY":" ","HOUSE_NO":"１４２號之１","E_COORD97":168871.72,"N_COORD97":2542622.5499999998,"ADDRESS":"法華街１４２號之１","OBJECTID":581595},"geometry":{"x":168871.72000000067,"y":2542622.5500000026}},{"attributes":{"ID":581623,"DIS_CODE":0,"TOWNNAME":"中西區","LI":"法華里","LIN":"16鄰","STREET":"法華街","SECT":" ","MAREA":" ","LANE":" ","ALLEY":" ","HOUSE_NO":"１４６號","E_COORD97":168863.78,"N_COORD97":2542610.3399999999,"ADDRESS":"法華街１４６號","OBJECTID":581596},"geometry":{"x":168863.78000000026,"y":2542610.3399999999}},{"attributes":{"ID":581624,"DIS_CODE":0,"TOWNNAME":"中西區","LI":"法華里","LIN":"16鄰","STREET":"法華街","SECT":" ","MAREA":" ","LANE":" ","ALLEY":" ","HOUSE_NO":"１５０號","E_COORD97":168874.72,"N_COORD97":2542602.3399999999,"ADDRESS":"法華街１５０號","OBJECTID":581597},"geometry":{"x":168874.72000000067,"y":2542602.3400000017}},{"attributes":{"ID":581625,"DIS_CODE":0,"TOWNNAME":"中西區","LI":"法華里","LIN":"16鄰","STREET":"法華街","SECT":" ","MAREA":" ","LANE":" ","ALLEY":" ","HOUSE_NO":"１５０號之１","E_COORD97":168874.07999999999,"N_COORD97":2542598.0499999998,"ADDRESS":"法華街１５０號之１","OBJECTID":581598},"geometry":{"x":168874.08000000194,"y":2542598.0500000026}},{"attributes":{"ID":581626,"DIS_CODE":0,"TOWNNAME":"中西區","LI":"法華里","LIN":"16鄰","STREET":"法華街","SECT":" ","MAREA":" ","LANE":" ","ALLEY":" ","HOUSE_NO":"１５２號","E_COORD97":168867.64000000001,"N_COORD97":2542593.98,"ADDRESS":"法華街１５２號","OBJECTID":581599},"geometry":{"x":168867.63999999966,"y":2542593.9800000042}},{"attributes":{"ID":581627,"DIS_CODE":0,"TOWNNAME":"中西區","LI":"法華里","LIN":"16鄰","STREET":"法華街","SECT":" ","MAREA":" ","LANE":" ","ALLEY":" ","HOUSE_NO":"１５４號","E_COORD97":168870.56,"N_COORD97":2542589.6600000001,"ADDRESS":"法華街１５４號","OBJECTID":581600},"geometry":{"x":168870.56000000052,"y":2542589.660000002}}]}