{"displayFieldName":"TOWNNAME","fieldAliases":{"ID":"ID","DIS_CODE":"DIS_CODE","TOWNNAME":"TOWNNAME","LI":"LI","LIN":"LIN","STREET":"STREET","SECT":"SECT","MAREA":"MAREA","LANE":"LANE","ALLEY":"ALLEY","HOUSE_NO":"HOUSE_NO","E_COORD97":"E_COORD97","N_COORD97":"N_COORD97","ADDRESS":"ADDRESS","OBJECTID":"OBJECTID"},"geometryType":"esriGeometryPoint","spatialReference":{"wkid":102443,"latestWkid":3826},"fields":[{"name":"ID","type":"esriFieldTypeDouble","alias":"ID"},{"name":"DIS_CODE","type":"esriFieldTypeInteger","alias":"DIS_CODE"},{"name":"TOWNNAME","type":"esriFieldTypeString","alias":"TOWNNAME","length":8},{"name":"LI","type":"esriFieldTypeString","alias":"LI","length":8},{"name":"LIN","type":"esriFieldTypeString","alias":"LIN","length":12},{"name":"STREET","type":"esriFieldTypeString","alias":"STREET","length":20},{"name":"SECT","type":"esriFieldTypeString","alias":"SECT","length":8},{"name":"MAREA","type":"esriFieldTypeString","alias":"MAREA","length":12},{"name":"LANE","type":"esriFieldTypeString","alias":"LANE","length":10},{"name":"ALLEY","type":"esriFieldTypeString","alias":"ALLEY","length":10},{"name":"HOUSE_NO","type":"esriFieldTypeString","alias":"HOUSE_NO","length":20},{"name":"E_COORD97","type":"esriFieldTypeDouble","alias":"E_COORD97"},{"name":"N_COORD97","type":"esriFieldTypeDouble","alias":"N_COORD97"},{"name":"ADDRESS","type":"esriFieldTypeString","alias":"ADDRESS","length":50},{"name":"OBJECTID","type":"esriFieldTypeOID","alias":"OBJECTID"}],"features":[{"attributes":{"ID":619028,"DIS_CODE":0,"TOWNNAME":"北區","LI":"文元里","LIN":"2鄰","STREET":"北成路","SECT":" ","MAREA":" ","LANE":" ","ALLEY":" ","HOUSE_NO":"５１０號十四樓之１","E_COORD97":167944.20999999999,"N_COORD97":2546563.7999999998,"ADDRESS":"北成路５１０號十四樓之１","OBJECTID":619001},"geometry":{"x":167944.21000000089,"y":2546563.8000000026}},{"attributes":{"ID":619029,"DIS_CODE":0,"TOWNNAME":"北區","LI":"文元里","LIN":"2鄰","STREET":"北成路","SECT":" ","MAREA":" ","LANE":" ","ALLEY":" ","HOUSE_NO":"５１０號十四樓之２","E_COORD97":167944.20999999999,"N_COORD97":2546563.7999999998,"ADDRESS":"北成路５１０號十四樓之２","OBJECTID":619002},"geometry":{"x":167944.21000000089,"y":2546563.8000000026}},{"attributes":{"ID":619030,"DIS_CODE":0,"TOWNNAME":"北區","LI":"文元里","LIN":"2鄰","STREET":"北成路","SECT":" ","MAREA":" ","LANE":" ","ALLEY":" ","HOUSE_NO":"５１０號十四樓之３","E_COORD97":167944.20999999999,"N_COORD97":2546563.7999999998,"ADDRESS":"北成路５１０號十四樓之３","OBJECTID":619003},"geometry":{"x":167944.21000000089,"y":2546563.8000000026}},{"attributes":{"ID":619031,"DIS_CODE":0,"TOWNNAME":"北區","LI":"文元里","LIN":"2鄰","STREET":"北成路","SECT":" ","MAREA":" ","LANE":" ","ALLEY":" ","HOUSE_NO":"５１０號十四樓之５","E_COORD97":167944.20999999999,"N_COORD97":2546563.7999999998,"ADDRESS":"北成路５１０號十四樓之５","OBJECTID":619004},"geometry":{"x":167944.21000000089,"y":2546563.8000000026}},{"attributes":{"ID":619032,"DIS_CODE":0,"TOWNNAME":"北區","LI":"文元里","LIN":"2鄰","STREET":"北成路","SECT":" ","MAREA":" ","LANE":" ","ALLEY":" ","HOUSE_NO":"５１２號二樓之１","E_COORD97":167931.38,"N_COORD97":2546562.27,"ADDRESS":"北成路５１２號二樓之１","OBJECTID":619005},"geometry":{"x":167931.38000000082,"y":2546562.2700000014}},{"attributes":{"ID":619033,"DIS_CODE":0,"TOWNNAME":"北區","LI":"文元里","LIN":"2鄰","STREET":"北成路","SECT":" ","MAREA":" ","LANE":" ","ALLEY":" ","HOUSE_NO":"５１２號二樓之２","E_COORD97":167931.38,"N_COORD97":2546562.27,"ADDRESS":"北成路５１２號二樓之２","OBJECTID":619006},"geometry":{"x":167931.38000000082,"y":2546562.2700000014}},{"attributes":{"ID":619034,"DIS_CODE":0,"TOWNNAME":"北區","LI":"文元里","LIN":"2鄰","STREET":"北成路","SECT":" ","MAREA":" ","LANE":" ","ALLEY":" ","HOUSE_NO":"５１２號二樓之３","E_COORD97":167931.38,"N_COORD97":2546562.27,"ADDRESS":"北成路５１２號二樓之３","OBJECTID":619007},"geometry":{"x":167931.38000000082,"y":2546562.2700000014}},{"attributes":{"ID":619035,"DIS_CODE":0,"TOWNNAME":"北區","LI":"文元里","LIN":"2鄰","STREET":"北成路","SECT":" ","MAREA":" ","LANE":" ","ALLEY":" ","HOUSE_NO":"５１２號二樓之５","E_COORD97":167931.38,"N_COORD97":2546562.27,"ADDRESS":"北成路５１２號二樓之５","OBJECTID":619008},"geometry":{"x":167931.38000000082,"y":2546562.2700000014}},{"attributes":{"ID":619036,"DIS_CODE":0,"TOWNNAME":"北區","LI":"文元里","LIN":"2鄰","STREET":"北成路","SECT":" ","MAREA":" ","LANE":" ","ALLEY":" ","HOUSE_NO":"５１２號三樓之１","E_COORD97":167931.38,"N_COORD97":2546562.27,"ADDRESS":"北成路５１２號三樓之１","OBJECTID":619009},"geometry":{"x":167931.38000000082,"y":2546562.2700000014}},{"attributes":{"ID":619037,"DIS_CODE":0,"TOWNNAME":"北區","LI":"文元里","LIN":"2鄰","STREET":"北成路","SECT":" ","MAREA":" ","LANE":" ","ALLEY":" ","HOUSE_NO":"５１２號三樓之２","E_COORD97":167931.38,"N_COORD97":2546562.27,"ADDRESS":"北成路５１２號三樓之２","OBJECTID":619010},"geometry":{"x":167931.38000000082,"y":2546562.2700000014}},{"attributes":{"ID":619038,"DIS_CODE":0,"TOWNNAME":"北區","LI":"文元里","LIN":"2鄰","STREET":"北成路","SECT":" ","MAREA":" ","LANE":" ","ALLEY":" ","HOUSE_NO":"５１２號三樓之３","E_COORD97":167931.38,"N_COORD97":2546562.27,"ADDRESS":"北成路５１２號三樓之３","OBJECTID":619011},"geometry":{"x":167931.38000000082,"y":2546562.2700000014}},{"attributes":{"ID":619039,"DIS_CODE":0,"TOWNNAME":"北區","LI":"文元里","LIN":"2鄰","STREET":"北成路","SECT":" ","MAREA":" ","LANE":" ","ALLEY":" ","HOUSE_NO":"５１２號三樓之５","E_COORD97":167931.38,"N_COORD97":2546562.27,"ADDRESS":"北成路５１２號三樓之５","OBJECTID":619012},"geometry":{"x":167931.38000000082,"y":2546562.2700000014}},{"attributes":{"ID":619040,"DIS_CODE":0,"TOWNNAME":"北區","LI":"文元里","LIN":"2鄰","STREET":"北成路","SECT":" ","MAREA":" ","LANE":" ","ALLEY":" ","HOUSE_NO":"５１２號四樓之１","E_COORD97":167931.38,"N_COORD97":2546562.27,"ADDRESS":"北成路５１２號四樓之１","OBJECTID":619013},"geometry":{"x":167931.38000000082,"y":2546562.2700000014}},{"attributes":{"ID":619041,"DIS_CODE":0,"TOWNNAME":"北區","LI":"文元里","LIN":"2鄰","STREET":"北成路","SECT":" ","MAREA":" ","LANE":" ","ALLEY":" ","HOUSE_NO":"５１２號四樓之２","E_COORD97":167931.38,"N_COORD97":2546562.27,"ADDRESS":"北成路５１２號四樓之２","OBJECTID":619014},"geometry":{"x":167931.38000000082,"y":2546562.2700000014}},{"attributes":{"ID":619042,"DIS_CODE":0,"TOWNNAME":"北區","LI":"文元里","LIN":"2鄰","STREET":"北成路","SECT":" ","MAREA":" ","LANE":" ","ALLEY":" ","HOUSE_NO":"５１２號四樓之３","E_COORD97":167931.38,"N_COORD97":2546562.27,"ADDRESS":"北成路５１２號四樓之３","OBJECTID":619015},"geometry":{"x":167931.38000000082,"y":2546562.2700000014}},{"attributes":{"ID":619043,"DIS_CODE":0,"TOWNNAME":"北區","LI":"文元里","LIN":"2鄰","STREET":"北成路","SECT":" ","MAREA":" ","LANE":" ","ALLEY":" ","HOUSE_NO":"５１２號五樓之１","E_COORD97":167931.38,"N_COORD97":2546562.27,"ADDRESS":"北成路５１２號五樓之１","OBJECTID":619016},"geometry":{"x":167931.38000000082,"y":2546562.2700000014}},{"attributes":{"ID":619044,"DIS_CODE":0,"TOWNNAME":"北區","LI":"文元里","LIN":"2鄰","STREET":"北成路","SECT":" ","MAREA":" ","LANE":" ","ALLEY":" ","HOUSE_NO":"５１２號五樓之２","E_COORD97":167931.38,"N_COORD97":2546562.27,"ADDRESS":"北成路５１２號五樓之２","OBJECTID":619017},"geometry":{"x":167931.38000000082,"y":2546562.2700000014}},{"attributes":{"ID":619045,"DIS_CODE":0,"TOWNNAME":"北區","LI":"文元里","LIN":"2鄰","STREET":"北成路","SECT":" ","MAREA":" ","LANE":" ","ALLEY":" ","HOUSE_NO":"５１２號五樓之３","E_COORD97":167931.38,"N_COORD97":2546562.27,"ADDRESS":"北成路５１２號五樓之３","OBJECTID":619018},"geometry":{"x":167931.38000000082,"y":2546562.2700000014}},{"attributes":{"ID":619046,"DIS_CODE":0,"TOWNNAME":"北區","LI":"文元里","LIN":"2鄰","STREET":"北成路","SECT":" ","MAREA":" ","LANE":" ","ALLEY":" ","HOUSE_NO":"５１２號五樓之５","E_COORD97":167931.38,"N_COORD97":2546562.27,"ADDRESS":"北成路５１２號五樓之５","OBJECTID":619019},"geometry":{"x":167931.38000000082,"y":2546562.2700000014}},{"attributes":{"ID":619047,"DIS_CODE":0,"TOWNNAME":"北區","LI":"文元里","LIN":"2鄰","STREET":"北成路","SECT":" ","MAREA":" ","LANE":" ","ALLEY":" ","HOUSE_NO":"５１２號六樓之１","E_COORD97":167931.38,"N_COORD97":2546562.27,"ADDRESS":"北成路５１２號六樓之１","OBJECTID":619020},"geometry":{"x":167931.38000000082,"y":2546562.2700000014}},{"attributes":{"ID":619048,"DIS_CODE":0,"TOWNNAME":"北區","LI":"文元里","LIN":"2鄰","STREET":"北成路","SECT":" ","MAREA":" ","LANE":" ","ALLEY":" ","HOUSE_NO":"５１２號六樓之２","E_COORD97":167931.38,"N_COORD97":2546562.27,"ADDRESS":"北成路５１２號六樓之２","OBJECTID":619021},"geometry":{"x":167931.38000000082,"y":2546562.2700000014}},{"attributes":{"ID":619049,"DIS_CODE":0,"TOWNNAME":"北區","LI":"文元里","LIN":"2鄰","STREET":"北成路","SECT":" ","MAREA":" ","LANE":" ","ALLEY":" ","HOUSE_NO":"５１２號六樓之３","E_COORD97":167931.38,"N_COORD97":2546562.27,"ADDRESS":"北成路５１２號六樓之３","OBJECTID":619022},"geometry":{"x":167931.38000000082,"y":2546562.2700000014}},{"attributes":{"ID":619050,"DIS_CODE":0,"TOWNNAME":"北區","LI":"文元里","LIN":"2鄰","STREET":"北成路","SECT":" ","MAREA":" ","LANE":" ","ALLEY":" ","HOUSE_NO":"５１２號六樓之５","E_COORD97":167931.38,"N_COORD97":2546562.27,"ADDRESS":"北成路５１２號六樓之５","OBJECTID":619023},"geometry":{"x":167931.38000000082,"y":2546562.2700000014}},{"attributes":{"ID":619051,"DIS_CODE":0,"TOWNNAME":"北區","LI":"文元里","LIN":"2鄰","STREET":"北成路","SECT":" ","MAREA":" ","LANE":" ","ALLEY":" ","HOUSE_NO":"５１２號七樓之１","E_COORD97":167931.38,"N_COORD97":2546562.27,"ADDRESS":"北成路５１２號七樓之１","OBJECTID":619024},"geometry":{"x":167931.38000000082,"y":2546562.2700000014}},{"attributes":{"ID":619052,"DIS_CODE":0,"TOWNNAME":"北區","LI":"文元里","LIN":"2鄰","STREET":"北成路","SECT":" ","MAREA":" ","LANE":" ","ALLEY":" ","HOUSE_NO":"５１２號七樓之２","E_COORD97":167931.38,"N_COORD97":2546562.27,"ADDRESS":"北成路５１２號七樓之２","OBJECTID":619025},"geometry":{"x":167931.38000000082,"y":2546562.2700000014}},{"attributes":{"ID":619053,"DIS_CODE":0,"TOWNNAME":"北區","LI":"文元里","LIN":"2鄰","STREET":"北成路","SECT":" ","MAREA":" ","LANE":" ","ALLEY":" ","HOUSE_NO":"５１２號七樓之３","E_COORD97":167931.38,"N_COORD97":2546562.27,"ADDRESS":"北成路５１２號七樓之３","OBJECTID":619026},"geometry":{"x":167931.38000000082,"y":2546562.2700000014}},{"attributes":{"ID":619054,"DIS_CODE":0,"TOWNNAME":"北區","LI":"文元里","LIN":"2鄰","STREET":"北成路","SECT":" ","MAREA":" ","LANE":" ","ALLEY":" ","HOUSE_NO":"５１２號七樓之５","E_COORD97":167931.38,"N_COORD97":2546562.27,"ADDRESS":"北成路５１２號七樓之５","OBJECTID":619027},"geometry":{"x":167931.38000000082,"y":2546562.2700000014}},{"attributes":{"ID":619055,"DIS_CODE":0,"TOWNNAME":"北區","LI":"文元里","LIN":"2鄰","STREET":"北成路","SECT":" ","MAREA":" ","LANE":" ","ALLEY":" ","HOUSE_NO":"５１２號八樓之１","E_COORD97":167931.38,"N_COORD97":2546562.27,"ADDRESS":"北成路５１２號八樓之１","OBJECTID":619028},"geometry":{"x":167931.38000000082,"y":2546562.2700000014}},{"attributes":{"ID":619056,"DIS_CODE":0,"TOWNNAME":"北區","LI":"文元里","LIN":"2鄰","STREET":"北成路","SECT":" ","MAREA":" ","LANE":" ","ALLEY":" ","HOUSE_NO":"５１２號八樓之２","E_COORD97":167931.38,"N_COORD97":2546562.27,"ADDRESS":"北成路５１２號八樓之２","OBJECTID":619029},"geometry":{"x":167931.38000000082,"y":2546562.2700000014}},{"attributes":{"ID":619057,"DIS_CODE":0,"TOWNNAME":"北區","LI":"文元里","LIN":"2鄰","STREET":"北成路","SECT":" ","MAREA":" ","LANE":" ","ALLEY":" ","HOUSE_NO":"５１２號八樓之３","E_COORD97":167931.38,"N_COORD97":2546562.27,"ADDRESS":"北成路５１２號八樓之３","OBJECTID":619030},"geometry":{"x":167931.38000000082,"y":2546562.2700000014}},{"attributes":{"ID":619058,"DIS_CODE":0,"TOWNNAME":"北區","LI":"文元里","LIN":"2鄰","STREET":"北成路","SECT":" ","MAREA":" ","LANE":" ","ALLEY":" ","HOUSE_NO":"５１２號八樓之５","E_COORD97":167931.38,"N_COORD97":2546562.27,"ADDRESS":"北成路５１２號八樓之５","OBJECTID":619031},"geometry":{"x":167931.38000000082,"y":2546562.2700000014}},{"attributes":{"ID":619059,"DIS_CODE":0,"TOWNNAME":"北區","LI":"文元里","LIN":"2鄰","STREET":"北成路","SECT":" ","MAREA":" ","LANE":" ","ALLEY":" ","HOUSE_NO":"５１２號九樓之１","E_COORD97":167931.38,"N_COORD97":2546562.27,"ADDRESS":"北成路５１２號九樓之１","OBJECTID":619032},"geometry":{"x":167931.38000000082,"y":2546562.2700000014}},{"attributes":{"ID":619060,"DIS_CODE":0,"TOWNNAME":"北區","LI":"文元里","LIN":"2鄰","STREET":"北成路","SECT":" ","MAREA":" ","LANE":" ","ALLEY":" ","HOUSE_NO":"５１２號九樓之２","E_COORD97":167931.38,"N_COORD97":2546562.27,"ADDRESS":"北成路５１２號九樓之２","OBJECTID":619033},"geometry":{"x":167931.38000000082,"y":2546562.2700000014}},{"attributes":{"ID":619061,"DIS_CODE":0,"TOWNNAME":"北區","LI":"文元里","LIN":"2鄰","STREET":"北成路","SECT":" ","MAREA":" ","LANE":" ","ALLEY":" ","HOUSE_NO":"５１２號九樓之３","E_COORD97":167931.38,"N_COORD97":2546562.27,"ADDRESS":"北成路５１２號九樓之３","OBJECTID":619034},"geometry":{"x":167931.38000000082,"y":2546562.2700000014}},{"attributes":{"ID":619062,"DIS_CODE":0,"TOWNNAME":"北區","LI":"文元里","LIN":"2鄰","STREET":"北成路","SECT":" ","MAREA":" ","LANE":" ","ALLEY":" ","HOUSE_NO":"５１２號九樓之５","E_COORD97":167931.38,"N_COORD97":2546562.27,"ADDRESS":"北成路５１２號九樓之５","OBJECTID":619035},"geometry":{"x":167931.38000000082,"y":2546562.2700000014}},{"attributes":{"ID":619063,"DIS_CODE":0,"TOWNNAME":"北區","LI":"文元里","LIN":"2鄰","STREET":"北成路","SECT":" ","MAREA":" ","LANE":" ","ALLEY":" ","HOUSE_NO":"５１２號十樓之１","E_COORD97":167931.38,"N_COORD97":2546562.27,"ADDRESS":"北成路５１２號十樓之１","OBJECTID":619036},"geometry":{"x":167931.38000000082,"y":2546562.2700000014}},{"attributes":{"ID":619064,"DIS_CODE":0,"TOWNNAME":"北區","LI":"文元里","LIN":"2鄰","STREET":"北成路","SECT":" ","MAREA":" ","LANE":" ","ALLEY":" ","HOUSE_NO":"５１２號十樓之２","E_COORD97":167931.38,"N_COORD97":2546562.27,"ADDRESS":"北成路５１２號十樓之２","OBJECTID":619037},"geometry":{"x":167931.38000000082,"y":2546562.2700000014}},{"attributes":{"ID":619065,"DIS_CODE":0,"TOWNNAME":"北區","LI":"文元里","LIN":"2鄰","STREET":"北成路","SECT":" ","MAREA":" ","LANE":" ","ALLEY":" ","HOUSE_NO":"５１２號十樓之３","E_COORD97":167931.38,"N_COORD97":2546562.27,"ADDRESS":"北成路５１２號十樓之３","OBJECTID":619038},"geometry":{"x":167931.38000000082,"y":2546562.2700000014}},{"attributes":{"ID":619066,"DIS_CODE":0,"TOWNNAME":"北區","LI":"文元里","LIN":"2鄰","STREET":"北成路","SECT":" ","MAREA":" ","LANE":" ","ALLEY":" ","HOUSE_NO":"５１２號十樓之５","E_COORD97":167931.38,"N_COORD97":2546562.27,"ADDRESS":"北成路５１２號十樓之５","OBJECTID":619039},"geometry":{"x":167931.38000000082,"y":2546562.2700000014}},{"attributes":{"ID":619067,"DIS_CODE":0,"TOWNNAME":"北區","LI":"文元里","LIN":"2鄰","STREET":"北成路","SECT":" ","MAREA":" ","LANE":" ","ALLEY":" ","HOUSE_NO":"５１２號十一樓之１","E_COORD97":167931.38,"N_COORD97":2546562.27,"ADDRESS":"北成路５１２號十一樓之１","OBJECTID":619040},"geometry":{"x":167931.38000000082,"y":2546562.2700000014}},{"attributes":{"ID":619068,"DIS_CODE":0,"TOWNNAME":"北區","LI":"文元里","LIN":"2鄰","STREET":"北成路","SECT":" ","MAREA":" ","LANE":" ","ALLEY":" ","HOUSE_NO":"５１２號十一樓之２","E_COORD97":167931.38,"N_COORD97":2546562.27,"ADDRESS":"北成路５１２號十一樓之２","OBJECTID":619041},"geometry":{"x":167931.38000000082,"y":2546562.2700000014}},{"attributes":{"ID":619069,"DIS_CODE":0,"TOWNNAME":"北區","LI":"文元里","LIN":"2鄰","STREET":"北成路","SECT":" ","MAREA":" ","LANE":" ","ALLEY":" ","HOUSE_NO":"５１２號十一樓之３","E_COORD97":167931.38,"N_COORD97":2546562.27,"ADDRESS":"北成路５１２號十一樓之３","OBJECTID":619042},"geometry":{"x":167931.38000000082,"y":2546562.2700000014}},{"attributes":{"ID":619070,"DIS_CODE":0,"TOWNNAME":"北區","LI":"文元里","LIN":"2鄰","STREET":"北成路","SECT":" ","MAREA":" ","LANE":" ","ALLEY":" ","HOUSE_NO":"５１２號十一樓之５","E_COORD97":167931.38,"N_COORD97":2546562.27,"ADDRESS":"北成路５１２號十一樓之５","OBJECTID":619043},"geometry":{"x":167931.38000000082,"y":2546562.2700000014}},{"attributes":{"ID":619071,"DIS_CODE":0,"TOWNNAME":"北區","LI":"文元里","LIN":"2鄰","STREET":"北成路","SECT":" ","MAREA":" ","LANE":" ","ALLEY":" ","HOUSE_NO":"５１２號十二樓之１","E_COORD97":167931.38,"N_COORD97":2546562.27,"ADDRESS":"北成路５１２號十二樓之１","OBJECTID":619044},"geometry":{"x":167931.38000000082,"y":2546562.2700000014}},{"attributes":{"ID":619072,"DIS_CODE":0,"TOWNNAME":"北區","LI":"文元里","LIN":"2鄰","STREET":"北成路","SECT":" ","MAREA":" ","LANE":" ","ALLEY":" ","HOUSE_NO":"５１２號十二樓之２","E_COORD97":167931.38,"N_COORD97":2546562.27,"ADDRESS":"北成路５１２號十二樓之２","OBJECTID":619045},"geometry":{"x":167931.38000000082,"y":2546562.2700000014}},{"attributes":{"ID":619073,"DIS_CODE":0,"TOWNNAME":"北區","LI":"文元里","LIN":"2鄰","STREET":"北成路","SECT":" ","MAREA":" ","LANE":" ","ALLEY":" ","HOUSE_NO":"５１２號十二樓之３","E_COORD97":167931.38,"N_COORD97":2546562.27,"ADDRESS":"北成路５１２號十二樓之３","OBJECTID":619046},"geometry":{"x":167931.38000000082,"y":2546562.2700000014}},{"attributes":{"ID":619074,"DIS_CODE":0,"TOWNNAME":"北區","LI":"文元里","LIN":"2鄰","STREET":"北成路","SECT":" ","MAREA":" ","LANE":" ","ALLEY":" ","HOUSE_NO":"５１２號十二樓之５","E_COORD97":167931.38,"N_COORD97":2546562.27,"ADDRESS":"北成路５１２號十二樓之５","OBJECTID":619047},"geometry":{"x":167931.38000000082,"y":2546562.2700000014}},{"attributes":{"ID":619075,"DIS_CODE":0,"TOWNNAME":"北區","LI":"文元里","LIN":"2鄰","STREET":"北成路","SECT":" ","MAREA":" ","LANE":" ","ALLEY":" ","HOUSE_NO":"５１２號十三樓之１","E_COORD97":167931.38,"N_COORD97":2546562.27,"ADDRESS":"北成路５１２號十三樓之１","OBJECTID":619048},"geometry":{"x":167931.38000000082,"y":2546562.2700000014}},{"attributes":{"ID":619076,"DIS_CODE":0,"TOWNNAME":"北區","LI":"文元里","LIN":"2鄰","STREET":"北成路","SECT":" ","MAREA":" ","LANE":" ","ALLEY":" ","HOUSE_NO":"５１２號十三樓之２","E_COORD97":167931.38,"N_COORD97":2546562.27,"ADDRESS":"北成路５１２號十三樓之２","OBJECTID":619049},"geometry":{"x":167931.38000000082,"y":2546562.2700000014}},{"attributes":{"ID":619077,"DIS_CODE":0,"TOWNNAME":"北區","LI":"文元里","LIN":"2鄰","STREET":"北成路","SECT":" ","MAREA":" ","LANE":" ","ALLEY":" ","HOUSE_NO":"５１２號十三樓之３","E_COORD97":167931.38,"N_COORD97":2546562.27,"ADDRESS":"北成路５１２號十三樓之３","OBJECTID":619050},"geometry":{"x":167931.38000000082,"y":2546562.2700000014}},{"attributes":{"ID":619078,"DIS_CODE":0,"TOWNNAME":"北區","LI":"文元里","LIN":"2鄰","STREET":"北成路","SECT":" ","MAREA":" ","LANE":" ","ALLEY":" ","HOUSE_NO":"５１２號十三樓之５","E_COORD97":167931.38,"N_COORD97":2546562.27,"ADDRESS":"北成路５１２號十三樓之５","OBJECTID":619051},"geometry":{"x":167931.38000000082,"y":2546562.2700000014}},{"attributes":{"ID":619079,"DIS_CODE":0,"TOWNNAME":"北區","LI":"文元里","LIN":"2鄰","STREET":"北成路","SECT":" ","MAREA":" ","LANE":" ","ALLEY":" ","HOUSE_NO":"５１２號十四樓之１","E_COORD97":167931.38,"N_COORD97":2546562.27,"ADDRESS":"北成路５１２號十四樓之１","OBJECTID":619052},"geometry":{"x":167931.38000000082,"y":2546562.2700000014}},{"attributes":{"ID":619080,"DIS_CODE":0,"TOWNNAME":"北區","LI":"文元里","LIN":"2鄰","STREET":"北成路","SECT":" ","MAREA":" ","LANE":" ","ALLEY":" ","HOUSE_NO":"５１２號十四樓之２","E_COORD97":167931.38,"N_COORD97":2546562.27,"ADDRESS":"北成路５１２號十四樓之２","OBJECTID":619053},"geometry":{"x":167931.38000000082,"y":2546562.2700000014}},{"attributes":{"ID":619081,"DIS_CODE":0,"TOWNNAME":"北區","LI":"文元里","LIN":"2鄰","STREET":"北成路","SECT":" ","MAREA":" ","LANE":" ","ALLEY":" ","HOUSE_NO":"５１２號十四樓之３","E_COORD97":167931.38,"N_COORD97":2546562.27,"ADDRESS":"北成路５１２號十四樓之３","OBJECTID":619054},"geometry":{"x":167931.38000000082,"y":2546562.2700000014}},{"attributes":{"ID":619082,"DIS_CODE":0,"TOWNNAME":"北區","LI":"文元里","LIN":"2鄰","STREET":"北成路","SECT":" ","MAREA":" ","LANE":" ","ALLEY":" ","HOUSE_NO":"５１２號十四樓之５","E_COORD97":167931.38,"N_COORD97":2546562.27,"ADDRESS":"北成路５１２號十四樓之５","OBJECTID":619055},"geometry":{"x":167931.38000000082,"y":2546562.2700000014}},{"attributes":{"ID":619083,"DIS_CODE":0,"TOWNNAME":"北區","LI":"和順里","LIN":"2鄰","STREET":"西門路","SECT":"三段","MAREA":" ","LANE":" ","ALLEY":" ","HOUSE_NO":"１５１號七樓之１","E_COORD97":168372.01000000001,"N_COORD97":2544878.9700000002,"ADDRESS":"西門路三段１５１號七樓之１","OBJECTID":619056},"geometry":{"x":168372.00999999978,"y":2544878.9700000007}},{"attributes":{"ID":619084,"DIS_CODE":0,"TOWNNAME":"北區","LI":"和順里","LIN":"2鄰","STREET":"西門路","SECT":"三段","MAREA":" ","LANE":" ","ALLEY":" ","HOUSE_NO":"１５１號十樓之１","E_COORD97":168372.01000000001,"N_COORD97":2544878.9700000002,"ADDRESS":"西門路三段１５１號十樓之１","OBJECTID":619057},"geometry":{"x":168372.00999999978,"y":2544878.9700000007}},{"attributes":{"ID":619085,"DIS_CODE":0,"TOWNNAME":"北區","LI":"和順里","LIN":"2鄰","STREET":"西門路","SECT":"三段","MAREA":" ","LANE":" ","ALLEY":" ","HOUSE_NO":"１５１號十樓之２","E_COORD97":168372.01000000001,"N_COORD97":2544878.9700000002,"ADDRESS":"西門路三段１５１號十樓之２","OBJECTID":619058},"geometry":{"x":168372.00999999978,"y":2544878.9700000007}},{"attributes":{"ID":619086,"DIS_CODE":0,"TOWNNAME":"北區","LI":"和順里","LIN":"2鄰","STREET":"西門路","SECT":"三段","MAREA":" ","LANE":" ","ALLEY":" ","HOUSE_NO":"１５１號十一樓之１","E_COORD97":168372.01000000001,"N_COORD97":2544878.9700000002,"ADDRESS":"西門路三段１５１號十一樓之１","OBJECTID":619059},"geometry":{"x":168372.00999999978,"y":2544878.9700000007}},{"attributes":{"ID":619087,"DIS_CODE":0,"TOWNNAME":"北區","LI":"和順里","LIN":"2鄰","STREET":"西門路","SECT":"三段","MAREA":" ","LANE":" ","ALLEY":" ","HOUSE_NO":"１５１號十一樓之２","E_COORD97":168372.01000000001,"N_COORD97":2544878.9700000002,"ADDRESS":"西門路三段１５１號十一樓之２","OBJECTID":619060},"geometry":{"x":168372.00999999978,"y":2544878.9700000007}},{"attributes":{"ID":619088,"DIS_CODE":0,"TOWNNAME":"北區","LI":"和順里","LIN":"2鄰","STREET":"西門路","SECT":"三段","MAREA":" ","LANE":" ","ALLEY":" ","HOUSE_NO":"１５１號十二樓之１","E_COORD97":168372.01000000001,"N_COORD97":2544878.9700000002,"ADDRESS":"西門路三段１５１號十二樓之１","OBJECTID":619061},"geometry":{"x":168372.00999999978,"y":2544878.9700000007}},{"attributes":{"ID":619089,"DIS_CODE":0,"TOWNNAME":"北區","LI":"和順里","LIN":"2鄰","STREET":"西門路","SECT":"三段","MAREA":" ","LANE":" ","ALLEY":" ","HOUSE_NO":"１５１號十二樓之２","E_COORD97":168372.01000000001,"N_COORD97":2544878.9700000002,"ADDRESS":"西門路三段１５１號十二樓之２","OBJECTID":619062},"geometry":{"x":168372.00999999978,"y":2544878.9700000007}},{"attributes":{"ID":619090,"DIS_CODE":0,"TOWNNAME":"北區","LI":"和順里","LIN":"2鄰","STREET":"西門路","SECT":"三段","MAREA":" ","LANE":" ","ALLEY":" ","HOUSE_NO":"１５１號十三樓之１","E_COORD97":168372.01000000001,"N_COORD97":2544878.9700000002,"ADDRESS":"西門路三段１５１號十三樓之１","OBJECTID":619063},"geometry":{"x":168372.00999999978,"y":2544878.9700000007}},{"attributes":{"ID":619091,"DIS_CODE":0,"TOWNNAME":"北區","LI":"和順里","LIN":"2鄰","STREET":"西門路","SECT":"三段","MAREA":" ","LANE":" ","ALLEY":" ","HOUSE_NO":"１５１號十三樓之２","E_COORD97":168372.01000000001,"N_COORD97":2544878.9700000002,"ADDRESS":"西門路三段１５１號十三樓之２","OBJECTID":619064},"geometry":{"x":168372.00999999978,"y":2544878.9700000007}},{"attributes":{"ID":619092,"DIS_CODE":0,"TOWNNAME":"北區","LI":"和順里","LIN":"2鄰","STREET":"西門路","SECT":"三段","MAREA":" ","LANE":" ","ALLEY":" ","HOUSE_NO":"１５１號十四樓之１","E_COORD97":168372.01000000001,"N_COORD97":2544878.9700000002,"ADDRESS":"西門路三段１５１號十四樓之１","OBJECTID":619065},"geometry":{"x":168372.00999999978,"y":2544878.9700000007}},{"attributes":{"ID":619093,"DIS_CODE":0,"TOWNNAME":"北區","LI":"和順里","LIN":"2鄰","STREET":"西門路","SECT":"三段","MAREA":" ","LANE":" ","ALLEY":" ","HOUSE_NO":"１５１號十四樓之２","E_COORD97":168372.01000000001,"N_COORD97":2544878.9700000002,"ADDRESS":"西門路三段１５１號十四樓之２","OBJECTID":619066},"geometry":{"x":168372.00999999978,"y":2544878.9700000007}},{"attributes":{"ID":619094,"DIS_CODE":0,"TOWNNAME":"北區","LI":"和順里","LIN":"2鄰","STREET":"西門路","SECT":"三段","MAREA":" ","LANE":" ","ALLEY":" ","HOUSE_NO":"１５１號十五樓之１","E_COORD97":168372.01000000001,"N_COORD97":2544878.9700000002,"ADDRESS":"西門路三段１５１號十五樓之１","OBJECTID":619067},"geometry":{"x":168372.00999999978,"y":2544878.9700000007}},{"attributes":{"ID":619095,"DIS_CODE":0,"TOWNNAME":"北區","LI":"和順里","LIN":"2鄰","STREET":"西門路","SECT":"三段","MAREA":" ","LANE":" ","ALLEY":" ","HOUSE_NO":"１５１號十五樓之２","E_COORD97":168372.01000000001,"N_COORD97":2544878.9700000002,"ADDRESS":"西門路三段１５１號十五樓之２","OBJECTID":619068},"geometry":{"x":168372.00999999978,"y":2544878.9700000007}},{"attributes":{"ID":619096,"DIS_CODE":0,"TOWNNAME":"北區","LI":"和順里","LIN":"2鄰","STREET":"西門路","SECT":"三段","MAREA":" ","LANE":" ","ALLEY":" ","HOUSE_NO":"１５５號二樓之１","E_COORD97":168379.76000000001,"N_COORD97":2544890.1499999999,"ADDRESS":"西門路三段１５５號二樓之１","OBJECTID":619069},"geometry":{"x":168379.76000000071,"y":2544890.1500000004}},{"attributes":{"ID":619097,"DIS_CODE":0,"TOWNNAME":"北區","LI":"和順里","LIN":"2鄰","STREET":"西門路","SECT":"三段","MAREA":" ","LANE":" ","ALLEY":" ","HOUSE_NO":"１５５號二樓之２","E_COORD97":168379.76000000001,"N_COORD97":2544890.1499999999,"ADDRESS":"西門路三段１５５號二樓之２","OBJECTID":619070},"geometry":{"x":168379.76000000071,"y":2544890.1500000004}},{"attributes":{"ID":619098,"DIS_CODE":0,"TOWNNAME":"北區","LI":"和順里","LIN":"2鄰","STREET":"西門路","SECT":"三段","MAREA":" ","LANE":" ","ALLEY":" ","HOUSE_NO":"１５５號三樓之１","E_COORD97":168379.76000000001,"N_COORD97":2544890.1499999999,"ADDRESS":"西門路三段１５５號三樓之１","OBJECTID":619071},"geometry":{"x":168379.76000000071,"y":2544890.1500000004}},{"attributes":{"ID":619099,"DIS_CODE":0,"TOWNNAME":"北區","LI":"和順里","LIN":"2鄰","STREET":"西門路","SECT":"三段","MAREA":" ","LANE":" ","ALLEY":" ","HOUSE_NO":"１５５號三樓之２","E_COORD97":168379.76000000001,"N_COORD97":2544890.1499999999,"ADDRESS":"西門路三段１５５號三樓之２","OBJECTID":619072},"geometry":{"x":168379.76000000071,"y":2544890.1500000004}},{"attributes":{"ID":619100,"DIS_CODE":0,"TOWNNAME":"北區","LI":"和順里","LIN":"2鄰","STREET":"西門路","SECT":"三段","MAREA":" ","LANE":" ","ALLEY":" ","HOUSE_NO":"１５５號三樓之３","E_COORD97":168379.76000000001,"N_COORD97":2544890.1499999999,"ADDRESS":"西門路三段１５５號三樓之３","OBJECTID":619073},"geometry":{"x":168379.76000000071,"y":2544890.1500000004}},{"attributes":{"ID":619101,"DIS_CODE":0,"TOWNNAME":"北區","LI":"和順里","LIN":"2鄰","STREET":"西門路","SECT":"三段","MAREA":" ","LANE":" ","ALLEY":" ","HOUSE_NO":"１５５號三樓之５","E_COORD97":168379.76000000001,"N_COORD97":2544890.1499999999,"ADDRESS":"西門路三段１５５號三樓之５","OBJECTID":619074},"geometry":{"x":168379.76000000071,"y":2544890.1500000004}},{"attributes":{"ID":619102,"DIS_CODE":0,"TOWNNAME":"北區","LI":"和順里","LIN":"2鄰","STREET":"西門路","SECT":"三段","MAREA":" ","LANE":" ","ALLEY":" ","HOUSE_NO":"１５５號四樓之１","E_COORD97":168379.76000000001,"N_COORD97":2544890.1499999999,"ADDRESS":"西門路三段１５５號四樓之１","OBJECTID":619075},"geometry":{"x":168379.76000000071,"y":2544890.1500000004}},{"attributes":{"ID":619103,"DIS_CODE":0,"TOWNNAME":"北區","LI":"和順里","LIN":"2鄰","STREET":"西門路","SECT":"三段","MAREA":" ","LANE":" ","ALLEY":" ","HOUSE_NO":"１５５號四樓之２","E_COORD97":168379.76000000001,"N_COORD97":2544890.1499999999,"ADDRESS":"西門路三段１５５號四樓之２","OBJECTID":619076},"geometry":{"x":168379.76000000071,"y":2544890.1500000004}},{"attributes":{"ID":619104,"DIS_CODE":0,"TOWNNAME":"東區","LI":"和平里","LIN":"2鄰","STREET":"文化路","SECT":" ","MAREA":" ","LANE":" ","ALLEY":" ","HOUSE_NO":"９９號五樓","E_COORD97":171292.92000000001,"N_COORD97":2541998.1099999999,"ADDRESS":"文化路９９號五樓","OBJECTID":619077},"geometry":{"x":171292.92000000086,"y":2541998.1099999994}},{"attributes":{"ID":619105,"DIS_CODE":0,"TOWNNAME":"北區","LI":"和順里","LIN":"2鄰","STREET":"西門路","SECT":"三段","MAREA":" ","LANE":" ","ALLEY":" ","HOUSE_NO":"１５５號四樓之３","E_COORD97":168379.76000000001,"N_COORD97":2544890.1499999999,"ADDRESS":"西門路三段１５５號四樓之３","OBJECTID":619078},"geometry":{"x":168379.76000000071,"y":2544890.1500000004}},{"attributes":{"ID":619106,"DIS_CODE":0,"TOWNNAME":"北區","LI":"和順里","LIN":"2鄰","STREET":"西門路","SECT":"三段","MAREA":" ","LANE":" ","ALLEY":" ","HOUSE_NO":"１５５號四樓之５","E_COORD97":168379.76000000001,"N_COORD97":2544890.1499999999,"ADDRESS":"西門路三段１５５號四樓之５","OBJECTID":619079},"geometry":{"x":168379.76000000071,"y":2544890.1500000004}},{"attributes":{"ID":619107,"DIS_CODE":0,"TOWNNAME":"北區","LI":"和順里","LIN":"2鄰","STREET":"西門路","SECT":"三段","MAREA":" ","LANE":" ","ALLEY":" ","HOUSE_NO":"１５５號五樓之１","E_COORD97":168379.76000000001,"N_COORD97":2544890.1499999999,"ADDRESS":"西門路三段１５５號五樓之１","OBJECTID":619080},"geometry":{"x":168379.76000000071,"y":2544890.1500000004}},{"attributes":{"ID":619108,"DIS_CODE":0,"TOWNNAME":"北區","LI":"和順里","LIN":"2鄰","STREET":"西門路","SECT":"三段","MAREA":" ","LANE":" ","ALLEY":" ","HOUSE_NO":"１５１號二樓之１","E_COORD97":168372.01000000001,"N_COORD97":2544878.9700000002,"ADDRESS":"西門路三段１５１號二樓之１","OBJECTID":619081},"geometry":{"x":168372.00999999978,"y":2544878.9700000007}},{"attributes":{"ID":619109,"DIS_CODE":0,"TOWNNAME":"北區","LI":"和順里","LIN":"2鄰","STREET":"西門路","SECT":"三段","MAREA":" ","LANE":" ","ALLEY":" ","HOUSE_NO":"１５１號二樓之２","E_COORD97":168372.01000000001,"N_COORD97":2544878.9700000002,"ADDRESS":"西門路三段１５１號二樓之２","OBJECTID":619082},"geometry":{"x":168372.00999999978,"y":2544878.9700000007}},{"attributes":{"ID":619110,"DIS_CODE":0,"TOWNNAME":"北區","LI":"和順里","LIN":"2鄰","STREET":"西門路","SECT":"三段","MAREA":" ","LANE":" ","ALLEY":" ","HOUSE_NO":"１５１號三樓之１","E_COORD97":168372.01000000001,"N_COORD97":2544878.9700000002,"ADDRESS":"西門路三段１５１號三樓之１","OBJECTID":619083},"geometry":{"x":168372.00999999978,"y":2544878.9700000007}},{"attributes":{"ID":619111,"DIS_CODE":0,"TOWNNAME":"北區","LI":"和順里","LIN":"2鄰","STREET":"西門路","SECT":"三段","MAREA":" ","LANE":" ","ALLEY":" ","HOUSE_NO":"１５１號三樓之２","E_COORD97":168372.01000000001,"N_COORD97":2544878.9700000002,"ADDRESS":"西門路三段１５１號三樓之２","OBJECTID":619084},"geometry":{"x":168372.00999999978,"y":2544878.9700000007}},{"attributes":{"ID":619112,"DIS_CODE":0,"TOWNNAME":"北區","LI":"和順里","LIN":"2鄰","STREET":"西門路","SECT":"三段","MAREA":" ","LANE":" ","ALLEY":" ","HOUSE_NO":"１５１號四樓之１","E_COORD97":168372.01000000001,"N_COORD97":2544878.9700000002,"ADDRESS":"西門路三段１５１號四樓之１","OBJECTID":619085},"geometry":{"x":168372.00999999978,"y":2544878.9700000007}},{"attributes":{"ID":619113,"DIS_CODE":0,"TOWNNAME":"北區","LI":"和順里","LIN":"2鄰","STREET":"西門路","SECT":"三段","MAREA":" ","LANE":" ","ALLEY":" ","HOUSE_NO":"１５１號四樓之２","E_COORD97":168372.01000000001,"N_COORD97":2544878.9700000002,"ADDRESS":"西門路三段１５１號四樓之２","OBJECTID":619086},"geometry":{"x":168372.00999999978,"y":2544878.9700000007}},{"attributes":{"ID":619114,"DIS_CODE":0,"TOWNNAME":"北區","LI":"和順里","LIN":"2鄰","STREET":"西門路","SECT":"三段","MAREA":" ","LANE":" ","ALLEY":" ","HOUSE_NO":"１５１號五樓之１","E_COORD97":168372.01000000001,"N_COORD97":2544878.9700000002,"ADDRESS":"西門路三段１５１號五樓之１","OBJECTID":619087},"geometry":{"x":168372.00999999978,"y":2544878.9700000007}},{"attributes":{"ID":619115,"DIS_CODE":0,"TOWNNAME":"北區","LI":"和順里","LIN":"2鄰","STREET":"西門路","SECT":"三段","MAREA":" ","LANE":" ","ALLEY":" ","HOUSE_NO":"１５１號五樓之２","E_COORD97":168372.01000000001,"N_COORD97":2544878.9700000002,"ADDRESS":"西門路三段１５１號五樓之２","OBJECTID":619088},"geometry":{"x":168372.00999999978,"y":2544878.9700000007}},{"attributes":{"ID":619116,"DIS_CODE":0,"TOWNNAME":"北區","LI":"和順里","LIN":"2鄰","STREET":"西門路","SECT":"三段","MAREA":" ","LANE":" ","ALLEY":" ","HOUSE_NO":"１５１號六樓之１","E_COORD97":168372.01000000001,"N_COORD97":2544878.9700000002,"ADDRESS":"西門路三段１５１號六樓之１","OBJECTID":619089},"geometry":{"x":168372.00999999978,"y":2544878.9700000007}},{"attributes":{"ID":619117,"DIS_CODE":0,"TOWNNAME":"北區","LI":"和順里","LIN":"2鄰","STREET":"西門路","SECT":"三段","MAREA":" ","LANE":" ","ALLEY":" ","HOUSE_NO":"１５１號六樓之２","E_COORD97":168372.01000000001,"N_COORD97":2544878.9700000002,"ADDRESS":"西門路三段１５１號六樓之２","OBJECTID":619090},"geometry":{"x":168372.00999999978,"y":2544878.9700000007}},{"attributes":{"ID":619118,"DIS_CODE":0,"TOWNNAME":"北區","LI":"和順里","LIN":"2鄰","STREET":"西門路","SECT":"三段","MAREA":" ","LANE":" ","ALLEY":" ","HOUSE_NO":"１５１號七樓之２","E_COORD97":168372.01000000001,"N_COORD97":2544878.9700000002,"ADDRESS":"西門路三段１５１號七樓之２","OBJECTID":619091},"geometry":{"x":168372.00999999978,"y":2544878.9700000007}},{"attributes":{"ID":619119,"DIS_CODE":0,"TOWNNAME":"北區","LI":"和順里","LIN":"2鄰","STREET":"西門路","SECT":"三段","MAREA":" ","LANE":" ","ALLEY":" ","HOUSE_NO":"１５１號八樓之１","E_COORD97":168372.01000000001,"N_COORD97":2544878.9700000002,"ADDRESS":"西門路三段１５１號八樓之１","OBJECTID":619092},"geometry":{"x":168372.00999999978,"y":2544878.9700000007}},{"attributes":{"ID":619120,"DIS_CODE":0,"TOWNNAME":"北區","LI":"和順里","LIN":"2鄰","STREET":"西門路","SECT":"三段","MAREA":" ","LANE":" ","ALLEY":" ","HOUSE_NO":"１５１號八樓之２","E_COORD97":168372.01000000001,"N_COORD97":2544878.9700000002,"ADDRESS":"西門路三段１５１號八樓之２","OBJECTID":619093},"geometry":{"x":168372.00999999978,"y":2544878.9700000007}},{"attributes":{"ID":619121,"DIS_CODE":0,"TOWNNAME":"北區","LI":"和順里","LIN":"2鄰","STREET":"西門路","SECT":"三段","MAREA":" ","LANE":" ","ALLEY":" ","HOUSE_NO":"１５１號九樓","E_COORD97":168372.01000000001,"N_COORD97":2544878.9700000002,"ADDRESS":"西門路三段１５１號九樓","OBJECTID":619094},"geometry":{"x":168372.00999999978,"y":2544878.9700000007}},{"attributes":{"ID":619122,"DIS_CODE":0,"TOWNNAME":"新營區","LI":"民權里","LIN":"2鄰","STREET":"博愛街","SECT":" ","MAREA":" ","LANE":" ","ALLEY":" ","HOUSE_NO":"７號二樓","E_COORD97":180030.84,"N_COORD97":2578150.6499999999,"ADDRESS":"博愛街７號二樓","OBJECTID":619095},"geometry":{"x":180030.83999999985,"y":2578150.6500000004}},{"attributes":{"ID":619123,"DIS_CODE":0,"TOWNNAME":"新營區","LI":"延平里","LIN":"2鄰","STREET":"延平路","SECT":" ","MAREA":" ","LANE":" ","ALLEY":" ","HOUSE_NO":"４０之２號九樓之１","E_COORD97":179768.34,"N_COORD97":2577845.1899999999,"ADDRESS":"延平路４０之２號九樓之１","OBJECTID":619096},"geometry":{"x":179768.33999999985,"y":2577845.1900000013}},{"attributes":{"ID":619124,"DIS_CODE":0,"TOWNNAME":"新營區","LI":"延平里","LIN":"2鄰","STREET":"延平路","SECT":" ","MAREA":" ","LANE":" ","ALLEY":" ","HOUSE_NO":"４０之２號五樓之１","E_COORD97":179768.34,"N_COORD97":2577845.1899999999,"ADDRESS":"延平路４０之２號五樓之１","OBJECTID":619097},"geometry":{"x":179768.33999999985,"y":2577845.1900000013}},{"attributes":{"ID":619125,"DIS_CODE":0,"TOWNNAME":"新營區","LI":"延平里","LIN":"2鄰","STREET":"延平路","SECT":" ","MAREA":" ","LANE":" ","ALLEY":" ","HOUSE_NO":"４０之１號八樓之１","E_COORD97":179768.34,"N_COORD97":2577845.1899999999,"ADDRESS":"延平路４０之１號八樓之１","OBJECTID":619098},"geometry":{"x":179768.33999999985,"y":2577845.1900000013}},{"attributes":{"ID":619126,"DIS_CODE":0,"TOWNNAME":"新營區","LI":"延平里","LIN":"2鄰","STREET":"延平路","SECT":" ","MAREA":" ","LANE":" ","ALLEY":" ","HOUSE_NO":"４０之２號七樓之３","E_COORD97":179768.44,"N_COORD97":2577845.1899999999,"ADDRESS":"延平路４０之２號七樓之３","OBJECTID":619099},"geometry":{"x":179768.43999999948,"y":2577845.1900000013}},{"attributes":{"ID":619127,"DIS_CODE":0,"TOWNNAME":"新營區","LI":"民權里","LIN":"2鄰","STREET":"信義街","SECT":" ","MAREA":" ","LANE":" ","ALLEY":" ","HOUSE_NO":"１０之４號三樓之１","E_COORD97":179968.10999999999,"N_COORD97":2578141.04,"ADDRESS":"信義街１０之４號三樓之１","OBJECTID":619100},"geometry":{"x":179968.11000000127,"y":2578141.040000001}},{"attributes":{"ID":619128,"DIS_CODE":0,"TOWNNAME":"新營區","LI":"延平里","LIN":"2鄰","STREET":"延平路","SECT":" ","MAREA":" ","LANE":" ","ALLEY":" ","HOUSE_NO":"４０之２號三樓之２","E_COORD97":179768.48000000001,"N_COORD97":2577845.1899999999,"ADDRESS":"延平路４０之２號三樓之２","OBJECTID":619101},"geometry":{"x":179768.48000000138,"y":2577845.1900000013}},{"attributes":{"ID":619129,"DIS_CODE":0,"TOWNNAME":"新營區","LI":"民權里","LIN":"2鄰","STREET":"信義街","SECT":" ","MAREA":" ","LANE":" ","ALLEY":" ","HOUSE_NO":"１０之３號四樓之２","E_COORD97":179968.23999999999,"N_COORD97":2578141.04,"ADDRESS":"信義街１０之３號四樓之２","OBJECTID":619102},"geometry":{"x":179968.24000000115,"y":2578141.040000001}},{"attributes":{"ID":619130,"DIS_CODE":0,"TOWNNAME":"新營區","LI":"延平里","LIN":"2鄰","STREET":"延平路","SECT":" ","MAREA":" ","LANE":" ","ALLEY":" ","HOUSE_NO":"４０之２號三樓之３","E_COORD97":179768.44,"N_COORD97":2577845.1899999999,"ADDRESS":"延平路４０之２號三樓之３","OBJECTID":619103},"geometry":{"x":179768.43999999948,"y":2577845.1900000013}},{"attributes":{"ID":619131,"DIS_CODE":0,"TOWNNAME":"新營區","LI":"民權里","LIN":"2鄰","STREET":"博愛街","SECT":" ","MAREA":" ","LANE":" ","ALLEY":" ","HOUSE_NO":"７號四樓","E_COORD97":180030.84,"N_COORD97":2578150.6499999999,"ADDRESS":"博愛街７號四樓","OBJECTID":619104},"geometry":{"x":180030.83999999985,"y":2578150.6500000004}},{"attributes":{"ID":619132,"DIS_CODE":0,"TOWNNAME":"新營區","LI":"民權里","LIN":"2鄰","STREET":"博愛街","SECT":" ","MAREA":" ","LANE":" ","ALLEY":" ","HOUSE_NO":"７號五樓之２","E_COORD97":180033.10999999999,"N_COORD97":2578150.6899999999,"ADDRESS":"博愛街７號五樓之２","OBJECTID":619105},"geometry":{"x":180033.11000000034,"y":2578150.6900000013}},{"attributes":{"ID":619133,"DIS_CODE":0,"TOWNNAME":"新營區","LI":"民權里","LIN":"2鄰","STREET":"博愛街","SECT":" ","MAREA":" ","LANE":" ","ALLEY":" ","HOUSE_NO":"７號三樓","E_COORD97":180030.84,"N_COORD97":2578150.6499999999,"ADDRESS":"博愛街７號三樓","OBJECTID":619106},"geometry":{"x":180030.83999999985,"y":2578150.6500000004}},{"attributes":{"ID":619134,"DIS_CODE":0,"TOWNNAME":"新營區","LI":"民權里","LIN":"2鄰","STREET":"信義街","SECT":" ","MAREA":" ","LANE":" ","ALLEY":" ","HOUSE_NO":"１０之４號五樓之２","E_COORD97":179968.23999999999,"N_COORD97":2578141.04,"ADDRESS":"信義街１０之４號五樓之２","OBJECTID":619107},"geometry":{"x":179968.24000000115,"y":2578141.040000001}},{"attributes":{"ID":619135,"DIS_CODE":0,"TOWNNAME":"新營區","LI":"民權里","LIN":"2鄰","STREET":"信義街","SECT":" ","MAREA":" ","LANE":" ","ALLEY":" ","HOUSE_NO":"１０之４號三樓之２","E_COORD97":179968.23999999999,"N_COORD97":2578141.04,"ADDRESS":"信義街１０之４號三樓之２","OBJECTID":619108},"geometry":{"x":179968.24000000115,"y":2578141.040000001}},{"attributes":{"ID":619136,"DIS_CODE":0,"TOWNNAME":"新營區","LI":"民權里","LIN":"2鄰","STREET":"信義街","SECT":" ","MAREA":" ","LANE":" ","ALLEY":" ","HOUSE_NO":"１０之３號四樓","E_COORD97":179965.97,"N_COORD97":2578141.04,"ADDRESS":"信義街１０之３號四樓","OBJECTID":619109},"geometry":{"x":179965.9700000016,"y":2578141.040000001}},{"attributes":{"ID":619137,"DIS_CODE":0,"TOWNNAME":"安平區","LI":"怡平里","LIN":"2鄰","STREET":"建平十七街","SECT":" ","MAREA":" ","LANE":" ","ALLEY":" ","HOUSE_NO":"１６５號七樓之１","E_COORD97":165754.25,"N_COORD97":2544227.1299999999,"ADDRESS":"建平十七街１６５號七樓之１","OBJECTID":619110},"geometry":{"x":165754.25000000093,"y":2544227.1300000008}},{"attributes":{"ID":619138,"DIS_CODE":0,"TOWNNAME":"安平區","LI":"怡平里","LIN":"2鄰","STREET":"建平十七街","SECT":" ","MAREA":" ","LANE":" ","ALLEY":" ","HOUSE_NO":"１６５號七樓之２","E_COORD97":165754.25,"N_COORD97":2544227.1299999999,"ADDRESS":"建平十七街１６５號七樓之２","OBJECTID":619111},"geometry":{"x":165754.25000000093,"y":2544227.1300000008}},{"attributes":{"ID":619139,"DIS_CODE":0,"TOWNNAME":"安平區","LI":"怡平里","LIN":"2鄰","STREET":"建平十七街","SECT":" ","MAREA":" ","LANE":" ","ALLEY":" ","HOUSE_NO":"１６５號七樓之３","E_COORD97":165754.25,"N_COORD97":2544227.1299999999,"ADDRESS":"建平十七街１６５號七樓之３","OBJECTID":619112},"geometry":{"x":165754.25000000093,"y":2544227.1300000008}},{"attributes":{"ID":619140,"DIS_CODE":0,"TOWNNAME":"安平區","LI":"怡平里","LIN":"2鄰","STREET":"建平十七街","SECT":" ","MAREA":" ","LANE":" ","ALLEY":" ","HOUSE_NO":"１６５號七樓之４","E_COORD97":165754.25,"N_COORD97":2544227.1299999999,"ADDRESS":"建平十七街１６５號七樓之４","OBJECTID":619113},"geometry":{"x":165754.25000000093,"y":2544227.1300000008}},{"attributes":{"ID":619141,"DIS_CODE":0,"TOWNNAME":"安平區","LI":"怡平里","LIN":"2鄰","STREET":"建平十七街","SECT":" ","MAREA":" ","LANE":" ","ALLEY":" ","HOUSE_NO":"１６５號七樓之５","E_COORD97":165754.25,"N_COORD97":2544227.1299999999,"ADDRESS":"建平十七街１６５號七樓之５","OBJECTID":619114},"geometry":{"x":165754.25000000093,"y":2544227.1300000008}},{"attributes":{"ID":619142,"DIS_CODE":0,"TOWNNAME":"安平區","LI":"怡平里","LIN":"2鄰","STREET":"建平十七街","SECT":" ","MAREA":" ","LANE":" ","ALLEY":" ","HOUSE_NO":"１６５號七樓之６","E_COORD97":165754.25,"N_COORD97":2544227.1299999999,"ADDRESS":"建平十七街１６５號七樓之６","OBJECTID":619115},"geometry":{"x":165754.25000000093,"y":2544227.1300000008}},{"attributes":{"ID":619143,"DIS_CODE":0,"TOWNNAME":"安平區","LI":"怡平里","LIN":"2鄰","STREET":"建平十七街","SECT":" ","MAREA":" ","LANE":" ","ALLEY":" ","HOUSE_NO":"１６５號七樓之７","E_COORD97":165754.25,"N_COORD97":2544227.1299999999,"ADDRESS":"建平十七街１６５號七樓之７","OBJECTID":619116},"geometry":{"x":165754.25000000093,"y":2544227.1300000008}},{"attributes":{"ID":619144,"DIS_CODE":0,"TOWNNAME":"安平區","LI":"怡平里","LIN":"2鄰","STREET":"建平十七街","SECT":" ","MAREA":" ","LANE":" ","ALLEY":" ","HOUSE_NO":"１６５號七樓之８","E_COORD97":165754.25,"N_COORD97":2544227.1299999999,"ADDRESS":"建平十七街１６５號七樓之８","OBJECTID":619117},"geometry":{"x":165754.25000000093,"y":2544227.1300000008}},{"attributes":{"ID":619145,"DIS_CODE":0,"TOWNNAME":"安平區","LI":"怡平里","LIN":"2鄰","STREET":"建平十七街","SECT":" ","MAREA":" ","LANE":" ","ALLEY":" ","HOUSE_NO":"１６５號九樓之１","E_COORD97":165754.25,"N_COORD97":2544227.1299999999,"ADDRESS":"建平十七街１６５號九樓之１","OBJECTID":619118},"geometry":{"x":165754.25000000093,"y":2544227.1300000008}},{"attributes":{"ID":619146,"DIS_CODE":0,"TOWNNAME":"安平區","LI":"怡平里","LIN":"2鄰","STREET":"建平十七街","SECT":" ","MAREA":" ","LANE":" ","ALLEY":" ","HOUSE_NO":"１６５號九樓之２","E_COORD97":165754.25,"N_COORD97":2544227.1299999999,"ADDRESS":"建平十七街１６５號九樓之２","OBJECTID":619119},"geometry":{"x":165754.25000000093,"y":2544227.1300000008}},{"attributes":{"ID":619147,"DIS_CODE":0,"TOWNNAME":"安平區","LI":"怡平里","LIN":"2鄰","STREET":"建平十七街","SECT":" ","MAREA":" ","LANE":" ","ALLEY":" ","HOUSE_NO":"１６５號九樓之３","E_COORD97":165754.25,"N_COORD97":2544227.1299999999,"ADDRESS":"建平十七街１６５號九樓之３","OBJECTID":619120},"geometry":{"x":165754.25000000093,"y":2544227.1300000008}},{"attributes":{"ID":619148,"DIS_CODE":0,"TOWNNAME":"安平區","LI":"怡平里","LIN":"2鄰","STREET":"建平十七街","SECT":" ","MAREA":" ","LANE":" ","ALLEY":" ","HOUSE_NO":"１６５號九樓之４","E_COORD97":165754.25,"N_COORD97":2544227.1299999999,"ADDRESS":"建平十七街１６５號九樓之４","OBJECTID":619121},"geometry":{"x":165754.25000000093,"y":2544227.1300000008}},{"attributes":{"ID":619149,"DIS_CODE":0,"TOWNNAME":"安平區","LI":"怡平里","LIN":"2鄰","STREET":"建平十七街","SECT":" ","MAREA":" ","LANE":" ","ALLEY":" ","HOUSE_NO":"１６５號九樓之５","E_COORD97":165754.25,"N_COORD97":2544227.1299999999,"ADDRESS":"建平十七街１６５號九樓之５","OBJECTID":619122},"geometry":{"x":165754.25000000093,"y":2544227.1300000008}},{"attributes":{"ID":619150,"DIS_CODE":0,"TOWNNAME":"安平區","LI":"怡平里","LIN":"2鄰","STREET":"建平十七街","SECT":" ","MAREA":" ","LANE":" ","ALLEY":" ","HOUSE_NO":"１６５號九樓之６","E_COORD97":165754.25,"N_COORD97":2544227.1299999999,"ADDRESS":"建平十七街１６５號九樓之６","OBJECTID":619123},"geometry":{"x":165754.25000000093,"y":2544227.1300000008}},{"attributes":{"ID":619151,"DIS_CODE":0,"TOWNNAME":"安平區","LI":"怡平里","LIN":"2鄰","STREET":"建平十七街","SECT":" ","MAREA":" ","LANE":" ","ALLEY":" ","HOUSE_NO":"１６５號九樓之７","E_COORD97":165754.25,"N_COORD97":2544227.1299999999,"ADDRESS":"建平十七街１６５號九樓之７","OBJECTID":619124},"geometry":{"x":165754.25000000093,"y":2544227.1300000008}},{"attributes":{"ID":619152,"DIS_CODE":0,"TOWNNAME":"安平區","LI":"怡平里","LIN":"2鄰","STREET":"建平十七街","SECT":" ","MAREA":" ","LANE":" ","ALLEY":" ","HOUSE_NO":"１６５號九樓之８","E_COORD97":165754.25,"N_COORD97":2544227.1299999999,"ADDRESS":"建平十七街１６５號九樓之８","OBJECTID":619125},"geometry":{"x":165754.25000000093,"y":2544227.1300000008}},{"attributes":{"ID":619153,"DIS_CODE":0,"TOWNNAME":"安平區","LI":"怡平里","LIN":"2鄰","STREET":"建平十七街","SECT":" ","MAREA":" ","LANE":" ","ALLEY":" ","HOUSE_NO":"１６５號二樓","E_COORD97":165754.25,"N_COORD97":2544227.1299999999,"ADDRESS":"建平十七街１６５號二樓","OBJECTID":619126},"geometry":{"x":165754.25000000093,"y":2544227.1300000008}},{"attributes":{"ID":619154,"DIS_CODE":0,"TOWNNAME":"安平區","LI":"怡平里","LIN":"2鄰","STREET":"建平十七街","SECT":" ","MAREA":" ","LANE":" ","ALLEY":" ","HOUSE_NO":"１６５號八樓之１","E_COORD97":165754.25,"N_COORD97":2544227.1299999999,"ADDRESS":"建平十七街１６５號八樓之１","OBJECTID":619127},"geometry":{"x":165754.25000000093,"y":2544227.1300000008}},{"attributes":{"ID":619155,"DIS_CODE":0,"TOWNNAME":"安平區","LI":"怡平里","LIN":"2鄰","STREET":"建平十七街","SECT":" ","MAREA":" ","LANE":" ","ALLEY":" ","HOUSE_NO":"１６５號八樓之２","E_COORD97":165754.25,"N_COORD97":2544227.1299999999,"ADDRESS":"建平十七街１６５號八樓之２","OBJECTID":619128},"geometry":{"x":165754.25000000093,"y":2544227.1300000008}},{"attributes":{"ID":619156,"DIS_CODE":0,"TOWNNAME":"安平區","LI":"怡平里","LIN":"2鄰","STREET":"建平十七街","SECT":" ","MAREA":" ","LANE":" ","ALLEY":" ","HOUSE_NO":"１６５號八樓之３","E_COORD97":165754.25,"N_COORD97":2544227.1299999999,"ADDRESS":"建平十七街１６５號八樓之３","OBJECTID":619129},"geometry":{"x":165754.25000000093,"y":2544227.1300000008}},{"attributes":{"ID":619157,"DIS_CODE":0,"TOWNNAME":"安平區","LI":"怡平里","LIN":"2鄰","STREET":"建平十七街","SECT":" ","MAREA":" ","LANE":" ","ALLEY":" ","HOUSE_NO":"１６５號八樓之４","E_COORD97":165754.25,"N_COORD97":2544227.1299999999,"ADDRESS":"建平十七街１６５號八樓之４","OBJECTID":619130},"geometry":{"x":165754.25000000093,"y":2544227.1300000008}},{"attributes":{"ID":619158,"DIS_CODE":0,"TOWNNAME":"安平區","LI":"怡平里","LIN":"2鄰","STREET":"建平十七街","SECT":" ","MAREA":" ","LANE":" ","ALLEY":" ","HOUSE_NO":"１６５號八樓之５","E_COORD97":165754.25,"N_COORD97":2544227.1299999999,"ADDRESS":"建平十七街１６５號八樓之５","OBJECTID":619131},"geometry":{"x":165754.25000000093,"y":2544227.1300000008}},{"attributes":{"ID":619159,"DIS_CODE":0,"TOWNNAME":"安平區","LI":"怡平里","LIN":"2鄰","STREET":"建平十七街","SECT":" ","MAREA":" ","LANE":" ","ALLEY":" ","HOUSE_NO":"１６５號八樓之６","E_COORD97":165754.25,"N_COORD97":2544227.1299999999,"ADDRESS":"建平十七街１６５號八樓之６","OBJECTID":619132},"geometry":{"x":165754.25000000093,"y":2544227.1300000008}},{"attributes":{"ID":619160,"DIS_CODE":0,"TOWNNAME":"安平區","LI":"怡平里","LIN":"2鄰","STREET":"建平十七街","SECT":" ","MAREA":" ","LANE":" ","ALLEY":" ","HOUSE_NO":"１６５號八樓之７","E_COORD97":165754.25,"N_COORD97":2544227.1299999999,"ADDRESS":"建平十七街１６５號八樓之７","OBJECTID":619133},"geometry":{"x":165754.25000000093,"y":2544227.1300000008}},{"attributes":{"ID":619161,"DIS_CODE":0,"TOWNNAME":"安平區","LI":"怡平里","LIN":"2鄰","STREET":"建平十七街","SECT":" ","MAREA":" ","LANE":" ","ALLEY":" ","HOUSE_NO":"１６５號八樓之８","E_COORD97":165754.25,"N_COORD97":2544227.1299999999,"ADDRESS":"建平十七街１６５號八樓之８","OBJECTID":619134},"geometry":{"x":165754.25000000093,"y":2544227.1300000008}},{"attributes":{"ID":619162,"DIS_CODE":0,"TOWNNAME":"安平區","LI":"怡平里","LIN":"2鄰","STREET":"建平十七街","SECT":" ","MAREA":" ","LANE":" ","ALLEY":" ","HOUSE_NO":"１６５號十一樓之１","E_COORD97":165754.25,"N_COORD97":2544227.1299999999,"ADDRESS":"建平十七街１６５號十一樓之１","OBJECTID":619135},"geometry":{"x":165754.25000000093,"y":2544227.1300000008}},{"attributes":{"ID":619163,"DIS_CODE":0,"TOWNNAME":"東區","LI":"和平里","LIN":"2鄰","STREET":"文化路","SECT":" ","MAREA":" ","LANE":" ","ALLEY":" ","HOUSE_NO":"９９號六樓","E_COORD97":171286.35000000001,"N_COORD97":2541969.29,"ADDRESS":"文化路９９號六樓","OBJECTID":619136},"geometry":{"x":171286.35000000056,"y":2541969.2899999991}},{"attributes":{"ID":619164,"DIS_CODE":0,"TOWNNAME":"安平區","LI":"怡平里","LIN":"2鄰","STREET":"建平十七街","SECT":" ","MAREA":" ","LANE":" ","ALLEY":" ","HOUSE_NO":"１６５號十一樓之２","E_COORD97":165754.25,"N_COORD97":2544227.1299999999,"ADDRESS":"建平十七街１６５號十一樓之２","OBJECTID":619137},"geometry":{"x":165754.25000000093,"y":2544227.1300000008}},{"attributes":{"ID":619165,"DIS_CODE":0,"TOWNNAME":"安平區","LI":"怡平里","LIN":"2鄰","STREET":"建平十七街","SECT":" ","MAREA":" ","LANE":" ","ALLEY":" ","HOUSE_NO":"１６５號十一樓之３","E_COORD97":165754.25,"N_COORD97":2544227.1299999999,"ADDRESS":"建平十七街１６５號十一樓之３","OBJECTID":619138},"geometry":{"x":165754.25000000093,"y":2544227.1300000008}},{"attributes":{"ID":619166,"DIS_CODE":0,"TOWNNAME":"安平區","LI":"怡平里","LIN":"2鄰","STREET":"建平十七街","SECT":" ","MAREA":" ","LANE":" ","ALLEY":" ","HOUSE_NO":"１６５號十一樓之４","E_COORD97":165754.25,"N_COORD97":2544227.1299999999,"ADDRESS":"建平十七街１６５號十一樓之４","OBJECTID":619139},"geometry":{"x":165754.25000000093,"y":2544227.1300000008}},{"attributes":{"ID":619167,"DIS_CODE":0,"TOWNNAME":"安平區","LI":"怡平里","LIN":"2鄰","STREET":"建平十七街","SECT":" ","MAREA":" ","LANE":" ","ALLEY":" ","HOUSE_NO":"１６５號十一樓之５","E_COORD97":165754.25,"N_COORD97":2544227.1299999999,"ADDRESS":"建平十七街１６５號十一樓之５","OBJECTID":619140},"geometry":{"x":165754.25000000093,"y":2544227.1300000008}},{"attributes":{"ID":619168,"DIS_CODE":0,"TOWNNAME":"安平區","LI":"怡平里","LIN":"2鄰","STREET":"建平十七街","SECT":" ","MAREA":" ","LANE":" ","ALLEY":" ","HOUSE_NO":"１６５號十一樓之６","E_COORD97":165754.25,"N_COORD97":2544227.1299999999,"ADDRESS":"建平十七街１６５號十一樓之６","OBJECTID":619141},"geometry":{"x":165754.25000000093,"y":2544227.1300000008}},{"attributes":{"ID":619169,"DIS_CODE":0,"TOWNNAME":"安平區","LI":"怡平里","LIN":"2鄰","STREET":"建平十七街","SECT":" ","MAREA":" ","LANE":" ","ALLEY":" ","HOUSE_NO":"１６５號十一樓之７","E_COORD97":165754.25,"N_COORD97":2544227.1299999999,"ADDRESS":"建平十七街１６５號十一樓之７","OBJECTID":619142},"geometry":{"x":165754.25000000093,"y":2544227.1300000008}},{"attributes":{"ID":619170,"DIS_CODE":0,"TOWNNAME":"安平區","LI":"怡平里","LIN":"2鄰","STREET":"建平十七街","SECT":" ","MAREA":" ","LANE":" ","ALLEY":" ","HOUSE_NO":"１６５號十一樓之８","E_COORD97":165754.25,"N_COORD97":2544227.1299999999,"ADDRESS":"建平十七街１６５號十一樓之８","OBJECTID":619143},"geometry":{"x":165754.25000000093,"y":2544227.1300000008}},{"attributes":{"ID":619171,"DIS_CODE":0,"TOWNNAME":"安平區","LI":"怡平里","LIN":"2鄰","STREET":"建平十七街","SECT":" ","MAREA":" ","LANE":" ","ALLEY":" ","HOUSE_NO":"１６５號十二樓之１","E_COORD97":165754.25,"N_COORD97":2544227.1299999999,"ADDRESS":"建平十七街１６５號十二樓之１","OBJECTID":619144},"geometry":{"x":165754.25000000093,"y":2544227.1300000008}},{"attributes":{"ID":619172,"DIS_CODE":0,"TOWNNAME":"安平區","LI":"怡平里","LIN":"2鄰","STREET":"建平十七街","SECT":" ","MAREA":" ","LANE":" ","ALLEY":" ","HOUSE_NO":"１６５號十二樓之２","E_COORD97":165754.25,"N_COORD97":2544227.1299999999,"ADDRESS":"建平十七街１６５號十二樓之２","OBJECTID":619145},"geometry":{"x":165754.25000000093,"y":2544227.1300000008}},{"attributes":{"ID":619173,"DIS_CODE":0,"TOWNNAME":"安平區","LI":"怡平里","LIN":"2鄰","STREET":"建平十七街","SECT":" ","MAREA":" ","LANE":" ","ALLEY":" ","HOUSE_NO":"１６５號十二樓之３","E_COORD97":165754.25,"N_COORD97":2544227.1299999999,"ADDRESS":"建平十七街１６５號十二樓之３","OBJECTID":619146},"geometry":{"x":165754.25000000093,"y":2544227.1300000008}},{"attributes":{"ID":619174,"DIS_CODE":0,"TOWNNAME":"安平區","LI":"怡平里","LIN":"2鄰","STREET":"建平十七街","SECT":" ","MAREA":" ","LANE":" ","ALLEY":" ","HOUSE_NO":"１６５號十二樓之４","E_COORD97":165754.25,"N_COORD97":2544227.1299999999,"ADDRESS":"建平十七街１６５號十二樓之４","OBJECTID":619147},"geometry":{"x":165754.25000000093,"y":2544227.1300000008}},{"attributes":{"ID":619175,"DIS_CODE":0,"TOWNNAME":"安平區","LI":"怡平里","LIN":"2鄰","STREET":"建平十七街","SECT":" ","MAREA":" ","LANE":" ","ALLEY":" ","HOUSE_NO":"１６５號十二樓之５","E_COORD97":165754.25,"N_COORD97":2544227.1299999999,"ADDRESS":"建平十七街１６５號十二樓之５","OBJECTID":619148},"geometry":{"x":165754.25000000093,"y":2544227.1300000008}},{"attributes":{"ID":619176,"DIS_CODE":0,"TOWNNAME":"安平區","LI":"怡平里","LIN":"2鄰","STREET":"建平十七街","SECT":" ","MAREA":" ","LANE":" ","ALLEY":" ","HOUSE_NO":"１６５號十二樓之６","E_COORD97":165754.25,"N_COORD97":2544227.1299999999,"ADDRESS":"建平十七街１６５號十二樓之６","OBJECTID":619149},"geometry":{"x":165754.25000000093,"y":2544227.1300000008}},{"attributes":{"ID":619177,"DIS_CODE":0,"TOWNNAME":"安平區","LI":"怡平里","LIN":"2鄰","STREET":"建平十七街","SECT":" ","MAREA":" ","LANE":" ","ALLEY":" ","HOUSE_NO":"１６５號十二樓之７","E_COORD97":165754.25,"N_COORD97":2544227.1299999999,"ADDRESS":"建平十七街１６５號十二樓之７","OBJECTID":619150},"geometry":{"x":165754.25000000093,"y":2544227.1300000008}},{"attributes":{"ID":619178,"DIS_CODE":0,"TOWNNAME":"安平區","LI":"怡平里","LIN":"2鄰","STREET":"建平十七街","SECT":" ","MAREA":" ","LANE":" ","ALLEY":" ","HOUSE_NO":"１６５號十二樓之８","E_COORD97":165754.25,"N_COORD97":2544227.1299999999,"ADDRESS":"建平十七街１６５號十二樓之８","OBJECTID":619151},"geometry":{"x":165754.25000000093,"y":2544227.1300000008}},{"attributes":{"ID":619179,"DIS_CODE":0,"TOWNNAME":"安平區","LI":"怡平里","LIN":"2鄰","STREET":"建平十七街","SECT":" ","MAREA":" ","LANE":" ","ALLEY":" ","HOUSE_NO":"１６５號十樓之１","E_COORD97":165754.25,"N_COORD97":2544227.1299999999,"ADDRESS":"建平十七街１６５號十樓之１","OBJECTID":619152},"geometry":{"x":165754.25000000093,"y":2544227.1300000008}},{"attributes":{"ID":619180,"DIS_CODE":0,"TOWNNAME":"安平區","LI":"怡平里","LIN":"2鄰","STREET":"建平十七街","SECT":" ","MAREA":" ","LANE":" ","ALLEY":" ","HOUSE_NO":"１６５號十樓之２","E_COORD97":165754.25,"N_COORD97":2544227.1299999999,"ADDRESS":"建平十七街１６５號十樓之２","OBJECTID":619153},"geometry":{"x":165754.25000000093,"y":2544227.1300000008}},{"attributes":{"ID":619181,"DIS_CODE":0,"TOWNNAME":"安平區","LI":"怡平里","LIN":"2鄰","STREET":"建平十七街","SECT":" ","MAREA":" ","LANE":" ","ALLEY":" ","HOUSE_NO":"１６５號十樓之３","E_COORD97":165754.25,"N_COORD97":2544227.1299999999,"ADDRESS":"建平十七街１６５號十樓之３","OBJECTID":619154},"geometry":{"x":165754.25000000093,"y":2544227.1300000008}},{"attributes":{"ID":619182,"DIS_CODE":0,"TOWNNAME":"安平區","LI":"怡平里","LIN":"2鄰","STREET":"建平十七街","SECT":" ","MAREA":" ","LANE":" ","ALLEY":" ","HOUSE_NO":"１６５號十樓之４","E_COORD97":165754.25,"N_COORD97":2544227.1299999999,"ADDRESS":"建平十七街１６５號十樓之４","OBJECTID":619155},"geometry":{"x":165754.25000000093,"y":2544227.1300000008}},{"attributes":{"ID":619183,"DIS_CODE":0,"TOWNNAME":"安平區","LI":"怡平里","LIN":"2鄰","STREET":"建平十七街","SECT":" ","MAREA":" ","LANE":" ","ALLEY":" ","HOUSE_NO":"１６５號十樓之５","E_COORD97":165754.25,"N_COORD97":2544227.1299999999,"ADDRESS":"建平十七街１６５號十樓之５","OBJECTID":619156},"geometry":{"x":165754.25000000093,"y":2544227.1300000008}},{"attributes":{"ID":619184,"DIS_CODE":0,"TOWNNAME":"安平區","LI":"怡平里","LIN":"2鄰","STREET":"建平十七街","SECT":" ","MAREA":" ","LANE":" ","ALLEY":" ","HOUSE_NO":"１６５號十樓之６","E_COORD97":165754.25,"N_COORD97":2544227.1299999999,"ADDRESS":"建平十七街１６５號十樓之６","OBJECTID":619157},"geometry":{"x":165754.25000000093,"y":2544227.1300000008}},{"attributes":{"ID":619185,"DIS_CODE":0,"TOWNNAME":"安平區","LI":"怡平里","LIN":"2鄰","STREET":"建平十七街","SECT":" ","MAREA":" ","LANE":" ","ALLEY":" ","HOUSE_NO":"１６５號十樓之７","E_COORD97":165754.25,"N_COORD97":2544227.1299999999,"ADDRESS":"建平十七街１６５號十樓之７","OBJECTID":619158},"geometry":{"x":165754.25000000093,"y":2544227.1300000008}},{"attributes":{"ID":619186,"DIS_CODE":0,"TOWNNAME":"安平區","LI":"怡平里","LIN":"2鄰","STREET":"建平十七街","SECT":" ","MAREA":" ","LANE":" ","ALLEY":" ","HOUSE_NO":"１６５號十樓之８","E_COORD97":165754.25,"N_COORD97":2544227.1299999999,"ADDRESS":"建平十七街１６５號十樓之８","OBJECTID":619159},"geometry":{"x":165754.25000000093,"y":2544227.1300000008}},{"attributes":{"ID":619187,"DIS_CODE":0,"TOWNNAME":"安平區","LI":"怡平里","LIN":"2鄰","STREET":"建平十七街","SECT":" ","MAREA":" ","LANE":" ","ALLEY":" ","HOUSE_NO":"１６５號三樓之１","E_COORD97":165754.25,"N_COORD97":2544227.1299999999,"ADDRESS":"建平十七街１６５號三樓之１","OBJECTID":619160},"geometry":{"x":165754.25000000093,"y":2544227.1300000008}},{"attributes":{"ID":619188,"DIS_CODE":0,"TOWNNAME":"安平區","LI":"怡平里","LIN":"2鄰","STREET":"建平十七街","SECT":" ","MAREA":" ","LANE":" ","ALLEY":" ","HOUSE_NO":"１６５號三樓之２","E_COORD97":165754.25,"N_COORD97":2544227.1299999999,"ADDRESS":"建平十七街１６５號三樓之２","OBJECTID":619161},"geometry":{"x":165754.25000000093,"y":2544227.1300000008}},{"attributes":{"ID":619189,"DIS_CODE":0,"TOWNNAME":"安平區","LI":"怡平里","LIN":"2鄰","STREET":"建平十七街","SECT":" ","MAREA":" ","LANE":" ","ALLEY":" ","HOUSE_NO":"１６５號三樓之３","E_COORD97":165754.25,"N_COORD97":2544227.1299999999,"ADDRESS":"建平十七街１６５號三樓之３","OBJECTID":619162},"geometry":{"x":165754.25000000093,"y":2544227.1300000008}},{"attributes":{"ID":619190,"DIS_CODE":0,"TOWNNAME":"安平區","LI":"怡平里","LIN":"2鄰","STREET":"建平十七街","SECT":" ","MAREA":" ","LANE":" ","ALLEY":" ","HOUSE_NO":"１６５號三樓之４","E_COORD97":165754.25,"N_COORD97":2544227.1299999999,"ADDRESS":"建平十七街１６５號三樓之４","OBJECTID":619163},"geometry":{"x":165754.25000000093,"y":2544227.1300000008}},{"attributes":{"ID":619191,"DIS_CODE":0,"TOWNNAME":"安平區","LI":"怡平里","LIN":"2鄰","STREET":"建平十七街","SECT":" ","MAREA":" ","LANE":" ","ALLEY":" ","HOUSE_NO":"１６５號三樓之５","E_COORD97":165754.25,"N_COORD97":2544227.1299999999,"ADDRESS":"建平十七街１６５號三樓之５","OBJECTID":619164},"geometry":{"x":165754.25000000093,"y":2544227.1300000008}},{"attributes":{"ID":619192,"DIS_CODE":0,"TOWNNAME":"安平區","LI":"怡平里","LIN":"2鄰","STREET":"建平十七街","SECT":" ","MAREA":" ","LANE":" ","ALLEY":" ","HOUSE_NO":"１６５號三樓之６","E_COORD97":165754.25,"N_COORD97":2544227.1299999999,"ADDRESS":"建平十七街１６５號三樓之６","OBJECTID":619165},"geometry":{"x":165754.25000000093,"y":2544227.1300000008}},{"attributes":{"ID":619193,"DIS_CODE":0,"TOWNNAME":"安平區","LI":"怡平里","LIN":"2鄰","STREET":"建平十七街","SECT":" ","MAREA":" ","LANE":" ","ALLEY":" ","HOUSE_NO":"１６５號三樓之７","E_COORD97":165754.25,"N_COORD97":2544227.1299999999,"ADDRESS":"建平十七街１６５號三樓之７","OBJECTID":619166},"geometry":{"x":165754.25000000093,"y":2544227.1300000008}},{"attributes":{"ID":619194,"DIS_CODE":0,"TOWNNAME":"安平區","LI":"怡平里","LIN":"2鄰","STREET":"建平十七街","SECT":" ","MAREA":" ","LANE":" ","ALLEY":" ","HOUSE_NO":"１６５號三樓之８","E_COORD97":165754.25,"N_COORD97":2544227.1299999999,"ADDRESS":"建平十七街１６５號三樓之８","OBJECTID":619167},"geometry":{"x":165754.25000000093,"y":2544227.1300000008}},{"attributes":{"ID":619195,"DIS_CODE":0,"TOWNNAME":"安平區","LI":"怡平里","LIN":"2鄰","STREET":"建平十七街","SECT":" ","MAREA":" ","LANE":" ","ALLEY":" ","HOUSE_NO":"１６５號五樓之１","E_COORD97":165754.25,"N_COORD97":2544227.1299999999,"ADDRESS":"建平十七街１６５號五樓之１","OBJECTID":619168},"geometry":{"x":165754.25000000093,"y":2544227.1300000008}},{"attributes":{"ID":619196,"DIS_CODE":0,"TOWNNAME":"安平區","LI":"怡平里","LIN":"2鄰","STREET":"建平十七街","SECT":" ","MAREA":" ","LANE":" ","ALLEY":" ","HOUSE_NO":"１６５號五樓之２","E_COORD97":165754.25,"N_COORD97":2544227.1299999999,"ADDRESS":"建平十七街１６５號五樓之２","OBJECTID":619169},"geometry":{"x":165754.25000000093,"y":2544227.1300000008}},{"attributes":{"ID":619197,"DIS_CODE":0,"TOWNNAME":"安平區","LI":"怡平里","LIN":"2鄰","STREET":"建平十七街","SECT":" ","MAREA":" ","LANE":" ","ALLEY":" ","HOUSE_NO":"１６５號五樓之３","E_COORD97":165754.25,"N_COORD97":2544227.1299999999,"ADDRESS":"建平十七街１６５號五樓之３","OBJECTID":619170},"geometry":{"x":165754.25000000093,"y":2544227.1300000008}},{"attributes":{"ID":619198,"DIS_CODE":0,"TOWNNAME":"安平區","LI":"怡平里","LIN":"2鄰","STREET":"建平十七街","SECT":" ","MAREA":" ","LANE":" ","ALLEY":" ","HOUSE_NO":"１６５號五樓之４","E_COORD97":165754.25,"N_COORD97":2544227.1299999999,"ADDRESS":"建平十七街１６５號五樓之４","OBJECTID":619171},"geometry":{"x":165754.25000000093,"y":2544227.1300000008}},{"attributes":{"ID":619199,"DIS_CODE":0,"TOWNNAME":"安平區","LI":"怡平里","LIN":"2鄰","STREET":"建平十七街","SECT":" ","MAREA":" ","LANE":" ","ALLEY":" ","HOUSE_NO":"１６５號五樓之５","E_COORD97":165754.25,"N_COORD97":2544227.1299999999,"ADDRESS":"建平十七街１６５號五樓之５","OBJECTID":619172},"geometry":{"x":165754.25000000093,"y":2544227.1300000008}},{"attributes":{"ID":619200,"DIS_CODE":0,"TOWNNAME":"安平區","LI":"怡平里","LIN":"2鄰","STREET":"建平十七街","SECT":" ","MAREA":" ","LANE":" ","ALLEY":" ","HOUSE_NO":"１６５號五樓之６","E_COORD97":165754.25,"N_COORD97":2544227.1299999999,"ADDRESS":"建平十七街１６５號五樓之６","OBJECTID":619173},"geometry":{"x":165754.25000000093,"y":2544227.1300000008}},{"attributes":{"ID":619201,"DIS_CODE":0,"TOWNNAME":"安平區","LI":"怡平里","LIN":"2鄰","STREET":"建平十七街","SECT":" ","MAREA":" ","LANE":" ","ALLEY":" ","HOUSE_NO":"１６５號五樓之７","E_COORD97":165754.25,"N_COORD97":2544227.1299999999,"ADDRESS":"建平十七街１６５號五樓之７","OBJECTID":619174},"geometry":{"x":165754.25000000093,"y":2544227.1300000008}},{"attributes":{"ID":619202,"DIS_CODE":0,"TOWNNAME":"安平區","LI":"怡平里","LIN":"2鄰","STREET":"建平十七街","SECT":" ","MAREA":" ","LANE":" ","ALLEY":" ","HOUSE_NO":"１６５號五樓之８","E_COORD97":165754.25,"N_COORD97":2544227.1299999999,"ADDRESS":"建平十七街１６５號五樓之８","OBJECTID":619175},"geometry":{"x":165754.25000000093,"y":2544227.1300000008}},{"attributes":{"ID":619203,"DIS_CODE":0,"TOWNNAME":"安平區","LI":"怡平里","LIN":"2鄰","STREET":"建平十七街","SECT":" ","MAREA":" ","LANE":" ","ALLEY":" ","HOUSE_NO":"１６５號六樓之１","E_COORD97":165754.25,"N_COORD97":2544227.1299999999,"ADDRESS":"建平十七街１６５號六樓之１","OBJECTID":619176},"geometry":{"x":165754.25000000093,"y":2544227.1300000008}},{"attributes":{"ID":619204,"DIS_CODE":0,"TOWNNAME":"安平區","LI":"怡平里","LIN":"2鄰","STREET":"建平十七街","SECT":" ","MAREA":" ","LANE":" ","ALLEY":" ","HOUSE_NO":"１６５號六樓之２","E_COORD97":165754.25,"N_COORD97":2544227.1299999999,"ADDRESS":"建平十七街１６５號六樓之２","OBJECTID":619177},"geometry":{"x":165754.25000000093,"y":2544227.1300000008}},{"attributes":{"ID":619205,"DIS_CODE":0,"TOWNNAME":"安平區","LI":"怡平里","LIN":"2鄰","STREET":"建平十七街","SECT":" ","MAREA":" ","LANE":" ","ALLEY":" ","HOUSE_NO":"１６５號六樓之３","E_COORD97":165754.25,"N_COORD97":2544227.1299999999,"ADDRESS":"建平十七街１６５號六樓之３","OBJECTID":619178},"geometry":{"x":165754.25000000093,"y":2544227.1300000008}},{"attributes":{"ID":619206,"DIS_CODE":0,"TOWNNAME":"安平區","LI":"怡平里","LIN":"2鄰","STREET":"建平十七街","SECT":" ","MAREA":" ","LANE":" ","ALLEY":" ","HOUSE_NO":"１６５號六樓之４","E_COORD97":165754.25,"N_COORD97":2544227.1299999999,"ADDRESS":"建平十七街１６５號六樓之４","OBJECTID":619179},"geometry":{"x":165754.25000000093,"y":2544227.1300000008}},{"attributes":{"ID":619207,"DIS_CODE":0,"TOWNNAME":"安平區","LI":"怡平里","LIN":"2鄰","STREET":"建平十七街","SECT":" ","MAREA":" ","LANE":" ","ALLEY":" ","HOUSE_NO":"１６５號六樓之５","E_COORD97":165754.25,"N_COORD97":2544227.1299999999,"ADDRESS":"建平十七街１６５號六樓之５","OBJECTID":619180},"geometry":{"x":165754.25000000093,"y":2544227.1300000008}},{"attributes":{"ID":619208,"DIS_CODE":0,"TOWNNAME":"安平區","LI":"怡平里","LIN":"2鄰","STREET":"建平十七街","SECT":" ","MAREA":" ","LANE":" ","ALLEY":" ","HOUSE_NO":"１６５號六樓之６","E_COORD97":165754.25,"N_COORD97":2544227.1299999999,"ADDRESS":"建平十七街１６５號六樓之６","OBJECTID":619181},"geometry":{"x":165754.25000000093,"y":2544227.1300000008}},{"attributes":{"ID":619209,"DIS_CODE":0,"TOWNNAME":"安平區","LI":"怡平里","LIN":"2鄰","STREET":"建平十七街","SECT":" ","MAREA":" ","LANE":" ","ALLEY":" ","HOUSE_NO":"１６５號六樓之７","E_COORD97":165754.25,"N_COORD97":2544227.1299999999,"ADDRESS":"建平十七街１６５號六樓之７","OBJECTID":619182},"geometry":{"x":165754.25000000093,"y":2544227.1300000008}},{"attributes":{"ID":619210,"DIS_CODE":0,"TOWNNAME":"安平區","LI":"怡平里","LIN":"2鄰","STREET":"建平十七街","SECT":" ","MAREA":" ","LANE":" ","ALLEY":" ","HOUSE_NO":"１６５號六樓之８","E_COORD97":165754.25,"N_COORD97":2544227.1299999999,"ADDRESS":"建平十七街１６５號六樓之８","OBJECTID":619183},"geometry":{"x":165754.25000000093,"y":2544227.1300000008}},{"attributes":{"ID":619211,"DIS_CODE":0,"TOWNNAME":"安平區","LI":"怡平里","LIN":"2鄰","STREET":"建平十七街","SECT":" ","MAREA":" ","LANE":" ","ALLEY":" ","HOUSE_NO":"１６５號四樓之１","E_COORD97":165754.25,"N_COORD97":2544227.1299999999,"ADDRESS":"建平十七街１６５號四樓之１","OBJECTID":619184},"geometry":{"x":165754.25000000093,"y":2544227.1300000008}},{"attributes":{"ID":619212,"DIS_CODE":0,"TOWNNAME":"安平區","LI":"怡平里","LIN":"2鄰","STREET":"建平十七街","SECT":" ","MAREA":" ","LANE":" ","ALLEY":" ","HOUSE_NO":"１６５號四樓之２","E_COORD97":165754.25,"N_COORD97":2544227.1299999999,"ADDRESS":"建平十七街１６５號四樓之２","OBJECTID":619185},"geometry":{"x":165754.25000000093,"y":2544227.1300000008}},{"attributes":{"ID":619213,"DIS_CODE":0,"TOWNNAME":"安平區","LI":"怡平里","LIN":"2鄰","STREET":"建平十七街","SECT":" ","MAREA":" ","LANE":" ","ALLEY":" ","HOUSE_NO":"１６５號四樓之３","E_COORD97":165754.25,"N_COORD97":2544227.1299999999,"ADDRESS":"建平十七街１６５號四樓之３","OBJECTID":619186},"geometry":{"x":165754.25000000093,"y":2544227.1300000008}},{"attributes":{"ID":619214,"DIS_CODE":0,"TOWNNAME":"安平區","LI":"怡平里","LIN":"2鄰","STREET":"建平十七街","SECT":" ","MAREA":" ","LANE":" ","ALLEY":" ","HOUSE_NO":"１６５號四樓之４","E_COORD97":165754.25,"N_COORD97":2544227.1299999999,"ADDRESS":"建平十七街１６５號四樓之４","OBJECTID":619187},"geometry":{"x":165754.25000000093,"y":2544227.1300000008}},{"attributes":{"ID":619215,"DIS_CODE":0,"TOWNNAME":"安平區","LI":"怡平里","LIN":"2鄰","STREET":"建平十七街","SECT":" ","MAREA":" ","LANE":" ","ALLEY":" ","HOUSE_NO":"１６５號四樓之５","E_COORD97":165754.25,"N_COORD97":2544227.1299999999,"ADDRESS":"建平十七街１６５號四樓之５","OBJECTID":619188},"geometry":{"x":165754.25000000093,"y":2544227.1300000008}},{"attributes":{"ID":619216,"DIS_CODE":0,"TOWNNAME":"安平區","LI":"怡平里","LIN":"2鄰","STREET":"建平十七街","SECT":" ","MAREA":" ","LANE":" ","ALLEY":" ","HOUSE_NO":"１６５號四樓之６","E_COORD97":165754.25,"N_COORD97":2544227.1299999999,"ADDRESS":"建平十七街１６５號四樓之６","OBJECTID":619189},"geometry":{"x":165754.25000000093,"y":2544227.1300000008}},{"attributes":{"ID":619217,"DIS_CODE":0,"TOWNNAME":"安平區","LI":"怡平里","LIN":"2鄰","STREET":"建平十七街","SECT":" ","MAREA":" ","LANE":" ","ALLEY":" ","HOUSE_NO":"１６５號四樓之７","E_COORD97":165754.25,"N_COORD97":2544227.1299999999,"ADDRESS":"建平十七街１６５號四樓之７","OBJECTID":619190},"geometry":{"x":165754.25000000093,"y":2544227.1300000008}},{"attributes":{"ID":619218,"DIS_CODE":0,"TOWNNAME":"安平區","LI":"怡平里","LIN":"2鄰","STREET":"建平十七街","SECT":" ","MAREA":" ","LANE":" ","ALLEY":" ","HOUSE_NO":"１６５號四樓之８","E_COORD97":165754.25,"N_COORD97":2544227.1299999999,"ADDRESS":"建平十七街１６５號四樓之８","OBJECTID":619191},"geometry":{"x":165754.25000000093,"y":2544227.1300000008}},{"attributes":{"ID":619219,"DIS_CODE":0,"TOWNNAME":"安平區","LI":"怡平里","LIN":"2鄰","STREET":"建平十七街","SECT":" ","MAREA":" ","LANE":" ","ALLEY":" ","HOUSE_NO":"１６５號四樓之９","E_COORD97":165754.25,"N_COORD97":2544227.1299999999,"ADDRESS":"建平十七街１６５號四樓之９","OBJECTID":619192},"geometry":{"x":165754.25000000093,"y":2544227.1300000008}},{"attributes":{"ID":619220,"DIS_CODE":0,"TOWNNAME":"歸仁區","LI":"後市里","LIN":"48鄰","STREET":"文化五街","SECT":" ","MAREA":" ","LANE":" ","ALLEY":" ","HOUSE_NO":"３號","E_COORD97":177118.29000000001,"N_COORD97":2541184.7599999998,"ADDRESS":"文化五街３號","OBJECTID":619193},"geometry":{"x":177118.29000000097,"y":2541184.7600000035}},{"attributes":{"ID":619221,"DIS_CODE":0,"TOWNNAME":"安平區","LI":"建平里","LIN":"2鄰","STREET":"建平十七街","SECT":" ","MAREA":" ","LANE":" ","ALLEY":" ","HOUSE_NO":"４３號七樓之１","E_COORD97":166197.94,"N_COORD97":2544207.8599999999,"ADDRESS":"建平十七街４３號七樓之１","OBJECTID":619194},"geometry":{"x":166197.94000000041,"y":2544207.8600000031}},{"attributes":{"ID":619222,"DIS_CODE":0,"TOWNNAME":"安平區","LI":"建平里","LIN":"2鄰","STREET":"建平十七街","SECT":" ","MAREA":" ","LANE":" ","ALLEY":" ","HOUSE_NO":"４３號七樓之１０","E_COORD97":166197.94,"N_COORD97":2544207.8599999999,"ADDRESS":"建平十七街４３號七樓之１０","OBJECTID":619195},"geometry":{"x":166197.94000000041,"y":2544207.8600000031}},{"attributes":{"ID":619223,"DIS_CODE":0,"TOWNNAME":"安平區","LI":"建平里","LIN":"2鄰","STREET":"建平十七街","SECT":" ","MAREA":" ","LANE":" ","ALLEY":" ","HOUSE_NO":"４３號七樓之１１","E_COORD97":166197.94,"N_COORD97":2544207.8599999999,"ADDRESS":"建平十七街４３號七樓之１１","OBJECTID":619196},"geometry":{"x":166197.94000000041,"y":2544207.8600000031}},{"attributes":{"ID":619224,"DIS_CODE":0,"TOWNNAME":"安平區","LI":"建平里","LIN":"2鄰","STREET":"建平十七街","SECT":" ","MAREA":" ","LANE":" ","ALLEY":" ","HOUSE_NO":"４３號七樓之１２","E_COORD97":166197.94,"N_COORD97":2544207.8599999999,"ADDRESS":"建平十七街４３號七樓之１２","OBJECTID":619197},"geometry":{"x":166197.94000000041,"y":2544207.8600000031}},{"attributes":{"ID":619225,"DIS_CODE":0,"TOWNNAME":"安平區","LI":"建平里","LIN":"2鄰","STREET":"建平十七街","SECT":" ","MAREA":" ","LANE":" ","ALLEY":" ","HOUSE_NO":"４３號七樓之２","E_COORD97":166197.94,"N_COORD97":2544207.8599999999,"ADDRESS":"建平十七街４３號七樓之２","OBJECTID":619198},"geometry":{"x":166197.94000000041,"y":2544207.8600000031}},{"attributes":{"ID":619226,"DIS_CODE":0,"TOWNNAME":"安平區","LI":"建平里","LIN":"2鄰","STREET":"建平十七街","SECT":" ","MAREA":" ","LANE":" ","ALLEY":" ","HOUSE_NO":"４３號七樓之３","E_COORD97":166197.94,"N_COORD97":2544207.8599999999,"ADDRESS":"建平十七街４３號七樓之３","OBJECTID":619199},"geometry":{"x":166197.94000000041,"y":2544207.8600000031}},{"attributes":{"ID":619227,"DIS_CODE":0,"TOWNNAME":"安平區","LI":"建平里","LIN":"2鄰","STREET":"建平十七街","SECT":" ","MAREA":" ","LANE":" ","ALLEY":" ","HOUSE_NO":"４３號七樓之４","E_COORD97":166197.94,"N_COORD97":2544207.8599999999,"ADDRESS":"建平十七街４３號七樓之４","OBJECTID":619200},"geometry":{"x":166197.94000000041,"y":2544207.8600000031}}]}