{"displayFieldName":"TOWNNAME","fieldAliases":{"ID":"ID","DIS_CODE":"DIS_CODE","TOWNNAME":"TOWNNAME","LI":"LI","LIN":"LIN","STREET":"STREET","SECT":"SECT","MAREA":"MAREA","LANE":"LANE","ALLEY":"ALLEY","HOUSE_NO":"HOUSE_NO","E_COORD97":"E_COORD97","N_COORD97":"N_COORD97","ADDRESS":"ADDRESS","OBJECTID":"OBJECTID"},"geometryType":"esriGeometryPoint","spatialReference":{"wkid":102443,"latestWkid":3826},"fields":[{"name":"ID","type":"esriFieldTypeDouble","alias":"ID"},{"name":"DIS_CODE","type":"esriFieldTypeInteger","alias":"DIS_CODE"},{"name":"TOWNNAME","type":"esriFieldTypeString","alias":"TOWNNAME","length":8},{"name":"LI","type":"esriFieldTypeString","alias":"LI","length":8},{"name":"LIN","type":"esriFieldTypeString","alias":"LIN","length":12},{"name":"STREET","type":"esriFieldTypeString","alias":"STREET","length":20},{"name":"SECT","type":"esriFieldTypeString","alias":"SECT","length":8},{"name":"MAREA","type":"esriFieldTypeString","alias":"MAREA","length":12},{"name":"LANE","type":"esriFieldTypeString","alias":"LANE","length":10},{"name":"ALLEY","type":"esriFieldTypeString","alias":"ALLEY","length":10},{"name":"HOUSE_NO","type":"esriFieldTypeString","alias":"HOUSE_NO","length":20},{"name":"E_COORD97","type":"esriFieldTypeDouble","alias":"E_COORD97"},{"name":"N_COORD97","type":"esriFieldTypeDouble","alias":"N_COORD97"},{"name":"ADDRESS","type":"esriFieldTypeString","alias":"ADDRESS","length":50},{"name":"OBJECTID","type":"esriFieldTypeOID","alias":"OBJECTID"}],"features":[{"attributes":{"ID":459626,"DIS_CODE":0,"TOWNNAME":"東區","LI":"崇文里","LIN":"13鄰","STREET":"崇德十九街","SECT":" ","MAREA":" ","LANE":" ","ALLEY":" ","HOUSE_NO":"２９號五樓之２","E_COORD97":170918.01000000001,"N_COORD97":2540992.8700000001,"ADDRESS":"崇德十九街２９號五樓之２","OBJECTID":459601},"geometry":{"x":170918.00999999978,"y":2540992.8700000029}},{"attributes":{"ID":459627,"DIS_CODE":0,"TOWNNAME":"東區","LI":"崇文里","LIN":"13鄰","STREET":"崇德十九街","SECT":" ","MAREA":" ","LANE":" ","ALLEY":" ","HOUSE_NO":"２９號六樓","E_COORD97":170918.01000000001,"N_COORD97":2540992.8700000001,"ADDRESS":"崇德十九街２９號六樓","OBJECTID":459602},"geometry":{"x":170918.00999999978,"y":2540992.8700000029}},{"attributes":{"ID":459628,"DIS_CODE":0,"TOWNNAME":"東區","LI":"崇文里","LIN":"13鄰","STREET":"崇德十九街","SECT":" ","MAREA":" ","LANE":" ","ALLEY":" ","HOUSE_NO":"２９號六樓之１","E_COORD97":170918.01000000001,"N_COORD97":2540992.8700000001,"ADDRESS":"崇德十九街２９號六樓之１","OBJECTID":459603},"geometry":{"x":170918.00999999978,"y":2540992.8700000029}},{"attributes":{"ID":459629,"DIS_CODE":0,"TOWNNAME":"東區","LI":"崇文里","LIN":"13鄰","STREET":"崇德十九街","SECT":" ","MAREA":" ","LANE":" ","ALLEY":" ","HOUSE_NO":"２９號六樓之２","E_COORD97":170918.01000000001,"N_COORD97":2540992.8700000001,"ADDRESS":"崇德十九街２９號六樓之２","OBJECTID":459604},"geometry":{"x":170918.00999999978,"y":2540992.8700000029}},{"attributes":{"ID":459630,"DIS_CODE":0,"TOWNNAME":"東區","LI":"崇文里","LIN":"13鄰","STREET":"崇德十九街","SECT":" ","MAREA":" ","LANE":" ","ALLEY":" ","HOUSE_NO":"２９號四樓","E_COORD97":170918.01000000001,"N_COORD97":2540992.8700000001,"ADDRESS":"崇德十九街２９號四樓","OBJECTID":459605},"geometry":{"x":170918.00999999978,"y":2540992.8700000029}},{"attributes":{"ID":459631,"DIS_CODE":0,"TOWNNAME":"東區","LI":"崇文里","LIN":"13鄰","STREET":"崇德十九街","SECT":" ","MAREA":" ","LANE":" ","ALLEY":" ","HOUSE_NO":"２９號四樓之１","E_COORD97":170918.01000000001,"N_COORD97":2540992.8700000001,"ADDRESS":"崇德十九街２９號四樓之１","OBJECTID":459606},"geometry":{"x":170918.00999999978,"y":2540992.8700000029}},{"attributes":{"ID":459632,"DIS_CODE":0,"TOWNNAME":"東區","LI":"崇文里","LIN":"13鄰","STREET":"崇德十九街","SECT":" ","MAREA":" ","LANE":" ","ALLEY":" ","HOUSE_NO":"２９號四樓之２","E_COORD97":170918.01000000001,"N_COORD97":2540992.8700000001,"ADDRESS":"崇德十九街２９號四樓之２","OBJECTID":459607},"geometry":{"x":170918.00999999978,"y":2540992.8700000029}},{"attributes":{"ID":459633,"DIS_CODE":0,"TOWNNAME":"東區","LI":"崇成里","LIN":"13鄰","STREET":"崇道路","SECT":" ","MAREA":" ","LANE":" ","ALLEY":" ","HOUSE_NO":"５０號七樓","E_COORD97":170740.28,"N_COORD97":2541387.8100000001,"ADDRESS":"崇道路５０號七樓","OBJECTID":459608},"geometry":{"x":170740.28000000026,"y":2541387.8100000005}},{"attributes":{"ID":459634,"DIS_CODE":0,"TOWNNAME":"東區","LI":"崇成里","LIN":"13鄰","STREET":"崇道路","SECT":" ","MAREA":" ","LANE":" ","ALLEY":" ","HOUSE_NO":"５０號二樓","E_COORD97":170740.28,"N_COORD97":2541387.8100000001,"ADDRESS":"崇道路５０號二樓","OBJECTID":459609},"geometry":{"x":170740.28000000026,"y":2541387.8100000005}},{"attributes":{"ID":459635,"DIS_CODE":0,"TOWNNAME":"東區","LI":"崇成里","LIN":"13鄰","STREET":"崇道路","SECT":" ","MAREA":" ","LANE":" ","ALLEY":" ","HOUSE_NO":"５０號三樓","E_COORD97":170740.28,"N_COORD97":2541387.8100000001,"ADDRESS":"崇道路５０號三樓","OBJECTID":459610},"geometry":{"x":170740.28000000026,"y":2541387.8100000005}},{"attributes":{"ID":459636,"DIS_CODE":0,"TOWNNAME":"東區","LI":"崇成里","LIN":"13鄰","STREET":"崇道路","SECT":" ","MAREA":" ","LANE":" ","ALLEY":" ","HOUSE_NO":"５０號五樓","E_COORD97":170740.28,"N_COORD97":2541387.8100000001,"ADDRESS":"崇道路５０號五樓","OBJECTID":459611},"geometry":{"x":170740.28000000026,"y":2541387.8100000005}},{"attributes":{"ID":459637,"DIS_CODE":0,"TOWNNAME":"中西區","LI":"大涼里","LIN":"13鄰","STREET":"金城街","SECT":" ","MAREA":" ","LANE":" ","ALLEY":" ","HOUSE_NO":"４５號五樓","E_COORD97":166917.10000000001,"N_COORD97":2543698.4300000002,"ADDRESS":"金城街４５號五樓","OBJECTID":459612},"geometry":{"x":166917.10000000149,"y":2543698.4299999997}},{"attributes":{"ID":459638,"DIS_CODE":0,"TOWNNAME":"中西區","LI":"大涼里","LIN":"13鄰","STREET":"金城街","SECT":" ","MAREA":" ","LANE":" ","ALLEY":" ","HOUSE_NO":"４７號三樓之２","E_COORD97":166914.09,"N_COORD97":2543686.23,"ADDRESS":"金城街４７號三樓之２","OBJECTID":459613},"geometry":{"x":166914.09000000171,"y":2543686.2300000004}},{"attributes":{"ID":459639,"DIS_CODE":0,"TOWNNAME":"中西區","LI":"大涼里","LIN":"13鄰","STREET":"金城街","SECT":" ","MAREA":" ","LANE":" ","ALLEY":" ","HOUSE_NO":"４５號四樓","E_COORD97":166917.10000000001,"N_COORD97":2543698.4300000002,"ADDRESS":"金城街４５號四樓","OBJECTID":459614},"geometry":{"x":166917.10000000149,"y":2543698.4299999997}},{"attributes":{"ID":459640,"DIS_CODE":0,"TOWNNAME":"中西區","LI":"大涼里","LIN":"13鄰","STREET":"金城街","SECT":" ","MAREA":" ","LANE":" ","ALLEY":" ","HOUSE_NO":"４７號三樓之３","E_COORD97":166914.09,"N_COORD97":2543686.23,"ADDRESS":"金城街４７號三樓之３","OBJECTID":459615},"geometry":{"x":166914.09000000171,"y":2543686.2300000004}},{"attributes":{"ID":459641,"DIS_CODE":0,"TOWNNAME":"中西區","LI":"大涼里","LIN":"13鄰","STREET":"金城街","SECT":" ","MAREA":" ","LANE":" ","ALLEY":" ","HOUSE_NO":"４７號二樓之１","E_COORD97":166914.09,"N_COORD97":2543686.23,"ADDRESS":"金城街４７號二樓之１","OBJECTID":459616},"geometry":{"x":166914.09000000171,"y":2543686.2300000004}},{"attributes":{"ID":459642,"DIS_CODE":0,"TOWNNAME":"中西區","LI":"大涼里","LIN":"13鄰","STREET":"金城街","SECT":" ","MAREA":" ","LANE":" ","ALLEY":" ","HOUSE_NO":"４７號二樓之２","E_COORD97":166914.09,"N_COORD97":2543686.23,"ADDRESS":"金城街４７號二樓之２","OBJECTID":459617},"geometry":{"x":166914.09000000171,"y":2543686.2300000004}},{"attributes":{"ID":459643,"DIS_CODE":0,"TOWNNAME":"中西區","LI":"大涼里","LIN":"13鄰","STREET":"金城街","SECT":" ","MAREA":" ","LANE":" ","ALLEY":" ","HOUSE_NO":"４３號二樓","E_COORD97":166917.81,"N_COORD97":2543704.0899999999,"ADDRESS":"金城街４３號二樓","OBJECTID":459618},"geometry":{"x":166917.81000000052,"y":2543704.0899999999}},{"attributes":{"ID":459644,"DIS_CODE":0,"TOWNNAME":"中西區","LI":"大涼里","LIN":"13鄰","STREET":"金城街","SECT":" ","MAREA":" ","LANE":" ","ALLEY":" ","HOUSE_NO":"４３號三樓","E_COORD97":166917.81,"N_COORD97":2543704.0899999999,"ADDRESS":"金城街４３號三樓","OBJECTID":459619},"geometry":{"x":166917.81000000052,"y":2543704.0899999999}},{"attributes":{"ID":459645,"DIS_CODE":0,"TOWNNAME":"中西區","LI":"大涼里","LIN":"13鄰","STREET":"金城街","SECT":" ","MAREA":" ","LANE":" ","ALLEY":" ","HOUSE_NO":"４３號五樓","E_COORD97":166917.81,"N_COORD97":2543704.0899999999,"ADDRESS":"金城街４３號五樓","OBJECTID":459620},"geometry":{"x":166917.81000000052,"y":2543704.0899999999}},{"attributes":{"ID":459646,"DIS_CODE":0,"TOWNNAME":"中西區","LI":"大涼里","LIN":"13鄰","STREET":"金城街","SECT":" ","MAREA":" ","LANE":" ","ALLEY":" ","HOUSE_NO":"４３號四樓","E_COORD97":166917.81,"N_COORD97":2543704.0899999999,"ADDRESS":"金城街４３號四樓","OBJECTID":459621},"geometry":{"x":166917.81000000052,"y":2543704.0899999999}},{"attributes":{"ID":459647,"DIS_CODE":0,"TOWNNAME":"中西區","LI":"大涼里","LIN":"13鄰","STREET":"金城街","SECT":" ","MAREA":" ","LANE":" ","ALLEY":" ","HOUSE_NO":"４５號二樓","E_COORD97":166917.10000000001,"N_COORD97":2543698.4300000002,"ADDRESS":"金城街４５號二樓","OBJECTID":459622},"geometry":{"x":166917.10000000149,"y":2543698.4299999997}},{"attributes":{"ID":459648,"DIS_CODE":0,"TOWNNAME":"中西區","LI":"大涼里","LIN":"13鄰","STREET":"金城街","SECT":" ","MAREA":" ","LANE":" ","ALLEY":" ","HOUSE_NO":"４５號三樓","E_COORD97":166917.10000000001,"N_COORD97":2543698.4300000002,"ADDRESS":"金城街４５號三樓","OBJECTID":459623},"geometry":{"x":166917.10000000149,"y":2543698.4299999997}},{"attributes":{"ID":459649,"DIS_CODE":0,"TOWNNAME":"中西區","LI":"大涼里","LIN":"13鄰","STREET":"金城街","SECT":" ","MAREA":" ","LANE":" ","ALLEY":" ","HOUSE_NO":"４７號二樓之３","E_COORD97":166914.09,"N_COORD97":2543686.23,"ADDRESS":"金城街４７號二樓之３","OBJECTID":459624},"geometry":{"x":166914.09000000171,"y":2543686.2300000004}},{"attributes":{"ID":459650,"DIS_CODE":0,"TOWNNAME":"中西區","LI":"大涼里","LIN":"13鄰","STREET":"金城街","SECT":" ","MAREA":" ","LANE":" ","ALLEY":" ","HOUSE_NO":"４７號三樓之１","E_COORD97":166914.09,"N_COORD97":2543686.23,"ADDRESS":"金城街４７號三樓之１","OBJECTID":459625},"geometry":{"x":166914.09000000171,"y":2543686.2300000004}},{"attributes":{"ID":459651,"DIS_CODE":0,"TOWNNAME":"佳里區","LI":"東寧里","LIN":"13鄰","STREET":"和平街","SECT":" ","MAREA":" ","LANE":" ","ALLEY":" ","HOUSE_NO":"８２號","E_COORD97":165886.32999999999,"N_COORD97":2562524.2799999998,"ADDRESS":"和平街８２號","OBJECTID":459626},"geometry":{"x":165886.33000000007,"y":2562524.2800000012}},{"attributes":{"ID":459652,"DIS_CODE":0,"TOWNNAME":"中西區","LI":"大涼里","LIN":"13鄰","STREET":"金城街","SECT":" ","MAREA":" ","LANE":" ","ALLEY":" ","HOUSE_NO":"４７號五樓之１","E_COORD97":166914.09,"N_COORD97":2543686.23,"ADDRESS":"金城街４７號五樓之１","OBJECTID":459627},"geometry":{"x":166914.09000000171,"y":2543686.2300000004}},{"attributes":{"ID":459653,"DIS_CODE":0,"TOWNNAME":"中西區","LI":"大涼里","LIN":"13鄰","STREET":"金城街","SECT":" ","MAREA":" ","LANE":" ","ALLEY":" ","HOUSE_NO":"４７號五樓之２","E_COORD97":166914.09,"N_COORD97":2543686.23,"ADDRESS":"金城街４７號五樓之２","OBJECTID":459628},"geometry":{"x":166914.09000000171,"y":2543686.2300000004}},{"attributes":{"ID":459654,"DIS_CODE":0,"TOWNNAME":"中西區","LI":"大涼里","LIN":"13鄰","STREET":"金城街","SECT":" ","MAREA":" ","LANE":" ","ALLEY":" ","HOUSE_NO":"４７號五樓之３","E_COORD97":166914.09,"N_COORD97":2543686.23,"ADDRESS":"金城街４７號五樓之３","OBJECTID":459629},"geometry":{"x":166914.09000000171,"y":2543686.2300000004}},{"attributes":{"ID":459655,"DIS_CODE":0,"TOWNNAME":"中西區","LI":"大涼里","LIN":"13鄰","STREET":"金城街","SECT":" ","MAREA":" ","LANE":" ","ALLEY":" ","HOUSE_NO":"４７號四樓之１","E_COORD97":166914.09,"N_COORD97":2543686.23,"ADDRESS":"金城街４７號四樓之１","OBJECTID":459630},"geometry":{"x":166914.09000000171,"y":2543686.2300000004}},{"attributes":{"ID":459656,"DIS_CODE":0,"TOWNNAME":"中西區","LI":"大涼里","LIN":"13鄰","STREET":"金城街","SECT":" ","MAREA":" ","LANE":" ","ALLEY":" ","HOUSE_NO":"４７號四樓之２","E_COORD97":166914.09,"N_COORD97":2543686.23,"ADDRESS":"金城街４７號四樓之２","OBJECTID":459631},"geometry":{"x":166914.09000000171,"y":2543686.2300000004}},{"attributes":{"ID":459657,"DIS_CODE":0,"TOWNNAME":"中西區","LI":"大涼里","LIN":"13鄰","STREET":"金城街","SECT":" ","MAREA":" ","LANE":" ","ALLEY":" ","HOUSE_NO":"４７號四樓之３","E_COORD97":166914.09,"N_COORD97":2543686.23,"ADDRESS":"金城街４７號四樓之３","OBJECTID":459632},"geometry":{"x":166914.09000000171,"y":2543686.2300000004}},{"attributes":{"ID":459658,"DIS_CODE":0,"TOWNNAME":"中西區","LI":"大涼里","LIN":"13鄰","STREET":"金城街","SECT":" ","MAREA":" ","LANE":" ","ALLEY":" ","HOUSE_NO":"４９號二樓","E_COORD97":166905.42000000001,"N_COORD97":2543687.6499999999,"ADDRESS":"金城街４９號二樓","OBJECTID":459633},"geometry":{"x":166905.42000000086,"y":2543687.6500000004}},{"attributes":{"ID":459659,"DIS_CODE":0,"TOWNNAME":"中西區","LI":"大涼里","LIN":"13鄰","STREET":"金城街","SECT":" ","MAREA":" ","LANE":" ","ALLEY":" ","HOUSE_NO":"４９號三樓","E_COORD97":166905.42000000001,"N_COORD97":2543687.6499999999,"ADDRESS":"金城街４９號三樓","OBJECTID":459634},"geometry":{"x":166905.42000000086,"y":2543687.6500000004}},{"attributes":{"ID":459660,"DIS_CODE":0,"TOWNNAME":"中西區","LI":"大涼里","LIN":"13鄰","STREET":"金城街","SECT":" ","MAREA":" ","LANE":" ","ALLEY":" ","HOUSE_NO":"４９號五樓","E_COORD97":166905.42000000001,"N_COORD97":2543687.6499999999,"ADDRESS":"金城街４９號五樓","OBJECTID":459635},"geometry":{"x":166905.42000000086,"y":2543687.6500000004}},{"attributes":{"ID":459661,"DIS_CODE":0,"TOWNNAME":"中西區","LI":"大涼里","LIN":"13鄰","STREET":"金城街","SECT":" ","MAREA":" ","LANE":" ","ALLEY":" ","HOUSE_NO":"４９號四樓","E_COORD97":166905.42000000001,"N_COORD97":2543687.6499999999,"ADDRESS":"金城街４９號四樓","OBJECTID":459636},"geometry":{"x":166905.42000000086,"y":2543687.6500000004}},{"attributes":{"ID":459662,"DIS_CODE":0,"TOWNNAME":"中西區","LI":"大涼里","LIN":"13鄰","STREET":"金城街","SECT":" ","MAREA":" ","LANE":" ","ALLEY":" ","HOUSE_NO":"５１號二樓","E_COORD97":166897.10000000001,"N_COORD97":2543688.5299999998,"ADDRESS":"金城街５１號二樓","OBJECTID":459637},"geometry":{"x":166897.10000000056,"y":2543688.5300000012}},{"attributes":{"ID":459663,"DIS_CODE":0,"TOWNNAME":"中西區","LI":"大涼里","LIN":"13鄰","STREET":"金城街","SECT":" ","MAREA":" ","LANE":" ","ALLEY":" ","HOUSE_NO":"５１號三樓","E_COORD97":166897.10000000001,"N_COORD97":2543688.5299999998,"ADDRESS":"金城街５１號三樓","OBJECTID":459638},"geometry":{"x":166897.10000000056,"y":2543688.5300000012}},{"attributes":{"ID":459664,"DIS_CODE":0,"TOWNNAME":"中西區","LI":"大涼里","LIN":"13鄰","STREET":"金城街","SECT":" ","MAREA":" ","LANE":" ","ALLEY":" ","HOUSE_NO":"５１號五樓","E_COORD97":166897.10000000001,"N_COORD97":2543688.5299999998,"ADDRESS":"金城街５１號五樓","OBJECTID":459639},"geometry":{"x":166897.10000000056,"y":2543688.5300000012}},{"attributes":{"ID":459665,"DIS_CODE":0,"TOWNNAME":"中西區","LI":"大涼里","LIN":"13鄰","STREET":"金城街","SECT":" ","MAREA":" ","LANE":" ","ALLEY":" ","HOUSE_NO":"５１號四樓","E_COORD97":166897.10000000001,"N_COORD97":2543688.5299999998,"ADDRESS":"金城街５１號四樓","OBJECTID":459640},"geometry":{"x":166897.10000000056,"y":2543688.5300000012}},{"attributes":{"ID":459666,"DIS_CODE":0,"TOWNNAME":"中西區","LI":"大涼里","LIN":"13鄰","STREET":"金城街","SECT":" ","MAREA":" ","LANE":" ","ALLEY":" ","HOUSE_NO":"５３號二樓","E_COORD97":166899.57999999999,"N_COORD97":2543697.8999999999,"ADDRESS":"金城街５３號二樓","OBJECTID":459641},"geometry":{"x":166899.58000000101,"y":2543697.9000000022}},{"attributes":{"ID":459667,"DIS_CODE":0,"TOWNNAME":"中西區","LI":"大涼里","LIN":"13鄰","STREET":"金城街","SECT":" ","MAREA":" ","LANE":" ","ALLEY":" ","HOUSE_NO":"５３號三樓","E_COORD97":166899.57999999999,"N_COORD97":2543697.8999999999,"ADDRESS":"金城街５３號三樓","OBJECTID":459642},"geometry":{"x":166899.58000000101,"y":2543697.9000000022}},{"attributes":{"ID":459668,"DIS_CODE":0,"TOWNNAME":"中西區","LI":"大涼里","LIN":"13鄰","STREET":"金城街","SECT":" ","MAREA":" ","LANE":" ","ALLEY":" ","HOUSE_NO":"５３號五樓","E_COORD97":166899.57999999999,"N_COORD97":2543697.8999999999,"ADDRESS":"金城街５３號五樓","OBJECTID":459643},"geometry":{"x":166899.58000000101,"y":2543697.9000000022}},{"attributes":{"ID":459669,"DIS_CODE":0,"TOWNNAME":"中西區","LI":"大涼里","LIN":"13鄰","STREET":"金城街","SECT":" ","MAREA":" ","LANE":" ","ALLEY":" ","HOUSE_NO":"５３號四樓","E_COORD97":166899.57999999999,"N_COORD97":2543697.8999999999,"ADDRESS":"金城街５３號四樓","OBJECTID":459644},"geometry":{"x":166899.58000000101,"y":2543697.9000000022}},{"attributes":{"ID":459670,"DIS_CODE":0,"TOWNNAME":"中西區","LI":"大涼里","LIN":"13鄰","STREET":"金城街","SECT":" ","MAREA":" ","LANE":" ","ALLEY":" ","HOUSE_NO":"５５號二樓","E_COORD97":166902.23000000001,"N_COORD97":2543705.8599999999,"ADDRESS":"金城街５５號二樓","OBJECTID":459645},"geometry":{"x":166902.23000000138,"y":2543705.8600000031}},{"attributes":{"ID":459671,"DIS_CODE":0,"TOWNNAME":"中西區","LI":"大涼里","LIN":"13鄰","STREET":"金城街","SECT":" ","MAREA":" ","LANE":" ","ALLEY":" ","HOUSE_NO":"５５號三樓","E_COORD97":166902.23000000001,"N_COORD97":2543705.8599999999,"ADDRESS":"金城街５５號三樓","OBJECTID":459646},"geometry":{"x":166902.23000000138,"y":2543705.8600000031}},{"attributes":{"ID":459672,"DIS_CODE":0,"TOWNNAME":"中西區","LI":"大涼里","LIN":"13鄰","STREET":"金城街","SECT":" ","MAREA":" ","LANE":" ","ALLEY":" ","HOUSE_NO":"５５號五樓","E_COORD97":166902.23000000001,"N_COORD97":2543705.8599999999,"ADDRESS":"金城街５５號五樓","OBJECTID":459647},"geometry":{"x":166902.23000000138,"y":2543705.8600000031}},{"attributes":{"ID":459673,"DIS_CODE":0,"TOWNNAME":"中西區","LI":"大涼里","LIN":"13鄰","STREET":"金城街","SECT":" ","MAREA":" ","LANE":" ","ALLEY":" ","HOUSE_NO":"５５號四樓","E_COORD97":166902.23000000001,"N_COORD97":2543705.8599999999,"ADDRESS":"金城街５５號四樓","OBJECTID":459648},"geometry":{"x":166902.23000000138,"y":2543705.8600000031}},{"attributes":{"ID":459674,"DIS_CODE":0,"TOWNNAME":"中西區","LI":"大涼里","LIN":"13鄰","STREET":"金城街","SECT":" ","MAREA":" ","LANE":" ","ALLEY":" ","HOUSE_NO":"５７號二樓","E_COORD97":166891.07999999999,"N_COORD97":2543706.9199999999,"ADDRESS":"金城街５７號二樓","OBJECTID":459649},"geometry":{"x":166891.08000000101,"y":2543706.9200000018}},{"attributes":{"ID":459675,"DIS_CODE":0,"TOWNNAME":"中西區","LI":"大涼里","LIN":"13鄰","STREET":"金城街","SECT":" ","MAREA":" ","LANE":" ","ALLEY":" ","HOUSE_NO":"５７號三樓","E_COORD97":166891.07999999999,"N_COORD97":2543706.9199999999,"ADDRESS":"金城街５７號三樓","OBJECTID":459650},"geometry":{"x":166891.08000000101,"y":2543706.9200000018}},{"attributes":{"ID":459676,"DIS_CODE":0,"TOWNNAME":"中西區","LI":"大涼里","LIN":"13鄰","STREET":"金城街","SECT":" ","MAREA":" ","LANE":" ","ALLEY":" ","HOUSE_NO":"５７號五樓","E_COORD97":166891.07999999999,"N_COORD97":2543706.9199999999,"ADDRESS":"金城街５７號五樓","OBJECTID":459651},"geometry":{"x":166891.08000000101,"y":2543706.9200000018}},{"attributes":{"ID":459677,"DIS_CODE":0,"TOWNNAME":"中西區","LI":"大涼里","LIN":"13鄰","STREET":"金城街","SECT":" ","MAREA":" ","LANE":" ","ALLEY":" ","HOUSE_NO":"５９號二樓","E_COORD97":166889.66,"N_COORD97":2543698.25,"ADDRESS":"金城街５９號二樓","OBJECTID":459652},"geometry":{"x":166889.66000000015,"y":2543698.2500000019}},{"attributes":{"ID":459678,"DIS_CODE":0,"TOWNNAME":"中西區","LI":"大涼里","LIN":"13鄰","STREET":"金城街","SECT":" ","MAREA":" ","LANE":" ","ALLEY":" ","HOUSE_NO":"５９號三樓","E_COORD97":166889.66,"N_COORD97":2543698.25,"ADDRESS":"金城街５９號三樓","OBJECTID":459653},"geometry":{"x":166889.66000000015,"y":2543698.2500000019}},{"attributes":{"ID":459679,"DIS_CODE":0,"TOWNNAME":"中西區","LI":"大涼里","LIN":"13鄰","STREET":"金城街","SECT":" ","MAREA":" ","LANE":" ","ALLEY":" ","HOUSE_NO":"５９號五樓","E_COORD97":166889.66,"N_COORD97":2543698.25,"ADDRESS":"金城街５９號五樓","OBJECTID":459654},"geometry":{"x":166889.66000000015,"y":2543698.2500000019}},{"attributes":{"ID":459680,"DIS_CODE":0,"TOWNNAME":"中西區","LI":"大涼里","LIN":"13鄰","STREET":"金城街","SECT":" ","MAREA":" ","LANE":" ","ALLEY":" ","HOUSE_NO":"５９號四樓","E_COORD97":166889.66,"N_COORD97":2543698.25,"ADDRESS":"金城街５９號四樓","OBJECTID":459655},"geometry":{"x":166889.66000000015,"y":2543698.2500000019}},{"attributes":{"ID":459681,"DIS_CODE":0,"TOWNNAME":"中西區","LI":"大涼里","LIN":"13鄰","STREET":"金城街","SECT":" ","MAREA":" ","LANE":" ","ALLEY":" ","HOUSE_NO":"６１號二樓","E_COORD97":166888.07000000001,"N_COORD97":2543689.2400000002,"ADDRESS":"金城街６１號二樓","OBJECTID":459656},"geometry":{"x":166888.07000000123,"y":2543689.2400000002}},{"attributes":{"ID":459682,"DIS_CODE":0,"TOWNNAME":"中西區","LI":"大涼里","LIN":"13鄰","STREET":"金城街","SECT":" ","MAREA":" ","LANE":" ","ALLEY":" ","HOUSE_NO":"６１號三樓","E_COORD97":166888.07000000001,"N_COORD97":2543689.2400000002,"ADDRESS":"金城街６１號三樓","OBJECTID":459657},"geometry":{"x":166888.07000000123,"y":2543689.2400000002}},{"attributes":{"ID":459683,"DIS_CODE":0,"TOWNNAME":"中西區","LI":"大涼里","LIN":"13鄰","STREET":"金城街","SECT":" ","MAREA":" ","LANE":" ","ALLEY":" ","HOUSE_NO":"６１號五樓","E_COORD97":166888.07000000001,"N_COORD97":2543689.2400000002,"ADDRESS":"金城街６１號五樓","OBJECTID":459658},"geometry":{"x":166888.07000000123,"y":2543689.2400000002}},{"attributes":{"ID":459684,"DIS_CODE":0,"TOWNNAME":"中西區","LI":"大涼里","LIN":"13鄰","STREET":"金城街","SECT":" ","MAREA":" ","LANE":" ","ALLEY":" ","HOUSE_NO":"６１號四樓","E_COORD97":166888.07000000001,"N_COORD97":2543689.2400000002,"ADDRESS":"金城街６１號四樓","OBJECTID":459659},"geometry":{"x":166888.07000000123,"y":2543689.2400000002}},{"attributes":{"ID":459685,"DIS_CODE":0,"TOWNNAME":"中西區","LI":"大涼里","LIN":"13鄰","STREET":"金城街","SECT":" ","MAREA":" ","LANE":" ","ALLEY":" ","HOUSE_NO":"６３號二樓","E_COORD97":166880.28,"N_COORD97":2543691.5299999998,"ADDRESS":"金城街６３號二樓","OBJECTID":459660},"geometry":{"x":166880.28000000026,"y":2543691.5300000012}},{"attributes":{"ID":459686,"DIS_CODE":0,"TOWNNAME":"中西區","LI":"大涼里","LIN":"13鄰","STREET":"金城街","SECT":" ","MAREA":" ","LANE":" ","ALLEY":" ","HOUSE_NO":"６３號三樓","E_COORD97":166880.28,"N_COORD97":2543691.5299999998,"ADDRESS":"金城街６３號三樓","OBJECTID":459661},"geometry":{"x":166880.28000000026,"y":2543691.5300000012}},{"attributes":{"ID":459687,"DIS_CODE":0,"TOWNNAME":"中西區","LI":"大涼里","LIN":"13鄰","STREET":"金城街","SECT":" ","MAREA":" ","LANE":" ","ALLEY":" ","HOUSE_NO":"６３號五樓","E_COORD97":166880.28,"N_COORD97":2543691.5299999998,"ADDRESS":"金城街６３號五樓","OBJECTID":459662},"geometry":{"x":166880.28000000026,"y":2543691.5300000012}},{"attributes":{"ID":459688,"DIS_CODE":0,"TOWNNAME":"中西區","LI":"大涼里","LIN":"13鄰","STREET":"金城街","SECT":" ","MAREA":" ","LANE":" ","ALLEY":" ","HOUSE_NO":"６３號四樓","E_COORD97":166880.28,"N_COORD97":2543691.5299999998,"ADDRESS":"金城街６３號四樓","OBJECTID":459663},"geometry":{"x":166880.28000000026,"y":2543691.5300000012}},{"attributes":{"ID":459689,"DIS_CODE":0,"TOWNNAME":"中西區","LI":"大涼里","LIN":"13鄰","STREET":"金城街","SECT":" ","MAREA":" ","LANE":" ","ALLEY":" ","HOUSE_NO":"６５號二樓之１","E_COORD97":166872.32000000001,"N_COORD97":2543693.48,"ADDRESS":"金城街６５號二樓之１","OBJECTID":459664},"geometry":{"x":166872.32000000216,"y":2543693.4800000023}},{"attributes":{"ID":459690,"DIS_CODE":0,"TOWNNAME":"中西區","LI":"大涼里","LIN":"13鄰","STREET":"金城街","SECT":" ","MAREA":" ","LANE":" ","ALLEY":" ","HOUSE_NO":"６５號二樓之２","E_COORD97":166872.32000000001,"N_COORD97":2543693.48,"ADDRESS":"金城街６５號二樓之２","OBJECTID":459665},"geometry":{"x":166872.32000000216,"y":2543693.4800000023}},{"attributes":{"ID":459691,"DIS_CODE":0,"TOWNNAME":"中西區","LI":"大涼里","LIN":"13鄰","STREET":"金城街","SECT":" ","MAREA":" ","LANE":" ","ALLEY":" ","HOUSE_NO":"６５號三樓之１","E_COORD97":166872.32000000001,"N_COORD97":2543693.48,"ADDRESS":"金城街６５號三樓之１","OBJECTID":459666},"geometry":{"x":166872.32000000216,"y":2543693.4800000023}},{"attributes":{"ID":459692,"DIS_CODE":0,"TOWNNAME":"中西區","LI":"大涼里","LIN":"13鄰","STREET":"金城街","SECT":" ","MAREA":" ","LANE":" ","ALLEY":" ","HOUSE_NO":"６５號三樓之２","E_COORD97":166872.32000000001,"N_COORD97":2543693.48,"ADDRESS":"金城街６５號三樓之２","OBJECTID":459667},"geometry":{"x":166872.32000000216,"y":2543693.4800000023}},{"attributes":{"ID":459693,"DIS_CODE":0,"TOWNNAME":"中西區","LI":"大涼里","LIN":"13鄰","STREET":"金城街","SECT":" ","MAREA":" ","LANE":" ","ALLEY":" ","HOUSE_NO":"６５號五樓之１","E_COORD97":166872.32000000001,"N_COORD97":2543693.48,"ADDRESS":"金城街６５號五樓之１","OBJECTID":459668},"geometry":{"x":166872.32000000216,"y":2543693.4800000023}},{"attributes":{"ID":459694,"DIS_CODE":0,"TOWNNAME":"中西區","LI":"大涼里","LIN":"13鄰","STREET":"金城街","SECT":" ","MAREA":" ","LANE":" ","ALLEY":" ","HOUSE_NO":"６５號五樓之２","E_COORD97":166872.32000000001,"N_COORD97":2543693.48,"ADDRESS":"金城街６５號五樓之２","OBJECTID":459669},"geometry":{"x":166872.32000000216,"y":2543693.4800000023}},{"attributes":{"ID":459695,"DIS_CODE":0,"TOWNNAME":"中西區","LI":"大涼里","LIN":"13鄰","STREET":"金城街","SECT":" ","MAREA":" ","LANE":" ","ALLEY":" ","HOUSE_NO":"６５號四樓之１","E_COORD97":166872.32000000001,"N_COORD97":2543693.48,"ADDRESS":"金城街６５號四樓之１","OBJECTID":459670},"geometry":{"x":166872.32000000216,"y":2543693.4800000023}},{"attributes":{"ID":459696,"DIS_CODE":0,"TOWNNAME":"中西區","LI":"大涼里","LIN":"13鄰","STREET":"金城街","SECT":" ","MAREA":" ","LANE":" ","ALLEY":" ","HOUSE_NO":"６５號四樓之２","E_COORD97":166872.32000000001,"N_COORD97":2543693.48,"ADDRESS":"金城街６５號四樓之２","OBJECTID":459671},"geometry":{"x":166872.32000000216,"y":2543693.4800000023}},{"attributes":{"ID":459697,"DIS_CODE":0,"TOWNNAME":"中西區","LI":"大涼里","LIN":"13鄰","STREET":"金城街","SECT":" ","MAREA":" ","LANE":" ","ALLEY":" ","HOUSE_NO":"６７號二樓","E_COORD97":166872.48999999999,"N_COORD97":2543701.9700000002,"ADDRESS":"金城街６７號二樓","OBJECTID":459672},"geometry":{"x":166872.49000000022,"y":2543701.9700000007}},{"attributes":{"ID":459698,"DIS_CODE":0,"TOWNNAME":"中西區","LI":"大涼里","LIN":"13鄰","STREET":"金城街","SECT":" ","MAREA":" ","LANE":" ","ALLEY":" ","HOUSE_NO":"６７號三樓","E_COORD97":166872.48999999999,"N_COORD97":2543701.9700000002,"ADDRESS":"金城街６７號三樓","OBJECTID":459673},"geometry":{"x":166872.49000000022,"y":2543701.9700000007}},{"attributes":{"ID":459699,"DIS_CODE":0,"TOWNNAME":"中西區","LI":"大涼里","LIN":"13鄰","STREET":"金城街","SECT":" ","MAREA":" ","LANE":" ","ALLEY":" ","HOUSE_NO":"６７號五樓","E_COORD97":166872.48999999999,"N_COORD97":2543701.9700000002,"ADDRESS":"金城街６７號五樓","OBJECTID":459674},"geometry":{"x":166872.49000000022,"y":2543701.9700000007}},{"attributes":{"ID":459700,"DIS_CODE":0,"TOWNNAME":"中西區","LI":"大涼里","LIN":"13鄰","STREET":"金城街","SECT":" ","MAREA":" ","LANE":" ","ALLEY":" ","HOUSE_NO":"６７號四樓","E_COORD97":166872.48999999999,"N_COORD97":2543701.9700000002,"ADDRESS":"金城街６７號四樓","OBJECTID":459675},"geometry":{"x":166872.49000000022,"y":2543701.9700000007}},{"attributes":{"ID":459701,"DIS_CODE":0,"TOWNNAME":"中西區","LI":"大涼里","LIN":"13鄰","STREET":"金城街","SECT":" ","MAREA":" ","LANE":" ","ALLEY":" ","HOUSE_NO":"６９號二樓","E_COORD97":166873.91,"N_COORD97":2543709.5699999998,"ADDRESS":"金城街６９號二樓","OBJECTID":459676},"geometry":{"x":166873.91000000108,"y":2543709.5700000022}},{"attributes":{"ID":459702,"DIS_CODE":0,"TOWNNAME":"中西區","LI":"大涼里","LIN":"13鄰","STREET":"金城街","SECT":" ","MAREA":" ","LANE":" ","ALLEY":" ","HOUSE_NO":"６９號三樓","E_COORD97":166873.91,"N_COORD97":2543709.5699999998,"ADDRESS":"金城街６９號三樓","OBJECTID":459677},"geometry":{"x":166873.91000000108,"y":2543709.5700000022}},{"attributes":{"ID":459703,"DIS_CODE":0,"TOWNNAME":"中西區","LI":"大涼里","LIN":"13鄰","STREET":"金城街","SECT":" ","MAREA":" ","LANE":" ","ALLEY":" ","HOUSE_NO":"６９號五樓","E_COORD97":166873.91,"N_COORD97":2543709.5699999998,"ADDRESS":"金城街６９號五樓","OBJECTID":459678},"geometry":{"x":166873.91000000108,"y":2543709.5700000022}},{"attributes":{"ID":459704,"DIS_CODE":0,"TOWNNAME":"中西區","LI":"大涼里","LIN":"13鄰","STREET":"金城街","SECT":" ","MAREA":" ","LANE":" ","ALLEY":" ","HOUSE_NO":"６９號四樓","E_COORD97":166873.91,"N_COORD97":2543709.5699999998,"ADDRESS":"金城街６９號四樓","OBJECTID":459679},"geometry":{"x":166873.91000000108,"y":2543709.5700000022}},{"attributes":{"ID":459705,"DIS_CODE":0,"TOWNNAME":"永康區","LI":"正強里","LIN":"13鄰","STREET":"正強街","SECT":" ","MAREA":" ","LANE":" ","ALLEY":" ","HOUSE_NO":"１２９號","E_COORD97":173320.85000000001,"N_COORD97":2547457.8700000001,"ADDRESS":"正強街１２９號","OBJECTID":459680},"geometry":{"x":173320.84999999963,"y":2547457.8700000029}},{"attributes":{"ID":459706,"DIS_CODE":0,"TOWNNAME":"佳里區","LI":"安西里","LIN":"13鄰","STREET":"長安街","SECT":" ","MAREA":" ","LANE":" ","ALLEY":" ","HOUSE_NO":"７８號之１九樓之１","E_COORD97":165434.62,"N_COORD97":2562450.9399999999,"ADDRESS":"長安街７８號之１九樓之１","OBJECTID":459681},"geometry":{"x":165434.62000000104,"y":2562450.9400000032}},{"attributes":{"ID":459707,"DIS_CODE":0,"TOWNNAME":"佳里區","LI":"安西里","LIN":"13鄰","STREET":"長安街","SECT":" ","MAREA":" ","LANE":" ","ALLEY":" ","HOUSE_NO":"７８號之１九樓之２","E_COORD97":165434.62,"N_COORD97":2562450.9399999999,"ADDRESS":"長安街７８號之１九樓之２","OBJECTID":459682},"geometry":{"x":165434.62000000104,"y":2562450.9400000032}},{"attributes":{"ID":459708,"DIS_CODE":0,"TOWNNAME":"佳里區","LI":"安西里","LIN":"13鄰","STREET":"長安街","SECT":" ","MAREA":" ","LANE":" ","ALLEY":" ","HOUSE_NO":"７８號之１九樓之３","E_COORD97":165434.62,"N_COORD97":2562450.9399999999,"ADDRESS":"長安街７８號之１九樓之３","OBJECTID":459683},"geometry":{"x":165434.62000000104,"y":2562450.9400000032}},{"attributes":{"ID":459709,"DIS_CODE":0,"TOWNNAME":"佳里區","LI":"安西里","LIN":"13鄰","STREET":"長安街","SECT":" ","MAREA":" ","LANE":" ","ALLEY":" ","HOUSE_NO":"７８號之１八樓之１","E_COORD97":165434.62,"N_COORD97":2562450.9399999999,"ADDRESS":"長安街７８號之１八樓之１","OBJECTID":459684},"geometry":{"x":165434.62000000104,"y":2562450.9400000032}},{"attributes":{"ID":459710,"DIS_CODE":0,"TOWNNAME":"佳里區","LI":"安西里","LIN":"13鄰","STREET":"長安街","SECT":" ","MAREA":" ","LANE":" ","ALLEY":" ","HOUSE_NO":"７８號之１八樓之２","E_COORD97":165434.62,"N_COORD97":2562450.9399999999,"ADDRESS":"長安街７８號之１八樓之２","OBJECTID":459685},"geometry":{"x":165434.62000000104,"y":2562450.9400000032}},{"attributes":{"ID":459711,"DIS_CODE":0,"TOWNNAME":"佳里區","LI":"安西里","LIN":"13鄰","STREET":"長安街","SECT":" ","MAREA":" ","LANE":" ","ALLEY":" ","HOUSE_NO":"７８號之１八樓之３","E_COORD97":165434.62,"N_COORD97":2562450.9399999999,"ADDRESS":"長安街７８號之１八樓之３","OBJECTID":459686},"geometry":{"x":165434.62000000104,"y":2562450.9400000032}},{"attributes":{"ID":459712,"DIS_CODE":0,"TOWNNAME":"佳里區","LI":"安西里","LIN":"13鄰","STREET":"長安街","SECT":" ","MAREA":" ","LANE":" ","ALLEY":" ","HOUSE_NO":"７８號之１十一樓之１","E_COORD97":165434.62,"N_COORD97":2562450.9399999999,"ADDRESS":"長安街７８號之１十一樓之１","OBJECTID":459687},"geometry":{"x":165434.62000000104,"y":2562450.9400000032}},{"attributes":{"ID":459713,"DIS_CODE":0,"TOWNNAME":"佳里區","LI":"安西里","LIN":"13鄰","STREET":"長安街","SECT":" ","MAREA":" ","LANE":" ","ALLEY":" ","HOUSE_NO":"７８號之１十一樓之２","E_COORD97":165434.62,"N_COORD97":2562450.9399999999,"ADDRESS":"長安街７８號之１十一樓之２","OBJECTID":459688},"geometry":{"x":165434.62000000104,"y":2562450.9400000032}},{"attributes":{"ID":459714,"DIS_CODE":0,"TOWNNAME":"佳里區","LI":"安西里","LIN":"13鄰","STREET":"長安街","SECT":" ","MAREA":" ","LANE":" ","ALLEY":" ","HOUSE_NO":"７８號之１十一樓之３","E_COORD97":165434.62,"N_COORD97":2562450.9399999999,"ADDRESS":"長安街７８號之１十一樓之３","OBJECTID":459689},"geometry":{"x":165434.62000000104,"y":2562450.9400000032}},{"attributes":{"ID":459715,"DIS_CODE":0,"TOWNNAME":"佳里區","LI":"安西里","LIN":"13鄰","STREET":"長安街","SECT":" ","MAREA":" ","LANE":" ","ALLEY":" ","HOUSE_NO":"７８號之１十二樓","E_COORD97":165434.62,"N_COORD97":2562450.9399999999,"ADDRESS":"長安街７８號之１十二樓","OBJECTID":459690},"geometry":{"x":165434.62000000104,"y":2562450.9400000032}},{"attributes":{"ID":459716,"DIS_CODE":0,"TOWNNAME":"佳里區","LI":"安西里","LIN":"13鄰","STREET":"長安街","SECT":" ","MAREA":" ","LANE":" ","ALLEY":" ","HOUSE_NO":"７８號之１十樓之１","E_COORD97":165434.62,"N_COORD97":2562450.9399999999,"ADDRESS":"長安街７８號之１十樓之１","OBJECTID":459691},"geometry":{"x":165434.62000000104,"y":2562450.9400000032}},{"attributes":{"ID":459717,"DIS_CODE":0,"TOWNNAME":"佳里區","LI":"安西里","LIN":"13鄰","STREET":"長安街","SECT":" ","MAREA":" ","LANE":" ","ALLEY":" ","HOUSE_NO":"７８號之１十樓之２","E_COORD97":165434.62,"N_COORD97":2562450.9399999999,"ADDRESS":"長安街７８號之１十樓之２","OBJECTID":459692},"geometry":{"x":165434.62000000104,"y":2562450.9400000032}},{"attributes":{"ID":459718,"DIS_CODE":0,"TOWNNAME":"佳里區","LI":"安西里","LIN":"13鄰","STREET":"長安街","SECT":" ","MAREA":" ","LANE":" ","ALLEY":" ","HOUSE_NO":"７８號之１十樓之３","E_COORD97":165434.62,"N_COORD97":2562450.9399999999,"ADDRESS":"長安街７８號之１十樓之３","OBJECTID":459693},"geometry":{"x":165434.62000000104,"y":2562450.9400000032}},{"attributes":{"ID":459719,"DIS_CODE":0,"TOWNNAME":"佳里區","LI":"安西里","LIN":"13鄰","STREET":"長安街","SECT":" ","MAREA":" ","LANE":" ","ALLEY":" ","HOUSE_NO":"７８號之１三樓","E_COORD97":165434.62,"N_COORD97":2562450.9399999999,"ADDRESS":"長安街７８號之１三樓","OBJECTID":459694},"geometry":{"x":165434.62000000104,"y":2562450.9400000032}},{"attributes":{"ID":459720,"DIS_CODE":0,"TOWNNAME":"佳里區","LI":"安西里","LIN":"13鄰","STREET":"長安街","SECT":" ","MAREA":" ","LANE":" ","ALLEY":" ","HOUSE_NO":"７８號之１五樓之１","E_COORD97":165434.62,"N_COORD97":2562450.9399999999,"ADDRESS":"長安街７８號之１五樓之１","OBJECTID":459695},"geometry":{"x":165434.62000000104,"y":2562450.9400000032}},{"attributes":{"ID":459721,"DIS_CODE":0,"TOWNNAME":"佳里區","LI":"安西里","LIN":"13鄰","STREET":"長安街","SECT":" ","MAREA":" ","LANE":" ","ALLEY":" ","HOUSE_NO":"７８號之１五樓之２","E_COORD97":165434.62,"N_COORD97":2562450.9399999999,"ADDRESS":"長安街７８號之１五樓之２","OBJECTID":459696},"geometry":{"x":165434.62000000104,"y":2562450.9400000032}},{"attributes":{"ID":459722,"DIS_CODE":0,"TOWNNAME":"佳里區","LI":"安西里","LIN":"13鄰","STREET":"長安街","SECT":" ","MAREA":" ","LANE":" ","ALLEY":" ","HOUSE_NO":"７８號之１六樓之１","E_COORD97":165434.62,"N_COORD97":2562450.9399999999,"ADDRESS":"長安街７８號之１六樓之１","OBJECTID":459697},"geometry":{"x":165434.62000000104,"y":2562450.9400000032}},{"attributes":{"ID":459723,"DIS_CODE":0,"TOWNNAME":"佳里區","LI":"安西里","LIN":"13鄰","STREET":"長安街","SECT":" ","MAREA":" ","LANE":" ","ALLEY":" ","HOUSE_NO":"７８號之１六樓之２","E_COORD97":165434.62,"N_COORD97":2562450.9399999999,"ADDRESS":"長安街７８號之１六樓之２","OBJECTID":459698},"geometry":{"x":165434.62000000104,"y":2562450.9400000032}},{"attributes":{"ID":459724,"DIS_CODE":0,"TOWNNAME":"佳里區","LI":"安西里","LIN":"13鄰","STREET":"長安街","SECT":" ","MAREA":" ","LANE":" ","ALLEY":" ","HOUSE_NO":"７８號之１六樓之３","E_COORD97":165434.62,"N_COORD97":2562450.9399999999,"ADDRESS":"長安街７８號之１六樓之３","OBJECTID":459699},"geometry":{"x":165434.62000000104,"y":2562450.9400000032}},{"attributes":{"ID":459725,"DIS_CODE":0,"TOWNNAME":"佳里區","LI":"安西里","LIN":"13鄰","STREET":"長安街","SECT":" ","MAREA":" ","LANE":" ","ALLEY":" ","HOUSE_NO":"７８號之１四樓之１","E_COORD97":165434.62,"N_COORD97":2562450.9399999999,"ADDRESS":"長安街７８號之１四樓之１","OBJECTID":459700},"geometry":{"x":165434.62000000104,"y":2562450.9400000032}},{"attributes":{"ID":459726,"DIS_CODE":0,"TOWNNAME":"佳里區","LI":"安西里","LIN":"13鄰","STREET":"長安街","SECT":" ","MAREA":" ","LANE":" ","ALLEY":" ","HOUSE_NO":"７８號之１四樓之２","E_COORD97":165434.62,"N_COORD97":2562450.9399999999,"ADDRESS":"長安街７８號之１四樓之２","OBJECTID":459701},"geometry":{"x":165434.62000000104,"y":2562450.9400000032}},{"attributes":{"ID":459727,"DIS_CODE":0,"TOWNNAME":"佳里區","LI":"安西里","LIN":"13鄰","STREET":"長安街","SECT":" ","MAREA":" ","LANE":" ","ALLEY":" ","HOUSE_NO":"７８號之１四樓之３","E_COORD97":165434.62,"N_COORD97":2562450.9399999999,"ADDRESS":"長安街７８號之１四樓之３","OBJECTID":459702},"geometry":{"x":165434.62000000104,"y":2562450.9400000032}},{"attributes":{"ID":459728,"DIS_CODE":0,"TOWNNAME":"佳里區","LI":"安西里","LIN":"13鄰","STREET":"長安街","SECT":" ","MAREA":" ","LANE":" ","ALLEY":" ","HOUSE_NO":"７８號之１四樓之４","E_COORD97":165434.62,"N_COORD97":2562450.9399999999,"ADDRESS":"長安街７８號之１四樓之４","OBJECTID":459703},"geometry":{"x":165434.62000000104,"y":2562450.9400000032}},{"attributes":{"ID":459729,"DIS_CODE":0,"TOWNNAME":"佳里區","LI":"安西里","LIN":"13鄰","STREET":"長安街","SECT":" ","MAREA":" ","LANE":" ","ALLEY":" ","HOUSE_NO":"７８號之２七樓之１","E_COORD97":165451.95999999999,"N_COORD97":2562448.4700000002,"ADDRESS":"長安街７８號之２七樓之１","OBJECTID":459704},"geometry":{"x":165451.95999999903,"y":2562448.4700000044}},{"attributes":{"ID":459730,"DIS_CODE":0,"TOWNNAME":"佳里區","LI":"安西里","LIN":"13鄰","STREET":"長安街","SECT":" ","MAREA":" ","LANE":" ","ALLEY":" ","HOUSE_NO":"７８號之２七樓之２","E_COORD97":165451.95999999999,"N_COORD97":2562448.4700000002,"ADDRESS":"長安街７８號之２七樓之２","OBJECTID":459705},"geometry":{"x":165451.95999999903,"y":2562448.4700000044}},{"attributes":{"ID":459731,"DIS_CODE":0,"TOWNNAME":"佳里區","LI":"安西里","LIN":"13鄰","STREET":"長安街","SECT":" ","MAREA":" ","LANE":" ","ALLEY":" ","HOUSE_NO":"７８號之２七樓之３","E_COORD97":165451.95999999999,"N_COORD97":2562448.4700000002,"ADDRESS":"長安街７８號之２七樓之３","OBJECTID":459706},"geometry":{"x":165451.95999999903,"y":2562448.4700000044}},{"attributes":{"ID":459732,"DIS_CODE":0,"TOWNNAME":"佳里區","LI":"安西里","LIN":"13鄰","STREET":"長安街","SECT":" ","MAREA":" ","LANE":" ","ALLEY":" ","HOUSE_NO":"７８號之２九樓之１","E_COORD97":165451.95999999999,"N_COORD97":2562448.4700000002,"ADDRESS":"長安街７８號之２九樓之１","OBJECTID":459707},"geometry":{"x":165451.95999999903,"y":2562448.4700000044}},{"attributes":{"ID":459733,"DIS_CODE":0,"TOWNNAME":"佳里區","LI":"安西里","LIN":"13鄰","STREET":"長安街","SECT":" ","MAREA":" ","LANE":" ","ALLEY":" ","HOUSE_NO":"７８號之２九樓之２","E_COORD97":165451.95999999999,"N_COORD97":2562448.4700000002,"ADDRESS":"長安街７８號之２九樓之２","OBJECTID":459708},"geometry":{"x":165451.95999999903,"y":2562448.4700000044}},{"attributes":{"ID":459734,"DIS_CODE":0,"TOWNNAME":"佳里區","LI":"安西里","LIN":"13鄰","STREET":"長安街","SECT":" ","MAREA":" ","LANE":" ","ALLEY":" ","HOUSE_NO":"７８號之２九樓之３","E_COORD97":165451.95999999999,"N_COORD97":2562448.4700000002,"ADDRESS":"長安街７８號之２九樓之３","OBJECTID":459709},"geometry":{"x":165451.95999999903,"y":2562448.4700000044}},{"attributes":{"ID":459735,"DIS_CODE":0,"TOWNNAME":"佳里區","LI":"安西里","LIN":"13鄰","STREET":"長安街","SECT":" ","MAREA":" ","LANE":" ","ALLEY":" ","HOUSE_NO":"７８號之２二樓","E_COORD97":165451.95999999999,"N_COORD97":2562448.4700000002,"ADDRESS":"長安街７８號之２二樓","OBJECTID":459710},"geometry":{"x":165451.95999999903,"y":2562448.4700000044}},{"attributes":{"ID":459736,"DIS_CODE":0,"TOWNNAME":"佳里區","LI":"安西里","LIN":"13鄰","STREET":"長安街","SECT":" ","MAREA":" ","LANE":" ","ALLEY":" ","HOUSE_NO":"７８號之２八樓之１","E_COORD97":165451.95999999999,"N_COORD97":2562448.4700000002,"ADDRESS":"長安街７８號之２八樓之１","OBJECTID":459711},"geometry":{"x":165451.95999999903,"y":2562448.4700000044}},{"attributes":{"ID":459737,"DIS_CODE":0,"TOWNNAME":"佳里區","LI":"安西里","LIN":"13鄰","STREET":"長安街","SECT":" ","MAREA":" ","LANE":" ","ALLEY":" ","HOUSE_NO":"７８號之２八樓之２","E_COORD97":165451.95999999999,"N_COORD97":2562448.4700000002,"ADDRESS":"長安街７８號之２八樓之２","OBJECTID":459712},"geometry":{"x":165451.95999999903,"y":2562448.4700000044}},{"attributes":{"ID":459738,"DIS_CODE":0,"TOWNNAME":"佳里區","LI":"安西里","LIN":"13鄰","STREET":"長安街","SECT":" ","MAREA":" ","LANE":" ","ALLEY":" ","HOUSE_NO":"７８號之２八樓之３","E_COORD97":165451.95999999999,"N_COORD97":2562448.4700000002,"ADDRESS":"長安街７８號之２八樓之３","OBJECTID":459713},"geometry":{"x":165451.95999999903,"y":2562448.4700000044}},{"attributes":{"ID":459739,"DIS_CODE":0,"TOWNNAME":"佳里區","LI":"安西里","LIN":"13鄰","STREET":"長安街","SECT":" ","MAREA":" ","LANE":" ","ALLEY":" ","HOUSE_NO":"７８號之２十一樓之１","E_COORD97":165451.95999999999,"N_COORD97":2562448.4700000002,"ADDRESS":"長安街７８號之２十一樓之１","OBJECTID":459714},"geometry":{"x":165451.95999999903,"y":2562448.4700000044}},{"attributes":{"ID":459740,"DIS_CODE":0,"TOWNNAME":"佳里區","LI":"安西里","LIN":"13鄰","STREET":"長安街","SECT":" ","MAREA":" ","LANE":" ","ALLEY":" ","HOUSE_NO":"７８號之２十一樓之２","E_COORD97":165451.95999999999,"N_COORD97":2562448.4700000002,"ADDRESS":"長安街７８號之２十一樓之２","OBJECTID":459715},"geometry":{"x":165451.95999999903,"y":2562448.4700000044}},{"attributes":{"ID":459741,"DIS_CODE":0,"TOWNNAME":"佳里區","LI":"安西里","LIN":"13鄰","STREET":"長安街","SECT":" ","MAREA":" ","LANE":" ","ALLEY":" ","HOUSE_NO":"７８號之２十一樓之３","E_COORD97":165451.95999999999,"N_COORD97":2562448.4700000002,"ADDRESS":"長安街７８號之２十一樓之３","OBJECTID":459716},"geometry":{"x":165451.95999999903,"y":2562448.4700000044}},{"attributes":{"ID":459742,"DIS_CODE":0,"TOWNNAME":"佳里區","LI":"安西里","LIN":"13鄰","STREET":"長安街","SECT":" ","MAREA":" ","LANE":" ","ALLEY":" ","HOUSE_NO":"７８號之２十二樓之１","E_COORD97":165451.95999999999,"N_COORD97":2562448.4700000002,"ADDRESS":"長安街７８號之２十二樓之１","OBJECTID":459717},"geometry":{"x":165451.95999999903,"y":2562448.4700000044}},{"attributes":{"ID":459743,"DIS_CODE":0,"TOWNNAME":"佳里區","LI":"安西里","LIN":"13鄰","STREET":"長安街","SECT":" ","MAREA":" ","LANE":" ","ALLEY":" ","HOUSE_NO":"７８號之２十二樓之２","E_COORD97":165451.95999999999,"N_COORD97":2562448.4700000002,"ADDRESS":"長安街７８號之２十二樓之２","OBJECTID":459718},"geometry":{"x":165451.95999999903,"y":2562448.4700000044}},{"attributes":{"ID":459744,"DIS_CODE":0,"TOWNNAME":"佳里區","LI":"安西里","LIN":"13鄰","STREET":"和平街","SECT":" ","MAREA":" ","LANE":" ","ALLEY":" ","HOUSE_NO":"２１３號","E_COORD97":165390.42000000001,"N_COORD97":2562466.8500000001,"ADDRESS":"和平街２１３號","OBJECTID":459719},"geometry":{"x":165390.42000000086,"y":2562466.8499999996}},{"attributes":{"ID":459745,"DIS_CODE":0,"TOWNNAME":"佳里區","LI":"安西里","LIN":"13鄰","STREET":"長安街","SECT":" ","MAREA":" ","LANE":" ","ALLEY":" ","HOUSE_NO":"７８號之２十樓之１","E_COORD97":165451.95999999999,"N_COORD97":2562448.4700000002,"ADDRESS":"長安街７８號之２十樓之１","OBJECTID":459720},"geometry":{"x":165451.95999999903,"y":2562448.4700000044}},{"attributes":{"ID":459746,"DIS_CODE":0,"TOWNNAME":"佳里區","LI":"安西里","LIN":"13鄰","STREET":"長安街","SECT":" ","MAREA":" ","LANE":" ","ALLEY":" ","HOUSE_NO":"７８號之２十樓之２","E_COORD97":165451.95999999999,"N_COORD97":2562448.4700000002,"ADDRESS":"長安街７８號之２十樓之２","OBJECTID":459721},"geometry":{"x":165451.95999999903,"y":2562448.4700000044}},{"attributes":{"ID":459747,"DIS_CODE":0,"TOWNNAME":"佳里區","LI":"安西里","LIN":"13鄰","STREET":"長安街","SECT":" ","MAREA":" ","LANE":" ","ALLEY":" ","HOUSE_NO":"７８號之２十樓之３","E_COORD97":165451.95999999999,"N_COORD97":2562448.4700000002,"ADDRESS":"長安街７８號之２十樓之３","OBJECTID":459722},"geometry":{"x":165451.95999999903,"y":2562448.4700000044}},{"attributes":{"ID":459748,"DIS_CODE":0,"TOWNNAME":"南區","LI":"金華里","LIN":"13鄰","STREET":"新孝路","SECT":" ","MAREA":" ","LANE":" ","ALLEY":" ","HOUSE_NO":"８２號四樓","E_COORD97":166805.60999999999,"N_COORD97":2542075.0699999998,"ADDRESS":"新孝路８２號四樓","OBJECTID":459723},"geometry":{"x":166805.61000000034,"y":2542075.0700000022}},{"attributes":{"ID":459749,"DIS_CODE":0,"TOWNNAME":"佳里區","LI":"安西里","LIN":"13鄰","STREET":"長安街","SECT":" ","MAREA":" ","LANE":" ","ALLEY":" ","HOUSE_NO":"７８號之２三樓","E_COORD97":165451.95999999999,"N_COORD97":2562448.4700000002,"ADDRESS":"長安街７８號之２三樓","OBJECTID":459724},"geometry":{"x":165451.95999999903,"y":2562448.4700000044}},{"attributes":{"ID":459750,"DIS_CODE":0,"TOWNNAME":"佳里區","LI":"安西里","LIN":"13鄰","STREET":"長安街","SECT":" ","MAREA":" ","LANE":" ","ALLEY":" ","HOUSE_NO":"７８號之２五樓之１","E_COORD97":165451.95999999999,"N_COORD97":2562448.4700000002,"ADDRESS":"長安街７８號之２五樓之１","OBJECTID":459725},"geometry":{"x":165451.95999999903,"y":2562448.4700000044}},{"attributes":{"ID":459751,"DIS_CODE":0,"TOWNNAME":"佳里區","LI":"安西里","LIN":"13鄰","STREET":"長安街","SECT":" ","MAREA":" ","LANE":" ","ALLEY":" ","HOUSE_NO":"７８號之２五樓之２","E_COORD97":165451.95999999999,"N_COORD97":2562448.4700000002,"ADDRESS":"長安街７８號之２五樓之２","OBJECTID":459726},"geometry":{"x":165451.95999999903,"y":2562448.4700000044}},{"attributes":{"ID":459752,"DIS_CODE":0,"TOWNNAME":"佳里區","LI":"安西里","LIN":"13鄰","STREET":"長安街","SECT":" ","MAREA":" ","LANE":" ","ALLEY":" ","HOUSE_NO":"７８號之２六樓之１","E_COORD97":165451.95999999999,"N_COORD97":2562448.4700000002,"ADDRESS":"長安街７８號之２六樓之１","OBJECTID":459727},"geometry":{"x":165451.95999999903,"y":2562448.4700000044}},{"attributes":{"ID":459753,"DIS_CODE":0,"TOWNNAME":"佳里區","LI":"安西里","LIN":"13鄰","STREET":"長安街","SECT":" ","MAREA":" ","LANE":" ","ALLEY":" ","HOUSE_NO":"７８號之２六樓之２","E_COORD97":165451.95999999999,"N_COORD97":2562448.4700000002,"ADDRESS":"長安街７８號之２六樓之２","OBJECTID":459728},"geometry":{"x":165451.95999999903,"y":2562448.4700000044}},{"attributes":{"ID":459754,"DIS_CODE":0,"TOWNNAME":"佳里區","LI":"安西里","LIN":"13鄰","STREET":"長安街","SECT":" ","MAREA":" ","LANE":" ","ALLEY":" ","HOUSE_NO":"７８號之２四樓之１","E_COORD97":165451.95999999999,"N_COORD97":2562448.4700000002,"ADDRESS":"長安街７８號之２四樓之１","OBJECTID":459729},"geometry":{"x":165451.95999999903,"y":2562448.4700000044}},{"attributes":{"ID":459755,"DIS_CODE":0,"TOWNNAME":"佳里區","LI":"安西里","LIN":"13鄰","STREET":"長安街","SECT":" ","MAREA":" ","LANE":" ","ALLEY":" ","HOUSE_NO":"７８號之２四樓之２","E_COORD97":165451.95999999999,"N_COORD97":2562448.4700000002,"ADDRESS":"長安街７８號之２四樓之２","OBJECTID":459730},"geometry":{"x":165451.95999999903,"y":2562448.4700000044}},{"attributes":{"ID":459756,"DIS_CODE":0,"TOWNNAME":"佳里區","LI":"安西里","LIN":"13鄰","STREET":"長安街","SECT":" ","MAREA":" ","LANE":" ","ALLEY":" ","HOUSE_NO":"７８號之２四樓之３","E_COORD97":165451.95999999999,"N_COORD97":2562448.4700000002,"ADDRESS":"長安街７８號之２四樓之３","OBJECTID":459731},"geometry":{"x":165451.95999999903,"y":2562448.4700000044}},{"attributes":{"ID":459757,"DIS_CODE":0,"TOWNNAME":"東區","LI":"崇學里","LIN":"13鄰","STREET":"崇明九街","SECT":" ","MAREA":" ","LANE":" ","ALLEY":" ","HOUSE_NO":"１０８號二樓","E_COORD97":170180.62,"N_COORD97":2541905.8500000001,"ADDRESS":"崇明九街１０８號二樓","OBJECTID":459732},"geometry":{"x":170180.61999999918,"y":2541905.8500000034}},{"attributes":{"ID":459758,"DIS_CODE":0,"TOWNNAME":"東區","LI":"崇學里","LIN":"13鄰","STREET":"崇明九街","SECT":" ","MAREA":" ","LANE":" ","ALLEY":" ","HOUSE_NO":"１０８號二樓之１","E_COORD97":170180.62,"N_COORD97":2541905.8500000001,"ADDRESS":"崇明九街１０８號二樓之１","OBJECTID":459733},"geometry":{"x":170180.61999999918,"y":2541905.8500000034}},{"attributes":{"ID":459759,"DIS_CODE":0,"TOWNNAME":"東區","LI":"崇學里","LIN":"13鄰","STREET":"崇明九街","SECT":" ","MAREA":" ","LANE":" ","ALLEY":" ","HOUSE_NO":"１０８號三樓","E_COORD97":170180.62,"N_COORD97":2541905.8500000001,"ADDRESS":"崇明九街１０８號三樓","OBJECTID":459734},"geometry":{"x":170180.61999999918,"y":2541905.8500000034}},{"attributes":{"ID":459760,"DIS_CODE":0,"TOWNNAME":"東區","LI":"崇學里","LIN":"13鄰","STREET":"崇明九街","SECT":" ","MAREA":" ","LANE":" ","ALLEY":" ","HOUSE_NO":"１０８號三樓之１","E_COORD97":170180.62,"N_COORD97":2541905.8500000001,"ADDRESS":"崇明九街１０８號三樓之１","OBJECTID":459735},"geometry":{"x":170180.61999999918,"y":2541905.8500000034}},{"attributes":{"ID":459761,"DIS_CODE":0,"TOWNNAME":"東區","LI":"崇學里","LIN":"13鄰","STREET":"崇明九街","SECT":" ","MAREA":" ","LANE":" ","ALLEY":" ","HOUSE_NO":"１０８號三樓之１０","E_COORD97":170180.62,"N_COORD97":2541905.8500000001,"ADDRESS":"崇明九街１０８號三樓之１０","OBJECTID":459736},"geometry":{"x":170180.61999999918,"y":2541905.8500000034}},{"attributes":{"ID":459762,"DIS_CODE":0,"TOWNNAME":"東區","LI":"崇學里","LIN":"13鄰","STREET":"崇明九街","SECT":" ","MAREA":" ","LANE":" ","ALLEY":" ","HOUSE_NO":"１０８號三樓之１１","E_COORD97":170180.62,"N_COORD97":2541905.8500000001,"ADDRESS":"崇明九街１０８號三樓之１１","OBJECTID":459737},"geometry":{"x":170180.61999999918,"y":2541905.8500000034}},{"attributes":{"ID":459763,"DIS_CODE":0,"TOWNNAME":"東區","LI":"崇學里","LIN":"13鄰","STREET":"崇明九街","SECT":" ","MAREA":" ","LANE":" ","ALLEY":" ","HOUSE_NO":"１０８號三樓之２","E_COORD97":170180.62,"N_COORD97":2541905.8500000001,"ADDRESS":"崇明九街１０８號三樓之２","OBJECTID":459738},"geometry":{"x":170180.61999999918,"y":2541905.8500000034}},{"attributes":{"ID":459764,"DIS_CODE":0,"TOWNNAME":"東區","LI":"崇學里","LIN":"13鄰","STREET":"崇明九街","SECT":" ","MAREA":" ","LANE":" ","ALLEY":" ","HOUSE_NO":"１０８號三樓之３","E_COORD97":170180.62,"N_COORD97":2541905.8500000001,"ADDRESS":"崇明九街１０８號三樓之３","OBJECTID":459739},"geometry":{"x":170180.61999999918,"y":2541905.8500000034}},{"attributes":{"ID":459765,"DIS_CODE":0,"TOWNNAME":"東區","LI":"崇學里","LIN":"13鄰","STREET":"崇明九街","SECT":" ","MAREA":" ","LANE":" ","ALLEY":" ","HOUSE_NO":"１０８號三樓之４","E_COORD97":170180.62,"N_COORD97":2541905.8500000001,"ADDRESS":"崇明九街１０８號三樓之４","OBJECTID":459740},"geometry":{"x":170180.61999999918,"y":2541905.8500000034}},{"attributes":{"ID":459766,"DIS_CODE":0,"TOWNNAME":"東區","LI":"崇學里","LIN":"13鄰","STREET":"崇明九街","SECT":" ","MAREA":" ","LANE":" ","ALLEY":" ","HOUSE_NO":"１０８號三樓之５","E_COORD97":170180.62,"N_COORD97":2541905.8500000001,"ADDRESS":"崇明九街１０８號三樓之５","OBJECTID":459741},"geometry":{"x":170180.61999999918,"y":2541905.8500000034}},{"attributes":{"ID":459767,"DIS_CODE":0,"TOWNNAME":"東區","LI":"崇學里","LIN":"13鄰","STREET":"崇明九街","SECT":" ","MAREA":" ","LANE":" ","ALLEY":" ","HOUSE_NO":"１０８號三樓之６","E_COORD97":170180.62,"N_COORD97":2541905.8500000001,"ADDRESS":"崇明九街１０８號三樓之６","OBJECTID":459742},"geometry":{"x":170180.61999999918,"y":2541905.8500000034}},{"attributes":{"ID":459768,"DIS_CODE":0,"TOWNNAME":"東區","LI":"崇學里","LIN":"13鄰","STREET":"崇明九街","SECT":" ","MAREA":" ","LANE":" ","ALLEY":" ","HOUSE_NO":"１０８號三樓之７","E_COORD97":170180.62,"N_COORD97":2541905.8500000001,"ADDRESS":"崇明九街１０８號三樓之７","OBJECTID":459743},"geometry":{"x":170180.61999999918,"y":2541905.8500000034}},{"attributes":{"ID":459769,"DIS_CODE":0,"TOWNNAME":"東區","LI":"崇學里","LIN":"13鄰","STREET":"崇明九街","SECT":" ","MAREA":" ","LANE":" ","ALLEY":" ","HOUSE_NO":"１０８號三樓之８","E_COORD97":170180.62,"N_COORD97":2541905.8500000001,"ADDRESS":"崇明九街１０８號三樓之８","OBJECTID":459744},"geometry":{"x":170180.61999999918,"y":2541905.8500000034}},{"attributes":{"ID":459770,"DIS_CODE":0,"TOWNNAME":"東區","LI":"崇學里","LIN":"13鄰","STREET":"崇明九街","SECT":" ","MAREA":" ","LANE":" ","ALLEY":" ","HOUSE_NO":"１０８號三樓之９","E_COORD97":170180.62,"N_COORD97":2541905.8500000001,"ADDRESS":"崇明九街１０８號三樓之９","OBJECTID":459745},"geometry":{"x":170180.61999999918,"y":2541905.8500000034}},{"attributes":{"ID":459771,"DIS_CODE":0,"TOWNNAME":"東區","LI":"崇學里","LIN":"13鄰","STREET":"崇明九街","SECT":" ","MAREA":" ","LANE":" ","ALLEY":" ","HOUSE_NO":"１０８號五樓","E_COORD97":170180.62,"N_COORD97":2541905.8500000001,"ADDRESS":"崇明九街１０８號五樓","OBJECTID":459746},"geometry":{"x":170180.61999999918,"y":2541905.8500000034}},{"attributes":{"ID":459772,"DIS_CODE":0,"TOWNNAME":"東區","LI":"崇學里","LIN":"13鄰","STREET":"崇明九街","SECT":" ","MAREA":" ","LANE":" ","ALLEY":" ","HOUSE_NO":"１０８號五樓之１","E_COORD97":170180.62,"N_COORD97":2541905.8500000001,"ADDRESS":"崇明九街１０８號五樓之１","OBJECTID":459747},"geometry":{"x":170180.61999999918,"y":2541905.8500000034}},{"attributes":{"ID":459773,"DIS_CODE":0,"TOWNNAME":"東區","LI":"崇學里","LIN":"13鄰","STREET":"崇明九街","SECT":" ","MAREA":" ","LANE":" ","ALLEY":" ","HOUSE_NO":"１０８號五樓之１０","E_COORD97":170180.62,"N_COORD97":2541905.8500000001,"ADDRESS":"崇明九街１０８號五樓之１０","OBJECTID":459748},"geometry":{"x":170180.61999999918,"y":2541905.8500000034}},{"attributes":{"ID":459774,"DIS_CODE":0,"TOWNNAME":"東區","LI":"崇學里","LIN":"13鄰","STREET":"崇明九街","SECT":" ","MAREA":" ","LANE":" ","ALLEY":" ","HOUSE_NO":"１０８號五樓之１１","E_COORD97":170180.62,"N_COORD97":2541905.8500000001,"ADDRESS":"崇明九街１０８號五樓之１１","OBJECTID":459749},"geometry":{"x":170180.61999999918,"y":2541905.8500000034}},{"attributes":{"ID":459775,"DIS_CODE":0,"TOWNNAME":"東區","LI":"崇學里","LIN":"13鄰","STREET":"崇明九街","SECT":" ","MAREA":" ","LANE":" ","ALLEY":" ","HOUSE_NO":"１０８號五樓之１２","E_COORD97":170180.62,"N_COORD97":2541905.8500000001,"ADDRESS":"崇明九街１０８號五樓之１２","OBJECTID":459750},"geometry":{"x":170180.61999999918,"y":2541905.8500000034}},{"attributes":{"ID":459776,"DIS_CODE":0,"TOWNNAME":"東區","LI":"崇學里","LIN":"13鄰","STREET":"崇明九街","SECT":" ","MAREA":" ","LANE":" ","ALLEY":" ","HOUSE_NO":"１０８號五樓之２","E_COORD97":170180.62,"N_COORD97":2541905.8500000001,"ADDRESS":"崇明九街１０８號五樓之２","OBJECTID":459751},"geometry":{"x":170180.61999999918,"y":2541905.8500000034}},{"attributes":{"ID":459777,"DIS_CODE":0,"TOWNNAME":"東區","LI":"崇學里","LIN":"13鄰","STREET":"崇明九街","SECT":" ","MAREA":" ","LANE":" ","ALLEY":" ","HOUSE_NO":"１０８號五樓之３","E_COORD97":170180.62,"N_COORD97":2541905.8500000001,"ADDRESS":"崇明九街１０８號五樓之３","OBJECTID":459752},"geometry":{"x":170180.61999999918,"y":2541905.8500000034}},{"attributes":{"ID":459778,"DIS_CODE":0,"TOWNNAME":"東區","LI":"崇學里","LIN":"13鄰","STREET":"崇明九街","SECT":" ","MAREA":" ","LANE":" ","ALLEY":" ","HOUSE_NO":"１０８號五樓之４","E_COORD97":170180.62,"N_COORD97":2541905.8500000001,"ADDRESS":"崇明九街１０８號五樓之４","OBJECTID":459753},"geometry":{"x":170180.61999999918,"y":2541905.8500000034}},{"attributes":{"ID":459779,"DIS_CODE":0,"TOWNNAME":"東區","LI":"崇學里","LIN":"13鄰","STREET":"崇明九街","SECT":" ","MAREA":" ","LANE":" ","ALLEY":" ","HOUSE_NO":"１０８號五樓之５","E_COORD97":170180.62,"N_COORD97":2541905.8500000001,"ADDRESS":"崇明九街１０８號五樓之５","OBJECTID":459754},"geometry":{"x":170180.61999999918,"y":2541905.8500000034}},{"attributes":{"ID":459780,"DIS_CODE":0,"TOWNNAME":"東區","LI":"崇學里","LIN":"13鄰","STREET":"崇明九街","SECT":" ","MAREA":" ","LANE":" ","ALLEY":" ","HOUSE_NO":"１０８號五樓之６","E_COORD97":170180.62,"N_COORD97":2541905.8500000001,"ADDRESS":"崇明九街１０８號五樓之６","OBJECTID":459755},"geometry":{"x":170180.61999999918,"y":2541905.8500000034}},{"attributes":{"ID":459781,"DIS_CODE":0,"TOWNNAME":"東區","LI":"崇學里","LIN":"13鄰","STREET":"崇明九街","SECT":" ","MAREA":" ","LANE":" ","ALLEY":" ","HOUSE_NO":"１０８號五樓之７","E_COORD97":170180.62,"N_COORD97":2541905.8500000001,"ADDRESS":"崇明九街１０８號五樓之７","OBJECTID":459756},"geometry":{"x":170180.61999999918,"y":2541905.8500000034}},{"attributes":{"ID":459782,"DIS_CODE":0,"TOWNNAME":"東區","LI":"崇學里","LIN":"13鄰","STREET":"崇明九街","SECT":" ","MAREA":" ","LANE":" ","ALLEY":" ","HOUSE_NO":"１０８號五樓之８","E_COORD97":170180.62,"N_COORD97":2541905.8500000001,"ADDRESS":"崇明九街１０８號五樓之８","OBJECTID":459757},"geometry":{"x":170180.61999999918,"y":2541905.8500000034}},{"attributes":{"ID":459783,"DIS_CODE":0,"TOWNNAME":"東區","LI":"崇學里","LIN":"13鄰","STREET":"崇明九街","SECT":" ","MAREA":" ","LANE":" ","ALLEY":" ","HOUSE_NO":"１０８號五樓之９","E_COORD97":170180.62,"N_COORD97":2541905.8500000001,"ADDRESS":"崇明九街１０８號五樓之９","OBJECTID":459758},"geometry":{"x":170180.61999999918,"y":2541905.8500000034}},{"attributes":{"ID":459784,"DIS_CODE":0,"TOWNNAME":"東區","LI":"崇學里","LIN":"13鄰","STREET":"崇明九街","SECT":" ","MAREA":" ","LANE":" ","ALLEY":" ","HOUSE_NO":"１０８號六樓","E_COORD97":170180.62,"N_COORD97":2541905.8500000001,"ADDRESS":"崇明九街１０８號六樓","OBJECTID":459759},"geometry":{"x":170180.61999999918,"y":2541905.8500000034}},{"attributes":{"ID":459785,"DIS_CODE":0,"TOWNNAME":"東區","LI":"崇學里","LIN":"13鄰","STREET":"崇明九街","SECT":" ","MAREA":" ","LANE":" ","ALLEY":" ","HOUSE_NO":"１０８號六樓之１","E_COORD97":170180.62,"N_COORD97":2541905.8500000001,"ADDRESS":"崇明九街１０８號六樓之１","OBJECTID":459760},"geometry":{"x":170180.61999999918,"y":2541905.8500000034}},{"attributes":{"ID":459786,"DIS_CODE":0,"TOWNNAME":"東區","LI":"崇學里","LIN":"13鄰","STREET":"崇明九街","SECT":" ","MAREA":" ","LANE":" ","ALLEY":" ","HOUSE_NO":"１０８號六樓之１０","E_COORD97":170180.62,"N_COORD97":2541905.8500000001,"ADDRESS":"崇明九街１０８號六樓之１０","OBJECTID":459761},"geometry":{"x":170180.61999999918,"y":2541905.8500000034}},{"attributes":{"ID":459787,"DIS_CODE":0,"TOWNNAME":"東區","LI":"崇學里","LIN":"13鄰","STREET":"崇明九街","SECT":" ","MAREA":" ","LANE":" ","ALLEY":" ","HOUSE_NO":"１０８號六樓之１１","E_COORD97":170180.62,"N_COORD97":2541905.8500000001,"ADDRESS":"崇明九街１０８號六樓之１１","OBJECTID":459762},"geometry":{"x":170180.61999999918,"y":2541905.8500000034}},{"attributes":{"ID":459788,"DIS_CODE":0,"TOWNNAME":"東區","LI":"崇學里","LIN":"13鄰","STREET":"崇明九街","SECT":" ","MAREA":" ","LANE":" ","ALLEY":" ","HOUSE_NO":"１０８號六樓之１２","E_COORD97":170180.62,"N_COORD97":2541905.8500000001,"ADDRESS":"崇明九街１０８號六樓之１２","OBJECTID":459763},"geometry":{"x":170180.61999999918,"y":2541905.8500000034}},{"attributes":{"ID":459789,"DIS_CODE":0,"TOWNNAME":"東區","LI":"崇學里","LIN":"13鄰","STREET":"崇明九街","SECT":" ","MAREA":" ","LANE":" ","ALLEY":" ","HOUSE_NO":"１０８號六樓之２","E_COORD97":170180.62,"N_COORD97":2541905.8500000001,"ADDRESS":"崇明九街１０８號六樓之２","OBJECTID":459764},"geometry":{"x":170180.61999999918,"y":2541905.8500000034}},{"attributes":{"ID":459790,"DIS_CODE":0,"TOWNNAME":"東區","LI":"崇學里","LIN":"13鄰","STREET":"崇明九街","SECT":" ","MAREA":" ","LANE":" ","ALLEY":" ","HOUSE_NO":"１０８號六樓之３","E_COORD97":170180.62,"N_COORD97":2541905.8500000001,"ADDRESS":"崇明九街１０８號六樓之３","OBJECTID":459765},"geometry":{"x":170180.61999999918,"y":2541905.8500000034}},{"attributes":{"ID":459791,"DIS_CODE":0,"TOWNNAME":"東區","LI":"崇學里","LIN":"13鄰","STREET":"崇明九街","SECT":" ","MAREA":" ","LANE":" ","ALLEY":" ","HOUSE_NO":"１０８號六樓之４","E_COORD97":170180.62,"N_COORD97":2541905.8500000001,"ADDRESS":"崇明九街１０８號六樓之４","OBJECTID":459766},"geometry":{"x":170180.61999999918,"y":2541905.8500000034}},{"attributes":{"ID":459792,"DIS_CODE":0,"TOWNNAME":"東區","LI":"崇學里","LIN":"13鄰","STREET":"崇明九街","SECT":" ","MAREA":" ","LANE":" ","ALLEY":" ","HOUSE_NO":"１０８號六樓之５","E_COORD97":170180.62,"N_COORD97":2541905.8500000001,"ADDRESS":"崇明九街１０８號六樓之５","OBJECTID":459767},"geometry":{"x":170180.61999999918,"y":2541905.8500000034}},{"attributes":{"ID":459793,"DIS_CODE":0,"TOWNNAME":"東區","LI":"崇學里","LIN":"13鄰","STREET":"崇明九街","SECT":" ","MAREA":" ","LANE":" ","ALLEY":" ","HOUSE_NO":"１０８號六樓之６","E_COORD97":170180.62,"N_COORD97":2541905.8500000001,"ADDRESS":"崇明九街１０８號六樓之６","OBJECTID":459768},"geometry":{"x":170180.61999999918,"y":2541905.8500000034}},{"attributes":{"ID":459794,"DIS_CODE":0,"TOWNNAME":"東區","LI":"崇學里","LIN":"13鄰","STREET":"崇明九街","SECT":" ","MAREA":" ","LANE":" ","ALLEY":" ","HOUSE_NO":"１０８號六樓之７","E_COORD97":170180.62,"N_COORD97":2541905.8500000001,"ADDRESS":"崇明九街１０８號六樓之７","OBJECTID":459769},"geometry":{"x":170180.61999999918,"y":2541905.8500000034}},{"attributes":{"ID":459795,"DIS_CODE":0,"TOWNNAME":"東區","LI":"崇學里","LIN":"13鄰","STREET":"崇明九街","SECT":" ","MAREA":" ","LANE":" ","ALLEY":" ","HOUSE_NO":"１０８號六樓之８","E_COORD97":170180.62,"N_COORD97":2541905.8500000001,"ADDRESS":"崇明九街１０８號六樓之８","OBJECTID":459770},"geometry":{"x":170180.61999999918,"y":2541905.8500000034}},{"attributes":{"ID":459796,"DIS_CODE":0,"TOWNNAME":"東區","LI":"崇學里","LIN":"13鄰","STREET":"崇明九街","SECT":" ","MAREA":" ","LANE":" ","ALLEY":" ","HOUSE_NO":"１０８號六樓之９","E_COORD97":170180.62,"N_COORD97":2541905.8500000001,"ADDRESS":"崇明九街１０８號六樓之９","OBJECTID":459771},"geometry":{"x":170180.61999999918,"y":2541905.8500000034}},{"attributes":{"ID":459797,"DIS_CODE":0,"TOWNNAME":"東區","LI":"崇學里","LIN":"13鄰","STREET":"崇明九街","SECT":" ","MAREA":" ","LANE":" ","ALLEY":" ","HOUSE_NO":"１０８號四樓","E_COORD97":170180.62,"N_COORD97":2541905.8500000001,"ADDRESS":"崇明九街１０８號四樓","OBJECTID":459772},"geometry":{"x":170180.61999999918,"y":2541905.8500000034}},{"attributes":{"ID":459798,"DIS_CODE":0,"TOWNNAME":"東區","LI":"崇學里","LIN":"13鄰","STREET":"崇明九街","SECT":" ","MAREA":" ","LANE":" ","ALLEY":" ","HOUSE_NO":"１０８號四樓之１","E_COORD97":170180.62,"N_COORD97":2541905.8500000001,"ADDRESS":"崇明九街１０８號四樓之１","OBJECTID":459773},"geometry":{"x":170180.61999999918,"y":2541905.8500000034}},{"attributes":{"ID":459799,"DIS_CODE":0,"TOWNNAME":"東區","LI":"崇學里","LIN":"13鄰","STREET":"崇明九街","SECT":" ","MAREA":" ","LANE":" ","ALLEY":" ","HOUSE_NO":"１０８號四樓之１０","E_COORD97":170180.62,"N_COORD97":2541905.8500000001,"ADDRESS":"崇明九街１０８號四樓之１０","OBJECTID":459774},"geometry":{"x":170180.61999999918,"y":2541905.8500000034}},{"attributes":{"ID":459800,"DIS_CODE":0,"TOWNNAME":"東區","LI":"崇學里","LIN":"13鄰","STREET":"崇明九街","SECT":" ","MAREA":" ","LANE":" ","ALLEY":" ","HOUSE_NO":"１０８號四樓之１１","E_COORD97":170180.62,"N_COORD97":2541905.8500000001,"ADDRESS":"崇明九街１０８號四樓之１１","OBJECTID":459775},"geometry":{"x":170180.61999999918,"y":2541905.8500000034}},{"attributes":{"ID":459801,"DIS_CODE":0,"TOWNNAME":"東區","LI":"崇學里","LIN":"13鄰","STREET":"崇明九街","SECT":" ","MAREA":" ","LANE":" ","ALLEY":" ","HOUSE_NO":"１０８號四樓之２","E_COORD97":170180.62,"N_COORD97":2541905.8500000001,"ADDRESS":"崇明九街１０８號四樓之２","OBJECTID":459776},"geometry":{"x":170180.61999999918,"y":2541905.8500000034}},{"attributes":{"ID":459802,"DIS_CODE":0,"TOWNNAME":"東區","LI":"崇學里","LIN":"13鄰","STREET":"崇明九街","SECT":" ","MAREA":" ","LANE":" ","ALLEY":" ","HOUSE_NO":"１０８號四樓之３","E_COORD97":170180.62,"N_COORD97":2541905.8500000001,"ADDRESS":"崇明九街１０８號四樓之３","OBJECTID":459777},"geometry":{"x":170180.61999999918,"y":2541905.8500000034}},{"attributes":{"ID":459803,"DIS_CODE":0,"TOWNNAME":"東區","LI":"崇學里","LIN":"13鄰","STREET":"崇明九街","SECT":" ","MAREA":" ","LANE":" ","ALLEY":" ","HOUSE_NO":"１０８號四樓之４","E_COORD97":170180.62,"N_COORD97":2541905.8500000001,"ADDRESS":"崇明九街１０８號四樓之４","OBJECTID":459778},"geometry":{"x":170180.61999999918,"y":2541905.8500000034}},{"attributes":{"ID":459804,"DIS_CODE":0,"TOWNNAME":"東區","LI":"崇學里","LIN":"13鄰","STREET":"崇明九街","SECT":" ","MAREA":" ","LANE":" ","ALLEY":" ","HOUSE_NO":"１０８號四樓之５","E_COORD97":170180.62,"N_COORD97":2541905.8500000001,"ADDRESS":"崇明九街１０８號四樓之５","OBJECTID":459779},"geometry":{"x":170180.61999999918,"y":2541905.8500000034}},{"attributes":{"ID":459805,"DIS_CODE":0,"TOWNNAME":"東區","LI":"崇學里","LIN":"13鄰","STREET":"崇明九街","SECT":" ","MAREA":" ","LANE":" ","ALLEY":" ","HOUSE_NO":"１０８號四樓之６","E_COORD97":170180.62,"N_COORD97":2541905.8500000001,"ADDRESS":"崇明九街１０８號四樓之６","OBJECTID":459780},"geometry":{"x":170180.61999999918,"y":2541905.8500000034}},{"attributes":{"ID":459806,"DIS_CODE":0,"TOWNNAME":"東區","LI":"崇學里","LIN":"13鄰","STREET":"崇明九街","SECT":" ","MAREA":" ","LANE":" ","ALLEY":" ","HOUSE_NO":"１０８號四樓之７","E_COORD97":170180.62,"N_COORD97":2541905.8500000001,"ADDRESS":"崇明九街１０８號四樓之７","OBJECTID":459781},"geometry":{"x":170180.61999999918,"y":2541905.8500000034}},{"attributes":{"ID":459807,"DIS_CODE":0,"TOWNNAME":"東區","LI":"崇學里","LIN":"13鄰","STREET":"崇明九街","SECT":" ","MAREA":" ","LANE":" ","ALLEY":" ","HOUSE_NO":"１０８號四樓之８","E_COORD97":170180.62,"N_COORD97":2541905.8500000001,"ADDRESS":"崇明九街１０８號四樓之８","OBJECTID":459782},"geometry":{"x":170180.61999999918,"y":2541905.8500000034}},{"attributes":{"ID":459808,"DIS_CODE":0,"TOWNNAME":"東區","LI":"崇學里","LIN":"13鄰","STREET":"崇明九街","SECT":" ","MAREA":" ","LANE":" ","ALLEY":" ","HOUSE_NO":"１０８號四樓之９","E_COORD97":170180.62,"N_COORD97":2541905.8500000001,"ADDRESS":"崇明九街１０８號四樓之９","OBJECTID":459783},"geometry":{"x":170180.61999999918,"y":2541905.8500000034}},{"attributes":{"ID":459809,"DIS_CODE":0,"TOWNNAME":"東區","LI":"崇學里","LIN":"13鄰","STREET":"崇明路","SECT":" ","MAREA":" ","LANE":" ","ALLEY":" ","HOUSE_NO":"２６９號三樓","E_COORD97":170171.45999999999,"N_COORD97":2541896.73,"ADDRESS":"崇明路２６９號三樓","OBJECTID":459784},"geometry":{"x":170171.46000000183,"y":2541896.7300000004}},{"attributes":{"ID":459810,"DIS_CODE":0,"TOWNNAME":"東區","LI":"路東里","LIN":"13鄰","STREET":"林森路","SECT":"一段","MAREA":" ","LANE":" ","ALLEY":" ","HOUSE_NO":"１３２號七樓","E_COORD97":169417.22,"N_COORD97":2542428.8700000001,"ADDRESS":"林森路一段１３２號七樓","OBJECTID":459785},"geometry":{"x":169417.22000000067,"y":2542428.870000001}},{"attributes":{"ID":459811,"DIS_CODE":0,"TOWNNAME":"東區","LI":"路東里","LIN":"13鄰","STREET":"林森路","SECT":"一段","MAREA":" ","LANE":" ","ALLEY":" ","HOUSE_NO":"１３２號七樓之１","E_COORD97":169417.22,"N_COORD97":2542428.8700000001,"ADDRESS":"林森路一段１３２號七樓之１","OBJECTID":459786},"geometry":{"x":169417.22000000067,"y":2542428.870000001}},{"attributes":{"ID":459812,"DIS_CODE":0,"TOWNNAME":"東區","LI":"路東里","LIN":"13鄰","STREET":"林森路","SECT":"一段","MAREA":" ","LANE":" ","ALLEY":" ","HOUSE_NO":"１３２號七樓之２","E_COORD97":169417.22,"N_COORD97":2542428.8700000001,"ADDRESS":"林森路一段１３２號七樓之２","OBJECTID":459787},"geometry":{"x":169417.22000000067,"y":2542428.870000001}},{"attributes":{"ID":459813,"DIS_CODE":0,"TOWNNAME":"東區","LI":"路東里","LIN":"13鄰","STREET":"林森路","SECT":"一段","MAREA":" ","LANE":" ","ALLEY":" ","HOUSE_NO":"１３２號七樓之３","E_COORD97":169417.22,"N_COORD97":2542428.8700000001,"ADDRESS":"林森路一段１３２號七樓之３","OBJECTID":459788},"geometry":{"x":169417.22000000067,"y":2542428.870000001}},{"attributes":{"ID":459814,"DIS_CODE":0,"TOWNNAME":"東區","LI":"路東里","LIN":"13鄰","STREET":"林森路","SECT":"一段","MAREA":" ","LANE":" ","ALLEY":" ","HOUSE_NO":"１３２號七樓之４","E_COORD97":169417.22,"N_COORD97":2542428.8700000001,"ADDRESS":"林森路一段１３２號七樓之４","OBJECTID":459789},"geometry":{"x":169417.22000000067,"y":2542428.870000001}},{"attributes":{"ID":459815,"DIS_CODE":0,"TOWNNAME":"東區","LI":"路東里","LIN":"13鄰","STREET":"林森路","SECT":"一段","MAREA":" ","LANE":" ","ALLEY":" ","HOUSE_NO":"１３２號九樓","E_COORD97":169417.22,"N_COORD97":2542428.8700000001,"ADDRESS":"林森路一段１３２號九樓","OBJECTID":459790},"geometry":{"x":169417.22000000067,"y":2542428.870000001}},{"attributes":{"ID":459816,"DIS_CODE":0,"TOWNNAME":"東區","LI":"路東里","LIN":"13鄰","STREET":"林森路","SECT":"一段","MAREA":" ","LANE":" ","ALLEY":" ","HOUSE_NO":"１３２號九樓之１","E_COORD97":169417.22,"N_COORD97":2542428.8700000001,"ADDRESS":"林森路一段１３２號九樓之１","OBJECTID":459791},"geometry":{"x":169417.22000000067,"y":2542428.870000001}},{"attributes":{"ID":459817,"DIS_CODE":0,"TOWNNAME":"東區","LI":"路東里","LIN":"13鄰","STREET":"林森路","SECT":"一段","MAREA":" ","LANE":" ","ALLEY":" ","HOUSE_NO":"１３２號九樓之２","E_COORD97":169417.22,"N_COORD97":2542428.8700000001,"ADDRESS":"林森路一段１３２號九樓之２","OBJECTID":459792},"geometry":{"x":169417.22000000067,"y":2542428.870000001}},{"attributes":{"ID":459818,"DIS_CODE":0,"TOWNNAME":"東區","LI":"路東里","LIN":"13鄰","STREET":"林森路","SECT":"一段","MAREA":" ","LANE":" ","ALLEY":" ","HOUSE_NO":"１３２號九樓之３","E_COORD97":169417.22,"N_COORD97":2542428.8700000001,"ADDRESS":"林森路一段１３２號九樓之３","OBJECTID":459793},"geometry":{"x":169417.22000000067,"y":2542428.870000001}},{"attributes":{"ID":459819,"DIS_CODE":0,"TOWNNAME":"東區","LI":"路東里","LIN":"13鄰","STREET":"林森路","SECT":"一段","MAREA":" ","LANE":" ","ALLEY":" ","HOUSE_NO":"１３２號九樓之４","E_COORD97":169417.22,"N_COORD97":2542428.8700000001,"ADDRESS":"林森路一段１３２號九樓之４","OBJECTID":459794},"geometry":{"x":169417.22000000067,"y":2542428.870000001}},{"attributes":{"ID":459820,"DIS_CODE":0,"TOWNNAME":"東區","LI":"路東里","LIN":"13鄰","STREET":"林森路","SECT":"一段","MAREA":" ","LANE":" ","ALLEY":" ","HOUSE_NO":"１３２號二樓","E_COORD97":169417.22,"N_COORD97":2542428.8700000001,"ADDRESS":"林森路一段１３２號二樓","OBJECTID":459795},"geometry":{"x":169417.22000000067,"y":2542428.870000001}},{"attributes":{"ID":459821,"DIS_CODE":0,"TOWNNAME":"東區","LI":"路東里","LIN":"13鄰","STREET":"林森路","SECT":"一段","MAREA":" ","LANE":" ","ALLEY":" ","HOUSE_NO":"１３２號二樓之１","E_COORD97":169417.22,"N_COORD97":2542428.8700000001,"ADDRESS":"林森路一段１３２號二樓之１","OBJECTID":459796},"geometry":{"x":169417.22000000067,"y":2542428.870000001}},{"attributes":{"ID":459822,"DIS_CODE":0,"TOWNNAME":"東區","LI":"路東里","LIN":"13鄰","STREET":"林森路","SECT":"一段","MAREA":" ","LANE":" ","ALLEY":" ","HOUSE_NO":"１３２號二樓之２","E_COORD97":169417.22,"N_COORD97":2542428.8700000001,"ADDRESS":"林森路一段１３２號二樓之２","OBJECTID":459797},"geometry":{"x":169417.22000000067,"y":2542428.870000001}},{"attributes":{"ID":459823,"DIS_CODE":0,"TOWNNAME":"東區","LI":"路東里","LIN":"13鄰","STREET":"林森路","SECT":"一段","MAREA":" ","LANE":" ","ALLEY":" ","HOUSE_NO":"１３２號二樓之３","E_COORD97":169417.22,"N_COORD97":2542428.8700000001,"ADDRESS":"林森路一段１３２號二樓之３","OBJECTID":459798},"geometry":{"x":169417.22000000067,"y":2542428.870000001}},{"attributes":{"ID":459824,"DIS_CODE":0,"TOWNNAME":"東區","LI":"路東里","LIN":"13鄰","STREET":"林森路","SECT":"一段","MAREA":" ","LANE":" ","ALLEY":" ","HOUSE_NO":"１３２號二樓之４","E_COORD97":169417.22,"N_COORD97":2542428.8700000001,"ADDRESS":"林森路一段１３２號二樓之４","OBJECTID":459799},"geometry":{"x":169417.22000000067,"y":2542428.870000001}},{"attributes":{"ID":459825,"DIS_CODE":0,"TOWNNAME":"東區","LI":"路東里","LIN":"13鄰","STREET":"林森路","SECT":"一段","MAREA":" ","LANE":" ","ALLEY":" ","HOUSE_NO":"１３２號八樓","E_COORD97":169417.22,"N_COORD97":2542428.8700000001,"ADDRESS":"林森路一段１３２號八樓","OBJECTID":459800},"geometry":{"x":169417.22000000067,"y":2542428.870000001}}]}