{"displayFieldName":"TOWNNAME","fieldAliases":{"ID":"ID","DIS_CODE":"DIS_CODE","TOWNNAME":"TOWNNAME","LI":"LI","LIN":"LIN","STREET":"STREET","SECT":"SECT","MAREA":"MAREA","LANE":"LANE","ALLEY":"ALLEY","HOUSE_NO":"HOUSE_NO","E_COORD97":"E_COORD97","N_COORD97":"N_COORD97","ADDRESS":"ADDRESS","OBJECTID":"OBJECTID"},"geometryType":"esriGeometryPoint","spatialReference":{"wkid":102443,"latestWkid":3826},"fields":[{"name":"ID","type":"esriFieldTypeDouble","alias":"ID"},{"name":"DIS_CODE","type":"esriFieldTypeInteger","alias":"DIS_CODE"},{"name":"TOWNNAME","type":"esriFieldTypeString","alias":"TOWNNAME","length":8},{"name":"LI","type":"esriFieldTypeString","alias":"LI","length":8},{"name":"LIN","type":"esriFieldTypeString","alias":"LIN","length":12},{"name":"STREET","type":"esriFieldTypeString","alias":"STREET","length":20},{"name":"SECT","type":"esriFieldTypeString","alias":"SECT","length":8},{"name":"MAREA","type":"esriFieldTypeString","alias":"MAREA","length":12},{"name":"LANE","type":"esriFieldTypeString","alias":"LANE","length":10},{"name":"ALLEY","type":"esriFieldTypeString","alias":"ALLEY","length":10},{"name":"HOUSE_NO","type":"esriFieldTypeString","alias":"HOUSE_NO","length":20},{"name":"E_COORD97","type":"esriFieldTypeDouble","alias":"E_COORD97"},{"name":"N_COORD97","type":"esriFieldTypeDouble","alias":"N_COORD97"},{"name":"ADDRESS","type":"esriFieldTypeString","alias":"ADDRESS","length":50},{"name":"OBJECTID","type":"esriFieldTypeOID","alias":"OBJECTID"}],"features":[{"attributes":{"ID":433626,"DIS_CODE":0,"TOWNNAME":"柳營區","LI":"士林里","LIN":"19鄰","STREET":"育英街","SECT":" ","MAREA":" ","LANE":"１０５巷","ALLEY":" ","HOUSE_NO":"４８號","E_COORD97":179351.56,"N_COORD97":2574850.0299999998,"ADDRESS":"育英街１０５巷４８號","OBJECTID":433601},"geometry":{"x":179351.56000000145,"y":2574850.0300000012}},{"attributes":{"ID":433627,"DIS_CODE":0,"TOWNNAME":"柳營區","LI":"士林里","LIN":"19鄰","STREET":"育英街","SECT":" ","MAREA":" ","LANE":"１０５巷","ALLEY":" ","HOUSE_NO":"５０號","E_COORD97":179347.14000000001,"N_COORD97":2574849.8300000001,"ADDRESS":"育英街１０５巷５０號","OBJECTID":433602},"geometry":{"x":179347.13999999966,"y":2574849.8300000001}},{"attributes":{"ID":433628,"DIS_CODE":0,"TOWNNAME":"柳營區","LI":"士林里","LIN":"19鄰","STREET":"育英街","SECT":" ","MAREA":" ","LANE":"１０５巷","ALLEY":" ","HOUSE_NO":"５２號","E_COORD97":179342.73000000001,"N_COORD97":2574849.6299999999,"ADDRESS":"育英街１０５巷５２號","OBJECTID":433603},"geometry":{"x":179342.72999999952,"y":2574849.629999999}},{"attributes":{"ID":433629,"DIS_CODE":0,"TOWNNAME":"柳營區","LI":"士林里","LIN":"20鄰","STREET":"育英街","SECT":" ","MAREA":" ","LANE":"１０５巷","ALLEY":" ","HOUSE_NO":"５５號","E_COORD97":179408.76999999999,"N_COORD97":2574815.1899999999,"ADDRESS":"育英街１０５巷５５號","OBJECTID":433604},"geometry":{"x":179408.76999999955,"y":2574815.1900000013}},{"attributes":{"ID":433630,"DIS_CODE":0,"TOWNNAME":"柳營區","LI":"士林里","LIN":"20鄰","STREET":"育英街","SECT":" ","MAREA":" ","LANE":"１０５巷","ALLEY":" ","HOUSE_NO":"５７號","E_COORD97":179404.5,"N_COORD97":2574815.1099999999,"ADDRESS":"育英街１０５巷５７號","OBJECTID":433605},"geometry":{"x":179404.5,"y":2574815.1100000013}},{"attributes":{"ID":433631,"DIS_CODE":0,"TOWNNAME":"柳營區","LI":"士林里","LIN":"20鄰","STREET":"育英街","SECT":" ","MAREA":" ","LANE":"１０５巷","ALLEY":" ","HOUSE_NO":"５９號","E_COORD97":179417.59,"N_COORD97":2574812.4199999999,"ADDRESS":"育英街１０５巷５９號","OBJECTID":433606},"geometry":{"x":179417.58999999985,"y":2574812.4199999999}},{"attributes":{"ID":433632,"DIS_CODE":0,"TOWNNAME":"柳營區","LI":"士林里","LIN":"19鄰","STREET":"育英街","SECT":" ","MAREA":" ","LANE":"１０５巷","ALLEY":" ","HOUSE_NO":"５６號","E_COORD97":179338.32000000001,"N_COORD97":2574849.4399999999,"ADDRESS":"育英街１０５巷５６號","OBJECTID":433607},"geometry":{"x":179338.3200000003,"y":2574849.4400000032}},{"attributes":{"ID":433633,"DIS_CODE":0,"TOWNNAME":"柳營區","LI":"士林里","LIN":"19鄰","STREET":"育英街","SECT":" ","MAREA":" ","LANE":"１０５巷","ALLEY":" ","HOUSE_NO":"５８號","E_COORD97":179382.23999999999,"N_COORD97":2574832.0299999998,"ADDRESS":"育英街１０５巷５８號","OBJECTID":433608},"geometry":{"x":179382.24000000115,"y":2574832.0300000012}},{"attributes":{"ID":433634,"DIS_CODE":0,"TOWNNAME":"柳營區","LI":"士林里","LIN":"19鄰","STREET":"育英街","SECT":" ","MAREA":" ","LANE":"１０５巷","ALLEY":" ","HOUSE_NO":"６０號","E_COORD97":179377.87,"N_COORD97":2574831.8799999999,"ADDRESS":"育英街１０５巷６０號","OBJECTID":433609},"geometry":{"x":179377.87000000104,"y":2574831.879999999}},{"attributes":{"ID":433635,"DIS_CODE":0,"TOWNNAME":"柳營區","LI":"士林里","LIN":"19鄰","STREET":"育英街","SECT":" ","MAREA":" ","LANE":"１０５巷","ALLEY":" ","HOUSE_NO":"６２號","E_COORD97":179373.48999999999,"N_COORD97":2574831.7200000002,"ADDRESS":"育英街１０５巷６２號","OBJECTID":433610},"geometry":{"x":179373.49000000115,"y":2574831.7200000044}},{"attributes":{"ID":433636,"DIS_CODE":0,"TOWNNAME":"柳營區","LI":"士林里","LIN":"19鄰","STREET":"育英街","SECT":" ","MAREA":" ","LANE":"１０５巷","ALLEY":" ","HOUSE_NO":"６６號","E_COORD97":179369.10999999999,"N_COORD97":2574831.5600000001,"ADDRESS":"育英街１０５巷６６號","OBJECTID":433611},"geometry":{"x":179369.11000000127,"y":2574831.5600000005}},{"attributes":{"ID":433637,"DIS_CODE":0,"TOWNNAME":"柳營區","LI":"士林里","LIN":"19鄰","STREET":"育英街","SECT":" ","MAREA":" ","LANE":"１０５巷","ALLEY":" ","HOUSE_NO":"６８號","E_COORD97":179364.73000000001,"N_COORD97":2574831.4100000001,"ADDRESS":"育英街１０５巷６８號","OBJECTID":433612},"geometry":{"x":179364.72999999952,"y":2574831.410000002}},{"attributes":{"ID":433638,"DIS_CODE":0,"TOWNNAME":"柳營區","LI":"士林里","LIN":"19鄰","STREET":"育英街","SECT":" ","MAREA":" ","LANE":"１０５巷","ALLEY":" ","HOUSE_NO":"６號","E_COORD97":179377.35000000001,"N_COORD97":2574865.9100000001,"ADDRESS":"育英街１０５巷６號","OBJECTID":433613},"geometry":{"x":179377.35000000056,"y":2574865.9100000001}},{"attributes":{"ID":433639,"DIS_CODE":0,"TOWNNAME":"柳營區","LI":"士林里","LIN":"13鄰","STREET":"育英街","SECT":" ","MAREA":" ","LANE":"７巷","ALLEY":" ","HOUSE_NO":"８號","E_COORD97":179617.34,"N_COORD97":2575022.0099999998,"ADDRESS":"育英街７巷８號","OBJECTID":433614},"geometry":{"x":179617.33999999985,"y":2575022.0099999979}},{"attributes":{"ID":433640,"DIS_CODE":0,"TOWNNAME":"柳營區","LI":"士林里","LIN":"14鄰","STREET":"育英街","SECT":" ","MAREA":" ","LANE":"２８巷","ALLEY":" ","HOUSE_NO":"９號","E_COORD97":179548.01999999999,"N_COORD97":2574980.4399999999,"ADDRESS":"育英街２８巷９號","OBJECTID":433615},"geometry":{"x":179548.01999999955,"y":2574980.4399999995}},{"attributes":{"ID":433641,"DIS_CODE":0,"TOWNNAME":"柳營區","LI":"八翁里","LIN":"4鄰","STREET":"和平路","SECT":" ","MAREA":" ","LANE":"１６７巷","ALLEY":" ","HOUSE_NO":"１０號","E_COORD97":178167.10000000001,"N_COORD97":2575226.1899999999,"ADDRESS":"和平路１６７巷１０號","OBJECTID":433616},"geometry":{"x":178167.10000000056,"y":2575226.1899999995}},{"attributes":{"ID":433642,"DIS_CODE":0,"TOWNNAME":"柳營區","LI":"八翁里","LIN":"4鄰","STREET":"和平路","SECT":" ","MAREA":" ","LANE":"１６７巷","ALLEY":" ","HOUSE_NO":"２號","E_COORD97":178152.72,"N_COORD97":2575221.2599999998,"ADDRESS":"和平路１６７巷２號","OBJECTID":433617},"geometry":{"x":178152.72000000067,"y":2575221.2600000016}},{"attributes":{"ID":433643,"DIS_CODE":0,"TOWNNAME":"柳營區","LI":"八翁里","LIN":"4鄰","STREET":"和平路","SECT":" ","MAREA":" ","LANE":"１６７巷","ALLEY":" ","HOUSE_NO":"６５號","E_COORD97":178285.54000000001,"N_COORD97":2575269.4300000002,"ADDRESS":"和平路１６７巷６５號","OBJECTID":433618},"geometry":{"x":178285.54000000004,"y":2575269.4299999997}},{"attributes":{"ID":433644,"DIS_CODE":0,"TOWNNAME":"柳營區","LI":"人和里","LIN":"4鄰","STREET":"忠得街","SECT":" ","MAREA":" ","LANE":"４１巷","ALLEY":" ","HOUSE_NO":"１０號","E_COORD97":178541.28,"N_COORD97":2576015.8199999998,"ADDRESS":"忠得街４１巷１０號","OBJECTID":433619},"geometry":{"x":178541.28000000119,"y":2576015.8200000003}},{"attributes":{"ID":433645,"DIS_CODE":0,"TOWNNAME":"柳營區","LI":"人和里","LIN":"4鄰","STREET":"忠得街","SECT":" ","MAREA":" ","LANE":"４１巷","ALLEY":" ","HOUSE_NO":"１８號","E_COORD97":178526.42999999999,"N_COORD97":2576002.7200000002,"ADDRESS":"忠得街４１巷１８號","OBJECTID":433620},"geometry":{"x":178526.4299999997,"y":2576002.7200000025}},{"attributes":{"ID":433646,"DIS_CODE":0,"TOWNNAME":"柳營區","LI":"人和里","LIN":"4鄰","STREET":"忠得街","SECT":" ","MAREA":" ","LANE":"４１巷","ALLEY":" ","HOUSE_NO":"２１號","E_COORD97":178584.67999999999,"N_COORD97":2576006.6600000001,"ADDRESS":"忠得街４１巷２１號","OBJECTID":433621},"geometry":{"x":178584.68000000156,"y":2576006.6600000001}},{"attributes":{"ID":433647,"DIS_CODE":0,"TOWNNAME":"柳營區","LI":"人和里","LIN":"4鄰","STREET":"忠得街","SECT":" ","MAREA":" ","LANE":"４１巷","ALLEY":" ","HOUSE_NO":"２８號","E_COORD97":178551.97,"N_COORD97":2575997.3199999998,"ADDRESS":"忠得街４１巷２８號","OBJECTID":433622},"geometry":{"x":178551.96999999974,"y":2575997.320000004}},{"attributes":{"ID":433648,"DIS_CODE":0,"TOWNNAME":"柳營區","LI":"人和里","LIN":"4鄰","STREET":"忠得街","SECT":" ","MAREA":" ","LANE":"４１巷","ALLEY":" ","HOUSE_NO":"２號","E_COORD97":178557.87,"N_COORD97":2576027.1099999999,"ADDRESS":"忠得街４１巷２號","OBJECTID":433623},"geometry":{"x":178557.87000000011,"y":2576027.1099999994}},{"attributes":{"ID":433649,"DIS_CODE":0,"TOWNNAME":"柳營區","LI":"人和里","LIN":"4鄰","STREET":"忠得街","SECT":" ","MAREA":" ","LANE":"４１巷","ALLEY":" ","HOUSE_NO":"３６號","E_COORD97":178563.66,"N_COORD97":2575983.8399999999,"ADDRESS":"忠得街４１巷３６號","OBJECTID":433624},"geometry":{"x":178563.66000000108,"y":2575983.8400000017}},{"attributes":{"ID":433650,"DIS_CODE":0,"TOWNNAME":"柳營區","LI":"人和里","LIN":"4鄰","STREET":"忠得街","SECT":" ","MAREA":" ","LANE":"４１巷","ALLEY":" ","HOUSE_NO":"５０號","E_COORD97":178534.87,"N_COORD97":2575982.1800000002,"ADDRESS":"忠得街４１巷５０號","OBJECTID":433625},"geometry":{"x":178534.87000000104,"y":2575982.1799999997}},{"attributes":{"ID":433651,"DIS_CODE":0,"TOWNNAME":"北區","LI":"國姓里","LIN":"4鄰","STREET":"公園路","SECT":" ","MAREA":" ","LANE":"４５１巷","ALLEY":" ","HOUSE_NO":"４１號","E_COORD97":168918.64000000001,"N_COORD97":2545481.1800000002,"ADDRESS":"公園路４５１巷４１號","OBJECTID":433626},"geometry":{"x":168918.63999999966,"y":2545481.1800000016}},{"attributes":{"ID":433652,"DIS_CODE":0,"TOWNNAME":"北區","LI":"國姓里","LIN":"4鄰","STREET":"公園路","SECT":" ","MAREA":" ","LANE":"４５１巷","ALLEY":" ","HOUSE_NO":"４３號","E_COORD97":168912.81,"N_COORD97":2545481.1800000002,"ADDRESS":"公園路４５１巷４３號","OBJECTID":433627},"geometry":{"x":168912.81000000052,"y":2545481.1800000016}},{"attributes":{"ID":433653,"DIS_CODE":0,"TOWNNAME":"北區","LI":"國姓里","LIN":"4鄰","STREET":"公園路","SECT":" ","MAREA":" ","LANE":"４５１巷","ALLEY":" ","HOUSE_NO":"４５號","E_COORD97":168909.20999999999,"N_COORD97":2545483.3999999999,"ADDRESS":"公園路４５１巷４５號","OBJECTID":433628},"geometry":{"x":168909.21000000089,"y":2545483.4000000041}},{"attributes":{"ID":433654,"DIS_CODE":0,"TOWNNAME":"北區","LI":"國姓里","LIN":"4鄰","STREET":"公園路","SECT":" ","MAREA":" ","LANE":"４５１巷","ALLEY":" ","HOUSE_NO":"４７號","E_COORD97":168903.66,"N_COORD97":2545485.0600000001,"ADDRESS":"公園路４５１巷４７號","OBJECTID":433629},"geometry":{"x":168903.66000000015,"y":2545485.0600000005}},{"attributes":{"ID":433655,"DIS_CODE":0,"TOWNNAME":"北區","LI":"國姓里","LIN":"4鄰","STREET":"公園路","SECT":" ","MAREA":" ","LANE":"４５１巷","ALLEY":" ","HOUSE_NO":"４９號","E_COORD97":168899.48999999999,"N_COORD97":2545488.3900000001,"ADDRESS":"公園路４５１巷４９號","OBJECTID":433630},"geometry":{"x":168899.49000000022,"y":2545488.3900000025}},{"attributes":{"ID":433656,"DIS_CODE":0,"TOWNNAME":"北區","LI":"國姓里","LIN":"4鄰","STREET":"公園路","SECT":" ","MAREA":" ","LANE":"４５１巷","ALLEY":" ","HOUSE_NO":"５１號","E_COORD97":168894.78,"N_COORD97":2545489.77,"ADDRESS":"公園路４５１巷５１號","OBJECTID":433631},"geometry":{"x":168894.78000000212,"y":2545489.7699999977}},{"attributes":{"ID":433657,"DIS_CODE":0,"TOWNNAME":"北區","LI":"國姓里","LIN":"4鄰","STREET":"公園路","SECT":" ","MAREA":" ","LANE":"４５１巷","ALLEY":" ","HOUSE_NO":"５３號","E_COORD97":168891.72,"N_COORD97":2545493.1000000001,"ADDRESS":"公園路４５１巷５３號","OBJECTID":433632},"geometry":{"x":168891.72000000067,"y":2545493.0999999996}},{"attributes":{"ID":433658,"DIS_CODE":0,"TOWNNAME":"北區","LI":"國姓里","LIN":"4鄰","STREET":"公園路","SECT":" ","MAREA":" ","LANE":"４５１巷","ALLEY":" ","HOUSE_NO":"６９號","E_COORD97":168856.67000000001,"N_COORD97":2545532.0800000001,"ADDRESS":"公園路４５１巷６９號","OBJECTID":433633},"geometry":{"x":168856.67000000086,"y":2545532.0800000001}},{"attributes":{"ID":433659,"DIS_CODE":0,"TOWNNAME":"北區","LI":"國姓里","LIN":"4鄰","STREET":"公園路","SECT":" ","MAREA":" ","LANE":"４５１巷","ALLEY":" ","HOUSE_NO":"７１號","E_COORD97":168853.62,"N_COORD97":2545541.0299999998,"ADDRESS":"公園路４５１巷７１號","OBJECTID":433634},"geometry":{"x":168853.62000000104,"y":2545541.0299999993}},{"attributes":{"ID":433660,"DIS_CODE":0,"TOWNNAME":"北區","LI":"國姓里","LIN":"4鄰","STREET":"公園路","SECT":" ","MAREA":" ","LANE":"４５１巷","ALLEY":" ","HOUSE_NO":"７３號","E_COORD97":168851.39999999999,"N_COORD97":2545547.96,"ADDRESS":"公園路４５１巷７３號","OBJECTID":433635},"geometry":{"x":168851.40000000037,"y":2545547.9600000046}},{"attributes":{"ID":433661,"DIS_CODE":0,"TOWNNAME":"北區","LI":"國姓里","LIN":"4鄰","STREET":"公園路","SECT":" ","MAREA":" ","LANE":"４５１巷","ALLEY":" ","HOUSE_NO":"７５號","E_COORD97":168847.51000000001,"N_COORD97":2545552.1099999999,"ADDRESS":"公園路４５１巷７５號","OBJECTID":433636},"geometry":{"x":168847.51000000071,"y":2545552.1100000031}},{"attributes":{"ID":433662,"DIS_CODE":0,"TOWNNAME":"北區","LI":"國姓里","LIN":"4鄰","STREET":"公園路","SECT":" ","MAREA":" ","LANE":"４５１巷","ALLEY":" ","HOUSE_NO":"７７號","E_COORD97":168846.67999999999,"N_COORD97":2545554.6099999999,"ADDRESS":"公園路４５１巷７７號","OBJECTID":433637},"geometry":{"x":168846.6799999997,"y":2545554.6099999994}},{"attributes":{"ID":433663,"DIS_CODE":0,"TOWNNAME":"北區","LI":"國姓里","LIN":"4鄰","STREET":"公園路","SECT":" ","MAREA":" ","LANE":"４５１巷","ALLEY":" ","HOUSE_NO":"７９號","E_COORD97":168847.51000000001,"N_COORD97":2545559.04,"ADDRESS":"公園路４５１巷７９號","OBJECTID":433638},"geometry":{"x":168847.51000000071,"y":2545559.0400000028}},{"attributes":{"ID":433664,"DIS_CODE":0,"TOWNNAME":"北區","LI":"國姓里","LIN":"4鄰","STREET":"公園路","SECT":" ","MAREA":" ","LANE":"４５１巷","ALLEY":" ","HOUSE_NO":"８１號","E_COORD97":168846.13,"N_COORD97":2545562.3700000001,"ADDRESS":"公園路４５１巷８１號","OBJECTID":433639},"geometry":{"x":168846.12999999989,"y":2545562.3700000029}},{"attributes":{"ID":433665,"DIS_CODE":0,"TOWNNAME":"北區","LI":"國姓里","LIN":"8鄰","STREET":"小北路","SECT":" ","MAREA":" ","LANE":"４７巷","ALLEY":" ","HOUSE_NO":"１號","E_COORD97":168807.76000000001,"N_COORD97":2545273.25,"ADDRESS":"小北路４７巷１號","OBJECTID":433640},"geometry":{"x":168807.75999999978,"y":2545273.25}},{"attributes":{"ID":433666,"DIS_CODE":0,"TOWNNAME":"北區","LI":"國姓里","LIN":"6鄰","STREET":"小北路","SECT":" ","MAREA":" ","LANE":"２７巷","ALLEY":" ","HOUSE_NO":"５３號","E_COORD97":168855.28,"N_COORD97":2545431.0800000001,"ADDRESS":"小北路２７巷５３號","OBJECTID":433641},"geometry":{"x":168855.28000000026,"y":2545431.0800000019}},{"attributes":{"ID":433667,"DIS_CODE":0,"TOWNNAME":"北區","LI":"國姓里","LIN":"6鄰","STREET":"西門路","SECT":"四段","MAREA":" ","LANE":"１２６巷","ALLEY":" ","HOUSE_NO":"１０號","E_COORD97":168798.67999999999,"N_COORD97":2545432.0699999998,"ADDRESS":"西門路四段１２６巷１０號","OBJECTID":433642},"geometry":{"x":168798.68000000063,"y":2545432.0700000022}},{"attributes":{"ID":433668,"DIS_CODE":0,"TOWNNAME":"北區","LI":"國姓里","LIN":"6鄰","STREET":"西門路","SECT":"四段","MAREA":" ","LANE":"１２６巷","ALLEY":" ","HOUSE_NO":"１１號","E_COORD97":168806.01000000001,"N_COORD97":2545449.5,"ADDRESS":"西門路四段１２６巷１１號","OBJECTID":433643},"geometry":{"x":168806.00999999978,"y":2545449.5000000019}},{"attributes":{"ID":433669,"DIS_CODE":0,"TOWNNAME":"北區","LI":"國姓里","LIN":"4鄰","STREET":"公園路","SECT":" ","MAREA":" ","LANE":"４５１巷","ALLEY":" ","HOUSE_NO":"２５號","E_COORD97":168960.92000000001,"N_COORD97":2545452.8999999999,"ADDRESS":"公園路４５１巷２５號","OBJECTID":433644},"geometry":{"x":168960.91999999993,"y":2545452.9000000041}},{"attributes":{"ID":433670,"DIS_CODE":0,"TOWNNAME":"北區","LI":"國姓里","LIN":"4鄰","STREET":"公園路","SECT":" ","MAREA":" ","LANE":"４５１巷","ALLEY":" ","HOUSE_NO":"２７號","E_COORD97":168958.14000000001,"N_COORD97":2545452.8999999999,"ADDRESS":"公園路４５１巷２７號","OBJECTID":433645},"geometry":{"x":168958.1400000006,"y":2545452.9000000041}},{"attributes":{"ID":433671,"DIS_CODE":0,"TOWNNAME":"北區","LI":"國姓里","LIN":"4鄰","STREET":"公園路","SECT":" ","MAREA":" ","LANE":"４５１巷","ALLEY":" ","HOUSE_NO":"２９號","E_COORD97":168954.54000000001,"N_COORD97":2545452.8999999999,"ADDRESS":"公園路４５１巷２９號","OBJECTID":433646},"geometry":{"x":168954.54000000097,"y":2545452.9000000041}},{"attributes":{"ID":433672,"DIS_CODE":0,"TOWNNAME":"北區","LI":"國姓里","LIN":"4鄰","STREET":"公園路","SECT":" ","MAREA":" ","LANE":"４５１巷","ALLEY":" ","HOUSE_NO":"３１號","E_COORD97":168950.92999999999,"N_COORD97":2545454.0099999998,"ADDRESS":"公園路４５１巷３１號","OBJECTID":433647},"geometry":{"x":168950.93000000156,"y":2545454.0099999998}},{"attributes":{"ID":433673,"DIS_CODE":0,"TOWNNAME":"北區","LI":"國姓里","LIN":"4鄰","STREET":"公園路","SECT":" ","MAREA":" ","LANE":"４５１巷","ALLEY":" ","HOUSE_NO":"３３號","E_COORD97":168945.66,"N_COORD97":2545453.46,"ADDRESS":"公園路４５１巷３３號","OBJECTID":433648},"geometry":{"x":168945.66000000015,"y":2545453.4600000028}},{"attributes":{"ID":433674,"DIS_CODE":0,"TOWNNAME":"安定區","LI":"安加里","LIN":"6鄰","STREET":" ","SECT":" ","MAREA":"安定","LANE":" ","ALLEY":" ","HOUSE_NO":"１５３之１號","E_COORD97":171987.04620700001,"N_COORD97":2557624.0213199998,"ADDRESS":"安定１５３之１號","OBJECTID":433649},"geometry":{"x":171987.04620699957,"y":2557624.0213190019}},{"attributes":{"ID":433675,"DIS_CODE":0,"TOWNNAME":"北區","LI":"國姓里","LIN":"4鄰","STREET":"公園路","SECT":" ","MAREA":" ","LANE":"４５１巷","ALLEY":" ","HOUSE_NO":"３３號之１","E_COORD97":168942.88,"N_COORD97":2545452.6299999999,"ADDRESS":"公園路４５１巷３３號之１","OBJECTID":433650},"geometry":{"x":168942.88000000175,"y":2545452.629999999}},{"attributes":{"ID":433676,"DIS_CODE":0,"TOWNNAME":"北區","LI":"國姓里","LIN":"4鄰","STREET":"公園路","SECT":" ","MAREA":" ","LANE":"４５１巷","ALLEY":" ","HOUSE_NO":"３號","E_COORD97":168999.76999999999,"N_COORD97":2545436.2599999998,"ADDRESS":"公園路４５１巷３號","OBJECTID":433651},"geometry":{"x":168999.77000000048,"y":2545436.2600000035}},{"attributes":{"ID":433677,"DIS_CODE":0,"TOWNNAME":"北區","LI":"國姓里","LIN":"4鄰","STREET":"公園路","SECT":" ","MAREA":" ","LANE":"４５１巷","ALLEY":" ","HOUSE_NO":"３號之１","E_COORD97":168996.16,"N_COORD97":2545436.8100000001,"ADDRESS":"公園路４５１巷３號之１","OBJECTID":433652},"geometry":{"x":168996.16000000108,"y":2545436.8100000024}},{"attributes":{"ID":433678,"DIS_CODE":0,"TOWNNAME":"北區","LI":"國姓里","LIN":"4鄰","STREET":"公園路","SECT":" ","MAREA":" ","LANE":"４５１巷","ALLEY":" ","HOUSE_NO":"５號","E_COORD97":168991.16,"N_COORD97":2545439.5800000001,"ADDRESS":"公園路４５１巷５號","OBJECTID":433653},"geometry":{"x":168991.16000000108,"y":2545439.5800000001}},{"attributes":{"ID":433679,"DIS_CODE":0,"TOWNNAME":"北區","LI":"國姓里","LIN":"4鄰","STREET":"公園路","SECT":" ","MAREA":" ","LANE":"４５１巷","ALLEY":" ","HOUSE_NO":"７號","E_COORD97":168987.56,"N_COORD97":2545438.75,"ADDRESS":"公園路４５１巷７號","OBJECTID":433654},"geometry":{"x":168987.56000000052,"y":2545438.75}},{"attributes":{"ID":433680,"DIS_CODE":0,"TOWNNAME":"北區","LI":"國姓里","LIN":"4鄰","STREET":"公園路","SECT":" ","MAREA":" ","LANE":"４５１巷","ALLEY":" ","HOUSE_NO":"９號","E_COORD97":168983.12,"N_COORD97":2545443.21,"ADDRESS":"公園路４５１巷９號","OBJECTID":433655},"geometry":{"x":168983.12000000011,"y":2545443.2100000009}},{"attributes":{"ID":433681,"DIS_CODE":0,"TOWNNAME":"南區","LI":"郡南里","LIN":"18鄰","STREET":"德興路","SECT":" ","MAREA":" ","LANE":"１６１巷","ALLEY":" ","HOUSE_NO":"２８號","E_COORD97":167292.57000000001,"N_COORD97":2540394.2799999998,"ADDRESS":"德興路１６１巷２８號","OBJECTID":433656},"geometry":{"x":167292.56999999937,"y":2540394.2800000012}},{"attributes":{"ID":433682,"DIS_CODE":0,"TOWNNAME":"南區","LI":"郡南里","LIN":"18鄰","STREET":"德興路","SECT":" ","MAREA":" ","LANE":"１６１巷","ALLEY":" ","HOUSE_NO":"３０號","E_COORD97":167297.14000000001,"N_COORD97":2540395.3300000001,"ADDRESS":"德興路１６１巷３０號","OBJECTID":433657},"geometry":{"x":167297.1400000006,"y":2540395.3300000019}},{"attributes":{"ID":433683,"DIS_CODE":0,"TOWNNAME":"南區","LI":"郡南里","LIN":"18鄰","STREET":"德興路","SECT":" ","MAREA":" ","LANE":"１６１巷","ALLEY":" ","HOUSE_NO":"３４號","E_COORD97":167306.98999999999,"N_COORD97":2540395.6800000002,"ADDRESS":"德興路１６１巷３４號","OBJECTID":433658},"geometry":{"x":167306.99000000115,"y":2540395.6800000016}},{"attributes":{"ID":433684,"DIS_CODE":0,"TOWNNAME":"南區","LI":"郡南里","LIN":"18鄰","STREET":"德興路","SECT":" ","MAREA":" ","LANE":"１３９巷","ALLEY":" ","HOUSE_NO":"１０號","E_COORD97":167249.54000000001,"N_COORD97":2540445.27,"ADDRESS":"德興路１３９巷１０號","OBJECTID":433659},"geometry":{"x":167249.54000000004,"y":2540445.2700000033}},{"attributes":{"ID":433685,"DIS_CODE":0,"TOWNNAME":"南區","LI":"郡南里","LIN":"18鄰","STREET":"德興路","SECT":" ","MAREA":" ","LANE":"１３９巷","ALLEY":" ","HOUSE_NO":"１２號","E_COORD97":167253.82000000001,"N_COORD97":2540445.9100000001,"ADDRESS":"德興路１３９巷１２號","OBJECTID":433660},"geometry":{"x":167253.82000000123,"y":2540445.910000002}},{"attributes":{"ID":433686,"DIS_CODE":0,"TOWNNAME":"南區","LI":"郡南里","LIN":"18鄰","STREET":"德興路","SECT":" ","MAREA":" ","LANE":"１３９巷","ALLEY":" ","HOUSE_NO":"１４號","E_COORD97":167258.26999999999,"N_COORD97":2540445.9100000001,"ADDRESS":"德興路１３９巷１４號","OBJECTID":433661},"geometry":{"x":167258.27000000142,"y":2540445.910000002}},{"attributes":{"ID":433687,"DIS_CODE":0,"TOWNNAME":"南區","LI":"大林里","LIN":"13鄰","STREET":"國民路","SECT":" ","MAREA":" ","LANE":"５１１巷","ALLEY":" ","HOUSE_NO":"２９號","E_COORD97":168599.09,"N_COORD97":2541385.6299999999,"ADDRESS":"國民路５１１巷２９號","OBJECTID":433662},"geometry":{"x":168599.09000000171,"y":2541385.6300000008}},{"attributes":{"ID":433688,"DIS_CODE":0,"TOWNNAME":"南區","LI":"大恩里","LIN":"20鄰","STREET":"國民路","SECT":" ","MAREA":" ","LANE":"２１７巷","ALLEY":" ","HOUSE_NO":"３１號","E_COORD97":169041.03,"N_COORD97":2540781.6699999999,"ADDRESS":"國民路２１７巷３１號","OBJECTID":433663},"geometry":{"x":169041.03000000119,"y":2540781.6699999981}},{"attributes":{"ID":433689,"DIS_CODE":0,"TOWNNAME":"南區","LI":"明興里","LIN":"20鄰","STREET":"金華路","SECT":"一段","MAREA":" ","LANE":"８４巷","ALLEY":" ","HOUSE_NO":"１２號","E_COORD97":166947.37,"N_COORD97":2540427.0600000001,"ADDRESS":"金華路一段８４巷１２號","OBJECTID":433664},"geometry":{"x":166947.37000000011,"y":2540427.0599999987}},{"attributes":{"ID":433690,"DIS_CODE":0,"TOWNNAME":"南區","LI":"明興里","LIN":"4鄰","STREET":"德興路","SECT":" ","MAREA":" ","LANE":"２０巷","ALLEY":" ","HOUSE_NO":"３１號","E_COORD97":167132.70000000001,"N_COORD97":2540773.7200000002,"ADDRESS":"德興路２０巷３１號","OBJECTID":433665},"geometry":{"x":167132.70000000112,"y":2540773.7200000025}},{"attributes":{"ID":433691,"DIS_CODE":0,"TOWNNAME":"南區","LI":"郡南里","LIN":"13鄰","STREET":"永成路","SECT":"三段","MAREA":" ","LANE":"７１巷","ALLEY":" ","HOUSE_NO":"２５號","E_COORD97":167415.57000000001,"N_COORD97":2540551.21,"ADDRESS":"永成路三段７１巷２５號","OBJECTID":433666},"geometry":{"x":167415.5700000003,"y":2540551.2100000009}},{"attributes":{"ID":433692,"DIS_CODE":0,"TOWNNAME":"南區","LI":"明亮里","LIN":"20鄰","STREET":"金華路","SECT":"一段","MAREA":" ","LANE":"３３６巷","ALLEY":" ","HOUSE_NO":"６８號","E_COORD97":167114.14000000001,"N_COORD97":2541057.9300000002,"ADDRESS":"金華路一段３３６巷６８號","OBJECTID":433667},"geometry":{"x":167114.1400000006,"y":2541057.9300000034}},{"attributes":{"ID":433693,"DIS_CODE":0,"TOWNNAME":"南區","LI":"明亮里","LIN":"20鄰","STREET":"金華路","SECT":"一段","MAREA":" ","LANE":"３３６巷","ALLEY":" ","HOUSE_NO":"７０號","E_COORD97":167114.91,"N_COORD97":2541075.9399999999,"ADDRESS":"金華路一段３３６巷７０號","OBJECTID":433668},"geometry":{"x":167114.91000000015,"y":2541075.9400000013}},{"attributes":{"ID":433694,"DIS_CODE":0,"TOWNNAME":"南區","LI":"明亮里","LIN":"20鄰","STREET":"金華路","SECT":"一段","MAREA":" ","LANE":"３３６巷","ALLEY":" ","HOUSE_NO":"７２號","E_COORD97":167120.82999999999,"N_COORD97":2541073.6200000001,"ADDRESS":"金華路一段３３６巷７２號","OBJECTID":433669},"geometry":{"x":167120.83000000007,"y":2541073.620000001}},{"attributes":{"ID":433695,"DIS_CODE":0,"TOWNNAME":"南區","LI":"明亮里","LIN":"23鄰","STREET":"金華路","SECT":"一段","MAREA":" ","LANE":"４２０巷","ALLEY":" ","HOUSE_NO":"１３號","E_COORD97":167104.54000000001,"N_COORD97":2541353.5800000001,"ADDRESS":"金華路一段４２０巷１３號","OBJECTID":433670},"geometry":{"x":167104.5400000019,"y":2541353.5800000019}},{"attributes":{"ID":433696,"DIS_CODE":0,"TOWNNAME":"南區","LI":"明亮里","LIN":"23鄰","STREET":"金華路","SECT":"一段","MAREA":" ","LANE":"４２０巷","ALLEY":" ","HOUSE_NO":"２號","E_COORD97":167062.89999999999,"N_COORD97":2541360.48,"ADDRESS":"金華路一段４２０巷２號","OBJECTID":433671},"geometry":{"x":167062.90000000037,"y":2541360.4800000023}},{"attributes":{"ID":433697,"DIS_CODE":0,"TOWNNAME":"南區","LI":"明亮里","LIN":"23鄰","STREET":"金華路","SECT":"一段","MAREA":" ","LANE":"４２０巷","ALLEY":" ","HOUSE_NO":"３號","E_COORD97":167044.42000000001,"N_COORD97":2541373.7000000002,"ADDRESS":"金華路一段４２０巷３號","OBJECTID":433672},"geometry":{"x":167044.42000000086,"y":2541373.6999999993}},{"attributes":{"ID":433698,"DIS_CODE":0,"TOWNNAME":"南區","LI":"明亮里","LIN":"23鄰","STREET":"金華路","SECT":"一段","MAREA":" ","LANE":"４２０巷","ALLEY":" ","HOUSE_NO":"８號","E_COORD97":167136.95000000001,"N_COORD97":2541306.3300000001,"ADDRESS":"金華路一段４２０巷８號","OBJECTID":433673},"geometry":{"x":167136.95000000019,"y":2541306.3300000038}},{"attributes":{"ID":433699,"DIS_CODE":0,"TOWNNAME":"南區","LI":"興農里","LIN":"13鄰","STREET":"明興路","SECT":" ","MAREA":" ","LANE":"１０５５巷","ALLEY":" ","HOUSE_NO":"３號","E_COORD97":166321.07000000001,"N_COORD97":2536823.7400000002,"ADDRESS":"明興路１０５５巷３號","OBJECTID":433674},"geometry":{"x":166321.0700000003,"y":2536823.7400000002}},{"attributes":{"ID":433700,"DIS_CODE":0,"TOWNNAME":"南區","LI":"興農里","LIN":"13鄰","STREET":"明興路","SECT":" ","MAREA":" ","LANE":"１０５５巷","ALLEY":" ","HOUSE_NO":"５號","E_COORD97":166324.57999999999,"N_COORD97":2536827.0099999998,"ADDRESS":"明興路１０５５巷５號","OBJECTID":433675},"geometry":{"x":166324.58000000101,"y":2536827.0100000016}},{"attributes":{"ID":433701,"DIS_CODE":0,"TOWNNAME":"南區","LI":"興農里","LIN":"13鄰","STREET":"明興路","SECT":" ","MAREA":" ","LANE":"１０５５巷","ALLEY":" ","HOUSE_NO":"６號","E_COORD97":166344.32999999999,"N_COORD97":2536812.9199999999,"ADDRESS":"明興路１０５５巷６號","OBJECTID":433676},"geometry":{"x":166344.33000000007,"y":2536812.9199999999}},{"attributes":{"ID":433702,"DIS_CODE":0,"TOWNNAME":"南區","LI":"興農里","LIN":"13鄰","STREET":"明興路","SECT":" ","MAREA":" ","LANE":"１０５５巷","ALLEY":" ","HOUSE_NO":"７號","E_COORD97":166328.10000000001,"N_COORD97":2536829.8100000001,"ADDRESS":"明興路１０５５巷７號","OBJECTID":433677},"geometry":{"x":166328.09999999963,"y":2536829.8100000024}},{"attributes":{"ID":433703,"DIS_CODE":0,"TOWNNAME":"南區","LI":"興農里","LIN":"13鄰","STREET":"明興路","SECT":" ","MAREA":" ","LANE":"１０５５巷","ALLEY":" ","HOUSE_NO":"８號","E_COORD97":166348.35999999999,"N_COORD97":2536815.7999999998,"ADDRESS":"明興路１０５５巷８號","OBJECTID":433678},"geometry":{"x":166348.36000000127,"y":2536815.8000000026}},{"attributes":{"ID":433704,"DIS_CODE":0,"TOWNNAME":"南區","LI":"興農里","LIN":"13鄰","STREET":"明興路","SECT":" ","MAREA":" ","LANE":"１０５５巷","ALLEY":" ","HOUSE_NO":"９號","E_COORD97":166331.14000000001,"N_COORD97":2536833.3199999998,"ADDRESS":"明興路１０５５巷９號","OBJECTID":433679},"geometry":{"x":166331.1400000006,"y":2536833.3200000003}},{"attributes":{"ID":433705,"DIS_CODE":0,"TOWNNAME":"南區","LI":"再興里","LIN":"4鄰","STREET":"新慶街","SECT":" ","MAREA":" ","LANE":"１０巷","ALLEY":" ","HOUSE_NO":"１６號","E_COORD97":167296.87,"N_COORD97":2542387.9100000001,"ADDRESS":"新慶街１０巷１６號","OBJECTID":433680},"geometry":{"x":167296.87000000011,"y":2542387.910000002}},{"attributes":{"ID":433706,"DIS_CODE":0,"TOWNNAME":"玉井區","LI":"玉田里","LIN":"26鄰","STREET":"中山路","SECT":" ","MAREA":" ","LANE":"３巷","ALLEY":" ","HOUSE_NO":"３號","E_COORD97":194886.14999999999,"N_COORD97":2557734.25,"ADDRESS":"中山路３巷３號","OBJECTID":433681},"geometry":{"x":194886.15000000037,"y":2557734.2500000019}},{"attributes":{"ID":433707,"DIS_CODE":0,"TOWNNAME":"南區","LI":"明亮里","LIN":"20鄰","STREET":"金華路","SECT":"一段","MAREA":" ","LANE":"３３６巷","ALLEY":" ","HOUSE_NO":"７４號","E_COORD97":167126.76000000001,"N_COORD97":2541068.9900000002,"ADDRESS":"金華路一段３３６巷７４號","OBJECTID":433682},"geometry":{"x":167126.76000000071,"y":2541068.9900000021}},{"attributes":{"ID":433708,"DIS_CODE":0,"TOWNNAME":"南區","LI":"同安里","LIN":"14鄰","STREET":"明興路","SECT":" ","MAREA":" ","LANE":"１３６５巷","ALLEY":" ","HOUSE_NO":"１０號","E_COORD97":166417.73999999999,"N_COORD97":2535888.6699999999,"ADDRESS":"明興路１３６５巷１０號","OBJECTID":433683},"geometry":{"x":166417.74000000022,"y":2535888.6699999999}},{"attributes":{"ID":433709,"DIS_CODE":0,"TOWNNAME":"南區","LI":"新昌里","LIN":"4鄰","STREET":"大德街","SECT":" ","MAREA":" ","LANE":"１４１巷","ALLEY":" ","HOUSE_NO":"４６號","E_COORD97":167521.38,"N_COORD97":2542830.8799999999,"ADDRESS":"大德街１４１巷４６號","OBJECTID":433684},"geometry":{"x":167521.38000000082,"y":2542830.8800000008}},{"attributes":{"ID":433710,"DIS_CODE":0,"TOWNNAME":"南區","LI":"明興里","LIN":"20鄰","STREET":"金華路","SECT":"一段","MAREA":" ","LANE":"８４巷","ALLEY":" ","HOUSE_NO":"３４號","E_COORD97":167002.09,"N_COORD97":2540431.7599999998,"ADDRESS":"金華路一段８４巷３４號","OBJECTID":433685},"geometry":{"x":167002.08999999892,"y":2540431.7600000035}},{"attributes":{"ID":433711,"DIS_CODE":0,"TOWNNAME":"南區","LI":"明亮里","LIN":"20鄰","STREET":"金華路","SECT":"一段","MAREA":" ","LANE":"３３６巷","ALLEY":" ","HOUSE_NO":"７８號","E_COORD97":167137.31,"N_COORD97":2541059.73,"ADDRESS":"金華路一段３３６巷７８號","OBJECTID":433686},"geometry":{"x":167137.30999999959,"y":2541059.7299999986}},{"attributes":{"ID":433712,"DIS_CODE":0,"TOWNNAME":"南區","LI":"同安里","LIN":"15鄰","STREET":"明興路","SECT":" ","MAREA":" ","LANE":"１３９５巷","ALLEY":" ","HOUSE_NO":"２９號","E_COORD97":166452.72,"N_COORD97":2535831.48,"ADDRESS":"明興路１３９５巷２９號","OBJECTID":433687},"geometry":{"x":166452.72000000067,"y":2535831.4800000023}},{"attributes":{"ID":433713,"DIS_CODE":0,"TOWNNAME":"南區","LI":"同安里","LIN":"15鄰","STREET":"明興路","SECT":" ","MAREA":" ","LANE":"１３９５巷","ALLEY":" ","HOUSE_NO":"３０號","E_COORD97":166449.17000000001,"N_COORD97":2535812.7599999998,"ADDRESS":"明興路１３９５巷３０號","OBJECTID":433688},"geometry":{"x":166449.17000000179,"y":2535812.7599999998}},{"attributes":{"ID":433714,"DIS_CODE":0,"TOWNNAME":"南區","LI":"郡南里","LIN":"9鄰","STREET":"永成路","SECT":"三段","MAREA":" ","LANE":"１３７巷","ALLEY":" ","HOUSE_NO":"３號","E_COORD97":167472.26000000001,"N_COORD97":2540724.48,"ADDRESS":"永成路三段１３７巷３號","OBJECTID":433689},"geometry":{"x":167472.26000000164,"y":2540724.4800000004}},{"attributes":{"ID":433715,"DIS_CODE":0,"TOWNNAME":"南區","LI":"喜北里","LIN":"16鄰","STREET":"喜樹路","SECT":" ","MAREA":" ","LANE":"２２２巷","ALLEY":" ","HOUSE_NO":"１１７號","E_COORD97":165418.41,"N_COORD97":2538360.52,"ADDRESS":"喜樹路２２２巷１１７號","OBJECTID":433690},"geometry":{"x":165418.41000000015,"y":2538360.5199999996}},{"attributes":{"ID":433716,"DIS_CODE":0,"TOWNNAME":"南區","LI":"大忠里","LIN":"3鄰","STREET":"公英一街","SECT":" ","MAREA":" ","LANE":"１５巷","ALLEY":" ","HOUSE_NO":"２５號","E_COORD97":169485.91,"N_COORD97":2541186.3100000001,"ADDRESS":"公英一街１５巷２５號","OBJECTID":433691},"geometry":{"x":169485.91000000108,"y":2541186.3100000024}},{"attributes":{"ID":433717,"DIS_CODE":0,"TOWNNAME":"南區","LI":"建南里","LIN":"3鄰","STREET":"德興路","SECT":" ","MAREA":" ","LANE":"２３７巷","ALLEY":" ","HOUSE_NO":"１０號","E_COORD97":167255.79000000001,"N_COORD97":2540098.79,"ADDRESS":"德興路２３７巷１０號","OBJECTID":433692},"geometry":{"x":167255.79000000097,"y":2540098.7900000028}},{"attributes":{"ID":433718,"DIS_CODE":0,"TOWNNAME":"南區","LI":"建南里","LIN":"3鄰","STREET":"德興路","SECT":" ","MAREA":" ","LANE":"２３７巷","ALLEY":" ","HOUSE_NO":"１１號","E_COORD97":167261.67000000001,"N_COORD97":2540122.4199999999,"ADDRESS":"德興路２３７巷１１號","OBJECTID":433693},"geometry":{"x":167261.67000000086,"y":2540122.4200000037}},{"attributes":{"ID":433719,"DIS_CODE":0,"TOWNNAME":"南區","LI":"大忠里","LIN":"32鄰","STREET":"國民路","SECT":" ","MAREA":" ","LANE":"２７０巷","ALLEY":" ","HOUSE_NO":"１０９號之１","E_COORD97":169017.04999999999,"N_COORD97":2541486.1800000002,"ADDRESS":"國民路２７０巷１０９號之１","OBJECTID":433694},"geometry":{"x":169017.05000000075,"y":2541486.1799999997}},{"attributes":{"ID":433720,"DIS_CODE":0,"TOWNNAME":"南區","LI":"白雪里","LIN":"10鄰","STREET":"鹽埕路","SECT":" ","MAREA":" ","LANE":"１０３巷","ALLEY":" ","HOUSE_NO":"２９號","E_COORD97":166781.64999999999,"N_COORD97":2540756.8700000001,"ADDRESS":"鹽埕路１０３巷２９號","OBJECTID":433695},"geometry":{"x":166781.65000000037,"y":2540756.870000001}},{"attributes":{"ID":433721,"DIS_CODE":0,"TOWNNAME":"南區","LI":"白雪里","LIN":"10鄰","STREET":"鹽埕路","SECT":" ","MAREA":" ","LANE":"１０３巷","ALLEY":" ","HOUSE_NO":"２９號之１","E_COORD97":166797,"N_COORD97":2540746.0699999998,"ADDRESS":"鹽埕路１０３巷２９號之１","OBJECTID":433696},"geometry":{"x":166797,"y":2540746.0700000022}},{"attributes":{"ID":433722,"DIS_CODE":0,"TOWNNAME":"南區","LI":"白雪里","LIN":"10鄰","STREET":"鹽埕路","SECT":" ","MAREA":" ","LANE":"１０３巷","ALLEY":" ","HOUSE_NO":"２９號之１０","E_COORD97":166835.03,"N_COORD97":2540741.2599999998,"ADDRESS":"鹽埕路１０３巷２９號之１０","OBJECTID":433697},"geometry":{"x":166835.03000000026,"y":2540741.2600000016}},{"attributes":{"ID":433723,"DIS_CODE":0,"TOWNNAME":"南區","LI":"白雪里","LIN":"10鄰","STREET":"鹽埕路","SECT":" ","MAREA":" ","LANE":"１０３巷","ALLEY":" ","HOUSE_NO":"２９號之２","E_COORD97":166800.37,"N_COORD97":2540744.8700000001,"ADDRESS":"鹽埕路１０３巷２９號之２","OBJECTID":433698},"geometry":{"x":166800.37000000011,"y":2540744.8700000029}},{"attributes":{"ID":433724,"DIS_CODE":0,"TOWNNAME":"南區","LI":"白雪里","LIN":"10鄰","STREET":"鹽埕路","SECT":" ","MAREA":" ","LANE":"１０３巷","ALLEY":" ","HOUSE_NO":"２９號之３","E_COORD97":166804.94,"N_COORD97":2540744.8700000001,"ADDRESS":"鹽埕路１０３巷２９號之３","OBJECTID":433699},"geometry":{"x":166804.94000000041,"y":2540744.8700000029}},{"attributes":{"ID":433725,"DIS_CODE":0,"TOWNNAME":"南區","LI":"白雪里","LIN":"10鄰","STREET":"鹽埕路","SECT":" ","MAREA":" ","LANE":"１０３巷","ALLEY":" ","HOUSE_NO":"２９號之４","E_COORD97":166809.28,"N_COORD97":2540743.9100000001,"ADDRESS":"鹽埕路１０３巷２９號之４","OBJECTID":433700},"geometry":{"x":166809.28000000026,"y":2540743.910000002}},{"attributes":{"ID":433726,"DIS_CODE":0,"TOWNNAME":"南區","LI":"再興里","LIN":"4鄰","STREET":"新慶街","SECT":" ","MAREA":" ","LANE":"１０巷","ALLEY":" ","HOUSE_NO":"１２號","E_COORD97":167296.98000000001,"N_COORD97":2542380.0899999999,"ADDRESS":"新慶街１０巷１２號","OBJECTID":433701},"geometry":{"x":167296.98000000138,"y":2542380.0900000017}},{"attributes":{"ID":433727,"DIS_CODE":0,"TOWNNAME":"歸仁區","LI":"媽廟里","LIN":"4鄰","STREET":"和順路","SECT":"一段","MAREA":" ","LANE":"１１巷","ALLEY":" ","HOUSE_NO":"４０號","E_COORD97":177450.32000000001,"N_COORD97":2543649.7200000002,"ADDRESS":"和順路一段１１巷４０號","OBJECTID":433702},"geometry":{"x":177450.32000000216,"y":2543649.7200000007}},{"attributes":{"ID":433728,"DIS_CODE":0,"TOWNNAME":"歸仁區","LI":"歸南里","LIN":"20鄰","STREET":"民生八街","SECT":" ","MAREA":" ","LANE":"２８巷","ALLEY":" ","HOUSE_NO":"１７號","E_COORD97":176111.06,"N_COORD97":2540415.25,"ADDRESS":"民生八街２８巷１７號","OBJECTID":433703},"geometry":{"x":176111.06000000052,"y":2540415.2500000037}},{"attributes":{"ID":433729,"DIS_CODE":0,"TOWNNAME":"歸仁區","LI":"崙頂里","LIN":"4鄰","STREET":"信義南路","SECT":" ","MAREA":" ","LANE":"１７０巷","ALLEY":" ","HOUSE_NO":"１９號","E_COORD97":178044.23000000001,"N_COORD97":2540161.25,"ADDRESS":"信義南路１７０巷１９號","OBJECTID":433704},"geometry":{"x":178044.22999999952,"y":2540161.2500000019}},{"attributes":{"ID":433730,"DIS_CODE":0,"TOWNNAME":"歸仁區","LI":"看東里","LIN":"4鄰","STREET":"成功六街","SECT":" ","MAREA":" ","LANE":"３８巷","ALLEY":" ","HOUSE_NO":"４２號","E_COORD97":178474.28,"N_COORD97":2540222.8300000001,"ADDRESS":"成功六街３８巷４２號","OBJECTID":433705},"geometry":{"x":178474.27999999933,"y":2540222.8300000019}},{"attributes":{"ID":433731,"DIS_CODE":0,"TOWNNAME":"歸仁區","LI":"崙頂里","LIN":"26鄰","STREET":"成功十街","SECT":" ","MAREA":" ","LANE":"１３３巷","ALLEY":" ","HOUSE_NO":"１６號","E_COORD97":177732.92999999999,"N_COORD97":2539842.25,"ADDRESS":"成功十街１３３巷１６號","OBJECTID":433706},"geometry":{"x":177732.9299999997,"y":2539842.2500000037}},{"attributes":{"ID":433732,"DIS_CODE":0,"TOWNNAME":"歸仁區","LI":"崙頂里","LIN":"26鄰","STREET":"成功十街","SECT":" ","MAREA":" ","LANE":"６９巷","ALLEY":" ","HOUSE_NO":"３０號","E_COORD97":177759.17999999999,"N_COORD97":2539799.25,"ADDRESS":"成功十街６９巷３０號","OBJECTID":433707},"geometry":{"x":177759.18000000156,"y":2539799.2500000019}},{"attributes":{"ID":433733,"DIS_CODE":0,"TOWNNAME":"歸仁區","LI":"許厝里","LIN":"25鄰","STREET":"信義北路","SECT":" ","MAREA":" ","LANE":"３０巷","ALLEY":" ","HOUSE_NO":"５號","E_COORD97":178030.92999999999,"N_COORD97":2540812.23,"ADDRESS":"信義北路３０巷５號","OBJECTID":433708},"geometry":{"x":178030.93000000063,"y":2540812.2299999986}},{"attributes":{"ID":433734,"DIS_CODE":0,"TOWNNAME":"歸仁區","LI":"許厝里","LIN":"25鄰","STREET":"信義北路","SECT":" ","MAREA":" ","LANE":"３０巷","ALLEY":" ","HOUSE_NO":"９號","E_COORD97":178039.23000000001,"N_COORD97":2540818.23,"ADDRESS":"信義北路３０巷９號","OBJECTID":433709},"geometry":{"x":178039.23000000231,"y":2540818.2300000004}},{"attributes":{"ID":433735,"DIS_CODE":0,"TOWNNAME":"歸仁區","LI":"歸南里","LIN":"26鄰","STREET":"民生十街","SECT":" ","MAREA":" ","LANE":"１８巷","ALLEY":" ","HOUSE_NO":"３號","E_COORD97":176048.41,"N_COORD97":2540229.25,"ADDRESS":"民生十街１８巷３號","OBJECTID":433710},"geometry":{"x":176048.41000000015,"y":2540229.2500000019}},{"attributes":{"ID":433736,"DIS_CODE":0,"TOWNNAME":"歸仁區","LI":"辜厝里","LIN":"42鄰","STREET":"民權南路","SECT":" ","MAREA":" ","LANE":"１９１巷","ALLEY":" ","HOUSE_NO":"４７號","E_COORD97":177132.53,"N_COORD97":2540390.1200000001,"ADDRESS":"民權南路１９１巷４７號","OBJECTID":433711},"geometry":{"x":177132.53000000119,"y":2540390.1200000048}},{"attributes":{"ID":433737,"DIS_CODE":0,"TOWNNAME":"歸仁區","LI":"許厝里","LIN":"4鄰","STREET":"仁愛一街","SECT":" ","MAREA":" ","LANE":"３８巷","ALLEY":" ","HOUSE_NO":"６號","E_COORD97":178387.22,"N_COORD97":2540576.96,"ADDRESS":"仁愛一街３８巷６號","OBJECTID":433712},"geometry":{"x":178387.21999999974,"y":2540576.9600000009}},{"attributes":{"ID":433738,"DIS_CODE":0,"TOWNNAME":"歸仁區","LI":"辜厝里","LIN":"41鄰","STREET":"大吉街","SECT":" ","MAREA":" ","LANE":"１３０巷","ALLEY":" ","HOUSE_NO":"１２號","E_COORD97":177164.48999999999,"N_COORD97":2540506.6800000002,"ADDRESS":"大吉街１３０巷１２號","OBJECTID":433713},"geometry":{"x":177164.49000000115,"y":2540506.6799999978}},{"attributes":{"ID":433739,"DIS_CODE":0,"TOWNNAME":"歸仁區","LI":"六甲里","LIN":"36鄰","STREET":"六甲八街","SECT":" ","MAREA":" ","LANE":"１２巷","ALLEY":" ","HOUSE_NO":"５號","E_COORD97":175439.480564,"N_COORD97":2539326.3008900001,"ADDRESS":"六甲八街１２巷５號","OBJECTID":433714},"geometry":{"x":175439.48056400102,"y":2539326.3008900005}},{"attributes":{"ID":433740,"DIS_CODE":0,"TOWNNAME":"北區","LI":"華興里","LIN":"4鄰","STREET":"南園街","SECT":" ","MAREA":" ","LANE":"５４巷","ALLEY":" ","HOUSE_NO":"８號","E_COORD97":170480.28,"N_COORD97":2545415.9300000002,"ADDRESS":"南園街５４巷８號","OBJECTID":433715},"geometry":{"x":170480.28000000119,"y":2545415.9300000016}},{"attributes":{"ID":433741,"DIS_CODE":0,"TOWNNAME":"歸仁區","LI":"媽廟里","LIN":"14鄰","STREET":"媽廟二街","SECT":" ","MAREA":" ","LANE":"１５巷","ALLEY":" ","HOUSE_NO":"３３號","E_COORD97":177658.07999999999,"N_COORD97":2543834.7200000002,"ADDRESS":"媽廟二街１５巷３３號","OBJECTID":433716},"geometry":{"x":177658.08000000007,"y":2543834.7200000025}},{"attributes":{"ID":433742,"DIS_CODE":0,"TOWNNAME":"歸仁區","LI":"看東里","LIN":"4鄰","STREET":"成功六街","SECT":" ","MAREA":" ","LANE":"３８巷","ALLEY":" ","HOUSE_NO":"３２號","E_COORD97":178468.98000000001,"N_COORD97":2540203.8300000001,"ADDRESS":"成功六街３８巷３２號","OBJECTID":433717},"geometry":{"x":178468.98000000045,"y":2540203.8300000001}},{"attributes":{"ID":433743,"DIS_CODE":0,"TOWNNAME":"歸仁區","LI":"後市里","LIN":"38鄰","STREET":"民權三街","SECT":" ","MAREA":" ","LANE":"１１６巷","ALLEY":" ","HOUSE_NO":"８號","E_COORD97":177262.17999999999,"N_COORD97":2541037.75,"ADDRESS":"民權三街１１６巷８號","OBJECTID":433718},"geometry":{"x":177262.1799999997,"y":2541037.75}},{"attributes":{"ID":433744,"DIS_CODE":0,"TOWNNAME":"歸仁區","LI":"許厝里","LIN":"5鄰","STREET":"中山路","SECT":"一段","MAREA":" ","LANE":"３１９巷","ALLEY":" ","HOUSE_NO":"２０號","E_COORD97":178433.06,"N_COORD97":2540588.25,"ADDRESS":"中山路一段３１９巷２０號","OBJECTID":433719},"geometry":{"x":178433.06000000052,"y":2540588.2500000037}},{"attributes":{"ID":433745,"DIS_CODE":0,"TOWNNAME":"歸仁區","LI":"崙頂里","LIN":"24鄰","STREET":"崙頂二街","SECT":" ","MAREA":" ","LANE":"１７巷","ALLEY":" ","HOUSE_NO":"６號","E_COORD97":177789.42999999999,"N_COORD97":2539958.25,"ADDRESS":"崙頂二街１７巷６號","OBJECTID":433720},"geometry":{"x":177789.4299999997,"y":2539958.2500000019}},{"attributes":{"ID":433746,"DIS_CODE":0,"TOWNNAME":"歸仁區","LI":"看東里","LIN":"8鄰","STREET":"成功一街","SECT":" ","MAREA":" ","LANE":"１２７巷","ALLEY":" ","HOUSE_NO":"５７號","E_COORD97":178642.85000000001,"N_COORD97":2540054.4500000002,"ADDRESS":"成功一街１２７巷５７號","OBJECTID":433721},"geometry":{"x":178642.85000000149,"y":2540054.4500000011}},{"attributes":{"ID":433747,"DIS_CODE":0,"TOWNNAME":"歸仁區","LI":"許厝里","LIN":"25鄰","STREET":"中山路","SECT":"一段","MAREA":" ","LANE":"４３４巷","ALLEY":" ","HOUSE_NO":"９號","E_COORD97":178079.14999999999,"N_COORD97":2540769.9300000002,"ADDRESS":"中山路一段４３４巷９號","OBJECTID":433722},"geometry":{"x":178079.1500000013,"y":2540769.9300000016}},{"attributes":{"ID":433748,"DIS_CODE":0,"TOWNNAME":"歸仁區","LI":"許厝里","LIN":"38鄰","STREET":"公園路","SECT":" ","MAREA":" ","LANE":"６６巷","ALLEY":" ","HOUSE_NO":"１０號","E_COORD97":178039.59,"N_COORD97":2540563.2799999998,"ADDRESS":"公園路６６巷１０號","OBJECTID":433723},"geometry":{"x":178039.59000000171,"y":2540563.2799999975}},{"attributes":{"ID":433749,"DIS_CODE":0,"TOWNNAME":"歸仁區","LI":"歸南里","LIN":"18鄰","STREET":"民生八街","SECT":" ","MAREA":" ","LANE":"２８巷","ALLEY":" ","HOUSE_NO":"１４號","E_COORD97":176125.35999999999,"N_COORD97":2540403.25,"ADDRESS":"民生八街２８巷１４號","OBJECTID":433724},"geometry":{"x":176125.36000000034,"y":2540403.2500000019}},{"attributes":{"ID":433750,"DIS_CODE":0,"TOWNNAME":"歸仁區","LI":"崙頂里","LIN":"4鄰","STREET":"信義南路","SECT":" ","MAREA":" ","LANE":"１７０巷","ALLEY":" ","HOUSE_NO":"２３號","E_COORD97":178031.92999999999,"N_COORD97":2540158.25,"ADDRESS":"信義南路１７０巷２３號","OBJECTID":433725},"geometry":{"x":178031.92999999877,"y":2540158.2500000019}},{"attributes":{"ID":433751,"DIS_CODE":0,"TOWNNAME":"歸仁區","LI":"辜厝里","LIN":"41鄰","STREET":"大吉街","SECT":" ","MAREA":" ","LANE":"１３０巷","ALLEY":" ","HOUSE_NO":"１５號","E_COORD97":177171.59,"N_COORD97":2540494.6800000002,"ADDRESS":"大吉街１３０巷１５號","OBJECTID":433726},"geometry":{"x":177171.59000000171,"y":2540494.6800000016}},{"attributes":{"ID":433752,"DIS_CODE":0,"TOWNNAME":"歸仁區","LI":"許厝里","LIN":"5鄰","STREET":"中山路","SECT":"一段","MAREA":" ","LANE":"３１９巷","ALLEY":" ","HOUSE_NO":"２８號","E_COORD97":178422.76000000001,"N_COORD97":2540569.25,"ADDRESS":"中山路一段３１９巷２８號","OBJECTID":433727},"geometry":{"x":178422.75999999978,"y":2540569.2500000019}},{"attributes":{"ID":433753,"DIS_CODE":0,"TOWNNAME":"歸仁區","LI":"南保里","LIN":"5鄰","STREET":"文化街","SECT":"三段","MAREA":" ","LANE":"１８巷","ALLEY":" ","HOUSE_NO":"２８之１７號","E_COORD97":176897.97,"N_COORD97":2541332.2599999998,"ADDRESS":"文化街三段１８巷２８之１７號","OBJECTID":433728},"geometry":{"x":176897.97000000067,"y":2541332.2599999998}},{"attributes":{"ID":433754,"DIS_CODE":0,"TOWNNAME":"歸仁區","LI":"南興里","LIN":"18鄰","STREET":"南興街","SECT":" ","MAREA":" ","LANE":"２３１巷","ALLEY":" ","HOUSE_NO":"１號","E_COORD97":175644.81,"N_COORD97":2541369.25,"ADDRESS":"南興街２３１巷１號","OBJECTID":433729},"geometry":{"x":175644.81000000052,"y":2541369.2500000019}},{"attributes":{"ID":433755,"DIS_CODE":0,"TOWNNAME":"歸仁區","LI":"南保里","LIN":"20鄰","STREET":"文化街","SECT":"三段","MAREA":" ","LANE":"６１巷","ALLEY":" ","HOUSE_NO":"８號","E_COORD97":176879.97,"N_COORD97":2541205.2599999998,"ADDRESS":"文化街三段６１巷８號","OBJECTID":433730},"geometry":{"x":176879.96999999974,"y":2541205.2600000016}},{"attributes":{"ID":433756,"DIS_CODE":0,"TOWNNAME":"歸仁區","LI":"南保里","LIN":"4鄰","STREET":"文化六街","SECT":" ","MAREA":" ","LANE":"１０巷","ALLEY":" ","HOUSE_NO":"９號","E_COORD97":176832.01999999999,"N_COORD97":2541301.2599999998,"ADDRESS":"文化六街１０巷９號","OBJECTID":433731},"geometry":{"x":176832.01999999955,"y":2541301.2600000016}},{"attributes":{"ID":433757,"DIS_CODE":0,"TOWNNAME":"歸仁區","LI":"辜厝里","LIN":"20鄰","STREET":"中正南路","SECT":"一段","MAREA":" ","LANE":"１４８巷","ALLEY":" ","HOUSE_NO":"３號","E_COORD97":177422.16,"N_COORD97":2540462.9500000002,"ADDRESS":"中正南路一段１４８巷３號","OBJECTID":433732},"geometry":{"x":177422.16000000015,"y":2540462.9499999993}},{"attributes":{"ID":433758,"DIS_CODE":0,"TOWNNAME":"歸仁區","LI":"南保里","LIN":"26鄰","STREET":"民權六街","SECT":" ","MAREA":" ","LANE":"１８１巷","ALLEY":" ","HOUSE_NO":"３號","E_COORD97":176617.85999999999,"N_COORD97":2541083.25,"ADDRESS":"民權六街１８１巷３號","OBJECTID":433733},"geometry":{"x":176617.86000000127,"y":2541083.2500000037}},{"attributes":{"ID":433759,"DIS_CODE":0,"TOWNNAME":"歸仁區","LI":"南保里","LIN":"4鄰","STREET":"文化六街","SECT":" ","MAREA":" ","LANE":"１０巷","ALLEY":" ","HOUSE_NO":"２５號","E_COORD97":176865.89000000001,"N_COORD97":2541329.3300000001,"ADDRESS":"文化六街１０巷２５號","OBJECTID":433734},"geometry":{"x":176865.89000000153,"y":2541329.3300000001}},{"attributes":{"ID":433760,"DIS_CODE":0,"TOWNNAME":"歸仁區","LI":"辜厝里","LIN":"40鄰","STREET":"中正南路","SECT":"一段","MAREA":" ","LANE":"２１８巷","ALLEY":" ","HOUSE_NO":"１號","E_COORD97":177286.45999999999,"N_COORD97":2540346.25,"ADDRESS":"中正南路一段２１８巷１號","OBJECTID":433735},"geometry":{"x":177286.46000000089,"y":2540346.25}},{"attributes":{"ID":433761,"DIS_CODE":0,"TOWNNAME":"歸仁區","LI":"大潭里","LIN":"20鄰","STREET":"長榮路","SECT":"二段","MAREA":" ","LANE":"７５巷","ALLEY":" ","HOUSE_NO":"３６８號","E_COORD97":176521.32000000001,"N_COORD97":2535133.2799999998,"ADDRESS":"長榮路二段７５巷３６８號","OBJECTID":433736},"geometry":{"x":176521.32000000216,"y":2535133.2800000012}},{"attributes":{"ID":433762,"DIS_CODE":0,"TOWNNAME":"歸仁區","LI":"南興里","LIN":"25鄰","STREET":"文化二十街","SECT":" ","MAREA":" ","LANE":"１１２巷","ALLEY":" ","HOUSE_NO":"２７號","E_COORD97":175517.09,"N_COORD97":2541385.3300000001,"ADDRESS":"文化二十街１１２巷２７號","OBJECTID":433737},"geometry":{"x":175517.09000000171,"y":2541385.3300000019}},{"attributes":{"ID":433763,"DIS_CODE":0,"TOWNNAME":"歸仁區","LI":"六甲里","LIN":"20鄰","STREET":"中正南路","SECT":"一段","MAREA":" ","LANE":"７３０巷","ALLEY":" ","HOUSE_NO":"１２之１號","E_COORD97":176419.05018200001,"N_COORD97":2539724.287,"ADDRESS":"中正南路一段７３０巷１２之１號","OBJECTID":433738},"geometry":{"x":176419.05018200073,"y":2539724.2870010026}},{"attributes":{"ID":433764,"DIS_CODE":0,"TOWNNAME":"歸仁區","LI":"南興里","LIN":"25鄰","STREET":"文化二十街","SECT":" ","MAREA":" ","LANE":"１１２巷","ALLEY":" ","HOUSE_NO":"２５號","E_COORD97":175517.09,"N_COORD97":2541376.3300000001,"ADDRESS":"文化二十街１１２巷２５號","OBJECTID":433739},"geometry":{"x":175517.09000000171,"y":2541376.3300000001}},{"attributes":{"ID":433765,"DIS_CODE":0,"TOWNNAME":"歸仁區","LI":"南保里","LIN":"38鄰","STREET":"中山路","SECT":"三段","MAREA":" ","LANE":"１３８巷","ALLEY":" ","HOUSE_NO":"１５號","E_COORD97":176655.60999999999,"N_COORD97":2541028.2799999998,"ADDRESS":"中山路三段１３８巷１５號","OBJECTID":433740},"geometry":{"x":176655.61000000127,"y":2541028.2800000012}},{"attributes":{"ID":433766,"DIS_CODE":0,"TOWNNAME":"歸仁區","LI":"六甲里","LIN":"20鄰","STREET":"中正南路","SECT":"一段","MAREA":" ","LANE":"７３８巷","ALLEY":" ","HOUSE_NO":"１８號","E_COORD97":176411.63482199999,"N_COORD97":2539710.4228400001,"ADDRESS":"中正南路一段７３８巷１８號","OBJECTID":433741},"geometry":{"x":176411.63482199982,"y":2539710.4228419997}},{"attributes":{"ID":433767,"DIS_CODE":0,"TOWNNAME":"歸仁區","LI":"辜厝里","LIN":"32鄰","STREET":"中正南路","SECT":"一段","MAREA":" ","LANE":"２１６巷","ALLEY":" ","HOUSE_NO":"１７號","E_COORD97":177341.31,"N_COORD97":2540447.9399999999,"ADDRESS":"中正南路一段２１６巷１７號","OBJECTID":433742},"geometry":{"x":177341.31000000052,"y":2540447.9400000013}},{"attributes":{"ID":433768,"DIS_CODE":0,"TOWNNAME":"歸仁區","LI":"六甲里","LIN":"41鄰","STREET":"民生十二街","SECT":" ","MAREA":" ","LANE":"９巷","ALLEY":" ","HOUSE_NO":"１２號","E_COORD97":176073.35000000001,"N_COORD97":2539399.29,"ADDRESS":"民生十二街９巷１２號","OBJECTID":433743},"geometry":{"x":176073.35000000056,"y":2539399.2899999991}},{"attributes":{"ID":433769,"DIS_CODE":0,"TOWNNAME":"歸仁區","LI":"南保里","LIN":"59鄰","STREET":"中山路","SECT":"三段","MAREA":" ","LANE":"８１巷","ALLEY":" ","HOUSE_NO":"１１號","E_COORD97":176795.95999999999,"N_COORD97":2540838.2799999998,"ADDRESS":"中山路三段８１巷１１號","OBJECTID":433744},"geometry":{"x":176795.95999999996,"y":2540838.2800000031}},{"attributes":{"ID":433770,"DIS_CODE":0,"TOWNNAME":"歸仁區","LI":"南興里","LIN":"38鄰","STREET":"中山路","SECT":"三段","MAREA":" ","LANE":"４３６巷","ALLEY":" ","HOUSE_NO":"３３號","E_COORD97":175939.01000000001,"N_COORD97":2541072.2799999998,"ADDRESS":"中山路三段４３６巷３３號","OBJECTID":433745},"geometry":{"x":175939.00999999978,"y":2541072.2800000031}},{"attributes":{"ID":433771,"DIS_CODE":0,"TOWNNAME":"玉井區","LI":"玉田里","LIN":"40鄰","STREET":"和平街","SECT":" ","MAREA":" ","LANE":" ","ALLEY":" ","HOUSE_NO":"１５５號","E_COORD97":195324.04000000001,"N_COORD97":2557493.25,"ADDRESS":"和平街１５５號","OBJECTID":433746},"geometry":{"x":195324.04000000004,"y":2557493.2500000019}},{"attributes":{"ID":433772,"DIS_CODE":0,"TOWNNAME":"歸仁區","LI":"六甲里","LIN":"18鄰","STREET":"六甲三街","SECT":" ","MAREA":" ","LANE":"７巷","ALLEY":" ","HOUSE_NO":"１２號","E_COORD97":175579.37,"N_COORD97":2539171.25,"ADDRESS":"六甲三街７巷１２號","OBJECTID":433747},"geometry":{"x":175579.37000000011,"y":2539171.2500000019}},{"attributes":{"ID":433773,"DIS_CODE":0,"TOWNNAME":"歸仁區","LI":"大潭里","LIN":"20鄰","STREET":"長榮路","SECT":"二段","MAREA":" ","LANE":"１４５巷","ALLEY":" ","HOUSE_NO":"２００號","E_COORD97":177282.92999999999,"N_COORD97":2534871.25,"ADDRESS":"長榮路二段１４５巷２００號","OBJECTID":433748},"geometry":{"x":177282.93000000063,"y":2534871.25}},{"attributes":{"ID":433774,"DIS_CODE":0,"TOWNNAME":"歸仁區","LI":"六甲里","LIN":"25鄰","STREET":"中正南路","SECT":"一段","MAREA":" ","LANE":"９３０巷","ALLEY":" ","HOUSE_NO":"２６號","E_COORD97":176176.16,"N_COORD97":2539439.48,"ADDRESS":"中正南路一段９３０巷２６號","OBJECTID":433749},"geometry":{"x":176176.16000000015,"y":2539439.4800000004}},{"attributes":{"ID":433775,"DIS_CODE":0,"TOWNNAME":"歸仁區","LI":"大潭里","LIN":"20鄰","STREET":"長榮路","SECT":"二段","MAREA":" ","LANE":"１４５巷","ALLEY":" ","HOUSE_NO":"６００號","E_COORD97":178315.42999999999,"N_COORD97":2534766.25,"ADDRESS":"長榮路二段１４５巷６００號","OBJECTID":433750},"geometry":{"x":178315.43000000063,"y":2534766.25}},{"attributes":{"ID":433776,"DIS_CODE":0,"TOWNNAME":"歸仁區","LI":"南興里","LIN":"41鄰","STREET":"中山路","SECT":"三段","MAREA":" ","LANE":"４２９巷","ALLEY":" ","HOUSE_NO":"８號","E_COORD97":175771.16,"N_COORD97":2540978.2799999998,"ADDRESS":"中山路三段４２９巷８號","OBJECTID":433751},"geometry":{"x":175771.16000000201,"y":2540978.2800000012}},{"attributes":{"ID":433777,"DIS_CODE":0,"TOWNNAME":"歸仁區","LI":"辜厝里","LIN":"20鄰","STREET":"中正南路","SECT":"一段","MAREA":" ","LANE":"１４８巷","ALLEY":" ","HOUSE_NO":"６號","E_COORD97":177434.35999999999,"N_COORD97":2540460.9500000002,"ADDRESS":"中正南路一段１４８巷６號","OBJECTID":433752},"geometry":{"x":177434.36000000034,"y":2540460.9500000011}},{"attributes":{"ID":433778,"DIS_CODE":0,"TOWNNAME":"歸仁區","LI":"大潭里","LIN":"20鄰","STREET":"長榮路","SECT":"二段","MAREA":" ","LANE":"７５巷","ALLEY":" ","HOUSE_NO":"４７號","E_COORD97":176926.87,"N_COORD97":2534615.2799999998,"ADDRESS":"長榮路二段７５巷４７號","OBJECTID":433753},"geometry":{"x":176926.87000000011,"y":2534615.2799999993}},{"attributes":{"ID":433779,"DIS_CODE":0,"TOWNNAME":"歸仁區","LI":"南保里","LIN":"42鄰","STREET":"中山路","SECT":"三段","MAREA":" ","LANE":"１７０巷","ALLEY":" ","HOUSE_NO":"１３號","E_COORD97":176582.41,"N_COORD97":2540965.2799999998,"ADDRESS":"中山路三段１７０巷１３號","OBJECTID":433754},"geometry":{"x":176582.41000000015,"y":2540965.2799999993}},{"attributes":{"ID":433780,"DIS_CODE":0,"TOWNNAME":"歸仁區","LI":"南保里","LIN":"63鄰","STREET":"中山七街","SECT":" ","MAREA":" ","LANE":"７７巷","ALLEY":" ","HOUSE_NO":"２４號","E_COORD97":176638.79999999999,"N_COORD97":2540661.29,"ADDRESS":"中山七街７７巷２４號","OBJECTID":433755},"geometry":{"x":176638.79999999981,"y":2540661.2899999972}},{"attributes":{"ID":433781,"DIS_CODE":0,"TOWNNAME":"歸仁區","LI":"六甲里","LIN":"20鄰","STREET":"中正南路","SECT":"一段","MAREA":" ","LANE":"７３８巷","ALLEY":" ","HOUSE_NO":"６號","E_COORD97":176434.51650299999,"N_COORD97":2539704.39035,"ADDRESS":"中正南路一段７３８巷６號","OBJECTID":433756},"geometry":{"x":176434.5165029997,"y":2539704.3903449997}},{"attributes":{"ID":433782,"DIS_CODE":0,"TOWNNAME":"歸仁區","LI":"南興里","LIN":"41鄰","STREET":"中山路","SECT":"三段","MAREA":" ","LANE":"４２９巷","ALLEY":" ","HOUSE_NO":"９號","E_COORD97":175777.26000000001,"N_COORD97":2540962.2799999998,"ADDRESS":"中山路三段４２９巷９號","OBJECTID":433757},"geometry":{"x":175777.26000000071,"y":2540962.2799999993}},{"attributes":{"ID":433783,"DIS_CODE":0,"TOWNNAME":"歸仁區","LI":"南保里","LIN":"38鄰","STREET":"中山路","SECT":"三段","MAREA":" ","LANE":"１３８巷","ALLEY":" ","HOUSE_NO":"１７號","E_COORD97":176656.60999999999,"N_COORD97":2541031.2799999998,"ADDRESS":"中山路三段１３８巷１７號","OBJECTID":433758},"geometry":{"x":176656.6100000022,"y":2541031.2800000031}},{"attributes":{"ID":433784,"DIS_CODE":0,"TOWNNAME":"歸仁區","LI":"六甲里","LIN":"25鄰","STREET":"中正南路","SECT":"一段","MAREA":" ","LANE":"９３０巷","ALLEY":" ","HOUSE_NO":"８號","E_COORD97":176208.70999999999,"N_COORD97":2539429.48,"ADDRESS":"中正南路一段９３０巷８號","OBJECTID":433759},"geometry":{"x":176208.71000000089,"y":2539429.4800000004}},{"attributes":{"ID":433785,"DIS_CODE":0,"TOWNNAME":"歸仁區","LI":"辜厝里","LIN":"20鄰","STREET":"中正南路","SECT":"一段","MAREA":" ","LANE":"１４８巷","ALLEY":" ","HOUSE_NO":"２號","E_COORD97":177437.45999999999,"N_COORD97":2540455.9500000002,"ADDRESS":"中正南路一段１４８巷２號","OBJECTID":433760},"geometry":{"x":177437.46000000089,"y":2540455.9499999993}},{"attributes":{"ID":433786,"DIS_CODE":0,"TOWNNAME":"歸仁區","LI":"大潭里","LIN":"20鄰","STREET":"長榮路","SECT":"二段","MAREA":" ","LANE":"７５巷","ALLEY":" ","HOUSE_NO":"４２號","E_COORD97":176939.07000000001,"N_COORD97":2534592.2799999998,"ADDRESS":"長榮路二段７５巷４２號","OBJECTID":433761},"geometry":{"x":176939.07000000123,"y":2534592.2799999993}},{"attributes":{"ID":433787,"DIS_CODE":0,"TOWNNAME":"歸仁區","LI":"南興里","LIN":"25鄰","STREET":"文化二十街","SECT":" ","MAREA":" ","LANE":"１１２巷","ALLEY":" ","HOUSE_NO":"５號","E_COORD97":175490.23999999999,"N_COORD97":2541377.3300000001,"ADDRESS":"文化二十街１１２巷５號","OBJECTID":433762},"geometry":{"x":175490.24000000022,"y":2541377.3299999982}},{"attributes":{"ID":433788,"DIS_CODE":0,"TOWNNAME":"歸仁區","LI":"南興里","LIN":"25鄰","STREET":"文化二十街","SECT":" ","MAREA":" ","LANE":"１１２巷","ALLEY":" ","HOUSE_NO":"１７號","E_COORD97":175501.69,"N_COORD97":2541369.3300000001,"ADDRESS":"文化二十街１１２巷１７號","OBJECTID":433763},"geometry":{"x":175501.68999999948,"y":2541369.3300000001}},{"attributes":{"ID":433789,"DIS_CODE":0,"TOWNNAME":"歸仁區","LI":"南興里","LIN":"25鄰","STREET":"文化二十街","SECT":" ","MAREA":" ","LANE":"１１２巷","ALLEY":" ","HOUSE_NO":"１５號","E_COORD97":175501.69,"N_COORD97":2541376.3300000001,"ADDRESS":"文化二十街１１２巷１５號","OBJECTID":433764},"geometry":{"x":175501.68999999948,"y":2541376.3300000001}},{"attributes":{"ID":433790,"DIS_CODE":0,"TOWNNAME":"歸仁區","LI":"六甲里","LIN":"20鄰","STREET":"中正南路","SECT":"一段","MAREA":" ","LANE":"７３０巷","ALLEY":" ","HOUSE_NO":"１０號","E_COORD97":176431.974094,"N_COORD97":2539721.0061699999,"ADDRESS":"中正南路一段７３０巷１０號","OBJECTID":433765},"geometry":{"x":176431.97409400064,"y":2539721.0061690025}},{"attributes":{"ID":433791,"DIS_CODE":0,"TOWNNAME":"歸仁區","LI":"大潭里","LIN":"13鄰","STREET":"長榮路","SECT":"一段","MAREA":" ","LANE":"１６３巷","ALLEY":" ","HOUSE_NO":"１０號","E_COORD97":174985.10999999999,"N_COORD97":2534611.2799999998,"ADDRESS":"長榮路一段１６３巷１０號","OBJECTID":433766},"geometry":{"x":174985.1099999994,"y":2534611.2800000012}},{"attributes":{"ID":433792,"DIS_CODE":0,"TOWNNAME":"歸仁區","LI":"六甲里","LIN":"20鄰","STREET":"中正南路","SECT":"一段","MAREA":" ","LANE":"７３８巷","ALLEY":" ","HOUSE_NO":"２號","E_COORD97":176438.965719,"N_COORD97":2539703.6495099999,"ADDRESS":"中正南路一段７３８巷２號","OBJECTID":433767},"geometry":{"x":176438.96571900044,"y":2539703.6495120041}},{"attributes":{"ID":433793,"DIS_CODE":0,"TOWNNAME":"歸仁區","LI":"六甲里","LIN":"25鄰","STREET":"中正南路","SECT":"一段","MAREA":" ","LANE":"９３０巷","ALLEY":" ","HOUSE_NO":"２０號","E_COORD97":176186.45999999999,"N_COORD97":2539436.48,"ADDRESS":"中正南路一段９３０巷２０號","OBJECTID":433768},"geometry":{"x":176186.46000000089,"y":2539436.4800000004}},{"attributes":{"ID":433794,"DIS_CODE":0,"TOWNNAME":"歸仁區","LI":"南保里","LIN":"32鄰","STREET":"民權八街","SECT":" ","MAREA":" ","LANE":"４０巷","ALLEY":" ","HOUSE_NO":"１２號","E_COORD97":176867.34,"N_COORD97":2541014.29,"ADDRESS":"民權八街４０巷１２號","OBJECTID":433769},"geometry":{"x":176867.33999999985,"y":2541014.2900000028}},{"attributes":{"ID":433795,"DIS_CODE":0,"TOWNNAME":"歸仁區","LI":"武東里","LIN":"5鄰","STREET":"武東一街","SECT":" ","MAREA":" ","LANE":"１６巷","ALLEY":" ","HOUSE_NO":"２０號","E_COORD97":175495.48999999999,"N_COORD97":2535439.25,"ADDRESS":"武東一街１６巷２０號","OBJECTID":433770},"geometry":{"x":175495.49000000022,"y":2535439.2500000019}},{"attributes":{"ID":433796,"DIS_CODE":0,"TOWNNAME":"歸仁區","LI":"六甲里","LIN":"18鄰","STREET":"六甲三街","SECT":" ","MAREA":" ","LANE":"７巷","ALLEY":" ","HOUSE_NO":"２５號","E_COORD97":175619.17000000001,"N_COORD97":2539135.25,"ADDRESS":"六甲三街７巷２５號","OBJECTID":433771},"geometry":{"x":175619.17000000086,"y":2539135.2500000019}},{"attributes":{"ID":433797,"DIS_CODE":0,"TOWNNAME":"歸仁區","LI":"辜厝里","LIN":"32鄰","STREET":"中正南路","SECT":"一段","MAREA":" ","LANE":"２１６巷","ALLEY":" ","HOUSE_NO":"２５號","E_COORD97":177355.60999999999,"N_COORD97":2540440.9500000002,"ADDRESS":"中正南路一段２１６巷２５號","OBJECTID":433772},"geometry":{"x":177355.61000000127,"y":2540440.9500000011}},{"attributes":{"ID":433798,"DIS_CODE":0,"TOWNNAME":"歸仁區","LI":"六甲里","LIN":"25鄰","STREET":"中正南路","SECT":"一段","MAREA":" ","LANE":"９３０巷","ALLEY":" ","HOUSE_NO":"２８號","E_COORD97":176172.16,"N_COORD97":2539440.48,"ADDRESS":"中正南路一段９３０巷２８號","OBJECTID":433773},"geometry":{"x":176172.16000000015,"y":2539440.4800000004}},{"attributes":{"ID":433799,"DIS_CODE":0,"TOWNNAME":"歸仁區","LI":"六甲里","LIN":"39鄰","STREET":"六甲八街","SECT":" ","MAREA":" ","LANE":"１４９巷","ALLEY":" ","HOUSE_NO":"１６８號","E_COORD97":175267.70000000001,"N_COORD97":2539886.73,"ADDRESS":"六甲八街１４９巷１６８號","OBJECTID":433774},"geometry":{"x":175267.70000000112,"y":2539886.7299999986}},{"attributes":{"ID":433800,"DIS_CODE":0,"TOWNNAME":"歸仁區","LI":"六甲里","LIN":"39鄰","STREET":"六甲八街","SECT":" ","MAREA":" ","LANE":"１４９巷","ALLEY":" ","HOUSE_NO":"１３２號","E_COORD97":175257.29999999999,"N_COORD97":2539871.73,"ADDRESS":"六甲八街１４９巷１３２號","OBJECTID":433775},"geometry":{"x":175257.29999999981,"y":2539871.7300000004}},{"attributes":{"ID":433801,"DIS_CODE":0,"TOWNNAME":"歸仁區","LI":"六甲里","LIN":"25鄰","STREET":"中正南路","SECT":"一段","MAREA":" ","LANE":"９３０巷","ALLEY":" ","HOUSE_NO":"２２號","E_COORD97":176182.35999999999,"N_COORD97":2539437.48,"ADDRESS":"中正南路一段９３０巷２２號","OBJECTID":433776},"geometry":{"x":176182.36000000127,"y":2539437.4799999986}},{"attributes":{"ID":433802,"DIS_CODE":0,"TOWNNAME":"歸仁區","LI":"六甲里","LIN":"20鄰","STREET":"中正南路","SECT":"一段","MAREA":" ","LANE":"７３０巷","ALLEY":" ","HOUSE_NO":"１６號","E_COORD97":176413.54162900001,"N_COORD97":2539725.4511699998,"ADDRESS":"中正南路一段７３０巷１６號","OBJECTID":433777},"geometry":{"x":176413.5416290015,"y":2539725.4511670005}},{"attributes":{"ID":433803,"DIS_CODE":0,"TOWNNAME":"歸仁區","LI":"南興里","LIN":"41鄰","STREET":"中山路","SECT":"三段","MAREA":" ","LANE":"４２９巷","ALLEY":" ","HOUSE_NO":"２２號","E_COORD97":175773.31,"N_COORD97":2540953.2799999998,"ADDRESS":"中山路三段４２９巷２２號","OBJECTID":433778},"geometry":{"x":175773.31000000052,"y":2540953.2800000031}},{"attributes":{"ID":433804,"DIS_CODE":0,"TOWNNAME":"新市區","LI":"大營里","LIN":"18鄰","STREET":" ","SECT":" ","MAREA":"豐榮","LANE":" ","ALLEY":" ","HOUSE_NO":"２之１號","E_COORD97":178972.312428,"N_COORD97":2554510.2630099999,"ADDRESS":"豐榮２之１號","OBJECTID":433779},"geometry":{"x":178972.31242800131,"y":2554510.2630049996}},{"attributes":{"ID":433805,"DIS_CODE":0,"TOWNNAME":"歸仁區","LI":"六甲里","LIN":"41鄰","STREET":"民生十二街","SECT":" ","MAREA":" ","LANE":"９巷","ALLEY":" ","HOUSE_NO":"１４號","E_COORD97":176071.35000000001,"N_COORD97":2539394.29,"ADDRESS":"民生十二街９巷１４號","OBJECTID":433780},"geometry":{"x":176071.35000000056,"y":2539394.290000001}},{"attributes":{"ID":433806,"DIS_CODE":0,"TOWNNAME":"歸仁區","LI":"南興里","LIN":"4鄰","STREET":"文化十二街","SECT":" ","MAREA":" ","LANE":"３３巷","ALLEY":" ","HOUSE_NO":"２號","E_COORD97":176432.98999999999,"N_COORD97":2541294.3300000001,"ADDRESS":"文化十二街３３巷２號","OBJECTID":433781},"geometry":{"x":176432.99000000022,"y":2541294.3300000019}},{"attributes":{"ID":433807,"DIS_CODE":0,"TOWNNAME":"歸仁區","LI":"六甲里","LIN":"38鄰","STREET":"六甲八街","SECT":" ","MAREA":" ","LANE":"１４９巷","ALLEY":" ","HOUSE_NO":"４８號","E_COORD97":175271.416658,"N_COORD97":2539754.6612300002,"ADDRESS":"六甲八街１４９巷４８號","OBJECTID":433782},"geometry":{"x":175271.41665800195,"y":2539754.6612270009}},{"attributes":{"ID":433808,"DIS_CODE":0,"TOWNNAME":"歸仁區","LI":"六甲里","LIN":"25鄰","STREET":"中正南路","SECT":"一段","MAREA":" ","LANE":"９３０巷","ALLEY":" ","HOUSE_NO":"１８號","E_COORD97":176191.56,"N_COORD97":2539434.48,"ADDRESS":"中正南路一段９３０巷１８號","OBJECTID":433783},"geometry":{"x":176191.55999999959,"y":2539434.4800000042}},{"attributes":{"ID":433809,"DIS_CODE":0,"TOWNNAME":"歸仁區","LI":"南興里","LIN":"4鄰","STREET":"文化十二街","SECT":" ","MAREA":" ","LANE":"３３巷","ALLEY":" ","HOUSE_NO":"３號","E_COORD97":176420.69,"N_COORD97":2541299.3300000001,"ADDRESS":"文化十二街３３巷３號","OBJECTID":433784},"geometry":{"x":176420.69000000227,"y":2541299.3300000001}},{"attributes":{"ID":433810,"DIS_CODE":0,"TOWNNAME":"歸仁區","LI":"南興里","LIN":"32鄰","STREET":"民生北街","SECT":" ","MAREA":" ","LANE":"５０巷","ALLEY":" ","HOUSE_NO":"５１號","E_COORD97":176405.14000000001,"N_COORD97":2541075.29,"ADDRESS":"民生北街５０巷５１號","OBJECTID":433785},"geometry":{"x":176405.1400000006,"y":2541075.2900000028}},{"attributes":{"ID":433811,"DIS_CODE":0,"TOWNNAME":"歸仁區","LI":"六甲里","LIN":"25鄰","STREET":"中正南路","SECT":"一段","MAREA":" ","LANE":"９３０巷","ALLEY":" ","HOUSE_NO":"１４號","E_COORD97":176198.76000000001,"N_COORD97":2539432.48,"ADDRESS":"中正南路一段９３０巷１４號","OBJECTID":433786},"geometry":{"x":176198.75999999978,"y":2539432.4800000023}},{"attributes":{"ID":433812,"DIS_CODE":0,"TOWNNAME":"歸仁區","LI":"大潭里","LIN":"20鄰","STREET":"長榮路","SECT":"二段","MAREA":" ","LANE":"１４５巷","ALLEY":" ","HOUSE_NO":"２３號","E_COORD97":177038.07999999999,"N_COORD97":2534565.25,"ADDRESS":"長榮路二段１４５巷２３號","OBJECTID":433787},"geometry":{"x":177038.08000000194,"y":2534565.25}},{"attributes":{"ID":433813,"DIS_CODE":0,"TOWNNAME":"歸仁區","LI":"六甲里","LIN":"41鄰","STREET":"民生十二街","SECT":" ","MAREA":" ","LANE":"９巷","ALLEY":" ","HOUSE_NO":"２號","E_COORD97":176078.39999999999,"N_COORD97":2539415.29,"ADDRESS":"民生十二街９巷２號","OBJECTID":433788},"geometry":{"x":176078.40000000224,"y":2539415.290000001}},{"attributes":{"ID":433814,"DIS_CODE":0,"TOWNNAME":"歸仁區","LI":"大潭里","LIN":"13鄰","STREET":"長榮路","SECT":"一段","MAREA":" ","LANE":"１６３巷","ALLEY":" ","HOUSE_NO":"６號","E_COORD97":174985.76000000001,"N_COORD97":2534595.2799999998,"ADDRESS":"長榮路一段１６３巷６號","OBJECTID":433789},"geometry":{"x":174985.76000000071,"y":2534595.2799999993}},{"attributes":{"ID":433815,"DIS_CODE":0,"TOWNNAME":"歸仁區","LI":"文化里","LIN":"4鄰","STREET":"文化三街","SECT":" ","MAREA":" ","LANE":"５６巷","ALLEY":" ","HOUSE_NO":"６號","E_COORD97":177245.95999999999,"N_COORD97":2541309.3399999999,"ADDRESS":"文化三街５６巷６號","OBJECTID":433790},"geometry":{"x":177245.96000000089,"y":2541309.339999998}},{"attributes":{"ID":433816,"DIS_CODE":0,"TOWNNAME":"歸仁區","LI":"六甲里","LIN":"43鄰","STREET":"民生十二街","SECT":" ","MAREA":" ","LANE":"７１巷","ALLEY":" ","HOUSE_NO":"５２號","E_COORD97":175845.10000000001,"N_COORD97":2539345.7999999998,"ADDRESS":"民生十二街７１巷５２號","OBJECTID":433791},"geometry":{"x":175845.09999999963,"y":2539345.8000000026}},{"attributes":{"ID":433817,"DIS_CODE":0,"TOWNNAME":"歸仁區","LI":"六甲里","LIN":"43鄰","STREET":"民生十二街","SECT":" ","MAREA":" ","LANE":"７１巷","ALLEY":" ","HOUSE_NO":"２號","E_COORD97":175859.75,"N_COORD97":2539436.7999999998,"ADDRESS":"民生十二街７１巷２號","OBJECTID":433792},"geometry":{"x":175859.75,"y":2539436.8000000026}},{"attributes":{"ID":433818,"DIS_CODE":0,"TOWNNAME":"歸仁區","LI":"六甲里","LIN":"41鄰","STREET":"民生十二街","SECT":" ","MAREA":" ","LANE":"９巷","ALLEY":" ","HOUSE_NO":"２２號","E_COORD97":176066.14999999999,"N_COORD97":2539379.29,"ADDRESS":"民生十二街９巷２２號","OBJECTID":433793},"geometry":{"x":176066.15000000037,"y":2539379.2899999991}},{"attributes":{"ID":433819,"DIS_CODE":0,"TOWNNAME":"歸仁區","LI":"六甲里","LIN":"18鄰","STREET":"六甲三街","SECT":" ","MAREA":" ","LANE":"７巷","ALLEY":" ","HOUSE_NO":"１５號","E_COORD97":175603.87,"N_COORD97":2539154.25,"ADDRESS":"六甲三街７巷１５號","OBJECTID":433794},"geometry":{"x":175603.87000000104,"y":2539154.2500000019}},{"attributes":{"ID":433820,"DIS_CODE":0,"TOWNNAME":"歸仁區","LI":"六甲里","LIN":"42鄰","STREET":"民生十二街","SECT":" ","MAREA":" ","LANE":"７１巷","ALLEY":" ","HOUSE_NO":"４１號","E_COORD97":175880.89999999999,"N_COORD97":2539328.7999999998,"ADDRESS":"民生十二街７１巷４１號","OBJECTID":433795},"geometry":{"x":175880.90000000037,"y":2539328.8000000026}},{"attributes":{"ID":433821,"DIS_CODE":0,"TOWNNAME":"歸仁區","LI":"六甲里","LIN":"43鄰","STREET":"民生十二街","SECT":" ","MAREA":" ","LANE":"７１巷","ALLEY":" ","HOUSE_NO":"５６號","E_COORD97":175844,"N_COORD97":2539314.7999999998,"ADDRESS":"民生十二街７１巷５６號","OBJECTID":433796},"geometry":{"x":175844.00000000093,"y":2539314.8000000026}},{"attributes":{"ID":433822,"DIS_CODE":0,"TOWNNAME":"歸仁區","LI":"南保里","LIN":"63鄰","STREET":"中山七街","SECT":" ","MAREA":" ","LANE":"７７巷","ALLEY":" ","HOUSE_NO":"６號","E_COORD97":176624.25,"N_COORD97":2540664.29,"ADDRESS":"中山七街７７巷６號","OBJECTID":433797},"geometry":{"x":176624.25,"y":2540664.2899999991}},{"attributes":{"ID":433823,"DIS_CODE":0,"TOWNNAME":"歸仁區","LI":"六甲里","LIN":"25鄰","STREET":"中正南路","SECT":"一段","MAREA":" ","LANE":"９３０巷","ALLEY":" ","HOUSE_NO":"２號","E_COORD97":176216.91,"N_COORD97":2539424.48,"ADDRESS":"中正南路一段９３０巷２號","OBJECTID":433798},"geometry":{"x":176216.91000000015,"y":2539424.4800000023}},{"attributes":{"ID":433824,"DIS_CODE":0,"TOWNNAME":"歸仁區","LI":"六甲里","LIN":"18鄰","STREET":"六甲三街","SECT":" ","MAREA":" ","LANE":"７巷","ALLEY":" ","HOUSE_NO":"２７號","E_COORD97":175615.489573,"N_COORD97":2539119.7407200001,"ADDRESS":"六甲三街７巷２７號","OBJECTID":433799},"geometry":{"x":175615.489573,"y":2539119.7407180015}},{"attributes":{"ID":433825,"DIS_CODE":0,"TOWNNAME":"歸仁區","LI":"南保里","LIN":"32鄰","STREET":"民權八街","SECT":" ","MAREA":" ","LANE":"３０巷","ALLEY":" ","HOUSE_NO":"６號","E_COORD97":176898.79000000001,"N_COORD97":2540996.29,"ADDRESS":"民權八街３０巷６號","OBJECTID":433800},"geometry":{"x":176898.79000000004,"y":2540996.2899999991}}]}