{"displayFieldName":"TOWNNAME","fieldAliases":{"ID":"ID","DIS_CODE":"DIS_CODE","TOWNNAME":"TOWNNAME","LI":"LI","LIN":"LIN","STREET":"STREET","SECT":"SECT","MAREA":"MAREA","LANE":"LANE","ALLEY":"ALLEY","HOUSE_NO":"HOUSE_NO","E_COORD97":"E_COORD97","N_COORD97":"N_COORD97","ADDRESS":"ADDRESS","OBJECTID":"OBJECTID"},"geometryType":"esriGeometryPoint","spatialReference":{"wkid":102443,"latestWkid":3826},"fields":[{"name":"ID","type":"esriFieldTypeDouble","alias":"ID"},{"name":"DIS_CODE","type":"esriFieldTypeInteger","alias":"DIS_CODE"},{"name":"TOWNNAME","type":"esriFieldTypeString","alias":"TOWNNAME","length":8},{"name":"LI","type":"esriFieldTypeString","alias":"LI","length":8},{"name":"LIN","type":"esriFieldTypeString","alias":"LIN","length":12},{"name":"STREET","type":"esriFieldTypeString","alias":"STREET","length":20},{"name":"SECT","type":"esriFieldTypeString","alias":"SECT","length":8},{"name":"MAREA","type":"esriFieldTypeString","alias":"MAREA","length":12},{"name":"LANE","type":"esriFieldTypeString","alias":"LANE","length":10},{"name":"ALLEY","type":"esriFieldTypeString","alias":"ALLEY","length":10},{"name":"HOUSE_NO","type":"esriFieldTypeString","alias":"HOUSE_NO","length":20},{"name":"E_COORD97","type":"esriFieldTypeDouble","alias":"E_COORD97"},{"name":"N_COORD97","type":"esriFieldTypeDouble","alias":"N_COORD97"},{"name":"ADDRESS","type":"esriFieldTypeString","alias":"ADDRESS","length":50},{"name":"OBJECTID","type":"esriFieldTypeOID","alias":"OBJECTID"}],"features":[{"attributes":{"ID":118001,"DIS_CODE":0,"TOWNNAME":"新營區","LI":"新南里","LIN":"23鄰","STREET":"復興路","SECT":" ","MAREA":" ","LANE":"６２０巷","ALLEY":"１５弄","HOUSE_NO":"２６號四樓","E_COORD97":178012.25,"N_COORD97":2578429.4399999999,"ADDRESS":"復興路６２０巷１５弄２６號四樓","OBJECTID":118001},"geometry":{"x":178012.25000000093,"y":2578429.4399999976}},{"attributes":{"ID":118002,"DIS_CODE":0,"TOWNNAME":"新營區","LI":"新南里","LIN":"23鄰","STREET":"復興路","SECT":" ","MAREA":" ","LANE":"６２０巷","ALLEY":"３９弄","HOUSE_NO":"３３號五樓","E_COORD97":177953.14000000001,"N_COORD97":2578468.4900000002,"ADDRESS":"復興路６２０巷３９弄３３號五樓","OBJECTID":118002},"geometry":{"x":177953.1400000006,"y":2578468.4900000021}},{"attributes":{"ID":118003,"DIS_CODE":0,"TOWNNAME":"新營區","LI":"新南里","LIN":"23鄰","STREET":"復興路","SECT":" ","MAREA":" ","LANE":"６２０巷","ALLEY":"１５弄","HOUSE_NO":"２６號七樓","E_COORD97":178012.25,"N_COORD97":2578429.4399999999,"ADDRESS":"復興路６２０巷１５弄２６號七樓","OBJECTID":118003},"geometry":{"x":178012.25000000093,"y":2578429.4399999976}},{"attributes":{"ID":118004,"DIS_CODE":0,"TOWNNAME":"新營區","LI":"新南里","LIN":"23鄰","STREET":"復興路","SECT":" ","MAREA":" ","LANE":"６２０巷","ALLEY":"１５弄","HOUSE_NO":"１６號六樓","E_COORD97":178006.95000000001,"N_COORD97":2578403.9900000002,"ADDRESS":"復興路６２０巷１５弄１６號六樓","OBJECTID":118004},"geometry":{"x":178006.95000000205,"y":2578403.9900000021}},{"attributes":{"ID":118005,"DIS_CODE":0,"TOWNNAME":"新營區","LI":"新南里","LIN":"23鄰","STREET":"復興路","SECT":" ","MAREA":" ","LANE":"６２０巷","ALLEY":"１５弄","HOUSE_NO":"２６號五樓","E_COORD97":178012.25,"N_COORD97":2578429.4399999999,"ADDRESS":"復興路６２０巷１５弄２６號五樓","OBJECTID":118005},"geometry":{"x":178012.25000000093,"y":2578429.4399999976}},{"attributes":{"ID":118006,"DIS_CODE":0,"TOWNNAME":"新營區","LI":"新南里","LIN":"23鄰","STREET":"復興路","SECT":" ","MAREA":" ","LANE":"６２０巷","ALLEY":"１５弄","HOUSE_NO":"１６號七樓","E_COORD97":178006.95000000001,"N_COORD97":2578403.9900000002,"ADDRESS":"復興路６２０巷１５弄１６號七樓","OBJECTID":118006},"geometry":{"x":178006.95000000205,"y":2578403.9900000021}},{"attributes":{"ID":118007,"DIS_CODE":0,"TOWNNAME":"新營區","LI":"新南里","LIN":"23鄰","STREET":"復興路","SECT":" ","MAREA":" ","LANE":"６２０巷","ALLEY":"１５弄","HOUSE_NO":"１８號六樓","E_COORD97":178002.98999999999,"N_COORD97":2578430.5899999999,"ADDRESS":"復興路６２０巷１５弄１８號六樓","OBJECTID":118007},"geometry":{"x":178002.99000000022,"y":2578430.5900000017}},{"attributes":{"ID":118008,"DIS_CODE":0,"TOWNNAME":"新營區","LI":"新南里","LIN":"23鄰","STREET":"復興路","SECT":" ","MAREA":" ","LANE":"６２０巷","ALLEY":"１５弄","HOUSE_NO":"２８號三樓","E_COORD97":178015.32000000001,"N_COORD97":2578428.3199999998,"ADDRESS":"復興路６２０巷１５弄２８號三樓","OBJECTID":118008},"geometry":{"x":178015.32000000123,"y":2578428.3200000022}},{"attributes":{"ID":118009,"DIS_CODE":0,"TOWNNAME":"新營區","LI":"新南里","LIN":"23鄰","STREET":"復興路","SECT":" ","MAREA":" ","LANE":"６２０巷","ALLEY":"１５弄","HOUSE_NO":"１４號七樓","E_COORD97":177987.64000000001,"N_COORD97":2578430.6699999999,"ADDRESS":"復興路６２０巷１５弄１４號七樓","OBJECTID":118009},"geometry":{"x":177987.63999999966,"y":2578430.6699999999}},{"attributes":{"ID":118010,"DIS_CODE":0,"TOWNNAME":"南區","LI":"田寮里","LIN":"23鄰","STREET":"西門路","SECT":"一段","MAREA":" ","LANE":"３３３巷","ALLEY":"３１弄","HOUSE_NO":"１號二樓","E_COORD97":167608.26999999999,"N_COORD97":2541995.9700000002,"ADDRESS":"西門路一段３３３巷３１弄１號二樓","OBJECTID":118010},"geometry":{"x":167608.27000000048,"y":2541995.9700000025}},{"attributes":{"ID":118011,"DIS_CODE":0,"TOWNNAME":"南區","LI":"田寮里","LIN":"23鄰","STREET":"西門路","SECT":"一段","MAREA":" ","LANE":"３３３巷","ALLEY":"３１弄","HOUSE_NO":"１號三樓","E_COORD97":167608.26999999999,"N_COORD97":2541995.9700000002,"ADDRESS":"西門路一段３３３巷３１弄１號三樓","OBJECTID":118011},"geometry":{"x":167608.27000000048,"y":2541995.9700000025}},{"attributes":{"ID":118012,"DIS_CODE":0,"TOWNNAME":"南區","LI":"田寮里","LIN":"23鄰","STREET":"西門路","SECT":"一段","MAREA":" ","LANE":"３３３巷","ALLEY":"３１弄","HOUSE_NO":"１號五樓","E_COORD97":167608.26999999999,"N_COORD97":2541995.9700000002,"ADDRESS":"西門路一段３３３巷３１弄１號五樓","OBJECTID":118012},"geometry":{"x":167608.27000000048,"y":2541995.9700000025}},{"attributes":{"ID":118013,"DIS_CODE":0,"TOWNNAME":"南區","LI":"田寮里","LIN":"23鄰","STREET":"西門路","SECT":"一段","MAREA":" ","LANE":"３３３巷","ALLEY":"３１弄","HOUSE_NO":"１號四樓","E_COORD97":167608.26999999999,"N_COORD97":2541995.9700000002,"ADDRESS":"西門路一段３３３巷３１弄１號四樓","OBJECTID":118013},"geometry":{"x":167608.27000000048,"y":2541995.9700000025}},{"attributes":{"ID":118014,"DIS_CODE":0,"TOWNNAME":"南區","LI":"田寮里","LIN":"23鄰","STREET":"西門路","SECT":"一段","MAREA":" ","LANE":"３３３巷","ALLEY":"３１弄","HOUSE_NO":"３號二樓","E_COORD97":167605.85999999999,"N_COORD97":2542003.6299999999,"ADDRESS":"西門路一段３３３巷３１弄３號二樓","OBJECTID":118014},"geometry":{"x":167605.86000000034,"y":2542003.629999999}},{"attributes":{"ID":118015,"DIS_CODE":0,"TOWNNAME":"南區","LI":"田寮里","LIN":"23鄰","STREET":"西門路","SECT":"一段","MAREA":" ","LANE":"３３３巷","ALLEY":"３１弄","HOUSE_NO":"３號三樓","E_COORD97":167605.85999999999,"N_COORD97":2542003.6299999999,"ADDRESS":"西門路一段３３３巷３１弄３號三樓","OBJECTID":118015},"geometry":{"x":167605.86000000034,"y":2542003.629999999}},{"attributes":{"ID":118016,"DIS_CODE":0,"TOWNNAME":"南區","LI":"田寮里","LIN":"23鄰","STREET":"西門路","SECT":"一段","MAREA":" ","LANE":"３３３巷","ALLEY":"３１弄","HOUSE_NO":"３號五樓","E_COORD97":167605.85999999999,"N_COORD97":2542003.6299999999,"ADDRESS":"西門路一段３３３巷３１弄３號五樓","OBJECTID":118016},"geometry":{"x":167605.86000000034,"y":2542003.629999999}},{"attributes":{"ID":118017,"DIS_CODE":0,"TOWNNAME":"南區","LI":"田寮里","LIN":"23鄰","STREET":"西門路","SECT":"一段","MAREA":" ","LANE":"３３３巷","ALLEY":"３１弄","HOUSE_NO":"３號四樓","E_COORD97":167605.85999999999,"N_COORD97":2542003.6299999999,"ADDRESS":"西門路一段３３３巷３１弄３號四樓","OBJECTID":118017},"geometry":{"x":167605.86000000034,"y":2542003.629999999}},{"attributes":{"ID":118018,"DIS_CODE":0,"TOWNNAME":"南區","LI":"田寮里","LIN":"23鄰","STREET":"西門路","SECT":"一段","MAREA":" ","LANE":"３３３巷","ALLEY":"３１弄","HOUSE_NO":"５號二樓","E_COORD97":167603.91,"N_COORD97":2542011.8999999999,"ADDRESS":"西門路一段３３３巷３１弄５號二樓","OBJECTID":118018},"geometry":{"x":167603.91000000201,"y":2542011.9000000022}},{"attributes":{"ID":118019,"DIS_CODE":0,"TOWNNAME":"南區","LI":"田寮里","LIN":"23鄰","STREET":"西門路","SECT":"一段","MAREA":" ","LANE":"３３３巷","ALLEY":"３１弄","HOUSE_NO":"５號三樓","E_COORD97":167603.91,"N_COORD97":2542011.8999999999,"ADDRESS":"西門路一段３３３巷３１弄５號三樓","OBJECTID":118019},"geometry":{"x":167603.91000000201,"y":2542011.9000000022}},{"attributes":{"ID":118020,"DIS_CODE":0,"TOWNNAME":"新營區","LI":"新南里","LIN":"23鄰","STREET":"復興路","SECT":" ","MAREA":" ","LANE":"６２０巷","ALLEY":"１５弄","HOUSE_NO":"２６號三樓","E_COORD97":178012.25,"N_COORD97":2578429.4399999999,"ADDRESS":"復興路６２０巷１５弄２６號三樓","OBJECTID":118020},"geometry":{"x":178012.25000000093,"y":2578429.4399999976}},{"attributes":{"ID":118021,"DIS_CODE":0,"TOWNNAME":"新營區","LI":"新南里","LIN":"23鄰","STREET":"復興路","SECT":" ","MAREA":" ","LANE":"６２０巷","ALLEY":"１５弄","HOUSE_NO":"２２號三樓","E_COORD97":178008.16,"N_COORD97":2578429.46,"ADDRESS":"復興路６２０巷１５弄２２號三樓","OBJECTID":118021},"geometry":{"x":178008.16000000015,"y":2578429.4600000009}},{"attributes":{"ID":118022,"DIS_CODE":0,"TOWNNAME":"新營區","LI":"新南里","LIN":"23鄰","STREET":"復興路","SECT":" ","MAREA":" ","LANE":"６２０巷","ALLEY":"１５弄","HOUSE_NO":"１８號二樓","E_COORD97":178002.98999999999,"N_COORD97":2578430.5899999999,"ADDRESS":"復興路６２０巷１５弄１８號二樓","OBJECTID":118022},"geometry":{"x":178002.99000000022,"y":2578430.5900000017}},{"attributes":{"ID":118023,"DIS_CODE":0,"TOWNNAME":"新營區","LI":"新南里","LIN":"23鄰","STREET":"復興路","SECT":" ","MAREA":" ","LANE":"６２０巷","ALLEY":"１５弄","HOUSE_NO":"２０號七樓","E_COORD97":178005.10000000001,"N_COORD97":2578430.5800000001,"ADDRESS":"復興路６２０巷１５弄２０號七樓","OBJECTID":118023},"geometry":{"x":178005.09999999963,"y":2578430.5800000019}},{"attributes":{"ID":118024,"DIS_CODE":0,"TOWNNAME":"仁德區","LI":"成功里","LIN":"35鄰","STREET":"成功一街","SECT":" ","MAREA":" ","LANE":" ","ALLEY":" ","HOUSE_NO":"８５號","E_COORD97":170540.38,"N_COORD97":2540005.77,"ADDRESS":"成功一街８５號","OBJECTID":118024},"geometry":{"x":170540.38000000082,"y":2540005.7700000014}},{"attributes":{"ID":118025,"DIS_CODE":0,"TOWNNAME":"東區","LI":"南聖里","LIN":"15鄰","STREET":"裕信路","SECT":" ","MAREA":" ","LANE":" ","ALLEY":" ","HOUSE_NO":"１２２號","E_COORD97":172585.56,"N_COORD97":2543199.4300000002,"ADDRESS":"裕信路１２２號","OBJECTID":118025},"geometry":{"x":172585.55999999959,"y":2543199.4299999997}},{"attributes":{"ID":118026,"DIS_CODE":0,"TOWNNAME":"東區","LI":"關聖里","LIN":"21鄰","STREET":"裕善街","SECT":" ","MAREA":" ","LANE":" ","ALLEY":" ","HOUSE_NO":"３３號","E_COORD97":172772.62,"N_COORD97":2543087.6299999999,"ADDRESS":"裕善街３３號","OBJECTID":118026},"geometry":{"x":172772.62000000197,"y":2543087.6300000008}},{"attributes":{"ID":118027,"DIS_CODE":0,"TOWNNAME":"東區","LI":"南聖里","LIN":"16鄰","STREET":"裕信一街","SECT":" ","MAREA":" ","LANE":" ","ALLEY":" ","HOUSE_NO":"７號","E_COORD97":172638.28,"N_COORD97":2543255.9900000002,"ADDRESS":"裕信一街７號","OBJECTID":118027},"geometry":{"x":172638.28000000119,"y":2543255.9900000021}},{"attributes":{"ID":118028,"DIS_CODE":0,"TOWNNAME":"東區","LI":"南聖里","LIN":"16鄰","STREET":"裕信一街","SECT":" ","MAREA":" ","LANE":" ","ALLEY":" ","HOUSE_NO":"８１號","E_COORD97":172673.92999999999,"N_COORD97":2543321.9399999999,"ADDRESS":"裕信一街８１號","OBJECTID":118028},"geometry":{"x":172673.93000000063,"y":2543321.9399999995}},{"attributes":{"ID":118029,"DIS_CODE":0,"TOWNNAME":"新營區","LI":"新南里","LIN":"23鄰","STREET":"復興路","SECT":" ","MAREA":" ","LANE":"６２０巷","ALLEY":"１５弄","HOUSE_NO":"２４號二樓","E_COORD97":178010.20999999999,"N_COORD97":2578429.4500000002,"ADDRESS":"復興路６２０巷１５弄２４號二樓","OBJECTID":118029},"geometry":{"x":178010.21000000089,"y":2578429.450000003}},{"attributes":{"ID":118030,"DIS_CODE":0,"TOWNNAME":"新營區","LI":"新南里","LIN":"23鄰","STREET":"復興路","SECT":" ","MAREA":" ","LANE":"６２０巷","ALLEY":"１５弄","HOUSE_NO":"２４號七樓","E_COORD97":178010.20999999999,"N_COORD97":2578429.4500000002,"ADDRESS":"復興路６２０巷１５弄２４號七樓","OBJECTID":118030},"geometry":{"x":178010.21000000089,"y":2578429.450000003}},{"attributes":{"ID":118031,"DIS_CODE":0,"TOWNNAME":"東區","LI":"南聖里","LIN":"16鄰","STREET":"裕信一街","SECT":" ","MAREA":" ","LANE":" ","ALLEY":" ","HOUSE_NO":"８３號","E_COORD97":172668.85999999999,"N_COORD97":2543324.6499999999,"ADDRESS":"裕信一街８３號","OBJECTID":118031},"geometry":{"x":172668.86000000034,"y":2543324.6500000004}},{"attributes":{"ID":118032,"DIS_CODE":0,"TOWNNAME":"東區","LI":"南聖里","LIN":"16鄰","STREET":"裕信一街","SECT":" ","MAREA":" ","LANE":" ","ALLEY":" ","HOUSE_NO":"８５號","E_COORD97":172664.14000000001,"N_COORD97":2543320.29,"ADDRESS":"裕信一街８５號","OBJECTID":118032},"geometry":{"x":172664.1400000006,"y":2543320.290000001}},{"attributes":{"ID":118033,"DIS_CODE":0,"TOWNNAME":"東區","LI":"南聖里","LIN":"16鄰","STREET":"裕信一街","SECT":" ","MAREA":" ","LANE":" ","ALLEY":" ","HOUSE_NO":"８７號","E_COORD97":172657.07000000001,"N_COORD97":2543322.29,"ADDRESS":"裕信一街８７號","OBJECTID":118033},"geometry":{"x":172657.07000000123,"y":2543322.2899999991}},{"attributes":{"ID":118034,"DIS_CODE":0,"TOWNNAME":"東區","LI":"南聖里","LIN":"16鄰","STREET":"裕信一街","SECT":" ","MAREA":" ","LANE":" ","ALLEY":" ","HOUSE_NO":"９之１號","E_COORD97":172648.26000000001,"N_COORD97":2543256.1899999999,"ADDRESS":"裕信一街９之１號","OBJECTID":118034},"geometry":{"x":172648.26000000071,"y":2543256.1900000032}},{"attributes":{"ID":118035,"DIS_CODE":0,"TOWNNAME":"新營區","LI":"新南里","LIN":"23鄰","STREET":"復興路","SECT":" ","MAREA":" ","LANE":"６２０巷","ALLEY":"１５弄","HOUSE_NO":"２０號三樓","E_COORD97":178005.10000000001,"N_COORD97":2578430.5800000001,"ADDRESS":"復興路６２０巷１５弄２０號三樓","OBJECTID":118035},"geometry":{"x":178005.09999999963,"y":2578430.5800000019}},{"attributes":{"ID":118036,"DIS_CODE":0,"TOWNNAME":"新營區","LI":"新南里","LIN":"23鄰","STREET":"復興路","SECT":" ","MAREA":" ","LANE":"６２０巷","ALLEY":"１５弄","HOUSE_NO":"２２號二樓","E_COORD97":178008.16,"N_COORD97":2578429.46,"ADDRESS":"復興路６２０巷１５弄２２號二樓","OBJECTID":118036},"geometry":{"x":178008.16000000015,"y":2578429.4600000009}},{"attributes":{"ID":118037,"DIS_CODE":0,"TOWNNAME":"新營區","LI":"新南里","LIN":"23鄰","STREET":"復興路","SECT":" ","MAREA":" ","LANE":"６２０巷","ALLEY":"１５弄","HOUSE_NO":"２２號七樓","E_COORD97":178008.16,"N_COORD97":2578429.46,"ADDRESS":"復興路６２０巷１５弄２２號七樓","OBJECTID":118037},"geometry":{"x":178008.16000000015,"y":2578429.4600000009}},{"attributes":{"ID":118038,"DIS_CODE":0,"TOWNNAME":"新營區","LI":"新南里","LIN":"23鄰","STREET":"復興路","SECT":" ","MAREA":" ","LANE":"６２０巷","ALLEY":"１５弄","HOUSE_NO":"１６號二樓","E_COORD97":178006.95000000001,"N_COORD97":2578403.9900000002,"ADDRESS":"復興路６２０巷１５弄１６號二樓","OBJECTID":118038},"geometry":{"x":178006.95000000205,"y":2578403.9900000021}},{"attributes":{"ID":118039,"DIS_CODE":0,"TOWNNAME":"新營區","LI":"新南里","LIN":"23鄰","STREET":"復興路","SECT":" ","MAREA":" ","LANE":"６２０巷","ALLEY":"１５弄","HOUSE_NO":"１８號四樓","E_COORD97":178002.98999999999,"N_COORD97":2578430.5899999999,"ADDRESS":"復興路６２０巷１５弄１８號四樓","OBJECTID":118039},"geometry":{"x":178002.99000000022,"y":2578430.5900000017}},{"attributes":{"ID":118040,"DIS_CODE":0,"TOWNNAME":"新營區","LI":"新南里","LIN":"23鄰","STREET":"復興路","SECT":" ","MAREA":" ","LANE":"６２０巷","ALLEY":"１５弄","HOUSE_NO":"２２號六樓","E_COORD97":178008.16,"N_COORD97":2578429.46,"ADDRESS":"復興路６２０巷１５弄２２號六樓","OBJECTID":118040},"geometry":{"x":178008.16000000015,"y":2578429.4600000009}},{"attributes":{"ID":118041,"DIS_CODE":0,"TOWNNAME":"新營區","LI":"新南里","LIN":"23鄰","STREET":"復興路","SECT":" ","MAREA":" ","LANE":"６２０巷","ALLEY":"１５弄","HOUSE_NO":"１０號三樓","E_COORD97":177987.53,"N_COORD97":2578407.3999999999,"ADDRESS":"復興路６２０巷１５弄１０號三樓","OBJECTID":118041},"geometry":{"x":177987.53000000026,"y":2578407.4000000041}},{"attributes":{"ID":118042,"DIS_CODE":0,"TOWNNAME":"新營區","LI":"新南里","LIN":"23鄰","STREET":"復興路","SECT":" ","MAREA":" ","LANE":"６２０巷","ALLEY":"１５弄","HOUSE_NO":"１８號五樓","E_COORD97":178002.98999999999,"N_COORD97":2578430.5899999999,"ADDRESS":"復興路６２０巷１５弄１８號五樓","OBJECTID":118042},"geometry":{"x":178002.99000000022,"y":2578430.5900000017}},{"attributes":{"ID":118043,"DIS_CODE":0,"TOWNNAME":"新營區","LI":"新南里","LIN":"23鄰","STREET":"復興路","SECT":" ","MAREA":" ","LANE":"６２０巷","ALLEY":"１５弄","HOUSE_NO":"２８號七樓","E_COORD97":178015.32000000001,"N_COORD97":2578428.3199999998,"ADDRESS":"復興路６２０巷１５弄２８號七樓","OBJECTID":118043},"geometry":{"x":178015.32000000123,"y":2578428.3200000022}},{"attributes":{"ID":118044,"DIS_CODE":0,"TOWNNAME":"新營區","LI":"新南里","LIN":"23鄰","STREET":"復興路","SECT":" ","MAREA":" ","LANE":"６２０巷","ALLEY":"１５弄","HOUSE_NO":"２４號三樓","E_COORD97":178010.20999999999,"N_COORD97":2578429.4500000002,"ADDRESS":"復興路６２０巷１５弄２４號三樓","OBJECTID":118044},"geometry":{"x":178010.21000000089,"y":2578429.450000003}},{"attributes":{"ID":118045,"DIS_CODE":0,"TOWNNAME":"新營區","LI":"新南里","LIN":"23鄰","STREET":"復興路","SECT":" ","MAREA":" ","LANE":"６２０巷","ALLEY":"１５弄","HOUSE_NO":"２８號六樓","E_COORD97":178015.32000000001,"N_COORD97":2578428.3199999998,"ADDRESS":"復興路６２０巷１５弄２８號六樓","OBJECTID":118045},"geometry":{"x":178015.32000000123,"y":2578428.3200000022}},{"attributes":{"ID":118046,"DIS_CODE":0,"TOWNNAME":"新營區","LI":"新南里","LIN":"23鄰","STREET":"復興路","SECT":" ","MAREA":" ","LANE":"６２０巷","ALLEY":"１５弄","HOUSE_NO":"２４號四樓","E_COORD97":178010.20999999999,"N_COORD97":2578429.4500000002,"ADDRESS":"復興路６２０巷１５弄２４號四樓","OBJECTID":118046},"geometry":{"x":178010.21000000089,"y":2578429.450000003}},{"attributes":{"ID":118047,"DIS_CODE":0,"TOWNNAME":"永康區","LI":"正強里","LIN":"23鄰","STREET":"自強路","SECT":" ","MAREA":" ","LANE":"２５５巷","ALLEY":"６弄","HOUSE_NO":"９號","E_COORD97":173235.45000000001,"N_COORD97":2547651.5499999998,"ADDRESS":"自強路２５５巷６弄９號","OBJECTID":118047},"geometry":{"x":173235.45000000112,"y":2547651.5500000007}},{"attributes":{"ID":118048,"DIS_CODE":0,"TOWNNAME":"永康區","LI":"正強里","LIN":"23鄰","STREET":"自強路","SECT":" ","MAREA":" ","LANE":"２５５巷","ALLEY":"６弄","HOUSE_NO":"１９號","E_COORD97":173212.09,"N_COORD97":2547646.79,"ADDRESS":"自強路２５５巷６弄１９號","OBJECTID":118048},"geometry":{"x":173212.09000000078,"y":2547646.790000001}},{"attributes":{"ID":118049,"DIS_CODE":0,"TOWNNAME":"永康區","LI":"龍潭里","LIN":"23鄰","STREET":"自強路","SECT":" ","MAREA":" ","LANE":"７５０巷","ALLEY":"１８弄","HOUSE_NO":"１１號","E_COORD97":174450.85000000001,"N_COORD97":2548400.1200000001,"ADDRESS":"自強路７５０巷１８弄１１號","OBJECTID":118049},"geometry":{"x":174450.85000000056,"y":2548400.120000001}},{"attributes":{"ID":118050,"DIS_CODE":0,"TOWNNAME":"永康區","LI":"復興里","LIN":"23鄰","STREET":"復興路","SECT":" ","MAREA":" ","LANE":"２４６巷","ALLEY":"２７弄","HOUSE_NO":"８號","E_COORD97":172391.70000000001,"N_COORD97":2544505.77,"ADDRESS":"復興路２４６巷２７弄８號","OBJECTID":118050},"geometry":{"x":172391.70000000019,"y":2544505.7699999996}},{"attributes":{"ID":118051,"DIS_CODE":0,"TOWNNAME":"永康區","LI":"龍潭里","LIN":"23鄰","STREET":"自強路","SECT":" ","MAREA":" ","LANE":"７５０巷","ALLEY":"２８弄","HOUSE_NO":"２３號","E_COORD97":174528.35000000001,"N_COORD97":2548424.1699999999,"ADDRESS":"自強路７５０巷２８弄２３號","OBJECTID":118051},"geometry":{"x":174528.34999999963,"y":2548424.1700000018}},{"attributes":{"ID":118052,"DIS_CODE":0,"TOWNNAME":"東區","LI":"南聖里","LIN":"16鄰","STREET":"裕信一街","SECT":" ","MAREA":" ","LANE":" ","ALLEY":" ","HOUSE_NO":"９號","E_COORD97":172643.17000000001,"N_COORD97":2543259.6899999999,"ADDRESS":"裕信一街９號","OBJECTID":118052},"geometry":{"x":172643.16999999899,"y":2543259.6900000032}},{"attributes":{"ID":118053,"DIS_CODE":0,"TOWNNAME":"東區","LI":"關聖里","LIN":"13鄰","STREET":"裕英街","SECT":" ","MAREA":" ","LANE":" ","ALLEY":" ","HOUSE_NO":"１１號","E_COORD97":172078.29000000001,"N_COORD97":2543034.27,"ADDRESS":"裕英街１１號","OBJECTID":118053},"geometry":{"x":172078.29000000097,"y":2543034.2699999996}},{"attributes":{"ID":118054,"DIS_CODE":0,"TOWNNAME":"七股區","LI":"溪南里","LIN":"4鄰","STREET":" ","SECT":" ","MAREA":"溪南","LANE":" ","ALLEY":" ","HOUSE_NO":"３２號之２","E_COORD97":159686.12,"N_COORD97":2559447.23,"ADDRESS":"溪南３２號之２","OBJECTID":118054},"geometry":{"x":159686.12000000104,"y":2559447.2300000023}},{"attributes":{"ID":118055,"DIS_CODE":0,"TOWNNAME":"永康區","LI":"龍潭里","LIN":"23鄰","STREET":"自強路","SECT":" ","MAREA":" ","LANE":"７５０巷","ALLEY":"２８弄","HOUSE_NO":"３３號","E_COORD97":174537.57000000001,"N_COORD97":2548409.4500000002,"ADDRESS":"自強路７５０巷２８弄３３號","OBJECTID":118055},"geometry":{"x":174537.5700000003,"y":2548409.4499999993}},{"attributes":{"ID":118056,"DIS_CODE":0,"TOWNNAME":"永康區","LI":"龍潭里","LIN":"23鄰","STREET":"自強路","SECT":" ","MAREA":" ","LANE":"７５０巷","ALLEY":"６８弄","HOUSE_NO":"３５號","E_COORD97":174574.04000000001,"N_COORD97":2548403.8700000001,"ADDRESS":"自強路７５０巷６８弄３５號","OBJECTID":118056},"geometry":{"x":174574.04000000097,"y":2548403.8700000029}},{"attributes":{"ID":118057,"DIS_CODE":0,"TOWNNAME":"永康區","LI":"龍潭里","LIN":"23鄰","STREET":"自強路","SECT":" ","MAREA":" ","LANE":"７５０巷","ALLEY":"６８弄","HOUSE_NO":"５１號","E_COORD97":174569.32000000001,"N_COORD97":2548371.8700000001,"ADDRESS":"自強路７５０巷６８弄５１號","OBJECTID":118057},"geometry":{"x":174569.3200000003,"y":2548371.870000001}},{"attributes":{"ID":118058,"DIS_CODE":0,"TOWNNAME":"北區","LI":"實踐里","LIN":"17鄰","STREET":"實踐街","SECT":" ","MAREA":" ","LANE":" ","ALLEY":" ","HOUSE_NO":"４號","E_COORD97":169677.82999999999,"N_COORD97":2546119.73,"ADDRESS":"實踐街４號","OBJECTID":118058},"geometry":{"x":169677.83000000101,"y":2546119.7300000023}},{"attributes":{"ID":118059,"DIS_CODE":0,"TOWNNAME":"永康區","LI":"埔園里","LIN":"23鄰","STREET":"自強路","SECT":" ","MAREA":" ","LANE":"３７９巷","ALLEY":"５３弄","HOUSE_NO":"４號","E_COORD97":173571.54999999999,"N_COORD97":2548017.5099999998,"ADDRESS":"自強路３７９巷５３弄４號","OBJECTID":118059},"geometry":{"x":173571.55000000075,"y":2548017.5099999998}},{"attributes":{"ID":118060,"DIS_CODE":0,"TOWNNAME":"永康區","LI":"龍潭里","LIN":"23鄰","STREET":"自強路","SECT":" ","MAREA":" ","LANE":"７５０巷","ALLEY":"６８弄","HOUSE_NO":"３９號","E_COORD97":174573.09,"N_COORD97":2548395.8700000001,"ADDRESS":"自強路７５０巷６８弄３９號","OBJECTID":118060},"geometry":{"x":174573.09000000078,"y":2548395.870000001}},{"attributes":{"ID":118061,"DIS_CODE":0,"TOWNNAME":"永康區","LI":"龍潭里","LIN":"23鄰","STREET":"自強路","SECT":" ","MAREA":" ","LANE":"７５０巷","ALLEY":"６８弄","HOUSE_NO":"２之１號","E_COORD97":174558.51999999999,"N_COORD97":2548451.3900000001,"ADDRESS":"自強路７５０巷６８弄２之１號","OBJECTID":118061},"geometry":{"x":174558.52000000048,"y":2548451.3900000025}},{"attributes":{"ID":118062,"DIS_CODE":0,"TOWNNAME":"永康區","LI":"埔園里","LIN":"23鄰","STREET":"自強路","SECT":" ","MAREA":" ","LANE":"３７９巷","ALLEY":"５３弄","HOUSE_NO":"１０號","E_COORD97":173560.79999999999,"N_COORD97":2548013.7599999998,"ADDRESS":"自強路３７９巷５３弄１０號","OBJECTID":118062},"geometry":{"x":173560.79999999981,"y":2548013.7600000016}},{"attributes":{"ID":118063,"DIS_CODE":0,"TOWNNAME":"永康區","LI":"龍潭里","LIN":"23鄰","STREET":"自強路","SECT":" ","MAREA":" ","LANE":"７５０巷","ALLEY":"２８弄","HOUSE_NO":"１５號","E_COORD97":174511.81,"N_COORD97":2548426.4199999999,"ADDRESS":"自強路７５０巷２８弄１５號","OBJECTID":118063},"geometry":{"x":174511.81000000145,"y":2548426.4200000018}},{"attributes":{"ID":118064,"DIS_CODE":0,"TOWNNAME":"永康區","LI":"東橋里","LIN":"23鄰","STREET":"中正路","SECT":" ","MAREA":" ","LANE":"２１７巷","ALLEY":"３弄","HOUSE_NO":"６５號","E_COORD97":172841.41,"N_COORD97":2547837.5,"ADDRESS":"中正路２１７巷３弄６５號","OBJECTID":118064},"geometry":{"x":172841.41000000015,"y":2547837.5}},{"attributes":{"ID":118065,"DIS_CODE":0,"TOWNNAME":"東區","LI":"崇明里","LIN":"23鄰","STREET":"中華東路","SECT":"三段","MAREA":" ","LANE":"３９９巷","ALLEY":"１６弄","HOUSE_NO":"１９號","E_COORD97":169988.48999999999,"N_COORD97":2541484.6000000001,"ADDRESS":"中華東路三段３９９巷１６弄１９號","OBJECTID":118065},"geometry":{"x":169988.49000000209,"y":2541484.6000000015}},{"attributes":{"ID":118066,"DIS_CODE":0,"TOWNNAME":"東區","LI":"崇明里","LIN":"23鄰","STREET":"中華東路","SECT":"三段","MAREA":" ","LANE":"３９９巷","ALLEY":"１６弄","HOUSE_NO":"１號","E_COORD97":170057.87,"N_COORD97":2541501.04,"ADDRESS":"中華東路三段３９９巷１６弄１號","OBJECTID":118066},"geometry":{"x":170057.87000000011,"y":2541501.040000001}},{"attributes":{"ID":118067,"DIS_CODE":0,"TOWNNAME":"東區","LI":"崇明里","LIN":"23鄰","STREET":"中華東路","SECT":"三段","MAREA":" ","LANE":"３９９巷","ALLEY":"１６弄","HOUSE_NO":"２１號","E_COORD97":169979.82999999999,"N_COORD97":2541483.3900000001,"ADDRESS":"中華東路三段３９９巷１６弄２１號","OBJECTID":118067},"geometry":{"x":169979.83000000101,"y":2541483.3900000025}},{"attributes":{"ID":118068,"DIS_CODE":0,"TOWNNAME":"東區","LI":"崇明里","LIN":"23鄰","STREET":"中華東路","SECT":"三段","MAREA":" ","LANE":"３９９巷","ALLEY":"１６弄","HOUSE_NO":"２３號","E_COORD97":169970.98999999999,"N_COORD97":2541482,"ADDRESS":"中華東路三段３９９巷１６弄２３號","OBJECTID":118068},"geometry":{"x":169970.99000000022,"y":2541482.0000000019}},{"attributes":{"ID":118069,"DIS_CODE":0,"TOWNNAME":"東區","LI":"崇明里","LIN":"23鄰","STREET":"中華東路","SECT":"三段","MAREA":" ","LANE":"３９９巷","ALLEY":"１６弄","HOUSE_NO":"２５號","E_COORD97":169964.57000000001,"N_COORD97":2541479.0600000001,"ADDRESS":"中華東路三段３９９巷１６弄２５號","OBJECTID":118069},"geometry":{"x":169964.57000000123,"y":2541479.0600000024}},{"attributes":{"ID":118070,"DIS_CODE":0,"TOWNNAME":"東區","LI":"崇明里","LIN":"23鄰","STREET":"中華東路","SECT":"三段","MAREA":" ","LANE":"３９９巷","ALLEY":"１６弄","HOUSE_NO":"２７號","E_COORD97":169956.60000000001,"N_COORD97":2541477.5,"ADDRESS":"中華東路三段３９９巷１６弄２７號","OBJECTID":118070},"geometry":{"x":169956.60000000149,"y":2541477.5}},{"attributes":{"ID":118071,"DIS_CODE":0,"TOWNNAME":"東區","LI":"崇明里","LIN":"23鄰","STREET":"中華東路","SECT":"三段","MAREA":" ","LANE":"３９９巷","ALLEY":"１６弄","HOUSE_NO":"２９號","E_COORD97":169950.19,"N_COORD97":2541476.46,"ADDRESS":"中華東路三段３９９巷１６弄２９號","OBJECTID":118071},"geometry":{"x":169950.19000000134,"y":2541476.4600000028}},{"attributes":{"ID":118072,"DIS_CODE":0,"TOWNNAME":"東區","LI":"崇明里","LIN":"23鄰","STREET":"中華東路","SECT":"三段","MAREA":" ","LANE":"３９９巷","ALLEY":"１６弄","HOUSE_NO":"３１號","E_COORD97":169939.62,"N_COORD97":2541473.6899999999,"ADDRESS":"中華東路三段３９９巷１６弄３１號","OBJECTID":118072},"geometry":{"x":169939.62000000011,"y":2541473.6900000013}},{"attributes":{"ID":118073,"DIS_CODE":0,"TOWNNAME":"東區","LI":"崇明里","LIN":"23鄰","STREET":"中華東路","SECT":"三段","MAREA":" ","LANE":"３９９巷","ALLEY":"１６弄","HOUSE_NO":"３３號","E_COORD97":169920.13,"N_COORD97":2541450.7200000002,"ADDRESS":"中華東路三段３９９巷１６弄３３號","OBJECTID":118073},"geometry":{"x":169920.13000000082,"y":2541450.7200000025}},{"attributes":{"ID":118074,"DIS_CODE":0,"TOWNNAME":"東區","LI":"崇明里","LIN":"23鄰","STREET":"中華東路","SECT":"三段","MAREA":" ","LANE":"３９９巷","ALLEY":"１６弄","HOUSE_NO":"３５號","E_COORD97":169918.57000000001,"N_COORD97":2541455.0499999998,"ADDRESS":"中華東路三段３９９巷１６弄３５號","OBJECTID":118074},"geometry":{"x":169918.57000000216,"y":2541455.0500000045}},{"attributes":{"ID":118075,"DIS_CODE":0,"TOWNNAME":"東區","LI":"崇明里","LIN":"23鄰","STREET":"中華東路","SECT":"三段","MAREA":" ","LANE":"３９９巷","ALLEY":"１６弄","HOUSE_NO":"３７號","E_COORD97":169924.45999999999,"N_COORD97":2541465.4399999999,"ADDRESS":"中華東路三段３９９巷１６弄３７號","OBJECTID":118075},"geometry":{"x":169924.46000000089,"y":2541465.4400000013}},{"attributes":{"ID":118076,"DIS_CODE":0,"TOWNNAME":"東區","LI":"崇明里","LIN":"23鄰","STREET":"中華東路","SECT":"三段","MAREA":" ","LANE":"３９９巷","ALLEY":"１６弄","HOUSE_NO":"３９號","E_COORD97":169918.73999999999,"N_COORD97":2541465.6200000001,"ADDRESS":"中華東路三段３９９巷１６弄３９號","OBJECTID":118076},"geometry":{"x":169918.74000000022,"y":2541465.6200000029}},{"attributes":{"ID":118077,"DIS_CODE":0,"TOWNNAME":"北區","LI":"實踐里","LIN":"17鄰","STREET":"實踐街","SECT":" ","MAREA":" ","LANE":" ","ALLEY":" ","HOUSE_NO":"６號","E_COORD97":169677.82999999999,"N_COORD97":2546119.73,"ADDRESS":"實踐街６號","OBJECTID":118077},"geometry":{"x":169677.83000000101,"y":2546119.7300000023}},{"attributes":{"ID":118078,"DIS_CODE":0,"TOWNNAME":"七股區","LI":"溪南里","LIN":"4鄰","STREET":" ","SECT":" ","MAREA":"溪南","LANE":" ","ALLEY":" ","HOUSE_NO":"３２號之３","E_COORD97":159739.22,"N_COORD97":2559273.1800000002,"ADDRESS":"溪南３２號之３","OBJECTID":118078},"geometry":{"x":159739.22000000067,"y":2559273.1800000016}},{"attributes":{"ID":118079,"DIS_CODE":0,"TOWNNAME":"七股區","LI":"溪南里","LIN":"4鄰","STREET":" ","SECT":" ","MAREA":"溪南","LANE":" ","ALLEY":" ","HOUSE_NO":"３２號","E_COORD97":159787.63,"N_COORD97":2558750.6099999999,"ADDRESS":"溪南３２號","OBJECTID":118079},"geometry":{"x":159787.63000000082,"y":2558750.6100000031}},{"attributes":{"ID":118080,"DIS_CODE":0,"TOWNNAME":"七股區","LI":"溪南里","LIN":"4鄰","STREET":" ","SECT":" ","MAREA":"溪南","LANE":" ","ALLEY":" ","HOUSE_NO":"３３號","E_COORD97":159796.06,"N_COORD97":2558725.3999999999,"ADDRESS":"溪南３３號","OBJECTID":118080},"geometry":{"x":159796.06000000052,"y":2558725.4000000004}},{"attributes":{"ID":118081,"DIS_CODE":0,"TOWNNAME":"七股區","LI":"溪南里","LIN":"4鄰","STREET":" ","SECT":" ","MAREA":"溪南","LANE":" ","ALLEY":" ","HOUSE_NO":"３４號之１","E_COORD97":159778.04999999999,"N_COORD97":2558674.2400000002,"ADDRESS":"溪南３４號之１","OBJECTID":118081},"geometry":{"x":159778.05000000075,"y":2558674.2400000021}},{"attributes":{"ID":118082,"DIS_CODE":0,"TOWNNAME":"七股區","LI":"溪南里","LIN":"4鄰","STREET":" ","SECT":" ","MAREA":"溪南","LANE":" ","ALLEY":" ","HOUSE_NO":"３４號之２","E_COORD97":159785.32999999999,"N_COORD97":2558675.96,"ADDRESS":"溪南３４號之２","OBJECTID":118082},"geometry":{"x":159785.33000000007,"y":2558675.9600000028}},{"attributes":{"ID":118083,"DIS_CODE":0,"TOWNNAME":"七股區","LI":"溪南里","LIN":"4鄰","STREET":" ","SECT":" ","MAREA":"溪南","LANE":" ","ALLEY":" ","HOUSE_NO":"３４號之３","E_COORD97":159805.35999999999,"N_COORD97":2558681.0099999998,"ADDRESS":"溪南３４號之３","OBJECTID":118083},"geometry":{"x":159805.36000000127,"y":2558681.0100000016}},{"attributes":{"ID":118084,"DIS_CODE":0,"TOWNNAME":"七股區","LI":"溪南里","LIN":"4鄰","STREET":" ","SECT":" ","MAREA":"溪南","LANE":" ","ALLEY":" ","HOUSE_NO":"３５號之１","E_COORD97":159753.56,"N_COORD97":2558661.5600000001,"ADDRESS":"溪南３５號之１","OBJECTID":118084},"geometry":{"x":159753.56000000145,"y":2558661.5600000024}},{"attributes":{"ID":118085,"DIS_CODE":0,"TOWNNAME":"七股區","LI":"溪南里","LIN":"4鄰","STREET":" ","SECT":" ","MAREA":"溪南","LANE":" ","ALLEY":" ","HOUSE_NO":"３５號","E_COORD97":159749.14999999999,"N_COORD97":2558684.8300000001,"ADDRESS":"溪南３５號","OBJECTID":118085},"geometry":{"x":159749.1500000013,"y":2558684.8300000001}},{"attributes":{"ID":118086,"DIS_CODE":0,"TOWNNAME":"七股區","LI":"溪南里","LIN":"4鄰","STREET":" ","SECT":" ","MAREA":"溪南","LANE":" ","ALLEY":" ","HOUSE_NO":"４７號","E_COORD97":159569.10999999999,"N_COORD97":2558364.5499999998,"ADDRESS":"溪南４７號","OBJECTID":118086},"geometry":{"x":159569.1100000022,"y":2558364.5500000007}},{"attributes":{"ID":118087,"DIS_CODE":0,"TOWNNAME":"東區","LI":"崇明里","LIN":"23鄰","STREET":"中華東路","SECT":"三段","MAREA":" ","LANE":"３９９巷","ALLEY":"１６弄","HOUSE_NO":"３號","E_COORD97":170049.14999999999,"N_COORD97":2541498.9700000002,"ADDRESS":"中華東路三段３９９巷１６弄３號","OBJECTID":118087},"geometry":{"x":170049.1500000013,"y":2541498.9700000007}},{"attributes":{"ID":118088,"DIS_CODE":0,"TOWNNAME":"東區","LI":"崇明里","LIN":"23鄰","STREET":"中華東路","SECT":"三段","MAREA":" ","LANE":"３９９巷","ALLEY":"１６弄","HOUSE_NO":"４１號","E_COORD97":169913.20000000001,"N_COORD97":2541466.48,"ADDRESS":"中華東路三段３９９巷１６弄４１號","OBJECTID":118088},"geometry":{"x":169913.20000000112,"y":2541466.4800000023}},{"attributes":{"ID":118089,"DIS_CODE":0,"TOWNNAME":"北區","LI":"實踐里","LIN":"17鄰","STREET":"實踐街","SECT":" ","MAREA":" ","LANE":" ","ALLEY":" ","HOUSE_NO":"２號","E_COORD97":169677.82999999999,"N_COORD97":2546119.73,"ADDRESS":"實踐街２號","OBJECTID":118089},"geometry":{"x":169677.83000000101,"y":2546119.7300000023}},{"attributes":{"ID":118090,"DIS_CODE":0,"TOWNNAME":"北區","LI":"振興里","LIN":"1鄰","STREET":"開元路","SECT":" ","MAREA":" ","LANE":" ","ALLEY":" ","HOUSE_NO":"１４０號","E_COORD97":169976.13,"N_COORD97":2545246.21,"ADDRESS":"開元路１４０號","OBJECTID":118090},"geometry":{"x":169976.13000000082,"y":2545246.2100000009}},{"attributes":{"ID":118091,"DIS_CODE":0,"TOWNNAME":"北區","LI":"振興里","LIN":"1鄰","STREET":"開元路","SECT":" ","MAREA":" ","LANE":" ","ALLEY":" ","HOUSE_NO":"１４２號","E_COORD97":169980.34,"N_COORD97":2545247.7799999998,"ADDRESS":"開元路１４２號","OBJECTID":118091},"geometry":{"x":169980.33999999985,"y":2545247.7799999993}},{"attributes":{"ID":118092,"DIS_CODE":0,"TOWNNAME":"北區","LI":"振興里","LIN":"1鄰","STREET":"開元路","SECT":" ","MAREA":" ","LANE":" ","ALLEY":" ","HOUSE_NO":"１４４號","E_COORD97":169984.47,"N_COORD97":2545249.3199999998,"ADDRESS":"開元路１４４號","OBJECTID":118092},"geometry":{"x":169984.46999999974,"y":2545249.3200000003}},{"attributes":{"ID":118093,"DIS_CODE":0,"TOWNNAME":"北區","LI":"振興里","LIN":"1鄰","STREET":"開元路","SECT":" ","MAREA":" ","LANE":" ","ALLEY":" ","HOUSE_NO":"１４６號","E_COORD97":169987.31,"N_COORD97":2545252.0299999998,"ADDRESS":"開元路１４６號","OBJECTID":118093},"geometry":{"x":169987.31000000145,"y":2545252.0300000012}},{"attributes":{"ID":118094,"DIS_CODE":0,"TOWNNAME":"東區","LI":"關聖里","LIN":"13鄰","STREET":"裕英街","SECT":" ","MAREA":" ","LANE":" ","ALLEY":" ","HOUSE_NO":"１３號","E_COORD97":172083.35999999999,"N_COORD97":2543031.5099999998,"ADDRESS":"裕英街１３號","OBJECTID":118094},"geometry":{"x":172083.36000000127,"y":2543031.5100000016}},{"attributes":{"ID":118095,"DIS_CODE":0,"TOWNNAME":"東區","LI":"關聖里","LIN":"13鄰","STREET":"裕英街","SECT":" ","MAREA":" ","LANE":" ","ALLEY":" ","HOUSE_NO":"１５號","E_COORD97":172087.98999999999,"N_COORD97":2543035.4199999999,"ADDRESS":"裕英街１５號","OBJECTID":118095},"geometry":{"x":172087.99000000022,"y":2543035.4200000018}},{"attributes":{"ID":118096,"DIS_CODE":0,"TOWNNAME":"東區","LI":"關聖里","LIN":"13鄰","STREET":"裕英街","SECT":" ","MAREA":" ","LANE":" ","ALLEY":" ","HOUSE_NO":"１７號","E_COORD97":172092.78,"N_COORD97":2543032.2400000002,"ADDRESS":"裕英街１７號","OBJECTID":118096},"geometry":{"x":172092.78000000119,"y":2543032.2400000002}},{"attributes":{"ID":118097,"DIS_CODE":0,"TOWNNAME":"東區","LI":"崇明里","LIN":"23鄰","STREET":"中華東路","SECT":"三段","MAREA":" ","LANE":"３９９巷","ALLEY":"１６弄","HOUSE_NO":"４３號","E_COORD97":169909.56,"N_COORD97":2541464.3999999999,"ADDRESS":"中華東路三段３９９巷１６弄４３號","OBJECTID":118097},"geometry":{"x":169909.56000000052,"y":2541464.4000000004}},{"attributes":{"ID":118098,"DIS_CODE":0,"TOWNNAME":"東區","LI":"崇明里","LIN":"23鄰","STREET":"中華東路","SECT":"三段","MAREA":" ","LANE":"３９９巷","ALLEY":"１６弄","HOUSE_NO":"４５號","E_COORD97":169904.01000000001,"N_COORD97":2541463.02,"ADDRESS":"中華東路三段３９９巷１６弄４５號","OBJECTID":118098},"geometry":{"x":169904.00999999978,"y":2541463.0199999996}},{"attributes":{"ID":118099,"DIS_CODE":0,"TOWNNAME":"東區","LI":"崇明里","LIN":"23鄰","STREET":"中華東路","SECT":"三段","MAREA":" ","LANE":"３９９巷","ALLEY":"１６弄","HOUSE_NO":"４７號","E_COORD97":169899.32999999999,"N_COORD97":2541463.1899999999,"ADDRESS":"中華東路三段３９９巷１６弄４７號","OBJECTID":118099},"geometry":{"x":169899.33000000007,"y":2541463.1900000013}},{"attributes":{"ID":118100,"DIS_CODE":0,"TOWNNAME":"東區","LI":"崇明里","LIN":"23鄰","STREET":"中華東路","SECT":"三段","MAREA":" ","LANE":"３９９巷","ALLEY":"１６弄","HOUSE_NO":"４９號","E_COORD97":169895.35000000001,"N_COORD97":2541461.8100000001,"ADDRESS":"中華東路三段３９９巷１６弄４９號","OBJECTID":118100},"geometry":{"x":169895.34999999963,"y":2541461.8100000005}},{"attributes":{"ID":118101,"DIS_CODE":0,"TOWNNAME":"東區","LI":"崇明里","LIN":"23鄰","STREET":"中華東路","SECT":"三段","MAREA":" ","LANE":"３９９巷","ALLEY":"１６弄","HOUSE_NO":"５１號","E_COORD97":169890.14999999999,"N_COORD97":2541459.5499999998,"ADDRESS":"中華東路三段３９９巷１６弄５１號","OBJECTID":118101},"geometry":{"x":169890.15000000037,"y":2541459.5500000026}},{"attributes":{"ID":118102,"DIS_CODE":0,"TOWNNAME":"東區","LI":"崇明里","LIN":"23鄰","STREET":"中華東路","SECT":"三段","MAREA":" ","LANE":"３９９巷","ALLEY":"１６弄","HOUSE_NO":"５３號","E_COORD97":169885.12,"N_COORD97":2541460.4199999999,"ADDRESS":"中華東路三段３９９巷１６弄５３號","OBJECTID":118102},"geometry":{"x":169885.12000000011,"y":2541460.4199999999}},{"attributes":{"ID":118103,"DIS_CODE":0,"TOWNNAME":"東區","LI":"崇明里","LIN":"23鄰","STREET":"中華東路","SECT":"三段","MAREA":" ","LANE":"３９９巷","ALLEY":"１６弄","HOUSE_NO":"５５號","E_COORD97":169880.60999999999,"N_COORD97":2541458.6899999999,"ADDRESS":"中華東路三段３９９巷１６弄５５號","OBJECTID":118103},"geometry":{"x":169880.61000000034,"y":2541458.6899999995}},{"attributes":{"ID":118104,"DIS_CODE":0,"TOWNNAME":"東區","LI":"崇明里","LIN":"23鄰","STREET":"中華東路","SECT":"三段","MAREA":" ","LANE":"３９９巷","ALLEY":"１６弄","HOUSE_NO":"５７號","E_COORD97":169876.28,"N_COORD97":2541456.96,"ADDRESS":"中華東路三段３９９巷１６弄５７號","OBJECTID":118104},"geometry":{"x":169876.27999999933,"y":2541456.9600000028}},{"attributes":{"ID":118105,"DIS_CODE":0,"TOWNNAME":"東區","LI":"崇明里","LIN":"23鄰","STREET":"中華東路","SECT":"三段","MAREA":" ","LANE":"３９９巷","ALLEY":"１６弄","HOUSE_NO":"５９號","E_COORD97":169871.25,"N_COORD97":2541455.3999999999,"ADDRESS":"中華東路三段３９９巷１６弄５９號","OBJECTID":118105},"geometry":{"x":169871.25000000186,"y":2541455.4000000041}},{"attributes":{"ID":118106,"DIS_CODE":0,"TOWNNAME":"東區","LI":"崇明里","LIN":"23鄰","STREET":"中華東路","SECT":"三段","MAREA":" ","LANE":"３９９巷","ALLEY":"１６弄","HOUSE_NO":"５號","E_COORD97":170041.87,"N_COORD97":2541497.9399999999,"ADDRESS":"中華東路三段３９９巷１６弄５號","OBJECTID":118106},"geometry":{"x":170041.87000000104,"y":2541497.9399999995}},{"attributes":{"ID":118107,"DIS_CODE":0,"TOWNNAME":"東區","LI":"崇明里","LIN":"23鄰","STREET":"中華東路","SECT":"三段","MAREA":" ","LANE":"３９９巷","ALLEY":"１６弄","HOUSE_NO":"６１號","E_COORD97":169860.51000000001,"N_COORD97":2541453.8399999999,"ADDRESS":"中華東路三段３９９巷１６弄６１號","OBJECTID":118107},"geometry":{"x":169860.50999999978,"y":2541453.8399999999}},{"attributes":{"ID":118108,"DIS_CODE":0,"TOWNNAME":"東區","LI":"崇明里","LIN":"23鄰","STREET":"中華東路","SECT":"三段","MAREA":" ","LANE":"３９９巷","ALLEY":"１６弄","HOUSE_NO":"６３號","E_COORD97":169855.66,"N_COORD97":2541452.2799999998,"ADDRESS":"中華東路三段３９９巷１６弄６３號","OBJECTID":118108},"geometry":{"x":169855.66000000108,"y":2541452.2800000012}},{"attributes":{"ID":118109,"DIS_CODE":0,"TOWNNAME":"東區","LI":"關聖里","LIN":"13鄰","STREET":"裕英街","SECT":" ","MAREA":" ","LANE":" ","ALLEY":" ","HOUSE_NO":"１９號","E_COORD97":172097.85000000001,"N_COORD97":2543035.4199999999,"ADDRESS":"裕英街１９號","OBJECTID":118109},"geometry":{"x":172097.85000000056,"y":2543035.4200000018}},{"attributes":{"ID":118110,"DIS_CODE":0,"TOWNNAME":"東區","LI":"關聖里","LIN":"13鄰","STREET":"裕英街","SECT":" ","MAREA":" ","LANE":" ","ALLEY":" ","HOUSE_NO":"１號","E_COORD97":172053.66,"N_COORD97":2543031.0800000001,"ADDRESS":"裕英街１號","OBJECTID":118110},"geometry":{"x":172053.66000000201,"y":2543031.0800000019}},{"attributes":{"ID":118111,"DIS_CODE":0,"TOWNNAME":"七股區","LI":"溪南里","LIN":"7鄰","STREET":" ","SECT":" ","MAREA":"溪南","LANE":" ","ALLEY":" ","HOUSE_NO":"５９號","E_COORD97":159839.09,"N_COORD97":2557713.6000000001,"ADDRESS":"溪南５９號","OBJECTID":118111},"geometry":{"x":159839.09000000078,"y":2557713.6000000034}},{"attributes":{"ID":118112,"DIS_CODE":0,"TOWNNAME":"七股區","LI":"溪南里","LIN":"1鄰","STREET":" ","SECT":" ","MAREA":"溪南","LANE":" ","ALLEY":" ","HOUSE_NO":"５號之１０","E_COORD97":160301.82000000001,"N_COORD97":2558635.2999999998,"ADDRESS":"溪南５號之１０","OBJECTID":118112},"geometry":{"x":160301.82000000216,"y":2558635.2999999989}},{"attributes":{"ID":118113,"DIS_CODE":0,"TOWNNAME":"七股區","LI":"溪南里","LIN":"1鄰","STREET":" ","SECT":" ","MAREA":"溪南","LANE":" ","ALLEY":" ","HOUSE_NO":"５號之１６","E_COORD97":160410.85000000001,"N_COORD97":2558834.8300000001,"ADDRESS":"溪南５號之１６","OBJECTID":118113},"geometry":{"x":160410.8499999987,"y":2558834.8300000038}},{"attributes":{"ID":118114,"DIS_CODE":0,"TOWNNAME":"七股區","LI":"溪南里","LIN":"1鄰","STREET":" ","SECT":" ","MAREA":"溪南","LANE":" ","ALLEY":" ","HOUSE_NO":"５號之２０","E_COORD97":160448.48000000001,"N_COORD97":2558839.4399999999,"ADDRESS":"溪南５號之２０","OBJECTID":118114},"geometry":{"x":160448.48000000138,"y":2558839.4399999995}},{"attributes":{"ID":118115,"DIS_CODE":0,"TOWNNAME":"七股區","LI":"溪南里","LIN":"1鄰","STREET":" ","SECT":" ","MAREA":"溪南","LANE":" ","ALLEY":" ","HOUSE_NO":"５號之２","E_COORD97":160130.54999999999,"N_COORD97":2558671.7400000002,"ADDRESS":"溪南５號之２","OBJECTID":118115},"geometry":{"x":160130.55000000075,"y":2558671.7400000002}},{"attributes":{"ID":118116,"DIS_CODE":0,"TOWNNAME":"七股區","LI":"溪南里","LIN":"1鄰","STREET":" ","SECT":" ","MAREA":"溪南","LANE":" ","ALLEY":" ","HOUSE_NO":"５號之３０","E_COORD97":160862.51000000001,"N_COORD97":2558806.4199999999,"ADDRESS":"溪南５號之３０","OBJECTID":118116},"geometry":{"x":160862.50999999978,"y":2558806.4199999999}},{"attributes":{"ID":118117,"DIS_CODE":0,"TOWNNAME":"七股區","LI":"溪南里","LIN":"1鄰","STREET":" ","SECT":" ","MAREA":"溪南","LANE":" ","ALLEY":" ","HOUSE_NO":"５號之６","E_COORD97":160332.78,"N_COORD97":2558781.3599999999,"ADDRESS":"溪南５號之６","OBJECTID":118117},"geometry":{"x":160332.78000000119,"y":2558781.3599999994}},{"attributes":{"ID":118118,"DIS_CODE":0,"TOWNNAME":"東區","LI":"崇明里","LIN":"23鄰","STREET":"中華東路","SECT":"三段","MAREA":" ","LANE":"３９９巷","ALLEY":"１６弄","HOUSE_NO":"６５號","E_COORD97":169851.5,"N_COORD97":2541450.3799999999,"ADDRESS":"中華東路三段３９９巷１６弄６５號","OBJECTID":118118},"geometry":{"x":169851.50000000093,"y":2541450.379999999}},{"attributes":{"ID":118119,"DIS_CODE":0,"TOWNNAME":"東區","LI":"崇明里","LIN":"23鄰","STREET":"中華東路","SECT":"三段","MAREA":" ","LANE":"３９９巷","ALLEY":"１６弄","HOUSE_NO":"６７號","E_COORD97":169845.95000000001,"N_COORD97":2541451.7599999998,"ADDRESS":"中華東路三段３９９巷１６弄６７號","OBJECTID":118119},"geometry":{"x":169845.95000000019,"y":2541451.7599999998}},{"attributes":{"ID":118120,"DIS_CODE":0,"TOWNNAME":"東區","LI":"崇明里","LIN":"23鄰","STREET":"中華東路","SECT":"三段","MAREA":" ","LANE":"３９９巷","ALLEY":"１６弄","HOUSE_NO":"６９號","E_COORD97":169842.66,"N_COORD97":2541449.6800000002,"ADDRESS":"中華東路三段３９９巷１６弄６９號","OBJECTID":118120},"geometry":{"x":169842.66000000015,"y":2541449.6800000034}},{"attributes":{"ID":118121,"DIS_CODE":0,"TOWNNAME":"七股區","LI":"義合里","LIN":"1鄰","STREET":" ","SECT":" ","MAREA":"義合","LANE":" ","ALLEY":" ","HOUSE_NO":"２號之１０","E_COORD97":163081.85999999999,"N_COORD97":2556402.5499999998,"ADDRESS":"義合２號之１０","OBJECTID":118121},"geometry":{"x":163081.86000000127,"y":2556402.5500000007}},{"attributes":{"ID":118122,"DIS_CODE":0,"TOWNNAME":"東區","LI":"崇明里","LIN":"23鄰","STREET":"中華東路","SECT":"三段","MAREA":" ","LANE":"３９９巷","ALLEY":"１６弄","HOUSE_NO":"７１號","E_COORD97":169836.76999999999,"N_COORD97":2541447.7799999998,"ADDRESS":"中華東路三段３９９巷１６弄７１號","OBJECTID":118122},"geometry":{"x":169836.77000000142,"y":2541447.7799999993}},{"attributes":{"ID":118123,"DIS_CODE":0,"TOWNNAME":"東區","LI":"崇明里","LIN":"23鄰","STREET":"中華東路","SECT":"三段","MAREA":" ","LANE":"３９９巷","ALLEY":"１６弄","HOUSE_NO":"７３號","E_COORD97":169832.09,"N_COORD97":2541447.0899999999,"ADDRESS":"中華東路三段３９９巷１６弄７３號","OBJECTID":118123},"geometry":{"x":169832.09000000078,"y":2541447.0900000017}},{"attributes":{"ID":118124,"DIS_CODE":0,"TOWNNAME":"東區","LI":"崇明里","LIN":"23鄰","STREET":"中華東路","SECT":"三段","MAREA":" ","LANE":"３９９巷","ALLEY":"１６弄","HOUSE_NO":"７５號","E_COORD97":169827.57999999999,"N_COORD97":2541445.7000000002,"ADDRESS":"中華東路三段３９９巷１６弄７５號","OBJECTID":118124},"geometry":{"x":169827.58000000007,"y":2541445.7000000011}},{"attributes":{"ID":118125,"DIS_CODE":0,"TOWNNAME":"東區","LI":"崇明里","LIN":"23鄰","STREET":"中華東路","SECT":"三段","MAREA":" ","LANE":"３９９巷","ALLEY":"１６弄","HOUSE_NO":"７７號","E_COORD97":169822.89999999999,"N_COORD97":2541444.6600000001,"ADDRESS":"中華東路三段３９９巷１６弄７７號","OBJECTID":118125},"geometry":{"x":169822.90000000037,"y":2541444.660000002}},{"attributes":{"ID":118126,"DIS_CODE":0,"TOWNNAME":"北區","LI":"國姓里","LIN":"1鄰","STREET":"公園路","SECT":" ","MAREA":" ","LANE":" ","ALLEY":" ","HOUSE_NO":"４０９號","E_COORD97":169000.23999999999,"N_COORD97":2545272.9100000001,"ADDRESS":"公園路４０９號","OBJECTID":118126},"geometry":{"x":169000.24000000209,"y":2545272.9100000039}},{"attributes":{"ID":118127,"DIS_CODE":0,"TOWNNAME":"安平區","LI":"育平里","LIN":"35鄰","STREET":"郡平路","SECT":" ","MAREA":" ","LANE":" ","ALLEY":" ","HOUSE_NO":"２９８號二樓","E_COORD97":164363.31,"N_COORD97":2543389.27,"ADDRESS":"郡平路２９８號二樓","OBJECTID":118127},"geometry":{"x":164363.31000000052,"y":2543389.2700000014}},{"attributes":{"ID":118128,"DIS_CODE":0,"TOWNNAME":"東區","LI":"崇明里","LIN":"23鄰","STREET":"中華東路","SECT":"三段","MAREA":" ","LANE":"３９９巷","ALLEY":"１６弄","HOUSE_NO":"７９號","E_COORD97":169818.04999999999,"N_COORD97":2541442.5800000001,"ADDRESS":"中華東路三段３９９巷１６弄７９號","OBJECTID":118128},"geometry":{"x":169818.05000000168,"y":2541442.5800000001}},{"attributes":{"ID":118129,"DIS_CODE":0,"TOWNNAME":"安平區","LI":"育平里","LIN":"35鄰","STREET":"郡平路","SECT":" ","MAREA":" ","LANE":" ","ALLEY":" ","HOUSE_NO":"２９８號四樓","E_COORD97":164363.31,"N_COORD97":2543389.27,"ADDRESS":"郡平路２９８號四樓","OBJECTID":118129},"geometry":{"x":164363.31000000052,"y":2543389.2700000014}},{"attributes":{"ID":118130,"DIS_CODE":0,"TOWNNAME":"安平區","LI":"育平里","LIN":"35鄰","STREET":"郡平路","SECT":" ","MAREA":" ","LANE":" ","ALLEY":" ","HOUSE_NO":"２９８號五樓","E_COORD97":164363.31,"N_COORD97":2543389.27,"ADDRESS":"郡平路２９８號五樓","OBJECTID":118130},"geometry":{"x":164363.31000000052,"y":2543389.2700000014}},{"attributes":{"ID":118131,"DIS_CODE":0,"TOWNNAME":"東區","LI":"關聖里","LIN":"13鄰","STREET":"裕英街","SECT":" ","MAREA":" ","LANE":" ","ALLEY":" ","HOUSE_NO":"２１號","E_COORD97":172102.48000000001,"N_COORD97":2543031.7999999998,"ADDRESS":"裕英街２１號","OBJECTID":118131},"geometry":{"x":172102.48000000045,"y":2543031.8000000007}},{"attributes":{"ID":118132,"DIS_CODE":0,"TOWNNAME":"東區","LI":"關聖里","LIN":"13鄰","STREET":"裕英街","SECT":" ","MAREA":" ","LANE":" ","ALLEY":" ","HOUSE_NO":"２３號","E_COORD97":172107.26000000001,"N_COORD97":2543034.7000000002,"ADDRESS":"裕英街２３號","OBJECTID":118132},"geometry":{"x":172107.26000000071,"y":2543034.6999999993}},{"attributes":{"ID":118133,"DIS_CODE":0,"TOWNNAME":"東區","LI":"關聖里","LIN":"13鄰","STREET":"裕英街","SECT":" ","MAREA":" ","LANE":" ","ALLEY":" ","HOUSE_NO":"２５號","E_COORD97":172112.32999999999,"N_COORD97":2543031.0800000001,"ADDRESS":"裕英街２５號","OBJECTID":118133},"geometry":{"x":172112.33000000101,"y":2543031.0800000019}},{"attributes":{"ID":118134,"DIS_CODE":0,"TOWNNAME":"東區","LI":"崇明里","LIN":"23鄰","STREET":"中華東路","SECT":"三段","MAREA":" ","LANE":"３９９巷","ALLEY":"１６弄","HOUSE_NO":"７號","E_COORD97":170034.42000000001,"N_COORD97":2541495.5099999998,"ADDRESS":"中華東路三段３９９巷１６弄７號","OBJECTID":118134},"geometry":{"x":170034.42000000179,"y":2541495.5100000016}},{"attributes":{"ID":118135,"DIS_CODE":0,"TOWNNAME":"東區","LI":"崇明里","LIN":"23鄰","STREET":"中華東路","SECT":"三段","MAREA":" ","LANE":"３９９巷","ALLEY":"１６弄","HOUSE_NO":"８１號","E_COORD97":169813.89000000001,"N_COORD97":2541443.9700000002,"ADDRESS":"中華東路三段３９９巷１６弄８１號","OBJECTID":118135},"geometry":{"x":169813.89000000153,"y":2541443.9700000007}},{"attributes":{"ID":118136,"DIS_CODE":0,"TOWNNAME":"東區","LI":"崇明里","LIN":"23鄰","STREET":"中華東路","SECT":"三段","MAREA":" ","LANE":"３９９巷","ALLEY":"１６弄","HOUSE_NO":"８３號","E_COORD97":169809.20999999999,"N_COORD97":2541441.2000000002,"ADDRESS":"中華東路三段３９９巷１６弄８３號","OBJECTID":118136},"geometry":{"x":169809.21000000089,"y":2541441.1999999993}},{"attributes":{"ID":118137,"DIS_CODE":0,"TOWNNAME":"東區","LI":"崇明里","LIN":"23鄰","STREET":"中華東路","SECT":"三段","MAREA":" ","LANE":"３９９巷","ALLEY":"１６弄","HOUSE_NO":"８５號","E_COORD97":169804.35999999999,"N_COORD97":2541439.98,"ADDRESS":"中華東路三段３９９巷１６弄８５號","OBJECTID":118137},"geometry":{"x":169804.36000000034,"y":2541439.9800000004}},{"attributes":{"ID":118138,"DIS_CODE":0,"TOWNNAME":"東區","LI":"崇明里","LIN":"23鄰","STREET":"中華東路","SECT":"三段","MAREA":" ","LANE":"３９９巷","ALLEY":"１６弄","HOUSE_NO":"８７號","E_COORD97":169799.85000000001,"N_COORD97":2541439.46,"ADDRESS":"中華東路三段３９９巷１６弄８７號","OBJECTID":118138},"geometry":{"x":169799.84999999963,"y":2541439.4600000028}},{"attributes":{"ID":118139,"DIS_CODE":0,"TOWNNAME":"東區","LI":"崇明里","LIN":"23鄰","STREET":"中華東路","SECT":"三段","MAREA":" ","LANE":"３９９巷","ALLEY":"１６弄","HOUSE_NO":"８９號","E_COORD97":169803.84,"N_COORD97":2541430.29,"ADDRESS":"中華東路三段３９９巷１６弄８９號","OBJECTID":118139},"geometry":{"x":169803.83999999985,"y":2541430.2899999991}},{"attributes":{"ID":118140,"DIS_CODE":0,"TOWNNAME":"東區","LI":"崇明里","LIN":"23鄰","STREET":"中華東路","SECT":"三段","MAREA":" ","LANE":"３９９巷","ALLEY":"１６弄","HOUSE_NO":"９１號","E_COORD97":169805.57000000001,"N_COORD97":2541424.9199999999,"ADDRESS":"中華東路三段３９９巷１６弄９１號","OBJECTID":118140},"geometry":{"x":169805.57000000123,"y":2541424.9200000018}},{"attributes":{"ID":118141,"DIS_CODE":0,"TOWNNAME":"東區","LI":"崇明里","LIN":"23鄰","STREET":"中華東路","SECT":"三段","MAREA":" ","LANE":"３９９巷","ALLEY":"１８弄","HOUSE_NO":"１０號","E_COORD97":170036.67000000001,"N_COORD97":2541483.73,"ADDRESS":"中華東路三段３９９巷１８弄１０號","OBJECTID":118141},"geometry":{"x":170036.67000000086,"y":2541483.7300000042}},{"attributes":{"ID":118142,"DIS_CODE":0,"TOWNNAME":"東區","LI":"崇明里","LIN":"23鄰","STREET":"中華東路","SECT":"三段","MAREA":" ","LANE":"３９９巷","ALLEY":"１８弄","HOUSE_NO":"１１號","E_COORD97":170023.32999999999,"N_COORD97":2541469.8799999999,"ADDRESS":"中華東路三段３９９巷１８弄１１號","OBJECTID":118142},"geometry":{"x":170023.33000000194,"y":2541469.879999999}},{"attributes":{"ID":118143,"DIS_CODE":0,"TOWNNAME":"東區","LI":"崇明里","LIN":"23鄰","STREET":"中華東路","SECT":"三段","MAREA":" ","LANE":"３９９巷","ALLEY":"１８弄","HOUSE_NO":"１２號","E_COORD97":170029.39000000001,"N_COORD97":2541482.8700000001,"ADDRESS":"中華東路三段３９９巷１８弄１２號","OBJECTID":118143},"geometry":{"x":170029.3900000006,"y":2541482.870000001}},{"attributes":{"ID":118144,"DIS_CODE":0,"TOWNNAME":"東區","LI":"關聖里","LIN":"13鄰","STREET":"裕英街","SECT":" ","MAREA":" ","LANE":" ","ALLEY":" ","HOUSE_NO":"２７號","E_COORD97":172117.12,"N_COORD97":2543034.9900000002,"ADDRESS":"裕英街２７號","OBJECTID":118144},"geometry":{"x":172117.12000000104,"y":2543034.9900000021}},{"attributes":{"ID":118145,"DIS_CODE":0,"TOWNNAME":"七股區","LI":"溪南里","LIN":"6鄰","STREET":" ","SECT":" ","MAREA":"溪南","LANE":" ","ALLEY":" ","HOUSE_NO":"４９號","E_COORD97":158722.32000000001,"N_COORD97":2557889.1000000001,"ADDRESS":"溪南４９號","OBJECTID":118145},"geometry":{"x":158722.32000000123,"y":2557889.0999999996}},{"attributes":{"ID":118146,"DIS_CODE":0,"TOWNNAME":"七股區","LI":"溪南里","LIN":"1鄰","STREET":" ","SECT":" ","MAREA":"溪南","LANE":" ","ALLEY":" ","HOUSE_NO":"７號","E_COORD97":160105.59,"N_COORD97":2558662.3300000001,"ADDRESS":"溪南７號","OBJECTID":118146},"geometry":{"x":160105.58999999985,"y":2558662.3300000019}},{"attributes":{"ID":118147,"DIS_CODE":0,"TOWNNAME":"七股區","LI":"義合里","LIN":"4鄰","STREET":" ","SECT":" ","MAREA":"義合","LANE":" ","ALLEY":" ","HOUSE_NO":"２６號","E_COORD97":162800.67000000001,"N_COORD97":2556526.71,"ADDRESS":"義合２６號","OBJECTID":118147},"geometry":{"x":162800.66999999993,"y":2556526.7100000009}},{"attributes":{"ID":118148,"DIS_CODE":0,"TOWNNAME":"七股區","LI":"義合里","LIN":"4鄰","STREET":" ","SECT":" ","MAREA":"義合","LANE":" ","ALLEY":" ","HOUSE_NO":"２７號之２","E_COORD97":162768.28,"N_COORD97":2556543.4500000002,"ADDRESS":"義合２７號之２","OBJECTID":118148},"geometry":{"x":162768.28000000026,"y":2556543.4499999993}},{"attributes":{"ID":118149,"DIS_CODE":0,"TOWNNAME":"東區","LI":"崇明里","LIN":"23鄰","STREET":"中華東路","SECT":"三段","MAREA":" ","LANE":"３９９巷","ALLEY":"１８弄","HOUSE_NO":"１３號","E_COORD97":169999.41,"N_COORD97":2541465.0299999998,"ADDRESS":"中華東路三段３９９巷１８弄１３號","OBJECTID":118149},"geometry":{"x":169999.41000000108,"y":2541465.0300000012}},{"attributes":{"ID":118150,"DIS_CODE":0,"TOWNNAME":"東區","LI":"崇明里","LIN":"23鄰","STREET":"中華東路","SECT":"三段","MAREA":" ","LANE":"３９９巷","ALLEY":"１８弄","HOUSE_NO":"１４號","E_COORD97":170020.54999999999,"N_COORD97":2541480.4399999999,"ADDRESS":"中華東路三段３９９巷１８弄１４號","OBJECTID":118150},"geometry":{"x":170020.55000000075,"y":2541480.4399999995}},{"attributes":{"ID":118151,"DIS_CODE":0,"TOWNNAME":"東區","LI":"崇明里","LIN":"23鄰","STREET":"中華東路","SECT":"三段","MAREA":" ","LANE":"３９９巷","ALLEY":"１８弄","HOUSE_NO":"１５號","E_COORD97":169993.51999999999,"N_COORD97":2541462.7799999998,"ADDRESS":"中華東路三段３９９巷１８弄１５號","OBJECTID":118151},"geometry":{"x":169993.51999999955,"y":2541462.7800000012}},{"attributes":{"ID":118152,"DIS_CODE":0,"TOWNNAME":"東區","LI":"崇明里","LIN":"23鄰","STREET":"中華東路","SECT":"三段","MAREA":" ","LANE":"３９９巷","ALLEY":"１８弄","HOUSE_NO":"１６號","E_COORD97":170014.14000000001,"N_COORD97":2541478.8900000001,"ADDRESS":"中華東路三段３９９巷１８弄１６號","OBJECTID":118152},"geometry":{"x":170014.1400000006,"y":2541478.8900000006}},{"attributes":{"ID":118153,"DIS_CODE":0,"TOWNNAME":"東區","LI":"崇明里","LIN":"23鄰","STREET":"中華東路","SECT":"三段","MAREA":" ","LANE":"３９９巷","ALLEY":"１８弄","HOUSE_NO":"１７號","E_COORD97":169984.85000000001,"N_COORD97":2541461.2200000002,"ADDRESS":"中華東路三段３９９巷１８弄１７號","OBJECTID":118153},"geometry":{"x":169984.84999999963,"y":2541461.2200000025}},{"attributes":{"ID":118154,"DIS_CODE":0,"TOWNNAME":"東區","LI":"崇明里","LIN":"23鄰","STREET":"中華東路","SECT":"三段","MAREA":" ","LANE":"３９９巷","ALLEY":"１８弄","HOUSE_NO":"１８號","E_COORD97":170005.13,"N_COORD97":2541476.98,"ADDRESS":"中華東路三段３９９巷１８弄１８號","OBJECTID":118154},"geometry":{"x":170005.12999999989,"y":2541476.9800000023}},{"attributes":{"ID":118155,"DIS_CODE":0,"TOWNNAME":"東區","LI":"崇明里","LIN":"23鄰","STREET":"中華東路","SECT":"三段","MAREA":" ","LANE":"３９９巷","ALLEY":"１８弄","HOUSE_NO":"１９號","E_COORD97":169976.35999999999,"N_COORD97":2541459.3199999998,"ADDRESS":"中華東路三段３９９巷１８弄１９號","OBJECTID":118155},"geometry":{"x":169976.36000000127,"y":2541459.320000004}},{"attributes":{"ID":118156,"DIS_CODE":0,"TOWNNAME":"東區","LI":"崇明里","LIN":"23鄰","STREET":"中華東路","SECT":"三段","MAREA":" ","LANE":"３９９巷","ALLEY":"１８弄","HOUSE_NO":"１號","E_COORD97":170061.45999999999,"N_COORD97":2541478.54,"ADDRESS":"中華東路三段３９９巷１８弄１號","OBJECTID":118156},"geometry":{"x":170061.46000000089,"y":2541478.540000001}},{"attributes":{"ID":118157,"DIS_CODE":0,"TOWNNAME":"東區","LI":"崇明里","LIN":"23鄰","STREET":"中華東路","SECT":"三段","MAREA":" ","LANE":"３９９巷","ALLEY":"１８弄","HOUSE_NO":"２０號","E_COORD97":169999.57999999999,"N_COORD97":2541475.77,"ADDRESS":"中華東路三段３９９巷１８弄２０號","OBJECTID":118157},"geometry":{"x":169999.58000000194,"y":2541475.7700000033}},{"attributes":{"ID":118158,"DIS_CODE":0,"TOWNNAME":"東區","LI":"崇明里","LIN":"23鄰","STREET":"中華東路","SECT":"三段","MAREA":" ","LANE":"３９９巷","ALLEY":"１８弄","HOUSE_NO":"２１號","E_COORD97":169969.42999999999,"N_COORD97":2541457.4100000001,"ADDRESS":"中華東路三段３９９巷１８弄２１號","OBJECTID":118158},"geometry":{"x":169969.4299999997,"y":2541457.4100000001}},{"attributes":{"ID":118159,"DIS_CODE":0,"TOWNNAME":"東區","LI":"崇明里","LIN":"23鄰","STREET":"中華東路","SECT":"三段","MAREA":" ","LANE":"３９９巷","ALLEY":"１８弄","HOUSE_NO":"２２號","E_COORD97":169990.73999999999,"N_COORD97":2541473.6899999999,"ADDRESS":"中華東路三段３９９巷１８弄２２號","OBJECTID":118159},"geometry":{"x":169990.74000000115,"y":2541473.6900000013}},{"attributes":{"ID":118160,"DIS_CODE":0,"TOWNNAME":"東區","LI":"崇明里","LIN":"23鄰","STREET":"中華東路","SECT":"三段","MAREA":" ","LANE":"３９９巷","ALLEY":"１８弄","HOUSE_NO":"２３號","E_COORD97":169962.84,"N_COORD97":2541454.9900000002,"ADDRESS":"中華東路三段３９９巷１８弄２３號","OBJECTID":118160},"geometry":{"x":169962.83999999985,"y":2541454.9900000021}},{"attributes":{"ID":118161,"DIS_CODE":0,"TOWNNAME":"東區","LI":"崇明里","LIN":"23鄰","STREET":"中華東路","SECT":"三段","MAREA":" ","LANE":"３９９巷","ALLEY":"１８弄","HOUSE_NO":"２４號","E_COORD97":169983.29000000001,"N_COORD97":2541472.1299999999,"ADDRESS":"中華東路三段３９９巷１８弄２４號","OBJECTID":118161},"geometry":{"x":169983.29000000097,"y":2541472.129999999}},{"attributes":{"ID":118162,"DIS_CODE":0,"TOWNNAME":"東區","LI":"崇明里","LIN":"23鄰","STREET":"中華東路","SECT":"三段","MAREA":" ","LANE":"３９９巷","ALLEY":"１８弄","HOUSE_NO":"２５號","E_COORD97":169953.66,"N_COORD97":2541453.0800000001,"ADDRESS":"中華東路三段３９９巷１８弄２５號","OBJECTID":118162},"geometry":{"x":169953.66000000108,"y":2541453.0800000001}},{"attributes":{"ID":118163,"DIS_CODE":0,"TOWNNAME":"東區","LI":"崇明里","LIN":"23鄰","STREET":"中華東路","SECT":"三段","MAREA":" ","LANE":"３９９巷","ALLEY":"１８弄","HOUSE_NO":"２６號","E_COORD97":169974.45000000001,"N_COORD97":2541470.23,"ADDRESS":"中華東路三段３９９巷１８弄２６號","OBJECTID":118163},"geometry":{"x":169974.45000000019,"y":2541470.2300000042}},{"attributes":{"ID":118164,"DIS_CODE":0,"TOWNNAME":"東區","LI":"崇明里","LIN":"23鄰","STREET":"中華東路","SECT":"三段","MAREA":" ","LANE":"３９９巷","ALLEY":"１８弄","HOUSE_NO":"２７號","E_COORD97":169944.64000000001,"N_COORD97":2541452.5600000001,"ADDRESS":"中華東路三段３９９巷１８弄２７號","OBJECTID":118164},"geometry":{"x":169944.6400000006,"y":2541452.5600000024}},{"attributes":{"ID":118165,"DIS_CODE":0,"TOWNNAME":"東區","LI":"崇明里","LIN":"23鄰","STREET":"中華東路","SECT":"三段","MAREA":" ","LANE":"３９９巷","ALLEY":"１８弄","HOUSE_NO":"２８號","E_COORD97":169966.82999999999,"N_COORD97":2541468.8399999999,"ADDRESS":"中華東路三段３９９巷１８弄２８號","OBJECTID":118165},"geometry":{"x":169966.83000000007,"y":2541468.8400000036}},{"attributes":{"ID":118166,"DIS_CODE":0,"TOWNNAME":"東區","LI":"崇明里","LIN":"23鄰","STREET":"中華東路","SECT":"三段","MAREA":" ","LANE":"３９９巷","ALLEY":"１８弄","HOUSE_NO":"２號","E_COORD97":170060.76000000001,"N_COORD97":2541489.9700000002,"ADDRESS":"中華東路三段３９９巷１８弄２號","OBJECTID":118166},"geometry":{"x":170060.76000000164,"y":2541489.9700000025}},{"attributes":{"ID":118167,"DIS_CODE":0,"TOWNNAME":"東區","LI":"崇明里","LIN":"23鄰","STREET":"中華東路","SECT":"三段","MAREA":" ","LANE":"３９９巷","ALLEY":"１８弄","HOUSE_NO":"３０號","E_COORD97":169958.85999999999,"N_COORD97":2541467.6299999999,"ADDRESS":"中華東路三段３９９巷１８弄３０號","OBJECTID":118167},"geometry":{"x":169958.8599999994,"y":2541467.629999999}},{"attributes":{"ID":118168,"DIS_CODE":0,"TOWNNAME":"東區","LI":"崇明里","LIN":"23鄰","STREET":"中華東路","SECT":"三段","MAREA":" ","LANE":"３９９巷","ALLEY":"１８弄","HOUSE_NO":"３２號","E_COORD97":169951.92000000001,"N_COORD97":2541464.8599999999,"ADDRESS":"中華東路三段３９９巷１８弄３２號","OBJECTID":118168},"geometry":{"x":169951.92000000086,"y":2541464.8600000031}},{"attributes":{"ID":118169,"DIS_CODE":0,"TOWNNAME":"東區","LI":"崇明里","LIN":"23鄰","STREET":"中華東路","SECT":"三段","MAREA":" ","LANE":"３９９巷","ALLEY":"１８弄","HOUSE_NO":"３４號","E_COORD97":169942.91,"N_COORD97":2541462.7799999998,"ADDRESS":"中華東路三段３９９巷１８弄３４號","OBJECTID":118169},"geometry":{"x":169942.91000000015,"y":2541462.7800000012}},{"attributes":{"ID":118170,"DIS_CODE":0,"TOWNNAME":"東區","LI":"崇明里","LIN":"23鄰","STREET":"中華東路","SECT":"三段","MAREA":" ","LANE":"３９９巷","ALLEY":"１８弄","HOUSE_NO":"３號","E_COORD97":170054.70000000001,"N_COORD97":2541476.8100000001,"ADDRESS":"中華東路三段３９９巷１８弄３號","OBJECTID":118170},"geometry":{"x":170054.69999999925,"y":2541476.8100000024}},{"attributes":{"ID":118171,"DIS_CODE":0,"TOWNNAME":"東區","LI":"崇明里","LIN":"23鄰","STREET":"中華東路","SECT":"三段","MAREA":" ","LANE":"３９９巷","ALLEY":"１８弄","HOUSE_NO":"６號","E_COORD97":170051.57999999999,"N_COORD97":2541487.8900000001,"ADDRESS":"中華東路三段３９９巷１８弄６號","OBJECTID":118171},"geometry":{"x":170051.58000000007,"y":2541487.8900000025}},{"attributes":{"ID":118172,"DIS_CODE":0,"TOWNNAME":"東區","LI":"崇明里","LIN":"23鄰","STREET":"中華東路","SECT":"三段","MAREA":" ","LANE":"３９９巷","ALLEY":"１８弄","HOUSE_NO":"７號","E_COORD97":170039.62,"N_COORD97":2541472.8199999998,"ADDRESS":"中華東路三段３９９巷１８弄７號","OBJECTID":118172},"geometry":{"x":170039.62000000011,"y":2541472.820000004}},{"attributes":{"ID":118173,"DIS_CODE":0,"TOWNNAME":"東區","LI":"崇明里","LIN":"23鄰","STREET":"中華東路","SECT":"三段","MAREA":" ","LANE":"３９９巷","ALLEY":"１８弄","HOUSE_NO":"８號","E_COORD97":170045.51000000001,"N_COORD97":2541485.6400000001,"ADDRESS":"中華東路三段３９９巷１８弄８號","OBJECTID":118173},"geometry":{"x":170045.51000000164,"y":2541485.6400000025}},{"attributes":{"ID":118174,"DIS_CODE":0,"TOWNNAME":"東區","LI":"崇明里","LIN":"23鄰","STREET":"中華東路","SECT":"三段","MAREA":" ","LANE":"３９９巷","ALLEY":"１８弄","HOUSE_NO":"９號","E_COORD97":170031.81,"N_COORD97":2541472.3100000001,"ADDRESS":"中華東路三段３９９巷１８弄９號","OBJECTID":118174},"geometry":{"x":170031.81000000052,"y":2541472.3100000005}},{"attributes":{"ID":118175,"DIS_CODE":0,"TOWNNAME":"東區","LI":"崇明里","LIN":"23鄰","STREET":"中華東路","SECT":"三段","MAREA":" ","LANE":"３９９巷","ALLEY":"２０弄","HOUSE_NO":"１０號","E_COORD97":170040.66,"N_COORD97":2541461.5699999998,"ADDRESS":"中華東路三段３９９巷２０弄１０號","OBJECTID":118175},"geometry":{"x":170040.66000000015,"y":2541461.5700000022}},{"attributes":{"ID":118176,"DIS_CODE":0,"TOWNNAME":"東區","LI":"崇明里","LIN":"23鄰","STREET":"中華東路","SECT":"三段","MAREA":" ","LANE":"３９９巷","ALLEY":"２０弄","HOUSE_NO":"１２號","E_COORD97":170034.42000000001,"N_COORD97":2541459.8300000001,"ADDRESS":"中華東路三段３９９巷２０弄１２號","OBJECTID":118176},"geometry":{"x":170034.42000000179,"y":2541459.8300000019}},{"attributes":{"ID":118177,"DIS_CODE":0,"TOWNNAME":"東區","LI":"崇明里","LIN":"23鄰","STREET":"中華東路","SECT":"三段","MAREA":" ","LANE":"３９９巷","ALLEY":"２０弄","HOUSE_NO":"１４號","E_COORD97":170025.41,"N_COORD97":2541458.1000000001,"ADDRESS":"中華東路三段３９９巷２０弄１４號","OBJECTID":118177},"geometry":{"x":170025.41000000015,"y":2541458.1000000015}},{"attributes":{"ID":118178,"DIS_CODE":0,"TOWNNAME":"東區","LI":"崇明里","LIN":"23鄰","STREET":"中華東路","SECT":"三段","MAREA":" ","LANE":"３９９巷","ALLEY":"２０弄","HOUSE_NO":"１６號","E_COORD97":170003.39999999999,"N_COORD97":2541453.9500000002,"ADDRESS":"中華東路三段３９９巷２０弄１６號","OBJECTID":118178},"geometry":{"x":170003.4000000013,"y":2541453.950000003}},{"attributes":{"ID":118179,"DIS_CODE":0,"TOWNNAME":"東區","LI":"崇明里","LIN":"23鄰","STREET":"中華東路","SECT":"三段","MAREA":" ","LANE":"３９９巷","ALLEY":"２０弄","HOUSE_NO":"１８號","E_COORD97":169994.38,"N_COORD97":2541451.3500000001,"ADDRESS":"中華東路三段３９９巷２０弄１８號","OBJECTID":118179},"geometry":{"x":169994.38000000082,"y":2541451.3499999978}},{"attributes":{"ID":118180,"DIS_CODE":0,"TOWNNAME":"東區","LI":"崇明里","LIN":"23鄰","STREET":"中華東路","SECT":"三段","MAREA":" ","LANE":"３９９巷","ALLEY":"２０弄","HOUSE_NO":"２０號","E_COORD97":169987.28,"N_COORD97":2541448.9199999999,"ADDRESS":"中華東路三段３９９巷２０弄２０號","OBJECTID":118180},"geometry":{"x":169987.28000000119,"y":2541448.9200000018}},{"attributes":{"ID":118181,"DIS_CODE":0,"TOWNNAME":"東區","LI":"崇明里","LIN":"23鄰","STREET":"中華東路","SECT":"三段","MAREA":" ","LANE":"３９９巷","ALLEY":"２０弄","HOUSE_NO":"２２號","E_COORD97":169979.31,"N_COORD97":2541447.8799999999,"ADDRESS":"中華東路三段３９９巷２０弄２２號","OBJECTID":118181},"geometry":{"x":169979.31000000052,"y":2541447.8800000008}},{"attributes":{"ID":118182,"DIS_CODE":0,"TOWNNAME":"東區","LI":"崇明里","LIN":"23鄰","STREET":"中華東路","SECT":"三段","MAREA":" ","LANE":"３９９巷","ALLEY":"２０弄","HOUSE_NO":"２４號","E_COORD97":169972.03,"N_COORD97":2541446.6699999999,"ADDRESS":"中華東路三段３９９巷２０弄２４號","OBJECTID":118182},"geometry":{"x":169972.03000000119,"y":2541446.6700000018}},{"attributes":{"ID":118183,"DIS_CODE":0,"TOWNNAME":"東區","LI":"崇明里","LIN":"23鄰","STREET":"中華東路","SECT":"三段","MAREA":" ","LANE":"３９９巷","ALLEY":"２０弄","HOUSE_NO":"２６號","E_COORD97":169962.67000000001,"N_COORD97":2541444.5899999999,"ADDRESS":"中華東路三段３９９巷２０弄２６號","OBJECTID":118183},"geometry":{"x":169962.66999999993,"y":2541444.5900000017}},{"attributes":{"ID":118184,"DIS_CODE":0,"TOWNNAME":"東區","LI":"崇明里","LIN":"23鄰","STREET":"中華東路","SECT":"三段","MAREA":" ","LANE":"３９９巷","ALLEY":"２０弄","HOUSE_NO":"２８號","E_COORD97":169957.29999999999,"N_COORD97":2541443.3799999999,"ADDRESS":"中華東路三段３９９巷２０弄２８號","OBJECTID":118184},"geometry":{"x":169957.30000000075,"y":2541443.379999999}},{"attributes":{"ID":118185,"DIS_CODE":0,"TOWNNAME":"東區","LI":"崇明里","LIN":"23鄰","STREET":"中華東路","SECT":"三段","MAREA":" ","LANE":"３９９巷","ALLEY":"２０弄","HOUSE_NO":"２號","E_COORD97":170064.92000000001,"N_COORD97":2541466.7599999998,"ADDRESS":"中華東路三段３９９巷２０弄２號","OBJECTID":118185},"geometry":{"x":170064.92000000179,"y":2541466.7600000016}},{"attributes":{"ID":118186,"DIS_CODE":0,"TOWNNAME":"東區","LI":"崇明里","LIN":"23鄰","STREET":"中華東路","SECT":"三段","MAREA":" ","LANE":"３９９巷","ALLEY":"２０弄","HOUSE_NO":"３０號","E_COORD97":169947.23999999999,"N_COORD97":2541440.96,"ADDRESS":"中華東路三段３９９巷２０弄３０號","OBJECTID":118186},"geometry":{"x":169947.24000000022,"y":2541440.9600000009}},{"attributes":{"ID":118187,"DIS_CODE":0,"TOWNNAME":"東區","LI":"崇明里","LIN":"23鄰","STREET":"中華東路","SECT":"三段","MAREA":" ","LANE":"３９９巷","ALLEY":"２０弄","HOUSE_NO":"３２號","E_COORD97":169929.31,"N_COORD97":2541441.8900000001,"ADDRESS":"中華東路三段３９９巷２０弄３２號","OBJECTID":118187},"geometry":{"x":169929.30999999959,"y":2541441.8899999987}},{"attributes":{"ID":118188,"DIS_CODE":0,"TOWNNAME":"東區","LI":"崇明里","LIN":"23鄰","STREET":"中華東路","SECT":"三段","MAREA":" ","LANE":"３９９巷","ALLEY":"２０弄","HOUSE_NO":"３４號","E_COORD97":169924.45999999999,"N_COORD97":2541440.3300000001,"ADDRESS":"中華東路三段３９９巷２０弄３４號","OBJECTID":118188},"geometry":{"x":169924.46000000089,"y":2541440.3300000001}},{"attributes":{"ID":118189,"DIS_CODE":0,"TOWNNAME":"東區","LI":"崇明里","LIN":"23鄰","STREET":"中華東路","SECT":"三段","MAREA":" ","LANE":"３９９巷","ALLEY":"２０弄","HOUSE_NO":"３６號","E_COORD97":169919.78,"N_COORD97":2541438.6000000001,"ADDRESS":"中華東路三段３９９巷２０弄３６號","OBJECTID":118189},"geometry":{"x":169919.78000000026,"y":2541438.5999999996}},{"attributes":{"ID":118190,"DIS_CODE":0,"TOWNNAME":"東區","LI":"崇明里","LIN":"23鄰","STREET":"中華東路","SECT":"三段","MAREA":" ","LANE":"３９９巷","ALLEY":"２０弄","HOUSE_NO":"３８號","E_COORD97":169914.23999999999,"N_COORD97":2541438.0800000001,"ADDRESS":"中華東路三段３９９巷２０弄３８號","OBJECTID":118190},"geometry":{"x":169914.24000000115,"y":2541438.0800000019}},{"attributes":{"ID":118191,"DIS_CODE":0,"TOWNNAME":"東區","LI":"崇明里","LIN":"23鄰","STREET":"中華東路","SECT":"三段","MAREA":" ","LANE":"３９９巷","ALLEY":"２０弄","HOUSE_NO":"４０號","E_COORD97":169910.25,"N_COORD97":2541436,"ADDRESS":"中華東路三段３９９巷２０弄４０號","OBJECTID":118191},"geometry":{"x":169910.25000000186,"y":2541436}},{"attributes":{"ID":118192,"DIS_CODE":0,"TOWNNAME":"東區","LI":"崇明里","LIN":"23鄰","STREET":"中華東路","SECT":"三段","MAREA":" ","LANE":"３９９巷","ALLEY":"２０弄","HOUSE_NO":"４２號","E_COORD97":169904.88,"N_COORD97":2541436.6899999999,"ADDRESS":"中華東路三段３９９巷２０弄４２號","OBJECTID":118192},"geometry":{"x":169904.88000000082,"y":2541436.6900000013}},{"attributes":{"ID":118193,"DIS_CODE":0,"TOWNNAME":"東區","LI":"崇明里","LIN":"23鄰","STREET":"中華東路","SECT":"三段","MAREA":" ","LANE":"３９９巷","ALLEY":"２０弄","HOUSE_NO":"４６號","E_COORD97":169900.72,"N_COORD97":2541434.79,"ADDRESS":"中華東路三段３９９巷２０弄４６號","OBJECTID":118193},"geometry":{"x":169900.72000000067,"y":2541434.790000001}},{"attributes":{"ID":118194,"DIS_CODE":0,"TOWNNAME":"東區","LI":"崇明里","LIN":"23鄰","STREET":"中華東路","SECT":"三段","MAREA":" ","LANE":"３９９巷","ALLEY":"２０弄","HOUSE_NO":"４８號","E_COORD97":169895.51999999999,"N_COORD97":2541433.9199999999,"ADDRESS":"中華東路三段３９９巷２０弄４８號","OBJECTID":118194},"geometry":{"x":169895.51999999955,"y":2541433.9199999999}},{"attributes":{"ID":118195,"DIS_CODE":0,"TOWNNAME":"東區","LI":"崇明里","LIN":"23鄰","STREET":"中華東路","SECT":"三段","MAREA":" ","LANE":"３９９巷","ALLEY":"２０弄","HOUSE_NO":"５０號","E_COORD97":169890.67000000001,"N_COORD97":2541433.23,"ADDRESS":"中華東路三段３９９巷２０弄５０號","OBJECTID":118195},"geometry":{"x":169890.67000000086,"y":2541433.2300000023}},{"attributes":{"ID":118196,"DIS_CODE":0,"TOWNNAME":"東區","LI":"崇明里","LIN":"23鄰","STREET":"中華東路","SECT":"三段","MAREA":" ","LANE":"３９９巷","ALLEY":"２０弄","HOUSE_NO":"５２號","E_COORD97":169885.81,"N_COORD97":2541432.1899999999,"ADDRESS":"中華東路三段３９９巷２０弄５２號","OBJECTID":118196},"geometry":{"x":169885.81000000052,"y":2541432.1900000032}},{"attributes":{"ID":118197,"DIS_CODE":0,"TOWNNAME":"東區","LI":"崇明里","LIN":"23鄰","STREET":"中華東路","SECT":"三段","MAREA":" ","LANE":"３９９巷","ALLEY":"２０弄","HOUSE_NO":"５４號","E_COORD97":169881.48000000001,"N_COORD97":2541430.7999999998,"ADDRESS":"中華東路三段３９９巷２０弄５４號","OBJECTID":118197},"geometry":{"x":169881.48000000045,"y":2541430.8000000026}},{"attributes":{"ID":118198,"DIS_CODE":0,"TOWNNAME":"七股區","LI":"義合里","LIN":"4鄰","STREET":" ","SECT":" ","MAREA":"義合","LANE":" ","ALLEY":" ","HOUSE_NO":"３０號","E_COORD97":162715.32000000001,"N_COORD97":2556640.9700000002,"ADDRESS":"義合３０號","OBJECTID":118198},"geometry":{"x":162715.3200000003,"y":2556640.9700000044}},{"attributes":{"ID":118199,"DIS_CODE":0,"TOWNNAME":"七股區","LI":"義合里","LIN":"4鄰","STREET":" ","SECT":" ","MAREA":"義合","LANE":" ","ALLEY":" ","HOUSE_NO":"３１號之１","E_COORD97":162683.64999999999,"N_COORD97":2556613.7599999998,"ADDRESS":"義合３１號之１","OBJECTID":118199},"geometry":{"x":162683.6500000013,"y":2556613.7599999998}},{"attributes":{"ID":118200,"DIS_CODE":0,"TOWNNAME":"七股區","LI":"義合里","LIN":"4鄰","STREET":" ","SECT":" ","MAREA":"義合","LANE":" ","ALLEY":" ","HOUSE_NO":"３１號","E_COORD97":162674.13,"N_COORD97":2556637.7400000002,"ADDRESS":"義合３１號","OBJECTID":118200},"geometry":{"x":162674.13000000175,"y":2556637.7400000002}}]}