{"displayFieldName":"TOWNNAME","fieldAliases":{"ID":"ID","DIS_CODE":"DIS_CODE","TOWNNAME":"TOWNNAME","LI":"LI","LIN":"LIN","STREET":"STREET","SECT":"SECT","MAREA":"MAREA","LANE":"LANE","ALLEY":"ALLEY","HOUSE_NO":"HOUSE_NO","E_COORD97":"E_COORD97","N_COORD97":"N_COORD97","ADDRESS":"ADDRESS","OBJECTID":"OBJECTID"},"geometryType":"esriGeometryPoint","spatialReference":{"wkid":102443,"latestWkid":3826},"fields":[{"name":"ID","type":"esriFieldTypeDouble","alias":"ID"},{"name":"DIS_CODE","type":"esriFieldTypeInteger","alias":"DIS_CODE"},{"name":"TOWNNAME","type":"esriFieldTypeString","alias":"TOWNNAME","length":8},{"name":"LI","type":"esriFieldTypeString","alias":"LI","length":8},{"name":"LIN","type":"esriFieldTypeString","alias":"LIN","length":12},{"name":"STREET","type":"esriFieldTypeString","alias":"STREET","length":20},{"name":"SECT","type":"esriFieldTypeString","alias":"SECT","length":8},{"name":"MAREA","type":"esriFieldTypeString","alias":"MAREA","length":12},{"name":"LANE","type":"esriFieldTypeString","alias":"LANE","length":10},{"name":"ALLEY","type":"esriFieldTypeString","alias":"ALLEY","length":10},{"name":"HOUSE_NO","type":"esriFieldTypeString","alias":"HOUSE_NO","length":20},{"name":"E_COORD97","type":"esriFieldTypeDouble","alias":"E_COORD97"},{"name":"N_COORD97","type":"esriFieldTypeDouble","alias":"N_COORD97"},{"name":"ADDRESS","type":"esriFieldTypeString","alias":"ADDRESS","length":50},{"name":"OBJECTID","type":"esriFieldTypeOID","alias":"OBJECTID"}],"features":[{"attributes":{"ID":623028,"DIS_CODE":0,"TOWNNAME":"永康區","LI":"\u25A0行里","LIN":"43鄰","STREET":"正南三路","SECT":" ","MAREA":" ","LANE":" ","ALLEY":" ","HOUSE_NO":"２３９號","E_COORD97":171418.19,"N_COORD97":2547984.1400000001,"ADDRESS":"正南三路２３９號","OBJECTID":623001},"geometry":{"x":171418.19000000134,"y":2547984.1400000043}},{"attributes":{"ID":623029,"DIS_CODE":0,"TOWNNAME":"永康區","LI":"網寮里","LIN":"15鄰","STREET":"永勝街","SECT":" ","MAREA":" ","LANE":" ","ALLEY":" ","HOUSE_NO":"２５０號","E_COORD97":173390.17999999999,"N_COORD97":2546655.1299999999,"ADDRESS":"永勝街２５０號","OBJECTID":623002},"geometry":{"x":173390.1799999997,"y":2546655.129999999}},{"attributes":{"ID":623030,"DIS_CODE":0,"TOWNNAME":"永康區","LI":"王行里","LIN":"15鄰","STREET":"龍國街","SECT":" ","MAREA":" ","LANE":" ","ALLEY":" ","HOUSE_NO":"４２７號","E_COORD97":175091.16,"N_COORD97":2548041.4500000002,"ADDRESS":"龍國街４２７號","OBJECTID":623003},"geometry":{"x":175091.16000000015,"y":2548041.450000003}},{"attributes":{"ID":623031,"DIS_CODE":0,"TOWNNAME":"永康區","LI":"南灣里","LIN":"3鄰","STREET":"大灣一街","SECT":" ","MAREA":" ","LANE":" ","ALLEY":" ","HOUSE_NO":"１６２號","E_COORD97":174657.64999999999,"N_COORD97":2544596.5299999998,"ADDRESS":"大灣一街１６２號","OBJECTID":623004},"geometry":{"x":174657.65000000037,"y":2544596.5300000031}},{"attributes":{"ID":623032,"DIS_CODE":0,"TOWNNAME":"永康區","LI":"東橋里","LIN":"13鄰","STREET":"東橋一路","SECT":" ","MAREA":" ","LANE":" ","ALLEY":" ","HOUSE_NO":"９號","E_COORD97":171647.20999999999,"N_COORD97":2546259.9700000002,"ADDRESS":"東橋一路９號","OBJECTID":623005},"geometry":{"x":171647.20999999996,"y":2546259.9700000025}},{"attributes":{"ID":623033,"DIS_CODE":0,"TOWNNAME":"永康區","LI":"南灣里","LIN":"41鄰","STREET":"大灣東路","SECT":" ","MAREA":" ","LANE":" ","ALLEY":" ","HOUSE_NO":"９９號","E_COORD97":174674.73999999999,"N_COORD97":2544494.8999999999,"ADDRESS":"大灣東路９９號","OBJECTID":623006},"geometry":{"x":174674.74000000115,"y":2544494.9000000004}},{"attributes":{"ID":623034,"DIS_CODE":0,"TOWNNAME":"永康區","LI":"勝利里","LIN":"20鄰","STREET":"勝學路","SECT":" ","MAREA":" ","LANE":" ","ALLEY":" ","HOUSE_NO":"２７８號","E_COORD97":171198.13,"N_COORD97":2545326.5499999998,"ADDRESS":"勝學路２７８號","OBJECTID":623007},"geometry":{"x":171198.13000000082,"y":2545326.5500000045}},{"attributes":{"ID":623035,"DIS_CODE":0,"TOWNNAME":"永康區","LI":"勝利里","LIN":"20鄰","STREET":"勝學路","SECT":" ","MAREA":" ","LANE":" ","ALLEY":" ","HOUSE_NO":"２８０號","E_COORD97":171201.89999999999,"N_COORD97":2545331.9100000001,"ADDRESS":"勝學路２８０號","OBJECTID":623008},"geometry":{"x":171201.9000000013,"y":2545331.910000002}},{"attributes":{"ID":623036,"DIS_CODE":0,"TOWNNAME":"永康區","LI":"勝利里","LIN":"20鄰","STREET":"勝學路","SECT":" ","MAREA":" ","LANE":" ","ALLEY":" ","HOUSE_NO":"２８６號","E_COORD97":171202.14000000001,"N_COORD97":2545343.3100000001,"ADDRESS":"勝學路２８６號","OBJECTID":623009},"geometry":{"x":171202.13999999966,"y":2545343.3100000005}},{"attributes":{"ID":623037,"DIS_CODE":0,"TOWNNAME":"永康區","LI":"東橋里","LIN":"16鄰","STREET":"東橋五路","SECT":" ","MAREA":" ","LANE":" ","ALLEY":" ","HOUSE_NO":"１號","E_COORD97":171780.03,"N_COORD97":2546562.1600000001,"ADDRESS":"東橋五路１號","OBJECTID":623010},"geometry":{"x":171780.03000000212,"y":2546562.1600000001}},{"attributes":{"ID":623038,"DIS_CODE":0,"TOWNNAME":"永康區","LI":"東橋里","LIN":"17鄰","STREET":"東橋十街","SECT":" ","MAREA":" ","LANE":" ","ALLEY":" ","HOUSE_NO":"３５號","E_COORD97":171482.64999999999,"N_COORD97":2547055.29,"ADDRESS":"東橋十街３５號","OBJECTID":623011},"geometry":{"x":171482.65000000224,"y":2547055.2899999991}},{"attributes":{"ID":623039,"DIS_CODE":0,"TOWNNAME":"永康區","LI":"東橋里","LIN":"17鄰","STREET":"東橋十街","SECT":" ","MAREA":" ","LANE":" ","ALLEY":" ","HOUSE_NO":"３７號","E_COORD97":171487.92999999999,"N_COORD97":2547055.6699999999,"ADDRESS":"東橋十街３７號","OBJECTID":623012},"geometry":{"x":171487.9299999997,"y":2547055.6700000018}},{"attributes":{"ID":623040,"DIS_CODE":0,"TOWNNAME":"永康區","LI":"東橋里","LIN":"17鄰","STREET":"東橋十街","SECT":" ","MAREA":" ","LANE":" ","ALLEY":" ","HOUSE_NO":"３９號","E_COORD97":171490.76999999999,"N_COORD97":2547060.3300000001,"ADDRESS":"東橋十街３９號","OBJECTID":623013},"geometry":{"x":171490.76999999955,"y":2547060.3300000019}},{"attributes":{"ID":623041,"DIS_CODE":0,"TOWNNAME":"永康區","LI":"東橋里","LIN":"17鄰","STREET":"東橋十街","SECT":" ","MAREA":" ","LANE":" ","ALLEY":" ","HOUSE_NO":"４１號","E_COORD97":171495.20000000001,"N_COORD97":2547063.0800000001,"ADDRESS":"東橋十街４１號","OBJECTID":623014},"geometry":{"x":171495.20000000019,"y":2547063.0800000019}},{"attributes":{"ID":623042,"DIS_CODE":0,"TOWNNAME":"永康區","LI":"網寮里","LIN":"3鄰","STREET":"永和街","SECT":" ","MAREA":" ","LANE":" ","ALLEY":" ","HOUSE_NO":"２１２號","E_COORD97":173490.79000000001,"N_COORD97":2546535.2000000002,"ADDRESS":"永和街２１２號","OBJECTID":623015},"geometry":{"x":173490.79000000097,"y":2546535.2000000011}},{"attributes":{"ID":623043,"DIS_CODE":0,"TOWNNAME":"佳里區","LI":"建南里","LIN":"18鄰","STREET":"中山路","SECT":" ","MAREA":" ","LANE":" ","ALLEY":" ","HOUSE_NO":"１０１號","E_COORD97":165761.98999999999,"N_COORD97":2561849.5299999998,"ADDRESS":"中山路１０１號","OBJECTID":623016},"geometry":{"x":165761.99000000022,"y":2561849.5299999993}},{"attributes":{"ID":623044,"DIS_CODE":0,"TOWNNAME":"佳里區","LI":"建南里","LIN":"18鄰","STREET":"中山路","SECT":" ","MAREA":" ","LANE":" ","ALLEY":" ","HOUSE_NO":"１０３號","E_COORD97":165761.10999999999,"N_COORD97":2561853.3799999999,"ADDRESS":"中山路１０３號","OBJECTID":623017},"geometry":{"x":165761.11000000034,"y":2561853.379999999}},{"attributes":{"ID":623045,"DIS_CODE":0,"TOWNNAME":"佳里區","LI":"建南里","LIN":"18鄰","STREET":"中山路","SECT":" ","MAREA":" ","LANE":" ","ALLEY":" ","HOUSE_NO":"１０５號","E_COORD97":165760.23000000001,"N_COORD97":2561857.1600000001,"ADDRESS":"中山路１０５號","OBJECTID":623018},"geometry":{"x":165760.23000000045,"y":2561857.160000002}},{"attributes":{"ID":623046,"DIS_CODE":0,"TOWNNAME":"佳里區","LI":"建南里","LIN":"18鄰","STREET":"中山路","SECT":" ","MAREA":" ","LANE":" ","ALLEY":" ","HOUSE_NO":"１０７號","E_COORD97":165759.32000000001,"N_COORD97":2561861.02,"ADDRESS":"中山路１０７號","OBJECTID":623019},"geometry":{"x":165759.32000000123,"y":2561861.0200000014}},{"attributes":{"ID":623047,"DIS_CODE":0,"TOWNNAME":"佳里區","LI":"建南里","LIN":"18鄰","STREET":"中山路","SECT":" ","MAREA":" ","LANE":" ","ALLEY":" ","HOUSE_NO":"１０９號","E_COORD97":165758.07999999999,"N_COORD97":2561866.1899999999,"ADDRESS":"中山路１０９號","OBJECTID":623020},"geometry":{"x":165758.07999999914,"y":2561866.1900000032}},{"attributes":{"ID":623048,"DIS_CODE":0,"TOWNNAME":"佳里區","LI":"建南里","LIN":"18鄰","STREET":"中山路","SECT":" ","MAREA":" ","LANE":" ","ALLEY":" ","HOUSE_NO":"１１１號","E_COORD97":165756.53,"N_COORD97":2561872.3999999999,"ADDRESS":"中山路１１１號","OBJECTID":623021},"geometry":{"x":165756.53000000026,"y":2561872.4000000041}},{"attributes":{"ID":623049,"DIS_CODE":0,"TOWNNAME":"佳里區","LI":"建南里","LIN":"18鄰","STREET":"中山路","SECT":" ","MAREA":" ","LANE":" ","ALLEY":" ","HOUSE_NO":"１１３號","E_COORD97":165748.39999999999,"N_COORD97":2561887.1099999999,"ADDRESS":"中山路１１３號","OBJECTID":623022},"geometry":{"x":165748.4000000013,"y":2561887.1100000013}},{"attributes":{"ID":623050,"DIS_CODE":0,"TOWNNAME":"佳里區","LI":"鎮山里","LIN":"1鄰","STREET":"中山路","SECT":" ","MAREA":" ","LANE":" ","ALLEY":" ","HOUSE_NO":"１０２號","E_COORD97":165798.44,"N_COORD97":2561843.75,"ADDRESS":"中山路１０２號","OBJECTID":623023},"geometry":{"x":165798.44000000227,"y":2561843.7500000019}},{"attributes":{"ID":623051,"DIS_CODE":0,"TOWNNAME":"佳里區","LI":"鎮山里","LIN":"1鄰","STREET":"中山路","SECT":" ","MAREA":" ","LANE":" ","ALLEY":" ","HOUSE_NO":"１０４號","E_COORD97":165797.01000000001,"N_COORD97":2561848.54,"ADDRESS":"中山路１０４號","OBJECTID":623024},"geometry":{"x":165797.00999999978,"y":2561848.5399999991}},{"attributes":{"ID":623052,"DIS_CODE":0,"TOWNNAME":"佳里區","LI":"鎮山里","LIN":"1鄰","STREET":"中山路","SECT":" ","MAREA":" ","LANE":" ","ALLEY":" ","HOUSE_NO":"１１２號","E_COORD97":165796.47,"N_COORD97":2561861.9100000001,"ADDRESS":"中山路１１２號","OBJECTID":623025},"geometry":{"x":165796.47000000067,"y":2561861.9100000039}},{"attributes":{"ID":623053,"DIS_CODE":0,"TOWNNAME":"佳里區","LI":"建南里","LIN":"18鄰","STREET":"中山路","SECT":" ","MAREA":" ","LANE":" ","ALLEY":" ","HOUSE_NO":"１１５號","E_COORD97":165747.32000000001,"N_COORD97":2561894.0099999998,"ADDRESS":"中山路１１５號","OBJECTID":623026},"geometry":{"x":165747.32000000123,"y":2561894.0099999998}},{"attributes":{"ID":623054,"DIS_CODE":0,"TOWNNAME":"佳里區","LI":"建南里","LIN":"18鄰","STREET":"中山路","SECT":" ","MAREA":" ","LANE":" ","ALLEY":" ","HOUSE_NO":"１１７號","E_COORD97":165746.60000000001,"N_COORD97":2561897.4399999999,"ADDRESS":"中山路１１７號","OBJECTID":623027},"geometry":{"x":165746.59999999963,"y":2561897.4399999995}},{"attributes":{"ID":623055,"DIS_CODE":0,"TOWNNAME":"佳里區","LI":"建南里","LIN":"18鄰","STREET":"中山路","SECT":" ","MAREA":" ","LANE":" ","ALLEY":" ","HOUSE_NO":"１１９號","E_COORD97":165745.97,"N_COORD97":2561900.8700000001,"ADDRESS":"中山路１１９號","OBJECTID":623028},"geometry":{"x":165745.96999999974,"y":2561900.8700000029}},{"attributes":{"ID":623056,"DIS_CODE":0,"TOWNNAME":"佳里區","LI":"建南里","LIN":"18鄰","STREET":"中山路","SECT":" ","MAREA":" ","LANE":" ","ALLEY":" ","HOUSE_NO":"１２１號","E_COORD97":165745.63,"N_COORD97":2561906.1299999999,"ADDRESS":"中山路１２１號","OBJECTID":623029},"geometry":{"x":165745.62999999989,"y":2561906.129999999}},{"attributes":{"ID":623057,"DIS_CODE":0,"TOWNNAME":"佳里區","LI":"建南里","LIN":"18鄰","STREET":"中山路","SECT":" ","MAREA":" ","LANE":" ","ALLEY":" ","HOUSE_NO":"１２３號","E_COORD97":165744.98000000001,"N_COORD97":2561912.5299999998,"ADDRESS":"中山路１２３號","OBJECTID":623030},"geometry":{"x":165744.98000000045,"y":2561912.5300000012}},{"attributes":{"ID":623058,"DIS_CODE":0,"TOWNNAME":"佳里區","LI":"建南里","LIN":"18鄰","STREET":"中山路","SECT":" ","MAREA":" ","LANE":" ","ALLEY":" ","HOUSE_NO":"１２５號","E_COORD97":165744.57000000001,"N_COORD97":2561916.5299999998,"ADDRESS":"中山路１２５號","OBJECTID":623031},"geometry":{"x":165744.5700000003,"y":2561916.5299999993}},{"attributes":{"ID":623059,"DIS_CODE":0,"TOWNNAME":"佳里區","LI":"建南里","LIN":"20鄰","STREET":"中山路","SECT":" ","MAREA":" ","LANE":" ","ALLEY":" ","HOUSE_NO":"１１號","E_COORD97":165821.88,"N_COORD97":2561629.2799999998,"ADDRESS":"中山路１１號","OBJECTID":623032},"geometry":{"x":165821.87999999989,"y":2561629.2800000012}},{"attributes":{"ID":623060,"DIS_CODE":0,"TOWNNAME":"佳里區","LI":"建南里","LIN":"20鄰","STREET":"中山路","SECT":" ","MAREA":" ","LANE":" ","ALLEY":" ","HOUSE_NO":"１３號","E_COORD97":165820.38,"N_COORD97":2561633.5899999999,"ADDRESS":"中山路１３號","OBJECTID":623033},"geometry":{"x":165820.38000000175,"y":2561633.5900000017}},{"attributes":{"ID":623061,"DIS_CODE":0,"TOWNNAME":"佳里區","LI":"建南里","LIN":"20鄰","STREET":"中山路","SECT":" ","MAREA":" ","LANE":" ","ALLEY":" ","HOUSE_NO":"１５號","E_COORD97":165818.84,"N_COORD97":2561637.9300000002,"ADDRESS":"中山路１５號","OBJECTID":623034},"geometry":{"x":165818.83999999892,"y":2561637.9300000016}},{"attributes":{"ID":623062,"DIS_CODE":0,"TOWNNAME":"佳里區","LI":"忠仁里","LIN":"6鄰","STREET":"中山路","SECT":" ","MAREA":" ","LANE":" ","ALLEY":" ","HOUSE_NO":"１１８號","E_COORD97":165784.70999999999,"N_COORD97":2561892.96,"ADDRESS":"中山路１１８號","OBJECTID":623035},"geometry":{"x":165784.71000000089,"y":2561892.9600000046}},{"attributes":{"ID":623063,"DIS_CODE":0,"TOWNNAME":"佳里區","LI":"忠仁里","LIN":"6鄰","STREET":"中山路","SECT":" ","MAREA":" ","LANE":" ","ALLEY":" ","HOUSE_NO":"１２０號","E_COORD97":165783.12,"N_COORD97":2561898.4399999999,"ADDRESS":"中山路１２０號","OBJECTID":623036},"geometry":{"x":165783.12000000011,"y":2561898.4400000032}},{"attributes":{"ID":623064,"DIS_CODE":0,"TOWNNAME":"佳里區","LI":"忠仁里","LIN":"6鄰","STREET":"中山路","SECT":" ","MAREA":" ","LANE":" ","ALLEY":" ","HOUSE_NO":"１２２號","E_COORD97":165781.91,"N_COORD97":2561902.71,"ADDRESS":"中山路１２２號","OBJECTID":623037},"geometry":{"x":165781.91000000108,"y":2561902.7100000028}},{"attributes":{"ID":623065,"DIS_CODE":0,"TOWNNAME":"佳里區","LI":"忠仁里","LIN":"6鄰","STREET":"中山路","SECT":" ","MAREA":" ","LANE":" ","ALLEY":" ","HOUSE_NO":"１２６號","E_COORD97":165781.07999999999,"N_COORD97":2561906.9900000002,"ADDRESS":"中山路１２６號","OBJECTID":623038},"geometry":{"x":165781.08000000101,"y":2561906.9900000021}},{"attributes":{"ID":623066,"DIS_CODE":0,"TOWNNAME":"佳里區","LI":"忠仁里","LIN":"6鄰","STREET":"中山路","SECT":" ","MAREA":" ","LANE":" ","ALLEY":" ","HOUSE_NO":"１２８號","E_COORD97":165780.07000000001,"N_COORD97":2561911.4100000001,"ADDRESS":"中山路１２８號","OBJECTID":623039},"geometry":{"x":165780.0700000003,"y":2561911.4100000001}},{"attributes":{"ID":623067,"DIS_CODE":0,"TOWNNAME":"佳里區","LI":"忠仁里","LIN":"6鄰","STREET":"中山路","SECT":" ","MAREA":" ","LANE":" ","ALLEY":" ","HOUSE_NO":"１３０號","E_COORD97":165778.04999999999,"N_COORD97":2561919.1699999999,"ADDRESS":"中山路１３０號","OBJECTID":623040},"geometry":{"x":165778.04999999981,"y":2561919.1699999999}},{"attributes":{"ID":623068,"DIS_CODE":0,"TOWNNAME":"佳里區","LI":"忠仁里","LIN":"6鄰","STREET":"中山路","SECT":" ","MAREA":" ","LANE":" ","ALLEY":" ","HOUSE_NO":"１３６號","E_COORD97":165777.34,"N_COORD97":2561927.8100000001,"ADDRESS":"中山路１３６號","OBJECTID":623041},"geometry":{"x":165777.34000000078,"y":2561927.8100000024}},{"attributes":{"ID":623069,"DIS_CODE":0,"TOWNNAME":"佳里區","LI":"忠仁里","LIN":"6鄰","STREET":"中山路","SECT":" ","MAREA":" ","LANE":" ","ALLEY":" ","HOUSE_NO":"１３８號","E_COORD97":165776.14999999999,"N_COORD97":2561932.6000000001,"ADDRESS":"中山路１３８號","OBJECTID":623042},"geometry":{"x":165776.15000000037,"y":2561932.6000000015}},{"attributes":{"ID":623070,"DIS_CODE":0,"TOWNNAME":"佳里區","LI":"忠仁里","LIN":"6鄰","STREET":"中山路","SECT":" ","MAREA":" ","LANE":" ","ALLEY":" ","HOUSE_NO":"１４０號","E_COORD97":165775.35999999999,"N_COORD97":2561937.4399999999,"ADDRESS":"中山路１４０號","OBJECTID":623043},"geometry":{"x":165775.3600000022,"y":2561937.4399999995}},{"attributes":{"ID":623071,"DIS_CODE":0,"TOWNNAME":"佳里區","LI":"忠仁里","LIN":"6鄰","STREET":"中山路","SECT":" ","MAREA":" ","LANE":" ","ALLEY":" ","HOUSE_NO":"１４２號","E_COORD97":165774.35999999999,"N_COORD97":2561943.0099999998,"ADDRESS":"中山路１４２號","OBJECTID":623044},"geometry":{"x":165774.36000000127,"y":2561943.0100000016}},{"attributes":{"ID":623072,"DIS_CODE":0,"TOWNNAME":"佳里區","LI":"忠仁里","LIN":"6鄰","STREET":"中山路","SECT":" ","MAREA":" ","LANE":" ","ALLEY":" ","HOUSE_NO":"１５０號","E_COORD97":165772.63,"N_COORD97":2561960.1699999999,"ADDRESS":"中山路１５０號","OBJECTID":623045},"geometry":{"x":165772.62999999989,"y":2561960.1699999999}},{"attributes":{"ID":623073,"DIS_CODE":0,"TOWNNAME":"佳里區","LI":"忠仁里","LIN":"6鄰","STREET":"中山路","SECT":" ","MAREA":" ","LANE":" ","ALLEY":" ","HOUSE_NO":"１５２號","E_COORD97":165772.01999999999,"N_COORD97":2561964.4100000001,"ADDRESS":"中山路１５２號","OBJECTID":623046},"geometry":{"x":165772.02000000048,"y":2561964.410000002}},{"attributes":{"ID":623074,"DIS_CODE":0,"TOWNNAME":"佳里區","LI":"忠仁里","LIN":"6鄰","STREET":"中山路","SECT":" ","MAREA":" ","LANE":" ","ALLEY":" ","HOUSE_NO":"１５４號","E_COORD97":165771.29000000001,"N_COORD97":2561969.7999999998,"ADDRESS":"中山路１５４號","OBJECTID":623047},"geometry":{"x":165771.29000000004,"y":2561969.8000000026}},{"attributes":{"ID":623075,"DIS_CODE":0,"TOWNNAME":"佳里區","LI":"鎮山里","LIN":"3鄰","STREET":"中山路","SECT":" ","MAREA":" ","LANE":" ","ALLEY":" ","HOUSE_NO":"１４號","E_COORD97":165854.34,"N_COORD97":2561618.9300000002,"ADDRESS":"中山路１４號","OBJECTID":623048},"geometry":{"x":165854.33999999985,"y":2561618.9299999997}},{"attributes":{"ID":623076,"DIS_CODE":0,"TOWNNAME":"佳里區","LI":"鎮山里","LIN":"3鄰","STREET":"中山路","SECT":" ","MAREA":" ","LANE":" ","ALLEY":" ","HOUSE_NO":"１６號","E_COORD97":165852.70999999999,"N_COORD97":2561623.4100000001,"ADDRESS":"中山路１６號","OBJECTID":623049},"geometry":{"x":165852.71000000089,"y":2561623.4100000001}},{"attributes":{"ID":623077,"DIS_CODE":0,"TOWNNAME":"佳里區","LI":"忠仁里","LIN":"4鄰","STREET":"中山路","SECT":" ","MAREA":" ","LANE":" ","ALLEY":" ","HOUSE_NO":"１７２號之１","E_COORD97":165755.87,"N_COORD97":2562081.7200000002,"ADDRESS":"中山路１７２號之１","OBJECTID":623050},"geometry":{"x":165755.87000000011,"y":2562081.7200000025}},{"attributes":{"ID":623078,"DIS_CODE":0,"TOWNNAME":"佳里區","LI":"忠仁里","LIN":"4鄰","STREET":"中山路","SECT":" ","MAREA":" ","LANE":" ","ALLEY":" ","HOUSE_NO":"１７２號","E_COORD97":165755.76000000001,"N_COORD97":2562087.6000000001,"ADDRESS":"中山路１７２號","OBJECTID":623051},"geometry":{"x":165755.76000000071,"y":2562087.6000000015}},{"attributes":{"ID":623079,"DIS_CODE":0,"TOWNNAME":"佳里區","LI":"忠仁里","LIN":"4鄰","STREET":"中山路","SECT":" ","MAREA":" ","LANE":" ","ALLEY":" ","HOUSE_NO":"１７４號","E_COORD97":165756.89999999999,"N_COORD97":2562092.1200000001,"ADDRESS":"中山路１７４號","OBJECTID":623052},"geometry":{"x":165756.9000000013,"y":2562092.1200000048}},{"attributes":{"ID":623080,"DIS_CODE":0,"TOWNNAME":"佳里區","LI":"忠仁里","LIN":"4鄰","STREET":"中山路","SECT":" ","MAREA":" ","LANE":" ","ALLEY":" ","HOUSE_NO":"１７６號","E_COORD97":165756.44,"N_COORD97":2562097.23,"ADDRESS":"中山路１７６號","OBJECTID":623053},"geometry":{"x":165756.44000000134,"y":2562097.2300000042}},{"attributes":{"ID":623081,"DIS_CODE":0,"TOWNNAME":"佳里區","LI":"忠仁里","LIN":"4鄰","STREET":"中山路","SECT":" ","MAREA":" ","LANE":" ","ALLEY":" ","HOUSE_NO":"１７８號","E_COORD97":165755.95000000001,"N_COORD97":2562101.6200000001,"ADDRESS":"中山路１７８號","OBJECTID":623054},"geometry":{"x":165755.95000000205,"y":2562101.620000001}},{"attributes":{"ID":623082,"DIS_CODE":0,"TOWNNAME":"佳里區","LI":"忠仁里","LIN":"4鄰","STREET":"中山路","SECT":" ","MAREA":" ","LANE":" ","ALLEY":" ","HOUSE_NO":"１８０號","E_COORD97":165755.60999999999,"N_COORD97":2562106.54,"ADDRESS":"中山路１８０號","OBJECTID":623055},"geometry":{"x":165755.61000000127,"y":2562106.5399999991}},{"attributes":{"ID":623083,"DIS_CODE":0,"TOWNNAME":"佳里區","LI":"忠仁里","LIN":"4鄰","STREET":"中山路","SECT":" ","MAREA":" ","LANE":" ","ALLEY":" ","HOUSE_NO":"１８２號","E_COORD97":165755.22,"N_COORD97":2562110.5099999998,"ADDRESS":"中山路１８２號","OBJECTID":623056},"geometry":{"x":165755.2200000016,"y":2562110.5099999998}},{"attributes":{"ID":623084,"DIS_CODE":0,"TOWNNAME":"佳里區","LI":"忠仁里","LIN":"4鄰","STREET":"中山路","SECT":" ","MAREA":" ","LANE":" ","ALLEY":" ","HOUSE_NO":"１８４號","E_COORD97":165754.70999999999,"N_COORD97":2562115.0600000001,"ADDRESS":"中山路１８４號","OBJECTID":623057},"geometry":{"x":165754.70999999996,"y":2562115.0600000005}},{"attributes":{"ID":623085,"DIS_CODE":0,"TOWNNAME":"佳里區","LI":"忠仁里","LIN":"4鄰","STREET":"中山路","SECT":" ","MAREA":" ","LANE":" ","ALLEY":" ","HOUSE_NO":"１８６號","E_COORD97":165753.67999999999,"N_COORD97":2562119.6200000001,"ADDRESS":"中山路１８６號","OBJECTID":623058},"geometry":{"x":165753.68000000156,"y":2562119.6200000029}},{"attributes":{"ID":623086,"DIS_CODE":0,"TOWNNAME":"佳里區","LI":"忠仁里","LIN":"4鄰","STREET":"中山路","SECT":" ","MAREA":" ","LANE":" ","ALLEY":" ","HOUSE_NO":"１８８號","E_COORD97":165752.85999999999,"N_COORD97":2562124.1299999999,"ADDRESS":"中山路１８８號","OBJECTID":623059},"geometry":{"x":165752.86000000034,"y":2562124.1300000008}},{"attributes":{"ID":623087,"DIS_CODE":0,"TOWNNAME":"佳里區","LI":"忠仁里","LIN":"4鄰","STREET":"中山路","SECT":" ","MAREA":" ","LANE":" ","ALLEY":" ","HOUSE_NO":"１９２號之１","E_COORD97":165781.47,"N_COORD97":2562137.1600000001,"ADDRESS":"中山路１９２號之１","OBJECTID":623060},"geometry":{"x":165781.47000000067,"y":2562137.1600000001}},{"attributes":{"ID":623088,"DIS_CODE":0,"TOWNNAME":"佳里區","LI":"忠仁里","LIN":"4鄰","STREET":"中山路","SECT":" ","MAREA":" ","LANE":" ","ALLEY":" ","HOUSE_NO":"１９２號","E_COORD97":165774.41,"N_COORD97":2562149.1299999999,"ADDRESS":"中山路１９２號","OBJECTID":623061},"geometry":{"x":165774.41000000015,"y":2562149.129999999}},{"attributes":{"ID":623089,"DIS_CODE":0,"TOWNNAME":"佳里區","LI":"忠仁里","LIN":"4鄰","STREET":"中山路","SECT":" ","MAREA":" ","LANE":" ","ALLEY":" ","HOUSE_NO":"１９４號","E_COORD97":165748.75,"N_COORD97":2562142.1800000002,"ADDRESS":"中山路１９４號","OBJECTID":623062},"geometry":{"x":165748.75000000093,"y":2562142.1800000016}},{"attributes":{"ID":623090,"DIS_CODE":0,"TOWNNAME":"佳里區","LI":"忠仁里","LIN":"4鄰","STREET":"中山路","SECT":" ","MAREA":" ","LANE":" ","ALLEY":" ","HOUSE_NO":"１９６號","E_COORD97":165748.17000000001,"N_COORD97":2562146.6600000001,"ADDRESS":"中山路１９６號","OBJECTID":623063},"geometry":{"x":165748.16999999993,"y":2562146.6600000001}},{"attributes":{"ID":623091,"DIS_CODE":0,"TOWNNAME":"佳里區","LI":"建南里","LIN":"8鄰","STREET":"中山路","SECT":" ","MAREA":" ","LANE":" ","ALLEY":" ","HOUSE_NO":"１８９號","E_COORD97":165720.76999999999,"N_COORD97":2562078.3999999999,"ADDRESS":"中山路１８９號","OBJECTID":623064},"geometry":{"x":165720.77000000142,"y":2562078.4000000004}},{"attributes":{"ID":623092,"DIS_CODE":0,"TOWNNAME":"佳里區","LI":"建南里","LIN":"8鄰","STREET":"中山路","SECT":" ","MAREA":" ","LANE":" ","ALLEY":" ","HOUSE_NO":"１９１號","E_COORD97":165729.76000000001,"N_COORD97":2562086.6899999999,"ADDRESS":"中山路１９１號","OBJECTID":623065},"geometry":{"x":165729.76000000071,"y":2562086.6900000013}},{"attributes":{"ID":623093,"DIS_CODE":0,"TOWNNAME":"佳里區","LI":"建南里","LIN":"8鄰","STREET":"中山路","SECT":" ","MAREA":" ","LANE":" ","ALLEY":" ","HOUSE_NO":"１９３號","E_COORD97":165727.57999999999,"N_COORD97":2562091.3900000001,"ADDRESS":"中山路１９３號","OBJECTID":623066},"geometry":{"x":165727.57999999914,"y":2562091.3900000006}},{"attributes":{"ID":623094,"DIS_CODE":0,"TOWNNAME":"佳里區","LI":"建南里","LIN":"8鄰","STREET":"中山路","SECT":" ","MAREA":" ","LANE":" ","ALLEY":" ","HOUSE_NO":"２１７號","E_COORD97":165722.78,"N_COORD97":2562139.79,"ADDRESS":"中山路２１７號","OBJECTID":623067},"geometry":{"x":165722.78000000026,"y":2562139.7900000028}},{"attributes":{"ID":623095,"DIS_CODE":0,"TOWNNAME":"佳里區","LI":"建南里","LIN":"8鄰","STREET":"中山路","SECT":" ","MAREA":" ","LANE":" ","ALLEY":" ","HOUSE_NO":"２１９號","E_COORD97":165722.59,"N_COORD97":2562143.5099999998,"ADDRESS":"中山路２１９號","OBJECTID":623068},"geometry":{"x":165722.59000000078,"y":2562143.5100000016}},{"attributes":{"ID":623096,"DIS_CODE":0,"TOWNNAME":"佳里區","LI":"忠仁里","LIN":"1鄰","STREET":"中山路","SECT":" ","MAREA":" ","LANE":" ","ALLEY":" ","HOUSE_NO":"２５６號","E_COORD97":165729.54999999999,"N_COORD97":2562268.2000000002,"ADDRESS":"中山路２５６號","OBJECTID":623069},"geometry":{"x":165729.55000000075,"y":2562268.1999999993}},{"attributes":{"ID":623097,"DIS_CODE":0,"TOWNNAME":"佳里區","LI":"東寧里","LIN":"1鄰","STREET":"中山路","SECT":" ","MAREA":" ","LANE":" ","ALLEY":" ","HOUSE_NO":"２７０號","E_COORD97":165725.73000000001,"N_COORD97":2562298.8999999999,"ADDRESS":"中山路２７０號","OBJECTID":623070},"geometry":{"x":165725.73000000138,"y":2562298.9000000004}},{"attributes":{"ID":623098,"DIS_CODE":0,"TOWNNAME":"佳里區","LI":"安西里","LIN":"8鄰","STREET":"中山路","SECT":" ","MAREA":" ","LANE":" ","ALLEY":" ","HOUSE_NO":"３０５號","E_COORD97":165693.14000000001,"N_COORD97":2562417.29,"ADDRESS":"中山路３０５號","OBJECTID":623071},"geometry":{"x":165693.1400000006,"y":2562417.2899999972}},{"attributes":{"ID":623099,"DIS_CODE":0,"TOWNNAME":"佳里區","LI":"安西里","LIN":"8鄰","STREET":"中山路","SECT":" ","MAREA":" ","LANE":" ","ALLEY":" ","HOUSE_NO":"３１１號","E_COORD97":165692.13,"N_COORD97":2562428.4199999999,"ADDRESS":"中山路３１１號","OBJECTID":623072},"geometry":{"x":165692.13000000082,"y":2562428.4200000018}},{"attributes":{"ID":623100,"DIS_CODE":0,"TOWNNAME":"佳里區","LI":"安西里","LIN":"8鄰","STREET":"中山路","SECT":" ","MAREA":" ","LANE":" ","ALLEY":" ","HOUSE_NO":"３１３號","E_COORD97":165691.79999999999,"N_COORD97":2562431.9300000002,"ADDRESS":"中山路３１３號","OBJECTID":623073},"geometry":{"x":165691.79999999981,"y":2562431.9300000016}},{"attributes":{"ID":623101,"DIS_CODE":0,"TOWNNAME":"佳里區","LI":"安西里","LIN":"8鄰","STREET":"中山路","SECT":" ","MAREA":" ","LANE":" ","ALLEY":" ","HOUSE_NO":"３１５號","E_COORD97":165690.91,"N_COORD97":2562435.3999999999,"ADDRESS":"中山路３１５號","OBJECTID":623074},"geometry":{"x":165690.91000000015,"y":2562435.4000000022}},{"attributes":{"ID":623102,"DIS_CODE":0,"TOWNNAME":"佳里區","LI":"安西里","LIN":"8鄰","STREET":"中山路","SECT":" ","MAREA":" ","LANE":" ","ALLEY":" ","HOUSE_NO":"３１７號","E_COORD97":165690.35999999999,"N_COORD97":2562438.9199999999,"ADDRESS":"中山路３１７號","OBJECTID":623075},"geometry":{"x":165690.3599999994,"y":2562438.9200000018}},{"attributes":{"ID":623103,"DIS_CODE":0,"TOWNNAME":"佳里區","LI":"安西里","LIN":"8鄰","STREET":"中山路","SECT":" ","MAREA":" ","LANE":" ","ALLEY":" ","HOUSE_NO":"３１９號","E_COORD97":165690,"N_COORD97":2562442.3599999999,"ADDRESS":"中山路３１９號","OBJECTID":623076},"geometry":{"x":165690.00000000093,"y":2562442.3600000013}},{"attributes":{"ID":623104,"DIS_CODE":0,"TOWNNAME":"佳里區","LI":"東寧里","LIN":"7鄰","STREET":"中山路","SECT":" ","MAREA":" ","LANE":" ","ALLEY":" ","HOUSE_NO":"３１號","E_COORD97":165809.79000000001,"N_COORD97":2561672.3900000001,"ADDRESS":"中山路３１號","OBJECTID":623077},"geometry":{"x":165809.79000000097,"y":2561672.3899999987}},{"attributes":{"ID":623105,"DIS_CODE":0,"TOWNNAME":"佳里區","LI":"東寧里","LIN":"4鄰","STREET":"中山路","SECT":" ","MAREA":" ","LANE":" ","ALLEY":" ","HOUSE_NO":"３２０號","E_COORD97":165716.95000000001,"N_COORD97":2562398.5099999998,"ADDRESS":"中山路３２０號","OBJECTID":623078},"geometry":{"x":165716.95000000205,"y":2562398.5099999998}},{"attributes":{"ID":623106,"DIS_CODE":0,"TOWNNAME":"佳里區","LI":"東寧里","LIN":"4鄰","STREET":"中山路","SECT":" ","MAREA":" ","LANE":" ","ALLEY":" ","HOUSE_NO":"３２２號","E_COORD97":165716.26999999999,"N_COORD97":2562401.9500000002,"ADDRESS":"中山路３２２號","OBJECTID":623079},"geometry":{"x":165716.27000000048,"y":2562401.9499999993}},{"attributes":{"ID":623107,"DIS_CODE":0,"TOWNNAME":"佳里區","LI":"東寧里","LIN":"4鄰","STREET":"中山路","SECT":" ","MAREA":" ","LANE":" ","ALLEY":" ","HOUSE_NO":"３２４號","E_COORD97":165715.75,"N_COORD97":2562405.3100000001,"ADDRESS":"中山路３２４號","OBJECTID":623080},"geometry":{"x":165715.75,"y":2562405.3100000042}},{"attributes":{"ID":623108,"DIS_CODE":0,"TOWNNAME":"佳里區","LI":"安西里","LIN":"8鄰","STREET":"中山路","SECT":" ","MAREA":" ","LANE":" ","ALLEY":" ","HOUSE_NO":"３２１號","E_COORD97":165689.54999999999,"N_COORD97":2562445.8999999999,"ADDRESS":"中山路３２１號","OBJECTID":623081},"geometry":{"x":165689.54999999981,"y":2562445.9000000022}},{"attributes":{"ID":623109,"DIS_CODE":0,"TOWNNAME":"佳里區","LI":"安西里","LIN":"8鄰","STREET":"中山路","SECT":" ","MAREA":" ","LANE":" ","ALLEY":" ","HOUSE_NO":"３２３號","E_COORD97":165688.98999999999,"N_COORD97":2562450.0899999999,"ADDRESS":"中山路３２３號","OBJECTID":623082},"geometry":{"x":165688.99000000022,"y":2562450.0900000036}},{"attributes":{"ID":623110,"DIS_CODE":0,"TOWNNAME":"佳里區","LI":"安西里","LIN":"8鄰","STREET":"中山路","SECT":" ","MAREA":" ","LANE":" ","ALLEY":" ","HOUSE_NO":"３２５號","E_COORD97":165687.54000000001,"N_COORD97":2562454.7599999998,"ADDRESS":"中山路３２５號","OBJECTID":623083},"geometry":{"x":165687.54000000097,"y":2562454.7599999998}},{"attributes":{"ID":623111,"DIS_CODE":0,"TOWNNAME":"佳里區","LI":"安西里","LIN":"8鄰","STREET":"中山路","SECT":" ","MAREA":" ","LANE":" ","ALLEY":" ","HOUSE_NO":"３２７號","E_COORD97":165687.19,"N_COORD97":2562458.5099999998,"ADDRESS":"中山路３２７號","OBJECTID":623084},"geometry":{"x":165687.19000000134,"y":2562458.5100000016}},{"attributes":{"ID":623112,"DIS_CODE":0,"TOWNNAME":"佳里區","LI":"安西里","LIN":"8鄰","STREET":"中山路","SECT":" ","MAREA":" ","LANE":" ","ALLEY":" ","HOUSE_NO":"３２９號","E_COORD97":165687.06,"N_COORD97":2562463.29,"ADDRESS":"中山路３２９號","OBJECTID":623085},"geometry":{"x":165687.06000000052,"y":2562463.290000001}},{"attributes":{"ID":623113,"DIS_CODE":0,"TOWNNAME":"佳里區","LI":"安西里","LIN":"8鄰","STREET":"中山路","SECT":" ","MAREA":" ","LANE":" ","ALLEY":" ","HOUSE_NO":"３３１號","E_COORD97":165687.12,"N_COORD97":2562467.73,"ADDRESS":"中山路３３１號","OBJECTID":623086},"geometry":{"x":165687.12000000104,"y":2562467.7300000023}},{"attributes":{"ID":623114,"DIS_CODE":0,"TOWNNAME":"佳里區","LI":"安西里","LIN":"8鄰","STREET":"中山路","SECT":" ","MAREA":" ","LANE":" ","ALLEY":" ","HOUSE_NO":"３３３號","E_COORD97":165686.95000000001,"N_COORD97":2562471.4199999999,"ADDRESS":"中山路３３３號","OBJECTID":623087},"geometry":{"x":165686.95000000112,"y":2562471.4199999999}},{"attributes":{"ID":623115,"DIS_CODE":0,"TOWNNAME":"佳里區","LI":"安西里","LIN":"8鄰","STREET":"中山路","SECT":" ","MAREA":" ","LANE":" ","ALLEY":" ","HOUSE_NO":"３３５號","E_COORD97":165686.56,"N_COORD97":2562475.0800000001,"ADDRESS":"中山路３３５號","OBJECTID":623088},"geometry":{"x":165686.55999999866,"y":2562475.0800000019}},{"attributes":{"ID":623116,"DIS_CODE":0,"TOWNNAME":"佳里區","LI":"安西里","LIN":"8鄰","STREET":"中山路","SECT":" ","MAREA":" ","LANE":" ","ALLEY":" ","HOUSE_NO":"３３７號","E_COORD97":165686.23000000001,"N_COORD97":2562479.0699999998,"ADDRESS":"中山路３３７號","OBJECTID":623089},"geometry":{"x":165686.23000000045,"y":2562479.0700000022}},{"attributes":{"ID":623117,"DIS_CODE":0,"TOWNNAME":"佳里區","LI":"安西里","LIN":"8鄰","STREET":"中山路","SECT":" ","MAREA":" ","LANE":" ","ALLEY":" ","HOUSE_NO":"３３９號","E_COORD97":165685.89999999999,"N_COORD97":2562482.6299999999,"ADDRESS":"中山路３３９號","OBJECTID":623090},"geometry":{"x":165685.9000000013,"y":2562482.6299999971}},{"attributes":{"ID":623118,"DIS_CODE":0,"TOWNNAME":"佳里區","LI":"安西里","LIN":"8鄰","STREET":"中山路","SECT":" ","MAREA":" ","LANE":" ","ALLEY":" ","HOUSE_NO":"３４１號","E_COORD97":165688.45000000001,"N_COORD97":2562488.0600000001,"ADDRESS":"中山路３４１號","OBJECTID":623091},"geometry":{"x":165688.45000000112,"y":2562488.0600000005}},{"attributes":{"ID":623119,"DIS_CODE":0,"TOWNNAME":"佳里區","LI":"安西里","LIN":"8鄰","STREET":"中山路","SECT":" ","MAREA":" ","LANE":" ","ALLEY":" ","HOUSE_NO":"３４３號","E_COORD97":165686.97,"N_COORD97":2562492.96,"ADDRESS":"中山路３４３號","OBJECTID":623092},"geometry":{"x":165686.96999999974,"y":2562492.9600000046}},{"attributes":{"ID":623120,"DIS_CODE":0,"TOWNNAME":"佳里區","LI":"安西里","LIN":"8鄰","STREET":"中山路","SECT":" ","MAREA":" ","LANE":" ","ALLEY":" ","HOUSE_NO":"３５３號","E_COORD97":165683.60000000001,"N_COORD97":2562529.75,"ADDRESS":"中山路３５３號","OBJECTID":623093},"geometry":{"x":165683.60000000056,"y":2562529.75}},{"attributes":{"ID":623121,"DIS_CODE":0,"TOWNNAME":"佳里區","LI":"安西里","LIN":"7鄰","STREET":"中山路","SECT":" ","MAREA":" ","LANE":" ","ALLEY":" ","HOUSE_NO":"３５５號","E_COORD97":165683.60000000001,"N_COORD97":2562534.6099999999,"ADDRESS":"中山路３５５號","OBJECTID":623094},"geometry":{"x":165683.60000000056,"y":2562534.6100000031}},{"attributes":{"ID":623122,"DIS_CODE":0,"TOWNNAME":"佳里區","LI":"安西里","LIN":"7鄰","STREET":"中山路","SECT":" ","MAREA":" ","LANE":" ","ALLEY":" ","HOUSE_NO":"３５７號","E_COORD97":165683.67000000001,"N_COORD97":2562539.8500000001,"ADDRESS":"中山路３５７號","OBJECTID":623095},"geometry":{"x":165683.67000000086,"y":2562539.8500000034}},{"attributes":{"ID":623123,"DIS_CODE":0,"TOWNNAME":"佳里區","LI":"安西里","LIN":"1鄰","STREET":"中山路","SECT":" ","MAREA":" ","LANE":" ","ALLEY":" ","HOUSE_NO":"３５９號","E_COORD97":165698.98000000001,"N_COORD97":2562600.02,"ADDRESS":"中山路３５９號","OBJECTID":623096},"geometry":{"x":165698.98000000138,"y":2562600.0200000014}},{"attributes":{"ID":623124,"DIS_CODE":0,"TOWNNAME":"佳里區","LI":"建南里","LIN":"20鄰","STREET":"中山路","SECT":" ","MAREA":" ","LANE":" ","ALLEY":" ","HOUSE_NO":"３７號","E_COORD97":165804.81,"N_COORD97":2561695.6200000001,"ADDRESS":"中山路３７號","OBJECTID":623097},"geometry":{"x":165804.80999999959,"y":2561695.6200000029}},{"attributes":{"ID":623125,"DIS_CODE":0,"TOWNNAME":"佳里區","LI":"建南里","LIN":"20鄰","STREET":"中山路","SECT":" ","MAREA":" ","LANE":" ","ALLEY":" ","HOUSE_NO":"３９號","E_COORD97":165803.60000000001,"N_COORD97":2561699.4199999999,"ADDRESS":"中山路３９號","OBJECTID":623098},"geometry":{"x":165803.60000000056,"y":2561699.4200000018}},{"attributes":{"ID":623126,"DIS_CODE":0,"TOWNNAME":"佳里區","LI":"建南里","LIN":"20鄰","STREET":"中山路","SECT":" ","MAREA":" ","LANE":" ","ALLEY":" ","HOUSE_NO":"３號","E_COORD97":165828.82000000001,"N_COORD97":2561612.7599999998,"ADDRESS":"中山路３號","OBJECTID":623099},"geometry":{"x":165828.82000000123,"y":2561612.7600000016}},{"attributes":{"ID":623127,"DIS_CODE":0,"TOWNNAME":"佳里區","LI":"東寧里","LIN":"8鄰","STREET":"中山路","SECT":" ","MAREA":" ","LANE":" ","ALLEY":" ","HOUSE_NO":"３７６號","E_COORD97":165707.5,"N_COORD97":2562520.21,"ADDRESS":"中山路３７６號","OBJECTID":623100},"geometry":{"x":165707.5,"y":2562520.2100000009}},{"attributes":{"ID":623128,"DIS_CODE":0,"TOWNNAME":"佳里區","LI":"東寧里","LIN":"8鄰","STREET":"中山路","SECT":" ","MAREA":" ","LANE":" ","ALLEY":" ","HOUSE_NO":"３７８號","E_COORD97":165710.38,"N_COORD97":2562530.1499999999,"ADDRESS":"中山路３７８號","OBJECTID":623101},"geometry":{"x":165710.38000000082,"y":2562530.1500000004}},{"attributes":{"ID":623129,"DIS_CODE":0,"TOWNNAME":"佳里區","LI":"東寧里","LIN":"8鄰","STREET":"中山路","SECT":" ","MAREA":" ","LANE":" ","ALLEY":" ","HOUSE_NO":"３８０號","E_COORD97":165710.88,"N_COORD97":2562533.8199999998,"ADDRESS":"中山路３８０號","OBJECTID":623102},"geometry":{"x":165710.88000000082,"y":2562533.820000004}},{"attributes":{"ID":623130,"DIS_CODE":0,"TOWNNAME":"佳里區","LI":"東寧里","LIN":"8鄰","STREET":"中山路","SECT":" ","MAREA":" ","LANE":" ","ALLEY":" ","HOUSE_NO":"３８２號","E_COORD97":165711.35000000001,"N_COORD97":2562537.6299999999,"ADDRESS":"中山路３８２號","OBJECTID":623103},"geometry":{"x":165711.34999999963,"y":2562537.6300000008}},{"attributes":{"ID":623131,"DIS_CODE":0,"TOWNNAME":"佳里區","LI":"六安里","LIN":"24鄰","STREET":"中山路","SECT":" ","MAREA":" ","LANE":" ","ALLEY":" ","HOUSE_NO":"４４７號","E_COORD97":165824.63,"N_COORD97":2562891.29,"ADDRESS":"中山路４４７號","OBJECTID":623104},"geometry":{"x":165824.62999999989,"y":2562891.2899999991}},{"attributes":{"ID":623132,"DIS_CODE":0,"TOWNNAME":"佳里區","LI":"鎮山里","LIN":"12鄰","STREET":"中山路","SECT":" ","MAREA":" ","LANE":" ","ALLEY":" ","HOUSE_NO":"４號","E_COORD97":165860,"N_COORD97":2561596.0499999998,"ADDRESS":"中山路４號","OBJECTID":623105},"geometry":{"x":165860,"y":2561596.0500000007}},{"attributes":{"ID":623133,"DIS_CODE":0,"TOWNNAME":"佳里區","LI":"東寧里","LIN":"10鄰","STREET":"中山路","SECT":" ","MAREA":" ","LANE":" ","ALLEY":" ","HOUSE_NO":"４１４號","E_COORD97":165729.81,"N_COORD97":2562622.6499999999,"ADDRESS":"中山路４１４號","OBJECTID":623106},"geometry":{"x":165729.81000000052,"y":2562622.6500000004}},{"attributes":{"ID":623134,"DIS_CODE":0,"TOWNNAME":"佳里區","LI":"東寧里","LIN":"10鄰","STREET":"中山路","SECT":" ","MAREA":" ","LANE":" ","ALLEY":" ","HOUSE_NO":"４１６號","E_COORD97":165730.98000000001,"N_COORD97":2562628.4700000002,"ADDRESS":"中山路４１６號","OBJECTID":623107},"geometry":{"x":165730.98000000138,"y":2562628.4700000025}},{"attributes":{"ID":623135,"DIS_CODE":0,"TOWNNAME":"佳里區","LI":"東寧里","LIN":"10鄰","STREET":"中山路","SECT":" ","MAREA":" ","LANE":" ","ALLEY":" ","HOUSE_NO":"４１８號","E_COORD97":165732.39999999999,"N_COORD97":2562632.5899999999,"ADDRESS":"中山路４１８號","OBJECTID":623108},"geometry":{"x":165732.40000000037,"y":2562632.5899999999}},{"attributes":{"ID":623136,"DIS_CODE":0,"TOWNNAME":"佳里區","LI":"東寧里","LIN":"10鄰","STREET":"中山路","SECT":" ","MAREA":" ","LANE":" ","ALLEY":" ","HOUSE_NO":"４２０號","E_COORD97":165735.78,"N_COORD97":2562638.6400000001,"ADDRESS":"中山路４２０號","OBJECTID":623109},"geometry":{"x":165735.78000000119,"y":2562638.6400000025}},{"attributes":{"ID":623137,"DIS_CODE":0,"TOWNNAME":"佳里區","LI":"東寧里","LIN":"10鄰","STREET":"中山路","SECT":" ","MAREA":" ","LANE":" ","ALLEY":" ","HOUSE_NO":"４３０號","E_COORD97":165742.20000000001,"N_COORD97":2562651.29,"ADDRESS":"中山路４３０號","OBJECTID":623110},"geometry":{"x":165742.20000000205,"y":2562651.2899999972}},{"attributes":{"ID":623138,"DIS_CODE":0,"TOWNNAME":"佳里區","LI":"六安里","LIN":"29鄰","STREET":"中山路","SECT":" ","MAREA":" ","LANE":" ","ALLEY":" ","HOUSE_NO":"４１３號","E_COORD97":165750,"N_COORD97":2562731.3999999999,"ADDRESS":"中山路４１３號","OBJECTID":623111},"geometry":{"x":165750,"y":2562731.4000000022}},{"attributes":{"ID":623139,"DIS_CODE":0,"TOWNNAME":"佳里區","LI":"六安里","LIN":"29鄰","STREET":"中山路","SECT":" ","MAREA":" ","LANE":" ","ALLEY":" ","HOUSE_NO":"４１７號","E_COORD97":165759.51000000001,"N_COORD97":2562761.3900000001,"ADDRESS":"中山路４１７號","OBJECTID":623112},"geometry":{"x":165759.50999999978,"y":2562761.3900000025}},{"attributes":{"ID":623140,"DIS_CODE":0,"TOWNNAME":"佳里區","LI":"六安里","LIN":"27鄰","STREET":"中山路","SECT":" ","MAREA":" ","LANE":" ","ALLEY":" ","HOUSE_NO":"４３１號","E_COORD97":165790.72,"N_COORD97":2562812.3900000001,"ADDRESS":"中山路４３１號","OBJECTID":623113},"geometry":{"x":165790.71999999881,"y":2562812.3900000025}},{"attributes":{"ID":623141,"DIS_CODE":0,"TOWNNAME":"佳里區","LI":"六安里","LIN":"27鄰","STREET":"中山路","SECT":" ","MAREA":" ","LANE":" ","ALLEY":" ","HOUSE_NO":"４３３號","E_COORD97":165792.45000000001,"N_COORD97":2562816.5099999998,"ADDRESS":"中山路４３３號","OBJECTID":623114},"geometry":{"x":165792.45000000019,"y":2562816.5099999998}},{"attributes":{"ID":623142,"DIS_CODE":0,"TOWNNAME":"佳里區","LI":"六安里","LIN":"27鄰","STREET":"中山路","SECT":" ","MAREA":" ","LANE":" ","ALLEY":" ","HOUSE_NO":"４３５號","E_COORD97":165794.07999999999,"N_COORD97":2562820.71,"ADDRESS":"中山路４３５號","OBJECTID":623115},"geometry":{"x":165794.08000000101,"y":2562820.7100000028}},{"attributes":{"ID":623143,"DIS_CODE":0,"TOWNNAME":"佳里區","LI":"建南里","LIN":"4鄰","STREET":"中和街","SECT":" ","MAREA":" ","LANE":" ","ALLEY":" ","HOUSE_NO":"１０３號","E_COORD97":165579.54000000001,"N_COORD97":2562355.7999999998,"ADDRESS":"中和街１０３號","OBJECTID":623116},"geometry":{"x":165579.54000000097,"y":2562355.8000000026}},{"attributes":{"ID":623144,"DIS_CODE":0,"TOWNNAME":"佳里區","LI":"建南里","LIN":"4鄰","STREET":"中和街","SECT":" ","MAREA":" ","LANE":" ","ALLEY":" ","HOUSE_NO":"１０５號","E_COORD97":165579.04999999999,"N_COORD97":2562359.98,"ADDRESS":"中和街１０５號","OBJECTID":623117},"geometry":{"x":165579.05000000075,"y":2562359.9800000042}},{"attributes":{"ID":623145,"DIS_CODE":0,"TOWNNAME":"佳里區","LI":"建南里","LIN":"18鄰","STREET":"中山路","SECT":" ","MAREA":" ","LANE":" ","ALLEY":" ","HOUSE_NO":"７１號","E_COORD97":165782.48000000001,"N_COORD97":2561778.6800000002,"ADDRESS":"中山路７１號","OBJECTID":623118},"geometry":{"x":165782.48000000045,"y":2561778.6800000016}},{"attributes":{"ID":623146,"DIS_CODE":0,"TOWNNAME":"佳里區","LI":"建南里","LIN":"18鄰","STREET":"中山路","SECT":" ","MAREA":" ","LANE":" ","ALLEY":" ","HOUSE_NO":"７３號","E_COORD97":165780.01999999999,"N_COORD97":2561785.1699999999,"ADDRESS":"中山路７３號","OBJECTID":623119},"geometry":{"x":165780.01999999862,"y":2561785.1700000037}},{"attributes":{"ID":623147,"DIS_CODE":0,"TOWNNAME":"佳里區","LI":"建南里","LIN":"18鄰","STREET":"中山路","SECT":" ","MAREA":" ","LANE":" ","ALLEY":" ","HOUSE_NO":"７５號","E_COORD97":165778.41,"N_COORD97":2561789.1699999999,"ADDRESS":"中山路７５號","OBJECTID":623120},"geometry":{"x":165778.41000000108,"y":2561789.1700000018}},{"attributes":{"ID":623148,"DIS_CODE":0,"TOWNNAME":"佳里區","LI":"建南里","LIN":"18鄰","STREET":"中山路","SECT":" ","MAREA":" ","LANE":" ","ALLEY":" ","HOUSE_NO":"７７號","E_COORD97":165776.95999999999,"N_COORD97":2561793.71,"ADDRESS":"中山路７７號","OBJECTID":623121},"geometry":{"x":165776.95999999996,"y":2561793.7100000028}},{"attributes":{"ID":623149,"DIS_CODE":0,"TOWNNAME":"佳里區","LI":"建南里","LIN":"20鄰","STREET":"中山路","SECT":" ","MAREA":" ","LANE":" ","ALLEY":" ","HOUSE_NO":"６７號","E_COORD97":165786.44,"N_COORD97":2561759.3599999999,"ADDRESS":"中山路６７號","OBJECTID":623122},"geometry":{"x":165786.44000000041,"y":2561759.3599999994}},{"attributes":{"ID":623150,"DIS_CODE":0,"TOWNNAME":"佳里區","LI":"建南里","LIN":"20鄰","STREET":"中山路","SECT":" ","MAREA":" ","LANE":" ","ALLEY":" ","HOUSE_NO":"６９號","E_COORD97":165785.64000000001,"N_COORD97":2561764.21,"ADDRESS":"中山路６９號","OBJECTID":623123},"geometry":{"x":165785.63999999966,"y":2561764.2100000009}},{"attributes":{"ID":623151,"DIS_CODE":0,"TOWNNAME":"佳里區","LI":"建南里","LIN":"20鄰","STREET":"中山路","SECT":" ","MAREA":" ","LANE":" ","ALLEY":" ","HOUSE_NO":"７號","E_COORD97":165823.89000000001,"N_COORD97":2561620.8199999998,"ADDRESS":"中山路７號","OBJECTID":623124},"geometry":{"x":165823.8900000006,"y":2561620.8200000003}},{"attributes":{"ID":623152,"DIS_CODE":0,"TOWNNAME":"佳里區","LI":"建南里","LIN":"20鄰","STREET":"中山路","SECT":" ","MAREA":" ","LANE":" ","ALLEY":" ","HOUSE_NO":"９號","E_COORD97":165822.94,"N_COORD97":2561625.0600000001,"ADDRESS":"中山路９號","OBJECTID":623125},"geometry":{"x":165822.94000000134,"y":2561625.0600000024}},{"attributes":{"ID":623153,"DIS_CODE":0,"TOWNNAME":"佳里區","LI":"鎮山里","LIN":"2鄰","STREET":"中山路","SECT":" ","MAREA":" ","LANE":" ","ALLEY":" ","HOUSE_NO":"６６號","E_COORD97":165824.51999999999,"N_COORD97":2561745.2400000002,"ADDRESS":"中山路６６號","OBJECTID":623126},"geometry":{"x":165824.52000000048,"y":2561745.2400000021}},{"attributes":{"ID":623154,"DIS_CODE":0,"TOWNNAME":"佳里區","LI":"鎮山里","LIN":"2鄰","STREET":"中山路","SECT":" ","MAREA":" ","LANE":" ","ALLEY":" ","HOUSE_NO":"６８號","E_COORD97":165823.42999999999,"N_COORD97":2561749.02,"ADDRESS":"中山路６８號","OBJECTID":623127},"geometry":{"x":165823.43000000063,"y":2561749.0200000014}},{"attributes":{"ID":623155,"DIS_CODE":0,"TOWNNAME":"佳里區","LI":"鎮山里","LIN":"2鄰","STREET":"中山路","SECT":" ","MAREA":" ","LANE":" ","ALLEY":" ","HOUSE_NO":"７０號","E_COORD97":165822.31,"N_COORD97":2561753.29,"ADDRESS":"中山路７０號","OBJECTID":623128},"geometry":{"x":165822.31000000145,"y":2561753.290000001}},{"attributes":{"ID":623156,"DIS_CODE":0,"TOWNNAME":"佳里區","LI":"鎮山里","LIN":"2鄰","STREET":"中山路","SECT":" ","MAREA":" ","LANE":" ","ALLEY":" ","HOUSE_NO":"７２號","E_COORD97":165821.07999999999,"N_COORD97":2561757.5499999998,"ADDRESS":"中山路７２號","OBJECTID":623129},"geometry":{"x":165821.08000000101,"y":2561757.5500000026}},{"attributes":{"ID":623157,"DIS_CODE":0,"TOWNNAME":"佳里區","LI":"建南里","LIN":"4鄰","STREET":"中和街","SECT":" ","MAREA":" ","LANE":" ","ALLEY":" ","HOUSE_NO":"１０７號","E_COORD97":165578.72,"N_COORD97":2562364.6200000001,"ADDRESS":"中和街１０７號","OBJECTID":623130},"geometry":{"x":165578.71999999974,"y":2562364.6200000029}},{"attributes":{"ID":623158,"DIS_CODE":0,"TOWNNAME":"佳里區","LI":"建南里","LIN":"4鄰","STREET":"中和街","SECT":" ","MAREA":" ","LANE":" ","ALLEY":" ","HOUSE_NO":"１０９號","E_COORD97":165578.67000000001,"N_COORD97":2562369.8399999999,"ADDRESS":"中和街１０９號","OBJECTID":623131},"geometry":{"x":165578.66999999993,"y":2562369.8399999999}},{"attributes":{"ID":623159,"DIS_CODE":0,"TOWNNAME":"佳里區","LI":"建南里","LIN":"4鄰","STREET":"中和街","SECT":" ","MAREA":" ","LANE":" ","ALLEY":" ","HOUSE_NO":"６５號","E_COORD97":165589.62,"N_COORD97":2562276.1699999999,"ADDRESS":"中和街６５號","OBJECTID":623132},"geometry":{"x":165589.62000000011,"y":2562276.1699999999}},{"attributes":{"ID":623160,"DIS_CODE":0,"TOWNNAME":"佳里區","LI":"建南里","LIN":"4鄰","STREET":"中和街","SECT":" ","MAREA":" ","LANE":" ","ALLEY":" ","HOUSE_NO":"６７號","E_COORD97":165589.20999999999,"N_COORD97":2562281.1099999999,"ADDRESS":"中和街６７號","OBJECTID":623133},"geometry":{"x":165589.20999999996,"y":2562281.1100000013}},{"attributes":{"ID":623161,"DIS_CODE":0,"TOWNNAME":"佳里區","LI":"建南里","LIN":"4鄰","STREET":"中和街","SECT":" ","MAREA":" ","LANE":" ","ALLEY":" ","HOUSE_NO":"７１號","E_COORD97":165585.95999999999,"N_COORD97":2562290.29,"ADDRESS":"中和街７１號","OBJECTID":623134},"geometry":{"x":165585.96000000183,"y":2562290.290000001}},{"attributes":{"ID":623162,"DIS_CODE":0,"TOWNNAME":"佳里區","LI":"建南里","LIN":"4鄰","STREET":"中和街","SECT":" ","MAREA":" ","LANE":" ","ALLEY":" ","HOUSE_NO":"７３號","E_COORD97":165585.60000000001,"N_COORD97":2562295.02,"ADDRESS":"中和街７３號","OBJECTID":623135},"geometry":{"x":165585.59999999963,"y":2562295.0200000014}},{"attributes":{"ID":623163,"DIS_CODE":0,"TOWNNAME":"佳里區","LI":"建南里","LIN":"4鄰","STREET":"中和街","SECT":" ","MAREA":" ","LANE":" ","ALLEY":" ","HOUSE_NO":"７５號","E_COORD97":165585.14999999999,"N_COORD97":2562299.48,"ADDRESS":"中和街７５號","OBJECTID":623136},"geometry":{"x":165585.15000000224,"y":2562299.4800000023}},{"attributes":{"ID":623164,"DIS_CODE":0,"TOWNNAME":"佳里區","LI":"建南里","LIN":"4鄰","STREET":"中和街","SECT":" ","MAREA":" ","LANE":" ","ALLEY":" ","HOUSE_NO":"８１號","E_COORD97":165584.66,"N_COORD97":2562303.96,"ADDRESS":"中和街８１號","OBJECTID":623137},"geometry":{"x":165584.66000000015,"y":2562303.9600000028}},{"attributes":{"ID":623165,"DIS_CODE":0,"TOWNNAME":"佳里區","LI":"建南里","LIN":"4鄰","STREET":"中和街","SECT":" ","MAREA":" ","LANE":" ","ALLEY":" ","HOUSE_NO":"８３號","E_COORD97":165583.94,"N_COORD97":2562308.2400000002,"ADDRESS":"中和街８３號","OBJECTID":623138},"geometry":{"x":165583.94000000134,"y":2562308.2400000021}},{"attributes":{"ID":623166,"DIS_CODE":0,"TOWNNAME":"佳里區","LI":"建南里","LIN":"4鄰","STREET":"中和街","SECT":" ","MAREA":" ","LANE":" ","ALLEY":" ","HOUSE_NO":"８５號","E_COORD97":165583.48999999999,"N_COORD97":2562312.29,"ADDRESS":"中和街８５號","OBJECTID":623139},"geometry":{"x":165583.49000000115,"y":2562312.2899999972}},{"attributes":{"ID":623167,"DIS_CODE":0,"TOWNNAME":"佳里區","LI":"建南里","LIN":"6鄰","STREET":"中和街","SECT":" ","MAREA":" ","LANE":" ","ALLEY":" ","HOUSE_NO":"３８號","E_COORD97":165618.57000000001,"N_COORD97":2562166.3500000001,"ADDRESS":"中和街３８號","OBJECTID":623140},"geometry":{"x":165618.57000000123,"y":2562166.3499999996}},{"attributes":{"ID":623168,"DIS_CODE":0,"TOWNNAME":"佳里區","LI":"建南里","LIN":"4鄰","STREET":"中和街","SECT":" ","MAREA":" ","LANE":" ","ALLEY":" ","HOUSE_NO":"８７號","E_COORD97":165580.89999999999,"N_COORD97":2562317.46,"ADDRESS":"中和街８７號","OBJECTID":623141},"geometry":{"x":165580.90000000037,"y":2562317.4600000028}},{"attributes":{"ID":623169,"DIS_CODE":0,"TOWNNAME":"佳里區","LI":"建南里","LIN":"4鄰","STREET":"中和街","SECT":" ","MAREA":" ","LANE":" ","ALLEY":" ","HOUSE_NO":"８９號","E_COORD97":165580.5,"N_COORD97":2562322.3900000001,"ADDRESS":"中和街８９號","OBJECTID":623142},"geometry":{"x":165580.5,"y":2562322.3900000006}},{"attributes":{"ID":623170,"DIS_CODE":0,"TOWNNAME":"佳里區","LI":"建南里","LIN":"4鄰","STREET":"中和街","SECT":" ","MAREA":" ","LANE":" ","ALLEY":" ","HOUSE_NO":"９１號","E_COORD97":165580.06,"N_COORD97":2562327.3599999999,"ADDRESS":"中和街９１號","OBJECTID":623143},"geometry":{"x":165580.06000000052,"y":2562327.3600000013}},{"attributes":{"ID":623171,"DIS_CODE":0,"TOWNNAME":"佳里區","LI":"建南里","LIN":"4鄰","STREET":"中和街","SECT":" ","MAREA":" ","LANE":" ","ALLEY":" ","HOUSE_NO":"９３號","E_COORD97":165581.29999999999,"N_COORD97":2562334.3500000001,"ADDRESS":"中和街９３號","OBJECTID":623144},"geometry":{"x":165581.29999999981,"y":2562334.3500000015}},{"attributes":{"ID":623172,"DIS_CODE":0,"TOWNNAME":"佳里區","LI":"鎮山里","LIN":"7鄰","STREET":"中興街","SECT":" ","MAREA":" ","LANE":" ","ALLEY":" ","HOUSE_NO":"２６９號","E_COORD97":166147.39999999999,"N_COORD97":2561669.5899999999,"ADDRESS":"中興街２６９號","OBJECTID":623145},"geometry":{"x":166147.40000000037,"y":2561669.5899999999}},{"attributes":{"ID":623173,"DIS_CODE":0,"TOWNNAME":"佳里區","LI":"鎮山里","LIN":"7鄰","STREET":"中興街","SECT":" ","MAREA":" ","LANE":" ","ALLEY":" ","HOUSE_NO":"２９１號","E_COORD97":166135.60999999999,"N_COORD97":2561716.1400000001,"ADDRESS":"中興街２９１號","OBJECTID":623146},"geometry":{"x":166135.61000000034,"y":2561716.1400000025}},{"attributes":{"ID":623174,"DIS_CODE":0,"TOWNNAME":"佳里區","LI":"鎮山里","LIN":"7鄰","STREET":"中興街","SECT":" ","MAREA":" ","LANE":" ","ALLEY":" ","HOUSE_NO":"２９３號","E_COORD97":166127.79999999999,"N_COORD97":2561720.1299999999,"ADDRESS":"中興街２９３號","OBJECTID":623147},"geometry":{"x":166127.80000000168,"y":2561720.1300000027}},{"attributes":{"ID":623175,"DIS_CODE":0,"TOWNNAME":"佳里區","LI":"鎮山里","LIN":"7鄰","STREET":"中興街","SECT":" ","MAREA":" ","LANE":" ","ALLEY":" ","HOUSE_NO":"２９５號","E_COORD97":166126.98000000001,"N_COORD97":2561726.02,"ADDRESS":"中興街２９５號","OBJECTID":623148},"geometry":{"x":166126.98000000045,"y":2561726.0200000014}},{"attributes":{"ID":623176,"DIS_CODE":0,"TOWNNAME":"佳里區","LI":"鎮山里","LIN":"19鄰","STREET":"中興街","SECT":" ","MAREA":" ","LANE":" ","ALLEY":" ","HOUSE_NO":"２９號","E_COORD97":166212.22,"N_COORD97":2561128.8100000001,"ADDRESS":"中興街２９號","OBJECTID":623149},"geometry":{"x":166212.21999999974,"y":2561128.8100000024}},{"attributes":{"ID":623177,"DIS_CODE":0,"TOWNNAME":"佳里區","LI":"鎮山里","LIN":"19鄰","STREET":"中興街","SECT":" ","MAREA":" ","LANE":" ","ALLEY":" ","HOUSE_NO":"３１號","E_COORD97":166217.39000000001,"N_COORD97":2561133.7000000002,"ADDRESS":"中興街３１號","OBJECTID":623150},"geometry":{"x":166217.3900000006,"y":2561133.7000000011}},{"attributes":{"ID":623178,"DIS_CODE":0,"TOWNNAME":"佳里區","LI":"鎮山里","LIN":"19鄰","STREET":"中興街","SECT":" ","MAREA":" ","LANE":" ","ALLEY":" ","HOUSE_NO":"３３號","E_COORD97":166221.54000000001,"N_COORD97":2561138.5600000001,"ADDRESS":"中興街３３號","OBJECTID":623151},"geometry":{"x":166221.54000000097,"y":2561138.5600000005}},{"attributes":{"ID":623179,"DIS_CODE":0,"TOWNNAME":"佳里區","LI":"鎮山里","LIN":"10鄰","STREET":"中興街","SECT":" ","MAREA":" ","LANE":" ","ALLEY":" ","HOUSE_NO":"３１２號","E_COORD97":166184.64000000001,"N_COORD97":2561557.3100000001,"ADDRESS":"中興街３１２號","OBJECTID":623152},"geometry":{"x":166184.64000000153,"y":2561557.3100000005}},{"attributes":{"ID":623180,"DIS_CODE":0,"TOWNNAME":"新化區","LI":"太平里","LIN":"4鄰","STREET":"民生路","SECT":" ","MAREA":" ","LANE":" ","ALLEY":" ","HOUSE_NO":"２２１號","E_COORD97":179066.51000000001,"N_COORD97":2548970.25,"ADDRESS":"民生路２２１號","OBJECTID":623153},"geometry":{"x":179066.50999999978,"y":2548970.2500000019}},{"attributes":{"ID":623181,"DIS_CODE":0,"TOWNNAME":"新化區","LI":"太平里","LIN":"14鄰","STREET":"太平街","SECT":" ","MAREA":" ","LANE":" ","ALLEY":" ","HOUSE_NO":"８４號之１","E_COORD97":178644.5,"N_COORD97":2548767.2599999998,"ADDRESS":"太平街８４號之１","OBJECTID":623154},"geometry":{"x":178644.50000000093,"y":2548767.2599999998}},{"attributes":{"ID":623182,"DIS_CODE":0,"TOWNNAME":"新化區","LI":"東榮里","LIN":"4鄰","STREET":"信義路","SECT":" ","MAREA":" ","LANE":" ","ALLEY":" ","HOUSE_NO":"８３號之４","E_COORD97":179857.91,"N_COORD97":2548707.2599999998,"ADDRESS":"信義路８３號之４","OBJECTID":623155},"geometry":{"x":179857.91000000015,"y":2548707.2599999998}},{"attributes":{"ID":623183,"DIS_CODE":0,"TOWNNAME":"新化區","LI":"竹林里","LIN":"4鄰","STREET":"中山路","SECT":" ","MAREA":" ","LANE":" ","ALLEY":" ","HOUSE_NO":"３６４號之１","E_COORD97":178874.84,"N_COORD97":2548425.2599999998,"ADDRESS":"中山路３６４號之１","OBJECTID":623156},"geometry":{"x":178874.83999999985,"y":2548425.2599999998}},{"attributes":{"ID":623184,"DIS_CODE":0,"TOWNNAME":"新化區","LI":"唪口里","LIN":"4鄰","STREET":"大德路","SECT":" ","MAREA":" ","LANE":" ","ALLEY":" ","HOUSE_NO":"８８號之１０","E_COORD97":178168.57000000001,"N_COORD97":2549515.2599999998,"ADDRESS":"大德路８８號之１０","OBJECTID":623157},"geometry":{"x":178168.5700000003,"y":2549515.2600000016}},{"attributes":{"ID":623185,"DIS_CODE":0,"TOWNNAME":"新化區","LI":"知義里","LIN":"14鄰","STREET":"復興路","SECT":" ","MAREA":" ","LANE":" ","ALLEY":" ","HOUSE_NO":"１１７號","E_COORD97":179473.62,"N_COORD97":2547756.25,"ADDRESS":"復興路１１７號","OBJECTID":623158},"geometry":{"x":179473.61999999918,"y":2547756.2500000019}},{"attributes":{"ID":623186,"DIS_CODE":0,"TOWNNAME":"新化區","LI":"竹林里","LIN":"4鄰","STREET":"中山路","SECT":" ","MAREA":" ","LANE":" ","ALLEY":" ","HOUSE_NO":"３５０號","E_COORD97":178904.81,"N_COORD97":2548427.25,"ADDRESS":"中山路３５０號","OBJECTID":623159},"geometry":{"x":178904.81000000052,"y":2548427.2500000019}},{"attributes":{"ID":623187,"DIS_CODE":0,"TOWNNAME":"新化區","LI":"太平里","LIN":" ","STREET":"中正路","SECT":" ","MAREA":" ","LANE":" ","ALLEY":" ","HOUSE_NO":"６５８之１號","E_COORD97":178660.41,"N_COORD97":2549460.2599999998,"ADDRESS":"中正路６５８之１號","OBJECTID":623160},"geometry":{"x":178660.41000000108,"y":2549460.2599999979}},{"attributes":{"ID":623188,"DIS_CODE":0,"TOWNNAME":"新化區","LI":"清水里","LIN":"4鄰","STREET":"民治路","SECT":" ","MAREA":" ","LANE":" ","ALLEY":" ","HOUSE_NO":"１７３號","E_COORD97":178668.20999999999,"N_COORD97":2548447.25,"ADDRESS":"民治路１７３號","OBJECTID":623161},"geometry":{"x":178668.21000000089,"y":2548447.2500000037}},{"attributes":{"ID":623189,"DIS_CODE":0,"TOWNNAME":"新化區","LI":"唪口里","LIN":"4鄰","STREET":"大德路","SECT":" ","MAREA":" ","LANE":" ","ALLEY":" ","HOUSE_NO":"９２號之１","E_COORD97":178103.20999999999,"N_COORD97":2549483.2599999998,"ADDRESS":"大德路９２號之１","OBJECTID":623162},"geometry":{"x":178103.21000000183,"y":2549483.2599999998}},{"attributes":{"ID":623190,"DIS_CODE":0,"TOWNNAME":"新化區","LI":"唪口里","LIN":"4鄰","STREET":"大德路","SECT":" ","MAREA":" ","LANE":" ","ALLEY":" ","HOUSE_NO":"９２號之１２","E_COORD97":178085.48000000001,"N_COORD97":2549483.2599999998,"ADDRESS":"大德路９２號之１２","OBJECTID":623163},"geometry":{"x":178085.48000000138,"y":2549483.2599999998}},{"attributes":{"ID":623191,"DIS_CODE":0,"TOWNNAME":"新化區","LI":"東榮里","LIN":"20鄰","STREET":"民生路","SECT":" ","MAREA":" ","LANE":" ","ALLEY":" ","HOUSE_NO":"１５號之９","E_COORD97":179421.60999999999,"N_COORD97":2548275.2599999998,"ADDRESS":"民生路１５號之９","OBJECTID":623164},"geometry":{"x":179421.6100000022,"y":2548275.2600000016}},{"attributes":{"ID":623192,"DIS_CODE":0,"TOWNNAME":"新化區","LI":"太平里","LIN":"8鄰","STREET":"中正路","SECT":" ","MAREA":" ","LANE":" ","ALLEY":" ","HOUSE_NO":"６６０號之１","E_COORD97":178657.73999999999,"N_COORD97":2549468.2599999998,"ADDRESS":"中正路６６０號之１","OBJECTID":623165},"geometry":{"x":178657.74000000209,"y":2549468.2600000016}},{"attributes":{"ID":623193,"DIS_CODE":0,"TOWNNAME":"新化區","LI":"唪口里","LIN":"4鄰","STREET":"大德路","SECT":" ","MAREA":" ","LANE":" ","ALLEY":" ","HOUSE_NO":"９２號之９","E_COORD97":178104.82000000001,"N_COORD97":2549511.2599999998,"ADDRESS":"大德路９２號之９","OBJECTID":623166},"geometry":{"x":178104.82000000123,"y":2549511.2600000035}},{"attributes":{"ID":623194,"DIS_CODE":0,"TOWNNAME":"新化區","LI":"豐榮里","LIN":"7鄰","STREET":"大智路","SECT":" ","MAREA":" ","LANE":" ","ALLEY":" ","HOUSE_NO":"２６１號之１","E_COORD97":177927.73000000001,"N_COORD97":2547923.2599999998,"ADDRESS":"大智路２６１之１號","OBJECTID":623167},"geometry":{"x":177927.73000000138,"y":2547923.2599999998}},{"attributes":{"ID":623195,"DIS_CODE":0,"TOWNNAME":"新化區","LI":"東榮里","LIN":"13鄰","STREET":"中興路","SECT":" ","MAREA":" ","LANE":" ","ALLEY":" ","HOUSE_NO":"５５８號","E_COORD97":179909.41,"N_COORD97":2547939.25,"ADDRESS":"中興路５５８號","OBJECTID":623168},"geometry":{"x":179909.41000000108,"y":2547939.2500000019}},{"attributes":{"ID":623196,"DIS_CODE":0,"TOWNNAME":"新化區","LI":"太平里","LIN":"8鄰","STREET":"中正路","SECT":" ","MAREA":" ","LANE":" ","ALLEY":" ","HOUSE_NO":"６６４號之１","E_COORD97":178651.84,"N_COORD97":2549482.2599999998,"ADDRESS":"中正路６６４號之１","OBJECTID":623169},"geometry":{"x":178651.84000000078,"y":2549482.2600000016}},{"attributes":{"ID":623197,"DIS_CODE":0,"TOWNNAME":"新化區","LI":"竹林里","LIN":"4鄰","STREET":"竹林路","SECT":" ","MAREA":" ","LANE":" ","ALLEY":" ","HOUSE_NO":"８號","E_COORD97":178862.13,"N_COORD97":2548446.25,"ADDRESS":"竹林路８號","OBJECTID":623170},"geometry":{"x":178862.13000000082,"y":2548446.25}},{"attributes":{"ID":623198,"DIS_CODE":0,"TOWNNAME":"新化區","LI":"太平里","LIN":"4鄰","STREET":"民生路","SECT":" ","MAREA":" ","LANE":" ","ALLEY":" ","HOUSE_NO":"２１８號","E_COORD97":179074.41,"N_COORD97":2548992.25,"ADDRESS":"民生路２１８號","OBJECTID":623171},"geometry":{"x":179074.41000000015,"y":2548992.25}},{"attributes":{"ID":623199,"DIS_CODE":0,"TOWNNAME":"新化區","LI":"東榮里","LIN":"20鄰","STREET":"民生路","SECT":" ","MAREA":" ","LANE":" ","ALLEY":" ","HOUSE_NO":"１５號之３","E_COORD97":179420.70999999999,"N_COORD97":2548251.2599999998,"ADDRESS":"民生路１５號之３","OBJECTID":623172},"geometry":{"x":179420.71000000089,"y":2548251.2600000016}},{"attributes":{"ID":623200,"DIS_CODE":0,"TOWNNAME":"仁德區","LI":"土庫里","LIN":" ","STREET":"土庫路","SECT":" ","MAREA":" ","LANE":" ","ALLEY":" ","HOUSE_NO":"８號","E_COORD97":174196.62,"N_COORD97":2543385.2400000002,"ADDRESS":"土庫路８號","OBJECTID":623173},"geometry":{"x":174196.62000000197,"y":2543385.2399999984}},{"attributes":{"ID":623201,"DIS_CODE":0,"TOWNNAME":"新化區","LI":"太平里","LIN":"17鄰","STREET":"太平街","SECT":" ","MAREA":" ","LANE":" ","ALLEY":" ","HOUSE_NO":"９３號","E_COORD97":178649.97,"N_COORD97":2548734.25,"ADDRESS":"太平街９３號","OBJECTID":623174},"geometry":{"x":178649.96999999974,"y":2548734.25}},{"attributes":{"ID":623202,"DIS_CODE":0,"TOWNNAME":"新化區","LI":"護國里","LIN":"8鄰","STREET":"信義路","SECT":" ","MAREA":" ","LANE":" ","ALLEY":" ","HOUSE_NO":"７２號","E_COORD97":179878.88,"N_COORD97":2548721.25,"ADDRESS":"信義路７２號","OBJECTID":623175},"geometry":{"x":179878.88000000082,"y":2548721.25}},{"attributes":{"ID":623203,"DIS_CODE":0,"TOWNNAME":"新化區","LI":"護國里","LIN":"8鄰","STREET":"信義路","SECT":" ","MAREA":" ","LANE":" ","ALLEY":" ","HOUSE_NO":"７６號","E_COORD97":179877.78,"N_COORD97":2548762.25,"ADDRESS":"信義路７６號","OBJECTID":623176},"geometry":{"x":179877.78000000026,"y":2548762.2500000037}},{"attributes":{"ID":623204,"DIS_CODE":0,"TOWNNAME":"新化區","LI":"觀音里","LIN":"4鄰","STREET":"仁愛街","SECT":" ","MAREA":" ","LANE":" ","ALLEY":" ","HOUSE_NO":"５７號","E_COORD97":179000.57999999999,"N_COORD97":2548572.25,"ADDRESS":"仁愛街５７號","OBJECTID":623177},"geometry":{"x":179000.58000000007,"y":2548572.2499999981}},{"attributes":{"ID":623205,"DIS_CODE":0,"TOWNNAME":"新化區","LI":"唪口里","LIN":"4鄰","STREET":"大德路","SECT":" ","MAREA":" ","LANE":" ","ALLEY":" ","HOUSE_NO":"９２號之１６","E_COORD97":178086.78,"N_COORD97":2549500.2599999998,"ADDRESS":"大德路９２號之１６","OBJECTID":623178},"geometry":{"x":178086.78000000119,"y":2549500.2599999998}},{"attributes":{"ID":623206,"DIS_CODE":0,"TOWNNAME":"新化區","LI":"太平里","LIN":"4鄰","STREET":"中正路","SECT":" ","MAREA":" ","LANE":" ","ALLEY":" ","HOUSE_NO":"５４４號之２","E_COORD97":178948.35999999999,"N_COORD97":2548892.2599999998,"ADDRESS":"中正路５４４號之２","OBJECTID":623179},"geometry":{"x":178948.36000000034,"y":2548892.2600000016}},{"attributes":{"ID":623207,"DIS_CODE":0,"TOWNNAME":"新化區","LI":"太平里","LIN":"14鄰","STREET":"太平街","SECT":" ","MAREA":" ","LANE":" ","ALLEY":" ","HOUSE_NO":"８４號之６","E_COORD97":178630.22,"N_COORD97":2548751.2599999998,"ADDRESS":"太平街８４號之６","OBJECTID":623180},"geometry":{"x":178630.2200000016,"y":2548751.2599999998}},{"attributes":{"ID":623208,"DIS_CODE":0,"TOWNNAME":"新化區","LI":"太平里","LIN":"17鄰","STREET":"太平街","SECT":" ","MAREA":" ","LANE":" ","ALLEY":" ","HOUSE_NO":"８９號之６","E_COORD97":178664.62,"N_COORD97":2548722.2599999998,"ADDRESS":"太平街８９號之６","OBJECTID":623181},"geometry":{"x":178664.62000000011,"y":2548722.2600000016}},{"attributes":{"ID":623209,"DIS_CODE":0,"TOWNNAME":"新化區","LI":"清水里","LIN":"1鄰","STREET":"中山路","SECT":" ","MAREA":" ","LANE":" ","ALLEY":" ","HOUSE_NO":"３５３號","E_COORD97":178864.01000000001,"N_COORD97":2548402.25,"ADDRESS":"中山路３５３號","OBJECTID":623182},"geometry":{"x":178864.01000000164,"y":2548402.25}},{"attributes":{"ID":623210,"DIS_CODE":0,"TOWNNAME":"新化區","LI":"護國里","LIN":"6鄰","STREET":"仁愛街","SECT":" ","MAREA":" ","LANE":" ","ALLEY":" ","HOUSE_NO":"１號之３","E_COORD97":179280.28,"N_COORD97":2548619.2599999998,"ADDRESS":"仁愛街１號之３","OBJECTID":623183},"geometry":{"x":179280.28000000119,"y":2548619.2599999998}},{"attributes":{"ID":623211,"DIS_CODE":0,"TOWNNAME":"新化區","LI":"護國里","LIN":"6鄰","STREET":"建國街","SECT":" ","MAREA":" ","LANE":" ","ALLEY":" ","HOUSE_NO":"６號之１","E_COORD97":179234.76000000001,"N_COORD97":2548528.2599999998,"ADDRESS":"建國街６號之１","OBJECTID":623184},"geometry":{"x":179234.75999999978,"y":2548528.2600000035}},{"attributes":{"ID":623212,"DIS_CODE":0,"TOWNNAME":"新化區","LI":"太平里","LIN":"4鄰","STREET":"民生路","SECT":" ","MAREA":" ","LANE":" ","ALLEY":" ","HOUSE_NO":"２４７號","E_COORD97":179024.91,"N_COORD97":2549026.25,"ADDRESS":"民生路２４７號","OBJECTID":623185},"geometry":{"x":179024.91000000108,"y":2549026.25}},{"attributes":{"ID":623213,"DIS_CODE":0,"TOWNNAME":"新化區","LI":"唪口里","LIN":"4鄰","STREET":"大德路","SECT":" ","MAREA":" ","LANE":" ","ALLEY":" ","HOUSE_NO":"９２號之５","E_COORD97":178103.84,"N_COORD97":2549495.2599999998,"ADDRESS":"大德路９２號之５","OBJECTID":623186},"geometry":{"x":178103.83999999892,"y":2549495.2600000016}},{"attributes":{"ID":623214,"DIS_CODE":0,"TOWNNAME":"新化區","LI":"唪口里","LIN":"4鄰","STREET":"大德路","SECT":" ","MAREA":" ","LANE":" ","ALLEY":" ","HOUSE_NO":"９２號之１３","E_COORD97":178085.88,"N_COORD97":2549487.2599999998,"ADDRESS":"大德路９２號之１３","OBJECTID":623187},"geometry":{"x":178085.88000000082,"y":2549487.2599999998}},{"attributes":{"ID":623215,"DIS_CODE":0,"TOWNNAME":"新化區","LI":"唪口里","LIN":"4鄰","STREET":"大德路","SECT":" ","MAREA":" ","LANE":" ","ALLEY":" ","HOUSE_NO":"９２號之１８","E_COORD97":178087.29000000001,"N_COORD97":2549508.2599999998,"ADDRESS":"大德路９２號之１８","OBJECTID":623188},"geometry":{"x":178087.29000000004,"y":2549508.2600000016}},{"attributes":{"ID":623216,"DIS_CODE":0,"TOWNNAME":"新化區","LI":"唪口里","LIN":"4鄰","STREET":"大德路","SECT":" ","MAREA":" ","LANE":" ","ALLEY":" ","HOUSE_NO":"９２號之１１","E_COORD97":178105.45999999999,"N_COORD97":2549519.2599999998,"ADDRESS":"大德路９２號之１１","OBJECTID":623189},"geometry":{"x":178105.46000000089,"y":2549519.2600000016}},{"attributes":{"ID":623217,"DIS_CODE":0,"TOWNNAME":"新化區","LI":"護國里","LIN":"8鄰","STREET":"信義路","SECT":" ","MAREA":" ","LANE":" ","ALLEY":" ","HOUSE_NO":"１０８號之２","E_COORD97":179789.07999999999,"N_COORD97":2548694.2599999998,"ADDRESS":"信義路１０８號之２","OBJECTID":623190},"geometry":{"x":179789.08000000007,"y":2548694.2600000035}},{"attributes":{"ID":623218,"DIS_CODE":0,"TOWNNAME":"新化區","LI":"協興里","LIN":"14鄰","STREET":"太平街","SECT":" ","MAREA":" ","LANE":" ","ALLEY":" ","HOUSE_NO":"１５８號之１２","E_COORD97":178264.13,"N_COORD97":2548683.2599999998,"ADDRESS":"太平街１５８號之１２","OBJECTID":623191},"geometry":{"x":178264.12999999989,"y":2548683.2599999998}},{"attributes":{"ID":623219,"DIS_CODE":0,"TOWNNAME":"新化區","LI":"護國里","LIN":"8鄰","STREET":"信義路","SECT":" ","MAREA":" ","LANE":" ","ALLEY":" ","HOUSE_NO":"５０號","E_COORD97":180348.57999999999,"N_COORD97":2548754.25,"ADDRESS":"信義路５０號","OBJECTID":623192},"geometry":{"x":180348.57999999914,"y":2548754.25}},{"attributes":{"ID":623220,"DIS_CODE":0,"TOWNNAME":"新化區","LI":"護國里","LIN":"8鄰","STREET":"信義路","SECT":" ","MAREA":" ","LANE":" ","ALLEY":" ","HOUSE_NO":"７４號","E_COORD97":179871.07999999999,"N_COORD97":2548721.25,"ADDRESS":"信義路７４號","OBJECTID":623193},"geometry":{"x":179871.08000000101,"y":2548721.25}},{"attributes":{"ID":623221,"DIS_CODE":0,"TOWNNAME":"新化區","LI":"太平里","LIN":"4鄰","STREET":"中正路","SECT":" ","MAREA":" ","LANE":" ","ALLEY":" ","HOUSE_NO":"５４４號之６","E_COORD97":178943.85999999999,"N_COORD97":2548903.2599999998,"ADDRESS":"中正路５４４號之６","OBJECTID":623194},"geometry":{"x":178943.86000000127,"y":2548903.2599999998}},{"attributes":{"ID":623222,"DIS_CODE":0,"TOWNNAME":"新化區","LI":"知義里","LIN":" ","STREET":"中興路","SECT":" ","MAREA":" ","LANE":" ","ALLEY":" ","HOUSE_NO":"１２５號","E_COORD97":181411.31,"N_COORD97":2547271.25,"ADDRESS":"中興路１２５號","OBJECTID":623195},"geometry":{"x":181411.31000000145,"y":2547271.2500000019}},{"attributes":{"ID":623223,"DIS_CODE":0,"TOWNNAME":"新化區","LI":"護國里","LIN":"7鄰","STREET":"民生路","SECT":" ","MAREA":" ","LANE":" ","ALLEY":" ","HOUSE_NO":"８７號","E_COORD97":179340.76000000001,"N_COORD97":2548563.25,"ADDRESS":"民生路８７號","OBJECTID":623196},"geometry":{"x":179340.76000000071,"y":2548563.2500000019}},{"attributes":{"ID":623224,"DIS_CODE":0,"TOWNNAME":"新化區","LI":"護國里","LIN":"7鄰","STREET":"復興路","SECT":" ","MAREA":" ","LANE":" ","ALLEY":" ","HOUSE_NO":"３１３號","E_COORD97":179258.12,"N_COORD97":2548452.25,"ADDRESS":"復興路３１３號","OBJECTID":623197},"geometry":{"x":179258.12000000011,"y":2548452.25}},{"attributes":{"ID":623225,"DIS_CODE":0,"TOWNNAME":"新化區","LI":"太平里","LIN":"15鄰","STREET":"太平街","SECT":" ","MAREA":" ","LANE":" ","ALLEY":" ","HOUSE_NO":"７５號","E_COORD97":178763.17000000001,"N_COORD97":2548747.25,"ADDRESS":"太平街７５號","OBJECTID":623198},"geometry":{"x":178763.17000000086,"y":2548747.25}},{"attributes":{"ID":623226,"DIS_CODE":0,"TOWNNAME":"新化區","LI":"太平里","LIN":"4鄰","STREET":"中正路","SECT":" ","MAREA":" ","LANE":" ","ALLEY":" ","HOUSE_NO":"５８８號","E_COORD97":178806.01000000001,"N_COORD97":2549163.25,"ADDRESS":"中正路５８８號","OBJECTID":623199},"geometry":{"x":178806.00999999978,"y":2549163.2500000019}},{"attributes":{"ID":623227,"DIS_CODE":0,"TOWNNAME":"新化區","LI":"豐榮里","LIN":"7鄰","STREET":"大智路","SECT":" ","MAREA":" ","LANE":" ","ALLEY":" ","HOUSE_NO":"２６１號之２","E_COORD97":177927.82999999999,"N_COORD97":2547928.2599999998,"ADDRESS":"大智路２６１之２號","OBJECTID":623200},"geometry":{"x":177927.83000000007,"y":2547928.2600000016}}]}