{"displayFieldName":"TOWNNAME","fieldAliases":{"ID":"ID","DIS_CODE":"DIS_CODE","TOWNNAME":"TOWNNAME","LI":"LI","LIN":"LIN","STREET":"STREET","SECT":"SECT","MAREA":"MAREA","LANE":"LANE","ALLEY":"ALLEY","HOUSE_NO":"HOUSE_NO","E_COORD97":"E_COORD97","N_COORD97":"N_COORD97","ADDRESS":"ADDRESS","OBJECTID":"OBJECTID"},"geometryType":"esriGeometryPoint","spatialReference":{"wkid":102443,"latestWkid":3826},"fields":[{"name":"ID","type":"esriFieldTypeDouble","alias":"ID"},{"name":"DIS_CODE","type":"esriFieldTypeInteger","alias":"DIS_CODE"},{"name":"TOWNNAME","type":"esriFieldTypeString","alias":"TOWNNAME","length":8},{"name":"LI","type":"esriFieldTypeString","alias":"LI","length":8},{"name":"LIN","type":"esriFieldTypeString","alias":"LIN","length":12},{"name":"STREET","type":"esriFieldTypeString","alias":"STREET","length":20},{"name":"SECT","type":"esriFieldTypeString","alias":"SECT","length":8},{"name":"MAREA","type":"esriFieldTypeString","alias":"MAREA","length":12},{"name":"LANE","type":"esriFieldTypeString","alias":"LANE","length":10},{"name":"ALLEY","type":"esriFieldTypeString","alias":"ALLEY","length":10},{"name":"HOUSE_NO","type":"esriFieldTypeString","alias":"HOUSE_NO","length":20},{"name":"E_COORD97","type":"esriFieldTypeDouble","alias":"E_COORD97"},{"name":"N_COORD97","type":"esriFieldTypeDouble","alias":"N_COORD97"},{"name":"ADDRESS","type":"esriFieldTypeString","alias":"ADDRESS","length":50},{"name":"OBJECTID","type":"esriFieldTypeOID","alias":"OBJECTID"}],"features":[{"attributes":{"ID":581628,"DIS_CODE":0,"TOWNNAME":"中西區","LI":"青年里","LIN":"1鄰","STREET":"北門路","SECT":"一段","MAREA":" ","LANE":" ","ALLEY":" ","HOUSE_NO":"１０１號","E_COORD97":169149.60999999999,"N_COORD97":2543646.4500000002,"ADDRESS":"北門路一段１０１號","OBJECTID":581601},"geometry":{"x":169149.61000000034,"y":2543646.4499999993}},{"attributes":{"ID":581629,"DIS_CODE":0,"TOWNNAME":"中西區","LI":"青年里","LIN":"1鄰","STREET":"北門路","SECT":"一段","MAREA":" ","LANE":" ","ALLEY":" ","HOUSE_NO":"１０１號之１","E_COORD97":169163.04000000001,"N_COORD97":2543665.3700000001,"ADDRESS":"北門路一段１０１號之１","OBJECTID":581602},"geometry":{"x":169163.04000000097,"y":2543665.370000001}},{"attributes":{"ID":581630,"DIS_CODE":0,"TOWNNAME":"中西區","LI":"青年里","LIN":"1鄰","STREET":"北門路","SECT":"一段","MAREA":" ","LANE":" ","ALLEY":" ","HOUSE_NO":"１０３號","E_COORD97":169165.01000000001,"N_COORD97":2543675.6200000001,"ADDRESS":"北門路一段１０３號","OBJECTID":581603},"geometry":{"x":169165.00999999978,"y":2543675.6200000029}},{"attributes":{"ID":581631,"DIS_CODE":0,"TOWNNAME":"安南區","LI":"州北里","LIN":"16鄰","STREET":"安昌街","SECT":" ","MAREA":" ","LANE":" ","ALLEY":" ","HOUSE_NO":"１０號","E_COORD97":169818.03,"N_COORD97":2551945.27,"ADDRESS":"安昌街１０號","OBJECTID":581604},"geometry":{"x":169818.03000000026,"y":2551945.2700000033}},{"attributes":{"ID":581632,"DIS_CODE":0,"TOWNNAME":"安南區","LI":"州北里","LIN":"16鄰","STREET":"安和路","SECT":"五段","MAREA":" ","LANE":" ","ALLEY":" ","HOUSE_NO":"１８８號","E_COORD97":169854.89000000001,"N_COORD97":2551872.4100000001,"ADDRESS":"安和路五段１８８號","OBJECTID":581605},"geometry":{"x":169854.8900000006,"y":2551872.4100000001}},{"attributes":{"ID":581633,"DIS_CODE":0,"TOWNNAME":"安南區","LI":"州北里","LIN":"16鄰","STREET":"安和路","SECT":"五段","MAREA":" ","LANE":" ","ALLEY":" ","HOUSE_NO":"１９２號","E_COORD97":169849.38,"N_COORD97":2551880.3500000001,"ADDRESS":"安和路五段１９２號","OBJECTID":581606},"geometry":{"x":169849.37999999989,"y":2551880.3500000034}},{"attributes":{"ID":581634,"DIS_CODE":0,"TOWNNAME":"安南區","LI":"州北里","LIN":"16鄰","STREET":"安和路","SECT":"五段","MAREA":" ","LANE":" ","ALLEY":" ","HOUSE_NO":"２０８號","E_COORD97":169835.75,"N_COORD97":2551907.7200000002,"ADDRESS":"安和路五段２０８號","OBJECTID":581607},"geometry":{"x":169835.75000000093,"y":2551907.7200000025}},{"attributes":{"ID":581635,"DIS_CODE":0,"TOWNNAME":"安南區","LI":"州北里","LIN":"16鄰","STREET":"安和路","SECT":"五段","MAREA":" ","LANE":" ","ALLEY":" ","HOUSE_NO":"１８０號","E_COORD97":169862.95000000001,"N_COORD97":2551859.02,"ADDRESS":"安和路五段１８０號","OBJECTID":581608},"geometry":{"x":169862.95000000019,"y":2551859.0200000033}},{"attributes":{"ID":581636,"DIS_CODE":0,"TOWNNAME":"安南區","LI":"州北里","LIN":"16鄰","STREET":"安和路","SECT":"五段","MAREA":" ","LANE":" ","ALLEY":" ","HOUSE_NO":"１８４號","E_COORD97":169859,"N_COORD97":2551866.3399999999,"ADDRESS":"安和路五段１８４號","OBJECTID":581609},"geometry":{"x":169859,"y":2551866.3399999999}},{"attributes":{"ID":581637,"DIS_CODE":0,"TOWNNAME":"安南區","LI":"州北里","LIN":"16鄰","STREET":"安和路","SECT":"五段","MAREA":" ","LANE":" ","ALLEY":" ","HOUSE_NO":"１８６號","E_COORD97":169857.75,"N_COORD97":2551868.3900000001,"ADDRESS":"安和路五段１８６號","OBJECTID":581610},"geometry":{"x":169857.75000000186,"y":2551868.3900000025}},{"attributes":{"ID":581638,"DIS_CODE":0,"TOWNNAME":"中西區","LI":"青年里","LIN":"1鄰","STREET":"青年路","SECT":" ","MAREA":" ","LANE":" ","ALLEY":" ","HOUSE_NO":"１８３號","E_COORD97":169069.47,"N_COORD97":2543597.1800000002,"ADDRESS":"青年路１８３號","OBJECTID":581611},"geometry":{"x":169069.47000000067,"y":2543597.1800000016}},{"attributes":{"ID":581639,"DIS_CODE":0,"TOWNNAME":"中西區","LI":"青年里","LIN":"1鄰","STREET":"青年路","SECT":" ","MAREA":" ","LANE":" ","ALLEY":" ","HOUSE_NO":"１８５號","E_COORD97":169075.39000000001,"N_COORD97":2543596.7799999998,"ADDRESS":"青年路１８５號","OBJECTID":581612},"geometry":{"x":169075.3900000006,"y":2543596.7799999993}},{"attributes":{"ID":581640,"DIS_CODE":0,"TOWNNAME":"中西區","LI":"青年里","LIN":"1鄰","STREET":"青年路","SECT":" ","MAREA":" ","LANE":" ","ALLEY":" ","HOUSE_NO":"１８７號","E_COORD97":169080.53,"N_COORD97":2543595.6000000001,"ADDRESS":"青年路１８７號","OBJECTID":581613},"geometry":{"x":169080.53000000026,"y":2543595.5999999996}},{"attributes":{"ID":581641,"DIS_CODE":0,"TOWNNAME":"中西區","LI":"青年里","LIN":"1鄰","STREET":"青年路","SECT":" ","MAREA":" ","LANE":" ","ALLEY":" ","HOUSE_NO":"１８９號","E_COORD97":169083.67999999999,"N_COORD97":2543594.8100000001,"ADDRESS":"青年路１８９號","OBJECTID":581614},"geometry":{"x":169083.68000000063,"y":2543594.8100000005}},{"attributes":{"ID":581642,"DIS_CODE":0,"TOWNNAME":"中西區","LI":"青年里","LIN":"1鄰","STREET":"青年路","SECT":" ","MAREA":" ","LANE":" ","ALLEY":" ","HOUSE_NO":"１９１號","E_COORD97":169089.60999999999,"N_COORD97":2543593.23,"ADDRESS":"青年路１９１號","OBJECTID":581615},"geometry":{"x":169089.61000000127,"y":2543593.2300000023}},{"attributes":{"ID":581643,"DIS_CODE":0,"TOWNNAME":"中西區","LI":"青年里","LIN":"1鄰","STREET":"青年路","SECT":" ","MAREA":" ","LANE":" ","ALLEY":" ","HOUSE_NO":"１９３號","E_COORD97":169093.54999999999,"N_COORD97":2543591.6600000001,"ADDRESS":"青年路１９３號","OBJECTID":581616},"geometry":{"x":169093.54999999981,"y":2543591.6600000001}},{"attributes":{"ID":581644,"DIS_CODE":0,"TOWNNAME":"中西區","LI":"青年里","LIN":"1鄰","STREET":"青年路","SECT":" ","MAREA":" ","LANE":" ","ALLEY":" ","HOUSE_NO":"１９５號","E_COORD97":169097.10999999999,"N_COORD97":2543591.6600000001,"ADDRESS":"青年路１９５號","OBJECTID":581617},"geometry":{"x":169097.11000000034,"y":2543591.6600000001}},{"attributes":{"ID":581645,"DIS_CODE":0,"TOWNNAME":"中西區","LI":"青年里","LIN":"1鄰","STREET":"青年路","SECT":" ","MAREA":" ","LANE":" ","ALLEY":" ","HOUSE_NO":"１９７號","E_COORD97":169101.84,"N_COORD97":2543590.8700000001,"ADDRESS":"青年路１９７號","OBJECTID":581618},"geometry":{"x":169101.83999999985,"y":2543590.870000001}},{"attributes":{"ID":581646,"DIS_CODE":0,"TOWNNAME":"中西區","LI":"青年里","LIN":"1鄰","STREET":"青年路","SECT":" ","MAREA":" ","LANE":" ","ALLEY":" ","HOUSE_NO":"１９９號","E_COORD97":169106.19,"N_COORD97":2543589.6899999999,"ADDRESS":"青年路１９９號","OBJECTID":581619},"geometry":{"x":169106.19000000134,"y":2543589.6900000013}},{"attributes":{"ID":581647,"DIS_CODE":0,"TOWNNAME":"中西區","LI":"青年里","LIN":"1鄰","STREET":"青年路","SECT":" ","MAREA":" ","LANE":" ","ALLEY":" ","HOUSE_NO":"２０１號","E_COORD97":169109.35000000001,"N_COORD97":2543588.1099999999,"ADDRESS":"青年路２０１號","OBJECTID":581620},"geometry":{"x":169109.35000000056,"y":2543588.1099999994}},{"attributes":{"ID":581648,"DIS_CODE":0,"TOWNNAME":"中西區","LI":"青年里","LIN":"1鄰","STREET":"青年路","SECT":" ","MAREA":" ","LANE":" ","ALLEY":" ","HOUSE_NO":"２０３號","E_COORD97":169120.39999999999,"N_COORD97":2543586.5299999998,"ADDRESS":"青年路２０３號","OBJECTID":581621},"geometry":{"x":169120.4000000013,"y":2543586.5300000012}},{"attributes":{"ID":581649,"DIS_CODE":0,"TOWNNAME":"中西區","LI":"青年里","LIN":"1鄰","STREET":"青年路","SECT":" ","MAREA":" ","LANE":" ","ALLEY":" ","HOUSE_NO":"２０５號","E_COORD97":169125.92999999999,"N_COORD97":2543584.5600000001,"ADDRESS":"青年路２０５號","OBJECTID":581622},"geometry":{"x":169125.93000000063,"y":2543584.5600000024}},{"attributes":{"ID":581650,"DIS_CODE":0,"TOWNNAME":"中西區","LI":"青年里","LIN":"1鄰","STREET":"青年路","SECT":" ","MAREA":" ","LANE":" ","ALLEY":" ","HOUSE_NO":"２０７號","E_COORD97":169129.87,"N_COORD97":2543585.7400000002,"ADDRESS":"青年路２０７號","OBJECTID":581623},"geometry":{"x":169129.87000000104,"y":2543585.7400000039}},{"attributes":{"ID":581651,"DIS_CODE":0,"TOWNNAME":"中西區","LI":"青年里","LIN":"1鄰","STREET":"青年路","SECT":" ","MAREA":" ","LANE":" ","ALLEY":" ","HOUSE_NO":"２０９號","E_COORD97":169133.82000000001,"N_COORD97":2543584.5600000001,"ADDRESS":"青年路２０９號","OBJECTID":581624},"geometry":{"x":169133.82000000123,"y":2543584.5600000024}},{"attributes":{"ID":581652,"DIS_CODE":0,"TOWNNAME":"安南區","LI":"幸福里","LIN":"16鄰","STREET":"府安路","SECT":"六段","MAREA":" ","LANE":" ","ALLEY":" ","HOUSE_NO":"２９號","E_COORD97":167044.72,"N_COORD97":2546681.1200000001,"ADDRESS":"府安路六段２９號","OBJECTID":581625},"geometry":{"x":167044.71999999974,"y":2546681.120000001}},{"attributes":{"ID":581653,"DIS_CODE":0,"TOWNNAME":"安南區","LI":"幸福里","LIN":"16鄰","STREET":"府安路","SECT":"六段","MAREA":" ","LANE":" ","ALLEY":" ","HOUSE_NO":"３０號","E_COORD97":166926,"N_COORD97":2546774.6600000001,"ADDRESS":"府安路六段３０號","OBJECTID":581626},"geometry":{"x":166926,"y":2546774.6600000001}},{"attributes":{"ID":581654,"DIS_CODE":0,"TOWNNAME":"安南區","LI":"城南里","LIN":"16鄰","STREET":"青砂街","SECT":"一段","MAREA":" ","LANE":" ","ALLEY":" ","HOUSE_NO":"１６７號","E_COORD97":160469.25,"N_COORD97":2551844.21,"ADDRESS":"青砂街一段１６７號","OBJECTID":581627},"geometry":{"x":160469.25,"y":2551844.2100000009}},{"attributes":{"ID":581655,"DIS_CODE":0,"TOWNNAME":"安南區","LI":"海西里","LIN":"16鄰","STREET":"海環街","SECT":" ","MAREA":" ","LANE":" ","ALLEY":" ","HOUSE_NO":"１７７號","E_COORD97":166408.13,"N_COORD97":2548682.5,"ADDRESS":"海環街１７７號","OBJECTID":581628},"geometry":{"x":166408.12999999989,"y":2548682.5000000037}},{"attributes":{"ID":581656,"DIS_CODE":0,"TOWNNAME":"安南區","LI":"海西里","LIN":"16鄰","STREET":"海環街","SECT":" ","MAREA":" ","LANE":" ","ALLEY":" ","HOUSE_NO":"１５１號","E_COORD97":166445.01999999999,"N_COORD97":2548713.71,"ADDRESS":"海環街１５１號","OBJECTID":581629},"geometry":{"x":166445.02000000048,"y":2548713.7100000028}},{"attributes":{"ID":581657,"DIS_CODE":0,"TOWNNAME":"安南區","LI":"海西里","LIN":"16鄰","STREET":"海環街","SECT":" ","MAREA":" ","LANE":" ","ALLEY":" ","HOUSE_NO":"１３３號","E_COORD97":166481.39000000001,"N_COORD97":2548726.0800000001,"ADDRESS":"海環街１３３號","OBJECTID":581630},"geometry":{"x":166481.3900000006,"y":2548726.0799999982}},{"attributes":{"ID":581658,"DIS_CODE":0,"TOWNNAME":"中西區","LI":"青年里","LIN":"1鄰","STREET":"興華街","SECT":" ","MAREA":" ","LANE":" ","ALLEY":" ","HOUSE_NO":"１６號","E_COORD97":169092.37,"N_COORD97":2543626.7400000002,"ADDRESS":"興華街１６號","OBJECTID":581631},"geometry":{"x":169092.37000000197,"y":2543626.7400000021}},{"attributes":{"ID":581659,"DIS_CODE":0,"TOWNNAME":"中西區","LI":"青年里","LIN":"1鄰","STREET":"興華街","SECT":" ","MAREA":" ","LANE":" ","ALLEY":" ","HOUSE_NO":"１６號之２","E_COORD97":169099.07999999999,"N_COORD97":2543631.4700000002,"ADDRESS":"興華街１６號之２","OBJECTID":581632},"geometry":{"x":169099.08000000007,"y":2543631.4700000007}},{"attributes":{"ID":581660,"DIS_CODE":0,"TOWNNAME":"中西區","LI":"青年里","LIN":"1鄰","STREET":"興華街","SECT":" ","MAREA":" ","LANE":" ","ALLEY":" ","HOUSE_NO":"１６號之３","E_COORD97":169102.63,"N_COORD97":2543633.04,"ADDRESS":"興華街１６號之３","OBJECTID":581633},"geometry":{"x":169102.63000000082,"y":2543633.0400000028}},{"attributes":{"ID":581661,"DIS_CODE":0,"TOWNNAME":"中西區","LI":"青年里","LIN":"1鄰","STREET":"興華街","SECT":" ","MAREA":" ","LANE":" ","ALLEY":" ","HOUSE_NO":"１６號之４","E_COORD97":169105.39999999999,"N_COORD97":2543635.7999999998,"ADDRESS":"興華街１６號之４","OBJECTID":581634},"geometry":{"x":169105.40000000037,"y":2543635.8000000007}},{"attributes":{"ID":581662,"DIS_CODE":0,"TOWNNAME":"中西區","LI":"青年里","LIN":"1鄰","STREET":"興華街","SECT":" ","MAREA":" ","LANE":" ","ALLEY":" ","HOUSE_NO":"１６號之５","E_COORD97":169108.95000000001,"N_COORD97":2543638.5600000001,"ADDRESS":"興華街１６號之５","OBJECTID":581635},"geometry":{"x":169108.95000000205,"y":2543638.5600000024}},{"attributes":{"ID":581663,"DIS_CODE":0,"TOWNNAME":"中西區","LI":"青年里","LIN":"1鄰","STREET":"興華街","SECT":" ","MAREA":" ","LANE":" ","ALLEY":" ","HOUSE_NO":"２０號","E_COORD97":169127.89999999999,"N_COORD97":2543647.6299999999,"ADDRESS":"興華街２０號","OBJECTID":581636},"geometry":{"x":169127.90000000037,"y":2543647.629999999}},{"attributes":{"ID":581664,"DIS_CODE":0,"TOWNNAME":"中西區","LI":"青年里","LIN":"1鄰","STREET":"興華街","SECT":" ","MAREA":" ","LANE":" ","ALLEY":" ","HOUSE_NO":"２２號","E_COORD97":169138.17000000001,"N_COORD97":2543657.0899999999,"ADDRESS":"興華街２２號","OBJECTID":581637},"geometry":{"x":169138.17000000086,"y":2543657.089999998}},{"attributes":{"ID":581665,"DIS_CODE":0,"TOWNNAME":"中西區","LI":"開山里","LIN":"1鄰","STREET":"開山路","SECT":" ","MAREA":" ","LANE":" ","ALLEY":" ","HOUSE_NO":"１２９號","E_COORD97":168816.73999999999,"N_COORD97":2543242.02,"ADDRESS":"開山路１２９號","OBJECTID":581638},"geometry":{"x":168816.74000000022,"y":2543242.0200000014}},{"attributes":{"ID":581666,"DIS_CODE":0,"TOWNNAME":"中西區","LI":"開山里","LIN":"1鄰","STREET":"開山路","SECT":" ","MAREA":" ","LANE":" ","ALLEY":" ","HOUSE_NO":"１３１號","E_COORD97":168817.88,"N_COORD97":2543237.75,"ADDRESS":"開山路１３１號","OBJECTID":581639},"geometry":{"x":168817.88000000082,"y":2543237.75}},{"attributes":{"ID":581667,"DIS_CODE":0,"TOWNNAME":"中西區","LI":"開山里","LIN":"1鄰","STREET":"開山路","SECT":" ","MAREA":" ","LANE":" ","ALLEY":" ","HOUSE_NO":"１３３號","E_COORD97":168823.53,"N_COORD97":2543230.7799999998,"ADDRESS":"開山路１３３號","OBJECTID":581640},"geometry":{"x":168823.52999999933,"y":2543230.7799999993}},{"attributes":{"ID":581668,"DIS_CODE":0,"TOWNNAME":"中西區","LI":"開山里","LIN":"1鄰","STREET":"開山路","SECT":" ","MAREA":" ","LANE":" ","ALLEY":" ","HOUSE_NO":"１３５號","E_COORD97":168832.44,"N_COORD97":2543215.0099999998,"ADDRESS":"開山路１３５號","OBJECTID":581641},"geometry":{"x":168832.44000000041,"y":2543215.0100000016}},{"attributes":{"ID":581669,"DIS_CODE":0,"TOWNNAME":"中西區","LI":"開山里","LIN":"1鄰","STREET":"開山路","SECT":" ","MAREA":" ","LANE":" ","ALLEY":" ","HOUSE_NO":"１３７號","E_COORD97":168834.76000000001,"N_COORD97":2543211.75,"ADDRESS":"開山路１３７號","OBJECTID":581642},"geometry":{"x":168834.75999999978,"y":2543211.75}},{"attributes":{"ID":581670,"DIS_CODE":0,"TOWNNAME":"中西區","LI":"開山里","LIN":"1鄰","STREET":"開山路","SECT":" ","MAREA":" ","LANE":" ","ALLEY":" ","HOUSE_NO":"１３９號","E_COORD97":168838.13,"N_COORD97":2543209.2200000002,"ADDRESS":"開山路１３９號","OBJECTID":581643},"geometry":{"x":168838.13000000082,"y":2543209.2200000007}},{"attributes":{"ID":581671,"DIS_CODE":0,"TOWNNAME":"中西區","LI":"開山里","LIN":"1鄰","STREET":"開山路","SECT":" ","MAREA":" ","LANE":" ","ALLEY":" ","HOUSE_NO":"１４１號","E_COORD97":168840.48999999999,"N_COORD97":2543204.6600000001,"ADDRESS":"開山路１４１號","OBJECTID":581644},"geometry":{"x":168840.49000000022,"y":2543204.6600000001}},{"attributes":{"ID":581672,"DIS_CODE":0,"TOWNNAME":"中西區","LI":"西賢里","LIN":"23鄰","STREET":"西賢二街","SECT":" ","MAREA":" ","LANE":" ","ALLEY":" ","HOUSE_NO":"５７號","E_COORD97":165572.41,"N_COORD97":2544490.9399999999,"ADDRESS":"西賢二街５７號","OBJECTID":581645},"geometry":{"x":165572.41000000015,"y":2544490.9399999995}},{"attributes":{"ID":581673,"DIS_CODE":0,"TOWNNAME":"安南區","LI":"城南里","LIN":"16鄰","STREET":"青砂街","SECT":"一段","MAREA":" ","LANE":" ","ALLEY":" ","HOUSE_NO":"１０３號之６","E_COORD97":160523.95000000001,"N_COORD97":2551754.96,"ADDRESS":"青砂街一段１０３號之６","OBJECTID":581646},"geometry":{"x":160523.95000000019,"y":2551754.9600000009}},{"attributes":{"ID":581674,"DIS_CODE":0,"TOWNNAME":"安南區","LI":"城南里","LIN":"16鄰","STREET":"青砂街","SECT":"一段","MAREA":" ","LANE":" ","ALLEY":" ","HOUSE_NO":"１０３號之７","E_COORD97":160520.47,"N_COORD97":2551761.1699999999,"ADDRESS":"青砂街一段１０３號之７","OBJECTID":581647},"geometry":{"x":160520.4700000016,"y":2551761.1700000018}},{"attributes":{"ID":581675,"DIS_CODE":0,"TOWNNAME":"安南區","LI":"學東里","LIN":"16鄰","STREET":"安明路","SECT":"四段","MAREA":" ","LANE":" ","ALLEY":" ","HOUSE_NO":"１２５９號","E_COORD97":161400.57999999999,"N_COORD97":2553305.71,"ADDRESS":"安明路四段１２５９號","OBJECTID":581648},"geometry":{"x":161400.58000000101,"y":2553305.7100000009}},{"attributes":{"ID":581676,"DIS_CODE":0,"TOWNNAME":"安南區","LI":"淵東里","LIN":"16鄰","STREET":"仁安路","SECT":" ","MAREA":" ","LANE":" ","ALLEY":" ","HOUSE_NO":"７０號","E_COORD97":165570.29999999999,"N_COORD97":2550072.7400000002,"ADDRESS":"仁安路７０號","OBJECTID":581649},"geometry":{"x":165570.30000000075,"y":2550072.7400000021}},{"attributes":{"ID":581677,"DIS_CODE":0,"TOWNNAME":"中西區","LI":" ","LIN":" ","STREET":"永福路","SECT":"一段","MAREA":" ","LANE":" ","ALLEY":" ","HOUSE_NO":"２之１號","E_COORD97":167998.31,"N_COORD97":2542872.9300000002,"ADDRESS":"永福路一段２之１號","OBJECTID":581650},"geometry":{"x":167998.30999999959,"y":2542872.9300000016}},{"attributes":{"ID":581678,"DIS_CODE":0,"TOWNNAME":"仁德區","LI":"保安里","LIN":"15鄰","STREET":"文賢路","SECT":"二段","MAREA":" ","LANE":" ","ALLEY":" ","HOUSE_NO":"４號","E_COORD97":171675.63,"N_COORD97":2535842.8300000001,"ADDRESS":"文賢路二段４號","OBJECTID":581651},"geometry":{"x":171675.63000000175,"y":2535842.8300000001}},{"attributes":{"ID":581679,"DIS_CODE":0,"TOWNNAME":"中西區","LI":"水仙里","LIN":"16鄰","STREET":"民族路","SECT":"三段","MAREA":" ","LANE":" ","ALLEY":" ","HOUSE_NO":"５號","E_COORD97":167923.39999999999,"N_COORD97":2544233.8700000001,"ADDRESS":"民族路三段５號","OBJECTID":581652},"geometry":{"x":167923.4000000013,"y":2544233.8700000029}},{"attributes":{"ID":581680,"DIS_CODE":0,"TOWNNAME":"中西區","LI":"水仙里","LIN":"16鄰","STREET":"民族路","SECT":"三段","MAREA":" ","LANE":" ","ALLEY":" ","HOUSE_NO":"１１號","E_COORD97":167910.31,"N_COORD97":2544239.5699999998,"ADDRESS":"民族路三段１１號","OBJECTID":581653},"geometry":{"x":167910.30999999959,"y":2544239.5700000003}},{"attributes":{"ID":581681,"DIS_CODE":0,"TOWNNAME":"中西區","LI":"水仙里","LIN":"16鄰","STREET":"民族路","SECT":"三段","MAREA":" ","LANE":" ","ALLEY":" ","HOUSE_NO":"１５號","E_COORD97":167901.95999999999,"N_COORD97":2544243.75,"ADDRESS":"民族路三段１５號","OBJECTID":581654},"geometry":{"x":167901.96000000089,"y":2544243.7500000019}},{"attributes":{"ID":581682,"DIS_CODE":0,"TOWNNAME":"中西區","LI":"水仙里","LIN":"16鄰","STREET":"民族路","SECT":"三段","MAREA":" ","LANE":" ","ALLEY":" ","HOUSE_NO":"１７號","E_COORD97":167897.92000000001,"N_COORD97":2544244.8599999999,"ADDRESS":"民族路三段１７號","OBJECTID":581655},"geometry":{"x":167897.91999999993,"y":2544244.8600000031}},{"attributes":{"ID":581683,"DIS_CODE":0,"TOWNNAME":"中西區","LI":"水仙里","LIN":"16鄰","STREET":"民族路","SECT":"三段","MAREA":" ","LANE":" ","ALLEY":" ","HOUSE_NO":"１９號","E_COORD97":167892.48999999999,"N_COORD97":2544246.5299999998,"ADDRESS":"民族路三段１９號","OBJECTID":581656},"geometry":{"x":167892.49000000022,"y":2544246.5299999993}},{"attributes":{"ID":581684,"DIS_CODE":0,"TOWNNAME":"中西區","LI":"水仙里","LIN":"16鄰","STREET":"民族路","SECT":"三段","MAREA":" ","LANE":" ","ALLEY":" ","HOUSE_NO":"１號","E_COORD97":167932.72,"N_COORD97":2544230.1200000001,"ADDRESS":"民族路三段１號","OBJECTID":581657},"geometry":{"x":167932.71999999974,"y":2544230.120000001}},{"attributes":{"ID":581685,"DIS_CODE":0,"TOWNNAME":"中西區","LI":"水仙里","LIN":"16鄰","STREET":"民族路","SECT":"三段","MAREA":" ","LANE":" ","ALLEY":" ","HOUSE_NO":"３號","E_COORD97":167927.85000000001,"N_COORD97":2544232.48,"ADDRESS":"民族路三段３號","OBJECTID":581658},"geometry":{"x":167927.85000000056,"y":2544232.4800000023}},{"attributes":{"ID":581686,"DIS_CODE":0,"TOWNNAME":"永康區","LI":"二王里","LIN":"16鄰","STREET":"忠孝路","SECT":" ","MAREA":" ","LANE":" ","ALLEY":" ","HOUSE_NO":"４３２號","E_COORD97":172480.29999999999,"N_COORD97":2546569.0299999998,"ADDRESS":"忠孝路４３２號","OBJECTID":581659},"geometry":{"x":172480.30000000075,"y":2546569.0299999993}},{"attributes":{"ID":581687,"DIS_CODE":0,"TOWNNAME":"永康區","LI":"復國里","LIN":"16鄰","STREET":"復國二路","SECT":" ","MAREA":" ","LANE":" ","ALLEY":" ","HOUSE_NO":"１９８號","E_COORD97":172950.48999999999,"N_COORD97":2545794.5299999998,"ADDRESS":"復國二路１９８號","OBJECTID":581660},"geometry":{"x":172950.49000000115,"y":2545794.5300000012}},{"attributes":{"ID":581688,"DIS_CODE":0,"TOWNNAME":"永康區","LI":"復國里","LIN":"16鄰","STREET":"復國二路","SECT":" ","MAREA":" ","LANE":" ","ALLEY":" ","HOUSE_NO":"１８６號","E_COORD97":172937.73999999999,"N_COORD97":2545736.27,"ADDRESS":"復國二路１８６號","OBJECTID":581661},"geometry":{"x":172937.74000000022,"y":2545736.2699999996}},{"attributes":{"ID":581689,"DIS_CODE":0,"TOWNNAME":"永康區","LI":"中華里","LIN":"16鄰","STREET":"忠義街","SECT":" ","MAREA":" ","LANE":" ","ALLEY":" ","HOUSE_NO":"１３號","E_COORD97":171707.23999999999,"N_COORD97":2544390.5800000001,"ADDRESS":"忠義街１３號","OBJECTID":581662},"geometry":{"x":171707.24000000022,"y":2544390.5800000019}},{"attributes":{"ID":581690,"DIS_CODE":0,"TOWNNAME":"仁德區","LI":"仁德里","LIN":"4鄰","STREET":"中正路","SECT":"二段","MAREA":" ","LANE":" ","ALLEY":" ","HOUSE_NO":"８６１號","E_COORD97":173431.31,"N_COORD97":2540556.27,"ADDRESS":"中正路二段８６１號","OBJECTID":581663},"geometry":{"x":173431.30999999959,"y":2540556.2699999996}},{"attributes":{"ID":581691,"DIS_CODE":0,"TOWNNAME":"仁德區","LI":"保安里","LIN":"13鄰","STREET":"二仁路","SECT":"一段","MAREA":" ","LANE":" ","ALLEY":" ","HOUSE_NO":"４８號","E_COORD97":170599.07000000001,"N_COORD97":2535524.27,"ADDRESS":"二仁路一段４８號","OBJECTID":581664},"geometry":{"x":170599.07000000123,"y":2535524.2699999996}},{"attributes":{"ID":581692,"DIS_CODE":0,"TOWNNAME":"永康區","LI":"大橋里","LIN":"16鄰","STREET":"大橋二街","SECT":" ","MAREA":" ","LANE":" ","ALLEY":" ","HOUSE_NO":"８２號","E_COORD97":170909.59,"N_COORD97":2546656.25,"ADDRESS":"大橋二街８２號","OBJECTID":581665},"geometry":{"x":170909.59000000171,"y":2546656.25}},{"attributes":{"ID":581693,"DIS_CODE":0,"TOWNNAME":"永康區","LI":"中興里","LIN":"16鄰","STREET":"中華二路","SECT":" ","MAREA":" ","LANE":" ","ALLEY":" ","HOUSE_NO":"１３３號","E_COORD97":171989.34,"N_COORD97":2545425.7400000002,"ADDRESS":"中華二路１３３號","OBJECTID":581666},"geometry":{"x":171989.33999999892,"y":2545425.7400000002}},{"attributes":{"ID":581694,"DIS_CODE":0,"TOWNNAME":"永康區","LI":"大橋里","LIN":"16鄰","STREET":"大橋二街","SECT":" ","MAREA":" ","LANE":" ","ALLEY":" ","HOUSE_NO":"７４號","E_COORD97":170893.54000000001,"N_COORD97":2546645.5,"ADDRESS":"大橋二街７４號","OBJECTID":581667},"geometry":{"x":170893.54000000097,"y":2546645.5000000019}},{"attributes":{"ID":581695,"DIS_CODE":0,"TOWNNAME":"永康區","LI":"中興里","LIN":"16鄰","STREET":"中華二路","SECT":" ","MAREA":" ","LANE":" ","ALLEY":" ","HOUSE_NO":"１３１號","E_COORD97":171994.10000000001,"N_COORD97":2545425.4900000002,"ADDRESS":"中華二路１３１號","OBJECTID":581668},"geometry":{"x":171994.0999999987,"y":2545425.4900000021}},{"attributes":{"ID":581696,"DIS_CODE":0,"TOWNNAME":"仁德區","LI":"成功里","LIN":"14鄰","STREET":"全福路","SECT":" ","MAREA":" ","LANE":" ","ALLEY":" ","HOUSE_NO":"３４號","E_COORD97":170907.81,"N_COORD97":2539308.5,"ADDRESS":"全福路３４號","OBJECTID":581669},"geometry":{"x":170907.81000000145,"y":2539308.5000000037}},{"attributes":{"ID":581697,"DIS_CODE":0,"TOWNNAME":"仁德區","LI":"成功里","LIN":"19鄰","STREET":"成功一街","SECT":" ","MAREA":" ","LANE":" ","ALLEY":" ","HOUSE_NO":"１８７號","E_COORD97":170550.95999999999,"N_COORD97":2539766.7599999998,"ADDRESS":"成功一街１８７號","OBJECTID":581670},"geometry":{"x":170550.95999999996,"y":2539766.7599999998}},{"attributes":{"ID":581698,"DIS_CODE":0,"TOWNNAME":"中西區","LI":"西湖里","LIN":"16鄰","STREET":"湖美一街","SECT":" ","MAREA":" ","LANE":" ","ALLEY":" ","HOUSE_NO":"１４３號","E_COORD97":166048.94,"N_COORD97":2544970.3199999998,"ADDRESS":"湖美一街１４３號","OBJECTID":581671},"geometry":{"x":166048.94000000041,"y":2544970.3200000003}},{"attributes":{"ID":581699,"DIS_CODE":0,"TOWNNAME":"中西區","LI":"西湖里","LIN":"16鄰","STREET":"湖美一街","SECT":" ","MAREA":" ","LANE":" ","ALLEY":" ","HOUSE_NO":"１４１號","E_COORD97":166048.20999999999,"N_COORD97":2544962.5499999998,"ADDRESS":"湖美一街１４１號","OBJECTID":581672},"geometry":{"x":166048.20999999996,"y":2544962.5500000007}},{"attributes":{"ID":581700,"DIS_CODE":0,"TOWNNAME":"中西區","LI":"西湖里","LIN":"16鄰","STREET":"湖美一街","SECT":" ","MAREA":" ","LANE":" ","ALLEY":" ","HOUSE_NO":"１４９號","E_COORD97":166032.39999999999,"N_COORD97":2544967.4100000001,"ADDRESS":"湖美一街１４９號","OBJECTID":581673},"geometry":{"x":166032.40000000037,"y":2544967.4100000039}},{"attributes":{"ID":581701,"DIS_CODE":0,"TOWNNAME":"中西區","LI":"西湖里","LIN":"16鄰","STREET":"湖美一街","SECT":" ","MAREA":" ","LANE":" ","ALLEY":" ","HOUSE_NO":"１６３號","E_COORD97":166038.48000000001,"N_COORD97":2544988.3100000001,"ADDRESS":"湖美一街１６３號","OBJECTID":581674},"geometry":{"x":166038.48000000045,"y":2544988.3100000005}},{"attributes":{"ID":581702,"DIS_CODE":0,"TOWNNAME":"中西區","LI":"西湖里","LIN":"16鄰","STREET":"湖美一街","SECT":" ","MAREA":" ","LANE":" ","ALLEY":" ","HOUSE_NO":"１４７號","E_COORD97":166037.26000000001,"N_COORD97":2544967.1600000001,"ADDRESS":"湖美一街１４７號","OBJECTID":581675},"geometry":{"x":166037.25999999978,"y":2544967.160000002}},{"attributes":{"ID":581703,"DIS_CODE":0,"TOWNNAME":"中西區","LI":"西湖里","LIN":"16鄰","STREET":"湖美一街","SECT":" ","MAREA":" ","LANE":" ","ALLEY":" ","HOUSE_NO":"１５１號","E_COORD97":166027.76999999999,"N_COORD97":2544967.4100000001,"ADDRESS":"湖美一街１５１號","OBJECTID":581676},"geometry":{"x":166027.77000000048,"y":2544967.4100000039}},{"attributes":{"ID":581704,"DIS_CODE":0,"TOWNNAME":"中西區","LI":"西湖里","LIN":"16鄰","STREET":"湖美一街","SECT":" ","MAREA":" ","LANE":" ","ALLEY":" ","HOUSE_NO":"１５３號","E_COORD97":166023.09,"N_COORD97":2544966.8399999999,"ADDRESS":"湖美一街１５３號","OBJECTID":581677},"geometry":{"x":166023.09000000078,"y":2544966.8399999999}},{"attributes":{"ID":581705,"DIS_CODE":0,"TOWNNAME":"中西區","LI":"西湖里","LIN":"16鄰","STREET":"湖美一街","SECT":" ","MAREA":" ","LANE":" ","ALLEY":" ","HOUSE_NO":"１５５號","E_COORD97":166018.54999999999,"N_COORD97":2544967.1099999999,"ADDRESS":"湖美一街１５５號","OBJECTID":581678},"geometry":{"x":166018.54999999981,"y":2544967.1099999994}},{"attributes":{"ID":581706,"DIS_CODE":0,"TOWNNAME":"中西區","LI":"西湖里","LIN":"16鄰","STREET":"湖美一街","SECT":" ","MAREA":" ","LANE":" ","ALLEY":" ","HOUSE_NO":"１５７號","E_COORD97":166013.20000000001,"N_COORD97":2544966.8399999999,"ADDRESS":"湖美一街１５７號","OBJECTID":581679},"geometry":{"x":166013.20000000019,"y":2544966.8399999999}},{"attributes":{"ID":581707,"DIS_CODE":0,"TOWNNAME":"中西區","LI":"西湖里","LIN":"16鄰","STREET":"湖美一街","SECT":" ","MAREA":" ","LANE":" ","ALLEY":" ","HOUSE_NO":"１５９號","E_COORD97":166007.04999999999,"N_COORD97":2544967.3700000001,"ADDRESS":"湖美一街１５９號","OBJECTID":581680},"geometry":{"x":166007.04999999981,"y":2544967.370000001}},{"attributes":{"ID":581708,"DIS_CODE":0,"TOWNNAME":"中西區","LI":"西湖里","LIN":"16鄰","STREET":"湖美一街","SECT":" ","MAREA":" ","LANE":" ","ALLEY":" ","HOUSE_NO":"１６１號","E_COORD97":166032.39999999999,"N_COORD97":2544987.3300000001,"ADDRESS":"湖美一街１６１號","OBJECTID":581681},"geometry":{"x":166032.40000000037,"y":2544987.3300000001}},{"attributes":{"ID":581709,"DIS_CODE":0,"TOWNNAME":"中西區","LI":"西湖里","LIN":"16鄰","STREET":"湖美一街","SECT":" ","MAREA":" ","LANE":" ","ALLEY":" ","HOUSE_NO":"１４５號","E_COORD97":166042.37,"N_COORD97":2544966.4300000002,"ADDRESS":"湖美一街１４５號","OBJECTID":581682},"geometry":{"x":166042.37000000011,"y":2544966.4299999997}},{"attributes":{"ID":581710,"DIS_CODE":0,"TOWNNAME":"仁德區","LI":"仁德里","LIN":"16鄰","STREET":"中山路","SECT":" ","MAREA":" ","LANE":" ","ALLEY":" ","HOUSE_NO":"６６９號","E_COORD97":173151.23000000001,"N_COORD97":2541345.75,"ADDRESS":"中山路６６９號","OBJECTID":581683},"geometry":{"x":173151.23000000045,"y":2541345.7500000019}},{"attributes":{"ID":581711,"DIS_CODE":0,"TOWNNAME":"仁德區","LI":"太子里","LIN":"16鄰","STREET":"太興路","SECT":" ","MAREA":" ","LANE":" ","ALLEY":" ","HOUSE_NO":"１４３號","E_COORD97":174108.54000000001,"N_COORD97":2543641.7599999998,"ADDRESS":"太興路１４３號","OBJECTID":581684},"geometry":{"x":174108.54000000004,"y":2543641.7599999998}},{"attributes":{"ID":581712,"DIS_CODE":0,"TOWNNAME":"仁德區","LI":"太子里","LIN":"16鄰","STREET":"太子北路","SECT":" ","MAREA":" ","LANE":" ","ALLEY":" ","HOUSE_NO":"８１號","E_COORD97":174102.53,"N_COORD97":2543652.5099999998,"ADDRESS":"太子北路８１號","OBJECTID":581685},"geometry":{"x":174102.53000000212,"y":2543652.5100000016}},{"attributes":{"ID":581713,"DIS_CODE":0,"TOWNNAME":"仁德區","LI":"太子里","LIN":"16鄰","STREET":"太子北路","SECT":" ","MAREA":" ","LANE":" ","ALLEY":" ","HOUSE_NO":"９３號","E_COORD97":174072.34,"N_COORD97":2543659,"ADDRESS":"太子北路９３號","OBJECTID":581686},"geometry":{"x":174072.33999999985,"y":2543659.0000000019}},{"attributes":{"ID":581714,"DIS_CODE":0,"TOWNNAME":"仁德區","LI":"太子里","LIN":"16鄰","STREET":"太興路","SECT":" ","MAREA":" ","LANE":" ","ALLEY":" ","HOUSE_NO":"１３１號","E_COORD97":174094.14999999999,"N_COORD97":2543612.7599999998,"ADDRESS":"太興路１３１號","OBJECTID":581687},"geometry":{"x":174094.15000000037,"y":2543612.7600000016}},{"attributes":{"ID":581715,"DIS_CODE":0,"TOWNNAME":"仁德區","LI":"仁德里","LIN":"16鄰","STREET":"中山路","SECT":" ","MAREA":" ","LANE":" ","ALLEY":" ","HOUSE_NO":"６８１號","E_COORD97":173117.12,"N_COORD97":2541357.25,"ADDRESS":"中山路６８１號","OBJECTID":581688},"geometry":{"x":173117.12000000104,"y":2541357.25}},{"attributes":{"ID":581716,"DIS_CODE":0,"TOWNNAME":"仁德區","LI":"太子里","LIN":"16鄰","STREET":"太子北路","SECT":" ","MAREA":" ","LANE":" ","ALLEY":" ","HOUSE_NO":"８９號","E_COORD97":174078.10000000001,"N_COORD97":2543656.5099999998,"ADDRESS":"太子北路８９號","OBJECTID":581689},"geometry":{"x":174078.10000000056,"y":2543656.5099999998}},{"attributes":{"ID":581717,"DIS_CODE":0,"TOWNNAME":"仁德區","LI":"仁義里","LIN":"16鄰","STREET":"林頂街","SECT":" ","MAREA":" ","LANE":" ","ALLEY":" ","HOUSE_NO":"２２號","E_COORD97":174441.64000000001,"N_COORD97":2541272.6200000001,"ADDRESS":"林頂街２２號","OBJECTID":581690},"geometry":{"x":174441.63999999966,"y":2541272.6200000029}},{"attributes":{"ID":581718,"DIS_CODE":0,"TOWNNAME":"仁德區","LI":"太子里","LIN":"26鄰","STREET":"太子路","SECT":" ","MAREA":" ","LANE":" ","ALLEY":" ","HOUSE_NO":"４１４號","E_COORD97":173590.29000000001,"N_COORD97":2543548.7599999998,"ADDRESS":"太子路４１４號","OBJECTID":581691},"geometry":{"x":173590.2900000019,"y":2543548.7600000016}},{"attributes":{"ID":581719,"DIS_CODE":0,"TOWNNAME":"仁德區","LI":"仁義里","LIN":"16鄰","STREET":"義林十二街","SECT":" ","MAREA":" ","LANE":" ","ALLEY":" ","HOUSE_NO":"３５號","E_COORD97":174517.54999999999,"N_COORD97":2541484.0099999998,"ADDRESS":"義林十二街３５號","OBJECTID":581692},"geometry":{"x":174517.55000000075,"y":2541484.0099999998}},{"attributes":{"ID":581720,"DIS_CODE":0,"TOWNNAME":"仁德區","LI":"仁義里","LIN":"16鄰","STREET":"中山路","SECT":" ","MAREA":" ","LANE":" ","ALLEY":" ","HOUSE_NO":"１９８號","E_COORD97":174435.64999999999,"N_COORD97":2541201.2400000002,"ADDRESS":"中山路１９８號","OBJECTID":581693},"geometry":{"x":174435.64999999944,"y":2541201.2400000002}},{"attributes":{"ID":581721,"DIS_CODE":0,"TOWNNAME":"仁德區","LI":"仁德里","LIN":"16鄰","STREET":"中山路","SECT":" ","MAREA":" ","LANE":" ","ALLEY":" ","HOUSE_NO":"７７７號","E_COORD97":172682.04000000001,"N_COORD97":2541477,"ADDRESS":"中山路７７７號","OBJECTID":581694},"geometry":{"x":172682.04000000097,"y":2541477}},{"attributes":{"ID":581722,"DIS_CODE":0,"TOWNNAME":"仁德區","LI":"仁義里","LIN":"16鄰","STREET":"中山路","SECT":" ","MAREA":" ","LANE":" ","ALLEY":" ","HOUSE_NO":"１９４號","E_COORD97":174444.42999999999,"N_COORD97":2541200.2400000002,"ADDRESS":"中山路１９４號","OBJECTID":581695},"geometry":{"x":174444.4299999997,"y":2541200.2400000021}},{"attributes":{"ID":581723,"DIS_CODE":0,"TOWNNAME":"仁德區","LI":"仁義里","LIN":"16鄰","STREET":"中山路","SECT":" ","MAREA":" ","LANE":" ","ALLEY":" ","HOUSE_NO":"１８４號","E_COORD97":174468.19,"N_COORD97":2541196.2400000002,"ADDRESS":"中山路１８４號","OBJECTID":581696},"geometry":{"x":174468.19000000134,"y":2541196.2400000021}},{"attributes":{"ID":581724,"DIS_CODE":0,"TOWNNAME":"仁德區","LI":"仁義里","LIN":"16鄰","STREET":"林頂街","SECT":" ","MAREA":" ","LANE":" ","ALLEY":" ","HOUSE_NO":"６３號","E_COORD97":174534.32000000001,"N_COORD97":2541382.2400000002,"ADDRESS":"林頂街６３號","OBJECTID":581697},"geometry":{"x":174534.3200000003,"y":2541382.2400000021}},{"attributes":{"ID":581725,"DIS_CODE":0,"TOWNNAME":"仁德區","LI":"仁義里","LIN":"16鄰","STREET":"中山路","SECT":" ","MAREA":" ","LANE":" ","ALLEY":" ","HOUSE_NO":"２００號","E_COORD97":174430.88,"N_COORD97":2541201.7400000002,"ADDRESS":"中山路２００號","OBJECTID":581698},"geometry":{"x":174430.88000000082,"y":2541201.7400000002}},{"attributes":{"ID":581726,"DIS_CODE":0,"TOWNNAME":"仁德區","LI":"仁義里","LIN":"16鄰","STREET":"義林路","SECT":" ","MAREA":" ","LANE":" ","ALLEY":" ","HOUSE_NO":"２５０號","E_COORD97":174608.23000000001,"N_COORD97":2541430.0099999998,"ADDRESS":"義林路２５０號","OBJECTID":581699},"geometry":{"x":174608.23000000231,"y":2541430.0099999998}},{"attributes":{"ID":581727,"DIS_CODE":0,"TOWNNAME":"仁德區","LI":"仁義里","LIN":"16鄰","STREET":"林頂街","SECT":" ","MAREA":" ","LANE":" ","ALLEY":" ","HOUSE_NO":"２４號","E_COORD97":174442.07000000001,"N_COORD97":2541276.8500000001,"ADDRESS":"林頂街２４號","OBJECTID":581700},"geometry":{"x":174442.07000000123,"y":2541276.8500000015}},{"attributes":{"ID":581728,"DIS_CODE":0,"TOWNNAME":"仁德區","LI":"仁義里","LIN":"16鄰","STREET":"義林十二街","SECT":" ","MAREA":" ","LANE":" ","ALLEY":" ","HOUSE_NO":"３１號","E_COORD97":174556.39000000001,"N_COORD97":2541484.5099999998,"ADDRESS":"義林十二街３１號","OBJECTID":581701},"geometry":{"x":174556.38999999966,"y":2541484.5100000035}},{"attributes":{"ID":581729,"DIS_CODE":0,"TOWNNAME":"仁德區","LI":"仁義里","LIN":"16鄰","STREET":"林頂街","SECT":" ","MAREA":" ","LANE":" ","ALLEY":" ","HOUSE_NO":"１４號","E_COORD97":174438.17999999999,"N_COORD97":2541255.3700000001,"ADDRESS":"林頂街１４號","OBJECTID":581702},"geometry":{"x":174438.18000000156,"y":2541255.370000001}},{"attributes":{"ID":581730,"DIS_CODE":0,"TOWNNAME":"仁德區","LI":"仁義里","LIN":"16鄰","STREET":"林頂街","SECT":" ","MAREA":" ","LANE":" ","ALLEY":" ","HOUSE_NO":"３０號","E_COORD97":174447.79999999999,"N_COORD97":2541299.2400000002,"ADDRESS":"林頂街３０號","OBJECTID":581703},"geometry":{"x":174447.80000000168,"y":2541299.2400000002}},{"attributes":{"ID":581731,"DIS_CODE":0,"TOWNNAME":"仁德區","LI":"仁義里","LIN":"16鄰","STREET":"林頂街","SECT":" ","MAREA":" ","LANE":" ","ALLEY":" ","HOUSE_NO":"２０號","E_COORD97":174440.5,"N_COORD97":2541268.3700000001,"ADDRESS":"林頂街２０號","OBJECTID":581704},"geometry":{"x":174440.50000000093,"y":2541268.370000001}},{"attributes":{"ID":581732,"DIS_CODE":0,"TOWNNAME":"仁德區","LI":"仁義里","LIN":"16鄰","STREET":"林頂街","SECT":" ","MAREA":" ","LANE":" ","ALLEY":" ","HOUSE_NO":"５８號","E_COORD97":174496.45999999999,"N_COORD97":2541319.9900000002,"ADDRESS":"林頂街５８號","OBJECTID":581705},"geometry":{"x":174496.46000000089,"y":2541319.9900000021}},{"attributes":{"ID":581733,"DIS_CODE":0,"TOWNNAME":"仁德區","LI":"仁義里","LIN":"16鄰","STREET":"義林十二街","SECT":" ","MAREA":" ","LANE":" ","ALLEY":" ","HOUSE_NO":"３３號","E_COORD97":174537.42000000001,"N_COORD97":2541484.7599999998,"ADDRESS":"義林十二街３３號","OBJECTID":581706},"geometry":{"x":174537.42000000086,"y":2541484.7599999998}},{"attributes":{"ID":581734,"DIS_CODE":0,"TOWNNAME":"仁德區","LI":"仁義里","LIN":"16鄰","STREET":"林頂街","SECT":" ","MAREA":" ","LANE":" ","ALLEY":" ","HOUSE_NO":"２８號","E_COORD97":174442.82000000001,"N_COORD97":2541284.6099999999,"ADDRESS":"林頂街２８號","OBJECTID":581707},"geometry":{"x":174442.8200000003,"y":2541284.6100000013}},{"attributes":{"ID":581735,"DIS_CODE":0,"TOWNNAME":"仁德區","LI":"仁義里","LIN":"16鄰","STREET":"林頂街","SECT":" ","MAREA":" ","LANE":" ","ALLEY":" ","HOUSE_NO":"５０號","E_COORD97":174483.32000000001,"N_COORD97":2541317.4900000002,"ADDRESS":"林頂街５０號","OBJECTID":581708},"geometry":{"x":174483.3200000003,"y":2541317.4900000002}},{"attributes":{"ID":581736,"DIS_CODE":0,"TOWNNAME":"仁德區","LI":"仁義里","LIN":"16鄰","STREET":"林頂街","SECT":" ","MAREA":" ","LANE":" ","ALLEY":" ","HOUSE_NO":"１２號","E_COORD97":174436.34,"N_COORD97":2541240.8700000001,"ADDRESS":"林頂街１２號","OBJECTID":581709},"geometry":{"x":174436.34000000078,"y":2541240.8700000029}},{"attributes":{"ID":581737,"DIS_CODE":0,"TOWNNAME":"仁德區","LI":"後壁里","LIN":"3鄰","STREET":"中正路","SECT":"二段","MAREA":" ","LANE":" ","ALLEY":" ","HOUSE_NO":"３２２號","E_COORD97":173264.01000000001,"N_COORD97":2539063.2799999998,"ADDRESS":"中正路二段３２２號","OBJECTID":581710},"geometry":{"x":173264.00999999978,"y":2539063.2799999993}},{"attributes":{"ID":581738,"DIS_CODE":0,"TOWNNAME":"仁德區","LI":"成功里","LIN":"24鄰","STREET":"成功一街","SECT":" ","MAREA":" ","LANE":" ","ALLEY":" ","HOUSE_NO":"１２３號","E_COORD97":170556.29999999999,"N_COORD97":2539921.77,"ADDRESS":"成功一街１２３號","OBJECTID":581711},"geometry":{"x":170556.30000000075,"y":2539921.7699999996}},{"attributes":{"ID":581739,"DIS_CODE":0,"TOWNNAME":"仁德區","LI":"太子里","LIN":"35鄰","STREET":"太子路","SECT":" ","MAREA":" ","LANE":" ","ALLEY":" ","HOUSE_NO":"４３９號","E_COORD97":174267.81,"N_COORD97":2543493.25,"ADDRESS":"太子路４３９號","OBJECTID":581712},"geometry":{"x":174267.81000000145,"y":2543493.25}},{"attributes":{"ID":581740,"DIS_CODE":0,"TOWNNAME":"仁德區","LI":"仁義里","LIN":"16鄰","STREET":"中山路","SECT":" ","MAREA":" ","LANE":" ","ALLEY":" ","HOUSE_NO":"１８６號","E_COORD97":174464.89000000001,"N_COORD97":2541196.7400000002,"ADDRESS":"中山路１８６號","OBJECTID":581713},"geometry":{"x":174464.88999999966,"y":2541196.7400000021}},{"attributes":{"ID":581741,"DIS_CODE":0,"TOWNNAME":"仁德區","LI":"仁義里","LIN":"16鄰","STREET":"林頂街","SECT":" ","MAREA":" ","LANE":" ","ALLEY":" ","HOUSE_NO":"６１號","E_COORD97":174506.73000000001,"N_COORD97":2541360.75,"ADDRESS":"林頂街６１號","OBJECTID":581714},"geometry":{"x":174506.73000000138,"y":2541360.75}},{"attributes":{"ID":581742,"DIS_CODE":0,"TOWNNAME":"仁德區","LI":"仁義里","LIN":"16鄰","STREET":"林頂街","SECT":" ","MAREA":" ","LANE":" ","ALLEY":" ","HOUSE_NO":"３６號","E_COORD97":174460.10000000001,"N_COORD97":2541304.2400000002,"ADDRESS":"林頂街３６號","OBJECTID":581715},"geometry":{"x":174460.09999999963,"y":2541304.2400000021}},{"attributes":{"ID":581743,"DIS_CODE":0,"TOWNNAME":"仁德區","LI":"仁義里","LIN":"16鄰","STREET":"林頂街","SECT":" ","MAREA":" ","LANE":" ","ALLEY":" ","HOUSE_NO":"８號","E_COORD97":174434.17999999999,"N_COORD97":2541232.1200000001,"ADDRESS":"林頂街８號","OBJECTID":581716},"geometry":{"x":174434.1799999997,"y":2541232.1200000029}},{"attributes":{"ID":581744,"DIS_CODE":0,"TOWNNAME":"仁德區","LI":"仁義里","LIN":"16鄰","STREET":"林頂街","SECT":" ","MAREA":" ","LANE":" ","ALLEY":" ","HOUSE_NO":"５２號","E_COORD97":174487.22,"N_COORD97":2541317.9900000002,"ADDRESS":"林頂街５２號","OBJECTID":581717},"geometry":{"x":174487.2200000016,"y":2541317.9900000002}},{"attributes":{"ID":581745,"DIS_CODE":0,"TOWNNAME":"仁德區","LI":"仁德里","LIN":"16鄰","STREET":"中山路","SECT":" ","MAREA":" ","LANE":" ","ALLEY":" ","HOUSE_NO":"７７９號","E_COORD97":172697.97,"N_COORD97":2541385.4900000002,"ADDRESS":"中山路７７９號","OBJECTID":581718},"geometry":{"x":172697.96999999974,"y":2541385.4900000002}},{"attributes":{"ID":581746,"DIS_CODE":0,"TOWNNAME":"仁德區","LI":"仁義里","LIN":"16鄰","STREET":"中山路","SECT":" ","MAREA":" ","LANE":" ","ALLEY":" ","HOUSE_NO":"１９２號","E_COORD97":174449.34,"N_COORD97":2541199.2400000002,"ADDRESS":"中山路１９２號","OBJECTID":581719},"geometry":{"x":174449.34000000078,"y":2541199.2400000021}},{"attributes":{"ID":581747,"DIS_CODE":0,"TOWNNAME":"仁德區","LI":"仁義里","LIN":"16鄰","STREET":"林頂街","SECT":" ","MAREA":" ","LANE":" ","ALLEY":" ","HOUSE_NO":"２６號","E_COORD97":174442.37,"N_COORD97":2541281.1099999999,"ADDRESS":"林頂街２６號","OBJECTID":581720},"geometry":{"x":174442.37000000197,"y":2541281.1100000013}},{"attributes":{"ID":581748,"DIS_CODE":0,"TOWNNAME":"仁德區","LI":"仁義里","LIN":"16鄰","STREET":"林頂街","SECT":" ","MAREA":" ","LANE":" ","ALLEY":" ","HOUSE_NO":"１８號","E_COORD97":174439.79000000001,"N_COORD97":2541263.8700000001,"ADDRESS":"林頂街１８號","OBJECTID":581721},"geometry":{"x":174439.79000000097,"y":2541263.8700000029}},{"attributes":{"ID":581749,"DIS_CODE":0,"TOWNNAME":"仁德區","LI":"仁義里","LIN":"16鄰","STREET":"義林路","SECT":" ","MAREA":" ","LANE":" ","ALLEY":" ","HOUSE_NO":"３０１號","E_COORD97":174566.26999999999,"N_COORD97":2541438.27,"ADDRESS":"義林路３０１號","OBJECTID":581722},"geometry":{"x":174566.27000000142,"y":2541438.2699999977}},{"attributes":{"ID":581750,"DIS_CODE":0,"TOWNNAME":"仁德區","LI":"仁義里","LIN":"16鄰","STREET":"中山路","SECT":" ","MAREA":" ","LANE":" ","ALLEY":" ","HOUSE_NO":"１９０號","E_COORD97":174453.64000000001,"N_COORD97":2541198.9900000002,"ADDRESS":"中山路１９０號","OBJECTID":581723},"geometry":{"x":174453.64000000153,"y":2541198.9900000002}},{"attributes":{"ID":581751,"DIS_CODE":0,"TOWNNAME":"仁德區","LI":"仁義里","LIN":"16鄰","STREET":"林頂街","SECT":" ","MAREA":" ","LANE":" ","ALLEY":" ","HOUSE_NO":"３２號","E_COORD97":174451.95999999999,"N_COORD97":2541300.9900000002,"ADDRESS":"林頂街３２號","OBJECTID":581724},"geometry":{"x":174451.96000000183,"y":2541300.9900000002}},{"attributes":{"ID":581752,"DIS_CODE":0,"TOWNNAME":"仁德區","LI":"太子里","LIN":"16鄰","STREET":"太興路","SECT":" ","MAREA":" ","LANE":" ","ALLEY":" ","HOUSE_NO":"１３９號","E_COORD97":174104.57000000001,"N_COORD97":2543632.7599999998,"ADDRESS":"太興路１３９號","OBJECTID":581725},"geometry":{"x":174104.57000000123,"y":2543632.7600000016}},{"attributes":{"ID":581753,"DIS_CODE":0,"TOWNNAME":"永康區","LI":"復華里","LIN":"16鄰","STREET":"復華七街","SECT":" ","MAREA":" ","LANE":" ","ALLEY":" ","HOUSE_NO":"５０號","E_COORD97":172737.03,"N_COORD97":2546038.4500000002,"ADDRESS":"復華七街５０號","OBJECTID":581726},"geometry":{"x":172737.03000000026,"y":2546038.4500000011}},{"attributes":{"ID":581754,"DIS_CODE":0,"TOWNNAME":"仁德區","LI":"保安里","LIN":"16鄰","STREET":"中正路","SECT":"一段","MAREA":" ","LANE":" ","ALLEY":" ","HOUSE_NO":"１７４號","E_COORD97":171546.38,"N_COORD97":2535729.52,"ADDRESS":"中正路一段１７４號","OBJECTID":581727},"geometry":{"x":171546.37999999989,"y":2535729.5199999996}},{"attributes":{"ID":581755,"DIS_CODE":0,"TOWNNAME":"仁德區","LI":"保安里","LIN":"16鄰","STREET":"中正路","SECT":"一段","MAREA":" ","LANE":" ","ALLEY":" ","HOUSE_NO":"１７３號","E_COORD97":171501.12,"N_COORD97":2535713.02,"ADDRESS":"中正路一段１７３號","OBJECTID":581728},"geometry":{"x":171501.12000000011,"y":2535713.0199999996}},{"attributes":{"ID":581756,"DIS_CODE":0,"TOWNNAME":"仁德區","LI":"保安里","LIN":"16鄰","STREET":"中正路","SECT":"一段","MAREA":" ","LANE":" ","ALLEY":" ","HOUSE_NO":"１７５號","E_COORD97":171504.51999999999,"N_COORD97":2535717.77,"ADDRESS":"中正路一段１７５號","OBJECTID":581729},"geometry":{"x":171504.51999999955,"y":2535717.7699999996}},{"attributes":{"ID":581757,"DIS_CODE":0,"TOWNNAME":"安南區","LI":"溪心里","LIN":"16鄰","STREET":"安中路","SECT":"二段","MAREA":" ","LANE":" ","ALLEY":" ","HOUSE_NO":"２９號","E_COORD97":166978.79000000001,"N_COORD97":2549570.4900000002,"ADDRESS":"安中路二段２９號","OBJECTID":581730},"geometry":{"x":166978.79000000004,"y":2549570.4900000002}},{"attributes":{"ID":581758,"DIS_CODE":0,"TOWNNAME":"東區","LI":"東明里","LIN":"16鄰","STREET":"東安路","SECT":" ","MAREA":" ","LANE":" ","ALLEY":" ","HOUSE_NO":"７８號","E_COORD97":170708.17000000001,"N_COORD97":2543682.3399999999,"ADDRESS":"東安路７８號","OBJECTID":581731},"geometry":{"x":170708.17000000086,"y":2543682.3399999999}},{"attributes":{"ID":581759,"DIS_CODE":0,"TOWNNAME":"東區","LI":"東明里","LIN":"16鄰","STREET":"東安路","SECT":" ","MAREA":" ","LANE":" ","ALLEY":" ","HOUSE_NO":"８０號","E_COORD97":170709.10999999999,"N_COORD97":2543686.3300000001,"ADDRESS":"東安路８０號","OBJECTID":581732},"geometry":{"x":170709.11000000034,"y":2543686.3300000038}},{"attributes":{"ID":581760,"DIS_CODE":0,"TOWNNAME":"東區","LI":"東明里","LIN":"16鄰","STREET":"東安路","SECT":" ","MAREA":" ","LANE":" ","ALLEY":" ","HOUSE_NO":"８４號","E_COORD97":170710.51999999999,"N_COORD97":2543697.6000000001,"ADDRESS":"東安路８４號","OBJECTID":581733},"geometry":{"x":170710.52000000048,"y":2543697.6000000034}},{"attributes":{"ID":581761,"DIS_CODE":0,"TOWNNAME":"東區","LI":"東明里","LIN":"16鄰","STREET":"東安路","SECT":" ","MAREA":" ","LANE":" ","ALLEY":" ","HOUSE_NO":"８８號","E_COORD97":170712.87,"N_COORD97":2543706.6400000001,"ADDRESS":"東安路８８號","OBJECTID":581734},"geometry":{"x":170712.87000000011,"y":2543706.6400000025}},{"attributes":{"ID":581762,"DIS_CODE":0,"TOWNNAME":"東區","LI":"東明里","LIN":"16鄰","STREET":"東安路","SECT":" ","MAREA":" ","LANE":" ","ALLEY":" ","HOUSE_NO":"９０號","E_COORD97":170713.45999999999,"N_COORD97":2543711.9199999999,"ADDRESS":"東安路９０號","OBJECTID":581735},"geometry":{"x":170713.45999999996,"y":2543711.9199999999}},{"attributes":{"ID":581763,"DIS_CODE":0,"TOWNNAME":"善化區","LI":"坐駕里","LIN":"16鄰","STREET":"大成路","SECT":" ","MAREA":" ","LANE":" ","ALLEY":" ","HOUSE_NO":"８３號","E_COORD97":178721.32999999999,"N_COORD97":2558898.75,"ADDRESS":"大成路８３號","OBJECTID":581736},"geometry":{"x":178721.33000000194,"y":2558898.75}},{"attributes":{"ID":581764,"DIS_CODE":0,"TOWNNAME":"安南區","LI":"溪心里","LIN":"16鄰","STREET":"安中路","SECT":"二段","MAREA":" ","LANE":" ","ALLEY":" ","HOUSE_NO":"１１號","E_COORD97":167011.76999999999,"N_COORD97":2549559.73,"ADDRESS":"安中路二段１１號","OBJECTID":581737},"geometry":{"x":167011.76999999955,"y":2549559.7300000042}},{"attributes":{"ID":581765,"DIS_CODE":0,"TOWNNAME":"安南區","LI":"溪心里","LIN":"16鄰","STREET":"安中路","SECT":"二段","MAREA":" ","LANE":" ","ALLEY":" ","HOUSE_NO":"１５號","E_COORD97":167007.45999999999,"N_COORD97":2549535.8900000001,"ADDRESS":"安中路二段１５號","OBJECTID":581738},"geometry":{"x":167007.45999999996,"y":2549535.8900000025}},{"attributes":{"ID":581766,"DIS_CODE":0,"TOWNNAME":"安南區","LI":"溪心里","LIN":"16鄰","STREET":"安中路","SECT":"二段","MAREA":" ","LANE":" ","ALLEY":" ","HOUSE_NO":"１７號","E_COORD97":167004.31,"N_COORD97":2549562.8700000001,"ADDRESS":"安中路二段１７號","OBJECTID":581739},"geometry":{"x":167004.31000000052,"y":2549562.8700000048}},{"attributes":{"ID":581767,"DIS_CODE":0,"TOWNNAME":"安南區","LI":"溪心里","LIN":"16鄰","STREET":"安中路","SECT":"二段","MAREA":" ","LANE":" ","ALLEY":" ","HOUSE_NO":"１９號","E_COORD97":166999.67000000001,"N_COORD97":2549566.1800000002,"ADDRESS":"安中路二段１９號","OBJECTID":581740},"geometry":{"x":166999.66999999993,"y":2549566.1800000034}},{"attributes":{"ID":581768,"DIS_CODE":0,"TOWNNAME":"仁德區","LI":"太子里","LIN":"41鄰","STREET":"太子路","SECT":" ","MAREA":" ","LANE":" ","ALLEY":" ","HOUSE_NO":"４６號","E_COORD97":175263.26000000001,"N_COORD97":2543566.5,"ADDRESS":"太子路４６號","OBJECTID":581741},"geometry":{"x":175263.26000000164,"y":2543566.5000000037}},{"attributes":{"ID":581769,"DIS_CODE":0,"TOWNNAME":"安南區","LI":"溪心里","LIN":"16鄰","STREET":"安中路","SECT":"二段","MAREA":" ","LANE":" ","ALLEY":" ","HOUSE_NO":"２１號","E_COORD97":166996.01999999999,"N_COORD97":2549569.1600000001,"ADDRESS":"安中路二段２１號","OBJECTID":581742},"geometry":{"x":166996.02000000048,"y":2549569.1600000001}},{"attributes":{"ID":581770,"DIS_CODE":0,"TOWNNAME":"佳里區","LI":"東寧里","LIN":"12鄰","STREET":"和平街","SECT":" ","MAREA":" ","LANE":" ","ALLEY":" ","HOUSE_NO":"２號","E_COORD97":166095.07999999999,"N_COORD97":2562535.6000000001,"ADDRESS":"和平街２號","OBJECTID":581743},"geometry":{"x":166095.08000000007,"y":2562535.6000000015}},{"attributes":{"ID":581771,"DIS_CODE":0,"TOWNNAME":"安南區","LI":"溪心里","LIN":"16鄰","STREET":"安中路","SECT":"二段","MAREA":" ","LANE":" ","ALLEY":" ","HOUSE_NO":"２３號","E_COORD97":166991.54999999999,"N_COORD97":2549567.0099999998,"ADDRESS":"安中路二段２３號","OBJECTID":581744},"geometry":{"x":166991.54999999981,"y":2549567.0099999979}},{"attributes":{"ID":581772,"DIS_CODE":0,"TOWNNAME":"安南區","LI":"溪心里","LIN":"16鄰","STREET":"安中路","SECT":"二段","MAREA":" ","LANE":" ","ALLEY":" ","HOUSE_NO":"２５號","E_COORD97":166986.57999999999,"N_COORD97":2549568.6699999999,"ADDRESS":"安中路二段２５號","OBJECTID":581745},"geometry":{"x":166986.58000000007,"y":2549568.6699999999}},{"attributes":{"ID":581773,"DIS_CODE":0,"TOWNNAME":"安南區","LI":"溪心里","LIN":"16鄰","STREET":"安中路","SECT":"二段","MAREA":" ","LANE":" ","ALLEY":" ","HOUSE_NO":"２７號","E_COORD97":166983.10000000001,"N_COORD97":2549570.6499999999,"ADDRESS":"安中路二段２７號","OBJECTID":581746},"geometry":{"x":166983.0999999987,"y":2549570.6500000022}},{"attributes":{"ID":581774,"DIS_CODE":0,"TOWNNAME":"安南區","LI":"溪心里","LIN":"16鄰","STREET":"安中路","SECT":"二段","MAREA":" ","LANE":" ","ALLEY":" ","HOUSE_NO":"３１號","E_COORD97":166974.48000000001,"N_COORD97":2549572.8100000001,"ADDRESS":"安中路二段３１號","OBJECTID":581747},"geometry":{"x":166974.48000000045,"y":2549572.8100000042}},{"attributes":{"ID":581775,"DIS_CODE":0,"TOWNNAME":"安南區","LI":"溪心里","LIN":"16鄰","STREET":"安中路","SECT":"二段","MAREA":" ","LANE":" ","ALLEY":" ","HOUSE_NO":"３３號","E_COORD97":166969.84,"N_COORD97":2549574.2999999998,"ADDRESS":"安中路二段３３號","OBJECTID":581748},"geometry":{"x":166969.83999999892,"y":2549574.3000000026}},{"attributes":{"ID":581776,"DIS_CODE":0,"TOWNNAME":"安南區","LI":"溪心里","LIN":"16鄰","STREET":"安中路","SECT":"二段","MAREA":" ","LANE":" ","ALLEY":" ","HOUSE_NO":"３５號","E_COORD97":166964.54000000001,"N_COORD97":2549576.2799999998,"ADDRESS":"安中路二段３５號","OBJECTID":581749},"geometry":{"x":166964.54000000097,"y":2549576.2800000012}},{"attributes":{"ID":581777,"DIS_CODE":0,"TOWNNAME":"仁德區","LI":"仁德里","LIN":"9鄰","STREET":"仁德二街","SECT":" ","MAREA":" ","LANE":" ","ALLEY":" ","HOUSE_NO":"３０號","E_COORD97":173229.14999999999,"N_COORD97":2541078.5099999998,"ADDRESS":"仁德二街３０號","OBJECTID":581750},"geometry":{"x":173229.1500000013,"y":2541078.5100000016}},{"attributes":{"ID":581778,"DIS_CODE":0,"TOWNNAME":"安南區","LI":"溪心里","LIN":"16鄰","STREET":"安中路","SECT":"二段","MAREA":" ","LANE":" ","ALLEY":" ","HOUSE_NO":"５１號","E_COORD97":166877.98000000001,"N_COORD97":2549599.1499999999,"ADDRESS":"安中路二段５１號","OBJECTID":581751},"geometry":{"x":166877.97999999952,"y":2549599.1500000004}},{"attributes":{"ID":581779,"DIS_CODE":0,"TOWNNAME":"安南區","LI":"溪心里","LIN":"16鄰","STREET":"安中路","SECT":"二段","MAREA":" ","LANE":" ","ALLEY":" ","HOUSE_NO":"５５號","E_COORD97":166857.26000000001,"N_COORD97":2549600.7000000002,"ADDRESS":"安中路二段５５號","OBJECTID":581752},"geometry":{"x":166857.26000000071,"y":2549600.7000000011}},{"attributes":{"ID":581780,"DIS_CODE":0,"TOWNNAME":"麻豆區","LI":"大埕里","LIN":"16鄰","STREET":"大同街","SECT":" ","MAREA":" ","LANE":" ","ALLEY":" ","HOUSE_NO":"１２號","E_COORD97":172864.48000000001,"N_COORD97":2565074.4100000001,"ADDRESS":"大同街１２號","OBJECTID":581753},"geometry":{"x":172864.48000000138,"y":2565074.4100000001}},{"attributes":{"ID":581781,"DIS_CODE":0,"TOWNNAME":"麻豆區","LI":"大埕里","LIN":"16鄰","STREET":"大同街","SECT":" ","MAREA":" ","LANE":" ","ALLEY":" ","HOUSE_NO":"１８號之２","E_COORD97":172871.89999999999,"N_COORD97":2565092.1200000001,"ADDRESS":"大同街１８號之２","OBJECTID":581754},"geometry":{"x":172871.9000000013,"y":2565092.1199999992}},{"attributes":{"ID":581782,"DIS_CODE":0,"TOWNNAME":"麻豆區","LI":"大埕里","LIN":"16鄰","STREET":"大同街","SECT":" ","MAREA":" ","LANE":" ","ALLEY":" ","HOUSE_NO":"２０號","E_COORD97":172854.64999999999,"N_COORD97":2565083.1099999999,"ADDRESS":"大同街２０號","OBJECTID":581755},"geometry":{"x":172854.6500000013,"y":2565083.1099999994}},{"attributes":{"ID":581783,"DIS_CODE":0,"TOWNNAME":"麻豆區","LI":"大埕里","LIN":"16鄰","STREET":"大同街","SECT":" ","MAREA":" ","LANE":" ","ALLEY":" ","HOUSE_NO":"２４號","E_COORD97":172829.01000000001,"N_COORD97":2565102.27,"ADDRESS":"大同街２４號","OBJECTID":581756},"geometry":{"x":172829.01000000164,"y":2565102.2699999996}},{"attributes":{"ID":581784,"DIS_CODE":0,"TOWNNAME":"麻豆區","LI":"大埕里","LIN":"16鄰","STREET":"大同街","SECT":" ","MAREA":" ","LANE":" ","ALLEY":" ","HOUSE_NO":"２６號之１","E_COORD97":172835.67000000001,"N_COORD97":2565122.1099999999,"ADDRESS":"大同街２６號之１","OBJECTID":581757},"geometry":{"x":172835.67000000086,"y":2565122.1100000013}},{"attributes":{"ID":581785,"DIS_CODE":0,"TOWNNAME":"麻豆區","LI":"大埕里","LIN":"16鄰","STREET":"大同街","SECT":" ","MAREA":" ","LANE":" ","ALLEY":" ","HOUSE_NO":"２６號之２","E_COORD97":172831.32000000001,"N_COORD97":2565127.9700000002,"ADDRESS":"大同街２６號之２","OBJECTID":581758},"geometry":{"x":172831.32000000123,"y":2565127.9700000025}},{"attributes":{"ID":581786,"DIS_CODE":0,"TOWNNAME":"麻豆區","LI":"大埕里","LIN":"16鄰","STREET":"大同街","SECT":" ","MAREA":" ","LANE":" ","ALLEY":" ","HOUSE_NO":"２６號","E_COORD97":172850.70000000001,"N_COORD97":2565112.5499999998,"ADDRESS":"大同街２６號","OBJECTID":581759},"geometry":{"x":172850.70000000112,"y":2565112.5500000007}},{"attributes":{"ID":581787,"DIS_CODE":0,"TOWNNAME":"麻豆區","LI":"中興里","LIN":"16鄰","STREET":"三民路","SECT":" ","MAREA":" ","LANE":" ","ALLEY":" ","HOUSE_NO":"６４號之１","E_COORD97":172760.28,"N_COORD97":2564425.6299999999,"ADDRESS":"三民路６４號之１","OBJECTID":581760},"geometry":{"x":172760.28000000119,"y":2564425.6300000027}},{"attributes":{"ID":581788,"DIS_CODE":0,"TOWNNAME":"麻豆區","LI":"中興里","LIN":"16鄰","STREET":"三民路","SECT":" ","MAREA":" ","LANE":" ","ALLEY":" ","HOUSE_NO":"６４號之２","E_COORD97":172761.31,"N_COORD97":2564419.5299999998,"ADDRESS":"三民路６４號之２","OBJECTID":581761},"geometry":{"x":172761.31000000052,"y":2564419.5299999993}},{"attributes":{"ID":581789,"DIS_CODE":0,"TOWNNAME":"麻豆區","LI":"中興里","LIN":"16鄰","STREET":"三民路","SECT":" ","MAREA":" ","LANE":" ","ALLEY":" ","HOUSE_NO":"６４號之３","E_COORD97":172762.07000000001,"N_COORD97":2564414.5499999998,"ADDRESS":"三民路６４號之３","OBJECTID":581762},"geometry":{"x":172762.07000000123,"y":2564414.5500000045}},{"attributes":{"ID":581790,"DIS_CODE":0,"TOWNNAME":"麻豆區","LI":"中興里","LIN":"16鄰","STREET":"三民路","SECT":" ","MAREA":" ","LANE":" ","ALLEY":" ","HOUSE_NO":"６４號之４","E_COORD97":172763.01000000001,"N_COORD97":2564409.2999999998,"ADDRESS":"三民路６４號之４","OBJECTID":581763},"geometry":{"x":172763.01000000164,"y":2564409.3000000045}},{"attributes":{"ID":581791,"DIS_CODE":0,"TOWNNAME":"麻豆區","LI":"中興里","LIN":"16鄰","STREET":"三民路","SECT":" ","MAREA":" ","LANE":" ","ALLEY":" ","HOUSE_NO":"６４號","E_COORD97":172759.45000000001,"N_COORD97":2564432.1000000001,"ADDRESS":"三民路６４號","OBJECTID":581764},"geometry":{"x":172759.45000000112,"y":2564432.0999999996}},{"attributes":{"ID":581792,"DIS_CODE":0,"TOWNNAME":"麻豆區","LI":"中興里","LIN":"16鄰","STREET":"三民路","SECT":" ","MAREA":" ","LANE":" ","ALLEY":" ","HOUSE_NO":"６６號","E_COORD97":172782.39999999999,"N_COORD97":2564437.8300000001,"ADDRESS":"三民路６６號","OBJECTID":581765},"geometry":{"x":172782.40000000037,"y":2564437.8300000001}},{"attributes":{"ID":581793,"DIS_CODE":0,"TOWNNAME":"麻豆區","LI":"中興里","LIN":"16鄰","STREET":"三民路","SECT":" ","MAREA":" ","LANE":" ","ALLEY":" ","HOUSE_NO":"６８號","E_COORD97":172782.66,"N_COORD97":2564433.4700000002,"ADDRESS":"三民路６８號","OBJECTID":581766},"geometry":{"x":172782.66000000201,"y":2564433.4700000025}},{"attributes":{"ID":581794,"DIS_CODE":0,"TOWNNAME":"麻豆區","LI":"中興里","LIN":"16鄰","STREET":"三民路","SECT":" ","MAREA":" ","LANE":" ","ALLEY":" ","HOUSE_NO":"７０號之１","E_COORD97":172782.26999999999,"N_COORD97":2564424.7000000002,"ADDRESS":"三民路７０號之１","OBJECTID":581767},"geometry":{"x":172782.26999999955,"y":2564424.6999999993}},{"attributes":{"ID":581795,"DIS_CODE":0,"TOWNNAME":"麻豆區","LI":"中興里","LIN":"16鄰","STREET":"三民路","SECT":" ","MAREA":" ","LANE":" ","ALLEY":" ","HOUSE_NO":"７０號之２","E_COORD97":172782.95000000001,"N_COORD97":2564420.1200000001,"ADDRESS":"三民路７０號之２","OBJECTID":581768},"geometry":{"x":172782.95000000112,"y":2564420.120000001}},{"attributes":{"ID":581796,"DIS_CODE":0,"TOWNNAME":"麻豆區","LI":"中興里","LIN":"16鄰","STREET":"三民路","SECT":" ","MAREA":" ","LANE":" ","ALLEY":" ","HOUSE_NO":"７０號之３","E_COORD97":172783.5,"N_COORD97":2564415.2599999998,"ADDRESS":"三民路７０號之３","OBJECTID":581769},"geometry":{"x":172783.50000000186,"y":2564415.2600000035}},{"attributes":{"ID":581797,"DIS_CODE":0,"TOWNNAME":"麻豆區","LI":"中興里","LIN":"16鄰","STREET":"三民路","SECT":" ","MAREA":" ","LANE":" ","ALLEY":" ","HOUSE_NO":"７０號之４","E_COORD97":172783.64999999999,"N_COORD97":2564410.71,"ADDRESS":"三民路７０號之４","OBJECTID":581770},"geometry":{"x":172783.6500000013,"y":2564410.7100000028}},{"attributes":{"ID":581798,"DIS_CODE":0,"TOWNNAME":"麻豆區","LI":"中興里","LIN":"16鄰","STREET":"三民路","SECT":" ","MAREA":" ","LANE":" ","ALLEY":" ","HOUSE_NO":"７０號之５","E_COORD97":172783.79999999999,"N_COORD97":2564406.3199999998,"ADDRESS":"三民路７０號之５","OBJECTID":581771},"geometry":{"x":172783.80000000075,"y":2564406.3200000022}},{"attributes":{"ID":581799,"DIS_CODE":0,"TOWNNAME":"麻豆區","LI":"中興里","LIN":"16鄰","STREET":"三民路","SECT":" ","MAREA":" ","LANE":" ","ALLEY":" ","HOUSE_NO":"７０號之６","E_COORD97":172783.73999999999,"N_COORD97":2564402.0499999998,"ADDRESS":"三民路７０號之６","OBJECTID":581772},"geometry":{"x":172783.73999999929,"y":2564402.0500000026}},{"attributes":{"ID":581800,"DIS_CODE":0,"TOWNNAME":"麻豆區","LI":"中興里","LIN":"16鄰","STREET":"三民路","SECT":" ","MAREA":" ","LANE":" ","ALLEY":" ","HOUSE_NO":"７０號","E_COORD97":172782.44,"N_COORD97":2564428.73,"ADDRESS":"三民路７０號","OBJECTID":581773},"geometry":{"x":172782.44000000041,"y":2564428.7300000004}},{"attributes":{"ID":581801,"DIS_CODE":0,"TOWNNAME":"麻豆區","LI":"大埕里","LIN":"16鄰","STREET":"大同街","SECT":" ","MAREA":" ","LANE":" ","ALLEY":" ","HOUSE_NO":"１０號之１４","E_COORD97":172883.51000000001,"N_COORD97":2565065.6200000001,"ADDRESS":"大同街１０號之１４","OBJECTID":581774},"geometry":{"x":172883.51000000071,"y":2565065.6200000029}},{"attributes":{"ID":581802,"DIS_CODE":0,"TOWNNAME":"麻豆區","LI":"大埕里","LIN":"16鄰","STREET":"大同街","SECT":" ","MAREA":" ","LANE":" ","ALLEY":" ","HOUSE_NO":"１０號之１５","E_COORD97":172886.04000000001,"N_COORD97":2565071.6299999999,"ADDRESS":"大同街１０號之１５","OBJECTID":581775},"geometry":{"x":172886.04000000004,"y":2565071.629999999}},{"attributes":{"ID":581803,"DIS_CODE":0,"TOWNNAME":"麻豆區","LI":"大埕里","LIN":"16鄰","STREET":"大同街","SECT":" ","MAREA":" ","LANE":" ","ALLEY":" ","HOUSE_NO":"１０號之１６","E_COORD97":172885.67999999999,"N_COORD97":2565076.0800000001,"ADDRESS":"大同街１０號之１６","OBJECTID":581776},"geometry":{"x":172885.68000000063,"y":2565076.0800000019}},{"attributes":{"ID":581804,"DIS_CODE":0,"TOWNNAME":"麻豆區","LI":"大埕里","LIN":"16鄰","STREET":"大同街","SECT":" ","MAREA":" ","LANE":" ","ALLEY":" ","HOUSE_NO":"１０號之１７","E_COORD97":172884.51999999999,"N_COORD97":2565080.7400000002,"ADDRESS":"大同街１０號之１７","OBJECTID":581777},"geometry":{"x":172884.51999999862,"y":2565080.7400000039}},{"attributes":{"ID":581805,"DIS_CODE":0,"TOWNNAME":"麻豆區","LI":"大埕里","LIN":"16鄰","STREET":"大同街","SECT":" ","MAREA":" ","LANE":" ","ALLEY":" ","HOUSE_NO":"１０號之１","E_COORD97":172886.59,"N_COORD97":2565045.1800000002,"ADDRESS":"大同街１０號之１","OBJECTID":581778},"geometry":{"x":172886.59000000078,"y":2565045.1799999997}},{"attributes":{"ID":581806,"DIS_CODE":0,"TOWNNAME":"麻豆區","LI":"大埕里","LIN":"16鄰","STREET":"大同街","SECT":" ","MAREA":" ","LANE":" ","ALLEY":" ","HOUSE_NO":"１０號之５","E_COORD97":172903.67000000001,"N_COORD97":2565041.6699999999,"ADDRESS":"大同街１０號之５","OBJECTID":581779},"geometry":{"x":172903.66999999993,"y":2565041.6699999999}},{"attributes":{"ID":581807,"DIS_CODE":0,"TOWNNAME":"麻豆區","LI":"大埕里","LIN":"16鄰","STREET":"大同街","SECT":" ","MAREA":" ","LANE":" ","ALLEY":" ","HOUSE_NO":"１０號","E_COORD97":172871.62,"N_COORD97":2565045.27,"ADDRESS":"大同街１０號","OBJECTID":581780},"geometry":{"x":172871.62000000104,"y":2565045.2699999996}},{"attributes":{"ID":581808,"DIS_CODE":0,"TOWNNAME":"麻豆區","LI":"大埕里","LIN":"16鄰","STREET":"大同街","SECT":" ","MAREA":" ","LANE":" ","ALLEY":" ","HOUSE_NO":"３８號","E_COORD97":172876.54000000001,"N_COORD97":2565158.2799999998,"ADDRESS":"大同街３８號","OBJECTID":581781},"geometry":{"x":172876.5400000019,"y":2565158.2800000012}},{"attributes":{"ID":581809,"DIS_CODE":0,"TOWNNAME":"麻豆區","LI":"大埕里","LIN":"16鄰","STREET":"大同街","SECT":" ","MAREA":" ","LANE":" ","ALLEY":" ","HOUSE_NO":"８號之３","E_COORD97":172880.69,"N_COORD97":2565036.98,"ADDRESS":"大同街８號之３","OBJECTID":581782},"geometry":{"x":172880.69000000041,"y":2565036.9800000004}},{"attributes":{"ID":581810,"DIS_CODE":0,"TOWNNAME":"善化區","LI":"坐駕里","LIN":"16鄰","STREET":"大成路","SECT":" ","MAREA":" ","LANE":" ","ALLEY":" ","HOUSE_NO":"１１７號之１４","E_COORD97":178612.54999999999,"N_COORD97":2558801.77,"ADDRESS":"大成路１１７號之１４","OBJECTID":581783},"geometry":{"x":178612.54999999981,"y":2558801.7700000014}},{"attributes":{"ID":581811,"DIS_CODE":0,"TOWNNAME":"善化區","LI":"光文里","LIN":"16鄰","STREET":"民權路","SECT":" ","MAREA":" ","LANE":" ","ALLEY":" ","HOUSE_NO":"２０８號","E_COORD97":178167.23000000001,"N_COORD97":2559009.3300000001,"ADDRESS":"民權路２０８號","OBJECTID":581784},"geometry":{"x":178167.23000000045,"y":2559009.3300000001}},{"attributes":{"ID":581812,"DIS_CODE":0,"TOWNNAME":"善化區","LI":"光文里","LIN":"16鄰","STREET":"中山路","SECT":" ","MAREA":" ","LANE":" ","ALLEY":" ","HOUSE_NO":"２１９號之３","E_COORD97":178196.31,"N_COORD97":2559111.52,"ADDRESS":"中山路２１９號之３","OBJECTID":581785},"geometry":{"x":178196.30999999959,"y":2559111.5200000014}},{"attributes":{"ID":581813,"DIS_CODE":0,"TOWNNAME":"善化區","LI":"光文里","LIN":"16鄰","STREET":"中山路","SECT":" ","MAREA":" ","LANE":" ","ALLEY":" ","HOUSE_NO":"１８５號","E_COORD97":178338.95000000001,"N_COORD97":2559132,"ADDRESS":"中山路１８５號","OBJECTID":581786},"geometry":{"x":178338.95000000019,"y":2559132.0000000037}},{"attributes":{"ID":581814,"DIS_CODE":0,"TOWNNAME":"善化區","LI":"坐駕里","LIN":"16鄰","STREET":"大成路","SECT":" ","MAREA":" ","LANE":" ","ALLEY":" ","HOUSE_NO":"１１７號之５","E_COORD97":178629.51999999999,"N_COORD97":2558842.27,"ADDRESS":"大成路１１７號之５","OBJECTID":581787},"geometry":{"x":178629.51999999862,"y":2558842.2700000014}},{"attributes":{"ID":581815,"DIS_CODE":0,"TOWNNAME":"善化區","LI":"坐駕里","LIN":"16鄰","STREET":"大成路","SECT":" ","MAREA":" ","LANE":" ","ALLEY":" ","HOUSE_NO":"１１號","E_COORD97":178901.16,"N_COORD97":2558903.5,"ADDRESS":"大成路１１號","OBJECTID":581788},"geometry":{"x":178901.16000000108,"y":2558903.5}},{"attributes":{"ID":581816,"DIS_CODE":0,"TOWNNAME":"善化區","LI":"光文里","LIN":"16鄰","STREET":"中山路","SECT":" ","MAREA":" ","LANE":" ","ALLEY":" ","HOUSE_NO":"２１１之１號","E_COORD97":178260.70000000001,"N_COORD97":2559119.02,"ADDRESS":"中山路２１１之１號","OBJECTID":581789},"geometry":{"x":178260.70000000019,"y":2559119.0200000014}},{"attributes":{"ID":581817,"DIS_CODE":0,"TOWNNAME":"善化區","LI":"坐駕里","LIN":"16鄰","STREET":"大成路","SECT":" ","MAREA":" ","LANE":" ","ALLEY":" ","HOUSE_NO":"１１７號之３","E_COORD97":178617.35999999999,"N_COORD97":2558840.27,"ADDRESS":"大成路１１７號之３","OBJECTID":581790},"geometry":{"x":178617.36000000034,"y":2558840.2699999996}},{"attributes":{"ID":581818,"DIS_CODE":0,"TOWNNAME":"善化區","LI":"光文里","LIN":"16鄰","STREET":"民族路","SECT":" ","MAREA":" ","LANE":" ","ALLEY":" ","HOUSE_NO":"１３６號","E_COORD97":178264.51000000001,"N_COORD97":2559087.5099999998,"ADDRESS":"民族路１３６號","OBJECTID":581791},"geometry":{"x":178264.51000000071,"y":2559087.5100000035}},{"attributes":{"ID":581819,"DIS_CODE":0,"TOWNNAME":"善化區","LI":"光文里","LIN":"16鄰","STREET":"民族路","SECT":" ","MAREA":" ","LANE":" ","ALLEY":" ","HOUSE_NO":"１６０號","E_COORD97":178140.17999999999,"N_COORD97":2559070.0099999998,"ADDRESS":"民族路１６０號","OBJECTID":581792},"geometry":{"x":178140.1799999997,"y":2559070.0099999998}},{"attributes":{"ID":581820,"DIS_CODE":0,"TOWNNAME":"善化區","LI":"坐駕里","LIN":"16鄰","STREET":"大成路","SECT":" ","MAREA":" ","LANE":" ","ALLEY":" ","HOUSE_NO":"１１７號之９","E_COORD97":178617.13,"N_COORD97":2558825.27,"ADDRESS":"大成路１１７號之９","OBJECTID":581793},"geometry":{"x":178617.12999999989,"y":2558825.2700000014}},{"attributes":{"ID":581821,"DIS_CODE":0,"TOWNNAME":"善化區","LI":"光文里","LIN":"16鄰","STREET":"樹人路","SECT":" ","MAREA":" ","LANE":" ","ALLEY":" ","HOUSE_NO":"７７號","E_COORD97":178354.81,"N_COORD97":2559084.5,"ADDRESS":"樹人路７７號","OBJECTID":581794},"geometry":{"x":178354.81000000145,"y":2559084.5000000037}},{"attributes":{"ID":581822,"DIS_CODE":0,"TOWNNAME":"善化區","LI":"坐駕里","LIN":"16鄰","STREET":"成功路","SECT":" ","MAREA":" ","LANE":" ","ALLEY":" ","HOUSE_NO":"４０５號","E_COORD97":179243.32999999999,"N_COORD97":2558797.75,"ADDRESS":"成功路４０５號","OBJECTID":581795},"geometry":{"x":179243.32999999914,"y":2558797.7500000037}},{"attributes":{"ID":581823,"DIS_CODE":0,"TOWNNAME":"善化區","LI":"坐駕里","LIN":"16鄰","STREET":"大成路","SECT":" ","MAREA":" ","LANE":" ","ALLEY":" ","HOUSE_NO":"１１７號之１","E_COORD97":178605.10999999999,"N_COORD97":2558838.77,"ADDRESS":"大成路１１７號之１","OBJECTID":581796},"geometry":{"x":178605.11000000127,"y":2558838.7700000014}},{"attributes":{"ID":581824,"DIS_CODE":0,"TOWNNAME":"善化區","LI":"坐駕里","LIN":"16鄰","STREET":"大成路","SECT":" ","MAREA":" ","LANE":" ","ALLEY":" ","HOUSE_NO":"７９號","E_COORD97":178730.60999999999,"N_COORD97":2558900,"ADDRESS":"大成路７９號","OBJECTID":581797},"geometry":{"x":178730.61000000127,"y":2558900}},{"attributes":{"ID":581825,"DIS_CODE":0,"TOWNNAME":"善化區","LI":"坐駕里","LIN":"16鄰","STREET":"大成路","SECT":" ","MAREA":" ","LANE":" ","ALLEY":" ","HOUSE_NO":"８５號","E_COORD97":178715.95999999999,"N_COORD97":2558899,"ADDRESS":"大成路８５號","OBJECTID":581798},"geometry":{"x":178715.96000000089,"y":2558899.0000000019}},{"attributes":{"ID":581826,"DIS_CODE":0,"TOWNNAME":"善化區","LI":"光文里","LIN":"16鄰","STREET":"民族路","SECT":" ","MAREA":" ","LANE":" ","ALLEY":" ","HOUSE_NO":"１２６號","E_COORD97":178310.63,"N_COORD97":2559098.2599999998,"ADDRESS":"民族路１２６號","OBJECTID":581799},"geometry":{"x":178310.63000000175,"y":2559098.2599999998}},{"attributes":{"ID":581827,"DIS_CODE":0,"TOWNNAME":"善化區","LI":"坐駕里","LIN":"16鄰","STREET":"大成路","SECT":" ","MAREA":" ","LANE":" ","ALLEY":" ","HOUSE_NO":"５號","E_COORD97":178916.10000000001,"N_COORD97":2558902,"ADDRESS":"大成路５號","OBJECTID":581800},"geometry":{"x":178916.10000000056,"y":2558902.0000000019}}]}