{"displayFieldName":"TOWNNAME","fieldAliases":{"ID":"ID","DIS_CODE":"DIS_CODE","TOWNNAME":"TOWNNAME","LI":"LI","LIN":"LIN","STREET":"STREET","SECT":"SECT","MAREA":"MAREA","LANE":"LANE","ALLEY":"ALLEY","HOUSE_NO":"HOUSE_NO","E_COORD97":"E_COORD97","N_COORD97":"N_COORD97","ADDRESS":"ADDRESS","OBJECTID":"OBJECTID"},"geometryType":"esriGeometryPoint","spatialReference":{"wkid":102443,"latestWkid":3826},"fields":[{"name":"ID","type":"esriFieldTypeDouble","alias":"ID"},{"name":"DIS_CODE","type":"esriFieldTypeInteger","alias":"DIS_CODE"},{"name":"TOWNNAME","type":"esriFieldTypeString","alias":"TOWNNAME","length":8},{"name":"LI","type":"esriFieldTypeString","alias":"LI","length":8},{"name":"LIN","type":"esriFieldTypeString","alias":"LIN","length":12},{"name":"STREET","type":"esriFieldTypeString","alias":"STREET","length":20},{"name":"SECT","type":"esriFieldTypeString","alias":"SECT","length":8},{"name":"MAREA","type":"esriFieldTypeString","alias":"MAREA","length":12},{"name":"LANE","type":"esriFieldTypeString","alias":"LANE","length":10},{"name":"ALLEY","type":"esriFieldTypeString","alias":"ALLEY","length":10},{"name":"HOUSE_NO","type":"esriFieldTypeString","alias":"HOUSE_NO","length":20},{"name":"E_COORD97","type":"esriFieldTypeDouble","alias":"E_COORD97"},{"name":"N_COORD97","type":"esriFieldTypeDouble","alias":"N_COORD97"},{"name":"ADDRESS","type":"esriFieldTypeString","alias":"ADDRESS","length":50},{"name":"OBJECTID","type":"esriFieldTypeOID","alias":"OBJECTID"}],"features":[{"attributes":{"ID":361611,"DIS_CODE":0,"TOWNNAME":"北區","LI":"華興里","LIN":"19鄰","STREET":"南園街","SECT":" ","MAREA":" ","LANE":"１５３巷","ALLEY":" ","HOUSE_NO":"１８號","E_COORD97":170662.09,"N_COORD97":2545187.2400000002,"ADDRESS":"南園街１５３巷１８號","OBJECTID":361601},"geometry":{"x":170662.09000000171,"y":2545187.2400000021}},{"attributes":{"ID":361612,"DIS_CODE":0,"TOWNNAME":"北區","LI":"華興里","LIN":"19鄰","STREET":"南園街","SECT":" ","MAREA":" ","LANE":"１５３巷","ALLEY":" ","HOUSE_NO":"２號","E_COORD97":170630.64999999999,"N_COORD97":2545192.0499999998,"ADDRESS":"南園街１５３巷２號","OBJECTID":361602},"geometry":{"x":170630.6500000013,"y":2545192.0500000026}},{"attributes":{"ID":361613,"DIS_CODE":0,"TOWNNAME":"北區","LI":"華興里","LIN":"19鄰","STREET":"南園街","SECT":" ","MAREA":" ","LANE":"１５３巷","ALLEY":" ","HOUSE_NO":"４號","E_COORD97":170634.35999999999,"N_COORD97":2545189.77,"ADDRESS":"南園街１５３巷４號","OBJECTID":361603},"geometry":{"x":170634.36000000127,"y":2545189.7700000014}},{"attributes":{"ID":361614,"DIS_CODE":0,"TOWNNAME":"北區","LI":"華興里","LIN":"19鄰","STREET":"南園街","SECT":" ","MAREA":" ","LANE":"１５３巷","ALLEY":" ","HOUSE_NO":"６號","E_COORD97":170638.70000000001,"N_COORD97":2545190.71,"ADDRESS":"南園街１５３巷６號","OBJECTID":361604},"geometry":{"x":170638.70000000112,"y":2545190.7100000028}},{"attributes":{"ID":361615,"DIS_CODE":0,"TOWNNAME":"北區","LI":"華興里","LIN":"19鄰","STREET":"南園街","SECT":" ","MAREA":" ","LANE":"１５３巷","ALLEY":" ","HOUSE_NO":"８號","E_COORD97":170642.17999999999,"N_COORD97":2545188.5800000001,"ADDRESS":"南園街１５３巷８號","OBJECTID":361605},"geometry":{"x":170642.1799999997,"y":2545188.5800000001}},{"attributes":{"ID":361616,"DIS_CODE":0,"TOWNNAME":"北區","LI":"華興里","LIN":"19鄰","STREET":"開南街","SECT":" ","MAREA":" ","LANE":"１４３巷","ALLEY":" ","HOUSE_NO":"１１號","E_COORD97":170652.75,"N_COORD97":2545161.0800000001,"ADDRESS":"開南街１４３巷１１號","OBJECTID":361606},"geometry":{"x":170652.75000000186,"y":2545161.0800000019}},{"attributes":{"ID":361617,"DIS_CODE":0,"TOWNNAME":"北區","LI":"華興里","LIN":"19鄰","STREET":"開南街","SECT":" ","MAREA":" ","LANE":"１４３巷","ALLEY":" ","HOUSE_NO":"１５號","E_COORD97":170653.54000000001,"N_COORD97":2545169.9100000001,"ADDRESS":"開南街１４３巷１５號","OBJECTID":361607},"geometry":{"x":170653.54000000004,"y":2545169.9100000001}},{"attributes":{"ID":361618,"DIS_CODE":0,"TOWNNAME":"北區","LI":"華興里","LIN":"19鄰","STREET":"開南街","SECT":" ","MAREA":" ","LANE":"１４３巷","ALLEY":" ","HOUSE_NO":"１號","E_COORD97":170636.01000000001,"N_COORD97":2545136.9100000001,"ADDRESS":"開南街１４３巷１號","OBJECTID":361608},"geometry":{"x":170636.01000000071,"y":2545136.9099999983}},{"attributes":{"ID":361619,"DIS_CODE":0,"TOWNNAME":"六甲區","LI":"甲東里","LIN":"19鄰","STREET":"裕農街","SECT":" ","MAREA":" ","LANE":"４１巷","ALLEY":" ","HOUSE_NO":"１０號","E_COORD97":184088.35999999999,"N_COORD97":2569770.5800000001,"ADDRESS":"裕農街４１巷１０號","OBJECTID":361609},"geometry":{"x":184088.3600000022,"y":2569770.5800000038}},{"attributes":{"ID":361620,"DIS_CODE":0,"TOWNNAME":"六甲區","LI":"甲東里","LIN":"19鄰","STREET":"裕農街","SECT":" ","MAREA":" ","LANE":"４１巷","ALLEY":" ","HOUSE_NO":"１２號","E_COORD97":184086.69,"N_COORD97":2569777.3199999998,"ADDRESS":"裕農街４１巷１２號","OBJECTID":361610},"geometry":{"x":184086.69000000134,"y":2569777.3200000022}},{"attributes":{"ID":361621,"DIS_CODE":0,"TOWNNAME":"六甲區","LI":"甲東里","LIN":"19鄰","STREET":"裕農街","SECT":" ","MAREA":" ","LANE":"４９巷","ALLEY":" ","HOUSE_NO":"５號","E_COORD97":184109.92000000001,"N_COORD97":2569761.9100000001,"ADDRESS":"裕農街４９巷５號","OBJECTID":361611},"geometry":{"x":184109.92000000086,"y":2569761.910000002}},{"attributes":{"ID":361622,"DIS_CODE":0,"TOWNNAME":"六甲區","LI":"甲東里","LIN":"19鄰","STREET":"裕農街","SECT":" ","MAREA":" ","LANE":"４９巷","ALLEY":" ","HOUSE_NO":"７號之１","E_COORD97":184105.67000000001,"N_COORD97":2569773.9199999999,"ADDRESS":"裕農街４９巷７號之１","OBJECTID":361612},"geometry":{"x":184105.66999999993,"y":2569773.9199999999}},{"attributes":{"ID":361623,"DIS_CODE":0,"TOWNNAME":"六甲區","LI":"甲東里","LIN":"19鄰","STREET":"裕農街","SECT":" ","MAREA":" ","LANE":"４９巷","ALLEY":" ","HOUSE_NO":"７號","E_COORD97":184107.44,"N_COORD97":2569768.8900000001,"ADDRESS":"裕農街４９巷７號","OBJECTID":361613},"geometry":{"x":184107.44000000041,"y":2569768.8900000043}},{"attributes":{"ID":361624,"DIS_CODE":0,"TOWNNAME":"六甲區","LI":"甲東里","LIN":"19鄰","STREET":"裕農街","SECT":" ","MAREA":" ","LANE":"４９巷","ALLEY":" ","HOUSE_NO":"９號","E_COORD97":184105.45000000001,"N_COORD97":2569798.1499999999,"ADDRESS":"裕農街４９巷９號","OBJECTID":361614},"geometry":{"x":184105.45000000019,"y":2569798.1500000022}},{"attributes":{"ID":361625,"DIS_CODE":0,"TOWNNAME":"關廟區","LI":"北勢里","LIN":"19鄰","STREET":"南雄路","SECT":"二段","MAREA":" ","LANE":"２４８巷","ALLEY":" ","HOUSE_NO":"６號","E_COORD97":181189.48999999999,"N_COORD97":2540622.2799999998,"ADDRESS":"南雄路二段２４８巷６號","OBJECTID":361615},"geometry":{"x":181189.49000000022,"y":2540622.2800000012}},{"attributes":{"ID":361626,"DIS_CODE":0,"TOWNNAME":"關廟區","LI":"五甲里","LIN":"19鄰","STREET":"大仁街","SECT":" ","MAREA":" ","LANE":"１７巷","ALLEY":" ","HOUSE_NO":"３號","E_COORD97":181185.82000000001,"N_COORD97":2539389.25,"ADDRESS":"大仁街１７巷３號","OBJECTID":361616},"geometry":{"x":181185.8200000003,"y":2539389.2500000019}},{"attributes":{"ID":361627,"DIS_CODE":0,"TOWNNAME":"關廟區","LI":"北勢里","LIN":"19鄰","STREET":"北安三街","SECT":" ","MAREA":" ","LANE":"４７６巷","ALLEY":" ","HOUSE_NO":"６號","E_COORD97":181202.54000000001,"N_COORD97":2540715.3199999998,"ADDRESS":"北安三街４７６巷６號","OBJECTID":361617},"geometry":{"x":181202.54000000004,"y":2540715.3200000003}},{"attributes":{"ID":361628,"DIS_CODE":0,"TOWNNAME":"關廟區","LI":"香洋里","LIN":"19鄰","STREET":"中央路","SECT":" ","MAREA":" ","LANE":"１０１巷","ALLEY":" ","HOUSE_NO":"９號","E_COORD97":181422.26000000001,"N_COORD97":2539963.3199999998,"ADDRESS":"中央路１０１巷９號","OBJECTID":361618},"geometry":{"x":181422.26000000071,"y":2539963.3200000003}},{"attributes":{"ID":361629,"DIS_CODE":0,"TOWNNAME":"關廟區","LI":"北勢里","LIN":"19鄰","STREET":"北安三街","SECT":" ","MAREA":" ","LANE":"４７６巷","ALLEY":" ","HOUSE_NO":"１８號","E_COORD97":181226.48999999999,"N_COORD97":2540724.3199999998,"ADDRESS":"北安三街４７６巷１８號","OBJECTID":361619},"geometry":{"x":181226.49000000115,"y":2540724.3200000022}},{"attributes":{"ID":361630,"DIS_CODE":0,"TOWNNAME":"關廟區","LI":"北勢里","LIN":"19鄰","STREET":"成功路","SECT":" ","MAREA":" ","LANE":"３９２巷","ALLEY":" ","HOUSE_NO":"２３號","E_COORD97":181208.32000000001,"N_COORD97":2540615.27,"ADDRESS":"成功路３９２巷２３號","OBJECTID":361620},"geometry":{"x":181208.3200000003,"y":2540615.2700000014}},{"attributes":{"ID":361631,"DIS_CODE":0,"TOWNNAME":"關廟區","LI":"北勢里","LIN":"19鄰","STREET":"成功路","SECT":" ","MAREA":" ","LANE":"３９２巷","ALLEY":" ","HOUSE_NO":"１８號","E_COORD97":181209.82000000001,"N_COORD97":2540592.27,"ADDRESS":"成功路３９２巷１８號","OBJECTID":361621},"geometry":{"x":181209.8200000003,"y":2540592.2700000014}},{"attributes":{"ID":361632,"DIS_CODE":0,"TOWNNAME":"關廟區","LI":"東勢里","LIN":"19鄰","STREET":"東仁街","SECT":" ","MAREA":" ","LANE":"２９巷","ALLEY":" ","HOUSE_NO":"２號","E_COORD97":181872.92000000001,"N_COORD97":2539280.25,"ADDRESS":"東仁街２９巷２號","OBJECTID":361622},"geometry":{"x":181872.91999999993,"y":2539280.2500000019}},{"attributes":{"ID":361633,"DIS_CODE":0,"TOWNNAME":"關廟區","LI":"東勢里","LIN":"19鄰","STREET":"東仁街","SECT":" ","MAREA":" ","LANE":"７６巷","ALLEY":" ","HOUSE_NO":"２號","E_COORD97":181807.72,"N_COORD97":2539270.25,"ADDRESS":"東仁街７６巷２號","OBJECTID":361623},"geometry":{"x":181807.72000000067,"y":2539270.2500000019}},{"attributes":{"ID":361634,"DIS_CODE":0,"TOWNNAME":"關廟區","LI":"東勢里","LIN":"19鄰","STREET":"東仁街","SECT":" ","MAREA":" ","LANE":"７６巷","ALLEY":" ","HOUSE_NO":"１２號","E_COORD97":181794.76999999999,"N_COORD97":2539260.25,"ADDRESS":"東仁街７６巷１２號","OBJECTID":361624},"geometry":{"x":181794.77000000048,"y":2539260.2500000019}},{"attributes":{"ID":361635,"DIS_CODE":0,"TOWNNAME":"關廟區","LI":"香洋里","LIN":"19鄰","STREET":"中央路","SECT":" ","MAREA":" ","LANE":"７９巷","ALLEY":" ","HOUSE_NO":"６號","E_COORD97":181454.41,"N_COORD97":2539960.3199999998,"ADDRESS":"中央路７９巷６號","OBJECTID":361625},"geometry":{"x":181454.41000000015,"y":2539960.3200000003}},{"attributes":{"ID":361636,"DIS_CODE":0,"TOWNNAME":"關廟區","LI":"香洋里","LIN":"19鄰","STREET":"中央路","SECT":" ","MAREA":" ","LANE":"１０１巷","ALLEY":" ","HOUSE_NO":"１０號","E_COORD97":181386.31,"N_COORD97":2539964.3199999998,"ADDRESS":"中央路１０１巷１０號","OBJECTID":361626},"geometry":{"x":181386.31000000052,"y":2539964.320000004}},{"attributes":{"ID":361637,"DIS_CODE":0,"TOWNNAME":"關廟區","LI":"香洋里","LIN":"19鄰","STREET":"中山路","SECT":"一段","MAREA":" ","LANE":"５６６巷","ALLEY":" ","HOUSE_NO":"２０號","E_COORD97":181288.60999999999,"N_COORD97":2539995.2799999998,"ADDRESS":"中山路一段５６６巷２０號","OBJECTID":361627},"geometry":{"x":181288.61000000127,"y":2539995.2800000012}},{"attributes":{"ID":361638,"DIS_CODE":0,"TOWNNAME":"關廟區","LI":"北花里","LIN":"19鄰","STREET":"花園三街","SECT":" ","MAREA":" ","LANE":"２８巷","ALLEY":" ","HOUSE_NO":"８號","E_COORD97":181992.73999999999,"N_COORD97":2540488.25,"ADDRESS":"花園三街２８巷８號","OBJECTID":361628},"geometry":{"x":181992.74000000115,"y":2540488.25}},{"attributes":{"ID":361639,"DIS_CODE":0,"TOWNNAME":"關廟區","LI":"北勢里","LIN":"19鄰","STREET":"北安三街","SECT":" ","MAREA":" ","LANE":"４７６巷","ALLEY":" ","HOUSE_NO":"８號","E_COORD97":181207.54000000001,"N_COORD97":2540716.3199999998,"ADDRESS":"北安三街４７６巷８號","OBJECTID":361629},"geometry":{"x":181207.54000000097,"y":2540716.3200000003}},{"attributes":{"ID":361640,"DIS_CODE":0,"TOWNNAME":"關廟區","LI":"北勢里","LIN":"19鄰","STREET":"成功路","SECT":" ","MAREA":" ","LANE":"３９２巷","ALLEY":" ","HOUSE_NO":"１０號","E_COORD97":181206.01999999999,"N_COORD97":2540581.27,"ADDRESS":"成功路３９２巷１０號","OBJECTID":361630},"geometry":{"x":181206.01999999955,"y":2540581.2700000014}},{"attributes":{"ID":361641,"DIS_CODE":0,"TOWNNAME":"關廟區","LI":"北花里","LIN":"19鄰","STREET":"中正路","SECT":" ","MAREA":" ","LANE":"５６２巷","ALLEY":" ","HOUSE_NO":"１８號","E_COORD97":182040.01000000001,"N_COORD97":2540481.25,"ADDRESS":"中正路５６２巷１８號","OBJECTID":361631},"geometry":{"x":182040.00999999978,"y":2540481.2500000019}},{"attributes":{"ID":361642,"DIS_CODE":0,"TOWNNAME":"關廟區","LI":"山西里","LIN":"19鄰","STREET":"文衡路","SECT":" ","MAREA":" ","LANE":"１１９巷","ALLEY":" ","HOUSE_NO":"３８號","E_COORD97":180692.39000000001,"N_COORD97":2540438.3300000001,"ADDRESS":"文衡路１１９巷３８號","OBJECTID":361632},"geometry":{"x":180692.3900000006,"y":2540438.3300000038}},{"attributes":{"ID":361643,"DIS_CODE":0,"TOWNNAME":"關廟區","LI":"北花里","LIN":"19鄰","STREET":"中正路","SECT":" ","MAREA":" ","LANE":"５６２巷","ALLEY":" ","HOUSE_NO":"１６號","E_COORD97":182038.51000000001,"N_COORD97":2540476.25,"ADDRESS":"中正路５６２巷１６號","OBJECTID":361633},"geometry":{"x":182038.50999999978,"y":2540476.2500000037}},{"attributes":{"ID":361644,"DIS_CODE":0,"TOWNNAME":"關廟區","LI":"北花里","LIN":"19鄰","STREET":"中正路","SECT":" ","MAREA":" ","LANE":"５６２巷","ALLEY":" ","HOUSE_NO":"１０號","E_COORD97":182035.41,"N_COORD97":2540464.25,"ADDRESS":"中正路５６２巷１０號","OBJECTID":361634},"geometry":{"x":182035.41000000108,"y":2540464.2500000019}},{"attributes":{"ID":361645,"DIS_CODE":0,"TOWNNAME":"關廟區","LI":"山西里","LIN":"19鄰","STREET":"中山路","SECT":"二段","MAREA":" ","LANE":"２３２巷","ALLEY":" ","HOUSE_NO":"２號","E_COORD97":180044.06,"N_COORD97":2540638.2799999998,"ADDRESS":"中山路二段２３２巷２號","OBJECTID":361635},"geometry":{"x":180044.05999999959,"y":2540638.2800000031}},{"attributes":{"ID":361646,"DIS_CODE":0,"TOWNNAME":"關廟區","LI":"山西里","LIN":"19鄰","STREET":"文衡路","SECT":" ","MAREA":" ","LANE":"１１９巷","ALLEY":" ","HOUSE_NO":"２６號","E_COORD97":180716.19,"N_COORD97":2540428.3300000001,"ADDRESS":"文衡路１１９巷２６號","OBJECTID":361636},"geometry":{"x":180716.19000000227,"y":2540428.3300000038}},{"attributes":{"ID":361647,"DIS_CODE":0,"TOWNNAME":"關廟區","LI":"山西里","LIN":"19鄰","STREET":"文衡路","SECT":" ","MAREA":" ","LANE":"１１９巷","ALLEY":" ","HOUSE_NO":"２８號","E_COORD97":180711.59,"N_COORD97":2540430.3300000001,"ADDRESS":"文衡路１１９巷２８號","OBJECTID":361637},"geometry":{"x":180711.59000000078,"y":2540430.3300000001}},{"attributes":{"ID":361648,"DIS_CODE":0,"TOWNNAME":"關廟區","LI":"山西里","LIN":"19鄰","STREET":"文衡路","SECT":" ","MAREA":" ","LANE":"１１９巷","ALLEY":" ","HOUSE_NO":"３０號","E_COORD97":180706.59,"N_COORD97":2540432.3300000001,"ADDRESS":"文衡路１１９巷３０號","OBJECTID":361638},"geometry":{"x":180706.59000000078,"y":2540432.3300000019}},{"attributes":{"ID":361649,"DIS_CODE":0,"TOWNNAME":"新營區","LI":"忠政里","LIN":"32鄰","STREET":"府西路","SECT":" ","MAREA":" ","LANE":"１７巷","ALLEY":" ","HOUSE_NO":"３３號","E_COORD97":179738.64999999999,"N_COORD97":2578910.6200000001,"ADDRESS":"府西路１７巷３３號","OBJECTID":361639},"geometry":{"x":179738.6500000013,"y":2578910.620000001}},{"attributes":{"ID":361650,"DIS_CODE":0,"TOWNNAME":"新營區","LI":"忠政里","LIN":"32鄰","STREET":"府西路","SECT":" ","MAREA":" ","LANE":"１７巷","ALLEY":" ","HOUSE_NO":"２０號","E_COORD97":179766.31,"N_COORD97":2578922.6699999999,"ADDRESS":"府西路１７巷２０號","OBJECTID":361640},"geometry":{"x":179766.30999999959,"y":2578922.6699999999}},{"attributes":{"ID":361651,"DIS_CODE":0,"TOWNNAME":"新營區","LI":"忠政里","LIN":"32鄰","STREET":"府西路","SECT":" ","MAREA":" ","LANE":"１７巷","ALLEY":" ","HOUSE_NO":"２６號","E_COORD97":179753.01000000001,"N_COORD97":2578921.6200000001,"ADDRESS":"府西路１７巷２６號","OBJECTID":361641},"geometry":{"x":179753.00999999978,"y":2578921.6200000048}},{"attributes":{"ID":361652,"DIS_CODE":0,"TOWNNAME":"安南區","LI":"州北里","LIN":"32鄰","STREET":"北安路","SECT":"四段","MAREA":" ","LANE":"５４８巷","ALLEY":" ","HOUSE_NO":"２２號","E_COORD97":169611.92999999999,"N_COORD97":2551896.1200000001,"ADDRESS":"北安路四段５４８巷２２號","OBJECTID":361642},"geometry":{"x":169611.93000000156,"y":2551896.120000001}},{"attributes":{"ID":361653,"DIS_CODE":0,"TOWNNAME":"安南區","LI":"州北里","LIN":"32鄰","STREET":"北安路","SECT":"四段","MAREA":" ","LANE":"５４８巷","ALLEY":" ","HOUSE_NO":"２４號","E_COORD97":169615.98999999999,"N_COORD97":2551897.8100000001,"ADDRESS":"北安路四段５４８巷２４號","OBJECTID":361643},"geometry":{"x":169615.99000000115,"y":2551897.8100000005}},{"attributes":{"ID":361654,"DIS_CODE":0,"TOWNNAME":"安南區","LI":"州北里","LIN":"32鄰","STREET":"北安路","SECT":"四段","MAREA":" ","LANE":"５４８巷","ALLEY":" ","HOUSE_NO":"２６號","E_COORD97":169620.16,"N_COORD97":2551899.3500000001,"ADDRESS":"北安路四段５４８巷２６號","OBJECTID":361644},"geometry":{"x":169620.16000000108,"y":2551899.3499999996}},{"attributes":{"ID":361655,"DIS_CODE":0,"TOWNNAME":"安南區","LI":"州北里","LIN":"32鄰","STREET":"北安路","SECT":"四段","MAREA":" ","LANE":"５４８巷","ALLEY":" ","HOUSE_NO":"２８號","E_COORD97":169624.22,"N_COORD97":2551901.29,"ADDRESS":"北安路四段５４８巷２８號","OBJECTID":361645},"geometry":{"x":169624.22000000067,"y":2551901.290000001}},{"attributes":{"ID":361656,"DIS_CODE":0,"TOWNNAME":"安南區","LI":"州北里","LIN":"32鄰","STREET":"北安路","SECT":"四段","MAREA":" ","LANE":"５４８巷","ALLEY":" ","HOUSE_NO":"３０號","E_COORD97":169628.26999999999,"N_COORD97":2551904.1699999999,"ADDRESS":"北安路四段５４８巷３０號","OBJECTID":361646},"geometry":{"x":169628.27000000142,"y":2551904.1699999999}},{"attributes":{"ID":361657,"DIS_CODE":0,"TOWNNAME":"安南區","LI":"州北里","LIN":"32鄰","STREET":"北安路","SECT":"四段","MAREA":" ","LANE":"５４８巷","ALLEY":" ","HOUSE_NO":"３２號","E_COORD97":169632.41,"N_COORD97":2551906.0600000001,"ADDRESS":"北安路四段５４８巷３２號","OBJECTID":361647},"geometry":{"x":169632.41000000015,"y":2551906.0600000005}},{"attributes":{"ID":361658,"DIS_CODE":0,"TOWNNAME":"仁德區","LI":"仁德里","LIN":"32鄰","STREET":"中山路","SECT":" ","MAREA":" ","LANE":"６４０巷","ALLEY":" ","HOUSE_NO":"１６號","E_COORD97":173133.37,"N_COORD97":2541473.75,"ADDRESS":"中山路６４０巷１６號","OBJECTID":361648},"geometry":{"x":173133.37000000011,"y":2541473.7500000019}},{"attributes":{"ID":361659,"DIS_CODE":0,"TOWNNAME":"關廟區","LI":"東勢里","LIN":"13鄰","STREET":"東榮街","SECT":" ","MAREA":" ","LANE":" ","ALLEY":" ","HOUSE_NO":"１２２號","E_COORD97":182126.17000000001,"N_COORD97":2539357.25,"ADDRESS":"東榮街１２２號","OBJECTID":361649},"geometry":{"x":182126.17000000179,"y":2539357.2499999981}},{"attributes":{"ID":361660,"DIS_CODE":0,"TOWNNAME":"關廟區","LI":"東勢里","LIN":"13鄰","STREET":"東榮街","SECT":" ","MAREA":" ","LANE":" ","ALLEY":" ","HOUSE_NO":"９３號","E_COORD97":182121.12,"N_COORD97":2539375.25,"ADDRESS":"東榮街９３號","OBJECTID":361650},"geometry":{"x":182121.12000000011,"y":2539375.2500000019}},{"attributes":{"ID":361661,"DIS_CODE":0,"TOWNNAME":"北區","LI":"大山里","LIN":"13鄰","STREET":"旭日街","SECT":" ","MAREA":" ","LANE":" ","ALLEY":" ","HOUSE_NO":"１０９號","E_COORD97":169392.20000000001,"N_COORD97":2545620.6499999999,"ADDRESS":"旭日街１０９號","OBJECTID":361651},"geometry":{"x":169392.20000000112,"y":2545620.6500000041}},{"attributes":{"ID":361662,"DIS_CODE":0,"TOWNNAME":"北區","LI":"大山里","LIN":"13鄰","STREET":"旭日街","SECT":" ","MAREA":" ","LANE":" ","ALLEY":" ","HOUSE_NO":"１１１號","E_COORD97":169393.04999999999,"N_COORD97":2545624.79,"ADDRESS":"旭日街１１１號","OBJECTID":361652},"geometry":{"x":169393.05000000075,"y":2545624.7899999972}},{"attributes":{"ID":361663,"DIS_CODE":0,"TOWNNAME":"北區","LI":"大山里","LIN":"13鄰","STREET":"旭日街","SECT":" ","MAREA":" ","LANE":" ","ALLEY":" ","HOUSE_NO":"１１３號","E_COORD97":169359.17999999999,"N_COORD97":2545629.3300000001,"ADDRESS":"旭日街１１３號","OBJECTID":361653},"geometry":{"x":169359.1799999997,"y":2545629.3300000038}},{"attributes":{"ID":361664,"DIS_CODE":0,"TOWNNAME":"北區","LI":"大山里","LIN":"13鄰","STREET":"旭日街","SECT":" ","MAREA":" ","LANE":" ","ALLEY":" ","HOUSE_NO":"１１５號","E_COORD97":169360.26000000001,"N_COORD97":2545633.3100000001,"ADDRESS":"旭日街１１５號","OBJECTID":361654},"geometry":{"x":169360.25999999978,"y":2545633.3100000042}},{"attributes":{"ID":361665,"DIS_CODE":0,"TOWNNAME":"北區","LI":"大山里","LIN":"13鄰","STREET":"旭日街","SECT":" ","MAREA":" ","LANE":" ","ALLEY":" ","HOUSE_NO":"１１５號之１","E_COORD97":169371.92000000001,"N_COORD97":2545630.71,"ADDRESS":"旭日街１１５號之１","OBJECTID":361655},"geometry":{"x":169371.92000000086,"y":2545630.7100000046}},{"attributes":{"ID":361666,"DIS_CODE":0,"TOWNNAME":"北區","LI":"大山里","LIN":"13鄰","STREET":"旭日街","SECT":" ","MAREA":" ","LANE":" ","ALLEY":" ","HOUSE_NO":"１１７號","E_COORD97":169366.94,"N_COORD97":2545636.6400000001,"ADDRESS":"旭日街１１７號","OBJECTID":361656},"geometry":{"x":169366.94000000227,"y":2545636.6400000006}},{"attributes":{"ID":361667,"DIS_CODE":0,"TOWNNAME":"北區","LI":"大山里","LIN":"13鄰","STREET":"旭日街","SECT":" ","MAREA":" ","LANE":" ","ALLEY":" ","HOUSE_NO":"１１７號之１","E_COORD97":169368.63,"N_COORD97":2545640.0899999999,"ADDRESS":"旭日街１１７號之１","OBJECTID":361657},"geometry":{"x":169368.63000000082,"y":2545640.0899999999}},{"attributes":{"ID":361668,"DIS_CODE":0,"TOWNNAME":"北區","LI":"大山里","LIN":"13鄰","STREET":"旭日街","SECT":" ","MAREA":" ","LANE":" ","ALLEY":" ","HOUSE_NO":"１１９號","E_COORD97":169392.13,"N_COORD97":2545631.1000000001,"ADDRESS":"旭日街１１９號","OBJECTID":361658},"geometry":{"x":169392.13000000175,"y":2545631.1000000015}},{"attributes":{"ID":361669,"DIS_CODE":0,"TOWNNAME":"北區","LI":"大山里","LIN":"13鄰","STREET":"旭日街","SECT":" ","MAREA":" ","LANE":" ","ALLEY":" ","HOUSE_NO":"１１９號之１","E_COORD97":169373.07999999999,"N_COORD97":2545643.0099999998,"ADDRESS":"旭日街１１９號之１","OBJECTID":361659},"geometry":{"x":169373.08000000101,"y":2545643.0099999998}},{"attributes":{"ID":361670,"DIS_CODE":0,"TOWNNAME":"東區","LI":"後甲里","LIN":"32鄰","STREET":" ","SECT":" ","MAREA":"精忠三村","LANE":" ","ALLEY":" ","HOUSE_NO":"４號","E_COORD97":171767.66,"N_COORD97":2543496.23,"ADDRESS":"精忠三村４號","OBJECTID":361660},"geometry":{"x":171767.66000000108,"y":2543496.2300000004}},{"attributes":{"ID":361671,"DIS_CODE":0,"TOWNNAME":"仁德區","LI":"後壁里","LIN":"32鄰","STREET":"德洋路","SECT":" ","MAREA":" ","LANE":"２２７巷","ALLEY":" ","HOUSE_NO":"２２號","E_COORD97":172482.01999999999,"N_COORD97":2539563.2599999998,"ADDRESS":"德洋路２２７巷２２號","OBJECTID":361661},"geometry":{"x":172482.02000000048,"y":2539563.2599999998}},{"attributes":{"ID":361672,"DIS_CODE":0,"TOWNNAME":"東區","LI":"後甲里","LIN":"32鄰","STREET":" ","SECT":" ","MAREA":"精忠三村","LANE":" ","ALLEY":" ","HOUSE_NO":"３２號","E_COORD97":171831.45999999999,"N_COORD97":2543497.71,"ADDRESS":"精忠三村３２號","OBJECTID":361662},"geometry":{"x":171831.46000000089,"y":2543497.7100000009}},{"attributes":{"ID":361673,"DIS_CODE":0,"TOWNNAME":"永康區","LI":"正強里","LIN":"32鄰","STREET":"四維街","SECT":" ","MAREA":" ","LANE":"２９巷","ALLEY":" ","HOUSE_NO":"１０號","E_COORD97":173378,"N_COORD97":2548013.8100000001,"ADDRESS":"四維街２９巷１０號","OBJECTID":361663},"geometry":{"x":173378,"y":2548013.8100000024}},{"attributes":{"ID":361674,"DIS_CODE":0,"TOWNNAME":"永康區","LI":"永康里","LIN":"32鄰","STREET":"大同街","SECT":" ","MAREA":" ","LANE":"８３９巷","ALLEY":" ","HOUSE_NO":"５號","E_COORD97":174365.34,"N_COORD97":2547093.2400000002,"ADDRESS":"大同街８３９巷５號","OBJECTID":361664},"geometry":{"x":174365.33999999985,"y":2547093.2400000002}},{"attributes":{"ID":361675,"DIS_CODE":0,"TOWNNAME":"永康區","LI":"復國里","LIN":"32鄰","STREET":"復華一街","SECT":" ","MAREA":" ","LANE":"１９巷","ALLEY":" ","HOUSE_NO":"２３號","E_COORD97":172652.45000000001,"N_COORD97":2544983.2799999998,"ADDRESS":"復華一街１９巷２３號","OBJECTID":361665},"geometry":{"x":172652.45000000112,"y":2544983.2799999993}},{"attributes":{"ID":361676,"DIS_CODE":0,"TOWNNAME":"東區","LI":"後甲里","LIN":"32鄰","STREET":" ","SECT":" ","MAREA":"精忠三村","LANE":" ","ALLEY":" ","HOUSE_NO":"１４４號","E_COORD97":171842.12,"N_COORD97":2543522.9100000001,"ADDRESS":"精忠三村１４４號","OBJECTID":361666},"geometry":{"x":171842.12000000197,"y":2543522.9100000001}},{"attributes":{"ID":361677,"DIS_CODE":0,"TOWNNAME":"東區","LI":"後甲里","LIN":"32鄰","STREET":" ","SECT":" ","MAREA":"精忠三村","LANE":" ","ALLEY":" ","HOUSE_NO":"１５０號","E_COORD97":171856.23000000001,"N_COORD97":2543525.54,"ADDRESS":"精忠三村１５０號","OBJECTID":361667},"geometry":{"x":171856.23000000045,"y":2543525.540000001}},{"attributes":{"ID":361678,"DIS_CODE":0,"TOWNNAME":"永康區","LI":"成功里","LIN":"32鄰","STREET":"中華一路","SECT":" ","MAREA":" ","LANE":"３９巷","ALLEY":" ","HOUSE_NO":"４３號","E_COORD97":171889.42999999999,"N_COORD97":2544862.75,"ADDRESS":"中華一路３９巷４３號","OBJECTID":361668},"geometry":{"x":171889.43000000063,"y":2544862.75}},{"attributes":{"ID":361679,"DIS_CODE":0,"TOWNNAME":"永康區","LI":"復國里","LIN":"32鄰","STREET":"復華一街","SECT":" ","MAREA":" ","LANE":"２８巷","ALLEY":" ","HOUSE_NO":"１６號","E_COORD97":172667.56,"N_COORD97":2545180.5499999998,"ADDRESS":"復華一街２８巷１６號","OBJECTID":361669},"geometry":{"x":172667.56000000052,"y":2545180.5499999989}},{"attributes":{"ID":361680,"DIS_CODE":0,"TOWNNAME":"關廟區","LI":"山西里","LIN":"19鄰","STREET":"文衡路","SECT":" ","MAREA":" ","LANE":"１１９巷","ALLEY":" ","HOUSE_NO":"３２號","E_COORD97":180701.59,"N_COORD97":2540434.3300000001,"ADDRESS":"文衡路１１９巷３２號","OBJECTID":361670},"geometry":{"x":180701.59000000078,"y":2540434.3300000001}},{"attributes":{"ID":361681,"DIS_CODE":0,"TOWNNAME":"關廟區","LI":"山西里","LIN":"19鄰","STREET":"文衡路","SECT":" ","MAREA":" ","LANE":"１１９巷","ALLEY":" ","HOUSE_NO":"２２號","E_COORD97":180720.79000000001,"N_COORD97":2540426.3300000001,"ADDRESS":"文衡路１１９巷２２號","OBJECTID":361671},"geometry":{"x":180720.79000000097,"y":2540426.3300000019}},{"attributes":{"ID":361682,"DIS_CODE":0,"TOWNNAME":"關廟區","LI":"山西里","LIN":"19鄰","STREET":"文衡路","SECT":" ","MAREA":" ","LANE":"１１９巷","ALLEY":" ","HOUSE_NO":"３１號","E_COORD97":180667.09,"N_COORD97":2540429.3300000001,"ADDRESS":"文衡路１１９巷３１號","OBJECTID":361672},"geometry":{"x":180667.09000000171,"y":2540429.3300000019}},{"attributes":{"ID":361683,"DIS_CODE":0,"TOWNNAME":"關廟區","LI":"北勢里","LIN":"19鄰","STREET":"成功路","SECT":" ","MAREA":" ","LANE":"３９２巷","ALLEY":" ","HOUSE_NO":"２０號","E_COORD97":181211.01999999999,"N_COORD97":2540596.27,"ADDRESS":"成功路３９２巷２０號","OBJECTID":361673},"geometry":{"x":181211.01999999955,"y":2540596.2699999996}},{"attributes":{"ID":361684,"DIS_CODE":0,"TOWNNAME":"北區","LI":"大山里","LIN":"13鄰","STREET":"旭日街","SECT":" ","MAREA":" ","LANE":" ","ALLEY":" ","HOUSE_NO":"１１９號之２","E_COORD97":169362.95000000001,"N_COORD97":2545644.6200000001,"ADDRESS":"旭日街１１９號之２","OBJECTID":361674},"geometry":{"x":169362.95000000019,"y":2545644.620000001}},{"attributes":{"ID":361685,"DIS_CODE":0,"TOWNNAME":"北區","LI":"大山里","LIN":"13鄰","STREET":"旭日街","SECT":" ","MAREA":" ","LANE":" ","ALLEY":" ","HOUSE_NO":"１１９號之３","E_COORD97":169368.70999999999,"N_COORD97":2545644.1600000001,"ADDRESS":"旭日街１１９號之３","OBJECTID":361675},"geometry":{"x":169368.71000000089,"y":2545644.1600000039}},{"attributes":{"ID":361686,"DIS_CODE":0,"TOWNNAME":"北區","LI":"大山里","LIN":"13鄰","STREET":"旭日街","SECT":" ","MAREA":" ","LANE":" ","ALLEY":" ","HOUSE_NO":"１１９號之４","E_COORD97":169373.01000000001,"N_COORD97":2545636.5699999998,"ADDRESS":"旭日街１１９號之４","OBJECTID":361676},"geometry":{"x":169373.01000000071,"y":2545636.5700000003}},{"attributes":{"ID":361687,"DIS_CODE":0,"TOWNNAME":"北區","LI":"大山里","LIN":"13鄰","STREET":"旭日街","SECT":" ","MAREA":" ","LANE":" ","ALLEY":" ","HOUSE_NO":"１１９號之５","E_COORD97":169364.48999999999,"N_COORD97":2545647.8399999999,"ADDRESS":"旭日街１１９號之５","OBJECTID":361677},"geometry":{"x":169364.49000000022,"y":2545647.8399999999}},{"attributes":{"ID":361688,"DIS_CODE":0,"TOWNNAME":"北區","LI":"大山里","LIN":"13鄰","STREET":"旭日街","SECT":" ","MAREA":" ","LANE":" ","ALLEY":" ","HOUSE_NO":"１２１號","E_COORD97":169392.98000000001,"N_COORD97":2545635.1600000001,"ADDRESS":"旭日街１２１號","OBJECTID":361678},"geometry":{"x":169392.98000000045,"y":2545635.160000002}},{"attributes":{"ID":361689,"DIS_CODE":0,"TOWNNAME":"北區","LI":"大山里","LIN":"13鄰","STREET":"旭日街","SECT":" ","MAREA":" ","LANE":" ","ALLEY":" ","HOUSE_NO":"１２３號","E_COORD97":169394.59,"N_COORD97":2545639.0699999998,"ADDRESS":"旭日街１２３號","OBJECTID":361679},"geometry":{"x":169394.59000000078,"y":2545639.0700000022}},{"attributes":{"ID":361690,"DIS_CODE":0,"TOWNNAME":"東區","LI":"後甲里","LIN":"32鄰","STREET":" ","SECT":" ","MAREA":"精忠三村","LANE":" ","ALLEY":" ","HOUSE_NO":"１５４號","E_COORD97":171863.29000000001,"N_COORD97":2543525.54,"ADDRESS":"精忠三村１５４號","OBJECTID":361680},"geometry":{"x":171863.29000000097,"y":2543525.540000001}},{"attributes":{"ID":361691,"DIS_CODE":0,"TOWNNAME":"東區","LI":"後甲里","LIN":"32鄰","STREET":" ","SECT":" ","MAREA":"精忠三村","LANE":" ","ALLEY":" ","HOUSE_NO":"１５６號","E_COORD97":171866.89999999999,"N_COORD97":2543524.7200000002,"ADDRESS":"精忠三村１５６號","OBJECTID":361681},"geometry":{"x":171866.90000000037,"y":2543524.7200000007}},{"attributes":{"ID":361692,"DIS_CODE":0,"TOWNNAME":"東區","LI":"後甲里","LIN":"32鄰","STREET":" ","SECT":" ","MAREA":"精忠三村","LANE":" ","ALLEY":" ","HOUSE_NO":"２２６號","E_COORD97":171780.81,"N_COORD97":2543529.7400000002,"ADDRESS":"精忠三村２２６號","OBJECTID":361682},"geometry":{"x":171780.81000000145,"y":2543529.7400000002}},{"attributes":{"ID":361693,"DIS_CODE":0,"TOWNNAME":"東區","LI":"後甲里","LIN":"32鄰","STREET":" ","SECT":" ","MAREA":"精忠三村","LANE":" ","ALLEY":" ","HOUSE_NO":"２４０號","E_COORD97":171816.60000000001,"N_COORD97":2543531.54,"ADDRESS":"精忠三村２４０號","OBJECTID":361683},"geometry":{"x":171816.60000000056,"y":2543531.5400000028}},{"attributes":{"ID":361694,"DIS_CODE":0,"TOWNNAME":"東區","LI":"後甲里","LIN":"32鄰","STREET":" ","SECT":" ","MAREA":"精忠三村","LANE":" ","ALLEY":" ","HOUSE_NO":"５３０號","E_COORD97":171765.45000000001,"N_COORD97":2543587.8300000001,"ADDRESS":"精忠三村５３０號","OBJECTID":361684},"geometry":{"x":171765.45000000112,"y":2543587.8300000001}},{"attributes":{"ID":361695,"DIS_CODE":0,"TOWNNAME":"東區","LI":"後甲里","LIN":"32鄰","STREET":" ","SECT":" ","MAREA":"精忠三村","LANE":" ","ALLEY":" ","HOUSE_NO":"５３２號","E_COORD97":171774.32000000001,"N_COORD97":2543587.3399999999,"ADDRESS":"精忠三村５３２號","OBJECTID":361685},"geometry":{"x":171774.3200000003,"y":2543587.3399999999}},{"attributes":{"ID":361696,"DIS_CODE":0,"TOWNNAME":"東區","LI":"後甲里","LIN":"32鄰","STREET":" ","SECT":" ","MAREA":"精忠三村","LANE":" ","ALLEY":" ","HOUSE_NO":"５３４號","E_COORD97":171780.56,"N_COORD97":2543587.1699999999,"ADDRESS":"精忠三村５３４號","OBJECTID":361686},"geometry":{"x":171780.55999999959,"y":2543587.1700000018}},{"attributes":{"ID":361697,"DIS_CODE":0,"TOWNNAME":"東區","LI":"後甲里","LIN":"32鄰","STREET":" ","SECT":" ","MAREA":"精忠三村","LANE":" ","ALLEY":" ","HOUSE_NO":"５３６號","E_COORD97":171786.79999999999,"N_COORD97":2543587.3399999999,"ADDRESS":"精忠三村５３６號","OBJECTID":361687},"geometry":{"x":171786.80000000075,"y":2543587.3399999999}},{"attributes":{"ID":361698,"DIS_CODE":0,"TOWNNAME":"東區","LI":"後甲里","LIN":"32鄰","STREET":" ","SECT":" ","MAREA":"精忠三村","LANE":" ","ALLEY":" ","HOUSE_NO":"５３８號","E_COORD97":171791.39000000001,"N_COORD97":2543587.3399999999,"ADDRESS":"精忠三村５３８號","OBJECTID":361688},"geometry":{"x":171791.3900000006,"y":2543587.3399999999}},{"attributes":{"ID":361699,"DIS_CODE":0,"TOWNNAME":"北區","LI":"開元里","LIN":"19鄰","STREET":"長榮路","SECT":"五段","MAREA":" ","LANE":"１０２巷","ALLEY":" ","HOUSE_NO":"１０號","E_COORD97":170114.53,"N_COORD97":2545792.8300000001,"ADDRESS":"長榮路五段１０２巷１０號","OBJECTID":361689},"geometry":{"x":170114.53000000026,"y":2545792.8300000019}},{"attributes":{"ID":361700,"DIS_CODE":0,"TOWNNAME":"北區","LI":"開元里","LIN":"19鄰","STREET":"長榮路","SECT":"五段","MAREA":" ","LANE":"１０２巷","ALLEY":" ","HOUSE_NO":"１１號","E_COORD97":170121.31,"N_COORD97":2545801.02,"ADDRESS":"長榮路五段１０２巷１１號","OBJECTID":361690},"geometry":{"x":170121.31000000145,"y":2545801.0200000014}},{"attributes":{"ID":361701,"DIS_CODE":0,"TOWNNAME":"北區","LI":"開元里","LIN":"19鄰","STREET":"長榮路","SECT":"五段","MAREA":" ","LANE":"１０２巷","ALLEY":" ","HOUSE_NO":"１２號","E_COORD97":170121.19,"N_COORD97":2545793.6000000001,"ADDRESS":"長榮路五段１０２巷１２號","OBJECTID":361691},"geometry":{"x":170121.19000000227,"y":2545793.6000000015}},{"attributes":{"ID":361702,"DIS_CODE":0,"TOWNNAME":"北區","LI":"開元里","LIN":"19鄰","STREET":"長榮路","SECT":"五段","MAREA":" ","LANE":"１０２巷","ALLEY":" ","HOUSE_NO":"１３號","E_COORD97":170126.76000000001,"N_COORD97":2545801.79,"ADDRESS":"長榮路五段１０２巷１３號","OBJECTID":361692},"geometry":{"x":170126.75999999885,"y":2545801.790000001}},{"attributes":{"ID":361703,"DIS_CODE":0,"TOWNNAME":"永康區","LI":"埔園里","LIN":"32鄰","STREET":"龍埔街","SECT":" ","MAREA":" ","LANE":"２８３巷","ALLEY":" ","HOUSE_NO":"９號","E_COORD97":174043.69,"N_COORD97":2548274,"ADDRESS":"龍埔街２８３巷９號","OBJECTID":361693},"geometry":{"x":174043.69000000041,"y":2548274.0000000019}},{"attributes":{"ID":361704,"DIS_CODE":0,"TOWNNAME":"新市區","LI":"大社里","LIN":"32鄰","STREET":" ","SECT":" ","MAREA":"大社","LANE":" ","ALLEY":" ","HOUSE_NO":"２８５之２８號","E_COORD97":180641.20999999999,"N_COORD97":2554571.29,"ADDRESS":"大社２８５之２８號","OBJECTID":361694},"geometry":{"x":180641.21000000089,"y":2554571.2899999991}},{"attributes":{"ID":361705,"DIS_CODE":0,"TOWNNAME":"永康區","LI":"埔園里","LIN":"32鄰","STREET":"龍埔街","SECT":" ","MAREA":" ","LANE":"２８３巷","ALLEY":" ","HOUSE_NO":"７號","E_COORD97":174044.29000000001,"N_COORD97":2548278.25,"ADDRESS":"龍埔街２８３巷７號","OBJECTID":361695},"geometry":{"x":174044.29000000004,"y":2548278.2500000019}},{"attributes":{"ID":361706,"DIS_CODE":0,"TOWNNAME":"永康區","LI":"東灣里","LIN":"32鄰","STREET":"大灣一街","SECT":" ","MAREA":" ","LANE":"３３６巷","ALLEY":" ","HOUSE_NO":"６號","E_COORD97":175083.89000000001,"N_COORD97":2544722.2799999998,"ADDRESS":"大灣一街３３６巷６號","OBJECTID":361696},"geometry":{"x":175083.88999999966,"y":2544722.2799999993}},{"attributes":{"ID":361707,"DIS_CODE":0,"TOWNNAME":"永康區","LI":"東灣里","LIN":"32鄰","STREET":"大灣一街","SECT":" ","MAREA":" ","LANE":"３３６巷","ALLEY":" ","HOUSE_NO":"３號","E_COORD97":175095.84,"N_COORD97":2544736.5299999998,"ADDRESS":"大灣一街３３６巷３號","OBJECTID":361697},"geometry":{"x":175095.84000000078,"y":2544736.5300000012}},{"attributes":{"ID":361708,"DIS_CODE":0,"TOWNNAME":"永康區","LI":"埔園里","LIN":"32鄰","STREET":"龍埔街","SECT":" ","MAREA":" ","LANE":"２８３巷","ALLEY":" ","HOUSE_NO":"２５號","E_COORD97":174040.42000000001,"N_COORD97":2548241.2400000002,"ADDRESS":"龍埔街２８３巷２５號","OBJECTID":361698},"geometry":{"x":174040.42000000086,"y":2548241.2400000021}},{"attributes":{"ID":361709,"DIS_CODE":0,"TOWNNAME":"永康區","LI":"埔園里","LIN":"32鄰","STREET":"龍埔街","SECT":" ","MAREA":" ","LANE":"２９１巷","ALLEY":" ","HOUSE_NO":"１號","E_COORD97":173954.03,"N_COORD97":2548306.75,"ADDRESS":"龍埔街２９１巷１號","OBJECTID":361699},"geometry":{"x":173954.03000000119,"y":2548306.75}},{"attributes":{"ID":361710,"DIS_CODE":0,"TOWNNAME":"北區","LI":"開元里","LIN":"19鄰","STREET":"長榮路","SECT":"五段","MAREA":" ","LANE":"１０２巷","ALLEY":" ","HOUSE_NO":"１４號","E_COORD97":170127.51000000001,"N_COORD97":2545794.7999999998,"ADDRESS":"長榮路五段１０２巷１４號","OBJECTID":361700},"geometry":{"x":170127.51000000071,"y":2545794.8000000007}},{"attributes":{"ID":361711,"DIS_CODE":0,"TOWNNAME":"安平區","LI":"海頭里","LIN":"19鄰","STREET":"古堡街","SECT":" ","MAREA":" ","LANE":"７２巷","ALLEY":" ","HOUSE_NO":"６號","E_COORD97":163999.35000000001,"N_COORD97":2544946.8100000001,"ADDRESS":"古堡街７２巷６號","OBJECTID":361701},"geometry":{"x":163999.34999999963,"y":2544946.8100000005}},{"attributes":{"ID":361712,"DIS_CODE":0,"TOWNNAME":"北區","LI":"開元里","LIN":"19鄰","STREET":"長榮路","SECT":"五段","MAREA":" ","LANE":"１０２巷","ALLEY":" ","HOUSE_NO":"１５號","E_COORD97":170133.07999999999,"N_COORD97":2545802.5499999998,"ADDRESS":"長榮路五段１０２巷１５號","OBJECTID":361702},"geometry":{"x":170133.08000000007,"y":2545802.5500000026}},{"attributes":{"ID":361713,"DIS_CODE":0,"TOWNNAME":"北區","LI":"開元里","LIN":"19鄰","STREET":"長榮路","SECT":"五段","MAREA":" ","LANE":"１０２巷","ALLEY":" ","HOUSE_NO":"１７號","E_COORD97":170138.09,"N_COORD97":2545803.4199999999,"ADDRESS":"長榮路五段１０２巷１７號","OBJECTID":361703},"geometry":{"x":170138.08999999985,"y":2545803.4199999999}},{"attributes":{"ID":361714,"DIS_CODE":0,"TOWNNAME":"北區","LI":"開元里","LIN":"19鄰","STREET":"長榮路","SECT":"五段","MAREA":" ","LANE":"１０２巷","ALLEY":" ","HOUSE_NO":"１號","E_COORD97":170093.07999999999,"N_COORD97":2545796.6699999999,"ADDRESS":"長榮路五段１０２巷１號","OBJECTID":361704},"geometry":{"x":170093.08000000101,"y":2545796.6700000018}},{"attributes":{"ID":361715,"DIS_CODE":0,"TOWNNAME":"北區","LI":"開元里","LIN":"19鄰","STREET":"長榮路","SECT":"五段","MAREA":" ","LANE":"１０２巷","ALLEY":" ","HOUSE_NO":"２號","E_COORD97":170089.23000000001,"N_COORD97":2545788.8900000001,"ADDRESS":"長榮路五段１０２巷２號","OBJECTID":361705},"geometry":{"x":170089.23000000138,"y":2545788.8900000043}},{"attributes":{"ID":361716,"DIS_CODE":0,"TOWNNAME":"北區","LI":"開元里","LIN":"19鄰","STREET":"長榮路","SECT":"五段","MAREA":" ","LANE":"１０２巷","ALLEY":" ","HOUSE_NO":"３號","E_COORD97":170098.95999999999,"N_COORD97":2545797.6499999999,"ADDRESS":"長榮路五段１０２巷３號","OBJECTID":361706},"geometry":{"x":170098.96000000089,"y":2545797.6500000022}},{"attributes":{"ID":361717,"DIS_CODE":0,"TOWNNAME":"北區","LI":"開元里","LIN":"19鄰","STREET":"長榮路","SECT":"五段","MAREA":" ","LANE":"１０２巷","ALLEY":" ","HOUSE_NO":"４號","E_COORD97":170096.42999999999,"N_COORD97":2545789.77,"ADDRESS":"長榮路五段１０２巷４號","OBJECTID":361707},"geometry":{"x":170096.4299999997,"y":2545789.7700000014}},{"attributes":{"ID":361718,"DIS_CODE":0,"TOWNNAME":"北區","LI":"開元里","LIN":"19鄰","STREET":"長榮路","SECT":"五段","MAREA":" ","LANE":"１０２巷","ALLEY":" ","HOUSE_NO":"５號","E_COORD97":170104.51999999999,"N_COORD97":2545798.2999999998,"ADDRESS":"長榮路五段１０２巷５號","OBJECTID":361708},"geometry":{"x":170104.52000000142,"y":2545798.3000000007}},{"attributes":{"ID":361719,"DIS_CODE":0,"TOWNNAME":"北區","LI":"開元里","LIN":"19鄰","STREET":"長榮路","SECT":"五段","MAREA":" ","LANE":"１０２巷","ALLEY":" ","HOUSE_NO":"６號","E_COORD97":170103.07000000001,"N_COORD97":2545790.96,"ADDRESS":"長榮路五段１０２巷６號","OBJECTID":361709},"geometry":{"x":170103.0700000003,"y":2545790.9600000009}},{"attributes":{"ID":361720,"DIS_CODE":0,"TOWNNAME":"北區","LI":"開元里","LIN":"19鄰","STREET":"長榮路","SECT":"五段","MAREA":" ","LANE":"１０２巷","ALLEY":" ","HOUSE_NO":"７號","E_COORD97":170109.97,"N_COORD97":2545799.1699999999,"ADDRESS":"長榮路五段１０２巷７號","OBJECTID":361710},"geometry":{"x":170109.96999999974,"y":2545799.1699999999}},{"attributes":{"ID":361721,"DIS_CODE":0,"TOWNNAME":"北區","LI":"開元里","LIN":"19鄰","STREET":"長榮路","SECT":"五段","MAREA":" ","LANE":"１０２巷","ALLEY":" ","HOUSE_NO":"８號","E_COORD97":170108.85999999999,"N_COORD97":2545791.6299999999,"ADDRESS":"長榮路五段１０２巷８號","OBJECTID":361711},"geometry":{"x":170108.86000000127,"y":2545791.629999999}},{"attributes":{"ID":361722,"DIS_CODE":0,"TOWNNAME":"北區","LI":"開元里","LIN":"19鄰","STREET":"長榮路","SECT":"五段","MAREA":" ","LANE":"１０２巷","ALLEY":" ","HOUSE_NO":"９號","E_COORD97":170115.64000000001,"N_COORD97":2545799.9399999999,"ADDRESS":"長榮路五段１０２巷９號","OBJECTID":361712},"geometry":{"x":170115.64000000153,"y":2545799.9399999995}},{"attributes":{"ID":361723,"DIS_CODE":0,"TOWNNAME":"北區","LI":"開元里","LIN":"19鄰","STREET":"長榮路","SECT":"五段","MAREA":" ","LANE":"９０巷","ALLEY":" ","HOUSE_NO":"１號","E_COORD97":170092.94,"N_COORD97":2545766.3399999999,"ADDRESS":"長榮路五段９０巷１號","OBJECTID":361713},"geometry":{"x":170092.94000000134,"y":2545766.3399999999}},{"attributes":{"ID":361724,"DIS_CODE":0,"TOWNNAME":"北區","LI":"開元里","LIN":"19鄰","STREET":"長榮路","SECT":"五段","MAREA":" ","LANE":"９０巷","ALLEY":" ","HOUSE_NO":"３號","E_COORD97":170096.87,"N_COORD97":2545766.6699999999,"ADDRESS":"長榮路五段９０巷３號","OBJECTID":361714},"geometry":{"x":170096.87000000011,"y":2545766.6700000018}},{"attributes":{"ID":361725,"DIS_CODE":0,"TOWNNAME":"北區","LI":"開元里","LIN":"19鄰","STREET":"長榮路","SECT":"五段","MAREA":" ","LANE":"９０巷","ALLEY":" ","HOUSE_NO":"５號","E_COORD97":170100.89999999999,"N_COORD97":2545767.54,"ADDRESS":"長榮路五段９０巷５號","OBJECTID":361715},"geometry":{"x":170100.90000000037,"y":2545767.5399999991}},{"attributes":{"ID":361726,"DIS_CODE":0,"TOWNNAME":"北區","LI":"大山里","LIN":"13鄰","STREET":"旭日街","SECT":" ","MAREA":" ","LANE":" ","ALLEY":" ","HOUSE_NO":"１２５號","E_COORD97":169395.35999999999,"N_COORD97":2545641.3700000001,"ADDRESS":"旭日街１２５號","OBJECTID":361716},"geometry":{"x":169395.36000000034,"y":2545641.3700000029}},{"attributes":{"ID":361727,"DIS_CODE":0,"TOWNNAME":"北區","LI":"大山里","LIN":"13鄰","STREET":"旭日街","SECT":" ","MAREA":" ","LANE":" ","ALLEY":" ","HOUSE_NO":"１２７號","E_COORD97":169395.28,"N_COORD97":2545644.3100000001,"ADDRESS":"旭日街１２７號","OBJECTID":361717},"geometry":{"x":169395.28000000119,"y":2545644.3100000024}},{"attributes":{"ID":361728,"DIS_CODE":0,"TOWNNAME":"北區","LI":"大山里","LIN":"13鄰","STREET":"旭日街","SECT":" ","MAREA":" ","LANE":" ","ALLEY":" ","HOUSE_NO":"１２９號","E_COORD97":169395.89999999999,"N_COORD97":2545649.3700000001,"ADDRESS":"旭日街１２９號","OBJECTID":361718},"geometry":{"x":169395.90000000224,"y":2545649.370000001}},{"attributes":{"ID":361729,"DIS_CODE":0,"TOWNNAME":"北區","LI":"大山里","LIN":"13鄰","STREET":"旭日街","SECT":" ","MAREA":" ","LANE":" ","ALLEY":" ","HOUSE_NO":"１３１號","E_COORD97":169396.82000000001,"N_COORD97":2545652.8300000001,"ADDRESS":"旭日街１３１號","OBJECTID":361719},"geometry":{"x":169396.82000000123,"y":2545652.8300000038}},{"attributes":{"ID":361730,"DIS_CODE":0,"TOWNNAME":"北區","LI":"大山里","LIN":"13鄰","STREET":"旭日街","SECT":" ","MAREA":" ","LANE":" ","ALLEY":" ","HOUSE_NO":"１３３號","E_COORD97":169382.07999999999,"N_COORD97":2545660.3399999999,"ADDRESS":"旭日街１３３號","OBJECTID":361720},"geometry":{"x":169382.08000000007,"y":2545660.3400000017}},{"attributes":{"ID":361731,"DIS_CODE":0,"TOWNNAME":"北區","LI":"大山里","LIN":"13鄰","STREET":"旭日街","SECT":" ","MAREA":" ","LANE":" ","ALLEY":" ","HOUSE_NO":"１３７號","E_COORD97":169379.09,"N_COORD97":2545666.0499999998,"ADDRESS":"旭日街１３７號","OBJECTID":361721},"geometry":{"x":169379.09000000078,"y":2545666.0500000026}},{"attributes":{"ID":361732,"DIS_CODE":0,"TOWNNAME":"東區","LI":"虎尾里","LIN":"32鄰","STREET":"東成街","SECT":" ","MAREA":" ","LANE":"１４２巷","ALLEY":" ","HOUSE_NO":"６３號","E_COORD97":171719.14999999999,"N_COORD97":2542139.0899999999,"ADDRESS":"東成街１４２巷６３號","OBJECTID":361722},"geometry":{"x":171719.1500000013,"y":2542139.0900000017}},{"attributes":{"ID":361733,"DIS_CODE":0,"TOWNNAME":"東區","LI":"虎尾里","LIN":"32鄰","STREET":"東成街","SECT":" ","MAREA":" ","LANE":"１４２巷","ALLEY":" ","HOUSE_NO":"６５號","E_COORD97":171725.70000000001,"N_COORD97":2542139.0899999999,"ADDRESS":"東成街１４２巷６５號","OBJECTID":361723},"geometry":{"x":171725.70000000019,"y":2542139.0900000017}},{"attributes":{"ID":361734,"DIS_CODE":0,"TOWNNAME":"東區","LI":"虎尾里","LIN":"32鄰","STREET":"東成街","SECT":" ","MAREA":" ","LANE":"１４２巷","ALLEY":" ","HOUSE_NO":"６７號","E_COORD97":171731.73000000001,"N_COORD97":2542139.6200000001,"ADDRESS":"東成街１４２巷６７號","OBJECTID":361724},"geometry":{"x":171731.73000000138,"y":2542139.6200000048}},{"attributes":{"ID":361735,"DIS_CODE":0,"TOWNNAME":"仁德區","LI":"後壁里","LIN":"32鄰","STREET":"德洋路","SECT":" ","MAREA":" ","LANE":"２０５巷","ALLEY":" ","HOUSE_NO":"１２號","E_COORD97":172464.39999999999,"N_COORD97":2539514.02,"ADDRESS":"德洋路２０５巷１２號","OBJECTID":361725},"geometry":{"x":172464.4000000013,"y":2539514.0199999996}},{"attributes":{"ID":361736,"DIS_CODE":0,"TOWNNAME":"北區","LI":"開元里","LIN":"19鄰","STREET":"長榮路","SECT":"五段","MAREA":" ","LANE":"９０巷","ALLEY":" ","HOUSE_NO":"７號","E_COORD97":170104.5,"N_COORD97":2545768.6299999999,"ADDRESS":"長榮路五段９０巷７號","OBJECTID":361726},"geometry":{"x":170104.5,"y":2545768.6300000008}},{"attributes":{"ID":361737,"DIS_CODE":0,"TOWNNAME":"北區","LI":"開元里","LIN":"19鄰","STREET":"長榮路","SECT":"五段","MAREA":" ","LANE":"９０巷","ALLEY":" ","HOUSE_NO":"９號","E_COORD97":170109.39999999999,"N_COORD97":2545769.2799999998,"ADDRESS":"長榮路五段９０巷９號","OBJECTID":361727},"geometry":{"x":170109.40000000037,"y":2545769.2800000012}},{"attributes":{"ID":361738,"DIS_CODE":0,"TOWNNAME":"北區","LI":"開元里","LIN":"19鄰","STREET":"長榮路","SECT":"五段","MAREA":" ","LANE":"７６巷","ALLEY":" ","HOUSE_NO":"１號","E_COORD97":170097.76000000001,"N_COORD97":2545700.9500000002,"ADDRESS":"長榮路五段７６巷１號","OBJECTID":361728},"geometry":{"x":170097.75999999978,"y":2545700.9499999993}},{"attributes":{"ID":361739,"DIS_CODE":0,"TOWNNAME":"北區","LI":"開元里","LIN":"19鄰","STREET":"長榮路","SECT":"五段","MAREA":" ","LANE":"７６巷","ALLEY":" ","HOUSE_NO":"２號","E_COORD97":170093.84,"N_COORD97":2545693.8500000001,"ADDRESS":"長榮路五段７６巷２號","OBJECTID":361729},"geometry":{"x":170093.83999999985,"y":2545693.8500000015}},{"attributes":{"ID":361740,"DIS_CODE":0,"TOWNNAME":"安平區","LI":"平安里","LIN":"13鄰","STREET":"安平路","SECT":" ","MAREA":" ","LANE":" ","ALLEY":" ","HOUSE_NO":"５３２號","E_COORD97":165043.75,"N_COORD97":2544358.2200000002,"ADDRESS":"安平路５３２號","OBJECTID":361730},"geometry":{"x":165043.75000000093,"y":2544358.2200000007}},{"attributes":{"ID":361741,"DIS_CODE":0,"TOWNNAME":"安平區","LI":"平安里","LIN":"13鄰","STREET":"安平路","SECT":" ","MAREA":" ","LANE":" ","ALLEY":" ","HOUSE_NO":"５４２號","E_COORD97":165008.89999999999,"N_COORD97":2544363.46,"ADDRESS":"安平路５４２號","OBJECTID":361731},"geometry":{"x":165008.90000000224,"y":2544363.4600000009}},{"attributes":{"ID":361742,"DIS_CODE":0,"TOWNNAME":"安平區","LI":"石門里","LIN":"13鄰","STREET":"平生路","SECT":" ","MAREA":" ","LANE":" ","ALLEY":" ","HOUSE_NO":"４９號","E_COORD97":164316.60000000001,"N_COORD97":2544598.8999999999,"ADDRESS":"平生路４９號","OBJECTID":361732},"geometry":{"x":164316.5999999987,"y":2544598.9000000022}},{"attributes":{"ID":361743,"DIS_CODE":0,"TOWNNAME":"安平區","LI":"石門里","LIN":"13鄰","STREET":"平生路","SECT":" ","MAREA":" ","LANE":" ","ALLEY":" ","HOUSE_NO":"５１號","E_COORD97":164317.91,"N_COORD97":2544602.4900000002,"ADDRESS":"平生路５１號","OBJECTID":361733},"geometry":{"x":164317.91000000015,"y":2544602.4900000021}},{"attributes":{"ID":361744,"DIS_CODE":0,"TOWNNAME":"安平區","LI":"石門里","LIN":"13鄰","STREET":"平生路","SECT":" ","MAREA":" ","LANE":" ","ALLEY":" ","HOUSE_NO":"５３號","E_COORD97":164311.06,"N_COORD97":2544609.9700000002,"ADDRESS":"平生路５３號","OBJECTID":361734},"geometry":{"x":164311.05999999959,"y":2544609.9700000025}},{"attributes":{"ID":361745,"DIS_CODE":0,"TOWNNAME":"北區","LI":"開元里","LIN":"19鄰","STREET":"長榮路","SECT":"五段","MAREA":" ","LANE":"７６巷","ALLEY":" ","HOUSE_NO":"３號","E_COORD97":170101.89999999999,"N_COORD97":2545701.6000000001,"ADDRESS":"長榮路五段７６巷３號","OBJECTID":361735},"geometry":{"x":170101.9000000013,"y":2545701.6000000034}},{"attributes":{"ID":361746,"DIS_CODE":0,"TOWNNAME":"北區","LI":"開元里","LIN":"19鄰","STREET":"長榮路","SECT":"五段","MAREA":" ","LANE":"７６巷","ALLEY":" ","HOUSE_NO":"４號","E_COORD97":170099.07999999999,"N_COORD97":2545695.27,"ADDRESS":"長榮路五段７６巷４號","OBJECTID":361736},"geometry":{"x":170099.08000000007,"y":2545695.2699999996}},{"attributes":{"ID":361747,"DIS_CODE":0,"TOWNNAME":"北區","LI":"開元里","LIN":"19鄰","STREET":"長榮路","SECT":"五段","MAREA":" ","LANE":"７６巷","ALLEY":" ","HOUSE_NO":"５號","E_COORD97":170106.70000000001,"N_COORD97":2545702.5800000001,"ADDRESS":"長榮路五段７６巷５號","OBJECTID":361737},"geometry":{"x":170106.70000000019,"y":2545702.5800000019}},{"attributes":{"ID":361748,"DIS_CODE":0,"TOWNNAME":"北區","LI":"開元里","LIN":"19鄰","STREET":"長榮路","SECT":"五段","MAREA":" ","LANE":"８２巷","ALLEY":" ","HOUSE_NO":"５號","E_COORD97":170102.42999999999,"N_COORD97":2545734.5699999998,"ADDRESS":"長榮路五段８２巷５號","OBJECTID":361738},"geometry":{"x":170102.43000000063,"y":2545734.5700000003}},{"attributes":{"ID":361749,"DIS_CODE":0,"TOWNNAME":"北區","LI":"開元里","LIN":"19鄰","STREET":"長榮路","SECT":"五段","MAREA":" ","LANE":"８２巷","ALLEY":" ","HOUSE_NO":"６號","E_COORD97":170103.20000000001,"N_COORD97":2545729.0899999999,"ADDRESS":"長榮路五段８２巷６號","OBJECTID":361739},"geometry":{"x":170103.20000000019,"y":2545729.0900000036}},{"attributes":{"ID":361750,"DIS_CODE":0,"TOWNNAME":"北區","LI":"開元里","LIN":"19鄰","STREET":"長榮路","SECT":"五段","MAREA":" ","LANE":"８２巷","ALLEY":" ","HOUSE_NO":"７號","E_COORD97":170107.01000000001,"N_COORD97":2545735.3300000001,"ADDRESS":"長榮路五段８２巷７號","OBJECTID":361740},"geometry":{"x":170107.01000000071,"y":2545735.3300000019}},{"attributes":{"ID":361751,"DIS_CODE":0,"TOWNNAME":"東區","LI":"後甲里","LIN":"32鄰","STREET":" ","SECT":" ","MAREA":"精忠三村","LANE":" ","ALLEY":" ","HOUSE_NO":"２號之２２","E_COORD97":171756.53,"N_COORD97":2543579.3399999999,"ADDRESS":"精忠三村２號之２２","OBJECTID":361741},"geometry":{"x":171756.53000000119,"y":2543579.3399999999}},{"attributes":{"ID":361752,"DIS_CODE":0,"TOWNNAME":"東區","LI":"後甲里","LIN":"32鄰","STREET":" ","SECT":" ","MAREA":"精忠三村","LANE":" ","ALLEY":" ","HOUSE_NO":"２號之２５","E_COORD97":171756.20000000001,"N_COORD97":2543597.8700000001,"ADDRESS":"精忠三村２號之２５","OBJECTID":361742},"geometry":{"x":171756.20000000019,"y":2543597.870000001}},{"attributes":{"ID":361753,"DIS_CODE":0,"TOWNNAME":"東區","LI":"後甲里","LIN":"32鄰","STREET":" ","SECT":" ","MAREA":"精忠三村","LANE":" ","ALLEY":" ","HOUSE_NO":"２號之２６","E_COORD97":171756.03,"N_COORD97":2543600.6499999999,"ADDRESS":"精忠三村２號之２６","OBJECTID":361743},"geometry":{"x":171756.03000000026,"y":2543600.6500000022}},{"attributes":{"ID":361754,"DIS_CODE":0,"TOWNNAME":"東區","LI":"後甲里","LIN":"32鄰","STREET":" ","SECT":" ","MAREA":"精忠三村","LANE":" ","ALLEY":" ","HOUSE_NO":"２號之２８","E_COORD97":171756.53,"N_COORD97":2543606.7200000002,"ADDRESS":"精忠三村２號之２８","OBJECTID":361744},"geometry":{"x":171756.53000000119,"y":2543606.7200000044}},{"attributes":{"ID":361755,"DIS_CODE":0,"TOWNNAME":"東區","LI":"後甲里","LIN":"32鄰","STREET":" ","SECT":" ","MAREA":"精忠三村","LANE":" ","ALLEY":" ","HOUSE_NO":"２號之２９","E_COORD97":171755.87,"N_COORD97":2543611.3100000001,"ADDRESS":"精忠三村２號之２９","OBJECTID":361745},"geometry":{"x":171755.87000000104,"y":2543611.3100000005}},{"attributes":{"ID":361756,"DIS_CODE":0,"TOWNNAME":"東區","LI":"後甲里","LIN":"32鄰","STREET":" ","SECT":" ","MAREA":"精忠三村","LANE":" ","ALLEY":" ","HOUSE_NO":"２號之３","E_COORD97":171757.84,"N_COORD97":2543507.8199999998,"ADDRESS":"精忠三村２號之３","OBJECTID":361746},"geometry":{"x":171757.84000000078,"y":2543507.8200000022}},{"attributes":{"ID":361757,"DIS_CODE":0,"TOWNNAME":"東區","LI":"後甲里","LIN":"32鄰","STREET":" ","SECT":" ","MAREA":"精忠三村","LANE":" ","ALLEY":" ","HOUSE_NO":"２號之４","E_COORD97":171757.51000000001,"N_COORD97":2543514.54,"ADDRESS":"精忠三村２號之４","OBJECTID":361747},"geometry":{"x":171757.50999999885,"y":2543514.5400000028}},{"attributes":{"ID":361758,"DIS_CODE":0,"TOWNNAME":"東區","LI":"後甲里","LIN":"32鄰","STREET":" ","SECT":" ","MAREA":"精忠三村","LANE":" ","ALLEY":" ","HOUSE_NO":"２號之２１","E_COORD97":171756.85000000001,"N_COORD97":2543576.3900000001,"ADDRESS":"精忠三村２號之２１","OBJECTID":361748},"geometry":{"x":171756.85000000149,"y":2543576.3900000025}},{"attributes":{"ID":361759,"DIS_CODE":0,"TOWNNAME":"東區","LI":"後甲里","LIN":"32鄰","STREET":" ","SECT":" ","MAREA":"精忠三村","LANE":" ","ALLEY":" ","HOUSE_NO":"２號之２４","E_COORD97":171756.35999999999,"N_COORD97":2543584.5899999999,"ADDRESS":"精忠三村２號之２４","OBJECTID":361749},"geometry":{"x":171756.36000000127,"y":2543584.5899999999}},{"attributes":{"ID":361760,"DIS_CODE":0,"TOWNNAME":"東區","LI":"後甲里","LIN":"32鄰","STREET":" ","SECT":" ","MAREA":"精忠三村","LANE":" ","ALLEY":" ","HOUSE_NO":"２號之３４","E_COORD97":171755.98999999999,"N_COORD97":2543633.8700000001,"ADDRESS":"精忠三村２號之３４","OBJECTID":361750},"geometry":{"x":171755.99000000022,"y":2543633.8700000029}},{"attributes":{"ID":361761,"DIS_CODE":0,"TOWNNAME":"安南區","LI":"州北里","LIN":"32鄰","STREET":"北安路","SECT":"四段","MAREA":" ","LANE":"５４８巷","ALLEY":" ","HOUSE_NO":"１２號","E_COORD97":169590.95000000001,"N_COORD97":2551887.8399999999,"ADDRESS":"北安路四段５４８巷１２號","OBJECTID":361751},"geometry":{"x":169590.95000000112,"y":2551887.8400000017}},{"attributes":{"ID":361762,"DIS_CODE":0,"TOWNNAME":"北區","LI":"開元里","LIN":"19鄰","STREET":"長榮路","SECT":"五段","MAREA":" ","LANE":"８２巷","ALLEY":" ","HOUSE_NO":"８號","E_COORD97":170107.88,"N_COORD97":2545729.5299999998,"ADDRESS":"長榮路五段８２巷８號","OBJECTID":361752},"geometry":{"x":170107.88000000082,"y":2545729.5300000012}},{"attributes":{"ID":361763,"DIS_CODE":0,"TOWNNAME":"北區","LI":"開元里","LIN":"19鄰","STREET":"長榮路","SECT":"五段","MAREA":" ","LANE":"８２巷","ALLEY":" ","HOUSE_NO":"９號","E_COORD97":170111.26000000001,"N_COORD97":2545735.7599999998,"ADDRESS":"長榮路五段８２巷９號","OBJECTID":361753},"geometry":{"x":170111.25999999978,"y":2545735.7600000016}},{"attributes":{"ID":361764,"DIS_CODE":0,"TOWNNAME":"北區","LI":"開元里","LIN":"19鄰","STREET":"長榮路","SECT":"五段","MAREA":" ","LANE":"９０巷","ALLEY":" ","HOUSE_NO":"２號","E_COORD97":170093.04999999999,"N_COORD97":2545760.75,"ADDRESS":"長榮路五段９０巷２號","OBJECTID":361754},"geometry":{"x":170093.05000000075,"y":2545760.75}},{"attributes":{"ID":361765,"DIS_CODE":0,"TOWNNAME":"北區","LI":"開元里","LIN":"19鄰","STREET":"長榮路","SECT":"五段","MAREA":" ","LANE":"９０巷","ALLEY":" ","HOUSE_NO":"４號","E_COORD97":170098.28,"N_COORD97":2545761.0800000001,"ADDRESS":"長榮路五段９０巷４號","OBJECTID":361755},"geometry":{"x":170098.28000000026,"y":2545761.0800000019}},{"attributes":{"ID":361766,"DIS_CODE":0,"TOWNNAME":"北區","LI":"開元里","LIN":"19鄰","STREET":"長榮路","SECT":"五段","MAREA":" ","LANE":"９０巷","ALLEY":" ","HOUSE_NO":"６號","E_COORD97":170103.19,"N_COORD97":2545762.1699999999,"ADDRESS":"長榮路五段９０巷６號","OBJECTID":361756},"geometry":{"x":170103.19000000134,"y":2545762.1700000037}},{"attributes":{"ID":361767,"DIS_CODE":0,"TOWNNAME":"北區","LI":"開元里","LIN":"19鄰","STREET":"長榮路","SECT":"五段","MAREA":" ","LANE":"９０巷","ALLEY":" ","HOUSE_NO":"８號","E_COORD97":170107.98999999999,"N_COORD97":2545762.71,"ADDRESS":"長榮路五段９０巷８號","OBJECTID":361757},"geometry":{"x":170107.99000000022,"y":2545762.7100000009}},{"attributes":{"ID":361768,"DIS_CODE":0,"TOWNNAME":"安平區","LI":"海頭里","LIN":"19鄰","STREET":"古堡街","SECT":" ","MAREA":" ","LANE":"６４巷","ALLEY":" ","HOUSE_NO":"２號","E_COORD97":164012.38,"N_COORD97":2544885.2799999998,"ADDRESS":"古堡街６４巷２號","OBJECTID":361758},"geometry":{"x":164012.38000000082,"y":2544885.2799999993}},{"attributes":{"ID":361769,"DIS_CODE":0,"TOWNNAME":"安平區","LI":"海頭里","LIN":"19鄰","STREET":"古堡街","SECT":" ","MAREA":" ","LANE":"６４巷","ALLEY":" ","HOUSE_NO":"３號","E_COORD97":164012.29000000001,"N_COORD97":2544888.7000000002,"ADDRESS":"古堡街６４巷３號","OBJECTID":361759},"geometry":{"x":164012.28999999911,"y":2544888.6999999993}},{"attributes":{"ID":361770,"DIS_CODE":0,"TOWNNAME":"安平區","LI":"海頭里","LIN":"19鄰","STREET":"古堡街","SECT":" ","MAREA":" ","LANE":"６４巷","ALLEY":" ","HOUSE_NO":"４號","E_COORD97":164004.75,"N_COORD97":2544873.9500000002,"ADDRESS":"古堡街６４巷４號","OBJECTID":361760},"geometry":{"x":164004.75000000093,"y":2544873.9499999993}},{"attributes":{"ID":361771,"DIS_CODE":0,"TOWNNAME":"安平區","LI":"海頭里","LIN":"19鄰","STREET":"古堡街","SECT":" ","MAREA":" ","LANE":"７２巷","ALLEY":" ","HOUSE_NO":"１０號","E_COORD97":163984.23000000001,"N_COORD97":2544960.9300000002,"ADDRESS":"古堡街７２巷１０號","OBJECTID":361761},"geometry":{"x":163984.23000000045,"y":2544960.9300000016}},{"attributes":{"ID":361772,"DIS_CODE":0,"TOWNNAME":"安平區","LI":"石門里","LIN":"13鄰","STREET":"平生路","SECT":" ","MAREA":" ","LANE":" ","ALLEY":" ","HOUSE_NO":"５５號","E_COORD97":164312.69,"N_COORD97":2544615.8399999999,"ADDRESS":"平生路５５號","OBJECTID":361762},"geometry":{"x":164312.69000000041,"y":2544615.8400000017}},{"attributes":{"ID":361773,"DIS_CODE":0,"TOWNNAME":"安平區","LI":"石門里","LIN":"13鄰","STREET":"平生路","SECT":" ","MAREA":" ","LANE":" ","ALLEY":" ","HOUSE_NO":"５７號","E_COORD97":164322.14999999999,"N_COORD97":2544619.4199999999,"ADDRESS":"平生路５７號","OBJECTID":361763},"geometry":{"x":164322.14999999944,"y":2544619.4200000018}},{"attributes":{"ID":361774,"DIS_CODE":0,"TOWNNAME":"安南區","LI":"州北里","LIN":"32鄰","STREET":"北安路","SECT":"四段","MAREA":" ","LANE":"５４８巷","ALLEY":" ","HOUSE_NO":"１５號","E_COORD97":169602.28,"N_COORD97":2551915.75,"ADDRESS":"北安路四段５４８巷１５號","OBJECTID":361764},"geometry":{"x":169602.28000000119,"y":2551915.7500000019}},{"attributes":{"ID":361775,"DIS_CODE":0,"TOWNNAME":"安南區","LI":"州北里","LIN":"32鄰","STREET":"北安路","SECT":"四段","MAREA":" ","LANE":"５４８巷","ALLEY":" ","HOUSE_NO":"１７號","E_COORD97":169606.17999999999,"N_COORD97":2551917.4900000002,"ADDRESS":"北安路四段５４８巷１７號","OBJECTID":361765},"geometry":{"x":169606.1799999997,"y":2551917.4900000039}},{"attributes":{"ID":361776,"DIS_CODE":0,"TOWNNAME":"安平區","LI":"海頭里","LIN":"19鄰","STREET":"古堡街","SECT":" ","MAREA":" ","LANE":"７２巷","ALLEY":" ","HOUSE_NO":"１１號","E_COORD97":163984.76999999999,"N_COORD97":2544956.6099999999,"ADDRESS":"古堡街７２巷１１號","OBJECTID":361766},"geometry":{"x":163984.76999999862,"y":2544956.6100000013}},{"attributes":{"ID":361777,"DIS_CODE":0,"TOWNNAME":"安平區","LI":"海頭里","LIN":"19鄰","STREET":"古堡街","SECT":" ","MAREA":" ","LANE":"７２巷","ALLEY":" ","HOUSE_NO":"１２號","E_COORD97":163985.22,"N_COORD97":2544949.5,"ADDRESS":"古堡街７２巷１２號","OBJECTID":361767},"geometry":{"x":163985.21999999974,"y":2544949.5}},{"attributes":{"ID":361778,"DIS_CODE":0,"TOWNNAME":"安平區","LI":"海頭里","LIN":"19鄰","STREET":"古堡街","SECT":" ","MAREA":" ","LANE":"７２巷","ALLEY":" ","HOUSE_NO":"１號","E_COORD97":164005.29000000001,"N_COORD97":2544912.6200000001,"ADDRESS":"古堡街７２巷１號","OBJECTID":361768},"geometry":{"x":164005.29000000004,"y":2544912.6199999992}},{"attributes":{"ID":361779,"DIS_CODE":0,"TOWNNAME":"安平區","LI":"海頭里","LIN":"19鄰","STREET":"古堡街","SECT":" ","MAREA":" ","LANE":"７２巷","ALLEY":" ","HOUSE_NO":"３號","E_COORD97":164003.67000000001,"N_COORD97":2544922.4300000002,"ADDRESS":"古堡街７２巷３號","OBJECTID":361769},"geometry":{"x":164003.67000000086,"y":2544922.4299999997}},{"attributes":{"ID":361780,"DIS_CODE":0,"TOWNNAME":"安平區","LI":"海頭里","LIN":"19鄰","STREET":"古堡街","SECT":" ","MAREA":" ","LANE":"７２巷","ALLEY":" ","HOUSE_NO":"５號","E_COORD97":163999.89000000001,"N_COORD97":2544942.5800000001,"ADDRESS":"古堡街７２巷５號","OBJECTID":361770},"geometry":{"x":163999.8900000006,"y":2544942.5800000038}},{"attributes":{"ID":361781,"DIS_CODE":0,"TOWNNAME":"安平區","LI":"海頭里","LIN":"19鄰","STREET":"古堡街","SECT":" ","MAREA":" ","LANE":"７２巷","ALLEY":" ","HOUSE_NO":"７號","E_COORD97":163998.63,"N_COORD97":2544951.48,"ADDRESS":"古堡街７２巷７號","OBJECTID":361771},"geometry":{"x":163998.63000000082,"y":2544951.4800000023}},{"attributes":{"ID":361782,"DIS_CODE":0,"TOWNNAME":"安平區","LI":"海頭里","LIN":"19鄰","STREET":"古堡街","SECT":" ","MAREA":" ","LANE":"７２巷","ALLEY":" ","HOUSE_NO":"８號","E_COORD97":163998.09,"N_COORD97":2544960.21,"ADDRESS":"古堡街７２巷８號","OBJECTID":361772},"geometry":{"x":163998.08999999985,"y":2544960.2100000028}},{"attributes":{"ID":361783,"DIS_CODE":0,"TOWNNAME":"安平區","LI":"海頭里","LIN":"19鄰","STREET":"古堡街","SECT":" ","MAREA":" ","LANE":"７２巷","ALLEY":" ","HOUSE_NO":"９號","E_COORD97":163980.26999999999,"N_COORD97":2544964.1699999999,"ADDRESS":"古堡街７２巷９號","OBJECTID":361773},"geometry":{"x":163980.27000000048,"y":2544964.1699999999}},{"attributes":{"ID":361784,"DIS_CODE":0,"TOWNNAME":"北區","LI":"長榮里","LIN":"19鄰","STREET":"開元路","SECT":" ","MAREA":" ","LANE":"２４９巷","ALLEY":" ","HOUSE_NO":"８號","E_COORD97":169934.62,"N_COORD97":2545487.0499999998,"ADDRESS":"開元路２４９巷８號","OBJECTID":361774},"geometry":{"x":169934.62000000011,"y":2545487.0500000026}},{"attributes":{"ID":361785,"DIS_CODE":0,"TOWNNAME":"北區","LI":"長榮里","LIN":"19鄰","STREET":"開元路","SECT":" ","MAREA":" ","LANE":"２４９巷","ALLEY":" ","HOUSE_NO":"１０號","E_COORD97":169930.97,"N_COORD97":2545490.8599999999,"ADDRESS":"開元路２４９巷１０號","OBJECTID":361775},"geometry":{"x":169930.97000000067,"y":2545490.8600000013}},{"attributes":{"ID":361786,"DIS_CODE":0,"TOWNNAME":"歸仁區","LI":"南興里","LIN":"13鄰","STREET":"文化十八街","SECT":" ","MAREA":" ","LANE":" ","ALLEY":" ","HOUSE_NO":"４６號","E_COORD97":175899.29000000001,"N_COORD97":2541299.3300000001,"ADDRESS":"文化十八街４６號","OBJECTID":361776},"geometry":{"x":175899.29000000097,"y":2541299.3300000001}},{"attributes":{"ID":361787,"DIS_CODE":0,"TOWNNAME":"歸仁區","LI":"南興里","LIN":"13鄰","STREET":"文化街","SECT":"三段","MAREA":" ","LANE":" ","ALLEY":" ","HOUSE_NO":"５０２號","E_COORD97":175868.44,"N_COORD97":2541220.3300000001,"ADDRESS":"文化街三段５０２號","OBJECTID":361777},"geometry":{"x":175868.44000000134,"y":2541220.3300000001}},{"attributes":{"ID":361788,"DIS_CODE":0,"TOWNNAME":"永康區","LI":"龍潭里","LIN":"32鄰","STREET":"龍國街","SECT":" ","MAREA":" ","LANE":"２４０巷","ALLEY":" ","HOUSE_NO":"２０號","E_COORD97":174474.20000000001,"N_COORD97":2547966.8599999999,"ADDRESS":"龍國街２４０巷２０號","OBJECTID":361778},"geometry":{"x":174474.20000000205,"y":2547966.8599999994}},{"attributes":{"ID":361789,"DIS_CODE":0,"TOWNNAME":"永康區","LI":"龍潭里","LIN":"32鄰","STREET":"龍國街","SECT":" ","MAREA":" ","LANE":"２４０巷","ALLEY":" ","HOUSE_NO":"６號","E_COORD97":174465.23000000001,"N_COORD97":2548015.1899999999,"ADDRESS":"龍國街２４０巷６號","OBJECTID":361779},"geometry":{"x":174465.23000000045,"y":2548015.1899999995}},{"attributes":{"ID":361790,"DIS_CODE":0,"TOWNNAME":"永康區","LI":"龍潭里","LIN":"32鄰","STREET":"龍國街","SECT":" ","MAREA":" ","LANE":"２４０巷","ALLEY":" ","HOUSE_NO":"１２號","E_COORD97":174470.60999999999,"N_COORD97":2547994.1099999999,"ADDRESS":"龍國街２４０巷１２號","OBJECTID":361780},"geometry":{"x":174470.61000000127,"y":2547994.1100000013}},{"attributes":{"ID":361791,"DIS_CODE":0,"TOWNNAME":"永康區","LI":"龍潭里","LIN":"32鄰","STREET":"龍國街","SECT":" ","MAREA":" ","LANE":"２４０巷","ALLEY":" ","HOUSE_NO":"１０號","E_COORD97":174469.95999999999,"N_COORD97":2547999.1099999999,"ADDRESS":"龍國街２４０巷１０號","OBJECTID":361781},"geometry":{"x":174469.95999999996,"y":2547999.1099999994}},{"attributes":{"ID":361792,"DIS_CODE":0,"TOWNNAME":"永康區","LI":"尚頂里","LIN":"32鄰","STREET":"中正南路","SECT":" ","MAREA":" ","LANE":"３１３巷","ALLEY":" ","HOUSE_NO":"７號","E_COORD97":170137.81,"N_COORD97":2547530.25,"ADDRESS":"中正南路３１３巷７號","OBJECTID":361782},"geometry":{"x":170137.80999999959,"y":2547530.25}},{"attributes":{"ID":361793,"DIS_CODE":0,"TOWNNAME":"永康區","LI":"西灣里","LIN":"32鄰","STREET":"國光八街","SECT":" ","MAREA":" ","LANE":"９０巷","ALLEY":" ","HOUSE_NO":"２２號","E_COORD97":174196.23000000001,"N_COORD97":2545841.4900000002,"ADDRESS":"國光八街９０巷２２號","OBJECTID":361783},"geometry":{"x":174196.23000000231,"y":2545841.4900000002}},{"attributes":{"ID":361794,"DIS_CODE":0,"TOWNNAME":"永康區","LI":"西灣里","LIN":"32鄰","STREET":"國光八街","SECT":" ","MAREA":" ","LANE":"９０巷","ALLEY":" ","HOUSE_NO":"１６號","E_COORD97":174198.73000000001,"N_COORD97":2545825.75,"ADDRESS":"國光八街９０巷１６號","OBJECTID":361784},"geometry":{"x":174198.73000000138,"y":2545825.75}},{"attributes":{"ID":361795,"DIS_CODE":0,"TOWNNAME":"永康區","LI":"\u25A0洲里","LIN":"32鄰","STREET":"\u25A0行路","SECT":" ","MAREA":" ","LANE":"３３０巷","ALLEY":" ","HOUSE_NO":"１７號","E_COORD97":170984.56,"N_COORD97":2549006.75,"ADDRESS":"\u25A0行路３３０巷１７號","OBJECTID":361785},"geometry":{"x":170984.56000000052,"y":2549006.7500000019}},{"attributes":{"ID":361796,"DIS_CODE":0,"TOWNNAME":"永康區","LI":"\u25A0洲里","LIN":"32鄰","STREET":"\u25A0行路","SECT":" ","MAREA":" ","LANE":"３３０巷","ALLEY":" ","HOUSE_NO":"１號","E_COORD97":170986.64999999999,"N_COORD97":2548956.8900000001,"ADDRESS":"\u25A0行路３３０巷１號","OBJECTID":361786},"geometry":{"x":170986.6500000013,"y":2548956.8900000025}},{"attributes":{"ID":361797,"DIS_CODE":0,"TOWNNAME":"永康區","LI":"\u25A0洲里","LIN":"32鄰","STREET":"\u25A0行路","SECT":" ","MAREA":" ","LANE":"３２８巷","ALLEY":" ","HOUSE_NO":"５號","E_COORD97":171029.51000000001,"N_COORD97":2548989.0299999998,"ADDRESS":"\u25A0行路３２８巷５號","OBJECTID":361787},"geometry":{"x":171029.51000000071,"y":2548989.0299999993}},{"attributes":{"ID":361798,"DIS_CODE":0,"TOWNNAME":"北區","LI":"長榮里","LIN":"19鄰","STREET":"開元路","SECT":" ","MAREA":" ","LANE":"２４９巷","ALLEY":" ","HOUSE_NO":"１２號","E_COORD97":169926.35999999999,"N_COORD97":2545494.1899999999,"ADDRESS":"開元路２４９巷１２號","OBJECTID":361788},"geometry":{"x":169926.36000000034,"y":2545494.1900000013}},{"attributes":{"ID":361799,"DIS_CODE":0,"TOWNNAME":"南區","LI":"金華里","LIN":"19鄰","STREET":"惠南街","SECT":" ","MAREA":" ","LANE":"８４巷","ALLEY":" ","HOUSE_NO":"２３號","E_COORD97":166799.57000000001,"N_COORD97":2542336.5099999998,"ADDRESS":"惠南街８４巷２３號","OBJECTID":361789},"geometry":{"x":166799.57000000123,"y":2542336.5100000016}},{"attributes":{"ID":361800,"DIS_CODE":0,"TOWNNAME":"歸仁區","LI":"文化里","LIN":"13鄰","STREET":"大德路","SECT":" ","MAREA":" ","LANE":" ","ALLEY":" ","HOUSE_NO":"１８９號","E_COORD97":177298.67000000001,"N_COORD97":2541507.3300000001,"ADDRESS":"大德路１８９號","OBJECTID":361790},"geometry":{"x":177298.67000000086,"y":2541507.3300000019}},{"attributes":{"ID":361801,"DIS_CODE":0,"TOWNNAME":"歸仁區","LI":"南興里","LIN":"13鄰","STREET":"文化十八街","SECT":" ","MAREA":" ","LANE":" ","ALLEY":" ","HOUSE_NO":"３０號","E_COORD97":175863.39000000001,"N_COORD97":2541299.3300000001,"ADDRESS":"文化十八街３０號","OBJECTID":361791},"geometry":{"x":175863.38999999966,"y":2541299.3300000001}},{"attributes":{"ID":361802,"DIS_CODE":0,"TOWNNAME":"歸仁區","LI":"看東里","LIN":"13鄰","STREET":"中山一街","SECT":" ","MAREA":" ","LANE":" ","ALLEY":" ","HOUSE_NO":"３６號","E_COORD97":178606.04000000001,"N_COORD97":2540530.48,"ADDRESS":"中山一街３６號","OBJECTID":361792},"geometry":{"x":178606.04000000004,"y":2540530.4800000023}},{"attributes":{"ID":361803,"DIS_CODE":0,"TOWNNAME":"歸仁區","LI":"文化里","LIN":"13鄰","STREET":"大德路","SECT":" ","MAREA":" ","LANE":" ","ALLEY":" ","HOUSE_NO":"１６１號","E_COORD97":177389.97,"N_COORD97":2541502.3300000001,"ADDRESS":"大德路１６１號","OBJECTID":361793},"geometry":{"x":177389.97000000067,"y":2541502.3300000001}},{"attributes":{"ID":361804,"DIS_CODE":0,"TOWNNAME":"歸仁區","LI":"南興里","LIN":"13鄰","STREET":"文化街","SECT":"三段","MAREA":" ","LANE":" ","ALLEY":" ","HOUSE_NO":"５００號","E_COORD97":175873.44,"N_COORD97":2541216.3300000001,"ADDRESS":"文化街三段５００號","OBJECTID":361794},"geometry":{"x":175873.44000000134,"y":2541216.3300000019}},{"attributes":{"ID":361805,"DIS_CODE":0,"TOWNNAME":"歸仁區","LI":"歸仁里","LIN":"13鄰","STREET":"信義北路","SECT":" ","MAREA":" ","LANE":" ","ALLEY":" ","HOUSE_NO":"１２５號","E_COORD97":177941.35000000001,"N_COORD97":2541109.04,"ADDRESS":"信義北路１２５號","OBJECTID":361795},"geometry":{"x":177941.35000000056,"y":2541109.0399999991}},{"attributes":{"ID":361806,"DIS_CODE":0,"TOWNNAME":"歸仁區","LI":"歸仁里","LIN":"13鄰","STREET":"文化街","SECT":"一段","MAREA":" ","LANE":" ","ALLEY":" ","HOUSE_NO":"１２１號","E_COORD97":177904.69,"N_COORD97":2541118.0499999998,"ADDRESS":"文化街一段１２１號","OBJECTID":361796},"geometry":{"x":177904.69000000134,"y":2541118.0500000007}},{"attributes":{"ID":361807,"DIS_CODE":0,"TOWNNAME":"歸仁區","LI":"媽廟里","LIN":"13鄰","STREET":"中正北路","SECT":"三段","MAREA":" ","LANE":" ","ALLEY":" ","HOUSE_NO":"８８號","E_COORD97":177590.60999999999,"N_COORD97":2543712.7200000002,"ADDRESS":"中正北路三段８８號","OBJECTID":361797},"geometry":{"x":177590.6099999994,"y":2543712.7200000025}},{"attributes":{"ID":361808,"DIS_CODE":0,"TOWNNAME":"歸仁區","LI":"歸仁里","LIN":"13鄰","STREET":"信義北路","SECT":" ","MAREA":" ","LANE":" ","ALLEY":" ","HOUSE_NO":"１２１號","E_COORD97":177944.35000000001,"N_COORD97":2541101.04,"ADDRESS":"信義北路１２１號","OBJECTID":361798},"geometry":{"x":177944.35000000149,"y":2541101.040000001}},{"attributes":{"ID":361809,"DIS_CODE":0,"TOWNNAME":"歸仁區","LI":"新厝里","LIN":"13鄰","STREET":"中正南路","SECT":"一段","MAREA":" ","LANE":" ","ALLEY":" ","HOUSE_NO":"８９號","E_COORD97":177567.89999999999,"N_COORD97":2540524.5899999999,"ADDRESS":"中正南路一段８９號","OBJECTID":361799},"geometry":{"x":177567.90000000037,"y":2540524.5900000036}},{"attributes":{"ID":361810,"DIS_CODE":0,"TOWNNAME":"仁德區","LI":"太子里","LIN":"32鄰","STREET":"太子三街","SECT":" ","MAREA":" ","LANE":"２３巷","ALLEY":" ","HOUSE_NO":"２號","E_COORD97":173994.89000000001,"N_COORD97":2543417.2599999998,"ADDRESS":"太子三街２３巷２號","OBJECTID":361800},"geometry":{"x":173994.8900000006,"y":2543417.2599999998}}]}