{"displayFieldName":"TOWNNAME","fieldAliases":{"ID":"ID","DIS_CODE":"DIS_CODE","TOWNNAME":"TOWNNAME","LI":"LI","LIN":"LIN","STREET":"STREET","SECT":"SECT","MAREA":"MAREA","LANE":"LANE","ALLEY":"ALLEY","HOUSE_NO":"HOUSE_NO","E_COORD97":"E_COORD97","N_COORD97":"N_COORD97","ADDRESS":"ADDRESS","OBJECTID":"OBJECTID"},"geometryType":"esriGeometryPoint","spatialReference":{"wkid":102443,"latestWkid":3826},"fields":[{"name":"ID","type":"esriFieldTypeDouble","alias":"ID"},{"name":"DIS_CODE","type":"esriFieldTypeInteger","alias":"DIS_CODE"},{"name":"TOWNNAME","type":"esriFieldTypeString","alias":"TOWNNAME","length":8},{"name":"LI","type":"esriFieldTypeString","alias":"LI","length":8},{"name":"LIN","type":"esriFieldTypeString","alias":"LIN","length":12},{"name":"STREET","type":"esriFieldTypeString","alias":"STREET","length":20},{"name":"SECT","type":"esriFieldTypeString","alias":"SECT","length":8},{"name":"MAREA","type":"esriFieldTypeString","alias":"MAREA","length":12},{"name":"LANE","type":"esriFieldTypeString","alias":"LANE","length":10},{"name":"ALLEY","type":"esriFieldTypeString","alias":"ALLEY","length":10},{"name":"HOUSE_NO","type":"esriFieldTypeString","alias":"HOUSE_NO","length":20},{"name":"E_COORD97","type":"esriFieldTypeDouble","alias":"E_COORD97"},{"name":"N_COORD97","type":"esriFieldTypeDouble","alias":"N_COORD97"},{"name":"ADDRESS","type":"esriFieldTypeString","alias":"ADDRESS","length":50},{"name":"OBJECTID","type":"esriFieldTypeOID","alias":"OBJECTID"}],"features":[{"attributes":{"ID":79201,"DIS_CODE":0,"TOWNNAME":"南區","LI":"文華里","LIN":"1鄰","STREET":"永華路","SECT":"一段","MAREA":" ","LANE":" ","ALLEY":" ","HOUSE_NO":"１９７號","E_COORD97":167110.92000000001,"N_COORD97":2543198.7999999998,"ADDRESS":"永華路一段１９７號","OBJECTID":79201},"geometry":{"x":167110.92000000086,"y":2543198.8000000007}},{"attributes":{"ID":79202,"DIS_CODE":0,"TOWNNAME":"南區","LI":"文華里","LIN":"1鄰","STREET":"永華路","SECT":"一段","MAREA":" ","LANE":" ","ALLEY":" ","HOUSE_NO":"１９９號","E_COORD97":167105.98000000001,"N_COORD97":2543199.7000000002,"ADDRESS":"永華路一段１９９號","OBJECTID":79202},"geometry":{"x":167105.98000000138,"y":2543199.7000000011}},{"attributes":{"ID":79203,"DIS_CODE":0,"TOWNNAME":"南區","LI":"文華里","LIN":"1鄰","STREET":"永華路","SECT":"一段","MAREA":" ","LANE":" ","ALLEY":" ","HOUSE_NO":"２０１號","E_COORD97":167100.85999999999,"N_COORD97":2543200.8599999999,"ADDRESS":"永華路一段２０１號","OBJECTID":79203},"geometry":{"x":167100.8600000022,"y":2543200.8600000031}},{"attributes":{"ID":79204,"DIS_CODE":0,"TOWNNAME":"南區","LI":"文華里","LIN":"17鄰","STREET":"德南街","SECT":" ","MAREA":" ","LANE":" ","ALLEY":" ","HOUSE_NO":"２６號","E_COORD97":166832.26999999999,"N_COORD97":2543110.2599999998,"ADDRESS":"德南街２６號","OBJECTID":79204},"geometry":{"x":166832.26999999955,"y":2543110.2600000035}},{"attributes":{"ID":79205,"DIS_CODE":0,"TOWNNAME":"南區","LI":"文華里","LIN":"4鄰","STREET":"金華路","SECT":"二段","MAREA":" ","LANE":" ","ALLEY":" ","HOUSE_NO":"３８７號","E_COORD97":167133.47,"N_COORD97":2543022.6699999999,"ADDRESS":"金華路二段３８７號","OBJECTID":79205},"geometry":{"x":167133.4700000016,"y":2543022.6699999981}},{"attributes":{"ID":79206,"DIS_CODE":0,"TOWNNAME":"南區","LI":"文華里","LIN":"4鄰","STREET":"金華路","SECT":"二段","MAREA":" ","LANE":" ","ALLEY":" ","HOUSE_NO":"３８９號","E_COORD97":167133.64999999999,"N_COORD97":2543027.4399999999,"ADDRESS":"金華路二段３８９號","OBJECTID":79206},"geometry":{"x":167133.6500000013,"y":2543027.4400000032}},{"attributes":{"ID":79207,"DIS_CODE":0,"TOWNNAME":"南區","LI":"文華里","LIN":"4鄰","STREET":"金華路","SECT":"二段","MAREA":" ","LANE":" ","ALLEY":" ","HOUSE_NO":"３９１號","E_COORD97":167134.19,"N_COORD97":2543032.1000000001,"ADDRESS":"金華路二段３９１號","OBJECTID":79207},"geometry":{"x":167134.18999999948,"y":2543032.0999999996}},{"attributes":{"ID":79208,"DIS_CODE":0,"TOWNNAME":"南區","LI":"文華里","LIN":"4鄰","STREET":"金華路","SECT":"二段","MAREA":" ","LANE":" ","ALLEY":" ","HOUSE_NO":"３９３號","E_COORD97":167134.73000000001,"N_COORD97":2543036.8599999999,"ADDRESS":"金華路二段３９３號","OBJECTID":79208},"geometry":{"x":167134.73000000138,"y":2543036.8599999994}},{"attributes":{"ID":79209,"DIS_CODE":0,"TOWNNAME":"柳營區","LI":"篤農里","LIN":"19鄰","STREET":"義士路","SECT":"一段","MAREA":" ","LANE":"７１０巷","ALLEY":"４１弄","HOUSE_NO":"９８號","E_COORD97":185427.51000000001,"N_COORD97":2576070.8999999999,"ADDRESS":"義士路一段７１０巷４１弄９８號","OBJECTID":79209},"geometry":{"x":185427.50999999978,"y":2576070.9000000004}},{"attributes":{"ID":79210,"DIS_CODE":0,"TOWNNAME":"柳營區","LI":"篤農里","LIN":"19鄰","STREET":"義士路","SECT":"一段","MAREA":" ","LANE":"７１０巷","ALLEY":"６９弄","HOUSE_NO":"８９號","E_COORD97":185428.04000000001,"N_COORD97":2576126.6200000001,"ADDRESS":"義士路一段７１０巷６９弄８９號","OBJECTID":79210},"geometry":{"x":185428.04000000097,"y":2576126.620000001}},{"attributes":{"ID":79211,"DIS_CODE":0,"TOWNNAME":"柳營區","LI":"人和里","LIN":"19鄰","STREET":"義士路","SECT":"五段","MAREA":" ","LANE":"５４５巷","ALLEY":"９０弄","HOUSE_NO":"１０號","E_COORD97":179990.89000000001,"N_COORD97":2576483.3999999999,"ADDRESS":"義士路五段５４５巷９０弄１０號","OBJECTID":79211},"geometry":{"x":179990.8900000006,"y":2576483.4000000004}},{"attributes":{"ID":79212,"DIS_CODE":0,"TOWNNAME":"柳營區","LI":"人和里","LIN":"19鄰","STREET":"義士路","SECT":"五段","MAREA":" ","LANE":"５４５巷","ALLEY":"９０弄","HOUSE_NO":"２號","E_COORD97":179977.13,"N_COORD97":2576484.04,"ADDRESS":"義士路五段５４５巷９０弄２號","OBJECTID":79212},"geometry":{"x":179977.13000000082,"y":2576484.040000001}},{"attributes":{"ID":79213,"DIS_CODE":0,"TOWNNAME":"柳營區","LI":"人和里","LIN":"19鄰","STREET":"義士路","SECT":"五段","MAREA":" ","LANE":"５４５巷","ALLEY":"９０弄","HOUSE_NO":"３５號","E_COORD97":180046.26999999999,"N_COORD97":2576513,"ADDRESS":"義士路五段５４５巷９０弄３５號","OBJECTID":79213},"geometry":{"x":180046.26999999955,"y":2576513}},{"attributes":{"ID":79214,"DIS_CODE":0,"TOWNNAME":"柳營區","LI":"人和里","LIN":"19鄰","STREET":"義士路","SECT":"五段","MAREA":" ","LANE":"５４５巷","ALLEY":"９０弄","HOUSE_NO":"４３號","E_COORD97":180058.88,"N_COORD97":2576512.5099999998,"ADDRESS":"義士路五段５４５巷９０弄４３號","OBJECTID":79214},"geometry":{"x":180058.88000000082,"y":2576512.5099999998}},{"attributes":{"ID":79215,"DIS_CODE":0,"TOWNNAME":"歸仁區","LI":"七甲里","LIN":"19鄰","STREET":"南潭三街","SECT":" ","MAREA":" ","LANE":"１６２巷","ALLEY":"６弄","HOUSE_NO":"１２號","E_COORD97":176412.92999999999,"N_COORD97":2543185.0299999998,"ADDRESS":"南潭三街１６２巷６弄１２號","OBJECTID":79215},"geometry":{"x":176412.9299999997,"y":2543185.0299999993}},{"attributes":{"ID":79216,"DIS_CODE":0,"TOWNNAME":"歸仁區","LI":"七甲里","LIN":"19鄰","STREET":"南潭三街","SECT":" ","MAREA":" ","LANE":"１６２巷","ALLEY":"６弄","HOUSE_NO":"６號","E_COORD97":176426.98000000001,"N_COORD97":2543184.0299999998,"ADDRESS":"南潭三街１６２巷６弄６號","OBJECTID":79216},"geometry":{"x":176426.97999999952,"y":2543184.0300000012}},{"attributes":{"ID":79217,"DIS_CODE":0,"TOWNNAME":"歸仁區","LI":"大潭里","LIN":"19鄰","STREET":"中正南路","SECT":"三段","MAREA":" ","LANE":"９６巷","ALLEY":"５１弄","HOUSE_NO":"７號","E_COORD97":175160.60999999999,"N_COORD97":2534979.2799999998,"ADDRESS":"中正南路三段９６巷５１弄７號","OBJECTID":79217},"geometry":{"x":175160.61000000127,"y":2534979.2799999975}},{"attributes":{"ID":79218,"DIS_CODE":0,"TOWNNAME":"歸仁區","LI":"大潭里","LIN":"19鄰","STREET":"中正南路","SECT":"三段","MAREA":" ","LANE":"９６巷","ALLEY":"５１弄","HOUSE_NO":"１２號","E_COORD97":175145.56,"N_COORD97":2534985.2799999998,"ADDRESS":"中正南路三段９６巷５１弄１２號","OBJECTID":79218},"geometry":{"x":175145.55999999959,"y":2534985.2799999993}},{"attributes":{"ID":79219,"DIS_CODE":0,"TOWNNAME":"歸仁區","LI":"大潭里","LIN":"19鄰","STREET":"中正南路","SECT":"三段","MAREA":" ","LANE":"９６巷","ALLEY":"５１弄","HOUSE_NO":"１０號","E_COORD97":175145.56,"N_COORD97":2534988.2799999998,"ADDRESS":"中正南路三段９６巷５１弄１０號","OBJECTID":79219},"geometry":{"x":175145.55999999959,"y":2534988.2799999993}},{"attributes":{"ID":79220,"DIS_CODE":0,"TOWNNAME":"歸仁區","LI":"大潭里","LIN":"19鄰","STREET":"中正南路","SECT":"三段","MAREA":" ","LANE":"９６巷","ALLEY":"１０１弄","HOUSE_NO":"３０號","E_COORD97":175088.91,"N_COORD97":2534910.2799999998,"ADDRESS":"中正南路三段９６巷１０１弄３０號","OBJECTID":79220},"geometry":{"x":175088.91000000108,"y":2534910.2799999993}},{"attributes":{"ID":79221,"DIS_CODE":0,"TOWNNAME":"歸仁區","LI":"大潭里","LIN":"19鄰","STREET":"中正南路","SECT":"三段","MAREA":" ","LANE":"９６巷","ALLEY":"５１弄","HOUSE_NO":"９號","E_COORD97":175155.51000000001,"N_COORD97":2534974.2799999998,"ADDRESS":"中正南路三段９６巷５１弄９號","OBJECTID":79221},"geometry":{"x":175155.51000000071,"y":2534974.2800000012}},{"attributes":{"ID":79222,"DIS_CODE":0,"TOWNNAME":"歸仁區","LI":"大潭里","LIN":"19鄰","STREET":"中正南路","SECT":"三段","MAREA":" ","LANE":"９６巷","ALLEY":"５１弄","HOUSE_NO":"１８號","E_COORD97":175141.35999999999,"N_COORD97":2534973.2799999998,"ADDRESS":"中正南路三段９６巷５１弄１８號","OBJECTID":79222},"geometry":{"x":175141.36000000127,"y":2534973.2800000012}},{"attributes":{"ID":79223,"DIS_CODE":0,"TOWNNAME":"歸仁區","LI":"大潭里","LIN":"19鄰","STREET":"中正南路","SECT":"三段","MAREA":" ","LANE":"９６巷","ALLEY":"５１弄","HOUSE_NO":"２２號","E_COORD97":175140.26000000001,"N_COORD97":2534964.2799999998,"ADDRESS":"中正南路三段９６巷５１弄２２號","OBJECTID":79223},"geometry":{"x":175140.26000000071,"y":2534964.2799999993}},{"attributes":{"ID":79224,"DIS_CODE":0,"TOWNNAME":"歸仁區","LI":"大潭里","LIN":"19鄰","STREET":"中正南路","SECT":"三段","MAREA":" ","LANE":"９６巷","ALLEY":"５１弄","HOUSE_NO":"１６號","E_COORD97":175143.45999999999,"N_COORD97":2534976.2799999998,"ADDRESS":"中正南路三段９６巷５１弄１６號","OBJECTID":79224},"geometry":{"x":175143.46000000183,"y":2534976.2800000031}},{"attributes":{"ID":79225,"DIS_CODE":0,"TOWNNAME":"東區","LI":"裕聖里","LIN":"7鄰","STREET":"裕敬路","SECT":" ","MAREA":" ","LANE":" ","ALLEY":" ","HOUSE_NO":"３９８號","E_COORD97":172783.34,"N_COORD97":2542238.9300000002,"ADDRESS":"裕敬路３９８號","OBJECTID":79225},"geometry":{"x":172783.34000000078,"y":2542238.9300000016}},{"attributes":{"ID":79226,"DIS_CODE":0,"TOWNNAME":"新化區","LI":"全興里","LIN":"16鄰","STREET":" ","SECT":" ","MAREA":"竹子\u25A0","LANE":" ","ALLEY":" ","HOUSE_NO":"２４７號之３９２","E_COORD97":178263.29000000001,"N_COORD97":2546677.2599999998,"ADDRESS":"竹子\u25A0２４７號之３９２","OBJECTID":79226},"geometry":{"x":178263.29000000004,"y":2546677.2600000016}},{"attributes":{"ID":79227,"DIS_CODE":0,"TOWNNAME":"新市區","LI":"三舍里","LIN":"7鄰","STREET":" ","SECT":" ","MAREA":"三舍","LANE":" ","ALLEY":" ","HOUSE_NO":"１６８之１８號","E_COORD97":177635.23000000001,"N_COORD97":2554605.5499999998,"ADDRESS":"三舍１６８之１８號","OBJECTID":79227},"geometry":{"x":177635.23000000045,"y":2554605.5500000007}},{"attributes":{"ID":79228,"DIS_CODE":0,"TOWNNAME":"西港區","LI":"後營里","LIN":"7鄰","STREET":" ","SECT":" ","MAREA":"後營","LANE":" ","ALLEY":" ","HOUSE_NO":"２０３號","E_COORD97":170006.91,"N_COORD97":2560184.8399999999,"ADDRESS":"後營２０３號","OBJECTID":79228},"geometry":{"x":170006.91000000015,"y":2560184.8400000017}},{"attributes":{"ID":79229,"DIS_CODE":0,"TOWNNAME":"西港區","LI":"後營里","LIN":"7鄰","STREET":" ","SECT":" ","MAREA":"後營","LANE":" ","ALLEY":" ","HOUSE_NO":"２０４號","E_COORD97":170031.37,"N_COORD97":2560182.6899999999,"ADDRESS":"後營２０４號","OBJECTID":79229},"geometry":{"x":170031.37000000011,"y":2560182.6899999995}},{"attributes":{"ID":79230,"DIS_CODE":0,"TOWNNAME":"西港區","LI":"後營里","LIN":"7鄰","STREET":" ","SECT":" ","MAREA":"後營","LANE":" ","ALLEY":" ","HOUSE_NO":"２０５號","E_COORD97":170030.92000000001,"N_COORD97":2560158.98,"ADDRESS":"後營２０５號","OBJECTID":79230},"geometry":{"x":170030.91999999899,"y":2560158.9800000004}},{"attributes":{"ID":79231,"DIS_CODE":0,"TOWNNAME":"北區","LI":"文元里","LIN":"19鄰","STREET":"海安路","SECT":"三段","MAREA":" ","LANE":"７８１巷","ALLEY":"２０９弄","HOUSE_NO":"２號","E_COORD97":167578.94,"N_COORD97":2545973.4399999999,"ADDRESS":"海安路三段７８１巷２０９弄２號","OBJECTID":79231},"geometry":{"x":167578.94000000134,"y":2545973.4400000032}},{"attributes":{"ID":79232,"DIS_CODE":0,"TOWNNAME":"東區","LI":"裕聖里","LIN":"7鄰","STREET":"裕敬路","SECT":" ","MAREA":" ","LANE":" ","ALLEY":" ","HOUSE_NO":"４００號","E_COORD97":172788.04999999999,"N_COORD97":2542239.1000000001,"ADDRESS":"裕敬路４００號","OBJECTID":79232},"geometry":{"x":172788.05000000168,"y":2542239.0999999996}},{"attributes":{"ID":79233,"DIS_CODE":0,"TOWNNAME":"新市區","LI":"三舍里","LIN":"7鄰","STREET":" ","SECT":" ","MAREA":"三舍","LANE":" ","ALLEY":" ","HOUSE_NO":"１７６之４號","E_COORD97":177446.09,"N_COORD97":2554863.7999999998,"ADDRESS":"三舍１７６之４號","OBJECTID":79233},"geometry":{"x":177446.08999999985,"y":2554863.8000000007}},{"attributes":{"ID":79234,"DIS_CODE":0,"TOWNNAME":"新市區","LI":"大營里","LIN":"7鄰","STREET":" ","SECT":" ","MAREA":"大營","LANE":" ","ALLEY":" ","HOUSE_NO":"１５６之９號","E_COORD97":179506.88,"N_COORD97":2555426.5499999998,"ADDRESS":"大營１５６之９號","OBJECTID":79234},"geometry":{"x":179506.87999999989,"y":2555426.5500000045}},{"attributes":{"ID":79235,"DIS_CODE":0,"TOWNNAME":"佳里區","LI":"嘉福里","LIN":"5鄰","STREET":" ","SECT":" ","MAREA":"下營","LANE":" ","ALLEY":" ","HOUSE_NO":"６９號","E_COORD97":163284.82999999999,"N_COORD97":2563487,"ADDRESS":"下營６９號","OBJECTID":79235},"geometry":{"x":163284.82999999914,"y":2563487}},{"attributes":{"ID":79236,"DIS_CODE":0,"TOWNNAME":"新市區","LI":"三舍里","LIN":"7鄰","STREET":" ","SECT":" ","MAREA":"三舍","LANE":" ","ALLEY":" ","HOUSE_NO":"１６６之１２號","E_COORD97":177504.89000000001,"N_COORD97":2554890.2999999998,"ADDRESS":"三舍１６６之１２號","OBJECTID":79236},"geometry":{"x":177504.88999999966,"y":2554890.3000000026}},{"attributes":{"ID":79237,"DIS_CODE":0,"TOWNNAME":"新市區","LI":"大社里","LIN":"7鄰","STREET":" ","SECT":" ","MAREA":"大社","LANE":" ","ALLEY":" ","HOUSE_NO":"２６４號","E_COORD97":180228.63,"N_COORD97":2554507.75,"ADDRESS":"大社２６４號","OBJECTID":79237},"geometry":{"x":180228.63000000082,"y":2554507.75}},{"attributes":{"ID":79238,"DIS_CODE":0,"TOWNNAME":"新市區","LI":"三舍里","LIN":"7鄰","STREET":" ","SECT":" ","MAREA":"三舍","LANE":" ","ALLEY":" ","HOUSE_NO":"１７９之５號","E_COORD97":177437.84,"N_COORD97":2554855.0499999998,"ADDRESS":"三舍１７９之５號","OBJECTID":79238},"geometry":{"x":177437.84000000171,"y":2554855.0500000026}},{"attributes":{"ID":79239,"DIS_CODE":0,"TOWNNAME":"新市區","LI":"社內里","LIN":"7鄰","STREET":" ","SECT":" ","MAREA":"社內","LANE":" ","ALLEY":" ","HOUSE_NO":"７３之１號","E_COORD97":176724.5,"N_COORD97":2552765.0499999998,"ADDRESS":"社內７３之１號","OBJECTID":79239},"geometry":{"x":176724.5,"y":2552765.0500000045}},{"attributes":{"ID":79240,"DIS_CODE":0,"TOWNNAME":"北區","LI":"文元里","LIN":"19鄰","STREET":"海安路","SECT":"三段","MAREA":" ","LANE":"７８１巷","ALLEY":"２０９弄","HOUSE_NO":"１號","E_COORD97":167592.91,"N_COORD97":2545973.6000000001,"ADDRESS":"海安路三段７８１巷２０９弄１號","OBJECTID":79240},"geometry":{"x":167592.91000000015,"y":2545973.6000000015}},{"attributes":{"ID":79241,"DIS_CODE":0,"TOWNNAME":"新市區","LI":"社內里","LIN":"7鄰","STREET":" ","SECT":" ","MAREA":"社內","LANE":" ","ALLEY":" ","HOUSE_NO":"６５之１號","E_COORD97":176650.25,"N_COORD97":2552695.0499999998,"ADDRESS":"社內６５之１號","OBJECTID":79241},"geometry":{"x":176650.25000000186,"y":2552695.0500000026}},{"attributes":{"ID":79242,"DIS_CODE":0,"TOWNNAME":"新市區","LI":"社內里","LIN":"7鄰","STREET":" ","SECT":" ","MAREA":"社內","LANE":" ","ALLEY":" ","HOUSE_NO":"６７之１號","E_COORD97":176635.89000000001,"N_COORD97":2552728.0499999998,"ADDRESS":"社內６７之１號","OBJECTID":79242},"geometry":{"x":176635.8900000006,"y":2552728.0500000045}},{"attributes":{"ID":79243,"DIS_CODE":0,"TOWNNAME":"新市區","LI":"永就里","LIN":"7鄰","STREET":" ","SECT":" ","MAREA":"永就","LANE":" ","ALLEY":" ","HOUSE_NO":"７３之３號","E_COORD97":177607.35999999999,"N_COORD97":2551470.7999999998,"ADDRESS":"永就７３之３號","OBJECTID":79243},"geometry":{"x":177607.36000000034,"y":2551470.8000000007}},{"attributes":{"ID":79244,"DIS_CODE":0,"TOWNNAME":"新市區","LI":"社內里","LIN":"7鄰","STREET":" ","SECT":" ","MAREA":"社內","LANE":" ","ALLEY":" ","HOUSE_NO":"６８之７號","E_COORD97":176640.39000000001,"N_COORD97":2552790.2999999998,"ADDRESS":"社內６８之７號","OBJECTID":79244},"geometry":{"x":176640.38999999873,"y":2552790.2999999989}},{"attributes":{"ID":79245,"DIS_CODE":0,"TOWNNAME":"新市區","LI":"社內里","LIN":"7鄰","STREET":" ","SECT":" ","MAREA":"社內","LANE":" ","ALLEY":" ","HOUSE_NO":"７１之１０號","E_COORD97":176568.03,"N_COORD97":2552725.5499999998,"ADDRESS":"社內７１之１０號","OBJECTID":79245},"geometry":{"x":176568.03000000119,"y":2552725.5500000026}},{"attributes":{"ID":79246,"DIS_CODE":0,"TOWNNAME":"北區","LI":"文元里","LIN":"19鄰","STREET":"海安路","SECT":"三段","MAREA":" ","LANE":"７８１巷","ALLEY":"２０９弄","HOUSE_NO":"１０號","E_COORD97":167578.63,"N_COORD97":2545954.23,"ADDRESS":"海安路三段７８１巷２０９弄１０號","OBJECTID":79246},"geometry":{"x":167578.63000000082,"y":2545954.2300000004}},{"attributes":{"ID":79247,"DIS_CODE":0,"TOWNNAME":"北區","LI":"文元里","LIN":"19鄰","STREET":"海安路","SECT":"三段","MAREA":" ","LANE":"７８１巷","ALLEY":"２０９弄","HOUSE_NO":"５號","E_COORD97":167592.91,"N_COORD97":2545960.1099999999,"ADDRESS":"海安路三段７８１巷２０９弄５號","OBJECTID":79247},"geometry":{"x":167592.91000000015,"y":2545960.1100000013}},{"attributes":{"ID":79248,"DIS_CODE":0,"TOWNNAME":"新市區","LI":"新市里","LIN":"7鄰","STREET":"中正路","SECT":" ","MAREA":" ","LANE":" ","ALLEY":" ","HOUSE_NO":"２８８號","E_COORD97":177461.98999999999,"N_COORD97":2553064.75,"ADDRESS":"中正路２８８號","OBJECTID":79248},"geometry":{"x":177461.99000000022,"y":2553064.7500000037}},{"attributes":{"ID":79249,"DIS_CODE":0,"TOWNNAME":"北區","LI":"文元里","LIN":"19鄰","STREET":"海安路","SECT":"三段","MAREA":" ","LANE":"７８１巷","ALLEY":"２０９弄","HOUSE_NO":"６號","E_COORD97":167579.42000000001,"N_COORD97":2545966.9300000002,"ADDRESS":"海安路三段７８１巷２０９弄６號","OBJECTID":79249},"geometry":{"x":167579.41999999993,"y":2545966.9299999978}},{"attributes":{"ID":79250,"DIS_CODE":0,"TOWNNAME":"北區","LI":"文元里","LIN":"19鄰","STREET":"海安路","SECT":"三段","MAREA":" ","LANE":"７８１巷","ALLEY":"２０９弄","HOUSE_NO":"７號","E_COORD97":167593.23000000001,"N_COORD97":2545953.4399999999,"ADDRESS":"海安路三段７８１巷２０９弄７號","OBJECTID":79250},"geometry":{"x":167593.23000000045,"y":2545953.4400000032}},{"attributes":{"ID":79251,"DIS_CODE":0,"TOWNNAME":"北區","LI":"文元里","LIN":"19鄰","STREET":"海安路","SECT":"三段","MAREA":" ","LANE":"７８１巷","ALLEY":"２０９弄","HOUSE_NO":"８號","E_COORD97":167578.78,"N_COORD97":2545959.9500000002,"ADDRESS":"海安路三段７８１巷２０９弄８號","OBJECTID":79251},"geometry":{"x":167578.78000000026,"y":2545959.950000003}},{"attributes":{"ID":79252,"DIS_CODE":0,"TOWNNAME":"新營區","LI":"新東里","LIN":"19鄰","STREET":"東學路","SECT":" ","MAREA":" ","LANE":"８０巷","ALLEY":"８弄","HOUSE_NO":"２號","E_COORD97":180882.64999999999,"N_COORD97":2579282.8700000001,"ADDRESS":"東學路８０巷８弄２號","OBJECTID":79252},"geometry":{"x":180882.65000000224,"y":2579282.8700000048}},{"attributes":{"ID":79253,"DIS_CODE":0,"TOWNNAME":"新營區","LI":"新南里","LIN":"19鄰","STREET":"隋唐街","SECT":" ","MAREA":" ","LANE":"３１巷","ALLEY":"３８弄","HOUSE_NO":"１４號","E_COORD97":178624.10000000001,"N_COORD97":2578361.1099999999,"ADDRESS":"隋唐街３１巷３８弄１４號","OBJECTID":79253},"geometry":{"x":178624.10000000149,"y":2578361.1100000013}},{"attributes":{"ID":79254,"DIS_CODE":0,"TOWNNAME":"新營區","LI":"新南里","LIN":"19鄰","STREET":"隋唐街","SECT":" ","MAREA":" ","LANE":"３１巷","ALLEY":"２８弄","HOUSE_NO":"７號","E_COORD97":178649.54000000001,"N_COORD97":2578374.27,"ADDRESS":"隋唐街３１巷２８弄７號","OBJECTID":79254},"geometry":{"x":178649.54000000004,"y":2578374.2700000014}},{"attributes":{"ID":79255,"DIS_CODE":0,"TOWNNAME":"新營區","LI":"新南里","LIN":"19鄰","STREET":"隋唐街","SECT":" ","MAREA":" ","LANE":"３１巷","ALLEY":"３８弄","HOUSE_NO":"６號","E_COORD97":178645.35000000001,"N_COORD97":2578356.5800000001,"ADDRESS":"隋唐街３１巷３８弄６號","OBJECTID":79255},"geometry":{"x":178645.34999999963,"y":2578356.5800000001}},{"attributes":{"ID":79256,"DIS_CODE":0,"TOWNNAME":"鹽水區","LI":"岸內里","LIN":"19鄰","STREET":"北門路","SECT":" ","MAREA":" ","LANE":"１巷","ALLEY":"６弄","HOUSE_NO":"５４號","E_COORD97":175131.12,"N_COORD97":2580426.1400000001,"ADDRESS":"北門路１巷６弄５４號","OBJECTID":79256},"geometry":{"x":175131.12000000104,"y":2580426.1400000006}},{"attributes":{"ID":79257,"DIS_CODE":0,"TOWNNAME":"鹽水區","LI":"岸內里","LIN":"19鄰","STREET":"北門路","SECT":" ","MAREA":" ","LANE":"１巷","ALLEY":"６弄","HOUSE_NO":"５６號","E_COORD97":175141.89000000001,"N_COORD97":2580425.5800000001,"ADDRESS":"北門路１巷６弄５６號","OBJECTID":79257},"geometry":{"x":175141.89000000153,"y":2580425.5800000001}},{"attributes":{"ID":79258,"DIS_CODE":0,"TOWNNAME":"鹽水區","LI":"岸內里","LIN":"19鄰","STREET":"北門路","SECT":" ","MAREA":" ","LANE":"１巷","ALLEY":"６弄","HOUSE_NO":"５７號","E_COORD97":175146.38,"N_COORD97":2580425.8500000001,"ADDRESS":"北門路１巷６弄５７號","OBJECTID":79258},"geometry":{"x":175146.38000000082,"y":2580425.8499999996}},{"attributes":{"ID":79259,"DIS_CODE":0,"TOWNNAME":"鹽水區","LI":"岸內里","LIN":"19鄰","STREET":"北門路","SECT":" ","MAREA":" ","LANE":"１巷","ALLEY":"６弄","HOUSE_NO":"５８號","E_COORD97":175150.87,"N_COORD97":2580426.1099999999,"ADDRESS":"北門路１巷６弄５８號","OBJECTID":79259},"geometry":{"x":175150.87000000011,"y":2580426.1100000013}},{"attributes":{"ID":79260,"DIS_CODE":0,"TOWNNAME":"鹽水區","LI":"岸內里","LIN":"19鄰","STREET":"北門路","SECT":" ","MAREA":" ","LANE":"１巷","ALLEY":"６弄","HOUSE_NO":"５９號","E_COORD97":175155.35999999999,"N_COORD97":2580426.3799999999,"ADDRESS":"北門路１巷６弄５９號","OBJECTID":79260},"geometry":{"x":175155.36000000127,"y":2580426.3800000027}},{"attributes":{"ID":79261,"DIS_CODE":0,"TOWNNAME":"鹽水區","LI":"岸內里","LIN":"19鄰","STREET":"北門路","SECT":" ","MAREA":" ","LANE":"１巷","ALLEY":"６弄","HOUSE_NO":"６０號","E_COORD97":175087.79999999999,"N_COORD97":2580448.4500000002,"ADDRESS":"北門路１巷６弄６０號","OBJECTID":79261},"geometry":{"x":175087.79999999981,"y":2580448.4499999993}},{"attributes":{"ID":79262,"DIS_CODE":0,"TOWNNAME":"新市區","LI":"大社里","LIN":"33鄰","STREET":" ","SECT":" ","MAREA":"大社","LANE":" ","ALLEY":" ","HOUSE_NO":"４０８之５２號","E_COORD97":180149.29000000001,"N_COORD97":2554820.4300000002,"ADDRESS":"大社４０８之５２號","OBJECTID":79262},"geometry":{"x":180149.29000000097,"y":2554820.4300000016}},{"attributes":{"ID":79263,"DIS_CODE":0,"TOWNNAME":"新市區","LI":"大社里","LIN":"33鄰","STREET":" ","SECT":" ","MAREA":"大社","LANE":" ","ALLEY":" ","HOUSE_NO":"４０８之８４號","E_COORD97":180116.35000000001,"N_COORD97":2554785.1800000002,"ADDRESS":"大社４０８之８４號","OBJECTID":79263},"geometry":{"x":180116.35000000056,"y":2554785.1800000016}},{"attributes":{"ID":79264,"DIS_CODE":0,"TOWNNAME":"新市區","LI":"大社里","LIN":"33鄰","STREET":" ","SECT":" ","MAREA":"大社","LANE":" ","ALLEY":" ","HOUSE_NO":"４０８之６７號","E_COORD97":180143.98999999999,"N_COORD97":2554798.6800000002,"ADDRESS":"大社４０８之６７號","OBJECTID":79264},"geometry":{"x":180143.99000000022,"y":2554798.6800000016}},{"attributes":{"ID":79265,"DIS_CODE":0,"TOWNNAME":"新市區","LI":"大社里","LIN":"33鄰","STREET":" ","SECT":" ","MAREA":"大社","LANE":" ","ALLEY":" ","HOUSE_NO":"４０８之２０號","E_COORD97":180168.23999999999,"N_COORD97":2554856.9300000002,"ADDRESS":"大社４０８之２０號","OBJECTID":79265},"geometry":{"x":180168.24000000115,"y":2554856.9300000034}},{"attributes":{"ID":79266,"DIS_CODE":0,"TOWNNAME":"新市區","LI":"大社里","LIN":"33鄰","STREET":" ","SECT":" ","MAREA":"大社","LANE":" ","ALLEY":" ","HOUSE_NO":"４０８之３６號","E_COORD97":180159.10000000001,"N_COORD97":2554835.9300000002,"ADDRESS":"大社４０８之３６號","OBJECTID":79266},"geometry":{"x":180159.09999999963,"y":2554835.9299999997}},{"attributes":{"ID":79267,"DIS_CODE":0,"TOWNNAME":"新市區","LI":"大社里","LIN":"33鄰","STREET":" ","SECT":" ","MAREA":"大社","LANE":" ","ALLEY":" ","HOUSE_NO":"４０８之８８號","E_COORD97":180152.73999999999,"N_COORD97":2554758.4300000002,"ADDRESS":"大社４０８之８８號","OBJECTID":79267},"geometry":{"x":180152.73999999929,"y":2554758.4300000034}},{"attributes":{"ID":79268,"DIS_CODE":0,"TOWNNAME":"新市區","LI":"大社里","LIN":"33鄰","STREET":" ","SECT":" ","MAREA":"大社","LANE":" ","ALLEY":" ","HOUSE_NO":"４０８之９１號","E_COORD97":180129.89999999999,"N_COORD97":2554759.4300000002,"ADDRESS":"大社４０８之９１號","OBJECTID":79268},"geometry":{"x":180129.90000000224,"y":2554759.4300000016}},{"attributes":{"ID":79269,"DIS_CODE":0,"TOWNNAME":"鹽水區","LI":"岸內里","LIN":"19鄰","STREET":"北門路","SECT":" ","MAREA":" ","LANE":"１巷","ALLEY":"６弄","HOUSE_NO":"６１號","E_COORD97":175092.87,"N_COORD97":2580448.4700000002,"ADDRESS":"北門路１巷６弄６１號","OBJECTID":79269},"geometry":{"x":175092.87000000011,"y":2580448.4700000025}},{"attributes":{"ID":79270,"DIS_CODE":0,"TOWNNAME":"鹽水區","LI":"岸內里","LIN":"19鄰","STREET":"北門路","SECT":" ","MAREA":" ","LANE":"１巷","ALLEY":"６弄","HOUSE_NO":"６２號","E_COORD97":175097.47,"N_COORD97":2580448.21,"ADDRESS":"北門路１巷６弄６２號","OBJECTID":79270},"geometry":{"x":175097.4700000016,"y":2580448.2100000028}},{"attributes":{"ID":79271,"DIS_CODE":0,"TOWNNAME":"鹽水區","LI":"岸內里","LIN":"19鄰","STREET":"北門路","SECT":" ","MAREA":" ","LANE":"１巷","ALLEY":"６弄","HOUSE_NO":"６３號","E_COORD97":175101.47,"N_COORD97":2580448.7000000002,"ADDRESS":"北門路１巷６弄６３號","OBJECTID":79271},"geometry":{"x":175101.47000000067,"y":2580448.7000000011}},{"attributes":{"ID":79272,"DIS_CODE":0,"TOWNNAME":"鹽水區","LI":"岸內里","LIN":"19鄰","STREET":"北門路","SECT":" ","MAREA":" ","LANE":"１巷","ALLEY":"６弄","HOUSE_NO":"６４號","E_COORD97":175105.51000000001,"N_COORD97":2580449.1400000001,"ADDRESS":"北門路１巷６弄６４號","OBJECTID":79272},"geometry":{"x":175105.50999999885,"y":2580449.1400000006}},{"attributes":{"ID":79273,"DIS_CODE":0,"TOWNNAME":"鹽水區","LI":"岸內里","LIN":"19鄰","STREET":"北門路","SECT":" ","MAREA":" ","LANE":"１巷","ALLEY":"６弄","HOUSE_NO":"６５號","E_COORD97":175109.45999999999,"N_COORD97":2580449.5499999998,"ADDRESS":"北門路１巷６弄６５號","OBJECTID":79273},"geometry":{"x":175109.45999999903,"y":2580449.5500000007}},{"attributes":{"ID":79274,"DIS_CODE":0,"TOWNNAME":"鹽水區","LI":"岸內里","LIN":"19鄰","STREET":"北門路","SECT":" ","MAREA":" ","LANE":"１巷","ALLEY":"６弄","HOUSE_NO":"６６號","E_COORD97":175113.57999999999,"N_COORD97":2580449.5099999998,"ADDRESS":"北門路１巷６弄６６號","OBJECTID":79274},"geometry":{"x":175113.58000000007,"y":2580449.5099999998}},{"attributes":{"ID":79275,"DIS_CODE":0,"TOWNNAME":"新市區","LI":"大社里","LIN":"33鄰","STREET":" ","SECT":" ","MAREA":"大社","LANE":" ","ALLEY":" ","HOUSE_NO":"４０８之１１號","E_COORD97":180145.98999999999,"N_COORD97":2554874.9300000002,"ADDRESS":"大社４０８之１１號","OBJECTID":79275},"geometry":{"x":180145.99000000209,"y":2554874.9300000016}},{"attributes":{"ID":79276,"DIS_CODE":0,"TOWNNAME":"新市區","LI":"大社里","LIN":"33鄰","STREET":" ","SECT":" ","MAREA":"大社","LANE":" ","ALLEY":" ","HOUSE_NO":"４０８之４１號","E_COORD97":180126.85000000001,"N_COORD97":2554832.6800000002,"ADDRESS":"大社４０８之４１號","OBJECTID":79276},"geometry":{"x":180126.85000000056,"y":2554832.6800000016}},{"attributes":{"ID":79277,"DIS_CODE":0,"TOWNNAME":"新市區","LI":"大社里","LIN":"33鄰","STREET":" ","SECT":" ","MAREA":"大社","LANE":" ","ALLEY":" ","HOUSE_NO":"４０８之２５號","E_COORD97":180145.35000000001,"N_COORD97":2554857.6800000002,"ADDRESS":"大社４０８之２５號","OBJECTID":79277},"geometry":{"x":180145.35000000056,"y":2554857.6799999997}},{"attributes":{"ID":79278,"DIS_CODE":0,"TOWNNAME":"新市區","LI":"大社里","LIN":"33鄰","STREET":" ","SECT":" ","MAREA":"大社","LANE":" ","ALLEY":" ","HOUSE_NO":"４０８之２７號","E_COORD97":180127.19,"N_COORD97":2554857.9300000002,"ADDRESS":"大社４０８之２７號","OBJECTID":79278},"geometry":{"x":180127.19000000041,"y":2554857.9300000016}},{"attributes":{"ID":79279,"DIS_CODE":0,"TOWNNAME":"鹽水區","LI":"岸內里","LIN":"19鄰","STREET":"北門路","SECT":" ","MAREA":" ","LANE":"１巷","ALLEY":"６弄","HOUSE_NO":"６７號","E_COORD97":175117.64999999999,"N_COORD97":2580449.6200000001,"ADDRESS":"北門路１巷６弄６７號","OBJECTID":79279},"geometry":{"x":175117.6500000013,"y":2580449.620000001}},{"attributes":{"ID":79280,"DIS_CODE":0,"TOWNNAME":"新市區","LI":"大社里","LIN":"33鄰","STREET":" ","SECT":" ","MAREA":"大社","LANE":" ","ALLEY":" ","HOUSE_NO":"４０８之１２號","E_COORD97":180132.60000000001,"N_COORD97":2554875.1800000002,"ADDRESS":"大社４０８之１２號","OBJECTID":79280},"geometry":{"x":180132.59999999963,"y":2554875.1800000034}},{"attributes":{"ID":79281,"DIS_CODE":0,"TOWNNAME":"新市區","LI":"大社里","LIN":"33鄰","STREET":" ","SECT":" ","MAREA":"大社","LANE":" ","ALLEY":" ","HOUSE_NO":"４０８之６５號","E_COORD97":180153.29000000001,"N_COORD97":2554798.1800000002,"ADDRESS":"大社４０８之６５號","OBJECTID":79281},"geometry":{"x":180153.29000000004,"y":2554798.1800000016}},{"attributes":{"ID":79282,"DIS_CODE":0,"TOWNNAME":"鹽水區","LI":"岸內里","LIN":"19鄰","STREET":"北門路","SECT":" ","MAREA":" ","LANE":"１巷","ALLEY":"６弄","HOUSE_NO":"６８號","E_COORD97":175121.63,"N_COORD97":2580452.8399999999,"ADDRESS":"北門路１巷６弄６８號","OBJECTID":79282},"geometry":{"x":175121.62999999989,"y":2580452.8400000017}},{"attributes":{"ID":79283,"DIS_CODE":0,"TOWNNAME":"鹽水區","LI":"岸內里","LIN":"19鄰","STREET":"北門路","SECT":" ","MAREA":" ","LANE":"１巷","ALLEY":"６弄","HOUSE_NO":"６９號","E_COORD97":175125.44,"N_COORD97":2580452.6699999999,"ADDRESS":"北門路１巷６弄６９號","OBJECTID":79283},"geometry":{"x":175125.44000000227,"y":2580452.6700000037}},{"attributes":{"ID":79284,"DIS_CODE":0,"TOWNNAME":"鹽水區","LI":"岸內里","LIN":"19鄰","STREET":"北門路","SECT":" ","MAREA":" ","LANE":"１巷","ALLEY":"６弄","HOUSE_NO":"７０號","E_COORD97":175129.97,"N_COORD97":2580453.0699999998,"ADDRESS":"北門路１巷６弄７０號","OBJECTID":79284},"geometry":{"x":175129.97000000067,"y":2580453.0700000003}},{"attributes":{"ID":79285,"DIS_CODE":0,"TOWNNAME":"北區","LI":"力行里","LIN":"19鄰","STREET":"南園街","SECT":" ","MAREA":" ","LANE":"１２７巷","ALLEY":"１５１弄","HOUSE_NO":"４８號","E_COORD97":170941,"N_COORD97":2545550.4900000002,"ADDRESS":"南園街１２７巷１５１弄４８號","OBJECTID":79285},"geometry":{"x":170941.00000000093,"y":2545550.4900000039}},{"attributes":{"ID":79286,"DIS_CODE":0,"TOWNNAME":"學甲區","LI":"秀昌里","LIN":"33鄰","STREET":" ","SECT":" ","MAREA":"煥昌","LANE":" ","ALLEY":" ","HOUSE_NO":"１０１號","E_COORD97":166156.44,"N_COORD97":2570979.3500000001,"ADDRESS":"煥昌１０１號","OBJECTID":79286},"geometry":{"x":166156.44000000134,"y":2570979.3500000015}},{"attributes":{"ID":79287,"DIS_CODE":0,"TOWNNAME":"北區","LI":"力行里","LIN":"19鄰","STREET":"南園街","SECT":" ","MAREA":" ","LANE":"１２７巷","ALLEY":"１５１弄","HOUSE_NO":"５０號","E_COORD97":170950.42999999999,"N_COORD97":2545569.52,"ADDRESS":"南園街１２７巷１５１弄５０號","OBJECTID":79287},"geometry":{"x":170950.4299999997,"y":2545569.5200000033}},{"attributes":{"ID":79288,"DIS_CODE":0,"TOWNNAME":"北區","LI":"力行里","LIN":"19鄰","STREET":"南園街","SECT":" ","MAREA":" ","LANE":"１２７巷","ALLEY":"１５１弄","HOUSE_NO":"５２號","E_COORD97":170946.70000000001,"N_COORD97":2545565.5899999999,"ADDRESS":"南園街１２７巷１５１弄５２號","OBJECTID":79288},"geometry":{"x":170946.70000000112,"y":2545565.5899999999}},{"attributes":{"ID":79289,"DIS_CODE":0,"TOWNNAME":"北區","LI":"力行里","LIN":"19鄰","STREET":"南園街","SECT":" ","MAREA":" ","LANE":"１２７巷","ALLEY":"１５１弄","HOUSE_NO":"５４號","E_COORD97":170941.78,"N_COORD97":2545559.3100000001,"ADDRESS":"南園街１２７巷１５１弄５４號","OBJECTID":79289},"geometry":{"x":170941.78000000119,"y":2545559.3100000024}},{"attributes":{"ID":79290,"DIS_CODE":0,"TOWNNAME":"北區","LI":"力行里","LIN":"19鄰","STREET":"南園街","SECT":" ","MAREA":" ","LANE":"１２７巷","ALLEY":"１５１弄","HOUSE_NO":"５６號","E_COORD97":170937.85999999999,"N_COORD97":2545557.5499999998,"ADDRESS":"南園街１２７巷１５１弄５６號","OBJECTID":79290},"geometry":{"x":170937.86000000127,"y":2545557.5500000026}},{"attributes":{"ID":79291,"DIS_CODE":0,"TOWNNAME":"北區","LI":"力行里","LIN":"19鄰","STREET":"南園街","SECT":" ","MAREA":" ","LANE":"１２７巷","ALLEY":"１５１弄","HOUSE_NO":"５８號","E_COORD97":170933.53,"N_COORD97":2545555.7799999998,"ADDRESS":"南園街１２７巷１５１弄５８號","OBJECTID":79291},"geometry":{"x":170933.53000000026,"y":2545555.7800000012}},{"attributes":{"ID":79292,"DIS_CODE":0,"TOWNNAME":"北區","LI":"力行里","LIN":"19鄰","STREET":"南園街","SECT":" ","MAREA":" ","LANE":"１２７巷","ALLEY":"１５１弄","HOUSE_NO":"６０號","E_COORD97":170930.19,"N_COORD97":2545554.21,"ADDRESS":"南園街１２７巷１５１弄６０號","OBJECTID":79292},"geometry":{"x":170930.19000000134,"y":2545554.2100000028}},{"attributes":{"ID":79293,"DIS_CODE":0,"TOWNNAME":"北區","LI":"力行里","LIN":"19鄰","STREET":"南園街","SECT":" ","MAREA":" ","LANE":"１２７巷","ALLEY":"１５１弄","HOUSE_NO":"６２號","E_COORD97":170925.67999999999,"N_COORD97":2545552.6400000001,"ADDRESS":"南園街１２７巷１５１弄６２號","OBJECTID":79293},"geometry":{"x":170925.67999999877,"y":2545552.6400000006}},{"attributes":{"ID":79294,"DIS_CODE":0,"TOWNNAME":"北區","LI":"力行里","LIN":"19鄰","STREET":"南園街","SECT":" ","MAREA":" ","LANE":"１２７巷","ALLEY":"１５１弄","HOUSE_NO":"６４號","E_COORD97":170921.35000000001,"N_COORD97":2545550.4900000002,"ADDRESS":"南園街１２７巷１５１弄６４號","OBJECTID":79294},"geometry":{"x":170921.35000000056,"y":2545550.4900000039}},{"attributes":{"ID":79295,"DIS_CODE":0,"TOWNNAME":"新市區","LI":"大社里","LIN":"33鄰","STREET":" ","SECT":" ","MAREA":"大社","LANE":" ","ALLEY":" ","HOUSE_NO":"４０８之２６號","E_COORD97":180132.04000000001,"N_COORD97":2554857.9300000002,"ADDRESS":"大社４０８之２６號","OBJECTID":79295},"geometry":{"x":180132.0400000019,"y":2554857.9300000016}},{"attributes":{"ID":79296,"DIS_CODE":0,"TOWNNAME":"北區","LI":"力行里","LIN":"19鄰","STREET":"南園街","SECT":" ","MAREA":" ","LANE":"１２７巷","ALLEY":"１５１弄","HOUSE_NO":"６６號","E_COORD97":170917.82000000001,"N_COORD97":2545549.1099999999,"ADDRESS":"南園街１２７巷１５１弄６６號","OBJECTID":79296},"geometry":{"x":170917.8200000003,"y":2545549.1100000013}},{"attributes":{"ID":79297,"DIS_CODE":0,"TOWNNAME":"北區","LI":"力行里","LIN":"19鄰","STREET":"南園街","SECT":" ","MAREA":" ","LANE":"１２７巷","ALLEY":"１５１弄","HOUSE_NO":"６８號","E_COORD97":170913.10000000001,"N_COORD97":2545547.54,"ADDRESS":"南園街１２７巷１５１弄６８號","OBJECTID":79297},"geometry":{"x":170913.10000000056,"y":2545547.5399999991}},{"attributes":{"ID":79298,"DIS_CODE":0,"TOWNNAME":"山上區","LI":"新莊里","LIN":"7鄰","STREET":" ","SECT":" ","MAREA":"大庄","LANE":" ","ALLEY":" ","HOUSE_NO":"１３號之１１","E_COORD97":183982.14000000001,"N_COORD97":2554810.2999999998,"ADDRESS":"大庄１３號之１１","OBJECTID":79298},"geometry":{"x":183982.13999999966,"y":2554810.3000000007}},{"attributes":{"ID":79299,"DIS_CODE":0,"TOWNNAME":"北區","LI":"力行里","LIN":"19鄰","STREET":"南園街","SECT":" ","MAREA":" ","LANE":"１２７巷","ALLEY":"１５１弄","HOUSE_NO":"７０號","E_COORD97":170909.17000000001,"N_COORD97":2545545.7799999998,"ADDRESS":"南園街１２７巷１５１弄７０號","OBJECTID":79299},"geometry":{"x":170909.17000000179,"y":2545545.7799999993}},{"attributes":{"ID":79300,"DIS_CODE":0,"TOWNNAME":"北區","LI":"力行里","LIN":"19鄰","STREET":"南園街","SECT":" ","MAREA":" ","LANE":"１２７巷","ALLEY":"１５１弄","HOUSE_NO":"７２號","E_COORD97":170905.04999999999,"N_COORD97":2545544.0099999998,"ADDRESS":"南園街１２７巷１５１弄７２號","OBJECTID":79300},"geometry":{"x":170905.05000000075,"y":2545544.0100000016}},{"attributes":{"ID":79301,"DIS_CODE":0,"TOWNNAME":"北區","LI":"力行里","LIN":"19鄰","STREET":"南園街","SECT":" ","MAREA":" ","LANE":"１２７巷","ALLEY":"１５１弄","HOUSE_NO":"７６號","E_COORD97":170897.39000000001,"N_COORD97":2545541.0699999998,"ADDRESS":"南園街１２７巷１５１弄７６號","OBJECTID":79301},"geometry":{"x":170897.3900000006,"y":2545541.0700000022}},{"attributes":{"ID":79302,"DIS_CODE":0,"TOWNNAME":"北區","LI":"力行里","LIN":"19鄰","STREET":"南園街","SECT":" ","MAREA":" ","LANE":"１２７巷","ALLEY":"１５１弄","HOUSE_NO":"７８號","E_COORD97":170892.48000000001,"N_COORD97":2545539.2999999998,"ADDRESS":"南園街１２７巷１５１弄７８號","OBJECTID":79302},"geometry":{"x":170892.48000000138,"y":2545539.3000000026}},{"attributes":{"ID":79303,"DIS_CODE":0,"TOWNNAME":"北區","LI":"力行里","LIN":"19鄰","STREET":"南園街","SECT":" ","MAREA":" ","LANE":"１２７巷","ALLEY":"１５１弄","HOUSE_NO":"８０號","E_COORD97":170888.54999999999,"N_COORD97":2545537.54,"ADDRESS":"南園街１２７巷１５１弄８０號","OBJECTID":79303},"geometry":{"x":170888.55000000075,"y":2545537.5399999991}},{"attributes":{"ID":79304,"DIS_CODE":0,"TOWNNAME":"北區","LI":"力行里","LIN":"19鄰","STREET":"南園街","SECT":" ","MAREA":" ","LANE":"１２７巷","ALLEY":"１５１弄","HOUSE_NO":"８２號","E_COORD97":170884.62,"N_COORD97":2545535.9700000002,"ADDRESS":"南園街１２７巷１５１弄８２號","OBJECTID":79304},"geometry":{"x":170884.62000000104,"y":2545535.9700000007}},{"attributes":{"ID":79305,"DIS_CODE":0,"TOWNNAME":"北區","LI":"力行里","LIN":"19鄰","STREET":"南園街","SECT":" ","MAREA":" ","LANE":"１２７巷","ALLEY":"１５１弄","HOUSE_NO":"８４號","E_COORD97":170879.51000000001,"N_COORD97":2545534.6000000001,"ADDRESS":"南園街１２７巷１５１弄８４號","OBJECTID":79305},"geometry":{"x":170879.51000000164,"y":2545534.5999999996}},{"attributes":{"ID":79306,"DIS_CODE":0,"TOWNNAME":"北區","LI":"力行里","LIN":"19鄰","STREET":"開元路","SECT":" ","MAREA":" ","LANE":"４４２巷","ALLEY":"５１弄","HOUSE_NO":"１０號","E_COORD97":170872.23999999999,"N_COORD97":2545556.5699999998,"ADDRESS":"開元路４４２巷５１弄１０號","OBJECTID":79306},"geometry":{"x":170872.24000000115,"y":2545556.570000004}},{"attributes":{"ID":79307,"DIS_CODE":0,"TOWNNAME":"北區","LI":"力行里","LIN":"19鄰","STREET":"開元路","SECT":" ","MAREA":" ","LANE":"４４２巷","ALLEY":"５１弄","HOUSE_NO":"１２號","E_COORD97":170876.17000000001,"N_COORD97":2545559.8999999999,"ADDRESS":"開元路４４２巷５１弄１２號","OBJECTID":79307},"geometry":{"x":170876.16999999993,"y":2545559.9000000004}},{"attributes":{"ID":79308,"DIS_CODE":0,"TOWNNAME":"北區","LI":"力行里","LIN":"19鄰","STREET":"開元路","SECT":" ","MAREA":" ","LANE":"４４２巷","ALLEY":"５１弄","HOUSE_NO":"１４號","E_COORD97":170880.48999999999,"N_COORD97":2545561.6699999999,"ADDRESS":"開元路４４２巷５１弄１４號","OBJECTID":79308},"geometry":{"x":170880.49000000115,"y":2545561.6699999999}},{"attributes":{"ID":79309,"DIS_CODE":0,"TOWNNAME":"中西區","LI":"法華里","LIN":"7鄰","STREET":"府連路","SECT":" ","MAREA":" ","LANE":" ","ALLEY":" ","HOUSE_NO":"１０號","E_COORD97":168985.92999999999,"N_COORD97":2542475.21,"ADDRESS":"府連路１０號","OBJECTID":79309},"geometry":{"x":168985.9299999997,"y":2542475.2100000028}},{"attributes":{"ID":79310,"DIS_CODE":0,"TOWNNAME":"中西區","LI":"法華里","LIN":"7鄰","STREET":"府連路","SECT":" ","MAREA":" ","LANE":" ","ALLEY":" ","HOUSE_NO":"１２號","E_COORD97":168985.45999999999,"N_COORD97":2542479.8500000001,"ADDRESS":"府連路１２號","OBJECTID":79310},"geometry":{"x":168985.46000000089,"y":2542479.8500000015}},{"attributes":{"ID":79311,"DIS_CODE":0,"TOWNNAME":"中西區","LI":"法華里","LIN":"7鄰","STREET":"府連路","SECT":" ","MAREA":" ","LANE":" ","ALLEY":" ","HOUSE_NO":"１４號","E_COORD97":168984.53,"N_COORD97":2542491.4300000002,"ADDRESS":"府連路１４號","OBJECTID":79311},"geometry":{"x":168984.53000000026,"y":2542491.4299999997}},{"attributes":{"ID":79312,"DIS_CODE":0,"TOWNNAME":"北區","LI":"力行里","LIN":"19鄰","STREET":"開元路","SECT":" ","MAREA":" ","LANE":"４４２巷","ALLEY":"５１弄","HOUSE_NO":"１６號","E_COORD97":170884.23000000001,"N_COORD97":2545563.6299999999,"ADDRESS":"開元路４４２巷５１弄１６號","OBJECTID":79312},"geometry":{"x":170884.23000000138,"y":2545563.629999999}},{"attributes":{"ID":79313,"DIS_CODE":0,"TOWNNAME":"北區","LI":"力行里","LIN":"19鄰","STREET":"開元路","SECT":" ","MAREA":" ","LANE":"４４２巷","ALLEY":"５１弄","HOUSE_NO":"３２號","E_COORD97":170917.03,"N_COORD97":2545576.5800000001,"ADDRESS":"開元路４４２巷５１弄３２號","OBJECTID":79313},"geometry":{"x":170917.03000000026,"y":2545576.5800000038}},{"attributes":{"ID":79314,"DIS_CODE":0,"TOWNNAME":"北區","LI":"力行里","LIN":"19鄰","STREET":"開元路","SECT":" ","MAREA":" ","LANE":"４４２巷","ALLEY":"５１弄","HOUSE_NO":"３４號","E_COORD97":170921.16,"N_COORD97":2545578.1499999999,"ADDRESS":"開元路４４２巷５１弄３４號","OBJECTID":79314},"geometry":{"x":170921.15999999922,"y":2545578.1500000004}},{"attributes":{"ID":79315,"DIS_CODE":0,"TOWNNAME":"新市區","LI":"大社里","LIN":"33鄰","STREET":" ","SECT":" ","MAREA":"大社","LANE":" ","ALLEY":" ","HOUSE_NO":"４０８之８６號","E_COORD97":180164.04000000001,"N_COORD97":2554759.6800000002,"ADDRESS":"大社４０８之８６號","OBJECTID":79315},"geometry":{"x":180164.03999999911,"y":2554759.6799999997}},{"attributes":{"ID":79316,"DIS_CODE":0,"TOWNNAME":"新市區","LI":"大社里","LIN":"33鄰","STREET":" ","SECT":" ","MAREA":"大社","LANE":" ","ALLEY":" ","HOUSE_NO":"４０８之６２號","E_COORD97":180166.79000000001,"N_COORD97":2554797.9300000002,"ADDRESS":"大社４０８之６２號","OBJECTID":79316},"geometry":{"x":180166.79000000004,"y":2554797.9299999997}},{"attributes":{"ID":79317,"DIS_CODE":0,"TOWNNAME":"北區","LI":"力行里","LIN":"19鄰","STREET":"開元路","SECT":" ","MAREA":" ","LANE":"４４２巷","ALLEY":"５１弄","HOUSE_NO":"３６號","E_COORD97":170926.07000000001,"N_COORD97":2545579.7200000002,"ADDRESS":"開元路４４２巷５１弄３６號","OBJECTID":79317},"geometry":{"x":170926.07000000123,"y":2545579.7200000044}},{"attributes":{"ID":79318,"DIS_CODE":0,"TOWNNAME":"北區","LI":"力行里","LIN":"19鄰","STREET":"開元路","SECT":" ","MAREA":" ","LANE":"４４２巷","ALLEY":"５１弄","HOUSE_NO":"３８號","E_COORD97":170929.60000000001,"N_COORD97":2545581.48,"ADDRESS":"開元路４４２巷５１弄３８號","OBJECTID":79318},"geometry":{"x":170929.60000000149,"y":2545581.4800000023}},{"attributes":{"ID":79319,"DIS_CODE":0,"TOWNNAME":"北區","LI":"力行里","LIN":"19鄰","STREET":"開元路","SECT":" ","MAREA":" ","LANE":"４４２巷","ALLEY":"５１弄","HOUSE_NO":"４０號","E_COORD97":170932.94,"N_COORD97":2545582.8599999999,"ADDRESS":"開元路４４２巷５１弄４０號","OBJECTID":79319},"geometry":{"x":170932.94000000041,"y":2545582.8599999994}},{"attributes":{"ID":79320,"DIS_CODE":0,"TOWNNAME":"北區","LI":"力行里","LIN":"19鄰","STREET":"開元路","SECT":" ","MAREA":" ","LANE":"４４２巷","ALLEY":"５１弄","HOUSE_NO":"４２號","E_COORD97":170937.66,"N_COORD97":2545584.4300000002,"ADDRESS":"開元路４４２巷５１弄４２號","OBJECTID":79320},"geometry":{"x":170937.66000000015,"y":2545584.4300000016}},{"attributes":{"ID":79321,"DIS_CODE":0,"TOWNNAME":"北區","LI":"力行里","LIN":"19鄰","STREET":"開元路","SECT":" ","MAREA":" ","LANE":"４４２巷","ALLEY":"５１弄","HOUSE_NO":"８號","E_COORD97":170866.94,"N_COORD97":2545553.23,"ADDRESS":"開元路４４２巷５１弄８號","OBJECTID":79321},"geometry":{"x":170866.94000000041,"y":2545553.2300000023}},{"attributes":{"ID":79322,"DIS_CODE":0,"TOWNNAME":"歸仁區","LI":"歸南里","LIN":"19鄰","STREET":"民生八街","SECT":" ","MAREA":" ","LANE":"２８巷","ALLEY":"１弄","HOUSE_NO":"３３號","E_COORD97":176045.76000000001,"N_COORD97":2540379.25,"ADDRESS":"民生八街２８巷１弄３３號","OBJECTID":79322},"geometry":{"x":176045.75999999978,"y":2540379.2500000019}},{"attributes":{"ID":79323,"DIS_CODE":0,"TOWNNAME":"歸仁區","LI":"歸南里","LIN":"19鄰","STREET":"民生八街","SECT":" ","MAREA":" ","LANE":"２８巷","ALLEY":"１弄","HOUSE_NO":"２１號","E_COORD97":176070.35999999999,"N_COORD97":2540374.25,"ADDRESS":"民生八街２８巷１弄２１號","OBJECTID":79323},"geometry":{"x":176070.36000000127,"y":2540374.2499999981}},{"attributes":{"ID":79324,"DIS_CODE":0,"TOWNNAME":"歸仁區","LI":"歸南里","LIN":"19鄰","STREET":"民生八街","SECT":" ","MAREA":" ","LANE":"２８巷","ALLEY":"１弄","HOUSE_NO":"２９號","E_COORD97":176053.95999999999,"N_COORD97":2540374.25,"ADDRESS":"民生八街２８巷１弄２９號","OBJECTID":79324},"geometry":{"x":176053.96000000089,"y":2540374.2499999981}},{"attributes":{"ID":79325,"DIS_CODE":0,"TOWNNAME":"歸仁區","LI":"歸南里","LIN":"19鄰","STREET":"民生八街","SECT":" ","MAREA":" ","LANE":"２８巷","ALLEY":"１弄","HOUSE_NO":"１１號","E_COORD97":176091.95999999999,"N_COORD97":2540374.25,"ADDRESS":"民生八街２８巷１弄１１號","OBJECTID":79325},"geometry":{"x":176091.95999999996,"y":2540374.2499999981}},{"attributes":{"ID":79326,"DIS_CODE":0,"TOWNNAME":"歸仁區","LI":"歸南里","LIN":"19鄰","STREET":"民生八街","SECT":" ","MAREA":" ","LANE":"２８巷","ALLEY":"１弄","HOUSE_NO":"３５號","E_COORD97":176040.66,"N_COORD97":2540377.25,"ADDRESS":"民生八街２８巷１弄３５號","OBJECTID":79326},"geometry":{"x":176040.65999999922,"y":2540377.25}},{"attributes":{"ID":79327,"DIS_CODE":0,"TOWNNAME":"歸仁區","LI":"歸南里","LIN":"19鄰","STREET":"民生八街","SECT":" ","MAREA":" ","LANE":"２８巷","ALLEY":"１弄","HOUSE_NO":"５９號","E_COORD97":175989.35999999999,"N_COORD97":2540377.25,"ADDRESS":"民生八街２８巷１弄５９號","OBJECTID":79327},"geometry":{"x":175989.36000000127,"y":2540377.25}},{"attributes":{"ID":79328,"DIS_CODE":0,"TOWNNAME":"歸仁區","LI":"媽廟里","LIN":"19鄰","STREET":"媽廟二街","SECT":" ","MAREA":" ","LANE":"３１巷","ALLEY":"４２弄","HOUSE_NO":"１１號","E_COORD97":177755.23000000001,"N_COORD97":2543839.7200000002,"ADDRESS":"媽廟二街３１巷４２弄１１號","OBJECTID":79328},"geometry":{"x":177755.23000000138,"y":2543839.7200000007}},{"attributes":{"ID":79329,"DIS_CODE":0,"TOWNNAME":"山上區","LI":"新莊里","LIN":"7鄰","STREET":" ","SECT":" ","MAREA":"大庄","LANE":" ","ALLEY":" ","HOUSE_NO":"１７號之８","E_COORD97":183803.14000000001,"N_COORD97":2554747.2999999998,"ADDRESS":"大庄１７號之８","OBJECTID":79329},"geometry":{"x":183803.1400000006,"y":2554747.3000000026}},{"attributes":{"ID":79330,"DIS_CODE":0,"TOWNNAME":"歸仁區","LI":"歸南里","LIN":"19鄰","STREET":"民生八街","SECT":" ","MAREA":" ","LANE":"２８巷","ALLEY":"１弄","HOUSE_NO":"３９號","E_COORD97":176031.45999999999,"N_COORD97":2540377.25,"ADDRESS":"民生八街２８巷１弄３９號","OBJECTID":79330},"geometry":{"x":176031.45999999996,"y":2540377.25}},{"attributes":{"ID":79331,"DIS_CODE":0,"TOWNNAME":"歸仁區","LI":"歸南里","LIN":"19鄰","STREET":"民生八街","SECT":" ","MAREA":" ","LANE":"２８巷","ALLEY":"１弄","HOUSE_NO":"３號","E_COORD97":176108.10999999999,"N_COORD97":2540374.25,"ADDRESS":"民生八街２８巷１弄３號","OBJECTID":79331},"geometry":{"x":176108.11000000127,"y":2540374.2499999981}},{"attributes":{"ID":79332,"DIS_CODE":0,"TOWNNAME":"歸仁區","LI":"歸南里","LIN":"19鄰","STREET":"民生八街","SECT":" ","MAREA":" ","LANE":"２８巷","ALLEY":"１弄","HOUSE_NO":"２３號","E_COORD97":176066.26000000001,"N_COORD97":2540374.25,"ADDRESS":"民生八街２８巷１弄２３號","OBJECTID":79332},"geometry":{"x":176066.25999999978,"y":2540374.2499999981}},{"attributes":{"ID":79333,"DIS_CODE":0,"TOWNNAME":"歸仁區","LI":"歸南里","LIN":"19鄰","STREET":"民生八街","SECT":" ","MAREA":" ","LANE":"２８巷","ALLEY":"１弄","HOUSE_NO":"１９號","E_COORD97":176075.45999999999,"N_COORD97":2540374.25,"ADDRESS":"民生八街２８巷１弄１９號","OBJECTID":79333},"geometry":{"x":176075.45999999996,"y":2540374.2499999981}},{"attributes":{"ID":79334,"DIS_CODE":0,"TOWNNAME":"歸仁區","LI":"媽廟里","LIN":"19鄰","STREET":"媽廟二街","SECT":" ","MAREA":" ","LANE":"３１巷","ALLEY":"４２弄","HOUSE_NO":"１３號","E_COORD97":177770.73000000001,"N_COORD97":2543850.7200000002,"ADDRESS":"媽廟二街３１巷４２弄１３號","OBJECTID":79334},"geometry":{"x":177770.73000000045,"y":2543850.7200000044}},{"attributes":{"ID":79335,"DIS_CODE":0,"TOWNNAME":"中西區","LI":"法華里","LIN":"7鄰","STREET":"健康路","SECT":"一段","MAREA":" ","LANE":" ","ALLEY":" ","HOUSE_NO":"５２號","E_COORD97":169040.67999999999,"N_COORD97":2542446.9500000002,"ADDRESS":"健康路一段５２號","OBJECTID":79335},"geometry":{"x":169040.68000000156,"y":2542446.9499999993}},{"attributes":{"ID":79336,"DIS_CODE":0,"TOWNNAME":"中西區","LI":"法華里","LIN":"7鄰","STREET":"健康路","SECT":"一段","MAREA":" ","LANE":" ","ALLEY":" ","HOUSE_NO":"５４號","E_COORD97":169036.5,"N_COORD97":2542443.71,"ADDRESS":"健康路一段５４號","OBJECTID":79336},"geometry":{"x":169036.5,"y":2542443.709999999}},{"attributes":{"ID":79337,"DIS_CODE":0,"TOWNNAME":"新市區","LI":"大社里","LIN":"33鄰","STREET":" ","SECT":" ","MAREA":"大社","LANE":" ","ALLEY":" ","HOUSE_NO":"４０８之８７號","E_COORD97":180158.35000000001,"N_COORD97":2554758.9300000002,"ADDRESS":"大社４０８之８７號","OBJECTID":79337},"geometry":{"x":180158.35000000149,"y":2554758.9300000016}},{"attributes":{"ID":79338,"DIS_CODE":0,"TOWNNAME":"新市區","LI":"大社里","LIN":"33鄰","STREET":" ","SECT":" ","MAREA":"大社","LANE":" ","ALLEY":" ","HOUSE_NO":"４０８之６０號","E_COORD97":180176.85000000001,"N_COORD97":2554797.6800000002,"ADDRESS":"大社４０８之６０號","OBJECTID":79338},"geometry":{"x":180176.85000000149,"y":2554797.6800000016}},{"attributes":{"ID":79339,"DIS_CODE":0,"TOWNNAME":"新市區","LI":"大社里","LIN":"33鄰","STREET":" ","SECT":" ","MAREA":"大社","LANE":" ","ALLEY":" ","HOUSE_NO":"４０８之２３號","E_COORD97":180154.64999999999,"N_COORD97":2554857.4300000002,"ADDRESS":"大社４０８之２３號","OBJECTID":79339},"geometry":{"x":180154.65000000037,"y":2554857.4300000016}},{"attributes":{"ID":79340,"DIS_CODE":0,"TOWNNAME":"新市區","LI":"大社里","LIN":"33鄰","STREET":" ","SECT":" ","MAREA":"大社","LANE":" ","ALLEY":" ","HOUSE_NO":"４０８之５３號","E_COORD97":180144.64999999999,"N_COORD97":2554820.6800000002,"ADDRESS":"大社４０８之５３號","OBJECTID":79340},"geometry":{"x":180144.65000000037,"y":2554820.6799999997}},{"attributes":{"ID":79341,"DIS_CODE":0,"TOWNNAME":"新市區","LI":"大社里","LIN":"33鄰","STREET":" ","SECT":" ","MAREA":"大社","LANE":" ","ALLEY":" ","HOUSE_NO":"４０８之８１號","E_COORD97":180130.14999999999,"N_COORD97":2554782.6800000002,"ADDRESS":"大社４０８之８１號","OBJECTID":79341},"geometry":{"x":180130.1500000013,"y":2554782.6799999997}},{"attributes":{"ID":79342,"DIS_CODE":0,"TOWNNAME":"新市區","LI":"大社里","LIN":"33鄰","STREET":" ","SECT":" ","MAREA":"大社","LANE":" ","ALLEY":" ","HOUSE_NO":"４０８之３７號","E_COORD97":180154.39999999999,"N_COORD97":2554835.9300000002,"ADDRESS":"大社４０８之３７號","OBJECTID":79342},"geometry":{"x":180154.4000000013,"y":2554835.9299999997}},{"attributes":{"ID":79343,"DIS_CODE":0,"TOWNNAME":"新市區","LI":"大社里","LIN":"33鄰","STREET":" ","SECT":" ","MAREA":"大社","LANE":" ","ALLEY":" ","HOUSE_NO":"４０８之７２號","E_COORD97":180112.10000000001,"N_COORD97":2554799.1800000002,"ADDRESS":"大社４０８之７２號","OBJECTID":79343},"geometry":{"x":180112.09999999963,"y":2554799.1799999997}},{"attributes":{"ID":79344,"DIS_CODE":0,"TOWNNAME":"新市區","LI":"大社里","LIN":"33鄰","STREET":" ","SECT":" ","MAREA":"大社","LANE":" ","ALLEY":" ","HOUSE_NO":"４０８之４６號","E_COORD97":180176.73999999999,"N_COORD97":2554819.4300000002,"ADDRESS":"大社４０８之４６號","OBJECTID":79344},"geometry":{"x":180176.74000000115,"y":2554819.4300000034}},{"attributes":{"ID":79345,"DIS_CODE":0,"TOWNNAME":"新市區","LI":"大社里","LIN":"33鄰","STREET":" ","SECT":" ","MAREA":"大社","LANE":" ","ALLEY":" ","HOUSE_NO":"４０８之７５號","E_COORD97":180166.60000000001,"N_COORD97":2554781.6800000002,"ADDRESS":"大社４０８之７５號","OBJECTID":79345},"geometry":{"x":180166.5999999987,"y":2554781.6800000016}},{"attributes":{"ID":79346,"DIS_CODE":0,"TOWNNAME":"新市區","LI":"大社里","LIN":"33鄰","STREET":" ","SECT":" ","MAREA":"大社","LANE":" ","ALLEY":" ","HOUSE_NO":"４０８之８０號","E_COORD97":180143.69,"N_COORD97":2554782.4300000002,"ADDRESS":"大社４０８之８０號","OBJECTID":79346},"geometry":{"x":180143.69000000134,"y":2554782.4300000016}},{"attributes":{"ID":79347,"DIS_CODE":0,"TOWNNAME":"新市區","LI":"大社里","LIN":"33鄰","STREET":" ","SECT":" ","MAREA":"大社","LANE":" ","ALLEY":" ","HOUSE_NO":"４０８之３３號","E_COORD97":180172.64999999999,"N_COORD97":2554835.4300000002,"ADDRESS":"大社４０８之３３號","OBJECTID":79347},"geometry":{"x":180172.6500000013,"y":2554835.4299999997}},{"attributes":{"ID":79348,"DIS_CODE":0,"TOWNNAME":"新市區","LI":"大社里","LIN":"33鄰","STREET":" ","SECT":" ","MAREA":"大社","LANE":" ","ALLEY":" ","HOUSE_NO":"４０８之８９號","E_COORD97":180147.89999999999,"N_COORD97":2554758.4300000002,"ADDRESS":"大社４０８之８９號","OBJECTID":79348},"geometry":{"x":180147.90000000037,"y":2554758.4300000034}},{"attributes":{"ID":79349,"DIS_CODE":0,"TOWNNAME":"新市區","LI":"大社里","LIN":"33鄰","STREET":" ","SECT":" ","MAREA":"大社","LANE":" ","ALLEY":" ","HOUSE_NO":"４０８之４８號","E_COORD97":180167.54000000001,"N_COORD97":2554819.6800000002,"ADDRESS":"大社４０８之４８號","OBJECTID":79349},"geometry":{"x":180167.5400000019,"y":2554819.6799999997}},{"attributes":{"ID":79350,"DIS_CODE":0,"TOWNNAME":"新市區","LI":"大社里","LIN":"33鄰","STREET":" ","SECT":" ","MAREA":"大社","LANE":" ","ALLEY":" ","HOUSE_NO":"４０８之７８號","E_COORD97":180153.04000000001,"N_COORD97":2554782.1800000002,"ADDRESS":"大社４０８之７８號","OBJECTID":79350},"geometry":{"x":180153.04000000097,"y":2554782.1799999997}},{"attributes":{"ID":79351,"DIS_CODE":0,"TOWNNAME":"新市區","LI":"大社里","LIN":"33鄰","STREET":" ","SECT":" ","MAREA":"大社","LANE":" ","ALLEY":" ","HOUSE_NO":"４０８之５５號","E_COORD97":180126.35000000001,"N_COORD97":2554820.6800000002,"ADDRESS":"大社４０８之５５號","OBJECTID":79351},"geometry":{"x":180126.35000000056,"y":2554820.6799999997}},{"attributes":{"ID":79352,"DIS_CODE":0,"TOWNNAME":"新市區","LI":"大社里","LIN":"33鄰","STREET":" ","SECT":" ","MAREA":"大社","LANE":" ","ALLEY":" ","HOUSE_NO":"４０８之８５號","E_COORD97":180169.85000000001,"N_COORD97":2554762.1800000002,"ADDRESS":"大社４０８之８５號","OBJECTID":79352},"geometry":{"x":180169.84999999963,"y":2554762.1799999997}},{"attributes":{"ID":79353,"DIS_CODE":0,"TOWNNAME":"新市區","LI":"大社里","LIN":"33鄰","STREET":" ","SECT":" ","MAREA":"大社","LANE":" ","ALLEY":" ","HOUSE_NO":"４０８之９２號","E_COORD97":180125.64999999999,"N_COORD97":2554759.4300000002,"ADDRESS":"大社４０８之９２號","OBJECTID":79353},"geometry":{"x":180125.65000000037,"y":2554759.4300000016}},{"attributes":{"ID":79354,"DIS_CODE":0,"TOWNNAME":"新市區","LI":"大社里","LIN":"33鄰","STREET":" ","SECT":" ","MAREA":"大社","LANE":" ","ALLEY":" ","HOUSE_NO":"４０８之１６號","E_COORD97":180114.04000000001,"N_COORD97":2554875.6800000002,"ADDRESS":"大社４０８之１６號","OBJECTID":79354},"geometry":{"x":180114.04000000097,"y":2554875.6800000016}},{"attributes":{"ID":79355,"DIS_CODE":0,"TOWNNAME":"新市區","LI":"大社里","LIN":"33鄰","STREET":" ","SECT":" ","MAREA":"大社","LANE":" ","ALLEY":" ","HOUSE_NO":"４０８之６１號","E_COORD97":180171.64999999999,"N_COORD97":2554797.6800000002,"ADDRESS":"大社４０８之６１號","OBJECTID":79355},"geometry":{"x":180171.65000000037,"y":2554797.6800000016}},{"attributes":{"ID":79356,"DIS_CODE":0,"TOWNNAME":"新市區","LI":"大社里","LIN":"33鄰","STREET":" ","SECT":" ","MAREA":"大社","LANE":" ","ALLEY":" ","HOUSE_NO":"４０８之７號","E_COORD97":180162.98999999999,"N_COORD97":2554874.4300000002,"ADDRESS":"大社４０８之７號","OBJECTID":79356},"geometry":{"x":180162.99000000209,"y":2554874.4300000016}},{"attributes":{"ID":79357,"DIS_CODE":0,"TOWNNAME":"新市區","LI":"大社里","LIN":"33鄰","STREET":" ","SECT":" ","MAREA":"大社","LANE":" ","ALLEY":" ","HOUSE_NO":"４０８之３０號","E_COORD97":180113.48999999999,"N_COORD97":2554858.4300000002,"ADDRESS":"大社４０８之３０號","OBJECTID":79357},"geometry":{"x":180113.49000000022,"y":2554858.4299999997}},{"attributes":{"ID":79358,"DIS_CODE":0,"TOWNNAME":"新市區","LI":"大社里","LIN":"33鄰","STREET":" ","SECT":" ","MAREA":"大社","LANE":" ","ALLEY":" ","HOUSE_NO":"４８５號","E_COORD97":181069.38,"N_COORD97":2555468.5,"ADDRESS":"大社４８５號","OBJECTID":79358},"geometry":{"x":181069.38000000082,"y":2555468.5}},{"attributes":{"ID":79359,"DIS_CODE":0,"TOWNNAME":"新市區","LI":"大社里","LIN":"33鄰","STREET":" ","SECT":" ","MAREA":"大社","LANE":" ","ALLEY":" ","HOUSE_NO":"４０８之２２號","E_COORD97":180159.10000000001,"N_COORD97":2554857.1800000002,"ADDRESS":"大社４０８之２２號","OBJECTID":79359},"geometry":{"x":180159.09999999963,"y":2554857.1799999997}},{"attributes":{"ID":79360,"DIS_CODE":0,"TOWNNAME":"新市區","LI":"大社里","LIN":"33鄰","STREET":" ","SECT":" ","MAREA":"大社","LANE":" ","ALLEY":" ","HOUSE_NO":"４０８之８２號","E_COORD97":180125.44,"N_COORD97":2554782.9300000002,"ADDRESS":"大社４０８之８２號","OBJECTID":79360},"geometry":{"x":180125.44000000041,"y":2554782.9300000016}},{"attributes":{"ID":79361,"DIS_CODE":0,"TOWNNAME":"歸仁區","LI":"歸南里","LIN":"19鄰","STREET":"民生八街","SECT":" ","MAREA":" ","LANE":"２８巷","ALLEY":"１弄","HOUSE_NO":"４１號","E_COORD97":176027.35999999999,"N_COORD97":2540377.25,"ADDRESS":"民生八街２８巷１弄４１號","OBJECTID":79361},"geometry":{"x":176027.36000000034,"y":2540377.25}},{"attributes":{"ID":79362,"DIS_CODE":0,"TOWNNAME":"歸仁區","LI":"歸南里","LIN":"19鄰","STREET":"民生八街","SECT":" ","MAREA":" ","LANE":"２８巷","ALLEY":"１弄","HOUSE_NO":"１７號","E_COORD97":176078.56,"N_COORD97":2540374.25,"ADDRESS":"民生八街２８巷１弄１７號","OBJECTID":79362},"geometry":{"x":176078.56000000052,"y":2540374.2499999981}},{"attributes":{"ID":79363,"DIS_CODE":0,"TOWNNAME":"歸仁區","LI":"歸南里","LIN":"19鄰","STREET":"民生八街","SECT":" ","MAREA":" ","LANE":"２８巷","ALLEY":"１弄","HOUSE_NO":"９號","E_COORD97":176095.70999999999,"N_COORD97":2540374.25,"ADDRESS":"民生八街２８巷１弄９號","OBJECTID":79363},"geometry":{"x":176095.70999999996,"y":2540374.2499999981}},{"attributes":{"ID":79364,"DIS_CODE":0,"TOWNNAME":"歸仁區","LI":"歸南里","LIN":"19鄰","STREET":"民生八街","SECT":" ","MAREA":" ","LANE":"２８巷","ALLEY":"１弄","HOUSE_NO":"７號","E_COORD97":176098.81,"N_COORD97":2540374.25,"ADDRESS":"民生八街２８巷１弄７號","OBJECTID":79364},"geometry":{"x":176098.81000000052,"y":2540374.2499999981}},{"attributes":{"ID":79365,"DIS_CODE":0,"TOWNNAME":"歸仁區","LI":"歸南里","LIN":"19鄰","STREET":"民生八街","SECT":" ","MAREA":" ","LANE":"２８巷","ALLEY":"１弄","HOUSE_NO":"１３號","E_COORD97":176087.76000000001,"N_COORD97":2540374.25,"ADDRESS":"民生八街２８巷１弄１３號","OBJECTID":79365},"geometry":{"x":176087.76000000071,"y":2540374.2499999981}},{"attributes":{"ID":79366,"DIS_CODE":0,"TOWNNAME":"歸仁區","LI":"歸南里","LIN":"19鄰","STREET":"民生八街","SECT":" ","MAREA":" ","LANE":"２８巷","ALLEY":"１弄","HOUSE_NO":"２５號","E_COORD97":176062.16,"N_COORD97":2540374.25,"ADDRESS":"民生八街２８巷１弄２５號","OBJECTID":79366},"geometry":{"x":176062.16000000015,"y":2540374.2499999981}},{"attributes":{"ID":79367,"DIS_CODE":0,"TOWNNAME":"歸仁區","LI":"歸南里","LIN":"19鄰","STREET":"民生八街","SECT":" ","MAREA":" ","LANE":"２８巷","ALLEY":"１弄","HOUSE_NO":"１號","E_COORD97":176112.20999999999,"N_COORD97":2540374.25,"ADDRESS":"民生八街２８巷１弄１號","OBJECTID":79367},"geometry":{"x":176112.21000000089,"y":2540374.2499999981}},{"attributes":{"ID":79368,"DIS_CODE":0,"TOWNNAME":"歸仁區","LI":"歸南里","LIN":"19鄰","STREET":"民生八街","SECT":" ","MAREA":" ","LANE":"２８巷","ALLEY":"１弄","HOUSE_NO":"４９號","E_COORD97":176010.95999999999,"N_COORD97":2540378.25,"ADDRESS":"民生八街２８巷１弄４９號","OBJECTID":79368},"geometry":{"x":176010.95999999996,"y":2540378.2500000019}},{"attributes":{"ID":79369,"DIS_CODE":0,"TOWNNAME":"歸仁區","LI":"歸南里","LIN":"19鄰","STREET":"民生八街","SECT":" ","MAREA":" ","LANE":"２８巷","ALLEY":"１弄","HOUSE_NO":"４７號","E_COORD97":176014.95999999999,"N_COORD97":2540377.25,"ADDRESS":"民生八街２８巷１弄４７號","OBJECTID":79369},"geometry":{"x":176014.96000000089,"y":2540377.25}},{"attributes":{"ID":79370,"DIS_CODE":0,"TOWNNAME":"歸仁區","LI":"歸南里","LIN":"19鄰","STREET":"民生八街","SECT":" ","MAREA":" ","LANE":"２８巷","ALLEY":"１弄","HOUSE_NO":"３７號","E_COORD97":176036.56,"N_COORD97":2540377.25,"ADDRESS":"民生八街２８巷１弄３７號","OBJECTID":79370},"geometry":{"x":176036.56000000052,"y":2540377.25}},{"attributes":{"ID":79371,"DIS_CODE":0,"TOWNNAME":"歸仁區","LI":"歸南里","LIN":"19鄰","STREET":"民生八街","SECT":" ","MAREA":" ","LANE":"２８巷","ALLEY":"１弄","HOUSE_NO":"４３號","E_COORD97":176023.26000000001,"N_COORD97":2540377.25,"ADDRESS":"民生八街２８巷１弄４３號","OBJECTID":79371},"geometry":{"x":176023.26000000071,"y":2540377.25}},{"attributes":{"ID":79372,"DIS_CODE":0,"TOWNNAME":"歸仁區","LI":"歸南里","LIN":"19鄰","STREET":"民生八街","SECT":" ","MAREA":" ","LANE":"２８巷","ALLEY":"１弄","HOUSE_NO":"５５號","E_COORD97":175997.56,"N_COORD97":2540377.25,"ADDRESS":"民生八街２８巷１弄５５號","OBJECTID":79372},"geometry":{"x":175997.56000000052,"y":2540377.25}},{"attributes":{"ID":79373,"DIS_CODE":0,"TOWNNAME":"中西區","LI":"大南里","LIN":"7鄰","STREET":"南門路","SECT":" ","MAREA":" ","LANE":" ","ALLEY":" ","HOUSE_NO":"４６號之１","E_COORD97":168392.47,"N_COORD97":2542896.29,"ADDRESS":"南門路４６號之１","OBJECTID":79373},"geometry":{"x":168392.46999999974,"y":2542896.290000001}},{"attributes":{"ID":79374,"DIS_CODE":0,"TOWNNAME":"中西區","LI":"大南里","LIN":"7鄰","STREET":"南門路","SECT":" ","MAREA":" ","LANE":" ","ALLEY":" ","HOUSE_NO":"４６號之１０","E_COORD97":168389.67999999999,"N_COORD97":2542852.5899999999,"ADDRESS":"南門路４６號之１０","OBJECTID":79374},"geometry":{"x":168389.67999999877,"y":2542852.5899999999}},{"attributes":{"ID":79375,"DIS_CODE":0,"TOWNNAME":"新市區","LI":"大社里","LIN":"33鄰","STREET":" ","SECT":" ","MAREA":"大社","LANE":" ","ALLEY":" ","HOUSE_NO":"４０８之９０號","E_COORD97":180143.23999999999,"N_COORD97":2554758.6800000002,"ADDRESS":"大社４０８之９０號","OBJECTID":79375},"geometry":{"x":180143.24000000115,"y":2554758.6799999997}},{"attributes":{"ID":79376,"DIS_CODE":0,"TOWNNAME":"新市區","LI":"大社里","LIN":"33鄰","STREET":" ","SECT":" ","MAREA":"大社","LANE":" ","ALLEY":" ","HOUSE_NO":"４０８之７９號","E_COORD97":180148.29000000001,"N_COORD97":2554782.4300000002,"ADDRESS":"大社４０８之７９號","OBJECTID":79376},"geometry":{"x":180148.29000000004,"y":2554782.4300000016}},{"attributes":{"ID":79377,"DIS_CODE":0,"TOWNNAME":"歸仁區","LI":"歸南里","LIN":"19鄰","STREET":"民生八街","SECT":" ","MAREA":" ","LANE":"２８巷","ALLEY":"１弄","HOUSE_NO":"５１號","E_COORD97":176006.76000000001,"N_COORD97":2540377.25,"ADDRESS":"民生八街２８巷１弄５１號","OBJECTID":79377},"geometry":{"x":176006.75999999978,"y":2540377.25}},{"attributes":{"ID":79378,"DIS_CODE":0,"TOWNNAME":"歸仁區","LI":"歸南里","LIN":"19鄰","STREET":"民生八街","SECT":" ","MAREA":" ","LANE":"２８巷","ALLEY":"１弄","HOUSE_NO":"５７號","E_COORD97":176005.34,"N_COORD97":2540379.29,"ADDRESS":"民生八街２８巷１弄５７號","OBJECTID":79378},"geometry":{"x":176005.34000000171,"y":2540379.2899999991}},{"attributes":{"ID":79379,"DIS_CODE":0,"TOWNNAME":"新市區","LI":"大社里","LIN":"33鄰","STREET":" ","SECT":" ","MAREA":"大社","LANE":" ","ALLEY":" ","HOUSE_NO":"４０８之７３號","E_COORD97":180176.29000000001,"N_COORD97":2554781.4300000002,"ADDRESS":"大社４０８之７３號","OBJECTID":79379},"geometry":{"x":180176.29000000097,"y":2554781.4299999997}},{"attributes":{"ID":79380,"DIS_CODE":0,"TOWNNAME":"新市區","LI":"大社里","LIN":"33鄰","STREET":" ","SECT":" ","MAREA":"大社","LANE":" ","ALLEY":" ","HOUSE_NO":"４７９號","E_COORD97":180794.67999999999,"N_COORD97":2555355.75,"ADDRESS":"大社４７９號","OBJECTID":79380},"geometry":{"x":180794.6799999997,"y":2555355.75}},{"attributes":{"ID":79381,"DIS_CODE":0,"TOWNNAME":"新市區","LI":"永就里","LIN":"7鄰","STREET":" ","SECT":" ","MAREA":"永就","LANE":" ","ALLEY":" ","HOUSE_NO":"７２號","E_COORD97":177600.04000000001,"N_COORD97":2551449.5,"ADDRESS":"永就７２號","OBJECTID":79381},"geometry":{"x":177600.04000000097,"y":2551449.5000000019}},{"attributes":{"ID":79382,"DIS_CODE":0,"TOWNNAME":"新市區","LI":"大社里","LIN":"33鄰","STREET":" ","SECT":" ","MAREA":"大社","LANE":" ","ALLEY":" ","HOUSE_NO":"４０８之６３號","E_COORD97":180162.44,"N_COORD97":2554797.9300000002,"ADDRESS":"大社４０８之６３號","OBJECTID":79382},"geometry":{"x":180162.44000000134,"y":2554797.9299999997}},{"attributes":{"ID":79383,"DIS_CODE":0,"TOWNNAME":"學甲區","LI":"三慶里","LIN":"33鄰","STREET":" ","SECT":" ","MAREA":"新芳","LANE":" ","ALLEY":" ","HOUSE_NO":"９２號之１","E_COORD97":165570.04000000001,"N_COORD97":2575446.3599999999,"ADDRESS":"新芳９２號之１","OBJECTID":79383},"geometry":{"x":165570.04000000004,"y":2575446.3599999975}},{"attributes":{"ID":79384,"DIS_CODE":0,"TOWNNAME":"學甲區","LI":"三慶里","LIN":"33鄰","STREET":" ","SECT":" ","MAREA":"新芳","LANE":" ","ALLEY":" ","HOUSE_NO":"９２號之２０","E_COORD97":166369.01000000001,"N_COORD97":2575454.73,"ADDRESS":"新芳９２號之２０","OBJECTID":79384},"geometry":{"x":166369.01000000071,"y":2575454.7300000004}},{"attributes":{"ID":79385,"DIS_CODE":0,"TOWNNAME":"學甲區","LI":"三慶里","LIN":"33鄰","STREET":" ","SECT":" ","MAREA":"新芳","LANE":" ","ALLEY":" ","HOUSE_NO":"９２號之２８","E_COORD97":166389.64000000001,"N_COORD97":2575601.0099999998,"ADDRESS":"新芳９２號之２８","OBJECTID":79385},"geometry":{"x":166389.64000000153,"y":2575601.0099999998}},{"attributes":{"ID":79386,"DIS_CODE":0,"TOWNNAME":"學甲區","LI":"三慶里","LIN":"33鄰","STREET":" ","SECT":" ","MAREA":"新芳","LANE":" ","ALLEY":" ","HOUSE_NO":"９３號之１","E_COORD97":165506.94,"N_COORD97":2575446.3399999999,"ADDRESS":"新芳９３號之１","OBJECTID":79386},"geometry":{"x":165506.94000000227,"y":2575446.3399999999}},{"attributes":{"ID":79387,"DIS_CODE":0,"TOWNNAME":"學甲區","LI":"三慶里","LIN":"33鄰","STREET":" ","SECT":" ","MAREA":"新芳","LANE":" ","ALLEY":" ","HOUSE_NO":"９３號之２","E_COORD97":165528.42999999999,"N_COORD97":2575451.9399999999,"ADDRESS":"新芳９３號之２","OBJECTID":79387},"geometry":{"x":165528.43000000063,"y":2575451.9399999995}},{"attributes":{"ID":79388,"DIS_CODE":0,"TOWNNAME":"學甲區","LI":"三慶里","LIN":"33鄰","STREET":" ","SECT":" ","MAREA":"新芳","LANE":" ","ALLEY":" ","HOUSE_NO":"９３號","E_COORD97":165511.34,"N_COORD97":2575444.5899999999,"ADDRESS":"新芳９３號","OBJECTID":79388},"geometry":{"x":165511.33999999985,"y":2575444.5899999999}},{"attributes":{"ID":79389,"DIS_CODE":0,"TOWNNAME":"學甲區","LI":"三慶里","LIN":"33鄰","STREET":" ","SECT":" ","MAREA":"新芳","LANE":" ","ALLEY":" ","HOUSE_NO":"９４號","E_COORD97":165467.82000000001,"N_COORD97":2575492.4100000001,"ADDRESS":"新芳９４號","OBJECTID":79389},"geometry":{"x":165467.8200000003,"y":2575492.410000002}},{"attributes":{"ID":79390,"DIS_CODE":0,"TOWNNAME":"學甲區","LI":"三慶里","LIN":"33鄰","STREET":" ","SECT":" ","MAREA":"新芳","LANE":" ","ALLEY":" ","HOUSE_NO":"９５號","E_COORD97":165437.10000000001,"N_COORD97":2575494.4199999999,"ADDRESS":"新芳９５號","OBJECTID":79390},"geometry":{"x":165437.0999999987,"y":2575494.4200000037}},{"attributes":{"ID":79391,"DIS_CODE":0,"TOWNNAME":"學甲區","LI":"三慶里","LIN":"33鄰","STREET":" ","SECT":" ","MAREA":"新芳","LANE":" ","ALLEY":" ","HOUSE_NO":"９６號","E_COORD97":165433.82999999999,"N_COORD97":2575477.1099999999,"ADDRESS":"新芳９６號","OBJECTID":79391},"geometry":{"x":165433.83000000007,"y":2575477.1099999994}},{"attributes":{"ID":79392,"DIS_CODE":0,"TOWNNAME":"學甲區","LI":"三慶里","LIN":"33鄰","STREET":" ","SECT":" ","MAREA":"新芳","LANE":" ","ALLEY":" ","HOUSE_NO":"９７號","E_COORD97":165409.60999999999,"N_COORD97":2575475.25,"ADDRESS":"新芳９７號","OBJECTID":79392},"geometry":{"x":165409.61000000127,"y":2575475.2500000037}},{"attributes":{"ID":79393,"DIS_CODE":0,"TOWNNAME":"學甲區","LI":"三慶里","LIN":"33鄰","STREET":" ","SECT":" ","MAREA":"新芳","LANE":" ","ALLEY":" ","HOUSE_NO":"９８號","E_COORD97":165413.91,"N_COORD97":2575484.3700000001,"ADDRESS":"新芳９８號","OBJECTID":79393},"geometry":{"x":165413.91000000108,"y":2575484.370000001}},{"attributes":{"ID":79394,"DIS_CODE":0,"TOWNNAME":"學甲區","LI":"三慶里","LIN":"33鄰","STREET":" ","SECT":" ","MAREA":"新芳","LANE":" ","ALLEY":" ","HOUSE_NO":"９９號","E_COORD97":165414.79000000001,"N_COORD97":2575501.8700000001,"ADDRESS":"新芳９９號","OBJECTID":79394},"geometry":{"x":165414.79000000097,"y":2575501.870000001}},{"attributes":{"ID":79395,"DIS_CODE":0,"TOWNNAME":"學甲區","LI":"秀昌里","LIN":"33鄰","STREET":" ","SECT":" ","MAREA":"煥昌","LANE":" ","ALLEY":" ","HOUSE_NO":"１００號之１１","E_COORD97":166188.51000000001,"N_COORD97":2571033.3700000001,"ADDRESS":"煥昌１００號之１１","OBJECTID":79395},"geometry":{"x":166188.50999999978,"y":2571033.370000001}},{"attributes":{"ID":79396,"DIS_CODE":0,"TOWNNAME":"學甲區","LI":"秀昌里","LIN":"33鄰","STREET":" ","SECT":" ","MAREA":"煥昌","LANE":" ","ALLEY":" ","HOUSE_NO":"１００號之１２","E_COORD97":166188.95000000001,"N_COORD97":2571040.3399999999,"ADDRESS":"煥昌１００號之１２","OBJECTID":79396},"geometry":{"x":166188.95000000019,"y":2571040.3400000017}},{"attributes":{"ID":79397,"DIS_CODE":0,"TOWNNAME":"學甲區","LI":"秀昌里","LIN":"33鄰","STREET":" ","SECT":" ","MAREA":"煥昌","LANE":" ","ALLEY":" ","HOUSE_NO":"１００號之１３","E_COORD97":166203.29999999999,"N_COORD97":2571046.3100000001,"ADDRESS":"煥昌１００號之１３","OBJECTID":79397},"geometry":{"x":166203.29999999981,"y":2571046.3100000005}},{"attributes":{"ID":79398,"DIS_CODE":0,"TOWNNAME":"北區","LI":"元寶里","LIN":"19鄰","STREET":"開元路","SECT":" ","MAREA":" ","LANE":"４８５巷","ALLEY":"４１弄","HOUSE_NO":"６之１號","E_COORD97":170506.10000000001,"N_COORD97":2545794.8900000001,"ADDRESS":"開元路４８５巷４１弄６之１號","OBJECTID":79398},"geometry":{"x":170506.10000000056,"y":2545794.8900000006}},{"attributes":{"ID":79399,"DIS_CODE":0,"TOWNNAME":"北區","LI":"元寶里","LIN":"19鄰","STREET":"開元路","SECT":" ","MAREA":" ","LANE":"４８５巷","ALLEY":"４１弄","HOUSE_NO":"８之１號","E_COORD97":170488.60999999999,"N_COORD97":2545793.1400000001,"ADDRESS":"開元路４８５巷４１弄８之１號","OBJECTID":79399},"geometry":{"x":170488.61000000127,"y":2545793.1400000006}},{"attributes":{"ID":79400,"DIS_CODE":0,"TOWNNAME":"安平區","LI":"西門里","LIN":"19鄰","STREET":"安平路","SECT":" ","MAREA":" ","LANE":"９９０巷","ALLEY":"２１弄","HOUSE_NO":"１０號","E_COORD97":163228.87,"N_COORD97":2544501.1400000001,"ADDRESS":"安平路９９０巷２１弄１０號","OBJECTID":79400},"geometry":{"x":163228.87000000197,"y":2544501.1400000006}}]}