{"displayFieldName":"TOWNNAME","fieldAliases":{"ID":"ID","DIS_CODE":"DIS_CODE","TOWNNAME":"TOWNNAME","LI":"LI","LIN":"LIN","STREET":"STREET","SECT":"SECT","MAREA":"MAREA","LANE":"LANE","ALLEY":"ALLEY","HOUSE_NO":"HOUSE_NO","E_COORD97":"E_COORD97","N_COORD97":"N_COORD97","ADDRESS":"ADDRESS","OBJECTID":"OBJECTID"},"geometryType":"esriGeometryPoint","spatialReference":{"wkid":102443,"latestWkid":3826},"fields":[{"name":"ID","type":"esriFieldTypeDouble","alias":"ID"},{"name":"DIS_CODE","type":"esriFieldTypeInteger","alias":"DIS_CODE"},{"name":"TOWNNAME","type":"esriFieldTypeString","alias":"TOWNNAME","length":8},{"name":"LI","type":"esriFieldTypeString","alias":"LI","length":8},{"name":"LIN","type":"esriFieldTypeString","alias":"LIN","length":12},{"name":"STREET","type":"esriFieldTypeString","alias":"STREET","length":20},{"name":"SECT","type":"esriFieldTypeString","alias":"SECT","length":8},{"name":"MAREA","type":"esriFieldTypeString","alias":"MAREA","length":12},{"name":"LANE","type":"esriFieldTypeString","alias":"LANE","length":10},{"name":"ALLEY","type":"esriFieldTypeString","alias":"ALLEY","length":10},{"name":"HOUSE_NO","type":"esriFieldTypeString","alias":"HOUSE_NO","length":20},{"name":"E_COORD97","type":"esriFieldTypeDouble","alias":"E_COORD97"},{"name":"N_COORD97","type":"esriFieldTypeDouble","alias":"N_COORD97"},{"name":"ADDRESS","type":"esriFieldTypeString","alias":"ADDRESS","length":50},{"name":"OBJECTID","type":"esriFieldTypeOID","alias":"OBJECTID"}],"features":[{"attributes":{"ID":4401,"DIS_CODE":0,"TOWNNAME":"南區","LI":"建南里","LIN":"9鄰","STREET":"興隆路","SECT":" ","MAREA":" ","LANE":" ","ALLEY":" ","HOUSE_NO":"２７８號","E_COORD97":166905.72425299999,"N_COORD97":2539975.80798,"ADDRESS":"興隆路２７８號","OBJECTID":4401},"geometry":{"x":166905.72425299883,"y":2539975.8079780005}},{"attributes":{"ID":4402,"DIS_CODE":0,"TOWNNAME":"仁德區","LI":"後壁里","LIN":"12鄰","STREET":"德南路","SECT":" ","MAREA":" ","LANE":"２５１巷","ALLEY":"６７弄","HOUSE_NO":"８號","E_COORD97":173893.333232,"N_COORD97":2538555.17264,"ADDRESS":"德南路２５１巷６７弄８號","OBJECTID":4402},"geometry":{"x":173893.3332320014,"y":2538555.1726379991}},{"attributes":{"ID":4403,"DIS_CODE":0,"TOWNNAME":"南區","LI":"建南里","LIN":"9鄰","STREET":"興隆路","SECT":" ","MAREA":" ","LANE":" ","ALLEY":" ","HOUSE_NO":"２８０號","E_COORD97":166896.76650100001,"N_COORD97":2539974.7088899999,"ADDRESS":"興隆路２８０號","OBJECTID":4403},"geometry":{"x":166896.76650100015,"y":2539974.7088920008}},{"attributes":{"ID":4404,"DIS_CODE":0,"TOWNNAME":"安南區","LI":"州南里","LIN":"19鄰","STREET":"大聖一街","SECT":" ","MAREA":" ","LANE":"１０１巷","ALLEY":" ","HOUSE_NO":"１號","E_COORD97":170125.39582100001,"N_COORD97":2551101.0020400002,"ADDRESS":"大聖一街１０１巷１號","OBJECTID":4404},"geometry":{"x":170125.39582100231,"y":2551101.0020420011}},{"attributes":{"ID":4405,"DIS_CODE":0,"TOWNNAME":"仁德區","LI":"後壁里","LIN":"12鄰","STREET":"德南路","SECT":" ","MAREA":" ","LANE":"２５１巷","ALLEY":"６７弄","HOUSE_NO":"１０號","E_COORD97":173895.027661,"N_COORD97":2538559.1943000001,"ADDRESS":"德南路２５１巷６７弄１０號","OBJECTID":4405},"geometry":{"x":173895.02766100038,"y":2538559.1943030003}},{"attributes":{"ID":4406,"DIS_CODE":0,"TOWNNAME":"仁德區","LI":"後壁里","LIN":"12鄰","STREET":"德南路","SECT":" ","MAREA":" ","LANE":"２５１巷","ALLEY":"６７弄","HOUSE_NO":"１２號","E_COORD97":173898.204715,"N_COORD97":2538561.7343000001,"ADDRESS":"德南路２５１巷６７弄１２號","OBJECTID":4406},"geometry":{"x":173898.20471500233,"y":2538561.7343019992}},{"attributes":{"ID":4407,"DIS_CODE":0,"TOWNNAME":"南區","LI":"建南里","LIN":"9鄰","STREET":"興隆路","SECT":" ","MAREA":" ","LANE":" ","ALLEY":" ","HOUSE_NO":"２８２號","E_COORD97":166887.802925,"N_COORD97":2539976.3178099999,"ADDRESS":"興隆路２８２號","OBJECTID":4407},"geometry":{"x":166887.8029250009,"y":2539976.3178080022}},{"attributes":{"ID":4408,"DIS_CODE":0,"TOWNNAME":"仁德區","LI":"後壁里","LIN":"12鄰","STREET":"德南路","SECT":" ","MAREA":" ","LANE":"２５１巷","ALLEY":"６７弄","HOUSE_NO":"１６號","E_COORD97":173901.16996500001,"N_COORD97":2538564.9092999999,"ADDRESS":"德南路２５１巷６７弄１６號","OBJECTID":4408},"geometry":{"x":173901.16996500082,"y":2538564.9092999995}},{"attributes":{"ID":4409,"DIS_CODE":0,"TOWNNAME":"新營區","LI":"王公里","LIN":"20鄰","STREET":"樂利街","SECT":" ","MAREA":" ","LANE":" ","ALLEY":" ","HOUSE_NO":"５２號","E_COORD97":180472.369061,"N_COORD97":2579260.82437,"ADDRESS":"樂利街５２號","OBJECTID":4409},"geometry":{"x":180472.36906100065,"y":2579260.824368}},{"attributes":{"ID":4410,"DIS_CODE":0,"TOWNNAME":"仁德區","LI":"後壁里","LIN":"12鄰","STREET":"德南路","SECT":" ","MAREA":" ","LANE":"２５１巷","ALLEY":"６７弄","HOUSE_NO":"１８號","E_COORD97":173903.71160899999,"N_COORD97":2538568.5076299999,"ADDRESS":"德南路２５１巷６７弄１８號","OBJECTID":4410},"geometry":{"x":173903.71160900127,"y":2538568.507631002}},{"attributes":{"ID":4411,"DIS_CODE":0,"TOWNNAME":"南區","LI":"建南里","LIN":"9鄰","STREET":"興隆路","SECT":" ","MAREA":" ","LANE":" ","ALLEY":" ","HOUSE_NO":"２８６號","E_COORD97":166879.638182,"N_COORD97":2539976.3679200001,"ADDRESS":"興隆路２８６號","OBJECTID":4411},"geometry":{"x":166879.63818199933,"y":2539976.3679169994}},{"attributes":{"ID":4412,"DIS_CODE":0,"TOWNNAME":"南區","LI":"建南里","LIN":"9鄰","STREET":"興隆路","SECT":" ","MAREA":" ","LANE":" ","ALLEY":" ","HOUSE_NO":"２８８號","E_COORD97":166874.19945799999,"N_COORD97":2539976.8064299999,"ADDRESS":"興隆路２８８號","OBJECTID":4412},"geometry":{"x":166874.19945800025,"y":2539976.8064290024}},{"attributes":{"ID":4413,"DIS_CODE":0,"TOWNNAME":"新營區","LI":"王公里","LIN":"20鄰","STREET":"樂利街","SECT":" ","MAREA":" ","LANE":" ","ALLEY":" ","HOUSE_NO":"５４號","E_COORD97":180476.39482300001,"N_COORD97":2579261.4593699998,"ADDRESS":"樂利街５４號","OBJECTID":4413},"geometry":{"x":180476.39482300077,"y":2579261.4593670014}},{"attributes":{"ID":4414,"DIS_CODE":0,"TOWNNAME":"新營區","LI":"王公里","LIN":"20鄰","STREET":"樂利街","SECT":" ","MAREA":" ","LANE":" ","ALLEY":" ","HOUSE_NO":"５６號","E_COORD97":180481.26811400001,"N_COORD97":2579260.82437,"ADDRESS":"樂利街５６號","OBJECTID":4414},"geometry":{"x":180481.26811399963,"y":2579260.824368}},{"attributes":{"ID":4415,"DIS_CODE":0,"TOWNNAME":"仁德區","LI":"後壁里","LIN":"12鄰","STREET":"德南路","SECT":" ","MAREA":" ","LANE":"２５１巷","ALLEY":" ","HOUSE_NO":"６９號","E_COORD97":173894.18044699999,"N_COORD97":2538529.34932,"ADDRESS":"德南路２５１巷６９號","OBJECTID":4415},"geometry":{"x":173894.18044700194,"y":2538529.3493190017}},{"attributes":{"ID":4416,"DIS_CODE":0,"TOWNNAME":"南區","LI":"建南里","LIN":"9鄰","STREET":"興隆路","SECT":" ","MAREA":" ","LANE":" ","ALLEY":" ","HOUSE_NO":"２９０號","E_COORD97":166868.30639799999,"N_COORD97":2539976.2159299999,"ADDRESS":"興隆路２９０號","OBJECTID":4416},"geometry":{"x":166868.30639799871,"y":2539976.2159250006}},{"attributes":{"ID":4417,"DIS_CODE":0,"TOWNNAME":"新營區","LI":"王公里","LIN":"20鄰","STREET":"樂利街","SECT":" ","MAREA":" ","LANE":" ","ALLEY":" ","HOUSE_NO":"５８號","E_COORD97":180485.29387600001,"N_COORD97":2579260.6126999999,"ADDRESS":"樂利街５８號","OBJECTID":4417},"geometry":{"x":180485.29387599975,"y":2579260.6127010044}},{"attributes":{"ID":4418,"DIS_CODE":0,"TOWNNAME":"仁德區","LI":"後壁里","LIN":"12鄰","STREET":"德南路","SECT":" ","MAREA":" ","LANE":"２５１巷","ALLEY":" ","HOUSE_NO":"７１號","E_COORD97":173900.11094700001,"N_COORD97":2538530.40765,"ADDRESS":"德南路２５１巷７１號","OBJECTID":4418},"geometry":{"x":173900.11094699986,"y":2538530.407652}},{"attributes":{"ID":4419,"DIS_CODE":0,"TOWNNAME":"南區","LI":"建南里","LIN":"9鄰","STREET":"興隆路","SECT":" ","MAREA":" ","LANE":" ","ALLEY":" ","HOUSE_NO":"２９２號","E_COORD97":166862.51194299999,"N_COORD97":2539976.5442400002,"ADDRESS":"興隆路２９２號","OBJECTID":4419},"geometry":{"x":166862.51194300037,"y":2539976.5442370009}},{"attributes":{"ID":4420,"DIS_CODE":0,"TOWNNAME":"新營區","LI":"王公里","LIN":"20鄰","STREET":"樂利街","SECT":" ","MAREA":" ","LANE":" ","ALLEY":" ","HOUSE_NO":"６０號","E_COORD97":180489.955285,"N_COORD97":2579260.4010399999,"ADDRESS":"樂利街６０號","OBJECTID":4420},"geometry":{"x":180489.95528500061,"y":2579260.4010350015}},{"attributes":{"ID":4421,"DIS_CODE":0,"TOWNNAME":"仁德區","LI":"後壁里","LIN":"12鄰","STREET":"德南路","SECT":" ","MAREA":" ","LANE":"２５１巷","ALLEY":" ","HOUSE_NO":"７３號","E_COORD97":173903.923412,"N_COORD97":2538532.1009800001,"ADDRESS":"德南路２５１巷７３號","OBJECTID":4421},"geometry":{"x":173903.92341199983,"y":2538532.1009840015}},{"attributes":{"ID":4422,"DIS_CODE":0,"TOWNNAME":"南區","LI":"建南里","LIN":"9鄰","STREET":"興隆路","SECT":" ","MAREA":" ","LANE":" ","ALLEY":" ","HOUSE_NO":"２９６號","E_COORD97":166857.254205,"N_COORD97":2539977.3295700001,"ADDRESS":"興隆路２９６號","OBJECTID":4422},"geometry":{"x":166857.25420500059,"y":2539977.329566}},{"attributes":{"ID":4423,"DIS_CODE":0,"TOWNNAME":"安定區","LI":"海寮里","LIN":"11鄰","STREET":" ","SECT":" ","MAREA":"海寮","LANE":" ","ALLEY":" ","HOUSE_NO":"１１２號","E_COORD97":169135.954145,"N_COORD97":2555232.6516999998,"ADDRESS":"海寮１１２號","OBJECTID":4423},"geometry":{"x":169135.95414500032,"y":2555232.6517020017}},{"attributes":{"ID":4424,"DIS_CODE":0,"TOWNNAME":"南區","LI":"建南里","LIN":"9鄰","STREET":"興隆路","SECT":" ","MAREA":" ","LANE":" ","ALLEY":" ","HOUSE_NO":"２９８號","E_COORD97":166851.10131500001,"N_COORD97":2539977.5913399998,"ADDRESS":"興隆路２９８號","OBJECTID":4424},"geometry":{"x":166851.10131500103,"y":2539977.591342004}},{"attributes":{"ID":4425,"DIS_CODE":0,"TOWNNAME":"歸仁區","LI":"沙崙里","LIN":"8鄰","STREET":"沙崙","SECT":" ","MAREA":" ","LANE":" ","ALLEY":" ","HOUSE_NO":"２３９號","E_COORD97":179312.48824199999,"N_COORD97":2537846.6759299999,"ADDRESS":"沙崙２３９號","OBJECTID":4425},"geometry":{"x":179312.48824200034,"y":2537846.6759330016}},{"attributes":{"ID":4426,"DIS_CODE":0,"TOWNNAME":"仁德區","LI":"後壁里","LIN":"12鄰","STREET":"德南路","SECT":" ","MAREA":" ","LANE":"２５１巷","ALLEY":" ","HOUSE_NO":"７５號","E_COORD97":173907.94768099999,"N_COORD97":2538533.5826500002,"ADDRESS":"德南路２５１巷７５號","OBJECTID":4426},"geometry":{"x":173907.94768100139,"y":2538533.582650004}},{"attributes":{"ID":4427,"DIS_CODE":0,"TOWNNAME":"南區","LI":"建南里","LIN":"9鄰","STREET":"興隆路","SECT":" ","MAREA":" ","LANE":" ","ALLEY":" ","HOUSE_NO":"３００號","E_COORD97":166845.450817,"N_COORD97":2539978.02985,"ADDRESS":"興隆路３００號","OBJECTID":4427},"geometry":{"x":166845.45081700105,"y":2539978.0298530031}},{"attributes":{"ID":4428,"DIS_CODE":0,"TOWNNAME":"仁德區","LI":"後壁里","LIN":"12鄰","STREET":"德南路","SECT":" ","MAREA":" ","LANE":"２５１巷","ALLEY":" ","HOUSE_NO":"７７號","E_COORD97":173911.76014500001,"N_COORD97":2538534.8526499998,"ADDRESS":"德南路２５１巷７７號","OBJECTID":4428},"geometry":{"x":173911.76014499925,"y":2538534.8526489995}},{"attributes":{"ID":4429,"DIS_CODE":0,"TOWNNAME":"新營區","LI":"王公里","LIN":"20鄰","STREET":"樂利街","SECT":" ","MAREA":" ","LANE":" ","ALLEY":" ","HOUSE_NO":"６２號","E_COORD97":180493.98104799999,"N_COORD97":2579260.82437,"ADDRESS":"樂利街６２號","OBJECTID":4429},"geometry":{"x":180493.98104800098,"y":2579260.824368}},{"attributes":{"ID":4430,"DIS_CODE":0,"TOWNNAME":"安南區","LI":"州南里","LIN":"19鄰","STREET":"大聖二街","SECT":" ","MAREA":" ","LANE":" ","ALLEY":" ","HOUSE_NO":"６號","E_COORD97":170146.82607099999,"N_COORD97":2551059.6902700001,"ADDRESS":"大聖二街６號","OBJECTID":4430},"geometry":{"x":170146.82607100159,"y":2551059.6902699992}},{"attributes":{"ID":4431,"DIS_CODE":0,"TOWNNAME":"安南區","LI":"\u25A0田里","LIN":"7鄰","STREET":"本田路","SECT":"二段","MAREA":" ","LANE":" ","ALLEY":" ","HOUSE_NO":"５０２號","E_COORD97":163515.33595000001,"N_COORD97":2548761.2733300002,"ADDRESS":"本田路二段５０２號","OBJECTID":4431},"geometry":{"x":163515.33595000207,"y":2548761.2733260021}},{"attributes":{"ID":4432,"DIS_CODE":0,"TOWNNAME":"仁德區","LI":"後壁里","LIN":"12鄰","STREET":"德南路","SECT":" ","MAREA":" ","LANE":"２５１巷","ALLEY":" ","HOUSE_NO":"７９號","E_COORD97":173915.57261,"N_COORD97":2538537.1809800002,"ADDRESS":"德南路２５１巷７９號","OBJECTID":4432},"geometry":{"x":173915.57261000201,"y":2538537.1809810009}},{"attributes":{"ID":4433,"DIS_CODE":0,"TOWNNAME":"新營區","LI":"王公里","LIN":"20鄰","STREET":"樂利街","SECT":" ","MAREA":" ","LANE":" ","ALLEY":" ","HOUSE_NO":"６４號","E_COORD97":180499.27810299999,"N_COORD97":2579260.82437,"ADDRESS":"樂利街６４號","OBJECTID":4433},"geometry":{"x":180499.27810300048,"y":2579260.824368}},{"attributes":{"ID":4434,"DIS_CODE":0,"TOWNNAME":"安南區","LI":"州南里","LIN":"19鄰","STREET":"大聖一街","SECT":" ","MAREA":" ","LANE":"５０巷","ALLEY":" ","HOUSE_NO":"４５號","E_COORD97":170230.20367799999,"N_COORD97":2550882.9854899999,"ADDRESS":"大聖一街５０巷４５號","OBJECTID":4434},"geometry":{"x":170230.20367800165,"y":2550882.9854930025}},{"attributes":{"ID":4435,"DIS_CODE":0,"TOWNNAME":"新營區","LI":"王公里","LIN":"20鄰","STREET":"樂利街","SECT":" ","MAREA":" ","LANE":" ","ALLEY":" ","HOUSE_NO":"２２號","E_COORD97":180403.71922100001,"N_COORD97":2579258.0726999999,"ADDRESS":"樂利街２２號","OBJECTID":4435},"geometry":{"x":180403.71922100056,"y":2579258.0727030002}},{"attributes":{"ID":4436,"DIS_CODE":0,"TOWNNAME":"安南區","LI":"\u25A0田里","LIN":"7鄰","STREET":"本田路","SECT":"二段","MAREA":" ","LANE":" ","ALLEY":" ","HOUSE_NO":"４９８號","E_COORD97":163179.02627500001,"N_COORD97":2548515.5284600002,"ADDRESS":"本田路二段４９８號","OBJECTID":4436},"geometry":{"x":163179.0262749996,"y":2548515.5284589995}},{"attributes":{"ID":4437,"DIS_CODE":0,"TOWNNAME":"七股區","LI":"大埕里","LIN":"9鄰","STREET":" ","SECT":" ","MAREA":"大埕","LANE":" ","ALLEY":" ","HOUSE_NO":"２７２號之７","E_COORD97":162141.96647499999,"N_COORD97":2560420.12794,"ADDRESS":"大埕２７２號之７","OBJECTID":4437},"geometry":{"x":162141.9664750006,"y":2560420.1279390026}},{"attributes":{"ID":4438,"DIS_CODE":0,"TOWNNAME":"東山區","LI":"三榮里","LIN":"2鄰","STREET":" ","SECT":" ","MAREA":"許秀才","LANE":" ","ALLEY":" ","HOUSE_NO":"１１之５號","E_COORD97":187285.695301,"N_COORD97":2579401.2520900001,"ADDRESS":"許秀才１１之５號","OBJECTID":4438},"geometry":{"x":187285.69530100003,"y":2579401.2520890012}},{"attributes":{"ID":4439,"DIS_CODE":0,"TOWNNAME":"新營區","LI":"王公里","LIN":"20鄰","STREET":"樂利街","SECT":" ","MAREA":" ","LANE":" ","ALLEY":" ","HOUSE_NO":"２８號","E_COORD97":180418.97474100001,"N_COORD97":2579258.0726999999,"ADDRESS":"樂利街２８號","OBJECTID":4439},"geometry":{"x":180418.97474100161,"y":2579258.0727030002}},{"attributes":{"ID":4440,"DIS_CODE":0,"TOWNNAME":"安南區","LI":"\u25A0田里","LIN":"7鄰","STREET":"本田路","SECT":"二段","MAREA":" ","LANE":" ","ALLEY":" ","HOUSE_NO":"４９０號","E_COORD97":163067.73488,"N_COORD97":2548470.2318199999,"ADDRESS":"本田路二段４９０號","OBJECTID":4440},"geometry":{"x":163067.73488000128,"y":2548470.2318169996}},{"attributes":{"ID":4441,"DIS_CODE":0,"TOWNNAME":"新營區","LI":"王公里","LIN":"18鄰","STREET":"樂利街","SECT":" ","MAREA":" ","LANE":" ","ALLEY":" ","HOUSE_NO":"１１號","E_COORD97":180186.32806299999,"N_COORD97":2579268.3385299998,"ADDRESS":"樂利街１１號","OBJECTID":4441},"geometry":{"x":180186.32806299999,"y":2579268.338530004}},{"attributes":{"ID":4442,"DIS_CODE":0,"TOWNNAME":"東山區","LI":"東河里","LIN":"7鄰","STREET":" ","SECT":" ","MAREA":"吉貝耍","LANE":" ","ALLEY":" ","HOUSE_NO":"５３之１１號","E_COORD97":187499.925464,"N_COORD97":2577551.7097499999,"ADDRESS":"吉貝耍５３之１１號","OBJECTID":4442},"geometry":{"x":187499.92546400148,"y":2577551.7097539995}},{"attributes":{"ID":4443,"DIS_CODE":0,"TOWNNAME":"新營區","LI":"王公里","LIN":"18鄰","STREET":"樂利街","SECT":" ","MAREA":" ","LANE":" ","ALLEY":" ","HOUSE_NO":"２１號","E_COORD97":180208.99945999999,"N_COORD97":2579268.9735300001,"ADDRESS":"樂利街２１號","OBJECTID":4443},"geometry":{"x":180208.99945999961,"y":2579268.9735300038}},{"attributes":{"ID":4444,"DIS_CODE":0,"TOWNNAME":"新營區","LI":"王公里","LIN":"18鄰","STREET":"樂利街","SECT":" ","MAREA":" ","LANE":" ","ALLEY":" ","HOUSE_NO":"２３號","E_COORD97":180213.23710500001,"N_COORD97":2579268.76186,"ADDRESS":"樂利街２３號","OBJECTID":4444},"geometry":{"x":180213.23710499983,"y":2579268.7618630026}},{"attributes":{"ID":4445,"DIS_CODE":0,"TOWNNAME":"歸仁區","LI":"歸仁里","LIN":"17鄰","STREET":"信義北路","SECT":" ","MAREA":" ","LANE":"９６巷","ALLEY":" ","HOUSE_NO":"３６號","E_COORD97":178067.24002500001,"N_COORD97":2541013.23484,"ADDRESS":"信義北路９６巷３６號","OBJECTID":4445},"geometry":{"x":178067.24002500065,"y":2541013.2348439991}},{"attributes":{"ID":4446,"DIS_CODE":0,"TOWNNAME":"新營區","LI":"王公里","LIN":"18鄰","STREET":"樂利街","SECT":" ","MAREA":" ","LANE":" ","ALLEY":" ","HOUSE_NO":"２５號","E_COORD97":180217.26286700001,"N_COORD97":2579269.3968600002,"ADDRESS":"樂利街２５號","OBJECTID":4446},"geometry":{"x":180217.26286700089,"y":2579269.3968630023}},{"attributes":{"ID":4447,"DIS_CODE":0,"TOWNNAME":"新營區","LI":"王公里","LIN":"18鄰","STREET":"樂利街","SECT":" ","MAREA":" ","LANE":" ","ALLEY":" ","HOUSE_NO":"２７號","E_COORD97":180221.28862899999,"N_COORD97":2579270.2435300001,"ADDRESS":"樂利街２７號","OBJECTID":4447},"geometry":{"x":180221.28862900101,"y":2579270.2435289994}},{"attributes":{"ID":4448,"DIS_CODE":0,"TOWNNAME":"東山區","LI":"科里里","LIN":"13鄰","STREET":" ","SECT":" ","MAREA":"枋子林","LANE":" ","ALLEY":" ","HOUSE_NO":"１之１７號","E_COORD97":187700.382174,"N_COORD97":2576641.96691,"ADDRESS":"枋子林１之１７號","OBJECTID":4448},"geometry":{"x":187700.38217400108,"y":2576641.9669119995}},{"attributes":{"ID":4449,"DIS_CODE":0,"TOWNNAME":"新營區","LI":"王公里","LIN":"18鄰","STREET":"樂利街","SECT":" ","MAREA":" ","LANE":" ","ALLEY":" ","HOUSE_NO":"２９號","E_COORD97":180226.37380199999,"N_COORD97":2579270.6668600002,"ADDRESS":"樂利街２９號","OBJECTID":4449},"geometry":{"x":180226.37380200159,"y":2579270.6668620016}},{"attributes":{"ID":4450,"DIS_CODE":0,"TOWNNAME":"歸仁區","LI":"歸仁里","LIN":"17鄰","STREET":"信義北路","SECT":" ","MAREA":" ","LANE":"９６巷","ALLEY":" ","HOUSE_NO":"６６號","E_COORD97":178039.89478500001,"N_COORD97":2541003.49492,"ADDRESS":"信義北路９６巷６６號","OBJECTID":4450},"geometry":{"x":178039.89478500187,"y":2541003.4949150048}},{"attributes":{"ID":4451,"DIS_CODE":0,"TOWNNAME":"新營區","LI":"王公里","LIN":"18鄰","STREET":"樂利街","SECT":" ","MAREA":" ","LANE":" ","ALLEY":" ","HOUSE_NO":"３１號","E_COORD97":180231.03521100001,"N_COORD97":2579271.30186,"ADDRESS":"樂利街３１號","OBJECTID":4451},"geometry":{"x":180231.03521099966,"y":2579271.3018620014}},{"attributes":{"ID":4452,"DIS_CODE":0,"TOWNNAME":"安南區","LI":"州南里","LIN":"7鄰","STREET":"長和一街","SECT":" ","MAREA":" ","LANE":" ","ALLEY":" ","HOUSE_NO":"７號","E_COORD97":169587.593888,"N_COORD97":2551508.8834899999,"ADDRESS":"長和一街７號","OBJECTID":4452},"geometry":{"x":169587.59388800152,"y":2551508.8834880013}},{"attributes":{"ID":4453,"DIS_CODE":0,"TOWNNAME":"東山區","LI":"科里里","LIN":"13鄰","STREET":" ","SECT":" ","MAREA":"枋子林","LANE":" ","ALLEY":" ","HOUSE_NO":"１之１８號","E_COORD97":188032.85213000001,"N_COORD97":2576574.6569500002,"ADDRESS":"枋子林１之１８號","OBJECTID":4453},"geometry":{"x":188032.85213000048,"y":2576574.6569480021}},{"attributes":{"ID":4454,"DIS_CODE":0,"TOWNNAME":"新營區","LI":"王公里","LIN":"18鄰","STREET":"樂利街","SECT":" ","MAREA":" ","LANE":" ","ALLEY":" ","HOUSE_NO":"３３號","E_COORD97":180239.086736,"N_COORD97":2579271.0902,"ADDRESS":"樂利街３３號","OBJECTID":4454},"geometry":{"x":180239.08673600107,"y":2579271.0901960004}},{"attributes":{"ID":4455,"DIS_CODE":0,"TOWNNAME":"歸仁區","LI":"歸仁里","LIN":"17鄰","STREET":"信義北路","SECT":" ","MAREA":" ","LANE":"９６巷","ALLEY":" ","HOUSE_NO":"５０號","E_COORD97":178063.792147,"N_COORD97":2541010.6216899999,"ADDRESS":"信義北路９６巷５０號","OBJECTID":4455},"geometry":{"x":178063.79214700032,"y":2541010.6216930002}},{"attributes":{"ID":4456,"DIS_CODE":0,"TOWNNAME":"新營區","LI":"王公里","LIN":"18鄰","STREET":"樂利街","SECT":" ","MAREA":" ","LANE":" ","ALLEY":" ","HOUSE_NO":"３５號","E_COORD97":180243.53626200001,"N_COORD97":2579271.7251900001,"ADDRESS":"樂利街３５號","OBJECTID":4456},"geometry":{"x":180243.53626200091,"y":2579271.7251949999}},{"attributes":{"ID":4457,"DIS_CODE":0,"TOWNNAME":"安南區","LI":"\u25A0田里","LIN":"8鄰","STREET":"本田路","SECT":"三段","MAREA":" ","LANE":"８０巷","ALLEY":" ","HOUSE_NO":"１２號","E_COORD97":163914.968417,"N_COORD97":2549081.1014899998,"ADDRESS":"本田路三段８０巷１２號","OBJECTID":4457},"geometry":{"x":163914.96841700096,"y":2549081.1014869995}},{"attributes":{"ID":4458,"DIS_CODE":0,"TOWNNAME":"歸仁區","LI":"歸仁里","LIN":"17鄰","STREET":"信義北路","SECT":" ","MAREA":" ","LANE":"９６巷","ALLEY":" ","HOUSE_NO":"５２號","E_COORD97":178060.10648399999,"N_COORD97":2541008.95878,"ADDRESS":"信義北路９６巷５２號","OBJECTID":4458},"geometry":{"x":178060.10648400057,"y":2541008.9587780014}},{"attributes":{"ID":4459,"DIS_CODE":0,"TOWNNAME":"安南區","LI":"州南里","LIN":"7鄰","STREET":"長和一街","SECT":" ","MAREA":" ","LANE":" ","ALLEY":" ","HOUSE_NO":"１號","E_COORD97":169599.02747299999,"N_COORD97":2551515.23349,"ADDRESS":"長和一街１號","OBJECTID":4459},"geometry":{"x":169599.02747299988,"y":2551515.2334850002}},{"attributes":{"ID":4460,"DIS_CODE":0,"TOWNNAME":"新營區","LI":"王公里","LIN":"18鄰","STREET":"樂利街","SECT":" ","MAREA":" ","LANE":" ","ALLEY":" ","HOUSE_NO":"３９號","E_COORD97":180252.85907999999,"N_COORD97":2579272.1485299999,"ADDRESS":"樂利街３９號","OBJECTID":4460},"geometry":{"x":180252.85907999985,"y":2579272.1485280022}},{"attributes":{"ID":4461,"DIS_CODE":0,"TOWNNAME":"仁德區","LI":"後壁里","LIN":"12鄰","STREET":"德南路","SECT":" ","MAREA":" ","LANE":"２５１巷","ALLEY":" ","HOUSE_NO":"８１號","E_COORD97":173918.96146799999,"N_COORD97":2538541.4143099999,"ADDRESS":"德南路２５１巷８１號","OBJECTID":4461},"geometry":{"x":173918.9614680009,"y":2538541.4143129978}},{"attributes":{"ID":4462,"DIS_CODE":0,"TOWNNAME":"安南區","LI":"州南里","LIN":"7鄰","STREET":"長和一街","SECT":" ","MAREA":" ","LANE":" ","ALLEY":" ","HOUSE_NO":"３號","E_COORD97":169593.94588000001,"N_COORD97":2551513.96349,"ADDRESS":"長和一街３號","OBJECTID":4462},"geometry":{"x":169593.94587999955,"y":2551513.9634860009}},{"attributes":{"ID":4463,"DIS_CODE":0,"TOWNNAME":"歸仁區","LI":"歸仁里","LIN":"17鄰","STREET":"信義北路","SECT":" ","MAREA":" ","LANE":"９６巷","ALLEY":" ","HOUSE_NO":"５６號","E_COORD97":178056.53971400001,"N_COORD97":2541008.0085399998,"ADDRESS":"信義北路９６巷５６號","OBJECTID":4463},"geometry":{"x":178056.53971400205,"y":2541008.0085409991}},{"attributes":{"ID":4464,"DIS_CODE":0,"TOWNNAME":"安南區","LI":"州南里","LIN":"7鄰","STREET":"長和一街","SECT":" ","MAREA":" ","LANE":" ","ALLEY":" ","HOUSE_NO":"５號","E_COORD97":169590.76988400001,"N_COORD97":2551511.42349,"ADDRESS":"長和一街５號","OBJECTID":4464},"geometry":{"x":169590.76988399867,"y":2551511.4234870002}},{"attributes":{"ID":4465,"DIS_CODE":0,"TOWNNAME":"仁德區","LI":"後壁里","LIN":"12鄰","STREET":"德南路","SECT":" ","MAREA":" ","LANE":"２５１巷","ALLEY":" ","HOUSE_NO":"８３號","E_COORD97":173922.985736,"N_COORD97":2538543.7426499999,"ADDRESS":"德南路２５１巷８３號","OBJECTID":4465},"geometry":{"x":173922.98573600128,"y":2538543.742645001}},{"attributes":{"ID":4466,"DIS_CODE":0,"TOWNNAME":"新營區","LI":"王公里","LIN":"18鄰","STREET":"樂利街","SECT":" ","MAREA":" ","LANE":" ","ALLEY":" ","HOUSE_NO":"３１號之１","E_COORD97":180228.280742,"N_COORD97":2579287.6001900001,"ADDRESS":"樂利街３１號之１","OBJECTID":4466},"geometry":{"x":180228.28074199986,"y":2579287.6001870017}},{"attributes":{"ID":4467,"DIS_CODE":0,"TOWNNAME":"安南區","LI":"州南里","LIN":"7鄰","STREET":"長和一街","SECT":" ","MAREA":" ","LANE":" ","ALLEY":" ","HOUSE_NO":"９號","E_COORD97":169581.87709600001,"N_COORD97":2551506.3434899999,"ADDRESS":"長和一街９號","OBJECTID":4467},"geometry":{"x":169581.87709600013,"y":2551506.3434900008}},{"attributes":{"ID":4468,"DIS_CODE":0,"TOWNNAME":"安南區","LI":"州南里","LIN":"7鄰","STREET":"長和一街","SECT":" ","MAREA":" ","LANE":" ","ALLEY":" ","HOUSE_NO":"１１號","E_COORD97":169576.795503,"N_COORD97":2551503.8034899998,"ADDRESS":"長和一街１１號","OBJECTID":4468},"geometry":{"x":169576.7955029998,"y":2551503.8034910019}},{"attributes":{"ID":4469,"DIS_CODE":0,"TOWNNAME":"新營區","LI":"王公里","LIN":"18鄰","STREET":"樂利街","SECT":" ","MAREA":" ","LANE":" ","ALLEY":" ","HOUSE_NO":"３１號之２","E_COORD97":180227.43321399999,"N_COORD97":2579291.8335199999,"ADDRESS":"樂利街３１號之２","OBJECTID":4469},"geometry":{"x":180227.43321400136,"y":2579291.833518004}},{"attributes":{"ID":4470,"DIS_CODE":0,"TOWNNAME":"仁德區","LI":"後壁里","LIN":"12鄰","STREET":"德南路","SECT":" ","MAREA":" ","LANE":"２５１巷","ALLEY":" ","HOUSE_NO":"７０號","E_COORD97":173909.64210900001,"N_COORD97":2538510.9343300001,"ADDRESS":"德南路２５１巷７０號","OBJECTID":4470},"geometry":{"x":173909.64210900199,"y":2538510.9343289994}},{"attributes":{"ID":4471,"DIS_CODE":0,"TOWNNAME":"安南區","LI":"州南里","LIN":"7鄰","STREET":"長和一街","SECT":" ","MAREA":" ","LANE":" ","ALLEY":" ","HOUSE_NO":"１３號","E_COORD97":169571.07871100001,"N_COORD97":2551501.2634899998,"ADDRESS":"長和一街１３號","OBJECTID":4471},"geometry":{"x":169571.0787110012,"y":2551501.2634930033}},{"attributes":{"ID":4472,"DIS_CODE":0,"TOWNNAME":"新營區","LI":"王公里","LIN":"18鄰","STREET":"樂利街","SECT":" ","MAREA":" ","LANE":" ","ALLEY":" ","HOUSE_NO":"３３號之１","E_COORD97":180239.086736,"N_COORD97":2579288.6585200001,"ADDRESS":"樂利街３３號之１","OBJECTID":4472},"geometry":{"x":180239.08673600107,"y":2579288.6585189998}},{"attributes":{"ID":4473,"DIS_CODE":0,"TOWNNAME":"歸仁區","LI":"歸仁里","LIN":"17鄰","STREET":"信義北路","SECT":" ","MAREA":" ","LANE":"９６巷","ALLEY":" ","HOUSE_NO":"６２號","E_COORD97":178044.531587,"N_COORD97":2541004.0888100001,"ADDRESS":"信義北路９６巷６２號","OBJECTID":4473},"geometry":{"x":178044.53158700187,"y":2541004.0888130013}},{"attributes":{"ID":4474,"DIS_CODE":0,"TOWNNAME":"安南區","LI":"州南里","LIN":"7鄰","STREET":"長和一街","SECT":" ","MAREA":" ","LANE":"１５巷","ALLEY":" ","HOUSE_NO":"１１號","E_COORD97":169573.19604099999,"N_COORD97":2551480.3084999998,"ADDRESS":"長和一街１５巷１１號","OBJECTID":4474},"geometry":{"x":169573.19604100008,"y":2551480.3085040022}},{"attributes":{"ID":4475,"DIS_CODE":0,"TOWNNAME":"歸仁區","LI":"歸仁里","LIN":"17鄰","STREET":"信義北路","SECT":" ","MAREA":" ","LANE":"９６巷","ALLEY":" ","HOUSE_NO":"６０號","E_COORD97":178048.10452200001,"N_COORD97":2541005.3413399998,"ADDRESS":"信義北路９６巷６０號","OBJECTID":4475},"geometry":{"x":178048.104522001,"y":2541005.3413410019}},{"attributes":{"ID":4476,"DIS_CODE":0,"TOWNNAME":"新營區","LI":"王公里","LIN":"20鄰","STREET":"樂利街","SECT":" ","MAREA":" ","LANE":" ","ALLEY":" ","HOUSE_NO":"１０１號","E_COORD97":180423.63615000001,"N_COORD97":2579277.22853,"ADDRESS":"樂利街１０１號","OBJECTID":4476},"geometry":{"x":180423.63614999969,"y":2579277.2285260018}},{"attributes":{"ID":4477,"DIS_CODE":0,"TOWNNAME":"安南區","LI":"州南里","LIN":"7鄰","STREET":"長和一街","SECT":" ","MAREA":" ","LANE":"１５巷","ALLEY":" ","HOUSE_NO":"１３號","E_COORD97":169572.98430800001,"N_COORD97":2551476.0751700001,"ADDRESS":"長和一街１５巷１３號","OBJECTID":4477},"geometry":{"x":169572.98430799972,"y":2551476.0751729999}},{"attributes":{"ID":4478,"DIS_CODE":0,"TOWNNAME":"新營區","LI":"王公里","LIN":"20鄰","STREET":"樂利街","SECT":" ","MAREA":" ","LANE":" ","ALLEY":" ","HOUSE_NO":"１０７號","E_COORD97":180437.196612,"N_COORD97":2579276.8051900002,"ADDRESS":"樂利街１０７號","OBJECTID":4478},"geometry":{"x":180437.19661200233,"y":2579276.805192003}},{"attributes":{"ID":4479,"DIS_CODE":0,"TOWNNAME":"新營區","LI":"王公里","LIN":"20鄰","STREET":"樂利街","SECT":" ","MAREA":" ","LANE":" ","ALLEY":" ","HOUSE_NO":"１０９號","E_COORD97":180442.49366800001,"N_COORD97":2579278.2868599999,"ADDRESS":"樂利街１０９號","OBJECTID":4479},"geometry":{"x":180442.49366800021,"y":2579278.2868579999}},{"attributes":{"ID":4480,"DIS_CODE":0,"TOWNNAME":"新營區","LI":"王公里","LIN":"20鄰","STREET":"樂利街","SECT":" ","MAREA":" ","LANE":" ","ALLEY":" ","HOUSE_NO":"１１１號","E_COORD97":180447.155077,"N_COORD97":2579278.49853,"ADDRESS":"樂利街１１１號","OBJECTID":4480},"geometry":{"x":180447.15507700108,"y":2579278.4985250011}},{"attributes":{"ID":4481,"DIS_CODE":0,"TOWNNAME":"新營區","LI":"王公里","LIN":"20鄰","STREET":"樂利街","SECT":" ","MAREA":" ","LANE":" ","ALLEY":" ","HOUSE_NO":"１１３號","E_COORD97":180452.028368,"N_COORD97":2579278.9218600001,"ADDRESS":"樂利街１１３號","OBJECTID":4481},"geometry":{"x":180452.02836799994,"y":2579278.9218579996}},{"attributes":{"ID":4482,"DIS_CODE":0,"TOWNNAME":"安南區","LI":"州南里","LIN":"3鄰","STREET":"長和一街","SECT":" ","MAREA":" ","LANE":"１５巷","ALLEY":" ","HOUSE_NO":"４２號","E_COORD97":169573.98999999999,"N_COORD97":2551361.3799999999,"ADDRESS":"長和一街１５巷４２號","OBJECTID":4482},"geometry":{"x":169573.99000000115,"y":2551361.3800000008}},{"attributes":{"ID":4483,"DIS_CODE":0,"TOWNNAME":"下營區","LI":"後街里","LIN":"19鄰","STREET":"大和街","SECT":" ","MAREA":" ","LANE":" ","ALLEY":" ","HOUSE_NO":"７６號","E_COORD97":174504.55635900001,"N_COORD97":2571255.5721499999,"ADDRESS":"大和街７６號","OBJECTID":4483},"geometry":{"x":174504.5563590005,"y":2571255.5721460022}},{"attributes":{"ID":4484,"DIS_CODE":0,"TOWNNAME":"安南區","LI":"州南里","LIN":"3鄰","STREET":"長和一街","SECT":" ","MAREA":" ","LANE":"１５巷","ALLEY":" ","HOUSE_NO":"６１號","E_COORD97":169599.239206,"N_COORD97":2551374.8985600001,"ADDRESS":"長和一街１５巷６１號","OBJECTID":4484},"geometry":{"x":169599.23920600023,"y":2551374.8985610008}},{"attributes":{"ID":4485,"DIS_CODE":0,"TOWNNAME":"新營區","LI":"王公里","LIN":"20鄰","STREET":"樂利街","SECT":" ","MAREA":" ","LANE":" ","ALLEY":" ","HOUSE_NO":"２６號","E_COORD97":180414.737097,"N_COORD97":2579257.2260400001,"ADDRESS":"樂利街２６號","OBJECTID":4485},"geometry":{"x":180414.7370970007,"y":2579257.2260360029}},{"attributes":{"ID":4486,"DIS_CODE":0,"TOWNNAME":"仁德區","LI":"後壁里","LIN":"12鄰","STREET":"德南路","SECT":" ","MAREA":" ","LANE":"２５１巷","ALLEY":" ","HOUSE_NO":"７２號","E_COORD97":173916.84343199999,"N_COORD97":2538512.6276600002,"ADDRESS":"德南路２５１巷７２號","OBJECTID":4486},"geometry":{"x":173916.84343200084,"y":2538512.6276610028}},{"attributes":{"ID":4487,"DIS_CODE":0,"TOWNNAME":"新營區","LI":"王公里","LIN":"18鄰","STREET":"樂利街","SECT":" ","MAREA":" ","LANE":" ","ALLEY":" ","HOUSE_NO":"３３號之２","E_COORD97":180238.66297100001,"N_COORD97":2579293.3151799999,"ADDRESS":"樂利街３３號之２","OBJECTID":4487},"geometry":{"x":180238.66297100019,"y":2579293.3151840009}},{"attributes":{"ID":4488,"DIS_CODE":0,"TOWNNAME":"東山區","LI":"三榮里","LIN":"9鄰","STREET":" ","SECT":" ","MAREA":"木柵","LANE":" ","ALLEY":" ","HOUSE_NO":"４９之３號","E_COORD97":187319.387285,"N_COORD97":2579637.5969799999,"ADDRESS":"木柵４９之３號","OBJECTID":4488},"geometry":{"x":187319.38728499971,"y":2579637.5969830006}},{"attributes":{"ID":4489,"DIS_CODE":0,"TOWNNAME":"歸仁區","LI":"歸仁里","LIN":"17鄰","STREET":"信義北路","SECT":" ","MAREA":" ","LANE":"９６巷","ALLEY":" ","HOUSE_NO":"５８號","E_COORD97":178052.34187,"N_COORD97":2541006.6113399998,"ADDRESS":"信義北路９６巷５８號","OBJECTID":4489},"geometry":{"x":178052.34186999872,"y":2541006.6113409996}},{"attributes":{"ID":4490,"DIS_CODE":0,"TOWNNAME":"安南區","LI":"州南里","LIN":"3鄰","STREET":"長和一街","SECT":" ","MAREA":" ","LANE":"１５巷","ALLEY":" ","HOUSE_NO":"７７號","E_COORD97":169602.83866800001,"N_COORD97":2551339.3385800002,"ADDRESS":"長和一街１５巷７７號","OBJECTID":4490},"geometry":{"x":169602.83866799995,"y":2551339.338580003}},{"attributes":{"ID":4491,"DIS_CODE":0,"TOWNNAME":"安南區","LI":"州南里","LIN":"7鄰","STREET":"長和一街","SECT":" ","MAREA":" ","LANE":" ","ALLEY":" ","HOUSE_NO":"１７之１號","E_COORD97":169553.928334,"N_COORD97":2551497.2418300002,"ADDRESS":"長和一街１７之１號","OBJECTID":4491},"geometry":{"x":169553.92833399959,"y":2551497.241828002}},{"attributes":{"ID":4492,"DIS_CODE":0,"TOWNNAME":"歸仁區","LI":"七甲里","LIN":"13鄰","STREET":"南丁路","SECT":" ","MAREA":" ","LANE":"４３７巷","ALLEY":" ","HOUSE_NO":"７７號","E_COORD97":175836.71111599999,"N_COORD97":2542775.2988700001,"ADDRESS":"南丁路４３７巷７７號","OBJECTID":4492},"geometry":{"x":175836.71111600101,"y":2542775.2988750022}},{"attributes":{"ID":4493,"DIS_CODE":0,"TOWNNAME":"新營區","LI":"王公里","LIN":"20鄰","STREET":"樂利街","SECT":" ","MAREA":" ","LANE":" ","ALLEY":" ","HOUSE_NO":"３６號","E_COORD97":180436.13720100001,"N_COORD97":2579259.2368700001,"ADDRESS":"樂利街３６號","OBJECTID":4493},"geometry":{"x":180436.13720100094,"y":2579259.2368690036}},{"attributes":{"ID":4494,"DIS_CODE":0,"TOWNNAME":"新營區","LI":"王公里","LIN":"20鄰","STREET":"樂利街","SECT":" ","MAREA":" ","LANE":" ","ALLEY":" ","HOUSE_NO":"４０號","E_COORD97":180448.85013400001,"N_COORD97":2579259.6601999998,"ADDRESS":"樂利街４０號","OBJECTID":4494},"geometry":{"x":180448.85013400111,"y":2579259.6602020022}},{"attributes":{"ID":4495,"DIS_CODE":0,"TOWNNAME":"安南區","LI":"州南里","LIN":"7鄰","STREET":"長和一街","SECT":" ","MAREA":" ","LANE":"２９巷","ALLEY":" ","HOUSE_NO":"６號","E_COORD97":169527.46170399999,"N_COORD97":2551468.45518,"ADDRESS":"長和一街２９巷６號","OBJECTID":4495},"geometry":{"x":169527.46170400176,"y":2551468.4551770017}},{"attributes":{"ID":4496,"DIS_CODE":0,"TOWNNAME":"安南區","LI":"州南里","LIN":"7鄰","STREET":"長和一街","SECT":" ","MAREA":" ","LANE":"２９巷","ALLEY":" ","HOUSE_NO":"８號","E_COORD97":169526.826505,"N_COORD97":2551464.64518,"ADDRESS":"長和一街２９巷８號","OBJECTID":4496},"geometry":{"x":169526.82650500163,"y":2551464.6451790016}},{"attributes":{"ID":4497,"DIS_CODE":0,"TOWNNAME":"安南區","LI":"州南里","LIN":"7鄰","STREET":"長和一街","SECT":" ","MAREA":" ","LANE":"２９巷","ALLEY":" ","HOUSE_NO":"１０號","E_COORD97":169526.614772,"N_COORD97":2551460.4118499998,"ADDRESS":"長和一街２９巷１０號","OBJECTID":4497},"geometry":{"x":169526.61477200128,"y":2551460.4118479993}},{"attributes":{"ID":4498,"DIS_CODE":0,"TOWNNAME":"歸仁區","LI":"歸仁里","LIN":"17鄰","STREET":"信義北路","SECT":" ","MAREA":" ","LANE":"９６巷","ALLEY":" ","HOUSE_NO":"６８號","E_COORD97":178067.11470100001,"N_COORD97":2541001.6424099999,"ADDRESS":"信義北路９６巷６８號","OBJECTID":4498},"geometry":{"x":178067.11470100097,"y":2541001.6424059998}},{"attributes":{"ID":4499,"DIS_CODE":0,"TOWNNAME":"安南區","LI":"州南里","LIN":"7鄰","STREET":"長和一街","SECT":" ","MAREA":" ","LANE":"２９巷","ALLEY":" ","HOUSE_NO":"１２號","E_COORD97":169526.826505,"N_COORD97":2551455.7551799999,"ADDRESS":"長和一街２９巷１２號","OBJECTID":4499},"geometry":{"x":169526.82650500163,"y":2551455.7551840022}},{"attributes":{"ID":4500,"DIS_CODE":0,"TOWNNAME":"新營區","LI":"王公里","LIN":"18鄰","STREET":"樂利街","SECT":" ","MAREA":" ","LANE":" ","ALLEY":" ","HOUSE_NO":"７之１號","E_COORD97":180174.250776,"N_COORD97":2579296.8076800001,"ADDRESS":"樂利街７之１號","OBJECTID":4500},"geometry":{"x":180174.25077600032,"y":2579296.807682002}},{"attributes":{"ID":4501,"DIS_CODE":0,"TOWNNAME":"安南區","LI":"州南里","LIN":"7鄰","STREET":"長和一街","SECT":" ","MAREA":" ","LANE":"２９巷","ALLEY":" ","HOUSE_NO":"１６號","E_COORD97":169527.03823800001,"N_COORD97":2551451.5218500001,"ADDRESS":"長和一街２９巷１６號","OBJECTID":4501},"geometry":{"x":169527.03823800106,"y":2551451.5218529999}},{"attributes":{"ID":4502,"DIS_CODE":0,"TOWNNAME":"歸仁區","LI":"歸仁里","LIN":"17鄰","STREET":"信義北路","SECT":" ","MAREA":" ","LANE":"９６巷","ALLEY":" ","HOUSE_NO":"７０號","E_COORD97":178063.08921999999,"N_COORD97":2541000.26657,"ADDRESS":"信義北路９６巷７０號","OBJECTID":4502},"geometry":{"x":178063.08922000229,"y":2541000.2665730026}},{"attributes":{"ID":4503,"DIS_CODE":0,"TOWNNAME":"安南區","LI":"州南里","LIN":"7鄰","STREET":"長和一街","SECT":" ","MAREA":" ","LANE":"２９巷","ALLEY":" ","HOUSE_NO":"１８號","E_COORD97":169527.03823800001,"N_COORD97":2551447.2885199999,"ADDRESS":"長和一街２９巷１８號","OBJECTID":4503},"geometry":{"x":169527.03823800106,"y":2551447.2885220032}},{"attributes":{"ID":4504,"DIS_CODE":0,"TOWNNAME":"歸仁區","LI":"七甲里","LIN":"13鄰","STREET":"南丁路","SECT":" ","MAREA":" ","LANE":"７０２巷","ALLEY":" ","HOUSE_NO":"２０號","E_COORD97":176089.77885,"N_COORD97":2543358.0168900001,"ADDRESS":"南丁路７０２巷２０號","OBJECTID":4504},"geometry":{"x":176089.77885000128,"y":2543358.0168939997}},{"attributes":{"ID":4505,"DIS_CODE":0,"TOWNNAME":"安南區","LI":"州南里","LIN":"7鄰","STREET":"長和一街","SECT":" ","MAREA":" ","LANE":"２９巷","ALLEY":" ","HOUSE_NO":"２０號","E_COORD97":169526.614772,"N_COORD97":2551443.4785199999,"ADDRESS":"長和一街２９巷２０號","OBJECTID":4505},"geometry":{"x":169526.61477200128,"y":2551443.4785239995}},{"attributes":{"ID":4506,"DIS_CODE":0,"TOWNNAME":"歸仁區","LI":"歸仁里","LIN":"17鄰","STREET":"信義北路","SECT":" ","MAREA":" ","LANE":"９６巷","ALLEY":" ","HOUSE_NO":"７２號","E_COORD97":178058.851872,"N_COORD97":2540999.1024099998,"ADDRESS":"信義北路９６巷７２號","OBJECTID":4506},"geometry":{"x":178058.85187199991,"y":2540999.1024069991}},{"attributes":{"ID":4507,"DIS_CODE":0,"TOWNNAME":"安南區","LI":"州南里","LIN":"7鄰","STREET":"長和一街","SECT":" ","MAREA":" ","LANE":"２９巷","ALLEY":" ","HOUSE_NO":"２２號","E_COORD97":169527.24997100001,"N_COORD97":2551439.2451900002,"ADDRESS":"長和一街２９巷２２號","OBJECTID":4507},"geometry":{"x":169527.24997100141,"y":2551439.2451930009}},{"attributes":{"ID":4508,"DIS_CODE":0,"TOWNNAME":"安南區","LI":"州南里","LIN":"7鄰","STREET":"長和一街","SECT":" ","MAREA":" ","LANE":"２９巷","ALLEY":" ","HOUSE_NO":"２６號","E_COORD97":169527.67343699999,"N_COORD97":2551435.2235300001,"ADDRESS":"長和一街２９巷２６號","OBJECTID":4508},"geometry":{"x":169527.67343700118,"y":2551435.2235280015}},{"attributes":{"ID":4509,"DIS_CODE":0,"TOWNNAME":"歸仁區","LI":"歸仁里","LIN":"17鄰","STREET":"信義北路","SECT":" ","MAREA":" ","LANE":"９６巷","ALLEY":" ","HOUSE_NO":"７８號","E_COORD97":178051.22464500001,"N_COORD97":2540996.7740799999,"ADDRESS":"信義北路９６巷７８號","OBJECTID":4509},"geometry":{"x":178051.22464499995,"y":2540996.7740750015}},{"attributes":{"ID":4510,"DIS_CODE":0,"TOWNNAME":"歸仁區","LI":"歸仁里","LIN":"17鄰","STREET":"信義北路","SECT":" ","MAREA":" ","LANE":"９６巷","ALLEY":" ","HOUSE_NO":"８０號","E_COORD97":178046.457628,"N_COORD97":2540995.7157399999,"ADDRESS":"信義北路９６巷８０號","OBJECTID":4510},"geometry":{"x":178046.45762800146,"y":2540995.7157419994}},{"attributes":{"ID":4511,"DIS_CODE":0,"TOWNNAME":"新營區","LI":"王公里","LIN":"20鄰","STREET":"樂利街","SECT":" ","MAREA":" ","LANE":" ","ALLEY":" ","HOUSE_NO":"１２３號","E_COORD97":180478.72552800001,"N_COORD97":2579277.96936,"ADDRESS":"樂利街１２３號","OBJECTID":4511},"geometry":{"x":180478.72552799992,"y":2579277.9693580028}},{"attributes":{"ID":4512,"DIS_CODE":0,"TOWNNAME":"安南區","LI":"州南里","LIN":"7鄰","STREET":"長和一街","SECT":" ","MAREA":" ","LANE":"２９巷","ALLEY":" ","HOUSE_NO":"３號","E_COORD97":169539.74221999999,"N_COORD97":2551475.6518399999,"ADDRESS":"長和一街２９巷３號","OBJECTID":4512},"geometry":{"x":169539.74222000036,"y":2551475.6518400013}},{"attributes":{"ID":4513,"DIS_CODE":0,"TOWNNAME":"新營區","LI":"王公里","LIN":"20鄰","STREET":"樂利街","SECT":" ","MAREA":" ","LANE":" ","ALLEY":" ","HOUSE_NO":"１２５號","E_COORD97":180483.81070100001,"N_COORD97":2579278.8160299999,"ADDRESS":"樂利街１２５號","OBJECTID":4513},"geometry":{"x":180483.81070099957,"y":2579278.8160249982}},{"attributes":{"ID":4514,"DIS_CODE":0,"TOWNNAME":"歸仁區","LI":"歸仁里","LIN":"17鄰","STREET":"信義北路","SECT":" ","MAREA":" ","LANE":"９６巷","ALLEY":" ","HOUSE_NO":"８２號","E_COORD97":178042.53808100001,"N_COORD97":2540994.7632399998,"ADDRESS":"信義北路９６巷８２號","OBJECTID":4514},"geometry":{"x":178042.53808099963,"y":2540994.763243001}},{"attributes":{"ID":4515,"DIS_CODE":0,"TOWNNAME":"關廟區","LI":"新光里","LIN":"12鄰","STREET":"南寮街","SECT":" ","MAREA":" ","LANE":" ","ALLEY":" ","HOUSE_NO":"９８號","E_COORD97":184584.66019200001,"N_COORD97":2541394.0750099998,"ADDRESS":"南寮街９８號","OBJECTID":4515},"geometry":{"x":184584.66019199975,"y":2541394.0750080012}},{"attributes":{"ID":4516,"DIS_CODE":0,"TOWNNAME":"新營區","LI":"王公里","LIN":"20鄰","STREET":"樂利街","SECT":" ","MAREA":" ","LANE":" ","ALLEY":" ","HOUSE_NO":"１２９號","E_COORD97":180494.616694,"N_COORD97":2579279.1335300002,"ADDRESS":"樂利街１２９號","OBJECTID":4516},"geometry":{"x":180494.61669399962,"y":2579279.1335250009}},{"attributes":{"ID":4517,"DIS_CODE":0,"TOWNNAME":"七股區","LI":"大埕里","LIN":"10鄰","STREET":" ","SECT":" ","MAREA":"大埕","LANE":" ","ALLEY":" ","HOUSE_NO":"２８４號","E_COORD97":162412.01449999999,"N_COORD97":2560599.2694999999,"ADDRESS":"大埕２８４號","OBJECTID":4517},"geometry":{"x":162412.01449999958,"y":2560599.2695030011}},{"attributes":{"ID":4518,"DIS_CODE":0,"TOWNNAME":"歸仁區","LI":"七甲里","LIN":"15鄰","STREET":"南丁路","SECT":" ","MAREA":" ","LANE":"７０２巷","ALLEY":" ","HOUSE_NO":"４２１號","E_COORD97":176747.246281,"N_COORD97":2543443.1068500001,"ADDRESS":"南丁路７０２巷４２１號","OBJECTID":4518},"geometry":{"x":176747.24628099985,"y":2543443.1068479996}},{"attributes":{"ID":4519,"DIS_CODE":0,"TOWNNAME":"歸仁區","LI":"七甲里","LIN":"20鄰","STREET":"南丁路","SECT":" ","MAREA":" ","LANE":"７０２巷","ALLEY":" ","HOUSE_NO":"４３０號","E_COORD97":176744.70288600001,"N_COORD97":2543382.35855,"ADDRESS":"南丁路７０２巷４３０號","OBJECTID":4519},"geometry":{"x":176744.70288600121,"y":2543382.3585470021}},{"attributes":{"ID":4520,"DIS_CODE":0,"TOWNNAME":"新營區","LI":"王公里","LIN":"21鄰","STREET":"大智街","SECT":" ","MAREA":" ","LANE":" ","ALLEY":" ","HOUSE_NO":"７７號","E_COORD97":180366.00418600001,"N_COORD97":2579330.6743299998,"ADDRESS":"大智街７７號","OBJECTID":4520},"geometry":{"x":180366.00418600067,"y":2579330.6743300017}},{"attributes":{"ID":4521,"DIS_CODE":0,"TOWNNAME":"玉井區","LI":"豐里里","LIN":"4鄰","STREET":" ","SECT":" ","MAREA":"豐里","LANE":" ","ALLEY":" ","HOUSE_NO":"３７號","E_COORD97":193147.313799,"N_COORD97":2558143.4044599999,"ADDRESS":"豐里３７號","OBJECTID":4521},"geometry":{"x":193147.31379900035,"y":2558143.4044569992}},{"attributes":{"ID":4522,"DIS_CODE":0,"TOWNNAME":"新營區","LI":"王公里","LIN":"21鄰","STREET":"大智街","SECT":" ","MAREA":" ","LANE":" ","ALLEY":" ","HOUSE_NO":"８５號","E_COORD97":180385.49734999999,"N_COORD97":2579330.3039099998,"ADDRESS":"大智街８５號","OBJECTID":4522},"geometry":{"x":180385.49734999985,"y":2579330.3039140012}},{"attributes":{"ID":4523,"DIS_CODE":0,"TOWNNAME":"玉井區","LI":"豐里里","LIN":"4鄰","STREET":" ","SECT":" ","MAREA":"豐里","LANE":" ","ALLEY":" ","HOUSE_NO":"３７之１號","E_COORD97":193167.44501299999,"N_COORD97":2558134.3028000002,"ADDRESS":"豐里３７之１號","OBJECTID":4523},"geometry":{"x":193167.44501299877,"y":2558134.3027960025}},{"attributes":{"ID":4524,"DIS_CODE":0,"TOWNNAME":"七股區","LI":"大埕里","LIN":"10鄰","STREET":" ","SECT":" ","MAREA":"大埕","LANE":" ","ALLEY":" ","HOUSE_NO":"２９１號","E_COORD97":162316.83485000001,"N_COORD97":2560465.2845700001,"ADDRESS":"大埕２９１號","OBJECTID":4524},"geometry":{"x":162316.83485000022,"y":2560465.2845750023}},{"attributes":{"ID":4525,"DIS_CODE":0,"TOWNNAME":"七股區","LI":"大埕里","LIN":"11鄰","STREET":" ","SECT":" ","MAREA":"大埕","LANE":" ","ALLEY":" ","HOUSE_NO":"２９２號","E_COORD97":162320.01457100001,"N_COORD97":2560455.7595799998,"ADDRESS":"大埕２９２號","OBJECTID":4525},"geometry":{"x":162320.01457099989,"y":2560455.7595810033}},{"attributes":{"ID":4526,"DIS_CODE":0,"TOWNNAME":"安南區","LI":"州南里","LIN":"7鄰","STREET":"長和一街","SECT":" ","MAREA":" ","LANE":" ","ALLEY":" ","HOUSE_NO":"３１號","E_COORD97":169528.40107600001,"N_COORD97":2551493.3592900001,"ADDRESS":"長和一街３１號","OBJECTID":4526},"geometry":{"x":169528.40107600112,"y":2551493.3592949994}},{"attributes":{"ID":4527,"DIS_CODE":0,"TOWNNAME":"山上區","LI":"平陽里","LIN":"3鄰","STREET":" ","SECT":" ","MAREA":"石子崎","LANE":" ","ALLEY":" ","HOUSE_NO":"３７號","E_COORD97":186636.114909,"N_COORD97":2553988.7889299998,"ADDRESS":"石子崎３７號","OBJECTID":4527},"geometry":{"x":186636.11490899976,"y":2553988.7889310028}},{"attributes":{"ID":4528,"DIS_CODE":0,"TOWNNAME":"安南區","LI":"州南里","LIN":"7鄰","STREET":"長和一街","SECT":" ","MAREA":" ","LANE":" ","ALLEY":" ","HOUSE_NO":"３３號","E_COORD97":169523.74294900001,"N_COORD97":2551492.3009600001,"ADDRESS":"長和一街３３號","OBJECTID":4528},"geometry":{"x":169523.74294900149,"y":2551492.3009620029}},{"attributes":{"ID":4529,"DIS_CODE":0,"TOWNNAME":"七股區","LI":"大埕里","LIN":"10鄰","STREET":" ","SECT":" ","MAREA":" 大埕","LANE":" ","ALLEY":" ","HOUSE_NO":"２９７號之１","E_COORD97":162176.07920000001,"N_COORD97":2560356.0646299999,"ADDRESS":" 大埕２９７號之１","OBJECTID":4529},"geometry":{"x":162176.0792000005,"y":2560356.0646340027}},{"attributes":{"ID":4530,"DIS_CODE":0,"TOWNNAME":"安南區","LI":"州南里","LIN":"7鄰","STREET":"長和一街","SECT":" ","MAREA":" ","LANE":" ","ALLEY":" ","HOUSE_NO":"３５號","E_COORD97":169519.72002099999,"N_COORD97":2551491.0309600001,"ADDRESS":"長和一街３５號","OBJECTID":4530},"geometry":{"x":169519.72002100106,"y":2551491.0309630018}},{"attributes":{"ID":4531,"DIS_CODE":0,"TOWNNAME":"安南區","LI":"州南里","LIN":"7鄰","STREET":"長和一街","SECT":" ","MAREA":" ","LANE":" ","ALLEY":" ","HOUSE_NO":"３７號","E_COORD97":169515.27362699999,"N_COORD97":2551490.1842999998,"ADDRESS":"長和一街３７號","OBJECTID":4531},"geometry":{"x":169515.27362700086,"y":2551490.184297001}},{"attributes":{"ID":4532,"DIS_CODE":0,"TOWNNAME":"山上區","LI":"平陽里","LIN":"3鄰","STREET":" ","SECT":" ","MAREA":"石子崎","LANE":" ","ALLEY":" ","HOUSE_NO":"３７之２號","E_COORD97":186633.148698,"N_COORD97":2553972.7022699998,"ADDRESS":"石子崎３７之２號","OBJECTID":4532},"geometry":{"x":186633.14869800117,"y":2553972.7022729982}},{"attributes":{"ID":4533,"DIS_CODE":0,"TOWNNAME":"安南區","LI":"\u25A0田里","LIN":"8鄰","STREET":"本田路","SECT":"三段","MAREA":" ","LANE":"８０巷","ALLEY":" ","HOUSE_NO":"４號","E_COORD97":163908.01585299999,"N_COORD97":2549064.9384900001,"ADDRESS":"本田路三段８０巷４號","OBJECTID":4533},"geometry":{"x":163908.0158530008,"y":2549064.9384909999}},{"attributes":{"ID":4534,"DIS_CODE":0,"TOWNNAME":"歸仁區","LI":"沙崙里","LIN":"8鄰","STREET":" ","SECT":" ","MAREA":"沙崙","LANE":" ","ALLEY":" ","HOUSE_NO":"２３３號","E_COORD97":179436.85153399999,"N_COORD97":2537724.90472,"ADDRESS":"沙崙２３３號","OBJECTID":4534},"geometry":{"x":179436.85153399967,"y":2537724.9047190025}},{"attributes":{"ID":4535,"DIS_CODE":0,"TOWNNAME":"新營區","LI":"王公里","LIN":"21鄰","STREET":"民族路","SECT":" ","MAREA":" ","LANE":"１４２巷","ALLEY":" ","HOUSE_NO":"６號之１","E_COORD97":180432.09,"N_COORD97":2579304.9700000002,"ADDRESS":"民族路１４２巷６號之１","OBJECTID":4535},"geometry":{"x":180432.09000000078,"y":2579304.9700000007}},{"attributes":{"ID":4536,"DIS_CODE":0,"TOWNNAME":"安南區","LI":"州南里","LIN":"6鄰","STREET":"長和路","SECT":"三段","MAREA":" ","LANE":"１３３巷","ALLEY":" ","HOUSE_NO":"４２之６號","E_COORD97":169722.983744,"N_COORD97":2551415.6776700001,"ADDRESS":"長和路三段１３３巷４２之６號","OBJECTID":4536},"geometry":{"x":169722.98374400102,"y":2551415.6776700038}},{"attributes":{"ID":4537,"DIS_CODE":0,"TOWNNAME":"玉井區","LI":"豐里里","LIN":"3鄰","STREET":" ","SECT":" ","MAREA":"豐里","LANE":" ","ALLEY":" ","HOUSE_NO":"２７之３號","E_COORD97":193293.52999000001,"N_COORD97":2558430.4243000001,"ADDRESS":"豐里２７之３號","OBJECTID":4537},"geometry":{"x":193293.52998999972,"y":2558430.4243020006}},{"attributes":{"ID":4538,"DIS_CODE":0,"TOWNNAME":"新營區","LI":"王公里","LIN":"22鄰","STREET":"大仁街","SECT":" ","MAREA":" ","LANE":" ","ALLEY":" ","HOUSE_NO":"７０號","E_COORD97":180422.535347,"N_COORD97":2579370.7322200001,"ADDRESS":"大仁街７０號","OBJECTID":4538},"geometry":{"x":180422.53534699976,"y":2579370.7322250027}},{"attributes":{"ID":4539,"DIS_CODE":0,"TOWNNAME":"安南區","LI":"州南里","LIN":"7鄰","STREET":"長和路","SECT":"三段","MAREA":" ","LANE":"１５１巷","ALLEY":"３６弄","HOUSE_NO":"１０號","E_COORD97":169618.599353,"N_COORD97":2551480.87097,"ADDRESS":"長和路三段１５１巷３６弄１０號","OBJECTID":4539},"geometry":{"x":169618.59935299959,"y":2551480.8709689993}},{"attributes":{"ID":4540,"DIS_CODE":0,"TOWNNAME":"安南區","LI":"州南里","LIN":"7鄰","STREET":"長和路","SECT":"三段","MAREA":" ","LANE":"１５１巷","ALLEY":"３６弄","HOUSE_NO":"８號","E_COORD97":169625.37481000001,"N_COORD97":2551482.1409700001,"ADDRESS":"長和路三段１５１巷３６弄８號","OBJECTID":4540},"geometry":{"x":169625.37481000088,"y":2551482.1409680042}},{"attributes":{"ID":4541,"DIS_CODE":0,"TOWNNAME":"山上區","LI":"平陽里","LIN":"4鄰","STREET":" ","SECT":" ","MAREA":"石子崎","LANE":" ","ALLEY":" ","HOUSE_NO":"３９號","E_COORD97":186630.20529899999,"N_COORD97":2554010.4546300001,"ADDRESS":"石子崎３９號","OBJECTID":4541},"geometry":{"x":186630.20529900026,"y":2554010.4546269998}},{"attributes":{"ID":4542,"DIS_CODE":0,"TOWNNAME":"安南區","LI":"州南里","LIN":"7鄰","STREET":"長和路","SECT":"三段","MAREA":" ","LANE":"１５１巷","ALLEY":"３６弄","HOUSE_NO":"１８號","E_COORD97":169592.979654,"N_COORD97":2551476.0026400001,"ADDRESS":"長和路三段１５１巷３６弄１８號","OBJECTID":4542},"geometry":{"x":169592.979654002,"y":2551476.002638001}},{"attributes":{"ID":4543,"DIS_CODE":0,"TOWNNAME":"中西區","LI":"郡西里","LIN":"14鄰","STREET":"保安路","SECT":" ","MAREA":" ","LANE":" ","ALLEY":" ","HOUSE_NO":"１１５號","E_COORD97":167345.88319600001,"N_COORD97":2543458.3529599998,"ADDRESS":"保安路 １１５號","OBJECTID":4543},"geometry":{"x":167345.88319600187,"y":2543458.3529590014}},{"attributes":{"ID":4544,"DIS_CODE":0,"TOWNNAME":"玉井區","LI":"豐里里","LIN":"4鄰","STREET":" ","SECT":" ","MAREA":"豐里","LANE":" ","ALLEY":" ","HOUSE_NO":"３８號","E_COORD97":193167.233106,"N_COORD97":2558164.3594499999,"ADDRESS":"豐里３８號","OBJECTID":4544},"geometry":{"x":193167.23310600128,"y":2558164.3594460003}},{"attributes":{"ID":4545,"DIS_CODE":0,"TOWNNAME":"歸仁區","LI":"歸仁里","LIN":"17鄰","STREET":"信義北路","SECT":" ","MAREA":" ","LANE":"９６巷","ALLEY":" ","HOUSE_NO":"７６號","E_COORD97":178055.250126,"N_COORD97":2540998.0440699998,"ADDRESS":"信義北路９６巷７６號","OBJECTID":4545},"geometry":{"x":178055.25012599956,"y":2540998.0440740027}},{"attributes":{"ID":4546,"DIS_CODE":0,"TOWNNAME":"關廟區","LI":"新光里","LIN":"12鄰","STREET":"南寮街","SECT":" ","MAREA":" ","LANE":"９９巷","ALLEY":"１７弄","HOUSE_NO":"５號","E_COORD97":184658.10041399999,"N_COORD97":2541441.9778,"ADDRESS":"南寮街９９巷１７弄５號","OBJECTID":4546},"geometry":{"x":184658.10041400138,"y":2541441.9777950048}},{"attributes":{"ID":4547,"DIS_CODE":0,"TOWNNAME":"歸仁區","LI":"歸仁里","LIN":"23鄰","STREET":"忠孝北路","SECT":" ","MAREA":" ","LANE":" ","ALLEY":" ","HOUSE_NO":"２１３號","E_COORD97":178070.721857,"N_COORD97":2541249.0660299999,"ADDRESS":"忠孝北路２１３號","OBJECTID":4547},"geometry":{"x":178070.72185700014,"y":2541249.0660250019}},{"attributes":{"ID":4548,"DIS_CODE":0,"TOWNNAME":"安南區","LI":"州南里","LIN":"7鄰","STREET":"長和路","SECT":"三段","MAREA":" ","LANE":"１５１巷","ALLEY":"３６弄","HOUSE_NO":"１６號","E_COORD97":169599.54337900001,"N_COORD97":2551476.8492999999,"ADDRESS":"長和路三段１５１巷３６弄１６號","OBJECTID":4548},"geometry":{"x":169599.54337900225,"y":2551476.8493040036}},{"attributes":{"ID":4549,"DIS_CODE":0,"TOWNNAME":"安南區","LI":"州南里","LIN":"6鄰","STREET":"長和路","SECT":"三段","MAREA":" ","LANE":"１５１巷","ALLEY":"５６弄","HOUSE_NO":"９號","E_COORD97":169659.675563,"N_COORD97":2551446.7926500002,"ADDRESS":"長和路三段１５１巷５６弄９號","OBJECTID":4549},"geometry":{"x":169659.67556299921,"y":2551446.7926540021}},{"attributes":{"ID":4550,"DIS_CODE":0,"TOWNNAME":"歸仁區","LI":"七甲里","LIN":"15鄰","STREET":"南潭三街","SECT":" ","MAREA":" ","LANE":" ","ALLEY":" ","HOUSE_NO":"３２號","E_COORD97":176135.983847,"N_COORD97":2543182.1219899999,"ADDRESS":"南潭三街３２號","OBJECTID":4550},"geometry":{"x":176135.98384700064,"y":2543182.1219890025}},{"attributes":{"ID":4551,"DIS_CODE":0,"TOWNNAME":"關廟區","LI":"新光里","LIN":"12鄰","STREET":"南寮街","SECT":" ","MAREA":" ","LANE":"９９巷","ALLEY":"５１弄","HOUSE_NO":"１０號","E_COORD97":184992.43483799999,"N_COORD97":2541402.2903200001,"ADDRESS":"南寮街９９巷５１弄１０號","OBJECTID":4551},"geometry":{"x":184992.43483799975,"y":2541402.290316999}},{"attributes":{"ID":4552,"DIS_CODE":0,"TOWNNAME":"安南區","LI":"州南里","LIN":"6鄰","STREET":"長和路","SECT":"三段","MAREA":" ","LANE":"１５１巷","ALLEY":" ","HOUSE_NO":"６８號","E_COORD97":169673.01474499999,"N_COORD97":2551433.88099,"ADDRESS":"長和路三段１５１巷６８號","OBJECTID":4552},"geometry":{"x":169673.01474500075,"y":2551433.8809940033}},{"attributes":{"ID":4553,"DIS_CODE":0,"TOWNNAME":"玉井區","LI":"玉田里","LIN":"28鄰","STREET":"中山路","SECT":" ","MAREA":" ","LANE":" ","ALLEY":" ","HOUSE_NO":"１號之１","E_COORD97":194580.38127099999,"N_COORD97":2557663.86283,"ADDRESS":"中山路１號之１","OBJECTID":4553},"geometry":{"x":194580.38127100095,"y":2557663.8628260009}},{"attributes":{"ID":4554,"DIS_CODE":0,"TOWNNAME":"山上區","LI":"平陽里","LIN":"3鄰","STREET":" ","SECT":" ","MAREA":"石子崎","LANE":" ","ALLEY":" ","HOUSE_NO":"３５號","E_COORD97":186594.39888699999,"N_COORD97":2553979.99743,"ADDRESS":"石子崎３５號","OBJECTID":4554},"geometry":{"x":186594.39888700005,"y":2553979.9974340014}},{"attributes":{"ID":4555,"DIS_CODE":0,"TOWNNAME":"玉井區","LI":"玉田里","LIN":"39鄰","STREET":"中山路","SECT":" ","MAREA":" ","LANE":" ","ALLEY":" ","HOUSE_NO":"２號","E_COORD97":194568.83144899999,"N_COORD97":2557610.0995200002,"ADDRESS":"中山路２號","OBJECTID":4555},"geometry":{"x":194568.8314490011,"y":2557610.099522002}},{"attributes":{"ID":4556,"DIS_CODE":0,"TOWNNAME":"安南區","LI":"州南里","LIN":"6鄰","STREET":"長和路","SECT":"三段","MAREA":" ","LANE":"１５１巷","ALLEY":"５６弄","HOUSE_NO":"１１號","E_COORD97":169660.75411099999,"N_COORD97":2551442.53945,"ADDRESS":"長和路三段１５１巷５６弄１１號","OBJECTID":4556},"geometry":{"x":169660.75411100127,"y":2551442.5394470003}},{"attributes":{"ID":4557,"DIS_CODE":0,"TOWNNAME":"安南區","LI":"州南里","LIN":"6鄰","STREET":"長和路","SECT":"三段","MAREA":" ","LANE":"１５１巷","ALLEY":"５６弄","HOUSE_NO":"１３號","E_COORD97":169662.23624200001,"N_COORD97":2551439.1527800001,"ADDRESS":"長和路三段１５１巷５６弄１３號","OBJECTID":4557},"geometry":{"x":169662.23624200001,"y":2551439.1527820025}},{"attributes":{"ID":4558,"DIS_CODE":0,"TOWNNAME":"關廟區","LI":"新光里","LIN":"14鄰","STREET":"新光街","SECT":" ","MAREA":" ","LANE":" ","ALLEY":" ","HOUSE_NO":"１５３號","E_COORD97":184070.26083300001,"N_COORD97":2541512.09234,"ADDRESS":"新光街１５３號","OBJECTID":4558},"geometry":{"x":184070.26083299983,"y":2541512.0923410002}},{"attributes":{"ID":4559,"DIS_CODE":0,"TOWNNAME":"安南區","LI":"州南里","LIN":"6鄰","STREET":"長和路","SECT":"三段","MAREA":" ","LANE":"１５１巷","ALLEY":"５６弄","HOUSE_NO":"８號","E_COORD97":169649.532259,"N_COORD97":2551464.55277,"ADDRESS":"長和路三段１５１巷５６弄８號","OBJECTID":4559},"geometry":{"x":169649.53225900047,"y":2551464.5527679995}},{"attributes":{"ID":4560,"DIS_CODE":0,"TOWNNAME":"安南區","LI":"州南里","LIN":"7鄰","STREET":"長和路","SECT":"三段","MAREA":" ","LANE":"１５１巷","ALLEY":"５６弄","HOUSE_NO":"２０號","E_COORD97":169604.64485400001,"N_COORD97":2551456.9327699998,"ADDRESS":"長和路三段１５１巷５６弄２０號","OBJECTID":4560},"geometry":{"x":169604.64485400077,"y":2551456.9327720013}},{"attributes":{"ID":4561,"DIS_CODE":0,"TOWNNAME":"下營區","LI":"後街里","LIN":"19鄰","STREET":"大和街","SECT":" ","MAREA":" ","LANE":" ","ALLEY":" ","HOUSE_NO":"８６號","E_COORD97":174501.688161,"N_COORD97":2571248.9046499999,"ADDRESS":"大和街８６號","OBJECTID":4561},"geometry":{"x":174501.68816099968,"y":2571248.9046500009}},{"attributes":{"ID":4562,"DIS_CODE":0,"TOWNNAME":"下營區","LI":"大埤里","LIN":"10鄰","STREET":" ","SECT":" ","MAREA":"大埤寮","LANE":" ","ALLEY":" ","HOUSE_NO":"９２號之２３","E_COORD97":173244.42695699999,"N_COORD97":2568110.4802999999,"ADDRESS":"大埤寮９２號之２３","OBJECTID":4562},"geometry":{"x":173244.42695700098,"y":2568110.4802990016}},{"attributes":{"ID":4563,"DIS_CODE":0,"TOWNNAME":"安南區","LI":"州南里","LIN":"12鄰","STREET":"長和路","SECT":"三段","MAREA":" ","LANE":"１８巷","ALLEY":" ","HOUSE_NO":"３０號","E_COORD97":169882.438608,"N_COORD97":2551573.34938,"ADDRESS":"長和路三段１８巷３０號","OBJECTID":4563},"geometry":{"x":169882.43860800005,"y":2551573.3493760005}},{"attributes":{"ID":4564,"DIS_CODE":0,"TOWNNAME":"安南區","LI":"州南里","LIN":"12鄰","STREET":"長和路","SECT":"三段","MAREA":" ","LANE":"１８巷","ALLEY":" ","HOUSE_NO":"２２號","E_COORD97":169894.08392599999,"N_COORD97":2551558.53272,"ADDRESS":"長和路三段１８巷２２號","OBJECTID":4564},"geometry":{"x":169894.08392600063,"y":2551558.5327170007}},{"attributes":{"ID":4565,"DIS_CODE":0,"TOWNNAME":"安南區","LI":"州南里","LIN":"12鄰","STREET":"長和路","SECT":"三段","MAREA":" ","LANE":"１８巷","ALLEY":" ","HOUSE_NO":"２４號","E_COORD97":169891.33139599999,"N_COORD97":2551561.0727200001,"ADDRESS":"長和路三段１８巷２４號","OBJECTID":4565},"geometry":{"x":169891.33139600046,"y":2551561.0727160014}},{"attributes":{"ID":4566,"DIS_CODE":0,"TOWNNAME":"新營區","LI":"王公里","LIN":"19鄰","STREET":"民族路","SECT":" ","MAREA":" ","LANE":"１１４巷","ALLEY":" ","HOUSE_NO":"４５號","E_COORD97":180472.11578699999,"N_COORD97":2579219.7197099999,"ADDRESS":"民族路１１４巷４５號","OBJECTID":4566},"geometry":{"x":180472.11578700133,"y":2579219.719707001}},{"attributes":{"ID":4567,"DIS_CODE":0,"TOWNNAME":"新營區","LI":"王公里","LIN":"19鄰","STREET":"民族路","SECT":" ","MAREA":" ","LANE":" ","ALLEY":" ","HOUSE_NO":"１１０號之２","E_COORD97":180336.85999999999,"N_COORD97":2579188.0499999998,"ADDRESS":"民族路１１０號之２","OBJECTID":4567},"geometry":{"x":180336.8600000022,"y":2579188.0500000007}},{"attributes":{"ID":4568,"DIS_CODE":0,"TOWNNAME":"山上區","LI":"平陽里","LIN":"4鄰","STREET":" ","SECT":" ","MAREA":"石子崎","LANE":" ","ALLEY":" ","HOUSE_NO":"４７號","E_COORD97":186560.923071,"N_COORD97":2553999.68242,"ADDRESS":"石子崎４７號","OBJECTID":4568},"geometry":{"x":186560.92307100073,"y":2553999.6824239977}},{"attributes":{"ID":4569,"DIS_CODE":0,"TOWNNAME":"安南區","LI":"州南里","LIN":"9鄰","STREET":"長和路","SECT":"三段","MAREA":" ","LANE":"３８巷","ALLEY":" ","HOUSE_NO":"４２號","E_COORD97":169812.99017,"N_COORD97":2551608.2743600002,"ADDRESS":"長和路三段３８巷４２號","OBJECTID":4569},"geometry":{"x":169812.99017000105,"y":2551608.2743570041}},{"attributes":{"ID":4570,"DIS_CODE":0,"TOWNNAME":"安南區","LI":"州南里","LIN":"9鄰","STREET":"長和路","SECT":"三段","MAREA":" ","LANE":"３８巷","ALLEY":" ","HOUSE_NO":"４６號","E_COORD97":169809.39070799999,"N_COORD97":2551612.2960199998,"ADDRESS":"長和路三段３８巷４６號","OBJECTID":4570},"geometry":{"x":169809.39070800133,"y":2551612.2960219998}},{"attributes":{"ID":4571,"DIS_CODE":0,"TOWNNAME":"安南區","LI":"州南里","LIN":"5鄰","STREET":"長和路","SECT":"三段","MAREA":" ","LANE":" ","ALLEY":" ","HOUSE_NO":"６１號","E_COORD97":169820.612559,"N_COORD97":2551498.4194200002,"ADDRESS":"長和路三段６１號","OBJECTID":4571},"geometry":{"x":169820.61255900003,"y":2551498.4194159992}},{"attributes":{"ID":4572,"DIS_CODE":0,"TOWNNAME":"山上區","LI":"平陽里","LIN":"4鄰","STREET":" ","SECT":" ","MAREA":"石子崎","LANE":" ","ALLEY":" ","HOUSE_NO":"４７之６號","E_COORD97":186548.63448000001,"N_COORD97":2554024.8707400002,"ADDRESS":"石子崎４７之６號","OBJECTID":4572},"geometry":{"x":186548.63448000047,"y":2554024.8707430027}},{"attributes":{"ID":4573,"DIS_CODE":0,"TOWNNAME":"安南區","LI":"頂安里","LIN":"17鄰","STREET":"北安路","SECT":"二段","MAREA":" ","LANE":" ","ALLEY":" ","HOUSE_NO":"６３６號","E_COORD97":168285.46909500001,"N_COORD97":2548743.7627699999,"ADDRESS":"北安路二段６３６號","OBJECTID":4573},"geometry":{"x":168285.46909500007,"y":2548743.7627719995}},{"attributes":{"ID":4574,"DIS_CODE":0,"TOWNNAME":"佳里區","LI":"安西里","LIN":"41鄰","STREET":"佳西路","SECT":" ","MAREA":" ","LANE":" ","ALLEY":" ","HOUSE_NO":"２１５號","E_COORD97":164763.94543299999,"N_COORD97":2562558.8752100002,"ADDRESS":"佳西路２１５號","OBJECTID":4574},"geometry":{"x":164763.94543300103,"y":2562558.8752109986}},{"attributes":{"ID":4575,"DIS_CODE":0,"TOWNNAME":"安南區","LI":"\u25A0田里","LIN":"1鄰","STREET":"本田路","SECT":"三段","MAREA":" ","LANE":"８７巷","ALLEY":" ","HOUSE_NO":"３號","E_COORD97":163929.08815299999,"N_COORD97":2549164.9810799998,"ADDRESS":"本田路三段８７巷３號","OBJECTID":4575},"geometry":{"x":163929.08815299999,"y":2549164.9810819998}},{"attributes":{"ID":4576,"DIS_CODE":0,"TOWNNAME":"安南區","LI":"\u25A0田里","LIN":"8鄰","STREET":"本田路","SECT":"三段","MAREA":" ","LANE":"８７巷","ALLEY":" ","HOUSE_NO":"６號","E_COORD97":163921.99345899999,"N_COORD97":2549169.8494099998,"ADDRESS":"本田路三段８７巷６號","OBJECTID":4576},"geometry":{"x":163921.99345900118,"y":2549169.849413}},{"attributes":{"ID":4577,"DIS_CODE":0,"TOWNNAME":"安南區","LI":"\u25A0田里","LIN":"8鄰","STREET":"本田路","SECT":"三段","MAREA":" ","LANE":"８７巷","ALLEY":" ","HOUSE_NO":"６號之１","E_COORD97":163921.67578600001,"N_COORD97":2549173.6594099998,"ADDRESS":"本田路三段８７巷６號之１","OBJECTID":4577},"geometry":{"x":163921.67578600068,"y":2549173.6594110001}},{"attributes":{"ID":4578,"DIS_CODE":0,"TOWNNAME":"七股區","LI":"大埕里","LIN":"4鄰","STREET":" ","SECT":" ","MAREA":"大埕","LANE":" ","ALLEY":" ","HOUSE_NO":"８號之１０","E_COORD97":163218.17976900001,"N_COORD97":2561410.1640699999,"ADDRESS":"大埕８號之１０","OBJECTID":4578},"geometry":{"x":163218.17976900004,"y":2561410.1640650015}},{"attributes":{"ID":4579,"DIS_CODE":0,"TOWNNAME":"七股區","LI":"大埕里","LIN":"4鄰","STREET":" ","SECT":" ","MAREA":"大埕","LANE":" ","ALLEY":" ","HOUSE_NO":"８號之１２","E_COORD97":163216.059955,"N_COORD97":2561420.1123899999,"ADDRESS":"大埕８號之１２","OBJECTID":4579},"geometry":{"x":163216.05995499995,"y":2561420.1123929992}},{"attributes":{"ID":4580,"DIS_CODE":0,"TOWNNAME":"佳里區","LI":"安西里","LIN":"39鄰","STREET":"文化路","SECT":" ","MAREA":" ","LANE":"５３６巷","ALLEY":"７弄","HOUSE_NO":"１號","E_COORD97":164865.96895000001,"N_COORD97":2562628.0236900002,"ADDRESS":"文化路５３６巷７弄１號","OBJECTID":4580},"geometry":{"x":164865.96895000059,"y":2562628.023690002}},{"attributes":{"ID":4581,"DIS_CODE":0,"TOWNNAME":"六甲區","LI":"甲東里","LIN":"11鄰","STREET":"裕農街","SECT":" ","MAREA":" ","LANE":"２００巷","ALLEY":" ","HOUSE_NO":"１５號","E_COORD97":184970.63550100001,"N_COORD97":2570005.5927499998,"ADDRESS":"裕農街２００巷１５號","OBJECTID":4581},"geometry":{"x":184970.6355010001,"y":2570005.5927490015}},{"attributes":{"ID":4582,"DIS_CODE":0,"TOWNNAME":"佳里區","LI":"建南里","LIN":"33鄰","STREET":"佳南路","SECT":" ","MAREA":" ","LANE":" ","ALLEY":" ","HOUSE_NO":"３１９號","E_COORD97":165801.764069,"N_COORD97":2560891.5740899998,"ADDRESS":"佳南路３１９號","OBJECTID":4582},"geometry":{"x":165801.76406899933,"y":2560891.5740940012}},{"attributes":{"ID":4583,"DIS_CODE":0,"TOWNNAME":"安南區","LI":"頂安里","LIN":"13鄰","STREET":"安中一街","SECT":" ","MAREA":" ","LANE":"６７巷","ALLEY":" ","HOUSE_NO":"１號","E_COORD97":168557.064052,"N_COORD97":2548484.68273,"ADDRESS":"安中一街６７巷１號","OBJECTID":4583},"geometry":{"x":168557.06405200064,"y":2548484.6827340014}},{"attributes":{"ID":4584,"DIS_CODE":0,"TOWNNAME":"安南區","LI":"\u25A0田里","LIN":"8鄰","STREET":"本田路","SECT":"三段","MAREA":" ","LANE":" ","ALLEY":" ","HOUSE_NO":"７１號","E_COORD97":163878.564931,"N_COORD97":2549106.6404900001,"ADDRESS":"本田路三段７１號","OBJECTID":4584},"geometry":{"x":163878.56493100058,"y":2549106.6404890027}},{"attributes":{"ID":4585,"DIS_CODE":0,"TOWNNAME":"安南區","LI":"頂安里","LIN":"13鄰","STREET":"安中一街","SECT":" ","MAREA":" ","LANE":" ","ALLEY":" ","HOUSE_NO":"７５號","E_COORD97":168555.15646100001,"N_COORD97":2548521.5127099999,"ADDRESS":"安中一街７５號","OBJECTID":4585},"geometry":{"x":168555.15646100044,"y":2548521.5127140041}},{"attributes":{"ID":4586,"DIS_CODE":0,"TOWNNAME":"安南區","LI":"頂安里","LIN":"13鄰","STREET":"安中一街","SECT":" ","MAREA":" ","LANE":" ","ALLEY":" ","HOUSE_NO":"６９號","E_COORD97":168564.48246200001,"N_COORD97":2548498.8643899998,"ADDRESS":"安中一街６９號","OBJECTID":4586},"geometry":{"x":168564.48246199917,"y":2548498.8643929996}},{"attributes":{"ID":4587,"DIS_CODE":0,"TOWNNAME":"中西區","LI":"赤嵌里","LIN":"16鄰","STREET":"忠義路","SECT":"二段","MAREA":" ","LANE":"２０２巷","ALLEY":" ","HOUSE_NO":"３３號","E_COORD97":168482.51470900001,"N_COORD97":2544212.2333999998,"ADDRESS":"忠義路二段２０２巷３３號","OBJECTID":4587},"geometry":{"x":168482.51470899954,"y":2544212.2334039994}},{"attributes":{"ID":4588,"DIS_CODE":0,"TOWNNAME":"新營區","LI":"王公里","LIN":"22鄰","STREET":"大仁街","SECT":" ","MAREA":" ","LANE":" ","ALLEY":" ","HOUSE_NO":"７７號","E_COORD97":180461.62761699999,"N_COORD97":2579389.6763800001,"ADDRESS":"大仁街７７號","OBJECTID":4588},"geometry":{"x":180461.6276170006,"y":2579389.6763809994}},{"attributes":{"ID":4589,"DIS_CODE":0,"TOWNNAME":"安南區","LI":"頂安里","LIN":"8鄰","STREET":"怡安路","SECT":"一段","MAREA":" ","LANE":"４４６巷","ALLEY":" ","HOUSE_NO":"３號","E_COORD97":168597.54737499999,"N_COORD97":2549222.0323100002,"ADDRESS":"怡安路一段４４６巷３號","OBJECTID":4589},"geometry":{"x":168597.54737500101,"y":2549222.0323070008}},{"attributes":{"ID":4590,"DIS_CODE":0,"TOWNNAME":"安南區","LI":"頂安里","LIN":"20鄰","STREET":"長溪路","SECT":"一段","MAREA":" ","LANE":"４０７巷","ALLEY":"２７弄","HOUSE_NO":"１０號","E_COORD97":168546.466323,"N_COORD97":2548788.4333799998,"ADDRESS":"長溪路一段４０７巷２７弄１０號","OBJECTID":4590},"geometry":{"x":168546.46632300131,"y":2548788.4333750028}},{"attributes":{"ID":4591,"DIS_CODE":0,"TOWNNAME":"安南區","LI":"頂安里","LIN":"20鄰","STREET":"長溪路","SECT":"一段","MAREA":" ","LANE":"４０７巷","ALLEY":"２７弄","HOUSE_NO":"２之１號","E_COORD97":168533.74904900001,"N_COORD97":2548792.0317099998,"ADDRESS":"長溪路一段４０７巷２７弄２之１號","OBJECTID":4591},"geometry":{"x":168533.7490490023,"y":2548792.0317060016}},{"attributes":{"ID":4592,"DIS_CODE":0,"TOWNNAME":"安南區","LI":"頂安里","LIN":"14鄰","STREET":"長溪路","SECT":"一段","MAREA":" ","LANE":"４０７巷","ALLEY":"１６弄","HOUSE_NO":"３９之１號","E_COORD97":168449.60308299999,"N_COORD97":2548893.31415,"ADDRESS":"長溪路一段４０７巷１６弄３９之１號","OBJECTID":4592},"geometry":{"x":168449.60308300145,"y":2548893.3141520042}},{"attributes":{"ID":4593,"DIS_CODE":0,"TOWNNAME":"安南區","LI":"頂安里","LIN":"20鄰","STREET":"長溪路","SECT":"一段","MAREA":" ","LANE":"４０７巷","ALLEY":"２７弄","HOUSE_NO":"６號","E_COORD97":168453.41826499999,"N_COORD97":2548888.6574900001,"ADDRESS":"長溪路一段４０７巷２７弄６號","OBJECTID":4593},"geometry":{"x":168453.41826499999,"y":2548888.6574869994}},{"attributes":{"ID":4594,"DIS_CODE":0,"TOWNNAME":"安南區","LI":"頂安里","LIN":"14鄰","STREET":"長溪路","SECT":"一段","MAREA":" ","LANE":"４０７巷","ALLEY":"３０弄","HOUSE_NO":"４２號","E_COORD97":168457.23344700001,"N_COORD97":2548887.8108199998,"ADDRESS":"長溪路一段４０７巷３０弄４２號","OBJECTID":4594},"geometry":{"x":168457.23344700038,"y":2548887.8108210023}},{"attributes":{"ID":4595,"DIS_CODE":0,"TOWNNAME":"山上區","LI":"平陽里","LIN":"2鄰","STREET":" ","SECT":" ","MAREA":"石子崎","LANE":" ","ALLEY":" ","HOUSE_NO":"１８之１３號","E_COORD97":185831.00032699999,"N_COORD97":2553585.2995699998,"ADDRESS":"石子崎１８之１３號","OBJECTID":4595},"geometry":{"x":185831.00032700133,"y":2553585.2995660044}},{"attributes":{"ID":4596,"DIS_CODE":0,"TOWNNAME":"山上區","LI":"平陽里","LIN":"2鄰","STREET":" ","SECT":" ","MAREA":"石子崎","LANE":" ","ALLEY":" ","HOUSE_NO":"１８之５０號","E_COORD97":185817.01675800001,"N_COORD97":2553574.9279,"ADDRESS":"石子崎１８之５０號","OBJECTID":4596},"geometry":{"x":185817.01675800048,"y":2553574.9279050045}},{"attributes":{"ID":4597,"DIS_CODE":0,"TOWNNAME":"安南區","LI":"頂安里","LIN":"16鄰","STREET":"長溪路","SECT":"一段","MAREA":" ","LANE":"４０７巷","ALLEY":" ","HOUSE_NO":"１００號","E_COORD97":168586.10182800001,"N_COORD97":2548736.6809,"ADDRESS":"長溪路一段４０７巷１００號","OBJECTID":4597},"geometry":{"x":168586.10182800144,"y":2548736.6809030008}},{"attributes":{"ID":4598,"DIS_CODE":0,"TOWNNAME":"安南區","LI":"頂安里","LIN":"16鄰","STREET":"長溪路","SECT":"一段","MAREA":" ","LANE":"４０７巷","ALLEY":" ","HOUSE_NO":"９２號","E_COORD97":168570.84109900001,"N_COORD97":2548740.06757,"ADDRESS":"長溪路一段４０７巷９２號","OBJECTID":4598},"geometry":{"x":168570.84109900054,"y":2548740.0675680004}},{"attributes":{"ID":4599,"DIS_CODE":0,"TOWNNAME":"安南區","LI":"頂安里","LIN":"16鄰","STREET":"長溪路","SECT":"一段","MAREA":" ","LANE":"４０７巷","ALLEY":" ","HOUSE_NO":"９６號","E_COORD97":168575.928009,"N_COORD97":2548738.5858999998,"ADDRESS":"長溪路一段４０７巷９６號","OBJECTID":4599},"geometry":{"x":168575.92800899968,"y":2548738.5859019998}},{"attributes":{"ID":4600,"DIS_CODE":0,"TOWNNAME":"安南區","LI":"頂安里","LIN":"16鄰","STREET":"長溪路","SECT":"一段","MAREA":" ","LANE":"４０７巷","ALLEY":" ","HOUSE_NO":"９８號","E_COORD97":168580.802964,"N_COORD97":2548737.1042399998,"ADDRESS":"長溪路一段４０７巷９８號","OBJECTID":4600},"geometry":{"x":168580.80296400096,"y":2548737.1042359993}}]}