{"displayFieldName":"TOWNNAME","fieldAliases":{"ID":"ID","DIS_CODE":"DIS_CODE","TOWNNAME":"TOWNNAME","LI":"LI","LIN":"LIN","STREET":"STREET","SECT":"SECT","MAREA":"MAREA","LANE":"LANE","ALLEY":"ALLEY","HOUSE_NO":"HOUSE_NO","E_COORD97":"E_COORD97","N_COORD97":"N_COORD97","ADDRESS":"ADDRESS","OBJECTID":"OBJECTID"},"geometryType":"esriGeometryPoint","spatialReference":{"wkid":102443,"latestWkid":3826},"fields":[{"name":"ID","type":"esriFieldTypeDouble","alias":"ID"},{"name":"DIS_CODE","type":"esriFieldTypeInteger","alias":"DIS_CODE"},{"name":"TOWNNAME","type":"esriFieldTypeString","alias":"TOWNNAME","length":8},{"name":"LI","type":"esriFieldTypeString","alias":"LI","length":8},{"name":"LIN","type":"esriFieldTypeString","alias":"LIN","length":12},{"name":"STREET","type":"esriFieldTypeString","alias":"STREET","length":20},{"name":"SECT","type":"esriFieldTypeString","alias":"SECT","length":8},{"name":"MAREA","type":"esriFieldTypeString","alias":"MAREA","length":12},{"name":"LANE","type":"esriFieldTypeString","alias":"LANE","length":10},{"name":"ALLEY","type":"esriFieldTypeString","alias":"ALLEY","length":10},{"name":"HOUSE_NO","type":"esriFieldTypeString","alias":"HOUSE_NO","length":20},{"name":"E_COORD97","type":"esriFieldTypeDouble","alias":"E_COORD97"},{"name":"N_COORD97","type":"esriFieldTypeDouble","alias":"N_COORD97"},{"name":"ADDRESS","type":"esriFieldTypeString","alias":"ADDRESS","length":50},{"name":"OBJECTID","type":"esriFieldTypeOID","alias":"OBJECTID"}],"features":[{"attributes":{"ID":389025,"DIS_CODE":0,"TOWNNAME":"中西區","LI":"郡西里","LIN":"1鄰","STREET":"海安路","SECT":"一段","MAREA":" ","LANE":" ","ALLEY":" ","HOUSE_NO":"１７號","E_COORD97":167425.26000000001,"N_COORD97":2543201.4500000002,"ADDRESS":"海安路一段１７號","OBJECTID":389001},"geometry":{"x":167425.26000000071,"y":2543201.4500000011}},{"attributes":{"ID":389026,"DIS_CODE":0,"TOWNNAME":"中西區","LI":"郡西里","LIN":"1鄰","STREET":"海安路","SECT":"一段","MAREA":" ","LANE":" ","ALLEY":" ","HOUSE_NO":"１９號","E_COORD97":167426.35999999999,"N_COORD97":2543205.3500000001,"ADDRESS":"海安路一段１９號","OBJECTID":389002},"geometry":{"x":167426.3600000022,"y":2543205.3500000015}},{"attributes":{"ID":389027,"DIS_CODE":0,"TOWNNAME":"中西區","LI":"郡西里","LIN":"1鄰","STREET":"海安路","SECT":"一段","MAREA":" ","LANE":" ","ALLEY":" ","HOUSE_NO":"２１號","E_COORD97":167425.98999999999,"N_COORD97":2543209.2599999998,"ADDRESS":"海安路一段２１號","OBJECTID":389003},"geometry":{"x":167425.99000000115,"y":2543209.2600000016}},{"attributes":{"ID":389028,"DIS_CODE":0,"TOWNNAME":"中西區","LI":"郡西里","LIN":"1鄰","STREET":"海安","SECT":" ","MAREA":" ","LANE":" ","ALLEY":" ","HOUSE_NO":"２３號","E_COORD97":167426.60000000001,"N_COORD97":2543213.77,"ADDRESS":"海安２３號","OBJECTID":389004},"geometry":{"x":167426.59999999963,"y":2543213.7699999996}},{"attributes":{"ID":389029,"DIS_CODE":0,"TOWNNAME":"中西區","LI":"郡西里","LIN":"1鄰","STREET":"海安路","SECT":"一段","MAREA":" ","LANE":" ","ALLEY":" ","HOUSE_NO":"２５號","E_COORD97":167425.87,"N_COORD97":2543218.8900000001,"ADDRESS":"海安路一段２５號","OBJECTID":389005},"geometry":{"x":167425.87000000011,"y":2543218.8900000043}},{"attributes":{"ID":389030,"DIS_CODE":0,"TOWNNAME":"中西區","LI":"郡西里","LIN":"1鄰","STREET":"海安路","SECT":"一段","MAREA":" ","LANE":" ","ALLEY":" ","HOUSE_NO":"２７號","E_COORD97":167426.23999999999,"N_COORD97":2543224.5,"ADDRESS":"海安路一段２７號","OBJECTID":389006},"geometry":{"x":167426.24000000022,"y":2543224.5000000019}},{"attributes":{"ID":389031,"DIS_CODE":0,"TOWNNAME":"中西區","LI":"郡西里","LIN":"1鄰","STREET":"海安路","SECT":"一段","MAREA":" ","LANE":" ","ALLEY":" ","HOUSE_NO":"２９號","E_COORD97":167425.98999999999,"N_COORD97":2543229.9900000002,"ADDRESS":"海安路一段２９號","OBJECTID":389007},"geometry":{"x":167425.99000000115,"y":2543229.9900000002}},{"attributes":{"ID":389032,"DIS_CODE":0,"TOWNNAME":"南區","LI":"白雪里","LIN":"1鄰","STREET":"鹽埕路","SECT":" ","MAREA":" ","LANE":"１５９巷","ALLEY":" ","HOUSE_NO":"９４號","E_COORD97":166611.44,"N_COORD97":2541204.29,"ADDRESS":"鹽埕路１５９巷９４號","OBJECTID":389008},"geometry":{"x":166611.44000000041,"y":2541204.290000001}},{"attributes":{"ID":389033,"DIS_CODE":0,"TOWNNAME":"南區","LI":"白雪里","LIN":"1鄰","STREET":"鹽埕路","SECT":" ","MAREA":" ","LANE":"１５９巷","ALLEY":" ","HOUSE_NO":"９６號","E_COORD97":166606.76000000001,"N_COORD97":2541206.1000000001,"ADDRESS":"鹽埕路１５９巷９６號","OBJECTID":389009},"geometry":{"x":166606.76000000071,"y":2541206.1000000015}},{"attributes":{"ID":389034,"DIS_CODE":0,"TOWNNAME":"南區","LI":"白雪里","LIN":"1鄰","STREET":"鹽埕路","SECT":" ","MAREA":" ","LANE":"１５９巷","ALLEY":" ","HOUSE_NO":"９８號","E_COORD97":166604.16,"N_COORD97":2541209.48,"ADDRESS":"鹽埕路１５９巷９８號","OBJECTID":389010},"geometry":{"x":166604.16000000108,"y":2541209.4800000004}},{"attributes":{"ID":389035,"DIS_CODE":0,"TOWNNAME":"南區","LI":"白雪里","LIN":"1鄰","STREET":"鹽埕路","SECT":" ","MAREA":" ","LANE":"１５９巷","ALLEY":" ","HOUSE_NO":"７２號之１","E_COORD97":166648.17000000001,"N_COORD97":2541164.9700000002,"ADDRESS":"鹽埕路１５９巷７２號之１","OBJECTID":389011},"geometry":{"x":166648.17000000086,"y":2541164.9700000025}},{"attributes":{"ID":389036,"DIS_CODE":0,"TOWNNAME":"南區","LI":"白雪里","LIN":"1鄰","STREET":"鹽埕路","SECT":" ","MAREA":" ","LANE":"１５９巷","ALLEY":" ","HOUSE_NO":"７０號之１","E_COORD97":166656.76000000001,"N_COORD97":2541155.6099999999,"ADDRESS":"鹽埕路１５９巷７０號之１","OBJECTID":389012},"geometry":{"x":166656.76000000164,"y":2541155.6100000013}},{"attributes":{"ID":389037,"DIS_CODE":0,"TOWNNAME":"安南區","LI":"梅花里","LIN":"1鄰","STREET":"安中路","SECT":"一段","MAREA":" ","LANE":"６３９巷","ALLEY":" ","HOUSE_NO":"３０號","E_COORD97":167736.39421500001,"N_COORD97":2549084.8351500002,"ADDRESS":"安中路一段６３９巷３０號","OBJECTID":389013},"geometry":{"x":167736.39421500172,"y":2549084.8351470027}},{"attributes":{"ID":389038,"DIS_CODE":0,"TOWNNAME":"安南區","LI":"梅花里","LIN":"1鄰","STREET":"安中路","SECT":"一段","MAREA":" ","LANE":"６３９巷","ALLEY":" ","HOUSE_NO":"３６號","E_COORD97":167733.53515899999,"N_COORD97":2549072.9818199999,"ADDRESS":"安中路一段６３９巷３６號","OBJECTID":389014},"geometry":{"x":167733.53515900113,"y":2549072.9818200022}},{"attributes":{"ID":389039,"DIS_CODE":0,"TOWNNAME":"安南區","LI":"梅花里","LIN":"1鄰","STREET":"安中路","SECT":"一段","MAREA":" ","LANE":"６３９巷","ALLEY":" ","HOUSE_NO":"３８號","E_COORD97":167731.099667,"N_COORD97":2549068.7484900001,"ADDRESS":"安中路一段６３９巷３８號","OBJECTID":389015},"geometry":{"x":167731.09966699965,"y":2549068.7484889999}},{"attributes":{"ID":389040,"DIS_CODE":0,"TOWNNAME":"仁德區","LI":"仁義里","LIN":"52鄰","STREET":"仁義路","SECT":" ","MAREA":" ","LANE":"２１巷","ALLEY":" ","HOUSE_NO":"４０號","E_COORD97":173517.57000000001,"N_COORD97":2541051.02,"ADDRESS":"仁義路２１巷４０號","OBJECTID":389016},"geometry":{"x":173517.57000000123,"y":2541051.0200000014}},{"attributes":{"ID":389041,"DIS_CODE":0,"TOWNNAME":"永康區","LI":"\u25A0洲里","LIN":"37鄰","STREET":"\u25A0洲二街","SECT":" ","MAREA":" ","LANE":"１７５巷","ALLEY":" ","HOUSE_NO":"１０１號","E_COORD97":171642.26000000001,"N_COORD97":2549523.6400000001,"ADDRESS":"\u25A0洲二街１７５巷１０１號","OBJECTID":389017},"geometry":{"x":171642.25999999885,"y":2549523.6400000025}},{"attributes":{"ID":389042,"DIS_CODE":0,"TOWNNAME":"仁德區","LI":"仁義里","LIN":"52鄰","STREET":"仁義三街","SECT":" ","MAREA":" ","LANE":"３４巷","ALLEY":" ","HOUSE_NO":"６號","E_COORD97":173440.92000000001,"N_COORD97":2541082.0099999998,"ADDRESS":"仁義三街３４巷６號","OBJECTID":389018},"geometry":{"x":173440.91999999993,"y":2541082.0100000016}},{"attributes":{"ID":389043,"DIS_CODE":0,"TOWNNAME":"仁德區","LI":"仁義里","LIN":"52鄰","STREET":"仁義路","SECT":" ","MAREA":" ","LANE":"２１巷","ALLEY":" ","HOUSE_NO":"５５號","E_COORD97":173505.60999999999,"N_COORD97":2541065.27,"ADDRESS":"仁義路２１巷５５號","OBJECTID":389019},"geometry":{"x":173505.61000000127,"y":2541065.2699999977}},{"attributes":{"ID":389044,"DIS_CODE":0,"TOWNNAME":"仁德區","LI":"仁義里","LIN":"52鄰","STREET":"仁義三街","SECT":" ","MAREA":" ","LANE":"３４巷","ALLEY":" ","HOUSE_NO":"１２號","E_COORD97":173457.07999999999,"N_COORD97":2541083.75,"ADDRESS":"仁義三街３４巷１２號","OBJECTID":389020},"geometry":{"x":173457.08000000007,"y":2541083.7500000019}},{"attributes":{"ID":389045,"DIS_CODE":0,"TOWNNAME":"仁德區","LI":"仁義里","LIN":"52鄰","STREET":"仁義三街","SECT":" ","MAREA":" ","LANE":"３４巷","ALLEY":" ","HOUSE_NO":"２號","E_COORD97":173430.14999999999,"N_COORD97":2541081.5099999998,"ADDRESS":"仁義三街３４巷２號","OBJECTID":389021},"geometry":{"x":173430.15000000037,"y":2541081.5100000016}},{"attributes":{"ID":389046,"DIS_CODE":0,"TOWNNAME":"永康區","LI":"西灣里","LIN":"52鄰","STREET":"永華路","SECT":" ","MAREA":" ","LANE":"３３９巷","ALLEY":" ","HOUSE_NO":"３１號","E_COORD97":173934.64000000001,"N_COORD97":2545929.25,"ADDRESS":"永華路３３９巷３１號","OBJECTID":389022},"geometry":{"x":173934.63999999966,"y":2545929.2500000019}},{"attributes":{"ID":389047,"DIS_CODE":0,"TOWNNAME":"永康區","LI":"西灣里","LIN":"52鄰","STREET":"永華路","SECT":" ","MAREA":" ","LANE":"３３９巷","ALLEY":" ","HOUSE_NO":"２７號","E_COORD97":173943.17999999999,"N_COORD97":2545931.75,"ADDRESS":"永華路３３９巷２７號","OBJECTID":389023},"geometry":{"x":173943.18000000156,"y":2545931.7500000019}},{"attributes":{"ID":389048,"DIS_CODE":0,"TOWNNAME":"永康區","LI":"西灣里","LIN":"52鄰","STREET":"永華路","SECT":" ","MAREA":" ","LANE":"３３９巷","ALLEY":" ","HOUSE_NO":"１３號之２","E_COORD97":173989.56,"N_COORD97":2545935.1699999999,"ADDRESS":"永華路３３９巷１３號之２","OBJECTID":389024},"geometry":{"x":173989.55999999866,"y":2545935.1700000037}},{"attributes":{"ID":389049,"DIS_CODE":0,"TOWNNAME":"永康區","LI":"西灣里","LIN":"52鄰","STREET":"永華路","SECT":" ","MAREA":" ","LANE":"３３９巷","ALLEY":" ","HOUSE_NO":"１３號之１","E_COORD97":173993.72,"N_COORD97":2545936.4199999999,"ADDRESS":"永華路３３９巷１３號之１","OBJECTID":389025},"geometry":{"x":173993.71999999881,"y":2545936.4199999999}},{"attributes":{"ID":389050,"DIS_CODE":0,"TOWNNAME":"永康區","LI":"西灣里","LIN":"52鄰","STREET":"永華路","SECT":" ","MAREA":" ","LANE":"３３９巷","ALLEY":" ","HOUSE_NO":"３號","E_COORD97":173984.20999999999,"N_COORD97":2545942.5299999998,"ADDRESS":"永華路３３９巷３號","OBJECTID":389026},"geometry":{"x":173984.21000000089,"y":2545942.5300000031}},{"attributes":{"ID":389051,"DIS_CODE":0,"TOWNNAME":"仁德區","LI":"仁義里","LIN":"52鄰","STREET":"仁義路","SECT":" ","MAREA":" ","LANE":"２１巷","ALLEY":" ","HOUSE_NO":"６３號","E_COORD97":173520.54000000001,"N_COORD97":2541069.5099999998,"ADDRESS":"仁義路２１巷６３號","OBJECTID":389027},"geometry":{"x":173520.54000000004,"y":2541069.5099999998}},{"attributes":{"ID":389052,"DIS_CODE":0,"TOWNNAME":"仁德區","LI":"仁義里","LIN":"52鄰","STREET":"仁義三街","SECT":" ","MAREA":" ","LANE":"３４巷","ALLEY":" ","HOUSE_NO":"８號","E_COORD97":173446.07999999999,"N_COORD97":2541082.7599999998,"ADDRESS":"仁義三街３４巷８號","OBJECTID":389028},"geometry":{"x":173446.08000000101,"y":2541082.7600000035}},{"attributes":{"ID":389053,"DIS_CODE":0,"TOWNNAME":"仁德區","LI":"仁義里","LIN":"52鄰","STREET":"仁義三街","SECT":" ","MAREA":" ","LANE":"３４巷","ALLEY":" ","HOUSE_NO":"１４號","E_COORD97":173462.57999999999,"N_COORD97":2541083.2599999998,"ADDRESS":"仁義三街３４巷１４號","OBJECTID":389029},"geometry":{"x":173462.58000000007,"y":2541083.2600000016}},{"attributes":{"ID":389054,"DIS_CODE":0,"TOWNNAME":"仁德區","LI":"仁義里","LIN":"52鄰","STREET":"仁義三街","SECT":" ","MAREA":" ","LANE":"１４巷","ALLEY":" ","HOUSE_NO":"１號","E_COORD97":173428.76000000001,"N_COORD97":2541053.27,"ADDRESS":"仁義三街１４巷１號","OBJECTID":389030},"geometry":{"x":173428.75999999978,"y":2541053.2700000014}},{"attributes":{"ID":389055,"DIS_CODE":0,"TOWNNAME":"歸仁區","LI":"辜厝里","LIN":"52鄰","STREET":"民權南路","SECT":" ","MAREA":" ","LANE":"３１５巷","ALLEY":" ","HOUSE_NO":"１號","E_COORD97":176982.82000000001,"N_COORD97":2540239.5899999999,"ADDRESS":"民權南路３１５巷１號","OBJECTID":389031},"geometry":{"x":176982.82000000123,"y":2540239.589999998}},{"attributes":{"ID":389056,"DIS_CODE":0,"TOWNNAME":"歸仁區","LI":"辜厝里","LIN":"52鄰","STREET":"中正十街","SECT":" ","MAREA":" ","LANE":"４７巷","ALLEY":" ","HOUSE_NO":"１號","E_COORD97":176990.97,"N_COORD97":2540270.5800000001,"ADDRESS":"中正十街４７巷１號","OBJECTID":389032},"geometry":{"x":176990.9700000016,"y":2540270.5800000038}},{"attributes":{"ID":389057,"DIS_CODE":0,"TOWNNAME":"歸仁區","LI":"南保里","LIN":"52鄰","STREET":"大順五街","SECT":" ","MAREA":" ","LANE":"２１巷","ALLEY":" ","HOUSE_NO":"２號","E_COORD97":176876.26999999999,"N_COORD97":2540554.25,"ADDRESS":"大順五街２１巷２號","OBJECTID":389033},"geometry":{"x":176876.26999999955,"y":2540554.2500000037}},{"attributes":{"ID":389058,"DIS_CODE":0,"TOWNNAME":"仁德區","LI":"仁義里","LIN":"52鄰","STREET":"仁義三街","SECT":" ","MAREA":" ","LANE":"１４巷","ALLEY":" ","HOUSE_NO":"３號","E_COORD97":173432.63,"N_COORD97":2541053.52,"ADDRESS":"仁義三街１４巷３號","OBJECTID":389034},"geometry":{"x":173432.63000000082,"y":2541053.5199999977}},{"attributes":{"ID":389059,"DIS_CODE":0,"TOWNNAME":"仁德區","LI":"仁義里","LIN":"52鄰","STREET":"仁義路","SECT":" ","MAREA":" ","LANE":"２１巷","ALLEY":" ","HOUSE_NO":"４１號","E_COORD97":173488.20000000001,"N_COORD97":2541043.02,"ADDRESS":"仁義路２１巷４１號","OBJECTID":389035},"geometry":{"x":173488.20000000112,"y":2541043.0199999996}},{"attributes":{"ID":389060,"DIS_CODE":0,"TOWNNAME":"永康區","LI":"西灣里","LIN":"52鄰","STREET":"永華路","SECT":" ","MAREA":" ","LANE":"３３９巷","ALLEY":" ","HOUSE_NO":"７號","E_COORD97":173992.62,"N_COORD97":2545945.0299999998,"ADDRESS":"永華路３３９巷７號","OBJECTID":389036},"geometry":{"x":173992.62000000011,"y":2545945.0299999993}},{"attributes":{"ID":389061,"DIS_CODE":0,"TOWNNAME":"永康區","LI":"西灣里","LIN":"52鄰","STREET":"永華路","SECT":" ","MAREA":" ","LANE":"３１７巷","ALLEY":" ","HOUSE_NO":"８號","E_COORD97":173992.38,"N_COORD97":2545913.25,"ADDRESS":"永華路３１７巷８號","OBJECTID":389037},"geometry":{"x":173992.37999999989,"y":2545913.25}},{"attributes":{"ID":389062,"DIS_CODE":0,"TOWNNAME":"仁德區","LI":"仁義里","LIN":"52鄰","STREET":"仁義路","SECT":" ","MAREA":" ","LANE":"２１巷","ALLEY":" ","HOUSE_NO":"４５號","E_COORD97":173493.31,"N_COORD97":2541049.27,"ADDRESS":"仁義路２１巷４５號","OBJECTID":389038},"geometry":{"x":173493.31000000052,"y":2541049.2700000014}},{"attributes":{"ID":389063,"DIS_CODE":0,"TOWNNAME":"仁德區","LI":"仁義里","LIN":"52鄰","STREET":"仁義三街","SECT":" ","MAREA":" ","LANE":"３４巷","ALLEY":" ","HOUSE_NO":"２８號","E_COORD97":173505.01999999999,"N_COORD97":2541084.2599999998,"ADDRESS":"仁義三街３４巷２８號","OBJECTID":389039},"geometry":{"x":173505.02000000142,"y":2541084.2600000016}},{"attributes":{"ID":389064,"DIS_CODE":0,"TOWNNAME":"仁德區","LI":"仁義里","LIN":"52鄰","STREET":"仁義三街","SECT":" ","MAREA":" ","LANE":"３４巷","ALLEY":" ","HOUSE_NO":"１０號","E_COORD97":173451.87,"N_COORD97":2541083.2599999998,"ADDRESS":"仁義三街３４巷１０號","OBJECTID":389040},"geometry":{"x":173451.87000000011,"y":2541083.2600000016}},{"attributes":{"ID":389065,"DIS_CODE":0,"TOWNNAME":"仁德區","LI":"仁義里","LIN":"52鄰","STREET":"仁義三街","SECT":" ","MAREA":" ","LANE":"１４巷","ALLEY":" ","HOUSE_NO":"５號","E_COORD97":173436.63,"N_COORD97":2541053.77,"ADDRESS":"仁義三街１４巷５號","OBJECTID":389041},"geometry":{"x":173436.62999999989,"y":2541053.7699999996}},{"attributes":{"ID":389066,"DIS_CODE":0,"TOWNNAME":"仁德區","LI":"仁義里","LIN":"52鄰","STREET":"仁義三街","SECT":" ","MAREA":" ","LANE":"３４巷","ALLEY":" ","HOUSE_NO":"４號","E_COORD97":173435.51000000001,"N_COORD97":2541081.7599999998,"ADDRESS":"仁義三街３４巷４號","OBJECTID":389042},"geometry":{"x":173435.50999999978,"y":2541081.7599999998}},{"attributes":{"ID":389067,"DIS_CODE":0,"TOWNNAME":"永康區","LI":"西灣里","LIN":"52鄰","STREET":"永華路","SECT":" ","MAREA":" ","LANE":"３３９巷","ALLEY":" ","HOUSE_NO":"３５號","E_COORD97":173925.89000000001,"N_COORD97":2545926.75,"ADDRESS":"永華路３３９巷３５號","OBJECTID":389043},"geometry":{"x":173925.88999999966,"y":2545926.75}},{"attributes":{"ID":389068,"DIS_CODE":0,"TOWNNAME":"永康區","LI":"\u25A0洲里","LIN":"31鄰","STREET":"洲尾街","SECT":" ","MAREA":" ","LANE":"３１９巷","ALLEY":" ","HOUSE_NO":"３７號","E_COORD97":171024.32999999999,"N_COORD97":2549199.77,"ADDRESS":"洲尾街３１９巷３７號","OBJECTID":389044},"geometry":{"x":171024.33000000007,"y":2549199.7700000014}},{"attributes":{"ID":389069,"DIS_CODE":0,"TOWNNAME":"永康區","LI":"中華里","LIN":"25鄰","STREET":"忠義街","SECT":" ","MAREA":" ","LANE":"７１巷","ALLEY":" ","HOUSE_NO":"１１號","E_COORD97":171672.63,"N_COORD97":2544612.3999999999,"ADDRESS":"忠義街７１巷１１號","OBJECTID":389045},"geometry":{"x":171672.63000000082,"y":2544612.4000000022}},{"attributes":{"ID":389070,"DIS_CODE":0,"TOWNNAME":"永康區","LI":"中華里","LIN":"4鄰","STREET":"小東路","SECT":" ","MAREA":" ","LANE":"６４７巷","ALLEY":" ","HOUSE_NO":"１８號","E_COORD97":171950.87,"N_COORD97":2544407.0699999998,"ADDRESS":"小東路６４７巷１８號","OBJECTID":389046},"geometry":{"x":171950.87000000104,"y":2544407.070000004}},{"attributes":{"ID":389071,"DIS_CODE":0,"TOWNNAME":"永康區","LI":"中華里","LIN":"4鄰","STREET":"小東路","SECT":" ","MAREA":" ","LANE":"６８５巷","ALLEY":" ","HOUSE_NO":"１１號","E_COORD97":172027.98999999999,"N_COORD97":2544407.2799999998,"ADDRESS":"小東路６８５巷１１號","OBJECTID":389047},"geometry":{"x":172027.99000000115,"y":2544407.2799999993}},{"attributes":{"ID":389072,"DIS_CODE":0,"TOWNNAME":"永康區","LI":"中華里","LIN":"5鄰","STREET":"忠勇街","SECT":" ","MAREA":" ","LANE":"３２巷","ALLEY":" ","HOUSE_NO":"２５號","E_COORD97":171997.03,"N_COORD97":2544432.9300000002,"ADDRESS":"忠勇街３２巷２５號","OBJECTID":389048},"geometry":{"x":171997.03000000212,"y":2544432.9300000016}},{"attributes":{"ID":389073,"DIS_CODE":0,"TOWNNAME":"永康區","LI":"中華里","LIN":"18鄰","STREET":"中華路","SECT":" ","MAREA":" ","LANE":"１０巷","ALLEY":" ","HOUSE_NO":"３７號","E_COORD97":171687.17999999999,"N_COORD97":2544482.0899999999,"ADDRESS":"中華路１０巷３７號","OBJECTID":389049},"geometry":{"x":171687.18000000063,"y":2544482.0900000017}},{"attributes":{"ID":389074,"DIS_CODE":0,"TOWNNAME":"永康區","LI":"中華里","LIN":"25鄰","STREET":"忠義街","SECT":" ","MAREA":" ","LANE":"８１巷","ALLEY":" ","HOUSE_NO":"２號","E_COORD97":171706.31,"N_COORD97":2544651.2000000002,"ADDRESS":"忠義街８１巷２號","OBJECTID":389050},"geometry":{"x":171706.31000000145,"y":2544651.1999999993}},{"attributes":{"ID":389075,"DIS_CODE":0,"TOWNNAME":"永康區","LI":"中華里","LIN":"1鄰","STREET":"小東路","SECT":" ","MAREA":" ","LANE":"６８５巷","ALLEY":" ","HOUSE_NO":"８號之３１","E_COORD97":172049.73999999999,"N_COORD97":2544401.7400000002,"ADDRESS":"小東路６８５巷８號之３１","OBJECTID":389051},"geometry":{"x":172049.73999999929,"y":2544401.7400000002}},{"attributes":{"ID":389076,"DIS_CODE":0,"TOWNNAME":"永康區","LI":"中華里","LIN":"9鄰","STREET":"小東路","SECT":" ","MAREA":" ","LANE":"６４７巷","ALLEY":" ","HOUSE_NO":"８７號","E_COORD97":171931.19,"N_COORD97":2544539.8900000001,"ADDRESS":"小東路６４７巷８７號","OBJECTID":389052},"geometry":{"x":171931.19000000041,"y":2544539.8900000006}},{"attributes":{"ID":389077,"DIS_CODE":0,"TOWNNAME":"永康區","LI":"中華里","LIN":"25鄰","STREET":"忠義街","SECT":" ","MAREA":" ","LANE":"７１巷","ALLEY":" ","HOUSE_NO":"１９號","E_COORD97":171656.37,"N_COORD97":2544613.1000000001,"ADDRESS":"忠義街７１巷１９號","OBJECTID":389053},"geometry":{"x":171656.37000000104,"y":2544613.1000000034}},{"attributes":{"ID":389078,"DIS_CODE":0,"TOWNNAME":"永康區","LI":"中華里","LIN":"8鄰","STREET":"小東路","SECT":" ","MAREA":" ","LANE":"６４７巷","ALLEY":" ","HOUSE_NO":"４９號","E_COORD97":171917.54999999999,"N_COORD97":2544468.4900000002,"ADDRESS":"小東路６４７巷４９號","OBJECTID":389054},"geometry":{"x":171917.55000000075,"y":2544468.4899999984}},{"attributes":{"ID":389079,"DIS_CODE":0,"TOWNNAME":"永康區","LI":"中華里","LIN":"15鄰","STREET":"忠義街","SECT":" ","MAREA":" ","LANE":"６０巷","ALLEY":" ","HOUSE_NO":"１８號","E_COORD97":171777.76000000001,"N_COORD97":2544511.23,"ADDRESS":"忠義街６０巷１８號","OBJECTID":389055},"geometry":{"x":171777.75999999978,"y":2544511.2299999986}},{"attributes":{"ID":389080,"DIS_CODE":0,"TOWNNAME":"永康區","LI":"中華里","LIN":"1鄰","STREET":"小東路","SECT":" ","MAREA":" ","LANE":"６８５巷","ALLEY":" ","HOUSE_NO":"８號之１１","E_COORD97":172049.73999999999,"N_COORD97":2544401.7400000002,"ADDRESS":"小東路６８５巷８號之１１","OBJECTID":389056},"geometry":{"x":172049.73999999929,"y":2544401.7400000002}},{"attributes":{"ID":389081,"DIS_CODE":0,"TOWNNAME":"永康區","LI":"中華里","LIN":"1鄰","STREET":"小東路","SECT":" ","MAREA":" ","LANE":"６８５巷","ALLEY":" ","HOUSE_NO":"８號之１８","E_COORD97":172049.89000000001,"N_COORD97":2544401.7400000002,"ADDRESS":"小東路６８５巷８號之１８","OBJECTID":389057},"geometry":{"x":172049.89000000153,"y":2544401.7400000002}},{"attributes":{"ID":389082,"DIS_CODE":0,"TOWNNAME":"永康區","LI":"中華里","LIN":"1鄰","STREET":"小東路","SECT":" ","MAREA":" ","LANE":"６８５巷","ALLEY":" ","HOUSE_NO":"８號之７","E_COORD97":172048.57000000001,"N_COORD97":2544401.7400000002,"ADDRESS":"小東路６８５巷８號之７","OBJECTID":389058},"geometry":{"x":172048.5700000003,"y":2544401.7400000002}},{"attributes":{"ID":389083,"DIS_CODE":0,"TOWNNAME":"永康區","LI":"中華里","LIN":"10鄰","STREET":"忠義街","SECT":" ","MAREA":" ","LANE":"１０巷","ALLEY":" ","HOUSE_NO":"３２號","E_COORD97":171824.31,"N_COORD97":2544371.73,"ADDRESS":"忠義街１０巷３２號","OBJECTID":389059},"geometry":{"x":171824.30999999959,"y":2544371.7300000004}},{"attributes":{"ID":389084,"DIS_CODE":0,"TOWNNAME":"永康區","LI":"西灣里","LIN":"52鄰","STREET":"永華路","SECT":" ","MAREA":" ","LANE":"３３９巷","ALLEY":" ","HOUSE_NO":"２３號","E_COORD97":173951.79000000001,"N_COORD97":2545934.25,"ADDRESS":"永華路３３９巷２３號","OBJECTID":389060},"geometry":{"x":173951.79000000097,"y":2545934.25}},{"attributes":{"ID":389085,"DIS_CODE":0,"TOWNNAME":"永康區","LI":"西灣里","LIN":"52鄰","STREET":"永華路","SECT":" ","MAREA":" ","LANE":"３３９巷","ALLEY":" ","HOUSE_NO":"９號","E_COORD97":173997.10999999999,"N_COORD97":2545946.2799999998,"ADDRESS":"永華路３３９巷９號","OBJECTID":389061},"geometry":{"x":173997.11000000127,"y":2545946.2799999993}},{"attributes":{"ID":389086,"DIS_CODE":0,"TOWNNAME":"永康區","LI":"西灣里","LIN":"52鄰","STREET":"永華路","SECT":" ","MAREA":" ","LANE":"３３９巷","ALLEY":" ","HOUSE_NO":"５號","E_COORD97":173988.42000000001,"N_COORD97":2545943.7799999998,"ADDRESS":"永華路３３９巷５號","OBJECTID":389062},"geometry":{"x":173988.42000000086,"y":2545943.7799999975}},{"attributes":{"ID":389087,"DIS_CODE":0,"TOWNNAME":"永康區","LI":"西灣里","LIN":"52鄰","STREET":"永華路","SECT":" ","MAREA":" ","LANE":"３３９巷","ALLEY":" ","HOUSE_NO":"２１號","E_COORD97":173956.29000000001,"N_COORD97":2545935.5,"ADDRESS":"永華路３３９巷２１號","OBJECTID":389063},"geometry":{"x":173956.28999999911,"y":2545935.5}},{"attributes":{"ID":389088,"DIS_CODE":0,"TOWNNAME":"永康區","LI":"西灣里","LIN":"52鄰","STREET":"永華路","SECT":" ","MAREA":" ","LANE":"３３９巷","ALLEY":" ","HOUSE_NO":"１５號","E_COORD97":173969.20000000001,"N_COORD97":2545938.9900000002,"ADDRESS":"永華路３３９巷１５號","OBJECTID":389064},"geometry":{"x":173969.20000000112,"y":2545938.9900000002}},{"attributes":{"ID":389089,"DIS_CODE":0,"TOWNNAME":"永康區","LI":"西灣里","LIN":"52鄰","STREET":"永華路","SECT":" ","MAREA":" ","LANE":"３３９巷","ALLEY":" ","HOUSE_NO":"３７號","E_COORD97":173921.89000000001,"N_COORD97":2545925.5,"ADDRESS":"永華路３３９巷３７號","OBJECTID":389065},"geometry":{"x":173921.8900000006,"y":2545925.5}},{"attributes":{"ID":389090,"DIS_CODE":0,"TOWNNAME":"永康區","LI":"西灣里","LIN":"52鄰","STREET":"永華路","SECT":" ","MAREA":" ","LANE":"３３９巷","ALLEY":" ","HOUSE_NO":"２９號","E_COORD97":173938.89000000001,"N_COORD97":2545930.5,"ADDRESS":"永華路３３９巷２９號","OBJECTID":389066},"geometry":{"x":173938.8900000006,"y":2545930.5000000019}},{"attributes":{"ID":389091,"DIS_CODE":0,"TOWNNAME":"永康區","LI":"西灣里","LIN":"52鄰","STREET":"永華路","SECT":" ","MAREA":" ","LANE":"３３９巷","ALLEY":" ","HOUSE_NO":"３３號","E_COORD97":173930.20000000001,"N_COORD97":2545928,"ADDRESS":"永華路３３９巷３３號","OBJECTID":389067},"geometry":{"x":173930.20000000112,"y":2545928}},{"attributes":{"ID":389092,"DIS_CODE":0,"TOWNNAME":"歸仁區","LI":"辜厝里","LIN":"52鄰","STREET":"民權南路","SECT":" ","MAREA":" ","LANE":"３１５巷","ALLEY":" ","HOUSE_NO":"３號","E_COORD97":176987.92000000001,"N_COORD97":2540240.5899999999,"ADDRESS":"民權南路３１５巷３號","OBJECTID":389068},"geometry":{"x":176987.91999999993,"y":2540240.5900000017}},{"attributes":{"ID":389093,"DIS_CODE":0,"TOWNNAME":"永康區","LI":"中華里","LIN":"23鄰","STREET":"忠勇街","SECT":" ","MAREA":" ","LANE":"６３巷","ALLEY":" ","HOUSE_NO":"２８號","E_COORD97":171762.85000000001,"N_COORD97":2544625.2999999998,"ADDRESS":"忠勇街６３巷２８號","OBJECTID":389069},"geometry":{"x":171762.84999999963,"y":2544625.3000000007}},{"attributes":{"ID":389094,"DIS_CODE":0,"TOWNNAME":"歸仁區","LI":"辜厝里","LIN":"52鄰","STREET":"民權南路","SECT":" ","MAREA":" ","LANE":"３１５巷","ALLEY":" ","HOUSE_NO":"５號","E_COORD97":176993.12,"N_COORD97":2540240.5899999999,"ADDRESS":"民權南路３１５巷５號","OBJECTID":389070},"geometry":{"x":176993.12000000011,"y":2540240.5900000017}},{"attributes":{"ID":389095,"DIS_CODE":0,"TOWNNAME":"永康區","LI":"中華里","LIN":"14鄰","STREET":"忠義街","SECT":" ","MAREA":" ","LANE":"４４巷","ALLEY":" ","HOUSE_NO":"１６號","E_COORD97":171767.23999999999,"N_COORD97":2544462.5299999998,"ADDRESS":"忠義街４４巷１６號","OBJECTID":389071},"geometry":{"x":171767.24000000115,"y":2544462.5299999993}},{"attributes":{"ID":389096,"DIS_CODE":0,"TOWNNAME":"永康區","LI":"中華里","LIN":"8鄰","STREET":"小東路","SECT":" ","MAREA":" ","LANE":"６４７巷","ALLEY":" ","HOUSE_NO":"５５號","E_COORD97":171931.63,"N_COORD97":2544469.1400000001,"ADDRESS":"小東路６４７巷５５號","OBJECTID":389072},"geometry":{"x":171931.63000000175,"y":2544469.1400000025}},{"attributes":{"ID":389097,"DIS_CODE":0,"TOWNNAME":"歸仁區","LI":"南保里","LIN":"52鄰","STREET":"大順五街","SECT":" ","MAREA":" ","LANE":"２１巷","ALLEY":" ","HOUSE_NO":"６號","E_COORD97":176880.37,"N_COORD97":2540554.25,"ADDRESS":"大順五街２１巷６號","OBJECTID":389073},"geometry":{"x":176880.37000000104,"y":2540554.2500000037}},{"attributes":{"ID":389098,"DIS_CODE":0,"TOWNNAME":"歸仁區","LI":"南保里","LIN":"52鄰","STREET":"大順五街","SECT":" ","MAREA":" ","LANE":"２１巷","ALLEY":" ","HOUSE_NO":"１８號","E_COORD97":176896.12,"N_COORD97":2540578.25,"ADDRESS":"大順五街２１巷１８號","OBJECTID":389074},"geometry":{"x":176896.12000000104,"y":2540578.2500000019}},{"attributes":{"ID":389099,"DIS_CODE":0,"TOWNNAME":"歸仁區","LI":"南保里","LIN":"52鄰","STREET":"大順五街","SECT":" ","MAREA":" ","LANE":"２１巷","ALLEY":" ","HOUSE_NO":"２２號","E_COORD97":176904.22,"N_COORD97":2540555.25,"ADDRESS":"大順五街２１巷２２號","OBJECTID":389075},"geometry":{"x":176904.21999999974,"y":2540555.2500000019}},{"attributes":{"ID":389100,"DIS_CODE":0,"TOWNNAME":"歸仁區","LI":"南保里","LIN":"52鄰","STREET":"大順五街","SECT":" ","MAREA":" ","LANE":"２１巷","ALLEY":" ","HOUSE_NO":"８號","E_COORD97":176884.47,"N_COORD97":2540554.25,"ADDRESS":"大順五街２１巷８號","OBJECTID":389076},"geometry":{"x":176884.47000000067,"y":2540554.2500000037}},{"attributes":{"ID":389101,"DIS_CODE":0,"TOWNNAME":"歸仁區","LI":"南保里","LIN":"52鄰","STREET":"大順五街","SECT":" ","MAREA":" ","LANE":"２１巷","ALLEY":" ","HOUSE_NO":"１６號","E_COORD97":176896.01999999999,"N_COORD97":2540575.25,"ADDRESS":"大順五街２１巷１６號","OBJECTID":389077},"geometry":{"x":176896.02000000048,"y":2540575.2500000019}},{"attributes":{"ID":389102,"DIS_CODE":0,"TOWNNAME":"歸仁區","LI":"南保里","LIN":"52鄰","STREET":"大順五街","SECT":" ","MAREA":" ","LANE":"２１巷","ALLEY":" ","HOUSE_NO":"１２號","E_COORD97":176894.92000000001,"N_COORD97":2540554.25,"ADDRESS":"大順五街２１巷１２號","OBJECTID":389078},"geometry":{"x":176894.92000000179,"y":2540554.2500000037}},{"attributes":{"ID":389103,"DIS_CODE":0,"TOWNNAME":"永康區","LI":"中華里","LIN":"16鄰","STREET":"小東路","SECT":" ","MAREA":" ","LANE":"４７７巷","ALLEY":" ","HOUSE_NO":"２６號","E_COORD97":171622.87,"N_COORD97":2544416.0299999998,"ADDRESS":"小東路４７７巷２６號","OBJECTID":389079},"geometry":{"x":171622.87000000011,"y":2544416.0299999993}},{"attributes":{"ID":389104,"DIS_CODE":0,"TOWNNAME":"永康區","LI":"中華里","LIN":"18鄰","STREET":"中華路","SECT":" ","MAREA":" ","LANE":"１０巷","ALLEY":" ","HOUSE_NO":"３１號","E_COORD97":171675.01999999999,"N_COORD97":2544482.5899999999,"ADDRESS":"中華路１０巷３１號","OBJECTID":389080},"geometry":{"x":171675.02000000048,"y":2544482.5900000017}},{"attributes":{"ID":389105,"DIS_CODE":0,"TOWNNAME":"永康區","LI":"中華里","LIN":"1鄰","STREET":"小東路","SECT":" ","MAREA":" ","LANE":"６８５巷","ALLEY":" ","HOUSE_NO":"８號之３５","E_COORD97":172049.89999999999,"N_COORD97":2544401.7400000002,"ADDRESS":"小東路６８５巷８號之３５","OBJECTID":389081},"geometry":{"x":172049.90000000037,"y":2544401.7400000002}},{"attributes":{"ID":389106,"DIS_CODE":0,"TOWNNAME":"歸仁區","LI":"辜厝里","LIN":"52鄰","STREET":"中正十街","SECT":" ","MAREA":" ","LANE":"４７巷","ALLEY":" ","HOUSE_NO":"３號","E_COORD97":176987.87,"N_COORD97":2540271.5800000001,"ADDRESS":"中正十街４７巷３號","OBJECTID":389082},"geometry":{"x":176987.87000000011,"y":2540271.5800000019}},{"attributes":{"ID":389107,"DIS_CODE":0,"TOWNNAME":"永康區","LI":"中華里","LIN":"15鄰","STREET":"忠義街","SECT":" ","MAREA":" ","LANE":"４４巷","ALLEY":" ","HOUSE_NO":"１９號","E_COORD97":171782.35000000001,"N_COORD97":2544482.25,"ADDRESS":"忠義街４４巷１９號","OBJECTID":389083},"geometry":{"x":171782.35000000149,"y":2544482.25}},{"attributes":{"ID":389108,"DIS_CODE":0,"TOWNNAME":"永康區","LI":"中華里","LIN":"1鄰","STREET":"小東路","SECT":" ","MAREA":" ","LANE":"６８５巷","ALLEY":" ","HOUSE_NO":"８號之１９","E_COORD97":172049.82999999999,"N_COORD97":2544401.7400000002,"ADDRESS":"小東路６８５巷８號之１９","OBJECTID":389084},"geometry":{"x":172049.83000000101,"y":2544401.7400000002}},{"attributes":{"ID":389109,"DIS_CODE":0,"TOWNNAME":"永康區","LI":"中華里","LIN":"10鄰","STREET":"忠義街","SECT":" ","MAREA":" ","LANE":"１０巷","ALLEY":" ","HOUSE_NO":"４８號","E_COORD97":171864.92000000001,"N_COORD97":2544372.1899999999,"ADDRESS":"忠義街１０巷４８號","OBJECTID":389085},"geometry":{"x":171864.91999999993,"y":2544372.1900000013}},{"attributes":{"ID":389110,"DIS_CODE":0,"TOWNNAME":"仁德區","LI":"仁義里","LIN":"52鄰","STREET":"仁義路","SECT":" ","MAREA":" ","LANE":"２１巷","ALLEY":" ","HOUSE_NO":"５９號","E_COORD97":173512.98000000001,"N_COORD97":2541067.27,"ADDRESS":"仁義路２１巷５９號","OBJECTID":389086},"geometry":{"x":173512.97999999952,"y":2541067.2699999996}},{"attributes":{"ID":389111,"DIS_CODE":0,"TOWNNAME":"仁德區","LI":"仁義里","LIN":"52鄰","STREET":"仁義路","SECT":" ","MAREA":" ","LANE":"２１巷","ALLEY":" ","HOUSE_NO":"４９號","E_COORD97":173497.95000000001,"N_COORD97":2541055.77,"ADDRESS":"仁義路２１巷４９號","OBJECTID":389087},"geometry":{"x":173497.95000000112,"y":2541055.7700000014}},{"attributes":{"ID":389112,"DIS_CODE":0,"TOWNNAME":"仁德區","LI":"仁義里","LIN":"52鄰","STREET":"仁義三街","SECT":" ","MAREA":" ","LANE":"１４巷","ALLEY":" ","HOUSE_NO":"１１號","E_COORD97":173451.07000000001,"N_COORD97":2541060.52,"ADDRESS":"仁義三街１４巷１１號","OBJECTID":389088},"geometry":{"x":173451.0700000003,"y":2541060.5200000033}},{"attributes":{"ID":389113,"DIS_CODE":0,"TOWNNAME":"永康區","LI":"西灣里","LIN":"52鄰","STREET":"永華路","SECT":" ","MAREA":" ","LANE":"３３９巷","ALLEY":" ","HOUSE_NO":"１９號","E_COORD97":173960.51000000001,"N_COORD97":2545936.5,"ADDRESS":"永華路３３９巷１９號","OBJECTID":389089},"geometry":{"x":173960.51000000071,"y":2545936.5000000037}},{"attributes":{"ID":389114,"DIS_CODE":0,"TOWNNAME":"永康區","LI":"中華里","LIN":"13鄰","STREET":"忠義街","SECT":" ","MAREA":" ","LANE":"１０巷","ALLEY":" ","HOUSE_NO":"５號之８","E_COORD97":171799.14000000001,"N_COORD97":2544423.3900000001,"ADDRESS":"忠義街１０巷５號之８","OBJECTID":389090},"geometry":{"x":171799.14000000153,"y":2544423.3900000025}},{"attributes":{"ID":389115,"DIS_CODE":0,"TOWNNAME":"永康區","LI":"中華里","LIN":"9鄰","STREET":"小東路","SECT":" ","MAREA":" ","LANE":"６４７巷","ALLEY":" ","HOUSE_NO":"８１號","E_COORD97":171917.10999999999,"N_COORD97":2544539.4399999999,"ADDRESS":"小東路６４７巷８１號","OBJECTID":389091},"geometry":{"x":171917.11000000127,"y":2544539.4400000032}},{"attributes":{"ID":389116,"DIS_CODE":0,"TOWNNAME":"仁德區","LI":"仁義里","LIN":"52鄰","STREET":"仁義三街","SECT":" ","MAREA":" ","LANE":"３４巷","ALLEY":" ","HOUSE_NO":"２４號","E_COORD97":173496.13,"N_COORD97":2541083.5099999998,"ADDRESS":"仁義三街３４巷２４號","OBJECTID":389092},"geometry":{"x":173496.12999999896,"y":2541083.5099999998}},{"attributes":{"ID":389117,"DIS_CODE":0,"TOWNNAME":"永康區","LI":"中華里","LIN":"8鄰","STREET":"小東路","SECT":" ","MAREA":" ","LANE":"６４７巷","ALLEY":" ","HOUSE_NO":"５７號","E_COORD97":171931.66,"N_COORD97":2544490.5699999998,"ADDRESS":"小東路６４７巷５７號","OBJECTID":389093},"geometry":{"x":171931.66000000201,"y":2544490.5700000003}},{"attributes":{"ID":389118,"DIS_CODE":0,"TOWNNAME":"永康區","LI":"中華里","LIN":"1鄰","STREET":"小東路","SECT":" ","MAREA":" ","LANE":"６８５巷","ALLEY":" ","HOUSE_NO":"８號之２３","E_COORD97":172049.84,"N_COORD97":2544401.7400000002,"ADDRESS":"小東路６８５巷８號之２３","OBJECTID":389094},"geometry":{"x":172049.83999999985,"y":2544401.7400000002}},{"attributes":{"ID":389119,"DIS_CODE":0,"TOWNNAME":"永康區","LI":"中華里","LIN":"6鄰","STREET":"小東路","SECT":" ","MAREA":" ","LANE":"６８５巷","ALLEY":" ","HOUSE_NO":"５１號","E_COORD97":172026.81,"N_COORD97":2544546.6200000001,"ADDRESS":"小東路６８５巷５１號","OBJECTID":389095},"geometry":{"x":172026.81000000052,"y":2544546.6200000048}},{"attributes":{"ID":389120,"DIS_CODE":0,"TOWNNAME":"永康區","LI":"中華里","LIN":"10鄰","STREET":"忠義街","SECT":" ","MAREA":" ","LANE":"１０巷","ALLEY":" ","HOUSE_NO":"２６號","E_COORD97":171810.42000000001,"N_COORD97":2544372.5899999999,"ADDRESS":"忠義街１０巷２６號","OBJECTID":389096},"geometry":{"x":171810.41999999993,"y":2544372.5900000036}},{"attributes":{"ID":389121,"DIS_CODE":0,"TOWNNAME":"永康區","LI":"中華里","LIN":"9鄰","STREET":"小東路","SECT":" ","MAREA":" ","LANE":"６４７巷","ALLEY":" ","HOUSE_NO":"７１號","E_COORD97":171931.19,"N_COORD97":2544507.3900000001,"ADDRESS":"小東路６４７巷７１號","OBJECTID":389097},"geometry":{"x":171931.19000000041,"y":2544507.3900000025}},{"attributes":{"ID":389122,"DIS_CODE":0,"TOWNNAME":"歸仁區","LI":"南保里","LIN":"62鄰","STREET":"中山七街","SECT":" ","MAREA":" ","LANE":"４７巷","ALLEY":" ","HOUSE_NO":"２號","E_COORD97":176623.76000000001,"N_COORD97":2540745.2599999998,"ADDRESS":"中山七街４７巷２號","OBJECTID":389098},"geometry":{"x":176623.75999999978,"y":2540745.2600000016}},{"attributes":{"ID":389123,"DIS_CODE":0,"TOWNNAME":"歸仁區","LI":"南保里","LIN":"62鄰","STREET":"中山七街","SECT":" ","MAREA":" ","LANE":"６３巷","ALLEY":" ","HOUSE_NO":"１號","E_COORD97":176621.56,"N_COORD97":2540719.2599999998,"ADDRESS":"中山七街６３巷１號","OBJECTID":389099},"geometry":{"x":176621.55999999959,"y":2540719.2599999998}},{"attributes":{"ID":389124,"DIS_CODE":0,"TOWNNAME":"歸仁區","LI":"南保里","LIN":"62鄰","STREET":"中山七街","SECT":" ","MAREA":" ","LANE":"６３巷","ALLEY":" ","HOUSE_NO":"３號","E_COORD97":176625.66,"N_COORD97":2540718.2599999998,"ADDRESS":"中山七街６３巷３號","OBJECTID":389100},"geometry":{"x":176625.66000000201,"y":2540718.2600000016}},{"attributes":{"ID":389125,"DIS_CODE":0,"TOWNNAME":"歸仁區","LI":"南保里","LIN":"62鄰","STREET":"中山七街","SECT":" ","MAREA":" ","LANE":"７７巷","ALLEY":" ","HOUSE_NO":"２１號","E_COORD97":176700.60999999999,"N_COORD97":2540677.2599999998,"ADDRESS":"中山七街７７巷２１號","OBJECTID":389101},"geometry":{"x":176700.6099999994,"y":2540677.2600000016}},{"attributes":{"ID":389126,"DIS_CODE":0,"TOWNNAME":"永康區","LI":"中華里","LIN":"9鄰","STREET":"小東路","SECT":" ","MAREA":" ","LANE":"６４７巷","ALLEY":" ","HOUSE_NO":"７５號","E_COORD97":171926.20999999999,"N_COORD97":2544529.0499999998,"ADDRESS":"小東路６４７巷７５號","OBJECTID":389102},"geometry":{"x":171926.21000000089,"y":2544529.0500000007}},{"attributes":{"ID":389127,"DIS_CODE":0,"TOWNNAME":"仁德區","LI":"仁義里","LIN":"45鄰","STREET":"仁義路","SECT":" ","MAREA":" ","LANE":"９８巷","ALLEY":" ","HOUSE_NO":"５８號","E_COORD97":173599.81,"N_COORD97":2540833.27,"ADDRESS":"仁義路９８巷５８號","OBJECTID":389103},"geometry":{"x":173599.81000000145,"y":2540833.2700000014}},{"attributes":{"ID":389128,"DIS_CODE":0,"TOWNNAME":"永康區","LI":"大橋里","LIN":" ","STREET":"大橋三街","SECT":" ","MAREA":" ","LANE":"２１６巷","ALLEY":" ","HOUSE_NO":"１５１號","E_COORD97":171046.76000000001,"N_COORD97":2546975.2400000002,"ADDRESS":"大橋三街２１６巷１５１號","OBJECTID":389104},"geometry":{"x":171046.75999999978,"y":2546975.2400000002}},{"attributes":{"ID":389129,"DIS_CODE":0,"TOWNNAME":"永康區","LI":"中華里","LIN":"15鄰","STREET":"忠義街","SECT":" ","MAREA":" ","LANE":"４４巷","ALLEY":" ","HOUSE_NO":"２７號","E_COORD97":171799.20999999999,"N_COORD97":2544482.1400000001,"ADDRESS":"忠義街４４巷２７號","OBJECTID":389105},"geometry":{"x":171799.21000000089,"y":2544482.1400000025}},{"attributes":{"ID":389130,"DIS_CODE":0,"TOWNNAME":"永康區","LI":"龍潭里","LIN":"45鄰","STREET":"永平街","SECT":" ","MAREA":" ","LANE":"２３２巷","ALLEY":" ","HOUSE_NO":"３２號","E_COORD97":174658.91,"N_COORD97":2547119.9900000002,"ADDRESS":"永平街２３２巷３２號","OBJECTID":389106},"geometry":{"x":174658.91000000015,"y":2547119.9900000039}},{"attributes":{"ID":389131,"DIS_CODE":0,"TOWNNAME":"永康區","LI":"\u25A0行里","LIN":"45鄰","STREET":"中正南路","SECT":" ","MAREA":" ","LANE":"７２６巷","ALLEY":" ","HOUSE_NO":"４號","E_COORD97":171758.63,"N_COORD97":2548889.9900000002,"ADDRESS":"中正南路７２６巷４號","OBJECTID":389107},"geometry":{"x":171758.63000000175,"y":2548889.9900000039}},{"attributes":{"ID":389132,"DIS_CODE":0,"TOWNNAME":"永康區","LI":"\u25A0行里","LIN":"45鄰","STREET":"中正南路","SECT":" ","MAREA":" ","LANE":"７２６巷","ALLEY":" ","HOUSE_NO":"１０之３號","E_COORD97":171800.88,"N_COORD97":2548864.54,"ADDRESS":"中正南路７２６巷１０之３號","OBJECTID":389108},"geometry":{"x":171800.87999999989,"y":2548864.5400000028}},{"attributes":{"ID":389133,"DIS_CODE":0,"TOWNNAME":"永康區","LI":"龍潭里","LIN":"45鄰","STREET":"永平街","SECT":" ","MAREA":" ","LANE":"２３２巷","ALLEY":" ","HOUSE_NO":"２２號","E_COORD97":174658.91,"N_COORD97":2547119.9900000002,"ADDRESS":"永平街２３２巷２２號","OBJECTID":389109},"geometry":{"x":174658.91000000015,"y":2547119.9900000039}},{"attributes":{"ID":389134,"DIS_CODE":0,"TOWNNAME":"永康區","LI":"正強里","LIN":"45鄰","STREET":"中正路","SECT":" ","MAREA":" ","LANE":"２５６巷","ALLEY":" ","HOUSE_NO":"７號之３４","E_COORD97":173182.92999999999,"N_COORD97":2547985.3100000001,"ADDRESS":"中正路２５６巷７號之３４","OBJECTID":389110},"geometry":{"x":173182.9299999997,"y":2547985.3100000005}},{"attributes":{"ID":389135,"DIS_CODE":0,"TOWNNAME":"永康區","LI":"龍潭里","LIN":"45鄰","STREET":"中山北路","SECT":" ","MAREA":" ","LANE":"２６４巷","ALLEY":" ","HOUSE_NO":"２８８號之４","E_COORD97":174716.88,"N_COORD97":2546888.54,"ADDRESS":"中山北路２６４巷２８８號之４","OBJECTID":389111},"geometry":{"x":174716.88000000175,"y":2546888.540000001}},{"attributes":{"ID":389136,"DIS_CODE":0,"TOWNNAME":"永康區","LI":"龍潭里","LIN":"45鄰","STREET":"中山北路","SECT":" ","MAREA":" ","LANE":"２６４巷","ALLEY":" ","HOUSE_NO":"２８０號","E_COORD97":174713.26999999999,"N_COORD97":2546901.5899999999,"ADDRESS":"中山北路２６４巷２８０號","OBJECTID":389112},"geometry":{"x":174713.26999999955,"y":2546901.5899999999}},{"attributes":{"ID":389137,"DIS_CODE":0,"TOWNNAME":"永康區","LI":"龍潭里","LIN":"45鄰","STREET":"中山北路","SECT":" ","MAREA":" ","LANE":"２６４巷","ALLEY":" ","HOUSE_NO":"２９２號","E_COORD97":174710.23000000001,"N_COORD97":2546867.9700000002,"ADDRESS":"中山北路２６４巷２９２號","OBJECTID":389113},"geometry":{"x":174710.23000000138,"y":2546867.9700000025}},{"attributes":{"ID":389138,"DIS_CODE":0,"TOWNNAME":"永康區","LI":"崑山里","LIN":"45鄰","STREET":"崑山街","SECT":" ","MAREA":" ","LANE":"２５３巷","ALLEY":" ","HOUSE_NO":"１１號","E_COORD97":174089.44,"N_COORD97":2545149.1699999999,"ADDRESS":"崑山街２５３巷１１號","OBJECTID":389114},"geometry":{"x":174089.44000000041,"y":2545149.1700000018}},{"attributes":{"ID":389139,"DIS_CODE":0,"TOWNNAME":"歸仁區","LI":"南保里","LIN":"45鄰","STREET":"民權十街","SECT":" ","MAREA":" ","LANE":"６３巷","ALLEY":" ","HOUSE_NO":"２８號","E_COORD97":176766.70999999999,"N_COORD97":2540671.2999999998,"ADDRESS":"民權十街６３巷２８號","OBJECTID":389115},"geometry":{"x":176766.70999999996,"y":2540671.3000000026}},{"attributes":{"ID":389140,"DIS_CODE":0,"TOWNNAME":"歸仁區","LI":"南保里","LIN":"45鄰","STREET":"民權十街","SECT":" ","MAREA":" ","LANE":"６３巷","ALLEY":" ","HOUSE_NO":"２號","E_COORD97":176767.76000000001,"N_COORD97":2540720.2999999998,"ADDRESS":"民權十街６３巷２號","OBJECTID":389116},"geometry":{"x":176767.76000000071,"y":2540720.3000000007}},{"attributes":{"ID":389141,"DIS_CODE":0,"TOWNNAME":"永康區","LI":"西灣里","LIN":" ","STREET":"永華路","SECT":" ","MAREA":" ","LANE":"２３３巷","ALLEY":" ","HOUSE_NO":"１６號","E_COORD97":174002.97,"N_COORD97":2545737.04,"ADDRESS":"永華路２３３巷１６號","OBJECTID":389117},"geometry":{"x":174002.97000000067,"y":2545737.0399999991}},{"attributes":{"ID":389142,"DIS_CODE":0,"TOWNNAME":"永康區","LI":"中華里","LIN":"13鄰","STREET":"忠義街","SECT":" ","MAREA":" ","LANE":"１０巷","ALLEY":" ","HOUSE_NO":"７號之１","E_COORD97":171811.89999999999,"N_COORD97":2544395.1899999999,"ADDRESS":"忠義街１０巷７號之１","OBJECTID":389118},"geometry":{"x":171811.9000000013,"y":2544395.1899999976}},{"attributes":{"ID":389143,"DIS_CODE":0,"TOWNNAME":"永康區","LI":"中華里","LIN":"4鄰","STREET":"小東路","SECT":" ","MAREA":" ","LANE":"６４７巷","ALLEY":" ","HOUSE_NO":"２０號","E_COORD97":171950.87,"N_COORD97":2544412.4700000002,"ADDRESS":"小東路６４７巷２０號","OBJECTID":389119},"geometry":{"x":171950.87000000104,"y":2544412.4700000025}},{"attributes":{"ID":389144,"DIS_CODE":0,"TOWNNAME":"永康區","LI":"中華里","LIN":"8鄰","STREET":"小東路","SECT":" ","MAREA":" ","LANE":"６４７巷","ALLEY":" ","HOUSE_NO":"３３號","E_COORD97":171918.06,"N_COORD97":2544439.0600000001,"ADDRESS":"小東路６４７巷３３號","OBJECTID":389120},"geometry":{"x":171918.05999999866,"y":2544439.0600000024}},{"attributes":{"ID":389145,"DIS_CODE":0,"TOWNNAME":"永康區","LI":"中華里","LIN":"1鄰","STREET":"小東路","SECT":" ","MAREA":" ","LANE":"６８５巷","ALLEY":" ","HOUSE_NO":"６號之２４","E_COORD97":172052.22,"N_COORD97":2544383.3599999999,"ADDRESS":"小東路６８５巷６號之２４","OBJECTID":389121},"geometry":{"x":172052.21999999974,"y":2544383.3599999994}},{"attributes":{"ID":389146,"DIS_CODE":0,"TOWNNAME":"永康區","LI":"中華里","LIN":"1鄰","STREET":"小東路","SECT":" ","MAREA":" ","LANE":"６８５巷","ALLEY":" ","HOUSE_NO":"６號之１３","E_COORD97":172052.29000000001,"N_COORD97":2544383.3599999999,"ADDRESS":"小東路６８５巷６號之１３","OBJECTID":389122},"geometry":{"x":172052.29000000004,"y":2544383.3599999994}},{"attributes":{"ID":389147,"DIS_CODE":0,"TOWNNAME":"永康區","LI":"中華里","LIN":"1鄰","STREET":"小東路","SECT":" ","MAREA":" ","LANE":"６８５巷","ALLEY":" ","HOUSE_NO":"６號之５","E_COORD97":172051.10000000001,"N_COORD97":2544383.3599999999,"ADDRESS":"小東路６８５巷６號之５","OBJECTID":389123},"geometry":{"x":172051.09999999963,"y":2544383.3599999994}},{"attributes":{"ID":389148,"DIS_CODE":0,"TOWNNAME":"永康區","LI":"中華里","LIN":"1鄰","STREET":"小東路","SECT":" ","MAREA":" ","LANE":"６８５巷","ALLEY":" ","HOUSE_NO":"６號之１９","E_COORD97":172052.28,"N_COORD97":2544383.3599999999,"ADDRESS":"小東路６８５巷６號之１９","OBJECTID":389124},"geometry":{"x":172052.28000000026,"y":2544383.3599999994}},{"attributes":{"ID":389149,"DIS_CODE":0,"TOWNNAME":"永康區","LI":"中華里","LIN":"12鄰","STREET":"忠義街","SECT":" ","MAREA":" ","LANE":"１０巷","ALLEY":" ","HOUSE_NO":"９號","E_COORD97":171856.25,"N_COORD97":2544383.79,"ADDRESS":"忠義街１０巷９號","OBJECTID":389125},"geometry":{"x":171856.25000000186,"y":2544383.7899999991}},{"attributes":{"ID":389150,"DIS_CODE":0,"TOWNNAME":"永康區","LI":"中華里","LIN":"9鄰","STREET":"小東路","SECT":" ","MAREA":" ","LANE":"６４７巷","ALLEY":" ","HOUSE_NO":"６５號","E_COORD97":171917.32999999999,"N_COORD97":2544507.1699999999,"ADDRESS":"小東路６４７巷６５號","OBJECTID":389126},"geometry":{"x":171917.33000000101,"y":2544507.1699999999}},{"attributes":{"ID":389151,"DIS_CODE":0,"TOWNNAME":"永康區","LI":"龍潭里","LIN":"45鄰","STREET":"中山北路","SECT":" ","MAREA":" ","LANE":"２６４巷","ALLEY":" ","HOUSE_NO":"２８８號之２","E_COORD97":174716.98999999999,"N_COORD97":2546888.54,"ADDRESS":"中山北路２６４巷２８８號之２","OBJECTID":389127},"geometry":{"x":174716.99000000115,"y":2546888.540000001}},{"attributes":{"ID":389152,"DIS_CODE":0,"TOWNNAME":"永康區","LI":"龍潭里","LIN":"45鄰","STREET":"永平街","SECT":" ","MAREA":" ","LANE":"２３２巷","ALLEY":" ","HOUSE_NO":"１０號","E_COORD97":174658.51000000001,"N_COORD97":2547103.7400000002,"ADDRESS":"永平街２３２巷１０號","OBJECTID":389128},"geometry":{"x":174658.51000000071,"y":2547103.7400000002}},{"attributes":{"ID":389153,"DIS_CODE":0,"TOWNNAME":"仁德區","LI":"仁義里","LIN":"45鄰","STREET":"仁義路","SECT":" ","MAREA":" ","LANE":"９８巷","ALLEY":" ","HOUSE_NO":"４８號","E_COORD97":173591.60000000001,"N_COORD97":2540843.77,"ADDRESS":"仁義路９８巷４８號","OBJECTID":389129},"geometry":{"x":173591.60000000056,"y":2540843.7699999996}},{"attributes":{"ID":389154,"DIS_CODE":0,"TOWNNAME":"仁德區","LI":"太子里","LIN":"44鄰","STREET":"太子路","SECT":" ","MAREA":" ","LANE":"１０１巷","ALLEY":" ","HOUSE_NO":"３０號","E_COORD97":174892.42999999999,"N_COORD97":2543383.5,"ADDRESS":"太子路１０１巷３０號","OBJECTID":389130},"geometry":{"x":174892.42999999877,"y":2543383.5000000037}},{"attributes":{"ID":389155,"DIS_CODE":0,"TOWNNAME":"仁德區","LI":"太子里","LIN":"45鄰","STREET":"太子一街","SECT":" ","MAREA":" ","LANE":"２７巷","ALLEY":" ","HOUSE_NO":"７號","E_COORD97":174850.14999999999,"N_COORD97":2543351.5,"ADDRESS":"太子一街２７巷７號","OBJECTID":389131},"geometry":{"x":174850.1500000013,"y":2543351.5}},{"attributes":{"ID":389156,"DIS_CODE":0,"TOWNNAME":"仁德區","LI":"太子里","LIN":"45鄰","STREET":"太子一街","SECT":" ","MAREA":" ","LANE":"２７巷","ALLEY":" ","HOUSE_NO":"２４號","E_COORD97":174884.32000000001,"N_COORD97":2543334.0099999998,"ADDRESS":"太子一街２７巷２４號","OBJECTID":389132},"geometry":{"x":174884.32000000123,"y":2543334.0099999998}},{"attributes":{"ID":389157,"DIS_CODE":0,"TOWNNAME":"仁德區","LI":"太子里","LIN":"45鄰","STREET":"太子一街","SECT":" ","MAREA":" ","LANE":"２７巷","ALLEY":" ","HOUSE_NO":"５號","E_COORD97":174845.88,"N_COORD97":2543352.25,"ADDRESS":"太子一街２７巷５號","OBJECTID":389133},"geometry":{"x":174845.88000000082,"y":2543352.2500000019}},{"attributes":{"ID":389158,"DIS_CODE":0,"TOWNNAME":"仁德區","LI":"太子里","LIN":"45鄰","STREET":"太子一街","SECT":" ","MAREA":" ","LANE":"２７巷","ALLEY":" ","HOUSE_NO":"１１號","E_COORD97":174859.73999999999,"N_COORD97":2543350,"ADDRESS":"太子一街２７巷１１號","OBJECTID":389134},"geometry":{"x":174859.74000000022,"y":2543350.0000000019}},{"attributes":{"ID":389159,"DIS_CODE":0,"TOWNNAME":"仁德區","LI":"仁義里","LIN":"45鄰","STREET":"中正路","SECT":"二段","MAREA":" ","LANE":"９９４巷","ALLEY":" ","HOUSE_NO":"５３號","E_COORD97":173607.79000000001,"N_COORD97":2540805.77,"ADDRESS":"中正路二段９９４巷５３號","OBJECTID":389135},"geometry":{"x":173607.79000000097,"y":2540805.7700000014}},{"attributes":{"ID":389160,"DIS_CODE":0,"TOWNNAME":"仁德區","LI":"仁義里","LIN":"45鄰","STREET":"仁義路","SECT":" ","MAREA":" ","LANE":"９８巷","ALLEY":" ","HOUSE_NO":"１０號","E_COORD97":173615.23000000001,"N_COORD97":2540924.77,"ADDRESS":"仁義路９８巷１０號","OBJECTID":389136},"geometry":{"x":173615.23000000138,"y":2540924.7700000014}},{"attributes":{"ID":389161,"DIS_CODE":0,"TOWNNAME":"永康區","LI":"二王里","LIN":"45鄰","STREET":"南工街","SECT":" ","MAREA":" ","LANE":"２１４巷","ALLEY":" ","HOUSE_NO":"１４號","E_COORD97":172047.26999999999,"N_COORD97":2545997.75,"ADDRESS":"南工街２１４巷１４號","OBJECTID":389137},"geometry":{"x":172047.27000000142,"y":2545997.75}},{"attributes":{"ID":389162,"DIS_CODE":0,"TOWNNAME":"永康區","LI":"中華里","LIN":"25鄰","STREET":"忠義街","SECT":" ","MAREA":" ","LANE":"７１巷","ALLEY":" ","HOUSE_NO":"７號","E_COORD97":171680.91,"N_COORD97":2544612.6800000002,"ADDRESS":"忠義街７１巷７號","OBJECTID":389138},"geometry":{"x":171680.91000000108,"y":2544612.6800000034}},{"attributes":{"ID":389163,"DIS_CODE":0,"TOWNNAME":"仁德區","LI":"太子里","LIN":"45鄰","STREET":"太子路","SECT":" ","MAREA":" ","LANE":"１０１巷","ALLEY":" ","HOUSE_NO":"１２１號","E_COORD97":174885.45000000001,"N_COORD97":2543278,"ADDRESS":"太子路１０１巷１２１號","OBJECTID":389139},"geometry":{"x":174885.45000000019,"y":2543278}},{"attributes":{"ID":389164,"DIS_CODE":0,"TOWNNAME":"仁德區","LI":"太子里","LIN":"45鄰","STREET":"太子路","SECT":" ","MAREA":" ","LANE":"１０１巷","ALLEY":" ","HOUSE_NO":"３４號","E_COORD97":174888.01000000001,"N_COORD97":2543355.5,"ADDRESS":"太子路１０１巷３４號","OBJECTID":389140},"geometry":{"x":174888.00999999978,"y":2543355.5}},{"attributes":{"ID":389165,"DIS_CODE":0,"TOWNNAME":"仁德區","LI":"太子里","LIN":"45鄰","STREET":"太子路","SECT":" ","MAREA":" ","LANE":"１０１巷","ALLEY":" ","HOUSE_NO":"４６號","E_COORD97":174879.75,"N_COORD97":2543298.2599999998,"ADDRESS":"太子路１０１巷４６號","OBJECTID":389141},"geometry":{"x":174879.75,"y":2543298.2600000016}},{"attributes":{"ID":389166,"DIS_CODE":0,"TOWNNAME":"仁德區","LI":"太子里","LIN":"45鄰","STREET":"太子路","SECT":" ","MAREA":" ","LANE":"１０１巷","ALLEY":" ","HOUSE_NO":"８５號","E_COORD97":174917.42000000001,"N_COORD97":2543352.25,"ADDRESS":"太子路１０１巷８５號","OBJECTID":389142},"geometry":{"x":174917.41999999993,"y":2543352.2500000019}},{"attributes":{"ID":389167,"DIS_CODE":0,"TOWNNAME":"仁德區","LI":"太子里","LIN":"45鄰","STREET":"太子路","SECT":" ","MAREA":" ","LANE":"１０１巷","ALLEY":" ","HOUSE_NO":"９７號","E_COORD97":174914.81,"N_COORD97":2543329.7599999998,"ADDRESS":"太子路１０１巷９７號","OBJECTID":389143},"geometry":{"x":174914.80999999959,"y":2543329.7599999998}},{"attributes":{"ID":389168,"DIS_CODE":0,"TOWNNAME":"仁德區","LI":"太子里","LIN":"45鄰","STREET":"太子路","SECT":" ","MAREA":" ","LANE":"１０１巷","ALLEY":" ","HOUSE_NO":"９９號","E_COORD97":174914.14999999999,"N_COORD97":2543325.0099999998,"ADDRESS":"太子路１０１巷９９號","OBJECTID":389144},"geometry":{"x":174914.1500000013,"y":2543325.0099999998}},{"attributes":{"ID":389169,"DIS_CODE":0,"TOWNNAME":"仁德區","LI":"太子里","LIN":"45鄰","STREET":"太子路","SECT":" ","MAREA":" ","LANE":"１０１巷","ALLEY":" ","HOUSE_NO":"１１５號","E_COORD97":174898.31,"N_COORD97":2543291,"ADDRESS":"太子路１０１巷１１５號","OBJECTID":389145},"geometry":{"x":174898.31000000145,"y":2543291}},{"attributes":{"ID":389170,"DIS_CODE":0,"TOWNNAME":"仁德區","LI":"太子里","LIN":"45鄰","STREET":"太子路","SECT":" ","MAREA":" ","LANE":"１０１巷","ALLEY":" ","HOUSE_NO":"７３號","E_COORD97":174920.45999999999,"N_COORD97":2543375.5,"ADDRESS":"太子路１０１巷７３號","OBJECTID":389146},"geometry":{"x":174920.46000000089,"y":2543375.5}},{"attributes":{"ID":389171,"DIS_CODE":0,"TOWNNAME":"仁德區","LI":"太子里","LIN":"45鄰","STREET":"太子路","SECT":" ","MAREA":" ","LANE":"１０１巷","ALLEY":" ","HOUSE_NO":"８３號","E_COORD97":174918.04000000001,"N_COORD97":2543356.25,"ADDRESS":"太子路１０１巷８３號","OBJECTID":389147},"geometry":{"x":174918.04000000097,"y":2543356.2500000019}},{"attributes":{"ID":389172,"DIS_CODE":0,"TOWNNAME":"仁德區","LI":"太子里","LIN":"45鄰","STREET":"太子路","SECT":" ","MAREA":" ","LANE":"１０１巷","ALLEY":" ","HOUSE_NO":"７７號","E_COORD97":174919.26999999999,"N_COORD97":2543368,"ADDRESS":"太子路１０１巷７７號","OBJECTID":389148},"geometry":{"x":174919.27000000048,"y":2543368.0000000019}},{"attributes":{"ID":389173,"DIS_CODE":0,"TOWNNAME":"仁德區","LI":"太子里","LIN":"45鄰","STREET":"太子路","SECT":" ","MAREA":" ","LANE":"１０１巷","ALLEY":" ","HOUSE_NO":"７９號","E_COORD97":174918.82000000001,"N_COORD97":2543364,"ADDRESS":"太子路１０１巷７９號","OBJECTID":389149},"geometry":{"x":174918.8200000003,"y":2543364.0000000019}},{"attributes":{"ID":389174,"DIS_CODE":0,"TOWNNAME":"仁德區","LI":"太子里","LIN":"45鄰","STREET":"太子路","SECT":" ","MAREA":" ","LANE":"１０１巷","ALLEY":" ","HOUSE_NO":"１１７號","E_COORD97":174894.01000000001,"N_COORD97":2543287,"ADDRESS":"太子路１０１巷１１７號","OBJECTID":389150},"geometry":{"x":174894.01000000071,"y":2543287}},{"attributes":{"ID":389175,"DIS_CODE":0,"TOWNNAME":"永康區","LI":"\u25A0洲里","LIN":"38鄰","STREET":"\u25A0行路","SECT":" ","MAREA":" ","LANE":"１８８巷","ALLEY":" ","HOUSE_NO":"１１號","E_COORD97":171303.31,"N_COORD97":2549239.3599999999,"ADDRESS":"\u25A0行路１８８巷１１號","OBJECTID":389151},"geometry":{"x":171303.31000000052,"y":2549239.3600000013}},{"attributes":{"ID":389176,"DIS_CODE":0,"TOWNNAME":"永康區","LI":"中華里","LIN":"1鄰","STREET":"小東路","SECT":" ","MAREA":" ","LANE":"６８５巷","ALLEY":" ","HOUSE_NO":"６號之１０","E_COORD97":172052.23999999999,"N_COORD97":2544383.3599999999,"ADDRESS":"小東路６８５巷６號之１０","OBJECTID":389152},"geometry":{"x":172052.24000000115,"y":2544383.3599999994}},{"attributes":{"ID":389177,"DIS_CODE":0,"TOWNNAME":"仁德區","LI":"太子里","LIN":"45鄰","STREET":"太子路","SECT":" ","MAREA":" ","LANE":"１０１巷","ALLEY":" ","HOUSE_NO":"１０３號","E_COORD97":174914.56,"N_COORD97":2543316.5099999998,"ADDRESS":"太子路１０１巷１０３號","OBJECTID":389153},"geometry":{"x":174914.55999999959,"y":2543316.5100000016}},{"attributes":{"ID":389178,"DIS_CODE":0,"TOWNNAME":"新市區","LI":"新和里","LIN":"45鄰","STREET":"民權路","SECT":" ","MAREA":" ","LANE":"５６巷","ALLEY":" ","HOUSE_NO":"４號","E_COORD97":177197.23000000001,"N_COORD97":2553093.54,"ADDRESS":"民權路５６巷４號","OBJECTID":389154},"geometry":{"x":177197.23000000138,"y":2553093.540000001}},{"attributes":{"ID":389179,"DIS_CODE":0,"TOWNNAME":"新市區","LI":"新和里","LIN":"45鄰","STREET":"信義街","SECT":" ","MAREA":" ","LANE":"１０５巷","ALLEY":" ","HOUSE_NO":"５號","E_COORD97":177182.73000000001,"N_COORD97":2553002.02,"ADDRESS":"信義街１０５巷５號","OBJECTID":389155},"geometry":{"x":177182.73000000045,"y":2553002.0200000014}},{"attributes":{"ID":389180,"DIS_CODE":0,"TOWNNAME":"永康區","LI":"中華里","LIN":"23鄰","STREET":"華興街","SECT":" ","MAREA":" ","LANE":"１２０巷","ALLEY":" ","HOUSE_NO":"９號","E_COORD97":171784.75,"N_COORD97":2544625.2999999998,"ADDRESS":"華興街１２０巷９號","OBJECTID":389156},"geometry":{"x":171784.75,"y":2544625.3000000007}},{"attributes":{"ID":389181,"DIS_CODE":0,"TOWNNAME":"永康區","LI":"中華里","LIN":"18鄰","STREET":"中華路","SECT":" ","MAREA":" ","LANE":"１０巷","ALLEY":" ","HOUSE_NO":"２５號","E_COORD97":171663.10999999999,"N_COORD97":2544482.3399999999,"ADDRESS":"中華路１０巷２５號","OBJECTID":389157},"geometry":{"x":171663.11000000127,"y":2544482.3399999999}},{"attributes":{"ID":389182,"DIS_CODE":0,"TOWNNAME":"永康區","LI":"中華里","LIN":"25鄰","STREET":"忠義街","SECT":" ","MAREA":" ","LANE":"８１巷","ALLEY":" ","HOUSE_NO":"４號","E_COORD97":171697.89999999999,"N_COORD97":2544651.0600000001,"ADDRESS":"忠義街８１巷４號","OBJECTID":389158},"geometry":{"x":171697.89999999944,"y":2544651.0600000005}},{"attributes":{"ID":389183,"DIS_CODE":0,"TOWNNAME":"永康區","LI":"中華里","LIN":"25鄰","STREET":"忠義街","SECT":" ","MAREA":" ","LANE":"７１巷","ALLEY":" ","HOUSE_NO":"２號","E_COORD97":171693.72,"N_COORD97":2544625.04,"ADDRESS":"忠義街７１巷２號","OBJECTID":389159},"geometry":{"x":171693.72000000067,"y":2544625.0399999991}},{"attributes":{"ID":389184,"DIS_CODE":0,"TOWNNAME":"永康區","LI":"中華里","LIN":"8鄰","STREET":"小東路","SECT":" ","MAREA":" ","LANE":"６４７巷","ALLEY":" ","HOUSE_NO":"３９號","E_COORD97":171931.91,"N_COORD97":2544438.8399999999,"ADDRESS":"小東路６４７巷３９號","OBJECTID":389160},"geometry":{"x":171931.91000000108,"y":2544438.8400000036}},{"attributes":{"ID":389185,"DIS_CODE":0,"TOWNNAME":"永康區","LI":"中華里","LIN":"15鄰","STREET":"忠義街","SECT":" ","MAREA":" ","LANE":"６０巷","ALLEY":" ","HOUSE_NO":"１０號","E_COORD97":171760.79000000001,"N_COORD97":2544511,"ADDRESS":"忠義街６０巷１０號","OBJECTID":389161},"geometry":{"x":171760.79000000004,"y":2544511}},{"attributes":{"ID":389186,"DIS_CODE":0,"TOWNNAME":"永康區","LI":"中華里","LIN":"1鄰","STREET":"小東路","SECT":" ","MAREA":" ","LANE":"６８５巷","ALLEY":" ","HOUSE_NO":"８號之６","E_COORD97":172048.60000000001,"N_COORD97":2544401.7400000002,"ADDRESS":"小東路６８５巷８號之６","OBJECTID":389162},"geometry":{"x":172048.60000000056,"y":2544401.7400000002}},{"attributes":{"ID":389187,"DIS_CODE":0,"TOWNNAME":"永康區","LI":"正強里","LIN":"45鄰","STREET":"中正路","SECT":" ","MAREA":" ","LANE":"２５６巷","ALLEY":" ","HOUSE_NO":"７號之２０","E_COORD97":173182.95999999999,"N_COORD97":2547985.3100000001,"ADDRESS":"中正路２５６巷７號之２０","OBJECTID":389163},"geometry":{"x":173182.96000000089,"y":2547985.3100000005}},{"attributes":{"ID":389188,"DIS_CODE":0,"TOWNNAME":"永康區","LI":"正強里","LIN":"45鄰","STREET":"中正路","SECT":" ","MAREA":" ","LANE":"２５６巷","ALLEY":" ","HOUSE_NO":"７號之３１","E_COORD97":173182.91,"N_COORD97":2547985.3100000001,"ADDRESS":"中正路２５６巷７號之３１","OBJECTID":389164},"geometry":{"x":173182.91000000108,"y":2547985.3100000005}},{"attributes":{"ID":389189,"DIS_CODE":0,"TOWNNAME":"永康區","LI":"龍潭里","LIN":"45鄰","STREET":"永平街","SECT":" ","MAREA":" ","LANE":"２３２巷","ALLEY":" ","HOUSE_NO":"８號","E_COORD97":174657.26000000001,"N_COORD97":2547103.7400000002,"ADDRESS":"永平街２３２巷８號","OBJECTID":389165},"geometry":{"x":174657.26000000071,"y":2547103.7400000002}},{"attributes":{"ID":389190,"DIS_CODE":0,"TOWNNAME":"永康區","LI":"中華里","LIN":"1鄰","STREET":"小東路","SECT":" ","MAREA":" ","LANE":"６８５巷","ALLEY":" ","HOUSE_NO":"８號之３３","E_COORD97":172049.84,"N_COORD97":2544401.7400000002,"ADDRESS":"小東路６８５巷８號之３３","OBJECTID":389166},"geometry":{"x":172049.83999999985,"y":2544401.7400000002}},{"attributes":{"ID":389191,"DIS_CODE":0,"TOWNNAME":"佳里區","LI":"安西里","LIN":"45鄰","STREET":"文化路","SECT":" ","MAREA":" ","LANE":"６１２巷","ALLEY":" ","HOUSE_NO":"１號","E_COORD97":164653.98000000001,"N_COORD97":2562596.3700000001,"ADDRESS":"文化路６１２巷１號","OBJECTID":389167},"geometry":{"x":164653.98000000231,"y":2562596.3700000029}},{"attributes":{"ID":389192,"DIS_CODE":0,"TOWNNAME":"佳里區","LI":"安西里","LIN":"45鄰","STREET":"文化路","SECT":" ","MAREA":" ","LANE":"６１２巷","ALLEY":" ","HOUSE_NO":"３號","E_COORD97":164653.56,"N_COORD97":2562602.0499999998,"ADDRESS":"文化路６１２巷３號","OBJECTID":389168},"geometry":{"x":164653.55999999959,"y":2562602.0500000026}},{"attributes":{"ID":389193,"DIS_CODE":0,"TOWNNAME":"佳里區","LI":"安西里","LIN":"45鄰","STREET":"文化路","SECT":" ","MAREA":" ","LANE":"６１２巷","ALLEY":" ","HOUSE_NO":"５號","E_COORD97":164653.14999999999,"N_COORD97":2562606.1400000001,"ADDRESS":"文化路６１２巷５號","OBJECTID":389169},"geometry":{"x":164653.1500000013,"y":2562606.1400000006}},{"attributes":{"ID":389194,"DIS_CODE":0,"TOWNNAME":"佳里區","LI":"安西里","LIN":"45鄰","STREET":"文化路","SECT":" ","MAREA":" ","LANE":"６１２巷","ALLEY":" ","HOUSE_NO":"７號","E_COORD97":164653.28,"N_COORD97":2562611.3700000001,"ADDRESS":"文化路６１２巷７號","OBJECTID":389170},"geometry":{"x":164653.28000000026,"y":2562611.370000001}},{"attributes":{"ID":389195,"DIS_CODE":0,"TOWNNAME":"永康區","LI":"\u25A0洲里","LIN":"14鄰","STREET":"中正南路","SECT":" ","MAREA":" ","LANE":"７７９巷","ALLEY":" ","HOUSE_NO":"７號","E_COORD97":171631.97,"N_COORD97":2548977.9300000002,"ADDRESS":"中正南路７７９巷７號","OBJECTID":389171},"geometry":{"x":171631.96999999974,"y":2548977.9300000034}},{"attributes":{"ID":389196,"DIS_CODE":0,"TOWNNAME":"永康區","LI":"西灣里","LIN":"45鄰","STREET":"永華路","SECT":" ","MAREA":" ","LANE":"２０１巷","ALLEY":" ","HOUSE_NO":"２４號","E_COORD97":174021.88,"N_COORD97":2545628.29,"ADDRESS":"永華路２０１巷２４號","OBJECTID":389172},"geometry":{"x":174021.88000000082,"y":2545628.2900000028}},{"attributes":{"ID":389197,"DIS_CODE":0,"TOWNNAME":"永康區","LI":"中華里","LIN":"20鄰","STREET":"小東路","SECT":" ","MAREA":" ","LANE":"４７７巷","ALLEY":" ","HOUSE_NO":"１１號","E_COORD97":171604.79000000001,"N_COORD97":2544408.6899999999,"ADDRESS":"小東路４７７巷１１號","OBJECTID":389173},"geometry":{"x":171604.79000000004,"y":2544408.6899999976}},{"attributes":{"ID":389198,"DIS_CODE":0,"TOWNNAME":"永康區","LI":"中華里","LIN":"4鄰","STREET":"忠勇街","SECT":" ","MAREA":" ","LANE":"３２巷","ALLEY":" ","HOUSE_NO":"３０號","E_COORD97":172005.64000000001,"N_COORD97":2544420.52,"ADDRESS":"忠勇街３２巷３０號","OBJECTID":389174},"geometry":{"x":172005.63999999966,"y":2544420.5200000033}},{"attributes":{"ID":389199,"DIS_CODE":0,"TOWNNAME":"永康區","LI":"中華里","LIN":"20鄰","STREET":"小東路","SECT":" ","MAREA":" ","LANE":"４７７巷","ALLEY":" ","HOUSE_NO":"１３號","E_COORD97":171605.41,"N_COORD97":2544412.6299999999,"ADDRESS":"小東路４７７巷１３號","OBJECTID":389175},"geometry":{"x":171605.41000000015,"y":2544412.6300000008}},{"attributes":{"ID":389200,"DIS_CODE":0,"TOWNNAME":"永康區","LI":"西灣里","LIN":"45鄰","STREET":"永華路","SECT":" ","MAREA":" ","LANE":"２０１巷","ALLEY":" ","HOUSE_NO":"２６號","E_COORD97":174017.79000000001,"N_COORD97":2545627.5499999998,"ADDRESS":"永華路２０１巷２６號","OBJECTID":389176},"geometry":{"x":174017.79000000097,"y":2545627.5500000007}},{"attributes":{"ID":389201,"DIS_CODE":0,"TOWNNAME":"永康區","LI":"正強里","LIN":"45鄰","STREET":"中正路","SECT":" ","MAREA":" ","LANE":"２５６巷","ALLEY":" ","HOUSE_NO":"７號之３３","E_COORD97":173183.01000000001,"N_COORD97":2547985.3100000001,"ADDRESS":"中正路２５６巷７號之３３","OBJECTID":389177},"geometry":{"x":173183.00999999978,"y":2547985.3100000005}},{"attributes":{"ID":389202,"DIS_CODE":0,"TOWNNAME":"永康區","LI":"正強里","LIN":"45鄰","STREET":"中正路","SECT":" ","MAREA":" ","LANE":"２５６巷","ALLEY":" ","HOUSE_NO":"７號之２２","E_COORD97":173183.04000000001,"N_COORD97":2547985.3100000001,"ADDRESS":"中正路２５６巷７號之２２","OBJECTID":389178},"geometry":{"x":173183.04000000004,"y":2547985.3100000005}},{"attributes":{"ID":389203,"DIS_CODE":0,"TOWNNAME":"永康區","LI":"正強里","LIN":"45鄰","STREET":"中正路","SECT":" ","MAREA":" ","LANE":"２５６巷","ALLEY":" ","HOUSE_NO":"７號之３２","E_COORD97":173183.04000000001,"N_COORD97":2547985.3100000001,"ADDRESS":"中正路２５６巷７號之３２","OBJECTID":389179},"geometry":{"x":173183.04000000004,"y":2547985.3100000005}},{"attributes":{"ID":389204,"DIS_CODE":0,"TOWNNAME":"永康區","LI":"正強里","LIN":"45鄰","STREET":"中正路","SECT":" ","MAREA":" ","LANE":"２５６巷","ALLEY":" ","HOUSE_NO":"７號之９","E_COORD97":173181.73999999999,"N_COORD97":2547985.3100000001,"ADDRESS":"中正路２５６巷７號之９","OBJECTID":389180},"geometry":{"x":173181.74000000022,"y":2547985.3100000005}},{"attributes":{"ID":389205,"DIS_CODE":0,"TOWNNAME":"永康區","LI":"正強里","LIN":"45鄰","STREET":"中正路","SECT":" ","MAREA":" ","LANE":"２５６巷","ALLEY":" ","HOUSE_NO":"７號之１４","E_COORD97":173182.92999999999,"N_COORD97":2547985.3100000001,"ADDRESS":"中正路２５６巷７號之１４","OBJECTID":389181},"geometry":{"x":173182.9299999997,"y":2547985.3100000005}},{"attributes":{"ID":389206,"DIS_CODE":0,"TOWNNAME":"永康區","LI":"正強里","LIN":"45鄰","STREET":"中正路","SECT":" ","MAREA":" ","LANE":"２５６巷","ALLEY":" ","HOUSE_NO":"７號之１１","E_COORD97":173182.91,"N_COORD97":2547985.3100000001,"ADDRESS":"中正路２５６巷７號之１１","OBJECTID":389182},"geometry":{"x":173182.91000000108,"y":2547985.3100000005}},{"attributes":{"ID":389207,"DIS_CODE":0,"TOWNNAME":"永康區","LI":"正強里","LIN":"45鄰","STREET":"中正路","SECT":" ","MAREA":" ","LANE":"２５６巷","ALLEY":" ","HOUSE_NO":"７號之４２","E_COORD97":173183.04000000001,"N_COORD97":2547985.3100000001,"ADDRESS":"中正路２５６巷７號之４２","OBJECTID":389183},"geometry":{"x":173183.04000000004,"y":2547985.3100000005}},{"attributes":{"ID":389208,"DIS_CODE":0,"TOWNNAME":"永康區","LI":"正強里","LIN":"45鄰","STREET":"中正路","SECT":" ","MAREA":" ","LANE":"２５６巷","ALLEY":" ","HOUSE_NO":"７號之２８","E_COORD97":173183.06,"N_COORD97":2547985.3100000001,"ADDRESS":"中正路２５６巷７號之２８","OBJECTID":389184},"geometry":{"x":173183.06000000052,"y":2547985.3100000005}},{"attributes":{"ID":389209,"DIS_CODE":0,"TOWNNAME":"永康區","LI":"正強里","LIN":"45鄰","STREET":"中正路","SECT":" ","MAREA":" ","LANE":"２５６巷","ALLEY":" ","HOUSE_NO":"７號之２１","E_COORD97":173182.91,"N_COORD97":2547985.3100000001,"ADDRESS":"中正路２５６巷７號之２１","OBJECTID":389185},"geometry":{"x":173182.91000000108,"y":2547985.3100000005}},{"attributes":{"ID":389210,"DIS_CODE":0,"TOWNNAME":"永康區","LI":"正強里","LIN":"45鄰","STREET":"中正路","SECT":" ","MAREA":" ","LANE":"２５６巷","ALLEY":" ","HOUSE_NO":"７號之２３","E_COORD97":173183.01000000001,"N_COORD97":2547985.3100000001,"ADDRESS":"中正路２５６巷７號之２３","OBJECTID":389186},"geometry":{"x":173183.00999999978,"y":2547985.3100000005}},{"attributes":{"ID":389211,"DIS_CODE":0,"TOWNNAME":"永康區","LI":"正強里","LIN":"45鄰","STREET":"中正路","SECT":" ","MAREA":" ","LANE":"２５６巷","ALLEY":" ","HOUSE_NO":"７號之１２","E_COORD97":173183.04000000001,"N_COORD97":2547985.3100000001,"ADDRESS":"中正路２５６巷７號之１２","OBJECTID":389187},"geometry":{"x":173183.04000000004,"y":2547985.3100000005}},{"attributes":{"ID":389212,"DIS_CODE":0,"TOWNNAME":"永康區","LI":"正強里","LIN":"45鄰","STREET":"中正路","SECT":" ","MAREA":" ","LANE":"２５６巷","ALLEY":" ","HOUSE_NO":"７號之５６","E_COORD97":173183.01000000001,"N_COORD97":2547985.3100000001,"ADDRESS":"中正路２５６巷７號之５６","OBJECTID":389188},"geometry":{"x":173183.00999999978,"y":2547985.3100000005}},{"attributes":{"ID":389213,"DIS_CODE":0,"TOWNNAME":"永康區","LI":"正強里","LIN":"45鄰","STREET":"中正路","SECT":" ","MAREA":" ","LANE":"２５６巷","ALLEY":" ","HOUSE_NO":"７號之１","E_COORD97":173181.66,"N_COORD97":2547985.3100000001,"ADDRESS":"中正路２５６巷７號之１","OBJECTID":389189},"geometry":{"x":173181.66000000108,"y":2547985.3100000005}},{"attributes":{"ID":389214,"DIS_CODE":0,"TOWNNAME":"永康區","LI":"正強里","LIN":"45鄰","STREET":"中正路","SECT":" ","MAREA":" ","LANE":"２５６巷","ALLEY":" ","HOUSE_NO":"７號之４１","E_COORD97":173182.91,"N_COORD97":2547985.3100000001,"ADDRESS":"中正路２５６巷７號之４１","OBJECTID":389190},"geometry":{"x":173182.91000000108,"y":2547985.3100000005}},{"attributes":{"ID":389215,"DIS_CODE":0,"TOWNNAME":"永康區","LI":"中華里","LIN":"23鄰","STREET":"忠勇街","SECT":" ","MAREA":" ","LANE":"６３巷","ALLEY":" ","HOUSE_NO":"１２號","E_COORD97":171851.81,"N_COORD97":2544629.0800000001,"ADDRESS":"忠勇街６３巷１２號","OBJECTID":389191},"geometry":{"x":171851.80999999959,"y":2544629.0800000001}},{"attributes":{"ID":389216,"DIS_CODE":0,"TOWNNAME":"永康區","LI":"中華里","LIN":"23鄰","STREET":"忠勇街","SECT":" ","MAREA":" ","LANE":"６５巷","ALLEY":" ","HOUSE_NO":"１９號","E_COORD97":171826.95000000001,"N_COORD97":2544648.6499999999,"ADDRESS":"忠勇街６５巷１９號","OBJECTID":389192},"geometry":{"x":171826.95000000112,"y":2544648.6500000022}},{"attributes":{"ID":389217,"DIS_CODE":0,"TOWNNAME":"永康區","LI":"中華里","LIN":"20鄰","STREET":"小東路","SECT":" ","MAREA":" ","LANE":"４７７巷","ALLEY":" ","HOUSE_NO":"２３號","E_COORD97":171608.73000000001,"N_COORD97":2544434.2400000002,"ADDRESS":"小東路４７７巷２３號","OBJECTID":389193},"geometry":{"x":171608.73000000045,"y":2544434.2400000021}},{"attributes":{"ID":389218,"DIS_CODE":0,"TOWNNAME":"永康區","LI":"中華里","LIN":"15鄰","STREET":"忠義街","SECT":" ","MAREA":" ","LANE":"４４巷","ALLEY":" ","HOUSE_NO":"１號","E_COORD97":171743.81,"N_COORD97":2544481.5600000001,"ADDRESS":"忠義街４４巷１號","OBJECTID":389194},"geometry":{"x":171743.81000000052,"y":2544481.5600000005}},{"attributes":{"ID":389219,"DIS_CODE":0,"TOWNNAME":"永康區","LI":"中華里","LIN":"15鄰","STREET":"忠義街","SECT":" ","MAREA":" ","LANE":"４４巷","ALLEY":" ","HOUSE_NO":"１５號","E_COORD97":171773.64000000001,"N_COORD97":2544481.8999999999,"ADDRESS":"忠義街４４巷１５號","OBJECTID":389195},"geometry":{"x":171773.64000000153,"y":2544481.9000000004}},{"attributes":{"ID":389220,"DIS_CODE":0,"TOWNNAME":"永康區","LI":"中華里","LIN":"1鄰","STREET":"小東路","SECT":" ","MAREA":" ","LANE":"６８５巷","ALLEY":" ","HOUSE_NO":"８號之２１","E_COORD97":172049.73999999999,"N_COORD97":2544401.7400000002,"ADDRESS":"小東路６８５巷８號之２１","OBJECTID":389196},"geometry":{"x":172049.73999999929,"y":2544401.7400000002}},{"attributes":{"ID":389221,"DIS_CODE":0,"TOWNNAME":"永康區","LI":"中華里","LIN":"6鄰","STREET":"小東路","SECT":" ","MAREA":" ","LANE":"６８５巷","ALLEY":" ","HOUSE_NO":"３９號","E_COORD97":172026.39000000001,"N_COORD97":2544505.6899999999,"ADDRESS":"小東路６８５巷３９號","OBJECTID":389197},"geometry":{"x":172026.3900000006,"y":2544505.6899999995}},{"attributes":{"ID":389222,"DIS_CODE":0,"TOWNNAME":"永康區","LI":"中華里","LIN":"10鄰","STREET":"忠義街","SECT":" ","MAREA":" ","LANE":"１０巷","ALLEY":" ","HOUSE_NO":"４２號","E_COORD97":171852.35999999999,"N_COORD97":2544372.6200000001,"ADDRESS":"忠義街１０巷４２號","OBJECTID":389198},"geometry":{"x":171852.3599999994,"y":2544372.620000001}},{"attributes":{"ID":389223,"DIS_CODE":0,"TOWNNAME":"永康區","LI":"正強里","LIN":"45鄰","STREET":"中正路","SECT":" ","MAREA":" ","LANE":"２５６巷","ALLEY":" ","HOUSE_NO":"７號之５５","E_COORD97":173183.06,"N_COORD97":2547985.3100000001,"ADDRESS":"中正路２５６巷７號之５５","OBJECTID":389199},"geometry":{"x":173183.06000000052,"y":2547985.3100000005}},{"attributes":{"ID":389224,"DIS_CODE":0,"TOWNNAME":"永康區","LI":"正強里","LIN":"45鄰","STREET":"中正路","SECT":" ","MAREA":" ","LANE":"２５６巷","ALLEY":" ","HOUSE_NO":"７號之４６","E_COORD97":173183.01000000001,"N_COORD97":2547985.3100000001,"ADDRESS":"中正路２５６巷７號之４６","OBJECTID":389200},"geometry":{"x":173183.00999999978,"y":2547985.3100000005}}]}