{"displayFieldName":"TOWNNAME","fieldAliases":{"ID":"ID","DIS_CODE":"DIS_CODE","TOWNNAME":"TOWNNAME","LI":"LI","LIN":"LIN","STREET":"STREET","SECT":"SECT","MAREA":"MAREA","LANE":"LANE","ALLEY":"ALLEY","HOUSE_NO":"HOUSE_NO","E_COORD97":"E_COORD97","N_COORD97":"N_COORD97","ADDRESS":"ADDRESS","OBJECTID":"OBJECTID"},"geometryType":"esriGeometryPoint","spatialReference":{"wkid":102443,"latestWkid":3826},"fields":[{"name":"ID","type":"esriFieldTypeDouble","alias":"ID"},{"name":"DIS_CODE","type":"esriFieldTypeInteger","alias":"DIS_CODE"},{"name":"TOWNNAME","type":"esriFieldTypeString","alias":"TOWNNAME","length":8},{"name":"LI","type":"esriFieldTypeString","alias":"LI","length":8},{"name":"LIN","type":"esriFieldTypeString","alias":"LIN","length":12},{"name":"STREET","type":"esriFieldTypeString","alias":"STREET","length":20},{"name":"SECT","type":"esriFieldTypeString","alias":"SECT","length":8},{"name":"MAREA","type":"esriFieldTypeString","alias":"MAREA","length":12},{"name":"LANE","type":"esriFieldTypeString","alias":"LANE","length":10},{"name":"ALLEY","type":"esriFieldTypeString","alias":"ALLEY","length":10},{"name":"HOUSE_NO","type":"esriFieldTypeString","alias":"HOUSE_NO","length":20},{"name":"E_COORD97","type":"esriFieldTypeDouble","alias":"E_COORD97"},{"name":"N_COORD97","type":"esriFieldTypeDouble","alias":"N_COORD97"},{"name":"ADDRESS","type":"esriFieldTypeString","alias":"ADDRESS","length":50},{"name":"OBJECTID","type":"esriFieldTypeOID","alias":"OBJECTID"}],"features":[{"attributes":{"ID":79601,"DIS_CODE":0,"TOWNNAME":"山上區","LI":"新莊里","LIN":"7鄰","STREET":" ","SECT":" ","MAREA":"大庄","LANE":" ","ALLEY":" ","HOUSE_NO":"１３號之６","E_COORD97":183901.20000000001,"N_COORD97":2554814.2999999998,"ADDRESS":"大庄１３號之６","OBJECTID":79601},"geometry":{"x":183901.20000000205,"y":2554814.3000000007}},{"attributes":{"ID":79602,"DIS_CODE":0,"TOWNNAME":"安南區","LI":"城北里","LIN":"7鄰","STREET":"安中路","SECT":"六段","MAREA":" ","LANE":" ","ALLEY":" ","HOUSE_NO":"４７６號","E_COORD97":161045.54999999999,"N_COORD97":2551336.1200000001,"ADDRESS":"安中路六段４７６號","OBJECTID":79602},"geometry":{"x":161045.55000000168,"y":2551336.120000001}},{"attributes":{"ID":79603,"DIS_CODE":0,"TOWNNAME":"山上區","LI":"新莊里","LIN":"7鄰","STREET":" ","SECT":" ","MAREA":"大庄","LANE":" ","ALLEY":" ","HOUSE_NO":"１７之１１號","E_COORD97":183815.81,"N_COORD97":2554753.2999999998,"ADDRESS":"大庄１７之１１號","OBJECTID":79603},"geometry":{"x":183815.81000000052,"y":2554753.2999999989}},{"attributes":{"ID":79604,"DIS_CODE":0,"TOWNNAME":"南區","LI":"大忠里","LIN":"19鄰","STREET":"大同路","SECT":"二段","MAREA":" ","LANE":"６４０巷","ALLEY":"９４弄","HOUSE_NO":"８號","E_COORD97":169248.26999999999,"N_COORD97":2541046.1499999999,"ADDRESS":"大同路二段６４０巷９４弄８號","OBJECTID":79604},"geometry":{"x":169248.26999999955,"y":2541046.1500000004}},{"attributes":{"ID":79605,"DIS_CODE":0,"TOWNNAME":"山上區","LI":"新莊里","LIN":"7鄰","STREET":" ","SECT":" ","MAREA":"大庄","LANE":" ","ALLEY":" ","HOUSE_NO":"１７之１０號","E_COORD97":183812.51000000001,"N_COORD97":2554750.2999999998,"ADDRESS":"大庄１７之１０號","OBJECTID":79605},"geometry":{"x":183812.51000000071,"y":2554750.3000000045}},{"attributes":{"ID":79606,"DIS_CODE":0,"TOWNNAME":"山上區","LI":"新莊里","LIN":"7鄰","STREET":" ","SECT":" ","MAREA":"大庄","LANE":" ","ALLEY":" ","HOUSE_NO":"１７號之１４","E_COORD97":183833.97,"N_COORD97":2554731.2999999998,"ADDRESS":"大庄１７號之１４","OBJECTID":79606},"geometry":{"x":183833.96999999974,"y":2554731.3000000026}},{"attributes":{"ID":79607,"DIS_CODE":0,"TOWNNAME":"山上區","LI":"新莊里","LIN":"7鄰","STREET":" ","SECT":" ","MAREA":"大庄","LANE":" ","ALLEY":" ","HOUSE_NO":"１３之５號","E_COORD97":183898.66,"N_COORD97":2554818.2999999998,"ADDRESS":"大庄１３之５號","OBJECTID":79607},"geometry":{"x":183898.66000000108,"y":2554818.3000000026}},{"attributes":{"ID":79608,"DIS_CODE":0,"TOWNNAME":"山上區","LI":"新莊里","LIN":"7鄰","STREET":" ","SECT":" ","MAREA":"大庄","LANE":" ","ALLEY":" ","HOUSE_NO":"１７之９號","E_COORD97":183808.45999999999,"N_COORD97":2554748.2999999998,"ADDRESS":"大庄１７之９號","OBJECTID":79608},"geometry":{"x":183808.45999999996,"y":2554748.3000000026}},{"attributes":{"ID":79609,"DIS_CODE":0,"TOWNNAME":"東區","LI":"大福里","LIN":"7鄰","STREET":"立德二路","SECT":" ","MAREA":" ","LANE":" ","ALLEY":" ","HOUSE_NO":"３號","E_COORD97":169483.28,"N_COORD97":2541737.6499999999,"ADDRESS":"立德二路３號","OBJECTID":79609},"geometry":{"x":169483.28000000119,"y":2541737.6500000004}},{"attributes":{"ID":79610,"DIS_CODE":0,"TOWNNAME":"山上區","LI":"新莊里","LIN":"7鄰","STREET":" ","SECT":" ","MAREA":"大庄","LANE":" ","ALLEY":" ","HOUSE_NO":"１６號之１","E_COORD97":183842.98999999999,"N_COORD97":2554783.2999999998,"ADDRESS":"大庄１６號之１","OBJECTID":79610},"geometry":{"x":183842.99000000022,"y":2554783.3000000007}},{"attributes":{"ID":79611,"DIS_CODE":0,"TOWNNAME":"山上區","LI":"新莊里","LIN":"7鄰","STREET":" ","SECT":" ","MAREA":"大庄","LANE":" ","ALLEY":" ","HOUSE_NO":"１６號之２","E_COORD97":183850.92999999999,"N_COORD97":2554790.2999999998,"ADDRESS":"大庄１６號之２","OBJECTID":79611},"geometry":{"x":183850.9299999997,"y":2554790.3000000007}},{"attributes":{"ID":79612,"DIS_CODE":0,"TOWNNAME":"山上區","LI":"新莊里","LIN":"7鄰","STREET":" ","SECT":" ","MAREA":"大庄","LANE":" ","ALLEY":" ","HOUSE_NO":"１７之５號","E_COORD97":183800.76000000001,"N_COORD97":2554731.2999999998,"ADDRESS":"大庄１７之５號","OBJECTID":79612},"geometry":{"x":183800.76000000071,"y":2554731.3000000026}},{"attributes":{"ID":79613,"DIS_CODE":0,"TOWNNAME":"山上區","LI":"玉\u25A0里","LIN":"7鄰","STREET":" ","SECT":" ","MAREA":"牛稠埔","LANE":" ","ALLEY":" ","HOUSE_NO":"２號","E_COORD97":185667.74462300001,"N_COORD97":2554693.3218399999,"ADDRESS":"牛稠埔２號","OBJECTID":79613},"geometry":{"x":185667.74462300073,"y":2554693.3218370005}},{"attributes":{"ID":79614,"DIS_CODE":0,"TOWNNAME":"山上區","LI":"玉\u25A0里","LIN":"7鄰","STREET":" ","SECT":" ","MAREA":"牛稠埔","LANE":" ","ALLEY":" ","HOUSE_NO":"１１號","E_COORD97":185792.12,"N_COORD97":2554826.25,"ADDRESS":"牛稠埔１１號","OBJECTID":79614},"geometry":{"x":185792.12000000104,"y":2554826.25}},{"attributes":{"ID":79615,"DIS_CODE":0,"TOWNNAME":"山上區","LI":"山上里","LIN":"7鄰","STREET":" ","SECT":" ","MAREA":"山上","LANE":" ","ALLEY":" ","HOUSE_NO":"１２３號","E_COORD97":184236.81,"N_COORD97":2555789.25,"ADDRESS":"山上１２３號","OBJECTID":79615},"geometry":{"x":184236.80999999959,"y":2555789.25}},{"attributes":{"ID":79616,"DIS_CODE":0,"TOWNNAME":"東區","LI":"文聖里","LIN":"7鄰","STREET":"裕平路","SECT":" ","MAREA":" ","LANE":" ","ALLEY":" ","HOUSE_NO":"８號","E_COORD97":171943.48999999999,"N_COORD97":2542810.5600000001,"ADDRESS":"裕平路８號","OBJECTID":79616},"geometry":{"x":171943.49000000115,"y":2542810.5600000042}},{"attributes":{"ID":79617,"DIS_CODE":0,"TOWNNAME":"善化區","LI":"東隆里","LIN":"7鄰","STREET":" ","SECT":" ","MAREA":"東勢寮","LANE":" ","ALLEY":" ","HOUSE_NO":"１９４號","E_COORD97":179848.17000000001,"N_COORD97":2561782.0099999998,"ADDRESS":"東勢寮１９４號","OBJECTID":79617},"geometry":{"x":179848.17000000086,"y":2561782.0099999998}},{"attributes":{"ID":79618,"DIS_CODE":0,"TOWNNAME":"南區","LI":"大忠里","LIN":"19鄰","STREET":"大同路","SECT":"二段","MAREA":" ","LANE":"６４０巷","ALLEY":"９４弄","HOUSE_NO":"９號","E_COORD97":169193.60000000001,"N_COORD97":2541031.8199999998,"ADDRESS":"大同路二段６４０巷９４弄９號","OBJECTID":79618},"geometry":{"x":169193.59999999963,"y":2541031.8199999984}},{"attributes":{"ID":79619,"DIS_CODE":0,"TOWNNAME":"北區","LI":"大豐里","LIN":"19鄰","STREET":"大興街","SECT":" ","MAREA":" ","LANE":"２３３巷","ALLEY":"２０弄","HOUSE_NO":"９號","E_COORD97":166819.89000000001,"N_COORD97":2545620.04,"ADDRESS":"大興街２３３巷２０弄９號","OBJECTID":79619},"geometry":{"x":166819.88999999966,"y":2545620.0400000028}},{"attributes":{"ID":79620,"DIS_CODE":0,"TOWNNAME":"善化區","LI":"小新里","LIN":"7鄰","STREET":" ","SECT":" ","MAREA":"小新營","LANE":" ","ALLEY":" ","HOUSE_NO":"５６號之１８","E_COORD97":179620.29999999999,"N_COORD97":2558540.77,"ADDRESS":"小新營５６號之１８","OBJECTID":79620},"geometry":{"x":179620.30000000075,"y":2558540.7700000014}},{"attributes":{"ID":79621,"DIS_CODE":0,"TOWNNAME":"善化區","LI":"東隆里","LIN":"7鄰","STREET":" ","SECT":" ","MAREA":"東勢寮","LANE":" ","ALLEY":" ","HOUSE_NO":"１９３之５號","E_COORD97":179807.23999999999,"N_COORD97":2561788.02,"ADDRESS":"東勢寮１９３之５號","OBJECTID":79621},"geometry":{"x":179807.24000000115,"y":2561788.0199999996}},{"attributes":{"ID":79622,"DIS_CODE":0,"TOWNNAME":"善化區","LI":"小新里","LIN":"7鄰","STREET":" ","SECT":" ","MAREA":"小新營","LANE":" ","ALLEY":" ","HOUSE_NO":"５６之７０號","E_COORD97":179505.44,"N_COORD97":2558457.02,"ADDRESS":"小新營５６之７０號","OBJECTID":79622},"geometry":{"x":179505.44000000041,"y":2558457.0200000014}},{"attributes":{"ID":79623,"DIS_CODE":0,"TOWNNAME":"北區","LI":"大豐里","LIN":"19鄰","STREET":"大興街","SECT":" ","MAREA":" ","LANE":"２３３巷","ALLEY":"２０弄","HOUSE_NO":"１０號","E_COORD97":166823.82000000001,"N_COORD97":2545629.8399999999,"ADDRESS":"大興街２３３巷２０弄１０號","OBJECTID":79623},"geometry":{"x":166823.82000000123,"y":2545629.8400000017}},{"attributes":{"ID":79624,"DIS_CODE":0,"TOWNNAME":"善化區","LI":"東隆里","LIN":"7鄰","STREET":" ","SECT":" ","MAREA":"東勢寮","LANE":" ","ALLEY":" ","HOUSE_NO":"１８９號之６","E_COORD97":179921.14999999999,"N_COORD97":2561929.52,"ADDRESS":"東勢寮１８９號之６","OBJECTID":79624},"geometry":{"x":179921.15000000037,"y":2561929.5200000014}},{"attributes":{"ID":79625,"DIS_CODE":0,"TOWNNAME":"北區","LI":"大豐里","LIN":"19鄰","STREET":"大興街","SECT":" ","MAREA":" ","LANE":"２３３巷","ALLEY":"２０弄","HOUSE_NO":"１１號","E_COORD97":166815.56,"N_COORD97":2545619.7799999998,"ADDRESS":"大興街２３３巷２０弄１１號","OBJECTID":79625},"geometry":{"x":166815.56000000145,"y":2545619.7800000012}},{"attributes":{"ID":79626,"DIS_CODE":0,"TOWNNAME":"北區","LI":"大豐里","LIN":"19鄰","STREET":"大興街","SECT":" ","MAREA":" ","LANE":"２３３巷","ALLEY":"２０弄","HOUSE_NO":"１２號","E_COORD97":166819.23999999999,"N_COORD97":2545629.71,"ADDRESS":"大興街２３３巷２０弄１２號","OBJECTID":79626},"geometry":{"x":166819.24000000115,"y":2545629.7100000009}},{"attributes":{"ID":79627,"DIS_CODE":0,"TOWNNAME":"北區","LI":"大豐里","LIN":"19鄰","STREET":"大興街","SECT":" ","MAREA":" ","LANE":"２３３巷","ALLEY":"２０弄","HOUSE_NO":"１３號","E_COORD97":166811.37,"N_COORD97":2545619.8500000001,"ADDRESS":"大興街２３３巷２０弄１３號","OBJECTID":79627},"geometry":{"x":166811.37000000104,"y":2545619.8500000015}},{"attributes":{"ID":79628,"DIS_CODE":0,"TOWNNAME":"善化區","LI":"小新里","LIN":"7鄰","STREET":" ","SECT":" ","MAREA":"小新營","LANE":" ","ALLEY":" ","HOUSE_NO":"５６號之１４","E_COORD97":179601.07000000001,"N_COORD97":2558655.02,"ADDRESS":"小新營５６號之１４","OBJECTID":79628},"geometry":{"x":179601.0700000003,"y":2558655.0199999996}},{"attributes":{"ID":79629,"DIS_CODE":0,"TOWNNAME":"善化區","LI":"東隆里","LIN":"7鄰","STREET":" ","SECT":" ","MAREA":"東勢寮","LANE":" ","ALLEY":" ","HOUSE_NO":"１９１號之２","E_COORD97":179865.70999999999,"N_COORD97":2561848.77,"ADDRESS":"東勢寮１９１號之２","OBJECTID":79629},"geometry":{"x":179865.70999999996,"y":2561848.7700000033}},{"attributes":{"ID":79630,"DIS_CODE":0,"TOWNNAME":"北區","LI":"大豐里","LIN":"19鄰","STREET":"大興街","SECT":" ","MAREA":" ","LANE":"２３３巷","ALLEY":"２０弄","HOUSE_NO":"１４號","E_COORD97":166815.29999999999,"N_COORD97":2545629.52,"ADDRESS":"大興街２３３巷２０弄１４號","OBJECTID":79630},"geometry":{"x":166815.29999999981,"y":2545629.5199999996}},{"attributes":{"ID":79631,"DIS_CODE":0,"TOWNNAME":"善化區","LI":"東隆里","LIN":"7鄰","STREET":" ","SECT":" ","MAREA":"東勢寮","LANE":" ","ALLEY":" ","HOUSE_NO":"１９２號之３","E_COORD97":179806.91,"N_COORD97":2561838.27,"ADDRESS":"東勢寮１９２號之３","OBJECTID":79631},"geometry":{"x":179806.91000000015,"y":2561838.2700000033}},{"attributes":{"ID":79632,"DIS_CODE":0,"TOWNNAME":"南區","LI":"文華里","LIN":"17鄰","STREET":"敬南街","SECT":" ","MAREA":" ","LANE":" ","ALLEY":" ","HOUSE_NO":"１號","E_COORD97":166764.67999999999,"N_COORD97":2543086.2400000002,"ADDRESS":"敬南街１號","OBJECTID":79632},"geometry":{"x":166764.68000000063,"y":2543086.2400000002}},{"attributes":{"ID":79633,"DIS_CODE":0,"TOWNNAME":"善化區","LI":"東隆里","LIN":"7鄰","STREET":" ","SECT":" ","MAREA":"東勢寮","LANE":" ","ALLEY":" ","HOUSE_NO":"１９６號","E_COORD97":179884.29999999999,"N_COORD97":2561811.0099999998,"ADDRESS":"東勢寮１９６號","OBJECTID":79633},"geometry":{"x":179884.30000000075,"y":2561811.0100000016}},{"attributes":{"ID":79634,"DIS_CODE":0,"TOWNNAME":"善化區","LI":"小新里","LIN":"7鄰","STREET":" ","SECT":" ","MAREA":"小新營","LANE":" ","ALLEY":" ","HOUSE_NO":"５６之６５號","E_COORD97":179484.19,"N_COORD97":2558488.52,"ADDRESS":"小新營５６之６５號","OBJECTID":79634},"geometry":{"x":179484.19000000134,"y":2558488.5200000014}},{"attributes":{"ID":79635,"DIS_CODE":0,"TOWNNAME":"善化區","LI":"東隆里","LIN":"7鄰","STREET":" ","SECT":" ","MAREA":"東勢寮","LANE":" ","ALLEY":" ","HOUSE_NO":"１８９號之１","E_COORD97":179926.07000000001,"N_COORD97":2561848.02,"ADDRESS":"東勢寮１８９號之１","OBJECTID":79635},"geometry":{"x":179926.0700000003,"y":2561848.0200000014}},{"attributes":{"ID":79636,"DIS_CODE":0,"TOWNNAME":"善化區","LI":"小新里","LIN":"7鄰","STREET":" ","SECT":" ","MAREA":"小新營","LANE":" ","ALLEY":" ","HOUSE_NO":"５４號之１０","E_COORD97":179727.78,"N_COORD97":2558402.02,"ADDRESS":"小新營５４號之１０","OBJECTID":79636},"geometry":{"x":179727.78000000119,"y":2558402.0199999977}},{"attributes":{"ID":79637,"DIS_CODE":0,"TOWNNAME":"善化區","LI":"六德里","LIN":"7鄰","STREET":" ","SECT":" ","MAREA":"六分寮","LANE":" ","ALLEY":" ","HOUSE_NO":"２５４號","E_COORD97":178752.45999999999,"N_COORD97":2561650.75,"ADDRESS":"六分寮２５４號","OBJECTID":79637},"geometry":{"x":178752.46000000183,"y":2561650.7500000019}},{"attributes":{"ID":79638,"DIS_CODE":0,"TOWNNAME":"北區","LI":"大豐里","LIN":"19鄰","STREET":"大興街","SECT":" ","MAREA":" ","LANE":"２３３巷","ALLEY":"２０弄","HOUSE_NO":"１５號","E_COORD97":166806.78,"N_COORD97":2545619.9100000001,"ADDRESS":"大興街２３３巷２０弄１５號","OBJECTID":79638},"geometry":{"x":166806.78000000119,"y":2545619.910000002}},{"attributes":{"ID":79639,"DIS_CODE":0,"TOWNNAME":"北區","LI":"大豐里","LIN":"19鄰","STREET":"大興街","SECT":" ","MAREA":" ","LANE":"２３３巷","ALLEY":"２０弄","HOUSE_NO":"１６號","E_COORD97":166810.91,"N_COORD97":2545629.46,"ADDRESS":"大興街２３３巷２０弄１６號","OBJECTID":79639},"geometry":{"x":166810.91000000108,"y":2545629.4600000028}},{"attributes":{"ID":79640,"DIS_CODE":0,"TOWNNAME":"北區","LI":"大豐里","LIN":"19鄰","STREET":"大興街","SECT":" ","MAREA":" ","LANE":"２３３巷","ALLEY":"２０弄","HOUSE_NO":"１７號","E_COORD97":166802.78,"N_COORD97":2545619.7799999998,"ADDRESS":"大興街２３３巷２０弄１７號","OBJECTID":79640},"geometry":{"x":166802.78000000026,"y":2545619.7800000012}},{"attributes":{"ID":79641,"DIS_CODE":0,"TOWNNAME":"善化區","LI":"小新里","LIN":"7鄰","STREET":" ","SECT":" ","MAREA":"小新營","LANE":" ","ALLEY":" ","HOUSE_NO":"５６號","E_COORD97":179681.85000000001,"N_COORD97":2558360.75,"ADDRESS":"小新營５６號","OBJECTID":79641},"geometry":{"x":179681.85000000149,"y":2558360.7500000019}},{"attributes":{"ID":79642,"DIS_CODE":0,"TOWNNAME":"善化區","LI":"小新里","LIN":"7鄰","STREET":" ","SECT":" ","MAREA":"小新營","LANE":" ","ALLEY":" ","HOUSE_NO":"５６號之４","E_COORD97":179567.04999999999,"N_COORD97":2558573.52,"ADDRESS":"小新營５６號之４","OBJECTID":79642},"geometry":{"x":179567.04999999888,"y":2558573.5199999996}},{"attributes":{"ID":79643,"DIS_CODE":0,"TOWNNAME":"北區","LI":"大豐里","LIN":"19鄰","STREET":"大興街","SECT":" ","MAREA":" ","LANE":"２３３巷","ALLEY":"２０弄","HOUSE_NO":"１８號","E_COORD97":166807.10999999999,"N_COORD97":2545629.5899999999,"ADDRESS":"大興街２３３巷２０弄１８號","OBJECTID":79643},"geometry":{"x":166807.11000000034,"y":2545629.5899999999}},{"attributes":{"ID":79644,"DIS_CODE":0,"TOWNNAME":"北區","LI":"大豐里","LIN":"19鄰","STREET":"大興街","SECT":" ","MAREA":" ","LANE":"２３３巷","ALLEY":"２０弄","HOUSE_NO":"１９號","E_COORD97":166798.45999999999,"N_COORD97":2545619.7200000002,"ADDRESS":"大興街２３３巷２０弄１９號","OBJECTID":79644},"geometry":{"x":166798.46000000089,"y":2545619.7200000007}},{"attributes":{"ID":79645,"DIS_CODE":0,"TOWNNAME":"善化區","LI":"六德里","LIN":"7鄰","STREET":" ","SECT":" ","MAREA":"六分寮","LANE":" ","ALLEY":" ","HOUSE_NO":"２５９號","E_COORD97":178721.5,"N_COORD97":2561591.5,"ADDRESS":"六分寮２５９號","OBJECTID":79645},"geometry":{"x":178721.5,"y":2561591.5}},{"attributes":{"ID":79646,"DIS_CODE":0,"TOWNNAME":"善化區","LI":"胡家里","LIN":"7鄰","STREET":" ","SECT":" ","MAREA":"胡厝寮","LANE":" ","ALLEY":" ","HOUSE_NO":"５４號","E_COORD97":175413.35000000001,"N_COORD97":2560660.5,"ADDRESS":"胡厝寮５４號","OBJECTID":79646},"geometry":{"x":175413.35000000149,"y":2560660.5}},{"attributes":{"ID":79647,"DIS_CODE":0,"TOWNNAME":"北區","LI":"大豐里","LIN":"19鄰","STREET":"大興街","SECT":" ","MAREA":" ","LANE":"２３３巷","ALLEY":"２０弄","HOUSE_NO":"２０號","E_COORD97":166802.78,"N_COORD97":2545629.46,"ADDRESS":"大興街２３３巷２０弄２０號","OBJECTID":79647},"geometry":{"x":166802.78000000026,"y":2545629.4600000028}},{"attributes":{"ID":79648,"DIS_CODE":0,"TOWNNAME":"北區","LI":"大豐里","LIN":"19鄰","STREET":"大興街","SECT":" ","MAREA":" ","LANE":"２３３巷","ALLEY":"２０弄","HOUSE_NO":"２１號","E_COORD97":166794.64999999999,"N_COORD97":2545619.5899999999,"ADDRESS":"大興街２３３巷２０弄２１號","OBJECTID":79648},"geometry":{"x":166794.6500000013,"y":2545619.5899999999}},{"attributes":{"ID":79649,"DIS_CODE":0,"TOWNNAME":"善化區","LI":"小新里","LIN":"7鄰","STREET":" ","SECT":" ","MAREA":"小新營","LANE":" ","ALLEY":" ","HOUSE_NO":"５６號之５９","E_COORD97":179494.79000000001,"N_COORD97":2558524.27,"ADDRESS":"小新營５６號之５９","OBJECTID":79649},"geometry":{"x":179494.79000000097,"y":2558524.2700000014}},{"attributes":{"ID":79650,"DIS_CODE":0,"TOWNNAME":"北區","LI":"大豐里","LIN":"19鄰","STREET":"大興街","SECT":" ","MAREA":" ","LANE":"２３３巷","ALLEY":"２０弄","HOUSE_NO":"２３號","E_COORD97":166789.87,"N_COORD97":2545619.7799999998,"ADDRESS":"大興街２３３巷２０弄２３號","OBJECTID":79650},"geometry":{"x":166789.87000000011,"y":2545619.7800000012}},{"attributes":{"ID":79651,"DIS_CODE":0,"TOWNNAME":"善化區","LI":"田寮里","LIN":"7鄰","STREET":" ","SECT":" ","MAREA":"六分寮","LANE":" ","ALLEY":" ","HOUSE_NO":"８６號之７","E_COORD97":178503.47,"N_COORD97":2561436.02,"ADDRESS":"六分寮８６號之７","OBJECTID":79651},"geometry":{"x":178503.47000000067,"y":2561436.0199999996}},{"attributes":{"ID":79652,"DIS_CODE":0,"TOWNNAME":"善化區","LI":"胡家里","LIN":"7鄰","STREET":" ","SECT":" ","MAREA":"胡厝寮","LANE":" ","ALLEY":" ","HOUSE_NO":"５５號之４","E_COORD97":175461.64999999999,"N_COORD97":2560697.52,"ADDRESS":"胡厝寮５５號之４","OBJECTID":79652},"geometry":{"x":175461.6500000013,"y":2560697.5200000033}},{"attributes":{"ID":79653,"DIS_CODE":0,"TOWNNAME":"學甲區","LI":"秀昌里","LIN":"33鄰","STREET":" ","SECT":" ","MAREA":"煥昌","LANE":" ","ALLEY":" ","HOUSE_NO":"１１０號之１３","E_COORD97":166035.98000000001,"N_COORD97":2570961.21,"ADDRESS":"煥昌１１０號之１３","OBJECTID":79653},"geometry":{"x":166035.98000000138,"y":2570961.2100000028}},{"attributes":{"ID":79654,"DIS_CODE":0,"TOWNNAME":"學甲區","LI":"秀昌里","LIN":"33鄰","STREET":" ","SECT":" ","MAREA":"煥昌","LANE":" ","ALLEY":" ","HOUSE_NO":"１１０號之１４","E_COORD97":166033.97,"N_COORD97":2570965.02,"ADDRESS":"煥昌１１０號之１４","OBJECTID":79654},"geometry":{"x":166033.97000000067,"y":2570965.0200000014}},{"attributes":{"ID":79655,"DIS_CODE":0,"TOWNNAME":"學甲區","LI":"秀昌里","LIN":"33鄰","STREET":" ","SECT":" ","MAREA":"煥昌","LANE":" ","ALLEY":" ","HOUSE_NO":"１１０號之１５","E_COORD97":166031.95999999999,"N_COORD97":2570968.8300000001,"ADDRESS":"煥昌１１０號之１５","OBJECTID":79655},"geometry":{"x":166031.96000000183,"y":2570968.8300000038}},{"attributes":{"ID":79656,"DIS_CODE":0,"TOWNNAME":"北區","LI":"大豐里","LIN":"19鄰","STREET":"大興街","SECT":" ","MAREA":" ","LANE":"２３３巷","ALLEY":"２０弄","HOUSE_NO":"２４號","E_COORD97":166794.32999999999,"N_COORD97":2545629.3900000001,"ADDRESS":"大興街２３３巷２０弄２４號","OBJECTID":79656},"geometry":{"x":166794.33000000101,"y":2545629.3900000043}},{"attributes":{"ID":79657,"DIS_CODE":0,"TOWNNAME":"學甲區","LI":"秀昌里","LIN":"33鄰","STREET":" ","SECT":" ","MAREA":"煥昌","LANE":" ","ALLEY":" ","HOUSE_NO":"１１０號之１６","E_COORD97":166029.95000000001,"N_COORD97":2570972.6400000001,"ADDRESS":"煥昌１１０號之１６","OBJECTID":79657},"geometry":{"x":166029.95000000019,"y":2570972.6400000006}},{"attributes":{"ID":79658,"DIS_CODE":0,"TOWNNAME":"北區","LI":"大豐里","LIN":"19鄰","STREET":"大興街","SECT":" ","MAREA":" ","LANE":"２３３巷","ALLEY":"２０弄","HOUSE_NO":"２５號","E_COORD97":166785.60999999999,"N_COORD97":2545619.3300000001,"ADDRESS":"大興街２３３巷２０弄２５號","OBJECTID":79658},"geometry":{"x":166785.6100000022,"y":2545619.3300000019}},{"attributes":{"ID":79659,"DIS_CODE":0,"TOWNNAME":"善化區","LI":"光文里","LIN":"7鄰","STREET":"光文路","SECT":" ","MAREA":" ","LANE":"３９巷","ALLEY":" ","HOUSE_NO":"２號","E_COORD97":178993.45000000001,"N_COORD97":2559504.5299999998,"ADDRESS":"光文路３９巷２號","OBJECTID":79659},"geometry":{"x":178993.44999999925,"y":2559504.5300000012}},{"attributes":{"ID":79660,"DIS_CODE":0,"TOWNNAME":"善化區","LI":"光文里","LIN":"7鄰","STREET":"光文路","SECT":" ","MAREA":" ","LANE":" ","ALLEY":" ","HOUSE_NO":"４５號","E_COORD97":179014.04000000001,"N_COORD97":2559509.7799999998,"ADDRESS":"光文路４５號","OBJECTID":79660},"geometry":{"x":179014.04000000004,"y":2559509.7800000012}},{"attributes":{"ID":79661,"DIS_CODE":0,"TOWNNAME":"仁德區","LI":"中洲里","LIN":"7鄰","STREET":" ","SECT":" ","MAREA":"中洲","LANE":" ","ALLEY":" ","HOUSE_NO":"２７５號之３","E_COORD97":173175.57999999999,"N_COORD97":2534204.2999999998,"ADDRESS":"中洲２７５號之３","OBJECTID":79661},"geometry":{"x":173175.58000000007,"y":2534204.2999999989}},{"attributes":{"ID":79662,"DIS_CODE":0,"TOWNNAME":"仁德區","LI":"三甲里","LIN":"7鄰","STREET":" ","SECT":" ","MAREA":"三甲子","LANE":" ","ALLEY":" ","HOUSE_NO":"７２號之２","E_COORD97":171340.14000000001,"N_COORD97":2536931.04,"ADDRESS":"三甲子７２號之２","OBJECTID":79662},"geometry":{"x":171340.1400000006,"y":2536931.040000001}},{"attributes":{"ID":79663,"DIS_CODE":0,"TOWNNAME":"仁德區","LI":"中洲里","LIN":"7鄰","STREET":" ","SECT":" ","MAREA":"中洲","LANE":" ","ALLEY":" ","HOUSE_NO":"２７４號","E_COORD97":173171.54000000001,"N_COORD97":2534174.7400000002,"ADDRESS":"中洲２７４號","OBJECTID":79663},"geometry":{"x":173171.5400000019,"y":2534174.7400000021}},{"attributes":{"ID":79664,"DIS_CODE":0,"TOWNNAME":"學甲區","LI":"秀昌里","LIN":"33鄰","STREET":" ","SECT":" ","MAREA":"煥昌","LANE":" ","ALLEY":" ","HOUSE_NO":"１１０號之１７","E_COORD97":166025.45000000001,"N_COORD97":2570983.9500000002,"ADDRESS":"煥昌１１０號之１７","OBJECTID":79664},"geometry":{"x":166025.45000000205,"y":2570983.9499999974}},{"attributes":{"ID":79665,"DIS_CODE":0,"TOWNNAME":"學甲區","LI":"秀昌里","LIN":"33鄰","STREET":" ","SECT":" ","MAREA":"煥昌","LANE":" ","ALLEY":" ","HOUSE_NO":"１１０號之１８","E_COORD97":166022.31,"N_COORD97":2570987.4500000002,"ADDRESS":"煥昌１１０號之１８","OBJECTID":79665},"geometry":{"x":166022.31000000145,"y":2570987.450000003}},{"attributes":{"ID":79666,"DIS_CODE":0,"TOWNNAME":"北區","LI":"大豐里","LIN":"19鄰","STREET":"大興街","SECT":" ","MAREA":" ","LANE":"２３３巷","ALLEY":"２０弄","HOUSE_NO":"２６號","E_COORD97":166790.32000000001,"N_COORD97":2545629.52,"ADDRESS":"大興街２３３巷２０弄２６號","OBJECTID":79666},"geometry":{"x":166790.3200000003,"y":2545629.5199999996}},{"attributes":{"ID":79667,"DIS_CODE":0,"TOWNNAME":"北區","LI":"大豐里","LIN":"19鄰","STREET":"大興街","SECT":" ","MAREA":" ","LANE":"２３３巷","ALLEY":"２０弄","HOUSE_NO":"２７號","E_COORD97":166781.60999999999,"N_COORD97":2545619.27,"ADDRESS":"大興街２３３巷２０弄２７號","OBJECTID":79667},"geometry":{"x":166781.61000000034,"y":2545619.2700000014}},{"attributes":{"ID":79668,"DIS_CODE":0,"TOWNNAME":"北區","LI":"大豐里","LIN":"19鄰","STREET":"大興街","SECT":" ","MAREA":" ","LANE":"２３３巷","ALLEY":"２０弄","HOUSE_NO":"２８號","E_COORD97":166786,"N_COORD97":2545629.2599999998,"ADDRESS":"大興街２３３巷２０弄２８號","OBJECTID":79668},"geometry":{"x":166786.00000000186,"y":2545629.2600000035}},{"attributes":{"ID":79669,"DIS_CODE":0,"TOWNNAME":"北區","LI":"大豐里","LIN":"19鄰","STREET":"大興街","SECT":" ","MAREA":" ","LANE":"２３３巷","ALLEY":"２０弄","HOUSE_NO":"２９號","E_COORD97":166777.57999999999,"N_COORD97":2545619.46,"ADDRESS":"大興街２３３巷２０弄２９號","OBJECTID":79669},"geometry":{"x":166777.58000000101,"y":2545619.4600000028}},{"attributes":{"ID":79670,"DIS_CODE":0,"TOWNNAME":"北區","LI":"大豐里","LIN":"19鄰","STREET":"大興街","SECT":" ","MAREA":" ","LANE":"２３３巷","ALLEY":"２０弄","HOUSE_NO":"３０號","E_COORD97":166781.73999999999,"N_COORD97":2545628.9399999999,"ADDRESS":"大興街２３３巷２０弄３０號","OBJECTID":79670},"geometry":{"x":166781.74000000115,"y":2545628.9400000013}},{"attributes":{"ID":79671,"DIS_CODE":0,"TOWNNAME":"北區","LI":"大豐里","LIN":"19鄰","STREET":"大興街","SECT":" ","MAREA":" ","LANE":"２３３巷","ALLEY":"２０弄","HOUSE_NO":"３１號","E_COORD97":166773.51000000001,"N_COORD97":2545619.46,"ADDRESS":"大興街２３３巷２０弄３１號","OBJECTID":79671},"geometry":{"x":166773.50999999978,"y":2545619.4600000028}},{"attributes":{"ID":79672,"DIS_CODE":0,"TOWNNAME":"北區","LI":"大豐里","LIN":"19鄰","STREET":"大興街","SECT":" ","MAREA":" ","LANE":"２３３巷","ALLEY":"２０弄","HOUSE_NO":"３２號","E_COORD97":166777.19,"N_COORD97":2545628.6200000001,"ADDRESS":"大興街２３３巷２０弄３２號","OBJECTID":79672},"geometry":{"x":166777.19000000134,"y":2545628.6200000029}},{"attributes":{"ID":79673,"DIS_CODE":0,"TOWNNAME":"北區","LI":"大豐里","LIN":"19鄰","STREET":"大興街","SECT":" ","MAREA":" ","LANE":"２３３巷","ALLEY":"２０弄","HOUSE_NO":"３３號","E_COORD97":166769.57000000001,"N_COORD97":2545619.3999999999,"ADDRESS":"大興街２３３巷２０弄３３號","OBJECTID":79673},"geometry":{"x":166769.57000000123,"y":2545619.4000000022}},{"attributes":{"ID":79674,"DIS_CODE":0,"TOWNNAME":"北區","LI":"大豐里","LIN":"19鄰","STREET":"大興街","SECT":" ","MAREA":" ","LANE":"２３３巷","ALLEY":"２０弄","HOUSE_NO":"３４號","E_COORD97":166773.25,"N_COORD97":2545628.6200000001,"ADDRESS":"大興街２３３巷２０弄３４號","OBJECTID":79674},"geometry":{"x":166773.25,"y":2545628.6200000029}},{"attributes":{"ID":79675,"DIS_CODE":0,"TOWNNAME":"北區","LI":"大豐里","LIN":"19鄰","STREET":"大興街","SECT":" ","MAREA":" ","LANE":"２３３巷","ALLEY":"２０弄","HOUSE_NO":"３５號","E_COORD97":166764.98999999999,"N_COORD97":2545619.3300000001,"ADDRESS":"大興街２３３巷２０弄３５號","OBJECTID":79675},"geometry":{"x":166764.99000000115,"y":2545619.3300000019}},{"attributes":{"ID":79676,"DIS_CODE":0,"TOWNNAME":"北區","LI":"大豐里","LIN":"19鄰","STREET":"大興街","SECT":" ","MAREA":" ","LANE":"２３３巷","ALLEY":"２０弄","HOUSE_NO":"３６號","E_COORD97":166769.12,"N_COORD97":2545628.6200000001,"ADDRESS":"大興街２３３巷２０弄３６號","OBJECTID":79676},"geometry":{"x":166769.12000000104,"y":2545628.6200000029}},{"attributes":{"ID":79677,"DIS_CODE":0,"TOWNNAME":"北區","LI":"大豐里","LIN":"19鄰","STREET":"大興街","SECT":" ","MAREA":" ","LANE":"２３３巷","ALLEY":"２０弄","HOUSE_NO":"３７號","E_COORD97":166760.01999999999,"N_COORD97":2545619.27,"ADDRESS":"大興街２３３巷２０弄３７號","OBJECTID":79677},"geometry":{"x":166760.02000000142,"y":2545619.2700000014}},{"attributes":{"ID":79678,"DIS_CODE":0,"TOWNNAME":"學甲區","LI":"秀昌里","LIN":"33鄰","STREET":" ","SECT":" ","MAREA":"煥昌","LANE":" ","ALLEY":" ","HOUSE_NO":"１１０號之１９","E_COORD97":166020.17000000001,"N_COORD97":2570991.5,"ADDRESS":"煥昌１１０號之１９","OBJECTID":79678},"geometry":{"x":166020.17000000179,"y":2570991.5000000037}},{"attributes":{"ID":79679,"DIS_CODE":0,"TOWNNAME":"北區","LI":"大豐里","LIN":"19鄰","STREET":"大興街","SECT":" ","MAREA":" ","LANE":"２３３巷","ALLEY":"２０弄","HOUSE_NO":"３８號","E_COORD97":166764.60000000001,"N_COORD97":2545628.6800000002,"ADDRESS":"大興街２３３巷２０弄３８號","OBJECTID":79679},"geometry":{"x":166764.60000000149,"y":2545628.6799999997}},{"attributes":{"ID":79680,"DIS_CODE":0,"TOWNNAME":"北區","LI":"大豐里","LIN":"19鄰","STREET":"大興街","SECT":" ","MAREA":" ","LANE":"２３３巷","ALLEY":"２０弄","HOUSE_NO":"４０號","E_COORD97":166760.28,"N_COORD97":2545628.1699999999,"ADDRESS":"大興街２３３巷２０弄４０號","OBJECTID":79680},"geometry":{"x":166760.28000000026,"y":2545628.1700000018}},{"attributes":{"ID":79681,"DIS_CODE":0,"TOWNNAME":"新營區","LI":"新南里","LIN":"19鄰","STREET":"隋唐街","SECT":" ","MAREA":" ","LANE":"３１巷","ALLEY":"４８弄","HOUSE_NO":"２之１號","E_COORD97":178644.66,"N_COORD97":2578321.21,"ADDRESS":"隋唐街３１巷４８弄２之１號","OBJECTID":79681},"geometry":{"x":178644.66000000201,"y":2578321.2100000028}},{"attributes":{"ID":79682,"DIS_CODE":0,"TOWNNAME":"北區","LI":"文元里","LIN":"19鄰","STREET":"文賢路","SECT":" ","MAREA":" ","LANE":"１０３０巷","ALLEY":"４８弄","HOUSE_NO":"３號","E_COORD97":167519.28,"N_COORD97":2546037.6400000001,"ADDRESS":"文賢路１０３０巷４８弄３號","OBJECTID":79682},"geometry":{"x":167519.28000000026,"y":2546037.6399999987}},{"attributes":{"ID":79683,"DIS_CODE":0,"TOWNNAME":"學甲區","LI":"秀昌里","LIN":"33鄰","STREET":" ","SECT":" ","MAREA":"煥昌","LANE":" ","ALLEY":" ","HOUSE_NO":"１１０號之１","E_COORD97":166063.01999999999,"N_COORD97":2570915.1200000001,"ADDRESS":"煥昌１１０號之１","OBJECTID":79683},"geometry":{"x":166063.01999999955,"y":2570915.1200000029}},{"attributes":{"ID":79684,"DIS_CODE":0,"TOWNNAME":"仁德區","LI":"仁義里","LIN":"7鄰","STREET":"中山路","SECT":" ","MAREA":" ","LANE":" ","ALLEY":" ","HOUSE_NO":"３８７號","E_COORD97":173852.91,"N_COORD97":2541247.75,"ADDRESS":"中山路３８７號","OBJECTID":79684},"geometry":{"x":173852.91000000108,"y":2541247.75}},{"attributes":{"ID":79685,"DIS_CODE":0,"TOWNNAME":"仁德區","LI":"仁義里","LIN":"7鄰","STREET":"中山路","SECT":" ","MAREA":" ","LANE":" ","ALLEY":" ","HOUSE_NO":"３８３號","E_COORD97":173861.79999999999,"N_COORD97":2541246.75,"ADDRESS":"中山路３８３號","OBJECTID":79685},"geometry":{"x":173861.80000000075,"y":2541246.7500000019}},{"attributes":{"ID":79686,"DIS_CODE":0,"TOWNNAME":"仁德區","LI":"二行里","LIN":"7鄰","STREET":"行大街","SECT":" ","MAREA":" ","LANE":" ","ALLEY":" ","HOUSE_NO":"３８號","E_COORD97":170267.92000000001,"N_COORD97":2535215.9900000002,"ADDRESS":"行大街３８號","OBJECTID":79686},"geometry":{"x":170267.91999999993,"y":2535215.9900000002}},{"attributes":{"ID":79687,"DIS_CODE":0,"TOWNNAME":"仁德區","LI":"二行里","LIN":"7鄰","STREET":"行大街","SECT":" ","MAREA":" ","LANE":" ","ALLEY":" ","HOUSE_NO":"３２號","E_COORD97":170298.70999999999,"N_COORD97":2535225,"ADDRESS":"行大街３２號","OBJECTID":79687},"geometry":{"x":170298.71000000183,"y":2535225}},{"attributes":{"ID":79688,"DIS_CODE":0,"TOWNNAME":"學甲區","LI":"秀昌里","LIN":"33鄰","STREET":" ","SECT":" ","MAREA":"煥昌","LANE":" ","ALLEY":" ","HOUSE_NO":"１１０號之２０","E_COORD97":166017.85000000001,"N_COORD97":2570995.3599999999,"ADDRESS":"煥昌１１０號之２０","OBJECTID":79688},"geometry":{"x":166017.84999999963,"y":2570995.3600000013}},{"attributes":{"ID":79689,"DIS_CODE":0,"TOWNNAME":"仁德區","LI":"上崙里","LIN":"7鄰","STREET":"德南路","SECT":" ","MAREA":" ","LANE":" ","ALLEY":" ","HOUSE_NO":"３７１之１號","E_COORD97":173897.70999999999,"N_COORD97":2538310.2599999998,"ADDRESS":"德南路３７１之１號","OBJECTID":79689},"geometry":{"x":173897.71000000089,"y":2538310.2600000016}},{"attributes":{"ID":79690,"DIS_CODE":0,"TOWNNAME":"仁德區","LI":"二行里","LIN":"7鄰","STREET":"行大街","SECT":" ","MAREA":" ","LANE":" ","ALLEY":" ","HOUSE_NO":"４６號","E_COORD97":170247.31,"N_COORD97":2535221.75,"ADDRESS":"行大街４６號","OBJECTID":79690},"geometry":{"x":170247.31000000052,"y":2535221.7500000019}},{"attributes":{"ID":79691,"DIS_CODE":0,"TOWNNAME":"北區","LI":"文元里","LIN":"19鄰","STREET":"文賢路","SECT":" ","MAREA":" ","LANE":"１０３０巷","ALLEY":"４８弄","HOUSE_NO":"５號","E_COORD97":167519.01999999999,"N_COORD97":2546032.7599999998,"ADDRESS":"文賢路１０３０巷４８弄５號","OBJECTID":79691},"geometry":{"x":167519.01999999955,"y":2546032.7600000035}},{"attributes":{"ID":79692,"DIS_CODE":0,"TOWNNAME":"安平區","LI":"怡平里","LIN":"19鄰","STREET":"文平路","SECT":" ","MAREA":" ","LANE":"４６１巷","ALLEY":"２１弄","HOUSE_NO":"５０號","E_COORD97":165665.97,"N_COORD97":2543852.71,"ADDRESS":"文平路４６１巷２１弄５０號","OBJECTID":79692},"geometry":{"x":165665.97000000067,"y":2543852.7100000009}},{"attributes":{"ID":79693,"DIS_CODE":0,"TOWNNAME":"安平區","LI":"怡平里","LIN":"19鄰","STREET":"文平路","SECT":" ","MAREA":" ","LANE":"４６１巷","ALLEY":"２１弄","HOUSE_NO":"５６號","E_COORD97":165659.23000000001,"N_COORD97":2543853.6099999999,"ADDRESS":"文平路４６１巷２１弄５６號","OBJECTID":79693},"geometry":{"x":165659.23000000231,"y":2543853.6100000031}},{"attributes":{"ID":79694,"DIS_CODE":0,"TOWNNAME":"安平區","LI":"怡平里","LIN":"19鄰","STREET":"文平路","SECT":" ","MAREA":" ","LANE":"４６１巷","ALLEY":"２１弄","HOUSE_NO":"５８號","E_COORD97":165653.59,"N_COORD97":2543854.3500000001,"ADDRESS":"文平路４６１巷２１弄５８號","OBJECTID":79694},"geometry":{"x":165653.59000000078,"y":2543854.3499999996}},{"attributes":{"ID":79695,"DIS_CODE":0,"TOWNNAME":"永康區","LI":"甲頂里","LIN":"19鄰","STREET":"中正南路","SECT":" ","MAREA":" ","LANE":"５２巷","ALLEY":"４６弄","HOUSE_NO":"９８號","E_COORD97":169918.76999999999,"N_COORD97":2546536.5699999998,"ADDRESS":"中正南路５２巷４６弄９８號","OBJECTID":79695},"geometry":{"x":169918.77000000048,"y":2546536.570000004}},{"attributes":{"ID":79696,"DIS_CODE":0,"TOWNNAME":"永康區","LI":"正強里","LIN":"19鄰","STREET":"自強路","SECT":" ","MAREA":" ","LANE":"１８８巷","ALLEY":"７６弄","HOUSE_NO":"２７號","E_COORD97":173197.22,"N_COORD97":2547228.4900000002,"ADDRESS":"自強路１８８巷７６弄２７號","OBJECTID":79696},"geometry":{"x":173197.2200000016,"y":2547228.4900000039}},{"attributes":{"ID":79697,"DIS_CODE":0,"TOWNNAME":"永康區","LI":"甲頂里","LIN":"19鄰","STREET":"中正南路","SECT":" ","MAREA":" ","LANE":"５２巷","ALLEY":"４６弄","HOUSE_NO":"９６號","E_COORD97":169900.95000000001,"N_COORD97":2546535.02,"ADDRESS":"中正南路５２巷４６弄９６號","OBJECTID":79697},"geometry":{"x":169900.95000000112,"y":2546535.0199999996}},{"attributes":{"ID":79698,"DIS_CODE":0,"TOWNNAME":"永康區","LI":"甲頂里","LIN":"19鄰","STREET":"中正南路","SECT":" ","MAREA":" ","LANE":"５２巷","ALLEY":"４６弄","HOUSE_NO":"９１號","E_COORD97":169887.39999999999,"N_COORD97":2546547.1800000002,"ADDRESS":"中正南路５２巷４６弄９１號","OBJECTID":79698},"geometry":{"x":169887.39999999944,"y":2546547.1799999997}},{"attributes":{"ID":79699,"DIS_CODE":0,"TOWNNAME":"永康區","LI":"甲頂里","LIN":"19鄰","STREET":"中正南路","SECT":" ","MAREA":" ","LANE":"５２巷","ALLEY":"４６弄","HOUSE_NO":"９７號","E_COORD97":169919.17000000001,"N_COORD97":2546530.8199999998,"ADDRESS":"中正南路５２巷４６弄９７號","OBJECTID":79699},"geometry":{"x":169919.17000000179,"y":2546530.8200000003}},{"attributes":{"ID":79700,"DIS_CODE":0,"TOWNNAME":"永康區","LI":"甲頂里","LIN":"19鄰","STREET":"中正南路","SECT":" ","MAREA":" ","LANE":"５２巷","ALLEY":"４６弄","HOUSE_NO":"９３號","E_COORD97":169898.95000000001,"N_COORD97":2546552.7799999998,"ADDRESS":"中正南路５２巷４６弄９３號","OBJECTID":79700},"geometry":{"x":169898.95000000205,"y":2546552.7799999993}},{"attributes":{"ID":79701,"DIS_CODE":0,"TOWNNAME":"永康區","LI":"甲頂里","LIN":"19鄰","STREET":"中正南路","SECT":" ","MAREA":" ","LANE":"５２巷","ALLEY":"４６弄","HOUSE_NO":"１０１號","E_COORD97":169919.13,"N_COORD97":2546554.8199999998,"ADDRESS":"中正南路５２巷４６弄１０１號","OBJECTID":79701},"geometry":{"x":169919.12999999989,"y":2546554.8199999984}},{"attributes":{"ID":79702,"DIS_CODE":0,"TOWNNAME":"永康區","LI":"甲頂里","LIN":"19鄰","STREET":"中正南路","SECT":" ","MAREA":" ","LANE":"５２巷","ALLEY":"４６弄","HOUSE_NO":"９２號","E_COORD97":169888.20999999999,"N_COORD97":2546553.2999999998,"ADDRESS":"中正南路５２巷４６弄９２號","OBJECTID":79702},"geometry":{"x":169888.20999999996,"y":2546553.3000000026}},{"attributes":{"ID":79703,"DIS_CODE":0,"TOWNNAME":"永康區","LI":"甲頂里","LIN":"19鄰","STREET":"中正南路","SECT":" ","MAREA":" ","LANE":"５２巷","ALLEY":"４６弄","HOUSE_NO":"６６號","E_COORD97":169894.91,"N_COORD97":2546580.8300000001,"ADDRESS":"中正南路５２巷４６弄６６號","OBJECTID":79703},"geometry":{"x":169894.91000000015,"y":2546580.8300000001}},{"attributes":{"ID":79704,"DIS_CODE":0,"TOWNNAME":"仁德區","LI":"三甲里","LIN":"7鄰","STREET":" ","SECT":" ","MAREA":"三甲子","LANE":" ","ALLEY":" ","HOUSE_NO":"７８號","E_COORD97":171317.29000000001,"N_COORD97":2536977.9900000002,"ADDRESS":"三甲子７８號","OBJECTID":79704},"geometry":{"x":171317.29000000097,"y":2536977.9900000002}},{"attributes":{"ID":79705,"DIS_CODE":0,"TOWNNAME":"仁德區","LI":"三甲里","LIN":"7鄰","STREET":" ","SECT":" ","MAREA":"三甲子","LANE":" ","ALLEY":" ","HOUSE_NO":"７２號之１","E_COORD97":171344.09,"N_COORD97":2536934.04,"ADDRESS":"三甲子７２號之１","OBJECTID":79705},"geometry":{"x":171344.09000000078,"y":2536934.040000001}},{"attributes":{"ID":79706,"DIS_CODE":0,"TOWNNAME":"仁德區","LI":"三甲里","LIN":"7鄰","STREET":" ","SECT":" ","MAREA":"三甲子","LANE":" ","ALLEY":" ","HOUSE_NO":"６３號","E_COORD97":171377.84,"N_COORD97":2536952.7400000002,"ADDRESS":"三甲子６３號","OBJECTID":79706},"geometry":{"x":171377.84000000078,"y":2536952.7400000002}},{"attributes":{"ID":79707,"DIS_CODE":0,"TOWNNAME":"仁德區","LI":"三甲里","LIN":"7鄰","STREET":" ","SECT":" ","MAREA":"三甲子","LANE":" ","ALLEY":" ","HOUSE_NO":"８０號","E_COORD97":171307.45000000001,"N_COORD97":2537001.75,"ADDRESS":"三甲子８０號","OBJECTID":79707},"geometry":{"x":171307.44999999925,"y":2537001.7500000019}},{"attributes":{"ID":79708,"DIS_CODE":0,"TOWNNAME":"仁德區","LI":"三甲里","LIN":"7鄰","STREET":" ","SECT":" ","MAREA":"三甲子","LANE":" ","ALLEY":" ","HOUSE_NO":"６６號","E_COORD97":171343.67000000001,"N_COORD97":2536978.75,"ADDRESS":"三甲子６６號","OBJECTID":79708},"geometry":{"x":171343.67000000086,"y":2536978.7500000019}},{"attributes":{"ID":79709,"DIS_CODE":0,"TOWNNAME":"新化區","LI":"崙頂里","LIN":"7鄰","STREET":" ","SECT":" ","MAREA":"崙子頂","LANE":" ","ALLEY":" ","HOUSE_NO":"２７２號","E_COORD97":176767.73000000001,"N_COORD97":2547080.25,"ADDRESS":"崙子頂２７２號","OBJECTID":79709},"geometry":{"x":176767.72999999952,"y":2547080.25}},{"attributes":{"ID":79710,"DIS_CODE":0,"TOWNNAME":"新化區","LI":"大坑里","LIN":"7鄰","STREET":" ","SECT":" ","MAREA":"大坑尾","LANE":" ","ALLEY":" ","HOUSE_NO":"１６７號之３","E_COORD97":186988.98000000001,"N_COORD97":2546002.2599999998,"ADDRESS":"大坑尾１６７號之３","OBJECTID":79710},"geometry":{"x":186988.98000000138,"y":2546002.2600000035}},{"attributes":{"ID":79711,"DIS_CODE":0,"TOWNNAME":"新化區","LI":"唪口里","LIN":"7鄰","STREET":" ","SECT":" ","MAREA":"唪口","LANE":" ","ALLEY":" ","HOUSE_NO":"１４號之１５","E_COORD97":177992.01000000001,"N_COORD97":2548919.2599999998,"ADDRESS":"唪口１４號之１５","OBJECTID":79711},"geometry":{"x":177992.00999999978,"y":2548919.2600000016}},{"attributes":{"ID":79712,"DIS_CODE":0,"TOWNNAME":"新化區","LI":"豐榮里","LIN":"7鄰","STREET":" ","SECT":" ","MAREA":"洋子","LANE":" ","ALLEY":" ","HOUSE_NO":"１５６號","E_COORD97":177903.48000000001,"N_COORD97":2548103.25,"ADDRESS":"洋子１５６號","OBJECTID":79712},"geometry":{"x":177903.47999999952,"y":2548103.25}},{"attributes":{"ID":79713,"DIS_CODE":0,"TOWNNAME":"學甲區","LI":"秀昌里","LIN":"33鄰","STREET":" ","SECT":" ","MAREA":"煥昌","LANE":" ","ALLEY":" ","HOUSE_NO":"１１０號之２１","E_COORD97":166015.70999999999,"N_COORD97":2570999.2799999998,"ADDRESS":"煥昌１１０號之２１","OBJECTID":79713},"geometry":{"x":166015.71000000089,"y":2570999.2800000012}},{"attributes":{"ID":79714,"DIS_CODE":0,"TOWNNAME":"學甲區","LI":"秀昌里","LIN":"33鄰","STREET":" ","SECT":" ","MAREA":"煥昌","LANE":" ","ALLEY":" ","HOUSE_NO":"１１０號之２","E_COORD97":166060.73999999999,"N_COORD97":2570919.0499999998,"ADDRESS":"煥昌１１０號之２","OBJECTID":79714},"geometry":{"x":166060.74000000209,"y":2570919.0500000007}},{"attributes":{"ID":79715,"DIS_CODE":0,"TOWNNAME":"學甲區","LI":"秀昌里","LIN":"33鄰","STREET":" ","SECT":" ","MAREA":"煥昌","LANE":" ","ALLEY":" ","HOUSE_NO":"１１０號之３","E_COORD97":166058.45999999999,"N_COORD97":2570922.9700000002,"ADDRESS":"煥昌１１０號之３","OBJECTID":79715},"geometry":{"x":166058.45999999996,"y":2570922.9700000007}},{"attributes":{"ID":79716,"DIS_CODE":0,"TOWNNAME":"永康區","LI":"甲頂里","LIN":"19鄰","STREET":"中正南路","SECT":" ","MAREA":" ","LANE":"５２巷","ALLEY":"４６弄","HOUSE_NO":"６９號","E_COORD97":169912.26000000001,"N_COORD97":2546581.0800000001,"ADDRESS":"中正南路５２巷４６弄６９號","OBJECTID":79716},"geometry":{"x":169912.26000000071,"y":2546581.0800000019}},{"attributes":{"ID":79717,"DIS_CODE":0,"TOWNNAME":"永康區","LI":"甲頂里","LIN":"19鄰","STREET":"中正南路","SECT":" ","MAREA":" ","LANE":"５２巷","ALLEY":"４６弄","HOUSE_NO":"７９號","E_COORD97":169895.73999999999,"N_COORD97":2546565.6899999999,"ADDRESS":"中正南路５２巷４６弄７９號","OBJECTID":79717},"geometry":{"x":169895.74000000115,"y":2546565.6900000013}},{"attributes":{"ID":79718,"DIS_CODE":0,"TOWNNAME":"安南區","LI":"新順里","LIN":"19鄰","STREET":"安豐六街","SECT":" ","MAREA":" ","LANE":"１０巷","ALLEY":"１弄","HOUSE_NO":"１０號","E_COORD97":169335.59,"N_COORD97":2549663.2200000002,"ADDRESS":"安豐六街１０巷１弄１０號","OBJECTID":79718},"geometry":{"x":169335.59000000078,"y":2549663.2200000025}},{"attributes":{"ID":79719,"DIS_CODE":0,"TOWNNAME":"安南區","LI":"新順里","LIN":"19鄰","STREET":"安豐六街","SECT":" ","MAREA":" ","LANE":"１０巷","ALLEY":"１弄","HOUSE_NO":"１２號","E_COORD97":169341.29000000001,"N_COORD97":2549660.9399999999,"ADDRESS":"安豐六街１０巷１弄１２號","OBJECTID":79719},"geometry":{"x":169341.29000000004,"y":2549660.9399999995}},{"attributes":{"ID":79720,"DIS_CODE":0,"TOWNNAME":"安南區","LI":"新順里","LIN":"19鄰","STREET":"安豐六街","SECT":" ","MAREA":" ","LANE":"１０巷","ALLEY":"１弄","HOUSE_NO":"２號","E_COORD97":169313.51999999999,"N_COORD97":2549663.2200000002,"ADDRESS":"安豐六街１０巷１弄２號","OBJECTID":79720},"geometry":{"x":169313.52000000048,"y":2549663.2200000025}},{"attributes":{"ID":79721,"DIS_CODE":0,"TOWNNAME":"安南區","LI":"新順里","LIN":"19鄰","STREET":"安豐六街","SECT":" ","MAREA":" ","LANE":"１０巷","ALLEY":"１弄","HOUSE_NO":"４號","E_COORD97":169319.23000000001,"N_COORD97":2549660.9399999999,"ADDRESS":"安豐六街１０巷１弄４號","OBJECTID":79721},"geometry":{"x":169319.23000000231,"y":2549660.9399999995}},{"attributes":{"ID":79722,"DIS_CODE":0,"TOWNNAME":"安南區","LI":"新順里","LIN":"19鄰","STREET":"安豐六街","SECT":" ","MAREA":" ","LANE":"１０巷","ALLEY":"１弄","HOUSE_NO":"６號","E_COORD97":169324.54999999999,"N_COORD97":2549662.8399999999,"ADDRESS":"安豐六街１０巷１弄６號","OBJECTID":79722},"geometry":{"x":169324.54999999981,"y":2549662.8399999999}},{"attributes":{"ID":79723,"DIS_CODE":0,"TOWNNAME":"安南區","LI":"新順里","LIN":"19鄰","STREET":"安豐六街","SECT":" ","MAREA":" ","LANE":"１０巷","ALLEY":"１弄","HOUSE_NO":"８號","E_COORD97":169330.26000000001,"N_COORD97":2549660.9399999999,"ADDRESS":"安豐六街１０巷１弄８號","OBJECTID":79723},"geometry":{"x":169330.26000000164,"y":2549660.9399999995}},{"attributes":{"ID":79724,"DIS_CODE":0,"TOWNNAME":"仁德區","LI":"後壁里","LIN":"19鄰","STREET":"德崙路","SECT":" ","MAREA":" ","LANE":"２１巷","ALLEY":"９弄","HOUSE_NO":"３號","E_COORD97":173255.06,"N_COORD97":2538647.52,"ADDRESS":"德崙路２１巷９弄３號","OBJECTID":79724},"geometry":{"x":173255.05999999959,"y":2538647.5200000014}},{"attributes":{"ID":79725,"DIS_CODE":0,"TOWNNAME":"仁德區","LI":"大甲里","LIN":"19鄰","STREET":"中正西路","SECT":" ","MAREA":" ","LANE":"４９５巷","ALLEY":"８弄","HOUSE_NO":"４５號","E_COORD97":169286.89999999999,"N_COORD97":2535441,"ADDRESS":"中正西路４９５巷８弄４５號","OBJECTID":79725},"geometry":{"x":169286.90000000037,"y":2535441.0000000019}},{"attributes":{"ID":79726,"DIS_CODE":0,"TOWNNAME":"永康區","LI":"甲頂里","LIN":"19鄰","STREET":"中正南路","SECT":" ","MAREA":" ","LANE":"５２巷","ALLEY":"４６弄","HOUSE_NO":"８５號","E_COORD97":169841.95000000001,"N_COORD97":2546563.73,"ADDRESS":"中正南路５２巷４６弄８５號","OBJECTID":79726},"geometry":{"x":169841.95000000112,"y":2546563.7300000023}},{"attributes":{"ID":79727,"DIS_CODE":0,"TOWNNAME":"永康區","LI":"正強里","LIN":"19鄰","STREET":"自強路","SECT":" ","MAREA":" ","LANE":"１８８巷","ALLEY":"７６弄","HOUSE_NO":"２８號","E_COORD97":173206.07000000001,"N_COORD97":2547229.7400000002,"ADDRESS":"自強路１８８巷７６弄２８號","OBJECTID":79727},"geometry":{"x":173206.07000000123,"y":2547229.7400000002}},{"attributes":{"ID":79728,"DIS_CODE":0,"TOWNNAME":"永康區","LI":"甲頂里","LIN":"19鄰","STREET":"中正南路","SECT":" ","MAREA":" ","LANE":"５２巷","ALLEY":"４６弄","HOUSE_NO":"８９號","E_COORD97":169873.87,"N_COORD97":2546546.1299999999,"ADDRESS":"中正南路５２巷４６弄８９號","OBJECTID":79728},"geometry":{"x":169873.87000000197,"y":2546546.1300000008}},{"attributes":{"ID":79729,"DIS_CODE":0,"TOWNNAME":"學甲區","LI":"秀昌里","LIN":"33鄰","STREET":" ","SECT":" ","MAREA":"煥昌","LANE":" ","ALLEY":" ","HOUSE_NO":"１１０號之４","E_COORD97":166056.17000000001,"N_COORD97":2570926.8999999999,"ADDRESS":"煥昌１１０號之４","OBJECTID":79729},"geometry":{"x":166056.17000000086,"y":2570926.9000000004}},{"attributes":{"ID":79730,"DIS_CODE":0,"TOWNNAME":"永康區","LI":"勝利里","LIN":"19鄰","STREET":"勝利街","SECT":" ","MAREA":" ","LANE":"１９７巷","ALLEY":"２５弄","HOUSE_NO":"１３號","E_COORD97":171280.17999999999,"N_COORD97":2545070.0099999998,"ADDRESS":"勝利街１９７巷２５弄１３號","OBJECTID":79730},"geometry":{"x":171280.18000000156,"y":2545070.0099999998}},{"attributes":{"ID":79731,"DIS_CODE":0,"TOWNNAME":"永康區","LI":"大橋里","LIN":"19鄰","STREET":"大橋一街","SECT":" ","MAREA":" ","LANE":"１３９巷","ALLEY":"２２弄","HOUSE_NO":"７５號","E_COORD97":171047.29000000001,"N_COORD97":2546635.7999999998,"ADDRESS":"大橋一街１３９巷２２弄７５號","OBJECTID":79731},"geometry":{"x":171047.29000000004,"y":2546635.8000000007}},{"attributes":{"ID":79732,"DIS_CODE":0,"TOWNNAME":"永康區","LI":"尚頂里","LIN":"19鄰","STREET":"南台街","SECT":" ","MAREA":" ","LANE":"３巷","ALLEY":"１４弄","HOUSE_NO":"１５號","E_COORD97":170487.25,"N_COORD97":2546839,"ADDRESS":"南台街３巷１４弄１５號","OBJECTID":79732},"geometry":{"x":170487.25000000093,"y":2546839.0000000019}},{"attributes":{"ID":79733,"DIS_CODE":0,"TOWNNAME":"永康區","LI":"勝利里","LIN":"19鄰","STREET":"勝利街","SECT":" ","MAREA":" ","LANE":"１９７巷","ALLEY":"３７弄","HOUSE_NO":"１號","E_COORD97":171237.85000000001,"N_COORD97":2545108.7599999998,"ADDRESS":"勝利街１９７巷３７弄１號","OBJECTID":79733},"geometry":{"x":171237.84999999963,"y":2545108.7600000016}},{"attributes":{"ID":79734,"DIS_CODE":0,"TOWNNAME":"永康區","LI":"甲頂里","LIN":"19鄰","STREET":"中正南路","SECT":" ","MAREA":" ","LANE":"５２巷","ALLEY":"４６弄","HOUSE_NO":"９９號","E_COORD97":169918.69,"N_COORD97":2546543.04,"ADDRESS":"中正南路５２巷４６弄９９號","OBJECTID":79734},"geometry":{"x":169918.69000000041,"y":2546543.040000001}},{"attributes":{"ID":79735,"DIS_CODE":0,"TOWNNAME":"永康區","LI":"二王里","LIN":"19鄰","STREET":"中山南路","SECT":" ","MAREA":" ","LANE":"６４４巷","ALLEY":"２９弄","HOUSE_NO":"１號","E_COORD97":172428.04999999999,"N_COORD97":2546586.6499999999,"ADDRESS":"中山南路６４４巷２９弄１號","OBJECTID":79735},"geometry":{"x":172428.04999999981,"y":2546586.6500000041}},{"attributes":{"ID":79736,"DIS_CODE":0,"TOWNNAME":"永康區","LI":"甲頂里","LIN":"19鄰","STREET":"中正南路","SECT":" ","MAREA":" ","LANE":"５２巷","ALLEY":"４６弄","HOUSE_NO":"８０號","E_COORD97":169888.29000000001,"N_COORD97":2546565.4399999999,"ADDRESS":"中正南路５２巷４６弄８０號","OBJECTID":79736},"geometry":{"x":169888.29000000097,"y":2546565.4399999995}},{"attributes":{"ID":79737,"DIS_CODE":0,"TOWNNAME":"永康區","LI":"正強里","LIN":"19鄰","STREET":"中山南路","SECT":" ","MAREA":" ","LANE":"４７１巷","ALLEY":"５１弄","HOUSE_NO":"７號","E_COORD97":173189.95999999999,"N_COORD97":2547209.9900000002,"ADDRESS":"中山南路４７１巷５１弄７號","OBJECTID":79737},"geometry":{"x":173189.95999999996,"y":2547209.9900000002}},{"attributes":{"ID":79738,"DIS_CODE":0,"TOWNNAME":"永康區","LI":"尚頂里","LIN":"19鄰","STREET":"南台街","SECT":" ","MAREA":" ","LANE":"３巷","ALLEY":"１４弄","HOUSE_NO":"３４號","E_COORD97":170467.09,"N_COORD97":2546878.7400000002,"ADDRESS":"南台街３巷１４弄３４號","OBJECTID":79738},"geometry":{"x":170467.09000000171,"y":2546878.7400000021}},{"attributes":{"ID":79739,"DIS_CODE":0,"TOWNNAME":"南區","LI":"明亮里","LIN":"19鄰","STREET":"金華路","SECT":"一段","MAREA":" ","LANE":"３５２巷","ALLEY":"３４弄","HOUSE_NO":"２號","E_COORD97":167094.69,"N_COORD97":2541143.3999999999,"ADDRESS":"金華路一段３５２巷３４弄２號","OBJECTID":79739},"geometry":{"x":167094.69000000041,"y":2541143.4000000041}},{"attributes":{"ID":79740,"DIS_CODE":0,"TOWNNAME":"南區","LI":"明亮里","LIN":"19鄰","STREET":"金華路","SECT":"一段","MAREA":" ","LANE":"３５２巷","ALLEY":"３４弄","HOUSE_NO":"２號之１","E_COORD97":167091,"N_COORD97":2541124.3799999999,"ADDRESS":"金華路一段３５２巷３４弄２號之１","OBJECTID":79740},"geometry":{"x":167090.99999999907,"y":2541124.379999999}},{"attributes":{"ID":79741,"DIS_CODE":0,"TOWNNAME":"南區","LI":"明亮里","LIN":"19鄰","STREET":"金華路","SECT":"一段","MAREA":" ","LANE":"３５２巷","ALLEY":"３４弄","HOUSE_NO":"６號","E_COORD97":167087.01000000001,"N_COORD97":2541124.9900000002,"ADDRESS":"金華路一段３５２巷３４弄６號","OBJECTID":79741},"geometry":{"x":167087.00999999978,"y":2541124.9900000002}},{"attributes":{"ID":79742,"DIS_CODE":0,"TOWNNAME":"南區","LI":"明亮里","LIN":"19鄰","STREET":"金華路","SECT":"一段","MAREA":" ","LANE":"３５２巷","ALLEY":"３４弄","HOUSE_NO":"８號","E_COORD97":167083.01999999999,"N_COORD97":2541125.2999999998,"ADDRESS":"金華路一段３５２巷３４弄８號","OBJECTID":79742},"geometry":{"x":167083.01999999955,"y":2541125.3000000026}},{"attributes":{"ID":79743,"DIS_CODE":0,"TOWNNAME":"南區","LI":"明亮里","LIN":"19鄰","STREET":"金華路","SECT":"一段","MAREA":" ","LANE":"３５２巷","ALLEY":"３４弄","HOUSE_NO":"１０號","E_COORD97":167078.41,"N_COORD97":2541126.2200000002,"ADDRESS":"金華路一段３５２巷３４弄１０號","OBJECTID":79743},"geometry":{"x":167078.41000000201,"y":2541126.2200000025}},{"attributes":{"ID":79744,"DIS_CODE":0,"TOWNNAME":"南區","LI":"明亮里","LIN":"19鄰","STREET":"金華路","SECT":"一段","MAREA":" ","LANE":"３５２巷","ALLEY":"３４弄","HOUSE_NO":"１２號","E_COORD97":167075.34,"N_COORD97":2541127.4500000002,"ADDRESS":"金華路一段３５２巷３４弄１２號","OBJECTID":79744},"geometry":{"x":167075.34000000078,"y":2541127.4499999993}},{"attributes":{"ID":79745,"DIS_CODE":0,"TOWNNAME":"南區","LI":"明亮里","LIN":"19鄰","STREET":"金華路","SECT":"一段","MAREA":" ","LANE":"３５２巷","ALLEY":"３４弄","HOUSE_NO":"１４號","E_COORD97":167071.04000000001,"N_COORD97":2541127.75,"ADDRESS":"金華路一段３５２巷３４弄１４號","OBJECTID":79745},"geometry":{"x":167071.04000000097,"y":2541127.7500000019}},{"attributes":{"ID":79746,"DIS_CODE":0,"TOWNNAME":"南區","LI":"明亮里","LIN":"19鄰","STREET":"金華路","SECT":"一段","MAREA":" ","LANE":"３５２巷","ALLEY":"３４弄","HOUSE_NO":"１６號","E_COORD97":167066.73000000001,"N_COORD97":2541128.3700000001,"ADDRESS":"金華路一段３５２巷３４弄１６號","OBJECTID":79746},"geometry":{"x":167066.73000000138,"y":2541128.3700000029}},{"attributes":{"ID":79747,"DIS_CODE":0,"TOWNNAME":"南區","LI":"明亮里","LIN":"19鄰","STREET":"金華路","SECT":"一段","MAREA":" ","LANE":"３５２巷","ALLEY":"３４弄","HOUSE_NO":"１８號","E_COORD97":167063.97,"N_COORD97":2541128.98,"ADDRESS":"金華路一段３５２巷３４弄１８號","OBJECTID":79747},"geometry":{"x":167063.9700000016,"y":2541128.9800000004}},{"attributes":{"ID":79748,"DIS_CODE":0,"TOWNNAME":"南區","LI":"明亮里","LIN":"19鄰","STREET":"金華路","SECT":"一段","MAREA":" ","LANE":"３５２巷","ALLEY":"３４弄","HOUSE_NO":"２０號","E_COORD97":167059.35999999999,"N_COORD97":2541130.21,"ADDRESS":"金華路一段３５２巷３４弄２０號","OBJECTID":79748},"geometry":{"x":167059.36000000034,"y":2541130.2100000009}},{"attributes":{"ID":79749,"DIS_CODE":0,"TOWNNAME":"南區","LI":"明亮里","LIN":"19鄰","STREET":"金華路","SECT":"一段","MAREA":" ","LANE":"３５２巷","ALLEY":"３４弄","HOUSE_NO":"２２號","E_COORD97":167074.41,"N_COORD97":2541118.5499999998,"ADDRESS":"金華路一段３５２巷３４弄２２號","OBJECTID":79749},"geometry":{"x":167074.41000000015,"y":2541118.5500000007}},{"attributes":{"ID":79750,"DIS_CODE":0,"TOWNNAME":"南區","LI":"明亮里","LIN":"19鄰","STREET":"金華路","SECT":"一段","MAREA":" ","LANE":"３５２巷","ALLEY":"３４弄","HOUSE_NO":"２４號","E_COORD97":167078.41,"N_COORD97":2541117.9399999999,"ADDRESS":"金華路一段３５２巷３４弄２４號","OBJECTID":79750},"geometry":{"x":167078.41000000201,"y":2541117.9399999995}},{"attributes":{"ID":79751,"DIS_CODE":0,"TOWNNAME":"南區","LI":"明亮里","LIN":"19鄰","STREET":"金華路","SECT":"一段","MAREA":" ","LANE":"３５２巷","ALLEY":"３４弄","HOUSE_NO":"２６號","E_COORD97":167082.39999999999,"N_COORD97":2541116.3999999999,"ADDRESS":"金華路一段３５２巷３４弄２６號","OBJECTID":79751},"geometry":{"x":167082.4000000013,"y":2541116.4000000041}},{"attributes":{"ID":79752,"DIS_CODE":0,"TOWNNAME":"新市區","LI":"新市里","LIN":"19鄰","STREET":"中正路","SECT":" ","MAREA":" ","LANE":"３２３巷","ALLEY":"２２弄","HOUSE_NO":"１９號","E_COORD97":177727.01000000001,"N_COORD97":2553361,"ADDRESS":"中正路３２３巷２２弄１９號","OBJECTID":79752},"geometry":{"x":177727.01000000071,"y":2553361}},{"attributes":{"ID":79753,"DIS_CODE":0,"TOWNNAME":"新市區","LI":"新市里","LIN":"19鄰","STREET":"中正路","SECT":" ","MAREA":" ","LANE":"３２３巷","ALLEY":"２２弄","HOUSE_NO":"２５號","E_COORD97":177739.95999999999,"N_COORD97":2553366,"ADDRESS":"中正路３２３巷２２弄２５號","OBJECTID":79753},"geometry":{"x":177739.95999999996,"y":2553366.0000000019}},{"attributes":{"ID":79754,"DIS_CODE":0,"TOWNNAME":"新市區","LI":"新市里","LIN":"19鄰","STREET":"中正路","SECT":" ","MAREA":" ","LANE":"３２３巷","ALLEY":"２２弄","HOUSE_NO":"１７號","E_COORD97":177722.26000000001,"N_COORD97":2553359.25,"ADDRESS":"中正路３２３巷２２弄１７號","OBJECTID":79754},"geometry":{"x":177722.25999999978,"y":2553359.25}},{"attributes":{"ID":79755,"DIS_CODE":0,"TOWNNAME":"新市區","LI":"新市里","LIN":"19鄰","STREET":"中正路","SECT":" ","MAREA":" ","LANE":"３２３巷","ALLEY":"２２弄","HOUSE_NO":"２３號","E_COORD97":177736.06,"N_COORD97":2553364.5,"ADDRESS":"中正路３２３巷２２弄２３號","OBJECTID":79755},"geometry":{"x":177736.06000000145,"y":2553364.4999999981}},{"attributes":{"ID":79756,"DIS_CODE":0,"TOWNNAME":"新市區","LI":"新市里","LIN":"19鄰","STREET":"中正路","SECT":" ","MAREA":" ","LANE":"３２３巷","ALLEY":"２２弄","HOUSE_NO":"２９號","E_COORD97":177749.35000000001,"N_COORD97":2553369.75,"ADDRESS":"中正路３２３巷２２弄２９號","OBJECTID":79756},"geometry":{"x":177749.35000000149,"y":2553369.7500000037}},{"attributes":{"ID":79757,"DIS_CODE":0,"TOWNNAME":"南區","LI":"廣州里","LIN":"7鄰","STREET":"大德街","SECT":" ","MAREA":" ","LANE":"１７０巷","ALLEY":" ","HOUSE_NO":"３１號","E_COORD97":167479.01000000001,"N_COORD97":2543036.77,"ADDRESS":"大德街１７０巷３１號","OBJECTID":79757},"geometry":{"x":167479.01000000164,"y":2543036.7700000014}},{"attributes":{"ID":79758,"DIS_CODE":0,"TOWNNAME":"新營區","LI":"民榮里","LIN":"17鄰","STREET":"新進路","SECT":"二段","MAREA":" ","LANE":" ","ALLEY":" ","HOUSE_NO":"２６４號","E_COORD97":178921.20999999999,"N_COORD97":2577759.4500000002,"ADDRESS":"新進路二段２６４號","OBJECTID":79758},"geometry":{"x":178921.20999999996,"y":2577759.4500000011}},{"attributes":{"ID":79759,"DIS_CODE":0,"TOWNNAME":"歸仁區","LI":"八甲里","LIN":"8鄰","STREET":"大明街","SECT":" ","MAREA":" ","LANE":" ","ALLEY":" ","HOUSE_NO":"４０號","E_COORD97":177894.17000000001,"N_COORD97":2541836.6099999999,"ADDRESS":"大明街４０號","OBJECTID":79759},"geometry":{"x":177894.16999999993,"y":2541836.6100000013}},{"attributes":{"ID":79760,"DIS_CODE":0,"TOWNNAME":"學甲區","LI":"秀昌里","LIN":"33鄰","STREET":" ","SECT":" ","MAREA":"煥昌","LANE":" ","ALLEY":" ","HOUSE_NO":"１１０號之５","E_COORD97":166053.89000000001,"N_COORD97":2570930.8300000001,"ADDRESS":"煥昌１１０號之５","OBJECTID":79760},"geometry":{"x":166053.88999999873,"y":2570930.8300000001}},{"attributes":{"ID":79761,"DIS_CODE":0,"TOWNNAME":"學甲區","LI":"秀昌里","LIN":"33鄰","STREET":" ","SECT":" ","MAREA":"煥昌","LANE":" ","ALLEY":" ","HOUSE_NO":"１１０號之６","E_COORD97":166051.60999999999,"N_COORD97":2570934.75,"ADDRESS":"煥昌１１０號之６","OBJECTID":79761},"geometry":{"x":166051.6100000022,"y":2570934.75}},{"attributes":{"ID":79762,"DIS_CODE":0,"TOWNNAME":"學甲區","LI":"秀昌里","LIN":"33鄰","STREET":" ","SECT":" ","MAREA":"煥昌","LANE":" ","ALLEY":" ","HOUSE_NO":"１１０號之７","E_COORD97":166049.32999999999,"N_COORD97":2570938.6800000002,"ADDRESS":"煥昌１１０號之７","OBJECTID":79762},"geometry":{"x":166049.33000000007,"y":2570938.6799999978}},{"attributes":{"ID":79763,"DIS_CODE":0,"TOWNNAME":"學甲區","LI":"秀昌里","LIN":"33鄰","STREET":" ","SECT":" ","MAREA":"煥昌","LANE":" ","ALLEY":" ","HOUSE_NO":"１１０號之８","E_COORD97":166047.04999999999,"N_COORD97":2570942.6000000001,"ADDRESS":"煥昌１１０號之８","OBJECTID":79763},"geometry":{"x":166047.05000000075,"y":2570942.5999999978}},{"attributes":{"ID":79764,"DIS_CODE":0,"TOWNNAME":"歸仁區","LI":"八甲里","LIN":"8鄰","STREET":"大明街","SECT":" ","MAREA":" ","LANE":" ","ALLEY":" ","HOUSE_NO":"３０號","E_COORD97":177861.37,"N_COORD97":2541843.6099999999,"ADDRESS":"大明街３０號","OBJECTID":79764},"geometry":{"x":177861.37000000011,"y":2541843.6100000013}},{"attributes":{"ID":79765,"DIS_CODE":0,"TOWNNAME":"歸仁區","LI":"文化里","LIN":"8鄰","STREET":"文化北街","SECT":" ","MAREA":" ","LANE":" ","ALLEY":" ","HOUSE_NO":"１０７號","E_COORD97":177195.91,"N_COORD97":2541401.3399999999,"ADDRESS":"文化北街１０７號","OBJECTID":79765},"geometry":{"x":177195.91000000108,"y":2541401.3400000017}},{"attributes":{"ID":79766,"DIS_CODE":0,"TOWNNAME":"歸仁區","LI":"西埔里","LIN":"8鄰","STREET":"保大路","SECT":"二段","MAREA":" ","LANE":" ","ALLEY":" ","HOUSE_NO":"２９２號","E_COORD97":176566.87,"N_COORD97":2544185.2799999998,"ADDRESS":"保大路二段２９２號","OBJECTID":79766},"geometry":{"x":176566.87000000104,"y":2544185.2800000012}},{"attributes":{"ID":79767,"DIS_CODE":0,"TOWNNAME":"歸仁區","LI":"文化里","LIN":"8鄰","STREET":"民權一街","SECT":" ","MAREA":" ","LANE":" ","ALLEY":" ","HOUSE_NO":"３７號","E_COORD97":177150.35000000001,"N_COORD97":2541360.3300000001,"ADDRESS":"民權一街３７號","OBJECTID":79767},"geometry":{"x":177150.34999999963,"y":2541360.3300000001}},{"attributes":{"ID":79768,"DIS_CODE":0,"TOWNNAME":"歸仁區","LI":"西埔里","LIN":"8鄰","STREET":"保大路","SECT":"二段","MAREA":" ","LANE":" ","ALLEY":" ","HOUSE_NO":"２６８號","E_COORD97":176604.57000000001,"N_COORD97":2544135.2799999998,"ADDRESS":"保大路二段２６８號","OBJECTID":79768},"geometry":{"x":176604.57000000123,"y":2544135.2799999993}},{"attributes":{"ID":79769,"DIS_CODE":0,"TOWNNAME":"歸仁區","LI":"西埔里","LIN":"8鄰","STREET":"保大路","SECT":"二段","MAREA":" ","LANE":" ","ALLEY":" ","HOUSE_NO":"２７８號","E_COORD97":176584.17000000001,"N_COORD97":2544156.2799999998,"ADDRESS":"保大路二段２７８號","OBJECTID":79769},"geometry":{"x":176584.16999999993,"y":2544156.2799999993}},{"attributes":{"ID":79770,"DIS_CODE":0,"TOWNNAME":"歸仁區","LI":"西埔里","LIN":"8鄰","STREET":"保大路","SECT":"二段","MAREA":" ","LANE":" ","ALLEY":" ","HOUSE_NO":"３０６號","E_COORD97":176552.47,"N_COORD97":2544180.2799999998,"ADDRESS":"保大路二段３０６號","OBJECTID":79770},"geometry":{"x":176552.47000000067,"y":2544180.2799999993}},{"attributes":{"ID":79771,"DIS_CODE":0,"TOWNNAME":"歸仁區","LI":"文化里","LIN":"8鄰","STREET":"文化北街","SECT":" ","MAREA":" ","LANE":" ","ALLEY":" ","HOUSE_NO":"１２１號","E_COORD97":177168.20999999999,"N_COORD97":2541403.3399999999,"ADDRESS":"文化北街１２１號","OBJECTID":79771},"geometry":{"x":177168.21000000089,"y":2541403.3399999999}},{"attributes":{"ID":79772,"DIS_CODE":0,"TOWNNAME":"歸仁區","LI":"大潭里","LIN":"8鄰","STREET":"長榮路","SECT":"一段","MAREA":" ","LANE":" ","ALLEY":" ","HOUSE_NO":"２２８號","E_COORD97":175062.87,"N_COORD97":2534550.9700000002,"ADDRESS":"長榮路一段２２８號","OBJECTID":79772},"geometry":{"x":175062.87000000197,"y":2534550.9700000007}},{"attributes":{"ID":79773,"DIS_CODE":0,"TOWNNAME":"歸仁區","LI":"西埔里","LIN":"8鄰","STREET":"保大路","SECT":"二段","MAREA":" ","LANE":" ","ALLEY":" ","HOUSE_NO":"１８０號","E_COORD97":176913.37,"N_COORD97":2544185.2799999998,"ADDRESS":"保大路二段１８０號","OBJECTID":79773},"geometry":{"x":176913.37000000011,"y":2544185.2800000012}},{"attributes":{"ID":79774,"DIS_CODE":0,"TOWNNAME":"歸仁區","LI":"文化里","LIN":"8鄰","STREET":"民權一街","SECT":" ","MAREA":" ","LANE":" ","ALLEY":" ","HOUSE_NO":"２９號","E_COORD97":177134.95000000001,"N_COORD97":2541361.3300000001,"ADDRESS":"民權一街２９號","OBJECTID":79774},"geometry":{"x":177134.95000000019,"y":2541361.3300000019}},{"attributes":{"ID":79775,"DIS_CODE":0,"TOWNNAME":"安南區","LI":"大安里","LIN":"7鄰","STREET":"大安街","SECT":" ","MAREA":" ","LANE":" ","ALLEY":" ","HOUSE_NO":"１６８號","E_COORD97":167350.17000000001,"N_COORD97":2548219.0499999998,"ADDRESS":"大安街１６８號","OBJECTID":79775},"geometry":{"x":167350.16999999993,"y":2548219.0500000026}},{"attributes":{"ID":79776,"DIS_CODE":0,"TOWNNAME":"白河區","LI":"詔安里","LIN":"7鄰","STREET":" ","SECT":" ","MAREA":"詔安厝","LANE":" ","ALLEY":" ","HOUSE_NO":"８７號","E_COORD97":189908.47,"N_COORD97":2587852.75,"ADDRESS":"詔安厝８７號","OBJECTID":79776},"geometry":{"x":189908.47000000067,"y":2587852.75}},{"attributes":{"ID":79777,"DIS_CODE":0,"TOWNNAME":"新化區","LI":"崙頂里","LIN":"7鄰","STREET":" ","SECT":" ","MAREA":"崙子頂","LANE":" ","ALLEY":" ","HOUSE_NO":"２７９號","E_COORD97":176703.03,"N_COORD97":2547107.25,"ADDRESS":"崙子頂２７９號","OBJECTID":79777},"geometry":{"x":176703.03000000119,"y":2547107.25}},{"attributes":{"ID":79778,"DIS_CODE":0,"TOWNNAME":"白河區","LI":"詔安里","LIN":"7鄰","STREET":" ","SECT":" ","MAREA":"詔安厝","LANE":" ","ALLEY":" ","HOUSE_NO":"７６之２號","E_COORD97":189894,"N_COORD97":2587924.3100000001,"ADDRESS":"詔安厝７６之２號","OBJECTID":79778},"geometry":{"x":189894,"y":2587924.3100000005}},{"attributes":{"ID":79779,"DIS_CODE":0,"TOWNNAME":"白河區","LI":"詔安里","LIN":"7鄰","STREET":" ","SECT":" ","MAREA":"詔安厝","LANE":" ","ALLEY":" ","HOUSE_NO":"７８號","E_COORD97":189869.76999999999,"N_COORD97":2587902.7200000002,"ADDRESS":"詔安厝７８號","OBJECTID":79779},"geometry":{"x":189869.76999999955,"y":2587902.7200000025}},{"attributes":{"ID":79780,"DIS_CODE":0,"TOWNNAME":"白河區","LI":"詔安里","LIN":"7鄰","STREET":" ","SECT":" ","MAREA":"詔安厝","LANE":" ","ALLEY":" ","HOUSE_NO":"７９號","E_COORD97":189894.19,"N_COORD97":2587913.8300000001,"ADDRESS":"詔安厝７９號","OBJECTID":79780},"geometry":{"x":189894.19000000134,"y":2587913.8300000038}},{"attributes":{"ID":79781,"DIS_CODE":0,"TOWNNAME":"白河區","LI":"詔安里","LIN":"7鄰","STREET":" ","SECT":" ","MAREA":"詔安厝","LANE":" ","ALLEY":" ","HOUSE_NO":"８１號","E_COORD97":189880.70000000001,"N_COORD97":2587900.0099999998,"ADDRESS":"詔安厝８１號","OBJECTID":79781},"geometry":{"x":189880.70000000112,"y":2587900.0100000016}},{"attributes":{"ID":79782,"DIS_CODE":0,"TOWNNAME":"白河區","LI":"詔安里","LIN":"7鄰","STREET":" ","SECT":" ","MAREA":"詔安厝","LANE":" ","ALLEY":" ","HOUSE_NO":"８３號","E_COORD97":189902.48000000001,"N_COORD97":2587886.4300000002,"ADDRESS":"詔安厝８３號","OBJECTID":79782},"geometry":{"x":189902.48000000138,"y":2587886.4300000016}},{"attributes":{"ID":79783,"DIS_CODE":0,"TOWNNAME":"白河區","LI":"詔安里","LIN":"7鄰","STREET":" ","SECT":" ","MAREA":"詔安厝","LANE":" ","ALLEY":" ","HOUSE_NO":"８４號","E_COORD97":189874.47,"N_COORD97":2587875.7799999998,"ADDRESS":"詔安厝８４號","OBJECTID":79783},"geometry":{"x":189874.4700000016,"y":2587875.7799999993}},{"attributes":{"ID":79784,"DIS_CODE":0,"TOWNNAME":"白河區","LI":"詔安里","LIN":"7鄰","STREET":" ","SECT":" ","MAREA":"詔安厝","LANE":" ","ALLEY":" ","HOUSE_NO":"８５號","E_COORD97":189908.44,"N_COORD97":2587874.4900000002,"ADDRESS":"詔安厝８５號","OBJECTID":79784},"geometry":{"x":189908.44000000041,"y":2587874.4900000002}},{"attributes":{"ID":79785,"DIS_CODE":0,"TOWNNAME":"白河區","LI":"詔安里","LIN":"7鄰","STREET":" ","SECT":" ","MAREA":"詔安厝","LANE":" ","ALLEY":" ","HOUSE_NO":"８６號","E_COORD97":189899.35999999999,"N_COORD97":2587862.6800000002,"ADDRESS":"詔安厝８６號","OBJECTID":79785},"geometry":{"x":189899.3599999994,"y":2587862.6799999997}},{"attributes":{"ID":79786,"DIS_CODE":0,"TOWNNAME":"學甲區","LI":"秀昌里","LIN":"33鄰","STREET":" ","SECT":" ","MAREA":"煥昌","LANE":" ","ALLEY":" ","HOUSE_NO":"１１０號之９","E_COORD97":166044.76999999999,"N_COORD97":2570946.5299999998,"ADDRESS":"煥昌１１０號之９","OBJECTID":79786},"geometry":{"x":166044.77000000048,"y":2570946.5300000031}},{"attributes":{"ID":79787,"DIS_CODE":0,"TOWNNAME":"學甲區","LI":"秀昌里","LIN":"33鄰","STREET":" ","SECT":" ","MAREA":"煥昌","LANE":" ","ALLEY":" ","HOUSE_NO":"１１０號","E_COORD97":166064.84,"N_COORD97":2570907.25,"ADDRESS":"煥昌１１０號","OBJECTID":79787},"geometry":{"x":166064.84000000171,"y":2570907.25}},{"attributes":{"ID":79788,"DIS_CODE":0,"TOWNNAME":"學甲區","LI":"秀昌里","LIN":"33鄰","STREET":" ","SECT":" ","MAREA":"煥昌","LANE":" ","ALLEY":" ","HOUSE_NO":"１１３號","E_COORD97":166023.42000000001,"N_COORD97":2571015.5800000001,"ADDRESS":"煥昌１１３號","OBJECTID":79788},"geometry":{"x":166023.41999999993,"y":2571015.5800000019}},{"attributes":{"ID":79789,"DIS_CODE":0,"TOWNNAME":"學甲區","LI":"秀昌里","LIN":"33鄰","STREET":" ","SECT":" ","MAREA":"煥昌","LANE":" ","ALLEY":" ","HOUSE_NO":"１１４號","E_COORD97":166026.62,"N_COORD97":2571019.5800000001,"ADDRESS":"煥昌１１４號","OBJECTID":79789},"geometry":{"x":166026.62000000104,"y":2571019.5800000019}},{"attributes":{"ID":79790,"DIS_CODE":0,"TOWNNAME":"學甲區","LI":"秀昌里","LIN":"33鄰","STREET":" ","SECT":" ","MAREA":"煥昌","LANE":" ","ALLEY":" ","HOUSE_NO":"１１５號","E_COORD97":166034.57000000001,"N_COORD97":2571032.9300000002,"ADDRESS":"煥昌１１５號","OBJECTID":79790},"geometry":{"x":166034.5700000003,"y":2571032.9300000016}},{"attributes":{"ID":79791,"DIS_CODE":0,"TOWNNAME":"學甲區","LI":"秀昌里","LIN":"33鄰","STREET":" ","SECT":" ","MAREA":"煥昌","LANE":" ","ALLEY":" ","HOUSE_NO":"１１６號之１","E_COORD97":166062.76999999999,"N_COORD97":2570989.48,"ADDRESS":"煥昌１１６號之１","OBJECTID":79791},"geometry":{"x":166062.76999999955,"y":2570989.4800000023}},{"attributes":{"ID":79792,"DIS_CODE":0,"TOWNNAME":"學甲區","LI":"秀昌里","LIN":"33鄰","STREET":" ","SECT":" ","MAREA":"煥昌","LANE":" ","ALLEY":" ","HOUSE_NO":"１１６號之２","E_COORD97":166059.25,"N_COORD97":2570987.7799999998,"ADDRESS":"煥昌１１６號之２","OBJECTID":79792},"geometry":{"x":166059.25000000093,"y":2570987.7799999993}},{"attributes":{"ID":79793,"DIS_CODE":0,"TOWNNAME":"學甲區","LI":"秀昌里","LIN":"33鄰","STREET":" ","SECT":" ","MAREA":"煥昌","LANE":" ","ALLEY":" ","HOUSE_NO":"１１６號之３","E_COORD97":166055.59,"N_COORD97":2570986.25,"ADDRESS":"煥昌１１６號之３","OBJECTID":79793},"geometry":{"x":166055.58999999985,"y":2570986.2500000037}},{"attributes":{"ID":79794,"DIS_CODE":0,"TOWNNAME":"學甲區","LI":"秀昌里","LIN":"33鄰","STREET":" ","SECT":" ","MAREA":"煥昌","LANE":" ","ALLEY":" ","HOUSE_NO":"１１６號","E_COORD97":166066.64999999999,"N_COORD97":2570991.6400000001,"ADDRESS":"煥昌１１６號","OBJECTID":79794},"geometry":{"x":166066.65000000224,"y":2570991.6400000025}},{"attributes":{"ID":79795,"DIS_CODE":0,"TOWNNAME":"學甲區","LI":"秀昌里","LIN":"33鄰","STREET":" ","SECT":" ","MAREA":"煥昌","LANE":" ","ALLEY":" ","HOUSE_NO":"１１７號之１","E_COORD97":166073.22,"N_COORD97":2570968.5499999998,"ADDRESS":"煥昌１１７號之１","OBJECTID":79795},"geometry":{"x":166073.21999999974,"y":2570968.5500000026}},{"attributes":{"ID":79796,"DIS_CODE":0,"TOWNNAME":"新市區","LI":"新市里","LIN":"19鄰","STREET":"中正路","SECT":" ","MAREA":" ","LANE":"３２３巷","ALLEY":"２２弄","HOUSE_NO":"２１號","E_COORD97":177731.70999999999,"N_COORD97":2553363,"ADDRESS":"中正路３２３巷２２弄２１號","OBJECTID":79796},"geometry":{"x":177731.70999999996,"y":2553363.0000000019}},{"attributes":{"ID":79797,"DIS_CODE":0,"TOWNNAME":"學甲區","LI":"秀昌里","LIN":"33鄰","STREET":" ","SECT":" ","MAREA":"煥昌","LANE":" ","ALLEY":" ","HOUSE_NO":"１１７號之２","E_COORD97":166075.85000000001,"N_COORD97":2570965.6099999999,"ADDRESS":"煥昌１１７號之２","OBJECTID":79797},"geometry":{"x":166075.84999999963,"y":2570965.6099999994}},{"attributes":{"ID":79798,"DIS_CODE":0,"TOWNNAME":"學甲區","LI":"秀昌里","LIN":"33鄰","STREET":" ","SECT":" ","MAREA":"煥昌","LANE":" ","ALLEY":" ","HOUSE_NO":"１１７號之３","E_COORD97":166079.16,"N_COORD97":2570963.3300000001,"ADDRESS":"煥昌１１７號之３","OBJECTID":79798},"geometry":{"x":166079.16000000015,"y":2570963.3300000019}},{"attributes":{"ID":79799,"DIS_CODE":0,"TOWNNAME":"學甲區","LI":"秀昌里","LIN":"33鄰","STREET":" ","SECT":" ","MAREA":"煥昌","LANE":" ","ALLEY":" ","HOUSE_NO":"１１７號之４","E_COORD97":166081.73999999999,"N_COORD97":2570960.0699999998,"ADDRESS":"煥昌１１７號之４","OBJECTID":79799},"geometry":{"x":166081.74000000115,"y":2570960.0700000003}},{"attributes":{"ID":79800,"DIS_CODE":0,"TOWNNAME":"學甲區","LI":"秀昌里","LIN":"33鄰","STREET":" ","SECT":" ","MAREA":"煥昌","LANE":" ","ALLEY":" ","HOUSE_NO":"１１７號之５","E_COORD97":166084.97,"N_COORD97":2570957.75,"ADDRESS":"煥昌１１７號之５","OBJECTID":79800},"geometry":{"x":166084.96999999974,"y":2570957.75}}]}