{"displayFieldName":"TOWNNAME","fieldAliases":{"ID":"ID","DIS_CODE":"DIS_CODE","TOWNNAME":"TOWNNAME","LI":"LI","LIN":"LIN","STREET":"STREET","SECT":"SECT","MAREA":"MAREA","LANE":"LANE","ALLEY":"ALLEY","HOUSE_NO":"HOUSE_NO","E_COORD97":"E_COORD97","N_COORD97":"N_COORD97","ADDRESS":"ADDRESS","OBJECTID":"OBJECTID"},"geometryType":"esriGeometryPoint","spatialReference":{"wkid":102443,"latestWkid":3826},"fields":[{"name":"ID","type":"esriFieldTypeDouble","alias":"ID"},{"name":"DIS_CODE","type":"esriFieldTypeInteger","alias":"DIS_CODE"},{"name":"TOWNNAME","type":"esriFieldTypeString","alias":"TOWNNAME","length":8},{"name":"LI","type":"esriFieldTypeString","alias":"LI","length":8},{"name":"LIN","type":"esriFieldTypeString","alias":"LIN","length":12},{"name":"STREET","type":"esriFieldTypeString","alias":"STREET","length":20},{"name":"SECT","type":"esriFieldTypeString","alias":"SECT","length":8},{"name":"MAREA","type":"esriFieldTypeString","alias":"MAREA","length":12},{"name":"LANE","type":"esriFieldTypeString","alias":"LANE","length":10},{"name":"ALLEY","type":"esriFieldTypeString","alias":"ALLEY","length":10},{"name":"HOUSE_NO","type":"esriFieldTypeString","alias":"HOUSE_NO","length":20},{"name":"E_COORD97","type":"esriFieldTypeDouble","alias":"E_COORD97"},{"name":"N_COORD97","type":"esriFieldTypeDouble","alias":"N_COORD97"},{"name":"ADDRESS","type":"esriFieldTypeString","alias":"ADDRESS","length":50},{"name":"OBJECTID","type":"esriFieldTypeOID","alias":"OBJECTID"}],"features":[{"attributes":{"ID":497228,"DIS_CODE":0,"TOWNNAME":"學甲區","LI":"仁得里","LIN":"7鄰","STREET":"濟生路","SECT":" ","MAREA":" ","LANE":" ","ALLEY":" ","HOUSE_NO":"１４９號","E_COORD97":166122.54999999999,"N_COORD97":2570296.8799999999,"ADDRESS":"濟生路１４９號","OBJECTID":497201},"geometry":{"x":166122.55000000168,"y":2570296.8800000008}},{"attributes":{"ID":497229,"DIS_CODE":0,"TOWNNAME":"六甲區","LI":"七甲里","LIN":"7鄰","STREET":"七甲街","SECT":" ","MAREA":" ","LANE":" ","ALLEY":" ","HOUSE_NO":"１１０號","E_COORD97":183057.95000000001,"N_COORD97":2569030.3199999998,"ADDRESS":"七甲街１１０號","OBJECTID":497202},"geometry":{"x":183057.95000000019,"y":2569030.3200000022}},{"attributes":{"ID":497230,"DIS_CODE":0,"TOWNNAME":"六甲區","LI":"七甲里","LIN":"7鄰","STREET":"七甲街","SECT":" ","MAREA":" ","LANE":" ","ALLEY":" ","HOUSE_NO":"１１４號","E_COORD97":183045.26000000001,"N_COORD97":2569028.23,"ADDRESS":"七甲街１１４號","OBJECTID":497203},"geometry":{"x":183045.25999999978,"y":2569028.2300000023}},{"attributes":{"ID":497231,"DIS_CODE":0,"TOWNNAME":"南區","LI":"大恩里","LIN":"7鄰","STREET":"國民路","SECT":" ","MAREA":" ","LANE":" ","ALLEY":" ","HOUSE_NO":"６９號","E_COORD97":169416.45999999999,"N_COORD97":2540867.8500000001,"ADDRESS":"國民路６９號","OBJECTID":497204},"geometry":{"x":169416.45999999996,"y":2540867.8499999996}},{"attributes":{"ID":497232,"DIS_CODE":0,"TOWNNAME":"南區","LI":"廣州里","LIN":"7鄰","STREET":"樹林街","SECT":"二段","MAREA":" ","LANE":" ","ALLEY":" ","HOUSE_NO":"４８０號","E_COORD97":167500.48000000001,"N_COORD97":2543007.21,"ADDRESS":"樹林街二段４８０號","OBJECTID":497205},"geometry":{"x":167500.48000000138,"y":2543007.2100000028}},{"attributes":{"ID":497233,"DIS_CODE":0,"TOWNNAME":"南區","LI":"廣州里","LIN":"7鄰","STREET":"樹林街","SECT":"二段","MAREA":" ","LANE":" ","ALLEY":" ","HOUSE_NO":"４７６號","E_COORD97":167512.81,"N_COORD97":2543007.21,"ADDRESS":"樹林街二段４７６號","OBJECTID":497206},"geometry":{"x":167512.81000000052,"y":2543007.2100000028}},{"attributes":{"ID":497234,"DIS_CODE":0,"TOWNNAME":"南區","LI":"廣州里","LIN":"7鄰","STREET":"樹林街","SECT":"二段","MAREA":" ","LANE":" ","ALLEY":" ","HOUSE_NO":"４８６號","E_COORD97":167490.26999999999,"N_COORD97":2543007.8500000001,"ADDRESS":"樹林街二段４８６號","OBJECTID":497207},"geometry":{"x":167490.26999999955,"y":2543007.8500000034}},{"attributes":{"ID":497235,"DIS_CODE":0,"TOWNNAME":"南區","LI":"光明里","LIN":"7鄰","STREET":"利南街","SECT":" ","MAREA":" ","LANE":" ","ALLEY":" ","HOUSE_NO":"２２５之１號","E_COORD97":166720.57000000001,"N_COORD97":2541635.3199999998,"ADDRESS":"利南街２２５之１號","OBJECTID":497208},"geometry":{"x":166720.5700000003,"y":2541635.3199999984}},{"attributes":{"ID":497236,"DIS_CODE":0,"TOWNNAME":"南區","LI":"建南里","LIN":"7鄰","STREET":"中華南路","SECT":"二段","MAREA":" ","LANE":" ","ALLEY":" ","HOUSE_NO":"１５３號","E_COORD97":167107.31,"N_COORD97":2540242.0899999999,"ADDRESS":"中華南路二段１５３號","OBJECTID":497209},"geometry":{"x":167107.31000000145,"y":2540242.0899999999}},{"attributes":{"ID":497237,"DIS_CODE":0,"TOWNNAME":"南區","LI":"建南里","LIN":"7鄰","STREET":"中華南路","SECT":"二段","MAREA":" ","LANE":" ","ALLEY":" ","HOUSE_NO":"１５５號","E_COORD97":167102.67000000001,"N_COORD97":2540240.5800000001,"ADDRESS":"中華南路二段１５５號","OBJECTID":497210},"geometry":{"x":167102.66999999993,"y":2540240.5800000019}},{"attributes":{"ID":497238,"DIS_CODE":0,"TOWNNAME":"南區","LI":"建南里","LIN":"7鄰","STREET":"中華南路","SECT":"二段","MAREA":" ","LANE":" ","ALLEY":" ","HOUSE_NO":"１５７號","E_COORD97":167098.51000000001,"N_COORD97":2540239.8599999999,"ADDRESS":"中華南路二段１５７號","OBJECTID":497211},"geometry":{"x":167098.50999999978,"y":2540239.8599999994}},{"attributes":{"ID":497239,"DIS_CODE":0,"TOWNNAME":"南區","LI":"建南里","LIN":"7鄰","STREET":"中華南路","SECT":"二段","MAREA":" ","LANE":" ","ALLEY":" ","HOUSE_NO":"１５９號","E_COORD97":167094.98999999999,"N_COORD97":2540238.8999999999,"ADDRESS":"中華南路二段１５９號","OBJECTID":497212},"geometry":{"x":167094.99000000115,"y":2540238.9000000022}},{"attributes":{"ID":497240,"DIS_CODE":0,"TOWNNAME":"南區","LI":"建南里","LIN":"7鄰","STREET":"中華南路","SECT":"二段","MAREA":" ","LANE":" ","ALLEY":" ","HOUSE_NO":"１６１號","E_COORD97":167090.82999999999,"N_COORD97":2540238.1800000002,"ADDRESS":"中華南路二段１６１號","OBJECTID":497213},"geometry":{"x":167090.83000000101,"y":2540238.1799999997}},{"attributes":{"ID":497241,"DIS_CODE":0,"TOWNNAME":"南區","LI":"建南里","LIN":"7鄰","STREET":"中華南路","SECT":"二段","MAREA":" ","LANE":" ","ALLEY":" ","HOUSE_NO":"１６３號","E_COORD97":167087.23000000001,"N_COORD97":2540236.8999999999,"ADDRESS":"中華南路二段１６３號","OBJECTID":497214},"geometry":{"x":167087.23000000138,"y":2540236.9000000004}},{"attributes":{"ID":497242,"DIS_CODE":0,"TOWNNAME":"北區","LI":"正風里","LIN":"7鄰","STREET":"公園路","SECT":" ","MAREA":" ","LANE":" ","ALLEY":" ","HOUSE_NO":"９７８號之３","E_COORD97":169504.41,"N_COORD97":2546303.8999999999,"ADDRESS":"公園路９７８號之３","OBJECTID":497215},"geometry":{"x":169504.41000000108,"y":2546303.9000000041}},{"attributes":{"ID":497243,"DIS_CODE":0,"TOWNNAME":"北區","LI":"光武里","LIN":"7鄰","STREET":"北門路","SECT":"二段","MAREA":" ","LANE":" ","ALLEY":" ","HOUSE_NO":"５７１號","E_COORD97":169668.70999999999,"N_COORD97":2545752.8900000001,"ADDRESS":"北門路二段５７１號","OBJECTID":497216},"geometry":{"x":169668.71000000089,"y":2545752.8900000025}},{"attributes":{"ID":497244,"DIS_CODE":0,"TOWNNAME":"北區","LI":"光武里","LIN":"7鄰","STREET":"北門路","SECT":"二段","MAREA":" ","LANE":" ","ALLEY":" ","HOUSE_NO":"５７３號","E_COORD97":169670.78,"N_COORD97":2545758.6000000001,"ADDRESS":"北門路二段５７３號","OBJECTID":497217},"geometry":{"x":169670.78000000026,"y":2545758.5999999996}},{"attributes":{"ID":497245,"DIS_CODE":0,"TOWNNAME":"南區","LI":"再興里","LIN":"7鄰","STREET":"新慶街","SECT":" ","MAREA":" ","LANE":" ","ALLEY":" ","HOUSE_NO":"１５號","E_COORD97":167279.63,"N_COORD97":2542322.5899999999,"ADDRESS":"新慶街１５號","OBJECTID":497218},"geometry":{"x":167279.62999999989,"y":2542322.5900000017}},{"attributes":{"ID":497246,"DIS_CODE":0,"TOWNNAME":"南區","LI":"再興里","LIN":"7鄰","STREET":"新慶街","SECT":" ","MAREA":" ","LANE":" ","ALLEY":" ","HOUSE_NO":"１７號","E_COORD97":167275.29000000001,"N_COORD97":2542322.48,"ADDRESS":"新慶街１７號","OBJECTID":497219},"geometry":{"x":167275.29000000004,"y":2542322.4800000004}},{"attributes":{"ID":497247,"DIS_CODE":0,"TOWNNAME":"南區","LI":"再興里","LIN":"7鄰","STREET":"新慶街","SECT":" ","MAREA":" ","LANE":" ","ALLEY":" ","HOUSE_NO":"１９號","E_COORD97":167271.59,"N_COORD97":2542322.27,"ADDRESS":"新慶街１９號","OBJECTID":497220},"geometry":{"x":167271.58999999892,"y":2542322.2699999996}},{"attributes":{"ID":497248,"DIS_CODE":0,"TOWNNAME":"南區","LI":"郡南里","LIN":"7鄰","STREET":"新都路","SECT":" ","MAREA":" ","LANE":" ","ALLEY":" ","HOUSE_NO":"３７３號","E_COORD97":167485.37,"N_COORD97":2540854.5499999998,"ADDRESS":"新都路３７３號","OBJECTID":497221},"geometry":{"x":167485.37000000197,"y":2540854.5499999989}},{"attributes":{"ID":497249,"DIS_CODE":0,"TOWNNAME":"南區","LI":"郡南里","LIN":"7鄰","STREET":"新都路","SECT":" ","MAREA":" ","LANE":" ","ALLEY":" ","HOUSE_NO":"３７５號","E_COORD97":167478.45999999999,"N_COORD97":2540855.4900000002,"ADDRESS":"新都路３７５號","OBJECTID":497222},"geometry":{"x":167478.46000000089,"y":2540855.4900000021}},{"attributes":{"ID":497250,"DIS_CODE":0,"TOWNNAME":"南區","LI":"建南里","LIN":"7鄰","STREET":"中華南路","SECT":"二段","MAREA":" ","LANE":" ","ALLEY":" ","HOUSE_NO":"１１３號","E_COORD97":167197.32999999999,"N_COORD97":2540260.5899999999,"ADDRESS":"中華南路二段１１３號","OBJECTID":497223},"geometry":{"x":167197.32999999914,"y":2540260.5900000017}},{"attributes":{"ID":497251,"DIS_CODE":0,"TOWNNAME":"南區","LI":"建南里","LIN":"7鄰","STREET":"中華南路","SECT":"二段","MAREA":" ","LANE":" ","ALLEY":" ","HOUSE_NO":"１１５號","E_COORD97":167192.85000000001,"N_COORD97":2540259.71,"ADDRESS":"中華南路二段１１５號","OBJECTID":497224},"geometry":{"x":167192.84999999963,"y":2540259.7100000009}},{"attributes":{"ID":497252,"DIS_CODE":0,"TOWNNAME":"南區","LI":"建南里","LIN":"7鄰","STREET":"中華南路","SECT":"二段","MAREA":" ","LANE":" ","ALLEY":" ","HOUSE_NO":"１１７號","E_COORD97":167188.13,"N_COORD97":2540258.9100000001,"ADDRESS":"中華南路二段１１７號","OBJECTID":497225},"geometry":{"x":167188.12999999989,"y":2540258.910000002}},{"attributes":{"ID":497253,"DIS_CODE":0,"TOWNNAME":"南區","LI":"建南里","LIN":"7鄰","STREET":"中華南路","SECT":"二段","MAREA":" ","LANE":" ","ALLEY":" ","HOUSE_NO":"１１９號","E_COORD97":167181.89000000001,"N_COORD97":2540257.71,"ADDRESS":"中華南路二段１１９號","OBJECTID":497226},"geometry":{"x":167181.8900000006,"y":2540257.7100000028}},{"attributes":{"ID":497254,"DIS_CODE":0,"TOWNNAME":"南區","LI":"建南里","LIN":"7鄰","STREET":"中華南路","SECT":"二段","MAREA":" ","LANE":" ","ALLEY":" ","HOUSE_NO":"１２１號","E_COORD97":167178.13,"N_COORD97":2540256.9900000002,"ADDRESS":"中華南路二段１２１號","OBJECTID":497227},"geometry":{"x":167178.12999999896,"y":2540256.9900000002}},{"attributes":{"ID":497255,"DIS_CODE":0,"TOWNNAME":"南區","LI":"建南里","LIN":"7鄰","STREET":"中華南路","SECT":"二段","MAREA":" ","LANE":" ","ALLEY":" ","HOUSE_NO":"１２３號","E_COORD97":167174.85000000001,"N_COORD97":2540256.3500000001,"ADDRESS":"中華南路二段１２３號","OBJECTID":497228},"geometry":{"x":167174.85000000149,"y":2540256.3500000015}},{"attributes":{"ID":497256,"DIS_CODE":0,"TOWNNAME":"南區","LI":"建南里","LIN":"7鄰","STREET":"中華南路","SECT":"二段","MAREA":" ","LANE":" ","ALLEY":" ","HOUSE_NO":"１２５號","E_COORD97":167171.01999999999,"N_COORD97":2540255.5600000001,"ADDRESS":"中華南路二段１２５號","OBJECTID":497229},"geometry":{"x":167171.01999999955,"y":2540255.5600000024}},{"attributes":{"ID":497257,"DIS_CODE":0,"TOWNNAME":"南區","LI":"建南里","LIN":"7鄰","STREET":"中華南路","SECT":"二段","MAREA":" ","LANE":" ","ALLEY":" ","HOUSE_NO":"１２５號之１","E_COORD97":167167.5,"N_COORD97":2540254.9199999999,"ADDRESS":"中華南路二段１２５號之１","OBJECTID":497230},"geometry":{"x":167167.50000000186,"y":2540254.9200000018}},{"attributes":{"ID":497258,"DIS_CODE":0,"TOWNNAME":"南區","LI":"建南里","LIN":"7鄰","STREET":"中華南路","SECT":"二段","MAREA":" ","LANE":" ","ALLEY":" ","HOUSE_NO":"１２７號","E_COORD97":167163.60999999999,"N_COORD97":2540253.9500000002,"ADDRESS":"中華南路二段１２７號","OBJECTID":497231},"geometry":{"x":167163.6100000022,"y":2540253.950000003}},{"attributes":{"ID":497259,"DIS_CODE":0,"TOWNNAME":"永康區","LI":"北灣里","LIN":"7鄰","STREET":"信義街","SECT":" ","MAREA":" ","LANE":" ","ALLEY":" ","HOUSE_NO":"１３７號","E_COORD97":175124.14999999999,"N_COORD97":2545617.4700000002,"ADDRESS":"信義街１３７號","OBJECTID":497232},"geometry":{"x":175124.1500000013,"y":2545617.4700000007}},{"attributes":{"ID":497260,"DIS_CODE":0,"TOWNNAME":"永康區","LI":"勝利里","LIN":"38鄰","STREET":"勝利街","SECT":" ","MAREA":" ","LANE":"１９７巷","ALLEY":"８弄","HOUSE_NO":"６號","E_COORD97":171332.98000000001,"N_COORD97":2545162.7599999998,"ADDRESS":"勝利街１９７巷８弄６號","OBJECTID":497233},"geometry":{"x":171332.97999999952,"y":2545162.7600000016}},{"attributes":{"ID":497261,"DIS_CODE":0,"TOWNNAME":"北區","LI":"三德里","LIN":"7鄰","STREET":"裕民街","SECT":" ","MAREA":" ","LANE":" ","ALLEY":" ","HOUSE_NO":"１６號","E_COORD97":168443.75,"N_COORD97":2544416.4300000002,"ADDRESS":"裕民街１６號","OBJECTID":497234},"geometry":{"x":168443.74999999907,"y":2544416.4299999997}},{"attributes":{"ID":497262,"DIS_CODE":0,"TOWNNAME":"北區","LI":"三德里","LIN":"7鄰","STREET":"裕民街","SECT":" ","MAREA":" ","LANE":" ","ALLEY":" ","HOUSE_NO":"１８號","E_COORD97":168445.64000000001,"N_COORD97":2544420.3300000001,"ADDRESS":"裕民街１８號","OBJECTID":497235},"geometry":{"x":168445.63999999966,"y":2544420.3300000019}},{"attributes":{"ID":497263,"DIS_CODE":0,"TOWNNAME":"北區","LI":"三德里","LIN":"7鄰","STREET":"裕民街","SECT":" ","MAREA":" ","LANE":" ","ALLEY":" ","HOUSE_NO":"２０號","E_COORD97":168447.23000000001,"N_COORD97":2544424.96,"ADDRESS":"裕民街２０號","OBJECTID":497236},"geometry":{"x":168447.23000000045,"y":2544424.9600000009}},{"attributes":{"ID":497264,"DIS_CODE":0,"TOWNNAME":"北區","LI":"三德里","LIN":"7鄰","STREET":"裕民街","SECT":" ","MAREA":" ","LANE":" ","ALLEY":" ","HOUSE_NO":"２２號","E_COORD97":168447.95000000001,"N_COORD97":2544427.8500000001,"ADDRESS":"裕民街２２號","OBJECTID":497237},"geometry":{"x":168447.95000000112,"y":2544427.8499999996}},{"attributes":{"ID":497265,"DIS_CODE":0,"TOWNNAME":"北區","LI":"三德里","LIN":"7鄰","STREET":"裕民街","SECT":" ","MAREA":" ","LANE":" ","ALLEY":" ","HOUSE_NO":"２４號","E_COORD97":168449.39999999999,"N_COORD97":2544431.0299999998,"ADDRESS":"裕民街２４號","OBJECTID":497238},"geometry":{"x":168449.40000000037,"y":2544431.0300000012}},{"attributes":{"ID":497266,"DIS_CODE":0,"TOWNNAME":"北區","LI":"三德里","LIN":"7鄰","STREET":"裕民街","SECT":" ","MAREA":" ","LANE":" ","ALLEY":" ","HOUSE_NO":"２６號","E_COORD97":168450.26999999999,"N_COORD97":2544434.3599999999,"ADDRESS":"裕民街２６號","OBJECTID":497239},"geometry":{"x":168450.27000000048,"y":2544434.3599999994}},{"attributes":{"ID":497267,"DIS_CODE":0,"TOWNNAME":"北區","LI":"三德里","LIN":"7鄰","STREET":"裕民街","SECT":" ","MAREA":" ","LANE":" ","ALLEY":" ","HOUSE_NO":"２８號","E_COORD97":168451.72,"N_COORD97":2544437.1099999999,"ADDRESS":"裕民街２８號","OBJECTID":497240},"geometry":{"x":168451.71999999974,"y":2544437.1100000013}},{"attributes":{"ID":497268,"DIS_CODE":0,"TOWNNAME":"北區","LI":"三德里","LIN":"7鄰","STREET":"裕民街","SECT":" ","MAREA":" ","LANE":" ","ALLEY":" ","HOUSE_NO":"３０號","E_COORD97":168452.01000000001,"N_COORD97":2544438.3500000001,"ADDRESS":"裕民街３０號","OBJECTID":497241},"geometry":{"x":168452.01000000164,"y":2544438.3499999978}},{"attributes":{"ID":497269,"DIS_CODE":0,"TOWNNAME":"北區","LI":"三德里","LIN":"7鄰","STREET":"裕民街","SECT":" ","MAREA":" ","LANE":" ","ALLEY":" ","HOUSE_NO":"３２號","E_COORD97":168452.45000000001,"N_COORD97":2544439.52,"ADDRESS":"裕民街３２號","OBJECTID":497242},"geometry":{"x":168452.45000000019,"y":2544439.5199999996}},{"attributes":{"ID":497270,"DIS_CODE":0,"TOWNNAME":"北區","LI":"三德里","LIN":"7鄰","STREET":"裕民街","SECT":" ","MAREA":" ","LANE":" ","ALLEY":" ","HOUSE_NO":"４號","E_COORD97":168433.97,"N_COORD97":2544388.6800000002,"ADDRESS":"裕民街４號","OBJECTID":497243},"geometry":{"x":168433.97000000067,"y":2544388.6799999978}},{"attributes":{"ID":497271,"DIS_CODE":0,"TOWNNAME":"永康區","LI":"正強里","LIN":"7鄰","STREET":"正義街","SECT":" ","MAREA":" ","LANE":" ","ALLEY":" ","HOUSE_NO":"６０號","E_COORD97":173516.64999999999,"N_COORD97":2547636.5099999998,"ADDRESS":"正義街６０號","OBJECTID":497244},"geometry":{"x":173516.65000000037,"y":2547636.5099999998}},{"attributes":{"ID":497272,"DIS_CODE":0,"TOWNNAME":"麻豆區","LI":"油車里","LIN":"18鄰","STREET":"麻學路","SECT":"一段","MAREA":" ","LANE":" ","ALLEY":" ","HOUSE_NO":"１８８號","E_COORD97":171977.12,"N_COORD97":2565265.75,"ADDRESS":"麻學路一段１８８號","OBJECTID":497245},"geometry":{"x":171977.12000000011,"y":2565265.75}},{"attributes":{"ID":497273,"DIS_CODE":0,"TOWNNAME":"麻豆區","LI":"油車里","LIN":"18鄰","STREET":"麻學路","SECT":"一段","MAREA":" ","LANE":" ","ALLEY":" ","HOUSE_NO":"１９６號","E_COORD97":171956.23999999999,"N_COORD97":2565266.5,"ADDRESS":"麻學路一段１９６號","OBJECTID":497246},"geometry":{"x":171956.24000000022,"y":2565266.5000000019}},{"attributes":{"ID":497274,"DIS_CODE":0,"TOWNNAME":"麻豆區","LI":"油車里","LIN":"18鄰","STREET":"麻學路","SECT":"一段","MAREA":" ","LANE":" ","ALLEY":" ","HOUSE_NO":"１９８號","E_COORD97":171949.29999999999,"N_COORD97":2565266.5899999999,"ADDRESS":"麻學路一段１９８號","OBJECTID":497247},"geometry":{"x":171949.30000000075,"y":2565266.5899999999}},{"attributes":{"ID":497275,"DIS_CODE":0,"TOWNNAME":"麻豆區","LI":"油車里","LIN":"18鄰","STREET":"麻學路","SECT":"一段","MAREA":" ","LANE":" ","ALLEY":" ","HOUSE_NO":"２００號","E_COORD97":171942.54000000001,"N_COORD97":2565272.1699999999,"ADDRESS":"麻學路一段２００號","OBJECTID":497248},"geometry":{"x":171942.5400000019,"y":2565272.1700000018}},{"attributes":{"ID":497276,"DIS_CODE":0,"TOWNNAME":"北區","LI":"裕民里","LIN":"7鄰","STREET":"金華路","SECT":"五段","MAREA":" ","LANE":" ","ALLEY":" ","HOUSE_NO":"３２號","E_COORD97":167649.35000000001,"N_COORD97":2544778.5499999998,"ADDRESS":"金華路五段３２號","OBJECTID":497249},"geometry":{"x":167649.3499999987,"y":2544778.5500000026}},{"attributes":{"ID":497277,"DIS_CODE":0,"TOWNNAME":"北區","LI":"裕民里","LIN":"7鄰","STREET":"金華路","SECT":"五段","MAREA":" ","LANE":" ","ALLEY":" ","HOUSE_NO":"３４號","E_COORD97":167649.35000000001,"N_COORD97":2544783.8399999999,"ADDRESS":"金華路五段３４號","OBJECTID":497250},"geometry":{"x":167649.3499999987,"y":2544783.8399999999}},{"attributes":{"ID":497278,"DIS_CODE":0,"TOWNNAME":"北區","LI":"裕民里","LIN":"7鄰","STREET":"金華路","SECT":"五段","MAREA":" ","LANE":" ","ALLEY":" ","HOUSE_NO":"３６號","E_COORD97":167652.82000000001,"N_COORD97":2544788.6099999999,"ADDRESS":"金華路五段３６號","OBJECTID":497251},"geometry":{"x":167652.82000000123,"y":2544788.6099999994}},{"attributes":{"ID":497279,"DIS_CODE":0,"TOWNNAME":"永康區","LI":"復華里","LIN":"7鄰","STREET":"復國二路","SECT":" ","MAREA":" ","LANE":" ","ALLEY":" ","HOUSE_NO":"２１７號十樓之１","E_COORD97":173002.12,"N_COORD97":2546054.54,"ADDRESS":"復國二路２１７號十樓之１","OBJECTID":497252},"geometry":{"x":173002.12000000104,"y":2546054.540000001}},{"attributes":{"ID":497280,"DIS_CODE":0,"TOWNNAME":"永康區","LI":"復華里","LIN":"7鄰","STREET":"復國二路","SECT":" ","MAREA":" ","LANE":" ","ALLEY":" ","HOUSE_NO":"２１７號八樓之１","E_COORD97":173002.12,"N_COORD97":2546054.54,"ADDRESS":"復國二路２１７號八樓之１","OBJECTID":497253},"geometry":{"x":173002.12000000104,"y":2546054.540000001}},{"attributes":{"ID":497281,"DIS_CODE":0,"TOWNNAME":"中西區","LI":"公正里","LIN":"7鄰","STREET":"衛民街","SECT":" ","MAREA":" ","LANE":" ","ALLEY":" ","HOUSE_NO":"４０號二樓之１","E_COORD97":169099.60000000001,"N_COORD97":2543727.73,"ADDRESS":"衛民街４０號二樓之１","OBJECTID":497254},"geometry":{"x":169099.60000000056,"y":2543727.7300000004}},{"attributes":{"ID":497282,"DIS_CODE":0,"TOWNNAME":"中西區","LI":"公正里","LIN":"7鄰","STREET":"衛民街","SECT":" ","MAREA":" ","LANE":" ","ALLEY":" ","HOUSE_NO":"４０號二樓之２","E_COORD97":169099.60000000001,"N_COORD97":2543727.73,"ADDRESS":"衛民街４０號二樓之２","OBJECTID":497255},"geometry":{"x":169099.60000000056,"y":2543727.7300000004}},{"attributes":{"ID":497283,"DIS_CODE":0,"TOWNNAME":"中西區","LI":"公正里","LIN":"7鄰","STREET":"衛民街","SECT":" ","MAREA":" ","LANE":" ","ALLEY":" ","HOUSE_NO":"４０號三樓之１","E_COORD97":169099.60000000001,"N_COORD97":2543727.73,"ADDRESS":"衛民街４０號三樓之１","OBJECTID":497256},"geometry":{"x":169099.60000000056,"y":2543727.7300000004}},{"attributes":{"ID":497284,"DIS_CODE":0,"TOWNNAME":"中西區","LI":"公正里","LIN":"7鄰","STREET":"衛民街","SECT":" ","MAREA":" ","LANE":" ","ALLEY":" ","HOUSE_NO":"４０號三樓之２","E_COORD97":169099.60000000001,"N_COORD97":2543727.73,"ADDRESS":"衛民街４０號三樓之２","OBJECTID":497257},"geometry":{"x":169099.60000000056,"y":2543727.7300000004}},{"attributes":{"ID":497285,"DIS_CODE":0,"TOWNNAME":"中西區","LI":"公正里","LIN":"7鄰","STREET":"衛民街","SECT":" ","MAREA":" ","LANE":" ","ALLEY":" ","HOUSE_NO":"４０號五樓之１","E_COORD97":169099.60000000001,"N_COORD97":2543727.73,"ADDRESS":"衛民街４０號五樓之１","OBJECTID":497258},"geometry":{"x":169099.60000000056,"y":2543727.7300000004}},{"attributes":{"ID":497286,"DIS_CODE":0,"TOWNNAME":"中西區","LI":"公正里","LIN":"7鄰","STREET":"衛民街","SECT":" ","MAREA":" ","LANE":" ","ALLEY":" ","HOUSE_NO":"４０號五樓之２","E_COORD97":169099.60000000001,"N_COORD97":2543727.73,"ADDRESS":"衛民街４０號五樓之２","OBJECTID":497259},"geometry":{"x":169099.60000000056,"y":2543727.7300000004}},{"attributes":{"ID":497287,"DIS_CODE":0,"TOWNNAME":"中西區","LI":"公正里","LIN":"7鄰","STREET":"衛民街","SECT":" ","MAREA":" ","LANE":" ","ALLEY":" ","HOUSE_NO":"４０號六樓之１","E_COORD97":169099.60000000001,"N_COORD97":2543727.73,"ADDRESS":"衛民街４０號六樓之１","OBJECTID":497260},"geometry":{"x":169099.60000000056,"y":2543727.7300000004}},{"attributes":{"ID":497288,"DIS_CODE":0,"TOWNNAME":"中西區","LI":"公正里","LIN":"7鄰","STREET":"衛民街","SECT":" ","MAREA":" ","LANE":" ","ALLEY":" ","HOUSE_NO":"４０號六樓之２","E_COORD97":169099.60000000001,"N_COORD97":2543727.73,"ADDRESS":"衛民街４０號六樓之２","OBJECTID":497261},"geometry":{"x":169099.60000000056,"y":2543727.7300000004}},{"attributes":{"ID":497289,"DIS_CODE":0,"TOWNNAME":"中西區","LI":"公正里","LIN":"7鄰","STREET":"衛民街","SECT":" ","MAREA":" ","LANE":" ","ALLEY":" ","HOUSE_NO":"４０號四樓之１","E_COORD97":169099.60000000001,"N_COORD97":2543727.73,"ADDRESS":"衛民街４０號四樓之１","OBJECTID":497262},"geometry":{"x":169099.60000000056,"y":2543727.7300000004}},{"attributes":{"ID":497290,"DIS_CODE":0,"TOWNNAME":"中西區","LI":"公正里","LIN":"7鄰","STREET":"衛民街","SECT":" ","MAREA":" ","LANE":" ","ALLEY":" ","HOUSE_NO":"４０號四樓之２","E_COORD97":169099.60000000001,"N_COORD97":2543727.73,"ADDRESS":"衛民街４０號四樓之２","OBJECTID":497263},"geometry":{"x":169099.60000000056,"y":2543727.7300000004}},{"attributes":{"ID":497291,"DIS_CODE":0,"TOWNNAME":"仁德區","LI":"新田里","LIN":"7鄰","STREET":"新田路","SECT":" ","MAREA":" ","LANE":" ","ALLEY":" ","HOUSE_NO":"１２號四樓之１","E_COORD97":174467.79000000001,"N_COORD97":2538932.29,"ADDRESS":"新田路１２號四樓之１","OBJECTID":497264},"geometry":{"x":174467.79000000004,"y":2538932.2900000028}},{"attributes":{"ID":497292,"DIS_CODE":0,"TOWNNAME":"永康區","LI":"建國里","LIN":"7鄰","STREET":"復國路","SECT":" ","MAREA":" ","LANE":" ","ALLEY":" ","HOUSE_NO":"７６號二樓之１","E_COORD97":172762.79999999999,"N_COORD97":2544601.9700000002,"ADDRESS":"復國路７６號二樓之１","OBJECTID":497265},"geometry":{"x":172762.80000000075,"y":2544601.9700000025}},{"attributes":{"ID":497293,"DIS_CODE":0,"TOWNNAME":"永康區","LI":"建國里","LIN":"7鄰","STREET":"復國路","SECT":" ","MAREA":" ","LANE":" ","ALLEY":" ","HOUSE_NO":"７６號二樓之２","E_COORD97":172762.79999999999,"N_COORD97":2544601.9700000002,"ADDRESS":"復國路７６號二樓之２","OBJECTID":497266},"geometry":{"x":172762.80000000075,"y":2544601.9700000025}},{"attributes":{"ID":497294,"DIS_CODE":0,"TOWNNAME":"東區","LI":"崇誨里","LIN":"22鄰","STREET":"東寧路","SECT":" ","MAREA":" ","LANE":"２９６巷","ALLEY":"６弄","HOUSE_NO":"５號","E_COORD97":170717.34,"N_COORD97":2543376.27,"ADDRESS":"東寧路２９６巷６弄５號","OBJECTID":497267},"geometry":{"x":170717.33999999985,"y":2543376.2699999996}},{"attributes":{"ID":497295,"DIS_CODE":0,"TOWNNAME":"北區","LI":"中樓里","LIN":"7鄰","STREET":"東豐路","SECT":" ","MAREA":" ","LANE":" ","ALLEY":" ","HOUSE_NO":"１０９號五樓之２","E_COORD97":169728.62,"N_COORD97":2544925.8199999998,"ADDRESS":"東豐路１０９號五樓之２","OBJECTID":497268},"geometry":{"x":169728.62000000104,"y":2544925.8200000022}},{"attributes":{"ID":497296,"DIS_CODE":0,"TOWNNAME":"北區","LI":"中樓里","LIN":"7鄰","STREET":"東豐路","SECT":" ","MAREA":" ","LANE":" ","ALLEY":" ","HOUSE_NO":"１０９號四樓之１","E_COORD97":169728.62,"N_COORD97":2544925.8199999998,"ADDRESS":"東豐路１０９號四樓之１","OBJECTID":497269},"geometry":{"x":169728.62000000104,"y":2544925.8200000022}},{"attributes":{"ID":497297,"DIS_CODE":0,"TOWNNAME":"北區","LI":"中樓里","LIN":"7鄰","STREET":"東豐路","SECT":" ","MAREA":" ","LANE":" ","ALLEY":" ","HOUSE_NO":"１０９號四樓之２","E_COORD97":169728.62,"N_COORD97":2544925.8199999998,"ADDRESS":"東豐路１０９號四樓之２","OBJECTID":497270},"geometry":{"x":169728.62000000104,"y":2544925.8200000022}},{"attributes":{"ID":497298,"DIS_CODE":0,"TOWNNAME":"北區","LI":"長德里","LIN":"7鄰","STREET":"長北街","SECT":" ","MAREA":" ","LANE":" ","ALLEY":" ","HOUSE_NO":"１２５號七樓之１","E_COORD97":168457.10000000001,"N_COORD97":2544798.48,"ADDRESS":"長北街１２５號七樓之１","OBJECTID":497271},"geometry":{"x":168457.10000000056,"y":2544798.4800000023}},{"attributes":{"ID":497299,"DIS_CODE":0,"TOWNNAME":"北區","LI":"長德里","LIN":"7鄰","STREET":"長北街","SECT":" ","MAREA":" ","LANE":" ","ALLEY":" ","HOUSE_NO":"１２５號七樓之２","E_COORD97":168457.10000000001,"N_COORD97":2544798.48,"ADDRESS":"長北街１２５號七樓之２","OBJECTID":497272},"geometry":{"x":168457.10000000056,"y":2544798.4800000023}},{"attributes":{"ID":497300,"DIS_CODE":0,"TOWNNAME":"北區","LI":"長德里","LIN":"7鄰","STREET":"長北街","SECT":" ","MAREA":" ","LANE":" ","ALLEY":" ","HOUSE_NO":"１２５號七樓之３","E_COORD97":168457.10000000001,"N_COORD97":2544798.48,"ADDRESS":"長北街１２５號七樓之３","OBJECTID":497273},"geometry":{"x":168457.10000000056,"y":2544798.4800000023}},{"attributes":{"ID":497301,"DIS_CODE":0,"TOWNNAME":"北區","LI":"長德里","LIN":"7鄰","STREET":"長北街","SECT":" ","MAREA":" ","LANE":" ","ALLEY":" ","HOUSE_NO":"１２５號七樓之４","E_COORD97":168457.10000000001,"N_COORD97":2544798.48,"ADDRESS":"長北街１２５號七樓之４","OBJECTID":497274},"geometry":{"x":168457.10000000056,"y":2544798.4800000023}},{"attributes":{"ID":497302,"DIS_CODE":0,"TOWNNAME":"北區","LI":"長德里","LIN":"7鄰","STREET":"長北街","SECT":" ","MAREA":" ","LANE":" ","ALLEY":" ","HOUSE_NO":"１２５號七樓之５","E_COORD97":168457.10000000001,"N_COORD97":2544798.48,"ADDRESS":"長北街１２５號七樓之５","OBJECTID":497275},"geometry":{"x":168457.10000000056,"y":2544798.4800000023}},{"attributes":{"ID":497303,"DIS_CODE":0,"TOWNNAME":"北區","LI":"長德里","LIN":"7鄰","STREET":"長北街","SECT":" ","MAREA":" ","LANE":" ","ALLEY":" ","HOUSE_NO":"１２５號七樓之６","E_COORD97":168457.10000000001,"N_COORD97":2544798.48,"ADDRESS":"長北街１２５號七樓之６","OBJECTID":497276},"geometry":{"x":168457.10000000056,"y":2544798.4800000023}},{"attributes":{"ID":497304,"DIS_CODE":0,"TOWNNAME":"北區","LI":"長德里","LIN":"7鄰","STREET":"長北街","SECT":" ","MAREA":" ","LANE":" ","ALLEY":" ","HOUSE_NO":"１２５號七樓之７","E_COORD97":168457.10000000001,"N_COORD97":2544798.48,"ADDRESS":"長北街１２５號七樓之７","OBJECTID":497277},"geometry":{"x":168457.10000000056,"y":2544798.4800000023}},{"attributes":{"ID":497305,"DIS_CODE":0,"TOWNNAME":"北區","LI":"長德里","LIN":"7鄰","STREET":"長北街","SECT":" ","MAREA":" ","LANE":" ","ALLEY":" ","HOUSE_NO":"１２５號二樓之１","E_COORD97":168457.10000000001,"N_COORD97":2544798.48,"ADDRESS":"長北街１２５號二樓之１","OBJECTID":497278},"geometry":{"x":168457.10000000056,"y":2544798.4800000023}},{"attributes":{"ID":497306,"DIS_CODE":0,"TOWNNAME":"北區","LI":"長德里","LIN":"7鄰","STREET":"長北街","SECT":" ","MAREA":" ","LANE":" ","ALLEY":" ","HOUSE_NO":"１２５號二樓之２","E_COORD97":168457.10000000001,"N_COORD97":2544798.48,"ADDRESS":"長北街１２５號二樓之２","OBJECTID":497279},"geometry":{"x":168457.10000000056,"y":2544798.4800000023}},{"attributes":{"ID":497307,"DIS_CODE":0,"TOWNNAME":"北區","LI":"長德里","LIN":"7鄰","STREET":"長北街","SECT":" ","MAREA":" ","LANE":" ","ALLEY":" ","HOUSE_NO":"１２５號二樓之３","E_COORD97":168457.10000000001,"N_COORD97":2544798.48,"ADDRESS":"長北街１２５號二樓之３","OBJECTID":497280},"geometry":{"x":168457.10000000056,"y":2544798.4800000023}},{"attributes":{"ID":497308,"DIS_CODE":0,"TOWNNAME":"北區","LI":"長德里","LIN":"7鄰","STREET":"長北街","SECT":" ","MAREA":" ","LANE":" ","ALLEY":" ","HOUSE_NO":"１２５號二樓之４","E_COORD97":168457.10000000001,"N_COORD97":2544798.48,"ADDRESS":"長北街１２５號二樓之４","OBJECTID":497281},"geometry":{"x":168457.10000000056,"y":2544798.4800000023}},{"attributes":{"ID":497309,"DIS_CODE":0,"TOWNNAME":"北區","LI":"長德里","LIN":"7鄰","STREET":"長北街","SECT":" ","MAREA":" ","LANE":" ","ALLEY":" ","HOUSE_NO":"１２５號八樓之１","E_COORD97":168457.10000000001,"N_COORD97":2544798.48,"ADDRESS":"長北街１２５號八樓之１","OBJECTID":497282},"geometry":{"x":168457.10000000056,"y":2544798.4800000023}},{"attributes":{"ID":497310,"DIS_CODE":0,"TOWNNAME":"北區","LI":"長德里","LIN":"7鄰","STREET":"長北街","SECT":" ","MAREA":" ","LANE":" ","ALLEY":" ","HOUSE_NO":"１２５號八樓之２","E_COORD97":168457.10000000001,"N_COORD97":2544798.48,"ADDRESS":"長北街１２５號八樓之２","OBJECTID":497283},"geometry":{"x":168457.10000000056,"y":2544798.4800000023}},{"attributes":{"ID":497311,"DIS_CODE":0,"TOWNNAME":"北區","LI":"長德里","LIN":"7鄰","STREET":"長北街","SECT":" ","MAREA":" ","LANE":" ","ALLEY":" ","HOUSE_NO":"１２５號八樓之３","E_COORD97":168457.10000000001,"N_COORD97":2544798.48,"ADDRESS":"長北街１２５號八樓之３","OBJECTID":497284},"geometry":{"x":168457.10000000056,"y":2544798.4800000023}},{"attributes":{"ID":497312,"DIS_CODE":0,"TOWNNAME":"北區","LI":"長德里","LIN":"7鄰","STREET":"長北街","SECT":" ","MAREA":" ","LANE":" ","ALLEY":" ","HOUSE_NO":"１２５號八樓之４","E_COORD97":168457.10000000001,"N_COORD97":2544798.48,"ADDRESS":"長北街１２５號八樓之４","OBJECTID":497285},"geometry":{"x":168457.10000000056,"y":2544798.4800000023}},{"attributes":{"ID":497313,"DIS_CODE":0,"TOWNNAME":"北區","LI":"長德里","LIN":"7鄰","STREET":"長北街","SECT":" ","MAREA":" ","LANE":" ","ALLEY":" ","HOUSE_NO":"１２５號三樓之１","E_COORD97":168457.10000000001,"N_COORD97":2544798.48,"ADDRESS":"長北街１２５號三樓之１","OBJECTID":497286},"geometry":{"x":168457.10000000056,"y":2544798.4800000023}},{"attributes":{"ID":497314,"DIS_CODE":0,"TOWNNAME":"北區","LI":"長德里","LIN":"7鄰","STREET":"長北街","SECT":" ","MAREA":" ","LANE":" ","ALLEY":" ","HOUSE_NO":"１２５號三樓之２","E_COORD97":168457.10000000001,"N_COORD97":2544798.48,"ADDRESS":"長北街１２５號三樓之２","OBJECTID":497287},"geometry":{"x":168457.10000000056,"y":2544798.4800000023}},{"attributes":{"ID":497315,"DIS_CODE":0,"TOWNNAME":"北區","LI":"長德里","LIN":"7鄰","STREET":"長北街","SECT":" ","MAREA":" ","LANE":" ","ALLEY":" ","HOUSE_NO":"１２５號三樓之３","E_COORD97":168457.10000000001,"N_COORD97":2544798.48,"ADDRESS":"長北街１２５號三樓之３","OBJECTID":497288},"geometry":{"x":168457.10000000056,"y":2544798.4800000023}},{"attributes":{"ID":497316,"DIS_CODE":0,"TOWNNAME":"北區","LI":"長德里","LIN":"7鄰","STREET":"長北街","SECT":" ","MAREA":" ","LANE":" ","ALLEY":" ","HOUSE_NO":"１２５號三樓之４","E_COORD97":168457.10000000001,"N_COORD97":2544798.48,"ADDRESS":"長北街１２５號三樓之４","OBJECTID":497289},"geometry":{"x":168457.10000000056,"y":2544798.4800000023}},{"attributes":{"ID":497317,"DIS_CODE":0,"TOWNNAME":"北區","LI":"長德里","LIN":"7鄰","STREET":"長北街","SECT":" ","MAREA":" ","LANE":" ","ALLEY":" ","HOUSE_NO":"１２５號五樓之１","E_COORD97":168457.10000000001,"N_COORD97":2544798.48,"ADDRESS":"長北街１２５號五樓之１","OBJECTID":497290},"geometry":{"x":168457.10000000056,"y":2544798.4800000023}},{"attributes":{"ID":497318,"DIS_CODE":0,"TOWNNAME":"北區","LI":"長德里","LIN":"7鄰","STREET":"長北街","SECT":" ","MAREA":" ","LANE":" ","ALLEY":" ","HOUSE_NO":"１２５號五樓之２","E_COORD97":168457.10000000001,"N_COORD97":2544798.48,"ADDRESS":"長北街１２５號五樓之２","OBJECTID":497291},"geometry":{"x":168457.10000000056,"y":2544798.4800000023}},{"attributes":{"ID":497319,"DIS_CODE":0,"TOWNNAME":"北區","LI":"長德里","LIN":"7鄰","STREET":"長北街","SECT":" ","MAREA":" ","LANE":" ","ALLEY":" ","HOUSE_NO":"１２５號五樓之３","E_COORD97":168457.10000000001,"N_COORD97":2544798.48,"ADDRESS":"長北街１２５號五樓之３","OBJECTID":497292},"geometry":{"x":168457.10000000056,"y":2544798.4800000023}},{"attributes":{"ID":497320,"DIS_CODE":0,"TOWNNAME":"北區","LI":"長德里","LIN":"7鄰","STREET":"長北街","SECT":" ","MAREA":" ","LANE":" ","ALLEY":" ","HOUSE_NO":"１２５號五樓之４","E_COORD97":168457.10000000001,"N_COORD97":2544798.48,"ADDRESS":"長北街１２５號五樓之４","OBJECTID":497293},"geometry":{"x":168457.10000000056,"y":2544798.4800000023}},{"attributes":{"ID":497321,"DIS_CODE":0,"TOWNNAME":"北區","LI":"長德里","LIN":"7鄰","STREET":"長北街","SECT":" ","MAREA":" ","LANE":" ","ALLEY":" ","HOUSE_NO":"１２５號五樓之５","E_COORD97":168457.10000000001,"N_COORD97":2544798.48,"ADDRESS":"長北街１２５號五樓之５","OBJECTID":497294},"geometry":{"x":168457.10000000056,"y":2544798.4800000023}},{"attributes":{"ID":497322,"DIS_CODE":0,"TOWNNAME":"北區","LI":"長德里","LIN":"7鄰","STREET":"長北街","SECT":" ","MAREA":" ","LANE":" ","ALLEY":" ","HOUSE_NO":"１２５號五樓之６","E_COORD97":168457.10000000001,"N_COORD97":2544798.48,"ADDRESS":"長北街１２５號五樓之６","OBJECTID":497295},"geometry":{"x":168457.10000000056,"y":2544798.4800000023}},{"attributes":{"ID":497323,"DIS_CODE":0,"TOWNNAME":"北區","LI":"長德里","LIN":"7鄰","STREET":"長北街","SECT":" ","MAREA":" ","LANE":" ","ALLEY":" ","HOUSE_NO":"１２５號五樓之７","E_COORD97":168457.10000000001,"N_COORD97":2544798.48,"ADDRESS":"長北街１２５號五樓之７","OBJECTID":497296},"geometry":{"x":168457.10000000056,"y":2544798.4800000023}},{"attributes":{"ID":497324,"DIS_CODE":0,"TOWNNAME":"歸仁區","LI":"南保里","LIN":"38鄰","STREET":"保興二街","SECT":" ","MAREA":" ","LANE":" ","ALLEY":" ","HOUSE_NO":"３５號","E_COORD97":176638.97,"N_COORD97":2540994.25,"ADDRESS":"保興二街３５號","OBJECTID":497297},"geometry":{"x":176638.97000000067,"y":2540994.25}},{"attributes":{"ID":497325,"DIS_CODE":0,"TOWNNAME":"歸仁區","LI":"辜厝里","LIN":"7鄰","STREET":"大順二街","SECT":" ","MAREA":" ","LANE":" ","ALLEY":" ","HOUSE_NO":"９號七樓之７","E_COORD97":177486.31,"N_COORD97":2540577.6000000001,"ADDRESS":"大順二街９號七樓之７","OBJECTID":497298},"geometry":{"x":177486.30999999959,"y":2540577.5999999996}},{"attributes":{"ID":497326,"DIS_CODE":0,"TOWNNAME":"歸仁區","LI":"辜厝里","LIN":"7鄰","STREET":"大順二街","SECT":" ","MAREA":" ","LANE":" ","ALLEY":" ","HOUSE_NO":"９號二樓之５","E_COORD97":177486.32999999999,"N_COORD97":2540577.6000000001,"ADDRESS":"大順二街９號二樓之５","OBJECTID":497299},"geometry":{"x":177486.33000000101,"y":2540577.5999999996}},{"attributes":{"ID":497327,"DIS_CODE":0,"TOWNNAME":"歸仁區","LI":"許厝里","LIN":"7鄰","STREET":"中山路","SECT":"一段","MAREA":" ","LANE":" ","ALLEY":" ","HOUSE_NO":"４１１號七樓","E_COORD97":178220.01000000001,"N_COORD97":2540685.25,"ADDRESS":"中山路一段４１１號七樓","OBJECTID":497300},"geometry":{"x":178220.01000000071,"y":2540685.25}},{"attributes":{"ID":497328,"DIS_CODE":0,"TOWNNAME":"歸仁區","LI":"許厝里","LIN":"7鄰","STREET":"中山路","SECT":"一段","MAREA":" ","LANE":" ","ALLEY":" ","HOUSE_NO":"４１１號六樓","E_COORD97":178220.01000000001,"N_COORD97":2540685.25,"ADDRESS":"中山路一段４１１號六樓","OBJECTID":497301},"geometry":{"x":178220.01000000071,"y":2540685.25}},{"attributes":{"ID":497329,"DIS_CODE":0,"TOWNNAME":"歸仁區","LI":"辜厝里","LIN":"7鄰","STREET":"大順二街","SECT":" ","MAREA":" ","LANE":" ","ALLEY":" ","HOUSE_NO":"９號二樓之３","E_COORD97":177486.32000000001,"N_COORD97":2540577.6000000001,"ADDRESS":"大順二街９號二樓之３","OBJECTID":497302},"geometry":{"x":177486.32000000123,"y":2540577.5999999996}},{"attributes":{"ID":497330,"DIS_CODE":0,"TOWNNAME":"北區","LI":"公園里","LIN":"7鄰","STREET":"北忠街","SECT":" ","MAREA":" ","LANE":" ","ALLEY":" ","HOUSE_NO":"６６號六樓之１２","E_COORD97":169108.70999999999,"N_COORD97":2544392.4399999999,"ADDRESS":"北忠街６６號六樓之１２","OBJECTID":497303},"geometry":{"x":169108.71000000183,"y":2544392.4399999995}},{"attributes":{"ID":497331,"DIS_CODE":0,"TOWNNAME":"北區","LI":"公園里","LIN":"7鄰","STREET":"北忠街","SECT":" ","MAREA":" ","LANE":" ","ALLEY":" ","HOUSE_NO":"６６號六樓之１３","E_COORD97":169108.70999999999,"N_COORD97":2544392.4399999999,"ADDRESS":"北忠街６６號六樓之１３","OBJECTID":497304},"geometry":{"x":169108.71000000183,"y":2544392.4399999995}},{"attributes":{"ID":497332,"DIS_CODE":0,"TOWNNAME":"北區","LI":"公園里","LIN":"7鄰","STREET":"北忠街","SECT":" ","MAREA":" ","LANE":" ","ALLEY":" ","HOUSE_NO":"６６號六樓之１４","E_COORD97":169108.70999999999,"N_COORD97":2544392.4399999999,"ADDRESS":"北忠街６６號六樓之１４","OBJECTID":497305},"geometry":{"x":169108.71000000183,"y":2544392.4399999995}},{"attributes":{"ID":497333,"DIS_CODE":0,"TOWNNAME":"北區","LI":"公園里","LIN":"7鄰","STREET":"北忠街","SECT":" ","MAREA":" ","LANE":" ","ALLEY":" ","HOUSE_NO":"６６號六樓之１５","E_COORD97":169108.70999999999,"N_COORD97":2544392.4399999999,"ADDRESS":"北忠街６６號六樓之１５","OBJECTID":497306},"geometry":{"x":169108.71000000183,"y":2544392.4399999995}},{"attributes":{"ID":497334,"DIS_CODE":0,"TOWNNAME":"北區","LI":"公園里","LIN":"7鄰","STREET":"北忠街","SECT":" ","MAREA":" ","LANE":" ","ALLEY":" ","HOUSE_NO":"６６號六樓之１６","E_COORD97":169108.70999999999,"N_COORD97":2544392.4399999999,"ADDRESS":"北忠街６６號六樓之１６","OBJECTID":497307},"geometry":{"x":169108.71000000183,"y":2544392.4399999995}},{"attributes":{"ID":497335,"DIS_CODE":0,"TOWNNAME":"北區","LI":"公園里","LIN":"7鄰","STREET":"北忠街","SECT":" ","MAREA":" ","LANE":" ","ALLEY":" ","HOUSE_NO":"６６號六樓之２","E_COORD97":169108.70999999999,"N_COORD97":2544392.4399999999,"ADDRESS":"北忠街６６號六樓之２","OBJECTID":497308},"geometry":{"x":169108.71000000183,"y":2544392.4399999995}},{"attributes":{"ID":497336,"DIS_CODE":0,"TOWNNAME":"北區","LI":"公園里","LIN":"7鄰","STREET":"北忠街","SECT":" ","MAREA":" ","LANE":" ","ALLEY":" ","HOUSE_NO":"６６號六樓之３","E_COORD97":169108.70999999999,"N_COORD97":2544392.4399999999,"ADDRESS":"北忠街６６號六樓之３","OBJECTID":497309},"geometry":{"x":169108.71000000183,"y":2544392.4399999995}},{"attributes":{"ID":497337,"DIS_CODE":0,"TOWNNAME":"北區","LI":"公園里","LIN":"7鄰","STREET":"北忠街","SECT":" ","MAREA":" ","LANE":" ","ALLEY":" ","HOUSE_NO":"６６號六樓之４","E_COORD97":169108.70999999999,"N_COORD97":2544392.4399999999,"ADDRESS":"北忠街６６號六樓之４","OBJECTID":497310},"geometry":{"x":169108.71000000183,"y":2544392.4399999995}},{"attributes":{"ID":497338,"DIS_CODE":0,"TOWNNAME":"北區","LI":"公園里","LIN":"7鄰","STREET":"北忠街","SECT":" ","MAREA":" ","LANE":" ","ALLEY":" ","HOUSE_NO":"６６號六樓之５","E_COORD97":169108.70999999999,"N_COORD97":2544392.4399999999,"ADDRESS":"北忠街６６號六樓之５","OBJECTID":497311},"geometry":{"x":169108.71000000183,"y":2544392.4399999995}},{"attributes":{"ID":497339,"DIS_CODE":0,"TOWNNAME":"北區","LI":"公園里","LIN":"7鄰","STREET":"北忠街","SECT":" ","MAREA":" ","LANE":" ","ALLEY":" ","HOUSE_NO":"６６號六樓之６","E_COORD97":169108.70999999999,"N_COORD97":2544392.4399999999,"ADDRESS":"北忠街６６號六樓之６","OBJECTID":497312},"geometry":{"x":169108.71000000183,"y":2544392.4399999995}},{"attributes":{"ID":497340,"DIS_CODE":0,"TOWNNAME":"北區","LI":"公園里","LIN":"7鄰","STREET":"北忠街","SECT":" ","MAREA":" ","LANE":" ","ALLEY":" ","HOUSE_NO":"６６號六樓之７","E_COORD97":169108.70999999999,"N_COORD97":2544392.4399999999,"ADDRESS":"北忠街６６號六樓之７","OBJECTID":497313},"geometry":{"x":169108.71000000183,"y":2544392.4399999995}},{"attributes":{"ID":497341,"DIS_CODE":0,"TOWNNAME":"北區","LI":"公園里","LIN":"7鄰","STREET":"北忠街","SECT":" ","MAREA":" ","LANE":" ","ALLEY":" ","HOUSE_NO":"６６號六樓之８","E_COORD97":169108.70999999999,"N_COORD97":2544392.4399999999,"ADDRESS":"北忠街６６號六樓之８","OBJECTID":497314},"geometry":{"x":169108.71000000183,"y":2544392.4399999995}},{"attributes":{"ID":497342,"DIS_CODE":0,"TOWNNAME":"北區","LI":"公園里","LIN":"7鄰","STREET":"北忠街","SECT":" ","MAREA":" ","LANE":" ","ALLEY":" ","HOUSE_NO":"６６號七樓之９","E_COORD97":169108.70999999999,"N_COORD97":2544392.4399999999,"ADDRESS":"北忠街６６號七樓之９","OBJECTID":497315},"geometry":{"x":169108.71000000183,"y":2544392.4399999995}},{"attributes":{"ID":497343,"DIS_CODE":0,"TOWNNAME":"北區","LI":"公園里","LIN":"7鄰","STREET":"北忠街","SECT":" ","MAREA":" ","LANE":" ","ALLEY":" ","HOUSE_NO":"６６號二樓之１","E_COORD97":169108.70999999999,"N_COORD97":2544392.4399999999,"ADDRESS":"北忠街６６號二樓之１","OBJECTID":497316},"geometry":{"x":169108.71000000183,"y":2544392.4399999995}},{"attributes":{"ID":497344,"DIS_CODE":0,"TOWNNAME":"北區","LI":"公園里","LIN":"7鄰","STREET":"北忠街","SECT":" ","MAREA":" ","LANE":" ","ALLEY":" ","HOUSE_NO":"６６號二樓之２","E_COORD97":169108.70999999999,"N_COORD97":2544392.4399999999,"ADDRESS":"北忠街６６號二樓之２","OBJECTID":497317},"geometry":{"x":169108.71000000183,"y":2544392.4399999995}},{"attributes":{"ID":497345,"DIS_CODE":0,"TOWNNAME":"北區","LI":"公園里","LIN":"7鄰","STREET":"北忠街","SECT":" ","MAREA":" ","LANE":" ","ALLEY":" ","HOUSE_NO":"６６號二樓之３","E_COORD97":169108.70999999999,"N_COORD97":2544392.4399999999,"ADDRESS":"北忠街６６號二樓之３","OBJECTID":497318},"geometry":{"x":169108.71000000183,"y":2544392.4399999995}},{"attributes":{"ID":497346,"DIS_CODE":0,"TOWNNAME":"北區","LI":"公園里","LIN":"7鄰","STREET":"北忠街","SECT":" ","MAREA":" ","LANE":" ","ALLEY":" ","HOUSE_NO":"６６號二樓之４","E_COORD97":169108.70999999999,"N_COORD97":2544392.4399999999,"ADDRESS":"北忠街６６號二樓之４","OBJECTID":497319},"geometry":{"x":169108.71000000183,"y":2544392.4399999995}},{"attributes":{"ID":497347,"DIS_CODE":0,"TOWNNAME":"北區","LI":"公園里","LIN":"7鄰","STREET":"北忠街","SECT":" ","MAREA":" ","LANE":" ","ALLEY":" ","HOUSE_NO":"６６號二樓之５","E_COORD97":169108.70999999999,"N_COORD97":2544392.4399999999,"ADDRESS":"北忠街６６號二樓之５","OBJECTID":497320},"geometry":{"x":169108.71000000183,"y":2544392.4399999995}},{"attributes":{"ID":497348,"DIS_CODE":0,"TOWNNAME":"北區","LI":"公園里","LIN":"7鄰","STREET":"北忠街","SECT":" ","MAREA":" ","LANE":" ","ALLEY":" ","HOUSE_NO":"６６號二樓之６","E_COORD97":169108.70999999999,"N_COORD97":2544392.4399999999,"ADDRESS":"北忠街６６號二樓之６","OBJECTID":497321},"geometry":{"x":169108.71000000183,"y":2544392.4399999995}},{"attributes":{"ID":497349,"DIS_CODE":0,"TOWNNAME":"北區","LI":"公園里","LIN":"7鄰","STREET":"北忠街","SECT":" ","MAREA":" ","LANE":" ","ALLEY":" ","HOUSE_NO":"６６號二樓之７","E_COORD97":169108.70999999999,"N_COORD97":2544392.4399999999,"ADDRESS":"北忠街６６號二樓之７","OBJECTID":497322},"geometry":{"x":169108.71000000183,"y":2544392.4399999995}},{"attributes":{"ID":497350,"DIS_CODE":0,"TOWNNAME":"北區","LI":"公園里","LIN":"7鄰","STREET":"北忠街","SECT":" ","MAREA":" ","LANE":" ","ALLEY":" ","HOUSE_NO":"６６號八樓之１","E_COORD97":169108.70999999999,"N_COORD97":2544392.4399999999,"ADDRESS":"北忠街６６號八樓之１","OBJECTID":497323},"geometry":{"x":169108.71000000183,"y":2544392.4399999995}},{"attributes":{"ID":497351,"DIS_CODE":0,"TOWNNAME":"北區","LI":"公園里","LIN":"7鄰","STREET":"北忠街","SECT":" ","MAREA":" ","LANE":" ","ALLEY":" ","HOUSE_NO":"６６號八樓之２","E_COORD97":169108.70999999999,"N_COORD97":2544392.4399999999,"ADDRESS":"北忠街６６號八樓之２","OBJECTID":497324},"geometry":{"x":169108.71000000183,"y":2544392.4399999995}},{"attributes":{"ID":497352,"DIS_CODE":0,"TOWNNAME":"北區","LI":"公園里","LIN":"7鄰","STREET":"北忠街","SECT":" ","MAREA":" ","LANE":" ","ALLEY":" ","HOUSE_NO":"６６號三樓之１","E_COORD97":169108.70999999999,"N_COORD97":2544392.4399999999,"ADDRESS":"北忠街６６號三樓之１","OBJECTID":497325},"geometry":{"x":169108.71000000183,"y":2544392.4399999995}},{"attributes":{"ID":497353,"DIS_CODE":0,"TOWNNAME":"北區","LI":"公園里","LIN":"7鄰","STREET":"北忠街","SECT":" ","MAREA":" ","LANE":" ","ALLEY":" ","HOUSE_NO":"６６號三樓之２","E_COORD97":169108.70999999999,"N_COORD97":2544392.4399999999,"ADDRESS":"北忠街６６號三樓之２","OBJECTID":497326},"geometry":{"x":169108.71000000183,"y":2544392.4399999995}},{"attributes":{"ID":497354,"DIS_CODE":0,"TOWNNAME":"北區","LI":"公園里","LIN":"7鄰","STREET":"北忠街","SECT":" ","MAREA":" ","LANE":" ","ALLEY":" ","HOUSE_NO":"６６號三樓之３","E_COORD97":169108.70999999999,"N_COORD97":2544392.4399999999,"ADDRESS":"北忠街６６號三樓之３","OBJECTID":497327},"geometry":{"x":169108.71000000183,"y":2544392.4399999995}},{"attributes":{"ID":497355,"DIS_CODE":0,"TOWNNAME":"北區","LI":"公園里","LIN":"7鄰","STREET":"北忠街","SECT":" ","MAREA":" ","LANE":" ","ALLEY":" ","HOUSE_NO":"６６號三樓之４","E_COORD97":169108.70999999999,"N_COORD97":2544392.4399999999,"ADDRESS":"北忠街６６號三樓之４","OBJECTID":497328},"geometry":{"x":169108.71000000183,"y":2544392.4399999995}},{"attributes":{"ID":497356,"DIS_CODE":0,"TOWNNAME":"善化區","LI":"文昌里","LIN":"15鄰","STREET":"大信路","SECT":" ","MAREA":" ","LANE":" ","ALLEY":" ","HOUSE_NO":"７１號七樓","E_COORD97":177614.51000000001,"N_COORD97":2558770.25,"ADDRESS":"大信路７１號七樓","OBJECTID":497329},"geometry":{"x":177614.51000000164,"y":2558770.25}},{"attributes":{"ID":497357,"DIS_CODE":0,"TOWNNAME":"中西區","LI":"保安里","LIN":"7鄰","STREET":"府前路","SECT":"二段","MAREA":" ","LANE":" ","ALLEY":" ","HOUSE_NO":"４２號","E_COORD97":167619.57999999999,"N_COORD97":2543503.46,"ADDRESS":"府前路二段４２號","OBJECTID":497330},"geometry":{"x":167619.58000000194,"y":2543503.4600000046}},{"attributes":{"ID":497358,"DIS_CODE":0,"TOWNNAME":"中西區","LI":"保安里","LIN":"7鄰","STREET":"府前路","SECT":"二段","MAREA":" ","LANE":" ","ALLEY":" ","HOUSE_NO":"６４號","E_COORD97":167597.73000000001,"N_COORD97":2543509.8999999999,"ADDRESS":"府前路二段６４號","OBJECTID":497331},"geometry":{"x":167597.73000000045,"y":2543509.9000000041}},{"attributes":{"ID":497359,"DIS_CODE":0,"TOWNNAME":"中西區","LI":"保安里","LIN":"7鄰","STREET":"府前路","SECT":"二段","MAREA":" ","LANE":" ","ALLEY":" ","HOUSE_NO":"６６號","E_COORD97":167590.92999999999,"N_COORD97":2543509.6000000001,"ADDRESS":"府前路二段６６號","OBJECTID":497332},"geometry":{"x":167590.9299999997,"y":2543509.5999999996}},{"attributes":{"ID":497360,"DIS_CODE":0,"TOWNNAME":"中西區","LI":"保安里","LIN":"7鄰","STREET":"府前路","SECT":"二段","MAREA":" ","LANE":" ","ALLEY":" ","HOUSE_NO":"６８號","E_COORD97":167586.94,"N_COORD97":2543510.1200000001,"ADDRESS":"府前路二段６８號","OBJECTID":497333},"geometry":{"x":167586.94000000227,"y":2543510.1200000029}},{"attributes":{"ID":497361,"DIS_CODE":0,"TOWNNAME":"中西區","LI":"保安里","LIN":"7鄰","STREET":"府前路","SECT":"二段","MAREA":" ","LANE":" ","ALLEY":" ","HOUSE_NO":"７０號","E_COORD97":167581.73999999999,"N_COORD97":2543509.9500000002,"ADDRESS":"府前路二段７０號","OBJECTID":497334},"geometry":{"x":167581.74000000115,"y":2543509.9500000011}},{"attributes":{"ID":497362,"DIS_CODE":0,"TOWNNAME":"中西區","LI":"保安里","LIN":"7鄰","STREET":"府前路","SECT":"二段","MAREA":" ","LANE":" ","ALLEY":" ","HOUSE_NO":"７２號","E_COORD97":167577.06,"N_COORD97":2543510.1200000001,"ADDRESS":"府前路二段７２號","OBJECTID":497335},"geometry":{"x":167577.06000000052,"y":2543510.1200000029}},{"attributes":{"ID":497363,"DIS_CODE":0,"TOWNNAME":"中西區","LI":"保安里","LIN":"7鄰","STREET":"府前路","SECT":"二段","MAREA":" ","LANE":" ","ALLEY":" ","HOUSE_NO":"７８號","E_COORD97":167567.26000000001,"N_COORD97":2543512.2000000002,"ADDRESS":"府前路二段７８號","OBJECTID":497336},"geometry":{"x":167567.26000000164,"y":2543512.1999999993}},{"attributes":{"ID":497364,"DIS_CODE":0,"TOWNNAME":"中西區","LI":"保安里","LIN":"7鄰","STREET":"府前路","SECT":"二段","MAREA":" ","LANE":" ","ALLEY":" ","HOUSE_NO":"８０號","E_COORD97":167563.13,"N_COORD97":2543513.1899999999,"ADDRESS":"府前路二段８０號","OBJECTID":497337},"geometry":{"x":167563.13000000175,"y":2543513.1899999995}},{"attributes":{"ID":497365,"DIS_CODE":0,"TOWNNAME":"中西區","LI":"保安里","LIN":"7鄰","STREET":"府前路","SECT":"二段","MAREA":" ","LANE":" ","ALLEY":" ","HOUSE_NO":"８２號","E_COORD97":167559.35999999999,"N_COORD97":2543514.5299999998,"ADDRESS":"府前路二段８２號","OBJECTID":497338},"geometry":{"x":167559.36000000127,"y":2543514.5299999975}},{"attributes":{"ID":497366,"DIS_CODE":0,"TOWNNAME":"歸仁區","LI":"媽廟里","LIN":"4鄰","STREET":"和順路","SECT":"一段","MAREA":" ","LANE":" ","ALLEY":" ","HOUSE_NO":"２３號","E_COORD97":177473.47,"N_COORD97":2543701.7200000002,"ADDRESS":"和順路一段２３號","OBJECTID":497339},"geometry":{"x":177473.46999999974,"y":2543701.7200000025}},{"attributes":{"ID":497367,"DIS_CODE":0,"TOWNNAME":"佳里區","LI":"安西里","LIN":"7鄰","STREET":"和平街","SECT":" ","MAREA":" ","LANE":" ","ALLEY":" ","HOUSE_NO":"１４２號","E_COORD97":165678.66,"N_COORD97":2562513.7599999998,"ADDRESS":"和平街１４２號","OBJECTID":497340},"geometry":{"x":165678.66000000108,"y":2562513.7600000016}},{"attributes":{"ID":497368,"DIS_CODE":0,"TOWNNAME":"佳里區","LI":"安西里","LIN":"7鄰","STREET":"和平街","SECT":" ","MAREA":" ","LANE":" ","ALLEY":" ","HOUSE_NO":"１４４號","E_COORD97":165673.44,"N_COORD97":2562513.0699999998,"ADDRESS":"和平街１４４號","OBJECTID":497341},"geometry":{"x":165673.44000000134,"y":2562513.0700000022}},{"attributes":{"ID":497369,"DIS_CODE":0,"TOWNNAME":"佳里區","LI":"安西里","LIN":"7鄰","STREET":"和平街","SECT":" ","MAREA":" ","LANE":" ","ALLEY":" ","HOUSE_NO":"１４６號","E_COORD97":165668.60000000001,"N_COORD97":2562512.77,"ADDRESS":"和平街１４６號","OBJECTID":497342},"geometry":{"x":165668.59999999963,"y":2562512.7699999996}},{"attributes":{"ID":497370,"DIS_CODE":0,"TOWNNAME":"佳里區","LI":"安西里","LIN":"7鄰","STREET":"和平街","SECT":" ","MAREA":" ","LANE":" ","ALLEY":" ","HOUSE_NO":"１４８號","E_COORD97":165663.13,"N_COORD97":2562512.25,"ADDRESS":"和平街１４８號","OBJECTID":497343},"geometry":{"x":165663.13000000082,"y":2562512.25}},{"attributes":{"ID":497371,"DIS_CODE":0,"TOWNNAME":"佳里區","LI":"安西里","LIN":"7鄰","STREET":"和平街","SECT":" ","MAREA":" ","LANE":" ","ALLEY":" ","HOUSE_NO":"１５０號","E_COORD97":165658.92000000001,"N_COORD97":2562511.6800000002,"ADDRESS":"和平街１５０號","OBJECTID":497344},"geometry":{"x":165658.91999999993,"y":2562511.6800000016}},{"attributes":{"ID":497372,"DIS_CODE":0,"TOWNNAME":"佳里區","LI":"安西里","LIN":"7鄰","STREET":"和平街","SECT":" ","MAREA":" ","LANE":" ","ALLEY":" ","HOUSE_NO":"１５２號","E_COORD97":165655.64000000001,"N_COORD97":2562511.0899999999,"ADDRESS":"和平街１５２號","OBJECTID":497345},"geometry":{"x":165655.64000000153,"y":2562511.0900000036}},{"attributes":{"ID":497373,"DIS_CODE":0,"TOWNNAME":"佳里區","LI":"安西里","LIN":"7鄰","STREET":"和平街","SECT":" ","MAREA":" ","LANE":" ","ALLEY":" ","HOUSE_NO":"１５４號","E_COORD97":165652.42999999999,"N_COORD97":2562510.6699999999,"ADDRESS":"和平街１５４號","OBJECTID":497346},"geometry":{"x":165652.43000000063,"y":2562510.6700000037}},{"attributes":{"ID":497374,"DIS_CODE":0,"TOWNNAME":"佳里區","LI":"安西里","LIN":"7鄰","STREET":"和平街","SECT":" ","MAREA":" ","LANE":" ","ALLEY":" ","HOUSE_NO":"１５６號","E_COORD97":165648.20000000001,"N_COORD97":2562510.21,"ADDRESS":"和平街１５６號","OBJECTID":497347},"geometry":{"x":165648.20000000019,"y":2562510.2100000009}},{"attributes":{"ID":497375,"DIS_CODE":0,"TOWNNAME":"佳里區","LI":"安西里","LIN":"7鄰","STREET":"和平街","SECT":" ","MAREA":" ","LANE":" ","ALLEY":" ","HOUSE_NO":"１５８號","E_COORD97":165643.60999999999,"N_COORD97":2562509.6699999999,"ADDRESS":"和平街１５８號","OBJECTID":497348},"geometry":{"x":165643.61000000127,"y":2562509.6699999999}},{"attributes":{"ID":497376,"DIS_CODE":0,"TOWNNAME":"佳里區","LI":"安西里","LIN":"7鄰","STREET":"和平街","SECT":" ","MAREA":" ","LANE":" ","ALLEY":" ","HOUSE_NO":"１６０號","E_COORD97":165639.07999999999,"N_COORD97":2562508.8999999999,"ADDRESS":"和平街１６０號","OBJECTID":497349},"geometry":{"x":165639.08000000007,"y":2562508.9000000004}},{"attributes":{"ID":497377,"DIS_CODE":0,"TOWNNAME":"歸仁區","LI":"歸南里","LIN":"12鄰","STREET":"民生南街","SECT":"二段","MAREA":" ","LANE":" ","ALLEY":" ","HOUSE_NO":"２６３號","E_COORD97":176086.56,"N_COORD97":2540005.25,"ADDRESS":"民生南街二段２６３號","OBJECTID":497350},"geometry":{"x":176086.56000000145,"y":2540005.2500000019}},{"attributes":{"ID":497378,"DIS_CODE":0,"TOWNNAME":"佳里區","LI":"安西里","LIN":"7鄰","STREET":"和平街","SECT":" ","MAREA":" ","LANE":" ","ALLEY":" ","HOUSE_NO":"１６２號","E_COORD97":165634.39999999999,"N_COORD97":2562508.2799999998,"ADDRESS":"和平街１６２號","OBJECTID":497351},"geometry":{"x":165634.40000000224,"y":2562508.2799999993}},{"attributes":{"ID":497379,"DIS_CODE":0,"TOWNNAME":"佳里區","LI":"安西里","LIN":"7鄰","STREET":"和平街","SECT":" ","MAREA":" ","LANE":" ","ALLEY":" ","HOUSE_NO":"１６４號","E_COORD97":165629.85000000001,"N_COORD97":2562507.6600000001,"ADDRESS":"和平街１６４號","OBJECTID":497352},"geometry":{"x":165629.84999999963,"y":2562507.6600000039}},{"attributes":{"ID":497380,"DIS_CODE":0,"TOWNNAME":"佳里區","LI":"安西里","LIN":"7鄰","STREET":"和平街","SECT":" ","MAREA":" ","LANE":" ","ALLEY":" ","HOUSE_NO":"１６６號","E_COORD97":165625.23000000001,"N_COORD97":2562507.21,"ADDRESS":"和平街１６６號","OBJECTID":497353},"geometry":{"x":165625.22999999952,"y":2562507.2100000009}},{"attributes":{"ID":497381,"DIS_CODE":0,"TOWNNAME":"中西區","LI":"普濟里","LIN":"7鄰","STREET":"郡緯街","SECT":" ","MAREA":" ","LANE":" ","ALLEY":" ","HOUSE_NO":"１０７號","E_COORD97":167844.5,"N_COORD97":2544414.02,"ADDRESS":"郡緯街１０７號","OBJECTID":497354},"geometry":{"x":167844.50000000093,"y":2544414.0200000014}},{"attributes":{"ID":497382,"DIS_CODE":0,"TOWNNAME":"中西區","LI":"水仙里","LIN":"7鄰","STREET":"和平街","SECT":" ","MAREA":" ","LANE":" ","ALLEY":" ","HOUSE_NO":"１９號","E_COORD97":167873.03,"N_COORD97":2544068.5699999998,"ADDRESS":"和平街１９號","OBJECTID":497355},"geometry":{"x":167873.03000000119,"y":2544068.5700000022}},{"attributes":{"ID":497383,"DIS_CODE":0,"TOWNNAME":"中西區","LI":"水仙里","LIN":"7鄰","STREET":"和平街","SECT":" ","MAREA":" ","LANE":" ","ALLEY":" ","HOUSE_NO":"１號","E_COORD97":167916.88,"N_COORD97":2544062.6299999999,"ADDRESS":"和平街１號","OBJECTID":497356},"geometry":{"x":167916.87999999989,"y":2544062.629999999}},{"attributes":{"ID":497384,"DIS_CODE":0,"TOWNNAME":"中西區","LI":"水仙里","LIN":"7鄰","STREET":"和平街","SECT":" ","MAREA":" ","LANE":" ","ALLEY":" ","HOUSE_NO":"２１號","E_COORD97":167867.97,"N_COORD97":2544068.5699999998,"ADDRESS":"和平街２１號","OBJECTID":497357},"geometry":{"x":167867.97000000067,"y":2544068.5700000022}},{"attributes":{"ID":497385,"DIS_CODE":0,"TOWNNAME":"中西區","LI":"水仙里","LIN":"7鄰","STREET":"和平街","SECT":" ","MAREA":" ","LANE":" ","ALLEY":" ","HOUSE_NO":"２３號","E_COORD97":167863.12,"N_COORD97":2544069.8900000001,"ADDRESS":"和平街２３號","OBJECTID":497358},"geometry":{"x":167863.12000000011,"y":2544069.8900000043}},{"attributes":{"ID":497386,"DIS_CODE":0,"TOWNNAME":"中西區","LI":"水仙里","LIN":"7鄰","STREET":"和平街","SECT":" ","MAREA":" ","LANE":" ","ALLEY":" ","HOUSE_NO":"２９號","E_COORD97":167849.23999999999,"N_COORD97":2544072.3100000001,"ADDRESS":"和平街２９號","OBJECTID":497359},"geometry":{"x":167849.24000000209,"y":2544072.3100000005}},{"attributes":{"ID":497387,"DIS_CODE":0,"TOWNNAME":"中西區","LI":"水仙里","LIN":"7鄰","STREET":"和平街","SECT":" ","MAREA":" ","LANE":" ","ALLEY":" ","HOUSE_NO":"３１號","E_COORD97":167845.5,"N_COORD97":2544072.9700000002,"ADDRESS":"和平街３１號","OBJECTID":497360},"geometry":{"x":167845.50000000186,"y":2544072.9700000025}},{"attributes":{"ID":497388,"DIS_CODE":0,"TOWNNAME":"中西區","LI":"水仙里","LIN":"7鄰","STREET":"和平街","SECT":" ","MAREA":" ","LANE":" ","ALLEY":" ","HOUSE_NO":"３３號","E_COORD97":167836.67999999999,"N_COORD97":2544072.9700000002,"ADDRESS":"和平街３３號","OBJECTID":497361},"geometry":{"x":167836.6799999997,"y":2544072.9700000025}},{"attributes":{"ID":497389,"DIS_CODE":0,"TOWNNAME":"中西區","LI":"水仙里","LIN":"7鄰","STREET":"和平街","SECT":" ","MAREA":" ","LANE":" ","ALLEY":" ","HOUSE_NO":"３號","E_COORD97":167912.47,"N_COORD97":2544061.96,"ADDRESS":"和平街３號","OBJECTID":497362},"geometry":{"x":167912.46999999974,"y":2544061.9600000009}},{"attributes":{"ID":497390,"DIS_CODE":0,"TOWNNAME":"中西區","LI":"水仙里","LIN":"7鄰","STREET":"和平街","SECT":" ","MAREA":" ","LANE":" ","ALLEY":" ","HOUSE_NO":"５號","E_COORD97":167907.62,"N_COORD97":2544063.0699999998,"ADDRESS":"和平街５號","OBJECTID":497363},"geometry":{"x":167907.62000000104,"y":2544063.0700000022}},{"attributes":{"ID":497391,"DIS_CODE":0,"TOWNNAME":"中西區","LI":"水仙里","LIN":"7鄰","STREET":"和平街","SECT":" ","MAREA":" ","LANE":" ","ALLEY":" ","HOUSE_NO":"７號","E_COORD97":167902.12,"N_COORD97":2544063.5099999998,"ADDRESS":"和平街７號","OBJECTID":497364},"geometry":{"x":167902.12000000011,"y":2544063.5099999998}},{"attributes":{"ID":497392,"DIS_CODE":0,"TOWNNAME":"中西區","LI":"水仙里","LIN":"7鄰","STREET":"和平街","SECT":" ","MAREA":" ","LANE":" ","ALLEY":" ","HOUSE_NO":"９號","E_COORD97":167897.04999999999,"N_COORD97":2544064.8300000001,"ADDRESS":"和平街９號","OBJECTID":497365},"geometry":{"x":167897.04999999981,"y":2544064.8300000001}},{"attributes":{"ID":497393,"DIS_CODE":0,"TOWNNAME":"中西區","LI":"水仙里","LIN":"7鄰","STREET":"和平街","SECT":" ","MAREA":" ","LANE":" ","ALLEY":" ","HOUSE_NO":"１０號","E_COORD97":167805.92000000001,"N_COORD97":2544096.48,"ADDRESS":"和平街１０號","OBJECTID":497366},"geometry":{"x":167805.92000000086,"y":2544096.4800000023}},{"attributes":{"ID":497394,"DIS_CODE":0,"TOWNNAME":"中西區","LI":"水仙里","LIN":"7鄰","STREET":"和平街","SECT":" ","MAREA":" ","LANE":" ","ALLEY":" ","HOUSE_NO":"１４號","E_COORD97":167801.89000000001,"N_COORD97":2544097.0299999998,"ADDRESS":"和平街１４號","OBJECTID":497367},"geometry":{"x":167801.89000000153,"y":2544097.0299999993}},{"attributes":{"ID":497395,"DIS_CODE":0,"TOWNNAME":"中西區","LI":"水仙里","LIN":"7鄰","STREET":"和平街","SECT":" ","MAREA":" ","LANE":" ","ALLEY":" ","HOUSE_NO":"１６號","E_COORD97":167783.64999999999,"N_COORD97":2544099.8599999999,"ADDRESS":"和平街１６號","OBJECTID":497368},"geometry":{"x":167783.65000000037,"y":2544099.8600000013}},{"attributes":{"ID":497396,"DIS_CODE":0,"TOWNNAME":"中西區","LI":"水仙里","LIN":"7鄰","STREET":"和平街","SECT":" ","MAREA":" ","LANE":" ","ALLEY":" ","HOUSE_NO":"４３號","E_COORD97":167808.42999999999,"N_COORD97":2544082.0600000001,"ADDRESS":"和平街４３號","OBJECTID":497369},"geometry":{"x":167808.43000000156,"y":2544082.0600000042}},{"attributes":{"ID":497397,"DIS_CODE":0,"TOWNNAME":"中西區","LI":"水仙里","LIN":"7鄰","STREET":"和平街","SECT":" ","MAREA":" ","LANE":" ","ALLEY":" ","HOUSE_NO":"４５號","E_COORD97":167802.85999999999,"N_COORD97":2544081.2200000002,"ADDRESS":"和平街４５號","OBJECTID":497370},"geometry":{"x":167802.86000000127,"y":2544081.2200000044}},{"attributes":{"ID":497398,"DIS_CODE":0,"TOWNNAME":"中西區","LI":"水仙里","LIN":"7鄰","STREET":"和平街","SECT":" ","MAREA":" ","LANE":" ","ALLEY":" ","HOUSE_NO":"４７號","E_COORD97":167798.67999999999,"N_COORD97":2544081.2200000002,"ADDRESS":"和平街４７號","OBJECTID":497371},"geometry":{"x":167798.68000000063,"y":2544081.2200000044}},{"attributes":{"ID":497399,"DIS_CODE":0,"TOWNNAME":"中西區","LI":"水仙里","LIN":"7鄰","STREET":"和平街","SECT":" ","MAREA":" ","LANE":" ","ALLEY":" ","HOUSE_NO":"４９號","E_COORD97":167793.39999999999,"N_COORD97":2544083.1699999999,"ADDRESS":"和平街４９號","OBJECTID":497372},"geometry":{"x":167793.40000000037,"y":2544083.1699999999}},{"attributes":{"ID":497400,"DIS_CODE":0,"TOWNNAME":"中西區","LI":"水仙里","LIN":"7鄰","STREET":"和平街","SECT":" ","MAREA":" ","LANE":" ","ALLEY":" ","HOUSE_NO":"５１號","E_COORD97":167789.5,"N_COORD97":2544088.46,"ADDRESS":"和平街５１號","OBJECTID":497373},"geometry":{"x":167789.50000000186,"y":2544088.4600000009}},{"attributes":{"ID":497401,"DIS_CODE":0,"TOWNNAME":"中西區","LI":"水仙里","LIN":"7鄰","STREET":"和平街","SECT":" ","MAREA":" ","LANE":" ","ALLEY":" ","HOUSE_NO":"６號","E_COORD97":167816.78,"N_COORD97":2544093.8399999999,"ADDRESS":"和平街６號","OBJECTID":497374},"geometry":{"x":167816.78000000212,"y":2544093.8400000017}},{"attributes":{"ID":497402,"DIS_CODE":0,"TOWNNAME":"中西區","LI":"水仙里","LIN":"7鄰","STREET":"國華街","SECT":"三段","MAREA":" ","LANE":" ","ALLEY":" ","HOUSE_NO":"１００之１號","E_COORD97":167823.45999999999,"N_COORD97":2544069.7599999998,"ADDRESS":"國華街三段１００之１號","OBJECTID":497375},"geometry":{"x":167823.45999999996,"y":2544069.7600000035}},{"attributes":{"ID":497403,"DIS_CODE":0,"TOWNNAME":"中西區","LI":"水仙里","LIN":"7鄰","STREET":"國華街","SECT":"三段","MAREA":" ","LANE":" ","ALLEY":" ","HOUSE_NO":"１００之２號","E_COORD97":167824.79000000001,"N_COORD97":2544075.2599999998,"ADDRESS":"國華街三段１００之２號","OBJECTID":497376},"geometry":{"x":167824.78999999911,"y":2544075.2599999998}},{"attributes":{"ID":497404,"DIS_CODE":0,"TOWNNAME":"中西區","LI":"水仙里","LIN":"7鄰","STREET":"國華街","SECT":"三段","MAREA":" ","LANE":" ","ALLEY":" ","HOUSE_NO":"１００之３號","E_COORD97":167826.10999999999,"N_COORD97":2544079.4500000002,"ADDRESS":"國華街三段１００之３號","OBJECTID":497377},"geometry":{"x":167826.11000000034,"y":2544079.4500000011}},{"attributes":{"ID":497405,"DIS_CODE":0,"TOWNNAME":"中西區","LI":"水仙里","LIN":"7鄰","STREET":"國華街","SECT":"三段","MAREA":" ","LANE":" ","ALLEY":" ","HOUSE_NO":"１００號","E_COORD97":167821.26000000001,"N_COORD97":2544064.9199999999,"ADDRESS":"國華街三段１００號","OBJECTID":497378},"geometry":{"x":167821.25999999978,"y":2544064.9199999999}},{"attributes":{"ID":497406,"DIS_CODE":0,"TOWNNAME":"中西區","LI":"水仙里","LIN":"7鄰","STREET":"國華街","SECT":"三段","MAREA":" ","LANE":" ","ALLEY":" ","HOUSE_NO":"１１１號","E_COORD97":167812.01000000001,"N_COORD97":2544079.73,"ADDRESS":"國華街三段１１１號","OBJECTID":497379},"geometry":{"x":167812.01000000071,"y":2544079.7300000004}},{"attributes":{"ID":497407,"DIS_CODE":0,"TOWNNAME":"中西區","LI":"郡西里","LIN":"7鄰","STREET":"建安街","SECT":" ","MAREA":" ","LANE":" ","ALLEY":" ","HOUSE_NO":"７６號","E_COORD97":167394,"N_COORD97":2543268.4500000002,"ADDRESS":"建安街７６號","OBJECTID":497380},"geometry":{"x":167394,"y":2543268.4500000011}},{"attributes":{"ID":497408,"DIS_CODE":0,"TOWNNAME":"中西區","LI":"郡西里","LIN":"7鄰","STREET":"郡西路","SECT":" ","MAREA":" ","LANE":" ","ALLEY":" ","HOUSE_NO":"４７號","E_COORD97":167378.73000000001,"N_COORD97":2543323.6800000002,"ADDRESS":"郡西路４７號","OBJECTID":497381},"geometry":{"x":167378.73000000138,"y":2543323.6799999997}},{"attributes":{"ID":497409,"DIS_CODE":0,"TOWNNAME":"中西區","LI":"郡西里","LIN":"7鄰","STREET":"郡西路","SECT":" ","MAREA":" ","LANE":" ","ALLEY":" ","HOUSE_NO":"４８號","E_COORD97":167398.64000000001,"N_COORD97":2543274.0600000001,"ADDRESS":"郡西路４８號","OBJECTID":497382},"geometry":{"x":167398.6400000006,"y":2543274.0600000005}},{"attributes":{"ID":497410,"DIS_CODE":0,"TOWNNAME":"中西區","LI":"郡西里","LIN":"7鄰","STREET":"郡西路","SECT":" ","MAREA":" ","LANE":" ","ALLEY":" ","HOUSE_NO":"５０號","E_COORD97":167398.64000000001,"N_COORD97":2543278.0899999999,"ADDRESS":"郡西路５０號","OBJECTID":497383},"geometry":{"x":167398.6400000006,"y":2543278.0900000017}},{"attributes":{"ID":497411,"DIS_CODE":0,"TOWNNAME":"中西區","LI":"郡西里","LIN":"7鄰","STREET":"郡西路","SECT":" ","MAREA":" ","LANE":" ","ALLEY":" ","HOUSE_NO":"５２號","E_COORD97":167399.73999999999,"N_COORD97":2543282.73,"ADDRESS":"郡西路５２號","OBJECTID":497384},"geometry":{"x":167399.74000000022,"y":2543282.7300000004}},{"attributes":{"ID":497412,"DIS_CODE":0,"TOWNNAME":"中西區","LI":"郡西里","LIN":"7鄰","STREET":"郡西路","SECT":" ","MAREA":" ","LANE":" ","ALLEY":" ","HOUSE_NO":"５４號","E_COORD97":167400.10999999999,"N_COORD97":2543286.2599999998,"ADDRESS":"郡西路５４號","OBJECTID":497385},"geometry":{"x":167400.11000000034,"y":2543286.2599999998}},{"attributes":{"ID":497413,"DIS_CODE":0,"TOWNNAME":"中西區","LI":"郡西里","LIN":"7鄰","STREET":"郡西路","SECT":" ","MAREA":" ","LANE":" ","ALLEY":" ","HOUSE_NO":"５６號","E_COORD97":167399.85999999999,"N_COORD97":2543289.0699999998,"ADDRESS":"郡西路５６號","OBJECTID":497386},"geometry":{"x":167399.86000000127,"y":2543289.0700000022}},{"attributes":{"ID":497414,"DIS_CODE":0,"TOWNNAME":"中西區","LI":"郡西里","LIN":"7鄰","STREET":"郡西路","SECT":" ","MAREA":" ","LANE":" ","ALLEY":" ","HOUSE_NO":"５８號","E_COORD97":167399.25,"N_COORD97":2543292.6099999999,"ADDRESS":"郡西路５８號","OBJECTID":497387},"geometry":{"x":167399.25,"y":2543292.6099999994}},{"attributes":{"ID":497415,"DIS_CODE":0,"TOWNNAME":"中西區","LI":"郡西里","LIN":"7鄰","STREET":"郡西路","SECT":" ","MAREA":" ","LANE":" ","ALLEY":" ","HOUSE_NO":"６０號","E_COORD97":167399.25,"N_COORD97":2543295.8999999999,"ADDRESS":"郡西路６０號","OBJECTID":497388},"geometry":{"x":167399.25,"y":2543295.9000000004}},{"attributes":{"ID":497416,"DIS_CODE":0,"TOWNNAME":"中西區","LI":"郡西里","LIN":"7鄰","STREET":"郡西路","SECT":" ","MAREA":" ","LANE":" ","ALLEY":" ","HOUSE_NO":"６２號","E_COORD97":167399.37,"N_COORD97":2543298.46,"ADDRESS":"郡西路６２號","OBJECTID":497389},"geometry":{"x":167399.37000000104,"y":2543298.4600000009}},{"attributes":{"ID":497417,"DIS_CODE":0,"TOWNNAME":"中西區","LI":"郡西里","LIN":"7鄰","STREET":"郡西路","SECT":" ","MAREA":" ","LANE":" ","ALLEY":" ","HOUSE_NO":"６６號","E_COORD97":167400.35000000001,"N_COORD97":2543305.77,"ADDRESS":"郡西路６６號","OBJECTID":497390},"geometry":{"x":167400.35000000149,"y":2543305.7699999996}},{"attributes":{"ID":497418,"DIS_CODE":0,"TOWNNAME":"歸仁區","LI":"媽廟里","LIN":"14鄰","STREET":"中正北路","SECT":"三段","MAREA":" ","LANE":" ","ALLEY":" ","HOUSE_NO":"１２６號","E_COORD97":177609.85999999999,"N_COORD97":2543829.7200000002,"ADDRESS":"中正北路三段１２６號","OBJECTID":497391},"geometry":{"x":177609.86000000127,"y":2543829.7200000007}},{"attributes":{"ID":497419,"DIS_CODE":0,"TOWNNAME":"歸仁區","LI":"媽廟里","LIN":"8鄰","STREET":"和順路","SECT":"一段","MAREA":" ","LANE":" ","ALLEY":" ","HOUSE_NO":"６０號","E_COORD97":177364.87,"N_COORD97":2543717.7200000002,"ADDRESS":"和順路一段６０號","OBJECTID":497392},"geometry":{"x":177364.87000000197,"y":2543717.7200000007}},{"attributes":{"ID":497420,"DIS_CODE":0,"TOWNNAME":"中西區","LI":"郡西里","LIN":"7鄰","STREET":"郡西路","SECT":" ","MAREA":" ","LANE":" ","ALLEY":" ","HOUSE_NO":"６８號","E_COORD97":167400.95999999999,"N_COORD97":2543309.3100000001,"ADDRESS":"郡西路６８號","OBJECTID":497393},"geometry":{"x":167400.95999999996,"y":2543309.3100000005}},{"attributes":{"ID":497421,"DIS_CODE":0,"TOWNNAME":"中西區","LI":"郡西里","LIN":"7鄰","STREET":"郡西路","SECT":" ","MAREA":" ","LANE":" ","ALLEY":" ","HOUSE_NO":"７０號","E_COORD97":167403.39999999999,"N_COORD97":2543312.9700000002,"ADDRESS":"郡西路７０號","OBJECTID":497394},"geometry":{"x":167403.40000000037,"y":2543312.9699999988}},{"attributes":{"ID":497422,"DIS_CODE":0,"TOWNNAME":"中西區","LI":"郡西里","LIN":"7鄰","STREET":"郡西路","SECT":" ","MAREA":" ","LANE":" ","ALLEY":" ","HOUSE_NO":"７２號","E_COORD97":167404.62,"N_COORD97":2543317.6800000002,"ADDRESS":"郡西路７２號","OBJECTID":497395},"geometry":{"x":167404.62000000104,"y":2543317.6800000034}},{"attributes":{"ID":497423,"DIS_CODE":0,"TOWNNAME":"中西區","LI":"郡西里","LIN":"7鄰","STREET":"郡西路","SECT":" ","MAREA":" ","LANE":" ","ALLEY":" ","HOUSE_NO":"７４號","E_COORD97":167405.85000000001,"N_COORD97":2543322.5499999998,"ADDRESS":"郡西路７４號","OBJECTID":497396},"geometry":{"x":167405.85000000056,"y":2543322.5500000007}},{"attributes":{"ID":497424,"DIS_CODE":0,"TOWNNAME":"中西區","LI":"郡西里","LIN":"7鄰","STREET":"郡西路","SECT":" ","MAREA":" ","LANE":" ","ALLEY":" ","HOUSE_NO":"７６號","E_COORD97":167407.79999999999,"N_COORD97":2543327.0699999998,"ADDRESS":"郡西路７６號","OBJECTID":497397},"geometry":{"x":167407.80000000075,"y":2543327.0700000022}},{"attributes":{"ID":497425,"DIS_CODE":0,"TOWNNAME":"中西區","LI":"郡西里","LIN":"7鄰","STREET":"郡西路","SECT":" ","MAREA":" ","LANE":" ","ALLEY":" ","HOUSE_NO":"７８號","E_COORD97":167408.64999999999,"N_COORD97":2543331.0899999999,"ADDRESS":"郡西路７８號","OBJECTID":497398},"geometry":{"x":167408.65000000037,"y":2543331.0899999999}},{"attributes":{"ID":497426,"DIS_CODE":0,"TOWNNAME":"中西區","LI":"郡西里","LIN":"7鄰","STREET":"郡西路","SECT":" ","MAREA":" ","LANE":" ","ALLEY":" ","HOUSE_NO":"８０號","E_COORD97":167410.35999999999,"N_COORD97":2543335.48,"ADDRESS":"郡西路８０號","OBJECTID":497399},"geometry":{"x":167410.36000000034,"y":2543335.4800000004}},{"attributes":{"ID":497427,"DIS_CODE":0,"TOWNNAME":"下營區","LI":"仁里里","LIN":"7鄰","STREET":"仁美街","SECT":" ","MAREA":" ","LANE":" ","ALLEY":" ","HOUSE_NO":"５６號","E_COORD97":174173.57000000001,"N_COORD97":2570174.4199999999,"ADDRESS":"仁美街５６號","OBJECTID":497400},"geometry":{"x":174173.57000000123,"y":2570174.4199999999}}]}