{"displayFieldName":"TOWNNAME","fieldAliases":{"ID":"ID","DIS_CODE":"DIS_CODE","TOWNNAME":"TOWNNAME","LI":"LI","LIN":"LIN","STREET":"STREET","SECT":"SECT","MAREA":"MAREA","LANE":"LANE","ALLEY":"ALLEY","HOUSE_NO":"HOUSE_NO","E_COORD97":"E_COORD97","N_COORD97":"N_COORD97","ADDRESS":"ADDRESS","OBJECTID":"OBJECTID"},"geometryType":"esriGeometryPoint","spatialReference":{"wkid":102443,"latestWkid":3826},"fields":[{"name":"ID","type":"esriFieldTypeDouble","alias":"ID"},{"name":"DIS_CODE","type":"esriFieldTypeInteger","alias":"DIS_CODE"},{"name":"TOWNNAME","type":"esriFieldTypeString","alias":"TOWNNAME","length":8},{"name":"LI","type":"esriFieldTypeString","alias":"LI","length":8},{"name":"LIN","type":"esriFieldTypeString","alias":"LIN","length":12},{"name":"STREET","type":"esriFieldTypeString","alias":"STREET","length":20},{"name":"SECT","type":"esriFieldTypeString","alias":"SECT","length":8},{"name":"MAREA","type":"esriFieldTypeString","alias":"MAREA","length":12},{"name":"LANE","type":"esriFieldTypeString","alias":"LANE","length":10},{"name":"ALLEY","type":"esriFieldTypeString","alias":"ALLEY","length":10},{"name":"HOUSE_NO","type":"esriFieldTypeString","alias":"HOUSE_NO","length":20},{"name":"E_COORD97","type":"esriFieldTypeDouble","alias":"E_COORD97"},{"name":"N_COORD97","type":"esriFieldTypeDouble","alias":"N_COORD97"},{"name":"ADDRESS","type":"esriFieldTypeString","alias":"ADDRESS","length":50},{"name":"OBJECTID","type":"esriFieldTypeOID","alias":"OBJECTID"}],"features":[{"attributes":{"ID":561828,"DIS_CODE":0,"TOWNNAME":"中西區","LI":"安海里","LIN":"9鄰","STREET":"金華路","SECT":"三段","MAREA":" ","LANE":" ","ALLEY":" ","HOUSE_NO":"２１８號十一樓之１１","E_COORD97":167349.89999999999,"N_COORD97":2543920.5099999998,"ADDRESS":"金華路三段２１８號十一樓之１１","OBJECTID":561801},"geometry":{"x":167349.90000000224,"y":2543920.5100000016}},{"attributes":{"ID":561829,"DIS_CODE":0,"TOWNNAME":"中西區","LI":"安海里","LIN":"9鄰","STREET":"金華路","SECT":"三段","MAREA":" ","LANE":" ","ALLEY":" ","HOUSE_NO":"２１８號十一樓之１２","E_COORD97":167349.89999999999,"N_COORD97":2543920.5099999998,"ADDRESS":"金華路三段２１８號十一樓之１２","OBJECTID":561802},"geometry":{"x":167349.90000000224,"y":2543920.5100000016}},{"attributes":{"ID":561830,"DIS_CODE":0,"TOWNNAME":"中西區","LI":"安海里","LIN":"9鄰","STREET":"金華路","SECT":"三段","MAREA":" ","LANE":" ","ALLEY":" ","HOUSE_NO":"２１８號十一樓之１３","E_COORD97":167349.89999999999,"N_COORD97":2543920.5099999998,"ADDRESS":"金華路三段２１８號十一樓之１３","OBJECTID":561803},"geometry":{"x":167349.90000000224,"y":2543920.5100000016}},{"attributes":{"ID":561831,"DIS_CODE":0,"TOWNNAME":"中西區","LI":"安海里","LIN":"9鄰","STREET":"金華路","SECT":"三段","MAREA":" ","LANE":" ","ALLEY":" ","HOUSE_NO":"２１８號十一樓之１４","E_COORD97":167349.89999999999,"N_COORD97":2543920.5099999998,"ADDRESS":"金華路三段２１８號十一樓之１４","OBJECTID":561804},"geometry":{"x":167349.90000000224,"y":2543920.5100000016}},{"attributes":{"ID":561832,"DIS_CODE":0,"TOWNNAME":"中西區","LI":"安海里","LIN":"9鄰","STREET":"金華路","SECT":"三段","MAREA":" ","LANE":" ","ALLEY":" ","HOUSE_NO":"２１８號十一樓之１５","E_COORD97":167349.89999999999,"N_COORD97":2543920.5099999998,"ADDRESS":"金華路三段２１８號十一樓之１５","OBJECTID":561805},"geometry":{"x":167349.90000000224,"y":2543920.5100000016}},{"attributes":{"ID":561833,"DIS_CODE":0,"TOWNNAME":"中西區","LI":"安海里","LIN":"9鄰","STREET":"金華路","SECT":"三段","MAREA":" ","LANE":" ","ALLEY":" ","HOUSE_NO":"２１８號十一樓之１６","E_COORD97":167349.89999999999,"N_COORD97":2543920.5099999998,"ADDRESS":"金華路三段２１８號十一樓之１６","OBJECTID":561806},"geometry":{"x":167349.90000000224,"y":2543920.5100000016}},{"attributes":{"ID":561834,"DIS_CODE":0,"TOWNNAME":"仁德區","LI":"仁義里","LIN":"9鄰","STREET":"仁義一街","SECT":" ","MAREA":" ","LANE":" ","ALLEY":" ","HOUSE_NO":"１０４號","E_COORD97":173536.39999999999,"N_COORD97":2541184.5099999998,"ADDRESS":"仁義一街１０４號","OBJECTID":561807},"geometry":{"x":173536.4000000013,"y":2541184.5099999998}},{"attributes":{"ID":561835,"DIS_CODE":0,"TOWNNAME":"東區","LI":"裕聖里","LIN":"9鄰","STREET":"裕信路","SECT":" ","MAREA":" ","LANE":" ","ALLEY":" ","HOUSE_NO":"４２３號二樓","E_COORD97":172587.64000000001,"N_COORD97":2541952.3300000001,"ADDRESS":"裕信路４２３號二樓","OBJECTID":561808},"geometry":{"x":172587.6400000006,"y":2541952.3300000001}},{"attributes":{"ID":561836,"DIS_CODE":0,"TOWNNAME":"中西區","LI":"安海里","LIN":"9鄰","STREET":"金華路","SECT":"三段","MAREA":" ","LANE":" ","ALLEY":" ","HOUSE_NO":"２１８號十一樓之１７","E_COORD97":167349.89999999999,"N_COORD97":2543920.5099999998,"ADDRESS":"金華路三段２１８號十一樓之１７","OBJECTID":561809},"geometry":{"x":167349.90000000224,"y":2543920.5100000016}},{"attributes":{"ID":561837,"DIS_CODE":0,"TOWNNAME":"中西區","LI":"安海里","LIN":"9鄰","STREET":"金華路","SECT":"三段","MAREA":" ","LANE":" ","ALLEY":" ","HOUSE_NO":"２１８號十一樓之１８","E_COORD97":167349.89999999999,"N_COORD97":2543920.5099999998,"ADDRESS":"金華路三段２１８號十一樓之１８","OBJECTID":561810},"geometry":{"x":167349.90000000224,"y":2543920.5100000016}},{"attributes":{"ID":561838,"DIS_CODE":0,"TOWNNAME":"中西區","LI":"安海里","LIN":"9鄰","STREET":"金華路","SECT":"三段","MAREA":" ","LANE":" ","ALLEY":" ","HOUSE_NO":"２１８號十一樓之２","E_COORD97":167349.89999999999,"N_COORD97":2543920.5099999998,"ADDRESS":"金華路三段２１８號十一樓之２","OBJECTID":561811},"geometry":{"x":167349.90000000224,"y":2543920.5100000016}},{"attributes":{"ID":561839,"DIS_CODE":0,"TOWNNAME":"仁德區","LI":"仁義里","LIN":"5鄰","STREET":"中山路","SECT":" ","MAREA":" ","LANE":" ","ALLEY":" ","HOUSE_NO":"３５５號","E_COORD97":173933.57000000001,"N_COORD97":2541237,"ADDRESS":"中山路３５５號","OBJECTID":561812},"geometry":{"x":173933.5700000003,"y":2541237}},{"attributes":{"ID":561840,"DIS_CODE":0,"TOWNNAME":"仁德區","LI":"仁義里","LIN":"14鄰","STREET":"林頂街","SECT":" ","MAREA":" ","LANE":" ","ALLEY":" ","HOUSE_NO":"２７７號","E_COORD97":174952.84,"N_COORD97":2541376.75,"ADDRESS":"林頂街２７７號","OBJECTID":561813},"geometry":{"x":174952.84000000078,"y":2541376.75}},{"attributes":{"ID":561841,"DIS_CODE":0,"TOWNNAME":"中西區","LI":"安海里","LIN":"9鄰","STREET":"金華路","SECT":"三段","MAREA":" ","LANE":" ","ALLEY":" ","HOUSE_NO":"２１８號十一樓之３","E_COORD97":167349.89999999999,"N_COORD97":2543920.5099999998,"ADDRESS":"金華路三段２１８號十一樓之３","OBJECTID":561814},"geometry":{"x":167349.90000000224,"y":2543920.5100000016}},{"attributes":{"ID":561842,"DIS_CODE":0,"TOWNNAME":"中西區","LI":"安海里","LIN":"9鄰","STREET":"金華路","SECT":"三段","MAREA":" ","LANE":" ","ALLEY":" ","HOUSE_NO":"２１８號十一樓之４","E_COORD97":167349.89999999999,"N_COORD97":2543920.5099999998,"ADDRESS":"金華路三段２１８號十一樓之４","OBJECTID":561815},"geometry":{"x":167349.90000000224,"y":2543920.5100000016}},{"attributes":{"ID":561843,"DIS_CODE":0,"TOWNNAME":"中西區","LI":"安海里","LIN":"9鄰","STREET":"金華路","SECT":"三段","MAREA":" ","LANE":" ","ALLEY":" ","HOUSE_NO":"２１８號十一樓之５","E_COORD97":167349.89999999999,"N_COORD97":2543920.5099999998,"ADDRESS":"金華路三段２１８號十一樓之５","OBJECTID":561816},"geometry":{"x":167349.90000000224,"y":2543920.5100000016}},{"attributes":{"ID":561844,"DIS_CODE":0,"TOWNNAME":"中西區","LI":"安海里","LIN":"9鄰","STREET":"金華路","SECT":"三段","MAREA":" ","LANE":" ","ALLEY":" ","HOUSE_NO":"２１８號十一樓之６","E_COORD97":167349.89999999999,"N_COORD97":2543920.5099999998,"ADDRESS":"金華路三段２１８號十一樓之６","OBJECTID":561817},"geometry":{"x":167349.90000000224,"y":2543920.5100000016}},{"attributes":{"ID":561845,"DIS_CODE":0,"TOWNNAME":"中西區","LI":"安海里","LIN":"9鄰","STREET":"金華路","SECT":"三段","MAREA":" ","LANE":" ","ALLEY":" ","HOUSE_NO":"２１８號十一樓之７","E_COORD97":167349.89999999999,"N_COORD97":2543920.5099999998,"ADDRESS":"金華路三段２１８號十一樓之７","OBJECTID":561818},"geometry":{"x":167349.90000000224,"y":2543920.5100000016}},{"attributes":{"ID":561846,"DIS_CODE":0,"TOWNNAME":"中西區","LI":"安海里","LIN":"9鄰","STREET":"金華路","SECT":"三段","MAREA":" ","LANE":" ","ALLEY":" ","HOUSE_NO":"２１８號十一樓之８","E_COORD97":167349.89999999999,"N_COORD97":2543920.5099999998,"ADDRESS":"金華路三段２１８號十一樓之８","OBJECTID":561819},"geometry":{"x":167349.90000000224,"y":2543920.5100000016}},{"attributes":{"ID":561847,"DIS_CODE":0,"TOWNNAME":"中西區","LI":"安海里","LIN":"9鄰","STREET":"金華路","SECT":"三段","MAREA":" ","LANE":" ","ALLEY":" ","HOUSE_NO":"２１８號十一樓之９","E_COORD97":167349.89999999999,"N_COORD97":2543920.5099999998,"ADDRESS":"金華路三段２１８號十一樓之９","OBJECTID":561820},"geometry":{"x":167349.90000000224,"y":2543920.5100000016}},{"attributes":{"ID":561848,"DIS_CODE":0,"TOWNNAME":"中西區","LI":"安海里","LIN":"9鄰","STREET":"金華路","SECT":"三段","MAREA":" ","LANE":" ","ALLEY":" ","HOUSE_NO":"２１８號十七樓之１","E_COORD97":167349.89999999999,"N_COORD97":2543920.5099999998,"ADDRESS":"金華路三段２１８號十七樓之１","OBJECTID":561821},"geometry":{"x":167349.90000000224,"y":2543920.5100000016}},{"attributes":{"ID":561849,"DIS_CODE":0,"TOWNNAME":"中西區","LI":"安海里","LIN":"9鄰","STREET":"金華路","SECT":"三段","MAREA":" ","LANE":" ","ALLEY":" ","HOUSE_NO":"２１８號十七樓之１０","E_COORD97":167349.89999999999,"N_COORD97":2543920.5099999998,"ADDRESS":"金華路三段２１８號十七樓之１０","OBJECTID":561822},"geometry":{"x":167349.90000000224,"y":2543920.5100000016}},{"attributes":{"ID":561850,"DIS_CODE":0,"TOWNNAME":"中西區","LI":"安海里","LIN":"9鄰","STREET":"金華路","SECT":"三段","MAREA":" ","LANE":" ","ALLEY":" ","HOUSE_NO":"２１８號十七樓之１１","E_COORD97":167349.89999999999,"N_COORD97":2543920.5099999998,"ADDRESS":"金華路三段２１８號十七樓之１１","OBJECTID":561823},"geometry":{"x":167349.90000000224,"y":2543920.5100000016}},{"attributes":{"ID":561851,"DIS_CODE":0,"TOWNNAME":"中西區","LI":"安海里","LIN":"9鄰","STREET":"金華路","SECT":"三段","MAREA":" ","LANE":" ","ALLEY":" ","HOUSE_NO":"２１８號十七樓之１２","E_COORD97":167349.89999999999,"N_COORD97":2543920.5099999998,"ADDRESS":"金華路三段２１８號十七樓之１２","OBJECTID":561824},"geometry":{"x":167349.90000000224,"y":2543920.5100000016}},{"attributes":{"ID":561852,"DIS_CODE":0,"TOWNNAME":"中西區","LI":"安海里","LIN":"9鄰","STREET":"金華路","SECT":"三段","MAREA":" ","LANE":" ","ALLEY":" ","HOUSE_NO":"２１８號十七樓之１３","E_COORD97":167349.89999999999,"N_COORD97":2543920.5099999998,"ADDRESS":"金華路三段２１８號十七樓之１３","OBJECTID":561825},"geometry":{"x":167349.90000000224,"y":2543920.5100000016}},{"attributes":{"ID":561853,"DIS_CODE":0,"TOWNNAME":"中西區","LI":"安海里","LIN":"9鄰","STREET":"金華路","SECT":"三段","MAREA":" ","LANE":" ","ALLEY":" ","HOUSE_NO":"２１８號十七樓之１４","E_COORD97":167349.89999999999,"N_COORD97":2543920.5099999998,"ADDRESS":"金華路三段２１８號十七樓之１４","OBJECTID":561826},"geometry":{"x":167349.90000000224,"y":2543920.5100000016}},{"attributes":{"ID":561854,"DIS_CODE":0,"TOWNNAME":"中西區","LI":"安海里","LIN":"9鄰","STREET":"金華路","SECT":"三段","MAREA":" ","LANE":" ","ALLEY":" ","HOUSE_NO":"２１８號十七樓之１５","E_COORD97":167349.89999999999,"N_COORD97":2543920.5099999998,"ADDRESS":"金華路三段２１８號十七樓之１５","OBJECTID":561827},"geometry":{"x":167349.90000000224,"y":2543920.5100000016}},{"attributes":{"ID":561855,"DIS_CODE":0,"TOWNNAME":"中西區","LI":"安海里","LIN":"9鄰","STREET":"金華路","SECT":"三段","MAREA":" ","LANE":" ","ALLEY":" ","HOUSE_NO":"２１８號十七樓之１６","E_COORD97":167349.89999999999,"N_COORD97":2543920.5099999998,"ADDRESS":"金華路三段２１８號十七樓之１６","OBJECTID":561828},"geometry":{"x":167349.90000000224,"y":2543920.5100000016}},{"attributes":{"ID":561856,"DIS_CODE":0,"TOWNNAME":"中西區","LI":"安海里","LIN":"9鄰","STREET":"金華路","SECT":"三段","MAREA":" ","LANE":" ","ALLEY":" ","HOUSE_NO":"２１８號十七樓之１７","E_COORD97":167349.89999999999,"N_COORD97":2543920.5099999998,"ADDRESS":"金華路三段２１８號十七樓之１７","OBJECTID":561829},"geometry":{"x":167349.90000000224,"y":2543920.5100000016}},{"attributes":{"ID":561857,"DIS_CODE":0,"TOWNNAME":"中西區","LI":"安海里","LIN":"9鄰","STREET":"金華路","SECT":"三段","MAREA":" ","LANE":" ","ALLEY":" ","HOUSE_NO":"２１８號十七樓之１８","E_COORD97":167349.89999999999,"N_COORD97":2543920.5099999998,"ADDRESS":"金華路三段２１８號十七樓之１８","OBJECTID":561830},"geometry":{"x":167349.90000000224,"y":2543920.5100000016}},{"attributes":{"ID":561858,"DIS_CODE":0,"TOWNNAME":"中西區","LI":"安海里","LIN":"9鄰","STREET":"金華路","SECT":"三段","MAREA":" ","LANE":" ","ALLEY":" ","HOUSE_NO":"２１８號十七樓之１９","E_COORD97":167349.89999999999,"N_COORD97":2543920.5099999998,"ADDRESS":"金華路三段２１８號十七樓之１９","OBJECTID":561831},"geometry":{"x":167349.90000000224,"y":2543920.5100000016}},{"attributes":{"ID":561859,"DIS_CODE":0,"TOWNNAME":"中西區","LI":"安海里","LIN":"9鄰","STREET":"金華路","SECT":"三段","MAREA":" ","LANE":" ","ALLEY":" ","HOUSE_NO":"２１８號十七樓之２","E_COORD97":167349.89999999999,"N_COORD97":2543920.5099999998,"ADDRESS":"金華路三段２１８號十七樓之２","OBJECTID":561832},"geometry":{"x":167349.90000000224,"y":2543920.5100000016}},{"attributes":{"ID":561860,"DIS_CODE":0,"TOWNNAME":"中西區","LI":"安海里","LIN":"9鄰","STREET":"金華路","SECT":"三段","MAREA":" ","LANE":" ","ALLEY":" ","HOUSE_NO":"２１８號十七樓之３","E_COORD97":167349.89999999999,"N_COORD97":2543920.5099999998,"ADDRESS":"金華路三段２１８號十七樓之３","OBJECTID":561833},"geometry":{"x":167349.90000000224,"y":2543920.5100000016}},{"attributes":{"ID":561861,"DIS_CODE":0,"TOWNNAME":"中西區","LI":"安海里","LIN":"9鄰","STREET":"金華路","SECT":"三段","MAREA":" ","LANE":" ","ALLEY":" ","HOUSE_NO":"２１８號十七樓之４","E_COORD97":167349.89999999999,"N_COORD97":2543920.5099999998,"ADDRESS":"金華路三段２１８號十七樓之４","OBJECTID":561834},"geometry":{"x":167349.90000000224,"y":2543920.5100000016}},{"attributes":{"ID":561862,"DIS_CODE":0,"TOWNNAME":"中西區","LI":"安海里","LIN":"9鄰","STREET":"金華路","SECT":"三段","MAREA":" ","LANE":" ","ALLEY":" ","HOUSE_NO":"２１８號十七樓之５","E_COORD97":167349.89999999999,"N_COORD97":2543920.5099999998,"ADDRESS":"金華路三段２１８號十七樓之５","OBJECTID":561835},"geometry":{"x":167349.90000000224,"y":2543920.5100000016}},{"attributes":{"ID":561863,"DIS_CODE":0,"TOWNNAME":"仁德區","LI":"太子里","LIN":"33鄰","STREET":"太子三街","SECT":" ","MAREA":" ","LANE":" ","ALLEY":" ","HOUSE_NO":"１１號","E_COORD97":174042.57000000001,"N_COORD97":2543465.25,"ADDRESS":"太子三街１１號","OBJECTID":561836},"geometry":{"x":174042.5700000003,"y":2543465.25}},{"attributes":{"ID":561864,"DIS_CODE":0,"TOWNNAME":"中西區","LI":"安海里","LIN":"9鄰","STREET":"金華路","SECT":"三段","MAREA":" ","LANE":" ","ALLEY":" ","HOUSE_NO":"２１８號十七樓之６","E_COORD97":167349.89999999999,"N_COORD97":2543920.5099999998,"ADDRESS":"金華路三段２１８號十七樓之６","OBJECTID":561837},"geometry":{"x":167349.90000000224,"y":2543920.5100000016}},{"attributes":{"ID":561865,"DIS_CODE":0,"TOWNNAME":"中西區","LI":"安海里","LIN":"9鄰","STREET":"金華路","SECT":"三段","MAREA":" ","LANE":" ","ALLEY":" ","HOUSE_NO":"２１８號十七樓之７","E_COORD97":167349.89999999999,"N_COORD97":2543920.5099999998,"ADDRESS":"金華路三段２１８號十七樓之７","OBJECTID":561838},"geometry":{"x":167349.90000000224,"y":2543920.5100000016}},{"attributes":{"ID":561866,"DIS_CODE":0,"TOWNNAME":"中西區","LI":"安海里","LIN":"9鄰","STREET":"金華路","SECT":"三段","MAREA":" ","LANE":" ","ALLEY":" ","HOUSE_NO":"２１８號十七樓之８","E_COORD97":167349.89999999999,"N_COORD97":2543920.5099999998,"ADDRESS":"金華路三段２１８號十七樓之８","OBJECTID":561839},"geometry":{"x":167349.90000000224,"y":2543920.5100000016}},{"attributes":{"ID":561867,"DIS_CODE":0,"TOWNNAME":"中西區","LI":"安海里","LIN":"9鄰","STREET":"金華路","SECT":"三段","MAREA":" ","LANE":" ","ALLEY":" ","HOUSE_NO":"２１８號十七樓之９","E_COORD97":167349.89999999999,"N_COORD97":2543920.5099999998,"ADDRESS":"金華路三段２１８號十七樓之９","OBJECTID":561840},"geometry":{"x":167349.90000000224,"y":2543920.5100000016}},{"attributes":{"ID":561868,"DIS_CODE":0,"TOWNNAME":"中西區","LI":"安海里","LIN":"9鄰","STREET":"金華路","SECT":"三段","MAREA":" ","LANE":" ","ALLEY":" ","HOUSE_NO":"２１８號十二樓之１","E_COORD97":167349.89999999999,"N_COORD97":2543920.5099999998,"ADDRESS":"金華路三段２１８號十二樓之１","OBJECTID":561841},"geometry":{"x":167349.90000000224,"y":2543920.5100000016}},{"attributes":{"ID":561869,"DIS_CODE":0,"TOWNNAME":"中西區","LI":"安海里","LIN":"9鄰","STREET":"金華路","SECT":"三段","MAREA":" ","LANE":" ","ALLEY":" ","HOUSE_NO":"２１８號十二樓之１０","E_COORD97":167349.89999999999,"N_COORD97":2543920.5099999998,"ADDRESS":"金華路三段２１８號十二樓之１０","OBJECTID":561842},"geometry":{"x":167349.90000000224,"y":2543920.5100000016}},{"attributes":{"ID":561870,"DIS_CODE":0,"TOWNNAME":"中西區","LI":"安海里","LIN":"9鄰","STREET":"金華路","SECT":"三段","MAREA":" ","LANE":" ","ALLEY":" ","HOUSE_NO":"２１８號十二樓之１１","E_COORD97":167349.89999999999,"N_COORD97":2543920.5099999998,"ADDRESS":"金華路三段２１８號十二樓之１１","OBJECTID":561843},"geometry":{"x":167349.90000000224,"y":2543920.5100000016}},{"attributes":{"ID":561871,"DIS_CODE":0,"TOWNNAME":"中西區","LI":"安海里","LIN":"9鄰","STREET":"金華路","SECT":"三段","MAREA":" ","LANE":" ","ALLEY":" ","HOUSE_NO":"２１８號十二樓之１２","E_COORD97":167349.89999999999,"N_COORD97":2543920.5099999998,"ADDRESS":"金華路三段２１８號十二樓之１２","OBJECTID":561844},"geometry":{"x":167349.90000000224,"y":2543920.5100000016}},{"attributes":{"ID":561872,"DIS_CODE":0,"TOWNNAME":"中西區","LI":"安海里","LIN":"9鄰","STREET":"金華路","SECT":"三段","MAREA":" ","LANE":" ","ALLEY":" ","HOUSE_NO":"２１８號十二樓之１３","E_COORD97":167349.89999999999,"N_COORD97":2543920.5099999998,"ADDRESS":"金華路三段２１８號十二樓之１３","OBJECTID":561845},"geometry":{"x":167349.90000000224,"y":2543920.5100000016}},{"attributes":{"ID":561873,"DIS_CODE":0,"TOWNNAME":"中西區","LI":"安海里","LIN":"9鄰","STREET":"金華路","SECT":"三段","MAREA":" ","LANE":" ","ALLEY":" ","HOUSE_NO":"２１８號十二樓之１４","E_COORD97":167349.89999999999,"N_COORD97":2543920.5099999998,"ADDRESS":"金華路三段２１８號十二樓之１４","OBJECTID":561846},"geometry":{"x":167349.90000000224,"y":2543920.5100000016}},{"attributes":{"ID":561874,"DIS_CODE":0,"TOWNNAME":"中西區","LI":"安海里","LIN":"9鄰","STREET":"金華路","SECT":"三段","MAREA":" ","LANE":" ","ALLEY":" ","HOUSE_NO":"２１８號十二樓之１５","E_COORD97":167349.89999999999,"N_COORD97":2543920.5099999998,"ADDRESS":"金華路三段２１８號十二樓之１５","OBJECTID":561847},"geometry":{"x":167349.90000000224,"y":2543920.5100000016}},{"attributes":{"ID":561875,"DIS_CODE":0,"TOWNNAME":"中西區","LI":"安海里","LIN":"9鄰","STREET":"金華路","SECT":"三段","MAREA":" ","LANE":" ","ALLEY":" ","HOUSE_NO":"２１８號十二樓之１６","E_COORD97":167349.89999999999,"N_COORD97":2543920.5099999998,"ADDRESS":"金華路三段２１８號十二樓之１６","OBJECTID":561848},"geometry":{"x":167349.90000000224,"y":2543920.5100000016}},{"attributes":{"ID":561876,"DIS_CODE":0,"TOWNNAME":"中西區","LI":"安海里","LIN":"9鄰","STREET":"金華路","SECT":"三段","MAREA":" ","LANE":" ","ALLEY":" ","HOUSE_NO":"２１８號十二樓之１７","E_COORD97":167349.89999999999,"N_COORD97":2543920.5099999998,"ADDRESS":"金華路三段２１８號十二樓之１７","OBJECTID":561849},"geometry":{"x":167349.90000000224,"y":2543920.5100000016}},{"attributes":{"ID":561877,"DIS_CODE":0,"TOWNNAME":"中西區","LI":"安海里","LIN":"9鄰","STREET":"金華路","SECT":"三段","MAREA":" ","LANE":" ","ALLEY":" ","HOUSE_NO":"２１８號十二樓之１８","E_COORD97":167349.89999999999,"N_COORD97":2543920.5099999998,"ADDRESS":"金華路三段２１８號十二樓之１８","OBJECTID":561850},"geometry":{"x":167349.90000000224,"y":2543920.5100000016}},{"attributes":{"ID":561878,"DIS_CODE":0,"TOWNNAME":"中西區","LI":"安海里","LIN":"9鄰","STREET":"金華路","SECT":"三段","MAREA":" ","LANE":" ","ALLEY":" ","HOUSE_NO":"２１８號十二樓之１９","E_COORD97":167349.89999999999,"N_COORD97":2543920.5099999998,"ADDRESS":"金華路三段２１８號十二樓之１９","OBJECTID":561851},"geometry":{"x":167349.90000000224,"y":2543920.5100000016}},{"attributes":{"ID":561879,"DIS_CODE":0,"TOWNNAME":"中西區","LI":"安海里","LIN":"9鄰","STREET":"金華路","SECT":"三段","MAREA":" ","LANE":" ","ALLEY":" ","HOUSE_NO":"２１８號十二樓之２","E_COORD97":167349.89999999999,"N_COORD97":2543920.5099999998,"ADDRESS":"金華路三段２１８號十二樓之２","OBJECTID":561852},"geometry":{"x":167349.90000000224,"y":2543920.5100000016}},{"attributes":{"ID":561880,"DIS_CODE":0,"TOWNNAME":"中西區","LI":"安海里","LIN":"9鄰","STREET":"金華路","SECT":"三段","MAREA":" ","LANE":" ","ALLEY":" ","HOUSE_NO":"２１８號十二樓之３","E_COORD97":167349.89999999999,"N_COORD97":2543920.5099999998,"ADDRESS":"金華路三段２１８號十二樓之３","OBJECTID":561853},"geometry":{"x":167349.90000000224,"y":2543920.5100000016}},{"attributes":{"ID":561881,"DIS_CODE":0,"TOWNNAME":"中西區","LI":"安海里","LIN":"9鄰","STREET":"金華路","SECT":"三段","MAREA":" ","LANE":" ","ALLEY":" ","HOUSE_NO":"２１８號十二樓之４","E_COORD97":167349.89999999999,"N_COORD97":2543920.5099999998,"ADDRESS":"金華路三段２１８號十二樓之４","OBJECTID":561854},"geometry":{"x":167349.90000000224,"y":2543920.5100000016}},{"attributes":{"ID":561882,"DIS_CODE":0,"TOWNNAME":"中西區","LI":"安海里","LIN":"9鄰","STREET":"金華路","SECT":"三段","MAREA":" ","LANE":" ","ALLEY":" ","HOUSE_NO":"２１８號十二樓之５","E_COORD97":167349.89999999999,"N_COORD97":2543920.5099999998,"ADDRESS":"金華路三段２１８號十二樓之５","OBJECTID":561855},"geometry":{"x":167349.90000000224,"y":2543920.5100000016}},{"attributes":{"ID":561883,"DIS_CODE":0,"TOWNNAME":"中西區","LI":"安海里","LIN":"9鄰","STREET":"金華路","SECT":"三段","MAREA":" ","LANE":" ","ALLEY":" ","HOUSE_NO":"２１８號十二樓之６","E_COORD97":167349.89999999999,"N_COORD97":2543920.5099999998,"ADDRESS":"金華路三段２１８號十二樓之６","OBJECTID":561856},"geometry":{"x":167349.90000000224,"y":2543920.5100000016}},{"attributes":{"ID":561884,"DIS_CODE":0,"TOWNNAME":"中西區","LI":"安海里","LIN":"9鄰","STREET":"金華路","SECT":"三段","MAREA":" ","LANE":" ","ALLEY":" ","HOUSE_NO":"２１８號十二樓之７","E_COORD97":167349.89999999999,"N_COORD97":2543920.5099999998,"ADDRESS":"金華路三段２１８號十二樓之７","OBJECTID":561857},"geometry":{"x":167349.90000000224,"y":2543920.5100000016}},{"attributes":{"ID":561885,"DIS_CODE":0,"TOWNNAME":"中西區","LI":"安海里","LIN":"9鄰","STREET":"金華路","SECT":"三段","MAREA":" ","LANE":" ","ALLEY":" ","HOUSE_NO":"２１８號十二樓之８","E_COORD97":167349.89999999999,"N_COORD97":2543920.5099999998,"ADDRESS":"金華路三段２１８號十二樓之８","OBJECTID":561858},"geometry":{"x":167349.90000000224,"y":2543920.5100000016}},{"attributes":{"ID":561886,"DIS_CODE":0,"TOWNNAME":"中西區","LI":"安海里","LIN":"9鄰","STREET":"金華路","SECT":"三段","MAREA":" ","LANE":" ","ALLEY":" ","HOUSE_NO":"２１８號十二樓之９","E_COORD97":167349.89999999999,"N_COORD97":2543920.5099999998,"ADDRESS":"金華路三段２１８號十二樓之９","OBJECTID":561859},"geometry":{"x":167349.90000000224,"y":2543920.5100000016}},{"attributes":{"ID":561887,"DIS_CODE":0,"TOWNNAME":"中西區","LI":"安海里","LIN":"9鄰","STREET":"金華路","SECT":"三段","MAREA":" ","LANE":" ","ALLEY":" ","HOUSE_NO":"２１８號十八樓之１","E_COORD97":167349.89999999999,"N_COORD97":2543920.5099999998,"ADDRESS":"金華路三段２１８號十八樓之１","OBJECTID":561860},"geometry":{"x":167349.90000000224,"y":2543920.5100000016}},{"attributes":{"ID":561888,"DIS_CODE":0,"TOWNNAME":"中西區","LI":"安海里","LIN":"9鄰","STREET":"金華路","SECT":"三段","MAREA":" ","LANE":" ","ALLEY":" ","HOUSE_NO":"２１８號十八樓之１０","E_COORD97":167349.89999999999,"N_COORD97":2543920.5099999998,"ADDRESS":"金華路三段２１８號十八樓之１０","OBJECTID":561861},"geometry":{"x":167349.90000000224,"y":2543920.5100000016}},{"attributes":{"ID":561889,"DIS_CODE":0,"TOWNNAME":"仁德區","LI":"仁義里","LIN":"1鄰","STREET":"義林六街","SECT":" ","MAREA":" ","LANE":" ","ALLEY":" ","HOUSE_NO":"１１號","E_COORD97":174458.70999999999,"N_COORD97":2541047.52,"ADDRESS":"義林六街１１號","OBJECTID":561862},"geometry":{"x":174458.71000000183,"y":2541047.5200000014}},{"attributes":{"ID":561890,"DIS_CODE":0,"TOWNNAME":"仁德區","LI":"仁義里","LIN":"30鄰","STREET":"中清二街","SECT":" ","MAREA":" ","LANE":" ","ALLEY":" ","HOUSE_NO":"３２號","E_COORD97":173575.82000000001,"N_COORD97":2541482.2999999998,"ADDRESS":"中清二街３２號","OBJECTID":561863},"geometry":{"x":173575.82000000123,"y":2541482.3000000007}},{"attributes":{"ID":561891,"DIS_CODE":0,"TOWNNAME":"東區","LI":"裕聖里","LIN":"9鄰","STREET":"裕信路","SECT":" ","MAREA":" ","LANE":" ","ALLEY":" ","HOUSE_NO":"４２３號二樓之１","E_COORD97":172587.64000000001,"N_COORD97":2541952.3300000001,"ADDRESS":"裕信路４２３號二樓之１","OBJECTID":561864},"geometry":{"x":172587.6400000006,"y":2541952.3300000001}},{"attributes":{"ID":561892,"DIS_CODE":0,"TOWNNAME":"中西區","LI":"安海里","LIN":"9鄰","STREET":"金華路","SECT":"三段","MAREA":" ","LANE":" ","ALLEY":" ","HOUSE_NO":"２１８號十八樓之１１","E_COORD97":167349.89999999999,"N_COORD97":2543920.5099999998,"ADDRESS":"金華路三段２１８號十八樓之１１","OBJECTID":561865},"geometry":{"x":167349.90000000224,"y":2543920.5100000016}},{"attributes":{"ID":561893,"DIS_CODE":0,"TOWNNAME":"中西區","LI":"安海里","LIN":"9鄰","STREET":"金華路","SECT":"三段","MAREA":" ","LANE":" ","ALLEY":" ","HOUSE_NO":"２１８號十八樓之１２","E_COORD97":167349.89999999999,"N_COORD97":2543920.5099999998,"ADDRESS":"金華路三段２１８號十八樓之１２","OBJECTID":561866},"geometry":{"x":167349.90000000224,"y":2543920.5100000016}},{"attributes":{"ID":561894,"DIS_CODE":0,"TOWNNAME":"中西區","LI":"安海里","LIN":"9鄰","STREET":"金華路","SECT":"三段","MAREA":" ","LANE":" ","ALLEY":" ","HOUSE_NO":"２１８號十八樓之１３","E_COORD97":167349.89999999999,"N_COORD97":2543920.5099999998,"ADDRESS":"金華路三段２１８號十八樓之１３","OBJECTID":561867},"geometry":{"x":167349.90000000224,"y":2543920.5100000016}},{"attributes":{"ID":561895,"DIS_CODE":0,"TOWNNAME":"中西區","LI":"安海里","LIN":"9鄰","STREET":"金華路","SECT":"三段","MAREA":" ","LANE":" ","ALLEY":" ","HOUSE_NO":"２１８號十八樓之１４","E_COORD97":167349.89999999999,"N_COORD97":2543920.5099999998,"ADDRESS":"金華路三段２１８號十八樓之１４","OBJECTID":561868},"geometry":{"x":167349.90000000224,"y":2543920.5100000016}},{"attributes":{"ID":561896,"DIS_CODE":0,"TOWNNAME":"中西區","LI":"安海里","LIN":"9鄰","STREET":"金華路","SECT":"三段","MAREA":" ","LANE":" ","ALLEY":" ","HOUSE_NO":"２１８號十八樓之１５","E_COORD97":167349.89999999999,"N_COORD97":2543920.5099999998,"ADDRESS":"金華路三段２１８號十八樓之１５","OBJECTID":561869},"geometry":{"x":167349.90000000224,"y":2543920.5100000016}},{"attributes":{"ID":561897,"DIS_CODE":0,"TOWNNAME":"中西區","LI":"安海里","LIN":"9鄰","STREET":"金華路","SECT":"三段","MAREA":" ","LANE":" ","ALLEY":" ","HOUSE_NO":"２１８號十八樓之１６","E_COORD97":167349.89999999999,"N_COORD97":2543920.5099999998,"ADDRESS":"金華路三段２１８號十八樓之１６","OBJECTID":561870},"geometry":{"x":167349.90000000224,"y":2543920.5100000016}},{"attributes":{"ID":561898,"DIS_CODE":0,"TOWNNAME":"中西區","LI":"安海里","LIN":"9鄰","STREET":"金華路","SECT":"三段","MAREA":" ","LANE":" ","ALLEY":" ","HOUSE_NO":"２１８號十八樓之１７","E_COORD97":167349.89999999999,"N_COORD97":2543920.5099999998,"ADDRESS":"金華路三段２１８號十八樓之１７","OBJECTID":561871},"geometry":{"x":167349.90000000224,"y":2543920.5100000016}},{"attributes":{"ID":561899,"DIS_CODE":0,"TOWNNAME":"中西區","LI":"安海里","LIN":"9鄰","STREET":"金華路","SECT":"三段","MAREA":" ","LANE":" ","ALLEY":" ","HOUSE_NO":"２１８號十八樓之１８","E_COORD97":167349.89999999999,"N_COORD97":2543920.5099999998,"ADDRESS":"金華路三段２１８號十八樓之１８","OBJECTID":561872},"geometry":{"x":167349.90000000224,"y":2543920.5100000016}},{"attributes":{"ID":561900,"DIS_CODE":0,"TOWNNAME":"中西區","LI":"安海里","LIN":"9鄰","STREET":"金華路","SECT":"三段","MAREA":" ","LANE":" ","ALLEY":" ","HOUSE_NO":"２１８號十八樓之１９","E_COORD97":167349.89999999999,"N_COORD97":2543920.5099999998,"ADDRESS":"金華路三段２１８號十八樓之１９","OBJECTID":561873},"geometry":{"x":167349.90000000224,"y":2543920.5100000016}},{"attributes":{"ID":561901,"DIS_CODE":0,"TOWNNAME":"中西區","LI":"安海里","LIN":"9鄰","STREET":"金華路","SECT":"三段","MAREA":" ","LANE":" ","ALLEY":" ","HOUSE_NO":"２１８號十八樓之２","E_COORD97":167349.89999999999,"N_COORD97":2543920.5099999998,"ADDRESS":"金華路三段２１８號十八樓之２","OBJECTID":561874},"geometry":{"x":167349.90000000224,"y":2543920.5100000016}},{"attributes":{"ID":561902,"DIS_CODE":0,"TOWNNAME":"中西區","LI":"安海里","LIN":"9鄰","STREET":"金華路","SECT":"三段","MAREA":" ","LANE":" ","ALLEY":" ","HOUSE_NO":"２１８號十八樓之３","E_COORD97":167349.89999999999,"N_COORD97":2543920.5099999998,"ADDRESS":"金華路三段２１８號十八樓之３","OBJECTID":561875},"geometry":{"x":167349.90000000224,"y":2543920.5100000016}},{"attributes":{"ID":561903,"DIS_CODE":0,"TOWNNAME":"中西區","LI":"安海里","LIN":"9鄰","STREET":"金華路","SECT":"三段","MAREA":" ","LANE":" ","ALLEY":" ","HOUSE_NO":"２１８號十八樓之４","E_COORD97":167349.89999999999,"N_COORD97":2543920.5099999998,"ADDRESS":"金華路三段２１８號十八樓之４","OBJECTID":561876},"geometry":{"x":167349.90000000224,"y":2543920.5100000016}},{"attributes":{"ID":561904,"DIS_CODE":0,"TOWNNAME":"中西區","LI":"安海里","LIN":"9鄰","STREET":"金華路","SECT":"三段","MAREA":" ","LANE":" ","ALLEY":" ","HOUSE_NO":"２１８號十八樓之５","E_COORD97":167349.89999999999,"N_COORD97":2543920.5099999998,"ADDRESS":"金華路三段２１８號十八樓之５","OBJECTID":561877},"geometry":{"x":167349.90000000224,"y":2543920.5100000016}},{"attributes":{"ID":561905,"DIS_CODE":0,"TOWNNAME":"中西區","LI":"安海里","LIN":"9鄰","STREET":"金華路","SECT":"三段","MAREA":" ","LANE":" ","ALLEY":" ","HOUSE_NO":"２１８號十八樓之６","E_COORD97":167349.89999999999,"N_COORD97":2543920.5099999998,"ADDRESS":"金華路三段２１８號十八樓之６","OBJECTID":561878},"geometry":{"x":167349.90000000224,"y":2543920.5100000016}},{"attributes":{"ID":561906,"DIS_CODE":0,"TOWNNAME":"中西區","LI":"安海里","LIN":"9鄰","STREET":"金華路","SECT":"三段","MAREA":" ","LANE":" ","ALLEY":" ","HOUSE_NO":"２１８號十八樓之８","E_COORD97":167349.89999999999,"N_COORD97":2543920.5099999998,"ADDRESS":"金華路三段２１８號十八樓之８","OBJECTID":561879},"geometry":{"x":167349.90000000224,"y":2543920.5100000016}},{"attributes":{"ID":561907,"DIS_CODE":0,"TOWNNAME":"中西區","LI":"安海里","LIN":"9鄰","STREET":"金華路","SECT":"三段","MAREA":" ","LANE":" ","ALLEY":" ","HOUSE_NO":"２１８號十八樓之９","E_COORD97":167349.89999999999,"N_COORD97":2543920.5099999998,"ADDRESS":"金華路三段２１８號十八樓之９","OBJECTID":561880},"geometry":{"x":167349.90000000224,"y":2543920.5100000016}},{"attributes":{"ID":561908,"DIS_CODE":0,"TOWNNAME":"中西區","LI":"安海里","LIN":"9鄰","STREET":"金華路","SECT":"三段","MAREA":" ","LANE":" ","ALLEY":" ","HOUSE_NO":"２１８號十三樓之１","E_COORD97":167349.89999999999,"N_COORD97":2543920.5099999998,"ADDRESS":"金華路三段２１８號十三樓之１","OBJECTID":561881},"geometry":{"x":167349.90000000224,"y":2543920.5100000016}},{"attributes":{"ID":561909,"DIS_CODE":0,"TOWNNAME":"中西區","LI":"安海里","LIN":"9鄰","STREET":"金華路","SECT":"三段","MAREA":" ","LANE":" ","ALLEY":" ","HOUSE_NO":"２１８號十三樓之１０","E_COORD97":167349.89999999999,"N_COORD97":2543920.5099999998,"ADDRESS":"金華路三段２１８號十三樓之１０","OBJECTID":561882},"geometry":{"x":167349.90000000224,"y":2543920.5100000016}},{"attributes":{"ID":561910,"DIS_CODE":0,"TOWNNAME":"中西區","LI":"安海里","LIN":"9鄰","STREET":"金華路","SECT":"三段","MAREA":" ","LANE":" ","ALLEY":" ","HOUSE_NO":"２１８號十三樓之１１","E_COORD97":167349.89999999999,"N_COORD97":2543920.5099999998,"ADDRESS":"金華路三段２１８號十三樓之１１","OBJECTID":561883},"geometry":{"x":167349.90000000224,"y":2543920.5100000016}},{"attributes":{"ID":561911,"DIS_CODE":0,"TOWNNAME":"中西區","LI":"安海里","LIN":"9鄰","STREET":"金華路","SECT":"三段","MAREA":" ","LANE":" ","ALLEY":" ","HOUSE_NO":"２１８號十三樓之１２","E_COORD97":167349.89999999999,"N_COORD97":2543920.5099999998,"ADDRESS":"金華路三段２１８號十三樓之１２","OBJECTID":561884},"geometry":{"x":167349.90000000224,"y":2543920.5100000016}},{"attributes":{"ID":561912,"DIS_CODE":0,"TOWNNAME":"中西區","LI":"安海里","LIN":"9鄰","STREET":"金華路","SECT":"三段","MAREA":" ","LANE":" ","ALLEY":" ","HOUSE_NO":"２１８號十三樓之１３","E_COORD97":167349.89999999999,"N_COORD97":2543920.5099999998,"ADDRESS":"金華路三段２１８號十三樓之１３","OBJECTID":561885},"geometry":{"x":167349.90000000224,"y":2543920.5100000016}},{"attributes":{"ID":561913,"DIS_CODE":0,"TOWNNAME":"中西區","LI":"安海里","LIN":"9鄰","STREET":"金華路","SECT":"三段","MAREA":" ","LANE":" ","ALLEY":" ","HOUSE_NO":"２１８號十三樓之１４","E_COORD97":167349.89999999999,"N_COORD97":2543920.5099999998,"ADDRESS":"金華路三段２１８號十三樓之１４","OBJECTID":561886},"geometry":{"x":167349.90000000224,"y":2543920.5100000016}},{"attributes":{"ID":561914,"DIS_CODE":0,"TOWNNAME":"中西區","LI":"安海里","LIN":"9鄰","STREET":"金華路","SECT":"三段","MAREA":" ","LANE":" ","ALLEY":" ","HOUSE_NO":"２１８號十三樓之１５","E_COORD97":167349.89999999999,"N_COORD97":2543920.5099999998,"ADDRESS":"金華路三段２１８號十三樓之１５","OBJECTID":561887},"geometry":{"x":167349.90000000224,"y":2543920.5100000016}},{"attributes":{"ID":561915,"DIS_CODE":0,"TOWNNAME":"中西區","LI":"安海里","LIN":"9鄰","STREET":"金華路","SECT":"三段","MAREA":" ","LANE":" ","ALLEY":" ","HOUSE_NO":"２１８號十三樓之１６","E_COORD97":167349.89999999999,"N_COORD97":2543920.5099999998,"ADDRESS":"金華路三段２１８號十三樓之１６","OBJECTID":561888},"geometry":{"x":167349.90000000224,"y":2543920.5100000016}},{"attributes":{"ID":561916,"DIS_CODE":0,"TOWNNAME":"中西區","LI":"安海里","LIN":"9鄰","STREET":"金華路","SECT":"三段","MAREA":" ","LANE":" ","ALLEY":" ","HOUSE_NO":"２１８號十三樓之１７","E_COORD97":167349.89999999999,"N_COORD97":2543920.5099999998,"ADDRESS":"金華路三段２１８號十三樓之１７","OBJECTID":561889},"geometry":{"x":167349.90000000224,"y":2543920.5100000016}},{"attributes":{"ID":561917,"DIS_CODE":0,"TOWNNAME":"仁德區","LI":"仁義里","LIN":"43鄰","STREET":"中正路","SECT":"二段","MAREA":" ","LANE":" ","ALLEY":" ","HOUSE_NO":"１０００號","E_COORD97":173424.60999999999,"N_COORD97":2540805.02,"ADDRESS":"中正路二段１０００號","OBJECTID":561890},"geometry":{"x":173424.61000000127,"y":2540805.0199999996}},{"attributes":{"ID":561918,"DIS_CODE":0,"TOWNNAME":"仁德區","LI":"仁義里","LIN":"1鄰","STREET":"義林五街","SECT":" ","MAREA":" ","LANE":" ","ALLEY":" ","HOUSE_NO":"５８號","E_COORD97":174325.39000000001,"N_COORD97":2541032.02,"ADDRESS":"義林五街５８號","OBJECTID":561891},"geometry":{"x":174325.3900000006,"y":2541032.0199999996}},{"attributes":{"ID":561919,"DIS_CODE":0,"TOWNNAME":"中西區","LI":"安海里","LIN":"9鄰","STREET":"金華路","SECT":"三段","MAREA":" ","LANE":" ","ALLEY":" ","HOUSE_NO":"２１８號十三樓之１８","E_COORD97":167349.89999999999,"N_COORD97":2543920.5099999998,"ADDRESS":"金華路三段２１８號十三樓之１８","OBJECTID":561892},"geometry":{"x":167349.90000000224,"y":2543920.5100000016}},{"attributes":{"ID":561920,"DIS_CODE":0,"TOWNNAME":"中西區","LI":"安海里","LIN":"9鄰","STREET":"金華路","SECT":"三段","MAREA":" ","LANE":" ","ALLEY":" ","HOUSE_NO":"２１８號十三樓之１９","E_COORD97":167349.89999999999,"N_COORD97":2543920.5099999998,"ADDRESS":"金華路三段２１８號十三樓之１９","OBJECTID":561893},"geometry":{"x":167349.90000000224,"y":2543920.5100000016}},{"attributes":{"ID":561921,"DIS_CODE":0,"TOWNNAME":"中西區","LI":"安海里","LIN":"9鄰","STREET":"金華路","SECT":"三段","MAREA":" ","LANE":" ","ALLEY":" ","HOUSE_NO":"２１８號十三樓之２","E_COORD97":167349.89999999999,"N_COORD97":2543920.5099999998,"ADDRESS":"金華路三段２１８號十三樓之２","OBJECTID":561894},"geometry":{"x":167349.90000000224,"y":2543920.5100000016}},{"attributes":{"ID":561922,"DIS_CODE":0,"TOWNNAME":"中西區","LI":"安海里","LIN":"9鄰","STREET":"金華路","SECT":"三段","MAREA":" ","LANE":" ","ALLEY":" ","HOUSE_NO":"２１８號十三樓之３","E_COORD97":167349.89999999999,"N_COORD97":2543920.5099999998,"ADDRESS":"金華路三段２１８號十三樓之３","OBJECTID":561895},"geometry":{"x":167349.90000000224,"y":2543920.5100000016}},{"attributes":{"ID":561923,"DIS_CODE":0,"TOWNNAME":"中西區","LI":"安海里","LIN":"9鄰","STREET":"金華路","SECT":"三段","MAREA":" ","LANE":" ","ALLEY":" ","HOUSE_NO":"２１８號十三樓之４","E_COORD97":167349.89999999999,"N_COORD97":2543920.5099999998,"ADDRESS":"金華路三段２１８號十三樓之４","OBJECTID":561896},"geometry":{"x":167349.90000000224,"y":2543920.5100000016}},{"attributes":{"ID":561924,"DIS_CODE":0,"TOWNNAME":"中西區","LI":"安海里","LIN":"9鄰","STREET":"金華路","SECT":"三段","MAREA":" ","LANE":" ","ALLEY":" ","HOUSE_NO":"２１８號十三樓之５","E_COORD97":167349.89999999999,"N_COORD97":2543920.5099999998,"ADDRESS":"金華路三段２１８號十三樓之５","OBJECTID":561897},"geometry":{"x":167349.90000000224,"y":2543920.5100000016}},{"attributes":{"ID":561925,"DIS_CODE":0,"TOWNNAME":"中西區","LI":"安海里","LIN":"9鄰","STREET":"金華路","SECT":"三段","MAREA":" ","LANE":" ","ALLEY":" ","HOUSE_NO":"２１８號十三樓之６","E_COORD97":167349.89999999999,"N_COORD97":2543920.5099999998,"ADDRESS":"金華路三段２１８號十三樓之６","OBJECTID":561898},"geometry":{"x":167349.90000000224,"y":2543920.5100000016}},{"attributes":{"ID":561926,"DIS_CODE":0,"TOWNNAME":"中西區","LI":"安海里","LIN":"9鄰","STREET":"金華路","SECT":"三段","MAREA":" ","LANE":" ","ALLEY":" ","HOUSE_NO":"２１８號十三樓之７","E_COORD97":167349.89999999999,"N_COORD97":2543920.5099999998,"ADDRESS":"金華路三段２１８號十三樓之７","OBJECTID":561899},"geometry":{"x":167349.90000000224,"y":2543920.5100000016}},{"attributes":{"ID":561927,"DIS_CODE":0,"TOWNNAME":"中西區","LI":"安海里","LIN":"9鄰","STREET":"金華路","SECT":"三段","MAREA":" ","LANE":" ","ALLEY":" ","HOUSE_NO":"２１８號十三樓之８","E_COORD97":167349.89999999999,"N_COORD97":2543920.5099999998,"ADDRESS":"金華路三段２１８號十三樓之８","OBJECTID":561900},"geometry":{"x":167349.90000000224,"y":2543920.5100000016}},{"attributes":{"ID":561928,"DIS_CODE":0,"TOWNNAME":"中西區","LI":"安海里","LIN":"9鄰","STREET":"金華路","SECT":"三段","MAREA":" ","LANE":" ","ALLEY":" ","HOUSE_NO":"２１８號十三樓之９","E_COORD97":167349.89999999999,"N_COORD97":2543920.5099999998,"ADDRESS":"金華路三段２１８號十三樓之９","OBJECTID":561901},"geometry":{"x":167349.90000000224,"y":2543920.5100000016}},{"attributes":{"ID":561929,"DIS_CODE":0,"TOWNNAME":"中西區","LI":"安海里","LIN":"9鄰","STREET":"金華路","SECT":"三段","MAREA":" ","LANE":" ","ALLEY":" ","HOUSE_NO":"２１８號十五樓之１","E_COORD97":167349.89999999999,"N_COORD97":2543920.5099999998,"ADDRESS":"金華路三段２１８號十五樓之１","OBJECTID":561902},"geometry":{"x":167349.90000000224,"y":2543920.5100000016}},{"attributes":{"ID":561930,"DIS_CODE":0,"TOWNNAME":"中西區","LI":"安海里","LIN":"9鄰","STREET":"金華路","SECT":"三段","MAREA":" ","LANE":" ","ALLEY":" ","HOUSE_NO":"２１８號十五樓之１０","E_COORD97":167349.89999999999,"N_COORD97":2543920.5099999998,"ADDRESS":"金華路三段２１８號十五樓之１０","OBJECTID":561903},"geometry":{"x":167349.90000000224,"y":2543920.5100000016}},{"attributes":{"ID":561931,"DIS_CODE":0,"TOWNNAME":"中西區","LI":"安海里","LIN":"9鄰","STREET":"金華路","SECT":"三段","MAREA":" ","LANE":" ","ALLEY":" ","HOUSE_NO":"２１８號十五樓之１１","E_COORD97":167349.89999999999,"N_COORD97":2543920.5099999998,"ADDRESS":"金華路三段２１８號十五樓之１１","OBJECTID":561904},"geometry":{"x":167349.90000000224,"y":2543920.5100000016}},{"attributes":{"ID":561932,"DIS_CODE":0,"TOWNNAME":"中西區","LI":"安海里","LIN":"9鄰","STREET":"金華路","SECT":"三段","MAREA":" ","LANE":" ","ALLEY":" ","HOUSE_NO":"２１８號十五樓之１２","E_COORD97":167349.89999999999,"N_COORD97":2543920.5099999998,"ADDRESS":"金華路三段２１８號十五樓之１２","OBJECTID":561905},"geometry":{"x":167349.90000000224,"y":2543920.5100000016}},{"attributes":{"ID":561933,"DIS_CODE":0,"TOWNNAME":"中西區","LI":"安海里","LIN":"9鄰","STREET":"金華路","SECT":"三段","MAREA":" ","LANE":" ","ALLEY":" ","HOUSE_NO":"２１８號十五樓之１３","E_COORD97":167349.89999999999,"N_COORD97":2543920.5099999998,"ADDRESS":"金華路三段２１８號十五樓之１３","OBJECTID":561906},"geometry":{"x":167349.90000000224,"y":2543920.5100000016}},{"attributes":{"ID":561934,"DIS_CODE":0,"TOWNNAME":"中西區","LI":"安海里","LIN":"9鄰","STREET":"金華路","SECT":"三段","MAREA":" ","LANE":" ","ALLEY":" ","HOUSE_NO":"２１８號十五樓之１４","E_COORD97":167349.89999999999,"N_COORD97":2543920.5099999998,"ADDRESS":"金華路三段２１８號十五樓之１４","OBJECTID":561907},"geometry":{"x":167349.90000000224,"y":2543920.5100000016}},{"attributes":{"ID":561935,"DIS_CODE":0,"TOWNNAME":"中西區","LI":"安海里","LIN":"9鄰","STREET":"金華路","SECT":"三段","MAREA":" ","LANE":" ","ALLEY":" ","HOUSE_NO":"２１８號十五樓之１５","E_COORD97":167349.89999999999,"N_COORD97":2543920.5099999998,"ADDRESS":"金華路三段２１８號十五樓之１５","OBJECTID":561908},"geometry":{"x":167349.90000000224,"y":2543920.5100000016}},{"attributes":{"ID":561936,"DIS_CODE":0,"TOWNNAME":"中西區","LI":"安海里","LIN":"9鄰","STREET":"金華路","SECT":"三段","MAREA":" ","LANE":" ","ALLEY":" ","HOUSE_NO":"２１８號十五樓之１６","E_COORD97":167349.89999999999,"N_COORD97":2543920.5099999998,"ADDRESS":"金華路三段２１８號十五樓之１６","OBJECTID":561909},"geometry":{"x":167349.90000000224,"y":2543920.5100000016}},{"attributes":{"ID":561937,"DIS_CODE":0,"TOWNNAME":"中西區","LI":"安海里","LIN":"9鄰","STREET":"金華路","SECT":"三段","MAREA":" ","LANE":" ","ALLEY":" ","HOUSE_NO":"２１８號十五樓之１７","E_COORD97":167349.89999999999,"N_COORD97":2543920.5099999998,"ADDRESS":"金華路三段２１８號十五樓之１７","OBJECTID":561910},"geometry":{"x":167349.90000000224,"y":2543920.5100000016}},{"attributes":{"ID":561938,"DIS_CODE":0,"TOWNNAME":"中西區","LI":"安海里","LIN":"9鄰","STREET":"金華路","SECT":"三段","MAREA":" ","LANE":" ","ALLEY":" ","HOUSE_NO":"２１８號十五樓之１８","E_COORD97":167349.89999999999,"N_COORD97":2543920.5099999998,"ADDRESS":"金華路三段２１８號十五樓之１８","OBJECTID":561911},"geometry":{"x":167349.90000000224,"y":2543920.5100000016}},{"attributes":{"ID":561939,"DIS_CODE":0,"TOWNNAME":"中西區","LI":"安海里","LIN":"9鄰","STREET":"金華路","SECT":"三段","MAREA":" ","LANE":" ","ALLEY":" ","HOUSE_NO":"２１８號十五樓之１９","E_COORD97":167349.89999999999,"N_COORD97":2543920.5099999998,"ADDRESS":"金華路三段２１８號十五樓之１９","OBJECTID":561912},"geometry":{"x":167349.90000000224,"y":2543920.5100000016}},{"attributes":{"ID":561940,"DIS_CODE":0,"TOWNNAME":"中西區","LI":"安海里","LIN":"9鄰","STREET":"金華路","SECT":"三段","MAREA":" ","LANE":" ","ALLEY":" ","HOUSE_NO":"２１８號十五樓之２","E_COORD97":167349.89999999999,"N_COORD97":2543920.5099999998,"ADDRESS":"金華路三段２１８號十五樓之２","OBJECTID":561913},"geometry":{"x":167349.90000000224,"y":2543920.5100000016}},{"attributes":{"ID":561941,"DIS_CODE":0,"TOWNNAME":"中西區","LI":"安海里","LIN":"9鄰","STREET":"金華路","SECT":"三段","MAREA":" ","LANE":" ","ALLEY":" ","HOUSE_NO":"２１８號十五樓之３","E_COORD97":167349.89999999999,"N_COORD97":2543920.5099999998,"ADDRESS":"金華路三段２１８號十五樓之３","OBJECTID":561914},"geometry":{"x":167349.90000000224,"y":2543920.5100000016}},{"attributes":{"ID":561942,"DIS_CODE":0,"TOWNNAME":"中西區","LI":"安海里","LIN":"9鄰","STREET":"金華路","SECT":"三段","MAREA":" ","LANE":" ","ALLEY":" ","HOUSE_NO":"２１８號十五樓之４","E_COORD97":167349.89999999999,"N_COORD97":2543920.5099999998,"ADDRESS":"金華路三段２１８號十五樓之４","OBJECTID":561915},"geometry":{"x":167349.90000000224,"y":2543920.5100000016}},{"attributes":{"ID":561943,"DIS_CODE":0,"TOWNNAME":"中西區","LI":"安海里","LIN":"9鄰","STREET":"金華路","SECT":"三段","MAREA":" ","LANE":" ","ALLEY":" ","HOUSE_NO":"２１８號十五樓之５","E_COORD97":167349.89999999999,"N_COORD97":2543920.5099999998,"ADDRESS":"金華路三段２１８號十五樓之５","OBJECTID":561916},"geometry":{"x":167349.90000000224,"y":2543920.5100000016}},{"attributes":{"ID":561944,"DIS_CODE":0,"TOWNNAME":"中西區","LI":"安海里","LIN":"9鄰","STREET":"金華路","SECT":"三段","MAREA":" ","LANE":" ","ALLEY":" ","HOUSE_NO":"２１８號十五樓之６","E_COORD97":167349.89999999999,"N_COORD97":2543920.5099999998,"ADDRESS":"金華路三段２１８號十五樓之６","OBJECTID":561917},"geometry":{"x":167349.90000000224,"y":2543920.5100000016}},{"attributes":{"ID":561945,"DIS_CODE":0,"TOWNNAME":"中西區","LI":"安海里","LIN":"9鄰","STREET":"金華路","SECT":"三段","MAREA":" ","LANE":" ","ALLEY":" ","HOUSE_NO":"２１８號十五樓之７","E_COORD97":167349.89999999999,"N_COORD97":2543920.5099999998,"ADDRESS":"金華路三段２１８號十五樓之７","OBJECTID":561918},"geometry":{"x":167349.90000000224,"y":2543920.5100000016}},{"attributes":{"ID":561946,"DIS_CODE":0,"TOWNNAME":"中西區","LI":"安海里","LIN":"9鄰","STREET":"金華路","SECT":"三段","MAREA":" ","LANE":" ","ALLEY":" ","HOUSE_NO":"２１８號十五樓之８","E_COORD97":167349.89999999999,"N_COORD97":2543920.5099999998,"ADDRESS":"金華路三段２１８號十五樓之８","OBJECTID":561919},"geometry":{"x":167349.90000000224,"y":2543920.5100000016}},{"attributes":{"ID":561947,"DIS_CODE":0,"TOWNNAME":"中西區","LI":"安海里","LIN":"9鄰","STREET":"金華路","SECT":"三段","MAREA":" ","LANE":" ","ALLEY":" ","HOUSE_NO":"２１８號十五樓之９","E_COORD97":167349.89999999999,"N_COORD97":2543920.5099999998,"ADDRESS":"金華路三段２１８號十五樓之９","OBJECTID":561920},"geometry":{"x":167349.90000000224,"y":2543920.5100000016}},{"attributes":{"ID":561948,"DIS_CODE":0,"TOWNNAME":"中西區","LI":"天后里","LIN":"14鄰","STREET":"郡緯街","SECT":" ","MAREA":" ","LANE":" ","ALLEY":" ","HOUSE_NO":"７號","E_COORD97":168193.04000000001,"N_COORD97":2544282.0699999998,"ADDRESS":"郡緯街７號","OBJECTID":561921},"geometry":{"x":168193.04000000097,"y":2544282.0700000022}},{"attributes":{"ID":561949,"DIS_CODE":0,"TOWNNAME":"中西區","LI":"安海里","LIN":"9鄰","STREET":"金華路","SECT":"三段","MAREA":" ","LANE":" ","ALLEY":" ","HOUSE_NO":"２１８號十六樓之１","E_COORD97":167349.89999999999,"N_COORD97":2543920.5099999998,"ADDRESS":"金華路三段２１８號十六樓之１","OBJECTID":561922},"geometry":{"x":167349.90000000224,"y":2543920.5100000016}},{"attributes":{"ID":561950,"DIS_CODE":0,"TOWNNAME":"中西區","LI":"安海里","LIN":"9鄰","STREET":"金華路","SECT":"三段","MAREA":" ","LANE":" ","ALLEY":" ","HOUSE_NO":"２１８號十六樓之１０","E_COORD97":167349.89999999999,"N_COORD97":2543920.5099999998,"ADDRESS":"金華路三段２１８號十六樓之１０","OBJECTID":561923},"geometry":{"x":167349.90000000224,"y":2543920.5100000016}},{"attributes":{"ID":561951,"DIS_CODE":0,"TOWNNAME":"中西區","LI":"安海里","LIN":"9鄰","STREET":"金華路","SECT":"三段","MAREA":" ","LANE":" ","ALLEY":" ","HOUSE_NO":"２１８號十六樓之１１","E_COORD97":167349.89999999999,"N_COORD97":2543920.5099999998,"ADDRESS":"金華路三段２１８號十六樓之１１","OBJECTID":561924},"geometry":{"x":167349.90000000224,"y":2543920.5100000016}},{"attributes":{"ID":561952,"DIS_CODE":0,"TOWNNAME":"中西區","LI":"安海里","LIN":"9鄰","STREET":"金華路","SECT":"三段","MAREA":" ","LANE":" ","ALLEY":" ","HOUSE_NO":"２１８號十六樓之１２","E_COORD97":167349.89999999999,"N_COORD97":2543920.5099999998,"ADDRESS":"金華路三段２１８號十六樓之１２","OBJECTID":561925},"geometry":{"x":167349.90000000224,"y":2543920.5100000016}},{"attributes":{"ID":561953,"DIS_CODE":0,"TOWNNAME":"中西區","LI":"安海里","LIN":"9鄰","STREET":"金華路","SECT":"三段","MAREA":" ","LANE":" ","ALLEY":" ","HOUSE_NO":"２１８號十六樓之１３","E_COORD97":167349.89999999999,"N_COORD97":2543920.5099999998,"ADDRESS":"金華路三段２１８號十六樓之１３","OBJECTID":561926},"geometry":{"x":167349.90000000224,"y":2543920.5100000016}},{"attributes":{"ID":561954,"DIS_CODE":0,"TOWNNAME":"中西區","LI":"安海里","LIN":"9鄰","STREET":"金華路","SECT":"三段","MAREA":" ","LANE":" ","ALLEY":" ","HOUSE_NO":"２１８號十六樓之１４","E_COORD97":167349.89999999999,"N_COORD97":2543920.5099999998,"ADDRESS":"金華路三段２１８號十六樓之１４","OBJECTID":561927},"geometry":{"x":167349.90000000224,"y":2543920.5100000016}},{"attributes":{"ID":561955,"DIS_CODE":0,"TOWNNAME":"中西區","LI":"安海里","LIN":"9鄰","STREET":"金華路","SECT":"三段","MAREA":" ","LANE":" ","ALLEY":" ","HOUSE_NO":"２１８號十六樓之１５","E_COORD97":167349.89999999999,"N_COORD97":2543920.5099999998,"ADDRESS":"金華路三段２１８號十六樓之１５","OBJECTID":561928},"geometry":{"x":167349.90000000224,"y":2543920.5100000016}},{"attributes":{"ID":561956,"DIS_CODE":0,"TOWNNAME":"中西區","LI":"安海里","LIN":"9鄰","STREET":"金華路","SECT":"三段","MAREA":" ","LANE":" ","ALLEY":" ","HOUSE_NO":"２１８號十六樓之１６","E_COORD97":167349.89999999999,"N_COORD97":2543920.5099999998,"ADDRESS":"金華路三段２１８號十六樓之１６","OBJECTID":561929},"geometry":{"x":167349.90000000224,"y":2543920.5100000016}},{"attributes":{"ID":561957,"DIS_CODE":0,"TOWNNAME":"中西區","LI":"安海里","LIN":"9鄰","STREET":"金華路","SECT":"三段","MAREA":" ","LANE":" ","ALLEY":" ","HOUSE_NO":"２１８號十六樓之１７","E_COORD97":167349.89999999999,"N_COORD97":2543920.5099999998,"ADDRESS":"金華路三段２１８號十六樓之１７","OBJECTID":561930},"geometry":{"x":167349.90000000224,"y":2543920.5100000016}},{"attributes":{"ID":561958,"DIS_CODE":0,"TOWNNAME":"中西區","LI":"安海里","LIN":"9鄰","STREET":"金華路","SECT":"三段","MAREA":" ","LANE":" ","ALLEY":" ","HOUSE_NO":"２１８號十六樓之１８","E_COORD97":167349.89999999999,"N_COORD97":2543920.5099999998,"ADDRESS":"金華路三段２１８號十六樓之１８","OBJECTID":561931},"geometry":{"x":167349.90000000224,"y":2543920.5100000016}},{"attributes":{"ID":561959,"DIS_CODE":0,"TOWNNAME":"中西區","LI":"安海里","LIN":"9鄰","STREET":"金華路","SECT":"三段","MAREA":" ","LANE":" ","ALLEY":" ","HOUSE_NO":"２１８號十六樓之１９","E_COORD97":167349.89999999999,"N_COORD97":2543920.5099999998,"ADDRESS":"金華路三段２１８號十六樓之１９","OBJECTID":561932},"geometry":{"x":167349.90000000224,"y":2543920.5100000016}},{"attributes":{"ID":561960,"DIS_CODE":0,"TOWNNAME":"中西區","LI":"安海里","LIN":"9鄰","STREET":"金華路","SECT":"三段","MAREA":" ","LANE":" ","ALLEY":" ","HOUSE_NO":"２１８號十六樓之２","E_COORD97":167349.89999999999,"N_COORD97":2543920.5099999998,"ADDRESS":"金華路三段２１８號十六樓之２","OBJECTID":561933},"geometry":{"x":167349.90000000224,"y":2543920.5100000016}},{"attributes":{"ID":561961,"DIS_CODE":0,"TOWNNAME":"中西區","LI":"安海里","LIN":"9鄰","STREET":"金華路","SECT":"三段","MAREA":" ","LANE":" ","ALLEY":" ","HOUSE_NO":"２１８號十六樓之３","E_COORD97":167349.89999999999,"N_COORD97":2543920.5099999998,"ADDRESS":"金華路三段２１８號十六樓之３","OBJECTID":561934},"geometry":{"x":167349.90000000224,"y":2543920.5100000016}},{"attributes":{"ID":561962,"DIS_CODE":0,"TOWNNAME":"中西區","LI":"安海里","LIN":"9鄰","STREET":"金華路","SECT":"三段","MAREA":" ","LANE":" ","ALLEY":" ","HOUSE_NO":"２１８號十六樓之４","E_COORD97":167349.89999999999,"N_COORD97":2543920.5099999998,"ADDRESS":"金華路三段２１８號十六樓之４","OBJECTID":561935},"geometry":{"x":167349.90000000224,"y":2543920.5100000016}},{"attributes":{"ID":561963,"DIS_CODE":0,"TOWNNAME":"中西區","LI":"安海里","LIN":"9鄰","STREET":"金華路","SECT":"三段","MAREA":" ","LANE":" ","ALLEY":" ","HOUSE_NO":"２１８號十六樓之５","E_COORD97":167349.89999999999,"N_COORD97":2543920.5099999998,"ADDRESS":"金華路三段２１８號十六樓之５","OBJECTID":561936},"geometry":{"x":167349.90000000224,"y":2543920.5100000016}},{"attributes":{"ID":561964,"DIS_CODE":0,"TOWNNAME":"中西區","LI":"安海里","LIN":"9鄰","STREET":"金華路","SECT":"三段","MAREA":" ","LANE":" ","ALLEY":" ","HOUSE_NO":"２１８號十六樓之６","E_COORD97":167349.89999999999,"N_COORD97":2543920.5099999998,"ADDRESS":"金華路三段２１８號十六樓之６","OBJECTID":561937},"geometry":{"x":167349.90000000224,"y":2543920.5100000016}},{"attributes":{"ID":561965,"DIS_CODE":0,"TOWNNAME":"中西區","LI":"安海里","LIN":"9鄰","STREET":"金華路","SECT":"三段","MAREA":" ","LANE":" ","ALLEY":" ","HOUSE_NO":"２１８號十六樓之７","E_COORD97":167349.89999999999,"N_COORD97":2543920.5099999998,"ADDRESS":"金華路三段２１８號十六樓之７","OBJECTID":561938},"geometry":{"x":167349.90000000224,"y":2543920.5100000016}},{"attributes":{"ID":561966,"DIS_CODE":0,"TOWNNAME":"中西區","LI":"安海里","LIN":"9鄰","STREET":"金華路","SECT":"三段","MAREA":" ","LANE":" ","ALLEY":" ","HOUSE_NO":"２１８號十六樓之８","E_COORD97":167349.89999999999,"N_COORD97":2543920.5099999998,"ADDRESS":"金華路三段２１８號十六樓之８","OBJECTID":561939},"geometry":{"x":167349.90000000224,"y":2543920.5100000016}},{"attributes":{"ID":561967,"DIS_CODE":0,"TOWNNAME":"中西區","LI":"安海里","LIN":"9鄰","STREET":"金華路","SECT":"三段","MAREA":" ","LANE":" ","ALLEY":" ","HOUSE_NO":"２１８號十六樓之９","E_COORD97":167349.89999999999,"N_COORD97":2543920.5099999998,"ADDRESS":"金華路三段２１８號十六樓之９","OBJECTID":561940},"geometry":{"x":167349.90000000224,"y":2543920.5100000016}},{"attributes":{"ID":561968,"DIS_CODE":0,"TOWNNAME":"中西區","LI":"安海里","LIN":"9鄰","STREET":"金華路","SECT":"三段","MAREA":" ","LANE":" ","ALLEY":" ","HOUSE_NO":"２１８號十四樓之１","E_COORD97":167349.89999999999,"N_COORD97":2543920.5099999998,"ADDRESS":"金華路三段２１８號十四樓之１","OBJECTID":561941},"geometry":{"x":167349.90000000224,"y":2543920.5100000016}},{"attributes":{"ID":561969,"DIS_CODE":0,"TOWNNAME":"中西區","LI":"安海里","LIN":"9鄰","STREET":"金華路","SECT":"三段","MAREA":" ","LANE":" ","ALLEY":" ","HOUSE_NO":"２１８號十四樓之１０","E_COORD97":167349.89999999999,"N_COORD97":2543920.5099999998,"ADDRESS":"金華路三段２１８號十四樓之１０","OBJECTID":561942},"geometry":{"x":167349.90000000224,"y":2543920.5100000016}},{"attributes":{"ID":561970,"DIS_CODE":0,"TOWNNAME":"中西區","LI":"安海里","LIN":"9鄰","STREET":"金華路","SECT":"三段","MAREA":" ","LANE":" ","ALLEY":" ","HOUSE_NO":"２１８號十四樓之１１","E_COORD97":167349.89999999999,"N_COORD97":2543920.5099999998,"ADDRESS":"金華路三段２１８號十四樓之１１","OBJECTID":561943},"geometry":{"x":167349.90000000224,"y":2543920.5100000016}},{"attributes":{"ID":561971,"DIS_CODE":0,"TOWNNAME":"中西區","LI":"安海里","LIN":"9鄰","STREET":"金華路","SECT":"三段","MAREA":" ","LANE":" ","ALLEY":" ","HOUSE_NO":"２１８號十四樓之１２","E_COORD97":167349.89999999999,"N_COORD97":2543920.5099999998,"ADDRESS":"金華路三段２１８號十四樓之１２","OBJECTID":561944},"geometry":{"x":167349.90000000224,"y":2543920.5100000016}},{"attributes":{"ID":561972,"DIS_CODE":0,"TOWNNAME":"中西區","LI":"安海里","LIN":"9鄰","STREET":"金華路","SECT":"三段","MAREA":" ","LANE":" ","ALLEY":" ","HOUSE_NO":"２１８號十四樓之１３","E_COORD97":167349.89999999999,"N_COORD97":2543920.5099999998,"ADDRESS":"金華路三段２１８號十四樓之１３","OBJECTID":561945},"geometry":{"x":167349.90000000224,"y":2543920.5100000016}},{"attributes":{"ID":561973,"DIS_CODE":0,"TOWNNAME":"中西區","LI":"安海里","LIN":"9鄰","STREET":"金華路","SECT":"三段","MAREA":" ","LANE":" ","ALLEY":" ","HOUSE_NO":"２１８號十四樓之１４","E_COORD97":167349.89999999999,"N_COORD97":2543920.5099999998,"ADDRESS":"金華路三段２１８號十四樓之１４","OBJECTID":561946},"geometry":{"x":167349.90000000224,"y":2543920.5100000016}},{"attributes":{"ID":561974,"DIS_CODE":0,"TOWNNAME":"中西區","LI":"安海里","LIN":"9鄰","STREET":"金華路","SECT":"三段","MAREA":" ","LANE":" ","ALLEY":" ","HOUSE_NO":"２１８號十四樓之１５","E_COORD97":167349.89999999999,"N_COORD97":2543920.5099999998,"ADDRESS":"金華路三段２１８號十四樓之１５","OBJECTID":561947},"geometry":{"x":167349.90000000224,"y":2543920.5100000016}},{"attributes":{"ID":561975,"DIS_CODE":0,"TOWNNAME":"中西區","LI":"安海里","LIN":"9鄰","STREET":"金華路","SECT":"三段","MAREA":" ","LANE":" ","ALLEY":" ","HOUSE_NO":"２１８號十四樓之１６","E_COORD97":167349.89999999999,"N_COORD97":2543920.5099999998,"ADDRESS":"金華路三段２１８號十四樓之１６","OBJECTID":561948},"geometry":{"x":167349.90000000224,"y":2543920.5100000016}},{"attributes":{"ID":561976,"DIS_CODE":0,"TOWNNAME":"中西區","LI":"安海里","LIN":"9鄰","STREET":"金華路","SECT":"三段","MAREA":" ","LANE":" ","ALLEY":" ","HOUSE_NO":"２１８號十四樓之１７","E_COORD97":167349.89999999999,"N_COORD97":2543920.5099999998,"ADDRESS":"金華路三段２１８號十四樓之１７","OBJECTID":561949},"geometry":{"x":167349.90000000224,"y":2543920.5100000016}},{"attributes":{"ID":561977,"DIS_CODE":0,"TOWNNAME":"中西區","LI":"安海里","LIN":"9鄰","STREET":"金華路","SECT":"三段","MAREA":" ","LANE":" ","ALLEY":" ","HOUSE_NO":"２１８號十四樓之１８","E_COORD97":167349.89999999999,"N_COORD97":2543920.5099999998,"ADDRESS":"金華路三段２１８號十四樓之１８","OBJECTID":561950},"geometry":{"x":167349.90000000224,"y":2543920.5100000016}},{"attributes":{"ID":561978,"DIS_CODE":0,"TOWNNAME":"中西區","LI":"安海里","LIN":"9鄰","STREET":"金華路","SECT":"三段","MAREA":" ","LANE":" ","ALLEY":" ","HOUSE_NO":"２１８號十四樓之１９","E_COORD97":167349.89999999999,"N_COORD97":2543920.5099999998,"ADDRESS":"金華路三段２１８號十四樓之１９","OBJECTID":561951},"geometry":{"x":167349.90000000224,"y":2543920.5100000016}},{"attributes":{"ID":561979,"DIS_CODE":0,"TOWNNAME":"中西區","LI":"安海里","LIN":"9鄰","STREET":"金華路","SECT":"三段","MAREA":" ","LANE":" ","ALLEY":" ","HOUSE_NO":"２１８號十四樓之２","E_COORD97":167349.89999999999,"N_COORD97":2543920.5099999998,"ADDRESS":"金華路三段２１８號十四樓之２","OBJECTID":561952},"geometry":{"x":167349.90000000224,"y":2543920.5100000016}},{"attributes":{"ID":561980,"DIS_CODE":0,"TOWNNAME":"中西區","LI":"安海里","LIN":"9鄰","STREET":"金華路","SECT":"三段","MAREA":" ","LANE":" ","ALLEY":" ","HOUSE_NO":"２１８號十四樓之３","E_COORD97":167349.89999999999,"N_COORD97":2543920.5099999998,"ADDRESS":"金華路三段２１８號十四樓之３","OBJECTID":561953},"geometry":{"x":167349.90000000224,"y":2543920.5100000016}},{"attributes":{"ID":561981,"DIS_CODE":0,"TOWNNAME":"中西區","LI":"安海里","LIN":"9鄰","STREET":"金華路","SECT":"三段","MAREA":" ","LANE":" ","ALLEY":" ","HOUSE_NO":"２１８號十四樓之４","E_COORD97":167349.89999999999,"N_COORD97":2543920.5099999998,"ADDRESS":"金華路三段２１８號十四樓之４","OBJECTID":561954},"geometry":{"x":167349.90000000224,"y":2543920.5100000016}},{"attributes":{"ID":561982,"DIS_CODE":0,"TOWNNAME":"中西區","LI":"安海里","LIN":"9鄰","STREET":"金華路","SECT":"三段","MAREA":" ","LANE":" ","ALLEY":" ","HOUSE_NO":"２１８號十四樓之５","E_COORD97":167349.89999999999,"N_COORD97":2543920.5099999998,"ADDRESS":"金華路三段２１８號十四樓之５","OBJECTID":561955},"geometry":{"x":167349.90000000224,"y":2543920.5100000016}},{"attributes":{"ID":561983,"DIS_CODE":0,"TOWNNAME":"中西區","LI":"安海里","LIN":"9鄰","STREET":"金華路","SECT":"三段","MAREA":" ","LANE":" ","ALLEY":" ","HOUSE_NO":"２１８號十四樓之６","E_COORD97":167349.89999999999,"N_COORD97":2543920.5099999998,"ADDRESS":"金華路三段２１８號十四樓之６","OBJECTID":561956},"geometry":{"x":167349.90000000224,"y":2543920.5100000016}},{"attributes":{"ID":561984,"DIS_CODE":0,"TOWNNAME":"中西區","LI":"安海里","LIN":"9鄰","STREET":"金華路","SECT":"三段","MAREA":" ","LANE":" ","ALLEY":" ","HOUSE_NO":"２１８號十四樓之７","E_COORD97":167349.89999999999,"N_COORD97":2543920.5099999998,"ADDRESS":"金華路三段２１８號十四樓之７","OBJECTID":561957},"geometry":{"x":167349.90000000224,"y":2543920.5100000016}},{"attributes":{"ID":561985,"DIS_CODE":0,"TOWNNAME":"中西區","LI":"安海里","LIN":"9鄰","STREET":"金華路","SECT":"三段","MAREA":" ","LANE":" ","ALLEY":" ","HOUSE_NO":"２１８號十四樓之８","E_COORD97":167349.89999999999,"N_COORD97":2543920.5099999998,"ADDRESS":"金華路三段２１８號十四樓之８","OBJECTID":561958},"geometry":{"x":167349.90000000224,"y":2543920.5100000016}},{"attributes":{"ID":561986,"DIS_CODE":0,"TOWNNAME":"中西區","LI":"安海里","LIN":"9鄰","STREET":"金華路","SECT":"三段","MAREA":" ","LANE":" ","ALLEY":" ","HOUSE_NO":"２１８號十四樓之９","E_COORD97":167349.89999999999,"N_COORD97":2543920.5099999998,"ADDRESS":"金華路三段２１８號十四樓之９","OBJECTID":561959},"geometry":{"x":167349.90000000224,"y":2543920.5100000016}},{"attributes":{"ID":561987,"DIS_CODE":0,"TOWNNAME":"中西區","LI":"安海里","LIN":"9鄰","STREET":"金華路","SECT":"三段","MAREA":" ","LANE":" ","ALLEY":" ","HOUSE_NO":"２１８號十樓之１","E_COORD97":167349.89999999999,"N_COORD97":2543920.5099999998,"ADDRESS":"金華路三段２１８號十樓之１","OBJECTID":561960},"geometry":{"x":167349.90000000224,"y":2543920.5100000016}},{"attributes":{"ID":561988,"DIS_CODE":0,"TOWNNAME":"中西區","LI":"安海里","LIN":"9鄰","STREET":"金華路","SECT":"三段","MAREA":" ","LANE":" ","ALLEY":" ","HOUSE_NO":"２１８號十樓之１０","E_COORD97":167349.89999999999,"N_COORD97":2543920.5099999998,"ADDRESS":"金華路三段２１８號十樓之１０","OBJECTID":561961},"geometry":{"x":167349.90000000224,"y":2543920.5100000016}},{"attributes":{"ID":561989,"DIS_CODE":0,"TOWNNAME":"中西區","LI":"安海里","LIN":"9鄰","STREET":"金華路","SECT":"三段","MAREA":" ","LANE":" ","ALLEY":" ","HOUSE_NO":"２１８號十樓之１１","E_COORD97":167349.89999999999,"N_COORD97":2543920.5099999998,"ADDRESS":"金華路三段２１８號十樓之１１","OBJECTID":561962},"geometry":{"x":167349.90000000224,"y":2543920.5100000016}},{"attributes":{"ID":561990,"DIS_CODE":0,"TOWNNAME":"中西區","LI":"安海里","LIN":"9鄰","STREET":"金華路","SECT":"三段","MAREA":" ","LANE":" ","ALLEY":" ","HOUSE_NO":"２１８號十樓之１２","E_COORD97":167349.89999999999,"N_COORD97":2543920.5099999998,"ADDRESS":"金華路三段２１８號十樓之１２","OBJECTID":561963},"geometry":{"x":167349.90000000224,"y":2543920.5100000016}},{"attributes":{"ID":561991,"DIS_CODE":0,"TOWNNAME":"中西區","LI":"安海里","LIN":"9鄰","STREET":"金華路","SECT":"三段","MAREA":" ","LANE":" ","ALLEY":" ","HOUSE_NO":"２１８號十樓之１３","E_COORD97":167349.89999999999,"N_COORD97":2543920.5099999998,"ADDRESS":"金華路三段２１８號十樓之１３","OBJECTID":561964},"geometry":{"x":167349.90000000224,"y":2543920.5100000016}},{"attributes":{"ID":561992,"DIS_CODE":0,"TOWNNAME":"中西區","LI":"安海里","LIN":"9鄰","STREET":"金華路","SECT":"三段","MAREA":" ","LANE":" ","ALLEY":" ","HOUSE_NO":"２１８號十樓之１４","E_COORD97":167349.89999999999,"N_COORD97":2543920.5099999998,"ADDRESS":"金華路三段２１８號十樓之１４","OBJECTID":561965},"geometry":{"x":167349.90000000224,"y":2543920.5100000016}},{"attributes":{"ID":561993,"DIS_CODE":0,"TOWNNAME":"中西區","LI":"安海里","LIN":"9鄰","STREET":"金華路","SECT":"三段","MAREA":" ","LANE":" ","ALLEY":" ","HOUSE_NO":"２１８號十樓之１５","E_COORD97":167349.89999999999,"N_COORD97":2543920.5099999998,"ADDRESS":"金華路三段２１８號十樓之１５","OBJECTID":561966},"geometry":{"x":167349.90000000224,"y":2543920.5100000016}},{"attributes":{"ID":561994,"DIS_CODE":0,"TOWNNAME":"中西區","LI":"安海里","LIN":"9鄰","STREET":"金華路","SECT":"三段","MAREA":" ","LANE":" ","ALLEY":" ","HOUSE_NO":"２１８號十樓之１６","E_COORD97":167349.89999999999,"N_COORD97":2543920.5099999998,"ADDRESS":"金華路三段２１８號十樓之１６","OBJECTID":561967},"geometry":{"x":167349.90000000224,"y":2543920.5100000016}},{"attributes":{"ID":561995,"DIS_CODE":0,"TOWNNAME":"中西區","LI":"安海里","LIN":"9鄰","STREET":"金華路","SECT":"三段","MAREA":" ","LANE":" ","ALLEY":" ","HOUSE_NO":"２１８號十樓之１７","E_COORD97":167349.89999999999,"N_COORD97":2543920.5099999998,"ADDRESS":"金華路三段２１８號十樓之１７","OBJECTID":561968},"geometry":{"x":167349.90000000224,"y":2543920.5100000016}},{"attributes":{"ID":561996,"DIS_CODE":0,"TOWNNAME":"中西區","LI":"安海里","LIN":"9鄰","STREET":"金華路","SECT":"三段","MAREA":" ","LANE":" ","ALLEY":" ","HOUSE_NO":"２１８號十樓之１８","E_COORD97":167349.89999999999,"N_COORD97":2543920.5099999998,"ADDRESS":"金華路三段２１８號十樓之１８","OBJECTID":561969},"geometry":{"x":167349.90000000224,"y":2543920.5100000016}},{"attributes":{"ID":561997,"DIS_CODE":0,"TOWNNAME":"中西區","LI":"安海里","LIN":"9鄰","STREET":"金華路","SECT":"三段","MAREA":" ","LANE":" ","ALLEY":" ","HOUSE_NO":"２１８號十樓之１９","E_COORD97":167349.89999999999,"N_COORD97":2543920.5099999998,"ADDRESS":"金華路三段２１８號十樓之１９","OBJECTID":561970},"geometry":{"x":167349.90000000224,"y":2543920.5100000016}},{"attributes":{"ID":561998,"DIS_CODE":0,"TOWNNAME":"中西區","LI":"安海里","LIN":"9鄰","STREET":"金華路","SECT":"三段","MAREA":" ","LANE":" ","ALLEY":" ","HOUSE_NO":"２１８號十樓之２","E_COORD97":167349.89999999999,"N_COORD97":2543920.5099999998,"ADDRESS":"金華路三段２１８號十樓之２","OBJECTID":561971},"geometry":{"x":167349.90000000224,"y":2543920.5100000016}},{"attributes":{"ID":561999,"DIS_CODE":0,"TOWNNAME":"中西區","LI":"安海里","LIN":"9鄰","STREET":"金華路","SECT":"三段","MAREA":" ","LANE":" ","ALLEY":" ","HOUSE_NO":"２１８號十樓之３","E_COORD97":167349.89999999999,"N_COORD97":2543920.5099999998,"ADDRESS":"金華路三段２１８號十樓之３","OBJECTID":561972},"geometry":{"x":167349.90000000224,"y":2543920.5100000016}},{"attributes":{"ID":562000,"DIS_CODE":0,"TOWNNAME":"中西區","LI":"安海里","LIN":"9鄰","STREET":"金華路","SECT":"三段","MAREA":" ","LANE":" ","ALLEY":" ","HOUSE_NO":"２１８號十樓之４","E_COORD97":167349.89999999999,"N_COORD97":2543920.5099999998,"ADDRESS":"金華路三段２１８號十樓之４","OBJECTID":561973},"geometry":{"x":167349.90000000224,"y":2543920.5100000016}},{"attributes":{"ID":562001,"DIS_CODE":0,"TOWNNAME":"中西區","LI":"安海里","LIN":"9鄰","STREET":"金華路","SECT":"三段","MAREA":" ","LANE":" ","ALLEY":" ","HOUSE_NO":"２１８號十樓之５","E_COORD97":167349.89999999999,"N_COORD97":2543920.5099999998,"ADDRESS":"金華路三段２１８號十樓之５","OBJECTID":561974},"geometry":{"x":167349.90000000224,"y":2543920.5100000016}},{"attributes":{"ID":562002,"DIS_CODE":0,"TOWNNAME":"中西區","LI":"安海里","LIN":"9鄰","STREET":"金華路","SECT":"三段","MAREA":" ","LANE":" ","ALLEY":" ","HOUSE_NO":"２１８號十樓之６","E_COORD97":167349.89999999999,"N_COORD97":2543920.5099999998,"ADDRESS":"金華路三段２１８號十樓之６","OBJECTID":561975},"geometry":{"x":167349.90000000224,"y":2543920.5100000016}},{"attributes":{"ID":562003,"DIS_CODE":0,"TOWNNAME":"中西區","LI":"安海里","LIN":"9鄰","STREET":"金華路","SECT":"三段","MAREA":" ","LANE":" ","ALLEY":" ","HOUSE_NO":"２１８號十樓之７","E_COORD97":167349.89999999999,"N_COORD97":2543920.5099999998,"ADDRESS":"金華路三段２１８號十樓之７","OBJECTID":561976},"geometry":{"x":167349.90000000224,"y":2543920.5100000016}},{"attributes":{"ID":562004,"DIS_CODE":0,"TOWNNAME":"中西區","LI":"安海里","LIN":"9鄰","STREET":"金華路","SECT":"三段","MAREA":" ","LANE":" ","ALLEY":" ","HOUSE_NO":"２１８號十樓之８","E_COORD97":167349.89999999999,"N_COORD97":2543920.5099999998,"ADDRESS":"金華路三段２１８號十樓之８","OBJECTID":561977},"geometry":{"x":167349.90000000224,"y":2543920.5100000016}},{"attributes":{"ID":562005,"DIS_CODE":0,"TOWNNAME":"中西區","LI":"安海里","LIN":"9鄰","STREET":"金華路","SECT":"三段","MAREA":" ","LANE":" ","ALLEY":" ","HOUSE_NO":"２１８號十樓之９","E_COORD97":167349.89999999999,"N_COORD97":2543920.5099999998,"ADDRESS":"金華路三段２１８號十樓之９","OBJECTID":561978},"geometry":{"x":167349.90000000224,"y":2543920.5100000016}},{"attributes":{"ID":562006,"DIS_CODE":0,"TOWNNAME":"東區","LI":"裕聖里","LIN":"9鄰","STREET":"裕信路","SECT":" ","MAREA":" ","LANE":" ","ALLEY":" ","HOUSE_NO":"４０７號四樓之１","E_COORD97":172597.14999999999,"N_COORD97":2541990.9399999999,"ADDRESS":"裕信路４０７號四樓之１","OBJECTID":561979},"geometry":{"x":172597.1500000013,"y":2541990.9400000013}},{"attributes":{"ID":562007,"DIS_CODE":0,"TOWNNAME":"東區","LI":"裕聖里","LIN":"9鄰","STREET":"裕信路","SECT":" ","MAREA":" ","LANE":" ","ALLEY":" ","HOUSE_NO":"４１７號七樓","E_COORD97":172591.28,"N_COORD97":2541967.8599999999,"ADDRESS":"裕信路４１７號七樓","OBJECTID":561980},"geometry":{"x":172591.28000000026,"y":2541967.8600000013}},{"attributes":{"ID":562008,"DIS_CODE":0,"TOWNNAME":"東區","LI":"裕聖里","LIN":"9鄰","STREET":"裕信路","SECT":" ","MAREA":" ","LANE":" ","ALLEY":" ","HOUSE_NO":"４１７號七樓之１","E_COORD97":172591.28,"N_COORD97":2541967.8599999999,"ADDRESS":"裕信路４１７號七樓之１","OBJECTID":561981},"geometry":{"x":172591.28000000026,"y":2541967.8600000013}},{"attributes":{"ID":562009,"DIS_CODE":0,"TOWNNAME":"東區","LI":"裕聖里","LIN":"9鄰","STREET":"裕信路","SECT":" ","MAREA":" ","LANE":" ","ALLEY":" ","HOUSE_NO":"４１７號九樓","E_COORD97":172591.28,"N_COORD97":2541967.8599999999,"ADDRESS":"裕信路４１７號九樓","OBJECTID":561982},"geometry":{"x":172591.28000000026,"y":2541967.8600000013}},{"attributes":{"ID":562010,"DIS_CODE":0,"TOWNNAME":"東區","LI":"裕聖里","LIN":"9鄰","STREET":"裕信路","SECT":" ","MAREA":" ","LANE":" ","ALLEY":" ","HOUSE_NO":"４１７號九樓之１","E_COORD97":172591.28,"N_COORD97":2541967.8599999999,"ADDRESS":"裕信路４１７號九樓之１","OBJECTID":561983},"geometry":{"x":172591.28000000026,"y":2541967.8600000013}},{"attributes":{"ID":562011,"DIS_CODE":0,"TOWNNAME":"東區","LI":"裕聖里","LIN":"9鄰","STREET":"裕信路","SECT":" ","MAREA":" ","LANE":" ","ALLEY":" ","HOUSE_NO":"４１７號二樓","E_COORD97":172591.28,"N_COORD97":2541967.8599999999,"ADDRESS":"裕信路４１７號二樓","OBJECTID":561984},"geometry":{"x":172591.28000000026,"y":2541967.8600000013}},{"attributes":{"ID":562012,"DIS_CODE":0,"TOWNNAME":"東區","LI":"裕聖里","LIN":"9鄰","STREET":"裕信路","SECT":" ","MAREA":" ","LANE":" ","ALLEY":" ","HOUSE_NO":"４１７號二樓之１","E_COORD97":172591.28,"N_COORD97":2541967.8599999999,"ADDRESS":"裕信路４１７號二樓之１","OBJECTID":561985},"geometry":{"x":172591.28000000026,"y":2541967.8600000013}},{"attributes":{"ID":562013,"DIS_CODE":0,"TOWNNAME":"東區","LI":"裕聖里","LIN":"9鄰","STREET":"裕信路","SECT":" ","MAREA":" ","LANE":" ","ALLEY":" ","HOUSE_NO":"４１７號二樓之２","E_COORD97":172591.28,"N_COORD97":2541967.8599999999,"ADDRESS":"裕信路４１７號二樓之２","OBJECTID":561986},"geometry":{"x":172591.28000000026,"y":2541967.8600000013}},{"attributes":{"ID":562014,"DIS_CODE":0,"TOWNNAME":"東區","LI":"裕聖里","LIN":"9鄰","STREET":"裕信路","SECT":" ","MAREA":" ","LANE":" ","ALLEY":" ","HOUSE_NO":"４１７號八樓","E_COORD97":172591.28,"N_COORD97":2541967.8599999999,"ADDRESS":"裕信路４１７號八樓","OBJECTID":561987},"geometry":{"x":172591.28000000026,"y":2541967.8600000013}},{"attributes":{"ID":562015,"DIS_CODE":0,"TOWNNAME":"仁德區","LI":"太子里","LIN":"33鄰","STREET":"太子三街","SECT":" ","MAREA":" ","LANE":" ","ALLEY":" ","HOUSE_NO":"１５號","E_COORD97":174030.92999999999,"N_COORD97":2543451.5099999998,"ADDRESS":"太子三街１５號","OBJECTID":561988},"geometry":{"x":174030.9299999997,"y":2543451.5100000016}},{"attributes":{"ID":562016,"DIS_CODE":0,"TOWNNAME":"東區","LI":"裕聖里","LIN":"9鄰","STREET":"裕信路","SECT":" ","MAREA":" ","LANE":" ","ALLEY":" ","HOUSE_NO":"４１７號三樓","E_COORD97":172591.28,"N_COORD97":2541967.8599999999,"ADDRESS":"裕信路４１７號三樓","OBJECTID":561989},"geometry":{"x":172591.28000000026,"y":2541967.8600000013}},{"attributes":{"ID":562017,"DIS_CODE":0,"TOWNNAME":"東區","LI":"裕聖里","LIN":"9鄰","STREET":"裕信路","SECT":" ","MAREA":" ","LANE":" ","ALLEY":" ","HOUSE_NO":"４１７號三樓之１","E_COORD97":172591.28,"N_COORD97":2541967.8599999999,"ADDRESS":"裕信路４１７號三樓之１","OBJECTID":561990},"geometry":{"x":172591.28000000026,"y":2541967.8600000013}},{"attributes":{"ID":562018,"DIS_CODE":0,"TOWNNAME":"東區","LI":"裕聖里","LIN":"9鄰","STREET":"裕信路","SECT":" ","MAREA":" ","LANE":" ","ALLEY":" ","HOUSE_NO":"４１７號三樓之２","E_COORD97":172591.28,"N_COORD97":2541967.8599999999,"ADDRESS":"裕信路４１７號三樓之２","OBJECTID":561991},"geometry":{"x":172591.28000000026,"y":2541967.8600000013}},{"attributes":{"ID":562019,"DIS_CODE":0,"TOWNNAME":"東區","LI":"裕聖里","LIN":"9鄰","STREET":"裕信路","SECT":" ","MAREA":" ","LANE":" ","ALLEY":" ","HOUSE_NO":"４１７號五樓","E_COORD97":172591.28,"N_COORD97":2541967.8599999999,"ADDRESS":"裕信路４１７號五樓","OBJECTID":561992},"geometry":{"x":172591.28000000026,"y":2541967.8600000013}},{"attributes":{"ID":562020,"DIS_CODE":0,"TOWNNAME":"東區","LI":"裕聖里","LIN":"9鄰","STREET":"裕信路","SECT":" ","MAREA":" ","LANE":" ","ALLEY":" ","HOUSE_NO":"４１７號六樓","E_COORD97":172591.28,"N_COORD97":2541967.8599999999,"ADDRESS":"裕信路４１７號六樓","OBJECTID":561993},"geometry":{"x":172591.28000000026,"y":2541967.8600000013}},{"attributes":{"ID":562021,"DIS_CODE":0,"TOWNNAME":"東區","LI":"裕聖里","LIN":"9鄰","STREET":"裕信路","SECT":" ","MAREA":" ","LANE":" ","ALLEY":" ","HOUSE_NO":"４１７號六樓之１","E_COORD97":172591.28,"N_COORD97":2541967.8599999999,"ADDRESS":"裕信路４１７號六樓之１","OBJECTID":561994},"geometry":{"x":172591.28000000026,"y":2541967.8600000013}},{"attributes":{"ID":562022,"DIS_CODE":0,"TOWNNAME":"東區","LI":"裕聖里","LIN":"9鄰","STREET":"裕信路","SECT":" ","MAREA":" ","LANE":" ","ALLEY":" ","HOUSE_NO":"４１７號四樓","E_COORD97":172591.28,"N_COORD97":2541967.8599999999,"ADDRESS":"裕信路４１７號四樓","OBJECTID":561995},"geometry":{"x":172591.28000000026,"y":2541967.8600000013}},{"attributes":{"ID":562023,"DIS_CODE":0,"TOWNNAME":"東區","LI":"裕聖里","LIN":"9鄰","STREET":"裕信路","SECT":" ","MAREA":" ","LANE":" ","ALLEY":" ","HOUSE_NO":"４１７號四樓之１","E_COORD97":172591.28,"N_COORD97":2541967.8599999999,"ADDRESS":"裕信路４１７號四樓之１","OBJECTID":561996},"geometry":{"x":172591.28000000026,"y":2541967.8600000013}},{"attributes":{"ID":562024,"DIS_CODE":0,"TOWNNAME":"東區","LI":"裕聖里","LIN":"9鄰","STREET":"裕信路","SECT":" ","MAREA":" ","LANE":" ","ALLEY":" ","HOUSE_NO":"４２３號七樓","E_COORD97":172587.64000000001,"N_COORD97":2541952.3300000001,"ADDRESS":"裕信路４２３號七樓","OBJECTID":561997},"geometry":{"x":172587.6400000006,"y":2541952.3300000001}},{"attributes":{"ID":562025,"DIS_CODE":0,"TOWNNAME":"仁德區","LI":"仁義里","LIN":"30鄰","STREET":"中清二街","SECT":" ","MAREA":" ","LANE":" ","ALLEY":" ","HOUSE_NO":"２４號","E_COORD97":173574.87,"N_COORD97":2541464.7999999998,"ADDRESS":"中清二街２４號","OBJECTID":561998},"geometry":{"x":173574.87000000104,"y":2541464.8000000026}},{"attributes":{"ID":562026,"DIS_CODE":0,"TOWNNAME":"東區","LI":"裕聖里","LIN":"9鄰","STREET":"裕信路","SECT":" ","MAREA":" ","LANE":" ","ALLEY":" ","HOUSE_NO":"４２３號七樓之１","E_COORD97":172587.64000000001,"N_COORD97":2541952.3300000001,"ADDRESS":"裕信路４２３號七樓之１","OBJECTID":561999},"geometry":{"x":172587.6400000006,"y":2541952.3300000001}},{"attributes":{"ID":562027,"DIS_CODE":0,"TOWNNAME":"東區","LI":"裕聖里","LIN":"9鄰","STREET":"裕信路","SECT":" ","MAREA":" ","LANE":" ","ALLEY":" ","HOUSE_NO":"４２３號九樓","E_COORD97":172587.64000000001,"N_COORD97":2541952.3300000001,"ADDRESS":"裕信路４２３號九樓","OBJECTID":562000},"geometry":{"x":172587.6400000006,"y":2541952.3300000001}}]}