{"displayFieldName":"TOWNNAME","fieldAliases":{"ID":"ID","DIS_CODE":"DIS_CODE","TOWNNAME":"TOWNNAME","LI":"LI","LIN":"LIN","STREET":"STREET","SECT":"SECT","MAREA":"MAREA","LANE":"LANE","ALLEY":"ALLEY","HOUSE_NO":"HOUSE_NO","E_COORD97":"E_COORD97","N_COORD97":"N_COORD97","ADDRESS":"ADDRESS","OBJECTID":"OBJECTID"},"geometryType":"esriGeometryPoint","spatialReference":{"wkid":102443,"latestWkid":3826},"fields":[{"name":"ID","type":"esriFieldTypeDouble","alias":"ID"},{"name":"DIS_CODE","type":"esriFieldTypeInteger","alias":"DIS_CODE"},{"name":"TOWNNAME","type":"esriFieldTypeString","alias":"TOWNNAME","length":8},{"name":"LI","type":"esriFieldTypeString","alias":"LI","length":8},{"name":"LIN","type":"esriFieldTypeString","alias":"LIN","length":12},{"name":"STREET","type":"esriFieldTypeString","alias":"STREET","length":20},{"name":"SECT","type":"esriFieldTypeString","alias":"SECT","length":8},{"name":"MAREA","type":"esriFieldTypeString","alias":"MAREA","length":12},{"name":"LANE","type":"esriFieldTypeString","alias":"LANE","length":10},{"name":"ALLEY","type":"esriFieldTypeString","alias":"ALLEY","length":10},{"name":"HOUSE_NO","type":"esriFieldTypeString","alias":"HOUSE_NO","length":20},{"name":"E_COORD97","type":"esriFieldTypeDouble","alias":"E_COORD97"},{"name":"N_COORD97","type":"esriFieldTypeDouble","alias":"N_COORD97"},{"name":"ADDRESS","type":"esriFieldTypeString","alias":"ADDRESS","length":50},{"name":"OBJECTID","type":"esriFieldTypeOID","alias":"OBJECTID"}],"features":[{"attributes":{"ID":493628,"DIS_CODE":0,"TOWNNAME":"永康區","LI":"永康里","LIN":"39鄰","STREET":"永忠路","SECT":" ","MAREA":" ","LANE":" ","ALLEY":" ","HOUSE_NO":"２６號","E_COORD97":174251.98000000001,"N_COORD97":2546409.98,"ADDRESS":"永忠路２６號","OBJECTID":493601},"geometry":{"x":174251.98000000045,"y":2546409.9800000023}},{"attributes":{"ID":493629,"DIS_CODE":0,"TOWNNAME":"永康區","LI":"龍潭里","LIN":"39鄰","STREET":"永明街","SECT":" ","MAREA":" ","LANE":" ","ALLEY":" ","HOUSE_NO":"２６１之３號","E_COORD97":174626.64000000001,"N_COORD97":2547230.27,"ADDRESS":"永明街２６１之３號","OBJECTID":493602},"geometry":{"x":174626.64000000153,"y":2547230.2700000014}},{"attributes":{"ID":493630,"DIS_CODE":0,"TOWNNAME":"永康區","LI":"埔園里","LIN":"39鄰","STREET":"永大路","SECT":"三段","MAREA":" ","LANE":" ","ALLEY":" ","HOUSE_NO":"２３７號","E_COORD97":174114.34,"N_COORD97":2548130.1899999999,"ADDRESS":"永大路三段２３７號","OBJECTID":493603},"geometry":{"x":174114.33999999985,"y":2548130.1899999995}},{"attributes":{"ID":493631,"DIS_CODE":0,"TOWNNAME":"永康區","LI":"崑山里","LIN":"39鄰","STREET":"永大路","SECT":"二段","MAREA":" ","LANE":" ","ALLEY":" ","HOUSE_NO":"７３之１號","E_COORD97":174187.10999999999,"N_COORD97":2544882.4500000002,"ADDRESS":"永大路二段７３之１號","OBJECTID":493604},"geometry":{"x":174187.11000000127,"y":2544882.4500000011}},{"attributes":{"ID":493632,"DIS_CODE":0,"TOWNNAME":"永康區","LI":"龍潭里","LIN":"39鄰","STREET":"永明街","SECT":" ","MAREA":" ","LANE":" ","ALLEY":" ","HOUSE_NO":"２６７之１０號","E_COORD97":174629.38,"N_COORD97":2547287.79,"ADDRESS":"永明街２６７之１０號","OBJECTID":493605},"geometry":{"x":174629.38000000082,"y":2547287.790000001}},{"attributes":{"ID":493633,"DIS_CODE":0,"TOWNNAME":"永康區","LI":"永康里","LIN":"39鄰","STREET":"永大一路","SECT":" ","MAREA":" ","LANE":" ","ALLEY":" ","HOUSE_NO":"６２號","E_COORD97":174175.89999999999,"N_COORD97":2546456.6699999999,"ADDRESS":"永大一路６２號","OBJECTID":493606},"geometry":{"x":174175.90000000037,"y":2546456.6699999999}},{"attributes":{"ID":493634,"DIS_CODE":0,"TOWNNAME":"歸仁區","LI":"後市里","LIN":"39鄰","STREET":"民權三街","SECT":" ","MAREA":" ","LANE":" ","ALLEY":" ","HOUSE_NO":"５１號","E_COORD97":177286.23000000001,"N_COORD97":2541076.75,"ADDRESS":"民權三街５１號","OBJECTID":493607},"geometry":{"x":177286.23000000045,"y":2541076.7500000019}},{"attributes":{"ID":493635,"DIS_CODE":0,"TOWNNAME":"歸仁區","LI":"南保里","LIN":"39鄰","STREET":"保興二街","SECT":" ","MAREA":" ","LANE":" ","ALLEY":" ","HOUSE_NO":"５２號","E_COORD97":176624.57000000001,"N_COORD97":2540975.25,"ADDRESS":"保興二街５２號","OBJECTID":493608},"geometry":{"x":176624.56999999937,"y":2540975.2500000019}},{"attributes":{"ID":493636,"DIS_CODE":0,"TOWNNAME":"歸仁區","LI":"南保里","LIN":"39鄰","STREET":"中山路","SECT":"三段","MAREA":" ","LANE":" ","ALLEY":" ","HOUSE_NO":"１４０號","E_COORD97":176658.45999999999,"N_COORD97":2540917.0800000001,"ADDRESS":"中山路三段１４０號","OBJECTID":493609},"geometry":{"x":176658.45999999996,"y":2540917.0800000001}},{"attributes":{"ID":493637,"DIS_CODE":0,"TOWNNAME":"玉井區","LI":"玉田里","LIN":"39鄰","STREET":"中山路","SECT":" ","MAREA":" ","LANE":" ","ALLEY":" ","HOUSE_NO":"８２號","E_COORD97":194921.89999999999,"N_COORD97":2557684.2400000002,"ADDRESS":"中山路８２號","OBJECTID":493610},"geometry":{"x":194921.90000000037,"y":2557684.2400000021}},{"attributes":{"ID":493638,"DIS_CODE":0,"TOWNNAME":"玉井區","LI":"玉田里","LIN":"39鄰","STREET":"中山路","SECT":" ","MAREA":" ","LANE":" ","ALLEY":" ","HOUSE_NO":"９８號","E_COORD97":194953.20999999999,"N_COORD97":2557689.2400000002,"ADDRESS":"中山路９８號","OBJECTID":493611},"geometry":{"x":194953.20999999996,"y":2557689.2399999984}},{"attributes":{"ID":493639,"DIS_CODE":0,"TOWNNAME":"玉井區","LI":"玉田里","LIN":"39鄰","STREET":"中山路","SECT":" ","MAREA":" ","LANE":" ","ALLEY":" ","HOUSE_NO":"１８６號","E_COORD97":195118.54999999999,"N_COORD97":2557707.25,"ADDRESS":"中山路１８６號","OBJECTID":493612},"geometry":{"x":195118.54999999981,"y":2557707.2500000019}},{"attributes":{"ID":493640,"DIS_CODE":0,"TOWNNAME":"玉井區","LI":"玉田里","LIN":"39鄰","STREET":"中山路","SECT":" ","MAREA":" ","LANE":" ","ALLEY":" ","HOUSE_NO":"１０２號","E_COORD97":194964.06,"N_COORD97":2557690.2400000002,"ADDRESS":"中山路１０２號","OBJECTID":493613},"geometry":{"x":194964.05999999959,"y":2557690.2400000021}},{"attributes":{"ID":493641,"DIS_CODE":0,"TOWNNAME":"玉井區","LI":"玉田里","LIN":"39鄰","STREET":"中山路","SECT":" ","MAREA":" ","LANE":" ","ALLEY":" ","HOUSE_NO":"１４０號","E_COORD97":195048.85000000001,"N_COORD97":2557702.25,"ADDRESS":"中山路１４０號","OBJECTID":493614},"geometry":{"x":195048.85000000149,"y":2557702.25}},{"attributes":{"ID":493642,"DIS_CODE":0,"TOWNNAME":"北區","LI":"和順里","LIN":"39鄰","STREET":"臨安路","SECT":"二段","MAREA":" ","LANE":" ","ALLEY":" ","HOUSE_NO":"２７６號","E_COORD97":168192.75,"N_COORD97":2544998.77,"ADDRESS":"臨安路二段２７６號","OBJECTID":493615},"geometry":{"x":168192.75,"y":2544998.7700000014}},{"attributes":{"ID":493643,"DIS_CODE":0,"TOWNNAME":"北區","LI":"和順里","LIN":"39鄰","STREET":"臨安路","SECT":"二段","MAREA":" ","LANE":" ","ALLEY":" ","HOUSE_NO":"２７８號","E_COORD97":168197.04000000001,"N_COORD97":2545000.3599999999,"ADDRESS":"臨安路二段２７８號","OBJECTID":493616},"geometry":{"x":168197.04000000004,"y":2545000.3599999994}},{"attributes":{"ID":493644,"DIS_CODE":0,"TOWNNAME":"北區","LI":"和順里","LIN":"39鄰","STREET":"臨安路","SECT":"二段","MAREA":" ","LANE":" ","ALLEY":" ","HOUSE_NO":"２８０號","E_COORD97":168201.32000000001,"N_COORD97":2545002.4199999999,"ADDRESS":"臨安路二段２８０號","OBJECTID":493617},"geometry":{"x":168201.32000000216,"y":2545002.4200000018}},{"attributes":{"ID":493645,"DIS_CODE":0,"TOWNNAME":"北區","LI":"和順里","LIN":"39鄰","STREET":"臨安路","SECT":"二段","MAREA":" ","LANE":" ","ALLEY":" ","HOUSE_NO":"２８２號","E_COORD97":168205.60999999999,"N_COORD97":2545004.1699999999,"ADDRESS":"臨安路二段２８２號","OBJECTID":493618},"geometry":{"x":168205.61000000034,"y":2545004.1700000018}},{"attributes":{"ID":493646,"DIS_CODE":0,"TOWNNAME":"北區","LI":"和順里","LIN":"39鄰","STREET":"臨安路","SECT":"二段","MAREA":" ","LANE":" ","ALLEY":" ","HOUSE_NO":"２８６號","E_COORD97":168209.26000000001,"N_COORD97":2545005.75,"ADDRESS":"臨安路二段２８６號","OBJECTID":493619},"geometry":{"x":168209.25999999978,"y":2545005.7500000037}},{"attributes":{"ID":493647,"DIS_CODE":0,"TOWNNAME":"北區","LI":"和順里","LIN":"39鄰","STREET":"臨安路","SECT":"二段","MAREA":" ","LANE":" ","ALLEY":" ","HOUSE_NO":"２８８號","E_COORD97":168213.87,"N_COORD97":2545007.98,"ADDRESS":"臨安路二段２８８號","OBJECTID":493620},"geometry":{"x":168213.87000000011,"y":2545007.9800000042}},{"attributes":{"ID":493648,"DIS_CODE":0,"TOWNNAME":"北區","LI":"和順里","LIN":"39鄰","STREET":"臨安路","SECT":"二段","MAREA":" ","LANE":" ","ALLEY":" ","HOUSE_NO":"２９０號","E_COORD97":168218.47,"N_COORD97":2545009.5699999998,"ADDRESS":"臨安路二段２９０號","OBJECTID":493621},"geometry":{"x":168218.47000000067,"y":2545009.5700000003}},{"attributes":{"ID":493649,"DIS_CODE":0,"TOWNNAME":"北區","LI":"成德里","LIN":"39鄰","STREET":"北成路","SECT":" ","MAREA":" ","LANE":" ","ALLEY":" ","HOUSE_NO":"３５１號","E_COORD97":168221,"N_COORD97":2546606.54,"ADDRESS":"北成路３５１號","OBJECTID":493622},"geometry":{"x":168221,"y":2546606.5400000028}},{"attributes":{"ID":493650,"DIS_CODE":0,"TOWNNAME":"北區","LI":"成德里","LIN":"39鄰","STREET":"北成路","SECT":" ","MAREA":" ","LANE":" ","ALLEY":" ","HOUSE_NO":"３５３號","E_COORD97":168216.32000000001,"N_COORD97":2546605.5,"ADDRESS":"北成路３５３號","OBJECTID":493623},"geometry":{"x":168216.3200000003,"y":2546605.5000000019}},{"attributes":{"ID":493651,"DIS_CODE":0,"TOWNNAME":"北區","LI":"成德里","LIN":"39鄰","STREET":"北成路","SECT":" ","MAREA":" ","LANE":" ","ALLEY":" ","HOUSE_NO":"３５５號","E_COORD97":168211.89999999999,"N_COORD97":2546604.46,"ADDRESS":"北成路３５５號","OBJECTID":493624},"geometry":{"x":168211.90000000037,"y":2546604.4600000009}},{"attributes":{"ID":493652,"DIS_CODE":0,"TOWNNAME":"北區","LI":"成德里","LIN":"39鄰","STREET":"北成路","SECT":" ","MAREA":" ","LANE":" ","ALLEY":" ","HOUSE_NO":"３５７號","E_COORD97":168206.95999999999,"N_COORD97":2546602.9100000001,"ADDRESS":"北成路３５７號","OBJECTID":493625},"geometry":{"x":168206.96000000089,"y":2546602.910000002}},{"attributes":{"ID":493653,"DIS_CODE":0,"TOWNNAME":"北區","LI":"成德里","LIN":"39鄰","STREET":"北成路","SECT":" ","MAREA":" ","LANE":" ","ALLEY":" ","HOUSE_NO":"３５９號","E_COORD97":168202.79999999999,"N_COORD97":2546601.6099999999,"ADDRESS":"北成路３５９號","OBJECTID":493626},"geometry":{"x":168202.80000000075,"y":2546601.6099999994}},{"attributes":{"ID":493654,"DIS_CODE":0,"TOWNNAME":"北區","LI":"成德里","LIN":"39鄰","STREET":"北成路","SECT":" ","MAREA":" ","LANE":" ","ALLEY":" ","HOUSE_NO":"３６１號","E_COORD97":168197.34,"N_COORD97":2546601.0899999999,"ADDRESS":"北成路３６１號","OBJECTID":493627},"geometry":{"x":168197.34000000171,"y":2546601.0900000017}},{"attributes":{"ID":493655,"DIS_CODE":0,"TOWNNAME":"北區","LI":"成德里","LIN":"39鄰","STREET":"北成路","SECT":" ","MAREA":" ","LANE":" ","ALLEY":" ","HOUSE_NO":"３６３號","E_COORD97":168191.09,"N_COORD97":2546603.4300000002,"ADDRESS":"北成路３６３號","OBJECTID":493628},"geometry":{"x":168191.09000000078,"y":2546603.4299999997}},{"attributes":{"ID":493656,"DIS_CODE":0,"TOWNNAME":"北區","LI":"成德里","LIN":"39鄰","STREET":"北成路","SECT":" ","MAREA":" ","LANE":" ","ALLEY":" ","HOUSE_NO":"３６５號","E_COORD97":168185.10999999999,"N_COORD97":2546602.1299999999,"ADDRESS":"北成路３６５號","OBJECTID":493629},"geometry":{"x":168185.11000000034,"y":2546602.1299999971}},{"attributes":{"ID":493657,"DIS_CODE":0,"TOWNNAME":"北區","LI":"成德里","LIN":"39鄰","STREET":"育德二路","SECT":" ","MAREA":" ","LANE":" ","ALLEY":" ","HOUSE_NO":"４９８號","E_COORD97":168192.91,"N_COORD97":2546584.98,"ADDRESS":"育德二路４９８號","OBJECTID":493630},"geometry":{"x":168192.91000000015,"y":2546584.9800000023}},{"attributes":{"ID":493658,"DIS_CODE":0,"TOWNNAME":"北區","LI":"成德里","LIN":"39鄰","STREET":"育德二路","SECT":" ","MAREA":" ","LANE":" ","ALLEY":" ","HOUSE_NO":"５００號","E_COORD97":168191.09,"N_COORD97":2546589.6600000001,"ADDRESS":"育德二路５００號","OBJECTID":493631},"geometry":{"x":168191.09000000078,"y":2546589.6599999983}},{"attributes":{"ID":493659,"DIS_CODE":0,"TOWNNAME":"北區","LI":"成德里","LIN":"39鄰","STREET":"育德二路","SECT":" ","MAREA":" ","LANE":" ","ALLEY":" ","HOUSE_NO":"５０２號","E_COORD97":168189.53,"N_COORD97":2546594.3300000001,"ADDRESS":"育德二路５０２號","OBJECTID":493632},"geometry":{"x":168189.52999999933,"y":2546594.3300000001}},{"attributes":{"ID":493660,"DIS_CODE":0,"TOWNNAME":"歸仁區","LI":"南興里","LIN":"39鄰","STREET":"中山路","SECT":"三段","MAREA":" ","LANE":" ","ALLEY":" ","HOUSE_NO":"６０６號","E_COORD97":175545.56,"N_COORD97":2541060.2799999998,"ADDRESS":"中山路三段６０６號","OBJECTID":493633},"geometry":{"x":175545.55999999959,"y":2541060.2799999993}},{"attributes":{"ID":493661,"DIS_CODE":0,"TOWNNAME":"歸仁區","LI":"南興里","LIN":"39鄰","STREET":"中山路","SECT":"三段","MAREA":" ","LANE":" ","ALLEY":" ","HOUSE_NO":"６３８號","E_COORD97":175436.95999999999,"N_COORD97":2541077.2799999998,"ADDRESS":"中山路三段６３８號","OBJECTID":493634},"geometry":{"x":175436.96000000089,"y":2541077.2799999993}},{"attributes":{"ID":493662,"DIS_CODE":0,"TOWNNAME":"歸仁區","LI":"南興里","LIN":"39鄰","STREET":"中山路","SECT":"三段","MAREA":" ","LANE":" ","ALLEY":" ","HOUSE_NO":"５９６號","E_COORD97":175569.06,"N_COORD97":2541058.2799999998,"ADDRESS":"中山路三段５９６號","OBJECTID":493635},"geometry":{"x":175569.05999999959,"y":2541058.2799999975}},{"attributes":{"ID":493663,"DIS_CODE":0,"TOWNNAME":"歸仁區","LI":"後市里","LIN":"39鄰","STREET":"民權三街","SECT":" ","MAREA":" ","LANE":" ","ALLEY":" ","HOUSE_NO":"５９號","E_COORD97":177302.63,"N_COORD97":2541076.75,"ADDRESS":"民權三街５９號","OBJECTID":493636},"geometry":{"x":177302.63000000082,"y":2541076.7500000019}},{"attributes":{"ID":493664,"DIS_CODE":0,"TOWNNAME":"歸仁區","LI":"南興里","LIN":"39鄰","STREET":"中山路","SECT":"三段","MAREA":" ","LANE":" ","ALLEY":" ","HOUSE_NO":"６３６號","E_COORD97":175436.95999999999,"N_COORD97":2541077.2799999998,"ADDRESS":"中山路三段６３６號","OBJECTID":493637},"geometry":{"x":175436.96000000089,"y":2541077.2799999993}},{"attributes":{"ID":493665,"DIS_CODE":0,"TOWNNAME":"永康區","LI":"永康里","LIN":"39鄰","STREET":"永大路","SECT":"二段","MAREA":" ","LANE":" ","ALLEY":" ","HOUSE_NO":"６４１號","E_COORD97":174390.16,"N_COORD97":2546454.3999999999,"ADDRESS":"永大路二段６４１號","OBJECTID":493638},"geometry":{"x":174390.16000000108,"y":2546454.4000000022}},{"attributes":{"ID":493666,"DIS_CODE":0,"TOWNNAME":"新營區","LI":"民榮里","LIN":"39鄰","STREET":"公園路","SECT":"二段","MAREA":" ","LANE":" ","ALLEY":" ","HOUSE_NO":"１７２號","E_COORD97":178309.76000000001,"N_COORD97":2577826.6299999999,"ADDRESS":"公園路二段１７２號","OBJECTID":493639},"geometry":{"x":178309.76000000071,"y":2577826.629999999}},{"attributes":{"ID":493667,"DIS_CODE":0,"TOWNNAME":"南區","LI":"大忠里","LIN":"39鄰","STREET":"國民路","SECT":" ","MAREA":" ","LANE":" ","ALLEY":" ","HOUSE_NO":"４５５號","E_COORD97":168782.56,"N_COORD97":2541265.9700000002,"ADDRESS":"國民路４５５號","OBJECTID":493640},"geometry":{"x":168782.56000000052,"y":2541265.9700000025}},{"attributes":{"ID":493668,"DIS_CODE":0,"TOWNNAME":"安平區","LI":"育平里","LIN":"39鄰","STREET":"育平一街","SECT":" ","MAREA":" ","LANE":" ","ALLEY":" ","HOUSE_NO":"７０號","E_COORD97":164384.07999999999,"N_COORD97":2542958.0499999998,"ADDRESS":"育平一街７０號","OBJECTID":493641},"geometry":{"x":164384.08000000101,"y":2542958.0500000026}},{"attributes":{"ID":493669,"DIS_CODE":0,"TOWNNAME":"安平區","LI":"育平里","LIN":"39鄰","STREET":"育平一街","SECT":" ","MAREA":" ","LANE":" ","ALLEY":" ","HOUSE_NO":"６８號","E_COORD97":164388.20999999999,"N_COORD97":2542957.73,"ADDRESS":"育平一街６８號","OBJECTID":493642},"geometry":{"x":164388.21000000089,"y":2542957.7300000004}},{"attributes":{"ID":493670,"DIS_CODE":0,"TOWNNAME":"安平區","LI":"育平里","LIN":"39鄰","STREET":"育平一街","SECT":" ","MAREA":" ","LANE":" ","ALLEY":" ","HOUSE_NO":"６６號","E_COORD97":164393.76000000001,"N_COORD97":2542957.8900000001,"ADDRESS":"育平一街６６號","OBJECTID":493643},"geometry":{"x":164393.76000000164,"y":2542957.8900000043}},{"attributes":{"ID":493671,"DIS_CODE":0,"TOWNNAME":"安平區","LI":"育平里","LIN":"39鄰","STREET":"育平一街","SECT":" ","MAREA":" ","LANE":" ","ALLEY":" ","HOUSE_NO":"６２號","E_COORD97":164399,"N_COORD97":2542957.5699999998,"ADDRESS":"育平一街６２號","OBJECTID":493644},"geometry":{"x":164398.99999999907,"y":2542957.5700000022}},{"attributes":{"ID":493672,"DIS_CODE":0,"TOWNNAME":"南區","LI":"大忠里","LIN":"39鄰","STREET":"中華南路","SECT":"一段","MAREA":" ","LANE":" ","ALLEY":" ","HOUSE_NO":"１８８號","E_COORD97":168931.79999999999,"N_COORD97":2541076.4300000002,"ADDRESS":"中華南路一段１８８號","OBJECTID":493645},"geometry":{"x":168931.80000000075,"y":2541076.4300000016}},{"attributes":{"ID":493673,"DIS_CODE":0,"TOWNNAME":"南區","LI":"大忠里","LIN":"39鄰","STREET":"中華南路","SECT":"一段","MAREA":" ","LANE":" ","ALLEY":" ","HOUSE_NO":"１９０號","E_COORD97":168903.98999999999,"N_COORD97":2541049.7799999998,"ADDRESS":"中華南路一段１９０號","OBJECTID":493646},"geometry":{"x":168903.99000000115,"y":2541049.7800000012}},{"attributes":{"ID":493674,"DIS_CODE":0,"TOWNNAME":"南區","LI":"大忠里","LIN":"39鄰","STREET":"中華南路","SECT":"一段","MAREA":" ","LANE":" ","ALLEY":" ","HOUSE_NO":"２０２號","E_COORD97":168873.45999999999,"N_COORD97":2541016.2999999998,"ADDRESS":"中華南路一段２０２號","OBJECTID":493647},"geometry":{"x":168873.46000000089,"y":2541016.3000000026}},{"attributes":{"ID":493675,"DIS_CODE":0,"TOWNNAME":"南區","LI":"大忠里","LIN":"39鄰","STREET":"中華南路","SECT":"一段","MAREA":" ","LANE":" ","ALLEY":" ","HOUSE_NO":"２０６號","E_COORD97":168854.79000000001,"N_COORD97":2541002.6299999999,"ADDRESS":"中華南路一段２０６號","OBJECTID":493648},"geometry":{"x":168854.79000000004,"y":2541002.6300000008}},{"attributes":{"ID":493676,"DIS_CODE":0,"TOWNNAME":"南區","LI":"大忠里","LIN":"39鄰","STREET":"中華南路","SECT":"一段","MAREA":" ","LANE":" ","ALLEY":" ","HOUSE_NO":"３９６號","E_COORD97":168771.79999999999,"N_COORD97":2540970.1400000001,"ADDRESS":"中華南路一段３９６號","OBJECTID":493649},"geometry":{"x":168771.79999999981,"y":2540970.1400000025}},{"attributes":{"ID":493677,"DIS_CODE":0,"TOWNNAME":"南區","LI":"大忠里","LIN":"39鄰","STREET":"國民路","SECT":" ","MAREA":" ","LANE":" ","ALLEY":" ","HOUSE_NO":"２６８號","E_COORD97":168910.85000000001,"N_COORD97":2541196.8199999998,"ADDRESS":"國民路２６８號","OBJECTID":493650},"geometry":{"x":168910.85000000056,"y":2541196.8200000003}},{"attributes":{"ID":493678,"DIS_CODE":0,"TOWNNAME":"南區","LI":"大忠里","LIN":"39鄰","STREET":"國民路","SECT":" ","MAREA":" ","LANE":" ","ALLEY":" ","HOUSE_NO":"２７２號","E_COORD97":168773.60000000001,"N_COORD97":2541376.1699999999,"ADDRESS":"國民路２７２號","OBJECTID":493651},"geometry":{"x":168773.60000000056,"y":2541376.1700000018}},{"attributes":{"ID":493679,"DIS_CODE":0,"TOWNNAME":"南區","LI":"大忠里","LIN":"39鄰","STREET":"國民路","SECT":" ","MAREA":" ","LANE":" ","ALLEY":" ","HOUSE_NO":"２７６號","E_COORD97":168661.26999999999,"N_COORD97":2541471.4100000001,"ADDRESS":"國民路２７６號","OBJECTID":493652},"geometry":{"x":168661.26999999955,"y":2541471.4100000001}},{"attributes":{"ID":493680,"DIS_CODE":0,"TOWNNAME":"南區","LI":"大忠里","LIN":"39鄰","STREET":"國民路","SECT":" ","MAREA":" ","LANE":" ","ALLEY":" ","HOUSE_NO":"２９１號","E_COORD97":168915.5,"N_COORD97":2541107.3500000001,"ADDRESS":"國民路２９１號","OBJECTID":493653},"geometry":{"x":168915.50000000093,"y":2541107.3500000015}},{"attributes":{"ID":493681,"DIS_CODE":0,"TOWNNAME":"南區","LI":"大忠里","LIN":"39鄰","STREET":"國民路","SECT":" ","MAREA":" ","LANE":" ","ALLEY":" ","HOUSE_NO":"２９１號之１","E_COORD97":168920.10999999999,"N_COORD97":2541100.52,"ADDRESS":"國民路２９１號之１","OBJECTID":493654},"geometry":{"x":168920.11000000127,"y":2541100.5199999996}},{"attributes":{"ID":493682,"DIS_CODE":0,"TOWNNAME":"南區","LI":"大忠里","LIN":"39鄰","STREET":"國民路","SECT":" ","MAREA":" ","LANE":" ","ALLEY":" ","HOUSE_NO":"４４３號","E_COORD97":168800.10000000001,"N_COORD97":2541229.5699999998,"ADDRESS":"國民路４４３號","OBJECTID":493655},"geometry":{"x":168800.09999999963,"y":2541229.5700000003}},{"attributes":{"ID":493683,"DIS_CODE":0,"TOWNNAME":"南區","LI":"大忠里","LIN":"39鄰","STREET":"國民路","SECT":" ","MAREA":" ","LANE":" ","ALLEY":" ","HOUSE_NO":"４４９號","E_COORD97":168795.47,"N_COORD97":2541250.4700000002,"ADDRESS":"國民路４４９號","OBJECTID":493656},"geometry":{"x":168795.47000000067,"y":2541250.4700000007}},{"attributes":{"ID":493684,"DIS_CODE":0,"TOWNNAME":"南區","LI":"大忠里","LIN":"39鄰","STREET":"國民路","SECT":" ","MAREA":" ","LANE":" ","ALLEY":" ","HOUSE_NO":"４５１號","E_COORD97":168792.12,"N_COORD97":2541254.29,"ADDRESS":"國民路４５１號","OBJECTID":493657},"geometry":{"x":168792.12000000011,"y":2541254.2899999991}},{"attributes":{"ID":493685,"DIS_CODE":0,"TOWNNAME":"南區","LI":"大忠里","LIN":"39鄰","STREET":"國民路","SECT":" ","MAREA":" ","LANE":" ","ALLEY":" ","HOUSE_NO":"４５３號","E_COORD97":168786.85999999999,"N_COORD97":2541260.0099999998,"ADDRESS":"國民路４５３號","OBJECTID":493658},"geometry":{"x":168786.86000000034,"y":2541260.0099999998}},{"attributes":{"ID":493686,"DIS_CODE":0,"TOWNNAME":"南區","LI":"大忠里","LIN":"39鄰","STREET":"國民路","SECT":" ","MAREA":" ","LANE":" ","ALLEY":" ","HOUSE_NO":"４６５號","E_COORD97":168756.60000000001,"N_COORD97":2541292.6499999999,"ADDRESS":"國民路４６５號","OBJECTID":493659},"geometry":{"x":168756.60000000056,"y":2541292.6500000022}},{"attributes":{"ID":493687,"DIS_CODE":0,"TOWNNAME":"南區","LI":"大忠里","LIN":"39鄰","STREET":"國民路","SECT":" ","MAREA":" ","LANE":" ","ALLEY":" ","HOUSE_NO":"４６７號","E_COORD97":168752.69,"N_COORD97":2541297.6600000001,"ADDRESS":"國民路４６７號","OBJECTID":493660},"geometry":{"x":168752.69000000041,"y":2541297.6600000039}},{"attributes":{"ID":493688,"DIS_CODE":0,"TOWNNAME":"歸仁區","LI":"許厝里","LIN":"39鄰","STREET":"公園路","SECT":" ","MAREA":" ","LANE":" ","ALLEY":" ","HOUSE_NO":"８４號","E_COORD97":177990.44,"N_COORD97":2540520.2799999998,"ADDRESS":"公園路８４號","OBJECTID":493661},"geometry":{"x":177990.44000000134,"y":2540520.2800000012}},{"attributes":{"ID":493689,"DIS_CODE":0,"TOWNNAME":"歸仁區","LI":"許厝里","LIN":"39鄰","STREET":"公園路","SECT":" ","MAREA":" ","LANE":" ","ALLEY":" ","HOUSE_NO":"９２號","E_COORD97":177977.04000000001,"N_COORD97":2540516.2799999998,"ADDRESS":"公園路９２號","OBJECTID":493662},"geometry":{"x":177977.04000000004,"y":2540516.2800000012}},{"attributes":{"ID":493690,"DIS_CODE":0,"TOWNNAME":"東區","LI":"崇文里","LIN":"39鄰","STREET":"崇德路","SECT":" ","MAREA":" ","LANE":" ","ALLEY":" ","HOUSE_NO":"８３３號","E_COORD97":170802.78,"N_COORD97":2540629.7799999998,"ADDRESS":"崇德路８３３號","OBJECTID":493663},"geometry":{"x":170802.78000000026,"y":2540629.7799999993}},{"attributes":{"ID":493691,"DIS_CODE":0,"TOWNNAME":"歸仁區","LI":"南興里","LIN":"39鄰","STREET":"中山路","SECT":"三段","MAREA":" ","LANE":" ","ALLEY":" ","HOUSE_NO":"６４６號","E_COORD97":175428.10999999999,"N_COORD97":2541076.25,"ADDRESS":"中山路三段６４６號","OBJECTID":493664},"geometry":{"x":175428.11000000127,"y":2541076.2500000037}},{"attributes":{"ID":493692,"DIS_CODE":0,"TOWNNAME":"歸仁區","LI":"許厝里","LIN":"39鄰","STREET":"公園路","SECT":" ","MAREA":" ","LANE":" ","ALLEY":" ","HOUSE_NO":"６８號","E_COORD97":178021.23999999999,"N_COORD97":2540532.2799999998,"ADDRESS":"公園路６８號","OBJECTID":493665},"geometry":{"x":178021.24000000022,"y":2540532.2799999993}},{"attributes":{"ID":493693,"DIS_CODE":0,"TOWNNAME":"歸仁區","LI":"許厝里","LIN":"39鄰","STREET":"公園路","SECT":" ","MAREA":" ","LANE":" ","ALLEY":" ","HOUSE_NO":"８８號","E_COORD97":177983.23999999999,"N_COORD97":2540518.2799999998,"ADDRESS":"公園路８８號","OBJECTID":493666},"geometry":{"x":177983.24000000115,"y":2540518.2799999993}},{"attributes":{"ID":493694,"DIS_CODE":0,"TOWNNAME":"歸仁區","LI":"南興里","LIN":"39鄰","STREET":"中山路","SECT":"三段","MAREA":" ","LANE":" ","ALLEY":" ","HOUSE_NO":"６５２號","E_COORD97":175412.81,"N_COORD97":2541095.25,"ADDRESS":"中山路三段６５２號","OBJECTID":493667},"geometry":{"x":175412.80999999959,"y":2541095.25}},{"attributes":{"ID":493695,"DIS_CODE":0,"TOWNNAME":"歸仁區","LI":"南興里","LIN":"39鄰","STREET":"中山路","SECT":"三段","MAREA":" ","LANE":" ","ALLEY":" ","HOUSE_NO":"５８２號","E_COORD97":175606.41,"N_COORD97":2541067.25,"ADDRESS":"中山路三段５８２號","OBJECTID":493668},"geometry":{"x":175606.41000000015,"y":2541067.2500000019}},{"attributes":{"ID":493696,"DIS_CODE":0,"TOWNNAME":"北區","LI":"成德里","LIN":"39鄰","STREET":"文成五街","SECT":" ","MAREA":" ","LANE":" ","ALLEY":" ","HOUSE_NO":"１４０號","E_COORD97":168346.64999999999,"N_COORD97":2546555.27,"ADDRESS":"文成五街１４０號","OBJECTID":493669},"geometry":{"x":168346.65000000224,"y":2546555.2700000014}},{"attributes":{"ID":493697,"DIS_CODE":0,"TOWNNAME":"北區","LI":"成德里","LIN":"39鄰","STREET":"文成五街","SECT":" ","MAREA":" ","LANE":" ","ALLEY":" ","HOUSE_NO":"１３８號","E_COORD97":168350.5,"N_COORD97":2546556.3500000001,"ADDRESS":"文成五街１３８號","OBJECTID":493670},"geometry":{"x":168350.49999999907,"y":2546556.3499999996}},{"attributes":{"ID":493698,"DIS_CODE":0,"TOWNNAME":"北區","LI":"成德里","LIN":"39鄰","STREET":"文成五街","SECT":" ","MAREA":" ","LANE":" ","ALLEY":" ","HOUSE_NO":"１３６號","E_COORD97":168354.01999999999,"N_COORD97":2546559.3900000001,"ADDRESS":"文成五街１３６號","OBJECTID":493671},"geometry":{"x":168354.02000000048,"y":2546559.3900000025}},{"attributes":{"ID":493699,"DIS_CODE":0,"TOWNNAME":"佳里區","LI":"安西里","LIN":"39鄰","STREET":"育善街","SECT":" ","MAREA":" ","LANE":" ","ALLEY":" ","HOUSE_NO":"２４８號","E_COORD97":164962.91,"N_COORD97":2562647.8199999998,"ADDRESS":"育善街２４８號","OBJECTID":493672},"geometry":{"x":164962.91000000108,"y":2562647.8200000003}},{"attributes":{"ID":493700,"DIS_CODE":0,"TOWNNAME":"永康區","LI":"永康里","LIN":"39鄰","STREET":"文化路","SECT":" ","MAREA":" ","LANE":" ","ALLEY":" ","HOUSE_NO":"５５號","E_COORD97":174212.01000000001,"N_COORD97":2546287.21,"ADDRESS":"文化路５５號","OBJECTID":493673},"geometry":{"x":174212.00999999978,"y":2546287.2100000009}},{"attributes":{"ID":493701,"DIS_CODE":0,"TOWNNAME":"永康區","LI":"永康里","LIN":"39鄰","STREET":"文化路","SECT":" ","MAREA":" ","LANE":" ","ALLEY":" ","HOUSE_NO":"４０號","E_COORD97":174293.57000000001,"N_COORD97":2546358.8199999998,"ADDRESS":"文化路４０號","OBJECTID":493674},"geometry":{"x":174293.5700000003,"y":2546358.8200000022}},{"attributes":{"ID":493702,"DIS_CODE":0,"TOWNNAME":"永康區","LI":"永康里","LIN":"39鄰","STREET":"永大一路","SECT":" ","MAREA":" ","LANE":" ","ALLEY":" ","HOUSE_NO":"４２號","E_COORD97":174263.07999999999,"N_COORD97":2546483.2799999998,"ADDRESS":"永大一路４２號","OBJECTID":493675},"geometry":{"x":174263.08000000194,"y":2546483.2800000031}},{"attributes":{"ID":493703,"DIS_CODE":0,"TOWNNAME":"東區","LI":"和平里","LIN":"1鄰","STREET":"文化二街","SECT":" ","MAREA":" ","LANE":" ","ALLEY":" ","HOUSE_NO":"１號十樓","E_COORD97":171099.45000000001,"N_COORD97":2542097.2200000002,"ADDRESS":"文化二街１號十樓","OBJECTID":493676},"geometry":{"x":171099.45000000112,"y":2542097.2200000007}},{"attributes":{"ID":493704,"DIS_CODE":0,"TOWNNAME":"東區","LI":"和平里","LIN":"1鄰","STREET":"文化二街","SECT":" ","MAREA":" ","LANE":" ","ALLEY":" ","HOUSE_NO":"１號十一樓","E_COORD97":171099.45000000001,"N_COORD97":2542097.2200000002,"ADDRESS":"文化二街１號十一樓","OBJECTID":493677},"geometry":{"x":171099.45000000112,"y":2542097.2200000007}},{"attributes":{"ID":493705,"DIS_CODE":0,"TOWNNAME":"東區","LI":"和平里","LIN":"1鄰","STREET":"文化二街","SECT":" ","MAREA":" ","LANE":" ","ALLEY":" ","HOUSE_NO":"１號十二樓","E_COORD97":171099.45000000001,"N_COORD97":2542097.2200000002,"ADDRESS":"文化二街１號十二樓","OBJECTID":493678},"geometry":{"x":171099.45000000112,"y":2542097.2200000007}},{"attributes":{"ID":493706,"DIS_CODE":0,"TOWNNAME":"東區","LI":"和平里","LIN":"1鄰","STREET":"文化二街","SECT":" ","MAREA":" ","LANE":" ","ALLEY":" ","HOUSE_NO":"１號十三樓","E_COORD97":171099.45000000001,"N_COORD97":2542097.2200000002,"ADDRESS":"文化二街１號十三樓","OBJECTID":493679},"geometry":{"x":171099.45000000112,"y":2542097.2200000007}},{"attributes":{"ID":493707,"DIS_CODE":0,"TOWNNAME":"東區","LI":"和平里","LIN":"1鄰","STREET":"文化二街","SECT":" ","MAREA":" ","LANE":" ","ALLEY":" ","HOUSE_NO":"３號二樓","E_COORD97":171099.45000000001,"N_COORD97":2542097.2200000002,"ADDRESS":"文化二街３號二樓","OBJECTID":493680},"geometry":{"x":171099.45000000112,"y":2542097.2200000007}},{"attributes":{"ID":493708,"DIS_CODE":0,"TOWNNAME":"東區","LI":"和平里","LIN":"1鄰","STREET":"文化二街","SECT":" ","MAREA":" ","LANE":" ","ALLEY":" ","HOUSE_NO":"３號三樓","E_COORD97":171099.45000000001,"N_COORD97":2542097.2200000002,"ADDRESS":"文化二街３號三樓","OBJECTID":493681},"geometry":{"x":171099.45000000112,"y":2542097.2200000007}},{"attributes":{"ID":493709,"DIS_CODE":0,"TOWNNAME":"東區","LI":"和平里","LIN":"1鄰","STREET":"文化二街","SECT":" ","MAREA":" ","LANE":" ","ALLEY":" ","HOUSE_NO":"３號四樓","E_COORD97":171099.45000000001,"N_COORD97":2542097.2200000002,"ADDRESS":"文化二街３號四樓","OBJECTID":493682},"geometry":{"x":171099.45000000112,"y":2542097.2200000007}},{"attributes":{"ID":493710,"DIS_CODE":0,"TOWNNAME":"東區","LI":"和平里","LIN":"1鄰","STREET":"文化二街","SECT":" ","MAREA":" ","LANE":" ","ALLEY":" ","HOUSE_NO":"３號五樓","E_COORD97":171099.45000000001,"N_COORD97":2542097.2200000002,"ADDRESS":"文化二街３號五樓","OBJECTID":493683},"geometry":{"x":171099.45000000112,"y":2542097.2200000007}},{"attributes":{"ID":493711,"DIS_CODE":0,"TOWNNAME":"東區","LI":"和平里","LIN":"1鄰","STREET":"文化二街","SECT":" ","MAREA":" ","LANE":" ","ALLEY":" ","HOUSE_NO":"３號六樓","E_COORD97":171099.45000000001,"N_COORD97":2542097.2200000002,"ADDRESS":"文化二街３號六樓","OBJECTID":493684},"geometry":{"x":171099.45000000112,"y":2542097.2200000007}},{"attributes":{"ID":493712,"DIS_CODE":0,"TOWNNAME":"東區","LI":"和平里","LIN":"1鄰","STREET":"文化二街","SECT":" ","MAREA":" ","LANE":" ","ALLEY":" ","HOUSE_NO":"３號七樓","E_COORD97":171099.45000000001,"N_COORD97":2542097.2200000002,"ADDRESS":"文化二街３號七樓","OBJECTID":493685},"geometry":{"x":171099.45000000112,"y":2542097.2200000007}},{"attributes":{"ID":493713,"DIS_CODE":0,"TOWNNAME":"東區","LI":"和平里","LIN":"1鄰","STREET":"文化二街","SECT":" ","MAREA":" ","LANE":" ","ALLEY":" ","HOUSE_NO":"３號八樓","E_COORD97":171099.45000000001,"N_COORD97":2542097.2200000002,"ADDRESS":"文化二街３號八樓","OBJECTID":493686},"geometry":{"x":171099.45000000112,"y":2542097.2200000007}},{"attributes":{"ID":493714,"DIS_CODE":0,"TOWNNAME":"東區","LI":"和平里","LIN":"1鄰","STREET":"文化二街","SECT":" ","MAREA":" ","LANE":" ","ALLEY":" ","HOUSE_NO":"３號九樓","E_COORD97":171099.45000000001,"N_COORD97":2542097.2200000002,"ADDRESS":"文化二街３號九樓","OBJECTID":493687},"geometry":{"x":171099.45000000112,"y":2542097.2200000007}},{"attributes":{"ID":493715,"DIS_CODE":0,"TOWNNAME":"東區","LI":"和平里","LIN":"1鄰","STREET":"文化二街","SECT":" ","MAREA":" ","LANE":" ","ALLEY":" ","HOUSE_NO":"３號十樓","E_COORD97":171099.45000000001,"N_COORD97":2542097.2200000002,"ADDRESS":"文化二街３號十樓","OBJECTID":493688},"geometry":{"x":171099.45000000112,"y":2542097.2200000007}},{"attributes":{"ID":493716,"DIS_CODE":0,"TOWNNAME":"東區","LI":"和平里","LIN":"1鄰","STREET":"文化二街","SECT":" ","MAREA":" ","LANE":" ","ALLEY":" ","HOUSE_NO":"３號十一樓","E_COORD97":171099.45000000001,"N_COORD97":2542097.2200000002,"ADDRESS":"文化二街３號十一樓","OBJECTID":493689},"geometry":{"x":171099.45000000112,"y":2542097.2200000007}},{"attributes":{"ID":493717,"DIS_CODE":0,"TOWNNAME":"東區","LI":"和平里","LIN":"1鄰","STREET":"文化二街","SECT":" ","MAREA":" ","LANE":" ","ALLEY":" ","HOUSE_NO":"３號十二樓","E_COORD97":171099.45000000001,"N_COORD97":2542097.2200000002,"ADDRESS":"文化二街３號十二樓","OBJECTID":493690},"geometry":{"x":171099.45000000112,"y":2542097.2200000007}},{"attributes":{"ID":493718,"DIS_CODE":0,"TOWNNAME":"東區","LI":"和平里","LIN":"1鄰","STREET":"文化二街","SECT":" ","MAREA":" ","LANE":" ","ALLEY":" ","HOUSE_NO":"３號十三樓","E_COORD97":171099.45000000001,"N_COORD97":2542097.2200000002,"ADDRESS":"文化二街３號十三樓","OBJECTID":493691},"geometry":{"x":171099.45000000112,"y":2542097.2200000007}},{"attributes":{"ID":493719,"DIS_CODE":0,"TOWNNAME":"永康區","LI":"五王里","LIN":"1鄰","STREET":"成功路","SECT":" ","MAREA":" ","LANE":" ","ALLEY":" ","HOUSE_NO":"６４號七樓之１","E_COORD97":171547.16,"N_COORD97":2545487.0499999998,"ADDRESS":"成功路６４號七樓之１","OBJECTID":493692},"geometry":{"x":171547.16000000108,"y":2545487.0500000026}},{"attributes":{"ID":493720,"DIS_CODE":0,"TOWNNAME":"永康區","LI":"\u25A0行里","LIN":"1鄰","STREET":"中正路","SECT":" ","MAREA":" ","LANE":" ","ALLEY":" ","HOUSE_NO":"９８６號四樓之６","E_COORD97":171936.81,"N_COORD97":2549018.2999999998,"ADDRESS":"中正路９８６號四樓之６","OBJECTID":493693},"geometry":{"x":171936.81000000145,"y":2549018.3000000026}},{"attributes":{"ID":493721,"DIS_CODE":0,"TOWNNAME":"永康區","LI":"\u25A0行里","LIN":"1鄰","STREET":"中正路","SECT":" ","MAREA":" ","LANE":" ","ALLEY":" ","HOUSE_NO":"９８６號五樓之３","E_COORD97":171936.81,"N_COORD97":2549018.2999999998,"ADDRESS":"中正路９８６號五樓之３","OBJECTID":493694},"geometry":{"x":171936.81000000145,"y":2549018.3000000026}},{"attributes":{"ID":493722,"DIS_CODE":0,"TOWNNAME":"永康區","LI":"\u25A0行里","LIN":"1鄰","STREET":"中正路","SECT":" ","MAREA":" ","LANE":" ","ALLEY":" ","HOUSE_NO":"９８６號三樓之４","E_COORD97":171936.73000000001,"N_COORD97":2549018.2999999998,"ADDRESS":"中正路９８６號三樓之４","OBJECTID":493695},"geometry":{"x":171936.73000000138,"y":2549018.3000000026}},{"attributes":{"ID":493723,"DIS_CODE":0,"TOWNNAME":"永康區","LI":"\u25A0行里","LIN":"1鄰","STREET":"中正北路","SECT":" ","MAREA":" ","LANE":" ","ALLEY":" ","HOUSE_NO":"５４號九樓之１","E_COORD97":172007.85000000001,"N_COORD97":2549058.5800000001,"ADDRESS":"中正北路５４號九樓之１","OBJECTID":493696},"geometry":{"x":172007.85000000149,"y":2549058.5800000038}},{"attributes":{"ID":493724,"DIS_CODE":0,"TOWNNAME":"永康區","LI":"\u25A0行里","LIN":"1鄰","STREET":"中正北路","SECT":" ","MAREA":" ","LANE":" ","ALLEY":" ","HOUSE_NO":"５４號十樓之４","E_COORD97":172007.87,"N_COORD97":2549058.5800000001,"ADDRESS":"中正北路５４號十樓之４","OBJECTID":493697},"geometry":{"x":172007.87000000011,"y":2549058.5800000038}},{"attributes":{"ID":493725,"DIS_CODE":0,"TOWNNAME":"永康區","LI":"\u25A0行里","LIN":"1鄰","STREET":"中正北路","SECT":" ","MAREA":" ","LANE":" ","ALLEY":" ","HOUSE_NO":"５４號八樓之６","E_COORD97":172007.95000000001,"N_COORD97":2549058.5800000001,"ADDRESS":"中正北路５４號八樓之６","OBJECTID":493698},"geometry":{"x":172007.95000000112,"y":2549058.5800000038}},{"attributes":{"ID":493726,"DIS_CODE":0,"TOWNNAME":"永康區","LI":"\u25A0行里","LIN":"1鄰","STREET":"中正北路","SECT":" ","MAREA":" ","LANE":" ","ALLEY":" ","HOUSE_NO":"５４號九樓之８","E_COORD97":172008,"N_COORD97":2549058.5800000001,"ADDRESS":"中正北路５４號九樓之８","OBJECTID":493699},"geometry":{"x":172008,"y":2549058.5800000038}},{"attributes":{"ID":493727,"DIS_CODE":0,"TOWNNAME":"永康區","LI":"蔦松里","LIN":"1鄰","STREET":"蔦松二街","SECT":" ","MAREA":" ","LANE":" ","ALLEY":" ","HOUSE_NO":"１１２號五樓之６","E_COORD97":173778.48000000001,"N_COORD97":2549341.8300000001,"ADDRESS":"蔦松二街１１２號五樓之６","OBJECTID":493700},"geometry":{"x":173778.48000000045,"y":2549341.8300000038}},{"attributes":{"ID":493728,"DIS_CODE":0,"TOWNNAME":"永康區","LI":"\u25A0行里","LIN":"1鄰","STREET":"中正北路","SECT":" ","MAREA":" ","LANE":" ","ALLEY":" ","HOUSE_NO":"５４號十二樓之１","E_COORD97":172009.10000000001,"N_COORD97":2549058.5800000001,"ADDRESS":"中正北路５４號十二樓之１","OBJECTID":493701},"geometry":{"x":172009.09999999963,"y":2549058.5800000038}},{"attributes":{"ID":493729,"DIS_CODE":0,"TOWNNAME":"永康區","LI":"\u25A0行里","LIN":"1鄰","STREET":"中正北路","SECT":" ","MAREA":" ","LANE":" ","ALLEY":" ","HOUSE_NO":"５４號九樓之６","E_COORD97":172007.95000000001,"N_COORD97":2549058.5800000001,"ADDRESS":"中正北路５４號九樓之６","OBJECTID":493702},"geometry":{"x":172007.95000000112,"y":2549058.5800000038}},{"attributes":{"ID":493730,"DIS_CODE":0,"TOWNNAME":"永康區","LI":"\u25A0行里","LIN":"1鄰","STREET":"中正北路","SECT":" ","MAREA":" ","LANE":" ","ALLEY":" ","HOUSE_NO":"５４號九樓之１０","E_COORD97":172009.14999999999,"N_COORD97":2549058.5800000001,"ADDRESS":"中正北路５４號九樓之１０","OBJECTID":493703},"geometry":{"x":172009.15000000037,"y":2549058.5800000038}},{"attributes":{"ID":493731,"DIS_CODE":0,"TOWNNAME":"永康區","LI":"\u25A0行里","LIN":"1鄰","STREET":"中正北路","SECT":" ","MAREA":" ","LANE":" ","ALLEY":" ","HOUSE_NO":"５４號十樓之３","E_COORD97":172007.95000000001,"N_COORD97":2549058.5800000001,"ADDRESS":"中正北路５４號十樓之３","OBJECTID":493704},"geometry":{"x":172007.95000000112,"y":2549058.5800000038}},{"attributes":{"ID":493732,"DIS_CODE":0,"TOWNNAME":"永康區","LI":"\u25A0行里","LIN":"1鄰","STREET":"中正北路","SECT":" ","MAREA":" ","LANE":" ","ALLEY":" ","HOUSE_NO":"５４號三樓之５","E_COORD97":172008,"N_COORD97":2549058.5800000001,"ADDRESS":"中正北路５４號三樓之５","OBJECTID":493705},"geometry":{"x":172008,"y":2549058.5800000038}},{"attributes":{"ID":493733,"DIS_CODE":0,"TOWNNAME":"永康區","LI":"\u25A0行里","LIN":"1鄰","STREET":"中正北路","SECT":" ","MAREA":" ","LANE":" ","ALLEY":" ","HOUSE_NO":"５４號十樓之１０","E_COORD97":172009.14999999999,"N_COORD97":2549058.5800000001,"ADDRESS":"中正北路５４號十樓之１０","OBJECTID":493706},"geometry":{"x":172009.15000000037,"y":2549058.5800000038}},{"attributes":{"ID":493734,"DIS_CODE":0,"TOWNNAME":"永康區","LI":"\u25A0行里","LIN":"1鄰","STREET":"中正北路","SECT":" ","MAREA":" ","LANE":" ","ALLEY":" ","HOUSE_NO":"５４號七樓之５","E_COORD97":172008,"N_COORD97":2549058.5800000001,"ADDRESS":"中正北路５４號七樓之５","OBJECTID":493707},"geometry":{"x":172008,"y":2549058.5800000038}},{"attributes":{"ID":493735,"DIS_CODE":0,"TOWNNAME":"永康區","LI":"\u25A0行里","LIN":"1鄰","STREET":"中正北路","SECT":" ","MAREA":" ","LANE":" ","ALLEY":" ","HOUSE_NO":"５４號九樓之１１","E_COORD97":172009.10000000001,"N_COORD97":2549058.5800000001,"ADDRESS":"中正北路５４號九樓之１１","OBJECTID":493708},"geometry":{"x":172009.09999999963,"y":2549058.5800000038}},{"attributes":{"ID":493736,"DIS_CODE":0,"TOWNNAME":"永康區","LI":"\u25A0行里","LIN":"1鄰","STREET":"中正北路","SECT":" ","MAREA":" ","LANE":" ","ALLEY":" ","HOUSE_NO":"５４號八樓之１","E_COORD97":172007.85000000001,"N_COORD97":2549058.5800000001,"ADDRESS":"中正北路５４號八樓之１","OBJECTID":493709},"geometry":{"x":172007.85000000149,"y":2549058.5800000038}},{"attributes":{"ID":493737,"DIS_CODE":0,"TOWNNAME":"永康區","LI":"永康里","LIN":"39鄰","STREET":"永大一路","SECT":" ","MAREA":" ","LANE":" ","ALLEY":" ","HOUSE_NO":"３３號","E_COORD97":174253.45000000001,"N_COORD97":2546449.9100000001,"ADDRESS":"永大一路３３號","OBJECTID":493710},"geometry":{"x":174253.45000000019,"y":2546449.910000002}},{"attributes":{"ID":493738,"DIS_CODE":0,"TOWNNAME":"永康區","LI":"永康里","LIN":"39鄰","STREET":"文化路","SECT":" ","MAREA":" ","LANE":" ","ALLEY":" ","HOUSE_NO":"４２號","E_COORD97":174284.42000000001,"N_COORD97":2546356.3199999998,"ADDRESS":"文化路４２號","OBJECTID":493711},"geometry":{"x":174284.42000000086,"y":2546356.3200000022}},{"attributes":{"ID":493739,"DIS_CODE":0,"TOWNNAME":"永康區","LI":"永康里","LIN":"39鄰","STREET":"文化路","SECT":" ","MAREA":" ","LANE":" ","ALLEY":" ","HOUSE_NO":"４６號","E_COORD97":174273.42000000001,"N_COORD97":2546352.8199999998,"ADDRESS":"文化路４６號","OBJECTID":493712},"geometry":{"x":174273.41999999993,"y":2546352.8200000022}},{"attributes":{"ID":493740,"DIS_CODE":0,"TOWNNAME":"仁德區","LI":"仁德里","LIN":"39鄰","STREET":"文山路","SECT":" ","MAREA":" ","LANE":" ","ALLEY":" ","HOUSE_NO":"２２１號","E_COORD97":172659.81,"N_COORD97":2541745.0800000001,"ADDRESS":"文山路２２１號","OBJECTID":493713},"geometry":{"x":172659.80999999959,"y":2541745.0800000001}},{"attributes":{"ID":493741,"DIS_CODE":0,"TOWNNAME":"仁德區","LI":"仁德里","LIN":"39鄰","STREET":"文山路","SECT":" ","MAREA":" ","LANE":" ","ALLEY":" ","HOUSE_NO":"１９０號","E_COORD97":172708.10999999999,"N_COORD97":2541792.8300000001,"ADDRESS":"文山路１９０號","OBJECTID":493714},"geometry":{"x":172708.11000000034,"y":2541792.8300000019}},{"attributes":{"ID":493742,"DIS_CODE":0,"TOWNNAME":"仁德區","LI":"仁德里","LIN":"39鄰","STREET":"文山路","SECT":" ","MAREA":" ","LANE":" ","ALLEY":" ","HOUSE_NO":"２００號","E_COORD97":172689.23999999999,"N_COORD97":2541799.8199999998,"ADDRESS":"文山路２００號","OBJECTID":493715},"geometry":{"x":172689.24000000115,"y":2541799.8200000022}},{"attributes":{"ID":493743,"DIS_CODE":0,"TOWNNAME":"仁德區","LI":"後壁里","LIN":"39鄰","STREET":"德安路","SECT":" ","MAREA":" ","LANE":" ","ALLEY":" ","HOUSE_NO":"８０之１號","E_COORD97":173467.20000000001,"N_COORD97":2539092.9300000002,"ADDRESS":"德安路８０之１號","OBJECTID":493716},"geometry":{"x":173467.20000000205,"y":2539092.9300000016}},{"attributes":{"ID":493744,"DIS_CODE":0,"TOWNNAME":"永康區","LI":"永康里","LIN":"39鄰","STREET":"永大一路","SECT":" ","MAREA":" ","LANE":" ","ALLEY":" ","HOUSE_NO":"３１號","E_COORD97":174257.60999999999,"N_COORD97":2546451.0800000001,"ADDRESS":"永大一路３１號","OBJECTID":493717},"geometry":{"x":174257.61000000034,"y":2546451.0799999982}},{"attributes":{"ID":493745,"DIS_CODE":0,"TOWNNAME":"永康區","LI":"崑山里","LIN":"39鄰","STREET":"崑山街","SECT":" ","MAREA":" ","LANE":" ","ALLEY":" ","HOUSE_NO":"２０８號","E_COORD97":174094.37,"N_COORD97":2545021.1600000001,"ADDRESS":"崑山街２０８號","OBJECTID":493718},"geometry":{"x":174094.37000000011,"y":2545021.160000002}},{"attributes":{"ID":493746,"DIS_CODE":0,"TOWNNAME":"永康區","LI":"永康里","LIN":"39鄰","STREET":"永大路","SECT":"二段","MAREA":" ","LANE":" ","ALLEY":" ","HOUSE_NO":"６６７號","E_COORD97":174384.26999999999,"N_COORD97":2546519.0299999998,"ADDRESS":"永大路二段６６７號","OBJECTID":493719},"geometry":{"x":174384.26999999955,"y":2546519.0300000012}},{"attributes":{"ID":493747,"DIS_CODE":0,"TOWNNAME":"永康區","LI":"北灣里","LIN":"39鄰","STREET":"大同街","SECT":" ","MAREA":" ","LANE":" ","ALLEY":" ","HOUSE_NO":"６３８號","E_COORD97":174637.91,"N_COORD97":2546325,"ADDRESS":"大同街６３８號","OBJECTID":493720},"geometry":{"x":174637.91000000108,"y":2546325}},{"attributes":{"ID":493748,"DIS_CODE":0,"TOWNNAME":"永康區","LI":"永康里","LIN":"39鄰","STREET":"永大一路","SECT":" ","MAREA":" ","LANE":" ","ALLEY":" ","HOUSE_NO":"６２號之１","E_COORD97":174172.13,"N_COORD97":2546454.9700000002,"ADDRESS":"永大一路６２號之１","OBJECTID":493721},"geometry":{"x":174172.12999999989,"y":2546454.9700000007}},{"attributes":{"ID":493749,"DIS_CODE":0,"TOWNNAME":"永康區","LI":"埔園里","LIN":"39鄰","STREET":"自強路","SECT":" ","MAREA":" ","LANE":" ","ALLEY":" ","HOUSE_NO":"５６０號","E_COORD97":173992.51000000001,"N_COORD97":2548126.0499999998,"ADDRESS":"自強路５６０號","OBJECTID":493722},"geometry":{"x":173992.51000000071,"y":2548126.0500000007}},{"attributes":{"ID":493750,"DIS_CODE":0,"TOWNNAME":"永康區","LI":"埔園里","LIN":"39鄰","STREET":"自強路","SECT":" ","MAREA":" ","LANE":" ","ALLEY":" ","HOUSE_NO":"５５６號","E_COORD97":173985.92999999999,"N_COORD97":2548121.0499999998,"ADDRESS":"自強路５５６號","OBJECTID":493723},"geometry":{"x":173985.93000000063,"y":2548121.0500000026}},{"attributes":{"ID":493751,"DIS_CODE":0,"TOWNNAME":"永康區","LI":"埔園里","LIN":"39鄰","STREET":"自強路","SECT":" ","MAREA":" ","LANE":" ","ALLEY":" ","HOUSE_NO":"５７０號","E_COORD97":174007.95999999999,"N_COORD97":2548139.7999999998,"ADDRESS":"自強路５７０號","OBJECTID":493724},"geometry":{"x":174007.96000000089,"y":2548139.8000000026}},{"attributes":{"ID":493752,"DIS_CODE":0,"TOWNNAME":"永康區","LI":"埔園里","LIN":"39鄰","STREET":"自強路","SECT":" ","MAREA":" ","LANE":" ","ALLEY":" ","HOUSE_NO":"５８０號","E_COORD97":174020.62,"N_COORD97":2548150.2999999998,"ADDRESS":"自強路５８０號","OBJECTID":493725},"geometry":{"x":174020.62000000104,"y":2548150.3000000026}},{"attributes":{"ID":493753,"DIS_CODE":0,"TOWNNAME":"永康區","LI":"埔園里","LIN":"39鄰","STREET":"自強路","SECT":" ","MAREA":" ","LANE":" ","ALLEY":" ","HOUSE_NO":"５５２號","E_COORD97":173982.54000000001,"N_COORD97":2548118.2999999998,"ADDRESS":"自強路５５２號","OBJECTID":493726},"geometry":{"x":173982.54000000097,"y":2548118.3000000007}},{"attributes":{"ID":493754,"DIS_CODE":0,"TOWNNAME":"永康區","LI":"埔園里","LIN":"39鄰","STREET":"龍國街","SECT":" ","MAREA":" ","LANE":" ","ALLEY":" ","HOUSE_NO":"５號","E_COORD97":174004.01999999999,"N_COORD97":2548109.9300000002,"ADDRESS":"龍國街５號","OBJECTID":493727},"geometry":{"x":174004.02000000048,"y":2548109.9300000034}},{"attributes":{"ID":493755,"DIS_CODE":0,"TOWNNAME":"永康區","LI":"埔園里","LIN":"39鄰","STREET":"自強路","SECT":" ","MAREA":" ","LANE":" ","ALLEY":" ","HOUSE_NO":"５６２號","E_COORD97":173995.60000000001,"N_COORD97":2548129.2999999998,"ADDRESS":"自強路５６２號","OBJECTID":493728},"geometry":{"x":173995.59999999963,"y":2548129.3000000026}},{"attributes":{"ID":493756,"DIS_CODE":0,"TOWNNAME":"永康區","LI":"埔園里","LIN":"39鄰","STREET":"自強路","SECT":" ","MAREA":" ","LANE":" ","ALLEY":" ","HOUSE_NO":"５５０號","E_COORD97":173978.10999999999,"N_COORD97":2548115.0499999998,"ADDRESS":"自強路５５０號","OBJECTID":493729},"geometry":{"x":173978.11000000034,"y":2548115.0500000026}},{"attributes":{"ID":493757,"DIS_CODE":0,"TOWNNAME":"仁德區","LI":"後壁里","LIN":"39鄰","STREET":"德善一街","SECT":" ","MAREA":" ","LANE":" ","ALLEY":" ","HOUSE_NO":"５５號","E_COORD97":173550.78,"N_COORD97":2539089.77,"ADDRESS":"德善一街５５號","OBJECTID":493730},"geometry":{"x":173550.78000000026,"y":2539089.7700000014}},{"attributes":{"ID":493758,"DIS_CODE":0,"TOWNNAME":"永康區","LI":"龍潭里","LIN":"39鄰","STREET":"永明街","SECT":" ","MAREA":" ","LANE":" ","ALLEY":" ","HOUSE_NO":"２６１之７號","E_COORD97":174626.64000000001,"N_COORD97":2547230.27,"ADDRESS":"永明街２６１之７號","OBJECTID":493731},"geometry":{"x":174626.64000000153,"y":2547230.2700000014}},{"attributes":{"ID":493759,"DIS_CODE":0,"TOWNNAME":"永康區","LI":"龍潭里","LIN":"39鄰","STREET":"永明街","SECT":" ","MAREA":" ","LANE":" ","ALLEY":" ","HOUSE_NO":"２６１之８號","E_COORD97":174626.64000000001,"N_COORD97":2547230.27,"ADDRESS":"永明街２６１之８號","OBJECTID":493732},"geometry":{"x":174626.64000000153,"y":2547230.2700000014}},{"attributes":{"ID":493760,"DIS_CODE":0,"TOWNNAME":"永康區","LI":"龍潭里","LIN":"39鄰","STREET":"永明街","SECT":" ","MAREA":" ","LANE":" ","ALLEY":" ","HOUSE_NO":"２６５之１２號","E_COORD97":174629.37,"N_COORD97":2547263.5499999998,"ADDRESS":"永明街２６５之１２號","OBJECTID":493733},"geometry":{"x":174629.37000000104,"y":2547263.5500000026}},{"attributes":{"ID":493761,"DIS_CODE":0,"TOWNNAME":"永康區","LI":"龍潭里","LIN":"39鄰","STREET":"永明街","SECT":" ","MAREA":" ","LANE":" ","ALLEY":" ","HOUSE_NO":"２７７號","E_COORD97":174679.76000000001,"N_COORD97":2547216.2200000002,"ADDRESS":"永明街２７７號","OBJECTID":493734},"geometry":{"x":174679.75999999978,"y":2547216.2200000007}},{"attributes":{"ID":493762,"DIS_CODE":0,"TOWNNAME":"永康區","LI":"龍潭里","LIN":"39鄰","STREET":"永明街","SECT":" ","MAREA":" ","LANE":" ","ALLEY":" ","HOUSE_NO":"２１１號","E_COORD97":174514.85000000001,"N_COORD97":2547216.4900000002,"ADDRESS":"永明街２１１號","OBJECTID":493735},"geometry":{"x":174514.8499999987,"y":2547216.4900000021}},{"attributes":{"ID":493763,"DIS_CODE":0,"TOWNNAME":"仁德區","LI":"仁德里","LIN":"39鄰","STREET":"文山路","SECT":" ","MAREA":" ","LANE":" ","ALLEY":" ","HOUSE_NO":"２１１號","E_COORD97":172660.32999999999,"N_COORD97":2541753.8300000001,"ADDRESS":"文山路２１１號","OBJECTID":493736},"geometry":{"x":172660.33000000007,"y":2541753.8300000038}},{"attributes":{"ID":493764,"DIS_CODE":0,"TOWNNAME":"仁德區","LI":"仁德里","LIN":"39鄰","STREET":"文山路","SECT":" ","MAREA":" ","LANE":" ","ALLEY":" ","HOUSE_NO":"２１９號","E_COORD97":172664.42999999999,"N_COORD97":2541743.5800000001,"ADDRESS":"文山路２１９號","OBJECTID":493737},"geometry":{"x":172664.4299999997,"y":2541743.5800000019}},{"attributes":{"ID":493765,"DIS_CODE":0,"TOWNNAME":"仁德區","LI":"仁德里","LIN":"39鄰","STREET":"文山路","SECT":" ","MAREA":" ","LANE":" ","ALLEY":" ","HOUSE_NO":"２０１號","E_COORD97":172679.23000000001,"N_COORD97":2541778.5800000001,"ADDRESS":"文山路２０１號","OBJECTID":493738},"geometry":{"x":172679.23000000138,"y":2541778.5800000001}},{"attributes":{"ID":493766,"DIS_CODE":0,"TOWNNAME":"仁德區","LI":"仁德里","LIN":"39鄰","STREET":"文山路","SECT":" ","MAREA":" ","LANE":" ","ALLEY":" ","HOUSE_NO":"２８３號","E_COORD97":172621.76999999999,"N_COORD97":2541775.0800000001,"ADDRESS":"文山路２８３號","OBJECTID":493739},"geometry":{"x":172621.76999999862,"y":2541775.0800000001}},{"attributes":{"ID":493767,"DIS_CODE":0,"TOWNNAME":"仁德區","LI":"仁德里","LIN":"39鄰","STREET":"文山路","SECT":" ","MAREA":" ","LANE":" ","ALLEY":" ","HOUSE_NO":"１９８號","E_COORD97":172694.01000000001,"N_COORD97":2541797.8199999998,"ADDRESS":"文山路１９８號","OBJECTID":493740},"geometry":{"x":172694.01000000071,"y":2541797.8200000003}},{"attributes":{"ID":493768,"DIS_CODE":0,"TOWNNAME":"仁德區","LI":"仁德里","LIN":"39鄰","STREET":"文山路","SECT":" ","MAREA":" ","LANE":" ","ALLEY":" ","HOUSE_NO":"２５１號","E_COORD97":172648.84,"N_COORD97":2541788.5800000001,"ADDRESS":"文山路２５１號","OBJECTID":493741},"geometry":{"x":172648.84000000171,"y":2541788.5800000001}},{"attributes":{"ID":493769,"DIS_CODE":0,"TOWNNAME":"仁德區","LI":"仁義里","LIN":"39鄰","STREET":"仁義五街","SECT":" ","MAREA":" ","LANE":" ","ALLEY":" ","HOUSE_NO":"５０號","E_COORD97":173627.89000000001,"N_COORD97":2540434.27,"ADDRESS":"仁義五街５０號","OBJECTID":493742},"geometry":{"x":173627.88999999966,"y":2540434.2699999996}},{"attributes":{"ID":493770,"DIS_CODE":0,"TOWNNAME":"仁德區","LI":"仁德里","LIN":"39鄰","STREET":"文宏二街","SECT":" ","MAREA":" ","LANE":" ","ALLEY":" ","HOUSE_NO":"６３號","E_COORD97":172440.23000000001,"N_COORD97":2541793.0800000001,"ADDRESS":"文宏二街６３號","OBJECTID":493743},"geometry":{"x":172440.23000000138,"y":2541793.0800000038}},{"attributes":{"ID":493771,"DIS_CODE":0,"TOWNNAME":"仁德區","LI":"仁德里","LIN":"39鄰","STREET":"文山路","SECT":" ","MAREA":" ","LANE":" ","ALLEY":" ","HOUSE_NO":"２３９號","E_COORD97":172651.95000000001,"N_COORD97":2541757.3300000001,"ADDRESS":"文山路２３９號","OBJECTID":493744},"geometry":{"x":172651.95000000205,"y":2541757.3300000038}},{"attributes":{"ID":493772,"DIS_CODE":0,"TOWNNAME":"仁德區","LI":"仁德里","LIN":"39鄰","STREET":"文宏二街","SECT":" ","MAREA":" ","LANE":" ","ALLEY":" ","HOUSE_NO":"６５號","E_COORD97":172444.23999999999,"N_COORD97":2541792.3300000001,"ADDRESS":"文宏二街６５號","OBJECTID":493745},"geometry":{"x":172444.24000000022,"y":2541792.3300000019}},{"attributes":{"ID":493773,"DIS_CODE":0,"TOWNNAME":"仁德區","LI":"仁德里","LIN":"39鄰","STREET":"文山路","SECT":" ","MAREA":" ","LANE":" ","ALLEY":" ","HOUSE_NO":"２４９號","E_COORD97":172652.89999999999,"N_COORD97":2541786.8300000001,"ADDRESS":"文山路２４９號","OBJECTID":493746},"geometry":{"x":172652.9000000013,"y":2541786.8300000001}},{"attributes":{"ID":493774,"DIS_CODE":0,"TOWNNAME":"仁德區","LI":"仁德里","LIN":"39鄰","STREET":"文宏二街","SECT":" ","MAREA":" ","LANE":" ","ALLEY":" ","HOUSE_NO":"６８號","E_COORD97":172479.5,"N_COORD97":2541734.3199999998,"ADDRESS":"文宏二街６８號","OBJECTID":493747},"geometry":{"x":172479.5,"y":2541734.3200000022}},{"attributes":{"ID":493775,"DIS_CODE":0,"TOWNNAME":"仁德區","LI":"仁德里","LIN":"39鄰","STREET":"文宏二街","SECT":" ","MAREA":" ","LANE":" ","ALLEY":" ","HOUSE_NO":"５１號","E_COORD97":172458.17999999999,"N_COORD97":2541778.3300000001,"ADDRESS":"文宏二街５１號","OBJECTID":493748},"geometry":{"x":172458.18000000156,"y":2541778.3300000019}},{"attributes":{"ID":493776,"DIS_CODE":0,"TOWNNAME":"仁德區","LI":"仁德里","LIN":"39鄰","STREET":"文山路","SECT":" ","MAREA":" ","LANE":" ","ALLEY":" ","HOUSE_NO":"２４１號","E_COORD97":172653.17999999999,"N_COORD97":2541767.5800000001,"ADDRESS":"文山路２４１號","OBJECTID":493749},"geometry":{"x":172653.18000000156,"y":2541767.5800000001}},{"attributes":{"ID":493777,"DIS_CODE":0,"TOWNNAME":"仁德區","LI":"仁德里","LIN":"39鄰","STREET":"文宏二街","SECT":" ","MAREA":" ","LANE":" ","ALLEY":" ","HOUSE_NO":"６６號","E_COORD97":172475.26999999999,"N_COORD97":2541735.3199999998,"ADDRESS":"文宏二街６６號","OBJECTID":493750},"geometry":{"x":172475.26999999955,"y":2541735.3200000022}},{"attributes":{"ID":493778,"DIS_CODE":0,"TOWNNAME":"永康區","LI":"\u25A0洲里","LIN":"39鄰","STREET":"\u25A0洲一街","SECT":" ","MAREA":" ","LANE":" ","ALLEY":" ","HOUSE_NO":"１００號","E_COORD97":171629.70999999999,"N_COORD97":2549089.4900000002,"ADDRESS":"\u25A0洲一街１００號","OBJECTID":493751},"geometry":{"x":171629.71000000089,"y":2549089.4900000002}},{"attributes":{"ID":493779,"DIS_CODE":0,"TOWNNAME":"永康區","LI":"\u25A0洲里","LIN":"39鄰","STREET":"\u25A0洲一街","SECT":" ","MAREA":" ","LANE":" ","ALLEY":" ","HOUSE_NO":"４９號","E_COORD97":171597.25,"N_COORD97":2549090.5,"ADDRESS":"\u25A0洲一街４９號","OBJECTID":493752},"geometry":{"x":171597.25000000093,"y":2549090.5000000019}},{"attributes":{"ID":493780,"DIS_CODE":0,"TOWNNAME":"永康區","LI":"\u25A0洲里","LIN":"39鄰","STREET":"\u25A0洲一街","SECT":" ","MAREA":" ","LANE":" ","ALLEY":" ","HOUSE_NO":"４１號","E_COORD97":171584.85999999999,"N_COORD97":2549075.75,"ADDRESS":"\u25A0洲一街４１號","OBJECTID":493753},"geometry":{"x":171584.86000000127,"y":2549075.7500000019}},{"attributes":{"ID":493781,"DIS_CODE":0,"TOWNNAME":"永康區","LI":"\u25A0洲里","LIN":"39鄰","STREET":"\u25A0洲一街","SECT":" ","MAREA":" ","LANE":" ","ALLEY":" ","HOUSE_NO":"８８號","E_COORD97":171611.51999999999,"N_COORD97":2549078.8300000001,"ADDRESS":"\u25A0洲一街８８號","OBJECTID":493754},"geometry":{"x":171611.52000000142,"y":2549078.8300000019}},{"attributes":{"ID":493782,"DIS_CODE":0,"TOWNNAME":"永康區","LI":"\u25A0洲里","LIN":"39鄰","STREET":"\u25A0洲一街","SECT":" ","MAREA":" ","LANE":" ","ALLEY":" ","HOUSE_NO":"９０號","E_COORD97":171617.35000000001,"N_COORD97":2549078.4900000002,"ADDRESS":"\u25A0洲一街９０號","OBJECTID":493755},"geometry":{"x":171617.34999999963,"y":2549078.4900000002}},{"attributes":{"ID":493783,"DIS_CODE":0,"TOWNNAME":"永康區","LI":"\u25A0洲里","LIN":"39鄰","STREET":"\u25A0洲一街","SECT":" ","MAREA":" ","LANE":" ","ALLEY":" ","HOUSE_NO":"６１號","E_COORD97":171614.72,"N_COORD97":2549110.7599999998,"ADDRESS":"\u25A0洲一街６１號","OBJECTID":493756},"geometry":{"x":171614.71999999974,"y":2549110.7599999998}},{"attributes":{"ID":493784,"DIS_CODE":0,"TOWNNAME":"永康區","LI":"龍潭里","LIN":"39鄰","STREET":"永明街","SECT":" ","MAREA":" ","LANE":" ","ALLEY":" ","HOUSE_NO":"２６５之３號","E_COORD97":174628.12,"N_COORD97":2547263.5499999998,"ADDRESS":"永明街２６５之３號","OBJECTID":493757},"geometry":{"x":174628.12000000011,"y":2547263.5500000026}},{"attributes":{"ID":493785,"DIS_CODE":0,"TOWNNAME":"永康區","LI":"龍潭里","LIN":"39鄰","STREET":"永明街","SECT":" ","MAREA":" ","LANE":" ","ALLEY":" ","HOUSE_NO":"２６５之１０號","E_COORD97":174629.37,"N_COORD97":2547263.5499999998,"ADDRESS":"永明街２６５之１０號","OBJECTID":493758},"geometry":{"x":174629.37000000104,"y":2547263.5500000026}},{"attributes":{"ID":493786,"DIS_CODE":0,"TOWNNAME":"永康區","LI":"龍潭里","LIN":"39鄰","STREET":"永明街","SECT":" ","MAREA":" ","LANE":" ","ALLEY":" ","HOUSE_NO":"２７５號","E_COORD97":174671.45999999999,"N_COORD97":2547216.7200000002,"ADDRESS":"永明街２７５號","OBJECTID":493759},"geometry":{"x":174671.45999999996,"y":2547216.7200000007}},{"attributes":{"ID":493787,"DIS_CODE":0,"TOWNNAME":"永康區","LI":"\u25A0行里","LIN":"39鄰","STREET":"永安路","SECT":" ","MAREA":" ","LANE":" ","ALLEY":" ","HOUSE_NO":"２１號","E_COORD97":172763.56,"N_COORD97":2549179.2799999998,"ADDRESS":"永安路２１號","OBJECTID":493760},"geometry":{"x":172763.55999999959,"y":2549179.2800000012}},{"attributes":{"ID":493788,"DIS_CODE":0,"TOWNNAME":"永康區","LI":"龍潭里","LIN":"39鄰","STREET":"永明街","SECT":" ","MAREA":" ","LANE":" ","ALLEY":" ","HOUSE_NO":"２６７之１１號","E_COORD97":174629.38,"N_COORD97":2547287.79,"ADDRESS":"永明街２６７之１１號","OBJECTID":493761},"geometry":{"x":174629.38000000082,"y":2547287.790000001}},{"attributes":{"ID":493789,"DIS_CODE":0,"TOWNNAME":"東區","LI":"崇文里","LIN":"39鄰","STREET":"生產路","SECT":" ","MAREA":" ","LANE":" ","ALLEY":" ","HOUSE_NO":"２５７號","E_COORD97":170821.91,"N_COORD97":2540616.9199999999,"ADDRESS":"生產路２５７號","OBJECTID":493762},"geometry":{"x":170821.91000000108,"y":2540616.9199999999}},{"attributes":{"ID":493790,"DIS_CODE":0,"TOWNNAME":"東區","LI":"崇文里","LIN":"39鄰","STREET":"生產路","SECT":" ","MAREA":" ","LANE":" ","ALLEY":" ","HOUSE_NO":"２５９號","E_COORD97":170829.87,"N_COORD97":2540617.2200000002,"ADDRESS":"生產路２５９號","OBJECTID":493763},"geometry":{"x":170829.86999999918,"y":2540617.2200000025}},{"attributes":{"ID":493791,"DIS_CODE":0,"TOWNNAME":"東區","LI":"崇文里","LIN":"39鄰","STREET":"生產路","SECT":" ","MAREA":" ","LANE":" ","ALLEY":" ","HOUSE_NO":"２６１號","E_COORD97":170837.14000000001,"N_COORD97":2540617.2200000002,"ADDRESS":"生產路２６１號","OBJECTID":493764},"geometry":{"x":170837.13999999966,"y":2540617.2200000025}},{"attributes":{"ID":493792,"DIS_CODE":0,"TOWNNAME":"東區","LI":"崇文里","LIN":"39鄰","STREET":"生產路","SECT":" ","MAREA":" ","LANE":" ","ALLEY":" ","HOUSE_NO":"２６５號","E_COORD97":170853.25,"N_COORD97":2540617.3199999998,"ADDRESS":"生產路２６５號","OBJECTID":493765},"geometry":{"x":170853.25000000093,"y":2540617.3200000003}},{"attributes":{"ID":493793,"DIS_CODE":0,"TOWNNAME":"東區","LI":"崇文里","LIN":"39鄰","STREET":"生產路","SECT":" ","MAREA":" ","LANE":" ","ALLEY":" ","HOUSE_NO":"２６７號","E_COORD97":170858.04000000001,"N_COORD97":2540623.3799999999,"ADDRESS":"生產路２６７號","OBJECTID":493766},"geometry":{"x":170858.04000000097,"y":2540623.3800000027}},{"attributes":{"ID":493794,"DIS_CODE":0,"TOWNNAME":"東區","LI":"崇文里","LIN":"39鄰","STREET":"崇德路","SECT":" ","MAREA":" ","LANE":" ","ALLEY":" ","HOUSE_NO":"８２９號","E_COORD97":170802.59,"N_COORD97":2540649.8700000001,"ADDRESS":"崇德路８２９號","OBJECTID":493767},"geometry":{"x":170802.58999999985,"y":2540649.8700000029}},{"attributes":{"ID":493795,"DIS_CODE":0,"TOWNNAME":"東區","LI":"崇文里","LIN":"39鄰","STREET":"崇德路","SECT":" ","MAREA":" ","LANE":" ","ALLEY":" ","HOUSE_NO":"８３１號","E_COORD97":170802.78,"N_COORD97":2540639.73,"ADDRESS":"崇德路８３１號","OBJECTID":493768},"geometry":{"x":170802.78000000026,"y":2540639.7300000042}},{"attributes":{"ID":493796,"DIS_CODE":0,"TOWNNAME":"東區","LI":"崇文里","LIN":"39鄰","STREET":"崇德路","SECT":" ","MAREA":" ","LANE":" ","ALLEY":" ","HOUSE_NO":"８３５號","E_COORD97":170803.07999999999,"N_COORD97":2540618.6400000001,"ADDRESS":"崇德路８３５號","OBJECTID":493769},"geometry":{"x":170803.08000000194,"y":2540618.6400000006}},{"attributes":{"ID":493797,"DIS_CODE":0,"TOWNNAME":"永康區","LI":"崑山里","LIN":"39鄰","STREET":"永大路","SECT":"二段","MAREA":" ","LANE":" ","ALLEY":" ","HOUSE_NO":"９３號","E_COORD97":174196.67999999999,"N_COORD97":2544930.48,"ADDRESS":"永大路二段９３號","OBJECTID":493770},"geometry":{"x":174196.6799999997,"y":2544930.4800000023}},{"attributes":{"ID":493798,"DIS_CODE":0,"TOWNNAME":"永康區","LI":"龍潭里","LIN":"39鄰","STREET":"永明街","SECT":" ","MAREA":" ","LANE":" ","ALLEY":" ","HOUSE_NO":"２１３號","E_COORD97":174519.37,"N_COORD97":2547216.7400000002,"ADDRESS":"永明街２１３號","OBJECTID":493771},"geometry":{"x":174519.37000000104,"y":2547216.7400000039}},{"attributes":{"ID":493799,"DIS_CODE":0,"TOWNNAME":"永康區","LI":"\u25A0洲里","LIN":"39鄰","STREET":"\u25A0洲一街","SECT":" ","MAREA":" ","LANE":" ","ALLEY":" ","HOUSE_NO":"９２號","E_COORD97":171620.14000000001,"N_COORD97":2549081.2400000002,"ADDRESS":"\u25A0洲一街９２號","OBJECTID":493772},"geometry":{"x":171620.1400000006,"y":2549081.2400000039}},{"attributes":{"ID":493800,"DIS_CODE":0,"TOWNNAME":"永康區","LI":"\u25A0洲里","LIN":"39鄰","STREET":"\u25A0洲一街","SECT":" ","MAREA":" ","LANE":" ","ALLEY":" ","HOUSE_NO":"１０２號","E_COORD97":171632.5,"N_COORD97":2549091.9900000002,"ADDRESS":"\u25A0洲一街１０２號","OBJECTID":493773},"geometry":{"x":171632.50000000186,"y":2549091.9900000002}},{"attributes":{"ID":493801,"DIS_CODE":0,"TOWNNAME":"永康區","LI":"永康里","LIN":"39鄰","STREET":"文化路","SECT":" ","MAREA":" ","LANE":" ","ALLEY":" ","HOUSE_NO":"３０號","E_COORD97":174315.37,"N_COORD97":2546365.5699999998,"ADDRESS":"文化路３０號","OBJECTID":493774},"geometry":{"x":174315.37000000197,"y":2546365.5700000003}},{"attributes":{"ID":493802,"DIS_CODE":0,"TOWNNAME":"歸仁區","LI":"後市里","LIN":"39鄰","STREET":"國光街","SECT":" ","MAREA":" ","LANE":" ","ALLEY":" ","HOUSE_NO":"１１３號","E_COORD97":177333.44,"N_COORD97":2541093.7400000002,"ADDRESS":"國光街１１３號","OBJECTID":493775},"geometry":{"x":177333.44000000041,"y":2541093.7400000039}},{"attributes":{"ID":493803,"DIS_CODE":0,"TOWNNAME":"北區","LI":"和順里","LIN":"39鄰","STREET":"公園南路","SECT":" ","MAREA":" ","LANE":" ","ALLEY":" ","HOUSE_NO":"３７８號","E_COORD97":168147.82999999999,"N_COORD97":2544880.5499999998,"ADDRESS":"公園南路３７８號","OBJECTID":493776},"geometry":{"x":168147.83000000007,"y":2544880.5500000026}},{"attributes":{"ID":493804,"DIS_CODE":0,"TOWNNAME":"北區","LI":"和順里","LIN":"39鄰","STREET":"臨安路","SECT":"二段","MAREA":" ","LANE":" ","ALLEY":" ","HOUSE_NO":"２５０之１號","E_COORD97":168128.64000000001,"N_COORD97":2544956.1899999999,"ADDRESS":"臨安路二段２５０之１號","OBJECTID":493777},"geometry":{"x":168128.63999999966,"y":2544956.1900000013}},{"attributes":{"ID":493805,"DIS_CODE":0,"TOWNNAME":"北區","LI":"和順里","LIN":"39鄰","STREET":"臨安路","SECT":"二段","MAREA":" ","LANE":" ","ALLEY":" ","HOUSE_NO":"２５０號","E_COORD97":168124.06,"N_COORD97":2544970.75,"ADDRESS":"臨安路二段２５０號","OBJECTID":493778},"geometry":{"x":168124.05999999959,"y":2544970.75}},{"attributes":{"ID":493806,"DIS_CODE":0,"TOWNNAME":"北區","LI":"和順里","LIN":"39鄰","STREET":"臨安路","SECT":"二段","MAREA":" ","LANE":" ","ALLEY":" ","HOUSE_NO":"２５２號","E_COORD97":168130.92000000001,"N_COORD97":2544973.6099999999,"ADDRESS":"臨安路二段２５２號","OBJECTID":493779},"geometry":{"x":168130.92000000086,"y":2544973.6100000013}},{"attributes":{"ID":493807,"DIS_CODE":0,"TOWNNAME":"北區","LI":"和順里","LIN":"39鄰","STREET":"臨安路","SECT":"二段","MAREA":" ","LANE":" ","ALLEY":" ","HOUSE_NO":"２５８號","E_COORD97":168145.78,"N_COORD97":2544977.6000000001,"ADDRESS":"臨安路二段２５８號","OBJECTID":493780},"geometry":{"x":168145.78000000119,"y":2544977.5999999996}},{"attributes":{"ID":493808,"DIS_CODE":0,"TOWNNAME":"北區","LI":"和順里","LIN":"39鄰","STREET":"臨安路","SECT":"二段","MAREA":" ","LANE":" ","ALLEY":" ","HOUSE_NO":"２６２號","E_COORD97":168159.5,"N_COORD97":2544981.3100000001,"ADDRESS":"臨安路二段２６２號","OBJECTID":493781},"geometry":{"x":168159.50000000093,"y":2544981.3100000005}},{"attributes":{"ID":493809,"DIS_CODE":0,"TOWNNAME":"北區","LI":"和順里","LIN":"39鄰","STREET":"臨安路","SECT":"二段","MAREA":" ","LANE":" ","ALLEY":" ","HOUSE_NO":"２６６號","E_COORD97":168165.76999999999,"N_COORD97":2544983.77,"ADDRESS":"臨安路二段２６６號","OBJECTID":493782},"geometry":{"x":168165.77000000048,"y":2544983.7699999996}},{"attributes":{"ID":493810,"DIS_CODE":0,"TOWNNAME":"北區","LI":"和順里","LIN":"39鄰","STREET":"臨安路","SECT":"二段","MAREA":" ","LANE":" ","ALLEY":" ","HOUSE_NO":"２６８號","E_COORD97":168173.22,"N_COORD97":2544986.7400000002,"ADDRESS":"臨安路二段２６８號","OBJECTID":493783},"geometry":{"x":168173.22000000067,"y":2544986.7400000021}},{"attributes":{"ID":493811,"DIS_CODE":0,"TOWNNAME":"北區","LI":"和順里","LIN":"39鄰","STREET":"臨安路","SECT":"二段","MAREA":" ","LANE":" ","ALLEY":" ","HOUSE_NO":"２７０號","E_COORD97":168180.37,"N_COORD97":2544988.4500000002,"ADDRESS":"臨安路二段２７０號","OBJECTID":493784},"geometry":{"x":168180.37000000197,"y":2544988.4499999993}},{"attributes":{"ID":493812,"DIS_CODE":0,"TOWNNAME":"北區","LI":"和順里","LIN":"39鄰","STREET":"臨安路","SECT":"二段","MAREA":" ","LANE":" ","ALLEY":" ","HOUSE_NO":"３１０號","E_COORD97":168296.42000000001,"N_COORD97":2545036.0800000001,"ADDRESS":"臨安路二段３１０號","OBJECTID":493785},"geometry":{"x":168296.41999999993,"y":2545036.0800000001}},{"attributes":{"ID":493813,"DIS_CODE":0,"TOWNNAME":"永康區","LI":"龍潭里","LIN":"39鄰","STREET":"永明街","SECT":" ","MAREA":" ","LANE":" ","ALLEY":" ","HOUSE_NO":"２６５之１５號","E_COORD97":174629.37,"N_COORD97":2547263.5499999998,"ADDRESS":"永明街２６５之１５號","OBJECTID":493786},"geometry":{"x":174629.37000000104,"y":2547263.5500000026}},{"attributes":{"ID":493814,"DIS_CODE":0,"TOWNNAME":"永康區","LI":"龍潭里","LIN":"39鄰","STREET":"永明街","SECT":" ","MAREA":" ","LANE":" ","ALLEY":" ","HOUSE_NO":"２６５之２號","E_COORD97":174628.12,"N_COORD97":2547263.5499999998,"ADDRESS":"永明街２６５之２號","OBJECTID":493787},"geometry":{"x":174628.12000000011,"y":2547263.5500000026}},{"attributes":{"ID":493815,"DIS_CODE":0,"TOWNNAME":"永康區","LI":"\u25A0洲里","LIN":"39鄰","STREET":"\u25A0洲一街","SECT":" ","MAREA":" ","LANE":" ","ALLEY":" ","HOUSE_NO":"９６號","E_COORD97":171618.16,"N_COORD97":2549088.5600000001,"ADDRESS":"\u25A0洲一街９６號","OBJECTID":493788},"geometry":{"x":171618.16000000108,"y":2549088.5600000005}},{"attributes":{"ID":493816,"DIS_CODE":0,"TOWNNAME":"仁德區","LI":"仁德里","LIN":"39鄰","STREET":"文宏二街","SECT":" ","MAREA":" ","LANE":" ","ALLEY":" ","HOUSE_NO":"６２號","E_COORD97":172470.85000000001,"N_COORD97":2541736.8199999998,"ADDRESS":"文宏二街６２號","OBJECTID":493789},"geometry":{"x":172470.85000000056,"y":2541736.8200000003}},{"attributes":{"ID":493817,"DIS_CODE":0,"TOWNNAME":"仁德區","LI":"仁義里","LIN":"39鄰","STREET":"仁義五街","SECT":" ","MAREA":" ","LANE":" ","ALLEY":" ","HOUSE_NO":"４８號","E_COORD97":173622.85999999999,"N_COORD97":2540434.77,"ADDRESS":"仁義五街４８號","OBJECTID":493790},"geometry":{"x":173622.86000000127,"y":2540434.7699999977}},{"attributes":{"ID":493818,"DIS_CODE":0,"TOWNNAME":"仁德區","LI":"仁義里","LIN":"39鄰","STREET":"仁義五街","SECT":" ","MAREA":" ","LANE":" ","ALLEY":" ","HOUSE_NO":"４６號","E_COORD97":173613.51000000001,"N_COORD97":2540434.77,"ADDRESS":"仁義五街４６號","OBJECTID":493791},"geometry":{"x":173613.50999999978,"y":2540434.7699999977}},{"attributes":{"ID":493819,"DIS_CODE":0,"TOWNNAME":"仁德區","LI":"仁義里","LIN":"39鄰","STREET":"仁義五街","SECT":" ","MAREA":" ","LANE":" ","ALLEY":" ","HOUSE_NO":"４０號","E_COORD97":173585.45000000001,"N_COORD97":2540428.02,"ADDRESS":"仁義五街４０號","OBJECTID":493792},"geometry":{"x":173585.45000000019,"y":2540428.0200000014}},{"attributes":{"ID":493820,"DIS_CODE":0,"TOWNNAME":"仁德區","LI":"仁德里","LIN":"39鄰","STREET":"文山路","SECT":" ","MAREA":" ","LANE":" ","ALLEY":" ","HOUSE_NO":"１８０號","E_COORD97":172697.34,"N_COORD97":2541822.0699999998,"ADDRESS":"文山路１８０號","OBJECTID":493793},"geometry":{"x":172697.33999999985,"y":2541822.0700000003}},{"attributes":{"ID":493821,"DIS_CODE":0,"TOWNNAME":"仁德區","LI":"仁德里","LIN":"39鄰","STREET":"文華路","SECT":"三段","MAREA":" ","LANE":" ","ALLEY":" ","HOUSE_NO":"５２２號","E_COORD97":172507.42000000001,"N_COORD97":2541619.0699999998,"ADDRESS":"文華路三段５２２號","OBJECTID":493794},"geometry":{"x":172507.41999999993,"y":2541619.0700000003}},{"attributes":{"ID":493822,"DIS_CODE":0,"TOWNNAME":"仁德區","LI":"仁德里","LIN":"39鄰","STREET":"文山路","SECT":" ","MAREA":" ","LANE":" ","ALLEY":" ","HOUSE_NO":"１６２號","E_COORD97":172697.04000000001,"N_COORD97":2541835.0699999998,"ADDRESS":"文山路１６２號","OBJECTID":493795},"geometry":{"x":172697.04000000097,"y":2541835.0700000022}},{"attributes":{"ID":493823,"DIS_CODE":0,"TOWNNAME":"仁德區","LI":"仁義里","LIN":"39鄰","STREET":"仁義五街","SECT":" ","MAREA":" ","LANE":" ","ALLEY":" ","HOUSE_NO":"３０號","E_COORD97":173557.20000000001,"N_COORD97":2540430.77,"ADDRESS":"仁義五街３０號","OBJECTID":493796},"geometry":{"x":173557.20000000205,"y":2540430.7699999996}},{"attributes":{"ID":493824,"DIS_CODE":0,"TOWNNAME":"仁德區","LI":"仁德里","LIN":"39鄰","STREET":"文山路","SECT":" ","MAREA":" ","LANE":" ","ALLEY":" ","HOUSE_NO":"２１５號","E_COORD97":172669.31,"N_COORD97":2541752.5800000001,"ADDRESS":"文山路２１５號","OBJECTID":493797},"geometry":{"x":172669.31000000052,"y":2541752.5800000019}},{"attributes":{"ID":493825,"DIS_CODE":0,"TOWNNAME":"仁德區","LI":"仁德里","LIN":"39鄰","STREET":"文山路","SECT":" ","MAREA":" ","LANE":" ","ALLEY":" ","HOUSE_NO":"２０５號","E_COORD97":172670.54999999999,"N_COORD97":2541781.0800000001,"ADDRESS":"文山路２０５號","OBJECTID":493798},"geometry":{"x":172670.54999999981,"y":2541781.0800000001}},{"attributes":{"ID":493826,"DIS_CODE":0,"TOWNNAME":"仁德區","LI":"仁德里","LIN":"39鄰","STREET":"文山路","SECT":" ","MAREA":" ","LANE":" ","ALLEY":" ","HOUSE_NO":"２６７號","E_COORD97":172626.12,"N_COORD97":2541761.0800000001,"ADDRESS":"文山路２６７號","OBJECTID":493799},"geometry":{"x":172626.12000000011,"y":2541761.0800000001}},{"attributes":{"ID":493827,"DIS_CODE":0,"TOWNNAME":"仁德區","LI":"仁德里","LIN":"39鄰","STREET":"文山路","SECT":" ","MAREA":" ","LANE":" ","ALLEY":" ","HOUSE_NO":"２７７號","E_COORD97":172617.70999999999,"N_COORD97":2541762.0800000001,"ADDRESS":"文山路２７７號","OBJECTID":493800},"geometry":{"x":172617.71000000183,"y":2541762.0800000001}}]}