{"displayFieldName":"TOWNNAME","fieldAliases":{"ID":"ID","DIS_CODE":"DIS_CODE","TOWNNAME":"TOWNNAME","LI":"LI","LIN":"LIN","STREET":"STREET","SECT":"SECT","MAREA":"MAREA","LANE":"LANE","ALLEY":"ALLEY","HOUSE_NO":"HOUSE_NO","E_COORD97":"E_COORD97","N_COORD97":"N_COORD97","ADDRESS":"ADDRESS","OBJECTID":"OBJECTID"},"geometryType":"esriGeometryPoint","spatialReference":{"wkid":102443,"latestWkid":3826},"fields":[{"name":"ID","type":"esriFieldTypeDouble","alias":"ID"},{"name":"DIS_CODE","type":"esriFieldTypeInteger","alias":"DIS_CODE"},{"name":"TOWNNAME","type":"esriFieldTypeString","alias":"TOWNNAME","length":8},{"name":"LI","type":"esriFieldTypeString","alias":"LI","length":8},{"name":"LIN","type":"esriFieldTypeString","alias":"LIN","length":12},{"name":"STREET","type":"esriFieldTypeString","alias":"STREET","length":20},{"name":"SECT","type":"esriFieldTypeString","alias":"SECT","length":8},{"name":"MAREA","type":"esriFieldTypeString","alias":"MAREA","length":12},{"name":"LANE","type":"esriFieldTypeString","alias":"LANE","length":10},{"name":"ALLEY","type":"esriFieldTypeString","alias":"ALLEY","length":10},{"name":"HOUSE_NO","type":"esriFieldTypeString","alias":"HOUSE_NO","length":20},{"name":"E_COORD97","type":"esriFieldTypeDouble","alias":"E_COORD97"},{"name":"N_COORD97","type":"esriFieldTypeDouble","alias":"N_COORD97"},{"name":"ADDRESS","type":"esriFieldTypeString","alias":"ADDRESS","length":50},{"name":"OBJECTID","type":"esriFieldTypeOID","alias":"OBJECTID"}],"features":[{"attributes":{"ID":534028,"DIS_CODE":0,"TOWNNAME":"西港區","LI":"慶安里","LIN":"19鄰","STREET":"進學街","SECT":" ","MAREA":" ","LANE":" ","ALLEY":" ","HOUSE_NO":"１３號之１四樓之６","E_COORD97":168316.35999999999,"N_COORD97":2558023.2799999998,"ADDRESS":"進學街１３號之１四樓之６","OBJECTID":534001},"geometry":{"x":168316.3600000022,"y":2558023.2799999993}},{"attributes":{"ID":534029,"DIS_CODE":0,"TOWNNAME":"西港區","LI":"慶安里","LIN":"19鄰","STREET":"進學街","SECT":" ","MAREA":" ","LANE":" ","ALLEY":" ","HOUSE_NO":"１３號之１四樓之７","E_COORD97":168316.35999999999,"N_COORD97":2558023.2799999998,"ADDRESS":"進學街１３號之１四樓之７","OBJECTID":534002},"geometry":{"x":168316.3600000022,"y":2558023.2799999993}},{"attributes":{"ID":534030,"DIS_CODE":0,"TOWNNAME":"西港區","LI":"慶安里","LIN":"19鄰","STREET":"進學街","SECT":" ","MAREA":" ","LANE":" ","ALLEY":" ","HOUSE_NO":"１３號之１四樓之８","E_COORD97":168316.35999999999,"N_COORD97":2558023.2799999998,"ADDRESS":"進學街１３號之１四樓之８","OBJECTID":534003},"geometry":{"x":168316.3600000022,"y":2558023.2799999993}},{"attributes":{"ID":534031,"DIS_CODE":0,"TOWNNAME":"永康區","LI":"西橋里","LIN":"19鄰","STREET":"大橋三街","SECT":" ","MAREA":" ","LANE":" ","ALLEY":" ","HOUSE_NO":"２７號四樓之２","E_COORD97":170493.12,"N_COORD97":2546370.54,"ADDRESS":"大橋三街２７號四樓之２","OBJECTID":534004},"geometry":{"x":170493.12000000104,"y":2546370.540000001}},{"attributes":{"ID":534032,"DIS_CODE":0,"TOWNNAME":"南區","LI":"明興里","LIN":"17鄰","STREET":"中華南路","SECT":"二段","MAREA":" ","LANE":" ","ALLEY":" ","HOUSE_NO":"２１６號","E_COORD97":166954.35000000001,"N_COORD97":2540245.2599999998,"ADDRESS":"中華南路二段２１６號","OBJECTID":534005},"geometry":{"x":166954.35000000149,"y":2540245.2600000035}},{"attributes":{"ID":534033,"DIS_CODE":0,"TOWNNAME":"南區","LI":"明興里","LIN":"17鄰","STREET":"中華南路","SECT":"二段","MAREA":" ","LANE":" ","ALLEY":" ","HOUSE_NO":"２１８號","E_COORD97":166950.54999999999,"N_COORD97":2540244.6000000001,"ADDRESS":"中華南路二段２１８號","OBJECTID":534006},"geometry":{"x":166950.55000000075,"y":2540244.5999999996}},{"attributes":{"ID":534034,"DIS_CODE":0,"TOWNNAME":"南區","LI":"明興里","LIN":"17鄰","STREET":"中華南路","SECT":"二段","MAREA":" ","LANE":" ","ALLEY":" ","HOUSE_NO":"２２６號","E_COORD97":166919.57999999999,"N_COORD97":2540253.0699999998,"ADDRESS":"中華南路二段２２６號","OBJECTID":534007},"geometry":{"x":166919.58000000101,"y":2540253.0700000003}},{"attributes":{"ID":534035,"DIS_CODE":0,"TOWNNAME":"南區","LI":"明興里","LIN":"17鄰","STREET":"中華南路","SECT":"二段","MAREA":" ","LANE":" ","ALLEY":" ","HOUSE_NO":"２３４號","E_COORD97":166897.04999999999,"N_COORD97":2540238,"ADDRESS":"中華南路二段２３４號","OBJECTID":534008},"geometry":{"x":166897.04999999981,"y":2540238.0000000019}},{"attributes":{"ID":534036,"DIS_CODE":0,"TOWNNAME":"善化區","LI":"光文里","LIN":"19鄰","STREET":"民生路","SECT":" ","MAREA":" ","LANE":" ","ALLEY":" ","HOUSE_NO":"２７５號六樓","E_COORD97":178230.63,"N_COORD97":2558899.2599999998,"ADDRESS":"民生路２７５號六樓","OBJECTID":534009},"geometry":{"x":178230.62999999989,"y":2558899.2600000035}},{"attributes":{"ID":534037,"DIS_CODE":0,"TOWNNAME":"善化區","LI":"光文里","LIN":"19鄰","STREET":"民生路","SECT":" ","MAREA":" ","LANE":" ","ALLEY":" ","HOUSE_NO":"２７９號六樓","E_COORD97":178216.92999999999,"N_COORD97":2558883.7599999998,"ADDRESS":"民生路２７９號六樓","OBJECTID":534010},"geometry":{"x":178216.93000000063,"y":2558883.7600000016}},{"attributes":{"ID":534038,"DIS_CODE":0,"TOWNNAME":"善化區","LI":"光文里","LIN":"19鄰","STREET":"民生路","SECT":" ","MAREA":" ","LANE":" ","ALLEY":" ","HOUSE_NO":"２８３號八樓","E_COORD97":178198.57000000001,"N_COORD97":2558880.5099999998,"ADDRESS":"民生路２８３號八樓","OBJECTID":534011},"geometry":{"x":178198.57000000123,"y":2558880.5100000035}},{"attributes":{"ID":534039,"DIS_CODE":0,"TOWNNAME":"善化區","LI":"光文里","LIN":"19鄰","STREET":"民生路","SECT":" ","MAREA":" ","LANE":" ","ALLEY":" ","HOUSE_NO":"２６７號七樓","E_COORD97":178223.57000000001,"N_COORD97":2558915.7599999998,"ADDRESS":"民生路２６７號七樓","OBJECTID":534012},"geometry":{"x":178223.57000000123,"y":2558915.7599999998}},{"attributes":{"ID":534040,"DIS_CODE":0,"TOWNNAME":"善化區","LI":"光文里","LIN":"19鄰","STREET":"民生路","SECT":" ","MAREA":" ","LANE":" ","ALLEY":" ","HOUSE_NO":"２６７號五樓","E_COORD97":178223.57000000001,"N_COORD97":2558915.7599999998,"ADDRESS":"民生路２６７號五樓","OBJECTID":534013},"geometry":{"x":178223.57000000123,"y":2558915.7599999998}},{"attributes":{"ID":534041,"DIS_CODE":0,"TOWNNAME":"中西區","LI":"福安里","LIN":"19鄰","STREET":"中正路","SECT":" ","MAREA":" ","LANE":" ","ALLEY":" ","HOUSE_NO":"１４７號四樓","E_COORD97":167930.42999999999,"N_COORD97":2543671,"ADDRESS":"中正路１４７號四樓","OBJECTID":534014},"geometry":{"x":167930.43000000156,"y":2543671}},{"attributes":{"ID":534042,"DIS_CODE":0,"TOWNNAME":"東區","LI":"崇誨里","LIN":"19鄰","STREET":"東寧路","SECT":" ","MAREA":" ","LANE":" ","ALLEY":" ","HOUSE_NO":"２９４號三樓之１","E_COORD97":170723.85999999999,"N_COORD97":2543413.8100000001,"ADDRESS":"東寧路２９４號三樓之１","OBJECTID":534015},"geometry":{"x":170723.86000000127,"y":2543413.8100000024}},{"attributes":{"ID":534043,"DIS_CODE":0,"TOWNNAME":"東區","LI":"崇誨里","LIN":"19鄰","STREET":"東寧路","SECT":" ","MAREA":" ","LANE":" ","ALLEY":" ","HOUSE_NO":"２９４號三樓之２","E_COORD97":170723.85999999999,"N_COORD97":2543413.8100000001,"ADDRESS":"東寧路２９４號三樓之２","OBJECTID":534016},"geometry":{"x":170723.86000000127,"y":2543413.8100000024}},{"attributes":{"ID":534044,"DIS_CODE":0,"TOWNNAME":"永康區","LI":"西橋里","LIN":"19鄰","STREET":"大橋三街","SECT":" ","MAREA":" ","LANE":" ","ALLEY":" ","HOUSE_NO":"２７號五樓之２","E_COORD97":170493.12,"N_COORD97":2546370.54,"ADDRESS":"大橋三街２７號五樓之２","OBJECTID":534017},"geometry":{"x":170493.12000000104,"y":2546370.540000001}},{"attributes":{"ID":534045,"DIS_CODE":0,"TOWNNAME":"永康區","LI":"西橋里","LIN":"19鄰","STREET":"大橋三街","SECT":" ","MAREA":" ","LANE":" ","ALLEY":" ","HOUSE_NO":"２７號二樓之２","E_COORD97":170493.12,"N_COORD97":2546370.54,"ADDRESS":"大橋三街２７號二樓之２","OBJECTID":534018},"geometry":{"x":170493.12000000104,"y":2546370.540000001}},{"attributes":{"ID":534046,"DIS_CODE":0,"TOWNNAME":"永康區","LI":"西橋里","LIN":"19鄰","STREET":"大橋三街","SECT":" ","MAREA":" ","LANE":" ","ALLEY":" ","HOUSE_NO":"２５號五樓之２","E_COORD97":170489.45999999999,"N_COORD97":2546365.04,"ADDRESS":"大橋三街２５號五樓之２","OBJECTID":534019},"geometry":{"x":170489.45999999996,"y":2546365.0399999991}},{"attributes":{"ID":534047,"DIS_CODE":0,"TOWNNAME":"永康區","LI":"西橋里","LIN":"19鄰","STREET":"大橋三街","SECT":" ","MAREA":" ","LANE":" ","ALLEY":" ","HOUSE_NO":"２７號三樓之２","E_COORD97":170493.12,"N_COORD97":2546370.54,"ADDRESS":"大橋三街２７號三樓之２","OBJECTID":534020},"geometry":{"x":170493.12000000104,"y":2546370.540000001}},{"attributes":{"ID":534048,"DIS_CODE":0,"TOWNNAME":"永康區","LI":"西橋里","LIN":"19鄰","STREET":"大橋三街","SECT":" ","MAREA":" ","LANE":" ","ALLEY":" ","HOUSE_NO":"２５號五樓之１","E_COORD97":170489.32000000001,"N_COORD97":2546365.04,"ADDRESS":"大橋三街２５號五樓之１","OBJECTID":534021},"geometry":{"x":170489.3200000003,"y":2546365.0399999991}},{"attributes":{"ID":534049,"DIS_CODE":0,"TOWNNAME":"永康區","LI":"西橋里","LIN":"19鄰","STREET":"大橋三街","SECT":" ","MAREA":" ","LANE":" ","ALLEY":" ","HOUSE_NO":"２５號三樓之１","E_COORD97":170489.32000000001,"N_COORD97":2546365.04,"ADDRESS":"大橋三街２５號三樓之１","OBJECTID":534022},"geometry":{"x":170489.3200000003,"y":2546365.0399999991}},{"attributes":{"ID":534050,"DIS_CODE":0,"TOWNNAME":"永康區","LI":"西橋里","LIN":"19鄰","STREET":"大橋三街","SECT":" ","MAREA":" ","LANE":" ","ALLEY":" ","HOUSE_NO":"２５號三樓之２","E_COORD97":170489.45999999999,"N_COORD97":2546365.04,"ADDRESS":"大橋三街２５號三樓之２","OBJECTID":534023},"geometry":{"x":170489.45999999996,"y":2546365.0399999991}},{"attributes":{"ID":534051,"DIS_CODE":0,"TOWNNAME":"永康區","LI":"西橋里","LIN":"19鄰","STREET":"大橋三街","SECT":" ","MAREA":" ","LANE":" ","ALLEY":" ","HOUSE_NO":"２７號四樓之１","E_COORD97":170492.98000000001,"N_COORD97":2546370.54,"ADDRESS":"大橋三街２７號四樓之１","OBJECTID":534024},"geometry":{"x":170492.98000000138,"y":2546370.540000001}},{"attributes":{"ID":534052,"DIS_CODE":0,"TOWNNAME":"永康區","LI":"西橋里","LIN":"19鄰","STREET":"大橋三街","SECT":" ","MAREA":" ","LANE":" ","ALLEY":" ","HOUSE_NO":"２５號四樓之２","E_COORD97":170489.45999999999,"N_COORD97":2546365.04,"ADDRESS":"大橋三街２５號四樓之２","OBJECTID":534025},"geometry":{"x":170489.45999999996,"y":2546365.0399999991}},{"attributes":{"ID":534053,"DIS_CODE":0,"TOWNNAME":"永康區","LI":"西橋里","LIN":"19鄰","STREET":"大橋三街","SECT":" ","MAREA":" ","LANE":" ","ALLEY":" ","HOUSE_NO":"２７號六樓之１","E_COORD97":170492.98000000001,"N_COORD97":2546370.54,"ADDRESS":"大橋三街２７號六樓之１","OBJECTID":534026},"geometry":{"x":170492.98000000138,"y":2546370.540000001}},{"attributes":{"ID":534054,"DIS_CODE":0,"TOWNNAME":"永康區","LI":"西橋里","LIN":"19鄰","STREET":"大橋三街","SECT":" ","MAREA":" ","LANE":" ","ALLEY":" ","HOUSE_NO":"２７號五樓之１","E_COORD97":170492.98000000001,"N_COORD97":2546370.54,"ADDRESS":"大橋三街２７號五樓之１","OBJECTID":534027},"geometry":{"x":170492.98000000138,"y":2546370.540000001}},{"attributes":{"ID":534055,"DIS_CODE":0,"TOWNNAME":"永康區","LI":"西橋里","LIN":"19鄰","STREET":"大橋三街","SECT":" ","MAREA":" ","LANE":" ","ALLEY":" ","HOUSE_NO":"２５號四樓之１","E_COORD97":170489.32000000001,"N_COORD97":2546365.04,"ADDRESS":"大橋三街２５號四樓之１","OBJECTID":534028},"geometry":{"x":170489.3200000003,"y":2546365.0399999991}},{"attributes":{"ID":534056,"DIS_CODE":0,"TOWNNAME":"中西區","LI":"五妃里","LIN":"19鄰","STREET":"慶中街","SECT":" ","MAREA":" ","LANE":" ","ALLEY":" ","HOUSE_NO":"６５號二樓之２","E_COORD97":168566.60999999999,"N_COORD97":2542896.8799999999,"ADDRESS":"慶中街６５號二樓之２","OBJECTID":534029},"geometry":{"x":168566.61000000034,"y":2542896.879999999}},{"attributes":{"ID":534057,"DIS_CODE":0,"TOWNNAME":"西港區","LI":"慶安里","LIN":"35鄰","STREET":"中山路","SECT":" ","MAREA":" ","LANE":" ","ALLEY":" ","HOUSE_NO":"７９號","E_COORD97":168472.04999999999,"N_COORD97":2557298.2200000002,"ADDRESS":"中山路７９號","OBJECTID":534030},"geometry":{"x":168472.04999999888,"y":2557298.2200000025}},{"attributes":{"ID":534058,"DIS_CODE":0,"TOWNNAME":"中西區","LI":"五妃里","LIN":"19鄰","STREET":"慶中街","SECT":" ","MAREA":" ","LANE":" ","ALLEY":" ","HOUSE_NO":"６５號三樓之１","E_COORD97":168566.60999999999,"N_COORD97":2542896.8799999999,"ADDRESS":"慶中街６５號三樓之１","OBJECTID":534031},"geometry":{"x":168566.61000000034,"y":2542896.879999999}},{"attributes":{"ID":534059,"DIS_CODE":0,"TOWNNAME":"中西區","LI":"五妃里","LIN":"19鄰","STREET":"慶中街","SECT":" ","MAREA":" ","LANE":" ","ALLEY":" ","HOUSE_NO":"６５號三樓之２","E_COORD97":168566.60999999999,"N_COORD97":2542896.8799999999,"ADDRESS":"慶中街６５號三樓之２","OBJECTID":534032},"geometry":{"x":168566.61000000034,"y":2542896.879999999}},{"attributes":{"ID":534060,"DIS_CODE":0,"TOWNNAME":"中西區","LI":"五妃里","LIN":"19鄰","STREET":"慶中街","SECT":" ","MAREA":" ","LANE":" ","ALLEY":" ","HOUSE_NO":"６５號五樓之１","E_COORD97":168566.60999999999,"N_COORD97":2542896.8799999999,"ADDRESS":"慶中街６５號五樓之１","OBJECTID":534033},"geometry":{"x":168566.61000000034,"y":2542896.879999999}},{"attributes":{"ID":534061,"DIS_CODE":0,"TOWNNAME":"中西區","LI":"五妃里","LIN":"19鄰","STREET":"慶中街","SECT":" ","MAREA":" ","LANE":" ","ALLEY":" ","HOUSE_NO":"６５號五樓之２","E_COORD97":168566.60999999999,"N_COORD97":2542896.8799999999,"ADDRESS":"慶中街６５號五樓之２","OBJECTID":534034},"geometry":{"x":168566.61000000034,"y":2542896.879999999}},{"attributes":{"ID":534062,"DIS_CODE":0,"TOWNNAME":"中西區","LI":"五妃里","LIN":"19鄰","STREET":"慶中街","SECT":" ","MAREA":" ","LANE":" ","ALLEY":" ","HOUSE_NO":"６５號四樓之１","E_COORD97":168566.60999999999,"N_COORD97":2542896.8799999999,"ADDRESS":"慶中街６５號四樓之１","OBJECTID":534035},"geometry":{"x":168566.61000000034,"y":2542896.879999999}},{"attributes":{"ID":534063,"DIS_CODE":0,"TOWNNAME":"中西區","LI":"五妃里","LIN":"19鄰","STREET":"慶中街","SECT":" ","MAREA":" ","LANE":" ","ALLEY":" ","HOUSE_NO":"６５號四樓之２","E_COORD97":168566.60999999999,"N_COORD97":2542896.8799999999,"ADDRESS":"慶中街６５號四樓之２","OBJECTID":534036},"geometry":{"x":168566.61000000034,"y":2542896.879999999}},{"attributes":{"ID":534064,"DIS_CODE":0,"TOWNNAME":"中西區","LI":"五妃里","LIN":"19鄰","STREET":"樹林街","SECT":"二段","MAREA":" ","LANE":" ","ALLEY":" ","HOUSE_NO":"７１號一樓","E_COORD97":168533.16,"N_COORD97":2542912.0600000001,"ADDRESS":"樹林街二段７１號一樓","OBJECTID":534037},"geometry":{"x":168533.16000000108,"y":2542912.0600000005}},{"attributes":{"ID":534065,"DIS_CODE":0,"TOWNNAME":"中西區","LI":"五妃里","LIN":"19鄰","STREET":"樹林街","SECT":"二段","MAREA":" ","LANE":" ","ALLEY":" ","HOUSE_NO":"７１號二樓","E_COORD97":168533.16,"N_COORD97":2542912.0600000001,"ADDRESS":"樹林街二段７１號二樓","OBJECTID":534038},"geometry":{"x":168533.16000000108,"y":2542912.0600000005}},{"attributes":{"ID":534066,"DIS_CODE":0,"TOWNNAME":"中西區","LI":"五妃里","LIN":"19鄰","STREET":"樹林街","SECT":"二段","MAREA":" ","LANE":" ","ALLEY":" ","HOUSE_NO":"７１號三樓","E_COORD97":168533.16,"N_COORD97":2542912.0600000001,"ADDRESS":"樹林街二段７１號三樓","OBJECTID":534039},"geometry":{"x":168533.16000000108,"y":2542912.0600000005}},{"attributes":{"ID":534067,"DIS_CODE":0,"TOWNNAME":"中西區","LI":"五妃里","LIN":"19鄰","STREET":"樹林街","SECT":"二段","MAREA":" ","LANE":" ","ALLEY":" ","HOUSE_NO":"７１號四樓","E_COORD97":168533.16,"N_COORD97":2542912.0600000001,"ADDRESS":"樹林街二段７１號四樓","OBJECTID":534040},"geometry":{"x":168533.16000000108,"y":2542912.0600000005}},{"attributes":{"ID":534068,"DIS_CODE":0,"TOWNNAME":"中西區","LI":"五妃里","LIN":"19鄰","STREET":"樹林街","SECT":"二段","MAREA":" ","LANE":" ","ALLEY":" ","HOUSE_NO":"７５號一樓","E_COORD97":168521.35999999999,"N_COORD97":2542913.8399999999,"ADDRESS":"樹林街二段７５號一樓","OBJECTID":534041},"geometry":{"x":168521.3599999994,"y":2542913.8400000017}},{"attributes":{"ID":534069,"DIS_CODE":0,"TOWNNAME":"中西區","LI":"五妃里","LIN":"19鄰","STREET":"樹林街","SECT":"二段","MAREA":" ","LANE":" ","ALLEY":" ","HOUSE_NO":"７５號二樓","E_COORD97":168521.35999999999,"N_COORD97":2542913.8399999999,"ADDRESS":"樹林街二段７５號二樓","OBJECTID":534042},"geometry":{"x":168521.3599999994,"y":2542913.8400000017}},{"attributes":{"ID":534070,"DIS_CODE":0,"TOWNNAME":"中西區","LI":"五妃里","LIN":"19鄰","STREET":"樹林街","SECT":"二段","MAREA":" ","LANE":" ","ALLEY":" ","HOUSE_NO":"７５號三樓","E_COORD97":168521.35999999999,"N_COORD97":2542913.8399999999,"ADDRESS":"樹林街二段７５號三樓","OBJECTID":534043},"geometry":{"x":168521.3599999994,"y":2542913.8400000017}},{"attributes":{"ID":534071,"DIS_CODE":0,"TOWNNAME":"安南區","LI":"溪北里","LIN":"19鄰","STREET":"郡安路","SECT":"四段","MAREA":" ","LANE":" ","ALLEY":" ","HOUSE_NO":"７６號之１三樓","E_COORD97":169071.95000000001,"N_COORD97":2547554.4900000002,"ADDRESS":"郡安路四段７６號之１三樓","OBJECTID":534044},"geometry":{"x":169071.95000000112,"y":2547554.4900000021}},{"attributes":{"ID":534072,"DIS_CODE":0,"TOWNNAME":"安南區","LI":"溪北里","LIN":"19鄰","STREET":"郡安路","SECT":"四段","MAREA":" ","LANE":" ","ALLEY":" ","HOUSE_NO":"７６號之３六樓","E_COORD97":169069.57000000001,"N_COORD97":2547566.5600000001,"ADDRESS":"郡安路四段７６號之３六樓","OBJECTID":534045},"geometry":{"x":169069.57000000123,"y":2547566.5600000005}},{"attributes":{"ID":534073,"DIS_CODE":0,"TOWNNAME":"中西區","LI":"民生里","LIN":"19鄰","STREET":"南華街","SECT":" ","MAREA":" ","LANE":" ","ALLEY":" ","HOUSE_NO":"８１號六樓之６","E_COORD97":167104.14000000001,"N_COORD97":2543491.1699999999,"ADDRESS":"南華街８１號六樓之６","OBJECTID":534046},"geometry":{"x":167104.1400000006,"y":2543491.1700000018}},{"attributes":{"ID":534074,"DIS_CODE":0,"TOWNNAME":"安南區","LI":"溪北里","LIN":"19鄰","STREET":"郡安路","SECT":"四段","MAREA":" ","LANE":" ","ALLEY":" ","HOUSE_NO":"７６號之３九樓","E_COORD97":169069.57000000001,"N_COORD97":2547566.5600000001,"ADDRESS":"郡安路四段７６號之３九樓","OBJECTID":534047},"geometry":{"x":169069.57000000123,"y":2547566.5600000005}},{"attributes":{"ID":534075,"DIS_CODE":0,"TOWNNAME":"安南區","LI":"溪北里","LIN":"19鄰","STREET":"郡安路","SECT":"四段","MAREA":" ","LANE":" ","ALLEY":" ","HOUSE_NO":"７６號之４五樓","E_COORD97":169069.14999999999,"N_COORD97":2547575.2200000002,"ADDRESS":"郡安路四段７６號之４五樓","OBJECTID":534048},"geometry":{"x":169069.1500000013,"y":2547575.2200000007}},{"attributes":{"ID":534076,"DIS_CODE":0,"TOWNNAME":"安南區","LI":"溪北里","LIN":"19鄰","STREET":"郡安路","SECT":"四段","MAREA":" ","LANE":" ","ALLEY":" ","HOUSE_NO":"７６號之５九樓","E_COORD97":169067.22,"N_COORD97":2547586.0299999998,"ADDRESS":"郡安路四段７６號之５九樓","OBJECTID":534049},"geometry":{"x":169067.21999999974,"y":2547586.0299999993}},{"attributes":{"ID":534077,"DIS_CODE":0,"TOWNNAME":"安南區","LI":"溪北里","LIN":"19鄰","STREET":"郡安路","SECT":"四段","MAREA":" ","LANE":" ","ALLEY":" ","HOUSE_NO":"７６號之３一樓","E_COORD97":169069.57000000001,"N_COORD97":2547566.5600000001,"ADDRESS":"郡安路四段７６號之３一樓","OBJECTID":534050},"geometry":{"x":169069.57000000123,"y":2547566.5600000005}},{"attributes":{"ID":534078,"DIS_CODE":0,"TOWNNAME":"安南區","LI":"溪北里","LIN":"19鄰","STREET":"郡安路","SECT":"四段","MAREA":" ","LANE":" ","ALLEY":" ","HOUSE_NO":"７６號之６十一樓","E_COORD97":169072.76999999999,"N_COORD97":2547587.3399999999,"ADDRESS":"郡安路四段７６號之６十一樓","OBJECTID":534051},"geometry":{"x":169072.77000000048,"y":2547587.3399999999}},{"attributes":{"ID":534079,"DIS_CODE":0,"TOWNNAME":"善化區","LI":"光文里","LIN":"19鄰","STREET":"民生路","SECT":" ","MAREA":" ","LANE":" ","ALLEY":" ","HOUSE_NO":"２７３號九樓","E_COORD97":178220.26999999999,"N_COORD97":2558906.0099999998,"ADDRESS":"民生路２７３號九樓","OBJECTID":534052},"geometry":{"x":178220.26999999955,"y":2558906.0100000016}},{"attributes":{"ID":534080,"DIS_CODE":0,"TOWNNAME":"善化區","LI":"光文里","LIN":"19鄰","STREET":"民生路","SECT":" ","MAREA":" ","LANE":" ","ALLEY":" ","HOUSE_NO":"２７７號二樓","E_COORD97":178226.07000000001,"N_COORD97":2558885.25,"ADDRESS":"民生路２７７號二樓","OBJECTID":534053},"geometry":{"x":178226.0700000003,"y":2558885.25}},{"attributes":{"ID":534081,"DIS_CODE":0,"TOWNNAME":"善化區","LI":"光文里","LIN":"19鄰","STREET":"民生路","SECT":" ","MAREA":" ","LANE":" ","ALLEY":" ","HOUSE_NO":"２８３號八樓之１","E_COORD97":178199.42999999999,"N_COORD97":2558880.52,"ADDRESS":"民生路２８３號八樓之１","OBJECTID":534054},"geometry":{"x":178199.4299999997,"y":2558880.5200000033}},{"attributes":{"ID":534082,"DIS_CODE":0,"TOWNNAME":"善化區","LI":"光文里","LIN":"19鄰","STREET":"民生路","SECT":" ","MAREA":" ","LANE":" ","ALLEY":" ","HOUSE_NO":"２７７號九樓","E_COORD97":178226.07000000001,"N_COORD97":2558885.25,"ADDRESS":"民生路２７７號九樓","OBJECTID":534055},"geometry":{"x":178226.0700000003,"y":2558885.25}},{"attributes":{"ID":534083,"DIS_CODE":0,"TOWNNAME":"善化區","LI":"光文里","LIN":"19鄰","STREET":"民生路","SECT":" ","MAREA":" ","LANE":" ","ALLEY":" ","HOUSE_NO":"２７９號九樓","E_COORD97":178216.92999999999,"N_COORD97":2558883.7599999998,"ADDRESS":"民生路２７９號九樓","OBJECTID":534056},"geometry":{"x":178216.93000000063,"y":2558883.7600000016}},{"attributes":{"ID":534084,"DIS_CODE":0,"TOWNNAME":"善化區","LI":"光文里","LIN":"19鄰","STREET":"民生路","SECT":" ","MAREA":" ","LANE":" ","ALLEY":" ","HOUSE_NO":"２７９號二樓","E_COORD97":178216.92999999999,"N_COORD97":2558883.7599999998,"ADDRESS":"民生路２７９號二樓","OBJECTID":534057},"geometry":{"x":178216.93000000063,"y":2558883.7600000016}},{"attributes":{"ID":534085,"DIS_CODE":0,"TOWNNAME":"善化區","LI":"光文里","LIN":"19鄰","STREET":"民生路","SECT":" ","MAREA":" ","LANE":" ","ALLEY":" ","HOUSE_NO":"２８３號九樓之１","E_COORD97":178199.42999999999,"N_COORD97":2558880.52,"ADDRESS":"民生路２８３號九樓之１","OBJECTID":534058},"geometry":{"x":178199.4299999997,"y":2558880.5200000033}},{"attributes":{"ID":534086,"DIS_CODE":0,"TOWNNAME":"善化區","LI":"光文里","LIN":"19鄰","STREET":"民生路","SECT":" ","MAREA":" ","LANE":" ","ALLEY":" ","HOUSE_NO":"２７５號八樓","E_COORD97":178230.63,"N_COORD97":2558899.2599999998,"ADDRESS":"民生路２７５號八樓","OBJECTID":534059},"geometry":{"x":178230.62999999989,"y":2558899.2600000035}},{"attributes":{"ID":534087,"DIS_CODE":0,"TOWNNAME":"善化區","LI":"光文里","LIN":"19鄰","STREET":"民生路","SECT":" ","MAREA":" ","LANE":" ","ALLEY":" ","HOUSE_NO":"２８１號五樓","E_COORD97":178207.76999999999,"N_COORD97":2558882.5099999998,"ADDRESS":"民生路２８１號五樓","OBJECTID":534060},"geometry":{"x":178207.77000000048,"y":2558882.5099999998}},{"attributes":{"ID":534088,"DIS_CODE":0,"TOWNNAME":"善化區","LI":"光文里","LIN":"19鄰","STREET":"民生路","SECT":" ","MAREA":" ","LANE":" ","ALLEY":" ","HOUSE_NO":"２８１號八樓","E_COORD97":178207.76999999999,"N_COORD97":2558882.5099999998,"ADDRESS":"民生路２８１號八樓","OBJECTID":534061},"geometry":{"x":178207.77000000048,"y":2558882.5099999998}},{"attributes":{"ID":534089,"DIS_CODE":0,"TOWNNAME":"善化區","LI":"光文里","LIN":"19鄰","STREET":"民生路","SECT":" ","MAREA":" ","LANE":" ","ALLEY":" ","HOUSE_NO":"２８１號七樓","E_COORD97":178207.76999999999,"N_COORD97":2558882.5099999998,"ADDRESS":"民生路２８１號七樓","OBJECTID":534062},"geometry":{"x":178207.77000000048,"y":2558882.5099999998}},{"attributes":{"ID":534090,"DIS_CODE":0,"TOWNNAME":"善化區","LI":"光文里","LIN":"19鄰","STREET":"民生路","SECT":" ","MAREA":" ","LANE":" ","ALLEY":" ","HOUSE_NO":"２８５號十樓","E_COORD97":178197.84,"N_COORD97":2558891.7599999998,"ADDRESS":"民生路２８５號十樓","OBJECTID":534063},"geometry":{"x":178197.84000000078,"y":2558891.7599999998}},{"attributes":{"ID":534091,"DIS_CODE":0,"TOWNNAME":"善化區","LI":"光文里","LIN":"19鄰","STREET":"民生路","SECT":" ","MAREA":" ","LANE":" ","ALLEY":" ","HOUSE_NO":"２８３號六樓","E_COORD97":178198.57000000001,"N_COORD97":2558880.5099999998,"ADDRESS":"民生路２８３號六樓","OBJECTID":534064},"geometry":{"x":178198.57000000123,"y":2558880.5100000035}},{"attributes":{"ID":534092,"DIS_CODE":0,"TOWNNAME":"善化區","LI":"光文里","LIN":"19鄰","STREET":"民生路","SECT":" ","MAREA":" ","LANE":" ","ALLEY":" ","HOUSE_NO":"２８３號五樓之１","E_COORD97":178199.42999999999,"N_COORD97":2558880.52,"ADDRESS":"民生路２８３號五樓之１","OBJECTID":534065},"geometry":{"x":178199.4299999997,"y":2558880.5200000033}},{"attributes":{"ID":534093,"DIS_CODE":0,"TOWNNAME":"善化區","LI":"光文里","LIN":"19鄰","STREET":"民生路","SECT":" ","MAREA":" ","LANE":" ","ALLEY":" ","HOUSE_NO":"２８１號二樓","E_COORD97":178207.76999999999,"N_COORD97":2558882.5099999998,"ADDRESS":"民生路２８１號二樓","OBJECTID":534066},"geometry":{"x":178207.77000000048,"y":2558882.5099999998}},{"attributes":{"ID":534094,"DIS_CODE":0,"TOWNNAME":"善化區","LI":"光文里","LIN":"19鄰","STREET":"民生路","SECT":" ","MAREA":" ","LANE":" ","ALLEY":" ","HOUSE_NO":"２７３號八樓","E_COORD97":178220.26999999999,"N_COORD97":2558906.0099999998,"ADDRESS":"民生路２７３號八樓","OBJECTID":534067},"geometry":{"x":178220.26999999955,"y":2558906.0100000016}},{"attributes":{"ID":534095,"DIS_CODE":0,"TOWNNAME":"善化區","LI":"光文里","LIN":"19鄰","STREET":"民生路","SECT":" ","MAREA":" ","LANE":" ","ALLEY":" ","HOUSE_NO":"２８３號七樓","E_COORD97":178198.57000000001,"N_COORD97":2558880.5099999998,"ADDRESS":"民生路２８３號七樓","OBJECTID":534068},"geometry":{"x":178198.57000000123,"y":2558880.5100000035}},{"attributes":{"ID":534096,"DIS_CODE":0,"TOWNNAME":"善化區","LI":"光文里","LIN":"19鄰","STREET":"民生路","SECT":" ","MAREA":" ","LANE":" ","ALLEY":" ","HOUSE_NO":"２７９號十樓","E_COORD97":178216.92999999999,"N_COORD97":2558883.7599999998,"ADDRESS":"民生路２７９號十樓","OBJECTID":534069},"geometry":{"x":178216.93000000063,"y":2558883.7600000016}},{"attributes":{"ID":534097,"DIS_CODE":0,"TOWNNAME":"善化區","LI":"光文里","LIN":"19鄰","STREET":"民生路","SECT":" ","MAREA":" ","LANE":" ","ALLEY":" ","HOUSE_NO":"２７９號七樓","E_COORD97":178216.92999999999,"N_COORD97":2558883.7599999998,"ADDRESS":"民生路２７９號七樓","OBJECTID":534070},"geometry":{"x":178216.93000000063,"y":2558883.7600000016}},{"attributes":{"ID":534098,"DIS_CODE":0,"TOWNNAME":"善化區","LI":"光文里","LIN":"19鄰","STREET":"民生路","SECT":" ","MAREA":" ","LANE":" ","ALLEY":" ","HOUSE_NO":"２８１號九樓","E_COORD97":178207.76999999999,"N_COORD97":2558882.5099999998,"ADDRESS":"民生路２８１號九樓","OBJECTID":534071},"geometry":{"x":178207.77000000048,"y":2558882.5099999998}},{"attributes":{"ID":534099,"DIS_CODE":0,"TOWNNAME":"善化區","LI":"光文里","LIN":"19鄰","STREET":"民生路","SECT":" ","MAREA":" ","LANE":" ","ALLEY":" ","HOUSE_NO":"２８３號三樓","E_COORD97":178198.57000000001,"N_COORD97":2558880.5099999998,"ADDRESS":"民生路２８３號三樓","OBJECTID":534072},"geometry":{"x":178198.57000000123,"y":2558880.5100000035}},{"attributes":{"ID":534100,"DIS_CODE":0,"TOWNNAME":"善化區","LI":"光文里","LIN":"19鄰","STREET":"民生路","SECT":" ","MAREA":" ","LANE":" ","ALLEY":" ","HOUSE_NO":"２８３號二樓之１","E_COORD97":178199.42999999999,"N_COORD97":2558880.52,"ADDRESS":"民生路２８３號二樓之１","OBJECTID":534073},"geometry":{"x":178199.4299999997,"y":2558880.5200000033}},{"attributes":{"ID":534101,"DIS_CODE":0,"TOWNNAME":"善化區","LI":"光文里","LIN":"19鄰","STREET":"民生路","SECT":" ","MAREA":" ","LANE":" ","ALLEY":" ","HOUSE_NO":"２８１號六樓","E_COORD97":178207.76999999999,"N_COORD97":2558882.5099999998,"ADDRESS":"民生路２８１號六樓","OBJECTID":534074},"geometry":{"x":178207.77000000048,"y":2558882.5099999998}},{"attributes":{"ID":534102,"DIS_CODE":0,"TOWNNAME":"善化區","LI":"光文里","LIN":"19鄰","STREET":"民生路","SECT":" ","MAREA":" ","LANE":" ","ALLEY":" ","HOUSE_NO":"２７７號四樓","E_COORD97":178226.07000000001,"N_COORD97":2558885.25,"ADDRESS":"民生路２７７號四樓","OBJECTID":534075},"geometry":{"x":178226.0700000003,"y":2558885.25}},{"attributes":{"ID":534103,"DIS_CODE":0,"TOWNNAME":"善化區","LI":"光文里","LIN":"19鄰","STREET":"民生路","SECT":" ","MAREA":" ","LANE":" ","ALLEY":" ","HOUSE_NO":"２７１號四樓","E_COORD97":178214.62,"N_COORD97":2558914.0099999998,"ADDRESS":"民生路２７１號四樓","OBJECTID":534076},"geometry":{"x":178214.62000000104,"y":2558914.0099999998}},{"attributes":{"ID":534104,"DIS_CODE":0,"TOWNNAME":"善化區","LI":"光文里","LIN":"19鄰","STREET":"民生路","SECT":" ","MAREA":" ","LANE":" ","ALLEY":" ","HOUSE_NO":"２８１號三樓","E_COORD97":178207.76999999999,"N_COORD97":2558882.5099999998,"ADDRESS":"民生路２８１號三樓","OBJECTID":534077},"geometry":{"x":178207.77000000048,"y":2558882.5099999998}},{"attributes":{"ID":534105,"DIS_CODE":0,"TOWNNAME":"善化區","LI":"光文里","LIN":"19鄰","STREET":"民生路","SECT":" ","MAREA":" ","LANE":" ","ALLEY":" ","HOUSE_NO":"２７３號六樓","E_COORD97":178220.26999999999,"N_COORD97":2558906.0099999998,"ADDRESS":"民生路２７３號六樓","OBJECTID":534078},"geometry":{"x":178220.26999999955,"y":2558906.0100000016}},{"attributes":{"ID":534106,"DIS_CODE":0,"TOWNNAME":"善化區","LI":"光文里","LIN":"19鄰","STREET":"民生路","SECT":" ","MAREA":" ","LANE":" ","ALLEY":" ","HOUSE_NO":"２８７號七樓","E_COORD97":178204.41,"N_COORD97":2558912.2599999998,"ADDRESS":"民生路２８７號七樓","OBJECTID":534079},"geometry":{"x":178204.41000000108,"y":2558912.2599999998}},{"attributes":{"ID":534107,"DIS_CODE":0,"TOWNNAME":"善化區","LI":"光文里","LIN":"19鄰","STREET":"民生路","SECT":" ","MAREA":" ","LANE":" ","ALLEY":" ","HOUSE_NO":"２７３號四樓","E_COORD97":178220.26999999999,"N_COORD97":2558906.0099999998,"ADDRESS":"民生路２７３號四樓","OBJECTID":534080},"geometry":{"x":178220.26999999955,"y":2558906.0100000016}},{"attributes":{"ID":534108,"DIS_CODE":0,"TOWNNAME":"善化區","LI":"光文里","LIN":"19鄰","STREET":"民生路","SECT":" ","MAREA":" ","LANE":" ","ALLEY":" ","HOUSE_NO":"２８７號六樓","E_COORD97":178204.41,"N_COORD97":2558912.2599999998,"ADDRESS":"民生路２８７號六樓","OBJECTID":534081},"geometry":{"x":178204.41000000108,"y":2558912.2599999998}},{"attributes":{"ID":534109,"DIS_CODE":0,"TOWNNAME":"善化區","LI":"光文里","LIN":"19鄰","STREET":"民生路","SECT":" ","MAREA":" ","LANE":" ","ALLEY":" ","HOUSE_NO":"２８３號十樓","E_COORD97":178198.57000000001,"N_COORD97":2558880.5099999998,"ADDRESS":"民生路２８３號十樓","OBJECTID":534082},"geometry":{"x":178198.57000000123,"y":2558880.5100000035}},{"attributes":{"ID":534110,"DIS_CODE":0,"TOWNNAME":"善化區","LI":"光文里","LIN":"19鄰","STREET":"民生路","SECT":" ","MAREA":" ","LANE":" ","ALLEY":" ","HOUSE_NO":"２９１號五樓","E_COORD97":178195.45999999999,"N_COORD97":2558911.0099999998,"ADDRESS":"民生路２９１號五樓","OBJECTID":534083},"geometry":{"x":178195.46000000089,"y":2558911.0100000035}},{"attributes":{"ID":534111,"DIS_CODE":0,"TOWNNAME":"善化區","LI":"光文里","LIN":"19鄰","STREET":"民生路","SECT":" ","MAREA":" ","LANE":" ","ALLEY":" ","HOUSE_NO":"２７７號七樓","E_COORD97":178226.07000000001,"N_COORD97":2558885.25,"ADDRESS":"民生路２７７號七樓","OBJECTID":534084},"geometry":{"x":178226.0700000003,"y":2558885.25}},{"attributes":{"ID":534112,"DIS_CODE":0,"TOWNNAME":"善化區","LI":"光文里","LIN":"19鄰","STREET":"民生路","SECT":" ","MAREA":" ","LANE":" ","ALLEY":" ","HOUSE_NO":"２６７號八樓","E_COORD97":178223.57000000001,"N_COORD97":2558915.7599999998,"ADDRESS":"民生路２６７號八樓","OBJECTID":534085},"geometry":{"x":178223.57000000123,"y":2558915.7599999998}},{"attributes":{"ID":534113,"DIS_CODE":0,"TOWNNAME":"善化區","LI":"光文里","LIN":"19鄰","STREET":"民生路","SECT":" ","MAREA":" ","LANE":" ","ALLEY":" ","HOUSE_NO":"２８５號七樓","E_COORD97":178197.84,"N_COORD97":2558891.7599999998,"ADDRESS":"民生路２８５號七樓","OBJECTID":534086},"geometry":{"x":178197.84000000078,"y":2558891.7599999998}},{"attributes":{"ID":534114,"DIS_CODE":0,"TOWNNAME":"善化區","LI":"光文里","LIN":"19鄰","STREET":"民生路","SECT":" ","MAREA":" ","LANE":" ","ALLEY":" ","HOUSE_NO":"２８３號二樓","E_COORD97":178198.57000000001,"N_COORD97":2558880.5099999998,"ADDRESS":"民生路２８３號二樓","OBJECTID":534087},"geometry":{"x":178198.57000000123,"y":2558880.5100000035}},{"attributes":{"ID":534115,"DIS_CODE":0,"TOWNNAME":"善化區","LI":"光文里","LIN":"19鄰","STREET":"民生路","SECT":" ","MAREA":" ","LANE":" ","ALLEY":" ","HOUSE_NO":"２７３號二樓","E_COORD97":178220.26999999999,"N_COORD97":2558906.0099999998,"ADDRESS":"民生路２７３號二樓","OBJECTID":534088},"geometry":{"x":178220.26999999955,"y":2558906.0100000016}},{"attributes":{"ID":534116,"DIS_CODE":0,"TOWNNAME":"善化區","LI":"光文里","LIN":"19鄰","STREET":"民生路","SECT":" ","MAREA":" ","LANE":" ","ALLEY":" ","HOUSE_NO":"２７９號八樓","E_COORD97":178216.92999999999,"N_COORD97":2558883.7599999998,"ADDRESS":"民生路２７９號八樓","OBJECTID":534089},"geometry":{"x":178216.93000000063,"y":2558883.7600000016}},{"attributes":{"ID":534117,"DIS_CODE":0,"TOWNNAME":"善化區","LI":"光文里","LIN":"19鄰","STREET":"民生路","SECT":" ","MAREA":" ","LANE":" ","ALLEY":" ","HOUSE_NO":"２７７號十樓","E_COORD97":178226.07000000001,"N_COORD97":2558885.25,"ADDRESS":"民生路２７７號十樓","OBJECTID":534090},"geometry":{"x":178226.0700000003,"y":2558885.25}},{"attributes":{"ID":534118,"DIS_CODE":0,"TOWNNAME":"善化區","LI":"光文里","LIN":"19鄰","STREET":"民生路","SECT":" ","MAREA":" ","LANE":" ","ALLEY":" ","HOUSE_NO":"２８１號十樓","E_COORD97":178207.76999999999,"N_COORD97":2558882.5099999998,"ADDRESS":"民生路２８１號十樓","OBJECTID":534091},"geometry":{"x":178207.77000000048,"y":2558882.5099999998}},{"attributes":{"ID":534119,"DIS_CODE":0,"TOWNNAME":"善化區","LI":"光文里","LIN":"19鄰","STREET":"民生路","SECT":" ","MAREA":" ","LANE":" ","ALLEY":" ","HOUSE_NO":"２７７號六樓","E_COORD97":178226.07000000001,"N_COORD97":2558885.25,"ADDRESS":"民生路２７７號六樓","OBJECTID":534092},"geometry":{"x":178226.0700000003,"y":2558885.25}},{"attributes":{"ID":534120,"DIS_CODE":0,"TOWNNAME":"善化區","LI":"光文里","LIN":"19鄰","STREET":"民生路","SECT":" ","MAREA":" ","LANE":" ","ALLEY":" ","HOUSE_NO":"２７９號五樓","E_COORD97":178216.92999999999,"N_COORD97":2558883.7599999998,"ADDRESS":"民生路２７９號五樓","OBJECTID":534093},"geometry":{"x":178216.93000000063,"y":2558883.7600000016}},{"attributes":{"ID":534121,"DIS_CODE":0,"TOWNNAME":"善化區","LI":"光文里","LIN":"19鄰","STREET":"民生路","SECT":" ","MAREA":" ","LANE":" ","ALLEY":" ","HOUSE_NO":"２７５號三樓","E_COORD97":178230.63,"N_COORD97":2558899.2599999998,"ADDRESS":"民生路２７５號三樓","OBJECTID":534094},"geometry":{"x":178230.62999999989,"y":2558899.2600000035}},{"attributes":{"ID":534122,"DIS_CODE":0,"TOWNNAME":"善化區","LI":"光文里","LIN":"19鄰","STREET":"民生路","SECT":" ","MAREA":" ","LANE":" ","ALLEY":" ","HOUSE_NO":"２６７號四樓","E_COORD97":178223.57000000001,"N_COORD97":2558915.7599999998,"ADDRESS":"民生路２６７號四樓","OBJECTID":534095},"geometry":{"x":178223.57000000123,"y":2558915.7599999998}},{"attributes":{"ID":534123,"DIS_CODE":0,"TOWNNAME":"善化區","LI":"光文里","LIN":"19鄰","STREET":"民生路","SECT":" ","MAREA":" ","LANE":" ","ALLEY":" ","HOUSE_NO":"２７５號十樓","E_COORD97":178230.63,"N_COORD97":2558899.2599999998,"ADDRESS":"民生路２７５號十樓","OBJECTID":534096},"geometry":{"x":178230.62999999989,"y":2558899.2600000035}},{"attributes":{"ID":534124,"DIS_CODE":0,"TOWNNAME":"善化區","LI":"光文里","LIN":"19鄰","STREET":"民生路","SECT":" ","MAREA":" ","LANE":" ","ALLEY":" ","HOUSE_NO":"２７３號十樓","E_COORD97":178220.26999999999,"N_COORD97":2558906.0099999998,"ADDRESS":"民生路２７３號十樓","OBJECTID":534097},"geometry":{"x":178220.26999999955,"y":2558906.0100000016}},{"attributes":{"ID":534125,"DIS_CODE":0,"TOWNNAME":"善化區","LI":"光文里","LIN":"19鄰","STREET":"民生路","SECT":" ","MAREA":" ","LANE":" ","ALLEY":" ","HOUSE_NO":"２９１號四樓","E_COORD97":178195.45999999999,"N_COORD97":2558911.0099999998,"ADDRESS":"民生路２９１號四樓","OBJECTID":534098},"geometry":{"x":178195.46000000089,"y":2558911.0100000035}},{"attributes":{"ID":534126,"DIS_CODE":0,"TOWNNAME":"善化區","LI":"光文里","LIN":"19鄰","STREET":"民生路","SECT":" ","MAREA":" ","LANE":" ","ALLEY":" ","HOUSE_NO":"２８３號五樓","E_COORD97":178198.57000000001,"N_COORD97":2558880.5099999998,"ADDRESS":"民生路２８３號五樓","OBJECTID":534099},"geometry":{"x":178198.57000000123,"y":2558880.5100000035}},{"attributes":{"ID":534127,"DIS_CODE":0,"TOWNNAME":"善化區","LI":"光文里","LIN":"19鄰","STREET":"民生路","SECT":" ","MAREA":" ","LANE":" ","ALLEY":" ","HOUSE_NO":"２７５號七樓","E_COORD97":178230.63,"N_COORD97":2558899.2599999998,"ADDRESS":"民生路２７５號七樓","OBJECTID":534100},"geometry":{"x":178230.62999999989,"y":2558899.2600000035}},{"attributes":{"ID":534128,"DIS_CODE":0,"TOWNNAME":"善化區","LI":"光文里","LIN":"19鄰","STREET":"民生路","SECT":" ","MAREA":" ","LANE":" ","ALLEY":" ","HOUSE_NO":"２７１號六樓","E_COORD97":178214.62,"N_COORD97":2558914.0099999998,"ADDRESS":"民生路２７１號六樓","OBJECTID":534101},"geometry":{"x":178214.62000000104,"y":2558914.0099999998}},{"attributes":{"ID":534129,"DIS_CODE":0,"TOWNNAME":"善化區","LI":"光文里","LIN":"19鄰","STREET":"民生路","SECT":" ","MAREA":" ","LANE":" ","ALLEY":" ","HOUSE_NO":"２８７號九樓","E_COORD97":178204.41,"N_COORD97":2558912.2599999998,"ADDRESS":"民生路２８７號九樓","OBJECTID":534102},"geometry":{"x":178204.41000000108,"y":2558912.2599999998}},{"attributes":{"ID":534130,"DIS_CODE":0,"TOWNNAME":"善化區","LI":"光文里","LIN":"19鄰","STREET":"民生路","SECT":" ","MAREA":" ","LANE":" ","ALLEY":" ","HOUSE_NO":"２８５號五樓","E_COORD97":178197.84,"N_COORD97":2558891.7599999998,"ADDRESS":"民生路２８５號五樓","OBJECTID":534103},"geometry":{"x":178197.84000000078,"y":2558891.7599999998}},{"attributes":{"ID":534131,"DIS_CODE":0,"TOWNNAME":"善化區","LI":"光文里","LIN":"19鄰","STREET":"民生路","SECT":" ","MAREA":" ","LANE":" ","ALLEY":" ","HOUSE_NO":"２７１號七樓","E_COORD97":178214.62,"N_COORD97":2558914.0099999998,"ADDRESS":"民生路２７１號七樓","OBJECTID":534104},"geometry":{"x":178214.62000000104,"y":2558914.0099999998}},{"attributes":{"ID":534132,"DIS_CODE":0,"TOWNNAME":"善化區","LI":"光文里","LIN":"19鄰","STREET":"民生路","SECT":" ","MAREA":" ","LANE":" ","ALLEY":" ","HOUSE_NO":"２８５號九樓","E_COORD97":178197.84,"N_COORD97":2558891.7599999998,"ADDRESS":"民生路２８５號九樓","OBJECTID":534105},"geometry":{"x":178197.84000000078,"y":2558891.7599999998}},{"attributes":{"ID":534133,"DIS_CODE":0,"TOWNNAME":"善化區","LI":"光文里","LIN":"19鄰","STREET":"民生路","SECT":" ","MAREA":" ","LANE":" ","ALLEY":" ","HOUSE_NO":"２９１號八樓","E_COORD97":178195.45999999999,"N_COORD97":2558911.0099999998,"ADDRESS":"民生路２９１號八樓","OBJECTID":534106},"geometry":{"x":178195.46000000089,"y":2558911.0100000035}},{"attributes":{"ID":534134,"DIS_CODE":0,"TOWNNAME":"善化區","LI":"光文里","LIN":"19鄰","STREET":"民生路","SECT":" ","MAREA":" ","LANE":" ","ALLEY":" ","HOUSE_NO":"２９１號九樓","E_COORD97":178195.45999999999,"N_COORD97":2558911.0099999998,"ADDRESS":"民生路２９１號九樓","OBJECTID":534107},"geometry":{"x":178195.46000000089,"y":2558911.0100000035}},{"attributes":{"ID":534135,"DIS_CODE":0,"TOWNNAME":"善化區","LI":"光文里","LIN":"19鄰","STREET":"民生路","SECT":" ","MAREA":" ","LANE":" ","ALLEY":" ","HOUSE_NO":"２７９號三樓","E_COORD97":178216.92999999999,"N_COORD97":2558883.7599999998,"ADDRESS":"民生路２７９號三樓","OBJECTID":534108},"geometry":{"x":178216.93000000063,"y":2558883.7600000016}},{"attributes":{"ID":534136,"DIS_CODE":0,"TOWNNAME":"善化區","LI":"光文里","LIN":"19鄰","STREET":"民生路","SECT":" ","MAREA":" ","LANE":" ","ALLEY":" ","HOUSE_NO":"２７７號三樓","E_COORD97":178226.07000000001,"N_COORD97":2558885.25,"ADDRESS":"民生路２７７號三樓","OBJECTID":534109},"geometry":{"x":178226.0700000003,"y":2558885.25}},{"attributes":{"ID":534137,"DIS_CODE":0,"TOWNNAME":"善化區","LI":"光文里","LIN":"19鄰","STREET":"民生路","SECT":" ","MAREA":" ","LANE":" ","ALLEY":" ","HOUSE_NO":"２８３號七樓之１","E_COORD97":178199.42999999999,"N_COORD97":2558880.52,"ADDRESS":"民生路２８３號七樓之１","OBJECTID":534110},"geometry":{"x":178199.4299999997,"y":2558880.5200000033}},{"attributes":{"ID":534138,"DIS_CODE":0,"TOWNNAME":"善化區","LI":"光文里","LIN":"19鄰","STREET":"民生路","SECT":" ","MAREA":" ","LANE":" ","ALLEY":" ","HOUSE_NO":"２７９號四樓","E_COORD97":178216.92999999999,"N_COORD97":2558883.7599999998,"ADDRESS":"民生路２７９號四樓","OBJECTID":534111},"geometry":{"x":178216.93000000063,"y":2558883.7600000016}},{"attributes":{"ID":534139,"DIS_CODE":0,"TOWNNAME":"善化區","LI":"光文里","LIN":"19鄰","STREET":"民生路","SECT":" ","MAREA":" ","LANE":" ","ALLEY":" ","HOUSE_NO":"２７３號五樓","E_COORD97":178220.26999999999,"N_COORD97":2558906.0099999998,"ADDRESS":"民生路２７３號五樓","OBJECTID":534112},"geometry":{"x":178220.26999999955,"y":2558906.0100000016}},{"attributes":{"ID":534140,"DIS_CODE":0,"TOWNNAME":"善化區","LI":"光文里","LIN":"19鄰","STREET":"民生路","SECT":" ","MAREA":" ","LANE":" ","ALLEY":" ","HOUSE_NO":"２８５號四樓","E_COORD97":178197.84,"N_COORD97":2558891.7599999998,"ADDRESS":"民生路２８５號四樓","OBJECTID":534113},"geometry":{"x":178197.84000000078,"y":2558891.7599999998}},{"attributes":{"ID":534141,"DIS_CODE":0,"TOWNNAME":"永康區","LI":"復國里","LIN":"19鄰","STREET":"國華街","SECT":" ","MAREA":" ","LANE":" ","ALLEY":" ","HOUSE_NO":"５３號十五樓之１","E_COORD97":172795.84,"N_COORD97":2545723.1800000002,"ADDRESS":"國華街５３號十五樓之１","OBJECTID":534114},"geometry":{"x":172795.83999999985,"y":2545723.1799999997}},{"attributes":{"ID":534142,"DIS_CODE":0,"TOWNNAME":"永康區","LI":"復國里","LIN":"19鄰","STREET":"國華街","SECT":" ","MAREA":" ","LANE":" ","ALLEY":" ","HOUSE_NO":"５１號五樓之１","E_COORD97":172808.95000000001,"N_COORD97":2545722.6800000002,"ADDRESS":"國華街５１號五樓之１","OBJECTID":534115},"geometry":{"x":172808.95000000019,"y":2545722.6800000016}},{"attributes":{"ID":534143,"DIS_CODE":0,"TOWNNAME":"永康區","LI":"復國里","LIN":"19鄰","STREET":"國華街","SECT":" ","MAREA":" ","LANE":" ","ALLEY":" ","HOUSE_NO":"５３號十二樓之１","E_COORD97":172795.84,"N_COORD97":2545723.1800000002,"ADDRESS":"國華街５３號十二樓之１","OBJECTID":534116},"geometry":{"x":172795.83999999985,"y":2545723.1799999997}},{"attributes":{"ID":534144,"DIS_CODE":0,"TOWNNAME":"仁德區","LI":"後壁里","LIN":"19鄰","STREET":"中正路","SECT":"二段","MAREA":" ","LANE":" ","ALLEY":" ","HOUSE_NO":"１６８號","E_COORD97":173225.85000000001,"N_COORD97":2538666.2799999998,"ADDRESS":"中正路二段１６８號","OBJECTID":534117},"geometry":{"x":173225.84999999963,"y":2538666.2800000012}},{"attributes":{"ID":534145,"DIS_CODE":0,"TOWNNAME":"仁德區","LI":"後壁里","LIN":"19鄰","STREET":"中正路","SECT":"二段","MAREA":" ","LANE":" ","ALLEY":" ","HOUSE_NO":"１６２號","E_COORD97":173223.28,"N_COORD97":2538650.5299999998,"ADDRESS":"中正路二段１６２號","OBJECTID":534118},"geometry":{"x":173223.28000000119,"y":2538650.5300000012}},{"attributes":{"ID":534146,"DIS_CODE":0,"TOWNNAME":"永康區","LI":"復國里","LIN":"19鄰","STREET":"復國一路","SECT":" ","MAREA":" ","LANE":" ","ALLEY":" ","HOUSE_NO":"３６０號","E_COORD97":172772.64999999999,"N_COORD97":2545743.3999999999,"ADDRESS":"復國一路３６０號","OBJECTID":534119},"geometry":{"x":172772.64999999944,"y":2545743.4000000004}},{"attributes":{"ID":534147,"DIS_CODE":0,"TOWNNAME":"永康區","LI":"復國里","LIN":"19鄰","STREET":"復國一路","SECT":" ","MAREA":" ","LANE":" ","ALLEY":" ","HOUSE_NO":"３５４號","E_COORD97":172771.64999999999,"N_COORD97":2545730.1600000001,"ADDRESS":"復國一路３５４號","OBJECTID":534120},"geometry":{"x":172771.6500000013,"y":2545730.160000002}},{"attributes":{"ID":534148,"DIS_CODE":0,"TOWNNAME":"永康區","LI":"復國里","LIN":"19鄰","STREET":"復國一路","SECT":" ","MAREA":" ","LANE":" ","ALLEY":" ","HOUSE_NO":"３５８號","E_COORD97":172772.31,"N_COORD97":2545739.3999999999,"ADDRESS":"復國一路３５８號","OBJECTID":534121},"geometry":{"x":172772.30999999959,"y":2545739.4000000004}},{"attributes":{"ID":534149,"DIS_CODE":0,"TOWNNAME":"永康區","LI":"網寮里","LIN":"19鄰","STREET":"文化路","SECT":" ","MAREA":" ","LANE":" ","ALLEY":" ","HOUSE_NO":"２８２號","E_COORD97":173460.10999999999,"N_COORD97":2546149.0499999998,"ADDRESS":"文化路２８２號","OBJECTID":534122},"geometry":{"x":173460.11000000127,"y":2546149.0500000007}},{"attributes":{"ID":534150,"DIS_CODE":0,"TOWNNAME":"永康區","LI":"復國里","LIN":"19鄰","STREET":"復華五街","SECT":" ","MAREA":" ","LANE":" ","ALLEY":" ","HOUSE_NO":"４２號","E_COORD97":172787.07000000001,"N_COORD97":2545713.9100000001,"ADDRESS":"復華五街４２號","OBJECTID":534123},"geometry":{"x":172787.07000000123,"y":2545713.910000002}},{"attributes":{"ID":534151,"DIS_CODE":0,"TOWNNAME":"善化區","LI":"東關里","LIN":"19鄰","STREET":"中興路","SECT":" ","MAREA":" ","LANE":" ","ALLEY":" ","HOUSE_NO":"１００號","E_COORD97":177490.53,"N_COORD97":2559029.5,"ADDRESS":"中興路１００號","OBJECTID":534124},"geometry":{"x":177490.53000000026,"y":2559029.5}},{"attributes":{"ID":534152,"DIS_CODE":0,"TOWNNAME":"善化區","LI":"東關里","LIN":"19鄰","STREET":"中興路","SECT":" ","MAREA":" ","LANE":" ","ALLEY":" ","HOUSE_NO":"８８號","E_COORD97":177519.92000000001,"N_COORD97":2559027.5,"ADDRESS":"中興路８８號","OBJECTID":534125},"geometry":{"x":177519.91999999993,"y":2559027.5000000019}},{"attributes":{"ID":534153,"DIS_CODE":0,"TOWNNAME":"善化區","LI":"文昌里","LIN":"19鄰","STREET":"光復路","SECT":" ","MAREA":" ","LANE":" ","ALLEY":" ","HOUSE_NO":"２６５號","E_COORD97":177217.57999999999,"N_COORD97":2558549.1000000001,"ADDRESS":"光復路２６５號","OBJECTID":534126},"geometry":{"x":177217.57999999914,"y":2558549.1000000015}},{"attributes":{"ID":534154,"DIS_CODE":0,"TOWNNAME":"善化區","LI":"文昌里","LIN":"19鄰","STREET":"光復路","SECT":" ","MAREA":" ","LANE":" ","ALLEY":" ","HOUSE_NO":"２６３號","E_COORD97":177230.62,"N_COORD97":2558540.3100000001,"ADDRESS":"光復路２６３號","OBJECTID":534127},"geometry":{"x":177230.62000000011,"y":2558540.3100000042}},{"attributes":{"ID":534155,"DIS_CODE":0,"TOWNNAME":"中西區","LI":"光賢里","LIN":"19鄰","STREET":"武聖路","SECT":" ","MAREA":" ","LANE":" ","ALLEY":" ","HOUSE_NO":"２２７號","E_COORD97":166872.60000000001,"N_COORD97":2545270.8999999999,"ADDRESS":"武聖路２２７號","OBJECTID":534128},"geometry":{"x":166872.59999999963,"y":2545270.9000000022}},{"attributes":{"ID":534156,"DIS_CODE":0,"TOWNNAME":"中西區","LI":"光賢里","LIN":"19鄰","STREET":"武聖路","SECT":" ","MAREA":" ","LANE":" ","ALLEY":" ","HOUSE_NO":"２０５號","E_COORD97":166908.56,"N_COORD97":2545246.96,"ADDRESS":"武聖路２０５號","OBJECTID":534129},"geometry":{"x":166908.55999999959,"y":2545246.9600000028}},{"attributes":{"ID":534157,"DIS_CODE":0,"TOWNNAME":"中西區","LI":"光賢里","LIN":"19鄰","STREET":"武聖路","SECT":" ","MAREA":" ","LANE":" ","ALLEY":" ","HOUSE_NO":"２０７號","E_COORD97":166904.87,"N_COORD97":2545249.4900000002,"ADDRESS":"武聖路２０７號","OBJECTID":534130},"geometry":{"x":166904.87000000011,"y":2545249.4900000021}},{"attributes":{"ID":534158,"DIS_CODE":0,"TOWNNAME":"中西區","LI":"光賢里","LIN":"19鄰","STREET":"武聖路","SECT":" ","MAREA":" ","LANE":" ","ALLEY":" ","HOUSE_NO":"２０９號","E_COORD97":166901.19,"N_COORD97":2545252.48,"ADDRESS":"武聖路２０９號","OBJECTID":534131},"geometry":{"x":166901.19000000134,"y":2545252.4800000023}},{"attributes":{"ID":534159,"DIS_CODE":0,"TOWNNAME":"中西區","LI":"光賢里","LIN":"19鄰","STREET":"武聖路","SECT":" ","MAREA":" ","LANE":" ","ALLEY":" ","HOUSE_NO":"２１１號","E_COORD97":166897.73000000001,"N_COORD97":2545257.3199999998,"ADDRESS":"武聖路２１１號","OBJECTID":534132},"geometry":{"x":166897.73000000045,"y":2545257.3200000022}},{"attributes":{"ID":534160,"DIS_CODE":0,"TOWNNAME":"中西區","LI":"光賢里","LIN":"19鄰","STREET":"武聖路","SECT":" ","MAREA":" ","LANE":" ","ALLEY":" ","HOUSE_NO":"２１５號","E_COORD97":166889.42999999999,"N_COORD97":2545262.3900000001,"ADDRESS":"武聖路２１５號","OBJECTID":534133},"geometry":{"x":166889.42999999877,"y":2545262.3900000006}},{"attributes":{"ID":534161,"DIS_CODE":0,"TOWNNAME":"中西區","LI":"光賢里","LIN":"19鄰","STREET":"武聖路","SECT":" ","MAREA":" ","LANE":" ","ALLEY":" ","HOUSE_NO":"２１７號","E_COORD97":166885.04999999999,"N_COORD97":2545253.8700000001,"ADDRESS":"武聖路２１７號","OBJECTID":534134},"geometry":{"x":166885.04999999981,"y":2545253.8700000029}},{"attributes":{"ID":534162,"DIS_CODE":0,"TOWNNAME":"中西區","LI":"光賢里","LIN":"19鄰","STREET":"武聖路","SECT":" ","MAREA":" ","LANE":" ","ALLEY":" ","HOUSE_NO":"２１９號","E_COORD97":166885.04999999999,"N_COORD97":2545265.6099999999,"ADDRESS":"武聖路２１９號","OBJECTID":534135},"geometry":{"x":166885.04999999981,"y":2545265.6099999994}},{"attributes":{"ID":534163,"DIS_CODE":0,"TOWNNAME":"中西區","LI":"光賢里","LIN":"19鄰","STREET":"武聖路","SECT":" ","MAREA":" ","LANE":" ","ALLEY":" ","HOUSE_NO":"２２１號","E_COORD97":166882.97,"N_COORD97":2545259.8500000001,"ADDRESS":"武聖路２２１號","OBJECTID":534136},"geometry":{"x":166882.97000000067,"y":2545259.8500000015}},{"attributes":{"ID":534164,"DIS_CODE":0,"TOWNNAME":"中西區","LI":"光賢里","LIN":"19鄰","STREET":"武聖路","SECT":" ","MAREA":" ","LANE":" ","ALLEY":" ","HOUSE_NO":"２２３號","E_COORD97":166880.67000000001,"N_COORD97":2545265.3799999999,"ADDRESS":"武聖路２２３號","OBJECTID":534137},"geometry":{"x":166880.66999999993,"y":2545265.3800000008}},{"attributes":{"ID":534165,"DIS_CODE":0,"TOWNNAME":"中西區","LI":"光賢里","LIN":"19鄰","STREET":"武聖路","SECT":" ","MAREA":" ","LANE":" ","ALLEY":" ","HOUSE_NO":"２２５號","E_COORD97":166876.51999999999,"N_COORD97":2545269.0600000001,"ADDRESS":"武聖路２２５號","OBJECTID":534138},"geometry":{"x":166876.51999999955,"y":2545269.0600000024}},{"attributes":{"ID":534166,"DIS_CODE":0,"TOWNNAME":"中西區","LI":"光賢里","LIN":"19鄰","STREET":"武聖路","SECT":" ","MAREA":" ","LANE":" ","ALLEY":" ","HOUSE_NO":"２２９號","E_COORD97":166867.53,"N_COORD97":2545272.75,"ADDRESS":"武聖路２２９號","OBJECTID":534139},"geometry":{"x":166867.53000000212,"y":2545272.75}},{"attributes":{"ID":534167,"DIS_CODE":0,"TOWNNAME":"中西區","LI":"光賢里","LIN":"19鄰","STREET":"武聖路","SECT":" ","MAREA":" ","LANE":" ","ALLEY":" ","HOUSE_NO":"２３５號","E_COORD97":166852.54000000001,"N_COORD97":2545275.2799999998,"ADDRESS":"武聖路２３５號","OBJECTID":534140},"geometry":{"x":166852.54000000097,"y":2545275.2799999993}},{"attributes":{"ID":534168,"DIS_CODE":0,"TOWNNAME":"中西區","LI":"光賢里","LIN":"19鄰","STREET":"武聖路","SECT":" ","MAREA":" ","LANE":" ","ALLEY":" ","HOUSE_NO":"２３７號","E_COORD97":166848.39000000001,"N_COORD97":2545280.5699999998,"ADDRESS":"武聖路２３７號","OBJECTID":534141},"geometry":{"x":166848.38999999966,"y":2545280.5700000003}},{"attributes":{"ID":534169,"DIS_CODE":0,"TOWNNAME":"新市區","LI":"新和里","LIN":"19鄰","STREET":"永福街","SECT":" ","MAREA":" ","LANE":" ","ALLEY":" ","HOUSE_NO":"１１５號","E_COORD97":177437.20999999999,"N_COORD97":2552731,"ADDRESS":"永福街１１５號","OBJECTID":534142},"geometry":{"x":177437.21000000089,"y":2552731.0000000037}},{"attributes":{"ID":534170,"DIS_CODE":0,"TOWNNAME":"白河區","LI":"永安里","LIN":"19鄰","STREET":"國光路","SECT":" ","MAREA":" ","LANE":" ","ALLEY":" ","HOUSE_NO":"５號","E_COORD97":190269.59,"N_COORD97":2583386.46,"ADDRESS":"國光路５號","OBJECTID":534143},"geometry":{"x":190269.58999999985,"y":2583386.4600000009}},{"attributes":{"ID":534171,"DIS_CODE":0,"TOWNNAME":"東區","LI":"崇善里","LIN":"19鄰","STREET":"崇善十一街","SECT":" ","MAREA":" ","LANE":" ","ALLEY":" ","HOUSE_NO":"２２號","E_COORD97":171202.76999999999,"N_COORD97":2541188.3399999999,"ADDRESS":"崇善十一街２２號","OBJECTID":534144},"geometry":{"x":171202.76999999955,"y":2541188.3400000017}},{"attributes":{"ID":534172,"DIS_CODE":0,"TOWNNAME":"東區","LI":"崇善里","LIN":"19鄰","STREET":"崇善十一街","SECT":" ","MAREA":" ","LANE":" ","ALLEY":" ","HOUSE_NO":"２６號","E_COORD97":171212.82999999999,"N_COORD97":2541191.6000000001,"ADDRESS":"崇善十一街２６號","OBJECTID":534145},"geometry":{"x":171212.83000000007,"y":2541191.5999999996}},{"attributes":{"ID":534173,"DIS_CODE":0,"TOWNNAME":"東區","LI":"崇善里","LIN":"19鄰","STREET":"崇善十一街","SECT":" ","MAREA":" ","LANE":" ","ALLEY":" ","HOUSE_NO":"２８號","E_COORD97":171217.62,"N_COORD97":2541191.54,"ADDRESS":"崇善十一街２８號","OBJECTID":534146},"geometry":{"x":171217.62000000011,"y":2541191.5399999991}},{"attributes":{"ID":534174,"DIS_CODE":0,"TOWNNAME":"東區","LI":"崇善里","LIN":"19鄰","STREET":"崇善十一街","SECT":" ","MAREA":" ","LANE":" ","ALLEY":" ","HOUSE_NO":"２號","E_COORD97":171145.76999999999,"N_COORD97":2541170.4399999999,"ADDRESS":"崇善十一街２號","OBJECTID":534147},"geometry":{"x":171145.77000000048,"y":2541170.4400000013}},{"attributes":{"ID":534175,"DIS_CODE":0,"TOWNNAME":"東區","LI":"崇善里","LIN":"19鄰","STREET":"崇善十一街","SECT":" ","MAREA":" ","LANE":" ","ALLEY":" ","HOUSE_NO":"３０號","E_COORD97":171220.54000000001,"N_COORD97":2541193.4399999999,"ADDRESS":"崇善十一街３０號","OBJECTID":534148},"geometry":{"x":171220.54000000097,"y":2541193.4400000013}},{"attributes":{"ID":534176,"DIS_CODE":0,"TOWNNAME":"東區","LI":"崇善里","LIN":"19鄰","STREET":"崇善十一街","SECT":" ","MAREA":" ","LANE":" ","ALLEY":" ","HOUSE_NO":"３２號","E_COORD97":171229.82999999999,"N_COORD97":2541201.48,"ADDRESS":"崇善十一街３２號","OBJECTID":534149},"geometry":{"x":171229.83000000007,"y":2541201.4800000023}},{"attributes":{"ID":534177,"DIS_CODE":0,"TOWNNAME":"東區","LI":"崇善里","LIN":"19鄰","STREET":"崇善十一街","SECT":" ","MAREA":" ","LANE":" ","ALLEY":" ","HOUSE_NO":"３６號","E_COORD97":171235.70999999999,"N_COORD97":2541206.1200000001,"ADDRESS":"崇善十一街３６號","OBJECTID":534150},"geometry":{"x":171235.70999999996,"y":2541206.120000001}},{"attributes":{"ID":534178,"DIS_CODE":0,"TOWNNAME":"東區","LI":"崇善里","LIN":"19鄰","STREET":"崇善十一街","SECT":" ","MAREA":" ","LANE":" ","ALLEY":" ","HOUSE_NO":"３８號","E_COORD97":171237.26000000001,"N_COORD97":2541207.98,"ADDRESS":"崇善十一街３８號","OBJECTID":534151},"geometry":{"x":171237.26000000164,"y":2541207.9800000023}},{"attributes":{"ID":534179,"DIS_CODE":0,"TOWNNAME":"東區","LI":"崇善里","LIN":"19鄰","STREET":"崇善路","SECT":" ","MAREA":" ","LANE":" ","ALLEY":" ","HOUSE_NO":"６８９號","E_COORD97":171136.35999999999,"N_COORD97":2541151.6299999999,"ADDRESS":"崇善路６８９號","OBJECTID":534152},"geometry":{"x":171136.36000000034,"y":2541151.6300000008}},{"attributes":{"ID":534180,"DIS_CODE":0,"TOWNNAME":"東區","LI":"崇善里","LIN":"19鄰","STREET":"崇善路","SECT":" ","MAREA":" ","LANE":" ","ALLEY":" ","HOUSE_NO":"６９７號","E_COORD97":171141.91,"N_COORD97":2541135.3199999998,"ADDRESS":"崇善路６９７號","OBJECTID":534153},"geometry":{"x":171141.91000000108,"y":2541135.3200000022}},{"attributes":{"ID":534181,"DIS_CODE":0,"TOWNNAME":"東區","LI":"崇善里","LIN":"19鄰","STREET":"崇善路","SECT":" ","MAREA":" ","LANE":" ","ALLEY":" ","HOUSE_NO":"６９９號","E_COORD97":171142.39000000001,"N_COORD97":2541132.1899999999,"ADDRESS":"崇善路６９９號","OBJECTID":534154},"geometry":{"x":171142.38999999966,"y":2541132.1899999995}},{"attributes":{"ID":534182,"DIS_CODE":0,"TOWNNAME":"東區","LI":"崇善里","LIN":"19鄰","STREET":"崇善路","SECT":" ","MAREA":" ","LANE":" ","ALLEY":" ","HOUSE_NO":"７０１號","E_COORD97":171144.07999999999,"N_COORD97":2541127.6000000001,"ADDRESS":"崇善路７０１號","OBJECTID":534155},"geometry":{"x":171144.08000000101,"y":2541127.5999999978}},{"attributes":{"ID":534183,"DIS_CODE":0,"TOWNNAME":"東區","LI":"崇善里","LIN":"19鄰","STREET":"崇善路","SECT":" ","MAREA":" ","LANE":" ","ALLEY":" ","HOUSE_NO":"７０３號","E_COORD97":171145.29000000001,"N_COORD97":2541123.9900000002,"ADDRESS":"崇善路７０３號","OBJECTID":534156},"geometry":{"x":171145.29000000004,"y":2541123.9900000021}},{"attributes":{"ID":534184,"DIS_CODE":0,"TOWNNAME":"東區","LI":"崇善里","LIN":"19鄰","STREET":"崇善路","SECT":" ","MAREA":" ","LANE":" ","ALLEY":" ","HOUSE_NO":"７０５號","E_COORD97":171146.5,"N_COORD97":2541119.8900000001,"ADDRESS":"崇善路７０５號","OBJECTID":534157},"geometry":{"x":171146.50000000093,"y":2541119.8899999987}},{"attributes":{"ID":534185,"DIS_CODE":0,"TOWNNAME":"東區","LI":"崇善里","LIN":"19鄰","STREET":"崇善路","SECT":" ","MAREA":" ","LANE":" ","ALLEY":" ","HOUSE_NO":"７０７號","E_COORD97":171148.42999999999,"N_COORD97":2541115.54,"ADDRESS":"崇善路７０７號","OBJECTID":534158},"geometry":{"x":171148.43000000063,"y":2541115.540000001}},{"attributes":{"ID":534186,"DIS_CODE":0,"TOWNNAME":"東區","LI":"崇善里","LIN":"19鄰","STREET":"崇善路","SECT":" ","MAREA":" ","LANE":" ","ALLEY":" ","HOUSE_NO":"７０９號","E_COORD97":171149.88,"N_COORD97":2541111.2000000002,"ADDRESS":"崇善路７０９號","OBJECTID":534159},"geometry":{"x":171149.87999999989,"y":2541111.2000000011}},{"attributes":{"ID":534187,"DIS_CODE":0,"TOWNNAME":"東區","LI":"崇善里","LIN":"19鄰","STREET":"崇善路","SECT":" ","MAREA":" ","LANE":" ","ALLEY":" ","HOUSE_NO":"７１１號","E_COORD97":171151.07999999999,"N_COORD97":2541108.0699999998,"ADDRESS":"崇善路７１１號","OBJECTID":534160},"geometry":{"x":171151.08000000101,"y":2541108.0700000003}},{"attributes":{"ID":534188,"DIS_CODE":0,"TOWNNAME":"東區","LI":"崇善里","LIN":"19鄰","STREET":"崇善路","SECT":" ","MAREA":" ","LANE":" ","ALLEY":" ","HOUSE_NO":"７１３號","E_COORD97":171152.53,"N_COORD97":2541103.73,"ADDRESS":"崇善路７１３號","OBJECTID":534161},"geometry":{"x":171152.53000000026,"y":2541103.7300000004}},{"attributes":{"ID":534189,"DIS_CODE":0,"TOWNNAME":"東區","LI":"崇善里","LIN":"19鄰","STREET":"崇善路","SECT":" ","MAREA":" ","LANE":" ","ALLEY":" ","HOUSE_NO":"７１９號","E_COORD97":171156.14999999999,"N_COORD97":2541092.3900000001,"ADDRESS":"崇善路７１９號","OBJECTID":534162},"geometry":{"x":171156.1500000013,"y":2541092.3900000006}},{"attributes":{"ID":534190,"DIS_CODE":0,"TOWNNAME":"東區","LI":"崇善里","LIN":"19鄰","STREET":"崇善路","SECT":" ","MAREA":" ","LANE":" ","ALLEY":" ","HOUSE_NO":"７２１號","E_COORD97":171157.60000000001,"N_COORD97":2541088.29,"ADDRESS":"崇善路７２１號","OBJECTID":534163},"geometry":{"x":171157.60000000056,"y":2541088.2899999991}},{"attributes":{"ID":534191,"DIS_CODE":0,"TOWNNAME":"東區","LI":"崇善里","LIN":"19鄰","STREET":"崇善路","SECT":" ","MAREA":" ","LANE":" ","ALLEY":" ","HOUSE_NO":"７２３號","E_COORD97":171159.76999999999,"N_COORD97":2541083.71,"ADDRESS":"崇善路７２３號","OBJECTID":534164},"geometry":{"x":171159.77000000048,"y":2541083.7100000009}},{"attributes":{"ID":534192,"DIS_CODE":0,"TOWNNAME":"東區","LI":"崇善里","LIN":"19鄰","STREET":"崇善路","SECT":" ","MAREA":" ","LANE":" ","ALLEY":" ","HOUSE_NO":"７２５號","E_COORD97":171160.01999999999,"N_COORD97":2541079.3700000001,"ADDRESS":"崇善路７２５號","OBJECTID":534165},"geometry":{"x":171160.01999999955,"y":2541079.370000001}},{"attributes":{"ID":534193,"DIS_CODE":0,"TOWNNAME":"東區","LI":"崇善里","LIN":"19鄰","STREET":"崇善路","SECT":" ","MAREA":" ","LANE":" ","ALLEY":" ","HOUSE_NO":"７２７號","E_COORD97":171164.12,"N_COORD97":2541071.6499999999,"ADDRESS":"崇善路７２７號","OBJECTID":534166},"geometry":{"x":171164.12000000104,"y":2541071.6500000022}},{"attributes":{"ID":534194,"DIS_CODE":0,"TOWNNAME":"東區","LI":"崇善里","LIN":"19鄰","STREET":"崇善路","SECT":" ","MAREA":" ","LANE":" ","ALLEY":" ","HOUSE_NO":"７２９號","E_COORD97":171161.95000000001,"N_COORD97":2541075.9900000002,"ADDRESS":"崇善路７２９號","OBJECTID":534167},"geometry":{"x":171161.95000000112,"y":2541075.9900000021}},{"attributes":{"ID":534195,"DIS_CODE":0,"TOWNNAME":"新市區","LI":"新和里","LIN":"19鄰","STREET":"永福街","SECT":" ","MAREA":" ","LANE":" ","ALLEY":" ","HOUSE_NO":"１１７號","E_COORD97":177432.95999999999,"N_COORD97":2552731.75,"ADDRESS":"永福街１１７號","OBJECTID":534168},"geometry":{"x":177432.95999999996,"y":2552731.75}},{"attributes":{"ID":534196,"DIS_CODE":0,"TOWNNAME":"新市區","LI":"新和里","LIN":"19鄰","STREET":"永福街","SECT":" ","MAREA":" ","LANE":" ","ALLEY":" ","HOUSE_NO":"１０３號","E_COORD97":177509.12,"N_COORD97":2552724.5,"ADDRESS":"永福街１０３號","OBJECTID":534169},"geometry":{"x":177509.12000000197,"y":2552724.5000000019}},{"attributes":{"ID":534197,"DIS_CODE":0,"TOWNNAME":"永康區","LI":"崑山里","LIN":"19鄰","STREET":"大灣路","SECT":" ","MAREA":" ","LANE":" ","ALLEY":" ","HOUSE_NO":"８１２號","E_COORD97":173984.42999999999,"N_COORD97":2544500.3500000001,"ADDRESS":"大灣路８１２號","OBJECTID":534170},"geometry":{"x":173984.43000000063,"y":2544500.3500000015}},{"attributes":{"ID":534198,"DIS_CODE":0,"TOWNNAME":"永康區","LI":"復國里","LIN":"19鄰","STREET":"復華五街","SECT":" ","MAREA":" ","LANE":" ","ALLEY":" ","HOUSE_NO":"３０號","E_COORD97":172810.79999999999,"N_COORD97":2545712.6600000001,"ADDRESS":"復華五街３０號","OBJECTID":534171},"geometry":{"x":172810.80000000075,"y":2545712.660000002}},{"attributes":{"ID":534199,"DIS_CODE":0,"TOWNNAME":"永康區","LI":"復國里","LIN":"19鄰","STREET":"復華五街","SECT":" ","MAREA":" ","LANE":" ","ALLEY":" ","HOUSE_NO":"３８號","E_COORD97":172795.10999999999,"N_COORD97":2545713.4100000001,"ADDRESS":"復華五街３８號","OBJECTID":534172},"geometry":{"x":172795.1100000022,"y":2545713.4100000039}},{"attributes":{"ID":534200,"DIS_CODE":0,"TOWNNAME":"永康區","LI":"復國里","LIN":"19鄰","STREET":"復華五街","SECT":" ","MAREA":" ","LANE":" ","ALLEY":" ","HOUSE_NO":"２２號","E_COORD97":172832.81,"N_COORD97":2545712.6600000001,"ADDRESS":"復華五街２２號","OBJECTID":534173},"geometry":{"x":172832.80999999959,"y":2545712.660000002}},{"attributes":{"ID":534201,"DIS_CODE":0,"TOWNNAME":"永康區","LI":"復國里","LIN":"19鄰","STREET":"國華街","SECT":" ","MAREA":" ","LANE":" ","ALLEY":" ","HOUSE_NO":"６７號","E_COORD97":172840,"N_COORD97":2545754.1200000001,"ADDRESS":"國華街６７號","OBJECTID":534174},"geometry":{"x":172840.00000000093,"y":2545754.1200000029}},{"attributes":{"ID":534202,"DIS_CODE":0,"TOWNNAME":"永康區","LI":"復國里","LIN":"19鄰","STREET":"復華五街","SECT":" ","MAREA":" ","LANE":" ","ALLEY":" ","HOUSE_NO":"２６號","E_COORD97":172819,"N_COORD97":2545712.6600000001,"ADDRESS":"復華五街２６號","OBJECTID":534175},"geometry":{"x":172818.99999999907,"y":2545712.660000002}},{"attributes":{"ID":534203,"DIS_CODE":0,"TOWNNAME":"永康區","LI":"崑山里","LIN":"19鄰","STREET":"大灣路","SECT":" ","MAREA":" ","LANE":" ","ALLEY":" ","HOUSE_NO":"８６２號","E_COORD97":173809.47,"N_COORD97":2544467.3999999999,"ADDRESS":"大灣路８６２號","OBJECTID":534176},"geometry":{"x":173809.47000000067,"y":2544467.4000000022}},{"attributes":{"ID":534204,"DIS_CODE":0,"TOWNNAME":"永康區","LI":"崑山里","LIN":"19鄰","STREET":"大灣路","SECT":" ","MAREA":" ","LANE":" ","ALLEY":" ","HOUSE_NO":"８０２號","E_COORD97":174003.04000000001,"N_COORD97":2544504.98,"ADDRESS":"大灣路８０２號","OBJECTID":534177},"geometry":{"x":174003.04000000004,"y":2544504.9800000004}},{"attributes":{"ID":534205,"DIS_CODE":0,"TOWNNAME":"永康區","LI":"烏竹里","LIN":"19鄰","STREET":"自強路","SECT":" ","MAREA":" ","LANE":" ","ALLEY":" ","HOUSE_NO":"７３１號","E_COORD97":174403.48000000001,"N_COORD97":2548510.8100000001,"ADDRESS":"自強路７３１號","OBJECTID":534178},"geometry":{"x":174403.48000000138,"y":2548510.8100000005}},{"attributes":{"ID":534206,"DIS_CODE":0,"TOWNNAME":"永康區","LI":"崑山里","LIN":"19鄰","STREET":"大灣路","SECT":" ","MAREA":" ","LANE":" ","ALLEY":" ","HOUSE_NO":"８５０號","E_COORD97":173864.79000000001,"N_COORD97":2544476.5899999999,"ADDRESS":"大灣路８５０號","OBJECTID":534179},"geometry":{"x":173864.7900000019,"y":2544476.5899999999}},{"attributes":{"ID":534207,"DIS_CODE":0,"TOWNNAME":"永康區","LI":"崑山里","LIN":"19鄰","STREET":"大灣路","SECT":" ","MAREA":" ","LANE":" ","ALLEY":" ","HOUSE_NO":"７８８之５號","E_COORD97":174036.13,"N_COORD97":2544510.4900000002,"ADDRESS":"大灣路７８８之５號","OBJECTID":534180},"geometry":{"x":174036.12999999989,"y":2544510.4900000021}},{"attributes":{"ID":534208,"DIS_CODE":0,"TOWNNAME":"白河區","LI":"白河里","LIN":"19鄰","STREET":"中山路","SECT":" ","MAREA":" ","LANE":" ","ALLEY":" ","HOUSE_NO":"１７０號","E_COORD97":190445.06,"N_COORD97":2583437.25,"ADDRESS":"中山路１７０號","OBJECTID":534181},"geometry":{"x":190445.06000000052,"y":2583437.2500000019}},{"attributes":{"ID":534209,"DIS_CODE":0,"TOWNNAME":"白河區","LI":"白河里","LIN":"19鄰","STREET":"中山路","SECT":" ","MAREA":" ","LANE":" ","ALLEY":" ","HOUSE_NO":"１７２之１號","E_COORD97":190467.64999999999,"N_COORD97":2583447,"ADDRESS":"中山路１７２之１號","OBJECTID":534182},"geometry":{"x":190467.6500000013,"y":2583447}},{"attributes":{"ID":534210,"DIS_CODE":0,"TOWNNAME":"白河區","LI":"白河里","LIN":"19鄰","STREET":"中山路","SECT":" ","MAREA":" ","LANE":" ","ALLEY":" ","HOUSE_NO":"１７２之２號","E_COORD97":190463.13,"N_COORD97":2583445.0499999998,"ADDRESS":"中山路１７２之２號","OBJECTID":534183},"geometry":{"x":190463.12999999989,"y":2583445.0500000026}},{"attributes":{"ID":534211,"DIS_CODE":0,"TOWNNAME":"白河區","LI":"白河里","LIN":"19鄰","STREET":"中山路","SECT":" ","MAREA":" ","LANE":" ","ALLEY":" ","HOUSE_NO":"１７２之３號","E_COORD97":190458.60999999999,"N_COORD97":2583443.1000000001,"ADDRESS":"中山路１７２之３號","OBJECTID":534184},"geometry":{"x":190458.61000000034,"y":2583443.1000000034}},{"attributes":{"ID":534212,"DIS_CODE":0,"TOWNNAME":"白河區","LI":"白河里","LIN":"19鄰","STREET":"中山路","SECT":" ","MAREA":" ","LANE":" ","ALLEY":" ","HOUSE_NO":"１７２之４號","E_COORD97":190454.09,"N_COORD97":2583441.1499999999,"ADDRESS":"中山路１７２之４號","OBJECTID":534185},"geometry":{"x":190454.09000000078,"y":2583441.1500000022}},{"attributes":{"ID":534213,"DIS_CODE":0,"TOWNNAME":"白河區","LI":"白河里","LIN":"19鄰","STREET":"中山路","SECT":" ","MAREA":" ","LANE":" ","ALLEY":" ","HOUSE_NO":"１７２號","E_COORD97":190449.57999999999,"N_COORD97":2583439.2000000002,"ADDRESS":"中山路１７２號","OBJECTID":534186},"geometry":{"x":190449.58000000007,"y":2583439.2000000011}},{"attributes":{"ID":534214,"DIS_CODE":0,"TOWNNAME":"白河區","LI":"白河里","LIN":"19鄰","STREET":"中山路","SECT":" ","MAREA":" ","LANE":" ","ALLEY":" ","HOUSE_NO":"１９２號","E_COORD97":190480.14999999999,"N_COORD97":2583474.9900000002,"ADDRESS":"中山路１９２號","OBJECTID":534187},"geometry":{"x":190480.15000000037,"y":2583474.9900000039}},{"attributes":{"ID":534215,"DIS_CODE":0,"TOWNNAME":"白河區","LI":"白河里","LIN":"19鄰","STREET":"中山路","SECT":" ","MAREA":" ","LANE":" ","ALLEY":" ","HOUSE_NO":"１９４號","E_COORD97":190475.48000000001,"N_COORD97":2583475.5499999998,"ADDRESS":"中山路１９４號","OBJECTID":534188},"geometry":{"x":190475.48000000138,"y":2583475.5500000026}},{"attributes":{"ID":534216,"DIS_CODE":0,"TOWNNAME":"白河區","LI":"白河里","LIN":"19鄰","STREET":"中山路","SECT":" ","MAREA":" ","LANE":" ","ALLEY":" ","HOUSE_NO":"１９６號","E_COORD97":190470.82000000001,"N_COORD97":2583476.1000000001,"ADDRESS":"中山路１９６號","OBJECTID":534189},"geometry":{"x":190470.8200000003,"y":2583476.0999999996}},{"attributes":{"ID":534217,"DIS_CODE":0,"TOWNNAME":"白河區","LI":"白河里","LIN":"19鄰","STREET":"中山路","SECT":" ","MAREA":" ","LANE":" ","ALLEY":" ","HOUSE_NO":"１９８號","E_COORD97":190467.26999999999,"N_COORD97":2583485.6600000001,"ADDRESS":"中山路１９８號","OBJECTID":534190},"geometry":{"x":190467.27000000142,"y":2583485.6600000001}},{"attributes":{"ID":534218,"DIS_CODE":0,"TOWNNAME":"白河區","LI":"白河里","LIN":"19鄰","STREET":"中山路","SECT":" ","MAREA":" ","LANE":" ","ALLEY":" ","HOUSE_NO":"２００號","E_COORD97":190472.03,"N_COORD97":2583492.5499999998,"ADDRESS":"中山路２００號","OBJECTID":534191},"geometry":{"x":190472.03000000119,"y":2583492.5500000026}},{"attributes":{"ID":534219,"DIS_CODE":0,"TOWNNAME":"白河區","LI":"白河里","LIN":"19鄰","STREET":"中山路","SECT":" ","MAREA":" ","LANE":" ","ALLEY":" ","HOUSE_NO":"２０２號","E_COORD97":190474.51000000001,"N_COORD97":2583496.4700000002,"ADDRESS":"中山路２０２號","OBJECTID":534192},"geometry":{"x":190474.51000000071,"y":2583496.4700000025}},{"attributes":{"ID":534220,"DIS_CODE":0,"TOWNNAME":"白河區","LI":"白河里","LIN":"19鄰","STREET":"中山路","SECT":" ","MAREA":" ","LANE":" ","ALLEY":" ","HOUSE_NO":"２０４號","E_COORD97":190479.14999999999,"N_COORD97":2583502.0699999998,"ADDRESS":"中山路２０４號","OBJECTID":534193},"geometry":{"x":190479.1500000013,"y":2583502.0700000022}},{"attributes":{"ID":534221,"DIS_CODE":0,"TOWNNAME":"白河區","LI":"白河里","LIN":"19鄰","STREET":"中山路","SECT":" ","MAREA":" ","LANE":" ","ALLEY":" ","HOUSE_NO":"２１２號","E_COORD97":190490.39999999999,"N_COORD97":2583518.3199999998,"ADDRESS":"中山路２１２號","OBJECTID":534194},"geometry":{"x":190490.40000000037,"y":2583518.3200000022}},{"attributes":{"ID":534222,"DIS_CODE":0,"TOWNNAME":"白河區","LI":"白河里","LIN":"19鄰","STREET":"中山路","SECT":" ","MAREA":" ","LANE":" ","ALLEY":" ","HOUSE_NO":"２１６號","E_COORD97":190495.29000000001,"N_COORD97":2583525.3500000001,"ADDRESS":"中山路２１６號","OBJECTID":534195},"geometry":{"x":190495.29000000097,"y":2583525.3499999996}},{"attributes":{"ID":534223,"DIS_CODE":0,"TOWNNAME":"白河區","LI":"白河里","LIN":"19鄰","STREET":"中山路","SECT":" ","MAREA":" ","LANE":" ","ALLEY":" ","HOUSE_NO":"２１８號","E_COORD97":190497.57000000001,"N_COORD97":2583529.02,"ADDRESS":"中山路２１８號","OBJECTID":534196},"geometry":{"x":190497.5700000003,"y":2583529.0200000014}},{"attributes":{"ID":534224,"DIS_CODE":0,"TOWNNAME":"白河區","LI":"白河里","LIN":"19鄰","STREET":"中山路","SECT":" ","MAREA":" ","LANE":" ","ALLEY":" ","HOUSE_NO":"２２０號","E_COORD97":190500.23000000001,"N_COORD97":2583532.9399999999,"ADDRESS":"中山路２２０號","OBJECTID":534197},"geometry":{"x":190500.23000000045,"y":2583532.9400000013}},{"attributes":{"ID":534225,"DIS_CODE":0,"TOWNNAME":"白河區","LI":"白河里","LIN":"19鄰","STREET":"中山路","SECT":" ","MAREA":" ","LANE":" ","ALLEY":" ","HOUSE_NO":"２２２號","E_COORD97":190503.25,"N_COORD97":2583536.8500000001,"ADDRESS":"中山路２２２號","OBJECTID":534198},"geometry":{"x":190503.24999999907,"y":2583536.8500000015}},{"attributes":{"ID":534226,"DIS_CODE":0,"TOWNNAME":"白河區","LI":"白河里","LIN":"19鄰","STREET":"中山路","SECT":" ","MAREA":" ","LANE":" ","ALLEY":" ","HOUSE_NO":"２２４號","E_COORD97":190505.51000000001,"N_COORD97":2583540.1800000002,"ADDRESS":"中山路２２４號","OBJECTID":534199},"geometry":{"x":190505.51000000071,"y":2583540.1799999997}},{"attributes":{"ID":534227,"DIS_CODE":0,"TOWNNAME":"白河區","LI":"白河里","LIN":"19鄰","STREET":"中山路","SECT":" ","MAREA":" ","LANE":" ","ALLEY":" ","HOUSE_NO":"２２６號","E_COORD97":190507.48000000001,"N_COORD97":2583543.1600000001,"ADDRESS":"中山路２２６號","OBJECTID":534200},"geometry":{"x":190507.48000000231,"y":2583543.160000002}}]}