{"displayFieldName":"TOWNNAME","fieldAliases":{"ID":"ID","DIS_CODE":"DIS_CODE","TOWNNAME":"TOWNNAME","LI":"LI","LIN":"LIN","STREET":"STREET","SECT":"SECT","MAREA":"MAREA","LANE":"LANE","ALLEY":"ALLEY","HOUSE_NO":"HOUSE_NO","E_COORD97":"E_COORD97","N_COORD97":"N_COORD97","ADDRESS":"ADDRESS","OBJECTID":"OBJECTID"},"geometryType":"esriGeometryPoint","spatialReference":{"wkid":102443,"latestWkid":3826},"fields":[{"name":"ID","type":"esriFieldTypeDouble","alias":"ID"},{"name":"DIS_CODE","type":"esriFieldTypeInteger","alias":"DIS_CODE"},{"name":"TOWNNAME","type":"esriFieldTypeString","alias":"TOWNNAME","length":8},{"name":"LI","type":"esriFieldTypeString","alias":"LI","length":8},{"name":"LIN","type":"esriFieldTypeString","alias":"LIN","length":12},{"name":"STREET","type":"esriFieldTypeString","alias":"STREET","length":20},{"name":"SECT","type":"esriFieldTypeString","alias":"SECT","length":8},{"name":"MAREA","type":"esriFieldTypeString","alias":"MAREA","length":12},{"name":"LANE","type":"esriFieldTypeString","alias":"LANE","length":10},{"name":"ALLEY","type":"esriFieldTypeString","alias":"ALLEY","length":10},{"name":"HOUSE_NO","type":"esriFieldTypeString","alias":"HOUSE_NO","length":20},{"name":"E_COORD97","type":"esriFieldTypeDouble","alias":"E_COORD97"},{"name":"N_COORD97","type":"esriFieldTypeDouble","alias":"N_COORD97"},{"name":"ADDRESS","type":"esriFieldTypeString","alias":"ADDRESS","length":50},{"name":"OBJECTID","type":"esriFieldTypeOID","alias":"OBJECTID"}],"features":[{"attributes":{"ID":63001,"DIS_CODE":0,"TOWNNAME":"山上區","LI":"新莊里","LIN":"1鄰","STREET":" ","SECT":" ","MAREA":"新庄","LANE":" ","ALLEY":" ","HOUSE_NO":"５號","E_COORD97":184921.70999999999,"N_COORD97":2555185.25,"ADDRESS":"新庄５號","OBJECTID":63001},"geometry":{"x":184921.71000000089,"y":2555185.2500000019}},{"attributes":{"ID":63002,"DIS_CODE":0,"TOWNNAME":"山上區","LI":"玉\u25A0里","LIN":"1鄰","STREET":" ","SECT":" ","MAREA":"蚵\u25A0潭","LANE":" ","ALLEY":" ","HOUSE_NO":"１之１２號","E_COORD97":187262.62,"N_COORD97":2555605.2999999998,"ADDRESS":"蚵\u25A0潭１之１２號","OBJECTID":63002},"geometry":{"x":187262.62000000011,"y":2555605.3000000026}},{"attributes":{"ID":63003,"DIS_CODE":0,"TOWNNAME":"山上區","LI":"玉\u25A0里","LIN":"1鄰","STREET":" ","SECT":" ","MAREA":"蚵\u25A0潭","LANE":" ","ALLEY":" ","HOUSE_NO":"１０號","E_COORD97":187313.32000000001,"N_COORD97":2555601.25,"ADDRESS":"蚵\u25A0潭１０號","OBJECTID":63003},"geometry":{"x":187313.32000000123,"y":2555601.2500000019}},{"attributes":{"ID":63004,"DIS_CODE":0,"TOWNNAME":"山上區","LI":"山上里","LIN":"1鄰","STREET":" ","SECT":" ","MAREA":"山上","LANE":" ","ALLEY":" ","HOUSE_NO":"４０之１號","E_COORD97":184043.35999999999,"N_COORD97":2555414.2999999998,"ADDRESS":"山上４０之１號","OBJECTID":63004},"geometry":{"x":184043.36000000127,"y":2555414.3000000007}},{"attributes":{"ID":63005,"DIS_CODE":0,"TOWNNAME":"山上區","LI":"山上里","LIN":"1鄰","STREET":" ","SECT":" ","MAREA":"山上","LANE":" ","ALLEY":" ","HOUSE_NO":"４０之５號","E_COORD97":184045.06,"N_COORD97":2555394.2999999998,"ADDRESS":"山上４０之５號","OBJECTID":63005},"geometry":{"x":184045.05999999959,"y":2555394.3000000045}},{"attributes":{"ID":63006,"DIS_CODE":0,"TOWNNAME":"山上區","LI":"玉\u25A0里","LIN":"1鄰","STREET":" ","SECT":" ","MAREA":"蚵\u25A0潭","LANE":" ","ALLEY":" ","HOUSE_NO":"１之５號","E_COORD97":187180.07000000001,"N_COORD97":2555432.2999999998,"ADDRESS":"蚵\u25A0潭１之５號","OBJECTID":63006},"geometry":{"x":187180.0700000003,"y":2555432.3000000026}},{"attributes":{"ID":63007,"DIS_CODE":0,"TOWNNAME":"山上區","LI":"明和里","LIN":"1鄰","STREET":" ","SECT":" ","MAREA":"明和","LANE":" ","ALLEY":" ","HOUSE_NO":"８３號之２","E_COORD97":183113.35999999999,"N_COORD97":2556154.2999999998,"ADDRESS":"明和８３號之２","OBJECTID":63007},"geometry":{"x":183113.36000000034,"y":2556154.3000000026}},{"attributes":{"ID":63008,"DIS_CODE":0,"TOWNNAME":"山上區","LI":"明和里","LIN":"1鄰","STREET":" ","SECT":" ","MAREA":"明和","LANE":" ","ALLEY":" ","HOUSE_NO":"７６之３號","E_COORD97":182736.98999999999,"N_COORD97":2556042.2999999998,"ADDRESS":"明和７６之３號","OBJECTID":63008},"geometry":{"x":182736.99000000115,"y":2556042.3000000026}},{"attributes":{"ID":63009,"DIS_CODE":0,"TOWNNAME":"山上區","LI":"明和里","LIN":"1鄰","STREET":" ","SECT":" ","MAREA":"明和","LANE":" ","ALLEY":" ","HOUSE_NO":"８１號之３","E_COORD97":182931.72,"N_COORD97":2556075.2999999998,"ADDRESS":"明和８１號之３","OBJECTID":63009},"geometry":{"x":182931.71999999974,"y":2556075.3000000007}},{"attributes":{"ID":63010,"DIS_CODE":0,"TOWNNAME":"山上區","LI":"明和里","LIN":"1鄰","STREET":" ","SECT":" ","MAREA":"明和","LANE":" ","ALLEY":" ","HOUSE_NO":"７９號","E_COORD97":182977.59,"N_COORD97":2556147.25,"ADDRESS":"明和７９號","OBJECTID":63010},"geometry":{"x":182977.59000000171,"y":2556147.2500000019}},{"attributes":{"ID":63011,"DIS_CODE":0,"TOWNNAME":"山上區","LI":"明和里","LIN":"1鄰","STREET":" ","SECT":" ","MAREA":"明和","LANE":" ","ALLEY":" ","HOUSE_NO":"８３號之７","E_COORD97":183088.10000000001,"N_COORD97":2556148.2999999998,"ADDRESS":"明和８３號之７","OBJECTID":63011},"geometry":{"x":183088.10000000056,"y":2556148.3000000026}},{"attributes":{"ID":63012,"DIS_CODE":0,"TOWNNAME":"山上區","LI":"明和里","LIN":"1鄰","STREET":" ","SECT":" ","MAREA":"明和","LANE":" ","ALLEY":" ","HOUSE_NO":"８２號之４","E_COORD97":183110.14999999999,"N_COORD97":2556085.2999999998,"ADDRESS":"明和８２號之４","OBJECTID":63012},"geometry":{"x":183110.1500000013,"y":2556085.3000000007}},{"attributes":{"ID":63013,"DIS_CODE":0,"TOWNNAME":"山上區","LI":"明和里","LIN":"1鄰","STREET":" ","SECT":" ","MAREA":"明和","LANE":" ","ALLEY":" ","HOUSE_NO":"８２號之９","E_COORD97":183085.10999999999,"N_COORD97":2556080.2999999998,"ADDRESS":"明和８２號之９","OBJECTID":63013},"geometry":{"x":183085.11000000127,"y":2556080.3000000026}},{"attributes":{"ID":63014,"DIS_CODE":0,"TOWNNAME":"山上區","LI":"明和里","LIN":"1鄰","STREET":" ","SECT":" ","MAREA":"明和","LANE":" ","ALLEY":" ","HOUSE_NO":"８５號","E_COORD97":183073.19,"N_COORD97":2556180.25,"ADDRESS":"明和８５號","OBJECTID":63014},"geometry":{"x":183073.19000000134,"y":2556180.2499999981}},{"attributes":{"ID":63015,"DIS_CODE":0,"TOWNNAME":"山上區","LI":"明和里","LIN":"1鄰","STREET":" ","SECT":" ","MAREA":"明和","LANE":" ","ALLEY":" ","HOUSE_NO":"７９之２號","E_COORD97":182948.79000000001,"N_COORD97":2556141.2999999998,"ADDRESS":"明和７９之２號","OBJECTID":63015},"geometry":{"x":182948.79000000004,"y":2556141.3000000026}},{"attributes":{"ID":63016,"DIS_CODE":0,"TOWNNAME":"山上區","LI":"明和里","LIN":"1鄰","STREET":" ","SECT":" ","MAREA":"明和","LANE":" ","ALLEY":" ","HOUSE_NO":"８４號之３","E_COORD97":183117.12,"N_COORD97":2556171.2999999998,"ADDRESS":"明和８４號之３","OBJECTID":63016},"geometry":{"x":183117.12000000104,"y":2556171.3000000026}},{"attributes":{"ID":63017,"DIS_CODE":0,"TOWNNAME":"山上區","LI":"豐德里","LIN":"1鄰","STREET":" ","SECT":" ","MAREA":"隙子口","LANE":" ","ALLEY":" ","HOUSE_NO":"２之３８號","E_COORD97":185304.76000000001,"N_COORD97":2553112.2999999998,"ADDRESS":"隙子口２之３８號","OBJECTID":63017},"geometry":{"x":185304.75999999978,"y":2553112.3000000007}},{"attributes":{"ID":63018,"DIS_CODE":0,"TOWNNAME":"麻豆區","LI":"大埕里","LIN":"8鄰","STREET":" ","SECT":" ","MAREA":"大埕","LANE":" ","ALLEY":" ","HOUSE_NO":"２１號之２６","E_COORD97":173190.13,"N_COORD97":2565186.6299999999,"ADDRESS":"大埕２１號之２６","OBJECTID":63018},"geometry":{"x":173190.13000000082,"y":2565186.6300000008}},{"attributes":{"ID":63019,"DIS_CODE":0,"TOWNNAME":"麻豆區","LI":"大埕里","LIN":"8鄰","STREET":" ","SECT":" ","MAREA":"大埕","LANE":" ","ALLEY":" ","HOUSE_NO":"２１號之２７","E_COORD97":173142.07999999999,"N_COORD97":2565160.7799999998,"ADDRESS":"大埕２１號之２７","OBJECTID":63019},"geometry":{"x":173142.08000000007,"y":2565160.7800000031}},{"attributes":{"ID":63020,"DIS_CODE":0,"TOWNNAME":"麻豆區","LI":"大埕里","LIN":"8鄰","STREET":" ","SECT":" ","MAREA":"大埕","LANE":" ","ALLEY":" ","HOUSE_NO":"２１號之２８","E_COORD97":173143.79999999999,"N_COORD97":2565164.2799999998,"ADDRESS":"大埕２１號之２８","OBJECTID":63020},"geometry":{"x":173143.79999999981,"y":2565164.2800000031}},{"attributes":{"ID":63021,"DIS_CODE":0,"TOWNNAME":"麻豆區","LI":"大埕里","LIN":"8鄰","STREET":" ","SECT":" ","MAREA":"大埕","LANE":" ","ALLEY":" ","HOUSE_NO":"２１號之２９","E_COORD97":173145.23000000001,"N_COORD97":2565168.29,"ADDRESS":"大埕２１號之２９","OBJECTID":63021},"geometry":{"x":173145.23000000231,"y":2565168.290000001}},{"attributes":{"ID":63022,"DIS_CODE":0,"TOWNNAME":"山上區","LI":"新莊里","LIN":"1鄰","STREET":" ","SECT":" ","MAREA":"新庄","LANE":" ","ALLEY":" ","HOUSE_NO":"１號之１２","E_COORD97":184701.21274700001,"N_COORD97":2554958.35115,"ADDRESS":"新庄１號之１２","OBJECTID":63022},"geometry":{"x":184701.21274700202,"y":2554958.3511510007}},{"attributes":{"ID":63023,"DIS_CODE":0,"TOWNNAME":"山上區","LI":"山上里","LIN":"1鄰","STREET":" ","SECT":" ","MAREA":"山上","LANE":" ","ALLEY":" ","HOUSE_NO":"４６號","E_COORD97":184276.76000000001,"N_COORD97":2555472.25,"ADDRESS":"山上４６號","OBJECTID":63023},"geometry":{"x":184276.76000000071,"y":2555472.2500000019}},{"attributes":{"ID":63024,"DIS_CODE":0,"TOWNNAME":"山上區","LI":"南洲里","LIN":"1鄰","STREET":" ","SECT":" ","MAREA":"南洲","LANE":" ","ALLEY":" ","HOUSE_NO":"８４號","E_COORD97":183927.59,"N_COORD97":2555762.25,"ADDRESS":"南洲８４號","OBJECTID":63024},"geometry":{"x":183927.59000000078,"y":2555762.25}},{"attributes":{"ID":63025,"DIS_CODE":0,"TOWNNAME":"山上區","LI":"明和里","LIN":"1鄰","STREET":" ","SECT":" ","MAREA":"明和","LANE":" ","ALLEY":" ","HOUSE_NO":"８３之６號","E_COORD97":183095.59,"N_COORD97":2556150.2999999998,"ADDRESS":"明和８３之６號","OBJECTID":63025},"geometry":{"x":183095.58999999985,"y":2556150.3000000045}},{"attributes":{"ID":63026,"DIS_CODE":0,"TOWNNAME":"山上區","LI":"豐德里","LIN":"1鄰","STREET":" ","SECT":" ","MAREA":"隙子口","LANE":" ","ALLEY":" ","HOUSE_NO":"４號之２","E_COORD97":185223.74602600001,"N_COORD97":2553118.2025199998,"ADDRESS":"隙子口４號之２","OBJECTID":63026},"geometry":{"x":185223.74602600001,"y":2553118.2025230005}},{"attributes":{"ID":63027,"DIS_CODE":0,"TOWNNAME":"山上區","LI":"豐德里","LIN":"1鄰","STREET":" ","SECT":" ","MAREA":"隙子口","LANE":" ","ALLEY":" ","HOUSE_NO":"１號之２","E_COORD97":185285.67999999999,"N_COORD97":2553201.2999999998,"ADDRESS":"隙子口１號之２","OBJECTID":63027},"geometry":{"x":185285.68000000156,"y":2553201.3000000026}},{"attributes":{"ID":63028,"DIS_CODE":0,"TOWNNAME":"永康區","LI":"埔園里","LIN":"31鄰","STREET":"八德街","SECT":" ","MAREA":" ","LANE":"１４０巷","ALLEY":"１弄","HOUSE_NO":"６號","E_COORD97":173979.85999999999,"N_COORD97":2548582.3300000001,"ADDRESS":"八德街１４０巷１弄６號","OBJECTID":63028},"geometry":{"x":173979.8599999994,"y":2548582.3300000038}},{"attributes":{"ID":63029,"DIS_CODE":0,"TOWNNAME":"永康區","LI":"埔園里","LIN":"31鄰","STREET":"八德街","SECT":" ","MAREA":" ","LANE":"１４０巷","ALLEY":"１弄","HOUSE_NO":"７號","E_COORD97":173967.09,"N_COORD97":2548576.2799999998,"ADDRESS":"八德街１４０巷１弄７號","OBJECTID":63029},"geometry":{"x":173967.08999999985,"y":2548576.2800000012}},{"attributes":{"ID":63030,"DIS_CODE":0,"TOWNNAME":"永康區","LI":"埔園里","LIN":"31鄰","STREET":"八德街","SECT":" ","MAREA":" ","LANE":"１４０巷","ALLEY":"１弄","HOUSE_NO":"８號","E_COORD97":173974.07999999999,"N_COORD97":2548583.71,"ADDRESS":"八德街１４０巷１弄８號","OBJECTID":63030},"geometry":{"x":173974.08000000007,"y":2548583.7100000046}},{"attributes":{"ID":63031,"DIS_CODE":0,"TOWNNAME":"永康區","LI":"埔園里","LIN":"31鄰","STREET":"八德街","SECT":" ","MAREA":" ","LANE":"１４０巷","ALLEY":"１弄","HOUSE_NO":"９號","E_COORD97":173960.64999999999,"N_COORD97":2548576.7000000002,"ADDRESS":"八德街１４０巷１弄９號","OBJECTID":63031},"geometry":{"x":173960.65000000037,"y":2548576.7000000011}},{"attributes":{"ID":63032,"DIS_CODE":0,"TOWNNAME":"永康區","LI":"埔園里","LIN":"31鄰","STREET":"八德街","SECT":" ","MAREA":" ","LANE":"１４０巷","ALLEY":"３弄","HOUSE_NO":"１０號","E_COORD97":173971.5,"N_COORD97":2548605.0600000001,"ADDRESS":"八德街１４０巷３弄１０號","OBJECTID":63032},"geometry":{"x":173971.5,"y":2548605.0600000042}},{"attributes":{"ID":63033,"DIS_CODE":0,"TOWNNAME":"永康區","LI":"埔園里","LIN":"31鄰","STREET":"八德街","SECT":" ","MAREA":" ","LANE":"１４０巷","ALLEY":"３弄","HOUSE_NO":"１１號","E_COORD97":173958.97,"N_COORD97":2548594.0800000001,"ADDRESS":"八德街１４０巷３弄１１號","OBJECTID":63033},"geometry":{"x":173958.97000000067,"y":2548594.0800000038}},{"attributes":{"ID":63034,"DIS_CODE":0,"TOWNNAME":"永康區","LI":"埔園里","LIN":"31鄰","STREET":"八德街","SECT":" ","MAREA":" ","LANE":"１４０巷","ALLEY":"３弄","HOUSE_NO":"１２號","E_COORD97":173965.87,"N_COORD97":2548605.9399999999,"ADDRESS":"八德街１４０巷３弄１２號","OBJECTID":63034},"geometry":{"x":173965.87000000011,"y":2548605.9400000013}},{"attributes":{"ID":63035,"DIS_CODE":0,"TOWNNAME":"永康區","LI":"埔園里","LIN":"31鄰","STREET":"八德街","SECT":" ","MAREA":" ","LANE":"１４０巷","ALLEY":"３弄","HOUSE_NO":"１６號","E_COORD97":173959.56,"N_COORD97":2548606.9900000002,"ADDRESS":"八德街１４０巷３弄１６號","OBJECTID":63035},"geometry":{"x":173959.56000000052,"y":2548606.9900000002}},{"attributes":{"ID":63036,"DIS_CODE":0,"TOWNNAME":"永康區","LI":"埔園里","LIN":"31鄰","STREET":"八德街","SECT":" ","MAREA":" ","LANE":"１４０巷","ALLEY":"３弄","HOUSE_NO":"１號","E_COORD97":173987.91,"N_COORD97":2548590.6899999999,"ADDRESS":"八德街１４０巷３弄１號","OBJECTID":63036},"geometry":{"x":173987.91000000201,"y":2548590.6900000013}},{"attributes":{"ID":63037,"DIS_CODE":0,"TOWNNAME":"北區","LI":"裕民里","LIN":"8鄰","STREET":"金華路","SECT":"五段","MAREA":" ","LANE":" ","ALLEY":" ","HOUSE_NO":"５號","E_COORD97":167591.29000000001,"N_COORD97":2544709.5699999998,"ADDRESS":"金華路五段５號","OBJECTID":63037},"geometry":{"x":167591.29000000097,"y":2544709.5700000022}},{"attributes":{"ID":63038,"DIS_CODE":0,"TOWNNAME":"北區","LI":"裕民里","LIN":"8鄰","STREET":"金華路","SECT":"五段","MAREA":" ","LANE":" ","ALLEY":" ","HOUSE_NO":"７號","E_COORD97":167594.07000000001,"N_COORD97":2544720.27,"ADDRESS":"金華路五段７號","OBJECTID":63038},"geometry":{"x":167594.0700000003,"y":2544720.2700000033}},{"attributes":{"ID":63039,"DIS_CODE":0,"TOWNNAME":"北區","LI":"裕民里","LIN":"8鄰","STREET":"金華路","SECT":"五段","MAREA":" ","LANE":" ","ALLEY":" ","HOUSE_NO":"９號","E_COORD97":167595.85000000001,"N_COORD97":2544726.3399999999,"ADDRESS":"金華路五段９號","OBJECTID":63039},"geometry":{"x":167595.85000000056,"y":2544726.3399999999}},{"attributes":{"ID":63040,"DIS_CODE":0,"TOWNNAME":"北區","LI":"裕民里","LIN":"8鄰","STREET":"臨安路","SECT":"二段","MAREA":" ","LANE":" ","ALLEY":" ","HOUSE_NO":"１８號","E_COORD97":167550.60999999999,"N_COORD97":2544755.52,"ADDRESS":"臨安路二段１８號","OBJECTID":63040},"geometry":{"x":167550.61000000127,"y":2544755.5199999996}},{"attributes":{"ID":63041,"DIS_CODE":0,"TOWNNAME":"北區","LI":"裕民里","LIN":"8鄰","STREET":"臨安路","SECT":"二段","MAREA":" ","LANE":" ","ALLEY":" ","HOUSE_NO":"２０號","E_COORD97":167554.54999999999,"N_COORD97":2544755.52,"ADDRESS":"臨安路二段２０號","OBJECTID":63041},"geometry":{"x":167554.54999999981,"y":2544755.5199999996}},{"attributes":{"ID":63042,"DIS_CODE":0,"TOWNNAME":"北區","LI":"裕民里","LIN":"8鄰","STREET":"臨安路","SECT":"二段","MAREA":" ","LANE":" ","ALLEY":" ","HOUSE_NO":"２２號","E_COORD97":167558.23999999999,"N_COORD97":2544757.7799999998,"ADDRESS":"臨安路二段２２號","OBJECTID":63042},"geometry":{"x":167558.24000000115,"y":2544757.7800000012}},{"attributes":{"ID":63043,"DIS_CODE":0,"TOWNNAME":"北區","LI":"裕民里","LIN":"8鄰","STREET":"臨安路","SECT":"二段","MAREA":" ","LANE":" ","ALLEY":" ","HOUSE_NO":"２４號","E_COORD97":167564.56,"N_COORD97":2544759.4500000002,"ADDRESS":"臨安路二段２４號","OBJECTID":63043},"geometry":{"x":167564.55999999959,"y":2544759.450000003}},{"attributes":{"ID":63044,"DIS_CODE":0,"TOWNNAME":"北區","LI":"裕民里","LIN":"8鄰","STREET":"臨安路","SECT":"二段","MAREA":" ","LANE":" ","ALLEY":" ","HOUSE_NO":"２６號","E_COORD97":167569.92000000001,"N_COORD97":2544761.71,"ADDRESS":"臨安路二段２６號","OBJECTID":63044},"geometry":{"x":167569.92000000086,"y":2544761.7100000009}},{"attributes":{"ID":63045,"DIS_CODE":0,"TOWNNAME":"北區","LI":"裕民里","LIN":"8鄰","STREET":"臨安路","SECT":"二段","MAREA":" ","LANE":" ","ALLEY":" ","HOUSE_NO":"２８號","E_COORD97":167573.48999999999,"N_COORD97":2544763.8500000001,"ADDRESS":"臨安路二段２８號","OBJECTID":63045},"geometry":{"x":167573.49000000115,"y":2544763.8500000034}},{"attributes":{"ID":63046,"DIS_CODE":0,"TOWNNAME":"永康區","LI":"埔園里","LIN":"31鄰","STREET":"八德街","SECT":" ","MAREA":" ","LANE":"１４０巷","ALLEY":"３弄","HOUSE_NO":"２號","E_COORD97":173988.76000000001,"N_COORD97":2548602.29,"ADDRESS":"八德街１４０巷３弄２號","OBJECTID":63046},"geometry":{"x":173988.76000000071,"y":2548602.290000001}},{"attributes":{"ID":63047,"DIS_CODE":0,"TOWNNAME":"永康區","LI":"埔園里","LIN":"31鄰","STREET":"八德街","SECT":" ","MAREA":" ","LANE":"１４０巷","ALLEY":"３弄","HOUSE_NO":"３號","E_COORD97":173982.37,"N_COORD97":2548591.3199999998,"ADDRESS":"八德街１４０巷３弄３號","OBJECTID":63047},"geometry":{"x":173982.37000000011,"y":2548591.3200000003}},{"attributes":{"ID":63048,"DIS_CODE":0,"TOWNNAME":"永康區","LI":"埔園里","LIN":"31鄰","STREET":"八德街","SECT":" ","MAREA":" ","LANE":"１４０巷","ALLEY":"３弄","HOUSE_NO":"５號","E_COORD97":173976.07999999999,"N_COORD97":2548592.2000000002,"ADDRESS":"八德街１４０巷３弄５號","OBJECTID":63048},"geometry":{"x":173976.08000000007,"y":2548592.200000003}},{"attributes":{"ID":63049,"DIS_CODE":0,"TOWNNAME":"永康區","LI":"埔園里","LIN":"31鄰","STREET":"八德街","SECT":" ","MAREA":" ","LANE":"１４０巷","ALLEY":"３弄","HOUSE_NO":"６號","E_COORD97":173982.56,"N_COORD97":2548603.6499999999,"ADDRESS":"八德街１４０巷３弄６號","OBJECTID":63049},"geometry":{"x":173982.55999999959,"y":2548603.6500000004}},{"attributes":{"ID":63050,"DIS_CODE":0,"TOWNNAME":"永康區","LI":"埔園里","LIN":"31鄰","STREET":"八德街","SECT":" ","MAREA":" ","LANE":"１４０巷","ALLEY":"３弄","HOUSE_NO":"７號","E_COORD97":173970.29999999999,"N_COORD97":2548592.7000000002,"ADDRESS":"八德街１４０巷３弄７號","OBJECTID":63050},"geometry":{"x":173970.30000000075,"y":2548592.7000000011}},{"attributes":{"ID":63051,"DIS_CODE":0,"TOWNNAME":"永康區","LI":"埔園里","LIN":"31鄰","STREET":"八德街","SECT":" ","MAREA":" ","LANE":"１４０巷","ALLEY":"３弄","HOUSE_NO":"８號","E_COORD97":173976.39999999999,"N_COORD97":2548604.71,"ADDRESS":"八德街１４０巷３弄８號","OBJECTID":63051},"geometry":{"x":173976.40000000224,"y":2548604.7100000028}},{"attributes":{"ID":63052,"DIS_CODE":0,"TOWNNAME":"永康區","LI":"埔園里","LIN":"31鄰","STREET":"八德街","SECT":" ","MAREA":" ","LANE":"１４０巷","ALLEY":"３弄","HOUSE_NO":"９號","E_COORD97":173963.88,"N_COORD97":2548593.5800000001,"ADDRESS":"八德街１４０巷３弄９號","OBJECTID":63052},"geometry":{"x":173963.87999999989,"y":2548593.5800000001}},{"attributes":{"ID":63053,"DIS_CODE":0,"TOWNNAME":"麻豆區","LI":"大埕里","LIN":"8鄰","STREET":" ","SECT":" ","MAREA":"大埕","LANE":" ","ALLEY":" ","HOUSE_NO":"２１號之３０","E_COORD97":173147.26000000001,"N_COORD97":2565171.8900000001,"ADDRESS":"大埕２１號之３０","OBJECTID":63053},"geometry":{"x":173147.25999999978,"y":2565171.8900000025}},{"attributes":{"ID":63054,"DIS_CODE":0,"TOWNNAME":"麻豆區","LI":"大埕里","LIN":"8鄰","STREET":" ","SECT":" ","MAREA":"大埕","LANE":" ","ALLEY":" ","HOUSE_NO":"２１號之３１","E_COORD97":173149.20000000001,"N_COORD97":2565175.3999999999,"ADDRESS":"大埕２１號之３１","OBJECTID":63054},"geometry":{"x":173149.20000000112,"y":2565175.4000000022}},{"attributes":{"ID":63055,"DIS_CODE":0,"TOWNNAME":"永康區","LI":"埔園里","LIN":"31鄰","STREET":"八德街","SECT":" ","MAREA":" ","LANE":"１４０巷","ALLEY":"５弄","HOUSE_NO":"１１號","E_COORD97":173960.72,"N_COORD97":2548615.8799999999,"ADDRESS":"八德街１４０巷５弄１１號","OBJECTID":63055},"geometry":{"x":173960.72000000067,"y":2548615.8800000008}},{"attributes":{"ID":63056,"DIS_CODE":0,"TOWNNAME":"永康區","LI":"埔園里","LIN":"31鄰","STREET":"八德街","SECT":" ","MAREA":" ","LANE":"１４０巷","ALLEY":"５弄","HOUSE_NO":"１２號","E_COORD97":173950.82000000001,"N_COORD97":2548628.27,"ADDRESS":"八德街１４０巷５弄１２號","OBJECTID":63056},"geometry":{"x":173950.8200000003,"y":2548628.2699999996}},{"attributes":{"ID":63057,"DIS_CODE":0,"TOWNNAME":"山上區","LI":"豐德里","LIN":"1鄰","STREET":" ","SECT":" ","MAREA":"隙子口","LANE":" ","ALLEY":" ","HOUSE_NO":"２之２８號","E_COORD97":185363.56,"N_COORD97":2553138.2999999998,"ADDRESS":"隙子口２之２８號","OBJECTID":63057},"geometry":{"x":185363.55999999959,"y":2553138.3000000007}},{"attributes":{"ID":63058,"DIS_CODE":0,"TOWNNAME":"山上區","LI":"南洲里","LIN":"1鄰","STREET":" ","SECT":" ","MAREA":"南洲","LANE":" ","ALLEY":" ","HOUSE_NO":"７５之１號","E_COORD97":183946.09,"N_COORD97":2555730.2999999998,"ADDRESS":"南洲７５之１號","OBJECTID":63058},"geometry":{"x":183946.09000000078,"y":2555730.3000000026}},{"attributes":{"ID":63059,"DIS_CODE":0,"TOWNNAME":"山上區","LI":"豐德里","LIN":"1鄰","STREET":" ","SECT":" ","MAREA":"隙子口","LANE":" ","ALLEY":" ","HOUSE_NO":"２之２７號","E_COORD97":185378.35999999999,"N_COORD97":2553152.2999999998,"ADDRESS":"隙子口２之２７號","OBJECTID":63059},"geometry":{"x":185378.3600000022,"y":2553152.3000000007}},{"attributes":{"ID":63060,"DIS_CODE":0,"TOWNNAME":"山上區","LI":"南洲里","LIN":"1鄰","STREET":" ","SECT":" ","MAREA":"南洲","LANE":" ","ALLEY":" ","HOUSE_NO":"７２之１號","E_COORD97":183970.89000000001,"N_COORD97":2555713.2999999998,"ADDRESS":"南洲７２之１號","OBJECTID":63060},"geometry":{"x":183970.8900000006,"y":2555713.3000000026}},{"attributes":{"ID":63061,"DIS_CODE":0,"TOWNNAME":"山上區","LI":"南洲里","LIN":"1鄰","STREET":" ","SECT":" ","MAREA":"南洲","LANE":" ","ALLEY":" ","HOUSE_NO":"７９號","E_COORD97":183938.19,"N_COORD97":2555745.25,"ADDRESS":"南洲７９號","OBJECTID":63061},"geometry":{"x":183938.19000000041,"y":2555745.25}},{"attributes":{"ID":63062,"DIS_CODE":0,"TOWNNAME":"山上區","LI":"豐德里","LIN":"1鄰","STREET":" ","SECT":" ","MAREA":"隙子口","LANE":" ","ALLEY":" ","HOUSE_NO":"２之３９號","E_COORD97":185320.66,"N_COORD97":2553118.2999999998,"ADDRESS":"隙子口２之３９號","OBJECTID":63062},"geometry":{"x":185320.66000000108,"y":2553118.3000000007}},{"attributes":{"ID":63063,"DIS_CODE":0,"TOWNNAME":"山上區","LI":"豐德里","LIN":"1鄰","STREET":" ","SECT":" ","MAREA":"隙子口","LANE":" ","ALLEY":" ","HOUSE_NO":"２之２５號","E_COORD97":185372.41456800001,"N_COORD97":2553176.4635600001,"ADDRESS":"隙子口２之２５號","OBJECTID":63063},"geometry":{"x":185372.41456799954,"y":2553176.4635600019}},{"attributes":{"ID":63064,"DIS_CODE":0,"TOWNNAME":"山上區","LI":"南洲里","LIN":"1鄰","STREET":" ","SECT":" ","MAREA":"南洲","LANE":" ","ALLEY":" ","HOUSE_NO":"７７號","E_COORD97":183941.09,"N_COORD97":2555737.25,"ADDRESS":"南洲７７號","OBJECTID":63064},"geometry":{"x":183941.09000000078,"y":2555737.2500000019}},{"attributes":{"ID":63065,"DIS_CODE":0,"TOWNNAME":"山上區","LI":"豐德里","LIN":"1鄰","STREET":" ","SECT":" ","MAREA":"隙子口","LANE":" ","ALLEY":" ","HOUSE_NO":"２之２９號","E_COORD97":185353.85999999999,"N_COORD97":2553132.2999999998,"ADDRESS":"隙子口２之２９號","OBJECTID":63065},"geometry":{"x":185353.86000000034,"y":2553132.3000000007}},{"attributes":{"ID":63066,"DIS_CODE":0,"TOWNNAME":"山上區","LI":"南洲里","LIN":"1鄰","STREET":" ","SECT":" ","MAREA":"南洲","LANE":" ","ALLEY":" ","HOUSE_NO":"７３號","E_COORD97":183952.79000000001,"N_COORD97":2555718.25,"ADDRESS":"南洲７３號","OBJECTID":63066},"geometry":{"x":183952.78999999911,"y":2555718.25}},{"attributes":{"ID":63067,"DIS_CODE":0,"TOWNNAME":"山上區","LI":"南洲里","LIN":"1鄰","STREET":" ","SECT":" ","MAREA":"南洲","LANE":" ","ALLEY":" ","HOUSE_NO":"１０５號","E_COORD97":183910.23999999999,"N_COORD97":2555743.25,"ADDRESS":"南洲１０５號","OBJECTID":63067},"geometry":{"x":183910.24000000022,"y":2555743.2500000037}},{"attributes":{"ID":63068,"DIS_CODE":0,"TOWNNAME":"山上區","LI":"南洲里","LIN":"1鄰","STREET":" ","SECT":" ","MAREA":"南洲","LANE":" ","ALLEY":" ","HOUSE_NO":"７２之２號","E_COORD97":183975.98999999999,"N_COORD97":2555714.2999999998,"ADDRESS":"南洲７２之２號","OBJECTID":63068},"geometry":{"x":183975.99000000115,"y":2555714.3000000026}},{"attributes":{"ID":63069,"DIS_CODE":0,"TOWNNAME":"山上區","LI":"新莊里","LIN":"1鄰","STREET":" ","SECT":" ","MAREA":"新庄","LANE":" ","ALLEY":" ","HOUSE_NO":"１之１０號","E_COORD97":184691.518805,"N_COORD97":2554971.2400199999,"ADDRESS":"新庄１之１０號","OBJECTID":63069},"geometry":{"x":184691.51880500093,"y":2554971.2400200013}},{"attributes":{"ID":63070,"DIS_CODE":0,"TOWNNAME":"山上區","LI":"豐德里","LIN":"1鄰","STREET":" ","SECT":" ","MAREA":"隙子口","LANE":" ","ALLEY":" ","HOUSE_NO":"４之３號","E_COORD97":185217.81410600001,"N_COORD97":2553111.8525299998,"ADDRESS":"隙子口４之３號","OBJECTID":63070},"geometry":{"x":185217.81410600059,"y":2553111.852527}},{"attributes":{"ID":63071,"DIS_CODE":0,"TOWNNAME":"山上區","LI":"豐德里","LIN":"1鄰","STREET":" ","SECT":" ","MAREA":"隙子口","LANE":" ","ALLEY":" ","HOUSE_NO":"１之１號","E_COORD97":185208.10999999999,"N_COORD97":2553183.2999999998,"ADDRESS":"隙子口１之１號","OBJECTID":63071},"geometry":{"x":185208.11000000034,"y":2553183.3000000007}},{"attributes":{"ID":63072,"DIS_CODE":0,"TOWNNAME":"麻豆區","LI":"大埕里","LIN":"8鄰","STREET":" ","SECT":" ","MAREA":"大埕","LANE":" ","ALLEY":" ","HOUSE_NO":"２１號之３２","E_COORD97":173150.87,"N_COORD97":2565178.6800000002,"ADDRESS":"大埕２１號之３２","OBJECTID":63072},"geometry":{"x":173150.87000000104,"y":2565178.6800000034}},{"attributes":{"ID":63073,"DIS_CODE":0,"TOWNNAME":"山上區","LI":"豐德里","LIN":"1鄰","STREET":" ","SECT":" ","MAREA":"隙子口","LANE":" ","ALLEY":" ","HOUSE_NO":"２之２４號","E_COORD97":185371.24937000001,"N_COORD97":2553183.0252200002,"ADDRESS":"隙子口２之２４號","OBJECTID":63073},"geometry":{"x":185371.24937000126,"y":2553183.0252230018}},{"attributes":{"ID":63074,"DIS_CODE":0,"TOWNNAME":"山上區","LI":"豐德里","LIN":"1鄰","STREET":" ","SECT":" ","MAREA":"隙子口","LANE":" ","ALLEY":" ","HOUSE_NO":"２之３０號","E_COORD97":185340.56,"N_COORD97":2553125.2999999998,"ADDRESS":"隙子口２之３０號","OBJECTID":63074},"geometry":{"x":185340.55999999866,"y":2553125.3000000007}},{"attributes":{"ID":63075,"DIS_CODE":0,"TOWNNAME":"山上區","LI":"南洲里","LIN":"1鄰","STREET":" ","SECT":" ","MAREA":"南洲","LANE":" ","ALLEY":" ","HOUSE_NO":"８９號","E_COORD97":183967.19,"N_COORD97":2555819.25,"ADDRESS":"南洲８９號","OBJECTID":63075},"geometry":{"x":183967.19000000041,"y":2555819.2500000019}},{"attributes":{"ID":63076,"DIS_CODE":0,"TOWNNAME":"山上區","LI":"山上里","LIN":"1鄰","STREET":" ","SECT":" ","MAREA":"山上","LANE":" ","ALLEY":" ","HOUSE_NO":"４３號","E_COORD97":184248.95999999999,"N_COORD97":2555442.25,"ADDRESS":"山上４３號","OBJECTID":63076},"geometry":{"x":184248.96000000089,"y":2555442.2500000019}},{"attributes":{"ID":63077,"DIS_CODE":0,"TOWNNAME":"山上區","LI":"豐德里","LIN":"1鄰","STREET":" ","SECT":" ","MAREA":"隙子口","LANE":" ","ALLEY":" ","HOUSE_NO":"６號","E_COORD97":185150.86816099999,"N_COORD97":2553128.36252,"ADDRESS":"隙子口６號","OBJECTID":63077},"geometry":{"x":185150.86816100124,"y":2553128.3625180032}},{"attributes":{"ID":63078,"DIS_CODE":0,"TOWNNAME":"山上區","LI":"豐德里","LIN":"1鄰","STREET":" ","SECT":" ","MAREA":"隙子口","LANE":" ","ALLEY":" ","HOUSE_NO":"２號之２０","E_COORD97":185341.959974,"N_COORD97":2553176.62249,"ADDRESS":"隙子口２號之２０","OBJECTID":63078},"geometry":{"x":185341.95997400116,"y":2553176.6224920023}},{"attributes":{"ID":63079,"DIS_CODE":0,"TOWNNAME":"永康區","LI":"埔園里","LIN":"31鄰","STREET":"八德街","SECT":" ","MAREA":" ","LANE":"１４０巷","ALLEY":"５弄","HOUSE_NO":"１３號","E_COORD97":173955.29999999999,"N_COORD97":2548616.7000000002,"ADDRESS":"八德街１４０巷５弄１３號","OBJECTID":63079},"geometry":{"x":173955.29999999981,"y":2548616.7000000011}},{"attributes":{"ID":63080,"DIS_CODE":0,"TOWNNAME":"永康區","LI":"埔園里","LIN":"31鄰","STREET":"八德街","SECT":" ","MAREA":" ","LANE":"１４０巷","ALLEY":"５弄","HOUSE_NO":"１５號","E_COORD97":173948.73999999999,"N_COORD97":2548617.8500000001,"ADDRESS":"八德街１４０巷５弄１５號","OBJECTID":63080},"geometry":{"x":173948.74000000115,"y":2548617.8499999996}},{"attributes":{"ID":63081,"DIS_CODE":0,"TOWNNAME":"永康區","LI":"埔園里","LIN":"31鄰","STREET":"八德街","SECT":" ","MAREA":" ","LANE":"１４０巷","ALLEY":"５弄","HOUSE_NO":"１號","E_COORD97":173989.72,"N_COORD97":2548610.7000000002,"ADDRESS":"八德街１４０巷５弄１號","OBJECTID":63081},"geometry":{"x":173989.71999999974,"y":2548610.7000000011}},{"attributes":{"ID":63082,"DIS_CODE":0,"TOWNNAME":"永康區","LI":"埔園里","LIN":"31鄰","STREET":"八德街","SECT":" ","MAREA":" ","LANE":"１４０巷","ALLEY":"５弄","HOUSE_NO":"２號","E_COORD97":173967.72,"N_COORD97":2548625.6800000002,"ADDRESS":"八德街１４０巷５弄２號","OBJECTID":63082},"geometry":{"x":173967.71999999974,"y":2548625.6799999997}},{"attributes":{"ID":63083,"DIS_CODE":0,"TOWNNAME":"永康區","LI":"埔園里","LIN":"31鄰","STREET":"八德街","SECT":" ","MAREA":" ","LANE":"１４０巷","ALLEY":"５弄","HOUSE_NO":"３號","E_COORD97":173984.35999999999,"N_COORD97":2548612.2400000002,"ADDRESS":"八德街１４０巷５弄３號","OBJECTID":63083},"geometry":{"x":173984.36000000034,"y":2548612.2400000002}},{"attributes":{"ID":63084,"DIS_CODE":0,"TOWNNAME":"永康區","LI":"埔園里","LIN":"31鄰","STREET":"八德街","SECT":" ","MAREA":" ","LANE":"１４０巷","ALLEY":"５弄","HOUSE_NO":"５號","E_COORD97":173978.5,"N_COORD97":2548612.9300000002,"ADDRESS":"八德街１４０巷５弄５號","OBJECTID":63084},"geometry":{"x":173978.5,"y":2548612.9300000016}},{"attributes":{"ID":63085,"DIS_CODE":0,"TOWNNAME":"永康區","LI":"埔園里","LIN":"31鄰","STREET":"八德街","SECT":" ","MAREA":" ","LANE":"１４０巷","ALLEY":"５弄","HOUSE_NO":"６號","E_COORD97":173961.44,"N_COORD97":2548626.6400000001,"ADDRESS":"八德街１４０巷５弄６號","OBJECTID":63085},"geometry":{"x":173961.44000000134,"y":2548626.6400000006}},{"attributes":{"ID":63086,"DIS_CODE":0,"TOWNNAME":"永康區","LI":"埔園里","LIN":"31鄰","STREET":"八德街","SECT":" ","MAREA":" ","LANE":"１４０巷","ALLEY":"５弄","HOUSE_NO":"７號","E_COORD97":173972.26999999999,"N_COORD97":2548613.75,"ADDRESS":"八德街１４０巷５弄７號","OBJECTID":63086},"geometry":{"x":173972.26999999955,"y":2548613.7500000019}},{"attributes":{"ID":63087,"DIS_CODE":0,"TOWNNAME":"永康區","LI":"埔園里","LIN":"31鄰","STREET":"八德街","SECT":" ","MAREA":" ","LANE":"１４０巷","ALLEY":"５弄","HOUSE_NO":"８號","E_COORD97":173955.32999999999,"N_COORD97":2548627.4199999999,"ADDRESS":"八德街１４０巷５弄８號","OBJECTID":63087},"geometry":{"x":173955.33000000007,"y":2548627.4199999999}},{"attributes":{"ID":63088,"DIS_CODE":0,"TOWNNAME":"永康區","LI":"埔園里","LIN":"31鄰","STREET":"八德街","SECT":" ","MAREA":" ","LANE":"１４０巷","ALLEY":"５弄","HOUSE_NO":"９號","E_COORD97":173966.03,"N_COORD97":2548614.8999999999,"ADDRESS":"八德街１４０巷５弄９號","OBJECTID":63088},"geometry":{"x":173966.03000000026,"y":2548614.9000000004}},{"attributes":{"ID":63089,"DIS_CODE":0,"TOWNNAME":"鹽水區","LI":"桐寮里","LIN":"8鄰","STREET":" ","SECT":" ","MAREA":"桐寮","LANE":" ","ALLEY":" ","HOUSE_NO":"３１號","E_COORD97":173841.51999999999,"N_COORD97":2576338.27,"ADDRESS":"桐寮３１號","OBJECTID":63089},"geometry":{"x":173841.52000000048,"y":2576338.2699999996}},{"attributes":{"ID":63090,"DIS_CODE":0,"TOWNNAME":"永康區","LI":"埔園里","LIN":"31鄰","STREET":"永大路","SECT":"三段","MAREA":" ","LANE":"４６９巷","ALLEY":"３０弄","HOUSE_NO":"１１號","E_COORD97":173921.73000000001,"N_COORD97":2548799.25,"ADDRESS":"永大路三段４６９巷３０弄１１號","OBJECTID":63090},"geometry":{"x":173921.73000000231,"y":2548799.25}},{"attributes":{"ID":63091,"DIS_CODE":0,"TOWNNAME":"永康區","LI":"埔園里","LIN":"31鄰","STREET":"永大路","SECT":"三段","MAREA":" ","LANE":"４６９巷","ALLEY":"３０弄","HOUSE_NO":"１３號","E_COORD97":173916.98999999999,"N_COORD97":2548799.8399999999,"ADDRESS":"永大路三段４６９巷３０弄１３號","OBJECTID":63091},"geometry":{"x":173916.99000000115,"y":2548799.8400000017}},{"attributes":{"ID":63092,"DIS_CODE":0,"TOWNNAME":"永康區","LI":"埔園里","LIN":"31鄰","STREET":"永大路","SECT":"三段","MAREA":" ","LANE":"４６９巷","ALLEY":"３０弄","HOUSE_NO":"１５號","E_COORD97":173912.37,"N_COORD97":2548800.48,"ADDRESS":"永大路三段４６９巷３０弄１５號","OBJECTID":63092},"geometry":{"x":173912.37000000104,"y":2548800.4800000004}},{"attributes":{"ID":63093,"DIS_CODE":0,"TOWNNAME":"永康區","LI":"埔園里","LIN":"31鄰","STREET":"永大路","SECT":"三段","MAREA":" ","LANE":"４６９巷","ALLEY":"３０弄","HOUSE_NO":"１７號","E_COORD97":173914.54999999999,"N_COORD97":2548816.6000000001,"ADDRESS":"永大路三段４６９巷３０弄１７號","OBJECTID":63093},"geometry":{"x":173914.54999999981,"y":2548816.5999999996}},{"attributes":{"ID":63094,"DIS_CODE":0,"TOWNNAME":"永康區","LI":"埔園里","LIN":"31鄰","STREET":"永大路","SECT":"三段","MAREA":" ","LANE":"４６９巷","ALLEY":"３０弄","HOUSE_NO":"１９號","E_COORD97":173919.34,"N_COORD97":2548816.0099999998,"ADDRESS":"永大路三段４６９巷３０弄１９號","OBJECTID":63094},"geometry":{"x":173919.34000000078,"y":2548816.0100000016}},{"attributes":{"ID":63095,"DIS_CODE":0,"TOWNNAME":"永康區","LI":"埔園里","LIN":"31鄰","STREET":"永大路","SECT":"三段","MAREA":" ","LANE":"４６９巷","ALLEY":"３０弄","HOUSE_NO":"１號","E_COORD97":173943.26000000001,"N_COORD97":2548796.8999999999,"ADDRESS":"永大路三段４６９巷３０弄１號","OBJECTID":63095},"geometry":{"x":173943.26000000071,"y":2548796.9000000022}},{"attributes":{"ID":63096,"DIS_CODE":0,"TOWNNAME":"永康區","LI":"埔園里","LIN":"31鄰","STREET":"永大路","SECT":"三段","MAREA":" ","LANE":"４６９巷","ALLEY":"３０弄","HOUSE_NO":"２１號","E_COORD97":173923.62,"N_COORD97":2548815.6000000001,"ADDRESS":"永大路三段４６９巷３０弄２１號","OBJECTID":63096},"geometry":{"x":173923.61999999918,"y":2548815.5999999996}},{"attributes":{"ID":63097,"DIS_CODE":0,"TOWNNAME":"永康區","LI":"埔園里","LIN":"31鄰","STREET":"永大路","SECT":"三段","MAREA":" ","LANE":"４６９巷","ALLEY":"３０弄","HOUSE_NO":"２３號","E_COORD97":173928.29000000001,"N_COORD97":2548815.1600000001,"ADDRESS":"永大路三段４６９巷３０弄２３號","OBJECTID":63097},"geometry":{"x":173928.29000000097,"y":2548815.160000002}},{"attributes":{"ID":63098,"DIS_CODE":0,"TOWNNAME":"永康區","LI":"埔園里","LIN":"31鄰","STREET":"永大路","SECT":"三段","MAREA":" ","LANE":"４６９巷","ALLEY":"３０弄","HOUSE_NO":"２５號","E_COORD97":173933.04999999999,"N_COORD97":2548814.6699999999,"ADDRESS":"永大路三段４６９巷３０弄２５號","OBJECTID":63098},"geometry":{"x":173933.05000000075,"y":2548814.6700000018}},{"attributes":{"ID":63099,"DIS_CODE":0,"TOWNNAME":"永康區","LI":"埔園里","LIN":"31鄰","STREET":"永大路","SECT":"三段","MAREA":" ","LANE":"４６９巷","ALLEY":"３０弄","HOUSE_NO":"２７號","E_COORD97":173937.04999999999,"N_COORD97":2548813.77,"ADDRESS":"永大路三段４６９巷３０弄２７號","OBJECTID":63099},"geometry":{"x":173937.04999999981,"y":2548813.7700000014}},{"attributes":{"ID":63100,"DIS_CODE":0,"TOWNNAME":"永康區","LI":"埔園里","LIN":"31鄰","STREET":"永大路","SECT":"三段","MAREA":" ","LANE":"４６９巷","ALLEY":"３０弄","HOUSE_NO":"２９號","E_COORD97":173941.42999999999,"N_COORD97":2548809.6200000001,"ADDRESS":"永大路三段４６９巷３０弄２９號","OBJECTID":63100},"geometry":{"x":173941.42999999877,"y":2548809.6200000029}},{"attributes":{"ID":63101,"DIS_CODE":0,"TOWNNAME":"永康區","LI":"埔園里","LIN":"31鄰","STREET":"永大路","SECT":"三段","MAREA":" ","LANE":"４６９巷","ALLEY":"３０弄","HOUSE_NO":"３０號","E_COORD97":173951.92000000001,"N_COORD97":2548839.8599999999,"ADDRESS":"永大路三段４６９巷３０弄３０號","OBJECTID":63101},"geometry":{"x":173951.92000000179,"y":2548839.8600000013}},{"attributes":{"ID":63102,"DIS_CODE":0,"TOWNNAME":"永康區","LI":"埔園里","LIN":"31鄰","STREET":"永大路","SECT":"三段","MAREA":" ","LANE":"４６９巷","ALLEY":"３０弄","HOUSE_NO":"３１號","E_COORD97":173933.97,"N_COORD97":2548830,"ADDRESS":"永大路三段４６９巷３０弄３１號","OBJECTID":63102},"geometry":{"x":173933.96999999974,"y":2548830.0000000019}},{"attributes":{"ID":63103,"DIS_CODE":0,"TOWNNAME":"永康區","LI":"埔園里","LIN":"31鄰","STREET":"永大路","SECT":"三段","MAREA":" ","LANE":"４６９巷","ALLEY":"３０弄","HOUSE_NO":"３２號","E_COORD97":173950.63,"N_COORD97":2548844.1299999999,"ADDRESS":"永大路三段４６９巷３０弄３２號","OBJECTID":63103},"geometry":{"x":173950.63000000175,"y":2548844.1300000008}},{"attributes":{"ID":63104,"DIS_CODE":0,"TOWNNAME":"永康區","LI":"埔園里","LIN":"31鄰","STREET":"永大路","SECT":"三段","MAREA":" ","LANE":"４６９巷","ALLEY":"３０弄","HOUSE_NO":"３３號","E_COORD97":173928.79000000001,"N_COORD97":2548832.5600000001,"ADDRESS":"永大路三段４６９巷３０弄３３號","OBJECTID":63104},"geometry":{"x":173928.79000000004,"y":2548832.5600000024}},{"attributes":{"ID":63105,"DIS_CODE":0,"TOWNNAME":"永康區","LI":"埔園里","LIN":"31鄰","STREET":"永大路","SECT":"三段","MAREA":" ","LANE":"４６９巷","ALLEY":"３０弄","HOUSE_NO":"３５號","E_COORD97":173927.57000000001,"N_COORD97":2548835.8199999998,"ADDRESS":"永大路三段４６９巷３０弄３５號","OBJECTID":63105},"geometry":{"x":173927.57000000216,"y":2548835.8200000003}},{"attributes":{"ID":63106,"DIS_CODE":0,"TOWNNAME":"永康區","LI":"埔園里","LIN":"31鄰","STREET":"永大路","SECT":"三段","MAREA":" ","LANE":"４６９巷","ALLEY":"３０弄","HOUSE_NO":"３６號","E_COORD97":173948.98999999999,"N_COORD97":2548847.8700000001,"ADDRESS":"永大路三段４６９巷３０弄３６號","OBJECTID":63106},"geometry":{"x":173948.99000000115,"y":2548847.8700000029}},{"attributes":{"ID":63107,"DIS_CODE":0,"TOWNNAME":"永康區","LI":"埔園里","LIN":"31鄰","STREET":"永大路","SECT":"三段","MAREA":" ","LANE":"４６９巷","ALLEY":"３０弄","HOUSE_NO":"３７號","E_COORD97":173926.29000000001,"N_COORD97":2548838.5,"ADDRESS":"永大路三段４６９巷３０弄３７號","OBJECTID":63107},"geometry":{"x":173926.29000000097,"y":2548838.5000000037}},{"attributes":{"ID":63108,"DIS_CODE":0,"TOWNNAME":"玉井區","LI":"三和里","LIN":"6鄰","STREET":" ","SECT":" ","MAREA":"三和","LANE":" ","ALLEY":" ","HOUSE_NO":"６２號","E_COORD97":194902.04000000001,"N_COORD97":2555555.25,"ADDRESS":"三和６２號","OBJECTID":63108},"geometry":{"x":194902.03999999911,"y":2555555.25}},{"attributes":{"ID":63109,"DIS_CODE":0,"TOWNNAME":"永康區","LI":"埔園里","LIN":"31鄰","STREET":"永大路","SECT":"三段","MAREA":" ","LANE":"４６９巷","ALLEY":"３０弄","HOUSE_NO":"３８號","E_COORD97":173947.59,"N_COORD97":2548852.1899999999,"ADDRESS":"永大路三段４６９巷３０弄３８號","OBJECTID":63109},"geometry":{"x":173947.59000000078,"y":2548852.1899999995}},{"attributes":{"ID":63110,"DIS_CODE":0,"TOWNNAME":"永康區","LI":"埔園里","LIN":"31鄰","STREET":"永大路","SECT":"三段","MAREA":" ","LANE":"４６９巷","ALLEY":"３０弄","HOUSE_NO":"３９號","E_COORD97":173923.82999999999,"N_COORD97":2548844.8199999998,"ADDRESS":"永大路三段４６９巷３０弄３９號","OBJECTID":63110},"geometry":{"x":173923.82999999914,"y":2548844.8200000022}},{"attributes":{"ID":63111,"DIS_CODE":0,"TOWNNAME":"永康區","LI":"埔園里","LIN":"31鄰","STREET":"永大路","SECT":"三段","MAREA":" ","LANE":"４６９巷","ALLEY":"３０弄","HOUSE_NO":"３號","E_COORD97":173939.48000000001,"N_COORD97":2548797.4399999999,"ADDRESS":"永大路三段４６９巷３０弄３號","OBJECTID":63111},"geometry":{"x":173939.48000000045,"y":2548797.4399999995}},{"attributes":{"ID":63112,"DIS_CODE":0,"TOWNNAME":"麻豆區","LI":"大埕里","LIN":"8鄰","STREET":" ","SECT":" ","MAREA":"大埕","LANE":" ","ALLEY":" ","HOUSE_NO":"２１號之３３","E_COORD97":173152.48999999999,"N_COORD97":2565182.5299999998,"ADDRESS":"大埕２１號之３３","OBJECTID":63112},"geometry":{"x":173152.49000000115,"y":2565182.5299999975}},{"attributes":{"ID":63113,"DIS_CODE":0,"TOWNNAME":"鹽水區","LI":"福得里","LIN":"8鄰","STREET":" ","SECT":" ","MAREA":"後厝","LANE":" ","ALLEY":" ","HOUSE_NO":"２２號之３","E_COORD97":175480.85999999999,"N_COORD97":2579966.6899999999,"ADDRESS":"後厝２２號之３","OBJECTID":63113},"geometry":{"x":175480.86000000127,"y":2579966.6899999995}},{"attributes":{"ID":63114,"DIS_CODE":0,"TOWNNAME":"鹽水區","LI":"孫厝里","LIN":"8鄰","STREET":" ","SECT":" ","MAREA":"孫厝寮","LANE":" ","ALLEY":" ","HOUSE_NO":"５８號","E_COORD97":170262.23000000001,"N_COORD97":2576908.8500000001,"ADDRESS":"孫厝寮５８號","OBJECTID":63114},"geometry":{"x":170262.23000000138,"y":2576908.8500000015}},{"attributes":{"ID":63115,"DIS_CODE":0,"TOWNNAME":"鹽水區","LI":"孫厝里","LIN":"8鄰","STREET":" ","SECT":" ","MAREA":"孫厝寮","LANE":" ","ALLEY":" ","HOUSE_NO":"５９號","E_COORD97":170269.89000000001,"N_COORD97":2576875.7000000002,"ADDRESS":"孫厝寮５９號","OBJECTID":63115},"geometry":{"x":170269.88999999873,"y":2576875.7000000011}},{"attributes":{"ID":63116,"DIS_CODE":0,"TOWNNAME":"鹽水區","LI":"孫厝里","LIN":"8鄰","STREET":" ","SECT":" ","MAREA":"孫厝寮","LANE":" ","ALLEY":" ","HOUSE_NO":"６０號","E_COORD97":170276.23999999999,"N_COORD97":2576855,"ADDRESS":"孫厝寮６０號","OBJECTID":63116},"geometry":{"x":170276.24000000022,"y":2576855}},{"attributes":{"ID":63117,"DIS_CODE":0,"TOWNNAME":"鹽水區","LI":"孫厝里","LIN":"8鄰","STREET":" ","SECT":" ","MAREA":"孫厝寮","LANE":" ","ALLEY":" ","HOUSE_NO":"６１號","E_COORD97":170292.14000000001,"N_COORD97":2576866.5299999998,"ADDRESS":"孫厝寮６１號","OBJECTID":63117},"geometry":{"x":170292.1400000006,"y":2576866.5300000012}},{"attributes":{"ID":63118,"DIS_CODE":0,"TOWNNAME":"鹽水區","LI":"孫厝里","LIN":"8鄰","STREET":" ","SECT":" ","MAREA":"孫厝寮","LANE":" ","ALLEY":" ","HOUSE_NO":"６３號","E_COORD97":170295.54000000001,"N_COORD97":2576927.98,"ADDRESS":"孫厝寮６３號","OBJECTID":63118},"geometry":{"x":170295.54000000097,"y":2576927.9800000004}},{"attributes":{"ID":63119,"DIS_CODE":0,"TOWNNAME":"鹽水區","LI":"孫厝里","LIN":"8鄰","STREET":" ","SECT":" ","MAREA":"孫厝寮","LANE":" ","ALLEY":" ","HOUSE_NO":"６４號","E_COORD97":170300.78,"N_COORD97":2576901.9700000002,"ADDRESS":"孫厝寮６４號","OBJECTID":63119},"geometry":{"x":170300.78000000119,"y":2576901.9700000025}},{"attributes":{"ID":63120,"DIS_CODE":0,"TOWNNAME":"鹽水區","LI":"孫厝里","LIN":"8鄰","STREET":" ","SECT":" ","MAREA":"孫厝寮","LANE":" ","ALLEY":" ","HOUSE_NO":"６５號","E_COORD97":170307.13,"N_COORD97":2576877.2200000002,"ADDRESS":"孫厝寮６５號","OBJECTID":63120},"geometry":{"x":170307.12999999989,"y":2576877.2200000025}},{"attributes":{"ID":63121,"DIS_CODE":0,"TOWNNAME":"麻豆區","LI":"大埕里","LIN":"8鄰","STREET":" ","SECT":" ","MAREA":"大埕","LANE":" ","ALLEY":" ","HOUSE_NO":"２１號之３４","E_COORD97":173154.10000000001,"N_COORD97":2565186.2000000002,"ADDRESS":"大埕２１號之３４","OBJECTID":63121},"geometry":{"x":173154.10000000056,"y":2565186.2000000011}},{"attributes":{"ID":63122,"DIS_CODE":0,"TOWNNAME":"山上區","LI":"明和里","LIN":"1鄰","STREET":" ","SECT":" ","MAREA":"明和","LANE":" ","ALLEY":" ","HOUSE_NO":"８３號","E_COORD97":183114.29000000001,"N_COORD97":2556163.25,"ADDRESS":"明和８３號","OBJECTID":63122},"geometry":{"x":183114.29000000097,"y":2556163.2499999981}},{"attributes":{"ID":63123,"DIS_CODE":0,"TOWNNAME":"山上區","LI":"明和里","LIN":"1鄰","STREET":" ","SECT":" ","MAREA":"明和","LANE":" ","ALLEY":" ","HOUSE_NO":"８４之４號","E_COORD97":183116.79000000001,"N_COORD97":2556177.2999999998,"ADDRESS":"明和８４之４號","OBJECTID":63123},"geometry":{"x":183116.79000000004,"y":2556177.2999999989}},{"attributes":{"ID":63124,"DIS_CODE":0,"TOWNNAME":"山上區","LI":"明和里","LIN":"1鄰","STREET":" ","SECT":" ","MAREA":"明和","LANE":" ","ALLEY":" ","HOUSE_NO":"７７號","E_COORD97":182971.19,"N_COORD97":2556079.25,"ADDRESS":"明和７７號","OBJECTID":63124},"geometry":{"x":182971.19000000134,"y":2556079.2500000019}},{"attributes":{"ID":63125,"DIS_CODE":0,"TOWNNAME":"山上區","LI":"明和里","LIN":"1鄰","STREET":" ","SECT":" ","MAREA":"明和","LANE":" ","ALLEY":" ","HOUSE_NO":"８３號之１","E_COORD97":183118.12,"N_COORD97":2556155.2999999998,"ADDRESS":"明和８３號之１","OBJECTID":63125},"geometry":{"x":183118.12000000011,"y":2556155.3000000026}},{"attributes":{"ID":63126,"DIS_CODE":0,"TOWNNAME":"山上區","LI":"明和里","LIN":"1鄰","STREET":" ","SECT":" ","MAREA":"明和","LANE":" ","ALLEY":" ","HOUSE_NO":"８２之６號","E_COORD97":183100.29000000001,"N_COORD97":2556083.2999999998,"ADDRESS":"明和８２之６號","OBJECTID":63126},"geometry":{"x":183100.2900000019,"y":2556083.3000000026}},{"attributes":{"ID":63127,"DIS_CODE":0,"TOWNNAME":"新化區","LI":"豐榮里","LIN":"5鄰","STREET":" ","SECT":" ","MAREA":"洋子","LANE":" ","ALLEY":" ","HOUSE_NO":"１２８號之３","E_COORD97":177807.03,"N_COORD97":2548206.2599999998,"ADDRESS":"洋子１２８號之３","OBJECTID":63127},"geometry":{"x":177807.03000000119,"y":2548206.2600000016}},{"attributes":{"ID":63128,"DIS_CODE":0,"TOWNNAME":"山上區","LI":"明和里","LIN":"1鄰","STREET":" ","SECT":" ","MAREA":"明和","LANE":" ","ALLEY":" ","HOUSE_NO":"８２之１號","E_COORD97":183125.69,"N_COORD97":2556088.2999999998,"ADDRESS":"明和８２之１號","OBJECTID":63128},"geometry":{"x":183125.69000000134,"y":2556088.3000000007}},{"attributes":{"ID":63129,"DIS_CODE":0,"TOWNNAME":"仁德區","LI":"大甲里","LIN":" ","STREET":"行大街","SECT":" ","MAREA":" ","LANE":" ","ALLEY":" ","HOUSE_NO":"３６９號","E_COORD97":169557.29999999999,"N_COORD97":2535206.2400000002,"ADDRESS":"行大街３６９號","OBJECTID":63129},"geometry":{"x":169557.30000000075,"y":2535206.2400000002}},{"attributes":{"ID":63130,"DIS_CODE":0,"TOWNNAME":"仁德區","LI":"土庫里","LIN":" ","STREET":"土庫路","SECT":" ","MAREA":" ","LANE":" ","ALLEY":" ","HOUSE_NO":"９３號","E_COORD97":174270.34,"N_COORD97":2543198,"ADDRESS":"土庫路９３號","OBJECTID":63130},"geometry":{"x":174270.33999999985,"y":2543198.0000000019}},{"attributes":{"ID":63131,"DIS_CODE":0,"TOWNNAME":"永康區","LI":"埔園里","LIN":"31鄰","STREET":"永大路","SECT":"三段","MAREA":" ","LANE":"４６９巷","ALLEY":"３０弄","HOUSE_NO":"４０號","E_COORD97":173946.12,"N_COORD97":2548856.6899999999,"ADDRESS":"永大路三段４６９巷３０弄４０號","OBJECTID":63131},"geometry":{"x":173946.12000000104,"y":2548856.6899999995}},{"attributes":{"ID":63132,"DIS_CODE":0,"TOWNNAME":"永康區","LI":"埔園里","LIN":"31鄰","STREET":"永大路","SECT":"三段","MAREA":" ","LANE":"４６９巷","ALLEY":"３０弄","HOUSE_NO":"４１號","E_COORD97":173923.13,"N_COORD97":2548847.6400000001,"ADDRESS":"永大路三段４６９巷３０弄４１號","OBJECTID":63132},"geometry":{"x":173923.12999999989,"y":2548847.6400000006}},{"attributes":{"ID":63133,"DIS_CODE":0,"TOWNNAME":"永康區","LI":"埔園里","LIN":"31鄰","STREET":"永大路","SECT":"三段","MAREA":" ","LANE":"４６９巷","ALLEY":"３０弄","HOUSE_NO":"４２號","E_COORD97":173941.19,"N_COORD97":2548859.3900000001,"ADDRESS":"永大路三段４６９巷３０弄４２號","OBJECTID":63133},"geometry":{"x":173941.19000000134,"y":2548859.3900000006}},{"attributes":{"ID":63134,"DIS_CODE":0,"TOWNNAME":"永康區","LI":"埔園里","LIN":"31鄰","STREET":"永大路","SECT":"三段","MAREA":" ","LANE":"４６９巷","ALLEY":"３０弄","HOUSE_NO":"４３號","E_COORD97":173921.85999999999,"N_COORD97":2548850.7599999998,"ADDRESS":"永大路三段４６９巷３０弄４３號","OBJECTID":63134},"geometry":{"x":173921.86000000034,"y":2548850.7600000016}},{"attributes":{"ID":63135,"DIS_CODE":0,"TOWNNAME":"永康區","LI":"埔園里","LIN":"31鄰","STREET":"永大路","SECT":"三段","MAREA":" ","LANE":"４６９巷","ALLEY":"３０弄","HOUSE_NO":"４５號","E_COORD97":173920.92000000001,"N_COORD97":2548856.0600000001,"ADDRESS":"永大路三段４６９巷３０弄４５號","OBJECTID":63135},"geometry":{"x":173920.91999999993,"y":2548856.0600000024}},{"attributes":{"ID":63136,"DIS_CODE":0,"TOWNNAME":"永康區","LI":"埔園里","LIN":"31鄰","STREET":"永大路","SECT":"三段","MAREA":" ","LANE":"４６９巷","ALLEY":"３０弄","HOUSE_NO":"５號","E_COORD97":173934.59,"N_COORD97":2548797.6499999999,"ADDRESS":"永大路三段４６９巷３０弄５號","OBJECTID":63136},"geometry":{"x":173934.59000000078,"y":2548797.6500000022}},{"attributes":{"ID":63137,"DIS_CODE":0,"TOWNNAME":"永康區","LI":"埔園里","LIN":"31鄰","STREET":"永大路","SECT":"三段","MAREA":" ","LANE":"４６９巷","ALLEY":"３０弄","HOUSE_NO":"７號","E_COORD97":173930.20000000001,"N_COORD97":2548798.29,"ADDRESS":"永大路三段４６９巷３０弄７號","OBJECTID":63137},"geometry":{"x":173930.20000000112,"y":2548798.2900000028}},{"attributes":{"ID":63138,"DIS_CODE":0,"TOWNNAME":"永康區","LI":"埔園里","LIN":"31鄰","STREET":"永大路","SECT":"三段","MAREA":" ","LANE":"４６９巷","ALLEY":"３０弄","HOUSE_NO":"９號","E_COORD97":173925.28,"N_COORD97":2548798.5899999999,"ADDRESS":"永大路三段４６９巷３０弄９號","OBJECTID":63138},"geometry":{"x":173925.28000000119,"y":2548798.5900000017}},{"attributes":{"ID":63139,"DIS_CODE":0,"TOWNNAME":"仁德區","LI":"保安里","LIN":" ","STREET":"文賢路","SECT":"一段","MAREA":" ","LANE":" ","ALLEY":" ","HOUSE_NO":"７５９號","E_COORD97":171488.09,"N_COORD97":2536182.8300000001,"ADDRESS":"文賢路一段７５９號","OBJECTID":63139},"geometry":{"x":171488.09000000078,"y":2536182.8300000001}},{"attributes":{"ID":63140,"DIS_CODE":0,"TOWNNAME":"仁德區","LI":"田厝里","LIN":" ","STREET":"保安路","SECT":"二段","MAREA":" ","LANE":" ","ALLEY":" ","HOUSE_NO":"６３５號","E_COORD97":172811.04999999999,"N_COORD97":2537609.5699999998,"ADDRESS":"保安路二段６３５號","OBJECTID":63140},"geometry":{"x":172811.04999999981,"y":2537609.570000004}},{"attributes":{"ID":63141,"DIS_CODE":0,"TOWNNAME":"仁德區","LI":"保安里","LIN":" ","STREET":"中正路","SECT":"一段","MAREA":" ","LANE":" ","ALLEY":" ","HOUSE_NO":"９１號","E_COORD97":171133.07000000001,"N_COORD97":2535563.0299999998,"ADDRESS":"中正路一段９１號","OBJECTID":63141},"geometry":{"x":171133.07000000123,"y":2535563.0299999993}},{"attributes":{"ID":63142,"DIS_CODE":0,"TOWNNAME":"麻豆區","LI":"大埕里","LIN":"8鄰","STREET":" ","SECT":" ","MAREA":"大埕","LANE":" ","ALLEY":" ","HOUSE_NO":"２１號之３９","E_COORD97":173130.17999999999,"N_COORD97":2565172.0600000001,"ADDRESS":"大埕２１號之３９","OBJECTID":63142},"geometry":{"x":173130.18000000063,"y":2565172.0600000005}},{"attributes":{"ID":63143,"DIS_CODE":0,"TOWNNAME":"麻豆區","LI":"大埕里","LIN":"8鄰","STREET":" ","SECT":" ","MAREA":"大埕","LANE":" ","ALLEY":" ","HOUSE_NO":"２１號之４０","E_COORD97":173130.5,"N_COORD97":2565180.3100000001,"ADDRESS":"大埕２１號之４０","OBJECTID":63143},"geometry":{"x":173130.5,"y":2565180.3100000024}},{"attributes":{"ID":63144,"DIS_CODE":0,"TOWNNAME":"安南區","LI":"\u25A0南里","LIN":"31鄰","STREET":"安昌街","SECT":" ","MAREA":" ","LANE":"１７４巷","ALLEY":"１９１弄","HOUSE_NO":"６９之１２號","E_COORD97":170217.10000000001,"N_COORD97":2552082.8700000001,"ADDRESS":"安昌街１７４巷１９１弄６９之１２號","OBJECTID":63144},"geometry":{"x":170217.09999999963,"y":2552082.8700000029}},{"attributes":{"ID":63145,"DIS_CODE":0,"TOWNNAME":"安南區","LI":"\u25A0南里","LIN":"31鄰","STREET":"安昌街","SECT":" ","MAREA":" ","LANE":"１７４巷","ALLEY":"１９１弄","HOUSE_NO":"６９之１３號","E_COORD97":170221.17000000001,"N_COORD97":2552083.0600000001,"ADDRESS":"安昌街１７４巷１９１弄６９之１３號","OBJECTID":63145},"geometry":{"x":170221.17000000086,"y":2552083.0599999987}},{"attributes":{"ID":63146,"DIS_CODE":0,"TOWNNAME":"安南區","LI":"\u25A0南里","LIN":"31鄰","STREET":"安昌街","SECT":" ","MAREA":" ","LANE":"１７４巷","ALLEY":"１９１弄","HOUSE_NO":"６９之１５號","E_COORD97":170225.63,"N_COORD97":2552083.6400000001,"ADDRESS":"安昌街１７４巷１９１弄６９之１５號","OBJECTID":63146},"geometry":{"x":170225.62999999989,"y":2552083.6400000025}},{"attributes":{"ID":63147,"DIS_CODE":0,"TOWNNAME":"安南區","LI":"\u25A0南里","LIN":"31鄰","STREET":"安昌街","SECT":" ","MAREA":" ","LANE":"１７４巷","ALLEY":"１９１弄","HOUSE_NO":"６９之１６號","E_COORD97":170229.70000000001,"N_COORD97":2552083.25,"ADDRESS":"安昌街１７４巷１９１弄６９之１６號","OBJECTID":63147},"geometry":{"x":170229.70000000112,"y":2552083.25}},{"attributes":{"ID":63148,"DIS_CODE":0,"TOWNNAME":"安南區","LI":"\u25A0南里","LIN":"31鄰","STREET":"安昌街","SECT":" ","MAREA":" ","LANE":"１７４巷","ALLEY":"１９１弄","HOUSE_NO":"６９之１７號","E_COORD97":170233.76999999999,"N_COORD97":2552083.8300000001,"ADDRESS":"安昌街１７４巷１９１弄６９之１７號","OBJECTID":63148},"geometry":{"x":170233.77000000048,"y":2552083.8300000001}},{"attributes":{"ID":63149,"DIS_CODE":0,"TOWNNAME":"北區","LI":"長德里","LIN":"8鄰","STREET":"自強街","SECT":" ","MAREA":" ","LANE":" ","ALLEY":" ","HOUSE_NO":"２０６號","E_COORD97":168455.14000000001,"N_COORD97":2544835.8500000001,"ADDRESS":"自強街２０６號","OBJECTID":63149},"geometry":{"x":168455.1400000006,"y":2544835.8500000015}},{"attributes":{"ID":63150,"DIS_CODE":0,"TOWNNAME":"南區","LI":"廣州里","LIN":"8鄰","STREET":"夏林路","SECT":" ","MAREA":" ","LANE":" ","ALLEY":" ","HOUSE_NO":"１號之２０","E_COORD97":167482.39999999999,"N_COORD97":2542966.2000000002,"ADDRESS":"夏林路１號之２０","OBJECTID":63150},"geometry":{"x":167482.4000000013,"y":2542966.1999999993}},{"attributes":{"ID":63151,"DIS_CODE":0,"TOWNNAME":"新化區","LI":"協興里","LIN":"8鄰","STREET":"太平街","SECT":" ","MAREA":" ","LANE":" ","ALLEY":" ","HOUSE_NO":"１１８號之２","E_COORD97":178488.48000000001,"N_COORD97":2548720.2599999998,"ADDRESS":"太平街１１８號之２","OBJECTID":63151},"geometry":{"x":178488.48000000231,"y":2548720.2599999998}},{"attributes":{"ID":63152,"DIS_CODE":0,"TOWNNAME":"新化區","LI":"山\u25A0里","LIN":"8鄰","STREET":" ","SECT":" ","MAREA":"頂山\u25A0","LANE":" ","ALLEY":" ","HOUSE_NO":"１８４號","E_COORD97":179714.23000000001,"N_COORD97":2546867.25,"ADDRESS":"頂山\u25A0１８４號","OBJECTID":63152},"geometry":{"x":179714.23000000138,"y":2546867.2500000037}},{"attributes":{"ID":63153,"DIS_CODE":0,"TOWNNAME":"仁德區","LI":"仁義里","LIN":" ","STREET":"中山路","SECT":" ","MAREA":" ","LANE":" ","ALLEY":" ","HOUSE_NO":"３４３號","E_COORD97":173965.20000000001,"N_COORD97":2541232.75,"ADDRESS":"中山路３４３號","OBJECTID":63153},"geometry":{"x":173965.20000000019,"y":2541232.7500000019}},{"attributes":{"ID":63154,"DIS_CODE":0,"TOWNNAME":"仁德區","LI":"仁義里","LIN":" ","STREET":"中正路","SECT":"二段","MAREA":" ","LANE":" ","ALLEY":" ","HOUSE_NO":"６９２之１號","E_COORD97":173408.34,"N_COORD97":2539952.54,"ADDRESS":"中正路二段６９２之１號","OBJECTID":63154},"geometry":{"x":173408.34000000171,"y":2539952.540000001}},{"attributes":{"ID":63155,"DIS_CODE":0,"TOWNNAME":"仁德區","LI":"後壁里","LIN":" ","STREET":"中正路","SECT":"二段","MAREA":" ","LANE":" ","ALLEY":" ","HOUSE_NO":"２０６號","E_COORD97":173232.42999999999,"N_COORD97":2538753.2799999998,"ADDRESS":"中正路二段２０６號","OBJECTID":63155},"geometry":{"x":173232.4299999997,"y":2538753.2800000012}},{"attributes":{"ID":63156,"DIS_CODE":0,"TOWNNAME":"仁德區","LI":"二行里","LIN":" ","STREET":"二行一路","SECT":" ","MAREA":" ","LANE":" ","ALLEY":" ","HOUSE_NO":"１０３號","E_COORD97":170432.01999999999,"N_COORD97":2535400.4900000002,"ADDRESS":"二行一路１０３號","OBJECTID":63156},"geometry":{"x":170432.02000000048,"y":2535400.4900000021}},{"attributes":{"ID":63157,"DIS_CODE":0,"TOWNNAME":"仁德區","LI":"後壁里","LIN":"24鄰","STREET":"中正路","SECT":"二段","MAREA":" ","LANE":" ","ALLEY":" ","HOUSE_NO":"２９１號","E_COORD97":173227.89000000001,"N_COORD97":2539051.7799999998,"ADDRESS":"中正路二段２９１號","OBJECTID":63157},"geometry":{"x":173227.88999999966,"y":2539051.7800000012}},{"attributes":{"ID":63158,"DIS_CODE":0,"TOWNNAME":"仁德區","LI":"後壁里","LIN":" ","STREET":"德洋一街","SECT":" ","MAREA":" ","LANE":" ","ALLEY":" ","HOUSE_NO":"７５號","E_COORD97":173166.60000000001,"N_COORD97":2539235.7599999998,"ADDRESS":"德洋一街７５號","OBJECTID":63158},"geometry":{"x":173166.59999999963,"y":2539235.7600000016}},{"attributes":{"ID":63159,"DIS_CODE":0,"TOWNNAME":"仁德區","LI":"保安里","LIN":" ","STREET":"文賢路","SECT":"一段","MAREA":" ","LANE":" ","ALLEY":" ","HOUSE_NO":"８２８號","E_COORD97":171462.26999999999,"N_COORD97":2536190.3300000001,"ADDRESS":"文賢路一段８２８號","OBJECTID":63159},"geometry":{"x":171462.26999999862,"y":2536190.3300000038}},{"attributes":{"ID":63160,"DIS_CODE":0,"TOWNNAME":"仁德區","LI":"二行里","LIN":" ","STREET":"二行一路","SECT":" ","MAREA":" ","LANE":" ","ALLEY":" ","HOUSE_NO":"１２９號","E_COORD97":170486.70000000001,"N_COORD97":2535484.7400000002,"ADDRESS":"二行一路１２９號","OBJECTID":63160},"geometry":{"x":170486.70000000019,"y":2535484.7400000002}},{"attributes":{"ID":63161,"DIS_CODE":0,"TOWNNAME":"安南區","LI":"\u25A0南里","LIN":"31鄰","STREET":"安昌街","SECT":" ","MAREA":" ","LANE":"１７４巷","ALLEY":"１９１弄","HOUSE_NO":"６９之１８號","E_COORD97":170238.42000000001,"N_COORD97":2552084.2200000002,"ADDRESS":"安昌街１７４巷１９１弄６９之１８號","OBJECTID":63161},"geometry":{"x":170238.42000000086,"y":2552084.2200000007}},{"attributes":{"ID":63162,"DIS_CODE":0,"TOWNNAME":"安南區","LI":"\u25A0南里","LIN":"31鄰","STREET":"安昌街","SECT":" ","MAREA":" ","LANE":"１７４巷","ALLEY":"１９１弄","HOUSE_NO":"６９之１９號","E_COORD97":170242.5,"N_COORD97":2552084.7999999998,"ADDRESS":"安昌街１７４巷１９１弄６９之１９號","OBJECTID":63162},"geometry":{"x":170242.50000000186,"y":2552084.8000000007}},{"attributes":{"ID":63163,"DIS_CODE":0,"TOWNNAME":"安南區","LI":"\u25A0南里","LIN":"31鄰","STREET":"安昌街","SECT":" ","MAREA":" ","LANE":"１７４巷","ALLEY":"１９１弄","HOUSE_NO":"６９之２０號","E_COORD97":170246.76000000001,"N_COORD97":2552084.7999999998,"ADDRESS":"安昌街１７４巷１９１弄６９之２０號","OBJECTID":63163},"geometry":{"x":170246.75999999978,"y":2552084.8000000007}},{"attributes":{"ID":63164,"DIS_CODE":0,"TOWNNAME":"安南區","LI":"\u25A0南里","LIN":"31鄰","STREET":"安昌街","SECT":" ","MAREA":" ","LANE":"１７４巷","ALLEY":"１９１弄","HOUSE_NO":"６９之２１號","E_COORD97":170253.73999999999,"N_COORD97":2552085,"ADDRESS":"安昌街１７４巷１９１弄６９之２１號","OBJECTID":63164},"geometry":{"x":170253.74000000115,"y":2552085}},{"attributes":{"ID":63165,"DIS_CODE":0,"TOWNNAME":"安南區","LI":"\u25A0南里","LIN":"31鄰","STREET":"安昌街","SECT":" ","MAREA":" ","LANE":"１７４巷","ALLEY":"１９１弄","HOUSE_NO":"６９之２２號","E_COORD97":170260.14000000001,"N_COORD97":2552085.3799999999,"ADDRESS":"安昌街１７４巷１９１弄６９之２２號","OBJECTID":63165},"geometry":{"x":170260.1400000006,"y":2552085.379999999}},{"attributes":{"ID":63166,"DIS_CODE":0,"TOWNNAME":"永康區","LI":"埔園里","LIN":"31鄰","STREET":"永大路","SECT":"三段","MAREA":" ","LANE":"４６９巷","ALLEY":"１６６弄","HOUSE_NO":"１２號","E_COORD97":173743.44,"N_COORD97":2548835.4500000002,"ADDRESS":"永大路三段４６９巷１６６弄１２號","OBJECTID":63166},"geometry":{"x":173743.44000000041,"y":2548835.4500000011}},{"attributes":{"ID":63167,"DIS_CODE":0,"TOWNNAME":"永康區","LI":"埔園里","LIN":"31鄰","STREET":"永大路","SECT":"三段","MAREA":" ","LANE":"４６９巷","ALLEY":"１６６弄","HOUSE_NO":"２１號","E_COORD97":173701.85999999999,"N_COORD97":2548855.2999999998,"ADDRESS":"永大路三段４６９巷１６６弄２１號","OBJECTID":63167},"geometry":{"x":173701.8599999994,"y":2548855.3000000026}},{"attributes":{"ID":63168,"DIS_CODE":0,"TOWNNAME":"永康區","LI":"埔園里","LIN":"31鄰","STREET":"永大路","SECT":"三段","MAREA":" ","LANE":"４６９巷","ALLEY":"１６６弄","HOUSE_NO":"１３號","E_COORD97":173701.09,"N_COORD97":2548843.2200000002,"ADDRESS":"永大路三段４６９巷１６６弄１３號","OBJECTID":63168},"geometry":{"x":173701.08999999985,"y":2548843.2200000007}},{"attributes":{"ID":63169,"DIS_CODE":0,"TOWNNAME":"永康區","LI":"埔園里","LIN":"31鄰","STREET":"永大路","SECT":"三段","MAREA":" ","LANE":"４６９巷","ALLEY":"１６６弄","HOUSE_NO":"２２號","E_COORD97":173742.13,"N_COORD97":2548854.1400000001,"ADDRESS":"永大路三段４６９巷１６６弄２２號","OBJECTID":63169},"geometry":{"x":173742.13000000175,"y":2548854.1400000006}},{"attributes":{"ID":63170,"DIS_CODE":0,"TOWNNAME":"仁德區","LI":"保安里","LIN":" ","STREET":"文賢路","SECT":"一段","MAREA":" ","LANE":" ","ALLEY":" ","HOUSE_NO":"８７０號","E_COORD97":171593.17000000001,"N_COORD97":2536020.8199999998,"ADDRESS":"文賢路一段８７０號","OBJECTID":63170},"geometry":{"x":171593.16999999993,"y":2536020.8200000003}},{"attributes":{"ID":63171,"DIS_CODE":0,"TOWNNAME":"仁德區","LI":"土庫里","LIN":" ","STREET":"土庫三街","SECT":" ","MAREA":" ","LANE":" ","ALLEY":" ","HOUSE_NO":"６５號","E_COORD97":174274.44,"N_COORD97":2543084.7400000002,"ADDRESS":"土庫三街６５號","OBJECTID":63171},"geometry":{"x":174274.44000000227,"y":2543084.7400000021}},{"attributes":{"ID":63172,"DIS_CODE":0,"TOWNNAME":"仁德區","LI":"保安里","LIN":" ","STREET":"文賢路","SECT":"一段","MAREA":" ","LANE":" ","ALLEY":" ","HOUSE_NO":"７２３號","E_COORD97":171436.66,"N_COORD97":2536278.8300000001,"ADDRESS":"文賢路一段７２３號","OBJECTID":63172},"geometry":{"x":171436.66000000201,"y":2536278.8300000019}},{"attributes":{"ID":63173,"DIS_CODE":0,"TOWNNAME":"永康區","LI":"埔園里","LIN":"31鄰","STREET":"永大路","SECT":"三段","MAREA":" ","LANE":"４６９巷","ALLEY":"１６６弄","HOUSE_NO":"１８號","E_COORD97":173730.66,"N_COORD97":2548838.9399999999,"ADDRESS":"永大路三段４６９巷１６６弄１８號","OBJECTID":63173},"geometry":{"x":173730.66000000108,"y":2548838.9400000013}},{"attributes":{"ID":63174,"DIS_CODE":0,"TOWNNAME":"永康區","LI":"埔園里","LIN":"31鄰","STREET":"永大路","SECT":"三段","MAREA":" ","LANE":"４６９巷","ALLEY":"１６６弄","HOUSE_NO":"８號","E_COORD97":173734.85999999999,"N_COORD97":2548826.9399999999,"ADDRESS":"永大路三段４６９巷１６６弄８號","OBJECTID":63174},"geometry":{"x":173734.86000000127,"y":2548826.9399999995}},{"attributes":{"ID":63175,"DIS_CODE":0,"TOWNNAME":"永康區","LI":"埔園里","LIN":"31鄰","STREET":"永大路","SECT":"三段","MAREA":" ","LANE":"４６９巷","ALLEY":"１６６弄","HOUSE_NO":"１號","E_COORD97":173704.09,"N_COORD97":2548824.2999999998,"ADDRESS":"永大路三段４６９巷１６６弄１號","OBJECTID":63175},"geometry":{"x":173704.09000000078,"y":2548824.3000000026}},{"attributes":{"ID":63176,"DIS_CODE":0,"TOWNNAME":"永康區","LI":"埔園里","LIN":"31鄰","STREET":"永大路","SECT":"三段","MAREA":" ","LANE":"４６９巷","ALLEY":"１６６弄","HOUSE_NO":"３號","E_COORD97":173704.34,"N_COORD97":2548828.0499999998,"ADDRESS":"永大路三段４６９巷１６６弄３號","OBJECTID":63176},"geometry":{"x":173704.33999999985,"y":2548828.0500000007}},{"attributes":{"ID":63177,"DIS_CODE":0,"TOWNNAME":"仁德區","LI":"上崙里","LIN":"7鄰","STREET":"德善路","SECT":" ","MAREA":" ","LANE":" ","ALLEY":" ","HOUSE_NO":"３１２之１號","E_COORD97":173991.72,"N_COORD97":2538361.77,"ADDRESS":"德善路３１２之１號","OBJECTID":63177},"geometry":{"x":173991.71999999974,"y":2538361.7699999996}},{"attributes":{"ID":63178,"DIS_CODE":0,"TOWNNAME":"仁德區","LI":"田厝里","LIN":" ","STREET":"保安路","SECT":"二段","MAREA":" ","LANE":" ","ALLEY":" ","HOUSE_NO":"６５３號","E_COORD97":172850.39999999999,"N_COORD97":2537612.0699999998,"ADDRESS":"保安路二段６５３號","OBJECTID":63178},"geometry":{"x":172850.40000000037,"y":2537612.0700000003}},{"attributes":{"ID":63179,"DIS_CODE":0,"TOWNNAME":"仁德區","LI":"土庫里","LIN":" ","STREET":"土庫路","SECT":" ","MAREA":" ","LANE":" ","ALLEY":" ","HOUSE_NO":"１６３號","E_COORD97":174364.59,"N_COORD97":2543027.5,"ADDRESS":"土庫路１６３號","OBJECTID":63179},"geometry":{"x":174364.59000000078,"y":2543027.5000000037}},{"attributes":{"ID":63180,"DIS_CODE":0,"TOWNNAME":"永康區","LI":"埔園里","LIN":"31鄰","STREET":"永大路","SECT":"三段","MAREA":" ","LANE":"４６９巷","ALLEY":"１６６弄","HOUSE_NO":"３５號","E_COORD97":173727.07999999999,"N_COORD97":2548873.3300000001,"ADDRESS":"永大路三段４６９巷１６６弄３５號","OBJECTID":63180},"geometry":{"x":173727.08000000007,"y":2548873.3300000001}},{"attributes":{"ID":63181,"DIS_CODE":0,"TOWNNAME":"永康區","LI":"埔園里","LIN":"31鄰","STREET":"永大路","SECT":"三段","MAREA":" ","LANE":"４６９巷","ALLEY":"１６６弄","HOUSE_NO":"３３號","E_COORD97":173732.63,"N_COORD97":2548871.8300000001,"ADDRESS":"永大路三段４６９巷１６６弄３３號","OBJECTID":63181},"geometry":{"x":173732.63000000082,"y":2548871.8300000019}},{"attributes":{"ID":63182,"DIS_CODE":0,"TOWNNAME":"永康區","LI":"埔園里","LIN":"31鄰","STREET":"永大路","SECT":"三段","MAREA":" ","LANE":"４６９巷","ALLEY":"１６６弄","HOUSE_NO":"６號","E_COORD97":173729.20999999999,"N_COORD97":2548827.6899999999,"ADDRESS":"永大路三段４６９巷１６６弄６號","OBJECTID":63182},"geometry":{"x":173729.20999999996,"y":2548827.6900000013}},{"attributes":{"ID":63183,"DIS_CODE":0,"TOWNNAME":"永康區","LI":"埔園里","LIN":"31鄰","STREET":"永大路","SECT":"三段","MAREA":" ","LANE":"４６９巷","ALLEY":"１６６弄","HOUSE_NO":"１７號","E_COORD97":173693.72,"N_COORD97":2548856.2999999998,"ADDRESS":"永大路三段４６９巷１６６弄１７號","OBJECTID":63183},"geometry":{"x":173693.7200000016,"y":2548856.3000000007}},{"attributes":{"ID":63184,"DIS_CODE":0,"TOWNNAME":"永康區","LI":"埔園里","LIN":"31鄰","STREET":"永大路","SECT":"三段","MAREA":" ","LANE":"４６９巷","ALLEY":"１６６弄","HOUSE_NO":"１０號","E_COORD97":173741.89999999999,"N_COORD97":2548826.1899999999,"ADDRESS":"永大路三段４６９巷１６６弄１０號","OBJECTID":63184},"geometry":{"x":173741.90000000037,"y":2548826.1899999995}},{"attributes":{"ID":63185,"DIS_CODE":0,"TOWNNAME":"麻豆區","LI":"大埕里","LIN":"8鄰","STREET":" ","SECT":" ","MAREA":"大埕","LANE":" ","ALLEY":" ","HOUSE_NO":"２２號之２０","E_COORD97":173144.23000000001,"N_COORD97":2565137.1000000001,"ADDRESS":"大埕２２號之２０","OBJECTID":63185},"geometry":{"x":173144.23000000138,"y":2565137.0999999996}},{"attributes":{"ID":63186,"DIS_CODE":0,"TOWNNAME":"麻豆區","LI":"大埕里","LIN":"8鄰","STREET":" ","SECT":" ","MAREA":"大埕","LANE":" ","ALLEY":" ","HOUSE_NO":"２２號之２１","E_COORD97":173149.73000000001,"N_COORD97":2565135.5600000001,"ADDRESS":"大埕２２號之２１","OBJECTID":63186},"geometry":{"x":173149.73000000045,"y":2565135.5600000005}},{"attributes":{"ID":63187,"DIS_CODE":0,"TOWNNAME":"南化區","LI":"北寮里","LIN":"8鄰","STREET":" ","SECT":" ","MAREA":"北寮","LANE":" ","ALLEY":" ","HOUSE_NO":"１１２號","E_COORD97":197901.54000000001,"N_COORD97":2553117.75,"ADDRESS":"北寮１１２號","OBJECTID":63187},"geometry":{"x":197901.54000000097,"y":2553117.75}},{"attributes":{"ID":63188,"DIS_CODE":0,"TOWNNAME":"山上區","LI":"明和里","LIN":"1鄰","STREET":" ","SECT":" ","MAREA":"明和","LANE":" ","ALLEY":" ","HOUSE_NO":"８２號之７","E_COORD97":183095,"N_COORD97":2556082.2999999998,"ADDRESS":"明和８２號之７","OBJECTID":63188},"geometry":{"x":183095,"y":2556082.3000000007}},{"attributes":{"ID":63189,"DIS_CODE":0,"TOWNNAME":"山上區","LI":"明和里","LIN":"1鄰","STREET":" ","SECT":" ","MAREA":"明和","LANE":" ","ALLEY":" ","HOUSE_NO":"８２號之５","E_COORD97":183105.48000000001,"N_COORD97":2556084.2999999998,"ADDRESS":"明和８２號之５","OBJECTID":63189},"geometry":{"x":183105.48000000045,"y":2556084.3000000007}},{"attributes":{"ID":63190,"DIS_CODE":0,"TOWNNAME":"山上區","LI":"明和里","LIN":"1鄰","STREET":" ","SECT":" ","MAREA":"明和","LANE":" ","ALLEY":" ","HOUSE_NO":"８３號之３","E_COORD97":183074.82000000001,"N_COORD97":2556139.2999999998,"ADDRESS":"明和８３號之３","OBJECTID":63190},"geometry":{"x":183074.82000000216,"y":2556139.3000000007}},{"attributes":{"ID":63191,"DIS_CODE":0,"TOWNNAME":"山上區","LI":"明和里","LIN":"1鄰","STREET":" ","SECT":" ","MAREA":"明和","LANE":" ","ALLEY":" ","HOUSE_NO":"７８號","E_COORD97":182995.39000000001,"N_COORD97":2556081.25,"ADDRESS":"明和７８號","OBJECTID":63191},"geometry":{"x":182995.38999999966,"y":2556081.25}},{"attributes":{"ID":63192,"DIS_CODE":0,"TOWNNAME":"山上區","LI":"明和里","LIN":"1鄰","STREET":" ","SECT":" ","MAREA":"明和","LANE":" ","ALLEY":" ","HOUSE_NO":"７６之６號","E_COORD97":182407.39000000001,"N_COORD97":2555932.2999999998,"ADDRESS":"明和７６之６號","OBJECTID":63192},"geometry":{"x":182407.38999999873,"y":2555932.3000000007}},{"attributes":{"ID":63193,"DIS_CODE":0,"TOWNNAME":"山上區","LI":"明和里","LIN":"1鄰","STREET":" ","SECT":" ","MAREA":"明和","LANE":" ","ALLEY":" ","HOUSE_NO":"８３號之５","E_COORD97":183101.57999999999,"N_COORD97":2556151.2999999998,"ADDRESS":"明和８３號之５","OBJECTID":63193},"geometry":{"x":183101.57999999914,"y":2556151.3000000026}},{"attributes":{"ID":63194,"DIS_CODE":0,"TOWNNAME":"山上區","LI":"明和里","LIN":"1鄰","STREET":" ","SECT":" ","MAREA":"明和","LANE":" ","ALLEY":" ","HOUSE_NO":"８３號之４","E_COORD97":183107.64999999999,"N_COORD97":2556153.2999999998,"ADDRESS":"明和８３號之４","OBJECTID":63194},"geometry":{"x":183107.65000000037,"y":2556153.3000000007}},{"attributes":{"ID":63195,"DIS_CODE":0,"TOWNNAME":"山上區","LI":"明和里","LIN":"1鄰","STREET":" ","SECT":" ","MAREA":"明和","LANE":" ","ALLEY":" ","HOUSE_NO":"７９之１號","E_COORD97":182962.19,"N_COORD97":2556152.2999999998,"ADDRESS":"明和７９之１號","OBJECTID":63195},"geometry":{"x":182962.18999999948,"y":2556152.3000000007}},{"attributes":{"ID":63196,"DIS_CODE":0,"TOWNNAME":"山上區","LI":"明和里","LIN":"1鄰","STREET":" ","SECT":" ","MAREA":"明和","LANE":" ","ALLEY":" ","HOUSE_NO":"８２號之１０","E_COORD97":183081.63,"N_COORD97":2556079.2999999998,"ADDRESS":"明和８２號之１０","OBJECTID":63196},"geometry":{"x":183081.63000000082,"y":2556079.3000000045}},{"attributes":{"ID":63197,"DIS_CODE":0,"TOWNNAME":"山上區","LI":"明和里","LIN":"1鄰","STREET":" ","SECT":" ","MAREA":"明和","LANE":" ","ALLEY":" ","HOUSE_NO":"８４號","E_COORD97":183089.09,"N_COORD97":2556165.25,"ADDRESS":"明和８４號","OBJECTID":63197},"geometry":{"x":183089.08999999985,"y":2556165.25}},{"attributes":{"ID":63198,"DIS_CODE":0,"TOWNNAME":"山上區","LI":"明和里","LIN":"1鄰","STREET":" ","SECT":" ","MAREA":"明和","LANE":" ","ALLEY":" ","HOUSE_NO":"８２號之２","E_COORD97":183120.45999999999,"N_COORD97":2556087.2999999998,"ADDRESS":"明和８２號之２","OBJECTID":63198},"geometry":{"x":183120.45999999996,"y":2556087.3000000026}},{"attributes":{"ID":63199,"DIS_CODE":0,"TOWNNAME":"永康區","LI":"埔園里","LIN":"31鄰","STREET":"永大路","SECT":"三段","MAREA":" ","LANE":"４６９巷","ALLEY":"１６６弄","HOUSE_NO":"１９號","E_COORD97":173697.97,"N_COORD97":2548856.0499999998,"ADDRESS":"永大路三段４６９巷１６６弄１９號","OBJECTID":63199},"geometry":{"x":173697.97000000067,"y":2548856.0500000045}},{"attributes":{"ID":63200,"DIS_CODE":0,"TOWNNAME":"永康區","LI":"埔園里","LIN":"31鄰","STREET":"永大路","SECT":"三段","MAREA":" ","LANE":"４６９巷","ALLEY":"１６６弄","HOUSE_NO":"１６號","E_COORD97":173737.91,"N_COORD97":2548835.7000000002,"ADDRESS":"永大路三段４６９巷１６６弄１６號","OBJECTID":63200},"geometry":{"x":173737.91000000015,"y":2548835.6999999993}}]}