{"displayFieldName":"TOWNNAME","fieldAliases":{"ID":"ID","DIS_CODE":"DIS_CODE","TOWNNAME":"TOWNNAME","LI":"LI","LIN":"LIN","STREET":"STREET","SECT":"SECT","MAREA":"MAREA","LANE":"LANE","ALLEY":"ALLEY","HOUSE_NO":"HOUSE_NO","E_COORD97":"E_COORD97","N_COORD97":"N_COORD97","ADDRESS":"ADDRESS","OBJECTID":"OBJECTID"},"geometryType":"esriGeometryPoint","spatialReference":{"wkid":102443,"latestWkid":3826},"fields":[{"name":"ID","type":"esriFieldTypeDouble","alias":"ID"},{"name":"DIS_CODE","type":"esriFieldTypeInteger","alias":"DIS_CODE"},{"name":"TOWNNAME","type":"esriFieldTypeString","alias":"TOWNNAME","length":8},{"name":"LI","type":"esriFieldTypeString","alias":"LI","length":8},{"name":"LIN","type":"esriFieldTypeString","alias":"LIN","length":12},{"name":"STREET","type":"esriFieldTypeString","alias":"STREET","length":20},{"name":"SECT","type":"esriFieldTypeString","alias":"SECT","length":8},{"name":"MAREA","type":"esriFieldTypeString","alias":"MAREA","length":12},{"name":"LANE","type":"esriFieldTypeString","alias":"LANE","length":10},{"name":"ALLEY","type":"esriFieldTypeString","alias":"ALLEY","length":10},{"name":"HOUSE_NO","type":"esriFieldTypeString","alias":"HOUSE_NO","length":20},{"name":"E_COORD97","type":"esriFieldTypeDouble","alias":"E_COORD97"},{"name":"N_COORD97","type":"esriFieldTypeDouble","alias":"N_COORD97"},{"name":"ADDRESS","type":"esriFieldTypeString","alias":"ADDRESS","length":50},{"name":"OBJECTID","type":"esriFieldTypeOID","alias":"OBJECTID"}],"features":[{"attributes":{"ID":342810,"DIS_CODE":0,"TOWNNAME":"東區","LI":"富裕里","LIN":"1鄰","STREET":"東門路","SECT":"二段","MAREA":" ","LANE":"２６９巷","ALLEY":" ","HOUSE_NO":"２９號","E_COORD97":170637.26999999999,"N_COORD97":2542808.75,"ADDRESS":"東門路二段２６９巷２９號","OBJECTID":342801},"geometry":{"x":170637.27000000048,"y":2542808.7500000037}},{"attributes":{"ID":342811,"DIS_CODE":0,"TOWNNAME":"東區","LI":"富裕里","LIN":"1鄰","STREET":"東門路","SECT":"二段","MAREA":" ","LANE":"２６９巷","ALLEY":" ","HOUSE_NO":"２號","E_COORD97":170662.13,"N_COORD97":2542706.6600000001,"ADDRESS":"東門路二段２６９巷２號","OBJECTID":342802},"geometry":{"x":170662.13000000082,"y":2542706.6600000001}},{"attributes":{"ID":342812,"DIS_CODE":0,"TOWNNAME":"東區","LI":"富裕里","LIN":"1鄰","STREET":"東門路","SECT":"二段","MAREA":" ","LANE":"２６９巷","ALLEY":" ","HOUSE_NO":"３０號","E_COORD97":170654.67999999999,"N_COORD97":2542763.3199999998,"ADDRESS":"東門路二段２６９巷３０號","OBJECTID":342803},"geometry":{"x":170654.68000000063,"y":2542763.3200000003}},{"attributes":{"ID":342813,"DIS_CODE":0,"TOWNNAME":"東區","LI":"富裕里","LIN":"1鄰","STREET":"東門路","SECT":"二段","MAREA":" ","LANE":"２６９巷","ALLEY":" ","HOUSE_NO":"３４號","E_COORD97":170656.39999999999,"N_COORD97":2542775.27,"ADDRESS":"東門路二段２６９巷３４號","OBJECTID":342804},"geometry":{"x":170656.40000000037,"y":2542775.2700000014}},{"attributes":{"ID":342814,"DIS_CODE":0,"TOWNNAME":"東區","LI":"富裕里","LIN":"1鄰","STREET":"東門路","SECT":"二段","MAREA":" ","LANE":"２６９巷","ALLEY":" ","HOUSE_NO":"３６號","E_COORD97":170655.32000000001,"N_COORD97":2542782.9100000001,"ADDRESS":"東門路二段２６９巷３６號","OBJECTID":342805},"geometry":{"x":170655.3200000003,"y":2542782.9100000001}},{"attributes":{"ID":342815,"DIS_CODE":0,"TOWNNAME":"新化區","LI":"北勢里","LIN":"8鄰","STREET":"永新路","SECT":" ","MAREA":" ","LANE":" ","ALLEY":" ","HOUSE_NO":"３７號八樓之１","E_COORD97":177802.29999999999,"N_COORD97":2550963.2999999998,"ADDRESS":"永新路３７號八樓之１","OBJECTID":342806},"geometry":{"x":177802.29999999981,"y":2550963.3000000045}},{"attributes":{"ID":342816,"DIS_CODE":0,"TOWNNAME":"新化區","LI":"北勢里","LIN":"8鄰","STREET":"永新路","SECT":" ","MAREA":" ","LANE":" ","ALLEY":" ","HOUSE_NO":"１３號二樓之２","E_COORD97":177802.42999999999,"N_COORD97":2550963.2999999998,"ADDRESS":"永新路１３號二樓之２","OBJECTID":342807},"geometry":{"x":177802.4299999997,"y":2550963.3000000045}},{"attributes":{"ID":342817,"DIS_CODE":0,"TOWNNAME":"新化區","LI":"北勢里","LIN":"8鄰","STREET":"永新路","SECT":" ","MAREA":" ","LANE":" ","ALLEY":" ","HOUSE_NO":"２３號二樓之３","E_COORD97":177802.39999999999,"N_COORD97":2550963.2999999998,"ADDRESS":"永新路２３號二樓之３","OBJECTID":342808},"geometry":{"x":177802.40000000224,"y":2550963.3000000045}},{"attributes":{"ID":342818,"DIS_CODE":0,"TOWNNAME":"新化區","LI":"北勢里","LIN":"8鄰","STREET":"永新路","SECT":" ","MAREA":" ","LANE":" ","ALLEY":" ","HOUSE_NO":"２３號四樓之１","E_COORD97":177802.29999999999,"N_COORD97":2550963.2999999998,"ADDRESS":"永新路２３號四樓之１","OBJECTID":342809},"geometry":{"x":177802.29999999981,"y":2550963.3000000045}},{"attributes":{"ID":342819,"DIS_CODE":0,"TOWNNAME":"柳營區","LI":"果毅里","LIN":"5鄰","STREET":" ","SECT":" ","MAREA":"果毅後","LANE":" ","ALLEY":" ","HOUSE_NO":"５２號","E_COORD97":185637.41,"N_COORD97":2572954.9700000002,"ADDRESS":"果毅後５２號","OBJECTID":342810},"geometry":{"x":185637.41000000108,"y":2572954.9700000007}},{"attributes":{"ID":342820,"DIS_CODE":0,"TOWNNAME":"柳營區","LI":"果毅里","LIN":"5鄰","STREET":" ","SECT":" ","MAREA":"果毅後","LANE":" ","ALLEY":" ","HOUSE_NO":"５９號","E_COORD97":185678.88,"N_COORD97":2572971.6499999999,"ADDRESS":"果毅後５９號","OBJECTID":342811},"geometry":{"x":185678.87999999989,"y":2572971.6500000022}},{"attributes":{"ID":342821,"DIS_CODE":0,"TOWNNAME":"柳營區","LI":"果毅里","LIN":"5鄰","STREET":" ","SECT":" ","MAREA":"果毅後","LANE":" ","ALLEY":" ","HOUSE_NO":"５１號","E_COORD97":185632.97,"N_COORD97":2572937.5699999998,"ADDRESS":"果毅後５１號","OBJECTID":342812},"geometry":{"x":185632.9700000016,"y":2572937.5700000022}},{"attributes":{"ID":342822,"DIS_CODE":0,"TOWNNAME":"歸仁區","LI":"七甲里","LIN":"5鄰","STREET":"中正北路","SECT":"二段","MAREA":" ","LANE":"４１８巷","ALLEY":" ","HOUSE_NO":"５號","E_COORD97":177523.51999999999,"N_COORD97":2543052.2599999998,"ADDRESS":"中正北路二段４１８巷５號","OBJECTID":342813},"geometry":{"x":177523.52000000048,"y":2543052.2599999998}},{"attributes":{"ID":342823,"DIS_CODE":0,"TOWNNAME":"歸仁區","LI":"大潭里","LIN":"5鄰","STREET":"長榮路","SECT":"一段","MAREA":" ","LANE":"２４５巷","ALLEY":" ","HOUSE_NO":"２８號","E_COORD97":175218.12,"N_COORD97":2534637.2799999998,"ADDRESS":"長榮路一段２４５巷２８號","OBJECTID":342814},"geometry":{"x":175218.12000000011,"y":2534637.2800000031}},{"attributes":{"ID":342824,"DIS_CODE":0,"TOWNNAME":"柳營區","LI":"果毅里","LIN":"5鄰","STREET":" ","SECT":" ","MAREA":"果毅後","LANE":" ","ALLEY":" ","HOUSE_NO":"５３號之１","E_COORD97":185661.42999999999,"N_COORD97":2572971.8900000001,"ADDRESS":"果毅後５３號之１","OBJECTID":342815},"geometry":{"x":185661.4299999997,"y":2572971.8900000006}},{"attributes":{"ID":342825,"DIS_CODE":0,"TOWNNAME":"歸仁區","LI":"文化里","LIN":"5鄰","STREET":"民權一街","SECT":" ","MAREA":" ","LANE":"３８巷","ALLEY":" ","HOUSE_NO":"３號","E_COORD97":177303.45000000001,"N_COORD97":2541322.3300000001,"ADDRESS":"民權一街３８巷３號","OBJECTID":342816},"geometry":{"x":177303.45000000205,"y":2541322.3300000001}},{"attributes":{"ID":342826,"DIS_CODE":0,"TOWNNAME":"歸仁區","LI":"大廟里","LIN":"5鄰","STREET":"和順路","SECT":"二段","MAREA":" ","LANE":"２９７巷","ALLEY":" ","HOUSE_NO":"２７號","E_COORD97":175776.69,"N_COORD97":2543481.2799999998,"ADDRESS":"和順路二段２９７巷２７號","OBJECTID":342817},"geometry":{"x":175776.69000000134,"y":2543481.2799999993}},{"attributes":{"ID":342827,"DIS_CODE":0,"TOWNNAME":"柳營區","LI":"果毅里","LIN":"5鄰","STREET":" ","SECT":" ","MAREA":"果毅後","LANE":" ","ALLEY":" ","HOUSE_NO":"５３號之２","E_COORD97":185665.70000000001,"N_COORD97":2572970.75,"ADDRESS":"果毅後５３號之２","OBJECTID":342818},"geometry":{"x":185665.69999999925,"y":2572970.7500000019}},{"attributes":{"ID":342828,"DIS_CODE":0,"TOWNNAME":"柳營區","LI":"果毅里","LIN":"5鄰","STREET":" ","SECT":" ","MAREA":"果毅後","LANE":" ","ALLEY":" ","HOUSE_NO":"５３號之３","E_COORD97":185652.04000000001,"N_COORD97":2572971.4100000001,"ADDRESS":"果毅後５３號之３","OBJECTID":342819},"geometry":{"x":185652.04000000097,"y":2572971.4100000001}},{"attributes":{"ID":342829,"DIS_CODE":0,"TOWNNAME":"柳營區","LI":"果毅里","LIN":"5鄰","STREET":" ","SECT":" ","MAREA":"果毅後","LANE":" ","ALLEY":" ","HOUSE_NO":"５３號","E_COORD97":185642.88,"N_COORD97":2572973.9399999999,"ADDRESS":"果毅後５３號","OBJECTID":342820},"geometry":{"x":185642.88000000082,"y":2572973.9399999995}},{"attributes":{"ID":342830,"DIS_CODE":0,"TOWNNAME":"新化區","LI":"豐榮里","LIN":"10鄰","STREET":"信義路","SECT":" ","MAREA":" ","LANE":"４７０巷","ALLEY":" ","HOUSE_NO":"８號","E_COORD97":178520.42999999999,"N_COORD97":2548313.25,"ADDRESS":"信義路４７０巷８號","OBJECTID":342821},"geometry":{"x":178520.43000000063,"y":2548313.25}},{"attributes":{"ID":342831,"DIS_CODE":0,"TOWNNAME":"柳營區","LI":"果毅里","LIN":"5鄰","STREET":" ","SECT":" ","MAREA":"果毅後","LANE":" ","ALLEY":" ","HOUSE_NO":"５４號","E_COORD97":185661.92999999999,"N_COORD97":2572948.8199999998,"ADDRESS":"果毅後５４號","OBJECTID":342822},"geometry":{"x":185661.92999999877,"y":2572948.8200000003}},{"attributes":{"ID":342832,"DIS_CODE":0,"TOWNNAME":"新化區","LI":"豐榮里","LIN":"13鄰","STREET":"民治路","SECT":" ","MAREA":" ","LANE":"１３巷","ALLEY":" ","HOUSE_NO":"５號","E_COORD97":178702.76000000001,"N_COORD97":2547982.25,"ADDRESS":"民治路１３巷５號","OBJECTID":342823},"geometry":{"x":178702.75999999885,"y":2547982.2499999981}},{"attributes":{"ID":342833,"DIS_CODE":0,"TOWNNAME":"東區","LI":"富裕里","LIN":"1鄰","STREET":"東門路","SECT":"二段","MAREA":" ","LANE":"２６９巷","ALLEY":" ","HOUSE_NO":"３號","E_COORD97":170640.01000000001,"N_COORD97":2542730.25,"ADDRESS":"東門路二段２６９巷３號","OBJECTID":342824},"geometry":{"x":170640.00999999978,"y":2542730.25}},{"attributes":{"ID":342834,"DIS_CODE":0,"TOWNNAME":"柳營區","LI":"果毅里","LIN":"5鄰","STREET":" ","SECT":" ","MAREA":"果毅後","LANE":" ","ALLEY":" ","HOUSE_NO":"５５號之１","E_COORD97":185661.12,"N_COORD97":2572927.2599999998,"ADDRESS":"果毅後５５號之１","OBJECTID":342825},"geometry":{"x":185661.11999999918,"y":2572927.2599999998}},{"attributes":{"ID":342835,"DIS_CODE":0,"TOWNNAME":"新化區","LI":"北勢里","LIN":"8鄰","STREET":"永新路","SECT":" ","MAREA":" ","LANE":" ","ALLEY":" ","HOUSE_NO":"２３號七樓之３","E_COORD97":177802.39999999999,"N_COORD97":2550963.2999999998,"ADDRESS":"永新路２３號七樓之３","OBJECTID":342826},"geometry":{"x":177802.40000000224,"y":2550963.3000000045}},{"attributes":{"ID":342836,"DIS_CODE":0,"TOWNNAME":"柳營區","LI":"果毅里","LIN":"5鄰","STREET":" ","SECT":" ","MAREA":"果毅後","LANE":" ","ALLEY":" ","HOUSE_NO":"５５號","E_COORD97":185672.09,"N_COORD97":2572927.6299999999,"ADDRESS":"果毅後５５號","OBJECTID":342827},"geometry":{"x":185672.09000000078,"y":2572927.629999999}},{"attributes":{"ID":342837,"DIS_CODE":0,"TOWNNAME":"新化區","LI":"北勢里","LIN":"8鄰","STREET":"永新路","SECT":" ","MAREA":" ","LANE":" ","ALLEY":" ","HOUSE_NO":"３５號七樓之２","E_COORD97":177802.42999999999,"N_COORD97":2550963.2999999998,"ADDRESS":"永新路３５號七樓之２","OBJECTID":342828},"geometry":{"x":177802.4299999997,"y":2550963.3000000045}},{"attributes":{"ID":342838,"DIS_CODE":0,"TOWNNAME":"新化區","LI":"北勢里","LIN":"8鄰","STREET":"永新路","SECT":" ","MAREA":" ","LANE":" ","ALLEY":" ","HOUSE_NO":"３５號五樓之１","E_COORD97":177802.29999999999,"N_COORD97":2550963.2999999998,"ADDRESS":"永新路３５號五樓之１","OBJECTID":342829},"geometry":{"x":177802.29999999981,"y":2550963.3000000045}},{"attributes":{"ID":342839,"DIS_CODE":0,"TOWNNAME":"新化區","LI":"北勢里","LIN":"8鄰","STREET":"永新路","SECT":" ","MAREA":" ","LANE":" ","ALLEY":" ","HOUSE_NO":"３５號八樓之１","E_COORD97":177802.29999999999,"N_COORD97":2550963.2999999998,"ADDRESS":"永新路３５號八樓之１","OBJECTID":342830},"geometry":{"x":177802.29999999981,"y":2550963.3000000045}},{"attributes":{"ID":342840,"DIS_CODE":0,"TOWNNAME":"柳營區","LI":"果毅里","LIN":"5鄰","STREET":" ","SECT":" ","MAREA":"果毅後","LANE":" ","ALLEY":" ","HOUSE_NO":"５６之１號","E_COORD97":185685.35000000001,"N_COORD97":2572928.0600000001,"ADDRESS":"果毅後５６之１號","OBJECTID":342831},"geometry":{"x":185685.35000000056,"y":2572928.0600000024}},{"attributes":{"ID":342841,"DIS_CODE":0,"TOWNNAME":"柳營區","LI":"果毅里","LIN":"5鄰","STREET":" ","SECT":" ","MAREA":"果毅後","LANE":" ","ALLEY":" ","HOUSE_NO":"５６號","E_COORD97":185686.75,"N_COORD97":2572922.5299999998,"ADDRESS":"果毅後５６號","OBJECTID":342832},"geometry":{"x":185686.75,"y":2572922.5299999993}},{"attributes":{"ID":342842,"DIS_CODE":0,"TOWNNAME":"柳營區","LI":"果毅里","LIN":"5鄰","STREET":" ","SECT":" ","MAREA":"果毅後","LANE":" ","ALLEY":" ","HOUSE_NO":"５７號","E_COORD97":185678.57999999999,"N_COORD97":2572935.8900000001,"ADDRESS":"果毅後５７號","OBJECTID":342833},"geometry":{"x":185678.58000000101,"y":2572935.8900000025}},{"attributes":{"ID":342843,"DIS_CODE":0,"TOWNNAME":"柳營區","LI":"果毅里","LIN":"5鄰","STREET":" ","SECT":" ","MAREA":"果毅後","LANE":" ","ALLEY":" ","HOUSE_NO":"５９號之１","E_COORD97":185680.17999999999,"N_COORD97":2572952.23,"ADDRESS":"果毅後５９號之１","OBJECTID":342834},"geometry":{"x":185680.1799999997,"y":2572952.2300000004}},{"attributes":{"ID":342844,"DIS_CODE":0,"TOWNNAME":"柳營區","LI":"果毅里","LIN":"5鄰","STREET":" ","SECT":" ","MAREA":"果毅後","LANE":" ","ALLEY":" ","HOUSE_NO":"５９號之２","E_COORD97":185679,"N_COORD97":2572956.1600000001,"ADDRESS":"果毅後５９號之２","OBJECTID":342835},"geometry":{"x":185679.00000000093,"y":2572956.1600000001}},{"attributes":{"ID":342845,"DIS_CODE":0,"TOWNNAME":"柳營區","LI":"果毅里","LIN":"5鄰","STREET":" ","SECT":" ","MAREA":"果毅後","LANE":" ","ALLEY":" ","HOUSE_NO":"５９號之３","E_COORD97":185677.82999999999,"N_COORD97":2572960.0899999999,"ADDRESS":"果毅後５９號之３","OBJECTID":342836},"geometry":{"x":185677.83000000007,"y":2572960.089999998}},{"attributes":{"ID":342846,"DIS_CODE":0,"TOWNNAME":"柳營區","LI":"果毅里","LIN":"5鄰","STREET":" ","SECT":" ","MAREA":"果毅後","LANE":" ","ALLEY":" ","HOUSE_NO":"５９號之４","E_COORD97":185676.64999999999,"N_COORD97":2572964.02,"ADDRESS":"果毅後５９號之４","OBJECTID":342837},"geometry":{"x":185676.65000000224,"y":2572964.0200000033}},{"attributes":{"ID":342847,"DIS_CODE":0,"TOWNNAME":"柳營區","LI":"中埕里","LIN":"5鄰","STREET":" ","SECT":" ","MAREA":"柳營","LANE":" ","ALLEY":" ","HOUSE_NO":"３１１號","E_COORD97":179942.97,"N_COORD97":2575149.3199999998,"ADDRESS":"柳營３１１號","OBJECTID":342838},"geometry":{"x":179942.97000000067,"y":2575149.3199999984}},{"attributes":{"ID":342848,"DIS_CODE":0,"TOWNNAME":"柳營區","LI":"中埕里","LIN":"5鄰","STREET":" ","SECT":" ","MAREA":"柳營","LANE":" ","ALLEY":" ","HOUSE_NO":"３１３號","E_COORD97":179932.22,"N_COORD97":2575164.3599999999,"ADDRESS":"柳營３１３號","OBJECTID":342839},"geometry":{"x":179932.22000000067,"y":2575164.3599999994}},{"attributes":{"ID":342849,"DIS_CODE":0,"TOWNNAME":"柳營區","LI":"中埕里","LIN":"5鄰","STREET":" ","SECT":" ","MAREA":"柳營","LANE":" ","ALLEY":" ","HOUSE_NO":"３１８號","E_COORD97":179899.79999999999,"N_COORD97":2575205.1200000001,"ADDRESS":"柳營３１８號","OBJECTID":342840},"geometry":{"x":179899.80000000075,"y":2575205.120000001}},{"attributes":{"ID":342850,"DIS_CODE":0,"TOWNNAME":"柳營區","LI":"中埕里","LIN":"5鄰","STREET":" ","SECT":" ","MAREA":"柳營","LANE":" ","ALLEY":" ","HOUSE_NO":"３１９號","E_COORD97":179891.70000000001,"N_COORD97":2575241.46,"ADDRESS":"柳營３１９號","OBJECTID":342841},"geometry":{"x":179891.70000000019,"y":2575241.4600000028}},{"attributes":{"ID":342851,"DIS_CODE":0,"TOWNNAME":"柳營區","LI":"東昇里","LIN":"5鄰","STREET":" ","SECT":" ","MAREA":"柳營","LANE":" ","ALLEY":" ","HOUSE_NO":"４０７號","E_COORD97":179986.62,"N_COORD97":2575386.4700000002,"ADDRESS":"柳營４０７號","OBJECTID":342842},"geometry":{"x":179986.62000000011,"y":2575386.4700000025}},{"attributes":{"ID":342852,"DIS_CODE":0,"TOWNNAME":"柳營區","LI":"東昇里","LIN":"5鄰","STREET":" ","SECT":" ","MAREA":"柳營","LANE":" ","ALLEY":" ","HOUSE_NO":"４０８號之１","E_COORD97":180012.04999999999,"N_COORD97":2575386.2000000002,"ADDRESS":"柳營４０８號之１","OBJECTID":342843},"geometry":{"x":180012.05000000075,"y":2575386.1999999993}},{"attributes":{"ID":342853,"DIS_CODE":0,"TOWNNAME":"柳營區","LI":"東昇里","LIN":"5鄰","STREET":" ","SECT":" ","MAREA":"柳營","LANE":" ","ALLEY":" ","HOUSE_NO":"４０８號之２","E_COORD97":180008.25,"N_COORD97":2575384.7999999998,"ADDRESS":"柳營４０８號之２","OBJECTID":342844},"geometry":{"x":180008.25,"y":2575384.8000000026}},{"attributes":{"ID":342854,"DIS_CODE":0,"TOWNNAME":"柳營區","LI":"東昇里","LIN":"5鄰","STREET":" ","SECT":" ","MAREA":"柳營","LANE":" ","ALLEY":" ","HOUSE_NO":"４０８之３號","E_COORD97":180005.07999999999,"N_COORD97":2575383.0699999998,"ADDRESS":"柳營４０８之３號","OBJECTID":342845},"geometry":{"x":180005.08000000101,"y":2575383.0700000022}},{"attributes":{"ID":342855,"DIS_CODE":0,"TOWNNAME":"東區","LI":"富裕里","LIN":"1鄰","STREET":"東門路","SECT":"二段","MAREA":" ","LANE":"２６９巷","ALLEY":" ","HOUSE_NO":"４４號","E_COORD97":170652.5,"N_COORD97":2542811.8100000001,"ADDRESS":"東門路二段２６９巷４４號","OBJECTID":342846},"geometry":{"x":170652.5,"y":2542811.8100000005}},{"attributes":{"ID":342856,"DIS_CODE":0,"TOWNNAME":"柳營區","LI":"旭山里","LIN":"5鄰","STREET":" ","SECT":" ","MAREA":"新吉庄","LANE":" ","ALLEY":" ","HOUSE_NO":"３６之１０號","E_COORD97":187304.98000000001,"N_COORD97":2573754.4100000001,"ADDRESS":"新吉庄３６之１０號","OBJECTID":342847},"geometry":{"x":187304.98000000045,"y":2573754.4100000001}},{"attributes":{"ID":342857,"DIS_CODE":0,"TOWNNAME":"柳營區","LI":"旭山里","LIN":"5鄰","STREET":" ","SECT":" ","MAREA":"新吉庄","LANE":" ","ALLEY":" ","HOUSE_NO":"３６之１１號","E_COORD97":187324.53,"N_COORD97":2573751.54,"ADDRESS":"新吉庄３６之１１號","OBJECTID":342848},"geometry":{"x":187324.53000000026,"y":2573751.540000001}},{"attributes":{"ID":342858,"DIS_CODE":0,"TOWNNAME":"柳營區","LI":"旭山里","LIN":"5鄰","STREET":" ","SECT":" ","MAREA":"新吉庄","LANE":" ","ALLEY":" ","HOUSE_NO":"３６之１２號","E_COORD97":187319.78,"N_COORD97":2573752.1899999999,"ADDRESS":"新吉庄３６之１２號","OBJECTID":342849},"geometry":{"x":187319.77999999933,"y":2573752.1899999995}},{"attributes":{"ID":342859,"DIS_CODE":0,"TOWNNAME":"柳營區","LI":"旭山里","LIN":"5鄰","STREET":" ","SECT":" ","MAREA":"新吉庄","LANE":" ","ALLEY":" ","HOUSE_NO":"３６之１３號","E_COORD97":187309.91,"N_COORD97":2573753.6099999999,"ADDRESS":"新吉庄３６之１３號","OBJECTID":342850},"geometry":{"x":187309.91000000015,"y":2573753.6100000013}},{"attributes":{"ID":342860,"DIS_CODE":0,"TOWNNAME":"柳營區","LI":"旭山里","LIN":"5鄰","STREET":" ","SECT":" ","MAREA":"新吉庄","LANE":" ","ALLEY":" ","HOUSE_NO":"３６之１５號","E_COORD97":187344.09,"N_COORD97":2573755.1200000001,"ADDRESS":"新吉庄３６之１５號","OBJECTID":342851},"geometry":{"x":187344.08999999985,"y":2573755.1200000029}},{"attributes":{"ID":342861,"DIS_CODE":0,"TOWNNAME":"柳營區","LI":"旭山里","LIN":"5鄰","STREET":" ","SECT":" ","MAREA":"新吉庄","LANE":" ","ALLEY":" ","HOUSE_NO":"３６之１號","E_COORD97":187244.34,"N_COORD97":2573780.6200000001,"ADDRESS":"新吉庄３６之１號","OBJECTID":342852},"geometry":{"x":187244.33999999892,"y":2573780.620000001}},{"attributes":{"ID":342862,"DIS_CODE":0,"TOWNNAME":"柳營區","LI":"大農里","LIN":"5鄰","STREET":"義士路","SECT":"一段","MAREA":" ","LANE":"２４７巷","ALLEY":" ","HOUSE_NO":"１３２號","E_COORD97":186185,"N_COORD97":2575658.02,"ADDRESS":"義士路一段２４７巷１３２號","OBJECTID":342853},"geometry":{"x":186185,"y":2575658.0199999996}},{"attributes":{"ID":342863,"DIS_CODE":0,"TOWNNAME":"東區","LI":"富裕里","LIN":"1鄰","STREET":"東門路","SECT":"二段","MAREA":" ","LANE":"２６９巷","ALLEY":" ","HOUSE_NO":"６號","E_COORD97":170663.79000000001,"N_COORD97":2542714.3399999999,"ADDRESS":"東門路二段２６９巷６號","OBJECTID":342854},"geometry":{"x":170663.79000000004,"y":2542714.3400000017}},{"attributes":{"ID":342864,"DIS_CODE":0,"TOWNNAME":"東區","LI":"富裕里","LIN":"1鄰","STREET":"東門路","SECT":"二段","MAREA":" ","LANE":"２６９巷","ALLEY":" ","HOUSE_NO":"７號","E_COORD97":170640.76999999999,"N_COORD97":2542740.1800000002,"ADDRESS":"東門路二段２６９巷７號","OBJECTID":342855},"geometry":{"x":170640.77000000048,"y":2542740.1799999997}},{"attributes":{"ID":342865,"DIS_CODE":0,"TOWNNAME":"新化區","LI":"北勢里","LIN":"8鄰","STREET":"永新路","SECT":" ","MAREA":" ","LANE":" ","ALLEY":" ","HOUSE_NO":"３５號八樓之２","E_COORD97":177802.42999999999,"N_COORD97":2550963.2999999998,"ADDRESS":"永新路３５號八樓之２","OBJECTID":342856},"geometry":{"x":177802.4299999997,"y":2550963.3000000045}},{"attributes":{"ID":342866,"DIS_CODE":0,"TOWNNAME":"新化區","LI":"北勢里","LIN":"8鄰","STREET":"永新路","SECT":" ","MAREA":" ","LANE":" ","ALLEY":" ","HOUSE_NO":"３７號八樓之３","E_COORD97":177802.39999999999,"N_COORD97":2550963.2999999998,"ADDRESS":"永新路３７號八樓之３","OBJECTID":342857},"geometry":{"x":177802.40000000224,"y":2550963.3000000045}},{"attributes":{"ID":342867,"DIS_CODE":0,"TOWNNAME":"柳營區","LI":"大農里","LIN":"5鄰","STREET":"義士路","SECT":"一段","MAREA":" ","LANE":"２４７巷","ALLEY":" ","HOUSE_NO":"１０１號","E_COORD97":186186.54000000001,"N_COORD97":2575645.79,"ADDRESS":"義士路一段２４７巷１０１號","OBJECTID":342858},"geometry":{"x":186186.54000000004,"y":2575645.7899999991}},{"attributes":{"ID":342868,"DIS_CODE":0,"TOWNNAME":"東區","LI":"富裕里","LIN":"1鄰","STREET":"東門路","SECT":"二段","MAREA":" ","LANE":"２６９巷","ALLEY":" ","HOUSE_NO":"８號","E_COORD97":170657.79999999999,"N_COORD97":2542718.9199999999,"ADDRESS":"東門路二段２６９巷８號","OBJECTID":342859},"geometry":{"x":170657.80000000075,"y":2542718.9199999999}},{"attributes":{"ID":342869,"DIS_CODE":0,"TOWNNAME":"新化區","LI":"北勢里","LIN":"8鄰","STREET":"永新路","SECT":" ","MAREA":" ","LANE":" ","ALLEY":" ","HOUSE_NO":"２３號二樓之２","E_COORD97":177802.42999999999,"N_COORD97":2550963.2999999998,"ADDRESS":"永新路２３號二樓之２","OBJECTID":342860},"geometry":{"x":177802.4299999997,"y":2550963.3000000045}},{"attributes":{"ID":342870,"DIS_CODE":0,"TOWNNAME":"新化區","LI":"北勢里","LIN":"8鄰","STREET":"永新路","SECT":" ","MAREA":" ","LANE":" ","ALLEY":" ","HOUSE_NO":"１３號八樓之２","E_COORD97":177802.42999999999,"N_COORD97":2550963.2999999998,"ADDRESS":"永新路１３號八樓之２","OBJECTID":342861},"geometry":{"x":177802.4299999997,"y":2550963.3000000045}},{"attributes":{"ID":342871,"DIS_CODE":0,"TOWNNAME":"柳營區","LI":"人和里","LIN":"5鄰","STREET":" ","SECT":" ","MAREA":"橋南","LANE":" ","ALLEY":" ","HOUSE_NO":"３２之５號","E_COORD97":178629.16,"N_COORD97":2576047.0299999998,"ADDRESS":"橋南３２之５號","OBJECTID":342862},"geometry":{"x":178629.16000000015,"y":2576047.0300000012}},{"attributes":{"ID":342872,"DIS_CODE":0,"TOWNNAME":"柳營區","LI":"大農里","LIN":"5鄰","STREET":"義士路","SECT":"一段","MAREA":" ","LANE":"３４３巷","ALLEY":" ","HOUSE_NO":"１２號","E_COORD97":186132.35999999999,"N_COORD97":2575680.1299999999,"ADDRESS":"義士路一段３４３巷１２號","OBJECTID":342863},"geometry":{"x":186132.36000000034,"y":2575680.129999999}},{"attributes":{"ID":342873,"DIS_CODE":0,"TOWNNAME":"柳營區","LI":"大農里","LIN":"5鄰","STREET":"義士路","SECT":"一段","MAREA":" ","LANE":"３４３巷","ALLEY":" ","HOUSE_NO":"１號","E_COORD97":186169.48000000001,"N_COORD97":2575702.79,"ADDRESS":"義士路一段３４３巷１號","OBJECTID":342864},"geometry":{"x":186169.48000000231,"y":2575702.7899999991}},{"attributes":{"ID":342874,"DIS_CODE":0,"TOWNNAME":"柳營區","LI":"大農里","LIN":"5鄰","STREET":"義士路","SECT":"一段","MAREA":" ","LANE":"３４３巷","ALLEY":" ","HOUSE_NO":"２號","E_COORD97":186143.32999999999,"N_COORD97":2575691.7000000002,"ADDRESS":"義士路一段３４３巷２號","OBJECTID":342865},"geometry":{"x":186143.33000000101,"y":2575691.700000003}},{"attributes":{"ID":342875,"DIS_CODE":0,"TOWNNAME":"東區","LI":"富裕里","LIN":"1鄰","STREET":"東門路","SECT":"二段","MAREA":" ","LANE":"２６９巷","ALLEY":" ","HOUSE_NO":"９號","E_COORD97":170643.89999999999,"N_COORD97":2542749.0800000001,"ADDRESS":"東門路二段２６９巷９號","OBJECTID":342866},"geometry":{"x":170643.9000000013,"y":2542749.0800000038}},{"attributes":{"ID":342876,"DIS_CODE":0,"TOWNNAME":"東區","LI":"富裕里","LIN":"1鄰","STREET":"東門路","SECT":"二段","MAREA":" ","LANE":"２６９巷","ALLEY":" ","HOUSE_NO":"４號","E_COORD97":170663.92000000001,"N_COORD97":2542710.48,"ADDRESS":"東門路二段２６９巷４號","OBJECTID":342867},"geometry":{"x":170663.92000000086,"y":2542710.4800000023}},{"attributes":{"ID":342877,"DIS_CODE":0,"TOWNNAME":"東區","LI":"富裕里","LIN":"1鄰","STREET":"東門路","SECT":"二段","MAREA":" ","LANE":"２６９巷","ALLEY":" ","HOUSE_NO":"２０號","E_COORD97":170658.04999999999,"N_COORD97":2542738.5600000001,"ADDRESS":"東門路二段２６９巷２０號","OBJECTID":342868},"geometry":{"x":170658.05000000075,"y":2542738.5600000005}},{"attributes":{"ID":342878,"DIS_CODE":0,"TOWNNAME":"東區","LI":"泉南里","LIN":"1鄰","STREET":"東門路","SECT":"一段","MAREA":" ","LANE":"２１２巷","ALLEY":" ","HOUSE_NO":"４號","E_COORD97":169663.04999999999,"N_COORD97":2543060.3799999999,"ADDRESS":"東門路一段２１２巷４號","OBJECTID":342869},"geometry":{"x":169663.04999999981,"y":2543060.379999999}},{"attributes":{"ID":342879,"DIS_CODE":0,"TOWNNAME":"東區","LI":"新東里","LIN":"1鄰","STREET":"東門路","SECT":"二段","MAREA":" ","LANE":"１６７巷","ALLEY":" ","HOUSE_NO":"２號","E_COORD97":170412.22,"N_COORD97":2542875.5699999998,"ADDRESS":"東門路二段１６７巷２號","OBJECTID":342870},"geometry":{"x":170412.22000000067,"y":2542875.5700000022}},{"attributes":{"ID":342880,"DIS_CODE":0,"TOWNNAME":"東區","LI":"新東里","LIN":"1鄰","STREET":"東門路","SECT":"二段","MAREA":" ","LANE":"１６７巷","ALLEY":" ","HOUSE_NO":"４號","E_COORD97":170411.64999999999,"N_COORD97":2542880.5699999998,"ADDRESS":"東門路二段１６７巷４號","OBJECTID":342871},"geometry":{"x":170411.6500000013,"y":2542880.5700000003}},{"attributes":{"ID":342881,"DIS_CODE":0,"TOWNNAME":"東區","LI":"自強里","LIN":"1鄰","STREET":"東成街","SECT":" ","MAREA":" ","LANE":"７１巷","ALLEY":" ","HOUSE_NO":"１７號","E_COORD97":171412.67999999999,"N_COORD97":2542351.9300000002,"ADDRESS":"東成街７１巷１７號","OBJECTID":342872},"geometry":{"x":171412.68000000063,"y":2542351.9299999997}},{"attributes":{"ID":342882,"DIS_CODE":0,"TOWNNAME":"東區","LI":"自強里","LIN":"1鄰","STREET":"東成街","SECT":" ","MAREA":" ","LANE":"７１巷","ALLEY":" ","HOUSE_NO":"１８號","E_COORD97":171422.23999999999,"N_COORD97":2542336.4500000002,"ADDRESS":"東成街７１巷１８號","OBJECTID":342873},"geometry":{"x":171422.24000000022,"y":2542336.4500000011}},{"attributes":{"ID":342883,"DIS_CODE":0,"TOWNNAME":"東區","LI":"和平里","LIN":"1鄰","STREET":"東門路","SECT":"三段","MAREA":" ","LANE":"２６巷","ALLEY":" ","HOUSE_NO":"１０號","E_COORD97":171075.45999999999,"N_COORD97":2542269,"ADDRESS":"東門路三段２６巷１０號","OBJECTID":342874},"geometry":{"x":171075.46000000089,"y":2542269.0000000019}},{"attributes":{"ID":342884,"DIS_CODE":0,"TOWNNAME":"新化區","LI":"北勢里","LIN":"8鄰","STREET":"永新路","SECT":" ","MAREA":" ","LANE":" ","ALLEY":" ","HOUSE_NO":"２５號六樓之１","E_COORD97":177802.29999999999,"N_COORD97":2550963.2999999998,"ADDRESS":"永新路２５號六樓之１","OBJECTID":342875},"geometry":{"x":177802.29999999981,"y":2550963.3000000045}},{"attributes":{"ID":342885,"DIS_CODE":0,"TOWNNAME":"新化區","LI":"北勢里","LIN":"8鄰","STREET":"永新路","SECT":" ","MAREA":" ","LANE":" ","ALLEY":" ","HOUSE_NO":"３７號七樓之３","E_COORD97":177802.39999999999,"N_COORD97":2550963.2999999998,"ADDRESS":"永新路３７號七樓之３","OBJECTID":342876},"geometry":{"x":177802.40000000224,"y":2550963.3000000045}},{"attributes":{"ID":342886,"DIS_CODE":0,"TOWNNAME":"新化區","LI":"北勢里","LIN":"8鄰","STREET":"永新路","SECT":" ","MAREA":" ","LANE":" ","ALLEY":" ","HOUSE_NO":"１３號五樓之１","E_COORD97":177802.29999999999,"N_COORD97":2550963.2999999998,"ADDRESS":"永新路１３號五樓之１","OBJECTID":342877},"geometry":{"x":177802.29999999981,"y":2550963.3000000045}},{"attributes":{"ID":342887,"DIS_CODE":0,"TOWNNAME":"北區","LI":"玉皇里","LIN":"5鄰","STREET":"公園南路","SECT":" ","MAREA":" ","LANE":"１３１巷","ALLEY":" ","HOUSE_NO":"１３號","E_COORD97":168755.04000000001,"N_COORD97":2544611.0800000001,"ADDRESS":"公園南路１３１巷１３號","OBJECTID":342878},"geometry":{"x":168755.04000000004,"y":2544611.0800000019}},{"attributes":{"ID":342888,"DIS_CODE":0,"TOWNNAME":"東區","LI":"和平里","LIN":"1鄰","STREET":"東門路","SECT":"三段","MAREA":" ","LANE":"２６巷","ALLEY":" ","HOUSE_NO":"１１號","E_COORD97":171088,"N_COORD97":2542236.1200000001,"ADDRESS":"東門路三段２６巷１１號","OBJECTID":342879},"geometry":{"x":171088,"y":2542236.120000001}},{"attributes":{"ID":342889,"DIS_CODE":0,"TOWNNAME":"東區","LI":"和平里","LIN":"1鄰","STREET":"東門路","SECT":"三段","MAREA":" ","LANE":"２６巷","ALLEY":" ","HOUSE_NO":"２號","E_COORD97":171073.06,"N_COORD97":2542299.3199999998,"ADDRESS":"東門路三段２６巷２號","OBJECTID":342880},"geometry":{"x":171073.06000000052,"y":2542299.3200000003}},{"attributes":{"ID":342890,"DIS_CODE":0,"TOWNNAME":"東區","LI":"和平里","LIN":"1鄰","STREET":"東門路","SECT":"三段","MAREA":" ","LANE":"２６巷","ALLEY":" ","HOUSE_NO":"６號","E_COORD97":171074.17000000001,"N_COORD97":2542288.4100000001,"ADDRESS":"東門路三段２６巷６號","OBJECTID":342881},"geometry":{"x":171074.17000000086,"y":2542288.4100000001}},{"attributes":{"ID":342891,"DIS_CODE":0,"TOWNNAME":"東區","LI":"和平里","LIN":"1鄰","STREET":"東門路","SECT":"三段","MAREA":" ","LANE":"２６巷","ALLEY":" ","HOUSE_NO":"８號","E_COORD97":171075.09,"N_COORD97":2542278.6099999999,"ADDRESS":"東門路三段２６巷８號","OBJECTID":342882},"geometry":{"x":171075.08999999985,"y":2542278.6099999994}},{"attributes":{"ID":342892,"DIS_CODE":0,"TOWNNAME":"東區","LI":"和平里","LIN":"1鄰","STREET":"東門路","SECT":"三段","MAREA":" ","LANE":"２６巷","ALLEY":" ","HOUSE_NO":"９號","E_COORD97":171090.85999999999,"N_COORD97":2542249.0499999998,"ADDRESS":"東門路三段２６巷９號","OBJECTID":342883},"geometry":{"x":171090.86000000034,"y":2542249.0500000026}},{"attributes":{"ID":342893,"DIS_CODE":0,"TOWNNAME":"東區","LI":"和平里","LIN":"1鄰","STREET":"東門路","SECT":"三段","MAREA":" ","LANE":"６６巷","ALLEY":" ","HOUSE_NO":"７號","E_COORD97":171151.47,"N_COORD97":2542216.5099999998,"ADDRESS":"東門路三段６６巷７號","OBJECTID":342884},"geometry":{"x":171151.47000000067,"y":2542216.5099999998}},{"attributes":{"ID":342894,"DIS_CODE":0,"TOWNNAME":"東區","LI":"富裕里","LIN":"1鄰","STREET":"東門路","SECT":"二段","MAREA":" ","LANE":"２６９巷","ALLEY":" ","HOUSE_NO":"３８號","E_COORD97":170654.48999999999,"N_COORD97":2542790.1099999999,"ADDRESS":"東門路二段２６９巷３８號","OBJECTID":342885},"geometry":{"x":170654.49000000022,"y":2542790.1100000013}},{"attributes":{"ID":342895,"DIS_CODE":0,"TOWNNAME":"東區","LI":"龍山里","LIN":"1鄰","STREET":"東門路","SECT":"二段","MAREA":" ","LANE":"３１２巷","ALLEY":" ","HOUSE_NO":"１０號","E_COORD97":170601.95000000001,"N_COORD97":2542644.5699999998,"ADDRESS":"東門路二段３１２巷１０號","OBJECTID":342886},"geometry":{"x":170601.95000000019,"y":2542644.5700000022}},{"attributes":{"ID":342896,"DIS_CODE":0,"TOWNNAME":"東區","LI":"龍山里","LIN":"1鄰","STREET":"東門路","SECT":"二段","MAREA":" ","LANE":"３１２巷","ALLEY":" ","HOUSE_NO":"１１號","E_COORD97":170638.97,"N_COORD97":2542633.2999999998,"ADDRESS":"東門路二段３１２巷１１號","OBJECTID":342887},"geometry":{"x":170638.96999999881,"y":2542633.3000000026}},{"attributes":{"ID":342897,"DIS_CODE":0,"TOWNNAME":"東區","LI":"龍山里","LIN":"1鄰","STREET":"東門路","SECT":"二段","MAREA":" ","LANE":"３１２巷","ALLEY":" ","HOUSE_NO":"１２號","E_COORD97":170604.57000000001,"N_COORD97":2542642.6400000001,"ADDRESS":"東門路二段３１２巷１２號","OBJECTID":342888},"geometry":{"x":170604.5700000003,"y":2542642.6400000006}},{"attributes":{"ID":342898,"DIS_CODE":0,"TOWNNAME":"東區","LI":"龍山里","LIN":"1鄰","STREET":"東門路","SECT":"二段","MAREA":" ","LANE":"３１２巷","ALLEY":" ","HOUSE_NO":"１３號","E_COORD97":170643.23999999999,"N_COORD97":2542631.9199999999,"ADDRESS":"東門路二段３１２巷１３號","OBJECTID":342889},"geometry":{"x":170643.24000000115,"y":2542631.9200000018}},{"attributes":{"ID":342899,"DIS_CODE":0,"TOWNNAME":"東區","LI":"龍山里","LIN":"1鄰","STREET":"東門路","SECT":"二段","MAREA":" ","LANE":"３１２巷","ALLEY":" ","HOUSE_NO":"１７號","E_COORD97":170645.98999999999,"N_COORD97":2542629.5899999999,"ADDRESS":"東門路二段３１２巷１７號","OBJECTID":342890},"geometry":{"x":170645.99000000022,"y":2542629.5899999999}},{"attributes":{"ID":342900,"DIS_CODE":0,"TOWNNAME":"東區","LI":"龍山里","LIN":"1鄰","STREET":"東門路","SECT":"二段","MAREA":" ","LANE":"３１２巷","ALLEY":" ","HOUSE_NO":"１９號","E_COORD97":170650.53,"N_COORD97":2542627.52,"ADDRESS":"東門路二段３１２巷１９號","OBJECTID":342891},"geometry":{"x":170650.53000000026,"y":2542627.5200000014}},{"attributes":{"ID":342901,"DIS_CODE":0,"TOWNNAME":"東區","LI":"龍山里","LIN":"1鄰","STREET":"東門路","SECT":"二段","MAREA":" ","LANE":"３１２巷","ALLEY":" ","HOUSE_NO":"２２號","E_COORD97":170620.53,"N_COORD97":2542627.79,"ADDRESS":"東門路二段３１２巷２２號","OBJECTID":342892},"geometry":{"x":170620.53000000212,"y":2542627.7900000028}},{"attributes":{"ID":342902,"DIS_CODE":0,"TOWNNAME":"東區","LI":"龍山里","LIN":"1鄰","STREET":"東門路","SECT":"二段","MAREA":" ","LANE":"３１２巷","ALLEY":" ","HOUSE_NO":"２４號","E_COORD97":170624.92999999999,"N_COORD97":2542624.8999999999,"ADDRESS":"東門路二段３１２巷２４號","OBJECTID":342893},"geometry":{"x":170624.9299999997,"y":2542624.8999999985}},{"attributes":{"ID":342903,"DIS_CODE":0,"TOWNNAME":"東區","LI":"龍山里","LIN":"1鄰","STREET":"東門路","SECT":"二段","MAREA":" ","LANE":"３１２巷","ALLEY":" ","HOUSE_NO":"２６號","E_COORD97":170630.29999999999,"N_COORD97":2542621.73,"ADDRESS":"東門路二段３１２巷２６號","OBJECTID":342894},"geometry":{"x":170630.30000000075,"y":2542621.7300000004}},{"attributes":{"ID":342904,"DIS_CODE":0,"TOWNNAME":"東區","LI":"龍山里","LIN":"1鄰","STREET":"東門路","SECT":"二段","MAREA":" ","LANE":"３１２巷","ALLEY":" ","HOUSE_NO":"２８號","E_COORD97":170635.26000000001,"N_COORD97":2542617.0600000001,"ADDRESS":"東門路二段３１２巷２８號","OBJECTID":342895},"geometry":{"x":170635.25999999978,"y":2542617.0600000005}},{"attributes":{"ID":342905,"DIS_CODE":0,"TOWNNAME":"東區","LI":"龍山里","LIN":"1鄰","STREET":"東門路","SECT":"二段","MAREA":" ","LANE":"３１２巷","ALLEY":" ","HOUSE_NO":"２號","E_COORD97":170613.64999999999,"N_COORD97":2542661.9100000001,"ADDRESS":"東門路二段３１２巷２號","OBJECTID":342896},"geometry":{"x":170613.6500000013,"y":2542661.9099999983}},{"attributes":{"ID":342906,"DIS_CODE":0,"TOWNNAME":"東區","LI":"龍山里","LIN":"1鄰","STREET":"東門路","SECT":"二段","MAREA":" ","LANE":"３１２巷","ALLEY":" ","HOUSE_NO":"７號","E_COORD97":170630.44,"N_COORD97":2542639.0800000001,"ADDRESS":"東門路二段３１２巷７號","OBJECTID":342897},"geometry":{"x":170630.44000000134,"y":2542639.0800000001}},{"attributes":{"ID":342907,"DIS_CODE":0,"TOWNNAME":"東區","LI":"龍山里","LIN":"1鄰","STREET":"東門路","SECT":"二段","MAREA":" ","LANE":"３１２巷","ALLEY":" ","HOUSE_NO":"８號","E_COORD97":170599.47,"N_COORD97":2542647.5899999999,"ADDRESS":"東門路二段３１２巷８號","OBJECTID":342898},"geometry":{"x":170599.46999999974,"y":2542647.5900000017}},{"attributes":{"ID":342908,"DIS_CODE":0,"TOWNNAME":"東區","LI":"龍山里","LIN":"1鄰","STREET":"東門路","SECT":"二段","MAREA":" ","LANE":"３１２巷","ALLEY":" ","HOUSE_NO":"９號","E_COORD97":170634.01999999999,"N_COORD97":2542637.8399999999,"ADDRESS":"東門路二段３１２巷９號","OBJECTID":342899},"geometry":{"x":170634.02000000048,"y":2542637.8399999999}},{"attributes":{"ID":342909,"DIS_CODE":0,"TOWNNAME":"東區","LI":"虎尾里","LIN":"1鄰","STREET":"東門路","SECT":"三段","MAREA":" ","LANE":"１４１巷","ALLEY":" ","HOUSE_NO":"１０號","E_COORD97":171422.44,"N_COORD97":2542097.5,"ADDRESS":"東門路三段１４１巷１０號","OBJECTID":342900},"geometry":{"x":171422.44000000041,"y":2542097.5}},{"attributes":{"ID":342910,"DIS_CODE":0,"TOWNNAME":"新化區","LI":"北勢里","LIN":"8鄰","STREET":"永新路","SECT":" ","MAREA":" ","LANE":" ","ALLEY":" ","HOUSE_NO":"２３號七樓之２","E_COORD97":177802.42999999999,"N_COORD97":2550963.2999999998,"ADDRESS":"永新路２３號七樓之２","OBJECTID":342901},"geometry":{"x":177802.4299999997,"y":2550963.3000000045}},{"attributes":{"ID":342911,"DIS_CODE":0,"TOWNNAME":"東區","LI":"虎尾里","LIN":"1鄰","STREET":"東門路","SECT":"三段","MAREA":" ","LANE":"１４１巷","ALLEY":" ","HOUSE_NO":"１２號","E_COORD97":171422.07000000001,"N_COORD97":2542102.0099999998,"ADDRESS":"東門路三段１４１巷１２號","OBJECTID":342902},"geometry":{"x":171422.07000000216,"y":2542102.0100000016}},{"attributes":{"ID":342912,"DIS_CODE":0,"TOWNNAME":"東區","LI":"虎尾里","LIN":"1鄰","STREET":"東門路","SECT":"三段","MAREA":" ","LANE":"１４１巷","ALLEY":" ","HOUSE_NO":"１４號","E_COORD97":171436.54999999999,"N_COORD97":2542094.6800000002,"ADDRESS":"東門路三段１４１巷１４號","OBJECTID":342903},"geometry":{"x":171436.54999999981,"y":2542094.6800000016}},{"attributes":{"ID":342913,"DIS_CODE":0,"TOWNNAME":"東區","LI":"虎尾里","LIN":"1鄰","STREET":"東門路","SECT":"三段","MAREA":" ","LANE":"１４１巷","ALLEY":" ","HOUSE_NO":"１６號","E_COORD97":171439.75,"N_COORD97":2542096,"ADDRESS":"東門路三段１４１巷１６號","OBJECTID":342904},"geometry":{"x":171439.75000000093,"y":2542096.0000000019}},{"attributes":{"ID":342914,"DIS_CODE":0,"TOWNNAME":"東區","LI":"虎尾里","LIN":"1鄰","STREET":"東門路","SECT":"三段","MAREA":" ","LANE":"１４１巷","ALLEY":" ","HOUSE_NO":"１８號","E_COORD97":171436.37,"N_COORD97":2542120.25,"ADDRESS":"東門路三段１４１巷１８號","OBJECTID":342905},"geometry":{"x":171436.37000000011,"y":2542120.25}},{"attributes":{"ID":342915,"DIS_CODE":0,"TOWNNAME":"東區","LI":"虎尾里","LIN":"1鄰","STREET":"東門路","SECT":"三段","MAREA":" ","LANE":"１４１巷","ALLEY":" ","HOUSE_NO":"２０號","E_COORD97":171432.04000000001,"N_COORD97":2542121.1899999999,"ADDRESS":"東門路三段１４１巷２０號","OBJECTID":342906},"geometry":{"x":171432.04000000004,"y":2542121.1900000013}},{"attributes":{"ID":342916,"DIS_CODE":0,"TOWNNAME":"東區","LI":"虎尾里","LIN":"1鄰","STREET":"東門路","SECT":"三段","MAREA":" ","LANE":"１４１巷","ALLEY":" ","HOUSE_NO":"２２號","E_COORD97":171420.75,"N_COORD97":2542111.2200000002,"ADDRESS":"東門路三段１４１巷２２號","OBJECTID":342907},"geometry":{"x":171420.75000000093,"y":2542111.2200000044}},{"attributes":{"ID":342917,"DIS_CODE":0,"TOWNNAME":"東區","LI":"虎尾里","LIN":"1鄰","STREET":"東門路","SECT":"三段","MAREA":" ","LANE":"１４１巷","ALLEY":" ","HOUSE_NO":"２４號","E_COORD97":171420.56,"N_COORD97":2542115.7400000002,"ADDRESS":"東門路三段１４１巷２４號","OBJECTID":342908},"geometry":{"x":171420.56000000052,"y":2542115.7400000021}},{"attributes":{"ID":342918,"DIS_CODE":0,"TOWNNAME":"東區","LI":"虎尾里","LIN":"1鄰","STREET":"東門路","SECT":"三段","MAREA":" ","LANE":"１４１巷","ALLEY":" ","HOUSE_NO":"２６號","E_COORD97":171420,"N_COORD97":2542119.1200000001,"ADDRESS":"東門路三段１４１巷２６號","OBJECTID":342909},"geometry":{"x":171420,"y":2542119.1200000048}},{"attributes":{"ID":342919,"DIS_CODE":0,"TOWNNAME":"中西區","LI":"保安里","LIN":"1鄰","STREET":"西門路","SECT":"二段","MAREA":" ","LANE":"５９巷","ALLEY":" ","HOUSE_NO":"１０號","E_COORD97":167741.73000000001,"N_COORD97":2543566.7400000002,"ADDRESS":"西門路二段５９巷１０號","OBJECTID":342910},"geometry":{"x":167741.73000000138,"y":2543566.7400000021}},{"attributes":{"ID":342920,"DIS_CODE":0,"TOWNNAME":"中西區","LI":"保安里","LIN":"1鄰","STREET":"西門路","SECT":"二段","MAREA":" ","LANE":"５９巷","ALLEY":" ","HOUSE_NO":"１４號","E_COORD97":167728.63,"N_COORD97":2543562.21,"ADDRESS":"西門路二段５９巷１４號","OBJECTID":342911},"geometry":{"x":167728.62999999989,"y":2543562.2100000009}},{"attributes":{"ID":342921,"DIS_CODE":0,"TOWNNAME":"中西區","LI":"保安里","LIN":"1鄰","STREET":"西門路","SECT":"二段","MAREA":" ","LANE":"５９巷","ALLEY":" ","HOUSE_NO":"１６號","E_COORD97":167726.01000000001,"N_COORD97":2543561.98,"ADDRESS":"西門路二段５９巷１６號","OBJECTID":342912},"geometry":{"x":167726.00999999978,"y":2543561.9800000023}},{"attributes":{"ID":342922,"DIS_CODE":0,"TOWNNAME":"中西區","LI":"保安里","LIN":"1鄰","STREET":"西門路","SECT":"二段","MAREA":" ","LANE":"５９巷","ALLEY":" ","HOUSE_NO":"４號","E_COORD97":167760.31,"N_COORD97":2543563.3999999999,"ADDRESS":"西門路二段５９巷４號","OBJECTID":342913},"geometry":{"x":167760.31000000052,"y":2543563.4000000004}},{"attributes":{"ID":342923,"DIS_CODE":0,"TOWNNAME":"中西區","LI":"保安里","LIN":"1鄰","STREET":"西門路","SECT":"二段","MAREA":" ","LANE":"５９巷","ALLEY":" ","HOUSE_NO":"６號","E_COORD97":167754.12,"N_COORD97":2543565.3100000001,"ADDRESS":"西門路二段５９巷６號","OBJECTID":342914},"geometry":{"x":167754.12000000011,"y":2543565.3100000024}},{"attributes":{"ID":342924,"DIS_CODE":0,"TOWNNAME":"中西區","LI":"保安里","LIN":"1鄰","STREET":"西門路","SECT":"二段","MAREA":" ","LANE":"５９巷","ALLEY":" ","HOUSE_NO":"８號","E_COORD97":167746.48999999999,"N_COORD97":2543567.6899999999,"ADDRESS":"西門路二段５９巷８號","OBJECTID":342915},"geometry":{"x":167746.49000000115,"y":2543567.6899999995}},{"attributes":{"ID":342925,"DIS_CODE":0,"TOWNNAME":"安南區","LI":"東和里","LIN":"1鄰","STREET":"長和路","SECT":"一段","MAREA":" ","LANE":"８７１巷","ALLEY":" ","HOUSE_NO":"７號","E_COORD97":170777.230962,"N_COORD97":2551458.34155,"ADDRESS":"長和路一段８７１巷７號","OBJECTID":342916},"geometry":{"x":170777.23096200079,"y":2551458.3415500037}},{"attributes":{"ID":342926,"DIS_CODE":0,"TOWNNAME":"新化區","LI":"太平里","LIN":"4鄰","STREET":"中正路","SECT":" ","MAREA":" ","LANE":"５８０巷","ALLEY":" ","HOUSE_NO":"２號之９","E_COORD97":178960.85000000001,"N_COORD97":2549004.2599999998,"ADDRESS":"中正路５８０巷２號之９","OBJECTID":342917},"geometry":{"x":178960.84999999963,"y":2549004.2600000016}},{"attributes":{"ID":342927,"DIS_CODE":0,"TOWNNAME":"永康區","LI":"復國里","LIN":"1鄰","STREET":"復國二路","SECT":" ","MAREA":" ","LANE":"１８巷","ALLEY":" ","HOUSE_NO":"４號","E_COORD97":172849.73999999999,"N_COORD97":2544848.6299999999,"ADDRESS":"復國二路１８巷４號","OBJECTID":342918},"geometry":{"x":172849.74000000022,"y":2544848.629999999}},{"attributes":{"ID":342928,"DIS_CODE":0,"TOWNNAME":"永康區","LI":"中華里","LIN":"1鄰","STREET":"小東路","SECT":" ","MAREA":" ","LANE":"６８５巷","ALLEY":" ","HOUSE_NO":"６號之３４","E_COORD97":172052.22,"N_COORD97":2544383.3599999999,"ADDRESS":"小東路６８５巷６號之３４","OBJECTID":342919},"geometry":{"x":172052.21999999974,"y":2544383.3599999994}},{"attributes":{"ID":342929,"DIS_CODE":0,"TOWNNAME":"永康區","LI":"復國里","LIN":"1鄰","STREET":"復國二路","SECT":" ","MAREA":" ","LANE":"１６巷","ALLEY":" ","HOUSE_NO":"４號","E_COORD97":172847.48000000001,"N_COORD97":2544807.21,"ADDRESS":"復國二路１６巷４號","OBJECTID":342920},"geometry":{"x":172847.48000000138,"y":2544807.2100000046}},{"attributes":{"ID":342930,"DIS_CODE":0,"TOWNNAME":"永康區","LI":"新樹里","LIN":"1鄰","STREET":"富強路","SECT":"二段","MAREA":" ","LANE":"１８４巷","ALLEY":" ","HOUSE_NO":"２８號","E_COORD97":175779.01999999999,"N_COORD97":2547200.6200000001,"ADDRESS":"富強路二段１８４巷２８號","OBJECTID":342921},"geometry":{"x":175779.02000000048,"y":2547200.620000001}},{"attributes":{"ID":342931,"DIS_CODE":0,"TOWNNAME":"永康區","LI":"復國里","LIN":"1鄰","STREET":"復國二路","SECT":" ","MAREA":" ","LANE":"１６巷","ALLEY":" ","HOUSE_NO":"１３號","E_COORD97":172870.67999999999,"N_COORD97":2544822.5699999998,"ADDRESS":"復國二路１６巷１３號","OBJECTID":342922},"geometry":{"x":172870.68000000063,"y":2544822.5700000003}},{"attributes":{"ID":342932,"DIS_CODE":0,"TOWNNAME":"永康區","LI":"崑山里","LIN":"1鄰","STREET":"永大路","SECT":"一段","MAREA":" ","LANE":"２８７巷","ALLEY":" ","HOUSE_NO":"６５之１號","E_COORD97":173759.04999999999,"N_COORD97":2544352.8500000001,"ADDRESS":"永大路一段２８７巷６５之１號","OBJECTID":342923},"geometry":{"x":173759.04999999981,"y":2544352.8499999996}},{"attributes":{"ID":342933,"DIS_CODE":0,"TOWNNAME":"永康區","LI":"烏竹里","LIN":"1鄰","STREET":"烏竹北街","SECT":" ","MAREA":" ","LANE":"９８巷","ALLEY":" ","HOUSE_NO":"２７號","E_COORD97":174470.41,"N_COORD97":2549572.4900000002,"ADDRESS":"烏竹北街９８巷２７號","OBJECTID":342924},"geometry":{"x":174470.41000000015,"y":2549572.4900000021}},{"attributes":{"ID":342934,"DIS_CODE":0,"TOWNNAME":"永康區","LI":"復華里","LIN":"1鄰","STREET":"復國二路","SECT":" ","MAREA":" ","LANE":"２７４巷","ALLEY":" ","HOUSE_NO":"１４號","E_COORD97":173059.07000000001,"N_COORD97":2546053.52,"ADDRESS":"復國二路２７４巷１４號","OBJECTID":342925},"geometry":{"x":173059.0700000003,"y":2546053.5199999996}},{"attributes":{"ID":342935,"DIS_CODE":0,"TOWNNAME":"永康區","LI":"烏竹里","LIN":"1鄰","STREET":"烏竹街","SECT":" ","MAREA":" ","LANE":"１５２巷","ALLEY":" ","HOUSE_NO":"５號","E_COORD97":174411.20999999999,"N_COORD97":2549522.5,"ADDRESS":"烏竹街１５２巷５號","OBJECTID":342926},"geometry":{"x":174411.21000000183,"y":2549522.5}},{"attributes":{"ID":342936,"DIS_CODE":0,"TOWNNAME":"永康區","LI":"埔園里","LIN":"1鄰","STREET":"中山路","SECT":" ","MAREA":" ","LANE":"９４巷","ALLEY":" ","HOUSE_NO":"４號","E_COORD97":173878.07000000001,"N_COORD97":2547649.75,"ADDRESS":"中山路９４巷４號","OBJECTID":342927},"geometry":{"x":173878.0700000003,"y":2547649.75}},{"attributes":{"ID":342937,"DIS_CODE":0,"TOWNNAME":"永康區","LI":"埔園里","LIN":"1鄰","STREET":"中山路","SECT":" ","MAREA":" ","LANE":"９４巷","ALLEY":" ","HOUSE_NO":"８之１號","E_COORD97":173919.98000000001,"N_COORD97":2547660.0499999998,"ADDRESS":"中山路９４巷８之１號","OBJECTID":342928},"geometry":{"x":173919.98000000231,"y":2547660.0500000026}},{"attributes":{"ID":342938,"DIS_CODE":0,"TOWNNAME":"永康區","LI":"東橋里","LIN":"1鄰","STREET":"中山南路","SECT":" ","MAREA":" ","LANE":"１９５巷","ALLEY":" ","HOUSE_NO":"５４號","E_COORD97":171387.13,"N_COORD97":2546486.7400000002,"ADDRESS":"中山南路１９５巷５４號","OBJECTID":342929},"geometry":{"x":171387.12999999989,"y":2546486.7400000002}},{"attributes":{"ID":342939,"DIS_CODE":0,"TOWNNAME":"永康區","LI":"中華里","LIN":"1鄰","STREET":"小東路","SECT":" ","MAREA":" ","LANE":"６８５巷","ALLEY":" ","HOUSE_NO":"８號之３２","E_COORD97":172049.88,"N_COORD97":2544401.7400000002,"ADDRESS":"小東路６８５巷８號之３２","OBJECTID":342930},"geometry":{"x":172049.87999999989,"y":2544401.7400000002}},{"attributes":{"ID":342940,"DIS_CODE":0,"TOWNNAME":"北區","LI":"興南里","LIN":"5鄰","STREET":"公園路","SECT":" ","MAREA":" ","LANE":"３２１巷","ALLEY":" ","HOUSE_NO":"４５號","E_COORD97":168794,"N_COORD97":2544925.25,"ADDRESS":"公園路３２１巷４５號","OBJECTID":342931},"geometry":{"x":168794,"y":2544925.2500000019}},{"attributes":{"ID":342941,"DIS_CODE":0,"TOWNNAME":"永康區","LI":"復國里","LIN":"1鄰","STREET":"復國二路","SECT":" ","MAREA":" ","LANE":"１４巷","ALLEY":" ","HOUSE_NO":"３號","E_COORD97":172849.75,"N_COORD97":2544783.0099999998,"ADDRESS":"復國二路１４巷３號","OBJECTID":342932},"geometry":{"x":172849.75000000186,"y":2544783.0099999998}},{"attributes":{"ID":342942,"DIS_CODE":0,"TOWNNAME":"永康區","LI":"復國里","LIN":"1鄰","STREET":"復國二路","SECT":" ","MAREA":" ","LANE":"１８巷","ALLEY":" ","HOUSE_NO":"９號","E_COORD97":172865.37,"N_COORD97":2544864.2799999998,"ADDRESS":"復國二路１８巷９號","OBJECTID":342933},"geometry":{"x":172865.37000000011,"y":2544864.2799999993}},{"attributes":{"ID":342943,"DIS_CODE":0,"TOWNNAME":"永康區","LI":"復國里","LIN":"1鄰","STREET":"復國二路","SECT":" ","MAREA":" ","LANE":"１６巷","ALLEY":" ","HOUSE_NO":"９號","E_COORD97":172860.79999999999,"N_COORD97":2544822.5699999998,"ADDRESS":"復國二路１６巷９號","OBJECTID":342934},"geometry":{"x":172860.79999999981,"y":2544822.5700000003}},{"attributes":{"ID":342944,"DIS_CODE":0,"TOWNNAME":"東區","LI":"崇信里","LIN":"1鄰","STREET":"東門路","SECT":"二段","MAREA":" ","LANE":"３９０巷","ALLEY":" ","HOUSE_NO":"１０號","E_COORD97":170792.31,"N_COORD97":2542504.2599999998,"ADDRESS":"東門路二段３９０巷１０號","OBJECTID":342935},"geometry":{"x":170792.30999999959,"y":2542504.2600000016}},{"attributes":{"ID":342945,"DIS_CODE":0,"TOWNNAME":"東區","LI":"崇信里","LIN":"1鄰","STREET":"東門路","SECT":"二段","MAREA":" ","LANE":"３９０巷","ALLEY":" ","HOUSE_NO":"１２號","E_COORD97":170789.10999999999,"N_COORD97":2542500.3399999999,"ADDRESS":"東門路二段３９０巷１２號","OBJECTID":342936},"geometry":{"x":170789.11000000034,"y":2542500.3400000017}},{"attributes":{"ID":342946,"DIS_CODE":0,"TOWNNAME":"東區","LI":"崇信里","LIN":"1鄰","STREET":"東門路","SECT":"二段","MAREA":" ","LANE":"３９０巷","ALLEY":" ","HOUSE_NO":"１４號","E_COORD97":170786.06,"N_COORD97":2542496.5600000001,"ADDRESS":"東門路二段３９０巷１４號","OBJECTID":342937},"geometry":{"x":170786.06000000052,"y":2542496.5600000024}},{"attributes":{"ID":342947,"DIS_CODE":0,"TOWNNAME":"東區","LI":"崇信里","LIN":"1鄰","STREET":"東門路","SECT":"二段","MAREA":" ","LANE":"３９０巷","ALLEY":" ","HOUSE_NO":"６號","E_COORD97":170798.70999999999,"N_COORD97":2542512.3900000001,"ADDRESS":"東門路二段３９０巷６號","OBJECTID":342938},"geometry":{"x":170798.71000000183,"y":2542512.3900000006}},{"attributes":{"ID":342948,"DIS_CODE":0,"TOWNNAME":"東區","LI":"崇學里","LIN":"1鄰","STREET":"崇德路","SECT":" ","MAREA":" ","LANE":"３３３巷","ALLEY":" ","HOUSE_NO":"３７號","E_COORD97":170421.37,"N_COORD97":2542068.3100000001,"ADDRESS":"崇德路３３３巷３７號","OBJECTID":342939},"geometry":{"x":170421.36999999918,"y":2542068.3100000005}},{"attributes":{"ID":342949,"DIS_CODE":0,"TOWNNAME":"東區","LI":"崇學里","LIN":"1鄰","STREET":"崇德路","SECT":" ","MAREA":" ","LANE":"３３３巷","ALLEY":" ","HOUSE_NO":"３９號","E_COORD97":170423.66,"N_COORD97":2542071.4100000001,"ADDRESS":"崇德路３３３巷３９號","OBJECTID":342940},"geometry":{"x":170423.66000000108,"y":2542071.4100000001}},{"attributes":{"ID":342950,"DIS_CODE":0,"TOWNNAME":"東區","LI":"崇學里","LIN":"1鄰","STREET":"崇德路","SECT":" ","MAREA":" ","LANE":"３３３巷","ALLEY":" ","HOUSE_NO":"４１號","E_COORD97":170425.60999999999,"N_COORD97":2542075.6499999999,"ADDRESS":"崇德路３３３巷４１號","OBJECTID":342941},"geometry":{"x":170425.61000000127,"y":2542075.6500000022}},{"attributes":{"ID":342951,"DIS_CODE":0,"TOWNNAME":"永康區","LI":"\u25A0洲里","LIN":"1鄰","STREET":"仁愛街","SECT":" ","MAREA":" ","LANE":"５巷","ALLEY":" ","HOUSE_NO":"１８號","E_COORD97":171912.20000000001,"N_COORD97":2549238.7799999998,"ADDRESS":"仁愛街５巷１８號","OBJECTID":342942},"geometry":{"x":171912.20000000019,"y":2549238.7799999993}},{"attributes":{"ID":342952,"DIS_CODE":0,"TOWNNAME":"永康區","LI":"中華里","LIN":"1鄰","STREET":"小東路","SECT":" ","MAREA":" ","LANE":"６８５巷","ALLEY":" ","HOUSE_NO":"６號之１６","E_COORD97":172052.29999999999,"N_COORD97":2544383.3599999999,"ADDRESS":"小東路６８５巷６號之１６","OBJECTID":342943},"geometry":{"x":172052.29999999888,"y":2544383.3599999994}},{"attributes":{"ID":342953,"DIS_CODE":0,"TOWNNAME":"永康區","LI":"\u25A0行里","LIN":"1鄰","STREET":"中正北路","SECT":" ","MAREA":" ","LANE":"１０２巷","ALLEY":" ","HOUSE_NO":"７號","E_COORD97":172259.67000000001,"N_COORD97":2549025,"ADDRESS":"中正北路１０２巷７號","OBJECTID":342944},"geometry":{"x":172259.66999999993,"y":2549025.0000000037}},{"attributes":{"ID":342954,"DIS_CODE":0,"TOWNNAME":"永康區","LI":"\u25A0洲里","LIN":"1鄰","STREET":"仁愛街","SECT":" ","MAREA":" ","LANE":"５巷","ALLEY":" ","HOUSE_NO":"６號","E_COORD97":171896.42999999999,"N_COORD97":2549230.1000000001,"ADDRESS":"仁愛街５巷６號","OBJECTID":342945},"geometry":{"x":171896.4299999997,"y":2549230.0999999996}},{"attributes":{"ID":342955,"DIS_CODE":0,"TOWNNAME":"永康區","LI":"\u25A0洲里","LIN":"1鄰","STREET":"仁愛街","SECT":" ","MAREA":" ","LANE":"５巷","ALLEY":" ","HOUSE_NO":"１２號","E_COORD97":171893.42999999999,"N_COORD97":2549247.48,"ADDRESS":"仁愛街５巷１２號","OBJECTID":342946},"geometry":{"x":171893.4299999997,"y":2549247.4800000023}},{"attributes":{"ID":342956,"DIS_CODE":0,"TOWNNAME":"永康區","LI":"中華里","LIN":"1鄰","STREET":"小東路","SECT":" ","MAREA":" ","LANE":"６８５巷","ALLEY":" ","HOUSE_NO":"６號之２６","E_COORD97":172052.29999999999,"N_COORD97":2544383.3599999999,"ADDRESS":"小東路６８５巷６號之２６","OBJECTID":342947},"geometry":{"x":172052.29999999888,"y":2544383.3599999994}},{"attributes":{"ID":342957,"DIS_CODE":0,"TOWNNAME":"永康區","LI":"中華里","LIN":"1鄰","STREET":"小東路","SECT":" ","MAREA":" ","LANE":"６８５巷","ALLEY":" ","HOUSE_NO":"６號之２１","E_COORD97":172052.19,"N_COORD97":2544383.3599999999,"ADDRESS":"小東路６８５巷６號之２１","OBJECTID":342948},"geometry":{"x":172052.19000000134,"y":2544383.3599999994}},{"attributes":{"ID":342958,"DIS_CODE":0,"TOWNNAME":"新化區","LI":"豐榮里","LIN":"13鄰","STREET":"民治路","SECT":" ","MAREA":" ","LANE":"４３巷","ALLEY":" ","HOUSE_NO":"７號","E_COORD97":178700.16,"N_COORD97":2548086.25,"ADDRESS":"民治路４３巷７號","OBJECTID":342949},"geometry":{"x":178700.16000000015,"y":2548086.25}},{"attributes":{"ID":342959,"DIS_CODE":0,"TOWNNAME":"永康區","LI":"\u25A0行里","LIN":"1鄰","STREET":"中正北路","SECT":" ","MAREA":" ","LANE":"１０２巷","ALLEY":" ","HOUSE_NO":"２號","E_COORD97":172271.97,"N_COORD97":2549034.75,"ADDRESS":"中正北路１０２巷２號","OBJECTID":342950},"geometry":{"x":172271.97000000067,"y":2549034.7500000019}},{"attributes":{"ID":342960,"DIS_CODE":0,"TOWNNAME":"北區","LI":"實踐里","LIN":"5鄰","STREET":"長榮路","SECT":"五段","MAREA":" ","LANE":"２９８巷","ALLEY":" ","HOUSE_NO":"８號","E_COORD97":169758.78,"N_COORD97":2545950.2000000002,"ADDRESS":"長榮路五段２９８巷８號","OBJECTID":342951},"geometry":{"x":169758.78000000026,"y":2545950.1999999993}},{"attributes":{"ID":342961,"DIS_CODE":0,"TOWNNAME":"北區","LI":"實踐里","LIN":"5鄰","STREET":"長榮路","SECT":"五段","MAREA":" ","LANE":"２９８巷","ALLEY":" ","HOUSE_NO":"１０號","E_COORD97":169759.82000000001,"N_COORD97":2545956.7999999998,"ADDRESS":"長榮路五段２９８巷１０號","OBJECTID":342952},"geometry":{"x":169759.82000000123,"y":2545956.8000000026}},{"attributes":{"ID":342962,"DIS_CODE":0,"TOWNNAME":"北區","LI":"實踐里","LIN":"5鄰","STREET":"長榮路","SECT":"五段","MAREA":" ","LANE":"２９８巷","ALLEY":" ","HOUSE_NO":"１２號","E_COORD97":169761.56,"N_COORD97":2545962.8199999998,"ADDRESS":"長榮路五段２９８巷１２號","OBJECTID":342953},"geometry":{"x":169761.55999999959,"y":2545962.8200000022}},{"attributes":{"ID":342963,"DIS_CODE":0,"TOWNNAME":"北區","LI":"實踐里","LIN":"5鄰","STREET":"長榮路","SECT":"五段","MAREA":" ","LANE":"２９８巷","ALLEY":" ","HOUSE_NO":"１８號","E_COORD97":169762.82999999999,"N_COORD97":2545972,"ADDRESS":"長榮路五段２９８巷１８號","OBJECTID":342954},"geometry":{"x":169762.83000000101,"y":2545972.0000000019}},{"attributes":{"ID":342964,"DIS_CODE":0,"TOWNNAME":"新化區","LI":"北勢里","LIN":"8鄰","STREET":"永新路","SECT":" ","MAREA":" ","LANE":" ","ALLEY":" ","HOUSE_NO":"１３號七樓之１","E_COORD97":177802.29999999999,"N_COORD97":2550963.2999999998,"ADDRESS":"永新路１３號七樓之１","OBJECTID":342955},"geometry":{"x":177802.29999999981,"y":2550963.3000000045}},{"attributes":{"ID":342965,"DIS_CODE":0,"TOWNNAME":"新化區","LI":"協興里","LIN":"10鄰","STREET":"正新路","SECT":" ","MAREA":" ","LANE":"３６３巷","ALLEY":" ","HOUSE_NO":"１８號","E_COORD97":178465.37,"N_COORD97":2548924.25,"ADDRESS":"正新路３６３巷１８號","OBJECTID":342956},"geometry":{"x":178465.37000000104,"y":2548924.25}},{"attributes":{"ID":342966,"DIS_CODE":0,"TOWNNAME":"佳里區","LI":"鎮山里","LIN":"12鄰","STREET":"延平路","SECT":" ","MAREA":" ","LANE":" ","ALLEY":" ","HOUSE_NO":"８號","E_COORD97":166005.64000000001,"N_COORD97":2561551.8399999999,"ADDRESS":"延平路８號","OBJECTID":342957},"geometry":{"x":166005.6400000006,"y":2561551.8399999999}},{"attributes":{"ID":342967,"DIS_CODE":0,"TOWNNAME":"北區","LI":"成功里","LIN":"5鄰","STREET":"北安路","SECT":"一段","MAREA":" ","LANE":"十四二巷","ALLEY":" ","HOUSE_NO":"５３號二樓之２","E_COORD97":169071.26999999999,"N_COORD97":2546566.8599999999,"ADDRESS":"北安路一段十四二巷５３號二樓之２","OBJECTID":342958},"geometry":{"x":169071.27000000048,"y":2546566.8599999994}},{"attributes":{"ID":342968,"DIS_CODE":0,"TOWNNAME":"北區","LI":"成功里","LIN":"5鄰","STREET":"北安路","SECT":"一段","MAREA":" ","LANE":"十四二巷","ALLEY":" ","HOUSE_NO":"５３號二樓之３","E_COORD97":169071.26999999999,"N_COORD97":2546566.8599999999,"ADDRESS":"北安路一段十四二巷５３號二樓之３","OBJECTID":342959},"geometry":{"x":169071.27000000048,"y":2546566.8599999994}},{"attributes":{"ID":342969,"DIS_CODE":0,"TOWNNAME":"北區","LI":"成功里","LIN":"5鄰","STREET":"北安路","SECT":"一段","MAREA":" ","LANE":"十四二巷","ALLEY":" ","HOUSE_NO":"５３號三樓","E_COORD97":169071.26999999999,"N_COORD97":2546566.8599999999,"ADDRESS":"北安路一段十四二巷５３號三樓","OBJECTID":342960},"geometry":{"x":169071.27000000048,"y":2546566.8599999994}},{"attributes":{"ID":342970,"DIS_CODE":0,"TOWNNAME":"北區","LI":"成功里","LIN":"5鄰","STREET":"北安路","SECT":"一段","MAREA":" ","LANE":"十四二巷","ALLEY":" ","HOUSE_NO":"５３號三樓之１","E_COORD97":169071.26999999999,"N_COORD97":2546566.8599999999,"ADDRESS":"北安路一段十四二巷５３號三樓之１","OBJECTID":342961},"geometry":{"x":169071.27000000048,"y":2546566.8599999994}},{"attributes":{"ID":342971,"DIS_CODE":0,"TOWNNAME":"北區","LI":"成功里","LIN":"5鄰","STREET":"北安路","SECT":"一段","MAREA":" ","LANE":"十四二巷","ALLEY":" ","HOUSE_NO":"５３號三樓之２","E_COORD97":169071.26999999999,"N_COORD97":2546566.8599999999,"ADDRESS":"北安路一段十四二巷５３號三樓之２","OBJECTID":342962},"geometry":{"x":169071.27000000048,"y":2546566.8599999994}},{"attributes":{"ID":342972,"DIS_CODE":0,"TOWNNAME":"永康區","LI":"永康里","LIN":"35鄰","STREET":"大同街","SECT":" ","MAREA":" ","LANE":"９２８巷","ALLEY":" ","HOUSE_NO":"７號","E_COORD97":174463.39000000001,"N_COORD97":2547009.4900000002,"ADDRESS":"大同街９２８巷７號","OBJECTID":342963},"geometry":{"x":174463.38999999966,"y":2547009.4900000021}},{"attributes":{"ID":342973,"DIS_CODE":0,"TOWNNAME":"北區","LI":"成功里","LIN":"5鄰","STREET":"北安路","SECT":"一段","MAREA":" ","LANE":"十四二巷","ALLEY":" ","HOUSE_NO":"５３號三樓之３","E_COORD97":169071.26999999999,"N_COORD97":2546566.8599999999,"ADDRESS":"北安路一段十四二巷５３號三樓之３","OBJECTID":342964},"geometry":{"x":169071.27000000048,"y":2546566.8599999994}},{"attributes":{"ID":342974,"DIS_CODE":0,"TOWNNAME":"北區","LI":"成功里","LIN":"5鄰","STREET":"北安路","SECT":"一段","MAREA":" ","LANE":"十四二巷","ALLEY":" ","HOUSE_NO":"５３號四樓","E_COORD97":169071.26999999999,"N_COORD97":2546566.8599999999,"ADDRESS":"北安路一段十四二巷５３號四樓","OBJECTID":342965},"geometry":{"x":169071.27000000048,"y":2546566.8599999994}},{"attributes":{"ID":342975,"DIS_CODE":0,"TOWNNAME":"北區","LI":"成功里","LIN":"5鄰","STREET":"北安路","SECT":"一段","MAREA":" ","LANE":"十四二巷","ALLEY":" ","HOUSE_NO":"５３號六樓之２","E_COORD97":169071.26999999999,"N_COORD97":2546566.8599999999,"ADDRESS":"北安路一段十四二巷５３號六樓之２","OBJECTID":342966},"geometry":{"x":169071.27000000048,"y":2546566.8599999994}},{"attributes":{"ID":342976,"DIS_CODE":0,"TOWNNAME":"北區","LI":"成功里","LIN":"5鄰","STREET":"北安路","SECT":"一段","MAREA":" ","LANE":"十四二巷","ALLEY":" ","HOUSE_NO":"５３號七樓","E_COORD97":169071.26999999999,"N_COORD97":2546566.8599999999,"ADDRESS":"北安路一段十四二巷５３號七樓","OBJECTID":342967},"geometry":{"x":169071.27000000048,"y":2546566.8599999994}},{"attributes":{"ID":342977,"DIS_CODE":0,"TOWNNAME":"北區","LI":"成功里","LIN":"5鄰","STREET":"北安路","SECT":"一段","MAREA":" ","LANE":"十四二巷","ALLEY":" ","HOUSE_NO":"５３號樓之","E_COORD97":169071.26999999999,"N_COORD97":2546566.8599999999,"ADDRESS":"北安路一段十四二巷５３號樓之","OBJECTID":342968},"geometry":{"x":169071.27000000048,"y":2546566.8599999994}},{"attributes":{"ID":342978,"DIS_CODE":0,"TOWNNAME":"北區","LI":"成功里","LIN":"5鄰","STREET":"北安路","SECT":"一段","MAREA":" ","LANE":"十四二巷","ALLEY":" ","HOUSE_NO":"５３號四樓之２","E_COORD97":169071.26999999999,"N_COORD97":2546566.8599999999,"ADDRESS":"北安路一段十四二巷５３號四樓之２","OBJECTID":342969},"geometry":{"x":169071.27000000048,"y":2546566.8599999994}},{"attributes":{"ID":342979,"DIS_CODE":0,"TOWNNAME":"北區","LI":"成功里","LIN":"5鄰","STREET":"北安路","SECT":"一段","MAREA":" ","LANE":"十四二巷","ALLEY":" ","HOUSE_NO":"５３號四樓之３","E_COORD97":169071.26999999999,"N_COORD97":2546566.8599999999,"ADDRESS":"北安路一段十四二巷５３號四樓之３","OBJECTID":342970},"geometry":{"x":169071.27000000048,"y":2546566.8599999994}},{"attributes":{"ID":342980,"DIS_CODE":0,"TOWNNAME":"北區","LI":"成功里","LIN":"5鄰","STREET":"北安路","SECT":"一段","MAREA":" ","LANE":"十四二巷","ALLEY":" ","HOUSE_NO":"５３號五樓之１","E_COORD97":169071.26999999999,"N_COORD97":2546566.8599999999,"ADDRESS":"北安路一段十四二巷５３號五樓之１","OBJECTID":342971},"geometry":{"x":169071.27000000048,"y":2546566.8599999994}},{"attributes":{"ID":342981,"DIS_CODE":0,"TOWNNAME":"北區","LI":"成功里","LIN":"5鄰","STREET":"北安路","SECT":"一段","MAREA":" ","LANE":"十四二巷","ALLEY":" ","HOUSE_NO":"５３號五樓之２","E_COORD97":169071.26999999999,"N_COORD97":2546566.8599999999,"ADDRESS":"北安路一段十四二巷５３號五樓之２","OBJECTID":342972},"geometry":{"x":169071.27000000048,"y":2546566.8599999994}},{"attributes":{"ID":342982,"DIS_CODE":0,"TOWNNAME":"北區","LI":"成功里","LIN":"5鄰","STREET":"北安路","SECT":"一段","MAREA":" ","LANE":"十四二巷","ALLEY":" ","HOUSE_NO":"５３號五樓之３","E_COORD97":169071.26999999999,"N_COORD97":2546566.8599999999,"ADDRESS":"北安路一段十四二巷５３號五樓之３","OBJECTID":342973},"geometry":{"x":169071.27000000048,"y":2546566.8599999994}},{"attributes":{"ID":342983,"DIS_CODE":0,"TOWNNAME":"北區","LI":"成功里","LIN":"5鄰","STREET":"北安路","SECT":"一段","MAREA":" ","LANE":"十四二巷","ALLEY":" ","HOUSE_NO":"５３號六樓","E_COORD97":169071.26999999999,"N_COORD97":2546566.8599999999,"ADDRESS":"北安路一段十四二巷５３號六樓","OBJECTID":342974},"geometry":{"x":169071.27000000048,"y":2546566.8599999994}},{"attributes":{"ID":342984,"DIS_CODE":0,"TOWNNAME":"北區","LI":"成功里","LIN":"5鄰","STREET":"北安路","SECT":"一段","MAREA":" ","LANE":"十四二巷","ALLEY":" ","HOUSE_NO":"５３號六樓之１","E_COORD97":169071.26999999999,"N_COORD97":2546566.8599999999,"ADDRESS":"北安路一段十四二巷５３號六樓之１","OBJECTID":342975},"geometry":{"x":169071.27000000048,"y":2546566.8599999994}},{"attributes":{"ID":342985,"DIS_CODE":0,"TOWNNAME":"北區","LI":"成功里","LIN":"5鄰","STREET":"北安路","SECT":"一段","MAREA":" ","LANE":"十四二巷","ALLEY":" ","HOUSE_NO":"５５號二樓","E_COORD97":169063.81,"N_COORD97":2546570.3500000001,"ADDRESS":"北安路一段十四二巷５５號二樓","OBJECTID":342976},"geometry":{"x":169063.81000000052,"y":2546570.3499999996}},{"attributes":{"ID":342986,"DIS_CODE":0,"TOWNNAME":"北區","LI":"成功里","LIN":"5鄰","STREET":"北安路","SECT":"一段","MAREA":" ","LANE":"十四二巷","ALLEY":" ","HOUSE_NO":"５５號三樓","E_COORD97":169063.81,"N_COORD97":2546570.3500000001,"ADDRESS":"北安路一段十四二巷５５號三樓","OBJECTID":342977},"geometry":{"x":169063.81000000052,"y":2546570.3499999996}},{"attributes":{"ID":342987,"DIS_CODE":0,"TOWNNAME":"北區","LI":"成功里","LIN":"5鄰","STREET":"北安路","SECT":"一段","MAREA":" ","LANE":"十四二巷","ALLEY":" ","HOUSE_NO":"５５號四樓","E_COORD97":169063.81,"N_COORD97":2546570.3500000001,"ADDRESS":"北安路一段十四二巷５５號四樓","OBJECTID":342978},"geometry":{"x":169063.81000000052,"y":2546570.3499999996}},{"attributes":{"ID":342988,"DIS_CODE":0,"TOWNNAME":"北區","LI":"成功里","LIN":"5鄰","STREET":"北安路","SECT":"一段","MAREA":" ","LANE":"十四二巷","ALLEY":" ","HOUSE_NO":"５５號七樓","E_COORD97":169063.81,"N_COORD97":2546570.3500000001,"ADDRESS":"北安路一段十四二巷５５號七樓","OBJECTID":342979},"geometry":{"x":169063.81000000052,"y":2546570.3499999996}},{"attributes":{"ID":342989,"DIS_CODE":0,"TOWNNAME":"北區","LI":"成功里","LIN":"5鄰","STREET":"北安路","SECT":"一段","MAREA":" ","LANE":"十四二巷","ALLEY":" ","HOUSE_NO":"５５號五樓","E_COORD97":169063.81,"N_COORD97":2546570.3500000001,"ADDRESS":"北安路一段十四二巷５５號五樓","OBJECTID":342980},"geometry":{"x":169063.81000000052,"y":2546570.3499999996}},{"attributes":{"ID":342990,"DIS_CODE":0,"TOWNNAME":"北區","LI":"成德里","LIN":"35鄰","STREET":"育德路","SECT":" ","MAREA":" ","LANE":"５９９巷","ALLEY":" ","HOUSE_NO":"２７號","E_COORD97":168658.91,"N_COORD97":2546293.0699999998,"ADDRESS":"育德路５９９巷２７號","OBJECTID":342981},"geometry":{"x":168658.91000000108,"y":2546293.0700000022}},{"attributes":{"ID":342991,"DIS_CODE":0,"TOWNNAME":"北區","LI":"成功里","LIN":"5鄰","STREET":"北安路","SECT":"一段","MAREA":" ","LANE":"十四二巷","ALLEY":" ","HOUSE_NO":"５５號六樓","E_COORD97":169063.81,"N_COORD97":2546570.3500000001,"ADDRESS":"北安路一段十四二巷５５號六樓","OBJECTID":342982},"geometry":{"x":169063.81000000052,"y":2546570.3499999996}},{"attributes":{"ID":342992,"DIS_CODE":0,"TOWNNAME":"北區","LI":"成功里","LIN":"5鄰","STREET":"北安路","SECT":"一段","MAREA":" ","LANE":"十四二巷","ALLEY":" ","HOUSE_NO":"５７號二樓","E_COORD97":169055.07999999999,"N_COORD97":2546577.02,"ADDRESS":"北安路一段十四二巷５７號二樓","OBJECTID":342983},"geometry":{"x":169055.08000000007,"y":2546577.0200000014}},{"attributes":{"ID":342993,"DIS_CODE":0,"TOWNNAME":"北區","LI":"成功里","LIN":"5鄰","STREET":"北安路","SECT":"一段","MAREA":" ","LANE":"十四二巷","ALLEY":" ","HOUSE_NO":"５７號三樓","E_COORD97":169055.07999999999,"N_COORD97":2546577.02,"ADDRESS":"北安路一段十四二巷５７號三樓","OBJECTID":342984},"geometry":{"x":169055.08000000007,"y":2546577.0200000014}},{"attributes":{"ID":342994,"DIS_CODE":0,"TOWNNAME":"北區","LI":"成功里","LIN":"5鄰","STREET":"北安路","SECT":"一段","MAREA":" ","LANE":"十四二巷","ALLEY":" ","HOUSE_NO":"５７號四樓","E_COORD97":169055.07999999999,"N_COORD97":2546577.02,"ADDRESS":"北安路一段十四二巷５７號四樓","OBJECTID":342985},"geometry":{"x":169055.08000000007,"y":2546577.0200000014}},{"attributes":{"ID":342995,"DIS_CODE":0,"TOWNNAME":"北區","LI":"成功里","LIN":"5鄰","STREET":"北安路","SECT":"一段","MAREA":" ","LANE":"十四二巷","ALLEY":" ","HOUSE_NO":"５７號七樓","E_COORD97":169055.07999999999,"N_COORD97":2546577.02,"ADDRESS":"北安路一段十四二巷５７號七樓","OBJECTID":342986},"geometry":{"x":169055.08000000007,"y":2546577.0200000014}},{"attributes":{"ID":342996,"DIS_CODE":0,"TOWNNAME":"東山區","LI":"南勢里","LIN":"5鄰","STREET":" ","SECT":" ","MAREA":"大洋","LANE":" ","ALLEY":" ","HOUSE_NO":"４４號之３","E_COORD97":195585.82000000001,"N_COORD97":2573441.9700000002,"ADDRESS":"大洋４４號之３","OBJECTID":342987},"geometry":{"x":195585.82000000123,"y":2573441.9700000007}},{"attributes":{"ID":342997,"DIS_CODE":0,"TOWNNAME":"東山區","LI":"南勢里","LIN":"5鄰","STREET":" ","SECT":" ","MAREA":"大洋","LANE":" ","ALLEY":" ","HOUSE_NO":"４６號","E_COORD97":195488.29000000001,"N_COORD97":2573371.5099999998,"ADDRESS":"大洋４６號","OBJECTID":342988},"geometry":{"x":195488.29000000004,"y":2573371.5100000016}},{"attributes":{"ID":342998,"DIS_CODE":0,"TOWNNAME":"東山區","LI":"南勢里","LIN":"5鄰","STREET":" ","SECT":" ","MAREA":"大洋","LANE":" ","ALLEY":" ","HOUSE_NO":"４８號之１","E_COORD97":195653.47,"N_COORD97":2573536.7400000002,"ADDRESS":"大洋４８號之１","OBJECTID":342989},"geometry":{"x":195653.47000000067,"y":2573536.7400000021}},{"attributes":{"ID":342999,"DIS_CODE":0,"TOWNNAME":"東山區","LI":"南勢里","LIN":"5鄰","STREET":" ","SECT":" ","MAREA":"大洋","LANE":" ","ALLEY":" ","HOUSE_NO":"４８號之２","E_COORD97":195714.04999999999,"N_COORD97":2573658.98,"ADDRESS":"大洋４８號之２","OBJECTID":342990},"geometry":{"x":195714.05000000075,"y":2573658.9800000004}},{"attributes":{"ID":343000,"DIS_CODE":0,"TOWNNAME":"東山區","LI":"南勢里","LIN":"5鄰","STREET":" ","SECT":" ","MAREA":"大洋","LANE":" ","ALLEY":" ","HOUSE_NO":"４８號之３","E_COORD97":195741.51000000001,"N_COORD97":2573559.4700000002,"ADDRESS":"大洋４８號之３","OBJECTID":342991},"geometry":{"x":195741.51000000071,"y":2573559.4700000025}},{"attributes":{"ID":343001,"DIS_CODE":0,"TOWNNAME":"東山區","LI":"南勢里","LIN":"5鄰","STREET":" ","SECT":" ","MAREA":"大洋","LANE":" ","ALLEY":" ","HOUSE_NO":"４８號之４","E_COORD97":195743.73999999999,"N_COORD97":2573595.1000000001,"ADDRESS":"大洋４８號之４","OBJECTID":342992},"geometry":{"x":195743.74000000115,"y":2573595.1000000015}},{"attributes":{"ID":343002,"DIS_CODE":0,"TOWNNAME":"東山區","LI":"南勢里","LIN":"5鄰","STREET":" ","SECT":" ","MAREA":"大洋","LANE":" ","ALLEY":" ","HOUSE_NO":"４８號之５","E_COORD97":195661.48000000001,"N_COORD97":2573530.52,"ADDRESS":"大洋４８號之５","OBJECTID":342993},"geometry":{"x":195661.48000000138,"y":2573530.5200000014}},{"attributes":{"ID":343003,"DIS_CODE":0,"TOWNNAME":"東山區","LI":"南勢里","LIN":"5鄰","STREET":" ","SECT":" ","MAREA":"大洋","LANE":" ","ALLEY":" ","HOUSE_NO":"４８號","E_COORD97":195666.07000000001,"N_COORD97":2573544.0899999999,"ADDRESS":"大洋４８號","OBJECTID":342994},"geometry":{"x":195666.0700000003,"y":2573544.0900000017}},{"attributes":{"ID":343004,"DIS_CODE":0,"TOWNNAME":"東山區","LI":"南勢里","LIN":"5鄰","STREET":" ","SECT":" ","MAREA":"大洋","LANE":" ","ALLEY":" ","HOUSE_NO":"４９號","E_COORD97":195655.20999999999,"N_COORD97":2573441.2400000002,"ADDRESS":"大洋４９號","OBJECTID":342995},"geometry":{"x":195655.21000000183,"y":2573441.2400000039}},{"attributes":{"ID":343005,"DIS_CODE":0,"TOWNNAME":"東山區","LI":"南勢里","LIN":"5鄰","STREET":" ","SECT":" ","MAREA":"大洋","LANE":" ","ALLEY":" ","HOUSE_NO":"５１號","E_COORD97":195726.63,"N_COORD97":2573467.0699999998,"ADDRESS":"大洋５１號","OBJECTID":342996},"geometry":{"x":195726.62999999989,"y":2573467.0700000022}},{"attributes":{"ID":343006,"DIS_CODE":0,"TOWNNAME":"東山區","LI":"大客里","LIN":"5鄰","STREET":" ","SECT":" ","MAREA":"大庄","LANE":" ","ALLEY":" ","HOUSE_NO":"３３之１號","E_COORD97":189787.07000000001,"N_COORD97":2578805.5499999998,"ADDRESS":"大庄３３之１號","OBJECTID":342997},"geometry":{"x":189787.0700000003,"y":2578805.5500000007}},{"attributes":{"ID":343007,"DIS_CODE":0,"TOWNNAME":"東山區","LI":"大客里","LIN":"5鄰","STREET":" ","SECT":" ","MAREA":"大庄","LANE":" ","ALLEY":" ","HOUSE_NO":"３３號之１","E_COORD97":189787.07000000001,"N_COORD97":2578805.5499999998,"ADDRESS":"大庄３３號之１","OBJECTID":342998},"geometry":{"x":189787.0700000003,"y":2578805.5500000007}},{"attributes":{"ID":343008,"DIS_CODE":0,"TOWNNAME":"東山區","LI":"大客里","LIN":"5鄰","STREET":" ","SECT":" ","MAREA":"大庄","LANE":" ","ALLEY":" ","HOUSE_NO":"３３號之２","E_COORD97":189766.17000000001,"N_COORD97":2578857.7599999998,"ADDRESS":"大庄３３號之２","OBJECTID":342999},"geometry":{"x":189766.16999999993,"y":2578857.7599999998}},{"attributes":{"ID":343009,"DIS_CODE":0,"TOWNNAME":"東山區","LI":"大客里","LIN":"5鄰","STREET":" ","SECT":" ","MAREA":"大庄","LANE":" ","ALLEY":" ","HOUSE_NO":"３３號之３","E_COORD97":189757.17000000001,"N_COORD97":2578813.8900000001,"ADDRESS":"大庄３３號之３","OBJECTID":343000},"geometry":{"x":189757.16999999993,"y":2578813.8900000006}}]}