{"displayFieldName":"TOWNNAME","fieldAliases":{"ID":"ID","DIS_CODE":"DIS_CODE","TOWNNAME":"TOWNNAME","LI":"LI","LIN":"LIN","STREET":"STREET","SECT":"SECT","MAREA":"MAREA","LANE":"LANE","ALLEY":"ALLEY","HOUSE_NO":"HOUSE_NO","E_COORD97":"E_COORD97","N_COORD97":"N_COORD97","ADDRESS":"ADDRESS","OBJECTID":"OBJECTID"},"geometryType":"esriGeometryPoint","spatialReference":{"wkid":102443,"latestWkid":3826},"fields":[{"name":"ID","type":"esriFieldTypeDouble","alias":"ID"},{"name":"DIS_CODE","type":"esriFieldTypeInteger","alias":"DIS_CODE"},{"name":"TOWNNAME","type":"esriFieldTypeString","alias":"TOWNNAME","length":8},{"name":"LI","type":"esriFieldTypeString","alias":"LI","length":8},{"name":"LIN","type":"esriFieldTypeString","alias":"LIN","length":12},{"name":"STREET","type":"esriFieldTypeString","alias":"STREET","length":20},{"name":"SECT","type":"esriFieldTypeString","alias":"SECT","length":8},{"name":"MAREA","type":"esriFieldTypeString","alias":"MAREA","length":12},{"name":"LANE","type":"esriFieldTypeString","alias":"LANE","length":10},{"name":"ALLEY","type":"esriFieldTypeString","alias":"ALLEY","length":10},{"name":"HOUSE_NO","type":"esriFieldTypeString","alias":"HOUSE_NO","length":20},{"name":"E_COORD97","type":"esriFieldTypeDouble","alias":"E_COORD97"},{"name":"N_COORD97","type":"esriFieldTypeDouble","alias":"N_COORD97"},{"name":"ADDRESS","type":"esriFieldTypeString","alias":"ADDRESS","length":50},{"name":"OBJECTID","type":"esriFieldTypeOID","alias":"OBJECTID"}],"features":[{"attributes":{"ID":394625,"DIS_CODE":0,"TOWNNAME":"東區","LI":"德光里","LIN":"16鄰","STREET":"崇德二街","SECT":" ","MAREA":" ","LANE":"７６巷","ALLEY":" ","HOUSE_NO":"９號","E_COORD97":170166.54999999999,"N_COORD97":2542397.54,"ADDRESS":"崇德二街７６巷９號","OBJECTID":394601},"geometry":{"x":170166.54999999981,"y":2542397.5399999991}},{"attributes":{"ID":394626,"DIS_CODE":0,"TOWNNAME":"東區","LI":"德光里","LIN":"16鄰","STREET":"德光街","SECT":" ","MAREA":" ","LANE":"６２巷","ALLEY":" ","HOUSE_NO":"１０號","E_COORD97":170220.48000000001,"N_COORD97":2542398.7999999998,"ADDRESS":"德光街６２巷１０號","OBJECTID":394602},"geometry":{"x":170220.48000000045,"y":2542398.7999999989}},{"attributes":{"ID":394627,"DIS_CODE":0,"TOWNNAME":"東區","LI":"德光里","LIN":"16鄰","STREET":"德光街","SECT":" ","MAREA":" ","LANE":"６２巷","ALLEY":" ","HOUSE_NO":"１１號","E_COORD97":170205.07999999999,"N_COORD97":2542386.1000000001,"ADDRESS":"德光街６２巷１１號","OBJECTID":394603},"geometry":{"x":170205.08000000101,"y":2542386.1000000015}},{"attributes":{"ID":394628,"DIS_CODE":0,"TOWNNAME":"東區","LI":"德光里","LIN":"16鄰","STREET":"德光街","SECT":" ","MAREA":" ","LANE":"６２巷","ALLEY":" ","HOUSE_NO":"１２號","E_COORD97":170216.73999999999,"N_COORD97":2542401.2999999998,"ADDRESS":"德光街６２巷１２號","OBJECTID":394604},"geometry":{"x":170216.74000000022,"y":2542401.3000000007}},{"attributes":{"ID":394629,"DIS_CODE":0,"TOWNNAME":"東區","LI":"德光里","LIN":"16鄰","STREET":"德光街","SECT":" ","MAREA":" ","LANE":"６２巷","ALLEY":" ","HOUSE_NO":"１３號","E_COORD97":170200.64000000001,"N_COORD97":2542389.5299999998,"ADDRESS":"德光街６２巷１３號","OBJECTID":394605},"geometry":{"x":170200.6400000006,"y":2542389.5300000012}},{"attributes":{"ID":394630,"DIS_CODE":0,"TOWNNAME":"東區","LI":"德光里","LIN":"16鄰","STREET":"德光街","SECT":" ","MAREA":" ","LANE":"６２巷","ALLEY":" ","HOUSE_NO":"１４號","E_COORD97":170211.88,"N_COORD97":2542404.9100000001,"ADDRESS":"德光街６２巷１４號","OBJECTID":394606},"geometry":{"x":170211.87999999989,"y":2542404.910000002}},{"attributes":{"ID":394631,"DIS_CODE":0,"TOWNNAME":"東區","LI":"德光里","LIN":"16鄰","STREET":"德光街","SECT":" ","MAREA":" ","LANE":"６２巷","ALLEY":" ","HOUSE_NO":"１５號","E_COORD97":170196.81,"N_COORD97":2542392.96,"ADDRESS":"德光街６２巷１５號","OBJECTID":394607},"geometry":{"x":170196.80999999959,"y":2542392.9600000028}},{"attributes":{"ID":394632,"DIS_CODE":0,"TOWNNAME":"東區","LI":"德光里","LIN":"16鄰","STREET":"德光街","SECT":" ","MAREA":" ","LANE":"６２巷","ALLEY":" ","HOUSE_NO":"１６號","E_COORD97":170208.38,"N_COORD97":2542408.02,"ADDRESS":"德光街６２巷１６號","OBJECTID":394608},"geometry":{"x":170208.38000000082,"y":2542408.0200000014}},{"attributes":{"ID":394633,"DIS_CODE":0,"TOWNNAME":"東區","LI":"德光里","LIN":"16鄰","STREET":"德光街","SECT":" ","MAREA":" ","LANE":"６２巷","ALLEY":" ","HOUSE_NO":"１７號","E_COORD97":170191.76000000001,"N_COORD97":2542396.9900000002,"ADDRESS":"德光街６２巷１７號","OBJECTID":394609},"geometry":{"x":170191.76000000071,"y":2542396.9899999984}},{"attributes":{"ID":394634,"DIS_CODE":0,"TOWNNAME":"東區","LI":"德光里","LIN":"16鄰","STREET":"德光街","SECT":" ","MAREA":" ","LANE":"６２巷","ALLEY":" ","HOUSE_NO":"１８號","E_COORD97":170202.82000000001,"N_COORD97":2542411.96,"ADDRESS":"德光街６２巷１８號","OBJECTID":394610},"geometry":{"x":170202.8200000003,"y":2542411.9600000028}},{"attributes":{"ID":394635,"DIS_CODE":0,"TOWNNAME":"東區","LI":"德光里","LIN":"16鄰","STREET":"德光街","SECT":" ","MAREA":" ","LANE":"６２巷","ALLEY":" ","HOUSE_NO":"１９號","E_COORD97":170187.32000000001,"N_COORD97":2542400.4199999999,"ADDRESS":"德光街６２巷１９號","OBJECTID":394611},"geometry":{"x":170187.3200000003,"y":2542400.4199999999}},{"attributes":{"ID":394636,"DIS_CODE":0,"TOWNNAME":"東區","LI":"德光里","LIN":"16鄰","STREET":"德光街","SECT":" ","MAREA":" ","LANE":"６２巷","ALLEY":" ","HOUSE_NO":"１號","E_COORD97":170224.67999999999,"N_COORD97":2542370.3300000001,"ADDRESS":"德光街６２巷１號","OBJECTID":394612},"geometry":{"x":170224.68000000063,"y":2542370.3300000001}},{"attributes":{"ID":394637,"DIS_CODE":0,"TOWNNAME":"東區","LI":"德光里","LIN":"16鄰","STREET":"德光街","SECT":" ","MAREA":" ","LANE":"６２巷","ALLEY":" ","HOUSE_NO":"２０號","E_COORD97":170198.32999999999,"N_COORD97":2542415.0699999998,"ADDRESS":"德光街６２巷２０號","OBJECTID":394613},"geometry":{"x":170198.33000000101,"y":2542415.0700000022}},{"attributes":{"ID":394638,"DIS_CODE":0,"TOWNNAME":"東區","LI":"德光里","LIN":"16鄰","STREET":"德光街","SECT":" ","MAREA":" ","LANE":"６２巷","ALLEY":" ","HOUSE_NO":"２１號","E_COORD97":170182.88,"N_COORD97":2542403.2400000002,"ADDRESS":"德光街６２巷２１號","OBJECTID":394614},"geometry":{"x":170182.88000000082,"y":2542403.2400000021}},{"attributes":{"ID":394639,"DIS_CODE":0,"TOWNNAME":"東區","LI":"德光里","LIN":"16鄰","STREET":"德光街","SECT":" ","MAREA":" ","LANE":"６２巷","ALLEY":" ","HOUSE_NO":"２２號","E_COORD97":170194.59,"N_COORD97":2542418.3100000001,"ADDRESS":"德光街６２巷２２號","OBJECTID":394615},"geometry":{"x":170194.59000000078,"y":2542418.3100000005}},{"attributes":{"ID":394640,"DIS_CODE":0,"TOWNNAME":"東區","LI":"德光里","LIN":"16鄰","STREET":"德光街","SECT":" ","MAREA":" ","LANE":"６２巷","ALLEY":" ","HOUSE_NO":"２３號","E_COORD97":170179.04000000001,"N_COORD97":2542406.0600000001,"ADDRESS":"德光街６２巷２３號","OBJECTID":394616},"geometry":{"x":170179.04000000004,"y":2542406.0600000005}},{"attributes":{"ID":394641,"DIS_CODE":0,"TOWNNAME":"東區","LI":"德光里","LIN":"16鄰","STREET":"德光街","SECT":" ","MAREA":" ","LANE":"６２巷","ALLEY":" ","HOUSE_NO":"２４號","E_COORD97":170189.98000000001,"N_COORD97":2542421.2999999998,"ADDRESS":"德光街６２巷２４號","OBJECTID":394617},"geometry":{"x":170189.98000000045,"y":2542421.3000000007}},{"attributes":{"ID":394642,"DIS_CODE":0,"TOWNNAME":"東區","LI":"德光里","LIN":"16鄰","STREET":"德光街","SECT":" ","MAREA":" ","LANE":"６２巷","ALLEY":" ","HOUSE_NO":"２５號","E_COORD97":170175.20999999999,"N_COORD97":2542409.6899999999,"ADDRESS":"德光街６２巷２５號","OBJECTID":394618},"geometry":{"x":170175.21000000089,"y":2542409.6900000013}},{"attributes":{"ID":394643,"DIS_CODE":0,"TOWNNAME":"東區","LI":"德光里","LIN":"16鄰","STREET":"德光街","SECT":" ","MAREA":" ","LANE":"６２巷","ALLEY":" ","HOUSE_NO":"２６號","E_COORD97":170186.23999999999,"N_COORD97":2542424.54,"ADDRESS":"德光街６２巷２６號","OBJECTID":394619},"geometry":{"x":170186.24000000022,"y":2542424.5399999991}},{"attributes":{"ID":394644,"DIS_CODE":0,"TOWNNAME":"東區","LI":"德光里","LIN":"16鄰","STREET":"德光街","SECT":" ","MAREA":" ","LANE":"６２巷","ALLEY":" ","HOUSE_NO":"２７號","E_COORD97":170171.17000000001,"N_COORD97":2542412.71,"ADDRESS":"德光街６２巷２７號","OBJECTID":394620},"geometry":{"x":170171.16999999993,"y":2542412.7100000009}},{"attributes":{"ID":394645,"DIS_CODE":0,"TOWNNAME":"東區","LI":"德光里","LIN":"16鄰","STREET":"德光街","SECT":" ","MAREA":" ","LANE":"６２巷","ALLEY":" ","HOUSE_NO":"２８號","E_COORD97":170182.25,"N_COORD97":2542427.8999999999,"ADDRESS":"德光街６２巷２８號","OBJECTID":394621},"geometry":{"x":170182.25000000093,"y":2542427.9000000004}},{"attributes":{"ID":394646,"DIS_CODE":0,"TOWNNAME":"東區","LI":"德光里","LIN":"16鄰","STREET":"德光街","SECT":" ","MAREA":" ","LANE":"６２巷","ALLEY":" ","HOUSE_NO":"２９號","E_COORD97":170167.13,"N_COORD97":2542415.9399999999,"ADDRESS":"德光街６２巷２９號","OBJECTID":394622},"geometry":{"x":170167.13000000082,"y":2542415.9399999995}},{"attributes":{"ID":394647,"DIS_CODE":0,"TOWNNAME":"東區","LI":"德光里","LIN":"16鄰","STREET":"德光街","SECT":" ","MAREA":" ","LANE":"６２巷","ALLEY":" ","HOUSE_NO":"２號","E_COORD97":170237.07000000001,"N_COORD97":2542386.3500000001,"ADDRESS":"德光街６２巷２號","OBJECTID":394623},"geometry":{"x":170237.06999999937,"y":2542386.3499999996}},{"attributes":{"ID":394648,"DIS_CODE":0,"TOWNNAME":"東區","LI":"德光里","LIN":"16鄰","STREET":"德光街","SECT":" ","MAREA":" ","LANE":"６２巷","ALLEY":" ","HOUSE_NO":"３０號","E_COORD97":170178.01000000001,"N_COORD97":2542430.8900000001,"ADDRESS":"德光街６２巷３０號","OBJECTID":394624},"geometry":{"x":170178.01000000071,"y":2542430.8900000006}},{"attributes":{"ID":394649,"DIS_CODE":0,"TOWNNAME":"東區","LI":"德光里","LIN":"16鄰","STREET":"德光街","SECT":" ","MAREA":" ","LANE":"６２巷","ALLEY":" ","HOUSE_NO":"３１號","E_COORD97":170161.48000000001,"N_COORD97":2542419.3700000001,"ADDRESS":"德光街６２巷３１號","OBJECTID":394625},"geometry":{"x":170161.48000000045,"y":2542419.3700000048}},{"attributes":{"ID":394650,"DIS_CODE":0,"TOWNNAME":"東區","LI":"德光里","LIN":"16鄰","STREET":"德光街","SECT":" ","MAREA":" ","LANE":"６２巷","ALLEY":" ","HOUSE_NO":"３２號","E_COORD97":170173.39000000001,"N_COORD97":2542433.8799999999,"ADDRESS":"德光街６２巷３２號","OBJECTID":394626},"geometry":{"x":170173.39000000153,"y":2542433.8800000027}},{"attributes":{"ID":394651,"DIS_CODE":0,"TOWNNAME":"東區","LI":"德光里","LIN":"16鄰","STREET":"德光街","SECT":" ","MAREA":" ","LANE":"６２巷","ALLEY":" ","HOUSE_NO":"５號","E_COORD97":170216.79000000001,"N_COORD97":2542376.8300000001,"ADDRESS":"德光街６２巷５號","OBJECTID":394627},"geometry":{"x":170216.7900000019,"y":2542376.8300000001}},{"attributes":{"ID":394652,"DIS_CODE":0,"TOWNNAME":"東區","LI":"德光里","LIN":"16鄰","STREET":"德光街","SECT":" ","MAREA":" ","LANE":"６２巷","ALLEY":" ","HOUSE_NO":"６號","E_COORD97":170228.34,"N_COORD97":2542392.8300000001,"ADDRESS":"德光街６２巷６號","OBJECTID":394628},"geometry":{"x":170228.34000000078,"y":2542392.8300000019}},{"attributes":{"ID":394653,"DIS_CODE":0,"TOWNNAME":"東區","LI":"德光里","LIN":"16鄰","STREET":"德光街","SECT":" ","MAREA":" ","LANE":"６２巷","ALLEY":" ","HOUSE_NO":"７號","E_COORD97":170212.75,"N_COORD97":2542380.0499999998,"ADDRESS":"德光街６２巷７號","OBJECTID":394629},"geometry":{"x":170212.75000000093,"y":2542380.0500000007}},{"attributes":{"ID":394654,"DIS_CODE":0,"TOWNNAME":"仁德區","LI":"仁義里","LIN":"16鄰","STREET":"義林路","SECT":" ","MAREA":" ","LANE":"２３３巷","ALLEY":" ","HOUSE_NO":"２９號","E_COORD97":174461.54000000001,"N_COORD97":2541240.5600000001,"ADDRESS":"義林路２３３巷２９號","OBJECTID":394630},"geometry":{"x":174461.5400000019,"y":2541240.5600000005}},{"attributes":{"ID":394655,"DIS_CODE":0,"TOWNNAME":"仁德區","LI":"仁義里","LIN":"16鄰","STREET":"義林路","SECT":" ","MAREA":" ","LANE":"２４１巷","ALLEY":" ","HOUSE_NO":"３之２號","E_COORD97":174494.03,"N_COORD97":2541293.2599999998,"ADDRESS":"義林路２４１巷３之２號","OBJECTID":394631},"geometry":{"x":174494.03000000212,"y":2541293.2600000035}},{"attributes":{"ID":394656,"DIS_CODE":0,"TOWNNAME":"仁德區","LI":"上崙里","LIN":"16鄰","STREET":"德崙路","SECT":" ","MAREA":" ","LANE":"３７０巷","ALLEY":" ","HOUSE_NO":"４５號","E_COORD97":174018.81,"N_COORD97":2537946.52,"ADDRESS":"德崙路３７０巷４５號","OBJECTID":394632},"geometry":{"x":174018.81000000052,"y":2537946.5199999996}},{"attributes":{"ID":394657,"DIS_CODE":0,"TOWNNAME":"仁德區","LI":"土庫里","LIN":"16鄰","STREET":"土庫一街","SECT":" ","MAREA":" ","LANE":"８１１巷","ALLEY":" ","HOUSE_NO":"１３６號","E_COORD97":174768.10000000001,"N_COORD97":2542310.5,"ADDRESS":"土庫一街８１１巷１３６號","OBJECTID":394633},"geometry":{"x":174768.10000000056,"y":2542310.5}},{"attributes":{"ID":394658,"DIS_CODE":0,"TOWNNAME":"仁德區","LI":"新田里","LIN":"16鄰","STREET":"北保東路","SECT":" ","MAREA":" ","LANE":"３２巷","ALLEY":" ","HOUSE_NO":"３號","E_COORD97":173441.67000000001,"N_COORD97":2539337.2400000002,"ADDRESS":"北保東路３２巷３號","OBJECTID":394634},"geometry":{"x":173441.67000000179,"y":2539337.2400000039}},{"attributes":{"ID":394659,"DIS_CODE":0,"TOWNNAME":"仁德區","LI":"上崙里","LIN":"16鄰","STREET":"德崙路","SECT":" ","MAREA":" ","LANE":"３７０巷","ALLEY":" ","HOUSE_NO":"９號","E_COORD97":174015.54999999999,"N_COORD97":2538068.5099999998,"ADDRESS":"德崙路３７０巷９號","OBJECTID":394635},"geometry":{"x":174015.55000000075,"y":2538068.5100000016}},{"attributes":{"ID":394660,"DIS_CODE":0,"TOWNNAME":"仁德區","LI":"仁義里","LIN":"16鄰","STREET":"義林路","SECT":" ","MAREA":" ","LANE":"２３３巷","ALLEY":" ","HOUSE_NO":"２１號","E_COORD97":174479.16,"N_COORD97":2541241.5600000001,"ADDRESS":"義林路２３３巷２１號","OBJECTID":394636},"geometry":{"x":174479.16000000015,"y":2541241.5600000024}},{"attributes":{"ID":394661,"DIS_CODE":0,"TOWNNAME":"仁德區","LI":"保安里","LIN":"16鄰","STREET":"中正路","SECT":"一段","MAREA":" ","LANE":"１８２巷","ALLEY":" ","HOUSE_NO":"２２號","E_COORD97":171601.10000000001,"N_COORD97":2535701.02,"ADDRESS":"中正路一段１８２巷２２號","OBJECTID":394637},"geometry":{"x":171601.10000000056,"y":2535701.0200000014}},{"attributes":{"ID":394662,"DIS_CODE":0,"TOWNNAME":"仁德區","LI":"二行里","LIN":"16鄰","STREET":"行大街","SECT":" ","MAREA":" ","LANE":"１７２巷","ALLEY":" ","HOUSE_NO":"９０號","E_COORD97":169766.67000000001,"N_COORD97":2535246,"ADDRESS":"行大街１７２巷９０號","OBJECTID":394638},"geometry":{"x":169766.67000000179,"y":2535246}},{"attributes":{"ID":394663,"DIS_CODE":0,"TOWNNAME":"仁德區","LI":"仁義里","LIN":"16鄰","STREET":"義林路","SECT":" ","MAREA":" ","LANE":"２３３巷","ALLEY":" ","HOUSE_NO":"２２號","E_COORD97":174463.39000000001,"N_COORD97":2541260.02,"ADDRESS":"義林路２３３巷２２號","OBJECTID":394639},"geometry":{"x":174463.38999999966,"y":2541260.0199999996}},{"attributes":{"ID":394664,"DIS_CODE":0,"TOWNNAME":"永康區","LI":"永康里","LIN":"16鄰","STREET":"永中街","SECT":" ","MAREA":" ","LANE":"１１８巷","ALLEY":" ","HOUSE_NO":"２號","E_COORD97":173977.87,"N_COORD97":2547232.1099999999,"ADDRESS":"永中街１１８巷２號","OBJECTID":394640},"geometry":{"x":173977.86999999918,"y":2547232.1099999994}},{"attributes":{"ID":394665,"DIS_CODE":0,"TOWNNAME":"永康區","LI":"永康里","LIN":"16鄰","STREET":"永中街","SECT":" ","MAREA":" ","LANE":"１００巷","ALLEY":" ","HOUSE_NO":"５５號","E_COORD97":174093.19,"N_COORD97":2547125.7400000002,"ADDRESS":"永中街１００巷５５號","OBJECTID":394641},"geometry":{"x":174093.19000000227,"y":2547125.7400000021}},{"attributes":{"ID":394666,"DIS_CODE":0,"TOWNNAME":"永康區","LI":"光復里","LIN":"16鄰","STREET":"復興路","SECT":" ","MAREA":" ","LANE":"１２８巷","ALLEY":" ","HOUSE_NO":"３０號","E_COORD97":172710.51000000001,"N_COORD97":2544400.02,"ADDRESS":"復興路１２８巷３０號","OBJECTID":394642},"geometry":{"x":172710.51000000071,"y":2544400.0200000033}},{"attributes":{"ID":394667,"DIS_CODE":0,"TOWNNAME":"永康區","LI":"安康里","LIN":"16鄰","STREET":"中華路","SECT":" ","MAREA":" ","LANE":"６６１巷","ALLEY":" ","HOUSE_NO":"１０１號","E_COORD97":170814.88,"N_COORD97":2546114,"ADDRESS":"中華路６６１巷１０１號","OBJECTID":394643},"geometry":{"x":170814.88000000082,"y":2546114.0000000019}},{"attributes":{"ID":394668,"DIS_CODE":0,"TOWNNAME":"永康區","LI":"光復里","LIN":"16鄰","STREET":"復興路","SECT":" ","MAREA":" ","LANE":"１２８巷","ALLEY":" ","HOUSE_NO":"１８之１號","E_COORD97":172718.17999999999,"N_COORD97":2544381.0499999998,"ADDRESS":"復興路１２８巷１８之１號","OBJECTID":394644},"geometry":{"x":172718.18000000063,"y":2544381.0500000026}},{"attributes":{"ID":394669,"DIS_CODE":0,"TOWNNAME":"永康區","LI":"正強里","LIN":"16鄰","STREET":"自強路","SECT":" ","MAREA":" ","LANE":"１８８巷","ALLEY":" ","HOUSE_NO":"１４號","E_COORD97":173192.29999999999,"N_COORD97":2547486.98,"ADDRESS":"自強路１８８巷１４號","OBJECTID":394645},"geometry":{"x":173192.30000000075,"y":2547486.9800000023}},{"attributes":{"ID":394670,"DIS_CODE":0,"TOWNNAME":"永康區","LI":"正強里","LIN":"16鄰","STREET":"自強路","SECT":" ","MAREA":" ","LANE":"１８８巷","ALLEY":" ","HOUSE_NO":"２２號","E_COORD97":173195.19,"N_COORD97":2547459.25,"ADDRESS":"自強路１８８巷２２號","OBJECTID":394646},"geometry":{"x":173195.19000000134,"y":2547459.25}},{"attributes":{"ID":394671,"DIS_CODE":0,"TOWNNAME":"永康區","LI":"永康里","LIN":"16鄰","STREET":"永中街","SECT":" ","MAREA":" ","LANE":"１００巷","ALLEY":" ","HOUSE_NO":"１３號","E_COORD97":173984.51000000001,"N_COORD97":2547195.2799999998,"ADDRESS":"永中街１００巷１３號","OBJECTID":394647},"geometry":{"x":173984.50999999978,"y":2547195.2800000031}},{"attributes":{"ID":394672,"DIS_CODE":0,"TOWNNAME":"永康區","LI":"安康里","LIN":"16鄰","STREET":"中華路","SECT":" ","MAREA":" ","LANE":"６６１巷","ALLEY":" ","HOUSE_NO":"９９號","E_COORD97":170817.76999999999,"N_COORD97":2546116.5,"ADDRESS":"中華路６６１巷９９號","OBJECTID":394648},"geometry":{"x":170817.76999999955,"y":2546116.5000000019}},{"attributes":{"ID":394673,"DIS_CODE":0,"TOWNNAME":"永康區","LI":"安康里","LIN":"16鄰","STREET":"中華路","SECT":" ","MAREA":" ","LANE":"６６１巷","ALLEY":" ","HOUSE_NO":"１５號","E_COORD97":170918.57000000001,"N_COORD97":2546173.7400000002,"ADDRESS":"中華路６６１巷１５號","OBJECTID":394649},"geometry":{"x":170918.56999999937,"y":2546173.7400000021}},{"attributes":{"ID":394674,"DIS_CODE":0,"TOWNNAME":"永康區","LI":"五王里","LIN":"16鄰","STREET":"成功路","SECT":" ","MAREA":" ","LANE":"１７２巷","ALLEY":" ","HOUSE_NO":"７２號","E_COORD97":171565.29000000001,"N_COORD97":2545763.04,"ADDRESS":"成功路１７２巷７２號","OBJECTID":394650},"geometry":{"x":171565.29000000097,"y":2545763.040000001}},{"attributes":{"ID":394675,"DIS_CODE":0,"TOWNNAME":"永康區","LI":"網寮里","LIN":"16鄰","STREET":"永二街","SECT":" ","MAREA":" ","LANE":"２４４巷","ALLEY":" ","HOUSE_NO":"５８號","E_COORD97":173264.17000000001,"N_COORD97":2546694.79,"ADDRESS":"永二街２４４巷５８號","OBJECTID":394651},"geometry":{"x":173264.17000000086,"y":2546694.7899999991}},{"attributes":{"ID":394676,"DIS_CODE":0,"TOWNNAME":"永康區","LI":"烏竹里","LIN":"16鄰","STREET":"龍橋街","SECT":" ","MAREA":" ","LANE":"２９６巷","ALLEY":" ","HOUSE_NO":"１９號","E_COORD97":174565.60000000001,"N_COORD97":2549042.75,"ADDRESS":"龍橋街２９６巷１９號","OBJECTID":394652},"geometry":{"x":174565.59999999963,"y":2549042.75}},{"attributes":{"ID":394677,"DIS_CODE":0,"TOWNNAME":"永康區","LI":"勝利里","LIN":"16鄰","STREET":"勝利街","SECT":" ","MAREA":" ","LANE":"１０７巷","ALLEY":" ","HOUSE_NO":"５８號","E_COORD97":171204.53,"N_COORD97":2544939.25,"ADDRESS":"勝利街１０７巷５８號","OBJECTID":394653},"geometry":{"x":171204.53000000119,"y":2544939.2500000019}},{"attributes":{"ID":394678,"DIS_CODE":0,"TOWNNAME":"永康區","LI":"復華里","LIN":"16鄰","STREET":"國華街","SECT":" ","MAREA":" ","LANE":"９５巷","ALLEY":" ","HOUSE_NO":"２０號","E_COORD97":172760.44,"N_COORD97":2546025,"ADDRESS":"國華街９５巷２０號","OBJECTID":394654},"geometry":{"x":172760.44000000041,"y":2546025.0000000019}},{"attributes":{"ID":394679,"DIS_CODE":0,"TOWNNAME":"永康區","LI":"西勢里","LIN":"16鄰","STREET":"西勢路","SECT":" ","MAREA":" ","LANE":"８２巷","ALLEY":" ","HOUSE_NO":"１８號","E_COORD97":176109.64999999999,"N_COORD97":2546813.9700000002,"ADDRESS":"西勢路８２巷１８號","OBJECTID":394655},"geometry":{"x":176109.6500000013,"y":2546813.9700000007}},{"attributes":{"ID":394680,"DIS_CODE":0,"TOWNNAME":"永康區","LI":"復國里","LIN":"16鄰","STREET":"復國二路","SECT":" ","MAREA":" ","LANE":"１９６巷","ALLEY":" ","HOUSE_NO":"１２號","E_COORD97":172978.92999999999,"N_COORD97":2545776.5499999998,"ADDRESS":"復國二路１９６巷１２號","OBJECTID":394656},"geometry":{"x":172978.93000000063,"y":2545776.5500000007}},{"attributes":{"ID":394681,"DIS_CODE":0,"TOWNNAME":"永康區","LI":"大橋里","LIN":"16鄰","STREET":"大橋一街","SECT":" ","MAREA":" ","LANE":"１０３巷","ALLEY":" ","HOUSE_NO":"６８號","E_COORD97":170930.63,"N_COORD97":2546572.9900000002,"ADDRESS":"大橋一街１０３巷６８號","OBJECTID":394657},"geometry":{"x":170930.62999999989,"y":2546572.9900000002}},{"attributes":{"ID":394682,"DIS_CODE":0,"TOWNNAME":"永康區","LI":"南灣里","LIN":"16鄰","STREET":"大灣一街","SECT":" ","MAREA":" ","LANE":"１３１巷","ALLEY":" ","HOUSE_NO":"２３號","E_COORD97":174594.84,"N_COORD97":2544730.4900000002,"ADDRESS":"大灣一街１３１巷２３號","OBJECTID":394658},"geometry":{"x":174594.83999999892,"y":2544730.4900000021}},{"attributes":{"ID":394683,"DIS_CODE":0,"TOWNNAME":"永康區","LI":"埔園里","LIN":"16鄰","STREET":"中山路","SECT":" ","MAREA":" ","LANE":"３８３巷","ALLEY":" ","HOUSE_NO":"１４號","E_COORD97":173498.47,"N_COORD97":2548533.46,"ADDRESS":"中山路３８３巷１４號","OBJECTID":394659},"geometry":{"x":173498.46999999974,"y":2548533.4600000009}},{"attributes":{"ID":394684,"DIS_CODE":0,"TOWNNAME":"永康區","LI":"烏竹里","LIN":"16鄰","STREET":"龍橋街","SECT":" ","MAREA":" ","LANE":"１８６巷","ALLEY":" ","HOUSE_NO":"５３號","E_COORD97":174757.87,"N_COORD97":2548816.0499999998,"ADDRESS":"龍橋街１８６巷５３號","OBJECTID":394660},"geometry":{"x":174757.87000000197,"y":2548816.0500000026}},{"attributes":{"ID":394685,"DIS_CODE":0,"TOWNNAME":"永康區","LI":"烏竹里","LIN":"16鄰","STREET":"龍橋街","SECT":" ","MAREA":" ","LANE":"２９６巷","ALLEY":" ","HOUSE_NO":"１號","E_COORD97":174534.91,"N_COORD97":2549016.5,"ADDRESS":"龍橋街２９６巷１號","OBJECTID":394661},"geometry":{"x":174534.91000000015,"y":2549016.5000000019}},{"attributes":{"ID":394686,"DIS_CODE":0,"TOWNNAME":"永康區","LI":"烏竹里","LIN":"16鄰","STREET":"龍橋街","SECT":" ","MAREA":" ","LANE":"１８６巷","ALLEY":" ","HOUSE_NO":"３１號","E_COORD97":174715.5,"N_COORD97":2548781.48,"ADDRESS":"龍橋街１８６巷３１號","OBJECTID":394662},"geometry":{"x":174715.5,"y":2548781.4800000042}},{"attributes":{"ID":394687,"DIS_CODE":0,"TOWNNAME":"永康區","LI":"烏竹里","LIN":"16鄰","STREET":"龍橋街","SECT":" ","MAREA":" ","LANE":"１８６巷","ALLEY":" ","HOUSE_NO":"３０號","E_COORD97":174693.85999999999,"N_COORD97":2548787.5,"ADDRESS":"龍橋街１８６巷３０號","OBJECTID":394663},"geometry":{"x":174693.86000000127,"y":2548787.4999999981}},{"attributes":{"ID":394688,"DIS_CODE":0,"TOWNNAME":"永康區","LI":"烏竹里","LIN":"16鄰","STREET":"龍橋街","SECT":" ","MAREA":" ","LANE":"１８６巷","ALLEY":" ","HOUSE_NO":"３２號","E_COORD97":174697.57000000001,"N_COORD97":2548790.5,"ADDRESS":"龍橋街１８６巷３２號","OBJECTID":394664},"geometry":{"x":174697.57000000123,"y":2548790.5}},{"attributes":{"ID":394689,"DIS_CODE":0,"TOWNNAME":"永康區","LI":"烏竹里","LIN":"16鄰","STREET":"龍橋街","SECT":" ","MAREA":" ","LANE":"１８６巷","ALLEY":" ","HOUSE_NO":"７０號","E_COORD97":174757.45999999999,"N_COORD97":2548838.7400000002,"ADDRESS":"龍橋街１８６巷７０號","OBJECTID":394665},"geometry":{"x":174757.46000000089,"y":2548838.7400000021}},{"attributes":{"ID":394690,"DIS_CODE":0,"TOWNNAME":"永康區","LI":"南灣里","LIN":"16鄰","STREET":"大灣一街","SECT":" ","MAREA":" ","LANE":"１３１巷","ALLEY":" ","HOUSE_NO":"１３號","E_COORD97":174584.5,"N_COORD97":2544709.9900000002,"ADDRESS":"大灣一街１３１巷１３號","OBJECTID":394666},"geometry":{"x":174584.50000000093,"y":2544709.9900000021}},{"attributes":{"ID":394691,"DIS_CODE":0,"TOWNNAME":"安南區","LI":"城南里","LIN":"16鄰","STREET":"青砂街","SECT":"一段","MAREA":" ","LANE":"３１巷","ALLEY":" ","HOUSE_NO":"３之１號","E_COORD97":160647.20999999999,"N_COORD97":2551505.98,"ADDRESS":"青砂街一段３１巷３之１號","OBJECTID":394667},"geometry":{"x":160647.20999999996,"y":2551505.9800000004}},{"attributes":{"ID":394692,"DIS_CODE":0,"TOWNNAME":"安南區","LI":"新順里","LIN":"16鄰","STREET":"頂安街","SECT":" ","MAREA":" ","LANE":"６８巷","ALLEY":" ","HOUSE_NO":"６２號","E_COORD97":169625.91,"N_COORD97":2549415.5800000001,"ADDRESS":"頂安街６８巷６２號","OBJECTID":394668},"geometry":{"x":169625.91000000015,"y":2549415.5800000019}},{"attributes":{"ID":394693,"DIS_CODE":0,"TOWNNAME":"安南區","LI":"新順里","LIN":"16鄰","STREET":"頂安街","SECT":" ","MAREA":" ","LANE":"６８巷","ALLEY":" ","HOUSE_NO":"６６號","E_COORD97":169621.82999999999,"N_COORD97":2549407.4500000002,"ADDRESS":"頂安街６８巷６６號","OBJECTID":394669},"geometry":{"x":169621.83000000101,"y":2549407.4499999974}},{"attributes":{"ID":394694,"DIS_CODE":0,"TOWNNAME":"安南區","LI":"新順里","LIN":"16鄰","STREET":"頂安街","SECT":" ","MAREA":" ","LANE":"６８巷","ALLEY":" ","HOUSE_NO":"６８號","E_COORD97":169641.41,"N_COORD97":2549408.5299999998,"ADDRESS":"頂安街６８巷６８號","OBJECTID":394670},"geometry":{"x":169641.41000000201,"y":2549408.5300000012}},{"attributes":{"ID":394695,"DIS_CODE":0,"TOWNNAME":"安南區","LI":"新順里","LIN":"16鄰","STREET":"頂安街","SECT":" ","MAREA":" ","LANE":"６８巷","ALLEY":" ","HOUSE_NO":"７０號","E_COORD97":169646.92999999999,"N_COORD97":2549407.8100000001,"ADDRESS":"頂安街６８巷７０號","OBJECTID":394671},"geometry":{"x":169646.9299999997,"y":2549407.8100000024}},{"attributes":{"ID":394696,"DIS_CODE":0,"TOWNNAME":"安南區","LI":"新順里","LIN":"16鄰","STREET":"頂安街","SECT":" ","MAREA":" ","LANE":"６８巷","ALLEY":" ","HOUSE_NO":"７２號","E_COORD97":169652.17000000001,"N_COORD97":2549406.9500000002,"ADDRESS":"頂安街６８巷７２號","OBJECTID":394672},"geometry":{"x":169652.16999999993,"y":2549406.9499999993}},{"attributes":{"ID":394697,"DIS_CODE":0,"TOWNNAME":"安南區","LI":"新順里","LIN":"16鄰","STREET":"頂安街","SECT":" ","MAREA":" ","LANE":"６８巷","ALLEY":" ","HOUSE_NO":"７６號","E_COORD97":169658.04999999999,"N_COORD97":2549405.7999999998,"ADDRESS":"頂安街６８巷７６號","OBJECTID":394673},"geometry":{"x":169658.04999999981,"y":2549405.8000000007}},{"attributes":{"ID":394698,"DIS_CODE":0,"TOWNNAME":"東區","LI":"虎尾里","LIN":"16鄰","STREET":"東成街","SECT":" ","MAREA":" ","LANE":"４６巷","ALLEY":" ","HOUSE_NO":"２３號","E_COORD97":171363.25,"N_COORD97":2542184.9700000002,"ADDRESS":"東成街４６巷２３號","OBJECTID":394674},"geometry":{"x":171363.25000000093,"y":2542184.9700000025}},{"attributes":{"ID":394699,"DIS_CODE":0,"TOWNNAME":"南區","LI":"明興里","LIN":"16鄰","STREET":"德興路","SECT":" ","MAREA":" ","LANE":"１６４巷","ALLEY":" ","HOUSE_NO":"８９號","E_COORD97":167132.62,"N_COORD97":2540306.0499999998,"ADDRESS":"德興路１６４巷８９號","OBJECTID":394675},"geometry":{"x":167132.62000000011,"y":2540306.0500000026}},{"attributes":{"ID":394700,"DIS_CODE":0,"TOWNNAME":"南區","LI":"明興里","LIN":"16鄰","STREET":"德興路","SECT":" ","MAREA":" ","LANE":"１６４巷","ALLEY":" ","HOUSE_NO":"９１號","E_COORD97":167137,"N_COORD97":2540307.04,"ADDRESS":"德興路１６４巷９１號","OBJECTID":394676},"geometry":{"x":167137.00000000093,"y":2540307.0400000028}},{"attributes":{"ID":394701,"DIS_CODE":0,"TOWNNAME":"南區","LI":"明興里","LIN":"16鄰","STREET":"德興路","SECT":" ","MAREA":" ","LANE":"１６４巷","ALLEY":" ","HOUSE_NO":"９３號","E_COORD97":167140.79999999999,"N_COORD97":2540307.8700000001,"ADDRESS":"德興路１６４巷９３號","OBJECTID":394677},"geometry":{"x":167140.79999999981,"y":2540307.8700000029}},{"attributes":{"ID":394702,"DIS_CODE":0,"TOWNNAME":"南區","LI":"明興里","LIN":"16鄰","STREET":"德興路","SECT":" ","MAREA":" ","LANE":"１６４巷","ALLEY":" ","HOUSE_NO":"９５號","E_COORD97":167145.10000000001,"N_COORD97":2540308.2799999998,"ADDRESS":"德興路１６４巷９５號","OBJECTID":394678},"geometry":{"x":167145.10000000056,"y":2540308.2799999993}},{"attributes":{"ID":394703,"DIS_CODE":0,"TOWNNAME":"南區","LI":"明興里","LIN":"16鄰","STREET":"德興路","SECT":" ","MAREA":" ","LANE":"１６４巷","ALLEY":" ","HOUSE_NO":"９７號","E_COORD97":167149.5,"N_COORD97":2540309.52,"ADDRESS":"德興路１６４巷９７號","OBJECTID":394679},"geometry":{"x":167149.50000000093,"y":2540309.5199999996}},{"attributes":{"ID":394704,"DIS_CODE":0,"TOWNNAME":"南區","LI":"明興里","LIN":"16鄰","STREET":"德興路","SECT":" ","MAREA":" ","LANE":"１６４巷","ALLEY":" ","HOUSE_NO":"９９號","E_COORD97":167153.29999999999,"N_COORD97":2540310.4199999999,"ADDRESS":"德興路１６４巷９９號","OBJECTID":394680},"geometry":{"x":167153.30000000168,"y":2540310.4200000018}},{"attributes":{"ID":394705,"DIS_CODE":0,"TOWNNAME":"南區","LI":"明興里","LIN":"16鄰","STREET":"德興路","SECT":" ","MAREA":" ","LANE":"１６４巷","ALLEY":" ","HOUSE_NO":"１０１號","E_COORD97":167156.94,"N_COORD97":2540311.3300000001,"ADDRESS":"德興路１６４巷１０１號","OBJECTID":394681},"geometry":{"x":167156.94000000134,"y":2540311.3300000001}},{"attributes":{"ID":394706,"DIS_CODE":0,"TOWNNAME":"南區","LI":"明興里","LIN":"16鄰","STREET":"德興路","SECT":" ","MAREA":" ","LANE":"１６４巷","ALLEY":" ","HOUSE_NO":"１０３號","E_COORD97":167161.07000000001,"N_COORD97":2540311.9100000001,"ADDRESS":"德興路１６４巷１０３號","OBJECTID":394682},"geometry":{"x":167161.07000000123,"y":2540311.9100000001}},{"attributes":{"ID":394707,"DIS_CODE":0,"TOWNNAME":"南區","LI":"明興里","LIN":"16鄰","STREET":"德興路","SECT":" ","MAREA":" ","LANE":"１６４巷","ALLEY":" ","HOUSE_NO":"１０５號","E_COORD97":167165.45000000001,"N_COORD97":2540312.5699999998,"ADDRESS":"德興路１６４巷１０５號","OBJECTID":394683},"geometry":{"x":167165.45000000019,"y":2540312.5700000022}},{"attributes":{"ID":394708,"DIS_CODE":0,"TOWNNAME":"南區","LI":"明興里","LIN":"16鄰","STREET":"德興路","SECT":" ","MAREA":" ","LANE":"１６４巷","ALLEY":" ","HOUSE_NO":"１０７號","E_COORD97":167168.92000000001,"N_COORD97":2540314.1400000001,"ADDRESS":"德興路１６４巷１０７號","OBJECTID":394684},"geometry":{"x":167168.91999999993,"y":2540314.1400000006}},{"attributes":{"ID":394709,"DIS_CODE":0,"TOWNNAME":"南區","LI":"建南里","LIN":"16鄰","STREET":"中華南路","SECT":"二段","MAREA":" ","LANE":"２３３巷","ALLEY":" ","HOUSE_NO":"５８號","E_COORD97":166937.38,"N_COORD97":2540008.5699999998,"ADDRESS":"中華南路二段２３３巷５８號","OBJECTID":394685},"geometry":{"x":166937.37999999989,"y":2540008.5700000003}},{"attributes":{"ID":394710,"DIS_CODE":0,"TOWNNAME":"南區","LI":"建南里","LIN":"16鄰","STREET":"中華南路","SECT":"二段","MAREA":" ","LANE":"２３３巷","ALLEY":" ","HOUSE_NO":"６０號","E_COORD97":166937.89999999999,"N_COORD97":2540003.3999999999,"ADDRESS":"中華南路二段２３３巷６０號","OBJECTID":394686},"geometry":{"x":166937.90000000224,"y":2540003.4000000004}},{"attributes":{"ID":394711,"DIS_CODE":0,"TOWNNAME":"南區","LI":"建南里","LIN":"16鄰","STREET":"中華南路","SECT":"二段","MAREA":" ","LANE":"２３３巷","ALLEY":" ","HOUSE_NO":"６１號","E_COORD97":166956.01999999999,"N_COORD97":2540043.75,"ADDRESS":"中華南路二段２３３巷６１號","OBJECTID":394687},"geometry":{"x":166956.01999999955,"y":2540043.7500000019}},{"attributes":{"ID":394712,"DIS_CODE":0,"TOWNNAME":"南區","LI":"建南里","LIN":"16鄰","STREET":"中華南路","SECT":"二段","MAREA":" ","LANE":"２３３巷","ALLEY":" ","HOUSE_NO":"６３號","E_COORD97":166972.37,"N_COORD97":2540028.2599999998,"ADDRESS":"中華南路二段２３３巷６３號","OBJECTID":394688},"geometry":{"x":166972.37000000104,"y":2540028.2600000035}},{"attributes":{"ID":394713,"DIS_CODE":0,"TOWNNAME":"南區","LI":"建南里","LIN":"16鄰","STREET":"中華南路","SECT":"二段","MAREA":" ","LANE":"２３３巷","ALLEY":" ","HOUSE_NO":"１４２號","E_COORD97":167007.09,"N_COORD97":2539825.3500000001,"ADDRESS":"中華南路二段２３３巷１４２號","OBJECTID":394689},"geometry":{"x":167007.08999999985,"y":2539825.3500000015}},{"attributes":{"ID":394714,"DIS_CODE":0,"TOWNNAME":"南區","LI":"建南里","LIN":"16鄰","STREET":"中華南路","SECT":"二段","MAREA":" ","LANE":"２３３巷","ALLEY":" ","HOUSE_NO":"１４８號","E_COORD97":167062.84,"N_COORD97":2539727.6000000001,"ADDRESS":"中華南路二段２３３巷１４８號","OBJECTID":394690},"geometry":{"x":167062.83999999985,"y":2539727.6000000034}},{"attributes":{"ID":394715,"DIS_CODE":0,"TOWNNAME":"南區","LI":"建南里","LIN":"16鄰","STREET":"中華南路","SECT":"二段","MAREA":" ","LANE":"２３３巷","ALLEY":" ","HOUSE_NO":"１５５號","E_COORD97":167089.01999999999,"N_COORD97":2539761.4300000002,"ADDRESS":"中華南路二段２３３巷１５５號","OBJECTID":394691},"geometry":{"x":167089.02000000048,"y":2539761.4299999997}},{"attributes":{"ID":394716,"DIS_CODE":0,"TOWNNAME":"南區","LI":"建南里","LIN":"16鄰","STREET":"中華南路","SECT":"二段","MAREA":" ","LANE":"２３３巷","ALLEY":" ","HOUSE_NO":"２３０號","E_COORD97":167053.44,"N_COORD97":2539352.2000000002,"ADDRESS":"中華南路二段２３３巷２３０號","OBJECTID":394692},"geometry":{"x":167053.44000000134,"y":2539352.1999999993}},{"attributes":{"ID":394717,"DIS_CODE":0,"TOWNNAME":"南區","LI":"建南里","LIN":"16鄰","STREET":"中華南路","SECT":"二段","MAREA":" ","LANE":"２３３巷","ALLEY":" ","HOUSE_NO":"２４２號","E_COORD97":166995.29999999999,"N_COORD97":2539336.2799999998,"ADDRESS":"中華南路二段２３３巷２４２號","OBJECTID":394693},"geometry":{"x":166995.29999999981,"y":2539336.2800000031}},{"attributes":{"ID":394718,"DIS_CODE":0,"TOWNNAME":"新化區","LI":"東榮里","LIN":"16鄰","STREET":"中興路","SECT":" ","MAREA":" ","LANE":"７２０巷","ALLEY":" ","HOUSE_NO":"８５號","E_COORD97":179613.35999999999,"N_COORD97":2548233.25,"ADDRESS":"中興路７２０巷８５號","OBJECTID":394694},"geometry":{"x":179613.36000000127,"y":2548233.2499999981}},{"attributes":{"ID":394719,"DIS_CODE":0,"TOWNNAME":"新化區","LI":"協興里","LIN":"16鄰","STREET":"中山路","SECT":" ","MAREA":" ","LANE":"８９８巷","ALLEY":" ","HOUSE_NO":"１１號","E_COORD97":177191.76000000001,"N_COORD97":2548528.25,"ADDRESS":"中山路８９８巷１１號","OBJECTID":394695},"geometry":{"x":177191.75999999978,"y":2548528.2500000037}},{"attributes":{"ID":394720,"DIS_CODE":0,"TOWNNAME":"新化區","LI":"東榮里","LIN":"16鄰","STREET":"中興路","SECT":" ","MAREA":" ","LANE":"７２０巷","ALLEY":" ","HOUSE_NO":"３３號","E_COORD97":179623.26000000001,"N_COORD97":2548176.2400000002,"ADDRESS":"中興路７２０巷３３號","OBJECTID":394696},"geometry":{"x":179623.26000000164,"y":2548176.2400000039}},{"attributes":{"ID":394721,"DIS_CODE":0,"TOWNNAME":"新化區","LI":"協興里","LIN":"16鄰","STREET":"中山路","SECT":" ","MAREA":" ","LANE":"８５８巷","ALLEY":" ","HOUSE_NO":"３５號","E_COORD97":177374.56,"N_COORD97":2548662.25,"ADDRESS":"中山路８５８巷３５號","OBJECTID":394697},"geometry":{"x":177374.55999999959,"y":2548662.2500000019}},{"attributes":{"ID":394722,"DIS_CODE":0,"TOWNNAME":"新化區","LI":"協興里","LIN":"16鄰","STREET":"中山路","SECT":" ","MAREA":" ","LANE":"８０８巷","ALLEY":" ","HOUSE_NO":"１９號","E_COORD97":177648.95999999999,"N_COORD97":2548575.25,"ADDRESS":"中山路８０８巷１９號","OBJECTID":394698},"geometry":{"x":177648.96000000183,"y":2548575.25}},{"attributes":{"ID":394723,"DIS_CODE":0,"TOWNNAME":"新化區","LI":"協興里","LIN":"16鄰","STREET":"中山路","SECT":" ","MAREA":" ","LANE":"８９８巷","ALLEY":" ","HOUSE_NO":"２３號","E_COORD97":177181.45999999999,"N_COORD97":2548681.25,"ADDRESS":"中山路８９８巷２３號","OBJECTID":394699},"geometry":{"x":177181.46000000089,"y":2548681.2500000019}},{"attributes":{"ID":394724,"DIS_CODE":0,"TOWNNAME":"新化區","LI":"東榮里","LIN":"16鄰","STREET":"中興路","SECT":" ","MAREA":" ","LANE":"７２０巷","ALLEY":" ","HOUSE_NO":"１號","E_COORD97":179577.31,"N_COORD97":2548163.25,"ADDRESS":"中興路７２０巷１號","OBJECTID":394700},"geometry":{"x":179577.31000000052,"y":2548163.2500000019}},{"attributes":{"ID":394725,"DIS_CODE":0,"TOWNNAME":"新化區","LI":"協興里","LIN":"16鄰","STREET":"中山路","SECT":" ","MAREA":" ","LANE":"８０８巷","ALLEY":" ","HOUSE_NO":"１５號","E_COORD97":177658.35999999999,"N_COORD97":2548500.25,"ADDRESS":"中山路８０８巷１５號","OBJECTID":394701},"geometry":{"x":177658.36000000034,"y":2548500.25}},{"attributes":{"ID":394726,"DIS_CODE":0,"TOWNNAME":"新化區","LI":"協興里","LIN":"16鄰","STREET":"中山路","SECT":" ","MAREA":" ","LANE":"８５８巷","ALLEY":" ","HOUSE_NO":"３７號","E_COORD97":177394.95999999999,"N_COORD97":2548683.25,"ADDRESS":"中山路８５８巷３７號","OBJECTID":394702},"geometry":{"x":177394.96000000089,"y":2548683.25}},{"attributes":{"ID":394727,"DIS_CODE":0,"TOWNNAME":"新化區","LI":"協興里","LIN":"16鄰","STREET":"中山路","SECT":" ","MAREA":" ","LANE":"８０８巷","ALLEY":" ","HOUSE_NO":"２１號","E_COORD97":177587.45999999999,"N_COORD97":2548638.25,"ADDRESS":"中山路８０８巷２１號","OBJECTID":394703},"geometry":{"x":177587.45999999996,"y":2548638.2500000019}},{"attributes":{"ID":394728,"DIS_CODE":0,"TOWNNAME":"東區","LI":"大德里","LIN":"16鄰","STREET":"立德十一路","SECT":" ","MAREA":" ","LANE":"５５巷","ALLEY":" ","HOUSE_NO":"５５號","E_COORD97":169446.25,"N_COORD97":2542256.54,"ADDRESS":"立德十一路５５巷５５號","OBJECTID":394704},"geometry":{"x":169446.25000000093,"y":2542256.5400000028}},{"attributes":{"ID":394729,"DIS_CODE":0,"TOWNNAME":"東區","LI":"大德里","LIN":"16鄰","STREET":"立德十一路","SECT":" ","MAREA":" ","LANE":"５５巷","ALLEY":" ","HOUSE_NO":"５３號","E_COORD97":169441.44,"N_COORD97":2542256.46,"ADDRESS":"立德十一路５５巷５３號","OBJECTID":394705},"geometry":{"x":169441.44000000227,"y":2542256.4600000028}},{"attributes":{"ID":394730,"DIS_CODE":0,"TOWNNAME":"東區","LI":"大德里","LIN":"16鄰","STREET":"立德十一路","SECT":" ","MAREA":" ","LANE":"５５巷","ALLEY":" ","HOUSE_NO":"５１號","E_COORD97":169438.13,"N_COORD97":2542256.46,"ADDRESS":"立德十一路５５巷５１號","OBJECTID":394706},"geometry":{"x":169438.13000000082,"y":2542256.4600000028}},{"attributes":{"ID":394731,"DIS_CODE":0,"TOWNNAME":"東區","LI":"大德里","LIN":"16鄰","STREET":"立德十一路","SECT":" ","MAREA":" ","LANE":"５５巷","ALLEY":" ","HOUSE_NO":"４７號","E_COORD97":169441.51000000001,"N_COORD97":2542241.8300000001,"ADDRESS":"立德十一路５５巷４７號","OBJECTID":394707},"geometry":{"x":169441.50999999978,"y":2542241.8300000001}},{"attributes":{"ID":394732,"DIS_CODE":0,"TOWNNAME":"東區","LI":"大德里","LIN":"16鄰","STREET":"立德十一路","SECT":" ","MAREA":" ","LANE":"５５巷","ALLEY":" ","HOUSE_NO":"４５號","E_COORD97":169447.07000000001,"N_COORD97":2542243.1800000002,"ADDRESS":"立德十一路５５巷４５號","OBJECTID":394708},"geometry":{"x":169447.0700000003,"y":2542243.1800000016}},{"attributes":{"ID":394733,"DIS_CODE":0,"TOWNNAME":"東區","LI":"大德里","LIN":"16鄰","STREET":"立德十一路","SECT":" ","MAREA":" ","LANE":"５５巷","ALLEY":" ","HOUSE_NO":"４３號","E_COORD97":169451.23000000001,"N_COORD97":2542242.6600000001,"ADDRESS":"立德十一路５５巷４３號","OBJECTID":394709},"geometry":{"x":169451.23000000045,"y":2542242.6600000001}},{"attributes":{"ID":394734,"DIS_CODE":0,"TOWNNAME":"東區","LI":"大德里","LIN":"16鄰","STREET":"立德十一路","SECT":" ","MAREA":" ","LANE":"５５巷","ALLEY":" ","HOUSE_NO":"４１號","E_COORD97":169457.32999999999,"N_COORD97":2542242.73,"ADDRESS":"立德十一路５５巷４１號","OBJECTID":394710},"geometry":{"x":169457.33000000101,"y":2542242.7300000004}},{"attributes":{"ID":394735,"DIS_CODE":0,"TOWNNAME":"東區","LI":"東光里","LIN":"16鄰","STREET":"莊敬路","SECT":" ","MAREA":" ","LANE":"５８巷","ALLEY":" ","HOUSE_NO":"２１號","E_COORD97":171418.56,"N_COORD97":2543816.9399999999,"ADDRESS":"莊敬路５８巷２１號","OBJECTID":394711},"geometry":{"x":171418.56000000052,"y":2543816.9399999995}},{"attributes":{"ID":394736,"DIS_CODE":0,"TOWNNAME":"東區","LI":"東光里","LIN":"16鄰","STREET":"莊敬路","SECT":" ","MAREA":" ","LANE":"５８巷","ALLEY":" ","HOUSE_NO":"２３號","E_COORD97":171419.23000000001,"N_COORD97":2543821.2400000002,"ADDRESS":"莊敬路５８巷２３號","OBJECTID":394712},"geometry":{"x":171419.23000000045,"y":2543821.2400000002}},{"attributes":{"ID":394737,"DIS_CODE":0,"TOWNNAME":"東區","LI":"東光里","LIN":"16鄰","STREET":"莊敬路","SECT":" ","MAREA":" ","LANE":"５８巷","ALLEY":" ","HOUSE_NO":"２５號","E_COORD97":171419.51999999999,"N_COORD97":2543825.2599999998,"ADDRESS":"莊敬路５８巷２５號","OBJECTID":394713},"geometry":{"x":171419.51999999955,"y":2543825.2599999998}},{"attributes":{"ID":394738,"DIS_CODE":0,"TOWNNAME":"東區","LI":"東光里","LIN":"16鄰","STREET":"莊敬路","SECT":" ","MAREA":" ","LANE":"５８巷","ALLEY":" ","HOUSE_NO":"２７號","E_COORD97":171419.70999999999,"N_COORD97":2543829.5499999998,"ADDRESS":"莊敬路５８巷２７號","OBJECTID":394714},"geometry":{"x":171419.71000000089,"y":2543829.5500000026}},{"attributes":{"ID":394739,"DIS_CODE":0,"TOWNNAME":"東區","LI":"東光里","LIN":"16鄰","STREET":"莊敬路","SECT":" ","MAREA":" ","LANE":"５８巷","ALLEY":" ","HOUSE_NO":"２９號","E_COORD97":171420,"N_COORD97":2543833.8500000001,"ADDRESS":"莊敬路５８巷２９號","OBJECTID":394715},"geometry":{"x":171420,"y":2543833.8499999996}},{"attributes":{"ID":394740,"DIS_CODE":0,"TOWNNAME":"東區","LI":"東光里","LIN":"16鄰","STREET":"莊敬路","SECT":" ","MAREA":" ","LANE":"５８巷","ALLEY":" ","HOUSE_NO":"３１號","E_COORD97":171420.19,"N_COORD97":2543837.6699999999,"ADDRESS":"莊敬路５８巷３１號","OBJECTID":394716},"geometry":{"x":171420.19000000134,"y":2543837.6700000018}},{"attributes":{"ID":394741,"DIS_CODE":0,"TOWNNAME":"東區","LI":"東光里","LIN":"16鄰","STREET":"莊敬路","SECT":" ","MAREA":" ","LANE":"５８巷","ALLEY":" ","HOUSE_NO":"３３號","E_COORD97":171420.76000000001,"N_COORD97":2543841.6899999999,"ADDRESS":"莊敬路５８巷３３號","OBJECTID":394717},"geometry":{"x":171420.76000000071,"y":2543841.6899999995}},{"attributes":{"ID":394742,"DIS_CODE":0,"TOWNNAME":"新市區","LI":"永就里","LIN":"9鄰","STREET":"中山路","SECT":" ","MAREA":" ","LANE":"工業巷","ALLEY":" ","HOUSE_NO":"９號","E_COORD97":177572.57000000001,"N_COORD97":2552000,"ADDRESS":"中山路工業巷９號","OBJECTID":394718},"geometry":{"x":177572.57000000123,"y":2552000.0000000019}},{"attributes":{"ID":394743,"DIS_CODE":0,"TOWNNAME":"東區","LI":"東光里","LIN":"16鄰","STREET":"莊敬路","SECT":" ","MAREA":" ","LANE":"５８巷","ALLEY":" ","HOUSE_NO":"３５號","E_COORD97":171420.95000000001,"N_COORD97":2543846.0800000001,"ADDRESS":"莊敬路５８巷３５號","OBJECTID":394719},"geometry":{"x":171420.95000000019,"y":2543846.0800000001}},{"attributes":{"ID":394744,"DIS_CODE":0,"TOWNNAME":"東區","LI":"富強里","LIN":"16鄰","STREET":"裕農路","SECT":" ","MAREA":" ","LANE":"２８８巷","ALLEY":" ","HOUSE_NO":"９０號","E_COORD97":170954.98000000001,"N_COORD97":2542930.96,"ADDRESS":"裕農路２８８巷９０號","OBJECTID":394720},"geometry":{"x":170954.98000000231,"y":2542930.9600000028}},{"attributes":{"ID":394745,"DIS_CODE":0,"TOWNNAME":"東區","LI":"富強里","LIN":"16鄰","STREET":"裕農路","SECT":" ","MAREA":" ","LANE":"２８８巷","ALLEY":" ","HOUSE_NO":"１０８號","E_COORD97":170998.51000000001,"N_COORD97":2542937,"ADDRESS":"裕農路２８８巷１０８號","OBJECTID":394721},"geometry":{"x":170998.51000000071,"y":2542937.0000000019}},{"attributes":{"ID":394746,"DIS_CODE":0,"TOWNNAME":"新市區","LI":"新市里","LIN":"16鄰","STREET":"中正路","SECT":" ","MAREA":" ","LANE":"３２３巷","ALLEY":" ","HOUSE_NO":"１２號","E_COORD97":177662.10000000001,"N_COORD97":2553414.25,"ADDRESS":"中正路３２３巷１２號","OBJECTID":394722},"geometry":{"x":177662.09999999963,"y":2553414.2500000019}},{"attributes":{"ID":394747,"DIS_CODE":0,"TOWNNAME":"東區","LI":"虎尾里","LIN":"16鄰","STREET":"東成街","SECT":" ","MAREA":" ","LANE":"４６巷","ALLEY":" ","HOUSE_NO":"２７號","E_COORD97":171363.37,"N_COORD97":2542177.0099999998,"ADDRESS":"東成街４６巷２７號","OBJECTID":394723},"geometry":{"x":171363.37000000011,"y":2542177.0100000016}},{"attributes":{"ID":394748,"DIS_CODE":0,"TOWNNAME":"南區","LI":"國宅里","LIN":"16鄰","STREET":"金華路","SECT":"二段","MAREA":" ","LANE":"３３巷","ALLEY":" ","HOUSE_NO":"９０號","E_COORD97":166785,"N_COORD97":2542000.7400000002,"ADDRESS":"金華路二段３３巷９０號","OBJECTID":394724},"geometry":{"x":166785.00000000093,"y":2542000.7400000002}},{"attributes":{"ID":394749,"DIS_CODE":0,"TOWNNAME":"南區","LI":"國宅里","LIN":"16鄰","STREET":"金華路","SECT":"二段","MAREA":" ","LANE":"３３巷","ALLEY":" ","HOUSE_NO":"９２號","E_COORD97":166778.03,"N_COORD97":2542001.79,"ADDRESS":"金華路二段３３巷９２號","OBJECTID":394725},"geometry":{"x":166778.03000000119,"y":2542001.790000001}},{"attributes":{"ID":394750,"DIS_CODE":0,"TOWNNAME":"南區","LI":"國宅里","LIN":"16鄰","STREET":"金華路","SECT":"二段","MAREA":" ","LANE":"３３巷","ALLEY":" ","HOUSE_NO":"９４號","E_COORD97":166771.91,"N_COORD97":2542002.6400000001,"ADDRESS":"金華路二段３３巷９４號","OBJECTID":394726},"geometry":{"x":166771.91000000108,"y":2542002.6400000006}},{"attributes":{"ID":394751,"DIS_CODE":0,"TOWNNAME":"南區","LI":"國宅里","LIN":"16鄰","STREET":"金華路","SECT":"二段","MAREA":" ","LANE":"３３巷","ALLEY":" ","HOUSE_NO":"９６號","E_COORD97":166766,"N_COORD97":2542002.6400000001,"ADDRESS":"金華路二段３３巷９６號","OBJECTID":394727},"geometry":{"x":166766.00000000093,"y":2542002.6400000006}},{"attributes":{"ID":394752,"DIS_CODE":0,"TOWNNAME":"南區","LI":"國宅里","LIN":"16鄰","STREET":"金華路","SECT":"二段","MAREA":" ","LANE":"３３巷","ALLEY":" ","HOUSE_NO":"９８號","E_COORD97":166760.51999999999,"N_COORD97":2542002.4300000002,"ADDRESS":"金華路二段３３巷９８號","OBJECTID":394728},"geometry":{"x":166760.52000000048,"y":2542002.4299999997}},{"attributes":{"ID":394753,"DIS_CODE":0,"TOWNNAME":"南區","LI":"國宅里","LIN":"16鄰","STREET":"金華路","SECT":"二段","MAREA":" ","LANE":"３３巷","ALLEY":" ","HOUSE_NO":"１００號","E_COORD97":166737.67000000001,"N_COORD97":2542005.4700000002,"ADDRESS":"金華路二段３３巷１００號","OBJECTID":394729},"geometry":{"x":166737.67000000086,"y":2542005.4700000025}},{"attributes":{"ID":394754,"DIS_CODE":0,"TOWNNAME":"南區","LI":"國宅里","LIN":"16鄰","STREET":"金華路","SECT":"二段","MAREA":" ","LANE":"３３巷","ALLEY":" ","HOUSE_NO":"１０２號","E_COORD97":166724.20999999999,"N_COORD97":2542006.8100000001,"ADDRESS":"金華路二段３３巷１０２號","OBJECTID":394730},"geometry":{"x":166724.21000000089,"y":2542006.8100000024}},{"attributes":{"ID":394755,"DIS_CODE":0,"TOWNNAME":"南區","LI":"國宅里","LIN":"16鄰","STREET":"金華路","SECT":"二段","MAREA":" ","LANE":"３３巷","ALLEY":" ","HOUSE_NO":"１０４號","E_COORD97":166712.76999999999,"N_COORD97":2542004.1699999999,"ADDRESS":"金華路二段３３巷１０４號","OBJECTID":394731},"geometry":{"x":166712.77000000048,"y":2542004.1699999999}},{"attributes":{"ID":394756,"DIS_CODE":0,"TOWNNAME":"南區","LI":"國宅里","LIN":"16鄰","STREET":"金華路","SECT":"二段","MAREA":" ","LANE":"３３巷","ALLEY":" ","HOUSE_NO":"１０６號","E_COORD97":166712.60999999999,"N_COORD97":2542022.4300000002,"ADDRESS":"金華路二段３３巷１０６號","OBJECTID":394732},"geometry":{"x":166712.6100000022,"y":2542022.4299999997}},{"attributes":{"ID":394757,"DIS_CODE":0,"TOWNNAME":"南區","LI":"國宅里","LIN":"16鄰","STREET":"金華路","SECT":"二段","MAREA":" ","LANE":"３９巷","ALLEY":" ","HOUSE_NO":"７９號","E_COORD97":166815.17000000001,"N_COORD97":2542012.75,"ADDRESS":"金華路二段３９巷７９號","OBJECTID":394733},"geometry":{"x":166815.17000000179,"y":2542012.7500000019}},{"attributes":{"ID":394758,"DIS_CODE":0,"TOWNNAME":"南區","LI":"國宅里","LIN":"16鄰","STREET":"金華路","SECT":"二段","MAREA":" ","LANE":"３９巷","ALLEY":" ","HOUSE_NO":"８０號","E_COORD97":166816.64999999999,"N_COORD97":2542030.0299999998,"ADDRESS":"金華路二段３９巷８０號","OBJECTID":394734},"geometry":{"x":166816.6500000013,"y":2542030.0300000031}},{"attributes":{"ID":394759,"DIS_CODE":0,"TOWNNAME":"南區","LI":"國宅里","LIN":"16鄰","STREET":"金華路","SECT":"二段","MAREA":" ","LANE":"３９巷","ALLEY":" ","HOUSE_NO":"８１號","E_COORD97":166809.26000000001,"N_COORD97":2542013.1800000002,"ADDRESS":"金華路二段３９巷８１號","OBJECTID":394735},"geometry":{"x":166809.25999999885,"y":2542013.1800000016}},{"attributes":{"ID":394760,"DIS_CODE":0,"TOWNNAME":"南區","LI":"國宅里","LIN":"16鄰","STREET":"金華路","SECT":"二段","MAREA":" ","LANE":"３９巷","ALLEY":" ","HOUSE_NO":"８２號","E_COORD97":166809.89999999999,"N_COORD97":2542030.2400000002,"ADDRESS":"金華路二段３９巷８２號","OBJECTID":394736},"geometry":{"x":166809.9000000013,"y":2542030.2400000021}},{"attributes":{"ID":394761,"DIS_CODE":0,"TOWNNAME":"南區","LI":"國宅里","LIN":"16鄰","STREET":"金華路","SECT":"二段","MAREA":" ","LANE":"３９巷","ALLEY":" ","HOUSE_NO":"８３號","E_COORD97":166804.41,"N_COORD97":2542014.6499999999,"ADDRESS":"金華路二段３９巷８３號","OBJECTID":394737},"geometry":{"x":166804.41000000108,"y":2542014.6500000022}},{"attributes":{"ID":394762,"DIS_CODE":0,"TOWNNAME":"南區","LI":"國宅里","LIN":"16鄰","STREET":"金華路","SECT":"二段","MAREA":" ","LANE":"３９巷","ALLEY":" ","HOUSE_NO":"８４號","E_COORD97":166805.04000000001,"N_COORD97":2542031.0899999999,"ADDRESS":"金華路二段３９巷８４號","OBJECTID":394738},"geometry":{"x":166805.04000000097,"y":2542031.0900000017}},{"attributes":{"ID":394763,"DIS_CODE":0,"TOWNNAME":"南區","LI":"喜北里","LIN":"16鄰","STREET":"喜樹路","SECT":" ","MAREA":" ","LANE":"２２２巷","ALLEY":" ","HOUSE_NO":"４９號","E_COORD97":165474.03,"N_COORD97":2538067.5699999998,"ADDRESS":"喜樹路２２２巷４９號","OBJECTID":394739},"geometry":{"x":165474.03000000212,"y":2538067.5700000022}},{"attributes":{"ID":394764,"DIS_CODE":0,"TOWNNAME":"南區","LI":"喜北里","LIN":"16鄰","STREET":"喜樹路","SECT":" ","MAREA":" ","LANE":"２２２巷","ALLEY":" ","HOUSE_NO":"５１號","E_COORD97":165461.42000000001,"N_COORD97":2538060.6099999999,"ADDRESS":"喜樹路２２２巷５１號","OBJECTID":394740},"geometry":{"x":165461.42000000086,"y":2538060.6100000013}},{"attributes":{"ID":394765,"DIS_CODE":0,"TOWNNAME":"南區","LI":"喜北里","LIN":"16鄰","STREET":"喜樹路","SECT":" ","MAREA":" ","LANE":"２２２巷","ALLEY":" ","HOUSE_NO":"５３號","E_COORD97":165475.45000000001,"N_COORD97":2538078.3500000001,"ADDRESS":"喜樹路２２２巷５３號","OBJECTID":394741},"geometry":{"x":165475.45000000019,"y":2538078.3500000034}},{"attributes":{"ID":394766,"DIS_CODE":0,"TOWNNAME":"南區","LI":"喜北里","LIN":"16鄰","STREET":"喜樹路","SECT":" ","MAREA":" ","LANE":"２２２巷","ALLEY":" ","HOUSE_NO":"６１號","E_COORD97":165471.82999999999,"N_COORD97":2538099.3500000001,"ADDRESS":"喜樹路２２２巷６１號","OBJECTID":394742},"geometry":{"x":165471.83000000194,"y":2538099.3500000015}},{"attributes":{"ID":394767,"DIS_CODE":0,"TOWNNAME":"南區","LI":"喜北里","LIN":"16鄰","STREET":"喜樹路","SECT":" ","MAREA":" ","LANE":"２２２巷","ALLEY":" ","HOUSE_NO":"７８號","E_COORD97":165512.78,"N_COORD97":2538057.9500000002,"ADDRESS":"喜樹路２２２巷７８號","OBJECTID":394743},"geometry":{"x":165512.78000000026,"y":2538057.9500000011}},{"attributes":{"ID":394768,"DIS_CODE":0,"TOWNNAME":"南區","LI":"喜北里","LIN":"16鄰","STREET":"喜樹路","SECT":" ","MAREA":" ","LANE":"２２２巷","ALLEY":" ","HOUSE_NO":"８０號","E_COORD97":165513.79999999999,"N_COORD97":2538070.0899999999,"ADDRESS":"喜樹路２２２巷８０號","OBJECTID":394744},"geometry":{"x":165513.79999999981,"y":2538070.0900000036}},{"attributes":{"ID":394769,"DIS_CODE":0,"TOWNNAME":"南區","LI":"喜北里","LIN":"16鄰","STREET":"喜樹路","SECT":" ","MAREA":" ","LANE":"２２２巷","ALLEY":" ","HOUSE_NO":"８２號","E_COORD97":165506.85999999999,"N_COORD97":2538079.2200000002,"ADDRESS":"喜樹路２２２巷８２號","OBJECTID":394745},"geometry":{"x":165506.86000000034,"y":2538079.2200000007}},{"attributes":{"ID":394770,"DIS_CODE":0,"TOWNNAME":"南區","LI":"喜北里","LIN":"16鄰","STREET":"喜樹路","SECT":" ","MAREA":" ","LANE":"２２２巷","ALLEY":" ","HOUSE_NO":"８４號","E_COORD97":165504.04999999999,"N_COORD97":2538067.98,"ADDRESS":"喜樹路２２２巷８４號","OBJECTID":394746},"geometry":{"x":165504.05000000075,"y":2538067.9800000042}},{"attributes":{"ID":394771,"DIS_CODE":0,"TOWNNAME":"南區","LI":"喜北里","LIN":"16鄰","STREET":"喜樹路","SECT":" ","MAREA":" ","LANE":"２２２巷","ALLEY":" ","HOUSE_NO":"８６號","E_COORD97":165496.82999999999,"N_COORD97":2538075.46,"ADDRESS":"喜樹路２２２巷８６號","OBJECTID":394747},"geometry":{"x":165496.83000000007,"y":2538075.4600000046}},{"attributes":{"ID":394772,"DIS_CODE":0,"TOWNNAME":"南區","LI":"喜北里","LIN":"16鄰","STREET":"喜樹路","SECT":" ","MAREA":" ","LANE":"２２２巷","ALLEY":" ","HOUSE_NO":"８８號","E_COORD97":165493.51999999999,"N_COORD97":2538090.21,"ADDRESS":"喜樹路２２２巷８８號","OBJECTID":394748},"geometry":{"x":165493.51999999862,"y":2538090.2100000009}},{"attributes":{"ID":394773,"DIS_CODE":0,"TOWNNAME":"東區","LI":"崇文里","LIN":"13鄰","STREET":"崇德十九街","SECT":" ","MAREA":" ","LANE":" ","ALLEY":" ","HOUSE_NO":"９３號","E_COORD97":171046.76999999999,"N_COORD97":2540990.98,"ADDRESS":"崇德十九街９３號","OBJECTID":394749},"geometry":{"x":171046.76999999955,"y":2540990.9800000023}},{"attributes":{"ID":394774,"DIS_CODE":0,"TOWNNAME":"東區","LI":"崇文里","LIN":"13鄰","STREET":"崇德十九街","SECT":" ","MAREA":" ","LANE":" ","ALLEY":" ","HOUSE_NO":"９５號","E_COORD97":171051.14999999999,"N_COORD97":2540990.98,"ADDRESS":"崇德十九街９５號","OBJECTID":394750},"geometry":{"x":171051.1500000013,"y":2540990.9800000023}},{"attributes":{"ID":394775,"DIS_CODE":0,"TOWNNAME":"永康區","LI":"尚頂里","LIN":"29鄰","STREET":"南台街","SECT":" ","MAREA":" ","LANE":"８９巷","ALLEY":" ","HOUSE_NO":"４號","E_COORD97":170190.79000000001,"N_COORD97":2546991.04,"ADDRESS":"南台街８９巷４號","OBJECTID":394751},"geometry":{"x":170190.79000000004,"y":2546991.040000001}},{"attributes":{"ID":394776,"DIS_CODE":0,"TOWNNAME":"南區","LI":"喜北里","LIN":"16鄰","STREET":"喜樹路","SECT":" ","MAREA":" ","LANE":"２２２巷","ALLEY":" ","HOUSE_NO":"９０號","E_COORD97":165501.09,"N_COORD97":2538093.1299999999,"ADDRESS":"喜樹路２２２巷９０號","OBJECTID":394752},"geometry":{"x":165501.08999999985,"y":2538093.1300000008}},{"attributes":{"ID":394777,"DIS_CODE":0,"TOWNNAME":"南區","LI":"喜北里","LIN":"16鄰","STREET":"喜樹路","SECT":" ","MAREA":" ","LANE":"２２２巷","ALLEY":" ","HOUSE_NO":"９２號","E_COORD97":165512.47,"N_COORD97":2538097.6099999999,"ADDRESS":"喜樹路２２２巷９２號","OBJECTID":394753},"geometry":{"x":165512.46999999974,"y":2538097.6100000013}},{"attributes":{"ID":394778,"DIS_CODE":0,"TOWNNAME":"南區","LI":"喜北里","LIN":"16鄰","STREET":"喜樹路","SECT":" ","MAREA":" ","LANE":"２２２巷","ALLEY":" ","HOUSE_NO":"９４號","E_COORD97":165515.51000000001,"N_COORD97":2538104.0299999998,"ADDRESS":"喜樹路２２２巷９４號","OBJECTID":394754},"geometry":{"x":165515.50999999978,"y":2538104.0300000012}},{"attributes":{"ID":394779,"DIS_CODE":0,"TOWNNAME":"南區","LI":"喜北里","LIN":"16鄰","STREET":"喜樹路","SECT":" ","MAREA":" ","LANE":"２２２巷","ALLEY":" ","HOUSE_NO":"９６號","E_COORD97":165507.22,"N_COORD97":2538107,"ADDRESS":"喜樹路２２２巷９６號","OBJECTID":394755},"geometry":{"x":165507.21999999974,"y":2538107}},{"attributes":{"ID":394780,"DIS_CODE":0,"TOWNNAME":"南區","LI":"喜北里","LIN":"16鄰","STREET":"喜樹路","SECT":" ","MAREA":" ","LANE":"２２２巷","ALLEY":" ","HOUSE_NO":"９８號","E_COORD97":165496.26000000001,"N_COORD97":2538102.8700000001,"ADDRESS":"喜樹路２２２巷９８號","OBJECTID":394756},"geometry":{"x":165496.26000000071,"y":2538102.870000001}},{"attributes":{"ID":394781,"DIS_CODE":0,"TOWNNAME":"南區","LI":"喜北里","LIN":"16鄰","STREET":"喜樹路","SECT":" ","MAREA":" ","LANE":"２２２巷","ALLEY":" ","HOUSE_NO":"１０２號之１","E_COORD97":165470.81,"N_COORD97":2538164.0099999998,"ADDRESS":"喜樹路２２２巷１０２號之１","OBJECTID":394757},"geometry":{"x":165470.80999999959,"y":2538164.0099999998}},{"attributes":{"ID":394782,"DIS_CODE":0,"TOWNNAME":"南區","LI":"喜北里","LIN":"16鄰","STREET":"喜樹路","SECT":" ","MAREA":" ","LANE":"２２２巷","ALLEY":" ","HOUSE_NO":"１１５號","E_COORD97":165423.92999999999,"N_COORD97":2538290.9199999999,"ADDRESS":"喜樹路２２２巷１１５號","OBJECTID":394758},"geometry":{"x":165423.93000000063,"y":2538290.9199999999}},{"attributes":{"ID":394783,"DIS_CODE":0,"TOWNNAME":"南區","LI":"喜北里","LIN":"16鄰","STREET":"喜樹路","SECT":" ","MAREA":" ","LANE":"２２２巷","ALLEY":" ","HOUSE_NO":"１１６號","E_COORD97":165422.17000000001,"N_COORD97":2538335.1200000001,"ADDRESS":"喜樹路２２２巷１１６號","OBJECTID":394759},"geometry":{"x":165422.17000000086,"y":2538335.120000001}},{"attributes":{"ID":394784,"DIS_CODE":0,"TOWNNAME":"永康區","LI":"烏竹里","LIN":"16鄰","STREET":"龍橋街","SECT":" ","MAREA":" ","LANE":"１８６巷","ALLEY":" ","HOUSE_NO":"６０號","E_COORD97":174734.51999999999,"N_COORD97":2548821.5,"ADDRESS":"龍橋街１８６巷６０號","OBJECTID":394760},"geometry":{"x":174734.52000000048,"y":2548821.5000000037}},{"attributes":{"ID":394785,"DIS_CODE":0,"TOWNNAME":"永康區","LI":"烏竹里","LIN":"16鄰","STREET":"龍橋街","SECT":" ","MAREA":" ","LANE":"１８６巷","ALLEY":" ","HOUSE_NO":"５０號","E_COORD97":174720.63,"N_COORD97":2548809.75,"ADDRESS":"龍橋街１８６巷５０號","OBJECTID":394761},"geometry":{"x":174720.63000000082,"y":2548809.7500000037}},{"attributes":{"ID":394786,"DIS_CODE":0,"TOWNNAME":"永康區","LI":"烏竹里","LIN":"16鄰","STREET":"龍橋街","SECT":" ","MAREA":" ","LANE":"２９６巷","ALLEY":" ","HOUSE_NO":"１３號","E_COORD97":174555.60999999999,"N_COORD97":2549034.25,"ADDRESS":"龍橋街２９６巷１３號","OBJECTID":394762},"geometry":{"x":174555.61000000034,"y":2549034.2500000019}},{"attributes":{"ID":394787,"DIS_CODE":0,"TOWNNAME":"永康區","LI":"烏竹里","LIN":"16鄰","STREET":"龍橋街","SECT":" ","MAREA":" ","LANE":"２９６巷","ALLEY":" ","HOUSE_NO":"２６號","E_COORD97":174574.48999999999,"N_COORD97":2549017.75,"ADDRESS":"龍橋街２９６巷２６號","OBJECTID":394763},"geometry":{"x":174574.49000000115,"y":2549017.7500000019}},{"attributes":{"ID":394788,"DIS_CODE":0,"TOWNNAME":"永康區","LI":"烏竹里","LIN":"16鄰","STREET":"龍橋街","SECT":" ","MAREA":" ","LANE":"２９６巷","ALLEY":" ","HOUSE_NO":"１８號","E_COORD97":174558.16,"N_COORD97":2549010.5,"ADDRESS":"龍橋街２９６巷１８號","OBJECTID":394764},"geometry":{"x":174558.16000000108,"y":2549010.5}},{"attributes":{"ID":394789,"DIS_CODE":0,"TOWNNAME":"永康區","LI":"烏竹里","LIN":"16鄰","STREET":"龍橋街","SECT":" ","MAREA":" ","LANE":"２９６巷","ALLEY":" ","HOUSE_NO":"１１號","E_COORD97":174552.22,"N_COORD97":2549031.25,"ADDRESS":"龍橋街２９６巷１１號","OBJECTID":394765},"geometry":{"x":174552.22000000067,"y":2549031.2500000019}},{"attributes":{"ID":394790,"DIS_CODE":0,"TOWNNAME":"永康區","LI":"烏竹里","LIN":"16鄰","STREET":"龍橋街","SECT":" ","MAREA":" ","LANE":"２９６巷","ALLEY":" ","HOUSE_NO":"２號","E_COORD97":174536.75,"N_COORD97":2548992.9900000002,"ADDRESS":"龍橋街２９６巷２號","OBJECTID":394766},"geometry":{"x":174536.75000000093,"y":2548992.9900000021}},{"attributes":{"ID":394791,"DIS_CODE":0,"TOWNNAME":"永康區","LI":"烏竹里","LIN":"16鄰","STREET":"龍橋街","SECT":" ","MAREA":" ","LANE":"２９６巷","ALLEY":" ","HOUSE_NO":"２０號","E_COORD97":174561.06,"N_COORD97":2549013.75,"ADDRESS":"龍橋街２９６巷２０號","OBJECTID":394767},"geometry":{"x":174561.06000000145,"y":2549013.7500000019}},{"attributes":{"ID":394792,"DIS_CODE":0,"TOWNNAME":"永康區","LI":"烏竹里","LIN":"16鄰","STREET":"龍橋街","SECT":" ","MAREA":" ","LANE":"１８６巷","ALLEY":" ","HOUSE_NO":"６１號","E_COORD97":174769.42000000001,"N_COORD97":2548831.6499999999,"ADDRESS":"龍橋街１８６巷６１號","OBJECTID":394768},"geometry":{"x":174769.42000000086,"y":2548831.6500000022}},{"attributes":{"ID":394793,"DIS_CODE":0,"TOWNNAME":"永康區","LI":"烏竹里","LIN":"16鄰","STREET":"龍橋街","SECT":" ","MAREA":" ","LANE":"１８６巷","ALLEY":" ","HOUSE_NO":"６５號","E_COORD97":174776.62,"N_COORD97":2548837.6499999999,"ADDRESS":"龍橋街１８６巷６５號","OBJECTID":394769},"geometry":{"x":174776.62000000104,"y":2548837.6500000004}},{"attributes":{"ID":394794,"DIS_CODE":0,"TOWNNAME":"永康區","LI":"烏竹里","LIN":"16鄰","STREET":"龍橋街","SECT":" ","MAREA":" ","LANE":"２９６巷","ALLEY":" ","HOUSE_NO":"９號","E_COORD97":174547.76999999999,"N_COORD97":2549028.25,"ADDRESS":"龍橋街２９６巷９號","OBJECTID":394770},"geometry":{"x":174547.77000000048,"y":2549028.2500000019}},{"attributes":{"ID":394795,"DIS_CODE":0,"TOWNNAME":"永康區","LI":"烏竹里","LIN":"16鄰","STREET":"龍橋街","SECT":" ","MAREA":" ","LANE":"２９６巷","ALLEY":" ","HOUSE_NO":"２１號","E_COORD97":174575.53,"N_COORD97":2549059.4900000002,"ADDRESS":"龍橋街２９６巷２１號","OBJECTID":394771},"geometry":{"x":174575.53000000212,"y":2549059.4900000039}},{"attributes":{"ID":394796,"DIS_CODE":0,"TOWNNAME":"永康區","LI":"烏竹里","LIN":"16鄰","STREET":"龍橋街","SECT":" ","MAREA":" ","LANE":"１８６巷","ALLEY":" ","HOUSE_NO":"４３號","E_COORD97":174735.95000000001,"N_COORD97":2548799.2999999998,"ADDRESS":"龍橋街１８６巷４３號","OBJECTID":394772},"geometry":{"x":174735.95000000112,"y":2548799.3000000007}},{"attributes":{"ID":394797,"DIS_CODE":0,"TOWNNAME":"永康區","LI":"烏竹里","LIN":"16鄰","STREET":"龍橋街","SECT":" ","MAREA":" ","LANE":"２９６巷","ALLEY":" ","HOUSE_NO":"２９號","E_COORD97":174587.54999999999,"N_COORD97":2549045.2400000002,"ADDRESS":"龍橋街２９６巷２９號","OBJECTID":394773},"geometry":{"x":174587.54999999981,"y":2549045.2400000021}},{"attributes":{"ID":394798,"DIS_CODE":0,"TOWNNAME":"永康區","LI":"烏竹里","LIN":"16鄰","STREET":"龍橋街","SECT":" ","MAREA":" ","LANE":"２９６巷","ALLEY":" ","HOUSE_NO":"３１號","E_COORD97":174590.51000000001,"N_COORD97":2549042,"ADDRESS":"龍橋街２９６巷３１號","OBJECTID":394774},"geometry":{"x":174590.51000000071,"y":2549042.0000000037}},{"attributes":{"ID":394799,"DIS_CODE":0,"TOWNNAME":"永康區","LI":"勝利里","LIN":"16鄰","STREET":"勝利街","SECT":" ","MAREA":" ","LANE":"１０７巷","ALLEY":" ","HOUSE_NO":"５４號","E_COORD97":171212.73999999999,"N_COORD97":2544938.75,"ADDRESS":"勝利街１０７巷５４號","OBJECTID":394775},"geometry":{"x":171212.74000000115,"y":2544938.7500000019}},{"attributes":{"ID":394800,"DIS_CODE":0,"TOWNNAME":"永康區","LI":"勝利里","LIN":"16鄰","STREET":"勝利街","SECT":" ","MAREA":" ","LANE":"１１３巷","ALLEY":" ","HOUSE_NO":"７號","E_COORD97":171327.09,"N_COORD97":2544916.5,"ADDRESS":"勝利街１１３巷７號","OBJECTID":394776},"geometry":{"x":171327.09000000078,"y":2544916.5000000019}},{"attributes":{"ID":394801,"DIS_CODE":0,"TOWNNAME":"永康區","LI":"勝利里","LIN":"16鄰","STREET":"勝利街","SECT":" ","MAREA":" ","LANE":"１０７巷","ALLEY":" ","HOUSE_NO":"５２號","E_COORD97":171216.82999999999,"N_COORD97":2544938.5,"ADDRESS":"勝利街１０７巷５２號","OBJECTID":394777},"geometry":{"x":171216.83000000194,"y":2544938.5}},{"attributes":{"ID":394802,"DIS_CODE":0,"TOWNNAME":"永康區","LI":"埔園里","LIN":"16鄰","STREET":"八德街","SECT":" ","MAREA":" ","LANE":"３５６巷","ALLEY":" ","HOUSE_NO":"１０號","E_COORD97":173515.82999999999,"N_COORD97":2548591.0800000001,"ADDRESS":"八德街３５６巷１０號","OBJECTID":394778},"geometry":{"x":173515.83000000101,"y":2548591.0800000019}},{"attributes":{"ID":394803,"DIS_CODE":0,"TOWNNAME":"永康區","LI":"南灣里","LIN":"16鄰","STREET":"大灣一街","SECT":" ","MAREA":" ","LANE":"１３１巷","ALLEY":" ","HOUSE_NO":"１５號","E_COORD97":174586.54000000001,"N_COORD97":2544713.9900000002,"ADDRESS":"大灣一街１３１巷１５號","OBJECTID":394779},"geometry":{"x":174586.54000000004,"y":2544713.9900000021}},{"attributes":{"ID":394804,"DIS_CODE":0,"TOWNNAME":"永康區","LI":"烏竹里","LIN":"16鄰","STREET":"龍橋街","SECT":" ","MAREA":" ","LANE":"１８６巷","ALLEY":" ","HOUSE_NO":"５６號","E_COORD97":174727.72,"N_COORD97":2548815.5,"ADDRESS":"龍橋街１８６巷５６號","OBJECTID":394780},"geometry":{"x":174727.71999999881,"y":2548815.5000000019}},{"attributes":{"ID":394805,"DIS_CODE":0,"TOWNNAME":"永康區","LI":"南灣里","LIN":"16鄰","STREET":"大灣一街","SECT":" ","MAREA":" ","LANE":"１３１巷","ALLEY":" ","HOUSE_NO":"３９號","E_COORD97":174612.5,"N_COORD97":2544754.3199999998,"ADDRESS":"大灣一街１３１巷３９號","OBJECTID":394781},"geometry":{"x":174612.5,"y":2544754.3200000003}},{"attributes":{"ID":394806,"DIS_CODE":0,"TOWNNAME":"永康區","LI":"南灣里","LIN":"16鄰","STREET":"大灣一街","SECT":" ","MAREA":" ","LANE":"１３１巷","ALLEY":" ","HOUSE_NO":"２５號","E_COORD97":174596.89999999999,"N_COORD97":2544734.2400000002,"ADDRESS":"大灣一街１３１巷２５號","OBJECTID":394782},"geometry":{"x":174596.9000000013,"y":2544734.2400000002}},{"attributes":{"ID":394807,"DIS_CODE":0,"TOWNNAME":"東區","LI":"崇文里","LIN":"13鄰","STREET":"崇德十九街","SECT":" ","MAREA":" ","LANE":" ","ALLEY":" ","HOUSE_NO":"９９號","E_COORD97":171060.20999999999,"N_COORD97":2540990.5800000001,"ADDRESS":"崇德十九街９９號","OBJECTID":394783},"geometry":{"x":171060.21000000089,"y":2540990.5800000019}},{"attributes":{"ID":394808,"DIS_CODE":0,"TOWNNAME":"永康區","LI":"烏竹里","LIN":"16鄰","STREET":"龍橋街","SECT":" ","MAREA":" ","LANE":"１８６巷","ALLEY":" ","HOUSE_NO":"４０號","E_COORD97":174707.35000000001,"N_COORD97":2548798.5,"ADDRESS":"龍橋街１８６巷４０號","OBJECTID":394784},"geometry":{"x":174707.34999999963,"y":2548798.5000000019}},{"attributes":{"ID":394809,"DIS_CODE":0,"TOWNNAME":"永康區","LI":"烏竹里","LIN":"16鄰","STREET":"龍橋街","SECT":" ","MAREA":" ","LANE":"１８６巷","ALLEY":" ","HOUSE_NO":"６２號","E_COORD97":174738.12,"N_COORD97":2548824.5,"ADDRESS":"龍橋街１８６巷６２號","OBJECTID":394785},"geometry":{"x":174738.12000000104,"y":2548824.5}},{"attributes":{"ID":394810,"DIS_CODE":0,"TOWNNAME":"永康區","LI":"南灣里","LIN":"16鄰","STREET":"大灣一街","SECT":" ","MAREA":" ","LANE":"１３１巷","ALLEY":" ","HOUSE_NO":"２號","E_COORD97":174579.59,"N_COORD97":2544674.3100000001,"ADDRESS":"大灣一街１３１巷２號","OBJECTID":394786},"geometry":{"x":174579.58999999892,"y":2544674.3100000024}},{"attributes":{"ID":394811,"DIS_CODE":0,"TOWNNAME":"永康區","LI":"烏竹里","LIN":"16鄰","STREET":"龍橋街","SECT":" ","MAREA":" ","LANE":"１８６巷","ALLEY":" ","HOUSE_NO":"３８號","E_COORD97":174704.06,"N_COORD97":2548795.75,"ADDRESS":"龍橋街１８６巷３８號","OBJECTID":394787},"geometry":{"x":174704.06000000052,"y":2548795.75}},{"attributes":{"ID":394812,"DIS_CODE":0,"TOWNNAME":"永康區","LI":"埔園里","LIN":"16鄰","STREET":"八德街","SECT":" ","MAREA":" ","LANE":"３５６巷","ALLEY":" ","HOUSE_NO":"６號","E_COORD97":173520.13,"N_COORD97":2548583.8300000001,"ADDRESS":"八德街３５６巷６號","OBJECTID":394788},"geometry":{"x":173520.13000000082,"y":2548583.8300000019}},{"attributes":{"ID":394813,"DIS_CODE":0,"TOWNNAME":"永康區","LI":"烏竹里","LIN":"16鄰","STREET":"龍橋街","SECT":" ","MAREA":" ","LANE":"１８６巷","ALLEY":" ","HOUSE_NO":"５５號","E_COORD97":174760.51000000001,"N_COORD97":2548812.5499999998,"ADDRESS":"龍橋街１８６巷５５號","OBJECTID":394789},"geometry":{"x":174760.51000000071,"y":2548812.5500000026}},{"attributes":{"ID":394814,"DIS_CODE":0,"TOWNNAME":"永康區","LI":"南灣里","LIN":"16鄰","STREET":"大灣一街","SECT":" ","MAREA":" ","LANE":"１３１巷","ALLEY":" ","HOUSE_NO":"２７號","E_COORD97":174599.23999999999,"N_COORD97":2544738.7400000002,"ADDRESS":"大灣一街１３１巷２７號","OBJECTID":394790},"geometry":{"x":174599.24000000022,"y":2544738.7400000021}},{"attributes":{"ID":394815,"DIS_CODE":0,"TOWNNAME":"永康區","LI":"埔園里","LIN":"16鄰","STREET":"八德街","SECT":" ","MAREA":" ","LANE":"３５６巷","ALLEY":" ","HOUSE_NO":"１２號","E_COORD97":173515.03,"N_COORD97":2548595.8300000001,"ADDRESS":"八德街３５６巷１２號","OBJECTID":394791},"geometry":{"x":173515.03000000119,"y":2548595.8300000038}},{"attributes":{"ID":394816,"DIS_CODE":0,"TOWNNAME":"永康區","LI":"埔園里","LIN":"16鄰","STREET":"中山路","SECT":" ","MAREA":" ","LANE":"３８３巷","ALLEY":" ","HOUSE_NO":"６號","E_COORD97":173523.70999999999,"N_COORD97":2548535.1299999999,"ADDRESS":"中山路３８３巷６號","OBJECTID":394792},"geometry":{"x":173523.71000000089,"y":2548535.1300000027}},{"attributes":{"ID":394817,"DIS_CODE":0,"TOWNNAME":"永康區","LI":"埔園里","LIN":"16鄰","STREET":"中山路","SECT":" ","MAREA":" ","LANE":"３８３巷","ALLEY":" ","HOUSE_NO":"１０號","E_COORD97":173511.95999999999,"N_COORD97":2548531.6299999999,"ADDRESS":"中山路３８３巷１０號","OBJECTID":394793},"geometry":{"x":173511.95999999996,"y":2548531.6300000027}},{"attributes":{"ID":394818,"DIS_CODE":0,"TOWNNAME":"永康區","LI":"烏竹里","LIN":"16鄰","STREET":"龍橋街","SECT":" ","MAREA":" ","LANE":"１８６巷","ALLEY":" ","HOUSE_NO":"４８號","E_COORD97":174717.34,"N_COORD97":2548806.75,"ADDRESS":"龍橋街１８６巷４８號","OBJECTID":394794},"geometry":{"x":174717.34000000078,"y":2548806.7500000019}},{"attributes":{"ID":394819,"DIS_CODE":0,"TOWNNAME":"永康區","LI":"埔園里","LIN":"16鄰","STREET":"中山路","SECT":" ","MAREA":" ","LANE":"３８３巷","ALLEY":" ","HOUSE_NO":"２０號","E_COORD97":173477.79999999999,"N_COORD97":2548533.1099999999,"ADDRESS":"中山路３８３巷２０號","OBJECTID":394795},"geometry":{"x":173477.79999999981,"y":2548533.1100000013}},{"attributes":{"ID":394820,"DIS_CODE":0,"TOWNNAME":"永康區","LI":"埔園里","LIN":"16鄰","STREET":"中山路","SECT":" ","MAREA":" ","LANE":"３８３巷","ALLEY":" ","HOUSE_NO":"２２號","E_COORD97":173479.14999999999,"N_COORD97":2548526.8700000001,"ADDRESS":"中山路３８３巷２２號","OBJECTID":394796},"geometry":{"x":173479.15000000037,"y":2548526.8700000029}},{"attributes":{"ID":394821,"DIS_CODE":0,"TOWNNAME":"永康區","LI":"南灣里","LIN":"16鄰","STREET":"大灣一街","SECT":" ","MAREA":" ","LANE":"１３１巷","ALLEY":" ","HOUSE_NO":"１９號","E_COORD97":174590.64999999999,"N_COORD97":2544722.2400000002,"ADDRESS":"大灣一街１３１巷１９號","OBJECTID":394797},"geometry":{"x":174590.6500000013,"y":2544722.2400000021}},{"attributes":{"ID":394822,"DIS_CODE":0,"TOWNNAME":"永康區","LI":"烏竹里","LIN":"16鄰","STREET":"龍橋街","SECT":" ","MAREA":" ","LANE":"１８６巷","ALLEY":" ","HOUSE_NO":"５７號","E_COORD97":174763.57999999999,"N_COORD97":2548809.2999999998,"ADDRESS":"龍橋街１８６巷５７號","OBJECTID":394798},"geometry":{"x":174763.58000000101,"y":2548809.3000000007}},{"attributes":{"ID":394823,"DIS_CODE":0,"TOWNNAME":"永康區","LI":"烏竹里","LIN":"16鄰","STREET":"龍橋街","SECT":" ","MAREA":" ","LANE":"１８６巷","ALLEY":" ","HOUSE_NO":"３３號","E_COORD97":174718.76999999999,"N_COORD97":2548784.79,"ADDRESS":"龍橋街１８６巷３３號","OBJECTID":394799},"geometry":{"x":174718.77000000142,"y":2548784.7900000028}},{"attributes":{"ID":394824,"DIS_CODE":0,"TOWNNAME":"永康區","LI":"埔園里","LIN":"16鄰","STREET":"八德街","SECT":" ","MAREA":" ","LANE":"３５６巷","ALLEY":" ","HOUSE_NO":"８號","E_COORD97":173517.98999999999,"N_COORD97":2548587.5800000001,"ADDRESS":"八德街３５６巷８號","OBJECTID":394800},"geometry":{"x":173517.99000000209,"y":2548587.5800000019}}]}