{"displayFieldName":"TOWNNAME","fieldAliases":{"ID":"ID","DIS_CODE":"DIS_CODE","TOWNNAME":"TOWNNAME","LI":"LI","LIN":"LIN","STREET":"STREET","SECT":"SECT","MAREA":"MAREA","LANE":"LANE","ALLEY":"ALLEY","HOUSE_NO":"HOUSE_NO","E_COORD97":"E_COORD97","N_COORD97":"N_COORD97","ADDRESS":"ADDRESS","OBJECTID":"OBJECTID"},"geometryType":"esriGeometryPoint","spatialReference":{"wkid":102443,"latestWkid":3826},"fields":[{"name":"ID","type":"esriFieldTypeDouble","alias":"ID"},{"name":"DIS_CODE","type":"esriFieldTypeInteger","alias":"DIS_CODE"},{"name":"TOWNNAME","type":"esriFieldTypeString","alias":"TOWNNAME","length":8},{"name":"LI","type":"esriFieldTypeString","alias":"LI","length":8},{"name":"LIN","type":"esriFieldTypeString","alias":"LIN","length":12},{"name":"STREET","type":"esriFieldTypeString","alias":"STREET","length":20},{"name":"SECT","type":"esriFieldTypeString","alias":"SECT","length":8},{"name":"MAREA","type":"esriFieldTypeString","alias":"MAREA","length":12},{"name":"LANE","type":"esriFieldTypeString","alias":"LANE","length":10},{"name":"ALLEY","type":"esriFieldTypeString","alias":"ALLEY","length":10},{"name":"HOUSE_NO","type":"esriFieldTypeString","alias":"HOUSE_NO","length":20},{"name":"E_COORD97","type":"esriFieldTypeDouble","alias":"E_COORD97"},{"name":"N_COORD97","type":"esriFieldTypeDouble","alias":"N_COORD97"},{"name":"ADDRESS","type":"esriFieldTypeString","alias":"ADDRESS","length":50},{"name":"OBJECTID","type":"esriFieldTypeOID","alias":"OBJECTID"}],"features":[{"attributes":{"ID":635228,"DIS_CODE":0,"TOWNNAME":"永康區","LI":"永康里","LIN":"26鄰","STREET":"中山北路","SECT":" ","MAREA":" ","LANE":" ","ALLEY":" ","HOUSE_NO":"１１４號六樓之２","E_COORD97":174163.87,"N_COORD97":2547447.25,"ADDRESS":"中山北路１１４號六樓之２","OBJECTID":635201},"geometry":{"x":174163.87000000011,"y":2547447.2500000019}},{"attributes":{"ID":635229,"DIS_CODE":0,"TOWNNAME":"永康區","LI":"安康里","LIN":"26鄰","STREET":"大橋一街","SECT":" ","MAREA":" ","LANE":" ","ALLEY":" ","HOUSE_NO":"５３號十四樓之１","E_COORD97":170779.98000000001,"N_COORD97":2546346.7999999998,"ADDRESS":"大橋一街５３號十四樓之１","OBJECTID":635202},"geometry":{"x":170779.98000000045,"y":2546346.8000000026}},{"attributes":{"ID":635230,"DIS_CODE":0,"TOWNNAME":"永康區","LI":"安康里","LIN":"25鄰","STREET":"大橋一街","SECT":" ","MAREA":" ","LANE":" ","ALLEY":" ","HOUSE_NO":"１４２號五樓","E_COORD97":170858.92000000001,"N_COORD97":2546359.25,"ADDRESS":"大橋一街１４２號五樓","OBJECTID":635203},"geometry":{"x":170858.92000000086,"y":2546359.2500000019}},{"attributes":{"ID":635231,"DIS_CODE":0,"TOWNNAME":"永康區","LI":"正強里","LIN":"41鄰","STREET":"正強街","SECT":" ","MAREA":" ","LANE":" ","ALLEY":" ","HOUSE_NO":"２９０號九樓之１","E_COORD97":173302.91,"N_COORD97":2547926.29,"ADDRESS":"正強街２９０號九樓之１","OBJECTID":635204},"geometry":{"x":173302.90999999922,"y":2547926.2899999991}},{"attributes":{"ID":635232,"DIS_CODE":0,"TOWNNAME":"永康區","LI":"永康里","LIN":"40鄰","STREET":"永大二路","SECT":" ","MAREA":" ","LANE":" ","ALLEY":" ","HOUSE_NO":"５０號二樓","E_COORD97":174241.22,"N_COORD97":2546574.2999999998,"ADDRESS":"永大二路５０號二樓","OBJECTID":635205},"geometry":{"x":174241.21999999881,"y":2546574.3000000007}},{"attributes":{"ID":635233,"DIS_CODE":0,"TOWNNAME":"永康區","LI":"永康里","LIN":"26鄰","STREET":"永大路","SECT":"二段","MAREA":" ","LANE":" ","ALLEY":" ","HOUSE_NO":"１１２９號十二樓之２","E_COORD97":174199.82000000001,"N_COORD97":2547482.3599999999,"ADDRESS":"永大路二段１１２９號十二樓之２","OBJECTID":635206},"geometry":{"x":174199.8200000003,"y":2547482.3599999994}},{"attributes":{"ID":635234,"DIS_CODE":0,"TOWNNAME":"永康區","LI":"安康里","LIN":"26鄰","STREET":"大橋一街","SECT":" ","MAREA":" ","LANE":" ","ALLEY":" ","HOUSE_NO":"５３號十三樓之１","E_COORD97":170779.98000000001,"N_COORD97":2546346.7999999998,"ADDRESS":"大橋一街５３號十三樓之１","OBJECTID":635207},"geometry":{"x":170779.98000000045,"y":2546346.8000000026}},{"attributes":{"ID":635235,"DIS_CODE":0,"TOWNNAME":"永康區","LI":"永康里","LIN":"26鄰","STREET":"永大路","SECT":"二段","MAREA":" ","LANE":" ","ALLEY":" ","HOUSE_NO":"１１２９號十二樓之３","E_COORD97":174199.79000000001,"N_COORD97":2547482.3599999999,"ADDRESS":"永大路二段１１２９號十二樓之３","OBJECTID":635208},"geometry":{"x":174199.79000000004,"y":2547482.3599999994}},{"attributes":{"ID":635236,"DIS_CODE":0,"TOWNNAME":"永康區","LI":"安康里","LIN":"26鄰","STREET":"大橋一街","SECT":" ","MAREA":" ","LANE":" ","ALLEY":" ","HOUSE_NO":"５３號八樓之１","E_COORD97":170778.73000000001,"N_COORD97":2546346.7999999998,"ADDRESS":"大橋一街５３號八樓之１","OBJECTID":635209},"geometry":{"x":170778.73000000231,"y":2546346.8000000026}},{"attributes":{"ID":635237,"DIS_CODE":0,"TOWNNAME":"永康區","LI":"永康里","LIN":"26鄰","STREET":"中山北路","SECT":" ","MAREA":" ","LANE":" ","ALLEY":" ","HOUSE_NO":"１１４號三樓之２","E_COORD97":174163.87,"N_COORD97":2547447.25,"ADDRESS":"中山北路１１４號三樓之２","OBJECTID":635210},"geometry":{"x":174163.87000000011,"y":2547447.2500000019}},{"attributes":{"ID":635238,"DIS_CODE":0,"TOWNNAME":"永康區","LI":"安康里","LIN":"25鄰","STREET":"大橋一街","SECT":" ","MAREA":" ","LANE":" ","ALLEY":" ","HOUSE_NO":"１３８號五樓","E_COORD97":170849.39999999999,"N_COORD97":2546368.75,"ADDRESS":"大橋一街１３８號五樓","OBJECTID":635211},"geometry":{"x":170849.4000000013,"y":2546368.7500000037}},{"attributes":{"ID":635239,"DIS_CODE":0,"TOWNNAME":"永康區","LI":"安康里","LIN":"25鄰","STREET":"大橋一街","SECT":" ","MAREA":" ","LANE":" ","ALLEY":" ","HOUSE_NO":"１５０號五樓之３","E_COORD97":170864.78,"N_COORD97":2546376.79,"ADDRESS":"大橋一街１５０號五樓之３","OBJECTID":635212},"geometry":{"x":170864.78000000212,"y":2546376.7899999991}},{"attributes":{"ID":635240,"DIS_CODE":0,"TOWNNAME":"永康區","LI":"安康里","LIN":"25鄰","STREET":"大橋一街","SECT":" ","MAREA":" ","LANE":" ","ALLEY":" ","HOUSE_NO":"１３８號四樓","E_COORD97":170849.39999999999,"N_COORD97":2546368.75,"ADDRESS":"大橋一街１３８號四樓","OBJECTID":635213},"geometry":{"x":170849.4000000013,"y":2546368.7500000037}},{"attributes":{"ID":635241,"DIS_CODE":0,"TOWNNAME":"永康區","LI":"永康里","LIN":"42鄰","STREET":"永大二路","SECT":" ","MAREA":" ","LANE":" ","ALLEY":" ","HOUSE_NO":"８７號四樓","E_COORD97":174151.56,"N_COORD97":2546513.7599999998,"ADDRESS":"永大二路８７號四樓","OBJECTID":635214},"geometry":{"x":174151.55999999959,"y":2546513.7599999998}},{"attributes":{"ID":635242,"DIS_CODE":0,"TOWNNAME":"永康區","LI":"安康里","LIN":"26鄰","STREET":"大橋一街","SECT":" ","MAREA":" ","LANE":" ","ALLEY":" ","HOUSE_NO":"５３號五樓之１","E_COORD97":170778.73000000001,"N_COORD97":2546346.7999999998,"ADDRESS":"大橋一街５３號五樓之１","OBJECTID":635215},"geometry":{"x":170778.73000000231,"y":2546346.8000000026}},{"attributes":{"ID":635243,"DIS_CODE":0,"TOWNNAME":"永康區","LI":"永康里","LIN":"26鄰","STREET":"中山北路","SECT":" ","MAREA":" ","LANE":" ","ALLEY":" ","HOUSE_NO":"１１４號十九樓之１","E_COORD97":174164.98999999999,"N_COORD97":2547447.25,"ADDRESS":"中山北路１１４號十九樓之１","OBJECTID":635216},"geometry":{"x":174164.99000000022,"y":2547447.2500000019}},{"attributes":{"ID":635244,"DIS_CODE":0,"TOWNNAME":"永康區","LI":"永康里","LIN":"26鄰","STREET":"中山北路","SECT":" ","MAREA":" ","LANE":" ","ALLEY":" ","HOUSE_NO":"１１４號七樓之３","E_COORD97":174163.84,"N_COORD97":2547447.25,"ADDRESS":"中山北路１１４號七樓之３","OBJECTID":635217},"geometry":{"x":174163.83999999985,"y":2547447.2500000019}},{"attributes":{"ID":635245,"DIS_CODE":0,"TOWNNAME":"永康區","LI":"永康里","LIN":"26鄰","STREET":"中山北路","SECT":" ","MAREA":" ","LANE":" ","ALLEY":" ","HOUSE_NO":"１１４號八樓之２","E_COORD97":174163.87,"N_COORD97":2547447.25,"ADDRESS":"中山北路１１４號八樓之２","OBJECTID":635218},"geometry":{"x":174163.87000000011,"y":2547447.2500000019}},{"attributes":{"ID":635246,"DIS_CODE":0,"TOWNNAME":"永康區","LI":"永康里","LIN":"26鄰","STREET":"永大路","SECT":"二段","MAREA":" ","LANE":" ","ALLEY":" ","HOUSE_NO":"１１２９號七樓之５","E_COORD97":174198.59,"N_COORD97":2547482.3599999999,"ADDRESS":"永大路二段１１２９號七樓之５","OBJECTID":635219},"geometry":{"x":174198.59000000078,"y":2547482.3599999994}},{"attributes":{"ID":635247,"DIS_CODE":0,"TOWNNAME":"永康區","LI":"永康里","LIN":"39鄰","STREET":"永大一路","SECT":" ","MAREA":" ","LANE":" ","ALLEY":" ","HOUSE_NO":"６２號七樓之１","E_COORD97":174180.54000000001,"N_COORD97":2546456.7200000002,"ADDRESS":"永大一路６２號七樓之１","OBJECTID":635220},"geometry":{"x":174180.54000000097,"y":2546456.7200000007}},{"attributes":{"ID":635248,"DIS_CODE":0,"TOWNNAME":"永康區","LI":"永康里","LIN":"26鄰","STREET":"中山北路","SECT":" ","MAREA":" ","LANE":" ","ALLEY":" ","HOUSE_NO":"１１４號十八樓之２","E_COORD97":174165.12,"N_COORD97":2547447.25,"ADDRESS":"中山北路１１４號十八樓之２","OBJECTID":635221},"geometry":{"x":174165.12000000104,"y":2547447.2500000019}},{"attributes":{"ID":635249,"DIS_CODE":0,"TOWNNAME":"永康區","LI":"永康里","LIN":"26鄰","STREET":"中山北路","SECT":" ","MAREA":" ","LANE":" ","ALLEY":" ","HOUSE_NO":"１１４號十四樓之２","E_COORD97":174165.12,"N_COORD97":2547447.25,"ADDRESS":"中山北路１１４號十四樓之２","OBJECTID":635222},"geometry":{"x":174165.12000000104,"y":2547447.2500000019}},{"attributes":{"ID":635250,"DIS_CODE":0,"TOWNNAME":"永康區","LI":"永康里","LIN":"26鄰","STREET":"永大路","SECT":"二段","MAREA":" ","LANE":" ","ALLEY":" ","HOUSE_NO":"１１２９號十九樓之５","E_COORD97":174199.84,"N_COORD97":2547482.3599999999,"ADDRESS":"永大路二段１１２９號十九樓之５","OBJECTID":635223},"geometry":{"x":174199.83999999892,"y":2547482.3599999994}},{"attributes":{"ID":635251,"DIS_CODE":0,"TOWNNAME":"永康區","LI":"永康里","LIN":"39鄰","STREET":"文化路","SECT":" ","MAREA":" ","LANE":" ","ALLEY":" ","HOUSE_NO":"４２號五樓","E_COORD97":174286.92000000001,"N_COORD97":2546356.3199999998,"ADDRESS":"文化路４２號五樓","OBJECTID":635224},"geometry":{"x":174286.91999999993,"y":2546356.3200000022}},{"attributes":{"ID":635252,"DIS_CODE":0,"TOWNNAME":"永康區","LI":"永康里","LIN":"26鄰","STREET":"永大路","SECT":"二段","MAREA":" ","LANE":" ","ALLEY":" ","HOUSE_NO":"１１２９號十九樓之２","E_COORD97":174199.82000000001,"N_COORD97":2547482.3599999999,"ADDRESS":"永大路二段１１２９號十九樓之２","OBJECTID":635225},"geometry":{"x":174199.8200000003,"y":2547482.3599999994}},{"attributes":{"ID":635253,"DIS_CODE":0,"TOWNNAME":"永康區","LI":"永康里","LIN":"26鄰","STREET":"永大路","SECT":"二段","MAREA":" ","LANE":" ","ALLEY":" ","HOUSE_NO":"１１２９號十四樓之３","E_COORD97":174199.79000000001,"N_COORD97":2547482.3599999999,"ADDRESS":"永大路二段１１２９號十四樓之３","OBJECTID":635226},"geometry":{"x":174199.79000000004,"y":2547482.3599999994}},{"attributes":{"ID":635254,"DIS_CODE":0,"TOWNNAME":"永康區","LI":"永康里","LIN":"26鄰","STREET":"中山北路","SECT":" ","MAREA":" ","LANE":" ","ALLEY":" ","HOUSE_NO":"７２號五樓之２","E_COORD97":174077.12,"N_COORD97":2547388.7599999998,"ADDRESS":"中山北路７２號五樓之２","OBJECTID":635227},"geometry":{"x":174077.12000000011,"y":2547388.7600000035}},{"attributes":{"ID":635255,"DIS_CODE":0,"TOWNNAME":"永康區","LI":"永康里","LIN":"26鄰","STREET":"中山北路","SECT":" ","MAREA":" ","LANE":" ","ALLEY":" ","HOUSE_NO":"７０號二樓之２","E_COORD97":174075.48000000001,"N_COORD97":2547398.25,"ADDRESS":"中山北路７０號二樓之２","OBJECTID":635228},"geometry":{"x":174075.48000000045,"y":2547398.25}},{"attributes":{"ID":635256,"DIS_CODE":0,"TOWNNAME":"永康區","LI":"正強里","LIN":"39鄰","STREET":"中正路","SECT":" ","MAREA":" ","LANE":" ","ALLEY":" ","HOUSE_NO":"２４８號三樓","E_COORD97":173209.79999999999,"N_COORD97":2547925.25,"ADDRESS":"中正路２４８號三樓","OBJECTID":635229},"geometry":{"x":173209.79999999981,"y":2547925.2500000019}},{"attributes":{"ID":635257,"DIS_CODE":0,"TOWNNAME":"永康區","LI":"正強里","LIN":"32鄰","STREET":"四維街","SECT":" ","MAREA":" ","LANE":" ","ALLEY":" ","HOUSE_NO":"４３號五樓之４","E_COORD97":173405.41,"N_COORD97":2548041.5499999998,"ADDRESS":"四維街４３號五樓之４","OBJECTID":635230},"geometry":{"x":173405.41000000108,"y":2548041.5500000007}},{"attributes":{"ID":635258,"DIS_CODE":0,"TOWNNAME":"永康區","LI":"永康里","LIN":"42鄰","STREET":"永大五路","SECT":" ","MAREA":" ","LANE":" ","ALLEY":" ","HOUSE_NO":"３５號五樓","E_COORD97":174208.82000000001,"N_COORD97":2546721.9500000002,"ADDRESS":"永大五路３５號五樓","OBJECTID":635231},"geometry":{"x":174208.8200000003,"y":2546721.9499999993}},{"attributes":{"ID":635259,"DIS_CODE":0,"TOWNNAME":"永康區","LI":"正強里","LIN":"41鄰","STREET":"正強街","SECT":" ","MAREA":" ","LANE":" ","ALLEY":" ","HOUSE_NO":"２９６號三樓之２","E_COORD97":173302.89000000001,"N_COORD97":2547949.29,"ADDRESS":"正強街２９６號三樓之２","OBJECTID":635232},"geometry":{"x":173302.8900000006,"y":2547949.2899999991}},{"attributes":{"ID":635260,"DIS_CODE":0,"TOWNNAME":"永康區","LI":"正強里","LIN":"41鄰","STREET":"正強街","SECT":" ","MAREA":" ","LANE":" ","ALLEY":" ","HOUSE_NO":"２９６號七樓之１","E_COORD97":173302.76000000001,"N_COORD97":2547949.29,"ADDRESS":"正強街２９６號七樓之１","OBJECTID":635233},"geometry":{"x":173302.76000000071,"y":2547949.2899999991}},{"attributes":{"ID":635261,"DIS_CODE":0,"TOWNNAME":"永康區","LI":"永康里","LIN":"26鄰","STREET":"永大路","SECT":"二段","MAREA":" ","LANE":" ","ALLEY":" ","HOUSE_NO":"１１２９號十一樓之１","E_COORD97":174199.69,"N_COORD97":2547482.3599999999,"ADDRESS":"永大路二段１１２９號十一樓之１","OBJECTID":635234},"geometry":{"x":174199.69000000041,"y":2547482.3599999994}},{"attributes":{"ID":635262,"DIS_CODE":0,"TOWNNAME":"永康區","LI":"永康里","LIN":"26鄰","STREET":"永大路","SECT":"二段","MAREA":" ","LANE":" ","ALLEY":" ","HOUSE_NO":"１１２９號十七樓之２","E_COORD97":174199.82000000001,"N_COORD97":2547482.3599999999,"ADDRESS":"永大路二段１１２９號十七樓之２","OBJECTID":635235},"geometry":{"x":174199.8200000003,"y":2547482.3599999994}},{"attributes":{"ID":635263,"DIS_CODE":0,"TOWNNAME":"永康區","LI":"永康里","LIN":"26鄰","STREET":"永大路","SECT":"二段","MAREA":" ","LANE":" ","ALLEY":" ","HOUSE_NO":"１１２９號十樓之３","E_COORD97":174198.54000000001,"N_COORD97":2547482.3599999999,"ADDRESS":"永大路二段１１２９號十樓之３","OBJECTID":635236},"geometry":{"x":174198.54000000004,"y":2547482.3599999994}},{"attributes":{"ID":635264,"DIS_CODE":0,"TOWNNAME":"永康區","LI":"永康里","LIN":"26鄰","STREET":"中山北路","SECT":" ","MAREA":" ","LANE":" ","ALLEY":" ","HOUSE_NO":"７０號四樓之１","E_COORD97":174075.35000000001,"N_COORD97":2547398.25,"ADDRESS":"中山北路７０號四樓之１","OBJECTID":635237},"geometry":{"x":174075.34999999963,"y":2547398.25}},{"attributes":{"ID":635265,"DIS_CODE":0,"TOWNNAME":"永康區","LI":"正強里","LIN":"41鄰","STREET":"正強街","SECT":" ","MAREA":" ","LANE":" ","ALLEY":" ","HOUSE_NO":"２９６號二樓之２","E_COORD97":173302.89000000001,"N_COORD97":2547949.29,"ADDRESS":"正強街２９６號二樓之２","OBJECTID":635238},"geometry":{"x":173302.8900000006,"y":2547949.2899999991}},{"attributes":{"ID":635266,"DIS_CODE":0,"TOWNNAME":"永康區","LI":"正強里","LIN":"41鄰","STREET":"正強街","SECT":" ","MAREA":" ","LANE":" ","ALLEY":" ","HOUSE_NO":"２９２號七樓之１","E_COORD97":173302.98000000001,"N_COORD97":2547942.04,"ADDRESS":"正強街２９２號七樓之１","OBJECTID":635239},"geometry":{"x":173302.98000000231,"y":2547942.0399999972}},{"attributes":{"ID":635267,"DIS_CODE":0,"TOWNNAME":"永康區","LI":"正強里","LIN":"41鄰","STREET":"正強街","SECT":" ","MAREA":" ","LANE":" ","ALLEY":" ","HOUSE_NO":"２９２號四樓之１","E_COORD97":173302.98000000001,"N_COORD97":2547942.04,"ADDRESS":"正強街２９２號四樓之１","OBJECTID":635240},"geometry":{"x":173302.98000000231,"y":2547942.0399999972}},{"attributes":{"ID":635268,"DIS_CODE":0,"TOWNNAME":"永康區","LI":"正強里","LIN":"41鄰","STREET":"正強街","SECT":" ","MAREA":" ","LANE":" ","ALLEY":" ","HOUSE_NO":"２９２號十一樓之１","E_COORD97":173304.23000000001,"N_COORD97":2547942.04,"ADDRESS":"正強街２９２號十一樓之１","OBJECTID":635241},"geometry":{"x":173304.23000000045,"y":2547942.0399999972}},{"attributes":{"ID":635269,"DIS_CODE":0,"TOWNNAME":"永康區","LI":"正強里","LIN":"41鄰","STREET":"正強街","SECT":" ","MAREA":" ","LANE":" ","ALLEY":" ","HOUSE_NO":"２９６號十一樓之２","E_COORD97":173304.14000000001,"N_COORD97":2547949.29,"ADDRESS":"正強街２９６號十一樓之２","OBJECTID":635242},"geometry":{"x":173304.13999999966,"y":2547949.2899999991}},{"attributes":{"ID":635270,"DIS_CODE":0,"TOWNNAME":"永康區","LI":"正強里","LIN":"41鄰","STREET":"正強街","SECT":" ","MAREA":" ","LANE":" ","ALLEY":" ","HOUSE_NO":"２９８號十樓之２","E_COORD97":173292.29999999999,"N_COORD97":2547971.0499999998,"ADDRESS":"正強街２９８號十樓之２","OBJECTID":635243},"geometry":{"x":173292.30000000075,"y":2547971.0500000045}},{"attributes":{"ID":635271,"DIS_CODE":0,"TOWNNAME":"永康區","LI":"正強里","LIN":"41鄰","STREET":"正強街","SECT":" ","MAREA":" ","LANE":" ","ALLEY":" ","HOUSE_NO":"２９６號十一樓之１","E_COORD97":173304.01000000001,"N_COORD97":2547949.29,"ADDRESS":"正強街２９６號十一樓之１","OBJECTID":635244},"geometry":{"x":173304.01000000071,"y":2547949.2899999991}},{"attributes":{"ID":635272,"DIS_CODE":0,"TOWNNAME":"永康區","LI":"永康里","LIN":"40鄰","STREET":"永大二路","SECT":" ","MAREA":" ","LANE":" ","ALLEY":" ","HOUSE_NO":"５２號八樓之２","E_COORD97":174255.98000000001,"N_COORD97":2546565.0899999999,"ADDRESS":"永大二路５２號八樓之２","OBJECTID":635245},"geometry":{"x":174255.98000000138,"y":2546565.0899999999}},{"attributes":{"ID":635273,"DIS_CODE":0,"TOWNNAME":"永康區","LI":"永康里","LIN":"26鄰","STREET":"永大路","SECT":"二段","MAREA":" ","LANE":" ","ALLEY":" ","HOUSE_NO":"１１２９號十一樓之３","E_COORD97":174199.79000000001,"N_COORD97":2547482.3599999999,"ADDRESS":"永大路二段１１２９號十一樓之３","OBJECTID":635246},"geometry":{"x":174199.79000000004,"y":2547482.3599999994}},{"attributes":{"ID":635274,"DIS_CODE":0,"TOWNNAME":"永康區","LI":"正強里","LIN":"39鄰","STREET":"中正路","SECT":" ","MAREA":" ","LANE":" ","ALLEY":" ","HOUSE_NO":"２４２號八樓","E_COORD97":173228.26999999999,"N_COORD97":2547919,"ADDRESS":"中正路２４２號八樓","OBJECTID":635247},"geometry":{"x":173228.26999999955,"y":2547919}},{"attributes":{"ID":635275,"DIS_CODE":0,"TOWNNAME":"永康區","LI":"正強里","LIN":"41鄰","STREET":"正強街","SECT":" ","MAREA":" ","LANE":" ","ALLEY":" ","HOUSE_NO":"２９８號十四樓之２","E_COORD97":173293.54999999999,"N_COORD97":2547971.0499999998,"ADDRESS":"正強街２９８號十四樓之２","OBJECTID":635248},"geometry":{"x":173293.55000000075,"y":2547971.0500000045}},{"attributes":{"ID":635276,"DIS_CODE":0,"TOWNNAME":"永康區","LI":"正強里","LIN":"41鄰","STREET":"正強街","SECT":" ","MAREA":" ","LANE":" ","ALLEY":" ","HOUSE_NO":"２９２號九樓之２","E_COORD97":173303.10999999999,"N_COORD97":2547942.04,"ADDRESS":"正強街２９２號九樓之２","OBJECTID":635249},"geometry":{"x":173303.11000000034,"y":2547942.0399999972}},{"attributes":{"ID":635277,"DIS_CODE":0,"TOWNNAME":"永康區","LI":"正強里","LIN":"41鄰","STREET":"正強街","SECT":" ","MAREA":" ","LANE":" ","ALLEY":" ","HOUSE_NO":"２９６號五樓之２","E_COORD97":173302.89000000001,"N_COORD97":2547949.29,"ADDRESS":"正強街２９６號五樓之２","OBJECTID":635250},"geometry":{"x":173302.8900000006,"y":2547949.2899999991}},{"attributes":{"ID":635278,"DIS_CODE":0,"TOWNNAME":"永康區","LI":"正強里","LIN":"41鄰","STREET":"正強街","SECT":" ","MAREA":" ","LANE":" ","ALLEY":" ","HOUSE_NO":"２９８號四樓之２","E_COORD97":173292.29999999999,"N_COORD97":2547971.0499999998,"ADDRESS":"正強街２９８號四樓之２","OBJECTID":635251},"geometry":{"x":173292.30000000075,"y":2547971.0500000045}},{"attributes":{"ID":635279,"DIS_CODE":0,"TOWNNAME":"永康區","LI":"正強里","LIN":"41鄰","STREET":"正強街","SECT":" ","MAREA":" ","LANE":" ","ALLEY":" ","HOUSE_NO":"２９８號五樓之１","E_COORD97":173292.17000000001,"N_COORD97":2547971.0499999998,"ADDRESS":"正強街２９８號五樓之１","OBJECTID":635252},"geometry":{"x":173292.16999999993,"y":2547971.0500000045}},{"attributes":{"ID":635280,"DIS_CODE":0,"TOWNNAME":"永康區","LI":"正強里","LIN":"41鄰","STREET":"正強街","SECT":" ","MAREA":" ","LANE":" ","ALLEY":" ","HOUSE_NO":"２９２號十三樓之１","E_COORD97":173304.23000000001,"N_COORD97":2547942.04,"ADDRESS":"正強街２９２號十三樓之１","OBJECTID":635253},"geometry":{"x":173304.23000000045,"y":2547942.0399999972}},{"attributes":{"ID":635281,"DIS_CODE":0,"TOWNNAME":"永康區","LI":"正強里","LIN":"41鄰","STREET":"正強街","SECT":" ","MAREA":" ","LANE":" ","ALLEY":" ","HOUSE_NO":"２９６號十樓之２","E_COORD97":173302.89000000001,"N_COORD97":2547949.29,"ADDRESS":"正強街２９６號十樓之２","OBJECTID":635254},"geometry":{"x":173302.8900000006,"y":2547949.2899999991}},{"attributes":{"ID":635282,"DIS_CODE":0,"TOWNNAME":"永康區","LI":"永康里","LIN":"24鄰","STREET":"永正路","SECT":" ","MAREA":" ","LANE":" ","ALLEY":" ","HOUSE_NO":"４５號八樓之２","E_COORD97":173556.04999999999,"N_COORD97":2547363.5499999998,"ADDRESS":"永正路４５號八樓之２","OBJECTID":635255},"geometry":{"x":173556.05000000168,"y":2547363.5500000007}},{"attributes":{"ID":635283,"DIS_CODE":0,"TOWNNAME":"永康區","LI":"永康里","LIN":"26鄰","STREET":"中山北路","SECT":" ","MAREA":" ","LANE":" ","ALLEY":" ","HOUSE_NO":"７２號四樓之１","E_COORD97":174076.98999999999,"N_COORD97":2547388.7599999998,"ADDRESS":"中山北路７２號四樓之１","OBJECTID":635256},"geometry":{"x":174076.99000000022,"y":2547388.7600000035}},{"attributes":{"ID":635284,"DIS_CODE":0,"TOWNNAME":"永康區","LI":"永康里","LIN":"26鄰","STREET":"永大路","SECT":"二段","MAREA":" ","LANE":" ","ALLEY":" ","HOUSE_NO":"１１２９號十八樓之６","E_COORD97":174199.79000000001,"N_COORD97":2547482.3599999999,"ADDRESS":"永大路二段１１２９號十八樓之６","OBJECTID":635257},"geometry":{"x":174199.79000000004,"y":2547482.3599999994}},{"attributes":{"ID":635285,"DIS_CODE":0,"TOWNNAME":"永康區","LI":"永康里","LIN":"26鄰","STREET":"中山北路","SECT":" ","MAREA":" ","LANE":" ","ALLEY":" ","HOUSE_NO":"７０號七樓之３","E_COORD97":174075.45000000001,"N_COORD97":2547398.25,"ADDRESS":"中山北路７０號七樓之３","OBJECTID":635258},"geometry":{"x":174075.45000000019,"y":2547398.25}},{"attributes":{"ID":635286,"DIS_CODE":0,"TOWNNAME":"永康區","LI":"永康里","LIN":"26鄰","STREET":"永大路","SECT":"二段","MAREA":" ","LANE":" ","ALLEY":" ","HOUSE_NO":"１１２９號九樓之５","E_COORD97":174198.59,"N_COORD97":2547482.3599999999,"ADDRESS":"永大路二段１１２９號九樓之５","OBJECTID":635259},"geometry":{"x":174198.59000000078,"y":2547482.3599999994}},{"attributes":{"ID":635287,"DIS_CODE":0,"TOWNNAME":"永康區","LI":"正強里","LIN":"39鄰","STREET":"中正路","SECT":" ","MAREA":" ","LANE":" ","ALLEY":" ","HOUSE_NO":"２４４號六樓","E_COORD97":173221.63,"N_COORD97":2547921.25,"ADDRESS":"中正路２４４號六樓","OBJECTID":635260},"geometry":{"x":173221.63000000175,"y":2547921.2499999981}},{"attributes":{"ID":635288,"DIS_CODE":0,"TOWNNAME":"永康區","LI":"正強里","LIN":"39鄰","STREET":"中正路","SECT":" ","MAREA":" ","LANE":" ","ALLEY":" ","HOUSE_NO":"２４８號四樓","E_COORD97":173209.79999999999,"N_COORD97":2547925.25,"ADDRESS":"中正路２４８號四樓","OBJECTID":635261},"geometry":{"x":173209.79999999981,"y":2547925.2500000019}},{"attributes":{"ID":635289,"DIS_CODE":0,"TOWNNAME":"永康區","LI":"正強里","LIN":"41鄰","STREET":"正強街","SECT":" ","MAREA":" ","LANE":" ","ALLEY":" ","HOUSE_NO":"２９８號十樓之１","E_COORD97":173292.17000000001,"N_COORD97":2547971.0499999998,"ADDRESS":"正強街２９８號十樓之１","OBJECTID":635262},"geometry":{"x":173292.16999999993,"y":2547971.0500000045}},{"attributes":{"ID":635290,"DIS_CODE":0,"TOWNNAME":"永康區","LI":"正強里","LIN":"41鄰","STREET":"正強街","SECT":" ","MAREA":" ","LANE":" ","ALLEY":" ","HOUSE_NO":"２９２號三樓之２","E_COORD97":173303.10999999999,"N_COORD97":2547942.04,"ADDRESS":"正強街２９２號三樓之２","OBJECTID":635263},"geometry":{"x":173303.11000000034,"y":2547942.0399999972}},{"attributes":{"ID":635291,"DIS_CODE":0,"TOWNNAME":"永康區","LI":"正強里","LIN":"41鄰","STREET":"正強街","SECT":" ","MAREA":" ","LANE":" ","ALLEY":" ","HOUSE_NO":"２９８號六樓之２","E_COORD97":173292.29999999999,"N_COORD97":2547971.0499999998,"ADDRESS":"正強街２９８號六樓之２","OBJECTID":635264},"geometry":{"x":173292.30000000075,"y":2547971.0500000045}},{"attributes":{"ID":635292,"DIS_CODE":0,"TOWNNAME":"永康區","LI":"永康里","LIN":"26鄰","STREET":"永大路","SECT":"二段","MAREA":" ","LANE":" ","ALLEY":" ","HOUSE_NO":"１１２９號五樓之１","E_COORD97":174198.44,"N_COORD97":2547482.3599999999,"ADDRESS":"永大路二段１１２９號五樓之１","OBJECTID":635265},"geometry":{"x":174198.44000000134,"y":2547482.3599999994}},{"attributes":{"ID":635293,"DIS_CODE":0,"TOWNNAME":"東區","LI":"崇文里","LIN":"4鄰","STREET":"崇德十六街","SECT":" ","MAREA":" ","LANE":" ","ALLEY":" ","HOUSE_NO":"９２號五樓","E_COORD97":171045.66,"N_COORD97":2541126.54,"ADDRESS":"崇德十六街９２號五樓","OBJECTID":635266},"geometry":{"x":171045.66000000108,"y":2541126.5399999991}},{"attributes":{"ID":635294,"DIS_CODE":0,"TOWNNAME":"永康區","LI":"永康里","LIN":"26鄰","STREET":"永大路","SECT":"二段","MAREA":" ","LANE":" ","ALLEY":" ","HOUSE_NO":"１１２９號五樓之３","E_COORD97":174198.54000000001,"N_COORD97":2547482.3599999999,"ADDRESS":"永大路二段１１２９號五樓之３","OBJECTID":635267},"geometry":{"x":174198.54000000004,"y":2547482.3599999994}},{"attributes":{"ID":635295,"DIS_CODE":0,"TOWNNAME":"永康區","LI":"永康里","LIN":"26鄰","STREET":"中山北路","SECT":" ","MAREA":" ","LANE":" ","ALLEY":" ","HOUSE_NO":"１１４號十五樓之４","E_COORD97":174165.01000000001,"N_COORD97":2547447.25,"ADDRESS":"中山北路１１４號十五樓之４","OBJECTID":635268},"geometry":{"x":174165.01000000071,"y":2547447.2500000019}},{"attributes":{"ID":635296,"DIS_CODE":0,"TOWNNAME":"永康區","LI":"永康里","LIN":"26鄰","STREET":"中山北路","SECT":" ","MAREA":" ","LANE":" ","ALLEY":" ","HOUSE_NO":"７０號三樓之１","E_COORD97":174075.35000000001,"N_COORD97":2547398.25,"ADDRESS":"中山北路７０號三樓之１","OBJECTID":635269},"geometry":{"x":174075.34999999963,"y":2547398.25}},{"attributes":{"ID":635297,"DIS_CODE":0,"TOWNNAME":"永康區","LI":"永康里","LIN":"26鄰","STREET":"中山北路","SECT":" ","MAREA":" ","LANE":" ","ALLEY":" ","HOUSE_NO":"１１４號五樓之２","E_COORD97":174163.87,"N_COORD97":2547447.25,"ADDRESS":"中山北路１１４號五樓之２","OBJECTID":635270},"geometry":{"x":174163.87000000011,"y":2547447.2500000019}},{"attributes":{"ID":635298,"DIS_CODE":0,"TOWNNAME":"永康區","LI":"永康里","LIN":"42鄰","STREET":"永大五路","SECT":" ","MAREA":" ","LANE":" ","ALLEY":" ","HOUSE_NO":"３５號二樓","E_COORD97":174208.82000000001,"N_COORD97":2546721.9500000002,"ADDRESS":"永大五路３５號二樓","OBJECTID":635271},"geometry":{"x":174208.8200000003,"y":2546721.9499999993}},{"attributes":{"ID":635299,"DIS_CODE":0,"TOWNNAME":"永康區","LI":"正強里","LIN":"41鄰","STREET":"正強街","SECT":" ","MAREA":" ","LANE":" ","ALLEY":" ","HOUSE_NO":"２９６號六樓之１","E_COORD97":173302.76000000001,"N_COORD97":2547949.29,"ADDRESS":"正強街２９６號六樓之１","OBJECTID":635272},"geometry":{"x":173302.76000000071,"y":2547949.2899999991}},{"attributes":{"ID":635300,"DIS_CODE":0,"TOWNNAME":"永康區","LI":"正強里","LIN":"41鄰","STREET":"正強街","SECT":" ","MAREA":" ","LANE":" ","ALLEY":" ","HOUSE_NO":"２９０號三樓之１","E_COORD97":173302.91,"N_COORD97":2547926.29,"ADDRESS":"正強街２９０號三樓之１","OBJECTID":635273},"geometry":{"x":173302.90999999922,"y":2547926.2899999991}},{"attributes":{"ID":635301,"DIS_CODE":0,"TOWNNAME":"永康區","LI":"永康里","LIN":"26鄰","STREET":"中山北路","SECT":" ","MAREA":" ","LANE":" ","ALLEY":" ","HOUSE_NO":"７０號六樓之１","E_COORD97":174075.35000000001,"N_COORD97":2547398.25,"ADDRESS":"中山北路７０號六樓之１","OBJECTID":635274},"geometry":{"x":174075.34999999963,"y":2547398.25}},{"attributes":{"ID":635302,"DIS_CODE":0,"TOWNNAME":"永康區","LI":"正強里","LIN":"41鄰","STREET":"正強街","SECT":" ","MAREA":" ","LANE":" ","ALLEY":" ","HOUSE_NO":"２９０號十三樓之１","E_COORD97":173304.16,"N_COORD97":2547926.29,"ADDRESS":"正強街２９０號十三樓之１","OBJECTID":635275},"geometry":{"x":173304.16000000015,"y":2547926.2899999991}},{"attributes":{"ID":635303,"DIS_CODE":0,"TOWNNAME":"東區","LI":"崇文里","LIN":"4鄰","STREET":"崇德十六街","SECT":" ","MAREA":" ","LANE":" ","ALLEY":" ","HOUSE_NO":"１８號二樓","E_COORD97":170878.94,"N_COORD97":2541121.6000000001,"ADDRESS":"崇德十六街１８號二樓","OBJECTID":635276},"geometry":{"x":170878.94000000227,"y":2541121.6000000015}},{"attributes":{"ID":635304,"DIS_CODE":0,"TOWNNAME":"東區","LI":"崇文里","LIN":"4鄰","STREET":"崇德十六街","SECT":" ","MAREA":" ","LANE":" ","ALLEY":" ","HOUSE_NO":"１８號三樓","E_COORD97":170878.94,"N_COORD97":2541121.6000000001,"ADDRESS":"崇德十六街１８號三樓","OBJECTID":635277},"geometry":{"x":170878.94000000227,"y":2541121.6000000015}},{"attributes":{"ID":635305,"DIS_CODE":0,"TOWNNAME":"東區","LI":"崇文里","LIN":"4鄰","STREET":"崇德十六街","SECT":" ","MAREA":" ","LANE":" ","ALLEY":" ","HOUSE_NO":"１８號五樓","E_COORD97":170878.94,"N_COORD97":2541121.6000000001,"ADDRESS":"崇德十六街１８號五樓","OBJECTID":635278},"geometry":{"x":170878.94000000227,"y":2541121.6000000015}},{"attributes":{"ID":635306,"DIS_CODE":0,"TOWNNAME":"東區","LI":"崇文里","LIN":"4鄰","STREET":"崇德十六街","SECT":" ","MAREA":" ","LANE":" ","ALLEY":" ","HOUSE_NO":"１８號六樓","E_COORD97":170878.94,"N_COORD97":2541121.6000000001,"ADDRESS":"崇德十六街１８號六樓","OBJECTID":635279},"geometry":{"x":170878.94000000227,"y":2541121.6000000015}},{"attributes":{"ID":635307,"DIS_CODE":0,"TOWNNAME":"東區","LI":"崇文里","LIN":"4鄰","STREET":"崇德十六街","SECT":" ","MAREA":" ","LANE":" ","ALLEY":" ","HOUSE_NO":"１８號四樓","E_COORD97":170878.94,"N_COORD97":2541121.6000000001,"ADDRESS":"崇德十六街１８號四樓","OBJECTID":635280},"geometry":{"x":170878.94000000227,"y":2541121.6000000015}},{"attributes":{"ID":635308,"DIS_CODE":0,"TOWNNAME":"東區","LI":"崇文里","LIN":"4鄰","STREET":"崇德十六街","SECT":" ","MAREA":" ","LANE":" ","ALLEY":" ","HOUSE_NO":"２０號二樓","E_COORD97":170880.82999999999,"N_COORD97":2541112.4500000002,"ADDRESS":"崇德十六街２０號二樓","OBJECTID":635281},"geometry":{"x":170880.83000000007,"y":2541112.4500000011}},{"attributes":{"ID":635309,"DIS_CODE":0,"TOWNNAME":"東區","LI":"崇文里","LIN":"4鄰","STREET":"崇德十六街","SECT":" ","MAREA":" ","LANE":" ","ALLEY":" ","HOUSE_NO":"２０號三樓","E_COORD97":170880.82999999999,"N_COORD97":2541112.4500000002,"ADDRESS":"崇德十六街２０號三樓","OBJECTID":635282},"geometry":{"x":170880.83000000007,"y":2541112.4500000011}},{"attributes":{"ID":635310,"DIS_CODE":0,"TOWNNAME":"東區","LI":"崇文里","LIN":"4鄰","STREET":"崇德十六街","SECT":" ","MAREA":" ","LANE":" ","ALLEY":" ","HOUSE_NO":"２０號五樓","E_COORD97":170880.82999999999,"N_COORD97":2541112.4500000002,"ADDRESS":"崇德十六街２０號五樓","OBJECTID":635283},"geometry":{"x":170880.83000000007,"y":2541112.4500000011}},{"attributes":{"ID":635311,"DIS_CODE":0,"TOWNNAME":"東區","LI":"崇文里","LIN":"4鄰","STREET":"崇德十六街","SECT":" ","MAREA":" ","LANE":" ","ALLEY":" ","HOUSE_NO":"２０號六樓","E_COORD97":170880.82999999999,"N_COORD97":2541112.4500000002,"ADDRESS":"崇德十六街２０號六樓","OBJECTID":635284},"geometry":{"x":170880.83000000007,"y":2541112.4500000011}},{"attributes":{"ID":635312,"DIS_CODE":0,"TOWNNAME":"東區","LI":"崇文里","LIN":"4鄰","STREET":"崇德十六街","SECT":" ","MAREA":" ","LANE":" ","ALLEY":" ","HOUSE_NO":"２０號四樓","E_COORD97":170880.82999999999,"N_COORD97":2541112.4500000002,"ADDRESS":"崇德十六街２０號四樓","OBJECTID":635285},"geometry":{"x":170880.83000000007,"y":2541112.4500000011}},{"attributes":{"ID":635313,"DIS_CODE":0,"TOWNNAME":"東區","LI":"崇文里","LIN":"4鄰","STREET":"崇德十六街","SECT":" ","MAREA":" ","LANE":" ","ALLEY":" ","HOUSE_NO":"２８號二樓","E_COORD97":170894.76000000001,"N_COORD97":2541112.54,"ADDRESS":"崇德十六街２８號二樓","OBJECTID":635286},"geometry":{"x":170894.76000000164,"y":2541112.5399999991}},{"attributes":{"ID":635314,"DIS_CODE":0,"TOWNNAME":"東區","LI":"崇文里","LIN":"4鄰","STREET":"崇德十六街","SECT":" ","MAREA":" ","LANE":" ","ALLEY":" ","HOUSE_NO":"２８號二樓之１","E_COORD97":170894.76000000001,"N_COORD97":2541112.54,"ADDRESS":"崇德十六街２８號二樓之１","OBJECTID":635287},"geometry":{"x":170894.76000000164,"y":2541112.5399999991}},{"attributes":{"ID":635315,"DIS_CODE":0,"TOWNNAME":"東區","LI":"崇文里","LIN":"1鄰","STREET":"崇德十五街","SECT":" ","MAREA":" ","LANE":" ","ALLEY":" ","HOUSE_NO":"７６號二樓","E_COORD97":171025.92999999999,"N_COORD97":2541167.1099999999,"ADDRESS":"崇德十五街７６號二樓","OBJECTID":635288},"geometry":{"x":171025.93000000063,"y":2541167.1099999994}},{"attributes":{"ID":635316,"DIS_CODE":0,"TOWNNAME":"東區","LI":"崇文里","LIN":"1鄰","STREET":"崇德十五街","SECT":" ","MAREA":" ","LANE":" ","ALLEY":" ","HOUSE_NO":"７６號三樓","E_COORD97":171025.92999999999,"N_COORD97":2541167.1099999999,"ADDRESS":"崇德十五街７６號三樓","OBJECTID":635289},"geometry":{"x":171025.93000000063,"y":2541167.1099999994}},{"attributes":{"ID":635317,"DIS_CODE":0,"TOWNNAME":"東區","LI":"崇文里","LIN":"4鄰","STREET":"崇德十六街","SECT":" ","MAREA":" ","LANE":" ","ALLEY":" ","HOUSE_NO":"９０號二樓","E_COORD97":171047.64999999999,"N_COORD97":2541115,"ADDRESS":"崇德十六街９０號二樓","OBJECTID":635290},"geometry":{"x":171047.6500000013,"y":2541115}},{"attributes":{"ID":635318,"DIS_CODE":0,"TOWNNAME":"東區","LI":"崇文里","LIN":"4鄰","STREET":"崇德十六街","SECT":" ","MAREA":" ","LANE":" ","ALLEY":" ","HOUSE_NO":"９０號三樓","E_COORD97":171047.64999999999,"N_COORD97":2541115,"ADDRESS":"崇德十六街９０號三樓","OBJECTID":635291},"geometry":{"x":171047.6500000013,"y":2541115}},{"attributes":{"ID":635319,"DIS_CODE":0,"TOWNNAME":"東區","LI":"崇文里","LIN":"4鄰","STREET":"崇德十六街","SECT":" ","MAREA":" ","LANE":" ","ALLEY":" ","HOUSE_NO":"９０號五樓","E_COORD97":171047.64999999999,"N_COORD97":2541115,"ADDRESS":"崇德十六街９０號五樓","OBJECTID":635292},"geometry":{"x":171047.6500000013,"y":2541115}},{"attributes":{"ID":635320,"DIS_CODE":0,"TOWNNAME":"東區","LI":"崇文里","LIN":"4鄰","STREET":"崇德十六街","SECT":" ","MAREA":" ","LANE":" ","ALLEY":" ","HOUSE_NO":"９０號四樓","E_COORD97":171047.64999999999,"N_COORD97":2541115,"ADDRESS":"崇德十六街９０號四樓","OBJECTID":635293},"geometry":{"x":171047.6500000013,"y":2541115}},{"attributes":{"ID":635321,"DIS_CODE":0,"TOWNNAME":"東區","LI":"崇文里","LIN":"4鄰","STREET":"崇德十六街","SECT":" ","MAREA":" ","LANE":" ","ALLEY":" ","HOUSE_NO":"９２號二樓","E_COORD97":171045.66,"N_COORD97":2541126.54,"ADDRESS":"崇德十六街９２號二樓","OBJECTID":635294},"geometry":{"x":171045.66000000108,"y":2541126.5399999991}},{"attributes":{"ID":635322,"DIS_CODE":0,"TOWNNAME":"東區","LI":"崇文里","LIN":"4鄰","STREET":"崇德十六街","SECT":" ","MAREA":" ","LANE":" ","ALLEY":" ","HOUSE_NO":"９２號三樓","E_COORD97":171045.66,"N_COORD97":2541126.54,"ADDRESS":"崇德十六街９２號三樓","OBJECTID":635295},"geometry":{"x":171045.66000000108,"y":2541126.5399999991}},{"attributes":{"ID":635323,"DIS_CODE":0,"TOWNNAME":"東區","LI":"崇文里","LIN":"4鄰","STREET":"崇德十六街","SECT":" ","MAREA":" ","LANE":" ","ALLEY":" ","HOUSE_NO":"９２號四樓","E_COORD97":171045.66,"N_COORD97":2541126.54,"ADDRESS":"崇德十六街９２號四樓","OBJECTID":635296},"geometry":{"x":171045.66000000108,"y":2541126.5399999991}},{"attributes":{"ID":635324,"DIS_CODE":0,"TOWNNAME":"東區","LI":"崇文里","LIN":"12鄰","STREET":"崇德十八街","SECT":" ","MAREA":" ","LANE":" ","ALLEY":" ","HOUSE_NO":"１０４號二樓","E_COORD97":171082.31,"N_COORD97":2541023.2599999998,"ADDRESS":"崇德十八街１０４號二樓","OBJECTID":635297},"geometry":{"x":171082.30999999866,"y":2541023.2600000016}},{"attributes":{"ID":635325,"DIS_CODE":0,"TOWNNAME":"東區","LI":"崇文里","LIN":"12鄰","STREET":"崇德十八街","SECT":" ","MAREA":" ","LANE":" ","ALLEY":" ","HOUSE_NO":"１０４號三樓","E_COORD97":171082.31,"N_COORD97":2541023.2599999998,"ADDRESS":"崇德十八街１０４號三樓","OBJECTID":635298},"geometry":{"x":171082.30999999866,"y":2541023.2600000016}},{"attributes":{"ID":635326,"DIS_CODE":0,"TOWNNAME":"東區","LI":"崇文里","LIN":"12鄰","STREET":"崇德十八街","SECT":" ","MAREA":" ","LANE":" ","ALLEY":" ","HOUSE_NO":"１０４號五樓","E_COORD97":171082.31,"N_COORD97":2541023.2599999998,"ADDRESS":"崇德十八街１０４號五樓","OBJECTID":635299},"geometry":{"x":171082.30999999866,"y":2541023.2600000016}},{"attributes":{"ID":635327,"DIS_CODE":0,"TOWNNAME":"東區","LI":"崇文里","LIN":"12鄰","STREET":"崇德十八街","SECT":" ","MAREA":" ","LANE":" ","ALLEY":" ","HOUSE_NO":"１０４號六樓","E_COORD97":171082.31,"N_COORD97":2541023.2599999998,"ADDRESS":"崇德十八街１０４號六樓","OBJECTID":635300},"geometry":{"x":171082.30999999866,"y":2541023.2600000016}},{"attributes":{"ID":635328,"DIS_CODE":0,"TOWNNAME":"東區","LI":"崇文里","LIN":"12鄰","STREET":"崇德十八街","SECT":" ","MAREA":" ","LANE":" ","ALLEY":" ","HOUSE_NO":"１０４號四樓","E_COORD97":171082.31,"N_COORD97":2541023.2599999998,"ADDRESS":"崇德十八街１０４號四樓","OBJECTID":635301},"geometry":{"x":171082.30999999866,"y":2541023.2600000016}},{"attributes":{"ID":635329,"DIS_CODE":0,"TOWNNAME":"東區","LI":"崇文里","LIN":"12鄰","STREET":"崇德十八街","SECT":" ","MAREA":" ","LANE":" ","ALLEY":" ","HOUSE_NO":"１０６號二樓","E_COORD97":171084.5,"N_COORD97":2541015.6000000001,"ADDRESS":"崇德十八街１０６號二樓","OBJECTID":635302},"geometry":{"x":171084.5,"y":2541015.5999999996}},{"attributes":{"ID":635330,"DIS_CODE":0,"TOWNNAME":"東區","LI":"崇文里","LIN":"20鄰","STREET":"崇德二十街","SECT":" ","MAREA":" ","LANE":" ","ALLEY":" ","HOUSE_NO":"６８號二樓","E_COORD97":171008.17000000001,"N_COORD97":2540901.2799999998,"ADDRESS":"崇德二十街６８號二樓","OBJECTID":635303},"geometry":{"x":171008.17000000086,"y":2540901.2799999993}},{"attributes":{"ID":635331,"DIS_CODE":0,"TOWNNAME":"東區","LI":"崇文里","LIN":"20鄰","STREET":"崇德二十街","SECT":" ","MAREA":" ","LANE":" ","ALLEY":" ","HOUSE_NO":"６８號三樓","E_COORD97":171008.17000000001,"N_COORD97":2540901.2799999998,"ADDRESS":"崇德二十街６８號三樓","OBJECTID":635304},"geometry":{"x":171008.17000000086,"y":2540901.2799999993}},{"attributes":{"ID":635332,"DIS_CODE":0,"TOWNNAME":"東區","LI":"崇文里","LIN":"20鄰","STREET":"崇德二十街","SECT":" ","MAREA":" ","LANE":" ","ALLEY":" ","HOUSE_NO":"６８號五樓","E_COORD97":171008.17000000001,"N_COORD97":2540901.2799999998,"ADDRESS":"崇德二十街６８號五樓","OBJECTID":635305},"geometry":{"x":171008.17000000086,"y":2540901.2799999993}},{"attributes":{"ID":635333,"DIS_CODE":0,"TOWNNAME":"東區","LI":"崇文里","LIN":"20鄰","STREET":"崇德二十街","SECT":" ","MAREA":" ","LANE":" ","ALLEY":" ","HOUSE_NO":"６８號六樓","E_COORD97":171008.17000000001,"N_COORD97":2540901.2799999998,"ADDRESS":"崇德二十街６８號六樓","OBJECTID":635306},"geometry":{"x":171008.17000000086,"y":2540901.2799999993}},{"attributes":{"ID":635334,"DIS_CODE":0,"TOWNNAME":"東區","LI":"崇文里","LIN":"20鄰","STREET":"崇德二十街","SECT":" ","MAREA":" ","LANE":" ","ALLEY":" ","HOUSE_NO":"６８號四樓","E_COORD97":171008.17000000001,"N_COORD97":2540901.2799999998,"ADDRESS":"崇德二十街６８號四樓","OBJECTID":635307},"geometry":{"x":171008.17000000086,"y":2540901.2799999993}},{"attributes":{"ID":635335,"DIS_CODE":0,"TOWNNAME":"東區","LI":"崇文里","LIN":"20鄰","STREET":"崇德二十街","SECT":" ","MAREA":" ","LANE":" ","ALLEY":" ","HOUSE_NO":"７０號二樓","E_COORD97":171000.5,"N_COORD97":2540910.3300000001,"ADDRESS":"崇德二十街７０號二樓","OBJECTID":635308},"geometry":{"x":171000.50000000093,"y":2540910.3300000019}},{"attributes":{"ID":635336,"DIS_CODE":0,"TOWNNAME":"東區","LI":"崇文里","LIN":"20鄰","STREET":"崇德二十街","SECT":" ","MAREA":" ","LANE":" ","ALLEY":" ","HOUSE_NO":"７０號三樓","E_COORD97":171000.5,"N_COORD97":2540910.3300000001,"ADDRESS":"崇德二十街７０號三樓","OBJECTID":635309},"geometry":{"x":171000.50000000093,"y":2540910.3300000019}},{"attributes":{"ID":635337,"DIS_CODE":0,"TOWNNAME":"東區","LI":"崇文里","LIN":"20鄰","STREET":"崇德二十街","SECT":" ","MAREA":" ","LANE":" ","ALLEY":" ","HOUSE_NO":"７０號五樓","E_COORD97":171000.5,"N_COORD97":2540910.3300000001,"ADDRESS":"崇德二十街７０號五樓","OBJECTID":635310},"geometry":{"x":171000.50000000093,"y":2540910.3300000019}},{"attributes":{"ID":635338,"DIS_CODE":0,"TOWNNAME":"東區","LI":"崇文里","LIN":"20鄰","STREET":"崇德二十街","SECT":" ","MAREA":" ","LANE":" ","ALLEY":" ","HOUSE_NO":"７０號六樓","E_COORD97":171000.5,"N_COORD97":2540910.3300000001,"ADDRESS":"崇德二十街７０號六樓","OBJECTID":635311},"geometry":{"x":171000.50000000093,"y":2540910.3300000019}},{"attributes":{"ID":635339,"DIS_CODE":0,"TOWNNAME":"東區","LI":"崇文里","LIN":"20鄰","STREET":"崇德二十街","SECT":" ","MAREA":" ","LANE":" ","ALLEY":" ","HOUSE_NO":"７０號四樓","E_COORD97":171000.5,"N_COORD97":2540910.3300000001,"ADDRESS":"崇德二十街７０號四樓","OBJECTID":635312},"geometry":{"x":171000.50000000093,"y":2540910.3300000019}},{"attributes":{"ID":635340,"DIS_CODE":0,"TOWNNAME":"東區","LI":"崇文里","LIN":"17鄰","STREET":"崇德二十街","SECT":" ","MAREA":" ","LANE":" ","ALLEY":" ","HOUSE_NO":"２９號二樓","E_COORD97":170892.10999999999,"N_COORD97":2540936.27,"ADDRESS":"崇德二十街２９號二樓","OBJECTID":635313},"geometry":{"x":170892.11000000127,"y":2540936.2699999996}},{"attributes":{"ID":635341,"DIS_CODE":0,"TOWNNAME":"東區","LI":"崇文里","LIN":"17鄰","STREET":"崇德二十街","SECT":" ","MAREA":" ","LANE":" ","ALLEY":" ","HOUSE_NO":"２９號三樓","E_COORD97":170892.10999999999,"N_COORD97":2540936.27,"ADDRESS":"崇德二十街２９號三樓","OBJECTID":635314},"geometry":{"x":170892.11000000127,"y":2540936.2699999996}},{"attributes":{"ID":635342,"DIS_CODE":0,"TOWNNAME":"東區","LI":"崇文里","LIN":"17鄰","STREET":"崇德二十街","SECT":" ","MAREA":" ","LANE":" ","ALLEY":" ","HOUSE_NO":"２９號五樓","E_COORD97":170892.10999999999,"N_COORD97":2540936.27,"ADDRESS":"崇德二十街２９號五樓","OBJECTID":635315},"geometry":{"x":170892.11000000127,"y":2540936.2699999996}},{"attributes":{"ID":635343,"DIS_CODE":0,"TOWNNAME":"東區","LI":"崇文里","LIN":"17鄰","STREET":"崇德二十街","SECT":" ","MAREA":" ","LANE":" ","ALLEY":" ","HOUSE_NO":"２９號六樓","E_COORD97":170892.10999999999,"N_COORD97":2540936.27,"ADDRESS":"崇德二十街２９號六樓","OBJECTID":635316},"geometry":{"x":170892.11000000127,"y":2540936.2699999996}},{"attributes":{"ID":635344,"DIS_CODE":0,"TOWNNAME":"東區","LI":"崇文里","LIN":"17鄰","STREET":"崇德二十街","SECT":" ","MAREA":" ","LANE":" ","ALLEY":" ","HOUSE_NO":"２９號四樓","E_COORD97":170892.10999999999,"N_COORD97":2540936.27,"ADDRESS":"崇德二十街２９號四樓","OBJECTID":635317},"geometry":{"x":170892.11000000127,"y":2540936.2699999996}},{"attributes":{"ID":635345,"DIS_CODE":0,"TOWNNAME":"東區","LI":"崇文里","LIN":"17鄰","STREET":"崇德二十街","SECT":" ","MAREA":" ","LANE":" ","ALLEY":" ","HOUSE_NO":"５１號三樓","E_COORD97":170945.97,"N_COORD97":2540932.0899999999,"ADDRESS":"崇德二十街５１號三樓","OBJECTID":635318},"geometry":{"x":170945.9700000016,"y":2540932.0900000017}},{"attributes":{"ID":635346,"DIS_CODE":0,"TOWNNAME":"東區","LI":"崇文里","LIN":"17鄰","STREET":"崇德二十街","SECT":" ","MAREA":" ","LANE":" ","ALLEY":" ","HOUSE_NO":"５１號五樓","E_COORD97":170945.97,"N_COORD97":2540932.0899999999,"ADDRESS":"崇德二十街５１號五樓","OBJECTID":635319},"geometry":{"x":170945.9700000016,"y":2540932.0900000017}},{"attributes":{"ID":635347,"DIS_CODE":0,"TOWNNAME":"東區","LI":"崇文里","LIN":"17鄰","STREET":"崇德二十街","SECT":" ","MAREA":" ","LANE":" ","ALLEY":" ","HOUSE_NO":"５１號六樓","E_COORD97":170945.97,"N_COORD97":2540932.0899999999,"ADDRESS":"崇德二十街５１號六樓","OBJECTID":635320},"geometry":{"x":170945.9700000016,"y":2540932.0900000017}},{"attributes":{"ID":635348,"DIS_CODE":0,"TOWNNAME":"東區","LI":"崇文里","LIN":"21鄰","STREET":"崇德二十一街","SECT":" ","MAREA":" ","LANE":" ","ALLEY":" ","HOUSE_NO":"６７號二樓","E_COORD97":171002.10000000001,"N_COORD97":2540882.0299999998,"ADDRESS":"崇德二十一街６７號二樓","OBJECTID":635321},"geometry":{"x":171002.09999999963,"y":2540882.0300000012}},{"attributes":{"ID":635349,"DIS_CODE":0,"TOWNNAME":"東區","LI":" ","LIN":" ","STREET":"崇德二十二街","SECT":" ","MAREA":" ","LANE":" ","ALLEY":" ","HOUSE_NO":"５８號四樓之９","E_COORD97":170969.67999999999,"N_COORD97":2540835.9500000002,"ADDRESS":"崇德二十二街５８號四樓之９","OBJECTID":635322},"geometry":{"x":170969.6799999997,"y":2540835.9499999993}},{"attributes":{"ID":635350,"DIS_CODE":0,"TOWNNAME":"東區","LI":"崇文里","LIN":"39鄰","STREET":"生產路","SECT":" ","MAREA":" ","LANE":" ","ALLEY":" ","HOUSE_NO":"２５５號七樓","E_COORD97":170813.75,"N_COORD97":2540616.7200000002,"ADDRESS":"生產路２５５號七樓","OBJECTID":635323},"geometry":{"x":170813.75000000186,"y":2540616.7200000025}},{"attributes":{"ID":635351,"DIS_CODE":0,"TOWNNAME":"東區","LI":"崇文里","LIN":"39鄰","STREET":"生產路","SECT":" ","MAREA":" ","LANE":" ","ALLEY":" ","HOUSE_NO":"２５５號九樓","E_COORD97":170813.75,"N_COORD97":2540616.7200000002,"ADDRESS":"生產路２５５號九樓","OBJECTID":635324},"geometry":{"x":170813.75000000186,"y":2540616.7200000025}},{"attributes":{"ID":635352,"DIS_CODE":0,"TOWNNAME":"東區","LI":"崇文里","LIN":"39鄰","STREET":"生產路","SECT":" ","MAREA":" ","LANE":" ","ALLEY":" ","HOUSE_NO":"２５５號八樓","E_COORD97":170813.75,"N_COORD97":2540616.7200000002,"ADDRESS":"生產路２５５號八樓","OBJECTID":635325},"geometry":{"x":170813.75000000186,"y":2540616.7200000025}},{"attributes":{"ID":635353,"DIS_CODE":0,"TOWNNAME":"東區","LI":"崇文里","LIN":"37鄰","STREET":"崇德二十五街","SECT":" ","MAREA":" ","LANE":" ","ALLEY":" ","HOUSE_NO":"１２號十一樓","E_COORD97":170859.35999999999,"N_COORD97":2540643.9700000002,"ADDRESS":"崇德二十五街１２號十一樓","OBJECTID":635326},"geometry":{"x":170859.36000000127,"y":2540643.9700000007}},{"attributes":{"ID":635354,"DIS_CODE":0,"TOWNNAME":"東區","LI":"崇文里","LIN":"37鄰","STREET":"崇德二十五街","SECT":" ","MAREA":" ","LANE":" ","ALLEY":" ","HOUSE_NO":"１２號十二樓","E_COORD97":170859.35999999999,"N_COORD97":2540643.9700000002,"ADDRESS":"崇德二十五街１２號十二樓","OBJECTID":635327},"geometry":{"x":170859.36000000127,"y":2540643.9700000007}},{"attributes":{"ID":635355,"DIS_CODE":0,"TOWNNAME":"東區","LI":"崇文里","LIN":"37鄰","STREET":"崇德二十五街","SECT":" ","MAREA":" ","LANE":" ","ALLEY":" ","HOUSE_NO":"１２號十樓","E_COORD97":170859.35999999999,"N_COORD97":2540643.9700000002,"ADDRESS":"崇德二十五街１２號十樓","OBJECTID":635328},"geometry":{"x":170859.36000000127,"y":2540643.9700000007}},{"attributes":{"ID":635356,"DIS_CODE":0,"TOWNNAME":"東區","LI":"崇文里","LIN":"37鄰","STREET":"崇德二十五街","SECT":" ","MAREA":" ","LANE":" ","ALLEY":" ","HOUSE_NO":"１２號三樓","E_COORD97":170859.35999999999,"N_COORD97":2540643.9700000002,"ADDRESS":"崇德二十五街１２號三樓","OBJECTID":635329},"geometry":{"x":170859.36000000127,"y":2540643.9700000007}},{"attributes":{"ID":635357,"DIS_CODE":0,"TOWNNAME":"東區","LI":"崇文里","LIN":"37鄰","STREET":"崇德二十五街","SECT":" ","MAREA":" ","LANE":" ","ALLEY":" ","HOUSE_NO":"１２號五樓","E_COORD97":170859.35999999999,"N_COORD97":2540643.9700000002,"ADDRESS":"崇德二十五街１２號五樓","OBJECTID":635330},"geometry":{"x":170859.36000000127,"y":2540643.9700000007}},{"attributes":{"ID":635358,"DIS_CODE":0,"TOWNNAME":"東區","LI":"崇文里","LIN":"37鄰","STREET":"崇德二十五街","SECT":" ","MAREA":" ","LANE":" ","ALLEY":" ","HOUSE_NO":"１２號六樓","E_COORD97":170859.35999999999,"N_COORD97":2540643.9700000002,"ADDRESS":"崇德二十五街１２號六樓","OBJECTID":635331},"geometry":{"x":170859.36000000127,"y":2540643.9700000007}},{"attributes":{"ID":635359,"DIS_CODE":0,"TOWNNAME":"東區","LI":"崇文里","LIN":"37鄰","STREET":"崇德二十五街","SECT":" ","MAREA":" ","LANE":" ","ALLEY":" ","HOUSE_NO":"１２號四樓","E_COORD97":170859.35999999999,"N_COORD97":2540643.9700000002,"ADDRESS":"崇德二十五街１２號四樓","OBJECTID":635332},"geometry":{"x":170859.36000000127,"y":2540643.9700000007}},{"attributes":{"ID":635360,"DIS_CODE":0,"TOWNNAME":"東區","LI":"崇文里","LIN":"37鄰","STREET":"崇德二十五街","SECT":" ","MAREA":" ","LANE":" ","ALLEY":" ","HOUSE_NO":"１６號七樓","E_COORD97":170873.10000000001,"N_COORD97":2540644.0699999998,"ADDRESS":"崇德二十五街１６號七樓","OBJECTID":635333},"geometry":{"x":170873.09999999963,"y":2540644.070000004}},{"attributes":{"ID":635361,"DIS_CODE":0,"TOWNNAME":"東區","LI":"崇文里","LIN":"37鄰","STREET":"崇德二十五街","SECT":" ","MAREA":" ","LANE":" ","ALLEY":" ","HOUSE_NO":"１６號九樓","E_COORD97":170873.10000000001,"N_COORD97":2540644.0699999998,"ADDRESS":"崇德二十五街１６號九樓","OBJECTID":635334},"geometry":{"x":170873.09999999963,"y":2540644.070000004}},{"attributes":{"ID":635362,"DIS_CODE":0,"TOWNNAME":"東區","LI":"崇文里","LIN":"37鄰","STREET":"崇德二十五街","SECT":" ","MAREA":" ","LANE":" ","ALLEY":" ","HOUSE_NO":"１６號二樓","E_COORD97":170873.10000000001,"N_COORD97":2540644.0699999998,"ADDRESS":"崇德二十五街１６號二樓","OBJECTID":635335},"geometry":{"x":170873.09999999963,"y":2540644.070000004}},{"attributes":{"ID":635363,"DIS_CODE":0,"TOWNNAME":"東區","LI":"崇文里","LIN":"37鄰","STREET":"崇德二十五街","SECT":" ","MAREA":" ","LANE":" ","ALLEY":" ","HOUSE_NO":"１６號八樓","E_COORD97":170873.10000000001,"N_COORD97":2540644.0699999998,"ADDRESS":"崇德二十五街１６號八樓","OBJECTID":635336},"geometry":{"x":170873.09999999963,"y":2540644.070000004}},{"attributes":{"ID":635364,"DIS_CODE":0,"TOWNNAME":"東區","LI":"崇文里","LIN":"37鄰","STREET":"崇德二十五街","SECT":" ","MAREA":" ","LANE":" ","ALLEY":" ","HOUSE_NO":"１６號十一樓","E_COORD97":170873.10000000001,"N_COORD97":2540644.0699999998,"ADDRESS":"崇德二十五街１６號十一樓","OBJECTID":635337},"geometry":{"x":170873.09999999963,"y":2540644.070000004}},{"attributes":{"ID":635365,"DIS_CODE":0,"TOWNNAME":"東區","LI":"崇文里","LIN":"37鄰","STREET":"崇德二十五街","SECT":" ","MAREA":" ","LANE":" ","ALLEY":" ","HOUSE_NO":"１６號十二樓","E_COORD97":170873.10000000001,"N_COORD97":2540644.0699999998,"ADDRESS":"崇德二十五街１６號十二樓","OBJECTID":635338},"geometry":{"x":170873.09999999963,"y":2540644.070000004}},{"attributes":{"ID":635366,"DIS_CODE":0,"TOWNNAME":"東區","LI":"崇文里","LIN":"37鄰","STREET":"崇德二十五街","SECT":" ","MAREA":" ","LANE":" ","ALLEY":" ","HOUSE_NO":"１６號十樓","E_COORD97":170873.10000000001,"N_COORD97":2540644.0699999998,"ADDRESS":"崇德二十五街１６號十樓","OBJECTID":635339},"geometry":{"x":170873.09999999963,"y":2540644.070000004}},{"attributes":{"ID":635367,"DIS_CODE":0,"TOWNNAME":"東區","LI":"崇文里","LIN":"37鄰","STREET":"崇德二十五街","SECT":" ","MAREA":" ","LANE":" ","ALLEY":" ","HOUSE_NO":"１６號三樓","E_COORD97":170873.10000000001,"N_COORD97":2540644.0699999998,"ADDRESS":"崇德二十五街１６號三樓","OBJECTID":635340},"geometry":{"x":170873.09999999963,"y":2540644.070000004}},{"attributes":{"ID":635368,"DIS_CODE":0,"TOWNNAME":"東區","LI":"崇文里","LIN":"37鄰","STREET":"崇德二十五街","SECT":" ","MAREA":" ","LANE":" ","ALLEY":" ","HOUSE_NO":"１６號五樓","E_COORD97":170873.10000000001,"N_COORD97":2540644.0699999998,"ADDRESS":"崇德二十五街１６號五樓","OBJECTID":635341},"geometry":{"x":170873.09999999963,"y":2540644.070000004}},{"attributes":{"ID":635369,"DIS_CODE":0,"TOWNNAME":"東區","LI":"崇文里","LIN":"37鄰","STREET":"崇德二十五街","SECT":" ","MAREA":" ","LANE":" ","ALLEY":" ","HOUSE_NO":"１６號六樓","E_COORD97":170873.10000000001,"N_COORD97":2540644.0699999998,"ADDRESS":"崇德二十五街１６號六樓","OBJECTID":635342},"geometry":{"x":170873.09999999963,"y":2540644.070000004}},{"attributes":{"ID":635370,"DIS_CODE":0,"TOWNNAME":"東區","LI":"崇文里","LIN":"37鄰","STREET":"崇德二十五街","SECT":" ","MAREA":" ","LANE":" ","ALLEY":" ","HOUSE_NO":"１６號四樓","E_COORD97":170873.10000000001,"N_COORD97":2540644.0699999998,"ADDRESS":"崇德二十五街１６號四樓","OBJECTID":635343},"geometry":{"x":170873.09999999963,"y":2540644.070000004}},{"attributes":{"ID":635371,"DIS_CODE":0,"TOWNNAME":"南區","LI":"新生里","LIN":"1鄰","STREET":"大林路","SECT":" ","MAREA":" ","LANE":" ","ALLEY":" ","HOUSE_NO":"２號九樓之２","E_COORD97":169367.64999999999,"N_COORD97":2541886.5499999998,"ADDRESS":"大林路２號九樓之２","OBJECTID":635344},"geometry":{"x":169367.6500000013,"y":2541886.5500000026}},{"attributes":{"ID":635372,"DIS_CODE":0,"TOWNNAME":"東區","LI":"崇文里","LIN":"37鄰","STREET":"崇德二十五街","SECT":" ","MAREA":" ","LANE":" ","ALLEY":" ","HOUSE_NO":"２號七樓","E_COORD97":170818.32999999999,"N_COORD97":2540643.6699999999,"ADDRESS":"崇德二十五街２號七樓","OBJECTID":635345},"geometry":{"x":170818.33000000194,"y":2540643.6700000018}},{"attributes":{"ID":635373,"DIS_CODE":0,"TOWNNAME":"東區","LI":"崇文里","LIN":"37鄰","STREET":"崇德二十五街","SECT":" ","MAREA":" ","LANE":" ","ALLEY":" ","HOUSE_NO":"２號九樓","E_COORD97":170818.32999999999,"N_COORD97":2540643.6699999999,"ADDRESS":"崇德二十五街２號九樓","OBJECTID":635346},"geometry":{"x":170818.33000000194,"y":2540643.6700000018}},{"attributes":{"ID":635374,"DIS_CODE":0,"TOWNNAME":"東區","LI":"崇文里","LIN":"37鄰","STREET":"崇德二十五街","SECT":" ","MAREA":" ","LANE":" ","ALLEY":" ","HOUSE_NO":"２號二樓","E_COORD97":170818.32999999999,"N_COORD97":2540643.6699999999,"ADDRESS":"崇德二十五街２號二樓","OBJECTID":635347},"geometry":{"x":170818.33000000194,"y":2540643.6700000018}},{"attributes":{"ID":635375,"DIS_CODE":0,"TOWNNAME":"東區","LI":"崇文里","LIN":"37鄰","STREET":"崇德二十五街","SECT":" ","MAREA":" ","LANE":" ","ALLEY":" ","HOUSE_NO":"２號八樓","E_COORD97":170818.32999999999,"N_COORD97":2540643.6699999999,"ADDRESS":"崇德二十五街２號八樓","OBJECTID":635348},"geometry":{"x":170818.33000000194,"y":2540643.6700000018}},{"attributes":{"ID":635376,"DIS_CODE":0,"TOWNNAME":"東區","LI":"崇文里","LIN":"37鄰","STREET":"崇德二十五街","SECT":" ","MAREA":" ","LANE":" ","ALLEY":" ","HOUSE_NO":"２號十一樓","E_COORD97":170818.32999999999,"N_COORD97":2540643.6699999999,"ADDRESS":"崇德二十五街２號十一樓","OBJECTID":635349},"geometry":{"x":170818.33000000194,"y":2540643.6700000018}},{"attributes":{"ID":635377,"DIS_CODE":0,"TOWNNAME":"東區","LI":"崇文里","LIN":"37鄰","STREET":"崇德二十五街","SECT":" ","MAREA":" ","LANE":" ","ALLEY":" ","HOUSE_NO":"２號十二樓","E_COORD97":170818.32999999999,"N_COORD97":2540643.6699999999,"ADDRESS":"崇德二十五街２號十二樓","OBJECTID":635350},"geometry":{"x":170818.33000000194,"y":2540643.6700000018}},{"attributes":{"ID":635378,"DIS_CODE":0,"TOWNNAME":"東區","LI":"崇文里","LIN":"37鄰","STREET":"崇德二十五街","SECT":" ","MAREA":" ","LANE":" ","ALLEY":" ","HOUSE_NO":"２號十樓","E_COORD97":170818.32999999999,"N_COORD97":2540643.6699999999,"ADDRESS":"崇德二十五街２號十樓","OBJECTID":635351},"geometry":{"x":170818.33000000194,"y":2540643.6700000018}},{"attributes":{"ID":635379,"DIS_CODE":0,"TOWNNAME":"東區","LI":"崇文里","LIN":"37鄰","STREET":"崇德二十五街","SECT":" ","MAREA":" ","LANE":" ","ALLEY":" ","HOUSE_NO":"２號三樓","E_COORD97":170818.32999999999,"N_COORD97":2540643.6699999999,"ADDRESS":"崇德二十五街２號三樓","OBJECTID":635352},"geometry":{"x":170818.33000000194,"y":2540643.6700000018}},{"attributes":{"ID":635380,"DIS_CODE":0,"TOWNNAME":"東區","LI":"崇文里","LIN":"37鄰","STREET":"崇德二十五街","SECT":" ","MAREA":" ","LANE":" ","ALLEY":" ","HOUSE_NO":"２號五樓","E_COORD97":170818.32999999999,"N_COORD97":2540643.6699999999,"ADDRESS":"崇德二十五街２號五樓","OBJECTID":635353},"geometry":{"x":170818.33000000194,"y":2540643.6700000018}},{"attributes":{"ID":635381,"DIS_CODE":0,"TOWNNAME":"東區","LI":"崇文里","LIN":"37鄰","STREET":"崇德二十五街","SECT":" ","MAREA":" ","LANE":" ","ALLEY":" ","HOUSE_NO":"２號六樓","E_COORD97":170818.32999999999,"N_COORD97":2540643.6699999999,"ADDRESS":"崇德二十五街２號六樓","OBJECTID":635354},"geometry":{"x":170818.33000000194,"y":2540643.6700000018}},{"attributes":{"ID":635382,"DIS_CODE":0,"TOWNNAME":"東區","LI":"崇文里","LIN":"37鄰","STREET":"崇德二十五街","SECT":" ","MAREA":" ","LANE":" ","ALLEY":" ","HOUSE_NO":"２號四樓","E_COORD97":170818.32999999999,"N_COORD97":2540643.6699999999,"ADDRESS":"崇德二十五街２號四樓","OBJECTID":635355},"geometry":{"x":170818.33000000194,"y":2540643.6700000018}},{"attributes":{"ID":635383,"DIS_CODE":0,"TOWNNAME":"東區","LI":"崇文里","LIN":"37鄰","STREET":"崇德二十五街","SECT":" ","MAREA":" ","LANE":" ","ALLEY":" ","HOUSE_NO":"６號七樓","E_COORD97":170828.57999999999,"N_COORD97":2540643.6699999999,"ADDRESS":"崇德二十五街６號七樓","OBJECTID":635356},"geometry":{"x":170828.58000000194,"y":2540643.6700000018}},{"attributes":{"ID":635384,"DIS_CODE":0,"TOWNNAME":"東區","LI":"崇文里","LIN":"37鄰","STREET":"崇德二十五街","SECT":" ","MAREA":" ","LANE":" ","ALLEY":" ","HOUSE_NO":"６號九樓","E_COORD97":170828.57999999999,"N_COORD97":2540643.6699999999,"ADDRESS":"崇德二十五街６號九樓","OBJECTID":635357},"geometry":{"x":170828.58000000194,"y":2540643.6700000018}},{"attributes":{"ID":635385,"DIS_CODE":0,"TOWNNAME":"東區","LI":"崇文里","LIN":"37鄰","STREET":"崇德二十五街","SECT":" ","MAREA":" ","LANE":" ","ALLEY":" ","HOUSE_NO":"６號二樓","E_COORD97":170828.57999999999,"N_COORD97":2540643.6699999999,"ADDRESS":"崇德二十五街６號二樓","OBJECTID":635358},"geometry":{"x":170828.58000000194,"y":2540643.6700000018}},{"attributes":{"ID":635386,"DIS_CODE":0,"TOWNNAME":"東區","LI":"崇文里","LIN":"39鄰","STREET":"崇德路","SECT":" ","MAREA":" ","LANE":" ","ALLEY":" ","HOUSE_NO":"８３１號九樓","E_COORD97":170802.78,"N_COORD97":2540639.73,"ADDRESS":"崇德路８３１號九樓","OBJECTID":635359},"geometry":{"x":170802.78000000026,"y":2540639.7300000042}},{"attributes":{"ID":635387,"DIS_CODE":0,"TOWNNAME":"東區","LI":"崇文里","LIN":"39鄰","STREET":"崇德路","SECT":" ","MAREA":" ","LANE":" ","ALLEY":" ","HOUSE_NO":"８３１號二樓","E_COORD97":170802.78,"N_COORD97":2540639.73,"ADDRESS":"崇德路８３１號二樓","OBJECTID":635360},"geometry":{"x":170802.78000000026,"y":2540639.7300000042}},{"attributes":{"ID":635388,"DIS_CODE":0,"TOWNNAME":"東區","LI":"崇文里","LIN":"39鄰","STREET":"崇德路","SECT":" ","MAREA":" ","LANE":" ","ALLEY":" ","HOUSE_NO":"８３１號八樓","E_COORD97":170802.78,"N_COORD97":2540639.73,"ADDRESS":"崇德路８３１號八樓","OBJECTID":635361},"geometry":{"x":170802.78000000026,"y":2540639.7300000042}},{"attributes":{"ID":635389,"DIS_CODE":0,"TOWNNAME":"東區","LI":"崇文里","LIN":"39鄰","STREET":"崇德路","SECT":" ","MAREA":" ","LANE":" ","ALLEY":" ","HOUSE_NO":"８３１號十樓","E_COORD97":170802.78,"N_COORD97":2540639.73,"ADDRESS":"崇德路８３１號十樓","OBJECTID":635362},"geometry":{"x":170802.78000000026,"y":2540639.7300000042}},{"attributes":{"ID":635390,"DIS_CODE":0,"TOWNNAME":"東區","LI":"崇文里","LIN":"39鄰","STREET":"崇德路","SECT":" ","MAREA":" ","LANE":" ","ALLEY":" ","HOUSE_NO":"８３１號三樓","E_COORD97":170802.78,"N_COORD97":2540639.73,"ADDRESS":"崇德路８３１號三樓","OBJECTID":635363},"geometry":{"x":170802.78000000026,"y":2540639.7300000042}},{"attributes":{"ID":635391,"DIS_CODE":0,"TOWNNAME":"東區","LI":"崇文里","LIN":"39鄰","STREET":"崇德路","SECT":" ","MAREA":" ","LANE":" ","ALLEY":" ","HOUSE_NO":"８３１號五樓","E_COORD97":170802.78,"N_COORD97":2540639.73,"ADDRESS":"崇德路８３１號五樓","OBJECTID":635364},"geometry":{"x":170802.78000000026,"y":2540639.7300000042}},{"attributes":{"ID":635392,"DIS_CODE":0,"TOWNNAME":"永康區","LI":"復國里","LIN":"26鄰","STREET":"復華三街","SECT":" ","MAREA":" ","LANE":" ","ALLEY":" ","HOUSE_NO":"６２號十四樓之４","E_COORD97":172711.73999999999,"N_COORD97":2545562.9700000002,"ADDRESS":"復華三街６２號十四樓之４","OBJECTID":635365},"geometry":{"x":172711.74000000115,"y":2545562.9700000007}},{"attributes":{"ID":635393,"DIS_CODE":0,"TOWNNAME":"東區","LI":"大福里","LIN":"24鄰","STREET":"中華東路","SECT":"三段","MAREA":" ","LANE":" ","ALLEY":" ","HOUSE_NO":"５２４號四樓之２","E_COORD97":169690.23000000001,"N_COORD97":2541533.2999999998,"ADDRESS":"中華東路三段５２４號四樓之２","OBJECTID":635366},"geometry":{"x":169690.23000000045,"y":2541533.3000000007}},{"attributes":{"ID":635394,"DIS_CODE":0,"TOWNNAME":"東區","LI":"崇成里","LIN":"12鄰","STREET":"崇明十五街","SECT":" ","MAREA":" ","LANE":" ","ALLEY":" ","HOUSE_NO":"２號七樓","E_COORD97":170637.54999999999,"N_COORD97":2541339.6699999999,"ADDRESS":"崇明十五街２號七樓","OBJECTID":635367},"geometry":{"x":170637.55000000075,"y":2541339.6699999999}},{"attributes":{"ID":635395,"DIS_CODE":0,"TOWNNAME":"東區","LI":"崇成里","LIN":"12鄰","STREET":"崇明十五街","SECT":" ","MAREA":" ","LANE":" ","ALLEY":" ","HOUSE_NO":"２號三樓","E_COORD97":170637.54999999999,"N_COORD97":2541339.6699999999,"ADDRESS":"崇明十五街２號三樓","OBJECTID":635368},"geometry":{"x":170637.55000000075,"y":2541339.6699999999}},{"attributes":{"ID":635396,"DIS_CODE":0,"TOWNNAME":"東區","LI":"崇成里","LIN":"12鄰","STREET":"崇明十五街","SECT":" ","MAREA":" ","LANE":" ","ALLEY":" ","HOUSE_NO":"２號五樓","E_COORD97":170637.54999999999,"N_COORD97":2541339.6699999999,"ADDRESS":"崇明十五街２號五樓","OBJECTID":635369},"geometry":{"x":170637.55000000075,"y":2541339.6699999999}},{"attributes":{"ID":635397,"DIS_CODE":0,"TOWNNAME":"東區","LI":"崇成里","LIN":"12鄰","STREET":"崇明十五街","SECT":" ","MAREA":" ","LANE":" ","ALLEY":" ","HOUSE_NO":"２號六樓","E_COORD97":170637.54999999999,"N_COORD97":2541339.6699999999,"ADDRESS":"崇明十五街２號六樓","OBJECTID":635370},"geometry":{"x":170637.55000000075,"y":2541339.6699999999}},{"attributes":{"ID":635398,"DIS_CODE":0,"TOWNNAME":"東區","LI":"崇成里","LIN":"12鄰","STREET":"崇明十五街","SECT":" ","MAREA":" ","LANE":" ","ALLEY":" ","HOUSE_NO":"２號四樓","E_COORD97":170637.54999999999,"N_COORD97":2541339.6699999999,"ADDRESS":"崇明十五街２號四樓","OBJECTID":635371},"geometry":{"x":170637.55000000075,"y":2541339.6699999999}},{"attributes":{"ID":635399,"DIS_CODE":0,"TOWNNAME":"東區","LI":"崇成里","LIN":"12鄰","STREET":"崇明十五街","SECT":" ","MAREA":" ","LANE":" ","ALLEY":" ","HOUSE_NO":"４０號七樓","E_COORD97":170725.70999999999,"N_COORD97":2541334.8500000001,"ADDRESS":"崇明十五街４０號七樓","OBJECTID":635372},"geometry":{"x":170725.70999999903,"y":2541334.8499999996}},{"attributes":{"ID":635400,"DIS_CODE":0,"TOWNNAME":"東區","LI":"崇成里","LIN":"12鄰","STREET":"崇明十五街","SECT":" ","MAREA":" ","LANE":" ","ALLEY":" ","HOUSE_NO":"４０號七樓之１","E_COORD97":170725.70999999999,"N_COORD97":2541334.8500000001,"ADDRESS":"崇明十五街４０號七樓之１","OBJECTID":635373},"geometry":{"x":170725.70999999903,"y":2541334.8499999996}},{"attributes":{"ID":635401,"DIS_CODE":0,"TOWNNAME":"東區","LI":"崇成里","LIN":"12鄰","STREET":"崇明十五街","SECT":" ","MAREA":" ","LANE":" ","ALLEY":" ","HOUSE_NO":"４０號七樓之２","E_COORD97":170725.70999999999,"N_COORD97":2541334.8500000001,"ADDRESS":"崇明十五街４０號七樓之２","OBJECTID":635374},"geometry":{"x":170725.70999999903,"y":2541334.8499999996}},{"attributes":{"ID":635402,"DIS_CODE":0,"TOWNNAME":"東區","LI":"崇成里","LIN":"12鄰","STREET":"崇明十五街","SECT":" ","MAREA":" ","LANE":" ","ALLEY":" ","HOUSE_NO":"４０號七樓之３","E_COORD97":170725.70999999999,"N_COORD97":2541334.8500000001,"ADDRESS":"崇明十五街４０號七樓之３","OBJECTID":635375},"geometry":{"x":170725.70999999903,"y":2541334.8499999996}},{"attributes":{"ID":635403,"DIS_CODE":0,"TOWNNAME":"東區","LI":"崇成里","LIN":"12鄰","STREET":"崇明十五街","SECT":" ","MAREA":" ","LANE":" ","ALLEY":" ","HOUSE_NO":"４０號七樓之４","E_COORD97":170725.70999999999,"N_COORD97":2541334.8500000001,"ADDRESS":"崇明十五街４０號七樓之４","OBJECTID":635376},"geometry":{"x":170725.70999999903,"y":2541334.8499999996}},{"attributes":{"ID":635404,"DIS_CODE":0,"TOWNNAME":"東區","LI":"崇成里","LIN":"12鄰","STREET":"崇明十五街","SECT":" ","MAREA":" ","LANE":" ","ALLEY":" ","HOUSE_NO":"４０號二樓","E_COORD97":170725.70999999999,"N_COORD97":2541334.8500000001,"ADDRESS":"崇明十五街４０號二樓","OBJECTID":635377},"geometry":{"x":170725.70999999903,"y":2541334.8499999996}},{"attributes":{"ID":635405,"DIS_CODE":0,"TOWNNAME":"東區","LI":"崇成里","LIN":"12鄰","STREET":"崇明十五街","SECT":" ","MAREA":" ","LANE":" ","ALLEY":" ","HOUSE_NO":"４０號二樓之１","E_COORD97":170725.70999999999,"N_COORD97":2541334.8500000001,"ADDRESS":"崇明十五街４０號二樓之１","OBJECTID":635378},"geometry":{"x":170725.70999999903,"y":2541334.8499999996}},{"attributes":{"ID":635406,"DIS_CODE":0,"TOWNNAME":"東區","LI":"崇成里","LIN":"12鄰","STREET":"崇明十五街","SECT":" ","MAREA":" ","LANE":" ","ALLEY":" ","HOUSE_NO":"４０號三樓","E_COORD97":170725.70999999999,"N_COORD97":2541334.8500000001,"ADDRESS":"崇明十五街４０號三樓","OBJECTID":635379},"geometry":{"x":170725.70999999903,"y":2541334.8499999996}},{"attributes":{"ID":635407,"DIS_CODE":0,"TOWNNAME":"東區","LI":"崇成里","LIN":"12鄰","STREET":"崇明十五街","SECT":" ","MAREA":" ","LANE":" ","ALLEY":" ","HOUSE_NO":"４０號三樓之１","E_COORD97":170725.70999999999,"N_COORD97":2541334.8500000001,"ADDRESS":"崇明十五街４０號三樓之１","OBJECTID":635380},"geometry":{"x":170725.70999999903,"y":2541334.8499999996}},{"attributes":{"ID":635408,"DIS_CODE":0,"TOWNNAME":"東區","LI":"崇成里","LIN":"12鄰","STREET":"崇明十五街","SECT":" ","MAREA":" ","LANE":" ","ALLEY":" ","HOUSE_NO":"４０號三樓之２","E_COORD97":170725.70999999999,"N_COORD97":2541334.8500000001,"ADDRESS":"崇明十五街４０號三樓之２","OBJECTID":635381},"geometry":{"x":170725.70999999903,"y":2541334.8499999996}},{"attributes":{"ID":635409,"DIS_CODE":0,"TOWNNAME":"東區","LI":"崇成里","LIN":"24鄰","STREET":"崇明路","SECT":" ","MAREA":" ","LANE":" ","ALLEY":" ","HOUSE_NO":"６０１號七樓","E_COORD97":170623.94,"N_COORD97":2540878,"ADDRESS":"崇明路６０１號七樓","OBJECTID":635382},"geometry":{"x":170623.94000000041,"y":2540878.0000000037}},{"attributes":{"ID":635410,"DIS_CODE":0,"TOWNNAME":"東區","LI":"崇成里","LIN":"24鄰","STREET":"崇明二十三街","SECT":" ","MAREA":" ","LANE":" ","ALLEY":" ","HOUSE_NO":"７號七樓","E_COORD97":170655,"N_COORD97":2540884,"ADDRESS":"崇明二十三街７號七樓","OBJECTID":635383},"geometry":{"x":170655.00000000093,"y":2540884}},{"attributes":{"ID":635411,"DIS_CODE":0,"TOWNNAME":"佳里區","LI":"安西里","LIN":"55鄰","STREET":"佳安東路","SECT":" ","MAREA":" ","LANE":" ","ALLEY":" ","HOUSE_NO":"１０號三樓之２","E_COORD97":163826.04000000001,"N_COORD97":2562358.8599999999,"ADDRESS":"佳安東路１０號三樓之２","OBJECTID":635384},"geometry":{"x":163826.0400000019,"y":2562358.8599999994}},{"attributes":{"ID":635412,"DIS_CODE":0,"TOWNNAME":"佳里區","LI":"安西里","LIN":"55鄰","STREET":"佳安東路","SECT":" ","MAREA":" ","LANE":" ","ALLEY":" ","HOUSE_NO":"１６號五樓之２","E_COORD97":163843.73999999999,"N_COORD97":2562340.04,"ADDRESS":"佳安東路１６號五樓之２","OBJECTID":635385},"geometry":{"x":163843.74000000115,"y":2562340.0399999991}},{"attributes":{"ID":635413,"DIS_CODE":0,"TOWNNAME":"佳里區","LI":"安西里","LIN":"55鄰","STREET":"佳安東路","SECT":" ","MAREA":" ","LANE":" ","ALLEY":" ","HOUSE_NO":"２２號七樓之２","E_COORD97":163808.92000000001,"N_COORD97":2562317.3700000001,"ADDRESS":"佳安東路２２號七樓之２","OBJECTID":635386},"geometry":{"x":163808.91999999993,"y":2562317.3700000048}},{"attributes":{"ID":635414,"DIS_CODE":0,"TOWNNAME":"中西區","LI":"安海里","LIN":"19鄰","STREET":"民生路","SECT":"二段","MAREA":" ","LANE":" ","ALLEY":" ","HOUSE_NO":"３８９號十五樓之５","E_COORD97":166854.20999999999,"N_COORD97":2544212.2999999998,"ADDRESS":"民生路二段３８９號十五樓之５","OBJECTID":635387},"geometry":{"x":166854.21000000089,"y":2544212.3000000007}},{"attributes":{"ID":635415,"DIS_CODE":0,"TOWNNAME":"中西區","LI":"安海里","LIN":"19鄰","STREET":"民生路","SECT":"二段","MAREA":" ","LANE":" ","ALLEY":" ","HOUSE_NO":"３８９號十六樓之１","E_COORD97":166864.26999999999,"N_COORD97":2544218.8599999999,"ADDRESS":"民生路二段３８９號十六樓之１","OBJECTID":635388},"geometry":{"x":166864.26999999955,"y":2544218.8600000013}},{"attributes":{"ID":635416,"DIS_CODE":0,"TOWNNAME":"中西區","LI":"安海里","LIN":"19鄰","STREET":"民生路","SECT":"二段","MAREA":" ","LANE":" ","ALLEY":" ","HOUSE_NO":"３８９號十六樓之３","E_COORD97":166862.95999999999,"N_COORD97":2544211.4300000002,"ADDRESS":"民生路二段３８９號十六樓之３","OBJECTID":635389},"geometry":{"x":166862.96000000089,"y":2544211.4300000016}},{"attributes":{"ID":635417,"DIS_CODE":0,"TOWNNAME":"中西區","LI":"水仙里","LIN":"2鄰","STREET":"民生路","SECT":"二段","MAREA":" ","LANE":" ","ALLEY":" ","HOUSE_NO":"５６號七樓之１","E_COORD97":167753.41,"N_COORD97":2543965.6299999999,"ADDRESS":"民生路二段５６號七樓之１","OBJECTID":635390},"geometry":{"x":167753.41000000108,"y":2543965.6300000008}},{"attributes":{"ID":635418,"DIS_CODE":0,"TOWNNAME":"中西區","LI":"水仙里","LIN":"2鄰","STREET":"民生路","SECT":"二段","MAREA":" ","LANE":" ","ALLEY":" ","HOUSE_NO":"５６號七樓之２","E_COORD97":167753.41,"N_COORD97":2543965.6299999999,"ADDRESS":"民生路二段５６號七樓之２","OBJECTID":635391},"geometry":{"x":167753.41000000108,"y":2543965.6300000008}},{"attributes":{"ID":635419,"DIS_CODE":0,"TOWNNAME":"中西區","LI":"水仙里","LIN":"2鄰","STREET":"民生路","SECT":"二段","MAREA":" ","LANE":" ","ALLEY":" ","HOUSE_NO":"５６號七樓之３","E_COORD97":167753.41,"N_COORD97":2543965.6299999999,"ADDRESS":"民生路二段５６號七樓之３","OBJECTID":635392},"geometry":{"x":167753.41000000108,"y":2543965.6300000008}},{"attributes":{"ID":635420,"DIS_CODE":0,"TOWNNAME":"中西區","LI":"水仙里","LIN":"2鄰","STREET":"民生路","SECT":"二段","MAREA":" ","LANE":" ","ALLEY":" ","HOUSE_NO":"５６號七樓之５","E_COORD97":167753.41,"N_COORD97":2543965.6299999999,"ADDRESS":"民生路二段５６號七樓之５","OBJECTID":635393},"geometry":{"x":167753.41000000108,"y":2543965.6300000008}},{"attributes":{"ID":635421,"DIS_CODE":0,"TOWNNAME":"中西區","LI":"水仙里","LIN":"2鄰","STREET":"民生路","SECT":"二段","MAREA":" ","LANE":" ","ALLEY":" ","HOUSE_NO":"５６號九樓之１","E_COORD97":167753.41,"N_COORD97":2543965.6299999999,"ADDRESS":"民生路二段５６號九樓之１","OBJECTID":635394},"geometry":{"x":167753.41000000108,"y":2543965.6300000008}},{"attributes":{"ID":635422,"DIS_CODE":0,"TOWNNAME":"中西區","LI":"水仙里","LIN":"2鄰","STREET":"民生路","SECT":"二段","MAREA":" ","LANE":" ","ALLEY":" ","HOUSE_NO":"５６號九樓之２","E_COORD97":167753.41,"N_COORD97":2543965.6299999999,"ADDRESS":"民生路二段５６號九樓之２","OBJECTID":635395},"geometry":{"x":167753.41000000108,"y":2543965.6300000008}},{"attributes":{"ID":635423,"DIS_CODE":0,"TOWNNAME":"中西區","LI":"大涼里","LIN":"18鄰","STREET":"府前二街","SECT":" ","MAREA":" ","LANE":" ","ALLEY":" ","HOUSE_NO":"９２號四樓","E_COORD97":166661.23000000001,"N_COORD97":2544033.4700000002,"ADDRESS":"府前二街９２號四樓","OBJECTID":635396},"geometry":{"x":166661.23000000231,"y":2544033.4700000025}},{"attributes":{"ID":635424,"DIS_CODE":0,"TOWNNAME":"南區","LI":"新生里","LIN":"1鄰","STREET":"大林路","SECT":" ","MAREA":" ","LANE":" ","ALLEY":" ","HOUSE_NO":"２號九樓之３","E_COORD97":169367.64999999999,"N_COORD97":2541886.5499999998,"ADDRESS":"大林路２號九樓之３","OBJECTID":635397},"geometry":{"x":169367.6500000013,"y":2541886.5500000026}},{"attributes":{"ID":635425,"DIS_CODE":0,"TOWNNAME":"永康區","LI":"永康里","LIN":"26鄰","STREET":"永大路","SECT":"二段","MAREA":" ","LANE":" ","ALLEY":" ","HOUSE_NO":"１１２９號九樓之６","E_COORD97":174198.54000000001,"N_COORD97":2547482.3599999999,"ADDRESS":"永大路二段１１２９號九樓之６","OBJECTID":635398},"geometry":{"x":174198.54000000004,"y":2547482.3599999994}},{"attributes":{"ID":635426,"DIS_CODE":0,"TOWNNAME":"永康區","LI":"永康里","LIN":"26鄰","STREET":"永大路","SECT":"二段","MAREA":" ","LANE":" ","ALLEY":" ","HOUSE_NO":"１１２９號七樓之７","E_COORD97":174198.51999999999,"N_COORD97":2547482.3599999999,"ADDRESS":"永大路二段１１２９號七樓之７","OBJECTID":635399},"geometry":{"x":174198.52000000142,"y":2547482.3599999994}},{"attributes":{"ID":635427,"DIS_CODE":0,"TOWNNAME":"永康區","LI":"永康里","LIN":"26鄰","STREET":"永大路","SECT":"二段","MAREA":" ","LANE":" ","ALLEY":" ","HOUSE_NO":"１１２９號六樓之３","E_COORD97":174198.54000000001,"N_COORD97":2547482.3599999999,"ADDRESS":"永大路二段１１２９號六樓之３","OBJECTID":635400},"geometry":{"x":174198.54000000004,"y":2547482.3599999994}}]}