{"displayFieldName":"TOWNNAME","fieldAliases":{"ID":"ID","DIS_CODE":"DIS_CODE","TOWNNAME":"TOWNNAME","LI":"LI","LIN":"LIN","STREET":"STREET","SECT":"SECT","MAREA":"MAREA","LANE":"LANE","ALLEY":"ALLEY","HOUSE_NO":"HOUSE_NO","E_COORD97":"E_COORD97","N_COORD97":"N_COORD97","ADDRESS":"ADDRESS","OBJECTID":"OBJECTID"},"geometryType":"esriGeometryPoint","spatialReference":{"wkid":102443,"latestWkid":3826},"fields":[{"name":"ID","type":"esriFieldTypeDouble","alias":"ID"},{"name":"DIS_CODE","type":"esriFieldTypeInteger","alias":"DIS_CODE"},{"name":"TOWNNAME","type":"esriFieldTypeString","alias":"TOWNNAME","length":8},{"name":"LI","type":"esriFieldTypeString","alias":"LI","length":8},{"name":"LIN","type":"esriFieldTypeString","alias":"LIN","length":12},{"name":"STREET","type":"esriFieldTypeString","alias":"STREET","length":20},{"name":"SECT","type":"esriFieldTypeString","alias":"SECT","length":8},{"name":"MAREA","type":"esriFieldTypeString","alias":"MAREA","length":12},{"name":"LANE","type":"esriFieldTypeString","alias":"LANE","length":10},{"name":"ALLEY","type":"esriFieldTypeString","alias":"ALLEY","length":10},{"name":"HOUSE_NO","type":"esriFieldTypeString","alias":"HOUSE_NO","length":20},{"name":"E_COORD97","type":"esriFieldTypeDouble","alias":"E_COORD97"},{"name":"N_COORD97","type":"esriFieldTypeDouble","alias":"N_COORD97"},{"name":"ADDRESS","type":"esriFieldTypeString","alias":"ADDRESS","length":50},{"name":"OBJECTID","type":"esriFieldTypeOID","alias":"OBJECTID"}],"features":[{"attributes":{"ID":226605,"DIS_CODE":0,"TOWNNAME":"永康區","LI":"勝利里","LIN":"22鄰","STREET":"中華路","SECT":" ","MAREA":" ","LANE":"２３１巷","ALLEY":" ","HOUSE_NO":"４號","E_COORD97":171576.89999999999,"N_COORD97":2545094.25,"ADDRESS":"中華路２３１巷４號","OBJECTID":226601},"geometry":{"x":171576.90000000037,"y":2545094.2500000019}},{"attributes":{"ID":226606,"DIS_CODE":0,"TOWNNAME":"永康區","LI":"勝利里","LIN":"22鄰","STREET":"中華一路","SECT":" ","MAREA":" ","LANE":"１８２巷","ALLEY":" ","HOUSE_NO":"２６號","E_COORD97":171523.34,"N_COORD97":2545108.5,"ADDRESS":"中華一路１８２巷２６號","OBJECTID":226602},"geometry":{"x":171523.34000000171,"y":2545108.5}},{"attributes":{"ID":226607,"DIS_CODE":0,"TOWNNAME":"官田區","LI":"隆本里","LIN":"22鄰","STREET":"勝利路","SECT":" ","MAREA":" ","LANE":"１２６巷","ALLEY":" ","HOUSE_NO":"１０號","E_COORD97":180035.48999999999,"N_COORD97":2566071.9399999999,"ADDRESS":"勝利路１２６巷１０號","OBJECTID":226603},"geometry":{"x":180035.49000000022,"y":2566071.9400000032}},{"attributes":{"ID":226608,"DIS_CODE":0,"TOWNNAME":"官田區","LI":"隆本里","LIN":"22鄰","STREET":"勝利路","SECT":" ","MAREA":" ","LANE":"１２６巷","ALLEY":" ","HOUSE_NO":"１２號","E_COORD97":180032.70999999999,"N_COORD97":2566075.1400000001,"ADDRESS":"勝利路１２６巷１２號","OBJECTID":226604},"geometry":{"x":180032.71000000089,"y":2566075.1400000043}},{"attributes":{"ID":226609,"DIS_CODE":0,"TOWNNAME":"安南區","LI":"州北里","LIN":"22鄰","STREET":"安和路","SECT":"五段","MAREA":" ","LANE":"３２５巷","ALLEY":" ","HOUSE_NO":"２１號","E_COORD97":169652.41,"N_COORD97":2552101.2200000002,"ADDRESS":"安和路五段３２５巷２１號","OBJECTID":226605},"geometry":{"x":169652.41000000108,"y":2552101.2200000007}},{"attributes":{"ID":226610,"DIS_CODE":0,"TOWNNAME":"安南區","LI":"州北里","LIN":"22鄰","STREET":"安和路","SECT":"五段","MAREA":" ","LANE":"３２５巷","ALLEY":" ","HOUSE_NO":"２３號","E_COORD97":169655.53,"N_COORD97":2552095.46,"ADDRESS":"安和路五段３２５巷２３號","OBJECTID":226606},"geometry":{"x":169655.53000000026,"y":2552095.4600000028}},{"attributes":{"ID":226611,"DIS_CODE":0,"TOWNNAME":"安南區","LI":"州北里","LIN":"22鄰","STREET":"安和路","SECT":"五段","MAREA":" ","LANE":"３２５巷","ALLEY":" ","HOUSE_NO":"２５號","E_COORD97":169657.39999999999,"N_COORD97":2552090.48,"ADDRESS":"安和路五段３２５巷２５號","OBJECTID":226607},"geometry":{"x":169657.4000000013,"y":2552090.4800000042}},{"attributes":{"ID":226612,"DIS_CODE":0,"TOWNNAME":"安南區","LI":"州北里","LIN":"22鄰","STREET":"安和路","SECT":"五段","MAREA":" ","LANE":"３２５巷","ALLEY":" ","HOUSE_NO":"２７號","E_COORD97":169660.37,"N_COORD97":2552085.0499999998,"ADDRESS":"安和路五段３２５巷２７號","OBJECTID":226608},"geometry":{"x":169660.37000000197,"y":2552085.0500000026}},{"attributes":{"ID":226613,"DIS_CODE":0,"TOWNNAME":"安南區","LI":"州北里","LIN":"22鄰","STREET":"安和路","SECT":"五段","MAREA":" ","LANE":"３２５巷","ALLEY":" ","HOUSE_NO":"２９號","E_COORD97":169662.39999999999,"N_COORD97":2552079.9100000001,"ADDRESS":"安和路五段３２５巷２９號","OBJECTID":226609},"geometry":{"x":169662.4000000013,"y":2552079.9100000001}},{"attributes":{"ID":226614,"DIS_CODE":0,"TOWNNAME":"安南區","LI":"州北里","LIN":"22鄰","STREET":"安和路","SECT":"五段","MAREA":" ","LANE":"３２５巷","ALLEY":" ","HOUSE_NO":"３１號","E_COORD97":169664.26999999999,"N_COORD97":2552074.3100000001,"ADDRESS":"安和路五段３２５巷３１號","OBJECTID":226610},"geometry":{"x":169664.27000000048,"y":2552074.3100000005}},{"attributes":{"ID":226615,"DIS_CODE":0,"TOWNNAME":"仁德區","LI":"太子里","LIN":"22鄰","STREET":"長興四街","SECT":" ","MAREA":" ","LANE":"９０巷","ALLEY":" ","HOUSE_NO":"１４號","E_COORD97":173848.73000000001,"N_COORD97":2543636.5099999998,"ADDRESS":"長興四街９０巷１４號","OBJECTID":226611},"geometry":{"x":173848.73000000231,"y":2543636.5099999998}},{"attributes":{"ID":226616,"DIS_CODE":0,"TOWNNAME":"仁德區","LI":"太子里","LIN":"22鄰","STREET":"長興四街","SECT":" ","MAREA":" ","LANE":"９０巷","ALLEY":" ","HOUSE_NO":"２號","E_COORD97":173836.48999999999,"N_COORD97":2543573.5,"ADDRESS":"長興四街９０巷２號","OBJECTID":226612},"geometry":{"x":173836.49000000209,"y":2543573.5000000037}},{"attributes":{"ID":226617,"DIS_CODE":0,"TOWNNAME":"仁德區","LI":"仁義里","LIN":"22鄰","STREET":"正義路","SECT":" ","MAREA":" ","LANE":"１１４巷","ALLEY":" ","HOUSE_NO":"７號","E_COORD97":173686.09,"N_COORD97":2541381.0099999998,"ADDRESS":"正義路１１４巷７號","OBJECTID":226613},"geometry":{"x":173686.08999999985,"y":2541381.0100000016}},{"attributes":{"ID":226618,"DIS_CODE":0,"TOWNNAME":"永康區","LI":"三合里","LIN":"22鄰","STREET":"南工街","SECT":" ","MAREA":" ","LANE":"３１１巷","ALLEY":" ","HOUSE_NO":"５號","E_COORD97":171834.81,"N_COORD97":2546030.5,"ADDRESS":"南工街３１１巷５號","OBJECTID":226614},"geometry":{"x":171834.80999999959,"y":2546030.5}},{"attributes":{"ID":226619,"DIS_CODE":0,"TOWNNAME":"永康區","LI":"三合里","LIN":"22鄰","STREET":"南工街","SECT":" ","MAREA":" ","LANE":"３１１巷","ALLEY":" ","HOUSE_NO":"３９號","E_COORD97":171822.78,"N_COORD97":2545941.7400000002,"ADDRESS":"南工街３１１巷３９號","OBJECTID":226615},"geometry":{"x":171822.78000000119,"y":2545941.7400000039}},{"attributes":{"ID":226620,"DIS_CODE":0,"TOWNNAME":"永康區","LI":"三合里","LIN":"22鄰","STREET":"南工街","SECT":" ","MAREA":" ","LANE":"３１１巷","ALLEY":" ","HOUSE_NO":"１３號","E_COORD97":171832.82000000001,"N_COORD97":2546011.25,"ADDRESS":"南工街３１１巷１３號","OBJECTID":226616},"geometry":{"x":171832.82000000123,"y":2546011.25}},{"attributes":{"ID":226621,"DIS_CODE":0,"TOWNNAME":"新市區","LI":"大社里","LIN":"29鄰","STREET":" ","SECT":" ","MAREA":"大社","LANE":" ","ALLEY":" ","HOUSE_NO":"９４３號","E_COORD97":180066.82000000001,"N_COORD97":2554137.5,"ADDRESS":"大社９４３號","OBJECTID":226617},"geometry":{"x":180066.8200000003,"y":2554137.4999999981}},{"attributes":{"ID":226622,"DIS_CODE":0,"TOWNNAME":"東區","LI":"泉南里","LIN":"34鄰","STREET":"林森路","SECT":"一段","MAREA":" ","LANE":" ","ALLEY":" ","HOUSE_NO":"１５１號十二樓","E_COORD97":169521.72,"N_COORD97":2542559.71,"ADDRESS":"林森路一段１５１號十二樓","OBJECTID":226618},"geometry":{"x":169521.71999999974,"y":2542559.7100000028}},{"attributes":{"ID":226623,"DIS_CODE":0,"TOWNNAME":"東區","LI":"泉南里","LIN":"34鄰","STREET":"林森路","SECT":"一段","MAREA":" ","LANE":" ","ALLEY":" ","HOUSE_NO":"１５１號十二樓之１","E_COORD97":169521.72,"N_COORD97":2542559.71,"ADDRESS":"林森路一段１５１號十二樓之１","OBJECTID":226619},"geometry":{"x":169521.71999999974,"y":2542559.7100000028}},{"attributes":{"ID":226624,"DIS_CODE":0,"TOWNNAME":"東區","LI":"泉南里","LIN":"29鄰","STREET":"府連路","SECT":" ","MAREA":" ","LANE":"３４４巷","ALLEY":" ","HOUSE_NO":"２９號","E_COORD97":169620.51999999999,"N_COORD97":2542658.8900000001,"ADDRESS":"府連路３４４巷２９號","OBJECTID":226620},"geometry":{"x":169620.52000000048,"y":2542658.8900000006}},{"attributes":{"ID":226625,"DIS_CODE":0,"TOWNNAME":"永康區","LI":"大灣里","LIN":"29鄰","STREET":"民族路","SECT":" ","MAREA":" ","LANE":"１２６巷","ALLEY":" ","HOUSE_NO":"７號","E_COORD97":175312.70000000001,"N_COORD97":2544914.48,"ADDRESS":"民族路１２６巷７號","OBJECTID":226621},"geometry":{"x":175312.70000000019,"y":2544914.4800000023}},{"attributes":{"ID":226626,"DIS_CODE":0,"TOWNNAME":"永康區","LI":"大灣里","LIN":"29鄰","STREET":"民族路","SECT":" ","MAREA":" ","LANE":"１２６巷","ALLEY":" ","HOUSE_NO":"１號","E_COORD97":175296.70999999999,"N_COORD97":2544904.7400000002,"ADDRESS":"民族路１２６巷１號","OBJECTID":226622},"geometry":{"x":175296.71000000089,"y":2544904.7400000021}},{"attributes":{"ID":226627,"DIS_CODE":0,"TOWNNAME":"永康區","LI":"勝利里","LIN":"29鄰","STREET":"勝利街","SECT":" ","MAREA":" ","LANE":"４２巷","ALLEY":" ","HOUSE_NO":"６號","E_COORD97":171361.57999999999,"N_COORD97":2544621.25,"ADDRESS":"勝利街４２巷６號","OBJECTID":226623},"geometry":{"x":171361.58000000101,"y":2544621.25}},{"attributes":{"ID":226628,"DIS_CODE":0,"TOWNNAME":"永康區","LI":"勝利里","LIN":"29鄰","STREET":"勝利街","SECT":" ","MAREA":" ","LANE":"３０巷","ALLEY":" ","HOUSE_NO":"３之１號","E_COORD97":171373.35999999999,"N_COORD97":2544566.6400000001,"ADDRESS":"勝利街３０巷３之１號","OBJECTID":226624},"geometry":{"x":171373.36000000127,"y":2544566.6400000043}},{"attributes":{"ID":226629,"DIS_CODE":0,"TOWNNAME":"永康區","LI":"復華里","LIN":"29鄰","STREET":"國華街","SECT":" ","MAREA":" ","LANE":"１３６巷","ALLEY":" ","HOUSE_NO":"１１號","E_COORD97":172661.92000000001,"N_COORD97":2546220.8300000001,"ADDRESS":"國華街１３６巷１１號","OBJECTID":226625},"geometry":{"x":172661.92000000179,"y":2546220.8300000001}},{"attributes":{"ID":226630,"DIS_CODE":0,"TOWNNAME":"永康區","LI":"復華里","LIN":"29鄰","STREET":"國華街","SECT":" ","MAREA":" ","LANE":"１３６巷","ALLEY":" ","HOUSE_NO":"５號","E_COORD97":172651.97,"N_COORD97":2546207.8300000001,"ADDRESS":"國華街１３６巷５號","OBJECTID":226626},"geometry":{"x":172651.97000000067,"y":2546207.8300000001}},{"attributes":{"ID":226631,"DIS_CODE":0,"TOWNNAME":"永康區","LI":"勝利里","LIN":"29鄰","STREET":"勝利街","SECT":" ","MAREA":" ","LANE":"４２巷","ALLEY":" ","HOUSE_NO":"１０號","E_COORD97":171373.64999999999,"N_COORD97":2544619.75,"ADDRESS":"勝利街４２巷１０號","OBJECTID":226627},"geometry":{"x":171373.65000000037,"y":2544619.7500000019}},{"attributes":{"ID":226632,"DIS_CODE":0,"TOWNNAME":"仁德區","LI":"太子里","LIN":"29鄰","STREET":"太子四街","SECT":" ","MAREA":" ","LANE":"３１巷","ALLEY":" ","HOUSE_NO":"１３號","E_COORD97":173150.07000000001,"N_COORD97":2543035.2599999998,"ADDRESS":"太子四街３１巷１３號","OBJECTID":226628},"geometry":{"x":173150.07000000123,"y":2543035.2599999998}},{"attributes":{"ID":226633,"DIS_CODE":0,"TOWNNAME":"仁德區","LI":"太子里","LIN":"29鄰","STREET":"太子四街","SECT":" ","MAREA":" ","LANE":"４１巷","ALLEY":" ","HOUSE_NO":"６號","E_COORD97":173061.40677500001,"N_COORD97":2542949.0790800001,"ADDRESS":"太子四街４１巷６號","OBJECTID":226629},"geometry":{"x":173061.40677500144,"y":2542949.0790810008}},{"attributes":{"ID":226634,"DIS_CODE":0,"TOWNNAME":"仁德區","LI":"太子里","LIN":"29鄰","STREET":"太子四街","SECT":" ","MAREA":" ","LANE":"３５巷","ALLEY":" ","HOUSE_NO":"３號","E_COORD97":173079.89000000001,"N_COORD97":2543004.0099999998,"ADDRESS":"太子四街３５巷３號","OBJECTID":226630},"geometry":{"x":173079.88999999966,"y":2543004.0100000016}},{"attributes":{"ID":226635,"DIS_CODE":0,"TOWNNAME":"仁德區","LI":"太子里","LIN":"29鄰","STREET":"太子四街","SECT":" ","MAREA":" ","LANE":"３１巷","ALLEY":" ","HOUSE_NO":"１５號","E_COORD97":173160.39000000001,"N_COORD97":2543029.7599999998,"ADDRESS":"太子四街３１巷１５號","OBJECTID":226631},"geometry":{"x":173160.39000000153,"y":2543029.7600000016}},{"attributes":{"ID":226636,"DIS_CODE":0,"TOWNNAME":"仁德區","LI":"太子里","LIN":"29鄰","STREET":"太子四街","SECT":" ","MAREA":" ","LANE":"３５巷","ALLEY":" ","HOUSE_NO":"１２號","E_COORD97":173118.12,"N_COORD97":2542970.5,"ADDRESS":"太子四街３５巷１２號","OBJECTID":226632},"geometry":{"x":173118.12000000011,"y":2542970.5000000019}},{"attributes":{"ID":226637,"DIS_CODE":0,"TOWNNAME":"東區","LI":"泉南里","LIN":"34鄰","STREET":"林森路","SECT":"一段","MAREA":" ","LANE":" ","ALLEY":" ","HOUSE_NO":"１５１號十三樓","E_COORD97":169521.72,"N_COORD97":2542559.71,"ADDRESS":"林森路一段１５１號十三樓","OBJECTID":226633},"geometry":{"x":169521.71999999974,"y":2542559.7100000028}},{"attributes":{"ID":226638,"DIS_CODE":0,"TOWNNAME":"善化區","LI":"溪美里","LIN":"21鄰","STREET":" ","SECT":" ","MAREA":"溪尾","LANE":" ","ALLEY":" ","HOUSE_NO":"１８０號","E_COORD97":176961.26999999999,"N_COORD97":2561252.27,"ADDRESS":"溪尾１８０號","OBJECTID":226634},"geometry":{"x":176961.26999999955,"y":2561252.2700000014}},{"attributes":{"ID":226639,"DIS_CODE":0,"TOWNNAME":"東區","LI":"泉南里","LIN":"34鄰","STREET":"林森路","SECT":"一段","MAREA":" ","LANE":" ","ALLEY":" ","HOUSE_NO":"１５１號十四樓","E_COORD97":169521.72,"N_COORD97":2542559.71,"ADDRESS":"林森路一段１５１號十四樓","OBJECTID":226635},"geometry":{"x":169521.71999999974,"y":2542559.7100000028}},{"attributes":{"ID":226640,"DIS_CODE":0,"TOWNNAME":"善化區","LI":"溪美里","LIN":"21鄰","STREET":" ","SECT":" ","MAREA":"溪尾","LANE":" ","ALLEY":" ","HOUSE_NO":"１８１號","E_COORD97":176977.82000000001,"N_COORD97":2561242.52,"ADDRESS":"溪尾１８１號","OBJECTID":226636},"geometry":{"x":176977.82000000123,"y":2561242.5199999996}},{"attributes":{"ID":226641,"DIS_CODE":0,"TOWNNAME":"東區","LI":"泉南里","LIN":"34鄰","STREET":"林森路","SECT":"一段","MAREA":" ","LANE":" ","ALLEY":" ","HOUSE_NO":"１５１號十四樓之１","E_COORD97":169521.72,"N_COORD97":2542559.71,"ADDRESS":"林森路一段１５１號十四樓之１","OBJECTID":226637},"geometry":{"x":169521.71999999974,"y":2542559.7100000028}},{"attributes":{"ID":226642,"DIS_CODE":0,"TOWNNAME":"東區","LI":"泉南里","LIN":"34鄰","STREET":"林森路","SECT":"一段","MAREA":" ","LANE":" ","ALLEY":" ","HOUSE_NO":"１５１號十五樓","E_COORD97":169521.72,"N_COORD97":2542559.71,"ADDRESS":"林森路一段１５１號十五樓","OBJECTID":226638},"geometry":{"x":169521.71999999974,"y":2542559.7100000028}},{"attributes":{"ID":226643,"DIS_CODE":0,"TOWNNAME":"東區","LI":"泉南里","LIN":"34鄰","STREET":"林森路","SECT":"一段","MAREA":" ","LANE":" ","ALLEY":" ","HOUSE_NO":"１５１號十五樓之１","E_COORD97":169521.72,"N_COORD97":2542559.71,"ADDRESS":"林森路一段１５１號十五樓之１","OBJECTID":226639},"geometry":{"x":169521.71999999974,"y":2542559.7100000028}},{"attributes":{"ID":226644,"DIS_CODE":0,"TOWNNAME":"東區","LI":"泉南里","LIN":"34鄰","STREET":"林森路","SECT":"一段","MAREA":" ","LANE":" ","ALLEY":" ","HOUSE_NO":"１５１號十六樓","E_COORD97":169521.72,"N_COORD97":2542559.71,"ADDRESS":"林森路一段１５１號十六樓","OBJECTID":226640},"geometry":{"x":169521.71999999974,"y":2542559.7100000028}},{"attributes":{"ID":226645,"DIS_CODE":0,"TOWNNAME":"東區","LI":"泉南里","LIN":"34鄰","STREET":"林森路","SECT":"一段","MAREA":" ","LANE":" ","ALLEY":" ","HOUSE_NO":"１５１號十六樓之１","E_COORD97":169521.72,"N_COORD97":2542559.71,"ADDRESS":"林森路一段１５１號十六樓之１","OBJECTID":226641},"geometry":{"x":169521.71999999974,"y":2542559.7100000028}},{"attributes":{"ID":226646,"DIS_CODE":0,"TOWNNAME":"東區","LI":"泉南里","LIN":"34鄰","STREET":"林森路","SECT":"一段","MAREA":" ","LANE":" ","ALLEY":" ","HOUSE_NO":"１５１號十七樓","E_COORD97":169521.72,"N_COORD97":2542559.71,"ADDRESS":"林森路一段１５１號十七樓","OBJECTID":226642},"geometry":{"x":169521.71999999974,"y":2542559.7100000028}},{"attributes":{"ID":226647,"DIS_CODE":0,"TOWNNAME":"東區","LI":"泉南里","LIN":"34鄰","STREET":"林森路","SECT":"一段","MAREA":" ","LANE":" ","ALLEY":" ","HOUSE_NO":"１５１號十七樓之１","E_COORD97":169521.72,"N_COORD97":2542559.71,"ADDRESS":"林森路一段１５１號十七樓之１","OBJECTID":226643},"geometry":{"x":169521.71999999974,"y":2542559.7100000028}},{"attributes":{"ID":226648,"DIS_CODE":0,"TOWNNAME":"東區","LI":"泉南里","LIN":"34鄰","STREET":"林森路","SECT":"一段","MAREA":" ","LANE":" ","ALLEY":" ","HOUSE_NO":"１５１號十八樓","E_COORD97":169521.72,"N_COORD97":2542559.71,"ADDRESS":"林森路一段１５１號十八樓","OBJECTID":226644},"geometry":{"x":169521.71999999974,"y":2542559.7100000028}},{"attributes":{"ID":226649,"DIS_CODE":0,"TOWNNAME":"東區","LI":"泉南里","LIN":"34鄰","STREET":"林森路","SECT":"一段","MAREA":" ","LANE":" ","ALLEY":" ","HOUSE_NO":"１５１號十八樓之１","E_COORD97":169521.72,"N_COORD97":2542559.71,"ADDRESS":"林森路一段１５１號十八樓之１","OBJECTID":226645},"geometry":{"x":169521.71999999974,"y":2542559.7100000028}},{"attributes":{"ID":226650,"DIS_CODE":0,"TOWNNAME":"善化區","LI":"光文里","LIN":"29鄰","STREET":"建國路","SECT":" ","MAREA":" ","LANE":"３１５巷","ALLEY":" ","HOUSE_NO":"１號","E_COORD97":177772.57999999999,"N_COORD97":2559288.9199999999,"ADDRESS":"建國路３１５巷１號","OBJECTID":226646},"geometry":{"x":177772.58000000101,"y":2559288.9200000018}},{"attributes":{"ID":226651,"DIS_CODE":0,"TOWNNAME":"永康區","LI":"三合里","LIN":"22鄰","STREET":"南工街","SECT":" ","MAREA":" ","LANE":"３１１巷","ALLEY":" ","HOUSE_NO":"１８號","E_COORD97":171818.35999999999,"N_COORD97":2546002.1400000001,"ADDRESS":"南工街３１１巷１８號","OBJECTID":226647},"geometry":{"x":171818.36000000034,"y":2546002.1400000025}},{"attributes":{"ID":226652,"DIS_CODE":0,"TOWNNAME":"永康區","LI":"二王里","LIN":"22鄰","STREET":"中山南路","SECT":" ","MAREA":" ","LANE":"５４４巷","ALLEY":" ","HOUSE_NO":"３７號","E_COORD97":172270.39000000001,"N_COORD97":2546537.02,"ADDRESS":"中山南路５４４巷３７號","OBJECTID":226648},"geometry":{"x":172270.39000000153,"y":2546537.0200000014}},{"attributes":{"ID":226653,"DIS_CODE":0,"TOWNNAME":"安南區","LI":"安富里","LIN":"22鄰","STREET":"郡安路","SECT":"五段","MAREA":" ","LANE":"１７８巷","ALLEY":" ","HOUSE_NO":"７７號","E_COORD97":167565.54999999999,"N_COORD97":2547549.1899999999,"ADDRESS":"郡安路五段１７８巷７７號","OBJECTID":226649},"geometry":{"x":167565.55000000075,"y":2547549.1900000013}},{"attributes":{"ID":226654,"DIS_CODE":0,"TOWNNAME":"永康區","LI":"崑山里","LIN":"22鄰","STREET":"大灣路","SECT":" ","MAREA":" ","LANE":"７９８巷","ALLEY":" ","HOUSE_NO":"３７號","E_COORD97":174032.94,"N_COORD97":2544642.1899999999,"ADDRESS":"大灣路７９８巷３７號","OBJECTID":226650},"geometry":{"x":174032.94000000041,"y":2544642.1899999995}},{"attributes":{"ID":226655,"DIS_CODE":0,"TOWNNAME":"永康區","LI":"崑山里","LIN":"22鄰","STREET":"大灣路","SECT":" ","MAREA":" ","LANE":"７９８巷","ALLEY":" ","HOUSE_NO":"５２號","E_COORD97":174055.95999999999,"N_COORD97":2544658.3500000001,"ADDRESS":"大灣路７９８巷５２號","OBJECTID":226651},"geometry":{"x":174055.96000000089,"y":2544658.3499999996}},{"attributes":{"ID":226656,"DIS_CODE":0,"TOWNNAME":"永康區","LI":"崑山里","LIN":"22鄰","STREET":"大灣路","SECT":" ","MAREA":" ","LANE":"７９８巷","ALLEY":" ","HOUSE_NO":"３５號","E_COORD97":174031.59,"N_COORD97":2544637.9399999999,"ADDRESS":"大灣路７９８巷３５號","OBJECTID":226652},"geometry":{"x":174031.58999999985,"y":2544637.9400000032}},{"attributes":{"ID":226657,"DIS_CODE":0,"TOWNNAME":"永康區","LI":"崑山里","LIN":"22鄰","STREET":"大灣路","SECT":" ","MAREA":" ","LANE":"７９８巷","ALLEY":" ","HOUSE_NO":"３０號","E_COORD97":174033.20000000001,"N_COORD97":2544603.7599999998,"ADDRESS":"大灣路７９８巷３０號","OBJECTID":226653},"geometry":{"x":174033.20000000019,"y":2544603.7599999998}},{"attributes":{"ID":226658,"DIS_CODE":0,"TOWNNAME":"永康區","LI":"勝利里","LIN":"22鄰","STREET":"中華一路","SECT":" ","MAREA":" ","LANE":"１８２巷","ALLEY":" ","HOUSE_NO":"９號","E_COORD97":171499.06,"N_COORD97":2545078,"ADDRESS":"中華一路１８２巷９號","OBJECTID":226654},"geometry":{"x":171499.05999999959,"y":2545078}},{"attributes":{"ID":226659,"DIS_CODE":0,"TOWNNAME":"東區","LI":"泉南里","LIN":"15鄰","STREET":"府連東路","SECT":" ","MAREA":" ","LANE":"２２巷","ALLEY":" ","HOUSE_NO":"７號","E_COORD97":169731.92999999999,"N_COORD97":2542762.2799999998,"ADDRESS":"府連東路２２巷７號","OBJECTID":226655},"geometry":{"x":169731.9299999997,"y":2542762.2799999993}},{"attributes":{"ID":226660,"DIS_CODE":0,"TOWNNAME":"永康區","LI":"勝利里","LIN":"22鄰","STREET":"中華一路","SECT":" ","MAREA":" ","LANE":"１８２巷","ALLEY":" ","HOUSE_NO":"１４號","E_COORD97":171522.81,"N_COORD97":2545081.25,"ADDRESS":"中華一路１８２巷１４號","OBJECTID":226656},"geometry":{"x":171522.80999999959,"y":2545081.2500000019}},{"attributes":{"ID":226661,"DIS_CODE":0,"TOWNNAME":"永康區","LI":"勝利里","LIN":"22鄰","STREET":"中華路","SECT":" ","MAREA":" ","LANE":"２１７巷","ALLEY":" ","HOUSE_NO":"２３號","E_COORD97":171542.5,"N_COORD97":2545045.1200000001,"ADDRESS":"中華路２１７巷２３號","OBJECTID":226657},"geometry":{"x":171542.5,"y":2545045.1200000048}},{"attributes":{"ID":226662,"DIS_CODE":0,"TOWNNAME":"永康區","LI":"崑山里","LIN":"22鄰","STREET":"大灣路","SECT":" ","MAREA":" ","LANE":"７９８巷","ALLEY":" ","HOUSE_NO":"４６號","E_COORD97":174046.09,"N_COORD97":2544634.7599999998,"ADDRESS":"大灣路７９８巷４６號","OBJECTID":226658},"geometry":{"x":174046.09000000078,"y":2544634.7599999998}},{"attributes":{"ID":226663,"DIS_CODE":0,"TOWNNAME":"永康區","LI":"崑山里","LIN":"22鄰","STREET":"大灣路","SECT":" ","MAREA":" ","LANE":"７９８巷","ALLEY":" ","HOUSE_NO":"４０號","E_COORD97":174041.38,"N_COORD97":2544623.0099999998,"ADDRESS":"大灣路７９８巷４０號","OBJECTID":226659},"geometry":{"x":174041.37999999989,"y":2544623.0099999998}},{"attributes":{"ID":226664,"DIS_CODE":0,"TOWNNAME":"永康區","LI":"崑山里","LIN":"22鄰","STREET":"大灣路","SECT":" ","MAREA":" ","LANE":"７９８巷","ALLEY":" ","HOUSE_NO":"３２號","E_COORD97":174034.79000000001,"N_COORD97":2544607.7599999998,"ADDRESS":"大灣路７９８巷３２號","OBJECTID":226660},"geometry":{"x":174034.79000000097,"y":2544607.7599999998}},{"attributes":{"ID":226665,"DIS_CODE":0,"TOWNNAME":"永康區","LI":"崑山里","LIN":"22鄰","STREET":"大灣路","SECT":" ","MAREA":" ","LANE":"７９８巷","ALLEY":" ","HOUSE_NO":"３９號","E_COORD97":174034.54000000001,"N_COORD97":2544645.9500000002,"ADDRESS":"大灣路７９８巷３９號","OBJECTID":226661},"geometry":{"x":174034.54000000097,"y":2544645.9499999993}},{"attributes":{"ID":226666,"DIS_CODE":0,"TOWNNAME":"中西區","LI":"西賢里","LIN":"22鄰","STREET":"西賢一街","SECT":" ","MAREA":" ","LANE":"１８７巷","ALLEY":" ","HOUSE_NO":"１６０號","E_COORD97":165548.39999999999,"N_COORD97":2544964.04,"ADDRESS":"西賢一街１８７巷１６０號","OBJECTID":226662},"geometry":{"x":165548.4000000013,"y":2544964.0399999991}},{"attributes":{"ID":226667,"DIS_CODE":0,"TOWNNAME":"中西區","LI":"西賢里","LIN":"22鄰","STREET":"西賢一街","SECT":" ","MAREA":" ","LANE":"１８７巷","ALLEY":" ","HOUSE_NO":"１６２號","E_COORD97":165543.22,"N_COORD97":2544964.6000000001,"ADDRESS":"西賢一街１８７巷１６２號","OBJECTID":226663},"geometry":{"x":165543.21999999881,"y":2544964.5999999996}},{"attributes":{"ID":226668,"DIS_CODE":0,"TOWNNAME":"佳里區","LI":"忠仁里","LIN":"4鄰","STREET":"建中街","SECT":" ","MAREA":" ","LANE":"７２巷","ALLEY":" ","HOUSE_NO":"２２號","E_COORD97":165785.84239599999,"N_COORD97":2562125.3407100001,"ADDRESS":"建中街７２巷２２號","OBJECTID":226664},"geometry":{"x":165785.8423960004,"y":2562125.3407080006}},{"attributes":{"ID":226669,"DIS_CODE":0,"TOWNNAME":"中西區","LI":"西賢里","LIN":"22鄰","STREET":"西賢一街","SECT":" ","MAREA":" ","LANE":"１８７巷","ALLEY":" ","HOUSE_NO":"１６６號","E_COORD97":165539.14999999999,"N_COORD97":2544964.7799999998,"ADDRESS":"西賢一街１８７巷１６６號","OBJECTID":226665},"geometry":{"x":165539.15000000037,"y":2544964.7800000012}},{"attributes":{"ID":226670,"DIS_CODE":0,"TOWNNAME":"中西區","LI":"西賢里","LIN":"22鄰","STREET":"西賢一街","SECT":" ","MAREA":" ","LANE":"１８７巷","ALLEY":" ","HOUSE_NO":"１６８號","E_COORD97":165534.72,"N_COORD97":2544964.96,"ADDRESS":"西賢一街１８７巷１６８號","OBJECTID":226666},"geometry":{"x":165534.71999999881,"y":2544964.9600000028}},{"attributes":{"ID":226671,"DIS_CODE":0,"TOWNNAME":"中西區","LI":"西賢里","LIN":"22鄰","STREET":"西賢一街","SECT":" ","MAREA":" ","LANE":"１８７巷","ALLEY":" ","HOUSE_NO":"１７０號","E_COORD97":165529.91,"N_COORD97":2544965.3300000001,"ADDRESS":"西賢一街１８７巷１７０號","OBJECTID":226667},"geometry":{"x":165529.91000000015,"y":2544965.3300000019}},{"attributes":{"ID":226672,"DIS_CODE":0,"TOWNNAME":"中西區","LI":"西賢里","LIN":"22鄰","STREET":"西賢一街","SECT":" ","MAREA":" ","LANE":"１８７巷","ALLEY":" ","HOUSE_NO":"１７２號","E_COORD97":165524.54999999999,"N_COORD97":2544965.52,"ADDRESS":"西賢一街１８７巷１７２號","OBJECTID":226668},"geometry":{"x":165524.55000000075,"y":2544965.5199999996}},{"attributes":{"ID":226673,"DIS_CODE":0,"TOWNNAME":"東區","LI":"泉南里","LIN":"34鄰","STREET":"林森路","SECT":"一段","MAREA":" ","LANE":" ","ALLEY":" ","HOUSE_NO":"１５１號十九樓","E_COORD97":169521.72,"N_COORD97":2542559.71,"ADDRESS":"林森路一段１５１號十九樓","OBJECTID":226669},"geometry":{"x":169521.71999999974,"y":2542559.7100000028}},{"attributes":{"ID":226674,"DIS_CODE":0,"TOWNNAME":"中西區","LI":"西賢里","LIN":"22鄰","STREET":"西賢一街","SECT":" ","MAREA":" ","LANE":"１８７巷","ALLEY":" ","HOUSE_NO":"１７６號","E_COORD97":165519.56,"N_COORD97":2544966.2599999998,"ADDRESS":"西賢一街１８７巷１７６號","OBJECTID":226670},"geometry":{"x":165519.56000000052,"y":2544966.2600000016}},{"attributes":{"ID":226675,"DIS_CODE":0,"TOWNNAME":"中西區","LI":"西賢里","LIN":"22鄰","STREET":"西賢一街","SECT":" ","MAREA":" ","LANE":"２３５巷","ALLEY":" ","HOUSE_NO":"２２號","E_COORD97":165621.17000000001,"N_COORD97":2545028.8900000001,"ADDRESS":"西賢一街２３５巷２２號","OBJECTID":226671},"geometry":{"x":165621.16999999993,"y":2545028.8900000006}},{"attributes":{"ID":226676,"DIS_CODE":0,"TOWNNAME":"中西區","LI":"西賢里","LIN":"22鄰","STREET":"西賢一街","SECT":" ","MAREA":" ","LANE":"２３５巷","ALLEY":" ","HOUSE_NO":"２６號","E_COORD97":165616.92999999999,"N_COORD97":2545028.9900000002,"ADDRESS":"西賢一街２３５巷２６號","OBJECTID":226672},"geometry":{"x":165616.93000000063,"y":2545028.9900000021}},{"attributes":{"ID":226677,"DIS_CODE":0,"TOWNNAME":"中西區","LI":"西賢里","LIN":"22鄰","STREET":"西賢一街","SECT":" ","MAREA":" ","LANE":"２３５巷","ALLEY":" ","HOUSE_NO":"２８號","E_COORD97":165613.12,"N_COORD97":2545029.1000000001,"ADDRESS":"西賢一街２３５巷２８號","OBJECTID":226673},"geometry":{"x":165613.12000000011,"y":2545029.0999999996}},{"attributes":{"ID":226678,"DIS_CODE":0,"TOWNNAME":"中西區","LI":"西賢里","LIN":"22鄰","STREET":"西賢一街","SECT":" ","MAREA":" ","LANE":"２３５巷","ALLEY":" ","HOUSE_NO":"３０號","E_COORD97":165608.78,"N_COORD97":2545028.8900000001,"ADDRESS":"西賢一街２３５巷３０號","OBJECTID":226674},"geometry":{"x":165608.78000000026,"y":2545028.8900000006}},{"attributes":{"ID":226679,"DIS_CODE":0,"TOWNNAME":"中西區","LI":"西賢里","LIN":"22鄰","STREET":"西賢一街","SECT":" ","MAREA":" ","LANE":"２３５巷","ALLEY":" ","HOUSE_NO":"３２號","E_COORD97":165603.91,"N_COORD97":2545028.7799999998,"ADDRESS":"西賢一街２３５巷３２號","OBJECTID":226675},"geometry":{"x":165603.91000000108,"y":2545028.7800000031}},{"attributes":{"ID":226680,"DIS_CODE":0,"TOWNNAME":"東區","LI":"富強里","LIN":"12鄰","STREET":"裕農路","SECT":" ","MAREA":" ","LANE":"２８８巷","ALLEY":" ","HOUSE_NO":"２２１號","E_COORD97":171103.39000000001,"N_COORD97":2542787.4700000002,"ADDRESS":"裕農路２８８巷２２１號","OBJECTID":226676},"geometry":{"x":171103.38999999966,"y":2542787.4699999988}},{"attributes":{"ID":226681,"DIS_CODE":0,"TOWNNAME":"北區","LI":"力行里","LIN":"1鄰","STREET":"健康二街","SECT":" ","MAREA":" ","LANE":"４１９巷","ALLEY":" ","HOUSE_NO":"１２８號","E_COORD97":168667.39000000001,"N_COORD97":2544549.1400000001,"ADDRESS":"健康二街４１９巷１２８號","OBJECTID":226677},"geometry":{"x":168667.38999999966,"y":2544549.1400000006}},{"attributes":{"ID":226682,"DIS_CODE":0,"TOWNNAME":"北區","LI":"力行里","LIN":"1鄰","STREET":"健康二街","SECT":" ","MAREA":" ","LANE":"４１９巷","ALLEY":" ","HOUSE_NO":"２２８號","E_COORD97":168671.48000000001,"N_COORD97":2544552.0899999999,"ADDRESS":"健康二街４１９巷２２８號","OBJECTID":226678},"geometry":{"x":168671.47999999952,"y":2544552.0899999999}},{"attributes":{"ID":226683,"DIS_CODE":0,"TOWNNAME":"北區","LI":"力行里","LIN":"1鄰","STREET":"健康二街","SECT":" ","MAREA":" ","LANE":"４１９巷","ALLEY":" ","HOUSE_NO":"２２６號","E_COORD97":168667.47,"N_COORD97":2544537.7599999998,"ADDRESS":"健康二街４１９巷２２６號","OBJECTID":226679},"geometry":{"x":168667.46999999881,"y":2544537.7600000035}},{"attributes":{"ID":226684,"DIS_CODE":0,"TOWNNAME":"北區","LI":"力行里","LIN":"1鄰","STREET":"健康二街","SECT":" ","MAREA":" ","LANE":"４１９巷","ALLEY":" ","HOUSE_NO":"２２２號","E_COORD97":168677.70000000001,"N_COORD97":2544548.2400000002,"ADDRESS":"健康二街４１９巷２２２號","OBJECTID":226680},"geometry":{"x":168677.70000000019,"y":2544548.2400000039}},{"attributes":{"ID":226685,"DIS_CODE":0,"TOWNNAME":"新市區","LI":"大社里","LIN":"29鄰","STREET":" ","SECT":" ","MAREA":"大社","LANE":" ","ALLEY":" ","HOUSE_NO":"９４７號","E_COORD97":180111.56,"N_COORD97":2554156,"ADDRESS":"大社９４７號","OBJECTID":226681},"geometry":{"x":180111.56000000052,"y":2554156.0000000019}},{"attributes":{"ID":226686,"DIS_CODE":0,"TOWNNAME":"北區","LI":"力行里","LIN":"1鄰","STREET":"健康二街","SECT":" ","MAREA":" ","LANE":"４１９巷","ALLEY":" ","HOUSE_NO":"２２２號","E_COORD97":168675,"N_COORD97":2544555.5299999998,"ADDRESS":"健康二街４１９巷２２２號","OBJECTID":226682},"geometry":{"x":168675.00000000093,"y":2544555.5300000031}},{"attributes":{"ID":226687,"DIS_CODE":0,"TOWNNAME":"北區","LI":"力行里","LIN":"1鄰","STREET":"健康二街","SECT":" ","MAREA":" ","LANE":"４１９巷","ALLEY":" ","HOUSE_NO":"２２４號","E_COORD97":168663.38,"N_COORD97":2544528.3500000001,"ADDRESS":"健康二街４１９巷２２４號","OBJECTID":226683},"geometry":{"x":168663.38000000082,"y":2544528.3499999996}},{"attributes":{"ID":226688,"DIS_CODE":0,"TOWNNAME":"北區","LI":"力行里","LIN":"1鄰","STREET":"健康二街","SECT":" ","MAREA":" ","LANE":"４１９巷","ALLEY":" ","HOUSE_NO":"２２４號","E_COORD97":169326.10999999999,"N_COORD97":2545608.8799999999,"ADDRESS":"健康二街４１９巷２２４號","OBJECTID":226684},"geometry":{"x":169326.11000000034,"y":2545608.8800000008}},{"attributes":{"ID":226689,"DIS_CODE":0,"TOWNNAME":"北區","LI":"力行里","LIN":"1鄰","STREET":"健康二街","SECT":" ","MAREA":" ","LANE":"４１９巷","ALLEY":" ","HOUSE_NO":"２２６號","E_COORD97":169328.32999999999,"N_COORD97":2545607.4100000001,"ADDRESS":"健康二街４１９巷２２６號","OBJECTID":226685},"geometry":{"x":169328.33000000194,"y":2545607.4100000001}},{"attributes":{"ID":226690,"DIS_CODE":0,"TOWNNAME":"南區","LI":"文華里","LIN":"1鄰","STREET":"健康二街","SECT":" ","MAREA":" ","LANE":"４１９巷","ALLEY":" ","HOUSE_NO":"１２４號","E_COORD97":165205.26000000001,"N_COORD97":2543747.6400000001,"ADDRESS":"健康二街４１９巷１２４號","OBJECTID":226686},"geometry":{"x":165205.25999999978,"y":2543747.6400000006}},{"attributes":{"ID":226691,"DIS_CODE":0,"TOWNNAME":"南區","LI":"文華里","LIN":"1鄰","STREET":"健康二街","SECT":" ","MAREA":" ","LANE":"４１９巷","ALLEY":" ","HOUSE_NO":"１２８號","E_COORD97":165219.91,"N_COORD97":2543745.0600000001,"ADDRESS":"健康二街４１９巷１２８號","OBJECTID":226687},"geometry":{"x":165219.91000000015,"y":2543745.0600000005}},{"attributes":{"ID":226692,"DIS_CODE":0,"TOWNNAME":"東區","LI":"富裕里","LIN":"1鄰","STREET":"健康二街","SECT":" ","MAREA":" ","LANE":"４１９巷","ALLEY":" ","HOUSE_NO":"２２８號","E_COORD97":171273.20000000001,"N_COORD97":2542387.3999999999,"ADDRESS":"健康二街４１９巷２２８號","OBJECTID":226688},"geometry":{"x":171273.20000000019,"y":2542387.4000000004}},{"attributes":{"ID":226693,"DIS_CODE":0,"TOWNNAME":"東區","LI":"富裕里","LIN":"1鄰","STREET":"健康二街","SECT":" ","MAREA":" ","LANE":"４１９巷","ALLEY":" ","HOUSE_NO":"２２４號","E_COORD97":168744.13,"N_COORD97":2544600.77,"ADDRESS":"健康二街４１９巷２２４號","OBJECTID":226689},"geometry":{"x":168744.12999999989,"y":2544600.7699999996}},{"attributes":{"ID":226694,"DIS_CODE":0,"TOWNNAME":"東區","LI":"富裕里","LIN":"1鄰","STREET":"健康二街","SECT":" ","MAREA":" ","LANE":"４１９巷","ALLEY":" ","HOUSE_NO":"２２２號","E_COORD97":171296.98000000001,"N_COORD97":2542390.5299999998,"ADDRESS":"健康二街４１９巷２２２號","OBJECTID":226690},"geometry":{"x":171296.98000000045,"y":2542390.5300000012}},{"attributes":{"ID":226695,"DIS_CODE":0,"TOWNNAME":"東區","LI":"富裕里","LIN":"1鄰","STREET":"健康二街","SECT":" ","MAREA":" ","LANE":"４１９巷","ALLEY":" ","HOUSE_NO":"２２２號","E_COORD97":171292.76999999999,"N_COORD97":2542390.9300000002,"ADDRESS":"健康二街４１９巷２２２號","OBJECTID":226691},"geometry":{"x":171292.76999999862,"y":2542390.9300000016}},{"attributes":{"ID":226696,"DIS_CODE":0,"TOWNNAME":"東區","LI":"富裕里","LIN":"1鄰","STREET":"健康二街","SECT":" ","MAREA":" ","LANE":"４１９巷","ALLEY":" ","HOUSE_NO":"２２８號","E_COORD97":169282.62,"N_COORD97":2542651.2999999998,"ADDRESS":"健康二街４１９巷２２８號","OBJECTID":226692},"geometry":{"x":169282.62000000104,"y":2542651.3000000026}},{"attributes":{"ID":226697,"DIS_CODE":0,"TOWNNAME":"南區","LI":"文華里","LIN":"1鄰","STREET":"健康二街","SECT":" ","MAREA":" ","LANE":"４１９巷","ALLEY":" ","HOUSE_NO":"２２２號","E_COORD97":165250.5,"N_COORD97":2543740.1699999999,"ADDRESS":"健康二街４１９巷２２２號","OBJECTID":226693},"geometry":{"x":165250.50000000093,"y":2543740.1699999999}},{"attributes":{"ID":226698,"DIS_CODE":0,"TOWNNAME":"南區","LI":"文華里","LIN":"1鄰","STREET":"健康二街","SECT":" ","MAREA":" ","LANE":"４１９巷","ALLEY":" ","HOUSE_NO":"１２２號","E_COORD97":168804.98999999999,"N_COORD97":2542413.21,"ADDRESS":"健康二街４１９巷１２２號","OBJECTID":226694},"geometry":{"x":168804.99000000022,"y":2542413.2100000046}},{"attributes":{"ID":226699,"DIS_CODE":0,"TOWNNAME":"南區","LI":"文華里","LIN":"1鄰","STREET":"健康二街","SECT":" ","MAREA":" ","LANE":"４１９巷","ALLEY":" ","HOUSE_NO":"１２８號三樓","E_COORD97":165219.91,"N_COORD97":2543745.0600000001,"ADDRESS":"健康二街４１９巷１２８號三樓","OBJECTID":226695},"geometry":{"x":165219.91000000015,"y":2543745.0600000005}},{"attributes":{"ID":226700,"DIS_CODE":0,"TOWNNAME":"南區","LI":"文華里","LIN":"1鄰","STREET":"健康二街","SECT":" ","MAREA":" ","LANE":"４１９巷","ALLEY":" ","HOUSE_NO":"１２８號五樓","E_COORD97":165219.91,"N_COORD97":2543745.0600000001,"ADDRESS":"健康二街４１９巷１２８號五樓","OBJECTID":226696},"geometry":{"x":165219.91000000015,"y":2543745.0600000005}},{"attributes":{"ID":226701,"DIS_CODE":0,"TOWNNAME":"南區","LI":"文華里","LIN":"1鄰","STREET":"健康二街","SECT":" ","MAREA":" ","LANE":"４１９巷","ALLEY":" ","HOUSE_NO":"１２８號四樓","E_COORD97":165219.91,"N_COORD97":2543745.0600000001,"ADDRESS":"健康二街４１９巷１２８號四樓","OBJECTID":226697},"geometry":{"x":165219.91000000015,"y":2543745.0600000005}},{"attributes":{"ID":226702,"DIS_CODE":0,"TOWNNAME":"北區","LI":"仁愛里","LIN":"16鄰","STREET":"東豐路","SECT":" ","MAREA":" ","LANE":"２２７巷","ALLEY":" ","HOUSE_NO":"１２號七樓之１","E_COORD97":170118.25,"N_COORD97":2544902.0499999998,"ADDRESS":"東豐路２２７巷１２號七樓之１","OBJECTID":226698},"geometry":{"x":170118.25,"y":2544902.0500000007}},{"attributes":{"ID":226703,"DIS_CODE":0,"TOWNNAME":"北區","LI":"仁愛里","LIN":"16鄰","STREET":"東豐路","SECT":" ","MAREA":" ","LANE":"２２７巷","ALLEY":" ","HOUSE_NO":"１２號七樓之２","E_COORD97":170118.25,"N_COORD97":2544902.0499999998,"ADDRESS":"東豐路２２７巷１２號七樓之２","OBJECTID":226699},"geometry":{"x":170118.25,"y":2544902.0500000007}},{"attributes":{"ID":226704,"DIS_CODE":0,"TOWNNAME":"中西區","LI":"西湖里","LIN":"29鄰","STREET":"湖美街","SECT":" ","MAREA":" ","LANE":"８２巷","ALLEY":" ","HOUSE_NO":"５號","E_COORD97":165970.14000000001,"N_COORD97":2544810.6899999999,"ADDRESS":"湖美街８２巷５號","OBJECTID":226700},"geometry":{"x":165970.13999999966,"y":2544810.6899999995}},{"attributes":{"ID":226705,"DIS_CODE":0,"TOWNNAME":"中西區","LI":"西湖里","LIN":"29鄰","STREET":"湖美街","SECT":" ","MAREA":" ","LANE":"８２巷","ALLEY":" ","HOUSE_NO":"６號","E_COORD97":165971.48000000001,"N_COORD97":2544787.4500000002,"ADDRESS":"湖美街８２巷６號","OBJECTID":226701},"geometry":{"x":165971.48000000138,"y":2544787.4500000011}},{"attributes":{"ID":226706,"DIS_CODE":0,"TOWNNAME":"北區","LI":"仁愛里","LIN":"16鄰","STREET":"東豐路","SECT":" ","MAREA":" ","LANE":"２２７巷","ALLEY":" ","HOUSE_NO":"１２號七樓之３","E_COORD97":170118.25,"N_COORD97":2544902.0499999998,"ADDRESS":"東豐路２２７巷１２號七樓之３","OBJECTID":226702},"geometry":{"x":170118.25,"y":2544902.0500000007}},{"attributes":{"ID":226707,"DIS_CODE":0,"TOWNNAME":"新市區","LI":"大社里","LIN":"29鄰","STREET":" ","SECT":" ","MAREA":"大社","LANE":" ","ALLEY":" ","HOUSE_NO":"９４４號之１","E_COORD97":180088.79999999999,"N_COORD97":2554141.0499999998,"ADDRESS":"大社９４４號之１","OBJECTID":226703},"geometry":{"x":180088.79999999981,"y":2554141.0500000007}},{"attributes":{"ID":226708,"DIS_CODE":0,"TOWNNAME":"新市區","LI":"大社里","LIN":"29鄰","STREET":" ","SECT":" ","MAREA":"大社","LANE":" ","ALLEY":" ","HOUSE_NO":"９４１號","E_COORD97":180047.85000000001,"N_COORD97":2554127.75,"ADDRESS":"大社９４１號","OBJECTID":226704},"geometry":{"x":180047.84999999963,"y":2554127.75}},{"attributes":{"ID":226709,"DIS_CODE":0,"TOWNNAME":"新市區","LI":"大社里","LIN":"29鄰","STREET":" ","SECT":" ","MAREA":"大社","LANE":" ","ALLEY":" ","HOUSE_NO":"９６８號","E_COORD97":180179.09,"N_COORD97":2554077,"ADDRESS":"大社９６８號","OBJECTID":226705},"geometry":{"x":180179.09000000078,"y":2554077.0000000019}},{"attributes":{"ID":226710,"DIS_CODE":0,"TOWNNAME":"新市區","LI":"大社里","LIN":"29鄰","STREET":" ","SECT":" ","MAREA":"大社","LANE":" ","ALLEY":" ","HOUSE_NO":"９５０號","E_COORD97":180123.26000000001,"N_COORD97":2554159.75,"ADDRESS":"大社９５０號","OBJECTID":226706},"geometry":{"x":180123.25999999978,"y":2554159.7500000037}},{"attributes":{"ID":226711,"DIS_CODE":0,"TOWNNAME":"新市區","LI":"大社里","LIN":"29鄰","STREET":" ","SECT":" ","MAREA":"大社","LANE":" ","ALLEY":" ","HOUSE_NO":"９４５號","E_COORD97":180092.87,"N_COORD97":2554141.25,"ADDRESS":"大社９４５號","OBJECTID":226707},"geometry":{"x":180092.87000000104,"y":2554141.25}},{"attributes":{"ID":226712,"DIS_CODE":0,"TOWNNAME":"新市區","LI":"大社里","LIN":"29鄰","STREET":" ","SECT":" ","MAREA":"大社","LANE":" ","ALLEY":" ","HOUSE_NO":"９５０號之１","E_COORD97":180128.25,"N_COORD97":2554142.5499999998,"ADDRESS":"大社９５０號之１","OBJECTID":226708},"geometry":{"x":180128.25,"y":2554142.5500000026}},{"attributes":{"ID":226713,"DIS_CODE":0,"TOWNNAME":"新市區","LI":"大社里","LIN":"29鄰","STREET":" ","SECT":" ","MAREA":"大社","LANE":" ","ALLEY":" ","HOUSE_NO":"９３３號","E_COORD97":180100.42000000001,"N_COORD97":2554056.5,"ADDRESS":"大社９３３號","OBJECTID":226709},"geometry":{"x":180100.42000000179,"y":2554056.5000000037}},{"attributes":{"ID":226714,"DIS_CODE":0,"TOWNNAME":"北區","LI":"仁愛里","LIN":"16鄰","STREET":"東豐路","SECT":" ","MAREA":" ","LANE":"２２７巷","ALLEY":" ","HOUSE_NO":"１２號七樓之５","E_COORD97":170118.25,"N_COORD97":2544902.0499999998,"ADDRESS":"東豐路２２７巷１２號七樓之５","OBJECTID":226710},"geometry":{"x":170118.25,"y":2544902.0500000007}},{"attributes":{"ID":226715,"DIS_CODE":0,"TOWNNAME":"安平區","LI":"平安里","LIN":"16鄰","STREET":"安平路","SECT":" ","MAREA":" ","LANE":"５５０巷","ALLEY":" ","HOUSE_NO":"５０號","E_COORD97":165043.47,"N_COORD97":2544525.4199999999,"ADDRESS":"安平路５５０巷５０號","OBJECTID":226711},"geometry":{"x":165043.47000000067,"y":2544525.4199999999}},{"attributes":{"ID":226716,"DIS_CODE":0,"TOWNNAME":"新市區","LI":"大社里","LIN":"29鄰","STREET":" ","SECT":" ","MAREA":"大社","LANE":" ","ALLEY":" ","HOUSE_NO":"９５５號","E_COORD97":180157.04000000001,"N_COORD97":2554168.25,"ADDRESS":"大社９５５號","OBJECTID":226712},"geometry":{"x":180157.04000000004,"y":2554168.2500000019}},{"attributes":{"ID":226717,"DIS_CODE":0,"TOWNNAME":"新市區","LI":"永就里","LIN":"5鄰","STREET":"中華路","SECT":" ","MAREA":" ","LANE":"１１３巷","ALLEY":" ","HOUSE_NO":"６號","E_COORD97":177930.38488999999,"N_COORD97":2551236.3177,"ADDRESS":"中華路１１３巷６號","OBJECTID":226713},"geometry":{"x":177930.3848899994,"y":2551236.3176960032}},{"attributes":{"ID":226718,"DIS_CODE":0,"TOWNNAME":"新市區","LI":"大社里","LIN":"29鄰","STREET":" ","SECT":" ","MAREA":"大社","LANE":" ","ALLEY":" ","HOUSE_NO":"９６７號","E_COORD97":180175.26000000001,"N_COORD97":2554086,"ADDRESS":"大社９６７號","OBJECTID":226714},"geometry":{"x":180175.25999999978,"y":2554086}},{"attributes":{"ID":226719,"DIS_CODE":0,"TOWNNAME":"安平區","LI":"平安里","LIN":"16鄰","STREET":"安平路","SECT":" ","MAREA":" ","LANE":"５５０巷","ALLEY":" ","HOUSE_NO":"５２號","E_COORD97":165045.31,"N_COORD97":2544530.4700000002,"ADDRESS":"安平路５５０巷５２號","OBJECTID":226715},"geometry":{"x":165045.30999999959,"y":2544530.4700000044}},{"attributes":{"ID":226720,"DIS_CODE":0,"TOWNNAME":"安平區","LI":"平安里","LIN":"16鄰","STREET":"安平路","SECT":" ","MAREA":" ","LANE":"５５０巷","ALLEY":" ","HOUSE_NO":"４９號","E_COORD97":165028.63,"N_COORD97":2544530.77,"ADDRESS":"安平路５５０巷４９號","OBJECTID":226716},"geometry":{"x":165028.62999999896,"y":2544530.7700000033}},{"attributes":{"ID":226721,"DIS_CODE":0,"TOWNNAME":"新市區","LI":"大社里","LIN":"29鄰","STREET":" ","SECT":" ","MAREA":"大社","LANE":" ","ALLEY":" ","HOUSE_NO":"９５１之２號","E_COORD97":180145.20999999999,"N_COORD97":2554141.0499999998,"ADDRESS":"大社９５１之２號","OBJECTID":226717},"geometry":{"x":180145.20999999996,"y":2554141.0500000007}},{"attributes":{"ID":226722,"DIS_CODE":0,"TOWNNAME":"東區","LI":"泉南里","LIN":"34鄰","STREET":"林森路","SECT":"一段","MAREA":" ","LANE":" ","ALLEY":" ","HOUSE_NO":"１５１號十九樓之１","E_COORD97":169521.72,"N_COORD97":2542559.71,"ADDRESS":"林森路一段１５１號十九樓之１","OBJECTID":226718},"geometry":{"x":169521.71999999974,"y":2542559.7100000028}},{"attributes":{"ID":226723,"DIS_CODE":0,"TOWNNAME":"中西區","LI":"西湖里","LIN":"29鄰","STREET":"湖美街","SECT":" ","MAREA":" ","LANE":" ","ALLEY":" ","HOUSE_NO":"８４號","E_COORD97":165947.94,"N_COORD97":2544803.21,"ADDRESS":"湖美街８４號","OBJECTID":226719},"geometry":{"x":165947.94000000134,"y":2544803.2100000009}},{"attributes":{"ID":226724,"DIS_CODE":0,"TOWNNAME":"新市區","LI":"新和里","LIN":"29鄰","STREET":"光華街","SECT":" ","MAREA":" ","LANE":"８９巷","ALLEY":" ","HOUSE_NO":"３號","E_COORD97":177823.45000000001,"N_COORD97":2552825.75,"ADDRESS":"光華街８９巷３號","OBJECTID":226720},"geometry":{"x":177823.45000000019,"y":2552825.75}},{"attributes":{"ID":226725,"DIS_CODE":0,"TOWNNAME":"新市區","LI":"大社里","LIN":"29鄰","STREET":" ","SECT":" ","MAREA":"大社","LANE":" ","ALLEY":" ","HOUSE_NO":"９７５號","E_COORD97":180200.31,"N_COORD97":2553996.25,"ADDRESS":"大社９７５號","OBJECTID":226721},"geometry":{"x":180200.30999999959,"y":2553996.25}},{"attributes":{"ID":226726,"DIS_CODE":0,"TOWNNAME":"新市區","LI":"大社里","LIN":"29鄰","STREET":" ","SECT":" ","MAREA":"大社","LANE":" ","ALLEY":" ","HOUSE_NO":"９７７號","E_COORD97":180202.60000000001,"N_COORD97":2553960,"ADDRESS":"大社９７７號","OBJECTID":226722},"geometry":{"x":180202.60000000056,"y":2553960}},{"attributes":{"ID":226727,"DIS_CODE":0,"TOWNNAME":"新市區","LI":"大社里","LIN":"29鄰","STREET":" ","SECT":" ","MAREA":"大社","LANE":" ","ALLEY":" ","HOUSE_NO":"９７７之１０號","E_COORD97":180129.12,"N_COORD97":2553930.5499999998,"ADDRESS":"大社９７７之１０號","OBJECTID":226723},"geometry":{"x":180129.12000000011,"y":2553930.5500000007}},{"attributes":{"ID":226728,"DIS_CODE":0,"TOWNNAME":"新市區","LI":"大社里","LIN":"29鄰","STREET":" ","SECT":" ","MAREA":"大社","LANE":" ","ALLEY":" ","HOUSE_NO":"９６９之１號","E_COORD97":180128.48000000001,"N_COORD97":2554052.2999999998,"ADDRESS":"大社９６９之１號","OBJECTID":226724},"geometry":{"x":180128.48000000138,"y":2554052.3000000026}},{"attributes":{"ID":226729,"DIS_CODE":0,"TOWNNAME":"永康區","LI":"大橋里","LIN":"29鄰","STREET":"大橋一街","SECT":" ","MAREA":" ","LANE":"２５０巷","ALLEY":" ","HOUSE_NO":"４號","E_COORD97":171070.12,"N_COORD97":2546482.9900000002,"ADDRESS":"大橋一街２５０巷４號","OBJECTID":226725},"geometry":{"x":171070.12000000011,"y":2546482.9900000021}},{"attributes":{"ID":226730,"DIS_CODE":0,"TOWNNAME":"永康區","LI":"五王里","LIN":"29鄰","STREET":"中山東路","SECT":" ","MAREA":" ","LANE":"６８巷","ALLEY":" ","HOUSE_NO":"１３號","E_COORD97":171611.98999999999,"N_COORD97":2545965.3599999999,"ADDRESS":"中山東路６８巷１３號","OBJECTID":226726},"geometry":{"x":171611.99000000022,"y":2545965.3600000013}},{"attributes":{"ID":226731,"DIS_CODE":0,"TOWNNAME":"永康區","LI":"大橋里","LIN":"29鄰","STREET":"大橋一街","SECT":" ","MAREA":" ","LANE":"２５０巷","ALLEY":" ","HOUSE_NO":"８號","E_COORD97":171099.53,"N_COORD97":2546502.4900000002,"ADDRESS":"大橋一街２５０巷８號","OBJECTID":226727},"geometry":{"x":171099.53000000026,"y":2546502.4900000002}},{"attributes":{"ID":226732,"DIS_CODE":0,"TOWNNAME":"佳里區","LI":"忠仁里","LIN":"4鄰","STREET":"建中街","SECT":" ","MAREA":" ","LANE":"７２巷","ALLEY":" ","HOUSE_NO":"２６號","E_COORD97":165784.35932399999,"N_COORD97":2562130.4207000001,"ADDRESS":"建中街７２巷２６號","OBJECTID":226728},"geometry":{"x":165784.35932400078,"y":2562130.4207049999}},{"attributes":{"ID":226733,"DIS_CODE":0,"TOWNNAME":"東區","LI":"虎尾里","LIN":"29鄰","STREET":"東成街","SECT":" ","MAREA":" ","LANE":"２００巷","ALLEY":" ","HOUSE_NO":"７４號","E_COORD97":171873.82000000001,"N_COORD97":2542111.02,"ADDRESS":"東成街２００巷７４號","OBJECTID":226729},"geometry":{"x":171873.82000000123,"y":2542111.0199999996}},{"attributes":{"ID":226734,"DIS_CODE":0,"TOWNNAME":"永康區","LI":"大橋里","LIN":"29鄰","STREET":"大橋一街","SECT":" ","MAREA":" ","LANE":"２５０巷","ALLEY":" ","HOUSE_NO":"７號","E_COORD97":171093.56,"N_COORD97":2546498.7400000002,"ADDRESS":"大橋一街２５０巷７號","OBJECTID":226730},"geometry":{"x":171093.55999999959,"y":2546498.7400000021}},{"attributes":{"ID":226735,"DIS_CODE":0,"TOWNNAME":"安平區","LI":"平安里","LIN":"16鄰","STREET":"安平路","SECT":" ","MAREA":" ","LANE":"５５０巷","ALLEY":" ","HOUSE_NO":"５１號","E_COORD97":165031.07000000001,"N_COORD97":2544535.8199999998,"ADDRESS":"安平路５５０巷５１號","OBJECTID":226731},"geometry":{"x":165031.0700000003,"y":2544535.8200000022}},{"attributes":{"ID":226736,"DIS_CODE":0,"TOWNNAME":"東區","LI":"後甲里","LIN":"4鄰","STREET":"裕農路","SECT":" ","MAREA":" ","LANE":"６２１巷","ALLEY":" ","HOUSE_NO":"３２之５號","E_COORD97":171629.38,"N_COORD97":2543331.3900000001,"ADDRESS":"裕農路６２１巷３２之５號","OBJECTID":226732},"geometry":{"x":171629.37999999989,"y":2543331.3900000025}},{"attributes":{"ID":226737,"DIS_CODE":0,"TOWNNAME":"東區","LI":"富強里","LIN":"11鄰","STREET":"中華東路","SECT":"二段","MAREA":" ","LANE":"９６巷","ALLEY":" ","HOUSE_NO":"９６號","E_COORD97":171084.62,"N_COORD97":2542838.8599999999,"ADDRESS":"中華東路二段９６巷９６號","OBJECTID":226733},"geometry":{"x":171084.62000000104,"y":2542838.8600000013}},{"attributes":{"ID":226738,"DIS_CODE":0,"TOWNNAME":"北區","LI":"成德里","LIN":"16鄰","STREET":"文成一路","SECT":" ","MAREA":" ","LANE":"６巷","ALLEY":" ","HOUSE_NO":"２６號","E_COORD97":168886.54000000001,"N_COORD97":2546074.1400000001,"ADDRESS":"文成一路６巷２６號","OBJECTID":226734},"geometry":{"x":168886.54000000097,"y":2546074.1400000006}},{"attributes":{"ID":226739,"DIS_CODE":0,"TOWNNAME":"東區","LI":"泉南里","LIN":"34鄰","STREET":"林森路","SECT":"一段","MAREA":" ","LANE":" ","ALLEY":" ","HOUSE_NO":"１５１號二十樓","E_COORD97":169521.72,"N_COORD97":2542559.71,"ADDRESS":"林森路一段１５１號二十樓","OBJECTID":226735},"geometry":{"x":169521.71999999974,"y":2542559.7100000028}},{"attributes":{"ID":226740,"DIS_CODE":0,"TOWNNAME":"東區","LI":"泉南里","LIN":"34鄰","STREET":"林森路","SECT":"一段","MAREA":" ","LANE":" ","ALLEY":" ","HOUSE_NO":"１５１號二十樓之１","E_COORD97":169521.72,"N_COORD97":2542559.71,"ADDRESS":"林森路一段１５１號二十樓之１","OBJECTID":226736},"geometry":{"x":169521.71999999974,"y":2542559.7100000028}},{"attributes":{"ID":226741,"DIS_CODE":0,"TOWNNAME":"東區","LI":"泉南里","LIN":"34鄰","STREET":"林森路","SECT":"一段","MAREA":" ","LANE":" ","ALLEY":" ","HOUSE_NO":"１５１號二十一樓","E_COORD97":169521.72,"N_COORD97":2542559.71,"ADDRESS":"林森路一段１５１號二十一樓","OBJECTID":226737},"geometry":{"x":169521.71999999974,"y":2542559.7100000028}},{"attributes":{"ID":226742,"DIS_CODE":0,"TOWNNAME":"東區","LI":"泉南里","LIN":"34鄰","STREET":"林森路","SECT":"一段","MAREA":" ","LANE":" ","ALLEY":" ","HOUSE_NO":"１５１號二十一樓之１","E_COORD97":169521.72,"N_COORD97":2542559.71,"ADDRESS":"林森路一段１５１號二十一樓之１","OBJECTID":226738},"geometry":{"x":169521.71999999974,"y":2542559.7100000028}},{"attributes":{"ID":226743,"DIS_CODE":0,"TOWNNAME":"東區","LI":"泉南里","LIN":"34鄰","STREET":"林森路","SECT":"一段","MAREA":" ","LANE":" ","ALLEY":" ","HOUSE_NO":"１５１號二十二樓","E_COORD97":169521.72,"N_COORD97":2542559.71,"ADDRESS":"林森路一段１５１號二十二樓","OBJECTID":226739},"geometry":{"x":169521.71999999974,"y":2542559.7100000028}},{"attributes":{"ID":226744,"DIS_CODE":0,"TOWNNAME":"永康區","LI":"勝利里","LIN":"29鄰","STREET":"勝利街","SECT":" ","MAREA":" ","LANE":"４２巷","ALLEY":" ","HOUSE_NO":"１２號","E_COORD97":171379.06,"N_COORD97":2544619.25,"ADDRESS":"勝利街４２巷１２號","OBJECTID":226740},"geometry":{"x":171379.06000000145,"y":2544619.2500000037}},{"attributes":{"ID":226745,"DIS_CODE":0,"TOWNNAME":"中西區","LI":"民權里","LIN":"16鄰","STREET":"海安路","SECT":" ","MAREA":" ","LANE":"４０３巷","ALLEY":" ","HOUSE_NO":"２２號","E_COORD97":167666.53,"N_COORD97":2544318.1400000001,"ADDRESS":"海安路４０３巷２２號","OBJECTID":226741},"geometry":{"x":167666.53000000119,"y":2544318.1400000006}},{"attributes":{"ID":226746,"DIS_CODE":0,"TOWNNAME":"安南區","LI":"海東里","LIN":"16鄰","STREET":"海尾路","SECT":" ","MAREA":" ","LANE":" ","ALLEY":" ","HOUSE_NO":"１９８號","E_COORD97":166626.650922,"N_COORD97":2548698.66212,"ADDRESS":"海尾路１９８號","OBJECTID":226742},"geometry":{"x":166626.65092200041,"y":2548698.6621160023}},{"attributes":{"ID":226747,"DIS_CODE":0,"TOWNNAME":"東區","LI":"忠孝里","LIN":"16鄰","STREET":"榮譽街","SECT":" ","MAREA":" ","LANE":"１０７巷","ALLEY":" ","HOUSE_NO":"６之２號","E_COORD97":169827.07000000001,"N_COORD97":2541793.96,"ADDRESS":"榮譽街１０７巷６之２號","OBJECTID":226743},"geometry":{"x":169827.07000000216,"y":2541793.9600000009}},{"attributes":{"ID":226748,"DIS_CODE":0,"TOWNNAME":"北區","LI":"正覺里","LIN":"3鄰","STREET":"西門路","SECT":"四段","MAREA":" ","LANE":"３８０巷","ALLEY":" ","HOUSE_NO":"６號","E_COORD97":169069.04999999999,"N_COORD97":2546088.71,"ADDRESS":"西門路四段３８０巷６號","OBJECTID":226744},"geometry":{"x":169069.05000000075,"y":2546088.7100000046}},{"attributes":{"ID":226749,"DIS_CODE":0,"TOWNNAME":"北區","LI":"正覺里","LIN":"3鄰","STREET":"西門路","SECT":"四段","MAREA":" ","LANE":"３８０巷","ALLEY":" ","HOUSE_NO":"８號","E_COORD97":169073.26999999999,"N_COORD97":2546088.6099999999,"ADDRESS":"西門路四段３８０巷８號","OBJECTID":226745},"geometry":{"x":169073.26999999955,"y":2546088.6100000013}},{"attributes":{"ID":226750,"DIS_CODE":0,"TOWNNAME":"北區","LI":"裕民里","LIN":"3鄰","STREET":"成功路","SECT":" ","MAREA":" ","LANE":"５０４巷","ALLEY":" ","HOUSE_NO":"２號","E_COORD97":167703.04999999999,"N_COORD97":2544682.5499999998,"ADDRESS":"成功路５０４巷２號","OBJECTID":226746},"geometry":{"x":167703.05000000075,"y":2544682.5500000045}},{"attributes":{"ID":226751,"DIS_CODE":0,"TOWNNAME":"東區","LI":"東光里","LIN":"8鄰","STREET":"東興路","SECT":" ","MAREA":" ","LANE":"１９９巷","ALLEY":" ","HOUSE_NO":"１號","E_COORD97":170981.64000000001,"N_COORD97":2543852.5699999998,"ADDRESS":"東興路１９９巷１號","OBJECTID":226747},"geometry":{"x":170981.63999999966,"y":2543852.5700000022}},{"attributes":{"ID":226752,"DIS_CODE":0,"TOWNNAME":"東區","LI":"東光里","LIN":"8鄰","STREET":"東興路","SECT":" ","MAREA":" ","LANE":"１９９巷","ALLEY":" ","HOUSE_NO":"３號","E_COORD97":170974.04000000001,"N_COORD97":2543853.4500000002,"ADDRESS":"東興路１９９巷３號","OBJECTID":226748},"geometry":{"x":170974.04000000004,"y":2543853.4499999993}},{"attributes":{"ID":226753,"DIS_CODE":0,"TOWNNAME":"歸仁區","LI":"七甲里","LIN":"3鄰","STREET":"中正北路","SECT":"二段","MAREA":" ","LANE":"５０１巷","ALLEY":" ","HOUSE_NO":"１８號","E_COORD97":177429.37,"N_COORD97":2543267.2599999998,"ADDRESS":"中正北路二段５０１巷１８號","OBJECTID":226749},"geometry":{"x":177429.37000000197,"y":2543267.2600000016}},{"attributes":{"ID":226754,"DIS_CODE":0,"TOWNNAME":"歸仁區","LI":"文化里","LIN":"3鄰","STREET":"國光街","SECT":" ","MAREA":" ","LANE":"１４３巷","ALLEY":" ","HOUSE_NO":"２３號","E_COORD97":177273.67999999999,"N_COORD97":2541207.3300000001,"ADDRESS":"國光街１４３巷２３號","OBJECTID":226750},"geometry":{"x":177273.6799999997,"y":2541207.3300000001}},{"attributes":{"ID":226755,"DIS_CODE":0,"TOWNNAME":"歸仁區","LI":"大廟里","LIN":"3鄰","STREET":"和順路","SECT":"一段","MAREA":" ","LANE":"３３６巷","ALLEY":" ","HOUSE_NO":"２１號","E_COORD97":176583.79000000001,"N_COORD97":2543747.2799999998,"ADDRESS":"和順路一段３３６巷２１號","OBJECTID":226751},"geometry":{"x":176583.78999999911,"y":2543747.2800000031}},{"attributes":{"ID":226756,"DIS_CODE":0,"TOWNNAME":"歸仁區","LI":"大廟里","LIN":"3鄰","STREET":"和順路","SECT":"一段","MAREA":" ","LANE":"３３６巷","ALLEY":" ","HOUSE_NO":"５３號","E_COORD97":176567.79000000001,"N_COORD97":2543821.2799999998,"ADDRESS":"和順路一段３３６巷５３號","OBJECTID":226752},"geometry":{"x":176567.79000000097,"y":2543821.2799999993}},{"attributes":{"ID":226757,"DIS_CODE":0,"TOWNNAME":"歸仁區","LI":"大廟里","LIN":"3鄰","STREET":"和順路","SECT":"一段","MAREA":" ","LANE":"３３６巷","ALLEY":" ","HOUSE_NO":"７９號","E_COORD97":176536.39000000001,"N_COORD97":2543897.2799999998,"ADDRESS":"和順路一段３３６巷７９號","OBJECTID":226753},"geometry":{"x":176536.38999999966,"y":2543897.2800000012}},{"attributes":{"ID":226758,"DIS_CODE":0,"TOWNNAME":"南區","LI":"永寧里","LIN":"3鄰","STREET":"灣裡路","SECT":" ","MAREA":" ","LANE":"１４８巷","ALLEY":" ","HOUSE_NO":"６號","E_COORD97":166004.04000000001,"N_COORD97":2536724.9100000001,"ADDRESS":"灣裡路１４８巷６號","OBJECTID":226754},"geometry":{"x":166004.04000000004,"y":2536724.9100000001}},{"attributes":{"ID":226759,"DIS_CODE":0,"TOWNNAME":"南區","LI":"永寧里","LIN":"3鄰","STREET":"灣裡路","SECT":" ","MAREA":" ","LANE":"１４８巷","ALLEY":" ","HOUSE_NO":"７號","E_COORD97":166004.39000000001,"N_COORD97":2536708.77,"ADDRESS":"灣裡路１４８巷７號","OBJECTID":226755},"geometry":{"x":166004.38999999966,"y":2536708.7700000033}},{"attributes":{"ID":226760,"DIS_CODE":0,"TOWNNAME":"南區","LI":"永寧里","LIN":"3鄰","STREET":"灣裡路","SECT":" ","MAREA":" ","LANE":"１４８巷","ALLEY":" ","HOUSE_NO":"８號","E_COORD97":166005.26000000001,"N_COORD97":2536718.73,"ADDRESS":"灣裡路１４８巷８號","OBJECTID":226756},"geometry":{"x":166005.25999999978,"y":2536718.7300000004}},{"attributes":{"ID":226761,"DIS_CODE":0,"TOWNNAME":"歸仁區","LI":"八甲里","LIN":"14鄰","STREET":"大明三街","SECT":" ","MAREA":" ","LANE":" ","ALLEY":" ","HOUSE_NO":"６３號","E_COORD97":178071.22,"N_COORD97":2541708.6099999999,"ADDRESS":"大明三街６３號","OBJECTID":226757},"geometry":{"x":178071.22000000067,"y":2541708.6100000013}},{"attributes":{"ID":226762,"DIS_CODE":0,"TOWNNAME":"東區","LI":"富強里","LIN":"5鄰","STREET":"東門路","SECT":"二段","MAREA":" ","LANE":"３０１巷","ALLEY":" ","HOUSE_NO":"１０６號","E_COORD97":170996.42999999999,"N_COORD97":2542711.77,"ADDRESS":"東門路二段３０１巷１０６號","OBJECTID":226758},"geometry":{"x":170996.4299999997,"y":2542711.7699999996}},{"attributes":{"ID":226763,"DIS_CODE":0,"TOWNNAME":"東區","LI":"富強里","LIN":"5鄰","STREET":"東門路","SECT":"二段","MAREA":" ","LANE":"３０１巷","ALLEY":" ","HOUSE_NO":"１０８號","E_COORD97":171001.73999999999,"N_COORD97":2542713.6499999999,"ADDRESS":"東門路二段３０１巷１０８號","OBJECTID":226759},"geometry":{"x":171001.74000000022,"y":2542713.6500000004}},{"attributes":{"ID":226764,"DIS_CODE":0,"TOWNNAME":"東區","LI":"富強里","LIN":"5鄰","STREET":"東門路","SECT":"二段","MAREA":" ","LANE":"３０１巷","ALLEY":" ","HOUSE_NO":"１１０號","E_COORD97":171007.22,"N_COORD97":2542713.48,"ADDRESS":"東門路二段３０１巷１１０號","OBJECTID":226760},"geometry":{"x":171007.22000000067,"y":2542713.4800000023}},{"attributes":{"ID":226765,"DIS_CODE":0,"TOWNNAME":"東區","LI":"莊敬里","LIN":"18鄰","STREET":"東光路","SECT":"二段","MAREA":" ","LANE":" ","ALLEY":" ","HOUSE_NO":"１４２號","E_COORD97":171275.42000000001,"N_COORD97":2544286.3599999999,"ADDRESS":"東光路二段１４２號","OBJECTID":226761},"geometry":{"x":171275.42000000086,"y":2544286.3600000013}},{"attributes":{"ID":226766,"DIS_CODE":0,"TOWNNAME":"東區","LI":"莊敬里","LIN":"18鄰","STREET":"東光路","SECT":"二段","MAREA":" ","LANE":" ","ALLEY":" ","HOUSE_NO":"１４６號","E_COORD97":171274.95000000001,"N_COORD97":2544301.6899999999,"ADDRESS":"東光路二段１４６號","OBJECTID":226762},"geometry":{"x":171274.95000000019,"y":2544301.6900000013}},{"attributes":{"ID":226767,"DIS_CODE":0,"TOWNNAME":"永康區","LI":"復國里","LIN":"29鄰","STREET":"復華二街","SECT":" ","MAREA":" ","LANE":"１３巷","ALLEY":" ","HOUSE_NO":"１２號","E_COORD97":172617.60000000001,"N_COORD97":2545312.2799999998,"ADDRESS":"復華二街１３巷１２號","OBJECTID":226763},"geometry":{"x":172617.59999999963,"y":2545312.2799999993}},{"attributes":{"ID":226768,"DIS_CODE":0,"TOWNNAME":"永康區","LI":"復國里","LIN":"29鄰","STREET":"復華二街","SECT":" ","MAREA":" ","LANE":"１巷","ALLEY":" ","HOUSE_NO":"３號","E_COORD97":172685.63,"N_COORD97":2545322.77,"ADDRESS":"復華二街１巷３號","OBJECTID":226764},"geometry":{"x":172685.62999999989,"y":2545322.7699999996}},{"attributes":{"ID":226769,"DIS_CODE":0,"TOWNNAME":"永康區","LI":"復興里","LIN":"29鄰","STREET":"忠孝路","SECT":" ","MAREA":" ","LANE":"７６巷","ALLEY":" ","HOUSE_NO":"２號","E_COORD97":172276.48000000001,"N_COORD97":2544890.25,"ADDRESS":"忠孝路７６巷２號","OBJECTID":226765},"geometry":{"x":172276.48000000045,"y":2544890.2499999981}},{"attributes":{"ID":226770,"DIS_CODE":0,"TOWNNAME":"永康區","LI":"復華里","LIN":"29鄰","STREET":"國華街","SECT":" ","MAREA":" ","LANE":"１２３巷","ALLEY":" ","HOUSE_NO":"１４號","E_COORD97":172599.35999999999,"N_COORD97":2546248.4199999999,"ADDRESS":"國華街１２３巷１４號","OBJECTID":226766},"geometry":{"x":172599.36000000034,"y":2546248.4199999999}},{"attributes":{"ID":226771,"DIS_CODE":0,"TOWNNAME":"永康區","LI":"復國里","LIN":"29鄰","STREET":"復華二街","SECT":" ","MAREA":" ","LANE":"２３巷","ALLEY":" ","HOUSE_NO":"９號","E_COORD97":172590.76000000001,"N_COORD97":2545313.7799999998,"ADDRESS":"復華二街２３巷９號","OBJECTID":226767},"geometry":{"x":172590.76000000071,"y":2545313.7800000012}},{"attributes":{"ID":226772,"DIS_CODE":0,"TOWNNAME":"永康區","LI":"復國里","LIN":"29鄰","STREET":"復華二街","SECT":" ","MAREA":" ","LANE":"１巷","ALLEY":" ","HOUSE_NO":"２６號","E_COORD97":172672.63,"N_COORD97":2545281.2400000002,"ADDRESS":"復華二街１巷２６號","OBJECTID":226768},"geometry":{"x":172672.63000000082,"y":2545281.2400000021}},{"attributes":{"ID":226773,"DIS_CODE":0,"TOWNNAME":"東區","LI":"莊敬里","LIN":"18鄰","STREET":"東光路","SECT":"二段","MAREA":" ","LANE":" ","ALLEY":" ","HOUSE_NO":"１３４號","E_COORD97":171267.89000000001,"N_COORD97":2544270.1600000001,"ADDRESS":"東光路二段１３４號","OBJECTID":226769},"geometry":{"x":171267.88999999966,"y":2544270.1600000001}},{"attributes":{"ID":226774,"DIS_CODE":0,"TOWNNAME":"東區","LI":"莊敬里","LIN":"18鄰","STREET":"東光路","SECT":"二段","MAREA":" ","LANE":" ","ALLEY":" ","HOUSE_NO":"１３８號","E_COORD97":171277.64999999999,"N_COORD97":2544270.9199999999,"ADDRESS":"東光路二段１３８號","OBJECTID":226770},"geometry":{"x":171277.65000000224,"y":2544270.9199999999}},{"attributes":{"ID":226775,"DIS_CODE":0,"TOWNNAME":"東區","LI":"莊敬里","LIN":"18鄰","STREET":"東光路","SECT":"二段","MAREA":" ","LANE":" ","ALLEY":" ","HOUSE_NO":"１４４號","E_COORD97":171274.85999999999,"N_COORD97":2544296.77,"ADDRESS":"東光路二段１４４號","OBJECTID":226771},"geometry":{"x":171274.86000000127,"y":2544296.7700000033}},{"attributes":{"ID":226776,"DIS_CODE":0,"TOWNNAME":"東區","LI":"東光里","LIN":"1鄰","STREET":"東寧路","SECT":" ","MAREA":" ","LANE":" ","ALLEY":" ","HOUSE_NO":"３７７號","E_COORD97":170935.26999999999,"N_COORD97":2543376.1899999999,"ADDRESS":"東寧路３７７號","OBJECTID":226772},"geometry":{"x":170935.27000000142,"y":2543376.1900000013}},{"attributes":{"ID":226777,"DIS_CODE":0,"TOWNNAME":"東區","LI":"小東里","LIN":"1鄰","STREET":"小東路","SECT":" ","MAREA":" ","LANE":" ","ALLEY":" ","HOUSE_NO":"１５２號","E_COORD97":170747.60999999999,"N_COORD97":2544488.3700000001,"ADDRESS":"小東路１５２號","OBJECTID":226773},"geometry":{"x":170747.61000000127,"y":2544488.3700000029}},{"attributes":{"ID":226778,"DIS_CODE":0,"TOWNNAME":"永康區","LI":"復華里","LIN":"29鄰","STREET":"國華街","SECT":" ","MAREA":" ","LANE":" ","ALLEY":" ","HOUSE_NO":"１０５號","E_COORD97":172626.47,"N_COORD97":2546211.3100000001,"ADDRESS":"國華街１０５號","OBJECTID":226774},"geometry":{"x":172626.47000000067,"y":2546211.3100000005}},{"attributes":{"ID":226779,"DIS_CODE":0,"TOWNNAME":"永康區","LI":"復華里","LIN":"29鄰","STREET":"國華街","SECT":" ","MAREA":" ","LANE":" ","ALLEY":" ","HOUSE_NO":"１１１號","E_COORD97":172633.5,"N_COORD97":2546225.3100000001,"ADDRESS":"國華街１１１號","OBJECTID":226775},"geometry":{"x":172633.50000000093,"y":2546225.3100000005}},{"attributes":{"ID":226780,"DIS_CODE":0,"TOWNNAME":"永康區","LI":"復華里","LIN":"29鄰","STREET":"國華街","SECT":" ","MAREA":" ","LANE":" ","ALLEY":" ","HOUSE_NO":"１１９號","E_COORD97":172642.20000000001,"N_COORD97":2546243.8100000001,"ADDRESS":"國華街１１９號","OBJECTID":226776},"geometry":{"x":172642.20000000112,"y":2546243.8100000024}},{"attributes":{"ID":226781,"DIS_CODE":0,"TOWNNAME":"永康區","LI":"復華里","LIN":"29鄰","STREET":"復國一路","SECT":" ","MAREA":" ","LANE":" ","ALLEY":" ","HOUSE_NO":"５０８號","E_COORD97":172594.67999999999,"N_COORD97":2546181.6899999999,"ADDRESS":"復國一路５０８號","OBJECTID":226777},"geometry":{"x":172594.6799999997,"y":2546181.6899999995}},{"attributes":{"ID":226782,"DIS_CODE":0,"TOWNNAME":"永康區","LI":"復華里","LIN":"29鄰","STREET":"復國一路","SECT":" ","MAREA":" ","LANE":" ","ALLEY":" ","HOUSE_NO":"４９２號","E_COORD97":172619.35999999999,"N_COORD97":2546150.6899999999,"ADDRESS":"復國一路４９２號","OBJECTID":226778},"geometry":{"x":172619.36000000127,"y":2546150.6899999995}},{"attributes":{"ID":226783,"DIS_CODE":0,"TOWNNAME":"永康區","LI":"復華里","LIN":"29鄰","STREET":"國華街","SECT":" ","MAREA":" ","LANE":"１２３巷","ALLEY":" ","HOUSE_NO":"２１號","E_COORD97":172599.06,"N_COORD97":2546220.75,"ADDRESS":"國華街１２３巷２１號","OBJECTID":226779},"geometry":{"x":172599.05999999959,"y":2546220.7500000019}},{"attributes":{"ID":226784,"DIS_CODE":0,"TOWNNAME":"永康區","LI":"復國里","LIN":"29鄰","STREET":"復華二街","SECT":" ","MAREA":" ","LANE":"１巷","ALLEY":" ","HOUSE_NO":"２３號","E_COORD97":172683.48000000001,"N_COORD97":2545275.5299999998,"ADDRESS":"復華二街１巷２３號","OBJECTID":226780},"geometry":{"x":172683.48000000045,"y":2545275.5300000012}},{"attributes":{"ID":226785,"DIS_CODE":0,"TOWNNAME":"永康區","LI":"復華里","LIN":"29鄰","STREET":"國華街","SECT":" ","MAREA":" ","LANE":"１３６巷","ALLEY":" ","HOUSE_NO":"３號","E_COORD97":172649.76999999999,"N_COORD97":2546203.5800000001,"ADDRESS":"國華街１３６巷３號","OBJECTID":226781},"geometry":{"x":172649.77000000048,"y":2546203.5799999982}},{"attributes":{"ID":226786,"DIS_CODE":0,"TOWNNAME":"永康區","LI":"崑山里","LIN":"29鄰","STREET":"大仁街","SECT":" ","MAREA":" ","LANE":"１２５巷","ALLEY":" ","HOUSE_NO":"１號","E_COORD97":173832.60000000001,"N_COORD97":2544848.8399999999,"ADDRESS":"大仁街１２５巷１號","OBJECTID":226782},"geometry":{"x":173832.60000000056,"y":2544848.839999998}},{"attributes":{"ID":226787,"DIS_CODE":0,"TOWNNAME":"永康區","LI":"崑山里","LIN":"29鄰","STREET":"大仁街","SECT":" ","MAREA":" ","LANE":"１２５巷","ALLEY":" ","HOUSE_NO":"７號","E_COORD97":173821.56,"N_COORD97":2544854.1000000001,"ADDRESS":"大仁街１２５巷７號","OBJECTID":226783},"geometry":{"x":173821.55999999959,"y":2544854.1000000015}},{"attributes":{"ID":226788,"DIS_CODE":0,"TOWNNAME":"永康區","LI":"\u25A0行里","LIN":"29鄰","STREET":"竹林街","SECT":" ","MAREA":" ","LANE":"１４巷","ALLEY":" ","HOUSE_NO":"３之６號","E_COORD97":172732.51999999999,"N_COORD97":2548982.29,"ADDRESS":"竹林街１４巷３之６號","OBJECTID":226784},"geometry":{"x":172732.52000000048,"y":2548982.290000001}},{"attributes":{"ID":226789,"DIS_CODE":0,"TOWNNAME":"南區","LI":"永寧里","LIN":"3鄰","STREET":"灣裡路","SECT":" ","MAREA":" ","LANE":"１４８巷","ALLEY":" ","HOUSE_NO":"９號","E_COORD97":166000.20999999999,"N_COORD97":2536705.46,"ADDRESS":"灣裡路１４８巷９號","OBJECTID":226785},"geometry":{"x":166000.21000000089,"y":2536705.459999999}},{"attributes":{"ID":226790,"DIS_CODE":0,"TOWNNAME":"南區","LI":"大忠里","LIN":"3鄰","STREET":"大同路","SECT":"二段","MAREA":" ","LANE":"４８２巷","ALLEY":" ","HOUSE_NO":"２９號","E_COORD97":169394.26000000001,"N_COORD97":2541456.6299999999,"ADDRESS":"大同路二段４８２巷２９號","OBJECTID":226786},"geometry":{"x":169394.25999999978,"y":2541456.6300000008}},{"attributes":{"ID":226791,"DIS_CODE":0,"TOWNNAME":"東區","LI":"東光里","LIN":"10鄰","STREET":"怡東路","SECT":" ","MAREA":" ","LANE":"１５０巷","ALLEY":" ","HOUSE_NO":"２號","E_COORD97":170917.10999999999,"N_COORD97":2543894.98,"ADDRESS":"怡東路１５０巷２號","OBJECTID":226787},"geometry":{"x":170917.11000000127,"y":2543894.9800000004}},{"attributes":{"ID":226792,"DIS_CODE":0,"TOWNNAME":"東區","LI":"東光里","LIN":"10鄰","STREET":"怡東路","SECT":" ","MAREA":" ","LANE":"１５０巷","ALLEY":" ","HOUSE_NO":"８號","E_COORD97":170921.70999999999,"N_COORD97":2543913.6400000001,"ADDRESS":"怡東路１５０巷８號","OBJECTID":226788},"geometry":{"x":170921.70999999996,"y":2543913.6400000025}},{"attributes":{"ID":226793,"DIS_CODE":0,"TOWNNAME":"東區","LI":"東光里","LIN":"10鄰","STREET":"怡東路","SECT":" ","MAREA":" ","LANE":"１５０巷","ALLEY":" ","HOUSE_NO":"１０號","E_COORD97":170923.72,"N_COORD97":2543921.96,"ADDRESS":"怡東路１５０巷１０號","OBJECTID":226789},"geometry":{"x":170923.71999999881,"y":2543921.9600000028}},{"attributes":{"ID":226794,"DIS_CODE":0,"TOWNNAME":"東區","LI":"小東里","LIN":"17鄰","STREET":"光明街","SECT":" ","MAREA":" ","LANE":"１０２巷","ALLEY":" ","HOUSE_NO":"２號","E_COORD97":170898.51999999999,"N_COORD97":2544075.3700000001,"ADDRESS":"光明街１０２巷２號","OBJECTID":226790},"geometry":{"x":170898.52000000048,"y":2544075.3700000029}},{"attributes":{"ID":226795,"DIS_CODE":0,"TOWNNAME":"東區","LI":"小東里","LIN":"17鄰","STREET":"光明街","SECT":" ","MAREA":" ","LANE":"１０２巷","ALLEY":" ","HOUSE_NO":"６號","E_COORD97":170886,"N_COORD97":2544075.3700000001,"ADDRESS":"光明街１０２巷６號","OBJECTID":226791},"geometry":{"x":170886,"y":2544075.3700000029}},{"attributes":{"ID":226796,"DIS_CODE":0,"TOWNNAME":"東區","LI":"泉南里","LIN":"34鄰","STREET":"林森路","SECT":"一段","MAREA":" ","LANE":" ","ALLEY":" ","HOUSE_NO":"１５１號二十二樓之１","E_COORD97":169521.72,"N_COORD97":2542559.71,"ADDRESS":"林森路一段１５１號二十二樓之１","OBJECTID":226792},"geometry":{"x":169521.71999999974,"y":2542559.7100000028}},{"attributes":{"ID":226797,"DIS_CODE":0,"TOWNNAME":"仁德區","LI":"仁義里","LIN":"34鄰","STREET":"正義二街","SECT":" ","MAREA":" ","LANE":" ","ALLEY":" ","HOUSE_NO":"１５６號二樓","E_COORD97":173784.87,"N_COORD97":2541581.02,"ADDRESS":"正義二街１５６號二樓","OBJECTID":226793},"geometry":{"x":173784.87000000104,"y":2541581.0199999996}},{"attributes":{"ID":226798,"DIS_CODE":0,"TOWNNAME":"仁德區","LI":"仁義里","LIN":"34鄰","STREET":"正義二街","SECT":" ","MAREA":" ","LANE":" ","ALLEY":" ","HOUSE_NO":"１６０號五樓","E_COORD97":173812.42000000001,"N_COORD97":2541576.52,"ADDRESS":"正義二街１６０號五樓","OBJECTID":226794},"geometry":{"x":173812.41999999993,"y":2541576.5200000014}},{"attributes":{"ID":226799,"DIS_CODE":0,"TOWNNAME":"仁德區","LI":"仁義里","LIN":"34鄰","STREET":"正義二街","SECT":" ","MAREA":" ","LANE":" ","ALLEY":" ","HOUSE_NO":"１５３號二樓","E_COORD97":173807.57999999999,"N_COORD97":2541602.5099999998,"ADDRESS":"正義二街１５３號二樓","OBJECTID":226795},"geometry":{"x":173807.58000000101,"y":2541602.5099999998}},{"attributes":{"ID":226800,"DIS_CODE":0,"TOWNNAME":"仁德區","LI":"仁義里","LIN":"34鄰","STREET":"正義二街","SECT":" ","MAREA":" ","LANE":" ","ALLEY":" ","HOUSE_NO":"１５５號一樓","E_COORD97":173817.62,"N_COORD97":2541598.2599999998,"ADDRESS":"正義二街１５５號一樓","OBJECTID":226796},"geometry":{"x":173817.62000000104,"y":2541598.2600000035}},{"attributes":{"ID":226801,"DIS_CODE":0,"TOWNNAME":"仁德區","LI":"仁義里","LIN":"34鄰","STREET":"正義二街","SECT":" ","MAREA":" ","LANE":" ","ALLEY":" ","HOUSE_NO":"１５６號一樓","E_COORD97":173784.87,"N_COORD97":2541581.02,"ADDRESS":"正義二街１５６號一樓","OBJECTID":226797},"geometry":{"x":173784.87000000104,"y":2541581.0199999996}},{"attributes":{"ID":226802,"DIS_CODE":0,"TOWNNAME":"安南區","LI":"\u25A0南里","LIN":"29鄰","STREET":"安昌街","SECT":" ","MAREA":" ","LANE":"２８４巷","ALLEY":" ","HOUSE_NO":"５號","E_COORD97":170172.38,"N_COORD97":2552747.0899999999,"ADDRESS":"安昌街２８４巷５號","OBJECTID":226798},"geometry":{"x":170172.38000000082,"y":2552747.0900000036}},{"attributes":{"ID":226803,"DIS_CODE":0,"TOWNNAME":"東區","LI":"富裕里","LIN":"15鄰","STREET":"東門路","SECT":"二段","MAREA":" ","LANE":"３０１巷","ALLEY":" ","HOUSE_NO":"７５號","E_COORD97":170915.97,"N_COORD97":2542734.6000000001,"ADDRESS":"東門路二段３０１巷７５號","OBJECTID":226799},"geometry":{"x":170915.97000000067,"y":2542734.5999999978}},{"attributes":{"ID":226804,"DIS_CODE":0,"TOWNNAME":"安南區","LI":"\u25A0南里","LIN":"29鄰","STREET":"安昌街","SECT":" ","MAREA":" ","LANE":"２８４巷","ALLEY":" ","HOUSE_NO":"９號","E_COORD97":170192.57999999999,"N_COORD97":2552754.5299999998,"ADDRESS":"安昌街２８４巷９號","OBJECTID":226800},"geometry":{"x":170192.58000000007,"y":2552754.5300000012}}]}