{"displayFieldName":"TOWNNAME","fieldAliases":{"ID":"ID","DIS_CODE":"DIS_CODE","TOWNNAME":"TOWNNAME","LI":"LI","LIN":"LIN","STREET":"STREET","SECT":"SECT","MAREA":"MAREA","LANE":"LANE","ALLEY":"ALLEY","HOUSE_NO":"HOUSE_NO","E_COORD97":"E_COORD97","N_COORD97":"N_COORD97","ADDRESS":"ADDRESS","OBJECTID":"OBJECTID"},"geometryType":"esriGeometryPoint","spatialReference":{"wkid":102443,"latestWkid":3826},"fields":[{"name":"ID","type":"esriFieldTypeDouble","alias":"ID"},{"name":"DIS_CODE","type":"esriFieldTypeInteger","alias":"DIS_CODE"},{"name":"TOWNNAME","type":"esriFieldTypeString","alias":"TOWNNAME","length":8},{"name":"LI","type":"esriFieldTypeString","alias":"LI","length":8},{"name":"LIN","type":"esriFieldTypeString","alias":"LIN","length":12},{"name":"STREET","type":"esriFieldTypeString","alias":"STREET","length":20},{"name":"SECT","type":"esriFieldTypeString","alias":"SECT","length":8},{"name":"MAREA","type":"esriFieldTypeString","alias":"MAREA","length":12},{"name":"LANE","type":"esriFieldTypeString","alias":"LANE","length":10},{"name":"ALLEY","type":"esriFieldTypeString","alias":"ALLEY","length":10},{"name":"HOUSE_NO","type":"esriFieldTypeString","alias":"HOUSE_NO","length":20},{"name":"E_COORD97","type":"esriFieldTypeDouble","alias":"E_COORD97"},{"name":"N_COORD97","type":"esriFieldTypeDouble","alias":"N_COORD97"},{"name":"ADDRESS","type":"esriFieldTypeString","alias":"ADDRESS","length":50},{"name":"OBJECTID","type":"esriFieldTypeOID","alias":"OBJECTID"}],"features":[{"attributes":{"ID":306409,"DIS_CODE":0,"TOWNNAME":"楠西區","LI":"灣丘里","LIN":"13鄰","STREET":" ","SECT":" ","MAREA":"鳳興","LANE":" ","ALLEY":" ","HOUSE_NO":"３號之１","E_COORD97":198563.35000000001,"N_COORD97":2562747.2999999998,"ADDRESS":"鳳興３號之１","OBJECTID":306401},"geometry":{"x":198563.35000000056,"y":2562747.3000000007}},{"attributes":{"ID":306410,"DIS_CODE":0,"TOWNNAME":"楠西區","LI":"灣丘里","LIN":"15鄰","STREET":" ","SECT":" ","MAREA":"鳳興","LANE":" ","ALLEY":" ","HOUSE_NO":"４７號","E_COORD97":198996.47,"N_COORD97":2562458.25,"ADDRESS":"鳳興４７號","OBJECTID":306402},"geometry":{"x":198996.47000000067,"y":2562458.25}},{"attributes":{"ID":306411,"DIS_CODE":0,"TOWNNAME":"楠西區","LI":"龜丹里","LIN":"4鄰","STREET":" ","SECT":" ","MAREA":"龜丹","LANE":" ","ALLEY":" ","HOUSE_NO":"４０號之１６","E_COORD97":198820.13,"N_COORD97":2558980.2999999998,"ADDRESS":"龜丹４０號之１６","OBJECTID":306403},"geometry":{"x":198820.12999999989,"y":2558980.3000000007}},{"attributes":{"ID":306412,"DIS_CODE":0,"TOWNNAME":"楠西區","LI":"灣丘里","LIN":"4鄰","STREET":" ","SECT":" ","MAREA":"灣丘","LANE":" ","ALLEY":" ","HOUSE_NO":"３４號之６","E_COORD97":200208.70999999999,"N_COORD97":2563816.2999999998,"ADDRESS":"灣丘３４號之６","OBJECTID":306404},"geometry":{"x":200208.71000000089,"y":2563816.3000000045}},{"attributes":{"ID":306413,"DIS_CODE":0,"TOWNNAME":"楠西區","LI":"密枝里","LIN":"4鄰","STREET":" ","SECT":" ","MAREA":"密枝","LANE":" ","ALLEY":" ","HOUSE_NO":"４１號之４","E_COORD97":201235.92999999999,"N_COORD97":2566723.2999999998,"ADDRESS":"密枝４１號之４","OBJECTID":306405},"geometry":{"x":201235.93000000063,"y":2566723.3000000007}},{"attributes":{"ID":306414,"DIS_CODE":0,"TOWNNAME":"楠西區","LI":"龜丹里","LIN":"4鄰","STREET":" ","SECT":" ","MAREA":"龜丹","LANE":" ","ALLEY":" ","HOUSE_NO":"５０號之７","E_COORD97":198499.14999999999,"N_COORD97":2559271.2999999998,"ADDRESS":"龜丹５０號之７","OBJECTID":306406},"geometry":{"x":198499.1500000013,"y":2559271.3000000007}},{"attributes":{"ID":306415,"DIS_CODE":0,"TOWNNAME":"新化區","LI":"太平里","LIN":"8鄰","STREET":"中正路","SECT":" ","MAREA":" ","LANE":"６６２巷","ALLEY":" ","HOUSE_NO":"１號","E_COORD97":178669.41,"N_COORD97":2549481.25,"ADDRESS":"中正路６６２巷１號","OBJECTID":306407},"geometry":{"x":178669.41000000015,"y":2549481.2500000037}},{"attributes":{"ID":306416,"DIS_CODE":0,"TOWNNAME":"楠西區","LI":"密枝里","LIN":"4鄰","STREET":" ","SECT":" ","MAREA":"密枝","LANE":" ","ALLEY":" ","HOUSE_NO":"３７號","E_COORD97":201111.17000000001,"N_COORD97":2566430.2799999998,"ADDRESS":"密枝３７號","OBJECTID":306408},"geometry":{"x":201111.17000000086,"y":2566430.2800000012}},{"attributes":{"ID":306417,"DIS_CODE":0,"TOWNNAME":"新化區","LI":"太平里","LIN":"8鄰","STREET":"中正路","SECT":" ","MAREA":" ","LANE":"５９０巷","ALLEY":" ","HOUSE_NO":"５號","E_COORD97":178802.20999999999,"N_COORD97":2549245.25,"ADDRESS":"中正路５９０巷５號","OBJECTID":306409},"geometry":{"x":178802.21000000089,"y":2549245.2500000019}},{"attributes":{"ID":306418,"DIS_CODE":0,"TOWNNAME":"楠西區","LI":"灣丘里","LIN":"13鄰","STREET":" ","SECT":" ","MAREA":"鳳興","LANE":" ","ALLEY":" ","HOUSE_NO":"２號","E_COORD97":198549.51999999999,"N_COORD97":2562779.25,"ADDRESS":"鳳興２號","OBJECTID":306410},"geometry":{"x":198549.51999999955,"y":2562779.2500000019}},{"attributes":{"ID":306419,"DIS_CODE":0,"TOWNNAME":"新化區","LI":"太平里","LIN":"8鄰","STREET":"中正路","SECT":" ","MAREA":" ","LANE":"６６２巷","ALLEY":" ","HOUSE_NO":"１６號","E_COORD97":178701.95999999999,"N_COORD97":2549458.25,"ADDRESS":"中正路６６２巷１６號","OBJECTID":306411},"geometry":{"x":178701.96000000089,"y":2549458.2500000019}},{"attributes":{"ID":306420,"DIS_CODE":0,"TOWNNAME":"新化區","LI":"協興里","LIN":"8鄰","STREET":"太平街","SECT":" ","MAREA":" ","LANE":"１５０巷","ALLEY":" ","HOUSE_NO":"８號之２","E_COORD97":178371.07999999999,"N_COORD97":2548737.2599999998,"ADDRESS":"太平街１５０巷８號之２","OBJECTID":306412},"geometry":{"x":178371.08000000101,"y":2548737.2599999998}},{"attributes":{"ID":306421,"DIS_CODE":0,"TOWNNAME":"山上區","LI":"明和里","LIN":"20鄰","STREET":" ","SECT":" ","MAREA":"明和","LANE":" ","ALLEY":" ","HOUSE_NO":"７５之１２號","E_COORD97":182336.75092799999,"N_COORD97":2555784.8875799999,"ADDRESS":"明和７５之１２號","OBJECTID":306413},"geometry":{"x":182336.75092800055,"y":2555784.8875790015}},{"attributes":{"ID":306422,"DIS_CODE":0,"TOWNNAME":"楠西區","LI":"鹿田里","LIN":"4鄰","STREET":" ","SECT":" ","MAREA":"鹿陶洋","LANE":" ","ALLEY":" ","HOUSE_NO":"５４號","E_COORD97":197824.92000000001,"N_COORD97":2561569.25,"ADDRESS":"鹿陶洋５４號","OBJECTID":306414},"geometry":{"x":197824.91999999993,"y":2561569.2500000019}},{"attributes":{"ID":306423,"DIS_CODE":0,"TOWNNAME":"楠西區","LI":"楠西里","LIN":"26鄰","STREET":"茄拔路","SECT":" ","MAREA":" ","LANE":"２巷","ALLEY":" ","HOUSE_NO":"１２５號","E_COORD97":197038.04000000001,"N_COORD97":2563530.2799999998,"ADDRESS":"茄拔路２巷１２５號","OBJECTID":306415},"geometry":{"x":197038.0400000019,"y":2563530.2800000012}},{"attributes":{"ID":306424,"DIS_CODE":0,"TOWNNAME":"楠西區","LI":"龜丹里","LIN":"4鄰","STREET":" ","SECT":" ","MAREA":"龜丹","LANE":" ","ALLEY":" ","HOUSE_NO":"４６號","E_COORD97":198386.44,"N_COORD97":2559192.25,"ADDRESS":"龜丹４６號","OBJECTID":306416},"geometry":{"x":198386.44000000041,"y":2559192.2500000019}},{"attributes":{"ID":306425,"DIS_CODE":0,"TOWNNAME":"新化區","LI":"太平里","LIN":"8鄰","STREET":"中正路","SECT":" ","MAREA":" ","LANE":"６６２巷","ALLEY":" ","HOUSE_NO":"１０號","E_COORD97":178682.26000000001,"N_COORD97":2549473.25,"ADDRESS":"中正路６６２巷１０號","OBJECTID":306417},"geometry":{"x":178682.25999999978,"y":2549473.25}},{"attributes":{"ID":306426,"DIS_CODE":0,"TOWNNAME":"新化區","LI":"太平里","LIN":"8鄰","STREET":"中正路","SECT":" ","MAREA":" ","LANE":"６６２巷","ALLEY":" ","HOUSE_NO":"２７號","E_COORD97":178734.26000000001,"N_COORD97":2549487.25,"ADDRESS":"中正路６６２巷２７號","OBJECTID":306418},"geometry":{"x":178734.25999999978,"y":2549487.25}},{"attributes":{"ID":306427,"DIS_CODE":0,"TOWNNAME":"新化區","LI":"太平里","LIN":"8鄰","STREET":"中正路","SECT":" ","MAREA":" ","LANE":"５９０巷","ALLEY":" ","HOUSE_NO":"７號","E_COORD97":178798.51000000001,"N_COORD97":2549252.2400000002,"ADDRESS":"中正路５９０巷７號","OBJECTID":306419},"geometry":{"x":178798.51000000071,"y":2549252.2400000021}},{"attributes":{"ID":306428,"DIS_CODE":0,"TOWNNAME":"楠西區","LI":"灣丘里","LIN":"20鄰","STREET":" ","SECT":" ","MAREA":"香蕉山","LANE":" ","ALLEY":" ","HOUSE_NO":"３２號","E_COORD97":204995.19,"N_COORD97":2564712.25,"ADDRESS":"香蕉山３２號","OBJECTID":306420},"geometry":{"x":204995.19000000134,"y":2564712.2500000019}},{"attributes":{"ID":306429,"DIS_CODE":0,"TOWNNAME":"新化區","LI":"太平里","LIN":"8鄰","STREET":"中正路","SECT":" ","MAREA":" ","LANE":"６６２巷","ALLEY":" ","HOUSE_NO":"２號","E_COORD97":178690.41,"N_COORD97":2549459.25,"ADDRESS":"中正路６６２巷２號","OBJECTID":306421},"geometry":{"x":178690.41000000201,"y":2549459.25}},{"attributes":{"ID":306430,"DIS_CODE":0,"TOWNNAME":"楠西區","LI":"鹿田里","LIN":"13鄰","STREET":" ","SECT":" ","MAREA":"油車","LANE":" ","ALLEY":" ","HOUSE_NO":"６３號","E_COORD97":197818.44,"N_COORD97":2562814.25,"ADDRESS":"油車６３號","OBJECTID":306422},"geometry":{"x":197818.44000000041,"y":2562814.25}},{"attributes":{"ID":306431,"DIS_CODE":0,"TOWNNAME":"楠西區","LI":"灣丘里","LIN":"14鄰","STREET":" ","SECT":" ","MAREA":"鳳興","LANE":" ","ALLEY":" ","HOUSE_NO":"２１號","E_COORD97":198643.17000000001,"N_COORD97":2562630.25,"ADDRESS":"鳳興２１號","OBJECTID":306423},"geometry":{"x":198643.17000000086,"y":2562630.2500000019}},{"attributes":{"ID":306432,"DIS_CODE":0,"TOWNNAME":"新化區","LI":"東榮里","LIN":"8鄰","STREET":"信義路","SECT":" ","MAREA":" ","LANE":"１１７巷","ALLEY":" ","HOUSE_NO":"２８號之６８","E_COORD97":179826.39000000001,"N_COORD97":2548282.2599999998,"ADDRESS":"信義路１１７巷２８號之６８","OBJECTID":306424},"geometry":{"x":179826.3900000006,"y":2548282.2599999998}},{"attributes":{"ID":306433,"DIS_CODE":0,"TOWNNAME":"新化區","LI":"東榮里","LIN":"8鄰","STREET":"信義路","SECT":" ","MAREA":" ","LANE":"１１７巷","ALLEY":" ","HOUSE_NO":"７３號之９","E_COORD97":179776.62,"N_COORD97":2548254.2599999998,"ADDRESS":"信義路１１７巷７３號之９","OBJECTID":306425},"geometry":{"x":179776.62000000011,"y":2548254.2600000016}},{"attributes":{"ID":306434,"DIS_CODE":0,"TOWNNAME":"新化區","LI":"東榮里","LIN":"8鄰","STREET":"信義路","SECT":" ","MAREA":" ","LANE":"１１７巷","ALLEY":" ","HOUSE_NO":"２８號之６４","E_COORD97":179806.45999999999,"N_COORD97":2548265.2599999998,"ADDRESS":"信義路１１７巷２８號之６４","OBJECTID":306426},"geometry":{"x":179806.45999999996,"y":2548265.2600000016}},{"attributes":{"ID":306435,"DIS_CODE":0,"TOWNNAME":"新化區","LI":"東榮里","LIN":"8鄰","STREET":"信義路","SECT":" ","MAREA":" ","LANE":"１１７巷","ALLEY":" ","HOUSE_NO":"３０號之１１","E_COORD97":179753.35999999999,"N_COORD97":2548269.2599999998,"ADDRESS":"信義路１１７巷３０號之１１","OBJECTID":306427},"geometry":{"x":179753.36000000034,"y":2548269.2599999998}},{"attributes":{"ID":306436,"DIS_CODE":0,"TOWNNAME":"新化區","LI":"豐榮里","LIN":"8鄰","STREET":"大智路","SECT":" ","MAREA":" ","LANE":"７７巷","ALLEY":" ","HOUSE_NO":"２８號","E_COORD97":178301.32999999999,"N_COORD97":2548282.25,"ADDRESS":"大智路７７巷２８號","OBJECTID":306428},"geometry":{"x":178301.33000000101,"y":2548282.2500000019}},{"attributes":{"ID":306437,"DIS_CODE":0,"TOWNNAME":"楠西區","LI":"灣丘里","LIN":"13鄰","STREET":" ","SECT":" ","MAREA":"鳳興","LANE":" ","ALLEY":" ","HOUSE_NO":"１號之３","E_COORD97":198562.54999999999,"N_COORD97":2562754.2999999998,"ADDRESS":"鳳興１號之３","OBJECTID":306429},"geometry":{"x":198562.55000000075,"y":2562754.3000000007}},{"attributes":{"ID":306438,"DIS_CODE":0,"TOWNNAME":"新化區","LI":"豐榮里","LIN":"8鄰","STREET":"大智路","SECT":" ","MAREA":" ","LANE":"７７巷","ALLEY":" ","HOUSE_NO":"２號","E_COORD97":178258.67999999999,"N_COORD97":2548272.25,"ADDRESS":"大智路７７巷２號","OBJECTID":306430},"geometry":{"x":178258.6799999997,"y":2548272.2500000019}},{"attributes":{"ID":306439,"DIS_CODE":0,"TOWNNAME":"新化區","LI":"東榮里","LIN":"8鄰","STREET":"信義路","SECT":" ","MAREA":" ","LANE":"１１７巷","ALLEY":" ","HOUSE_NO":"２８號之４４","E_COORD97":179774.35999999999,"N_COORD97":2548295.2599999998,"ADDRESS":"信義路１１７巷２８號之４４","OBJECTID":306431},"geometry":{"x":179774.36000000127,"y":2548295.2600000016}},{"attributes":{"ID":306440,"DIS_CODE":0,"TOWNNAME":"新化區","LI":"東榮里","LIN":"8鄰","STREET":"信義路","SECT":" ","MAREA":" ","LANE":"１１７巷","ALLEY":" ","HOUSE_NO":"２８號之２８","E_COORD97":179706.98999999999,"N_COORD97":2548307.2599999998,"ADDRESS":"信義路１１７巷２８號之２８","OBJECTID":306432},"geometry":{"x":179706.99000000209,"y":2548307.2599999998}},{"attributes":{"ID":306441,"DIS_CODE":0,"TOWNNAME":"南區","LI":"光明里","LIN":"8鄰","STREET":"新興路","SECT":" ","MAREA":" ","LANE":"５３３巷","ALLEY":" ","HOUSE_NO":"４１號","E_COORD97":166678.39999999999,"N_COORD97":2541538.7999999998,"ADDRESS":"新興路５３３巷４１號","OBJECTID":306433},"geometry":{"x":166678.39999999944,"y":2541538.8000000026}},{"attributes":{"ID":306442,"DIS_CODE":0,"TOWNNAME":"南區","LI":"光明里","LIN":"8鄰","STREET":"新興路","SECT":" ","MAREA":" ","LANE":"５３３巷","ALLEY":" ","HOUSE_NO":"４５號","E_COORD97":166678.60999999999,"N_COORD97":2541528.2999999998,"ADDRESS":"新興路５３３巷４５號","OBJECTID":306434},"geometry":{"x":166678.61000000034,"y":2541528.3000000026}},{"attributes":{"ID":306443,"DIS_CODE":0,"TOWNNAME":"安南區","LI":"梅花里","LIN":"17鄰","STREET":"安中路","SECT":"一段","MAREA":" ","LANE":" ","ALLEY":" ","HOUSE_NO":"７７７號","E_COORD97":167380.32999999999,"N_COORD97":2549365.3900000001,"ADDRESS":"安中路一段７７７號","OBJECTID":306435},"geometry":{"x":167380.33000000007,"y":2549365.3900000043}},{"attributes":{"ID":306444,"DIS_CODE":0,"TOWNNAME":"楠西區","LI":"灣丘里","LIN":"4鄰","STREET":" ","SECT":" ","MAREA":"灣丘","LANE":" ","ALLEY":" ","HOUSE_NO":"３４號","E_COORD97":200186.26999999999,"N_COORD97":2563800.25,"ADDRESS":"灣丘３４號","OBJECTID":306436},"geometry":{"x":200186.27000000048,"y":2563800.2500000019}},{"attributes":{"ID":306445,"DIS_CODE":0,"TOWNNAME":"楠西區","LI":"龜丹里","LIN":"4鄰","STREET":" ","SECT":" ","MAREA":"龜丹","LANE":" ","ALLEY":" ","HOUSE_NO":"５３號","E_COORD97":198457.34,"N_COORD97":2559242.25,"ADDRESS":"龜丹５３號","OBJECTID":306437},"geometry":{"x":198457.33999999985,"y":2559242.2500000019}},{"attributes":{"ID":306446,"DIS_CODE":0,"TOWNNAME":"楠西區","LI":"鹿田里","LIN":"8鄰","STREET":" ","SECT":" ","MAREA":"油車","LANE":" ","ALLEY":" ","HOUSE_NO":"１８號","E_COORD97":198008.73999999999,"N_COORD97":2562029.25,"ADDRESS":"油車１８號","OBJECTID":306438},"geometry":{"x":198008.74000000115,"y":2562029.2500000019}},{"attributes":{"ID":306447,"DIS_CODE":0,"TOWNNAME":"楠西區","LI":"照興里","LIN":"1鄰","STREET":" ","SECT":" ","MAREA":"興北","LANE":" ","ALLEY":" ","HOUSE_NO":"７０號之２","E_COORD97":198392.34,"N_COORD97":2567266.2999999998,"ADDRESS":"興北７０號之２","OBJECTID":306439},"geometry":{"x":198392.34000000078,"y":2567266.3000000007}},{"attributes":{"ID":306448,"DIS_CODE":0,"TOWNNAME":"楠西區","LI":"楠西里","LIN":"4鄰","STREET":"民族路","SECT":" ","MAREA":" ","LANE":"１２３巷","ALLEY":" ","HOUSE_NO":"２號","E_COORD97":197086.5,"N_COORD97":2564300.9300000002,"ADDRESS":"民族路１２３巷２號","OBJECTID":306440},"geometry":{"x":197086.50000000093,"y":2564300.9299999997}},{"attributes":{"ID":306449,"DIS_CODE":0,"TOWNNAME":"楠西區","LI":"密枝里","LIN":"13鄰","STREET":" ","SECT":" ","MAREA":"密枝","LANE":" ","ALLEY":" ","HOUSE_NO":"５７號之１６","E_COORD97":202835.95999999999,"N_COORD97":2566939.2999999998,"ADDRESS":"密枝５７號之１６","OBJECTID":306441},"geometry":{"x":202835.95999999903,"y":2566939.3000000026}},{"attributes":{"ID":306450,"DIS_CODE":0,"TOWNNAME":"楠西區","LI":"楠西里","LIN":"24鄰","STREET":"中華路","SECT":" ","MAREA":" ","LANE":"１５０巷","ALLEY":" ","HOUSE_NO":"３８號","E_COORD97":197139.51999999999,"N_COORD97":2564277.8900000001,"ADDRESS":"中華路１５０巷３８號","OBJECTID":306442},"geometry":{"x":197139.52000000142,"y":2564277.8900000025}},{"attributes":{"ID":306451,"DIS_CODE":0,"TOWNNAME":"南區","LI":"光明里","LIN":"8鄰","STREET":"新興路","SECT":" ","MAREA":" ","LANE":"５３３巷","ALLEY":" ","HOUSE_NO":"４７號","E_COORD97":166678.29000000001,"N_COORD97":2541524.1200000001,"ADDRESS":"新興路５３３巷４７號","OBJECTID":306443},"geometry":{"x":166678.29000000004,"y":2541524.1200000029}},{"attributes":{"ID":306452,"DIS_CODE":0,"TOWNNAME":"楠西區","LI":"龜丹里","LIN":"4鄰","STREET":" ","SECT":" ","MAREA":"龜丹","LANE":" ","ALLEY":" ","HOUSE_NO":"４０號之５","E_COORD97":198583.32999999999,"N_COORD97":2559088.2999999998,"ADDRESS":"龜丹４０號之５","OBJECTID":306444},"geometry":{"x":198583.33000000007,"y":2559088.3000000007}},{"attributes":{"ID":306453,"DIS_CODE":0,"TOWNNAME":"南區","LI":"光明里","LIN":"8鄰","STREET":"新興路","SECT":" ","MAREA":" ","LANE":"５３３巷","ALLEY":" ","HOUSE_NO":"４９號","E_COORD97":166678.72,"N_COORD97":2541520.5899999999,"ADDRESS":"新興路５３３巷４９號","OBJECTID":306445},"geometry":{"x":166678.71999999974,"y":2541520.5899999999}},{"attributes":{"ID":306454,"DIS_CODE":0,"TOWNNAME":"南區","LI":"光明里","LIN":"8鄰","STREET":"新興路","SECT":" ","MAREA":" ","LANE":"５３３巷","ALLEY":" ","HOUSE_NO":"５１號","E_COORD97":166678.82000000001,"N_COORD97":2541516.6200000001,"ADDRESS":"新興路５３３巷５１號","OBJECTID":306446},"geometry":{"x":166678.8200000003,"y":2541516.6200000029}},{"attributes":{"ID":306455,"DIS_CODE":0,"TOWNNAME":"南區","LI":"光明里","LIN":"8鄰","STREET":"新興路","SECT":" ","MAREA":" ","LANE":"５３３巷","ALLEY":" ","HOUSE_NO":"５３號","E_COORD97":166678.82000000001,"N_COORD97":2541512.23,"ADDRESS":"新興路５３３巷５３號","OBJECTID":306447},"geometry":{"x":166678.8200000003,"y":2541512.2300000023}},{"attributes":{"ID":306456,"DIS_CODE":0,"TOWNNAME":"南區","LI":"光明里","LIN":"8鄰","STREET":"新興路","SECT":" ","MAREA":" ","LANE":"５３３巷","ALLEY":" ","HOUSE_NO":"５５號","E_COORD97":166679.14999999999,"N_COORD97":2541508.3700000001,"ADDRESS":"新興路５３３巷５５號","OBJECTID":306448},"geometry":{"x":166679.1500000013,"y":2541508.3700000029}},{"attributes":{"ID":306457,"DIS_CODE":0,"TOWNNAME":"南區","LI":"光明里","LIN":"8鄰","STREET":"新興路","SECT":" ","MAREA":" ","LANE":"５３３巷","ALLEY":" ","HOUSE_NO":"５７號","E_COORD97":166679.14999999999,"N_COORD97":2541504.2999999998,"ADDRESS":"新興路５３３巷５７號","OBJECTID":306449},"geometry":{"x":166679.1500000013,"y":2541504.3000000026}},{"attributes":{"ID":306458,"DIS_CODE":0,"TOWNNAME":"楠西區","LI":"龜丹里","LIN":"4鄰","STREET":" ","SECT":" ","MAREA":"龜丹","LANE":" ","ALLEY":" ","HOUSE_NO":"４９號之１","E_COORD97":198417.38,"N_COORD97":2559262.2999999998,"ADDRESS":"龜丹４９號之１","OBJECTID":306450},"geometry":{"x":198417.38000000082,"y":2559262.3000000007}},{"attributes":{"ID":306459,"DIS_CODE":0,"TOWNNAME":"南區","LI":"光明里","LIN":"8鄰","STREET":"新興路","SECT":" ","MAREA":" ","LANE":"５３３巷","ALLEY":" ","HOUSE_NO":"５９號","E_COORD97":166679.14999999999,"N_COORD97":2541500.23,"ADDRESS":"新興路５３３巷５９號","OBJECTID":306451},"geometry":{"x":166679.1500000013,"y":2541500.2300000004}},{"attributes":{"ID":306460,"DIS_CODE":0,"TOWNNAME":"楠西區","LI":"灣丘里","LIN":"14鄰","STREET":" ","SECT":" ","MAREA":"鳳興","LANE":" ","ALLEY":" ","HOUSE_NO":"１９號之２","E_COORD97":198626.23999999999,"N_COORD97":2562574.2999999998,"ADDRESS":"鳳興１９號之２","OBJECTID":306452},"geometry":{"x":198626.24000000022,"y":2562574.3000000007}},{"attributes":{"ID":306461,"DIS_CODE":0,"TOWNNAME":"南區","LI":"再興里","LIN":"8鄰","STREET":"三官路","SECT":" ","MAREA":" ","LANE":"７０巷","ALLEY":" ","HOUSE_NO":"９號","E_COORD97":167309.39999999999,"N_COORD97":2542231.8900000001,"ADDRESS":"三官路７０巷９號","OBJECTID":306453},"geometry":{"x":167309.4000000013,"y":2542231.8899999987}},{"attributes":{"ID":306462,"DIS_CODE":0,"TOWNNAME":"南區","LI":"再興里","LIN":"8鄰","STREET":"三官路","SECT":" ","MAREA":" ","LANE":"７０巷","ALLEY":" ","HOUSE_NO":"１０號","E_COORD97":167306.04000000001,"N_COORD97":2542245.1000000001,"ADDRESS":"三官路７０巷１０號","OBJECTID":306454},"geometry":{"x":167306.03999999911,"y":2542245.0999999996}},{"attributes":{"ID":306463,"DIS_CODE":0,"TOWNNAME":"楠西區","LI":"灣丘里","LIN":"14鄰","STREET":" ","SECT":" ","MAREA":"鳳興","LANE":" ","ALLEY":" ","HOUSE_NO":"１６號","E_COORD97":198613.17000000001,"N_COORD97":2562691.25,"ADDRESS":"鳳興１６號","OBJECTID":306455},"geometry":{"x":198613.16999999993,"y":2562691.2500000019}},{"attributes":{"ID":306464,"DIS_CODE":0,"TOWNNAME":"楠西區","LI":"灣丘里","LIN":"20鄰","STREET":" ","SECT":" ","MAREA":"香蕉山","LANE":" ","ALLEY":" ","HOUSE_NO":"３１號之８","E_COORD97":204894.47,"N_COORD97":2565355.2999999998,"ADDRESS":"香蕉山３１號之８","OBJECTID":306456},"geometry":{"x":204894.47000000067,"y":2565355.3000000045}},{"attributes":{"ID":306465,"DIS_CODE":0,"TOWNNAME":"南區","LI":"再興里","LIN":"8鄰","STREET":"三官路","SECT":" ","MAREA":" ","LANE":"７０巷","ALLEY":" ","HOUSE_NO":"１１號","E_COORD97":167305.06,"N_COORD97":2542232.21,"ADDRESS":"三官路７０巷１１號","OBJECTID":306457},"geometry":{"x":167305.05999999959,"y":2542232.2100000009}},{"attributes":{"ID":306466,"DIS_CODE":0,"TOWNNAME":"南區","LI":"再興里","LIN":"8鄰","STREET":"三官路","SECT":" ","MAREA":" ","LANE":"７０巷","ALLEY":" ","HOUSE_NO":"１２號","E_COORD97":167300.95999999999,"N_COORD97":2542244.5699999998,"ADDRESS":"三官路７０巷１２號","OBJECTID":306458},"geometry":{"x":167300.95999999996,"y":2542244.5700000022}},{"attributes":{"ID":306467,"DIS_CODE":0,"TOWNNAME":"楠西區","LI":"灣丘里","LIN":"13鄰","STREET":" ","SECT":" ","MAREA":"鳳興","LANE":" ","ALLEY":" ","HOUSE_NO":"７號","E_COORD97":198634.62,"N_COORD97":2562748.25,"ADDRESS":"鳳興７號","OBJECTID":306459},"geometry":{"x":198634.62000000104,"y":2562748.2500000019}},{"attributes":{"ID":306468,"DIS_CODE":0,"TOWNNAME":"楠西區","LI":"灣丘里","LIN":"14鄰","STREET":" ","SECT":" ","MAREA":"鳳興","LANE":" ","ALLEY":" ","HOUSE_NO":"１６號之１","E_COORD97":198634.29999999999,"N_COORD97":2562699.2999999998,"ADDRESS":"鳳興１６號之１","OBJECTID":306460},"geometry":{"x":198634.29999999981,"y":2562699.3000000007}},{"attributes":{"ID":306469,"DIS_CODE":0,"TOWNNAME":"安南區","LI":"梅花里","LIN":"17鄰","STREET":"安中路","SECT":"一段","MAREA":" ","LANE":" ","ALLEY":" ","HOUSE_NO":"７７９號","E_COORD97":167377.56,"N_COORD97":2549367.9399999999,"ADDRESS":"安中路一段７７９號","OBJECTID":306461},"geometry":{"x":167377.56000000052,"y":2549367.9400000013}},{"attributes":{"ID":306470,"DIS_CODE":0,"TOWNNAME":"安南區","LI":"梅花里","LIN":"17鄰","STREET":"安中路","SECT":"一段","MAREA":" ","LANE":" ","ALLEY":" ","HOUSE_NO":"７８１號","E_COORD97":167373.73000000001,"N_COORD97":2549370.4900000002,"ADDRESS":"安中路一段７８１號","OBJECTID":306462},"geometry":{"x":167373.73000000138,"y":2549370.4900000002}},{"attributes":{"ID":306471,"DIS_CODE":0,"TOWNNAME":"楠西區","LI":"楠西里","LIN":"24鄰","STREET":"中興路","SECT":" ","MAREA":" ","LANE":"６３巷","ALLEY":" ","HOUSE_NO":"１９號","E_COORD97":197134.17000000001,"N_COORD97":2564366.8900000001,"ADDRESS":"中興路６３巷１９號","OBJECTID":306463},"geometry":{"x":197134.17000000086,"y":2564366.8900000006}},{"attributes":{"ID":306472,"DIS_CODE":0,"TOWNNAME":"楠西區","LI":"密枝里","LIN":"13鄰","STREET":" ","SECT":" ","MAREA":"密枝","LANE":" ","ALLEY":" ","HOUSE_NO":"５７號之８","E_COORD97":202872.25,"N_COORD97":2566882.2999999998,"ADDRESS":"密枝５７號之８","OBJECTID":306464},"geometry":{"x":202872.25000000093,"y":2566882.3000000026}},{"attributes":{"ID":306473,"DIS_CODE":0,"TOWNNAME":"楠西區","LI":"東勢里","LIN":"13鄰","STREET":"信義路","SECT":" ","MAREA":" ","LANE":"１３７巷","ALLEY":" ","HOUSE_NO":"１８號","E_COORD97":197627.62,"N_COORD97":2563800.27,"ADDRESS":"信義路１３７巷１８號","OBJECTID":306465},"geometry":{"x":197627.62000000197,"y":2563800.2699999996}},{"attributes":{"ID":306474,"DIS_CODE":0,"TOWNNAME":"楠西區","LI":"鹿田里","LIN":"4鄰","STREET":" ","SECT":" ","MAREA":"鹿陶洋","LANE":" ","ALLEY":" ","HOUSE_NO":"５０號","E_COORD97":197787.51999999999,"N_COORD97":2561562.25,"ADDRESS":"鹿陶洋５０號","OBJECTID":306466},"geometry":{"x":197787.52000000048,"y":2561562.2500000019}},{"attributes":{"ID":306475,"DIS_CODE":0,"TOWNNAME":"楠西區","LI":"楠西里","LIN":"26鄰","STREET":"茄拔路","SECT":" ","MAREA":" ","LANE":"２巷","ALLEY":" ","HOUSE_NO":"１２１號","E_COORD97":197037.73999999999,"N_COORD97":2563537.2799999998,"ADDRESS":"茄拔路２巷１２１號","OBJECTID":306467},"geometry":{"x":197037.74000000115,"y":2563537.2800000012}},{"attributes":{"ID":306476,"DIS_CODE":0,"TOWNNAME":"南區","LI":"再興里","LIN":"8鄰","STREET":"三官路","SECT":" ","MAREA":" ","LANE":"７０巷","ALLEY":" ","HOUSE_NO":"１３號","E_COORD97":167301.14999999999,"N_COORD97":2542232.6299999999,"ADDRESS":"三官路７０巷１３號","OBJECTID":306468},"geometry":{"x":167301.1500000013,"y":2542232.6300000008}},{"attributes":{"ID":306477,"DIS_CODE":0,"TOWNNAME":"南區","LI":"再興里","LIN":"8鄰","STREET":"三官路","SECT":" ","MAREA":" ","LANE":"７０巷","ALLEY":" ","HOUSE_NO":"１４號","E_COORD97":167293.13,"N_COORD97":2542246.48,"ADDRESS":"三官路７０巷１４號","OBJECTID":306469},"geometry":{"x":167293.12999999989,"y":2542246.4800000023}},{"attributes":{"ID":306478,"DIS_CODE":0,"TOWNNAME":"楠西區","LI":"照興里","LIN":"4鄰","STREET":" ","SECT":" ","MAREA":"興北","LANE":" ","ALLEY":" ","HOUSE_NO":"４８號","E_COORD97":197854.76999999999,"N_COORD97":2567465.25,"ADDRESS":"興北４８號","OBJECTID":306470},"geometry":{"x":197854.77000000142,"y":2567465.2500000019}},{"attributes":{"ID":306479,"DIS_CODE":0,"TOWNNAME":"楠西區","LI":"照興里","LIN":"4鄰","STREET":" ","SECT":" ","MAREA":"興北","LANE":" ","ALLEY":" ","HOUSE_NO":"４６號","E_COORD97":198052.17000000001,"N_COORD97":2567045.25,"ADDRESS":"興北４６號","OBJECTID":306471},"geometry":{"x":198052.16999999993,"y":2567045.25}},{"attributes":{"ID":306480,"DIS_CODE":0,"TOWNNAME":"南區","LI":"再興里","LIN":"8鄰","STREET":"三官路","SECT":" ","MAREA":" ","LANE":"７０巷","ALLEY":" ","HOUSE_NO":"１５號","E_COORD97":167297.98000000001,"N_COORD97":2542231.5699999998,"ADDRESS":"三官路７０巷１５號","OBJECTID":306472},"geometry":{"x":167297.98000000045,"y":2542231.5700000022}},{"attributes":{"ID":306481,"DIS_CODE":0,"TOWNNAME":"南區","LI":"再興里","LIN":"8鄰","STREET":"三官路","SECT":" ","MAREA":" ","LANE":"７０巷","ALLEY":" ","HOUSE_NO":"１６號","E_COORD97":167289.42999999999,"N_COORD97":2542248.27,"ADDRESS":"三官路７０巷１６號","OBJECTID":306473},"geometry":{"x":167289.4299999997,"y":2542248.2699999996}},{"attributes":{"ID":306482,"DIS_CODE":0,"TOWNNAME":"楠西區","LI":"密枝里","LIN":"13鄰","STREET":" ","SECT":" ","MAREA":"密枝","LANE":" ","ALLEY":" ","HOUSE_NO":"５７號之２９","E_COORD97":202758.34,"N_COORD97":2566964.2999999998,"ADDRESS":"密枝５７號之２９","OBJECTID":306474},"geometry":{"x":202758.33999999985,"y":2566964.3000000007}},{"attributes":{"ID":306483,"DIS_CODE":0,"TOWNNAME":"南區","LI":"再興里","LIN":"8鄰","STREET":"三官路","SECT":" ","MAREA":" ","LANE":"７０巷","ALLEY":" ","HOUSE_NO":"１７號","E_COORD97":167294.70000000001,"N_COORD97":2542229.8799999999,"ADDRESS":"三官路７０巷１７號","OBJECTID":306475},"geometry":{"x":167294.70000000019,"y":2542229.879999999}},{"attributes":{"ID":306484,"DIS_CODE":0,"TOWNNAME":"楠西區","LI":"照興里","LIN":"13鄰","STREET":" ","SECT":" ","MAREA":"興南","LANE":" ","ALLEY":" ","HOUSE_NO":"４３號之２","E_COORD97":195494.23999999999,"N_COORD97":2563614.2999999998,"ADDRESS":"興南４３號之２","OBJECTID":306476},"geometry":{"x":195494.24000000209,"y":2563614.3000000026}},{"attributes":{"ID":306485,"DIS_CODE":0,"TOWNNAME":"南區","LI":"再興里","LIN":"8鄰","STREET":"三官路","SECT":" ","MAREA":" ","LANE":"７０巷","ALLEY":" ","HOUSE_NO":"１８號","E_COORD97":167286.14999999999,"N_COORD97":2542249.6499999999,"ADDRESS":"三官路７０巷１８號","OBJECTID":306477},"geometry":{"x":167286.1500000013,"y":2542249.6500000004}},{"attributes":{"ID":306486,"DIS_CODE":0,"TOWNNAME":"南區","LI":"再興里","LIN":"8鄰","STREET":"三官路","SECT":" ","MAREA":" ","LANE":"７０巷","ALLEY":" ","HOUSE_NO":"１９號","E_COORD97":167291.31,"N_COORD97":2542232.3100000001,"ADDRESS":"三官路７０巷１９號","OBJECTID":306478},"geometry":{"x":167291.30999999959,"y":2542232.3099999987}},{"attributes":{"ID":306487,"DIS_CODE":0,"TOWNNAME":"南區","LI":"再興里","LIN":"8鄰","STREET":"三官路","SECT":" ","MAREA":" ","LANE":"７０巷","ALLEY":" ","HOUSE_NO":"２０號","E_COORD97":167282.13,"N_COORD97":2542251.02,"ADDRESS":"三官路７０巷２０號","OBJECTID":306479},"geometry":{"x":167282.13000000082,"y":2542251.0200000014}},{"attributes":{"ID":306488,"DIS_CODE":0,"TOWNNAME":"南區","LI":"再興里","LIN":"8鄰","STREET":"三官路","SECT":" ","MAREA":" ","LANE":"７０巷","ALLEY":" ","HOUSE_NO":"２１號","E_COORD97":167288.14000000001,"N_COORD97":2542234.6400000001,"ADDRESS":"三官路７０巷２１號","OBJECTID":306480},"geometry":{"x":167288.14000000153,"y":2542234.6400000025}},{"attributes":{"ID":306489,"DIS_CODE":0,"TOWNNAME":"南區","LI":"再興里","LIN":"8鄰","STREET":"三官路","SECT":" ","MAREA":" ","LANE":"７０巷","ALLEY":" ","HOUSE_NO":"２２號","E_COORD97":167278.42999999999,"N_COORD97":2542253.4500000002,"ADDRESS":"三官路７０巷２２號","OBJECTID":306481},"geometry":{"x":167278.43000000063,"y":2542253.4499999993}},{"attributes":{"ID":306490,"DIS_CODE":0,"TOWNNAME":"南區","LI":"再興里","LIN":"8鄰","STREET":"三官路","SECT":" ","MAREA":" ","LANE":"７０巷","ALLEY":" ","HOUSE_NO":"２３號","E_COORD97":167256.92000000001,"N_COORD97":2542247.1099999999,"ADDRESS":"三官路７０巷２３號","OBJECTID":306482},"geometry":{"x":167256.91999999993,"y":2542247.1100000013}},{"attributes":{"ID":306491,"DIS_CODE":0,"TOWNNAME":"南區","LI":"再興里","LIN":"8鄰","STREET":"三官路","SECT":" ","MAREA":" ","LANE":"７０巷","ALLEY":" ","HOUSE_NO":"２４號","E_COORD97":167274.09,"N_COORD97":2542255.25,"ADDRESS":"三官路７０巷２４號","OBJECTID":306483},"geometry":{"x":167274.09000000078,"y":2542255.25}},{"attributes":{"ID":306492,"DIS_CODE":0,"TOWNNAME":"安南區","LI":"梅花里","LIN":"17鄰","STREET":"安中路","SECT":"一段","MAREA":" ","LANE":" ","ALLEY":" ","HOUSE_NO":"７８３號","E_COORD97":167369.69,"N_COORD97":2549372.1899999999,"ADDRESS":"安中路一段７８３號","OBJECTID":306484},"geometry":{"x":167369.69000000041,"y":2549372.1899999976}},{"attributes":{"ID":306493,"DIS_CODE":0,"TOWNNAME":"安南區","LI":"梅花里","LIN":"17鄰","STREET":"安中路","SECT":"一段","MAREA":" ","LANE":" ","ALLEY":" ","HOUSE_NO":"７８５號","E_COORD97":167366.29000000001,"N_COORD97":2549374.1099999999,"ADDRESS":"安中路一段７８５號","OBJECTID":306485},"geometry":{"x":167366.29000000097,"y":2549374.1100000013}},{"attributes":{"ID":306494,"DIS_CODE":0,"TOWNNAME":"安南區","LI":"梅花里","LIN":"17鄰","STREET":"安中路","SECT":"一段","MAREA":" ","LANE":" ","ALLEY":" ","HOUSE_NO":"７８７號","E_COORD97":167362.23999999999,"N_COORD97":2549376.8700000001,"ADDRESS":"安中路一段７８７號","OBJECTID":306486},"geometry":{"x":167362.24000000022,"y":2549376.8700000029}},{"attributes":{"ID":306495,"DIS_CODE":0,"TOWNNAME":"歸仁區","LI":"南興里","LIN":"20鄰","STREET":"文化街","SECT":"三段","MAREA":" ","LANE":" ","ALLEY":" ","HOUSE_NO":"５５８號","E_COORD97":175717.637376,"N_COORD97":2541270.8959900001,"ADDRESS":"文化街三段５５８號","OBJECTID":306487},"geometry":{"x":175717.6373760011,"y":2541270.8959929999}},{"attributes":{"ID":306496,"DIS_CODE":0,"TOWNNAME":"楠西區","LI":"東勢里","LIN":"8鄰","STREET":"忠孝路","SECT":" ","MAREA":" ","LANE":"５１巷","ALLEY":" ","HOUSE_NO":"５號","E_COORD97":197639.59,"N_COORD97":2564127.25,"ADDRESS":"忠孝路５１巷５號","OBJECTID":306488},"geometry":{"x":197639.59000000078,"y":2564127.2499999981}},{"attributes":{"ID":306497,"DIS_CODE":0,"TOWNNAME":"南區","LI":"再興里","LIN":"8鄰","STREET":"三官路","SECT":" ","MAREA":" ","LANE":"７０巷","ALLEY":" ","HOUSE_NO":"２５號","E_COORD97":167234.17999999999,"N_COORD97":2542256.52,"ADDRESS":"三官路７０巷２５號","OBJECTID":306489},"geometry":{"x":167234.18000000063,"y":2542256.5199999996}},{"attributes":{"ID":306498,"DIS_CODE":0,"TOWNNAME":"南區","LI":"再興里","LIN":"8鄰","STREET":"三官路","SECT":" ","MAREA":" ","LANE":"７０巷","ALLEY":" ","HOUSE_NO":"２６號","E_COORD97":167270.17999999999,"N_COORD97":2542256.9399999999,"ADDRESS":"三官路７０巷２６號","OBJECTID":306490},"geometry":{"x":167270.1799999997,"y":2542256.9399999995}},{"attributes":{"ID":306499,"DIS_CODE":0,"TOWNNAME":"楠西區","LI":"鹿田里","LIN":"4鄰","STREET":" ","SECT":" ","MAREA":"鹿陶洋","LANE":" ","ALLEY":" ","HOUSE_NO":"５８號","E_COORD97":197818.22,"N_COORD97":2561593.25,"ADDRESS":"鹿陶洋５８號","OBJECTID":306491},"geometry":{"x":197818.22000000067,"y":2561593.25}},{"attributes":{"ID":306500,"DIS_CODE":0,"TOWNNAME":"南區","LI":"再興里","LIN":"8鄰","STREET":"三官路","SECT":" ","MAREA":" ","LANE":"７０巷","ALLEY":" ","HOUSE_NO":"２７號","E_COORD97":167202.79999999999,"N_COORD97":2542269.48,"ADDRESS":"三官路７０巷２７號","OBJECTID":306492},"geometry":{"x":167202.80000000075,"y":2542269.4800000023}},{"attributes":{"ID":306501,"DIS_CODE":0,"TOWNNAME":"楠西區","LI":"鹿田里","LIN":"4鄰","STREET":" ","SECT":" ","MAREA":"鹿陶洋","LANE":" ","ALLEY":" ","HOUSE_NO":"４７號之３","E_COORD97":197905.85000000001,"N_COORD97":2561597.2999999998,"ADDRESS":"鹿陶洋４７號之３","OBJECTID":306493},"geometry":{"x":197905.85000000056,"y":2561597.3000000007}},{"attributes":{"ID":306502,"DIS_CODE":0,"TOWNNAME":"南區","LI":"再興里","LIN":"8鄰","STREET":"三官路","SECT":" ","MAREA":" ","LANE":"７０巷","ALLEY":" ","HOUSE_NO":"２８號","E_COORD97":167266.26000000001,"N_COORD97":2542258.4199999999,"ADDRESS":"三官路７０巷２８號","OBJECTID":306494},"geometry":{"x":167266.25999999978,"y":2542258.4200000037}},{"attributes":{"ID":306503,"DIS_CODE":0,"TOWNNAME":"南區","LI":"再興里","LIN":"8鄰","STREET":"三官路","SECT":" ","MAREA":" ","LANE":"７０巷","ALLEY":" ","HOUSE_NO":"２９號","E_COORD97":167199.04000000001,"N_COORD97":2542270.0600000001,"ADDRESS":"三官路７０巷２９號","OBJECTID":306495},"geometry":{"x":167199.04000000004,"y":2542270.0600000005}},{"attributes":{"ID":306504,"DIS_CODE":0,"TOWNNAME":"南區","LI":"同安里","LIN":"8鄰","STREET":"灣裡路","SECT":" ","MAREA":" ","LANE":"３５１巷","ALLEY":" ","HOUSE_NO":"３號","E_COORD97":166202.01000000001,"N_COORD97":2536191.9100000001,"ADDRESS":"灣裡路３５１巷３號","OBJECTID":306496},"geometry":{"x":166202.00999999978,"y":2536191.9100000001}},{"attributes":{"ID":306505,"DIS_CODE":0,"TOWNNAME":"楠西區","LI":"密枝里","LIN":"13鄰","STREET":" ","SECT":" ","MAREA":"密枝","LANE":" ","ALLEY":" ","HOUSE_NO":"５７號之９","E_COORD97":202872.39000000001,"N_COORD97":2566895.2999999998,"ADDRESS":"密枝５７號之９","OBJECTID":306497},"geometry":{"x":202872.3900000006,"y":2566895.3000000026}},{"attributes":{"ID":306506,"DIS_CODE":0,"TOWNNAME":"南區","LI":"同安里","LIN":"8鄰","STREET":"灣裡路","SECT":" ","MAREA":" ","LANE":"３５１巷","ALLEY":" ","HOUSE_NO":"５號","E_COORD97":166207.70999999999,"N_COORD97":2536198.0899999999,"ADDRESS":"灣裡路３５１巷５號","OBJECTID":306498},"geometry":{"x":166207.70999999996,"y":2536198.0899999999}},{"attributes":{"ID":306507,"DIS_CODE":0,"TOWNNAME":"楠西區","LI":"灣丘里","LIN":"4鄰","STREET":" ","SECT":" ","MAREA":"灣丘","LANE":" ","ALLEY":" ","HOUSE_NO":"４３號","E_COORD97":201184.57000000001,"N_COORD97":2563692.25,"ADDRESS":"灣丘４３號","OBJECTID":306499},"geometry":{"x":201184.57000000216,"y":2563692.25}},{"attributes":{"ID":306508,"DIS_CODE":0,"TOWNNAME":"楠西區","LI":"鹿田里","LIN":"8鄰","STREET":" ","SECT":" ","MAREA":"油車","LANE":" ","ALLEY":" ","HOUSE_NO":"２３號之４","E_COORD97":197954.79999999999,"N_COORD97":2562058.2999999998,"ADDRESS":"油車２３號之４","OBJECTID":306500},"geometry":{"x":197954.80000000168,"y":2562058.3000000007}},{"attributes":{"ID":306509,"DIS_CODE":0,"TOWNNAME":"楠西區","LI":"灣丘里","LIN":"8鄰","STREET":" ","SECT":" ","MAREA":"灣丘","LANE":" ","ALLEY":" ","HOUSE_NO":"８１號之３","E_COORD97":201217,"N_COORD97":2564328.2999999998,"ADDRESS":"灣丘８１號之３","OBJECTID":306501},"geometry":{"x":201217.00000000186,"y":2564328.3000000026}},{"attributes":{"ID":306510,"DIS_CODE":0,"TOWNNAME":"楠西區","LI":"灣丘里","LIN":"8鄰","STREET":" ","SECT":" ","MAREA":"灣丘","LANE":" ","ALLEY":" ","HOUSE_NO":"８０號之３","E_COORD97":201152.5,"N_COORD97":2564435.2999999998,"ADDRESS":"灣丘８０號之３","OBJECTID":306502},"geometry":{"x":201152.50000000186,"y":2564435.3000000007}},{"attributes":{"ID":306511,"DIS_CODE":0,"TOWNNAME":"楠西區","LI":"灣丘里","LIN":"8鄰","STREET":" ","SECT":" ","MAREA":"灣丘","LANE":" ","ALLEY":" ","HOUSE_NO":"７９號","E_COORD97":201138.17000000001,"N_COORD97":2564352.25,"ADDRESS":"灣丘７９號","OBJECTID":306503},"geometry":{"x":201138.17000000086,"y":2564352.2500000019}},{"attributes":{"ID":306512,"DIS_CODE":0,"TOWNNAME":"楠西區","LI":"灣丘里","LIN":"8鄰","STREET":" ","SECT":" ","MAREA":"灣丘","LANE":" ","ALLEY":" ","HOUSE_NO":"７８號","E_COORD97":201119.97,"N_COORD97":2564373.25,"ADDRESS":"灣丘７８號","OBJECTID":306504},"geometry":{"x":201119.96999999974,"y":2564373.2500000019}},{"attributes":{"ID":306513,"DIS_CODE":0,"TOWNNAME":"楠西區","LI":"龜丹里","LIN":"8鄰","STREET":" ","SECT":" ","MAREA":"龜丹","LANE":" ","ALLEY":" ","HOUSE_NO":"１０３號之１","E_COORD97":198291.32999999999,"N_COORD97":2560338.2999999998,"ADDRESS":"龜丹１０３號之１","OBJECTID":306505},"geometry":{"x":198291.33000000101,"y":2560338.3000000026}},{"attributes":{"ID":306514,"DIS_CODE":0,"TOWNNAME":"南區","LI":"府南里","LIN":"8鄰","STREET":"金華路","SECT":"一段","MAREA":" ","LANE":"４８４巷","ALLEY":" ","HOUSE_NO":"１０１號","E_COORD97":167251.75,"N_COORD97":2541374.77,"ADDRESS":"金華路一段４８４巷１０１號","OBJECTID":306506},"geometry":{"x":167251.75,"y":2541374.7700000014}},{"attributes":{"ID":306515,"DIS_CODE":0,"TOWNNAME":"南區","LI":"府南里","LIN":"8鄰","STREET":"金華路","SECT":"一段","MAREA":" ","LANE":"４８４巷","ALLEY":" ","HOUSE_NO":"１０３號","E_COORD97":167253.95999999999,"N_COORD97":2541372.1899999999,"ADDRESS":"金華路一段４８４巷１０３號","OBJECTID":306507},"geometry":{"x":167253.95999999903,"y":2541372.1900000013}},{"attributes":{"ID":306516,"DIS_CODE":0,"TOWNNAME":"安南區","LI":"梅花里","LIN":"17鄰","STREET":"安中路","SECT":"一段","MAREA":" ","LANE":" ","ALLEY":" ","HOUSE_NO":"７８９號","E_COORD97":167360.35999999999,"N_COORD97":2549379.6400000001,"ADDRESS":"安中路一段７８９號","OBJECTID":306508},"geometry":{"x":167360.3600000022,"y":2549379.6400000006}},{"attributes":{"ID":306517,"DIS_CODE":0,"TOWNNAME":"安南區","LI":"梅花里","LIN":"17鄰","STREET":"安中路","SECT":"一段","MAREA":" ","LANE":" ","ALLEY":" ","HOUSE_NO":"７９１號","E_COORD97":167355.89000000001,"N_COORD97":2549381.3399999999,"ADDRESS":"安中路一段７９１號","OBJECTID":306509},"geometry":{"x":167355.89000000153,"y":2549381.3399999999}},{"attributes":{"ID":306518,"DIS_CODE":0,"TOWNNAME":"南區","LI":"府南里","LIN":"8鄰","STREET":"金華路","SECT":"一段","MAREA":" ","LANE":"４８４巷","ALLEY":" ","HOUSE_NO":"１０５號","E_COORD97":167257.03,"N_COORD97":2541368.9300000002,"ADDRESS":"金華路一段４８４巷１０５號","OBJECTID":306510},"geometry":{"x":167257.03000000026,"y":2541368.9299999997}},{"attributes":{"ID":306519,"DIS_CODE":0,"TOWNNAME":"南區","LI":"府南里","LIN":"8鄰","STREET":"金華路","SECT":"一段","MAREA":" ","LANE":"４８４巷","ALLEY":" ","HOUSE_NO":"１０７號","E_COORD97":167263.92000000001,"N_COORD97":2541371.1499999999,"ADDRESS":"金華路一段４８４巷１０７號","OBJECTID":306511},"geometry":{"x":167263.91999999993,"y":2541371.1500000004}},{"attributes":{"ID":306520,"DIS_CODE":0,"TOWNNAME":"南區","LI":"府南里","LIN":"8鄰","STREET":"金華路","SECT":"一段","MAREA":" ","LANE":"４８４巷","ALLEY":" ","HOUSE_NO":"１０９號","E_COORD97":167267.98000000001,"N_COORD97":2541368.6899999999,"ADDRESS":"金華路一段４８４巷１０９號","OBJECTID":306512},"geometry":{"x":167267.98000000231,"y":2541368.6900000013}},{"attributes":{"ID":306521,"DIS_CODE":0,"TOWNNAME":"南區","LI":"府南里","LIN":"8鄰","STREET":"金華路","SECT":"一段","MAREA":" ","LANE":"４８４巷","ALLEY":" ","HOUSE_NO":"１１１號","E_COORD97":167268.72,"N_COORD97":2541361.8100000001,"ADDRESS":"金華路一段４８４巷１１１號","OBJECTID":306513},"geometry":{"x":167268.71999999974,"y":2541361.8100000024}},{"attributes":{"ID":306522,"DIS_CODE":0,"TOWNNAME":"楠西區","LI":"灣丘里","LIN":"7鄰","STREET":" ","SECT":" ","MAREA":"灣丘","LANE":" ","ALLEY":" ","HOUSE_NO":"７５號","E_COORD97":200928.76999999999,"N_COORD97":2564496.25,"ADDRESS":"灣丘７５號","OBJECTID":306514},"geometry":{"x":200928.77000000048,"y":2564496.25}},{"attributes":{"ID":306523,"DIS_CODE":0,"TOWNNAME":"仁德區","LI":"成功里","LIN":"8鄰","STREET":"保華路","SECT":" ","MAREA":" ","LANE":"１５９巷","ALLEY":" ","HOUSE_NO":"２７號","E_COORD97":171049.06,"N_COORD97":2539942.2400000002,"ADDRESS":"保華路１５９巷２７號","OBJECTID":306515},"geometry":{"x":171049.06000000052,"y":2539942.2400000021}},{"attributes":{"ID":306524,"DIS_CODE":0,"TOWNNAME":"仁德區","LI":"成功里","LIN":"8鄰","STREET":"保華路","SECT":" ","MAREA":" ","LANE":"１５９巷","ALLEY":" ","HOUSE_NO":"３２號","E_COORD97":171031.79000000001,"N_COORD97":2539916.4300000002,"ADDRESS":"保華路１５９巷３２號","OBJECTID":306516},"geometry":{"x":171031.79000000004,"y":2539916.4300000016}},{"attributes":{"ID":306525,"DIS_CODE":0,"TOWNNAME":"仁德區","LI":"成功里","LIN":"8鄰","STREET":"保華路","SECT":" ","MAREA":" ","LANE":"１２９巷","ALLEY":" ","HOUSE_NO":"４２號","E_COORD97":171094.04999999999,"N_COORD97":2539946.2400000002,"ADDRESS":"保華路１２９巷４２號","OBJECTID":306517},"geometry":{"x":171094.04999999981,"y":2539946.2400000002}},{"attributes":{"ID":306526,"DIS_CODE":0,"TOWNNAME":"楠西區","LI":"灣丘里","LIN":"20鄰","STREET":" ","SECT":" ","MAREA":"香蕉山","LANE":" ","ALLEY":" ","HOUSE_NO":"３１號之２７","E_COORD97":205949.95000000001,"N_COORD97":2565155.2999999998,"ADDRESS":"香蕉山３１號之２７","OBJECTID":306518},"geometry":{"x":205949.95000000019,"y":2565155.3000000045}},{"attributes":{"ID":306527,"DIS_CODE":0,"TOWNNAME":"楠西區","LI":"灣丘里","LIN":"20鄰","STREET":" ","SECT":" ","MAREA":"香蕉山","LANE":" ","ALLEY":" ","HOUSE_NO":"３２號之３","E_COORD97":204658.62,"N_COORD97":2565185.2999999998,"ADDRESS":"香蕉山３２號之３","OBJECTID":306519},"geometry":{"x":204658.62000000011,"y":2565185.3000000007}},{"attributes":{"ID":306528,"DIS_CODE":0,"TOWNNAME":"仁德區","LI":"新田里","LIN":"8鄰","STREET":"北保路","SECT":" ","MAREA":" ","LANE":"２１９巷","ALLEY":" ","HOUSE_NO":"６號","E_COORD97":173596.95999999999,"N_COORD97":2539392.25,"ADDRESS":"北保路２１９巷６號","OBJECTID":306520},"geometry":{"x":173596.95999999996,"y":2539392.2500000019}},{"attributes":{"ID":306529,"DIS_CODE":0,"TOWNNAME":"仁德區","LI":"仁德里","LIN":"8鄰","STREET":"仁德三街","SECT":" ","MAREA":" ","LANE":"５０巷","ALLEY":" ","HOUSE_NO":"４號","E_COORD97":173232.17000000001,"N_COORD97":2541002.7599999998,"ADDRESS":"仁德三街５０巷４號","OBJECTID":306521},"geometry":{"x":173232.17000000086,"y":2541002.7600000016}},{"attributes":{"ID":306530,"DIS_CODE":0,"TOWNNAME":"仁德區","LI":"仁德里","LIN":"8鄰","STREET":"仁德三街","SECT":" ","MAREA":" ","LANE":"５０巷","ALLEY":" ","HOUSE_NO":"１１號","E_COORD97":173197.17000000001,"N_COORD97":2541020.27,"ADDRESS":"仁德三街５０巷１１號","OBJECTID":306522},"geometry":{"x":173197.16999999993,"y":2541020.2699999996}},{"attributes":{"ID":306531,"DIS_CODE":0,"TOWNNAME":"楠西區","LI":"灣丘里","LIN":"20鄰","STREET":" ","SECT":" ","MAREA":"香蕉山","LANE":" ","ALLEY":" ","HOUSE_NO":"３１號之２３","E_COORD97":205832.97,"N_COORD97":2565271.2999999998,"ADDRESS":"香蕉山３１號之２３","OBJECTID":306523},"geometry":{"x":205832.9700000016,"y":2565271.3000000026}},{"attributes":{"ID":306532,"DIS_CODE":0,"TOWNNAME":"仁德區","LI":"上崙里","LIN":"8鄰","STREET":"德善路","SECT":" ","MAREA":" ","LANE":"２９０巷","ALLEY":" ","HOUSE_NO":"４０號","E_COORD97":173891.64999999999,"N_COORD97":2538454.02,"ADDRESS":"德善路２９０巷４０號","OBJECTID":306524},"geometry":{"x":173891.65000000224,"y":2538454.0200000014}},{"attributes":{"ID":306533,"DIS_CODE":0,"TOWNNAME":"仁德區","LI":"後壁里","LIN":"8鄰","STREET":"民安路","SECT":"二段","MAREA":" ","LANE":"１３８巷","ALLEY":" ","HOUSE_NO":"１２號","E_COORD97":173647.23999999999,"N_COORD97":2539029.5600000001,"ADDRESS":"民安路二段１３８巷１２號","OBJECTID":306525},"geometry":{"x":173647.24000000115,"y":2539029.5600000005}},{"attributes":{"ID":306534,"DIS_CODE":0,"TOWNNAME":"楠西區","LI":"鹿田里","LIN":"7鄰","STREET":" ","SECT":" ","MAREA":"油車","LANE":" ","ALLEY":" ","HOUSE_NO":"１４號之１０","E_COORD97":197713.38,"N_COORD97":2561968.2999999998,"ADDRESS":"油車１４號之１０","OBJECTID":306526},"geometry":{"x":197713.37999999989,"y":2561968.3000000045}},{"attributes":{"ID":306535,"DIS_CODE":0,"TOWNNAME":"仁德區","LI":"仁義里","LIN":"8鄰","STREET":"中山路","SECT":" ","MAREA":" ","LANE":"５０９巷","ALLEY":" ","HOUSE_NO":"１３號","E_COORD97":173546.94,"N_COORD97":2541228,"ADDRESS":"中山路５０９巷１３號","OBJECTID":306527},"geometry":{"x":173546.94000000041,"y":2541228.0000000019}},{"attributes":{"ID":306536,"DIS_CODE":0,"TOWNNAME":"仁德區","LI":"成功里","LIN":"8鄰","STREET":"保華路","SECT":" ","MAREA":" ","LANE":"１４５巷","ALLEY":" ","HOUSE_NO":"１３號","E_COORD97":171069.60999999999,"N_COORD97":2539999.5,"ADDRESS":"保華路１４５巷１３號","OBJECTID":306528},"geometry":{"x":171069.61000000127,"y":2539999.5}},{"attributes":{"ID":306537,"DIS_CODE":0,"TOWNNAME":"仁德區","LI":"上崙里","LIN":"8鄰","STREET":"德南路","SECT":" ","MAREA":" ","LANE":"３６７巷","ALLEY":" ","HOUSE_NO":"６號","E_COORD97":173882.95000000001,"N_COORD97":2538348.02,"ADDRESS":"德南路３６７巷６號","OBJECTID":306529},"geometry":{"x":173882.95000000112,"y":2538348.0200000033}},{"attributes":{"ID":306538,"DIS_CODE":0,"TOWNNAME":"永康區","LI":"三合里","LIN":"8鄰","STREET":"南工街","SECT":" ","MAREA":" ","LANE":"１３５巷","ALLEY":" ","HOUSE_NO":"６號","E_COORD97":172041.51999999999,"N_COORD97":2545779.8300000001,"ADDRESS":"南工街１３５巷６號","OBJECTID":306530},"geometry":{"x":172041.51999999955,"y":2545779.8300000019}},{"attributes":{"ID":306539,"DIS_CODE":0,"TOWNNAME":"永康區","LI":"王行里","LIN":"8鄰","STREET":"王行路","SECT":" ","MAREA":" ","LANE":"３５１巷","ALLEY":" ","HOUSE_NO":"２７號","E_COORD97":175387.5,"N_COORD97":2548494.7599999998,"ADDRESS":"王行路３５１巷２７號","OBJECTID":306531},"geometry":{"x":175387.50000000093,"y":2548494.7600000016}},{"attributes":{"ID":306540,"DIS_CODE":0,"TOWNNAME":"楠西區","LI":"鹿田里","LIN":"7鄰","STREET":" ","SECT":" ","MAREA":"油車","LANE":" ","ALLEY":" ","HOUSE_NO":"１號之２５","E_COORD97":197142.82999999999,"N_COORD97":2560539.2999999998,"ADDRESS":"油車１號之２５","OBJECTID":306532},"geometry":{"x":197142.82999999914,"y":2560539.3000000007}},{"attributes":{"ID":306541,"DIS_CODE":0,"TOWNNAME":"楠西區","LI":"東勢里","LIN":"14鄰","STREET":"茄拔路","SECT":" ","MAREA":" ","LANE":"１６９巷","ALLEY":" ","HOUSE_NO":"６號","E_COORD97":197424.88,"N_COORD97":2563840.2000000002,"ADDRESS":"茄拔路１６９巷６號","OBJECTID":306533},"geometry":{"x":197424.87999999989,"y":2563840.2000000011}},{"attributes":{"ID":306542,"DIS_CODE":0,"TOWNNAME":"永康區","LI":"三合里","LIN":"8鄰","STREET":"南工街","SECT":" ","MAREA":" ","LANE":"１０３巷","ALLEY":" ","HOUSE_NO":"１０號","E_COORD97":172061.64999999999,"N_COORD97":2545727.5,"ADDRESS":"南工街１０３巷１０號","OBJECTID":306534},"geometry":{"x":172061.65000000037,"y":2545727.5000000019}},{"attributes":{"ID":306543,"DIS_CODE":0,"TOWNNAME":"中西區","LI":"青年里","LIN":"17鄰","STREET":"青年路","SECT":" ","MAREA":" ","LANE":" ","ALLEY":" ","HOUSE_NO":"３號","E_COORD97":168560.94,"N_COORD97":2543679.77,"ADDRESS":"青年路３號","OBJECTID":306535},"geometry":{"x":168560.94000000041,"y":2543679.7700000033}},{"attributes":{"ID":306544,"DIS_CODE":0,"TOWNNAME":"永康區","LI":"復國里","LIN":"8鄰","STREET":"復國二路","SECT":" ","MAREA":" ","LANE":"６１巷","ALLEY":" ","HOUSE_NO":"２３號","E_COORD97":172753.35000000001,"N_COORD97":2545099.5899999999,"ADDRESS":"復國二路６１巷２３號","OBJECTID":306536},"geometry":{"x":172753.34999999963,"y":2545099.5900000017}},{"attributes":{"ID":306545,"DIS_CODE":0,"TOWNNAME":"永康區","LI":"大橋里","LIN":"8鄰","STREET":"大橋三街","SECT":" ","MAREA":" ","LANE":"１９９巷","ALLEY":" ","HOUSE_NO":"７８號","E_COORD97":170972.92999999999,"N_COORD97":2546882.9199999999,"ADDRESS":"大橋三街１９９巷７８號","OBJECTID":306537},"geometry":{"x":170972.9299999997,"y":2546882.9200000037}},{"attributes":{"ID":306546,"DIS_CODE":0,"TOWNNAME":"永康區","LI":"復國里","LIN":"8鄰","STREET":"復國二路","SECT":" ","MAREA":" ","LANE":"６５巷","ALLEY":" ","HOUSE_NO":"６號","E_COORD97":172813.07999999999,"N_COORD97":2545176.8199999998,"ADDRESS":"復國二路６５巷６號","OBJECTID":306538},"geometry":{"x":172813.08000000007,"y":2545176.8200000003}},{"attributes":{"ID":306547,"DIS_CODE":0,"TOWNNAME":"永康區","LI":"\u25A0行里","LIN":"8鄰","STREET":"中正一街","SECT":" ","MAREA":" ","LANE":"３２巷","ALLEY":" ","HOUSE_NO":"２８號","E_COORD97":172953.01000000001,"N_COORD97":2548368.4900000002,"ADDRESS":"中正一街３２巷２８號","OBJECTID":306539},"geometry":{"x":172953.01000000071,"y":2548368.4900000021}},{"attributes":{"ID":306548,"DIS_CODE":0,"TOWNNAME":"楠西區","LI":"灣丘里","LIN":"13鄰","STREET":" ","SECT":" ","MAREA":"鳳興","LANE":" ","ALLEY":" ","HOUSE_NO":"１號之１","E_COORD97":198492.54999999999,"N_COORD97":2562843.2999999998,"ADDRESS":"鳳興１號之１","OBJECTID":306540},"geometry":{"x":198492.55000000075,"y":2562843.3000000026}},{"attributes":{"ID":306549,"DIS_CODE":0,"TOWNNAME":"楠西區","LI":"密枝里","LIN":"8鄰","STREET":" ","SECT":" ","MAREA":"密枝","LANE":" ","ALLEY":" ","HOUSE_NO":"１１０號","E_COORD97":198786.12,"N_COORD97":2568937.2799999998,"ADDRESS":"密枝１１０號","OBJECTID":306541},"geometry":{"x":198786.12000000104,"y":2568937.2799999975}},{"attributes":{"ID":306550,"DIS_CODE":0,"TOWNNAME":"永康區","LI":"西勢里","LIN":"8鄰","STREET":"富強路","SECT":"一段","MAREA":" ","LANE":"３０６巷","ALLEY":" ","HOUSE_NO":"１４號","E_COORD97":175778.20000000001,"N_COORD97":2546646.0299999998,"ADDRESS":"富強路一段３０６巷１４號","OBJECTID":306542},"geometry":{"x":175778.20000000112,"y":2546646.0299999993}},{"attributes":{"ID":306551,"DIS_CODE":0,"TOWNNAME":"永康區","LI":"三合里","LIN":"8鄰","STREET":"南工街","SECT":" ","MAREA":" ","LANE":"１４５巷","ALLEY":" ","HOUSE_NO":"２號","E_COORD97":172052.35000000001,"N_COORD97":2545799.52,"ADDRESS":"南工街１４５巷２號","OBJECTID":306543},"geometry":{"x":172052.35000000056,"y":2545799.5199999996}},{"attributes":{"ID":306552,"DIS_CODE":0,"TOWNNAME":"永康區","LI":"蔦松里","LIN":"8鄰","STREET":"中正北路","SECT":" ","MAREA":" ","LANE":"４２９巷","ALLEY":" ","HOUSE_NO":"１０號","E_COORD97":173612.67000000001,"N_COORD97":2549194.48,"ADDRESS":"中正北路４２９巷１０號","OBJECTID":306544},"geometry":{"x":173612.66999999993,"y":2549194.4800000004}},{"attributes":{"ID":306553,"DIS_CODE":0,"TOWNNAME":"永康區","LI":"東灣里","LIN":"8鄰","STREET":"大灣路","SECT":" ","MAREA":" ","LANE":"４３６巷","ALLEY":" ","HOUSE_NO":"２９號","E_COORD97":174696.95000000001,"N_COORD97":2544956.8300000001,"ADDRESS":"大灣路４３６巷２９號","OBJECTID":306545},"geometry":{"x":174696.95000000112,"y":2544956.8300000001}},{"attributes":{"ID":306554,"DIS_CODE":0,"TOWNNAME":"永康區","LI":"南灣里","LIN":"8鄰","STREET":"南興路","SECT":" ","MAREA":" ","LANE":"４８巷","ALLEY":" ","HOUSE_NO":"１４號","E_COORD97":174353,"N_COORD97":2544123.0499999998,"ADDRESS":"南興路４８巷１４號","OBJECTID":306546},"geometry":{"x":174353,"y":2544123.0500000045}},{"attributes":{"ID":306555,"DIS_CODE":0,"TOWNNAME":"楠西區","LI":"灣丘里","LIN":"8鄰","STREET":" ","SECT":" ","MAREA":"灣丘","LANE":" ","ALLEY":" ","HOUSE_NO":"８２號","E_COORD97":201255.87,"N_COORD97":2564377.25,"ADDRESS":"灣丘８２號","OBJECTID":306547},"geometry":{"x":201255.87000000104,"y":2564377.25}},{"attributes":{"ID":306556,"DIS_CODE":0,"TOWNNAME":"永康區","LI":"南灣里","LIN":"8鄰","STREET":"南興路","SECT":" ","MAREA":" ","LANE":"４８巷","ALLEY":" ","HOUSE_NO":"１２號","E_COORD97":174335.26999999999,"N_COORD97":2544118.29,"ADDRESS":"南興路４８巷１２號","OBJECTID":306548},"geometry":{"x":174335.26999999955,"y":2544118.2899999991}},{"attributes":{"ID":306557,"DIS_CODE":0,"TOWNNAME":"永康區","LI":"南灣里","LIN":"8鄰","STREET":"南興路","SECT":" ","MAREA":" ","LANE":"２巷","ALLEY":" ","HOUSE_NO":"１６號","E_COORD97":174412.91,"N_COORD97":2543965.25,"ADDRESS":"南興路２巷１６號","OBJECTID":306549},"geometry":{"x":174412.91000000015,"y":2543965.2500000019}},{"attributes":{"ID":306558,"DIS_CODE":0,"TOWNNAME":"永康區","LI":"南灣里","LIN":"8鄰","STREET":"南興路","SECT":" ","MAREA":" ","LANE":"２巷","ALLEY":" ","HOUSE_NO":"６號","E_COORD97":174295.57000000001,"N_COORD97":2543907.5800000001,"ADDRESS":"南興路２巷６號","OBJECTID":306550},"geometry":{"x":174295.57000000216,"y":2543907.5800000001}},{"attributes":{"ID":306559,"DIS_CODE":0,"TOWNNAME":"楠西區","LI":"灣丘里","LIN":"20鄰","STREET":" ","SECT":" ","MAREA":"香蕉山","LANE":" ","ALLEY":" ","HOUSE_NO":"３１號之２８","E_COORD97":205946.62,"N_COORD97":2565149.2999999998,"ADDRESS":"香蕉山３１號之２８","OBJECTID":306551},"geometry":{"x":205946.62000000104,"y":2565149.3000000026}},{"attributes":{"ID":306560,"DIS_CODE":0,"TOWNNAME":"楠西區","LI":"龜丹里","LIN":"8鄰","STREET":" ","SECT":" ","MAREA":"龜丹","LANE":" ","ALLEY":" ","HOUSE_NO":"１０７號之１","E_COORD97":198222.03,"N_COORD97":2560431.2999999998,"ADDRESS":"龜丹１０７號之１","OBJECTID":306552},"geometry":{"x":198222.03000000119,"y":2560431.3000000007}},{"attributes":{"ID":306561,"DIS_CODE":0,"TOWNNAME":"永康區","LI":"南灣里","LIN":"8鄰","STREET":"南興路","SECT":" ","MAREA":" ","LANE":"２巷","ALLEY":" ","HOUSE_NO":"７３號","E_COORD97":174786.79999999999,"N_COORD97":2544120.2400000002,"ADDRESS":"南興路２巷７３號","OBJECTID":306553},"geometry":{"x":174786.80000000168,"y":2544120.2400000002}},{"attributes":{"ID":306562,"DIS_CODE":0,"TOWNNAME":"安南區","LI":"梅花里","LIN":"17鄰","STREET":"安中路","SECT":"一段","MAREA":" ","LANE":" ","ALLEY":" ","HOUSE_NO":"７９３號","E_COORD97":167351.63,"N_COORD97":2549384.1000000001,"ADDRESS":"安中路一段７９３號","OBJECTID":306554},"geometry":{"x":167351.63000000082,"y":2549384.1000000015}},{"attributes":{"ID":306563,"DIS_CODE":0,"TOWNNAME":"楠西區","LI":"鹿田里","LIN":"7鄰","STREET":" ","SECT":" ","MAREA":"油車","LANE":" ","ALLEY":" ","HOUSE_NO":"１３號之１１","E_COORD97":197737.82999999999,"N_COORD97":2562406.2999999998,"ADDRESS":"油車１３號之１１","OBJECTID":306555},"geometry":{"x":197737.82999999914,"y":2562406.3000000026}},{"attributes":{"ID":306564,"DIS_CODE":0,"TOWNNAME":"楠西區","LI":"灣丘里","LIN":"20鄰","STREET":" ","SECT":" ","MAREA":"香蕉山","LANE":" ","ALLEY":" ","HOUSE_NO":"３１號之１６","E_COORD97":205310.78,"N_COORD97":2565180.2999999998,"ADDRESS":"香蕉山３１號之１６","OBJECTID":306556},"geometry":{"x":205310.77999999933,"y":2565180.3000000026}},{"attributes":{"ID":306565,"DIS_CODE":0,"TOWNNAME":"楠西區","LI":"龜丹里","LIN":"4鄰","STREET":" ","SECT":" ","MAREA":"龜丹","LANE":" ","ALLEY":" ","HOUSE_NO":"４１號","E_COORD97":198377.44,"N_COORD97":2559263.25,"ADDRESS":"龜丹４１號","OBJECTID":306557},"geometry":{"x":198377.44000000134,"y":2559263.2500000019}},{"attributes":{"ID":306566,"DIS_CODE":0,"TOWNNAME":"楠西區","LI":"照興里","LIN":"4鄰","STREET":" ","SECT":" ","MAREA":"興北","LANE":" ","ALLEY":" ","HOUSE_NO":"５１號","E_COORD97":197722.76999999999,"N_COORD97":2567321.25,"ADDRESS":"興北５１號","OBJECTID":306558},"geometry":{"x":197722.77000000048,"y":2567321.2500000037}},{"attributes":{"ID":306567,"DIS_CODE":0,"TOWNNAME":"楠西區","LI":"密枝里","LIN":"8鄰","STREET":" ","SECT":" ","MAREA":"密枝","LANE":" ","ALLEY":" ","HOUSE_NO":"１１５號","E_COORD97":198992.72,"N_COORD97":2569044.2799999998,"ADDRESS":"密枝１１５號","OBJECTID":306559},"geometry":{"x":198992.7200000016,"y":2569044.2800000012}},{"attributes":{"ID":306568,"DIS_CODE":0,"TOWNNAME":"安南區","LI":"新順里","LIN":"8鄰","STREET":"總安街","SECT":"一段","MAREA":" ","LANE":"３６２巷","ALLEY":" ","HOUSE_NO":"４８之１號","E_COORD97":169220.29999999999,"N_COORD97":2550538.0299999998,"ADDRESS":"總安街一段３６２巷４８之１號","OBJECTID":306560},"geometry":{"x":169220.30000000075,"y":2550538.0299999993}},{"attributes":{"ID":306569,"DIS_CODE":0,"TOWNNAME":"南區","LI":"府南里","LIN":"8鄰","STREET":"金華路","SECT":"一段","MAREA":" ","LANE":"４８４巷","ALLEY":" ","HOUSE_NO":"１１３號","E_COORD97":167248.95999999999,"N_COORD97":2541367.27,"ADDRESS":"金華路一段４８４巷１１３號","OBJECTID":306561},"geometry":{"x":167248.96000000183,"y":2541367.2700000033}},{"attributes":{"ID":306570,"DIS_CODE":0,"TOWNNAME":"楠西區","LI":"龜丹里","LIN":"4鄰","STREET":" ","SECT":" ","MAREA":"龜丹","LANE":" ","ALLEY":" ","HOUSE_NO":"４２號","E_COORD97":198394.64000000001,"N_COORD97":2559261.25,"ADDRESS":"龜丹４２號","OBJECTID":306562},"geometry":{"x":198394.63999999966,"y":2559261.25}},{"attributes":{"ID":306571,"DIS_CODE":0,"TOWNNAME":"南區","LI":"明亮里","LIN":"8鄰","STREET":"新都路","SECT":" ","MAREA":" ","LANE":"４８８巷","ALLEY":" ","HOUSE_NO":"１號","E_COORD97":167198.89000000001,"N_COORD97":2540900.52,"ADDRESS":"新都路４８８巷１號","OBJECTID":306563},"geometry":{"x":167198.8900000006,"y":2540900.5199999996}},{"attributes":{"ID":306572,"DIS_CODE":0,"TOWNNAME":"南區","LI":"明亮里","LIN":"8鄰","STREET":"新都路","SECT":" ","MAREA":" ","LANE":"４８８巷","ALLEY":" ","HOUSE_NO":"２號","E_COORD97":167209.03,"N_COORD97":2540901.75,"ADDRESS":"新都路４８８巷２號","OBJECTID":306564},"geometry":{"x":167209.03000000026,"y":2540901.75}},{"attributes":{"ID":306573,"DIS_CODE":0,"TOWNNAME":"楠西區","LI":"灣丘里","LIN":"20鄰","STREET":" ","SECT":" ","MAREA":"香蕉山","LANE":" ","ALLEY":" ","HOUSE_NO":"３２號之５","E_COORD97":204188.38,"N_COORD97":2565148.2999999998,"ADDRESS":"香蕉山３２號之５","OBJECTID":306565},"geometry":{"x":204188.38000000082,"y":2565148.2999999989}},{"attributes":{"ID":306574,"DIS_CODE":0,"TOWNNAME":"南區","LI":"明亮里","LIN":"8鄰","STREET":"新都路","SECT":" ","MAREA":" ","LANE":"４８８巷","ALLEY":" ","HOUSE_NO":"３號","E_COORD97":167199.51000000001,"N_COORD97":2540905.4300000002,"ADDRESS":"新都路４８８巷３號","OBJECTID":306566},"geometry":{"x":167199.51000000071,"y":2540905.4300000034}},{"attributes":{"ID":306575,"DIS_CODE":0,"TOWNNAME":"南區","LI":"明亮里","LIN":"8鄰","STREET":"新都路","SECT":" ","MAREA":" ","LANE":"４８８巷","ALLEY":" ","HOUSE_NO":"４號","E_COORD97":167210.26000000001,"N_COORD97":2540905.73,"ADDRESS":"新都路４８８巷４號","OBJECTID":306567},"geometry":{"x":167210.26000000071,"y":2540905.7300000004}},{"attributes":{"ID":306576,"DIS_CODE":0,"TOWNNAME":"南區","LI":"明亮里","LIN":"8鄰","STREET":"新都路","SECT":" ","MAREA":" ","LANE":"４８８巷","ALLEY":" ","HOUSE_NO":"５號","E_COORD97":167200.73999999999,"N_COORD97":2540909.4199999999,"ADDRESS":"新都路４８８巷５號","OBJECTID":306568},"geometry":{"x":167200.74000000022,"y":2540909.4200000018}},{"attributes":{"ID":306577,"DIS_CODE":0,"TOWNNAME":"南區","LI":"明亮里","LIN":"8鄰","STREET":"新都路","SECT":" ","MAREA":" ","LANE":"４８８巷","ALLEY":" ","HOUSE_NO":"６號","E_COORD97":167212.10000000001,"N_COORD97":2540910.3399999999,"ADDRESS":"新都路４８８巷６號","OBJECTID":306569},"geometry":{"x":167212.10000000149,"y":2540910.3400000017}},{"attributes":{"ID":306578,"DIS_CODE":0,"TOWNNAME":"南區","LI":"明亮里","LIN":"8鄰","STREET":"新都路","SECT":" ","MAREA":" ","LANE":"４８８巷","ALLEY":" ","HOUSE_NO":"７號","E_COORD97":167202.26999999999,"N_COORD97":2540914.3199999998,"ADDRESS":"新都路４８８巷７號","OBJECTID":306570},"geometry":{"x":167202.26999999862,"y":2540914.3200000022}},{"attributes":{"ID":306579,"DIS_CODE":0,"TOWNNAME":"南區","LI":"明亮里","LIN":"8鄰","STREET":"新都路","SECT":" ","MAREA":" ","LANE":"４８８巷","ALLEY":" ","HOUSE_NO":"８號","E_COORD97":167213.32999999999,"N_COORD97":2540915.5499999998,"ADDRESS":"新都路４８８巷８號","OBJECTID":306571},"geometry":{"x":167213.33000000101,"y":2540915.5499999989}},{"attributes":{"ID":306580,"DIS_CODE":0,"TOWNNAME":"南區","LI":"明亮里","LIN":"8鄰","STREET":"新都路","SECT":" ","MAREA":" ","LANE":"４８８巷","ALLEY":" ","HOUSE_NO":"９號","E_COORD97":167203.19,"N_COORD97":2540918.3100000001,"ADDRESS":"新都路４８８巷９號","OBJECTID":306572},"geometry":{"x":167203.19000000041,"y":2540918.3100000024}},{"attributes":{"ID":306581,"DIS_CODE":0,"TOWNNAME":"楠西區","LI":"灣丘里","LIN":"20鄰","STREET":" ","SECT":" ","MAREA":"香蕉山","LANE":" ","ALLEY":" ","HOUSE_NO":"２８號之６","E_COORD97":204871.63,"N_COORD97":2565260.29,"ADDRESS":"香蕉山２８號之６","OBJECTID":306573},"geometry":{"x":204871.62999999989,"y":2565260.290000001}},{"attributes":{"ID":306582,"DIS_CODE":0,"TOWNNAME":"南區","LI":"明亮里","LIN":"8鄰","STREET":"新都路","SECT":" ","MAREA":" ","LANE":"４８８巷","ALLEY":" ","HOUSE_NO":"１０號","E_COORD97":167214.56,"N_COORD97":2540918.6200000001,"ADDRESS":"新都路４８８巷１０號","OBJECTID":306574},"geometry":{"x":167214.56000000052,"y":2540918.620000001}},{"attributes":{"ID":306583,"DIS_CODE":0,"TOWNNAME":"南區","LI":"明亮里","LIN":"8鄰","STREET":"新都路","SECT":" ","MAREA":" ","LANE":"４８８巷","ALLEY":" ","HOUSE_NO":"１８號","E_COORD97":167218.85999999999,"N_COORD97":2540936.7200000002,"ADDRESS":"新都路４８８巷１８號","OBJECTID":306575},"geometry":{"x":167218.86000000034,"y":2540936.7200000007}},{"attributes":{"ID":306584,"DIS_CODE":0,"TOWNNAME":"南區","LI":"明亮里","LIN":"8鄰","STREET":"新都路","SECT":" ","MAREA":" ","LANE":"４８８巷","ALLEY":" ","HOUSE_NO":"１９號","E_COORD97":167209.34,"N_COORD97":2540940.1000000001,"ADDRESS":"新都路４８８巷１９號","OBJECTID":306576},"geometry":{"x":167209.34000000078,"y":2540940.0999999996}},{"attributes":{"ID":306585,"DIS_CODE":0,"TOWNNAME":"楠西區","LI":"灣丘里","LIN":"20鄰","STREET":" ","SECT":" ","MAREA":"香蕉山","LANE":" ","ALLEY":" ","HOUSE_NO":"３２號之４","E_COORD97":204803.64999999999,"N_COORD97":2565158.2999999998,"ADDRESS":"香蕉山３２號之４","OBJECTID":306577},"geometry":{"x":204803.6500000013,"y":2565158.3000000007}},{"attributes":{"ID":306586,"DIS_CODE":0,"TOWNNAME":"楠西區","LI":"鹿田里","LIN":"7鄰","STREET":" ","SECT":" ","MAREA":"油車","LANE":" ","ALLEY":" ","HOUSE_NO":"１６號之１０","E_COORD97":197745.88,"N_COORD97":2561983.2999999998,"ADDRESS":"油車１６號之１０","OBJECTID":306578},"geometry":{"x":197745.88000000175,"y":2561983.3000000026}},{"attributes":{"ID":306587,"DIS_CODE":0,"TOWNNAME":"南區","LI":"明亮里","LIN":"8鄰","STREET":"新都路","SECT":" ","MAREA":" ","LANE":"４８８巷","ALLEY":" ","HOUSE_NO":"２０號","E_COORD97":167220.09,"N_COORD97":2540941.02,"ADDRESS":"新都路４８８巷２０號","OBJECTID":306579},"geometry":{"x":167220.08999999985,"y":2540941.0199999996}},{"attributes":{"ID":306588,"DIS_CODE":0,"TOWNNAME":"楠西區","LI":"鹿田里","LIN":"7鄰","STREET":" ","SECT":" ","MAREA":"油車","LANE":" ","ALLEY":" ","HOUSE_NO":"１６號之１４","E_COORD97":197743.95000000001,"N_COORD97":2561966.2999999998,"ADDRESS":"油車１６號之１４","OBJECTID":306580},"geometry":{"x":197743.94999999925,"y":2561966.3000000026}},{"attributes":{"ID":306589,"DIS_CODE":0,"TOWNNAME":"南區","LI":"明亮里","LIN":"8鄰","STREET":"新都路","SECT":" ","MAREA":" ","LANE":"４８８巷","ALLEY":" ","HOUSE_NO":"２１號","E_COORD97":167211.17999999999,"N_COORD97":2540944.3900000001,"ADDRESS":"新都路４８８巷２１號","OBJECTID":306581},"geometry":{"x":167211.1799999997,"y":2540944.3900000025}},{"attributes":{"ID":306590,"DIS_CODE":0,"TOWNNAME":"楠西區","LI":"鹿田里","LIN":"7鄰","STREET":" ","SECT":" ","MAREA":"油車","LANE":" ","ALLEY":" ","HOUSE_NO":"１４號之３１","E_COORD97":197710.63,"N_COORD97":2561885.2999999998,"ADDRESS":"油車１４號之３１","OBJECTID":306582},"geometry":{"x":197710.63000000082,"y":2561885.3000000007}},{"attributes":{"ID":306591,"DIS_CODE":0,"TOWNNAME":"楠西區","LI":"楠西里","LIN":"4鄰","STREET":"民族路","SECT":" ","MAREA":" ","LANE":"１１７巷","ALLEY":" ","HOUSE_NO":"４號","E_COORD97":197085.48999999999,"N_COORD97":2564257.29,"ADDRESS":"民族路１１７巷４號","OBJECTID":306583},"geometry":{"x":197085.49000000022,"y":2564257.2899999991}},{"attributes":{"ID":306592,"DIS_CODE":0,"TOWNNAME":"楠西區","LI":"龜丹里","LIN":"6鄰","STREET":" ","SECT":" ","MAREA":"龜丹","LANE":" ","ALLEY":" ","HOUSE_NO":"８１號之２","E_COORD97":200177.10999999999,"N_COORD97":2560082.2999999998,"ADDRESS":"龜丹８１號之２","OBJECTID":306584},"geometry":{"x":200177.11000000034,"y":2560082.3000000007}},{"attributes":{"ID":306593,"DIS_CODE":0,"TOWNNAME":"南區","LI":"明亮里","LIN":"8鄰","STREET":"新都路","SECT":" ","MAREA":" ","LANE":"４８８巷","ALLEY":" ","HOUSE_NO":"２２號","E_COORD97":167221.32000000001,"N_COORD97":2540945,"ADDRESS":"新都路４８８巷２２號","OBJECTID":306585},"geometry":{"x":167221.3200000003,"y":2540945}},{"attributes":{"ID":306594,"DIS_CODE":0,"TOWNNAME":"南區","LI":"明亮里","LIN":"8鄰","STREET":"新都路","SECT":" ","MAREA":" ","LANE":"４８８巷","ALLEY":" ","HOUSE_NO":"２３號","E_COORD97":167212.41,"N_COORD97":2540947.7599999998,"ADDRESS":"新都路４８８巷２３號","OBJECTID":306586},"geometry":{"x":167212.41000000108,"y":2540947.7600000016}},{"attributes":{"ID":306595,"DIS_CODE":0,"TOWNNAME":"南區","LI":"明亮里","LIN":"8鄰","STREET":"新都路","SECT":" ","MAREA":" ","LANE":"４８８巷","ALLEY":" ","HOUSE_NO":"２４號","E_COORD97":167222.54999999999,"N_COORD97":2540949.2999999998,"ADDRESS":"新都路４８８巷２４號","OBJECTID":306587},"geometry":{"x":167222.54999999981,"y":2540949.3000000026}},{"attributes":{"ID":306596,"DIS_CODE":0,"TOWNNAME":"楠西區","LI":"照興里","LIN":"5鄰","STREET":" ","SECT":" ","MAREA":"興北","LANE":" ","ALLEY":" ","HOUSE_NO":"６０號","E_COORD97":197828.17000000001,"N_COORD97":2566955.25,"ADDRESS":"興北６０號","OBJECTID":306588},"geometry":{"x":197828.16999999993,"y":2566955.2500000037}},{"attributes":{"ID":306597,"DIS_CODE":0,"TOWNNAME":"楠西區","LI":"照興里","LIN":"1鄰","STREET":" ","SECT":" ","MAREA":"興北","LANE":" ","ALLEY":" ","HOUSE_NO":"７０號之１２","E_COORD97":198456.79000000001,"N_COORD97":2567707.2999999998,"ADDRESS":"興北７０號之１２","OBJECTID":306589},"geometry":{"x":198456.79000000004,"y":2567707.3000000007}},{"attributes":{"ID":306598,"DIS_CODE":0,"TOWNNAME":"南區","LI":"明亮里","LIN":"8鄰","STREET":"新都路","SECT":" ","MAREA":" ","LANE":"４８８巷","ALLEY":" ","HOUSE_NO":"２５號","E_COORD97":167212.41,"N_COORD97":2540952.6699999999,"ADDRESS":"新都路４８８巷２５號","OBJECTID":306590},"geometry":{"x":167212.41000000108,"y":2540952.6700000018}},{"attributes":{"ID":306599,"DIS_CODE":0,"TOWNNAME":"楠西區","LI":"照興里","LIN":"4鄰","STREET":" ","SECT":" ","MAREA":"興北","LANE":" ","ALLEY":" ","HOUSE_NO":"５１號之１","E_COORD97":197777.70000000001,"N_COORD97":2567099.2999999998,"ADDRESS":"興北５１號之１","OBJECTID":306591},"geometry":{"x":197777.70000000019,"y":2567099.3000000026}},{"attributes":{"ID":306600,"DIS_CODE":0,"TOWNNAME":"南區","LI":"明亮里","LIN":"8鄰","STREET":"新都路","SECT":" ","MAREA":" ","LANE":"４８８巷","ALLEY":" ","HOUSE_NO":"２６號","E_COORD97":167223.47,"N_COORD97":2540953.5899999999,"ADDRESS":"新都路４８８巷２６號","OBJECTID":306592},"geometry":{"x":167223.47000000067,"y":2540953.5899999999}},{"attributes":{"ID":306601,"DIS_CODE":0,"TOWNNAME":"南區","LI":"明亮里","LIN":"8鄰","STREET":"新都路","SECT":" ","MAREA":" ","LANE":"４８８巷","ALLEY":" ","HOUSE_NO":"２７號","E_COORD97":167213.64000000001,"N_COORD97":2540956.9700000002,"ADDRESS":"新都路４８８巷２７號","OBJECTID":306593},"geometry":{"x":167213.64000000153,"y":2540956.9700000044}},{"attributes":{"ID":306602,"DIS_CODE":0,"TOWNNAME":"南區","LI":"明亮里","LIN":"8鄰","STREET":"新都路","SECT":" ","MAREA":" ","LANE":"４８８巷","ALLEY":" ","HOUSE_NO":"２８號","E_COORD97":167224.39000000001,"N_COORD97":2540958.8100000001,"ADDRESS":"新都路４８８巷２８號","OBJECTID":306594},"geometry":{"x":167224.3900000006,"y":2540958.8100000024}},{"attributes":{"ID":306603,"DIS_CODE":0,"TOWNNAME":"南區","LI":"明亮里","LIN":"8鄰","STREET":"新都路","SECT":" ","MAREA":" ","LANE":"４８８巷","ALLEY":" ","HOUSE_NO":"２９號","E_COORD97":167214.87,"N_COORD97":2540960.96,"ADDRESS":"新都路４８８巷２９號","OBJECTID":306595},"geometry":{"x":167214.87000000104,"y":2540960.9600000028}},{"attributes":{"ID":306604,"DIS_CODE":0,"TOWNNAME":"南區","LI":"明亮里","LIN":"8鄰","STREET":"新都路","SECT":" ","MAREA":" ","LANE":"４８８巷","ALLEY":" ","HOUSE_NO":"３０號","E_COORD97":167225.92999999999,"N_COORD97":2540962.7999999998,"ADDRESS":"新都路４８８巷３０號","OBJECTID":306596},"geometry":{"x":167225.93000000063,"y":2540962.8000000026}},{"attributes":{"ID":306605,"DIS_CODE":0,"TOWNNAME":"南區","LI":"明亮里","LIN":"8鄰","STREET":"新都路","SECT":" ","MAREA":" ","LANE":"４８８巷","ALLEY":" ","HOUSE_NO":"３１號","E_COORD97":167212.72,"N_COORD97":2540967.3999999999,"ADDRESS":"新都路４８８巷３１號","OBJECTID":306597},"geometry":{"x":167212.71999999974,"y":2540967.4000000041}},{"attributes":{"ID":306606,"DIS_CODE":0,"TOWNNAME":"安南區","LI":"梅花里","LIN":"17鄰","STREET":"安中路","SECT":"一段","MAREA":" ","LANE":" ","ALLEY":" ","HOUSE_NO":"７９５號","E_COORD97":167349.07999999999,"N_COORD97":2549386.8599999999,"ADDRESS":"安中路一段７９５號","OBJECTID":306598},"geometry":{"x":167349.08000000101,"y":2549386.8599999994}},{"attributes":{"ID":306607,"DIS_CODE":0,"TOWNNAME":"楠西區","LI":"灣丘里","LIN":"8鄰","STREET":" ","SECT":" ","MAREA":"灣丘","LANE":" ","ALLEY":" ","HOUSE_NO":"８３號之１","E_COORD97":201417.10000000001,"N_COORD97":2564364.2999999998,"ADDRESS":"灣丘８３號之１","OBJECTID":306599},"geometry":{"x":201417.09999999963,"y":2564364.3000000007}},{"attributes":{"ID":306608,"DIS_CODE":0,"TOWNNAME":"楠西區","LI":"灣丘里","LIN":"1鄰","STREET":" ","SECT":" ","MAREA":"灣丘","LANE":" ","ALLEY":" ","HOUSE_NO":"２號之５","E_COORD97":198884.79999999999,"N_COORD97":2563774.1800000002,"ADDRESS":"灣丘２號之５","OBJECTID":306600},"geometry":{"x":198884.79999999981,"y":2563774.1799999997}}]}