{"displayFieldName":"TOWNNAME","fieldAliases":{"ID":"ID","DIS_CODE":"DIS_CODE","TOWNNAME":"TOWNNAME","LI":"LI","LIN":"LIN","STREET":"STREET","SECT":"SECT","MAREA":"MAREA","LANE":"LANE","ALLEY":"ALLEY","HOUSE_NO":"HOUSE_NO","E_COORD97":"E_COORD97","N_COORD97":"N_COORD97","ADDRESS":"ADDRESS","OBJECTID":"OBJECTID"},"geometryType":"esriGeometryPoint","spatialReference":{"wkid":102443,"latestWkid":3826},"fields":[{"name":"ID","type":"esriFieldTypeDouble","alias":"ID"},{"name":"DIS_CODE","type":"esriFieldTypeInteger","alias":"DIS_CODE"},{"name":"TOWNNAME","type":"esriFieldTypeString","alias":"TOWNNAME","length":8},{"name":"LI","type":"esriFieldTypeString","alias":"LI","length":8},{"name":"LIN","type":"esriFieldTypeString","alias":"LIN","length":12},{"name":"STREET","type":"esriFieldTypeString","alias":"STREET","length":20},{"name":"SECT","type":"esriFieldTypeString","alias":"SECT","length":8},{"name":"MAREA","type":"esriFieldTypeString","alias":"MAREA","length":12},{"name":"LANE","type":"esriFieldTypeString","alias":"LANE","length":10},{"name":"ALLEY","type":"esriFieldTypeString","alias":"ALLEY","length":10},{"name":"HOUSE_NO","type":"esriFieldTypeString","alias":"HOUSE_NO","length":20},{"name":"E_COORD97","type":"esriFieldTypeDouble","alias":"E_COORD97"},{"name":"N_COORD97","type":"esriFieldTypeDouble","alias":"N_COORD97"},{"name":"ADDRESS","type":"esriFieldTypeString","alias":"ADDRESS","length":50},{"name":"OBJECTID","type":"esriFieldTypeOID","alias":"OBJECTID"}],"features":[{"attributes":{"ID":437426,"DIS_CODE":0,"TOWNNAME":"仁德區","LI":"二行里","LIN":" ","STREET":"中正西路","SECT":" ","MAREA":" ","LANE":"１２巷","ALLEY":" ","HOUSE_NO":"２０號","E_COORD97":170480.09,"N_COORD97":2535511.7400000002,"ADDRESS":"中正西路１２巷２０號","OBJECTID":437401},"geometry":{"x":170480.08999999985,"y":2535511.7400000002}},{"attributes":{"ID":437427,"DIS_CODE":0,"TOWNNAME":"仁德區","LI":"保安里","LIN":" ","STREET":"中正路","SECT":"一段","MAREA":" ","LANE":"２１０巷","ALLEY":" ","HOUSE_NO":"１號","E_COORD97":171624.19,"N_COORD97":2535784.7799999998,"ADDRESS":"中正路一段２１０巷１號","OBJECTID":437402},"geometry":{"x":171624.19000000041,"y":2535784.7799999993}},{"attributes":{"ID":437428,"DIS_CODE":0,"TOWNNAME":"仁德區","LI":"仁義里","LIN":" ","STREET":"勝利路","SECT":" ","MAREA":" ","LANE":"５８巷","ALLEY":" ","HOUSE_NO":"２號","E_COORD97":173569.45000000001,"N_COORD97":2539897.7599999998,"ADDRESS":"勝利路５８巷２號","OBJECTID":437403},"geometry":{"x":173569.45000000112,"y":2539897.7600000016}},{"attributes":{"ID":437429,"DIS_CODE":0,"TOWNNAME":"仁德區","LI":"二行里","LIN":" ","STREET":"行大街","SECT":" ","MAREA":" ","LANE":"１７２巷","ALLEY":" ","HOUSE_NO":"６０號","E_COORD97":169851.95000000001,"N_COORD97":2535203.4900000002,"ADDRESS":"行大街１７２巷６０號","OBJECTID":437404},"geometry":{"x":169851.95000000112,"y":2535203.4900000021}},{"attributes":{"ID":437430,"DIS_CODE":0,"TOWNNAME":"將軍區","LI":"廣山里","LIN":"7鄰","STREET":" ","SECT":" ","MAREA":"廣山","LANE":" ","ALLEY":" ","HOUSE_NO":"６２號","E_COORD97":159652.07994699999,"N_COORD97":2568818.99474,"ADDRESS":"廣山６２號","OBJECTID":437405},"geometry":{"x":159652.07994700037,"y":2568818.9947370011}},{"attributes":{"ID":437431,"DIS_CODE":0,"TOWNNAME":"仁德區","LI":"仁義里","LIN":" ","STREET":"正義路","SECT":" ","MAREA":" ","LANE":"１５７巷","ALLEY":" ","HOUSE_NO":"７號","E_COORD97":173795.09,"N_COORD97":2541443.52,"ADDRESS":"正義路１５７巷７號","OBJECTID":437406},"geometry":{"x":173795.09000000078,"y":2541443.5200000033}},{"attributes":{"ID":437432,"DIS_CODE":0,"TOWNNAME":"仁德區","LI":"後壁里","LIN":" ","STREET":"中正路","SECT":"二段","MAREA":" ","LANE":"１８７巷","ALLEY":" ","HOUSE_NO":"１號","E_COORD97":173165.04000000001,"N_COORD97":2538670.5299999998,"ADDRESS":"中正路二段１８７巷１號","OBJECTID":437407},"geometry":{"x":173165.04000000097,"y":2538670.5300000012}},{"attributes":{"ID":437433,"DIS_CODE":0,"TOWNNAME":"仁德區","LI":"後壁里","LIN":" ","STREET":"德善二街","SECT":" ","MAREA":" ","LANE":"５１巷","ALLEY":" ","HOUSE_NO":"１號","E_COORD97":173632.23999999999,"N_COORD97":2538985.5099999998,"ADDRESS":"德善二街５１巷１號","OBJECTID":437408},"geometry":{"x":173632.24000000115,"y":2538985.5099999998}},{"attributes":{"ID":437434,"DIS_CODE":0,"TOWNNAME":"仁德區","LI":"新田里","LIN":" ","STREET":"新田二街","SECT":" ","MAREA":" ","LANE":"１１８巷","ALLEY":" ","HOUSE_NO":"３號","E_COORD97":174916.28,"N_COORD97":2539855.4900000002,"ADDRESS":"新田二街１１８巷３號","OBJECTID":437409},"geometry":{"x":174916.28000000212,"y":2539855.4900000021}},{"attributes":{"ID":437435,"DIS_CODE":0,"TOWNNAME":"仁德區","LI":"保安里","LIN":" ","STREET":"文賢一街","SECT":" ","MAREA":" ","LANE":"１０巷","ALLEY":" ","HOUSE_NO":"４號","E_COORD97":171081.59,"N_COORD97":2536763.3199999998,"ADDRESS":"文賢一街１０巷４號","OBJECTID":437410},"geometry":{"x":171081.59000000078,"y":2536763.3199999984}},{"attributes":{"ID":437436,"DIS_CODE":0,"TOWNNAME":"仁德區","LI":"田厝里","LIN":" ","STREET":"保安路","SECT":"二段","MAREA":" ","LANE":"４８２巷","ALLEY":" ","HOUSE_NO":"９號","E_COORD97":172474.92000000001,"N_COORD97":2537485.8100000001,"ADDRESS":"保安路二段４８２巷９號","OBJECTID":437411},"geometry":{"x":172474.91999999993,"y":2537485.8099999987}},{"attributes":{"ID":437437,"DIS_CODE":0,"TOWNNAME":"仁德區","LI":"一甲里","LIN":"17鄰","STREET":"忠義路","SECT":" ","MAREA":" ","LANE":"２５１巷","ALLEY":" ","HOUSE_NO":"７６號","E_COORD97":173808.45000000001,"N_COORD97":2541646.1800000002,"ADDRESS":"忠義路２５１巷７６號","OBJECTID":437412},"geometry":{"x":173808.45000000112,"y":2541646.1800000034}},{"attributes":{"ID":437438,"DIS_CODE":0,"TOWNNAME":"仁德區","LI":"仁德里","LIN":" ","STREET":"中山路","SECT":" ","MAREA":" ","LANE":"８７０巷","ALLEY":" ","HOUSE_NO":"２１１之５號","E_COORD97":172117.29000000001,"N_COORD97":2542178.0499999998,"ADDRESS":"中山路８７０巷２１１之５號","OBJECTID":437413},"geometry":{"x":172117.29000000097,"y":2542178.0500000026}},{"attributes":{"ID":437439,"DIS_CODE":0,"TOWNNAME":"仁德區","LI":"新田里","LIN":" ","STREET":"新田二街","SECT":" ","MAREA":" ","LANE":"４２巷","ALLEY":" ","HOUSE_NO":"１號","E_COORD97":174729.13,"N_COORD97":2539767.4900000002,"ADDRESS":"新田二街４２巷１號","OBJECTID":437414},"geometry":{"x":174729.13000000082,"y":2539767.4900000021}},{"attributes":{"ID":437440,"DIS_CODE":0,"TOWNNAME":"仁德區","LI":"仁德里","LIN":" ","STREET":"中山路","SECT":" ","MAREA":" ","LANE":"８７０巷","ALLEY":" ","HOUSE_NO":"２１１之３號","E_COORD97":172111.64000000001,"N_COORD97":2542209.79,"ADDRESS":"中山路８７０巷２１１之３號","OBJECTID":437415},"geometry":{"x":172111.6400000006,"y":2542209.7899999991}},{"attributes":{"ID":437441,"DIS_CODE":0,"TOWNNAME":"仁德區","LI":"仁德里","LIN":" ","STREET":"仁德三街","SECT":" ","MAREA":" ","LANE":"５５巷","ALLEY":" ","HOUSE_NO":"２號","E_COORD97":173170.56,"N_COORD97":2540950.02,"ADDRESS":"仁德三街５５巷２號","OBJECTID":437416},"geometry":{"x":173170.55999999959,"y":2540950.0200000014}},{"attributes":{"ID":437442,"DIS_CODE":0,"TOWNNAME":"仁德區","LI":"後壁里","LIN":" ","STREET":"德南路","SECT":" ","MAREA":" ","LANE":"２２巷","ALLEY":" ","HOUSE_NO":"２６號","E_COORD97":173278.34,"N_COORD97":2538734.5099999998,"ADDRESS":"德南路２２巷２６號","OBJECTID":437417},"geometry":{"x":173278.34000000078,"y":2538734.5099999998}},{"attributes":{"ID":437443,"DIS_CODE":0,"TOWNNAME":"仁德區","LI":"大甲里","LIN":" ","STREET":"中正西路","SECT":" ","MAREA":" ","LANE":"８７８巷","ALLEY":" ","HOUSE_NO":"１６６之１號","E_COORD97":168444.67999999999,"N_COORD97":2535835.79,"ADDRESS":"中正西路８７８巷１６６之１號","OBJECTID":437418},"geometry":{"x":168444.68000000063,"y":2535835.7899999991}},{"attributes":{"ID":437444,"DIS_CODE":0,"TOWNNAME":"仁德區","LI":"仁德里","LIN":" ","STREET":"中山路","SECT":" ","MAREA":" ","LANE":"８７５巷","ALLEY":" ","HOUSE_NO":"１９６號","E_COORD97":172287.73999999999,"N_COORD97":2541123.75,"ADDRESS":"中山路８７５巷１９６號","OBJECTID":437419},"geometry":{"x":172287.74000000115,"y":2541123.7500000037}},{"attributes":{"ID":437445,"DIS_CODE":0,"TOWNNAME":"仁德區","LI":"一甲里","LIN":" ","STREET":"忠義路","SECT":" ","MAREA":" ","LANE":"４９巷","ALLEY":" ","HOUSE_NO":"２０號","E_COORD97":174420.95000000001,"N_COORD97":2541625.7599999998,"ADDRESS":"忠義路４９巷２０號","OBJECTID":437420},"geometry":{"x":174420.95000000019,"y":2541625.7600000016}},{"attributes":{"ID":437446,"DIS_CODE":0,"TOWNNAME":"仁德區","LI":"新田里","LIN":" ","STREET":"勝利一街","SECT":" ","MAREA":" ","LANE":"１１巷","ALLEY":" ","HOUSE_NO":"１４號","E_COORD97":174009.69,"N_COORD97":2539546.5,"ADDRESS":"勝利一街１１巷１４號","OBJECTID":437421},"geometry":{"x":174009.69000000041,"y":2539546.5000000019}},{"attributes":{"ID":437447,"DIS_CODE":0,"TOWNNAME":"仁德區","LI":"新田里","LIN":" ","STREET":"新田二街","SECT":" ","MAREA":" ","LANE":"１２０巷","ALLEY":" ","HOUSE_NO":"４０號","E_COORD97":174948.17999999999,"N_COORD97":2539996.75,"ADDRESS":"新田二街１２０巷４０號","OBJECTID":437422},"geometry":{"x":174948.1799999997,"y":2539996.75}},{"attributes":{"ID":437448,"DIS_CODE":0,"TOWNNAME":"仁德區","LI":"後壁里","LIN":" ","STREET":"德南路","SECT":" ","MAREA":" ","LANE":"１９４巷","ALLEY":" ","HOUSE_NO":"１２之１號","E_COORD97":173657.57999999999,"N_COORD97":2538484.9900000002,"ADDRESS":"德南路１９４巷１２之１號","OBJECTID":437423},"geometry":{"x":173657.58000000007,"y":2538484.9900000021}},{"attributes":{"ID":437449,"DIS_CODE":0,"TOWNNAME":"仁德區","LI":"後壁里","LIN":"24鄰","STREET":"德洋路","SECT":" ","MAREA":" ","LANE":"２５巷","ALLEY":" ","HOUSE_NO":"９號","E_COORD97":173179.852548,"N_COORD97":2538961.5361799998,"ADDRESS":"德洋路２５巷９號","OBJECTID":437424},"geometry":{"x":173179.8525480004,"y":2538961.5361769982}},{"attributes":{"ID":437450,"DIS_CODE":0,"TOWNNAME":"仁德區","LI":"新田里","LIN":" ","STREET":"新田二街","SECT":" ","MAREA":" ","LANE":"１２０巷","ALLEY":" ","HOUSE_NO":"２２號","E_COORD97":174921.25,"N_COORD97":2539892.25,"ADDRESS":"新田二街１２０巷２２號","OBJECTID":437425},"geometry":{"x":174921.25000000186,"y":2539892.25}},{"attributes":{"ID":437451,"DIS_CODE":0,"TOWNNAME":"仁德區","LI":"新田里","LIN":" ","STREET":"新田二街","SECT":" ","MAREA":" ","LANE":"１１６巷","ALLEY":" ","HOUSE_NO":"７號","E_COORD97":174897.25,"N_COORD97":2539815.75,"ADDRESS":"新田二街１１６巷７號","OBJECTID":437426},"geometry":{"x":174897.25,"y":2539815.7500000019}},{"attributes":{"ID":437452,"DIS_CODE":0,"TOWNNAME":"仁德區","LI":"後壁里","LIN":" ","STREET":"德洋二街","SECT":" ","MAREA":" ","LANE":"１１巷","ALLEY":" ","HOUSE_NO":"１１號","E_COORD97":172474.26000000001,"N_COORD97":2539362.77,"ADDRESS":"德洋二街１１巷１１號","OBJECTID":437427},"geometry":{"x":172474.25999999978,"y":2539362.7699999996}},{"attributes":{"ID":437453,"DIS_CODE":0,"TOWNNAME":"東區","LI":"崇文里","LIN":"40鄰","STREET":"生產路","SECT":" ","MAREA":" ","LANE":" ","ALLEY":" ","HOUSE_NO":"２７１號十二樓","E_COORD97":170892.67999999999,"N_COORD97":2540617.9100000001,"ADDRESS":"生產路２７１號十二樓","OBJECTID":437428},"geometry":{"x":170892.68000000063,"y":2540617.9100000039}},{"attributes":{"ID":437454,"DIS_CODE":0,"TOWNNAME":"仁德區","LI":"後壁里","LIN":" ","STREET":"德洋二街","SECT":" ","MAREA":" ","LANE":"１８３巷","ALLEY":" ","HOUSE_NO":"１號","E_COORD97":172479.48999999999,"N_COORD97":2539407.52,"ADDRESS":"德洋二街１８３巷１號","OBJECTID":437429},"geometry":{"x":172479.49000000115,"y":2539407.5200000014}},{"attributes":{"ID":437455,"DIS_CODE":0,"TOWNNAME":"仁德區","LI":"新田里","LIN":" ","STREET":"勝利一街","SECT":" ","MAREA":" ","LANE":"１１巷","ALLEY":" ","HOUSE_NO":"１０號","E_COORD97":173954.23999999999,"N_COORD97":2539569.0099999998,"ADDRESS":"勝利一街１１巷１０號","OBJECTID":437430},"geometry":{"x":173954.24000000115,"y":2539569.0100000035}},{"attributes":{"ID":437456,"DIS_CODE":0,"TOWNNAME":"仁德區","LI":"大甲里","LIN":" ","STREET":"行大街","SECT":" ","MAREA":" ","LANE":"３０７巷","ALLEY":" ","HOUSE_NO":"２３號","E_COORD97":169698.98999999999,"N_COORD97":2535115.75,"ADDRESS":"行大街３０７巷２３號","OBJECTID":437431},"geometry":{"x":169698.99000000115,"y":2535115.75}},{"attributes":{"ID":437457,"DIS_CODE":0,"TOWNNAME":"仁德區","LI":"後壁里","LIN":" ","STREET":"民安路","SECT":"一段","MAREA":" ","LANE":"８２巷","ALLEY":" ","HOUSE_NO":"１３８號","E_COORD97":171951.26000000001,"N_COORD97":2539741.1600000001,"ADDRESS":"民安路一段８２巷１３８號","OBJECTID":437432},"geometry":{"x":171951.26000000071,"y":2539741.1600000039}},{"attributes":{"ID":437458,"DIS_CODE":0,"TOWNNAME":"仁德區","LI":"仁義里","LIN":" ","STREET":"中正路","SECT":"二段","MAREA":" ","LANE":"１０３４巷","ALLEY":" ","HOUSE_NO":"１５號","E_COORD97":173445.03,"N_COORD97":2540904,"ADDRESS":"中正路二段１０３４巷１５號","OBJECTID":437433},"geometry":{"x":173445.03000000119,"y":2540904}},{"attributes":{"ID":437459,"DIS_CODE":0,"TOWNNAME":"仁德區","LI":"大甲里","LIN":" ","STREET":"中正西路","SECT":" ","MAREA":" ","LANE":"５８０巷","ALLEY":" ","HOUSE_NO":"１５號","E_COORD97":168945.42000000001,"N_COORD97":2535707.7400000002,"ADDRESS":"中正西路５８０巷１５號","OBJECTID":437434},"geometry":{"x":168945.41999999993,"y":2535707.7400000021}},{"attributes":{"ID":437460,"DIS_CODE":0,"TOWNNAME":"仁德區","LI":"後壁里","LIN":" ","STREET":"德南路","SECT":" ","MAREA":" ","LANE":"２２巷","ALLEY":" ","HOUSE_NO":"２４號","E_COORD97":173278.81,"N_COORD97":2538738.7599999998,"ADDRESS":"德南路２２巷２４號","OBJECTID":437435},"geometry":{"x":173278.80999999959,"y":2538738.7599999998}},{"attributes":{"ID":437461,"DIS_CODE":0,"TOWNNAME":"仁德區","LI":"仁德里","LIN":" ","STREET":"仁德三街","SECT":" ","MAREA":" ","LANE":"３５巷","ALLEY":" ","HOUSE_NO":"９號","E_COORD97":173254.48000000001,"N_COORD97":2540946.52,"ADDRESS":"仁德三街３５巷９號","OBJECTID":437436},"geometry":{"x":173254.48000000138,"y":2540946.5200000014}},{"attributes":{"ID":437462,"DIS_CODE":0,"TOWNNAME":"山上區","LI":"明和里","LIN":"19鄰","STREET":" ","SECT":" ","MAREA":"明和","LANE":" ","ALLEY":" ","HOUSE_NO":"５２號之８","E_COORD97":183274.73710299999,"N_COORD97":2555956.9197499999,"ADDRESS":"明和５２號之８","OBJECTID":437437},"geometry":{"x":183274.73710300121,"y":2555956.9197509997}},{"attributes":{"ID":437463,"DIS_CODE":0,"TOWNNAME":"仁德區","LI":"大甲里","LIN":" ","STREET":"行大街","SECT":" ","MAREA":" ","LANE":"２７１巷","ALLEY":" ","HOUSE_NO":"２６號","E_COORD97":169729.04000000001,"N_COORD97":2535078.7400000002,"ADDRESS":"行大街２７１巷２６號","OBJECTID":437438},"geometry":{"x":169729.04000000097,"y":2535078.7400000002}},{"attributes":{"ID":437464,"DIS_CODE":0,"TOWNNAME":"仁德區","LI":"後壁里","LIN":" ","STREET":"德南路","SECT":" ","MAREA":" ","LANE":"２２巷","ALLEY":" ","HOUSE_NO":"２８號","E_COORD97":173277.67000000001,"N_COORD97":2538730.0099999998,"ADDRESS":"德南路２２巷２８號","OBJECTID":437439},"geometry":{"x":173277.67000000086,"y":2538730.0099999998}},{"attributes":{"ID":437465,"DIS_CODE":0,"TOWNNAME":"仁德區","LI":"後壁里","LIN":" ","STREET":"民安路","SECT":"一段","MAREA":" ","LANE":"３９２巷","ALLEY":" ","HOUSE_NO":"６之１號","E_COORD97":173129.60000000001,"N_COORD97":2539330.8300000001,"ADDRESS":"民安路一段３９２巷６之１號","OBJECTID":437440},"geometry":{"x":173129.59999999963,"y":2539330.8300000019}},{"attributes":{"ID":437466,"DIS_CODE":0,"TOWNNAME":"仁德區","LI":"新田里","LIN":" ","STREET":"民安路","SECT":"一段","MAREA":" ","LANE":"３９３巷","ALLEY":" ","HOUSE_NO":"３２號","E_COORD97":172927.45999999999,"N_COORD97":2539979.0600000001,"ADDRESS":"民安路一段３９３巷３２號","OBJECTID":437441},"geometry":{"x":172927.45999999996,"y":2539979.0600000005}},{"attributes":{"ID":437467,"DIS_CODE":0,"TOWNNAME":"仁德區","LI":"新田里","LIN":" ","STREET":"勝利一街","SECT":" ","MAREA":" ","LANE":"１１巷","ALLEY":" ","HOUSE_NO":"１６號","E_COORD97":174024.44,"N_COORD97":2539545.5,"ADDRESS":"勝利一街１１巷１６號","OBJECTID":437442},"geometry":{"x":174024.44000000041,"y":2539545.5000000037}},{"attributes":{"ID":437468,"DIS_CODE":0,"TOWNNAME":"仁德區","LI":"後壁里","LIN":" ","STREET":"德南路","SECT":" ","MAREA":" ","LANE":"２２巷","ALLEY":" ","HOUSE_NO":"２２號","E_COORD97":173279.17999999999,"N_COORD97":2538743.02,"ADDRESS":"德南路２２巷２２號","OBJECTID":437443},"geometry":{"x":173279.18000000063,"y":2538743.0200000014}},{"attributes":{"ID":437469,"DIS_CODE":0,"TOWNNAME":"仁德區","LI":"後壁里","LIN":" ","STREET":"民安路","SECT":"一段","MAREA":" ","LANE":"８２巷","ALLEY":" ","HOUSE_NO":"１３６號","E_COORD97":171951.87,"N_COORD97":2539749.9100000001,"ADDRESS":"民安路一段８２巷１３６號","OBJECTID":437444},"geometry":{"x":171951.87000000011,"y":2539749.9100000039}},{"attributes":{"ID":437470,"DIS_CODE":0,"TOWNNAME":"仁德區","LI":"太子里","LIN":"45鄰","STREET":"太子一街","SECT":" ","MAREA":" ","LANE":"２１巷","ALLEY":" ","HOUSE_NO":"２號","E_COORD97":174856.70000000001,"N_COORD97":2543373.75,"ADDRESS":"太子一街２１巷２號","OBJECTID":437445},"geometry":{"x":174856.70000000019,"y":2543373.75}},{"attributes":{"ID":437471,"DIS_CODE":0,"TOWNNAME":"仁德區","LI":"成功里","LIN":" ","STREET":"成功一街","SECT":" ","MAREA":" ","LANE":"２０１巷","ALLEY":" ","HOUSE_NO":"２號","E_COORD97":170610.35999999999,"N_COORD97":2539734.0099999998,"ADDRESS":"成功一街２０１巷２號","OBJECTID":437446},"geometry":{"x":170610.36000000127,"y":2539734.0099999998}},{"attributes":{"ID":437472,"DIS_CODE":0,"TOWNNAME":"仁德區","LI":"上崙里","LIN":" ","STREET":"德崙路","SECT":" ","MAREA":" ","LANE":"１７５巷","ALLEY":" ","HOUSE_NO":"２４號","E_COORD97":173692.54000000001,"N_COORD97":2538322.0099999998,"ADDRESS":"德崙路１７５巷２４號","OBJECTID":437447},"geometry":{"x":173692.54000000097,"y":2538322.0100000016}},{"attributes":{"ID":437473,"DIS_CODE":0,"TOWNNAME":"仁德區","LI":"田厝里","LIN":" ","STREET":"田厝二街","SECT":" ","MAREA":" ","LANE":"８６巷","ALLEY":" ","HOUSE_NO":"１號","E_COORD97":172363.13,"N_COORD97":2537772.9900000002,"ADDRESS":"田厝二街８６巷１號","OBJECTID":437448},"geometry":{"x":172363.12999999989,"y":2537772.9900000021}},{"attributes":{"ID":437474,"DIS_CODE":0,"TOWNNAME":"仁德區","LI":"土庫里","LIN":" ","STREET":"太子二街","SECT":" ","MAREA":" ","LANE":"１６６巷","ALLEY":" ","HOUSE_NO":"３號","E_COORD97":174474.59,"N_COORD97":2543177,"ADDRESS":"太子二街１６６巷３號","OBJECTID":437449},"geometry":{"x":174474.59000000171,"y":2543177.0000000019}},{"attributes":{"ID":437475,"DIS_CODE":0,"TOWNNAME":"仁德區","LI":"上崙里","LIN":" ","STREET":"德崙路","SECT":" ","MAREA":" ","LANE":"３４６巷","ALLEY":" ","HOUSE_NO":"１號","E_COORD97":173961.82999999999,"N_COORD97":2538092.0099999998,"ADDRESS":"德崙路３４６巷１號","OBJECTID":437450},"geometry":{"x":173961.83000000101,"y":2538092.0100000016}},{"attributes":{"ID":437476,"DIS_CODE":0,"TOWNNAME":"仁德區","LI":"土庫里","LIN":" ","STREET":"土庫三街","SECT":" ","MAREA":" ","LANE":"５７巷","ALLEY":" ","HOUSE_NO":"３號","E_COORD97":174270.70000000001,"N_COORD97":2543128.25,"ADDRESS":"土庫三街５７巷３號","OBJECTID":437451},"geometry":{"x":174270.70000000205,"y":2543128.2500000019}},{"attributes":{"ID":437477,"DIS_CODE":0,"TOWNNAME":"仁德區","LI":"土庫里","LIN":" ","STREET":"土庫二街","SECT":" ","MAREA":" ","LANE":"６巷","ALLEY":" ","HOUSE_NO":"４號","E_COORD97":174396.98999999999,"N_COORD97":2543030,"ADDRESS":"土庫二街６巷４號","OBJECTID":437452},"geometry":{"x":174396.99000000022,"y":2543030}},{"attributes":{"ID":437478,"DIS_CODE":0,"TOWNNAME":"仁德區","LI":"太子里","LIN":" ","STREET":"永大路","SECT":"一段","MAREA":" ","LANE":"５巷","ALLEY":" ","HOUSE_NO":"８６號","E_COORD97":173640.67000000001,"N_COORD97":2543729.2799999998,"ADDRESS":"永大路一段５巷８６號","OBJECTID":437453},"geometry":{"x":173640.67000000086,"y":2543729.2799999993}},{"attributes":{"ID":437479,"DIS_CODE":0,"TOWNNAME":"仁德區","LI":"土庫里","LIN":" ","STREET":"土庫三街","SECT":" ","MAREA":" ","LANE":"６１巷","ALLEY":" ","HOUSE_NO":"７號","E_COORD97":174269.04000000001,"N_COORD97":2543117.75,"ADDRESS":"土庫三街６１巷７號","OBJECTID":437454},"geometry":{"x":174269.04000000097,"y":2543117.7500000019}},{"attributes":{"ID":437480,"DIS_CODE":0,"TOWNNAME":"仁德區","LI":"田厝里","LIN":" ","STREET":"田厝二街","SECT":" ","MAREA":" ","LANE":"９６巷","ALLEY":" ","HOUSE_NO":"５號","E_COORD97":172322.98999999999,"N_COORD97":2537722.75,"ADDRESS":"田厝二街９６巷５號","OBJECTID":437455},"geometry":{"x":172322.99000000115,"y":2537722.75}},{"attributes":{"ID":437481,"DIS_CODE":0,"TOWNNAME":"仁德區","LI":"田厝里","LIN":" ","STREET":"保安路","SECT":"二段","MAREA":" ","LANE":"６３０巷","ALLEY":" ","HOUSE_NO":"１號","E_COORD97":172787.14999999999,"N_COORD97":2537563.3100000001,"ADDRESS":"保安路二段６３０巷１號","OBJECTID":437456},"geometry":{"x":172787.15000000037,"y":2537563.3100000005}},{"attributes":{"ID":437482,"DIS_CODE":0,"TOWNNAME":"仁德區","LI":"太子里","LIN":" ","STREET":"長興一街","SECT":" ","MAREA":" ","LANE":"８６巷","ALLEY":" ","HOUSE_NO":"８之１號","E_COORD97":174478.29999999999,"N_COORD97":2543946.7999999998,"ADDRESS":"長興一街８６巷８之１號","OBJECTID":437457},"geometry":{"x":174478.30000000168,"y":2543946.8000000007}},{"attributes":{"ID":437483,"DIS_CODE":0,"TOWNNAME":"仁德區","LI":"土庫里","LIN":" ","STREET":"土庫路","SECT":" ","MAREA":" ","LANE":"９９巷","ALLEY":" ","HOUSE_NO":"８號","E_COORD97":174338.60000000001,"N_COORD97":2543197.5,"ADDRESS":"土庫路９９巷８號","OBJECTID":437458},"geometry":{"x":174338.60000000149,"y":2543197.5000000019}},{"attributes":{"ID":437484,"DIS_CODE":0,"TOWNNAME":"仁德區","LI":"土庫里","LIN":" ","STREET":"太子二街","SECT":" ","MAREA":" ","LANE":"１２５巷","ALLEY":" ","HOUSE_NO":"５號","E_COORD97":174502.54000000001,"N_COORD97":2543336.7599999998,"ADDRESS":"太子二街１２５巷５號","OBJECTID":437459},"geometry":{"x":174502.54000000097,"y":2543336.7599999998}},{"attributes":{"ID":437485,"DIS_CODE":0,"TOWNNAME":"官田區","LI":"二鎮里","LIN":" ","STREET":"工社西街","SECT":" ","MAREA":" ","LANE":"２１巷","ALLEY":" ","HOUSE_NO":"１２１號","E_COORD97":181278.81,"N_COORD97":2568808.7999999998,"ADDRESS":"工社西街２１巷１２１號","OBJECTID":437460},"geometry":{"x":181278.80999999959,"y":2568808.8000000007}},{"attributes":{"ID":437486,"DIS_CODE":0,"TOWNNAME":"官田區","LI":"二鎮里","LIN":" ","STREET":"工社西街","SECT":" ","MAREA":" ","LANE":"２１巷","ALLEY":" ","HOUSE_NO":"４５之１號","E_COORD97":181015.97,"N_COORD97":2568742.6899999999,"ADDRESS":"工社西街２１巷４５之１號","OBJECTID":437461},"geometry":{"x":181015.97000000067,"y":2568742.6900000013}},{"attributes":{"ID":437487,"DIS_CODE":0,"TOWNNAME":"新市區","LI":"新和里","LIN":" ","STREET":"忠孝街","SECT":" ","MAREA":" ","LANE":"２２７巷","ALLEY":" ","HOUSE_NO":"２之４號","E_COORD97":177682.70000000001,"N_COORD97":2552932.7999999998,"ADDRESS":"忠孝街２２７巷２之４號","OBJECTID":437462},"geometry":{"x":177682.70000000019,"y":2552932.8000000045}},{"attributes":{"ID":437488,"DIS_CODE":0,"TOWNNAME":"新市區","LI":"新和里","LIN":" ","STREET":"忠孝街","SECT":" ","MAREA":" ","LANE":"２２７巷","ALLEY":" ","HOUSE_NO":"２之１號","E_COORD97":177669.73999999999,"N_COORD97":2552923.5499999998,"ADDRESS":"忠孝街２２７巷２之１號","OBJECTID":437463},"geometry":{"x":177669.74000000115,"y":2552923.5500000007}},{"attributes":{"ID":437489,"DIS_CODE":0,"TOWNNAME":"新市區","LI":"新和里","LIN":" ","STREET":"忠孝街","SECT":" ","MAREA":" ","LANE":"２２７巷","ALLEY":" ","HOUSE_NO":"２之６號","E_COORD97":177683.10000000001,"N_COORD97":2552944.7999999998,"ADDRESS":"忠孝街２２７巷２之６號","OBJECTID":437464},"geometry":{"x":177683.09999999963,"y":2552944.8000000007}},{"attributes":{"ID":437490,"DIS_CODE":0,"TOWNNAME":"新市區","LI":"新市里","LIN":" ","STREET":"復興路","SECT":" ","MAREA":" ","LANE":"６２巷","ALLEY":" ","HOUSE_NO":"９之２２號","E_COORD97":177887.39999999999,"N_COORD97":2553507.7999999998,"ADDRESS":"復興路６２巷９之２２號","OBJECTID":437465},"geometry":{"x":177887.4000000013,"y":2553507.8000000007}},{"attributes":{"ID":437491,"DIS_CODE":0,"TOWNNAME":"新市區","LI":"新市里","LIN":" ","STREET":"復興路","SECT":" ","MAREA":" ","LANE":"６２巷","ALLEY":" ","HOUSE_NO":"９之２１號","E_COORD97":177880.73999999999,"N_COORD97":2553507.5499999998,"ADDRESS":"復興路６２巷９之２１號","OBJECTID":437466},"geometry":{"x":177880.74000000022,"y":2553507.5500000045}},{"attributes":{"ID":437492,"DIS_CODE":0,"TOWNNAME":"新市區","LI":"新市里","LIN":" ","STREET":"復興路","SECT":" ","MAREA":" ","LANE":"６２巷","ALLEY":" ","HOUSE_NO":"９之３３號","E_COORD97":177975.95000000001,"N_COORD97":2553511.2999999998,"ADDRESS":"復興路６２巷９之３３號","OBJECTID":437467},"geometry":{"x":177975.95000000019,"y":2553511.3000000007}},{"attributes":{"ID":437493,"DIS_CODE":0,"TOWNNAME":"新市區","LI":"新市里","LIN":" ","STREET":"復興路","SECT":" ","MAREA":" ","LANE":"６２巷","ALLEY":" ","HOUSE_NO":"９之４號","E_COORD97":177898.10000000001,"N_COORD97":2553488.7999999998,"ADDRESS":"復興路６２巷９之４號","OBJECTID":437468},"geometry":{"x":177898.09999999963,"y":2553488.7999999989}},{"attributes":{"ID":437494,"DIS_CODE":0,"TOWNNAME":"新市區","LI":"新市里","LIN":" ","STREET":"和平路","SECT":" ","MAREA":" ","LANE":"２７５巷","ALLEY":" ","HOUSE_NO":"３０號","E_COORD97":174265.56,"N_COORD97":2551161.25,"ADDRESS":"和平路２７５巷３０號","OBJECTID":437469},"geometry":{"x":174265.55999999959,"y":2551161.25}},{"attributes":{"ID":437495,"DIS_CODE":0,"TOWNNAME":"新市區","LI":"新市里","LIN":" ","STREET":"復興路","SECT":" ","MAREA":" ","LANE":"６２巷","ALLEY":" ","HOUSE_NO":"９之１０號","E_COORD97":177932.70000000001,"N_COORD97":2553490.2999999998,"ADDRESS":"復興路６２巷９之１０號","OBJECTID":437470},"geometry":{"x":177932.70000000112,"y":2553490.3000000026}},{"attributes":{"ID":437496,"DIS_CODE":0,"TOWNNAME":"新市區","LI":"新市里","LIN":" ","STREET":"復興路","SECT":" ","MAREA":" ","LANE":"６２巷","ALLEY":" ","HOUSE_NO":"９之１７號","E_COORD97":177967.06,"N_COORD97":2553491.7999999998,"ADDRESS":"復興路６２巷９之１７號","OBJECTID":437471},"geometry":{"x":177967.06000000052,"y":2553491.8000000007}},{"attributes":{"ID":437497,"DIS_CODE":0,"TOWNNAME":"新市區","LI":"新市里","LIN":" ","STREET":"復興路","SECT":" ","MAREA":" ","LANE":"６２巷","ALLEY":" ","HOUSE_NO":"９之３號","E_COORD97":177894.04000000001,"N_COORD97":2553488.7999999998,"ADDRESS":"復興路６２巷９之３號","OBJECTID":437472},"geometry":{"x":177894.04000000004,"y":2553488.7999999989}},{"attributes":{"ID":437498,"DIS_CODE":0,"TOWNNAME":"新市區","LI":"新市里","LIN":" ","STREET":"復興路","SECT":" ","MAREA":" ","LANE":"６２巷","ALLEY":" ","HOUSE_NO":"９之１２號","E_COORD97":177940.89999999999,"N_COORD97":2553490.5499999998,"ADDRESS":"復興路６２巷９之１２號","OBJECTID":437473},"geometry":{"x":177940.90000000037,"y":2553490.5500000045}},{"attributes":{"ID":437499,"DIS_CODE":0,"TOWNNAME":"新市區","LI":"新市里","LIN":" ","STREET":"復興路","SECT":" ","MAREA":" ","LANE":"６２巷","ALLEY":" ","HOUSE_NO":"９之２３號","E_COORD97":177898.09,"N_COORD97":2553508.2999999998,"ADDRESS":"復興路６２巷９之２３號","OBJECTID":437474},"geometry":{"x":177898.08999999985,"y":2553508.3000000007}},{"attributes":{"ID":437500,"DIS_CODE":0,"TOWNNAME":"南區","LI":"白雪里","LIN":" ","STREET":"鹽埕路","SECT":" ","MAREA":" ","LANE":"１９３巷","ALLEY":" ","HOUSE_NO":"１號","E_COORD97":166840.81,"N_COORD97":2541117.5099999998,"ADDRESS":"鹽埕路１９３巷１號","OBJECTID":437475},"geometry":{"x":166840.80999999959,"y":2541117.5099999998}},{"attributes":{"ID":437501,"DIS_CODE":0,"TOWNNAME":"新市區","LI":"新市里","LIN":" ","STREET":"復興路","SECT":" ","MAREA":" ","LANE":"６２巷","ALLEY":" ","HOUSE_NO":"９之３１號","E_COORD97":177959.59,"N_COORD97":2553510.7999999998,"ADDRESS":"復興路６２巷９之３１號","OBJECTID":437476},"geometry":{"x":177959.58999999985,"y":2553510.8000000026}},{"attributes":{"ID":437502,"DIS_CODE":0,"TOWNNAME":"新市區","LI":"新市里","LIN":" ","STREET":"復興路","SECT":" ","MAREA":" ","LANE":"６２巷","ALLEY":" ","HOUSE_NO":"９之３０號","E_COORD97":177953.09,"N_COORD97":2553510.5499999998,"ADDRESS":"復興路６２巷９之３０號","OBJECTID":437477},"geometry":{"x":177953.09000000171,"y":2553510.5500000007}},{"attributes":{"ID":437503,"DIS_CODE":0,"TOWNNAME":"新市區","LI":"新市里","LIN":" ","STREET":"復興路","SECT":" ","MAREA":" ","LANE":"６２巷","ALLEY":" ","HOUSE_NO":"９之２４號","E_COORD97":177904.81,"N_COORD97":2553508.5499999998,"ADDRESS":"復興路６２巷９之２４號","OBJECTID":437478},"geometry":{"x":177904.80999999959,"y":2553508.5500000026}},{"attributes":{"ID":437504,"DIS_CODE":0,"TOWNNAME":"新市區","LI":"新和里","LIN":" ","STREET":"民生路","SECT":" ","MAREA":" ","LANE":"６２巷","ALLEY":" ","HOUSE_NO":"１２號","E_COORD97":177278.79999999999,"N_COORD97":2553277.54,"ADDRESS":"民生路６２巷１２號","OBJECTID":437479},"geometry":{"x":177278.80000000075,"y":2553277.5399999991}},{"attributes":{"ID":437505,"DIS_CODE":0,"TOWNNAME":"新市區","LI":"新市里","LIN":" ","STREET":"復興路","SECT":" ","MAREA":" ","LANE":"６２巷","ALLEY":" ","HOUSE_NO":"９之１８號","E_COORD97":177971.14999999999,"N_COORD97":2553491.7999999998,"ADDRESS":"復興路６２巷９之１８號","OBJECTID":437480},"geometry":{"x":177971.15000000037,"y":2553491.8000000007}},{"attributes":{"ID":437506,"DIS_CODE":0,"TOWNNAME":"新市區","LI":"新市里","LIN":" ","STREET":"復興路","SECT":" ","MAREA":" ","LANE":"６２巷","ALLEY":" ","HOUSE_NO":"９之１４號","E_COORD97":177955.14999999999,"N_COORD97":2553491.2999999998,"ADDRESS":"復興路６２巷９之１４號","OBJECTID":437481},"geometry":{"x":177955.1500000013,"y":2553491.3000000007}},{"attributes":{"ID":437507,"DIS_CODE":0,"TOWNNAME":"新市區","LI":"新市里","LIN":" ","STREET":"復興路","SECT":" ","MAREA":" ","LANE":"６２巷","ALLEY":" ","HOUSE_NO":"９之５號","E_COORD97":177903.98999999999,"N_COORD97":2553489.0499999998,"ADDRESS":"復興路６２巷９之５號","OBJECTID":437482},"geometry":{"x":177903.99000000115,"y":2553489.0500000007}},{"attributes":{"ID":437508,"DIS_CODE":0,"TOWNNAME":"新市區","LI":"新和里","LIN":" ","STREET":"成功街","SECT":" ","MAREA":" ","LANE":"２巷","ALLEY":" ","HOUSE_NO":"２之６號","E_COORD97":177478.70999999999,"N_COORD97":2552546.5499999998,"ADDRESS":"成功街２巷２之６號","OBJECTID":437483},"geometry":{"x":177478.70999999996,"y":2552546.5500000007}},{"attributes":{"ID":437509,"DIS_CODE":0,"TOWNNAME":"新市區","LI":"新市里","LIN":" ","STREET":"復興路","SECT":" ","MAREA":" ","LANE":"６２巷","ALLEY":" ","HOUSE_NO":"９之７號","E_COORD97":177911.95000000001,"N_COORD97":2553489.2999999998,"ADDRESS":"復興路６２巷９之７號","OBJECTID":437484},"geometry":{"x":177911.95000000205,"y":2553489.3000000026}},{"attributes":{"ID":437510,"DIS_CODE":0,"TOWNNAME":"新市區","LI":"新市里","LIN":" ","STREET":"復興路","SECT":" ","MAREA":" ","LANE":"６２巷","ALLEY":" ","HOUSE_NO":"９之１３號","E_COORD97":177951.14999999999,"N_COORD97":2553491.0499999998,"ADDRESS":"復興路６２巷９之１３號","OBJECTID":437485},"geometry":{"x":177951.15000000037,"y":2553491.0500000026}},{"attributes":{"ID":437511,"DIS_CODE":0,"TOWNNAME":"東區","LI":"德高里","LIN":"6鄰","STREET":"仁和路","SECT":" ","MAREA":" ","LANE":"２０８巷","ALLEY":" ","HOUSE_NO":"２５號","E_COORD97":171477.04000000001,"N_COORD97":2540933.4700000002,"ADDRESS":"仁和路２０８巷２５號","OBJECTID":437486},"geometry":{"x":171477.04000000097,"y":2540933.4700000025}},{"attributes":{"ID":437512,"DIS_CODE":0,"TOWNNAME":"東區","LI":"德高里","LIN":"6鄰","STREET":"仁和路","SECT":" ","MAREA":" ","LANE":"２０８巷","ALLEY":" ","HOUSE_NO":"３３號","E_COORD97":171462.92999999999,"N_COORD97":2540918.7200000002,"ADDRESS":"仁和路２０８巷３３號","OBJECTID":437487},"geometry":{"x":171462.9299999997,"y":2540918.7200000025}},{"attributes":{"ID":437513,"DIS_CODE":0,"TOWNNAME":"東區","LI":"龍山里","LIN":"4鄰","STREET":"德光街","SECT":" ","MAREA":" ","LANE":"１５巷","ALLEY":" ","HOUSE_NO":"２３號","E_COORD97":170591.88,"N_COORD97":2542633.54,"ADDRESS":"德光街１５巷２３號","OBJECTID":437488},"geometry":{"x":170591.87999999989,"y":2542633.540000001}},{"attributes":{"ID":437514,"DIS_CODE":0,"TOWNNAME":"東區","LI":"龍山里","LIN":"4鄰","STREET":"德光街","SECT":" ","MAREA":" ","LANE":"１５巷","ALLEY":" ","HOUSE_NO":"２５號","E_COORD97":170597.14999999999,"N_COORD97":2542629.1200000001,"ADDRESS":"德光街１５巷２５號","OBJECTID":437489},"geometry":{"x":170597.15000000037,"y":2542629.1200000029}},{"attributes":{"ID":437515,"DIS_CODE":0,"TOWNNAME":"東區","LI":"龍山里","LIN":"4鄰","STREET":"德光街","SECT":" ","MAREA":" ","LANE":"１５巷","ALLEY":" ","HOUSE_NO":"２７號","E_COORD97":170603.54999999999,"N_COORD97":2542625.7400000002,"ADDRESS":"德光街１５巷２７號","OBJECTID":437490},"geometry":{"x":170603.55000000075,"y":2542625.7400000002}},{"attributes":{"ID":437516,"DIS_CODE":0,"TOWNNAME":"東區","LI":"龍山里","LIN":"7鄰","STREET":"長榮路","SECT":"一段","MAREA":" ","LANE":"２３４巷","ALLEY":" ","HOUSE_NO":"１４號","E_COORD97":169902.64999999999,"N_COORD97":2542841.7200000002,"ADDRESS":"長榮路一段２３４巷１４號","OBJECTID":437491},"geometry":{"x":169902.64999999944,"y":2542841.7200000025}},{"attributes":{"ID":437517,"DIS_CODE":0,"TOWNNAME":"東區","LI":"德高里","LIN":"6鄰","STREET":"仁和路","SECT":" ","MAREA":" ","LANE":"２０８巷","ALLEY":" ","HOUSE_NO":"３５號","E_COORD97":171457.63,"N_COORD97":2540914.0899999999,"ADDRESS":"仁和路２０８巷３５號","OBJECTID":437492},"geometry":{"x":171457.63000000082,"y":2540914.0899999999}},{"attributes":{"ID":437518,"DIS_CODE":0,"TOWNNAME":"東區","LI":"德高里","LIN":"6鄰","STREET":"仁和路","SECT":" ","MAREA":" ","LANE":"２０８巷","ALLEY":" ","HOUSE_NO":"３７號","E_COORD97":171446.70000000001,"N_COORD97":2540910.1200000001,"ADDRESS":"仁和路２０８巷３７號","OBJECTID":437493},"geometry":{"x":171446.70000000205,"y":2540910.1200000029}},{"attributes":{"ID":437519,"DIS_CODE":0,"TOWNNAME":"東區","LI":"德高里","LIN":"21鄰","STREET":"崇善路","SECT":" ","MAREA":" ","LANE":"８３５巷","ALLEY":" ","HOUSE_NO":"２號","E_COORD97":171326.47,"N_COORD97":2540817.1000000001,"ADDRESS":"崇善路８３５巷２號","OBJECTID":437494},"geometry":{"x":171326.46999999974,"y":2540817.1000000015}},{"attributes":{"ID":437520,"DIS_CODE":0,"TOWNNAME":"東區","LI":"龍山里","LIN":"12鄰","STREET":"東門路","SECT":"一段","MAREA":" ","LANE":"３５０巷","ALLEY":" ","HOUSE_NO":"１０號","E_COORD97":169789.79999999999,"N_COORD97":2542977.2999999998,"ADDRESS":"東門路一段３５０巷１０號","OBJECTID":437495},"geometry":{"x":169789.80000000075,"y":2542977.3000000007}},{"attributes":{"ID":437521,"DIS_CODE":0,"TOWNNAME":"南區","LI":"文華里","LIN":"1鄰","STREET":"永華路","SECT":"一段","MAREA":" ","LANE":"１９５巷","ALLEY":" ","HOUSE_NO":"１號","E_COORD97":167113.44,"N_COORD97":2543173.1299999999,"ADDRESS":"永華路一段１９５巷１號","OBJECTID":437496},"geometry":{"x":167113.44000000041,"y":2543173.129999999}},{"attributes":{"ID":437522,"DIS_CODE":0,"TOWNNAME":"南區","LI":"文華里","LIN":"1鄰","STREET":"永華路","SECT":"一段","MAREA":" ","LANE":"１９５巷","ALLEY":" ","HOUSE_NO":"２號","E_COORD97":167118.47,"N_COORD97":2543166.4900000002,"ADDRESS":"永華路一段１９５巷２號","OBJECTID":437497},"geometry":{"x":167118.47000000067,"y":2543166.4900000002}},{"attributes":{"ID":437523,"DIS_CODE":0,"TOWNNAME":"南區","LI":"文華里","LIN":"1鄰","STREET":"永華路","SECT":"一段","MAREA":" ","LANE":"１９５巷","ALLEY":" ","HOUSE_NO":"３號","E_COORD97":167121.79000000001,"N_COORD97":2543163.8900000001,"ADDRESS":"永華路一段１９５巷３號","OBJECTID":437498},"geometry":{"x":167121.79000000097,"y":2543163.8900000006}},{"attributes":{"ID":437524,"DIS_CODE":0,"TOWNNAME":"南區","LI":"文華里","LIN":"1鄰","STREET":"永華路","SECT":"一段","MAREA":" ","LANE":"１９５巷","ALLEY":" ","HOUSE_NO":"４號","E_COORD97":167125.39000000001,"N_COORD97":2543161.5600000001,"ADDRESS":"永華路一段１９５巷４號","OBJECTID":437499},"geometry":{"x":167125.39000000153,"y":2543161.5600000005}},{"attributes":{"ID":437525,"DIS_CODE":0,"TOWNNAME":"南區","LI":"文華里","LIN":"1鄰","STREET":"永華路","SECT":"一段","MAREA":" ","LANE":"２３３巷","ALLEY":" ","HOUSE_NO":"２號","E_COORD97":167079.22,"N_COORD97":2543191.6200000001,"ADDRESS":"永華路一段２３３巷２號","OBJECTID":437500},"geometry":{"x":167079.2200000016,"y":2543191.6200000029}},{"attributes":{"ID":437526,"DIS_CODE":0,"TOWNNAME":"南區","LI":"文華里","LIN":"4鄰","STREET":"金華路","SECT":"二段","MAREA":" ","LANE":"３８５巷","ALLEY":" ","HOUSE_NO":"２號","E_COORD97":167115.23999999999,"N_COORD97":2543023.5800000001,"ADDRESS":"金華路二段３８５巷２號","OBJECTID":437501},"geometry":{"x":167115.24000000209,"y":2543023.5800000038}},{"attributes":{"ID":437527,"DIS_CODE":0,"TOWNNAME":"南區","LI":"文華里","LIN":"4鄰","STREET":"金華路","SECT":"二段","MAREA":" ","LANE":"３８５巷","ALLEY":" ","HOUSE_NO":"４號","E_COORD97":167111.64000000001,"N_COORD97":2543024.0299999998,"ADDRESS":"金華路二段３８５巷４號","OBJECTID":437502},"geometry":{"x":167111.63999999966,"y":2543024.0300000012}},{"attributes":{"ID":437528,"DIS_CODE":0,"TOWNNAME":"南區","LI":"文華里","LIN":"4鄰","STREET":"金華路","SECT":"二段","MAREA":" ","LANE":"３８５巷","ALLEY":" ","HOUSE_NO":"６號","E_COORD97":167106.97,"N_COORD97":2543024.3900000001,"ADDRESS":"金華路二段３８５巷６號","OBJECTID":437503},"geometry":{"x":167106.97000000067,"y":2543024.3900000006}},{"attributes":{"ID":437529,"DIS_CODE":0,"TOWNNAME":"南區","LI":"文華里","LIN":"4鄰","STREET":"金華路","SECT":"二段","MAREA":" ","LANE":"３９９巷","ALLEY":" ","HOUSE_NO":"１號","E_COORD97":167121.60999999999,"N_COORD97":2543048.5699999998,"ADDRESS":"金華路二段３９９巷１號","OBJECTID":437504},"geometry":{"x":167121.61000000127,"y":2543048.5700000022}},{"attributes":{"ID":437530,"DIS_CODE":0,"TOWNNAME":"南區","LI":"文華里","LIN":"4鄰","STREET":"金華路","SECT":"二段","MAREA":" ","LANE":"３９９巷","ALLEY":" ","HOUSE_NO":"３號","E_COORD97":167116.94,"N_COORD97":2543049.2000000002,"ADDRESS":"金華路二段３９９巷３號","OBJECTID":437505},"geometry":{"x":167116.94000000041,"y":2543049.200000003}},{"attributes":{"ID":437531,"DIS_CODE":0,"TOWNNAME":"南區","LI":"文華里","LIN":"4鄰","STREET":"金華路","SECT":"二段","MAREA":" ","LANE":"３９９巷","ALLEY":" ","HOUSE_NO":"５號","E_COORD97":167113.62,"N_COORD97":2543049.3799999999,"ADDRESS":"金華路二段３９９巷５號","OBJECTID":437506},"geometry":{"x":167113.62000000011,"y":2543049.379999999}},{"attributes":{"ID":437532,"DIS_CODE":0,"TOWNNAME":"南區","LI":"文華里","LIN":"4鄰","STREET":"金華路","SECT":"二段","MAREA":" ","LANE":"３９９巷","ALLEY":" ","HOUSE_NO":"７號","E_COORD97":167108.23000000001,"N_COORD97":2543049.8199999998,"ADDRESS":"金華路二段３９９巷７號","OBJECTID":437507},"geometry":{"x":167108.23000000045,"y":2543049.8200000022}},{"attributes":{"ID":437533,"DIS_CODE":0,"TOWNNAME":"南區","LI":"日新里","LIN":" ","STREET":"鹽埕路","SECT":" ","MAREA":" ","LANE":"２０５巷","ALLEY":" ","HOUSE_NO":"１０號","E_COORD97":166852.41,"N_COORD97":2541224.8599999999,"ADDRESS":"鹽埕路２０５巷１０號","OBJECTID":437508},"geometry":{"x":166852.41000000015,"y":2541224.8600000013}},{"attributes":{"ID":437534,"DIS_CODE":0,"TOWNNAME":"南區","LI":"日新里","LIN":" ","STREET":"鹽埕路","SECT":" ","MAREA":" ","LANE":"２０５巷","ALLEY":" ","HOUSE_NO":"１１號","E_COORD97":166807.34,"N_COORD97":2541230.21,"ADDRESS":"鹽埕路２０５巷１１號","OBJECTID":437509},"geometry":{"x":166807.34000000171,"y":2541230.2100000046}},{"attributes":{"ID":437535,"DIS_CODE":0,"TOWNNAME":"南區","LI":"日新里","LIN":" ","STREET":"鹽埕路","SECT":" ","MAREA":" ","LANE":"２０５巷","ALLEY":" ","HOUSE_NO":"１１號之１","E_COORD97":166813.29999999999,"N_COORD97":2541236.7799999998,"ADDRESS":"鹽埕路２０５巷１１號之１","OBJECTID":437510},"geometry":{"x":166813.30000000075,"y":2541236.7799999993}},{"attributes":{"ID":437536,"DIS_CODE":0,"TOWNNAME":"南區","LI":"日新里","LIN":" ","STREET":"鹽埕路","SECT":" ","MAREA":" ","LANE":"２０５巷","ALLEY":" ","HOUSE_NO":"１１號之２","E_COORD97":166817.37,"N_COORD97":2541235.5299999998,"ADDRESS":"鹽埕路２０５巷１１號之２","OBJECTID":437511},"geometry":{"x":166817.36999999918,"y":2541235.5299999993}},{"attributes":{"ID":437537,"DIS_CODE":0,"TOWNNAME":"南區","LI":"日新里","LIN":" ","STREET":"鹽埕路","SECT":" ","MAREA":" ","LANE":"２０５巷","ALLEY":" ","HOUSE_NO":"１２號","E_COORD97":166846.45999999999,"N_COORD97":2541206.6000000001,"ADDRESS":"鹽埕路２０５巷１２號","OBJECTID":437512},"geometry":{"x":166846.45999999996,"y":2541206.6000000015}},{"attributes":{"ID":437538,"DIS_CODE":0,"TOWNNAME":"南區","LI":"日新里","LIN":" ","STREET":"鹽埕路","SECT":" ","MAREA":" ","LANE":"２０５巷","ALLEY":" ","HOUSE_NO":"１６號","E_COORD97":166831.98999999999,"N_COORD97":2541211.1800000002,"ADDRESS":"鹽埕路２０５巷１６號","OBJECTID":437513},"geometry":{"x":166831.99000000209,"y":2541211.1799999997}},{"attributes":{"ID":437539,"DIS_CODE":0,"TOWNNAME":"南區","LI":"日新里","LIN":" ","STREET":"鹽埕路","SECT":" ","MAREA":" ","LANE":"２０５巷","ALLEY":" ","HOUSE_NO":"１號","E_COORD97":166837.12,"N_COORD97":2541189.48,"ADDRESS":"鹽埕路２０５巷１號","OBJECTID":437514},"geometry":{"x":166837.12000000011,"y":2541189.4800000004}},{"attributes":{"ID":437540,"DIS_CODE":0,"TOWNNAME":"南區","LI":"日新里","LIN":" ","STREET":"鹽埕路","SECT":" ","MAREA":" ","LANE":"２０５巷","ALLEY":" ","HOUSE_NO":"２０號","E_COORD97":166842.14000000001,"N_COORD97":2541233.1099999999,"ADDRESS":"鹽埕路２０５巷２０號","OBJECTID":437515},"geometry":{"x":166842.13999999966,"y":2541233.1100000013}},{"attributes":{"ID":437541,"DIS_CODE":0,"TOWNNAME":"南區","LI":"日新里","LIN":" ","STREET":"鹽埕路","SECT":" ","MAREA":" ","LANE":"２０５巷","ALLEY":" ","HOUSE_NO":"２２號","E_COORD97":166842.66,"N_COORD97":2541239.79,"ADDRESS":"鹽埕路２０５巷２２號","OBJECTID":437516},"geometry":{"x":166842.66000000201,"y":2541239.7899999991}},{"attributes":{"ID":437542,"DIS_CODE":0,"TOWNNAME":"南區","LI":"日新里","LIN":" ","STREET":"鹽埕路","SECT":" ","MAREA":" ","LANE":"２０５巷","ALLEY":" ","HOUSE_NO":"２４號","E_COORD97":166820.82999999999,"N_COORD97":2541245.1299999999,"ADDRESS":"鹽埕路２０５巷２４號","OBJECTID":437517},"geometry":{"x":166820.83000000007,"y":2541245.129999999}},{"attributes":{"ID":437543,"DIS_CODE":0,"TOWNNAME":"南區","LI":"日新里","LIN":" ","STREET":"鹽埕路","SECT":" ","MAREA":" ","LANE":"２０５巷","ALLEY":" ","HOUSE_NO":"２６號","E_COORD97":166819.64000000001,"N_COORD97":2541256.73,"ADDRESS":"鹽埕路２０５巷２６號","OBJECTID":437518},"geometry":{"x":166819.63999999966,"y":2541256.7300000042}},{"attributes":{"ID":437544,"DIS_CODE":0,"TOWNNAME":"南區","LI":"日新里","LIN":" ","STREET":"鹽埕路","SECT":" ","MAREA":" ","LANE":"２０５巷","ALLEY":" ","HOUSE_NO":"２號","E_COORD97":166862.51000000001,"N_COORD97":2541166.4300000002,"ADDRESS":"鹽埕路２０５巷２號","OBJECTID":437519},"geometry":{"x":166862.51000000071,"y":2541166.4300000034}},{"attributes":{"ID":437545,"DIS_CODE":0,"TOWNNAME":"南區","LI":"日新里","LIN":" ","STREET":"鹽埕路","SECT":" ","MAREA":" ","LANE":"２０５巷","ALLEY":" ","HOUSE_NO":"３２號","E_COORD97":166807.23999999999,"N_COORD97":2541250.0600000001,"ADDRESS":"鹽埕路２０５巷３２號","OBJECTID":437520},"geometry":{"x":166807.24000000115,"y":2541250.0600000005}},{"attributes":{"ID":437546,"DIS_CODE":0,"TOWNNAME":"南區","LI":"日新里","LIN":" ","STREET":"鹽埕路","SECT":" ","MAREA":" ","LANE":"２０５巷","ALLEY":" ","HOUSE_NO":"３４號","E_COORD97":166796.67999999999,"N_COORD97":2541250.1899999999,"ADDRESS":"鹽埕路２０５巷３４號","OBJECTID":437521},"geometry":{"x":166796.68000000063,"y":2541250.1900000013}},{"attributes":{"ID":437547,"DIS_CODE":0,"TOWNNAME":"南區","LI":"日新里","LIN":" ","STREET":"鹽埕路","SECT":" ","MAREA":" ","LANE":"２０５巷","ALLEY":" ","HOUSE_NO":"３６號","E_COORD97":166796.16,"N_COORD97":2541262.2799999998,"ADDRESS":"鹽埕路２０５巷３６號","OBJECTID":437522},"geometry":{"x":166796.16000000015,"y":2541262.2800000012}},{"attributes":{"ID":437548,"DIS_CODE":0,"TOWNNAME":"南區","LI":"日新里","LIN":" ","STREET":"鹽埕路","SECT":" ","MAREA":" ","LANE":"２０５巷","ALLEY":" ","HOUSE_NO":"３號","E_COORD97":166819.06,"N_COORD97":2541198.1400000001,"ADDRESS":"鹽埕路２０５巷３號","OBJECTID":437523},"geometry":{"x":166819.06000000145,"y":2541198.1400000006}},{"attributes":{"ID":437549,"DIS_CODE":0,"TOWNNAME":"南區","LI":"日新里","LIN":" ","STREET":"鹽埕路","SECT":" ","MAREA":" ","LANE":"２０５巷","ALLEY":" ","HOUSE_NO":"４號","E_COORD97":166864.94,"N_COORD97":2541177.02,"ADDRESS":"鹽埕路２０５巷４號","OBJECTID":437524},"geometry":{"x":166864.94000000134,"y":2541177.0200000014}},{"attributes":{"ID":437550,"DIS_CODE":0,"TOWNNAME":"南區","LI":"日新里","LIN":" ","STREET":"鹽埕路","SECT":" ","MAREA":" ","LANE":"２０５巷","ALLEY":" ","HOUSE_NO":"６號","E_COORD97":166866.16,"N_COORD97":2541198.0299999998,"ADDRESS":"鹽埕路２０５巷６號","OBJECTID":437525},"geometry":{"x":166866.16000000015,"y":2541198.0299999993}},{"attributes":{"ID":437551,"DIS_CODE":0,"TOWNNAME":"南區","LI":"日新里","LIN":" ","STREET":"鹽埕路","SECT":" ","MAREA":" ","LANE":"２０５巷","ALLEY":" ","HOUSE_NO":"７號","E_COORD97":166817.45999999999,"N_COORD97":2541212.2400000002,"ADDRESS":"鹽埕路２０５巷７號","OBJECTID":437526},"geometry":{"x":166817.46000000089,"y":2541212.2400000039}},{"attributes":{"ID":437552,"DIS_CODE":0,"TOWNNAME":"南區","LI":"日新里","LIN":" ","STREET":"鹽埕路","SECT":" ","MAREA":" ","LANE":"２０５巷","ALLEY":" ","HOUSE_NO":"９號","E_COORD97":166818.79000000001,"N_COORD97":2541218.4900000002,"ADDRESS":"鹽埕路２０５巷９號","OBJECTID":437527},"geometry":{"x":166818.79000000004,"y":2541218.4900000021}},{"attributes":{"ID":437553,"DIS_CODE":0,"TOWNNAME":"南區","LI":"日新里","LIN":" ","STREET":"鹽埕路","SECT":" ","MAREA":" ","LANE":"２３９巷","ALLEY":" ","HOUSE_NO":"１號","E_COORD97":166881.98999999999,"N_COORD97":2541212.6400000001,"ADDRESS":"鹽埕路２３９巷１號","OBJECTID":437528},"geometry":{"x":166881.99000000115,"y":2541212.6400000006}},{"attributes":{"ID":437554,"DIS_CODE":0,"TOWNNAME":"南區","LI":"日新里","LIN":" ","STREET":"鹽埕路","SECT":" ","MAREA":" ","LANE":"２３９巷","ALLEY":" ","HOUSE_NO":"２號","E_COORD97":166879.45000000001,"N_COORD97":2541223.6800000002,"ADDRESS":"鹽埕路２３９巷２號","OBJECTID":437529},"geometry":{"x":166879.45000000019,"y":2541223.6800000016}},{"attributes":{"ID":437555,"DIS_CODE":0,"TOWNNAME":"南區","LI":"日新里","LIN":" ","STREET":"鹽埕路","SECT":" ","MAREA":" ","LANE":"２３９巷","ALLEY":" ","HOUSE_NO":"３號","E_COORD97":166868.19,"N_COORD97":2541236.1099999999,"ADDRESS":"鹽埕路２３９巷３號","OBJECTID":437530},"geometry":{"x":166868.19000000227,"y":2541236.1100000031}},{"attributes":{"ID":437556,"DIS_CODE":0,"TOWNNAME":"南區","LI":"日新里","LIN":" ","STREET":"鹽埕路","SECT":" ","MAREA":" ","LANE":"２３９巷","ALLEY":" ","HOUSE_NO":"５號","E_COORD97":166853.88,"N_COORD97":2541236.71,"ADDRESS":"鹽埕路２３９巷５號","OBJECTID":437531},"geometry":{"x":166853.87999999989,"y":2541236.709999999}},{"attributes":{"ID":437557,"DIS_CODE":0,"TOWNNAME":"南區","LI":"日新里","LIN":" ","STREET":"鹽埕路","SECT":" ","MAREA":" ","LANE":"２３９巷","ALLEY":" ","HOUSE_NO":"６號","E_COORD97":166889.73000000001,"N_COORD97":2541236.6200000001,"ADDRESS":"鹽埕路２３９巷６號","OBJECTID":437532},"geometry":{"x":166889.73000000045,"y":2541236.620000001}},{"attributes":{"ID":437558,"DIS_CODE":0,"TOWNNAME":"麻豆區","LI":"大埕里","LIN":"8鄰","STREET":" ","SECT":" ","MAREA":"大埕","LANE":" ","ALLEY":" ","HOUSE_NO":"１５號之４３","E_COORD97":173163.36171,"N_COORD97":2565342.3113299999,"ADDRESS":"大埕１５號之４３","OBJECTID":437533},"geometry":{"x":173163.36170999985,"y":2565342.3113299999}},{"attributes":{"ID":437559,"DIS_CODE":0,"TOWNNAME":"南區","LI":"日新里","LIN":" ","STREET":"鹽埕路","SECT":" ","MAREA":" ","LANE":"２３９巷","ALLEY":" ","HOUSE_NO":"７號","E_COORD97":166849.60000000001,"N_COORD97":2541237.48,"ADDRESS":"鹽埕路２３９巷７號","OBJECTID":437534},"geometry":{"x":166849.60000000056,"y":2541237.4800000004}},{"attributes":{"ID":437560,"DIS_CODE":0,"TOWNNAME":"南區","LI":"日新里","LIN":" ","STREET":"鹽埕路","SECT":" ","MAREA":" ","LANE":"２３９巷","ALLEY":" ","HOUSE_NO":"８號","E_COORD97":166880.29999999999,"N_COORD97":2541250.6000000001,"ADDRESS":"鹽埕路２３９巷８號","OBJECTID":437535},"geometry":{"x":166880.30000000168,"y":2541250.6000000015}},{"attributes":{"ID":437561,"DIS_CODE":0,"TOWNNAME":"南區","LI":"田寮里","LIN":"7鄰","STREET":"新興路","SECT":" ","MAREA":" ","LANE":"２１７巷","ALLEY":" ","HOUSE_NO":"３號","E_COORD97":167345.92999999999,"N_COORD97":2541952.75,"ADDRESS":"新興路２１７巷３號","OBJECTID":437536},"geometry":{"x":167345.93000000063,"y":2541952.75}},{"attributes":{"ID":437562,"DIS_CODE":0,"TOWNNAME":"南區","LI":"田寮里","LIN":"7鄰","STREET":"新興路","SECT":" ","MAREA":" ","LANE":"２１７巷","ALLEY":" ","HOUSE_NO":"５號","E_COORD97":167350.23000000001,"N_COORD97":2541950.7400000002,"ADDRESS":"新興路２１７巷５號","OBJECTID":437537},"geometry":{"x":167350.23000000045,"y":2541950.7400000002}},{"attributes":{"ID":437563,"DIS_CODE":0,"TOWNNAME":"南區","LI":"田寮里","LIN":"7鄰","STREET":"新興路","SECT":" ","MAREA":" ","LANE":"２１７巷","ALLEY":" ","HOUSE_NO":"１５號","E_COORD97":167378.79999999999,"N_COORD97":2541938.1200000001,"ADDRESS":"新興路２１７巷１５號","OBJECTID":437538},"geometry":{"x":167378.80000000168,"y":2541938.120000001}},{"attributes":{"ID":437564,"DIS_CODE":0,"TOWNNAME":"南區","LI":"田寮里","LIN":"7鄰","STREET":"新興路","SECT":" ","MAREA":" ","LANE":"２１７巷","ALLEY":" ","HOUSE_NO":"１９號","E_COORD97":167390.84,"N_COORD97":2541931.0699999998,"ADDRESS":"新興路２１７巷１９號","OBJECTID":437539},"geometry":{"x":167390.84000000078,"y":2541931.0700000003}},{"attributes":{"ID":437565,"DIS_CODE":0,"TOWNNAME":"南區","LI":"田寮里","LIN":"7鄰","STREET":"新興路","SECT":" ","MAREA":" ","LANE":"２１７巷","ALLEY":" ","HOUSE_NO":"１９號之１","E_COORD97":167393.19,"N_COORD97":2541930.02,"ADDRESS":"新興路２１７巷１９號之１","OBJECTID":437540},"geometry":{"x":167393.19000000041,"y":2541930.0200000014}},{"attributes":{"ID":437566,"DIS_CODE":0,"TOWNNAME":"南區","LI":"白雪里","LIN":" ","STREET":"鹽埕路","SECT":" ","MAREA":" ","LANE":"１５９巷","ALLEY":" ","HOUSE_NO":"７２號","E_COORD97":166646.35000000001,"N_COORD97":2541167.3100000001,"ADDRESS":"鹽埕路１５９巷７２號","OBJECTID":437541},"geometry":{"x":166646.35000000056,"y":2541167.3100000005}},{"attributes":{"ID":437567,"DIS_CODE":0,"TOWNNAME":"南區","LI":"白雪里","LIN":" ","STREET":"鹽埕路","SECT":" ","MAREA":" ","LANE":"１５９巷","ALLEY":" ","HOUSE_NO":"７８號","E_COORD97":166644.26999999999,"N_COORD97":2541181.3399999999,"ADDRESS":"鹽埕路１５９巷７８號","OBJECTID":437542},"geometry":{"x":166644.26999999955,"y":2541181.3400000017}},{"attributes":{"ID":437568,"DIS_CODE":0,"TOWNNAME":"南區","LI":"白雪里","LIN":" ","STREET":"鹽埕路","SECT":" ","MAREA":" ","LANE":"１５９巷","ALLEY":" ","HOUSE_NO":"８０號","E_COORD97":166638.01999999999,"N_COORD97":2541184.2000000002,"ADDRESS":"鹽埕路１５９巷８０號","OBJECTID":437543},"geometry":{"x":166638.02000000048,"y":2541184.1999999974}},{"attributes":{"ID":437569,"DIS_CODE":0,"TOWNNAME":"南區","LI":"白雪里","LIN":" ","STREET":"鹽埕路","SECT":" ","MAREA":" ","LANE":"１５９巷","ALLEY":" ","HOUSE_NO":"８２號","E_COORD97":166634.64000000001,"N_COORD97":2541187.5800000001,"ADDRESS":"鹽埕路１５９巷８２號","OBJECTID":437544},"geometry":{"x":166634.63999999966,"y":2541187.5800000019}},{"attributes":{"ID":437570,"DIS_CODE":0,"TOWNNAME":"南區","LI":"白雪里","LIN":" ","STREET":"鹽埕路","SECT":" ","MAREA":" ","LANE":"１５９巷","ALLEY":" ","HOUSE_NO":"８４號","E_COORD97":166631.51999999999,"N_COORD97":2541189.1400000001,"ADDRESS":"鹽埕路１５９巷８４號","OBJECTID":437545},"geometry":{"x":166631.52000000048,"y":2541189.1400000006}},{"attributes":{"ID":437571,"DIS_CODE":0,"TOWNNAME":"南區","LI":"田寮里","LIN":"6鄰","STREET":"新興路","SECT":" ","MAREA":" ","LANE":"２１７巷","ALLEY":" ","HOUSE_NO":"５８號","E_COORD97":167466.57999999999,"N_COORD97":2541868.3799999999,"ADDRESS":"新興路２１７巷５８號","OBJECTID":437546},"geometry":{"x":167466.58000000007,"y":2541868.3800000008}},{"attributes":{"ID":437572,"DIS_CODE":0,"TOWNNAME":"南區","LI":"白雪里","LIN":" ","STREET":"鹽埕路","SECT":" ","MAREA":" ","LANE":"１６０巷","ALLEY":" ","HOUSE_NO":"２５號","E_COORD97":166935.48000000001,"N_COORD97":2541009.1200000001,"ADDRESS":"鹽埕路１６０巷２５號","OBJECTID":437547},"geometry":{"x":166935.48000000045,"y":2541009.120000001}},{"attributes":{"ID":437573,"DIS_CODE":0,"TOWNNAME":"南區","LI":"白雪里","LIN":" ","STREET":"鹽埕路","SECT":" ","MAREA":" ","LANE":"１６０巷","ALLEY":" ","HOUSE_NO":"２７號","E_COORD97":166940.60999999999,"N_COORD97":2541000.8199999998,"ADDRESS":"鹽埕路１６０巷２７號","OBJECTID":437548},"geometry":{"x":166940.61000000127,"y":2541000.8200000003}},{"attributes":{"ID":437574,"DIS_CODE":0,"TOWNNAME":"南區","LI":"白雪里","LIN":" ","STREET":"鹽埕路","SECT":" ","MAREA":" ","LANE":"１６０巷","ALLEY":" ","HOUSE_NO":"２９號","E_COORD97":166945.01000000001,"N_COORD97":2540998.6299999999,"ADDRESS":"鹽埕路１６０巷２９號","OBJECTID":437549},"geometry":{"x":166945.01000000164,"y":2540998.6300000008}},{"attributes":{"ID":437575,"DIS_CODE":0,"TOWNNAME":"南區","LI":"白雪里","LIN":" ","STREET":"鹽埕路","SECT":" ","MAREA":" ","LANE":"１６０巷","ALLEY":" ","HOUSE_NO":"３３號","E_COORD97":166936.07999999999,"N_COORD97":2541030.52,"ADDRESS":"鹽埕路１６０巷３３號","OBJECTID":437550},"geometry":{"x":166936.08000000007,"y":2541030.5200000014}},{"attributes":{"ID":437576,"DIS_CODE":0,"TOWNNAME":"南區","LI":"白雪里","LIN":" ","STREET":"鹽埕路","SECT":" ","MAREA":" ","LANE":"１６０巷","ALLEY":" ","HOUSE_NO":"３５號","E_COORD97":166939.48000000001,"N_COORD97":2541031.0899999999,"ADDRESS":"鹽埕路１６０巷３５號","OBJECTID":437551},"geometry":{"x":166939.48000000138,"y":2541031.0900000017}},{"attributes":{"ID":437577,"DIS_CODE":0,"TOWNNAME":"南區","LI":"白雪里","LIN":" ","STREET":"鹽埕路","SECT":" ","MAREA":" ","LANE":"１６０巷","ALLEY":" ","HOUSE_NO":"３７號","E_COORD97":166943.44,"N_COORD97":2541030.3300000001,"ADDRESS":"鹽埕路１６０巷３７號","OBJECTID":437552},"geometry":{"x":166943.44000000134,"y":2541030.3300000001}},{"attributes":{"ID":437578,"DIS_CODE":0,"TOWNNAME":"南區","LI":"白雪里","LIN":" ","STREET":"鹽埕路","SECT":" ","MAREA":" ","LANE":"１６０巷","ALLEY":" ","HOUSE_NO":"３９號","E_COORD97":166947.97,"N_COORD97":2541030.52,"ADDRESS":"鹽埕路１６０巷３９號","OBJECTID":437553},"geometry":{"x":166947.96999999974,"y":2541030.5200000014}},{"attributes":{"ID":437579,"DIS_CODE":0,"TOWNNAME":"南區","LI":"白雪里","LIN":" ","STREET":"鹽埕路","SECT":" ","MAREA":" ","LANE":"１６０巷","ALLEY":" ","HOUSE_NO":"４１號","E_COORD97":166933.63,"N_COORD97":2541045.23,"ADDRESS":"鹽埕路１６０巷４１號","OBJECTID":437554},"geometry":{"x":166933.62999999989,"y":2541045.2300000004}},{"attributes":{"ID":437580,"DIS_CODE":0,"TOWNNAME":"南區","LI":"白雪里","LIN":" ","STREET":"鹽埕路","SECT":" ","MAREA":" ","LANE":"１６０巷","ALLEY":" ","HOUSE_NO":"４３號","E_COORD97":166938.73000000001,"N_COORD97":2541044.4700000002,"ADDRESS":"鹽埕路１６０巷４３號","OBJECTID":437555},"geometry":{"x":166938.73000000045,"y":2541044.4700000007}},{"attributes":{"ID":437581,"DIS_CODE":0,"TOWNNAME":"南區","LI":"白雪里","LIN":" ","STREET":"鹽埕路","SECT":" ","MAREA":" ","LANE":"１６０巷","ALLEY":" ","HOUSE_NO":"４５號","E_COORD97":166946.26999999999,"N_COORD97":2541043.7200000002,"ADDRESS":"鹽埕路１６０巷４５號","OBJECTID":437556},"geometry":{"x":166946.26999999862,"y":2541043.7200000025}},{"attributes":{"ID":437582,"DIS_CODE":0,"TOWNNAME":"南區","LI":"白雪里","LIN":" ","STREET":"鹽埕路","SECT":" ","MAREA":" ","LANE":"１６０巷","ALLEY":" ","HOUSE_NO":"４７號","E_COORD97":166953.26000000001,"N_COORD97":2541043.5299999998,"ADDRESS":"鹽埕路１６０巷４７號","OBJECTID":437557},"geometry":{"x":166953.25999999978,"y":2541043.5300000012}},{"attributes":{"ID":437583,"DIS_CODE":0,"TOWNNAME":"南區","LI":"白雪里","LIN":" ","STREET":"鹽埕路","SECT":" ","MAREA":" ","LANE":"１６０巷","ALLEY":" ","HOUSE_NO":"４９號","E_COORD97":166933.44,"N_COORD97":2541062.7599999998,"ADDRESS":"鹽埕路１６０巷４９號","OBJECTID":437558},"geometry":{"x":166933.44000000041,"y":2541062.7600000016}},{"attributes":{"ID":437584,"DIS_CODE":0,"TOWNNAME":"南區","LI":"白雪里","LIN":" ","STREET":"鹽埕路","SECT":" ","MAREA":" ","LANE":"１６０巷","ALLEY":" ","HOUSE_NO":"５５號","E_COORD97":166928.16,"N_COORD97":2541065.96,"ADDRESS":"鹽埕路１６０巷５５號","OBJECTID":437559},"geometry":{"x":166928.16000000108,"y":2541065.9600000028}},{"attributes":{"ID":437585,"DIS_CODE":0,"TOWNNAME":"南區","LI":"白雪里","LIN":" ","STREET":"鹽埕路","SECT":" ","MAREA":" ","LANE":"１６０巷","ALLEY":" ","HOUSE_NO":"１號","E_COORD97":166864.17000000001,"N_COORD97":2541047.6600000001,"ADDRESS":"鹽埕路１６０巷１號","OBJECTID":437560},"geometry":{"x":166864.16999999993,"y":2541047.660000002}},{"attributes":{"ID":437586,"DIS_CODE":0,"TOWNNAME":"南區","LI":"白雪里","LIN":" ","STREET":"鹽埕路","SECT":" ","MAREA":" ","LANE":"１６０巷","ALLEY":" ","HOUSE_NO":"３號","E_COORD97":166867.98000000001,"N_COORD97":2541047.6099999999,"ADDRESS":"鹽埕路１６０巷３號","OBJECTID":437561},"geometry":{"x":166867.98000000231,"y":2541047.6100000013}},{"attributes":{"ID":437587,"DIS_CODE":0,"TOWNNAME":"南區","LI":"白雪里","LIN":" ","STREET":"鹽埕路","SECT":" ","MAREA":" ","LANE":"１６０巷","ALLEY":" ","HOUSE_NO":"５號","E_COORD97":166873.95999999999,"N_COORD97":2541048.1499999999,"ADDRESS":"鹽埕路１６０巷５號","OBJECTID":437562},"geometry":{"x":166873.95999999996,"y":2541048.1500000022}},{"attributes":{"ID":437588,"DIS_CODE":0,"TOWNNAME":"南區","LI":"白雪里","LIN":" ","STREET":"鹽埕路","SECT":" ","MAREA":" ","LANE":"１６０巷","ALLEY":" ","HOUSE_NO":"７號","E_COORD97":166879.19,"N_COORD97":2541045.0499999998,"ADDRESS":"鹽埕路１６０巷７號","OBJECTID":437563},"geometry":{"x":166879.19000000041,"y":2541045.0500000026}},{"attributes":{"ID":437589,"DIS_CODE":0,"TOWNNAME":"南區","LI":"白雪里","LIN":" ","STREET":"鹽埕路","SECT":" ","MAREA":" ","LANE":"１６０巷","ALLEY":" ","HOUSE_NO":"９號","E_COORD97":166886.94,"N_COORD97":2541054.3399999999,"ADDRESS":"鹽埕路１６０巷９號","OBJECTID":437564},"geometry":{"x":166886.94000000227,"y":2541054.3399999999}},{"attributes":{"ID":437590,"DIS_CODE":0,"TOWNNAME":"南區","LI":"白雪里","LIN":" ","STREET":"鹽埕路","SECT":" ","MAREA":" ","LANE":"１６０巷","ALLEY":" ","HOUSE_NO":"１１號","E_COORD97":166898.82000000001,"N_COORD97":2541048.1000000001,"ADDRESS":"鹽埕路１６０巷１１號","OBJECTID":437565},"geometry":{"x":166898.8200000003,"y":2541048.1000000015}},{"attributes":{"ID":437591,"DIS_CODE":0,"TOWNNAME":"南區","LI":"白雪里","LIN":" ","STREET":"鹽埕路","SECT":" ","MAREA":" ","LANE":"１６０巷","ALLEY":" ","HOUSE_NO":"１７號","E_COORD97":166911.38,"N_COORD97":2541033.3999999999,"ADDRESS":"鹽埕路１６０巷１７號","OBJECTID":437566},"geometry":{"x":166911.37999999989,"y":2541033.4000000004}},{"attributes":{"ID":437592,"DIS_CODE":0,"TOWNNAME":"南區","LI":"白雪里","LIN":" ","STREET":"鹽埕路","SECT":" ","MAREA":" ","LANE":"２９１巷","ALLEY":" ","HOUSE_NO":"２６號","E_COORD97":166632.32999999999,"N_COORD97":2541243.2999999998,"ADDRESS":"鹽埕路２９１巷２６號","OBJECTID":437567},"geometry":{"x":166632.33000000007,"y":2541243.3000000026}},{"attributes":{"ID":437593,"DIS_CODE":0,"TOWNNAME":"麻豆區","LI":"大埕里","LIN":"8鄰","STREET":" ","SECT":" ","MAREA":"大埕","LANE":" ","ALLEY":" ","HOUSE_NO":"１５號之４２","E_COORD97":173162.72596000001,"N_COORD97":2565346.5446600001,"ADDRESS":"大埕１５號之４２","OBJECTID":437568},"geometry":{"x":173162.72596000135,"y":2565346.5446599983}},{"attributes":{"ID":437594,"DIS_CODE":0,"TOWNNAME":"南區","LI":"白雪里","LIN":" ","STREET":"鹽埕路","SECT":" ","MAREA":" ","LANE":"２９１巷","ALLEY":" ","HOUSE_NO":"２４號","E_COORD97":166635.39999999999,"N_COORD97":2541242.3599999999,"ADDRESS":"鹽埕路２９１巷２４號","OBJECTID":437569},"geometry":{"x":166635.40000000037,"y":2541242.3600000013}},{"attributes":{"ID":437595,"DIS_CODE":0,"TOWNNAME":"南區","LI":"白雪里","LIN":" ","STREET":"鹽埕路","SECT":" ","MAREA":" ","LANE":"２９１巷","ALLEY":" ","HOUSE_NO":"２２號","E_COORD97":166639.06,"N_COORD97":2541237.96,"ADDRESS":"鹽埕路２９１巷２２號","OBJECTID":437570},"geometry":{"x":166639.05999999959,"y":2541237.9600000009}},{"attributes":{"ID":437596,"DIS_CODE":0,"TOWNNAME":"南區","LI":"白雪里","LIN":" ","STREET":"鹽埕路","SECT":" ","MAREA":" ","LANE":"２９１巷","ALLEY":" ","HOUSE_NO":"２０號","E_COORD97":166640.95999999999,"N_COORD97":2541236.9399999999,"ADDRESS":"鹽埕路２９１巷２０號","OBJECTID":437571},"geometry":{"x":166640.96000000089,"y":2541236.9399999976}},{"attributes":{"ID":437597,"DIS_CODE":0,"TOWNNAME":"南區","LI":"白雪里","LIN":" ","STREET":"鹽埕路","SECT":" ","MAREA":" ","LANE":"２９１巷","ALLEY":" ","HOUSE_NO":"１８號","E_COORD97":166643.82999999999,"N_COORD97":2541235.0099999998,"ADDRESS":"鹽埕路２９１巷１８號","OBJECTID":437572},"geometry":{"x":166643.83000000101,"y":2541235.0100000016}},{"attributes":{"ID":437598,"DIS_CODE":0,"TOWNNAME":"南區","LI":"白雪里","LIN":" ","STREET":"鹽埕路","SECT":" ","MAREA":" ","LANE":"２９１巷","ALLEY":" ","HOUSE_NO":"１６號","E_COORD97":166653.48999999999,"N_COORD97":2541229.79,"ADDRESS":"鹽埕路２９１巷１６號","OBJECTID":437573},"geometry":{"x":166653.49000000022,"y":2541229.7899999991}},{"attributes":{"ID":437599,"DIS_CODE":0,"TOWNNAME":"南區","LI":"白雪里","LIN":" ","STREET":"鹽埕路","SECT":" ","MAREA":" ","LANE":"２９１巷","ALLEY":" ","HOUSE_NO":"１４號","E_COORD97":166658.59,"N_COORD97":2541227.7799999998,"ADDRESS":"鹽埕路２９１巷１４號","OBJECTID":437574},"geometry":{"x":166658.59000000078,"y":2541227.7799999975}},{"attributes":{"ID":437600,"DIS_CODE":0,"TOWNNAME":"南區","LI":"白雪里","LIN":" ","STREET":"鹽埕路","SECT":" ","MAREA":" ","LANE":"１８７巷","ALLEY":" ","HOUSE_NO":"２６號","E_COORD97":166772.54999999999,"N_COORD97":2541108.0099999998,"ADDRESS":"鹽埕路１８７巷２６號","OBJECTID":437575},"geometry":{"x":166772.55000000075,"y":2541108.0099999979}},{"attributes":{"ID":437601,"DIS_CODE":0,"TOWNNAME":"南區","LI":"白雪里","LIN":" ","STREET":"鹽埕路","SECT":" ","MAREA":" ","LANE":"１８７巷","ALLEY":" ","HOUSE_NO":"２８號","E_COORD97":166778.10999999999,"N_COORD97":2541096.8300000001,"ADDRESS":"鹽埕路１８７巷２８號","OBJECTID":437576},"geometry":{"x":166778.11000000034,"y":2541096.8300000019}},{"attributes":{"ID":437602,"DIS_CODE":0,"TOWNNAME":"南區","LI":"白雪里","LIN":" ","STREET":"鹽埕路","SECT":" ","MAREA":" ","LANE":"１９３巷","ALLEY":" ","HOUSE_NO":"３號","E_COORD97":166823.54000000001,"N_COORD97":2541128.02,"ADDRESS":"鹽埕路１９３巷３號","OBJECTID":437577},"geometry":{"x":166823.54000000097,"y":2541128.0199999977}},{"attributes":{"ID":437603,"DIS_CODE":0,"TOWNNAME":"南區","LI":"白雪里","LIN":" ","STREET":"鹽埕路","SECT":" ","MAREA":" ","LANE":"１９３巷","ALLEY":" ","HOUSE_NO":"５號","E_COORD97":166817.39000000001,"N_COORD97":2541129.21,"ADDRESS":"鹽埕路１９３巷５號","OBJECTID":437578},"geometry":{"x":166817.3900000006,"y":2541129.2100000028}},{"attributes":{"ID":437604,"DIS_CODE":0,"TOWNNAME":"南區","LI":"白雪里","LIN":" ","STREET":"鹽埕路","SECT":" ","MAREA":" ","LANE":"１９３巷","ALLEY":" ","HOUSE_NO":"７號","E_COORD97":166814.85000000001,"N_COORD97":2541130.3599999999,"ADDRESS":"鹽埕路１９３巷７號","OBJECTID":437579},"geometry":{"x":166814.84999999963,"y":2541130.3600000013}},{"attributes":{"ID":437605,"DIS_CODE":0,"TOWNNAME":"南區","LI":"白雪里","LIN":" ","STREET":"鹽埕路","SECT":" ","MAREA":" ","LANE":"１９３巷","ALLEY":" ","HOUSE_NO":"１６號","E_COORD97":166815.14999999999,"N_COORD97":2541142,"ADDRESS":"鹽埕路１９３巷１６號","OBJECTID":437580},"geometry":{"x":166815.15000000037,"y":2541142}},{"attributes":{"ID":437606,"DIS_CODE":0,"TOWNNAME":"南區","LI":"白雪里","LIN":" ","STREET":"鹽埕路","SECT":" ","MAREA":" ","LANE":"１９３巷","ALLEY":" ","HOUSE_NO":"２０號","E_COORD97":166810.01999999999,"N_COORD97":2541140.5,"ADDRESS":"鹽埕路１９３巷２０號","OBJECTID":437581},"geometry":{"x":166810.01999999955,"y":2541140.5000000019}},{"attributes":{"ID":437607,"DIS_CODE":0,"TOWNNAME":"南區","LI":"白雪里","LIN":" ","STREET":"鹽埕路","SECT":" ","MAREA":" ","LANE":"１９３巷","ALLEY":" ","HOUSE_NO":"２４號","E_COORD97":166806.39000000001,"N_COORD97":2541136.6600000001,"ADDRESS":"鹽埕路１９３巷２４號","OBJECTID":437582},"geometry":{"x":166806.38999999966,"y":2541136.6600000001}},{"attributes":{"ID":437608,"DIS_CODE":0,"TOWNNAME":"南區","LI":"白雪里","LIN":" ","STREET":"鹽埕路","SECT":" ","MAREA":" ","LANE":"１９３巷","ALLEY":" ","HOUSE_NO":"２８號","E_COORD97":166800.39999999999,"N_COORD97":2541138.1499999999,"ADDRESS":"鹽埕路１９３巷２８號","OBJECTID":437583},"geometry":{"x":166800.40000000037,"y":2541138.1499999985}},{"attributes":{"ID":437609,"DIS_CODE":0,"TOWNNAME":"南區","LI":"白雪里","LIN":" ","STREET":"鹽埕路","SECT":" ","MAREA":" ","LANE":"１９３巷","ALLEY":" ","HOUSE_NO":"３２號","E_COORD97":166795.91,"N_COORD97":2541136.0099999998,"ADDRESS":"鹽埕路１９３巷３２號","OBJECTID":437584},"geometry":{"x":166795.91000000108,"y":2541136.0100000016}},{"attributes":{"ID":437610,"DIS_CODE":0,"TOWNNAME":"南區","LI":"白雪里","LIN":" ","STREET":"鹽埕路","SECT":" ","MAREA":" ","LANE":"１８７巷","ALLEY":" ","HOUSE_NO":"２號","E_COORD97":166820.48999999999,"N_COORD97":2541119.27,"ADDRESS":"鹽埕路１８７巷２號","OBJECTID":437585},"geometry":{"x":166820.49000000115,"y":2541119.2699999996}},{"attributes":{"ID":437611,"DIS_CODE":0,"TOWNNAME":"南區","LI":"白雪里","LIN":" ","STREET":"鹽埕路","SECT":" ","MAREA":" ","LANE":"１８７巷","ALLEY":" ","HOUSE_NO":"４號","E_COORD97":166815.16,"N_COORD97":2541121.23,"ADDRESS":"鹽埕路１８７巷４號","OBJECTID":437586},"geometry":{"x":166815.16000000015,"y":2541121.2300000042}},{"attributes":{"ID":437612,"DIS_CODE":0,"TOWNNAME":"南區","LI":"白雪里","LIN":" ","STREET":"鹽埕路","SECT":" ","MAREA":" ","LANE":"１８７巷","ALLEY":" ","HOUSE_NO":"６號","E_COORD97":166812.17999999999,"N_COORD97":2541122.9199999999,"ADDRESS":"鹽埕路１８７巷６號","OBJECTID":437587},"geometry":{"x":166812.18000000063,"y":2541122.9200000018}},{"attributes":{"ID":437613,"DIS_CODE":0,"TOWNNAME":"南區","LI":"白雪里","LIN":" ","STREET":"鹽埕路","SECT":" ","MAREA":" ","LANE":"１８７巷","ALLEY":" ","HOUSE_NO":"８號","E_COORD97":166807.67000000001,"N_COORD97":2541127.4700000002,"ADDRESS":"鹽埕路１８７巷８號","OBJECTID":437588},"geometry":{"x":166807.66999999993,"y":2541127.4700000025}},{"attributes":{"ID":437614,"DIS_CODE":0,"TOWNNAME":"南區","LI":"白雪里","LIN":" ","STREET":"鹽埕路","SECT":" ","MAREA":" ","LANE":"１８７巷","ALLEY":" ","HOUSE_NO":"１０號","E_COORD97":166802.75,"N_COORD97":2541129.1800000002,"ADDRESS":"鹽埕路１８７巷１０號","OBJECTID":437589},"geometry":{"x":166802.75,"y":2541129.1799999997}},{"attributes":{"ID":437615,"DIS_CODE":0,"TOWNNAME":"南區","LI":"白雪里","LIN":" ","STREET":"鹽埕路","SECT":" ","MAREA":" ","LANE":"１９３巷","ALLEY":" ","HOUSE_NO":"２號","E_COORD97":166845.39000000001,"N_COORD97":2541124.3700000001,"ADDRESS":"鹽埕路１９３巷２號","OBJECTID":437590},"geometry":{"x":166845.38999999966,"y":2541124.3700000029}},{"attributes":{"ID":437616,"DIS_CODE":0,"TOWNNAME":"南區","LI":"白雪里","LIN":" ","STREET":"鹽埕路","SECT":" ","MAREA":" ","LANE":"１８７巷","ALLEY":" ","HOUSE_NO":"９號","E_COORD97":166807.03,"N_COORD97":2541114.4399999999,"ADDRESS":"鹽埕路１８７巷９號","OBJECTID":437591},"geometry":{"x":166807.03000000119,"y":2541114.4399999995}},{"attributes":{"ID":437617,"DIS_CODE":0,"TOWNNAME":"南區","LI":"白雪里","LIN":" ","STREET":"鹽埕路","SECT":" ","MAREA":" ","LANE":"１３１巷","ALLEY":" ","HOUSE_NO":"３號","E_COORD97":166711.32999999999,"N_COORD97":2541047.9100000001,"ADDRESS":"鹽埕路１３１巷３號","OBJECTID":437592},"geometry":{"x":166711.33000000101,"y":2541047.9100000001}},{"attributes":{"ID":437618,"DIS_CODE":0,"TOWNNAME":"南區","LI":"白雪里","LIN":" ","STREET":"鹽埕路","SECT":" ","MAREA":" ","LANE":"１３１巷","ALLEY":" ","HOUSE_NO":"５號","E_COORD97":166702.60000000001,"N_COORD97":2541051.0499999998,"ADDRESS":"鹽埕路１３１巷５號","OBJECTID":437593},"geometry":{"x":166702.60000000056,"y":2541051.0500000007}},{"attributes":{"ID":437619,"DIS_CODE":0,"TOWNNAME":"南區","LI":"白雪里","LIN":" ","STREET":"鹽埕路","SECT":" ","MAREA":" ","LANE":"１３１巷","ALLEY":" ","HOUSE_NO":"７號","E_COORD97":166698.41,"N_COORD97":2541053.1400000001,"ADDRESS":"鹽埕路１３１巷７號","OBJECTID":437594},"geometry":{"x":166698.41000000015,"y":2541053.1400000006}},{"attributes":{"ID":437620,"DIS_CODE":0,"TOWNNAME":"南區","LI":"白雪里","LIN":" ","STREET":"鹽埕路","SECT":" ","MAREA":" ","LANE":"１３１巷","ALLEY":" ","HOUSE_NO":"９號","E_COORD97":166687.95000000001,"N_COORD97":2541054.5299999998,"ADDRESS":"鹽埕路１３１巷９號","OBJECTID":437595},"geometry":{"x":166687.95000000019,"y":2541054.5300000012}},{"attributes":{"ID":437621,"DIS_CODE":0,"TOWNNAME":"南區","LI":"白雪里","LIN":" ","STREET":"鹽埕路","SECT":" ","MAREA":" ","LANE":"１３１巷","ALLEY":" ","HOUSE_NO":"２２號","E_COORD97":166757.53,"N_COORD97":2541054.4199999999,"ADDRESS":"鹽埕路１３１巷２２號","OBJECTID":437596},"geometry":{"x":166757.53000000119,"y":2541054.4199999999}},{"attributes":{"ID":437622,"DIS_CODE":0,"TOWNNAME":"南區","LI":"白雪里","LIN":" ","STREET":"鹽埕路","SECT":" ","MAREA":" ","LANE":"１３１巷","ALLEY":" ","HOUSE_NO":"２４號","E_COORD97":166751.42999999999,"N_COORD97":2541065.0800000001,"ADDRESS":"鹽埕路１３１巷２４號","OBJECTID":437597},"geometry":{"x":166751.4299999997,"y":2541065.0800000019}},{"attributes":{"ID":437623,"DIS_CODE":0,"TOWNNAME":"南區","LI":"白雪里","LIN":" ","STREET":"鹽埕路","SECT":" ","MAREA":" ","LANE":"１３１巷","ALLEY":" ","HOUSE_NO":"２６號","E_COORD97":166737.72,"N_COORD97":2541066.6000000001,"ADDRESS":"鹽埕路１３１巷２６號","OBJECTID":437598},"geometry":{"x":166737.71999999974,"y":2541066.5999999978}},{"attributes":{"ID":437624,"DIS_CODE":0,"TOWNNAME":"南區","LI":"白雪里","LIN":" ","STREET":"鹽埕路","SECT":" ","MAREA":" ","LANE":"１３１巷","ALLEY":" ","HOUSE_NO":"２８號","E_COORD97":166721.70999999999,"N_COORD97":2541071.1699999999,"ADDRESS":"鹽埕路１３１巷２８號","OBJECTID":437599},"geometry":{"x":166721.71000000183,"y":2541071.1700000018}},{"attributes":{"ID":437625,"DIS_CODE":0,"TOWNNAME":"南區","LI":"白雪里","LIN":" ","STREET":"鹽埕路","SECT":" ","MAREA":" ","LANE":"１３１巷","ALLEY":" ","HOUSE_NO":"３０號","E_COORD97":166713.70999999999,"N_COORD97":2541073.8300000001,"ADDRESS":"鹽埕路１３１巷３０號","OBJECTID":437600},"geometry":{"x":166713.71000000089,"y":2541073.8300000019}}]}