{"displayFieldName":"TOWNNAME","fieldAliases":{"ID":"ID","DIS_CODE":"DIS_CODE","TOWNNAME":"TOWNNAME","LI":"LI","LIN":"LIN","STREET":"STREET","SECT":"SECT","MAREA":"MAREA","LANE":"LANE","ALLEY":"ALLEY","HOUSE_NO":"HOUSE_NO","E_COORD97":"E_COORD97","N_COORD97":"N_COORD97","ADDRESS":"ADDRESS","OBJECTID":"OBJECTID"},"geometryType":"esriGeometryPoint","spatialReference":{"wkid":102443,"latestWkid":3826},"fields":[{"name":"ID","type":"esriFieldTypeDouble","alias":"ID"},{"name":"DIS_CODE","type":"esriFieldTypeInteger","alias":"DIS_CODE"},{"name":"TOWNNAME","type":"esriFieldTypeString","alias":"TOWNNAME","length":8},{"name":"LI","type":"esriFieldTypeString","alias":"LI","length":8},{"name":"LIN","type":"esriFieldTypeString","alias":"LIN","length":12},{"name":"STREET","type":"esriFieldTypeString","alias":"STREET","length":20},{"name":"SECT","type":"esriFieldTypeString","alias":"SECT","length":8},{"name":"MAREA","type":"esriFieldTypeString","alias":"MAREA","length":12},{"name":"LANE","type":"esriFieldTypeString","alias":"LANE","length":10},{"name":"ALLEY","type":"esriFieldTypeString","alias":"ALLEY","length":10},{"name":"HOUSE_NO","type":"esriFieldTypeString","alias":"HOUSE_NO","length":20},{"name":"E_COORD97","type":"esriFieldTypeDouble","alias":"E_COORD97"},{"name":"N_COORD97","type":"esriFieldTypeDouble","alias":"N_COORD97"},{"name":"ADDRESS","type":"esriFieldTypeString","alias":"ADDRESS","length":50},{"name":"OBJECTID","type":"esriFieldTypeOID","alias":"OBJECTID"}],"features":[{"attributes":{"ID":628428,"DIS_CODE":0,"TOWNNAME":"北區","LI":"重興里","LIN":"4鄰","STREET":"東豐路","SECT":" ","MAREA":" ","LANE":" ","ALLEY":" ","HOUSE_NO":"４０３號","E_COORD97":170655.32000000001,"N_COORD97":2544779.75,"ADDRESS":"東豐路４０３號","OBJECTID":628401},"geometry":{"x":170655.3200000003,"y":2544779.7500000019}},{"attributes":{"ID":628429,"DIS_CODE":0,"TOWNNAME":"北區","LI":"重興里","LIN":"4鄰","STREET":"東豐路","SECT":" ","MAREA":" ","LANE":" ","ALLEY":" ","HOUSE_NO":"４０５號","E_COORD97":170659.70999999999,"N_COORD97":2544778.7999999998,"ADDRESS":"東豐路４０５號","OBJECTID":628402},"geometry":{"x":170659.71000000183,"y":2544778.7999999989}},{"attributes":{"ID":628430,"DIS_CODE":0,"TOWNNAME":"北區","LI":"重興里","LIN":"4鄰","STREET":"東豐路","SECT":" ","MAREA":" ","LANE":" ","ALLEY":" ","HOUSE_NO":"４０７號","E_COORD97":170663.76999999999,"N_COORD97":2544777.6000000001,"ADDRESS":"東豐路４０７號","OBJECTID":628403},"geometry":{"x":170663.76999999955,"y":2544777.5999999996}},{"attributes":{"ID":628431,"DIS_CODE":0,"TOWNNAME":"北區","LI":"重興里","LIN":"4鄰","STREET":"東豐路","SECT":" ","MAREA":" ","LANE":" ","ALLEY":" ","HOUSE_NO":"４０９號","E_COORD97":170668.16,"N_COORD97":2544777.25,"ADDRESS":"東豐路４０９號","OBJECTID":628404},"geometry":{"x":170668.16000000015,"y":2544777.25}},{"attributes":{"ID":628432,"DIS_CODE":0,"TOWNNAME":"北區","LI":"重興里","LIN":"4鄰","STREET":"林森路","SECT":"三段","MAREA":" ","LANE":" ","ALLEY":" ","HOUSE_NO":"１００號","E_COORD97":170556.26999999999,"N_COORD97":2544876.1800000002,"ADDRESS":"林森路三段１００號","OBJECTID":628405},"geometry":{"x":170556.27000000048,"y":2544876.1799999997}},{"attributes":{"ID":628433,"DIS_CODE":0,"TOWNNAME":"北區","LI":"重興里","LIN":"4鄰","STREET":"林森路","SECT":"三段","MAREA":" ","LANE":" ","ALLEY":" ","HOUSE_NO":"１０２號","E_COORD97":170557.20999999999,"N_COORD97":2544881.04,"ADDRESS":"林森路三段１０２號","OBJECTID":628406},"geometry":{"x":170557.20999999996,"y":2544881.0400000028}},{"attributes":{"ID":628434,"DIS_CODE":0,"TOWNNAME":"北區","LI":"重興里","LIN":"4鄰","STREET":"林森路","SECT":"三段","MAREA":" ","LANE":" ","ALLEY":" ","HOUSE_NO":"１０４號","E_COORD97":170557.20999999999,"N_COORD97":2544885.3900000001,"ADDRESS":"林森路三段１０４號","OBJECTID":628407},"geometry":{"x":170557.20999999996,"y":2544885.3900000006}},{"attributes":{"ID":628435,"DIS_CODE":0,"TOWNNAME":"永康區","LI":"大灣里","LIN":"25鄰","STREET":"民族路","SECT":" ","MAREA":" ","LANE":" ","ALLEY":" ","HOUSE_NO":"２０２號","E_COORD97":175114.85999999999,"N_COORD97":2545087.79,"ADDRESS":"民族路２０２號","OBJECTID":628408},"geometry":{"x":175114.86000000127,"y":2545087.7899999991}},{"attributes":{"ID":628436,"DIS_CODE":0,"TOWNNAME":"北區","LI":"重興里","LIN":"4鄰","STREET":"林森路","SECT":"三段","MAREA":" ","LANE":" ","ALLEY":" ","HOUSE_NO":"１３０號","E_COORD97":170562.59,"N_COORD97":2544943.6299999999,"ADDRESS":"林森路三段１３０號","OBJECTID":628409},"geometry":{"x":170562.59000000078,"y":2544943.629999999}},{"attributes":{"ID":628437,"DIS_CODE":0,"TOWNNAME":"北區","LI":"重興里","LIN":"4鄰","STREET":"林森路","SECT":"三段","MAREA":" ","LANE":" ","ALLEY":" ","HOUSE_NO":"１３２號","E_COORD97":170562.76000000001,"N_COORD97":2544948.6600000001,"ADDRESS":"林森路三段１３２號","OBJECTID":628410},"geometry":{"x":170562.76000000071,"y":2544948.6599999983}},{"attributes":{"ID":628438,"DIS_CODE":0,"TOWNNAME":"北區","LI":"重興里","LIN":"4鄰","STREET":"林森路","SECT":"三段","MAREA":" ","LANE":" ","ALLEY":" ","HOUSE_NO":"１３４號","E_COORD97":170563.62,"N_COORD97":2544953.0499999998,"ADDRESS":"林森路三段１３４號","OBJECTID":628411},"geometry":{"x":170563.62000000011,"y":2544953.0500000007}},{"attributes":{"ID":628439,"DIS_CODE":0,"TOWNNAME":"北區","LI":"重興里","LIN":"4鄰","STREET":"林森路","SECT":"三段","MAREA":" ","LANE":" ","ALLEY":" ","HOUSE_NO":"１３６號","E_COORD97":170563.19,"N_COORD97":2544958.0800000001,"ADDRESS":"林森路三段１３６號","OBJECTID":628412},"geometry":{"x":170563.19000000041,"y":2544958.0800000001}},{"attributes":{"ID":628440,"DIS_CODE":0,"TOWNNAME":"北區","LI":"重興里","LIN":"4鄰","STREET":"林森路","SECT":"三段","MAREA":" ","LANE":" ","ALLEY":" ","HOUSE_NO":"１３８號","E_COORD97":170563.62,"N_COORD97":2544968.8300000001,"ADDRESS":"林森路三段１３８號","OBJECTID":628413},"geometry":{"x":170563.62000000011,"y":2544968.8300000019}},{"attributes":{"ID":628441,"DIS_CODE":0,"TOWNNAME":"北區","LI":"重興里","LIN":"4鄰","STREET":"林森路","SECT":"三段","MAREA":" ","LANE":" ","ALLEY":" ","HOUSE_NO":"１５３號","E_COORD97":170517.73000000001,"N_COORD97":2544991.6899999999,"ADDRESS":"林森路三段１５３號","OBJECTID":628414},"geometry":{"x":170517.73000000231,"y":2544991.6899999995}},{"attributes":{"ID":628442,"DIS_CODE":0,"TOWNNAME":"北區","LI":"重興里","LIN":"4鄰","STREET":"林森路","SECT":"三段","MAREA":" ","LANE":" ","ALLEY":" ","HOUSE_NO":"８８號","E_COORD97":170551.41,"N_COORD97":2544848.77,"ADDRESS":"林森路三段８８號","OBJECTID":628415},"geometry":{"x":170551.41000000015,"y":2544848.7699999996}},{"attributes":{"ID":628443,"DIS_CODE":0,"TOWNNAME":"北區","LI":"重興里","LIN":"4鄰","STREET":"林森路","SECT":"三段","MAREA":" ","LANE":" ","ALLEY":" ","HOUSE_NO":"９０號","E_COORD97":170552.26000000001,"N_COORD97":2544853.8900000001,"ADDRESS":"林森路三段９０號","OBJECTID":628416},"geometry":{"x":170552.25999999885,"y":2544853.8900000025}},{"attributes":{"ID":628444,"DIS_CODE":0,"TOWNNAME":"北區","LI":"重興里","LIN":"4鄰","STREET":"林森路","SECT":"三段","MAREA":" ","LANE":" ","ALLEY":" ","HOUSE_NO":"９２號","E_COORD97":170552.85999999999,"N_COORD97":2544858.0699999998,"ADDRESS":"林森路三段９２號","OBJECTID":628417},"geometry":{"x":170552.86000000127,"y":2544858.070000004}},{"attributes":{"ID":628445,"DIS_CODE":0,"TOWNNAME":"北區","LI":"重興里","LIN":"4鄰","STREET":"林森路","SECT":"三段","MAREA":" ","LANE":" ","ALLEY":" ","HOUSE_NO":"９４號","E_COORD97":170554.06,"N_COORD97":2544862.4500000002,"ADDRESS":"林森路三段９４號","OBJECTID":628418},"geometry":{"x":170554.06000000052,"y":2544862.4500000011}},{"attributes":{"ID":628446,"DIS_CODE":0,"TOWNNAME":"北區","LI":"重興里","LIN":"4鄰","STREET":"林森路","SECT":"三段","MAREA":" ","LANE":" ","ALLEY":" ","HOUSE_NO":"９６號","E_COORD97":170554.23000000001,"N_COORD97":2544866.8799999999,"ADDRESS":"林森路三段９６號","OBJECTID":628419},"geometry":{"x":170554.23000000045,"y":2544866.879999999}},{"attributes":{"ID":628447,"DIS_CODE":0,"TOWNNAME":"北區","LI":"重興里","LIN":"4鄰","STREET":"林森路","SECT":"三段","MAREA":" ","LANE":" ","ALLEY":" ","HOUSE_NO":"９８號","E_COORD97":170555.76000000001,"N_COORD97":2544871.1499999999,"ADDRESS":"林森路三段９８號","OBJECTID":628420},"geometry":{"x":170555.76000000164,"y":2544871.1500000041}},{"attributes":{"ID":628448,"DIS_CODE":0,"TOWNNAME":"北區","LI":"安民里","LIN":"4鄰","STREET":"國華街","SECT":"四段","MAREA":" ","LANE":" ","ALLEY":" ","HOUSE_NO":"４７號","E_COORD97":168022.44,"N_COORD97":2544703.9199999999,"ADDRESS":"國華街四段４７號","OBJECTID":628421},"geometry":{"x":168022.44000000041,"y":2544703.9200000018}},{"attributes":{"ID":628449,"DIS_CODE":0,"TOWNNAME":"北區","LI":"安民里","LIN":"4鄰","STREET":"國華街","SECT":"四段","MAREA":" ","LANE":" ","ALLEY":" ","HOUSE_NO":"４９號","E_COORD97":168022.73000000001,"N_COORD97":2544708.5899999999,"ADDRESS":"國華街四段４９號","OBJECTID":628422},"geometry":{"x":168022.73000000138,"y":2544708.5900000036}},{"attributes":{"ID":628450,"DIS_CODE":0,"TOWNNAME":"北區","LI":"安民里","LIN":"4鄰","STREET":"國華街","SECT":"四段","MAREA":" ","LANE":" ","ALLEY":" ","HOUSE_NO":"５１號","E_COORD97":168023.03,"N_COORD97":2544713.5499999998,"ADDRESS":"國華街四段５１號","OBJECTID":628423},"geometry":{"x":168023.03000000026,"y":2544713.5500000026}},{"attributes":{"ID":628451,"DIS_CODE":0,"TOWNNAME":"東區","LI":"東智里","LIN":"4鄰","STREET":"崇德二十七街","SECT":" ","MAREA":" ","LANE":" ","ALLEY":" ","HOUSE_NO":"１號五樓","E_COORD97":170811.14000000001,"N_COORD97":2540295.8300000001,"ADDRESS":"崇德二十七街１號五樓","OBJECTID":628424},"geometry":{"x":170811.1400000006,"y":2540295.8299999982}},{"attributes":{"ID":628452,"DIS_CODE":0,"TOWNNAME":"東區","LI":"東智里","LIN":"4鄰","STREET":"崇德二十七街","SECT":" ","MAREA":" ","LANE":" ","ALLEY":" ","HOUSE_NO":"１號六樓","E_COORD97":170811.14000000001,"N_COORD97":2540295.8300000001,"ADDRESS":"崇德二十七街１號六樓","OBJECTID":628425},"geometry":{"x":170811.1400000006,"y":2540295.8299999982}},{"attributes":{"ID":628453,"DIS_CODE":0,"TOWNNAME":"東區","LI":"東智里","LIN":"4鄰","STREET":"崇德二十七街","SECT":" ","MAREA":" ","LANE":" ","ALLEY":" ","HOUSE_NO":"１號七樓","E_COORD97":170811.14000000001,"N_COORD97":2540295.8300000001,"ADDRESS":"崇德二十七街１號七樓","OBJECTID":628426},"geometry":{"x":170811.1400000006,"y":2540295.8299999982}},{"attributes":{"ID":628454,"DIS_CODE":0,"TOWNNAME":"東區","LI":"東智里","LIN":"4鄰","STREET":"崇德二十六街","SECT":" ","MAREA":" ","LANE":" ","ALLEY":" ","HOUSE_NO":"１號二樓","E_COORD97":170806.54999999999,"N_COORD97":2540332.7000000002,"ADDRESS":"崇德二十六街１號二樓","OBJECTID":628427},"geometry":{"x":170806.55000000075,"y":2540332.6999999993}},{"attributes":{"ID":628455,"DIS_CODE":0,"TOWNNAME":"東區","LI":"東智里","LIN":"4鄰","STREET":"崇德二十六街","SECT":" ","MAREA":" ","LANE":" ","ALLEY":" ","HOUSE_NO":"１號三樓","E_COORD97":170806.54999999999,"N_COORD97":2540332.7000000002,"ADDRESS":"崇德二十六街１號三樓","OBJECTID":628428},"geometry":{"x":170806.55000000075,"y":2540332.6999999993}},{"attributes":{"ID":628456,"DIS_CODE":0,"TOWNNAME":"東區","LI":"東智里","LIN":"4鄰","STREET":"崇德二十六街","SECT":" ","MAREA":" ","LANE":" ","ALLEY":" ","HOUSE_NO":"１號四樓","E_COORD97":170806.54999999999,"N_COORD97":2540332.7000000002,"ADDRESS":"崇德二十六街１號四樓","OBJECTID":628429},"geometry":{"x":170806.55000000075,"y":2540332.6999999993}},{"attributes":{"ID":628457,"DIS_CODE":0,"TOWNNAME":"東區","LI":"東智里","LIN":"4鄰","STREET":"崇德二十六街","SECT":" ","MAREA":" ","LANE":" ","ALLEY":" ","HOUSE_NO":"１號五樓","E_COORD97":170806.54999999999,"N_COORD97":2540332.7000000002,"ADDRESS":"崇德二十六街１號五樓","OBJECTID":628430},"geometry":{"x":170806.55000000075,"y":2540332.6999999993}},{"attributes":{"ID":628458,"DIS_CODE":0,"TOWNNAME":"東區","LI":"東智里","LIN":"4鄰","STREET":"崇德二十六街","SECT":" ","MAREA":" ","LANE":" ","ALLEY":" ","HOUSE_NO":"１號六樓","E_COORD97":170806.54999999999,"N_COORD97":2540332.7000000002,"ADDRESS":"崇德二十六街１號六樓","OBJECTID":628431},"geometry":{"x":170806.55000000075,"y":2540332.6999999993}},{"attributes":{"ID":628459,"DIS_CODE":0,"TOWNNAME":"東區","LI":"東智里","LIN":"4鄰","STREET":"崇德二十六街","SECT":" ","MAREA":" ","LANE":" ","ALLEY":" ","HOUSE_NO":"１號七樓","E_COORD97":170806.54999999999,"N_COORD97":2540332.7000000002,"ADDRESS":"崇德二十六街１號七樓","OBJECTID":628432},"geometry":{"x":170806.55000000075,"y":2540332.6999999993}},{"attributes":{"ID":628460,"DIS_CODE":0,"TOWNNAME":"東區","LI":"東智里","LIN":"4鄰","STREET":"崇德二十六街","SECT":" ","MAREA":" ","LANE":" ","ALLEY":" ","HOUSE_NO":"３號二樓","E_COORD97":170817.78,"N_COORD97":2540332.0600000001,"ADDRESS":"崇德二十六街３號二樓","OBJECTID":628433},"geometry":{"x":170817.78000000119,"y":2540332.0599999987}},{"attributes":{"ID":628461,"DIS_CODE":0,"TOWNNAME":"東區","LI":"東智里","LIN":"4鄰","STREET":"崇德二十六街","SECT":" ","MAREA":" ","LANE":" ","ALLEY":" ","HOUSE_NO":"３號三樓","E_COORD97":170817.78,"N_COORD97":2540332.0600000001,"ADDRESS":"崇德二十六街３號三樓","OBJECTID":628434},"geometry":{"x":170817.78000000119,"y":2540332.0599999987}},{"attributes":{"ID":628462,"DIS_CODE":0,"TOWNNAME":"東區","LI":"東智里","LIN":"4鄰","STREET":"崇德二十六街","SECT":" ","MAREA":" ","LANE":" ","ALLEY":" ","HOUSE_NO":"３號四樓","E_COORD97":170817.78,"N_COORD97":2540332.0600000001,"ADDRESS":"崇德二十六街３號四樓","OBJECTID":628435},"geometry":{"x":170817.78000000119,"y":2540332.0599999987}},{"attributes":{"ID":628463,"DIS_CODE":0,"TOWNNAME":"東區","LI":"東智里","LIN":"4鄰","STREET":"崇德二十六街","SECT":" ","MAREA":" ","LANE":" ","ALLEY":" ","HOUSE_NO":"３號五樓","E_COORD97":170817.78,"N_COORD97":2540332.0600000001,"ADDRESS":"崇德二十六街３號五樓","OBJECTID":628436},"geometry":{"x":170817.78000000119,"y":2540332.0599999987}},{"attributes":{"ID":628464,"DIS_CODE":0,"TOWNNAME":"東區","LI":"東智里","LIN":"4鄰","STREET":"崇德二十六街","SECT":" ","MAREA":" ","LANE":" ","ALLEY":" ","HOUSE_NO":"３號六樓","E_COORD97":170817.78,"N_COORD97":2540332.0600000001,"ADDRESS":"崇德二十六街３號六樓","OBJECTID":628437},"geometry":{"x":170817.78000000119,"y":2540332.0599999987}},{"attributes":{"ID":628465,"DIS_CODE":0,"TOWNNAME":"東區","LI":"東智里","LIN":"4鄰","STREET":"崇德二十六街","SECT":" ","MAREA":" ","LANE":" ","ALLEY":" ","HOUSE_NO":"３號七樓","E_COORD97":170817.78,"N_COORD97":2540332.0600000001,"ADDRESS":"崇德二十六街３號七樓","OBJECTID":628438},"geometry":{"x":170817.78000000119,"y":2540332.0599999987}},{"attributes":{"ID":628466,"DIS_CODE":0,"TOWNNAME":"永康區","LI":"建國里","LIN":"4鄰","STREET":"復國路","SECT":" ","MAREA":" ","LANE":" ","ALLEY":" ","HOUSE_NO":"５８號五樓之３","E_COORD97":172762.79999999999,"N_COORD97":2544601.9700000002,"ADDRESS":"復國路５８號五樓之３","OBJECTID":628439},"geometry":{"x":172762.80000000075,"y":2544601.9700000025}},{"attributes":{"ID":628467,"DIS_CODE":0,"TOWNNAME":"永康區","LI":"建國里","LIN":"4鄰","STREET":"復國路","SECT":" ","MAREA":" ","LANE":" ","ALLEY":" ","HOUSE_NO":"５８號五樓之５","E_COORD97":172762.79999999999,"N_COORD97":2544601.9700000002,"ADDRESS":"復國路５８號五樓之５","OBJECTID":628440},"geometry":{"x":172762.80000000075,"y":2544601.9700000025}},{"attributes":{"ID":628468,"DIS_CODE":0,"TOWNNAME":"永康區","LI":"建國里","LIN":"4鄰","STREET":"復國路","SECT":" ","MAREA":" ","LANE":" ","ALLEY":" ","HOUSE_NO":"５８號六樓之１","E_COORD97":172762.79999999999,"N_COORD97":2544601.9700000002,"ADDRESS":"復國路５８號六樓之１","OBJECTID":628441},"geometry":{"x":172762.80000000075,"y":2544601.9700000025}},{"attributes":{"ID":628469,"DIS_CODE":0,"TOWNNAME":"永康區","LI":"建國里","LIN":"4鄰","STREET":"復國路","SECT":" ","MAREA":" ","LANE":" ","ALLEY":" ","HOUSE_NO":"５８號六樓之２","E_COORD97":172762.79999999999,"N_COORD97":2544601.9700000002,"ADDRESS":"復國路５８號六樓之２","OBJECTID":628442},"geometry":{"x":172762.80000000075,"y":2544601.9700000025}},{"attributes":{"ID":628470,"DIS_CODE":0,"TOWNNAME":"永康區","LI":"建國里","LIN":"4鄰","STREET":"復國路","SECT":" ","MAREA":" ","LANE":" ","ALLEY":" ","HOUSE_NO":"５８號六樓之３","E_COORD97":172762.79999999999,"N_COORD97":2544601.9700000002,"ADDRESS":"復國路５８號六樓之３","OBJECTID":628443},"geometry":{"x":172762.80000000075,"y":2544601.9700000025}},{"attributes":{"ID":628471,"DIS_CODE":0,"TOWNNAME":"永康區","LI":"建國里","LIN":"4鄰","STREET":"復國路","SECT":" ","MAREA":" ","LANE":" ","ALLEY":" ","HOUSE_NO":"５８號六樓之５","E_COORD97":172762.79999999999,"N_COORD97":2544601.9700000002,"ADDRESS":"復國路５８號六樓之５","OBJECTID":628444},"geometry":{"x":172762.80000000075,"y":2544601.9700000025}},{"attributes":{"ID":628472,"DIS_CODE":0,"TOWNNAME":"永康區","LI":"建國里","LIN":"4鄰","STREET":"復國路","SECT":" ","MAREA":" ","LANE":" ","ALLEY":" ","HOUSE_NO":"５８號七樓之１","E_COORD97":172762.79999999999,"N_COORD97":2544601.9700000002,"ADDRESS":"復國路５８號七樓之１","OBJECTID":628445},"geometry":{"x":172762.80000000075,"y":2544601.9700000025}},{"attributes":{"ID":628473,"DIS_CODE":0,"TOWNNAME":"永康區","LI":"建國里","LIN":"4鄰","STREET":"復國路","SECT":" ","MAREA":" ","LANE":" ","ALLEY":" ","HOUSE_NO":"５８號七樓之２","E_COORD97":172762.79999999999,"N_COORD97":2544601.9700000002,"ADDRESS":"復國路５８號七樓之２","OBJECTID":628446},"geometry":{"x":172762.80000000075,"y":2544601.9700000025}},{"attributes":{"ID":628474,"DIS_CODE":0,"TOWNNAME":"永康區","LI":"建國里","LIN":"4鄰","STREET":"復國路","SECT":" ","MAREA":" ","LANE":" ","ALLEY":" ","HOUSE_NO":"５８號七樓之３","E_COORD97":172762.79999999999,"N_COORD97":2544601.9700000002,"ADDRESS":"復國路５８號七樓之３","OBJECTID":628447},"geometry":{"x":172762.80000000075,"y":2544601.9700000025}},{"attributes":{"ID":628475,"DIS_CODE":0,"TOWNNAME":"永康區","LI":"建國里","LIN":"4鄰","STREET":"復國路","SECT":" ","MAREA":" ","LANE":" ","ALLEY":" ","HOUSE_NO":"５８號七樓之５","E_COORD97":172762.79999999999,"N_COORD97":2544601.9700000002,"ADDRESS":"復國路５８號七樓之５","OBJECTID":628448},"geometry":{"x":172762.80000000075,"y":2544601.9700000025}},{"attributes":{"ID":628476,"DIS_CODE":0,"TOWNNAME":"永康區","LI":"建國里","LIN":"4鄰","STREET":"復國路","SECT":" ","MAREA":" ","LANE":" ","ALLEY":" ","HOUSE_NO":"５８號八樓之１","E_COORD97":172762.79999999999,"N_COORD97":2544601.9700000002,"ADDRESS":"復國路５８號八樓之１","OBJECTID":628449},"geometry":{"x":172762.80000000075,"y":2544601.9700000025}},{"attributes":{"ID":628477,"DIS_CODE":0,"TOWNNAME":"永康區","LI":"建國里","LIN":"4鄰","STREET":"復國路","SECT":" ","MAREA":" ","LANE":" ","ALLEY":" ","HOUSE_NO":"５８號八樓之２","E_COORD97":172762.79999999999,"N_COORD97":2544601.9700000002,"ADDRESS":"復國路５８號八樓之２","OBJECTID":628450},"geometry":{"x":172762.80000000075,"y":2544601.9700000025}},{"attributes":{"ID":628478,"DIS_CODE":0,"TOWNNAME":"永康區","LI":"建國里","LIN":"4鄰","STREET":"復國路","SECT":" ","MAREA":" ","LANE":" ","ALLEY":" ","HOUSE_NO":"５８號十一樓之２","E_COORD97":172762.79999999999,"N_COORD97":2544601.9700000002,"ADDRESS":"復國路５８號十一樓之２","OBJECTID":628451},"geometry":{"x":172762.80000000075,"y":2544601.9700000025}},{"attributes":{"ID":628479,"DIS_CODE":0,"TOWNNAME":"永康區","LI":"建國里","LIN":"4鄰","STREET":"復國路","SECT":" ","MAREA":" ","LANE":" ","ALLEY":" ","HOUSE_NO":"５８號十一樓之３","E_COORD97":172762.79999999999,"N_COORD97":2544601.9700000002,"ADDRESS":"復國路５８號十一樓之３","OBJECTID":628452},"geometry":{"x":172762.80000000075,"y":2544601.9700000025}},{"attributes":{"ID":628480,"DIS_CODE":0,"TOWNNAME":"永康區","LI":"建國里","LIN":"4鄰","STREET":"復國路","SECT":" ","MAREA":" ","LANE":" ","ALLEY":" ","HOUSE_NO":"５８號十一樓之５","E_COORD97":172762.79999999999,"N_COORD97":2544601.9700000002,"ADDRESS":"復國路５８號十一樓之５","OBJECTID":628453},"geometry":{"x":172762.80000000075,"y":2544601.9700000025}},{"attributes":{"ID":628481,"DIS_CODE":0,"TOWNNAME":"永康區","LI":"建國里","LIN":"4鄰","STREET":"復國路","SECT":" ","MAREA":" ","LANE":" ","ALLEY":" ","HOUSE_NO":"５８號十二樓之１","E_COORD97":172762.79999999999,"N_COORD97":2544601.9700000002,"ADDRESS":"復國路５８號十二樓之１","OBJECTID":628454},"geometry":{"x":172762.80000000075,"y":2544601.9700000025}},{"attributes":{"ID":628482,"DIS_CODE":0,"TOWNNAME":"永康區","LI":"建國里","LIN":"4鄰","STREET":"復國路","SECT":" ","MAREA":" ","LANE":" ","ALLEY":" ","HOUSE_NO":"５８號十二樓之２","E_COORD97":172762.79999999999,"N_COORD97":2544601.9700000002,"ADDRESS":"復國路５８號十二樓之２","OBJECTID":628455},"geometry":{"x":172762.80000000075,"y":2544601.9700000025}},{"attributes":{"ID":628483,"DIS_CODE":0,"TOWNNAME":"永康區","LI":"建國里","LIN":"4鄰","STREET":"復國路","SECT":" ","MAREA":" ","LANE":" ","ALLEY":" ","HOUSE_NO":"５８號十二樓之３","E_COORD97":172762.79999999999,"N_COORD97":2544601.9700000002,"ADDRESS":"復國路５８號十二樓之３","OBJECTID":628456},"geometry":{"x":172762.80000000075,"y":2544601.9700000025}},{"attributes":{"ID":628484,"DIS_CODE":0,"TOWNNAME":"永康區","LI":"建國里","LIN":"4鄰","STREET":"復國路","SECT":" ","MAREA":" ","LANE":" ","ALLEY":" ","HOUSE_NO":"５８號十二樓之５","E_COORD97":172762.79999999999,"N_COORD97":2544601.9700000002,"ADDRESS":"復國路５８號十二樓之５","OBJECTID":628457},"geometry":{"x":172762.80000000075,"y":2544601.9700000025}},{"attributes":{"ID":628485,"DIS_CODE":0,"TOWNNAME":"永康區","LI":"建國里","LIN":"4鄰","STREET":"復國路","SECT":" ","MAREA":" ","LANE":" ","ALLEY":" ","HOUSE_NO":"５８號十三樓之１","E_COORD97":172762.79999999999,"N_COORD97":2544601.9700000002,"ADDRESS":"復國路５８號十三樓之１","OBJECTID":628458},"geometry":{"x":172762.80000000075,"y":2544601.9700000025}},{"attributes":{"ID":628486,"DIS_CODE":0,"TOWNNAME":"永康區","LI":"建國里","LIN":"4鄰","STREET":"復國路","SECT":" ","MAREA":" ","LANE":" ","ALLEY":" ","HOUSE_NO":"５８號十三樓之２","E_COORD97":172762.79999999999,"N_COORD97":2544601.9700000002,"ADDRESS":"復國路５８號十三樓之２","OBJECTID":628459},"geometry":{"x":172762.80000000075,"y":2544601.9700000025}},{"attributes":{"ID":628487,"DIS_CODE":0,"TOWNNAME":"永康區","LI":"建國里","LIN":"4鄰","STREET":"復國路","SECT":" ","MAREA":" ","LANE":" ","ALLEY":" ","HOUSE_NO":"５８號十三樓之３","E_COORD97":172762.79999999999,"N_COORD97":2544601.9700000002,"ADDRESS":"復國路５８號十三樓之３","OBJECTID":628460},"geometry":{"x":172762.80000000075,"y":2544601.9700000025}},{"attributes":{"ID":628488,"DIS_CODE":0,"TOWNNAME":"永康區","LI":"建國里","LIN":"4鄰","STREET":"復國路","SECT":" ","MAREA":" ","LANE":" ","ALLEY":" ","HOUSE_NO":"５８號十三樓之５","E_COORD97":172762.79999999999,"N_COORD97":2544601.9700000002,"ADDRESS":"復國路５８號十三樓之５","OBJECTID":628461},"geometry":{"x":172762.80000000075,"y":2544601.9700000025}},{"attributes":{"ID":628489,"DIS_CODE":0,"TOWNNAME":"永康區","LI":"建國里","LIN":"4鄰","STREET":"復國路","SECT":" ","MAREA":" ","LANE":" ","ALLEY":" ","HOUSE_NO":"５８號十四樓之１","E_COORD97":172762.79999999999,"N_COORD97":2544601.9700000002,"ADDRESS":"復國路５８號十四樓之１","OBJECTID":628462},"geometry":{"x":172762.80000000075,"y":2544601.9700000025}},{"attributes":{"ID":628490,"DIS_CODE":0,"TOWNNAME":"永康區","LI":"建國里","LIN":"4鄰","STREET":"復國路","SECT":" ","MAREA":" ","LANE":" ","ALLEY":" ","HOUSE_NO":"５８號十四樓之２","E_COORD97":172762.79999999999,"N_COORD97":2544601.9700000002,"ADDRESS":"復國路５８號十四樓之２","OBJECTID":628463},"geometry":{"x":172762.80000000075,"y":2544601.9700000025}},{"attributes":{"ID":628491,"DIS_CODE":0,"TOWNNAME":"永康區","LI":"建國里","LIN":"4鄰","STREET":"復國路","SECT":" ","MAREA":" ","LANE":" ","ALLEY":" ","HOUSE_NO":"５８號十四樓之３","E_COORD97":172762.79999999999,"N_COORD97":2544601.9700000002,"ADDRESS":"復國路５８號十四樓之３","OBJECTID":628464},"geometry":{"x":172762.80000000075,"y":2544601.9700000025}},{"attributes":{"ID":628492,"DIS_CODE":0,"TOWNNAME":"永康區","LI":"建國里","LIN":"4鄰","STREET":"復國路","SECT":" ","MAREA":" ","LANE":" ","ALLEY":" ","HOUSE_NO":"５８號十四樓之５","E_COORD97":172762.79999999999,"N_COORD97":2544601.9700000002,"ADDRESS":"復國路５８號十四樓之５","OBJECTID":628465},"geometry":{"x":172762.80000000075,"y":2544601.9700000025}},{"attributes":{"ID":628493,"DIS_CODE":0,"TOWNNAME":"中西區","LI":"協和里","LIN":"4鄰","STREET":"文賢路","SECT":" ","MAREA":" ","LANE":" ","ALLEY":" ","HOUSE_NO":"１３號七樓之３","E_COORD97":167428.60000000001,"N_COORD97":2544465.2599999998,"ADDRESS":"文賢路１３號七樓之３","OBJECTID":628466},"geometry":{"x":167428.59999999963,"y":2544465.2599999998}},{"attributes":{"ID":628494,"DIS_CODE":0,"TOWNNAME":"中西區","LI":"協和里","LIN":"4鄰","STREET":"文賢路","SECT":" ","MAREA":" ","LANE":" ","ALLEY":" ","HOUSE_NO":"１３號七樓之４","E_COORD97":167428.60000000001,"N_COORD97":2544465.2599999998,"ADDRESS":"文賢路１３號七樓之４","OBJECTID":628467},"geometry":{"x":167428.59999999963,"y":2544465.2599999998}},{"attributes":{"ID":628495,"DIS_CODE":0,"TOWNNAME":"中西區","LI":"協和里","LIN":"4鄰","STREET":"文賢路","SECT":" ","MAREA":" ","LANE":" ","ALLEY":" ","HOUSE_NO":"１３號七樓之５","E_COORD97":167428.60000000001,"N_COORD97":2544465.2599999998,"ADDRESS":"文賢路１３號七樓之５","OBJECTID":628468},"geometry":{"x":167428.59999999963,"y":2544465.2599999998}},{"attributes":{"ID":628496,"DIS_CODE":0,"TOWNNAME":"中西區","LI":"協和里","LIN":"4鄰","STREET":"文賢路","SECT":" ","MAREA":" ","LANE":" ","ALLEY":" ","HOUSE_NO":"１３號七樓之６","E_COORD97":167428.60000000001,"N_COORD97":2544465.2599999998,"ADDRESS":"文賢路１３號七樓之６","OBJECTID":628469},"geometry":{"x":167428.59999999963,"y":2544465.2599999998}},{"attributes":{"ID":628497,"DIS_CODE":0,"TOWNNAME":"中西區","LI":"協和里","LIN":"4鄰","STREET":"文賢路","SECT":" ","MAREA":" ","LANE":" ","ALLEY":" ","HOUSE_NO":"１３號七樓之７","E_COORD97":167428.60000000001,"N_COORD97":2544465.2599999998,"ADDRESS":"文賢路１３號七樓之７","OBJECTID":628470},"geometry":{"x":167428.59999999963,"y":2544465.2599999998}},{"attributes":{"ID":628498,"DIS_CODE":0,"TOWNNAME":"中西區","LI":"協和里","LIN":"4鄰","STREET":"文賢路","SECT":" ","MAREA":" ","LANE":" ","ALLEY":" ","HOUSE_NO":"１３號七樓之８","E_COORD97":167428.60000000001,"N_COORD97":2544465.2599999998,"ADDRESS":"文賢路１３號七樓之８","OBJECTID":628471},"geometry":{"x":167428.59999999963,"y":2544465.2599999998}},{"attributes":{"ID":628499,"DIS_CODE":0,"TOWNNAME":"中西區","LI":"協和里","LIN":"4鄰","STREET":"文賢路","SECT":" ","MAREA":" ","LANE":" ","ALLEY":" ","HOUSE_NO":"１３號三樓之１","E_COORD97":167428.60000000001,"N_COORD97":2544465.2599999998,"ADDRESS":"文賢路１３號三樓之１","OBJECTID":628472},"geometry":{"x":167428.59999999963,"y":2544465.2599999998}},{"attributes":{"ID":628500,"DIS_CODE":0,"TOWNNAME":"中西區","LI":"協和里","LIN":"4鄰","STREET":"文賢路","SECT":" ","MAREA":" ","LANE":" ","ALLEY":" ","HOUSE_NO":"１３號三樓之１０","E_COORD97":167428.60000000001,"N_COORD97":2544465.2599999998,"ADDRESS":"文賢路１３號三樓之１０","OBJECTID":628473},"geometry":{"x":167428.59999999963,"y":2544465.2599999998}},{"attributes":{"ID":628501,"DIS_CODE":0,"TOWNNAME":"中西區","LI":"協和里","LIN":"4鄰","STREET":"文賢路","SECT":" ","MAREA":" ","LANE":" ","ALLEY":" ","HOUSE_NO":"１３號三樓之１１","E_COORD97":167428.60000000001,"N_COORD97":2544465.2599999998,"ADDRESS":"文賢路１３號三樓之１１","OBJECTID":628474},"geometry":{"x":167428.59999999963,"y":2544465.2599999998}},{"attributes":{"ID":628502,"DIS_CODE":0,"TOWNNAME":"中西區","LI":"協和里","LIN":"4鄰","STREET":"文賢路","SECT":" ","MAREA":" ","LANE":" ","ALLEY":" ","HOUSE_NO":"１３號三樓之１２","E_COORD97":167428.60000000001,"N_COORD97":2544465.2599999998,"ADDRESS":"文賢路１３號三樓之１２","OBJECTID":628475},"geometry":{"x":167428.59999999963,"y":2544465.2599999998}},{"attributes":{"ID":628503,"DIS_CODE":0,"TOWNNAME":"中西區","LI":"協和里","LIN":"4鄰","STREET":"文賢路","SECT":" ","MAREA":" ","LANE":" ","ALLEY":" ","HOUSE_NO":"１３號三樓之１３","E_COORD97":167428.60000000001,"N_COORD97":2544465.2599999998,"ADDRESS":"文賢路１３號三樓之１３","OBJECTID":628476},"geometry":{"x":167428.59999999963,"y":2544465.2599999998}},{"attributes":{"ID":628504,"DIS_CODE":0,"TOWNNAME":"中西區","LI":"協和里","LIN":"4鄰","STREET":"文賢路","SECT":" ","MAREA":" ","LANE":" ","ALLEY":" ","HOUSE_NO":"１３號三樓之１４","E_COORD97":167428.60000000001,"N_COORD97":2544465.2599999998,"ADDRESS":"文賢路１３號三樓之１４","OBJECTID":628477},"geometry":{"x":167428.59999999963,"y":2544465.2599999998}},{"attributes":{"ID":628505,"DIS_CODE":0,"TOWNNAME":"中西區","LI":"協和里","LIN":"4鄰","STREET":"文賢路","SECT":" ","MAREA":" ","LANE":" ","ALLEY":" ","HOUSE_NO":"１３號三樓之１５","E_COORD97":167428.60000000001,"N_COORD97":2544465.2599999998,"ADDRESS":"文賢路１３號三樓之１５","OBJECTID":628478},"geometry":{"x":167428.59999999963,"y":2544465.2599999998}},{"attributes":{"ID":628506,"DIS_CODE":0,"TOWNNAME":"中西區","LI":"協和里","LIN":"4鄰","STREET":"文賢路","SECT":" ","MAREA":" ","LANE":" ","ALLEY":" ","HOUSE_NO":"１３號三樓之１６","E_COORD97":167428.60000000001,"N_COORD97":2544465.2599999998,"ADDRESS":"文賢路１３號三樓之１６","OBJECTID":628479},"geometry":{"x":167428.59999999963,"y":2544465.2599999998}},{"attributes":{"ID":628507,"DIS_CODE":0,"TOWNNAME":"中西區","LI":"協和里","LIN":"4鄰","STREET":"文賢路","SECT":" ","MAREA":" ","LANE":" ","ALLEY":" ","HOUSE_NO":"１３號三樓之１７","E_COORD97":167428.60000000001,"N_COORD97":2544465.2599999998,"ADDRESS":"文賢路１３號三樓之１７","OBJECTID":628480},"geometry":{"x":167428.59999999963,"y":2544465.2599999998}},{"attributes":{"ID":628508,"DIS_CODE":0,"TOWNNAME":"中西區","LI":"協和里","LIN":"4鄰","STREET":"文賢路","SECT":" ","MAREA":" ","LANE":" ","ALLEY":" ","HOUSE_NO":"１３號三樓之２","E_COORD97":167428.60000000001,"N_COORD97":2544465.2599999998,"ADDRESS":"文賢路１３號三樓之２","OBJECTID":628481},"geometry":{"x":167428.59999999963,"y":2544465.2599999998}},{"attributes":{"ID":628509,"DIS_CODE":0,"TOWNNAME":"中西區","LI":"協和里","LIN":"4鄰","STREET":"文賢路","SECT":" ","MAREA":" ","LANE":" ","ALLEY":" ","HOUSE_NO":"１３號三樓之３","E_COORD97":167428.60000000001,"N_COORD97":2544465.2599999998,"ADDRESS":"文賢路１３號三樓之３","OBJECTID":628482},"geometry":{"x":167428.59999999963,"y":2544465.2599999998}},{"attributes":{"ID":628510,"DIS_CODE":0,"TOWNNAME":"中西區","LI":"協和里","LIN":"4鄰","STREET":"文賢路","SECT":" ","MAREA":" ","LANE":" ","ALLEY":" ","HOUSE_NO":"１３號三樓之４","E_COORD97":167428.60000000001,"N_COORD97":2544465.2599999998,"ADDRESS":"文賢路１３號三樓之４","OBJECTID":628483},"geometry":{"x":167428.59999999963,"y":2544465.2599999998}},{"attributes":{"ID":628511,"DIS_CODE":0,"TOWNNAME":"中西區","LI":"協和里","LIN":"4鄰","STREET":"文賢路","SECT":" ","MAREA":" ","LANE":" ","ALLEY":" ","HOUSE_NO":"１３號三樓之５","E_COORD97":167428.60000000001,"N_COORD97":2544465.2599999998,"ADDRESS":"文賢路１３號三樓之５","OBJECTID":628484},"geometry":{"x":167428.59999999963,"y":2544465.2599999998}},{"attributes":{"ID":628512,"DIS_CODE":0,"TOWNNAME":"中西區","LI":"協和里","LIN":"4鄰","STREET":"文賢路","SECT":" ","MAREA":" ","LANE":" ","ALLEY":" ","HOUSE_NO":"１３號三樓之６","E_COORD97":167428.60000000001,"N_COORD97":2544465.2599999998,"ADDRESS":"文賢路１３號三樓之６","OBJECTID":628485},"geometry":{"x":167428.59999999963,"y":2544465.2599999998}},{"attributes":{"ID":628513,"DIS_CODE":0,"TOWNNAME":"中西區","LI":"協和里","LIN":"4鄰","STREET":"文賢路","SECT":" ","MAREA":" ","LANE":" ","ALLEY":" ","HOUSE_NO":"１３號三樓之７","E_COORD97":167428.60000000001,"N_COORD97":2544465.2599999998,"ADDRESS":"文賢路１３號三樓之７","OBJECTID":628486},"geometry":{"x":167428.59999999963,"y":2544465.2599999998}},{"attributes":{"ID":628514,"DIS_CODE":0,"TOWNNAME":"中西區","LI":"協和里","LIN":"4鄰","STREET":"文賢路","SECT":" ","MAREA":" ","LANE":" ","ALLEY":" ","HOUSE_NO":"１３號三樓之８","E_COORD97":167428.60000000001,"N_COORD97":2544465.2599999998,"ADDRESS":"文賢路１３號三樓之８","OBJECTID":628487},"geometry":{"x":167428.59999999963,"y":2544465.2599999998}},{"attributes":{"ID":628515,"DIS_CODE":0,"TOWNNAME":"中西區","LI":"協和里","LIN":"4鄰","STREET":"文賢路","SECT":" ","MAREA":" ","LANE":" ","ALLEY":" ","HOUSE_NO":"１３號三樓之９","E_COORD97":167428.60000000001,"N_COORD97":2544465.2599999998,"ADDRESS":"文賢路１３號三樓之９","OBJECTID":628488},"geometry":{"x":167428.59999999963,"y":2544465.2599999998}},{"attributes":{"ID":628516,"DIS_CODE":0,"TOWNNAME":"中西區","LI":"協和里","LIN":"4鄰","STREET":"文賢路","SECT":" ","MAREA":" ","LANE":" ","ALLEY":" ","HOUSE_NO":"１３號五樓之１","E_COORD97":167428.60000000001,"N_COORD97":2544465.2599999998,"ADDRESS":"文賢路１３號五樓之１","OBJECTID":628489},"geometry":{"x":167428.59999999963,"y":2544465.2599999998}},{"attributes":{"ID":628517,"DIS_CODE":0,"TOWNNAME":"中西區","LI":"協和里","LIN":"4鄰","STREET":"文賢路","SECT":" ","MAREA":" ","LANE":" ","ALLEY":" ","HOUSE_NO":"１３號五樓之２","E_COORD97":167428.60000000001,"N_COORD97":2544465.2599999998,"ADDRESS":"文賢路１３號五樓之２","OBJECTID":628490},"geometry":{"x":167428.59999999963,"y":2544465.2599999998}},{"attributes":{"ID":628518,"DIS_CODE":0,"TOWNNAME":"中西區","LI":"協和里","LIN":"4鄰","STREET":"文賢路","SECT":" ","MAREA":" ","LANE":" ","ALLEY":" ","HOUSE_NO":"１３號五樓之３","E_COORD97":167428.60000000001,"N_COORD97":2544465.2599999998,"ADDRESS":"文賢路１３號五樓之３","OBJECTID":628491},"geometry":{"x":167428.59999999963,"y":2544465.2599999998}},{"attributes":{"ID":628519,"DIS_CODE":0,"TOWNNAME":"中西區","LI":"協和里","LIN":"4鄰","STREET":"文賢路","SECT":" ","MAREA":" ","LANE":" ","ALLEY":" ","HOUSE_NO":"１３號五樓之４","E_COORD97":167428.60000000001,"N_COORD97":2544465.2599999998,"ADDRESS":"文賢路１３號五樓之４","OBJECTID":628492},"geometry":{"x":167428.59999999963,"y":2544465.2599999998}},{"attributes":{"ID":628520,"DIS_CODE":0,"TOWNNAME":"中西區","LI":"協和里","LIN":"4鄰","STREET":"文賢路","SECT":" ","MAREA":" ","LANE":" ","ALLEY":" ","HOUSE_NO":"１３號五樓之５","E_COORD97":167428.60000000001,"N_COORD97":2544465.2599999998,"ADDRESS":"文賢路１３號五樓之５","OBJECTID":628493},"geometry":{"x":167428.59999999963,"y":2544465.2599999998}},{"attributes":{"ID":628521,"DIS_CODE":0,"TOWNNAME":"中西區","LI":"協和里","LIN":"4鄰","STREET":"文賢路","SECT":" ","MAREA":" ","LANE":" ","ALLEY":" ","HOUSE_NO":"１３號五樓之６","E_COORD97":167428.60000000001,"N_COORD97":2544465.2599999998,"ADDRESS":"文賢路１３號五樓之６","OBJECTID":628494},"geometry":{"x":167428.59999999963,"y":2544465.2599999998}},{"attributes":{"ID":628522,"DIS_CODE":0,"TOWNNAME":"中西區","LI":"協和里","LIN":"4鄰","STREET":"文賢路","SECT":" ","MAREA":" ","LANE":" ","ALLEY":" ","HOUSE_NO":"１３號五樓之７","E_COORD97":167428.60000000001,"N_COORD97":2544465.2599999998,"ADDRESS":"文賢路１３號五樓之７","OBJECTID":628495},"geometry":{"x":167428.59999999963,"y":2544465.2599999998}},{"attributes":{"ID":628523,"DIS_CODE":0,"TOWNNAME":"中西區","LI":"協和里","LIN":"4鄰","STREET":"文賢路","SECT":" ","MAREA":" ","LANE":" ","ALLEY":" ","HOUSE_NO":"１３號五樓之８","E_COORD97":167428.60000000001,"N_COORD97":2544465.2599999998,"ADDRESS":"文賢路１３號五樓之８","OBJECTID":628496},"geometry":{"x":167428.59999999963,"y":2544465.2599999998}},{"attributes":{"ID":628524,"DIS_CODE":0,"TOWNNAME":"中西區","LI":"協和里","LIN":"4鄰","STREET":"文賢路","SECT":" ","MAREA":" ","LANE":" ","ALLEY":" ","HOUSE_NO":"１３號六樓之１","E_COORD97":167428.60000000001,"N_COORD97":2544465.2599999998,"ADDRESS":"文賢路１３號六樓之１","OBJECTID":628497},"geometry":{"x":167428.59999999963,"y":2544465.2599999998}},{"attributes":{"ID":628525,"DIS_CODE":0,"TOWNNAME":"中西區","LI":"協和里","LIN":"4鄰","STREET":"文賢路","SECT":" ","MAREA":" ","LANE":" ","ALLEY":" ","HOUSE_NO":"１３號六樓之１０","E_COORD97":167428.60000000001,"N_COORD97":2544465.2599999998,"ADDRESS":"文賢路１３號六樓之１０","OBJECTID":628498},"geometry":{"x":167428.59999999963,"y":2544465.2599999998}},{"attributes":{"ID":628526,"DIS_CODE":0,"TOWNNAME":"中西區","LI":"協和里","LIN":"4鄰","STREET":"文賢路","SECT":" ","MAREA":" ","LANE":" ","ALLEY":" ","HOUSE_NO":"１３號六樓之１１","E_COORD97":167428.60000000001,"N_COORD97":2544465.2599999998,"ADDRESS":"文賢路１３號六樓之１１","OBJECTID":628499},"geometry":{"x":167428.59999999963,"y":2544465.2599999998}},{"attributes":{"ID":628527,"DIS_CODE":0,"TOWNNAME":"中西區","LI":"協和里","LIN":"4鄰","STREET":"文賢路","SECT":" ","MAREA":" ","LANE":" ","ALLEY":" ","HOUSE_NO":"１３號六樓之１２","E_COORD97":167428.60000000001,"N_COORD97":2544465.2599999998,"ADDRESS":"文賢路１３號六樓之１２","OBJECTID":628500},"geometry":{"x":167428.59999999963,"y":2544465.2599999998}},{"attributes":{"ID":628528,"DIS_CODE":0,"TOWNNAME":"中西區","LI":"協和里","LIN":"4鄰","STREET":"文賢路","SECT":" ","MAREA":" ","LANE":" ","ALLEY":" ","HOUSE_NO":"１３號六樓之１３","E_COORD97":167428.60000000001,"N_COORD97":2544465.2599999998,"ADDRESS":"文賢路１３號六樓之１３","OBJECTID":628501},"geometry":{"x":167428.59999999963,"y":2544465.2599999998}},{"attributes":{"ID":628529,"DIS_CODE":0,"TOWNNAME":"中西區","LI":"協和里","LIN":"4鄰","STREET":"文賢路","SECT":" ","MAREA":" ","LANE":" ","ALLEY":" ","HOUSE_NO":"１３號六樓之１４","E_COORD97":167428.60000000001,"N_COORD97":2544465.2599999998,"ADDRESS":"文賢路１３號六樓之１４","OBJECTID":628502},"geometry":{"x":167428.59999999963,"y":2544465.2599999998}},{"attributes":{"ID":628530,"DIS_CODE":0,"TOWNNAME":"中西區","LI":"協和里","LIN":"4鄰","STREET":"文賢路","SECT":" ","MAREA":" ","LANE":" ","ALLEY":" ","HOUSE_NO":"１３號四樓之１１","E_COORD97":167428.60000000001,"N_COORD97":2544465.2599999998,"ADDRESS":"文賢路１３號四樓之１１","OBJECTID":628503},"geometry":{"x":167428.59999999963,"y":2544465.2599999998}},{"attributes":{"ID":628531,"DIS_CODE":0,"TOWNNAME":"中西區","LI":"協和里","LIN":"4鄰","STREET":"文賢路","SECT":" ","MAREA":" ","LANE":" ","ALLEY":" ","HOUSE_NO":"１３號四樓之１２","E_COORD97":167428.60000000001,"N_COORD97":2544465.2599999998,"ADDRESS":"文賢路１３號四樓之１２","OBJECTID":628504},"geometry":{"x":167428.59999999963,"y":2544465.2599999998}},{"attributes":{"ID":628532,"DIS_CODE":0,"TOWNNAME":"中西區","LI":"協和里","LIN":"4鄰","STREET":"文賢路","SECT":" ","MAREA":" ","LANE":" ","ALLEY":" ","HOUSE_NO":"１３號四樓之２","E_COORD97":167428.60000000001,"N_COORD97":2544465.2599999998,"ADDRESS":"文賢路１３號四樓之２","OBJECTID":628505},"geometry":{"x":167428.59999999963,"y":2544465.2599999998}},{"attributes":{"ID":628533,"DIS_CODE":0,"TOWNNAME":"中西區","LI":"協和里","LIN":"4鄰","STREET":"文賢路","SECT":" ","MAREA":" ","LANE":" ","ALLEY":" ","HOUSE_NO":"１３號四樓之３","E_COORD97":167428.60000000001,"N_COORD97":2544465.2599999998,"ADDRESS":"文賢路１３號四樓之３","OBJECTID":628506},"geometry":{"x":167428.59999999963,"y":2544465.2599999998}},{"attributes":{"ID":628534,"DIS_CODE":0,"TOWNNAME":"中西區","LI":"協和里","LIN":"4鄰","STREET":"文賢路","SECT":" ","MAREA":" ","LANE":" ","ALLEY":" ","HOUSE_NO":"１３號四樓之３之１","E_COORD97":167428.60000000001,"N_COORD97":2544465.2599999998,"ADDRESS":"文賢路１３號四樓之３之１","OBJECTID":628507},"geometry":{"x":167428.59999999963,"y":2544465.2599999998}},{"attributes":{"ID":628535,"DIS_CODE":0,"TOWNNAME":"中西區","LI":"協和里","LIN":"4鄰","STREET":"文賢路","SECT":" ","MAREA":" ","LANE":" ","ALLEY":" ","HOUSE_NO":"１３號四樓之５","E_COORD97":167428.60000000001,"N_COORD97":2544465.2599999998,"ADDRESS":"文賢路１３號四樓之５","OBJECTID":628508},"geometry":{"x":167428.59999999963,"y":2544465.2599999998}},{"attributes":{"ID":628536,"DIS_CODE":0,"TOWNNAME":"中西區","LI":"協和里","LIN":"4鄰","STREET":"文賢路","SECT":" ","MAREA":" ","LANE":" ","ALLEY":" ","HOUSE_NO":"１３號四樓之６","E_COORD97":167428.60000000001,"N_COORD97":2544465.2599999998,"ADDRESS":"文賢路１３號四樓之６","OBJECTID":628509},"geometry":{"x":167428.59999999963,"y":2544465.2599999998}},{"attributes":{"ID":628537,"DIS_CODE":0,"TOWNNAME":"中西區","LI":"協和里","LIN":"4鄰","STREET":"文賢路","SECT":" ","MAREA":" ","LANE":" ","ALLEY":" ","HOUSE_NO":"１３號四樓之７","E_COORD97":167428.60000000001,"N_COORD97":2544465.2599999998,"ADDRESS":"文賢路１３號四樓之７","OBJECTID":628510},"geometry":{"x":167428.59999999963,"y":2544465.2599999998}},{"attributes":{"ID":628538,"DIS_CODE":0,"TOWNNAME":"中西區","LI":"協和里","LIN":"4鄰","STREET":"文賢路","SECT":" ","MAREA":" ","LANE":" ","ALLEY":" ","HOUSE_NO":"１３號四樓之８","E_COORD97":167428.60000000001,"N_COORD97":2544465.2599999998,"ADDRESS":"文賢路１３號四樓之８","OBJECTID":628511},"geometry":{"x":167428.59999999963,"y":2544465.2599999998}},{"attributes":{"ID":628539,"DIS_CODE":0,"TOWNNAME":"中西區","LI":"協和里","LIN":"4鄰","STREET":"文賢路","SECT":" ","MAREA":" ","LANE":" ","ALLEY":" ","HOUSE_NO":"１３號四樓之９","E_COORD97":167428.60000000001,"N_COORD97":2544465.2599999998,"ADDRESS":"文賢路１３號四樓之９","OBJECTID":628512},"geometry":{"x":167428.59999999963,"y":2544465.2599999998}},{"attributes":{"ID":628540,"DIS_CODE":0,"TOWNNAME":"中西區","LI":"協和里","LIN":"4鄰","STREET":"民族路","SECT":"三段","MAREA":" ","LANE":" ","ALLEY":" ","HOUSE_NO":"１９８號二樓","E_COORD97":167419.17000000001,"N_COORD97":2544455.04,"ADDRESS":"民族路三段１９８號二樓","OBJECTID":628513},"geometry":{"x":167419.17000000086,"y":2544455.040000001}},{"attributes":{"ID":628541,"DIS_CODE":0,"TOWNNAME":"中西區","LI":"安海里","LIN":"4鄰","STREET":"金華路","SECT":"三段","MAREA":" ","LANE":" ","ALLEY":" ","HOUSE_NO":"２３０號十一樓之２","E_COORD97":167356.13,"N_COORD97":2543956.71,"ADDRESS":"金華路三段２３０號十一樓之２","OBJECTID":628514},"geometry":{"x":167356.12999999896,"y":2543956.7100000028}},{"attributes":{"ID":628542,"DIS_CODE":0,"TOWNNAME":"中西區","LI":"安海里","LIN":"4鄰","STREET":"金華路","SECT":"三段","MAREA":" ","LANE":" ","ALLEY":" ","HOUSE_NO":"２３０號十一樓之３","E_COORD97":167356.13,"N_COORD97":2543956.71,"ADDRESS":"金華路三段２３０號十一樓之３","OBJECTID":628515},"geometry":{"x":167356.12999999896,"y":2543956.7100000028}},{"attributes":{"ID":628543,"DIS_CODE":0,"TOWNNAME":"中西區","LI":"安海里","LIN":"4鄰","STREET":"金華路","SECT":"三段","MAREA":" ","LANE":" ","ALLEY":" ","HOUSE_NO":"２３０號十一樓之４","E_COORD97":167356.13,"N_COORD97":2543956.71,"ADDRESS":"金華路三段２３０號十一樓之４","OBJECTID":628516},"geometry":{"x":167356.12999999896,"y":2543956.7100000028}},{"attributes":{"ID":628544,"DIS_CODE":0,"TOWNNAME":"中西區","LI":"安海里","LIN":"4鄰","STREET":"金華路","SECT":"三段","MAREA":" ","LANE":" ","ALLEY":" ","HOUSE_NO":"２３０號十一樓之５","E_COORD97":167356.13,"N_COORD97":2543956.71,"ADDRESS":"金華路三段２３０號十一樓之５","OBJECTID":628517},"geometry":{"x":167356.12999999896,"y":2543956.7100000028}},{"attributes":{"ID":628545,"DIS_CODE":0,"TOWNNAME":"中西區","LI":"安海里","LIN":"4鄰","STREET":"金華路","SECT":"三段","MAREA":" ","LANE":" ","ALLEY":" ","HOUSE_NO":"２３０號十一樓之６","E_COORD97":167356.13,"N_COORD97":2543956.71,"ADDRESS":"金華路三段２３０號十一樓之６","OBJECTID":628518},"geometry":{"x":167356.12999999896,"y":2543956.7100000028}},{"attributes":{"ID":628546,"DIS_CODE":0,"TOWNNAME":"中西區","LI":"安海里","LIN":"4鄰","STREET":"金華路","SECT":"三段","MAREA":" ","LANE":" ","ALLEY":" ","HOUSE_NO":"２３０號十一樓之７","E_COORD97":167356.13,"N_COORD97":2543956.71,"ADDRESS":"金華路三段２３０號十一樓之７","OBJECTID":628519},"geometry":{"x":167356.12999999896,"y":2543956.7100000028}},{"attributes":{"ID":628547,"DIS_CODE":0,"TOWNNAME":"中西區","LI":"安海里","LIN":"4鄰","STREET":"金華路","SECT":"三段","MAREA":" ","LANE":" ","ALLEY":" ","HOUSE_NO":"２３０號十一樓之８","E_COORD97":167356.13,"N_COORD97":2543956.71,"ADDRESS":"金華路三段２３０號十一樓之８","OBJECTID":628520},"geometry":{"x":167356.12999999896,"y":2543956.7100000028}},{"attributes":{"ID":628548,"DIS_CODE":0,"TOWNNAME":"中西區","LI":"安海里","LIN":"4鄰","STREET":"金華路","SECT":"三段","MAREA":" ","LANE":" ","ALLEY":" ","HOUSE_NO":"２３０號十一樓之９","E_COORD97":167356.13,"N_COORD97":2543956.71,"ADDRESS":"金華路三段２３０號十一樓之９","OBJECTID":628521},"geometry":{"x":167356.12999999896,"y":2543956.7100000028}},{"attributes":{"ID":628549,"DIS_CODE":0,"TOWNNAME":"中西區","LI":"安海里","LIN":"4鄰","STREET":"金華路","SECT":"三段","MAREA":" ","LANE":" ","ALLEY":" ","HOUSE_NO":"２３０號十二樓之１","E_COORD97":167356.13,"N_COORD97":2543956.71,"ADDRESS":"金華路三段２３０號十二樓之１","OBJECTID":628522},"geometry":{"x":167356.12999999896,"y":2543956.7100000028}},{"attributes":{"ID":628550,"DIS_CODE":0,"TOWNNAME":"東區","LI":"崇成里","LIN":"4鄰","STREET":"崇德十二街","SECT":" ","MAREA":" ","LANE":" ","ALLEY":" ","HOUSE_NO":"６６號五樓","E_COORD97":170938.57999999999,"N_COORD97":2541334.1099999999,"ADDRESS":"崇德十二街６６號五樓","OBJECTID":628523},"geometry":{"x":170938.57999999914,"y":2541334.1099999975}},{"attributes":{"ID":628551,"DIS_CODE":0,"TOWNNAME":"中西區","LI":"安海里","LIN":"4鄰","STREET":"金華路","SECT":"三段","MAREA":" ","LANE":" ","ALLEY":" ","HOUSE_NO":"２３０號十二樓之２","E_COORD97":167356.13,"N_COORD97":2543956.71,"ADDRESS":"金華路三段２３０號十二樓之２","OBJECTID":628524},"geometry":{"x":167356.12999999896,"y":2543956.7100000028}},{"attributes":{"ID":628552,"DIS_CODE":0,"TOWNNAME":"中西區","LI":"安海里","LIN":"4鄰","STREET":"金華路","SECT":"三段","MAREA":" ","LANE":" ","ALLEY":" ","HOUSE_NO":"２３０號十樓","E_COORD97":167356.13,"N_COORD97":2543956.71,"ADDRESS":"金華路三段２３０號十樓","OBJECTID":628525},"geometry":{"x":167356.12999999896,"y":2543956.7100000028}},{"attributes":{"ID":628553,"DIS_CODE":0,"TOWNNAME":"中西區","LI":"安海里","LIN":"4鄰","STREET":"金華路","SECT":"三段","MAREA":" ","LANE":" ","ALLEY":" ","HOUSE_NO":"２３０號三樓之１","E_COORD97":167356.13,"N_COORD97":2543956.71,"ADDRESS":"金華路三段２３０號三樓之１","OBJECTID":628526},"geometry":{"x":167356.12999999896,"y":2543956.7100000028}},{"attributes":{"ID":628554,"DIS_CODE":0,"TOWNNAME":"中西區","LI":"安海里","LIN":"4鄰","STREET":"金華路","SECT":"三段","MAREA":" ","LANE":" ","ALLEY":" ","HOUSE_NO":"２３０號三樓之２","E_COORD97":167356.13,"N_COORD97":2543956.71,"ADDRESS":"金華路三段２３０號三樓之２","OBJECTID":628527},"geometry":{"x":167356.12999999896,"y":2543956.7100000028}},{"attributes":{"ID":628555,"DIS_CODE":0,"TOWNNAME":"中西區","LI":"安海里","LIN":"4鄰","STREET":"金華路","SECT":"三段","MAREA":" ","LANE":" ","ALLEY":" ","HOUSE_NO":"２３０號三樓之３","E_COORD97":167356.13,"N_COORD97":2543956.71,"ADDRESS":"金華路三段２３０號三樓之３","OBJECTID":628528},"geometry":{"x":167356.12999999896,"y":2543956.7100000028}},{"attributes":{"ID":628556,"DIS_CODE":0,"TOWNNAME":"中西區","LI":"安海里","LIN":"4鄰","STREET":"金華路","SECT":"三段","MAREA":" ","LANE":" ","ALLEY":" ","HOUSE_NO":"２３０號三樓之４","E_COORD97":167356.13,"N_COORD97":2543956.71,"ADDRESS":"金華路三段２３０號三樓之４","OBJECTID":628529},"geometry":{"x":167356.12999999896,"y":2543956.7100000028}},{"attributes":{"ID":628557,"DIS_CODE":0,"TOWNNAME":"中西區","LI":"安海里","LIN":"4鄰","STREET":"金華路","SECT":"三段","MAREA":" ","LANE":" ","ALLEY":" ","HOUSE_NO":"２３０號五樓之１","E_COORD97":167356.13,"N_COORD97":2543956.71,"ADDRESS":"金華路三段２３０號五樓之１","OBJECTID":628530},"geometry":{"x":167356.12999999896,"y":2543956.7100000028}},{"attributes":{"ID":628558,"DIS_CODE":0,"TOWNNAME":"中西區","LI":"安海里","LIN":"4鄰","STREET":"金華路","SECT":"三段","MAREA":" ","LANE":" ","ALLEY":" ","HOUSE_NO":"２３０號五樓之１０","E_COORD97":167356.13,"N_COORD97":2543956.71,"ADDRESS":"金華路三段２３０號五樓之１０","OBJECTID":628531},"geometry":{"x":167356.12999999896,"y":2543956.7100000028}},{"attributes":{"ID":628559,"DIS_CODE":0,"TOWNNAME":"東區","LI":"泉南里","LIN":"25鄰","STREET":"樹林街","SECT":"一段","MAREA":" ","LANE":" ","ALLEY":" ","HOUSE_NO":"８３號","E_COORD97":169511.29999999999,"N_COORD97":2542951.0800000001,"ADDRESS":"樹林街一段８３號","OBJECTID":628532},"geometry":{"x":169511.30000000168,"y":2542951.0800000001}},{"attributes":{"ID":628560,"DIS_CODE":0,"TOWNNAME":"中西區","LI":"安海里","LIN":"4鄰","STREET":"金華路","SECT":"三段","MAREA":" ","LANE":" ","ALLEY":" ","HOUSE_NO":"２３０號五樓之１１","E_COORD97":167356.13,"N_COORD97":2543956.71,"ADDRESS":"金華路三段２３０號五樓之１１","OBJECTID":628533},"geometry":{"x":167356.12999999896,"y":2543956.7100000028}},{"attributes":{"ID":628561,"DIS_CODE":0,"TOWNNAME":"中西區","LI":"安海里","LIN":"4鄰","STREET":"金華路","SECT":"三段","MAREA":" ","LANE":" ","ALLEY":" ","HOUSE_NO":"２３０號五樓之１２","E_COORD97":167356.13,"N_COORD97":2543956.71,"ADDRESS":"金華路三段２３０號五樓之１２","OBJECTID":628534},"geometry":{"x":167356.12999999896,"y":2543956.7100000028}},{"attributes":{"ID":628562,"DIS_CODE":0,"TOWNNAME":"中西區","LI":"安海里","LIN":"4鄰","STREET":"金華路","SECT":"三段","MAREA":" ","LANE":" ","ALLEY":" ","HOUSE_NO":"２３０號五樓之１３","E_COORD97":167356.13,"N_COORD97":2543956.71,"ADDRESS":"金華路三段２３０號五樓之１３","OBJECTID":628535},"geometry":{"x":167356.12999999896,"y":2543956.7100000028}},{"attributes":{"ID":628563,"DIS_CODE":0,"TOWNNAME":"中西區","LI":"安海里","LIN":"4鄰","STREET":"金華路","SECT":"三段","MAREA":" ","LANE":" ","ALLEY":" ","HOUSE_NO":"２３０號五樓之１４","E_COORD97":167356.13,"N_COORD97":2543956.71,"ADDRESS":"金華路三段２３０號五樓之１４","OBJECTID":628536},"geometry":{"x":167356.12999999896,"y":2543956.7100000028}},{"attributes":{"ID":628564,"DIS_CODE":0,"TOWNNAME":"中西區","LI":"安海里","LIN":"4鄰","STREET":"金華路","SECT":"三段","MAREA":" ","LANE":" ","ALLEY":" ","HOUSE_NO":"２３０號五樓之１５","E_COORD97":167356.13,"N_COORD97":2543956.71,"ADDRESS":"金華路三段２３０號五樓之１５","OBJECTID":628537},"geometry":{"x":167356.12999999896,"y":2543956.7100000028}},{"attributes":{"ID":628565,"DIS_CODE":0,"TOWNNAME":"中西區","LI":"安海里","LIN":"4鄰","STREET":"金華路","SECT":"三段","MAREA":" ","LANE":" ","ALLEY":" ","HOUSE_NO":"２３０號五樓之１６","E_COORD97":167356.13,"N_COORD97":2543956.71,"ADDRESS":"金華路三段２３０號五樓之１６","OBJECTID":628538},"geometry":{"x":167356.12999999896,"y":2543956.7100000028}},{"attributes":{"ID":628566,"DIS_CODE":0,"TOWNNAME":"中西區","LI":"安海里","LIN":"4鄰","STREET":"金華路","SECT":"三段","MAREA":" ","LANE":" ","ALLEY":" ","HOUSE_NO":"２３０號五樓之２","E_COORD97":167356.13,"N_COORD97":2543956.71,"ADDRESS":"金華路三段２３０號五樓之２","OBJECTID":628539},"geometry":{"x":167356.12999999896,"y":2543956.7100000028}},{"attributes":{"ID":628567,"DIS_CODE":0,"TOWNNAME":"中西區","LI":"安海里","LIN":"4鄰","STREET":"金華路","SECT":"三段","MAREA":" ","LANE":" ","ALLEY":" ","HOUSE_NO":"２３０號五樓之３","E_COORD97":167356.13,"N_COORD97":2543956.71,"ADDRESS":"金華路三段２３０號五樓之３","OBJECTID":628540},"geometry":{"x":167356.12999999896,"y":2543956.7100000028}},{"attributes":{"ID":628568,"DIS_CODE":0,"TOWNNAME":"中西區","LI":"安海里","LIN":"4鄰","STREET":"金華路","SECT":"三段","MAREA":" ","LANE":" ","ALLEY":" ","HOUSE_NO":"２３０號五樓之４","E_COORD97":167356.13,"N_COORD97":2543956.71,"ADDRESS":"金華路三段２３０號五樓之４","OBJECTID":628541},"geometry":{"x":167356.12999999896,"y":2543956.7100000028}},{"attributes":{"ID":628569,"DIS_CODE":0,"TOWNNAME":"中西區","LI":"安海里","LIN":"4鄰","STREET":"金華路","SECT":"三段","MAREA":" ","LANE":" ","ALLEY":" ","HOUSE_NO":"２３０號五樓之５","E_COORD97":167356.13,"N_COORD97":2543956.71,"ADDRESS":"金華路三段２３０號五樓之５","OBJECTID":628542},"geometry":{"x":167356.12999999896,"y":2543956.7100000028}},{"attributes":{"ID":628570,"DIS_CODE":0,"TOWNNAME":"中西區","LI":"安海里","LIN":"4鄰","STREET":"金華路","SECT":"三段","MAREA":" ","LANE":" ","ALLEY":" ","HOUSE_NO":"２３０號五樓之６","E_COORD97":167356.13,"N_COORD97":2543956.71,"ADDRESS":"金華路三段２３０號五樓之６","OBJECTID":628543},"geometry":{"x":167356.12999999896,"y":2543956.7100000028}},{"attributes":{"ID":628571,"DIS_CODE":0,"TOWNNAME":"中西區","LI":"安海里","LIN":"4鄰","STREET":"金華路","SECT":"三段","MAREA":" ","LANE":" ","ALLEY":" ","HOUSE_NO":"２３０號五樓之７","E_COORD97":167356.13,"N_COORD97":2543956.71,"ADDRESS":"金華路三段２３０號五樓之７","OBJECTID":628544},"geometry":{"x":167356.12999999896,"y":2543956.7100000028}},{"attributes":{"ID":628572,"DIS_CODE":0,"TOWNNAME":"中西區","LI":"安海里","LIN":"4鄰","STREET":"金華路","SECT":"三段","MAREA":" ","LANE":" ","ALLEY":" ","HOUSE_NO":"２３０號五樓之８","E_COORD97":167356.13,"N_COORD97":2543956.71,"ADDRESS":"金華路三段２３０號五樓之８","OBJECTID":628545},"geometry":{"x":167356.12999999896,"y":2543956.7100000028}},{"attributes":{"ID":628573,"DIS_CODE":0,"TOWNNAME":"中西區","LI":"安海里","LIN":"4鄰","STREET":"金華路","SECT":"三段","MAREA":" ","LANE":" ","ALLEY":" ","HOUSE_NO":"２３０號五樓之９","E_COORD97":167356.13,"N_COORD97":2543956.71,"ADDRESS":"金華路三段２３０號五樓之９","OBJECTID":628546},"geometry":{"x":167356.12999999896,"y":2543956.7100000028}},{"attributes":{"ID":628574,"DIS_CODE":0,"TOWNNAME":"中西區","LI":"安海里","LIN":"4鄰","STREET":"金華路","SECT":"三段","MAREA":" ","LANE":" ","ALLEY":" ","HOUSE_NO":"２３０號六樓之１","E_COORD97":167356.13,"N_COORD97":2543956.71,"ADDRESS":"金華路三段２３０號六樓之１","OBJECTID":628547},"geometry":{"x":167356.12999999896,"y":2543956.7100000028}},{"attributes":{"ID":628575,"DIS_CODE":0,"TOWNNAME":"中西區","LI":"安海里","LIN":"4鄰","STREET":"金華路","SECT":"三段","MAREA":" ","LANE":" ","ALLEY":" ","HOUSE_NO":"２３０號六樓之１２","E_COORD97":167356.13,"N_COORD97":2543956.71,"ADDRESS":"金華路三段２３０號六樓之１２","OBJECTID":628548},"geometry":{"x":167356.12999999896,"y":2543956.7100000028}},{"attributes":{"ID":628576,"DIS_CODE":0,"TOWNNAME":"中西區","LI":"安海里","LIN":"4鄰","STREET":"金華路","SECT":"三段","MAREA":" ","LANE":" ","ALLEY":" ","HOUSE_NO":"２３０號六樓之１３","E_COORD97":167356.13,"N_COORD97":2543956.71,"ADDRESS":"金華路三段２３０號六樓之１３","OBJECTID":628549},"geometry":{"x":167356.12999999896,"y":2543956.7100000028}},{"attributes":{"ID":628577,"DIS_CODE":0,"TOWNNAME":"中西區","LI":"安海里","LIN":"4鄰","STREET":"金華路","SECT":"三段","MAREA":" ","LANE":" ","ALLEY":" ","HOUSE_NO":"２３０號六樓之１４","E_COORD97":167356.13,"N_COORD97":2543956.71,"ADDRESS":"金華路三段２３０號六樓之１４","OBJECTID":628550},"geometry":{"x":167356.12999999896,"y":2543956.7100000028}},{"attributes":{"ID":628578,"DIS_CODE":0,"TOWNNAME":"中西區","LI":"安海里","LIN":"4鄰","STREET":"金華路","SECT":"三段","MAREA":" ","LANE":" ","ALLEY":" ","HOUSE_NO":"２３０號六樓之１５","E_COORD97":167356.13,"N_COORD97":2543956.71,"ADDRESS":"金華路三段２３０號六樓之１５","OBJECTID":628551},"geometry":{"x":167356.12999999896,"y":2543956.7100000028}},{"attributes":{"ID":628579,"DIS_CODE":0,"TOWNNAME":"北區","LI":"成功里","LIN":"4鄰","STREET":"北成路","SECT":" ","MAREA":" ","LANE":" ","ALLEY":" ","HOUSE_NO":"７號","E_COORD97":169175.31,"N_COORD97":2546523.96,"ADDRESS":"北成路７號","OBJECTID":628552},"geometry":{"x":169175.31000000145,"y":2546523.959999999}},{"attributes":{"ID":628580,"DIS_CODE":0,"TOWNNAME":"中西區","LI":"安海里","LIN":"4鄰","STREET":"金華路","SECT":"三段","MAREA":" ","LANE":" ","ALLEY":" ","HOUSE_NO":"２３０號六樓之１６","E_COORD97":167356.13,"N_COORD97":2543956.71,"ADDRESS":"金華路三段２３０號六樓之１６","OBJECTID":628553},"geometry":{"x":167356.12999999896,"y":2543956.7100000028}},{"attributes":{"ID":628581,"DIS_CODE":0,"TOWNNAME":"中西區","LI":"安海里","LIN":"4鄰","STREET":"金華路","SECT":"三段","MAREA":" ","LANE":" ","ALLEY":" ","HOUSE_NO":"２３０號六樓之１８","E_COORD97":167356.13,"N_COORD97":2543956.71,"ADDRESS":"金華路三段２３０號六樓之１８","OBJECTID":628554},"geometry":{"x":167356.12999999896,"y":2543956.7100000028}},{"attributes":{"ID":628582,"DIS_CODE":0,"TOWNNAME":"中西區","LI":"安海里","LIN":"4鄰","STREET":"金華路","SECT":"三段","MAREA":" ","LANE":" ","ALLEY":" ","HOUSE_NO":"２３０號六樓之２","E_COORD97":167356.13,"N_COORD97":2543956.71,"ADDRESS":"金華路三段２３０號六樓之２","OBJECTID":628555},"geometry":{"x":167356.12999999896,"y":2543956.7100000028}},{"attributes":{"ID":628583,"DIS_CODE":0,"TOWNNAME":"中西區","LI":"安海里","LIN":"4鄰","STREET":"金華路","SECT":"三段","MAREA":" ","LANE":" ","ALLEY":" ","HOUSE_NO":"２３０號六樓之３","E_COORD97":167356.13,"N_COORD97":2543956.71,"ADDRESS":"金華路三段２３０號六樓之３","OBJECTID":628556},"geometry":{"x":167356.12999999896,"y":2543956.7100000028}},{"attributes":{"ID":628584,"DIS_CODE":0,"TOWNNAME":"中西區","LI":"安海里","LIN":"4鄰","STREET":"金華路","SECT":"三段","MAREA":" ","LANE":" ","ALLEY":" ","HOUSE_NO":"２３０號六樓之４","E_COORD97":167356.13,"N_COORD97":2543956.71,"ADDRESS":"金華路三段２３０號六樓之４","OBJECTID":628557},"geometry":{"x":167356.12999999896,"y":2543956.7100000028}},{"attributes":{"ID":628585,"DIS_CODE":0,"TOWNNAME":"中西區","LI":"安海里","LIN":"4鄰","STREET":"金華路","SECT":"三段","MAREA":" ","LANE":" ","ALLEY":" ","HOUSE_NO":"２３０號六樓之５","E_COORD97":167356.13,"N_COORD97":2543956.71,"ADDRESS":"金華路三段２３０號六樓之５","OBJECTID":628558},"geometry":{"x":167356.12999999896,"y":2543956.7100000028}},{"attributes":{"ID":628586,"DIS_CODE":0,"TOWNNAME":"中西區","LI":"安海里","LIN":"4鄰","STREET":"金華路","SECT":"三段","MAREA":" ","LANE":" ","ALLEY":" ","HOUSE_NO":"２３０號六樓之６","E_COORD97":167356.13,"N_COORD97":2543956.71,"ADDRESS":"金華路三段２３０號六樓之６","OBJECTID":628559},"geometry":{"x":167356.12999999896,"y":2543956.7100000028}},{"attributes":{"ID":628587,"DIS_CODE":0,"TOWNNAME":"中西區","LI":"安海里","LIN":"4鄰","STREET":"金華路","SECT":"三段","MAREA":" ","LANE":" ","ALLEY":" ","HOUSE_NO":"２３０號六樓之７","E_COORD97":167356.13,"N_COORD97":2543956.71,"ADDRESS":"金華路三段２３０號六樓之７","OBJECTID":628560},"geometry":{"x":167356.12999999896,"y":2543956.7100000028}},{"attributes":{"ID":628588,"DIS_CODE":0,"TOWNNAME":"中西區","LI":"安海里","LIN":"4鄰","STREET":"金華路","SECT":"三段","MAREA":" ","LANE":" ","ALLEY":" ","HOUSE_NO":"２３０號六樓之８","E_COORD97":167356.13,"N_COORD97":2543956.71,"ADDRESS":"金華路三段２３０號六樓之８","OBJECTID":628561},"geometry":{"x":167356.12999999896,"y":2543956.7100000028}},{"attributes":{"ID":628589,"DIS_CODE":0,"TOWNNAME":"中西區","LI":"安海里","LIN":"4鄰","STREET":"金華路","SECT":"三段","MAREA":" ","LANE":" ","ALLEY":" ","HOUSE_NO":"２３０號六樓之９","E_COORD97":167356.13,"N_COORD97":2543956.71,"ADDRESS":"金華路三段２３０號六樓之９","OBJECTID":628562},"geometry":{"x":167356.12999999896,"y":2543956.7100000028}},{"attributes":{"ID":628590,"DIS_CODE":0,"TOWNNAME":"中西區","LI":"安海里","LIN":"4鄰","STREET":"金華路","SECT":"三段","MAREA":" ","LANE":" ","ALLEY":" ","HOUSE_NO":"２３０號四樓","E_COORD97":167356.13,"N_COORD97":2543956.71,"ADDRESS":"金華路三段２３０號四樓","OBJECTID":628563},"geometry":{"x":167356.12999999896,"y":2543956.7100000028}},{"attributes":{"ID":628591,"DIS_CODE":0,"TOWNNAME":"中西區","LI":"安海里","LIN":"4鄰","STREET":"金華路","SECT":"三段","MAREA":" ","LANE":" ","ALLEY":" ","HOUSE_NO":"２４８號七樓之１","E_COORD97":167351.41,"N_COORD97":2543982.6200000001,"ADDRESS":"金華路三段２４８號七樓之１","OBJECTID":628564},"geometry":{"x":167351.41000000108,"y":2543982.620000001}},{"attributes":{"ID":628592,"DIS_CODE":0,"TOWNNAME":"中西區","LI":"安海里","LIN":"4鄰","STREET":"金華路","SECT":"三段","MAREA":" ","LANE":" ","ALLEY":" ","HOUSE_NO":"２４８號七樓之２","E_COORD97":167351.41,"N_COORD97":2543982.6200000001,"ADDRESS":"金華路三段２４８號七樓之２","OBJECTID":628565},"geometry":{"x":167351.41000000108,"y":2543982.620000001}},{"attributes":{"ID":628593,"DIS_CODE":0,"TOWNNAME":"東區","LI":"莊敬里","LIN":"25鄰","STREET":"東光路","SECT":"二段","MAREA":" ","LANE":" ","ALLEY":" ","HOUSE_NO":"１０號","E_COORD97":171217.32999999999,"N_COORD97":2543993.8100000001,"ADDRESS":"東光路二段１０號","OBJECTID":628566},"geometry":{"x":171217.33000000101,"y":2543993.8100000024}},{"attributes":{"ID":628594,"DIS_CODE":0,"TOWNNAME":"永康區","LI":"大橋里","LIN":"4鄰","STREET":"大橋五街","SECT":" ","MAREA":" ","LANE":" ","ALLEY":" ","HOUSE_NO":"１３３號","E_COORD97":170950.85000000001,"N_COORD97":2546973.3799999999,"ADDRESS":"大橋五街１３３號","OBJECTID":628567},"geometry":{"x":170950.84999999963,"y":2546973.3799999971}},{"attributes":{"ID":628595,"DIS_CODE":0,"TOWNNAME":"中西區","LI":"安海里","LIN":"4鄰","STREET":"金華路","SECT":"三段","MAREA":" ","LANE":" ","ALLEY":" ","HOUSE_NO":"２４８號七樓之３","E_COORD97":167357.48000000001,"N_COORD97":2543977.6200000001,"ADDRESS":"金華路三段２４８號七樓之３","OBJECTID":628568},"geometry":{"x":167357.48000000045,"y":2543977.6200000029}},{"attributes":{"ID":628596,"DIS_CODE":0,"TOWNNAME":"中西區","LI":"安海里","LIN":"4鄰","STREET":"金華路","SECT":"三段","MAREA":" ","LANE":" ","ALLEY":" ","HOUSE_NO":"２４８號九樓之１","E_COORD97":167351.41,"N_COORD97":2543982.6200000001,"ADDRESS":"金華路三段２４８號九樓之１","OBJECTID":628569},"geometry":{"x":167351.41000000108,"y":2543982.620000001}},{"attributes":{"ID":628597,"DIS_CODE":0,"TOWNNAME":"中西區","LI":"安海里","LIN":"4鄰","STREET":"金華路","SECT":"三段","MAREA":" ","LANE":" ","ALLEY":" ","HOUSE_NO":"２４８號九樓之２","E_COORD97":167351.41,"N_COORD97":2543982.6200000001,"ADDRESS":"金華路三段２４８號九樓之２","OBJECTID":628570},"geometry":{"x":167351.41000000108,"y":2543982.620000001}},{"attributes":{"ID":628598,"DIS_CODE":0,"TOWNNAME":"中西區","LI":"安海里","LIN":"4鄰","STREET":"金華路","SECT":"三段","MAREA":" ","LANE":" ","ALLEY":" ","HOUSE_NO":"２４８號九樓之３","E_COORD97":167357.48000000001,"N_COORD97":2543977.6200000001,"ADDRESS":"金華路三段２４８號九樓之３","OBJECTID":628571},"geometry":{"x":167357.48000000045,"y":2543977.6200000029}},{"attributes":{"ID":628599,"DIS_CODE":0,"TOWNNAME":"中西區","LI":"安海里","LIN":"4鄰","STREET":"金華路","SECT":"三段","MAREA":" ","LANE":" ","ALLEY":" ","HOUSE_NO":"２４８號二樓之１","E_COORD97":167351.41,"N_COORD97":2543982.6200000001,"ADDRESS":"金華路三段２４８號二樓之１","OBJECTID":628572},"geometry":{"x":167351.41000000108,"y":2543982.620000001}},{"attributes":{"ID":628600,"DIS_CODE":0,"TOWNNAME":"中西區","LI":"安海里","LIN":"4鄰","STREET":"金華路","SECT":"三段","MAREA":" ","LANE":" ","ALLEY":" ","HOUSE_NO":"２４８號二樓之２","E_COORD97":167351.41,"N_COORD97":2543982.6200000001,"ADDRESS":"金華路三段２４８號二樓之２","OBJECTID":628573},"geometry":{"x":167351.41000000108,"y":2543982.620000001}},{"attributes":{"ID":628601,"DIS_CODE":0,"TOWNNAME":"中西區","LI":"安海里","LIN":"4鄰","STREET":"金華路","SECT":"三段","MAREA":" ","LANE":" ","ALLEY":" ","HOUSE_NO":"２４８號八樓之１","E_COORD97":167351.41,"N_COORD97":2543982.6200000001,"ADDRESS":"金華路三段２４８號八樓之１","OBJECTID":628574},"geometry":{"x":167351.41000000108,"y":2543982.620000001}},{"attributes":{"ID":628602,"DIS_CODE":0,"TOWNNAME":"中西區","LI":"安海里","LIN":"4鄰","STREET":"金華路","SECT":"三段","MAREA":" ","LANE":" ","ALLEY":" ","HOUSE_NO":"２４８號八樓之２","E_COORD97":167351.41,"N_COORD97":2543982.6200000001,"ADDRESS":"金華路三段２４８號八樓之２","OBJECTID":628575},"geometry":{"x":167351.41000000108,"y":2543982.620000001}},{"attributes":{"ID":628603,"DIS_CODE":0,"TOWNNAME":"中西區","LI":"安海里","LIN":"4鄰","STREET":"金華路","SECT":"三段","MAREA":" ","LANE":" ","ALLEY":" ","HOUSE_NO":"２４８號八樓之３","E_COORD97":167357.48000000001,"N_COORD97":2543977.6200000001,"ADDRESS":"金華路三段２４８號八樓之３","OBJECTID":628576},"geometry":{"x":167357.48000000045,"y":2543977.6200000029}},{"attributes":{"ID":628604,"DIS_CODE":0,"TOWNNAME":"中西區","LI":"安海里","LIN":"4鄰","STREET":"金華路","SECT":"三段","MAREA":" ","LANE":" ","ALLEY":" ","HOUSE_NO":"２４８號十樓之１","E_COORD97":167351.41,"N_COORD97":2543982.6200000001,"ADDRESS":"金華路三段２４８號十樓之１","OBJECTID":628577},"geometry":{"x":167351.41000000108,"y":2543982.620000001}},{"attributes":{"ID":628605,"DIS_CODE":0,"TOWNNAME":"中西區","LI":"安海里","LIN":"4鄰","STREET":"金華路","SECT":"三段","MAREA":" ","LANE":" ","ALLEY":" ","HOUSE_NO":"２３０號七樓之４","E_COORD97":167356.13,"N_COORD97":2543956.71,"ADDRESS":"金華路三段２３０號七樓之４","OBJECTID":628578},"geometry":{"x":167356.12999999896,"y":2543956.7100000028}},{"attributes":{"ID":628606,"DIS_CODE":0,"TOWNNAME":"中西區","LI":"安海里","LIN":"4鄰","STREET":"金華路","SECT":"三段","MAREA":" ","LANE":" ","ALLEY":" ","HOUSE_NO":"２３０號七樓之５","E_COORD97":167356.13,"N_COORD97":2543956.71,"ADDRESS":"金華路三段２３０號七樓之５","OBJECTID":628579},"geometry":{"x":167356.12999999896,"y":2543956.7100000028}},{"attributes":{"ID":628607,"DIS_CODE":0,"TOWNNAME":"中西區","LI":"安海里","LIN":"4鄰","STREET":"金華路","SECT":"三段","MAREA":" ","LANE":" ","ALLEY":" ","HOUSE_NO":"２３０號七樓之６","E_COORD97":167356.13,"N_COORD97":2543956.71,"ADDRESS":"金華路三段２３０號七樓之６","OBJECTID":628580},"geometry":{"x":167356.12999999896,"y":2543956.7100000028}},{"attributes":{"ID":628608,"DIS_CODE":0,"TOWNNAME":"中西區","LI":"安海里","LIN":"4鄰","STREET":"金華路","SECT":"三段","MAREA":" ","LANE":" ","ALLEY":" ","HOUSE_NO":"２３０號七樓之７","E_COORD97":167356.13,"N_COORD97":2543956.71,"ADDRESS":"金華路三段２３０號七樓之７","OBJECTID":628581},"geometry":{"x":167356.12999999896,"y":2543956.7100000028}},{"attributes":{"ID":628609,"DIS_CODE":0,"TOWNNAME":"中西區","LI":"安海里","LIN":"4鄰","STREET":"金華路","SECT":"三段","MAREA":" ","LANE":" ","ALLEY":" ","HOUSE_NO":"２３０號七樓之８","E_COORD97":167356.13,"N_COORD97":2543956.71,"ADDRESS":"金華路三段２３０號七樓之８","OBJECTID":628582},"geometry":{"x":167356.12999999896,"y":2543956.7100000028}},{"attributes":{"ID":628610,"DIS_CODE":0,"TOWNNAME":"中西區","LI":"安海里","LIN":"4鄰","STREET":"金華路","SECT":"三段","MAREA":" ","LANE":" ","ALLEY":" ","HOUSE_NO":"２３０號七樓之９","E_COORD97":167356.13,"N_COORD97":2543956.71,"ADDRESS":"金華路三段２３０號七樓之９","OBJECTID":628583},"geometry":{"x":167356.12999999896,"y":2543956.7100000028}},{"attributes":{"ID":628611,"DIS_CODE":0,"TOWNNAME":"中西區","LI":"安海里","LIN":"4鄰","STREET":"金華路","SECT":"三段","MAREA":" ","LANE":" ","ALLEY":" ","HOUSE_NO":"２３０號九樓","E_COORD97":167356.13,"N_COORD97":2543956.71,"ADDRESS":"金華路三段２３０號九樓","OBJECTID":628584},"geometry":{"x":167356.12999999896,"y":2543956.7100000028}},{"attributes":{"ID":628612,"DIS_CODE":0,"TOWNNAME":"中西區","LI":"安海里","LIN":"4鄰","STREET":"金華路","SECT":"三段","MAREA":" ","LANE":" ","ALLEY":" ","HOUSE_NO":"２３０號十一樓之１","E_COORD97":167356.13,"N_COORD97":2543956.71,"ADDRESS":"金華路三段２３０號十一樓之１","OBJECTID":628585},"geometry":{"x":167356.12999999896,"y":2543956.7100000028}},{"attributes":{"ID":628613,"DIS_CODE":0,"TOWNNAME":"中西區","LI":"安海里","LIN":"4鄰","STREET":"金華路","SECT":"三段","MAREA":" ","LANE":" ","ALLEY":" ","HOUSE_NO":"２４８號十樓之２","E_COORD97":167351.41,"N_COORD97":2543982.6200000001,"ADDRESS":"金華路三段２４８號十樓之２","OBJECTID":628586},"geometry":{"x":167351.41000000108,"y":2543982.620000001}},{"attributes":{"ID":628614,"DIS_CODE":0,"TOWNNAME":"中西區","LI":"安海里","LIN":"4鄰","STREET":"金華路","SECT":"三段","MAREA":" ","LANE":" ","ALLEY":" ","HOUSE_NO":"２４８號三樓之１","E_COORD97":167351.41,"N_COORD97":2543982.6200000001,"ADDRESS":"金華路三段２４８號三樓之１","OBJECTID":628587},"geometry":{"x":167351.41000000108,"y":2543982.620000001}},{"attributes":{"ID":628615,"DIS_CODE":0,"TOWNNAME":"中西區","LI":"安海里","LIN":"4鄰","STREET":"金華路","SECT":"三段","MAREA":" ","LANE":" ","ALLEY":" ","HOUSE_NO":"２４８號三樓之２","E_COORD97":167351.41,"N_COORD97":2543982.6200000001,"ADDRESS":"金華路三段２４８號三樓之２","OBJECTID":628588},"geometry":{"x":167351.41000000108,"y":2543982.620000001}},{"attributes":{"ID":628616,"DIS_CODE":0,"TOWNNAME":"永康區","LI":"五王里","LIN":"20鄰","STREET":"中華路","SECT":" ","MAREA":" ","LANE":" ","ALLEY":" ","HOUSE_NO":"４８０號","E_COORD97":171308.23999999999,"N_COORD97":2545747.2400000002,"ADDRESS":"中華路４８０號","OBJECTID":628589},"geometry":{"x":171308.24000000022,"y":2545747.2400000002}},{"attributes":{"ID":628617,"DIS_CODE":0,"TOWNNAME":"永康區","LI":"五王里","LIN":"42鄰","STREET":"中山東路","SECT":" ","MAREA":" ","LANE":" ","ALLEY":" ","HOUSE_NO":"３８號","E_COORD97":171679.12,"N_COORD97":2546092.9100000001,"ADDRESS":"中山東路３８號","OBJECTID":628590},"geometry":{"x":171679.12000000011,"y":2546092.9099999983}},{"attributes":{"ID":628618,"DIS_CODE":0,"TOWNNAME":"永康區","LI":"五王里","LIN":"41鄰","STREET":"中山南路","SECT":" ","MAREA":" ","LANE":" ","ALLEY":" ","HOUSE_NO":"１７２號","E_COORD97":171312.45999999999,"N_COORD97":2546021.5,"ADDRESS":"中山南路１７２號","OBJECTID":628591},"geometry":{"x":171312.46000000183,"y":2546021.5000000019}},{"attributes":{"ID":628619,"DIS_CODE":0,"TOWNNAME":"永康區","LI":"五王里","LIN":"41鄰","STREET":"中山南路","SECT":" ","MAREA":" ","LANE":" ","ALLEY":" ","HOUSE_NO":"２０２號","E_COORD97":171363.37,"N_COORD97":2546037.75,"ADDRESS":"中山南路２０２號","OBJECTID":628592},"geometry":{"x":171363.37000000011,"y":2546037.7500000019}},{"attributes":{"ID":628620,"DIS_CODE":0,"TOWNNAME":"永康區","LI":"大橋里","LIN":"4鄰","STREET":"大橋五街","SECT":" ","MAREA":" ","LANE":" ","ALLEY":" ","HOUSE_NO":"１３７號","E_COORD97":170957.14999999999,"N_COORD97":2546977.6200000001,"ADDRESS":"大橋五街１３７號","OBJECTID":628593},"geometry":{"x":170957.15000000224,"y":2546977.6200000048}},{"attributes":{"ID":628621,"DIS_CODE":0,"TOWNNAME":"中西區","LI":"安海里","LIN":"4鄰","STREET":"金華路","SECT":"三段","MAREA":" ","LANE":" ","ALLEY":" ","HOUSE_NO":"２４８號五樓之１","E_COORD97":167351.41,"N_COORD97":2543982.6200000001,"ADDRESS":"金華路三段２４８號五樓之１","OBJECTID":628594},"geometry":{"x":167351.41000000108,"y":2543982.620000001}},{"attributes":{"ID":628622,"DIS_CODE":0,"TOWNNAME":"中西區","LI":"安海里","LIN":"4鄰","STREET":"金華路","SECT":"三段","MAREA":" ","LANE":" ","ALLEY":" ","HOUSE_NO":"２４８號五樓之２","E_COORD97":167351.41,"N_COORD97":2543982.6200000001,"ADDRESS":"金華路三段２４８號五樓之２","OBJECTID":628595},"geometry":{"x":167351.41000000108,"y":2543982.620000001}},{"attributes":{"ID":628623,"DIS_CODE":0,"TOWNNAME":"中西區","LI":"安海里","LIN":"4鄰","STREET":"金華路","SECT":"三段","MAREA":" ","LANE":" ","ALLEY":" ","HOUSE_NO":"２４８號五樓之３","E_COORD97":167357.48000000001,"N_COORD97":2543977.6200000001,"ADDRESS":"金華路三段２４８號五樓之３","OBJECTID":628596},"geometry":{"x":167357.48000000045,"y":2543977.6200000029}},{"attributes":{"ID":628624,"DIS_CODE":0,"TOWNNAME":"永康區","LI":"大灣里","LIN":"5鄰","STREET":"大同街","SECT":" ","MAREA":" ","LANE":" ","ALLEY":" ","HOUSE_NO":"１６１號","E_COORD97":174829.20999999999,"N_COORD97":2545614.2000000002,"ADDRESS":"大同街１６１號","OBJECTID":628597},"geometry":{"x":174829.20999999996,"y":2545614.1999999993}},{"attributes":{"ID":628625,"DIS_CODE":0,"TOWNNAME":"永康區","LI":"大灣里","LIN":"25鄰","STREET":"中灣五街","SECT":" ","MAREA":" ","LANE":" ","ALLEY":" ","HOUSE_NO":"１０號","E_COORD97":175065.53,"N_COORD97":2545192.8199999998,"ADDRESS":"中灣五街１０號","OBJECTID":628598},"geometry":{"x":175065.53000000119,"y":2545192.8200000022}},{"attributes":{"ID":628626,"DIS_CODE":0,"TOWNNAME":"永康區","LI":"五王里","LIN":"42鄰","STREET":"中山東路","SECT":" ","MAREA":" ","LANE":" ","ALLEY":" ","HOUSE_NO":"３２號","E_COORD97":171672.64999999999,"N_COORD97":2546106,"ADDRESS":"中山東路３２號","OBJECTID":628599},"geometry":{"x":171672.65000000224,"y":2546106.0000000037}},{"attributes":{"ID":628627,"DIS_CODE":0,"TOWNNAME":"永康區","LI":"五王里","LIN":"42鄰","STREET":"中山東路","SECT":" ","MAREA":" ","LANE":" ","ALLEY":" ","HOUSE_NO":"１６號","E_COORD97":171660.79999999999,"N_COORD97":2546134.5,"ADDRESS":"中山東路１６號","OBJECTID":628600},"geometry":{"x":171660.80000000168,"y":2546134.5000000019}}]}