{"displayFieldName":"TOWNNAME","fieldAliases":{"ID":"ID","DIS_CODE":"DIS_CODE","TOWNNAME":"TOWNNAME","LI":"LI","LIN":"LIN","STREET":"STREET","SECT":"SECT","MAREA":"MAREA","LANE":"LANE","ALLEY":"ALLEY","HOUSE_NO":"HOUSE_NO","E_COORD97":"E_COORD97","N_COORD97":"N_COORD97","ADDRESS":"ADDRESS","OBJECTID":"OBJECTID"},"geometryType":"esriGeometryPoint","spatialReference":{"wkid":102443,"latestWkid":3826},"fields":[{"name":"ID","type":"esriFieldTypeDouble","alias":"ID"},{"name":"DIS_CODE","type":"esriFieldTypeInteger","alias":"DIS_CODE"},{"name":"TOWNNAME","type":"esriFieldTypeString","alias":"TOWNNAME","length":8},{"name":"LI","type":"esriFieldTypeString","alias":"LI","length":8},{"name":"LIN","type":"esriFieldTypeString","alias":"LIN","length":12},{"name":"STREET","type":"esriFieldTypeString","alias":"STREET","length":20},{"name":"SECT","type":"esriFieldTypeString","alias":"SECT","length":8},{"name":"MAREA","type":"esriFieldTypeString","alias":"MAREA","length":12},{"name":"LANE","type":"esriFieldTypeString","alias":"LANE","length":10},{"name":"ALLEY","type":"esriFieldTypeString","alias":"ALLEY","length":10},{"name":"HOUSE_NO","type":"esriFieldTypeString","alias":"HOUSE_NO","length":20},{"name":"E_COORD97","type":"esriFieldTypeDouble","alias":"E_COORD97"},{"name":"N_COORD97","type":"esriFieldTypeDouble","alias":"N_COORD97"},{"name":"ADDRESS","type":"esriFieldTypeString","alias":"ADDRESS","length":50},{"name":"OBJECTID","type":"esriFieldTypeOID","alias":"OBJECTID"}],"features":[{"attributes":{"ID":217202,"DIS_CODE":0,"TOWNNAME":"學甲區","LI":"豐和里","LIN":"2鄰","STREET":" ","SECT":" ","MAREA":"美豐","LANE":" ","ALLEY":" ","HOUSE_NO":"１０號之４","E_COORD97":167991.34,"N_COORD97":2568951.4700000002,"ADDRESS":"美豐１０號之４","OBJECTID":217201},"geometry":{"x":167991.33999999985,"y":2568951.4700000044}},{"attributes":{"ID":217203,"DIS_CODE":0,"TOWNNAME":"學甲區","LI":"豐和里","LIN":"2鄰","STREET":" ","SECT":" ","MAREA":"美豐","LANE":" ","ALLEY":" ","HOUSE_NO":"１０號","E_COORD97":168051.47,"N_COORD97":2568970.4399999999,"ADDRESS":"美豐１０號","OBJECTID":217202},"geometry":{"x":168051.46999999974,"y":2568970.4400000032}},{"attributes":{"ID":217204,"DIS_CODE":0,"TOWNNAME":"學甲區","LI":"豐和里","LIN":"2鄰","STREET":" ","SECT":" ","MAREA":"美豐","LANE":" ","ALLEY":" ","HOUSE_NO":"１１號之２","E_COORD97":167973.51999999999,"N_COORD97":2568909.7999999998,"ADDRESS":"美豐１１號之２","OBJECTID":217203},"geometry":{"x":167973.51999999955,"y":2568909.8000000026}},{"attributes":{"ID":217205,"DIS_CODE":0,"TOWNNAME":"學甲區","LI":"豐和里","LIN":"2鄰","STREET":" ","SECT":" ","MAREA":"美豐","LANE":" ","ALLEY":" ","HOUSE_NO":"１１號之５","E_COORD97":167939.32000000001,"N_COORD97":2568837.5699999998,"ADDRESS":"美豐１１號之５","OBJECTID":217204},"geometry":{"x":167939.32000000123,"y":2568837.5700000003}},{"attributes":{"ID":217206,"DIS_CODE":0,"TOWNNAME":"學甲區","LI":"豐和里","LIN":"2鄰","STREET":" ","SECT":" ","MAREA":"美豐","LANE":" ","ALLEY":" ","HOUSE_NO":"１１號","E_COORD97":168037.75,"N_COORD97":2568937.27,"ADDRESS":"美豐１１號","OBJECTID":217205},"geometry":{"x":168037.75000000093,"y":2568937.2699999996}},{"attributes":{"ID":217207,"DIS_CODE":0,"TOWNNAME":"學甲區","LI":"豐和里","LIN":"2鄰","STREET":" ","SECT":" ","MAREA":"美豐","LANE":" ","ALLEY":" ","HOUSE_NO":"６號","E_COORD97":168004.17999999999,"N_COORD97":2569014.7999999998,"ADDRESS":"美豐６號","OBJECTID":217206},"geometry":{"x":168004.1799999997,"y":2569014.8000000026}},{"attributes":{"ID":217208,"DIS_CODE":0,"TOWNNAME":"學甲區","LI":"豐和里","LIN":"2鄰","STREET":" ","SECT":" ","MAREA":"美豐","LANE":" ","ALLEY":" ","HOUSE_NO":"７號之１６","E_COORD97":167711.31,"N_COORD97":2568997.0699999998,"ADDRESS":"美豐７號之１６","OBJECTID":217207},"geometry":{"x":167711.31000000052,"y":2568997.0700000003}},{"attributes":{"ID":217209,"DIS_CODE":0,"TOWNNAME":"學甲區","LI":"豐和里","LIN":"2鄰","STREET":" ","SECT":" ","MAREA":"美豐","LANE":" ","ALLEY":" ","HOUSE_NO":"７號之６","E_COORD97":167937.88,"N_COORD97":2569012.2799999998,"ADDRESS":"美豐７號之６","OBJECTID":217208},"geometry":{"x":167937.88000000082,"y":2569012.2800000031}},{"attributes":{"ID":217210,"DIS_CODE":0,"TOWNNAME":"學甲區","LI":"豐和里","LIN":"2鄰","STREET":" ","SECT":" ","MAREA":"美豐","LANE":" ","ALLEY":" ","HOUSE_NO":"７號","E_COORD97":167996.79999999999,"N_COORD97":2569000.7400000002,"ADDRESS":"美豐７號","OBJECTID":217209},"geometry":{"x":167996.79999999981,"y":2569000.7400000021}},{"attributes":{"ID":217211,"DIS_CODE":0,"TOWNNAME":"學甲區","LI":"豐和里","LIN":"2鄰","STREET":" ","SECT":" ","MAREA":"美豐","LANE":" ","ALLEY":" ","HOUSE_NO":"８號","E_COORD97":168004.51999999999,"N_COORD97":2568986.5299999998,"ADDRESS":"美豐８號","OBJECTID":217210},"geometry":{"x":168004.52000000048,"y":2568986.5299999975}},{"attributes":{"ID":217212,"DIS_CODE":0,"TOWNNAME":"學甲區","LI":"豐和里","LIN":"2鄰","STREET":" ","SECT":" ","MAREA":"美豐","LANE":" ","ALLEY":" ","HOUSE_NO":"９號","E_COORD97":168014.20000000001,"N_COORD97":2569001.25,"ADDRESS":"美豐９號","OBJECTID":217211},"geometry":{"x":168014.20000000112,"y":2569001.25}},{"attributes":{"ID":217213,"DIS_CODE":0,"TOWNNAME":"楠西區","LI":"鹿田里","LIN":"2鄰","STREET":" ","SECT":" ","MAREA":"鹿陶洋","LANE":" ","ALLEY":" ","HOUSE_NO":"２３號","E_COORD97":197153.62,"N_COORD97":2561422.25,"ADDRESS":"鹿陶洋２３號","OBJECTID":217212},"geometry":{"x":197153.62000000104,"y":2561422.2500000019}},{"attributes":{"ID":217214,"DIS_CODE":0,"TOWNNAME":"柳營區","LI":"篤農里","LIN":"19鄰","STREET":" ","SECT":" ","MAREA":"小腳腿","LANE":" ","ALLEY":" ","HOUSE_NO":"２５１號之１３０","E_COORD97":185394.85000000001,"N_COORD97":2575597.1000000001,"ADDRESS":"小腳腿２５１號之１３０","OBJECTID":217213},"geometry":{"x":185394.85000000056,"y":2575597.0999999996}},{"attributes":{"ID":217215,"DIS_CODE":0,"TOWNNAME":"柳營區","LI":"篤農里","LIN":"19鄰","STREET":" ","SECT":" ","MAREA":"小腳腿","LANE":" ","ALLEY":" ","HOUSE_NO":"２５１號之６１","E_COORD97":185385.54999999999,"N_COORD97":2575250.9100000001,"ADDRESS":"小腳腿２５１號之６１","OBJECTID":217214},"geometry":{"x":185385.55000000075,"y":2575250.910000002}},{"attributes":{"ID":217216,"DIS_CODE":0,"TOWNNAME":"柳營區","LI":"篤農里","LIN":"19鄰","STREET":" ","SECT":" ","MAREA":"小腳腿","LANE":" ","ALLEY":" ","HOUSE_NO":"２５１號之９０","E_COORD97":185475.56,"N_COORD97":2575581.27,"ADDRESS":"小腳腿２５１號之９０","OBJECTID":217215},"geometry":{"x":185475.55999999959,"y":2575581.2700000014}},{"attributes":{"ID":217217,"DIS_CODE":0,"TOWNNAME":"柳營區","LI":"旭山里","LIN":"19鄰","STREET":" ","SECT":" ","MAREA":"山子腳","LANE":" ","ALLEY":" ","HOUSE_NO":"３２號","E_COORD97":187071.51000000001,"N_COORD97":2574376.6800000002,"ADDRESS":"山子腳３２號","OBJECTID":217216},"geometry":{"x":187071.50999999978,"y":2574376.6800000034}},{"attributes":{"ID":217218,"DIS_CODE":0,"TOWNNAME":"柳營區","LI":"旭山里","LIN":"19鄰","STREET":" ","SECT":" ","MAREA":"山子腳","LANE":" ","ALLEY":" ","HOUSE_NO":"３３號之３","E_COORD97":187097.66,"N_COORD97":2574373.3999999999,"ADDRESS":"山子腳３３號之３","OBJECTID":217217},"geometry":{"x":187097.66000000015,"y":2574373.4000000022}},{"attributes":{"ID":217219,"DIS_CODE":0,"TOWNNAME":"柳營區","LI":"旭山里","LIN":"19鄰","STREET":" ","SECT":" ","MAREA":"山子腳","LANE":" ","ALLEY":" ","HOUSE_NO":"３３號","E_COORD97":187088.64000000001,"N_COORD97":2574371.7200000002,"ADDRESS":"山子腳３３號","OBJECTID":217218},"geometry":{"x":187088.6400000006,"y":2574371.7200000025}},{"attributes":{"ID":217220,"DIS_CODE":0,"TOWNNAME":"柳營區","LI":"旭山里","LIN":"19鄰","STREET":" ","SECT":" ","MAREA":"山子腳","LANE":" ","ALLEY":" ","HOUSE_NO":"３４號","E_COORD97":187107.85999999999,"N_COORD97":2574387.6299999999,"ADDRESS":"山子腳３４號","OBJECTID":217219},"geometry":{"x":187107.86000000127,"y":2574387.6300000008}},{"attributes":{"ID":217221,"DIS_CODE":0,"TOWNNAME":"柳營區","LI":"旭山里","LIN":"19鄰","STREET":" ","SECT":" ","MAREA":"山子腳","LANE":" ","ALLEY":" ","HOUSE_NO":"３６號","E_COORD97":187118.39000000001,"N_COORD97":2574398.2000000002,"ADDRESS":"山子腳３６號","OBJECTID":217220},"geometry":{"x":187118.39000000153,"y":2574398.2000000011}},{"attributes":{"ID":217222,"DIS_CODE":0,"TOWNNAME":"柳營區","LI":"旭山里","LIN":"19鄰","STREET":" ","SECT":" ","MAREA":"山子腳","LANE":" ","ALLEY":" ","HOUSE_NO":"３８號之１","E_COORD97":187137.48000000001,"N_COORD97":2574394.8100000001,"ADDRESS":"山子腳３８號之１","OBJECTID":217221},"geometry":{"x":187137.48000000138,"y":2574394.8100000024}},{"attributes":{"ID":217223,"DIS_CODE":0,"TOWNNAME":"柳營區","LI":"旭山里","LIN":"19鄰","STREET":" ","SECT":" ","MAREA":"山子腳","LANE":" ","ALLEY":" ","HOUSE_NO":"３８號","E_COORD97":187131.73000000001,"N_COORD97":2574382.1200000001,"ADDRESS":"山子腳３８號","OBJECTID":217222},"geometry":{"x":187131.73000000045,"y":2574382.1200000048}},{"attributes":{"ID":217224,"DIS_CODE":0,"TOWNNAME":"安平區","LI":"平通里","LIN":"29鄰","STREET":"育平九街","SECT":" ","MAREA":" ","LANE":"３７２巷","ALLEY":"３３弄","HOUSE_NO":"１７號","E_COORD97":164545.08264000001,"N_COORD97":2543848.7957899999,"ADDRESS":"育平九街３７２巷３３弄１７號","OBJECTID":217223},"geometry":{"x":164545.08263999969,"y":2543848.7957889996}},{"attributes":{"ID":217225,"DIS_CODE":0,"TOWNNAME":"安平區","LI":"平通里","LIN":"29鄰","STREET":"育平九街","SECT":" ","MAREA":" ","LANE":"３７２巷","ALLEY":"３３弄","HOUSE_NO":"１９號","E_COORD97":164541.05639700001,"N_COORD97":2543849.00746,"ADDRESS":"育平九街３７２巷３３弄１９號","OBJECTID":217224},"geometry":{"x":164541.05639700219,"y":2543849.0074560009}},{"attributes":{"ID":217226,"DIS_CODE":0,"TOWNNAME":"安平區","LI":"平通里","LIN":"29鄰","STREET":"育平九街","SECT":" ","MAREA":" ","LANE":"３７２巷","ALLEY":"３３弄","HOUSE_NO":"１８號","E_COORD97":164547.69,"N_COORD97":2543874.6400000001,"ADDRESS":"育平九街３７２巷３３弄１８號","OBJECTID":217225},"geometry":{"x":164547.69000000134,"y":2543874.6400000043}},{"attributes":{"ID":217227,"DIS_CODE":0,"TOWNNAME":"仁德區","LI":"太子里","LIN":"5鄰","STREET":"太子路","SECT":" ","MAREA":" ","LANE":"１９０巷","ALLEY":"３３弄","HOUSE_NO":"１６號","E_COORD97":174272.09,"N_COORD97":2543648.04,"ADDRESS":"太子路１９０巷３３弄１６號","OBJECTID":217226},"geometry":{"x":174272.08999999985,"y":2543648.040000001}},{"attributes":{"ID":217228,"DIS_CODE":0,"TOWNNAME":"仁德區","LI":"仁義里","LIN":"21鄰","STREET":"中山路","SECT":" ","MAREA":" ","LANE":"３２８巷","ALLEY":"１１弄","HOUSE_NO":"２０號","E_COORD97":173894.98000000001,"N_COORD97":2541350.71,"ADDRESS":"中山路３２８巷１１弄２０號","OBJECTID":217227},"geometry":{"x":173894.98000000138,"y":2541350.7100000009}},{"attributes":{"ID":217229,"DIS_CODE":0,"TOWNNAME":"東山區","LI":"大客里","LIN":"19鄰","STREET":" ","SECT":" ","MAREA":"凹子\u25A0","LANE":" ","ALLEY":" ","HOUSE_NO":"３７號之４","E_COORD97":190971.31,"N_COORD97":2579555.0699999998,"ADDRESS":"凹子\u25A0３７號之４","OBJECTID":217228},"geometry":{"x":190971.30999999959,"y":2579555.0699999984}},{"attributes":{"ID":217230,"DIS_CODE":0,"TOWNNAME":"仁德區","LI":"仁德里","LIN":"43鄰","STREET":"中山路","SECT":" ","MAREA":" ","LANE":"９１０巷","ALLEY":"２２弄","HOUSE_NO":"１４號","E_COORD97":172047.48000000001,"N_COORD97":2541790,"ADDRESS":"中山路９１０巷２２弄１４號","OBJECTID":217229},"geometry":{"x":172047.48000000138,"y":2541790.0000000037}},{"attributes":{"ID":217231,"DIS_CODE":0,"TOWNNAME":"仁德區","LI":"仁義里","LIN":"40鄰","STREET":"仁義五街","SECT":" ","MAREA":" ","LANE":"５７巷","ALLEY":"１弄","HOUSE_NO":"８號","E_COORD97":173613.17000000001,"N_COORD97":2540480.7799999998,"ADDRESS":"仁義五街５７巷１弄８號","OBJECTID":217230},"geometry":{"x":173613.17000000086,"y":2540480.7799999993}},{"attributes":{"ID":217232,"DIS_CODE":0,"TOWNNAME":"仁德區","LI":"仁義里","LIN":"44鄰","STREET":"中正路","SECT":"二段","MAREA":" ","LANE":"１０３４巷","ALLEY":"４７弄","HOUSE_NO":"３號","E_COORD97":173517.60000000001,"N_COORD97":2540923.0299999998,"ADDRESS":"中正路二段１０３４巷４７弄３號","OBJECTID":217231},"geometry":{"x":173517.59999999963,"y":2540923.0299999993}},{"attributes":{"ID":217233,"DIS_CODE":0,"TOWNNAME":"柳營區","LI":"旭山里","LIN":"19鄰","STREET":" ","SECT":" ","MAREA":"山子腳","LANE":" ","ALLEY":" ","HOUSE_NO":"４０號之１","E_COORD97":187139.59,"N_COORD97":2574363.1200000001,"ADDRESS":"山子腳４０號之１","OBJECTID":217232},"geometry":{"x":187139.59000000078,"y":2574363.1200000029}},{"attributes":{"ID":217234,"DIS_CODE":0,"TOWNNAME":"仁德區","LI":"太子里","LIN":"3鄰","STREET":"太子路","SECT":" ","MAREA":" ","LANE":"１９０巷","ALLEY":"２３弄","HOUSE_NO":"２號","E_COORD97":174303.48000000001,"N_COORD97":2543596.8500000001,"ADDRESS":"太子路１９０巷２３弄２號","OBJECTID":217233},"geometry":{"x":174303.48000000138,"y":2543596.8499999996}},{"attributes":{"ID":217235,"DIS_CODE":0,"TOWNNAME":"東山區","LI":"大客里","LIN":"19鄰","STREET":" ","SECT":" ","MAREA":"凹子\u25A0","LANE":" ","ALLEY":" ","HOUSE_NO":"３７號之２","E_COORD97":191010.32999999999,"N_COORD97":2579583.1499999999,"ADDRESS":"凹子\u25A0３７號之２","OBJECTID":217234},"geometry":{"x":191010.33000000101,"y":2579583.1500000022}},{"attributes":{"ID":217236,"DIS_CODE":0,"TOWNNAME":"安平區","LI":"國平里","LIN":"29鄰","STREET":"健康三街","SECT":" ","MAREA":" ","LANE":"１２巷","ALLEY":"６弄","HOUSE_NO":"１號","E_COORD97":164776.91,"N_COORD97":2542876.8100000001,"ADDRESS":"健康三街１２巷６弄１號","OBJECTID":217235},"geometry":{"x":164776.91000000108,"y":2542876.8100000042}},{"attributes":{"ID":217237,"DIS_CODE":0,"TOWNNAME":"安平區","LI":"國平里","LIN":"29鄰","STREET":"健康三街","SECT":" ","MAREA":" ","LANE":"１２巷","ALLEY":"６弄","HOUSE_NO":"２號","E_COORD97":164755.95000000001,"N_COORD97":2542882.3399999999,"ADDRESS":"健康三街１２巷６弄２號","OBJECTID":217236},"geometry":{"x":164755.95000000112,"y":2542882.3399999999}},{"attributes":{"ID":217238,"DIS_CODE":0,"TOWNNAME":"安平區","LI":"國平里","LIN":"29鄰","STREET":"健康三街","SECT":" ","MAREA":" ","LANE":"１２巷","ALLEY":"６弄","HOUSE_NO":"３號","E_COORD97":164776.28,"N_COORD97":2542872.2400000002,"ADDRESS":"健康三街１２巷６弄３號","OBJECTID":217237},"geometry":{"x":164776.28000000119,"y":2542872.2400000002}},{"attributes":{"ID":217239,"DIS_CODE":0,"TOWNNAME":"安平區","LI":"國平里","LIN":"29鄰","STREET":"健康三街","SECT":" ","MAREA":" ","LANE":"１２巷","ALLEY":"６弄","HOUSE_NO":"５號","E_COORD97":164775.45999999999,"N_COORD97":2542868.0699999998,"ADDRESS":"健康三街１２巷６弄５號","OBJECTID":217238},"geometry":{"x":164775.45999999996,"y":2542868.070000004}},{"attributes":{"ID":217240,"DIS_CODE":0,"TOWNNAME":"安平區","LI":"國平里","LIN":"29鄰","STREET":"健康三街","SECT":" ","MAREA":" ","LANE":"１２巷","ALLEY":"６弄","HOUSE_NO":"６號","E_COORD97":164751.91,"N_COORD97":2542877.9100000001,"ADDRESS":"健康三街１２巷６弄６號","OBJECTID":217239},"geometry":{"x":164751.91000000015,"y":2542877.9100000001}},{"attributes":{"ID":217241,"DIS_CODE":0,"TOWNNAME":"安平區","LI":"國平里","LIN":"29鄰","STREET":"健康三街","SECT":" ","MAREA":" ","LANE":"１２巷","ALLEY":"６弄","HOUSE_NO":"７號","E_COORD97":164774.64000000001,"N_COORD97":2542863.8999999999,"ADDRESS":"健康三街１２巷６弄７號","OBJECTID":217240},"geometry":{"x":164774.6400000006,"y":2542863.9000000022}},{"attributes":{"ID":217242,"DIS_CODE":0,"TOWNNAME":"東山區","LI":"大客里","LIN":"19鄰","STREET":" ","SECT":" ","MAREA":"凹子\u25A0","LANE":" ","ALLEY":" ","HOUSE_NO":"３７號之３","E_COORD97":191000.28,"N_COORD97":2579554.5800000001,"ADDRESS":"凹子\u25A0３７號之３","OBJECTID":217241},"geometry":{"x":191000.28000000119,"y":2579554.5800000001}},{"attributes":{"ID":217243,"DIS_CODE":0,"TOWNNAME":"永康區","LI":"網寮里","LIN":"18鄰","STREET":"永勝街","SECT":" ","MAREA":" ","LANE":" ","ALLEY":" ","HOUSE_NO":"８１號","E_COORD97":173516.82999999999,"N_COORD97":2546345.3100000001,"ADDRESS":"永勝街８１號","OBJECTID":217242},"geometry":{"x":173516.83000000007,"y":2546345.3100000042}},{"attributes":{"ID":217244,"DIS_CODE":0,"TOWNNAME":"安平區","LI":"國平里","LIN":"29鄰","STREET":"健康三街","SECT":" ","MAREA":" ","LANE":"１２巷","ALLEY":"６弄","HOUSE_NO":"８號","E_COORD97":164751.09,"N_COORD97":2542873.7400000002,"ADDRESS":"健康三街１２巷６弄８號","OBJECTID":217243},"geometry":{"x":164751.09000000171,"y":2542873.7400000039}},{"attributes":{"ID":217245,"DIS_CODE":0,"TOWNNAME":"安平區","LI":"國平里","LIN":"29鄰","STREET":"健康三街","SECT":" ","MAREA":" ","LANE":"１２巷","ALLEY":"６弄","HOUSE_NO":"９號","E_COORD97":164773.82000000001,"N_COORD97":2542859.73,"ADDRESS":"健康三街１２巷６弄９號","OBJECTID":217244},"geometry":{"x":164773.82000000123,"y":2542859.7300000004}},{"attributes":{"ID":217246,"DIS_CODE":0,"TOWNNAME":"安平區","LI":"國平里","LIN":"29鄰","STREET":"健康三街","SECT":" ","MAREA":" ","LANE":"１２巷","ALLEY":"６弄","HOUSE_NO":"１０號","E_COORD97":164750.26999999999,"N_COORD97":2542869.5699999998,"ADDRESS":"健康三街１２巷６弄１０號","OBJECTID":217245},"geometry":{"x":164750.27000000048,"y":2542869.5700000022}},{"attributes":{"ID":217247,"DIS_CODE":0,"TOWNNAME":"安平區","LI":"國平里","LIN":"29鄰","STREET":"健康三街","SECT":" ","MAREA":" ","LANE":"１２巷","ALLEY":"６弄","HOUSE_NO":"１１號","E_COORD97":164772.19,"N_COORD97":2542855.0699999998,"ADDRESS":"健康三街１２巷６弄１１號","OBJECTID":217246},"geometry":{"x":164772.19000000041,"y":2542855.0700000022}},{"attributes":{"ID":217248,"DIS_CODE":0,"TOWNNAME":"安平區","LI":"國平里","LIN":"29鄰","STREET":"健康三街","SECT":" ","MAREA":" ","LANE":"１２巷","ALLEY":"６弄","HOUSE_NO":"１２號","E_COORD97":164749.44,"N_COORD97":2542865.4100000001,"ADDRESS":"健康三街１２巷６弄１２號","OBJECTID":217247},"geometry":{"x":164749.44000000134,"y":2542865.4100000039}},{"attributes":{"ID":217249,"DIS_CODE":0,"TOWNNAME":"安平區","LI":"國平里","LIN":"29鄰","STREET":"健康三街","SECT":" ","MAREA":" ","LANE":"１２巷","ALLEY":"６弄","HOUSE_NO":"１６號","E_COORD97":164749.04000000001,"N_COORD97":2542860.4100000001,"ADDRESS":"健康三街１２巷６弄１６號","OBJECTID":217248},"geometry":{"x":164749.04000000004,"y":2542860.410000002}},{"attributes":{"ID":217250,"DIS_CODE":0,"TOWNNAME":"仁德區","LI":"仁義里","LIN":"46鄰","STREET":"仁義路","SECT":" ","MAREA":" ","LANE":"９８巷","ALLEY":"１３弄","HOUSE_NO":"３號","E_COORD97":173648.92999999999,"N_COORD97":2540927.04,"ADDRESS":"仁義路９８巷１３弄３號","OBJECTID":217249},"geometry":{"x":173648.93000000063,"y":2540927.0399999991}},{"attributes":{"ID":217251,"DIS_CODE":0,"TOWNNAME":"永康區","LI":"成功里","LIN":"29鄰","STREET":"中華路","SECT":" ","MAREA":" ","LANE":"１３４巷","ALLEY":"５４弄","HOUSE_NO":"１０號","E_COORD97":171744.01000000001,"N_COORD97":2544778,"ADDRESS":"中華路１３４巷５４弄１０號","OBJECTID":217250},"geometry":{"x":171744.00999999885,"y":2544778.0000000019}},{"attributes":{"ID":217252,"DIS_CODE":0,"TOWNNAME":"永康區","LI":"成功里","LIN":"29鄰","STREET":"中華路","SECT":" ","MAREA":" ","LANE":"１３４巷","ALLEY":"５４弄","HOUSE_NO":"１４之１號","E_COORD97":171728.17999999999,"N_COORD97":2544761.0499999998,"ADDRESS":"中華路１３４巷５４弄１４之１號","OBJECTID":217251},"geometry":{"x":171728.18000000063,"y":2544761.0500000026}},{"attributes":{"ID":217253,"DIS_CODE":0,"TOWNNAME":"永康區","LI":"成功里","LIN":"29鄰","STREET":"中華路","SECT":" ","MAREA":" ","LANE":"１３４巷","ALLEY":"５６弄","HOUSE_NO":"２號","E_COORD97":171763.48999999999,"N_COORD97":2544802.2400000002,"ADDRESS":"中華路１３４巷５６弄２號","OBJECTID":217252},"geometry":{"x":171763.49000000115,"y":2544802.2400000002}},{"attributes":{"ID":217254,"DIS_CODE":0,"TOWNNAME":"永康區","LI":"成功里","LIN":"29鄰","STREET":"中華路","SECT":" ","MAREA":" ","LANE":"１３４巷","ALLEY":"５４弄","HOUSE_NO":"１號","E_COORD97":171751.03,"N_COORD97":2544806.4900000002,"ADDRESS":"中華路１３４巷５４弄１號","OBJECTID":217253},"geometry":{"x":171751.03000000026,"y":2544806.4900000002}},{"attributes":{"ID":217255,"DIS_CODE":0,"TOWNNAME":"永康區","LI":"成功里","LIN":"29鄰","STREET":"中華路","SECT":" ","MAREA":" ","LANE":"１３４巷","ALLEY":"５４弄","HOUSE_NO":"９號","E_COORD97":171752.41,"N_COORD97":2544777.25,"ADDRESS":"中華路１３４巷５４弄９號","OBJECTID":217254},"geometry":{"x":171752.41000000108,"y":2544777.25}},{"attributes":{"ID":217256,"DIS_CODE":0,"TOWNNAME":"安南區","LI":"州南里","LIN":"29鄰","STREET":"安和路","SECT":"四段","MAREA":" ","LANE":"５３３巷","ALLEY":"８５弄","HOUSE_NO":"１５號","E_COORD97":169791.48000000001,"N_COORD97":2551193.3100000001,"ADDRESS":"安和路四段５３３巷８５弄１５號","OBJECTID":217255},"geometry":{"x":169791.48000000045,"y":2551193.3100000042}},{"attributes":{"ID":217257,"DIS_CODE":0,"TOWNNAME":"仁德區","LI":"仁義里","LIN":"43鄰","STREET":"中正路","SECT":"二段","MAREA":" ","LANE":"１０３４巷","ALLEY":"１２弄","HOUSE_NO":"１號","E_COORD97":173456.25,"N_COORD97":2540860.7400000002,"ADDRESS":"中正路二段１０３４巷１２弄１號","OBJECTID":217256},"geometry":{"x":173456.25,"y":2540860.7400000021}},{"attributes":{"ID":217258,"DIS_CODE":0,"TOWNNAME":"安南區","LI":"州南里","LIN":"29鄰","STREET":"安和路","SECT":"四段","MAREA":" ","LANE":"５３３巷","ALLEY":"６５弄","HOUSE_NO":"３０號","E_COORD97":169817.47632799999,"N_COORD97":2551176.6465099999,"ADDRESS":"安和路四段５３３巷６５弄３０號","OBJECTID":217257},"geometry":{"x":169817.47632800229,"y":2551176.6465050019}},{"attributes":{"ID":217259,"DIS_CODE":0,"TOWNNAME":"安南區","LI":"州南里","LIN":"29鄰","STREET":"安和路","SECT":"四段","MAREA":" ","LANE":"５３３巷","ALLEY":"６５弄","HOUSE_NO":"３２號","E_COORD97":169818.53499300001,"N_COORD97":2551171.5665099998,"ADDRESS":"安和路四段５３３巷６５弄３２號","OBJECTID":217258},"geometry":{"x":169818.53499300033,"y":2551171.5665079989}},{"attributes":{"ID":217260,"DIS_CODE":0,"TOWNNAME":"東山區","LI":"大客里","LIN":"19鄰","STREET":" ","SECT":" ","MAREA":"凹子\u25A0","LANE":" ","ALLEY":" ","HOUSE_NO":"３７之５號","E_COORD97":190986.60999999999,"N_COORD97":2579589.0699999998,"ADDRESS":"凹子\u25A0３７之５號","OBJECTID":217259},"geometry":{"x":190986.61000000127,"y":2579589.070000004}},{"attributes":{"ID":217261,"DIS_CODE":0,"TOWNNAME":"東山區","LI":"大客里","LIN":"19鄰","STREET":" ","SECT":" ","MAREA":"凹子\u25A0","LANE":" ","ALLEY":" ","HOUSE_NO":"３７號之５","E_COORD97":190986.60999999999,"N_COORD97":2579589.0699999998,"ADDRESS":"凹子\u25A0３７號之５","OBJECTID":217260},"geometry":{"x":190986.61000000127,"y":2579589.070000004}},{"attributes":{"ID":217262,"DIS_CODE":0,"TOWNNAME":"安南區","LI":"州南里","LIN":"29鄰","STREET":"安和路","SECT":"四段","MAREA":" ","LANE":"５３３巷","ALLEY":"６５弄","HOUSE_NO":"３４號","E_COORD97":169811.73000000001,"N_COORD97":2551168.04,"ADDRESS":"安和路四段５３３巷６５弄３４號","OBJECTID":217261},"geometry":{"x":169811.73000000045,"y":2551168.040000001}},{"attributes":{"ID":217263,"DIS_CODE":0,"TOWNNAME":"安南區","LI":"州南里","LIN":"29鄰","STREET":"安和路","SECT":"四段","MAREA":" ","LANE":"５３３巷","ALLEY":"６５弄","HOUSE_NO":"６號","E_COORD97":169803.10999999999,"N_COORD97":2551226.6200000001,"ADDRESS":"安和路四段５３３巷６５弄６號","OBJECTID":217262},"geometry":{"x":169803.1100000022,"y":2551226.6200000029}},{"attributes":{"ID":217264,"DIS_CODE":0,"TOWNNAME":"安南區","LI":"州南里","LIN":"29鄰","STREET":"安和路","SECT":"四段","MAREA":" ","LANE":"５３３巷","ALLEY":"８５弄","HOUSE_NO":"１１號","E_COORD97":169787.34,"N_COORD97":2551207.7400000002,"ADDRESS":"安和路四段５３３巷８５弄１１號","OBJECTID":217263},"geometry":{"x":169787.34000000171,"y":2551207.7400000021}},{"attributes":{"ID":217265,"DIS_CODE":0,"TOWNNAME":"安南區","LI":"州南里","LIN":"29鄰","STREET":"安和路","SECT":"四段","MAREA":" ","LANE":"５３３巷","ALLEY":"８５弄","HOUSE_NO":"１２號","E_COORD97":169762.29000000001,"N_COORD97":2551216.79,"ADDRESS":"安和路四段５３３巷８５弄１２號","OBJECTID":217264},"geometry":{"x":169762.29000000004,"y":2551216.790000001}},{"attributes":{"ID":217266,"DIS_CODE":0,"TOWNNAME":"安南區","LI":"州南里","LIN":"29鄰","STREET":"安和路","SECT":"四段","MAREA":" ","LANE":"５３３巷","ALLEY":"８５弄","HOUSE_NO":"１３號","E_COORD97":169788.42999999999,"N_COORD97":2551202.4500000002,"ADDRESS":"安和路四段５３３巷８５弄１３號","OBJECTID":217265},"geometry":{"x":169788.43000000156,"y":2551202.4500000011}},{"attributes":{"ID":217267,"DIS_CODE":0,"TOWNNAME":"安南區","LI":"州南里","LIN":"29鄰","STREET":"安和路","SECT":"四段","MAREA":" ","LANE":"５３３巷","ALLEY":"８５弄","HOUSE_NO":"１４號","E_COORD97":169762.94,"N_COORD97":2551213.9700000002,"ADDRESS":"安和路四段５３３巷８５弄１４號","OBJECTID":217266},"geometry":{"x":169762.94000000041,"y":2551213.9700000025}},{"attributes":{"ID":217268,"DIS_CODE":0,"TOWNNAME":"安南區","LI":"州南里","LIN":"29鄰","STREET":"安和路","SECT":"四段","MAREA":" ","LANE":"５３３巷","ALLEY":"８５弄","HOUSE_NO":"１６號","E_COORD97":169763.81,"N_COORD97":2551209.1800000002,"ADDRESS":"安和路四段５３３巷８５弄１６號","OBJECTID":217267},"geometry":{"x":169763.81000000052,"y":2551209.1799999997}},{"attributes":{"ID":217269,"DIS_CODE":0,"TOWNNAME":"安南區","LI":"州南里","LIN":"29鄰","STREET":"安和路","SECT":"四段","MAREA":" ","LANE":"５３３巷","ALLEY":"８５弄","HOUSE_NO":"１７號","E_COORD97":169791.04000000001,"N_COORD97":2551187.8799999999,"ADDRESS":"安和路四段５３３巷８５弄１７號","OBJECTID":217268},"geometry":{"x":169791.04000000004,"y":2551187.8800000027}},{"attributes":{"ID":217270,"DIS_CODE":0,"TOWNNAME":"永康區","LI":"龍潭里","LIN":"39鄰","STREET":"永明街","SECT":" ","MAREA":" ","LANE":"２３１巷","ALLEY":" ","HOUSE_NO":"５０號","E_COORD97":174584.22857100001,"N_COORD97":2547323.6756099998,"ADDRESS":"永明街２３１巷５０號","OBJECTID":217269},"geometry":{"x":174584.22857099958,"y":2547323.6756120007}},{"attributes":{"ID":217271,"DIS_CODE":0,"TOWNNAME":"東山區","LI":"大客里","LIN":"19鄰","STREET":" ","SECT":" ","MAREA":"凹子\u25A0","LANE":" ","ALLEY":" ","HOUSE_NO":"３７號之６","E_COORD97":190986.73999999999,"N_COORD97":2579631.96,"ADDRESS":"凹子\u25A0３７號之６","OBJECTID":217270},"geometry":{"x":190986.74000000209,"y":2579631.9600000028}},{"attributes":{"ID":217272,"DIS_CODE":0,"TOWNNAME":"永康區","LI":"西灣里","LIN":"37鄰","STREET":"國光七街","SECT":" ","MAREA":" ","LANE":" ","ALLEY":" ","HOUSE_NO":"５８號七樓之２","E_COORD97":174154.42000000001,"N_COORD97":2545535.29,"ADDRESS":"國光七街５８號七樓之２","OBJECTID":217271},"geometry":{"x":174154.42000000086,"y":2545535.2899999991}},{"attributes":{"ID":217273,"DIS_CODE":0,"TOWNNAME":"安南區","LI":"州南里","LIN":"29鄰","STREET":"安和路","SECT":"四段","MAREA":" ","LANE":"５３３巷","ALLEY":"８５弄","HOUSE_NO":"１８號","E_COORD97":169765.54999999999,"N_COORD97":2551206.3500000001,"ADDRESS":"安和路四段５３３巷８５弄１８號","OBJECTID":217272},"geometry":{"x":169765.55000000168,"y":2551206.3500000015}},{"attributes":{"ID":217274,"DIS_CODE":0,"TOWNNAME":"永康區","LI":"西灣里","LIN":"37鄰","STREET":"國光七街","SECT":" ","MAREA":" ","LANE":" ","ALLEY":" ","HOUSE_NO":"５６號五樓之１","E_COORD97":174160.54000000001,"N_COORD97":2545535.29,"ADDRESS":"國光七街５６號五樓之１","OBJECTID":217273},"geometry":{"x":174160.54000000097,"y":2545535.2899999991}},{"attributes":{"ID":217275,"DIS_CODE":0,"TOWNNAME":"永康區","LI":"西灣里","LIN":"37鄰","STREET":"國光七街","SECT":" ","MAREA":" ","LANE":" ","ALLEY":" ","HOUSE_NO":"５８號八樓之１","E_COORD97":174154.29000000001,"N_COORD97":2545535.29,"ADDRESS":"國光七街５８號八樓之１","OBJECTID":217274},"geometry":{"x":174154.29000000004,"y":2545535.2899999991}},{"attributes":{"ID":217276,"DIS_CODE":0,"TOWNNAME":"永康區","LI":"西灣里","LIN":"37鄰","STREET":"國光七街","SECT":" ","MAREA":" ","LANE":" ","ALLEY":" ","HOUSE_NO":"５６號六樓之２","E_COORD97":174160.67000000001,"N_COORD97":2545535.29,"ADDRESS":"國光七街５６號六樓之２","OBJECTID":217275},"geometry":{"x":174160.67000000086,"y":2545535.2899999991}},{"attributes":{"ID":217277,"DIS_CODE":0,"TOWNNAME":"安南區","LI":"州南里","LIN":"29鄰","STREET":"安和路","SECT":"四段","MAREA":" ","LANE":"５３３巷","ALLEY":"８５弄","HOUSE_NO":"１９號","E_COORD97":169795.39999999999,"N_COORD97":2551178.2999999998,"ADDRESS":"安和路四段５３３巷８５弄１９號","OBJECTID":217276},"geometry":{"x":169795.40000000037,"y":2551178.3000000026}},{"attributes":{"ID":217278,"DIS_CODE":0,"TOWNNAME":"安南區","LI":"州南里","LIN":"29鄰","STREET":"安和路","SECT":"四段","MAREA":" ","LANE":"５３３巷","ALLEY":"８５弄","HOUSE_NO":"１號","E_COORD97":169781.23999999999,"N_COORD97":2551226.4500000002,"ADDRESS":"安和路四段５３３巷８５弄１號","OBJECTID":217277},"geometry":{"x":169781.24000000022,"y":2551226.4500000011}},{"attributes":{"ID":217279,"DIS_CODE":0,"TOWNNAME":"東山區","LI":"大客里","LIN":"19鄰","STREET":" ","SECT":" ","MAREA":"凹子\u25A0","LANE":" ","ALLEY":" ","HOUSE_NO":"３７號之８","E_COORD97":191051.26999999999,"N_COORD97":2579603.52,"ADDRESS":"凹子\u25A0３７號之８","OBJECTID":217278},"geometry":{"x":191051.26999999955,"y":2579603.5200000014}},{"attributes":{"ID":217280,"DIS_CODE":0,"TOWNNAME":"東山區","LI":"大客里","LIN":"19鄰","STREET":" ","SECT":" ","MAREA":"凹子\u25A0","LANE":" ","ALLEY":" ","HOUSE_NO":"３８號","E_COORD97":191046.42999999999,"N_COORD97":2579632.71,"ADDRESS":"凹子\u25A0３８號","OBJECTID":217279},"geometry":{"x":191046.43000000063,"y":2579632.709999999}},{"attributes":{"ID":217281,"DIS_CODE":0,"TOWNNAME":"東山區","LI":"大客里","LIN":"19鄰","STREET":" ","SECT":" ","MAREA":"凹子\u25A0","LANE":" ","ALLEY":" ","HOUSE_NO":"３９號之１","E_COORD97":191016.34,"N_COORD97":2579641.5800000001,"ADDRESS":"凹子\u25A0３９號之１","OBJECTID":217280},"geometry":{"x":191016.34000000171,"y":2579641.5800000001}},{"attributes":{"ID":217282,"DIS_CODE":0,"TOWNNAME":"安南區","LI":"州南里","LIN":"29鄰","STREET":"安和路","SECT":"四段","MAREA":" ","LANE":"５３３巷","ALLEY":"８５弄","HOUSE_NO":"２０號","E_COORD97":169766.64000000001,"N_COORD97":2551201.3500000001,"ADDRESS":"安和路四段５３３巷８５弄２０號","OBJECTID":217281},"geometry":{"x":169766.6400000006,"y":2551201.3499999996}},{"attributes":{"ID":217283,"DIS_CODE":0,"TOWNNAME":"東山區","LI":"大客里","LIN":"19鄰","STREET":" ","SECT":" ","MAREA":"凹子\u25A0","LANE":" ","ALLEY":" ","HOUSE_NO":"３９號之２","E_COORD97":191014.73000000001,"N_COORD97":2579636.4199999999,"ADDRESS":"凹子\u25A0３９號之２","OBJECTID":217282},"geometry":{"x":191014.73000000138,"y":2579636.4199999999}},{"attributes":{"ID":217284,"DIS_CODE":0,"TOWNNAME":"安南區","LI":"州南里","LIN":"29鄰","STREET":"安和路","SECT":"四段","MAREA":" ","LANE":"５３３巷","ALLEY":"８５弄","HOUSE_NO":"２１號","E_COORD97":169796.48000000001,"N_COORD97":2551173.52,"ADDRESS":"安和路四段５３３巷８５弄２１號","OBJECTID":217283},"geometry":{"x":169796.48000000045,"y":2551173.5199999996}},{"attributes":{"ID":217285,"DIS_CODE":0,"TOWNNAME":"安南區","LI":"州南里","LIN":"29鄰","STREET":"安和路","SECT":"四段","MAREA":" ","LANE":"５３３巷","ALLEY":"８５弄","HOUSE_NO":"２２號","E_COORD97":169767.73000000001,"N_COORD97":2551198.3100000001,"ADDRESS":"安和路四段５３３巷８５弄２２號","OBJECTID":217284},"geometry":{"x":169767.73000000045,"y":2551198.3100000024}},{"attributes":{"ID":217286,"DIS_CODE":0,"TOWNNAME":"東山區","LI":"大客里","LIN":"19鄰","STREET":" ","SECT":" ","MAREA":"凹子\u25A0","LANE":" ","ALLEY":" ","HOUSE_NO":"３９號","E_COORD97":191029.59,"N_COORD97":2579648.9900000002,"ADDRESS":"凹子\u25A0３９號","OBJECTID":217285},"geometry":{"x":191029.58999999985,"y":2579648.9900000002}},{"attributes":{"ID":217287,"DIS_CODE":0,"TOWNNAME":"東山區","LI":"大客里","LIN":"19鄰","STREET":" ","SECT":" ","MAREA":"凹子\u25A0","LANE":" ","ALLEY":" ","HOUSE_NO":"４０號","E_COORD97":190999.13,"N_COORD97":2579654.52,"ADDRESS":"凹子\u25A0４０號","OBJECTID":217286},"geometry":{"x":190999.13000000175,"y":2579654.5200000014}},{"attributes":{"ID":217288,"DIS_CODE":0,"TOWNNAME":"東山區","LI":"大客里","LIN":"19鄰","STREET":" ","SECT":" ","MAREA":"凹子\u25A0","LANE":" ","ALLEY":" ","HOUSE_NO":"４１號","E_COORD97":190997.29999999999,"N_COORD97":2579714.02,"ADDRESS":"凹子\u25A0４１號","OBJECTID":217287},"geometry":{"x":190997.29999999981,"y":2579714.0200000033}},{"attributes":{"ID":217289,"DIS_CODE":0,"TOWNNAME":"東山區","LI":"大客里","LIN":"19鄰","STREET":" ","SECT":" ","MAREA":"凹子\u25A0","LANE":" ","ALLEY":" ","HOUSE_NO":"４２號之１","E_COORD97":190998.92999999999,"N_COORD97":2579678.3900000001,"ADDRESS":"凹子\u25A0４２號之１","OBJECTID":217288},"geometry":{"x":190998.93000000063,"y":2579678.3900000006}},{"attributes":{"ID":217290,"DIS_CODE":0,"TOWNNAME":"東山區","LI":"大客里","LIN":"19鄰","STREET":" ","SECT":" ","MAREA":"凹子\u25A0","LANE":" ","ALLEY":" ","HOUSE_NO":"４２號之２","E_COORD97":190999.82999999999,"N_COORD97":2579687.9900000002,"ADDRESS":"凹子\u25A0４２號之２","OBJECTID":217289},"geometry":{"x":190999.83000000101,"y":2579687.9900000039}},{"attributes":{"ID":217291,"DIS_CODE":0,"TOWNNAME":"東山區","LI":"大客里","LIN":"19鄰","STREET":" ","SECT":" ","MAREA":"凹子\u25A0","LANE":" ","ALLEY":" ","HOUSE_NO":"４２號之３","E_COORD97":191002.12,"N_COORD97":2579705.8999999999,"ADDRESS":"凹子\u25A0４２號之３","OBJECTID":217290},"geometry":{"x":191002.12000000011,"y":2579705.9000000041}},{"attributes":{"ID":217292,"DIS_CODE":0,"TOWNNAME":"東山區","LI":"大客里","LIN":"19鄰","STREET":" ","SECT":" ","MAREA":"凹子\u25A0","LANE":" ","ALLEY":" ","HOUSE_NO":"４２之６號","E_COORD97":191024.34,"N_COORD97":2579677.8799999999,"ADDRESS":"凹子\u25A0４２之６號","OBJECTID":217291},"geometry":{"x":191024.33999999985,"y":2579677.8800000008}},{"attributes":{"ID":217293,"DIS_CODE":0,"TOWNNAME":"東山區","LI":"大客里","LIN":"19鄰","STREET":" ","SECT":" ","MAREA":"凹子\u25A0","LANE":" ","ALLEY":" ","HOUSE_NO":"４２號","E_COORD97":191076.92999999999,"N_COORD97":2579604.2799999998,"ADDRESS":"凹子\u25A0４２號","OBJECTID":217292},"geometry":{"x":191076.93000000063,"y":2579604.2800000012}},{"attributes":{"ID":217294,"DIS_CODE":0,"TOWNNAME":"佳里區","LI":"安西里","LIN":"48鄰","STREET":" ","SECT":" ","MAREA":"安西","LANE":" ","ALLEY":" ","HOUSE_NO":"１２３號之３","E_COORD97":164673.16,"N_COORD97":2562076.0600000001,"ADDRESS":"安西１２３號之３","OBJECTID":217293},"geometry":{"x":164673.16000000108,"y":2562076.0600000024}},{"attributes":{"ID":217295,"DIS_CODE":0,"TOWNNAME":"佳里區","LI":"安西里","LIN":"48鄰","STREET":" ","SECT":" ","MAREA":"安西","LANE":" ","ALLEY":" ","HOUSE_NO":"１２４號之１０","E_COORD97":164550.54999999999,"N_COORD97":2562053.8199999998,"ADDRESS":"安西１２４號之１０","OBJECTID":217294},"geometry":{"x":164550.54999999981,"y":2562053.8200000022}},{"attributes":{"ID":217296,"DIS_CODE":0,"TOWNNAME":"佳里區","LI":"安西里","LIN":"48鄰","STREET":" ","SECT":" ","MAREA":"安西","LANE":" ","ALLEY":" ","HOUSE_NO":"１２４號之１２","E_COORD97":164582.73000000001,"N_COORD97":2562059.3300000001,"ADDRESS":"安西１２４號之１２","OBJECTID":217295},"geometry":{"x":164582.72999999952,"y":2562059.3300000019}},{"attributes":{"ID":217297,"DIS_CODE":0,"TOWNNAME":"佳里區","LI":"安西里","LIN":"48鄰","STREET":" ","SECT":" ","MAREA":"安西","LANE":" ","ALLEY":" ","HOUSE_NO":"１２４號之１","E_COORD97":164569.85000000001,"N_COORD97":2562058.54,"ADDRESS":"安西１２４號之１","OBJECTID":217296},"geometry":{"x":164569.85000000056,"y":2562058.5399999991}},{"attributes":{"ID":217298,"DIS_CODE":0,"TOWNNAME":"佳里區","LI":"安西里","LIN":"48鄰","STREET":" ","SECT":" ","MAREA":"安西","LANE":" ","ALLEY":" ","HOUSE_NO":"１２４號之２","E_COORD97":164566.07000000001,"N_COORD97":2562199.7999999998,"ADDRESS":"安西１２４號之２","OBJECTID":217297},"geometry":{"x":164566.0700000003,"y":2562199.8000000026}},{"attributes":{"ID":217299,"DIS_CODE":0,"TOWNNAME":"佳里區","LI":"安西里","LIN":"48鄰","STREET":" ","SECT":" ","MAREA":"安西","LANE":" ","ALLEY":" ","HOUSE_NO":"１２４號","E_COORD97":164638.69,"N_COORD97":2562085.71,"ADDRESS":"安西１２４號","OBJECTID":217298},"geometry":{"x":164638.69000000041,"y":2562085.7100000028}},{"attributes":{"ID":217300,"DIS_CODE":0,"TOWNNAME":"佳里區","LI":"安西里","LIN":"48鄰","STREET":" ","SECT":" ","MAREA":"安西","LANE":" ","ALLEY":" ","HOUSE_NO":"１２６號之１","E_COORD97":164440.82000000001,"N_COORD97":2562003.21,"ADDRESS":"安西１２６號之１","OBJECTID":217299},"geometry":{"x":164440.8200000003,"y":2562003.2100000046}},{"attributes":{"ID":217301,"DIS_CODE":0,"TOWNNAME":"佳里區","LI":"安西里","LIN":"48鄰","STREET":" ","SECT":" ","MAREA":"安西","LANE":" ","ALLEY":" ","HOUSE_NO":"１２６號之２","E_COORD97":164395.78,"N_COORD97":2561977.1400000001,"ADDRESS":"安西１２６號之２","OBJECTID":217300},"geometry":{"x":164395.78000000212,"y":2561977.1400000025}},{"attributes":{"ID":217302,"DIS_CODE":0,"TOWNNAME":"佳里區","LI":"安西里","LIN":"48鄰","STREET":" ","SECT":" ","MAREA":"安西","LANE":" ","ALLEY":" ","HOUSE_NO":"１２６號","E_COORD97":164467.76999999999,"N_COORD97":2562003.5600000001,"ADDRESS":"安西１２６號","OBJECTID":217301},"geometry":{"x":164467.76999999955,"y":2562003.5600000042}},{"attributes":{"ID":217303,"DIS_CODE":0,"TOWNNAME":"鹽水區","LI":"南港里","LIN":"2鄰","STREET":" ","SECT":" ","MAREA":"?頭港","LANE":" ","ALLEY":" ","HOUSE_NO":"１２８號之１０","E_COORD97":172881.45000000001,"N_COORD97":2572502.6299999999,"ADDRESS":"?頭港１２８號之１０","OBJECTID":217302},"geometry":{"x":172881.45000000112,"y":2572502.6300000008}},{"attributes":{"ID":217304,"DIS_CODE":0,"TOWNNAME":"鹽水區","LI":"南港里","LIN":"2鄰","STREET":" ","SECT":" ","MAREA":"?頭港","LANE":" ","ALLEY":" ","HOUSE_NO":"１２８之１５號","E_COORD97":172890.84,"N_COORD97":2572495.5299999998,"ADDRESS":"?頭港１２８之１５號","OBJECTID":217303},"geometry":{"x":172890.83999999985,"y":2572495.5299999975}},{"attributes":{"ID":217305,"DIS_CODE":0,"TOWNNAME":"鹽水區","LI":"南港里","LIN":"2鄰","STREET":" ","SECT":" ","MAREA":"?頭港","LANE":" ","ALLEY":" ","HOUSE_NO":"１２８之１６號","E_COORD97":172891.17000000001,"N_COORD97":2572500.1600000001,"ADDRESS":"?頭港１２８之１６號","OBJECTID":217304},"geometry":{"x":172891.17000000086,"y":2572500.160000002}},{"attributes":{"ID":217306,"DIS_CODE":0,"TOWNNAME":"鹽水區","LI":"南港里","LIN":"2鄰","STREET":" ","SECT":" ","MAREA":"?頭港","LANE":" ","ALLEY":" ","HOUSE_NO":"１２８之１７號","E_COORD97":172891.51000000001,"N_COORD97":2572504.6600000001,"ADDRESS":"?頭港１２８之１７號","OBJECTID":217305},"geometry":{"x":172891.50999999978,"y":2572504.6600000001}},{"attributes":{"ID":217307,"DIS_CODE":0,"TOWNNAME":"鹽水區","LI":"南港里","LIN":"2鄰","STREET":" ","SECT":" ","MAREA":"?頭港","LANE":" ","ALLEY":" ","HOUSE_NO":"１２８之１８號","E_COORD97":172891.70000000001,"N_COORD97":2572508.7599999998,"ADDRESS":"?頭港１２８之１８號","OBJECTID":217306},"geometry":{"x":172891.70000000112,"y":2572508.7600000016}},{"attributes":{"ID":217308,"DIS_CODE":0,"TOWNNAME":"永康區","LI":"西灣里","LIN":"37鄰","STREET":"國光七街","SECT":" ","MAREA":" ","LANE":" ","ALLEY":" ","HOUSE_NO":"４８號六樓之１","E_COORD97":174180.34,"N_COORD97":2545536.29,"ADDRESS":"國光七街４８號六樓之１","OBJECTID":217307},"geometry":{"x":174180.34000000078,"y":2545536.2899999991}},{"attributes":{"ID":217309,"DIS_CODE":0,"TOWNNAME":"安南區","LI":"州南里","LIN":"29鄰","STREET":"安和路","SECT":"四段","MAREA":" ","LANE":"５３３巷","ALLEY":"８５弄","HOUSE_NO":"２３號","E_COORD97":169800.19,"N_COORD97":2551165.4700000002,"ADDRESS":"安和路四段５３３巷８５弄２３號","OBJECTID":217308},"geometry":{"x":169800.19000000041,"y":2551165.4700000044}},{"attributes":{"ID":217310,"DIS_CODE":0,"TOWNNAME":"安南區","LI":"州南里","LIN":"29鄰","STREET":"安和路","SECT":"四段","MAREA":" ","LANE":"５３３巷","ALLEY":"８５弄","HOUSE_NO":"２６號","E_COORD97":169769.47,"N_COORD97":2551190.2599999998,"ADDRESS":"安和路四段５３３巷８５弄２６號","OBJECTID":217309},"geometry":{"x":169769.4700000016,"y":2551190.2600000016}},{"attributes":{"ID":217311,"DIS_CODE":0,"TOWNNAME":"麻豆區","LI":"南勢里","LIN":"2鄰","STREET":" ","SECT":" ","MAREA":"\u25A0帝\u25A0","LANE":" ","ALLEY":" ","HOUSE_NO":"１５號","E_COORD97":173773.60999999999,"N_COORD97":2565645.9100000001,"ADDRESS":"\u25A0帝\u25A0１５號","OBJECTID":217310},"geometry":{"x":173773.61000000127,"y":2565645.910000002}},{"attributes":{"ID":217312,"DIS_CODE":0,"TOWNNAME":"安南區","LI":"州南里","LIN":"29鄰","STREET":"安和路","SECT":"四段","MAREA":" ","LANE":"５３３巷","ALLEY":"８５弄","HOUSE_NO":"３０號","E_COORD97":169771.64999999999,"N_COORD97":2551181.9900000002,"ADDRESS":"安和路四段５３３巷８５弄３０號","OBJECTID":217311},"geometry":{"x":169771.65000000037,"y":2551181.9900000021}},{"attributes":{"ID":217313,"DIS_CODE":0,"TOWNNAME":"安南區","LI":"州南里","LIN":"29鄰","STREET":"安和路","SECT":"四段","MAREA":" ","LANE":"５３３巷","ALLEY":"８５弄","HOUSE_NO":"３２號","E_COORD97":169772.95999999999,"N_COORD97":2551179.1699999999,"ADDRESS":"安和路四段５３３巷８５弄３２號","OBJECTID":217312},"geometry":{"x":169772.95999999996,"y":2551179.1699999999}},{"attributes":{"ID":217314,"DIS_CODE":0,"TOWNNAME":"安南區","LI":"州南里","LIN":"29鄰","STREET":"安和路","SECT":"四段","MAREA":" ","LANE":"５３３巷","ALLEY":"８５弄","HOUSE_NO":"３４號","E_COORD97":169773.39000000001,"N_COORD97":2551175.25,"ADDRESS":"安和路四段５３３巷８５弄３４號","OBJECTID":217313},"geometry":{"x":169773.39000000153,"y":2551175.25}},{"attributes":{"ID":217315,"DIS_CODE":0,"TOWNNAME":"安南區","LI":"州南里","LIN":"29鄰","STREET":"安和路","SECT":"四段","MAREA":" ","LANE":"５３３巷","ALLEY":"８５弄","HOUSE_NO":"３６號","E_COORD97":169774.70000000001,"N_COORD97":2551170.6800000002,"ADDRESS":"安和路四段５３３巷８５弄３６號","OBJECTID":217314},"geometry":{"x":169774.70000000019,"y":2551170.6800000016}},{"attributes":{"ID":217316,"DIS_CODE":0,"TOWNNAME":"安南區","LI":"州南里","LIN":"29鄰","STREET":"安和路","SECT":"四段","MAREA":" ","LANE":"５３３巷","ALLEY":"８５弄","HOUSE_NO":"３８號","E_COORD97":169775.57000000001,"N_COORD97":2551166.98,"ADDRESS":"安和路四段５３３巷８５弄３８號","OBJECTID":217315},"geometry":{"x":169775.5700000003,"y":2551166.9800000004}},{"attributes":{"ID":217317,"DIS_CODE":0,"TOWNNAME":"安南區","LI":"州南里","LIN":"29鄰","STREET":"安和路","SECT":"四段","MAREA":" ","LANE":"５３３巷","ALLEY":"８５弄","HOUSE_NO":"３號","E_COORD97":169783.42000000001,"N_COORD97":2551223.8399999999,"ADDRESS":"安和路四段５３３巷８５弄３號","OBJECTID":217316},"geometry":{"x":169783.41999999899,"y":2551223.8400000017}},{"attributes":{"ID":217318,"DIS_CODE":0,"TOWNNAME":"安南區","LI":"州南里","LIN":"29鄰","STREET":"安和路","SECT":"四段","MAREA":" ","LANE":"５３３巷","ALLEY":"８５弄","HOUSE_NO":"４０號","E_COORD97":169776.44,"N_COORD97":2551164.5899999999,"ADDRESS":"安和路四段５３３巷８５弄４０號","OBJECTID":217317},"geometry":{"x":169776.44000000041,"y":2551164.5900000017}},{"attributes":{"ID":217319,"DIS_CODE":0,"TOWNNAME":"安南區","LI":"州南里","LIN":"29鄰","STREET":"安和路","SECT":"四段","MAREA":" ","LANE":"５３３巷","ALLEY":"８５弄","HOUSE_NO":"５號","E_COORD97":169784.51000000001,"N_COORD97":2551219.9300000002,"ADDRESS":"安和路四段５３３巷８５弄５號","OBJECTID":217318},"geometry":{"x":169784.51000000164,"y":2551219.9300000016}},{"attributes":{"ID":217320,"DIS_CODE":0,"TOWNNAME":"安南區","LI":"州南里","LIN":"29鄰","STREET":"安和路","SECT":"四段","MAREA":" ","LANE":"５３３巷","ALLEY":"８５弄","HOUSE_NO":"７號","E_COORD97":169784.94,"N_COORD97":2551215.3599999999,"ADDRESS":"安和路四段５３３巷８５弄７號","OBJECTID":217319},"geometry":{"x":169784.94000000041,"y":2551215.3599999975}},{"attributes":{"ID":217321,"DIS_CODE":0,"TOWNNAME":"安南區","LI":"州南里","LIN":"29鄰","STREET":"安和路","SECT":"四段","MAREA":" ","LANE":"５３３巷","ALLEY":"８５弄","HOUSE_NO":"９號","E_COORD97":169787.76999999999,"N_COORD97":2551211.4399999999,"ADDRESS":"安和路四段５３３巷８５弄９號","OBJECTID":217320},"geometry":{"x":169787.77000000048,"y":2551211.4399999976}},{"attributes":{"ID":217322,"DIS_CODE":0,"TOWNNAME":"仁德區","LI":"土庫里","LIN":"14鄰","STREET":"土庫路","SECT":" ","MAREA":" ","LANE":"１８５巷","ALLEY":"７弄","HOUSE_NO":"６號","E_COORD97":174378.38,"N_COORD97":2542983.2400000002,"ADDRESS":"土庫路１８５巷７弄６號","OBJECTID":217321},"geometry":{"x":174378.38000000082,"y":2542983.2400000021}},{"attributes":{"ID":217323,"DIS_CODE":0,"TOWNNAME":"鹽水區","LI":"河南里","LIN":"2鄰","STREET":" ","SECT":" ","MAREA":"?頭港","LANE":" ","ALLEY":" ","HOUSE_NO":"１４號","E_COORD97":173188.25,"N_COORD97":2572784.4199999999,"ADDRESS":"?頭港１４號","OBJECTID":217322},"geometry":{"x":173188.25,"y":2572784.4199999999}},{"attributes":{"ID":217324,"DIS_CODE":0,"TOWNNAME":"仁德區","LI":"仁德里","LIN":"12鄰","STREET":"中山路","SECT":" ","MAREA":" ","LANE":"６０６巷","ALLEY":"１弄","HOUSE_NO":"１６號","E_COORD97":173212.70000000001,"N_COORD97":2541447,"ADDRESS":"中山路６０６巷１弄１６號","OBJECTID":217323},"geometry":{"x":173212.70000000019,"y":2541447}},{"attributes":{"ID":217325,"DIS_CODE":0,"TOWNNAME":"仁德區","LI":"上崙里","LIN":"29鄰","STREET":"中正路","SECT":"一段","MAREA":" ","LANE":"６５６巷","ALLEY":"１９弄","HOUSE_NO":"２７號","E_COORD97":172983.48000000001,"N_COORD97":2537470.77,"ADDRESS":"中正路一段６５６巷１９弄２７號","OBJECTID":217324},"geometry":{"x":172983.48000000045,"y":2537470.7699999996}},{"attributes":{"ID":217326,"DIS_CODE":0,"TOWNNAME":"仁德區","LI":"上崙里","LIN":"29鄰","STREET":"中正路","SECT":"一段","MAREA":" ","LANE":"６５６巷","ALLEY":"１９弄","HOUSE_NO":"２０號","E_COORD97":173039.34,"N_COORD97":2537439.0099999998,"ADDRESS":"中正路一段６５６巷１９弄２０號","OBJECTID":217325},"geometry":{"x":173039.34000000078,"y":2537439.0099999998}},{"attributes":{"ID":217327,"DIS_CODE":0,"TOWNNAME":"仁德區","LI":"上崙里","LIN":"29鄰","STREET":"中正路","SECT":"一段","MAREA":" ","LANE":"６５６巷","ALLEY":"１９弄","HOUSE_NO":"１０號","E_COORD97":173018.64000000001,"N_COORD97":2537441.0099999998,"ADDRESS":"中正路一段６５６巷１９弄１０號","OBJECTID":217326},"geometry":{"x":173018.6400000006,"y":2537441.0100000016}},{"attributes":{"ID":217328,"DIS_CODE":0,"TOWNNAME":"仁德區","LI":"成功里","LIN":"29鄰","STREET":"成功一街","SECT":" ","MAREA":" ","LANE":"１巷","ALLEY":"２４弄","HOUSE_NO":"２４號","E_COORD97":170649.16,"N_COORD97":2540121.04,"ADDRESS":"成功一街１巷２４弄２４號","OBJECTID":217327},"geometry":{"x":170649.16000000108,"y":2540121.040000001}},{"attributes":{"ID":217329,"DIS_CODE":0,"TOWNNAME":"仁德區","LI":"仁德里","LIN":"29鄰","STREET":"淨修街","SECT":" ","MAREA":" ","LANE":"１７５巷","ALLEY":"５１弄","HOUSE_NO":"８號","E_COORD97":172042.72,"N_COORD97":2541157.9399999999,"ADDRESS":"淨修街１７５巷５１弄８號","OBJECTID":217328},"geometry":{"x":172042.7200000016,"y":2541157.9399999995}},{"attributes":{"ID":217330,"DIS_CODE":0,"TOWNNAME":"仁德區","LI":"仁德里","LIN":"29鄰","STREET":"淨修街","SECT":" ","MAREA":" ","LANE":"１７５巷","ALLEY":"５１弄","HOUSE_NO":"１３號","E_COORD97":172055.39999999999,"N_COORD97":2541177.6800000002,"ADDRESS":"淨修街１７５巷５１弄１３號","OBJECTID":217329},"geometry":{"x":172055.40000000037,"y":2541177.6799999997}},{"attributes":{"ID":217331,"DIS_CODE":0,"TOWNNAME":"仁德區","LI":"上崙里","LIN":"29鄰","STREET":"上崙街","SECT":" ","MAREA":" ","LANE":"４５９巷","ALLEY":"８６弄","HOUSE_NO":"９號","E_COORD97":173015.20999999999,"N_COORD97":2537485.9900000002,"ADDRESS":"上崙街４５９巷８６弄９號","OBJECTID":217330},"geometry":{"x":173015.20999999996,"y":2537485.9900000021}},{"attributes":{"ID":217332,"DIS_CODE":0,"TOWNNAME":"仁德區","LI":"成功里","LIN":"29鄰","STREET":"成功一街","SECT":" ","MAREA":" ","LANE":"１巷","ALLEY":"２６弄","HOUSE_NO":"３６號","E_COORD97":170683.98999999999,"N_COORD97":2540113.9300000002,"ADDRESS":"成功一街１巷２６弄３６號","OBJECTID":217331},"geometry":{"x":170683.99000000115,"y":2540113.9299999997}},{"attributes":{"ID":217333,"DIS_CODE":0,"TOWNNAME":"永康區","LI":"成功里","LIN":"29鄰","STREET":"中華路","SECT":" ","MAREA":" ","LANE":"１３４巷","ALLEY":"５６弄","HOUSE_NO":"６號","E_COORD97":171763.20999999999,"N_COORD97":2544786.5,"ADDRESS":"中華路１３４巷５６弄６號","OBJECTID":217332},"geometry":{"x":171763.21000000183,"y":2544786.5}},{"attributes":{"ID":217334,"DIS_CODE":0,"TOWNNAME":"永康區","LI":"成功里","LIN":"29鄰","STREET":"中華路","SECT":" ","MAREA":" ","LANE":"１３４巷","ALLEY":"５４弄","HOUSE_NO":"３號","E_COORD97":171751.17000000001,"N_COORD97":2544800.2400000002,"ADDRESS":"中華路１３４巷５４弄３號","OBJECTID":217333},"geometry":{"x":171751.16999999993,"y":2544800.2400000021}},{"attributes":{"ID":217335,"DIS_CODE":0,"TOWNNAME":"歸仁區","LI":"西埔里","LIN":"1鄰","STREET":"西埔三街","SECT":" ","MAREA":" ","LANE":"５１巷","ALLEY":" ","HOUSE_NO":"１３２號","E_COORD97":177166.36920300001,"N_COORD97":2543893.7820700002,"ADDRESS":"西埔三街５１巷１３２號","OBJECTID":217334},"geometry":{"x":177166.36920300033,"y":2543893.7820690013}},{"attributes":{"ID":217336,"DIS_CODE":0,"TOWNNAME":"東區","LI":"崇文里","LIN":"37鄰","STREET":"崇德二十五街","SECT":" ","MAREA":" ","LANE":" ","ALLEY":" ","HOUSE_NO":"１０號七樓","E_COORD97":170848.32999999999,"N_COORD97":2540643.77,"ADDRESS":"崇德二十五街１０號七樓","OBJECTID":217335},"geometry":{"x":170848.33000000007,"y":2540643.7699999996}},{"attributes":{"ID":217337,"DIS_CODE":0,"TOWNNAME":"永康區","LI":"\u25A0行里","LIN":"43鄰","STREET":"正南三路","SECT":" ","MAREA":" ","LANE":" ","ALLEY":" ","HOUSE_NO":"１５８號","E_COORD97":171662.95000000001,"N_COORD97":2547831.4900000002,"ADDRESS":"正南三路１５８號","OBJECTID":217336},"geometry":{"x":171662.95000000019,"y":2547831.4900000002}},{"attributes":{"ID":217338,"DIS_CODE":0,"TOWNNAME":"永康區","LI":"埔園里","LIN":"29鄰","STREET":"埔園街","SECT":" ","MAREA":" ","LANE":"１４７巷","ALLEY":"６弄","HOUSE_NO":"１７號","E_COORD97":173828.64000000001,"N_COORD97":2548188.3399999999,"ADDRESS":"埔園街１４７巷６弄１７號","OBJECTID":217337},"geometry":{"x":173828.6400000006,"y":2548188.339999998}},{"attributes":{"ID":217339,"DIS_CODE":0,"TOWNNAME":"永康區","LI":"五王里","LIN":"29鄰","STREET":"中山東路","SECT":" ","MAREA":" ","LANE":"６８巷","ALLEY":"３弄","HOUSE_NO":"２２號","E_COORD97":171652.91,"N_COORD97":2545920.0600000001,"ADDRESS":"中山東路６８巷３弄２２號","OBJECTID":217338},"geometry":{"x":171652.91000000015,"y":2545920.0600000024}},{"attributes":{"ID":217340,"DIS_CODE":0,"TOWNNAME":"永康區","LI":"正強里","LIN":"29鄰","STREET":"中正路","SECT":" ","MAREA":" ","LANE":"１５５巷","ALLEY":"１０弄","HOUSE_NO":"３２號","E_COORD97":173158.91,"N_COORD97":2547748.2400000002,"ADDRESS":"中正路１５５巷１０弄３２號","OBJECTID":217339},"geometry":{"x":173158.91000000201,"y":2547748.2400000002}},{"attributes":{"ID":217341,"DIS_CODE":0,"TOWNNAME":"永康區","LI":"五王里","LIN":"29鄰","STREET":"中山東路","SECT":" ","MAREA":" ","LANE":"６８巷","ALLEY":"１５弄","HOUSE_NO":"２０號","E_COORD97":171620.48000000001,"N_COORD97":2545910.4500000002,"ADDRESS":"中山東路６８巷１５弄２０號","OBJECTID":217340},"geometry":{"x":171620.48000000045,"y":2545910.4500000011}},{"attributes":{"ID":217342,"DIS_CODE":0,"TOWNNAME":"麻豆區","LI":"南勢里","LIN":"2鄰","STREET":" ","SECT":" ","MAREA":"\u25A0帝\u25A0","LANE":" ","ALLEY":" ","HOUSE_NO":"１６號之１０","E_COORD97":173837.32000000001,"N_COORD97":2565781.7200000002,"ADDRESS":"\u25A0帝\u25A0１６號之１０","OBJECTID":217341},"geometry":{"x":173837.3200000003,"y":2565781.7200000007}},{"attributes":{"ID":217343,"DIS_CODE":0,"TOWNNAME":"麻豆區","LI":"南勢里","LIN":"2鄰","STREET":" ","SECT":" ","MAREA":"\u25A0帝\u25A0","LANE":" ","ALLEY":" ","HOUSE_NO":"１６號之１２","E_COORD97":173836.79999999999,"N_COORD97":2565772.48,"ADDRESS":"\u25A0帝\u25A0１６號之１２","OBJECTID":217342},"geometry":{"x":173836.79999999981,"y":2565772.4800000004}},{"attributes":{"ID":217344,"DIS_CODE":0,"TOWNNAME":"麻豆區","LI":"南勢里","LIN":"2鄰","STREET":" ","SECT":" ","MAREA":"\u25A0帝\u25A0","LANE":" ","ALLEY":" ","HOUSE_NO":"１６號之１６","E_COORD97":173836.13,"N_COORD97":2565759.7400000002,"ADDRESS":"\u25A0帝\u25A0１６號之１６","OBJECTID":217343},"geometry":{"x":173836.12999999989,"y":2565759.7400000021}},{"attributes":{"ID":217345,"DIS_CODE":0,"TOWNNAME":"麻豆區","LI":"南勢里","LIN":"2鄰","STREET":" ","SECT":" ","MAREA":"\u25A0帝\u25A0","LANE":" ","ALLEY":" ","HOUSE_NO":"１６號之１","E_COORD97":173830.01000000001,"N_COORD97":2565732.0600000001,"ADDRESS":"\u25A0帝\u25A0１６號之１","OBJECTID":217344},"geometry":{"x":173830.00999999978,"y":2565732.0600000005}},{"attributes":{"ID":217346,"DIS_CODE":0,"TOWNNAME":"麻豆區","LI":"南勢里","LIN":"2鄰","STREET":" ","SECT":" ","MAREA":"\u25A0帝\u25A0","LANE":" ","ALLEY":" ","HOUSE_NO":"１６號之２","E_COORD97":173748.56,"N_COORD97":2565708.8500000001,"ADDRESS":"\u25A0帝\u25A0１６號之２","OBJECTID":217345},"geometry":{"x":173748.55999999959,"y":2565708.8499999996}},{"attributes":{"ID":217347,"DIS_CODE":0,"TOWNNAME":"麻豆區","LI":"南勢里","LIN":"2鄰","STREET":" ","SECT":" ","MAREA":"\u25A0帝\u25A0","LANE":" ","ALLEY":" ","HOUSE_NO":"１６號之３","E_COORD97":173856.45999999999,"N_COORD97":2565734.77,"ADDRESS":"\u25A0帝\u25A0１６號之３","OBJECTID":217346},"geometry":{"x":173856.45999999996,"y":2565734.7700000014}},{"attributes":{"ID":217348,"DIS_CODE":0,"TOWNNAME":"麻豆區","LI":"南勢里","LIN":"2鄰","STREET":" ","SECT":" ","MAREA":"\u25A0帝\u25A0","LANE":" ","ALLEY":" ","HOUSE_NO":"１６號之６","E_COORD97":173754.16,"N_COORD97":2565723.5499999998,"ADDRESS":"\u25A0帝\u25A0１６號之６","OBJECTID":217347},"geometry":{"x":173754.16000000108,"y":2565723.5500000026}},{"attributes":{"ID":217349,"DIS_CODE":0,"TOWNNAME":"麻豆區","LI":"南勢里","LIN":"2鄰","STREET":" ","SECT":" ","MAREA":"\u25A0帝\u25A0","LANE":" ","ALLEY":" ","HOUSE_NO":"１７號之２","E_COORD97":174362.97,"N_COORD97":2565957.5299999998,"ADDRESS":"\u25A0帝\u25A0１７號之２","OBJECTID":217348},"geometry":{"x":174362.96999999974,"y":2565957.5299999993}},{"attributes":{"ID":217350,"DIS_CODE":0,"TOWNNAME":"麻豆區","LI":"南勢里","LIN":"2鄰","STREET":" ","SECT":" ","MAREA":"\u25A0帝\u25A0","LANE":" ","ALLEY":" ","HOUSE_NO":"１７號","E_COORD97":173896.79999999999,"N_COORD97":2565696.7000000002,"ADDRESS":"\u25A0帝\u25A0１７號","OBJECTID":217349},"geometry":{"x":173896.80000000168,"y":2565696.700000003}},{"attributes":{"ID":217351,"DIS_CODE":0,"TOWNNAME":"麻豆區","LI":"南勢里","LIN":"2鄰","STREET":" ","SECT":" ","MAREA":"\u25A0帝\u25A0","LANE":" ","ALLEY":" ","HOUSE_NO":"１８號之１","E_COORD97":173835.948152,"N_COORD97":2565642.6132700001,"ADDRESS":"\u25A0帝\u25A0１８號之１","OBJECTID":217350},"geometry":{"x":173835.94815200008,"y":2565642.6132690012}},{"attributes":{"ID":217352,"DIS_CODE":0,"TOWNNAME":"麻豆區","LI":"南勢里","LIN":"2鄰","STREET":" ","SECT":" ","MAREA":"\u25A0帝\u25A0","LANE":" ","ALLEY":" ","HOUSE_NO":"１８號","E_COORD97":173849.721467,"N_COORD97":2565648.53993,"ADDRESS":"\u25A0帝\u25A0１８號","OBJECTID":217351},"geometry":{"x":173849.72146700043,"y":2565648.5399320032}},{"attributes":{"ID":217353,"DIS_CODE":0,"TOWNNAME":"麻豆區","LI":"南勢里","LIN":"2鄰","STREET":" ","SECT":" ","MAREA":"\u25A0帝\u25A0","LANE":" ","ALLEY":" ","HOUSE_NO":"１９號之１","E_COORD97":173977.82000000001,"N_COORD97":2565828.8199999998,"ADDRESS":"\u25A0帝\u25A0１９號之１","OBJECTID":217352},"geometry":{"x":173977.8200000003,"y":2565828.8200000003}},{"attributes":{"ID":217354,"DIS_CODE":0,"TOWNNAME":"麻豆區","LI":"南勢里","LIN":"2鄰","STREET":" ","SECT":" ","MAREA":"\u25A0帝\u25A0","LANE":" ","ALLEY":" ","HOUSE_NO":"１９號之２０","E_COORD97":174271.45999999999,"N_COORD97":2565824.3300000001,"ADDRESS":"\u25A0帝\u25A0１９號之２０","OBJECTID":217353},"geometry":{"x":174271.45999999996,"y":2565824.3300000001}},{"attributes":{"ID":217355,"DIS_CODE":0,"TOWNNAME":"鹽水區","LI":"南港里","LIN":"2鄰","STREET":" ","SECT":" ","MAREA":"?頭港","LANE":" ","ALLEY":" ","HOUSE_NO":"１２８之１９號","E_COORD97":172892.25,"N_COORD97":2572513.8300000001,"ADDRESS":"?頭港１２８之１９號","OBJECTID":217354},"geometry":{"x":172892.25000000093,"y":2572513.8300000001}},{"attributes":{"ID":217356,"DIS_CODE":0,"TOWNNAME":"鹽水區","LI":"南港里","LIN":"2鄰","STREET":" ","SECT":" ","MAREA":"?頭港","LANE":" ","ALLEY":" ","HOUSE_NO":"１２８號之１","E_COORD97":172849.17999999999,"N_COORD97":2572506.79,"ADDRESS":"?頭港１２８號之１","OBJECTID":217355},"geometry":{"x":172849.1799999997,"y":2572506.7899999991}},{"attributes":{"ID":217357,"DIS_CODE":0,"TOWNNAME":"鹽水區","LI":"南港里","LIN":"2鄰","STREET":" ","SECT":" ","MAREA":"?頭港","LANE":" ","ALLEY":" ","HOUSE_NO":"１２８號之２","E_COORD97":172850.17999999999,"N_COORD97":2572510.9900000002,"ADDRESS":"?頭港１２８號之２","OBJECTID":217356},"geometry":{"x":172850.18000000063,"y":2572510.9900000021}},{"attributes":{"ID":217358,"DIS_CODE":0,"TOWNNAME":"鹽水區","LI":"南港里","LIN":"2鄰","STREET":" ","SECT":" ","MAREA":"?頭港","LANE":" ","ALLEY":" ","HOUSE_NO":"１２８號之３","E_COORD97":172851.17000000001,"N_COORD97":2572515.0899999999,"ADDRESS":"?頭港１２８號之３","OBJECTID":217357},"geometry":{"x":172851.16999999993,"y":2572515.0899999999}},{"attributes":{"ID":217359,"DIS_CODE":0,"TOWNNAME":"鹽水區","LI":"南港里","LIN":"2鄰","STREET":" ","SECT":" ","MAREA":"?頭港","LANE":" ","ALLEY":" ","HOUSE_NO":"１２８號之４","E_COORD97":172852.22,"N_COORD97":2572518.6800000002,"ADDRESS":"?頭港１２８號之４","OBJECTID":217358},"geometry":{"x":172852.21999999974,"y":2572518.6799999978}},{"attributes":{"ID":217360,"DIS_CODE":0,"TOWNNAME":"鹽水區","LI":"南港里","LIN":"2鄰","STREET":" ","SECT":" ","MAREA":"?頭港","LANE":" ","ALLEY":" ","HOUSE_NO":"１２８號之５","E_COORD97":172862.25,"N_COORD97":2572506.2599999998,"ADDRESS":"?頭港１２８號之５","OBJECTID":217359},"geometry":{"x":172862.25000000093,"y":2572506.2600000016}},{"attributes":{"ID":217361,"DIS_CODE":0,"TOWNNAME":"鹽水區","LI":"南港里","LIN":"2鄰","STREET":" ","SECT":" ","MAREA":"?頭港","LANE":" ","ALLEY":" ","HOUSE_NO":"１２８號之６","E_COORD97":172866.51999999999,"N_COORD97":2572505.2799999998,"ADDRESS":"?頭港１２８號之６","OBJECTID":217360},"geometry":{"x":172866.52000000048,"y":2572505.2800000012}},{"attributes":{"ID":217362,"DIS_CODE":0,"TOWNNAME":"鹽水區","LI":"南港里","LIN":"2鄰","STREET":" ","SECT":" ","MAREA":"?頭港","LANE":" ","ALLEY":" ","HOUSE_NO":"１２８號之７","E_COORD97":172870.14000000001,"N_COORD97":2572504.4199999999,"ADDRESS":"?頭港１２８號之７","OBJECTID":217361},"geometry":{"x":172870.13999999966,"y":2572504.4200000018}},{"attributes":{"ID":217363,"DIS_CODE":0,"TOWNNAME":"鹽水區","LI":"南港里","LIN":"2鄰","STREET":" ","SECT":" ","MAREA":"?頭港","LANE":" ","ALLEY":" ","HOUSE_NO":"１２８號之８","E_COORD97":172874.28,"N_COORD97":2572503.9700000002,"ADDRESS":"?頭港１２８號之８","OBJECTID":217362},"geometry":{"x":172874.28000000119,"y":2572503.9700000007}},{"attributes":{"ID":217364,"DIS_CODE":0,"TOWNNAME":"鹽水區","LI":"南港里","LIN":"2鄰","STREET":" ","SECT":" ","MAREA":"?頭港","LANE":" ","ALLEY":" ","HOUSE_NO":"１２８號之９","E_COORD97":172877.82000000001,"N_COORD97":2572503,"ADDRESS":"?頭港１２８號之９","OBJECTID":217363},"geometry":{"x":172877.8200000003,"y":2572503}},{"attributes":{"ID":217365,"DIS_CODE":0,"TOWNNAME":"鹽水區","LI":"南港里","LIN":"2鄰","STREET":" ","SECT":" ","MAREA":"?頭港","LANE":" ","ALLEY":" ","HOUSE_NO":"１２８號","E_COORD97":172848.89000000001,"N_COORD97":2572499.8100000001,"ADDRESS":"?頭港１２８號","OBJECTID":217364},"geometry":{"x":172848.8900000006,"y":2572499.8100000024}},{"attributes":{"ID":217366,"DIS_CODE":0,"TOWNNAME":"鹽水區","LI":"南港里","LIN":"2鄰","STREET":" ","SECT":" ","MAREA":"?頭港","LANE":" ","ALLEY":" ","HOUSE_NO":"１２９號之１","E_COORD97":172838.59,"N_COORD97":2572458.3599999999,"ADDRESS":"?頭港１２９號之１","OBJECTID":217365},"geometry":{"x":172838.58999999892,"y":2572458.3599999994}},{"attributes":{"ID":217367,"DIS_CODE":0,"TOWNNAME":"鹽水區","LI":"南港里","LIN":"2鄰","STREET":" ","SECT":" ","MAREA":"?頭港","LANE":" ","ALLEY":" ","HOUSE_NO":"１２９號之３","E_COORD97":172863.45000000001,"N_COORD97":2572485.3300000001,"ADDRESS":"?頭港１２９號之３","OBJECTID":217366},"geometry":{"x":172863.45000000019,"y":2572485.3300000019}},{"attributes":{"ID":217368,"DIS_CODE":0,"TOWNNAME":"永康區","LI":"\u25A0行里","LIN":"7鄰","STREET":"中正三街","SECT":" ","MAREA":" ","LANE":" ","ALLEY":" ","HOUSE_NO":"１２號","E_COORD97":172409.34,"N_COORD97":2548524.25,"ADDRESS":"中正三街１２號","OBJECTID":217367},"geometry":{"x":172409.33999999985,"y":2548524.25}},{"attributes":{"ID":217369,"DIS_CODE":0,"TOWNNAME":"鹽水區","LI":"南港里","LIN":"2鄰","STREET":" ","SECT":" ","MAREA":"?頭港","LANE":" ","ALLEY":" ","HOUSE_NO":"１２９之４號","E_COORD97":172857.60000000001,"N_COORD97":2572454.0800000001,"ADDRESS":"?頭港１２９之４號","OBJECTID":217368},"geometry":{"x":172857.60000000056,"y":2572454.0800000001}},{"attributes":{"ID":217370,"DIS_CODE":0,"TOWNNAME":"永康區","LI":"埔園里","LIN":"29鄰","STREET":"埔園街","SECT":" ","MAREA":" ","LANE":"１４７巷","ALLEY":"６弄","HOUSE_NO":"２３號","E_COORD97":173818.20999999999,"N_COORD97":2548195.3399999999,"ADDRESS":"埔園街１４７巷６弄２３號","OBJECTID":217369},"geometry":{"x":173818.21000000089,"y":2548195.3400000036}},{"attributes":{"ID":217371,"DIS_CODE":0,"TOWNNAME":"永康區","LI":"\u25A0行里","LIN":"34鄰","STREET":"中正北路","SECT":" ","MAREA":" ","LANE":" ","ALLEY":" ","HOUSE_NO":"２１４號","E_COORD97":172582.63,"N_COORD97":2549078.4900000002,"ADDRESS":"中正北路２１４號","OBJECTID":217370},"geometry":{"x":172582.63000000175,"y":2549078.4900000002}},{"attributes":{"ID":217372,"DIS_CODE":0,"TOWNNAME":"永康區","LI":"\u25A0行里","LIN":"34鄰","STREET":"中正北路","SECT":" ","MAREA":" ","LANE":" ","ALLEY":" ","HOUSE_NO":"１７３號","E_COORD97":172405.31,"N_COORD97":2549108.5,"ADDRESS":"中正北路１７３號","OBJECTID":217371},"geometry":{"x":172405.31000000052,"y":2549108.5}},{"attributes":{"ID":217373,"DIS_CODE":0,"TOWNNAME":"永康區","LI":"龍潭里","LIN":"7鄰","STREET":"龍埔街","SECT":" ","MAREA":" ","LANE":" ","ALLEY":" ","HOUSE_NO":"２４號","E_COORD97":174797.85000000001,"N_COORD97":2548219.3599999999,"ADDRESS":"龍埔街２４號","OBJECTID":217372},"geometry":{"x":174797.84999999963,"y":2548219.3600000013}},{"attributes":{"ID":217374,"DIS_CODE":0,"TOWNNAME":"鹽水區","LI":"南港里","LIN":"2鄰","STREET":" ","SECT":" ","MAREA":"?頭港","LANE":" ","ALLEY":" ","HOUSE_NO":"１２９號之５","E_COORD97":172868.04000000001,"N_COORD97":2572462.52,"ADDRESS":"?頭港１２９號之５","OBJECTID":217373},"geometry":{"x":172868.0400000019,"y":2572462.5200000014}},{"attributes":{"ID":217375,"DIS_CODE":0,"TOWNNAME":"鹽水區","LI":"南港里","LIN":"2鄰","STREET":" ","SECT":" ","MAREA":"?頭港","LANE":" ","ALLEY":" ","HOUSE_NO":"１２９號之６","E_COORD97":172859.95000000001,"N_COORD97":2572467.8599999999,"ADDRESS":"?頭港１２９號之６","OBJECTID":217374},"geometry":{"x":172859.95000000019,"y":2572467.8600000013}},{"attributes":{"ID":217376,"DIS_CODE":0,"TOWNNAME":"鹽水區","LI":"南港里","LIN":"2鄰","STREET":" ","SECT":" ","MAREA":"?頭港","LANE":" ","ALLEY":" ","HOUSE_NO":"１２９號","E_COORD97":172841.82000000001,"N_COORD97":2572476.79,"ADDRESS":"?頭港１２９號","OBJECTID":217375},"geometry":{"x":172841.82000000123,"y":2572476.7900000028}},{"attributes":{"ID":217377,"DIS_CODE":0,"TOWNNAME":"鹽水區","LI":"南港里","LIN":"2鄰","STREET":" ","SECT":" ","MAREA":"?頭港","LANE":" ","ALLEY":" ","HOUSE_NO":"１３０號","E_COORD97":172905.35999999999,"N_COORD97":2572555.79,"ADDRESS":"?頭港１３０號","OBJECTID":217376},"geometry":{"x":172905.36000000127,"y":2572555.790000001}},{"attributes":{"ID":217378,"DIS_CODE":0,"TOWNNAME":"鹽水區","LI":"南港里","LIN":"2鄰","STREET":" ","SECT":" ","MAREA":"?頭港","LANE":" ","ALLEY":" ","HOUSE_NO":"１３１之１號","E_COORD97":172913.04000000001,"N_COORD97":2572570.0600000001,"ADDRESS":"?頭港１３１之１號","OBJECTID":217377},"geometry":{"x":172913.04000000004,"y":2572570.0600000005}},{"attributes":{"ID":217379,"DIS_CODE":0,"TOWNNAME":"鹽水區","LI":"南港里","LIN":"2鄰","STREET":" ","SECT":" ","MAREA":"?頭港","LANE":" ","ALLEY":" ","HOUSE_NO":"１３１號","E_COORD97":172879.94,"N_COORD97":2572558.2400000002,"ADDRESS":"?頭港１３１號","OBJECTID":217378},"geometry":{"x":172879.94000000134,"y":2572558.2400000002}},{"attributes":{"ID":217380,"DIS_CODE":0,"TOWNNAME":"鹽水區","LI":"南港里","LIN":"2鄰","STREET":" ","SECT":" ","MAREA":"?頭港","LANE":" ","ALLEY":" ","HOUSE_NO":"１３２號之１","E_COORD97":172885.48000000001,"N_COORD97":2572477.73,"ADDRESS":"?頭港１３２號之１","OBJECTID":217379},"geometry":{"x":172885.48000000045,"y":2572477.7300000004}},{"attributes":{"ID":217381,"DIS_CODE":0,"TOWNNAME":"鹽水區","LI":"南港里","LIN":"2鄰","STREET":" ","SECT":" ","MAREA":"?頭港","LANE":" ","ALLEY":" ","HOUSE_NO":"１３２號","E_COORD97":172880.37,"N_COORD97":2572463.3399999999,"ADDRESS":"?頭港１３２號","OBJECTID":217380},"geometry":{"x":172880.37000000011,"y":2572463.3399999999}},{"attributes":{"ID":217382,"DIS_CODE":0,"TOWNNAME":"永康區","LI":"埔園里","LIN":"29鄰","STREET":"埔園街","SECT":" ","MAREA":" ","LANE":"１４７巷","ALLEY":"６弄","HOUSE_NO":"３號","E_COORD97":173853.42999999999,"N_COORD97":2548171.0899999999,"ADDRESS":"埔園街１４７巷６弄３號","OBJECTID":217381},"geometry":{"x":173853.43000000156,"y":2548171.0900000017}},{"attributes":{"ID":217383,"DIS_CODE":0,"TOWNNAME":"南區","LI":"明亮里","LIN":"29鄰","STREET":"金華路","SECT":"一段","MAREA":" ","LANE":"４８４巷","ALLEY":"２４４弄","HOUSE_NO":"２號","E_COORD97":167468.95000000001,"N_COORD97":2541021.25,"ADDRESS":"金華路一段４８４巷２４４弄２號","OBJECTID":217382},"geometry":{"x":167468.95000000019,"y":2541021.25}},{"attributes":{"ID":217384,"DIS_CODE":0,"TOWNNAME":"南區","LI":"明亮里","LIN":"29鄰","STREET":"金華路","SECT":"一段","MAREA":" ","LANE":"４８４巷","ALLEY":"２４４弄","HOUSE_NO":"４號","E_COORD97":167465.47,"N_COORD97":2541020.1800000002,"ADDRESS":"金華路一段４８４巷２４４弄４號","OBJECTID":217383},"geometry":{"x":167465.46999999974,"y":2541020.1800000016}},{"attributes":{"ID":217385,"DIS_CODE":0,"TOWNNAME":"南區","LI":"明亮里","LIN":"29鄰","STREET":"金華路","SECT":"一段","MAREA":" ","LANE":"４８４巷","ALLEY":"２４４弄","HOUSE_NO":"６號","E_COORD97":167462.51999999999,"N_COORD97":2541018.5800000001,"ADDRESS":"金華路一段４８４巷２４４弄６號","OBJECTID":217384},"geometry":{"x":167462.52000000048,"y":2541018.5800000001}},{"attributes":{"ID":217386,"DIS_CODE":0,"TOWNNAME":"南區","LI":"明亮里","LIN":"29鄰","STREET":"金華路","SECT":"一段","MAREA":" ","LANE":"４８４巷","ALLEY":"２４４弄","HOUSE_NO":"８號","E_COORD97":167458.5,"N_COORD97":2541016.9700000002,"ADDRESS":"金華路一段４８４巷２４４弄８號","OBJECTID":217385},"geometry":{"x":167458.5,"y":2541016.9700000007}},{"attributes":{"ID":217387,"DIS_CODE":0,"TOWNNAME":"南區","LI":"明亮里","LIN":"29鄰","STREET":"金華路","SECT":"一段","MAREA":" ","LANE":"４８４巷","ALLEY":"２４４弄","HOUSE_NO":"１０號","E_COORD97":167455.01999999999,"N_COORD97":2541015.1000000001,"ADDRESS":"金華路一段４８４巷２４４弄１０號","OBJECTID":217386},"geometry":{"x":167455.02000000142,"y":2541015.0999999996}},{"attributes":{"ID":217388,"DIS_CODE":0,"TOWNNAME":"南區","LI":"明亮里","LIN":"29鄰","STREET":"金華路","SECT":"一段","MAREA":" ","LANE":"４８４巷","ALLEY":"２４４弄","HOUSE_NO":"１２號","E_COORD97":167451.54000000001,"N_COORD97":2541012.96,"ADDRESS":"金華路一段４８４巷２４４弄１２號","OBJECTID":217387},"geometry":{"x":167451.54000000004,"y":2541012.9600000028}},{"attributes":{"ID":217389,"DIS_CODE":0,"TOWNNAME":"鹽水區","LI":"南港里","LIN":"2鄰","STREET":" ","SECT":" ","MAREA":"?頭港","LANE":" ","ALLEY":" ","HOUSE_NO":"１３３號","E_COORD97":172873.23000000001,"N_COORD97":2572450.8300000001,"ADDRESS":"?頭港１３３號","OBJECTID":217388},"geometry":{"x":172873.23000000045,"y":2572450.8300000019}},{"attributes":{"ID":217390,"DIS_CODE":0,"TOWNNAME":"南區","LI":"明亮里","LIN":"29鄰","STREET":"金華路","SECT":"一段","MAREA":" ","LANE":"４８４巷","ALLEY":"２４４弄","HOUSE_NO":"１４號","E_COORD97":167447.79000000001,"N_COORD97":2541010.5499999998,"ADDRESS":"金華路一段４８４巷２４４弄１４號","OBJECTID":217389},"geometry":{"x":167447.79000000004,"y":2541010.5500000045}},{"attributes":{"ID":217391,"DIS_CODE":0,"TOWNNAME":"鹽水區","LI":"河南里","LIN":"2鄰","STREET":" ","SECT":" ","MAREA":"?頭港","LANE":" ","ALLEY":" ","HOUSE_NO":"１５號","E_COORD97":173182.48000000001,"N_COORD97":2572800.7799999998,"ADDRESS":"?頭港１５號","OBJECTID":217390},"geometry":{"x":173182.48000000231,"y":2572800.7800000012}},{"attributes":{"ID":217392,"DIS_CODE":0,"TOWNNAME":"鹽水區","LI":"河南里","LIN":"2鄰","STREET":" ","SECT":" ","MAREA":"?頭港","LANE":" ","ALLEY":" ","HOUSE_NO":"１６號","E_COORD97":173195.79999999999,"N_COORD97":2572808.75,"ADDRESS":"?頭港１６號","OBJECTID":217391},"geometry":{"x":173195.79999999981,"y":2572808.75}},{"attributes":{"ID":217393,"DIS_CODE":0,"TOWNNAME":"南區","LI":"明亮里","LIN":"29鄰","STREET":"金華路","SECT":"一段","MAREA":" ","LANE":"４８４巷","ALLEY":"２４４弄","HOUSE_NO":"１６號","E_COORD97":167443.5,"N_COORD97":2541008.1400000001,"ADDRESS":"金華路一段４８４巷２４４弄１６號","OBJECTID":217392},"geometry":{"x":167443.5,"y":2541008.1400000025}},{"attributes":{"ID":217394,"DIS_CODE":0,"TOWNNAME":"南區","LI":"明亮里","LIN":"29鄰","STREET":"金華路","SECT":"一段","MAREA":" ","LANE":"４８４巷","ALLEY":"２４４弄","HOUSE_NO":"１８號","E_COORD97":167440.29000000001,"N_COORD97":2541006.54,"ADDRESS":"金華路一段４８４巷２４４弄１８號","OBJECTID":217393},"geometry":{"x":167440.29000000097,"y":2541006.540000001}},{"attributes":{"ID":217395,"DIS_CODE":0,"TOWNNAME":"鹽水區","LI":"河南里","LIN":"2鄰","STREET":" ","SECT":" ","MAREA":"?頭港","LANE":" ","ALLEY":" ","HOUSE_NO":"１７號","E_COORD97":173204.91,"N_COORD97":2572786.1000000001,"ADDRESS":"?頭港１７號","OBJECTID":217394},"geometry":{"x":173204.91000000108,"y":2572786.0999999996}},{"attributes":{"ID":217396,"DIS_CODE":0,"TOWNNAME":"南區","LI":"明亮里","LIN":"29鄰","STREET":"金華路","SECT":"一段","MAREA":" ","LANE":"４８４巷","ALLEY":"２４４弄","HOUSE_NO":"２０號","E_COORD97":167437.34,"N_COORD97":2541004.9300000002,"ADDRESS":"金華路一段４８４巷２４４弄２０號","OBJECTID":217395},"geometry":{"x":167437.33999999985,"y":2541004.9300000016}},{"attributes":{"ID":217397,"DIS_CODE":0,"TOWNNAME":"永康區","LI":"龍潭里","LIN":"44鄰","STREET":"永平街","SECT":" ","MAREA":" ","LANE":" ","ALLEY":" ","HOUSE_NO":"２４６號","E_COORD97":174661.62,"N_COORD97":2546981.4100000001,"ADDRESS":"永平街２４６號","OBJECTID":217396},"geometry":{"x":174661.62000000104,"y":2546981.4100000039}},{"attributes":{"ID":217398,"DIS_CODE":0,"TOWNNAME":"鹽水區","LI":"河南里","LIN":"2鄰","STREET":" ","SECT":" ","MAREA":"?頭港","LANE":" ","ALLEY":" ","HOUSE_NO":"１８號","E_COORD97":173210.98999999999,"N_COORD97":2572805.4900000002,"ADDRESS":"?頭港１８號","OBJECTID":217397},"geometry":{"x":173210.99000000209,"y":2572805.4900000039}},{"attributes":{"ID":217399,"DIS_CODE":0,"TOWNNAME":"鹽水區","LI":"河南里","LIN":"2鄰","STREET":" ","SECT":" ","MAREA":"?頭港","LANE":" ","ALLEY":" ","HOUSE_NO":"１９號","E_COORD97":173211.92999999999,"N_COORD97":2572820.4700000002,"ADDRESS":"?頭港１９號","OBJECTID":217398},"geometry":{"x":173211.9299999997,"y":2572820.4700000025}},{"attributes":{"ID":217400,"DIS_CODE":0,"TOWNNAME":"鹽水區","LI":"河南里","LIN":"2鄰","STREET":" ","SECT":" ","MAREA":"?頭港","LANE":" ","ALLEY":" ","HOUSE_NO":"２０號","E_COORD97":173230.54000000001,"N_COORD97":2572812.0899999999,"ADDRESS":"?頭港２０號","OBJECTID":217399},"geometry":{"x":173230.54000000004,"y":2572812.0900000017}},{"attributes":{"ID":217401,"DIS_CODE":0,"TOWNNAME":"鹽水區","LI":"河南里","LIN":"2鄰","STREET":" ","SECT":" ","MAREA":"?頭港","LANE":" ","ALLEY":" ","HOUSE_NO":"２１號","E_COORD97":173251.42000000001,"N_COORD97":2572809.52,"ADDRESS":"?頭港２１號","OBJECTID":217400},"geometry":{"x":173251.41999999993,"y":2572809.5200000014}}]}