{"displayFieldName":"TOWNNAME","fieldAliases":{"ID":"ID","DIS_CODE":"DIS_CODE","TOWNNAME":"TOWNNAME","LI":"LI","LIN":"LIN","STREET":"STREET","SECT":"SECT","MAREA":"MAREA","LANE":"LANE","ALLEY":"ALLEY","HOUSE_NO":"HOUSE_NO","E_COORD97":"E_COORD97","N_COORD97":"N_COORD97","ADDRESS":"ADDRESS","OBJECTID":"OBJECTID"},"geometryType":"esriGeometryPoint","spatialReference":{"wkid":102443,"latestWkid":3826},"fields":[{"name":"ID","type":"esriFieldTypeDouble","alias":"ID"},{"name":"DIS_CODE","type":"esriFieldTypeInteger","alias":"DIS_CODE"},{"name":"TOWNNAME","type":"esriFieldTypeString","alias":"TOWNNAME","length":8},{"name":"LI","type":"esriFieldTypeString","alias":"LI","length":8},{"name":"LIN","type":"esriFieldTypeString","alias":"LIN","length":12},{"name":"STREET","type":"esriFieldTypeString","alias":"STREET","length":20},{"name":"SECT","type":"esriFieldTypeString","alias":"SECT","length":8},{"name":"MAREA","type":"esriFieldTypeString","alias":"MAREA","length":12},{"name":"LANE","type":"esriFieldTypeString","alias":"LANE","length":10},{"name":"ALLEY","type":"esriFieldTypeString","alias":"ALLEY","length":10},{"name":"HOUSE_NO","type":"esriFieldTypeString","alias":"HOUSE_NO","length":20},{"name":"E_COORD97","type":"esriFieldTypeDouble","alias":"E_COORD97"},{"name":"N_COORD97","type":"esriFieldTypeDouble","alias":"N_COORD97"},{"name":"ADDRESS","type":"esriFieldTypeString","alias":"ADDRESS","length":50},{"name":"OBJECTID","type":"esriFieldTypeOID","alias":"OBJECTID"}],"features":[{"attributes":{"ID":38201,"DIS_CODE":0,"TOWNNAME":"仁德區","LI":"田厝里","LIN":"7鄰","STREET":"中正路","SECT":"一段","MAREA":" ","LANE":"５９９巷","ALLEY":"３０弄","HOUSE_NO":"１６號之１","E_COORD97":172800.95999999999,"N_COORD97":2537969.54,"ADDRESS":"中正路一段５９９巷３０弄１６號之１","OBJECTID":38201},"geometry":{"x":172800.96000000089,"y":2537969.5399999991}},{"attributes":{"ID":38202,"DIS_CODE":0,"TOWNNAME":"仁德區","LI":"保安里","LIN":"7鄰","STREET":"文賢二街","SECT":" ","MAREA":" ","LANE":"２３巷","ALLEY":"７弄","HOUSE_NO":"４號","E_COORD97":171643.32999999999,"N_COORD97":2536167.8300000001,"ADDRESS":"文賢二街２３巷７弄４號","OBJECTID":38202},"geometry":{"x":171643.33000000007,"y":2536167.8300000019}},{"attributes":{"ID":38203,"DIS_CODE":0,"TOWNNAME":"仁德區","LI":"成功里","LIN":"7鄰","STREET":"保華路","SECT":" ","MAREA":" ","LANE":"１２９巷","ALLEY":"６５弄","HOUSE_NO":"７號","E_COORD97":171141.01000000001,"N_COORD97":2539848.2400000002,"ADDRESS":"保華路１２９巷６５弄７號","OBJECTID":38203},"geometry":{"x":171141.01000000071,"y":2539848.2400000002}},{"attributes":{"ID":38204,"DIS_CODE":0,"TOWNNAME":"安定區","LI":"新吉里","LIN":"7鄰","STREET":" ","SECT":" ","MAREA":"新吉","LANE":" ","ALLEY":" ","HOUSE_NO":"５８之１７號","E_COORD97":168785.48000000001,"N_COORD97":2553762.8999999999,"ADDRESS":"新吉５８之１７號","OBJECTID":38204},"geometry":{"x":168785.48000000138,"y":2553762.9000000022}},{"attributes":{"ID":38205,"DIS_CODE":0,"TOWNNAME":"仁德區","LI":"成功里","LIN":"7鄰","STREET":"保華路","SECT":" ","MAREA":" ","LANE":"１２９巷","ALLEY":"４１弄","HOUSE_NO":"７號","E_COORD97":171139.48000000001,"N_COORD97":2539909.25,"ADDRESS":"保華路１２９巷４１弄７號","OBJECTID":38205},"geometry":{"x":171139.48000000045,"y":2539909.25}},{"attributes":{"ID":38206,"DIS_CODE":0,"TOWNNAME":"仁德區","LI":"成功里","LIN":"7鄰","STREET":"保華路","SECT":" ","MAREA":" ","LANE":"１２９巷","ALLEY":"４１弄","HOUSE_NO":"２號","E_COORD97":171138.51000000001,"N_COORD97":2539900.25,"ADDRESS":"保華路１２９巷４１弄２號","OBJECTID":38206},"geometry":{"x":171138.50999999978,"y":2539900.2500000019}},{"attributes":{"ID":38207,"DIS_CODE":0,"TOWNNAME":"仁德區","LI":"成功里","LIN":"7鄰","STREET":"保華路","SECT":" ","MAREA":" ","LANE":"１２９巷","ALLEY":"４１弄","HOUSE_NO":"４號","E_COORD97":171142.94,"N_COORD97":2539900.75,"ADDRESS":"保華路１２９巷４１弄４號","OBJECTID":38207},"geometry":{"x":171142.94000000041,"y":2539900.7500000019}},{"attributes":{"ID":38208,"DIS_CODE":0,"TOWNNAME":"安定區","LI":"新吉里","LIN":"7鄰","STREET":" ","SECT":" ","MAREA":"新吉","LANE":" ","ALLEY":" ","HOUSE_NO":"５５之４１號","E_COORD97":168792.679133,"N_COORD97":2553907.8235999998,"ADDRESS":"新吉５５之４１號","OBJECTID":38208},"geometry":{"x":168792.67913299985,"y":2553907.8236000016}},{"attributes":{"ID":38209,"DIS_CODE":0,"TOWNNAME":"仁德區","LI":"新田里","LIN":"7鄰","STREET":"新田路","SECT":" ","MAREA":" ","LANE":"２巷","ALLEY":"１弄","HOUSE_NO":"９號","E_COORD97":174440.29000000001,"N_COORD97":2538899.9900000002,"ADDRESS":"新田路２巷１弄９號","OBJECTID":38209},"geometry":{"x":174440.29000000097,"y":2538899.9900000021}},{"attributes":{"ID":38210,"DIS_CODE":0,"TOWNNAME":"仁德區","LI":"新田里","LIN":"7鄰","STREET":"新田路","SECT":" ","MAREA":" ","LANE":"２巷","ALLEY":"１弄","HOUSE_NO":"１號","E_COORD97":174424.60999999999,"N_COORD97":2538895.9900000002,"ADDRESS":"新田路２巷１弄１號","OBJECTID":38210},"geometry":{"x":174424.61000000127,"y":2538895.9900000021}},{"attributes":{"ID":38211,"DIS_CODE":0,"TOWNNAME":"仁德區","LI":"新田里","LIN":"7鄰","STREET":"新田路","SECT":" ","MAREA":" ","LANE":"２巷","ALLEY":"１弄","HOUSE_NO":"３１號","E_COORD97":174538.34,"N_COORD97":2538939.9900000002,"ADDRESS":"新田路２巷１弄３１號","OBJECTID":38211},"geometry":{"x":174538.33999999985,"y":2538939.9900000021}},{"attributes":{"ID":38212,"DIS_CODE":0,"TOWNNAME":"安定區","LI":"港尾里","LIN":"7鄰","STREET":" ","SECT":" ","MAREA":"港子尾","LANE":" ","ALLEY":" ","HOUSE_NO":"３７之１９號","E_COORD97":172365.052104,"N_COORD97":2555814.0928400001,"ADDRESS":"港子尾３７之１９號","OBJECTID":38212},"geometry":{"x":172365.052104,"y":2555814.0928440019}},{"attributes":{"ID":38213,"DIS_CODE":0,"TOWNNAME":"新營區","LI":"新南里","LIN":"28鄰","STREET":"秦漢街","SECT":" ","MAREA":" ","LANE":" ","ALLEY":" ","HOUSE_NO":"６１之３號","E_COORD97":178450.856948,"N_COORD97":2578732.3392500002,"ADDRESS":"秦漢街６１之３號","OBJECTID":38213},"geometry":{"x":178450.85694800224,"y":2578732.3392530028}},{"attributes":{"ID":38214,"DIS_CODE":0,"TOWNNAME":"安平區","LI":"建平里","LIN":"14鄰","STREET":"建平十三街","SECT":" ","MAREA":" ","LANE":" ","ALLEY":" ","HOUSE_NO":"５１之２號","E_COORD97":166184.79000000001,"N_COORD97":2544001.96,"ADDRESS":"建平十三街５１之２號","OBJECTID":38214},"geometry":{"x":166184.79000000004,"y":2544001.9600000046}},{"attributes":{"ID":38215,"DIS_CODE":0,"TOWNNAME":"永康區","LI":"東橋里","LIN":"14鄰","STREET":"東橋一路","SECT":" ","MAREA":" ","LANE":" ","ALLEY":" ","HOUSE_NO":"２５６號","E_COORD97":171422.34,"N_COORD97":2546629.5699999998,"ADDRESS":"東橋一路２５６號","OBJECTID":38215},"geometry":{"x":171422.34000000078,"y":2546629.5700000022}},{"attributes":{"ID":38216,"DIS_CODE":0,"TOWNNAME":"永康區","LI":"東橋里","LIN":"14鄰","STREET":"東橋八街","SECT":" ","MAREA":" ","LANE":" ","ALLEY":" ","HOUSE_NO":"３８號","E_COORD97":171414.16,"N_COORD97":2546763.3500000001,"ADDRESS":"東橋八街３８號","OBJECTID":38216},"geometry":{"x":171414.16000000015,"y":2546763.3499999996}},{"attributes":{"ID":38217,"DIS_CODE":0,"TOWNNAME":"永康區","LI":"東橋里","LIN":"14鄰","STREET":"東橋八街","SECT":" ","MAREA":" ","LANE":" ","ALLEY":" ","HOUSE_NO":"５６號","E_COORD97":171426.03,"N_COORD97":2546770.5899999999,"ADDRESS":"東橋八街５６號","OBJECTID":38217},"geometry":{"x":171426.03000000119,"y":2546770.5900000017}},{"attributes":{"ID":38218,"DIS_CODE":0,"TOWNNAME":"永康區","LI":"東橋里","LIN":"14鄰","STREET":"東橋一路","SECT":" ","MAREA":" ","LANE":" ","ALLEY":" ","HOUSE_NO":"２６８號","E_COORD97":171406.54000000001,"N_COORD97":2546650.8599999999,"ADDRESS":"東橋一路２６８號","OBJECTID":38218},"geometry":{"x":171406.54000000004,"y":2546650.8599999994}},{"attributes":{"ID":38219,"DIS_CODE":0,"TOWNNAME":"永康區","LI":"龍潭里","LIN":"14鄰","STREET":"龍埔街","SECT":" ","MAREA":" ","LANE":" ","ALLEY":" ","HOUSE_NO":"１１２號","E_COORD97":174512.89000000001,"N_COORD97":2548276.0699999998,"ADDRESS":"龍埔街１１２號","OBJECTID":38219},"geometry":{"x":174512.88999999873,"y":2548276.0700000022}},{"attributes":{"ID":38220,"DIS_CODE":0,"TOWNNAME":"新市區","LI":"三舍里","LIN":"7鄰","STREET":" ","SECT":" ","MAREA":"三舍","LANE":" ","ALLEY":" ","HOUSE_NO":"１７９之１３號","E_COORD97":177452.39000000001,"N_COORD97":2554821.7999999998,"ADDRESS":"三舍１７９之１３號","OBJECTID":38220},"geometry":{"x":177452.38999999873,"y":2554821.8000000026}},{"attributes":{"ID":38221,"DIS_CODE":0,"TOWNNAME":"新市區","LI":"豐華里","LIN":"7鄰","STREET":" ","SECT":" ","MAREA":"豐華","LANE":" ","ALLEY":" ","HOUSE_NO":"５６號","E_COORD97":175188.67999999999,"N_COORD97":2553989.25,"ADDRESS":"豐華５６號","OBJECTID":38221},"geometry":{"x":175188.6799999997,"y":2553989.25}},{"attributes":{"ID":38222,"DIS_CODE":0,"TOWNNAME":"新市區","LI":"大洲里","LIN":"7鄰","STREET":" ","SECT":" ","MAREA":"大洲","LANE":" ","ALLEY":" ","HOUSE_NO":"６２之６號","E_COORD97":173091.23999999999,"N_COORD97":2552426.0499999998,"ADDRESS":"大洲６２之６號","OBJECTID":38222},"geometry":{"x":173091.24000000115,"y":2552426.0500000045}},{"attributes":{"ID":38223,"DIS_CODE":0,"TOWNNAME":"新市區","LI":"社內里","LIN":"7鄰","STREET":" ","SECT":" ","MAREA":"社內","LANE":" ","ALLEY":" ","HOUSE_NO":"７２之６號","E_COORD97":176561.60999999999,"N_COORD97":2552863.5499999998,"ADDRESS":"社內７２之６號","OBJECTID":38223},"geometry":{"x":176561.6099999994,"y":2552863.5500000045}},{"attributes":{"ID":38224,"DIS_CODE":0,"TOWNNAME":"仁德區","LI":"新田里","LIN":"7鄰","STREET":"新田路","SECT":" ","MAREA":" ","LANE":"２巷","ALLEY":"１弄","HOUSE_NO":"５號","E_COORD97":174432.76999999999,"N_COORD97":2538897.4900000002,"ADDRESS":"新田路２巷１弄５號","OBJECTID":38224},"geometry":{"x":174432.77000000048,"y":2538897.4900000002}},{"attributes":{"ID":38225,"DIS_CODE":0,"TOWNNAME":"仁德區","LI":"新田里","LIN":"7鄰","STREET":"新田路","SECT":" ","MAREA":" ","LANE":"２巷","ALLEY":"１弄","HOUSE_NO":"２３號","E_COORD97":174476.14999999999,"N_COORD97":2538898.9900000002,"ADDRESS":"新田路２巷１弄２３號","OBJECTID":38225},"geometry":{"x":174476.15000000037,"y":2538898.9900000021}},{"attributes":{"ID":38226,"DIS_CODE":0,"TOWNNAME":"仁德區","LI":"新田里","LIN":"7鄰","STREET":"新田路","SECT":" ","MAREA":" ","LANE":"２巷","ALLEY":"１弄","HOUSE_NO":"１９號","E_COORD97":174467.88,"N_COORD97":2538898.4900000002,"ADDRESS":"新田路２巷１弄１９號","OBJECTID":38226},"geometry":{"x":174467.88000000082,"y":2538898.4900000039}},{"attributes":{"ID":38227,"DIS_CODE":0,"TOWNNAME":"仁德區","LI":"新田里","LIN":"7鄰","STREET":"新田路","SECT":" ","MAREA":" ","LANE":"２巷","ALLEY":"１弄","HOUSE_NO":"４８號","E_COORD97":174567.17999999999,"N_COORD97":2538907.2400000002,"ADDRESS":"新田路２巷１弄４８號","OBJECTID":38227},"geometry":{"x":174567.18000000063,"y":2538907.2400000021}},{"attributes":{"ID":38228,"DIS_CODE":0,"TOWNNAME":"仁德區","LI":"新田里","LIN":"7鄰","STREET":"新田路","SECT":" ","MAREA":" ","LANE":"２巷","ALLEY":"１弄","HOUSE_NO":"７號","E_COORD97":174436.04000000001,"N_COORD97":2538898.9900000002,"ADDRESS":"新田路２巷１弄７號","OBJECTID":38228},"geometry":{"x":174436.03999999911,"y":2538898.9900000021}},{"attributes":{"ID":38229,"DIS_CODE":0,"TOWNNAME":"仁德區","LI":"新田里","LIN":"7鄰","STREET":"新田路","SECT":" ","MAREA":" ","LANE":"２巷","ALLEY":"１弄","HOUSE_NO":"２號","E_COORD97":174418.26999999999,"N_COORD97":2538845.75,"ADDRESS":"新田路２巷１弄２號","OBJECTID":38229},"geometry":{"x":174418.26999999955,"y":2538845.7500000019}},{"attributes":{"ID":38230,"DIS_CODE":0,"TOWNNAME":"新市區","LI":"新和里","LIN":"7鄰","STREET":"富強路","SECT":" ","MAREA":" ","LANE":"５１巷","ALLEY":"２弄","HOUSE_NO":"１１號","E_COORD97":177259.38,"N_COORD97":2552366.75,"ADDRESS":"富強路５１巷２弄１１號","OBJECTID":38230},"geometry":{"x":177259.37999999989,"y":2552366.7500000019}},{"attributes":{"ID":38231,"DIS_CODE":0,"TOWNNAME":"安南區","LI":"四草里","LIN":"8鄰","STREET":"四草大道","SECT":" ","MAREA":" ","LANE":"８１巷","ALLEY":"４０１弄","HOUSE_NO":"８號","E_COORD97":160777.747171,"N_COORD97":2545117.3830300001,"ADDRESS":"四草大道８１巷４０１弄８號","OBJECTID":38231},"geometry":{"x":160777.74717100058,"y":2545117.383028999}},{"attributes":{"ID":38232,"DIS_CODE":0,"TOWNNAME":"新市區","LI":"新和里","LIN":"7鄰","STREET":"富強路","SECT":" ","MAREA":" ","LANE":"５１巷","ALLEY":"２弄","HOUSE_NO":"１２號","E_COORD97":177256.17000000001,"N_COORD97":2552376.75,"ADDRESS":"富強路５１巷２弄１２號","OBJECTID":38232},"geometry":{"x":177256.17000000086,"y":2552376.7500000019}},{"attributes":{"ID":38233,"DIS_CODE":0,"TOWNNAME":"永康區","LI":"王行里","LIN":"7鄰","STREET":"王行路","SECT":" ","MAREA":" ","LANE":"３５１巷","ALLEY":"７０弄","HOUSE_NO":"２號","E_COORD97":175355.76000000001,"N_COORD97":2548676.9900000002,"ADDRESS":"王行路３５１巷７０弄２號","OBJECTID":38233},"geometry":{"x":175355.75999999978,"y":2548676.9900000021}},{"attributes":{"ID":38234,"DIS_CODE":0,"TOWNNAME":"新市區","LI":"新和里","LIN":"7鄰","STREET":"富強路","SECT":" ","MAREA":" ","LANE":"５１巷","ALLEY":"２弄","HOUSE_NO":"５號","E_COORD97":177274.88,"N_COORD97":2552371.25,"ADDRESS":"富強路５１巷２弄５號","OBJECTID":38234},"geometry":{"x":177274.88000000175,"y":2552371.2500000019}},{"attributes":{"ID":38235,"DIS_CODE":0,"TOWNNAME":"新市區","LI":"社內里","LIN":"7鄰","STREET":" ","SECT":" ","MAREA":"社內","LANE":" ","ALLEY":" ","HOUSE_NO":"７４之３號","E_COORD97":176683.29000000001,"N_COORD97":2552907.7999999998,"ADDRESS":"社內７４之３號","OBJECTID":38235},"geometry":{"x":176683.29000000004,"y":2552907.8000000007}},{"attributes":{"ID":38236,"DIS_CODE":0,"TOWNNAME":"下營區","LI":"賀建里","LIN":"7鄰","STREET":" ","SECT":" ","MAREA":"麻豆寮","LANE":" ","ALLEY":" ","HOUSE_NO":"７６號","E_COORD97":178070.28,"N_COORD97":2572501.1899999999,"ADDRESS":"麻豆寮７６號","OBJECTID":38236},"geometry":{"x":178070.28000000026,"y":2572501.1899999995}},{"attributes":{"ID":38237,"DIS_CODE":0,"TOWNNAME":"新市區","LI":"新和里","LIN":"7鄰","STREET":"富強路","SECT":" ","MAREA":" ","LANE":"５１巷","ALLEY":"２弄","HOUSE_NO":"７號","E_COORD97":177269.48000000001,"N_COORD97":2552370,"ADDRESS":"富強路５１巷２弄７號","OBJECTID":38237},"geometry":{"x":177269.47999999952,"y":2552370}},{"attributes":{"ID":38238,"DIS_CODE":0,"TOWNNAME":"新市區","LI":"新和里","LIN":"7鄰","STREET":"富強路","SECT":" ","MAREA":" ","LANE":"５１巷","ALLEY":"２弄","HOUSE_NO":"９號","E_COORD97":177263.92999999999,"N_COORD97":2552368.25,"ADDRESS":"富強路５１巷２弄９號","OBJECTID":38238},"geometry":{"x":177263.9299999997,"y":2552368.25}},{"attributes":{"ID":38239,"DIS_CODE":0,"TOWNNAME":"東區","LI":"富強里","LIN":"7鄰","STREET":"中華東路","SECT":"二段","MAREA":" ","LANE":"４８巷","ALLEY":"２５弄","HOUSE_NO":"３２之１號","E_COORD97":171277.63,"N_COORD97":2542915.1699999999,"ADDRESS":"中華東路二段４８巷２５弄３２之１號","OBJECTID":38239},"geometry":{"x":171277.63000000082,"y":2542915.1700000018}},{"attributes":{"ID":38240,"DIS_CODE":0,"TOWNNAME":"永康區","LI":"西灣里","LIN":"7鄰","STREET":"大灣五街","SECT":" ","MAREA":" ","LANE":"９３巷","ALLEY":"８１弄","HOUSE_NO":"１號","E_COORD97":174559.63,"N_COORD97":2545160.0299999998,"ADDRESS":"大灣五街９３巷８１弄１號","OBJECTID":38240},"geometry":{"x":174559.63000000082,"y":2545160.0300000012}},{"attributes":{"ID":38241,"DIS_CODE":0,"TOWNNAME":"下營區","LI":"賀建里","LIN":"7鄰","STREET":" ","SECT":" ","MAREA":"麻豆寮","LANE":" ","ALLEY":" ","HOUSE_NO":"７８號之１０","E_COORD97":178146.95999999999,"N_COORD97":2572681.3399999999,"ADDRESS":"麻豆寮７８號之１０","OBJECTID":38241},"geometry":{"x":178146.95999999996,"y":2572681.3400000017}},{"attributes":{"ID":38242,"DIS_CODE":0,"TOWNNAME":"下營區","LI":"賀建里","LIN":"7鄰","STREET":" ","SECT":" ","MAREA":"麻豆寮","LANE":" ","ALLEY":" ","HOUSE_NO":"７８號之１１","E_COORD97":178146.81,"N_COORD97":2572676.9900000002,"ADDRESS":"麻豆寮７８號之１１","OBJECTID":38242},"geometry":{"x":178146.81000000052,"y":2572676.9900000021}},{"attributes":{"ID":38243,"DIS_CODE":0,"TOWNNAME":"永康區","LI":"西灣里","LIN":"7鄰","STREET":"大灣五街","SECT":" ","MAREA":" ","LANE":"９３巷","ALLEY":"８１弄","HOUSE_NO":"３號","E_COORD97":174559.07999999999,"N_COORD97":2545155.5,"ADDRESS":"大灣五街９３巷８１弄３號","OBJECTID":38243},"geometry":{"x":174559.08000000007,"y":2545155.5}},{"attributes":{"ID":38244,"DIS_CODE":0,"TOWNNAME":"永康區","LI":"西灣里","LIN":"7鄰","STREET":"大灣五街","SECT":" ","MAREA":" ","LANE":"９３巷","ALLEY":"８１弄","HOUSE_NO":"５號","E_COORD97":174557.04000000001,"N_COORD97":2545151.6299999999,"ADDRESS":"大灣五街９３巷８１弄５號","OBJECTID":38244},"geometry":{"x":174557.04000000097,"y":2545151.6300000008}},{"attributes":{"ID":38245,"DIS_CODE":0,"TOWNNAME":"永康區","LI":"西灣里","LIN":"7鄰","STREET":"大灣五街","SECT":" ","MAREA":" ","LANE":"９３巷","ALLEY":"８１弄","HOUSE_NO":"７號","E_COORD97":174555.53,"N_COORD97":2545147.4199999999,"ADDRESS":"大灣五街９３巷８１弄７號","OBJECTID":38245},"geometry":{"x":174555.53000000119,"y":2545147.4200000018}},{"attributes":{"ID":38246,"DIS_CODE":0,"TOWNNAME":"永康區","LI":"龍潭里","LIN":"14鄰","STREET":"龍埔街","SECT":" ","MAREA":" ","LANE":" ","ALLEY":" ","HOUSE_NO":"１３０號","E_COORD97":174481.73999999999,"N_COORD97":2548272.73,"ADDRESS":"龍埔街１３０號","OBJECTID":38246},"geometry":{"x":174481.74000000022,"y":2548272.7300000023}},{"attributes":{"ID":38247,"DIS_CODE":0,"TOWNNAME":"下營區","LI":"賀建里","LIN":"7鄰","STREET":" ","SECT":" ","MAREA":"麻豆寮","LANE":" ","ALLEY":" ","HOUSE_NO":"７８號之１４","E_COORD97":178129.85000000001,"N_COORD97":2572680.3500000001,"ADDRESS":"麻豆寮７８號之１４","OBJECTID":38247},"geometry":{"x":178129.85000000056,"y":2572680.3500000034}},{"attributes":{"ID":38248,"DIS_CODE":0,"TOWNNAME":"下營區","LI":"賀建里","LIN":"7鄰","STREET":" ","SECT":" ","MAREA":"麻豆寮","LANE":" ","ALLEY":" ","HOUSE_NO":"７８號之１５","E_COORD97":178129.06,"N_COORD97":2572688.29,"ADDRESS":"麻豆寮７８號之１５","OBJECTID":38248},"geometry":{"x":178129.05999999959,"y":2572688.290000001}},{"attributes":{"ID":38249,"DIS_CODE":0,"TOWNNAME":"下營區","LI":"賀建里","LIN":"7鄰","STREET":" ","SECT":" ","MAREA":"麻豆寮","LANE":" ","ALLEY":" ","HOUSE_NO":"７８號之１６","E_COORD97":178133.51999999999,"N_COORD97":2572707.5800000001,"ADDRESS":"麻豆寮７８號之１６","OBJECTID":38249},"geometry":{"x":178133.52000000048,"y":2572707.5800000019}},{"attributes":{"ID":38250,"DIS_CODE":0,"TOWNNAME":"永康區","LI":"中興里","LIN":"14鄰","STREET":"中山東路","SECT":" ","MAREA":" ","LANE":" ","ALLEY":" ","HOUSE_NO":"３５３號","E_COORD97":171942.19,"N_COORD97":2545261.6099999999,"ADDRESS":"中山東路３５３號","OBJECTID":38250},"geometry":{"x":171942.19000000134,"y":2545261.6100000013}},{"attributes":{"ID":38251,"DIS_CODE":0,"TOWNNAME":"永康區","LI":"中興里","LIN":"14鄰","STREET":"中山東路","SECT":" ","MAREA":" ","LANE":" ","ALLEY":" ","HOUSE_NO":"３６９號","E_COORD97":171939.84,"N_COORD97":2545208.5600000001,"ADDRESS":"中山東路３６９號","OBJECTID":38251},"geometry":{"x":171939.83999999985,"y":2545208.5600000024}},{"attributes":{"ID":38252,"DIS_CODE":0,"TOWNNAME":"永康區","LI":"東橋里","LIN":"14鄰","STREET":"東橋八街","SECT":" ","MAREA":" ","LANE":" ","ALLEY":" ","HOUSE_NO":"５８號","E_COORD97":171429.44,"N_COORD97":2546774.6000000001,"ADDRESS":"東橋八街５８號","OBJECTID":38252},"geometry":{"x":171429.44000000041,"y":2546774.5999999996}},{"attributes":{"ID":38253,"DIS_CODE":0,"TOWNNAME":"永康區","LI":"龍潭里","LIN":"14鄰","STREET":"龍埔街","SECT":" ","MAREA":" ","LANE":" ","ALLEY":" ","HOUSE_NO":"１１６號","E_COORD97":174508.53,"N_COORD97":2548276.6000000001,"ADDRESS":"龍埔街１１６號","OBJECTID":38253},"geometry":{"x":174508.53000000026,"y":2548276.5999999996}},{"attributes":{"ID":38254,"DIS_CODE":0,"TOWNNAME":"下營區","LI":"賀建里","LIN":"7鄰","STREET":" ","SECT":" ","MAREA":"麻豆寮","LANE":" ","ALLEY":" ","HOUSE_NO":"７８號之１７","E_COORD97":178128.22,"N_COORD97":2572707.6800000002,"ADDRESS":"麻豆寮７８號之１７","OBJECTID":38254},"geometry":{"x":178128.21999999974,"y":2572707.6799999997}},{"attributes":{"ID":38255,"DIS_CODE":0,"TOWNNAME":"下營區","LI":"賀建里","LIN":"7鄰","STREET":" ","SECT":" ","MAREA":"麻豆寮","LANE":" ","ALLEY":" ","HOUSE_NO":"７８號之１","E_COORD97":178120.12,"N_COORD97":2572705.71,"ADDRESS":"麻豆寮７８號之１","OBJECTID":38255},"geometry":{"x":178120.12000000104,"y":2572705.7100000009}},{"attributes":{"ID":38256,"DIS_CODE":0,"TOWNNAME":"下營區","LI":"賀建里","LIN":"7鄰","STREET":" ","SECT":" ","MAREA":"麻豆寮","LANE":" ","ALLEY":" ","HOUSE_NO":"７８號之３","E_COORD97":178177.62,"N_COORD97":2572695.04,"ADDRESS":"麻豆寮７８號之３","OBJECTID":38256},"geometry":{"x":178177.62000000104,"y":2572695.0399999991}},{"attributes":{"ID":38257,"DIS_CODE":0,"TOWNNAME":"永康區","LI":"西灣里","LIN":"7鄰","STREET":"大灣五街","SECT":" ","MAREA":" ","LANE":"９３巷","ALLEY":"８１弄","HOUSE_NO":"９號","E_COORD97":174551.95000000001,"N_COORD97":2545144.3300000001,"ADDRESS":"大灣五街９３巷８１弄９號","OBJECTID":38257},"geometry":{"x":174551.95000000019,"y":2545144.3300000038}},{"attributes":{"ID":38258,"DIS_CODE":0,"TOWNNAME":"永康區","LI":"西灣里","LIN":"7鄰","STREET":"大灣五街","SECT":" ","MAREA":" ","LANE":"９３巷","ALLEY":"８１弄","HOUSE_NO":"１１號","E_COORD97":174550.10000000001,"N_COORD97":2545140.6800000002,"ADDRESS":"大灣五街９３巷８１弄１１號","OBJECTID":38258},"geometry":{"x":174550.09999999963,"y":2545140.6799999997}},{"attributes":{"ID":38259,"DIS_CODE":0,"TOWNNAME":"永康區","LI":"西灣里","LIN":"7鄰","STREET":"大灣五街","SECT":" ","MAREA":" ","LANE":"９３巷","ALLEY":"８１弄","HOUSE_NO":"２號","E_COORD97":174540.23000000001,"N_COORD97":2545172.52,"ADDRESS":"大灣五街９３巷８１弄２號","OBJECTID":38259},"geometry":{"x":174540.22999999952,"y":2545172.5199999996}},{"attributes":{"ID":38260,"DIS_CODE":0,"TOWNNAME":"永康區","LI":"西灣里","LIN":"7鄰","STREET":"大灣五街","SECT":" ","MAREA":" ","LANE":"９３巷","ALLEY":"８１弄","HOUSE_NO":"６號","E_COORD97":174536.56,"N_COORD97":2545169.25,"ADDRESS":"大灣五街９３巷８１弄６號","OBJECTID":38260},"geometry":{"x":174536.55999999959,"y":2545169.2500000019}},{"attributes":{"ID":38261,"DIS_CODE":0,"TOWNNAME":"下營區","LI":"賀建里","LIN":"7鄰","STREET":" ","SECT":" ","MAREA":"麻豆寮","LANE":" ","ALLEY":" ","HOUSE_NO":"７８號之４","E_COORD97":178142.17999999999,"N_COORD97":2572637.7000000002,"ADDRESS":"麻豆寮７８號之４","OBJECTID":38261},"geometry":{"x":178142.18000000156,"y":2572637.7000000011}},{"attributes":{"ID":38262,"DIS_CODE":0,"TOWNNAME":"下營區","LI":"賀建里","LIN":"7鄰","STREET":" ","SECT":" ","MAREA":"麻豆寮","LANE":" ","ALLEY":" ","HOUSE_NO":"７８號之５","E_COORD97":178157.54000000001,"N_COORD97":2572703.73,"ADDRESS":"麻豆寮７８號之５","OBJECTID":38262},"geometry":{"x":178157.54000000097,"y":2572703.7300000023}},{"attributes":{"ID":38263,"DIS_CODE":0,"TOWNNAME":"下營區","LI":"賀建里","LIN":"7鄰","STREET":" ","SECT":" ","MAREA":"麻豆寮","LANE":" ","ALLEY":" ","HOUSE_NO":"７８號之６","E_COORD97":178153.23999999999,"N_COORD97":2572704.23,"ADDRESS":"麻豆寮７８號之６","OBJECTID":38263},"geometry":{"x":178153.24000000115,"y":2572704.2300000004}},{"attributes":{"ID":38264,"DIS_CODE":0,"TOWNNAME":"永康區","LI":"西灣里","LIN":"7鄰","STREET":"大灣五街","SECT":" ","MAREA":" ","LANE":"９３巷","ALLEY":"８１弄","HOUSE_NO":"８號","E_COORD97":174534.20999999999,"N_COORD97":2545165.5600000001,"ADDRESS":"大灣五街９３巷８１弄８號","OBJECTID":38264},"geometry":{"x":174534.20999999996,"y":2545165.5600000005}},{"attributes":{"ID":38265,"DIS_CODE":0,"TOWNNAME":"永康區","LI":"西灣里","LIN":"7鄰","STREET":"大灣五街","SECT":" ","MAREA":" ","LANE":"９３巷","ALLEY":"８１弄","HOUSE_NO":"１０號","E_COORD97":174531.85999999999,"N_COORD97":2545161.8700000001,"ADDRESS":"大灣五街９３巷８１弄１０號","OBJECTID":38265},"geometry":{"x":174531.86000000034,"y":2545161.8699999992}},{"attributes":{"ID":38266,"DIS_CODE":0,"TOWNNAME":"永康區","LI":"西灣里","LIN":"7鄰","STREET":"大灣五街","SECT":" ","MAREA":" ","LANE":"９３巷","ALLEY":"８１弄","HOUSE_NO":"１２號","E_COORD97":174529.60000000001,"N_COORD97":2545158.3199999998,"ADDRESS":"大灣五街９３巷８１弄１２號","OBJECTID":38266},"geometry":{"x":174529.59999999963,"y":2545158.320000004}},{"attributes":{"ID":38267,"DIS_CODE":0,"TOWNNAME":"永康區","LI":"西灣里","LIN":"7鄰","STREET":"大灣五街","SECT":" ","MAREA":" ","LANE":"９３巷","ALLEY":"８１弄","HOUSE_NO":"１６號","E_COORD97":174528.98999999999,"N_COORD97":2545152.79,"ADDRESS":"大灣五街９３巷８１弄１６號","OBJECTID":38267},"geometry":{"x":174528.99000000115,"y":2545152.7899999991}},{"attributes":{"ID":38268,"DIS_CODE":0,"TOWNNAME":"安南區","LI":"青草里","LIN":"7鄰","STREET":"青砂街","SECT":"二段","MAREA":" ","LANE":"４５５巷","ALLEY":"１５４弄","HOUSE_NO":"６２號之１０","E_COORD97":158808.70999999999,"N_COORD97":2552539.1499999999,"ADDRESS":"青砂街二段４５５巷１５４弄６２號之１０","OBJECTID":38268},"geometry":{"x":158808.71000000183,"y":2552539.1500000004}},{"attributes":{"ID":38269,"DIS_CODE":0,"TOWNNAME":"安南區","LI":"學東里","LIN":"7鄰","STREET":"公學路","SECT":"六段","MAREA":" ","LANE":"４６９巷","ALLEY":"２７弄","HOUSE_NO":"５１號","E_COORD97":162680.73000000001,"N_COORD97":2553015.0099999998,"ADDRESS":"公學路六段４６９巷２７弄５１號","OBJECTID":38269},"geometry":{"x":162680.72999999952,"y":2553015.0099999979}},{"attributes":{"ID":38270,"DIS_CODE":0,"TOWNNAME":"安南區","LI":"學東里","LIN":"7鄰","STREET":"公學路","SECT":"六段","MAREA":" ","LANE":"４６９巷","ALLEY":"２７弄","HOUSE_NO":"５３號","E_COORD97":162685,"N_COORD97":2553012.3999999999,"ADDRESS":"公學路六段４６９巷２７弄５３號","OBJECTID":38270},"geometry":{"x":162685,"y":2553012.4000000004}},{"attributes":{"ID":38271,"DIS_CODE":0,"TOWNNAME":"安南區","LI":"學東里","LIN":"7鄰","STREET":"公學路","SECT":"六段","MAREA":" ","LANE":"４６９巷","ALLEY":"２７弄","HOUSE_NO":"５５號","E_COORD97":162689.26999999999,"N_COORD97":2553011.6899999999,"ADDRESS":"公學路六段４６９巷２７弄５５號","OBJECTID":38271},"geometry":{"x":162689.26999999955,"y":2553011.6900000013}},{"attributes":{"ID":38272,"DIS_CODE":0,"TOWNNAME":"安南區","LI":"學東里","LIN":"7鄰","STREET":"公學路","SECT":"六段","MAREA":" ","LANE":"４６９巷","ALLEY":"２７弄","HOUSE_NO":"５７號","E_COORD97":162696.14000000001,"N_COORD97":2553011.6899999999,"ADDRESS":"公學路六段４６９巷２７弄５７號","OBJECTID":38272},"geometry":{"x":162696.1400000006,"y":2553011.6900000013}},{"attributes":{"ID":38273,"DIS_CODE":0,"TOWNNAME":"下營區","LI":"賀建里","LIN":"7鄰","STREET":" ","SECT":" ","MAREA":"麻豆寮","LANE":" ","ALLEY":" ","HOUSE_NO":"７８號之７","E_COORD97":178149.29999999999,"N_COORD97":2572704.8700000001,"ADDRESS":"麻豆寮７８號之７","OBJECTID":38273},"geometry":{"x":178149.29999999981,"y":2572704.870000001}},{"attributes":{"ID":38274,"DIS_CODE":0,"TOWNNAME":"安南區","LI":"新順里","LIN":"7鄰","STREET":"北安路","SECT":"三段","MAREA":" ","LANE":"７４５巷","ALLEY":"４２弄","HOUSE_NO":"３６號","E_COORD97":169198.13,"N_COORD97":2550059.71,"ADDRESS":"北安路三段７４５巷４２弄３６號","OBJECTID":38274},"geometry":{"x":169198.12999999989,"y":2550059.7100000028}},{"attributes":{"ID":38275,"DIS_CODE":0,"TOWNNAME":"下營區","LI":"賀建里","LIN":"7鄰","STREET":" ","SECT":" ","MAREA":"麻豆寮","LANE":" ","ALLEY":" ","HOUSE_NO":"７８號之８","E_COORD97":178144.39000000001,"N_COORD97":2572705.1600000001,"ADDRESS":"麻豆寮７８號之８","OBJECTID":38275},"geometry":{"x":178144.3900000006,"y":2572705.1600000001}},{"attributes":{"ID":38276,"DIS_CODE":0,"TOWNNAME":"安南區","LI":"新順里","LIN":"7鄰","STREET":"北安路","SECT":"三段","MAREA":" ","LANE":"７４５巷","ALLEY":"４２弄","HOUSE_NO":"４２號","E_COORD97":169212.64999999999,"N_COORD97":2550086.4399999999,"ADDRESS":"北安路三段７４５巷４２弄４２號","OBJECTID":38276},"geometry":{"x":169212.65000000037,"y":2550086.4400000013}},{"attributes":{"ID":38277,"DIS_CODE":0,"TOWNNAME":"下營區","LI":"賀建里","LIN":"7鄰","STREET":" ","SECT":" ","MAREA":"麻豆寮","LANE":" ","ALLEY":" ","HOUSE_NO":"７８號之９","E_COORD97":178146.87,"N_COORD97":2572686.5499999998,"ADDRESS":"麻豆寮７８號之９","OBJECTID":38277},"geometry":{"x":178146.87000000104,"y":2572686.5500000007}},{"attributes":{"ID":38278,"DIS_CODE":0,"TOWNNAME":"永康區","LI":"西勢里","LIN":"7鄰","STREET":"富強路","SECT":"一段","MAREA":" ","LANE":"２７９巷","ALLEY":"３１弄","HOUSE_NO":"１０號","E_COORD97":175567.98000000001,"N_COORD97":2546610.8900000001,"ADDRESS":"富強路一段２７９巷３１弄１０號","OBJECTID":38278},"geometry":{"x":175567.98000000138,"y":2546610.8900000006}},{"attributes":{"ID":38279,"DIS_CODE":0,"TOWNNAME":"永康區","LI":"永康里","LIN":"7鄰","STREET":"中山南路","SECT":" ","MAREA":" ","LANE":"１１１６巷","ALLEY":"１５弄","HOUSE_NO":"１號","E_COORD97":173912.20999999999,"N_COORD97":2547305.2400000002,"ADDRESS":"中山南路１１１６巷１５弄１號","OBJECTID":38279},"geometry":{"x":173912.20999999996,"y":2547305.2400000021}},{"attributes":{"ID":38280,"DIS_CODE":0,"TOWNNAME":"永康區","LI":"中興里","LIN":"14鄰","STREET":"中山東路","SECT":" ","MAREA":" ","LANE":" ","ALLEY":" ","HOUSE_NO":"３５５號","E_COORD97":171936.79999999999,"N_COORD97":2545246.8399999999,"ADDRESS":"中山東路３５５號","OBJECTID":38280},"geometry":{"x":171936.79999999981,"y":2545246.8400000017}},{"attributes":{"ID":38281,"DIS_CODE":0,"TOWNNAME":"安平區","LI":"港仔里","LIN":"19鄰","STREET":"古堡街","SECT":" ","MAREA":" ","LANE":" ","ALLEY":" ","HOUSE_NO":"３號","E_COORD97":164037.09,"N_COORD97":2544466.6800000002,"ADDRESS":"古堡街３號","OBJECTID":38281},"geometry":{"x":164037.08999999985,"y":2544466.6799999978}},{"attributes":{"ID":38282,"DIS_CODE":0,"TOWNNAME":"六甲區","LI":"六甲里","LIN":"25鄰","STREET":"民權街","SECT":" ","MAREA":" ","LANE":" ","ALLEY":" ","HOUSE_NO":"７８號","E_COORD97":183330.70000000001,"N_COORD97":2569679.25,"ADDRESS":"民權街７８號","OBJECTID":38282},"geometry":{"x":183330.70000000019,"y":2569679.25}},{"attributes":{"ID":38283,"DIS_CODE":0,"TOWNNAME":"永康區","LI":"中興里","LIN":"14鄰","STREET":"中山東路","SECT":" ","MAREA":" ","LANE":" ","ALLEY":" ","HOUSE_NO":"３５７號","E_COORD97":171930.64999999999,"N_COORD97":2545241.0299999998,"ADDRESS":"中山東路３５７號","OBJECTID":38283},"geometry":{"x":171930.6500000013,"y":2545241.0300000012}},{"attributes":{"ID":38284,"DIS_CODE":0,"TOWNNAME":"永康區","LI":"東橋里","LIN":"14鄰","STREET":"東橋一路","SECT":" ","MAREA":" ","LANE":" ","ALLEY":" ","HOUSE_NO":"２５２號","E_COORD97":171427.29999999999,"N_COORD97":2546625.1099999999,"ADDRESS":"東橋一路２５２號","OBJECTID":38284},"geometry":{"x":171427.30000000075,"y":2546625.1099999994}},{"attributes":{"ID":38285,"DIS_CODE":0,"TOWNNAME":"永康區","LI":"中興里","LIN":"14鄰","STREET":"中山東路","SECT":" ","MAREA":" ","LANE":" ","ALLEY":" ","HOUSE_NO":"３５９號","E_COORD97":171929.5,"N_COORD97":2545234.6499999999,"ADDRESS":"中山東路３５９號","OBJECTID":38285},"geometry":{"x":171929.50000000093,"y":2545234.6500000022}},{"attributes":{"ID":38286,"DIS_CODE":0,"TOWNNAME":"下營區","LI":"賀建里","LIN":"7鄰","STREET":" ","SECT":" ","MAREA":"麻豆寮","LANE":" ","ALLEY":" ","HOUSE_NO":"８１號之１","E_COORD97":178170.70999999999,"N_COORD97":2572448.2999999998,"ADDRESS":"麻豆寮８１號之１","OBJECTID":38286},"geometry":{"x":178170.70999999996,"y":2572448.3000000026}},{"attributes":{"ID":38287,"DIS_CODE":0,"TOWNNAME":"下營區","LI":"賀建里","LIN":"7鄰","STREET":" ","SECT":" ","MAREA":"麻豆寮","LANE":" ","ALLEY":" ","HOUSE_NO":"８１號","E_COORD97":178135.59,"N_COORD97":2572452.02,"ADDRESS":"麻豆寮８１號","OBJECTID":38287},"geometry":{"x":178135.58999999985,"y":2572452.0200000033}},{"attributes":{"ID":38288,"DIS_CODE":0,"TOWNNAME":"永康區","LI":"甲頂里","LIN":"7鄰","STREET":"中正南路","SECT":" ","MAREA":" ","LANE":"５２巷","ALLEY":"７１弄","HOUSE_NO":"４２號","E_COORD97":169902.92999999999,"N_COORD97":2546857.3799999999,"ADDRESS":"中正南路５２巷７１弄４２號","OBJECTID":38288},"geometry":{"x":169902.9299999997,"y":2546857.379999999}},{"attributes":{"ID":38289,"DIS_CODE":0,"TOWNNAME":"下營區","LI":"賀建里","LIN":"7鄰","STREET":" ","SECT":" ","MAREA":"麻豆寮","LANE":" ","ALLEY":" ","HOUSE_NO":"８２號之１","E_COORD97":178151.76999999999,"N_COORD97":2572431.5299999998,"ADDRESS":"麻豆寮８２號之１","OBJECTID":38289},"geometry":{"x":178151.77000000048,"y":2572431.5300000031}},{"attributes":{"ID":38290,"DIS_CODE":0,"TOWNNAME":"下營區","LI":"賀建里","LIN":"7鄰","STREET":" ","SECT":" ","MAREA":"麻豆寮","LANE":" ","ALLEY":" ","HOUSE_NO":"８２號","E_COORD97":178188.48000000001,"N_COORD97":2572411.0099999998,"ADDRESS":"麻豆寮８２號","OBJECTID":38290},"geometry":{"x":178188.48000000231,"y":2572411.0099999998}},{"attributes":{"ID":38291,"DIS_CODE":0,"TOWNNAME":"下營區","LI":"賀建里","LIN":"7鄰","STREET":" ","SECT":" ","MAREA":"麻豆寮","LANE":" ","ALLEY":" ","HOUSE_NO":"８３號","E_COORD97":178131.48999999999,"N_COORD97":2572424.0800000001,"ADDRESS":"麻豆寮８３號","OBJECTID":38291},"geometry":{"x":178131.49000000022,"y":2572424.0800000001}},{"attributes":{"ID":38292,"DIS_CODE":0,"TOWNNAME":"永康區","LI":"西勢里","LIN":"7鄰","STREET":"富強路","SECT":"一段","MAREA":" ","LANE":"２７９巷","ALLEY":"１３弄","HOUSE_NO":"３號","E_COORD97":175637.60000000001,"N_COORD97":2546597.3700000001,"ADDRESS":"富強路一段２７９巷１３弄３號","OBJECTID":38292},"geometry":{"x":175637.60000000056,"y":2546597.3700000029}},{"attributes":{"ID":38293,"DIS_CODE":0,"TOWNNAME":"永康區","LI":"甲頂里","LIN":"7鄰","STREET":"中正南路","SECT":" ","MAREA":" ","LANE":"５２巷","ALLEY":"７１弄","HOUSE_NO":"９號","E_COORD97":169907.67000000001,"N_COORD97":2546827.3300000001,"ADDRESS":"中正南路５２巷７１弄９號","OBJECTID":38293},"geometry":{"x":169907.67000000086,"y":2546827.3300000019}},{"attributes":{"ID":38294,"DIS_CODE":0,"TOWNNAME":"安南區","LI":"溪心里","LIN":"7鄰","STREET":"本原街","SECT":"二段","MAREA":" ","LANE":"１０６巷","ALLEY":"２３弄","HOUSE_NO":"２５號","E_COORD97":166772.45999999999,"N_COORD97":2550831.6099999999,"ADDRESS":"本原街二段１０６巷２３弄２５號","OBJECTID":38294},"geometry":{"x":166772.45999999996,"y":2550831.6100000013}},{"attributes":{"ID":38295,"DIS_CODE":0,"TOWNNAME":"安南區","LI":"溪心里","LIN":"7鄰","STREET":"本原街","SECT":"二段","MAREA":" ","LANE":"１０６巷","ALLEY":"２３弄","HOUSE_NO":"２７號","E_COORD97":166768.45000000001,"N_COORD97":2550830.9900000002,"ADDRESS":"本原街二段１０６巷２３弄２７號","OBJECTID":38295},"geometry":{"x":166768.45000000112,"y":2550830.9900000002}},{"attributes":{"ID":38296,"DIS_CODE":0,"TOWNNAME":"安南區","LI":"溪心里","LIN":"7鄰","STREET":"本原街","SECT":"二段","MAREA":" ","LANE":"１０６巷","ALLEY":"２３弄","HOUSE_NO":"２９號","E_COORD97":166763.45999999999,"N_COORD97":2550829.7799999998,"ADDRESS":"本原街二段１０６巷２３弄２９號","OBJECTID":38296},"geometry":{"x":166763.45999999996,"y":2550829.7800000031}},{"attributes":{"ID":38297,"DIS_CODE":0,"TOWNNAME":"仁德區","LI":"新田里","LIN":"7鄰","STREET":"新田路","SECT":" ","MAREA":" ","LANE":"２巷","ALLEY":"２弄","HOUSE_NO":"１號","E_COORD97":174405.01000000001,"N_COORD97":2538859.75,"ADDRESS":"新田路２巷２弄１號","OBJECTID":38297},"geometry":{"x":174405.00999999978,"y":2538859.7500000019}},{"attributes":{"ID":38298,"DIS_CODE":0,"TOWNNAME":"仁德區","LI":"新田里","LIN":"7鄰","STREET":"新田路","SECT":" ","MAREA":" ","LANE":"２巷","ALLEY":"１弄","HOUSE_NO":"１１號","E_COORD97":174445.20000000001,"N_COORD97":2538900.4900000002,"ADDRESS":"新田路２巷１弄１１號","OBJECTID":38298},"geometry":{"x":174445.20000000019,"y":2538900.4900000002}},{"attributes":{"ID":38299,"DIS_CODE":0,"TOWNNAME":"仁德區","LI":"新田里","LIN":"7鄰","STREET":"新田路","SECT":" ","MAREA":" ","LANE":"２巷","ALLEY":"１弄","HOUSE_NO":"２９號","E_COORD97":174542.54000000001,"N_COORD97":2538927.9900000002,"ADDRESS":"新田路２巷１弄２９號","OBJECTID":38299},"geometry":{"x":174542.54000000004,"y":2538927.9900000002}},{"attributes":{"ID":38300,"DIS_CODE":0,"TOWNNAME":"仁德區","LI":"新田里","LIN":"7鄰","STREET":"新田路","SECT":" ","MAREA":" ","LANE":"２巷","ALLEY":"１弄","HOUSE_NO":"１５號","E_COORD97":174458.57999999999,"N_COORD97":2538898.7400000002,"ADDRESS":"新田路２巷１弄１５號","OBJECTID":38300},"geometry":{"x":174458.58000000101,"y":2538898.7400000002}},{"attributes":{"ID":38301,"DIS_CODE":0,"TOWNNAME":"仁德區","LI":"新田里","LIN":"7鄰","STREET":"新田路","SECT":" ","MAREA":" ","LANE":"２巷","ALLEY":"１弄","HOUSE_NO":"３號","E_COORD97":174428.35000000001,"N_COORD97":2538897.2400000002,"ADDRESS":"新田路２巷１弄３號","OBJECTID":38301},"geometry":{"x":174428.34999999963,"y":2538897.2400000021}},{"attributes":{"ID":38302,"DIS_CODE":0,"TOWNNAME":"仁德區","LI":"新田里","LIN":"7鄰","STREET":"新田路","SECT":" ","MAREA":" ","LANE":"２巷","ALLEY":"１弄","HOUSE_NO":"２７號","E_COORD97":174543.34,"N_COORD97":2538917.2400000002,"ADDRESS":"新田路２巷１弄２７號","OBJECTID":38302},"geometry":{"x":174543.33999999985,"y":2538917.2400000021}},{"attributes":{"ID":38303,"DIS_CODE":0,"TOWNNAME":"仁德區","LI":"新田里","LIN":"7鄰","STREET":"新田路","SECT":" ","MAREA":" ","LANE":"２巷","ALLEY":"１弄","HOUSE_NO":"４６號","E_COORD97":174538.45999999999,"N_COORD97":2538883,"ADDRESS":"新田路２巷１弄４６號","OBJECTID":38303},"geometry":{"x":174538.46000000089,"y":2538883}},{"attributes":{"ID":38304,"DIS_CODE":0,"TOWNNAME":"永康區","LI":"神洲里","LIN":"15鄰","STREET":"忠孝路","SECT":" ","MAREA":" ","LANE":"７６巷","ALLEY":"４９弄","HOUSE_NO":"８號","E_COORD97":172159.45000000001,"N_COORD97":2544986.48,"ADDRESS":"忠孝路７６巷４９弄８號","OBJECTID":38304},"geometry":{"x":172159.45000000019,"y":2544986.4800000004}},{"attributes":{"ID":38305,"DIS_CODE":0,"TOWNNAME":"安南區","LI":"安慶里","LIN":"7鄰","STREET":"長溪路","SECT":"一段","MAREA":" ","LANE":"１６８巷","ALLEY":"２５０弄","HOUSE_NO":"１０號","E_COORD97":168881,"N_COORD97":2549002.79,"ADDRESS":"長溪路一段１６８巷２５０弄１０號","OBJECTID":38305},"geometry":{"x":168881,"y":2549002.790000001}},{"attributes":{"ID":38306,"DIS_CODE":0,"TOWNNAME":"安南區","LI":"安慶里","LIN":"7鄰","STREET":"長溪路","SECT":"一段","MAREA":" ","LANE":"１６８巷","ALLEY":"２５０弄","HOUSE_NO":"６號","E_COORD97":168893.25,"N_COORD97":2548988.23,"ADDRESS":"長溪路一段１６８巷２５０弄６號","OBJECTID":38306},"geometry":{"x":168893.25000000093,"y":2548988.2300000023}},{"attributes":{"ID":38307,"DIS_CODE":0,"TOWNNAME":"安南區","LI":"安慶里","LIN":"7鄰","STREET":"長溪路","SECT":"一段","MAREA":" ","LANE":"１６８巷","ALLEY":"２５０弄","HOUSE_NO":"７號","E_COORD97":168874.89999999999,"N_COORD97":2548981.4500000002,"ADDRESS":"長溪路一段１６８巷２５０弄７號","OBJECTID":38307},"geometry":{"x":168874.90000000037,"y":2548981.4500000011}},{"attributes":{"ID":38308,"DIS_CODE":0,"TOWNNAME":"新市區","LI":"新和里","LIN":"7鄰","STREET":"富強路","SECT":" ","MAREA":" ","LANE":"５１巷","ALLEY":"２弄","HOUSE_NO":"２號","E_COORD97":177283.42000000001,"N_COORD97":2552384.25,"ADDRESS":"富強路５１巷２弄２號","OBJECTID":38308},"geometry":{"x":177283.42000000086,"y":2552384.2500000019}},{"attributes":{"ID":38309,"DIS_CODE":0,"TOWNNAME":"新市區","LI":"新和里","LIN":"7鄰","STREET":"富強路","SECT":" ","MAREA":" ","LANE":"５１巷","ALLEY":"２弄","HOUSE_NO":"１號","E_COORD97":177286.48000000001,"N_COORD97":2552374.25,"ADDRESS":"富強路５１巷２弄１號","OBJECTID":38309},"geometry":{"x":177286.47999999952,"y":2552374.2500000019}},{"attributes":{"ID":38310,"DIS_CODE":0,"TOWNNAME":"新市區","LI":"新和里","LIN":"7鄰","STREET":"富強路","SECT":" ","MAREA":" ","LANE":"５１巷","ALLEY":"２弄","HOUSE_NO":"４號","E_COORD97":177277.57000000001,"N_COORD97":2552382.75,"ADDRESS":"富強路５１巷２弄４號","OBJECTID":38310},"geometry":{"x":177277.57000000123,"y":2552382.75}},{"attributes":{"ID":38311,"DIS_CODE":0,"TOWNNAME":"安南區","LI":"城西里","LIN":"7鄰","STREET":"城西街","SECT":"三段","MAREA":" ","LANE":"１１０５巷","ALLEY":"１２１弄","HOUSE_NO":"１５０號","E_COORD97":155288.04999999999,"N_COORD97":2549695.8599999999,"ADDRESS":"城西街三段１１０５巷１２１弄１５０號","OBJECTID":38311},"geometry":{"x":155288.04999999981,"y":2549695.8599999994}},{"attributes":{"ID":38312,"DIS_CODE":0,"TOWNNAME":"永康區","LI":"東橋里","LIN":"14鄰","STREET":"東橋八街","SECT":" ","MAREA":" ","LANE":" ","ALLEY":" ","HOUSE_NO":"３２號","E_COORD97":171406.25,"N_COORD97":2546758.52,"ADDRESS":"東橋八街３２號","OBJECTID":38312},"geometry":{"x":171406.25,"y":2546758.5199999996}},{"attributes":{"ID":38313,"DIS_CODE":0,"TOWNNAME":"永康區","LI":"東橋里","LIN":"14鄰","STREET":"東橋八街","SECT":" ","MAREA":" ","LANE":" ","ALLEY":" ","HOUSE_NO":"３０號","E_COORD97":171401.78,"N_COORD97":2546757.73,"ADDRESS":"東橋八街３０號","OBJECTID":38313},"geometry":{"x":171401.78000000026,"y":2546757.7300000004}},{"attributes":{"ID":38314,"DIS_CODE":0,"TOWNNAME":"永康區","LI":"中興里","LIN":"14鄰","STREET":"中山東路","SECT":" ","MAREA":" ","LANE":" ","ALLEY":" ","HOUSE_NO":"３６７號","E_COORD97":171935.09,"N_COORD97":2545212.46,"ADDRESS":"中山東路３６７號","OBJECTID":38314},"geometry":{"x":171935.08999999892,"y":2545212.4600000028}},{"attributes":{"ID":38315,"DIS_CODE":0,"TOWNNAME":"永康區","LI":"龍潭里","LIN":"14鄰","STREET":"龍埔街","SECT":" ","MAREA":" ","LANE":" ","ALLEY":" ","HOUSE_NO":"１１８號","E_COORD97":174504.16,"N_COORD97":2548277.1400000001,"ADDRESS":"龍埔街１１８號","OBJECTID":38315},"geometry":{"x":174504.16000000015,"y":2548277.1400000025}},{"attributes":{"ID":38316,"DIS_CODE":0,"TOWNNAME":"永康區","LI":"東橋里","LIN":"14鄰","STREET":"東橋一路","SECT":" ","MAREA":" ","LANE":" ","ALLEY":" ","HOUSE_NO":"２６６號","E_COORD97":171409.54999999999,"N_COORD97":2546646.6800000002,"ADDRESS":"東橋一路２６６號","OBJECTID":38316},"geometry":{"x":171409.54999999981,"y":2546646.6799999978}},{"attributes":{"ID":38317,"DIS_CODE":0,"TOWNNAME":"永康區","LI":"東橋里","LIN":"14鄰","STREET":"東橋一路","SECT":" ","MAREA":" ","LANE":" ","ALLEY":" ","HOUSE_NO":"２８８號","E_COORD97":171382.35000000001,"N_COORD97":2546684.4300000002,"ADDRESS":"東橋一路２８８號","OBJECTID":38317},"geometry":{"x":171382.35000000149,"y":2546684.4299999997}},{"attributes":{"ID":38318,"DIS_CODE":0,"TOWNNAME":"安南區","LI":"淵中里","LIN":"7鄰","STREET":"安中路","SECT":"四段","MAREA":" ","LANE":"１５４巷","ALLEY":"１３弄","HOUSE_NO":"２號","E_COORD97":164960.53,"N_COORD97":2550116.0800000001,"ADDRESS":"安中路四段１５４巷１３弄２號","OBJECTID":38318},"geometry":{"x":164960.53000000119,"y":2550116.0799999982}},{"attributes":{"ID":38319,"DIS_CODE":0,"TOWNNAME":"安南區","LI":"淵中里","LIN":"7鄰","STREET":"安中路","SECT":"四段","MAREA":" ","LANE":"１５４巷","ALLEY":"１３弄","HOUSE_NO":"６號","E_COORD97":164956.64999999999,"N_COORD97":2550119.77,"ADDRESS":"安中路四段１５４巷１３弄６號","OBJECTID":38319},"geometry":{"x":164956.6500000013,"y":2550119.7699999996}},{"attributes":{"ID":38320,"DIS_CODE":0,"TOWNNAME":"安定區","LI":"大同里","LIN":"14鄰","STREET":" ","SECT":" ","MAREA":"牛肉寮","LANE":" ","ALLEY":" ","HOUSE_NO":"６５之４５號","E_COORD97":170876.75,"N_COORD97":2553435.2400000002,"ADDRESS":"牛肉寮６５之４５號","OBJECTID":38320},"geometry":{"x":170876.75000000093,"y":2553435.2400000021}},{"attributes":{"ID":38321,"DIS_CODE":0,"TOWNNAME":"安定區","LI":"港口里","LIN":"14鄰","STREET":" ","SECT":" ","MAREA":"港口","LANE":" ","ALLEY":" ","HOUSE_NO":"３３２之３０號","E_COORD97":170535.07999999999,"N_COORD97":2554756.8700000001,"ADDRESS":"港口３３２之３０號","OBJECTID":38321},"geometry":{"x":170535.08000000007,"y":2554756.8700000048}},{"attributes":{"ID":38322,"DIS_CODE":0,"TOWNNAME":"安定區","LI":"大同里","LIN":"14鄰","STREET":" ","SECT":" ","MAREA":"牛肉寮","LANE":" ","ALLEY":" ","HOUSE_NO":"６５之４３號","E_COORD97":170969.92999999999,"N_COORD97":2553175.71,"ADDRESS":"牛肉寮６５之４３號","OBJECTID":38322},"geometry":{"x":170969.93000000156,"y":2553175.7100000028}},{"attributes":{"ID":38323,"DIS_CODE":0,"TOWNNAME":"七股區","LI":"七股里","LIN":"14鄰","STREET":" ","SECT":" ","MAREA":"七股","LANE":" ","ALLEY":" ","HOUSE_NO":"１４２號","E_COORD97":161232.59,"N_COORD97":2559396.1099999999,"ADDRESS":"七股１４２號","OBJECTID":38323},"geometry":{"x":161232.59000000078,"y":2559396.1100000013}},{"attributes":{"ID":38324,"DIS_CODE":0,"TOWNNAME":"安南區","LI":"淵中里","LIN":"7鄰","STREET":"安中路","SECT":"四段","MAREA":" ","LANE":"１５４巷","ALLEY":"１３弄","HOUSE_NO":"８號","E_COORD97":164951.70000000001,"N_COORD97":2550123.9100000001,"ADDRESS":"安中路四段１５４巷１３弄８號","OBJECTID":38324},"geometry":{"x":164951.70000000019,"y":2550123.9100000001}},{"attributes":{"ID":38325,"DIS_CODE":0,"TOWNNAME":"安南區","LI":"淵中里","LIN":"7鄰","STREET":"安中路","SECT":"四段","MAREA":" ","LANE":"１５４巷","ALLEY":"１３弄","HOUSE_NO":"１０號","E_COORD97":164948.45000000001,"N_COORD97":2550127.3399999999,"ADDRESS":"安中路四段１５４巷１３弄１０號","OBJECTID":38325},"geometry":{"x":164948.45000000019,"y":2550127.3399999999}},{"attributes":{"ID":38326,"DIS_CODE":0,"TOWNNAME":"安南區","LI":"淵中里","LIN":"7鄰","STREET":"安中路","SECT":"四段","MAREA":" ","LANE":"１５４巷","ALLEY":"１３弄","HOUSE_NO":"１２號","E_COORD97":164944.03,"N_COORD97":2550130.6699999999,"ADDRESS":"安中路四段１５４巷１３弄１２號","OBJECTID":38326},"geometry":{"x":164944.03000000119,"y":2550130.6700000018}},{"attributes":{"ID":38327,"DIS_CODE":0,"TOWNNAME":"安南區","LI":"淵中里","LIN":"7鄰","STREET":"安中路","SECT":"四段","MAREA":" ","LANE":"１５４巷","ALLEY":"１３弄","HOUSE_NO":"１６號","E_COORD97":164940.78,"N_COORD97":2550134,"ADDRESS":"安中路四段１５４巷１３弄１６號","OBJECTID":38327},"geometry":{"x":164940.78000000119,"y":2550134.0000000019}},{"attributes":{"ID":38328,"DIS_CODE":0,"TOWNNAME":"新化區","LI":"協興里","LIN":"4鄰","STREET":"中山路","SECT":" ","MAREA":" ","LANE":" ","ALLEY":" ","HOUSE_NO":"５２０號","E_COORD97":178535.60999999999,"N_COORD97":2548437.25,"ADDRESS":"中山路５２０號","OBJECTID":38328},"geometry":{"x":178535.61000000127,"y":2548437.2500000019}},{"attributes":{"ID":38329,"DIS_CODE":0,"TOWNNAME":"安南區","LI":"淵中里","LIN":"7鄰","STREET":"安中路","SECT":"四段","MAREA":" ","LANE":"１５４巷","ALLEY":"１３弄","HOUSE_NO":"１８號","E_COORD97":164937.34,"N_COORD97":2550136.9199999999,"ADDRESS":"安中路四段１５４巷１３弄１８號","OBJECTID":38329},"geometry":{"x":164937.33999999892,"y":2550136.9199999999}},{"attributes":{"ID":38330,"DIS_CODE":0,"TOWNNAME":"麻豆區","LI":"穀興里","LIN":"14鄰","STREET":"仁愛路","SECT":" ","MAREA":" ","LANE":" ","ALLEY":" ","HOUSE_NO":"８之１號","E_COORD97":172868.04000000001,"N_COORD97":2564760,"ADDRESS":"仁愛路８之１號","OBJECTID":38330},"geometry":{"x":172868.0400000019,"y":2564760.0000000037}},{"attributes":{"ID":38331,"DIS_CODE":0,"TOWNNAME":"新市區","LI":"大營里","LIN":"14鄰","STREET":" ","SECT":" ","MAREA":"大營","LANE":" ","ALLEY":" ","HOUSE_NO":"２６５之５號","E_COORD97":179269.70999999999,"N_COORD97":2555550.2999999998,"ADDRESS":"大營２６５之５號","OBJECTID":38331},"geometry":{"x":179269.71000000089,"y":2555550.3000000045}},{"attributes":{"ID":38332,"DIS_CODE":0,"TOWNNAME":"新化區","LI":"東榮里","LIN":"20鄰","STREET":"民生路","SECT":" ","MAREA":" ","LANE":" ","ALLEY":" ","HOUSE_NO":"４７號之１","E_COORD97":179416.59,"N_COORD97":2548381.2599999998,"ADDRESS":"民生路４７號之１","OBJECTID":38332},"geometry":{"x":179416.59000000078,"y":2548381.2599999998}},{"attributes":{"ID":38333,"DIS_CODE":0,"TOWNNAME":"新化區","LI":"太平里","LIN":"17鄰","STREET":"太平街","SECT":" ","MAREA":" ","LANE":" ","ALLEY":" ","HOUSE_NO":"８９號之１０","E_COORD97":178668.45999999999,"N_COORD97":2548704.2599999998,"ADDRESS":"太平街８９號之１０","OBJECTID":38333},"geometry":{"x":178668.46000000089,"y":2548704.2600000035}},{"attributes":{"ID":38334,"DIS_CODE":0,"TOWNNAME":"新市區","LI":"大營里","LIN":"14鄰","STREET":" ","SECT":" ","MAREA":"大營","LANE":" ","ALLEY":" ","HOUSE_NO":"２５９之１１號","E_COORD97":179271.39999999999,"N_COORD97":2555585.0499999998,"ADDRESS":"大營２５９之１１號","OBJECTID":38334},"geometry":{"x":179271.40000000037,"y":2555585.0500000007}},{"attributes":{"ID":38335,"DIS_CODE":0,"TOWNNAME":"新市區","LI":"大營里","LIN":"14鄰","STREET":" ","SECT":" ","MAREA":"大營","LANE":" ","ALLEY":" ","HOUSE_NO":"２５９之１０號","E_COORD97":179269.95999999999,"N_COORD97":2555589.0499999998,"ADDRESS":"大營２５９之１０號","OBJECTID":38335},"geometry":{"x":179269.96000000089,"y":2555589.0499999989}},{"attributes":{"ID":38336,"DIS_CODE":0,"TOWNNAME":"新市區","LI":"大營里","LIN":"14鄰","STREET":" ","SECT":" ","MAREA":"大營","LANE":" ","ALLEY":" ","HOUSE_NO":"２５７之１號","E_COORD97":179333.87,"N_COORD97":2555584.7999999998,"ADDRESS":"大營２５７之１號","OBJECTID":38336},"geometry":{"x":179333.87000000104,"y":2555584.8000000026}},{"attributes":{"ID":38337,"DIS_CODE":0,"TOWNNAME":"新市區","LI":"大營里","LIN":"14鄰","STREET":" ","SECT":" ","MAREA":"大營","LANE":" ","ALLEY":" ","HOUSE_NO":"２５９之１３號","E_COORD97":179273.57000000001,"N_COORD97":2555577.2999999998,"ADDRESS":"大營２５９之１３號","OBJECTID":38337},"geometry":{"x":179273.5700000003,"y":2555577.3000000045}},{"attributes":{"ID":38338,"DIS_CODE":0,"TOWNNAME":"安南區","LI":"淵中里","LIN":"7鄰","STREET":"安中路","SECT":"四段","MAREA":" ","LANE":"１５４巷","ALLEY":"１３弄","HOUSE_NO":"２０號","E_COORD97":164935.26999999999,"N_COORD97":2550139.7999999998,"ADDRESS":"安中路四段１５４巷１３弄２０號","OBJECTID":38338},"geometry":{"x":164935.26999999955,"y":2550139.8000000026}},{"attributes":{"ID":38339,"DIS_CODE":0,"TOWNNAME":"安南區","LI":"淵中里","LIN":"7鄰","STREET":"安中路","SECT":"四段","MAREA":" ","LANE":"１５４巷","ALLEY":"１３弄","HOUSE_NO":"２２號","E_COORD97":164931.92999999999,"N_COORD97":2550143.04,"ADDRESS":"安中路四段１５４巷１３弄２２號","OBJECTID":38339},"geometry":{"x":164931.93000000063,"y":2550143.040000001}},{"attributes":{"ID":38340,"DIS_CODE":0,"TOWNNAME":"安南區","LI":"淵中里","LIN":"7鄰","STREET":"安中路","SECT":"四段","MAREA":" ","LANE":"１５４巷","ALLEY":"１３弄","HOUSE_NO":"２６號","E_COORD97":164927.97,"N_COORD97":2550146.7400000002,"ADDRESS":"安中路四段１５４巷１３弄２６號","OBJECTID":38340},"geometry":{"x":164927.9700000016,"y":2550146.7400000021}},{"attributes":{"ID":38341,"DIS_CODE":0,"TOWNNAME":"安南區","LI":"淵中里","LIN":"7鄰","STREET":"安中路","SECT":"四段","MAREA":" ","LANE":"１５４巷","ALLEY":"２９弄","HOUSE_NO":"１號","E_COORD97":164982.01999999999,"N_COORD97":2550115.7999999998,"ADDRESS":"安中路四段１５４巷２９弄１號","OBJECTID":38341},"geometry":{"x":164982.02000000048,"y":2550115.8000000026}},{"attributes":{"ID":38342,"DIS_CODE":0,"TOWNNAME":"安南區","LI":"淵中里","LIN":"7鄰","STREET":"安中路","SECT":"四段","MAREA":" ","LANE":"１５４巷","ALLEY":"２９弄","HOUSE_NO":"３號","E_COORD97":164979.48999999999,"N_COORD97":2550118.9500000002,"ADDRESS":"安中路四段１５４巷２９弄３號","OBJECTID":38342},"geometry":{"x":164979.49000000115,"y":2550118.9499999993}},{"attributes":{"ID":38343,"DIS_CODE":0,"TOWNNAME":"安南區","LI":"淵中里","LIN":"7鄰","STREET":"安中路","SECT":"四段","MAREA":" ","LANE":"１５４巷","ALLEY":"２９弄","HOUSE_NO":"５號","E_COORD97":164977.14999999999,"N_COORD97":2550123.8199999998,"ADDRESS":"安中路四段１５４巷２９弄５號","OBJECTID":38343},"geometry":{"x":164977.1500000013,"y":2550123.8200000003}},{"attributes":{"ID":38344,"DIS_CODE":0,"TOWNNAME":"安南區","LI":"淵中里","LIN":"7鄰","STREET":"安中路","SECT":"四段","MAREA":" ","LANE":"１５４巷","ALLEY":"２９弄","HOUSE_NO":"７號","E_COORD97":164974.17000000001,"N_COORD97":2550126.8199999998,"ADDRESS":"安中路四段１５４巷２９弄７號","OBJECTID":38344},"geometry":{"x":164974.16999999899,"y":2550126.8200000003}},{"attributes":{"ID":38345,"DIS_CODE":0,"TOWNNAME":"安南區","LI":"淵中里","LIN":"7鄰","STREET":"安中路","SECT":"四段","MAREA":" ","LANE":"１５４巷","ALLEY":"２９弄","HOUSE_NO":"９號","E_COORD97":164972.35999999999,"N_COORD97":2550130.4199999999,"ADDRESS":"安中路四段１５４巷２９弄９號","OBJECTID":38345},"geometry":{"x":164972.36000000127,"y":2550130.4199999999}},{"attributes":{"ID":38346,"DIS_CODE":0,"TOWNNAME":"安南區","LI":"淵中里","LIN":"7鄰","STREET":"安中路","SECT":"四段","MAREA":" ","LANE":"１５４巷","ALLEY":"２９弄","HOUSE_NO":"１１號","E_COORD97":164969.29999999999,"N_COORD97":2550134.29,"ADDRESS":"安中路四段１５４巷２９弄１１號","OBJECTID":38346},"geometry":{"x":164969.29999999981,"y":2550134.2900000028}},{"attributes":{"ID":38347,"DIS_CODE":0,"TOWNNAME":"安南區","LI":"淵中里","LIN":"7鄰","STREET":"安中路","SECT":"四段","MAREA":" ","LANE":"１５４巷","ALLEY":"２９弄","HOUSE_NO":"１３號","E_COORD97":164967.03,"N_COORD97":2550137.7400000002,"ADDRESS":"安中路四段１５４巷２９弄１３號","OBJECTID":38347},"geometry":{"x":164967.03000000212,"y":2550137.7400000002}},{"attributes":{"ID":38348,"DIS_CODE":0,"TOWNNAME":"安南區","LI":"淵中里","LIN":"7鄰","STREET":"安中路","SECT":"四段","MAREA":" ","LANE":"１５４巷","ALLEY":"２９弄","HOUSE_NO":"１５號","E_COORD97":164964.06,"N_COORD97":2550141.5299999998,"ADDRESS":"安中路四段１５４巷２９弄１５號","OBJECTID":38348},"geometry":{"x":164964.05999999959,"y":2550141.5299999993}},{"attributes":{"ID":38349,"DIS_CODE":0,"TOWNNAME":"安南區","LI":"淵中里","LIN":"7鄰","STREET":"安中路","SECT":"四段","MAREA":" ","LANE":"１５４巷","ALLEY":"２９弄","HOUSE_NO":"１７號","E_COORD97":164961.62,"N_COORD97":2550145.8500000001,"ADDRESS":"安中路四段１５４巷２９弄１７號","OBJECTID":38349},"geometry":{"x":164961.62000000104,"y":2550145.8500000015}},{"attributes":{"ID":38350,"DIS_CODE":0,"TOWNNAME":"安南區","LI":"淵中里","LIN":"7鄰","STREET":"安中路","SECT":"四段","MAREA":" ","LANE":"１５４巷","ALLEY":"２９弄","HOUSE_NO":"１９號","E_COORD97":164958.64000000001,"N_COORD97":2550149.6600000001,"ADDRESS":"安中路四段１５４巷２９弄１９號","OBJECTID":38350},"geometry":{"x":164958.63999999966,"y":2550149.6600000039}},{"attributes":{"ID":38351,"DIS_CODE":0,"TOWNNAME":"東區","LI":"龍山里","LIN":"14鄰","STREET":"崇仁街","SECT":" ","MAREA":" ","LANE":" ","ALLEY":" ","HOUSE_NO":"１２８號","E_COORD97":170545.67000000001,"N_COORD97":2542559.1899999999,"ADDRESS":"崇仁街１２８號","OBJECTID":38351},"geometry":{"x":170545.66999999993,"y":2542559.1900000013}},{"attributes":{"ID":38352,"DIS_CODE":0,"TOWNNAME":"東區","LI":"龍山里","LIN":"14鄰","STREET":"崇仁街","SECT":" ","MAREA":" ","LANE":" ","ALLEY":" ","HOUSE_NO":"１３０號","E_COORD97":170572.88,"N_COORD97":2542561.0800000001,"ADDRESS":"崇仁街１３０號","OBJECTID":38352},"geometry":{"x":170572.87999999989,"y":2542561.0800000001}},{"attributes":{"ID":38353,"DIS_CODE":0,"TOWNNAME":"東區","LI":"龍山里","LIN":"14鄰","STREET":"崇仁街","SECT":" ","MAREA":" ","LANE":" ","ALLEY":" ","HOUSE_NO":"１３２號","E_COORD97":170567.97,"N_COORD97":2542555.79,"ADDRESS":"崇仁街１３２號","OBJECTID":38353},"geometry":{"x":170567.9700000016,"y":2542555.7899999991}},{"attributes":{"ID":38354,"DIS_CODE":0,"TOWNNAME":"東區","LI":"龍山里","LIN":"14鄰","STREET":"崇仁街","SECT":" ","MAREA":" ","LANE":" ","ALLEY":" ","HOUSE_NO":"１３６號","E_COORD97":170563.81,"N_COORD97":2542551.2599999998,"ADDRESS":"崇仁街１３６號","OBJECTID":38354},"geometry":{"x":170563.81000000145,"y":2542551.2600000016}},{"attributes":{"ID":38355,"DIS_CODE":0,"TOWNNAME":"東區","LI":"龍山里","LIN":"14鄰","STREET":"崇仁街","SECT":" ","MAREA":" ","LANE":" ","ALLEY":" ","HOUSE_NO":"１３８號","E_COORD97":170560.03,"N_COORD97":2542547.48,"ADDRESS":"崇仁街１３８號","OBJECTID":38355},"geometry":{"x":170560.03000000119,"y":2542547.4800000023}},{"attributes":{"ID":38356,"DIS_CODE":0,"TOWNNAME":"安南區","LI":"淵中里","LIN":"7鄰","STREET":"安中路","SECT":"四段","MAREA":" ","LANE":"１５４巷","ALLEY":"２９弄","HOUSE_NO":"２１號","E_COORD97":164956.20000000001,"N_COORD97":2550152.9100000001,"ADDRESS":"安中路四段１５４巷２９弄２１號","OBJECTID":38356},"geometry":{"x":164956.20000000112,"y":2550152.910000002}},{"attributes":{"ID":38357,"DIS_CODE":0,"TOWNNAME":"安南區","LI":"淵中里","LIN":"7鄰","STREET":"安中路","SECT":"四段","MAREA":" ","LANE":"１５４巷","ALLEY":"２９弄","HOUSE_NO":"２３號","E_COORD97":164953.95000000001,"N_COORD97":2550156.6899999999,"ADDRESS":"安中路四段１５４巷２９弄２３號","OBJECTID":38357},"geometry":{"x":164953.95000000205,"y":2550156.6900000013}},{"attributes":{"ID":38358,"DIS_CODE":0,"TOWNNAME":"鹽水區","LI":"後宅里","LIN":"7鄰","STREET":" ","SECT":" ","MAREA":"後寮","LANE":" ","ALLEY":" ","HOUSE_NO":"６１號","E_COORD97":173025.54000000001,"N_COORD97":2578723.79,"ADDRESS":"後寮６１號","OBJECTID":38358},"geometry":{"x":173025.54000000004,"y":2578723.7899999991}},{"attributes":{"ID":38359,"DIS_CODE":0,"TOWNNAME":"安南區","LI":"淵中里","LIN":"7鄰","STREET":"安中路","SECT":"四段","MAREA":" ","LANE":"１５４巷","ALLEY":"２９弄","HOUSE_NO":"２５號","E_COORD97":164951.23999999999,"N_COORD97":2550160.6499999999,"ADDRESS":"安中路四段１５４巷２９弄２５號","OBJECTID":38359},"geometry":{"x":164951.24000000022,"y":2550160.6500000022}},{"attributes":{"ID":38360,"DIS_CODE":0,"TOWNNAME":"安南區","LI":"淵中里","LIN":"7鄰","STREET":"安中路","SECT":"四段","MAREA":" ","LANE":"１５４巷","ALLEY":"２９弄","HOUSE_NO":"２７號","E_COORD97":164948.35999999999,"N_COORD97":2550164.5299999998,"ADDRESS":"安中路四段１５４巷２９弄２７號","OBJECTID":38360},"geometry":{"x":164948.36000000127,"y":2550164.5300000012}},{"attributes":{"ID":38361,"DIS_CODE":0,"TOWNNAME":"安南區","LI":"淵中里","LIN":"7鄰","STREET":"安中路","SECT":"四段","MAREA":" ","LANE":"１５４巷","ALLEY":"２９弄","HOUSE_NO":"８號","E_COORD97":164991.20999999999,"N_COORD97":2550139.4700000002,"ADDRESS":"安中路四段１５４巷２９弄８號","OBJECTID":38361},"geometry":{"x":164991.21000000089,"y":2550139.4700000025}},{"attributes":{"ID":38362,"DIS_CODE":0,"TOWNNAME":"安南區","LI":"淵中里","LIN":"7鄰","STREET":"安中路","SECT":"四段","MAREA":" ","LANE":"１５４巷","ALLEY":"２９弄","HOUSE_NO":"１０號","E_COORD97":164989.23000000001,"N_COORD97":2550142.6200000001,"ADDRESS":"安中路四段１５４巷２９弄１０號","OBJECTID":38362},"geometry":{"x":164989.23000000045,"y":2550142.620000001}},{"attributes":{"ID":38363,"DIS_CODE":0,"TOWNNAME":"下營區","LI":"賀建里","LIN":"7鄰","STREET":" ","SECT":" ","MAREA":"麻豆寮","LANE":" ","ALLEY":" ","HOUSE_NO":"８４號","E_COORD97":178101.5,"N_COORD97":2572448.5099999998,"ADDRESS":"麻豆寮８４號","OBJECTID":38363},"geometry":{"x":178101.50000000093,"y":2572448.5099999998}},{"attributes":{"ID":38364,"DIS_CODE":0,"TOWNNAME":"下營區","LI":"賀建里","LIN":"7鄰","STREET":" ","SECT":" ","MAREA":"麻豆寮","LANE":" ","ALLEY":" ","HOUSE_NO":"８５號","E_COORD97":178084.07000000001,"N_COORD97":2572334.5800000001,"ADDRESS":"麻豆寮８５號","OBJECTID":38364},"geometry":{"x":178084.0700000003,"y":2572334.5800000019}},{"attributes":{"ID":38365,"DIS_CODE":0,"TOWNNAME":"將軍區","LI":"長沙里","LIN":"7鄰","STREET":" ","SECT":" ","MAREA":"長沙","LANE":" ","ALLEY":" ","HOUSE_NO":"５５之１號","E_COORD97":157262.94,"N_COORD97":2568622.6299999999,"ADDRESS":"長沙５５之１號","OBJECTID":38365},"geometry":{"x":157262.94000000041,"y":2568622.6299999971}},{"attributes":{"ID":38366,"DIS_CODE":0,"TOWNNAME":"將軍區","LI":"長沙里","LIN":"7鄰","STREET":" ","SECT":" ","MAREA":"長沙","LANE":" ","ALLEY":" ","HOUSE_NO":"５５號","E_COORD97":157274.82000000001,"N_COORD97":2568623.3100000001,"ADDRESS":"長沙５５號","OBJECTID":38366},"geometry":{"x":157274.82000000123,"y":2568623.3100000042}},{"attributes":{"ID":38367,"DIS_CODE":0,"TOWNNAME":"將軍區","LI":"長沙里","LIN":"7鄰","STREET":" ","SECT":" ","MAREA":"長沙","LANE":" ","ALLEY":" ","HOUSE_NO":"５６之１號","E_COORD97":157255.20999999999,"N_COORD97":2568651.5800000001,"ADDRESS":"長沙５６之１號","OBJECTID":38367},"geometry":{"x":157255.20999999996,"y":2568651.5800000038}},{"attributes":{"ID":38368,"DIS_CODE":0,"TOWNNAME":"將軍區","LI":"長沙里","LIN":"7鄰","STREET":" ","SECT":" ","MAREA":"長沙","LANE":" ","ALLEY":" ","HOUSE_NO":"５６之２號","E_COORD97":157259.07999999999,"N_COORD97":2568652.6200000001,"ADDRESS":"長沙５６之２號","OBJECTID":38368},"geometry":{"x":157259.08000000101,"y":2568652.6200000029}},{"attributes":{"ID":38369,"DIS_CODE":0,"TOWNNAME":"將軍區","LI":"長沙里","LIN":"7鄰","STREET":" ","SECT":" ","MAREA":"長沙","LANE":" ","ALLEY":" ","HOUSE_NO":"５６之３號","E_COORD97":157262.62,"N_COORD97":2568653.3900000001,"ADDRESS":"長沙５６之３號","OBJECTID":38369},"geometry":{"x":157262.62000000011,"y":2568653.3900000043}},{"attributes":{"ID":38370,"DIS_CODE":0,"TOWNNAME":"將軍區","LI":"長沙里","LIN":"7鄰","STREET":" ","SECT":" ","MAREA":"長沙","LANE":" ","ALLEY":" ","HOUSE_NO":"５６之４號","E_COORD97":157266.64000000001,"N_COORD97":2568654.3399999999,"ADDRESS":"長沙５６之４號","OBJECTID":38370},"geometry":{"x":157266.6400000006,"y":2568654.3400000017}},{"attributes":{"ID":38371,"DIS_CODE":0,"TOWNNAME":"將軍區","LI":"長沙里","LIN":"7鄰","STREET":" ","SECT":" ","MAREA":"長沙","LANE":" ","ALLEY":" ","HOUSE_NO":"５６號","E_COORD97":157272.17999999999,"N_COORD97":2568635.75,"ADDRESS":"長沙５６號","OBJECTID":38371},"geometry":{"x":157272.1799999997,"y":2568635.75}},{"attributes":{"ID":38372,"DIS_CODE":0,"TOWNNAME":"將軍區","LI":"長沙里","LIN":"7鄰","STREET":" ","SECT":" ","MAREA":"長沙","LANE":" ","ALLEY":" ","HOUSE_NO":"５７號","E_COORD97":157249.13,"N_COORD97":2568628.9500000002,"ADDRESS":"長沙５７號","OBJECTID":38372},"geometry":{"x":157249.12999999989,"y":2568628.9500000011}},{"attributes":{"ID":38373,"DIS_CODE":0,"TOWNNAME":"將軍區","LI":"長沙里","LIN":"7鄰","STREET":" ","SECT":" ","MAREA":"長沙","LANE":" ","ALLEY":" ","HOUSE_NO":"５９號","E_COORD97":157250.04000000001,"N_COORD97":2568620.6699999999,"ADDRESS":"長沙５９號","OBJECTID":38373},"geometry":{"x":157250.04000000004,"y":2568620.6700000018}},{"attributes":{"ID":38374,"DIS_CODE":0,"TOWNNAME":"將軍區","LI":"長沙里","LIN":"7鄰","STREET":" ","SECT":" ","MAREA":"長沙","LANE":" ","ALLEY":" ","HOUSE_NO":"６０號","E_COORD97":157251.32000000001,"N_COORD97":2568608.7400000002,"ADDRESS":"長沙６０號","OBJECTID":38374},"geometry":{"x":157251.3200000003,"y":2568608.7400000002}},{"attributes":{"ID":38375,"DIS_CODE":0,"TOWNNAME":"將軍區","LI":"長沙里","LIN":"7鄰","STREET":" ","SECT":" ","MAREA":"長沙","LANE":" ","ALLEY":" ","HOUSE_NO":"６１之１號","E_COORD97":157261.87,"N_COORD97":2568613.3799999999,"ADDRESS":"長沙６１之１號","OBJECTID":38375},"geometry":{"x":157261.87000000104,"y":2568613.379999999}},{"attributes":{"ID":38376,"DIS_CODE":0,"TOWNNAME":"將軍區","LI":"長沙里","LIN":"7鄰","STREET":" ","SECT":" ","MAREA":"長沙","LANE":" ","ALLEY":" ","HOUSE_NO":"６１之２號","E_COORD97":157265.5,"N_COORD97":2568613.5099999998,"ADDRESS":"長沙６１之２號","OBJECTID":38376},"geometry":{"x":157265.5,"y":2568613.5099999998}},{"attributes":{"ID":38377,"DIS_CODE":0,"TOWNNAME":"將軍區","LI":"長沙里","LIN":"7鄰","STREET":" ","SECT":" ","MAREA":"長沙","LANE":" ","ALLEY":" ","HOUSE_NO":"６２號","E_COORD97":157258.38,"N_COORD97":2568593.29,"ADDRESS":"長沙６２號","OBJECTID":38377},"geometry":{"x":157258.38000000082,"y":2568593.2899999991}},{"attributes":{"ID":38378,"DIS_CODE":0,"TOWNNAME":"六甲區","LI":"中社里","LIN":"7鄰","STREET":" ","SECT":" ","MAREA":"中社","LANE":" ","ALLEY":" ","HOUSE_NO":"３００號","E_COORD97":180933.13,"N_COORD97":2570868.6099999999,"ADDRESS":"中社３００號","OBJECTID":38378},"geometry":{"x":180933.13000000175,"y":2570868.6100000013}},{"attributes":{"ID":38379,"DIS_CODE":0,"TOWNNAME":"柳營區","LI":"神農里","LIN":"7鄰","STREET":" ","SECT":" ","MAREA":"果毅後","LANE":" ","ALLEY":" ","HOUSE_NO":"２８９號之１","E_COORD97":185335.60000000001,"N_COORD97":2572919.4399999999,"ADDRESS":"果毅後２８９號之１","OBJECTID":38379},"geometry":{"x":185335.60000000056,"y":2572919.4399999995}},{"attributes":{"ID":38380,"DIS_CODE":0,"TOWNNAME":"柳營區","LI":"神農里","LIN":"7鄰","STREET":" ","SECT":" ","MAREA":"果毅後","LANE":" ","ALLEY":" ","HOUSE_NO":"２９２號","E_COORD97":185372.89000000001,"N_COORD97":2572949.2200000002,"ADDRESS":"果毅後２９２號","OBJECTID":38380},"geometry":{"x":185372.8900000006,"y":2572949.2200000007}},{"attributes":{"ID":38381,"DIS_CODE":0,"TOWNNAME":"柳營區","LI":"神農里","LIN":"7鄰","STREET":" ","SECT":" ","MAREA":"果毅後","LANE":" ","ALLEY":" ","HOUSE_NO":"２９３號之１","E_COORD97":185372.14999999999,"N_COORD97":2572930.9399999999,"ADDRESS":"果毅後２９３號之１","OBJECTID":38381},"geometry":{"x":185372.1500000013,"y":2572930.9400000013}},{"attributes":{"ID":38382,"DIS_CODE":0,"TOWNNAME":"柳營區","LI":"神農里","LIN":"7鄰","STREET":" ","SECT":" ","MAREA":"果毅後","LANE":" ","ALLEY":" ","HOUSE_NO":"２９４號","E_COORD97":185363.26000000001,"N_COORD97":2572918.8399999999,"ADDRESS":"果毅後２９４號","OBJECTID":38382},"geometry":{"x":185363.26000000164,"y":2572918.8400000017}},{"attributes":{"ID":38383,"DIS_CODE":0,"TOWNNAME":"柳營區","LI":"神農里","LIN":"7鄰","STREET":" ","SECT":" ","MAREA":"果毅後","LANE":" ","ALLEY":" ","HOUSE_NO":"２９５號之１","E_COORD97":185367.42000000001,"N_COORD97":2572897.75,"ADDRESS":"果毅後２９５號之１","OBJECTID":38383},"geometry":{"x":185367.42000000179,"y":2572897.75}},{"attributes":{"ID":38384,"DIS_CODE":0,"TOWNNAME":"柳營區","LI":"神農里","LIN":"7鄰","STREET":" ","SECT":" ","MAREA":"果毅後","LANE":" ","ALLEY":" ","HOUSE_NO":"２９５號之２","E_COORD97":185361.73000000001,"N_COORD97":2572884.4100000001,"ADDRESS":"果毅後２９５號之２","OBJECTID":38384},"geometry":{"x":185361.73000000045,"y":2572884.410000002}},{"attributes":{"ID":38385,"DIS_CODE":0,"TOWNNAME":"柳營區","LI":"神農里","LIN":"7鄰","STREET":" ","SECT":" ","MAREA":"果毅後","LANE":" ","ALLEY":" ","HOUSE_NO":"２９５號之３","E_COORD97":185356.09,"N_COORD97":2572888.8700000001,"ADDRESS":"果毅後２９５號之３","OBJECTID":38385},"geometry":{"x":185356.09000000171,"y":2572888.8700000029}},{"attributes":{"ID":38386,"DIS_CODE":0,"TOWNNAME":"柳營區","LI":"神農里","LIN":"7鄰","STREET":" ","SECT":" ","MAREA":"果毅後","LANE":" ","ALLEY":" ","HOUSE_NO":"２９５號之５","E_COORD97":185329.98000000001,"N_COORD97":2572896.5,"ADDRESS":"果毅後２９５號之５","OBJECTID":38386},"geometry":{"x":185329.98000000045,"y":2572896.4999999981}},{"attributes":{"ID":38387,"DIS_CODE":0,"TOWNNAME":"柳營區","LI":"神農里","LIN":"7鄰","STREET":" ","SECT":" ","MAREA":"果毅後","LANE":" ","ALLEY":" ","HOUSE_NO":"２９５號","E_COORD97":185346.56,"N_COORD97":2572891.8599999999,"ADDRESS":"果毅後２９５號","OBJECTID":38387},"geometry":{"x":185346.56000000052,"y":2572891.8600000013}},{"attributes":{"ID":38388,"DIS_CODE":0,"TOWNNAME":"柳營區","LI":"神農里","LIN":"7鄰","STREET":" ","SECT":" ","MAREA":"果毅後","LANE":" ","ALLEY":" ","HOUSE_NO":"２９８號","E_COORD97":185411.10000000001,"N_COORD97":2572880.5600000001,"ADDRESS":"果毅後２９８號","OBJECTID":38388},"geometry":{"x":185411.09999999963,"y":2572880.5600000024}},{"attributes":{"ID":38389,"DIS_CODE":0,"TOWNNAME":"玉井區","LI":"望明里","LIN":"7鄰","STREET":" ","SECT":" ","MAREA":"望明","LANE":" ","ALLEY":" ","HOUSE_NO":"７５號","E_COORD97":194263.64000000001,"N_COORD97":2556139.2400000002,"ADDRESS":"望明７５號","OBJECTID":38389},"geometry":{"x":194263.64000000153,"y":2556139.2400000002}},{"attributes":{"ID":38390,"DIS_CODE":0,"TOWNNAME":"玉井區","LI":"望明里","LIN":"7鄰","STREET":" ","SECT":" ","MAREA":"望明","LANE":" ","ALLEY":" ","HOUSE_NO":"７５號之１１","E_COORD97":194193.01999999999,"N_COORD97":2556152.2999999998,"ADDRESS":"望明７５號之１１","OBJECTID":38390},"geometry":{"x":194193.01999999955,"y":2556152.3000000007}},{"attributes":{"ID":38391,"DIS_CODE":0,"TOWNNAME":"玉井區","LI":"望明里","LIN":"7鄰","STREET":" ","SECT":" ","MAREA":"望明","LANE":" ","ALLEY":" ","HOUSE_NO":"７０之１號","E_COORD97":194259.04000000001,"N_COORD97":2556163.2999999998,"ADDRESS":"望明７０之１號","OBJECTID":38391},"geometry":{"x":194259.04000000004,"y":2556163.3000000007}},{"attributes":{"ID":38392,"DIS_CODE":0,"TOWNNAME":"安南區","LI":"淵中里","LIN":"7鄰","STREET":"安中路","SECT":"四段","MAREA":" ","LANE":"１５４巷","ALLEY":"２９弄","HOUSE_NO":"１２號","E_COORD97":164987.16,"N_COORD97":2550146.3999999999,"ADDRESS":"安中路四段１５４巷２９弄１２號","OBJECTID":38392},"geometry":{"x":164987.16000000108,"y":2550146.4000000022}},{"attributes":{"ID":38393,"DIS_CODE":0,"TOWNNAME":"安南區","LI":"淵中里","LIN":"7鄰","STREET":"安中路","SECT":"四段","MAREA":" ","LANE":"１５４巷","ALLEY":"２９弄","HOUSE_NO":"１６號","E_COORD97":164983.45999999999,"N_COORD97":2550148.4700000002,"ADDRESS":"安中路四段１５４巷２９弄１６號","OBJECTID":38393},"geometry":{"x":164983.45999999996,"y":2550148.4700000025}},{"attributes":{"ID":38394,"DIS_CODE":0,"TOWNNAME":"安南區","LI":"淵中里","LIN":"7鄰","STREET":"安中路","SECT":"四段","MAREA":" ","LANE":"１５４巷","ALLEY":"２９弄","HOUSE_NO":"１８號","E_COORD97":164980.57000000001,"N_COORD97":2550152.6200000001,"ADDRESS":"安中路四段１５４巷２９弄１８號","OBJECTID":38394},"geometry":{"x":164980.57000000123,"y":2550152.6200000029}},{"attributes":{"ID":38395,"DIS_CODE":0,"TOWNNAME":"安南區","LI":"淵中里","LIN":"7鄰","STREET":"安中路","SECT":"四段","MAREA":" ","LANE":"１５４巷","ALLEY":"２９弄","HOUSE_NO":"２０號","E_COORD97":164977.32999999999,"N_COORD97":2550154.2400000002,"ADDRESS":"安中路四段１５４巷２９弄２０號","OBJECTID":38395},"geometry":{"x":164977.33000000101,"y":2550154.2400000021}},{"attributes":{"ID":38396,"DIS_CODE":0,"TOWNNAME":"安南區","LI":"新順里","LIN":"7鄰","STREET":"北安路","SECT":"三段","MAREA":" ","LANE":"７４５巷","ALLEY":"４２弄","HOUSE_NO":"３６之２０號","E_COORD97":169126.29000000001,"N_COORD97":2550016.4399999999,"ADDRESS":"北安路三段７４５巷４２弄３６之２０號","OBJECTID":38396},"geometry":{"x":169126.29000000004,"y":2550016.4400000013}},{"attributes":{"ID":38397,"DIS_CODE":0,"TOWNNAME":"安南區","LI":"新順里","LIN":"7鄰","STREET":"北安路","SECT":"三段","MAREA":" ","LANE":"７４５巷","ALLEY":"２０弄","HOUSE_NO":"３２號","E_COORD97":169133.73999999999,"N_COORD97":2549932.54,"ADDRESS":"北安路三段７４５巷２０弄３２號","OBJECTID":38397},"geometry":{"x":169133.74000000022,"y":2549932.5400000028}},{"attributes":{"ID":38398,"DIS_CODE":0,"TOWNNAME":"安南區","LI":"新順里","LIN":"7鄰","STREET":"北安路","SECT":"三段","MAREA":" ","LANE":"７４５巷","ALLEY":"２５弄","HOUSE_NO":"１０號","E_COORD97":169077.12,"N_COORD97":2550067.0899999999,"ADDRESS":"北安路三段７４５巷２５弄１０號","OBJECTID":38398},"geometry":{"x":169077.12000000197,"y":2550067.0899999999}},{"attributes":{"ID":38399,"DIS_CODE":0,"TOWNNAME":"安南區","LI":"原佃里","LIN":"7鄰","STREET":"本原街","SECT":"一段","MAREA":" ","LANE":"１９５巷","ALLEY":"８２弄","HOUSE_NO":"２０號","E_COORD97":167590.45999999999,"N_COORD97":2550135.0899999999,"ADDRESS":"本原街一段１９５巷８２弄２０號","OBJECTID":38399},"geometry":{"x":167590.46000000089,"y":2550135.0899999999}},{"attributes":{"ID":38400,"DIS_CODE":0,"TOWNNAME":"安南區","LI":"原佃里","LIN":"7鄰","STREET":"本原街","SECT":"一段","MAREA":" ","LANE":"１９５巷","ALLEY":"８２弄","HOUSE_NO":"２１號","E_COORD97":167484.54000000001,"N_COORD97":2550183.6600000001,"ADDRESS":"本原街一段１９５巷８２弄２１號","OBJECTID":38400},"geometry":{"x":167484.54000000097,"y":2550183.6600000039}}]}