{"displayFieldName":"TOWNNAME","fieldAliases":{"ID":"ID","DIS_CODE":"DIS_CODE","TOWNNAME":"TOWNNAME","LI":"LI","LIN":"LIN","STREET":"STREET","SECT":"SECT","MAREA":"MAREA","LANE":"LANE","ALLEY":"ALLEY","HOUSE_NO":"HOUSE_NO","E_COORD97":"E_COORD97","N_COORD97":"N_COORD97","ADDRESS":"ADDRESS","OBJECTID":"OBJECTID"},"geometryType":"esriGeometryPoint","spatialReference":{"wkid":102443,"latestWkid":3826},"fields":[{"name":"ID","type":"esriFieldTypeDouble","alias":"ID"},{"name":"DIS_CODE","type":"esriFieldTypeInteger","alias":"DIS_CODE"},{"name":"TOWNNAME","type":"esriFieldTypeString","alias":"TOWNNAME","length":8},{"name":"LI","type":"esriFieldTypeString","alias":"LI","length":8},{"name":"LIN","type":"esriFieldTypeString","alias":"LIN","length":12},{"name":"STREET","type":"esriFieldTypeString","alias":"STREET","length":20},{"name":"SECT","type":"esriFieldTypeString","alias":"SECT","length":8},{"name":"MAREA","type":"esriFieldTypeString","alias":"MAREA","length":12},{"name":"LANE","type":"esriFieldTypeString","alias":"LANE","length":10},{"name":"ALLEY","type":"esriFieldTypeString","alias":"ALLEY","length":10},{"name":"HOUSE_NO","type":"esriFieldTypeString","alias":"HOUSE_NO","length":20},{"name":"E_COORD97","type":"esriFieldTypeDouble","alias":"E_COORD97"},{"name":"N_COORD97","type":"esriFieldTypeDouble","alias":"N_COORD97"},{"name":"ADDRESS","type":"esriFieldTypeString","alias":"ADDRESS","length":50},{"name":"OBJECTID","type":"esriFieldTypeOID","alias":"OBJECTID"}],"features":[{"attributes":{"ID":254605,"DIS_CODE":0,"TOWNNAME":"新營區","LI":"新東里","LIN":"27鄰","STREET":"東興路","SECT":" ","MAREA":" ","LANE":" ","ALLEY":" ","HOUSE_NO":"２０９號","E_COORD97":180746.20999999999,"N_COORD97":2579537.1200000001,"ADDRESS":"東興路２０９號","OBJECTID":254601},"geometry":{"x":180746.21000000089,"y":2579537.120000001}},{"attributes":{"ID":254606,"DIS_CODE":0,"TOWNNAME":"新營區","LI":"新北里","LIN":"27鄰","STREET":"民生路","SECT":" ","MAREA":" ","LANE":" ","ALLEY":" ","HOUSE_NO":"４６５號","E_COORD97":178740.92999999999,"N_COORD97":2579322.1600000001,"ADDRESS":"民生路４６５號","OBJECTID":254602},"geometry":{"x":178740.93000000063,"y":2579322.160000002}},{"attributes":{"ID":254607,"DIS_CODE":0,"TOWNNAME":"新營區","LI":"新北里","LIN":"27鄰","STREET":"民生路","SECT":" ","MAREA":" ","LANE":" ","ALLEY":" ","HOUSE_NO":"４２３號","E_COORD97":178829.04000000001,"N_COORD97":2579223.9500000002,"ADDRESS":"民生路４２３號","OBJECTID":254603},"geometry":{"x":178829.04000000097,"y":2579223.9500000011}},{"attributes":{"ID":254608,"DIS_CODE":0,"TOWNNAME":"安平區","LI":"建平里","LIN":"27鄰","STREET":"永華五街","SECT":" ","MAREA":" ","LANE":" ","ALLEY":" ","HOUSE_NO":"８１號","E_COORD97":165892.26999999999,"N_COORD97":2543637.9700000002,"ADDRESS":"永華五街８１號","OBJECTID":254604},"geometry":{"x":165892.27000000048,"y":2543637.9700000007}},{"attributes":{"ID":254609,"DIS_CODE":0,"TOWNNAME":"東區","LI":"東光里","LIN":"14鄰","STREET":"莊敬路","SECT":" ","MAREA":" ","LANE":"８１巷","ALLEY":" ","HOUSE_NO":"６號","E_COORD97":171313.26000000001,"N_COORD97":2543886.4300000002,"ADDRESS":"莊敬路８１巷６號","OBJECTID":254605},"geometry":{"x":171313.25999999978,"y":2543886.4300000016}},{"attributes":{"ID":254610,"DIS_CODE":0,"TOWNNAME":"學甲區","LI":"三慶里","LIN":"27鄰","STREET":" ","SECT":" ","MAREA":"新芳","LANE":" ","ALLEY":" ","HOUSE_NO":"２１號","E_COORD97":167365.60000000001,"N_COORD97":2575144.0600000001,"ADDRESS":"新芳２１號","OBJECTID":254606},"geometry":{"x":167365.59999999963,"y":2575144.0600000005}},{"attributes":{"ID":254611,"DIS_CODE":0,"TOWNNAME":"學甲區","LI":"三慶里","LIN":"27鄰","STREET":" ","SECT":" ","MAREA":"新芳","LANE":" ","ALLEY":" ","HOUSE_NO":"２２號","E_COORD97":167371.78,"N_COORD97":2575152.23,"ADDRESS":"新芳２２號","OBJECTID":254607},"geometry":{"x":167371.78000000026,"y":2575152.2300000004}},{"attributes":{"ID":254612,"DIS_CODE":0,"TOWNNAME":"學甲區","LI":"三慶里","LIN":"27鄰","STREET":" ","SECT":" ","MAREA":"新芳","LANE":" ","ALLEY":" ","HOUSE_NO":"２３號","E_COORD97":167359.54000000001,"N_COORD97":2575168.4500000002,"ADDRESS":"新芳２３號","OBJECTID":254608},"geometry":{"x":167359.54000000097,"y":2575168.4500000011}},{"attributes":{"ID":254613,"DIS_CODE":0,"TOWNNAME":"學甲區","LI":"三慶里","LIN":"27鄰","STREET":" ","SECT":" ","MAREA":"新芳","LANE":" ","ALLEY":" ","HOUSE_NO":"２４號","E_COORD97":167328.20000000001,"N_COORD97":2575162.96,"ADDRESS":"新芳２４號","OBJECTID":254609},"geometry":{"x":167328.20000000019,"y":2575162.9600000046}},{"attributes":{"ID":254614,"DIS_CODE":0,"TOWNNAME":"學甲區","LI":"三慶里","LIN":"27鄰","STREET":" ","SECT":" ","MAREA":"新芳","LANE":" ","ALLEY":" ","HOUSE_NO":"２５號","E_COORD97":167370.72,"N_COORD97":2575176.5299999998,"ADDRESS":"新芳２５號","OBJECTID":254610},"geometry":{"x":167370.7200000016,"y":2575176.5299999993}},{"attributes":{"ID":254615,"DIS_CODE":0,"TOWNNAME":"學甲區","LI":"三慶里","LIN":"27鄰","STREET":" ","SECT":" ","MAREA":"新芳","LANE":" ","ALLEY":" ","HOUSE_NO":"２６號之１","E_COORD97":167339.95000000001,"N_COORD97":2575160.3399999999,"ADDRESS":"新芳２６號之１","OBJECTID":254611},"geometry":{"x":167339.95000000112,"y":2575160.3400000017}},{"attributes":{"ID":254616,"DIS_CODE":0,"TOWNNAME":"學甲區","LI":"三慶里","LIN":"27鄰","STREET":" ","SECT":" ","MAREA":"新芳","LANE":" ","ALLEY":" ","HOUSE_NO":"２６號","E_COORD97":167346.07000000001,"N_COORD97":2575171.0699999998,"ADDRESS":"新芳２６號","OBJECTID":254612},"geometry":{"x":167346.0700000003,"y":2575171.0700000003}},{"attributes":{"ID":254617,"DIS_CODE":0,"TOWNNAME":"學甲區","LI":"三慶里","LIN":"27鄰","STREET":" ","SECT":" ","MAREA":"新芳","LANE":" ","ALLEY":" ","HOUSE_NO":"２７號","E_COORD97":167320.35000000001,"N_COORD97":2575177.7999999998,"ADDRESS":"新芳２７號","OBJECTID":254613},"geometry":{"x":167320.34999999963,"y":2575177.8000000026}},{"attributes":{"ID":254618,"DIS_CODE":0,"TOWNNAME":"學甲區","LI":"三慶里","LIN":"27鄰","STREET":" ","SECT":" ","MAREA":"新芳","LANE":" ","ALLEY":" ","HOUSE_NO":"２８號","E_COORD97":167349.70999999999,"N_COORD97":2575187,"ADDRESS":"新芳２８號","OBJECTID":254614},"geometry":{"x":167349.71000000089,"y":2575187}},{"attributes":{"ID":254619,"DIS_CODE":0,"TOWNNAME":"學甲區","LI":"三慶里","LIN":"27鄰","STREET":" ","SECT":" ","MAREA":"新芳","LANE":" ","ALLEY":" ","HOUSE_NO":"３０號","E_COORD97":167356.64000000001,"N_COORD97":2575205.3799999999,"ADDRESS":"新芳３０號","OBJECTID":254615},"geometry":{"x":167356.6400000006,"y":2575205.3800000027}},{"attributes":{"ID":254620,"DIS_CODE":0,"TOWNNAME":"仁德區","LI":"後壁里","LIN":"35鄰","STREET":"德洋路","SECT":" ","MAREA":" ","LANE":"２０５巷","ALLEY":" ","HOUSE_NO":"３５號","E_COORD97":172398.89999999999,"N_COORD97":2539509.02,"ADDRESS":"德洋路２０５巷３５號","OBJECTID":254616},"geometry":{"x":172398.9000000013,"y":2539509.0200000014}},{"attributes":{"ID":254621,"DIS_CODE":0,"TOWNNAME":"仁德區","LI":"後壁里","LIN":"16鄰","STREET":"德善路","SECT":" ","MAREA":" ","LANE":"３２巷","ALLEY":" ","HOUSE_NO":"１號","E_COORD97":173316.10000000001,"N_COORD97":2538873.52,"ADDRESS":"德善路３２巷１號","OBJECTID":254617},"geometry":{"x":173316.09999999963,"y":2538873.5200000033}},{"attributes":{"ID":254622,"DIS_CODE":0,"TOWNNAME":"東區","LI":"東光里","LIN":"14鄰","STREET":"莊敬路","SECT":" ","MAREA":" ","LANE":"８１巷","ALLEY":" ","HOUSE_NO":"８號","E_COORD97":171309.14999999999,"N_COORD97":2543889.1600000001,"ADDRESS":"莊敬路８１巷８號","OBJECTID":254618},"geometry":{"x":171309.15000000037,"y":2543889.160000002}},{"attributes":{"ID":254623,"DIS_CODE":0,"TOWNNAME":"東區","LI":"東光里","LIN":"14鄰","STREET":"莊敬路","SECT":" ","MAREA":" ","LANE":"８１巷","ALLEY":" ","HOUSE_NO":"１０號","E_COORD97":171314.62,"N_COORD97":2543899,"ADDRESS":"莊敬路８１巷１０號","OBJECTID":254619},"geometry":{"x":171314.62000000011,"y":2543899.0000000037}},{"attributes":{"ID":254624,"DIS_CODE":0,"TOWNNAME":"東區","LI":"東光里","LIN":"14鄰","STREET":"莊敬路","SECT":" ","MAREA":" ","LANE":"８１巷","ALLEY":" ","HOUSE_NO":"１２號","E_COORD97":171314.89999999999,"N_COORD97":2543902.4100000001,"ADDRESS":"莊敬路８１巷１２號","OBJECTID":254620},"geometry":{"x":171314.90000000224,"y":2543902.4100000001}},{"attributes":{"ID":254625,"DIS_CODE":0,"TOWNNAME":"東區","LI":"東光里","LIN":"14鄰","STREET":"莊敬路","SECT":" ","MAREA":" ","LANE":"８１巷","ALLEY":" ","HOUSE_NO":"１４號","E_COORD97":171293.42999999999,"N_COORD97":2543907.1899999999,"ADDRESS":"莊敬路８１巷１４號","OBJECTID":254621},"geometry":{"x":171293.4299999997,"y":2543907.1900000032}},{"attributes":{"ID":254626,"DIS_CODE":0,"TOWNNAME":"東區","LI":"東光里","LIN":"14鄰","STREET":"莊敬路","SECT":" ","MAREA":" ","LANE":"８１巷","ALLEY":" ","HOUSE_NO":"１６號","E_COORD97":171292.06,"N_COORD97":2543903.3700000001,"ADDRESS":"莊敬路８１巷１６號","OBJECTID":254622},"geometry":{"x":171292.05999999959,"y":2543903.370000001}},{"attributes":{"ID":254627,"DIS_CODE":0,"TOWNNAME":"安南區","LI":"溪頂里","LIN":"24鄰","STREET":"敦安街","SECT":" ","MAREA":" ","LANE":" ","ALLEY":" ","HOUSE_NO":"１４６號","E_COORD97":169040.97,"N_COORD97":2547576.48,"ADDRESS":"敦安街１４６號","OBJECTID":254623},"geometry":{"x":169040.97000000067,"y":2547576.4800000004}},{"attributes":{"ID":254628,"DIS_CODE":0,"TOWNNAME":"安南區","LI":"溪頂里","LIN":"24鄰","STREET":"敦安街","SECT":" ","MAREA":" ","LANE":" ","ALLEY":" ","HOUSE_NO":"１４７號","E_COORD97":169042.92000000001,"N_COORD97":2547530.9199999999,"ADDRESS":"敦安街１４７號","OBJECTID":254624},"geometry":{"x":169042.92000000086,"y":2547530.9200000018}},{"attributes":{"ID":254629,"DIS_CODE":0,"TOWNNAME":"東區","LI":"東光里","LIN":"14鄰","STREET":"莊敬路","SECT":" ","MAREA":" ","LANE":"８１巷","ALLEY":" ","HOUSE_NO":"１８號","E_COORD97":171290.70000000001,"N_COORD97":2543900.0899999999,"ADDRESS":"莊敬路８１巷１８號","OBJECTID":254625},"geometry":{"x":171290.70000000205,"y":2543900.0899999999}},{"attributes":{"ID":254630,"DIS_CODE":0,"TOWNNAME":"東區","LI":"東光里","LIN":"14鄰","STREET":"莊敬路","SECT":" ","MAREA":" ","LANE":"８１巷","ALLEY":" ","HOUSE_NO":"２０號","E_COORD97":171297.53,"N_COORD97":2543888.0699999998,"ADDRESS":"莊敬路８１巷２０號","OBJECTID":254626},"geometry":{"x":171297.53000000119,"y":2543888.0700000003}},{"attributes":{"ID":254631,"DIS_CODE":0,"TOWNNAME":"東區","LI":"東光里","LIN":"14鄰","STREET":"莊敬路","SECT":" ","MAREA":" ","LANE":"８１巷","ALLEY":" ","HOUSE_NO":"２２號","E_COORD97":171293.16,"N_COORD97":2543891.48,"ADDRESS":"莊敬路８１巷２２號","OBJECTID":254627},"geometry":{"x":171293.16000000108,"y":2543891.4800000004}},{"attributes":{"ID":254632,"DIS_CODE":0,"TOWNNAME":"東區","LI":"東光里","LIN":"14鄰","STREET":"莊敬路","SECT":" ","MAREA":" ","LANE":"８１巷","ALLEY":" ","HOUSE_NO":"２４號","E_COORD97":171288.64999999999,"N_COORD97":2543888.75,"ADDRESS":"莊敬路８１巷２４號","OBJECTID":254628},"geometry":{"x":171288.65000000037,"y":2543888.75}},{"attributes":{"ID":254633,"DIS_CODE":0,"TOWNNAME":"東區","LI":"東光里","LIN":"14鄰","STREET":"莊敬路","SECT":" ","MAREA":" ","LANE":"８１巷","ALLEY":" ","HOUSE_NO":"２６號","E_COORD97":171284.13,"N_COORD97":2543892.4399999999,"ADDRESS":"莊敬路８１巷２６號","OBJECTID":254629},"geometry":{"x":171284.13000000082,"y":2543892.4400000013}},{"attributes":{"ID":254634,"DIS_CODE":0,"TOWNNAME":"學甲區","LI":"光華里","LIN":"27鄰","STREET":" ","SECT":" ","MAREA":"新頭港子","LANE":" ","ALLEY":" ","HOUSE_NO":"２８號之１","E_COORD97":164060.16,"N_COORD97":2573372.5099999998,"ADDRESS":"新頭港子２８號之１","OBJECTID":254630},"geometry":{"x":164060.16000000015,"y":2573372.5100000016}},{"attributes":{"ID":254635,"DIS_CODE":0,"TOWNNAME":"東區","LI":"東光里","LIN":"14鄰","STREET":"莊敬路","SECT":" ","MAREA":" ","LANE":"８１巷","ALLEY":" ","HOUSE_NO":"２８號","E_COORD97":171279.07999999999,"N_COORD97":2543890.7999999998,"ADDRESS":"莊敬路８１巷２８號","OBJECTID":254631},"geometry":{"x":171279.08000000007,"y":2543890.8000000045}},{"attributes":{"ID":254636,"DIS_CODE":0,"TOWNNAME":"學甲區","LI":"光華里","LIN":"27鄰","STREET":" ","SECT":" ","MAREA":"新頭港子","LANE":" ","ALLEY":" ","HOUSE_NO":"３０號之１","E_COORD97":164055.87,"N_COORD97":2573426.02,"ADDRESS":"新頭港子３０號之１","OBJECTID":254632},"geometry":{"x":164055.86999999918,"y":2573426.0200000014}},{"attributes":{"ID":254637,"DIS_CODE":0,"TOWNNAME":"東區","LI":"衛國里","LIN":"14鄰","STREET":"衛國街","SECT":" ","MAREA":" ","LANE":"１１４巷","ALLEY":" ","HOUSE_NO":"１號","E_COORD97":170428.60999999999,"N_COORD97":2543152.7200000002,"ADDRESS":"衛國街１１４巷１號","OBJECTID":254633},"geometry":{"x":170428.6100000022,"y":2543152.7200000025}},{"attributes":{"ID":254638,"DIS_CODE":0,"TOWNNAME":"歸仁區","LI":"崙頂里","LIN":"16鄰","STREET":"崙頂一街","SECT":" ","MAREA":" ","LANE":"２３巷","ALLEY":" ","HOUSE_NO":"４３號","E_COORD97":177926.055933,"N_COORD97":2540029.3591999998,"ADDRESS":"崙頂一街２３巷４３號","OBJECTID":254634},"geometry":{"x":177926.05593299959,"y":2540029.3591970019}},{"attributes":{"ID":254639,"DIS_CODE":0,"TOWNNAME":"東區","LI":"衛國里","LIN":"14鄰","STREET":"衛國街","SECT":" ","MAREA":" ","LANE":"１１４巷","ALLEY":" ","HOUSE_NO":"３號","E_COORD97":170431.29000000001,"N_COORD97":2543162.6800000002,"ADDRESS":"衛國街１１４巷３號","OBJECTID":254635},"geometry":{"x":170431.29000000004,"y":2543162.6800000016}},{"attributes":{"ID":254640,"DIS_CODE":0,"TOWNNAME":"東區","LI":"衛國里","LIN":"14鄰","STREET":"衛國街","SECT":" ","MAREA":" ","LANE":"１１４巷","ALLEY":" ","HOUSE_NO":"５號","E_COORD97":170439.16,"N_COORD97":2543163.6400000001,"ADDRESS":"衛國街１１４巷５號","OBJECTID":254636},"geometry":{"x":170439.16000000015,"y":2543163.6400000025}},{"attributes":{"ID":254641,"DIS_CODE":0,"TOWNNAME":"東區","LI":"衛國里","LIN":"14鄰","STREET":"衛國街","SECT":" ","MAREA":" ","LANE":"１１４巷","ALLEY":" ","HOUSE_NO":"７號","E_COORD97":170445.10000000001,"N_COORD97":2543154.6299999999,"ADDRESS":"衛國街１１４巷７號","OBJECTID":254637},"geometry":{"x":170445.10000000056,"y":2543154.6300000008}},{"attributes":{"ID":254642,"DIS_CODE":0,"TOWNNAME":"東區","LI":"莊敬里","LIN":"14鄰","STREET":"莊敬路","SECT":" ","MAREA":" ","LANE":"２０５巷","ALLEY":" ","HOUSE_NO":"２號","E_COORD97":171351.26999999999,"N_COORD97":2544165.3300000001,"ADDRESS":"莊敬路２０５巷２號","OBJECTID":254638},"geometry":{"x":171351.27000000048,"y":2544165.3300000019}},{"attributes":{"ID":254643,"DIS_CODE":0,"TOWNNAME":"東區","LI":"莊敬里","LIN":"14鄰","STREET":"莊敬路","SECT":" ","MAREA":" ","LANE":"２０５巷","ALLEY":" ","HOUSE_NO":"６號之１","E_COORD97":171340.39000000001,"N_COORD97":2544167.0899999999,"ADDRESS":"莊敬路２０５巷６號之１","OBJECTID":254639},"geometry":{"x":171340.3900000006,"y":2544167.0900000017}},{"attributes":{"ID":254644,"DIS_CODE":0,"TOWNNAME":"學甲區","LI":"光華里","LIN":"27鄰","STREET":" ","SECT":" ","MAREA":"新頭港子","LANE":" ","ALLEY":" ","HOUSE_NO":"３０號","E_COORD97":164055.53,"N_COORD97":2573410.1099999999,"ADDRESS":"新頭港子３０號","OBJECTID":254640},"geometry":{"x":164055.53000000119,"y":2573410.1099999994}},{"attributes":{"ID":254645,"DIS_CODE":0,"TOWNNAME":"學甲區","LI":"光華里","LIN":"27鄰","STREET":" ","SECT":" ","MAREA":"新頭港子","LANE":" ","ALLEY":" ","HOUSE_NO":"３１號之６","E_COORD97":164037.39999999999,"N_COORD97":2573728.8900000001,"ADDRESS":"新頭港子３１號之６","OBJECTID":254641},"geometry":{"x":164037.40000000224,"y":2573728.8900000043}},{"attributes":{"ID":254646,"DIS_CODE":0,"TOWNNAME":"學甲區","LI":"光華里","LIN":"27鄰","STREET":" ","SECT":" ","MAREA":"新頭港子","LANE":" ","ALLEY":" ","HOUSE_NO":"３２號","E_COORD97":164028.91,"N_COORD97":2573408.7400000002,"ADDRESS":"新頭港子３２號","OBJECTID":254642},"geometry":{"x":164028.91000000108,"y":2573408.7400000021}},{"attributes":{"ID":254647,"DIS_CODE":0,"TOWNNAME":"學甲區","LI":"光華里","LIN":"27鄰","STREET":" ","SECT":" ","MAREA":"新頭港子","LANE":" ","ALLEY":" ","HOUSE_NO":"３３號","E_COORD97":164034.54000000001,"N_COORD97":2573385.9199999999,"ADDRESS":"新頭港子３３號","OBJECTID":254643},"geometry":{"x":164034.5400000019,"y":2573385.9200000018}},{"attributes":{"ID":254648,"DIS_CODE":0,"TOWNNAME":"學甲區","LI":"光華里","LIN":"27鄰","STREET":" ","SECT":" ","MAREA":"新頭港子","LANE":" ","ALLEY":" ","HOUSE_NO":"３５號","E_COORD97":164033.84,"N_COORD97":2573330.5600000001,"ADDRESS":"新頭港子３５號","OBJECTID":254644},"geometry":{"x":164033.84000000171,"y":2573330.5599999987}},{"attributes":{"ID":254649,"DIS_CODE":0,"TOWNNAME":"學甲區","LI":"光華里","LIN":"27鄰","STREET":" ","SECT":" ","MAREA":"新頭港子","LANE":" ","ALLEY":" ","HOUSE_NO":"３６號之１","E_COORD97":163862.87,"N_COORD97":2573395.8100000001,"ADDRESS":"新頭港子３６號之１","OBJECTID":254645},"geometry":{"x":163862.87000000197,"y":2573395.8100000005}},{"attributes":{"ID":254650,"DIS_CODE":0,"TOWNNAME":"學甲區","LI":"秀昌里","LIN":"27鄰","STREET":" ","SECT":" ","MAREA":"煥昌","LANE":" ","ALLEY":" ","HOUSE_NO":"４０號","E_COORD97":166185.88,"N_COORD97":2570839.8500000001,"ADDRESS":"煥昌４０號","OBJECTID":254646},"geometry":{"x":166185.87999999989,"y":2570839.8500000015}},{"attributes":{"ID":254651,"DIS_CODE":0,"TOWNNAME":"學甲區","LI":"秀昌里","LIN":"27鄰","STREET":" ","SECT":" ","MAREA":"煥昌","LANE":" ","ALLEY":" ","HOUSE_NO":"４１號","E_COORD97":166179.17999999999,"N_COORD97":2570810.1899999999,"ADDRESS":"煥昌４１號","OBJECTID":254647},"geometry":{"x":166179.18000000156,"y":2570810.1900000013}},{"attributes":{"ID":254652,"DIS_CODE":0,"TOWNNAME":"學甲區","LI":"秀昌里","LIN":"27鄰","STREET":" ","SECT":" ","MAREA":"煥昌","LANE":" ","ALLEY":" ","HOUSE_NO":"４２號","E_COORD97":166165.45000000001,"N_COORD97":2570822.2200000002,"ADDRESS":"煥昌４２號","OBJECTID":254648},"geometry":{"x":166165.45000000019,"y":2570822.2200000025}},{"attributes":{"ID":254653,"DIS_CODE":0,"TOWNNAME":"學甲區","LI":"秀昌里","LIN":"27鄰","STREET":" ","SECT":" ","MAREA":"煥昌","LANE":" ","ALLEY":" ","HOUSE_NO":"４３號","E_COORD97":166158.63,"N_COORD97":2570813.2000000002,"ADDRESS":"煥昌４３號","OBJECTID":254649},"geometry":{"x":166158.62999999989,"y":2570813.2000000011}},{"attributes":{"ID":254654,"DIS_CODE":0,"TOWNNAME":"學甲區","LI":"秀昌里","LIN":"27鄰","STREET":" ","SECT":" ","MAREA":"煥昌","LANE":" ","ALLEY":" ","HOUSE_NO":"４５號","E_COORD97":166168.94,"N_COORD97":2570806.6200000001,"ADDRESS":"煥昌４５號","OBJECTID":254650},"geometry":{"x":166168.94000000041,"y":2570806.6200000029}},{"attributes":{"ID":254655,"DIS_CODE":0,"TOWNNAME":"學甲區","LI":"秀昌里","LIN":"27鄰","STREET":" ","SECT":" ","MAREA":"煥昌","LANE":" ","ALLEY":" ","HOUSE_NO":"４７號","E_COORD97":166164.63,"N_COORD97":2570745.0899999999,"ADDRESS":"煥昌４７號","OBJECTID":254651},"geometry":{"x":166164.63000000175,"y":2570745.0899999999}},{"attributes":{"ID":254656,"DIS_CODE":0,"TOWNNAME":"安南區","LI":"理想里","LIN":"1鄰","STREET":"同安路","SECT":" ","MAREA":" ","LANE":"５２巷","ALLEY":" ","HOUSE_NO":"１號","E_COORD97":166900.92999999999,"N_COORD97":2548850.29,"ADDRESS":"同安路５２巷１號","OBJECTID":254652},"geometry":{"x":166900.9299999997,"y":2548850.290000001}},{"attributes":{"ID":254657,"DIS_CODE":0,"TOWNNAME":"學甲區","LI":"秀昌里","LIN":"27鄰","STREET":" ","SECT":" ","MAREA":"煥昌","LANE":" ","ALLEY":" ","HOUSE_NO":"４８號","E_COORD97":166175.29000000001,"N_COORD97":2570729.0600000001,"ADDRESS":"煥昌４８號","OBJECTID":254653},"geometry":{"x":166175.29000000004,"y":2570729.0600000005}},{"attributes":{"ID":254658,"DIS_CODE":0,"TOWNNAME":"學甲區","LI":"秀昌里","LIN":"27鄰","STREET":" ","SECT":" ","MAREA":"煥昌","LANE":" ","ALLEY":" ","HOUSE_NO":"４９號","E_COORD97":166157.29999999999,"N_COORD97":2570724.8900000001,"ADDRESS":"煥昌４９號","OBJECTID":254654},"geometry":{"x":166157.30000000075,"y":2570724.8900000043}},{"attributes":{"ID":254659,"DIS_CODE":0,"TOWNNAME":"學甲區","LI":"秀昌里","LIN":"27鄰","STREET":" ","SECT":" ","MAREA":"煥昌","LANE":" ","ALLEY":" ","HOUSE_NO":"５０號","E_COORD97":166144.95000000001,"N_COORD97":2570743.5600000001,"ADDRESS":"煥昌５０號","OBJECTID":254655},"geometry":{"x":166144.95000000019,"y":2570743.5600000005}},{"attributes":{"ID":254660,"DIS_CODE":0,"TOWNNAME":"安南區","LI":"理想里","LIN":"1鄰","STREET":"同安路","SECT":" ","MAREA":" ","LANE":"５２巷","ALLEY":" ","HOUSE_NO":"２０號","E_COORD97":166913.59,"N_COORD97":2548791.3399999999,"ADDRESS":"同安路５２巷２０號","OBJECTID":254656},"geometry":{"x":166913.58999999985,"y":2548791.3399999999}},{"attributes":{"ID":254661,"DIS_CODE":0,"TOWNNAME":"南區","LI":"大忠里","LIN":"27鄰","STREET":"大同路","SECT":"二段","MAREA":" ","LANE":"４８２巷","ALLEY":" ","HOUSE_NO":"１５１號","E_COORD97":169031.78,"N_COORD97":2541523.8500000001,"ADDRESS":"大同路二段４８２巷１５１號","OBJECTID":254657},"geometry":{"x":169031.78000000026,"y":2541523.8500000015}},{"attributes":{"ID":254662,"DIS_CODE":0,"TOWNNAME":"東區","LI":"莊敬里","LIN":"14鄰","STREET":"莊敬路","SECT":" ","MAREA":" ","LANE":"２０５巷","ALLEY":" ","HOUSE_NO":"８號","E_COORD97":171337.88,"N_COORD97":2544169.04,"ADDRESS":"莊敬路２０５巷８號","OBJECTID":254658},"geometry":{"x":171337.87999999989,"y":2544169.0400000028}},{"attributes":{"ID":254663,"DIS_CODE":0,"TOWNNAME":"鹽水區","LI":"中境里","LIN":"8鄰","STREET":"武廟路","SECT":" ","MAREA":" ","LANE":"１０巷","ALLEY":" ","HOUSE_NO":"９號","E_COORD97":175014.09,"N_COORD97":2579961.4700000002,"ADDRESS":"武廟路１０巷９號","OBJECTID":254659},"geometry":{"x":175014.09000000078,"y":2579961.4700000025}},{"attributes":{"ID":254664,"DIS_CODE":0,"TOWNNAME":"東區","LI":"莊敬里","LIN":"14鄰","STREET":"莊敬路","SECT":" ","MAREA":" ","LANE":"２０５巷","ALLEY":" ","HOUSE_NO":"１０號","E_COORD97":171334.16,"N_COORD97":2544168.1099999999,"ADDRESS":"莊敬路２０５巷１０號","OBJECTID":254660},"geometry":{"x":171334.16000000015,"y":2544168.1099999994}},{"attributes":{"ID":254665,"DIS_CODE":0,"TOWNNAME":"東區","LI":"莊敬里","LIN":"14鄰","STREET":"莊敬路","SECT":" ","MAREA":" ","LANE":"２０５巷","ALLEY":" ","HOUSE_NO":"１２號之１","E_COORD97":171330.81,"N_COORD97":2544170.0600000001,"ADDRESS":"莊敬路２０５巷１２號之１","OBJECTID":254661},"geometry":{"x":171330.80999999959,"y":2544170.0600000042}},{"attributes":{"ID":254666,"DIS_CODE":0,"TOWNNAME":"東區","LI":"莊敬里","LIN":"14鄰","STREET":"莊敬路","SECT":" ","MAREA":" ","LANE":"２０５巷","ALLEY":" ","HOUSE_NO":"１４號之１","E_COORD97":171323.84,"N_COORD97":2544170.25,"ADDRESS":"莊敬路２０５巷１４號之１","OBJECTID":254662},"geometry":{"x":171323.84000000078,"y":2544170.25}},{"attributes":{"ID":254667,"DIS_CODE":0,"TOWNNAME":"東區","LI":"莊敬里","LIN":"14鄰","STREET":"莊敬路","SECT":" ","MAREA":" ","LANE":"２０５巷","ALLEY":" ","HOUSE_NO":"１６號","E_COORD97":171320.39999999999,"N_COORD97":2544172.02,"ADDRESS":"莊敬路２０５巷１６號","OBJECTID":254663},"geometry":{"x":171320.4000000013,"y":2544172.0199999996}},{"attributes":{"ID":254668,"DIS_CODE":0,"TOWNNAME":"東區","LI":"莊敬里","LIN":"14鄰","STREET":"莊敬路","SECT":" ","MAREA":" ","LANE":"２０５巷","ALLEY":" ","HOUSE_NO":"１８號","E_COORD97":171316.48999999999,"N_COORD97":2544170.8999999999,"ADDRESS":"莊敬路２０５巷１８號","OBJECTID":254664},"geometry":{"x":171316.49000000115,"y":2544170.8999999985}},{"attributes":{"ID":254669,"DIS_CODE":0,"TOWNNAME":"東區","LI":"莊敬里","LIN":"14鄰","STREET":"莊敬路","SECT":" ","MAREA":" ","LANE":"２０５巷","ALLEY":" ","HOUSE_NO":"２０號之１","E_COORD97":171313.14000000001,"N_COORD97":2544172.7599999998,"ADDRESS":"莊敬路２０５巷２０號之１","OBJECTID":254665},"geometry":{"x":171313.1400000006,"y":2544172.7600000016}},{"attributes":{"ID":254670,"DIS_CODE":0,"TOWNNAME":"東區","LI":"莊敬里","LIN":"14鄰","STREET":"莊敬路","SECT":" ","MAREA":" ","LANE":"２０５巷","ALLEY":" ","HOUSE_NO":"２２號","E_COORD97":171307.38,"N_COORD97":2544174.1499999999,"ADDRESS":"莊敬路２０５巷２２號","OBJECTID":254666},"geometry":{"x":171307.37999999989,"y":2544174.1500000022}},{"attributes":{"ID":254671,"DIS_CODE":0,"TOWNNAME":"東區","LI":"莊敬里","LIN":"14鄰","STREET":"莊敬路","SECT":" ","MAREA":" ","LANE":"２１９巷","ALLEY":" ","HOUSE_NO":"１號","E_COORD97":171352.76000000001,"N_COORD97":2544192.5899999999,"ADDRESS":"莊敬路２１９巷１號","OBJECTID":254667},"geometry":{"x":171352.76000000071,"y":2544192.5899999999}},{"attributes":{"ID":254672,"DIS_CODE":0,"TOWNNAME":"東區","LI":"莊敬里","LIN":"14鄰","STREET":"莊敬路","SECT":" ","MAREA":" ","LANE":"２１９巷","ALLEY":" ","HOUSE_NO":"３號","E_COORD97":171344.85999999999,"N_COORD97":2544193.6200000001,"ADDRESS":"莊敬路２１９巷３號","OBJECTID":254668},"geometry":{"x":171344.86000000034,"y":2544193.620000001}},{"attributes":{"ID":254673,"DIS_CODE":0,"TOWNNAME":"東區","LI":"莊敬里","LIN":"14鄰","STREET":"莊敬路","SECT":" ","MAREA":" ","LANE":"２１９巷","ALLEY":" ","HOUSE_NO":"５號","E_COORD97":171337.79000000001,"N_COORD97":2544194.5499999998,"ADDRESS":"莊敬路２１９巷５號","OBJECTID":254669},"geometry":{"x":171337.79000000097,"y":2544194.5500000026}},{"attributes":{"ID":254674,"DIS_CODE":0,"TOWNNAME":"東區","LI":"莊敬里","LIN":"14鄰","STREET":"莊敬路","SECT":" ","MAREA":" ","LANE":"２１９巷","ALLEY":" ","HOUSE_NO":"７號","E_COORD97":171330.35000000001,"N_COORD97":2544195.6699999999,"ADDRESS":"莊敬路２１９巷７號","OBJECTID":254670},"geometry":{"x":171330.35000000056,"y":2544195.6699999981}},{"attributes":{"ID":254675,"DIS_CODE":0,"TOWNNAME":"東區","LI":"莊敬里","LIN":"14鄰","STREET":"莊敬路","SECT":" ","MAREA":" ","LANE":"２１９巷","ALLEY":" ","HOUSE_NO":"９號","E_COORD97":171324.20999999999,"N_COORD97":2544196.8700000001,"ADDRESS":"莊敬路２１９巷９號","OBJECTID":254671},"geometry":{"x":171324.21000000183,"y":2544196.8700000029}},{"attributes":{"ID":254676,"DIS_CODE":0,"TOWNNAME":"東區","LI":"莊敬里","LIN":"14鄰","STREET":"莊敬路","SECT":" ","MAREA":" ","LANE":"２１９巷","ALLEY":" ","HOUSE_NO":"１１號","E_COORD97":171318.07000000001,"N_COORD97":2544197.9900000002,"ADDRESS":"莊敬路２１９巷１１號","OBJECTID":254672},"geometry":{"x":171318.0700000003,"y":2544197.9900000021}},{"attributes":{"ID":254677,"DIS_CODE":0,"TOWNNAME":"東區","LI":"莊敬里","LIN":"14鄰","STREET":"莊敬路","SECT":" ","MAREA":" ","LANE":"２１９巷","ALLEY":" ","HOUSE_NO":"１３號","E_COORD97":171312.76999999999,"N_COORD97":2544198.73,"ADDRESS":"莊敬路２１９巷１３號","OBJECTID":254673},"geometry":{"x":171312.76999999955,"y":2544198.7300000004}},{"attributes":{"ID":254678,"DIS_CODE":0,"TOWNNAME":"東區","LI":"東安里","LIN":"14鄰","STREET":"長榮路","SECT":"二段","MAREA":" ","LANE":"３２巷","ALLEY":" ","HOUSE_NO":"２２３號","E_COORD97":170217.95999999999,"N_COORD97":2543129.02,"ADDRESS":"長榮路二段３２巷２２３號","OBJECTID":254674},"geometry":{"x":170217.96000000089,"y":2543129.0200000014}},{"attributes":{"ID":254679,"DIS_CODE":0,"TOWNNAME":"東區","LI":"東安里","LIN":"14鄰","STREET":"長榮路","SECT":"二段","MAREA":" ","LANE":"３２巷","ALLEY":" ","HOUSE_NO":"２３１號","E_COORD97":170237.19,"N_COORD97":2543095.1699999999,"ADDRESS":"長榮路二段３２巷２３１號","OBJECTID":254675},"geometry":{"x":170237.19000000134,"y":2543095.1700000018}},{"attributes":{"ID":254680,"DIS_CODE":0,"TOWNNAME":"安南區","LI":"溪頂里","LIN":"24鄰","STREET":"敦安街","SECT":" ","MAREA":" ","LANE":" ","ALLEY":" ","HOUSE_NO":"１４８號","E_COORD97":169040.97,"N_COORD97":2547572.3900000001,"ADDRESS":"敦安街１４８號","OBJECTID":254676},"geometry":{"x":169040.97000000067,"y":2547572.3900000025}},{"attributes":{"ID":254681,"DIS_CODE":0,"TOWNNAME":"安南區","LI":"溪頂里","LIN":"24鄰","STREET":"敦安街","SECT":" ","MAREA":" ","LANE":" ","ALLEY":" ","HOUSE_NO":"１４９號","E_COORD97":169038.78,"N_COORD97":2547530.7400000002,"ADDRESS":"敦安街１４９號","OBJECTID":254677},"geometry":{"x":169038.78000000026,"y":2547530.7400000002}},{"attributes":{"ID":254682,"DIS_CODE":0,"TOWNNAME":"安南區","LI":"溪頂里","LIN":"24鄰","STREET":"敦安街","SECT":" ","MAREA":" ","LANE":" ","ALLEY":" ","HOUSE_NO":"１５０號","E_COORD97":169043.45999999999,"N_COORD97":2547560.1000000001,"ADDRESS":"敦安街１５０號","OBJECTID":254678},"geometry":{"x":169043.45999999996,"y":2547560.1000000015}},{"attributes":{"ID":254683,"DIS_CODE":0,"TOWNNAME":"安南區","LI":"溪頂里","LIN":"24鄰","STREET":"敦安街","SECT":" ","MAREA":" ","LANE":" ","ALLEY":" ","HOUSE_NO":"１５２號","E_COORD97":169039.60000000001,"N_COORD97":2547560.1000000001,"ADDRESS":"敦安街１５２號","OBJECTID":254679},"geometry":{"x":169039.60000000149,"y":2547560.1000000015}},{"attributes":{"ID":254684,"DIS_CODE":0,"TOWNNAME":"東區","LI":"龍山里","LIN":"21鄰","STREET":"東門路","SECT":"二段","MAREA":" ","LANE":" ","ALLEY":" ","HOUSE_NO":"１９６之１號","E_COORD97":170375.40242299999,"N_COORD97":2542841.9627899998,"ADDRESS":"東門路二段１９６之１號","OBJECTID":254680},"geometry":{"x":170375.40242299996,"y":2542841.9627890009}},{"attributes":{"ID":254685,"DIS_CODE":0,"TOWNNAME":"仁德區","LI":"新田里","LIN":"13鄰","STREET":"北保一街","SECT":" ","MAREA":" ","LANE":"１巷","ALLEY":" ","HOUSE_NO":"８號","E_COORD97":173270.66,"N_COORD97":2539418.4900000002,"ADDRESS":"北保一街１巷８號","OBJECTID":254681},"geometry":{"x":173270.66000000015,"y":2539418.4900000021}},{"attributes":{"ID":254686,"DIS_CODE":0,"TOWNNAME":"仁德區","LI":"成功里","LIN":"30鄰","STREET":"成功一街","SECT":" ","MAREA":" ","LANE":"１巷","ALLEY":" ","HOUSE_NO":"２０號","E_COORD97":170613.64999999999,"N_COORD97":2540219.77,"ADDRESS":"成功一街１巷２０號","OBJECTID":254682},"geometry":{"x":170613.6500000013,"y":2540219.7699999996}},{"attributes":{"ID":254687,"DIS_CODE":0,"TOWNNAME":"永康區","LI":"復華里","LIN":"27鄰","STREET":"復華八街","SECT":" ","MAREA":" ","LANE":"５１巷","ALLEY":" ","HOUSE_NO":"３５號四樓之６","E_COORD97":172702.98999999999,"N_COORD97":2546429.1400000001,"ADDRESS":"復華八街５１巷３５號四樓之６","OBJECTID":254683},"geometry":{"x":172702.99000000115,"y":2546429.1400000025}},{"attributes":{"ID":254688,"DIS_CODE":0,"TOWNNAME":"中西區","LI":"西湖里","LIN":"27鄰","STREET":"湖美街","SECT":" ","MAREA":" ","LANE":"７０巷","ALLEY":" ","HOUSE_NO":"６號七樓之２１","E_COORD97":165982.98000000001,"N_COORD97":2544746.3199999998,"ADDRESS":"湖美街７０巷６號七樓之２１","OBJECTID":254684},"geometry":{"x":165982.98000000231,"y":2544746.3200000003}},{"attributes":{"ID":254689,"DIS_CODE":0,"TOWNNAME":"仁德區","LI":"後壁里","LIN":"7鄰","STREET":"德善二街","SECT":" ","MAREA":" ","LANE":"５１巷","ALLEY":" ","HOUSE_NO":"１９號","E_COORD97":173602.73999999999,"N_COORD97":2539025.0099999998,"ADDRESS":"德善二街５１巷１９號","OBJECTID":254685},"geometry":{"x":173602.74000000209,"y":2539025.0099999998}},{"attributes":{"ID":254690,"DIS_CODE":0,"TOWNNAME":"仁德區","LI":"新田里","LIN":"15鄰","STREET":"北保東路","SECT":" ","MAREA":" ","LANE":"８巷","ALLEY":" ","HOUSE_NO":"２７號","E_COORD97":173360.54000000001,"N_COORD97":2539334.9900000002,"ADDRESS":"北保東路８巷２７號","OBJECTID":254686},"geometry":{"x":173360.54000000004,"y":2539334.9900000002}},{"attributes":{"ID":254691,"DIS_CODE":0,"TOWNNAME":"東區","LI":"東安里","LIN":"14鄰","STREET":"長榮路","SECT":"二段","MAREA":" ","LANE":"３２巷","ALLEY":" ","HOUSE_NO":"２３３號","E_COORD97":170240.26999999999,"N_COORD97":2543092.4500000002,"ADDRESS":"長榮路二段３２巷２３３號","OBJECTID":254687},"geometry":{"x":170240.27000000142,"y":2543092.4500000011}},{"attributes":{"ID":254692,"DIS_CODE":0,"TOWNNAME":"東區","LI":"東安里","LIN":"14鄰","STREET":"長榮路","SECT":"二段","MAREA":" ","LANE":"３２巷","ALLEY":" ","HOUSE_NO":"２３５號","E_COORD97":170243.98999999999,"N_COORD97":2543088.73,"ADDRESS":"長榮路二段３２巷２３５號","OBJECTID":254688},"geometry":{"x":170243.99000000022,"y":2543088.7300000023}},{"attributes":{"ID":254693,"DIS_CODE":0,"TOWNNAME":"東區","LI":"東安里","LIN":"14鄰","STREET":"長榮路","SECT":"二段","MAREA":" ","LANE":"３２巷","ALLEY":" ","HOUSE_NO":"２３７號","E_COORD97":170249.62,"N_COORD97":2543084.73,"ADDRESS":"長榮路二段３２巷２３７號","OBJECTID":254689},"geometry":{"x":170249.62000000011,"y":2543084.7300000023}},{"attributes":{"ID":254694,"DIS_CODE":0,"TOWNNAME":"永康區","LI":"甲頂里","LIN":"14鄰","STREET":"大武街","SECT":" ","MAREA":" ","LANE":"１８巷","ALLEY":" ","HOUSE_NO":"３９號","E_COORD97":170404.73000000001,"N_COORD97":2546611.75,"ADDRESS":"大武街１８巷３９號","OBJECTID":254690},"geometry":{"x":170404.73000000138,"y":2546611.75}},{"attributes":{"ID":254695,"DIS_CODE":0,"TOWNNAME":"永康區","LI":"西橋里","LIN":"14鄰","STREET":"中華西街","SECT":" ","MAREA":" ","LANE":"２３１巷","ALLEY":" ","HOUSE_NO":"９號","E_COORD97":170603.92000000001,"N_COORD97":2546396.4900000002,"ADDRESS":"中華西街２３１巷９號","OBJECTID":254691},"geometry":{"x":170603.92000000179,"y":2546396.4900000002}},{"attributes":{"ID":254696,"DIS_CODE":0,"TOWNNAME":"永康區","LI":"西橋里","LIN":"14鄰","STREET":"大橋一街","SECT":" ","MAREA":" ","LANE":"３１巷","ALLEY":" ","HOUSE_NO":"２號","E_COORD97":170586.26999999999,"N_COORD97":2546252.2400000002,"ADDRESS":"大橋一街３１巷２號","OBJECTID":254692},"geometry":{"x":170586.27000000048,"y":2546252.2400000002}},{"attributes":{"ID":254697,"DIS_CODE":0,"TOWNNAME":"永康區","LI":"西橋里","LIN":"14鄰","STREET":"大橋一街","SECT":" ","MAREA":" ","LANE":"３１巷","ALLEY":" ","HOUSE_NO":"２４號","E_COORD97":170592.60000000001,"N_COORD97":2546294.2400000002,"ADDRESS":"大橋一街３１巷２４號","OBJECTID":254693},"geometry":{"x":170592.60000000056,"y":2546294.2399999984}},{"attributes":{"ID":254698,"DIS_CODE":0,"TOWNNAME":"永康區","LI":"西橋里","LIN":"14鄰","STREET":"中華西街","SECT":" ","MAREA":" ","LANE":"２３１巷","ALLEY":" ","HOUSE_NO":"７號","E_COORD97":170609.89999999999,"N_COORD97":2546393.4900000002,"ADDRESS":"中華西街２３１巷７號","OBJECTID":254694},"geometry":{"x":170609.9000000013,"y":2546393.4900000002}},{"attributes":{"ID":254699,"DIS_CODE":0,"TOWNNAME":"永康區","LI":"西橋里","LIN":"14鄰","STREET":"大橋一街","SECT":" ","MAREA":" ","LANE":"３１巷","ALLEY":" ","HOUSE_NO":"３２號","E_COORD97":170575.60000000001,"N_COORD97":2546325.75,"ADDRESS":"大橋一街３１巷３２號","OBJECTID":254695},"geometry":{"x":170575.60000000056,"y":2546325.7500000019}},{"attributes":{"ID":254700,"DIS_CODE":0,"TOWNNAME":"永康區","LI":"西橋里","LIN":"14鄰","STREET":"大橋一街","SECT":" ","MAREA":" ","LANE":"３１巷","ALLEY":" ","HOUSE_NO":"２８號","E_COORD97":170584.95999999999,"N_COORD97":2546308,"ADDRESS":"大橋一街３１巷２８號","OBJECTID":254696},"geometry":{"x":170584.95999999996,"y":2546308}},{"attributes":{"ID":254701,"DIS_CODE":0,"TOWNNAME":"安南區","LI":"溪頂里","LIN":"24鄰","STREET":"敦安街","SECT":" ","MAREA":" ","LANE":" ","ALLEY":" ","HOUSE_NO":"１５４號","E_COORD97":169035.38,"N_COORD97":2547559.6400000001,"ADDRESS":"敦安街１５４號","OBJECTID":254697},"geometry":{"x":169035.37999999989,"y":2547559.6400000006}},{"attributes":{"ID":254702,"DIS_CODE":0,"TOWNNAME":"善化區","LI":"光文里","LIN":"24鄰","STREET":"公園路","SECT":" ","MAREA":" ","LANE":" ","ALLEY":" ","HOUSE_NO":"５３號","E_COORD97":178270.45999999999,"N_COORD97":2559213.5,"ADDRESS":"公園路５３號","OBJECTID":254698},"geometry":{"x":178270.45999999996,"y":2559213.5000000019}},{"attributes":{"ID":254703,"DIS_CODE":0,"TOWNNAME":"善化區","LI":"光文里","LIN":"24鄰","STREET":"信義路","SECT":" ","MAREA":" ","LANE":" ","ALLEY":" ","HOUSE_NO":"１９２號","E_COORD97":178220.54000000001,"N_COORD97":2559200,"ADDRESS":"信義路１９２號","OBJECTID":254699},"geometry":{"x":178220.54000000097,"y":2559200.0000000019}},{"attributes":{"ID":254704,"DIS_CODE":0,"TOWNNAME":"善化區","LI":"光文里","LIN":"24鄰","STREET":"中山路","SECT":" ","MAREA":" ","LANE":" ","ALLEY":" ","HOUSE_NO":"２１２之１號","E_COORD97":178239.84,"N_COORD97":2559139.77,"ADDRESS":"中山路２１２之１號","OBJECTID":254700},"geometry":{"x":178239.84000000078,"y":2559139.7700000033}},{"attributes":{"ID":254705,"DIS_CODE":0,"TOWNNAME":"仁德區","LI":"後壁里","LIN":"16鄰","STREET":"德南路","SECT":" ","MAREA":" ","LANE":"４３巷","ALLEY":" ","HOUSE_NO":"５號","E_COORD97":173385.25,"N_COORD97":2538780.27,"ADDRESS":"德南路４３巷５號","OBJECTID":254701},"geometry":{"x":173385.24999999907,"y":2538780.2699999977}},{"attributes":{"ID":254706,"DIS_CODE":0,"TOWNNAME":"善化區","LI":"光文里","LIN":"24鄰","STREET":"中山路","SECT":" ","MAREA":" ","LANE":" ","ALLEY":" ","HOUSE_NO":"１９８號之９","E_COORD97":178283.42000000001,"N_COORD97":2559199.02,"ADDRESS":"中山路１９８號之９","OBJECTID":254702},"geometry":{"x":178283.42000000086,"y":2559199.0200000033}},{"attributes":{"ID":254707,"DIS_CODE":0,"TOWNNAME":"善化區","LI":"光文里","LIN":"24鄰","STREET":"信義路","SECT":" ","MAREA":" ","LANE":" ","ALLEY":" ","HOUSE_NO":"１７４號","E_COORD97":178229.98000000001,"N_COORD97":2559161.75,"ADDRESS":"信義路１７４號","OBJECTID":254703},"geometry":{"x":178229.98000000045,"y":2559161.7500000019}},{"attributes":{"ID":254708,"DIS_CODE":0,"TOWNNAME":"善化區","LI":"光文里","LIN":"24鄰","STREET":"信義路","SECT":" ","MAREA":" ","LANE":" ","ALLEY":" ","HOUSE_NO":"１７８號","E_COORD97":178230.07000000001,"N_COORD97":2559170.75,"ADDRESS":"信義路１７８號","OBJECTID":254704},"geometry":{"x":178230.07000000216,"y":2559170.7500000037}},{"attributes":{"ID":254709,"DIS_CODE":0,"TOWNNAME":"仁德區","LI":"成功里","LIN":"9鄰","STREET":"成功二街","SECT":" ","MAREA":" ","LANE":"７巷","ALLEY":" ","HOUSE_NO":"９號","E_COORD97":170954.81,"N_COORD97":2539994.77,"ADDRESS":"成功二街７巷９號","OBJECTID":254705},"geometry":{"x":170954.80999999959,"y":2539994.7700000014}},{"attributes":{"ID":254710,"DIS_CODE":0,"TOWNNAME":"中西區","LI":"西湖里","LIN":"27鄰","STREET":"湖美街","SECT":" ","MAREA":" ","LANE":"７０巷","ALLEY":" ","HOUSE_NO":"６號九樓之２０","E_COORD97":165982.98000000001,"N_COORD97":2544746.3199999998,"ADDRESS":"湖美街７０巷６號九樓之２０","OBJECTID":254706},"geometry":{"x":165982.98000000231,"y":2544746.3200000003}},{"attributes":{"ID":254711,"DIS_CODE":0,"TOWNNAME":"中西區","LI":"西湖里","LIN":"27鄰","STREET":"湖美街","SECT":" ","MAREA":" ","LANE":"７０巷","ALLEY":" ","HOUSE_NO":"６號八樓之２１","E_COORD97":165982.98000000001,"N_COORD97":2544746.3199999998,"ADDRESS":"湖美街７０巷６號八樓之２１","OBJECTID":254707},"geometry":{"x":165982.98000000231,"y":2544746.3200000003}},{"attributes":{"ID":254712,"DIS_CODE":0,"TOWNNAME":"中西區","LI":"西湖里","LIN":"27鄰","STREET":"湖美街","SECT":" ","MAREA":" ","LANE":"７０巷","ALLEY":" ","HOUSE_NO":"６號十一樓之２１","E_COORD97":165982.98000000001,"N_COORD97":2544746.3199999998,"ADDRESS":"湖美街７０巷６號十一樓之２１","OBJECTID":254708},"geometry":{"x":165982.98000000231,"y":2544746.3200000003}},{"attributes":{"ID":254713,"DIS_CODE":0,"TOWNNAME":"中西區","LI":"西湖里","LIN":"27鄰","STREET":"湖美街","SECT":" ","MAREA":" ","LANE":"７０巷","ALLEY":" ","HOUSE_NO":"６號十二樓之２０","E_COORD97":165982.98000000001,"N_COORD97":2544746.3199999998,"ADDRESS":"湖美街７０巷６號十二樓之２０","OBJECTID":254709},"geometry":{"x":165982.98000000231,"y":2544746.3200000003}},{"attributes":{"ID":254714,"DIS_CODE":0,"TOWNNAME":"中西區","LI":"西湖里","LIN":"27鄰","STREET":"湖美街","SECT":" ","MAREA":" ","LANE":"７０巷","ALLEY":" ","HOUSE_NO":"６號十三樓之２１","E_COORD97":165982.98000000001,"N_COORD97":2544746.3199999998,"ADDRESS":"湖美街７０巷６號十三樓之２１","OBJECTID":254710},"geometry":{"x":165982.98000000231,"y":2544746.3200000003}},{"attributes":{"ID":254715,"DIS_CODE":0,"TOWNNAME":"中西區","LI":"西湖里","LIN":"27鄰","STREET":"湖美街","SECT":" ","MAREA":" ","LANE":"７０巷","ALLEY":" ","HOUSE_NO":"６號十四樓之２０","E_COORD97":165982.98000000001,"N_COORD97":2544746.3199999998,"ADDRESS":"湖美街７０巷６號十四樓之２０","OBJECTID":254711},"geometry":{"x":165982.98000000231,"y":2544746.3200000003}},{"attributes":{"ID":254716,"DIS_CODE":0,"TOWNNAME":"中西區","LI":"西湖里","LIN":"27鄰","STREET":"湖美街","SECT":" ","MAREA":" ","LANE":"７０巷","ALLEY":" ","HOUSE_NO":"６號十樓之２１","E_COORD97":165982.98000000001,"N_COORD97":2544746.3199999998,"ADDRESS":"湖美街７０巷６號十樓之２１","OBJECTID":254712},"geometry":{"x":165982.98000000231,"y":2544746.3200000003}},{"attributes":{"ID":254717,"DIS_CODE":0,"TOWNNAME":"仁德區","LI":"後壁里","LIN":"39鄰","STREET":"德糖路","SECT":" ","MAREA":" ","LANE":"４０７巷","ALLEY":" ","HOUSE_NO":"４８號","E_COORD97":173438.09,"N_COORD97":2539018.0099999998,"ADDRESS":"德糖路４０７巷４８號","OBJECTID":254713},"geometry":{"x":173438.08999999985,"y":2539018.0100000016}},{"attributes":{"ID":254718,"DIS_CODE":0,"TOWNNAME":"永康區","LI":"西橋里","LIN":"14鄰","STREET":"大橋一街","SECT":" ","MAREA":" ","LANE":"３１巷","ALLEY":" ","HOUSE_NO":"２２號","E_COORD97":170585.64999999999,"N_COORD97":2546294.2400000002,"ADDRESS":"大橋一街３１巷２２號","OBJECTID":254714},"geometry":{"x":170585.65000000037,"y":2546294.2399999984}},{"attributes":{"ID":254719,"DIS_CODE":0,"TOWNNAME":"永康區","LI":"甲頂里","LIN":"14鄰","STREET":"大武街","SECT":" ","MAREA":" ","LANE":"１８巷","ALLEY":" ","HOUSE_NO":"３３號","E_COORD97":170378.73999999999,"N_COORD97":2546623.4100000001,"ADDRESS":"大武街１８巷３３號","OBJECTID":254715},"geometry":{"x":170378.74000000115,"y":2546623.410000002}},{"attributes":{"ID":254720,"DIS_CODE":0,"TOWNNAME":"永康區","LI":"甲頂里","LIN":"14鄰","STREET":"大武街","SECT":" ","MAREA":" ","LANE":"１８巷","ALLEY":" ","HOUSE_NO":"１９號","E_COORD97":170351.39999999999,"N_COORD97":2546642.9100000001,"ADDRESS":"大武街１８巷１９號","OBJECTID":254716},"geometry":{"x":170351.40000000037,"y":2546642.910000002}},{"attributes":{"ID":254721,"DIS_CODE":0,"TOWNNAME":"善化區","LI":"光文里","LIN":"24鄰","STREET":"中山路","SECT":" ","MAREA":" ","LANE":" ","ALLEY":" ","HOUSE_NO":"２０６之２號","E_COORD97":178272.75,"N_COORD97":2559142.27,"ADDRESS":"中山路２０６之２號","OBJECTID":254717},"geometry":{"x":178272.75000000093,"y":2559142.2699999996}},{"attributes":{"ID":254722,"DIS_CODE":0,"TOWNNAME":"善化區","LI":"光文里","LIN":"24鄰","STREET":"信義路","SECT":" ","MAREA":" ","LANE":" ","ALLEY":" ","HOUSE_NO":"１９３號","E_COORD97":178202.26000000001,"N_COORD97":2559192.25,"ADDRESS":"信義路１９３號","OBJECTID":254718},"geometry":{"x":178202.25999999978,"y":2559192.2500000019}},{"attributes":{"ID":254723,"DIS_CODE":0,"TOWNNAME":"仁德區","LI":"大甲里","LIN":"24鄰","STREET":"中正西路","SECT":" ","MAREA":" ","LANE":" ","ALLEY":" ","HOUSE_NO":"３７７號","E_COORD97":169671.12,"N_COORD97":2535395.4900000002,"ADDRESS":"中正西路３７７號","OBJECTID":254719},"geometry":{"x":169671.12000000104,"y":2535395.4900000002}},{"attributes":{"ID":254724,"DIS_CODE":0,"TOWNNAME":"仁德區","LI":"大甲里","LIN":"24鄰","STREET":"中正西路","SECT":" ","MAREA":" ","LANE":" ","ALLEY":" ","HOUSE_NO":"３７１號","E_COORD97":169685.64999999999,"N_COORD97":2535395.2400000002,"ADDRESS":"中正西路３７１號","OBJECTID":254720},"geometry":{"x":169685.65000000037,"y":2535395.2400000021}},{"attributes":{"ID":254725,"DIS_CODE":0,"TOWNNAME":"仁德區","LI":"大甲里","LIN":"24鄰","STREET":"中正西路","SECT":" ","MAREA":" ","LANE":" ","ALLEY":" ","HOUSE_NO":"３７３號","E_COORD97":169680.73000000001,"N_COORD97":2535394.9900000002,"ADDRESS":"中正西路３７３號","OBJECTID":254721},"geometry":{"x":169680.73000000138,"y":2535394.9900000002}},{"attributes":{"ID":254726,"DIS_CODE":0,"TOWNNAME":"仁德區","LI":"大甲里","LIN":"24鄰","STREET":"中正西路","SECT":" ","MAREA":" ","LANE":" ","ALLEY":" ","HOUSE_NO":"３８７號","E_COORD97":169644.26000000001,"N_COORD97":2535382.2400000002,"ADDRESS":"中正西路３８７號","OBJECTID":254722},"geometry":{"x":169644.26000000071,"y":2535382.2400000021}},{"attributes":{"ID":254727,"DIS_CODE":0,"TOWNNAME":"仁德區","LI":"大甲里","LIN":"24鄰","STREET":"中正西路","SECT":" ","MAREA":" ","LANE":" ","ALLEY":" ","HOUSE_NO":"３７９號","E_COORD97":169666.95999999999,"N_COORD97":2535395.2400000002,"ADDRESS":"中正西路３７９號","OBJECTID":254723},"geometry":{"x":169666.96000000089,"y":2535395.2400000021}},{"attributes":{"ID":254728,"DIS_CODE":0,"TOWNNAME":"仁德區","LI":"大甲里","LIN":"24鄰","STREET":"中正西路","SECT":" ","MAREA":" ","LANE":" ","ALLEY":" ","HOUSE_NO":"３８１號","E_COORD97":169662.37,"N_COORD97":2535395.2400000002,"ADDRESS":"中正西路３８１號","OBJECTID":254724},"geometry":{"x":169662.37000000104,"y":2535395.2400000021}},{"attributes":{"ID":254729,"DIS_CODE":0,"TOWNNAME":"善化區","LI":"光文里","LIN":"24鄰","STREET":"信義路","SECT":" ","MAREA":" ","LANE":" ","ALLEY":" ","HOUSE_NO":"１９７號","E_COORD97":178201.03,"N_COORD97":2559201.75,"ADDRESS":"信義路１９７號","OBJECTID":254725},"geometry":{"x":178201.03000000026,"y":2559201.7500000019}},{"attributes":{"ID":254730,"DIS_CODE":0,"TOWNNAME":"善化區","LI":"光文里","LIN":"24鄰","STREET":"信義路","SECT":" ","MAREA":" ","LANE":" ","ALLEY":" ","HOUSE_NO":"１８６號","E_COORD97":178230.01999999999,"N_COORD97":2559188,"ADDRESS":"信義路１８６號","OBJECTID":254726},"geometry":{"x":178230.02000000048,"y":2559188}},{"attributes":{"ID":254731,"DIS_CODE":0,"TOWNNAME":"永康區","LI":"復華里","LIN":"27鄰","STREET":"復華八街","SECT":" ","MAREA":" ","LANE":"５１巷","ALLEY":" ","HOUSE_NO":"３５號七樓之３","E_COORD97":172702.98000000001,"N_COORD97":2546429.1400000001,"ADDRESS":"復華八街５１巷３５號七樓之３","OBJECTID":254727},"geometry":{"x":172702.98000000138,"y":2546429.1400000025}},{"attributes":{"ID":254732,"DIS_CODE":0,"TOWNNAME":"永康區","LI":"復華里","LIN":"27鄰","STREET":"復華八街","SECT":" ","MAREA":" ","LANE":"５１巷","ALLEY":" ","HOUSE_NO":"３５號十樓之２","E_COORD97":172703.01999999999,"N_COORD97":2546429.1400000001,"ADDRESS":"復華八街５１巷３５號十樓之２","OBJECTID":254728},"geometry":{"x":172703.01999999955,"y":2546429.1400000025}},{"attributes":{"ID":254733,"DIS_CODE":0,"TOWNNAME":"永康區","LI":"甲頂里","LIN":"14鄰","STREET":"大武街","SECT":" ","MAREA":" ","LANE":"１８巷","ALLEY":" ","HOUSE_NO":"３５號","E_COORD97":170383.17999999999,"N_COORD97":2546620.9100000001,"ADDRESS":"大武街１８巷３５號","OBJECTID":254729},"geometry":{"x":170383.17999999877,"y":2546620.9100000001}},{"attributes":{"ID":254734,"DIS_CODE":0,"TOWNNAME":"永康區","LI":"西橋里","LIN":"14鄰","STREET":"中華西街","SECT":" ","MAREA":" ","LANE":"２３１巷","ALLEY":" ","HOUSE_NO":"１號","E_COORD97":170621.89999999999,"N_COORD97":2546385.9900000002,"ADDRESS":"中華西街２３１巷１號","OBJECTID":254730},"geometry":{"x":170621.9000000013,"y":2546385.9900000002}},{"attributes":{"ID":254735,"DIS_CODE":0,"TOWNNAME":"永康區","LI":"西橋里","LIN":"14鄰","STREET":"大橋一街","SECT":" ","MAREA":" ","LANE":"３１巷","ALLEY":" ","HOUSE_NO":"４０號","E_COORD97":170578.39999999999,"N_COORD97":2546343.25,"ADDRESS":"大橋一街３１巷４０號","OBJECTID":254731},"geometry":{"x":170578.40000000037,"y":2546343.2500000019}},{"attributes":{"ID":254736,"DIS_CODE":0,"TOWNNAME":"永康區","LI":"西橋里","LIN":"14鄰","STREET":"大橋一街","SECT":" ","MAREA":" ","LANE":"３１巷","ALLEY":" ","HOUSE_NO":"８號","E_COORD97":170584.54000000001,"N_COORD97":2546269.2400000002,"ADDRESS":"大橋一街３１巷８號","OBJECTID":254732},"geometry":{"x":170584.53999999911,"y":2546269.2400000002}},{"attributes":{"ID":254737,"DIS_CODE":0,"TOWNNAME":"永康區","LI":"西橋里","LIN":"14鄰","STREET":"大橋一街","SECT":" ","MAREA":" ","LANE":"３１巷","ALLEY":" ","HOUSE_NO":"５８號","E_COORD97":170588.95000000001,"N_COORD97":2546379.7400000002,"ADDRESS":"大橋一街３１巷５８號","OBJECTID":254733},"geometry":{"x":170588.95000000112,"y":2546379.7400000021}},{"attributes":{"ID":254738,"DIS_CODE":0,"TOWNNAME":"永康區","LI":"龍潭里","LIN":"14鄰","STREET":"龍橋街","SECT":" ","MAREA":" ","LANE":"９３巷","ALLEY":" ","HOUSE_NO":"１２號","E_COORD97":174681.16,"N_COORD97":2548432.4100000001,"ADDRESS":"龍橋街９３巷１２號","OBJECTID":254734},"geometry":{"x":174681.16000000201,"y":2548432.4100000039}},{"attributes":{"ID":254739,"DIS_CODE":0,"TOWNNAME":"永康區","LI":"龍潭里","LIN":"14鄰","STREET":"龍橋街","SECT":" ","MAREA":" ","LANE":"９３巷","ALLEY":" ","HOUSE_NO":"２０號","E_COORD97":174662.91,"N_COORD97":2548406.4100000001,"ADDRESS":"龍橋街９３巷２０號","OBJECTID":254735},"geometry":{"x":174662.91000000108,"y":2548406.410000002}},{"attributes":{"ID":254740,"DIS_CODE":0,"TOWNNAME":"中西區","LI":"五妃里","LIN":"14鄰","STREET":"南門路","SECT":" ","MAREA":" ","LANE":"２０９巷","ALLEY":" ","HOUSE_NO":"２５號","E_COORD97":168514.84,"N_COORD97":2542833.3799999999,"ADDRESS":"南門路２０９巷２５號","OBJECTID":254736},"geometry":{"x":168514.84000000078,"y":2542833.379999999}},{"attributes":{"ID":254741,"DIS_CODE":0,"TOWNNAME":"中西區","LI":"五妃里","LIN":"14鄰","STREET":"南門路","SECT":" ","MAREA":" ","LANE":"２０９巷","ALLEY":" ","HOUSE_NO":"２５號之１","E_COORD97":168519.44,"N_COORD97":2542833.3799999999,"ADDRESS":"南門路２０９巷２５號之１","OBJECTID":254737},"geometry":{"x":168519.44000000134,"y":2542833.379999999}},{"attributes":{"ID":254742,"DIS_CODE":0,"TOWNNAME":"中西區","LI":"五妃里","LIN":"14鄰","STREET":"南門路","SECT":" ","MAREA":" ","LANE":"２０９巷","ALLEY":" ","HOUSE_NO":"２７號","E_COORD97":168529.78,"N_COORD97":2542831.0800000001,"ADDRESS":"南門路２０９巷２７號","OBJECTID":254738},"geometry":{"x":168529.78000000026,"y":2542831.0800000019}},{"attributes":{"ID":254743,"DIS_CODE":0,"TOWNNAME":"中西區","LI":"五妃里","LIN":"14鄰","STREET":"南門路","SECT":" ","MAREA":" ","LANE":"２０９巷","ALLEY":" ","HOUSE_NO":"２９號","E_COORD97":168537.70000000001,"N_COORD97":2542830.0600000001,"ADDRESS":"南門路２０９巷２９號","OBJECTID":254739},"geometry":{"x":168537.70000000205,"y":2542830.0600000005}},{"attributes":{"ID":254744,"DIS_CODE":0,"TOWNNAME":"中西區","LI":"五妃里","LIN":"14鄰","STREET":"南門路","SECT":" ","MAREA":" ","LANE":"２０９巷","ALLEY":" ","HOUSE_NO":"２９號之１","E_COORD97":168544.07999999999,"N_COORD97":2542829.2999999998,"ADDRESS":"南門路２０９巷２９號之１","OBJECTID":254740},"geometry":{"x":168544.08000000101,"y":2542829.3000000007}},{"attributes":{"ID":254745,"DIS_CODE":0,"TOWNNAME":"善化區","LI":"光文里","LIN":"24鄰","STREET":"信義路","SECT":" ","MAREA":" ","LANE":" ","ALLEY":" ","HOUSE_NO":"１９１號","E_COORD97":178203.01999999999,"N_COORD97":2559187.5,"ADDRESS":"信義路１９１號","OBJECTID":254741},"geometry":{"x":178203.02000000048,"y":2559187.5000000019}},{"attributes":{"ID":254746,"DIS_CODE":0,"TOWNNAME":"善化區","LI":"光文里","LIN":"24鄰","STREET":"信義路","SECT":" ","MAREA":" ","LANE":" ","ALLEY":" ","HOUSE_NO":"１９６號","E_COORD97":178219.62,"N_COORD97":2559209,"ADDRESS":"信義路１９６號","OBJECTID":254742},"geometry":{"x":178219.62000000104,"y":2559209}},{"attributes":{"ID":254747,"DIS_CODE":0,"TOWNNAME":"善化區","LI":"光文里","LIN":"24鄰","STREET":"信義路","SECT":" ","MAREA":" ","LANE":" ","ALLEY":" ","HOUSE_NO":"１８７號","E_COORD97":178204.75,"N_COORD97":2559178.75,"ADDRESS":"信義路１８７號","OBJECTID":254743},"geometry":{"x":178204.75000000186,"y":2559178.7500000019}},{"attributes":{"ID":254748,"DIS_CODE":0,"TOWNNAME":"永康區","LI":"復華里","LIN":"27鄰","STREET":"復華八街","SECT":" ","MAREA":" ","LANE":"５１巷","ALLEY":" ","HOUSE_NO":"３５號七樓之２","E_COORD97":172703.01999999999,"N_COORD97":2546429.1400000001,"ADDRESS":"復華八街５１巷３５號七樓之２","OBJECTID":254744},"geometry":{"x":172703.01999999955,"y":2546429.1400000025}},{"attributes":{"ID":254749,"DIS_CODE":0,"TOWNNAME":"中西區","LI":"五妃里","LIN":"14鄰","STREET":"南門路","SECT":" ","MAREA":" ","LANE":"２０９巷","ALLEY":" ","HOUSE_NO":"２９號之２","E_COORD97":168551.23000000001,"N_COORD97":2542829.04,"ADDRESS":"南門路２０９巷２９號之２","OBJECTID":254745},"geometry":{"x":168551.23000000231,"y":2542829.0399999991}},{"attributes":{"ID":254750,"DIS_CODE":0,"TOWNNAME":"中西區","LI":"仙草里","LIN":"14鄰","STREET":"西門路","SECT":"一段","MAREA":" ","LANE":"４８２巷","ALLEY":" ","HOUSE_NO":"３號","E_COORD97":167775.35000000001,"N_COORD97":2542688.02,"ADDRESS":"西門路一段４８２巷３號","OBJECTID":254746},"geometry":{"x":167775.35000000056,"y":2542688.0200000033}},{"attributes":{"ID":254751,"DIS_CODE":0,"TOWNNAME":"新化區","LI":"知義里","LIN":"14鄰","STREET":"復興路","SECT":" ","MAREA":" ","LANE":"１１４巷","ALLEY":" ","HOUSE_NO":"２號","E_COORD97":179512.42000000001,"N_COORD97":2547745.25,"ADDRESS":"復興路１１４巷２號","OBJECTID":254747},"geometry":{"x":179512.42000000086,"y":2547745.2500000037}},{"attributes":{"ID":254752,"DIS_CODE":0,"TOWNNAME":"新化區","LI":"東榮里","LIN":"14鄰","STREET":"復興路","SECT":" ","MAREA":" ","LANE":"１１４巷","ALLEY":" ","HOUSE_NO":"２７號","E_COORD97":179779.87,"N_COORD97":2547777.25,"ADDRESS":"復興路１１４巷２７號","OBJECTID":254748},"geometry":{"x":179779.87000000011,"y":2547777.2500000019}},{"attributes":{"ID":254753,"DIS_CODE":0,"TOWNNAME":"新化區","LI":"東榮里","LIN":"14鄰","STREET":"復興路","SECT":" ","MAREA":" ","LANE":"１１４巷","ALLEY":" ","HOUSE_NO":"３９號","E_COORD97":179849.37,"N_COORD97":2547783.25,"ADDRESS":"復興路１１４巷３９號","OBJECTID":254749},"geometry":{"x":179849.37000000011,"y":2547783.2500000019}},{"attributes":{"ID":254754,"DIS_CODE":0,"TOWNNAME":"安南區","LI":"城南里","LIN":"14鄰","STREET":"城西街","SECT":"二段","MAREA":" ","LANE":"２６３巷","ALLEY":" ","HOUSE_NO":"１２８號","E_COORD97":159510.82000000001,"N_COORD97":2550727.21,"ADDRESS":"城西街二段２６３巷１２８號","OBJECTID":254750},"geometry":{"x":159510.82000000123,"y":2550727.2100000028}},{"attributes":{"ID":254755,"DIS_CODE":0,"TOWNNAME":"安南區","LI":"城南里","LIN":"14鄰","STREET":"城西街","SECT":"二段","MAREA":" ","LANE":"２６３巷","ALLEY":" ","HOUSE_NO":"８０號","E_COORD97":159593.53,"N_COORD97":2550790.1699999999,"ADDRESS":"城西街二段２６３巷８０號","OBJECTID":254751},"geometry":{"x":159593.53000000119,"y":2550790.1700000037}},{"attributes":{"ID":254756,"DIS_CODE":0,"TOWNNAME":"安南區","LI":"城南里","LIN":"14鄰","STREET":"城西街","SECT":"二段","MAREA":" ","LANE":"２６３巷","ALLEY":" ","HOUSE_NO":"８２號","E_COORD97":159585.01999999999,"N_COORD97":2550773.1899999999,"ADDRESS":"城西街二段２６３巷８２號","OBJECTID":254752},"geometry":{"x":159585.02000000048,"y":2550773.1900000013}},{"attributes":{"ID":254757,"DIS_CODE":0,"TOWNNAME":"安南區","LI":"淵中里","LIN":"14鄰","STREET":"安中路","SECT":"四段","MAREA":" ","LANE":"１５４巷","ALLEY":" ","HOUSE_NO":"４８號","E_COORD97":165040.42999999999,"N_COORD97":2550127.1600000001,"ADDRESS":"安中路四段１５４巷４８號","OBJECTID":254753},"geometry":{"x":165040.43000000063,"y":2550127.160000002}},{"attributes":{"ID":254758,"DIS_CODE":0,"TOWNNAME":"安南區","LI":"淵中里","LIN":"14鄰","STREET":"安中路","SECT":"四段","MAREA":" ","LANE":"１５４巷","ALLEY":" ","HOUSE_NO":"５０號","E_COORD97":165045.20999999999,"N_COORD97":2550129.8599999999,"ADDRESS":"安中路四段１５４巷５０號","OBJECTID":254754},"geometry":{"x":165045.21000000183,"y":2550129.8599999994}},{"attributes":{"ID":254759,"DIS_CODE":0,"TOWNNAME":"安南區","LI":"淵中里","LIN":"14鄰","STREET":"安中路","SECT":"四段","MAREA":" ","LANE":"１５４巷","ALLEY":" ","HOUSE_NO":"５４號","E_COORD97":165051.60999999999,"N_COORD97":2550135.5299999998,"ADDRESS":"安中路四段１５４巷５４號","OBJECTID":254755},"geometry":{"x":165051.61000000127,"y":2550135.5299999993}},{"attributes":{"ID":254760,"DIS_CODE":0,"TOWNNAME":"安南區","LI":"佃西里","LIN":"14鄰","STREET":"公學路","SECT":"四段","MAREA":" ","LANE":"２９４巷","ALLEY":" ","HOUSE_NO":"４號","E_COORD97":165335.98999999999,"N_COORD97":2551811.6200000001,"ADDRESS":"公學路四段２９４巷４號","OBJECTID":254756},"geometry":{"x":165335.99000000115,"y":2551811.620000001}},{"attributes":{"ID":254761,"DIS_CODE":0,"TOWNNAME":"安南區","LI":"安西里","LIN":"14鄰","STREET":"安和路","SECT":"一段","MAREA":" ","LANE":"１５９巷","ALLEY":" ","HOUSE_NO":"１３４號","E_COORD97":169179.5,"N_COORD97":2547987.1699999999,"ADDRESS":"安和路一段１５９巷１３４號","OBJECTID":254757},"geometry":{"x":169179.50000000186,"y":2547987.1700000018}},{"attributes":{"ID":254762,"DIS_CODE":0,"TOWNNAME":"安南區","LI":"安西里","LIN":"14鄰","STREET":"安和路","SECT":"一段","MAREA":" ","LANE":"１５９巷","ALLEY":" ","HOUSE_NO":"１３２號","E_COORD97":169180.28,"N_COORD97":2547982.48,"ADDRESS":"安和路一段１５９巷１３２號","OBJECTID":254758},"geometry":{"x":169180.28000000119,"y":2547982.4800000023}},{"attributes":{"ID":254763,"DIS_CODE":0,"TOWNNAME":"安南區","LI":"海南里","LIN":"14鄰","STREET":"府安路","SECT":"七段","MAREA":" ","LANE":"６６巷","ALLEY":" ","HOUSE_NO":"１４號","E_COORD97":165899.82000000001,"N_COORD97":2545945.8799999999,"ADDRESS":"府安路七段６６巷１４號","OBJECTID":254759},"geometry":{"x":165899.82000000123,"y":2545945.879999999}},{"attributes":{"ID":254764,"DIS_CODE":0,"TOWNNAME":"安南區","LI":"幸福里","LIN":"14鄰","STREET":"府安路","SECT":"六段","MAREA":" ","LANE":"４５巷","ALLEY":" ","HOUSE_NO":"８號","E_COORD97":166971.01000000001,"N_COORD97":2546683.9100000001,"ADDRESS":"府安路六段４５巷８號","OBJECTID":254760},"geometry":{"x":166971.01000000071,"y":2546683.910000002}},{"attributes":{"ID":254765,"DIS_CODE":0,"TOWNNAME":"安南區","LI":"幸福里","LIN":"14鄰","STREET":"府安路","SECT":"六段","MAREA":" ","LANE":"４５巷","ALLEY":" ","HOUSE_NO":"４０號","E_COORD97":166954.81,"N_COORD97":2546767.4100000001,"ADDRESS":"府安路六段４５巷４０號","OBJECTID":254761},"geometry":{"x":166954.81000000052,"y":2546767.4100000001}},{"attributes":{"ID":254766,"DIS_CODE":0,"TOWNNAME":"善化區","LI":"光文里","LIN":"24鄰","STREET":"中山路","SECT":" ","MAREA":" ","LANE":" ","ALLEY":" ","HOUSE_NO":"２１８號","E_COORD97":178179.97,"N_COORD97":2559129.75,"ADDRESS":"中山路２１８號","OBJECTID":254762},"geometry":{"x":178179.97000000067,"y":2559129.75}},{"attributes":{"ID":254767,"DIS_CODE":0,"TOWNNAME":"仁德區","LI":"後壁里","LIN":"34鄰","STREET":"德洋二街","SECT":" ","MAREA":" ","LANE":"３１巷","ALLEY":" ","HOUSE_NO":"１１號","E_COORD97":172400.92000000001,"N_COORD97":2539371.77,"ADDRESS":"德洋二街３１巷１１號","OBJECTID":254763},"geometry":{"x":172400.92000000179,"y":2539371.7700000014}},{"attributes":{"ID":254768,"DIS_CODE":0,"TOWNNAME":"安南區","LI":"海南里","LIN":"14鄰","STREET":"府安路","SECT":"七段","MAREA":" ","LANE":"６６巷","ALLEY":" ","HOUSE_NO":"１０號","E_COORD97":165910.32000000001,"N_COORD97":2545933.5899999999,"ADDRESS":"府安路七段６６巷１０號","OBJECTID":254764},"geometry":{"x":165910.3200000003,"y":2545933.5900000017}},{"attributes":{"ID":254769,"DIS_CODE":0,"TOWNNAME":"安南區","LI":"海南里","LIN":"14鄰","STREET":"府安路","SECT":"七段","MAREA":" ","LANE":"６６巷","ALLEY":" ","HOUSE_NO":"１２號","E_COORD97":165904.45999999999,"N_COORD97":2545939.2000000002,"ADDRESS":"府安路七段６６巷１２號","OBJECTID":254765},"geometry":{"x":165904.45999999996,"y":2545939.2000000011}},{"attributes":{"ID":254770,"DIS_CODE":0,"TOWNNAME":"安南區","LI":"海南里","LIN":"14鄰","STREET":"府安路","SECT":"七段","MAREA":" ","LANE":"６６巷","ALLEY":" ","HOUSE_NO":"１６號","E_COORD97":165895.76000000001,"N_COORD97":2545953.6800000002,"ADDRESS":"府安路七段６６巷１６號","OBJECTID":254766},"geometry":{"x":165895.76000000164,"y":2545953.6799999997}},{"attributes":{"ID":254771,"DIS_CODE":0,"TOWNNAME":"安南區","LI":"海南里","LIN":"14鄰","STREET":"府安路","SECT":"七段","MAREA":" ","LANE":"６６巷","ALLEY":" ","HOUSE_NO":"１７號","E_COORD97":165869.63,"N_COORD97":2545945.9199999999,"ADDRESS":"府安路七段６６巷１７號","OBJECTID":254767},"geometry":{"x":165869.63000000175,"y":2545945.9199999999}},{"attributes":{"ID":254772,"DIS_CODE":0,"TOWNNAME":"善化區","LI":"光文里","LIN":"24鄰","STREET":"信義路","SECT":" ","MAREA":" ","LANE":" ","ALLEY":" ","HOUSE_NO":"１８９號","E_COORD97":178203.35000000001,"N_COORD97":2559183.25,"ADDRESS":"信義路１８９號","OBJECTID":254768},"geometry":{"x":178203.34999999963,"y":2559183.25}},{"attributes":{"ID":254773,"DIS_CODE":0,"TOWNNAME":"善化區","LI":"光文里","LIN":"24鄰","STREET":"中山路","SECT":" ","MAREA":" ","LANE":" ","ALLEY":" ","HOUSE_NO":"２１６號","E_COORD97":178193.22,"N_COORD97":2559131.75,"ADDRESS":"中山路２１６號","OBJECTID":254769},"geometry":{"x":178193.22000000067,"y":2559131.7500000019}},{"attributes":{"ID":254774,"DIS_CODE":0,"TOWNNAME":"安南區","LI":"海南里","LIN":"14鄰","STREET":"府安路","SECT":"七段","MAREA":" ","LANE":"６６巷","ALLEY":" ","HOUSE_NO":"１８號","E_COORD97":165889.35999999999,"N_COORD97":2545959.1400000001,"ADDRESS":"府安路七段６６巷１８號","OBJECTID":254770},"geometry":{"x":165889.36000000127,"y":2545959.1400000006}},{"attributes":{"ID":254775,"DIS_CODE":0,"TOWNNAME":"安南區","LI":"海南里","LIN":"14鄰","STREET":"府安路","SECT":"七段","MAREA":" ","LANE":"６６巷","ALLEY":" ","HOUSE_NO":"１９號","E_COORD97":165864.44,"N_COORD97":2545953.1800000002,"ADDRESS":"府安路七段６６巷１９號","OBJECTID":254771},"geometry":{"x":165864.44000000041,"y":2545953.1800000016}},{"attributes":{"ID":254776,"DIS_CODE":0,"TOWNNAME":"安南區","LI":"海南里","LIN":"14鄰","STREET":"府安路","SECT":"七段","MAREA":" ","LANE":"６６巷","ALLEY":" ","HOUSE_NO":"２３號","E_COORD97":165854.20000000001,"N_COORD97":2545967.3100000001,"ADDRESS":"府安路七段６６巷２３號","OBJECTID":254772},"geometry":{"x":165854.20000000205,"y":2545967.3100000005}},{"attributes":{"ID":254777,"DIS_CODE":0,"TOWNNAME":"安南區","LI":"海南里","LIN":"14鄰","STREET":"府安路","SECT":"七段","MAREA":" ","LANE":"６６巷","ALLEY":" ","HOUSE_NO":"９號","E_COORD97":165887.69,"N_COORD97":2545916.8199999998,"ADDRESS":"府安路七段６６巷９號","OBJECTID":254773},"geometry":{"x":165887.69000000041,"y":2545916.8200000003}},{"attributes":{"ID":254778,"DIS_CODE":0,"TOWNNAME":"安南區","LI":"幸福里","LIN":"14鄰","STREET":"府安路","SECT":"六段","MAREA":" ","LANE":"４５巷","ALLEY":" ","HOUSE_NO":"１３號","E_COORD97":166947.23000000001,"N_COORD97":2546689.4500000002,"ADDRESS":"府安路六段４５巷１３號","OBJECTID":254774},"geometry":{"x":166947.23000000045,"y":2546689.4500000011}},{"attributes":{"ID":254779,"DIS_CODE":0,"TOWNNAME":"善化區","LI":"文正里","LIN":"14鄰","STREET":"陽明路","SECT":" ","MAREA":" ","LANE":"５７巷","ALLEY":" ","HOUSE_NO":"７２號","E_COORD97":176310.45000000001,"N_COORD97":2559335.2599999998,"ADDRESS":"陽明路５７巷７２號","OBJECTID":254775},"geometry":{"x":176310.45000000112,"y":2559335.2599999998}},{"attributes":{"ID":254780,"DIS_CODE":0,"TOWNNAME":"善化區","LI":"文正里","LIN":"14鄰","STREET":"興農路","SECT":" ","MAREA":" ","LANE":"１８８巷","ALLEY":" ","HOUSE_NO":"２８號","E_COORD97":175899.54999999999,"N_COORD97":2559262.5099999998,"ADDRESS":"興農路１８８巷２８號","OBJECTID":254776},"geometry":{"x":175899.55000000075,"y":2559262.5099999998}},{"attributes":{"ID":254781,"DIS_CODE":0,"TOWNNAME":"東區","LI":"自強里","LIN":"27鄰","STREET":"中華東路","SECT":"二段","MAREA":" ","LANE":"１３３巷","ALLEY":" ","HOUSE_NO":"６號三樓","E_COORD97":171397.06,"N_COORD97":2542851.5600000001,"ADDRESS":"中華東路二段１３３巷６號三樓","OBJECTID":254777},"geometry":{"x":171397.05999999959,"y":2542851.5600000042}},{"attributes":{"ID":254782,"DIS_CODE":0,"TOWNNAME":"東區","LI":"自強里","LIN":"27鄰","STREET":"中華東路","SECT":"二段","MAREA":" ","LANE":"１３３巷","ALLEY":" ","HOUSE_NO":"６號五樓","E_COORD97":171397.06,"N_COORD97":2542851.5600000001,"ADDRESS":"中華東路二段１３３巷６號五樓","OBJECTID":254778},"geometry":{"x":171397.05999999959,"y":2542851.5600000042}},{"attributes":{"ID":254783,"DIS_CODE":0,"TOWNNAME":"東區","LI":"自強里","LIN":"27鄰","STREET":"中華東路","SECT":"二段","MAREA":" ","LANE":"１３３巷","ALLEY":" ","HOUSE_NO":"６號四樓","E_COORD97":171520.26000000001,"N_COORD97":2542754.4300000002,"ADDRESS":"中華東路二段１３３巷６號四樓","OBJECTID":254779},"geometry":{"x":171520.26000000164,"y":2542754.4300000016}},{"attributes":{"ID":254784,"DIS_CODE":0,"TOWNNAME":"善化區","LI":"文正里","LIN":"14鄰","STREET":"陽明路","SECT":" ","MAREA":" ","LANE":"５７巷","ALLEY":" ","HOUSE_NO":"６５號之１","E_COORD97":176344.92000000001,"N_COORD97":2559250.77,"ADDRESS":"陽明路５７巷６５號之１","OBJECTID":254780},"geometry":{"x":176344.91999999993,"y":2559250.7699999996}},{"attributes":{"ID":254785,"DIS_CODE":0,"TOWNNAME":"東區","LI":"新東里","LIN":"14鄰","STREET":"裕豐街","SECT":" ","MAREA":" ","LANE":"１１５巷","ALLEY":" ","HOUSE_NO":"７號","E_COORD97":170721.32000000001,"N_COORD97":2543003.8199999998,"ADDRESS":"裕豐街１１５巷７號","OBJECTID":254781},"geometry":{"x":170721.3200000003,"y":2543003.8200000003}},{"attributes":{"ID":254786,"DIS_CODE":0,"TOWNNAME":"善化區","LI":"文正里","LIN":"14鄰","STREET":"興農路","SECT":" ","MAREA":" ","LANE":"１８８巷","ALLEY":" ","HOUSE_NO":"３２號（該建物係為農","E_COORD97":175844.01000000001,"N_COORD97":2559236.5099999998,"ADDRESS":"興農路１８８巷３２號（該建物係為農業設施不得設籍）","OBJECTID":254782},"geometry":{"x":175844.00999999978,"y":2559236.5100000035}},{"attributes":{"ID":254787,"DIS_CODE":0,"TOWNNAME":"善化區","LI":"坐駕里","LIN":"14鄰","STREET":"大成路","SECT":" ","MAREA":" ","LANE":"３６７巷","ALLEY":" ","HOUSE_NO":"３５號","E_COORD97":178225.42999999999,"N_COORD97":2558652.25,"ADDRESS":"大成路３６７巷３５號","OBJECTID":254783},"geometry":{"x":178225.43000000063,"y":2558652.2500000037}},{"attributes":{"ID":254788,"DIS_CODE":0,"TOWNNAME":"善化區","LI":"光文里","LIN":"14鄰","STREET":"民生路","SECT":" ","MAREA":" ","LANE":"１８３巷","ALLEY":" ","HOUSE_NO":"１號","E_COORD97":178454.09,"N_COORD97":2558933.0099999998,"ADDRESS":"民生路１８３巷１號","OBJECTID":254784},"geometry":{"x":178454.08999999985,"y":2558933.0100000016}},{"attributes":{"ID":254789,"DIS_CODE":0,"TOWNNAME":"善化區","LI":"坐駕里","LIN":"14鄰","STREET":"大成路","SECT":" ","MAREA":" ","LANE":"３６７巷","ALLEY":" ","HOUSE_NO":"４１號","E_COORD97":178253.14999999999,"N_COORD97":2558636.5,"ADDRESS":"大成路３６７巷４１號","OBJECTID":254785},"geometry":{"x":178253.14999999944,"y":2558636.5}},{"attributes":{"ID":254790,"DIS_CODE":0,"TOWNNAME":"善化區","LI":"坐駕里","LIN":"14鄰","STREET":"大成路","SECT":" ","MAREA":" ","LANE":"３６７巷","ALLEY":" ","HOUSE_NO":"５３號","E_COORD97":178284.54000000001,"N_COORD97":2558623.25,"ADDRESS":"大成路３６７巷５３號","OBJECTID":254786},"geometry":{"x":178284.54000000097,"y":2558623.25}},{"attributes":{"ID":254791,"DIS_CODE":0,"TOWNNAME":"善化區","LI":"光文里","LIN":"14鄰","STREET":"民生路","SECT":" ","MAREA":" ","LANE":"１８３巷","ALLEY":" ","HOUSE_NO":"９號","E_COORD97":178456.94,"N_COORD97":2558909.2599999998,"ADDRESS":"民生路１８３巷９號","OBJECTID":254787},"geometry":{"x":178456.94000000134,"y":2558909.2599999979}},{"attributes":{"ID":254792,"DIS_CODE":0,"TOWNNAME":"東區","LI":"富裕里","LIN":"14鄰","STREET":"裕豐街","SECT":" ","MAREA":" ","LANE":"１１２巷","ALLEY":" ","HOUSE_NO":"６號","E_COORD97":170765.16,"N_COORD97":2542886.5699999998,"ADDRESS":"裕豐街１１２巷６號","OBJECTID":254788},"geometry":{"x":170765.16000000015,"y":2542886.5700000022}},{"attributes":{"ID":254793,"DIS_CODE":0,"TOWNNAME":"善化區","LI":"坐駕里","LIN":"14鄰","STREET":"大成路","SECT":" ","MAREA":" ","LANE":"３６７巷","ALLEY":" ","HOUSE_NO":"３７號","E_COORD97":178234.31,"N_COORD97":2558648,"ADDRESS":"大成路３６７巷３７號","OBJECTID":254789},"geometry":{"x":178234.30999999866,"y":2558648.0000000019}},{"attributes":{"ID":254794,"DIS_CODE":0,"TOWNNAME":"東區","LI":"大學里","LIN":"14鄰","STREET":"長榮路","SECT":"三段","MAREA":" ","LANE":"３０巷","ALLEY":" ","HOUSE_NO":"１１號","E_COORD97":170253.75,"N_COORD97":2543728.8199999998,"ADDRESS":"長榮路三段３０巷１１號","OBJECTID":254790},"geometry":{"x":170253.75,"y":2543728.8200000022}},{"attributes":{"ID":254795,"DIS_CODE":0,"TOWNNAME":"東區","LI":"大學里","LIN":"14鄰","STREET":"長榮路","SECT":"三段","MAREA":" ","LANE":"３０巷","ALLEY":" ","HOUSE_NO":"１２號","E_COORD97":170259.03,"N_COORD97":2543696.2999999998,"ADDRESS":"長榮路三段３０巷１２號","OBJECTID":254791},"geometry":{"x":170259.03000000026,"y":2543696.3000000007}},{"attributes":{"ID":254796,"DIS_CODE":0,"TOWNNAME":"東區","LI":"大學里","LIN":"14鄰","STREET":"長榮路","SECT":"三段","MAREA":" ","LANE":"３０巷","ALLEY":" ","HOUSE_NO":"１３號","E_COORD97":170258.95999999999,"N_COORD97":2543730.7599999998,"ADDRESS":"長榮路三段３０巷１３號","OBJECTID":254792},"geometry":{"x":170258.95999999996,"y":2543730.7600000035}},{"attributes":{"ID":254797,"DIS_CODE":0,"TOWNNAME":"東區","LI":"大學里","LIN":"14鄰","STREET":"長榮路","SECT":"三段","MAREA":" ","LANE":"３０巷","ALLEY":" ","HOUSE_NO":"１６號","E_COORD97":170271.20999999999,"N_COORD97":2543691.9199999999,"ADDRESS":"長榮路三段３０巷１６號","OBJECTID":254793},"geometry":{"x":170271.20999999996,"y":2543691.9199999999}},{"attributes":{"ID":254798,"DIS_CODE":0,"TOWNNAME":"東區","LI":"大學里","LIN":"14鄰","STREET":"長榮路","SECT":"三段","MAREA":" ","LANE":"３０巷","ALLEY":" ","HOUSE_NO":"１號","E_COORD97":170226.75,"N_COORD97":2543720.54,"ADDRESS":"長榮路三段３０巷１號","OBJECTID":254794},"geometry":{"x":170226.75,"y":2543720.5399999991}},{"attributes":{"ID":254799,"DIS_CODE":0,"TOWNNAME":"東區","LI":"大學里","LIN":"14鄰","STREET":"長榮路","SECT":"三段","MAREA":" ","LANE":"３０巷","ALLEY":" ","HOUSE_NO":"２０號","E_COORD97":170270.03,"N_COORD97":2543701.04,"ADDRESS":"長榮路三段３０巷２０號","OBJECTID":254795},"geometry":{"x":170270.03000000119,"y":2543701.0400000028}},{"attributes":{"ID":254800,"DIS_CODE":0,"TOWNNAME":"東區","LI":"大學里","LIN":"14鄰","STREET":"長榮路","SECT":"三段","MAREA":" ","LANE":"３０巷","ALLEY":" ","HOUSE_NO":"２２號","E_COORD97":170263.70000000001,"N_COORD97":2543702.9199999999,"ADDRESS":"長榮路三段３０巷２２號","OBJECTID":254796},"geometry":{"x":170263.70000000112,"y":2543702.9200000018}},{"attributes":{"ID":254801,"DIS_CODE":0,"TOWNNAME":"東區","LI":"大學里","LIN":"14鄰","STREET":"長榮路","SECT":"三段","MAREA":" ","LANE":"３０巷","ALLEY":" ","HOUSE_NO":"２４號","E_COORD97":170257.17000000001,"N_COORD97":2543706.5099999998,"ADDRESS":"長榮路三段３０巷２４號","OBJECTID":254797},"geometry":{"x":170257.17000000086,"y":2543706.5100000016}},{"attributes":{"ID":254802,"DIS_CODE":0,"TOWNNAME":"東區","LI":"大學里","LIN":"14鄰","STREET":"長榮路","SECT":"三段","MAREA":" ","LANE":"３０巷","ALLEY":" ","HOUSE_NO":"４號","E_COORD97":170238.29999999999,"N_COORD97":2543703.1200000001,"ADDRESS":"長榮路三段３０巷４號","OBJECTID":254798},"geometry":{"x":170238.29999999981,"y":2543703.1200000029}},{"attributes":{"ID":254803,"DIS_CODE":0,"TOWNNAME":"東區","LI":"大學里","LIN":"14鄰","STREET":"長榮路","SECT":"三段","MAREA":" ","LANE":"３０巷","ALLEY":" ","HOUSE_NO":"６號","E_COORD97":170242.60999999999,"N_COORD97":2543701.7999999998,"ADDRESS":"長榮路三段３０巷６號","OBJECTID":254799},"geometry":{"x":170242.61000000127,"y":2543701.8000000026}},{"attributes":{"ID":254804,"DIS_CODE":0,"TOWNNAME":"東區","LI":"大學里","LIN":"14鄰","STREET":"長榮路","SECT":"三段","MAREA":" ","LANE":"３０巷","ALLEY":" ","HOUSE_NO":"７號","E_COORD97":170242.26000000001,"N_COORD97":2543724.9199999999,"ADDRESS":"長榮路三段３０巷７號","OBJECTID":254800},"geometry":{"x":170242.26000000164,"y":2543724.9199999999}}]}