{"displayFieldName":"TOWNNAME","fieldAliases":{"ID":"ID","DIS_CODE":"DIS_CODE","TOWNNAME":"TOWNNAME","LI":"LI","LIN":"LIN","STREET":"STREET","SECT":"SECT","MAREA":"MAREA","LANE":"LANE","ALLEY":"ALLEY","HOUSE_NO":"HOUSE_NO","E_COORD97":"E_COORD97","N_COORD97":"N_COORD97","ADDRESS":"ADDRESS","OBJECTID":"OBJECTID"},"geometryType":"esriGeometryPoint","spatialReference":{"wkid":102443,"latestWkid":3826},"fields":[{"name":"ID","type":"esriFieldTypeDouble","alias":"ID"},{"name":"DIS_CODE","type":"esriFieldTypeInteger","alias":"DIS_CODE"},{"name":"TOWNNAME","type":"esriFieldTypeString","alias":"TOWNNAME","length":8},{"name":"LI","type":"esriFieldTypeString","alias":"LI","length":8},{"name":"LIN","type":"esriFieldTypeString","alias":"LIN","length":12},{"name":"STREET","type":"esriFieldTypeString","alias":"STREET","length":20},{"name":"SECT","type":"esriFieldTypeString","alias":"SECT","length":8},{"name":"MAREA","type":"esriFieldTypeString","alias":"MAREA","length":12},{"name":"LANE","type":"esriFieldTypeString","alias":"LANE","length":10},{"name":"ALLEY","type":"esriFieldTypeString","alias":"ALLEY","length":10},{"name":"HOUSE_NO","type":"esriFieldTypeString","alias":"HOUSE_NO","length":20},{"name":"E_COORD97","type":"esriFieldTypeDouble","alias":"E_COORD97"},{"name":"N_COORD97","type":"esriFieldTypeDouble","alias":"N_COORD97"},{"name":"ADDRESS","type":"esriFieldTypeString","alias":"ADDRESS","length":50},{"name":"OBJECTID","type":"esriFieldTypeOID","alias":"OBJECTID"}],"features":[{"attributes":{"ID":318609,"DIS_CODE":0,"TOWNNAME":"中西區","LI":"安海里","LIN":"17鄰","STREET":"民生路","SECT":"二段","MAREA":" ","LANE":" ","ALLEY":" ","HOUSE_NO":"３０５號九樓之２","E_COORD97":167078.95999999999,"N_COORD97":2544161.6899999999,"ADDRESS":"民生路二段３０５號九樓之２","OBJECTID":318601},"geometry":{"x":167078.95999999996,"y":2544161.6900000013}},{"attributes":{"ID":318610,"DIS_CODE":0,"TOWNNAME":"中西區","LI":"安海里","LIN":"17鄰","STREET":"民生路","SECT":"二段","MAREA":" ","LANE":" ","ALLEY":" ","HOUSE_NO":"３０５號九樓之３","E_COORD97":167078.95999999999,"N_COORD97":2544161.6899999999,"ADDRESS":"民生路二段３０５號九樓之３","OBJECTID":318602},"geometry":{"x":167078.95999999996,"y":2544161.6900000013}},{"attributes":{"ID":318611,"DIS_CODE":0,"TOWNNAME":"歸仁區","LI":"看西里","LIN":"14鄰","STREET":"大成路","SECT":" ","MAREA":" ","LANE":" ","ALLEY":" ","HOUSE_NO":"４６２號","E_COORD97":178231.89466200001,"N_COORD97":2540162.82064,"ADDRESS":"大成路４６２號","OBJECTID":318603},"geometry":{"x":178231.89466200117,"y":2540162.8206360023}},{"attributes":{"ID":318612,"DIS_CODE":0,"TOWNNAME":"南區","LI":"松安里","LIN":"7鄰","STREET":"灣裡路","SECT":" ","MAREA":" ","LANE":"２８２巷","ALLEY":" ","HOUSE_NO":"４９號","E_COORD97":166039.66,"N_COORD97":2536311.8900000001,"ADDRESS":"灣裡路２８２巷４９號","OBJECTID":318604},"geometry":{"x":166039.66000000108,"y":2536311.8900000006}},{"attributes":{"ID":318613,"DIS_CODE":0,"TOWNNAME":"仁德區","LI":"後壁里","LIN":"15鄰","STREET":"德南路","SECT":" ","MAREA":" ","LANE":"１３７巷","ALLEY":" ","HOUSE_NO":"７２號","E_COORD97":173630.48999999999,"N_COORD97":2538685.27,"ADDRESS":"德南路１３７巷７２號","OBJECTID":318605},"geometry":{"x":173630.49000000115,"y":2538685.2699999977}},{"attributes":{"ID":318614,"DIS_CODE":0,"TOWNNAME":"仁德區","LI":"新田里","LIN":"15鄰","STREET":"北保東路","SECT":" ","MAREA":" ","LANE":"８巷","ALLEY":" ","HOUSE_NO":"１０號","E_COORD97":173355.79000000001,"N_COORD97":2539376.5,"ADDRESS":"北保東路８巷１０號","OBJECTID":318606},"geometry":{"x":173355.79000000004,"y":2539376.5000000019}},{"attributes":{"ID":318615,"DIS_CODE":0,"TOWNNAME":"仁德區","LI":"後壁里","LIN":"15鄰","STREET":"德南路","SECT":" ","MAREA":" ","LANE":"１３７巷","ALLEY":" ","HOUSE_NO":"６６之３號","E_COORD97":173632.26999999999,"N_COORD97":2538655.6200000001,"ADDRESS":"德南路１３７巷６６之３號","OBJECTID":318607},"geometry":{"x":173632.27000000142,"y":2538655.6200000029}},{"attributes":{"ID":318616,"DIS_CODE":0,"TOWNNAME":"鹽水區","LI":"飯店里","LIN":"4鄰","STREET":" ","SECT":" ","MAREA":"飯店","LANE":" ","ALLEY":" ","HOUSE_NO":"１９號","E_COORD97":170040.76000000001,"N_COORD97":2574206.21,"ADDRESS":"飯店１９號","OBJECTID":318608},"geometry":{"x":170040.76000000071,"y":2574206.2100000028}},{"attributes":{"ID":318617,"DIS_CODE":0,"TOWNNAME":"鹽水區","LI":"飯店里","LIN":"4鄰","STREET":" ","SECT":" ","MAREA":"飯店","LANE":" ","ALLEY":" ","HOUSE_NO":"２１號之１０","E_COORD97":169524.70000000001,"N_COORD97":2575288.3199999998,"ADDRESS":"飯店２１號之１０","OBJECTID":318609},"geometry":{"x":169524.70000000112,"y":2575288.3199999984}},{"attributes":{"ID":318618,"DIS_CODE":0,"TOWNNAME":"鹽水區","LI":"飯店里","LIN":"4鄰","STREET":" ","SECT":" ","MAREA":"飯店","LANE":" ","ALLEY":" ","HOUSE_NO":"２１號之１","E_COORD97":169904.51000000001,"N_COORD97":2575403.3500000001,"ADDRESS":"飯店２１號之１","OBJECTID":318610},"geometry":{"x":169904.50999999978,"y":2575403.3500000015}},{"attributes":{"ID":318619,"DIS_CODE":0,"TOWNNAME":"鹽水區","LI":"飯店里","LIN":"4鄰","STREET":" ","SECT":" ","MAREA":"飯店","LANE":" ","ALLEY":" ","HOUSE_NO":"２１號之２","E_COORD97":169896.79000000001,"N_COORD97":2575201.4700000002,"ADDRESS":"飯店２１號之２","OBJECTID":318611},"geometry":{"x":169896.79000000097,"y":2575201.4700000007}},{"attributes":{"ID":318620,"DIS_CODE":0,"TOWNNAME":"鹽水區","LI":"歡雅里","LIN":"24鄰","STREET":" ","SECT":" ","MAREA":"頂寮","LANE":" ","ALLEY":" ","HOUSE_NO":"１０號","E_COORD97":171975.32000000001,"N_COORD97":2575480.1299999999,"ADDRESS":"頂寮１０號","OBJECTID":318612},"geometry":{"x":171975.32000000123,"y":2575480.129999999}},{"attributes":{"ID":318621,"DIS_CODE":0,"TOWNNAME":"鹽水區","LI":"歡雅里","LIN":"24鄰","STREET":" ","SECT":" ","MAREA":"頂寮","LANE":" ","ALLEY":" ","HOUSE_NO":"１１號","E_COORD97":171963.87,"N_COORD97":2575494.6600000001,"ADDRESS":"頂寮１１號","OBJECTID":318613},"geometry":{"x":171963.87000000011,"y":2575494.6600000001}},{"attributes":{"ID":318622,"DIS_CODE":0,"TOWNNAME":"鹽水區","LI":"歡雅里","LIN":"24鄰","STREET":" ","SECT":" ","MAREA":"頂寮","LANE":" ","ALLEY":" ","HOUSE_NO":"１３號","E_COORD97":171936.19,"N_COORD97":2575560.0800000001,"ADDRESS":"頂寮１３號","OBJECTID":318614},"geometry":{"x":171936.19000000041,"y":2575560.0800000001}},{"attributes":{"ID":318623,"DIS_CODE":0,"TOWNNAME":"鹽水區","LI":"飯店里","LIN":"4鄰","STREET":" ","SECT":" ","MAREA":"飯店","LANE":" ","ALLEY":" ","HOUSE_NO":"２１號之３","E_COORD97":169954.94,"N_COORD97":2575349.9399999999,"ADDRESS":"飯店２１號之３","OBJECTID":318615},"geometry":{"x":169954.94000000041,"y":2575349.9399999995}},{"attributes":{"ID":318624,"DIS_CODE":0,"TOWNNAME":"鹽水區","LI":"飯店里","LIN":"4鄰","STREET":" ","SECT":" ","MAREA":"飯店","LANE":" ","ALLEY":" ","HOUSE_NO":"２１號之７","E_COORD97":169477.53,"N_COORD97":2575634.9199999999,"ADDRESS":"飯店２１號之７","OBJECTID":318616},"geometry":{"x":169477.53000000026,"y":2575634.9199999999}},{"attributes":{"ID":318625,"DIS_CODE":0,"TOWNNAME":"仁德區","LI":"後壁里","LIN":"15鄰","STREET":"德善路","SECT":" ","MAREA":" ","LANE":"１０８巷","ALLEY":" ","HOUSE_NO":"２２號","E_COORD97":173476.60999999999,"N_COORD97":2538760.02,"ADDRESS":"德善路１０８巷２２號","OBJECTID":318617},"geometry":{"x":173476.6100000022,"y":2538760.0200000014}},{"attributes":{"ID":318626,"DIS_CODE":0,"TOWNNAME":"鹽水區","LI":"飯店里","LIN":"4鄰","STREET":" ","SECT":" ","MAREA":"飯店","LANE":" ","ALLEY":" ","HOUSE_NO":"２１號","E_COORD97":169533.69,"N_COORD97":2575300.21,"ADDRESS":"飯店２１號","OBJECTID":318618},"geometry":{"x":169533.69000000134,"y":2575300.2100000046}},{"attributes":{"ID":318627,"DIS_CODE":0,"TOWNNAME":"仁德區","LI":"後壁里","LIN":"15鄰","STREET":"德南路","SECT":" ","MAREA":" ","LANE":"１３７巷","ALLEY":" ","HOUSE_NO":"６６之７號","E_COORD97":173642.81,"N_COORD97":2538647.3700000001,"ADDRESS":"德南路１３７巷６６之７號","OBJECTID":318619},"geometry":{"x":173642.81000000052,"y":2538647.3700000029}},{"attributes":{"ID":318628,"DIS_CODE":0,"TOWNNAME":"新化區","LI":"武安里","LIN":"1鄰","STREET":"公園路","SECT":" ","MAREA":" ","LANE":" ","ALLEY":" ","HOUSE_NO":"１１號","E_COORD97":179065.98000000001,"N_COORD97":2547712.25,"ADDRESS":"公園路１１號","OBJECTID":318620},"geometry":{"x":179065.98000000045,"y":2547712.2500000019}},{"attributes":{"ID":318629,"DIS_CODE":0,"TOWNNAME":"新營區","LI":"民榮里","LIN":"10鄰","STREET":"裕民路","SECT":" ","MAREA":" ","LANE":" ","ALLEY":" ","HOUSE_NO":"９號","E_COORD97":179152.618029,"N_COORD97":2577864.8211400001,"ADDRESS":"裕民路９號","OBJECTID":318621},"geometry":{"x":179152.61802900024,"y":2577864.821138002}},{"attributes":{"ID":318630,"DIS_CODE":0,"TOWNNAME":"歸仁區","LI":"看西里","LIN":"2鄰","STREET":"成功六街","SECT":" ","MAREA":" ","LANE":" ","ALLEY":" ","HOUSE_NO":"１５號","E_COORD97":178437.72401100001,"N_COORD97":2540345.92551,"ADDRESS":"成功六街１５號","OBJECTID":318622},"geometry":{"x":178437.72401100025,"y":2540345.925508}},{"attributes":{"ID":318631,"DIS_CODE":0,"TOWNNAME":"仁德區","LI":"後壁里","LIN":"15鄰","STREET":"德南路","SECT":" ","MAREA":" ","LANE":"１３７巷","ALLEY":" ","HOUSE_NO":"６６之１１號","E_COORD97":173657.25,"N_COORD97":2538636.6200000001,"ADDRESS":"德南路１３７巷６６之１１號","OBJECTID":318623},"geometry":{"x":173657.25000000093,"y":2538636.620000001}},{"attributes":{"ID":318632,"DIS_CODE":0,"TOWNNAME":"仁德區","LI":"後壁里","LIN":"15鄰","STREET":"德南路","SECT":" ","MAREA":" ","LANE":"１３７巷","ALLEY":" ","HOUSE_NO":"６８之７號","E_COORD97":173649.92000000001,"N_COORD97":2538656.3700000001,"ADDRESS":"德南路１３７巷６８之７號","OBJECTID":318624},"geometry":{"x":173649.91999999993,"y":2538656.3700000029}},{"attributes":{"ID":318633,"DIS_CODE":0,"TOWNNAME":"仁德區","LI":"後壁里","LIN":"15鄰","STREET":"德南路","SECT":" ","MAREA":" ","LANE":"１３７巷","ALLEY":" ","HOUSE_NO":"７６號","E_COORD97":173633.64000000001,"N_COORD97":2538688.2599999998,"ADDRESS":"德南路１３７巷７６號","OBJECTID":318625},"geometry":{"x":173633.6400000006,"y":2538688.2599999998}},{"attributes":{"ID":318634,"DIS_CODE":0,"TOWNNAME":"官田區","LI":"隆本里","LIN":"15鄰","STREET":"復興街","SECT":" ","MAREA":" ","LANE":"１１７巷","ALLEY":" ","HOUSE_NO":"１０號","E_COORD97":179569.60999999999,"N_COORD97":2566370.6499999999,"ADDRESS":"復興街１１７巷１０號","OBJECTID":318626},"geometry":{"x":179569.61000000127,"y":2566370.6500000022}},{"attributes":{"ID":318635,"DIS_CODE":0,"TOWNNAME":"官田區","LI":"隆本里","LIN":"15鄰","STREET":"復興街","SECT":" ","MAREA":" ","LANE":"１１７巷","ALLEY":" ","HOUSE_NO":"１１號","E_COORD97":179594.13,"N_COORD97":2566360.2999999998,"ADDRESS":"復興街１１７巷１１號","OBJECTID":318627},"geometry":{"x":179594.13000000082,"y":2566360.3000000026}},{"attributes":{"ID":318636,"DIS_CODE":0,"TOWNNAME":"官田區","LI":"隆本里","LIN":"15鄰","STREET":"復興街","SECT":" ","MAREA":" ","LANE":"１１７巷","ALLEY":" ","HOUSE_NO":"１２號","E_COORD97":179569.67000000001,"N_COORD97":2566366.3300000001,"ADDRESS":"復興街１１７巷１２號","OBJECTID":318628},"geometry":{"x":179569.66999999993,"y":2566366.3300000019}},{"attributes":{"ID":318637,"DIS_CODE":0,"TOWNNAME":"官田區","LI":"隆本里","LIN":"15鄰","STREET":"復興街","SECT":" ","MAREA":" ","LANE":"１１７巷","ALLEY":" ","HOUSE_NO":"１３號","E_COORD97":179593.37,"N_COORD97":2566356.23,"ADDRESS":"復興街１１７巷１３號","OBJECTID":318629},"geometry":{"x":179593.37000000011,"y":2566356.2300000023}},{"attributes":{"ID":318638,"DIS_CODE":0,"TOWNNAME":"官田區","LI":"隆本里","LIN":"15鄰","STREET":"復興街","SECT":" ","MAREA":" ","LANE":"１１７巷","ALLEY":" ","HOUSE_NO":"１６號","E_COORD97":179569.04999999999,"N_COORD97":2566362.0699999998,"ADDRESS":"復興街１１７巷１６號","OBJECTID":318630},"geometry":{"x":179569.05000000075,"y":2566362.0700000003}},{"attributes":{"ID":318639,"DIS_CODE":0,"TOWNNAME":"鹽水區","LI":"後宅里","LIN":"8鄰","STREET":" ","SECT":" ","MAREA":"番子寮","LANE":" ","ALLEY":" ","HOUSE_NO":"２９號","E_COORD97":171887.98999999999,"N_COORD97":2578205.3100000001,"ADDRESS":"番子寮２９號","OBJECTID":318631},"geometry":{"x":171887.99000000022,"y":2578205.3100000024}},{"attributes":{"ID":318640,"DIS_CODE":0,"TOWNNAME":"鹽水區","LI":"後宅里","LIN":"8鄰","STREET":" ","SECT":" ","MAREA":"番子寮","LANE":" ","ALLEY":" ","HOUSE_NO":"３１號之１","E_COORD97":171847.26999999999,"N_COORD97":2578223.6200000001,"ADDRESS":"番子寮３１號之１","OBJECTID":318632},"geometry":{"x":171847.27000000142,"y":2578223.6200000029}},{"attributes":{"ID":318641,"DIS_CODE":0,"TOWNNAME":"鹽水區","LI":"後宅里","LIN":"8鄰","STREET":" ","SECT":" ","MAREA":"番子寮","LANE":" ","ALLEY":" ","HOUSE_NO":"３１之２號","E_COORD97":171859.23999999999,"N_COORD97":2578262.3100000001,"ADDRESS":"番子寮３１之２號","OBJECTID":318633},"geometry":{"x":171859.24000000022,"y":2578262.3100000042}},{"attributes":{"ID":318642,"DIS_CODE":0,"TOWNNAME":"鹽水區","LI":"後宅里","LIN":"8鄰","STREET":" ","SECT":" ","MAREA":"番子寮","LANE":" ","ALLEY":" ","HOUSE_NO":"３１號","E_COORD97":171817.97,"N_COORD97":2578299.3199999998,"ADDRESS":"番子寮３１號","OBJECTID":318634},"geometry":{"x":171817.97000000067,"y":2578299.320000004}},{"attributes":{"ID":318643,"DIS_CODE":0,"TOWNNAME":"鹽水區","LI":"歡雅里","LIN":"1鄰","STREET":" ","SECT":" ","MAREA":"歡雅","LANE":" ","ALLEY":" ","HOUSE_NO":"２３號","E_COORD97":172474.95999999999,"N_COORD97":2576882.4399999999,"ADDRESS":"歡雅２３號","OBJECTID":318635},"geometry":{"x":172474.95999999996,"y":2576882.4399999995}},{"attributes":{"ID":318644,"DIS_CODE":0,"TOWNNAME":"官田區","LI":"隆本里","LIN":"15鄰","STREET":"復興街","SECT":" ","MAREA":" ","LANE":"１１７巷","ALLEY":" ","HOUSE_NO":"１８號","E_COORD97":179568.59,"N_COORD97":2566357.6400000001,"ADDRESS":"復興街１１７巷１８號","OBJECTID":318636},"geometry":{"x":179568.59000000171,"y":2566357.6400000025}},{"attributes":{"ID":318645,"DIS_CODE":0,"TOWNNAME":"鹽水區","LI":"岸內里","LIN":"26鄰","STREET":" ","SECT":" ","MAREA":"新岸內","LANE":" ","ALLEY":" ","HOUSE_NO":"１之１０號","E_COORD97":174266.75,"N_COORD97":2580435.4900000002,"ADDRESS":"新岸內１之１０號","OBJECTID":318637},"geometry":{"x":174266.74999999907,"y":2580435.4900000021}},{"attributes":{"ID":318646,"DIS_CODE":0,"TOWNNAME":"官田區","LI":"隆本里","LIN":"15鄰","STREET":"復興街","SECT":" ","MAREA":" ","LANE":"１１７巷","ALLEY":" ","HOUSE_NO":"１號","E_COORD97":179595.60999999999,"N_COORD97":2566381.5600000001,"ADDRESS":"復興街１１７巷１號","OBJECTID":318638},"geometry":{"x":179595.61000000034,"y":2566381.5600000024}},{"attributes":{"ID":318647,"DIS_CODE":0,"TOWNNAME":"官田區","LI":"隆本里","LIN":"15鄰","STREET":"復興街","SECT":" ","MAREA":" ","LANE":"１１７巷","ALLEY":" ","HOUSE_NO":"２號","E_COORD97":179570.66,"N_COORD97":2566383.4900000002,"ADDRESS":"復興街１１７巷２號","OBJECTID":318639},"geometry":{"x":179570.66000000108,"y":2566383.4900000002}},{"attributes":{"ID":318648,"DIS_CODE":0,"TOWNNAME":"鹽水區","LI":"岸內里","LIN":"26鄰","STREET":" ","SECT":" ","MAREA":"新岸內","LANE":" ","ALLEY":" ","HOUSE_NO":"１號之１１","E_COORD97":174207.41,"N_COORD97":2580450.5499999998,"ADDRESS":"新岸內１號之１１","OBJECTID":318640},"geometry":{"x":174207.41000000108,"y":2580450.5500000007}},{"attributes":{"ID":318649,"DIS_CODE":0,"TOWNNAME":"鹽水區","LI":"岸內里","LIN":"25鄰","STREET":" ","SECT":" ","MAREA":"新岸內","LANE":" ","ALLEY":" ","HOUSE_NO":"１之１２號","E_COORD97":174483.23999999999,"N_COORD97":2580371.3900000001,"ADDRESS":"新岸內１之１２號","OBJECTID":318641},"geometry":{"x":174483.24000000115,"y":2580371.3900000025}},{"attributes":{"ID":318650,"DIS_CODE":0,"TOWNNAME":"鹽水區","LI":"岸內里","LIN":"25鄰","STREET":" ","SECT":" ","MAREA":"新岸內","LANE":" ","ALLEY":" ","HOUSE_NO":"１之１３號","E_COORD97":174397.39999999999,"N_COORD97":2580447.25,"ADDRESS":"新岸內１之１３號","OBJECTID":318642},"geometry":{"x":174397.4000000013,"y":2580447.25}},{"attributes":{"ID":318651,"DIS_CODE":0,"TOWNNAME":"鹽水區","LI":"岸內里","LIN":"25鄰","STREET":" ","SECT":" ","MAREA":"新岸內","LANE":" ","ALLEY":" ","HOUSE_NO":"１號之１４","E_COORD97":174390.67000000001,"N_COORD97":2580448.4900000002,"ADDRESS":"新岸內１號之１４","OBJECTID":318643},"geometry":{"x":174390.66999999993,"y":2580448.4900000021}},{"attributes":{"ID":318652,"DIS_CODE":0,"TOWNNAME":"官田區","LI":"隆本里","LIN":"15鄰","STREET":"復興街","SECT":" ","MAREA":" ","LANE":"１１７巷","ALLEY":" ","HOUSE_NO":"３號","E_COORD97":179595.19,"N_COORD97":2566377.2000000002,"ADDRESS":"復興街１１７巷３號","OBJECTID":318644},"geometry":{"x":179595.19000000041,"y":2566377.1999999993}},{"attributes":{"ID":318653,"DIS_CODE":0,"TOWNNAME":"官田區","LI":"隆本里","LIN":"15鄰","STREET":"復興街","SECT":" ","MAREA":" ","LANE":"１１７巷","ALLEY":" ","HOUSE_NO":"５號","E_COORD97":179594.73000000001,"N_COORD97":2566373.3199999998,"ADDRESS":"復興街１１７巷５號","OBJECTID":318645},"geometry":{"x":179594.73000000045,"y":2566373.3200000022}},{"attributes":{"ID":318654,"DIS_CODE":0,"TOWNNAME":"中西區","LI":"安海里","LIN":"17鄰","STREET":"民生路","SECT":"二段","MAREA":" ","LANE":" ","ALLEY":" ","HOUSE_NO":"３０５號九樓之５","E_COORD97":167078.95999999999,"N_COORD97":2544161.6899999999,"ADDRESS":"民生路二段３０５號九樓之５","OBJECTID":318646},"geometry":{"x":167078.95999999996,"y":2544161.6900000013}},{"attributes":{"ID":318655,"DIS_CODE":0,"TOWNNAME":"仁德區","LI":"仁德里","LIN":"39鄰","STREET":"文山路","SECT":" ","MAREA":" ","LANE":" ","ALLEY":" ","HOUSE_NO":"２５３號","E_COORD97":172643.01000000001,"N_COORD97":2541790.3300000001,"ADDRESS":"文山路２５３號","OBJECTID":318647},"geometry":{"x":172643.01000000071,"y":2541790.3300000001}},{"attributes":{"ID":318656,"DIS_CODE":0,"TOWNNAME":"鹽水區","LI":"義稠里","LIN":"11鄰","STREET":" ","SECT":" ","MAREA":"義稠","LANE":" ","ALLEY":" ","HOUSE_NO":"１５７號之１","E_COORD97":173607.48000000001,"N_COORD97":2580769.5299999998,"ADDRESS":"義稠１５７號之１","OBJECTID":318648},"geometry":{"x":173607.48000000045,"y":2580769.5300000012}},{"attributes":{"ID":318657,"DIS_CODE":0,"TOWNNAME":"鹽水區","LI":"義稠里","LIN":"7鄰","STREET":" ","SECT":" ","MAREA":"義稠","LANE":" ","ALLEY":" ","HOUSE_NO":"９４號","E_COORD97":173919.73000000001,"N_COORD97":2580688.9300000002,"ADDRESS":"義稠９４號","OBJECTID":318649},"geometry":{"x":173919.73000000045,"y":2580688.9300000016}},{"attributes":{"ID":318658,"DIS_CODE":0,"TOWNNAME":"鹽水區","LI":"義稠里","LIN":"6鄰","STREET":" ","SECT":" ","MAREA":"義稠","LANE":" ","ALLEY":" ","HOUSE_NO":"７６號之１","E_COORD97":174195.62,"N_COORD97":2580818.7999999998,"ADDRESS":"義稠７６號之１","OBJECTID":318650},"geometry":{"x":174195.62000000104,"y":2580818.8000000045}},{"attributes":{"ID":318659,"DIS_CODE":0,"TOWNNAME":"鹽水區","LI":"義稠里","LIN":"6鄰","STREET":" ","SECT":" ","MAREA":"義稠","LANE":" ","ALLEY":" ","HOUSE_NO":"７６之３號","E_COORD97":174204.06,"N_COORD97":2580819.3700000001,"ADDRESS":"義稠７６之３號","OBJECTID":318651},"geometry":{"x":174204.06000000052,"y":2580819.3700000029}},{"attributes":{"ID":318660,"DIS_CODE":0,"TOWNNAME":"鹽水區","LI":"義稠里","LIN":"6鄰","STREET":" ","SECT":" ","MAREA":"義稠","LANE":" ","ALLEY":" ","HOUSE_NO":"７６號","E_COORD97":174189.85000000001,"N_COORD97":2580816.8199999998,"ADDRESS":"義稠７６號","OBJECTID":318652},"geometry":{"x":174189.85000000056,"y":2580816.8200000003}},{"attributes":{"ID":318661,"DIS_CODE":0,"TOWNNAME":"鹽水區","LI":"義稠里","LIN":"6鄰","STREET":" ","SECT":" ","MAREA":"義稠","LANE":" ","ALLEY":" ","HOUSE_NO":"７７號之１","E_COORD97":174176.67999999999,"N_COORD97":2580813.3900000001,"ADDRESS":"義稠７７號之１","OBJECTID":318653},"geometry":{"x":174176.6799999997,"y":2580813.3900000006}},{"attributes":{"ID":318662,"DIS_CODE":0,"TOWNNAME":"鹽水區","LI":"義稠里","LIN":"6鄰","STREET":" ","SECT":" ","MAREA":"義稠","LANE":" ","ALLEY":" ","HOUSE_NO":"７７號","E_COORD97":174164.01000000001,"N_COORD97":2580810.02,"ADDRESS":"義稠７７號","OBJECTID":318654},"geometry":{"x":174164.00999999978,"y":2580810.0200000014}},{"attributes":{"ID":318663,"DIS_CODE":0,"TOWNNAME":"鹽水區","LI":"義稠里","LIN":"6鄰","STREET":" ","SECT":" ","MAREA":"義稠","LANE":" ","ALLEY":" ","HOUSE_NO":"７８號","E_COORD97":174107.39000000001,"N_COORD97":2580807.79,"ADDRESS":"義稠７８號","OBJECTID":318655},"geometry":{"x":174107.38999999966,"y":2580807.790000001}},{"attributes":{"ID":318664,"DIS_CODE":0,"TOWNNAME":"鹽水區","LI":"義稠里","LIN":"6鄰","STREET":" ","SECT":" ","MAREA":"義稠","LANE":" ","ALLEY":" ","HOUSE_NO":"７９號","E_COORD97":174095.45000000001,"N_COORD97":2580804.1000000001,"ADDRESS":"義稠７９號","OBJECTID":318656},"geometry":{"x":174095.45000000019,"y":2580804.0999999996}},{"attributes":{"ID":318665,"DIS_CODE":0,"TOWNNAME":"鹽水區","LI":"義稠里","LIN":"6鄰","STREET":" ","SECT":" ","MAREA":"義稠","LANE":" ","ALLEY":" ","HOUSE_NO":"８０號之３","E_COORD97":174143.92999999999,"N_COORD97":2580807.79,"ADDRESS":"義稠８０號之３","OBJECTID":318657},"geometry":{"x":174143.93000000063,"y":2580807.790000001}},{"attributes":{"ID":318666,"DIS_CODE":0,"TOWNNAME":"官田區","LI":"隆本里","LIN":"15鄰","STREET":"復興街","SECT":" ","MAREA":" ","LANE":"１１７巷","ALLEY":" ","HOUSE_NO":"６號","E_COORD97":179570.41,"N_COORD97":2566379.4700000002,"ADDRESS":"復興街１１７巷６號","OBJECTID":318658},"geometry":{"x":179570.41000000108,"y":2566379.4700000025}},{"attributes":{"ID":318667,"DIS_CODE":0,"TOWNNAME":"官田區","LI":"隆本里","LIN":"15鄰","STREET":"復興街","SECT":" ","MAREA":" ","LANE":"１１７巷","ALLEY":" ","HOUSE_NO":"７號","E_COORD97":179594.32999999999,"N_COORD97":2566368.6800000002,"ADDRESS":"復興街１１７巷７號","OBJECTID":318659},"geometry":{"x":179594.33000000194,"y":2566368.6800000034}},{"attributes":{"ID":318668,"DIS_CODE":0,"TOWNNAME":"鹽水區","LI":"義稠里","LIN":"6鄰","STREET":" ","SECT":" ","MAREA":"義稠","LANE":" ","ALLEY":" ","HOUSE_NO":"８０號之４","E_COORD97":174148.41,"N_COORD97":2580808.96,"ADDRESS":"義稠８０號之４","OBJECTID":318660},"geometry":{"x":174148.41000000015,"y":2580808.9600000028}},{"attributes":{"ID":318669,"DIS_CODE":0,"TOWNNAME":"鹽水區","LI":"義稠里","LIN":"6鄰","STREET":" ","SECT":" ","MAREA":"義稠","LANE":" ","ALLEY":" ","HOUSE_NO":"８０號之５","E_COORD97":174153.28,"N_COORD97":2580810.3900000001,"ADDRESS":"義稠８０號之５","OBJECTID":318661},"geometry":{"x":174153.28000000212,"y":2580810.3900000006}},{"attributes":{"ID":318670,"DIS_CODE":0,"TOWNNAME":"鹽水區","LI":"義稠里","LIN":"6鄰","STREET":" ","SECT":" ","MAREA":"義稠","LANE":" ","ALLEY":" ","HOUSE_NO":"８０號之６","E_COORD97":174157.28,"N_COORD97":2580811.3500000001,"ADDRESS":"義稠８０號之６","OBJECTID":318662},"geometry":{"x":174157.28000000119,"y":2580811.3500000015}},{"attributes":{"ID":318671,"DIS_CODE":0,"TOWNNAME":"鹽水區","LI":"義稠里","LIN":"6鄰","STREET":" ","SECT":" ","MAREA":"義稠","LANE":" ","ALLEY":" ","HOUSE_NO":"８０號","E_COORD97":174114.29999999999,"N_COORD97":2580791.6000000001,"ADDRESS":"義稠８０號","OBJECTID":318663},"geometry":{"x":174114.30000000075,"y":2580791.5999999978}},{"attributes":{"ID":318672,"DIS_CODE":0,"TOWNNAME":"鹽水區","LI":"義稠里","LIN":"6鄰","STREET":" ","SECT":" ","MAREA":"義稠","LANE":" ","ALLEY":" ","HOUSE_NO":"８１號","E_COORD97":174072.70000000001,"N_COORD97":2580798.02,"ADDRESS":"義稠８１號","OBJECTID":318664},"geometry":{"x":174072.70000000112,"y":2580798.0199999996}},{"attributes":{"ID":318673,"DIS_CODE":0,"TOWNNAME":"官田區","LI":"隆本里","LIN":"15鄰","STREET":"復興街","SECT":" ","MAREA":" ","LANE":"１１７巷","ALLEY":" ","HOUSE_NO":"８號","E_COORD97":179569.70000000001,"N_COORD97":2566374.7799999998,"ADDRESS":"復興街１１７巷８號","OBJECTID":318665},"geometry":{"x":179569.70000000019,"y":2566374.7800000012}},{"attributes":{"ID":318674,"DIS_CODE":0,"TOWNNAME":"中西區","LI":"安海里","LIN":"7鄰","STREET":"中正路","SECT":" ","MAREA":" ","LANE":" ","ALLEY":" ","HOUSE_NO":"３６０號","E_COORD97":167356.10921900001,"N_COORD97":2543851.31855,"ADDRESS":"中正路３６０號","OBJECTID":318666},"geometry":{"x":167356.10921899974,"y":2543851.3185520004}},{"attributes":{"ID":318675,"DIS_CODE":0,"TOWNNAME":"鹽水區","LI":"歡雅里","LIN":"6鄰","STREET":" ","SECT":" ","MAREA":"歡雅","LANE":" ","ALLEY":" ","HOUSE_NO":"９２之１２號","E_COORD97":172587.19,"N_COORD97":2576502.0800000001,"ADDRESS":"歡雅９２之１２號","OBJECTID":318667},"geometry":{"x":172587.19000000041,"y":2576502.0800000001}},{"attributes":{"ID":318676,"DIS_CODE":0,"TOWNNAME":"鹽水區","LI":"歡雅里","LIN":"6鄰","STREET":" ","SECT":" ","MAREA":"歡雅","LANE":" ","ALLEY":" ","HOUSE_NO":"９２之１３號","E_COORD97":172591.97,"N_COORD97":2576502.1600000001,"ADDRESS":"歡雅９２之１３號","OBJECTID":318668},"geometry":{"x":172591.9700000016,"y":2576502.1600000001}},{"attributes":{"ID":318677,"DIS_CODE":0,"TOWNNAME":"鹽水區","LI":"汫水里","LIN":"8鄰","STREET":" ","SECT":" ","MAREA":"汫水港","LANE":" ","ALLEY":" ","HOUSE_NO":"６號","E_COORD97":175467.53,"N_COORD97":2582859.71,"ADDRESS":"汫水港６號","OBJECTID":318669},"geometry":{"x":175467.53000000119,"y":2582859.7100000009}},{"attributes":{"ID":318678,"DIS_CODE":0,"TOWNNAME":"鹽水區","LI":"下中里","LIN":" ","STREET":" ","SECT":" ","MAREA":"下中","LANE":" ","ALLEY":" ","HOUSE_NO":"１３之１號","E_COORD97":172347.39999999999,"N_COORD97":2579887.8700000001,"ADDRESS":"下中１３之１號","OBJECTID":318670},"geometry":{"x":172347.4000000013,"y":2579887.8700000029}},{"attributes":{"ID":318679,"DIS_CODE":0,"TOWNNAME":"中西區","LI":"安海里","LIN":"7鄰","STREET":"中正路","SECT":" ","MAREA":" ","LANE":" ","ALLEY":" ","HOUSE_NO":"３５８號","E_COORD97":167363.52763,"N_COORD97":2543848.99022,"ADDRESS":"中正路３５８號","OBJECTID":318671},"geometry":{"x":167363.52763000224,"y":2543848.990220001}},{"attributes":{"ID":318680,"DIS_CODE":0,"TOWNNAME":"新營區","LI":"民榮里","LIN":"10鄰","STREET":"裕民路","SECT":" ","MAREA":" ","LANE":" ","ALLEY":" ","HOUSE_NO":"７號","E_COORD97":179153.67736599999,"N_COORD97":2577885.03529,"ADDRESS":"裕民路７號","OBJECTID":318672},"geometry":{"x":179153.67736600153,"y":2577885.0352940019}},{"attributes":{"ID":318681,"DIS_CODE":0,"TOWNNAME":"南化區","LI":"南化里","LIN":"4鄰","STREET":" ","SECT":" ","MAREA":"南化","LANE":" ","ALLEY":" ","HOUSE_NO":"４１號之４","E_COORD97":195947.35000000001,"N_COORD97":2549332.7999999998,"ADDRESS":"南化４１號之４","OBJECTID":318673},"geometry":{"x":195947.35000000149,"y":2549332.8000000026}},{"attributes":{"ID":318682,"DIS_CODE":0,"TOWNNAME":"南化區","LI":"南化里","LIN":"4鄰","STREET":" ","SECT":" ","MAREA":"南化","LANE":" ","ALLEY":" ","HOUSE_NO":"４１號之５","E_COORD97":195951.07999999999,"N_COORD97":2549332.7999999998,"ADDRESS":"南化４１號之５","OBJECTID":318674},"geometry":{"x":195951.08000000007,"y":2549332.8000000026}},{"attributes":{"ID":318683,"DIS_CODE":0,"TOWNNAME":"鹽水區","LI":"下中里","LIN":" ","STREET":" ","SECT":" ","MAREA":"下中","LANE":" ","ALLEY":" ","HOUSE_NO":"５９號","E_COORD97":172165.56,"N_COORD97":2579732.5099999998,"ADDRESS":"下中５９號","OBJECTID":318675},"geometry":{"x":172165.55999999866,"y":2579732.5100000016}},{"attributes":{"ID":318684,"DIS_CODE":0,"TOWNNAME":"關廟區","LI":"山西里","LIN":"12鄰","STREET":"成功路","SECT":" ","MAREA":" ","LANE":" ","ALLEY":" ","HOUSE_NO":"４０７號","E_COORD97":181096.69530399999,"N_COORD97":2540554.0152599998,"ADDRESS":"成功路４０７號","OBJECTID":318676},"geometry":{"x":181096.69530399982,"y":2540554.0152579993}},{"attributes":{"ID":318685,"DIS_CODE":0,"TOWNNAME":"歸仁區","LI":"崙頂里","LIN":"13鄰","STREET":"崙頂街","SECT":" ","MAREA":" ","LANE":" ","ALLEY":" ","HOUSE_NO":"１５７號","E_COORD97":177899.11365499999,"N_COORD97":2539718.5015500002,"ADDRESS":"崙頂街１５７號","OBJECTID":318677},"geometry":{"x":177899.11365500093,"y":2539718.5015480015}},{"attributes":{"ID":318686,"DIS_CODE":0,"TOWNNAME":"官田區","LI":"隆本里","LIN":"15鄰","STREET":"復興街","SECT":" ","MAREA":" ","LANE":"１１７巷","ALLEY":" ","HOUSE_NO":"９號","E_COORD97":179594.16,"N_COORD97":2566364.6499999999,"ADDRESS":"復興街１１７巷９號","OBJECTID":318678},"geometry":{"x":179594.16000000108,"y":2566364.6500000004}},{"attributes":{"ID":318687,"DIS_CODE":0,"TOWNNAME":"鹽水區","LI":"武廟里","LIN":" ","STREET":"三福路","SECT":" ","MAREA":" ","LANE":" ","ALLEY":" ","HOUSE_NO":"３４號","E_COORD97":175037.98999999999,"N_COORD97":2580022.5,"ADDRESS":"三福路３４號","OBJECTID":318679},"geometry":{"x":175037.99000000022,"y":2580022.5}},{"attributes":{"ID":318688,"DIS_CODE":0,"TOWNNAME":"仁德區","LI":"仁德里","LIN":"39鄰","STREET":"文宏二街","SECT":" ","MAREA":" ","LANE":" ","ALLEY":" ","HOUSE_NO":"８８號","E_COORD97":172468.98000000001,"N_COORD97":2541767.0800000001,"ADDRESS":"文宏二街８８號","OBJECTID":318680},"geometry":{"x":172468.98000000138,"y":2541767.0800000019}},{"attributes":{"ID":318689,"DIS_CODE":0,"TOWNNAME":"歸仁區","LI":"看東里","LIN":"10鄰","STREET":"成功路","SECT":"一段","MAREA":" ","LANE":" ","ALLEY":" ","HOUSE_NO":"１４２號","E_COORD97":178631.26031099999,"N_COORD97":2540239.4531399999,"ADDRESS":"成功路一段１４２號","OBJECTID":318681},"geometry":{"x":178631.26031100098,"y":2540239.453143999}},{"attributes":{"ID":318690,"DIS_CODE":0,"TOWNNAME":"歸仁區","LI":"看東里","LIN":"10鄰","STREET":"成功路","SECT":"一段","MAREA":" ","LANE":" ","ALLEY":" ","HOUSE_NO":"１４６號","E_COORD97":178627.021939,"N_COORD97":2540237.5481400001,"ADDRESS":"成功路一段１４６號","OBJECTID":318682},"geometry":{"x":178627.02193900011,"y":2540237.5481449999}},{"attributes":{"ID":318691,"DIS_CODE":0,"TOWNNAME":"安平區","LI":"文平里","LIN":"4鄰","STREET":"中華西路","SECT":"二段","MAREA":" ","LANE":"１巷","ALLEY":" ","HOUSE_NO":"１１號","E_COORD97":166442.92999999999,"N_COORD97":2543036.2200000002,"ADDRESS":"中華西路二段１巷１１號","OBJECTID":318683},"geometry":{"x":166442.9299999997,"y":2543036.2200000007}},{"attributes":{"ID":318692,"DIS_CODE":0,"TOWNNAME":"安平區","LI":"金城里","LIN":"13鄰","STREET":"安北路","SECT":" ","MAREA":" ","LANE":"７２２巷","ALLEY":" ","HOUSE_NO":"１３０號","E_COORD97":162409.97,"N_COORD97":2544364.9399999999,"ADDRESS":"安北路７２２巷１３０號","OBJECTID":318684},"geometry":{"x":162409.96999999974,"y":2544364.9399999995}},{"attributes":{"ID":318693,"DIS_CODE":0,"TOWNNAME":"官田區","LI":"隆本里","LIN":"15鄰","STREET":"復興街","SECT":" ","MAREA":" ","LANE":"２０６巷","ALLEY":" ","HOUSE_NO":"１號","E_COORD97":179572.22,"N_COORD97":2566415.5800000001,"ADDRESS":"復興街２０６巷１號","OBJECTID":318685},"geometry":{"x":179572.21999999974,"y":2566415.5800000001}},{"attributes":{"ID":318694,"DIS_CODE":0,"TOWNNAME":"官田區","LI":"隆本里","LIN":"15鄰","STREET":"復興街","SECT":" ","MAREA":" ","LANE":"２０６巷","ALLEY":" ","HOUSE_NO":"２號","E_COORD97":179596.73000000001,"N_COORD97":2566414.3599999999,"ADDRESS":"復興街２０６巷２號","OBJECTID":318686},"geometry":{"x":179596.73000000045,"y":2566414.3599999975}},{"attributes":{"ID":318695,"DIS_CODE":0,"TOWNNAME":"官田區","LI":"隆本里","LIN":"15鄰","STREET":"復興街","SECT":" ","MAREA":" ","LANE":"２０６巷","ALLEY":" ","HOUSE_NO":"３號","E_COORD97":179572.20999999999,"N_COORD97":2566421,"ADDRESS":"復興街２０６巷３號","OBJECTID":318687},"geometry":{"x":179572.20999999996,"y":2566421.0000000037}},{"attributes":{"ID":318696,"DIS_CODE":0,"TOWNNAME":"官田區","LI":"隆本里","LIN":"15鄰","STREET":"復興街","SECT":" ","MAREA":" ","LANE":"２０６巷","ALLEY":" ","HOUSE_NO":"５號","E_COORD97":179572.62,"N_COORD97":2566426.5,"ADDRESS":"復興街２０６巷５號","OBJECTID":318688},"geometry":{"x":179572.62000000104,"y":2566426.5}},{"attributes":{"ID":318697,"DIS_CODE":0,"TOWNNAME":"官田區","LI":"隆本里","LIN":"15鄰","STREET":"復興街","SECT":" ","MAREA":" ","LANE":"２０６巷","ALLEY":" ","HOUSE_NO":"６號","E_COORD97":179597.75,"N_COORD97":2566419.8100000001,"ADDRESS":"復興街２０６巷６號","OBJECTID":318689},"geometry":{"x":179597.75,"y":2566419.8100000042}},{"attributes":{"ID":318698,"DIS_CODE":0,"TOWNNAME":"官田區","LI":"隆本里","LIN":"15鄰","STREET":"復興街","SECT":" ","MAREA":" ","LANE":"２４０巷","ALLEY":" ","HOUSE_NO":"１０號","E_COORD97":179517.76000000001,"N_COORD97":2566441.5299999998,"ADDRESS":"復興街２４０巷１０號","OBJECTID":318690},"geometry":{"x":179517.75999999978,"y":2566441.5300000012}},{"attributes":{"ID":318699,"DIS_CODE":0,"TOWNNAME":"官田區","LI":"隆本里","LIN":"15鄰","STREET":"復興街","SECT":" ","MAREA":" ","LANE":"２４０巷","ALLEY":" ","HOUSE_NO":"１２號","E_COORD97":179566.04000000001,"N_COORD97":2566462.54,"ADDRESS":"復興街２４０巷１２號","OBJECTID":318691},"geometry":{"x":179566.04000000097,"y":2566462.5399999991}},{"attributes":{"ID":318700,"DIS_CODE":0,"TOWNNAME":"官田區","LI":"隆本里","LIN":"15鄰","STREET":"興隆街","SECT":" ","MAREA":" ","LANE":"１４３巷","ALLEY":" ","HOUSE_NO":"１６號","E_COORD97":179675.88,"N_COORD97":2566258.4300000002,"ADDRESS":"興隆街１４３巷１６號","OBJECTID":318692},"geometry":{"x":179675.88000000082,"y":2566258.4300000034}},{"attributes":{"ID":318701,"DIS_CODE":0,"TOWNNAME":"左鎮區","LI":"中正里","LIN":"13鄰","STREET":" ","SECT":" ","MAREA":"中正","LANE":" ","ALLEY":" ","HOUSE_NO":"１７６號之６","E_COORD97":189463.45000000001,"N_COORD97":2550625.2999999998,"ADDRESS":"中正１７６號之６","OBJECTID":318693},"geometry":{"x":189463.45000000112,"y":2550625.3000000026}},{"attributes":{"ID":318702,"DIS_CODE":0,"TOWNNAME":"官田區","LI":"隆本里","LIN":"15鄰","STREET":"興隆街","SECT":" ","MAREA":" ","LANE":"１４３巷","ALLEY":" ","HOUSE_NO":"１號","E_COORD97":179697.78,"N_COORD97":2566291.2599999998,"ADDRESS":"興隆街１４３巷１號","OBJECTID":318694},"geometry":{"x":179697.78000000026,"y":2566291.2600000016}},{"attributes":{"ID":318703,"DIS_CODE":0,"TOWNNAME":"官田區","LI":"隆本里","LIN":"15鄰","STREET":"興隆街","SECT":" ","MAREA":" ","LANE":"１４３巷","ALLEY":" ","HOUSE_NO":"２６號","E_COORD97":179652.04999999999,"N_COORD97":2566200.4900000002,"ADDRESS":"興隆街１４３巷２６號","OBJECTID":318695},"geometry":{"x":179652.05000000075,"y":2566200.4900000002}},{"attributes":{"ID":318704,"DIS_CODE":0,"TOWNNAME":"官田區","LI":"隆本里","LIN":"15鄰","STREET":"興隆街","SECT":" ","MAREA":" ","LANE":"１４３巷","ALLEY":" ","HOUSE_NO":"２８號","E_COORD97":179633.20000000001,"N_COORD97":2566202.5099999998,"ADDRESS":"興隆街１４３巷２８號","OBJECTID":318696},"geometry":{"x":179633.20000000112,"y":2566202.5099999998}},{"attributes":{"ID":318705,"DIS_CODE":0,"TOWNNAME":"官田區","LI":"隆本里","LIN":"15鄰","STREET":"興隆街","SECT":" ","MAREA":" ","LANE":"１４３巷","ALLEY":" ","HOUSE_NO":"３３號","E_COORD97":179715.57999999999,"N_COORD97":2566238.0699999998,"ADDRESS":"興隆街１４３巷３３號","OBJECTID":318697},"geometry":{"x":179715.58000000007,"y":2566238.070000004}},{"attributes":{"ID":318706,"DIS_CODE":0,"TOWNNAME":"官田區","LI":"隆本里","LIN":"15鄰","STREET":"興隆街","SECT":" ","MAREA":" ","LANE":"１４３巷","ALLEY":" ","HOUSE_NO":"３５號","E_COORD97":179673.76000000001,"N_COORD97":2566201.2200000002,"ADDRESS":"興隆街１４３巷３５號","OBJECTID":318698},"geometry":{"x":179673.75999999978,"y":2566201.2200000025}},{"attributes":{"ID":318707,"DIS_CODE":0,"TOWNNAME":"官田區","LI":"隆本里","LIN":"15鄰","STREET":"興隆街","SECT":" ","MAREA":" ","LANE":"１４３巷","ALLEY":" ","HOUSE_NO":"５０號","E_COORD97":179605.73000000001,"N_COORD97":2566194.2000000002,"ADDRESS":"興隆街１４３巷５０號","OBJECTID":318699},"geometry":{"x":179605.73000000138,"y":2566194.1999999993}},{"attributes":{"ID":318708,"DIS_CODE":0,"TOWNNAME":"官田區","LI":"隆本里","LIN":"15鄰","STREET":"興隆街","SECT":" ","MAREA":" ","LANE":"１４３巷","ALLEY":" ","HOUSE_NO":"５６號","E_COORD97":179579.23000000001,"N_COORD97":2566197.6400000001,"ADDRESS":"興隆街１４３巷５６號","OBJECTID":318700},"geometry":{"x":179579.23000000138,"y":2566197.6400000025}},{"attributes":{"ID":318709,"DIS_CODE":0,"TOWNNAME":"官田區","LI":"隆本里","LIN":"15鄰","STREET":"興隆街","SECT":" ","MAREA":" ","LANE":"２２０巷","ALLEY":" ","HOUSE_NO":"１３號","E_COORD97":179630.78,"N_COORD97":2566378.6899999999,"ADDRESS":"興隆街２２０巷１３號","OBJECTID":318701},"geometry":{"x":179630.78000000119,"y":2566378.6900000032}},{"attributes":{"ID":318710,"DIS_CODE":0,"TOWNNAME":"中西區","LI":"安海里","LIN":"17鄰","STREET":"民生路","SECT":"二段","MAREA":" ","LANE":" ","ALLEY":" ","HOUSE_NO":"３０５號九樓之６","E_COORD97":167078.95999999999,"N_COORD97":2544161.6899999999,"ADDRESS":"民生路二段３０５號九樓之６","OBJECTID":318702},"geometry":{"x":167078.95999999996,"y":2544161.6900000013}},{"attributes":{"ID":318711,"DIS_CODE":0,"TOWNNAME":"中西區","LI":"安海里","LIN":"17鄰","STREET":"民生路","SECT":"二段","MAREA":" ","LANE":" ","ALLEY":" ","HOUSE_NO":"３０５號九樓之７","E_COORD97":167078.95999999999,"N_COORD97":2544161.6899999999,"ADDRESS":"民生路二段３０５號九樓之７","OBJECTID":318703},"geometry":{"x":167078.95999999996,"y":2544161.6900000013}},{"attributes":{"ID":318712,"DIS_CODE":0,"TOWNNAME":"中西區","LI":"安海里","LIN":"17鄰","STREET":"民生路","SECT":"二段","MAREA":" ","LANE":" ","ALLEY":" ","HOUSE_NO":"３０５號八樓之１","E_COORD97":167078.95999999999,"N_COORD97":2544161.6899999999,"ADDRESS":"民生路二段３０５號八樓之１","OBJECTID":318704},"geometry":{"x":167078.95999999996,"y":2544161.6900000013}},{"attributes":{"ID":318713,"DIS_CODE":0,"TOWNNAME":"安平區","LI":"文平里","LIN":"4鄰","STREET":"中華西路","SECT":"二段","MAREA":" ","LANE":"１巷","ALLEY":" ","HOUSE_NO":"１３號","E_COORD97":166437.69,"N_COORD97":2543036.5,"ADDRESS":"中華西路二段１巷１３號","OBJECTID":318705},"geometry":{"x":166437.69000000227,"y":2543036.5}},{"attributes":{"ID":318714,"DIS_CODE":0,"TOWNNAME":"安平區","LI":"文平里","LIN":"4鄰","STREET":"中華西路","SECT":"二段","MAREA":" ","LANE":"１巷","ALLEY":" ","HOUSE_NO":"１５號","E_COORD97":166431.63,"N_COORD97":2543037.7599999998,"ADDRESS":"中華西路二段１巷１５號","OBJECTID":318706},"geometry":{"x":166431.62999999989,"y":2543037.7599999998}},{"attributes":{"ID":318715,"DIS_CODE":0,"TOWNNAME":"安平區","LI":"億載里","LIN":"8鄰","STREET":"郡平路","SECT":" ","MAREA":" ","LANE":"４６０巷","ALLEY":" ","HOUSE_NO":"１８號","E_COORD97":163956.87,"N_COORD97":2543443.2999999998,"ADDRESS":"郡平路４６０巷１８號","OBJECTID":318707},"geometry":{"x":163956.87000000011,"y":2543443.3000000045}},{"attributes":{"ID":318716,"DIS_CODE":0,"TOWNNAME":"安平區","LI":"國平里","LIN":"4鄰","STREET":"建平五街","SECT":" ","MAREA":" ","LANE":"１５０巷","ALLEY":" ","HOUSE_NO":"４１號","E_COORD97":165639.01999999999,"N_COORD97":2543292.21,"ADDRESS":"建平五街１５０巷４１號","OBJECTID":318708},"geometry":{"x":165639.01999999955,"y":2543292.2100000028}},{"attributes":{"ID":318717,"DIS_CODE":0,"TOWNNAME":"鹽水區","LI":"歡雅里","LIN":" ","STREET":" ","SECT":" ","MAREA":"尾寮","LANE":" ","ALLEY":" ","HOUSE_NO":"９號","E_COORD97":172228.42999999999,"N_COORD97":2576650.9500000002,"ADDRESS":"尾寮９號","OBJECTID":318709},"geometry":{"x":172228.43000000063,"y":2576650.9500000011}},{"attributes":{"ID":318718,"DIS_CODE":0,"TOWNNAME":"鹽水區","LI":"水秀里","LIN":" ","STREET":" ","SECT":" ","MAREA":"土庫","LANE":" ","ALLEY":" ","HOUSE_NO":"８之１號","E_COORD97":176333.29000000001,"N_COORD97":2580308.1600000001,"ADDRESS":"土庫８之１號","OBJECTID":318710},"geometry":{"x":176333.29000000097,"y":2580308.160000002}},{"attributes":{"ID":318719,"DIS_CODE":0,"TOWNNAME":"鹽水區","LI":"大莊里","LIN":" ","STREET":" ","SECT":" ","MAREA":"大莊","LANE":" ","ALLEY":" ","HOUSE_NO":"２４號","E_COORD97":172833.23000000001,"N_COORD97":2576907.9500000002,"ADDRESS":"大莊２４號","OBJECTID":318711},"geometry":{"x":172833.22999999952,"y":2576907.9500000011}},{"attributes":{"ID":318720,"DIS_CODE":0,"TOWNNAME":"鹽水區","LI":"大莊里","LIN":" ","STREET":" ","SECT":" ","MAREA":"大莊","LANE":" ","ALLEY":" ","HOUSE_NO":"５２號","E_COORD97":172801.82000000001,"N_COORD97":2576718.4399999999,"ADDRESS":"大莊５２號","OBJECTID":318712},"geometry":{"x":172801.8200000003,"y":2576718.4400000013}},{"attributes":{"ID":318721,"DIS_CODE":0,"TOWNNAME":"鹽水區","LI":"大豐里","LIN":" ","STREET":" ","SECT":" ","MAREA":"大豐","LANE":" ","ALLEY":" ","HOUSE_NO":"１００之２號","E_COORD97":170318.67000000001,"N_COORD97":2573694.3199999998,"ADDRESS":"大豐１００之２號","OBJECTID":318713},"geometry":{"x":170318.66999999993,"y":2573694.3200000003}},{"attributes":{"ID":318722,"DIS_CODE":0,"TOWNNAME":"安平區","LI":"國平里","LIN":"4鄰","STREET":"建平五街","SECT":" ","MAREA":" ","LANE":"１８４巷","ALLEY":" ","HOUSE_NO":"４０號","E_COORD97":165602.38,"N_COORD97":2543297.5099999998,"ADDRESS":"建平五街１８４巷４０號","OBJECTID":318714},"geometry":{"x":165602.38000000082,"y":2543297.5099999998}},{"attributes":{"ID":318723,"DIS_CODE":0,"TOWNNAME":"官田區","LI":"隆本里","LIN":"15鄰","STREET":"興隆街","SECT":" ","MAREA":" ","LANE":"２２０巷","ALLEY":" ","HOUSE_NO":"１號","E_COORD97":179628.25,"N_COORD97":2566352.4199999999,"ADDRESS":"興隆街２２０巷１號","OBJECTID":318715},"geometry":{"x":179628.25,"y":2566352.4199999999}},{"attributes":{"ID":318724,"DIS_CODE":0,"TOWNNAME":"官田區","LI":"隆本里","LIN":"15鄰","STREET":"興隆街","SECT":" ","MAREA":" ","LANE":"２２０巷","ALLEY":" ","HOUSE_NO":"３號","E_COORD97":179628.63,"N_COORD97":2566356.3300000001,"ADDRESS":"興隆街２２０巷３號","OBJECTID":318716},"geometry":{"x":179628.62999999989,"y":2566356.3300000001}},{"attributes":{"ID":318725,"DIS_CODE":0,"TOWNNAME":"官田區","LI":"隆本里","LIN":"15鄰","STREET":"興隆街","SECT":" ","MAREA":" ","LANE":"２２０巷","ALLEY":" ","HOUSE_NO":"５號","E_COORD97":179629,"N_COORD97":2566360.6200000001,"ADDRESS":"興隆街２２０巷５號","OBJECTID":318717},"geometry":{"x":179629.00000000093,"y":2566360.6200000048}},{"attributes":{"ID":318726,"DIS_CODE":0,"TOWNNAME":"官田區","LI":"隆本里","LIN":"15鄰","STREET":"興隆街","SECT":" ","MAREA":" ","LANE":"２２０巷","ALLEY":" ","HOUSE_NO":"７號","E_COORD97":179629.5,"N_COORD97":2566364.6099999999,"ADDRESS":"興隆街２２０巷７號","OBJECTID":318718},"geometry":{"x":179629.50000000093,"y":2566364.6099999994}},{"attributes":{"ID":318727,"DIS_CODE":0,"TOWNNAME":"官田區","LI":"隆本里","LIN":"15鄰","STREET":"興隆街","SECT":" ","MAREA":" ","LANE":"２２０巷","ALLEY":" ","HOUSE_NO":"９號","E_COORD97":179629.75,"N_COORD97":2566368.73,"ADDRESS":"興隆街２２０巷９號","OBJECTID":318719},"geometry":{"x":179629.75,"y":2566368.7300000004}},{"attributes":{"ID":318728,"DIS_CODE":0,"TOWNNAME":"永康區","LI":"王行里","LIN":"15鄰","STREET":"龍昌街","SECT":" ","MAREA":" ","LANE":"１０７巷","ALLEY":" ","HOUSE_NO":"６號","E_COORD97":174914.20999999999,"N_COORD97":2548135.3900000001,"ADDRESS":"龍昌街１０７巷６號","OBJECTID":318720},"geometry":{"x":174914.20999999996,"y":2548135.3900000025}},{"attributes":{"ID":318729,"DIS_CODE":0,"TOWNNAME":"永康區","LI":"王行里","LIN":"15鄰","STREET":"龍昌街","SECT":" ","MAREA":" ","LANE":"１０７巷","ALLEY":" ","HOUSE_NO":"２號","E_COORD97":174919.22,"N_COORD97":2548147.1400000001,"ADDRESS":"龍昌街１０７巷２號","OBJECTID":318721},"geometry":{"x":174919.21999999974,"y":2548147.1400000025}},{"attributes":{"ID":318730,"DIS_CODE":0,"TOWNNAME":"東區","LI":"新東里","LIN":"15鄰","STREET":"裕豐街","SECT":" ","MAREA":" ","LANE":"１３３巷","ALLEY":" ","HOUSE_NO":"２３號","E_COORD97":170692.76999999999,"N_COORD97":2543041.1299999999,"ADDRESS":"裕豐街１３３巷２３號","OBJECTID":318722},"geometry":{"x":170692.77000000142,"y":2543041.129999999}},{"attributes":{"ID":318731,"DIS_CODE":0,"TOWNNAME":"東區","LI":"新東里","LIN":"15鄰","STREET":"裕豐街","SECT":" ","MAREA":" ","LANE":"１３３巷","ALLEY":" ","HOUSE_NO":"２５號","E_COORD97":170688.19,"N_COORD97":2543040.48,"ADDRESS":"裕豐街１３３巷２５號","OBJECTID":318723},"geometry":{"x":170688.19000000134,"y":2543040.4800000004}},{"attributes":{"ID":318732,"DIS_CODE":0,"TOWNNAME":"東區","LI":"新東里","LIN":"15鄰","STREET":"裕豐街","SECT":" ","MAREA":" ","LANE":"１３３巷","ALLEY":" ","HOUSE_NO":"２５之１號","E_COORD97":170684.01999999999,"N_COORD97":2543039.6600000001,"ADDRESS":"裕豐街１３３巷２５之１號","OBJECTID":318724},"geometry":{"x":170684.01999999955,"y":2543039.6600000001}},{"attributes":{"ID":318733,"DIS_CODE":0,"TOWNNAME":"東區","LI":"新東里","LIN":"15鄰","STREET":"裕豐街","SECT":" ","MAREA":" ","LANE":"１３３巷","ALLEY":" ","HOUSE_NO":"２５之２號","E_COORD97":170679.69,"N_COORD97":2543038.8399999999,"ADDRESS":"裕豐街１３３巷２５之２號","OBJECTID":318725},"geometry":{"x":170679.69000000134,"y":2543038.8400000036}},{"attributes":{"ID":318734,"DIS_CODE":0,"TOWNNAME":"中西區","LI":"安海里","LIN":"17鄰","STREET":"民生路","SECT":"二段","MAREA":" ","LANE":" ","ALLEY":" ","HOUSE_NO":"３０５號八樓之２","E_COORD97":167078.95999999999,"N_COORD97":2544161.6899999999,"ADDRESS":"民生路二段３０５號八樓之２","OBJECTID":318726},"geometry":{"x":167078.95999999996,"y":2544161.6900000013}},{"attributes":{"ID":318735,"DIS_CODE":0,"TOWNNAME":"中西區","LI":"安海里","LIN":"17鄰","STREET":"民生路","SECT":"二段","MAREA":" ","LANE":" ","ALLEY":" ","HOUSE_NO":"３０５號八樓之３","E_COORD97":167078.95999999999,"N_COORD97":2544161.6899999999,"ADDRESS":"民生路二段３０５號八樓之３","OBJECTID":318727},"geometry":{"x":167078.95999999996,"y":2544161.6900000013}},{"attributes":{"ID":318736,"DIS_CODE":0,"TOWNNAME":"中西區","LI":"安海里","LIN":"17鄰","STREET":"民生路","SECT":"二段","MAREA":" ","LANE":" ","ALLEY":" ","HOUSE_NO":"３０５號八樓之５","E_COORD97":167078.95999999999,"N_COORD97":2544161.6899999999,"ADDRESS":"民生路二段３０５號八樓之５","OBJECTID":318728},"geometry":{"x":167078.95999999996,"y":2544161.6900000013}},{"attributes":{"ID":318737,"DIS_CODE":0,"TOWNNAME":"中西區","LI":"安海里","LIN":"17鄰","STREET":"民生路","SECT":"二段","MAREA":" ","LANE":" ","ALLEY":" ","HOUSE_NO":"３０５號八樓之６","E_COORD97":167078.95999999999,"N_COORD97":2544161.6899999999,"ADDRESS":"民生路二段３０５號八樓之６","OBJECTID":318729},"geometry":{"x":167078.95999999996,"y":2544161.6900000013}},{"attributes":{"ID":318738,"DIS_CODE":0,"TOWNNAME":"新營區","LI":"大宏里","LIN":"26鄰","STREET":"民族路","SECT":" ","MAREA":" ","LANE":" ","ALLEY":" ","HOUSE_NO":"５之３號","E_COORD97":180290.44137700001,"N_COORD97":2578359.7906499999,"ADDRESS":"民族路５之３號","OBJECTID":318730},"geometry":{"x":180290.44137700088,"y":2578359.790651001}},{"attributes":{"ID":318739,"DIS_CODE":0,"TOWNNAME":"關廟區","LI":"關廟里","LIN":"3鄰","STREET":"武聖路","SECT":" ","MAREA":" ","LANE":" ","ALLEY":" ","HOUSE_NO":"２９號","E_COORD97":180920.102304,"N_COORD97":2540185.0713200001,"ADDRESS":"武聖路２９號","OBJECTID":318731},"geometry":{"x":180920.10230400227,"y":2540185.071320001}},{"attributes":{"ID":318740,"DIS_CODE":0,"TOWNNAME":"鹽水區","LI":"水仙里","LIN":" ","STREET":"中山路","SECT":" ","MAREA":" ","LANE":"３巷","ALLEY":" ","HOUSE_NO":"２８號","E_COORD97":175035.53,"N_COORD97":2579846.71,"ADDRESS":"中山路３巷２８號","OBJECTID":318732},"geometry":{"x":175035.53000000119,"y":2579846.7100000046}},{"attributes":{"ID":318741,"DIS_CODE":0,"TOWNNAME":"鹽水區","LI":"中境里","LIN":" ","STREET":"中山路","SECT":" ","MAREA":" ","LANE":"４巷","ALLEY":" ","HOUSE_NO":"６號","E_COORD97":175065.32999999999,"N_COORD97":2579953.1899999999,"ADDRESS":"中山路４巷６號","OBJECTID":318733},"geometry":{"x":175065.33000000101,"y":2579953.1899999995}},{"attributes":{"ID":318742,"DIS_CODE":0,"TOWNNAME":"鹽水區","LI":"水仙里","LIN":" ","STREET":"中山路","SECT":" ","MAREA":" ","LANE":" ","ALLEY":" ","HOUSE_NO":"４９號","E_COORD97":174918.31,"N_COORD97":2579918.54,"ADDRESS":"中山路４９號","OBJECTID":318734},"geometry":{"x":174918.30999999959,"y":2579918.540000001}},{"attributes":{"ID":318743,"DIS_CODE":0,"TOWNNAME":"鹽水區","LI":"中境里","LIN":" ","STREET":"中山路","SECT":" ","MAREA":" ","LANE":"４巷","ALLEY":" ","HOUSE_NO":"８號","E_COORD97":175065.64999999999,"N_COORD97":2579959.0699999998,"ADDRESS":"中山路４巷８號","OBJECTID":318735},"geometry":{"x":175065.65000000037,"y":2579959.0700000022}},{"attributes":{"ID":318744,"DIS_CODE":0,"TOWNNAME":"鹽水區","LI":"中境里","LIN":" ","STREET":"中山路","SECT":" ","MAREA":" ","LANE":"４巷","ALLEY":" ","HOUSE_NO":"９號","E_COORD97":175066.10000000001,"N_COORD97":2579962.21,"ADDRESS":"中山路４巷９號","OBJECTID":318736},"geometry":{"x":175066.10000000056,"y":2579962.2100000028}},{"attributes":{"ID":318745,"DIS_CODE":0,"TOWNNAME":"鹽水區","LI":"橋南里","LIN":" ","STREET":"月津路","SECT":" ","MAREA":" ","LANE":"１２７巷","ALLEY":" ","HOUSE_NO":"２號","E_COORD97":174864.69,"N_COORD97":2579108.4300000002,"ADDRESS":"月津路１２７巷２號","OBJECTID":318737},"geometry":{"x":174864.69000000134,"y":2579108.4300000016}},{"attributes":{"ID":318746,"DIS_CODE":0,"TOWNNAME":"鹽水區","LI":"橋南里","LIN":" ","STREET":"月津路","SECT":" ","MAREA":" ","LANE":"１２７巷","ALLEY":" ","HOUSE_NO":"４號","E_COORD97":174871.04999999999,"N_COORD97":2579106.6400000001,"ADDRESS":"月津路１２７巷４號","OBJECTID":318738},"geometry":{"x":174871.04999999981,"y":2579106.6400000006}},{"attributes":{"ID":318747,"DIS_CODE":0,"TOWNNAME":"鹽水區","LI":"橋南里","LIN":" ","STREET":"月津路","SECT":" ","MAREA":" ","LANE":"１２巷","ALLEY":" ","HOUSE_NO":"２５號","E_COORD97":174782.29000000001,"N_COORD97":2579579.0099999998,"ADDRESS":"月津路１２巷２５號","OBJECTID":318739},"geometry":{"x":174782.29000000097,"y":2579579.0100000035}},{"attributes":{"ID":318748,"DIS_CODE":0,"TOWNNAME":"鹽水區","LI":"水正里","LIN":" ","STREET":"中正路","SECT":" ","MAREA":" ","LANE":" ","ALLEY":" ","HOUSE_NO":"１６１號","E_COORD97":175032.85000000001,"N_COORD97":2579579.3500000001,"ADDRESS":"中正路１６１號","OBJECTID":318740},"geometry":{"x":175032.84999999963,"y":2579579.3499999996}},{"attributes":{"ID":318749,"DIS_CODE":0,"TOWNNAME":"鹽水區","LI":"橋南里","LIN":" ","STREET":"月津路","SECT":" ","MAREA":" ","LANE":" ","ALLEY":" ","HOUSE_NO":"１１１號","E_COORD97":174898.79999999999,"N_COORD97":2579158.6699999999,"ADDRESS":"月津路１１１號","OBJECTID":318741},"geometry":{"x":174898.80000000075,"y":2579158.6700000018}},{"attributes":{"ID":318750,"DIS_CODE":0,"TOWNNAME":"鹽水區","LI":"竹埔里","LIN":"13鄰","STREET":" ","SECT":" ","MAREA":"天保厝","LANE":" ","ALLEY":" ","HOUSE_NO":"２２之２號","E_COORD97":171365.29000000001,"N_COORD97":2573829.5899999999,"ADDRESS":"天保厝２２之２號","OBJECTID":318742},"geometry":{"x":171365.29000000004,"y":2573829.5900000017}},{"attributes":{"ID":318751,"DIS_CODE":0,"TOWNNAME":"鹽水區","LI":"歡雅里","LIN":" ","STREET":" ","SECT":" ","MAREA":"田寮","LANE":" ","ALLEY":" ","HOUSE_NO":"１５之７號","E_COORD97":170728.17999999999,"N_COORD97":2576097.02,"ADDRESS":"田寮１５之７號","OBJECTID":318743},"geometry":{"x":170728.18000000063,"y":2576097.0200000014}},{"attributes":{"ID":318752,"DIS_CODE":0,"TOWNNAME":"鹽水區","LI":"田寮里","LIN":" ","STREET":" ","SECT":" ","MAREA":"田寮","LANE":" ","ALLEY":" ","HOUSE_NO":"４３號","E_COORD97":171050.70999999999,"N_COORD97":2575175.5299999998,"ADDRESS":"田寮４３號","OBJECTID":318744},"geometry":{"x":171050.70999999996,"y":2575175.5300000012}},{"attributes":{"ID":318753,"DIS_CODE":0,"TOWNNAME":"鹽水區","LI":"田寮里","LIN":" ","STREET":" ","SECT":" ","MAREA":"田寮","LANE":" ","ALLEY":" ","HOUSE_NO":"４５號","E_COORD97":171036.06,"N_COORD97":2575191.8700000001,"ADDRESS":"田寮４５號","OBJECTID":318745},"geometry":{"x":171036.05999999959,"y":2575191.8700000029}},{"attributes":{"ID":318754,"DIS_CODE":0,"TOWNNAME":"鹽水區","LI":"竹埔里","LIN":" ","STREET":" ","SECT":" ","MAREA":"竹子腳","LANE":" ","ALLEY":" ","HOUSE_NO":"１１２之１號","E_COORD97":172839.20000000001,"N_COORD97":2574360.0099999998,"ADDRESS":"竹子腳１１２之１號","OBJECTID":318746},"geometry":{"x":172839.20000000019,"y":2574360.0099999998}},{"attributes":{"ID":318755,"DIS_CODE":0,"TOWNNAME":"鹽水區","LI":"竹埔里","LIN":" ","STREET":" ","SECT":" ","MAREA":"竹子腳","LANE":" ","ALLEY":" ","HOUSE_NO":"４０之１號","E_COORD97":172994.14999999999,"N_COORD97":2574461.25,"ADDRESS":"竹子腳４０之１號","OBJECTID":318747},"geometry":{"x":172994.15000000037,"y":2574461.2500000037}},{"attributes":{"ID":318756,"DIS_CODE":0,"TOWNNAME":"鹽水區","LI":"橋南里","LIN":" ","STREET":"月津路","SECT":" ","MAREA":" ","LANE":" ","ALLEY":" ","HOUSE_NO":"１３７號","E_COORD97":174831.07999999999,"N_COORD97":2579098.1699999999,"ADDRESS":"月津路１３７號","OBJECTID":318748},"geometry":{"x":174831.08000000101,"y":2579098.1700000018}},{"attributes":{"ID":318757,"DIS_CODE":0,"TOWNNAME":"鹽水區","LI":"橋南里","LIN":" ","STREET":"月津路","SECT":" ","MAREA":" ","LANE":" ","ALLEY":" ","HOUSE_NO":"３８號","E_COORD97":174868.01000000001,"N_COORD97":2579224.0499999998,"ADDRESS":"月津路３８號","OBJECTID":318749},"geometry":{"x":174868.00999999978,"y":2579224.0500000026}},{"attributes":{"ID":318758,"DIS_CODE":0,"TOWNNAME":"鹽水區","LI":"橋南里","LIN":" ","STREET":"月津路","SECT":" ","MAREA":" ","LANE":" ","ALLEY":" ","HOUSE_NO":"８號","E_COORD97":174996.37,"N_COORD97":2579530.9500000002,"ADDRESS":"月津路８號","OBJECTID":318750},"geometry":{"x":174996.37000000011,"y":2579530.9499999993}},{"attributes":{"ID":318759,"DIS_CODE":0,"TOWNNAME":"鹽水區","LI":"橋南里","LIN":" ","STREET":"月津路","SECT":" ","MAREA":" ","LANE":" ","ALLEY":" ","HOUSE_NO":"９號","E_COORD97":175005.14999999999,"N_COORD97":2579463.77,"ADDRESS":"月津路９號","OBJECTID":318751},"geometry":{"x":175005.15000000037,"y":2579463.7699999996}},{"attributes":{"ID":318760,"DIS_CODE":0,"TOWNNAME":"鹽水區","LI":"岸內里","LIN":" ","STREET":"北門路","SECT":" ","MAREA":" ","LANE":" ","ALLEY":" ","HOUSE_NO":"５之４號","E_COORD97":175229.31,"N_COORD97":2580407.75,"ADDRESS":"北門路５之４號","OBJECTID":318752},"geometry":{"x":175229.31000000052,"y":2580407.75}},{"attributes":{"ID":318761,"DIS_CODE":0,"TOWNNAME":"鹽水區","LI":"橋南里","LIN":" ","STREET":"四維路","SECT":" ","MAREA":" ","LANE":" ","ALLEY":" ","HOUSE_NO":"２２８號","E_COORD97":175569.29999999999,"N_COORD97":2578662.3300000001,"ADDRESS":"四維路２２８號","OBJECTID":318753},"geometry":{"x":175569.29999999981,"y":2578662.3300000019}},{"attributes":{"ID":318762,"DIS_CODE":0,"TOWNNAME":"鹽水區","LI":"三生里","LIN":" ","STREET":"民生街","SECT":" ","MAREA":" ","LANE":" ","ALLEY":" ","HOUSE_NO":"１４號","E_COORD97":175109.89000000001,"N_COORD97":2580097.1099999999,"ADDRESS":"民生街１４號","OBJECTID":318754},"geometry":{"x":175109.8900000006,"y":2580097.1100000013}},{"attributes":{"ID":318763,"DIS_CODE":0,"TOWNNAME":"鹽水區","LI":"竹埔里","LIN":" ","STREET":" ","SECT":" ","MAREA":"竹子腳","LANE":" ","ALLEY":" ","HOUSE_NO":"５６之１號","E_COORD97":172901.09,"N_COORD97":2574601.71,"ADDRESS":"竹子腳５６之１號","OBJECTID":318755},"geometry":{"x":172901.08999999985,"y":2574601.7100000046}},{"attributes":{"ID":318764,"DIS_CODE":0,"TOWNNAME":"鹽水區","LI":"橋南里","LIN":" ","STREET":"行昌路","SECT":" ","MAREA":" ","LANE":"２９巷","ALLEY":" ","HOUSE_NO":"２４號","E_COORD97":175059.14000000001,"N_COORD97":2579277.48,"ADDRESS":"行昌路２９巷２４號","OBJECTID":318756},"geometry":{"x":175059.1400000006,"y":2579277.4800000004}},{"attributes":{"ID":318765,"DIS_CODE":0,"TOWNNAME":"鹽水區","LI":"竹埔里","LIN":" ","STREET":" ","SECT":" ","MAREA":"竹子腳","LANE":" ","ALLEY":" ","HOUSE_NO":"８之１號","E_COORD97":173015.26999999999,"N_COORD97":2574464.3399999999,"ADDRESS":"竹子腳８之１號","OBJECTID":318757},"geometry":{"x":173015.27000000142,"y":2574464.3400000017}},{"attributes":{"ID":318766,"DIS_CODE":0,"TOWNNAME":"鹽水區","LI":"竹埔里","LIN":" ","STREET":" ","SECT":" ","MAREA":"竹子腳","LANE":" ","ALLEY":" ","HOUSE_NO":"９１之１號","E_COORD97":172914.03,"N_COORD97":2574109.98,"ADDRESS":"竹子腳９１之１號","OBJECTID":318758},"geometry":{"x":172914.02999999933,"y":2574109.9800000004}},{"attributes":{"ID":318767,"DIS_CODE":0,"TOWNNAME":"東區","LI":"新東里","LIN":"15鄰","STREET":"裕豐街","SECT":" ","MAREA":" ","LANE":"１３３巷","ALLEY":" ","HOUSE_NO":"２５之３號","E_COORD97":170675.76000000001,"N_COORD97":2543038.1899999999,"ADDRESS":"裕豐街１３３巷２５之３號","OBJECTID":318759},"geometry":{"x":170675.75999999978,"y":2543038.1899999995}},{"attributes":{"ID":318768,"DIS_CODE":0,"TOWNNAME":"中西區","LI":"民權里","LIN":"15鄰","STREET":"民族路","SECT":"三段","MAREA":" ","LANE":"１５１巷","ALLEY":" ","HOUSE_NO":"１３號","E_COORD97":167525.26000000001,"N_COORD97":2544345.96,"ADDRESS":"民族路三段１５１巷１３號","OBJECTID":318760},"geometry":{"x":167525.26000000071,"y":2544345.9600000009}},{"attributes":{"ID":318769,"DIS_CODE":0,"TOWNNAME":"鹽水區","LI":"竹埔里","LIN":" ","STREET":" ","SECT":" ","MAREA":"竹子腳","LANE":" ","ALLEY":" ","HOUSE_NO":"９５之６號","E_COORD97":173007.85999999999,"N_COORD97":2574083.7200000002,"ADDRESS":"竹子腳９５之６號","OBJECTID":318761},"geometry":{"x":173007.86000000034,"y":2574083.7200000025}},{"attributes":{"ID":318770,"DIS_CODE":0,"TOWNNAME":"中西區","LI":"民權里","LIN":"15鄰","STREET":"民族路","SECT":"三段","MAREA":" ","LANE":"１５１巷","ALLEY":" ","HOUSE_NO":"１５號","E_COORD97":167521.87,"N_COORD97":2544340.6000000001,"ADDRESS":"民族路三段１５１巷１５號","OBJECTID":318762},"geometry":{"x":167521.87000000011,"y":2544340.5999999996}},{"attributes":{"ID":318771,"DIS_CODE":0,"TOWNNAME":"鹽水區","LI":"飯店里","LIN":" ","STREET":" ","SECT":" ","MAREA":"羊稠厝","LANE":" ","ALLEY":" ","HOUSE_NO":"２１之５號","E_COORD97":169571.76999999999,"N_COORD97":2575652.6200000001,"ADDRESS":"羊稠厝２１之５號","OBJECTID":318763},"geometry":{"x":169571.76999999955,"y":2575652.620000001}},{"attributes":{"ID":318772,"DIS_CODE":0,"TOWNNAME":"鹽水區","LI":"飯店里","LIN":" ","STREET":" ","SECT":" ","MAREA":"羊稠厝","LANE":" ","ALLEY":" ","HOUSE_NO":"３０之１號","E_COORD97":169466.01000000001,"N_COORD97":2575423.9199999999,"ADDRESS":"羊稠厝３０之１號","OBJECTID":318764},"geometry":{"x":169466.01000000071,"y":2575423.9200000018}},{"attributes":{"ID":318773,"DIS_CODE":0,"TOWNNAME":"中西區","LI":"民權里","LIN":"15鄰","STREET":"民族路","SECT":"三段","MAREA":" ","LANE":"１５１巷","ALLEY":" ","HOUSE_NO":"１７號","E_COORD97":167535.04000000001,"N_COORD97":2544333.1899999999,"ADDRESS":"民族路三段１５１巷１７號","OBJECTID":318765},"geometry":{"x":167535.0400000019,"y":2544333.1899999995}},{"attributes":{"ID":318774,"DIS_CODE":0,"TOWNNAME":"中西區","LI":"民權里","LIN":"15鄰","STREET":"民族路","SECT":"三段","MAREA":" ","LANE":"１５１巷","ALLEY":" ","HOUSE_NO":"１９號","E_COORD97":167543.79999999999,"N_COORD97":2544329.3100000001,"ADDRESS":"民族路三段１５１巷１９號","OBJECTID":318766},"geometry":{"x":167543.80000000075,"y":2544329.3100000024}},{"attributes":{"ID":318775,"DIS_CODE":0,"TOWNNAME":"鹽水區","LI":"孫厝里","LIN":" ","STREET":" ","SECT":" ","MAREA":"羊稠厝","LANE":" ","ALLEY":" ","HOUSE_NO":"５７之２號","E_COORD97":169522.64999999999,"N_COORD97":2576079.3900000001,"ADDRESS":"羊稠厝５７之２號","OBJECTID":318767},"geometry":{"x":169522.65000000037,"y":2576079.3900000025}},{"attributes":{"ID":318776,"DIS_CODE":0,"TOWNNAME":"中西區","LI":"民權里","LIN":"15鄰","STREET":"民族路","SECT":"三段","MAREA":" ","LANE":"１５１巷","ALLEY":" ","HOUSE_NO":"２１號","E_COORD97":167526.20999999999,"N_COORD97":2544319.6200000001,"ADDRESS":"民族路三段１５１巷２１號","OBJECTID":318768},"geometry":{"x":167526.20999999996,"y":2544319.6200000048}},{"attributes":{"ID":318777,"DIS_CODE":0,"TOWNNAME":"鹽水區","LI":"歡雅里","LIN":" ","STREET":" ","SECT":" ","MAREA":"尾寮","LANE":" ","ALLEY":" ","HOUSE_NO":"１０７之２５號","E_COORD97":172070.44,"N_COORD97":2576336.23,"ADDRESS":"尾寮１０７之２５號","OBJECTID":318769},"geometry":{"x":172070.44000000041,"y":2576336.2300000004}},{"attributes":{"ID":318778,"DIS_CODE":0,"TOWNNAME":"南區","LI":"南華里","LIN":"5鄰","STREET":"中華南路","SECT":"二段","MAREA":" ","LANE":" ","ALLEY":" ","HOUSE_NO":"３８４號","E_COORD97":166447.57000000001,"N_COORD97":2540298.3900000001,"ADDRESS":"中華南路二段３８４號","OBJECTID":318770},"geometry":{"x":166447.57000000123,"y":2540298.3900000006}},{"attributes":{"ID":318779,"DIS_CODE":0,"TOWNNAME":"鹽水區","LI":"歡雅里","LIN":" ","STREET":" ","SECT":" ","MAREA":"尾寮","LANE":" ","ALLEY":" ","HOUSE_NO":"１２之８號","E_COORD97":171426.07999999999,"N_COORD97":2577007.2000000002,"ADDRESS":"尾寮１２之８號","OBJECTID":318771},"geometry":{"x":171426.08000000007,"y":2577007.200000003}},{"attributes":{"ID":318780,"DIS_CODE":0,"TOWNNAME":"鹽水區","LI":"歡雅里","LIN":" ","STREET":" ","SECT":" ","MAREA":"尾寮","LANE":" ","ALLEY":" ","HOUSE_NO":"１２之９號","E_COORD97":171476.76000000001,"N_COORD97":2576842.8599999999,"ADDRESS":"尾寮１２之９號","OBJECTID":318772},"geometry":{"x":171476.76000000071,"y":2576842.8599999994}},{"attributes":{"ID":318781,"DIS_CODE":0,"TOWNNAME":"鹽水區","LI":"歡雅里","LIN":" ","STREET":" ","SECT":" ","MAREA":"尾寮","LANE":" ","ALLEY":" ","HOUSE_NO":"１５之７號","E_COORD97":170401.10000000001,"N_COORD97":2576173.6499999999,"ADDRESS":"尾寮１５之７號","OBJECTID":318773},"geometry":{"x":170401.10000000056,"y":2576173.6500000004}},{"attributes":{"ID":318782,"DIS_CODE":0,"TOWNNAME":"鹽水區","LI":"歡雅里","LIN":" ","STREET":" ","SECT":" ","MAREA":"尾寮","LANE":" ","ALLEY":" ","HOUSE_NO":"１７之１號","E_COORD97":171971.45999999999,"N_COORD97":2576567.9100000001,"ADDRESS":"尾寮１７之１號","OBJECTID":318774},"geometry":{"x":171971.45999999996,"y":2576567.9100000001}},{"attributes":{"ID":318783,"DIS_CODE":0,"TOWNNAME":"鹽水區","LI":"岸內里","LIN":" ","STREET":" ","SECT":" ","MAREA":"松子腳","LANE":" ","ALLEY":" ","HOUSE_NO":"１２之６號","E_COORD97":174872.51000000001,"N_COORD97":2580640.0800000001,"ADDRESS":"松子腳１２之６號","OBJECTID":318775},"geometry":{"x":174872.51000000071,"y":2580640.0800000038}},{"attributes":{"ID":318784,"DIS_CODE":0,"TOWNNAME":"鹽水區","LI":"岸內里","LIN":" ","STREET":" ","SECT":" ","MAREA":"松子腳","LANE":" ","ALLEY":" ","HOUSE_NO":"１號","E_COORD97":174804.17000000001,"N_COORD97":2580340.6299999999,"ADDRESS":"松子腳１號","OBJECTID":318776},"geometry":{"x":174804.16999999993,"y":2580340.6300000008}},{"attributes":{"ID":318785,"DIS_CODE":0,"TOWNNAME":"鹽水區","LI":"岸內里","LIN":" ","STREET":" ","SECT":" ","MAREA":"松子腳","LANE":" ","ALLEY":" ","HOUSE_NO":"３００號","E_COORD97":174668.87,"N_COORD97":2580391.5800000001,"ADDRESS":"松子腳３００號","OBJECTID":318777},"geometry":{"x":174668.87000000011,"y":2580391.5800000001}},{"attributes":{"ID":318786,"DIS_CODE":0,"TOWNNAME":"鹽水區","LI":"橋南里","LIN":" ","STREET":"治水路","SECT":" ","MAREA":" ","LANE":"２５８巷","ALLEY":" ","HOUSE_NO":"５號","E_COORD97":174629.97,"N_COORD97":2579754.4900000002,"ADDRESS":"治水路２５８巷５號","OBJECTID":318778},"geometry":{"x":174629.97000000067,"y":2579754.4900000002}},{"attributes":{"ID":318787,"DIS_CODE":0,"TOWNNAME":"中西區","LI":"民權里","LIN":"15鄰","STREET":"民族路","SECT":"三段","MAREA":" ","LANE":"１５１巷","ALLEY":" ","HOUSE_NO":"２３號","E_COORD97":167522.12,"N_COORD97":2544322.4500000002,"ADDRESS":"民族路三段１５１巷２３號","OBJECTID":318779},"geometry":{"x":167522.12000000011,"y":2544322.4500000011}},{"attributes":{"ID":318788,"DIS_CODE":0,"TOWNNAME":"中西區","LI":"民權里","LIN":"15鄰","STREET":"民族路","SECT":"三段","MAREA":" ","LANE":"１５１巷","ALLEY":" ","HOUSE_NO":"２５號","E_COORD97":167516.32999999999,"N_COORD97":2544324.21,"ADDRESS":"民族路三段１５１巷２５號","OBJECTID":318780},"geometry":{"x":167516.33000000101,"y":2544324.2100000009}},{"attributes":{"ID":318789,"DIS_CODE":0,"TOWNNAME":"中西區","LI":"民權里","LIN":"15鄰","STREET":"民族路","SECT":"三段","MAREA":" ","LANE":"１５１巷","ALLEY":" ","HOUSE_NO":"２７號","E_COORD97":167507.78,"N_COORD97":2544327.8599999999,"ADDRESS":"民族路三段１５１巷２７號","OBJECTID":318781},"geometry":{"x":167507.78000000026,"y":2544327.8600000013}},{"attributes":{"ID":318790,"DIS_CODE":0,"TOWNNAME":"麻豆區","LI":"安西里","LIN":" ","STREET":" ","SECT":" ","MAREA":"安業","LANE":" ","ALLEY":" ","HOUSE_NO":"２３７號","E_COORD97":172488.87,"N_COORD97":2561970.9900000002,"ADDRESS":"安業２３７號","OBJECTID":318782},"geometry":{"x":172488.87000000011,"y":2561970.9900000021}},{"attributes":{"ID":318791,"DIS_CODE":0,"TOWNNAME":"中西區","LI":"民權里","LIN":"15鄰","STREET":"民族路","SECT":"三段","MAREA":" ","LANE":"１５１巷","ALLEY":" ","HOUSE_NO":"２９號","E_COORD97":167502.42000000001,"N_COORD97":2544328.7000000002,"ADDRESS":"民族路三段１５１巷２９號","OBJECTID":318783},"geometry":{"x":167502.42000000086,"y":2544328.7000000011}},{"attributes":{"ID":318792,"DIS_CODE":0,"TOWNNAME":"鹽水區","LI":"岸內里","LIN":" ","STREET":" ","SECT":" ","MAREA":"松子腳","LANE":" ","ALLEY":" ","HOUSE_NO":"３０１號","E_COORD97":174659.94,"N_COORD97":2580381.1699999999,"ADDRESS":"松子腳３０１號","OBJECTID":318784},"geometry":{"x":174659.94000000134,"y":2580381.1699999981}},{"attributes":{"ID":318793,"DIS_CODE":0,"TOWNNAME":"鹽水區","LI":"岸內里","LIN":" ","STREET":" ","SECT":" ","MAREA":"松子腳","LANE":" ","ALLEY":" ","HOUSE_NO":"３３７號","E_COORD97":174621.81,"N_COORD97":2580399.4399999999,"ADDRESS":"松子腳３３７號","OBJECTID":318785},"geometry":{"x":174621.80999999959,"y":2580399.4400000032}},{"attributes":{"ID":318794,"DIS_CODE":0,"TOWNNAME":"中西區","LI":"民權里","LIN":"15鄰","STREET":"民族路","SECT":"三段","MAREA":" ","LANE":"１５１巷","ALLEY":" ","HOUSE_NO":"３３號","E_COORD97":167493.62,"N_COORD97":2544330.8599999999,"ADDRESS":"民族路三段１５１巷３３號","OBJECTID":318786},"geometry":{"x":167493.62000000011,"y":2544330.8600000013}},{"attributes":{"ID":318795,"DIS_CODE":0,"TOWNNAME":"鹽水區","LI":"岸內里","LIN":" ","STREET":" ","SECT":" ","MAREA":"松子腳","LANE":" ","ALLEY":" ","HOUSE_NO":"３４４號","E_COORD97":174620.10999999999,"N_COORD97":2580431.6699999999,"ADDRESS":"松子腳３４４號","OBJECTID":318787},"geometry":{"x":174620.11000000034,"y":2580431.6699999999}},{"attributes":{"ID":318796,"DIS_CODE":0,"TOWNNAME":"鹽水區","LI":"岸內里","LIN":" ","STREET":" ","SECT":" ","MAREA":"松子腳","LANE":" ","ALLEY":" ","HOUSE_NO":"３４９號","E_COORD97":174619.95999999999,"N_COORD97":2580453.96,"ADDRESS":"松子腳３４９號","OBJECTID":318788},"geometry":{"x":174619.96000000089,"y":2580453.9600000009}},{"attributes":{"ID":318797,"DIS_CODE":0,"TOWNNAME":"鹽水區","LI":"岸內里","LIN":" ","STREET":" ","SECT":" ","MAREA":"松子腳","LANE":" ","ALLEY":" ","HOUSE_NO":"３５７號","E_COORD97":174617.98000000001,"N_COORD97":2580500.0899999999,"ADDRESS":"松子腳３５７號","OBJECTID":318789},"geometry":{"x":174617.98000000045,"y":2580500.0899999999}},{"attributes":{"ID":318798,"DIS_CODE":0,"TOWNNAME":"麻豆區","LI":"小埤里","LIN":" ","STREET":" ","SECT":" ","MAREA":"小埤頭","LANE":" ","ALLEY":" ","HOUSE_NO":"２之１號","E_COORD97":171306.70000000001,"N_COORD97":2565871,"ADDRESS":"小埤頭２之１號","OBJECTID":318790},"geometry":{"x":171306.70000000112,"y":2565871}},{"attributes":{"ID":318799,"DIS_CODE":0,"TOWNNAME":"中西區","LI":"安海里","LIN":"17鄰","STREET":"民生路","SECT":"二段","MAREA":" ","LANE":" ","ALLEY":" ","HOUSE_NO":"３０５號八樓之７","E_COORD97":167078.95999999999,"N_COORD97":2544161.6899999999,"ADDRESS":"民生路二段３０５號八樓之７","OBJECTID":318791},"geometry":{"x":167078.95999999996,"y":2544161.6900000013}},{"attributes":{"ID":318800,"DIS_CODE":0,"TOWNNAME":"麻豆區","LI":"大埕里","LIN":"7鄰","STREET":" ","SECT":" ","MAREA":"大埕","LANE":" ","ALLEY":" ","HOUSE_NO":"１２號之５","E_COORD97":173200.25,"N_COORD97":2565169.0600000001,"ADDRESS":"大埕１２號之５","OBJECTID":318792},"geometry":{"x":173200.25,"y":2565169.0600000005}},{"attributes":{"ID":318801,"DIS_CODE":0,"TOWNNAME":"麻豆區","LI":"大埕里","LIN":" ","STREET":" ","SECT":" ","MAREA":"大埕","LANE":" ","ALLEY":" ","HOUSE_NO":"３４之３號","E_COORD97":173073.14000000001,"N_COORD97":2565336.1499999999,"ADDRESS":"大埕３４之３號","OBJECTID":318793},"geometry":{"x":173073.13999999966,"y":2565336.1500000022}},{"attributes":{"ID":318802,"DIS_CODE":0,"TOWNNAME":"麻豆區","LI":"小埤里","LIN":" ","STREET":" ","SECT":" ","MAREA":"小埤頭","LANE":" ","ALLEY":" ","HOUSE_NO":"１之４號","E_COORD97":171353.17000000001,"N_COORD97":2565828.23,"ADDRESS":"小埤頭１之４號","OBJECTID":318794},"geometry":{"x":171353.16999999899,"y":2565828.2300000023}},{"attributes":{"ID":318803,"DIS_CODE":0,"TOWNNAME":"麻豆區","LI":"小埤里","LIN":" ","STREET":" ","SECT":" ","MAREA":"小埤頭","LANE":" ","ALLEY":" ","HOUSE_NO":"３２之１號","E_COORD97":171527.10999999999,"N_COORD97":2565933.23,"ADDRESS":"小埤頭３２之１號","OBJECTID":318795},"geometry":{"x":171527.1100000022,"y":2565933.2300000023}},{"attributes":{"ID":318804,"DIS_CODE":0,"TOWNNAME":"麻豆區","LI":"小埤里","LIN":" ","STREET":" ","SECT":" ","MAREA":"小埤頭","LANE":" ","ALLEY":" ","HOUSE_NO":"３２之２號","E_COORD97":171526.26000000001,"N_COORD97":2565942.5600000001,"ADDRESS":"小埤頭３２之２號","OBJECTID":318796},"geometry":{"x":171526.25999999978,"y":2565942.5600000005}},{"attributes":{"ID":318805,"DIS_CODE":0,"TOWNNAME":"麻豆區","LI":"小埤里","LIN":" ","STREET":" ","SECT":" ","MAREA":"小埤頭","LANE":" ","ALLEY":" ","HOUSE_NO":"３之１號","E_COORD97":171293.44,"N_COORD97":2565832.1400000001,"ADDRESS":"小埤頭３之１號","OBJECTID":318797},"geometry":{"x":171293.44000000134,"y":2565832.1400000025}},{"attributes":{"ID":318806,"DIS_CODE":0,"TOWNNAME":"麻豆區","LI":"小埤里","LIN":" ","STREET":" ","SECT":" ","MAREA":"小埤頭","LANE":" ","ALLEY":" ","HOUSE_NO":"５６之３號","E_COORD97":171378.44,"N_COORD97":2565800.1400000001,"ADDRESS":"小埤頭５６之３號","OBJECTID":318798},"geometry":{"x":171378.44000000041,"y":2565800.1399999987}},{"attributes":{"ID":318807,"DIS_CODE":0,"TOWNNAME":"麻豆區","LI":"小埤里","LIN":" ","STREET":" ","SECT":" ","MAREA":"小埤頭","LANE":" ","ALLEY":" ","HOUSE_NO":"５９之６號","E_COORD97":171497.29000000001,"N_COORD97":2565546.3900000001,"ADDRESS":"小埤頭５９之６號","OBJECTID":318799},"geometry":{"x":171497.29000000097,"y":2565546.3900000006}},{"attributes":{"ID":318808,"DIS_CODE":0,"TOWNNAME":"麻豆區","LI":"小埤里","LIN":" ","STREET":" ","SECT":" ","MAREA":"小埤頭","LANE":" ","ALLEY":" ","HOUSE_NO":"８號","E_COORD97":171337.76999999999,"N_COORD97":2565981.5299999998,"ADDRESS":"小埤頭８號","OBJECTID":318800},"geometry":{"x":171337.77000000048,"y":2565981.5299999993}}]}