{"displayFieldName":"TOWNNAME","fieldAliases":{"ID":"ID","DIS_CODE":"DIS_CODE","TOWNNAME":"TOWNNAME","LI":"LI","LIN":"LIN","STREET":"STREET","SECT":"SECT","MAREA":"MAREA","LANE":"LANE","ALLEY":"ALLEY","HOUSE_NO":"HOUSE_NO","E_COORD97":"E_COORD97","N_COORD97":"N_COORD97","ADDRESS":"ADDRESS","OBJECTID":"OBJECTID"},"geometryType":"esriGeometryPoint","spatialReference":{"wkid":102443,"latestWkid":3826},"fields":[{"name":"ID","type":"esriFieldTypeDouble","alias":"ID"},{"name":"DIS_CODE","type":"esriFieldTypeInteger","alias":"DIS_CODE"},{"name":"TOWNNAME","type":"esriFieldTypeString","alias":"TOWNNAME","length":8},{"name":"LI","type":"esriFieldTypeString","alias":"LI","length":8},{"name":"LIN","type":"esriFieldTypeString","alias":"LIN","length":12},{"name":"STREET","type":"esriFieldTypeString","alias":"STREET","length":20},{"name":"SECT","type":"esriFieldTypeString","alias":"SECT","length":8},{"name":"MAREA","type":"esriFieldTypeString","alias":"MAREA","length":12},{"name":"LANE","type":"esriFieldTypeString","alias":"LANE","length":10},{"name":"ALLEY","type":"esriFieldTypeString","alias":"ALLEY","length":10},{"name":"HOUSE_NO","type":"esriFieldTypeString","alias":"HOUSE_NO","length":20},{"name":"E_COORD97","type":"esriFieldTypeDouble","alias":"E_COORD97"},{"name":"N_COORD97","type":"esriFieldTypeDouble","alias":"N_COORD97"},{"name":"ADDRESS","type":"esriFieldTypeString","alias":"ADDRESS","length":50},{"name":"OBJECTID","type":"esriFieldTypeOID","alias":"OBJECTID"}],"features":[{"attributes":{"ID":325010,"DIS_CODE":0,"TOWNNAME":"中西區","LI":"福安里","LIN":"4鄰","STREET":"友愛街","SECT":" ","MAREA":" ","LANE":"１１５巷","ALLEY":" ","HOUSE_NO":"１８號","E_COORD97":167918.26000000001,"N_COORD97":2543476.7799999998,"ADDRESS":"友愛街１１５巷１８號","OBJECTID":325001},"geometry":{"x":167918.26000000071,"y":2543476.7800000012}},{"attributes":{"ID":325011,"DIS_CODE":0,"TOWNNAME":"東區","LI":"東聖里","LIN":"15鄰","STREET":"中華東路","SECT":"二段","MAREA":" ","LANE":"７３巷","ALLEY":" ","HOUSE_NO":"１５號五樓之９","E_COORD97":171477.67999999999,"N_COORD97":2543071.5600000001,"ADDRESS":"中華東路二段７３巷１５號五樓之９","OBJECTID":325002},"geometry":{"x":171477.6799999997,"y":2543071.5600000042}},{"attributes":{"ID":325012,"DIS_CODE":0,"TOWNNAME":"東區","LI":"東聖里","LIN":"15鄰","STREET":"中華東路","SECT":"二段","MAREA":" ","LANE":"７３巷","ALLEY":" ","HOUSE_NO":"１５號五樓之１０","E_COORD97":171477.67999999999,"N_COORD97":2543071.5600000001,"ADDRESS":"中華東路二段７３巷１５號五樓之１０","OBJECTID":325003},"geometry":{"x":171477.6799999997,"y":2543071.5600000042}},{"attributes":{"ID":325013,"DIS_CODE":0,"TOWNNAME":"東區","LI":"東聖里","LIN":"15鄰","STREET":"中華東路","SECT":"二段","MAREA":" ","LANE":"７３巷","ALLEY":" ","HOUSE_NO":"１５號五樓之１１","E_COORD97":171477.67999999999,"N_COORD97":2543071.5600000001,"ADDRESS":"中華東路二段７３巷１５號五樓之１１","OBJECTID":325004},"geometry":{"x":171477.6799999997,"y":2543071.5600000042}},{"attributes":{"ID":325014,"DIS_CODE":0,"TOWNNAME":"東區","LI":"東聖里","LIN":"15鄰","STREET":"中華東路","SECT":"二段","MAREA":" ","LANE":"７３巷","ALLEY":" ","HOUSE_NO":"１５號五樓之１２","E_COORD97":171477.67999999999,"N_COORD97":2543071.5600000001,"ADDRESS":"中華東路二段７３巷１５號五樓之１２","OBJECTID":325005},"geometry":{"x":171477.6799999997,"y":2543071.5600000042}},{"attributes":{"ID":325015,"DIS_CODE":0,"TOWNNAME":"北區","LI":"開元里","LIN":"17鄰","STREET":"長榮路","SECT":"五段","MAREA":" ","LANE":" ","ALLEY":" ","HOUSE_NO":"１２６號","E_COORD97":170073.01999999999,"N_COORD97":2545885.8999999999,"ADDRESS":"長榮路五段１２６號","OBJECTID":325006},"geometry":{"x":170073.02000000048,"y":2545885.9000000004}},{"attributes":{"ID":325016,"DIS_CODE":0,"TOWNNAME":"北區","LI":"開元里","LIN":"17鄰","STREET":"長榮路","SECT":"五段","MAREA":" ","LANE":" ","ALLEY":" ","HOUSE_NO":"１３８號","E_COORD97":170074.23999999999,"N_COORD97":2545915.0899999999,"ADDRESS":"長榮路五段１３８號","OBJECTID":325007},"geometry":{"x":170074.24000000022,"y":2545915.089999998}},{"attributes":{"ID":325017,"DIS_CODE":0,"TOWNNAME":"北區","LI":"開元里","LIN":"17鄰","STREET":"長榮路","SECT":"五段","MAREA":" ","LANE":" ","ALLEY":" ","HOUSE_NO":"１４０號","E_COORD97":170074.39999999999,"N_COORD97":2545919.8599999999,"ADDRESS":"長榮路五段１４０號","OBJECTID":325008},"geometry":{"x":170074.4000000013,"y":2545919.8600000031}},{"attributes":{"ID":325018,"DIS_CODE":0,"TOWNNAME":"新營區","LI":"新北里","LIN":"17鄰","STREET":"南新街","SECT":" ","MAREA":" ","LANE":" ","ALLEY":" ","HOUSE_NO":"１３２號之１","E_COORD97":179275.64000000001,"N_COORD97":2578931.7200000002,"ADDRESS":"南新街１３２號之１","OBJECTID":325009},"geometry":{"x":179275.6400000006,"y":2578931.7200000025}},{"attributes":{"ID":325019,"DIS_CODE":0,"TOWNNAME":"新營區","LI":"新北里","LIN":"17鄰","STREET":"南新街","SECT":" ","MAREA":" ","LANE":" ","ALLEY":" ","HOUSE_NO":"１３２號","E_COORD97":179273.5,"N_COORD97":2578931.6699999999,"ADDRESS":"南新街１３２號","OBJECTID":325010},"geometry":{"x":179273.50000000093,"y":2578931.6700000018}},{"attributes":{"ID":325020,"DIS_CODE":0,"TOWNNAME":"新營區","LI":"民生里","LIN":"17鄰","STREET":"中華路","SECT":" ","MAREA":" ","LANE":" ","ALLEY":" ","HOUSE_NO":"１２５號","E_COORD97":179115.45999999999,"N_COORD97":2578179.3500000001,"ADDRESS":"中華路１２５號","OBJECTID":325011},"geometry":{"x":179115.46000000089,"y":2578179.3499999978}},{"attributes":{"ID":325021,"DIS_CODE":0,"TOWNNAME":"新營區","LI":"新北里","LIN":"17鄰","STREET":"南新街","SECT":" ","MAREA":" ","LANE":" ","ALLEY":" ","HOUSE_NO":"１２５號","E_COORD97":179215.14999999999,"N_COORD97":2578920.8700000001,"ADDRESS":"南新街１２５號","OBJECTID":325012},"geometry":{"x":179215.1500000013,"y":2578920.8700000029}},{"attributes":{"ID":325022,"DIS_CODE":0,"TOWNNAME":"東區","LI":"東聖里","LIN":"15鄰","STREET":"中華東路","SECT":"二段","MAREA":" ","LANE":"７３巷","ALLEY":" ","HOUSE_NO":"１５號五樓之１３","E_COORD97":171477.67999999999,"N_COORD97":2543071.5600000001,"ADDRESS":"中華東路二段７３巷１５號五樓之１３","OBJECTID":325013},"geometry":{"x":171477.6799999997,"y":2543071.5600000042}},{"attributes":{"ID":325023,"DIS_CODE":0,"TOWNNAME":"東區","LI":"東聖里","LIN":"15鄰","STREET":"中華東路","SECT":"二段","MAREA":" ","LANE":"７３巷","ALLEY":" ","HOUSE_NO":"１５號五樓之１４","E_COORD97":171477.67999999999,"N_COORD97":2543071.5600000001,"ADDRESS":"中華東路二段７３巷１５號五樓之１４","OBJECTID":325014},"geometry":{"x":171477.6799999997,"y":2543071.5600000042}},{"attributes":{"ID":325024,"DIS_CODE":0,"TOWNNAME":"東區","LI":"東聖里","LIN":"15鄰","STREET":"中華東路","SECT":"二段","MAREA":" ","LANE":"７３巷","ALLEY":" ","HOUSE_NO":"１５號五樓之１５","E_COORD97":171477.67999999999,"N_COORD97":2543071.5600000001,"ADDRESS":"中華東路二段７３巷１５號五樓之１５","OBJECTID":325015},"geometry":{"x":171477.6799999997,"y":2543071.5600000042}},{"attributes":{"ID":325025,"DIS_CODE":0,"TOWNNAME":"東區","LI":"東聖里","LIN":"15鄰","STREET":"中華東路","SECT":"二段","MAREA":" ","LANE":"７３巷","ALLEY":" ","HOUSE_NO":"１５號六樓","E_COORD97":171477.67999999999,"N_COORD97":2543071.5600000001,"ADDRESS":"中華東路二段７３巷１５號六樓","OBJECTID":325016},"geometry":{"x":171477.6799999997,"y":2543071.5600000042}},{"attributes":{"ID":325026,"DIS_CODE":0,"TOWNNAME":"東區","LI":"東聖里","LIN":"15鄰","STREET":"中華東路","SECT":"二段","MAREA":" ","LANE":"７３巷","ALLEY":" ","HOUSE_NO":"１５號六樓之１","E_COORD97":171477.67999999999,"N_COORD97":2543071.5600000001,"ADDRESS":"中華東路二段７３巷１５號六樓之１","OBJECTID":325017},"geometry":{"x":171477.6799999997,"y":2543071.5600000042}},{"attributes":{"ID":325027,"DIS_CODE":0,"TOWNNAME":"東區","LI":"東聖里","LIN":"15鄰","STREET":"中華東路","SECT":"二段","MAREA":" ","LANE":"７３巷","ALLEY":" ","HOUSE_NO":"１５號六樓之２","E_COORD97":171477.67999999999,"N_COORD97":2543071.5600000001,"ADDRESS":"中華東路二段７３巷１５號六樓之２","OBJECTID":325018},"geometry":{"x":171477.6799999997,"y":2543071.5600000042}},{"attributes":{"ID":325028,"DIS_CODE":0,"TOWNNAME":"東區","LI":"東聖里","LIN":"15鄰","STREET":"中華東路","SECT":"二段","MAREA":" ","LANE":"７３巷","ALLEY":" ","HOUSE_NO":"１５號六樓之３","E_COORD97":171477.67999999999,"N_COORD97":2543071.5600000001,"ADDRESS":"中華東路二段７３巷１５號六樓之３","OBJECTID":325019},"geometry":{"x":171477.6799999997,"y":2543071.5600000042}},{"attributes":{"ID":325029,"DIS_CODE":0,"TOWNNAME":"東區","LI":"東聖里","LIN":"15鄰","STREET":"中華東路","SECT":"二段","MAREA":" ","LANE":"７３巷","ALLEY":" ","HOUSE_NO":"１５號六樓之４","E_COORD97":171477.67999999999,"N_COORD97":2543071.5600000001,"ADDRESS":"中華東路二段７３巷１５號六樓之４","OBJECTID":325020},"geometry":{"x":171477.6799999997,"y":2543071.5600000042}},{"attributes":{"ID":325030,"DIS_CODE":0,"TOWNNAME":"東區","LI":"東聖里","LIN":"15鄰","STREET":"中華東路","SECT":"二段","MAREA":" ","LANE":"７３巷","ALLEY":" ","HOUSE_NO":"１５號六樓之５","E_COORD97":171477.67999999999,"N_COORD97":2543071.5600000001,"ADDRESS":"中華東路二段７３巷１５號六樓之５","OBJECTID":325021},"geometry":{"x":171477.6799999997,"y":2543071.5600000042}},{"attributes":{"ID":325031,"DIS_CODE":0,"TOWNNAME":"東區","LI":"東聖里","LIN":"15鄰","STREET":"中華東路","SECT":"二段","MAREA":" ","LANE":"７３巷","ALLEY":" ","HOUSE_NO":"１５號六樓之８","E_COORD97":171477.67999999999,"N_COORD97":2543071.5600000001,"ADDRESS":"中華東路二段７３巷１５號六樓之８","OBJECTID":325022},"geometry":{"x":171477.6799999997,"y":2543071.5600000042}},{"attributes":{"ID":325032,"DIS_CODE":0,"TOWNNAME":"東區","LI":"東聖里","LIN":"15鄰","STREET":"中華東路","SECT":"二段","MAREA":" ","LANE":"７３巷","ALLEY":" ","HOUSE_NO":"１５號六樓之９","E_COORD97":171477.67999999999,"N_COORD97":2543071.5600000001,"ADDRESS":"中華東路二段７３巷１５號六樓之９","OBJECTID":325023},"geometry":{"x":171477.6799999997,"y":2543071.5600000042}},{"attributes":{"ID":325033,"DIS_CODE":0,"TOWNNAME":"中西區","LI":"法華里","LIN":"7鄰","STREET":"府連路","SECT":" ","MAREA":" ","LANE":" ","ALLEY":" ","HOUSE_NO":"６號","E_COORD97":168985.45999999999,"N_COORD97":2542466.8700000001,"ADDRESS":"府連路６號","OBJECTID":325024},"geometry":{"x":168985.46000000089,"y":2542466.8700000048}},{"attributes":{"ID":325034,"DIS_CODE":0,"TOWNNAME":"東區","LI":"東聖里","LIN":"15鄰","STREET":"中華東路","SECT":"二段","MAREA":" ","LANE":"７３巷","ALLEY":" ","HOUSE_NO":"１５號六樓之１０","E_COORD97":171477.67999999999,"N_COORD97":2543071.5600000001,"ADDRESS":"中華東路二段７３巷１５號六樓之１０","OBJECTID":325025},"geometry":{"x":171477.6799999997,"y":2543071.5600000042}},{"attributes":{"ID":325035,"DIS_CODE":0,"TOWNNAME":"東區","LI":"東聖里","LIN":"15鄰","STREET":"中華東路","SECT":"二段","MAREA":" ","LANE":"７３巷","ALLEY":" ","HOUSE_NO":"１５號六樓之１１","E_COORD97":171477.67999999999,"N_COORD97":2543071.5600000001,"ADDRESS":"中華東路二段７３巷１５號六樓之１１","OBJECTID":325026},"geometry":{"x":171477.6799999997,"y":2543071.5600000042}},{"attributes":{"ID":325036,"DIS_CODE":0,"TOWNNAME":"北區","LI":"成德里","LIN":"15鄰","STREET":"育德路","SECT":" ","MAREA":" ","LANE":"４５８巷","ALLEY":" ","HOUSE_NO":"１號","E_COORD97":168689.01000000001,"N_COORD97":2545959.8100000001,"ADDRESS":"育德路４５８巷１號","OBJECTID":325027},"geometry":{"x":168689.00999999978,"y":2545959.8100000024}},{"attributes":{"ID":325037,"DIS_CODE":0,"TOWNNAME":"北區","LI":"成德里","LIN":"15鄰","STREET":"育德路","SECT":" ","MAREA":" ","LANE":"４５８巷","ALLEY":" ","HOUSE_NO":"２號","E_COORD97":168688.22,"N_COORD97":2545952.8300000001,"ADDRESS":"育德路４５８巷２號","OBJECTID":325028},"geometry":{"x":168688.22000000067,"y":2545952.8300000019}},{"attributes":{"ID":325038,"DIS_CODE":0,"TOWNNAME":"北區","LI":"成德里","LIN":"15鄰","STREET":"育德路","SECT":" ","MAREA":" ","LANE":"４５８巷","ALLEY":" ","HOUSE_NO":"３號","E_COORD97":168695.84,"N_COORD97":2545959.1800000002,"ADDRESS":"育德路４５８巷３號","OBJECTID":325029},"geometry":{"x":168695.84000000078,"y":2545959.1800000016}},{"attributes":{"ID":325039,"DIS_CODE":0,"TOWNNAME":"北區","LI":"成德里","LIN":"15鄰","STREET":"育德路","SECT":" ","MAREA":" ","LANE":"４５８巷","ALLEY":" ","HOUSE_NO":"５號","E_COORD97":168702.35000000001,"N_COORD97":2545959.02,"ADDRESS":"育德路４５８巷５號","OBJECTID":325030},"geometry":{"x":168702.35000000056,"y":2545959.0199999996}},{"attributes":{"ID":325040,"DIS_CODE":0,"TOWNNAME":"北區","LI":"成德里","LIN":"15鄰","STREET":"育德路","SECT":" ","MAREA":" ","LANE":"４５８巷","ALLEY":" ","HOUSE_NO":"６號","E_COORD97":168694.73000000001,"N_COORD97":2545952.3500000001,"ADDRESS":"育德路４５８巷６號","OBJECTID":325031},"geometry":{"x":168694.73000000045,"y":2545952.3499999996}},{"attributes":{"ID":325041,"DIS_CODE":0,"TOWNNAME":"北區","LI":"成德里","LIN":"15鄰","STREET":"育德路","SECT":" ","MAREA":" ","LANE":"４５８巷","ALLEY":" ","HOUSE_NO":"７號","E_COORD97":168708.85000000001,"N_COORD97":2545957.9100000001,"ADDRESS":"育德路４５８巷７號","OBJECTID":325032},"geometry":{"x":168708.8499999987,"y":2545957.910000002}},{"attributes":{"ID":325042,"DIS_CODE":0,"TOWNNAME":"北區","LI":"成德里","LIN":"15鄰","STREET":"育德路","SECT":" ","MAREA":" ","LANE":"４５８巷","ALLEY":" ","HOUSE_NO":"８號","E_COORD97":168701.54999999999,"N_COORD97":2545952.0299999998,"ADDRESS":"育德路４５８巷８號","OBJECTID":325033},"geometry":{"x":168701.55000000075,"y":2545952.0299999993}},{"attributes":{"ID":325043,"DIS_CODE":0,"TOWNNAME":"北區","LI":"成德里","LIN":"15鄰","STREET":"育德路","SECT":" ","MAREA":" ","LANE":"４５８巷","ALLEY":" ","HOUSE_NO":"１０號","E_COORD97":168708.70000000001,"N_COORD97":2545951.2400000002,"ADDRESS":"育德路４５８巷１０號","OBJECTID":325034},"geometry":{"x":168708.69999999925,"y":2545951.2400000002}},{"attributes":{"ID":325044,"DIS_CODE":0,"TOWNNAME":"中西區","LI":"銀同里","LIN":"15鄰","STREET":"開山路","SECT":" ","MAREA":" ","LANE":"３巷","ALLEY":" ","HOUSE_NO":"３１號五樓","E_COORD97":168660.29000000001,"N_COORD97":2543610.77,"ADDRESS":"開山路３巷３１號五樓","OBJECTID":325035},"geometry":{"x":168660.29000000004,"y":2543610.7699999996}},{"attributes":{"ID":325045,"DIS_CODE":0,"TOWNNAME":"東區","LI":"東聖里","LIN":"15鄰","STREET":"中華東路","SECT":"二段","MAREA":" ","LANE":"７３巷","ALLEY":" ","HOUSE_NO":"１５號六樓之１２","E_COORD97":171477.67999999999,"N_COORD97":2543071.5600000001,"ADDRESS":"中華東路二段７３巷１５號六樓之１２","OBJECTID":325036},"geometry":{"x":171477.6799999997,"y":2543071.5600000042}},{"attributes":{"ID":325046,"DIS_CODE":0,"TOWNNAME":"東區","LI":"東聖里","LIN":"15鄰","STREET":"中華東路","SECT":"二段","MAREA":" ","LANE":"７３巷","ALLEY":" ","HOUSE_NO":"１５號六樓之１３","E_COORD97":171477.67999999999,"N_COORD97":2543071.5600000001,"ADDRESS":"中華東路二段７３巷１５號六樓之１３","OBJECTID":325037},"geometry":{"x":171477.6799999997,"y":2543071.5600000042}},{"attributes":{"ID":325047,"DIS_CODE":0,"TOWNNAME":"東區","LI":"東聖里","LIN":"15鄰","STREET":"中華東路","SECT":"二段","MAREA":" ","LANE":"７３巷","ALLEY":" ","HOUSE_NO":"１５號六樓之１４","E_COORD97":171477.67999999999,"N_COORD97":2543071.5600000001,"ADDRESS":"中華東路二段７３巷１５號六樓之１４","OBJECTID":325038},"geometry":{"x":171477.6799999997,"y":2543071.5600000042}},{"attributes":{"ID":325048,"DIS_CODE":0,"TOWNNAME":"東區","LI":"東聖里","LIN":"15鄰","STREET":"中華東路","SECT":"二段","MAREA":" ","LANE":"７３巷","ALLEY":" ","HOUSE_NO":"１５號六樓之１５","E_COORD97":171477.67999999999,"N_COORD97":2543071.5600000001,"ADDRESS":"中華東路二段７３巷１５號六樓之１５","OBJECTID":325039},"geometry":{"x":171477.6799999997,"y":2543071.5600000042}},{"attributes":{"ID":325049,"DIS_CODE":0,"TOWNNAME":"新化區","LI":"協興里","LIN":"15鄰","STREET":"大新路","SECT":" ","MAREA":" ","LANE":"１１１巷","ALLEY":" ","HOUSE_NO":"５０號五樓之３","E_COORD97":177987.92999999999,"N_COORD97":2548642.2599999998,"ADDRESS":"大新路１１１巷５０號五樓之３","OBJECTID":325040},"geometry":{"x":177987.93000000156,"y":2548642.2599999998}},{"attributes":{"ID":325050,"DIS_CODE":0,"TOWNNAME":"新化區","LI":"協興里","LIN":"15鄰","STREET":"大新路","SECT":" ","MAREA":" ","LANE":"１１１巷","ALLEY":" ","HOUSE_NO":"４８號六樓之３","E_COORD97":177987.92999999999,"N_COORD97":2548642.2599999998,"ADDRESS":"大新路１１１巷４８號六樓之３","OBJECTID":325041},"geometry":{"x":177987.93000000156,"y":2548642.2599999998}},{"attributes":{"ID":325051,"DIS_CODE":0,"TOWNNAME":"新化區","LI":"協興里","LIN":"15鄰","STREET":"大新路","SECT":" ","MAREA":" ","LANE":"１１１巷","ALLEY":" ","HOUSE_NO":"５０號四樓之１","E_COORD97":177987.91,"N_COORD97":2548642.2599999998,"ADDRESS":"大新路１１１巷５０號四樓之１","OBJECTID":325042},"geometry":{"x":177987.91000000015,"y":2548642.2599999998}},{"attributes":{"ID":325052,"DIS_CODE":0,"TOWNNAME":"新化區","LI":"協興里","LIN":"15鄰","STREET":"大新路","SECT":" ","MAREA":" ","LANE":"１１１巷","ALLEY":" ","HOUSE_NO":"４８號三樓之３","E_COORD97":177987.92999999999,"N_COORD97":2548642.2599999998,"ADDRESS":"大新路１１１巷４８號三樓之３","OBJECTID":325043},"geometry":{"x":177987.93000000156,"y":2548642.2599999998}},{"attributes":{"ID":325053,"DIS_CODE":0,"TOWNNAME":"新化區","LI":"協興里","LIN":"15鄰","STREET":"大新路","SECT":" ","MAREA":" ","LANE":"１１１巷","ALLEY":" ","HOUSE_NO":"５２號七樓之２","E_COORD97":177987.92999999999,"N_COORD97":2548642.2599999998,"ADDRESS":"大新路１１１巷５２號七樓之２","OBJECTID":325044},"geometry":{"x":177987.93000000156,"y":2548642.2599999998}},{"attributes":{"ID":325054,"DIS_CODE":0,"TOWNNAME":"新化區","LI":"協興里","LIN":"15鄰","STREET":"大新路","SECT":" ","MAREA":" ","LANE":"１１１巷","ALLEY":" ","HOUSE_NO":"５０號四樓之２","E_COORD97":177987.92999999999,"N_COORD97":2548642.2599999998,"ADDRESS":"大新路１１１巷５０號四樓之２","OBJECTID":325045},"geometry":{"x":177987.93000000156,"y":2548642.2599999998}},{"attributes":{"ID":325055,"DIS_CODE":0,"TOWNNAME":"永康區","LI":"中華里","LIN":"15鄰","STREET":"忠義街","SECT":" ","MAREA":" ","LANE":"６０巷","ALLEY":" ","HOUSE_NO":"１號十一樓之１６","E_COORD97":171787.73000000001,"N_COORD97":2544541.1200000001,"ADDRESS":"忠義街６０巷１號十一樓之１６","OBJECTID":325046},"geometry":{"x":171787.73000000138,"y":2544541.1200000029}},{"attributes":{"ID":325056,"DIS_CODE":0,"TOWNNAME":"永康區","LI":"中華里","LIN":"15鄰","STREET":"忠義街","SECT":" ","MAREA":" ","LANE":"６０巷","ALLEY":" ","HOUSE_NO":"１號八樓之３","E_COORD97":171785.22,"N_COORD97":2544541.1200000001,"ADDRESS":"忠義街６０巷１號八樓之３","OBJECTID":325047},"geometry":{"x":171785.22000000067,"y":2544541.1200000029}},{"attributes":{"ID":325057,"DIS_CODE":0,"TOWNNAME":"永康區","LI":"中華里","LIN":"15鄰","STREET":"忠義街","SECT":" ","MAREA":" ","LANE":"６０巷","ALLEY":" ","HOUSE_NO":"１號十三樓之１３","E_COORD97":171787.72,"N_COORD97":2544541.1200000001,"ADDRESS":"忠義街６０巷１號十三樓之１３","OBJECTID":325048},"geometry":{"x":171787.71999999974,"y":2544541.1200000029}},{"attributes":{"ID":325058,"DIS_CODE":0,"TOWNNAME":"永康區","LI":"中華里","LIN":"15鄰","STREET":"忠義街","SECT":" ","MAREA":" ","LANE":"６０巷","ALLEY":" ","HOUSE_NO":"１號十三樓之６","E_COORD97":171786.48000000001,"N_COORD97":2544541.1200000001,"ADDRESS":"忠義街６０巷１號十三樓之６","OBJECTID":325049},"geometry":{"x":171786.48000000138,"y":2544541.1200000029}},{"attributes":{"ID":325059,"DIS_CODE":0,"TOWNNAME":"中西區","LI":"法華里","LIN":"7鄰","STREET":"府連路","SECT":" ","MAREA":" ","LANE":" ","ALLEY":" ","HOUSE_NO":"２號","E_COORD97":168986.85000000001,"N_COORD97":2542459,"ADDRESS":"府連路２號","OBJECTID":325050},"geometry":{"x":168986.8499999987,"y":2542459.0000000019}},{"attributes":{"ID":325060,"DIS_CODE":0,"TOWNNAME":"中西區","LI":"小西里","LIN":"6鄰","STREET":"府前路","SECT":"一段","MAREA":" ","LANE":"３７１巷","ALLEY":" ","HOUSE_NO":"２８號","E_COORD97":167860.16,"N_COORD97":2543335.6800000002,"ADDRESS":"府前路一段３７１巷２８號","OBJECTID":325051},"geometry":{"x":167860.16000000108,"y":2543335.6800000016}},{"attributes":{"ID":325061,"DIS_CODE":0,"TOWNNAME":"中西區","LI":"仙草里","LIN":"4鄰","STREET":"西門路","SECT":"一段","MAREA":" ","LANE":"４８２巷","ALLEY":" ","HOUSE_NO":"３８號","E_COORD97":167852.20000000001,"N_COORD97":2542640.3300000001,"ADDRESS":"西門路一段４８２巷３８號","OBJECTID":325052},"geometry":{"x":167852.20000000019,"y":2542640.3300000019}},{"attributes":{"ID":325062,"DIS_CODE":0,"TOWNNAME":"中西區","LI":"仙草里","LIN":"4鄰","STREET":"西門路","SECT":"一段","MAREA":" ","LANE":"４８２巷","ALLEY":" ","HOUSE_NO":"１４號","E_COORD97":167810.42000000001,"N_COORD97":2542660.1000000001,"ADDRESS":"西門路一段４８２巷１４號","OBJECTID":325053},"geometry":{"x":167810.42000000179,"y":2542660.0999999978}},{"attributes":{"ID":325063,"DIS_CODE":0,"TOWNNAME":"中西區","LI":"仙草里","LIN":"4鄰","STREET":"西門路","SECT":"一段","MAREA":" ","LANE":"４８２巷","ALLEY":" ","HOUSE_NO":"１６號","E_COORD97":167810.03,"N_COORD97":2542652.3799999999,"ADDRESS":"西門路一段４８２巷１６號","OBJECTID":325054},"geometry":{"x":167810.03000000212,"y":2542652.3800000008}},{"attributes":{"ID":325064,"DIS_CODE":0,"TOWNNAME":"永康區","LI":"中華里","LIN":"15鄰","STREET":"忠義街","SECT":" ","MAREA":" ","LANE":"６０巷","ALLEY":" ","HOUSE_NO":"１號十四樓之１２","E_COORD97":171787.76000000001,"N_COORD97":2544541.1200000001,"ADDRESS":"忠義街６０巷１號十四樓之１２","OBJECTID":325055},"geometry":{"x":171787.75999999978,"y":2544541.1200000029}},{"attributes":{"ID":325065,"DIS_CODE":0,"TOWNNAME":"永康區","LI":"中華里","LIN":"15鄰","STREET":"忠義街","SECT":" ","MAREA":" ","LANE":"６０巷","ALLEY":" ","HOUSE_NO":"３號十四樓之１２","E_COORD97":171787.76000000001,"N_COORD97":2544541.1200000001,"ADDRESS":"忠義街６０巷３號十四樓之１２","OBJECTID":325056},"geometry":{"x":171787.75999999978,"y":2544541.1200000029}},{"attributes":{"ID":325066,"DIS_CODE":0,"TOWNNAME":"永康區","LI":"中華里","LIN":"15鄰","STREET":"忠義街","SECT":" ","MAREA":" ","LANE":"６０巷","ALLEY":" ","HOUSE_NO":"１號七樓之７","E_COORD97":171785.20000000001,"N_COORD97":2544541.1200000001,"ADDRESS":"忠義街６０巷１號七樓之７","OBJECTID":325057},"geometry":{"x":171785.20000000019,"y":2544541.1200000029}},{"attributes":{"ID":325067,"DIS_CODE":0,"TOWNNAME":"永康區","LI":"中華里","LIN":"15鄰","STREET":"忠義街","SECT":" ","MAREA":" ","LANE":"６０巷","ALLEY":" ","HOUSE_NO":"１號十一樓之７","E_COORD97":171786.45000000001,"N_COORD97":2544541.1200000001,"ADDRESS":"忠義街６０巷１號十一樓之７","OBJECTID":325058},"geometry":{"x":171786.45000000112,"y":2544541.1200000029}},{"attributes":{"ID":325068,"DIS_CODE":0,"TOWNNAME":"永康區","LI":"中華里","LIN":"15鄰","STREET":"忠義街","SECT":" ","MAREA":" ","LANE":"６０巷","ALLEY":" ","HOUSE_NO":"３號十樓之１","E_COORD97":171785.13,"N_COORD97":2544541.1200000001,"ADDRESS":"忠義街６０巷３號十樓之１","OBJECTID":325059},"geometry":{"x":171785.12999999989,"y":2544541.1200000029}},{"attributes":{"ID":325069,"DIS_CODE":0,"TOWNNAME":"永康區","LI":"安康里","LIN":"15鄰","STREET":"中華路","SECT":" ","MAREA":" ","LANE":"６１９巷","ALLEY":" ","HOUSE_NO":"３２號四樓","E_COORD97":170970.85000000001,"N_COORD97":2546062.75,"ADDRESS":"中華路６１９巷３２號四樓","OBJECTID":325060},"geometry":{"x":170970.85000000056,"y":2546062.75}},{"attributes":{"ID":325070,"DIS_CODE":0,"TOWNNAME":"中西區","LI":"銀同里","LIN":"15鄰","STREET":"開山路","SECT":" ","MAREA":" ","LANE":"３巷","ALLEY":" ","HOUSE_NO":"２７號二樓","E_COORD97":168648.45000000001,"N_COORD97":2543612.0099999998,"ADDRESS":"開山路３巷２７號二樓","OBJECTID":325061},"geometry":{"x":168648.45000000112,"y":2543612.0100000016}},{"attributes":{"ID":325071,"DIS_CODE":0,"TOWNNAME":"中西區","LI":"銀同里","LIN":"15鄰","STREET":"開山路","SECT":" ","MAREA":" ","LANE":"３巷","ALLEY":" ","HOUSE_NO":"２７號三樓","E_COORD97":168648.45000000001,"N_COORD97":2543612.0099999998,"ADDRESS":"開山路３巷２７號三樓","OBJECTID":325062},"geometry":{"x":168648.45000000112,"y":2543612.0100000016}},{"attributes":{"ID":325072,"DIS_CODE":0,"TOWNNAME":"中西區","LI":"銀同里","LIN":"15鄰","STREET":"開山路","SECT":" ","MAREA":" ","LANE":"３巷","ALLEY":" ","HOUSE_NO":"２７號四樓","E_COORD97":168648.45000000001,"N_COORD97":2543612.0099999998,"ADDRESS":"開山路３巷２７號四樓","OBJECTID":325063},"geometry":{"x":168648.45000000112,"y":2543612.0100000016}},{"attributes":{"ID":325073,"DIS_CODE":0,"TOWNNAME":"中西區","LI":"銀同里","LIN":"15鄰","STREET":"開山路","SECT":" ","MAREA":" ","LANE":"３巷","ALLEY":" ","HOUSE_NO":"３１號二樓","E_COORD97":168660.29000000001,"N_COORD97":2543610.77,"ADDRESS":"開山路３巷３１號二樓","OBJECTID":325064},"geometry":{"x":168660.29000000004,"y":2543610.7699999996}},{"attributes":{"ID":325074,"DIS_CODE":0,"TOWNNAME":"中西區","LI":"銀同里","LIN":"15鄰","STREET":"開山路","SECT":" ","MAREA":" ","LANE":"３巷","ALLEY":" ","HOUSE_NO":"３１號三樓","E_COORD97":168660.29000000001,"N_COORD97":2543610.77,"ADDRESS":"開山路３巷３１號三樓","OBJECTID":325065},"geometry":{"x":168660.29000000004,"y":2543610.7699999996}},{"attributes":{"ID":325075,"DIS_CODE":0,"TOWNNAME":"中西區","LI":"銀同里","LIN":"15鄰","STREET":"開山路","SECT":" ","MAREA":" ","LANE":"３巷","ALLEY":" ","HOUSE_NO":"３１號四樓","E_COORD97":168660.29000000001,"N_COORD97":2543610.77,"ADDRESS":"開山路３巷３１號四樓","OBJECTID":325066},"geometry":{"x":168660.29000000004,"y":2543610.7699999996}},{"attributes":{"ID":325076,"DIS_CODE":0,"TOWNNAME":"中西區","LI":"青年里","LIN":"15鄰","STREET":"青年路","SECT":" ","MAREA":" ","LANE":"４７巷","ALLEY":" ","HOUSE_NO":"１２號二樓之４","E_COORD97":168657.5,"N_COORD97":2543693.6200000001,"ADDRESS":"青年路４７巷１２號二樓之４","OBJECTID":325067},"geometry":{"x":168657.50000000186,"y":2543693.6200000029}},{"attributes":{"ID":325077,"DIS_CODE":0,"TOWNNAME":"新營區","LI":"民榮里","LIN":"17鄰","STREET":"富強街","SECT":" ","MAREA":" ","LANE":" ","ALLEY":" ","HOUSE_NO":"６１之２號","E_COORD97":178879.03,"N_COORD97":2577887.0600000001,"ADDRESS":"富強街６１之２號","OBJECTID":325068},"geometry":{"x":178879.03000000026,"y":2577887.0600000005}},{"attributes":{"ID":325078,"DIS_CODE":0,"TOWNNAME":"新營區","LI":"新北里","LIN":"17鄰","STREET":"南新街","SECT":" ","MAREA":" ","LANE":" ","ALLEY":" ","HOUSE_NO":"１３８號之１","E_COORD97":179275.64000000001,"N_COORD97":2578931.7200000002,"ADDRESS":"南新街１３８號之１","OBJECTID":325069},"geometry":{"x":179275.6400000006,"y":2578931.7200000025}},{"attributes":{"ID":325079,"DIS_CODE":0,"TOWNNAME":"新營區","LI":"大宏里","LIN":"17鄰","STREET":"三民路","SECT":" ","MAREA":" ","LANE":" ","ALLEY":" ","HOUSE_NO":"４６之５１號","E_COORD97":180346.14999999999,"N_COORD97":2578536.8199999998,"ADDRESS":"三民路４６之５１號","OBJECTID":325070},"geometry":{"x":180346.15000000037,"y":2578536.8200000022}},{"attributes":{"ID":325080,"DIS_CODE":0,"TOWNNAME":"新營區","LI":"新南里","LIN":"17鄰","STREET":"隋唐街","SECT":" ","MAREA":" ","LANE":" ","ALLEY":" ","HOUSE_NO":"４５號","E_COORD97":178673.98000000001,"N_COORD97":2578507.0499999998,"ADDRESS":"隋唐街４５號","OBJECTID":325071},"geometry":{"x":178673.98000000138,"y":2578507.0500000007}},{"attributes":{"ID":325081,"DIS_CODE":0,"TOWNNAME":"中西區","LI":"青年里","LIN":"15鄰","STREET":"青年路","SECT":" ","MAREA":" ","LANE":"４７巷","ALLEY":" ","HOUSE_NO":"１２號三樓之１","E_COORD97":168657.5,"N_COORD97":2543693.6200000001,"ADDRESS":"青年路４７巷１２號三樓之１","OBJECTID":325072},"geometry":{"x":168657.50000000186,"y":2543693.6200000029}},{"attributes":{"ID":325082,"DIS_CODE":0,"TOWNNAME":"中西區","LI":"青年里","LIN":"15鄰","STREET":"青年路","SECT":" ","MAREA":" ","LANE":"４７巷","ALLEY":" ","HOUSE_NO":"１２號三樓之２","E_COORD97":168657.5,"N_COORD97":2543693.6200000001,"ADDRESS":"青年路４７巷１２號三樓之２","OBJECTID":325073},"geometry":{"x":168657.50000000186,"y":2543693.6200000029}},{"attributes":{"ID":325083,"DIS_CODE":0,"TOWNNAME":"中西區","LI":"青年里","LIN":"15鄰","STREET":"青年路","SECT":" ","MAREA":" ","LANE":"４７巷","ALLEY":" ","HOUSE_NO":"１２號三樓之３","E_COORD97":168657.5,"N_COORD97":2543693.6200000001,"ADDRESS":"青年路４７巷１２號三樓之３","OBJECTID":325074},"geometry":{"x":168657.50000000186,"y":2543693.6200000029}},{"attributes":{"ID":325084,"DIS_CODE":0,"TOWNNAME":"中西區","LI":"青年里","LIN":"15鄰","STREET":"青年路","SECT":" ","MAREA":" ","LANE":"４７巷","ALLEY":" ","HOUSE_NO":"１２號三樓之４","E_COORD97":168657.5,"N_COORD97":2543693.6200000001,"ADDRESS":"青年路４７巷１２號三樓之４","OBJECTID":325075},"geometry":{"x":168657.50000000186,"y":2543693.6200000029}},{"attributes":{"ID":325085,"DIS_CODE":0,"TOWNNAME":"中西區","LI":"青年里","LIN":"15鄰","STREET":"青年路","SECT":" ","MAREA":" ","LANE":"４７巷","ALLEY":" ","HOUSE_NO":"１２號五樓之１","E_COORD97":168657.5,"N_COORD97":2543693.6200000001,"ADDRESS":"青年路４７巷１２號五樓之１","OBJECTID":325076},"geometry":{"x":168657.50000000186,"y":2543693.6200000029}},{"attributes":{"ID":325086,"DIS_CODE":0,"TOWNNAME":"中西區","LI":"青年里","LIN":"15鄰","STREET":"青年路","SECT":" ","MAREA":" ","LANE":"４７巷","ALLEY":" ","HOUSE_NO":"１２號五樓之２","E_COORD97":168657.5,"N_COORD97":2543693.6200000001,"ADDRESS":"青年路４７巷１２號五樓之２","OBJECTID":325077},"geometry":{"x":168657.50000000186,"y":2543693.6200000029}},{"attributes":{"ID":325087,"DIS_CODE":0,"TOWNNAME":"中西區","LI":"青年里","LIN":"15鄰","STREET":"青年路","SECT":" ","MAREA":" ","LANE":"４７巷","ALLEY":" ","HOUSE_NO":"１２號五樓之３","E_COORD97":168657.5,"N_COORD97":2543693.6200000001,"ADDRESS":"青年路４７巷１２號五樓之３","OBJECTID":325078},"geometry":{"x":168657.50000000186,"y":2543693.6200000029}},{"attributes":{"ID":325088,"DIS_CODE":0,"TOWNNAME":"中西區","LI":"青年里","LIN":"15鄰","STREET":"青年路","SECT":" ","MAREA":" ","LANE":"４７巷","ALLEY":" ","HOUSE_NO":"１２號五樓之４","E_COORD97":168657.5,"N_COORD97":2543693.6200000001,"ADDRESS":"青年路４７巷１２號五樓之４","OBJECTID":325079},"geometry":{"x":168657.50000000186,"y":2543693.6200000029}},{"attributes":{"ID":325089,"DIS_CODE":0,"TOWNNAME":"中西區","LI":"青年里","LIN":"15鄰","STREET":"青年路","SECT":" ","MAREA":" ","LANE":"４７巷","ALLEY":" ","HOUSE_NO":"１２號四樓之１","E_COORD97":168657.5,"N_COORD97":2543693.6200000001,"ADDRESS":"青年路４７巷１２號四樓之１","OBJECTID":325080},"geometry":{"x":168657.50000000186,"y":2543693.6200000029}},{"attributes":{"ID":325090,"DIS_CODE":0,"TOWNNAME":"中西區","LI":"青年里","LIN":"15鄰","STREET":"青年路","SECT":" ","MAREA":" ","LANE":"４７巷","ALLEY":" ","HOUSE_NO":"１２號四樓之２","E_COORD97":168657.5,"N_COORD97":2543693.6200000001,"ADDRESS":"青年路４７巷１２號四樓之２","OBJECTID":325081},"geometry":{"x":168657.50000000186,"y":2543693.6200000029}},{"attributes":{"ID":325091,"DIS_CODE":0,"TOWNNAME":"中西區","LI":"青年里","LIN":"15鄰","STREET":"青年路","SECT":" ","MAREA":" ","LANE":"４７巷","ALLEY":" ","HOUSE_NO":"１２號四樓之３","E_COORD97":168731.62,"N_COORD97":2543649.48,"ADDRESS":"青年路４７巷１２號四樓之３","OBJECTID":325082},"geometry":{"x":168731.62000000104,"y":2543649.4800000023}},{"attributes":{"ID":325092,"DIS_CODE":0,"TOWNNAME":"中西區","LI":"青年里","LIN":"15鄰","STREET":"青年路","SECT":" ","MAREA":" ","LANE":"４７巷","ALLEY":" ","HOUSE_NO":"１２號四樓之４","E_COORD97":168731.62,"N_COORD97":2543649.48,"ADDRESS":"青年路４７巷１２號四樓之４","OBJECTID":325083},"geometry":{"x":168731.62000000104,"y":2543649.4800000023}},{"attributes":{"ID":325093,"DIS_CODE":0,"TOWNNAME":"中西區","LI":"青年里","LIN":"15鄰","STREET":"青年路","SECT":" ","MAREA":" ","LANE":"４７巷","ALLEY":" ","HOUSE_NO":"６號七樓之１","E_COORD97":168675.38,"N_COORD97":2543677.2400000002,"ADDRESS":"青年路４７巷６號七樓之１","OBJECTID":325084},"geometry":{"x":168675.38000000082,"y":2543677.2400000039}},{"attributes":{"ID":325094,"DIS_CODE":0,"TOWNNAME":"佳里區","LI":"安西里","LIN":"15鄰","STREET":"和平街","SECT":" ","MAREA":" ","LANE":"２８７巷","ALLEY":" ","HOUSE_NO":"８號","E_COORD97":165201.89999999999,"N_COORD97":2562440.1299999999,"ADDRESS":"和平街２８７巷８號","OBJECTID":325085},"geometry":{"x":165201.89999999944,"y":2562440.1300000008}},{"attributes":{"ID":325095,"DIS_CODE":0,"TOWNNAME":"中西區","LI":"青年里","LIN":"15鄰","STREET":"青年路","SECT":" ","MAREA":" ","LANE":"４７巷","ALLEY":" ","HOUSE_NO":"６號七樓之２","E_COORD97":168675.38,"N_COORD97":2543677.2400000002,"ADDRESS":"青年路４７巷６號七樓之２","OBJECTID":325086},"geometry":{"x":168675.38000000082,"y":2543677.2400000039}},{"attributes":{"ID":325096,"DIS_CODE":0,"TOWNNAME":"中西區","LI":"青年里","LIN":"15鄰","STREET":"青年路","SECT":" ","MAREA":" ","LANE":"４７巷","ALLEY":" ","HOUSE_NO":"６號七樓之３","E_COORD97":168675.38,"N_COORD97":2543677.2400000002,"ADDRESS":"青年路４７巷６號七樓之３","OBJECTID":325087},"geometry":{"x":168675.38000000082,"y":2543677.2400000039}},{"attributes":{"ID":325097,"DIS_CODE":0,"TOWNNAME":"中西區","LI":"青年里","LIN":"15鄰","STREET":"青年路","SECT":" ","MAREA":" ","LANE":"４７巷","ALLEY":" ","HOUSE_NO":"６號七樓之４","E_COORD97":168675.38,"N_COORD97":2543677.2400000002,"ADDRESS":"青年路４７巷６號七樓之４","OBJECTID":325088},"geometry":{"x":168675.38000000082,"y":2543677.2400000039}},{"attributes":{"ID":325098,"DIS_CODE":0,"TOWNNAME":"中西區","LI":"青年里","LIN":"15鄰","STREET":"青年路","SECT":" ","MAREA":" ","LANE":"４７巷","ALLEY":" ","HOUSE_NO":"６號九樓之１","E_COORD97":168675.38,"N_COORD97":2543677.2400000002,"ADDRESS":"青年路４７巷６號九樓之１","OBJECTID":325089},"geometry":{"x":168675.38000000082,"y":2543677.2400000039}},{"attributes":{"ID":325099,"DIS_CODE":0,"TOWNNAME":"中西區","LI":"青年里","LIN":"15鄰","STREET":"青年路","SECT":" ","MAREA":" ","LANE":"４７巷","ALLEY":" ","HOUSE_NO":"６號九樓之２","E_COORD97":168675.38,"N_COORD97":2543677.2400000002,"ADDRESS":"青年路４７巷６號九樓之２","OBJECTID":325090},"geometry":{"x":168675.38000000082,"y":2543677.2400000039}},{"attributes":{"ID":325100,"DIS_CODE":0,"TOWNNAME":"中西區","LI":"青年里","LIN":"15鄰","STREET":"青年路","SECT":" ","MAREA":" ","LANE":"４７巷","ALLEY":" ","HOUSE_NO":"６號九樓之３","E_COORD97":168675.38,"N_COORD97":2543677.2400000002,"ADDRESS":"青年路４７巷６號九樓之３","OBJECTID":325091},"geometry":{"x":168675.38000000082,"y":2543677.2400000039}},{"attributes":{"ID":325101,"DIS_CODE":0,"TOWNNAME":"安南區","LI":"海西里","LIN":"4鄰","STREET":"海中街","SECT":" ","MAREA":" ","LANE":"１２１巷","ALLEY":" ","HOUSE_NO":"２６號","E_COORD97":166348.17999999999,"N_COORD97":2549046.6200000001,"ADDRESS":"海中街１２１巷２６號","OBJECTID":325092},"geometry":{"x":166348.1799999997,"y":2549046.6200000029}},{"attributes":{"ID":325102,"DIS_CODE":0,"TOWNNAME":"安南區","LI":"海西里","LIN":"4鄰","STREET":"海中街","SECT":" ","MAREA":" ","LANE":"１２１巷","ALLEY":" ","HOUSE_NO":"２號","E_COORD97":166373.09,"N_COORD97":2549052.0600000001,"ADDRESS":"海中街１２１巷２號","OBJECTID":325093},"geometry":{"x":166373.08999999985,"y":2549052.0599999987}},{"attributes":{"ID":325103,"DIS_CODE":0,"TOWNNAME":"安南區","LI":"海西里","LIN":"4鄰","STREET":"海中街","SECT":" ","MAREA":" ","LANE":"１２１巷","ALLEY":" ","HOUSE_NO":"３２號","E_COORD97":166321.37,"N_COORD97":2549055.4100000001,"ADDRESS":"海中街１２１巷３２號","OBJECTID":325094},"geometry":{"x":166321.37000000104,"y":2549055.4100000001}},{"attributes":{"ID":325104,"DIS_CODE":0,"TOWNNAME":"安南區","LI":"海西里","LIN":"4鄰","STREET":"海中街","SECT":" ","MAREA":" ","LANE":"１２１巷","ALLEY":" ","HOUSE_NO":"５０號","E_COORD97":166280.32000000001,"N_COORD97":2549023.2000000002,"ADDRESS":"海中街１２１巷５０號","OBJECTID":325095},"geometry":{"x":166280.3200000003,"y":2549023.2000000011}},{"attributes":{"ID":325105,"DIS_CODE":0,"TOWNNAME":"安南區","LI":"海西里","LIN":"4鄰","STREET":"海中街","SECT":" ","MAREA":" ","LANE":"１２１巷","ALLEY":" ","HOUSE_NO":"５８號","E_COORD97":166271.53,"N_COORD97":2549010.23,"ADDRESS":"海中街１２１巷５８號","OBJECTID":325096},"geometry":{"x":166271.53000000119,"y":2549010.2299999986}},{"attributes":{"ID":325106,"DIS_CODE":0,"TOWNNAME":"安南區","LI":"海西里","LIN":"4鄰","STREET":"海中街","SECT":" ","MAREA":" ","LANE":"１２１巷","ALLEY":" ","HOUSE_NO":"６２號","E_COORD97":166256.45000000001,"N_COORD97":2549025.71,"ADDRESS":"海中街１２１巷６２號","OBJECTID":325097},"geometry":{"x":166256.45000000112,"y":2549025.7100000028}},{"attributes":{"ID":325107,"DIS_CODE":0,"TOWNNAME":"安南區","LI":"海西里","LIN":"4鄰","STREET":"海中街","SECT":" ","MAREA":" ","LANE":"１２１巷","ALLEY":" ","HOUSE_NO":"６６號","E_COORD97":166263.98999999999,"N_COORD97":2549004.3799999999,"ADDRESS":"海中街１２１巷６６號","OBJECTID":325098},"geometry":{"x":166263.99000000022,"y":2549004.3800000027}},{"attributes":{"ID":325108,"DIS_CODE":0,"TOWNNAME":"安南區","LI":"海西里","LIN":"4鄰","STREET":"海中街","SECT":" ","MAREA":" ","LANE":"１２１巷","ALLEY":" ","HOUSE_NO":"７４號","E_COORD97":166243.88,"N_COORD97":2549014,"ADDRESS":"海中街１２１巷７４號","OBJECTID":325099},"geometry":{"x":166243.87999999989,"y":2549014}},{"attributes":{"ID":325109,"DIS_CODE":0,"TOWNNAME":"中西區","LI":"青年里","LIN":"15鄰","STREET":"青年路","SECT":" ","MAREA":" ","LANE":"４７巷","ALLEY":" ","HOUSE_NO":"６號九樓之４","E_COORD97":168675.38,"N_COORD97":2543677.2400000002,"ADDRESS":"青年路４７巷６號九樓之４","OBJECTID":325100},"geometry":{"x":168675.38000000082,"y":2543677.2400000039}},{"attributes":{"ID":325110,"DIS_CODE":0,"TOWNNAME":"中西區","LI":"青年里","LIN":"15鄰","STREET":"青年路","SECT":" ","MAREA":" ","LANE":"４７巷","ALLEY":" ","HOUSE_NO":"６號二樓","E_COORD97":168675.38,"N_COORD97":2543677.2400000002,"ADDRESS":"青年路４７巷６號二樓","OBJECTID":325101},"geometry":{"x":168675.38000000082,"y":2543677.2400000039}},{"attributes":{"ID":325111,"DIS_CODE":0,"TOWNNAME":"中西區","LI":"青年里","LIN":"15鄰","STREET":"青年路","SECT":" ","MAREA":" ","LANE":"４７巷","ALLEY":" ","HOUSE_NO":"６號八樓之１","E_COORD97":168675.38,"N_COORD97":2543677.2400000002,"ADDRESS":"青年路４７巷６號八樓之１","OBJECTID":325102},"geometry":{"x":168675.38000000082,"y":2543677.2400000039}},{"attributes":{"ID":325112,"DIS_CODE":0,"TOWNNAME":"中西區","LI":"青年里","LIN":"15鄰","STREET":"青年路","SECT":" ","MAREA":" ","LANE":"４７巷","ALLEY":" ","HOUSE_NO":"６號八樓之２","E_COORD97":168675.38,"N_COORD97":2543677.2400000002,"ADDRESS":"青年路４７巷６號八樓之２","OBJECTID":325103},"geometry":{"x":168675.38000000082,"y":2543677.2400000039}},{"attributes":{"ID":325113,"DIS_CODE":0,"TOWNNAME":"中西區","LI":"青年里","LIN":"15鄰","STREET":"青年路","SECT":" ","MAREA":" ","LANE":"４７巷","ALLEY":" ","HOUSE_NO":"６號八樓之３","E_COORD97":168675.38,"N_COORD97":2543677.2400000002,"ADDRESS":"青年路４７巷６號八樓之３","OBJECTID":325104},"geometry":{"x":168675.38000000082,"y":2543677.2400000039}},{"attributes":{"ID":325114,"DIS_CODE":0,"TOWNNAME":"中西區","LI":"青年里","LIN":"15鄰","STREET":"青年路","SECT":" ","MAREA":" ","LANE":"４７巷","ALLEY":" ","HOUSE_NO":"６號八樓之４","E_COORD97":168675.38,"N_COORD97":2543677.2400000002,"ADDRESS":"青年路４７巷６號八樓之４","OBJECTID":325105},"geometry":{"x":168675.38000000082,"y":2543677.2400000039}},{"attributes":{"ID":325115,"DIS_CODE":0,"TOWNNAME":"新營區","LI":"民榮里","LIN":"17鄰","STREET":"富強街","SECT":" ","MAREA":" ","LANE":" ","ALLEY":" ","HOUSE_NO":"４１號","E_COORD97":178944.82000000001,"N_COORD97":2577821.3500000001,"ADDRESS":"富強街４１號","OBJECTID":325106},"geometry":{"x":178944.8200000003,"y":2577821.3500000015}},{"attributes":{"ID":325116,"DIS_CODE":0,"TOWNNAME":"新營區","LI":"民榮里","LIN":"17鄰","STREET":"富強街","SECT":" ","MAREA":" ","LANE":" ","ALLEY":" ","HOUSE_NO":"５１之５號","E_COORD97":178904.34,"N_COORD97":2577830.4700000002,"ADDRESS":"富強街５１之５號","OBJECTID":325107},"geometry":{"x":178904.34000000078,"y":2577830.4699999988}},{"attributes":{"ID":325117,"DIS_CODE":0,"TOWNNAME":"新營區","LI":"大宏里","LIN":"17鄰","STREET":"三民路","SECT":" ","MAREA":" ","LANE":" ","ALLEY":" ","HOUSE_NO":"４６之２９號","E_COORD97":180346.14999999999,"N_COORD97":2578536.8199999998,"ADDRESS":"三民路４６之２９號","OBJECTID":325108},"geometry":{"x":180346.15000000037,"y":2578536.8200000022}},{"attributes":{"ID":325118,"DIS_CODE":0,"TOWNNAME":"新營區","LI":"民榮里","LIN":"17鄰","STREET":"富強街","SECT":" ","MAREA":" ","LANE":" ","ALLEY":" ","HOUSE_NO":"５７之１號","E_COORD97":178908.56,"N_COORD97":2577857.02,"ADDRESS":"富強街５７之１號","OBJECTID":325109},"geometry":{"x":178908.55999999959,"y":2577857.0200000014}},{"attributes":{"ID":325119,"DIS_CODE":0,"TOWNNAME":"新營區","LI":"民榮里","LIN":"17鄰","STREET":"富強街","SECT":" ","MAREA":" ","LANE":" ","ALLEY":" ","HOUSE_NO":"５１之６號","E_COORD97":178909.47,"N_COORD97":2577834.8700000001,"ADDRESS":"富強街５１之６號","OBJECTID":325110},"geometry":{"x":178909.46999999974,"y":2577834.8699999992}},{"attributes":{"ID":325120,"DIS_CODE":0,"TOWNNAME":"新營區","LI":"民榮里","LIN":"17鄰","STREET":"富強街","SECT":" ","MAREA":" ","LANE":" ","ALLEY":" ","HOUSE_NO":"２４號","E_COORD97":178985.64000000001,"N_COORD97":2577803.4399999999,"ADDRESS":"富強街２４號","OBJECTID":325111},"geometry":{"x":178985.6400000006,"y":2577803.4400000013}},{"attributes":{"ID":325121,"DIS_CODE":0,"TOWNNAME":"新營區","LI":"民榮里","LIN":"17鄰","STREET":"富強街","SECT":" ","MAREA":" ","LANE":" ","ALLEY":" ","HOUSE_NO":"５０號","E_COORD97":178939.76000000001,"N_COORD97":2577845.7400000002,"ADDRESS":"富強街５０號","OBJECTID":325112},"geometry":{"x":178939.75999999978,"y":2577845.7400000021}},{"attributes":{"ID":325122,"DIS_CODE":0,"TOWNNAME":"新營區","LI":"民權里","LIN":"17鄰","STREET":"文化街","SECT":" ","MAREA":" ","LANE":" ","ALLEY":" ","HOUSE_NO":"２７之３號","E_COORD97":179795.57000000001,"N_COORD97":2578095.3199999998,"ADDRESS":"文化街２７之３號","OBJECTID":325113},"geometry":{"x":179795.5700000003,"y":2578095.3200000003}},{"attributes":{"ID":325123,"DIS_CODE":0,"TOWNNAME":"安南區","LI":"溪心里","LIN":"7鄰","STREET":"本原街","SECT":"二段","MAREA":" ","LANE":"１１６巷","ALLEY":" ","HOUSE_NO":"１０號","E_COORD97":166776.95999999999,"N_COORD97":2550796.2999999998,"ADDRESS":"本原街二段１１６巷１０號","OBJECTID":325114},"geometry":{"x":166776.95999999996,"y":2550796.3000000007}},{"attributes":{"ID":325124,"DIS_CODE":0,"TOWNNAME":"安南區","LI":"溪心里","LIN":"7鄰","STREET":"本原街","SECT":"二段","MAREA":" ","LANE":"１１６巷","ALLEY":" ","HOUSE_NO":"１４號","E_COORD97":166776.78,"N_COORD97":2550813.1000000001,"ADDRESS":"本原街二段１１６巷１４號","OBJECTID":325115},"geometry":{"x":166776.78000000026,"y":2550813.0999999996}},{"attributes":{"ID":325125,"DIS_CODE":0,"TOWNNAME":"安南區","LI":"溪心里","LIN":"7鄰","STREET":"本原街","SECT":"二段","MAREA":" ","LANE":"１１６巷","ALLEY":" ","HOUSE_NO":"３１號","E_COORD97":166741.20999999999,"N_COORD97":2550869.8799999999,"ADDRESS":"本原街二段１１６巷３１號","OBJECTID":325116},"geometry":{"x":166741.21000000089,"y":2550869.8800000008}},{"attributes":{"ID":325126,"DIS_CODE":0,"TOWNNAME":"安南區","LI":"佃東里","LIN":"4鄰","STREET":"公學路","SECT":"四段","MAREA":" ","LANE":"１２２巷","ALLEY":" ","HOUSE_NO":"４２號","E_COORD97":165608.17000000001,"N_COORD97":2552178.1099999999,"ADDRESS":"公學路四段１２２巷４２號","OBJECTID":325117},"geometry":{"x":165608.16999999899,"y":2552178.1100000013}},{"attributes":{"ID":325127,"DIS_CODE":0,"TOWNNAME":"安南區","LI":"佃東里","LIN":"4鄰","STREET":"公學路","SECT":"四段","MAREA":" ","LANE":"１２２巷","ALLEY":" ","HOUSE_NO":"７６號","E_COORD97":165635.70000000001,"N_COORD97":2552265.5899999999,"ADDRESS":"公學路四段１２２巷７６號","OBJECTID":325118},"geometry":{"x":165635.70000000112,"y":2552265.5900000036}},{"attributes":{"ID":325128,"DIS_CODE":0,"TOWNNAME":"安南區","LI":"佃東里","LIN":"9鄰","STREET":"公學路","SECT":"四段","MAREA":" ","LANE":"１９６巷","ALLEY":" ","HOUSE_NO":"７號","E_COORD97":165502.17999999999,"N_COORD97":2551957.3799999999,"ADDRESS":"公學路四段１９６巷７號","OBJECTID":325119},"geometry":{"x":165502.1799999997,"y":2551957.3800000027}},{"attributes":{"ID":325129,"DIS_CODE":0,"TOWNNAME":"安南區","LI":"佃東里","LIN":"8鄰","STREET":"公學路","SECT":"四段","MAREA":" ","LANE":"１２６巷","ALLEY":" ","HOUSE_NO":"４３號","E_COORD97":165471.16,"N_COORD97":2551990.3599999999,"ADDRESS":"公學路四段１２６巷４３號","OBJECTID":325120},"geometry":{"x":165471.15999999922,"y":2551990.3599999994}},{"attributes":{"ID":325130,"DIS_CODE":0,"TOWNNAME":"安南區","LI":"佃東里","LIN":"8鄰","STREET":"公學路","SECT":"四段","MAREA":" ","LANE":"１２６巷","ALLEY":" ","HOUSE_NO":"５１號","E_COORD97":165463.39999999999,"N_COORD97":2551981.71,"ADDRESS":"公學路四段１２６巷５１號","OBJECTID":325121},"geometry":{"x":165463.4000000013,"y":2551981.7100000028}},{"attributes":{"ID":325131,"DIS_CODE":0,"TOWNNAME":"安南區","LI":"佃東里","LIN":"8鄰","STREET":"公學路","SECT":"四段","MAREA":" ","LANE":"２１０巷","ALLEY":" ","HOUSE_NO":"１２號","E_COORD97":165478.01000000001,"N_COORD97":2551944.5899999999,"ADDRESS":"公學路四段２１０巷１２號","OBJECTID":325122},"geometry":{"x":165478.00999999978,"y":2551944.5900000017}},{"attributes":{"ID":325132,"DIS_CODE":0,"TOWNNAME":"中西區","LI":"青年里","LIN":"15鄰","STREET":"青年路","SECT":" ","MAREA":" ","LANE":"４７巷","ALLEY":" ","HOUSE_NO":"６號十一樓之１","E_COORD97":168675.38,"N_COORD97":2543677.2400000002,"ADDRESS":"青年路４７巷６號十一樓之１","OBJECTID":325123},"geometry":{"x":168675.38000000082,"y":2543677.2400000039}},{"attributes":{"ID":325133,"DIS_CODE":0,"TOWNNAME":"中西區","LI":"青年里","LIN":"15鄰","STREET":"青年路","SECT":" ","MAREA":" ","LANE":"４７巷","ALLEY":" ","HOUSE_NO":"６號十一樓之２","E_COORD97":168675.38,"N_COORD97":2543677.2400000002,"ADDRESS":"青年路４７巷６號十一樓之２","OBJECTID":325124},"geometry":{"x":168675.38000000082,"y":2543677.2400000039}},{"attributes":{"ID":325134,"DIS_CODE":0,"TOWNNAME":"中西區","LI":"青年里","LIN":"15鄰","STREET":"青年路","SECT":" ","MAREA":" ","LANE":"４７巷","ALLEY":" ","HOUSE_NO":"６號十一樓之３","E_COORD97":168675.38,"N_COORD97":2543677.2400000002,"ADDRESS":"青年路４７巷６號十一樓之３","OBJECTID":325125},"geometry":{"x":168675.38000000082,"y":2543677.2400000039}},{"attributes":{"ID":325135,"DIS_CODE":0,"TOWNNAME":"中西區","LI":"青年里","LIN":"15鄰","STREET":"青年路","SECT":" ","MAREA":" ","LANE":"４７巷","ALLEY":" ","HOUSE_NO":"６號十一樓之４","E_COORD97":168675.38,"N_COORD97":2543677.2400000002,"ADDRESS":"青年路４７巷６號十一樓之４","OBJECTID":325126},"geometry":{"x":168675.38000000082,"y":2543677.2400000039}},{"attributes":{"ID":325136,"DIS_CODE":0,"TOWNNAME":"中西區","LI":"青年里","LIN":"15鄰","STREET":"青年路","SECT":" ","MAREA":" ","LANE":"４７巷","ALLEY":" ","HOUSE_NO":"６號十二樓之１","E_COORD97":168675.38,"N_COORD97":2543677.2400000002,"ADDRESS":"青年路４７巷６號十二樓之１","OBJECTID":325127},"geometry":{"x":168675.38000000082,"y":2543677.2400000039}},{"attributes":{"ID":325137,"DIS_CODE":0,"TOWNNAME":"南區","LI":"喜東里","LIN":"4鄰","STREET":"明興路","SECT":" ","MAREA":" ","LANE":"４０４巷","ALLEY":" ","HOUSE_NO":"７號","E_COORD97":166267.64999999999,"N_COORD97":2538843.46,"ADDRESS":"明興路４０４巷７號","OBJECTID":325128},"geometry":{"x":166267.65000000037,"y":2538843.4600000009}},{"attributes":{"ID":325138,"DIS_CODE":0,"TOWNNAME":"中西區","LI":"青年里","LIN":"15鄰","STREET":"青年路","SECT":" ","MAREA":" ","LANE":"４７巷","ALLEY":" ","HOUSE_NO":"６號十二樓之２","E_COORD97":168675.38,"N_COORD97":2543677.2400000002,"ADDRESS":"青年路４７巷６號十二樓之２","OBJECTID":325129},"geometry":{"x":168675.38000000082,"y":2543677.2400000039}},{"attributes":{"ID":325139,"DIS_CODE":0,"TOWNNAME":"中西區","LI":"青年里","LIN":"15鄰","STREET":"青年路","SECT":" ","MAREA":" ","LANE":"４７巷","ALLEY":" ","HOUSE_NO":"６號十二樓之３","E_COORD97":168675.38,"N_COORD97":2543677.2400000002,"ADDRESS":"青年路４７巷６號十二樓之３","OBJECTID":325130},"geometry":{"x":168675.38000000082,"y":2543677.2400000039}},{"attributes":{"ID":325140,"DIS_CODE":0,"TOWNNAME":"中西區","LI":"青年里","LIN":"15鄰","STREET":"青年路","SECT":" ","MAREA":" ","LANE":"４７巷","ALLEY":" ","HOUSE_NO":"６號十二樓之４","E_COORD97":168675.38,"N_COORD97":2543677.2400000002,"ADDRESS":"青年路４７巷６號十二樓之４","OBJECTID":325131},"geometry":{"x":168675.38000000082,"y":2543677.2400000039}},{"attributes":{"ID":325141,"DIS_CODE":0,"TOWNNAME":"中西區","LI":"青年里","LIN":"15鄰","STREET":"青年路","SECT":" ","MAREA":" ","LANE":"４７巷","ALLEY":" ","HOUSE_NO":"６號十樓之１","E_COORD97":168675.38,"N_COORD97":2543677.2400000002,"ADDRESS":"青年路４７巷６號十樓之１","OBJECTID":325132},"geometry":{"x":168675.38000000082,"y":2543677.2400000039}},{"attributes":{"ID":325142,"DIS_CODE":0,"TOWNNAME":"中西區","LI":"青年里","LIN":"15鄰","STREET":"青年路","SECT":" ","MAREA":" ","LANE":"４７巷","ALLEY":" ","HOUSE_NO":"６號十樓之２","E_COORD97":168675.38,"N_COORD97":2543677.2400000002,"ADDRESS":"青年路４７巷６號十樓之２","OBJECTID":325133},"geometry":{"x":168675.38000000082,"y":2543677.2400000039}},{"attributes":{"ID":325143,"DIS_CODE":0,"TOWNNAME":"中西區","LI":"青年里","LIN":"15鄰","STREET":"青年路","SECT":" ","MAREA":" ","LANE":"４７巷","ALLEY":" ","HOUSE_NO":"６號十樓之３","E_COORD97":168675.38,"N_COORD97":2543677.2400000002,"ADDRESS":"青年路４７巷６號十樓之３","OBJECTID":325134},"geometry":{"x":168675.38000000082,"y":2543677.2400000039}},{"attributes":{"ID":325144,"DIS_CODE":0,"TOWNNAME":"新營區","LI":"民權里","LIN":"17鄰","STREET":"文化街","SECT":" ","MAREA":" ","LANE":" ","ALLEY":" ","HOUSE_NO":"２７號","E_COORD97":179796.10000000001,"N_COORD97":2578085.29,"ADDRESS":"文化街２７號","OBJECTID":325135},"geometry":{"x":179796.10000000056,"y":2578085.290000001}},{"attributes":{"ID":325145,"DIS_CODE":0,"TOWNNAME":"新營區","LI":"新東里","LIN":"17鄰","STREET":"東興二街","SECT":" ","MAREA":" ","LANE":" ","ALLEY":" ","HOUSE_NO":"３７號","E_COORD97":180920.67999999999,"N_COORD97":2579050.1400000001,"ADDRESS":"東興二街３７號","OBJECTID":325136},"geometry":{"x":180920.68000000156,"y":2579050.1400000043}},{"attributes":{"ID":325146,"DIS_CODE":0,"TOWNNAME":"新營區","LI":"民榮里","LIN":"17鄰","STREET":"裕民路","SECT":" ","MAREA":" ","LANE":" ","ALLEY":" ","HOUSE_NO":"６２號","E_COORD97":179131.82999999999,"N_COORD97":2577798.3100000001,"ADDRESS":"裕民路６２號","OBJECTID":325137},"geometry":{"x":179131.83000000101,"y":2577798.3100000024}},{"attributes":{"ID":325147,"DIS_CODE":0,"TOWNNAME":"新營區","LI":"民榮里","LIN":"17鄰","STREET":"新進路","SECT":"二段","MAREA":" ","LANE":" ","ALLEY":" ","HOUSE_NO":"２６６號","E_COORD97":178926.32999999999,"N_COORD97":2577759.4199999999,"ADDRESS":"新進路二段２６６號","OBJECTID":325138},"geometry":{"x":178926.32999999914,"y":2577759.4200000018}},{"attributes":{"ID":325148,"DIS_CODE":0,"TOWNNAME":"新營區","LI":"民榮里","LIN":"17鄰","STREET":"新進路","SECT":"二段","MAREA":" ","LANE":" ","ALLEY":" ","HOUSE_NO":"２６０號","E_COORD97":178912.01000000001,"N_COORD97":2577759.4900000002,"ADDRESS":"新進路二段２６０號","OBJECTID":325139},"geometry":{"x":178912.01000000071,"y":2577759.4900000021}},{"attributes":{"ID":325149,"DIS_CODE":0,"TOWNNAME":"新營區","LI":"王公里","LIN":"17鄰","STREET":"大智街","SECT":" ","MAREA":" ","LANE":" ","ALLEY":" ","HOUSE_NO":"２８號","E_COORD97":180240.69,"N_COORD97":2579312.46,"ADDRESS":"大智街２８號","OBJECTID":325140},"geometry":{"x":180240.69000000041,"y":2579312.4600000046}},{"attributes":{"ID":325150,"DIS_CODE":0,"TOWNNAME":"新營區","LI":"王公里","LIN":"17鄰","STREET":"大智街","SECT":" ","MAREA":" ","LANE":" ","ALLEY":" ","HOUSE_NO":"４５號","E_COORD97":180273.5,"N_COORD97":2579325.6000000001,"ADDRESS":"大智街４５號","OBJECTID":325141},"geometry":{"x":180273.50000000093,"y":2579325.5999999996}},{"attributes":{"ID":325151,"DIS_CODE":0,"TOWNNAME":"新營區","LI":"王公里","LIN":"17鄰","STREET":"大智街","SECT":" ","MAREA":" ","LANE":" ","ALLEY":" ","HOUSE_NO":"４６號","E_COORD97":180291.85000000001,"N_COORD97":2579313.3300000001,"ADDRESS":"大智街４６號","OBJECTID":325142},"geometry":{"x":180291.84999999963,"y":2579313.3300000019}},{"attributes":{"ID":325152,"DIS_CODE":0,"TOWNNAME":"新營區","LI":"新北里","LIN":"17鄰","STREET":"南新街","SECT":" ","MAREA":" ","LANE":" ","ALLEY":" ","HOUSE_NO":"１４６號之１","E_COORD97":179290,"N_COORD97":2578937.1899999999,"ADDRESS":"南新街１４６號之１","OBJECTID":325143},"geometry":{"x":179290.00000000093,"y":2578937.1900000013}},{"attributes":{"ID":325153,"DIS_CODE":0,"TOWNNAME":"新營區","LI":"王公里","LIN":"17鄰","STREET":"大智街","SECT":" ","MAREA":" ","LANE":" ","ALLEY":" ","HOUSE_NO":"１７號","E_COORD97":180212.03,"N_COORD97":2579322.5600000001,"ADDRESS":"大智街１７號","OBJECTID":325144},"geometry":{"x":180212.03000000212,"y":2579322.5600000024}},{"attributes":{"ID":325154,"DIS_CODE":0,"TOWNNAME":"安南區","LI":"佃西里","LIN":"4鄰","STREET":"公學路","SECT":"四段","MAREA":" ","LANE":"１２６巷","ALLEY":" ","HOUSE_NO":"１００號","E_COORD97":165348.60000000001,"N_COORD97":2551934.2400000002,"ADDRESS":"公學路四段１２６巷１００號","OBJECTID":325145},"geometry":{"x":165348.59999999963,"y":2551934.2400000021}},{"attributes":{"ID":325155,"DIS_CODE":0,"TOWNNAME":"安南區","LI":"佃西里","LIN":"4鄰","STREET":"公學路","SECT":"四段","MAREA":" ","LANE":"１２６巷","ALLEY":" ","HOUSE_NO":"９０號","E_COORD97":165364.73000000001,"N_COORD97":2551943.75,"ADDRESS":"公學路四段１２６巷９０號","OBJECTID":325146},"geometry":{"x":165364.73000000138,"y":2551943.7500000019}},{"attributes":{"ID":325156,"DIS_CODE":0,"TOWNNAME":"安南區","LI":"佃西里","LIN":"4鄰","STREET":"公學路","SECT":"四段","MAREA":" ","LANE":"１２６巷","ALLEY":" ","HOUSE_NO":"９４號","E_COORD97":165358.53,"N_COORD97":2551943.9500000002,"ADDRESS":"公學路四段１２６巷９４號","OBJECTID":325147},"geometry":{"x":165358.53000000026,"y":2551943.950000003}},{"attributes":{"ID":325157,"DIS_CODE":0,"TOWNNAME":"安南區","LI":"佃西里","LIN":"4鄰","STREET":"公學路","SECT":"四段","MAREA":" ","LANE":"１２６巷","ALLEY":" ","HOUSE_NO":"９９號","E_COORD97":165361.01000000001,"N_COORD97":2551911.3100000001,"ADDRESS":"公學路四段１２６巷９９號","OBJECTID":325148},"geometry":{"x":165361.00999999978,"y":2551911.3100000005}},{"attributes":{"ID":325158,"DIS_CODE":0,"TOWNNAME":"安南區","LI":"佃西里","LIN":"4鄰","STREET":"公學路","SECT":"四段","MAREA":" ","LANE":"２３４巷","ALLEY":" ","HOUSE_NO":"３８號","E_COORD97":165344.23000000001,"N_COORD97":2551868.9300000002,"ADDRESS":"公學路四段２３４巷３８號","OBJECTID":325149},"geometry":{"x":165344.23000000138,"y":2551868.9299999997}},{"attributes":{"ID":325159,"DIS_CODE":0,"TOWNNAME":"中西區","LI":"青年里","LIN":"15鄰","STREET":"青年路","SECT":" ","MAREA":" ","LANE":"４７巷","ALLEY":" ","HOUSE_NO":"６號十樓之４","E_COORD97":168675.38,"N_COORD97":2543677.2400000002,"ADDRESS":"青年路４７巷６號十樓之４","OBJECTID":325150},"geometry":{"x":168675.38000000082,"y":2543677.2400000039}},{"attributes":{"ID":325160,"DIS_CODE":0,"TOWNNAME":"中西區","LI":"青年里","LIN":"15鄰","STREET":"青年路","SECT":" ","MAREA":" ","LANE":"４７巷","ALLEY":" ","HOUSE_NO":"６號三樓之１","E_COORD97":168675.38,"N_COORD97":2543677.2400000002,"ADDRESS":"青年路４７巷６號三樓之１","OBJECTID":325151},"geometry":{"x":168675.38000000082,"y":2543677.2400000039}},{"attributes":{"ID":325161,"DIS_CODE":0,"TOWNNAME":"中西區","LI":"青年里","LIN":"15鄰","STREET":"青年路","SECT":" ","MAREA":" ","LANE":"４７巷","ALLEY":" ","HOUSE_NO":"６號三樓之２","E_COORD97":168675.38,"N_COORD97":2543677.2400000002,"ADDRESS":"青年路４７巷６號三樓之２","OBJECTID":325152},"geometry":{"x":168675.38000000082,"y":2543677.2400000039}},{"attributes":{"ID":325162,"DIS_CODE":0,"TOWNNAME":"中西區","LI":"青年里","LIN":"15鄰","STREET":"青年路","SECT":" ","MAREA":" ","LANE":"４７巷","ALLEY":" ","HOUSE_NO":"６號三樓之３","E_COORD97":168675.38,"N_COORD97":2543677.2400000002,"ADDRESS":"青年路４７巷６號三樓之３","OBJECTID":325153},"geometry":{"x":168675.38000000082,"y":2543677.2400000039}},{"attributes":{"ID":325163,"DIS_CODE":0,"TOWNNAME":"中西區","LI":"青年里","LIN":"15鄰","STREET":"青年路","SECT":" ","MAREA":" ","LANE":"４７巷","ALLEY":" ","HOUSE_NO":"６號三樓之４","E_COORD97":168675.38,"N_COORD97":2543677.2400000002,"ADDRESS":"青年路４７巷６號三樓之４","OBJECTID":325154},"geometry":{"x":168675.38000000082,"y":2543677.2400000039}},{"attributes":{"ID":325164,"DIS_CODE":0,"TOWNNAME":"中西區","LI":"青年里","LIN":"15鄰","STREET":"青年路","SECT":" ","MAREA":" ","LANE":"４７巷","ALLEY":" ","HOUSE_NO":"６號五樓之１","E_COORD97":168675.38,"N_COORD97":2543677.2400000002,"ADDRESS":"青年路４７巷６號五樓之１","OBJECTID":325155},"geometry":{"x":168675.38000000082,"y":2543677.2400000039}},{"attributes":{"ID":325165,"DIS_CODE":0,"TOWNNAME":"中西區","LI":"青年里","LIN":"15鄰","STREET":"青年路","SECT":" ","MAREA":" ","LANE":"４７巷","ALLEY":" ","HOUSE_NO":"６號五樓之２","E_COORD97":168675.38,"N_COORD97":2543677.2400000002,"ADDRESS":"青年路４７巷６號五樓之２","OBJECTID":325156},"geometry":{"x":168675.38000000082,"y":2543677.2400000039}},{"attributes":{"ID":325166,"DIS_CODE":0,"TOWNNAME":"中西區","LI":"青年里","LIN":"15鄰","STREET":"青年路","SECT":" ","MAREA":" ","LANE":"４７巷","ALLEY":" ","HOUSE_NO":"６號五樓之３","E_COORD97":168675.38,"N_COORD97":2543677.2400000002,"ADDRESS":"青年路４７巷６號五樓之３","OBJECTID":325157},"geometry":{"x":168675.38000000082,"y":2543677.2400000039}},{"attributes":{"ID":325167,"DIS_CODE":0,"TOWNNAME":"新營區","LI":"大宏里","LIN":"17鄰","STREET":"三民路","SECT":" ","MAREA":" ","LANE":" ","ALLEY":" ","HOUSE_NO":"４６之１３號","E_COORD97":180346.14999999999,"N_COORD97":2578536.8199999998,"ADDRESS":"三民路４６之１３號","OBJECTID":325158},"geometry":{"x":180346.15000000037,"y":2578536.8200000022}},{"attributes":{"ID":325168,"DIS_CODE":0,"TOWNNAME":"新營區","LI":"王公里","LIN":"17鄰","STREET":"大智街","SECT":" ","MAREA":" ","LANE":" ","ALLEY":" ","HOUSE_NO":"１８號","E_COORD97":180220.17000000001,"N_COORD97":2579312.5600000001,"ADDRESS":"大智街１８號","OBJECTID":325159},"geometry":{"x":180220.16999999993,"y":2579312.5600000024}},{"attributes":{"ID":325169,"DIS_CODE":0,"TOWNNAME":"新營區","LI":"大宏里","LIN":"17鄰","STREET":"三民路","SECT":" ","MAREA":" ","LANE":" ","ALLEY":" ","HOUSE_NO":"４６之３１號","E_COORD97":180346.14999999999,"N_COORD97":2578536.8199999998,"ADDRESS":"三民路４６之３１號","OBJECTID":325160},"geometry":{"x":180346.15000000037,"y":2578536.8200000022}},{"attributes":{"ID":325170,"DIS_CODE":0,"TOWNNAME":"新營區","LI":"大宏里","LIN":"17鄰","STREET":"三民路","SECT":" ","MAREA":" ","LANE":" ","ALLEY":" ","HOUSE_NO":"４６之３３號","E_COORD97":180346.14999999999,"N_COORD97":2578536.8199999998,"ADDRESS":"三民路４６之３３號","OBJECTID":325161},"geometry":{"x":180346.15000000037,"y":2578536.8200000022}},{"attributes":{"ID":325171,"DIS_CODE":0,"TOWNNAME":"新營區","LI":"大宏里","LIN":"17鄰","STREET":"三民路","SECT":" ","MAREA":" ","LANE":" ","ALLEY":" ","HOUSE_NO":"４６之２０號","E_COORD97":180346.14999999999,"N_COORD97":2578536.8199999998,"ADDRESS":"三民路４６之２０號","OBJECTID":325162},"geometry":{"x":180346.15000000037,"y":2578536.8200000022}},{"attributes":{"ID":325172,"DIS_CODE":0,"TOWNNAME":"東山區","LI":"東中里","LIN":"17鄰","STREET":"民治街","SECT":" ","MAREA":" ","LANE":" ","ALLEY":" ","HOUSE_NO":"３號","E_COORD97":189018.54999999999,"N_COORD97":2579911.8999999999,"ADDRESS":"民治街３號","OBJECTID":325163},"geometry":{"x":189018.55000000075,"y":2579911.9000000004}},{"attributes":{"ID":325173,"DIS_CODE":0,"TOWNNAME":"南區","LI":"郡南里","LIN":"8鄰","STREET":"永成路","SECT":"三段","MAREA":" ","LANE":"１７７巷","ALLEY":" ","HOUSE_NO":"２３號","E_COORD97":167416.92000000001,"N_COORD97":2540827.7799999998,"ADDRESS":"永成路三段１７７巷２３號","OBJECTID":325164},"geometry":{"x":167416.91999999899,"y":2540827.7800000031}},{"attributes":{"ID":325174,"DIS_CODE":0,"TOWNNAME":"安南區","LI":"安東里","LIN":"4鄰","STREET":"安和路","SECT":"一段","MAREA":" ","LANE":"２８８巷","ALLEY":" ","HOUSE_NO":"１１５號之１","E_COORD97":169597.64999999999,"N_COORD97":2548219.4300000002,"ADDRESS":"安和路一段２８８巷１１５號之１","OBJECTID":325165},"geometry":{"x":169597.65000000224,"y":2548219.4300000016}},{"attributes":{"ID":325175,"DIS_CODE":0,"TOWNNAME":"安南區","LI":"佃東里","LIN":"20鄰","STREET":"公學路","SECT":"四段","MAREA":" ","LANE":"５４巷","ALLEY":" ","HOUSE_NO":"７３號之１","E_COORD97":165803.54999999999,"N_COORD97":2552268.3399999999,"ADDRESS":"公學路四段５４巷７３號之１","OBJECTID":325166},"geometry":{"x":165803.54999999981,"y":2552268.3400000017}},{"attributes":{"ID":325176,"DIS_CODE":0,"TOWNNAME":"安南區","LI":"佃西里","LIN":"9鄰","STREET":"公學路","SECT":"四段","MAREA":" ","LANE":"１２６巷","ALLEY":" ","HOUSE_NO":"１５８號之１","E_COORD97":165209.31,"N_COORD97":2551762.4900000002,"ADDRESS":"公學路四段１２６巷１５８號之１","OBJECTID":325167},"geometry":{"x":165209.31000000052,"y":2551762.4900000021}},{"attributes":{"ID":325177,"DIS_CODE":0,"TOWNNAME":"安南區","LI":"\u25A0南里","LIN":"4鄰","STREET":"環福街","SECT":" ","MAREA":" ","LANE":"３５巷","ALLEY":" ","HOUSE_NO":"１６號","E_COORD97":170218.76000000001,"N_COORD97":2552496.9700000002,"ADDRESS":"環福街３５巷１６號","OBJECTID":325168},"geometry":{"x":170218.76000000071,"y":2552496.9700000007}},{"attributes":{"ID":325178,"DIS_CODE":0,"TOWNNAME":"中西區","LI":"青年里","LIN":"15鄰","STREET":"青年路","SECT":" ","MAREA":" ","LANE":"４７巷","ALLEY":" ","HOUSE_NO":"６號五樓之４","E_COORD97":168675.38,"N_COORD97":2543677.2400000002,"ADDRESS":"青年路４７巷６號五樓之４","OBJECTID":325169},"geometry":{"x":168675.38000000082,"y":2543677.2400000039}},{"attributes":{"ID":325179,"DIS_CODE":0,"TOWNNAME":"中西區","LI":"青年里","LIN":"15鄰","STREET":"青年路","SECT":" ","MAREA":" ","LANE":"４７巷","ALLEY":" ","HOUSE_NO":"６號六樓之１","E_COORD97":168675.38,"N_COORD97":2543677.2400000002,"ADDRESS":"青年路４７巷６號六樓之１","OBJECTID":325170},"geometry":{"x":168675.38000000082,"y":2543677.2400000039}},{"attributes":{"ID":325180,"DIS_CODE":0,"TOWNNAME":"中西區","LI":"青年里","LIN":"15鄰","STREET":"青年路","SECT":" ","MAREA":" ","LANE":"４７巷","ALLEY":" ","HOUSE_NO":"６號六樓之２","E_COORD97":168675.38,"N_COORD97":2543677.2400000002,"ADDRESS":"青年路４７巷６號六樓之２","OBJECTID":325171},"geometry":{"x":168675.38000000082,"y":2543677.2400000039}},{"attributes":{"ID":325181,"DIS_CODE":0,"TOWNNAME":"新營區","LI":"王公里","LIN":"17鄰","STREET":"大智街","SECT":" ","MAREA":" ","LANE":" ","ALLEY":" ","HOUSE_NO":"３０號","E_COORD97":180244.79999999999,"N_COORD97":2579312.4399999999,"ADDRESS":"大智街３０號","OBJECTID":325172},"geometry":{"x":180244.79999999981,"y":2579312.4400000013}},{"attributes":{"ID":325182,"DIS_CODE":0,"TOWNNAME":"新營區","LI":"大宏里","LIN":"17鄰","STREET":"三民路","SECT":" ","MAREA":" ","LANE":" ","ALLEY":" ","HOUSE_NO":"４６之２４號","E_COORD97":180346.14999999999,"N_COORD97":2578536.8199999998,"ADDRESS":"三民路４６之２４號","OBJECTID":325173},"geometry":{"x":180346.15000000037,"y":2578536.8200000022}},{"attributes":{"ID":325183,"DIS_CODE":0,"TOWNNAME":"新營區","LI":"大宏里","LIN":"17鄰","STREET":"三民路","SECT":" ","MAREA":" ","LANE":" ","ALLEY":" ","HOUSE_NO":"４６之３０號","E_COORD97":180346.14999999999,"N_COORD97":2578536.8199999998,"ADDRESS":"三民路４６之３０號","OBJECTID":325174},"geometry":{"x":180346.15000000037,"y":2578536.8200000022}},{"attributes":{"ID":325184,"DIS_CODE":0,"TOWNNAME":"新營區","LI":"大宏里","LIN":"17鄰","STREET":"三民路","SECT":" ","MAREA":" ","LANE":" ","ALLEY":" ","HOUSE_NO":"４６之１０號","E_COORD97":180346.14999999999,"N_COORD97":2578536.8199999998,"ADDRESS":"三民路４６之１０號","OBJECTID":325175},"geometry":{"x":180346.15000000037,"y":2578536.8200000022}},{"attributes":{"ID":325185,"DIS_CODE":0,"TOWNNAME":"新營區","LI":"民榮里","LIN":"17鄰","STREET":"富強街","SECT":" ","MAREA":" ","LANE":" ","ALLEY":" ","HOUSE_NO":"５１號","E_COORD97":178924.37,"N_COORD97":2577835.8399999999,"ADDRESS":"富強街５１號","OBJECTID":325176},"geometry":{"x":178924.37000000011,"y":2577835.8399999999}},{"attributes":{"ID":325186,"DIS_CODE":0,"TOWNNAME":"新營區","LI":"王公里","LIN":"17鄰","STREET":"大智街","SECT":" ","MAREA":" ","LANE":" ","ALLEY":" ","HOUSE_NO":"１９號","E_COORD97":180216.13,"N_COORD97":2579323.6499999999,"ADDRESS":"大智街１９號","OBJECTID":325177},"geometry":{"x":180216.13000000082,"y":2579323.6500000004}},{"attributes":{"ID":325187,"DIS_CODE":0,"TOWNNAME":"新營區","LI":"大宏里","LIN":"17鄰","STREET":"三民路","SECT":" ","MAREA":" ","LANE":" ","ALLEY":" ","HOUSE_NO":"４６之３６號","E_COORD97":180346.14999999999,"N_COORD97":2578536.8199999998,"ADDRESS":"三民路４６之３６號","OBJECTID":325178},"geometry":{"x":180346.15000000037,"y":2578536.8200000022}},{"attributes":{"ID":325188,"DIS_CODE":0,"TOWNNAME":"新營區","LI":"民權里","LIN":"17鄰","STREET":"文化街","SECT":" ","MAREA":" ","LANE":" ","ALLEY":" ","HOUSE_NO":"１１號之４","E_COORD97":179821.39000000001,"N_COORD97":2578017.6800000002,"ADDRESS":"文化街１１號之４","OBJECTID":325179},"geometry":{"x":179821.3900000006,"y":2578017.6799999997}},{"attributes":{"ID":325189,"DIS_CODE":0,"TOWNNAME":"新營區","LI":"民權里","LIN":"17鄰","STREET":"文化街","SECT":" ","MAREA":" ","LANE":" ","ALLEY":" ","HOUSE_NO":"１７號","E_COORD97":179814.20000000001,"N_COORD97":2578035.3700000001,"ADDRESS":"文化街１７號","OBJECTID":325180},"geometry":{"x":179814.20000000112,"y":2578035.3700000048}},{"attributes":{"ID":325190,"DIS_CODE":0,"TOWNNAME":"新營區","LI":"民榮里","LIN":"17鄰","STREET":"新進路","SECT":"二段","MAREA":" ","LANE":" ","ALLEY":" ","HOUSE_NO":"２７０號","E_COORD97":178944.73000000001,"N_COORD97":2577758.23,"ADDRESS":"新進路二段２７０號","OBJECTID":325181},"geometry":{"x":178944.73000000138,"y":2577758.2300000023}},{"attributes":{"ID":325191,"DIS_CODE":0,"TOWNNAME":"新營區","LI":"民榮里","LIN":"17鄰","STREET":"富強街","SECT":" ","MAREA":" ","LANE":" ","ALLEY":" ","HOUSE_NO":"４３號","E_COORD97":178936.64000000001,"N_COORD97":2577823.6099999999,"ADDRESS":"富強街４３號","OBJECTID":325182},"geometry":{"x":178936.63999999966,"y":2577823.6099999994}},{"attributes":{"ID":325192,"DIS_CODE":0,"TOWNNAME":"中西區","LI":"民生里","LIN":"19鄰","STREET":"保安路","SECT":" ","MAREA":" ","LANE":" ","ALLEY":" ","HOUSE_NO":"２０９號","E_COORD97":167093.862418,"N_COORD97":2543506.7463099998,"ADDRESS":"保安路２０９號","OBJECTID":325183},"geometry":{"x":167093.86241800059,"y":2543506.7463130001}},{"attributes":{"ID":325193,"DIS_CODE":0,"TOWNNAME":"安南區","LI":"學東里","LIN":"8鄰","STREET":"公學路","SECT":"六段","MAREA":" ","LANE":"４７８巷","ALLEY":" ","HOUSE_NO":"１７號","E_COORD97":162670.97,"N_COORD97":2553281.77,"ADDRESS":"公學路六段４７８巷１７號","OBJECTID":325184},"geometry":{"x":162670.96999999974,"y":2553281.7700000014}},{"attributes":{"ID":325194,"DIS_CODE":0,"TOWNNAME":"安南區","LI":"淵中里","LIN":"14鄰","STREET":"安中路","SECT":"四段","MAREA":" ","LANE":"１５４巷","ALLEY":" ","HOUSE_NO":"５２號","E_COORD97":165048.09,"N_COORD97":2550132.5600000001,"ADDRESS":"安中路四段１５４巷５２號","OBJECTID":325185},"geometry":{"x":165048.09000000078,"y":2550132.5600000005}},{"attributes":{"ID":325195,"DIS_CODE":0,"TOWNNAME":"安南區","LI":"\u25A0南里","LIN":"27鄰","STREET":"環福街","SECT":" ","MAREA":" ","LANE":"２３８巷","ALLEY":" ","HOUSE_NO":"１１號","E_COORD97":170234.06,"N_COORD97":2552709.9500000002,"ADDRESS":"環福街２３８巷１１號","OBJECTID":325186},"geometry":{"x":170234.05999999959,"y":2552709.950000003}},{"attributes":{"ID":325196,"DIS_CODE":0,"TOWNNAME":"安南區","LI":"\u25A0南里","LIN":"27鄰","STREET":"環福街","SECT":" ","MAREA":" ","LANE":"２３８巷","ALLEY":" ","HOUSE_NO":"１６號","E_COORD97":170248.73999999999,"N_COORD97":2552706.2799999998,"ADDRESS":"環福街２３８巷１６號","OBJECTID":325187},"geometry":{"x":170248.74000000022,"y":2552706.2799999993}},{"attributes":{"ID":325197,"DIS_CODE":0,"TOWNNAME":"安南區","LI":"\u25A0南里","LIN":"27鄰","STREET":"環福街","SECT":" ","MAREA":" ","LANE":"２３８巷","ALLEY":" ","HOUSE_NO":"２２號","E_COORD97":170252.10000000001,"N_COORD97":2552720.6299999999,"ADDRESS":"環福街２３８巷２２號","OBJECTID":325188},"geometry":{"x":170252.10000000056,"y":2552720.629999999}},{"attributes":{"ID":325198,"DIS_CODE":0,"TOWNNAME":"山上區","LI":"明和里","LIN":"14鄰","STREET":" ","SECT":" ","MAREA":"明和","LANE":" ","ALLEY":" ","HOUSE_NO":"２０３號之１","E_COORD97":183475.151048,"N_COORD97":2556189.9118900001,"ADDRESS":"明和２０３號之１","OBJECTID":325189},"geometry":{"x":183475.15104799997,"y":2556189.911890002}},{"attributes":{"ID":325199,"DIS_CODE":0,"TOWNNAME":"安南區","LI":"州南里","LIN":"24鄰","STREET":"長和路","SECT":"三段","MAREA":" ","LANE":"１３３巷","ALLEY":" ","HOUSE_NO":"１０１號","E_COORD97":169770.78,"N_COORD97":2551361.73,"ADDRESS":"長和路三段１３３巷１０１號","OBJECTID":325190},"geometry":{"x":169770.78000000026,"y":2551361.7300000004}},{"attributes":{"ID":325200,"DIS_CODE":0,"TOWNNAME":"中西區","LI":"青年里","LIN":"15鄰","STREET":"青年路","SECT":" ","MAREA":" ","LANE":"４７巷","ALLEY":" ","HOUSE_NO":"６號六樓之３","E_COORD97":168675.38,"N_COORD97":2543677.2400000002,"ADDRESS":"青年路４７巷６號六樓之３","OBJECTID":325191},"geometry":{"x":168675.38000000082,"y":2543677.2400000039}},{"attributes":{"ID":325201,"DIS_CODE":0,"TOWNNAME":"中西區","LI":"青年里","LIN":"15鄰","STREET":"青年路","SECT":" ","MAREA":" ","LANE":"４７巷","ALLEY":" ","HOUSE_NO":"６號六樓之４","E_COORD97":168675.38,"N_COORD97":2543677.2400000002,"ADDRESS":"青年路４７巷６號六樓之４","OBJECTID":325192},"geometry":{"x":168675.38000000082,"y":2543677.2400000039}},{"attributes":{"ID":325202,"DIS_CODE":0,"TOWNNAME":"中西區","LI":"青年里","LIN":"15鄰","STREET":"青年路","SECT":" ","MAREA":" ","LANE":"４７巷","ALLEY":" ","HOUSE_NO":"６號四樓之１","E_COORD97":168675.38,"N_COORD97":2543677.2400000002,"ADDRESS":"青年路４７巷６號四樓之１","OBJECTID":325193},"geometry":{"x":168675.38000000082,"y":2543677.2400000039}},{"attributes":{"ID":325203,"DIS_CODE":0,"TOWNNAME":"中西區","LI":"青年里","LIN":"15鄰","STREET":"青年路","SECT":" ","MAREA":" ","LANE":"４７巷","ALLEY":" ","HOUSE_NO":"６號四樓之２","E_COORD97":168675.38,"N_COORD97":2543677.2400000002,"ADDRESS":"青年路４７巷６號四樓之２","OBJECTID":325194},"geometry":{"x":168675.38000000082,"y":2543677.2400000039}},{"attributes":{"ID":325204,"DIS_CODE":0,"TOWNNAME":"中西區","LI":"青年里","LIN":"15鄰","STREET":"青年路","SECT":" ","MAREA":" ","LANE":"４７巷","ALLEY":" ","HOUSE_NO":"６號四樓之３","E_COORD97":168675.38,"N_COORD97":2543677.2400000002,"ADDRESS":"青年路４７巷６號四樓之３","OBJECTID":325195},"geometry":{"x":168675.38000000082,"y":2543677.2400000039}},{"attributes":{"ID":325205,"DIS_CODE":0,"TOWNNAME":"仁德區","LI":"仁德里","LIN":"22鄰","STREET":"文南街","SECT":" ","MAREA":" ","LANE":" ","ALLEY":" ","HOUSE_NO":"５６號","E_COORD97":172296.296038,"N_COORD97":2541210.0790499998,"ADDRESS":"文南街５６號","OBJECTID":325196},"geometry":{"x":172296.29603800178,"y":2541210.0790509991}},{"attributes":{"ID":325206,"DIS_CODE":0,"TOWNNAME":"新營區","LI":"大宏里","LIN":"17鄰","STREET":"三民路","SECT":" ","MAREA":" ","LANE":" ","ALLEY":" ","HOUSE_NO":"４６之１７號","E_COORD97":180346.14999999999,"N_COORD97":2578536.8199999998,"ADDRESS":"三民路４６之１７號","OBJECTID":325197},"geometry":{"x":180346.15000000037,"y":2578536.8200000022}},{"attributes":{"ID":325207,"DIS_CODE":0,"TOWNNAME":"新營區","LI":"大宏里","LIN":"17鄰","STREET":"三民路","SECT":" ","MAREA":" ","LANE":" ","ALLEY":" ","HOUSE_NO":"４６之７號","E_COORD97":180344.89999999999,"N_COORD97":2578536.8199999998,"ADDRESS":"三民路４６之７號","OBJECTID":325198},"geometry":{"x":180344.90000000037,"y":2578536.8200000022}},{"attributes":{"ID":325208,"DIS_CODE":0,"TOWNNAME":"新營區","LI":"民權里","LIN":"17鄰","STREET":"文化街","SECT":" ","MAREA":" ","LANE":" ","ALLEY":" ","HOUSE_NO":"１１號之３","E_COORD97":179823.48999999999,"N_COORD97":2578014.3500000001,"ADDRESS":"文化街１１號之３","OBJECTID":325199},"geometry":{"x":179823.49000000022,"y":2578014.3500000015}},{"attributes":{"ID":325209,"DIS_CODE":0,"TOWNNAME":"新營區","LI":"民權里","LIN":"17鄰","STREET":"文化街","SECT":" ","MAREA":" ","LANE":" ","ALLEY":" ","HOUSE_NO":"１３號","E_COORD97":179818.23000000001,"N_COORD97":2578022.0699999998,"ADDRESS":"文化街１３號","OBJECTID":325200},"geometry":{"x":179818.23000000138,"y":2578022.0700000003}}]}