{"displayFieldName":"TOWNNAME","fieldAliases":{"ID":"ID","DIS_CODE":"DIS_CODE","TOWNNAME":"TOWNNAME","LI":"LI","LIN":"LIN","STREET":"STREET","SECT":"SECT","MAREA":"MAREA","LANE":"LANE","ALLEY":"ALLEY","HOUSE_NO":"HOUSE_NO","E_COORD97":"E_COORD97","N_COORD97":"N_COORD97","ADDRESS":"ADDRESS","OBJECTID":"OBJECTID"},"geometryType":"esriGeometryPoint","spatialReference":{"wkid":102443,"latestWkid":3826},"fields":[{"name":"ID","type":"esriFieldTypeDouble","alias":"ID"},{"name":"DIS_CODE","type":"esriFieldTypeInteger","alias":"DIS_CODE"},{"name":"TOWNNAME","type":"esriFieldTypeString","alias":"TOWNNAME","length":8},{"name":"LI","type":"esriFieldTypeString","alias":"LI","length":8},{"name":"LIN","type":"esriFieldTypeString","alias":"LIN","length":12},{"name":"STREET","type":"esriFieldTypeString","alias":"STREET","length":20},{"name":"SECT","type":"esriFieldTypeString","alias":"SECT","length":8},{"name":"MAREA","type":"esriFieldTypeString","alias":"MAREA","length":12},{"name":"LANE","type":"esriFieldTypeString","alias":"LANE","length":10},{"name":"ALLEY","type":"esriFieldTypeString","alias":"ALLEY","length":10},{"name":"HOUSE_NO","type":"esriFieldTypeString","alias":"HOUSE_NO","length":20},{"name":"E_COORD97","type":"esriFieldTypeDouble","alias":"E_COORD97"},{"name":"N_COORD97","type":"esriFieldTypeDouble","alias":"N_COORD97"},{"name":"ADDRESS","type":"esriFieldTypeString","alias":"ADDRESS","length":50},{"name":"OBJECTID","type":"esriFieldTypeOID","alias":"OBJECTID"}],"features":[{"attributes":{"ID":279407,"DIS_CODE":0,"TOWNNAME":"永康區","LI":"埔園里","LIN":"31鄰","STREET":"八德街","SECT":" ","MAREA":" ","LANE":"３２６巷","ALLEY":" ","HOUSE_NO":"７６號","E_COORD97":173662.48999999999,"N_COORD97":2548776.21,"ADDRESS":"八德街３２６巷７６號","OBJECTID":279401},"geometry":{"x":173662.49000000115,"y":2548776.2100000009}},{"attributes":{"ID":279408,"DIS_CODE":0,"TOWNNAME":"永康區","LI":"東灣里","LIN":"31鄰","STREET":"大灣二街","SECT":" ","MAREA":" ","LANE":"２１巷","ALLEY":" ","HOUSE_NO":"２號","E_COORD97":174926.97,"N_COORD97":2544689,"ADDRESS":"大灣二街２１巷２號","OBJECTID":279402},"geometry":{"x":174926.97000000067,"y":2544689.0000000037}},{"attributes":{"ID":279409,"DIS_CODE":0,"TOWNNAME":"永康區","LI":"東灣里","LIN":"31鄰","STREET":"大灣二街","SECT":" ","MAREA":" ","LANE":"２１巷","ALLEY":" ","HOUSE_NO":"２８號","E_COORD97":174903.98000000001,"N_COORD97":2544641.98,"ADDRESS":"大灣二街２１巷２８號","OBJECTID":279403},"geometry":{"x":174903.98000000045,"y":2544641.9800000042}},{"attributes":{"ID":279410,"DIS_CODE":0,"TOWNNAME":"將軍區","LI":"忠興里","LIN":"2鄰","STREET":" ","SECT":" ","MAREA":"忠興","LANE":" ","ALLEY":" ","HOUSE_NO":"３０之１號","E_COORD97":163827.57000000001,"N_COORD97":2566703.3199999998,"ADDRESS":"忠興３０之１號","OBJECTID":279404},"geometry":{"x":163827.56999999937,"y":2566703.3200000003}},{"attributes":{"ID":279411,"DIS_CODE":0,"TOWNNAME":"永康區","LI":"南灣里","LIN":"31鄰","STREET":"大灣一街","SECT":" ","MAREA":" ","LANE":"４５巷","ALLEY":" ","HOUSE_NO":"４８號","E_COORD97":174375.67000000001,"N_COORD97":2544848.9900000002,"ADDRESS":"大灣一街４５巷４８號","OBJECTID":279405},"geometry":{"x":174375.66999999899,"y":2544848.9900000021}},{"attributes":{"ID":279412,"DIS_CODE":0,"TOWNNAME":"永康區","LI":"東灣里","LIN":"31鄰","STREET":"大灣二街","SECT":" ","MAREA":" ","LANE":"２１巷","ALLEY":" ","HOUSE_NO":"３６號","E_COORD97":174903.45999999999,"N_COORD97":2544629.7400000002,"ADDRESS":"大灣二街２１巷３６號","OBJECTID":279406},"geometry":{"x":174903.46000000089,"y":2544629.7400000039}},{"attributes":{"ID":279413,"DIS_CODE":0,"TOWNNAME":"將軍區","LI":"忠興里","LIN":"2鄰","STREET":" ","SECT":" ","MAREA":"忠興","LANE":" ","ALLEY":" ","HOUSE_NO":"３２之９號","E_COORD97":163786.20999999999,"N_COORD97":2566773.4700000002,"ADDRESS":"忠興３２之９號","OBJECTID":279407},"geometry":{"x":163786.21000000089,"y":2566773.4700000007}},{"attributes":{"ID":279414,"DIS_CODE":0,"TOWNNAME":"將軍區","LI":"忠興里","LIN":"2鄰","STREET":" ","SECT":" ","MAREA":"忠興","LANE":" ","ALLEY":" ","HOUSE_NO":"３２號","E_COORD97":163793.72,"N_COORD97":2566742.4100000001,"ADDRESS":"忠興３２號","OBJECTID":279408},"geometry":{"x":163793.71999999974,"y":2566742.4100000001}},{"attributes":{"ID":279415,"DIS_CODE":0,"TOWNNAME":"將軍區","LI":"忠興里","LIN":"2鄰","STREET":" ","SECT":" ","MAREA":"忠興","LANE":" ","ALLEY":" ","HOUSE_NO":"３３之１號","E_COORD97":163749.32999999999,"N_COORD97":2566739.9199999999,"ADDRESS":"忠興３３之１號","OBJECTID":279409},"geometry":{"x":163749.32999999914,"y":2566739.9199999999}},{"attributes":{"ID":279416,"DIS_CODE":0,"TOWNNAME":"將軍區","LI":"忠興里","LIN":"2鄰","STREET":" ","SECT":" ","MAREA":"忠興","LANE":" ","ALLEY":" ","HOUSE_NO":"３３號","E_COORD97":163761.35999999999,"N_COORD97":2566770.7599999998,"ADDRESS":"忠興３３號","OBJECTID":279410},"geometry":{"x":163761.3600000022,"y":2566770.7599999998}},{"attributes":{"ID":279417,"DIS_CODE":0,"TOWNNAME":"將軍區","LI":"忠興里","LIN":"2鄰","STREET":" ","SECT":" ","MAREA":"忠興","LANE":" ","ALLEY":" ","HOUSE_NO":"３４號","E_COORD97":163730.87,"N_COORD97":2566767.5600000001,"ADDRESS":"忠興３４號","OBJECTID":279411},"geometry":{"x":163730.87000000104,"y":2566767.5600000024}},{"attributes":{"ID":279418,"DIS_CODE":0,"TOWNNAME":"將軍區","LI":"忠興里","LIN":"2鄰","STREET":" ","SECT":" ","MAREA":"忠興","LANE":" ","ALLEY":" ","HOUSE_NO":"３５之１號","E_COORD97":163727.20999999999,"N_COORD97":2566737.0099999998,"ADDRESS":"忠興３５之１號","OBJECTID":279412},"geometry":{"x":163727.21000000089,"y":2566737.0100000016}},{"attributes":{"ID":279419,"DIS_CODE":0,"TOWNNAME":"將軍區","LI":"忠興里","LIN":"2鄰","STREET":" ","SECT":" ","MAREA":"忠興","LANE":" ","ALLEY":" ","HOUSE_NO":"３６之１０號","E_COORD97":163641.56,"N_COORD97":2566749.6499999999,"ADDRESS":"忠興３６之１０號","OBJECTID":279413},"geometry":{"x":163641.55999999959,"y":2566749.6500000022}},{"attributes":{"ID":279420,"DIS_CODE":0,"TOWNNAME":"將軍區","LI":"忠興里","LIN":"2鄰","STREET":" ","SECT":" ","MAREA":"忠興","LANE":" ","ALLEY":" ","HOUSE_NO":"３６之１號","E_COORD97":163672.60000000001,"N_COORD97":2566729.7799999998,"ADDRESS":"忠興３６之１號","OBJECTID":279414},"geometry":{"x":163672.60000000149,"y":2566729.7799999993}},{"attributes":{"ID":279421,"DIS_CODE":0,"TOWNNAME":"將軍區","LI":"忠興里","LIN":"2鄰","STREET":" ","SECT":" ","MAREA":"忠興","LANE":" ","ALLEY":" ","HOUSE_NO":"３６之８號","E_COORD97":163648.45000000001,"N_COORD97":2566741.04,"ADDRESS":"忠興３６之８號","OBJECTID":279415},"geometry":{"x":163648.45000000019,"y":2566741.0399999991}},{"attributes":{"ID":279422,"DIS_CODE":0,"TOWNNAME":"將軍區","LI":"忠興里","LIN":"2鄰","STREET":" ","SECT":" ","MAREA":"忠興","LANE":" ","ALLEY":" ","HOUSE_NO":"３６之９號","E_COORD97":163644.81,"N_COORD97":2566745.3500000001,"ADDRESS":"忠興３６之９號","OBJECTID":279416},"geometry":{"x":163644.80999999959,"y":2566745.3500000015}},{"attributes":{"ID":279423,"DIS_CODE":0,"TOWNNAME":"將軍區","LI":"忠興里","LIN":"2鄰","STREET":" ","SECT":" ","MAREA":"忠興","LANE":" ","ALLEY":" ","HOUSE_NO":"３６號","E_COORD97":163698.47,"N_COORD97":2566721.46,"ADDRESS":"忠興３６號","OBJECTID":279417},"geometry":{"x":163698.46999999974,"y":2566721.4600000028}},{"attributes":{"ID":279424,"DIS_CODE":0,"TOWNNAME":"將軍區","LI":"忠興里","LIN":"2鄰","STREET":" ","SECT":" ","MAREA":"忠興","LANE":" ","ALLEY":" ","HOUSE_NO":"３７之１號","E_COORD97":163686.32000000001,"N_COORD97":2566755.8399999999,"ADDRESS":"忠興３７之１號","OBJECTID":279418},"geometry":{"x":163686.3200000003,"y":2566755.8400000017}},{"attributes":{"ID":279425,"DIS_CODE":0,"TOWNNAME":"將軍區","LI":"忠興里","LIN":"2鄰","STREET":" ","SECT":" ","MAREA":"忠興","LANE":" ","ALLEY":" ","HOUSE_NO":"３７之２號","E_COORD97":163683.91,"N_COORD97":2566766.0699999998,"ADDRESS":"忠興３７之２號","OBJECTID":279419},"geometry":{"x":163683.91000000015,"y":2566766.0700000003}},{"attributes":{"ID":279426,"DIS_CODE":0,"TOWNNAME":"將軍區","LI":"忠興里","LIN":"2鄰","STREET":" ","SECT":" ","MAREA":"忠興","LANE":" ","ALLEY":" ","HOUSE_NO":"３７之３號","E_COORD97":163682.98000000001,"N_COORD97":2566771.1200000001,"ADDRESS":"忠興３７之３號","OBJECTID":279420},"geometry":{"x":163682.98000000138,"y":2566771.1200000029}},{"attributes":{"ID":279427,"DIS_CODE":0,"TOWNNAME":"將軍區","LI":"忠興里","LIN":"2鄰","STREET":" ","SECT":" ","MAREA":"忠興","LANE":" ","ALLEY":" ","HOUSE_NO":"３７號","E_COORD97":163685.35000000001,"N_COORD97":2566760.8399999999,"ADDRESS":"忠興３７號","OBJECTID":279421},"geometry":{"x":163685.34999999963,"y":2566760.839999998}},{"attributes":{"ID":279428,"DIS_CODE":0,"TOWNNAME":"永康區","LI":"南灣里","LIN":"31鄰","STREET":"大灣一街","SECT":" ","MAREA":" ","LANE":"４５巷","ALLEY":" ","HOUSE_NO":"４６號","E_COORD97":174373.82000000001,"N_COORD97":2544843.4900000002,"ADDRESS":"大灣一街４５巷４６號","OBJECTID":279422},"geometry":{"x":174373.82000000123,"y":2544843.4900000002}},{"attributes":{"ID":279429,"DIS_CODE":0,"TOWNNAME":"新營區","LI":"王公里","LIN":"15鄰","STREET":"大勇街","SECT":" ","MAREA":" ","LANE":" ","ALLEY":" ","HOUSE_NO":"４０號","E_COORD97":180276.61304600001,"N_COORD97":2579428.9818799999,"ADDRESS":"大勇街４０號","OBJECTID":279423},"geometry":{"x":180276.61304599978,"y":2579428.9818769991}},{"attributes":{"ID":279430,"DIS_CODE":0,"TOWNNAME":"永康區","LI":"埔園里","LIN":"31鄰","STREET":"八德街","SECT":" ","MAREA":" ","LANE":"３２６巷","ALLEY":" ","HOUSE_NO":"７２號","E_COORD97":173660.51999999999,"N_COORD97":2548769.7200000002,"ADDRESS":"八德街３２６巷７２號","OBJECTID":279424},"geometry":{"x":173660.51999999955,"y":2548769.7200000007}},{"attributes":{"ID":279431,"DIS_CODE":0,"TOWNNAME":"白河區","LI":"廣安里","LIN":"2鄰","STREET":" ","SECT":" ","MAREA":"埤斗子","LANE":" ","ALLEY":" ","HOUSE_NO":"１６號","E_COORD97":189498.01999999999,"N_COORD97":2587373.29,"ADDRESS":"埤斗子１６號","OBJECTID":279425},"geometry":{"x":189498.02000000048,"y":2587373.2899999991}},{"attributes":{"ID":279432,"DIS_CODE":0,"TOWNNAME":"永康區","LI":"南灣里","LIN":"31鄰","STREET":"大灣一街","SECT":" ","MAREA":" ","LANE":"４５巷","ALLEY":" ","HOUSE_NO":"３０號","E_COORD97":174369.01000000001,"N_COORD97":2544812.4900000002,"ADDRESS":"大灣一街４５巷３０號","OBJECTID":279426},"geometry":{"x":174369.01000000071,"y":2544812.4900000021}},{"attributes":{"ID":279433,"DIS_CODE":0,"TOWNNAME":"永康區","LI":"永康里","LIN":"31鄰","STREET":"聖龍街","SECT":" ","MAREA":" ","LANE":"１８６巷","ALLEY":" ","HOUSE_NO":"６號","E_COORD97":174218.12,"N_COORD97":2547825.4399999999,"ADDRESS":"聖龍街１８６巷６號","OBJECTID":279427},"geometry":{"x":174218.12000000011,"y":2547825.4400000013}},{"attributes":{"ID":279434,"DIS_CODE":0,"TOWNNAME":"永康區","LI":"永康里","LIN":"31鄰","STREET":"聖龍街","SECT":" ","MAREA":" ","LANE":"１８６巷","ALLEY":" ","HOUSE_NO":"２６號","E_COORD97":174225.25,"N_COORD97":2547792.2000000002,"ADDRESS":"聖龍街１８６巷２６號","OBJECTID":279428},"geometry":{"x":174225.25000000093,"y":2547792.200000003}},{"attributes":{"ID":279435,"DIS_CODE":0,"TOWNNAME":"永康區","LI":"西勢里","LIN":"31鄰","STREET":"西勢路","SECT":" ","MAREA":" ","LANE":"６２１巷","ALLEY":" ","HOUSE_NO":"３０號","E_COORD97":174762.20999999999,"N_COORD97":2546662.7799999998,"ADDRESS":"西勢路６２１巷３０號","OBJECTID":279429},"geometry":{"x":174762.21000000089,"y":2546662.7800000031}},{"attributes":{"ID":279436,"DIS_CODE":0,"TOWNNAME":"永康區","LI":"西勢里","LIN":"31鄰","STREET":"西勢路","SECT":" ","MAREA":" ","LANE":"６２１巷","ALLEY":" ","HOUSE_NO":"６８號","E_COORD97":174872.06,"N_COORD97":2546649.1699999999,"ADDRESS":"西勢路６２１巷６８號","OBJECTID":279430},"geometry":{"x":174872.05999999959,"y":2546649.1699999999}},{"attributes":{"ID":279437,"DIS_CODE":0,"TOWNNAME":"東區","LI":"大智里","LIN":"31鄰","STREET":"崇善十六街","SECT":" ","MAREA":" ","LANE":"１１１巷","ALLEY":" ","HOUSE_NO":"２號","E_COORD97":171323.29000000001,"N_COORD97":2540379.25,"ADDRESS":"崇善十六街１１１巷２號","OBJECTID":279431},"geometry":{"x":171323.29000000004,"y":2540379.2500000019}},{"attributes":{"ID":279438,"DIS_CODE":0,"TOWNNAME":"將軍區","LI":"長沙里","LIN":"2鄰","STREET":" ","SECT":" ","MAREA":"長沙","LANE":" ","ALLEY":" ","HOUSE_NO":"１０之１０號","E_COORD97":157421.14999999999,"N_COORD97":2568682.6299999999,"ADDRESS":"長沙１０之１０號","OBJECTID":279432},"geometry":{"x":157421.15000000224,"y":2568682.629999999}},{"attributes":{"ID":279439,"DIS_CODE":0,"TOWNNAME":"將軍區","LI":"長沙里","LIN":"2鄰","STREET":" ","SECT":" ","MAREA":"長沙","LANE":" ","ALLEY":" ","HOUSE_NO":"１０之１１號","E_COORD97":157426.45000000001,"N_COORD97":2568682.73,"ADDRESS":"長沙１０之１１號","OBJECTID":279433},"geometry":{"x":157426.45000000112,"y":2568682.7300000023}},{"attributes":{"ID":279440,"DIS_CODE":0,"TOWNNAME":"永康區","LI":"永康里","LIN":"31鄰","STREET":"聖龍街","SECT":" ","MAREA":" ","LANE":"１８６巷","ALLEY":" ","HOUSE_NO":"７２號","E_COORD97":174227.89999999999,"N_COORD97":2547686.0600000001,"ADDRESS":"聖龍街１８６巷７２號","OBJECTID":279434},"geometry":{"x":174227.9000000013,"y":2547686.0600000042}},{"attributes":{"ID":279441,"DIS_CODE":0,"TOWNNAME":"永康區","LI":"永康里","LIN":"31鄰","STREET":"聖龍街","SECT":" ","MAREA":" ","LANE":"１８６巷","ALLEY":" ","HOUSE_NO":"３８號","E_COORD97":174228.42000000001,"N_COORD97":2547771.4500000002,"ADDRESS":"聖龍街１８６巷３８號","OBJECTID":279435},"geometry":{"x":174228.42000000179,"y":2547771.4500000011}},{"attributes":{"ID":279442,"DIS_CODE":0,"TOWNNAME":"永康區","LI":"永康里","LIN":"31鄰","STREET":"聖龍街","SECT":" ","MAREA":" ","LANE":"１８６巷","ALLEY":" ","HOUSE_NO":"１８號","E_COORD97":174222.79999999999,"N_COORD97":2547803.2400000002,"ADDRESS":"聖龍街１８６巷１８號","OBJECTID":279436},"geometry":{"x":174222.80000000075,"y":2547803.2400000039}},{"attributes":{"ID":279443,"DIS_CODE":0,"TOWNNAME":"永康區","LI":"永康里","LIN":"31鄰","STREET":"聖龍街","SECT":" ","MAREA":" ","LANE":"１８６巷","ALLEY":" ","HOUSE_NO":"５８號","E_COORD97":174231.84,"N_COORD97":2547716.2999999998,"ADDRESS":"聖龍街１８６巷５８號","OBJECTID":279437},"geometry":{"x":174231.83999999985,"y":2547716.3000000026}},{"attributes":{"ID":279444,"DIS_CODE":0,"TOWNNAME":"永康區","LI":"永康里","LIN":"31鄰","STREET":"聖龍街","SECT":" ","MAREA":" ","LANE":"１８６巷","ALLEY":" ","HOUSE_NO":"３６號","E_COORD97":174227.94,"N_COORD97":2547775.7000000002,"ADDRESS":"聖龍街１８６巷３６號","OBJECTID":279438},"geometry":{"x":174227.94000000041,"y":2547775.7000000011}},{"attributes":{"ID":279445,"DIS_CODE":0,"TOWNNAME":"永康區","LI":"永康里","LIN":"31鄰","STREET":"聖龍街","SECT":" ","MAREA":" ","LANE":"１８６巷","ALLEY":" ","HOUSE_NO":"２２號","E_COORD97":174224.45000000001,"N_COORD97":2547796.4500000002,"ADDRESS":"聖龍街１８６巷２２號","OBJECTID":279439},"geometry":{"x":174224.45000000019,"y":2547796.4499999993}},{"attributes":{"ID":279446,"DIS_CODE":0,"TOWNNAME":"永康區","LI":"永康里","LIN":"31鄰","STREET":"聖龍街","SECT":" ","MAREA":" ","LANE":"１８６巷","ALLEY":" ","HOUSE_NO":"６８號","E_COORD97":174230.91,"N_COORD97":2547696.3100000001,"ADDRESS":"聖龍街１８６巷６８號","OBJECTID":279440},"geometry":{"x":174230.91000000108,"y":2547696.3100000005}},{"attributes":{"ID":279447,"DIS_CODE":0,"TOWNNAME":"永康區","LI":"永康里","LIN":"31鄰","STREET":"聖龍街","SECT":" ","MAREA":" ","LANE":"１８６巷","ALLEY":" ","HOUSE_NO":"２號","E_COORD97":174217.32000000001,"N_COORD97":2547829.4399999999,"ADDRESS":"聖龍街１８６巷２號","OBJECTID":279441},"geometry":{"x":174217.3200000003,"y":2547829.4400000013}},{"attributes":{"ID":279448,"DIS_CODE":0,"TOWNNAME":"永康區","LI":"二王里","LIN":"31鄰","STREET":"中山南路","SECT":" ","MAREA":" ","LANE":"４９０巷","ALLEY":" ","HOUSE_NO":"１之１號","E_COORD97":172091.81,"N_COORD97":2546448.1200000001,"ADDRESS":"中山南路４９０巷１之１號","OBJECTID":279442},"geometry":{"x":172091.81000000052,"y":2546448.120000001}},{"attributes":{"ID":279449,"DIS_CODE":0,"TOWNNAME":"永康區","LI":"龍潭里","LIN":"31鄰","STREET":"中山北路","SECT":" ","MAREA":" ","LANE":"３２１巷","ALLEY":" ","HOUSE_NO":"３號","E_COORD97":174662.81,"N_COORD97":2547703.1899999999,"ADDRESS":"中山北路３２１巷３號","OBJECTID":279443},"geometry":{"x":174662.81000000052,"y":2547703.1899999995}},{"attributes":{"ID":279450,"DIS_CODE":0,"TOWNNAME":"將軍區","LI":"長沙里","LIN":"2鄰","STREET":" ","SECT":" ","MAREA":"長沙","LANE":" ","ALLEY":" ","HOUSE_NO":"１０之１２號","E_COORD97":157426.88,"N_COORD97":2568707.8599999999,"ADDRESS":"長沙１０之１２號","OBJECTID":279444},"geometry":{"x":157426.87999999989,"y":2568707.8600000013}},{"attributes":{"ID":279451,"DIS_CODE":0,"TOWNNAME":"將軍區","LI":"長沙里","LIN":"2鄰","STREET":" ","SECT":" ","MAREA":"長沙","LANE":" ","ALLEY":" ","HOUSE_NO":"１０之１３號","E_COORD97":157422.42999999999,"N_COORD97":2568707.6499999999,"ADDRESS":"長沙１０之１３號","OBJECTID":279445},"geometry":{"x":157422.43000000063,"y":2568707.6500000004}},{"attributes":{"ID":279452,"DIS_CODE":0,"TOWNNAME":"將軍區","LI":"長沙里","LIN":"2鄰","STREET":" ","SECT":" ","MAREA":"長沙","LANE":" ","ALLEY":" ","HOUSE_NO":"１０之１４號","E_COORD97":157418.70999999999,"N_COORD97":2568707.7799999998,"ADDRESS":"長沙１０之１４號","OBJECTID":279446},"geometry":{"x":157418.71000000089,"y":2568707.7800000012}},{"attributes":{"ID":279453,"DIS_CODE":0,"TOWNNAME":"將軍區","LI":"長沙里","LIN":"2鄰","STREET":" ","SECT":" ","MAREA":"長沙","LANE":" ","ALLEY":" ","HOUSE_NO":"１０之１５號","E_COORD97":157414.67999999999,"N_COORD97":2568707.6200000001,"ADDRESS":"長沙１０之１５號","OBJECTID":279447},"geometry":{"x":157414.6799999997,"y":2568707.6200000029}},{"attributes":{"ID":279454,"DIS_CODE":0,"TOWNNAME":"東區","LI":"小東里","LIN":"4鄰","STREET":"光明街","SECT":" ","MAREA":" ","LANE":" ","ALLEY":" ","HOUSE_NO":"２６號","E_COORD97":170870.26999999999,"N_COORD97":2544397.0499999998,"ADDRESS":"光明街２６號","OBJECTID":279448},"geometry":{"x":170870.26999999955,"y":2544397.0500000007}},{"attributes":{"ID":279455,"DIS_CODE":0,"TOWNNAME":"東區","LI":"小東里","LIN":"4鄰","STREET":"光明街","SECT":" ","MAREA":" ","LANE":" ","ALLEY":" ","HOUSE_NO":"２４號","E_COORD97":170869.95999999999,"N_COORD97":2544401.2200000002,"ADDRESS":"光明街２４號","OBJECTID":279449},"geometry":{"x":170869.96000000183,"y":2544401.2200000025}},{"attributes":{"ID":279456,"DIS_CODE":0,"TOWNNAME":"永康區","LI":"西灣里","LIN":"31鄰","STREET":"公園路","SECT":" ","MAREA":" ","LANE":"１１７巷","ALLEY":" ","HOUSE_NO":"２１號","E_COORD97":174187.26000000001,"N_COORD97":2545889.9399999999,"ADDRESS":"公園路１１７巷２１號","OBJECTID":279450},"geometry":{"x":174187.26000000071,"y":2545889.9400000013}},{"attributes":{"ID":279457,"DIS_CODE":0,"TOWNNAME":"永康區","LI":"龍潭里","LIN":"31鄰","STREET":"中山北路","SECT":" ","MAREA":" ","LANE":"３２１巷","ALLEY":" ","HOUSE_NO":"１７號","E_COORD97":174672.26999999999,"N_COORD97":2547772.4500000002,"ADDRESS":"中山北路３２１巷１７號","OBJECTID":279451},"geometry":{"x":174672.26999999955,"y":2547772.4499999993}},{"attributes":{"ID":279458,"DIS_CODE":0,"TOWNNAME":"永康區","LI":"龍潭里","LIN":"31鄰","STREET":"龍中街","SECT":" ","MAREA":" ","LANE":"３０巷","ALLEY":" ","HOUSE_NO":"３０號","E_COORD97":174545.60000000001,"N_COORD97":2547771.1000000001,"ADDRESS":"龍中街３０巷３０號","OBJECTID":279452},"geometry":{"x":174545.60000000056,"y":2547771.1000000015}},{"attributes":{"ID":279459,"DIS_CODE":0,"TOWNNAME":"將軍區","LI":"長沙里","LIN":"2鄰","STREET":" ","SECT":" ","MAREA":"長沙","LANE":" ","ALLEY":" ","HOUSE_NO":"１１號","E_COORD97":157317.51999999999,"N_COORD97":2568700.04,"ADDRESS":"長沙１１號","OBJECTID":279453},"geometry":{"x":157317.51999999955,"y":2568700.0399999991}},{"attributes":{"ID":279460,"DIS_CODE":0,"TOWNNAME":"將軍區","LI":"長沙里","LIN":"2鄰","STREET":" ","SECT":" ","MAREA":"長沙","LANE":" ","ALLEY":" ","HOUSE_NO":"１２號","E_COORD97":157344.04999999999,"N_COORD97":2568706.3399999999,"ADDRESS":"長沙１２號","OBJECTID":279454},"geometry":{"x":157344.05000000075,"y":2568706.3399999999}},{"attributes":{"ID":279461,"DIS_CODE":0,"TOWNNAME":"白河區","LI":"汴頭里","LIN":"2鄰","STREET":" ","SECT":" ","MAREA":"林子內","LANE":" ","ALLEY":" ","HOUSE_NO":"１４之１號","E_COORD97":194999.32000000001,"N_COORD97":2584800.1499999999,"ADDRESS":"林子內１４之１號","OBJECTID":279455},"geometry":{"x":194999.32000000123,"y":2584800.1500000022}},{"attributes":{"ID":279462,"DIS_CODE":0,"TOWNNAME":"白河區","LI":"汴頭里","LIN":"2鄰","STREET":" ","SECT":" ","MAREA":"林子內","LANE":" ","ALLEY":" ","HOUSE_NO":"１４號","E_COORD97":194991.04000000001,"N_COORD97":2584832.2999999998,"ADDRESS":"林子內１４號","OBJECTID":279456},"geometry":{"x":194991.04000000097,"y":2584832.3000000007}},{"attributes":{"ID":279463,"DIS_CODE":0,"TOWNNAME":"白河區","LI":"汴頭里","LIN":"2鄰","STREET":" ","SECT":" ","MAREA":"林子內","LANE":" ","ALLEY":" ","HOUSE_NO":"１５號","E_COORD97":195018.20999999999,"N_COORD97":2584856.9100000001,"ADDRESS":"林子內１５號","OBJECTID":279457},"geometry":{"x":195018.21000000089,"y":2584856.910000002}},{"attributes":{"ID":279464,"DIS_CODE":0,"TOWNNAME":"白河區","LI":"汴頭里","LIN":"2鄰","STREET":" ","SECT":" ","MAREA":"林子內","LANE":" ","ALLEY":" ","HOUSE_NO":"１６號","E_COORD97":195042.53,"N_COORD97":2584878.0299999998,"ADDRESS":"林子內１６號","OBJECTID":279458},"geometry":{"x":195042.53000000026,"y":2584878.0300000012}},{"attributes":{"ID":279465,"DIS_CODE":0,"TOWNNAME":"白河區","LI":"廣安里","LIN":"2鄰","STREET":" ","SECT":" ","MAREA":"埤斗子","LANE":" ","ALLEY":" ","HOUSE_NO":"１５號","E_COORD97":189525.32999999999,"N_COORD97":2587393.5699999998,"ADDRESS":"埤斗子１５號","OBJECTID":279459},"geometry":{"x":189525.33000000101,"y":2587393.5699999984}},{"attributes":{"ID":279466,"DIS_CODE":0,"TOWNNAME":"白河區","LI":"廣安里","LIN":"2鄰","STREET":" ","SECT":" ","MAREA":"埤斗子","LANE":" ","ALLEY":" ","HOUSE_NO":"１７之１號","E_COORD97":189533.03,"N_COORD97":2587407.8500000001,"ADDRESS":"埤斗子１７之１號","OBJECTID":279460},"geometry":{"x":189533.03000000026,"y":2587407.8499999996}},{"attributes":{"ID":279467,"DIS_CODE":0,"TOWNNAME":"白河區","LI":"廣安里","LIN":"2鄰","STREET":" ","SECT":" ","MAREA":"埤斗子","LANE":" ","ALLEY":" ","HOUSE_NO":"１８號","E_COORD97":189543.54000000001,"N_COORD97":2587425.77,"ADDRESS":"埤斗子１８號","OBJECTID":279461},"geometry":{"x":189543.53999999911,"y":2587425.7700000033}},{"attributes":{"ID":279468,"DIS_CODE":0,"TOWNNAME":"白河區","LI":"廣安里","LIN":"2鄰","STREET":" ","SECT":" ","MAREA":"埤斗子","LANE":" ","ALLEY":" ","HOUSE_NO":"２０號","E_COORD97":189688.35000000001,"N_COORD97":2587401.4399999999,"ADDRESS":"埤斗子２０號","OBJECTID":279462},"geometry":{"x":189688.34999999963,"y":2587401.4400000013}},{"attributes":{"ID":279469,"DIS_CODE":0,"TOWNNAME":"白河區","LI":"秀祐里","LIN":"2鄰","STREET":" ","SECT":" ","MAREA":"頂秀祐","LANE":" ","ALLEY":" ","HOUSE_NO":"１８號","E_COORD97":188934.85999999999,"N_COORD97":2583304.0899999999,"ADDRESS":"頂秀祐１８號","OBJECTID":279463},"geometry":{"x":188934.8600000022,"y":2583304.0899999999}},{"attributes":{"ID":279470,"DIS_CODE":0,"TOWNNAME":"白河區","LI":"秀祐里","LIN":"2鄰","STREET":" ","SECT":" ","MAREA":"頂秀祐","LANE":" ","ALLEY":" ","HOUSE_NO":"１９號","E_COORD97":188924.22,"N_COORD97":2583281.8500000001,"ADDRESS":"頂秀祐１９號","OBJECTID":279464},"geometry":{"x":188924.21999999974,"y":2583281.8499999978}},{"attributes":{"ID":279471,"DIS_CODE":0,"TOWNNAME":"白河區","LI":"秀祐里","LIN":"2鄰","STREET":" ","SECT":" ","MAREA":"頂秀祐","LANE":" ","ALLEY":" ","HOUSE_NO":"２０之１號","E_COORD97":188946.45999999999,"N_COORD97":2583265.1600000001,"ADDRESS":"頂秀祐２０之１號","OBJECTID":279465},"geometry":{"x":188946.46000000089,"y":2583265.160000002}},{"attributes":{"ID":279472,"DIS_CODE":0,"TOWNNAME":"白河區","LI":"秀祐里","LIN":"2鄰","STREET":" ","SECT":" ","MAREA":"頂秀祐","LANE":" ","ALLEY":" ","HOUSE_NO":"２０號","E_COORD97":188965.51000000001,"N_COORD97":2583270.1899999999,"ADDRESS":"頂秀祐２０號","OBJECTID":279466},"geometry":{"x":188965.51000000164,"y":2583270.1900000013}},{"attributes":{"ID":279473,"DIS_CODE":0,"TOWNNAME":"白河區","LI":"秀祐里","LIN":"2鄰","STREET":" ","SECT":" ","MAREA":"頂秀祐","LANE":" ","ALLEY":" ","HOUSE_NO":"２１號","E_COORD97":188968.09,"N_COORD97":2583278.1899999999,"ADDRESS":"頂秀祐２１號","OBJECTID":279467},"geometry":{"x":188968.08999999985,"y":2583278.1899999995}},{"attributes":{"ID":279474,"DIS_CODE":0,"TOWNNAME":"白河區","LI":"秀祐里","LIN":"2鄰","STREET":" ","SECT":" ","MAREA":"頂秀祐","LANE":" ","ALLEY":" ","HOUSE_NO":"２２號","E_COORD97":188996.19,"N_COORD97":2583276.7999999998,"ADDRESS":"頂秀祐２２號","OBJECTID":279468},"geometry":{"x":188996.19000000134,"y":2583276.8000000045}},{"attributes":{"ID":279475,"DIS_CODE":0,"TOWNNAME":"白河區","LI":"秀祐里","LIN":"2鄰","STREET":" ","SECT":" ","MAREA":"頂秀祐","LANE":" ","ALLEY":" ","HOUSE_NO":"２３號","E_COORD97":189030.75,"N_COORD97":2583244.5699999998,"ADDRESS":"頂秀祐２３號","OBJECTID":279469},"geometry":{"x":189030.75000000093,"y":2583244.5700000022}},{"attributes":{"ID":279476,"DIS_CODE":0,"TOWNNAME":"白河區","LI":"秀祐里","LIN":"2鄰","STREET":" ","SECT":" ","MAREA":"頂秀祐","LANE":" ","ALLEY":" ","HOUSE_NO":"２４號","E_COORD97":188969.70000000001,"N_COORD97":2583251.0299999998,"ADDRESS":"頂秀祐２４號","OBJECTID":279470},"geometry":{"x":188969.70000000205,"y":2583251.0300000012}},{"attributes":{"ID":279477,"DIS_CODE":0,"TOWNNAME":"永康區","LI":"北灣里","LIN":"31鄰","STREET":"大同街","SECT":" ","MAREA":" ","LANE":"３３巷","ALLEY":" ","HOUSE_NO":"３０號","E_COORD97":175251.31,"N_COORD97":2545319.0600000001,"ADDRESS":"大同街３３巷３０號","OBJECTID":279471},"geometry":{"x":175251.31000000052,"y":2545319.0600000005}},{"attributes":{"ID":279478,"DIS_CODE":0,"TOWNNAME":"永康區","LI":"崑山里","LIN":"31鄰","STREET":"崑山街","SECT":" ","MAREA":" ","LANE":"１１６巷","ALLEY":" ","HOUSE_NO":"２２號","E_COORD97":174059.89999999999,"N_COORD97":2544769.25,"ADDRESS":"崑山街１１６巷２２號","OBJECTID":279472},"geometry":{"x":174059.9000000013,"y":2544769.2500000019}},{"attributes":{"ID":279479,"DIS_CODE":0,"TOWNNAME":"白河區","LI":"秀祐里","LIN":"2鄰","STREET":" ","SECT":" ","MAREA":"頂秀祐","LANE":" ","ALLEY":" ","HOUSE_NO":"２５號","E_COORD97":189000.98000000001,"N_COORD97":2583252.1400000001,"ADDRESS":"頂秀祐２５號","OBJECTID":279473},"geometry":{"x":189000.98000000138,"y":2583252.1400000025}},{"attributes":{"ID":279480,"DIS_CODE":0,"TOWNNAME":"白河區","LI":"秀祐里","LIN":"2鄰","STREET":" ","SECT":" ","MAREA":"頂秀祐","LANE":" ","ALLEY":" ","HOUSE_NO":"２８之１號","E_COORD97":188886.07999999999,"N_COORD97":2583298.73,"ADDRESS":"頂秀祐２８之１號","OBJECTID":279474},"geometry":{"x":188886.08000000101,"y":2583298.7300000023}},{"attributes":{"ID":279481,"DIS_CODE":0,"TOWNNAME":"白河區","LI":"秀祐里","LIN":"2鄰","STREET":" ","SECT":" ","MAREA":"頂秀祐","LANE":" ","ALLEY":" ","HOUSE_NO":"２８之２號","E_COORD97":188880.91,"N_COORD97":2583299.5299999998,"ADDRESS":"頂秀祐２８之２號","OBJECTID":279475},"geometry":{"x":188880.91000000108,"y":2583299.5299999993}},{"attributes":{"ID":279482,"DIS_CODE":0,"TOWNNAME":"白河區","LI":"秀祐里","LIN":"2鄰","STREET":" ","SECT":" ","MAREA":"頂秀祐","LANE":" ","ALLEY":" ","HOUSE_NO":"２９之１號","E_COORD97":188891.73000000001,"N_COORD97":2583310.7599999998,"ADDRESS":"頂秀祐２９之１號","OBJECTID":279476},"geometry":{"x":188891.72999999952,"y":2583310.7600000016}},{"attributes":{"ID":279483,"DIS_CODE":0,"TOWNNAME":"白河區","LI":"秀祐里","LIN":"2鄰","STREET":" ","SECT":" ","MAREA":"頂秀祐","LANE":" ","ALLEY":" ","HOUSE_NO":"２９號","E_COORD97":188879.78,"N_COORD97":2583316.8900000001,"ADDRESS":"頂秀祐２９號","OBJECTID":279477},"geometry":{"x":188879.78000000119,"y":2583316.8900000043}},{"attributes":{"ID":279484,"DIS_CODE":0,"TOWNNAME":"白河區","LI":"秀祐里","LIN":"2鄰","STREET":" ","SECT":" ","MAREA":"頂秀祐","LANE":" ","ALLEY":" ","HOUSE_NO":"３０之１號","E_COORD97":188886.09,"N_COORD97":2583285.9300000002,"ADDRESS":"頂秀祐３０之１號","OBJECTID":279478},"geometry":{"x":188886.09000000078,"y":2583285.9300000016}},{"attributes":{"ID":279485,"DIS_CODE":0,"TOWNNAME":"白河區","LI":"秀祐里","LIN":"2鄰","STREET":" ","SECT":" ","MAREA":"頂秀祐","LANE":" ","ALLEY":" ","HOUSE_NO":"３０號","E_COORD97":188904.17000000001,"N_COORD97":2583292.8399999999,"ADDRESS":"頂秀祐３０號","OBJECTID":279479},"geometry":{"x":188904.17000000086,"y":2583292.8400000017}},{"attributes":{"ID":279486,"DIS_CODE":0,"TOWNNAME":"白河區","LI":"詔安里","LIN":"2鄰","STREET":" ","SECT":" ","MAREA":"詔安厝","LANE":" ","ALLEY":" ","HOUSE_NO":"１４號","E_COORD97":189934.04999999999,"N_COORD97":2588020.2599999998,"ADDRESS":"詔安厝１４號","OBJECTID":279480},"geometry":{"x":189934.05000000075,"y":2588020.2600000016}},{"attributes":{"ID":279487,"DIS_CODE":0,"TOWNNAME":"南區","LI":"白雪里","LIN":"17鄰","STREET":"鹽埕路","SECT":" ","MAREA":" ","LANE":"１６０巷","ALLEY":" ","HOUSE_NO":"２０號","E_COORD97":166886.26999999999,"N_COORD97":2541023.02,"ADDRESS":"鹽埕路１６０巷２０號","OBJECTID":279481},"geometry":{"x":166886.26999999955,"y":2541023.0200000033}},{"attributes":{"ID":279488,"DIS_CODE":0,"TOWNNAME":"安南區","LI":"淵東里","LIN":"17鄰","STREET":"仁安路","SECT":" ","MAREA":" ","LANE":"１９４巷","ALLEY":" ","HOUSE_NO":"２３號","E_COORD97":165840.07999999999,"N_COORD97":2550105.52,"ADDRESS":"仁安路１９４巷２３號","OBJECTID":279482},"geometry":{"x":165840.08000000101,"y":2550105.5199999996}},{"attributes":{"ID":279489,"DIS_CODE":0,"TOWNNAME":"安南區","LI":"淵東里","LIN":"17鄰","STREET":"仁安路","SECT":" ","MAREA":" ","LANE":"１９４巷","ALLEY":" ","HOUSE_NO":"２５號","E_COORD97":165840.72,"N_COORD97":2550101.23,"ADDRESS":"仁安路１９４巷２５號","OBJECTID":279483},"geometry":{"x":165840.72000000067,"y":2550101.2300000004}},{"attributes":{"ID":279490,"DIS_CODE":0,"TOWNNAME":"安南區","LI":"淵東里","LIN":"17鄰","STREET":"仁安路","SECT":" ","MAREA":" ","LANE":"１９４巷","ALLEY":" ","HOUSE_NO":"２７號","E_COORD97":165842.62,"N_COORD97":2550096.1499999999,"ADDRESS":"仁安路１９４巷２７號","OBJECTID":279484},"geometry":{"x":165842.61999999918,"y":2550096.1500000022}},{"attributes":{"ID":279491,"DIS_CODE":0,"TOWNNAME":"安定區","LI":"六嘉里","LIN":"2鄰","STREET":" ","SECT":" ","MAREA":"六塊寮","LANE":" ","ALLEY":" ","HOUSE_NO":"１８之８號","E_COORD97":170231.12,"N_COORD97":2553569.2999999998,"ADDRESS":"六塊寮１８之８號","OBJECTID":279485},"geometry":{"x":170231.12000000011,"y":2553569.3000000007}},{"attributes":{"ID":279492,"DIS_CODE":0,"TOWNNAME":"安定區","LI":"安定里","LIN":"2鄰","STREET":" ","SECT":" ","MAREA":"領寄","LANE":" ","ALLEY":" ","HOUSE_NO":"１３號","E_COORD97":173435.98999999999,"N_COORD97":2557100.25,"ADDRESS":"領寄１３號","OBJECTID":279486},"geometry":{"x":173435.99000000022,"y":2557100.2500000019}},{"attributes":{"ID":279493,"DIS_CODE":0,"TOWNNAME":"安平區","LI":"平安里","LIN":"17鄰","STREET":"安平路","SECT":" ","MAREA":" ","LANE":"６０６巷","ALLEY":" ","HOUSE_NO":"８號","E_COORD97":164848.35999999999,"N_COORD97":2544441.5600000001,"ADDRESS":"安平路６０６巷８號","OBJECTID":279487},"geometry":{"x":164848.36000000127,"y":2544441.5600000042}},{"attributes":{"ID":279494,"DIS_CODE":0,"TOWNNAME":"安定區","LI":"六嘉里","LIN":"2鄰","STREET":" ","SECT":" ","MAREA":"六塊寮","LANE":" ","ALLEY":" ","HOUSE_NO":"１４號之２","E_COORD97":170077.19,"N_COORD97":2553501.2999999998,"ADDRESS":"六塊寮１４號之２","OBJECTID":279488},"geometry":{"x":170077.19000000227,"y":2553501.3000000007}},{"attributes":{"ID":279495,"DIS_CODE":0,"TOWNNAME":"安定區","LI":"安加里","LIN":"2鄰","STREET":" ","SECT":" ","MAREA":"安定","LANE":" ","ALLEY":" ","HOUSE_NO":"１６３之２號","E_COORD97":171954.34588000001,"N_COORD97":2557610.90558,"ADDRESS":"安定１６３之２號","OBJECTID":279489},"geometry":{"x":171954.34587999992,"y":2557610.9055820014}},{"attributes":{"ID":279496,"DIS_CODE":0,"TOWNNAME":"安平區","LI":"平安里","LIN":"17鄰","STREET":"安平路","SECT":" ","MAREA":" ","LANE":"６０６巷","ALLEY":" ","HOUSE_NO":"４號","E_COORD97":164844.98999999999,"N_COORD97":2544431.1499999999,"ADDRESS":"安平路６０６巷４號","OBJECTID":279490},"geometry":{"x":164844.99000000022,"y":2544431.1500000022}},{"attributes":{"ID":279497,"DIS_CODE":0,"TOWNNAME":"安南區","LI":"頂安里","LIN":"17鄰","STREET":"安中二街","SECT":" ","MAREA":" ","LANE":"１１９巷","ALLEY":" ","HOUSE_NO":"１號","E_COORD97":168392.75503599999,"N_COORD97":2548588.6110100001,"ADDRESS":"安中二街１１９巷１號","OBJECTID":279491},"geometry":{"x":168392.75503600109,"y":2548588.6110110004}},{"attributes":{"ID":279498,"DIS_CODE":0,"TOWNNAME":"安南區","LI":"頂安里","LIN":"17鄰","STREET":"安中二街","SECT":" ","MAREA":" ","LANE":"１１９巷","ALLEY":" ","HOUSE_NO":"６號","E_COORD97":168384.91271599999,"N_COORD97":2548598.7710099998,"ADDRESS":"安中二街１１９巷６號","OBJECTID":279492},"geometry":{"x":168384.9127160022,"y":2548598.771006003}},{"attributes":{"ID":279499,"DIS_CODE":0,"TOWNNAME":"安南區","LI":"頂安里","LIN":"17鄰","STREET":"安中二街","SECT":" ","MAREA":" ","LANE":"１１９巷","ALLEY":" ","HOUSE_NO":"２號","E_COORD97":168389.36376199999,"N_COORD97":2548599.40601,"ADDRESS":"安中二街１１９巷２號","OBJECTID":279493},"geometry":{"x":168389.36376199964,"y":2548599.4060050026}},{"attributes":{"ID":279500,"DIS_CODE":0,"TOWNNAME":"安南區","LI":"頂安里","LIN":"17鄰","STREET":"安中二街","SECT":" ","MAREA":" ","LANE":"１１９巷","ALLEY":" ","HOUSE_NO":"１１號","E_COORD97":168369.01000000001,"N_COORD97":2548584.6499999999,"ADDRESS":"安中二街１１９巷１１號","OBJECTID":279494},"geometry":{"x":168369.01000000164,"y":2548584.6500000022}},{"attributes":{"ID":279501,"DIS_CODE":0,"TOWNNAME":"安南區","LI":"頂安里","LIN":"17鄰","STREET":"安中二街","SECT":" ","MAREA":" ","LANE":"１１９巷","ALLEY":" ","HOUSE_NO":"１６號","E_COORD97":168368.37,"N_COORD97":2548594.96,"ADDRESS":"安中二街１１９巷１６號","OBJECTID":279495},"geometry":{"x":168368.37000000011,"y":2548594.9600000009}},{"attributes":{"ID":279502,"DIS_CODE":0,"TOWNNAME":"南區","LI":"白雪里","LIN":"17鄰","STREET":"新都路","SECT":" ","MAREA":" ","LANE":"６１２巷","ALLEY":" ","HOUSE_NO":"３之１號","E_COORD97":166823.72,"N_COORD97":2540928.8399999999,"ADDRESS":"新都路６１２巷３之１號","OBJECTID":279496},"geometry":{"x":166823.72000000067,"y":2540928.8399999999}},{"attributes":{"ID":279503,"DIS_CODE":0,"TOWNNAME":"安定區","LI":"六嘉里","LIN":"2鄰","STREET":" ","SECT":" ","MAREA":"六塊寮","LANE":" ","ALLEY":" ","HOUSE_NO":"１７之２號","E_COORD97":170097.92000000001,"N_COORD97":2553609.2999999998,"ADDRESS":"六塊寮１７之２號","OBJECTID":279497},"geometry":{"x":170097.92000000086,"y":2553609.3000000007}},{"attributes":{"ID":279504,"DIS_CODE":0,"TOWNNAME":"安定區","LI":"中榮里","LIN":"2鄰","STREET":" ","SECT":" ","MAREA":"許中營","LANE":" ","ALLEY":" ","HOUSE_NO":"２３之６號","E_COORD97":172572.84,"N_COORD97":2554781.2999999998,"ADDRESS":"許中營２３之６號","OBJECTID":279498},"geometry":{"x":172572.84000000078,"y":2554781.3000000026}},{"attributes":{"ID":279505,"DIS_CODE":0,"TOWNNAME":"麻豆區","LI":"總榮里","LIN":"2鄰","STREET":" ","SECT":" ","MAREA":"總爺\u25A0","LANE":" ","ALLEY":" ","HOUSE_NO":"１４號之１","E_COORD97":175081.45000000001,"N_COORD97":2564548.7599999998,"ADDRESS":"總爺\u25A0１４號之１","OBJECTID":279499},"geometry":{"x":175081.45000000112,"y":2564548.7600000016}},{"attributes":{"ID":279506,"DIS_CODE":0,"TOWNNAME":"麻豆區","LI":"總榮里","LIN":"2鄰","STREET":" ","SECT":" ","MAREA":"總爺\u25A0","LANE":" ","ALLEY":" ","HOUSE_NO":"１４號之２","E_COORD97":175081.89999999999,"N_COORD97":2564556.46,"ADDRESS":"總爺\u25A0１４號之２","OBJECTID":279500},"geometry":{"x":175081.9000000013,"y":2564556.4600000009}},{"attributes":{"ID":279507,"DIS_CODE":0,"TOWNNAME":"麻豆區","LI":"總榮里","LIN":"2鄰","STREET":" ","SECT":" ","MAREA":"總爺\u25A0","LANE":" ","ALLEY":" ","HOUSE_NO":"１４號之３","E_COORD97":175075.59,"N_COORD97":2564573.4199999999,"ADDRESS":"總爺\u25A0１４號之３","OBJECTID":279501},"geometry":{"x":175075.58999999985,"y":2564573.4199999999}},{"attributes":{"ID":279508,"DIS_CODE":0,"TOWNNAME":"麻豆區","LI":"總榮里","LIN":"2鄰","STREET":" ","SECT":" ","MAREA":"總爺\u25A0","LANE":" ","ALLEY":" ","HOUSE_NO":"１４號之４","E_COORD97":175105.73999999999,"N_COORD97":2564576.3900000001,"ADDRESS":"總爺\u25A0１４號之４","OBJECTID":279502},"geometry":{"x":175105.74000000022,"y":2564576.3900000025}},{"attributes":{"ID":279509,"DIS_CODE":0,"TOWNNAME":"北區","LI":"文元里","LIN":"2鄰","STREET":"中華北路","SECT":"二段","MAREA":" ","LANE":"９０巷","ALLEY":" ","HOUSE_NO":"４１號","E_COORD97":167788.26999999999,"N_COORD97":2546581.54,"ADDRESS":"中華北路二段９０巷４１號","OBJECTID":279503},"geometry":{"x":167788.26999999955,"y":2546581.5399999991}},{"attributes":{"ID":279510,"DIS_CODE":0,"TOWNNAME":"北區","LI":"文元里","LIN":"2鄰","STREET":"中華北路","SECT":"二段","MAREA":" ","LANE":"９０巷","ALLEY":" ","HOUSE_NO":"４３號","E_COORD97":167789.06,"N_COORD97":2546578.2000000002,"ADDRESS":"中華北路二段９０巷４３號","OBJECTID":279504},"geometry":{"x":167789.06000000052,"y":2546578.1999999974}},{"attributes":{"ID":279511,"DIS_CODE":0,"TOWNNAME":"中西區","LI":"協和里","LIN":"2鄰","STREET":"文賢路","SECT":" ","MAREA":" ","LANE":"９７巷","ALLEY":" ","HOUSE_NO":"４７號","E_COORD97":167366.87,"N_COORD97":2544611.8399999999,"ADDRESS":"文賢路９７巷４７號","OBJECTID":279505},"geometry":{"x":167366.87000000104,"y":2544611.8400000036}},{"attributes":{"ID":279512,"DIS_CODE":0,"TOWNNAME":"中西區","LI":"協和里","LIN":"2鄰","STREET":"文賢路","SECT":" ","MAREA":" ","LANE":"９７巷","ALLEY":" ","HOUSE_NO":"６５號","E_COORD97":167392.72,"N_COORD97":2544583.6800000002,"ADDRESS":"文賢路９７巷６５號","OBJECTID":279506},"geometry":{"x":167392.7200000016,"y":2544583.6800000016}},{"attributes":{"ID":279513,"DIS_CODE":0,"TOWNNAME":"中西區","LI":"青年里","LIN":"17鄰","STREET":"中山路","SECT":" ","MAREA":" ","LANE":" ","ALLEY":" ","HOUSE_NO":"２號","E_COORD97":168562.47,"N_COORD97":2543696.9199999999,"ADDRESS":"中山路２號","OBJECTID":279507},"geometry":{"x":168562.4700000016,"y":2543696.9200000018}},{"attributes":{"ID":279514,"DIS_CODE":0,"TOWNNAME":"麻豆區","LI":"總榮里","LIN":"2鄰","STREET":" ","SECT":" ","MAREA":"總爺\u25A0","LANE":" ","ALLEY":" ","HOUSE_NO":"１６號","E_COORD97":175139.82999999999,"N_COORD97":2564604.4500000002,"ADDRESS":"總爺\u25A0１６號","OBJECTID":279508},"geometry":{"x":175139.83000000101,"y":2564604.4500000011}},{"attributes":{"ID":279515,"DIS_CODE":0,"TOWNNAME":"麻豆區","LI":"總榮里","LIN":"2鄰","STREET":" ","SECT":" ","MAREA":"總爺\u25A0","LANE":" ","ALLEY":" ","HOUSE_NO":"１７號之１","E_COORD97":175163.23999999999,"N_COORD97":2564574.79,"ADDRESS":"總爺\u25A0１７號之１","OBJECTID":279509},"geometry":{"x":175163.24000000022,"y":2564574.790000001}},{"attributes":{"ID":279516,"DIS_CODE":0,"TOWNNAME":"麻豆區","LI":"總榮里","LIN":"2鄰","STREET":" ","SECT":" ","MAREA":"總爺\u25A0","LANE":" ","ALLEY":" ","HOUSE_NO":"１７號之２","E_COORD97":175163.51999999999,"N_COORD97":2564567.6499999999,"ADDRESS":"總爺\u25A0１７號之２","OBJECTID":279510},"geometry":{"x":175163.52000000048,"y":2564567.6500000004}},{"attributes":{"ID":279517,"DIS_CODE":0,"TOWNNAME":"麻豆區","LI":"總榮里","LIN":"2鄰","STREET":" ","SECT":" ","MAREA":"總爺\u25A0","LANE":" ","ALLEY":" ","HOUSE_NO":"１７號之３","E_COORD97":175164.20999999999,"N_COORD97":2564561.29,"ADDRESS":"總爺\u25A0１７號之３","OBJECTID":279511},"geometry":{"x":175164.21000000089,"y":2564561.290000001}},{"attributes":{"ID":279518,"DIS_CODE":0,"TOWNNAME":"麻豆區","LI":"中民里","LIN":"2鄰","STREET":" ","SECT":" ","MAREA":"謝厝寮","LANE":" ","ALLEY":" ","HOUSE_NO":"１０７號之２","E_COORD97":171769.22,"N_COORD97":2560835.1000000001,"ADDRESS":"謝厝寮１０７號之２","OBJECTID":279512},"geometry":{"x":171769.21999999974,"y":2560835.0999999996}},{"attributes":{"ID":279519,"DIS_CODE":0,"TOWNNAME":"麻豆區","LI":"中民里","LIN":"2鄰","STREET":" ","SECT":" ","MAREA":"謝厝寮","LANE":" ","ALLEY":" ","HOUSE_NO":"１０７號之３","E_COORD97":171771.48000000001,"N_COORD97":2560838.7799999998,"ADDRESS":"謝厝寮１０７號之３","OBJECTID":279513},"geometry":{"x":171771.48000000045,"y":2560838.7800000012}},{"attributes":{"ID":279520,"DIS_CODE":0,"TOWNNAME":"麻豆區","LI":"中民里","LIN":"2鄰","STREET":" ","SECT":" ","MAREA":"謝厝寮","LANE":" ","ALLEY":" ","HOUSE_NO":"１０７號","E_COORD97":171762.16,"N_COORD97":2560830.4900000002,"ADDRESS":"謝厝寮１０７號","OBJECTID":279514},"geometry":{"x":171762.16000000201,"y":2560830.4899999984}},{"attributes":{"ID":279521,"DIS_CODE":0,"TOWNNAME":"麻豆區","LI":"中民里","LIN":"2鄰","STREET":" ","SECT":" ","MAREA":"謝厝寮","LANE":" ","ALLEY":" ","HOUSE_NO":"１０８號","E_COORD97":171787.34,"N_COORD97":2560859.7999999998,"ADDRESS":"謝厝寮１０８號","OBJECTID":279515},"geometry":{"x":171787.33999999985,"y":2560859.8000000045}},{"attributes":{"ID":279522,"DIS_CODE":0,"TOWNNAME":"麻豆區","LI":"中民里","LIN":"2鄰","STREET":" ","SECT":" ","MAREA":"謝厝寮","LANE":" ","ALLEY":" ","HOUSE_NO":"１０９號","E_COORD97":171795.88,"N_COORD97":2560872.1200000001,"ADDRESS":"謝厝寮１０９號","OBJECTID":279516},"geometry":{"x":171795.88000000175,"y":2560872.1200000029}},{"attributes":{"ID":279523,"DIS_CODE":0,"TOWNNAME":"麻豆區","LI":"謝安里","LIN":"2鄰","STREET":" ","SECT":" ","MAREA":"謝厝寮","LANE":" ","ALLEY":" ","HOUSE_NO":"１２號之１","E_COORD97":172342.06,"N_COORD97":2561349.6899999999,"ADDRESS":"謝厝寮１２號之１","OBJECTID":279517},"geometry":{"x":172342.06000000145,"y":2561349.6899999995}},{"attributes":{"ID":279524,"DIS_CODE":0,"TOWNNAME":"麻豆區","LI":"謝安里","LIN":"2鄰","STREET":" ","SECT":" ","MAREA":"謝厝寮","LANE":" ","ALLEY":" ","HOUSE_NO":"１２號之２","E_COORD97":172332.64000000001,"N_COORD97":2561338.5099999998,"ADDRESS":"謝厝寮１２號之２","OBJECTID":279518},"geometry":{"x":172332.63999999966,"y":2561338.5100000035}},{"attributes":{"ID":279525,"DIS_CODE":0,"TOWNNAME":"麻豆區","LI":"謝安里","LIN":"2鄰","STREET":" ","SECT":" ","MAREA":"謝厝寮","LANE":" ","ALLEY":" ","HOUSE_NO":"１２號之３","E_COORD97":172329.78,"N_COORD97":2561335.5899999999,"ADDRESS":"謝厝寮１２號之３","OBJECTID":279519},"geometry":{"x":172329.78000000119,"y":2561335.5900000017}},{"attributes":{"ID":279526,"DIS_CODE":0,"TOWNNAME":"麻豆區","LI":"謝安里","LIN":"2鄰","STREET":" ","SECT":" ","MAREA":"謝厝寮","LANE":" ","ALLEY":" ","HOUSE_NO":"１２號之４","E_COORD97":172327.59,"N_COORD97":2561332.4700000002,"ADDRESS":"謝厝寮１２號之４","OBJECTID":279520},"geometry":{"x":172327.59000000078,"y":2561332.4700000007}},{"attributes":{"ID":279527,"DIS_CODE":0,"TOWNNAME":"安南區","LI":"頂安里","LIN":"17鄰","STREET":"安中二街","SECT":" ","MAREA":" ","LANE":"１１９巷","ALLEY":" ","HOUSE_NO":"９號","E_COORD97":168374.10303299999,"N_COORD97":2548585.85935,"ADDRESS":"安中二街１１９巷９號","OBJECTID":279521},"geometry":{"x":168374.10303300153,"y":2548585.8593460023}},{"attributes":{"ID":279528,"DIS_CODE":0,"TOWNNAME":"安南區","LI":"頂安里","LIN":"17鄰","STREET":"安中二街","SECT":" ","MAREA":" ","LANE":"１１９巷","ALLEY":" ","HOUSE_NO":"７號","E_COORD97":168379.61385200001,"N_COORD97":2548586.4943499998,"ADDRESS":"安中二街１１９巷７號","OBJECTID":279522},"geometry":{"x":168379.61385199986,"y":2548586.4943460021}},{"attributes":{"ID":279529,"DIS_CODE":0,"TOWNNAME":"安南區","LI":"頂安里","LIN":"17鄰","STREET":"安中二街","SECT":" ","MAREA":" ","LANE":"１１９巷","ALLEY":" ","HOUSE_NO":"５號","E_COORD97":168384.48880699999,"N_COORD97":2548586.7060099998,"ADDRESS":"安中二街１１９巷５號","OBJECTID":279523},"geometry":{"x":168384.48880700115,"y":2548586.7060119994}},{"attributes":{"ID":279530,"DIS_CODE":0,"TOWNNAME":"安南區","LI":"頂安里","LIN":"17鄰","STREET":"安中二街","SECT":" ","MAREA":" ","LANE":"１１９巷","ALLEY":" ","HOUSE_NO":"１２號","E_COORD97":168371.98348699999,"N_COORD97":2548596.0193400001,"ADDRESS":"安中二街１１９巷１２號","OBJECTID":279524},"geometry":{"x":168371.98348700069,"y":2548596.0193410013}},{"attributes":{"ID":279531,"DIS_CODE":0,"TOWNNAME":"安南區","LI":"頂安里","LIN":"17鄰","STREET":"安中二街","SECT":" ","MAREA":" ","LANE":"１１９巷","ALLEY":" ","HOUSE_NO":"８號","E_COORD97":168380.03776100001,"N_COORD97":2548597.9243399999,"ADDRESS":"安中二街１１９巷８號","OBJECTID":279525},"geometry":{"x":168380.03776100092,"y":2548597.924339002}},{"attributes":{"ID":279532,"DIS_CODE":0,"TOWNNAME":"麻豆區","LI":"謝安里","LIN":"2鄰","STREET":" ","SECT":" ","MAREA":"謝厝寮","LANE":" ","ALLEY":" ","HOUSE_NO":"１２號之５","E_COORD97":172325.07999999999,"N_COORD97":2561329.79,"ADDRESS":"謝厝寮１２號之５","OBJECTID":279526},"geometry":{"x":172325.08000000007,"y":2561329.790000001}},{"attributes":{"ID":279533,"DIS_CODE":0,"TOWNNAME":"麻豆區","LI":"總榮里","LIN":"2鄰","STREET":" ","SECT":" ","MAREA":"總爺\u25A0","LANE":" ","ALLEY":" ","HOUSE_NO":"１７號之５","E_COORD97":175143.42999999999,"N_COORD97":2564560.6699999999,"ADDRESS":"總爺\u25A0１７號之５","OBJECTID":279527},"geometry":{"x":175143.43000000156,"y":2564560.6699999999}},{"attributes":{"ID":279534,"DIS_CODE":0,"TOWNNAME":"仁德區","LI":"後壁里","LIN":"39鄰","STREET":"德善一街","SECT":" ","MAREA":" ","LANE":" ","ALLEY":" ","HOUSE_NO":"３９號","E_COORD97":173449.98000000001,"N_COORD97":2539004.7599999998,"ADDRESS":"德善一街３９號","OBJECTID":279528},"geometry":{"x":173449.98000000045,"y":2539004.7600000035}},{"attributes":{"ID":279535,"DIS_CODE":0,"TOWNNAME":"仁德區","LI":"新田里","LIN":"13鄰","STREET":"北保二街","SECT":" ","MAREA":" ","LANE":" ","ALLEY":" ","HOUSE_NO":"２０號","E_COORD97":173227.03,"N_COORD97":2539424.4900000002,"ADDRESS":"北保二街２０號","OBJECTID":279529},"geometry":{"x":173227.03000000026,"y":2539424.4900000021}},{"attributes":{"ID":279536,"DIS_CODE":0,"TOWNNAME":"東區","LI":"小東里","LIN":"4鄰","STREET":"光明街","SECT":" ","MAREA":" ","LANE":" ","ALLEY":" ","HOUSE_NO":"２８號","E_COORD97":170871.04000000001,"N_COORD97":2544392.73,"ADDRESS":"光明街２８號","OBJECTID":279530},"geometry":{"x":170871.03999999911,"y":2544392.7300000042}},{"attributes":{"ID":279537,"DIS_CODE":0,"TOWNNAME":"安南區","LI":"顯宮里","LIN":"2鄰","STREET":"媽祖宮一街","SECT":" ","MAREA":" ","LANE":" ","ALLEY":" ","HOUSE_NO":"５２號","E_COORD97":160621.84,"N_COORD97":2548698.9399999999,"ADDRESS":"媽祖宮一街５２號","OBJECTID":279531},"geometry":{"x":160621.84000000078,"y":2548698.9399999995}},{"attributes":{"ID":279538,"DIS_CODE":0,"TOWNNAME":"安南區","LI":"海佃里","LIN":"2鄰","STREET":"國安街","SECT":" ","MAREA":" ","LANE":"７４巷","ALLEY":" ","HOUSE_NO":"１號之１","E_COORD97":166933.20000000001,"N_COORD97":2547035.21,"ADDRESS":"國安街７４巷１號之１","OBJECTID":279532},"geometry":{"x":166933.20000000019,"y":2547035.2100000028}},{"attributes":{"ID":279539,"DIS_CODE":0,"TOWNNAME":"安南區","LI":"安和里","LIN":"2鄰","STREET":"府安路","SECT":"三段","MAREA":" ","LANE":"３１１巷","ALLEY":" ","HOUSE_NO":"１號","E_COORD97":169824.95000000001,"N_COORD97":2547653.9700000002,"ADDRESS":"府安路三段３１１巷１號","OBJECTID":279533},"geometry":{"x":169824.95000000112,"y":2547653.9700000025}},{"attributes":{"ID":279540,"DIS_CODE":0,"TOWNNAME":"安南區","LI":"安和里","LIN":"2鄰","STREET":"府安路","SECT":"三段","MAREA":" ","LANE":"３１１巷","ALLEY":" ","HOUSE_NO":"３號","E_COORD97":169822.41,"N_COORD97":2547654.4399999999,"ADDRESS":"府安路三段３１１巷３號","OBJECTID":279534},"geometry":{"x":169822.41000000015,"y":2547654.4399999995}},{"attributes":{"ID":279541,"DIS_CODE":0,"TOWNNAME":"麻豆區","LI":"總榮里","LIN":"2鄰","STREET":" ","SECT":" ","MAREA":"總爺\u25A0","LANE":" ","ALLEY":" ","HOUSE_NO":"１７號之６","E_COORD97":175142.01999999999,"N_COORD97":2564567.8500000001,"ADDRESS":"總爺\u25A0１７號之６","OBJECTID":279535},"geometry":{"x":175142.01999999955,"y":2564567.8500000015}},{"attributes":{"ID":279542,"DIS_CODE":0,"TOWNNAME":"安南區","LI":"安和里","LIN":"2鄰","STREET":"府安路","SECT":"三段","MAREA":" ","LANE":"３１１巷","ALLEY":" ","HOUSE_NO":"５號","E_COORD97":169818.76000000001,"N_COORD97":2547655.3999999999,"ADDRESS":"府安路三段３１１巷５號","OBJECTID":279536},"geometry":{"x":169818.76000000071,"y":2547655.4000000004}},{"attributes":{"ID":279543,"DIS_CODE":0,"TOWNNAME":"麻豆區","LI":"港尾里","LIN":"2鄰","STREET":" ","SECT":" ","MAREA":"謝榜寮","LANE":" ","ALLEY":" ","HOUSE_NO":"１７號之１","E_COORD97":168074.35999999999,"N_COORD97":2566199.6600000001,"ADDRESS":"謝榜寮１７號之１","OBJECTID":279537},"geometry":{"x":168074.36000000127,"y":2566199.6600000039}},{"attributes":{"ID":279544,"DIS_CODE":0,"TOWNNAME":"麻豆區","LI":"港尾里","LIN":"2鄰","STREET":" ","SECT":" ","MAREA":"謝榜寮","LANE":" ","ALLEY":" ","HOUSE_NO":"１７號","E_COORD97":168077.23000000001,"N_COORD97":2566229.3799999999,"ADDRESS":"謝榜寮１７號","OBJECTID":279538},"geometry":{"x":168077.23000000138,"y":2566229.379999999}},{"attributes":{"ID":279545,"DIS_CODE":0,"TOWNNAME":"麻豆區","LI":"港尾里","LIN":"2鄰","STREET":" ","SECT":" ","MAREA":"謝榜寮","LANE":" ","ALLEY":" ","HOUSE_NO":"１８號","E_COORD97":168058.17000000001,"N_COORD97":2566252.6400000001,"ADDRESS":"謝榜寮１８號","OBJECTID":279539},"geometry":{"x":168058.17000000086,"y":2566252.6400000025}},{"attributes":{"ID":279546,"DIS_CODE":0,"TOWNNAME":"仁德區","LI":"後壁里","LIN":"37鄰","STREET":"民安路","SECT":"一段","MAREA":" ","LANE":" ","ALLEY":" ","HOUSE_NO":"３６２號","E_COORD97":173096.73999999999,"N_COORD97":2539394.0699999998,"ADDRESS":"民安路一段３６２號","OBJECTID":279540},"geometry":{"x":173096.74000000022,"y":2539394.0700000022}},{"attributes":{"ID":279547,"DIS_CODE":0,"TOWNNAME":"仁德區","LI":"後壁里","LIN":"37鄰","STREET":"德洋一街","SECT":" ","MAREA":" ","LANE":" ","ALLEY":" ","HOUSE_NO":"７３號","E_COORD97":173164.16,"N_COORD97":2539232.2599999998,"ADDRESS":"德洋一街７３號","OBJECTID":279541},"geometry":{"x":173164.16000000201,"y":2539232.2600000016}},{"attributes":{"ID":279548,"DIS_CODE":0,"TOWNNAME":"安定區","LI":"蘇厝里","LIN":"2鄰","STREET":" ","SECT":" ","MAREA":"蘇厝","LANE":" ","ALLEY":" ","HOUSE_NO":"２８９號之５","E_COORD97":173274.41,"N_COORD97":2558582.2999999998,"ADDRESS":"蘇厝２８９號之５","OBJECTID":279542},"geometry":{"x":173274.41000000108,"y":2558582.3000000026}},{"attributes":{"ID":279549,"DIS_CODE":0,"TOWNNAME":"安定區","LI":"南安里","LIN":"2鄰","STREET":" ","SECT":" ","MAREA":"油車","LANE":" ","ALLEY":" ","HOUSE_NO":"１９之４號","E_COORD97":170674.54000000001,"N_COORD97":2555791.2999999998,"ADDRESS":"油車１９之４號","OBJECTID":279543},"geometry":{"x":170674.5400000019,"y":2555791.3000000026}},{"attributes":{"ID":279550,"DIS_CODE":0,"TOWNNAME":"安定區","LI":"蘇厝里","LIN":"2鄰","STREET":" ","SECT":" ","MAREA":"蘇厝","LANE":" ","ALLEY":" ","HOUSE_NO":"２９３之１０３號","E_COORD97":173327.72,"N_COORD97":2558387.2999999998,"ADDRESS":"蘇厝２９３之１０３號","OBJECTID":279544},"geometry":{"x":173327.7200000016,"y":2558387.3000000007}},{"attributes":{"ID":279551,"DIS_CODE":0,"TOWNNAME":"安定區","LI":"蘇厝里","LIN":"2鄰","STREET":" ","SECT":" ","MAREA":"蘇厝","LANE":" ","ALLEY":" ","HOUSE_NO":"２９２號之５","E_COORD97":173256.21319000001,"N_COORD97":2558530.9757300001,"ADDRESS":"蘇厝２９２之５號","OBJECTID":279545},"geometry":{"x":173256.21318999957,"y":2558530.9757300001}},{"attributes":{"ID":279552,"DIS_CODE":0,"TOWNNAME":"安定區","LI":"蘇厝里","LIN":"2鄰","STREET":" ","SECT":" ","MAREA":"蘇厝","LANE":" ","ALLEY":" ","HOUSE_NO":"２９３之２４號","E_COORD97":173382.97,"N_COORD97":2558481.2999999998,"ADDRESS":"蘇厝２９３之２４號","OBJECTID":279546},"geometry":{"x":173382.96999999974,"y":2558481.3000000007}},{"attributes":{"ID":279553,"DIS_CODE":0,"TOWNNAME":"安定區","LI":"南安里","LIN":"2鄰","STREET":" ","SECT":" ","MAREA":"油車","LANE":" ","ALLEY":" ","HOUSE_NO":"２４之５號","E_COORD97":170529.59619499999,"N_COORD97":2555967.2084900001,"ADDRESS":"油車２４之５號","OBJECTID":279547},"geometry":{"x":170529.59619500116,"y":2555967.2084910013}},{"attributes":{"ID":279554,"DIS_CODE":0,"TOWNNAME":"東區","LI":"中西里","LIN":"7鄰","STREET":"懷恩街","SECT":" ","MAREA":" ","LANE":" ","ALLEY":" ","HOUSE_NO":"８號","E_COORD97":169941.29000000001,"N_COORD97":2543326.52,"ADDRESS":"懷恩街８號","OBJECTID":279548},"geometry":{"x":169941.29000000097,"y":2543326.5200000014}},{"attributes":{"ID":279555,"DIS_CODE":0,"TOWNNAME":"仁德區","LI":"太子里","LIN":"39鄰","STREET":"太子路","SECT":" ","MAREA":" ","LANE":" ","ALLEY":" ","HOUSE_NO":"７２號","E_COORD97":175132.23999999999,"N_COORD97":2543578.5,"ADDRESS":"太子路７２號","OBJECTID":279549},"geometry":{"x":175132.24000000115,"y":2543578.5}},{"attributes":{"ID":279556,"DIS_CODE":0,"TOWNNAME":"安南區","LI":"東和里","LIN":"2鄰","STREET":"長和路","SECT":"一段","MAREA":" ","LANE":"８４５巷","ALLEY":" ","HOUSE_NO":"３８之２號","E_COORD97":170769.19,"N_COORD97":2551345.4199999999,"ADDRESS":"長和路一段８４５巷３８之２號","OBJECTID":279550},"geometry":{"x":170769.19000000134,"y":2551345.4200000018}},{"attributes":{"ID":279557,"DIS_CODE":0,"TOWNNAME":"安南區","LI":"東和里","LIN":"2鄰","STREET":"長和路","SECT":"一段","MAREA":" ","LANE":"８４５巷","ALLEY":" ","HOUSE_NO":"３８號","E_COORD97":170784.57999999999,"N_COORD97":2551348.3100000001,"ADDRESS":"長和路一段８４５巷３８號","OBJECTID":279551},"geometry":{"x":170784.58000000101,"y":2551348.3100000005}},{"attributes":{"ID":279558,"DIS_CODE":0,"TOWNNAME":"安南區","LI":"東和里","LIN":"2鄰","STREET":"長和路","SECT":"一段","MAREA":" ","LANE":"８４５巷","ALLEY":" ","HOUSE_NO":"４６號","E_COORD97":170777.60000000001,"N_COORD97":2551330.77,"ADDRESS":"長和路一段８４５巷４６號","OBJECTID":279552},"geometry":{"x":170777.60000000056,"y":2551330.7699999996}},{"attributes":{"ID":279559,"DIS_CODE":0,"TOWNNAME":"安南區","LI":"東和里","LIN":"2鄰","STREET":"長和路","SECT":"一段","MAREA":" ","LANE":"８４５巷","ALLEY":" ","HOUSE_NO":"５０號","E_COORD97":170762.45000000001,"N_COORD97":2551327.1600000001,"ADDRESS":"長和路一段８４５巷５０號","OBJECTID":279553},"geometry":{"x":170762.45000000112,"y":2551327.160000002}},{"attributes":{"ID":279560,"DIS_CODE":0,"TOWNNAME":"東區","LI":"關聖里","LIN":"2鄰","STREET":"裕農路","SECT":" ","MAREA":" ","LANE":"６６８巷","ALLEY":" ","HOUSE_NO":"７２號","E_COORD97":171747.75,"N_COORD97":2542895.8399999999,"ADDRESS":"裕農路６６８巷７２號","OBJECTID":279554},"geometry":{"x":171747.75000000186,"y":2542895.8399999999}},{"attributes":{"ID":279561,"DIS_CODE":0,"TOWNNAME":"安南區","LI":"顯宮里","LIN":"2鄰","STREET":"媽祖宮一街","SECT":" ","MAREA":" ","LANE":" ","ALLEY":" ","HOUSE_NO":"３２號","E_COORD97":160674.92999999999,"N_COORD97":2548752.7400000002,"ADDRESS":"媽祖宮一街３２號","OBJECTID":279555},"geometry":{"x":160674.93000000156,"y":2548752.7400000021}},{"attributes":{"ID":279562,"DIS_CODE":0,"TOWNNAME":"安定區","LI":"蘇厝里","LIN":"2鄰","STREET":" ","SECT":" ","MAREA":"蘇厝","LANE":" ","ALLEY":" ","HOUSE_NO":"２９３之９９號","E_COORD97":173333.97,"N_COORD97":2558371.2999999998,"ADDRESS":"蘇厝２９３之９９號","OBJECTID":279556},"geometry":{"x":173333.96999999974,"y":2558371.3000000045}},{"attributes":{"ID":279563,"DIS_CODE":0,"TOWNNAME":"安定區","LI":"蘇厝里","LIN":"2鄰","STREET":" ","SECT":" ","MAREA":"蘇厝","LANE":" ","ALLEY":" ","HOUSE_NO":"２８９號之１１","E_COORD97":173253.35375800001,"N_COORD97":2558570.66322,"ADDRESS":"蘇厝２８９號之１１","OBJECTID":279557},"geometry":{"x":173253.35375800077,"y":2558570.6632160041}},{"attributes":{"ID":279564,"DIS_CODE":0,"TOWNNAME":"安定區","LI":"蘇厝里","LIN":"2鄰","STREET":" ","SECT":" ","MAREA":"蘇厝","LANE":" ","ALLEY":" ","HOUSE_NO":"２９２之７號","E_COORD97":173303.01999999999,"N_COORD97":2558546.2999999998,"ADDRESS":"蘇厝２９２之７號","OBJECTID":279558},"geometry":{"x":173303.01999999955,"y":2558546.3000000007}},{"attributes":{"ID":279565,"DIS_CODE":0,"TOWNNAME":"安定區","LI":"中榮里","LIN":"2鄰","STREET":" ","SECT":" ","MAREA":"許中營","LANE":" ","ALLEY":" ","HOUSE_NO":"２４之１６號","E_COORD97":172896.48999999999,"N_COORD97":2554404.2999999998,"ADDRESS":"許中營２４之１６號","OBJECTID":279559},"geometry":{"x":172896.49000000115,"y":2554404.3000000045}},{"attributes":{"ID":279566,"DIS_CODE":0,"TOWNNAME":"安定區","LI":"中榮里","LIN":"2鄰","STREET":" ","SECT":" ","MAREA":"許中營","LANE":" ","ALLEY":" ","HOUSE_NO":"１７之９號","E_COORD97":172483.64000000001,"N_COORD97":2554873.2999999998,"ADDRESS":"許中營１７之９號","OBJECTID":279560},"geometry":{"x":172483.63999999966,"y":2554873.3000000026}},{"attributes":{"ID":279567,"DIS_CODE":0,"TOWNNAME":"安定區","LI":"中榮里","LIN":"2鄰","STREET":" ","SECT":" ","MAREA":"許中營","LANE":" ","ALLEY":" ","HOUSE_NO":"２３之４６號","E_COORD97":172534.79000000001,"N_COORD97":2554782.2999999998,"ADDRESS":"許中營２３之４６號","OBJECTID":279561},"geometry":{"x":172534.79000000097,"y":2554782.3000000026}},{"attributes":{"ID":279568,"DIS_CODE":0,"TOWNNAME":"佳里區","LI":"六安里","LIN":"2鄰","STREET":"延平路","SECT":" ","MAREA":" ","LANE":" ","ALLEY":" ","HOUSE_NO":"４１７號","E_COORD97":165832.62,"N_COORD97":2562776.9900000002,"ADDRESS":"延平路４１７號","OBJECTID":279562},"geometry":{"x":165832.62000000197,"y":2562776.9900000039}},{"attributes":{"ID":279569,"DIS_CODE":0,"TOWNNAME":"佳里區","LI":"六安里","LIN":"2鄰","STREET":"延平路","SECT":" ","MAREA":" ","LANE":" ","ALLEY":" ","HOUSE_NO":"４１８號","E_COORD97":165871.26000000001,"N_COORD97":2562678.98,"ADDRESS":"延平路４１８號","OBJECTID":279563},"geometry":{"x":165871.25999999978,"y":2562678.9800000042}},{"attributes":{"ID":279570,"DIS_CODE":0,"TOWNNAME":"安南區","LI":"顯宮里","LIN":"2鄰","STREET":"媽祖宮一街","SECT":" ","MAREA":" ","LANE":" ","ALLEY":" ","HOUSE_NO":"３６號","E_COORD97":160660.63,"N_COORD97":2548741.6499999999,"ADDRESS":"媽祖宮一街３６號","OBJECTID":279564},"geometry":{"x":160660.63000000082,"y":2548741.6500000004}},{"attributes":{"ID":279571,"DIS_CODE":0,"TOWNNAME":"安南區","LI":"顯宮里","LIN":"2鄰","STREET":"媽祖宮一街","SECT":" ","MAREA":" ","LANE":" ","ALLEY":" ","HOUSE_NO":"５０號","E_COORD97":160637.55890199999,"N_COORD97":2548706.04898,"ADDRESS":"媽祖宮一街５０號","OBJECTID":279565},"geometry":{"x":160637.55890200008,"y":2548706.0489780027}},{"attributes":{"ID":279572,"DIS_CODE":0,"TOWNNAME":"安南區","LI":"顯宮里","LIN":"2鄰","STREET":"媽祖宮路","SECT":" ","MAREA":" ","LANE":" ","ALLEY":" ","HOUSE_NO":"７１號","E_COORD97":160709.20000000001,"N_COORD97":2548875,"ADDRESS":"媽祖宮路７１號","OBJECTID":279566},"geometry":{"x":160709.20000000205,"y":2548875}},{"attributes":{"ID":279573,"DIS_CODE":0,"TOWNNAME":"永康區","LI":"安康里","LIN":"6鄰","STREET":"中華路","SECT":" ","MAREA":" ","LANE":"７２７巷","ALLEY":" ","HOUSE_NO":"８２號","E_COORD97":170663.64999999999,"N_COORD97":2546330.75,"ADDRESS":"中華路７２７巷８２號","OBJECTID":279567},"geometry":{"x":170663.65000000037,"y":2546330.75}},{"attributes":{"ID":279574,"DIS_CODE":0,"TOWNNAME":"南區","LI":"新昌里","LIN":"6鄰","STREET":"五妃街","SECT":" ","MAREA":" ","LANE":"３８６巷","ALLEY":" ","HOUSE_NO":"２０號","E_COORD97":167601.64000000001,"N_COORD97":2542657.8500000001,"ADDRESS":"五妃街３８６巷２０號","OBJECTID":279568},"geometry":{"x":167601.63999999873,"y":2542657.8499999996}},{"attributes":{"ID":279575,"DIS_CODE":0,"TOWNNAME":"南區","LI":"新昌里","LIN":"6鄰","STREET":"五妃街","SECT":" ","MAREA":" ","LANE":"３８６巷","ALLEY":" ","HOUSE_NO":"２２號","E_COORD97":167601.95999999999,"N_COORD97":2542662.3900000001,"ADDRESS":"五妃街３８６巷２２號","OBJECTID":279569},"geometry":{"x":167601.96000000089,"y":2542662.3900000006}},{"attributes":{"ID":279576,"DIS_CODE":0,"TOWNNAME":"南區","LI":"大成里","LIN":"6鄰","STREET":"健康路","SECT":"一段","MAREA":" ","LANE":"３９１巷","ALLEY":" ","HOUSE_NO":"１４號","E_COORD97":167932.45000000001,"N_COORD97":2542390.4399999999,"ADDRESS":"健康路一段３９１巷１４號","OBJECTID":279570},"geometry":{"x":167932.45000000205,"y":2542390.4400000013}},{"attributes":{"ID":279577,"DIS_CODE":0,"TOWNNAME":"南區","LI":"大成里","LIN":"6鄰","STREET":"健康路","SECT":"一段","MAREA":" ","LANE":"３９１巷","ALLEY":" ","HOUSE_NO":"１７號","E_COORD97":167963.85999999999,"N_COORD97":2542393.0499999998,"ADDRESS":"健康路一段３９１巷１７號","OBJECTID":279571},"geometry":{"x":167963.86000000127,"y":2542393.0500000007}},{"attributes":{"ID":279578,"DIS_CODE":0,"TOWNNAME":"南區","LI":"大成里","LIN":"6鄰","STREET":"健康路","SECT":"一段","MAREA":" ","LANE":"３９１巷","ALLEY":" ","HOUSE_NO":"１９號","E_COORD97":167973.01999999999,"N_COORD97":2542383.48,"ADDRESS":"健康路一段３９１巷１９號","OBJECTID":279572},"geometry":{"x":167973.01999999955,"y":2542383.4800000004}},{"attributes":{"ID":279579,"DIS_CODE":0,"TOWNNAME":"新營區","LI":"民榮里","LIN":"6鄰","STREET":"復興路","SECT":" ","MAREA":" ","LANE":"１３５巷","ALLEY":" ","HOUSE_NO":"７號","E_COORD97":179336.84,"N_COORD97":2577930.21,"ADDRESS":"復興路１３５巷７號","OBJECTID":279573},"geometry":{"x":179336.84000000078,"y":2577930.2100000009}},{"attributes":{"ID":279580,"DIS_CODE":0,"TOWNNAME":"新營區","LI":"新北里","LIN":"6鄰","STREET":"三興街","SECT":" ","MAREA":" ","LANE":"１７３巷","ALLEY":" ","HOUSE_NO":"８號","E_COORD97":179332.47,"N_COORD97":2579579.2400000002,"ADDRESS":"三興街１７３巷８號","OBJECTID":279574},"geometry":{"x":179332.47000000067,"y":2579579.2400000021}},{"attributes":{"ID":279581,"DIS_CODE":0,"TOWNNAME":"新營區","LI":"民榮里","LIN":"6鄰","STREET":"和平路","SECT":" ","MAREA":" ","LANE":"３２巷","ALLEY":" ","HOUSE_NO":"１２號","E_COORD97":179377.63,"N_COORD97":2577863.5800000001,"ADDRESS":"和平路３２巷１２號","OBJECTID":279575},"geometry":{"x":179377.63000000082,"y":2577863.5800000019}},{"attributes":{"ID":279582,"DIS_CODE":0,"TOWNNAME":"新營區","LI":"新東里","LIN":"6鄰","STREET":"東大街","SECT":" ","MAREA":" ","LANE":"６６巷","ALLEY":" ","HOUSE_NO":"４０號","E_COORD97":181119.72,"N_COORD97":2579183.21,"ADDRESS":"東大街６６巷４０號","OBJECTID":279576},"geometry":{"x":181119.71999999974,"y":2579183.2100000028}},{"attributes":{"ID":279583,"DIS_CODE":0,"TOWNNAME":"安平區","LI":"華平里","LIN":"6鄰","STREET":"怡平路","SECT":" ","MAREA":" ","LANE":"４１０巷","ALLEY":" ","HOUSE_NO":"１１１號","E_COORD97":165426.67999999999,"N_COORD97":2544105.7599999998,"ADDRESS":"怡平路４１０巷１１１號","OBJECTID":279577},"geometry":{"x":165426.68000000156,"y":2544105.7599999998}},{"attributes":{"ID":279584,"DIS_CODE":0,"TOWNNAME":"安平區","LI":"國平里","LIN":"6鄰","STREET":"文平路","SECT":" ","MAREA":" ","LANE":"１８７巷","ALLEY":" ","HOUSE_NO":"３６號","E_COORD97":165593.42999999999,"N_COORD97":2543079.3399999999,"ADDRESS":"文平路１８７巷３６號","OBJECTID":279578},"geometry":{"x":165593.43000000063,"y":2543079.3400000036}},{"attributes":{"ID":279585,"DIS_CODE":0,"TOWNNAME":"安平區","LI":"文平里","LIN":"6鄰","STREET":"建平六街","SECT":" ","MAREA":" ","LANE":"７４巷","ALLEY":" ","HOUSE_NO":"１號","E_COORD97":166310.47,"N_COORD97":2543129.29,"ADDRESS":"建平六街７４巷１號","OBJECTID":279579},"geometry":{"x":166310.46999999974,"y":2543129.2899999991}},{"attributes":{"ID":279586,"DIS_CODE":0,"TOWNNAME":"安平區","LI":"文平里","LIN":"6鄰","STREET":"建平六街","SECT":" ","MAREA":" ","LANE":"７４巷","ALLEY":" ","HOUSE_NO":"１號之１","E_COORD97":166305.29000000001,"N_COORD97":2543114.9100000001,"ADDRESS":"建平六街７４巷１號之１","OBJECTID":279580},"geometry":{"x":166305.29000000004,"y":2543114.9100000001}},{"attributes":{"ID":279587,"DIS_CODE":0,"TOWNNAME":"安平區","LI":"文平里","LIN":"6鄰","STREET":"建平六街","SECT":" ","MAREA":" ","LANE":"７４巷","ALLEY":" ","HOUSE_NO":"３號","E_COORD97":166310.95000000001,"N_COORD97":2543133.4100000001,"ADDRESS":"建平六街７４巷３號","OBJECTID":279581},"geometry":{"x":166310.95000000112,"y":2543133.4100000039}},{"attributes":{"ID":279588,"DIS_CODE":0,"TOWNNAME":"安平區","LI":"文平里","LIN":"6鄰","STREET":"建平六街","SECT":" ","MAREA":" ","LANE":"７４巷","ALLEY":" ","HOUSE_NO":"５號","E_COORD97":166311.82000000001,"N_COORD97":2543137.9100000001,"ADDRESS":"建平六街７４巷５號","OBJECTID":279582},"geometry":{"x":166311.82000000123,"y":2543137.910000002}},{"attributes":{"ID":279589,"DIS_CODE":0,"TOWNNAME":"安平區","LI":"文平里","LIN":"6鄰","STREET":"建平六街","SECT":" ","MAREA":" ","LANE":"７４巷","ALLEY":" ","HOUSE_NO":"７號","E_COORD97":166312.20000000001,"N_COORD97":2543142.1200000001,"ADDRESS":"建平六街７４巷７號","OBJECTID":279583},"geometry":{"x":166312.20000000112,"y":2543142.120000001}},{"attributes":{"ID":279590,"DIS_CODE":0,"TOWNNAME":"安平區","LI":"文平里","LIN":"6鄰","STREET":"建平六街","SECT":" ","MAREA":" ","LANE":"７４巷","ALLEY":" ","HOUSE_NO":"９號","E_COORD97":166312.87,"N_COORD97":2543146.2400000002,"ADDRESS":"建平六街７４巷９號","OBJECTID":279584},"geometry":{"x":166312.87000000104,"y":2543146.2400000021}},{"attributes":{"ID":279591,"DIS_CODE":0,"TOWNNAME":"安平區","LI":"文平里","LIN":"6鄰","STREET":"建平六街","SECT":" ","MAREA":" ","LANE":"７４巷","ALLEY":" ","HOUSE_NO":"１１號","E_COORD97":166313.35000000001,"N_COORD97":2543151.1299999999,"ADDRESS":"建平六街７４巷１１號","OBJECTID":279585},"geometry":{"x":166313.34999999963,"y":2543151.1300000027}},{"attributes":{"ID":279592,"DIS_CODE":0,"TOWNNAME":"南區","LI":"新生里","LIN":"6鄰","STREET":"大同路","SECT":"二段","MAREA":" ","LANE":"１６４巷","ALLEY":" ","HOUSE_NO":"１號","E_COORD97":169322.97,"N_COORD97":2542022.6600000001,"ADDRESS":"大同路二段１６４巷１號","OBJECTID":279586},"geometry":{"x":169322.96999999974,"y":2542022.6600000001}},{"attributes":{"ID":279593,"DIS_CODE":0,"TOWNNAME":"南區","LI":"新生里","LIN":"6鄰","STREET":"大同路","SECT":"二段","MAREA":" ","LANE":"１６４巷","ALLEY":" ","HOUSE_NO":"３號","E_COORD97":169312.81,"N_COORD97":2542020.6000000001,"ADDRESS":"大同路二段１６４巷３號","OBJECTID":279587},"geometry":{"x":169312.81000000052,"y":2542020.6000000015}},{"attributes":{"ID":279594,"DIS_CODE":0,"TOWNNAME":"北區","LI":"光武里","LIN":"6鄰","STREET":"北門路","SECT":"二段","MAREA":" ","LANE":"５４７巷","ALLEY":" ","HOUSE_NO":"３２號","E_COORD97":169599.34,"N_COORD97":2545723.52,"ADDRESS":"北門路二段５４７巷３２號","OBJECTID":279588},"geometry":{"x":169599.34000000078,"y":2545723.5200000014}},{"attributes":{"ID":279595,"DIS_CODE":0,"TOWNNAME":"北區","LI":"光武里","LIN":"6鄰","STREET":"北門路","SECT":"二段","MAREA":" ","LANE":"５４７巷","ALLEY":" ","HOUSE_NO":"３６號","E_COORD97":169594.26000000001,"N_COORD97":2545725.4199999999,"ADDRESS":"北門路二段５４７巷３６號","OBJECTID":279589},"geometry":{"x":169594.25999999978,"y":2545725.4199999999}},{"attributes":{"ID":279596,"DIS_CODE":0,"TOWNNAME":"仁德區","LI":"新田里","LIN":"13鄰","STREET":"北保一街","SECT":" ","MAREA":" ","LANE":"１巷","ALLEY":" ","HOUSE_NO":"２號","E_COORD97":173277.07000000001,"N_COORD97":2539432.2400000002,"ADDRESS":"北保一街１巷２號","OBJECTID":279590},"geometry":{"x":173277.07000000123,"y":2539432.2400000039}},{"attributes":{"ID":279597,"DIS_CODE":0,"TOWNNAME":"東區","LI":"崇文里","LIN":"15鄰","STREET":"崇德十九街","SECT":" ","MAREA":" ","LANE":" ","ALLEY":" ","HOUSE_NO":"４６號","E_COORD97":170928,"N_COORD97":2540955.3599999999,"ADDRESS":"崇德十九街４６號","OBJECTID":279591},"geometry":{"x":170928.00000000093,"y":2540955.3599999994}},{"attributes":{"ID":279598,"DIS_CODE":0,"TOWNNAME":"東區","LI":"崇文里","LIN":"15鄰","STREET":"崇德十九街","SECT":" ","MAREA":" ","LANE":" ","ALLEY":" ","HOUSE_NO":"４８號","E_COORD97":170932.38,"N_COORD97":2540955.5600000001,"ADDRESS":"崇德十九街４８號","OBJECTID":279592},"geometry":{"x":170932.37999999989,"y":2540955.5600000005}},{"attributes":{"ID":279599,"DIS_CODE":0,"TOWNNAME":"東區","LI":"崇成里","LIN":"15鄰","STREET":"崇明路","SECT":" ","MAREA":" ","LANE":" ","ALLEY":" ","HOUSE_NO":"５３７號","E_COORD97":170625.70999999999,"N_COORD97":2541332.2599999998,"ADDRESS":"崇明路５３７號","OBJECTID":279593},"geometry":{"x":170625.70999999903,"y":2541332.2599999998}},{"attributes":{"ID":279600,"DIS_CODE":0,"TOWNNAME":"東區","LI":"崇成里","LIN":"15鄰","STREET":"崇明路","SECT":" ","MAREA":" ","LANE":" ","ALLEY":" ","HOUSE_NO":"５３９號","E_COORD97":170625.45999999999,"N_COORD97":2541328.0099999998,"ADDRESS":"崇明路５３９號","OBJECTID":279594},"geometry":{"x":170625.45999999996,"y":2541328.0099999998}},{"attributes":{"ID":279601,"DIS_CODE":0,"TOWNNAME":"東區","LI":"崇成里","LIN":"15鄰","STREET":"崇明路","SECT":" ","MAREA":" ","LANE":" ","ALLEY":" ","HOUSE_NO":"５４１號","E_COORD97":170616.45000000001,"N_COORD97":2541323.5699999998,"ADDRESS":"崇明路５４１號","OBJECTID":279595},"geometry":{"x":170616.45000000112,"y":2541323.5700000022}},{"attributes":{"ID":279602,"DIS_CODE":0,"TOWNNAME":"佳里區","LI":"安西里","LIN":"15鄰","STREET":"和平街","SECT":" ","MAREA":" ","LANE":" ","ALLEY":" ","HOUSE_NO":"２４２號","E_COORD97":165368.67999999999,"N_COORD97":2562491.6499999999,"ADDRESS":"和平街２４２號","OBJECTID":279596},"geometry":{"x":165368.6799999997,"y":2562491.6500000022}},{"attributes":{"ID":279603,"DIS_CODE":0,"TOWNNAME":"佳里區","LI":"安西里","LIN":"15鄰","STREET":"和平街","SECT":" ","MAREA":" ","LANE":" ","ALLEY":" ","HOUSE_NO":"２５２號","E_COORD97":165353.64999999999,"N_COORD97":2562490.4100000001,"ADDRESS":"和平街２５２號","OBJECTID":279597},"geometry":{"x":165353.6500000013,"y":2562490.410000002}},{"attributes":{"ID":279604,"DIS_CODE":0,"TOWNNAME":"佳里區","LI":"安西里","LIN":"15鄰","STREET":"和平街","SECT":" ","MAREA":" ","LANE":" ","ALLEY":" ","HOUSE_NO":"２５６號","E_COORD97":165349.32999999999,"N_COORD97":2562490.3500000001,"ADDRESS":"和平街２５６號","OBJECTID":279598},"geometry":{"x":165349.33000000007,"y":2562490.3500000015}},{"attributes":{"ID":279605,"DIS_CODE":0,"TOWNNAME":"佳里區","LI":"安西里","LIN":"15鄰","STREET":"和平街","SECT":" ","MAREA":" ","LANE":" ","ALLEY":" ","HOUSE_NO":"２５８號之１","E_COORD97":165347.23999999999,"N_COORD97":2562504.6200000001,"ADDRESS":"和平街２５８號之１","OBJECTID":279599},"geometry":{"x":165347.24000000115,"y":2562504.620000001}},{"attributes":{"ID":279606,"DIS_CODE":0,"TOWNNAME":"佳里區","LI":"安西里","LIN":"15鄰","STREET":"和平街","SECT":" ","MAREA":" ","LANE":" ","ALLEY":" ","HOUSE_NO":"２５８號之２","E_COORD97":165347.26000000001,"N_COORD97":2562509.3199999998,"ADDRESS":"和平街２５８號之２","OBJECTID":279600},"geometry":{"x":165347.26000000071,"y":2562509.3200000003}}]}