{"displayFieldName":"TOWNNAME","fieldAliases":{"ID":"ID","DIS_CODE":"DIS_CODE","TOWNNAME":"TOWNNAME","LI":"LI","LIN":"LIN","STREET":"STREET","SECT":"SECT","MAREA":"MAREA","LANE":"LANE","ALLEY":"ALLEY","HOUSE_NO":"HOUSE_NO","E_COORD97":"E_COORD97","N_COORD97":"N_COORD97","ADDRESS":"ADDRESS","OBJECTID":"OBJECTID"},"geometryType":"esriGeometryPoint","spatialReference":{"wkid":102443,"latestWkid":3826},"fields":[{"name":"ID","type":"esriFieldTypeDouble","alias":"ID"},{"name":"DIS_CODE","type":"esriFieldTypeInteger","alias":"DIS_CODE"},{"name":"TOWNNAME","type":"esriFieldTypeString","alias":"TOWNNAME","length":8},{"name":"LI","type":"esriFieldTypeString","alias":"LI","length":8},{"name":"LIN","type":"esriFieldTypeString","alias":"LIN","length":12},{"name":"STREET","type":"esriFieldTypeString","alias":"STREET","length":20},{"name":"SECT","type":"esriFieldTypeString","alias":"SECT","length":8},{"name":"MAREA","type":"esriFieldTypeString","alias":"MAREA","length":12},{"name":"LANE","type":"esriFieldTypeString","alias":"LANE","length":10},{"name":"ALLEY","type":"esriFieldTypeString","alias":"ALLEY","length":10},{"name":"HOUSE_NO","type":"esriFieldTypeString","alias":"HOUSE_NO","length":20},{"name":"E_COORD97","type":"esriFieldTypeDouble","alias":"E_COORD97"},{"name":"N_COORD97","type":"esriFieldTypeDouble","alias":"N_COORD97"},{"name":"ADDRESS","type":"esriFieldTypeString","alias":"ADDRESS","length":50},{"name":"OBJECTID","type":"esriFieldTypeOID","alias":"OBJECTID"}],"features":[{"attributes":{"ID":393825,"DIS_CODE":0,"TOWNNAME":"北區","LI":"實踐里","LIN":"16鄰","STREET":"長榮路","SECT":"五段","MAREA":" ","LANE":"３９４巷","ALLEY":" ","HOUSE_NO":"１６號","E_COORD97":169526.76000000001,"N_COORD97":2546008.0099999998,"ADDRESS":"長榮路五段３９４巷１６號","OBJECTID":393801},"geometry":{"x":169526.76000000164,"y":2546008.0100000016}},{"attributes":{"ID":393826,"DIS_CODE":0,"TOWNNAME":"北區","LI":"實踐里","LIN":"16鄰","STREET":"長榮路","SECT":"五段","MAREA":" ","LANE":"３９４巷","ALLEY":" ","HOUSE_NO":"１６號之１","E_COORD97":169535.81,"N_COORD97":2546014.2999999998,"ADDRESS":"長榮路五段３９４巷１６號之１","OBJECTID":393802},"geometry":{"x":169535.80999999959,"y":2546014.3000000026}},{"attributes":{"ID":393827,"DIS_CODE":0,"TOWNNAME":"北區","LI":"實踐里","LIN":"16鄰","STREET":"長榮路","SECT":"五段","MAREA":" ","LANE":"３９４巷","ALLEY":" ","HOUSE_NO":"１７號","E_COORD97":169516.17999999999,"N_COORD97":2546022.4199999999,"ADDRESS":"長榮路五段３９４巷１７號","OBJECTID":393803},"geometry":{"x":169516.18000000063,"y":2546022.4200000018}},{"attributes":{"ID":393828,"DIS_CODE":0,"TOWNNAME":"北區","LI":"實踐里","LIN":"16鄰","STREET":"長榮路","SECT":"五段","MAREA":" ","LANE":"３９４巷","ALLEY":" ","HOUSE_NO":"１８號","E_COORD97":169529.01999999999,"N_COORD97":2546015.5699999998,"ADDRESS":"長榮路五段３９４巷１８號","OBJECTID":393804},"geometry":{"x":169529.01999999955,"y":2546015.5700000022}},{"attributes":{"ID":393829,"DIS_CODE":0,"TOWNNAME":"歸仁區","LI":"大廟里","LIN":"16鄰","STREET":"大廟六街","SECT":" ","MAREA":" ","LANE":"３５巷","ALLEY":" ","HOUSE_NO":"１１號","E_COORD97":176059.92999999999,"N_COORD97":2544285.0899999999,"ADDRESS":"大廟六街３５巷１１號","OBJECTID":393805},"geometry":{"x":176059.9299999997,"y":2544285.0900000017}},{"attributes":{"ID":393830,"DIS_CODE":0,"TOWNNAME":"歸仁區","LI":"大潭里","LIN":"16鄰","STREET":"大潭二街","SECT":" ","MAREA":" ","LANE":"３０巷","ALLEY":" ","HOUSE_NO":"２之１號","E_COORD97":175035.56,"N_COORD97":2534691.2999999998,"ADDRESS":"大潭二街３０巷２之１號","OBJECTID":393806},"geometry":{"x":175035.56000000145,"y":2534691.3000000007}},{"attributes":{"ID":393831,"DIS_CODE":0,"TOWNNAME":"北區","LI":"華興里","LIN":"16鄰","STREET":"南園街","SECT":" ","MAREA":" ","LANE":"１２７巷","ALLEY":" ","HOUSE_NO":"７號","E_COORD97":170658.16,"N_COORD97":2545292.8700000001,"ADDRESS":"南園街１２７巷７號","OBJECTID":393807},"geometry":{"x":170658.16000000015,"y":2545292.870000001}},{"attributes":{"ID":393832,"DIS_CODE":0,"TOWNNAME":"北區","LI":"華興里","LIN":"16鄰","STREET":"南園街","SECT":" ","MAREA":" ","LANE":"１２７巷","ALLEY":" ","HOUSE_NO":"９號","E_COORD97":170662.17999999999,"N_COORD97":2545292.0800000001,"ADDRESS":"南園街１２７巷９號","OBJECTID":393808},"geometry":{"x":170662.1799999997,"y":2545292.0800000019}},{"attributes":{"ID":393833,"DIS_CODE":0,"TOWNNAME":"六甲區","LI":"甲東里","LIN":"16鄰","STREET":"裕農街","SECT":" ","MAREA":" ","LANE":"２９巷","ALLEY":" ","HOUSE_NO":"１號","E_COORD97":184047.48000000001,"N_COORD97":2569704.5800000001,"ADDRESS":"裕農街２９巷１號","OBJECTID":393809},"geometry":{"x":184047.48000000138,"y":2569704.5800000001}},{"attributes":{"ID":393834,"DIS_CODE":0,"TOWNNAME":"六甲區","LI":"甲東里","LIN":"16鄰","STREET":"裕農街","SECT":" ","MAREA":" ","LANE":"２９巷","ALLEY":" ","HOUSE_NO":"２號","E_COORD97":184064.32999999999,"N_COORD97":2569718.5899999999,"ADDRESS":"裕農街２９巷２號","OBJECTID":393810},"geometry":{"x":184064.33000000007,"y":2569718.5899999999}},{"attributes":{"ID":393835,"DIS_CODE":0,"TOWNNAME":"六甲區","LI":"甲東里","LIN":"16鄰","STREET":"裕農街","SECT":" ","MAREA":" ","LANE":"２９巷","ALLEY":" ","HOUSE_NO":"３號","E_COORD97":184030.5,"N_COORD97":2569708.5899999999,"ADDRESS":"裕農街２９巷３號","OBJECTID":393811},"geometry":{"x":184030.5,"y":2569708.5899999999}},{"attributes":{"ID":393836,"DIS_CODE":0,"TOWNNAME":"六甲區","LI":"甲東里","LIN":"16鄰","STREET":"裕農街","SECT":" ","MAREA":" ","LANE":"２９巷","ALLEY":" ","HOUSE_NO":"４號","E_COORD97":184051.98000000001,"N_COORD97":2569733.48,"ADDRESS":"裕農街２９巷４號","OBJECTID":393812},"geometry":{"x":184051.97999999952,"y":2569733.4800000004}},{"attributes":{"ID":393837,"DIS_CODE":0,"TOWNNAME":"六甲區","LI":"甲東里","LIN":"16鄰","STREET":"裕農街","SECT":" ","MAREA":" ","LANE":"２９巷","ALLEY":" ","HOUSE_NO":"６號","E_COORD97":184029.89000000001,"N_COORD97":2569743.7799999998,"ADDRESS":"裕農街２９巷６號","OBJECTID":393813},"geometry":{"x":184029.89000000153,"y":2569743.7799999993}},{"attributes":{"ID":393838,"DIS_CODE":0,"TOWNNAME":"六甲區","LI":"甲東里","LIN":"16鄰","STREET":"裕農街","SECT":" ","MAREA":" ","LANE":"２９巷","ALLEY":" ","HOUSE_NO":"８號","E_COORD97":184029.06,"N_COORD97":2569756.0899999999,"ADDRESS":"裕農街２９巷８號","OBJECTID":393814},"geometry":{"x":184029.06000000052,"y":2569756.0899999999}},{"attributes":{"ID":393839,"DIS_CODE":0,"TOWNNAME":"關廟區","LI":"北花里","LIN":"16鄰","STREET":"中正路","SECT":" ","MAREA":" ","LANE":"２１８巷","ALLEY":" ","HOUSE_NO":"２號","E_COORD97":183267.45999999999,"N_COORD97":2540919.25,"ADDRESS":"中正路２１８巷２號","OBJECTID":393815},"geometry":{"x":183267.46000000089,"y":2540919.25}},{"attributes":{"ID":393840,"DIS_CODE":0,"TOWNNAME":"關廟區","LI":"五甲里","LIN":"16鄰","STREET":"光復街","SECT":" ","MAREA":" ","LANE":"９３巷","ALLEY":" ","HOUSE_NO":"２號","E_COORD97":181497.89000000001,"N_COORD97":2539375.2799999998,"ADDRESS":"光復街９３巷２號","OBJECTID":393816},"geometry":{"x":181497.8900000006,"y":2539375.2799999993}},{"attributes":{"ID":393841,"DIS_CODE":0,"TOWNNAME":"關廟區","LI":"五甲里","LIN":"16鄰","STREET":"光復街","SECT":" ","MAREA":" ","LANE":"９３巷","ALLEY":" ","HOUSE_NO":"１２號","E_COORD97":181450.04000000001,"N_COORD97":2539397.2799999998,"ADDRESS":"光復街９３巷１２號","OBJECTID":393817},"geometry":{"x":181450.04000000004,"y":2539397.2800000031}},{"attributes":{"ID":393842,"DIS_CODE":0,"TOWNNAME":"關廟區","LI":"松腳里","LIN":"16鄰","STREET":"民族街","SECT":" ","MAREA":" ","LANE":"１６巷","ALLEY":" ","HOUSE_NO":"１８號","E_COORD97":181641.09,"N_COORD97":2539813.29,"ADDRESS":"民族街１６巷１８號","OBJECTID":393818},"geometry":{"x":181641.08999999985,"y":2539813.2899999991}},{"attributes":{"ID":393843,"DIS_CODE":0,"TOWNNAME":"關廟區","LI":"五甲里","LIN":"16鄰","STREET":"光復街","SECT":" ","MAREA":" ","LANE":"９３巷","ALLEY":" ","HOUSE_NO":"７號","E_COORD97":181472.19,"N_COORD97":2539386.2799999998,"ADDRESS":"光復街９３巷７號","OBJECTID":393819},"geometry":{"x":181472.19000000227,"y":2539386.2799999993}},{"attributes":{"ID":393844,"DIS_CODE":0,"TOWNNAME":"關廟區","LI":"松腳里","LIN":"16鄰","STREET":"民族街","SECT":" ","MAREA":" ","LANE":"１６巷","ALLEY":" ","HOUSE_NO":"８號","E_COORD97":181639.14000000001,"N_COORD97":2539797.29,"ADDRESS":"民族街１６巷８號","OBJECTID":393820},"geometry":{"x":181639.13999999966,"y":2539797.290000001}},{"attributes":{"ID":393845,"DIS_CODE":0,"TOWNNAME":"北區","LI":"中樓里","LIN":"16鄰","STREET":"東豐路","SECT":" ","MAREA":" ","LANE":"１４３巷","ALLEY":" ","HOUSE_NO":"３號","E_COORD97":169825.66,"N_COORD97":2544929.6899999999,"ADDRESS":"東豐路１４３巷３號","OBJECTID":393821},"geometry":{"x":169825.66000000015,"y":2544929.6899999995}},{"attributes":{"ID":393846,"DIS_CODE":0,"TOWNNAME":"北區","LI":"中樓里","LIN":"16鄰","STREET":"東豐路","SECT":" ","MAREA":" ","LANE":"１４３巷","ALLEY":" ","HOUSE_NO":"３１號","E_COORD97":169838.81,"N_COORD97":2545015.5899999999,"ADDRESS":"東豐路１４３巷３１號","OBJECTID":393822},"geometry":{"x":169838.81000000052,"y":2545015.5899999999}},{"attributes":{"ID":393847,"DIS_CODE":0,"TOWNNAME":"東區","LI":"東明里","LIN":"20鄰","STREET":"東安路","SECT":" ","MAREA":" ","LANE":"４８巷","ALLEY":" ","HOUSE_NO":"３號","E_COORD97":170712.16,"N_COORD97":2543613.71,"ADDRESS":"東安路４８巷３號","OBJECTID":393823},"geometry":{"x":170712.16000000015,"y":2543613.7100000046}},{"attributes":{"ID":393848,"DIS_CODE":0,"TOWNNAME":"東區","LI":"東明里","LIN":"20鄰","STREET":"東安路","SECT":" ","MAREA":" ","LANE":"４８巷","ALLEY":" ","HOUSE_NO":"５號","E_COORD97":170716.12,"N_COORD97":2543613.1699999999,"ADDRESS":"東安路４８巷５號","OBJECTID":393824},"geometry":{"x":170716.12000000011,"y":2543613.1700000018}},{"attributes":{"ID":393849,"DIS_CODE":0,"TOWNNAME":"東區","LI":"東明里","LIN":"20鄰","STREET":"東安路","SECT":" ","MAREA":" ","LANE":"４８巷","ALLEY":" ","HOUSE_NO":"１９號","E_COORD97":170723.73999999999,"N_COORD97":2543612.2400000002,"ADDRESS":"東安路４８巷１９號","OBJECTID":393825},"geometry":{"x":170723.74000000022,"y":2543612.2400000002}},{"attributes":{"ID":393850,"DIS_CODE":0,"TOWNNAME":"東區","LI":"東明里","LIN":"20鄰","STREET":"東安路","SECT":" ","MAREA":" ","LANE":"４８巷","ALLEY":" ","HOUSE_NO":"２１號","E_COORD97":170727.54999999999,"N_COORD97":2543611.2999999998,"ADDRESS":"東安路４８巷２１號","OBJECTID":393826},"geometry":{"x":170727.55000000075,"y":2543611.3000000007}},{"attributes":{"ID":393851,"DIS_CODE":0,"TOWNNAME":"東區","LI":"東明里","LIN":"20鄰","STREET":"東安路","SECT":" ","MAREA":" ","LANE":"４８巷","ALLEY":" ","HOUSE_NO":"２３號","E_COORD97":170731.29000000001,"N_COORD97":2543610.3700000001,"ADDRESS":"東安路４８巷２３號","OBJECTID":393827},"geometry":{"x":170731.29000000004,"y":2543610.3700000029}},{"attributes":{"ID":393852,"DIS_CODE":0,"TOWNNAME":"東區","LI":"東明里","LIN":"20鄰","STREET":"東安路","SECT":" ","MAREA":" ","LANE":"４８巷","ALLEY":" ","HOUSE_NO":"２５號","E_COORD97":170734.97,"N_COORD97":2543609.4300000002,"ADDRESS":"東安路４８巷２５號","OBJECTID":393828},"geometry":{"x":170734.96999999974,"y":2543609.4299999997}},{"attributes":{"ID":393853,"DIS_CODE":0,"TOWNNAME":"東區","LI":"東明里","LIN":"20鄰","STREET":"東安路","SECT":" ","MAREA":" ","LANE":"４８巷","ALLEY":" ","HOUSE_NO":"１１號","E_COORD97":170724,"N_COORD97":2543639.4199999999,"ADDRESS":"東安路４８巷１１號","OBJECTID":393829},"geometry":{"x":170724.00000000186,"y":2543639.4200000018}},{"attributes":{"ID":393854,"DIS_CODE":0,"TOWNNAME":"北區","LI":"中樓里","LIN":"16鄰","STREET":"東豐路","SECT":" ","MAREA":" ","LANE":"８５巷","ALLEY":" ","HOUSE_NO":"７６號","E_COORD97":169854.20000000001,"N_COORD97":2545032.02,"ADDRESS":"東豐路８５巷７６號","OBJECTID":393830},"geometry":{"x":169854.20000000019,"y":2545032.0200000014}},{"attributes":{"ID":393855,"DIS_CODE":0,"TOWNNAME":"北區","LI":"文元里","LIN":"16鄰","STREET":"文賢路","SECT":" ","MAREA":" ","LANE":"１０８０巷","ALLEY":" ","HOUSE_NO":"２８號","E_COORD97":167460.29000000001,"N_COORD97":2546212.4300000002,"ADDRESS":"文賢路１０８０巷２８號","OBJECTID":393831},"geometry":{"x":167460.28999999911,"y":2546212.4300000016}},{"attributes":{"ID":393856,"DIS_CODE":0,"TOWNNAME":"北區","LI":"正覺里","LIN":"16鄰","STREET":"正覺街","SECT":" ","MAREA":" ","LANE":"６６巷","ALLEY":" ","HOUSE_NO":"１８號","E_COORD97":169358.48000000001,"N_COORD97":2546422.7599999998,"ADDRESS":"正覺街６６巷１８號","OBJECTID":393832},"geometry":{"x":169358.48000000138,"y":2546422.7600000035}},{"attributes":{"ID":393857,"DIS_CODE":0,"TOWNNAME":"北區","LI":"實踐里","LIN":"16鄰","STREET":"長榮路","SECT":"五段","MAREA":" ","LANE":"３９４巷","ALLEY":" ","HOUSE_NO":"６號","E_COORD97":169518.82999999999,"N_COORD97":2545988.0800000001,"ADDRESS":"長榮路五段３９４巷６號","OBJECTID":393833},"geometry":{"x":169518.83000000101,"y":2545988.0800000019}},{"attributes":{"ID":393858,"DIS_CODE":0,"TOWNNAME":"安平區","LI":"海頭里","LIN":"16鄰","STREET":"古堡街","SECT":" ","MAREA":" ","LANE":"７６巷","ALLEY":" ","HOUSE_NO":"１１號","E_COORD97":163966,"N_COORD97":2544989.7999999998,"ADDRESS":"古堡街７６巷１１號","OBJECTID":393834},"geometry":{"x":163966.00000000093,"y":2544989.8000000026}},{"attributes":{"ID":393859,"DIS_CODE":0,"TOWNNAME":"安平區","LI":"海頭里","LIN":"16鄰","STREET":"古堡街","SECT":" ","MAREA":" ","LANE":"７６巷","ALLEY":" ","HOUSE_NO":"１號","E_COORD97":163966.63,"N_COORD97":2544929.52,"ADDRESS":"古堡街７６巷１號","OBJECTID":393835},"geometry":{"x":163966.63000000082,"y":2544929.5200000014}},{"attributes":{"ID":393860,"DIS_CODE":0,"TOWNNAME":"安平區","LI":"海頭里","LIN":"16鄰","STREET":"古堡街","SECT":" ","MAREA":" ","LANE":"７６巷","ALLEY":" ","HOUSE_NO":"３號","E_COORD97":163963.67000000001,"N_COORD97":2544940.7000000002,"ADDRESS":"古堡街７６巷３號","OBJECTID":393836},"geometry":{"x":163963.66999999993,"y":2544940.6999999974}},{"attributes":{"ID":393861,"DIS_CODE":0,"TOWNNAME":"安平區","LI":"海頭里","LIN":"16鄰","STREET":"古堡街","SECT":" ","MAREA":" ","LANE":"７６巷","ALLEY":" ","HOUSE_NO":"５號","E_COORD97":163961.95000000001,"N_COORD97":2544949.5899999999,"ADDRESS":"古堡街７６巷５號","OBJECTID":393837},"geometry":{"x":163961.95000000019,"y":2544949.5900000017}},{"attributes":{"ID":393862,"DIS_CODE":0,"TOWNNAME":"安平區","LI":"海頭里","LIN":"16鄰","STREET":"古堡街","SECT":" ","MAREA":" ","LANE":"７６巷","ALLEY":" ","HOUSE_NO":"７號","E_COORD97":163960.14999999999,"N_COORD97":2544965.4300000002,"ADDRESS":"古堡街７６巷７號","OBJECTID":393838},"geometry":{"x":163960.1500000013,"y":2544965.4299999997}},{"attributes":{"ID":393863,"DIS_CODE":0,"TOWNNAME":"安平區","LI":"海頭里","LIN":"16鄰","STREET":"古堡街","SECT":" ","MAREA":" ","LANE":"７６巷","ALLEY":" ","HOUSE_NO":"９號","E_COORD97":163956.54999999999,"N_COORD97":2544978.8300000001,"ADDRESS":"古堡街７６巷９號","OBJECTID":393839},"geometry":{"x":163956.55000000075,"y":2544978.8300000019}},{"attributes":{"ID":393864,"DIS_CODE":0,"TOWNNAME":"安平區","LI":"海頭里","LIN":"16鄰","STREET":"古堡街","SECT":" ","MAREA":" ","LANE":"９０巷","ALLEY":" ","HOUSE_NO":"１０號","E_COORD97":163952.67999999999,"N_COORD97":2544940.1400000001,"ADDRESS":"古堡街９０巷１０號","OBJECTID":393840},"geometry":{"x":163952.6799999997,"y":2544940.1400000025}},{"attributes":{"ID":393865,"DIS_CODE":0,"TOWNNAME":"安平區","LI":"海頭里","LIN":"16鄰","STREET":"古堡街","SECT":" ","MAREA":" ","LANE":"９０巷","ALLEY":" ","HOUSE_NO":"１１號","E_COORD97":163925.32000000001,"N_COORD97":2544939.8700000001,"ADDRESS":"古堡街９０巷１１號","OBJECTID":393841},"geometry":{"x":163925.3200000003,"y":2544939.8700000029}},{"attributes":{"ID":393866,"DIS_CODE":0,"TOWNNAME":"安平區","LI":"海頭里","LIN":"16鄰","STREET":"古堡街","SECT":" ","MAREA":" ","LANE":"９０巷","ALLEY":" ","HOUSE_NO":"１２號","E_COORD97":163951.32999999999,"N_COORD97":2544944.9199999999,"ADDRESS":"古堡街９０巷１２號","OBJECTID":393842},"geometry":{"x":163951.33000000101,"y":2544944.9200000018}},{"attributes":{"ID":393867,"DIS_CODE":0,"TOWNNAME":"安平區","LI":"海頭里","LIN":"16鄰","STREET":"古堡街","SECT":" ","MAREA":" ","LANE":"９０巷","ALLEY":" ","HOUSE_NO":"１３號","E_COORD97":163924.78,"N_COORD97":2544943.8199999998,"ADDRESS":"古堡街９０巷１３號","OBJECTID":393843},"geometry":{"x":163924.78000000119,"y":2544943.8200000003}},{"attributes":{"ID":393868,"DIS_CODE":0,"TOWNNAME":"安平區","LI":"海頭里","LIN":"16鄰","STREET":"古堡街","SECT":" ","MAREA":" ","LANE":"９０巷","ALLEY":" ","HOUSE_NO":"１４號","E_COORD97":163950.04000000001,"N_COORD97":2544947.8700000001,"ADDRESS":"古堡街９０巷１４號","OBJECTID":393844},"geometry":{"x":163950.04000000097,"y":2544947.870000001}},{"attributes":{"ID":393869,"DIS_CODE":0,"TOWNNAME":"安平區","LI":"海頭里","LIN":"16鄰","STREET":"古堡街","SECT":" ","MAREA":" ","LANE":"９０巷","ALLEY":" ","HOUSE_NO":"１５號","E_COORD97":163924.78,"N_COORD97":2544948.5899999999,"ADDRESS":"古堡街９０巷１５號","OBJECTID":393845},"geometry":{"x":163924.78000000119,"y":2544948.5899999999}},{"attributes":{"ID":393870,"DIS_CODE":0,"TOWNNAME":"安平區","LI":"海頭里","LIN":"16鄰","STREET":"古堡街","SECT":" ","MAREA":" ","LANE":"９０巷","ALLEY":" ","HOUSE_NO":"１６號","E_COORD97":163951.51000000001,"N_COORD97":2544952.02,"ADDRESS":"古堡街９０巷１６號","OBJECTID":393846},"geometry":{"x":163951.51000000071,"y":2544952.0199999996}},{"attributes":{"ID":393871,"DIS_CODE":0,"TOWNNAME":"安平區","LI":"海頭里","LIN":"16鄰","STREET":"古堡街","SECT":" ","MAREA":" ","LANE":"９０巷","ALLEY":" ","HOUSE_NO":"１７號","E_COORD97":163925.04999999999,"N_COORD97":2544951.7400000002,"ADDRESS":"古堡街９０巷１７號","OBJECTID":393847},"geometry":{"x":163925.04999999981,"y":2544951.7400000039}},{"attributes":{"ID":393872,"DIS_CODE":0,"TOWNNAME":"安平區","LI":"海頭里","LIN":"16鄰","STREET":"古堡街","SECT":" ","MAREA":" ","LANE":"９０巷","ALLEY":" ","HOUSE_NO":"１８號","E_COORD97":163950.51999999999,"N_COORD97":2544956.0699999998,"ADDRESS":"古堡街９０巷１８號","OBJECTID":393848},"geometry":{"x":163950.51999999955,"y":2544956.0700000003}},{"attributes":{"ID":393873,"DIS_CODE":0,"TOWNNAME":"安平區","LI":"海頭里","LIN":"16鄰","STREET":"古堡街","SECT":" ","MAREA":" ","LANE":"９０巷","ALLEY":" ","HOUSE_NO":"１９號","E_COORD97":163924.51000000001,"N_COORD97":2544955.8799999999,"ADDRESS":"古堡街９０巷１９號","OBJECTID":393849},"geometry":{"x":163924.51000000071,"y":2544955.879999999}},{"attributes":{"ID":393874,"DIS_CODE":0,"TOWNNAME":"安平區","LI":"海頭里","LIN":"16鄰","STREET":"古堡街","SECT":" ","MAREA":" ","LANE":"９０巷","ALLEY":" ","HOUSE_NO":"１號","E_COORD97":163927.41,"N_COORD97":2544921.02,"ADDRESS":"古堡街９０巷１號","OBJECTID":393850},"geometry":{"x":163927.41000000108,"y":2544921.0199999996}},{"attributes":{"ID":393875,"DIS_CODE":0,"TOWNNAME":"安平區","LI":"海頭里","LIN":"16鄰","STREET":"古堡街","SECT":" ","MAREA":" ","LANE":"９０巷","ALLEY":" ","HOUSE_NO":"２０號","E_COORD97":163949.53,"N_COORD97":2544959.3999999999,"ADDRESS":"古堡街９０巷２０號","OBJECTID":393851},"geometry":{"x":163949.53000000026,"y":2544959.4000000004}},{"attributes":{"ID":393876,"DIS_CODE":0,"TOWNNAME":"安平區","LI":"海頭里","LIN":"16鄰","STREET":"古堡街","SECT":" ","MAREA":" ","LANE":"９０巷","ALLEY":" ","HOUSE_NO":"２２號","E_COORD97":163947.45999999999,"N_COORD97":2544962.9100000001,"ADDRESS":"古堡街９０巷２２號","OBJECTID":393852},"geometry":{"x":163947.46000000089,"y":2544962.9100000001}},{"attributes":{"ID":393877,"DIS_CODE":0,"TOWNNAME":"安平區","LI":"海頭里","LIN":"16鄰","STREET":"古堡街","SECT":" ","MAREA":" ","LANE":"９０巷","ALLEY":" ","HOUSE_NO":"２３號","E_COORD97":163923.70000000001,"N_COORD97":2544963,"ADDRESS":"古堡街９０巷２３號","OBJECTID":393853},"geometry":{"x":163923.70000000112,"y":2544963}},{"attributes":{"ID":393878,"DIS_CODE":0,"TOWNNAME":"安平區","LI":"海頭里","LIN":"16鄰","STREET":"古堡街","SECT":" ","MAREA":" ","LANE":"９０巷","ALLEY":" ","HOUSE_NO":"２４號","E_COORD97":163946.47,"N_COORD97":2544966.6000000001,"ADDRESS":"古堡街９０巷２４號","OBJECTID":393854},"geometry":{"x":163946.4700000016,"y":2544966.6000000015}},{"attributes":{"ID":393879,"DIS_CODE":0,"TOWNNAME":"安平區","LI":"海頭里","LIN":"16鄰","STREET":"古堡街","SECT":" ","MAREA":" ","LANE":"９０巷","ALLEY":" ","HOUSE_NO":"２５號","E_COORD97":163923.88,"N_COORD97":2544966.1499999999,"ADDRESS":"古堡街９０巷２５號","OBJECTID":393855},"geometry":{"x":163923.88000000082,"y":2544966.1500000041}},{"attributes":{"ID":393880,"DIS_CODE":0,"TOWNNAME":"安平區","LI":"海頭里","LIN":"16鄰","STREET":"古堡街","SECT":" ","MAREA":" ","LANE":"９０巷","ALLEY":" ","HOUSE_NO":"２６號","E_COORD97":163946.38,"N_COORD97":2544969.7400000002,"ADDRESS":"古堡街９０巷２６號","OBJECTID":393856},"geometry":{"x":163946.37999999989,"y":2544969.7400000021}},{"attributes":{"ID":393881,"DIS_CODE":0,"TOWNNAME":"安平區","LI":"海頭里","LIN":"16鄰","STREET":"古堡街","SECT":" ","MAREA":" ","LANE":"９０巷","ALLEY":" ","HOUSE_NO":"２７號","E_COORD97":163923.25,"N_COORD97":2544970.3700000001,"ADDRESS":"古堡街９０巷２７號","OBJECTID":393857},"geometry":{"x":163923.25000000093,"y":2544970.3700000029}},{"attributes":{"ID":393882,"DIS_CODE":0,"TOWNNAME":"安平區","LI":"海頭里","LIN":"16鄰","STREET":"古堡街","SECT":" ","MAREA":" ","LANE":"９０巷","ALLEY":" ","HOUSE_NO":"２８號","E_COORD97":163944.85000000001,"N_COORD97":2544972.7999999998,"ADDRESS":"古堡街９０巷２８號","OBJECTID":393858},"geometry":{"x":163944.84999999963,"y":2544972.8000000026}},{"attributes":{"ID":393883,"DIS_CODE":0,"TOWNNAME":"安平區","LI":"海頭里","LIN":"16鄰","STREET":"古堡街","SECT":" ","MAREA":" ","LANE":"９０巷","ALLEY":" ","HOUSE_NO":"２９號","E_COORD97":163923.34,"N_COORD97":2544973.25,"ADDRESS":"古堡街９０巷２９號","OBJECTID":393859},"geometry":{"x":163923.33999999985,"y":2544973.2500000019}},{"attributes":{"ID":393884,"DIS_CODE":0,"TOWNNAME":"北區","LI":"長榮里","LIN":"16鄰","STREET":"開元路","SECT":" ","MAREA":" ","LANE":"２４９巷","ALLEY":" ","HOUSE_NO":"４２號","E_COORD97":169874.45000000001,"N_COORD97":2545532.1400000001,"ADDRESS":"開元路２４９巷４２號","OBJECTID":393860},"geometry":{"x":169874.45000000019,"y":2545532.1400000006}},{"attributes":{"ID":393885,"DIS_CODE":0,"TOWNNAME":"北區","LI":"長榮里","LIN":"16鄰","STREET":"開元路","SECT":" ","MAREA":" ","LANE":"２４９巷","ALLEY":" ","HOUSE_NO":"４６號","E_COORD97":169870.95999999999,"N_COORD97":2545535.3100000001,"ADDRESS":"開元路２４９巷４６號","OBJECTID":393861},"geometry":{"x":169870.95999999996,"y":2545535.3100000024}},{"attributes":{"ID":393886,"DIS_CODE":0,"TOWNNAME":"北區","LI":"長榮里","LIN":"16鄰","STREET":"開元路","SECT":" ","MAREA":" ","LANE":"２４９巷","ALLEY":" ","HOUSE_NO":"４８號","E_COORD97":169863.34,"N_COORD97":2545540.5499999998,"ADDRESS":"開元路２４９巷４８號","OBJECTID":393862},"geometry":{"x":169863.33999999985,"y":2545540.5500000026}},{"attributes":{"ID":393887,"DIS_CODE":0,"TOWNNAME":"北區","LI":"長榮里","LIN":"16鄰","STREET":"開元路","SECT":" ","MAREA":" ","LANE":"２４９巷","ALLEY":" ","HOUSE_NO":"５０號","E_COORD97":169860.64000000001,"N_COORD97":2545542.9300000002,"ADDRESS":"開元路２４９巷５０號","OBJECTID":393863},"geometry":{"x":169860.63999999966,"y":2545542.9299999997}},{"attributes":{"ID":393888,"DIS_CODE":0,"TOWNNAME":"北區","LI":"長榮里","LIN":"16鄰","STREET":"開元路","SECT":" ","MAREA":" ","LANE":"２４９巷","ALLEY":" ","HOUSE_NO":"５２號","E_COORD97":169857.94,"N_COORD97":2545545.4700000002,"ADDRESS":"開元路２４９巷５２號","OBJECTID":393864},"geometry":{"x":169857.94000000041,"y":2545545.4700000025}},{"attributes":{"ID":393889,"DIS_CODE":0,"TOWNNAME":"新營區","LI":"南興里","LIN":"16鄰","STREET":"興農街","SECT":" ","MAREA":" ","LANE":"１４０巷","ALLEY":" ","HOUSE_NO":"２之１號","E_COORD97":179244.45000000001,"N_COORD97":2577544.21,"ADDRESS":"興農街１４０巷２之１號","OBJECTID":393865},"geometry":{"x":179244.45000000205,"y":2577544.209999999}},{"attributes":{"ID":393890,"DIS_CODE":0,"TOWNNAME":"新營區","LI":"民榮里","LIN":"16鄰","STREET":"太子路","SECT":" ","MAREA":" ","LANE":"１９巷","ALLEY":" ","HOUSE_NO":"１２號","E_COORD97":178431.35000000001,"N_COORD97":2578055.2799999998,"ADDRESS":"太子路１９巷１２號","OBJECTID":393866},"geometry":{"x":178431.35000000056,"y":2578055.2800000012}},{"attributes":{"ID":393891,"DIS_CODE":0,"TOWNNAME":"新營區","LI":"新東里","LIN":"16鄰","STREET":"東泰九街","SECT":" ","MAREA":" ","LANE":"１６巷","ALLEY":" ","HOUSE_NO":"７號","E_COORD97":181051.89999999999,"N_COORD97":2579836.9100000001,"ADDRESS":"東泰九街１６巷７號","OBJECTID":393867},"geometry":{"x":181051.90000000037,"y":2579836.9100000001}},{"attributes":{"ID":393892,"DIS_CODE":0,"TOWNNAME":"新營區","LI":"忠政里","LIN":"16鄰","STREET":"府西路","SECT":" ","MAREA":" ","LANE":"２５９巷","ALLEY":" ","HOUSE_NO":"１４號","E_COORD97":179754.76000000001,"N_COORD97":2579737.8100000001,"ADDRESS":"府西路２５９巷１４號","OBJECTID":393868},"geometry":{"x":179754.75999999978,"y":2579737.8100000024}},{"attributes":{"ID":393893,"DIS_CODE":0,"TOWNNAME":"新營區","LI":"南興里","LIN":"16鄰","STREET":"興農街","SECT":" ","MAREA":" ","LANE":"１４０巷","ALLEY":" ","HOUSE_NO":"１８號之３","E_COORD97":179161.48999999999,"N_COORD97":2577546.8300000001,"ADDRESS":"興農街１４０巷１８號之３","OBJECTID":393869},"geometry":{"x":179161.49000000115,"y":2577546.8300000019}},{"attributes":{"ID":393894,"DIS_CODE":0,"TOWNNAME":"新營區","LI":"南興里","LIN":"16鄰","STREET":"興農街","SECT":" ","MAREA":" ","LANE":"１４０巷","ALLEY":" ","HOUSE_NO":"２０之３號","E_COORD97":179156.72,"N_COORD97":2577547.96,"ADDRESS":"興農街１４０巷２０之３號","OBJECTID":393870},"geometry":{"x":179156.71999999974,"y":2577547.9600000009}},{"attributes":{"ID":393895,"DIS_CODE":0,"TOWNNAME":"東區","LI":"裕農里","LIN":"26鄰","STREET":"東寧路","SECT":" ","MAREA":" ","LANE":"５１０巷","ALLEY":" ","HOUSE_NO":"２８號","E_COORD97":170990.67000000001,"N_COORD97":2543274.8100000001,"ADDRESS":"東寧路５１０巷２８號","OBJECTID":393871},"geometry":{"x":170990.67000000086,"y":2543274.8100000024}},{"attributes":{"ID":393896,"DIS_CODE":0,"TOWNNAME":"東區","LI":"忠孝里","LIN":"7鄰","STREET":"榮譽街","SECT":" ","MAREA":" ","LANE":"８４巷","ALLEY":" ","HOUSE_NO":"１０１號","E_COORD97":169853.92999999999,"N_COORD97":2541623.8500000001,"ADDRESS":"榮譽街８４巷１０１號","OBJECTID":393872},"geometry":{"x":169853.9299999997,"y":2541623.8499999996}},{"attributes":{"ID":393897,"DIS_CODE":0,"TOWNNAME":"東區","LI":"新東里","LIN":"2鄰","STREET":"東門路","SECT":"二段","MAREA":" ","LANE":"１６１巷","ALLEY":" ","HOUSE_NO":"３７號","E_COORD97":170362.88,"N_COORD97":2542996.1600000001,"ADDRESS":"東門路二段１６１巷３７號","OBJECTID":393873},"geometry":{"x":170362.87999999989,"y":2542996.1600000039}},{"attributes":{"ID":393898,"DIS_CODE":0,"TOWNNAME":"新營區","LI":"忠政里","LIN":"16鄰","STREET":"府西路","SECT":" ","MAREA":" ","LANE":"２５９巷","ALLEY":" ","HOUSE_NO":"１２號","E_COORD97":179758.85000000001,"N_COORD97":2579737.79,"ADDRESS":"府西路２５９巷１２號","OBJECTID":393874},"geometry":{"x":179758.85000000056,"y":2579737.7899999991}},{"attributes":{"ID":393899,"DIS_CODE":0,"TOWNNAME":"新營區","LI":"南紙里","LIN":"16鄰","STREET":"南紙街","SECT":" ","MAREA":" ","LANE":"１６２巷","ALLEY":" ","HOUSE_NO":"５６號","E_COORD97":177871.29999999999,"N_COORD97":2577314.8900000001,"ADDRESS":"南紙街１６２巷５６號","OBJECTID":393875},"geometry":{"x":177871.29999999981,"y":2577314.8900000006}},{"attributes":{"ID":393900,"DIS_CODE":0,"TOWNNAME":"新營區","LI":"忠政里","LIN":"16鄰","STREET":"府西路","SECT":" ","MAREA":" ","LANE":"２５９巷","ALLEY":" ","HOUSE_NO":"１０號","E_COORD97":179762.95000000001,"N_COORD97":2579737.77,"ADDRESS":"府西路２５９巷１０號","OBJECTID":393876},"geometry":{"x":179762.95000000019,"y":2579737.7700000014}},{"attributes":{"ID":393901,"DIS_CODE":0,"TOWNNAME":"新營區","LI":"南紙里","LIN":"16鄰","STREET":"南紙街","SECT":" ","MAREA":" ","LANE":"１６２巷","ALLEY":" ","HOUSE_NO":"４２號","E_COORD97":177836.56,"N_COORD97":2577309.5299999998,"ADDRESS":"南紙街１６２巷４２號","OBJECTID":393877},"geometry":{"x":177836.56000000052,"y":2577309.5299999993}},{"attributes":{"ID":393902,"DIS_CODE":0,"TOWNNAME":"新營區","LI":"大宏里","LIN":"16鄰","STREET":"開元路","SECT":" ","MAREA":" ","LANE":"５９巷","ALLEY":" ","HOUSE_NO":"７８號","E_COORD97":180798.06,"N_COORD97":2578869.0800000001,"ADDRESS":"開元路５９巷７８號","OBJECTID":393878},"geometry":{"x":180798.06000000052,"y":2578869.0800000001}},{"attributes":{"ID":393903,"DIS_CODE":0,"TOWNNAME":"新營區","LI":"忠政里","LIN":"16鄰","STREET":"府西路","SECT":" ","MAREA":" ","LANE":"２５９巷","ALLEY":" ","HOUSE_NO":"１３號","E_COORD97":179758.78,"N_COORD97":2579722.2799999998,"ADDRESS":"府西路２５９巷１３號","OBJECTID":393879},"geometry":{"x":179758.78000000026,"y":2579722.2800000031}},{"attributes":{"ID":393904,"DIS_CODE":0,"TOWNNAME":"東區","LI":"忠孝里","LIN":"33鄰","STREET":"崇明二街","SECT":" ","MAREA":" ","LANE":"２巷","ALLEY":" ","HOUSE_NO":"１號","E_COORD97":169542.22,"N_COORD97":2542355.7999999998,"ADDRESS":"崇明二街２巷１號","OBJECTID":393880},"geometry":{"x":169542.2200000016,"y":2542355.8000000026}},{"attributes":{"ID":393905,"DIS_CODE":0,"TOWNNAME":"鹽水區","LI":"橋南里","LIN":"16鄰","STREET":"月津路","SECT":" ","MAREA":" ","LANE":"１２７巷","ALLEY":" ","HOUSE_NO":"２６號","E_COORD97":174924.98000000001,"N_COORD97":2579118.6499999999,"ADDRESS":"月津路１２７巷２６號","OBJECTID":393881},"geometry":{"x":174924.98000000045,"y":2579118.6500000022}},{"attributes":{"ID":393906,"DIS_CODE":0,"TOWNNAME":"鹽水區","LI":"橋南里","LIN":"16鄰","STREET":"月津路","SECT":" ","MAREA":" ","LANE":"１２７巷","ALLEY":" ","HOUSE_NO":"２７號","E_COORD97":174945.29000000001,"N_COORD97":2579150.0499999998,"ADDRESS":"月津路１２７巷２７號","OBJECTID":393882},"geometry":{"x":174945.29000000097,"y":2579150.0500000026}},{"attributes":{"ID":393907,"DIS_CODE":0,"TOWNNAME":"鹽水區","LI":"橋南里","LIN":"16鄰","STREET":"月津路","SECT":" ","MAREA":" ","LANE":"１２７巷","ALLEY":" ","HOUSE_NO":"２８號","E_COORD97":174929.84,"N_COORD97":2579119.8500000001,"ADDRESS":"月津路１２７巷２８號","OBJECTID":393883},"geometry":{"x":174929.83999999985,"y":2579119.8500000015}},{"attributes":{"ID":393908,"DIS_CODE":0,"TOWNNAME":"鹽水區","LI":"橋南里","LIN":"16鄰","STREET":"月津路","SECT":" ","MAREA":" ","LANE":"１２７巷","ALLEY":" ","HOUSE_NO":"２９號","E_COORD97":174950.26999999999,"N_COORD97":2579150.9300000002,"ADDRESS":"月津路１２７巷２９號","OBJECTID":393884},"geometry":{"x":174950.26999999955,"y":2579150.9299999997}},{"attributes":{"ID":393909,"DIS_CODE":0,"TOWNNAME":"鹽水區","LI":"橋南里","LIN":"16鄰","STREET":"月津路","SECT":" ","MAREA":" ","LANE":"１２７巷","ALLEY":" ","HOUSE_NO":"３１號","E_COORD97":174957.10999999999,"N_COORD97":2579151.5,"ADDRESS":"月津路１２７巷３１號","OBJECTID":393885},"geometry":{"x":174957.11000000127,"y":2579151.5}},{"attributes":{"ID":393910,"DIS_CODE":0,"TOWNNAME":"東區","LI":"莊敬里","LIN":"24鄰","STREET":"東光路","SECT":"二段","MAREA":" ","LANE":"１１巷","ALLEY":" ","HOUSE_NO":"４號","E_COORD97":171175.16,"N_COORD97":2544010.9199999999,"ADDRESS":"東光路二段１１巷４號","OBJECTID":393886},"geometry":{"x":171175.16000000015,"y":2544010.9199999981}},{"attributes":{"ID":393911,"DIS_CODE":0,"TOWNNAME":"東區","LI":"莊敬里","LIN":"24鄰","STREET":"東光路","SECT":"二段","MAREA":" ","LANE":"１１巷","ALLEY":" ","HOUSE_NO":"６號","E_COORD97":171169.94,"N_COORD97":2544011.4399999999,"ADDRESS":"東光路二段１１巷６號","OBJECTID":393887},"geometry":{"x":171169.94000000041,"y":2544011.4400000013}},{"attributes":{"ID":393912,"DIS_CODE":0,"TOWNNAME":"東區","LI":"莊敬里","LIN":"24鄰","STREET":"東光路","SECT":"二段","MAREA":" ","LANE":"１１巷","ALLEY":" ","HOUSE_NO":"８號","E_COORD97":171164.78,"N_COORD97":2544011.6600000001,"ADDRESS":"東光路二段１１巷８號","OBJECTID":393888},"geometry":{"x":171164.78000000212,"y":2544011.6600000001}},{"attributes":{"ID":393913,"DIS_CODE":0,"TOWNNAME":"東區","LI":"莊敬里","LIN":"24鄰","STREET":"東光路","SECT":"二段","MAREA":" ","LANE":"１１巷","ALLEY":" ","HOUSE_NO":"１０號","E_COORD97":171158.29999999999,"N_COORD97":2544013.5699999998,"ADDRESS":"東光路二段１１巷１０號","OBJECTID":393889},"geometry":{"x":171158.29999999981,"y":2544013.5700000003}},{"attributes":{"ID":393914,"DIS_CODE":0,"TOWNNAME":"東區","LI":"莊敬里","LIN":"24鄰","STREET":"東光路","SECT":"二段","MAREA":" ","LANE":"１１巷","ALLEY":" ","HOUSE_NO":"２號","E_COORD97":171180.82999999999,"N_COORD97":2544010.1099999999,"ADDRESS":"東光路二段１１巷２號","OBJECTID":393890},"geometry":{"x":171180.83000000007,"y":2544010.1100000013}},{"attributes":{"ID":393915,"DIS_CODE":0,"TOWNNAME":"東區","LI":"忠孝里","LIN":"7鄰","STREET":"榮譽街","SECT":" ","MAREA":" ","LANE":"８４巷","ALLEY":" ","HOUSE_NO":"１０５號","E_COORD97":169829.20000000001,"N_COORD97":2541612.4700000002,"ADDRESS":"榮譽街８４巷１０５號","OBJECTID":393891},"geometry":{"x":169829.20000000019,"y":2541612.4700000025}},{"attributes":{"ID":393916,"DIS_CODE":0,"TOWNNAME":"東區","LI":"忠孝里","LIN":"7鄰","STREET":"榮譽街","SECT":" ","MAREA":" ","LANE":"８４巷","ALLEY":" ","HOUSE_NO":"１０５號之１","E_COORD97":169819.76000000001,"N_COORD97":2541607.75,"ADDRESS":"榮譽街８４巷１０５號之１","OBJECTID":393892},"geometry":{"x":169819.75999999978,"y":2541607.75}},{"attributes":{"ID":393917,"DIS_CODE":0,"TOWNNAME":"東區","LI":"忠孝里","LIN":"7鄰","STREET":"榮譽街","SECT":" ","MAREA":" ","LANE":"８４巷","ALLEY":" ","HOUSE_NO":"１０７號之１","E_COORD97":169807.97,"N_COORD97":2541602.3500000001,"ADDRESS":"榮譽街８４巷１０７號之１","OBJECTID":393893},"geometry":{"x":169807.96999999974,"y":2541602.3500000015}},{"attributes":{"ID":393918,"DIS_CODE":0,"TOWNNAME":"東區","LI":"忠孝里","LIN":"7鄰","STREET":"榮譽街","SECT":" ","MAREA":" ","LANE":"８４巷","ALLEY":" ","HOUSE_NO":"１０７號","E_COORD97":169812.82000000001,"N_COORD97":2541605.1200000001,"ADDRESS":"榮譽街８４巷１０７號","OBJECTID":393894},"geometry":{"x":169812.8200000003,"y":2541605.1200000029}},{"attributes":{"ID":393919,"DIS_CODE":0,"TOWNNAME":"東區","LI":"中西里","LIN":"10鄰","STREET":"勝利路","SECT":" ","MAREA":" ","LANE":"５２巷","ALLEY":" ","HOUSE_NO":"３６號","E_COORD97":169911.53,"N_COORD97":2543500.2599999998,"ADDRESS":"勝利路５２巷３６號","OBJECTID":393895},"geometry":{"x":169911.53000000026,"y":2543500.2600000035}},{"attributes":{"ID":393920,"DIS_CODE":0,"TOWNNAME":"鹽水區","LI":"橋南里","LIN":"16鄰","STREET":"月津路","SECT":" ","MAREA":" ","LANE":"１２７巷","ALLEY":" ","HOUSE_NO":"３２號","E_COORD97":174939.98999999999,"N_COORD97":2579121.1299999999,"ADDRESS":"月津路１２７巷３２號","OBJECTID":393896},"geometry":{"x":174939.98999999929,"y":2579121.1300000008}},{"attributes":{"ID":393921,"DIS_CODE":0,"TOWNNAME":"鹽水區","LI":"橋南里","LIN":"16鄰","STREET":"月津路","SECT":" ","MAREA":" ","LANE":"１２７巷","ALLEY":" ","HOUSE_NO":"３３號","E_COORD97":174960.70999999999,"N_COORD97":2579153.3300000001,"ADDRESS":"月津路１２７巷３３號","OBJECTID":393897},"geometry":{"x":174960.71000000089,"y":2579153.3300000038}},{"attributes":{"ID":393922,"DIS_CODE":0,"TOWNNAME":"鹽水區","LI":"橋南里","LIN":"16鄰","STREET":"月津路","SECT":" ","MAREA":" ","LANE":"１２７巷","ALLEY":" ","HOUSE_NO":"３４號","E_COORD97":174945.14999999999,"N_COORD97":2579122.8999999999,"ADDRESS":"月津路１２７巷３４號","OBJECTID":393898},"geometry":{"x":174945.15000000037,"y":2579122.9000000022}},{"attributes":{"ID":393923,"DIS_CODE":0,"TOWNNAME":"鹽水區","LI":"橋南里","LIN":"16鄰","STREET":"月津路","SECT":" ","MAREA":" ","LANE":"１２７巷","ALLEY":" ","HOUSE_NO":"３５號","E_COORD97":174964.29999999999,"N_COORD97":2579155.1499999999,"ADDRESS":"月津路１２７巷３５號","OBJECTID":393899},"geometry":{"x":174964.29999999981,"y":2579155.1500000022}},{"attributes":{"ID":393924,"DIS_CODE":0,"TOWNNAME":"鹽水區","LI":"橋南里","LIN":"16鄰","STREET":"月津路","SECT":" ","MAREA":" ","LANE":"１２７巷","ALLEY":" ","HOUSE_NO":"３６號","E_COORD97":174950.14999999999,"N_COORD97":2579124.27,"ADDRESS":"月津路１２７巷３６號","OBJECTID":393900},"geometry":{"x":174950.1500000013,"y":2579124.2699999996}},{"attributes":{"ID":393925,"DIS_CODE":0,"TOWNNAME":"鹽水區","LI":"橋南里","LIN":"16鄰","STREET":"月津路","SECT":" ","MAREA":" ","LANE":"１２７巷","ALLEY":" ","HOUSE_NO":"３７號","E_COORD97":174967.89999999999,"N_COORD97":2579156.98,"ADDRESS":"月津路１２７巷３７號","OBJECTID":393901},"geometry":{"x":174967.89999999944,"y":2579156.9800000023}},{"attributes":{"ID":393926,"DIS_CODE":0,"TOWNNAME":"鹽水區","LI":"橋南里","LIN":"16鄰","STREET":"月津路","SECT":" ","MAREA":" ","LANE":"１２７巷","ALLEY":" ","HOUSE_NO":"３８號","E_COORD97":174955.85999999999,"N_COORD97":2579125.2000000002,"ADDRESS":"月津路１２７巷３８號","OBJECTID":393902},"geometry":{"x":174955.86000000034,"y":2579125.1999999993}},{"attributes":{"ID":393927,"DIS_CODE":0,"TOWNNAME":"鹽水區","LI":"橋南里","LIN":"16鄰","STREET":"月津路","SECT":" ","MAREA":" ","LANE":"１２７巷","ALLEY":" ","HOUSE_NO":"３９號","E_COORD97":174971.48999999999,"N_COORD97":2579158.7999999998,"ADDRESS":"月津路１２７巷３９號","OBJECTID":393903},"geometry":{"x":174971.49000000022,"y":2579158.8000000026}},{"attributes":{"ID":393928,"DIS_CODE":0,"TOWNNAME":"鹽水區","LI":"橋南里","LIN":"16鄰","STREET":"月津路","SECT":" ","MAREA":" ","LANE":"１２７巷","ALLEY":" ","HOUSE_NO":"３號","E_COORD97":174872.37,"N_COORD97":2579127.0600000001,"ADDRESS":"月津路１２７巷３號","OBJECTID":393904},"geometry":{"x":174872.37000000011,"y":2579127.0600000005}},{"attributes":{"ID":393929,"DIS_CODE":0,"TOWNNAME":"鹽水區","LI":"橋南里","LIN":"16鄰","STREET":"月津路","SECT":" ","MAREA":" ","LANE":"１２７巷","ALLEY":" ","HOUSE_NO":"４０號","E_COORD97":174960.75,"N_COORD97":2579126.9100000001,"ADDRESS":"月津路１２７巷４０號","OBJECTID":393905},"geometry":{"x":174960.75000000093,"y":2579126.910000002}},{"attributes":{"ID":393930,"DIS_CODE":0,"TOWNNAME":"鹽水區","LI":"橋南里","LIN":"16鄰","STREET":"月津路","SECT":" ","MAREA":" ","LANE":"１２７巷","ALLEY":" ","HOUSE_NO":"４１號","E_COORD97":174975.07999999999,"N_COORD97":2579160.6299999999,"ADDRESS":"月津路１２７巷４１號","OBJECTID":393906},"geometry":{"x":174975.08000000194,"y":2579160.6300000008}},{"attributes":{"ID":393931,"DIS_CODE":0,"TOWNNAME":"鹽水區","LI":"橋南里","LIN":"16鄰","STREET":"月津路","SECT":" ","MAREA":" ","LANE":"１２７巷","ALLEY":" ","HOUSE_NO":"４２號","E_COORD97":174966.16,"N_COORD97":2579128.1699999999,"ADDRESS":"月津路１２７巷４２號","OBJECTID":393907},"geometry":{"x":174966.16000000108,"y":2579128.1700000018}},{"attributes":{"ID":393932,"DIS_CODE":0,"TOWNNAME":"鹽水區","LI":"橋南里","LIN":"16鄰","STREET":"月津路","SECT":" ","MAREA":" ","LANE":"１２７巷","ALLEY":" ","HOUSE_NO":"５號","E_COORD97":174878.10999999999,"N_COORD97":2579128.0800000001,"ADDRESS":"月津路１２７巷５號","OBJECTID":393908},"geometry":{"x":174878.11000000034,"y":2579128.0800000019}},{"attributes":{"ID":393933,"DIS_CODE":0,"TOWNNAME":"東區","LI":"中西里","LIN":"10鄰","STREET":"勝利路","SECT":" ","MAREA":" ","LANE":"５２巷","ALLEY":" ","HOUSE_NO":"３８號","E_COORD97":169904.35000000001,"N_COORD97":2543496.0800000001,"ADDRESS":"勝利路５２巷３８號","OBJECTID":393909},"geometry":{"x":169904.35000000056,"y":2543496.0800000019}},{"attributes":{"ID":393934,"DIS_CODE":0,"TOWNNAME":"東區","LI":"中西里","LIN":"10鄰","STREET":"勝利路","SECT":" ","MAREA":" ","LANE":"５２巷","ALLEY":" ","HOUSE_NO":"４０號","E_COORD97":169898.07999999999,"N_COORD97":2543485.9300000002,"ADDRESS":"勝利路５２巷４０號","OBJECTID":393910},"geometry":{"x":169898.08000000101,"y":2543485.9300000016}},{"attributes":{"ID":393935,"DIS_CODE":0,"TOWNNAME":"東區","LI":"中西里","LIN":"10鄰","STREET":"勝利路","SECT":" ","MAREA":" ","LANE":"５２巷","ALLEY":" ","HOUSE_NO":"４２號","E_COORD97":169890.91,"N_COORD97":2543482.3500000001,"ADDRESS":"勝利路５２巷４２號","OBJECTID":393911},"geometry":{"x":169890.91000000108,"y":2543482.3500000034}},{"attributes":{"ID":393936,"DIS_CODE":0,"TOWNNAME":"東區","LI":"中西里","LIN":"10鄰","STREET":"勝利路","SECT":" ","MAREA":" ","LANE":"５２巷","ALLEY":" ","HOUSE_NO":"４４號","E_COORD97":169889.10999999999,"N_COORD97":2543491.2999999998,"ADDRESS":"勝利路５２巷４４號","OBJECTID":393912},"geometry":{"x":169889.11000000034,"y":2543491.3000000026}},{"attributes":{"ID":393937,"DIS_CODE":0,"TOWNNAME":"東區","LI":"中西里","LIN":"10鄰","STREET":"勝利路","SECT":" ","MAREA":" ","LANE":"５２巷","ALLEY":" ","HOUSE_NO":"４６號","E_COORD97":169886.42000000001,"N_COORD97":2543497.5699999998,"ADDRESS":"勝利路５２巷４６號","OBJECTID":393913},"geometry":{"x":169886.41999999993,"y":2543497.5700000003}},{"attributes":{"ID":393938,"DIS_CODE":0,"TOWNNAME":"鹽水區","LI":"橋南里","LIN":"16鄰","STREET":"月津路","SECT":" ","MAREA":" ","LANE":"１２７巷","ALLEY":" ","HOUSE_NO":"６號","E_COORD97":174876.16,"N_COORD97":2579107.04,"ADDRESS":"月津路１２７巷６號","OBJECTID":393914},"geometry":{"x":174876.16000000201,"y":2579107.040000001}},{"attributes":{"ID":393939,"DIS_CODE":0,"TOWNNAME":"鹽水區","LI":"橋南里","LIN":"16鄰","STREET":"月津路","SECT":" ","MAREA":" ","LANE":"１２７巷","ALLEY":" ","HOUSE_NO":"７號","E_COORD97":174883.85000000001,"N_COORD97":2579129.1000000001,"ADDRESS":"月津路１２７巷７號","OBJECTID":393915},"geometry":{"x":174883.84999999963,"y":2579129.0999999996}},{"attributes":{"ID":393940,"DIS_CODE":0,"TOWNNAME":"鹽水區","LI":"橋南里","LIN":"16鄰","STREET":"月津路","SECT":" ","MAREA":" ","LANE":"１２７巷","ALLEY":" ","HOUSE_NO":"８號","E_COORD97":174881.23999999999,"N_COORD97":2579107.8300000001,"ADDRESS":"月津路１２７巷８號","OBJECTID":393916},"geometry":{"x":174881.24000000115,"y":2579107.8300000001}},{"attributes":{"ID":393941,"DIS_CODE":0,"TOWNNAME":"鹽水區","LI":"橋南里","LIN":"16鄰","STREET":"月津路","SECT":" ","MAREA":" ","LANE":"１４３巷","ALLEY":" ","HOUSE_NO":"１號","E_COORD97":174851.54999999999,"N_COORD97":2579097.21,"ADDRESS":"月津路１４３巷１號","OBJECTID":393917},"geometry":{"x":174851.55000000075,"y":2579097.2100000046}},{"attributes":{"ID":393942,"DIS_CODE":0,"TOWNNAME":"鹽水區","LI":"橋南里","LIN":"16鄰","STREET":"月津路","SECT":" ","MAREA":" ","LANE":"１４３巷","ALLEY":" ","HOUSE_NO":"２號","E_COORD97":174863.07000000001,"N_COORD97":2579097.9700000002,"ADDRESS":"月津路１４３巷２號","OBJECTID":393918},"geometry":{"x":174863.0700000003,"y":2579097.9700000007}},{"attributes":{"ID":393943,"DIS_CODE":0,"TOWNNAME":"鹽水區","LI":"橋南里","LIN":"16鄰","STREET":"月津路","SECT":" ","MAREA":" ","LANE":"５５巷","ALLEY":" ","HOUSE_NO":"１０號","E_COORD97":174972.62,"N_COORD97":2579264.0499999998,"ADDRESS":"月津路５５巷１０號","OBJECTID":393919},"geometry":{"x":174972.62000000011,"y":2579264.0499999989}},{"attributes":{"ID":393944,"DIS_CODE":0,"TOWNNAME":"鹽水區","LI":"橋南里","LIN":"16鄰","STREET":"月津路","SECT":" ","MAREA":" ","LANE":"５５巷","ALLEY":" ","HOUSE_NO":"１２號","E_COORD97":174975.12,"N_COORD97":2579260.5600000001,"ADDRESS":"月津路５５巷１２號","OBJECTID":393920},"geometry":{"x":174975.12000000104,"y":2579260.5600000042}},{"attributes":{"ID":393945,"DIS_CODE":0,"TOWNNAME":"鹽水區","LI":"橋南里","LIN":"16鄰","STREET":"月津路","SECT":" ","MAREA":" ","LANE":"５５巷","ALLEY":" ","HOUSE_NO":"１４號","E_COORD97":174977.62,"N_COORD97":2579257.0699999998,"ADDRESS":"月津路５５巷１４號","OBJECTID":393921},"geometry":{"x":174977.62000000011,"y":2579257.070000004}},{"attributes":{"ID":393946,"DIS_CODE":0,"TOWNNAME":"鹽水區","LI":"橋南里","LIN":"16鄰","STREET":"月津路","SECT":" ","MAREA":" ","LANE":"５５巷","ALLEY":" ","HOUSE_NO":"１６號","E_COORD97":174980.12,"N_COORD97":2579253.5699999998,"ADDRESS":"月津路５５巷１６號","OBJECTID":393922},"geometry":{"x":174980.12000000104,"y":2579253.570000004}},{"attributes":{"ID":393947,"DIS_CODE":0,"TOWNNAME":"鹽水區","LI":"橋南里","LIN":"16鄰","STREET":"月津路","SECT":" ","MAREA":" ","LANE":"５５巷","ALLEY":" ","HOUSE_NO":"１８號","E_COORD97":174982.60999999999,"N_COORD97":2579250.0800000001,"ADDRESS":"月津路５５巷１８號","OBJECTID":393923},"geometry":{"x":174982.61000000127,"y":2579250.0800000038}},{"attributes":{"ID":393948,"DIS_CODE":0,"TOWNNAME":"鹽水區","LI":"橋南里","LIN":"16鄰","STREET":"月津路","SECT":" ","MAREA":" ","LANE":"５５巷","ALLEY":" ","HOUSE_NO":"２０號","E_COORD97":174985.10999999999,"N_COORD97":2579246.5800000001,"ADDRESS":"月津路５５巷２０號","OBJECTID":393924},"geometry":{"x":174985.1099999994,"y":2579246.5800000038}},{"attributes":{"ID":393949,"DIS_CODE":0,"TOWNNAME":"鹽水區","LI":"橋南里","LIN":"16鄰","STREET":"月津路","SECT":" ","MAREA":" ","LANE":"５５巷","ALLEY":" ","HOUSE_NO":"２２號","E_COORD97":174987.60999999999,"N_COORD97":2579243.0899999999,"ADDRESS":"月津路５５巷２２號","OBJECTID":393925},"geometry":{"x":174987.61000000127,"y":2579243.0900000017}},{"attributes":{"ID":393950,"DIS_CODE":0,"TOWNNAME":"鹽水區","LI":"橋南里","LIN":"16鄰","STREET":"月津路","SECT":" ","MAREA":" ","LANE":"５５巷","ALLEY":" ","HOUSE_NO":"２４號","E_COORD97":174990.10999999999,"N_COORD97":2579239.5899999999,"ADDRESS":"月津路５５巷２４號","OBJECTID":393926},"geometry":{"x":174990.11000000034,"y":2579239.5900000036}},{"attributes":{"ID":393951,"DIS_CODE":0,"TOWNNAME":"鹽水區","LI":"橋南里","LIN":"16鄰","STREET":"月津路","SECT":" ","MAREA":" ","LANE":"５５巷","ALLEY":" ","HOUSE_NO":"２６號","E_COORD97":174992.60999999999,"N_COORD97":2579236.1000000001,"ADDRESS":"月津路５５巷２６號","OBJECTID":393927},"geometry":{"x":174992.61000000127,"y":2579236.1000000015}},{"attributes":{"ID":393952,"DIS_CODE":0,"TOWNNAME":"鹽水區","LI":"橋南里","LIN":"16鄰","STREET":"月津路","SECT":" ","MAREA":" ","LANE":"５５巷","ALLEY":" ","HOUSE_NO":"２號","E_COORD97":174965.12,"N_COORD97":2579274.54,"ADDRESS":"月津路５５巷２號","OBJECTID":393928},"geometry":{"x":174965.12000000104,"y":2579274.5399999991}},{"attributes":{"ID":393953,"DIS_CODE":0,"TOWNNAME":"鹽水區","LI":"橋南里","LIN":"16鄰","STREET":"月津路","SECT":" ","MAREA":" ","LANE":"５５巷","ALLEY":" ","HOUSE_NO":"３４號","E_COORD97":175006.89999999999,"N_COORD97":2579218.9300000002,"ADDRESS":"月津路５５巷３４號","OBJECTID":393929},"geometry":{"x":175006.89999999944,"y":2579218.9299999997}},{"attributes":{"ID":393954,"DIS_CODE":0,"TOWNNAME":"鹽水區","LI":"橋南里","LIN":"16鄰","STREET":"月津路","SECT":" ","MAREA":" ","LANE":"５５巷","ALLEY":" ","HOUSE_NO":"３６號","E_COORD97":175009.20000000001,"N_COORD97":2579215.1400000001,"ADDRESS":"月津路５５巷３６號","OBJECTID":393930},"geometry":{"x":175009.20000000019,"y":2579215.1400000006}},{"attributes":{"ID":393955,"DIS_CODE":0,"TOWNNAME":"鹽水區","LI":"橋南里","LIN":"16鄰","STREET":"月津路","SECT":" ","MAREA":" ","LANE":"５５巷","ALLEY":" ","HOUSE_NO":"３８號","E_COORD97":175011.87,"N_COORD97":2579211.2599999998,"ADDRESS":"月津路５５巷３８號","OBJECTID":393931},"geometry":{"x":175011.87000000011,"y":2579211.2600000035}},{"attributes":{"ID":393956,"DIS_CODE":0,"TOWNNAME":"鹽水區","LI":"橋南里","LIN":"16鄰","STREET":"月津路","SECT":" ","MAREA":" ","LANE":"５５巷","ALLEY":" ","HOUSE_NO":"３號","E_COORD97":174979.75,"N_COORD97":2579289.5699999998,"ADDRESS":"月津路５５巷３號","OBJECTID":393932},"geometry":{"x":174979.75,"y":2579289.5700000003}},{"attributes":{"ID":393957,"DIS_CODE":0,"TOWNNAME":"鹽水區","LI":"橋南里","LIN":"16鄰","STREET":"月津路","SECT":" ","MAREA":" ","LANE":"５５巷","ALLEY":" ","HOUSE_NO":"４０號","E_COORD97":175014.47,"N_COORD97":2579208.1699999999,"ADDRESS":"月津路５５巷４０號","OBJECTID":393933},"geometry":{"x":175014.47000000067,"y":2579208.1699999981}},{"attributes":{"ID":393958,"DIS_CODE":0,"TOWNNAME":"鹽水區","LI":"橋南里","LIN":"16鄰","STREET":"月津路","SECT":" ","MAREA":" ","LANE":"５５巷","ALLEY":" ","HOUSE_NO":"４２號","E_COORD97":175017.29999999999,"N_COORD97":2579204.8599999999,"ADDRESS":"月津路５５巷４２號","OBJECTID":393934},"geometry":{"x":175017.30000000168,"y":2579204.8599999994}},{"attributes":{"ID":393959,"DIS_CODE":0,"TOWNNAME":"鹽水區","LI":"橋南里","LIN":"16鄰","STREET":"月津路","SECT":" ","MAREA":" ","LANE":"５５巷","ALLEY":" ","HOUSE_NO":"４６號","E_COORD97":175023.29999999999,"N_COORD97":2579198.4300000002,"ADDRESS":"月津路５５巷４６號","OBJECTID":393935},"geometry":{"x":175023.29999999981,"y":2579198.4299999997}},{"attributes":{"ID":393960,"DIS_CODE":0,"TOWNNAME":"鹽水區","LI":"橋南里","LIN":"16鄰","STREET":"月津路","SECT":" ","MAREA":" ","LANE":"５５巷","ALLEY":" ","HOUSE_NO":"４８號","E_COORD97":175026.38,"N_COORD97":2579194.4199999999,"ADDRESS":"月津路５５巷４８號","OBJECTID":393936},"geometry":{"x":175026.37999999989,"y":2579194.4200000018}},{"attributes":{"ID":393961,"DIS_CODE":0,"TOWNNAME":"鹽水區","LI":"橋南里","LIN":"16鄰","STREET":"月津路","SECT":" ","MAREA":" ","LANE":"５５巷","ALLEY":" ","HOUSE_NO":"５０號","E_COORD97":175028.88,"N_COORD97":2579190.8100000001,"ADDRESS":"月津路５５巷５０號","OBJECTID":393937},"geometry":{"x":175028.88000000082,"y":2579190.8100000005}},{"attributes":{"ID":393962,"DIS_CODE":0,"TOWNNAME":"鹽水區","LI":"橋南里","LIN":"16鄰","STREET":"月津路","SECT":" ","MAREA":" ","LANE":"５５巷","ALLEY":" ","HOUSE_NO":"５２號","E_COORD97":175032.51999999999,"N_COORD97":2579186.5099999998,"ADDRESS":"月津路５５巷５２號","OBJECTID":393938},"geometry":{"x":175032.52000000142,"y":2579186.5100000016}},{"attributes":{"ID":393963,"DIS_CODE":0,"TOWNNAME":"鹽水區","LI":"橋南里","LIN":"16鄰","STREET":"月津路","SECT":" ","MAREA":" ","LANE":"５５巷","ALLEY":" ","HOUSE_NO":"６號","E_COORD97":174967.62,"N_COORD97":2579271.04,"ADDRESS":"月津路５５巷６號","OBJECTID":393939},"geometry":{"x":174967.62000000011,"y":2579271.040000001}},{"attributes":{"ID":393964,"DIS_CODE":0,"TOWNNAME":"鹽水區","LI":"橋南里","LIN":"16鄰","STREET":"月津路","SECT":" ","MAREA":" ","LANE":"５５巷","ALLEY":" ","HOUSE_NO":"８號","E_COORD97":174970.12,"N_COORD97":2579267.5499999998,"ADDRESS":"月津路５５巷８號","OBJECTID":393940},"geometry":{"x":174970.12000000104,"y":2579267.5500000045}},{"attributes":{"ID":393965,"DIS_CODE":0,"TOWNNAME":"鹽水區","LI":"橋南里","LIN":"16鄰","STREET":"月津路","SECT":" ","MAREA":" ","LANE":"７５巷","ALLEY":" ","HOUSE_NO":"１１號","E_COORD97":174975.14000000001,"N_COORD97":2579230.46,"ADDRESS":"月津路７５巷１１號","OBJECTID":393941},"geometry":{"x":174975.13999999966,"y":2579230.4600000009}},{"attributes":{"ID":393966,"DIS_CODE":0,"TOWNNAME":"鹽水區","LI":"橋南里","LIN":"16鄰","STREET":"月津路","SECT":" ","MAREA":" ","LANE":"７５巷","ALLEY":" ","HOUSE_NO":"１２號","E_COORD97":174966.22,"N_COORD97":2579226.8300000001,"ADDRESS":"月津路７５巷１２號","OBJECTID":393942},"geometry":{"x":174966.21999999974,"y":2579226.8300000001}},{"attributes":{"ID":393967,"DIS_CODE":0,"TOWNNAME":"鹽水區","LI":"橋南里","LIN":"16鄰","STREET":"月津路","SECT":" ","MAREA":" ","LANE":"７５巷","ALLEY":" ","HOUSE_NO":"１３號","E_COORD97":174978.94,"N_COORD97":2579233.02,"ADDRESS":"月津路７５巷１３號","OBJECTID":393943},"geometry":{"x":174978.94000000041,"y":2579233.0200000014}},{"attributes":{"ID":393968,"DIS_CODE":0,"TOWNNAME":"鹽水區","LI":"橋南里","LIN":"16鄰","STREET":"月津路","SECT":" ","MAREA":" ","LANE":"７５巷","ALLEY":" ","HOUSE_NO":"１４號","E_COORD97":174962.72,"N_COORD97":2579224.6000000001,"ADDRESS":"月津路７５巷１４號","OBJECTID":393944},"geometry":{"x":174962.71999999974,"y":2579224.5999999996}},{"attributes":{"ID":393969,"DIS_CODE":0,"TOWNNAME":"鹽水區","LI":"橋南里","LIN":"16鄰","STREET":"月津路","SECT":" ","MAREA":" ","LANE":"７５巷","ALLEY":" ","HOUSE_NO":"１５號","E_COORD97":174991.95999999999,"N_COORD97":2579221.48,"ADDRESS":"月津路７５巷１５號","OBJECTID":393945},"geometry":{"x":174991.95999999996,"y":2579221.4800000023}},{"attributes":{"ID":393970,"DIS_CODE":0,"TOWNNAME":"鹽水區","LI":"橋南里","LIN":"16鄰","STREET":"月津路","SECT":" ","MAREA":" ","LANE":"７５巷","ALLEY":" ","HOUSE_NO":"１６號","E_COORD97":174958.63,"N_COORD97":2579221.8799999999,"ADDRESS":"月津路７５巷１６號","OBJECTID":393946},"geometry":{"x":174958.62999999989,"y":2579221.879999999}},{"attributes":{"ID":393971,"DIS_CODE":0,"TOWNNAME":"鹽水區","LI":"橋南里","LIN":"16鄰","STREET":"月津路","SECT":" ","MAREA":" ","LANE":"７５巷","ALLEY":" ","HOUSE_NO":"１７號","E_COORD97":174984.26999999999,"N_COORD97":2579216.3599999999,"ADDRESS":"月津路７５巷１７號","OBJECTID":393947},"geometry":{"x":174984.26999999955,"y":2579216.3599999994}},{"attributes":{"ID":393972,"DIS_CODE":0,"TOWNNAME":"鹽水區","LI":"橋南里","LIN":"16鄰","STREET":"月津路","SECT":" ","MAREA":" ","LANE":"７５巷","ALLEY":" ","HOUSE_NO":"１８號","E_COORD97":174955.10999999999,"N_COORD97":2579219.6200000001,"ADDRESS":"月津路７５巷１８號","OBJECTID":393948},"geometry":{"x":174955.11000000127,"y":2579219.620000001}},{"attributes":{"ID":393973,"DIS_CODE":0,"TOWNNAME":"鹽水區","LI":"橋南里","LIN":"16鄰","STREET":"月津路","SECT":" ","MAREA":" ","LANE":"７５巷","ALLEY":" ","HOUSE_NO":"１９號","E_COORD97":174973,"N_COORD97":2579208.6499999999,"ADDRESS":"月津路７５巷１９號","OBJECTID":393949},"geometry":{"x":174973,"y":2579208.6500000004}},{"attributes":{"ID":393974,"DIS_CODE":0,"TOWNNAME":"鹽水區","LI":"橋南里","LIN":"16鄰","STREET":"月津路","SECT":" ","MAREA":" ","LANE":"７５巷","ALLEY":" ","HOUSE_NO":"１號","E_COORD97":174942.09,"N_COORD97":2579258.3399999999,"ADDRESS":"月津路７５巷１號","OBJECTID":393950},"geometry":{"x":174942.08999999985,"y":2579258.3400000017}},{"attributes":{"ID":393975,"DIS_CODE":0,"TOWNNAME":"鹽水區","LI":"橋南里","LIN":"16鄰","STREET":"月津路","SECT":" ","MAREA":" ","LANE":"７５巷","ALLEY":" ","HOUSE_NO":"２０號","E_COORD97":174951.51999999999,"N_COORD97":2579217.2599999998,"ADDRESS":"月津路７５巷２０號","OBJECTID":393951},"geometry":{"x":174951.52000000048,"y":2579217.2599999998}},{"attributes":{"ID":393976,"DIS_CODE":0,"TOWNNAME":"鹽水區","LI":"橋南里","LIN":"16鄰","STREET":"月津路","SECT":" ","MAREA":" ","LANE":"７５巷","ALLEY":" ","HOUSE_NO":"２１號","E_COORD97":174966.87,"N_COORD97":2579204.6400000001,"ADDRESS":"月津路７５巷２１號","OBJECTID":393952},"geometry":{"x":174966.87000000104,"y":2579204.6400000006}},{"attributes":{"ID":393977,"DIS_CODE":0,"TOWNNAME":"東區","LI":"東光里","LIN":"5鄰","STREET":"東興路","SECT":" ","MAREA":" ","LANE":"２０巷","ALLEY":" ","HOUSE_NO":"９１號","E_COORD97":171035.79000000001,"N_COORD97":2543426.02,"ADDRESS":"東興路２０巷９１號","OBJECTID":393953},"geometry":{"x":171035.79000000097,"y":2543426.0199999996}},{"attributes":{"ID":393978,"DIS_CODE":0,"TOWNNAME":"東區","LI":"東光里","LIN":"5鄰","STREET":"東興路","SECT":" ","MAREA":" ","LANE":"２０巷","ALLEY":" ","HOUSE_NO":"９３號","E_COORD97":171042.81,"N_COORD97":2543425.4900000002,"ADDRESS":"東興路２０巷９３號","OBJECTID":393954},"geometry":{"x":171042.80999999959,"y":2543425.4900000021}},{"attributes":{"ID":393979,"DIS_CODE":0,"TOWNNAME":"東區","LI":"東光里","LIN":"5鄰","STREET":"東興路","SECT":" ","MAREA":" ","LANE":"２０巷","ALLEY":" ","HOUSE_NO":"９５號","E_COORD97":171049.16,"N_COORD97":2543424.4100000001,"ADDRESS":"東興路２０巷９５號","OBJECTID":393955},"geometry":{"x":171049.16000000108,"y":2543424.4100000001}},{"attributes":{"ID":393980,"DIS_CODE":0,"TOWNNAME":"鹽水區","LI":"橋南里","LIN":"16鄰","STREET":"月津路","SECT":" ","MAREA":" ","LANE":"７５巷","ALLEY":" ","HOUSE_NO":"２４號","E_COORD97":174944.29000000001,"N_COORD97":2579212.4700000002,"ADDRESS":"月津路７５巷２４號","OBJECTID":393956},"geometry":{"x":174944.29000000004,"y":2579212.4700000007}},{"attributes":{"ID":393981,"DIS_CODE":0,"TOWNNAME":"鹽水區","LI":"橋南里","LIN":"16鄰","STREET":"月津路","SECT":" ","MAREA":" ","LANE":"７５巷","ALLEY":" ","HOUSE_NO":"２５號","E_COORD97":174954.60999999999,"N_COORD97":2579196.6000000001,"ADDRESS":"月津路７５巷２５號","OBJECTID":393957},"geometry":{"x":174954.6099999994,"y":2579196.6000000015}},{"attributes":{"ID":393982,"DIS_CODE":0,"TOWNNAME":"鹽水區","LI":"橋南里","LIN":"16鄰","STREET":"月津路","SECT":" ","MAREA":" ","LANE":"７５巷","ALLEY":" ","HOUSE_NO":"５號","E_COORD97":174954.70000000001,"N_COORD97":2579251.4199999999,"ADDRESS":"月津路７５巷５號","OBJECTID":393958},"geometry":{"x":174954.70000000112,"y":2579251.4200000018}},{"attributes":{"ID":393983,"DIS_CODE":0,"TOWNNAME":"鹽水區","LI":"橋南里","LIN":"16鄰","STREET":"月津路","SECT":" ","MAREA":" ","LANE":"７５巷","ALLEY":" ","HOUSE_NO":"７號","E_COORD97":174960.20999999999,"N_COORD97":2579246.7000000002,"ADDRESS":"月津路７５巷７號","OBJECTID":393959},"geometry":{"x":174960.20999999996,"y":2579246.6999999993}},{"attributes":{"ID":393984,"DIS_CODE":0,"TOWNNAME":"鹽水區","LI":"橋南里","LIN":"16鄰","STREET":"月津路","SECT":" ","MAREA":" ","LANE":"７５巷","ALLEY":" ","HOUSE_NO":"９號","E_COORD97":174966.25,"N_COORD97":2579242.8100000001,"ADDRESS":"月津路７５巷９號","OBJECTID":393960},"geometry":{"x":174966.25,"y":2579242.8100000024}},{"attributes":{"ID":393985,"DIS_CODE":0,"TOWNNAME":"鹽水區","LI":"岸內里","LIN":"16鄰","STREET":"北門路","SECT":" ","MAREA":" ","LANE":"１巷","ALLEY":" ","HOUSE_NO":"１５號","E_COORD97":175030.70000000001,"N_COORD97":2580369.0600000001,"ADDRESS":"北門路１巷１５號","OBJECTID":393961},"geometry":{"x":175030.70000000112,"y":2580369.0599999987}},{"attributes":{"ID":393986,"DIS_CODE":0,"TOWNNAME":"鹽水區","LI":"岸內里","LIN":"16鄰","STREET":"北門路","SECT":" ","MAREA":" ","LANE":"１巷","ALLEY":" ","HOUSE_NO":"１７號","E_COORD97":175030.45999999999,"N_COORD97":2580373.6200000001,"ADDRESS":"北門路１巷１７號","OBJECTID":393962},"geometry":{"x":175030.46000000089,"y":2580373.6200000029}},{"attributes":{"ID":393987,"DIS_CODE":0,"TOWNNAME":"東區","LI":"崇德里","LIN":"22鄰","STREET":"崇德路","SECT":" ","MAREA":" ","LANE":"５０８巷","ALLEY":" ","HOUSE_NO":"２６號","E_COORD97":170690.54000000001,"N_COORD97":2541573.6099999999,"ADDRESS":"崇德路５０８巷２６號","OBJECTID":393963},"geometry":{"x":170690.54000000097,"y":2541573.6099999994}},{"attributes":{"ID":393988,"DIS_CODE":0,"TOWNNAME":"鹽水區","LI":"岸內里","LIN":"16鄰","STREET":"北門路","SECT":" ","MAREA":" ","LANE":"１巷","ALLEY":" ","HOUSE_NO":"１９號","E_COORD97":175030.22,"N_COORD97":2580378.1699999999,"ADDRESS":"北門路１巷１９號","OBJECTID":393964},"geometry":{"x":175030.22000000067,"y":2580378.1700000037}},{"attributes":{"ID":393989,"DIS_CODE":0,"TOWNNAME":"東區","LI":"東安里","LIN":"12鄰","STREET":"長榮路","SECT":"二段","MAREA":" ","LANE":"３２巷","ALLEY":" ","HOUSE_NO":"１４４號","E_COORD97":170205.64000000001,"N_COORD97":2543123.4300000002,"ADDRESS":"長榮路二段３２巷１４４號","OBJECTID":393965},"geometry":{"x":170205.64000000153,"y":2543123.4300000016}},{"attributes":{"ID":393990,"DIS_CODE":0,"TOWNNAME":"鹽水區","LI":"岸內里","LIN":"16鄰","STREET":"北門路","SECT":" ","MAREA":" ","LANE":"１巷","ALLEY":" ","HOUSE_NO":"２１號","E_COORD97":175029.98000000001,"N_COORD97":2580382.73,"ADDRESS":"北門路１巷２１號","OBJECTID":393966},"geometry":{"x":175029.98000000045,"y":2580382.7300000023}},{"attributes":{"ID":393991,"DIS_CODE":0,"TOWNNAME":"鹽水區","LI":"岸內里","LIN":"16鄰","STREET":"北門路","SECT":" ","MAREA":" ","LANE":"１巷","ALLEY":" ","HOUSE_NO":"２２號","E_COORD97":175055.89000000001,"N_COORD97":2580381.98,"ADDRESS":"北門路１巷２２號","OBJECTID":393967},"geometry":{"x":175055.8900000006,"y":2580381.9800000004}},{"attributes":{"ID":393992,"DIS_CODE":0,"TOWNNAME":"鹽水區","LI":"岸內里","LIN":"16鄰","STREET":"北門路","SECT":" ","MAREA":" ","LANE":"１巷","ALLEY":" ","HOUSE_NO":"２３號","E_COORD97":175029.75,"N_COORD97":2580387.29,"ADDRESS":"北門路１巷２３號","OBJECTID":393968},"geometry":{"x":175029.75000000186,"y":2580387.290000001}},{"attributes":{"ID":393993,"DIS_CODE":0,"TOWNNAME":"鹽水區","LI":"岸內里","LIN":"16鄰","STREET":"北門路","SECT":" ","MAREA":" ","LANE":"１巷","ALLEY":" ","HOUSE_NO":"２４號","E_COORD97":175055.82000000001,"N_COORD97":2580385.9900000002,"ADDRESS":"北門路１巷２４號","OBJECTID":393969},"geometry":{"x":175055.8200000003,"y":2580385.9900000002}},{"attributes":{"ID":393994,"DIS_CODE":0,"TOWNNAME":"鹽水區","LI":"岸內里","LIN":"16鄰","STREET":"北門路","SECT":" ","MAREA":" ","LANE":"１巷","ALLEY":" ","HOUSE_NO":"２５號","E_COORD97":175029.51000000001,"N_COORD97":2580391.8500000001,"ADDRESS":"北門路１巷２５號","OBJECTID":393970},"geometry":{"x":175029.51000000071,"y":2580391.8499999996}},{"attributes":{"ID":393995,"DIS_CODE":0,"TOWNNAME":"鹽水區","LI":"岸內里","LIN":"16鄰","STREET":"北門路","SECT":" ","MAREA":" ","LANE":"１巷","ALLEY":" ","HOUSE_NO":"２７號","E_COORD97":175029.26999999999,"N_COORD97":2580396.3999999999,"ADDRESS":"北門路１巷２７號","OBJECTID":393971},"geometry":{"x":175029.27000000048,"y":2580396.4000000004}},{"attributes":{"ID":393996,"DIS_CODE":0,"TOWNNAME":"鹽水區","LI":"岸內里","LIN":"16鄰","STREET":"北門路","SECT":" ","MAREA":" ","LANE":"１巷","ALLEY":" ","HOUSE_NO":"２９號","E_COORD97":175029.04000000001,"N_COORD97":2580400.96,"ADDRESS":"北門路１巷２９號","OBJECTID":393972},"geometry":{"x":175029.04000000004,"y":2580400.9600000046}},{"attributes":{"ID":393997,"DIS_CODE":0,"TOWNNAME":"鹽水區","LI":"岸內里","LIN":"16鄰","STREET":"北門路","SECT":" ","MAREA":" ","LANE":"１巷","ALLEY":" ","HOUSE_NO":"３２號","E_COORD97":175054.87,"N_COORD97":2580402.0800000001,"ADDRESS":"北門路１巷３２號","OBJECTID":393973},"geometry":{"x":175054.87000000104,"y":2580402.0800000001}},{"attributes":{"ID":393998,"DIS_CODE":0,"TOWNNAME":"關廟區","LI":"五甲里","LIN":"16鄰","STREET":"光復街","SECT":" ","MAREA":" ","LANE":"９１巷","ALLEY":" ","HOUSE_NO":"２０號","E_COORD97":181473.44,"N_COORD97":2539362.2799999998,"ADDRESS":"光復街９１巷２０號","OBJECTID":393974},"geometry":{"x":181473.44000000041,"y":2539362.2799999993}},{"attributes":{"ID":393999,"DIS_CODE":0,"TOWNNAME":"關廟區","LI":"東勢里","LIN":"16鄰","STREET":"東安街","SECT":" ","MAREA":" ","LANE":"２４５巷","ALLEY":" ","HOUSE_NO":"５８號","E_COORD97":181677.72,"N_COORD97":2539472.3199999998,"ADDRESS":"東安街２４５巷５８號","OBJECTID":393975},"geometry":{"x":181677.71999999974,"y":2539472.3199999984}},{"attributes":{"ID":394000,"DIS_CODE":0,"TOWNNAME":"關廟區","LI":"五甲里","LIN":"16鄰","STREET":"光復街","SECT":" ","MAREA":" ","LANE":"９１巷","ALLEY":" ","HOUSE_NO":"１８號","E_COORD97":181477.64000000001,"N_COORD97":2539360.2799999998,"ADDRESS":"光復街９１巷１８號","OBJECTID":393976},"geometry":{"x":181477.6400000006,"y":2539360.2800000012}},{"attributes":{"ID":394001,"DIS_CODE":0,"TOWNNAME":"關廟區","LI":"五甲里","LIN":"16鄰","STREET":"光復街","SECT":" ","MAREA":" ","LANE":"９３巷","ALLEY":" ","HOUSE_NO":"５號","E_COORD97":181485.98999999999,"N_COORD97":2539380.2799999998,"ADDRESS":"光復街９３巷５號","OBJECTID":393977},"geometry":{"x":181485.99000000115,"y":2539380.2800000031}},{"attributes":{"ID":394002,"DIS_CODE":0,"TOWNNAME":"關廟區","LI":"東勢里","LIN":"16鄰","STREET":"東安街","SECT":" ","MAREA":" ","LANE":"２４５巷","ALLEY":" ","HOUSE_NO":"４０號","E_COORD97":181672.01999999999,"N_COORD97":2539433.3199999998,"ADDRESS":"東安街２４５巷４０號","OBJECTID":393978},"geometry":{"x":181672.01999999955,"y":2539433.3200000022}},{"attributes":{"ID":394003,"DIS_CODE":0,"TOWNNAME":"關廟區","LI":"五甲里","LIN":"16鄰","STREET":"光復街","SECT":" ","MAREA":" ","LANE":"９３巷","ALLEY":" ","HOUSE_NO":"６號","E_COORD97":181480.29000000001,"N_COORD97":2539383.2799999998,"ADDRESS":"光復街９３巷６號","OBJECTID":393979},"geometry":{"x":181480.29000000097,"y":2539383.2799999993}},{"attributes":{"ID":394004,"DIS_CODE":0,"TOWNNAME":"關廟區","LI":"五甲里","LIN":"16鄰","STREET":"光復街","SECT":" ","MAREA":" ","LANE":"９３巷","ALLEY":" ","HOUSE_NO":"１號","E_COORD97":181503.29000000001,"N_COORD97":2539373.2799999998,"ADDRESS":"光復街９３巷１號","OBJECTID":393980},"geometry":{"x":181503.2900000019,"y":2539373.2799999975}},{"attributes":{"ID":394005,"DIS_CODE":0,"TOWNNAME":"關廟區","LI":"五甲里","LIN":"16鄰","STREET":"光復街","SECT":" ","MAREA":" ","LANE":"９３巷","ALLEY":" ","HOUSE_NO":"８號","E_COORD97":181465.29000000001,"N_COORD97":2539389.2799999998,"ADDRESS":"光復街９３巷８號","OBJECTID":393981},"geometry":{"x":181465.29000000004,"y":2539389.2799999993}},{"attributes":{"ID":394006,"DIS_CODE":0,"TOWNNAME":"東區","LI":"東安里","LIN":"12鄰","STREET":"長榮路","SECT":"二段","MAREA":" ","LANE":"３２巷","ALLEY":" ","HOUSE_NO":"１４２號之１","E_COORD97":170200.98999999999,"N_COORD97":2543135.52,"ADDRESS":"長榮路二段３２巷１４２號之１","OBJECTID":393982},"geometry":{"x":170200.99000000115,"y":2543135.5200000033}},{"attributes":{"ID":394007,"DIS_CODE":0,"TOWNNAME":"東區","LI":"東安里","LIN":"12鄰","STREET":"長榮路","SECT":"二段","MAREA":" ","LANE":"３２巷","ALLEY":" ","HOUSE_NO":"１４２號之４","E_COORD97":170186.85000000001,"N_COORD97":2543131.27,"ADDRESS":"長榮路二段３２巷１４２號之４","OBJECTID":393983},"geometry":{"x":170186.84999999963,"y":2543131.2700000014}},{"attributes":{"ID":394008,"DIS_CODE":0,"TOWNNAME":"東區","LI":"東安里","LIN":"12鄰","STREET":"長榮路","SECT":"二段","MAREA":" ","LANE":"３２巷","ALLEY":" ","HOUSE_NO":"１４２號之５","E_COORD97":170178.84,"N_COORD97":2543124.75,"ADDRESS":"長榮路二段３２巷１４２號之５","OBJECTID":393984},"geometry":{"x":170178.83999999892,"y":2543124.7500000019}},{"attributes":{"ID":394009,"DIS_CODE":0,"TOWNNAME":"東區","LI":"東安里","LIN":"12鄰","STREET":"長榮路","SECT":"二段","MAREA":" ","LANE":"３２巷","ALLEY":" ","HOUSE_NO":"１４２號之６","E_COORD97":170177.73999999999,"N_COORD97":2543128.8799999999,"ADDRESS":"長榮路二段３２巷１４２號之６","OBJECTID":393985},"geometry":{"x":170177.74000000022,"y":2543128.8800000027}},{"attributes":{"ID":394010,"DIS_CODE":0,"TOWNNAME":"東區","LI":"東安里","LIN":"12鄰","STREET":"長榮路","SECT":"二段","MAREA":" ","LANE":"３２巷","ALLEY":" ","HOUSE_NO":"１４２號之７","E_COORD97":170169.98999999999,"N_COORD97":2543126.5600000001,"ADDRESS":"長榮路二段３２巷１４２號之７","OBJECTID":393986},"geometry":{"x":170169.99000000209,"y":2543126.5600000024}},{"attributes":{"ID":394011,"DIS_CODE":0,"TOWNNAME":"東區","LI":"東安里","LIN":"12鄰","STREET":"長榮路","SECT":"二段","MAREA":" ","LANE":"３２巷","ALLEY":" ","HOUSE_NO":"１４２號之８","E_COORD97":170171.39999999999,"N_COORD97":2543123.3700000001,"ADDRESS":"長榮路二段３２巷１４２號之８","OBJECTID":393987},"geometry":{"x":170171.4000000013,"y":2543123.370000001}},{"attributes":{"ID":394012,"DIS_CODE":0,"TOWNNAME":"東區","LI":"東安里","LIN":"12鄰","STREET":"長榮路","SECT":"二段","MAREA":" ","LANE":"３２巷","ALLEY":" ","HOUSE_NO":"１４４號之１","E_COORD97":170202.60000000001,"N_COORD97":2543125.75,"ADDRESS":"長榮路二段３２巷１４４號之１","OBJECTID":393988},"geometry":{"x":170202.60000000056,"y":2543125.7500000019}},{"attributes":{"ID":394013,"DIS_CODE":0,"TOWNNAME":"東區","LI":"新東里","LIN":"23鄰","STREET":"裕豐街","SECT":" ","MAREA":" ","LANE":"９９巷","ALLEY":" ","HOUSE_NO":"７號","E_COORD97":170721.42999999999,"N_COORD97":2542952.9300000002,"ADDRESS":"裕豐街９９巷７號","OBJECTID":393989},"geometry":{"x":170721.43000000063,"y":2542952.9300000034}},{"attributes":{"ID":394014,"DIS_CODE":0,"TOWNNAME":"東區","LI":"東安里","LIN":"12鄰","STREET":"長榮路","SECT":"二段","MAREA":" ","LANE":"３２巷","ALLEY":" ","HOUSE_NO":"１４４號之３","E_COORD97":170194.98000000001,"N_COORD97":2543123.5,"ADDRESS":"長榮路二段３２巷１４４號之３","OBJECTID":393990},"geometry":{"x":170194.98000000045,"y":2543123.5000000019}},{"attributes":{"ID":394015,"DIS_CODE":0,"TOWNNAME":"東區","LI":"東安里","LIN":"12鄰","STREET":"長榮路","SECT":"二段","MAREA":" ","LANE":"３２巷","ALLEY":" ","HOUSE_NO":"１４４號之４","E_COORD97":170190.66,"N_COORD97":2543122.5299999998,"ADDRESS":"長榮路二段３２巷１４４號之４","OBJECTID":393991},"geometry":{"x":170190.66000000201,"y":2543122.5300000012}},{"attributes":{"ID":394016,"DIS_CODE":0,"TOWNNAME":"關廟區","LI":"香洋里","LIN":"16鄰","STREET":"中央路","SECT":" ","MAREA":" ","LANE":"８２巷","ALLEY":" ","HOUSE_NO":"２７號","E_COORD97":181513.78,"N_COORD97":2540098.8900000001,"ADDRESS":"中央路８２巷２７號","OBJECTID":393992},"geometry":{"x":181513.78000000212,"y":2540098.8900000006}},{"attributes":{"ID":394017,"DIS_CODE":0,"TOWNNAME":"東區","LI":"東安里","LIN":"12鄰","STREET":"長榮路","SECT":"二段","MAREA":" ","LANE":"３２巷","ALLEY":" ","HOUSE_NO":"１４４號之５","E_COORD97":170186.32999999999,"N_COORD97":2543121.5,"ADDRESS":"長榮路二段３２巷１４４號之５","OBJECTID":393993},"geometry":{"x":170186.33000000101,"y":2543121.5}},{"attributes":{"ID":394018,"DIS_CODE":0,"TOWNNAME":"東區","LI":"東安里","LIN":"12鄰","STREET":"長榮路","SECT":"二段","MAREA":" ","LANE":"３２巷","ALLEY":" ","HOUSE_NO":"１４４號之６","E_COORD97":170183.81,"N_COORD97":2543117.1099999999,"ADDRESS":"長榮路二段３２巷１４４號之６","OBJECTID":393994},"geometry":{"x":170183.80999999959,"y":2543117.1099999994}},{"attributes":{"ID":394019,"DIS_CODE":0,"TOWNNAME":"關廟區","LI":"北勢里","LIN":"16鄰","STREET":"成功路","SECT":" ","MAREA":" ","LANE":"３２８巷","ALLEY":" ","HOUSE_NO":"１０號","E_COORD97":181322.32000000001,"N_COORD97":2540557.27,"ADDRESS":"成功路３２８巷１０號","OBJECTID":393995},"geometry":{"x":181322.32000000123,"y":2540557.2700000014}},{"attributes":{"ID":394020,"DIS_CODE":0,"TOWNNAME":"關廟區","LI":"五甲里","LIN":"16鄰","STREET":"光復街","SECT":" ","MAREA":" ","LANE":"９３巷","ALLEY":" ","HOUSE_NO":"９號","E_COORD97":181461.09,"N_COORD97":2539391.2799999998,"ADDRESS":"光復街９３巷９號","OBJECTID":393996},"geometry":{"x":181461.09000000078,"y":2539391.2800000012}},{"attributes":{"ID":394021,"DIS_CODE":0,"TOWNNAME":"東區","LI":"東安里","LIN":"12鄰","STREET":"長榮路","SECT":"二段","MAREA":" ","LANE":"３２巷","ALLEY":" ","HOUSE_NO":"１４２號之１２","E_COORD97":170176.23999999999,"N_COORD97":2543111.8199999998,"ADDRESS":"長榮路二段３２巷１４２號之１２","OBJECTID":393997},"geometry":{"x":170176.24000000022,"y":2543111.8200000022}},{"attributes":{"ID":394022,"DIS_CODE":0,"TOWNNAME":"關廟區","LI":"五甲里","LIN":"16鄰","STREET":"光復街","SECT":" ","MAREA":" ","LANE":"９３巷","ALLEY":" ","HOUSE_NO":"１０號","E_COORD97":181458.44,"N_COORD97":2539392.2799999998,"ADDRESS":"光復街９３巷１０號","OBJECTID":393998},"geometry":{"x":181458.44000000041,"y":2539392.2799999993}},{"attributes":{"ID":394023,"DIS_CODE":0,"TOWNNAME":"關廟區","LI":"北勢里","LIN":"16鄰","STREET":"成功路","SECT":" ","MAREA":" ","LANE":"３４６巷","ALLEY":" ","HOUSE_NO":"３號","E_COORD97":181286.57000000001,"N_COORD97":2540567.27,"ADDRESS":"成功路３４６巷３號","OBJECTID":393999},"geometry":{"x":181286.57000000216,"y":2540567.2700000033}},{"attributes":{"ID":394024,"DIS_CODE":0,"TOWNNAME":"東區","LI":"虎尾里","LIN":"17鄰","STREET":"富農街","SECT":"一段","MAREA":" ","LANE":"２９巷","ALLEY":" ","HOUSE_NO":"１７號","E_COORD97":171472.88,"N_COORD97":2542209.4700000002,"ADDRESS":"富農街一段２９巷１７號","OBJECTID":394000},"geometry":{"x":171472.88000000082,"y":2542209.4700000025}}]}