{"displayFieldName":"TOWNNAME","fieldAliases":{"ID":"ID","DIS_CODE":"DIS_CODE","TOWNNAME":"TOWNNAME","LI":"LI","LIN":"LIN","STREET":"STREET","SECT":"SECT","MAREA":"MAREA","LANE":"LANE","ALLEY":"ALLEY","HOUSE_NO":"HOUSE_NO","E_COORD97":"E_COORD97","N_COORD97":"N_COORD97","ADDRESS":"ADDRESS","OBJECTID":"OBJECTID"},"geometryType":"esriGeometryPoint","spatialReference":{"wkid":102443,"latestWkid":3826},"fields":[{"name":"ID","type":"esriFieldTypeDouble","alias":"ID"},{"name":"DIS_CODE","type":"esriFieldTypeInteger","alias":"DIS_CODE"},{"name":"TOWNNAME","type":"esriFieldTypeString","alias":"TOWNNAME","length":8},{"name":"LI","type":"esriFieldTypeString","alias":"LI","length":8},{"name":"LIN","type":"esriFieldTypeString","alias":"LIN","length":12},{"name":"STREET","type":"esriFieldTypeString","alias":"STREET","length":20},{"name":"SECT","type":"esriFieldTypeString","alias":"SECT","length":8},{"name":"MAREA","type":"esriFieldTypeString","alias":"MAREA","length":12},{"name":"LANE","type":"esriFieldTypeString","alias":"LANE","length":10},{"name":"ALLEY","type":"esriFieldTypeString","alias":"ALLEY","length":10},{"name":"HOUSE_NO","type":"esriFieldTypeString","alias":"HOUSE_NO","length":20},{"name":"E_COORD97","type":"esriFieldTypeDouble","alias":"E_COORD97"},{"name":"N_COORD97","type":"esriFieldTypeDouble","alias":"N_COORD97"},{"name":"ADDRESS","type":"esriFieldTypeString","alias":"ADDRESS","length":50},{"name":"OBJECTID","type":"esriFieldTypeOID","alias":"OBJECTID"}],"features":[{"attributes":{"ID":532428,"DIS_CODE":0,"TOWNNAME":"東區","LI":"自強里","LIN":"30鄰","STREET":"中華東路","SECT":"二段","MAREA":" ","LANE":" ","ALLEY":" ","HOUSE_NO":"１９３號六樓之１６","E_COORD97":171323.84,"N_COORD97":2542775.98,"ADDRESS":"中華東路二段１９３號六樓之１６","OBJECTID":532401},"geometry":{"x":171323.84000000078,"y":2542775.9800000004}},{"attributes":{"ID":532429,"DIS_CODE":0,"TOWNNAME":"東區","LI":"自強里","LIN":"30鄰","STREET":"中華東路","SECT":"二段","MAREA":" ","LANE":" ","ALLEY":" ","HOUSE_NO":"１９３號六樓之２","E_COORD97":171323.84,"N_COORD97":2542775.98,"ADDRESS":"中華東路二段１９３號六樓之２","OBJECTID":532402},"geometry":{"x":171323.84000000078,"y":2542775.9800000004}},{"attributes":{"ID":532430,"DIS_CODE":0,"TOWNNAME":"東區","LI":"自強里","LIN":"30鄰","STREET":"中華東路","SECT":"二段","MAREA":" ","LANE":" ","ALLEY":" ","HOUSE_NO":"１９３號六樓之３","E_COORD97":171323.84,"N_COORD97":2542775.98,"ADDRESS":"中華東路二段１９３號六樓之３","OBJECTID":532403},"geometry":{"x":171323.84000000078,"y":2542775.9800000004}},{"attributes":{"ID":532431,"DIS_CODE":0,"TOWNNAME":"東區","LI":"自強里","LIN":"30鄰","STREET":"中華東路","SECT":"二段","MAREA":" ","LANE":" ","ALLEY":" ","HOUSE_NO":"１９３號六樓之５","E_COORD97":171323.84,"N_COORD97":2542775.98,"ADDRESS":"中華東路二段１９３號六樓之５","OBJECTID":532404},"geometry":{"x":171323.84000000078,"y":2542775.9800000004}},{"attributes":{"ID":532432,"DIS_CODE":0,"TOWNNAME":"永康區","LI":"南灣里","LIN":"13鄰","STREET":"大灣路","SECT":" ","MAREA":" ","LANE":" ","ALLEY":" ","HOUSE_NO":"５５８號","E_COORD97":174643.88,"N_COORD97":2544733.7400000002,"ADDRESS":"大灣路５５８號","OBJECTID":532405},"geometry":{"x":174643.88000000175,"y":2544733.7400000002}},{"attributes":{"ID":532433,"DIS_CODE":0,"TOWNNAME":"永康區","LI":"南灣里","LIN":"7鄰","STREET":"大灣路","SECT":" ","MAREA":" ","LANE":" ","ALLEY":" ","HOUSE_NO":"５７９號","E_COORD97":174353.79000000001,"N_COORD97":2544543.8100000001,"ADDRESS":"大灣路５７９號","OBJECTID":532406},"geometry":{"x":174353.79000000097,"y":2544543.8100000005}},{"attributes":{"ID":532434,"DIS_CODE":0,"TOWNNAME":"永康區","LI":"東灣里","LIN":"15鄰","STREET":"大灣路","SECT":" ","MAREA":" ","LANE":" ","ALLEY":" ","HOUSE_NO":"２９１號","E_COORD97":174823.34,"N_COORD97":2545032.48,"ADDRESS":"大灣路２９１號","OBJECTID":532407},"geometry":{"x":174823.33999999985,"y":2545032.4800000023}},{"attributes":{"ID":532435,"DIS_CODE":0,"TOWNNAME":"東區","LI":"自強里","LIN":"30鄰","STREET":"中華東路","SECT":"二段","MAREA":" ","LANE":" ","ALLEY":" ","HOUSE_NO":"１９３號六樓之７","E_COORD97":171323.84,"N_COORD97":2542775.98,"ADDRESS":"中華東路二段１９３號六樓之７","OBJECTID":532408},"geometry":{"x":171323.84000000078,"y":2542775.9800000004}},{"attributes":{"ID":532436,"DIS_CODE":0,"TOWNNAME":"東區","LI":"自強里","LIN":"30鄰","STREET":"中華東路","SECT":"二段","MAREA":" ","LANE":" ","ALLEY":" ","HOUSE_NO":"１９３號六樓之８","E_COORD97":171323.84,"N_COORD97":2542775.98,"ADDRESS":"中華東路二段１９３號六樓之８","OBJECTID":532409},"geometry":{"x":171323.84000000078,"y":2542775.9800000004}},{"attributes":{"ID":532437,"DIS_CODE":0,"TOWNNAME":"東區","LI":"自強里","LIN":"30鄰","STREET":"中華東路","SECT":"二段","MAREA":" ","LANE":" ","ALLEY":" ","HOUSE_NO":"１９３號六樓之９","E_COORD97":171323.84,"N_COORD97":2542775.98,"ADDRESS":"中華東路二段１９３號六樓之９","OBJECTID":532410},"geometry":{"x":171323.84000000078,"y":2542775.9800000004}},{"attributes":{"ID":532438,"DIS_CODE":0,"TOWNNAME":"東區","LI":"自強里","LIN":"30鄰","STREET":"中華東路","SECT":"二段","MAREA":" ","LANE":" ","ALLEY":" ","HOUSE_NO":"１９３號四樓","E_COORD97":171323.84,"N_COORD97":2542775.98,"ADDRESS":"中華東路二段１９３號四樓","OBJECTID":532411},"geometry":{"x":171323.84000000078,"y":2542775.9800000004}},{"attributes":{"ID":532439,"DIS_CODE":0,"TOWNNAME":"東區","LI":"自強里","LIN":"30鄰","STREET":"中華東路","SECT":"二段","MAREA":" ","LANE":" ","ALLEY":" ","HOUSE_NO":"１９３號四樓之１","E_COORD97":171323.84,"N_COORD97":2542775.98,"ADDRESS":"中華東路二段１９３號四樓之１","OBJECTID":532412},"geometry":{"x":171323.84000000078,"y":2542775.9800000004}},{"attributes":{"ID":532440,"DIS_CODE":0,"TOWNNAME":"東區","LI":"自強里","LIN":"30鄰","STREET":"中華東路","SECT":"二段","MAREA":" ","LANE":" ","ALLEY":" ","HOUSE_NO":"１９３號四樓之１０","E_COORD97":171323.84,"N_COORD97":2542775.98,"ADDRESS":"中華東路二段１９３號四樓之１０","OBJECTID":532413},"geometry":{"x":171323.84000000078,"y":2542775.9800000004}},{"attributes":{"ID":532441,"DIS_CODE":0,"TOWNNAME":"東區","LI":"自強里","LIN":"30鄰","STREET":"中華東路","SECT":"二段","MAREA":" ","LANE":" ","ALLEY":" ","HOUSE_NO":"１９３號四樓之１１","E_COORD97":171323.84,"N_COORD97":2542775.98,"ADDRESS":"中華東路二段１９３號四樓之１１","OBJECTID":532414},"geometry":{"x":171323.84000000078,"y":2542775.9800000004}},{"attributes":{"ID":532442,"DIS_CODE":0,"TOWNNAME":"東區","LI":"自強里","LIN":"30鄰","STREET":"中華東路","SECT":"二段","MAREA":" ","LANE":" ","ALLEY":" ","HOUSE_NO":"１９３號四樓之１２","E_COORD97":171323.84,"N_COORD97":2542775.98,"ADDRESS":"中華東路二段１９３號四樓之１２","OBJECTID":532415},"geometry":{"x":171323.84000000078,"y":2542775.9800000004}},{"attributes":{"ID":532443,"DIS_CODE":0,"TOWNNAME":"東區","LI":"自強里","LIN":"30鄰","STREET":"中華東路","SECT":"二段","MAREA":" ","LANE":" ","ALLEY":" ","HOUSE_NO":"１９３號四樓之１３","E_COORD97":171323.84,"N_COORD97":2542775.98,"ADDRESS":"中華東路二段１９３號四樓之１３","OBJECTID":532416},"geometry":{"x":171323.84000000078,"y":2542775.9800000004}},{"attributes":{"ID":532444,"DIS_CODE":0,"TOWNNAME":"東區","LI":"自強里","LIN":"30鄰","STREET":"中華東路","SECT":"二段","MAREA":" ","LANE":" ","ALLEY":" ","HOUSE_NO":"１９３號四樓之２","E_COORD97":171323.84,"N_COORD97":2542775.98,"ADDRESS":"中華東路二段１９３號四樓之２","OBJECTID":532417},"geometry":{"x":171323.84000000078,"y":2542775.9800000004}},{"attributes":{"ID":532445,"DIS_CODE":0,"TOWNNAME":"東區","LI":"自強里","LIN":"30鄰","STREET":"中華東路","SECT":"二段","MAREA":" ","LANE":" ","ALLEY":" ","HOUSE_NO":"１９３號四樓之３","E_COORD97":171323.84,"N_COORD97":2542775.98,"ADDRESS":"中華東路二段１９３號四樓之３","OBJECTID":532418},"geometry":{"x":171323.84000000078,"y":2542775.9800000004}},{"attributes":{"ID":532446,"DIS_CODE":0,"TOWNNAME":"東區","LI":"自強里","LIN":"30鄰","STREET":"中華東路","SECT":"二段","MAREA":" ","LANE":" ","ALLEY":" ","HOUSE_NO":"１９３號四樓之５","E_COORD97":171323.84,"N_COORD97":2542775.98,"ADDRESS":"中華東路二段１９３號四樓之５","OBJECTID":532419},"geometry":{"x":171323.84000000078,"y":2542775.9800000004}},{"attributes":{"ID":532447,"DIS_CODE":0,"TOWNNAME":"東區","LI":"自強里","LIN":"30鄰","STREET":"中華東路","SECT":"二段","MAREA":" ","LANE":" ","ALLEY":" ","HOUSE_NO":"１９３號四樓之６","E_COORD97":171323.84,"N_COORD97":2542775.98,"ADDRESS":"中華東路二段１９３號四樓之６","OBJECTID":532420},"geometry":{"x":171323.84000000078,"y":2542775.9800000004}},{"attributes":{"ID":532448,"DIS_CODE":0,"TOWNNAME":"東區","LI":"自強里","LIN":"30鄰","STREET":"中華東路","SECT":"二段","MAREA":" ","LANE":" ","ALLEY":" ","HOUSE_NO":"１９３號四樓之７","E_COORD97":171323.84,"N_COORD97":2542775.98,"ADDRESS":"中華東路二段１９３號四樓之７","OBJECTID":532421},"geometry":{"x":171323.84000000078,"y":2542775.9800000004}},{"attributes":{"ID":532449,"DIS_CODE":0,"TOWNNAME":"東區","LI":"自強里","LIN":"30鄰","STREET":"中華東路","SECT":"二段","MAREA":" ","LANE":" ","ALLEY":" ","HOUSE_NO":"１９３號四樓之８","E_COORD97":171323.84,"N_COORD97":2542775.98,"ADDRESS":"中華東路二段１９３號四樓之８","OBJECTID":532422},"geometry":{"x":171323.84000000078,"y":2542775.9800000004}},{"attributes":{"ID":532450,"DIS_CODE":0,"TOWNNAME":"東區","LI":"自強里","LIN":"30鄰","STREET":"中華東路","SECT":"二段","MAREA":" ","LANE":" ","ALLEY":" ","HOUSE_NO":"１９３號四樓之９","E_COORD97":171323.84,"N_COORD97":2542775.98,"ADDRESS":"中華東路二段１９３號四樓之９","OBJECTID":532423},"geometry":{"x":171323.84000000078,"y":2542775.9800000004}},{"attributes":{"ID":532451,"DIS_CODE":0,"TOWNNAME":"永康區","LI":"東灣里","LIN":"25鄰","STREET":"大灣二街","SECT":" ","MAREA":" ","LANE":" ","ALLEY":" ","HOUSE_NO":"８５號","E_COORD97":174778.92999999999,"N_COORD97":2544760.7000000002,"ADDRESS":"大灣二街８５號","OBJECTID":532424},"geometry":{"x":174778.93000000156,"y":2544760.6999999993}},{"attributes":{"ID":532452,"DIS_CODE":0,"TOWNNAME":"永康區","LI":"南灣里","LIN":"13鄰","STREET":"立興街","SECT":" ","MAREA":" ","LANE":" ","ALLEY":" ","HOUSE_NO":"７１號","E_COORD97":174579.76000000001,"N_COORD97":2544775.3399999999,"ADDRESS":"立興街７１號","OBJECTID":532425},"geometry":{"x":174579.75999999978,"y":2544775.3400000017}},{"attributes":{"ID":532453,"DIS_CODE":0,"TOWNNAME":"永康區","LI":"埔園里","LIN":"6鄰","STREET":"自強路","SECT":" ","MAREA":" ","LANE":" ","ALLEY":" ","HOUSE_NO":"４５８號","E_COORD97":173754.82999999999,"N_COORD97":2547940.4399999999,"ADDRESS":"自強路４５８號","OBJECTID":532426},"geometry":{"x":173754.83000000101,"y":2547940.4400000013}},{"attributes":{"ID":532454,"DIS_CODE":0,"TOWNNAME":"永康區","LI":"烏竹里","LIN":"10鄰","STREET":"竹園二街","SECT":" ","MAREA":" ","LANE":" ","ALLEY":" ","HOUSE_NO":"１４８號","E_COORD97":174541.10999999999,"N_COORD97":2549240.5699999998,"ADDRESS":"竹園二街１４８號","OBJECTID":532427},"geometry":{"x":174541.1100000022,"y":2549240.5700000003}},{"attributes":{"ID":532455,"DIS_CODE":0,"TOWNNAME":"永康區","LI":"東灣里","LIN":"15鄰","STREET":"大灣路","SECT":" ","MAREA":" ","LANE":" ","ALLEY":" ","HOUSE_NO":"２９９號","E_COORD97":174836.56,"N_COORD97":2545021.54,"ADDRESS":"大灣路２９９號","OBJECTID":532428},"geometry":{"x":174836.55999999959,"y":2545021.5399999991}},{"attributes":{"ID":532456,"DIS_CODE":0,"TOWNNAME":"永康區","LI":"五王里","LIN":"30鄰","STREET":"中山東路","SECT":" ","MAREA":" ","LANE":" ","ALLEY":" ","HOUSE_NO":"１４６號十樓之７","E_COORD97":171727.25,"N_COORD97":2545875.5699999998,"ADDRESS":"中山東路１４６號十樓之７","OBJECTID":532429},"geometry":{"x":171727.25,"y":2545875.5700000022}},{"attributes":{"ID":532457,"DIS_CODE":0,"TOWNNAME":"永康區","LI":"五王里","LIN":"30鄰","STREET":"中山東路","SECT":" ","MAREA":" ","LANE":" ","ALLEY":" ","HOUSE_NO":"１４２號十樓之１","E_COORD97":171732.45000000001,"N_COORD97":2545856.3300000001,"ADDRESS":"中山東路１４２號十樓之１","OBJECTID":532430},"geometry":{"x":171732.45000000019,"y":2545856.3300000038}},{"attributes":{"ID":532458,"DIS_CODE":0,"TOWNNAME":"永康區","LI":"五王里","LIN":"30鄰","STREET":"中山東路","SECT":" ","MAREA":" ","LANE":" ","ALLEY":" ","HOUSE_NO":"１５８號三樓之７","E_COORD97":171741.89000000001,"N_COORD97":2545814.4100000001,"ADDRESS":"中山東路１５８號三樓之７","OBJECTID":532431},"geometry":{"x":171741.8900000006,"y":2545814.4100000001}},{"attributes":{"ID":532459,"DIS_CODE":0,"TOWNNAME":"永康區","LI":"五王里","LIN":"30鄰","STREET":"中山東路","SECT":" ","MAREA":" ","LANE":" ","ALLEY":" ","HOUSE_NO":"１１６號七樓之３","E_COORD97":171734.70999999999,"N_COORD97":2545932.3300000001,"ADDRESS":"中山東路１１６號七樓之３","OBJECTID":532432},"geometry":{"x":171734.71000000089,"y":2545932.3300000019}},{"attributes":{"ID":532460,"DIS_CODE":0,"TOWNNAME":"永康區","LI":"五王里","LIN":"30鄰","STREET":"中山東路","SECT":" ","MAREA":" ","LANE":" ","ALLEY":" ","HOUSE_NO":"１５８號六樓之３","E_COORD97":171741.91,"N_COORD97":2545814.4100000001,"ADDRESS":"中山東路１５８號六樓之３","OBJECTID":532433},"geometry":{"x":171741.91000000108,"y":2545814.4100000001}},{"attributes":{"ID":532461,"DIS_CODE":0,"TOWNNAME":"永康區","LI":"五王里","LIN":"30鄰","STREET":"中山東路","SECT":" ","MAREA":" ","LANE":" ","ALLEY":" ","HOUSE_NO":"１５８號四樓之５","E_COORD97":171741.95999999999,"N_COORD97":2545814.4100000001,"ADDRESS":"中山東路１５８號四樓之５","OBJECTID":532434},"geometry":{"x":171741.96000000089,"y":2545814.4100000001}},{"attributes":{"ID":532462,"DIS_CODE":0,"TOWNNAME":"永康區","LI":"五王里","LIN":"30鄰","STREET":"中山東路","SECT":" ","MAREA":" ","LANE":" ","ALLEY":" ","HOUSE_NO":"１４６號十一樓之２","E_COORD97":171728.54999999999,"N_COORD97":2545875.5699999998,"ADDRESS":"中山東路１４６號十一樓之２","OBJECTID":532435},"geometry":{"x":171728.55000000168,"y":2545875.5700000022}},{"attributes":{"ID":532463,"DIS_CODE":0,"TOWNNAME":"永康區","LI":"五王里","LIN":"30鄰","STREET":"中山東路","SECT":" ","MAREA":" ","LANE":" ","ALLEY":" ","HOUSE_NO":"１５８號七樓之３","E_COORD97":171741.91,"N_COORD97":2545814.4100000001,"ADDRESS":"中山東路１５８號七樓之３","OBJECTID":532436},"geometry":{"x":171741.91000000108,"y":2545814.4100000001}},{"attributes":{"ID":532464,"DIS_CODE":0,"TOWNNAME":"永康區","LI":"五王里","LIN":"30鄰","STREET":"中山東路","SECT":" ","MAREA":" ","LANE":" ","ALLEY":" ","HOUSE_NO":"１４２號七樓之２","E_COORD97":171732.57999999999,"N_COORD97":2545856.3300000001,"ADDRESS":"中山東路１４２號七樓之２","OBJECTID":532437},"geometry":{"x":171732.58000000101,"y":2545856.3300000038}},{"attributes":{"ID":532465,"DIS_CODE":0,"TOWNNAME":"南區","LI":"明興里","LIN":"10鄰","STREET":"金華路","SECT":"一段","MAREA":" ","LANE":" ","ALLEY":" ","HOUSE_NO":"１０８號","E_COORD97":166917.39000000001,"N_COORD97":2540518.3100000001,"ADDRESS":"金華路一段１０８號","OBJECTID":532438},"geometry":{"x":166917.3900000006,"y":2540518.3100000024}},{"attributes":{"ID":532466,"DIS_CODE":0,"TOWNNAME":"永康區","LI":"五王里","LIN":"30鄰","STREET":"中山東路","SECT":" ","MAREA":" ","LANE":" ","ALLEY":" ","HOUSE_NO":"１４２號六樓之１","E_COORD97":171732.45000000001,"N_COORD97":2545856.3300000001,"ADDRESS":"中山東路１４２號六樓之１","OBJECTID":532439},"geometry":{"x":171732.45000000019,"y":2545856.3300000038}},{"attributes":{"ID":532467,"DIS_CODE":0,"TOWNNAME":"永康區","LI":"五王里","LIN":"30鄰","STREET":"中山東路","SECT":" ","MAREA":" ","LANE":" ","ALLEY":" ","HOUSE_NO":"１４２號四樓之２","E_COORD97":171732.57999999999,"N_COORD97":2545856.3300000001,"ADDRESS":"中山東路１４２號四樓之２","OBJECTID":532440},"geometry":{"x":171732.58000000101,"y":2545856.3300000038}},{"attributes":{"ID":532468,"DIS_CODE":0,"TOWNNAME":"永康區","LI":"五王里","LIN":"30鄰","STREET":"中山東路","SECT":" ","MAREA":" ","LANE":" ","ALLEY":" ","HOUSE_NO":"１４２號五樓之１","E_COORD97":171732.45000000001,"N_COORD97":2545856.3300000001,"ADDRESS":"中山東路１４２號五樓之１","OBJECTID":532441},"geometry":{"x":171732.45000000019,"y":2545856.3300000038}},{"attributes":{"ID":532469,"DIS_CODE":0,"TOWNNAME":"永康區","LI":"五王里","LIN":"30鄰","STREET":"中山東路","SECT":" ","MAREA":" ","LANE":" ","ALLEY":" ","HOUSE_NO":"１６０號七樓之７","E_COORD97":171737.5,"N_COORD97":2545835.6499999999,"ADDRESS":"中山東路１６０號七樓之７","OBJECTID":532442},"geometry":{"x":171737.49999999907,"y":2545835.6500000022}},{"attributes":{"ID":532470,"DIS_CODE":0,"TOWNNAME":"永康區","LI":"五王里","LIN":"30鄰","STREET":"中山東路","SECT":" ","MAREA":" ","LANE":" ","ALLEY":" ","HOUSE_NO":"１１６號六樓之３","E_COORD97":171734.70999999999,"N_COORD97":2545932.3300000001,"ADDRESS":"中山東路１１６號六樓之３","OBJECTID":532443},"geometry":{"x":171734.71000000089,"y":2545932.3300000019}},{"attributes":{"ID":532471,"DIS_CODE":0,"TOWNNAME":"永康區","LI":"五王里","LIN":"30鄰","STREET":"中山東路","SECT":" ","MAREA":" ","LANE":" ","ALLEY":" ","HOUSE_NO":"１４２號八樓之３","E_COORD97":171732.54999999999,"N_COORD97":2545856.3300000001,"ADDRESS":"中山東路１４２號八樓之３","OBJECTID":532444},"geometry":{"x":171732.55000000075,"y":2545856.3300000038}},{"attributes":{"ID":532472,"DIS_CODE":0,"TOWNNAME":"永康區","LI":"五王里","LIN":"30鄰","STREET":"中山東路","SECT":" ","MAREA":" ","LANE":" ","ALLEY":" ","HOUSE_NO":"１５８號十一樓之６","E_COORD97":171743.16,"N_COORD97":2545814.4100000001,"ADDRESS":"中山東路１５８號十一樓之６","OBJECTID":532445},"geometry":{"x":171743.16000000015,"y":2545814.4100000001}},{"attributes":{"ID":532473,"DIS_CODE":0,"TOWNNAME":"永康區","LI":"五王里","LIN":"30鄰","STREET":"中山東路","SECT":" ","MAREA":" ","LANE":" ","ALLEY":" ","HOUSE_NO":"１６０號四樓之１","E_COORD97":171737.42000000001,"N_COORD97":2545835.6499999999,"ADDRESS":"中山東路１６０號四樓之１","OBJECTID":532446},"geometry":{"x":171737.41999999993,"y":2545835.6500000022}},{"attributes":{"ID":532474,"DIS_CODE":0,"TOWNNAME":"永康區","LI":"五王里","LIN":"30鄰","STREET":"中山東路","SECT":" ","MAREA":" ","LANE":" ","ALLEY":" ","HOUSE_NO":"１６０號五樓之７","E_COORD97":171737.5,"N_COORD97":2545835.6499999999,"ADDRESS":"中山東路１６０號五樓之７","OBJECTID":532447},"geometry":{"x":171737.49999999907,"y":2545835.6500000022}},{"attributes":{"ID":532475,"DIS_CODE":0,"TOWNNAME":"新營區","LI":"民生里","LIN":"30鄰","STREET":"民治路","SECT":" ","MAREA":" ","LANE":" ","ALLEY":" ","HOUSE_NO":"２８１號四樓","E_COORD97":178756.37,"N_COORD97":2578271.9100000001,"ADDRESS":"民治路２８１號四樓","OBJECTID":532448},"geometry":{"x":178756.37000000011,"y":2578271.910000002}},{"attributes":{"ID":532476,"DIS_CODE":0,"TOWNNAME":"新營區","LI":"民生里","LIN":"30鄰","STREET":"民治路","SECT":" ","MAREA":" ","LANE":" ","ALLEY":" ","HOUSE_NO":"２８３號八樓","E_COORD97":178756.37,"N_COORD97":2578271.9100000001,"ADDRESS":"民治路２８３號八樓","OBJECTID":532449},"geometry":{"x":178756.37000000011,"y":2578271.910000002}},{"attributes":{"ID":532477,"DIS_CODE":0,"TOWNNAME":"新營區","LI":"民生里","LIN":"30鄰","STREET":"民治路","SECT":" ","MAREA":" ","LANE":" ","ALLEY":" ","HOUSE_NO":"２７７號四樓","E_COORD97":178756.37,"N_COORD97":2578271.9100000001,"ADDRESS":"民治路２７７號四樓","OBJECTID":532450},"geometry":{"x":178756.37000000011,"y":2578271.910000002}},{"attributes":{"ID":532478,"DIS_CODE":0,"TOWNNAME":"新營區","LI":"民生里","LIN":"30鄰","STREET":"民治路","SECT":" ","MAREA":" ","LANE":" ","ALLEY":" ","HOUSE_NO":"２７７號五樓","E_COORD97":178756.37,"N_COORD97":2578271.9100000001,"ADDRESS":"民治路２７７號五樓","OBJECTID":532451},"geometry":{"x":178756.37000000011,"y":2578271.910000002}},{"attributes":{"ID":532479,"DIS_CODE":0,"TOWNNAME":"新營區","LI":"民生里","LIN":"30鄰","STREET":"民治路","SECT":" ","MAREA":" ","LANE":" ","ALLEY":" ","HOUSE_NO":"２７７號十二樓","E_COORD97":178757.62,"N_COORD97":2578271.9100000001,"ADDRESS":"民治路２７７號十二樓","OBJECTID":532452},"geometry":{"x":178757.62000000011,"y":2578271.910000002}},{"attributes":{"ID":532480,"DIS_CODE":0,"TOWNNAME":"新營區","LI":"民生里","LIN":"30鄰","STREET":"民治路","SECT":" ","MAREA":" ","LANE":" ","ALLEY":" ","HOUSE_NO":"２７５號十一樓","E_COORD97":178757.62,"N_COORD97":2578271.9100000001,"ADDRESS":"民治路２７５號十一樓","OBJECTID":532453},"geometry":{"x":178757.62000000011,"y":2578271.910000002}},{"attributes":{"ID":532481,"DIS_CODE":0,"TOWNNAME":"新營區","LI":"民生里","LIN":"30鄰","STREET":"民治路","SECT":" ","MAREA":" ","LANE":" ","ALLEY":" ","HOUSE_NO":"２７７號十三樓","E_COORD97":178757.62,"N_COORD97":2578271.9100000001,"ADDRESS":"民治路２７７號十三樓","OBJECTID":532454},"geometry":{"x":178757.62000000011,"y":2578271.910000002}},{"attributes":{"ID":532482,"DIS_CODE":0,"TOWNNAME":"新營區","LI":"民生里","LIN":"30鄰","STREET":"民治路","SECT":" ","MAREA":" ","LANE":" ","ALLEY":" ","HOUSE_NO":"２７５號十樓","E_COORD97":178756.37,"N_COORD97":2578271.9100000001,"ADDRESS":"民治路２７５號十樓","OBJECTID":532455},"geometry":{"x":178756.37000000011,"y":2578271.910000002}},{"attributes":{"ID":532483,"DIS_CODE":0,"TOWNNAME":"新營區","LI":"民生里","LIN":"30鄰","STREET":"民治路","SECT":" ","MAREA":" ","LANE":" ","ALLEY":" ","HOUSE_NO":"２８５號四樓","E_COORD97":178756.37,"N_COORD97":2578271.9100000001,"ADDRESS":"民治路２８５號四樓","OBJECTID":532456},"geometry":{"x":178756.37000000011,"y":2578271.910000002}},{"attributes":{"ID":532484,"DIS_CODE":0,"TOWNNAME":"新營區","LI":"民生里","LIN":"30鄰","STREET":"民治路","SECT":" ","MAREA":" ","LANE":" ","ALLEY":" ","HOUSE_NO":"２７５號十三樓","E_COORD97":178757.62,"N_COORD97":2578271.9100000001,"ADDRESS":"民治路２７５號十三樓","OBJECTID":532457},"geometry":{"x":178757.62000000011,"y":2578271.910000002}},{"attributes":{"ID":532485,"DIS_CODE":0,"TOWNNAME":"新營區","LI":"民生里","LIN":"30鄰","STREET":"民治路","SECT":" ","MAREA":" ","LANE":" ","ALLEY":" ","HOUSE_NO":"２７３號十二樓","E_COORD97":178757.62,"N_COORD97":2578271.9100000001,"ADDRESS":"民治路２７３號十二樓","OBJECTID":532458},"geometry":{"x":178757.62000000011,"y":2578271.910000002}},{"attributes":{"ID":532486,"DIS_CODE":0,"TOWNNAME":"新營區","LI":"民生里","LIN":"30鄰","STREET":"民治路","SECT":" ","MAREA":" ","LANE":" ","ALLEY":" ","HOUSE_NO":"２７１號八樓","E_COORD97":178756.37,"N_COORD97":2578271.9100000001,"ADDRESS":"民治路２７１號八樓","OBJECTID":532459},"geometry":{"x":178756.37000000011,"y":2578271.910000002}},{"attributes":{"ID":532487,"DIS_CODE":0,"TOWNNAME":"新營區","LI":"民生里","LIN":"30鄰","STREET":"民治路","SECT":" ","MAREA":" ","LANE":" ","ALLEY":" ","HOUSE_NO":"２７３號十三樓","E_COORD97":178757.62,"N_COORD97":2578271.9100000001,"ADDRESS":"民治路２７３號十三樓","OBJECTID":532460},"geometry":{"x":178757.62000000011,"y":2578271.910000002}},{"attributes":{"ID":532488,"DIS_CODE":0,"TOWNNAME":"新營區","LI":"民生里","LIN":"30鄰","STREET":"民治路","SECT":" ","MAREA":" ","LANE":" ","ALLEY":" ","HOUSE_NO":"２７１號九樓","E_COORD97":178756.37,"N_COORD97":2578271.9100000001,"ADDRESS":"民治路２７１號九樓","OBJECTID":532461},"geometry":{"x":178756.37000000011,"y":2578271.910000002}},{"attributes":{"ID":532489,"DIS_CODE":0,"TOWNNAME":"新營區","LI":"民生里","LIN":"30鄰","STREET":"民治路","SECT":" ","MAREA":" ","LANE":" ","ALLEY":" ","HOUSE_NO":"２７３號五樓","E_COORD97":178756.37,"N_COORD97":2578271.9100000001,"ADDRESS":"民治路２７３號五樓","OBJECTID":532462},"geometry":{"x":178756.37000000011,"y":2578271.910000002}},{"attributes":{"ID":532490,"DIS_CODE":0,"TOWNNAME":"新營區","LI":"民生里","LIN":"30鄰","STREET":"民治路","SECT":" ","MAREA":" ","LANE":" ","ALLEY":" ","HOUSE_NO":"２７９號五樓","E_COORD97":178756.37,"N_COORD97":2578271.9100000001,"ADDRESS":"民治路２７９號五樓","OBJECTID":532463},"geometry":{"x":178756.37000000011,"y":2578271.910000002}},{"attributes":{"ID":532491,"DIS_CODE":0,"TOWNNAME":"新營區","LI":"民生里","LIN":"30鄰","STREET":"民治路","SECT":" ","MAREA":" ","LANE":" ","ALLEY":" ","HOUSE_NO":"２８３號十三樓","E_COORD97":178757.62,"N_COORD97":2578271.9100000001,"ADDRESS":"民治路２８３號十三樓","OBJECTID":532464},"geometry":{"x":178757.62000000011,"y":2578271.910000002}},{"attributes":{"ID":532492,"DIS_CODE":0,"TOWNNAME":"新營區","LI":"民生里","LIN":"30鄰","STREET":"民治路","SECT":" ","MAREA":" ","LANE":" ","ALLEY":" ","HOUSE_NO":"２８５號六樓","E_COORD97":178756.37,"N_COORD97":2578271.9100000001,"ADDRESS":"民治路２８５號六樓","OBJECTID":532465},"geometry":{"x":178756.37000000011,"y":2578271.910000002}},{"attributes":{"ID":532493,"DIS_CODE":0,"TOWNNAME":"新營區","LI":"民生里","LIN":"30鄰","STREET":"民治路","SECT":" ","MAREA":" ","LANE":" ","ALLEY":" ","HOUSE_NO":"２７３號三樓","E_COORD97":178756.37,"N_COORD97":2578271.9100000001,"ADDRESS":"民治路２７３號三樓","OBJECTID":532466},"geometry":{"x":178756.37000000011,"y":2578271.910000002}},{"attributes":{"ID":532494,"DIS_CODE":0,"TOWNNAME":"永康區","LI":"埔園里","LIN":"5鄰","STREET":"聖龍街","SECT":" ","MAREA":" ","LANE":" ","ALLEY":" ","HOUSE_NO":"５號","E_COORD97":173799.78,"N_COORD97":2547784.5,"ADDRESS":"聖龍街５號","OBJECTID":532467},"geometry":{"x":173799.78000000119,"y":2547784.5000000019}},{"attributes":{"ID":532495,"DIS_CODE":0,"TOWNNAME":"永康區","LI":"南灣里","LIN":"15鄰","STREET":"大灣一街","SECT":" ","MAREA":" ","LANE":" ","ALLEY":" ","HOUSE_NO":"１０８號","E_COORD97":174494,"N_COORD97":2544684.7799999998,"ADDRESS":"大灣一街１０８號","OBJECTID":532468},"geometry":{"x":174494.00000000186,"y":2544684.7799999993}},{"attributes":{"ID":532496,"DIS_CODE":0,"TOWNNAME":"永康區","LI":"神洲里","LIN":"22鄰","STREET":"忠孝路","SECT":" ","MAREA":" ","LANE":" ","ALLEY":" ","HOUSE_NO":"８２號","E_COORD97":172090.79999999999,"N_COORD97":2544928.9900000002,"ADDRESS":"忠孝路８２號","OBJECTID":532469},"geometry":{"x":172090.79999999981,"y":2544928.9900000002}},{"attributes":{"ID":532497,"DIS_CODE":0,"TOWNNAME":"新營區","LI":"民生里","LIN":"30鄰","STREET":"民治路","SECT":" ","MAREA":" ","LANE":" ","ALLEY":" ","HOUSE_NO":"２８３號二樓","E_COORD97":178756.37,"N_COORD97":2578271.9100000001,"ADDRESS":"民治路２８３號二樓","OBJECTID":532470},"geometry":{"x":178756.37000000011,"y":2578271.910000002}},{"attributes":{"ID":532498,"DIS_CODE":0,"TOWNNAME":"新營區","LI":"民生里","LIN":"30鄰","STREET":"民治路","SECT":" ","MAREA":" ","LANE":" ","ALLEY":" ","HOUSE_NO":"２８３號十樓","E_COORD97":178756.37,"N_COORD97":2578271.9100000001,"ADDRESS":"民治路２８３號十樓","OBJECTID":532471},"geometry":{"x":178756.37000000011,"y":2578271.910000002}},{"attributes":{"ID":532499,"DIS_CODE":0,"TOWNNAME":"新營區","LI":"民生里","LIN":"30鄰","STREET":"民治路","SECT":" ","MAREA":" ","LANE":" ","ALLEY":" ","HOUSE_NO":"２８３號九樓","E_COORD97":178756.37,"N_COORD97":2578271.9100000001,"ADDRESS":"民治路２８３號九樓","OBJECTID":532472},"geometry":{"x":178756.37000000011,"y":2578271.910000002}},{"attributes":{"ID":532500,"DIS_CODE":0,"TOWNNAME":"新營區","LI":"民生里","LIN":"30鄰","STREET":"民治路","SECT":" ","MAREA":" ","LANE":" ","ALLEY":" ","HOUSE_NO":"２７５號六樓","E_COORD97":178756.37,"N_COORD97":2578271.9100000001,"ADDRESS":"民治路２７５號六樓","OBJECTID":532473},"geometry":{"x":178756.37000000011,"y":2578271.910000002}},{"attributes":{"ID":532501,"DIS_CODE":0,"TOWNNAME":"新營區","LI":"民生里","LIN":"30鄰","STREET":"民治路","SECT":" ","MAREA":" ","LANE":" ","ALLEY":" ","HOUSE_NO":"２７５號五樓","E_COORD97":178756.37,"N_COORD97":2578271.9100000001,"ADDRESS":"民治路２７５號五樓","OBJECTID":532474},"geometry":{"x":178756.37000000011,"y":2578271.910000002}},{"attributes":{"ID":532502,"DIS_CODE":0,"TOWNNAME":"新營區","LI":"民生里","LIN":"30鄰","STREET":"民治路","SECT":" ","MAREA":" ","LANE":" ","ALLEY":" ","HOUSE_NO":"２７７號九樓","E_COORD97":178756.37,"N_COORD97":2578271.9100000001,"ADDRESS":"民治路２７７號九樓","OBJECTID":532475},"geometry":{"x":178756.37000000011,"y":2578271.910000002}},{"attributes":{"ID":532503,"DIS_CODE":0,"TOWNNAME":"新營區","LI":"民生里","LIN":"30鄰","STREET":"民治路","SECT":" ","MAREA":" ","LANE":" ","ALLEY":" ","HOUSE_NO":"２７５號四樓","E_COORD97":178756.37,"N_COORD97":2578271.9100000001,"ADDRESS":"民治路２７５號四樓","OBJECTID":532476},"geometry":{"x":178756.37000000011,"y":2578271.910000002}},{"attributes":{"ID":532504,"DIS_CODE":0,"TOWNNAME":"新營區","LI":"民生里","LIN":"30鄰","STREET":"民治路","SECT":" ","MAREA":" ","LANE":" ","ALLEY":" ","HOUSE_NO":"２８５號十三樓","E_COORD97":178757.62,"N_COORD97":2578271.9100000001,"ADDRESS":"民治路２８５號十三樓","OBJECTID":532477},"geometry":{"x":178757.62000000011,"y":2578271.910000002}},{"attributes":{"ID":532505,"DIS_CODE":0,"TOWNNAME":"新營區","LI":"民生里","LIN":"30鄰","STREET":"民治路","SECT":" ","MAREA":" ","LANE":" ","ALLEY":" ","HOUSE_NO":"２８５號三樓","E_COORD97":178756.37,"N_COORD97":2578271.9100000001,"ADDRESS":"民治路２８５號三樓","OBJECTID":532478},"geometry":{"x":178756.37000000011,"y":2578271.910000002}},{"attributes":{"ID":532506,"DIS_CODE":0,"TOWNNAME":"新營區","LI":"民生里","LIN":"30鄰","STREET":"民治路","SECT":" ","MAREA":" ","LANE":" ","ALLEY":" ","HOUSE_NO":"２７３號八樓","E_COORD97":178756.37,"N_COORD97":2578271.9100000001,"ADDRESS":"民治路２７３號八樓","OBJECTID":532479},"geometry":{"x":178756.37000000011,"y":2578271.910000002}},{"attributes":{"ID":532507,"DIS_CODE":0,"TOWNNAME":"新營區","LI":"民生里","LIN":"30鄰","STREET":"民治路","SECT":" ","MAREA":" ","LANE":" ","ALLEY":" ","HOUSE_NO":"２８３號三樓","E_COORD97":178756.37,"N_COORD97":2578271.9100000001,"ADDRESS":"民治路２８３號三樓","OBJECTID":532480},"geometry":{"x":178756.37000000011,"y":2578271.910000002}},{"attributes":{"ID":532508,"DIS_CODE":0,"TOWNNAME":"新營區","LI":"民生里","LIN":"30鄰","STREET":"民治路","SECT":" ","MAREA":" ","LANE":" ","ALLEY":" ","HOUSE_NO":"２８３號六樓","E_COORD97":178756.37,"N_COORD97":2578271.9100000001,"ADDRESS":"民治路２８３號六樓","OBJECTID":532481},"geometry":{"x":178756.37000000011,"y":2578271.910000002}},{"attributes":{"ID":532509,"DIS_CODE":0,"TOWNNAME":"新營區","LI":"民生里","LIN":"30鄰","STREET":"民治路","SECT":" ","MAREA":" ","LANE":" ","ALLEY":" ","HOUSE_NO":"２７３號六樓","E_COORD97":178756.37,"N_COORD97":2578271.9100000001,"ADDRESS":"民治路２７３號六樓","OBJECTID":532482},"geometry":{"x":178756.37000000011,"y":2578271.910000002}},{"attributes":{"ID":532510,"DIS_CODE":0,"TOWNNAME":"新營區","LI":"民生里","LIN":"30鄰","STREET":"民治路","SECT":" ","MAREA":" ","LANE":" ","ALLEY":" ","HOUSE_NO":"２８３號五樓","E_COORD97":178756.37,"N_COORD97":2578271.9100000001,"ADDRESS":"民治路２８３號五樓","OBJECTID":532483},"geometry":{"x":178756.37000000011,"y":2578271.910000002}},{"attributes":{"ID":532511,"DIS_CODE":0,"TOWNNAME":"新營區","LI":"民生里","LIN":"30鄰","STREET":"民治路","SECT":" ","MAREA":" ","LANE":" ","ALLEY":" ","HOUSE_NO":"２７１號十一樓","E_COORD97":178757.62,"N_COORD97":2578271.9100000001,"ADDRESS":"民治路２７１號十一樓","OBJECTID":532484},"geometry":{"x":178757.62000000011,"y":2578271.910000002}},{"attributes":{"ID":532512,"DIS_CODE":0,"TOWNNAME":"新營區","LI":"民生里","LIN":"30鄰","STREET":"民治路","SECT":" ","MAREA":" ","LANE":" ","ALLEY":" ","HOUSE_NO":"２７１號三樓","E_COORD97":178756.37,"N_COORD97":2578271.9100000001,"ADDRESS":"民治路２７１號三樓","OBJECTID":532485},"geometry":{"x":178756.37000000011,"y":2578271.910000002}},{"attributes":{"ID":532513,"DIS_CODE":0,"TOWNNAME":"新營區","LI":"民生里","LIN":"30鄰","STREET":"民治路","SECT":" ","MAREA":" ","LANE":" ","ALLEY":" ","HOUSE_NO":"２７１號十二樓","E_COORD97":178757.62,"N_COORD97":2578271.9100000001,"ADDRESS":"民治路２７１號十二樓","OBJECTID":532486},"geometry":{"x":178757.62000000011,"y":2578271.910000002}},{"attributes":{"ID":532514,"DIS_CODE":0,"TOWNNAME":"新營區","LI":"民生里","LIN":"30鄰","STREET":"民治路","SECT":" ","MAREA":" ","LANE":" ","ALLEY":" ","HOUSE_NO":"２７３號二樓","E_COORD97":178756.37,"N_COORD97":2578271.9100000001,"ADDRESS":"民治路２７３號二樓","OBJECTID":532487},"geometry":{"x":178756.37000000011,"y":2578271.910000002}},{"attributes":{"ID":532515,"DIS_CODE":0,"TOWNNAME":"新營區","LI":"民生里","LIN":"30鄰","STREET":"民治路","SECT":" ","MAREA":" ","LANE":" ","ALLEY":" ","HOUSE_NO":"２７１號十三樓","E_COORD97":178757.62,"N_COORD97":2578271.9100000001,"ADDRESS":"民治路２７１號十三樓","OBJECTID":532488},"geometry":{"x":178757.62000000011,"y":2578271.910000002}},{"attributes":{"ID":532516,"DIS_CODE":0,"TOWNNAME":"新營區","LI":"民生里","LIN":"30鄰","STREET":"民治路","SECT":" ","MAREA":" ","LANE":" ","ALLEY":" ","HOUSE_NO":"２７３號四樓","E_COORD97":178756.37,"N_COORD97":2578271.9100000001,"ADDRESS":"民治路２７３號四樓","OBJECTID":532489},"geometry":{"x":178756.37000000011,"y":2578271.910000002}},{"attributes":{"ID":532517,"DIS_CODE":0,"TOWNNAME":"新營區","LI":"民生里","LIN":"30鄰","STREET":"民治路","SECT":" ","MAREA":" ","LANE":" ","ALLEY":" ","HOUSE_NO":"２７１號四樓","E_COORD97":178756.37,"N_COORD97":2578271.9100000001,"ADDRESS":"民治路２７１號四樓","OBJECTID":532490},"geometry":{"x":178756.37000000011,"y":2578271.910000002}},{"attributes":{"ID":532518,"DIS_CODE":0,"TOWNNAME":"新營區","LI":"民生里","LIN":"30鄰","STREET":"民治路","SECT":" ","MAREA":" ","LANE":" ","ALLEY":" ","HOUSE_NO":"２７３號七樓","E_COORD97":178756.37,"N_COORD97":2578271.9100000001,"ADDRESS":"民治路２７３號七樓","OBJECTID":532491},"geometry":{"x":178756.37000000011,"y":2578271.910000002}},{"attributes":{"ID":532519,"DIS_CODE":0,"TOWNNAME":"新營區","LI":"民生里","LIN":"30鄰","STREET":"民治路","SECT":" ","MAREA":" ","LANE":" ","ALLEY":" ","HOUSE_NO":"２８５號十二樓","E_COORD97":178757.62,"N_COORD97":2578271.9100000001,"ADDRESS":"民治路２８５號十二樓","OBJECTID":532492},"geometry":{"x":178757.62000000011,"y":2578271.910000002}},{"attributes":{"ID":532520,"DIS_CODE":0,"TOWNNAME":"新營區","LI":"民生里","LIN":"30鄰","STREET":"民治路","SECT":" ","MAREA":" ","LANE":" ","ALLEY":" ","HOUSE_NO":"２７３號十樓","E_COORD97":178756.37,"N_COORD97":2578271.9100000001,"ADDRESS":"民治路２７３號十樓","OBJECTID":532493},"geometry":{"x":178756.37000000011,"y":2578271.910000002}},{"attributes":{"ID":532521,"DIS_CODE":0,"TOWNNAME":"新營區","LI":"民生里","LIN":"30鄰","STREET":"民治路","SECT":" ","MAREA":" ","LANE":" ","ALLEY":" ","HOUSE_NO":"２７３號九樓","E_COORD97":178756.37,"N_COORD97":2578271.9100000001,"ADDRESS":"民治路２７３號九樓","OBJECTID":532494},"geometry":{"x":178756.37000000011,"y":2578271.910000002}},{"attributes":{"ID":532522,"DIS_CODE":0,"TOWNNAME":"新營區","LI":"民生里","LIN":"30鄰","STREET":"民治路","SECT":" ","MAREA":" ","LANE":" ","ALLEY":" ","HOUSE_NO":"２７５號十二樓","E_COORD97":178757.62,"N_COORD97":2578271.9100000001,"ADDRESS":"民治路２７５號十二樓","OBJECTID":532495},"geometry":{"x":178757.62000000011,"y":2578271.910000002}},{"attributes":{"ID":532523,"DIS_CODE":0,"TOWNNAME":"新營區","LI":"民生里","LIN":"30鄰","STREET":"民治路","SECT":" ","MAREA":" ","LANE":" ","ALLEY":" ","HOUSE_NO":"２８５號十樓","E_COORD97":178756.37,"N_COORD97":2578271.9100000001,"ADDRESS":"民治路２８５號十樓","OBJECTID":532496},"geometry":{"x":178756.37000000011,"y":2578271.910000002}},{"attributes":{"ID":532524,"DIS_CODE":0,"TOWNNAME":"新營區","LI":"民生里","LIN":"30鄰","STREET":"民治路","SECT":" ","MAREA":" ","LANE":" ","ALLEY":" ","HOUSE_NO":"２７１號十樓","E_COORD97":178756.37,"N_COORD97":2578271.9100000001,"ADDRESS":"民治路２７１號十樓","OBJECTID":532497},"geometry":{"x":178756.37000000011,"y":2578271.910000002}},{"attributes":{"ID":532525,"DIS_CODE":0,"TOWNNAME":"新營區","LI":"民生里","LIN":"30鄰","STREET":"民治路","SECT":" ","MAREA":" ","LANE":" ","ALLEY":" ","HOUSE_NO":"２８５號八樓","E_COORD97":178756.37,"N_COORD97":2578271.9100000001,"ADDRESS":"民治路２８５號八樓","OBJECTID":532498},"geometry":{"x":178756.37000000011,"y":2578271.910000002}},{"attributes":{"ID":532526,"DIS_CODE":0,"TOWNNAME":"永康區","LI":"埔園里","LIN":"13鄰","STREET":"中山路","SECT":" ","MAREA":" ","LANE":" ","ALLEY":" ","HOUSE_NO":"２１７號","E_COORD97":173661.20999999999,"N_COORD97":2548117.4900000002,"ADDRESS":"中山路２１７號","OBJECTID":532499},"geometry":{"x":173661.20999999996,"y":2548117.4900000021}},{"attributes":{"ID":532527,"DIS_CODE":0,"TOWNNAME":"新營區","LI":"民生里","LIN":"30鄰","STREET":"民治路","SECT":" ","MAREA":" ","LANE":" ","ALLEY":" ","HOUSE_NO":"２８５號十四樓","E_COORD97":178757.62,"N_COORD97":2578271.9100000001,"ADDRESS":"民治路２８５號十四樓","OBJECTID":532500},"geometry":{"x":178757.62000000011,"y":2578271.910000002}},{"attributes":{"ID":532528,"DIS_CODE":0,"TOWNNAME":"新營區","LI":"民生里","LIN":"30鄰","STREET":"民治路","SECT":" ","MAREA":" ","LANE":" ","ALLEY":" ","HOUSE_NO":"２８５號七樓","E_COORD97":178756.37,"N_COORD97":2578271.9100000001,"ADDRESS":"民治路２８５號七樓","OBJECTID":532501},"geometry":{"x":178756.37000000011,"y":2578271.910000002}},{"attributes":{"ID":532529,"DIS_CODE":0,"TOWNNAME":"新營區","LI":"民生里","LIN":"30鄰","STREET":"民治路","SECT":" ","MAREA":" ","LANE":" ","ALLEY":" ","HOUSE_NO":"２７１號七樓","E_COORD97":178756.37,"N_COORD97":2578271.9100000001,"ADDRESS":"民治路２７１號七樓","OBJECTID":532502},"geometry":{"x":178756.37000000011,"y":2578271.910000002}},{"attributes":{"ID":532530,"DIS_CODE":0,"TOWNNAME":"新營區","LI":"民生里","LIN":"30鄰","STREET":"民治路","SECT":" ","MAREA":" ","LANE":" ","ALLEY":" ","HOUSE_NO":"２８５號二樓","E_COORD97":178756.37,"N_COORD97":2578271.9100000001,"ADDRESS":"民治路２８５號二樓","OBJECTID":532503},"geometry":{"x":178756.37000000011,"y":2578271.910000002}},{"attributes":{"ID":532531,"DIS_CODE":0,"TOWNNAME":"新營區","LI":"民生里","LIN":"30鄰","STREET":"民治路","SECT":" ","MAREA":" ","LANE":" ","ALLEY":" ","HOUSE_NO":"２７１號六樓","E_COORD97":178756.37,"N_COORD97":2578271.9100000001,"ADDRESS":"民治路２７１號六樓","OBJECTID":532504},"geometry":{"x":178756.37000000011,"y":2578271.910000002}},{"attributes":{"ID":532532,"DIS_CODE":0,"TOWNNAME":"新營區","LI":"民生里","LIN":"30鄰","STREET":"民治路","SECT":" ","MAREA":" ","LANE":" ","ALLEY":" ","HOUSE_NO":"２７３號十四樓","E_COORD97":178757.62,"N_COORD97":2578271.9100000001,"ADDRESS":"民治路２７３號十四樓","OBJECTID":532505},"geometry":{"x":178757.62000000011,"y":2578271.910000002}},{"attributes":{"ID":532533,"DIS_CODE":0,"TOWNNAME":"新營區","LI":"民生里","LIN":"30鄰","STREET":"民治路","SECT":" ","MAREA":" ","LANE":" ","ALLEY":" ","HOUSE_NO":"２７１號五樓","E_COORD97":178756.37,"N_COORD97":2578271.9100000001,"ADDRESS":"民治路２７１號五樓","OBJECTID":532506},"geometry":{"x":178756.37000000011,"y":2578271.910000002}},{"attributes":{"ID":532534,"DIS_CODE":0,"TOWNNAME":"新營區","LI":"民生里","LIN":"30鄰","STREET":"民治路","SECT":" ","MAREA":" ","LANE":" ","ALLEY":" ","HOUSE_NO":"２８５號九樓","E_COORD97":178756.37,"N_COORD97":2578271.9100000001,"ADDRESS":"民治路２８５號九樓","OBJECTID":532507},"geometry":{"x":178756.37000000011,"y":2578271.910000002}},{"attributes":{"ID":532535,"DIS_CODE":0,"TOWNNAME":"新營區","LI":"民生里","LIN":"30鄰","STREET":"民治路","SECT":" ","MAREA":" ","LANE":" ","ALLEY":" ","HOUSE_NO":"２７７號六樓","E_COORD97":178756.37,"N_COORD97":2578271.9100000001,"ADDRESS":"民治路２７７號六樓","OBJECTID":532508},"geometry":{"x":178756.37000000011,"y":2578271.910000002}},{"attributes":{"ID":532536,"DIS_CODE":0,"TOWNNAME":"新營區","LI":"民生里","LIN":"30鄰","STREET":"民治路","SECT":" ","MAREA":" ","LANE":" ","ALLEY":" ","HOUSE_NO":"２７９號六樓","E_COORD97":178756.37,"N_COORD97":2578271.9100000001,"ADDRESS":"民治路２７９號六樓","OBJECTID":532509},"geometry":{"x":178756.37000000011,"y":2578271.910000002}},{"attributes":{"ID":532537,"DIS_CODE":0,"TOWNNAME":"新營區","LI":"民生里","LIN":"30鄰","STREET":"民治路","SECT":" ","MAREA":" ","LANE":" ","ALLEY":" ","HOUSE_NO":"２７７號八樓","E_COORD97":178756.37,"N_COORD97":2578271.9100000001,"ADDRESS":"民治路２７７號八樓","OBJECTID":532510},"geometry":{"x":178756.37000000011,"y":2578271.910000002}},{"attributes":{"ID":532538,"DIS_CODE":0,"TOWNNAME":"新營區","LI":"民生里","LIN":"30鄰","STREET":"民治路","SECT":" ","MAREA":" ","LANE":" ","ALLEY":" ","HOUSE_NO":"２７７號十四樓","E_COORD97":178757.62,"N_COORD97":2578271.9100000001,"ADDRESS":"民治路２７７號十四樓","OBJECTID":532511},"geometry":{"x":178757.62000000011,"y":2578271.910000002}},{"attributes":{"ID":532539,"DIS_CODE":0,"TOWNNAME":"新營區","LI":"民生里","LIN":"30鄰","STREET":"民治路","SECT":" ","MAREA":" ","LANE":" ","ALLEY":" ","HOUSE_NO":"２７７號十樓","E_COORD97":178756.37,"N_COORD97":2578271.9100000001,"ADDRESS":"民治路２７７號十樓","OBJECTID":532512},"geometry":{"x":178756.37000000011,"y":2578271.910000002}},{"attributes":{"ID":532540,"DIS_CODE":0,"TOWNNAME":"新營區","LI":"民生里","LIN":"30鄰","STREET":"民治路","SECT":" ","MAREA":" ","LANE":" ","ALLEY":" ","HOUSE_NO":"２７７號十一樓","E_COORD97":178757.62,"N_COORD97":2578271.9100000001,"ADDRESS":"民治路２７７號十一樓","OBJECTID":532513},"geometry":{"x":178757.62000000011,"y":2578271.910000002}},{"attributes":{"ID":532541,"DIS_CODE":0,"TOWNNAME":"玉井區","LI":"玉田里","LIN":"30鄰","STREET":"仁愛街","SECT":" ","MAREA":" ","LANE":" ","ALLEY":" ","HOUSE_NO":"１２號","E_COORD97":195531.94,"N_COORD97":2557606.2799999998,"ADDRESS":"仁愛街１２號","OBJECTID":532514},"geometry":{"x":195531.94000000041,"y":2557606.2799999993}},{"attributes":{"ID":532542,"DIS_CODE":0,"TOWNNAME":"安平區","LI":"育平里","LIN":"30鄰","STREET":"育平路","SECT":" ","MAREA":" ","LANE":" ","ALLEY":" ","HOUSE_NO":"１６６號九樓之１２","E_COORD97":164591.47,"N_COORD97":2543236.0899999999,"ADDRESS":"育平路１６６號九樓之１２","OBJECTID":532515},"geometry":{"x":164591.46999999974,"y":2543236.0899999999}},{"attributes":{"ID":532543,"DIS_CODE":0,"TOWNNAME":"安平區","LI":"育平里","LIN":"30鄰","STREET":"育平路","SECT":" ","MAREA":" ","LANE":" ","ALLEY":" ","HOUSE_NO":"１６６號九樓之１３","E_COORD97":164591.47,"N_COORD97":2543236.0899999999,"ADDRESS":"育平路１６６號九樓之１３","OBJECTID":532516},"geometry":{"x":164591.46999999974,"y":2543236.0899999999}},{"attributes":{"ID":532544,"DIS_CODE":0,"TOWNNAME":"安平區","LI":"育平里","LIN":"30鄰","STREET":"育平路","SECT":" ","MAREA":" ","LANE":" ","ALLEY":" ","HOUSE_NO":"１６６號九樓之１４","E_COORD97":164591.47,"N_COORD97":2543236.0899999999,"ADDRESS":"育平路１６６號九樓之１４","OBJECTID":532517},"geometry":{"x":164591.46999999974,"y":2543236.0899999999}},{"attributes":{"ID":532545,"DIS_CODE":0,"TOWNNAME":"安平區","LI":"育平里","LIN":"30鄰","STREET":"育平路","SECT":" ","MAREA":" ","LANE":" ","ALLEY":" ","HOUSE_NO":"１６６號九樓之１５","E_COORD97":164591.47,"N_COORD97":2543236.0899999999,"ADDRESS":"育平路１６６號九樓之１５","OBJECTID":532518},"geometry":{"x":164591.46999999974,"y":2543236.0899999999}},{"attributes":{"ID":532546,"DIS_CODE":0,"TOWNNAME":"安平區","LI":"育平里","LIN":"30鄰","STREET":"育平路","SECT":" ","MAREA":" ","LANE":" ","ALLEY":" ","HOUSE_NO":"１６６號九樓之１６","E_COORD97":164591.47,"N_COORD97":2543236.0899999999,"ADDRESS":"育平路１６６號九樓之１６","OBJECTID":532519},"geometry":{"x":164591.46999999974,"y":2543236.0899999999}},{"attributes":{"ID":532547,"DIS_CODE":0,"TOWNNAME":"安平區","LI":"育平里","LIN":"30鄰","STREET":"育平路","SECT":" ","MAREA":" ","LANE":" ","ALLEY":" ","HOUSE_NO":"１６６號九樓之１７","E_COORD97":164591.47,"N_COORD97":2543236.0899999999,"ADDRESS":"育平路１６６號九樓之１７","OBJECTID":532520},"geometry":{"x":164591.46999999974,"y":2543236.0899999999}},{"attributes":{"ID":532548,"DIS_CODE":0,"TOWNNAME":"安平區","LI":"育平里","LIN":"30鄰","STREET":"育平路","SECT":" ","MAREA":" ","LANE":" ","ALLEY":" ","HOUSE_NO":"１６６號二樓之１０","E_COORD97":164591.47,"N_COORD97":2543236.0899999999,"ADDRESS":"育平路１６６號二樓之１０","OBJECTID":532521},"geometry":{"x":164591.46999999974,"y":2543236.0899999999}},{"attributes":{"ID":532549,"DIS_CODE":0,"TOWNNAME":"安平區","LI":"育平里","LIN":"30鄰","STREET":"育平路","SECT":" ","MAREA":" ","LANE":" ","ALLEY":" ","HOUSE_NO":"１６６號二樓之１１","E_COORD97":164591.47,"N_COORD97":2543236.0899999999,"ADDRESS":"育平路１６６號二樓之１１","OBJECTID":532522},"geometry":{"x":164591.46999999974,"y":2543236.0899999999}},{"attributes":{"ID":532550,"DIS_CODE":0,"TOWNNAME":"安平區","LI":"育平里","LIN":"30鄰","STREET":"育平路","SECT":" ","MAREA":" ","LANE":" ","ALLEY":" ","HOUSE_NO":"１６６號二樓之１２","E_COORD97":164591.47,"N_COORD97":2543236.0899999999,"ADDRESS":"育平路１６６號二樓之１２","OBJECTID":532523},"geometry":{"x":164591.46999999974,"y":2543236.0899999999}},{"attributes":{"ID":532551,"DIS_CODE":0,"TOWNNAME":"安平區","LI":"育平里","LIN":"30鄰","STREET":"育平路","SECT":" ","MAREA":" ","LANE":" ","ALLEY":" ","HOUSE_NO":"１６６號二樓之１３","E_COORD97":164591.47,"N_COORD97":2543236.0899999999,"ADDRESS":"育平路１６６號二樓之１３","OBJECTID":532524},"geometry":{"x":164591.46999999974,"y":2543236.0899999999}},{"attributes":{"ID":532552,"DIS_CODE":0,"TOWNNAME":"安平區","LI":"育平里","LIN":"30鄰","STREET":"育平路","SECT":" ","MAREA":" ","LANE":" ","ALLEY":" ","HOUSE_NO":"１６６號二樓之１４","E_COORD97":164591.47,"N_COORD97":2543236.0899999999,"ADDRESS":"育平路１６６號二樓之１４","OBJECTID":532525},"geometry":{"x":164591.46999999974,"y":2543236.0899999999}},{"attributes":{"ID":532553,"DIS_CODE":0,"TOWNNAME":"安平區","LI":"育平里","LIN":"30鄰","STREET":"育平路","SECT":" ","MAREA":" ","LANE":" ","ALLEY":" ","HOUSE_NO":"１６６號二樓之１５","E_COORD97":164591.47,"N_COORD97":2543236.0899999999,"ADDRESS":"育平路１６６號二樓之１５","OBJECTID":532526},"geometry":{"x":164591.46999999974,"y":2543236.0899999999}},{"attributes":{"ID":532554,"DIS_CODE":0,"TOWNNAME":"安平區","LI":"育平里","LIN":"30鄰","STREET":"育平路","SECT":" ","MAREA":" ","LANE":" ","ALLEY":" ","HOUSE_NO":"１６６號二樓之１６","E_COORD97":164591.47,"N_COORD97":2543236.0899999999,"ADDRESS":"育平路１６６號二樓之１６","OBJECTID":532527},"geometry":{"x":164591.46999999974,"y":2543236.0899999999}},{"attributes":{"ID":532555,"DIS_CODE":0,"TOWNNAME":"安平區","LI":"育平里","LIN":"30鄰","STREET":"育平路","SECT":" ","MAREA":" ","LANE":" ","ALLEY":" ","HOUSE_NO":"１６６號二樓之１７","E_COORD97":164591.47,"N_COORD97":2543236.0899999999,"ADDRESS":"育平路１６６號二樓之１７","OBJECTID":532528},"geometry":{"x":164591.46999999974,"y":2543236.0899999999}},{"attributes":{"ID":532556,"DIS_CODE":0,"TOWNNAME":"安平區","LI":"育平里","LIN":"30鄰","STREET":"育平路","SECT":" ","MAREA":" ","LANE":" ","ALLEY":" ","HOUSE_NO":"１６６號八樓之１０","E_COORD97":164591.47,"N_COORD97":2543236.0899999999,"ADDRESS":"育平路１６６號八樓之１０","OBJECTID":532529},"geometry":{"x":164591.46999999974,"y":2543236.0899999999}},{"attributes":{"ID":532557,"DIS_CODE":0,"TOWNNAME":"安平區","LI":"育平里","LIN":"30鄰","STREET":"育平路","SECT":" ","MAREA":" ","LANE":" ","ALLEY":" ","HOUSE_NO":"１６６號八樓之１１","E_COORD97":164591.47,"N_COORD97":2543236.0899999999,"ADDRESS":"育平路１６６號八樓之１１","OBJECTID":532530},"geometry":{"x":164591.46999999974,"y":2543236.0899999999}},{"attributes":{"ID":532558,"DIS_CODE":0,"TOWNNAME":"安平區","LI":"育平里","LIN":"30鄰","STREET":"育平路","SECT":" ","MAREA":" ","LANE":" ","ALLEY":" ","HOUSE_NO":"１６６號八樓之１２","E_COORD97":164591.47,"N_COORD97":2543236.0899999999,"ADDRESS":"育平路１６６號八樓之１２","OBJECTID":532531},"geometry":{"x":164591.46999999974,"y":2543236.0899999999}},{"attributes":{"ID":532559,"DIS_CODE":0,"TOWNNAME":"安平區","LI":"育平里","LIN":"30鄰","STREET":"育平路","SECT":" ","MAREA":" ","LANE":" ","ALLEY":" ","HOUSE_NO":"１６６號八樓之１３","E_COORD97":164591.47,"N_COORD97":2543236.0899999999,"ADDRESS":"育平路１６６號八樓之１３","OBJECTID":532532},"geometry":{"x":164591.46999999974,"y":2543236.0899999999}},{"attributes":{"ID":532560,"DIS_CODE":0,"TOWNNAME":"安平區","LI":"育平里","LIN":"30鄰","STREET":"育平路","SECT":" ","MAREA":" ","LANE":" ","ALLEY":" ","HOUSE_NO":"１６６號八樓之１４","E_COORD97":164591.47,"N_COORD97":2543236.0899999999,"ADDRESS":"育平路１６６號八樓之１４","OBJECTID":532533},"geometry":{"x":164591.46999999974,"y":2543236.0899999999}},{"attributes":{"ID":532561,"DIS_CODE":0,"TOWNNAME":"安平區","LI":"育平里","LIN":"30鄰","STREET":"育平路","SECT":" ","MAREA":" ","LANE":" ","ALLEY":" ","HOUSE_NO":"１６６號八樓之１５","E_COORD97":164591.47,"N_COORD97":2543236.0899999999,"ADDRESS":"育平路１６６號八樓之１５","OBJECTID":532534},"geometry":{"x":164591.46999999974,"y":2543236.0899999999}},{"attributes":{"ID":532562,"DIS_CODE":0,"TOWNNAME":"安平區","LI":"育平里","LIN":"30鄰","STREET":"育平路","SECT":" ","MAREA":" ","LANE":" ","ALLEY":" ","HOUSE_NO":"１６６號八樓之１６","E_COORD97":164591.47,"N_COORD97":2543236.0899999999,"ADDRESS":"育平路１６６號八樓之１６","OBJECTID":532535},"geometry":{"x":164591.46999999974,"y":2543236.0899999999}},{"attributes":{"ID":532563,"DIS_CODE":0,"TOWNNAME":"安平區","LI":"育平里","LIN":"30鄰","STREET":"育平路","SECT":" ","MAREA":" ","LANE":" ","ALLEY":" ","HOUSE_NO":"１６６號八樓之１７","E_COORD97":164591.47,"N_COORD97":2543236.0899999999,"ADDRESS":"育平路１６６號八樓之１７","OBJECTID":532536},"geometry":{"x":164591.46999999974,"y":2543236.0899999999}},{"attributes":{"ID":532564,"DIS_CODE":0,"TOWNNAME":"安平區","LI":"育平里","LIN":"30鄰","STREET":"育平路","SECT":" ","MAREA":" ","LANE":" ","ALLEY":" ","HOUSE_NO":"１６６號十一樓之１０","E_COORD97":164591.47,"N_COORD97":2543236.0899999999,"ADDRESS":"育平路１６６號十一樓之１０","OBJECTID":532537},"geometry":{"x":164591.46999999974,"y":2543236.0899999999}},{"attributes":{"ID":532565,"DIS_CODE":0,"TOWNNAME":"安平區","LI":"育平里","LIN":"30鄰","STREET":"育平路","SECT":" ","MAREA":" ","LANE":" ","ALLEY":" ","HOUSE_NO":"１６６號十一樓之１１","E_COORD97":164591.47,"N_COORD97":2543236.0899999999,"ADDRESS":"育平路１６６號十一樓之１１","OBJECTID":532538},"geometry":{"x":164591.46999999974,"y":2543236.0899999999}},{"attributes":{"ID":532566,"DIS_CODE":0,"TOWNNAME":"安平區","LI":"育平里","LIN":"30鄰","STREET":"育平路","SECT":" ","MAREA":" ","LANE":" ","ALLEY":" ","HOUSE_NO":"１６６號十一樓之１２","E_COORD97":164591.47,"N_COORD97":2543236.0899999999,"ADDRESS":"育平路１６６號十一樓之１２","OBJECTID":532539},"geometry":{"x":164591.46999999974,"y":2543236.0899999999}},{"attributes":{"ID":532567,"DIS_CODE":0,"TOWNNAME":"安平區","LI":"育平里","LIN":"30鄰","STREET":"育平路","SECT":" ","MAREA":" ","LANE":" ","ALLEY":" ","HOUSE_NO":"１６６號十一樓之１４","E_COORD97":164591.47,"N_COORD97":2543236.0899999999,"ADDRESS":"育平路１６６號十一樓之１４","OBJECTID":532540},"geometry":{"x":164591.46999999974,"y":2543236.0899999999}},{"attributes":{"ID":532568,"DIS_CODE":0,"TOWNNAME":"安平區","LI":"育平里","LIN":"30鄰","STREET":"育平路","SECT":" ","MAREA":" ","LANE":" ","ALLEY":" ","HOUSE_NO":"１６６號十一樓之１５","E_COORD97":164591.47,"N_COORD97":2543236.0899999999,"ADDRESS":"育平路１６６號十一樓之１５","OBJECTID":532541},"geometry":{"x":164591.46999999974,"y":2543236.0899999999}},{"attributes":{"ID":532569,"DIS_CODE":0,"TOWNNAME":"安平區","LI":"育平里","LIN":"30鄰","STREET":"育平路","SECT":" ","MAREA":" ","LANE":" ","ALLEY":" ","HOUSE_NO":"１６６號十一樓之１６","E_COORD97":164591.47,"N_COORD97":2543236.0899999999,"ADDRESS":"育平路１６６號十一樓之１６","OBJECTID":532542},"geometry":{"x":164591.46999999974,"y":2543236.0899999999}},{"attributes":{"ID":532570,"DIS_CODE":0,"TOWNNAME":"安平區","LI":"育平里","LIN":"30鄰","STREET":"育平路","SECT":" ","MAREA":" ","LANE":" ","ALLEY":" ","HOUSE_NO":"１６６號十一樓之１７","E_COORD97":164591.47,"N_COORD97":2543236.0899999999,"ADDRESS":"育平路１６６號十一樓之１７","OBJECTID":532543},"geometry":{"x":164591.46999999974,"y":2543236.0899999999}},{"attributes":{"ID":532571,"DIS_CODE":0,"TOWNNAME":"安平區","LI":"育平里","LIN":"30鄰","STREET":"育平路","SECT":" ","MAREA":" ","LANE":" ","ALLEY":" ","HOUSE_NO":"１６６號十二樓之１０","E_COORD97":164591.47,"N_COORD97":2543236.0899999999,"ADDRESS":"育平路１６６號十二樓之１０","OBJECTID":532544},"geometry":{"x":164591.46999999974,"y":2543236.0899999999}},{"attributes":{"ID":532572,"DIS_CODE":0,"TOWNNAME":"永康區","LI":"埔園里","LIN":"10鄰","STREET":"自強路","SECT":" ","MAREA":" ","LANE":" ","ALLEY":" ","HOUSE_NO":"４１４號","E_COORD97":173636.82999999999,"N_COORD97":2547855.2799999998,"ADDRESS":"自強路４１４號","OBJECTID":532545},"geometry":{"x":173636.83000000007,"y":2547855.2799999993}},{"attributes":{"ID":532573,"DIS_CODE":0,"TOWNNAME":"安平區","LI":"育平里","LIN":"30鄰","STREET":"育平路","SECT":" ","MAREA":" ","LANE":" ","ALLEY":" ","HOUSE_NO":"１６６號十二樓之１１","E_COORD97":164591.47,"N_COORD97":2543236.0899999999,"ADDRESS":"育平路１６６號十二樓之１１","OBJECTID":532546},"geometry":{"x":164591.46999999974,"y":2543236.0899999999}},{"attributes":{"ID":532574,"DIS_CODE":0,"TOWNNAME":"安平區","LI":"育平里","LIN":"30鄰","STREET":"育平路","SECT":" ","MAREA":" ","LANE":" ","ALLEY":" ","HOUSE_NO":"１６６號十二樓之１２","E_COORD97":164591.47,"N_COORD97":2543236.0899999999,"ADDRESS":"育平路１６６號十二樓之１２","OBJECTID":532547},"geometry":{"x":164591.46999999974,"y":2543236.0899999999}},{"attributes":{"ID":532575,"DIS_CODE":0,"TOWNNAME":"安平區","LI":"育平里","LIN":"30鄰","STREET":"育平路","SECT":" ","MAREA":" ","LANE":" ","ALLEY":" ","HOUSE_NO":"１６６號十二樓之１３","E_COORD97":164591.47,"N_COORD97":2543236.0899999999,"ADDRESS":"育平路１６６號十二樓之１３","OBJECTID":532548},"geometry":{"x":164591.46999999974,"y":2543236.0899999999}},{"attributes":{"ID":532576,"DIS_CODE":0,"TOWNNAME":"安平區","LI":"育平里","LIN":"30鄰","STREET":"育平路","SECT":" ","MAREA":" ","LANE":" ","ALLEY":" ","HOUSE_NO":"１６６號十二樓之１４","E_COORD97":164591.47,"N_COORD97":2543236.0899999999,"ADDRESS":"育平路１６６號十二樓之１４","OBJECTID":532549},"geometry":{"x":164591.46999999974,"y":2543236.0899999999}},{"attributes":{"ID":532577,"DIS_CODE":0,"TOWNNAME":"安平區","LI":"育平里","LIN":"30鄰","STREET":"育平路","SECT":" ","MAREA":" ","LANE":" ","ALLEY":" ","HOUSE_NO":"１６６號十二樓之１５","E_COORD97":164591.47,"N_COORD97":2543236.0899999999,"ADDRESS":"育平路１６６號十二樓之１５","OBJECTID":532550},"geometry":{"x":164591.46999999974,"y":2543236.0899999999}},{"attributes":{"ID":532578,"DIS_CODE":0,"TOWNNAME":"安平區","LI":"育平里","LIN":"30鄰","STREET":"育平路","SECT":" ","MAREA":" ","LANE":" ","ALLEY":" ","HOUSE_NO":"１６６號十二樓之１６","E_COORD97":164591.47,"N_COORD97":2543236.0899999999,"ADDRESS":"育平路１６６號十二樓之１６","OBJECTID":532551},"geometry":{"x":164591.46999999974,"y":2543236.0899999999}},{"attributes":{"ID":532579,"DIS_CODE":0,"TOWNNAME":"安平區","LI":"育平里","LIN":"30鄰","STREET":"育平路","SECT":" ","MAREA":" ","LANE":" ","ALLEY":" ","HOUSE_NO":"１６６號十二樓之１７","E_COORD97":164591.47,"N_COORD97":2543236.0899999999,"ADDRESS":"育平路１６６號十二樓之１７","OBJECTID":532552},"geometry":{"x":164591.46999999974,"y":2543236.0899999999}},{"attributes":{"ID":532580,"DIS_CODE":0,"TOWNNAME":"安平區","LI":"育平里","LIN":"30鄰","STREET":"育平路","SECT":" ","MAREA":" ","LANE":" ","ALLEY":" ","HOUSE_NO":"１６６號十三樓之１０","E_COORD97":164591.47,"N_COORD97":2543236.0899999999,"ADDRESS":"育平路１６６號十三樓之１０","OBJECTID":532553},"geometry":{"x":164591.46999999974,"y":2543236.0899999999}},{"attributes":{"ID":532581,"DIS_CODE":0,"TOWNNAME":"安平區","LI":"育平里","LIN":"30鄰","STREET":"育平路","SECT":" ","MAREA":" ","LANE":" ","ALLEY":" ","HOUSE_NO":"１６６號十三樓之１１","E_COORD97":164591.47,"N_COORD97":2543236.0899999999,"ADDRESS":"育平路１６６號十三樓之１１","OBJECTID":532554},"geometry":{"x":164591.46999999974,"y":2543236.0899999999}},{"attributes":{"ID":532582,"DIS_CODE":0,"TOWNNAME":"安平區","LI":"育平里","LIN":"30鄰","STREET":"育平路","SECT":" ","MAREA":" ","LANE":" ","ALLEY":" ","HOUSE_NO":"１６６號十三樓之１２","E_COORD97":164591.47,"N_COORD97":2543236.0899999999,"ADDRESS":"育平路１６６號十三樓之１２","OBJECTID":532555},"geometry":{"x":164591.46999999974,"y":2543236.0899999999}},{"attributes":{"ID":532583,"DIS_CODE":0,"TOWNNAME":"安平區","LI":"育平里","LIN":"30鄰","STREET":"育平路","SECT":" ","MAREA":" ","LANE":" ","ALLEY":" ","HOUSE_NO":"１６６號十三樓之１３","E_COORD97":164591.47,"N_COORD97":2543236.0899999999,"ADDRESS":"育平路１６６號十三樓之１３","OBJECTID":532556},"geometry":{"x":164591.46999999974,"y":2543236.0899999999}},{"attributes":{"ID":532584,"DIS_CODE":0,"TOWNNAME":"安平區","LI":"育平里","LIN":"30鄰","STREET":"育平路","SECT":" ","MAREA":" ","LANE":" ","ALLEY":" ","HOUSE_NO":"１６６號十三樓之１４","E_COORD97":164591.47,"N_COORD97":2543236.0899999999,"ADDRESS":"育平路１６６號十三樓之１４","OBJECTID":532557},"geometry":{"x":164591.46999999974,"y":2543236.0899999999}},{"attributes":{"ID":532585,"DIS_CODE":0,"TOWNNAME":"安平區","LI":"育平里","LIN":"30鄰","STREET":"育平路","SECT":" ","MAREA":" ","LANE":" ","ALLEY":" ","HOUSE_NO":"１６６號十三樓之１５","E_COORD97":164591.47,"N_COORD97":2543236.0899999999,"ADDRESS":"育平路１６６號十三樓之１５","OBJECTID":532558},"geometry":{"x":164591.46999999974,"y":2543236.0899999999}},{"attributes":{"ID":532586,"DIS_CODE":0,"TOWNNAME":"安平區","LI":"育平里","LIN":"30鄰","STREET":"育平路","SECT":" ","MAREA":" ","LANE":" ","ALLEY":" ","HOUSE_NO":"１６６號十三樓之１６","E_COORD97":164591.47,"N_COORD97":2543236.0899999999,"ADDRESS":"育平路１６６號十三樓之１６","OBJECTID":532559},"geometry":{"x":164591.46999999974,"y":2543236.0899999999}},{"attributes":{"ID":532587,"DIS_CODE":0,"TOWNNAME":"安平區","LI":"育平里","LIN":"30鄰","STREET":"育平路","SECT":" ","MAREA":" ","LANE":" ","ALLEY":" ","HOUSE_NO":"１６６號十三樓之１７","E_COORD97":164591.47,"N_COORD97":2543236.0899999999,"ADDRESS":"育平路１６６號十三樓之１７","OBJECTID":532560},"geometry":{"x":164591.46999999974,"y":2543236.0899999999}},{"attributes":{"ID":532588,"DIS_CODE":0,"TOWNNAME":"安平區","LI":"育平里","LIN":"30鄰","STREET":"育平路","SECT":" ","MAREA":" ","LANE":" ","ALLEY":" ","HOUSE_NO":"１６６號十樓之１０","E_COORD97":164591.47,"N_COORD97":2543236.0899999999,"ADDRESS":"育平路１６６號十樓之１０","OBJECTID":532561},"geometry":{"x":164591.46999999974,"y":2543236.0899999999}},{"attributes":{"ID":532589,"DIS_CODE":0,"TOWNNAME":"安平區","LI":"育平里","LIN":"30鄰","STREET":"育平路","SECT":" ","MAREA":" ","LANE":" ","ALLEY":" ","HOUSE_NO":"１６６號十樓之１１","E_COORD97":164591.47,"N_COORD97":2543236.0899999999,"ADDRESS":"育平路１６６號十樓之１１","OBJECTID":532562},"geometry":{"x":164591.46999999974,"y":2543236.0899999999}},{"attributes":{"ID":532590,"DIS_CODE":0,"TOWNNAME":"安平區","LI":"育平里","LIN":"30鄰","STREET":"育平路","SECT":" ","MAREA":" ","LANE":" ","ALLEY":" ","HOUSE_NO":"１６６號十樓之１２","E_COORD97":164591.47,"N_COORD97":2543236.0899999999,"ADDRESS":"育平路１６６號十樓之１２","OBJECTID":532563},"geometry":{"x":164591.46999999974,"y":2543236.0899999999}},{"attributes":{"ID":532591,"DIS_CODE":0,"TOWNNAME":"安平區","LI":"育平里","LIN":"30鄰","STREET":"育平路","SECT":" ","MAREA":" ","LANE":" ","ALLEY":" ","HOUSE_NO":"１６６號十樓之１３","E_COORD97":164591.47,"N_COORD97":2543236.0899999999,"ADDRESS":"育平路１６６號十樓之１３","OBJECTID":532564},"geometry":{"x":164591.46999999974,"y":2543236.0899999999}},{"attributes":{"ID":532592,"DIS_CODE":0,"TOWNNAME":"安平區","LI":"育平里","LIN":"30鄰","STREET":"育平路","SECT":" ","MAREA":" ","LANE":" ","ALLEY":" ","HOUSE_NO":"１６６號十樓之１４","E_COORD97":164591.47,"N_COORD97":2543236.0899999999,"ADDRESS":"育平路１６６號十樓之１４","OBJECTID":532565},"geometry":{"x":164591.46999999974,"y":2543236.0899999999}},{"attributes":{"ID":532593,"DIS_CODE":0,"TOWNNAME":"安平區","LI":"育平里","LIN":"30鄰","STREET":"育平路","SECT":" ","MAREA":" ","LANE":" ","ALLEY":" ","HOUSE_NO":"１６６號十樓之１５","E_COORD97":164591.47,"N_COORD97":2543236.0899999999,"ADDRESS":"育平路１６６號十樓之１５","OBJECTID":532566},"geometry":{"x":164591.46999999974,"y":2543236.0899999999}},{"attributes":{"ID":532594,"DIS_CODE":0,"TOWNNAME":"安平區","LI":"育平里","LIN":"30鄰","STREET":"育平路","SECT":" ","MAREA":" ","LANE":" ","ALLEY":" ","HOUSE_NO":"１６６號十樓之１６","E_COORD97":164591.47,"N_COORD97":2543236.0899999999,"ADDRESS":"育平路１６６號十樓之１６","OBJECTID":532567},"geometry":{"x":164591.46999999974,"y":2543236.0899999999}},{"attributes":{"ID":532595,"DIS_CODE":0,"TOWNNAME":"安平區","LI":"育平里","LIN":"30鄰","STREET":"育平路","SECT":" ","MAREA":" ","LANE":" ","ALLEY":" ","HOUSE_NO":"１６６號十樓之１７","E_COORD97":164591.47,"N_COORD97":2543236.0899999999,"ADDRESS":"育平路１６６號十樓之１７","OBJECTID":532568},"geometry":{"x":164591.46999999974,"y":2543236.0899999999}},{"attributes":{"ID":532596,"DIS_CODE":0,"TOWNNAME":"安平區","LI":"育平里","LIN":"30鄰","STREET":"育平路","SECT":" ","MAREA":" ","LANE":" ","ALLEY":" ","HOUSE_NO":"１６６號三樓之１０","E_COORD97":164591.47,"N_COORD97":2543236.0899999999,"ADDRESS":"育平路１６６號三樓之１０","OBJECTID":532569},"geometry":{"x":164591.46999999974,"y":2543236.0899999999}},{"attributes":{"ID":532597,"DIS_CODE":0,"TOWNNAME":"安平區","LI":"育平里","LIN":"30鄰","STREET":"育平路","SECT":" ","MAREA":" ","LANE":" ","ALLEY":" ","HOUSE_NO":"１６６號三樓之１１","E_COORD97":164591.47,"N_COORD97":2543236.0899999999,"ADDRESS":"育平路１６６號三樓之１１","OBJECTID":532570},"geometry":{"x":164591.46999999974,"y":2543236.0899999999}},{"attributes":{"ID":532598,"DIS_CODE":0,"TOWNNAME":"安平區","LI":"育平里","LIN":"30鄰","STREET":"育平路","SECT":" ","MAREA":" ","LANE":" ","ALLEY":" ","HOUSE_NO":"１６６號三樓之１２","E_COORD97":164591.47,"N_COORD97":2543236.0899999999,"ADDRESS":"育平路１６６號三樓之１２","OBJECTID":532571},"geometry":{"x":164591.46999999974,"y":2543236.0899999999}},{"attributes":{"ID":532599,"DIS_CODE":0,"TOWNNAME":"安平區","LI":"育平里","LIN":"30鄰","STREET":"育平路","SECT":" ","MAREA":" ","LANE":" ","ALLEY":" ","HOUSE_NO":"１６６號三樓之１３","E_COORD97":164591.47,"N_COORD97":2543236.0899999999,"ADDRESS":"育平路１６６號三樓之１３","OBJECTID":532572},"geometry":{"x":164591.46999999974,"y":2543236.0899999999}},{"attributes":{"ID":532600,"DIS_CODE":0,"TOWNNAME":"永康區","LI":"神洲里","LIN":"18鄰","STREET":"忠孝路","SECT":" ","MAREA":" ","LANE":" ","ALLEY":" ","HOUSE_NO":"１１６號","E_COORD97":172094.64999999999,"N_COORD97":2545005.9900000002,"ADDRESS":"忠孝路１１６號","OBJECTID":532573},"geometry":{"x":172094.65000000224,"y":2545005.9900000021}},{"attributes":{"ID":532601,"DIS_CODE":0,"TOWNNAME":"永康區","LI":"埔園里","LIN":"35鄰","STREET":"永大路","SECT":"三段","MAREA":" ","LANE":" ","ALLEY":" ","HOUSE_NO":"４３２號","E_COORD97":174114.17000000001,"N_COORD97":2548386.5299999998,"ADDRESS":"永大路三段４３２號","OBJECTID":532574},"geometry":{"x":174114.16999999993,"y":2548386.5299999975}},{"attributes":{"ID":532602,"DIS_CODE":0,"TOWNNAME":"安平區","LI":"育平里","LIN":"30鄰","STREET":"育平路","SECT":" ","MAREA":" ","LANE":" ","ALLEY":" ","HOUSE_NO":"１６６號三樓之１４","E_COORD97":164591.47,"N_COORD97":2543236.0899999999,"ADDRESS":"育平路１６６號三樓之１４","OBJECTID":532575},"geometry":{"x":164591.46999999974,"y":2543236.0899999999}},{"attributes":{"ID":532603,"DIS_CODE":0,"TOWNNAME":"安平區","LI":"育平里","LIN":"30鄰","STREET":"育平路","SECT":" ","MAREA":" ","LANE":" ","ALLEY":" ","HOUSE_NO":"１６６號三樓之１５","E_COORD97":164591.47,"N_COORD97":2543236.0899999999,"ADDRESS":"育平路１６６號三樓之１５","OBJECTID":532576},"geometry":{"x":164591.46999999974,"y":2543236.0899999999}},{"attributes":{"ID":532604,"DIS_CODE":0,"TOWNNAME":"安平區","LI":"育平里","LIN":"30鄰","STREET":"育平路","SECT":" ","MAREA":" ","LANE":" ","ALLEY":" ","HOUSE_NO":"１６６號三樓之１６","E_COORD97":164591.47,"N_COORD97":2543236.0899999999,"ADDRESS":"育平路１６６號三樓之１６","OBJECTID":532577},"geometry":{"x":164591.46999999974,"y":2543236.0899999999}},{"attributes":{"ID":532605,"DIS_CODE":0,"TOWNNAME":"安平區","LI":"育平里","LIN":"30鄰","STREET":"育平路","SECT":" ","MAREA":" ","LANE":" ","ALLEY":" ","HOUSE_NO":"１６６號三樓之１７","E_COORD97":164591.47,"N_COORD97":2543236.0899999999,"ADDRESS":"育平路１６６號三樓之１７","OBJECTID":532578},"geometry":{"x":164591.46999999974,"y":2543236.0899999999}},{"attributes":{"ID":532606,"DIS_CODE":0,"TOWNNAME":"安平區","LI":"育平里","LIN":"30鄰","STREET":"育平路","SECT":" ","MAREA":" ","LANE":" ","ALLEY":" ","HOUSE_NO":"１６６號五樓之１０","E_COORD97":164591.47,"N_COORD97":2543236.0899999999,"ADDRESS":"育平路１６６號五樓之１０","OBJECTID":532579},"geometry":{"x":164591.46999999974,"y":2543236.0899999999}},{"attributes":{"ID":532607,"DIS_CODE":0,"TOWNNAME":"安平區","LI":"育平里","LIN":"30鄰","STREET":"育平路","SECT":" ","MAREA":" ","LANE":" ","ALLEY":" ","HOUSE_NO":"１６６號五樓之１１","E_COORD97":164591.47,"N_COORD97":2543236.0899999999,"ADDRESS":"育平路１６６號五樓之１１","OBJECTID":532580},"geometry":{"x":164591.46999999974,"y":2543236.0899999999}},{"attributes":{"ID":532608,"DIS_CODE":0,"TOWNNAME":"安平區","LI":"育平里","LIN":"30鄰","STREET":"育平路","SECT":" ","MAREA":" ","LANE":" ","ALLEY":" ","HOUSE_NO":"１６６號五樓之１２","E_COORD97":164591.47,"N_COORD97":2543236.0899999999,"ADDRESS":"育平路１６６號五樓之１２","OBJECTID":532581},"geometry":{"x":164591.46999999974,"y":2543236.0899999999}},{"attributes":{"ID":532609,"DIS_CODE":0,"TOWNNAME":"安平區","LI":"育平里","LIN":"30鄰","STREET":"育平路","SECT":" ","MAREA":" ","LANE":" ","ALLEY":" ","HOUSE_NO":"１６６號五樓之１３","E_COORD97":164591.47,"N_COORD97":2543236.0899999999,"ADDRESS":"育平路１６６號五樓之１３","OBJECTID":532582},"geometry":{"x":164591.46999999974,"y":2543236.0899999999}},{"attributes":{"ID":532610,"DIS_CODE":0,"TOWNNAME":"安平區","LI":"育平里","LIN":"30鄰","STREET":"育平路","SECT":" ","MAREA":" ","LANE":" ","ALLEY":" ","HOUSE_NO":"１６６號五樓之１４","E_COORD97":164591.47,"N_COORD97":2543236.0899999999,"ADDRESS":"育平路１６６號五樓之１４","OBJECTID":532583},"geometry":{"x":164591.46999999974,"y":2543236.0899999999}},{"attributes":{"ID":532611,"DIS_CODE":0,"TOWNNAME":"安平區","LI":"育平里","LIN":"30鄰","STREET":"育平路","SECT":" ","MAREA":" ","LANE":" ","ALLEY":" ","HOUSE_NO":"１６６號五樓之１５","E_COORD97":164591.47,"N_COORD97":2543236.0899999999,"ADDRESS":"育平路１６６號五樓之１５","OBJECTID":532584},"geometry":{"x":164591.46999999974,"y":2543236.0899999999}},{"attributes":{"ID":532612,"DIS_CODE":0,"TOWNNAME":"安平區","LI":"育平里","LIN":"30鄰","STREET":"育平路","SECT":" ","MAREA":" ","LANE":" ","ALLEY":" ","HOUSE_NO":"１６６號五樓之１６","E_COORD97":164591.47,"N_COORD97":2543236.0899999999,"ADDRESS":"育平路１６６號五樓之１６","OBJECTID":532585},"geometry":{"x":164591.46999999974,"y":2543236.0899999999}},{"attributes":{"ID":532613,"DIS_CODE":0,"TOWNNAME":"安平區","LI":"育平里","LIN":"30鄰","STREET":"育平路","SECT":" ","MAREA":" ","LANE":" ","ALLEY":" ","HOUSE_NO":"１６６號五樓之１７","E_COORD97":164591.47,"N_COORD97":2543236.0899999999,"ADDRESS":"育平路１６６號五樓之１７","OBJECTID":532586},"geometry":{"x":164591.46999999974,"y":2543236.0899999999}},{"attributes":{"ID":532614,"DIS_CODE":0,"TOWNNAME":"安平區","LI":"育平里","LIN":"30鄰","STREET":"育平路","SECT":" ","MAREA":" ","LANE":" ","ALLEY":" ","HOUSE_NO":"１６６號六樓之１０","E_COORD97":164591.47,"N_COORD97":2543236.0899999999,"ADDRESS":"育平路１６６號六樓之１０","OBJECTID":532587},"geometry":{"x":164591.46999999974,"y":2543236.0899999999}},{"attributes":{"ID":532615,"DIS_CODE":0,"TOWNNAME":"安平區","LI":"育平里","LIN":"30鄰","STREET":"育平路","SECT":" ","MAREA":" ","LANE":" ","ALLEY":" ","HOUSE_NO":"１６６號六樓之１１","E_COORD97":164591.47,"N_COORD97":2543236.0899999999,"ADDRESS":"育平路１６６號六樓之１１","OBJECTID":532588},"geometry":{"x":164591.46999999974,"y":2543236.0899999999}},{"attributes":{"ID":532616,"DIS_CODE":0,"TOWNNAME":"安平區","LI":"育平里","LIN":"30鄰","STREET":"育平路","SECT":" ","MAREA":" ","LANE":" ","ALLEY":" ","HOUSE_NO":"１６６號六樓之１２","E_COORD97":164591.47,"N_COORD97":2543236.0899999999,"ADDRESS":"育平路１６６號六樓之１２","OBJECTID":532589},"geometry":{"x":164591.46999999974,"y":2543236.0899999999}},{"attributes":{"ID":532617,"DIS_CODE":0,"TOWNNAME":"安平區","LI":"育平里","LIN":"30鄰","STREET":"育平路","SECT":" ","MAREA":" ","LANE":" ","ALLEY":" ","HOUSE_NO":"１６６號六樓之１３","E_COORD97":164591.47,"N_COORD97":2543236.0899999999,"ADDRESS":"育平路１６６號六樓之１３","OBJECTID":532590},"geometry":{"x":164591.46999999974,"y":2543236.0899999999}},{"attributes":{"ID":532618,"DIS_CODE":0,"TOWNNAME":"安平區","LI":"育平里","LIN":"30鄰","STREET":"育平路","SECT":" ","MAREA":" ","LANE":" ","ALLEY":" ","HOUSE_NO":"１６６號六樓之１４","E_COORD97":164591.47,"N_COORD97":2543236.0899999999,"ADDRESS":"育平路１６６號六樓之１４","OBJECTID":532591},"geometry":{"x":164591.46999999974,"y":2543236.0899999999}},{"attributes":{"ID":532619,"DIS_CODE":0,"TOWNNAME":"安平區","LI":"育平里","LIN":"30鄰","STREET":"育平路","SECT":" ","MAREA":" ","LANE":" ","ALLEY":" ","HOUSE_NO":"１６６號六樓之１５","E_COORD97":164591.47,"N_COORD97":2543236.0899999999,"ADDRESS":"育平路１６６號六樓之１５","OBJECTID":532592},"geometry":{"x":164591.46999999974,"y":2543236.0899999999}},{"attributes":{"ID":532620,"DIS_CODE":0,"TOWNNAME":"安平區","LI":"育平里","LIN":"30鄰","STREET":"育平路","SECT":" ","MAREA":" ","LANE":" ","ALLEY":" ","HOUSE_NO":"１６６號六樓之１６","E_COORD97":164591.47,"N_COORD97":2543236.0899999999,"ADDRESS":"育平路１６６號六樓之１６","OBJECTID":532593},"geometry":{"x":164591.46999999974,"y":2543236.0899999999}},{"attributes":{"ID":532621,"DIS_CODE":0,"TOWNNAME":"安平區","LI":"育平里","LIN":"30鄰","STREET":"育平路","SECT":" ","MAREA":" ","LANE":" ","ALLEY":" ","HOUSE_NO":"１６６號六樓之１７","E_COORD97":164591.47,"N_COORD97":2543236.0899999999,"ADDRESS":"育平路１６６號六樓之１７","OBJECTID":532594},"geometry":{"x":164591.46999999974,"y":2543236.0899999999}},{"attributes":{"ID":532622,"DIS_CODE":0,"TOWNNAME":"安平區","LI":"育平里","LIN":"30鄰","STREET":"育平路","SECT":" ","MAREA":" ","LANE":" ","ALLEY":" ","HOUSE_NO":"１６６號四樓之１０","E_COORD97":164591.47,"N_COORD97":2543236.0899999999,"ADDRESS":"育平路１６６號四樓之１０","OBJECTID":532595},"geometry":{"x":164591.46999999974,"y":2543236.0899999999}},{"attributes":{"ID":532623,"DIS_CODE":0,"TOWNNAME":"安平區","LI":"育平里","LIN":"30鄰","STREET":"育平路","SECT":" ","MAREA":" ","LANE":" ","ALLEY":" ","HOUSE_NO":"１６６號四樓之１１","E_COORD97":164591.47,"N_COORD97":2543236.0899999999,"ADDRESS":"育平路１６６號四樓之１１","OBJECTID":532596},"geometry":{"x":164591.46999999974,"y":2543236.0899999999}},{"attributes":{"ID":532624,"DIS_CODE":0,"TOWNNAME":"安平區","LI":"育平里","LIN":"30鄰","STREET":"育平路","SECT":" ","MAREA":" ","LANE":" ","ALLEY":" ","HOUSE_NO":"１６６號四樓之１２","E_COORD97":164591.47,"N_COORD97":2543236.0899999999,"ADDRESS":"育平路１６６號四樓之１２","OBJECTID":532597},"geometry":{"x":164591.46999999974,"y":2543236.0899999999}},{"attributes":{"ID":532625,"DIS_CODE":0,"TOWNNAME":"安平區","LI":"育平里","LIN":"30鄰","STREET":"育平路","SECT":" ","MAREA":" ","LANE":" ","ALLEY":" ","HOUSE_NO":"１６６號四樓之１３","E_COORD97":164591.47,"N_COORD97":2543236.0899999999,"ADDRESS":"育平路１６６號四樓之１３","OBJECTID":532598},"geometry":{"x":164591.46999999974,"y":2543236.0899999999}},{"attributes":{"ID":532626,"DIS_CODE":0,"TOWNNAME":"永康區","LI":"東橋里","LIN":"12鄰","STREET":"中山南路","SECT":" ","MAREA":" ","LANE":" ","ALLEY":" ","HOUSE_NO":"２２１號","E_COORD97":171635.10999999999,"N_COORD97":2546195.3199999998,"ADDRESS":"中山南路２２１號","OBJECTID":532599},"geometry":{"x":171635.11000000034,"y":2546195.3200000003}},{"attributes":{"ID":532627,"DIS_CODE":0,"TOWNNAME":"永康區","LI":"烏竹里","LIN":"9鄰","STREET":"龍橋街","SECT":" ","MAREA":" ","LANE":" ","ALLEY":" ","HOUSE_NO":"３８０號","E_COORD97":174483.97,"N_COORD97":2549132.8500000001,"ADDRESS":"龍橋街３８０號","OBJECTID":532600},"geometry":{"x":174483.97000000067,"y":2549132.8499999996}}]}