{"displayFieldName":"TOWNNAME","fieldAliases":{"ID":"ID","DIS_CODE":"DIS_CODE","TOWNNAME":"TOWNNAME","LI":"LI","LIN":"LIN","STREET":"STREET","SECT":"SECT","MAREA":"MAREA","LANE":"LANE","ALLEY":"ALLEY","HOUSE_NO":"HOUSE_NO","E_COORD97":"E_COORD97","N_COORD97":"N_COORD97","ADDRESS":"ADDRESS","OBJECTID":"OBJECTID"},"geometryType":"esriGeometryPoint","spatialReference":{"wkid":102443,"latestWkid":3826},"fields":[{"name":"ID","type":"esriFieldTypeDouble","alias":"ID"},{"name":"DIS_CODE","type":"esriFieldTypeInteger","alias":"DIS_CODE"},{"name":"TOWNNAME","type":"esriFieldTypeString","alias":"TOWNNAME","length":8},{"name":"LI","type":"esriFieldTypeString","alias":"LI","length":8},{"name":"LIN","type":"esriFieldTypeString","alias":"LIN","length":12},{"name":"STREET","type":"esriFieldTypeString","alias":"STREET","length":20},{"name":"SECT","type":"esriFieldTypeString","alias":"SECT","length":8},{"name":"MAREA","type":"esriFieldTypeString","alias":"MAREA","length":12},{"name":"LANE","type":"esriFieldTypeString","alias":"LANE","length":10},{"name":"ALLEY","type":"esriFieldTypeString","alias":"ALLEY","length":10},{"name":"HOUSE_NO","type":"esriFieldTypeString","alias":"HOUSE_NO","length":20},{"name":"E_COORD97","type":"esriFieldTypeDouble","alias":"E_COORD97"},{"name":"N_COORD97","type":"esriFieldTypeDouble","alias":"N_COORD97"},{"name":"ADDRESS","type":"esriFieldTypeString","alias":"ADDRESS","length":50},{"name":"OBJECTID","type":"esriFieldTypeOID","alias":"OBJECTID"}],"features":[{"attributes":{"ID":243405,"DIS_CODE":0,"TOWNNAME":"安南區","LI":"安東里","LIN":"24鄰","STREET":"安和路","SECT":"二段","MAREA":" ","LANE":"２巷","ALLEY":" ","HOUSE_NO":"１號","E_COORD97":169457.78,"N_COORD97":2548524.3900000001,"ADDRESS":"安和路二段２巷１號","OBJECTID":243401},"geometry":{"x":169457.78000000212,"y":2548524.3899999987}},{"attributes":{"ID":243406,"DIS_CODE":0,"TOWNNAME":"安南區","LI":"安東里","LIN":"24鄰","STREET":"安和路","SECT":"二段","MAREA":" ","LANE":"２巷","ALLEY":" ","HOUSE_NO":"２１號","E_COORD97":169497.60000000001,"N_COORD97":2548522.9900000002,"ADDRESS":"安和路二段２巷２１號","OBJECTID":243402},"geometry":{"x":169497.60000000056,"y":2548522.9900000002}},{"attributes":{"ID":243407,"DIS_CODE":0,"TOWNNAME":"安南區","LI":"安東里","LIN":"24鄰","STREET":"安和路","SECT":"二段","MAREA":" ","LANE":"２巷","ALLEY":" ","HOUSE_NO":"２３號","E_COORD97":169501.37,"N_COORD97":2548524.3900000001,"ADDRESS":"安和路二段２巷２３號","OBJECTID":243403},"geometry":{"x":169501.37000000104,"y":2548524.3899999987}},{"attributes":{"ID":243408,"DIS_CODE":0,"TOWNNAME":"安南區","LI":"安東里","LIN":"24鄰","STREET":"安和路","SECT":"二段","MAREA":" ","LANE":"２巷","ALLEY":" ","HOUSE_NO":"２５號","E_COORD97":169507.79999999999,"N_COORD97":2548522.29,"ADDRESS":"安和路二段２巷２５號","OBJECTID":243404},"geometry":{"x":169507.79999999888,"y":2548522.2899999991}},{"attributes":{"ID":243409,"DIS_CODE":0,"TOWNNAME":"安南區","LI":"安東里","LIN":"24鄰","STREET":"安和路","SECT":"二段","MAREA":" ","LANE":"２巷","ALLEY":" ","HOUSE_NO":"５號","E_COORD97":169465.88,"N_COORD97":2548523.5499999998,"ADDRESS":"安和路二段２巷５號","OBJECTID":243405},"geometry":{"x":169465.88000000082,"y":2548523.5499999989}},{"attributes":{"ID":243410,"DIS_CODE":0,"TOWNNAME":"安南區","LI":"安東里","LIN":"24鄰","STREET":"安和路","SECT":"二段","MAREA":" ","LANE":"２巷","ALLEY":" ","HOUSE_NO":"７號","E_COORD97":169469.51999999999,"N_COORD97":2548522.1499999999,"ADDRESS":"安和路二段２巷７號","OBJECTID":243406},"geometry":{"x":169469.52000000048,"y":2548522.1500000004}},{"attributes":{"ID":243411,"DIS_CODE":0,"TOWNNAME":"安平區","LI":"文平里","LIN":"24鄰","STREET":"永華二街","SECT":" ","MAREA":" ","LANE":"４０巷","ALLEY":" ","HOUSE_NO":"８９號","E_COORD97":166237.23000000001,"N_COORD97":2542903.3500000001,"ADDRESS":"永華二街４０巷８９號","OBJECTID":243407},"geometry":{"x":166237.22999999952,"y":2542903.3500000015}},{"attributes":{"ID":243412,"DIS_CODE":0,"TOWNNAME":"安平區","LI":"文平里","LIN":"24鄰","STREET":"永華二街","SECT":" ","MAREA":" ","LANE":"４０巷","ALLEY":" ","HOUSE_NO":"９５號","E_COORD97":166218.34,"N_COORD97":2542904.79,"ADDRESS":"永華二街４０巷９５號","OBJECTID":243408},"geometry":{"x":166218.33999999985,"y":2542904.7899999991}},{"attributes":{"ID":243413,"DIS_CODE":0,"TOWNNAME":"新營區","LI":"南紙里","LIN":"24鄰","STREET":"南紙街","SECT":" ","MAREA":" ","LANE":"１１７巷","ALLEY":" ","HOUSE_NO":"４４號","E_COORD97":177920.17999999999,"N_COORD97":2577466.3700000001,"ADDRESS":"南紙街１１７巷４４號","OBJECTID":243409},"geometry":{"x":177920.18000000156,"y":2577466.3700000029}},{"attributes":{"ID":243414,"DIS_CODE":0,"TOWNNAME":"新營區","LI":"民榮里","LIN":"24鄰","STREET":"裕民路","SECT":" ","MAREA":" ","LANE":"１２巷","ALLEY":" ","HOUSE_NO":"２０號","E_COORD97":179075.39000000001,"N_COORD97":2577962.48,"ADDRESS":"裕民路１２巷２０號","OBJECTID":243410},"geometry":{"x":179075.3900000006,"y":2577962.4800000042}},{"attributes":{"ID":243415,"DIS_CODE":0,"TOWNNAME":"六甲區","LI":"六甲里","LIN":"24鄰","STREET":"中山路","SECT":" ","MAREA":" ","LANE":"４３巷","ALLEY":" ","HOUSE_NO":"５２之８號","E_COORD97":183459.19,"N_COORD97":2569819.1099999999,"ADDRESS":"中山路４３巷５２之８號","OBJECTID":243411},"geometry":{"x":183459.19000000134,"y":2569819.1099999994}},{"attributes":{"ID":243416,"DIS_CODE":0,"TOWNNAME":"六甲區","LI":"六甲里","LIN":"24鄰","STREET":"中山路","SECT":" ","MAREA":" ","LANE":"４３巷","ALLEY":" ","HOUSE_NO":"５２之９號","E_COORD97":183454.81,"N_COORD97":2569821.25,"ADDRESS":"中山路４３巷５２之９號","OBJECTID":243412},"geometry":{"x":183454.80999999959,"y":2569821.2500000019}},{"attributes":{"ID":243417,"DIS_CODE":0,"TOWNNAME":"六甲區","LI":"六甲里","LIN":"24鄰","STREET":"中山路","SECT":" ","MAREA":" ","LANE":"４３巷","ALLEY":" ","HOUSE_NO":"５２號","E_COORD97":183469.82000000001,"N_COORD97":2569833.3599999999,"ADDRESS":"中山路４３巷５２號","OBJECTID":243413},"geometry":{"x":183469.82000000216,"y":2569833.3600000013}},{"attributes":{"ID":243418,"DIS_CODE":0,"TOWNNAME":"六甲區","LI":"六甲里","LIN":"24鄰","STREET":"中山路","SECT":" ","MAREA":" ","LANE":"４３巷","ALLEY":" ","HOUSE_NO":"５６之１０號","E_COORD97":183425.34,"N_COORD97":2569801.8700000001,"ADDRESS":"中山路４３巷５６之１０號","OBJECTID":243414},"geometry":{"x":183425.34000000078,"y":2569801.870000001}},{"attributes":{"ID":243419,"DIS_CODE":0,"TOWNNAME":"六甲區","LI":"六甲里","LIN":"24鄰","STREET":"中山路","SECT":" ","MAREA":" ","LANE":"４３巷","ALLEY":" ","HOUSE_NO":"５６之１號","E_COORD97":183451.94,"N_COORD97":2569808.9700000002,"ADDRESS":"中山路４３巷５６之１號","OBJECTID":243415},"geometry":{"x":183451.94000000041,"y":2569808.9700000044}},{"attributes":{"ID":243420,"DIS_CODE":0,"TOWNNAME":"六甲區","LI":"六甲里","LIN":"24鄰","STREET":"中山路","SECT":" ","MAREA":" ","LANE":"４３巷","ALLEY":" ","HOUSE_NO":"５６之２號","E_COORD97":183446.75,"N_COORD97":2569811.3999999999,"ADDRESS":"中山路４３巷５６之２號","OBJECTID":243416},"geometry":{"x":183446.75000000093,"y":2569811.4000000004}},{"attributes":{"ID":243421,"DIS_CODE":0,"TOWNNAME":"六甲區","LI":"甲南里","LIN":"24鄰","STREET":"中正路","SECT":" ","MAREA":" ","LANE":"１４６巷","ALLEY":" ","HOUSE_NO":"７１號","E_COORD97":183749.41,"N_COORD97":2568921.9199999999,"ADDRESS":"中正路１４６巷７１號","OBJECTID":243417},"geometry":{"x":183749.41000000108,"y":2568921.9200000018}},{"attributes":{"ID":243422,"DIS_CODE":0,"TOWNNAME":"六甲區","LI":"甲南里","LIN":"24鄰","STREET":"中正路","SECT":" ","MAREA":" ","LANE":"１４６巷","ALLEY":" ","HOUSE_NO":"７號","E_COORD97":183529.20999999999,"N_COORD97":2569036.75,"ADDRESS":"中正路１４６巷７號","OBJECTID":243418},"geometry":{"x":183529.20999999996,"y":2569036.7500000037}},{"attributes":{"ID":243423,"DIS_CODE":0,"TOWNNAME":"六甲區","LI":"甲南里","LIN":"24鄰","STREET":"中正路","SECT":" ","MAREA":" ","LANE":"１４６巷","ALLEY":" ","HOUSE_NO":"９號","E_COORD97":183551.35000000001,"N_COORD97":2569001.9100000001,"ADDRESS":"中正路１４６巷９號","OBJECTID":243419},"geometry":{"x":183551.34999999963,"y":2569001.9100000039}},{"attributes":{"ID":243424,"DIS_CODE":0,"TOWNNAME":"六甲區","LI":"甲南里","LIN":"24鄰","STREET":"中正路","SECT":" ","MAREA":" ","LANE":"１６８巷","ALLEY":" ","HOUSE_NO":"１號","E_COORD97":183490.69,"N_COORD97":2569063.1600000001,"ADDRESS":"中正路１６８巷１號","OBJECTID":243420},"geometry":{"x":183490.69000000041,"y":2569063.1600000001}},{"attributes":{"ID":243425,"DIS_CODE":0,"TOWNNAME":"六甲區","LI":"六甲里","LIN":"24鄰","STREET":"中正路","SECT":" ","MAREA":" ","LANE":"４２３巷","ALLEY":" ","HOUSE_NO":"３２號","E_COORD97":183486.26999999999,"N_COORD97":2569766.1899999999,"ADDRESS":"中正路４２３巷３２號","OBJECTID":243421},"geometry":{"x":183486.26999999862,"y":2569766.1900000013}},{"attributes":{"ID":243426,"DIS_CODE":0,"TOWNNAME":"六甲區","LI":"六甲里","LIN":"16鄰","STREET":"仁愛街","SECT":" ","MAREA":" ","LANE":" ","ALLEY":" ","HOUSE_NO":"２７號","E_COORD97":183863.07000000001,"N_COORD97":2569941.0800000001,"ADDRESS":"仁愛街２７號","OBJECTID":243422},"geometry":{"x":183863.07000000216,"y":2569941.0800000019}},{"attributes":{"ID":243427,"DIS_CODE":0,"TOWNNAME":"官田區","LI":"官田里","LIN":"30鄰","STREET":" ","SECT":" ","MAREA":"中\u25A0","LANE":" ","ALLEY":" ","HOUSE_NO":"５５號之１","E_COORD97":183540.75,"N_COORD97":2566489.2000000002,"ADDRESS":"中\u25A0５５號之１","OBJECTID":243423},"geometry":{"x":183540.75,"y":2566489.1999999993}},{"attributes":{"ID":243428,"DIS_CODE":0,"TOWNNAME":"六甲區","LI":"二甲里","LIN":"16鄰","STREET":"民權街","SECT":" ","MAREA":" ","LANE":"１６２巷","ALLEY":" ","HOUSE_NO":"２２號","E_COORD97":183248.69,"N_COORD97":2569779.77,"ADDRESS":"民權街１６２巷２２號","OBJECTID":243424},"geometry":{"x":183248.68999999948,"y":2569779.7700000014}},{"attributes":{"ID":243429,"DIS_CODE":0,"TOWNNAME":"新營區","LI":"新東里","LIN":"16鄰","STREET":"東智街","SECT":" ","MAREA":" ","LANE":"４６巷","ALLEY":" ","HOUSE_NO":"３２號","E_COORD97":181059.75,"N_COORD97":2579701.77,"ADDRESS":"東智街４６巷３２號","OBJECTID":243425},"geometry":{"x":181059.75000000093,"y":2579701.7699999996}},{"attributes":{"ID":243430,"DIS_CODE":0,"TOWNNAME":"新營區","LI":"新東里","LIN":"16鄰","STREET":"東泰九街","SECT":" ","MAREA":" ","LANE":"１６巷","ALLEY":" ","HOUSE_NO":"２３號","E_COORD97":181018.41,"N_COORD97":2579834.8599999999,"ADDRESS":"東泰九街１６巷２３號","OBJECTID":243426},"geometry":{"x":181018.41000000108,"y":2579834.8600000013}},{"attributes":{"ID":243431,"DIS_CODE":0,"TOWNNAME":"官田區","LI":"官田里","LIN":"30鄰","STREET":" ","SECT":" ","MAREA":"中\u25A0","LANE":" ","ALLEY":" ","HOUSE_NO":"５５號之２","E_COORD97":183536.73999999999,"N_COORD97":2566489.1800000002,"ADDRESS":"中\u25A0５５號之２","OBJECTID":243427},"geometry":{"x":183536.74000000115,"y":2566489.1799999997}},{"attributes":{"ID":243432,"DIS_CODE":0,"TOWNNAME":"官田區","LI":"官田里","LIN":"30鄰","STREET":" ","SECT":" ","MAREA":"中\u25A0","LANE":" ","ALLEY":" ","HOUSE_NO":"５５號之３","E_COORD97":183531.64999999999,"N_COORD97":2566489.5,"ADDRESS":"中\u25A0５５號之３","OBJECTID":243428},"geometry":{"x":183531.65000000037,"y":2566489.5000000019}},{"attributes":{"ID":243433,"DIS_CODE":0,"TOWNNAME":"六甲區","LI":"六甲里","LIN":"24鄰","STREET":"中正路","SECT":" ","MAREA":" ","LANE":"４２３巷","ALLEY":" ","HOUSE_NO":"３４號","E_COORD97":183482.31,"N_COORD97":2569767.9100000001,"ADDRESS":"中正路４２３巷３４號","OBJECTID":243429},"geometry":{"x":183482.30999999959,"y":2569767.9099999983}},{"attributes":{"ID":243434,"DIS_CODE":0,"TOWNNAME":"官田區","LI":"官田里","LIN":"30鄰","STREET":" ","SECT":" ","MAREA":"中\u25A0","LANE":" ","ALLEY":" ","HOUSE_NO":"５５號之４","E_COORD97":183536.10000000001,"N_COORD97":2566068.0499999998,"ADDRESS":"中\u25A0５５號之４","OBJECTID":243430},"geometry":{"x":183536.09999999963,"y":2566068.0500000007}},{"attributes":{"ID":243435,"DIS_CODE":0,"TOWNNAME":"官田區","LI":"官田里","LIN":"30鄰","STREET":" ","SECT":" ","MAREA":"中\u25A0","LANE":" ","ALLEY":" ","HOUSE_NO":"５５號之５","E_COORD97":183534.78,"N_COORD97":2566467.8799999999,"ADDRESS":"中\u25A0５５號之５","OBJECTID":243431},"geometry":{"x":183534.78000000119,"y":2566467.879999999}},{"attributes":{"ID":243436,"DIS_CODE":0,"TOWNNAME":"官田區","LI":"官田里","LIN":"30鄰","STREET":" ","SECT":" ","MAREA":"中\u25A0","LANE":" ","ALLEY":" ","HOUSE_NO":"５５號之６","E_COORD97":183535.70000000001,"N_COORD97":2566463.4900000002,"ADDRESS":"中\u25A0５５號之６","OBJECTID":243432},"geometry":{"x":183535.70000000112,"y":2566463.4900000021}},{"attributes":{"ID":243437,"DIS_CODE":0,"TOWNNAME":"官田區","LI":"官田里","LIN":"30鄰","STREET":" ","SECT":" ","MAREA":"中\u25A0","LANE":" ","ALLEY":" ","HOUSE_NO":"５５號","E_COORD97":183544.44,"N_COORD97":2566489.1499999999,"ADDRESS":"中\u25A0５５號","OBJECTID":243433},"geometry":{"x":183544.44000000134,"y":2566489.1500000022}},{"attributes":{"ID":243438,"DIS_CODE":0,"TOWNNAME":"六甲區","LI":"六甲里","LIN":"24鄰","STREET":"中正路","SECT":" ","MAREA":" ","LANE":"４２３巷","ALLEY":" ","HOUSE_NO":"３６號","E_COORD97":183478.48999999999,"N_COORD97":2569769.46,"ADDRESS":"中正路４２３巷３６號","OBJECTID":243434},"geometry":{"x":183478.49000000022,"y":2569769.4600000028}},{"attributes":{"ID":243439,"DIS_CODE":0,"TOWNNAME":"官田區","LI":"官田里","LIN":"30鄰","STREET":" ","SECT":" ","MAREA":"中\u25A0","LANE":" ","ALLEY":" ","HOUSE_NO":"５６號之１２","E_COORD97":183352.79000000001,"N_COORD97":2566246.8900000001,"ADDRESS":"中\u25A0５６號之１２","OBJECTID":243435},"geometry":{"x":183352.7900000019,"y":2566246.8900000025}},{"attributes":{"ID":243440,"DIS_CODE":0,"TOWNNAME":"官田區","LI":"官田里","LIN":"30鄰","STREET":" ","SECT":" ","MAREA":"中\u25A0","LANE":" ","ALLEY":" ","HOUSE_NO":"５６號之３０","E_COORD97":183556.64999999999,"N_COORD97":2565978.27,"ADDRESS":"中\u25A0５６號之３０","OBJECTID":243436},"geometry":{"x":183556.6500000013,"y":2565978.2700000033}},{"attributes":{"ID":243441,"DIS_CODE":0,"TOWNNAME":"六甲區","LI":"六甲里","LIN":"24鄰","STREET":"中正路","SECT":" ","MAREA":" ","LANE":"４２３巷","ALLEY":" ","HOUSE_NO":"３８號","E_COORD97":183474.01000000001,"N_COORD97":2569770.5899999999,"ADDRESS":"中正路４２３巷３８號","OBJECTID":243437},"geometry":{"x":183474.00999999978,"y":2569770.5900000017}},{"attributes":{"ID":243442,"DIS_CODE":0,"TOWNNAME":"中西區","LI":"赤嵌里","LIN":"14鄰","STREET":"觀亭街","SECT":" ","MAREA":" ","LANE":" ","ALLEY":" ","HOUSE_NO":"１５號二樓","E_COORD97":168533.51000000001,"N_COORD97":2544093.8100000001,"ADDRESS":"觀亭街１５號二樓","OBJECTID":243438},"geometry":{"x":168533.51000000164,"y":2544093.8100000042}},{"attributes":{"ID":243443,"DIS_CODE":0,"TOWNNAME":"中西區","LI":"赤嵌里","LIN":"14鄰","STREET":"觀亭街","SECT":" ","MAREA":" ","LANE":" ","ALLEY":" ","HOUSE_NO":"１５號三樓","E_COORD97":168533.51000000001,"N_COORD97":2544093.8100000001,"ADDRESS":"觀亭街１５號三樓","OBJECTID":243439},"geometry":{"x":168533.51000000164,"y":2544093.8100000042}},{"attributes":{"ID":243444,"DIS_CODE":0,"TOWNNAME":"官田區","LI":"官田里","LIN":"30鄰","STREET":" ","SECT":" ","MAREA":"中\u25A0","LANE":" ","ALLEY":" ","HOUSE_NO":"５６號之３","E_COORD97":183568.14999999999,"N_COORD97":2566484.4199999999,"ADDRESS":"中\u25A0５６號之３","OBJECTID":243440},"geometry":{"x":183568.1500000013,"y":2566484.4199999999}},{"attributes":{"ID":243445,"DIS_CODE":0,"TOWNNAME":"官田區","LI":"官田里","LIN":"30鄰","STREET":" ","SECT":" ","MAREA":"中\u25A0","LANE":" ","ALLEY":" ","HOUSE_NO":"５６號之４","E_COORD97":183611.38,"N_COORD97":2566171.54,"ADDRESS":"中\u25A0５６號之４","OBJECTID":243441},"geometry":{"x":183611.38000000175,"y":2566171.5399999991}},{"attributes":{"ID":243446,"DIS_CODE":0,"TOWNNAME":"官田區","LI":"官田里","LIN":"30鄰","STREET":" ","SECT":" ","MAREA":"中\u25A0","LANE":" ","ALLEY":" ","HOUSE_NO":"５６號之５","E_COORD97":183620.62,"N_COORD97":2566331.75,"ADDRESS":"中\u25A0５６號之５","OBJECTID":243442},"geometry":{"x":183620.62000000104,"y":2566331.7500000019}},{"attributes":{"ID":243447,"DIS_CODE":0,"TOWNNAME":"中西區","LI":"赤嵌里","LIN":"14鄰","STREET":"觀亭街","SECT":" ","MAREA":" ","LANE":" ","ALLEY":" ","HOUSE_NO":"１５號四樓","E_COORD97":168533.51000000001,"N_COORD97":2544093.8100000001,"ADDRESS":"觀亭街１５號四樓","OBJECTID":243443},"geometry":{"x":168533.51000000164,"y":2544093.8100000042}},{"attributes":{"ID":243448,"DIS_CODE":0,"TOWNNAME":"麻豆區","LI":"新建里","LIN":"1鄰","STREET":"仁愛路","SECT":" ","MAREA":" ","LANE":" ","ALLEY":" ","HOUSE_NO":"２６號","E_COORD97":172700.5,"N_COORD97":2564710.4399999999,"ADDRESS":"仁愛路２６號","OBJECTID":243444},"geometry":{"x":172700.50000000186,"y":2564710.4400000013}},{"attributes":{"ID":243449,"DIS_CODE":0,"TOWNNAME":"柳營區","LI":"神農里","LIN":"11鄰","STREET":" ","SECT":" ","MAREA":"果毅後","LANE":" ","ALLEY":" ","HOUSE_NO":"３４３之１號","E_COORD97":185517.73999999999,"N_COORD97":2573053.3999999999,"ADDRESS":"果毅後３４３之１號","OBJECTID":243445},"geometry":{"x":185517.74000000022,"y":2573053.4000000004}},{"attributes":{"ID":243450,"DIS_CODE":0,"TOWNNAME":"柳營區","LI":"神農里","LIN":"11鄰","STREET":" ","SECT":" ","MAREA":"果毅後","LANE":" ","ALLEY":" ","HOUSE_NO":"３４３之２號","E_COORD97":185530.60999999999,"N_COORD97":2573051.4900000002,"ADDRESS":"果毅後３４３之２號","OBJECTID":243446},"geometry":{"x":185530.61000000034,"y":2573051.4900000002}},{"attributes":{"ID":243451,"DIS_CODE":0,"TOWNNAME":"柳營區","LI":"神農里","LIN":"11鄰","STREET":" ","SECT":" ","MAREA":"果毅後","LANE":" ","ALLEY":" ","HOUSE_NO":"３４３之５號","E_COORD97":185534.70000000001,"N_COORD97":2573090.1600000001,"ADDRESS":"果毅後３４３之５號","OBJECTID":243447},"geometry":{"x":185534.70000000019,"y":2573090.160000002}},{"attributes":{"ID":243452,"DIS_CODE":0,"TOWNNAME":"六甲區","LI":"六甲里","LIN":"24鄰","STREET":"中正路","SECT":" ","MAREA":" ","LANE":"４２３巷","ALLEY":" ","HOUSE_NO":"４０號之２","E_COORD97":183462.89999999999,"N_COORD97":2569780.71,"ADDRESS":"中正路４２３巷４０號之２","OBJECTID":243448},"geometry":{"x":183462.9000000013,"y":2569780.7100000046}},{"attributes":{"ID":243453,"DIS_CODE":0,"TOWNNAME":"柳營區","LI":"神農里","LIN":"11鄰","STREET":" ","SECT":" ","MAREA":"果毅後","LANE":" ","ALLEY":" ","HOUSE_NO":"３５０之３號","E_COORD97":185336.94,"N_COORD97":2573546.5600000001,"ADDRESS":"果毅後３５０之３號","OBJECTID":243449},"geometry":{"x":185336.94000000041,"y":2573546.5600000005}},{"attributes":{"ID":243454,"DIS_CODE":0,"TOWNNAME":"柳營區","LI":"神農里","LIN":"11鄰","STREET":" ","SECT":" ","MAREA":"果毅後","LANE":" ","ALLEY":" ","HOUSE_NO":"３５０之４號","E_COORD97":185147,"N_COORD97":2573488.29,"ADDRESS":"果毅後３５０之４號","OBJECTID":243450},"geometry":{"x":185147.00000000093,"y":2573488.290000001}},{"attributes":{"ID":243455,"DIS_CODE":0,"TOWNNAME":"柳營區","LI":"神農里","LIN":"11鄰","STREET":" ","SECT":" ","MAREA":"果毅後","LANE":" ","ALLEY":" ","HOUSE_NO":"３５０之５號","E_COORD97":185376.10999999999,"N_COORD97":2573478.8100000001,"ADDRESS":"果毅後３５０之５號","OBJECTID":243451},"geometry":{"x":185376.11000000034,"y":2573478.8100000024}},{"attributes":{"ID":243456,"DIS_CODE":0,"TOWNNAME":"柳營區","LI":"神農里","LIN":"11鄰","STREET":" ","SECT":" ","MAREA":"果毅後","LANE":" ","ALLEY":" ","HOUSE_NO":"３５０之６號","E_COORD97":185348.57999999999,"N_COORD97":2573425.6600000001,"ADDRESS":"果毅後３５０之６號","OBJECTID":243452},"geometry":{"x":185348.58000000101,"y":2573425.660000002}},{"attributes":{"ID":243457,"DIS_CODE":0,"TOWNNAME":"柳營區","LI":"神農里","LIN":"11鄰","STREET":" ","SECT":" ","MAREA":"果毅後","LANE":" ","ALLEY":" ","HOUSE_NO":"３５０之７號","E_COORD97":185525.47,"N_COORD97":2573180.4500000002,"ADDRESS":"果毅後３５０之７號","OBJECTID":243453},"geometry":{"x":185525.46999999974,"y":2573180.4499999993}},{"attributes":{"ID":243458,"DIS_CODE":0,"TOWNNAME":"六甲區","LI":"六甲里","LIN":"24鄰","STREET":"中正路","SECT":" ","MAREA":" ","LANE":"４２３巷","ALLEY":" ","HOUSE_NO":"４０號之３","E_COORD97":183464.69,"N_COORD97":2569785.2000000002,"ADDRESS":"中正路４２３巷４０號之３","OBJECTID":243454},"geometry":{"x":183464.69000000134,"y":2569785.1999999993}},{"attributes":{"ID":243459,"DIS_CODE":0,"TOWNNAME":"六甲區","LI":"六甲里","LIN":"24鄰","STREET":"中正路","SECT":" ","MAREA":" ","LANE":"４２３巷","ALLEY":" ","HOUSE_NO":"４０號","E_COORD97":183465.81,"N_COORD97":2569768.9300000002,"ADDRESS":"中正路４２３巷４０號","OBJECTID":243455},"geometry":{"x":183465.81000000145,"y":2569768.9300000016}},{"attributes":{"ID":243460,"DIS_CODE":0,"TOWNNAME":"六甲區","LI":"六甲里","LIN":"24鄰","STREET":"中正路","SECT":" ","MAREA":" ","LANE":"４２３巷","ALLEY":" ","HOUSE_NO":"４２號","E_COORD97":183466.60000000001,"N_COORD97":2569788.1099999999,"ADDRESS":"中正路４２３巷４２號","OBJECTID":243456},"geometry":{"x":183466.59999999963,"y":2569788.1099999994}},{"attributes":{"ID":243461,"DIS_CODE":0,"TOWNNAME":"柳營區","LI":"神農里","LIN":"11鄰","STREET":" ","SECT":" ","MAREA":"果毅後","LANE":" ","ALLEY":" ","HOUSE_NO":"３５０之８號","E_COORD97":185352.57000000001,"N_COORD97":2573458.7400000002,"ADDRESS":"果毅後３５０之８號","OBJECTID":243457},"geometry":{"x":185352.5700000003,"y":2573458.7400000021}},{"attributes":{"ID":243462,"DIS_CODE":0,"TOWNNAME":"柳營區","LI":"神農里","LIN":"11鄰","STREET":" ","SECT":" ","MAREA":"果毅後","LANE":" ","ALLEY":" ","HOUSE_NO":"３５０之９號","E_COORD97":185148.75,"N_COORD97":2573658.98,"ADDRESS":"果毅後３５０之９號","OBJECTID":243458},"geometry":{"x":185148.75000000093,"y":2573658.9800000004}},{"attributes":{"ID":243463,"DIS_CODE":0,"TOWNNAME":"柳營區","LI":"神農里","LIN":"11鄰","STREET":" ","SECT":" ","MAREA":"果毅後","LANE":" ","ALLEY":" ","HOUSE_NO":"３５１之１號","E_COORD97":185472.76000000001,"N_COORD97":2573055.6899999999,"ADDRESS":"果毅後３５１之１號","OBJECTID":243459},"geometry":{"x":185472.75999999978,"y":2573055.6900000013}},{"attributes":{"ID":243464,"DIS_CODE":0,"TOWNNAME":"柳營區","LI":"神農里","LIN":"11鄰","STREET":" ","SECT":" ","MAREA":"果毅後","LANE":" ","ALLEY":" ","HOUSE_NO":"３５１之２號","E_COORD97":185466.66,"N_COORD97":2573057.5499999998,"ADDRESS":"果毅後３５１之２號","OBJECTID":243460},"geometry":{"x":185466.66000000108,"y":2573057.5500000026}},{"attributes":{"ID":243465,"DIS_CODE":0,"TOWNNAME":"六甲區","LI":"六甲里","LIN":"24鄰","STREET":"中正路","SECT":" ","MAREA":" ","LANE":"４２３巷","ALLEY":" ","HOUSE_NO":"４４號","E_COORD97":183444.98000000001,"N_COORD97":2569785.5899999999,"ADDRESS":"中正路４２３巷４４號","OBJECTID":243461},"geometry":{"x":183444.98000000045,"y":2569785.5899999999}},{"attributes":{"ID":243466,"DIS_CODE":0,"TOWNNAME":"六甲區","LI":"六甲里","LIN":"24鄰","STREET":"中正路","SECT":" ","MAREA":" ","LANE":"４２３巷","ALLEY":" ","HOUSE_NO":"４６號","E_COORD97":183446.78,"N_COORD97":2569790.2000000002,"ADDRESS":"中正路４２３巷４６號","OBJECTID":243462},"geometry":{"x":183446.78000000119,"y":2569790.2000000011}},{"attributes":{"ID":243467,"DIS_CODE":0,"TOWNNAME":"六甲區","LI":"六甲里","LIN":"24鄰","STREET":"中正路","SECT":" ","MAREA":" ","LANE":"４２３巷","ALLEY":" ","HOUSE_NO":"４８號","E_COORD97":183448.59,"N_COORD97":2569794.75,"ADDRESS":"中正路４２３巷４８號","OBJECTID":243463},"geometry":{"x":183448.58999999985,"y":2569794.75}},{"attributes":{"ID":243468,"DIS_CODE":0,"TOWNNAME":"六甲區","LI":"六甲里","LIN":"24鄰","STREET":"中正路","SECT":" ","MAREA":" ","LANE":"４２３巷","ALLEY":" ","HOUSE_NO":"５０號","E_COORD97":183432.51999999999,"N_COORD97":2569780.8500000001,"ADDRESS":"中正路４２３巷５０號","OBJECTID":243464},"geometry":{"x":183432.52000000048,"y":2569780.8499999996}},{"attributes":{"ID":243469,"DIS_CODE":0,"TOWNNAME":"六甲區","LI":"六甲里","LIN":"24鄰","STREET":"中正路","SECT":" ","MAREA":" ","LANE":"４２３巷","ALLEY":" ","HOUSE_NO":"５２號","E_COORD97":183423.92999999999,"N_COORD97":2569782.96,"ADDRESS":"中正路４２３巷５２號","OBJECTID":243465},"geometry":{"x":183423.9299999997,"y":2569782.9600000028}},{"attributes":{"ID":243470,"DIS_CODE":0,"TOWNNAME":"歸仁區","LI":"南興里","LIN":"24鄰","STREET":"文化二十街","SECT":" ","MAREA":" ","LANE":"１１２巷","ALLEY":" ","HOUSE_NO":"１６號","E_COORD97":175525.09,"N_COORD97":2541340.3300000001,"ADDRESS":"文化二十街１１２巷１６號","OBJECTID":243466},"geometry":{"x":175525.08999999985,"y":2541340.3300000038}},{"attributes":{"ID":243471,"DIS_CODE":0,"TOWNNAME":"南區","LI":"田寮里","LIN":"24鄰","STREET":"大成路","SECT":"二段","MAREA":" ","LANE":"４２巷","ALLEY":" ","HOUSE_NO":"１０號","E_COORD97":167623.39000000001,"N_COORD97":2541787.6000000001,"ADDRESS":"大成路二段４２巷１０號","OBJECTID":243467},"geometry":{"x":167623.38999999966,"y":2541787.5999999996}},{"attributes":{"ID":243472,"DIS_CODE":0,"TOWNNAME":"南區","LI":"田寮里","LIN":"24鄰","STREET":"大成路","SECT":"二段","MAREA":" ","LANE":"４２巷","ALLEY":" ","HOUSE_NO":"１２號","E_COORD97":167623.76000000001,"N_COORD97":2541793.1299999999,"ADDRESS":"大成路二段４２巷１２號","OBJECTID":243468},"geometry":{"x":167623.76000000071,"y":2541793.129999999}},{"attributes":{"ID":243473,"DIS_CODE":0,"TOWNNAME":"南區","LI":"田寮里","LIN":"24鄰","STREET":"大成路","SECT":"二段","MAREA":" ","LANE":"４２巷","ALLEY":" ","HOUSE_NO":"１６號","E_COORD97":167621.84,"N_COORD97":2541807.5699999998,"ADDRESS":"大成路二段４２巷１６號","OBJECTID":243469},"geometry":{"x":167621.83999999985,"y":2541807.5700000022}},{"attributes":{"ID":243474,"DIS_CODE":0,"TOWNNAME":"南區","LI":"田寮里","LIN":"24鄰","STREET":"大成路","SECT":"二段","MAREA":" ","LANE":"４２巷","ALLEY":" ","HOUSE_NO":"１８號","E_COORD97":167622.22,"N_COORD97":2541812.6899999999,"ADDRESS":"大成路二段４２巷１８號","OBJECTID":243470},"geometry":{"x":167622.22000000067,"y":2541812.6900000013}},{"attributes":{"ID":243475,"DIS_CODE":0,"TOWNNAME":"南區","LI":"田寮里","LIN":"24鄰","STREET":"大成路","SECT":"二段","MAREA":" ","LANE":"４２巷","ALLEY":" ","HOUSE_NO":"１號","E_COORD97":167598.17000000001,"N_COORD97":2541767.5499999998,"ADDRESS":"大成路二段４２巷１號","OBJECTID":243471},"geometry":{"x":167598.16999999993,"y":2541767.5500000026}},{"attributes":{"ID":243476,"DIS_CODE":0,"TOWNNAME":"南區","LI":"田寮里","LIN":"24鄰","STREET":"大成路","SECT":"二段","MAREA":" ","LANE":"４２巷","ALLEY":" ","HOUSE_NO":"２０號","E_COORD97":167621.84,"N_COORD97":2541816.9100000001,"ADDRESS":"大成路二段４２巷２０號","OBJECTID":243472},"geometry":{"x":167621.83999999985,"y":2541816.9100000001}},{"attributes":{"ID":243477,"DIS_CODE":0,"TOWNNAME":"南區","LI":"田寮里","LIN":"24鄰","STREET":"大成路","SECT":"二段","MAREA":" ","LANE":"４２巷","ALLEY":" ","HOUSE_NO":"２２號","E_COORD97":167622.10000000001,"N_COORD97":2541820.8799999999,"ADDRESS":"大成路二段４２巷２２號","OBJECTID":243473},"geometry":{"x":167622.09999999963,"y":2541820.8800000008}},{"attributes":{"ID":243478,"DIS_CODE":0,"TOWNNAME":"南區","LI":"田寮里","LIN":"24鄰","STREET":"大成路","SECT":"二段","MAREA":" ","LANE":"４２巷","ALLEY":" ","HOUSE_NO":"２４號","E_COORD97":167622.22,"N_COORD97":2541824.8500000001,"ADDRESS":"大成路二段４２巷２４號","OBJECTID":243474},"geometry":{"x":167622.22000000067,"y":2541824.8500000015}},{"attributes":{"ID":243479,"DIS_CODE":0,"TOWNNAME":"南區","LI":"田寮里","LIN":"24鄰","STREET":"大成路","SECT":"二段","MAREA":" ","LANE":"４２巷","ALLEY":" ","HOUSE_NO":"２６號","E_COORD97":167621.70999999999,"N_COORD97":2541829.2000000002,"ADDRESS":"大成路二段４２巷２６號","OBJECTID":243475},"geometry":{"x":167621.70999999996,"y":2541829.2000000011}},{"attributes":{"ID":243480,"DIS_CODE":0,"TOWNNAME":"鹽水區","LI":"岸內里","LIN":"24鄰","STREET":"北門路","SECT":" ","MAREA":" ","LANE":"９巷","ALLEY":" ","HOUSE_NO":"３１號","E_COORD97":175412.23000000001,"N_COORD97":2580400.9300000002,"ADDRESS":"北門路９巷３１號","OBJECTID":243476},"geometry":{"x":175412.23000000138,"y":2580400.9300000016}},{"attributes":{"ID":243481,"DIS_CODE":0,"TOWNNAME":"南區","LI":"田寮里","LIN":"24鄰","STREET":"大成路","SECT":"二段","MAREA":" ","LANE":"４２巷","ALLEY":" ","HOUSE_NO":"２８號","E_COORD97":167622.10000000001,"N_COORD97":2541833.8100000001,"ADDRESS":"大成路二段４２巷２８號","OBJECTID":243477},"geometry":{"x":167622.09999999963,"y":2541833.8100000024}},{"attributes":{"ID":243482,"DIS_CODE":0,"TOWNNAME":"南區","LI":"田寮里","LIN":"24鄰","STREET":"大成路","SECT":"二段","MAREA":" ","LANE":"４２巷","ALLEY":" ","HOUSE_NO":"２號","E_COORD97":167622.82999999999,"N_COORD97":2541768.9700000002,"ADDRESS":"大成路二段４２巷２號","OBJECTID":243478},"geometry":{"x":167622.82999999914,"y":2541768.9700000007}},{"attributes":{"ID":243483,"DIS_CODE":0,"TOWNNAME":"南區","LI":"田寮里","LIN":"24鄰","STREET":"大成路","SECT":"二段","MAREA":" ","LANE":"４２巷","ALLEY":" ","HOUSE_NO":"３０號","E_COORD97":167622.10000000001,"N_COORD97":2541838.0299999998,"ADDRESS":"大成路二段４２巷３０號","OBJECTID":243479},"geometry":{"x":167622.09999999963,"y":2541838.0300000012}},{"attributes":{"ID":243484,"DIS_CODE":0,"TOWNNAME":"南區","LI":"田寮里","LIN":"24鄰","STREET":"大成路","SECT":"二段","MAREA":" ","LANE":"４２巷","ALLEY":" ","HOUSE_NO":"３２號","E_COORD97":167621.57999999999,"N_COORD97":2541842.5499999998,"ADDRESS":"大成路二段４２巷３２號","OBJECTID":243480},"geometry":{"x":167621.58000000101,"y":2541842.5500000026}},{"attributes":{"ID":243485,"DIS_CODE":0,"TOWNNAME":"南區","LI":"田寮里","LIN":"24鄰","STREET":"大成路","SECT":"二段","MAREA":" ","LANE":"４２巷","ALLEY":" ","HOUSE_NO":"３４號","E_COORD97":167621.70999999999,"N_COORD97":2541846.6499999999,"ADDRESS":"大成路二段４２巷３４號","OBJECTID":243481},"geometry":{"x":167621.70999999996,"y":2541846.6500000004}},{"attributes":{"ID":243486,"DIS_CODE":0,"TOWNNAME":"南區","LI":"田寮里","LIN":"24鄰","STREET":"大成路","SECT":"二段","MAREA":" ","LANE":"４２巷","ALLEY":" ","HOUSE_NO":"３６號","E_COORD97":167621.57999999999,"N_COORD97":2541850.4900000002,"ADDRESS":"大成路二段４２巷３６號","OBJECTID":243482},"geometry":{"x":167621.58000000101,"y":2541850.4900000002}},{"attributes":{"ID":243487,"DIS_CODE":0,"TOWNNAME":"南區","LI":"田寮里","LIN":"24鄰","STREET":"大成路","SECT":"二段","MAREA":" ","LANE":"４２巷","ALLEY":" ","HOUSE_NO":"３８號","E_COORD97":167621.57999999999,"N_COORD97":2541855.48,"ADDRESS":"大成路二段４２巷３８號","OBJECTID":243483},"geometry":{"x":167621.58000000101,"y":2541855.4800000023}},{"attributes":{"ID":243488,"DIS_CODE":0,"TOWNNAME":"南區","LI":"田寮里","LIN":"24鄰","STREET":"大成路","SECT":"二段","MAREA":" ","LANE":"４２巷","ALLEY":" ","HOUSE_NO":"３號","E_COORD97":167598.53,"N_COORD97":2541771.8500000001,"ADDRESS":"大成路二段４２巷３號","OBJECTID":243484},"geometry":{"x":167598.53000000119,"y":2541771.8500000015}},{"attributes":{"ID":243489,"DIS_CODE":0,"TOWNNAME":"南區","LI":"田寮里","LIN":"24鄰","STREET":"大成路","SECT":"二段","MAREA":" ","LANE":"４２巷","ALLEY":" ","HOUSE_NO":"４０號","E_COORD97":167621.57999999999,"N_COORD97":2541859.4500000002,"ADDRESS":"大成路二段４２巷４０號","OBJECTID":243485},"geometry":{"x":167621.58000000101,"y":2541859.4499999993}},{"attributes":{"ID":243490,"DIS_CODE":0,"TOWNNAME":"南區","LI":"田寮里","LIN":"24鄰","STREET":"大成路","SECT":"二段","MAREA":" ","LANE":"４２巷","ALLEY":" ","HOUSE_NO":"４２號","E_COORD97":167620.94,"N_COORD97":2541863.9300000002,"ADDRESS":"大成路二段４２巷４２號","OBJECTID":243486},"geometry":{"x":167620.94000000227,"y":2541863.9299999997}},{"attributes":{"ID":243491,"DIS_CODE":0,"TOWNNAME":"南區","LI":"田寮里","LIN":"24鄰","STREET":"大成路","SECT":"二段","MAREA":" ","LANE":"４２巷","ALLEY":" ","HOUSE_NO":"４２號之１","E_COORD97":167621.57999999999,"N_COORD97":2541867.8900000001,"ADDRESS":"大成路二段４２巷４２號之１","OBJECTID":243487},"geometry":{"x":167621.58000000101,"y":2541867.8900000006}},{"attributes":{"ID":243492,"DIS_CODE":0,"TOWNNAME":"南區","LI":"田寮里","LIN":"24鄰","STREET":"大成路","SECT":"二段","MAREA":" ","LANE":"４２巷","ALLEY":" ","HOUSE_NO":"４６號","E_COORD97":167621.57999999999,"N_COORD97":2541871.9900000002,"ADDRESS":"大成路二段４２巷４６號","OBJECTID":243488},"geometry":{"x":167621.58000000101,"y":2541871.9900000021}},{"attributes":{"ID":243493,"DIS_CODE":0,"TOWNNAME":"南區","LI":"田寮里","LIN":"24鄰","STREET":"大成路","SECT":"二段","MAREA":" ","LANE":"４２巷","ALLEY":" ","HOUSE_NO":"４８號","E_COORD97":167620.94,"N_COORD97":2541876.6000000001,"ADDRESS":"大成路二段４２巷４８號","OBJECTID":243489},"geometry":{"x":167620.94000000227,"y":2541876.5999999996}},{"attributes":{"ID":243494,"DIS_CODE":0,"TOWNNAME":"南區","LI":"田寮里","LIN":"24鄰","STREET":"大成路","SECT":"二段","MAREA":" ","LANE":"４２巷","ALLEY":" ","HOUSE_NO":"４號","E_COORD97":167623.01999999999,"N_COORD97":2541773.5800000001,"ADDRESS":"大成路二段４２巷４號","OBJECTID":243490},"geometry":{"x":167623.02000000048,"y":2541773.5800000019}},{"attributes":{"ID":243495,"DIS_CODE":0,"TOWNNAME":"南區","LI":"田寮里","LIN":"24鄰","STREET":"大成路","SECT":"二段","MAREA":" ","LANE":"４２巷","ALLEY":" ","HOUSE_NO":"５０號","E_COORD97":167620.94,"N_COORD97":2541880.4199999999,"ADDRESS":"大成路二段４２巷５０號","OBJECTID":243491},"geometry":{"x":167620.94000000227,"y":2541880.4199999999}},{"attributes":{"ID":243496,"DIS_CODE":0,"TOWNNAME":"南區","LI":"田寮里","LIN":"24鄰","STREET":"大成路","SECT":"二段","MAREA":" ","LANE":"４２巷","ALLEY":" ","HOUSE_NO":"５２號","E_COORD97":167620.94,"N_COORD97":2541885.29,"ADDRESS":"大成路二段４２巷５２號","OBJECTID":243492},"geometry":{"x":167620.94000000227,"y":2541885.2900000028}},{"attributes":{"ID":243497,"DIS_CODE":0,"TOWNNAME":"南區","LI":"田寮里","LIN":"24鄰","STREET":"大成路","SECT":"二段","MAREA":" ","LANE":"４２巷","ALLEY":" ","HOUSE_NO":"５４號","E_COORD97":167621.07000000001,"N_COORD97":2541889.25,"ADDRESS":"大成路二段４２巷５４號","OBJECTID":243493},"geometry":{"x":167621.0700000003,"y":2541889.25}},{"attributes":{"ID":243498,"DIS_CODE":0,"TOWNNAME":"南區","LI":"田寮里","LIN":"24鄰","STREET":"大成路","SECT":"二段","MAREA":" ","LANE":"４２巷","ALLEY":" ","HOUSE_NO":"５６號","E_COORD97":167620.67999999999,"N_COORD97":2541892.9700000002,"ADDRESS":"大成路二段４２巷５６號","OBJECTID":243494},"geometry":{"x":167620.68000000063,"y":2541892.9700000025}},{"attributes":{"ID":243499,"DIS_CODE":0,"TOWNNAME":"南區","LI":"田寮里","LIN":"24鄰","STREET":"大成路","SECT":"二段","MAREA":" ","LANE":"４２巷","ALLEY":" ","HOUSE_NO":"５８號","E_COORD97":167620.42999999999,"N_COORD97":2541897.5699999998,"ADDRESS":"大成路二段４２巷５８號","OBJECTID":243495},"geometry":{"x":167620.43000000063,"y":2541897.5700000003}},{"attributes":{"ID":243500,"DIS_CODE":0,"TOWNNAME":"玉井區","LI":"玉田里","LIN":"24鄰","STREET":"中華路","SECT":" ","MAREA":" ","LANE":"１９２巷","ALLEY":" ","HOUSE_NO":"１４號","E_COORD97":195146.79999999999,"N_COORD97":2557788.2400000002,"ADDRESS":"中華路１９２巷１４號","OBJECTID":243496},"geometry":{"x":195146.79999999981,"y":2557788.2400000021}},{"attributes":{"ID":243501,"DIS_CODE":0,"TOWNNAME":"玉井區","LI":"玉田里","LIN":"24鄰","STREET":"中華路","SECT":" ","MAREA":" ","LANE":"１９２巷","ALLEY":" ","HOUSE_NO":"１１號","E_COORD97":195164.01000000001,"N_COORD97":2557782.2400000002,"ADDRESS":"中華路１９２巷１１號","OBJECTID":243497},"geometry":{"x":195164.00999999978,"y":2557782.2400000021}},{"attributes":{"ID":243502,"DIS_CODE":0,"TOWNNAME":"玉井區","LI":"玉田里","LIN":"24鄰","STREET":"中華路","SECT":" ","MAREA":" ","LANE":"１９２巷","ALLEY":" ","HOUSE_NO":"１６號","E_COORD97":195144.39999999999,"N_COORD97":2557786.2400000002,"ADDRESS":"中華路１９２巷１６號","OBJECTID":243498},"geometry":{"x":195144.4000000013,"y":2557786.2400000002}},{"attributes":{"ID":243503,"DIS_CODE":0,"TOWNNAME":"玉井區","LI":"玉田里","LIN":"24鄰","STREET":"中華路","SECT":" ","MAREA":" ","LANE":"１９２巷","ALLEY":" ","HOUSE_NO":"２８號","E_COORD97":195125.51000000001,"N_COORD97":2557774.2400000002,"ADDRESS":"中華路１９２巷２８號","OBJECTID":243499},"geometry":{"x":195125.50999999978,"y":2557774.2400000039}},{"attributes":{"ID":243504,"DIS_CODE":0,"TOWNNAME":"玉井區","LI":"玉田里","LIN":"24鄰","STREET":"中華路","SECT":" ","MAREA":" ","LANE":"１９２巷","ALLEY":" ","HOUSE_NO":"３４號","E_COORD97":195114.10999999999,"N_COORD97":2557779.2400000002,"ADDRESS":"中華路１９２巷３４號","OBJECTID":243500},"geometry":{"x":195114.11000000127,"y":2557779.2400000021}},{"attributes":{"ID":243505,"DIS_CODE":0,"TOWNNAME":"玉井區","LI":"玉田里","LIN":"24鄰","STREET":"中華路","SECT":" ","MAREA":" ","LANE":"１９２巷","ALLEY":" ","HOUSE_NO":"４號","E_COORD97":195163.85999999999,"N_COORD97":2557804.25,"ADDRESS":"中華路１９２巷４號","OBJECTID":243501},"geometry":{"x":195163.86000000127,"y":2557804.2499999981}},{"attributes":{"ID":243506,"DIS_CODE":0,"TOWNNAME":"玉井區","LI":"玉田里","LIN":"24鄰","STREET":"中華路","SECT":" ","MAREA":" ","LANE":"１９２巷","ALLEY":" ","HOUSE_NO":"３６號","E_COORD97":195110.60000000001,"N_COORD97":2557780.2400000002,"ADDRESS":"中華路１９２巷３６號","OBJECTID":243502},"geometry":{"x":195110.60000000056,"y":2557780.2400000002}},{"attributes":{"ID":243507,"DIS_CODE":0,"TOWNNAME":"玉井區","LI":"玉田里","LIN":"24鄰","STREET":"中華路","SECT":" ","MAREA":" ","LANE":"１９２巷","ALLEY":" ","HOUSE_NO":"４０號","E_COORD97":195102.10000000001,"N_COORD97":2557783.2400000002,"ADDRESS":"中華路１９２巷４０號","OBJECTID":243503},"geometry":{"x":195102.10000000056,"y":2557783.2400000002}},{"attributes":{"ID":243508,"DIS_CODE":0,"TOWNNAME":"玉井區","LI":"玉田里","LIN":"24鄰","STREET":"中華路","SECT":" ","MAREA":" ","LANE":"１９２巷","ALLEY":" ","HOUSE_NO":"４２號","E_COORD97":195098.20999999999,"N_COORD97":2557785.2400000002,"ADDRESS":"中華路１９２巷４２號","OBJECTID":243504},"geometry":{"x":195098.21000000089,"y":2557785.2400000021}},{"attributes":{"ID":243509,"DIS_CODE":0,"TOWNNAME":"六甲區","LI":"二甲里","LIN":"24鄰","STREET":"信義街","SECT":" ","MAREA":" ","LANE":"２７６巷","ALLEY":" ","HOUSE_NO":"７號","E_COORD97":183397.23000000001,"N_COORD97":2569910.4700000002,"ADDRESS":"信義街２７６巷７號","OBJECTID":243505},"geometry":{"x":183397.23000000045,"y":2569910.4699999988}},{"attributes":{"ID":243510,"DIS_CODE":0,"TOWNNAME":"新營區","LI":"南紙里","LIN":"24鄰","STREET":"建業路","SECT":" ","MAREA":" ","LANE":"２６９巷","ALLEY":" ","HOUSE_NO":"６號","E_COORD97":177974,"N_COORD97":2577445.0600000001,"ADDRESS":"建業路２６９巷６號","OBJECTID":243506},"geometry":{"x":177974,"y":2577445.0600000005}},{"attributes":{"ID":243511,"DIS_CODE":0,"TOWNNAME":"歸仁區","LI":"大廟里","LIN":"24鄰","STREET":"大廟一街","SECT":" ","MAREA":" ","LANE":"２２２巷","ALLEY":" ","HOUSE_NO":"８號","E_COORD97":175561.72,"N_COORD97":2543635.25,"ADDRESS":"大廟一街２２２巷８號","OBJECTID":243507},"geometry":{"x":175561.71999999974,"y":2543635.25}},{"attributes":{"ID":243512,"DIS_CODE":0,"TOWNNAME":"南區","LI":"建南里","LIN":"11鄰","STREET":"德興路","SECT":" ","MAREA":" ","LANE":"３３６巷","ALLEY":" ","HOUSE_NO":"６０號","E_COORD97":167049.89999999999,"N_COORD97":2539865.8300000001,"ADDRESS":"德興路３３６巷６０號","OBJECTID":243508},"geometry":{"x":167049.90000000224,"y":2539865.8300000019}},{"attributes":{"ID":243513,"DIS_CODE":0,"TOWNNAME":"南區","LI":"建南里","LIN":"11鄰","STREET":"德興路","SECT":" ","MAREA":" ","LANE":"３３６巷","ALLEY":" ","HOUSE_NO":"６２號","E_COORD97":167044.82000000001,"N_COORD97":2539865.8300000001,"ADDRESS":"德興路３３６巷６２號","OBJECTID":243509},"geometry":{"x":167044.8200000003,"y":2539865.8300000019}},{"attributes":{"ID":243514,"DIS_CODE":0,"TOWNNAME":"南區","LI":"建南里","LIN":"11鄰","STREET":"德興路","SECT":" ","MAREA":" ","LANE":"３３６巷","ALLEY":" ","HOUSE_NO":"６４號","E_COORD97":167040.29000000001,"N_COORD97":2539866.1899999999,"ADDRESS":"德興路３３６巷６４號","OBJECTID":243510},"geometry":{"x":167040.29000000097,"y":2539866.1900000013}},{"attributes":{"ID":243515,"DIS_CODE":0,"TOWNNAME":"南區","LI":"建南里","LIN":"11鄰","STREET":"德興路","SECT":" ","MAREA":" ","LANE":"３３６巷","ALLEY":" ","HOUSE_NO":"６６號","E_COORD97":167036.48999999999,"N_COORD97":2539866.1899999999,"ADDRESS":"德興路３３６巷６６號","OBJECTID":243511},"geometry":{"x":167036.49000000022,"y":2539866.1900000013}},{"attributes":{"ID":243516,"DIS_CODE":0,"TOWNNAME":"歸仁區","LI":"大廟里","LIN":"24鄰","STREET":"大廟一街","SECT":" ","MAREA":" ","LANE":"２２２巷","ALLEY":" ","HOUSE_NO":"１號","E_COORD97":175563.62,"N_COORD97":2543614.25,"ADDRESS":"大廟一街２２２巷１號","OBJECTID":243512},"geometry":{"x":175563.62000000104,"y":2543614.25}},{"attributes":{"ID":243517,"DIS_CODE":0,"TOWNNAME":"歸仁區","LI":"大廟里","LIN":"24鄰","STREET":"大廟一街","SECT":" ","MAREA":" ","LANE":"２２２巷","ALLEY":" ","HOUSE_NO":"２０號","E_COORD97":175535.26999999999,"N_COORD97":2543635.25,"ADDRESS":"大廟一街２２２巷２０號","OBJECTID":243513},"geometry":{"x":175535.26999999955,"y":2543635.25}},{"attributes":{"ID":243518,"DIS_CODE":0,"TOWNNAME":"歸仁區","LI":"大廟里","LIN":"24鄰","STREET":"大廟一街","SECT":" ","MAREA":" ","LANE":"２２２巷","ALLEY":" ","HOUSE_NO":"３號","E_COORD97":175559.51999999999,"N_COORD97":2543613.25,"ADDRESS":"大廟一街２２２巷３號","OBJECTID":243514},"geometry":{"x":175559.51999999862,"y":2543613.2500000019}},{"attributes":{"ID":243519,"DIS_CODE":0,"TOWNNAME":"歸仁區","LI":"大廟里","LIN":"24鄰","STREET":"大廟一街","SECT":" ","MAREA":" ","LANE":"２２２巷","ALLEY":" ","HOUSE_NO":"２４號","E_COORD97":175526.07000000001,"N_COORD97":2543635.25,"ADDRESS":"大廟一街２２２巷２４號","OBJECTID":243515},"geometry":{"x":175526.06999999937,"y":2543635.25}},{"attributes":{"ID":243520,"DIS_CODE":0,"TOWNNAME":"歸仁區","LI":"大廟里","LIN":"24鄰","STREET":"大廟一街","SECT":" ","MAREA":" ","LANE":"２２２巷","ALLEY":" ","HOUSE_NO":"２６號","E_COORD97":175521.97,"N_COORD97":2543636.25,"ADDRESS":"大廟一街２２２巷２６號","OBJECTID":243516},"geometry":{"x":175521.97000000067,"y":2543636.2500000037}},{"attributes":{"ID":243521,"DIS_CODE":0,"TOWNNAME":"歸仁區","LI":"大廟里","LIN":"24鄰","STREET":"大廟一街","SECT":" ","MAREA":" ","LANE":"２２２巷","ALLEY":" ","HOUSE_NO":"１８號","E_COORD97":175540.37,"N_COORD97":2543635.25,"ADDRESS":"大廟一街２２２巷１８號","OBJECTID":243517},"geometry":{"x":175540.37000000011,"y":2543635.25}},{"attributes":{"ID":243522,"DIS_CODE":0,"TOWNNAME":"麻豆區","LI":"保安里","LIN":"14鄰","STREET":"興中路","SECT":" ","MAREA":" ","LANE":" ","ALLEY":" ","HOUSE_NO":"１０６號４樓","E_COORD97":173344.04000000001,"N_COORD97":2564808.9300000002,"ADDRESS":"興中路１０６號４樓","OBJECTID":243518},"geometry":{"x":173344.04000000004,"y":2564808.9300000016}},{"attributes":{"ID":243523,"DIS_CODE":0,"TOWNNAME":"中西區","LI":"公正里","LIN":"14鄰","STREET":"西華南街","SECT":" ","MAREA":" ","LANE":" ","ALLEY":" ","HOUSE_NO":"３５號八樓之５","E_COORD97":168935.84,"N_COORD97":2543824.9199999999,"ADDRESS":"西華南街３５號八樓之５","OBJECTID":243519},"geometry":{"x":168935.83999999985,"y":2543824.9200000037}},{"attributes":{"ID":243524,"DIS_CODE":0,"TOWNNAME":"東區","LI":"成大里","LIN":"14鄰","STREET":"育樂街","SECT":" ","MAREA":" ","LANE":" ","ALLEY":" ","HOUSE_NO":"１５６號二樓","E_COORD97":169495.79000000001,"N_COORD97":2544007.6200000001,"ADDRESS":"育樂街１５６號二樓","OBJECTID":243520},"geometry":{"x":169495.79000000004,"y":2544007.6200000048}},{"attributes":{"ID":243525,"DIS_CODE":0,"TOWNNAME":"東區","LI":"成大里","LIN":"14鄰","STREET":"育樂街","SECT":" ","MAREA":" ","LANE":" ","ALLEY":" ","HOUSE_NO":"１５６號三樓","E_COORD97":169495.79000000001,"N_COORD97":2544007.6200000001,"ADDRESS":"育樂街１５６號三樓","OBJECTID":243521},"geometry":{"x":169495.79000000004,"y":2544007.6200000048}},{"attributes":{"ID":243526,"DIS_CODE":0,"TOWNNAME":"歸仁區","LI":"後市里","LIN":"11鄰","STREET":"民權五街","SECT":" ","MAREA":" ","LANE":" ","ALLEY":" ","HOUSE_NO":"８號","E_COORD97":177024.62,"N_COORD97":2540778.29,"ADDRESS":"民權五街８號","OBJECTID":243522},"geometry":{"x":177024.62000000104,"y":2540778.290000001}},{"attributes":{"ID":243527,"DIS_CODE":0,"TOWNNAME":"歸仁區","LI":"大廟里","LIN":"24鄰","STREET":"大廟一街","SECT":" ","MAREA":" ","LANE":"２２２巷","ALLEY":" ","HOUSE_NO":"１９號","E_COORD97":175523.87,"N_COORD97":2543613.25,"ADDRESS":"大廟一街２２２巷１９號","OBJECTID":243523},"geometry":{"x":175523.86999999918,"y":2543613.2500000019}},{"attributes":{"ID":243528,"DIS_CODE":0,"TOWNNAME":"歸仁區","LI":"大廟里","LIN":"24鄰","STREET":"大廟一街","SECT":" ","MAREA":" ","LANE":"２２２巷","ALLEY":" ","HOUSE_NO":"１４號","E_COORD97":175549.57000000001,"N_COORD97":2543636.25,"ADDRESS":"大廟一街２２２巷１４號","OBJECTID":243524},"geometry":{"x":175549.5700000003,"y":2543636.2500000037}},{"attributes":{"ID":243529,"DIS_CODE":0,"TOWNNAME":"歸仁區","LI":"八甲里","LIN":"24鄰","STREET":"大德路","SECT":" ","MAREA":" ","LANE":"１２０巷","ALLEY":" ","HOUSE_NO":"３３號","E_COORD97":178105.44,"N_COORD97":2541431.25,"ADDRESS":"大德路１２０巷３３號","OBJECTID":243525},"geometry":{"x":178105.43999999948,"y":2541431.25}},{"attributes":{"ID":243530,"DIS_CODE":0,"TOWNNAME":"柳營區","LI":"光福里","LIN":"24鄰","STREET":"柳營路","SECT":"一段","MAREA":" ","LANE":"９２８巷","ALLEY":" ","HOUSE_NO":"７號","E_COORD97":179771.45999999999,"N_COORD97":2574916.0099999998,"ADDRESS":"柳營路一段９２８巷７號","OBJECTID":243526},"geometry":{"x":179771.46000000183,"y":2574916.0099999998}},{"attributes":{"ID":243531,"DIS_CODE":0,"TOWNNAME":"柳營區","LI":"光福里","LIN":"24鄰","STREET":"柳營路","SECT":"一段","MAREA":" ","LANE":"９２８巷","ALLEY":" ","HOUSE_NO":"８號","E_COORD97":179764.78,"N_COORD97":2574914.71,"ADDRESS":"柳營路一段９２８巷８號","OBJECTID":243527},"geometry":{"x":179764.78000000119,"y":2574914.7100000028}},{"attributes":{"ID":243532,"DIS_CODE":0,"TOWNNAME":"歸仁區","LI":"大廟里","LIN":"24鄰","STREET":"大廟一街","SECT":" ","MAREA":" ","LANE":"１５６巷","ALLEY":" ","HOUSE_NO":"３３號","E_COORD97":175561.57000000001,"N_COORD97":2543768.25,"ADDRESS":"大廟一街１５６巷３３號","OBJECTID":243528},"geometry":{"x":175561.5700000003,"y":2543768.2500000037}},{"attributes":{"ID":243533,"DIS_CODE":0,"TOWNNAME":"歸仁區","LI":"八甲里","LIN":"24鄰","STREET":"大德路","SECT":" ","MAREA":" ","LANE":"１２０巷","ALLEY":" ","HOUSE_NO":"３８號","E_COORD97":178127.04000000001,"N_COORD97":2541433.25,"ADDRESS":"大德路１２０巷３８號","OBJECTID":243529},"geometry":{"x":178127.04000000097,"y":2541433.2500000019}},{"attributes":{"ID":243534,"DIS_CODE":0,"TOWNNAME":"歸仁區","LI":"大廟里","LIN":"24鄰","STREET":"大廟一街","SECT":" ","MAREA":" ","LANE":"２２２巷","ALLEY":" ","HOUSE_NO":"１７號","E_COORD97":175527.97,"N_COORD97":2543613.25,"ADDRESS":"大廟一街２２２巷１７號","OBJECTID":243530},"geometry":{"x":175527.9700000016,"y":2543613.2500000019}},{"attributes":{"ID":243535,"DIS_CODE":0,"TOWNNAME":"歸仁區","LI":"大廟里","LIN":"24鄰","STREET":"大廟一街","SECT":" ","MAREA":" ","LANE":"２２２巷","ALLEY":" ","HOUSE_NO":"１１號","E_COORD97":175541.26999999999,"N_COORD97":2543613.25,"ADDRESS":"大廟一街２２２巷１１號","OBJECTID":243531},"geometry":{"x":175541.27000000048,"y":2543613.2500000019}},{"attributes":{"ID":243536,"DIS_CODE":0,"TOWNNAME":"南區","LI":"金華里","LIN":"24鄰","STREET":"惠南街","SECT":" ","MAREA":" ","LANE":"１０９巷","ALLEY":" ","HOUSE_NO":"１１號","E_COORD97":166692,"N_COORD97":2542330.3399999999,"ADDRESS":"惠南街１０９巷１１號","OBJECTID":243532},"geometry":{"x":166692,"y":2542330.3400000017}},{"attributes":{"ID":243537,"DIS_CODE":0,"TOWNNAME":"南區","LI":"金華里","LIN":"24鄰","STREET":"惠南街","SECT":" ","MAREA":" ","LANE":"１０９巷","ALLEY":" ","HOUSE_NO":"１３號","E_COORD97":166685.20999999999,"N_COORD97":2542332.5099999998,"ADDRESS":"惠南街１０９巷１３號","OBJECTID":243533},"geometry":{"x":166685.21000000089,"y":2542332.5100000016}},{"attributes":{"ID":243538,"DIS_CODE":0,"TOWNNAME":"南區","LI":"金華里","LIN":"24鄰","STREET":"惠南街","SECT":" ","MAREA":" ","LANE":"１０９巷","ALLEY":" ","HOUSE_NO":"１號","E_COORD97":166715.37,"N_COORD97":2542335.23,"ADDRESS":"惠南街１０９巷１號","OBJECTID":243534},"geometry":{"x":166715.37000000011,"y":2542335.2300000023}},{"attributes":{"ID":243539,"DIS_CODE":0,"TOWNNAME":"北區","LI":"成德里","LIN":"24鄰","STREET":"育德三街","SECT":" ","MAREA":" ","LANE":"１２１巷","ALLEY":" ","HOUSE_NO":"３號","E_COORD97":168153.57000000001,"N_COORD97":2546084.6899999999,"ADDRESS":"育德三街１２１巷３號","OBJECTID":243535},"geometry":{"x":168153.5700000003,"y":2546084.6900000013}},{"attributes":{"ID":243540,"DIS_CODE":0,"TOWNNAME":"北區","LI":"成德里","LIN":"24鄰","STREET":"育德三街","SECT":" ","MAREA":" ","LANE":"１２１巷","ALLEY":" ","HOUSE_NO":"２號","E_COORD97":168158.81,"N_COORD97":2546096.4300000002,"ADDRESS":"育德三街１２１巷２號","OBJECTID":243536},"geometry":{"x":168158.81000000052,"y":2546096.4300000016}},{"attributes":{"ID":243541,"DIS_CODE":0,"TOWNNAME":"北區","LI":"成德里","LIN":"24鄰","STREET":"育德三街","SECT":" ","MAREA":" ","LANE":"１２１巷","ALLEY":" ","HOUSE_NO":"２０號","E_COORD97":168114.98999999999,"N_COORD97":2546093.02,"ADDRESS":"育德三街１２１巷２０號","OBJECTID":243537},"geometry":{"x":168114.99000000022,"y":2546093.0200000014}},{"attributes":{"ID":243542,"DIS_CODE":0,"TOWNNAME":"北區","LI":"成德里","LIN":"24鄰","STREET":"育德三街","SECT":" ","MAREA":" ","LANE":"１２１巷","ALLEY":" ","HOUSE_NO":"１８號","E_COORD97":168121.5,"N_COORD97":2546093.5,"ADDRESS":"育德三街１２１巷１８號","OBJECTID":243538},"geometry":{"x":168121.5,"y":2546093.5000000019}},{"attributes":{"ID":243543,"DIS_CODE":0,"TOWNNAME":"玉井區","LI":"層林里","LIN":"11鄰","STREET":" ","SECT":" ","MAREA":"層林","LANE":" ","ALLEY":" ","HOUSE_NO":"１３４號","E_COORD97":191417.42000000001,"N_COORD97":2554566.2400000002,"ADDRESS":"層林１３４號","OBJECTID":243539},"geometry":{"x":191417.41999999899,"y":2554566.2400000002}},{"attributes":{"ID":243544,"DIS_CODE":0,"TOWNNAME":"玉井區","LI":"豐里里","LIN":"11鄰","STREET":" ","SECT":" ","MAREA":"豐里","LANE":" ","ALLEY":" ","HOUSE_NO":"１１０之３號","E_COORD97":192940.12,"N_COORD97":2560243.29,"ADDRESS":"豐里１１０之３號","OBJECTID":243540},"geometry":{"x":192940.12000000011,"y":2560243.2899999991}},{"attributes":{"ID":243545,"DIS_CODE":0,"TOWNNAME":"玉井區","LI":"豐里里","LIN":"11鄰","STREET":" ","SECT":" ","MAREA":"豐里","LANE":" ","ALLEY":" ","HOUSE_NO":"１１０號","E_COORD97":192950.82000000001,"N_COORD97":2560226.25,"ADDRESS":"豐里１１０號","OBJECTID":243541},"geometry":{"x":192950.8200000003,"y":2560226.2500000019}},{"attributes":{"ID":243546,"DIS_CODE":0,"TOWNNAME":"北區","LI":"成德里","LIN":"24鄰","STREET":"育德三街","SECT":" ","MAREA":" ","LANE":"１２１巷","ALLEY":" ","HOUSE_NO":"１６號","E_COORD97":168127.53,"N_COORD97":2546093.9700000002,"ADDRESS":"育德三街１２１巷１６號","OBJECTID":243542},"geometry":{"x":168127.53000000119,"y":2546093.9700000025}},{"attributes":{"ID":243547,"DIS_CODE":0,"TOWNNAME":"玉井區","LI":"望明里","LIN":"11鄰","STREET":" ","SECT":" ","MAREA":"望明","LANE":" ","ALLEY":" ","HOUSE_NO":"１１９號之１","E_COORD97":193160.62,"N_COORD97":2556243.29,"ADDRESS":"望明１１９號之１","OBJECTID":243543},"geometry":{"x":193160.61999999918,"y":2556243.2899999991}},{"attributes":{"ID":243548,"DIS_CODE":0,"TOWNNAME":"北區","LI":"成德里","LIN":"24鄰","STREET":"育德三街","SECT":" ","MAREA":" ","LANE":"１２１巷","ALLEY":" ","HOUSE_NO":"１２號","E_COORD97":168133.41,"N_COORD97":2546094.29,"ADDRESS":"育德三街１２１巷１２號","OBJECTID":243544},"geometry":{"x":168133.41000000108,"y":2546094.290000001}},{"attributes":{"ID":243549,"DIS_CODE":0,"TOWNNAME":"玉井區","LI":"豐里里","LIN":"11鄰","STREET":" ","SECT":" ","MAREA":"豐里","LANE":" ","ALLEY":" ","HOUSE_NO":"１０３號","E_COORD97":193036.51000000001,"N_COORD97":2560261.2400000002,"ADDRESS":"豐里１０３號","OBJECTID":243545},"geometry":{"x":193036.50999999978,"y":2560261.2400000002}},{"attributes":{"ID":243550,"DIS_CODE":0,"TOWNNAME":"玉井區","LI":"層林里","LIN":"11鄰","STREET":" ","SECT":" ","MAREA":"層林","LANE":" ","ALLEY":" ","HOUSE_NO":"１３０號之３","E_COORD97":191510.54999999999,"N_COORD97":2553697.2999999998,"ADDRESS":"層林１３０號之３","OBJECTID":243546},"geometry":{"x":191510.55000000075,"y":2553697.3000000026}},{"attributes":{"ID":243551,"DIS_CODE":0,"TOWNNAME":"玉井區","LI":"層林里","LIN":"11鄰","STREET":" ","SECT":" ","MAREA":"層林","LANE":" ","ALLEY":" ","HOUSE_NO":"１３０號","E_COORD97":191400.91,"N_COORD97":2553657.25,"ADDRESS":"層林１３０號","OBJECTID":243547},"geometry":{"x":191400.91000000201,"y":2553657.25}},{"attributes":{"ID":243552,"DIS_CODE":0,"TOWNNAME":"玉井區","LI":"層林里","LIN":"11鄰","STREET":" ","SECT":" ","MAREA":"層林","LANE":" ","ALLEY":" ","HOUSE_NO":"１３４號之２","E_COORD97":191740.82000000001,"N_COORD97":2554356.29,"ADDRESS":"層林１３４之２號","OBJECTID":243548},"geometry":{"x":191740.82000000123,"y":2554356.290000001}},{"attributes":{"ID":243553,"DIS_CODE":0,"TOWNNAME":"玉井區","LI":"望明里","LIN":"11鄰","STREET":" ","SECT":" ","MAREA":"劉陳","LANE":" ","ALLEY":" ","HOUSE_NO":"２３號","E_COORD97":193409.20000000001,"N_COORD97":2556055.25,"ADDRESS":"劉陳２３號","OBJECTID":243549},"geometry":{"x":193409.20000000019,"y":2556055.2500000037}},{"attributes":{"ID":243554,"DIS_CODE":0,"TOWNNAME":"北區","LI":"成德里","LIN":"24鄰","STREET":"育德三街","SECT":" ","MAREA":" ","LANE":"１２１巷","ALLEY":" ","HOUSE_NO":"１０號","E_COORD97":168139.28,"N_COORD97":2546094.77,"ADDRESS":"育德三街１２１巷１０號","OBJECTID":243550},"geometry":{"x":168139.28000000119,"y":2546094.7700000014}},{"attributes":{"ID":243555,"DIS_CODE":0,"TOWNNAME":"北區","LI":"成德里","LIN":"24鄰","STREET":"育德三街","SECT":" ","MAREA":" ","LANE":"１２１巷","ALLEY":" ","HOUSE_NO":"８號","E_COORD97":168145.79000000001,"N_COORD97":2546095.2400000002,"ADDRESS":"育德三街１２１巷８號","OBJECTID":243551},"geometry":{"x":168145.79000000097,"y":2546095.2400000021}},{"attributes":{"ID":243556,"DIS_CODE":0,"TOWNNAME":"玉井區","LI":"望明里","LIN":"11鄰","STREET":" ","SECT":" ","MAREA":"劉陳","LANE":" ","ALLEY":" ","HOUSE_NO":"２３之２號","E_COORD97":193421.89999999999,"N_COORD97":2556081.2999999998,"ADDRESS":"劉陳２３之２號","OBJECTID":243552},"geometry":{"x":193421.90000000224,"y":2556081.3000000007}},{"attributes":{"ID":243557,"DIS_CODE":0,"TOWNNAME":"北區","LI":"成德里","LIN":"24鄰","STREET":"育德三街","SECT":" ","MAREA":" ","LANE":"１２１巷","ALLEY":" ","HOUSE_NO":"６號","E_COORD97":168152.60999999999,"N_COORD97":2546095.5600000001,"ADDRESS":"育德三街１２１巷６號","OBJECTID":243553},"geometry":{"x":168152.61000000127,"y":2546095.5600000005}},{"attributes":{"ID":243558,"DIS_CODE":0,"TOWNNAME":"玉井區","LI":"望明里","LIN":"11鄰","STREET":" ","SECT":" ","MAREA":"劉陳","LANE":" ","ALLEY":" ","HOUSE_NO":"１３號","E_COORD97":193400.01000000001,"N_COORD97":2556025.2400000002,"ADDRESS":"劉陳１３號","OBJECTID":243554},"geometry":{"x":193400.00999999885,"y":2556025.2400000021}},{"attributes":{"ID":243559,"DIS_CODE":0,"TOWNNAME":"玉井區","LI":"望明里","LIN":"11鄰","STREET":" ","SECT":" ","MAREA":"劉陳","LANE":" ","ALLEY":" ","HOUSE_NO":"３３號","E_COORD97":193423.89999999999,"N_COORD97":2556096.2400000002,"ADDRESS":"劉陳３３號","OBJECTID":243555},"geometry":{"x":193423.9000000013,"y":2556096.2400000039}},{"attributes":{"ID":243560,"DIS_CODE":0,"TOWNNAME":"北區","LI":"成德里","LIN":"24鄰","STREET":"育德三街","SECT":" ","MAREA":" ","LANE":"１２３巷","ALLEY":" ","HOUSE_NO":"１號","E_COORD97":168157.85000000001,"N_COORD97":2546113.3399999999,"ADDRESS":"育德三街１２３巷１號","OBJECTID":243556},"geometry":{"x":168157.8499999987,"y":2546113.3399999999}},{"attributes":{"ID":243561,"DIS_CODE":0,"TOWNNAME":"玉井區","LI":"中正里","LIN":"11鄰","STREET":" ","SECT":" ","MAREA":"中正","LANE":" ","ALLEY":" ","HOUSE_NO":"１２０號之１４","E_COORD97":195462.20999999999,"N_COORD97":2560456.29,"ADDRESS":"中正１２０號之１４","OBJECTID":243557},"geometry":{"x":195462.21000000089,"y":2560456.2899999991}},{"attributes":{"ID":243562,"DIS_CODE":0,"TOWNNAME":"玉井區","LI":"中正里","LIN":"11鄰","STREET":" ","SECT":" ","MAREA":"中正","LANE":" ","ALLEY":" ","HOUSE_NO":"１２１之１號","E_COORD97":194926.10000000001,"N_COORD97":2560539.2999999998,"ADDRESS":"中正１２１之１號","OBJECTID":243558},"geometry":{"x":194926.09999999963,"y":2560539.3000000007}},{"attributes":{"ID":243563,"DIS_CODE":0,"TOWNNAME":"玉井區","LI":"中正里","LIN":"11鄰","STREET":" ","SECT":" ","MAREA":"中正","LANE":" ","ALLEY":" ","HOUSE_NO":"１２０之２號","E_COORD97":195603.29999999999,"N_COORD97":2560359.29,"ADDRESS":"中正１２０之２號","OBJECTID":243559},"geometry":{"x":195603.29999999981,"y":2560359.2899999991}},{"attributes":{"ID":243564,"DIS_CODE":0,"TOWNNAME":"玉井區","LI":"中正里","LIN":"11鄰","STREET":" ","SECT":" ","MAREA":"中正","LANE":" ","ALLEY":" ","HOUSE_NO":"１２４號","E_COORD97":194820.79999999999,"N_COORD97":2561022.25,"ADDRESS":"中正１２４號","OBJECTID":243560},"geometry":{"x":194820.80000000075,"y":2561022.2500000019}},{"attributes":{"ID":243565,"DIS_CODE":0,"TOWNNAME":"玉井區","LI":"中正里","LIN":"11鄰","STREET":" ","SECT":" ","MAREA":"中正","LANE":" ","ALLEY":" ","HOUSE_NO":"１２５之１號","E_COORD97":194695.10000000001,"N_COORD97":2561792.29,"ADDRESS":"中正１２５之１號","OBJECTID":243561},"geometry":{"x":194695.10000000056,"y":2561792.2899999991}},{"attributes":{"ID":243566,"DIS_CODE":0,"TOWNNAME":"玉井區","LI":"望明里","LIN":"11鄰","STREET":" ","SECT":" ","MAREA":"望明","LANE":" ","ALLEY":" ","HOUSE_NO":"１１２之８號","E_COORD97":193300.39999999999,"N_COORD97":2556165.2400000002,"ADDRESS":"望明１１２之８號","OBJECTID":243562},"geometry":{"x":193300.4000000013,"y":2556165.2400000021}},{"attributes":{"ID":243567,"DIS_CODE":0,"TOWNNAME":"玉井區","LI":"望明里","LIN":"11鄰","STREET":" ","SECT":" ","MAREA":"望明","LANE":" ","ALLEY":" ","HOUSE_NO":"１１２之９號","E_COORD97":193307.62,"N_COORD97":2556164.2999999998,"ADDRESS":"望明１１２之９號","OBJECTID":243563},"geometry":{"x":193307.62000000011,"y":2556164.3000000026}},{"attributes":{"ID":243568,"DIS_CODE":0,"TOWNNAME":"北區","LI":"成德里","LIN":"24鄰","STREET":"育德三街","SECT":" ","MAREA":" ","LANE":"１２３巷","ALLEY":" ","HOUSE_NO":"２號","E_COORD97":168156.89999999999,"N_COORD97":2546124.77,"ADDRESS":"育德三街１２３巷２號","OBJECTID":243564},"geometry":{"x":168156.9000000013,"y":2546124.7700000014}},{"attributes":{"ID":243569,"DIS_CODE":0,"TOWNNAME":"北區","LI":"成德里","LIN":"24鄰","STREET":"育德三街","SECT":" ","MAREA":" ","LANE":"１２５巷","ALLEY":" ","HOUSE_NO":"１號","E_COORD97":168155.63,"N_COORD97":2546140.6499999999,"ADDRESS":"育德三街１２５巷１號","OBJECTID":243565},"geometry":{"x":168155.62999999989,"y":2546140.6500000022}},{"attributes":{"ID":243570,"DIS_CODE":0,"TOWNNAME":"北區","LI":"成德里","LIN":"24鄰","STREET":"育德三街","SECT":" ","MAREA":" ","LANE":"１２３巷","ALLEY":" ","HOUSE_NO":"３號","E_COORD97":168151.19,"N_COORD97":2546112.6299999999,"ADDRESS":"育德三街１２３巷３號","OBJECTID":243566},"geometry":{"x":168151.19000000041,"y":2546112.629999999}},{"attributes":{"ID":243571,"DIS_CODE":0,"TOWNNAME":"北區","LI":"成德里","LIN":"24鄰","STREET":"育德三街","SECT":" ","MAREA":" ","LANE":"１２３巷","ALLEY":" ","HOUSE_NO":"１３號","E_COORD97":168120.07000000001,"N_COORD97":2546110.7200000002,"ADDRESS":"育德三街１２３巷１３號","OBJECTID":243567},"geometry":{"x":168120.07000000123,"y":2546110.7200000007}},{"attributes":{"ID":243572,"DIS_CODE":0,"TOWNNAME":"北區","LI":"成德里","LIN":"24鄰","STREET":"育德三街","SECT":" ","MAREA":" ","LANE":"１２３巷","ALLEY":" ","HOUSE_NO":"１５號","E_COORD97":168113.56,"N_COORD97":2546110.4100000001,"ADDRESS":"育德三街１２３巷１５號","OBJECTID":243568},"geometry":{"x":168113.55999999959,"y":2546110.410000002}},{"attributes":{"ID":243573,"DIS_CODE":0,"TOWNNAME":"北區","LI":"正風里","LIN":"11鄰","STREET":"公園路","SECT":" ","MAREA":" ","LANE":"１０７４巷","ALLEY":" ","HOUSE_NO":"１０號","E_COORD97":169674.75,"N_COORD97":2546535.3500000001,"ADDRESS":"公園路１０７４巷１０號","OBJECTID":243569},"geometry":{"x":169674.75000000093,"y":2546535.3500000015}},{"attributes":{"ID":243574,"DIS_CODE":0,"TOWNNAME":"北區","LI":"正風里","LIN":"11鄰","STREET":"公園路","SECT":" ","MAREA":" ","LANE":"１０７４巷","ALLEY":" ","HOUSE_NO":"１１號","E_COORD97":169687.29000000001,"N_COORD97":2546552.4700000002,"ADDRESS":"公園路１０７４巷１１號","OBJECTID":243570},"geometry":{"x":169687.29000000004,"y":2546552.4700000025}},{"attributes":{"ID":243575,"DIS_CODE":0,"TOWNNAME":"北區","LI":"正風里","LIN":"11鄰","STREET":"公園路","SECT":" ","MAREA":" ","LANE":"１０７４巷","ALLEY":" ","HOUSE_NO":"１２號","E_COORD97":169678.81,"N_COORD97":2546534.2400000002,"ADDRESS":"公園路１０７４巷１２號","OBJECTID":243571},"geometry":{"x":169678.81000000145,"y":2546534.2400000002}},{"attributes":{"ID":243576,"DIS_CODE":0,"TOWNNAME":"北區","LI":"正風里","LIN":"11鄰","STREET":"公園路","SECT":" ","MAREA":" ","LANE":"１０７４巷","ALLEY":" ","HOUSE_NO":"１３號","E_COORD97":169691.63,"N_COORD97":2546551.27,"ADDRESS":"公園路１０７４巷１３號","OBJECTID":243572},"geometry":{"x":169691.62999999989,"y":2546551.2700000033}},{"attributes":{"ID":243577,"DIS_CODE":0,"TOWNNAME":"北區","LI":"正風里","LIN":"11鄰","STREET":"公園路","SECT":" ","MAREA":" ","LANE":"１０７４巷","ALLEY":" ","HOUSE_NO":"１４號","E_COORD97":169682.69,"N_COORD97":2546532.77,"ADDRESS":"公園路１０７４巷１４號","OBJECTID":243573},"geometry":{"x":169682.69000000134,"y":2546532.7699999996}},{"attributes":{"ID":243578,"DIS_CODE":0,"TOWNNAME":"北區","LI":"正風里","LIN":"11鄰","STREET":"公園路","SECT":" ","MAREA":" ","LANE":"１０７４巷","ALLEY":" ","HOUSE_NO":"１５號","E_COORD97":169697.07999999999,"N_COORD97":2546555.52,"ADDRESS":"公園路１０７４巷１５號","OBJECTID":243574},"geometry":{"x":169697.08000000007,"y":2546555.5199999996}},{"attributes":{"ID":243579,"DIS_CODE":0,"TOWNNAME":"北區","LI":"正風里","LIN":"11鄰","STREET":"公園路","SECT":" ","MAREA":" ","LANE":"１０７４巷","ALLEY":" ","HOUSE_NO":"１６號","E_COORD97":169687.48999999999,"N_COORD97":2546531.6600000001,"ADDRESS":"公園路１０７４巷１６號","OBJECTID":243575},"geometry":{"x":169687.49000000115,"y":2546531.6600000001}},{"attributes":{"ID":243580,"DIS_CODE":0,"TOWNNAME":"北區","LI":"正風里","LIN":"11鄰","STREET":"公園路","SECT":" ","MAREA":" ","LANE":"１０７４巷","ALLEY":" ","HOUSE_NO":"１８號","E_COORD97":169690.72,"N_COORD97":2546529.0800000001,"ADDRESS":"公園路１０７４巷１８號","OBJECTID":243576},"geometry":{"x":169690.71999999974,"y":2546529.0799999982}},{"attributes":{"ID":243581,"DIS_CODE":0,"TOWNNAME":"北區","LI":"正風里","LIN":"11鄰","STREET":"公園路","SECT":" ","MAREA":" ","LANE":"１０７４巷","ALLEY":" ","HOUSE_NO":"１號","E_COORD97":169660.06,"N_COORD97":2546559.6699999999,"ADDRESS":"公園路１０７４巷１號","OBJECTID":243577},"geometry":{"x":169660.05999999866,"y":2546559.6700000018}},{"attributes":{"ID":243582,"DIS_CODE":0,"TOWNNAME":"北區","LI":"正風里","LIN":"11鄰","STREET":"公園路","SECT":" ","MAREA":" ","LANE":"１０７４巷","ALLEY":" ","HOUSE_NO":"２之１號","E_COORD97":169662.84,"N_COORD97":2546539.1299999999,"ADDRESS":"公園路１０７４巷２之１號","OBJECTID":243578},"geometry":{"x":169662.83999999985,"y":2546539.1300000008}},{"attributes":{"ID":243583,"DIS_CODE":0,"TOWNNAME":"北區","LI":"正風里","LIN":"11鄰","STREET":"公園路","SECT":" ","MAREA":" ","LANE":"１０７４巷","ALLEY":" ","HOUSE_NO":"２號","E_COORD97":169653.42999999999,"N_COORD97":2546540.3300000001,"ADDRESS":"公園路１０７４巷２號","OBJECTID":243579},"geometry":{"x":169653.43000000063,"y":2546540.3300000001}},{"attributes":{"ID":243584,"DIS_CODE":0,"TOWNNAME":"北區","LI":"成德里","LIN":"24鄰","STREET":"育德三街","SECT":" ","MAREA":" ","LANE":"１２３巷","ALLEY":" ","HOUSE_NO":"６號","E_COORD97":168150.39000000001,"N_COORD97":2546124.3799999999,"ADDRESS":"育德三街１２３巷６號","OBJECTID":243580},"geometry":{"x":168150.38999999966,"y":2546124.379999999}},{"attributes":{"ID":243585,"DIS_CODE":0,"TOWNNAME":"北區","LI":"成德里","LIN":"24鄰","STREET":"育德三街","SECT":" ","MAREA":" ","LANE":"１２３巷","ALLEY":" ","HOUSE_NO":"８號","E_COORD97":168143.88,"N_COORD97":2546124.2200000002,"ADDRESS":"育德三街１２３巷８號","OBJECTID":243581},"geometry":{"x":168143.87999999989,"y":2546124.2200000007}},{"attributes":{"ID":243586,"DIS_CODE":0,"TOWNNAME":"北區","LI":"成德里","LIN":"24鄰","STREET":"育德三街","SECT":" ","MAREA":" ","LANE":"１２３巷","ALLEY":" ","HOUSE_NO":"１０號","E_COORD97":168137.06,"N_COORD97":2546123.5800000001,"ADDRESS":"育德三街１２３巷１０號","OBJECTID":243582},"geometry":{"x":168137.05999999959,"y":2546123.5800000019}},{"attributes":{"ID":243587,"DIS_CODE":0,"TOWNNAME":"東區","LI":"成大里","LIN":"14鄰","STREET":"育樂街","SECT":" ","MAREA":" ","LANE":" ","ALLEY":" ","HOUSE_NO":"１５６號之２二樓","E_COORD97":169494.81,"N_COORD97":2543998.0099999998,"ADDRESS":"育樂街１５６號之２二樓","OBJECTID":243583},"geometry":{"x":169494.81000000052,"y":2543998.0100000016}},{"attributes":{"ID":243588,"DIS_CODE":0,"TOWNNAME":"東區","LI":"東門里","LIN":"14鄰","STREET":"慶東街","SECT":" ","MAREA":" ","LANE":" ","ALLEY":" ","HOUSE_NO":"８９號二樓","E_COORD97":169630.42999999999,"N_COORD97":2543203.4399999999,"ADDRESS":"慶東街８９號二樓","OBJECTID":243584},"geometry":{"x":169630.4299999997,"y":2543203.4399999976}},{"attributes":{"ID":243589,"DIS_CODE":0,"TOWNNAME":"東區","LI":"東門里","LIN":"14鄰","STREET":"慶東街","SECT":" ","MAREA":" ","LANE":" ","ALLEY":" ","HOUSE_NO":"８９號二樓之１","E_COORD97":169630.42999999999,"N_COORD97":2543203.4399999999,"ADDRESS":"慶東街８９號二樓之１","OBJECTID":243585},"geometry":{"x":169630.4299999997,"y":2543203.4399999976}},{"attributes":{"ID":243590,"DIS_CODE":0,"TOWNNAME":"東區","LI":"東門里","LIN":"14鄰","STREET":"慶東街","SECT":" ","MAREA":" ","LANE":" ","ALLEY":" ","HOUSE_NO":"８９號三樓","E_COORD97":169630.42999999999,"N_COORD97":2543203.4399999999,"ADDRESS":"慶東街８９號三樓","OBJECTID":243586},"geometry":{"x":169630.4299999997,"y":2543203.4399999976}},{"attributes":{"ID":243591,"DIS_CODE":0,"TOWNNAME":"東區","LI":"東門里","LIN":"14鄰","STREET":"慶東街","SECT":" ","MAREA":" ","LANE":" ","ALLEY":" ","HOUSE_NO":"８９號三樓之１","E_COORD97":169630.42999999999,"N_COORD97":2543203.4399999999,"ADDRESS":"慶東街８９號三樓之１","OBJECTID":243587},"geometry":{"x":169630.4299999997,"y":2543203.4399999976}},{"attributes":{"ID":243592,"DIS_CODE":0,"TOWNNAME":"東區","LI":"東門里","LIN":"14鄰","STREET":"慶東街","SECT":" ","MAREA":" ","LANE":" ","ALLEY":" ","HOUSE_NO":"８９號五樓","E_COORD97":169630.42999999999,"N_COORD97":2543203.4399999999,"ADDRESS":"慶東街８９號五樓","OBJECTID":243588},"geometry":{"x":169630.4299999997,"y":2543203.4399999976}},{"attributes":{"ID":243593,"DIS_CODE":0,"TOWNNAME":"東區","LI":"東門里","LIN":"14鄰","STREET":"慶東街","SECT":" ","MAREA":" ","LANE":" ","ALLEY":" ","HOUSE_NO":"８９號六樓","E_COORD97":169630.42999999999,"N_COORD97":2543203.4399999999,"ADDRESS":"慶東街８９號六樓","OBJECTID":243589},"geometry":{"x":169630.4299999997,"y":2543203.4399999976}},{"attributes":{"ID":243594,"DIS_CODE":0,"TOWNNAME":"東區","LI":"東門里","LIN":"14鄰","STREET":"慶東街","SECT":" ","MAREA":" ","LANE":" ","ALLEY":" ","HOUSE_NO":"８９號六樓之１","E_COORD97":169630.42999999999,"N_COORD97":2543203.4399999999,"ADDRESS":"慶東街８９號六樓之１","OBJECTID":243590},"geometry":{"x":169630.4299999997,"y":2543203.4399999976}},{"attributes":{"ID":243595,"DIS_CODE":0,"TOWNNAME":"東區","LI":"東門里","LIN":"14鄰","STREET":"慶東街","SECT":" ","MAREA":" ","LANE":" ","ALLEY":" ","HOUSE_NO":"８９號四樓","E_COORD97":169630.42999999999,"N_COORD97":2543203.4399999999,"ADDRESS":"慶東街８９號四樓","OBJECTID":243591},"geometry":{"x":169630.4299999997,"y":2543203.4399999976}},{"attributes":{"ID":243596,"DIS_CODE":0,"TOWNNAME":"東區","LI":"東門里","LIN":"14鄰","STREET":"慶東街","SECT":" ","MAREA":" ","LANE":" ","ALLEY":" ","HOUSE_NO":"８９號四樓之１","E_COORD97":169630.42999999999,"N_COORD97":2543203.4399999999,"ADDRESS":"慶東街８９號四樓之１","OBJECTID":243592},"geometry":{"x":169630.4299999997,"y":2543203.4399999976}},{"attributes":{"ID":243597,"DIS_CODE":0,"TOWNNAME":"中西區","LI":"公正里","LIN":"14鄰","STREET":"西華南街","SECT":" ","MAREA":" ","LANE":" ","ALLEY":" ","HOUSE_NO":"３５號四樓之２","E_COORD97":168935.84,"N_COORD97":2543824.9199999999,"ADDRESS":"西華南街３５號四樓之２","OBJECTID":243593},"geometry":{"x":168935.83999999985,"y":2543824.9200000037}},{"attributes":{"ID":243598,"DIS_CODE":0,"TOWNNAME":"麻豆區","LI":"興農里","LIN":"1鄰","STREET":"仁愛路","SECT":" ","MAREA":" ","LANE":" ","ALLEY":" ","HOUSE_NO":"３３號之１","E_COORD97":172547.63,"N_COORD97":2564724.6200000001,"ADDRESS":"仁愛路３３號之１","OBJECTID":243594},"geometry":{"x":172547.63000000082,"y":2564724.620000001}},{"attributes":{"ID":243599,"DIS_CODE":0,"TOWNNAME":"北區","LI":"成德里","LIN":"24鄰","STREET":"育德三街","SECT":" ","MAREA":" ","LANE":"１２３巷","ALLEY":" ","HOUSE_NO":"１２號","E_COORD97":168130.87,"N_COORD97":2546123.4199999999,"ADDRESS":"育德三街１２３巷１２號","OBJECTID":243595},"geometry":{"x":168130.87000000011,"y":2546123.4200000037}},{"attributes":{"ID":243600,"DIS_CODE":0,"TOWNNAME":"北區","LI":"成德里","LIN":"24鄰","STREET":"育德三街","SECT":" ","MAREA":" ","LANE":"１２３巷","ALLEY":" ","HOUSE_NO":"１６號","E_COORD97":168124.98999999999,"N_COORD97":2546123.2599999998,"ADDRESS":"育德三街１２３巷１６號","OBJECTID":243596},"geometry":{"x":168124.99000000022,"y":2546123.2599999998}},{"attributes":{"ID":243601,"DIS_CODE":0,"TOWNNAME":"北區","LI":"成德里","LIN":"24鄰","STREET":"育德三街","SECT":" ","MAREA":" ","LANE":"１２３巷","ALLEY":" ","HOUSE_NO":"１８號","E_COORD97":168119.12,"N_COORD97":2546122.4700000002,"ADDRESS":"育德三街１２３巷１８號","OBJECTID":243597},"geometry":{"x":168119.12000000011,"y":2546122.4700000007}},{"attributes":{"ID":243602,"DIS_CODE":0,"TOWNNAME":"北區","LI":"成德里","LIN":"24鄰","STREET":"育德三街","SECT":" ","MAREA":" ","LANE":"１２３巷","ALLEY":" ","HOUSE_NO":"２０號","E_COORD97":168112.76999999999,"N_COORD97":2546122.3100000001,"ADDRESS":"育德三街１２３巷２０號","OBJECTID":243598},"geometry":{"x":168112.77000000142,"y":2546122.3100000024}},{"attributes":{"ID":243603,"DIS_CODE":0,"TOWNNAME":"北區","LI":"成德里","LIN":"24鄰","STREET":"育德三街","SECT":" ","MAREA":" ","LANE":"１２５巷","ALLEY":" ","HOUSE_NO":"３號","E_COORD97":168148.95999999999,"N_COORD97":2546140.0099999998,"ADDRESS":"育德三街１２５巷３號","OBJECTID":243599},"geometry":{"x":168148.95999999996,"y":2546140.0100000016}},{"attributes":{"ID":243604,"DIS_CODE":0,"TOWNNAME":"北區","LI":"成德里","LIN":"24鄰","STREET":"育德三街","SECT":" ","MAREA":" ","LANE":"１２５巷","ALLEY":" ","HOUSE_NO":"５號","E_COORD97":168142.76999999999,"N_COORD97":2546139.54,"ADDRESS":"育德三街１２５巷５號","OBJECTID":243600},"geometry":{"x":168142.76999999955,"y":2546139.540000001}}]}