{"displayFieldName":"TOWNNAME","fieldAliases":{"ID":"ID","DIS_CODE":"DIS_CODE","TOWNNAME":"TOWNNAME","LI":"LI","LIN":"LIN","STREET":"STREET","SECT":"SECT","MAREA":"MAREA","LANE":"LANE","ALLEY":"ALLEY","HOUSE_NO":"HOUSE_NO","E_COORD97":"E_COORD97","N_COORD97":"N_COORD97","ADDRESS":"ADDRESS","OBJECTID":"OBJECTID"},"geometryType":"esriGeometryPoint","spatialReference":{"wkid":102443,"latestWkid":3826},"fields":[{"name":"ID","type":"esriFieldTypeDouble","alias":"ID"},{"name":"DIS_CODE","type":"esriFieldTypeInteger","alias":"DIS_CODE"},{"name":"TOWNNAME","type":"esriFieldTypeString","alias":"TOWNNAME","length":8},{"name":"LI","type":"esriFieldTypeString","alias":"LI","length":8},{"name":"LIN","type":"esriFieldTypeString","alias":"LIN","length":12},{"name":"STREET","type":"esriFieldTypeString","alias":"STREET","length":20},{"name":"SECT","type":"esriFieldTypeString","alias":"SECT","length":8},{"name":"MAREA","type":"esriFieldTypeString","alias":"MAREA","length":12},{"name":"LANE","type":"esriFieldTypeString","alias":"LANE","length":10},{"name":"ALLEY","type":"esriFieldTypeString","alias":"ALLEY","length":10},{"name":"HOUSE_NO","type":"esriFieldTypeString","alias":"HOUSE_NO","length":20},{"name":"E_COORD97","type":"esriFieldTypeDouble","alias":"E_COORD97"},{"name":"N_COORD97","type":"esriFieldTypeDouble","alias":"N_COORD97"},{"name":"ADDRESS","type":"esriFieldTypeString","alias":"ADDRESS","length":50},{"name":"OBJECTID","type":"esriFieldTypeOID","alias":"OBJECTID"}],"features":[{"attributes":{"ID":86401,"DIS_CODE":0,"TOWNNAME":"七股區","LI":"大寮里","LIN":"12鄰","STREET":" ","SECT":" ","MAREA":"大寮","LANE":" ","ALLEY":" ","HOUSE_NO":"１０１號","E_COORD97":163346.37,"N_COORD97":2560670.4500000002,"ADDRESS":"大寮１０１號","OBJECTID":86401},"geometry":{"x":163346.37000000104,"y":2560670.450000003}},{"attributes":{"ID":86402,"DIS_CODE":0,"TOWNNAME":"七股區","LI":"大寮里","LIN":"12鄰","STREET":" ","SECT":" ","MAREA":"大寮","LANE":" ","ALLEY":" ","HOUSE_NO":"１２５號之２","E_COORD97":163292.06,"N_COORD97":2560575.1600000001,"ADDRESS":"大寮１２５號之２","OBJECTID":86402},"geometry":{"x":163292.06000000052,"y":2560575.1600000039}},{"attributes":{"ID":86403,"DIS_CODE":0,"TOWNNAME":"七股區","LI":"大寮里","LIN":"12鄰","STREET":" ","SECT":" ","MAREA":"大寮","LANE":" ","ALLEY":" ","HOUSE_NO":"１２５號","E_COORD97":163303.31,"N_COORD97":2560613.6400000001,"ADDRESS":"大寮１２５號","OBJECTID":86403},"geometry":{"x":163303.31000000145,"y":2560613.6400000025}},{"attributes":{"ID":86404,"DIS_CODE":0,"TOWNNAME":"七股區","LI":"大寮里","LIN":"12鄰","STREET":" ","SECT":" ","MAREA":"大寮","LANE":" ","ALLEY":" ","HOUSE_NO":"１２７號之１","E_COORD97":163403.19,"N_COORD97":2560618.4500000002,"ADDRESS":"大寮１２７號之１","OBJECTID":86404},"geometry":{"x":163403.19000000227,"y":2560618.4499999993}},{"attributes":{"ID":86405,"DIS_CODE":0,"TOWNNAME":"七股區","LI":"玉成里","LIN":"12鄰","STREET":" ","SECT":" ","MAREA":"玉成","LANE":" ","ALLEY":" ","HOUSE_NO":"１２２號之１３","E_COORD97":161850.37,"N_COORD97":2560241.71,"ADDRESS":"玉成１２２號之１３","OBJECTID":86405},"geometry":{"x":161850.37000000011,"y":2560241.7100000009}},{"attributes":{"ID":86406,"DIS_CODE":0,"TOWNNAME":"七股區","LI":"玉成里","LIN":"12鄰","STREET":" ","SECT":" ","MAREA":"玉成","LANE":" ","ALLEY":" ","HOUSE_NO":"１２２號之１４","E_COORD97":161850.39000000001,"N_COORD97":2560246.3100000001,"ADDRESS":"玉成１２２號之１４","OBJECTID":86406},"geometry":{"x":161850.3900000006,"y":2560246.3100000024}},{"attributes":{"ID":86407,"DIS_CODE":0,"TOWNNAME":"七股區","LI":"玉成里","LIN":"12鄰","STREET":" ","SECT":" ","MAREA":"玉成","LANE":" ","ALLEY":" ","HOUSE_NO":"１２２號之１５","E_COORD97":161850.39999999999,"N_COORD97":2560250.9100000001,"ADDRESS":"玉成１２２號之１５","OBJECTID":86407},"geometry":{"x":161850.40000000037,"y":2560250.9100000001}},{"attributes":{"ID":86408,"DIS_CODE":0,"TOWNNAME":"七股區","LI":"玉成里","LIN":"12鄰","STREET":" ","SECT":" ","MAREA":"玉成","LANE":" ","ALLEY":" ","HOUSE_NO":"１２２號之１６","E_COORD97":161850.42000000001,"N_COORD97":2560255.52,"ADDRESS":"玉成１２２號之１６","OBJECTID":86408},"geometry":{"x":161850.42000000086,"y":2560255.5199999996}},{"attributes":{"ID":86409,"DIS_CODE":0,"TOWNNAME":"七股區","LI":"玉成里","LIN":"12鄰","STREET":" ","SECT":" ","MAREA":"玉成","LANE":" ","ALLEY":" ","HOUSE_NO":"１２２號之１７","E_COORD97":161850.44,"N_COORD97":2560260.1200000001,"ADDRESS":"玉成１２２號之１７","OBJECTID":86409},"geometry":{"x":161850.44000000227,"y":2560260.120000001}},{"attributes":{"ID":86410,"DIS_CODE":0,"TOWNNAME":"七股區","LI":"玉成里","LIN":"12鄰","STREET":" ","SECT":" ","MAREA":"玉成","LANE":" ","ALLEY":" ","HOUSE_NO":"１２２號之１８","E_COORD97":161850.45999999999,"N_COORD97":2560264.7200000002,"ADDRESS":"玉成１２２號之１８","OBJECTID":86410},"geometry":{"x":161850.46000000089,"y":2560264.7200000025}},{"attributes":{"ID":86411,"DIS_CODE":0,"TOWNNAME":"七股區","LI":"玉成里","LIN":"12鄰","STREET":" ","SECT":" ","MAREA":"玉成","LANE":" ","ALLEY":" ","HOUSE_NO":"１２２號之１９","E_COORD97":161850.48000000001,"N_COORD97":2560269.3199999998,"ADDRESS":"玉成１２２號之１９","OBJECTID":86411},"geometry":{"x":161850.48000000138,"y":2560269.320000004}},{"attributes":{"ID":86412,"DIS_CODE":0,"TOWNNAME":"山上區","LI":"明和里","LIN":"20鄰","STREET":" ","SECT":" ","MAREA":"明和","LANE":" ","ALLEY":" ","HOUSE_NO":"５６號","E_COORD97":183278.89000000001,"N_COORD97":2556009.25,"ADDRESS":"明和５６號","OBJECTID":86412},"geometry":{"x":183278.89000000153,"y":2556009.25}},{"attributes":{"ID":86413,"DIS_CODE":0,"TOWNNAME":"永康區","LI":"埔園里","LIN":"12鄰","STREET":"中山路","SECT":" ","MAREA":" ","LANE":"１８５巷","ALLEY":"１弄","HOUSE_NO":"２５號","E_COORD97":173625.09,"N_COORD97":2547997.5,"ADDRESS":"中山路１８５巷１弄２５號","OBJECTID":86413},"geometry":{"x":173625.08999999985,"y":2547997.4999999981}},{"attributes":{"ID":86414,"DIS_CODE":0,"TOWNNAME":"南區","LI":"鯤鯓里","LIN":"12鄰","STREET":"鯤鯓路","SECT":" ","MAREA":" ","LANE":"１９４巷","ALLEY":"４７弄","HOUSE_NO":"２４之１號","E_COORD97":165021.97,"N_COORD97":2540391.3599999999,"ADDRESS":"鯤鯓路１９４巷４７弄２４之１號","OBJECTID":86414},"geometry":{"x":165021.97000000067,"y":2540391.3600000013}},{"attributes":{"ID":86415,"DIS_CODE":0,"TOWNNAME":"南區","LI":"永寧里","LIN":"12鄰","STREET":"灣裡路","SECT":" ","MAREA":" ","LANE":"８８巷","ALLEY":"９３弄","HOUSE_NO":"６８之１號","E_COORD97":165958.07000000001,"N_COORD97":2536512.3700000001,"ADDRESS":"灣裡路８８巷９３弄６８之１號","OBJECTID":86415},"geometry":{"x":165958.0700000003,"y":2536512.370000001}},{"attributes":{"ID":86416,"DIS_CODE":0,"TOWNNAME":"七股區","LI":"玉成里","LIN":"12鄰","STREET":" ","SECT":" ","MAREA":"玉成","LANE":" ","ALLEY":" ","HOUSE_NO":"１２２號之２０","E_COORD97":161850.48999999999,"N_COORD97":2560273.9199999999,"ADDRESS":"玉成１２２號之２０","OBJECTID":86416},"geometry":{"x":161850.49000000115,"y":2560273.9199999999}},{"attributes":{"ID":86417,"DIS_CODE":0,"TOWNNAME":"七股區","LI":"玉成里","LIN":"12鄰","STREET":" ","SECT":" ","MAREA":"玉成","LANE":" ","ALLEY":" ","HOUSE_NO":"１２２號之２１","E_COORD97":161850.51000000001,"N_COORD97":2560278.52,"ADDRESS":"玉成１２２號之２１","OBJECTID":86417},"geometry":{"x":161850.50999999978,"y":2560278.5200000014}},{"attributes":{"ID":86418,"DIS_CODE":0,"TOWNNAME":"七股區","LI":"玉成里","LIN":"12鄰","STREET":" ","SECT":" ","MAREA":"玉成","LANE":" ","ALLEY":" ","HOUSE_NO":"１２２號之２２","E_COORD97":161850.53,"N_COORD97":2560283.1200000001,"ADDRESS":"玉成１２２號之２２","OBJECTID":86418},"geometry":{"x":161850.53000000026,"y":2560283.120000001}},{"attributes":{"ID":86419,"DIS_CODE":0,"TOWNNAME":"七股區","LI":"玉成里","LIN":"12鄰","STREET":" ","SECT":" ","MAREA":"玉成","LANE":" ","ALLEY":" ","HOUSE_NO":"１２２號之２３","E_COORD97":161850.54999999999,"N_COORD97":2560287.73,"ADDRESS":"玉成１２２號之２３","OBJECTID":86419},"geometry":{"x":161850.54999999981,"y":2560287.7300000023}},{"attributes":{"ID":86420,"DIS_CODE":0,"TOWNNAME":"南區","LI":"喜東里","LIN":"12鄰","STREET":"明興路","SECT":" ","MAREA":" ","LANE":"６８１巷","ALLEY":"５２弄","HOUSE_NO":"１號","E_COORD97":166097.26000000001,"N_COORD97":2537616.1499999999,"ADDRESS":"明興路６８１巷５２弄１號","OBJECTID":86420},"geometry":{"x":166097.25999999978,"y":2537616.1500000022}},{"attributes":{"ID":86421,"DIS_CODE":0,"TOWNNAME":"南區","LI":"喜東里","LIN":"12鄰","STREET":"明興路","SECT":" ","MAREA":" ","LANE":"６８１巷","ALLEY":"５２弄","HOUSE_NO":"３號","E_COORD97":166093.76999999999,"N_COORD97":2537615.9900000002,"ADDRESS":"明興路６８１巷５２弄３號","OBJECTID":86421},"geometry":{"x":166093.77000000142,"y":2537615.9900000002}},{"attributes":{"ID":86422,"DIS_CODE":0,"TOWNNAME":"南區","LI":"喜東里","LIN":"12鄰","STREET":"明興路","SECT":" ","MAREA":" ","LANE":"６８１巷","ALLEY":"５２弄","HOUSE_NO":"５號","E_COORD97":166089.79999999999,"N_COORD97":2537615.9900000002,"ADDRESS":"明興路６８１巷５２弄５號","OBJECTID":86422},"geometry":{"x":166089.79999999981,"y":2537615.9900000002}},{"attributes":{"ID":86423,"DIS_CODE":0,"TOWNNAME":"南區","LI":"喜東里","LIN":"12鄰","STREET":"明興路","SECT":" ","MAREA":" ","LANE":"６８１巷","ALLEY":"５２弄","HOUSE_NO":"７號","E_COORD97":166085.35999999999,"N_COORD97":2537615.8300000001,"ADDRESS":"明興路６８１巷５２弄７號","OBJECTID":86423},"geometry":{"x":166085.3599999994,"y":2537615.8300000019}},{"attributes":{"ID":86424,"DIS_CODE":0,"TOWNNAME":"南區","LI":"喜東里","LIN":"12鄰","STREET":"明興路","SECT":" ","MAREA":" ","LANE":"６８１巷","ALLEY":"５２弄","HOUSE_NO":"９號","E_COORD97":166077.73999999999,"N_COORD97":2537615.5099999998,"ADDRESS":"明興路６８１巷５２弄９號","OBJECTID":86424},"geometry":{"x":166077.74000000209,"y":2537615.5099999998}},{"attributes":{"ID":86425,"DIS_CODE":0,"TOWNNAME":"南區","LI":"喜東里","LIN":"12鄰","STREET":"明興路","SECT":" ","MAREA":" ","LANE":"６８１巷","ALLEY":"５２弄","HOUSE_NO":"１１號","E_COORD97":166069.32000000001,"N_COORD97":2537614.7200000002,"ADDRESS":"明興路６８１巷５２弄１１號","OBJECTID":86425},"geometry":{"x":166069.32000000123,"y":2537614.7200000007}},{"attributes":{"ID":86426,"DIS_CODE":0,"TOWNNAME":"南區","LI":"喜東里","LIN":"12鄰","STREET":"明興路","SECT":" ","MAREA":" ","LANE":"６８１巷","ALLEY":"５２弄","HOUSE_NO":"１３號","E_COORD97":166054.72,"N_COORD97":2537613.4500000002,"ADDRESS":"明興路６８１巷５２弄１３號","OBJECTID":86426},"geometry":{"x":166054.71999999974,"y":2537613.4500000011}},{"attributes":{"ID":86427,"DIS_CODE":0,"TOWNNAME":"南區","LI":"喜東里","LIN":"12鄰","STREET":"明興路","SECT":" ","MAREA":" ","LANE":"６８１巷","ALLEY":"５２弄","HOUSE_NO":"２７號","E_COORD97":166013.60000000001,"N_COORD97":2537611.54,"ADDRESS":"明興路６８１巷５２弄２７號","OBJECTID":86427},"geometry":{"x":166013.60000000149,"y":2537611.5399999991}},{"attributes":{"ID":86428,"DIS_CODE":0,"TOWNNAME":"官田區","LI":"隆田里","LIN":"15鄰","STREET":"勝利路","SECT":" ","MAREA":" ","LANE":" ","ALLEY":" ","HOUSE_NO":"１７５號","E_COORD97":180201.92000000001,"N_COORD97":2566261.4700000002,"ADDRESS":"勝利路１７５號","OBJECTID":86428},"geometry":{"x":180201.91999999993,"y":2566261.4700000007}},{"attributes":{"ID":86429,"DIS_CODE":0,"TOWNNAME":"官田區","LI":"隆田里","LIN":"15鄰","STREET":"勝利路","SECT":" ","MAREA":" ","LANE":" ","ALLEY":" ","HOUSE_NO":"１７７號","E_COORD97":180196.29999999999,"N_COORD97":2566265.6099999999,"ADDRESS":"勝利路１７７號","OBJECTID":86429},"geometry":{"x":180196.30000000075,"y":2566265.6099999994}},{"attributes":{"ID":86430,"DIS_CODE":0,"TOWNNAME":"官田區","LI":"隆田里","LIN":"15鄰","STREET":"勝利路","SECT":" ","MAREA":" ","LANE":" ","ALLEY":" ","HOUSE_NO":"１８７號","E_COORD97":180175.44,"N_COORD97":2566293.1099999999,"ADDRESS":"勝利路１８７號","OBJECTID":86430},"geometry":{"x":180175.44000000227,"y":2566293.1099999994}},{"attributes":{"ID":86431,"DIS_CODE":0,"TOWNNAME":"白河區","LI":"永安里","LIN":"15鄰","STREET":"大德街","SECT":" ","MAREA":" ","LANE":" ","ALLEY":" ","HOUSE_NO":"１０號","E_COORD97":189946.03,"N_COORD97":2583534.73,"ADDRESS":"大德街１０號","OBJECTID":86431},"geometry":{"x":189946.03000000119,"y":2583534.7300000042}},{"attributes":{"ID":86432,"DIS_CODE":0,"TOWNNAME":"南區","LI":"喜東里","LIN":"12鄰","STREET":"明興路","SECT":" ","MAREA":" ","LANE":"６８１巷","ALLEY":"５２弄","HOUSE_NO":"２５號","E_COORD97":166020.10999999999,"N_COORD97":2537612.3399999999,"ADDRESS":"明興路６８１巷５２弄２５號","OBJECTID":86432},"geometry":{"x":166020.11000000127,"y":2537612.3399999999}},{"attributes":{"ID":86433,"DIS_CODE":0,"TOWNNAME":"南區","LI":"喜東里","LIN":"12鄰","STREET":"明興路","SECT":" ","MAREA":" ","LANE":"６８１巷","ALLEY":"５２弄","HOUSE_NO":"２３號","E_COORD97":166026.29999999999,"N_COORD97":2537612.9700000002,"ADDRESS":"明興路６８１巷５２弄２３號","OBJECTID":86433},"geometry":{"x":166026.30000000075,"y":2537612.9700000007}},{"attributes":{"ID":86434,"DIS_CODE":0,"TOWNNAME":"南區","LI":"喜東里","LIN":"12鄰","STREET":"明興路","SECT":" ","MAREA":" ","LANE":"６８１巷","ALLEY":"５２弄","HOUSE_NO":"２１號","E_COORD97":166033.45000000001,"N_COORD97":2537613.4500000002,"ADDRESS":"明興路６８１巷５２弄２１號","OBJECTID":86434},"geometry":{"x":166033.45000000019,"y":2537613.4500000011}},{"attributes":{"ID":86435,"DIS_CODE":0,"TOWNNAME":"七股區","LI":"玉成里","LIN":"12鄰","STREET":" ","SECT":" ","MAREA":"玉成","LANE":" ","ALLEY":" ","HOUSE_NO":"１２２號之２４","E_COORD97":161850.56,"N_COORD97":2560292.3300000001,"ADDRESS":"玉成１２２號之２４","OBJECTID":86435},"geometry":{"x":161850.56000000052,"y":2560292.3299999982}},{"attributes":{"ID":86436,"DIS_CODE":0,"TOWNNAME":"南區","LI":"喜東里","LIN":"12鄰","STREET":"明興路","SECT":" ","MAREA":" ","LANE":"６８１巷","ALLEY":"５２弄","HOUSE_NO":"１９號","E_COORD97":166039.64000000001,"N_COORD97":2537613.77,"ADDRESS":"明興路６８１巷５２弄１９號","OBJECTID":86436},"geometry":{"x":166039.63999999966,"y":2537613.7699999996}},{"attributes":{"ID":86437,"DIS_CODE":0,"TOWNNAME":"南區","LI":"喜東里","LIN":"12鄰","STREET":"明興路","SECT":" ","MAREA":" ","LANE":"６８１巷","ALLEY":"５２弄","HOUSE_NO":"１７號","E_COORD97":166045.35000000001,"N_COORD97":2537614.2400000002,"ADDRESS":"明興路６８１巷５２弄１７號","OBJECTID":86437},"geometry":{"x":166045.34999999963,"y":2537614.2400000002}},{"attributes":{"ID":86438,"DIS_CODE":0,"TOWNNAME":"南區","LI":"喜東里","LIN":"12鄰","STREET":"明興路","SECT":" ","MAREA":" ","LANE":"６８１巷","ALLEY":"５２弄","HOUSE_NO":"１５號","E_COORD97":166049.95999999999,"N_COORD97":2537614.5600000001,"ADDRESS":"明興路６８１巷５２弄１５號","OBJECTID":86438},"geometry":{"x":166049.95999999996,"y":2537614.5600000024}},{"attributes":{"ID":86439,"DIS_CODE":0,"TOWNNAME":"南區","LI":"喜東里","LIN":"12鄰","STREET":"明興路","SECT":" ","MAREA":" ","LANE":"７３５巷","ALLEY":"１７弄","HOUSE_NO":"１號","E_COORD97":166061.85999999999,"N_COORD97":2537568.3900000001,"ADDRESS":"明興路７３５巷１７弄１號","OBJECTID":86439},"geometry":{"x":166061.86000000127,"y":2537568.3900000025}},{"attributes":{"ID":86440,"DIS_CODE":0,"TOWNNAME":"南區","LI":"喜東里","LIN":"12鄰","STREET":"明興路","SECT":" ","MAREA":" ","LANE":"７３５巷","ALLEY":"１７弄","HOUSE_NO":"３號","E_COORD97":166054.88,"N_COORD97":2537567.1200000001,"ADDRESS":"明興路７３５巷１７弄３號","OBJECTID":86440},"geometry":{"x":166054.88000000082,"y":2537567.1200000029}},{"attributes":{"ID":86441,"DIS_CODE":0,"TOWNNAME":"南區","LI":"喜東里","LIN":"12鄰","STREET":"明興路","SECT":" ","MAREA":" ","LANE":"７３５巷","ALLEY":"１７弄","HOUSE_NO":"５號","E_COORD97":166049.32000000001,"N_COORD97":2537566.1699999999,"ADDRESS":"明興路７３５巷１７弄５號","OBJECTID":86441},"geometry":{"x":166049.3200000003,"y":2537566.1699999999}},{"attributes":{"ID":86442,"DIS_CODE":0,"TOWNNAME":"南區","LI":"喜東里","LIN":"12鄰","STREET":"明興路","SECT":" ","MAREA":" ","LANE":"７３５巷","ALLEY":"１７弄","HOUSE_NO":"７號","E_COORD97":166042.81,"N_COORD97":2537564.7400000002,"ADDRESS":"明興路７３５巷１７弄７號","OBJECTID":86442},"geometry":{"x":166042.81000000052,"y":2537564.7400000021}},{"attributes":{"ID":86443,"DIS_CODE":0,"TOWNNAME":"佳里區","LI":"三協里","LIN":"10鄰","STREET":" ","SECT":" ","MAREA":"後庄","LANE":" ","ALLEY":" ","HOUSE_NO":"１７號","E_COORD97":168501.44,"N_COORD97":2564668.2400000002,"ADDRESS":"後庄１７號","OBJECTID":86443},"geometry":{"x":168501.44000000134,"y":2564668.2400000021}},{"attributes":{"ID":86444,"DIS_CODE":0,"TOWNNAME":"南區","LI":"喜東里","LIN":"12鄰","STREET":"明興路","SECT":" ","MAREA":" ","LANE":"７３５巷","ALLEY":"１７弄","HOUSE_NO":"９號","E_COORD97":166038.20999999999,"N_COORD97":2537563.7799999998,"ADDRESS":"明興路７３５巷１７弄９號","OBJECTID":86444},"geometry":{"x":166038.20999999996,"y":2537563.7800000012}},{"attributes":{"ID":86445,"DIS_CODE":0,"TOWNNAME":"南區","LI":"喜東里","LIN":"12鄰","STREET":"明興路","SECT":" ","MAREA":" ","LANE":"７３５巷","ALLEY":"１７弄","HOUSE_NO":"１１號","E_COORD97":166032.48999999999,"N_COORD97":2537562.04,"ADDRESS":"明興路７３５巷１７弄１１號","OBJECTID":86445},"geometry":{"x":166032.49000000115,"y":2537562.040000001}},{"attributes":{"ID":86446,"DIS_CODE":0,"TOWNNAME":"南區","LI":"喜東里","LIN":"12鄰","STREET":"明興路","SECT":" ","MAREA":" ","LANE":"７３５巷","ALLEY":"１７弄","HOUSE_NO":"１３號","E_COORD97":166028.53,"N_COORD97":2537560.9300000002,"ADDRESS":"明興路７３５巷１７弄１３號","OBJECTID":86446},"geometry":{"x":166028.53000000119,"y":2537560.9299999997}},{"attributes":{"ID":86447,"DIS_CODE":0,"TOWNNAME":"南區","LI":"喜東里","LIN":"12鄰","STREET":"明興路","SECT":" ","MAREA":" ","LANE":"７３５巷","ALLEY":"１７弄","HOUSE_NO":"１５號","E_COORD97":166025.03,"N_COORD97":2537559.9700000002,"ADDRESS":"明興路７３５巷１７弄１５號","OBJECTID":86447},"geometry":{"x":166025.03000000119,"y":2537559.9700000044}},{"attributes":{"ID":86448,"DIS_CODE":0,"TOWNNAME":"南區","LI":"喜東里","LIN":"12鄰","STREET":"明興路","SECT":" ","MAREA":" ","LANE":"７３５巷","ALLEY":"１７弄","HOUSE_NO":"１７號","E_COORD97":166021.06,"N_COORD97":2537559.3399999999,"ADDRESS":"明興路７３５巷１７弄１７號","OBJECTID":86448},"geometry":{"x":166021.06000000052,"y":2537559.3399999999}},{"attributes":{"ID":86449,"DIS_CODE":0,"TOWNNAME":"南區","LI":"喜東里","LIN":"12鄰","STREET":"明興路","SECT":" ","MAREA":" ","LANE":"７３５巷","ALLEY":"１７弄","HOUSE_NO":"２號","E_COORD97":166073.45000000001,"N_COORD97":2537570.6099999999,"ADDRESS":"明興路７３５巷１７弄２號","OBJECTID":86449},"geometry":{"x":166073.45000000112,"y":2537570.6099999994}},{"attributes":{"ID":86450,"DIS_CODE":0,"TOWNNAME":"南區","LI":"喜東里","LIN":"12鄰","STREET":"明興路","SECT":" ","MAREA":" ","LANE":"７３５巷","ALLEY":"１７弄","HOUSE_NO":"６號","E_COORD97":166077.26000000001,"N_COORD97":2537571.7200000002,"ADDRESS":"明興路７３５巷１７弄６號","OBJECTID":86450},"geometry":{"x":166077.26000000071,"y":2537571.7200000044}},{"attributes":{"ID":86451,"DIS_CODE":0,"TOWNNAME":"南區","LI":"喜東里","LIN":"12鄰","STREET":"明興路","SECT":" ","MAREA":" ","LANE":"７３５巷","ALLEY":"１７弄","HOUSE_NO":"８號","E_COORD97":166081.07000000001,"N_COORD97":2537572.6699999999,"ADDRESS":"明興路７３５巷１７弄８號","OBJECTID":86451},"geometry":{"x":166081.07000000123,"y":2537572.6700000018}},{"attributes":{"ID":86452,"DIS_CODE":0,"TOWNNAME":"南區","LI":"喜東里","LIN":"12鄰","STREET":"明興路","SECT":" ","MAREA":" ","LANE":"７３５巷","ALLEY":"１７弄","HOUSE_NO":"１０號","E_COORD97":166084.88,"N_COORD97":2537573.6299999999,"ADDRESS":"明興路７３５巷１７弄１０號","OBJECTID":86452},"geometry":{"x":166084.88000000175,"y":2537573.6300000027}},{"attributes":{"ID":86453,"DIS_CODE":0,"TOWNNAME":"南區","LI":"喜東里","LIN":"12鄰","STREET":"明興路","SECT":" ","MAREA":" ","LANE":"７３５巷","ALLEY":"１７弄","HOUSE_NO":"１２號","E_COORD97":166089.48999999999,"N_COORD97":2537575.0600000001,"ADDRESS":"明興路７３５巷１７弄１２號","OBJECTID":86453},"geometry":{"x":166089.49000000209,"y":2537575.0600000005}},{"attributes":{"ID":86454,"DIS_CODE":0,"TOWNNAME":"南區","LI":"喜東里","LIN":"12鄰","STREET":"明興路","SECT":" ","MAREA":" ","LANE":"７３５巷","ALLEY":"１７弄","HOUSE_NO":"１６號","E_COORD97":166094.57000000001,"N_COORD97":2537576.48,"ADDRESS":"明興路７３５巷１７弄１６號","OBJECTID":86454},"geometry":{"x":166094.57000000123,"y":2537576.4800000042}},{"attributes":{"ID":86455,"DIS_CODE":0,"TOWNNAME":"南區","LI":"喜東里","LIN":"12鄰","STREET":"明興路","SECT":" ","MAREA":" ","LANE":"７３５巷","ALLEY":"１７弄","HOUSE_NO":"１８號","E_COORD97":166098.69,"N_COORD97":2537577.75,"ADDRESS":"明興路７３５巷１７弄１８號","OBJECTID":86455},"geometry":{"x":166098.69000000134,"y":2537577.7500000019}},{"attributes":{"ID":86456,"DIS_CODE":0,"TOWNNAME":"南區","LI":"喜東里","LIN":"12鄰","STREET":"明興路","SECT":" ","MAREA":" ","LANE":"７３５巷","ALLEY":"１７弄","HOUSE_NO":"１９號","E_COORD97":166016.94,"N_COORD97":2537579.3399999999,"ADDRESS":"明興路７３５巷１７弄１９號","OBJECTID":86456},"geometry":{"x":166016.94000000041,"y":2537579.3399999999}},{"attributes":{"ID":86457,"DIS_CODE":0,"TOWNNAME":"南區","LI":"喜東里","LIN":"12鄰","STREET":"明興路","SECT":" ","MAREA":" ","LANE":"７３５巷","ALLEY":"１７弄","HOUSE_NO":"２１號","E_COORD97":166021.38,"N_COORD97":2537580.6099999999,"ADDRESS":"明興路７３５巷１７弄２１號","OBJECTID":86457},"geometry":{"x":166021.37999999989,"y":2537580.6099999994}},{"attributes":{"ID":86458,"DIS_CODE":0,"TOWNNAME":"七股區","LI":"玉成里","LIN":"12鄰","STREET":" ","SECT":" ","MAREA":"玉成","LANE":" ","ALLEY":" ","HOUSE_NO":"１２２號之２５","E_COORD97":161850.57999999999,"N_COORD97":2560296.9300000002,"ADDRESS":"玉成１２２號之２５","OBJECTID":86458},"geometry":{"x":161850.58000000007,"y":2560296.9299999997}},{"attributes":{"ID":86459,"DIS_CODE":0,"TOWNNAME":"七股區","LI":"大埕里","LIN":"12鄰","STREET":" ","SECT":" ","MAREA":"大埕","LANE":" ","ALLEY":" ","HOUSE_NO":"４１１號","E_COORD97":161929.70999999999,"N_COORD97":2559947.6499999999,"ADDRESS":"大埕４１１號","OBJECTID":86459},"geometry":{"x":161929.71000000089,"y":2559947.6500000004}},{"attributes":{"ID":86460,"DIS_CODE":0,"TOWNNAME":"七股區","LI":"大埕里","LIN":"12鄰","STREET":" ","SECT":" ","MAREA":"大埕","LANE":" ","ALLEY":" ","HOUSE_NO":"４１２號","E_COORD97":161937.31,"N_COORD97":2559981.9100000001,"ADDRESS":"大埕４１２號","OBJECTID":86460},"geometry":{"x":161937.31000000052,"y":2559981.9100000001}},{"attributes":{"ID":86461,"DIS_CODE":0,"TOWNNAME":"七股區","LI":"大埕里","LIN":"12鄰","STREET":" ","SECT":" ","MAREA":"大埕","LANE":" ","ALLEY":" ","HOUSE_NO":"４１３號之１１","E_COORD97":161925.76000000001,"N_COORD97":2560015.3399999999,"ADDRESS":"大埕４１３號之１１","OBJECTID":86461},"geometry":{"x":161925.76000000071,"y":2560015.3400000017}},{"attributes":{"ID":86462,"DIS_CODE":0,"TOWNNAME":"七股區","LI":"大埕里","LIN":"12鄰","STREET":" ","SECT":" ","MAREA":"大埕","LANE":" ","ALLEY":" ","HOUSE_NO":"４１３號之１２","E_COORD97":161926.10000000001,"N_COORD97":2560020.2999999998,"ADDRESS":"大埕４１３號之１２","OBJECTID":86462},"geometry":{"x":161926.09999999963,"y":2560020.3000000026}},{"attributes":{"ID":86463,"DIS_CODE":0,"TOWNNAME":"七股區","LI":"大埕里","LIN":"12鄰","STREET":" ","SECT":" ","MAREA":"大埕","LANE":" ","ALLEY":" ","HOUSE_NO":"４１３號之１３","E_COORD97":161925.95000000001,"N_COORD97":2560025.2000000002,"ADDRESS":"大埕４１３號之１３","OBJECTID":86463},"geometry":{"x":161925.95000000019,"y":2560025.2000000011}},{"attributes":{"ID":86464,"DIS_CODE":0,"TOWNNAME":"後壁區","LI":"福安里","LIN":"15鄰","STREET":" ","SECT":" ","MAREA":"下寮","LANE":" ","ALLEY":" ","HOUSE_NO":"２４７號","E_COORD97":182426.72,"N_COORD97":2580967.6299999999,"ADDRESS":"下寮２４７號","OBJECTID":86464},"geometry":{"x":182426.71999999974,"y":2580967.6300000008}},{"attributes":{"ID":86465,"DIS_CODE":0,"TOWNNAME":"七股區","LI":"大埕里","LIN":"12鄰","STREET":" ","SECT":" ","MAREA":"大埕","LANE":" ","ALLEY":" ","HOUSE_NO":"４１３號之１４","E_COORD97":161926.23000000001,"N_COORD97":2560030.29,"ADDRESS":"大埕４１３號之１４","OBJECTID":86465},"geometry":{"x":161926.23000000045,"y":2560030.2899999991}},{"attributes":{"ID":86466,"DIS_CODE":0,"TOWNNAME":"七股區","LI":"大埕里","LIN":"12鄰","STREET":" ","SECT":" ","MAREA":"大埕","LANE":" ","ALLEY":" ","HOUSE_NO":"４１３號之１５","E_COORD97":161939.56,"N_COORD97":2560025.7200000002,"ADDRESS":"大埕４１３號之１５","OBJECTID":86466},"geometry":{"x":161939.55999999959,"y":2560025.7200000007}},{"attributes":{"ID":86467,"DIS_CODE":0,"TOWNNAME":"七股區","LI":"大埕里","LIN":"12鄰","STREET":" ","SECT":" ","MAREA":"大埕","LANE":" ","ALLEY":" ","HOUSE_NO":"４１３號之１６","E_COORD97":161943.67000000001,"N_COORD97":2560027.29,"ADDRESS":"大埕４１３號之１６","OBJECTID":86467},"geometry":{"x":161943.67000000086,"y":2560027.2900000028}},{"attributes":{"ID":86468,"DIS_CODE":0,"TOWNNAME":"七股區","LI":"大埕里","LIN":"12鄰","STREET":" ","SECT":" ","MAREA":"大埕","LANE":" ","ALLEY":" ","HOUSE_NO":"４１３號之１７","E_COORD97":161947.78,"N_COORD97":2560028.8700000001,"ADDRESS":"大埕４１３號之１７","OBJECTID":86468},"geometry":{"x":161947.78000000026,"y":2560028.8700000048}},{"attributes":{"ID":86469,"DIS_CODE":0,"TOWNNAME":"七股區","LI":"大埕里","LIN":"12鄰","STREET":" ","SECT":" ","MAREA":"大埕","LANE":" ","ALLEY":" ","HOUSE_NO":"４１３號之１８","E_COORD97":161951.88,"N_COORD97":2560030.4500000002,"ADDRESS":"大埕４１３號之１８","OBJECTID":86469},"geometry":{"x":161951.87999999896,"y":2560030.4500000011}},{"attributes":{"ID":86470,"DIS_CODE":0,"TOWNNAME":"七股區","LI":"大埕里","LIN":"12鄰","STREET":" ","SECT":" ","MAREA":"大埕","LANE":" ","ALLEY":" ","HOUSE_NO":"４１３號之１９","E_COORD97":161955.98999999999,"N_COORD97":2560032.02,"ADDRESS":"大埕４１３號之１９","OBJECTID":86470},"geometry":{"x":161955.99000000022,"y":2560032.0199999996}},{"attributes":{"ID":86471,"DIS_CODE":0,"TOWNNAME":"七股區","LI":"大埕里","LIN":"12鄰","STREET":" ","SECT":" ","MAREA":"大埕","LANE":" ","ALLEY":" ","HOUSE_NO":"４１３號之２０","E_COORD97":161960.09,"N_COORD97":2560033.6000000001,"ADDRESS":"大埕４１３號之２０","OBJECTID":86471},"geometry":{"x":161960.08999999985,"y":2560033.6000000015}},{"attributes":{"ID":86472,"DIS_CODE":0,"TOWNNAME":"七股區","LI":"大埕里","LIN":"12鄰","STREET":" ","SECT":" ","MAREA":"大埕","LANE":" ","ALLEY":" ","HOUSE_NO":"４１３號之２１","E_COORD97":161964.20000000001,"N_COORD97":2560035.1800000002,"ADDRESS":"大埕４１３號之２１","OBJECTID":86472},"geometry":{"x":161964.20000000112,"y":2560035.1799999997}},{"attributes":{"ID":86473,"DIS_CODE":0,"TOWNNAME":"七股區","LI":"大埕里","LIN":"12鄰","STREET":" ","SECT":" ","MAREA":"大埕","LANE":" ","ALLEY":" ","HOUSE_NO":"４１３號之２２","E_COORD97":161968.31,"N_COORD97":2560036.75,"ADDRESS":"大埕４１３號之２２","OBJECTID":86473},"geometry":{"x":161968.30999999959,"y":2560036.7500000019}},{"attributes":{"ID":86474,"DIS_CODE":0,"TOWNNAME":"南區","LI":"喜東里","LIN":"12鄰","STREET":"明興路","SECT":" ","MAREA":" ","LANE":"７３５巷","ALLEY":"１７弄","HOUSE_NO":"２３號","E_COORD97":166025.98999999999,"N_COORD97":2537581.5600000001,"ADDRESS":"明興路７３５巷１７弄２３號","OBJECTID":86474},"geometry":{"x":166025.99000000022,"y":2537581.5600000005}},{"attributes":{"ID":86475,"DIS_CODE":0,"TOWNNAME":"南區","LI":"喜東里","LIN":"12鄰","STREET":"明興路","SECT":" ","MAREA":" ","LANE":"７３５巷","ALLEY":"１７弄","HOUSE_NO":"２５號","E_COORD97":166031.54000000001,"N_COORD97":2537582.9900000002,"ADDRESS":"明興路７３５巷１７弄２５號","OBJECTID":86475},"geometry":{"x":166031.54000000097,"y":2537582.9900000039}},{"attributes":{"ID":86476,"DIS_CODE":0,"TOWNNAME":"南區","LI":"喜東里","LIN":"12鄰","STREET":"明興路","SECT":" ","MAREA":" ","LANE":"７３５巷","ALLEY":"１７弄","HOUSE_NO":"２７號","E_COORD97":166036.29999999999,"N_COORD97":2537584.8999999999,"ADDRESS":"明興路７３５巷１７弄２７號","OBJECTID":86476},"geometry":{"x":166036.30000000075,"y":2537584.9000000022}},{"attributes":{"ID":86477,"DIS_CODE":0,"TOWNNAME":"南區","LI":"喜東里","LIN":"12鄰","STREET":"明興路","SECT":" ","MAREA":" ","LANE":"７３５巷","ALLEY":"１７弄","HOUSE_NO":"２９號","E_COORD97":166041.54000000001,"N_COORD97":2537586.1699999999,"ADDRESS":"明興路７３５巷１７弄２９號","OBJECTID":86477},"geometry":{"x":166041.5400000019,"y":2537586.1700000018}},{"attributes":{"ID":86478,"DIS_CODE":0,"TOWNNAME":"南區","LI":"喜東里","LIN":"12鄰","STREET":"明興路","SECT":" ","MAREA":" ","LANE":"７３５巷","ALLEY":"１７弄","HOUSE_NO":"３０號","E_COORD97":166070.44,"N_COORD97":2537593.1499999999,"ADDRESS":"明興路７３５巷１７弄３０號","OBJECTID":86478},"geometry":{"x":166070.44000000134,"y":2537593.1500000022}},{"attributes":{"ID":86479,"DIS_CODE":0,"TOWNNAME":"南區","LI":"喜東里","LIN":"12鄰","STREET":"明興路","SECT":" ","MAREA":" ","LANE":"７３５巷","ALLEY":"１７弄","HOUSE_NO":"３１號","E_COORD97":166045.82999999999,"N_COORD97":2537587.4399999999,"ADDRESS":"明興路７３５巷１７弄３１號","OBJECTID":86479},"geometry":{"x":166045.83000000007,"y":2537587.4400000013}},{"attributes":{"ID":86480,"DIS_CODE":0,"TOWNNAME":"南區","LI":"喜東里","LIN":"12鄰","STREET":"明興路","SECT":" ","MAREA":" ","LANE":"７３５巷","ALLEY":"１７弄","HOUSE_NO":"３２號","E_COORD97":166074.09,"N_COORD97":2537594.5800000001,"ADDRESS":"明興路７３５巷１７弄３２號","OBJECTID":86480},"geometry":{"x":166074.08999999985,"y":2537594.5800000001}},{"attributes":{"ID":86481,"DIS_CODE":0,"TOWNNAME":"南區","LI":"喜東里","LIN":"12鄰","STREET":"明興路","SECT":" ","MAREA":" ","LANE":"７３５巷","ALLEY":"１７弄","HOUSE_NO":"３３號","E_COORD97":166050.42999999999,"N_COORD97":2537588.8700000001,"ADDRESS":"明興路７３５巷１７弄３３號","OBJECTID":86481},"geometry":{"x":166050.43000000156,"y":2537588.8700000029}},{"attributes":{"ID":86482,"DIS_CODE":0,"TOWNNAME":"南區","LI":"喜東里","LIN":"12鄰","STREET":"明興路","SECT":" ","MAREA":" ","LANE":"７３５巷","ALLEY":"１７弄","HOUSE_NO":"３５號","E_COORD97":166055.98999999999,"N_COORD97":2537590.1400000001,"ADDRESS":"明興路７３５巷１７弄３５號","OBJECTID":86482},"geometry":{"x":166055.99000000115,"y":2537590.1400000025}},{"attributes":{"ID":86483,"DIS_CODE":0,"TOWNNAME":"南區","LI":"喜東里","LIN":"12鄰","STREET":"明興路","SECT":" ","MAREA":" ","LANE":"７３５巷","ALLEY":"１７弄","HOUSE_NO":"３６號","E_COORD97":166077.89999999999,"N_COORD97":2537596.0099999998,"ADDRESS":"明興路７３５巷１７弄３６號","OBJECTID":86483},"geometry":{"x":166077.90000000037,"y":2537596.0100000035}},{"attributes":{"ID":86484,"DIS_CODE":0,"TOWNNAME":"南區","LI":"喜東里","LIN":"12鄰","STREET":"明興路","SECT":" ","MAREA":" ","LANE":"７３５巷","ALLEY":"１７弄","HOUSE_NO":"３８號","E_COORD97":166081.70999999999,"N_COORD97":2537597.1200000001,"ADDRESS":"明興路７３５巷１７弄３８號","OBJECTID":86484},"geometry":{"x":166081.71000000089,"y":2537597.1200000029}},{"attributes":{"ID":86485,"DIS_CODE":0,"TOWNNAME":"七股區","LI":"大埕里","LIN":"12鄰","STREET":" ","SECT":" ","MAREA":"大埕","LANE":" ","ALLEY":" ","HOUSE_NO":"４１３號之２３","E_COORD97":161972.41,"N_COORD97":2560038.3300000001,"ADDRESS":"大埕４１３號之２３","OBJECTID":86485},"geometry":{"x":161972.41000000201,"y":2560038.3300000038}},{"attributes":{"ID":86486,"DIS_CODE":0,"TOWNNAME":"南區","LI":"喜東里","LIN":"12鄰","STREET":"明興路","SECT":" ","MAREA":" ","LANE":"７３５巷","ALLEY":"１７弄","HOUSE_NO":"４０號","E_COORD97":166086.31,"N_COORD97":2537598.5499999998,"ADDRESS":"明興路７３５巷１７弄４０號","OBJECTID":86486},"geometry":{"x":166086.30999999959,"y":2537598.5500000007}},{"attributes":{"ID":86487,"DIS_CODE":0,"TOWNNAME":"南區","LI":"喜東里","LIN":"12鄰","STREET":"明興路","SECT":" ","MAREA":" ","LANE":"７３５巷","ALLEY":"１７弄","HOUSE_NO":"４２號","E_COORD97":166092.19,"N_COORD97":2537600.46,"ADDRESS":"明興路７３５巷１７弄４２號","OBJECTID":86487},"geometry":{"x":166092.19000000134,"y":2537600.459999999}},{"attributes":{"ID":86488,"DIS_CODE":0,"TOWNNAME":"南區","LI":"喜東里","LIN":"12鄰","STREET":"明興路","SECT":" ","MAREA":" ","LANE":"７３５巷","ALLEY":"１７弄","HOUSE_NO":"４６號","E_COORD97":166097.57999999999,"N_COORD97":2537601.8799999999,"ADDRESS":"明興路７３５巷１７弄４６號","OBJECTID":86488},"geometry":{"x":166097.58000000101,"y":2537601.879999999}},{"attributes":{"ID":86489,"DIS_CODE":0,"TOWNNAME":"東區","LI":"後甲里","LIN":"12鄰","STREET":"裕農路","SECT":" ","MAREA":" ","LANE":"６６１巷","ALLEY":"２８弄","HOUSE_NO":"１號","E_COORD97":171745.07999999999,"N_COORD97":2543322.4199999999,"ADDRESS":"裕農路６６１巷２８弄１號","OBJECTID":86489},"geometry":{"x":171745.08000000007,"y":2543322.4199999999}},{"attributes":{"ID":86490,"DIS_CODE":0,"TOWNNAME":"東區","LI":"後甲里","LIN":"12鄰","STREET":"裕農路","SECT":" ","MAREA":" ","LANE":"６６１巷","ALLEY":"２８弄","HOUSE_NO":"５號","E_COORD97":171752.23000000001,"N_COORD97":2543323.7400000002,"ADDRESS":"裕農路６６１巷２８弄５號","OBJECTID":86490},"geometry":{"x":171752.23000000138,"y":2543323.7400000002}},{"attributes":{"ID":86491,"DIS_CODE":0,"TOWNNAME":"安南區","LI":"佃東里","LIN":"12鄰","STREET":"海佃路","SECT":"四段","MAREA":" ","LANE":"３８８巷","ALLEY":"１４４弄","HOUSE_NO":"１號","E_COORD97":165669.34,"N_COORD97":2551891.7799999998,"ADDRESS":"海佃路四段３８８巷１４４弄１號","OBJECTID":86491},"geometry":{"x":165669.33999999985,"y":2551891.7800000012}},{"attributes":{"ID":86492,"DIS_CODE":0,"TOWNNAME":"安南區","LI":"佃東里","LIN":"12鄰","STREET":"海佃路","SECT":"四段","MAREA":" ","LANE":"３８８巷","ALLEY":"１５６弄","HOUSE_NO":"１７號","E_COORD97":165691.70000000001,"N_COORD97":2551919.1699999999,"ADDRESS":"海佃路四段３８８巷１５６弄１７號","OBJECTID":86492},"geometry":{"x":165691.70000000112,"y":2551919.1700000037}},{"attributes":{"ID":86493,"DIS_CODE":0,"TOWNNAME":"安南區","LI":"海東里","LIN":"15鄰","STREET":"海環街","SECT":" ","MAREA":" ","LANE":" ","ALLEY":" ","HOUSE_NO":"５６號","E_COORD97":166617.22,"N_COORD97":2548837.04,"ADDRESS":"海環街５６號","OBJECTID":86493},"geometry":{"x":166617.21999999974,"y":2548837.0399999991}},{"attributes":{"ID":86494,"DIS_CODE":0,"TOWNNAME":"後壁區","LI":"福安里","LIN":"15鄰","STREET":" ","SECT":" ","MAREA":"下寮","LANE":" ","ALLEY":" ","HOUSE_NO":"２００號","E_COORD97":182921.84,"N_COORD97":2580804.73,"ADDRESS":"下寮２００號","OBJECTID":86494},"geometry":{"x":182921.84000000078,"y":2580804.7300000004}},{"attributes":{"ID":86495,"DIS_CODE":0,"TOWNNAME":"安南區","LI":"佃東里","LIN":"12鄰","STREET":"海佃路","SECT":"四段","MAREA":" ","LANE":"３８８巷","ALLEY":"１５６弄","HOUSE_NO":"９號","E_COORD97":165659.25,"N_COORD97":2551923.2599999998,"ADDRESS":"海佃路四段３８８巷１５６弄９號","OBJECTID":86495},"geometry":{"x":165659.25000000093,"y":2551923.2600000016}},{"attributes":{"ID":86496,"DIS_CODE":0,"TOWNNAME":"仁德區","LI":"上崙里","LIN":"12鄰","STREET":"德崙路","SECT":" ","MAREA":" ","LANE":"３９５巷","ALLEY":"１８弄","HOUSE_NO":"１２號","E_COORD97":174226.60999999999,"N_COORD97":2538136.27,"ADDRESS":"德崙路３９５巷１８弄１２號","OBJECTID":86496},"geometry":{"x":174226.61000000034,"y":2538136.2700000033}},{"attributes":{"ID":86497,"DIS_CODE":0,"TOWNNAME":"仁德區","LI":"上崙里","LIN":"12鄰","STREET":"德崙路","SECT":" ","MAREA":" ","LANE":"３９５巷","ALLEY":"１８弄","HOUSE_NO":"１８號","E_COORD97":174242.39999999999,"N_COORD97":2538134.02,"ADDRESS":"德崙路３９５巷１８弄１８號","OBJECTID":86497},"geometry":{"x":174242.40000000224,"y":2538134.0199999996}},{"attributes":{"ID":86498,"DIS_CODE":0,"TOWNNAME":"仁德區","LI":"上崙里","LIN":"12鄰","STREET":"德崙路","SECT":" ","MAREA":" ","LANE":"３９５巷","ALLEY":"１８弄","HOUSE_NO":"１６號","E_COORD97":174236.5,"N_COORD97":2538135.52,"ADDRESS":"德崙路３９５巷１８弄１６號","OBJECTID":86498},"geometry":{"x":174236.50000000093,"y":2538135.5200000014}},{"attributes":{"ID":86499,"DIS_CODE":0,"TOWNNAME":"仁德區","LI":"太子里","LIN":"15鄰","STREET":"太子北路","SECT":" ","MAREA":" ","LANE":"１２０巷","ALLEY":" ","HOUSE_NO":"１０號","E_COORD97":174102.69,"N_COORD97":2543726.0099999998,"ADDRESS":"太子北路１２０巷１０號","OBJECTID":86499},"geometry":{"x":174102.69000000041,"y":2543726.0100000016}},{"attributes":{"ID":86500,"DIS_CODE":0,"TOWNNAME":"後壁區","LI":"福安里","LIN":"15鄰","STREET":" ","SECT":" ","MAREA":"下寮","LANE":" ","ALLEY":" ","HOUSE_NO":"１６９號之１０","E_COORD97":183873.98000000001,"N_COORD97":2581055.54,"ADDRESS":"下寮１６９號之１０","OBJECTID":86500},"geometry":{"x":183873.97999999952,"y":2581055.5399999991}},{"attributes":{"ID":86501,"DIS_CODE":0,"TOWNNAME":"後壁區","LI":"福安里","LIN":"15鄰","STREET":" ","SECT":" ","MAREA":"下寮","LANE":" ","ALLEY":" ","HOUSE_NO":"１６９號之１１","E_COORD97":183876.98999999999,"N_COORD97":2581041.3900000001,"ADDRESS":"下寮１６９號之１１","OBJECTID":86501},"geometry":{"x":183876.99000000022,"y":2581041.3900000006}},{"attributes":{"ID":86502,"DIS_CODE":0,"TOWNNAME":"仁德區","LI":"仁德里","LIN":"15鄰","STREET":"中山路","SECT":" ","MAREA":" ","LANE":" ","ALLEY":" ","HOUSE_NO":"６５７號","E_COORD97":173182.14999999999,"N_COORD97":2541336.25,"ADDRESS":"中山路６５７號","OBJECTID":86502},"geometry":{"x":173182.15000000037,"y":2541336.25}},{"attributes":{"ID":86503,"DIS_CODE":0,"TOWNNAME":"後壁區","LI":"福安里","LIN":"15鄰","STREET":" ","SECT":" ","MAREA":"下寮","LANE":" ","ALLEY":" ","HOUSE_NO":"１６９號之１２","E_COORD97":183877.98999999999,"N_COORD97":2581034.1600000001,"ADDRESS":"下寮１６９號之１２","OBJECTID":86503},"geometry":{"x":183877.99000000115,"y":2581034.160000002}},{"attributes":{"ID":86504,"DIS_CODE":0,"TOWNNAME":"後壁區","LI":"福安里","LIN":"15鄰","STREET":" ","SECT":" ","MAREA":"下寮","LANE":" ","ALLEY":" ","HOUSE_NO":"１６９號之１","E_COORD97":183879.39999999999,"N_COORD97":2580994.52,"ADDRESS":"下寮１６９號之１","OBJECTID":86504},"geometry":{"x":183879.40000000037,"y":2580994.5199999996}},{"attributes":{"ID":86505,"DIS_CODE":0,"TOWNNAME":"仁德區","LI":"仁德里","LIN":"15鄰","STREET":"仁德一街","SECT":" ","MAREA":" ","LANE":" ","ALLEY":" ","HOUSE_NO":"５６號","E_COORD97":173176.48000000001,"N_COORD97":2541283.5,"ADDRESS":"仁德一街５６號","OBJECTID":86505},"geometry":{"x":173176.48000000138,"y":2541283.5}},{"attributes":{"ID":86506,"DIS_CODE":0,"TOWNNAME":"後壁區","LI":"福安里","LIN":"15鄰","STREET":" ","SECT":" ","MAREA":"下寮","LANE":" ","ALLEY":" ","HOUSE_NO":"１９７號","E_COORD97":182991.34,"N_COORD97":2580882.5,"ADDRESS":"下寮１９７號","OBJECTID":86506},"geometry":{"x":182991.34000000078,"y":2580882.5000000019}},{"attributes":{"ID":86507,"DIS_CODE":0,"TOWNNAME":"將軍區","LI":"玉山里","LIN":"10鄰","STREET":" ","SECT":" ","MAREA":"玉山","LANE":" ","ALLEY":" ","HOUSE_NO":"８５號","E_COORD97":160344.29000000001,"N_COORD97":2567762.8399999999,"ADDRESS":"玉山８５號","OBJECTID":86507},"geometry":{"x":160344.29000000097,"y":2567762.8400000017}},{"attributes":{"ID":86508,"DIS_CODE":0,"TOWNNAME":"仁德區","LI":"上崙里","LIN":"12鄰","STREET":"德崙路","SECT":" ","MAREA":" ","LANE":"３９５巷","ALLEY":"１８弄","HOUSE_NO":"１０號","E_COORD97":174222.14999999999,"N_COORD97":2538137.52,"ADDRESS":"德崙路３９５巷１８弄１０號","OBJECTID":86508},"geometry":{"x":174222.15000000224,"y":2538137.5199999996}},{"attributes":{"ID":86509,"DIS_CODE":0,"TOWNNAME":"北區","LI":"華興里","LIN":"8鄰","STREET":"南園街","SECT":" ","MAREA":" ","LANE":" ","ALLEY":" ","HOUSE_NO":"１３０號之１","E_COORD97":170619.48999999999,"N_COORD97":2545298.1200000001,"ADDRESS":"南園街１３０號之１","OBJECTID":86509},"geometry":{"x":170619.49000000115,"y":2545298.120000001}},{"attributes":{"ID":86510,"DIS_CODE":0,"TOWNNAME":"後壁區","LI":"福安里","LIN":"15鄰","STREET":" ","SECT":" ","MAREA":"下寮","LANE":" ","ALLEY":" ","HOUSE_NO":"２０５號之１","E_COORD97":182745.85999999999,"N_COORD97":2580712.8599999999,"ADDRESS":"下寮２０５號之１","OBJECTID":86510},"geometry":{"x":182745.8600000022,"y":2580712.8600000013}},{"attributes":{"ID":86511,"DIS_CODE":0,"TOWNNAME":"仁德區","LI":"上崙里","LIN":"12鄰","STREET":"德崙路","SECT":" ","MAREA":" ","LANE":"３９５巷","ALLEY":"１８弄","HOUSE_NO":"２０號","E_COORD97":174247.56,"N_COORD97":2538132.52,"ADDRESS":"德崙路３９５巷１８弄２０號","OBJECTID":86511},"geometry":{"x":174247.56000000052,"y":2538132.5200000014}},{"attributes":{"ID":86512,"DIS_CODE":0,"TOWNNAME":"仁德區","LI":"上崙里","LIN":"12鄰","STREET":"德崙路","SECT":" ","MAREA":" ","LANE":"３９５巷","ALLEY":"１８弄","HOUSE_NO":"２５號","E_COORD97":174234.79000000001,"N_COORD97":2538158.52,"ADDRESS":"德崙路３９５巷１８弄２５號","OBJECTID":86512},"geometry":{"x":174234.79000000097,"y":2538158.5200000033}},{"attributes":{"ID":86513,"DIS_CODE":0,"TOWNNAME":"後壁區","LI":"新嘉里","LIN":"15鄰","STREET":" ","SECT":" ","MAREA":"白沙屯","LANE":" ","ALLEY":" ","HOUSE_NO":"１６０號之３","E_COORD97":179477.91,"N_COORD97":2585418.0600000001,"ADDRESS":"白沙屯１６０號之３","OBJECTID":86513},"geometry":{"x":179477.91000000015,"y":2585418.0600000024}},{"attributes":{"ID":86514,"DIS_CODE":0,"TOWNNAME":"東區","LI":"後甲里","LIN":"12鄰","STREET":"裕農路","SECT":" ","MAREA":" ","LANE":"６６１巷","ALLEY":"２８弄","HOUSE_NO":"３號","E_COORD97":171748.79000000001,"N_COORD97":2543320.04,"ADDRESS":"裕農路６６１巷２８弄３號","OBJECTID":86514},"geometry":{"x":171748.79000000004,"y":2543320.0399999991}},{"attributes":{"ID":86515,"DIS_CODE":0,"TOWNNAME":"東區","LI":"後甲里","LIN":"12鄰","STREET":"裕農路","SECT":" ","MAREA":" ","LANE":"６６１巷","ALLEY":"２８弄","HOUSE_NO":"２號","E_COORD97":171749.85000000001,"N_COORD97":2543310.5099999998,"ADDRESS":"裕農路６６１巷２８弄２號","OBJECTID":86515},"geometry":{"x":171749.84999999963,"y":2543310.5099999998}},{"attributes":{"ID":86516,"DIS_CODE":0,"TOWNNAME":"後壁區","LI":"新嘉里","LIN":"15鄰","STREET":" ","SECT":" ","MAREA":"白沙屯","LANE":" ","ALLEY":" ","HOUSE_NO":"１６０號之５","E_COORD97":179380.25,"N_COORD97":2585436.1499999999,"ADDRESS":"白沙屯１６０號之５","OBJECTID":86516},"geometry":{"x":179380.25000000093,"y":2585436.1500000004}},{"attributes":{"ID":86517,"DIS_CODE":0,"TOWNNAME":"東區","LI":"後甲里","LIN":"12鄰","STREET":"裕農路","SECT":" ","MAREA":" ","LANE":"６６１巷","ALLEY":"２８弄","HOUSE_NO":"６號","E_COORD97":171758.32999999999,"N_COORD97":2543310.5099999998,"ADDRESS":"裕農路６６１巷２８弄６號","OBJECTID":86517},"geometry":{"x":171758.33000000007,"y":2543310.5099999998}},{"attributes":{"ID":86518,"DIS_CODE":0,"TOWNNAME":"後壁區","LI":"新嘉里","LIN":"15鄰","STREET":" ","SECT":" ","MAREA":"白沙屯","LANE":" ","ALLEY":" ","HOUSE_NO":"１６０號之７","E_COORD97":179488.01999999999,"N_COORD97":2585447.2599999998,"ADDRESS":"白沙屯１６０號之７","OBJECTID":86518},"geometry":{"x":179488.02000000048,"y":2585447.2600000016}},{"attributes":{"ID":86519,"DIS_CODE":0,"TOWNNAME":"東區","LI":"後甲里","LIN":"12鄰","STREET":"裕農路","SECT":" ","MAREA":" ","LANE":"６６１巷","ALLEY":"２８弄","HOUSE_NO":"８號","E_COORD97":171765.48000000001,"N_COORD97":2543310.5099999998,"ADDRESS":"裕農路６６１巷２８弄８號","OBJECTID":86519},"geometry":{"x":171765.48000000138,"y":2543310.5099999998}},{"attributes":{"ID":86520,"DIS_CODE":0,"TOWNNAME":"東區","LI":"後甲里","LIN":"12鄰","STREET":"裕農路","SECT":" ","MAREA":" ","LANE":"６６１巷","ALLEY":"２８弄","HOUSE_NO":"４號","E_COORD97":171753.82000000001,"N_COORD97":2543311.8300000001,"ADDRESS":"裕農路６６１巷２８弄４號","OBJECTID":86520},"geometry":{"x":171753.8200000003,"y":2543311.8300000001}},{"attributes":{"ID":86521,"DIS_CODE":0,"TOWNNAME":"後壁區","LI":"新嘉里","LIN":"15鄰","STREET":" ","SECT":" ","MAREA":"白沙屯","LANE":" ","ALLEY":" ","HOUSE_NO":"１６０號之８","E_COORD97":179181.38,"N_COORD97":2585428.1000000001,"ADDRESS":"白沙屯１６０號之８","OBJECTID":86521},"geometry":{"x":179181.37999999989,"y":2585428.1000000015}},{"attributes":{"ID":86522,"DIS_CODE":0,"TOWNNAME":"後壁區","LI":"新嘉里","LIN":"15鄰","STREET":" ","SECT":" ","MAREA":"白沙屯","LANE":" ","ALLEY":" ","HOUSE_NO":"１６０號","E_COORD97":179405.09,"N_COORD97":2585438.5600000001,"ADDRESS":"白沙屯１６０號","OBJECTID":86522},"geometry":{"x":179405.08999999985,"y":2585438.5600000024}},{"attributes":{"ID":86523,"DIS_CODE":0,"TOWNNAME":"東區","LI":"後甲里","LIN":"12鄰","STREET":"裕農路","SECT":" ","MAREA":" ","LANE":"６６１巷","ALLEY":"２８弄","HOUSE_NO":"７號","E_COORD97":171757.53,"N_COORD97":2543322.1499999999,"ADDRESS":"裕農路６６１巷２８弄７號","OBJECTID":86523},"geometry":{"x":171757.53000000026,"y":2543322.1500000022}},{"attributes":{"ID":86524,"DIS_CODE":0,"TOWNNAME":"東區","LI":"後甲里","LIN":"12鄰","STREET":"裕農路","SECT":" ","MAREA":" ","LANE":"６６１巷","ALLEY":"２８弄","HOUSE_NO":"９號","E_COORD97":171763.35999999999,"N_COORD97":2543322.4199999999,"ADDRESS":"裕農路６６１巷２８弄９號","OBJECTID":86524},"geometry":{"x":171763.36000000127,"y":2543322.4199999999}},{"attributes":{"ID":86525,"DIS_CODE":0,"TOWNNAME":"後壁區","LI":"新嘉里","LIN":"15鄰","STREET":" ","SECT":" ","MAREA":"白沙屯","LANE":" ","ALLEY":" ","HOUSE_NO":"１６１號之１","E_COORD97":179484.98999999999,"N_COORD97":2585472.1899999999,"ADDRESS":"白沙屯１６１號之１","OBJECTID":86525},"geometry":{"x":179484.99000000209,"y":2585472.1899999995}},{"attributes":{"ID":86526,"DIS_CODE":0,"TOWNNAME":"仁德區","LI":"太子里","LIN":"15鄰","STREET":"長興路","SECT":" ","MAREA":" ","LANE":" ","ALLEY":" ","HOUSE_NO":"４２號","E_COORD97":174142.04000000001,"N_COORD97":2543679.75,"ADDRESS":"長興路４２號","OBJECTID":86526},"geometry":{"x":174142.04000000004,"y":2543679.75}},{"attributes":{"ID":86527,"DIS_CODE":0,"TOWNNAME":"仁德區","LI":"保安里","LIN":"15鄰","STREET":"文賢路","SECT":"二段","MAREA":" ","LANE":" ","ALLEY":" ","HOUSE_NO":"６號","E_COORD97":171679.62,"N_COORD97":2535841.5800000001,"ADDRESS":"文賢路二段６號","OBJECTID":86527},"geometry":{"x":171679.62000000104,"y":2535841.5800000001}},{"attributes":{"ID":86528,"DIS_CODE":0,"TOWNNAME":"後壁區","LI":"新嘉里","LIN":"15鄰","STREET":" ","SECT":" ","MAREA":"白沙屯","LANE":" ","ALLEY":" ","HOUSE_NO":"１６１號之２","E_COORD97":179474.82999999999,"N_COORD97":2585471.2000000002,"ADDRESS":"白沙屯１６１號之２","OBJECTID":86528},"geometry":{"x":179474.83000000007,"y":2585471.1999999993}},{"attributes":{"ID":86529,"DIS_CODE":0,"TOWNNAME":"後壁區","LI":"新嘉里","LIN":"15鄰","STREET":" ","SECT":" ","MAREA":"白沙屯","LANE":" ","ALLEY":" ","HOUSE_NO":"１６２號","E_COORD97":179516.51999999999,"N_COORD97":2585471.1800000002,"ADDRESS":"白沙屯１６２號","OBJECTID":86529},"geometry":{"x":179516.52000000048,"y":2585471.1800000016}},{"attributes":{"ID":86530,"DIS_CODE":0,"TOWNNAME":"仁德區","LI":"仁德里","LIN":"15鄰","STREET":"中山路","SECT":" ","MAREA":" ","LANE":" ","ALLEY":" ","HOUSE_NO":"６４９號","E_COORD97":173201.19,"N_COORD97":2541330.75,"ADDRESS":"中山路６４９號","OBJECTID":86530},"geometry":{"x":173201.19000000041,"y":2541330.7500000037}},{"attributes":{"ID":86531,"DIS_CODE":0,"TOWNNAME":"仁德區","LI":"後壁里","LIN":"15鄰","STREET":"德南路","SECT":" ","MAREA":" ","LANE":" ","ALLEY":" ","HOUSE_NO":"１４３之３號","E_COORD97":173583.59,"N_COORD97":2538634.79,"ADDRESS":"德南路１４３之３號","OBJECTID":86531},"geometry":{"x":173583.59000000078,"y":2538634.790000001}},{"attributes":{"ID":86532,"DIS_CODE":0,"TOWNNAME":"仁德區","LI":"後壁里","LIN":"15鄰","STREET":"德南路","SECT":" ","MAREA":" ","LANE":" ","ALLEY":" ","HOUSE_NO":"１４９號","E_COORD97":173588.42999999999,"N_COORD97":2538600.7599999998,"ADDRESS":"德南路１４９號","OBJECTID":86532},"geometry":{"x":173588.4299999997,"y":2538600.7599999979}},{"attributes":{"ID":86533,"DIS_CODE":0,"TOWNNAME":"仁德區","LI":"後壁里","LIN":"15鄰","STREET":"德南路","SECT":" ","MAREA":" ","LANE":" ","ALLEY":" ","HOUSE_NO":"５９號","E_COORD97":173412.20999999999,"N_COORD97":2538733.7599999998,"ADDRESS":"德南路５９號","OBJECTID":86533},"geometry":{"x":173412.20999999996,"y":2538733.7600000016}},{"attributes":{"ID":86534,"DIS_CODE":0,"TOWNNAME":"仁德區","LI":"後壁里","LIN":"15鄰","STREET":"德南路","SECT":" ","MAREA":" ","LANE":" ","ALLEY":" ","HOUSE_NO":"８７號","E_COORD97":173468.04000000001,"N_COORD97":2538690.7599999998,"ADDRESS":"德南路８７號","OBJECTID":86534},"geometry":{"x":173468.03999999911,"y":2538690.7600000016}},{"attributes":{"ID":86535,"DIS_CODE":0,"TOWNNAME":"七股區","LI":"大埕里","LIN":"12鄰","STREET":" ","SECT":" ","MAREA":"大埕","LANE":" ","ALLEY":" ","HOUSE_NO":"４１３號之２４","E_COORD97":161976.51999999999,"N_COORD97":2560039.8999999999,"ADDRESS":"大埕４１３號之２４","OBJECTID":86535},"geometry":{"x":161976.52000000048,"y":2560039.9000000004}},{"attributes":{"ID":86536,"DIS_CODE":0,"TOWNNAME":"七股區","LI":"大埕里","LIN":"12鄰","STREET":" ","SECT":" ","MAREA":"大埕","LANE":" ","ALLEY":" ","HOUSE_NO":"４１３號之２５","E_COORD97":161980.62,"N_COORD97":2560041.48,"ADDRESS":"大埕４１３號之２５","OBJECTID":86536},"geometry":{"x":161980.62000000011,"y":2560041.4800000023}},{"attributes":{"ID":86537,"DIS_CODE":0,"TOWNNAME":"安南區","LI":"溪頂里","LIN":"28鄰","STREET":"郡安路","SECT":"四段","MAREA":" ","LANE":"２７８巷","ALLEY":"１５弄","HOUSE_NO":"２號","E_COORD97":168601.66,"N_COORD97":2547581.1400000001,"ADDRESS":"郡安路四段２７８巷１５弄２號","OBJECTID":86537},"geometry":{"x":168601.66000000015,"y":2547581.1400000025}},{"attributes":{"ID":86538,"DIS_CODE":0,"TOWNNAME":"七股區","LI":"大埕里","LIN":"12鄰","STREET":" ","SECT":" ","MAREA":"大埕","LANE":" ","ALLEY":" ","HOUSE_NO":"４１３號之２６","E_COORD97":161984.73000000001,"N_COORD97":2560043.0600000001,"ADDRESS":"大埕４１３號之２６","OBJECTID":86538},"geometry":{"x":161984.73000000138,"y":2560043.0600000005}},{"attributes":{"ID":86539,"DIS_CODE":0,"TOWNNAME":"安南區","LI":"溪頂里","LIN":"27鄰","STREET":"郡安路","SECT":"四段","MAREA":" ","LANE":"２７８巷","ALLEY":"１５弄","HOUSE_NO":"１號","E_COORD97":168611.01999999999,"N_COORD97":2547604.1099999999,"ADDRESS":"郡安路四段２７８巷１５弄１號","OBJECTID":86539},"geometry":{"x":168611.02000000142,"y":2547604.1100000013}},{"attributes":{"ID":86540,"DIS_CODE":0,"TOWNNAME":"七股區","LI":"大埕里","LIN":"12鄰","STREET":" ","SECT":" ","MAREA":"大埕","LANE":" ","ALLEY":" ","HOUSE_NO":"４１３號之２７","E_COORD97":161989.76999999999,"N_COORD97":2560040.3599999999,"ADDRESS":"大埕４１３號之２７","OBJECTID":86540},"geometry":{"x":161989.77000000142,"y":2560040.3599999994}},{"attributes":{"ID":86541,"DIS_CODE":0,"TOWNNAME":"七股區","LI":"大埕里","LIN":"12鄰","STREET":" ","SECT":" ","MAREA":"大埕","LANE":" ","ALLEY":" ","HOUSE_NO":"４１３號之２８","E_COORD97":161990.82999999999,"N_COORD97":2560037.5499999998,"ADDRESS":"大埕４１３號之２８","OBJECTID":86541},"geometry":{"x":161990.83000000007,"y":2560037.5500000045}},{"attributes":{"ID":86542,"DIS_CODE":0,"TOWNNAME":"七股區","LI":"大埕里","LIN":"12鄰","STREET":" ","SECT":" ","MAREA":"大埕","LANE":" ","ALLEY":" ","HOUSE_NO":"４１３號之２９","E_COORD97":161969.92999999999,"N_COORD97":2560053.04,"ADDRESS":"大埕４１３號之２９","OBJECTID":86542},"geometry":{"x":161969.9299999997,"y":2560053.040000001}},{"attributes":{"ID":86543,"DIS_CODE":0,"TOWNNAME":"安南區","LI":"溪頂里","LIN":"28鄰","STREET":"郡安路","SECT":"四段","MAREA":" ","LANE":"２７８巷","ALLEY":"１５弄","HOUSE_NO":"１８號","E_COORD97":168622.82999999999,"N_COORD97":2547535.9300000002,"ADDRESS":"郡安路四段２７８巷１５弄１８號","OBJECTID":86543},"geometry":{"x":168622.83000000007,"y":2547535.9299999997}},{"attributes":{"ID":86544,"DIS_CODE":0,"TOWNNAME":"東區","LI":"仁和里","LIN":"12鄰","STREET":"仁和路","SECT":" ","MAREA":" ","LANE":"１３９巷","ALLEY":"５１弄","HOUSE_NO":"１８號之１１","E_COORD97":171771.23000000001,"N_COORD97":2541199.8399999999,"ADDRESS":"仁和路１３９巷５１弄１８號之１１","OBJECTID":86544},"geometry":{"x":171771.23000000138,"y":2541199.8399999999}},{"attributes":{"ID":86545,"DIS_CODE":0,"TOWNNAME":"永康區","LI":"尚頂里","LIN":"12鄰","STREET":"正南一街","SECT":" ","MAREA":" ","LANE":"９２巷","ALLEY":"３７弄","HOUSE_NO":"６號","E_COORD97":171097.98000000001,"N_COORD97":2547414.0699999998,"ADDRESS":"正南一街９２巷３７弄６號","OBJECTID":86545},"geometry":{"x":171097.98000000138,"y":2547414.0700000003}},{"attributes":{"ID":86546,"DIS_CODE":0,"TOWNNAME":"七股區","LI":"大埕里","LIN":"12鄰","STREET":" ","SECT":" ","MAREA":"大埕","LANE":" ","ALLEY":" ","HOUSE_NO":"４１３號之３０","E_COORD97":161965.91,"N_COORD97":2560052.8399999999,"ADDRESS":"大埕４１３號之３０","OBJECTID":86546},"geometry":{"x":161965.91000000108,"y":2560052.8400000017}},{"attributes":{"ID":86547,"DIS_CODE":0,"TOWNNAME":"永康區","LI":"成功里","LIN":"12鄰","STREET":"忠孝路","SECT":" ","MAREA":" ","LANE":"２０３巷","ALLEY":"４２弄","HOUSE_NO":"６號","E_COORD97":171977.67999999999,"N_COORD97":2544908.5299999998,"ADDRESS":"忠孝路２０３巷４２弄６號","OBJECTID":86547},"geometry":{"x":171977.6799999997,"y":2544908.5300000012}},{"attributes":{"ID":86548,"DIS_CODE":0,"TOWNNAME":"安南區","LI":"城南里","LIN":"12鄰","STREET":"城西街","SECT":"二段","MAREA":" ","LANE":"３１８巷","ALLEY":"４２７弄","HOUSE_NO":"２１號","E_COORD97":159393.10999999999,"N_COORD97":2551525.7200000002,"ADDRESS":"城西街二段３１８巷４２７弄２１號","OBJECTID":86548},"geometry":{"x":159393.11000000127,"y":2551525.7200000007}},{"attributes":{"ID":86549,"DIS_CODE":0,"TOWNNAME":"安南區","LI":"城南里","LIN":"12鄰","STREET":"城西街","SECT":"二段","MAREA":" ","LANE":"３１８巷","ALLEY":"４２７弄","HOUSE_NO":"５１號","E_COORD97":159307.01000000001,"N_COORD97":2551483.3900000001,"ADDRESS":"城西街二段３１８巷４２７弄５１號","OBJECTID":86549},"geometry":{"x":159307.01000000071,"y":2551483.3900000006}},{"attributes":{"ID":86550,"DIS_CODE":0,"TOWNNAME":"麻豆區","LI":"海埔里","LIN":"12鄰","STREET":" ","SECT":" ","MAREA":"海埔","LANE":" ","ALLEY":" ","HOUSE_NO":"７４號","E_COORD97":169452,"N_COORD97":2567210.79,"ADDRESS":"海埔７４號","OBJECTID":86550},"geometry":{"x":169452,"y":2567210.7899999991}},{"attributes":{"ID":86551,"DIS_CODE":0,"TOWNNAME":"安南區","LI":"城南里","LIN":"12鄰","STREET":"城西街","SECT":"二段","MAREA":" ","LANE":"３１８巷","ALLEY":"４２７弄","HOUSE_NO":"５２號","E_COORD97":159301.75,"N_COORD97":2551458.5600000001,"ADDRESS":"城西街二段３１８巷４２７弄５２號","OBJECTID":86551},"geometry":{"x":159301.75000000186,"y":2551458.5600000005}},{"attributes":{"ID":86552,"DIS_CODE":0,"TOWNNAME":"安南區","LI":"城南里","LIN":"12鄰","STREET":"城西街","SECT":"二段","MAREA":" ","LANE":"３１８巷","ALLEY":"４２８弄","HOUSE_NO":"８０號","E_COORD97":159594.20999999999,"N_COORD97":2551558.3599999999,"ADDRESS":"城西街二段３１８巷４２８弄８０號","OBJECTID":86552},"geometry":{"x":159594.21000000089,"y":2551558.3600000013}},{"attributes":{"ID":86553,"DIS_CODE":0,"TOWNNAME":"七股區","LI":"大埕里","LIN":"12鄰","STREET":" ","SECT":" ","MAREA":"大埕","LANE":" ","ALLEY":" ","HOUSE_NO":"４１３號之３１","E_COORD97":161961.37,"N_COORD97":2560051.2400000002,"ADDRESS":"大埕４１３號之３１","OBJECTID":86553},"geometry":{"x":161961.37000000104,"y":2560051.2400000002}},{"attributes":{"ID":86554,"DIS_CODE":0,"TOWNNAME":"七股區","LI":"大埕里","LIN":"12鄰","STREET":" ","SECT":" ","MAREA":"大埕","LANE":" ","ALLEY":" ","HOUSE_NO":"４１３號之３２","E_COORD97":161957.34,"N_COORD97":2560049.1899999999,"ADDRESS":"大埕４１３號之３２","OBJECTID":86554},"geometry":{"x":161957.34000000171,"y":2560049.1900000013}},{"attributes":{"ID":86555,"DIS_CODE":0,"TOWNNAME":"七股區","LI":"大埕里","LIN":"12鄰","STREET":" ","SECT":" ","MAREA":"大埕","LANE":" ","ALLEY":" ","HOUSE_NO":"４１３號之３３","E_COORD97":161952.95000000001,"N_COORD97":2560047.5499999998,"ADDRESS":"大埕４１３號之３３","OBJECTID":86555},"geometry":{"x":161952.95000000019,"y":2560047.5500000045}},{"attributes":{"ID":86556,"DIS_CODE":0,"TOWNNAME":"仁德區","LI":"太子里","LIN":"15鄰","STREET":"長興路","SECT":" ","MAREA":" ","LANE":" ","ALLEY":" ","HOUSE_NO":"９１號","E_COORD97":174147.47,"N_COORD97":2543830.2599999998,"ADDRESS":"長興路９１號","OBJECTID":86556},"geometry":{"x":174147.46999999974,"y":2543830.2600000016}},{"attributes":{"ID":86557,"DIS_CODE":0,"TOWNNAME":"七股區","LI":"大埕里","LIN":"12鄰","STREET":" ","SECT":" ","MAREA":"大埕","LANE":" ","ALLEY":" ","HOUSE_NO":"４１３號之３４","E_COORD97":161949.06,"N_COORD97":2560046.1800000002,"ADDRESS":"大埕４１３號之３４","OBJECTID":86557},"geometry":{"x":161949.06000000052,"y":2560046.1800000016}},{"attributes":{"ID":86558,"DIS_CODE":0,"TOWNNAME":"安平區","LI":"華平里","LIN":"5鄰","STREET":"健康二街","SECT":" ","MAREA":" ","LANE":" ","ALLEY":" ","HOUSE_NO":"５３１號","E_COORD97":165367.17000000001,"N_COORD97":2544086.4700000002,"ADDRESS":"健康二街５３１號","OBJECTID":86558},"geometry":{"x":165367.16999999993,"y":2544086.4700000025}},{"attributes":{"ID":86559,"DIS_CODE":0,"TOWNNAME":"七股區","LI":"大埕里","LIN":"12鄰","STREET":" ","SECT":" ","MAREA":"大埕","LANE":" ","ALLEY":" ","HOUSE_NO":"４１３號之３５","E_COORD97":161944.59,"N_COORD97":2560045.3900000001,"ADDRESS":"大埕４１３號之３５","OBJECTID":86559},"geometry":{"x":161944.58999999985,"y":2560045.3900000043}},{"attributes":{"ID":86560,"DIS_CODE":0,"TOWNNAME":"七股區","LI":"大埕里","LIN":"12鄰","STREET":" ","SECT":" ","MAREA":"大埕","LANE":" ","ALLEY":" ","HOUSE_NO":"４１３號之３６","E_COORD97":161946.03,"N_COORD97":2560054.8300000001,"ADDRESS":"大埕４１３號之３６","OBJECTID":86560},"geometry":{"x":161946.03000000026,"y":2560054.8300000001}},{"attributes":{"ID":86561,"DIS_CODE":0,"TOWNNAME":"安平區","LI":"建平里","LIN":"14鄰","STREET":"建平十三街","SECT":" ","MAREA":" ","LANE":" ","ALLEY":" ","HOUSE_NO":"９６號","E_COORD97":166040.22,"N_COORD97":2544040.9399999999,"ADDRESS":"建平十三街９６號","OBJECTID":86561},"geometry":{"x":166040.22000000067,"y":2544040.9400000032}},{"attributes":{"ID":86562,"DIS_CODE":0,"TOWNNAME":"仁德區","LI":"新田里","LIN":"15鄰","STREET":"民安路","SECT":"二段","MAREA":" ","LANE":" ","ALLEY":" ","HOUSE_NO":"５９號","E_COORD97":173429.29000000001,"N_COORD97":2539233.5600000001,"ADDRESS":"民安路二段５９號","OBJECTID":86562},"geometry":{"x":173429.2900000019,"y":2539233.5599999987}},{"attributes":{"ID":86563,"DIS_CODE":0,"TOWNNAME":"七股區","LI":"大埕里","LIN":"12鄰","STREET":" ","SECT":" ","MAREA":"大埕","LANE":" ","ALLEY":" ","HOUSE_NO":"４１３號之３７","E_COORD97":161946.17000000001,"N_COORD97":2560059.6400000001,"ADDRESS":"大埕４１３號之３７","OBJECTID":86563},"geometry":{"x":161946.16999999993,"y":2560059.6400000006}},{"attributes":{"ID":86564,"DIS_CODE":0,"TOWNNAME":"七股區","LI":"大埕里","LIN":"12鄰","STREET":" ","SECT":" ","MAREA":"大埕","LANE":" ","ALLEY":" ","HOUSE_NO":"４１３號之３８","E_COORD97":161930.81,"N_COORD97":2560066.0299999998,"ADDRESS":"大埕４１３號之３８","OBJECTID":86564},"geometry":{"x":161930.81000000052,"y":2560066.0299999993}},{"attributes":{"ID":86565,"DIS_CODE":0,"TOWNNAME":"仁德區","LI":"太子里","LIN":"15鄰","STREET":"長興路","SECT":" ","MAREA":" ","LANE":" ","ALLEY":" ","HOUSE_NO":"５３號","E_COORD97":174122.39999999999,"N_COORD97":2543687.5,"ADDRESS":"長興路５３號","OBJECTID":86565},"geometry":{"x":174122.4000000013,"y":2543687.5}},{"attributes":{"ID":86566,"DIS_CODE":0,"TOWNNAME":"仁德區","LI":"後壁里","LIN":"15鄰","STREET":"德南路","SECT":" ","MAREA":" ","LANE":" ","ALLEY":" ","HOUSE_NO":"６９號","E_COORD97":173433.87,"N_COORD97":2538716.5099999998,"ADDRESS":"德南路６９號","OBJECTID":86566},"geometry":{"x":173433.87000000197,"y":2538716.5099999998}},{"attributes":{"ID":86567,"DIS_CODE":0,"TOWNNAME":"安南區","LI":"城南里","LIN":"12鄰","STREET":"城西街","SECT":"二段","MAREA":" ","LANE":"３１８巷","ALLEY":"４２８弄","HOUSE_NO":"８０號之８０","E_COORD97":159427.47,"N_COORD97":2551663.3300000001,"ADDRESS":"城西街二段３１８巷４２８弄８０號之８０","OBJECTID":86567},"geometry":{"x":159427.47000000067,"y":2551663.3300000001}},{"attributes":{"ID":86568,"DIS_CODE":0,"TOWNNAME":"安南區","LI":"城南里","LIN":"12鄰","STREET":"城西街","SECT":"二段","MAREA":" ","LANE":"６２８巷","ALLEY":"２２５弄","HOUSE_NO":"７０號","E_COORD97":158675.06,"N_COORD97":2551552.7799999998,"ADDRESS":"城西街二段６２８巷２２５弄７０號","OBJECTID":86568},"geometry":{"x":158675.05999999959,"y":2551552.7800000012}},{"attributes":{"ID":86569,"DIS_CODE":0,"TOWNNAME":"安南區","LI":"安和里","LIN":"12鄰","STREET":"安和路","SECT":"一段","MAREA":" ","LANE":"５２巷","ALLEY":"６９弄","HOUSE_NO":"１０號","E_COORD97":169724.29000000001,"N_COORD97":2547624.4300000002,"ADDRESS":"安和路一段５２巷６９弄１０號","OBJECTID":86569},"geometry":{"x":169724.29000000097,"y":2547624.4299999997}},{"attributes":{"ID":86570,"DIS_CODE":0,"TOWNNAME":"安南區","LI":"安和里","LIN":"12鄰","STREET":"安和路","SECT":"一段","MAREA":" ","LANE":"５２巷","ALLEY":"６９弄","HOUSE_NO":"１２號","E_COORD97":169730.26999999999,"N_COORD97":2547627.0699999998,"ADDRESS":"安和路一段５２巷６９弄１２號","OBJECTID":86570},"geometry":{"x":169730.27000000048,"y":2547627.0700000003}},{"attributes":{"ID":86571,"DIS_CODE":0,"TOWNNAME":"安南區","LI":"安和里","LIN":"12鄰","STREET":"安和路","SECT":"一段","MAREA":" ","LANE":"５２巷","ALLEY":"６９弄","HOUSE_NO":"１６號","E_COORD97":169740.84,"N_COORD97":2547632.3500000001,"ADDRESS":"安和路一段５２巷６９弄１６號","OBJECTID":86571},"geometry":{"x":169740.83999999985,"y":2547632.3500000034}},{"attributes":{"ID":86572,"DIS_CODE":0,"TOWNNAME":"安南區","LI":"安和里","LIN":"12鄰","STREET":"安和路","SECT":"一段","MAREA":" ","LANE":"５２巷","ALLEY":"６９弄","HOUSE_NO":"１８號","E_COORD97":169745.23999999999,"N_COORD97":2547635.3399999999,"ADDRESS":"安和路一段５２巷６９弄１８號","OBJECTID":86572},"geometry":{"x":169745.24000000022,"y":2547635.3399999999}},{"attributes":{"ID":86573,"DIS_CODE":0,"TOWNNAME":"七股區","LI":"大埕里","LIN":"12鄰","STREET":" ","SECT":" ","MAREA":"大埕","LANE":" ","ALLEY":" ","HOUSE_NO":"４１３號之３９","E_COORD97":161930.19,"N_COORD97":2560060.8700000001,"ADDRESS":"大埕４１３號之３９","OBJECTID":86573},"geometry":{"x":161930.19000000227,"y":2560060.8700000029}},{"attributes":{"ID":86574,"DIS_CODE":0,"TOWNNAME":"七股區","LI":"大埕里","LIN":"12鄰","STREET":" ","SECT":" ","MAREA":"大埕","LANE":" ","ALLEY":" ","HOUSE_NO":"４１３號之４０","E_COORD97":161929.29000000001,"N_COORD97":2560055.6699999999,"ADDRESS":"大埕４１３號之４０","OBJECTID":86574},"geometry":{"x":161929.29000000097,"y":2560055.6699999999}},{"attributes":{"ID":86575,"DIS_CODE":0,"TOWNNAME":"安平區","LI":"文平里","LIN":"24鄰","STREET":"永華二街","SECT":" ","MAREA":" ","LANE":"４０巷","ALLEY":" ","HOUSE_NO":"９１號","E_COORD97":166232.53,"N_COORD97":2542904.02,"ADDRESS":"永華二街４０巷９１號","OBJECTID":86575},"geometry":{"x":166232.53000000119,"y":2542904.0199999996}},{"attributes":{"ID":86576,"DIS_CODE":0,"TOWNNAME":"七股區","LI":"大埕里","LIN":"12鄰","STREET":" ","SECT":" ","MAREA":"大埕","LANE":" ","ALLEY":" ","HOUSE_NO":"４１３號之４１","E_COORD97":161928.81,"N_COORD97":2560050.3100000001,"ADDRESS":"大埕４１３號之４１","OBJECTID":86576},"geometry":{"x":161928.81000000052,"y":2560050.3100000024}},{"attributes":{"ID":86577,"DIS_CODE":0,"TOWNNAME":"七股區","LI":"大埕里","LIN":"12鄰","STREET":" ","SECT":" ","MAREA":"大埕","LANE":" ","ALLEY":" ","HOUSE_NO":"４１３號之４２","E_COORD97":161928.32000000001,"N_COORD97":2560044.96,"ADDRESS":"大埕４１３號之４２","OBJECTID":86577},"geometry":{"x":161928.3200000003,"y":2560044.9600000046}},{"attributes":{"ID":86578,"DIS_CODE":0,"TOWNNAME":"七股區","LI":"大埕里","LIN":"12鄰","STREET":" ","SECT":" ","MAREA":"大埕","LANE":" ","ALLEY":" ","HOUSE_NO":"４１３號之４３","E_COORD97":161927.84,"N_COORD97":2560039.6000000001,"ADDRESS":"大埕４１３號之４３","OBJECTID":86578},"geometry":{"x":161927.83999999985,"y":2560039.6000000015}},{"attributes":{"ID":86579,"DIS_CODE":0,"TOWNNAME":"七股區","LI":"大埕里","LIN":"12鄰","STREET":" ","SECT":" ","MAREA":"大埕","LANE":" ","ALLEY":" ","HOUSE_NO":"４１３號","E_COORD97":161965.10999999999,"N_COORD97":2560003.4199999999,"ADDRESS":"大埕４１３號","OBJECTID":86579},"geometry":{"x":161965.11000000127,"y":2560003.4199999981}},{"attributes":{"ID":86580,"DIS_CODE":0,"TOWNNAME":"七股區","LI":"大埕里","LIN":"12鄰","STREET":" ","SECT":" ","MAREA":"大埕","LANE":" ","ALLEY":" ","HOUSE_NO":"４１４號","E_COORD97":162024.20999999999,"N_COORD97":2560010.1000000001,"ADDRESS":"大埕４１４號","OBJECTID":86580},"geometry":{"x":162024.20999999996,"y":2560010.1000000015}},{"attributes":{"ID":86581,"DIS_CODE":0,"TOWNNAME":"七股區","LI":"大埕里","LIN":"12鄰","STREET":" ","SECT":" ","MAREA":"大埕","LANE":" ","ALLEY":" ","HOUSE_NO":"４１５號","E_COORD97":161991.51999999999,"N_COORD97":2560005.8900000001,"ADDRESS":"大埕４１５號","OBJECTID":86581},"geometry":{"x":161991.52000000048,"y":2560005.8900000025}},{"attributes":{"ID":86582,"DIS_CODE":0,"TOWNNAME":"七股區","LI":"大埕里","LIN":"12鄰","STREET":" ","SECT":" ","MAREA":"大埕","LANE":" ","ALLEY":" ","HOUSE_NO":"４１６號","E_COORD97":162027.72,"N_COORD97":2559999.9199999999,"ADDRESS":"大埕４１６號","OBJECTID":86582},"geometry":{"x":162027.72000000067,"y":2559999.9199999981}},{"attributes":{"ID":86583,"DIS_CODE":0,"TOWNNAME":"七股區","LI":"大埕里","LIN":"12鄰","STREET":" ","SECT":" ","MAREA":"大埕","LANE":" ","ALLEY":" ","HOUSE_NO":"４１７號","E_COORD97":162029.47,"N_COORD97":2559979.6099999999,"ADDRESS":"大埕４１７號","OBJECTID":86583},"geometry":{"x":162029.47000000067,"y":2559979.6100000013}},{"attributes":{"ID":86584,"DIS_CODE":0,"TOWNNAME":"七股區","LI":"大埕里","LIN":"12鄰","STREET":" ","SECT":" ","MAREA":"大埕","LANE":" ","ALLEY":" ","HOUSE_NO":"４１８號","E_COORD97":162010,"N_COORD97":2559972.73,"ADDRESS":"大埕４１８號","OBJECTID":86584},"geometry":{"x":162010,"y":2559972.7300000023}},{"attributes":{"ID":86585,"DIS_CODE":0,"TOWNNAME":"七股區","LI":"中寮里","LIN":"12鄰","STREET":" ","SECT":" ","MAREA":"中寮","LANE":" ","ALLEY":" ","HOUSE_NO":"８２號","E_COORD97":158822.03,"N_COORD97":2561681.0299999998,"ADDRESS":"中寮８２號","OBJECTID":86585},"geometry":{"x":158822.03000000212,"y":2561681.0300000012}},{"attributes":{"ID":86586,"DIS_CODE":0,"TOWNNAME":"七股區","LI":"中寮里","LIN":"12鄰","STREET":" ","SECT":" ","MAREA":"中寮","LANE":" ","ALLEY":" ","HOUSE_NO":"８３號","E_COORD97":158815.23000000001,"N_COORD97":2561702.6699999999,"ADDRESS":"中寮８３號","OBJECTID":86586},"geometry":{"x":158815.23000000045,"y":2561702.6699999999}},{"attributes":{"ID":86587,"DIS_CODE":0,"TOWNNAME":"七股區","LI":"中寮里","LIN":"12鄰","STREET":" ","SECT":" ","MAREA":"中寮","LANE":" ","ALLEY":" ","HOUSE_NO":"８４號","E_COORD97":158837.42999999999,"N_COORD97":2561706.48,"ADDRESS":"中寮８４號","OBJECTID":86587},"geometry":{"x":158837.43000000156,"y":2561706.4800000023}},{"attributes":{"ID":86588,"DIS_CODE":0,"TOWNNAME":"七股區","LI":"中寮里","LIN":"12鄰","STREET":" ","SECT":" ","MAREA":"中寮","LANE":" ","ALLEY":" ","HOUSE_NO":"８５號","E_COORD97":158863.76999999999,"N_COORD97":2561704.3199999998,"ADDRESS":"中寮８５號","OBJECTID":86588},"geometry":{"x":158863.77000000142,"y":2561704.3200000022}},{"attributes":{"ID":86589,"DIS_CODE":0,"TOWNNAME":"七股區","LI":"中寮里","LIN":"12鄰","STREET":" ","SECT":" ","MAREA":"中寮","LANE":" ","ALLEY":" ","HOUSE_NO":"８６號","E_COORD97":158806.89000000001,"N_COORD97":2561723.5499999998,"ADDRESS":"中寮８６號","OBJECTID":86589},"geometry":{"x":158806.88999999966,"y":2561723.5500000026}},{"attributes":{"ID":86590,"DIS_CODE":0,"TOWNNAME":"安平區","LI":"國平里","LIN":"18鄰","STREET":"永華路","SECT":"二段","MAREA":" ","LANE":" ","ALLEY":" ","HOUSE_NO":"７９３號","E_COORD97":164876.14999999999,"N_COORD97":2543529.8799999999,"ADDRESS":"永華路二段７９３號","OBJECTID":86590},"geometry":{"x":164876.15000000037,"y":2543529.8800000008}},{"attributes":{"ID":86591,"DIS_CODE":0,"TOWNNAME":"七股區","LI":"中寮里","LIN":"12鄰","STREET":" ","SECT":" ","MAREA":"中寮","LANE":" ","ALLEY":" ","HOUSE_NO":"８７號","E_COORD97":158829.76000000001,"N_COORD97":2561726.4700000002,"ADDRESS":"中寮８７號","OBJECTID":86591},"geometry":{"x":158829.75999999978,"y":2561726.4700000044}},{"attributes":{"ID":86592,"DIS_CODE":0,"TOWNNAME":"七股區","LI":"中寮里","LIN":"12鄰","STREET":" ","SECT":" ","MAREA":"中寮","LANE":" ","ALLEY":" ","HOUSE_NO":"８８號","E_COORD97":158847.24043100001,"N_COORD97":2561732.9174299999,"ADDRESS":"中寮８８號","OBJECTID":86592},"geometry":{"x":158847.24043100048,"y":2561732.917425001}},{"attributes":{"ID":86593,"DIS_CODE":0,"TOWNNAME":"七股區","LI":"大潭里","LIN":"12鄰","STREET":" ","SECT":" ","MAREA":"台潭","LANE":" ","ALLEY":" ","HOUSE_NO":"１２０號之１","E_COORD97":160907.54999999999,"N_COORD97":2565399.8199999998,"ADDRESS":"台潭１２０號之１","OBJECTID":86593},"geometry":{"x":160907.54999999981,"y":2565399.8200000022}},{"attributes":{"ID":86594,"DIS_CODE":0,"TOWNNAME":"七股區","LI":"大潭里","LIN":"12鄰","STREET":" ","SECT":" ","MAREA":"台潭","LANE":" ","ALLEY":" ","HOUSE_NO":"１２０號","E_COORD97":160898.28,"N_COORD97":2565432.4900000002,"ADDRESS":"台潭１２０號","OBJECTID":86594},"geometry":{"x":160898.28000000026,"y":2565432.4900000021}},{"attributes":{"ID":86595,"DIS_CODE":0,"TOWNNAME":"七股區","LI":"大潭里","LIN":"12鄰","STREET":" ","SECT":" ","MAREA":"台潭","LANE":" ","ALLEY":" ","HOUSE_NO":"１２２號","E_COORD97":160883.62,"N_COORD97":2565455.3500000001,"ADDRESS":"台潭１２２號","OBJECTID":86595},"geometry":{"x":160883.62000000011,"y":2565455.3500000034}},{"attributes":{"ID":86596,"DIS_CODE":0,"TOWNNAME":"仁德區","LI":"保安里","LIN":"15鄰","STREET":"中正路","SECT":"一段","MAREA":" ","LANE":" ","ALLEY":" ","HOUSE_NO":"２３０號","E_COORD97":171635.73999999999,"N_COORD97":2535823.52,"ADDRESS":"中正路一段２３０號","OBJECTID":86596},"geometry":{"x":171635.74000000022,"y":2535823.5200000014}},{"attributes":{"ID":86597,"DIS_CODE":0,"TOWNNAME":"七股區","LI":"大潭里","LIN":"12鄰","STREET":" ","SECT":" ","MAREA":"台潭","LANE":" ","ALLEY":" ","HOUSE_NO":"１２３號","E_COORD97":160895.06,"N_COORD97":2565475.2599999998,"ADDRESS":"台潭１２３號","OBJECTID":86597},"geometry":{"x":160895.06000000052,"y":2565475.2599999998}},{"attributes":{"ID":86598,"DIS_CODE":0,"TOWNNAME":"仁德區","LI":"後壁里","LIN":"15鄰","STREET":"德南路","SECT":" ","MAREA":" ","LANE":" ","ALLEY":" ","HOUSE_NO":"１５１號","E_COORD97":173592.32999999999,"N_COORD97":2538597.5099999998,"ADDRESS":"德南路１５１號","OBJECTID":86598},"geometry":{"x":173592.33000000101,"y":2538597.5100000016}},{"attributes":{"ID":86599,"DIS_CODE":0,"TOWNNAME":"仁德區","LI":"後壁里","LIN":"15鄰","STREET":"德南路","SECT":" ","MAREA":" ","LANE":" ","ALLEY":" ","HOUSE_NO":"１４３之４號","E_COORD97":173586.39999999999,"N_COORD97":2538638.0499999998,"ADDRESS":"德南路１４３之４號","OBJECTID":86599},"geometry":{"x":173586.40000000224,"y":2538638.0500000026}},{"attributes":{"ID":86600,"DIS_CODE":0,"TOWNNAME":"仁德區","LI":"太子里","LIN":"15鄰","STREET":"長興路","SECT":" ","MAREA":" ","LANE":" ","ALLEY":" ","HOUSE_NO":"７１號","E_COORD97":174133.14000000001,"N_COORD97":2543752.5099999998,"ADDRESS":"長興路７１號","OBJECTID":86600},"geometry":{"x":174133.13999999966,"y":2543752.5099999979}}]}