{"displayFieldName":"TOWNNAME","fieldAliases":{"ID":"ID","DIS_CODE":"DIS_CODE","TOWNNAME":"TOWNNAME","LI":"LI","LIN":"LIN","STREET":"STREET","SECT":"SECT","MAREA":"MAREA","LANE":"LANE","ALLEY":"ALLEY","HOUSE_NO":"HOUSE_NO","E_COORD97":"E_COORD97","N_COORD97":"N_COORD97","ADDRESS":"ADDRESS","OBJECTID":"OBJECTID"},"geometryType":"esriGeometryPoint","spatialReference":{"wkid":102443,"latestWkid":3826},"fields":[{"name":"ID","type":"esriFieldTypeDouble","alias":"ID"},{"name":"DIS_CODE","type":"esriFieldTypeInteger","alias":"DIS_CODE"},{"name":"TOWNNAME","type":"esriFieldTypeString","alias":"TOWNNAME","length":8},{"name":"LI","type":"esriFieldTypeString","alias":"LI","length":8},{"name":"LIN","type":"esriFieldTypeString","alias":"LIN","length":12},{"name":"STREET","type":"esriFieldTypeString","alias":"STREET","length":20},{"name":"SECT","type":"esriFieldTypeString","alias":"SECT","length":8},{"name":"MAREA","type":"esriFieldTypeString","alias":"MAREA","length":12},{"name":"LANE","type":"esriFieldTypeString","alias":"LANE","length":10},{"name":"ALLEY","type":"esriFieldTypeString","alias":"ALLEY","length":10},{"name":"HOUSE_NO","type":"esriFieldTypeString","alias":"HOUSE_NO","length":20},{"name":"E_COORD97","type":"esriFieldTypeDouble","alias":"E_COORD97"},{"name":"N_COORD97","type":"esriFieldTypeDouble","alias":"N_COORD97"},{"name":"ADDRESS","type":"esriFieldTypeString","alias":"ADDRESS","length":50},{"name":"OBJECTID","type":"esriFieldTypeOID","alias":"OBJECTID"}],"features":[{"attributes":{"ID":560228,"DIS_CODE":0,"TOWNNAME":"中西區","LI":"法華里","LIN":"9鄰","STREET":"五妃街","SECT":" ","MAREA":" ","LANE":" ","ALLEY":" ","HOUSE_NO":"１５號六樓之１","E_COORD97":169057.64999999999,"N_COORD97":2542555.8199999998,"ADDRESS":"五妃街１５號六樓之１","OBJECTID":560201},"geometry":{"x":169057.6500000013,"y":2542555.8200000022}},{"attributes":{"ID":560229,"DIS_CODE":0,"TOWNNAME":"中西區","LI":"法華里","LIN":"9鄰","STREET":"五妃街","SECT":" ","MAREA":" ","LANE":" ","ALLEY":" ","HOUSE_NO":"１５號六樓之２","E_COORD97":169057.64999999999,"N_COORD97":2542555.8199999998,"ADDRESS":"五妃街１５號六樓之２","OBJECTID":560202},"geometry":{"x":169057.6500000013,"y":2542555.8200000022}},{"attributes":{"ID":560230,"DIS_CODE":0,"TOWNNAME":"中西區","LI":"法華里","LIN":"9鄰","STREET":"五妃街","SECT":" ","MAREA":" ","LANE":" ","ALLEY":" ","HOUSE_NO":"１５號六樓之３","E_COORD97":169057.64999999999,"N_COORD97":2542555.8199999998,"ADDRESS":"五妃街１５號六樓之３","OBJECTID":560203},"geometry":{"x":169057.6500000013,"y":2542555.8200000022}},{"attributes":{"ID":560231,"DIS_CODE":0,"TOWNNAME":"中西區","LI":"法華里","LIN":"9鄰","STREET":"五妃街","SECT":" ","MAREA":" ","LANE":" ","ALLEY":" ","HOUSE_NO":"１５號六樓之４","E_COORD97":169057.64999999999,"N_COORD97":2542555.8199999998,"ADDRESS":"五妃街１５號六樓之４","OBJECTID":560204},"geometry":{"x":169057.6500000013,"y":2542555.8200000022}},{"attributes":{"ID":560232,"DIS_CODE":0,"TOWNNAME":"中西區","LI":"法華里","LIN":"9鄰","STREET":"五妃街","SECT":" ","MAREA":" ","LANE":" ","ALLEY":" ","HOUSE_NO":"１５號六樓之５","E_COORD97":169057.64999999999,"N_COORD97":2542555.8199999998,"ADDRESS":"五妃街１５號六樓之５","OBJECTID":560205},"geometry":{"x":169057.6500000013,"y":2542555.8200000022}},{"attributes":{"ID":560233,"DIS_CODE":0,"TOWNNAME":"中西區","LI":"法華里","LIN":"9鄰","STREET":"五妃街","SECT":" ","MAREA":" ","LANE":" ","ALLEY":" ","HOUSE_NO":"１５號六樓之６","E_COORD97":169057.64999999999,"N_COORD97":2542555.8199999998,"ADDRESS":"五妃街１５號六樓之６","OBJECTID":560206},"geometry":{"x":169057.6500000013,"y":2542555.8200000022}},{"attributes":{"ID":560234,"DIS_CODE":0,"TOWNNAME":"中西區","LI":"法華里","LIN":"9鄰","STREET":"五妃街","SECT":" ","MAREA":" ","LANE":" ","ALLEY":" ","HOUSE_NO":"１５號六樓之７","E_COORD97":169057.64999999999,"N_COORD97":2542555.8199999998,"ADDRESS":"五妃街１５號六樓之７","OBJECTID":560207},"geometry":{"x":169057.6500000013,"y":2542555.8200000022}},{"attributes":{"ID":560235,"DIS_CODE":0,"TOWNNAME":"中西區","LI":"法華里","LIN":"9鄰","STREET":"五妃街","SECT":" ","MAREA":" ","LANE":" ","ALLEY":" ","HOUSE_NO":"１５號六樓之８","E_COORD97":169057.64999999999,"N_COORD97":2542555.8199999998,"ADDRESS":"五妃街１５號六樓之８","OBJECTID":560208},"geometry":{"x":169057.6500000013,"y":2542555.8200000022}},{"attributes":{"ID":560236,"DIS_CODE":0,"TOWNNAME":"中西區","LI":"法華里","LIN":"9鄰","STREET":"五妃街","SECT":" ","MAREA":" ","LANE":" ","ALLEY":" ","HOUSE_NO":"１５號六樓之９","E_COORD97":169057.64999999999,"N_COORD97":2542555.8199999998,"ADDRESS":"五妃街１５號六樓之９","OBJECTID":560209},"geometry":{"x":169057.6500000013,"y":2542555.8200000022}},{"attributes":{"ID":560237,"DIS_CODE":0,"TOWNNAME":"中西區","LI":"法華里","LIN":"9鄰","STREET":"五妃街","SECT":" ","MAREA":" ","LANE":" ","ALLEY":" ","HOUSE_NO":"１５號四樓之１","E_COORD97":169057.64999999999,"N_COORD97":2542555.8199999998,"ADDRESS":"五妃街１５號四樓之１","OBJECTID":560210},"geometry":{"x":169057.6500000013,"y":2542555.8200000022}},{"attributes":{"ID":560238,"DIS_CODE":0,"TOWNNAME":"中西區","LI":"法華里","LIN":"9鄰","STREET":"五妃街","SECT":" ","MAREA":" ","LANE":" ","ALLEY":" ","HOUSE_NO":"１５號四樓之１０","E_COORD97":169057.64999999999,"N_COORD97":2542555.8199999998,"ADDRESS":"五妃街１５號四樓之１０","OBJECTID":560211},"geometry":{"x":169057.6500000013,"y":2542555.8200000022}},{"attributes":{"ID":560239,"DIS_CODE":0,"TOWNNAME":"中西區","LI":"法華里","LIN":"9鄰","STREET":"五妃街","SECT":" ","MAREA":" ","LANE":" ","ALLEY":" ","HOUSE_NO":"１５號四樓之１１","E_COORD97":169057.64999999999,"N_COORD97":2542555.8199999998,"ADDRESS":"五妃街１５號四樓之１１","OBJECTID":560212},"geometry":{"x":169057.6500000013,"y":2542555.8200000022}},{"attributes":{"ID":560240,"DIS_CODE":0,"TOWNNAME":"中西區","LI":"法華里","LIN":"9鄰","STREET":"五妃街","SECT":" ","MAREA":" ","LANE":" ","ALLEY":" ","HOUSE_NO":"１５號四樓之２","E_COORD97":169057.64999999999,"N_COORD97":2542555.8199999998,"ADDRESS":"五妃街１５號四樓之２","OBJECTID":560213},"geometry":{"x":169057.6500000013,"y":2542555.8200000022}},{"attributes":{"ID":560241,"DIS_CODE":0,"TOWNNAME":"中西區","LI":"法華里","LIN":"9鄰","STREET":"五妃街","SECT":" ","MAREA":" ","LANE":" ","ALLEY":" ","HOUSE_NO":"１５號四樓之３","E_COORD97":169057.64999999999,"N_COORD97":2542555.8199999998,"ADDRESS":"五妃街１５號四樓之３","OBJECTID":560214},"geometry":{"x":169057.6500000013,"y":2542555.8200000022}},{"attributes":{"ID":560242,"DIS_CODE":0,"TOWNNAME":"中西區","LI":"法華里","LIN":"9鄰","STREET":"五妃街","SECT":" ","MAREA":" ","LANE":" ","ALLEY":" ","HOUSE_NO":"１５號四樓之３之１","E_COORD97":169057.64999999999,"N_COORD97":2542555.8199999998,"ADDRESS":"五妃街１５號四樓之３之１","OBJECTID":560215},"geometry":{"x":169057.6500000013,"y":2542555.8200000022}},{"attributes":{"ID":560243,"DIS_CODE":0,"TOWNNAME":"中西區","LI":"法華里","LIN":"9鄰","STREET":"五妃街","SECT":" ","MAREA":" ","LANE":" ","ALLEY":" ","HOUSE_NO":"１５號四樓之５","E_COORD97":169057.64999999999,"N_COORD97":2542555.8199999998,"ADDRESS":"五妃街１５號四樓之５","OBJECTID":560216},"geometry":{"x":169057.6500000013,"y":2542555.8200000022}},{"attributes":{"ID":560244,"DIS_CODE":0,"TOWNNAME":"中西區","LI":"法華里","LIN":"9鄰","STREET":"五妃街","SECT":" ","MAREA":" ","LANE":" ","ALLEY":" ","HOUSE_NO":"１５號四樓之６","E_COORD97":169057.64999999999,"N_COORD97":2542555.8199999998,"ADDRESS":"五妃街１５號四樓之６","OBJECTID":560217},"geometry":{"x":169057.6500000013,"y":2542555.8200000022}},{"attributes":{"ID":560245,"DIS_CODE":0,"TOWNNAME":"中西區","LI":"法華里","LIN":"9鄰","STREET":"五妃街","SECT":" ","MAREA":" ","LANE":" ","ALLEY":" ","HOUSE_NO":"１５號四樓之７","E_COORD97":169057.64999999999,"N_COORD97":2542555.8199999998,"ADDRESS":"五妃街１５號四樓之７","OBJECTID":560218},"geometry":{"x":169057.6500000013,"y":2542555.8200000022}},{"attributes":{"ID":560246,"DIS_CODE":0,"TOWNNAME":"中西區","LI":"法華里","LIN":"9鄰","STREET":"五妃街","SECT":" ","MAREA":" ","LANE":" ","ALLEY":" ","HOUSE_NO":"１５號四樓之８","E_COORD97":169057.64999999999,"N_COORD97":2542555.8199999998,"ADDRESS":"五妃街１５號四樓之８","OBJECTID":560219},"geometry":{"x":169057.6500000013,"y":2542555.8200000022}},{"attributes":{"ID":560247,"DIS_CODE":0,"TOWNNAME":"中西區","LI":"法華里","LIN":"9鄰","STREET":"五妃街","SECT":" ","MAREA":" ","LANE":" ","ALLEY":" ","HOUSE_NO":"１５號四樓之９","E_COORD97":169057.64999999999,"N_COORD97":2542555.8199999998,"ADDRESS":"五妃街１５號四樓之９","OBJECTID":560220},"geometry":{"x":169057.6500000013,"y":2542555.8200000022}},{"attributes":{"ID":560248,"DIS_CODE":0,"TOWNNAME":"仁德區","LI":"仁德里","LIN":"9鄰","STREET":"仁德二街","SECT":" ","MAREA":" ","LANE":" ","ALLEY":" ","HOUSE_NO":"３２號五樓之３","E_COORD97":173229.70000000001,"N_COORD97":2541078.79,"ADDRESS":"仁德二街３２號五樓之３","OBJECTID":560221},"geometry":{"x":173229.70000000019,"y":2541078.790000001}},{"attributes":{"ID":560249,"DIS_CODE":0,"TOWNNAME":"仁德區","LI":"仁德里","LIN":"9鄰","STREET":"仁德二街","SECT":" ","MAREA":" ","LANE":" ","ALLEY":" ","HOUSE_NO":"３２號二樓之１","E_COORD97":173229.60000000001,"N_COORD97":2541078.79,"ADDRESS":"仁德二街３２號二樓之１","OBJECTID":560222},"geometry":{"x":173229.59999999963,"y":2541078.790000001}},{"attributes":{"ID":560250,"DIS_CODE":0,"TOWNNAME":"東區","LI":"圍下里","LIN":"9鄰","STREET":"東寧路","SECT":"西段","MAREA":" ","LANE":" ","ALLEY":" ","HOUSE_NO":"１５號三樓","E_COORD97":169733.88,"N_COORD97":2543645.8599999999,"ADDRESS":"東寧路西段１５號三樓","OBJECTID":560223},"geometry":{"x":169733.87999999989,"y":2543645.8600000013}},{"attributes":{"ID":560251,"DIS_CODE":0,"TOWNNAME":"東區","LI":"圍下里","LIN":"9鄰","STREET":"東寧路","SECT":"西段","MAREA":" ","LANE":" ","ALLEY":" ","HOUSE_NO":"１５號二樓","E_COORD97":169733.88,"N_COORD97":2543645.8599999999,"ADDRESS":"東寧路西段１５號二樓","OBJECTID":560224},"geometry":{"x":169733.87999999989,"y":2543645.8600000013}},{"attributes":{"ID":560252,"DIS_CODE":0,"TOWNNAME":"東區","LI":"圍下里","LIN":"9鄰","STREET":"東寧路","SECT":"西段","MAREA":" ","LANE":" ","ALLEY":" ","HOUSE_NO":"１５號四樓","E_COORD97":169733.88,"N_COORD97":2543645.8599999999,"ADDRESS":"東寧路西段１５號四樓","OBJECTID":560225},"geometry":{"x":169733.87999999989,"y":2543645.8600000013}},{"attributes":{"ID":560253,"DIS_CODE":0,"TOWNNAME":"東區","LI":"東明里","LIN":"9鄰","STREET":"怡東路","SECT":" ","MAREA":" ","LANE":" ","ALLEY":" ","HOUSE_NO":"８８號二樓","E_COORD97":170876.17000000001,"N_COORD97":2543708.9300000002,"ADDRESS":"怡東路８８號二樓","OBJECTID":560226},"geometry":{"x":170876.16999999993,"y":2543708.9299999978}},{"attributes":{"ID":560254,"DIS_CODE":0,"TOWNNAME":"東區","LI":"東明里","LIN":"9鄰","STREET":"怡東路","SECT":" ","MAREA":" ","LANE":" ","ALLEY":" ","HOUSE_NO":"８８號三樓","E_COORD97":170876.17000000001,"N_COORD97":2543708.9300000002,"ADDRESS":"怡東路８８號三樓","OBJECTID":560227},"geometry":{"x":170876.16999999993,"y":2543708.9299999978}},{"attributes":{"ID":560255,"DIS_CODE":0,"TOWNNAME":"東區","LI":"東明里","LIN":"9鄰","STREET":"怡東路","SECT":" ","MAREA":" ","LANE":" ","ALLEY":" ","HOUSE_NO":"８８號五樓","E_COORD97":170876.17000000001,"N_COORD97":2543708.9300000002,"ADDRESS":"怡東路８８號五樓","OBJECTID":560228},"geometry":{"x":170876.16999999993,"y":2543708.9299999978}},{"attributes":{"ID":560256,"DIS_CODE":0,"TOWNNAME":"東區","LI":"東明里","LIN":"9鄰","STREET":"怡東路","SECT":" ","MAREA":" ","LANE":" ","ALLEY":" ","HOUSE_NO":"９０號二樓","E_COORD97":170879.10000000001,"N_COORD97":2543720.04,"ADDRESS":"怡東路９０號二樓","OBJECTID":560229},"geometry":{"x":170879.10000000056,"y":2543720.0399999991}},{"attributes":{"ID":560257,"DIS_CODE":0,"TOWNNAME":"東區","LI":"東明里","LIN":"9鄰","STREET":"怡東路","SECT":" ","MAREA":" ","LANE":" ","ALLEY":" ","HOUSE_NO":"９０號五樓","E_COORD97":170879.10000000001,"N_COORD97":2543720.04,"ADDRESS":"怡東路９０號五樓","OBJECTID":560230},"geometry":{"x":170879.10000000056,"y":2543720.0399999991}},{"attributes":{"ID":560258,"DIS_CODE":0,"TOWNNAME":"東區","LI":"東明里","LIN":"9鄰","STREET":"怡東路","SECT":" ","MAREA":" ","LANE":" ","ALLEY":" ","HOUSE_NO":"９０號四樓","E_COORD97":170879.10000000001,"N_COORD97":2543720.04,"ADDRESS":"怡東路９０號四樓","OBJECTID":560231},"geometry":{"x":170879.10000000056,"y":2543720.0399999991}},{"attributes":{"ID":560259,"DIS_CODE":0,"TOWNNAME":"東區","LI":"東明里","LIN":"9鄰","STREET":"怡東路","SECT":" ","MAREA":" ","LANE":" ","ALLEY":" ","HOUSE_NO":"９０號三樓","E_COORD97":170879.10000000001,"N_COORD97":2543720.04,"ADDRESS":"怡東路９０號三樓","OBJECTID":560232},"geometry":{"x":170879.10000000056,"y":2543720.0399999991}},{"attributes":{"ID":560260,"DIS_CODE":0,"TOWNNAME":"仁德區","LI":"成功里","LIN":"9鄰","STREET":"保華路","SECT":" ","MAREA":" ","LANE":" ","ALLEY":" ","HOUSE_NO":"２０１號","E_COORD97":170935.95000000001,"N_COORD97":2540016.75,"ADDRESS":"保華路２０１號","OBJECTID":560233},"geometry":{"x":170935.95000000019,"y":2540016.7500000019}},{"attributes":{"ID":560261,"DIS_CODE":0,"TOWNNAME":"中西區","LI":"民主里","LIN":"9鄰","STREET":"金華路","SECT":"三段","MAREA":" ","LANE":" ","ALLEY":" ","HOUSE_NO":"１２６號","E_COORD97":167276.09,"N_COORD97":2543629.0499999998,"ADDRESS":"金華路三段１２６號","OBJECTID":560234},"geometry":{"x":167276.08999999985,"y":2543629.0500000026}},{"attributes":{"ID":560262,"DIS_CODE":0,"TOWNNAME":"善化區","LI":"坐駕里","LIN":"9鄰","STREET":"青年路","SECT":" ","MAREA":" ","LANE":" ","ALLEY":" ","HOUSE_NO":"９６號之２","E_COORD97":177884.06,"N_COORD97":2558672.77,"ADDRESS":"青年路９６號之２","OBJECTID":560235},"geometry":{"x":177884.06000000052,"y":2558672.7700000014}},{"attributes":{"ID":560263,"DIS_CODE":0,"TOWNNAME":"善化區","LI":"坐駕里","LIN":"9鄰","STREET":"青年路","SECT":" ","MAREA":" ","LANE":" ","ALLEY":" ","HOUSE_NO":"１１０號","E_COORD97":177874.5,"N_COORD97":2558750.5,"ADDRESS":"青年路１１０號","OBJECTID":560236},"geometry":{"x":177874.50000000093,"y":2558750.5}},{"attributes":{"ID":560264,"DIS_CODE":0,"TOWNNAME":"善化區","LI":"東關里","LIN":"9鄰","STREET":"中山路","SECT":" ","MAREA":" ","LANE":" ","ALLEY":" ","HOUSE_NO":"４２９號","E_COORD97":177328.75,"N_COORD97":2559109,"ADDRESS":"中山路４２９號","OBJECTID":560237},"geometry":{"x":177328.75000000093,"y":2559109.0000000019}},{"attributes":{"ID":560265,"DIS_CODE":0,"TOWNNAME":"善化區","LI":"坐駕里","LIN":"9鄰","STREET":"青年路","SECT":" ","MAREA":" ","LANE":" ","ALLEY":" ","HOUSE_NO":"１００號之５","E_COORD97":177926.85000000001,"N_COORD97":2558740.77,"ADDRESS":"青年路１００號之５","OBJECTID":560238},"geometry":{"x":177926.84999999963,"y":2558740.7700000014}},{"attributes":{"ID":560266,"DIS_CODE":0,"TOWNNAME":"善化區","LI":"東關里","LIN":"9鄰","STREET":"大同路","SECT":" ","MAREA":" ","LANE":" ","ALLEY":" ","HOUSE_NO":"３９７號","E_COORD97":177327.88,"N_COORD97":2559090.25,"ADDRESS":"大同路３９７號","OBJECTID":560239},"geometry":{"x":177327.88000000082,"y":2559090.2500000019}},{"attributes":{"ID":560267,"DIS_CODE":0,"TOWNNAME":"善化區","LI":"光文里","LIN":"9鄰","STREET":"四維路","SECT":" ","MAREA":" ","LANE":" ","ALLEY":" ","HOUSE_NO":"８６號","E_COORD97":178786.89000000001,"N_COORD97":2559023.3999999999,"ADDRESS":"四維路８６號","OBJECTID":560240},"geometry":{"x":178786.8900000006,"y":2559023.4000000004}},{"attributes":{"ID":560268,"DIS_CODE":0,"TOWNNAME":"善化區","LI":"光文里","LIN":"9鄰","STREET":"四維路","SECT":" ","MAREA":" ","LANE":" ","ALLEY":" ","HOUSE_NO":"８８號","E_COORD97":178786.25,"N_COORD97":2559027.8799999999,"ADDRESS":"四維路８８號","OBJECTID":560241},"geometry":{"x":178786.25000000186,"y":2559027.8800000008}},{"attributes":{"ID":560269,"DIS_CODE":0,"TOWNNAME":"善化區","LI":"光文里","LIN":"9鄰","STREET":"四維路","SECT":" ","MAREA":" ","LANE":" ","ALLEY":" ","HOUSE_NO":"９６號","E_COORD97":178783.45999999999,"N_COORD97":2559041.0499999998,"ADDRESS":"四維路９６號","OBJECTID":560242},"geometry":{"x":178783.46000000089,"y":2559041.0500000026}},{"attributes":{"ID":560270,"DIS_CODE":0,"TOWNNAME":"善化區","LI":"光文里","LIN":"9鄰","STREET":"四維路","SECT":" ","MAREA":" ","LANE":" ","ALLEY":" ","HOUSE_NO":"９８號","E_COORD97":178782.64999999999,"N_COORD97":2559045.4399999999,"ADDRESS":"四維路９８號","OBJECTID":560243},"geometry":{"x":178782.6500000013,"y":2559045.4399999995}},{"attributes":{"ID":560271,"DIS_CODE":0,"TOWNNAME":"善化區","LI":"光文里","LIN":"9鄰","STREET":"四維路","SECT":" ","MAREA":" ","LANE":" ","ALLEY":" ","HOUSE_NO":"１００號","E_COORD97":178782.39000000001,"N_COORD97":2559049.9700000002,"ADDRESS":"四維路１００號","OBJECTID":560244},"geometry":{"x":178782.38999999966,"y":2559049.9700000007}},{"attributes":{"ID":560272,"DIS_CODE":0,"TOWNNAME":"善化區","LI":"光文里","LIN":"9鄰","STREET":"四維路","SECT":" ","MAREA":" ","LANE":" ","ALLEY":" ","HOUSE_NO":"１０２號","E_COORD97":178781.48999999999,"N_COORD97":2559054.3599999999,"ADDRESS":"四維路１０２號","OBJECTID":560245},"geometry":{"x":178781.49000000209,"y":2559054.3600000031}},{"attributes":{"ID":560273,"DIS_CODE":0,"TOWNNAME":"善化區","LI":"光文里","LIN":"9鄰","STREET":"四維路","SECT":" ","MAREA":" ","LANE":" ","ALLEY":" ","HOUSE_NO":"１０６號","E_COORD97":178780.42999999999,"N_COORD97":2559058.73,"ADDRESS":"四維路１０６號","OBJECTID":560246},"geometry":{"x":178780.4299999997,"y":2559058.7300000004}},{"attributes":{"ID":560274,"DIS_CODE":0,"TOWNNAME":"善化區","LI":"光文里","LIN":"9鄰","STREET":"四維路","SECT":" ","MAREA":" ","LANE":" ","ALLEY":" ","HOUSE_NO":"１０８號","E_COORD97":178779.57999999999,"N_COORD97":2559063.1000000001,"ADDRESS":"四維路１０８號","OBJECTID":560247},"geometry":{"x":178779.58000000101,"y":2559063.1000000034}},{"attributes":{"ID":560275,"DIS_CODE":0,"TOWNNAME":"善化區","LI":"光文里","LIN":"9鄰","STREET":"四維路","SECT":" ","MAREA":" ","LANE":" ","ALLEY":" ","HOUSE_NO":"１１０號","E_COORD97":178778.5,"N_COORD97":2559067.5800000001,"ADDRESS":"四維路１１０號","OBJECTID":560248},"geometry":{"x":178778.50000000093,"y":2559067.5800000019}},{"attributes":{"ID":560276,"DIS_CODE":0,"TOWNNAME":"善化區","LI":"光文里","LIN":"9鄰","STREET":"民生路","SECT":" ","MAREA":" ","LANE":" ","ALLEY":" ","HOUSE_NO":"１２號","E_COORD97":178883.35000000001,"N_COORD97":2559038.6400000001,"ADDRESS":"民生路１２號","OBJECTID":560249},"geometry":{"x":178883.3499999987,"y":2559038.6400000006}},{"attributes":{"ID":560277,"DIS_CODE":0,"TOWNNAME":"善化區","LI":"光文里","LIN":"9鄰","STREET":"民生路","SECT":" ","MAREA":" ","LANE":" ","ALLEY":" ","HOUSE_NO":"１８號","E_COORD97":178874.04999999999,"N_COORD97":2559037.5,"ADDRESS":"民生路１８號","OBJECTID":560250},"geometry":{"x":178874.05000000075,"y":2559037.5000000019}},{"attributes":{"ID":560278,"DIS_CODE":0,"TOWNNAME":"善化區","LI":"光文里","LIN":"9鄰","STREET":"民生路","SECT":" ","MAREA":" ","LANE":" ","ALLEY":" ","HOUSE_NO":"２０號","E_COORD97":178869.47,"N_COORD97":2559036.8199999998,"ADDRESS":"民生路２０號","OBJECTID":560251},"geometry":{"x":178869.47000000067,"y":2559036.8200000003}},{"attributes":{"ID":560279,"DIS_CODE":0,"TOWNNAME":"善化區","LI":"光文里","LIN":"9鄰","STREET":"民生路","SECT":" ","MAREA":" ","LANE":" ","ALLEY":" ","HOUSE_NO":"２６號","E_COORD97":178858.67000000001,"N_COORD97":2559035.52,"ADDRESS":"民生路２６號","OBJECTID":560252},"geometry":{"x":178858.67000000086,"y":2559035.5199999996}},{"attributes":{"ID":560280,"DIS_CODE":0,"TOWNNAME":"善化區","LI":"光文里","LIN":"9鄰","STREET":"民生路","SECT":" ","MAREA":" ","LANE":" ","ALLEY":" ","HOUSE_NO":"２８號","E_COORD97":178851.95000000001,"N_COORD97":2559034.5800000001,"ADDRESS":"民生路２８號","OBJECTID":560253},"geometry":{"x":178851.95000000112,"y":2559034.5800000019}},{"attributes":{"ID":560281,"DIS_CODE":0,"TOWNNAME":"善化區","LI":"光文里","LIN":"9鄰","STREET":"民權路","SECT":" ","MAREA":" ","LANE":" ","ALLEY":" ","HOUSE_NO":"１１號","E_COORD97":178841.10999999999,"N_COORD97":2559092.3700000001,"ADDRESS":"民權路１１號","OBJECTID":560254},"geometry":{"x":178841.11000000034,"y":2559092.370000001}},{"attributes":{"ID":560282,"DIS_CODE":0,"TOWNNAME":"善化區","LI":"光文里","LIN":"9鄰","STREET":"民權路","SECT":" ","MAREA":" ","LANE":" ","ALLEY":" ","HOUSE_NO":"１１之１號","E_COORD97":178836.76000000001,"N_COORD97":2559091.6499999999,"ADDRESS":"民權路１１之１號","OBJECTID":560255},"geometry":{"x":178836.76000000164,"y":2559091.6500000022}},{"attributes":{"ID":560283,"DIS_CODE":0,"TOWNNAME":"善化區","LI":"光文里","LIN":"9鄰","STREET":"民權路","SECT":" ","MAREA":" ","LANE":" ","ALLEY":" ","HOUSE_NO":"９號","E_COORD97":178856.57999999999,"N_COORD97":2559094.79,"ADDRESS":"民權路９號","OBJECTID":560256},"geometry":{"x":178856.58000000007,"y":2559094.7899999972}},{"attributes":{"ID":560284,"DIS_CODE":0,"TOWNNAME":"善化區","LI":"光文里","LIN":"9鄰","STREET":"民權路","SECT":" ","MAREA":" ","LANE":" ","ALLEY":" ","HOUSE_NO":"９之１號","E_COORD97":178851.87,"N_COORD97":2559093.8900000001,"ADDRESS":"民權路９之１號","OBJECTID":560257},"geometry":{"x":178851.87000000104,"y":2559093.8900000025}},{"attributes":{"ID":560285,"DIS_CODE":0,"TOWNNAME":"善化區","LI":"光文里","LIN":"9鄰","STREET":"民權路","SECT":" ","MAREA":" ","LANE":" ","ALLEY":" ","HOUSE_NO":"９之２號","E_COORD97":178846.87,"N_COORD97":2559093.1600000001,"ADDRESS":"民權路９之２號","OBJECTID":560258},"geometry":{"x":178846.87000000104,"y":2559093.1600000001}},{"attributes":{"ID":560286,"DIS_CODE":0,"TOWNNAME":"善化區","LI":"光文里","LIN":"9鄰","STREET":"民權路","SECT":" ","MAREA":" ","LANE":" ","ALLEY":" ","HOUSE_NO":"１５號","E_COORD97":178825.72,"N_COORD97":2559090.1800000002,"ADDRESS":"民權路１５號","OBJECTID":560259},"geometry":{"x":178825.72000000067,"y":2559090.1800000016}},{"attributes":{"ID":560287,"DIS_CODE":0,"TOWNNAME":"善化區","LI":"光文里","LIN":"9鄰","STREET":"民權路","SECT":" ","MAREA":" ","LANE":" ","ALLEY":" ","HOUSE_NO":"１５之１號","E_COORD97":178822.26999999999,"N_COORD97":2559089.5800000001,"ADDRESS":"民權路１５之１號","OBJECTID":560260},"geometry":{"x":178822.26999999955,"y":2559089.5800000001}},{"attributes":{"ID":560288,"DIS_CODE":0,"TOWNNAME":"善化區","LI":"光文里","LIN":"9鄰","STREET":"民權路","SECT":" ","MAREA":" ","LANE":" ","ALLEY":" ","HOUSE_NO":"１７號","E_COORD97":178816.75,"N_COORD97":2559089,"ADDRESS":"民權路１７號","OBJECTID":560261},"geometry":{"x":178816.75000000186,"y":2559089.0000000019}},{"attributes":{"ID":560289,"DIS_CODE":0,"TOWNNAME":"善化區","LI":"光文里","LIN":"9鄰","STREET":"民權路","SECT":" ","MAREA":" ","LANE":" ","ALLEY":" ","HOUSE_NO":"１９號","E_COORD97":178812.35999999999,"N_COORD97":2559088.5099999998,"ADDRESS":"民權路１９號","OBJECTID":560262},"geometry":{"x":178812.36000000034,"y":2559088.5100000016}},{"attributes":{"ID":560290,"DIS_CODE":0,"TOWNNAME":"善化區","LI":"光文里","LIN":"9鄰","STREET":"民權路","SECT":" ","MAREA":" ","LANE":" ","ALLEY":" ","HOUSE_NO":"１９之１號","E_COORD97":178808.82999999999,"N_COORD97":2559087.8500000001,"ADDRESS":"民權路１９之１號","OBJECTID":560263},"geometry":{"x":178808.83000000007,"y":2559087.8499999996}},{"attributes":{"ID":560291,"DIS_CODE":0,"TOWNNAME":"善化區","LI":"光文里","LIN":"9鄰","STREET":"民權路","SECT":" ","MAREA":" ","LANE":" ","ALLEY":" ","HOUSE_NO":"１９之２號","E_COORD97":178804.39000000001,"N_COORD97":2559087.2999999998,"ADDRESS":"民權路１９之２號","OBJECTID":560264},"geometry":{"x":178804.38999999966,"y":2559087.3000000026}},{"attributes":{"ID":560292,"DIS_CODE":0,"TOWNNAME":"善化區","LI":"光文里","LIN":"9鄰","STREET":"民權路","SECT":" ","MAREA":" ","LANE":" ","ALLEY":" ","HOUSE_NO":"２１號","E_COORD97":178799.03,"N_COORD97":2559086.7400000002,"ADDRESS":"民權路２１號","OBJECTID":560265},"geometry":{"x":178799.03000000026,"y":2559086.7400000021}},{"attributes":{"ID":560293,"DIS_CODE":0,"TOWNNAME":"善化區","LI":"光文里","LIN":"9鄰","STREET":"民權路","SECT":" ","MAREA":" ","LANE":" ","ALLEY":" ","HOUSE_NO":"２１之１號","E_COORD97":178795.39000000001,"N_COORD97":2559086.0499999998,"ADDRESS":"民權路２１之１號","OBJECTID":560266},"geometry":{"x":178795.3900000006,"y":2559086.0500000026}},{"attributes":{"ID":560294,"DIS_CODE":0,"TOWNNAME":"善化區","LI":"光文里","LIN":"9鄰","STREET":"民權路","SECT":" ","MAREA":" ","LANE":" ","ALLEY":" ","HOUSE_NO":"２３之１號","E_COORD97":178786.45000000001,"N_COORD97":2559084.8399999999,"ADDRESS":"民權路２３之１號","OBJECTID":560267},"geometry":{"x":178786.45000000019,"y":2559084.8399999999}},{"attributes":{"ID":560295,"DIS_CODE":0,"TOWNNAME":"善化區","LI":"光文里","LIN":"9鄰","STREET":"民權路","SECT":" ","MAREA":" ","LANE":" ","ALLEY":" ","HOUSE_NO":"２５號","E_COORD97":178779.01999999999,"N_COORD97":2559083.6899999999,"ADDRESS":"民權路２５號","OBJECTID":560268},"geometry":{"x":178779.02000000048,"y":2559083.6900000013}},{"attributes":{"ID":560296,"DIS_CODE":0,"TOWNNAME":"善化區","LI":"光文里","LIN":"9鄰","STREET":"民權路","SECT":" ","MAREA":" ","LANE":" ","ALLEY":" ","HOUSE_NO":"５之１號","E_COORD97":178869.64999999999,"N_COORD97":2559084.6400000001,"ADDRESS":"民權路５之１號","OBJECTID":560269},"geometry":{"x":178869.65000000037,"y":2559084.6400000025}},{"attributes":{"ID":560297,"DIS_CODE":0,"TOWNNAME":"善化區","LI":"光文里","LIN":"9鄰","STREET":"民生路","SECT":" ","MAREA":" ","LANE":" ","ALLEY":" ","HOUSE_NO":"３０號","E_COORD97":178837.5,"N_COORD97":2559047.9199999999,"ADDRESS":"民生路３０號","OBJECTID":560270},"geometry":{"x":178837.50000000093,"y":2559047.9200000018}},{"attributes":{"ID":560298,"DIS_CODE":0,"TOWNNAME":"中西區","LI":"普濟里","LIN":"9鄰","STREET":"慈聖街","SECT":" ","MAREA":" ","LANE":" ","ALLEY":" ","HOUSE_NO":"８１號","E_COORD97":168033.29999999999,"N_COORD97":2544409.6699999999,"ADDRESS":"慈聖街８１號","OBJECTID":560271},"geometry":{"x":168033.30000000075,"y":2544409.6700000037}},{"attributes":{"ID":560299,"DIS_CODE":0,"TOWNNAME":"中西區","LI":"普濟里","LIN":"9鄰","STREET":"慈聖街","SECT":" ","MAREA":" ","LANE":" ","ALLEY":" ","HOUSE_NO":"８３號","E_COORD97":168042.94,"N_COORD97":2544413.1699999999,"ADDRESS":"慈聖街８３號","OBJECTID":560272},"geometry":{"x":168042.94000000227,"y":2544413.1700000037}},{"attributes":{"ID":560300,"DIS_CODE":0,"TOWNNAME":"中西區","LI":"保安里","LIN":"9鄰","STREET":"友愛街","SECT":" ","MAREA":" ","LANE":" ","ALLEY":" ","HOUSE_NO":"１３４號","E_COORD97":167783.32000000001,"N_COORD97":2543606.3500000001,"ADDRESS":"友愛街１３４號","OBJECTID":560273},"geometry":{"x":167783.32000000123,"y":2543606.3499999996}},{"attributes":{"ID":560301,"DIS_CODE":0,"TOWNNAME":"中西區","LI":"保安里","LIN":"9鄰","STREET":"友愛街","SECT":" ","MAREA":" ","LANE":" ","ALLEY":" ","HOUSE_NO":"１３６號","E_COORD97":167780.04999999999,"N_COORD97":2543607.1299999999,"ADDRESS":"友愛街１３６號","OBJECTID":560274},"geometry":{"x":167780.04999999981,"y":2543607.129999999}},{"attributes":{"ID":560302,"DIS_CODE":0,"TOWNNAME":"中西區","LI":"保安里","LIN":"9鄰","STREET":"西門路","SECT":"二段","MAREA":" ","LANE":" ","ALLEY":" ","HOUSE_NO":"１０１號","E_COORD97":167807.31,"N_COORD97":2543651.8100000001,"ADDRESS":"西門路二段１０１號","OBJECTID":560275},"geometry":{"x":167807.31000000145,"y":2543651.8100000005}},{"attributes":{"ID":560303,"DIS_CODE":0,"TOWNNAME":"中西區","LI":"保安里","LIN":"9鄰","STREET":"西門路","SECT":"二段","MAREA":" ","LANE":" ","ALLEY":" ","HOUSE_NO":"１０３號","E_COORD97":167808.35999999999,"N_COORD97":2543654.9700000002,"ADDRESS":"西門路二段１０３號","OBJECTID":560276},"geometry":{"x":167808.36000000127,"y":2543654.9700000007}},{"attributes":{"ID":560304,"DIS_CODE":0,"TOWNNAME":"中西區","LI":"保安里","LIN":"9鄰","STREET":"西門路","SECT":"二段","MAREA":" ","LANE":" ","ALLEY":" ","HOUSE_NO":"１０５號","E_COORD97":167809.06,"N_COORD97":2543658.6499999999,"ADDRESS":"西門路二段１０５號","OBJECTID":560277},"geometry":{"x":167809.06000000145,"y":2543658.6500000022}},{"attributes":{"ID":560305,"DIS_CODE":0,"TOWNNAME":"中西區","LI":"保安里","LIN":"9鄰","STREET":"西門路","SECT":"二段","MAREA":" ","LANE":" ","ALLEY":" ","HOUSE_NO":"１０７號","E_COORD97":167810.12,"N_COORD97":2543662.04,"ADDRESS":"西門路二段１０７號","OBJECTID":560278},"geometry":{"x":167810.12000000011,"y":2543662.0399999991}},{"attributes":{"ID":560306,"DIS_CODE":0,"TOWNNAME":"中西區","LI":"保安里","LIN":"9鄰","STREET":"西門路","SECT":"二段","MAREA":" ","LANE":" ","ALLEY":" ","HOUSE_NO":"１０９號","E_COORD97":167810.57999999999,"N_COORD97":2543665.6600000001,"ADDRESS":"西門路二段１０９號","OBJECTID":560279},"geometry":{"x":167810.58000000007,"y":2543665.6600000001}},{"attributes":{"ID":560307,"DIS_CODE":0,"TOWNNAME":"中西區","LI":"保安里","LIN":"9鄰","STREET":"西門路","SECT":"二段","MAREA":" ","LANE":" ","ALLEY":" ","HOUSE_NO":"１１３號","E_COORD97":167812,"N_COORD97":2543672.9700000002,"ADDRESS":"西門路二段１１３號","OBJECTID":560280},"geometry":{"x":167812.00000000093,"y":2543672.9700000025}},{"attributes":{"ID":560308,"DIS_CODE":0,"TOWNNAME":"中西區","LI":"保安里","LIN":"9鄰","STREET":"西門路","SECT":"二段","MAREA":" ","LANE":" ","ALLEY":" ","HOUSE_NO":"１１５號","E_COORD97":167812.73999999999,"N_COORD97":2543677.4300000002,"ADDRESS":"西門路二段１１５號","OBJECTID":560281},"geometry":{"x":167812.74000000022,"y":2543677.4299999997}},{"attributes":{"ID":560309,"DIS_CODE":0,"TOWNNAME":"中西區","LI":"保安里","LIN":"9鄰","STREET":"西門路","SECT":"二段","MAREA":" ","LANE":" ","ALLEY":" ","HOUSE_NO":"１１７號","E_COORD97":167814.98000000001,"N_COORD97":2543681.3999999999,"ADDRESS":"西門路二段１１７號","OBJECTID":560282},"geometry":{"x":167814.98000000045,"y":2543681.4000000004}},{"attributes":{"ID":560310,"DIS_CODE":0,"TOWNNAME":"中西區","LI":"保安里","LIN":"9鄰","STREET":"西門路","SECT":"二段","MAREA":" ","LANE":" ","ALLEY":" ","HOUSE_NO":"１１９號","E_COORD97":167816.22,"N_COORD97":2543685.3700000001,"ADDRESS":"西門路二段１１９號","OBJECTID":560283},"geometry":{"x":167816.21999999974,"y":2543685.3700000029}},{"attributes":{"ID":560311,"DIS_CODE":0,"TOWNNAME":"中西區","LI":"保安里","LIN":"9鄰","STREET":"西門路","SECT":"二段","MAREA":" ","LANE":" ","ALLEY":" ","HOUSE_NO":"７９號","E_COORD97":167790.48000000001,"N_COORD97":2543608.3799999999,"ADDRESS":"西門路二段７９號","OBJECTID":560284},"geometry":{"x":167790.48000000138,"y":2543608.3800000008}},{"attributes":{"ID":560312,"DIS_CODE":0,"TOWNNAME":"中西區","LI":"保安里","LIN":"9鄰","STREET":"西門路","SECT":"二段","MAREA":" ","LANE":" ","ALLEY":" ","HOUSE_NO":"８１號","E_COORD97":167793.91,"N_COORD97":2543615.5299999998,"ADDRESS":"西門路二段８１號","OBJECTID":560285},"geometry":{"x":167793.91000000108,"y":2543615.5299999993}},{"attributes":{"ID":560313,"DIS_CODE":0,"TOWNNAME":"中西區","LI":"保安里","LIN":"9鄰","STREET":"西門路","SECT":"二段","MAREA":" ","LANE":" ","ALLEY":" ","HOUSE_NO":"８３號","E_COORD97":167795.78,"N_COORD97":2543620.2000000002,"ADDRESS":"西門路二段８３號","OBJECTID":560286},"geometry":{"x":167795.78000000026,"y":2543620.2000000011}},{"attributes":{"ID":560314,"DIS_CODE":0,"TOWNNAME":"中西區","LI":"保安里","LIN":"9鄰","STREET":"西門路","SECT":"二段","MAREA":" ","LANE":" ","ALLEY":" ","HOUSE_NO":"８５號","E_COORD97":167796.17999999999,"N_COORD97":2543623.1600000001,"ADDRESS":"西門路二段８５號","OBJECTID":560287},"geometry":{"x":167796.1799999997,"y":2543623.1600000039}},{"attributes":{"ID":560315,"DIS_CODE":0,"TOWNNAME":"中西區","LI":"保安里","LIN":"9鄰","STREET":"西門路","SECT":"二段","MAREA":" ","LANE":" ","ALLEY":" ","HOUSE_NO":"８７號","E_COORD97":167798.76000000001,"N_COORD97":2543627.9500000002,"ADDRESS":"西門路二段８７號","OBJECTID":560288},"geometry":{"x":167798.75999999978,"y":2543627.9500000011}},{"attributes":{"ID":560316,"DIS_CODE":0,"TOWNNAME":"中西區","LI":"保安里","LIN":"9鄰","STREET":"西門路","SECT":"二段","MAREA":" ","LANE":" ","ALLEY":" ","HOUSE_NO":"８９號","E_COORD97":167798.88,"N_COORD97":2543632.3999999999,"ADDRESS":"西門路二段８９號","OBJECTID":560289},"geometry":{"x":167798.88000000082,"y":2543632.4000000022}},{"attributes":{"ID":560317,"DIS_CODE":0,"TOWNNAME":"中西區","LI":"保安里","LIN":"9鄰","STREET":"西門路","SECT":"二段","MAREA":" ","LANE":" ","ALLEY":" ","HOUSE_NO":"９１號","E_COORD97":167801.69,"N_COORD97":2543636.1400000001,"ADDRESS":"西門路二段９１號","OBJECTID":560290},"geometry":{"x":167801.69000000041,"y":2543636.1400000006}},{"attributes":{"ID":560318,"DIS_CODE":0,"TOWNNAME":"中西區","LI":"保安里","LIN":"9鄰","STREET":"西門路","SECT":"二段","MAREA":" ","LANE":" ","ALLEY":" ","HOUSE_NO":"９３號","E_COORD97":167803.79000000001,"N_COORD97":2543640.1200000001,"ADDRESS":"西門路二段９３號","OBJECTID":560291},"geometry":{"x":167803.79000000004,"y":2543640.120000001}},{"attributes":{"ID":560319,"DIS_CODE":0,"TOWNNAME":"中西區","LI":"保安里","LIN":"9鄰","STREET":"西門路","SECT":"二段","MAREA":" ","LANE":" ","ALLEY":" ","HOUSE_NO":"９５號","E_COORD97":167805.20000000001,"N_COORD97":2543643.1600000001,"ADDRESS":"西門路二段９５號","OBJECTID":560292},"geometry":{"x":167805.19999999925,"y":2543643.1600000001}},{"attributes":{"ID":560320,"DIS_CODE":0,"TOWNNAME":"中西區","LI":"保安里","LIN":"9鄰","STREET":"西門路","SECT":"二段","MAREA":" ","LANE":" ","ALLEY":" ","HOUSE_NO":"９７號","E_COORD97":167805.42999999999,"N_COORD97":2543646.5499999998,"ADDRESS":"西門路二段９７號","OBJECTID":560293},"geometry":{"x":167805.43000000063,"y":2543646.5500000026}},{"attributes":{"ID":560321,"DIS_CODE":0,"TOWNNAME":"中西區","LI":"保安里","LIN":"9鄰","STREET":"西門路","SECT":"二段","MAREA":" ","LANE":" ","ALLEY":" ","HOUSE_NO":"９９號","E_COORD97":167806.48999999999,"N_COORD97":2543649.3599999999,"ADDRESS":"西門路二段９９號","OBJECTID":560294},"geometry":{"x":167806.49000000022,"y":2543649.3600000013}},{"attributes":{"ID":560322,"DIS_CODE":0,"TOWNNAME":"中西區","LI":"保安里","LIN":"9鄰","STREET":"友愛街","SECT":" ","MAREA":" ","LANE":" ","ALLEY":" ","HOUSE_NO":"１３８號","E_COORD97":167767.73000000001,"N_COORD97":2543630.1699999999,"ADDRESS":"友愛街１３８號","OBJECTID":560295},"geometry":{"x":167767.73000000045,"y":2543630.1700000018}},{"attributes":{"ID":560323,"DIS_CODE":0,"TOWNNAME":"中西區","LI":"保安里","LIN":"9鄰","STREET":"中正路","SECT":" ","MAREA":" ","LANE":" ","ALLEY":" ","HOUSE_NO":"１７３號","E_COORD97":167817.20999999999,"N_COORD97":2543694.29,"ADDRESS":"中正路１７３號","OBJECTID":560296},"geometry":{"x":167817.21000000089,"y":2543694.2899999991}},{"attributes":{"ID":560324,"DIS_CODE":0,"TOWNNAME":"中西區","LI":"保安里","LIN":"9鄰","STREET":"中正路","SECT":" ","MAREA":" ","LANE":" ","ALLEY":" ","HOUSE_NO":"１７５號","E_COORD97":167810.88,"N_COORD97":2543695.5299999998,"ADDRESS":"中正路１７５號","OBJECTID":560297},"geometry":{"x":167810.88000000082,"y":2543695.5300000012}},{"attributes":{"ID":560325,"DIS_CODE":0,"TOWNNAME":"中西區","LI":"保安里","LIN":"9鄰","STREET":"中正路","SECT":" ","MAREA":" ","LANE":" ","ALLEY":" ","HOUSE_NO":"１７７號","E_COORD97":167805.87,"N_COORD97":2543695.7599999998,"ADDRESS":"中正路１７７號","OBJECTID":560298},"geometry":{"x":167805.87000000197,"y":2543695.7599999998}},{"attributes":{"ID":560326,"DIS_CODE":0,"TOWNNAME":"中西區","LI":"保安里","LIN":"9鄰","STREET":"中正路","SECT":" ","MAREA":" ","LANE":" ","ALLEY":" ","HOUSE_NO":"１８１號","E_COORD97":167801.76999999999,"N_COORD97":2543696.2200000002,"ADDRESS":"中正路１８１號","OBJECTID":560299},"geometry":{"x":167801.76999999955,"y":2543696.2200000025}},{"attributes":{"ID":560327,"DIS_CODE":0,"TOWNNAME":"中西區","LI":"保安里","LIN":"9鄰","STREET":"中正路","SECT":" ","MAREA":" ","LANE":" ","ALLEY":" ","HOUSE_NO":"１８３號","E_COORD97":167797.44,"N_COORD97":2543695.9900000002,"ADDRESS":"中正路１８３號","OBJECTID":560300},"geometry":{"x":167797.44000000134,"y":2543695.9900000021}},{"attributes":{"ID":560328,"DIS_CODE":0,"TOWNNAME":"中西區","LI":"保安里","LIN":"9鄰","STREET":"中正路","SECT":" ","MAREA":" ","LANE":" ","ALLEY":" ","HOUSE_NO":"１８５號","E_COORD97":167781.48999999999,"N_COORD97":2543699.6299999999,"ADDRESS":"中正路１８５號","OBJECTID":560301},"geometry":{"x":167781.49000000115,"y":2543699.629999999}},{"attributes":{"ID":560329,"DIS_CODE":0,"TOWNNAME":"中西區","LI":"保安里","LIN":"9鄰","STREET":"中正路","SECT":" ","MAREA":" ","LANE":" ","ALLEY":" ","HOUSE_NO":"１８７號","E_COORD97":167772.14000000001,"N_COORD97":2543701.1299999999,"ADDRESS":"中正路１８７號","OBJECTID":560302},"geometry":{"x":167772.13999999966,"y":2543701.1300000008}},{"attributes":{"ID":560330,"DIS_CODE":0,"TOWNNAME":"中西區","LI":"保安里","LIN":"9鄰","STREET":"中正路","SECT":" ","MAREA":" ","LANE":" ","ALLEY":" ","HOUSE_NO":"１８９號","E_COORD97":167770.14999999999,"N_COORD97":2543701.6299999999,"ADDRESS":"中正路１８９號","OBJECTID":560303},"geometry":{"x":167770.14999999944,"y":2543701.6300000008}},{"attributes":{"ID":560331,"DIS_CODE":0,"TOWNNAME":"中西區","LI":"保安里","LIN":"9鄰","STREET":"中正路","SECT":" ","MAREA":" ","LANE":" ","ALLEY":" ","HOUSE_NO":"１９１號","E_COORD97":167768.23999999999,"N_COORD97":2543702.0499999998,"ADDRESS":"中正路１９１號","OBJECTID":560304},"geometry":{"x":167768.24000000115,"y":2543702.0500000007}},{"attributes":{"ID":560332,"DIS_CODE":0,"TOWNNAME":"中西區","LI":"郡西里","LIN":"9鄰","STREET":"大勇街","SECT":" ","MAREA":" ","LANE":" ","ALLEY":" ","HOUSE_NO":"１２號","E_COORD97":167459.23000000001,"N_COORD97":2543364.04,"ADDRESS":"大勇街１２號","OBJECTID":560305},"geometry":{"x":167459.23000000045,"y":2543364.0399999991}},{"attributes":{"ID":560333,"DIS_CODE":0,"TOWNNAME":"中西區","LI":"郡西里","LIN":"9鄰","STREET":"大勇街","SECT":" ","MAREA":" ","LANE":" ","ALLEY":" ","HOUSE_NO":"１４號","E_COORD97":167455.01999999999,"N_COORD97":2543372.4900000002,"ADDRESS":"大勇街１４號","OBJECTID":560306},"geometry":{"x":167455.02000000142,"y":2543372.4900000002}},{"attributes":{"ID":560334,"DIS_CODE":0,"TOWNNAME":"中西區","LI":"郡西里","LIN":"9鄰","STREET":"大勇街","SECT":" ","MAREA":" ","LANE":" ","ALLEY":" ","HOUSE_NO":"１６號","E_COORD97":167450.62,"N_COORD97":2543373.46,"ADDRESS":"大勇街１６號","OBJECTID":560307},"geometry":{"x":167450.62000000011,"y":2543373.4600000009}},{"attributes":{"ID":560335,"DIS_CODE":0,"TOWNNAME":"中西區","LI":"郡西里","LIN":"9鄰","STREET":"大勇街","SECT":" ","MAREA":" ","LANE":" ","ALLEY":" ","HOUSE_NO":"１８號","E_COORD97":167444.76000000001,"N_COORD97":2543372.2400000002,"ADDRESS":"大勇街１８號","OBJECTID":560308},"geometry":{"x":167444.75999999978,"y":2543372.2400000021}},{"attributes":{"ID":560336,"DIS_CODE":0,"TOWNNAME":"中西區","LI":"郡西里","LIN":"9鄰","STREET":"大勇街","SECT":" ","MAREA":" ","LANE":" ","ALLEY":" ","HOUSE_NO":"２０號","E_COORD97":167440.98000000001,"N_COORD97":2543372.8500000001,"ADDRESS":"大勇街２０號","OBJECTID":560309},"geometry":{"x":167440.98000000231,"y":2543372.8499999996}},{"attributes":{"ID":560337,"DIS_CODE":0,"TOWNNAME":"中西區","LI":"郡西里","LIN":"9鄰","STREET":"大勇街","SECT":" ","MAREA":" ","LANE":" ","ALLEY":" ","HOUSE_NO":"２２號","E_COORD97":167437.32000000001,"N_COORD97":2543372.73,"ADDRESS":"大勇街２２號","OBJECTID":560310},"geometry":{"x":167437.32000000123,"y":2543372.7300000023}},{"attributes":{"ID":560338,"DIS_CODE":0,"TOWNNAME":"中西區","LI":"郡西里","LIN":"9鄰","STREET":"大勇街","SECT":" ","MAREA":" ","LANE":" ","ALLEY":" ","HOUSE_NO":"２４號","E_COORD97":167438.28,"N_COORD97":2543376.77,"ADDRESS":"大勇街２４號","OBJECTID":560311},"geometry":{"x":167438.28000000026,"y":2543376.7699999996}},{"attributes":{"ID":560339,"DIS_CODE":0,"TOWNNAME":"中西區","LI":"郡西里","LIN":"9鄰","STREET":"大勇街","SECT":" ","MAREA":" ","LANE":" ","ALLEY":" ","HOUSE_NO":"２６號","E_COORD97":167429.5,"N_COORD97":2543372.9700000002,"ADDRESS":"大勇街２６號","OBJECTID":560312},"geometry":{"x":167429.5,"y":2543372.9700000007}},{"attributes":{"ID":560340,"DIS_CODE":0,"TOWNNAME":"中西區","LI":"郡西里","LIN":"9鄰","STREET":"大勇街","SECT":" ","MAREA":" ","LANE":" ","ALLEY":" ","HOUSE_NO":"３４號","E_COORD97":167393.73000000001,"N_COORD97":2543379.9900000002,"ADDRESS":"大勇街３４號","OBJECTID":560313},"geometry":{"x":167393.73000000138,"y":2543379.9900000002}},{"attributes":{"ID":560341,"DIS_CODE":0,"TOWNNAME":"中西區","LI":"郡西里","LIN":"9鄰","STREET":"大勇街","SECT":" ","MAREA":" ","LANE":" ","ALLEY":" ","HOUSE_NO":"３６號","E_COORD97":167385.79999999999,"N_COORD97":2543381.3300000001,"ADDRESS":"大勇街３６號","OBJECTID":560314},"geometry":{"x":167385.80000000075,"y":2543381.3300000038}},{"attributes":{"ID":560342,"DIS_CODE":0,"TOWNNAME":"中西區","LI":"郡西里","LIN":"9鄰","STREET":"大勇街","SECT":" ","MAREA":" ","LANE":" ","ALLEY":" ","HOUSE_NO":"３８號","E_COORD97":167383.35999999999,"N_COORD97":2543396.3300000001,"ADDRESS":"大勇街３８號","OBJECTID":560315},"geometry":{"x":167383.36000000034,"y":2543396.3300000019}},{"attributes":{"ID":560343,"DIS_CODE":0,"TOWNNAME":"中西區","LI":"郡西里","LIN":"9鄰","STREET":"大勇街","SECT":" ","MAREA":" ","LANE":" ","ALLEY":" ","HOUSE_NO":"４０號","E_COORD97":167378.23000000001,"N_COORD97":2543381.9399999999,"ADDRESS":"大勇街４０號","OBJECTID":560316},"geometry":{"x":167378.23000000231,"y":2543381.9399999995}},{"attributes":{"ID":560344,"DIS_CODE":0,"TOWNNAME":"中西區","LI":"郡西里","LIN":"9鄰","STREET":"大勇街","SECT":" ","MAREA":" ","LANE":" ","ALLEY":" ","HOUSE_NO":"８號","E_COORD97":167461.95999999999,"N_COORD97":2543363.7599999998,"ADDRESS":"大勇街８號","OBJECTID":560317},"geometry":{"x":167461.95999999996,"y":2543363.7599999998}},{"attributes":{"ID":560345,"DIS_CODE":0,"TOWNNAME":"中西區","LI":"郡西里","LIN":"9鄰","STREET":"郡西路","SECT":" ","MAREA":" ","LANE":" ","ALLEY":" ","HOUSE_NO":"５５號","E_COORD97":167400.32999999999,"N_COORD97":2543380.23,"ADDRESS":"郡西路５５號","OBJECTID":560318},"geometry":{"x":167400.33000000007,"y":2543380.2300000023}},{"attributes":{"ID":560346,"DIS_CODE":0,"TOWNNAME":"中西區","LI":"郡西里","LIN":"9鄰","STREET":"郡西路","SECT":" ","MAREA":" ","LANE":" ","ALLEY":" ","HOUSE_NO":"８８號","E_COORD97":167421.81,"N_COORD97":2543391.7599999998,"ADDRESS":"郡西路８８號","OBJECTID":560319},"geometry":{"x":167421.80999999959,"y":2543391.7600000035}},{"attributes":{"ID":560347,"DIS_CODE":0,"TOWNNAME":"中西區","LI":"郡西里","LIN":"9鄰","STREET":"大勇街","SECT":" ","MAREA":" ","LANE":" ","ALLEY":" ","HOUSE_NO":"４２號","E_COORD97":167371.01999999999,"N_COORD97":2543385.3599999999,"ADDRESS":"大勇街４２號","OBJECTID":560320},"geometry":{"x":167371.02000000048,"y":2543385.3600000013}},{"attributes":{"ID":560348,"DIS_CODE":0,"TOWNNAME":"中西區","LI":"郡西里","LIN":"9鄰","STREET":"大勇街","SECT":" ","MAREA":" ","LANE":" ","ALLEY":" ","HOUSE_NO":"４４號","E_COORD97":167368.57999999999,"N_COORD97":2543385.3599999999,"ADDRESS":"大勇街４４號","OBJECTID":560321},"geometry":{"x":167368.58000000194,"y":2543385.3600000013}},{"attributes":{"ID":560349,"DIS_CODE":0,"TOWNNAME":"中西區","LI":"郡西里","LIN":"9鄰","STREET":"大勇街","SECT":" ","MAREA":" ","LANE":" ","ALLEY":" ","HOUSE_NO":"４６號","E_COORD97":167359.91,"N_COORD97":2543383.2799999998,"ADDRESS":"大勇街４６號","OBJECTID":560322},"geometry":{"x":167359.91000000108,"y":2543383.2799999993}},{"attributes":{"ID":560350,"DIS_CODE":0,"TOWNNAME":"中西區","LI":"水仙里","LIN":"9鄰","STREET":"和平街","SECT":" ","MAREA":" ","LANE":" ","ALLEY":" ","HOUSE_NO":"７１號之１","E_COORD97":167722.41,"N_COORD97":2544102.6400000001,"ADDRESS":"和平街７１號之１","OBJECTID":560323},"geometry":{"x":167722.41000000201,"y":2544102.6400000025}},{"attributes":{"ID":560351,"DIS_CODE":0,"TOWNNAME":"中西區","LI":"水仙里","LIN":"9鄰","STREET":"和平街","SECT":" ","MAREA":" ","LANE":" ","ALLEY":" ","HOUSE_NO":"７３號","E_COORD97":167717.26000000001,"N_COORD97":2544103.48,"ADDRESS":"和平街７３號","OBJECTID":560324},"geometry":{"x":167717.25999999978,"y":2544103.4800000023}},{"attributes":{"ID":560352,"DIS_CODE":0,"TOWNNAME":"中西區","LI":"水仙里","LIN":"9鄰","STREET":"忠明街","SECT":" ","MAREA":" ","LANE":" ","ALLEY":" ","HOUSE_NO":"１２號","E_COORD97":167691.51000000001,"N_COORD97":2544082.1499999999,"ADDRESS":"忠明街１２號","OBJECTID":560325},"geometry":{"x":167691.51000000071,"y":2544082.1500000022}},{"attributes":{"ID":560353,"DIS_CODE":0,"TOWNNAME":"中西區","LI":"中正里","LIN":"9鄰","STREET":"中正路","SECT":" ","MAREA":" ","LANE":" ","ALLEY":" ","HOUSE_NO":"３０６號","E_COORD97":167522.25,"N_COORD97":2543793.3300000001,"ADDRESS":"中正路３０６號","OBJECTID":560326},"geometry":{"x":167522.25000000093,"y":2543793.3300000001}},{"attributes":{"ID":560354,"DIS_CODE":0,"TOWNNAME":"中西區","LI":"普濟里","LIN":"9鄰","STREET":"郡緯街","SECT":" ","MAREA":" ","LANE":" ","ALLEY":" ","HOUSE_NO":"４８號","E_COORD97":167977.64000000001,"N_COORD97":2544377.2599999998,"ADDRESS":"郡緯街４８號","OBJECTID":560327},"geometry":{"x":167977.63999999966,"y":2544377.2599999998}},{"attributes":{"ID":560355,"DIS_CODE":0,"TOWNNAME":"中西區","LI":"普濟里","LIN":"9鄰","STREET":"郡緯街","SECT":" ","MAREA":" ","LANE":" ","ALLEY":" ","HOUSE_NO":"５０號","E_COORD97":167972.45000000001,"N_COORD97":2544380.2200000002,"ADDRESS":"郡緯街５０號","OBJECTID":560328},"geometry":{"x":167972.45000000019,"y":2544380.2200000025}},{"attributes":{"ID":560356,"DIS_CODE":0,"TOWNNAME":"中西區","LI":"普濟里","LIN":"9鄰","STREET":"郡緯街","SECT":" ","MAREA":" ","LANE":" ","ALLEY":" ","HOUSE_NO":"５２號","E_COORD97":167959.56,"N_COORD97":2544385.3999999999,"ADDRESS":"郡緯街５２號","OBJECTID":560329},"geometry":{"x":167959.55999999959,"y":2544385.4000000022}},{"attributes":{"ID":560357,"DIS_CODE":0,"TOWNNAME":"中西區","LI":"普濟里","LIN":"9鄰","STREET":"郡緯街","SECT":" ","MAREA":" ","LANE":" ","ALLEY":" ","HOUSE_NO":"６５號","E_COORD97":167958.06,"N_COORD97":2544372.8599999999,"ADDRESS":"郡緯街６５號","OBJECTID":560330},"geometry":{"x":167958.05999999866,"y":2544372.8599999994}},{"attributes":{"ID":560358,"DIS_CODE":0,"TOWNNAME":"中西區","LI":"普濟里","LIN":"9鄰","STREET":"郡緯街","SECT":" ","MAREA":" ","LANE":" ","ALLEY":" ","HOUSE_NO":"６９號","E_COORD97":167949.60999999999,"N_COORD97":2544375.25,"ADDRESS":"郡緯街６９號","OBJECTID":560331},"geometry":{"x":167949.61000000034,"y":2544375.2500000037}},{"attributes":{"ID":560359,"DIS_CODE":0,"TOWNNAME":"中西區","LI":"普濟里","LIN":"9鄰","STREET":"慈聖街","SECT":" ","MAREA":" ","LANE":" ","ALLEY":" ","HOUSE_NO":"５１號","E_COORD97":167952.29000000001,"N_COORD97":2544366.5699999998,"ADDRESS":"慈聖街５１號","OBJECTID":560332},"geometry":{"x":167952.29000000097,"y":2544366.570000004}},{"attributes":{"ID":560360,"DIS_CODE":0,"TOWNNAME":"中西區","LI":"普濟里","LIN":"9鄰","STREET":"慈聖街","SECT":" ","MAREA":" ","LANE":" ","ALLEY":" ","HOUSE_NO":"５３號","E_COORD97":167957.03,"N_COORD97":2544367.8399999999,"ADDRESS":"慈聖街５３號","OBJECTID":560333},"geometry":{"x":167957.03000000026,"y":2544367.8400000036}},{"attributes":{"ID":560361,"DIS_CODE":0,"TOWNNAME":"中西區","LI":"普濟里","LIN":"9鄰","STREET":"慈聖街","SECT":" ","MAREA":" ","LANE":" ","ALLEY":" ","HOUSE_NO":"６３號","E_COORD97":167980.60000000001,"N_COORD97":2544382.4399999999,"ADDRESS":"慈聖街６３號","OBJECTID":560334},"geometry":{"x":167980.60000000056,"y":2544382.4399999995}},{"attributes":{"ID":560362,"DIS_CODE":0,"TOWNNAME":"中西區","LI":"普濟里","LIN":"9鄰","STREET":"慈聖街","SECT":" ","MAREA":" ","LANE":" ","ALLEY":" ","HOUSE_NO":"６５號","E_COORD97":167984.31,"N_COORD97":2544385.1099999999,"ADDRESS":"慈聖街６５號","OBJECTID":560335},"geometry":{"x":167984.31000000052,"y":2544385.1099999994}},{"attributes":{"ID":560363,"DIS_CODE":0,"TOWNNAME":"中西區","LI":"普濟里","LIN":"9鄰","STREET":"慈聖街","SECT":" ","MAREA":" ","LANE":" ","ALLEY":" ","HOUSE_NO":"６７號","E_COORD97":167991.67999999999,"N_COORD97":2544387.8900000001,"ADDRESS":"慈聖街６７號","OBJECTID":560336},"geometry":{"x":167991.68000000063,"y":2544387.8900000006}},{"attributes":{"ID":560364,"DIS_CODE":0,"TOWNNAME":"中西區","LI":"普濟里","LIN":"9鄰","STREET":"慈聖街","SECT":" ","MAREA":" ","LANE":" ","ALLEY":" ","HOUSE_NO":"６９號","E_COORD97":168003.10000000001,"N_COORD97":2544391.0600000001,"ADDRESS":"慈聖街６９號","OBJECTID":560337},"geometry":{"x":168003.09999999963,"y":2544391.0600000024}},{"attributes":{"ID":560365,"DIS_CODE":0,"TOWNNAME":"中西區","LI":"普濟里","LIN":"9鄰","STREET":"慈聖街","SECT":" ","MAREA":" ","LANE":" ","ALLEY":" ","HOUSE_NO":"７１號","E_COORD97":168006.59,"N_COORD97":2544393.4399999999,"ADDRESS":"慈聖街７１號","OBJECTID":560338},"geometry":{"x":168006.58999999985,"y":2544393.4399999976}},{"attributes":{"ID":560366,"DIS_CODE":0,"TOWNNAME":"中西區","LI":"普濟里","LIN":"9鄰","STREET":"慈聖街","SECT":" ","MAREA":" ","LANE":" ","ALLEY":" ","HOUSE_NO":"７１號之１","E_COORD97":168011.03,"N_COORD97":2544395.8199999998,"ADDRESS":"慈聖街７１號之１","OBJECTID":560339},"geometry":{"x":168011.03000000026,"y":2544395.8200000022}},{"attributes":{"ID":560367,"DIS_CODE":0,"TOWNNAME":"中西區","LI":"普濟里","LIN":"9鄰","STREET":"慈聖街","SECT":" ","MAREA":" ","LANE":" ","ALLEY":" ","HOUSE_NO":"７３號","E_COORD97":168016.26999999999,"N_COORD97":2544398.9900000002,"ADDRESS":"慈聖街７３號","OBJECTID":560340},"geometry":{"x":168016.27000000048,"y":2544398.9900000021}},{"attributes":{"ID":560368,"DIS_CODE":0,"TOWNNAME":"中西區","LI":"普濟里","LIN":"9鄰","STREET":"慈聖街","SECT":" ","MAREA":" ","LANE":" ","ALLEY":" ","HOUSE_NO":"７５號","E_COORD97":168020.23000000001,"N_COORD97":2544402.1499999999,"ADDRESS":"慈聖街７５號","OBJECTID":560341},"geometry":{"x":168020.23000000045,"y":2544402.1500000004}},{"attributes":{"ID":560369,"DIS_CODE":0,"TOWNNAME":"中西區","LI":"普濟里","LIN":"9鄰","STREET":"慈聖街","SECT":" ","MAREA":" ","LANE":" ","ALLEY":" ","HOUSE_NO":"７７號","E_COORD97":168024.98999999999,"N_COORD97":2544403.7400000002,"ADDRESS":"慈聖街７７號","OBJECTID":560342},"geometry":{"x":168024.99000000022,"y":2544403.7400000021}},{"attributes":{"ID":560370,"DIS_CODE":0,"TOWNNAME":"中西區","LI":"普濟里","LIN":"9鄰","STREET":"慈聖街","SECT":" ","MAREA":" ","LANE":" ","ALLEY":" ","HOUSE_NO":"７９號","E_COORD97":168029.47,"N_COORD97":2544406.0600000001,"ADDRESS":"慈聖街７９號","OBJECTID":560343},"geometry":{"x":168029.46999999974,"y":2544406.0600000005}},{"attributes":{"ID":560371,"DIS_CODE":0,"TOWNNAME":"中西區","LI":"水仙里","LIN":"9鄰","STREET":"忠明街","SECT":" ","MAREA":" ","LANE":" ","ALLEY":" ","HOUSE_NO":"６號","E_COORD97":167704.70000000001,"N_COORD97":2544078.0800000001,"ADDRESS":"忠明街６號","OBJECTID":560344},"geometry":{"x":167704.70000000019,"y":2544078.0800000038}},{"attributes":{"ID":560372,"DIS_CODE":0,"TOWNNAME":"中西區","LI":"水仙里","LIN":"9鄰","STREET":"忠明街","SECT":" ","MAREA":" ","LANE":" ","ALLEY":" ","HOUSE_NO":"８號","E_COORD97":167699.75,"N_COORD97":2544079.29,"ADDRESS":"忠明街８號","OBJECTID":560345},"geometry":{"x":167699.75000000186,"y":2544079.290000001}},{"attributes":{"ID":560373,"DIS_CODE":0,"TOWNNAME":"中西區","LI":"西賢里","LIN":"9鄰","STREET":"西賢一街","SECT":" ","MAREA":" ","LANE":" ","ALLEY":" ","HOUSE_NO":"１００號","E_COORD97":165711.56,"N_COORD97":2544646.23,"ADDRESS":"西賢一街１００號","OBJECTID":560346},"geometry":{"x":165711.55999999959,"y":2544646.2300000004}},{"attributes":{"ID":560374,"DIS_CODE":0,"TOWNNAME":"中西區","LI":"西賢里","LIN":"9鄰","STREET":"西賢一街","SECT":" ","MAREA":" ","LANE":" ","ALLEY":" ","HOUSE_NO":"１０２號","E_COORD97":165713.14000000001,"N_COORD97":2544652.3700000001,"ADDRESS":"西賢一街１０２號","OBJECTID":560347},"geometry":{"x":165713.13999999966,"y":2544652.370000001}},{"attributes":{"ID":560375,"DIS_CODE":0,"TOWNNAME":"中西區","LI":"西賢里","LIN":"9鄰","STREET":"西賢一街","SECT":" ","MAREA":" ","LANE":" ","ALLEY":" ","HOUSE_NO":"１０６號","E_COORD97":165713.14000000001,"N_COORD97":2544657.4500000002,"ADDRESS":"西賢一街１０６號","OBJECTID":560348},"geometry":{"x":165713.13999999966,"y":2544657.4499999993}},{"attributes":{"ID":560376,"DIS_CODE":0,"TOWNNAME":"中西區","LI":"西賢里","LIN":"9鄰","STREET":"西賢一街","SECT":" ","MAREA":" ","LANE":" ","ALLEY":" ","HOUSE_NO":"１０８號","E_COORD97":165712.91,"N_COORD97":2544661.8700000001,"ADDRESS":"西賢一街１０８號","OBJECTID":560349},"geometry":{"x":165712.91000000015,"y":2544661.8700000029}},{"attributes":{"ID":560377,"DIS_CODE":0,"TOWNNAME":"中西區","LI":"西賢里","LIN":"9鄰","STREET":"西賢一街","SECT":" ","MAREA":" ","LANE":" ","ALLEY":" ","HOUSE_NO":"１１０號","E_COORD97":165712.25,"N_COORD97":2544666.2999999998,"ADDRESS":"西賢一街１１０號","OBJECTID":560350},"geometry":{"x":165712.25,"y":2544666.3000000007}},{"attributes":{"ID":560378,"DIS_CODE":0,"TOWNNAME":"中西區","LI":"西賢里","LIN":"9鄰","STREET":"西賢一街","SECT":" ","MAREA":" ","LANE":" ","ALLEY":" ","HOUSE_NO":"１１２號","E_COORD97":165712.91,"N_COORD97":2544670.7200000002,"ADDRESS":"西賢一街１１２號","OBJECTID":560351},"geometry":{"x":165712.91000000015,"y":2544670.7200000007}},{"attributes":{"ID":560379,"DIS_CODE":0,"TOWNNAME":"中西區","LI":"西賢里","LIN":"9鄰","STREET":"西賢一街","SECT":" ","MAREA":" ","LANE":" ","ALLEY":" ","HOUSE_NO":"１１６號","E_COORD97":165714.91,"N_COORD97":2544678.23,"ADDRESS":"西賢一街１１６號","OBJECTID":560352},"geometry":{"x":165714.91000000015,"y":2544678.2300000023}},{"attributes":{"ID":560380,"DIS_CODE":0,"TOWNNAME":"中西區","LI":"西賢里","LIN":"9鄰","STREET":"西賢一街","SECT":" ","MAREA":" ","LANE":" ","ALLEY":" ","HOUSE_NO":"９０號","E_COORD97":165712.47,"N_COORD97":2544627.2000000002,"ADDRESS":"西賢一街９０號","OBJECTID":560353},"geometry":{"x":165712.46999999974,"y":2544627.2000000011}},{"attributes":{"ID":560381,"DIS_CODE":0,"TOWNNAME":"中西區","LI":"西賢里","LIN":"9鄰","STREET":"西賢一街","SECT":" ","MAREA":" ","LANE":" ","ALLEY":" ","HOUSE_NO":"９２號","E_COORD97":165712.59,"N_COORD97":2544631.48,"ADDRESS":"西賢一街９２號","OBJECTID":560354},"geometry":{"x":165712.59000000078,"y":2544631.4799999986}},{"attributes":{"ID":560382,"DIS_CODE":0,"TOWNNAME":"中西區","LI":"西賢里","LIN":"9鄰","STREET":"西賢一街","SECT":" ","MAREA":" ","LANE":" ","ALLEY":" ","HOUSE_NO":"９６號","E_COORD97":165712.35999999999,"N_COORD97":2544635.71,"ADDRESS":"西賢一街９６號","OBJECTID":560355},"geometry":{"x":165712.36000000034,"y":2544635.7100000028}},{"attributes":{"ID":560383,"DIS_CODE":0,"TOWNNAME":"中西區","LI":"西賢里","LIN":"9鄰","STREET":"西賢一街","SECT":" ","MAREA":" ","LANE":" ","ALLEY":" ","HOUSE_NO":"９８號","E_COORD97":165711.91,"N_COORD97":2544640.8500000001,"ADDRESS":"西賢一街９８號","OBJECTID":560356},"geometry":{"x":165711.91000000201,"y":2544640.8499999996}},{"attributes":{"ID":560384,"DIS_CODE":0,"TOWNNAME":"中西區","LI":"西賢里","LIN":"9鄰","STREET":"西賢街","SECT":" ","MAREA":" ","LANE":" ","ALLEY":" ","HOUSE_NO":"６７號","E_COORD97":165811.39999999999,"N_COORD97":2544651.79,"ADDRESS":"西賢街６７號","OBJECTID":560357},"geometry":{"x":165811.4000000013,"y":2544651.7899999972}},{"attributes":{"ID":560385,"DIS_CODE":0,"TOWNNAME":"中西區","LI":"西賢里","LIN":"9鄰","STREET":"西賢街","SECT":" ","MAREA":" ","LANE":" ","ALLEY":" ","HOUSE_NO":"６９號","E_COORD97":165806.14000000001,"N_COORD97":2544652.3999999999,"ADDRESS":"西賢街６９號","OBJECTID":560358},"geometry":{"x":165806.13999999966,"y":2544652.3999999985}},{"attributes":{"ID":560386,"DIS_CODE":0,"TOWNNAME":"中西區","LI":"西賢里","LIN":"9鄰","STREET":"西賢街","SECT":" ","MAREA":" ","LANE":" ","ALLEY":" ","HOUSE_NO":"７１號","E_COORD97":165800.26999999999,"N_COORD97":2544652.1899999999,"ADDRESS":"西賢街７１號","OBJECTID":560359},"geometry":{"x":165800.26999999955,"y":2544652.1899999995}},{"attributes":{"ID":560387,"DIS_CODE":0,"TOWNNAME":"中西區","LI":"西賢里","LIN":"9鄰","STREET":"西賢街","SECT":" ","MAREA":" ","LANE":" ","ALLEY":" ","HOUSE_NO":"７３號","E_COORD97":165798.64999999999,"N_COORD97":2544674.4199999999,"ADDRESS":"西賢街７３號","OBJECTID":560360},"geometry":{"x":165798.64999999944,"y":2544674.4199999999}},{"attributes":{"ID":560388,"DIS_CODE":0,"TOWNNAME":"中西區","LI":"西賢里","LIN":"9鄰","STREET":"西賢街","SECT":" ","MAREA":" ","LANE":" ","ALLEY":" ","HOUSE_NO":"７５號","E_COORD97":165805.32999999999,"N_COORD97":2544673.0099999998,"ADDRESS":"西賢街７５號","OBJECTID":560361},"geometry":{"x":165805.33000000007,"y":2544673.0100000016}},{"attributes":{"ID":560389,"DIS_CODE":0,"TOWNNAME":"中西區","LI":"西賢里","LIN":"9鄰","STREET":"西賢街","SECT":" ","MAREA":" ","LANE":" ","ALLEY":" ","HOUSE_NO":"７７號","E_COORD97":165810.79000000001,"N_COORD97":2544674.2200000002,"ADDRESS":"西賢街７７號","OBJECTID":560362},"geometry":{"x":165810.79000000004,"y":2544674.2199999988}},{"attributes":{"ID":560390,"DIS_CODE":0,"TOWNNAME":"中西區","LI":"西賢里","LIN":"9鄰","STREET":"西賢街","SECT":" ","MAREA":" ","LANE":" ","ALLEY":" ","HOUSE_NO":"７９號","E_COORD97":165815.64999999999,"N_COORD97":2544674.4199999999,"ADDRESS":"西賢街７９號","OBJECTID":560363},"geometry":{"x":165815.65000000224,"y":2544674.4199999999}},{"attributes":{"ID":560391,"DIS_CODE":0,"TOWNNAME":"新市區","LI":"永就里","LIN":"9鄰","STREET":"中山路","SECT":" ","MAREA":" ","LANE":" ","ALLEY":" ","HOUSE_NO":"２０２之２３號","E_COORD97":177708.48999999999,"N_COORD97":2552252.2999999998,"ADDRESS":"中山路２０２之２３號","OBJECTID":560364},"geometry":{"x":177708.49000000209,"y":2552252.3000000026}},{"attributes":{"ID":560392,"DIS_CODE":0,"TOWNNAME":"新市區","LI":"永就里","LIN":"9鄰","STREET":"中華路","SECT":" ","MAREA":" ","LANE":" ","ALLEY":" ","HOUSE_NO":"２１號","E_COORD97":177413.31,"N_COORD97":2551880.75,"ADDRESS":"中華路２１號","OBJECTID":560365},"geometry":{"x":177413.30999999959,"y":2551880.75}},{"attributes":{"ID":560393,"DIS_CODE":0,"TOWNNAME":"新市區","LI":"三舍里","LIN":"9鄰","STREET":"大順三路","SECT":" ","MAREA":" ","LANE":" ","ALLEY":" ","HOUSE_NO":"６９號","E_COORD97":177170.10000000001,"N_COORD97":2555414.25,"ADDRESS":"大順三路６９號","OBJECTID":560366},"geometry":{"x":177170.10000000056,"y":2555414.2500000037}},{"attributes":{"ID":560394,"DIS_CODE":0,"TOWNNAME":"新市區","LI":"新和里","LIN":"9鄰","STREET":"可口街","SECT":" ","MAREA":" ","LANE":" ","ALLEY":" ","HOUSE_NO":"２５號","E_COORD97":177582.45999999999,"N_COORD97":2552424,"ADDRESS":"可口街２５號","OBJECTID":560367},"geometry":{"x":177582.45999999996,"y":2552424}},{"attributes":{"ID":560395,"DIS_CODE":0,"TOWNNAME":"新市區","LI":"新市里","LIN":"9鄰","STREET":"中正路","SECT":" ","MAREA":" ","LANE":" ","ALLEY":" ","HOUSE_NO":"２９４號","E_COORD97":177474.81,"N_COORD97":2553134.25,"ADDRESS":"中正路２９４號","OBJECTID":560368},"geometry":{"x":177474.80999999959,"y":2553134.25}},{"attributes":{"ID":560396,"DIS_CODE":0,"TOWNNAME":"新市區","LI":"三舍里","LIN":"9鄰","STREET":"大順七路","SECT":" ","MAREA":" ","LANE":" ","ALLEY":" ","HOUSE_NO":"９０號","E_COORD97":177017.07000000001,"N_COORD97":2556077.7599999998,"ADDRESS":"大順七路９０號","OBJECTID":560369},"geometry":{"x":177017.07000000123,"y":2556077.7599999998}},{"attributes":{"ID":560397,"DIS_CODE":0,"TOWNNAME":"新市區","LI":"新市里","LIN":"9鄰","STREET":"中興街","SECT":" ","MAREA":" ","LANE":" ","ALLEY":" ","HOUSE_NO":"９０號","E_COORD97":177583.42999999999,"N_COORD97":2553117.25,"ADDRESS":"中興街９０號","OBJECTID":560370},"geometry":{"x":177583.43000000063,"y":2553117.25}},{"attributes":{"ID":560398,"DIS_CODE":0,"TOWNNAME":"新市區","LI":"永就里","LIN":"9鄰","STREET":"中山路","SECT":" ","MAREA":" ","LANE":" ","ALLEY":" ","HOUSE_NO":"１７３號","E_COORD97":178042.20999999999,"N_COORD97":2552377,"ADDRESS":"中山路１７３號","OBJECTID":560371},"geometry":{"x":178042.21000000183,"y":2552377}},{"attributes":{"ID":560399,"DIS_CODE":0,"TOWNNAME":"新市區","LI":"永就里","LIN":"9鄰","STREET":"中山路","SECT":" ","MAREA":" ","LANE":" ","ALLEY":" ","HOUSE_NO":"２０２之２１號","E_COORD97":177722.39999999999,"N_COORD97":2552261.2999999998,"ADDRESS":"中山路２０２之２１號","OBJECTID":560372},"geometry":{"x":177722.40000000037,"y":2552261.3000000007}},{"attributes":{"ID":560400,"DIS_CODE":0,"TOWNNAME":"新市區","LI":"新市里","LIN":"9鄰","STREET":"中興街","SECT":" ","MAREA":" ","LANE":" ","ALLEY":" ","HOUSE_NO":"１２４號","E_COORD97":177510.26000000001,"N_COORD97":2553115.25,"ADDRESS":"中興街１２４號","OBJECTID":560373},"geometry":{"x":177510.26000000071,"y":2553115.25}},{"attributes":{"ID":560401,"DIS_CODE":0,"TOWNNAME":"新市區","LI":"新市里","LIN":"9鄰","STREET":"中興街","SECT":" ","MAREA":" ","LANE":" ","ALLEY":" ","HOUSE_NO":"７０之１號","E_COORD97":177617.01000000001,"N_COORD97":2553158.2999999998,"ADDRESS":"中興街７０之１號","OBJECTID":560374},"geometry":{"x":177617.01000000071,"y":2553158.3000000026}},{"attributes":{"ID":560402,"DIS_CODE":0,"TOWNNAME":"新市區","LI":"新市里","LIN":"9鄰","STREET":"中興街","SECT":" ","MAREA":" ","LANE":" ","ALLEY":" ","HOUSE_NO":"１１２之１號","E_COORD97":177540.07000000001,"N_COORD97":2553116.0499999998,"ADDRESS":"中興街１１２之１號","OBJECTID":560375},"geometry":{"x":177540.07000000216,"y":2553116.0500000007}},{"attributes":{"ID":560403,"DIS_CODE":0,"TOWNNAME":"新市區","LI":"永就里","LIN":"9鄰","STREET":"中山路","SECT":" ","MAREA":" ","LANE":" ","ALLEY":" ","HOUSE_NO":"２０２之５號","E_COORD97":177736.60000000001,"N_COORD97":2552238.5499999998,"ADDRESS":"中山路２０２之５號","OBJECTID":560376},"geometry":{"x":177736.60000000056,"y":2552238.5500000007}},{"attributes":{"ID":560404,"DIS_CODE":0,"TOWNNAME":"新市區","LI":"永就里","LIN":"9鄰","STREET":"中山路","SECT":" ","MAREA":" ","LANE":" ","ALLEY":" ","HOUSE_NO":"１９６號","E_COORD97":177782.04000000001,"N_COORD97":2552269.5,"ADDRESS":"中山路１９６號","OBJECTID":560377},"geometry":{"x":177782.04000000004,"y":2552269.4999999981}},{"attributes":{"ID":560405,"DIS_CODE":0,"TOWNNAME":"新市區","LI":"新和里","LIN":"9鄰","STREET":"可口街","SECT":" ","MAREA":" ","LANE":" ","ALLEY":" ","HOUSE_NO":"３３號","E_COORD97":177586.12,"N_COORD97":2552439.75,"ADDRESS":"可口街３３號","OBJECTID":560378},"geometry":{"x":177586.12000000104,"y":2552439.75}},{"attributes":{"ID":560406,"DIS_CODE":0,"TOWNNAME":"新市區","LI":"永就里","LIN":"9鄰","STREET":"中華路","SECT":" ","MAREA":" ","LANE":" ","ALLEY":" ","HOUSE_NO":"２３號","E_COORD97":177432.26999999999,"N_COORD97":2551886,"ADDRESS":"中華路２３號","OBJECTID":560379},"geometry":{"x":177432.26999999955,"y":2551886}},{"attributes":{"ID":560407,"DIS_CODE":0,"TOWNNAME":"東區","LI":"崇善里","LIN":"9鄰","STREET":"仁和路","SECT":" ","MAREA":" ","LANE":" ","ALLEY":" ","HOUSE_NO":"１００號之４","E_COORD97":171244.14999999999,"N_COORD97":2541491.6400000001,"ADDRESS":"仁和路１００號之４","OBJECTID":560380},"geometry":{"x":171244.1500000013,"y":2541491.6400000025}},{"attributes":{"ID":560408,"DIS_CODE":0,"TOWNNAME":"東區","LI":"崇善里","LIN":"9鄰","STREET":"仁和路","SECT":" ","MAREA":" ","LANE":" ","ALLEY":" ","HOUSE_NO":"１００號之６","E_COORD97":171248.01000000001,"N_COORD97":2541485.0299999998,"ADDRESS":"仁和路１００號之６","OBJECTID":560381},"geometry":{"x":171248.01000000071,"y":2541485.0300000012}},{"attributes":{"ID":560409,"DIS_CODE":0,"TOWNNAME":"東區","LI":"崇善里","LIN":"9鄰","STREET":"仁和路","SECT":" ","MAREA":" ","LANE":" ","ALLEY":" ","HOUSE_NO":"１００號之７","E_COORD97":171248.84,"N_COORD97":2541481.1699999999,"ADDRESS":"仁和路１００號之７","OBJECTID":560382},"geometry":{"x":171248.84000000078,"y":2541481.1700000018}},{"attributes":{"ID":560410,"DIS_CODE":0,"TOWNNAME":"東區","LI":"崇善里","LIN":"9鄰","STREET":"仁和路","SECT":" ","MAREA":" ","LANE":" ","ALLEY":" ","HOUSE_NO":"１０４號","E_COORD97":171268.75,"N_COORD97":2541448.5299999998,"ADDRESS":"仁和路１０４號","OBJECTID":560383},"geometry":{"x":171268.75000000093,"y":2541448.5299999993}},{"attributes":{"ID":560411,"DIS_CODE":0,"TOWNNAME":"東區","LI":"崇善里","LIN":"9鄰","STREET":"仁和路","SECT":" ","MAREA":" ","LANE":" ","ALLEY":" ","HOUSE_NO":"１０４號之１","E_COORD97":171270.14999999999,"N_COORD97":2541444.5600000001,"ADDRESS":"仁和路１０４號之１","OBJECTID":560384},"geometry":{"x":171270.15000000037,"y":2541444.5600000042}},{"attributes":{"ID":560412,"DIS_CODE":0,"TOWNNAME":"東區","LI":"崇善里","LIN":"9鄰","STREET":"仁和路","SECT":" ","MAREA":" ","LANE":" ","ALLEY":" ","HOUSE_NO":"１０４號之２","E_COORD97":171272.51999999999,"N_COORD97":2541442.04,"ADDRESS":"仁和路１０４號之２","OBJECTID":560385},"geometry":{"x":171272.52000000142,"y":2541442.0399999991}},{"attributes":{"ID":560413,"DIS_CODE":0,"TOWNNAME":"東區","LI":"崇善里","LIN":"9鄰","STREET":"仁和路","SECT":" ","MAREA":" ","LANE":" ","ALLEY":" ","HOUSE_NO":"１０４號之３","E_COORD97":171274.62,"N_COORD97":2541438.1200000001,"ADDRESS":"仁和路１０４號之３","OBJECTID":560386},"geometry":{"x":171274.62000000104,"y":2541438.1200000029}},{"attributes":{"ID":560414,"DIS_CODE":0,"TOWNNAME":"東區","LI":"崇善里","LIN":"9鄰","STREET":"仁和路","SECT":" ","MAREA":" ","LANE":" ","ALLEY":" ","HOUSE_NO":"１０４號之４","E_COORD97":171276.01000000001,"N_COORD97":2541434.2200000002,"ADDRESS":"仁和路１０４號之４","OBJECTID":560387},"geometry":{"x":171276.00999999978,"y":2541434.2200000025}},{"attributes":{"ID":560415,"DIS_CODE":0,"TOWNNAME":"東區","LI":"崇善里","LIN":"9鄰","STREET":"仁和路","SECT":" ","MAREA":" ","LANE":" ","ALLEY":" ","HOUSE_NO":"１０４號之７","E_COORD97":171277.54999999999,"N_COORD97":2541429.54,"ADDRESS":"仁和路１０４號之７","OBJECTID":560388},"geometry":{"x":171277.54999999888,"y":2541429.5400000028}},{"attributes":{"ID":560416,"DIS_CODE":0,"TOWNNAME":"東區","LI":"崇善里","LIN":"9鄰","STREET":"仁和路","SECT":" ","MAREA":" ","LANE":" ","ALLEY":" ","HOUSE_NO":"８８號","E_COORD97":171204.13,"N_COORD97":2541569.0099999998,"ADDRESS":"仁和路８８號","OBJECTID":560389},"geometry":{"x":171204.12999999989,"y":2541569.0099999998}},{"attributes":{"ID":560417,"DIS_CODE":0,"TOWNNAME":"東區","LI":"崇善里","LIN":"9鄰","STREET":"仁和路","SECT":" ","MAREA":" ","LANE":" ","ALLEY":" ","HOUSE_NO":"８８號之１","E_COORD97":171206.63,"N_COORD97":2541565.5,"ADDRESS":"仁和路８８號之１","OBJECTID":560390},"geometry":{"x":171206.63000000082,"y":2541565.5}},{"attributes":{"ID":560418,"DIS_CODE":0,"TOWNNAME":"東區","LI":"崇善里","LIN":"9鄰","STREET":"仁和路","SECT":" ","MAREA":" ","LANE":" ","ALLEY":" ","HOUSE_NO":"８８號之２","E_COORD97":171210.14999999999,"N_COORD97":2541560.4900000002,"ADDRESS":"仁和路８８號之２","OBJECTID":560391},"geometry":{"x":171210.1500000013,"y":2541560.4900000021}},{"attributes":{"ID":560419,"DIS_CODE":0,"TOWNNAME":"東區","LI":"崇善里","LIN":"9鄰","STREET":"仁和路","SECT":" ","MAREA":" ","LANE":" ","ALLEY":" ","HOUSE_NO":"８８號之３","E_COORD97":171211.14999999999,"N_COORD97":2541556.48,"ADDRESS":"仁和路８８號之３","OBJECTID":560392},"geometry":{"x":171211.15000000037,"y":2541556.4799999986}},{"attributes":{"ID":560420,"DIS_CODE":0,"TOWNNAME":"東區","LI":"崇善里","LIN":"9鄰","STREET":"仁和路","SECT":" ","MAREA":" ","LANE":" ","ALLEY":" ","HOUSE_NO":"９０號","E_COORD97":171213.16,"N_COORD97":2541551.46,"ADDRESS":"仁和路９０號","OBJECTID":560393},"geometry":{"x":171213.16000000108,"y":2541551.4600000028}},{"attributes":{"ID":560421,"DIS_CODE":0,"TOWNNAME":"東區","LI":"崇善里","LIN":"9鄰","STREET":"仁和路","SECT":" ","MAREA":" ","LANE":" ","ALLEY":" ","HOUSE_NO":"９０號之１","E_COORD97":171215.67000000001,"N_COORD97":2541547.4500000002,"ADDRESS":"仁和路９０號之１","OBJECTID":560394},"geometry":{"x":171215.66999999993,"y":2541547.4499999993}},{"attributes":{"ID":560422,"DIS_CODE":0,"TOWNNAME":"東區","LI":"崇善里","LIN":"9鄰","STREET":"仁和路","SECT":" ","MAREA":" ","LANE":" ","ALLEY":" ","HOUSE_NO":"９０號之２","E_COORD97":171217.17000000001,"N_COORD97":2541542.4399999999,"ADDRESS":"仁和路９０號之２","OBJECTID":560395},"geometry":{"x":171217.16999999993,"y":2541542.4400000032}},{"attributes":{"ID":560423,"DIS_CODE":0,"TOWNNAME":"東區","LI":"崇善里","LIN":"9鄰","STREET":"仁和路","SECT":" ","MAREA":" ","LANE":" ","ALLEY":" ","HOUSE_NO":"９０號之３","E_COORD97":171219.67999999999,"N_COORD97":2541538.9300000002,"ADDRESS":"仁和路９０號之３","OBJECTID":560396},"geometry":{"x":171219.68000000063,"y":2541538.9299999997}},{"attributes":{"ID":560424,"DIS_CODE":0,"TOWNNAME":"東區","LI":"崇善里","LIN":"9鄰","STREET":"仁和路","SECT":" ","MAREA":" ","LANE":" ","ALLEY":" ","HOUSE_NO":"９４號","E_COORD97":171231.38,"N_COORD97":2541524.29,"ADDRESS":"仁和路９４號","OBJECTID":560397},"geometry":{"x":171231.38000000175,"y":2541524.290000001}},{"attributes":{"ID":560425,"DIS_CODE":0,"TOWNNAME":"東區","LI":"崇善里","LIN":"9鄰","STREET":"仁和路","SECT":" ","MAREA":" ","LANE":" ","ALLEY":" ","HOUSE_NO":"９６號","E_COORD97":171232.60000000001,"N_COORD97":2541520.02,"ADDRESS":"仁和路９６號","OBJECTID":560398},"geometry":{"x":171232.59999999963,"y":2541520.0199999996}},{"attributes":{"ID":560426,"DIS_CODE":0,"TOWNNAME":"東區","LI":"東智里","LIN":"9鄰","STREET":"崇德路","SECT":" ","MAREA":" ","LANE":" ","ALLEY":" ","HOUSE_NO":"９７３號","E_COORD97":170797.35999999999,"N_COORD97":2540233.7599999998,"ADDRESS":"崇德路９７３號","OBJECTID":560399},"geometry":{"x":170797.36000000034,"y":2540233.7599999998}},{"attributes":{"ID":560427,"DIS_CODE":0,"TOWNNAME":"東區","LI":"東智里","LIN":"9鄰","STREET":"崇德路","SECT":" ","MAREA":" ","LANE":" ","ALLEY":" ","HOUSE_NO":"９７５號","E_COORD97":170796.89000000001,"N_COORD97":2540229.1800000002,"ADDRESS":"崇德路９７５號","OBJECTID":560400},"geometry":{"x":170796.88999999966,"y":2540229.1800000016}}]}