{"displayFieldName":"TOWNNAME","fieldAliases":{"ID":"ID","DIS_CODE":"DIS_CODE","TOWNNAME":"TOWNNAME","LI":"LI","LIN":"LIN","STREET":"STREET","SECT":"SECT","MAREA":"MAREA","LANE":"LANE","ALLEY":"ALLEY","HOUSE_NO":"HOUSE_NO","E_COORD97":"E_COORD97","N_COORD97":"N_COORD97","ADDRESS":"ADDRESS","OBJECTID":"OBJECTID"},"geometryType":"esriGeometryPoint","spatialReference":{"wkid":102443,"latestWkid":3826},"fields":[{"name":"ID","type":"esriFieldTypeDouble","alias":"ID"},{"name":"DIS_CODE","type":"esriFieldTypeInteger","alias":"DIS_CODE"},{"name":"TOWNNAME","type":"esriFieldTypeString","alias":"TOWNNAME","length":8},{"name":"LI","type":"esriFieldTypeString","alias":"LI","length":8},{"name":"LIN","type":"esriFieldTypeString","alias":"LIN","length":12},{"name":"STREET","type":"esriFieldTypeString","alias":"STREET","length":20},{"name":"SECT","type":"esriFieldTypeString","alias":"SECT","length":8},{"name":"MAREA","type":"esriFieldTypeString","alias":"MAREA","length":12},{"name":"LANE","type":"esriFieldTypeString","alias":"LANE","length":10},{"name":"ALLEY","type":"esriFieldTypeString","alias":"ALLEY","length":10},{"name":"HOUSE_NO","type":"esriFieldTypeString","alias":"HOUSE_NO","length":20},{"name":"E_COORD97","type":"esriFieldTypeDouble","alias":"E_COORD97"},{"name":"N_COORD97","type":"esriFieldTypeDouble","alias":"N_COORD97"},{"name":"ADDRESS","type":"esriFieldTypeString","alias":"ADDRESS","length":50},{"name":"OBJECTID","type":"esriFieldTypeOID","alias":"OBJECTID"}],"features":[{"attributes":{"ID":402225,"DIS_CODE":0,"TOWNNAME":"永康區","LI":"尚頂里","LIN":"11鄰","STREET":"正南一街","SECT":" ","MAREA":" ","LANE":"５７巷","ALLEY":" ","HOUSE_NO":"４６號","E_COORD97":171226.76000000001,"N_COORD97":2547252.1200000001,"ADDRESS":"正南一街５７巷４６號","OBJECTID":402201},"geometry":{"x":171226.75999999978,"y":2547252.1200000048}},{"attributes":{"ID":402226,"DIS_CODE":0,"TOWNNAME":"永康區","LI":"尚頂里","LIN":"11鄰","STREET":"正南一街","SECT":" ","MAREA":" ","LANE":"５７巷","ALLEY":" ","HOUSE_NO":"７２號","E_COORD97":171308.39999999999,"N_COORD97":2547298.0299999998,"ADDRESS":"正南一街５７巷７２號","OBJECTID":402202},"geometry":{"x":171308.4000000013,"y":2547298.0299999993}},{"attributes":{"ID":402227,"DIS_CODE":0,"TOWNNAME":"永康區","LI":"尚頂里","LIN":"11鄰","STREET":"正南一街","SECT":" ","MAREA":" ","LANE":"５７巷","ALLEY":" ","HOUSE_NO":"２３號","E_COORD97":171237.59,"N_COORD97":2547280.9700000002,"ADDRESS":"正南一街５７巷２３號","OBJECTID":402203},"geometry":{"x":171237.59000000078,"y":2547280.9700000025}},{"attributes":{"ID":402228,"DIS_CODE":0,"TOWNNAME":"永康區","LI":"尚頂里","LIN":"11鄰","STREET":"正南一街","SECT":" ","MAREA":" ","LANE":"５７巷","ALLEY":" ","HOUSE_NO":"８０號","E_COORD97":171326.73000000001,"N_COORD97":2547310.29,"ADDRESS":"正南一街５７巷８０號","OBJECTID":402204},"geometry":{"x":171326.73000000138,"y":2547310.290000001}},{"attributes":{"ID":402229,"DIS_CODE":0,"TOWNNAME":"永康區","LI":"尚頂里","LIN":"11鄰","STREET":"正南一街","SECT":" ","MAREA":" ","LANE":"５７巷","ALLEY":" ","HOUSE_NO":"２７號","E_COORD97":171249.82999999999,"N_COORD97":2547289.2599999998,"ADDRESS":"正南一街５７巷２７號","OBJECTID":402205},"geometry":{"x":171249.83000000007,"y":2547289.2599999998}},{"attributes":{"ID":402230,"DIS_CODE":0,"TOWNNAME":"永康區","LI":"尚頂里","LIN":"11鄰","STREET":"正南一街","SECT":" ","MAREA":" ","LANE":"５７巷","ALLEY":" ","HOUSE_NO":"１２號","E_COORD97":171122.48999999999,"N_COORD97":2547254.8900000001,"ADDRESS":"正南一街５７巷１２號","OBJECTID":402206},"geometry":{"x":171122.49000000209,"y":2547254.8900000025}},{"attributes":{"ID":402231,"DIS_CODE":0,"TOWNNAME":"永康區","LI":"尚頂里","LIN":"11鄰","STREET":"正南一街","SECT":" ","MAREA":" ","LANE":"５７巷","ALLEY":" ","HOUSE_NO":"７號","E_COORD97":171177.23999999999,"N_COORD97":2547245.27,"ADDRESS":"正南一街５７巷７號","OBJECTID":402207},"geometry":{"x":171177.24000000115,"y":2547245.2699999996}},{"attributes":{"ID":402232,"DIS_CODE":0,"TOWNNAME":"永康區","LI":"尚頂里","LIN":"11鄰","STREET":"正南一街","SECT":" ","MAREA":" ","LANE":"５７巷","ALLEY":" ","HOUSE_NO":"５０號","E_COORD97":171240.23000000001,"N_COORD97":2547259.3399999999,"ADDRESS":"正南一街５７巷５０號","OBJECTID":402208},"geometry":{"x":171240.23000000138,"y":2547259.339999998}},{"attributes":{"ID":402233,"DIS_CODE":0,"TOWNNAME":"永康區","LI":"尚頂里","LIN":"11鄰","STREET":"正南一街","SECT":" ","MAREA":" ","LANE":"５７巷","ALLEY":" ","HOUSE_NO":"３１號","E_COORD97":171274.42999999999,"N_COORD97":2547306.77,"ADDRESS":"正南一街５７巷３１號","OBJECTID":402209},"geometry":{"x":171274.4299999997,"y":2547306.7699999996}},{"attributes":{"ID":402234,"DIS_CODE":0,"TOWNNAME":"永康區","LI":"尚頂里","LIN":"11鄰","STREET":"正南一街","SECT":" ","MAREA":" ","LANE":"５７巷","ALLEY":" ","HOUSE_NO":"７０號","E_COORD97":171302.12,"N_COORD97":2547294.0699999998,"ADDRESS":"正南一街５７巷７０號","OBJECTID":402210},"geometry":{"x":171302.12000000011,"y":2547294.0700000022}},{"attributes":{"ID":402235,"DIS_CODE":0,"TOWNNAME":"佳里區","LI":"六安里","LIN":"11鄰","STREET":"佳北路","SECT":" ","MAREA":" ","LANE":"６９巷","ALLEY":" ","HOUSE_NO":"２號","E_COORD97":166098.60000000001,"N_COORD97":2563334.3700000001,"ADDRESS":"佳北路６９巷２號","OBJECTID":402211},"geometry":{"x":166098.60000000056,"y":2563334.3700000048}},{"attributes":{"ID":402236,"DIS_CODE":0,"TOWNNAME":"永康區","LI":"崑山里","LIN":"18鄰","STREET":"大灣路","SECT":" ","MAREA":" ","LANE":"８９６巷","ALLEY":" ","HOUSE_NO":"２８號","E_COORD97":173766.42999999999,"N_COORD97":2544539.6499999999,"ADDRESS":"大灣路８９６巷２８號","OBJECTID":402212},"geometry":{"x":173766.4299999997,"y":2544539.6500000022}},{"attributes":{"ID":402237,"DIS_CODE":0,"TOWNNAME":"永康區","LI":"崑山里","LIN":"8鄰","STREET":"大灣路","SECT":" ","MAREA":" ","LANE":"９５９巷","ALLEY":" ","HOUSE_NO":"１０號","E_COORD97":173385.48000000001,"N_COORD97":2544306.3799999999,"ADDRESS":"大灣路９５９巷１０號","OBJECTID":402213},"geometry":{"x":173385.48000000045,"y":2544306.3800000008}},{"attributes":{"ID":402238,"DIS_CODE":0,"TOWNNAME":"永康區","LI":"崑山里","LIN":"31鄰","STREET":"大灣路","SECT":" ","MAREA":" ","LANE":"７９８巷","ALLEY":" ","HOUSE_NO":"５６號","E_COORD97":174098.57999999999,"N_COORD97":2544754.5,"ADDRESS":"大灣路７９８巷５６號","OBJECTID":402214},"geometry":{"x":174098.58000000194,"y":2544754.5000000019}},{"attributes":{"ID":402239,"DIS_CODE":0,"TOWNNAME":"永康區","LI":"尚頂里","LIN":"11鄰","STREET":"正南一街","SECT":" ","MAREA":" ","LANE":"５７巷","ALLEY":" ","HOUSE_NO":"１６號","E_COORD97":171126.28,"N_COORD97":2547248.52,"ADDRESS":"正南一街５７巷１６號","OBJECTID":402215},"geometry":{"x":171126.28000000119,"y":2547248.5200000014}},{"attributes":{"ID":402240,"DIS_CODE":0,"TOWNNAME":"永康區","LI":"尚頂里","LIN":"11鄰","STREET":"正南一街","SECT":" ","MAREA":" ","LANE":"５７巷","ALLEY":" ","HOUSE_NO":"８６號","E_COORD97":171341.57999999999,"N_COORD97":2547315.2200000002,"ADDRESS":"正南一街５７巷８６號","OBJECTID":402216},"geometry":{"x":171341.58000000007,"y":2547315.2200000007}},{"attributes":{"ID":402241,"DIS_CODE":0,"TOWNNAME":"永康區","LI":"尚頂里","LIN":"11鄰","STREET":"正南一街","SECT":" ","MAREA":" ","LANE":"５７巷","ALLEY":" ","HOUSE_NO":"５２號","E_COORD97":171247.23999999999,"N_COORD97":2547263.5899999999,"ADDRESS":"正南一街５７巷５２號","OBJECTID":402217},"geometry":{"x":171247.24000000022,"y":2547263.5899999999}},{"attributes":{"ID":402242,"DIS_CODE":0,"TOWNNAME":"永康區","LI":"尚頂里","LIN":"11鄰","STREET":"正南一街","SECT":" ","MAREA":" ","LANE":"５７巷","ALLEY":" ","HOUSE_NO":"６８號","E_COORD97":171297.39000000001,"N_COORD97":2547285.6400000001,"ADDRESS":"正南一街５７巷６８號","OBJECTID":402218},"geometry":{"x":171297.3900000006,"y":2547285.6400000043}},{"attributes":{"ID":402243,"DIS_CODE":0,"TOWNNAME":"永康區","LI":"尚頂里","LIN":"11鄰","STREET":"正南一街","SECT":" ","MAREA":" ","LANE":"５７巷","ALLEY":" ","HOUSE_NO":"３３號","E_COORD97":171292.14000000001,"N_COORD97":2547315.4900000002,"ADDRESS":"正南一街５７巷３３號","OBJECTID":402219},"geometry":{"x":171292.14000000153,"y":2547315.4900000002}},{"attributes":{"ID":402244,"DIS_CODE":0,"TOWNNAME":"永康區","LI":"尚頂里","LIN":"11鄰","STREET":"正南一街","SECT":" ","MAREA":" ","LANE":"５７巷","ALLEY":" ","HOUSE_NO":"６６號","E_COORD97":171286.04999999999,"N_COORD97":2547288.2200000002,"ADDRESS":"正南一街５７巷６６號","OBJECTID":402220},"geometry":{"x":171286.04999999888,"y":2547288.2199999988}},{"attributes":{"ID":402245,"DIS_CODE":0,"TOWNNAME":"永康區","LI":"尚頂里","LIN":"11鄰","STREET":"正南一街","SECT":" ","MAREA":" ","LANE":"５７巷","ALLEY":" ","HOUSE_NO":"２８號","E_COORD97":171176.32000000001,"N_COORD97":2547220.2200000002,"ADDRESS":"正南一街５７巷２８號","OBJECTID":402221},"geometry":{"x":171176.32000000216,"y":2547220.2200000007}},{"attributes":{"ID":402246,"DIS_CODE":0,"TOWNNAME":"永康區","LI":"尚頂里","LIN":"11鄰","STREET":"正南一街","SECT":" ","MAREA":" ","LANE":"５７巷","ALLEY":" ","HOUSE_NO":"１７號","E_COORD97":171209.51999999999,"N_COORD97":2547262.48,"ADDRESS":"正南一街５７巷１７號","OBJECTID":402222},"geometry":{"x":171209.51999999955,"y":2547262.4799999986}},{"attributes":{"ID":402247,"DIS_CODE":0,"TOWNNAME":"永康區","LI":"永康里","LIN":"11鄰","STREET":"中山南路","SECT":" ","MAREA":" ","LANE":"１０５４巷","ALLEY":" ","HOUSE_NO":"４１號","E_COORD97":173743.89999999999,"N_COORD97":2547157.25,"ADDRESS":"中山南路１０５４巷４１號","OBJECTID":402223},"geometry":{"x":173743.90000000037,"y":2547157.25}},{"attributes":{"ID":402248,"DIS_CODE":0,"TOWNNAME":"永康區","LI":"永康里","LIN":"11鄰","STREET":"中山南路","SECT":" ","MAREA":" ","LANE":"１０５４巷","ALLEY":" ","HOUSE_NO":"５１號","E_COORD97":173741.66,"N_COORD97":2547111.6299999999,"ADDRESS":"中山南路１０５４巷５１號","OBJECTID":402224},"geometry":{"x":173741.66000000015,"y":2547111.6300000008}},{"attributes":{"ID":402249,"DIS_CODE":0,"TOWNNAME":"永康區","LI":"永康里","LIN":"11鄰","STREET":"中山南路","SECT":" ","MAREA":" ","LANE":"１０５４巷","ALLEY":" ","HOUSE_NO":"４３號之１","E_COORD97":173747.14999999999,"N_COORD97":2547135.2999999998,"ADDRESS":"中山南路１０５４巷４３號之１","OBJECTID":402225},"geometry":{"x":173747.15000000037,"y":2547135.3000000045}},{"attributes":{"ID":402250,"DIS_CODE":0,"TOWNNAME":"永康區","LI":"永康里","LIN":"11鄰","STREET":"中山南路","SECT":" ","MAREA":" ","LANE":"１０５４巷","ALLEY":" ","HOUSE_NO":"６１號","E_COORD97":173734.57000000001,"N_COORD97":2547091.3799999999,"ADDRESS":"中山南路１０５４巷６１號","OBJECTID":402226},"geometry":{"x":173734.57000000123,"y":2547091.379999999}},{"attributes":{"ID":402251,"DIS_CODE":0,"TOWNNAME":"永康區","LI":"永康里","LIN":"11鄰","STREET":"中山南路","SECT":" ","MAREA":" ","LANE":"１０５４巷","ALLEY":" ","HOUSE_NO":"５９號","E_COORD97":173736.82999999999,"N_COORD97":2547096.3799999999,"ADDRESS":"中山南路１０５４巷５９號","OBJECTID":402227},"geometry":{"x":173736.83000000007,"y":2547096.3800000008}},{"attributes":{"ID":402252,"DIS_CODE":0,"TOWNNAME":"永康區","LI":"正強里","LIN":"11鄰","STREET":"正強街","SECT":" ","MAREA":" ","LANE":"１４６巷","ALLEY":" ","HOUSE_NO":"１０號","E_COORD97":173371.94,"N_COORD97":2547458.3100000001,"ADDRESS":"正強街１４６巷１０號","OBJECTID":402228},"geometry":{"x":173371.94000000041,"y":2547458.3100000024}},{"attributes":{"ID":402253,"DIS_CODE":0,"TOWNNAME":"永康區","LI":"正強里","LIN":"11鄰","STREET":"正強街","SECT":" ","MAREA":" ","LANE":"１４６巷","ALLEY":" ","HOUSE_NO":"７號","E_COORD97":173366.59,"N_COORD97":2547471.25,"ADDRESS":"正強街１４６巷７號","OBJECTID":402229},"geometry":{"x":173366.59000000078,"y":2547471.2500000019}},{"attributes":{"ID":402254,"DIS_CODE":0,"TOWNNAME":"永康區","LI":"永康里","LIN":"11鄰","STREET":"中山南路","SECT":" ","MAREA":" ","LANE":"１０５４巷","ALLEY":" ","HOUSE_NO":"４５號","E_COORD97":173744.98999999999,"N_COORD97":2547125.1299999999,"ADDRESS":"中山南路１０５４巷４５號","OBJECTID":402230},"geometry":{"x":173744.99000000209,"y":2547125.1300000008}},{"attributes":{"ID":402255,"DIS_CODE":0,"TOWNNAME":"永康區","LI":"永康里","LIN":"11鄰","STREET":"中山南路","SECT":" ","MAREA":" ","LANE":"１０５４巷","ALLEY":" ","HOUSE_NO":"５７號","E_COORD97":173737.82000000001,"N_COORD97":2547099.8799999999,"ADDRESS":"中山南路１０５４巷５７號","OBJECTID":402231},"geometry":{"x":173737.82000000216,"y":2547099.8800000008}},{"attributes":{"ID":402256,"DIS_CODE":0,"TOWNNAME":"中西區","LI":"大涼里","LIN":"13鄰","STREET":"府前一街","SECT":" ","MAREA":" ","LANE":" ","ALLEY":" ","HOUSE_NO":"１４號","E_COORD97":166833.01999999999,"N_COORD97":2543709.04,"ADDRESS":"府前一街１４號","OBJECTID":402232},"geometry":{"x":166833.02000000048,"y":2543709.040000001}},{"attributes":{"ID":402257,"DIS_CODE":0,"TOWNNAME":"安南區","LI":"海東里","LIN":"11鄰","STREET":"海佃路","SECT":"二段","MAREA":" ","LANE":"４８３巷","ALLEY":" ","HOUSE_NO":"８９號","E_COORD97":166441.47,"N_COORD97":2549020.8300000001,"ADDRESS":"海佃路二段４８３巷８９號","OBJECTID":402233},"geometry":{"x":166441.46999999974,"y":2549020.8300000019}},{"attributes":{"ID":402258,"DIS_CODE":0,"TOWNNAME":"永康區","LI":"復華里","LIN":"29鄰","STREET":"國華街","SECT":" ","MAREA":" ","LANE":"１３６巷","ALLEY":" ","HOUSE_NO":"１３號","E_COORD97":172663.97,"N_COORD97":2546225.0800000001,"ADDRESS":"國華街１３６巷１３號","OBJECTID":402234},"geometry":{"x":172663.96999999974,"y":2546225.0800000019}},{"attributes":{"ID":402259,"DIS_CODE":0,"TOWNNAME":"安南區","LI":"新順里","LIN":"11鄰","STREET":"育安四街","SECT":" ","MAREA":" ","LANE":"８７巷","ALLEY":" ","HOUSE_NO":"３０號","E_COORD97":169672.34,"N_COORD97":2549699.0699999998,"ADDRESS":"育安四街８７巷３０號","OBJECTID":402235},"geometry":{"x":169672.34000000078,"y":2549699.0700000003}},{"attributes":{"ID":402260,"DIS_CODE":0,"TOWNNAME":"安南區","LI":"新順里","LIN":"11鄰","STREET":"育安四街","SECT":" ","MAREA":" ","LANE":"８７巷","ALLEY":" ","HOUSE_NO":"３２號","E_COORD97":169668.69,"N_COORD97":2549699.71,"ADDRESS":"育安四街８７巷３２號","OBJECTID":402236},"geometry":{"x":169668.69000000227,"y":2549699.7100000028}},{"attributes":{"ID":402261,"DIS_CODE":0,"TOWNNAME":"安南區","LI":"新順里","LIN":"11鄰","STREET":"育安四街","SECT":" ","MAREA":" ","LANE":"８７巷","ALLEY":" ","HOUSE_NO":"３６號","E_COORD97":169665.84,"N_COORD97":2549700.5,"ADDRESS":"育安四街８７巷３６號","OBJECTID":402237},"geometry":{"x":169665.84000000078,"y":2549700.5000000019}},{"attributes":{"ID":402262,"DIS_CODE":0,"TOWNNAME":"安南區","LI":"新順里","LIN":"11鄰","STREET":"育安四街","SECT":" ","MAREA":" ","LANE":"８７巷","ALLEY":" ","HOUSE_NO":"３８號","E_COORD97":169663.14000000001,"N_COORD97":2549701.29,"ADDRESS":"育安四街８７巷３８號","OBJECTID":402238},"geometry":{"x":169663.14000000153,"y":2549701.290000001}},{"attributes":{"ID":402263,"DIS_CODE":0,"TOWNNAME":"安南區","LI":"新順里","LIN":"11鄰","STREET":"育安四街","SECT":" ","MAREA":" ","LANE":"８７巷","ALLEY":" ","HOUSE_NO":"４０號","E_COORD97":169660.44,"N_COORD97":2549701.9300000002,"ADDRESS":"育安四街８７巷４０號","OBJECTID":402239},"geometry":{"x":169660.44000000134,"y":2549701.9299999997}},{"attributes":{"ID":402264,"DIS_CODE":0,"TOWNNAME":"永康區","LI":"崑山里","LIN":"4鄰","STREET":"永大路","SECT":"一段","MAREA":" ","LANE":"２８７巷","ALLEY":" ","HOUSE_NO":"１１９號","E_COORD97":173746.48999999999,"N_COORD97":2544296.6000000001,"ADDRESS":"永大路一段２８７巷１１９號","OBJECTID":402240},"geometry":{"x":173746.49000000022,"y":2544296.5999999996}},{"attributes":{"ID":402265,"DIS_CODE":0,"TOWNNAME":"永康區","LI":"勝利里","LIN":"27鄰","STREET":"勝利街","SECT":" ","MAREA":" ","LANE":"５８巷","ALLEY":" ","HOUSE_NO":"４號","E_COORD97":171356.42999999999,"N_COORD97":2544668.6699999999,"ADDRESS":"勝利街５８巷４號","OBJECTID":402241},"geometry":{"x":171356.43000000156,"y":2544668.6700000018}},{"attributes":{"ID":402266,"DIS_CODE":0,"TOWNNAME":"永康區","LI":"崑山里","LIN":"6鄰","STREET":"永大路","SECT":"一段","MAREA":" ","LANE":"６５巷","ALLEY":" ","HOUSE_NO":"３６號","E_COORD97":173739.38,"N_COORD97":2543951.3700000001,"ADDRESS":"永大路一段６５巷３６號","OBJECTID":402242},"geometry":{"x":173739.38000000082,"y":2543951.3699999992}},{"attributes":{"ID":402267,"DIS_CODE":0,"TOWNNAME":"永康區","LI":"復國里","LIN":"10鄰","STREET":"復國二路","SECT":" ","MAREA":" ","LANE":"７９巷","ALLEY":" ","HOUSE_NO":"６號","E_COORD97":172816.14999999999,"N_COORD97":2545283.5299999998,"ADDRESS":"復國二路７９巷６號","OBJECTID":402243},"geometry":{"x":172816.15000000037,"y":2545283.5299999993}},{"attributes":{"ID":402268,"DIS_CODE":0,"TOWNNAME":"永康區","LI":"復國里","LIN":"9鄰","STREET":"復國二路","SECT":" ","MAREA":" ","LANE":"６９巷","ALLEY":" ","HOUSE_NO":"８號","E_COORD97":172821.72,"N_COORD97":2545235.02,"ADDRESS":"復國二路６９巷８號","OBJECTID":402244},"geometry":{"x":172821.71999999974,"y":2545235.0200000014}},{"attributes":{"ID":402269,"DIS_CODE":0,"TOWNNAME":"永康區","LI":"崑山里","LIN":"23鄰","STREET":"崑山街","SECT":" ","MAREA":" ","LANE":"６３巷","ALLEY":" ","HOUSE_NO":"１７號","E_COORD97":173887.94,"N_COORD97":2544667.25,"ADDRESS":"崑山街６３巷１７號","OBJECTID":402245},"geometry":{"x":173887.94000000227,"y":2544667.2500000019}},{"attributes":{"ID":402270,"DIS_CODE":0,"TOWNNAME":"永康區","LI":"崑山里","LIN":"11鄰","STREET":"大灣路","SECT":" ","MAREA":" ","LANE":"１０２０巷","ALLEY":" ","HOUSE_NO":"７號","E_COORD97":173430.23000000001,"N_COORD97":2544417.5800000001,"ADDRESS":"大灣路１０２０巷７號","OBJECTID":402246},"geometry":{"x":173430.23000000138,"y":2544417.5800000019}},{"attributes":{"ID":402271,"DIS_CODE":0,"TOWNNAME":"安南區","LI":"新順里","LIN":"11鄰","STREET":"育安二街","SECT":" ","MAREA":" ","LANE":"９巷","ALLEY":" ","HOUSE_NO":"７號","E_COORD97":169669.64999999999,"N_COORD97":2549740.3500000001,"ADDRESS":"育安二街９巷７號","OBJECTID":402247},"geometry":{"x":169669.6500000013,"y":2549740.3499999996}},{"attributes":{"ID":402272,"DIS_CODE":0,"TOWNNAME":"安南區","LI":"新順里","LIN":"11鄰","STREET":"育安二街","SECT":" ","MAREA":" ","LANE":"９巷","ALLEY":" ","HOUSE_NO":"９號","E_COORD97":169664.41,"N_COORD97":2549740.6600000001,"ADDRESS":"育安二街９巷９號","OBJECTID":402248},"geometry":{"x":169664.41000000015,"y":2549740.660000002}},{"attributes":{"ID":402273,"DIS_CODE":0,"TOWNNAME":"安南區","LI":"新順里","LIN":"11鄰","STREET":"育安二街","SECT":" ","MAREA":" ","LANE":"９巷","ALLEY":" ","HOUSE_NO":"１１號","E_COORD97":169658.85000000001,"N_COORD97":2549741.1400000001,"ADDRESS":"育安二街９巷１１號","OBJECTID":402249},"geometry":{"x":169658.85000000056,"y":2549741.1400000025}},{"attributes":{"ID":402274,"DIS_CODE":0,"TOWNNAME":"安南區","LI":"新順里","LIN":"11鄰","STREET":"育安二街","SECT":" ","MAREA":" ","LANE":"９巷","ALLEY":" ","HOUSE_NO":"２號","E_COORD97":169679.81,"N_COORD97":2549754.1600000001,"ADDRESS":"育安二街９巷２號","OBJECTID":402250},"geometry":{"x":169679.80999999959,"y":2549754.160000002}},{"attributes":{"ID":402275,"DIS_CODE":0,"TOWNNAME":"安南區","LI":"新順里","LIN":"11鄰","STREET":"育安二街","SECT":" ","MAREA":" ","LANE":"９巷","ALLEY":" ","HOUSE_NO":"６號","E_COORD97":169675.35999999999,"N_COORD97":2549754.9500000002,"ADDRESS":"育安二街９巷６號","OBJECTID":402251},"geometry":{"x":169675.36000000034,"y":2549754.9500000011}},{"attributes":{"ID":402276,"DIS_CODE":0,"TOWNNAME":"安南區","LI":"新順里","LIN":"11鄰","STREET":"育安二街","SECT":" ","MAREA":" ","LANE":"９巷","ALLEY":" ","HOUSE_NO":"８號","E_COORD97":169670.28,"N_COORD97":2549755.1099999999,"ADDRESS":"育安二街９巷８號","OBJECTID":402252},"geometry":{"x":169670.28000000119,"y":2549755.1099999994}},{"attributes":{"ID":402277,"DIS_CODE":0,"TOWNNAME":"安南區","LI":"新順里","LIN":"11鄰","STREET":"育安二街","SECT":" ","MAREA":" ","LANE":"９巷","ALLEY":" ","HOUSE_NO":"１０號","E_COORD97":169664.73000000001,"N_COORD97":2549755.4300000002,"ADDRESS":"育安二街９巷１０號","OBJECTID":402253},"geometry":{"x":169664.73000000045,"y":2549755.4300000016}},{"attributes":{"ID":402278,"DIS_CODE":0,"TOWNNAME":"安南區","LI":"新順里","LIN":"11鄰","STREET":"育安二街","SECT":" ","MAREA":" ","LANE":"９巷","ALLEY":" ","HOUSE_NO":"１２號","E_COORD97":169659.32999999999,"N_COORD97":2549756.0600000001,"ADDRESS":"育安二街９巷１２號","OBJECTID":402254},"geometry":{"x":169659.33000000101,"y":2549756.0600000005}},{"attributes":{"ID":402279,"DIS_CODE":0,"TOWNNAME":"安南區","LI":"新順里","LIN":"11鄰","STREET":"育安二街","SECT":" ","MAREA":" ","LANE":"９巷","ALLEY":" ","HOUSE_NO":"１６號","E_COORD97":169653.45000000001,"N_COORD97":2549756.54,"ADDRESS":"育安二街９巷１６號","OBJECTID":402255},"geometry":{"x":169653.45000000112,"y":2549756.540000001}},{"attributes":{"ID":402280,"DIS_CODE":0,"TOWNNAME":"永康區","LI":"勝利里","LIN":"4鄰","STREET":"勝學路","SECT":" ","MAREA":" ","LANE":"８９巷","ALLEY":" ","HOUSE_NO":"１６號","E_COORD97":171078.23999999999,"N_COORD97":2544828.25,"ADDRESS":"勝學路８９巷１６號","OBJECTID":402256},"geometry":{"x":171078.24000000022,"y":2544828.25}},{"attributes":{"ID":402281,"DIS_CODE":0,"TOWNNAME":"安南區","LI":"新順里","LIN":"11鄰","STREET":"育安街","SECT":" ","MAREA":" ","LANE":"１２６巷","ALLEY":" ","HOUSE_NO":"１號","E_COORD97":169638.78,"N_COORD97":2549764.7999999998,"ADDRESS":"育安街１２６巷１號","OBJECTID":402257},"geometry":{"x":169638.78000000026,"y":2549764.8000000007}},{"attributes":{"ID":402282,"DIS_CODE":0,"TOWNNAME":"永康區","LI":"勝利里","LIN":"36鄰","STREET":"勝學路","SECT":" ","MAREA":" ","LANE":"１０８巷","ALLEY":" ","HOUSE_NO":"２１號","E_COORD97":171216.54999999999,"N_COORD97":2544810.7200000002,"ADDRESS":"勝學路１０８巷２１號","OBJECTID":402258},"geometry":{"x":171216.54999999888,"y":2544810.7200000025}},{"attributes":{"ID":402283,"DIS_CODE":0,"TOWNNAME":"永康區","LI":"復國里","LIN":"12鄰","STREET":"復國二路","SECT":" ","MAREA":" ","LANE":"１０８巷","ALLEY":" ","HOUSE_NO":"２號","E_COORD97":172867.28,"N_COORD97":2545372.5299999998,"ADDRESS":"復國二路１０８巷２號","OBJECTID":402259},"geometry":{"x":172867.28000000119,"y":2545372.5299999975}},{"attributes":{"ID":402284,"DIS_CODE":0,"TOWNNAME":"安南區","LI":"新順里","LIN":"11鄰","STREET":"育安街","SECT":" ","MAREA":" ","LANE":"１２６巷","ALLEY":" ","HOUSE_NO":"７號","E_COORD97":169637.10000000001,"N_COORD97":2549774.9500000002,"ADDRESS":"育安街１２６巷７號","OBJECTID":402260},"geometry":{"x":169637.09999999963,"y":2549774.9500000011}},{"attributes":{"ID":402285,"DIS_CODE":0,"TOWNNAME":"安南區","LI":"新順里","LIN":"11鄰","STREET":"育安街","SECT":" ","MAREA":" ","LANE":"１２６巷","ALLEY":" ","HOUSE_NO":"６號","E_COORD97":169627.73999999999,"N_COORD97":2549764.1600000001,"ADDRESS":"育安街１２６巷６號","OBJECTID":402261},"geometry":{"x":169627.74000000115,"y":2549764.160000002}},{"attributes":{"ID":402286,"DIS_CODE":0,"TOWNNAME":"安南區","LI":"新順里","LIN":"11鄰","STREET":"育安街","SECT":" ","MAREA":" ","LANE":"１２６巷","ALLEY":" ","HOUSE_NO":"８號","E_COORD97":169632.97,"N_COORD97":2549764.1600000001,"ADDRESS":"育安街１２６巷８號","OBJECTID":402262},"geometry":{"x":169632.96999999974,"y":2549764.160000002}},{"attributes":{"ID":402287,"DIS_CODE":0,"TOWNNAME":"安南區","LI":"新順里","LIN":"11鄰","STREET":"育安街","SECT":" ","MAREA":" ","LANE":"１２６巷","ALLEY":" ","HOUSE_NO":"１０號","E_COORD97":169638.37,"N_COORD97":2549764.79,"ADDRESS":"育安街１２６巷１０號","OBJECTID":402263},"geometry":{"x":169638.37000000197,"y":2549764.7900000028}},{"attributes":{"ID":402288,"DIS_CODE":0,"TOWNNAME":"安南區","LI":"新順里","LIN":"11鄰","STREET":"安和路","SECT":"三段","MAREA":" ","LANE":"１１５巷","ALLEY":" ","HOUSE_NO":"２９號","E_COORD97":169757.14000000001,"N_COORD97":2549650.48,"ADDRESS":"安和路三段１１５巷２９號","OBJECTID":402264},"geometry":{"x":169757.1400000006,"y":2549650.4800000023}},{"attributes":{"ID":402289,"DIS_CODE":0,"TOWNNAME":"永康區","LI":"崑山里","LIN":"4鄰","STREET":"永大路","SECT":"一段","MAREA":" ","LANE":"２８７巷","ALLEY":" ","HOUSE_NO":"１１３號","E_COORD97":173743.35000000001,"N_COORD97":2544306.8500000001,"ADDRESS":"永大路一段２８７巷１１３號","OBJECTID":402265},"geometry":{"x":173743.34999999963,"y":2544306.8500000015}},{"attributes":{"ID":402290,"DIS_CODE":0,"TOWNNAME":"永康區","LI":"崑山里","LIN":"28鄰","STREET":"大灣路","SECT":" ","MAREA":" ","LANE":"９４２巷","ALLEY":" ","HOUSE_NO":"１９３號","E_COORD97":173730.60999999999,"N_COORD97":2544842.4900000002,"ADDRESS":"大灣路９４２巷１９３號","OBJECTID":402266},"geometry":{"x":173730.61000000034,"y":2544842.4900000021}},{"attributes":{"ID":402291,"DIS_CODE":0,"TOWNNAME":"永康區","LI":"崑山里","LIN":"11鄰","STREET":"大灣路","SECT":" ","MAREA":" ","LANE":"１０２０巷","ALLEY":" ","HOUSE_NO":"２３號","E_COORD97":173389.72,"N_COORD97":2544480.7400000002,"ADDRESS":"大灣路１０２０巷２３號","OBJECTID":402267},"geometry":{"x":173389.71999999974,"y":2544480.7400000039}},{"attributes":{"ID":402292,"DIS_CODE":0,"TOWNNAME":"佳里區","LI":"六安里","LIN":"11鄰","STREET":"佳北路","SECT":" ","MAREA":" ","LANE":"１０５巷","ALLEY":" ","HOUSE_NO":"９號","E_COORD97":166059.76999999999,"N_COORD97":2563352.6800000002,"ADDRESS":"佳北路１０５巷９號","OBJECTID":402268},"geometry":{"x":166059.77000000142,"y":2563352.6800000016}},{"attributes":{"ID":402293,"DIS_CODE":0,"TOWNNAME":"佳里區","LI":"六安里","LIN":"11鄰","STREET":"佳北路","SECT":" ","MAREA":" ","LANE":"６９巷","ALLEY":" ","HOUSE_NO":"１０號","E_COORD97":166084.97,"N_COORD97":2563333.1299999999,"ADDRESS":"佳北路６９巷１０號","OBJECTID":402269},"geometry":{"x":166084.96999999974,"y":2563333.129999999}},{"attributes":{"ID":402294,"DIS_CODE":0,"TOWNNAME":"佳里區","LI":"六安里","LIN":"11鄰","STREET":"佳北路","SECT":" ","MAREA":" ","LANE":"６９巷","ALLEY":" ","HOUSE_NO":"１２號","E_COORD97":166079.84,"N_COORD97":2563332.1299999999,"ADDRESS":"佳北路６９巷１２號","OBJECTID":402270},"geometry":{"x":166079.83999999985,"y":2563332.1300000008}},{"attributes":{"ID":402295,"DIS_CODE":0,"TOWNNAME":"佳里區","LI":"六安里","LIN":"11鄰","STREET":"佳北路","SECT":" ","MAREA":" ","LANE":"６９巷","ALLEY":" ","HOUSE_NO":"１４號","E_COORD97":166075.16,"N_COORD97":2563331.5299999998,"ADDRESS":"佳北路６９巷１４號","OBJECTID":402271},"geometry":{"x":166075.16000000108,"y":2563331.5300000031}},{"attributes":{"ID":402296,"DIS_CODE":0,"TOWNNAME":"佳里區","LI":"六安里","LIN":"11鄰","STREET":"佳北路","SECT":" ","MAREA":" ","LANE":"６９巷","ALLEY":" ","HOUSE_NO":"１６號","E_COORD97":166070.53,"N_COORD97":2563330.6899999999,"ADDRESS":"佳北路６９巷１６號","OBJECTID":402272},"geometry":{"x":166070.52999999933,"y":2563330.6900000032}},{"attributes":{"ID":402297,"DIS_CODE":0,"TOWNNAME":"佳里區","LI":"六安里","LIN":"11鄰","STREET":"佳北路","SECT":" ","MAREA":" ","LANE":"６９巷","ALLEY":" ","HOUSE_NO":"１８號","E_COORD97":166065.94,"N_COORD97":2563330.0800000001,"ADDRESS":"佳北路６９巷１８號","OBJECTID":402273},"geometry":{"x":166065.94000000041,"y":2563330.0800000019}},{"attributes":{"ID":402298,"DIS_CODE":0,"TOWNNAME":"佳里區","LI":"六安里","LIN":"11鄰","STREET":"佳北路","SECT":" ","MAREA":" ","LANE":"６９巷","ALLEY":" ","HOUSE_NO":"２０號","E_COORD97":166060.67000000001,"N_COORD97":2563329.5299999998,"ADDRESS":"佳北路６９巷２０號","OBJECTID":402274},"geometry":{"x":166060.66999999993,"y":2563329.5300000012}},{"attributes":{"ID":402299,"DIS_CODE":0,"TOWNNAME":"佳里區","LI":"六安里","LIN":"11鄰","STREET":"佳北路","SECT":" ","MAREA":" ","LANE":"６９巷","ALLEY":" ","HOUSE_NO":"２２號","E_COORD97":166063.29000000001,"N_COORD97":2563311.8900000001,"ADDRESS":"佳北路６９巷２２號","OBJECTID":402275},"geometry":{"x":166063.29000000004,"y":2563311.8900000006}},{"attributes":{"ID":402300,"DIS_CODE":0,"TOWNNAME":"佳里區","LI":"六安里","LIN":"11鄰","STREET":"佳北路","SECT":" ","MAREA":" ","LANE":"６９巷","ALLEY":" ","HOUSE_NO":"２４號","E_COORD97":166067.32000000001,"N_COORD97":2563312.6499999999,"ADDRESS":"佳北路６９巷２４號","OBJECTID":402276},"geometry":{"x":166067.32000000123,"y":2563312.6500000022}},{"attributes":{"ID":402301,"DIS_CODE":0,"TOWNNAME":"佳里區","LI":"六安里","LIN":"11鄰","STREET":"佳北路","SECT":" ","MAREA":" ","LANE":"６９巷","ALLEY":" ","HOUSE_NO":"２６號","E_COORD97":166071.63,"N_COORD97":2563313.2999999998,"ADDRESS":"佳北路６９巷２６號","OBJECTID":402277},"geometry":{"x":166071.63000000082,"y":2563313.3000000007}},{"attributes":{"ID":402302,"DIS_CODE":0,"TOWNNAME":"佳里區","LI":"六安里","LIN":"11鄰","STREET":"佳北路","SECT":" ","MAREA":" ","LANE":"６９巷","ALLEY":" ","HOUSE_NO":"２８號","E_COORD97":166076.06,"N_COORD97":2563313.8999999999,"ADDRESS":"佳北路６９巷２８號","OBJECTID":402278},"geometry":{"x":166076.05999999959,"y":2563313.9000000022}},{"attributes":{"ID":402303,"DIS_CODE":0,"TOWNNAME":"佳里區","LI":"六安里","LIN":"11鄰","STREET":"佳北路","SECT":" ","MAREA":" ","LANE":"６９巷","ALLEY":" ","HOUSE_NO":"３０號","E_COORD97":166080,"N_COORD97":2563314.6099999999,"ADDRESS":"佳北路６９巷３０號","OBJECTID":402279},"geometry":{"x":166080,"y":2563314.6100000013}},{"attributes":{"ID":402304,"DIS_CODE":0,"TOWNNAME":"佳里區","LI":"六安里","LIN":"11鄰","STREET":"佳北路","SECT":" ","MAREA":" ","LANE":"６９巷","ALLEY":" ","HOUSE_NO":"３２號","E_COORD97":166084.25,"N_COORD97":2563315.4100000001,"ADDRESS":"佳北路６９巷３２號","OBJECTID":402280},"geometry":{"x":166084.25000000186,"y":2563315.4100000001}},{"attributes":{"ID":402305,"DIS_CODE":0,"TOWNNAME":"佳里區","LI":"六安里","LIN":"11鄰","STREET":"佳北路","SECT":" ","MAREA":" ","LANE":"６９巷","ALLEY":" ","HOUSE_NO":"３４號","E_COORD97":166088.54000000001,"N_COORD97":2563316.0800000001,"ADDRESS":"佳北路６９巷３４號","OBJECTID":402281},"geometry":{"x":166088.54000000004,"y":2563316.0800000019}},{"attributes":{"ID":402306,"DIS_CODE":0,"TOWNNAME":"佳里區","LI":"六安里","LIN":"11鄰","STREET":"佳北路","SECT":" ","MAREA":" ","LANE":"６９巷","ALLEY":" ","HOUSE_NO":"３６號","E_COORD97":166092.54000000001,"N_COORD97":2563316.7599999998,"ADDRESS":"佳北路６９巷３６號","OBJECTID":402282},"geometry":{"x":166092.54000000097,"y":2563316.7600000035}},{"attributes":{"ID":402307,"DIS_CODE":0,"TOWNNAME":"佳里區","LI":"六安里","LIN":"11鄰","STREET":"佳北路","SECT":" ","MAREA":" ","LANE":"６９巷","ALLEY":" ","HOUSE_NO":"３８號","E_COORD97":166097.32000000001,"N_COORD97":2563317.1299999999,"ADDRESS":"佳北路６９巷３８號","OBJECTID":402283},"geometry":{"x":166097.3200000003,"y":2563317.1300000027}},{"attributes":{"ID":402308,"DIS_CODE":0,"TOWNNAME":"佳里區","LI":"六安里","LIN":"11鄰","STREET":"佳北路","SECT":" ","MAREA":" ","LANE":"６９巷","ALLEY":" ","HOUSE_NO":"４０號","E_COORD97":166114.06,"N_COORD97":2563301.6000000001,"ADDRESS":"佳北路６９巷４０號","OBJECTID":402284},"geometry":{"x":166114.06000000052,"y":2563301.6000000015}},{"attributes":{"ID":402309,"DIS_CODE":0,"TOWNNAME":"佳里區","LI":"六安里","LIN":"11鄰","STREET":"佳北路","SECT":" ","MAREA":" ","LANE":"６９巷","ALLEY":" ","HOUSE_NO":"４２號","E_COORD97":166109.82999999999,"N_COORD97":2563298.9300000002,"ADDRESS":"佳北路６９巷４２號","OBJECTID":402285},"geometry":{"x":166109.83000000101,"y":2563298.9300000034}},{"attributes":{"ID":402310,"DIS_CODE":0,"TOWNNAME":"佳里區","LI":"六安里","LIN":"11鄰","STREET":"佳北路","SECT":" ","MAREA":" ","LANE":"６９巷","ALLEY":" ","HOUSE_NO":"４６號","E_COORD97":166105.10999999999,"N_COORD97":2563296.7400000002,"ADDRESS":"佳北路６９巷４６號","OBJECTID":402286},"geometry":{"x":166105.11000000034,"y":2563296.7400000002}},{"attributes":{"ID":402311,"DIS_CODE":0,"TOWNNAME":"佳里區","LI":"六安里","LIN":"11鄰","STREET":"佳北路","SECT":" ","MAREA":" ","LANE":"６９巷","ALLEY":" ","HOUSE_NO":"４８號","E_COORD97":166101.66,"N_COORD97":2563293.6400000001,"ADDRESS":"佳北路６９巷４８號","OBJECTID":402287},"geometry":{"x":166101.66000000015,"y":2563293.6400000006}},{"attributes":{"ID":402312,"DIS_CODE":0,"TOWNNAME":"佳里區","LI":"六安里","LIN":"11鄰","STREET":"佳北路","SECT":" ","MAREA":" ","LANE":"６９巷","ALLEY":" ","HOUSE_NO":"５０號","E_COORD97":166097.88,"N_COORD97":2563290.2999999998,"ADDRESS":"佳北路６９巷５０號","OBJECTID":402288},"geometry":{"x":166097.87999999989,"y":2563290.2999999989}},{"attributes":{"ID":402313,"DIS_CODE":0,"TOWNNAME":"佳里區","LI":"六安里","LIN":"11鄰","STREET":"佳北路","SECT":" ","MAREA":" ","LANE":"６９巷","ALLEY":" ","HOUSE_NO":"８號","E_COORD97":166089.66,"N_COORD97":2563333.7400000002,"ADDRESS":"佳北路６９巷８號","OBJECTID":402289},"geometry":{"x":166089.66000000015,"y":2563333.7400000002}},{"attributes":{"ID":402314,"DIS_CODE":0,"TOWNNAME":"安南區","LI":"學東里","LIN":"11鄰","STREET":"公學路","SECT":"六段","MAREA":" ","LANE":"７２１巷","ALLEY":" ","HOUSE_NO":"２１之１號","E_COORD97":162050.51999999999,"N_COORD97":2553222.04,"ADDRESS":"公學路六段７２１巷２１之１號","OBJECTID":402290},"geometry":{"x":162050.51999999955,"y":2553222.040000001}},{"attributes":{"ID":402315,"DIS_CODE":0,"TOWNNAME":"安南區","LI":"原佃里","LIN":"11鄰","STREET":"本原街","SECT":"一段","MAREA":" ","LANE":"４１巷","ALLEY":" ","HOUSE_NO":"３６號","E_COORD97":168178.44,"N_COORD97":2550080.5299999998,"ADDRESS":"本原街一段４１巷３６號","OBJECTID":402291},"geometry":{"x":168178.43999999948,"y":2550080.5299999993}},{"attributes":{"ID":402316,"DIS_CODE":0,"TOWNNAME":"安南區","LI":"原佃里","LIN":"11鄰","STREET":"本原街","SECT":"一段","MAREA":" ","LANE":"４１巷","ALLEY":" ","HOUSE_NO":"３８號","E_COORD97":168178.19,"N_COORD97":2550075.4500000002,"ADDRESS":"本原街一段４１巷３８號","OBJECTID":402292},"geometry":{"x":168178.19000000041,"y":2550075.4499999974}},{"attributes":{"ID":402317,"DIS_CODE":0,"TOWNNAME":"安南區","LI":"原佃里","LIN":"11鄰","STREET":"本原街","SECT":"一段","MAREA":" ","LANE":"４１巷","ALLEY":" ","HOUSE_NO":"３８之１號","E_COORD97":168177.94,"N_COORD97":2550068.7200000002,"ADDRESS":"本原街一段４１巷３８之１號","OBJECTID":402293},"geometry":{"x":168177.94000000041,"y":2550068.7200000044}},{"attributes":{"ID":402318,"DIS_CODE":0,"TOWNNAME":"安南區","LI":"城南里","LIN":"11鄰","STREET":"城西街","SECT":"二段","MAREA":" ","LANE":"８０巷","ALLEY":" ","HOUSE_NO":"１號","E_COORD97":160055.47,"N_COORD97":2551083.2400000002,"ADDRESS":"城西街二段８０巷１號","OBJECTID":402294},"geometry":{"x":160055.46999999974,"y":2551083.2400000021}},{"attributes":{"ID":402319,"DIS_CODE":0,"TOWNNAME":"安南區","LI":"城南里","LIN":"11鄰","STREET":"城西街","SECT":"二段","MAREA":" ","LANE":"８０巷","ALLEY":" ","HOUSE_NO":"２號","E_COORD97":160081.38,"N_COORD97":2551091.8799999999,"ADDRESS":"城西街二段８０巷２號","OBJECTID":402295},"geometry":{"x":160081.37999999989,"y":2551091.879999999}},{"attributes":{"ID":402320,"DIS_CODE":0,"TOWNNAME":"安南區","LI":"城南里","LIN":"11鄰","STREET":"城西街","SECT":"二段","MAREA":" ","LANE":"８０巷","ALLEY":" ","HOUSE_NO":"３號","E_COORD97":160053.95000000001,"N_COORD97":2551092.5099999998,"ADDRESS":"城西街二段８０巷３號","OBJECTID":402296},"geometry":{"x":160053.95000000112,"y":2551092.5099999998}},{"attributes":{"ID":402321,"DIS_CODE":0,"TOWNNAME":"安南區","LI":"城南里","LIN":"11鄰","STREET":"城西街","SECT":"二段","MAREA":" ","LANE":"８０巷","ALLEY":" ","HOUSE_NO":"１１號","E_COORD97":160049.76000000001,"N_COORD97":2551134.1699999999,"ADDRESS":"城西街二段８０巷１１號","OBJECTID":402297},"geometry":{"x":160049.76000000071,"y":2551134.1700000018}},{"attributes":{"ID":402322,"DIS_CODE":0,"TOWNNAME":"安南區","LI":"城南里","LIN":"11鄰","STREET":"城西街","SECT":"二段","MAREA":" ","LANE":"８０巷","ALLEY":" ","HOUSE_NO":"９號","E_COORD97":160050.89999999999,"N_COORD97":2551122.8700000001,"ADDRESS":"城西街二段８０巷９號","OBJECTID":402298},"geometry":{"x":160050.9000000013,"y":2551122.8700000029}},{"attributes":{"ID":402323,"DIS_CODE":0,"TOWNNAME":"安南區","LI":"城南里","LIN":"11鄰","STREET":"城西街","SECT":"二段","MAREA":" ","LANE":"８０巷","ALLEY":" ","HOUSE_NO":"６號","E_COORD97":160079.98000000001,"N_COORD97":2551099.75,"ADDRESS":"城西街二段８０巷６號","OBJECTID":402299},"geometry":{"x":160079.98000000045,"y":2551099.7500000019}},{"attributes":{"ID":402324,"DIS_CODE":0,"TOWNNAME":"中西區","LI":"仙草里","LIN":"11鄰","STREET":"府緯街","SECT":" ","MAREA":" ","LANE":"９巷","ALLEY":" ","HOUSE_NO":"１２號","E_COORD97":167894.59,"N_COORD97":2542692.52,"ADDRESS":"府緯街９巷１２號","OBJECTID":402300},"geometry":{"x":167894.59000000078,"y":2542692.5200000014}},{"attributes":{"ID":402325,"DIS_CODE":0,"TOWNNAME":"中西區","LI":"光賢里","LIN":"11鄰","STREET":"中華西路","SECT":"二段","MAREA":" ","LANE":"５５０巷","ALLEY":" ","HOUSE_NO":"２５號","E_COORD97":166749.20000000001,"N_COORD97":2544760.1899999999,"ADDRESS":"中華西路二段５５０巷２５號","OBJECTID":402301},"geometry":{"x":166749.20000000205,"y":2544760.1899999995}},{"attributes":{"ID":402326,"DIS_CODE":0,"TOWNNAME":"中西區","LI":"光賢里","LIN":"11鄰","STREET":"中華西路","SECT":"二段","MAREA":" ","LANE":"５５０巷","ALLEY":" ","HOUSE_NO":"２３號","E_COORD97":166745.48999999999,"N_COORD97":2544760.27,"ADDRESS":"中華西路二段５５０巷２３號","OBJECTID":402302},"geometry":{"x":166745.48999999929,"y":2544760.2699999996}},{"attributes":{"ID":402327,"DIS_CODE":0,"TOWNNAME":"中西區","LI":"光賢里","LIN":"11鄰","STREET":"中華西路","SECT":"二段","MAREA":" ","LANE":"５５０巷","ALLEY":" ","HOUSE_NO":"２１號","E_COORD97":166741.67999999999,"N_COORD97":2544760.27,"ADDRESS":"中華西路二段５５０巷２１號","OBJECTID":402303},"geometry":{"x":166741.6799999997,"y":2544760.2699999996}},{"attributes":{"ID":402328,"DIS_CODE":0,"TOWNNAME":"中西區","LI":"光賢里","LIN":"11鄰","STREET":"中華西路","SECT":"二段","MAREA":" ","LANE":"５５０巷","ALLEY":" ","HOUSE_NO":"１９號","E_COORD97":166736.44,"N_COORD97":2544760.4300000002,"ADDRESS":"中華西路二段５５０巷１９號","OBJECTID":402304},"geometry":{"x":166736.44000000134,"y":2544760.4300000016}},{"attributes":{"ID":402329,"DIS_CODE":0,"TOWNNAME":"中西區","LI":"光賢里","LIN":"11鄰","STREET":"中華西路","SECT":"二段","MAREA":" ","LANE":"５５０巷","ALLEY":" ","HOUSE_NO":"１７號","E_COORD97":166728.67000000001,"N_COORD97":2544760.4300000002,"ADDRESS":"中華西路二段５５０巷１７號","OBJECTID":402305},"geometry":{"x":166728.66999999899,"y":2544760.4300000016}},{"attributes":{"ID":402330,"DIS_CODE":0,"TOWNNAME":"中西區","LI":"光賢里","LIN":"11鄰","STREET":"中華西路","SECT":"二段","MAREA":" ","LANE":"５５０巷","ALLEY":" ","HOUSE_NO":"１５號","E_COORD97":166723.10999999999,"N_COORD97":2544760.4300000002,"ADDRESS":"中華西路二段５５０巷１５號","OBJECTID":402306},"geometry":{"x":166723.11000000127,"y":2544760.4300000016}},{"attributes":{"ID":402331,"DIS_CODE":0,"TOWNNAME":"中西區","LI":"光賢里","LIN":"11鄰","STREET":"中華西路","SECT":"二段","MAREA":" ","LANE":"５５０巷","ALLEY":" ","HOUSE_NO":"１３號","E_COORD97":166718.51000000001,"N_COORD97":2544760.4300000002,"ADDRESS":"中華西路二段５５０巷１３號","OBJECTID":402307},"geometry":{"x":166718.51000000071,"y":2544760.4300000016}},{"attributes":{"ID":402332,"DIS_CODE":0,"TOWNNAME":"中西區","LI":"光賢里","LIN":"11鄰","STREET":"中華西路","SECT":"二段","MAREA":" ","LANE":"５５０巷","ALLEY":" ","HOUSE_NO":"１１號","E_COORD97":166713.57999999999,"N_COORD97":2544760.7400000002,"ADDRESS":"中華西路二段５５０巷１１號","OBJECTID":402308},"geometry":{"x":166713.58000000007,"y":2544760.7400000002}},{"attributes":{"ID":402333,"DIS_CODE":0,"TOWNNAME":"中西區","LI":"光賢里","LIN":"11鄰","STREET":"中華西路","SECT":"二段","MAREA":" ","LANE":"５５０巷","ALLEY":" ","HOUSE_NO":"９號","E_COORD97":166708.35000000001,"N_COORD97":2544760.7400000002,"ADDRESS":"中華西路二段５５０巷９號","OBJECTID":402309},"geometry":{"x":166708.34999999963,"y":2544760.7400000002}},{"attributes":{"ID":402334,"DIS_CODE":0,"TOWNNAME":"中西區","LI":"光賢里","LIN":"11鄰","STREET":"中華西路","SECT":"二段","MAREA":" ","LANE":"５５０巷","ALLEY":" ","HOUSE_NO":"７號","E_COORD97":166703.26999999999,"N_COORD97":2544760.8999999999,"ADDRESS":"中華西路二段５５０巷７號","OBJECTID":402310},"geometry":{"x":166703.26999999955,"y":2544760.9000000041}},{"attributes":{"ID":402335,"DIS_CODE":0,"TOWNNAME":"中西區","LI":"光賢里","LIN":"11鄰","STREET":"中華西路","SECT":"二段","MAREA":" ","LANE":"５５０巷","ALLEY":" ","HOUSE_NO":"５號","E_COORD97":166696.12,"N_COORD97":2544760.7400000002,"ADDRESS":"中華西路二段５５０巷５號","OBJECTID":402311},"geometry":{"x":166696.12000000104,"y":2544760.7400000002}},{"attributes":{"ID":402336,"DIS_CODE":0,"TOWNNAME":"中西區","LI":"光賢里","LIN":"11鄰","STREET":"中華西路","SECT":"二段","MAREA":" ","LANE":"５８０巷","ALLEY":" ","HOUSE_NO":"２６號","E_COORD97":166722.47,"N_COORD97":2544809.3199999998,"ADDRESS":"中華西路二段５８０巷２６號","OBJECTID":402312},"geometry":{"x":166722.46999999974,"y":2544809.3200000022}},{"attributes":{"ID":402337,"DIS_CODE":0,"TOWNNAME":"中西區","LI":"光賢里","LIN":"11鄰","STREET":"中華西路","SECT":"二段","MAREA":" ","LANE":"５８０巷","ALLEY":" ","HOUSE_NO":"２２號","E_COORD97":166717.87,"N_COORD97":2544809.48,"ADDRESS":"中華西路二段５８０巷２２號","OBJECTID":402313},"geometry":{"x":166717.87000000104,"y":2544809.4800000023}},{"attributes":{"ID":402338,"DIS_CODE":0,"TOWNNAME":"中西區","LI":"光賢里","LIN":"11鄰","STREET":"中華西路","SECT":"二段","MAREA":" ","LANE":"５８０巷","ALLEY":" ","HOUSE_NO":"２０號","E_COORD97":166712.31,"N_COORD97":2544809.7999999998,"ADDRESS":"中華西路二段５８０巷２０號","OBJECTID":402314},"geometry":{"x":166712.31000000145,"y":2544809.8000000045}},{"attributes":{"ID":402339,"DIS_CODE":0,"TOWNNAME":"中西區","LI":"光賢里","LIN":"11鄰","STREET":"中華西路","SECT":"二段","MAREA":" ","LANE":"５８０巷","ALLEY":" ","HOUSE_NO":"１８號","E_COORD97":166707.39000000001,"N_COORD97":2544809.7999999998,"ADDRESS":"中華西路二段５８０巷１８號","OBJECTID":402315},"geometry":{"x":166707.3900000006,"y":2544809.8000000045}},{"attributes":{"ID":402340,"DIS_CODE":0,"TOWNNAME":"中西區","LI":"光賢里","LIN":"11鄰","STREET":"中華西路","SECT":"二段","MAREA":" ","LANE":"５８０巷","ALLEY":" ","HOUSE_NO":"２８號","E_COORD97":166722.79000000001,"N_COORD97":2544800.75,"ADDRESS":"中華西路二段５８０巷２８號","OBJECTID":402316},"geometry":{"x":166722.79000000004,"y":2544800.75}},{"attributes":{"ID":402341,"DIS_CODE":0,"TOWNNAME":"中西區","LI":"光賢里","LIN":"11鄰","STREET":"中華西路","SECT":"二段","MAREA":" ","LANE":"５８０巷","ALLEY":" ","HOUSE_NO":"３０號","E_COORD97":166718.35000000001,"N_COORD97":2544800.5899999999,"ADDRESS":"中華西路二段５８０巷３０號","OBJECTID":402317},"geometry":{"x":166718.34999999963,"y":2544800.5900000017}},{"attributes":{"ID":402342,"DIS_CODE":0,"TOWNNAME":"中西區","LI":"光賢里","LIN":"11鄰","STREET":"中華西路","SECT":"二段","MAREA":" ","LANE":"５８０巷","ALLEY":" ","HOUSE_NO":"３２號","E_COORD97":166713.57999999999,"N_COORD97":2544800.27,"ADDRESS":"中華西路二段５８０巷３２號","OBJECTID":402318},"geometry":{"x":166713.58000000007,"y":2544800.2699999996}},{"attributes":{"ID":402343,"DIS_CODE":0,"TOWNNAME":"中西區","LI":"光賢里","LIN":"11鄰","STREET":"中華西路","SECT":"二段","MAREA":" ","LANE":"５８０巷","ALLEY":" ","HOUSE_NO":"３６號","E_COORD97":166708.66,"N_COORD97":2544800.1099999999,"ADDRESS":"中華西路二段５８０巷３６號","OBJECTID":402319},"geometry":{"x":166708.65999999922,"y":2544800.1100000013}},{"attributes":{"ID":402344,"DIS_CODE":0,"TOWNNAME":"中西區","LI":"光賢里","LIN":"11鄰","STREET":"中華西路","SECT":"二段","MAREA":" ","LANE":"５８０巷","ALLEY":" ","HOUSE_NO":"４０號","E_COORD97":166699.76999999999,"N_COORD97":2544799.6400000001,"ADDRESS":"中華西路二段５８０巷４０號","OBJECTID":402320},"geometry":{"x":166699.76999999955,"y":2544799.6400000006}},{"attributes":{"ID":402345,"DIS_CODE":0,"TOWNNAME":"中西區","LI":"光賢里","LIN":"11鄰","STREET":"中華西路","SECT":"二段","MAREA":" ","LANE":"５８０巷","ALLEY":" ","HOUSE_NO":"４２號","E_COORD97":166695.64999999999,"N_COORD97":2544799.6400000001,"ADDRESS":"中華西路二段５８０巷４２號","OBJECTID":402321},"geometry":{"x":166695.6500000013,"y":2544799.6400000006}},{"attributes":{"ID":402346,"DIS_CODE":0,"TOWNNAME":"中西區","LI":"光賢里","LIN":"11鄰","STREET":"中華西路","SECT":"二段","MAREA":" ","LANE":"５８０巷","ALLEY":" ","HOUSE_NO":"４６號","E_COORD97":166690.88,"N_COORD97":2544799.48,"ADDRESS":"中華西路二段５８０巷４６號","OBJECTID":402322},"geometry":{"x":166690.87999999989,"y":2544799.4800000023}},{"attributes":{"ID":402347,"DIS_CODE":0,"TOWNNAME":"中西區","LI":"光賢里","LIN":"11鄰","STREET":"中華西路","SECT":"二段","MAREA":" ","LANE":"５８０巷","ALLEY":" ","HOUSE_NO":"４８號","E_COORD97":166691.84,"N_COORD97":2544775.6699999999,"ADDRESS":"中華西路二段５８０巷４８號","OBJECTID":402323},"geometry":{"x":166691.83999999892,"y":2544775.6700000037}},{"attributes":{"ID":402348,"DIS_CODE":0,"TOWNNAME":"中西區","LI":"光賢里","LIN":"11鄰","STREET":"中華西路","SECT":"二段","MAREA":" ","LANE":"５８０巷","ALLEY":" ","HOUSE_NO":"５０號","E_COORD97":166697.87,"N_COORD97":2544775.98,"ADDRESS":"中華西路二段５８０巷５０號","OBJECTID":402324},"geometry":{"x":166697.87000000104,"y":2544775.9800000004}},{"attributes":{"ID":402349,"DIS_CODE":0,"TOWNNAME":"中西區","LI":"光賢里","LIN":"11鄰","STREET":"中華西路","SECT":"二段","MAREA":" ","LANE":"５８０巷","ALLEY":" ","HOUSE_NO":"５２號","E_COORD97":166702.31,"N_COORD97":2544775.98,"ADDRESS":"中華西路二段５８０巷５２號","OBJECTID":402325},"geometry":{"x":166702.31000000052,"y":2544775.9800000004}},{"attributes":{"ID":402350,"DIS_CODE":0,"TOWNNAME":"中西區","LI":"光賢里","LIN":"11鄰","STREET":"中華西路","SECT":"二段","MAREA":" ","LANE":"５８０巷","ALLEY":" ","HOUSE_NO":"５６號","E_COORD97":166706.28,"N_COORD97":2544776.2999999998,"ADDRESS":"中華西路二段５８０巷５６號","OBJECTID":402326},"geometry":{"x":166706.27999999933,"y":2544776.3000000026}},{"attributes":{"ID":402351,"DIS_CODE":0,"TOWNNAME":"中西區","LI":"光賢里","LIN":"11鄰","STREET":"中華西路","SECT":"二段","MAREA":" ","LANE":"５８０巷","ALLEY":" ","HOUSE_NO":"６０號","E_COORD97":166714.22,"N_COORD97":2544776.1400000001,"ADDRESS":"中華西路二段５８０巷６０號","OBJECTID":402327},"geometry":{"x":166714.21999999974,"y":2544776.1400000006}},{"attributes":{"ID":402352,"DIS_CODE":0,"TOWNNAME":"中西區","LI":"光賢里","LIN":"11鄰","STREET":"中華西路","SECT":"二段","MAREA":" ","LANE":"５８０巷","ALLEY":" ","HOUSE_NO":"６２號","E_COORD97":166717.87,"N_COORD97":2544775.8300000001,"ADDRESS":"中華西路二段５８０巷６２號","OBJECTID":402328},"geometry":{"x":166717.87000000104,"y":2544775.8300000019}},{"attributes":{"ID":402353,"DIS_CODE":0,"TOWNNAME":"中西區","LI":"光賢里","LIN":"11鄰","STREET":"中華西路","SECT":"二段","MAREA":" ","LANE":"５８０巷","ALLEY":" ","HOUSE_NO":"７２號","E_COORD97":166731.35999999999,"N_COORD97":2544776.2999999998,"ADDRESS":"中華西路二段５８０巷７２號","OBJECTID":402329},"geometry":{"x":166731.3600000022,"y":2544776.3000000026}},{"attributes":{"ID":402354,"DIS_CODE":0,"TOWNNAME":"中西區","LI":"光賢里","LIN":"11鄰","STREET":"中華西路","SECT":"二段","MAREA":" ","LANE":"５８０巷","ALLEY":" ","HOUSE_NO":"７６號","E_COORD97":166736.13,"N_COORD97":2544776.2999999998,"ADDRESS":"中華西路二段５８０巷７６號","OBJECTID":402330},"geometry":{"x":166736.13000000082,"y":2544776.3000000026}},{"attributes":{"ID":402355,"DIS_CODE":0,"TOWNNAME":"中西區","LI":"光賢里","LIN":"11鄰","STREET":"中華西路","SECT":"二段","MAREA":" ","LANE":"５８０巷","ALLEY":" ","HOUSE_NO":"７８號","E_COORD97":166741.20999999999,"N_COORD97":2544776.2999999998,"ADDRESS":"中華西路二段５８０巷７８號","OBJECTID":402331},"geometry":{"x":166741.21000000089,"y":2544776.3000000026}},{"attributes":{"ID":402356,"DIS_CODE":0,"TOWNNAME":"中西區","LI":"光賢里","LIN":"11鄰","STREET":"中華西路","SECT":"二段","MAREA":" ","LANE":"５８０巷","ALLEY":" ","HOUSE_NO":"８０號","E_COORD97":166746.45000000001,"N_COORD97":2544776.2999999998,"ADDRESS":"中華西路二段５８０巷８０號","OBJECTID":402332},"geometry":{"x":166746.45000000112,"y":2544776.3000000026}},{"attributes":{"ID":402357,"DIS_CODE":0,"TOWNNAME":"中西區","LI":"光賢里","LIN":"11鄰","STREET":"中華西路","SECT":"二段","MAREA":" ","LANE":"５８０巷","ALLEY":" ","HOUSE_NO":"８２號","E_COORD97":166751.37,"N_COORD97":2544776.2999999998,"ADDRESS":"中華西路二段５８０巷８２號","OBJECTID":402333},"geometry":{"x":166751.37000000197,"y":2544776.3000000026}},{"attributes":{"ID":402358,"DIS_CODE":0,"TOWNNAME":"中西區","LI":"光賢里","LIN":"11鄰","STREET":"中華西路","SECT":"二段","MAREA":" ","LANE":"５８０巷","ALLEY":" ","HOUSE_NO":"８６號","E_COORD97":166769.94,"N_COORD97":2544802.02,"ADDRESS":"中華西路二段５８０巷８６號","OBJECTID":402334},"geometry":{"x":166769.94000000227,"y":2544802.0199999996}},{"attributes":{"ID":402359,"DIS_CODE":0,"TOWNNAME":"中西區","LI":"光賢里","LIN":"11鄰","STREET":"中華西路","SECT":"二段","MAREA":" ","LANE":"５８０巷","ALLEY":" ","HOUSE_NO":"８８號","E_COORD97":166766.13,"N_COORD97":2544801.8599999999,"ADDRESS":"中華西路二段５８０巷８８號","OBJECTID":402335},"geometry":{"x":166766.12999999989,"y":2544801.8600000013}},{"attributes":{"ID":402360,"DIS_CODE":0,"TOWNNAME":"中西區","LI":"光賢里","LIN":"11鄰","STREET":"中華西路","SECT":"二段","MAREA":" ","LANE":"５８０巷","ALLEY":" ","HOUSE_NO":"９０號","E_COORD97":166762,"N_COORD97":2544802.02,"ADDRESS":"中華西路二段５８０巷９０號","OBJECTID":402336},"geometry":{"x":166762,"y":2544802.0199999996}},{"attributes":{"ID":402361,"DIS_CODE":0,"TOWNNAME":"中西區","LI":"光賢里","LIN":"11鄰","STREET":"中華西路","SECT":"二段","MAREA":" ","LANE":"５８０巷","ALLEY":" ","HOUSE_NO":"９２號","E_COORD97":166756.92000000001,"N_COORD97":2544801.54,"ADDRESS":"中華西路二段５８０巷９２號","OBJECTID":402337},"geometry":{"x":166756.91999999993,"y":2544801.5399999991}},{"attributes":{"ID":402362,"DIS_CODE":0,"TOWNNAME":"中西區","LI":"光賢里","LIN":"11鄰","STREET":"中華西路","SECT":"二段","MAREA":" ","LANE":"５８０巷","ALLEY":" ","HOUSE_NO":"１０８號","E_COORD97":166742.48000000001,"N_COORD97":2544809.96,"ADDRESS":"中華西路二段５８０巷１０８號","OBJECTID":402338},"geometry":{"x":166742.48000000231,"y":2544809.9600000028}},{"attributes":{"ID":402363,"DIS_CODE":0,"TOWNNAME":"中西區","LI":"光賢里","LIN":"11鄰","STREET":"中華西路","SECT":"二段","MAREA":" ","LANE":"５８０巷","ALLEY":" ","HOUSE_NO":"１１０號","E_COORD97":166748.19,"N_COORD97":2544810.9100000001,"ADDRESS":"中華西路二段５８０巷１１０號","OBJECTID":402339},"geometry":{"x":166748.19000000134,"y":2544810.9100000001}},{"attributes":{"ID":402364,"DIS_CODE":0,"TOWNNAME":"中西區","LI":"光賢里","LIN":"11鄰","STREET":"中華西路","SECT":"二段","MAREA":" ","LANE":"５８０巷","ALLEY":" ","HOUSE_NO":"１１２號","E_COORD97":166753.59,"N_COORD97":2544811.8599999999,"ADDRESS":"中華西路二段５８０巷１１２號","OBJECTID":402340},"geometry":{"x":166753.59000000078,"y":2544811.8600000013}},{"attributes":{"ID":402365,"DIS_CODE":0,"TOWNNAME":"中西區","LI":"光賢里","LIN":"11鄰","STREET":"中華西路","SECT":"二段","MAREA":" ","LANE":"５８０巷","ALLEY":" ","HOUSE_NO":"１１６號","E_COORD97":166759.78,"N_COORD97":2544813.4500000002,"ADDRESS":"中華西路二段５８０巷１１６號","OBJECTID":402341},"geometry":{"x":166759.78000000026,"y":2544813.4499999993}},{"attributes":{"ID":402366,"DIS_CODE":0,"TOWNNAME":"中西區","LI":"光賢里","LIN":"11鄰","STREET":"中華西路","SECT":"二段","MAREA":" ","LANE":"５８０巷","ALLEY":" ","HOUSE_NO":"１１８號","E_COORD97":166765.01999999999,"N_COORD97":2544814.0800000001,"ADDRESS":"中華西路二段５８０巷１１８號","OBJECTID":402342},"geometry":{"x":166765.02000000142,"y":2544814.0800000019}},{"attributes":{"ID":402367,"DIS_CODE":0,"TOWNNAME":"中西區","LI":"光賢里","LIN":"11鄰","STREET":"中華西路","SECT":"二段","MAREA":" ","LANE":"５８０巷","ALLEY":" ","HOUSE_NO":"１２０號","E_COORD97":166771.37,"N_COORD97":2544815.04,"ADDRESS":"中華西路二段５８０巷１２０號","OBJECTID":402343},"geometry":{"x":166771.37000000011,"y":2544815.0399999991}},{"attributes":{"ID":402368,"DIS_CODE":0,"TOWNNAME":"中西區","LI":"光賢里","LIN":"11鄰","STREET":"中華西路","SECT":"二段","MAREA":" ","LANE":"５８０巷","ALLEY":" ","HOUSE_NO":"１０號","E_COORD97":166694.06,"N_COORD97":2544808.8500000001,"ADDRESS":"中華西路二段５８０巷１０號","OBJECTID":402344},"geometry":{"x":166694.06000000052,"y":2544808.8500000015}},{"attributes":{"ID":402369,"DIS_CODE":0,"TOWNNAME":"中西區","LI":"光賢里","LIN":"11鄰","STREET":"中華西路","SECT":"二段","MAREA":" ","LANE":"５８０巷","ALLEY":" ","HOUSE_NO":"８號","E_COORD97":166689.60999999999,"N_COORD97":2544808.3700000001,"ADDRESS":"中華西路二段５８０巷８號","OBJECTID":402345},"geometry":{"x":166689.61000000127,"y":2544808.370000001}},{"attributes":{"ID":402370,"DIS_CODE":0,"TOWNNAME":"中西區","LI":"光賢里","LIN":"11鄰","STREET":"中華西路","SECT":"二段","MAREA":" ","LANE":"５８０巷","ALLEY":" ","HOUSE_NO":"１２號","E_COORD97":166698.82000000001,"N_COORD97":2544809.1600000001,"ADDRESS":"中華西路二段５８０巷１２號","OBJECTID":402346},"geometry":{"x":166698.8200000003,"y":2544809.1600000001}},{"attributes":{"ID":402371,"DIS_CODE":0,"TOWNNAME":"中西區","LI":"光賢里","LIN":"11鄰","STREET":"中華西路","SECT":"二段","MAREA":" ","LANE":"５８０巷","ALLEY":" ","HOUSE_NO":"１６號","E_COORD97":166703.42000000001,"N_COORD97":2544809.7999999998,"ADDRESS":"中華西路二段５８０巷１６號","OBJECTID":402347},"geometry":{"x":166703.42000000179,"y":2544809.8000000045}},{"attributes":{"ID":402372,"DIS_CODE":0,"TOWNNAME":"中西區","LI":"光賢里","LIN":"11鄰","STREET":"中華西路","SECT":"二段","MAREA":" ","LANE":"５８０巷","ALLEY":" ","HOUSE_NO":"３８號","E_COORD97":166704.54000000001,"N_COORD97":2544799.7999999998,"ADDRESS":"中華西路二段５８０巷３８號","OBJECTID":402348},"geometry":{"x":166704.54000000097,"y":2544799.8000000026}},{"attributes":{"ID":402373,"DIS_CODE":0,"TOWNNAME":"中西區","LI":"光賢里","LIN":"11鄰","STREET":"中華西路","SECT":"二段","MAREA":" ","LANE":"５８０巷","ALLEY":" ","HOUSE_NO":"６６號","E_COORD97":166722,"N_COORD97":2544775.98,"ADDRESS":"中華西路二段５８０巷６６號","OBJECTID":402349},"geometry":{"x":166722.00000000093,"y":2544775.9800000004}},{"attributes":{"ID":402374,"DIS_CODE":0,"TOWNNAME":"中西區","LI":"光賢里","LIN":"11鄰","STREET":"中華西路","SECT":"二段","MAREA":" ","LANE":"５８０巷","ALLEY":" ","HOUSE_NO":"６８號","E_COORD97":166724.85999999999,"N_COORD97":2544776.2999999998,"ADDRESS":"中華西路二段５８０巷６８號","OBJECTID":402350},"geometry":{"x":166724.86000000127,"y":2544776.3000000026}},{"attributes":{"ID":402375,"DIS_CODE":0,"TOWNNAME":"中西區","LI":"光賢里","LIN":"11鄰","STREET":"中華西路","SECT":"二段","MAREA":" ","LANE":"５８０巷","ALLEY":" ","HOUSE_NO":"７０號","E_COORD97":166728.03,"N_COORD97":2544776.46,"ADDRESS":"中華西路二段５８０巷７０號","OBJECTID":402351},"geometry":{"x":166728.03000000026,"y":2544776.4600000009}},{"attributes":{"ID":402376,"DIS_CODE":0,"TOWNNAME":"中西區","LI":"協進里","LIN":"11鄰","STREET":"民權路","SECT":"三段","MAREA":" ","LANE":"４４７巷","ALLEY":" ","HOUSE_NO":"１號","E_COORD97":166719.64000000001,"N_COORD97":2544384.1299999999,"ADDRESS":"民權路三段４４７巷１號","OBJECTID":402352},"geometry":{"x":166719.63999999966,"y":2544384.129999999}},{"attributes":{"ID":402377,"DIS_CODE":0,"TOWNNAME":"安南區","LI":"總頭里","LIN":"11鄰","STREET":"長溪路","SECT":"二段","MAREA":" ","LANE":"５８１巷","ALLEY":" ","HOUSE_NO":"３９之１號","E_COORD97":168179.26000000001,"N_COORD97":2550619.1600000001,"ADDRESS":"長溪路二段５８１巷３９之１號","OBJECTID":402353},"geometry":{"x":168179.26000000071,"y":2550619.160000002}},{"attributes":{"ID":402378,"DIS_CODE":0,"TOWNNAME":"白河區","LI":"庄內里","LIN":"11鄰","STREET":"光華路","SECT":" ","MAREA":" ","LANE":"１１７巷","ALLEY":" ","HOUSE_NO":"１０號","E_COORD97":190673.72,"N_COORD97":2583598.5499999998,"ADDRESS":"光華路１１７巷１０號","OBJECTID":402354},"geometry":{"x":190673.71999999974,"y":2583598.5500000026}},{"attributes":{"ID":402379,"DIS_CODE":0,"TOWNNAME":"白河區","LI":"庄內里","LIN":"11鄰","STREET":"光華路","SECT":" ","MAREA":" ","LANE":"１１７巷","ALLEY":" ","HOUSE_NO":"１號","E_COORD97":190684.87,"N_COORD97":2583581.1800000002,"ADDRESS":"光華路１１７巷１號","OBJECTID":402355},"geometry":{"x":190684.87000000104,"y":2583581.1799999997}},{"attributes":{"ID":402380,"DIS_CODE":0,"TOWNNAME":"白河區","LI":"庄內里","LIN":"11鄰","STREET":"光華路","SECT":" ","MAREA":" ","LANE":"１１７巷","ALLEY":" ","HOUSE_NO":"２號","E_COORD97":190687.39999999999,"N_COORD97":2583596.77,"ADDRESS":"光華路１１７巷２號","OBJECTID":402356},"geometry":{"x":190687.39999999944,"y":2583596.7699999996}},{"attributes":{"ID":402381,"DIS_CODE":0,"TOWNNAME":"白河區","LI":"庄內里","LIN":"11鄰","STREET":"光華路","SECT":" ","MAREA":" ","LANE":"１１７巷","ALLEY":" ","HOUSE_NO":"３號","E_COORD97":190680.03,"N_COORD97":2583581.5800000001,"ADDRESS":"光華路１１７巷３號","OBJECTID":402357},"geometry":{"x":190680.03000000119,"y":2583581.5800000001}},{"attributes":{"ID":402382,"DIS_CODE":0,"TOWNNAME":"白河區","LI":"庄內里","LIN":"11鄰","STREET":"光華路","SECT":" ","MAREA":" ","LANE":"１１７巷","ALLEY":" ","HOUSE_NO":"５號","E_COORD97":190675.19,"N_COORD97":2583582.3500000001,"ADDRESS":"光華路１１７巷５號","OBJECTID":402358},"geometry":{"x":190675.19000000041,"y":2583582.3499999996}},{"attributes":{"ID":402383,"DIS_CODE":0,"TOWNNAME":"白河區","LI":"庄內里","LIN":"11鄰","STREET":"光華路","SECT":" ","MAREA":" ","LANE":"１１７巷","ALLEY":" ","HOUSE_NO":"６號","E_COORD97":190683.14000000001,"N_COORD97":2583597.7000000002,"ADDRESS":"光華路１１７巷６號","OBJECTID":402359},"geometry":{"x":190683.13999999966,"y":2583597.6999999993}},{"attributes":{"ID":402384,"DIS_CODE":0,"TOWNNAME":"白河區","LI":"庄內里","LIN":"11鄰","STREET":"光華路","SECT":" ","MAREA":" ","LANE":"１１７巷","ALLEY":" ","HOUSE_NO":"７號","E_COORD97":190670.57999999999,"N_COORD97":2583582.4300000002,"ADDRESS":"光華路１１７巷７號","OBJECTID":402360},"geometry":{"x":190670.57999999914,"y":2583582.4299999997}},{"attributes":{"ID":402385,"DIS_CODE":0,"TOWNNAME":"白河區","LI":"庄內里","LIN":"11鄰","STREET":"光華路","SECT":" ","MAREA":" ","LANE":"１１７巷","ALLEY":" ","HOUSE_NO":"８號","E_COORD97":190678.69,"N_COORD97":2583598.1699999999,"ADDRESS":"光華路１１７巷８號","OBJECTID":402361},"geometry":{"x":190678.68999999948,"y":2583598.1699999999}},{"attributes":{"ID":402386,"DIS_CODE":0,"TOWNNAME":"永康區","LI":"永康里","LIN":"11鄰","STREET":"中山南路","SECT":" ","MAREA":" ","LANE":"１０５４巷","ALLEY":" ","HOUSE_NO":"４９號","E_COORD97":173741.48000000001,"N_COORD97":2547116.3799999999,"ADDRESS":"中山南路１０５４巷４９號","OBJECTID":402362},"geometry":{"x":173741.48000000045,"y":2547116.3800000008}},{"attributes":{"ID":402387,"DIS_CODE":0,"TOWNNAME":"永康區","LI":"正強里","LIN":"11鄰","STREET":"正強街","SECT":" ","MAREA":" ","LANE":"１２２巷","ALLEY":" ","HOUSE_NO":"１號","E_COORD97":173360.85000000001,"N_COORD97":2547425.7400000002,"ADDRESS":"正強街１２２巷１號","OBJECTID":402363},"geometry":{"x":173360.85000000056,"y":2547425.7400000002}},{"attributes":{"ID":402388,"DIS_CODE":0,"TOWNNAME":"永康區","LI":"正強里","LIN":"11鄰","STREET":"正強街","SECT":" ","MAREA":" ","LANE":"１２２巷","ALLEY":" ","HOUSE_NO":"１１號","E_COORD97":173385.31,"N_COORD97":2547428.9900000002,"ADDRESS":"正強街１２２巷１１號","OBJECTID":402364},"geometry":{"x":173385.31000000052,"y":2547428.9900000021}},{"attributes":{"ID":402389,"DIS_CODE":0,"TOWNNAME":"永康區","LI":"永康里","LIN":"11鄰","STREET":"永平街","SECT":" ","MAREA":" ","LANE":"４５巷","ALLEY":" ","HOUSE_NO":"５號","E_COORD97":173646.32000000001,"N_COORD97":2547148,"ADDRESS":"永平街４５巷５號","OBJECTID":402365},"geometry":{"x":173646.32000000216,"y":2547148.0000000019}},{"attributes":{"ID":402390,"DIS_CODE":0,"TOWNNAME":"永康區","LI":"正強里","LIN":"11鄰","STREET":"正義街","SECT":" ","MAREA":" ","LANE":"１１５巷","ALLEY":" ","HOUSE_NO":"６號","E_COORD97":173378.14999999999,"N_COORD97":2547503.5600000001,"ADDRESS":"正義街１１５巷６號","OBJECTID":402366},"geometry":{"x":173378.1500000013,"y":2547503.5600000024}},{"attributes":{"ID":402391,"DIS_CODE":0,"TOWNNAME":"永康區","LI":"正強里","LIN":"11鄰","STREET":"正義街","SECT":" ","MAREA":" ","LANE":"１１５巷","ALLEY":" ","HOUSE_NO":"１２號","E_COORD97":173381.5,"N_COORD97":2547491.5600000001,"ADDRESS":"正義街１１５巷１２號","OBJECTID":402367},"geometry":{"x":173381.5,"y":2547491.5600000005}},{"attributes":{"ID":402392,"DIS_CODE":0,"TOWNNAME":"永康區","LI":"永康里","LIN":"11鄰","STREET":"永平街","SECT":" ","MAREA":" ","LANE":"４５巷","ALLEY":" ","HOUSE_NO":"１６號","E_COORD97":173690.07999999999,"N_COORD97":2547161.9399999999,"ADDRESS":"永平街４５巷１６號","OBJECTID":402368},"geometry":{"x":173690.08000000194,"y":2547161.9399999995}},{"attributes":{"ID":402393,"DIS_CODE":0,"TOWNNAME":"永康區","LI":"正強里","LIN":"11鄰","STREET":"正強街","SECT":" ","MAREA":" ","LANE":"１４６巷","ALLEY":" ","HOUSE_NO":"１號","E_COORD97":173354.48000000001,"N_COORD97":2547470,"ADDRESS":"正強街１４６巷１號","OBJECTID":402369},"geometry":{"x":173354.48000000138,"y":2547470.0000000019}},{"attributes":{"ID":402394,"DIS_CODE":0,"TOWNNAME":"永康區","LI":"正強里","LIN":"11鄰","STREET":"正強街","SECT":" ","MAREA":" ","LANE":"１２２巷","ALLEY":" ","HOUSE_NO":"５號","E_COORD97":173369.32999999999,"N_COORD97":2547426.9900000002,"ADDRESS":"正強街１２２巷５號","OBJECTID":402370},"geometry":{"x":173369.33000000007,"y":2547426.9900000002}},{"attributes":{"ID":402395,"DIS_CODE":0,"TOWNNAME":"永康區","LI":"正強里","LIN":"11鄰","STREET":"正強街","SECT":" ","MAREA":" ","LANE":"１４６巷","ALLEY":" ","HOUSE_NO":"５號","E_COORD97":173362.73000000001,"N_COORD97":2547470.75,"ADDRESS":"正強街１４６巷５號","OBJECTID":402371},"geometry":{"x":173362.73000000138,"y":2547470.7500000037}},{"attributes":{"ID":402396,"DIS_CODE":0,"TOWNNAME":"北區","LI":"元寶里","LIN":"11鄰","STREET":"北園街","SECT":" ","MAREA":" ","LANE":"８巷","ALLEY":" ","HOUSE_NO":"１２號七樓之１","E_COORD97":170398.67000000001,"N_COORD97":2545612.48,"ADDRESS":"北園街８巷１２號七樓之１","OBJECTID":402372},"geometry":{"x":170398.66999999993,"y":2545612.4800000023}},{"attributes":{"ID":402397,"DIS_CODE":0,"TOWNNAME":"北區","LI":"元寶里","LIN":"11鄰","STREET":"北園街","SECT":" ","MAREA":" ","LANE":"８巷","ALLEY":" ","HOUSE_NO":"１２號七樓之２","E_COORD97":170398.67000000001,"N_COORD97":2545612.48,"ADDRESS":"北園街８巷１２號七樓之２","OBJECTID":402373},"geometry":{"x":170398.66999999993,"y":2545612.4800000023}},{"attributes":{"ID":402398,"DIS_CODE":0,"TOWNNAME":"北區","LI":"元寶里","LIN":"11鄰","STREET":"北園街","SECT":" ","MAREA":" ","LANE":"８巷","ALLEY":" ","HOUSE_NO":"１２號七樓之３","E_COORD97":170398.67000000001,"N_COORD97":2545612.48,"ADDRESS":"北園街８巷１２號七樓之３","OBJECTID":402374},"geometry":{"x":170398.66999999993,"y":2545612.4800000023}},{"attributes":{"ID":402399,"DIS_CODE":0,"TOWNNAME":"北區","LI":"元寶里","LIN":"11鄰","STREET":"北園街","SECT":" ","MAREA":" ","LANE":"８巷","ALLEY":" ","HOUSE_NO":"１２號七樓之５","E_COORD97":170398.67000000001,"N_COORD97":2545612.48,"ADDRESS":"北園街８巷１２號七樓之５","OBJECTID":402375},"geometry":{"x":170398.66999999993,"y":2545612.4800000023}},{"attributes":{"ID":402400,"DIS_CODE":0,"TOWNNAME":"北區","LI":"元寶里","LIN":"11鄰","STREET":"北園街","SECT":" ","MAREA":" ","LANE":"８巷","ALLEY":" ","HOUSE_NO":"１２號七樓之６","E_COORD97":170398.67000000001,"N_COORD97":2545612.48,"ADDRESS":"北園街８巷１２號七樓之６","OBJECTID":402376},"geometry":{"x":170398.66999999993,"y":2545612.4800000023}},{"attributes":{"ID":402401,"DIS_CODE":0,"TOWNNAME":"北區","LI":"元寶里","LIN":"11鄰","STREET":"北園街","SECT":" ","MAREA":" ","LANE":"８巷","ALLEY":" ","HOUSE_NO":"１２號七樓之７","E_COORD97":170398.67000000001,"N_COORD97":2545612.48,"ADDRESS":"北園街８巷１２號七樓之７","OBJECTID":402377},"geometry":{"x":170398.66999999993,"y":2545612.4800000023}},{"attributes":{"ID":402402,"DIS_CODE":0,"TOWNNAME":"北區","LI":"元寶里","LIN":"11鄰","STREET":"北園街","SECT":" ","MAREA":" ","LANE":"８巷","ALLEY":" ","HOUSE_NO":"１２號九樓之１","E_COORD97":170398.67000000001,"N_COORD97":2545612.48,"ADDRESS":"北園街８巷１２號九樓之１","OBJECTID":402378},"geometry":{"x":170398.66999999993,"y":2545612.4800000023}},{"attributes":{"ID":402403,"DIS_CODE":0,"TOWNNAME":"北區","LI":"元寶里","LIN":"11鄰","STREET":"北園街","SECT":" ","MAREA":" ","LANE":"８巷","ALLEY":" ","HOUSE_NO":"１２號九樓之２","E_COORD97":170398.67000000001,"N_COORD97":2545612.48,"ADDRESS":"北園街８巷１２號九樓之２","OBJECTID":402379},"geometry":{"x":170398.66999999993,"y":2545612.4800000023}},{"attributes":{"ID":402404,"DIS_CODE":0,"TOWNNAME":"北區","LI":"元寶里","LIN":"11鄰","STREET":"北園街","SECT":" ","MAREA":" ","LANE":"８巷","ALLEY":" ","HOUSE_NO":"１２號九樓之３","E_COORD97":170398.67000000001,"N_COORD97":2545612.48,"ADDRESS":"北園街８巷１２號九樓之３","OBJECTID":402380},"geometry":{"x":170398.66999999993,"y":2545612.4800000023}},{"attributes":{"ID":402405,"DIS_CODE":0,"TOWNNAME":"北區","LI":"元寶里","LIN":"11鄰","STREET":"北園街","SECT":" ","MAREA":" ","LANE":"８巷","ALLEY":" ","HOUSE_NO":"１２號九樓之５","E_COORD97":170398.67000000001,"N_COORD97":2545612.48,"ADDRESS":"北園街８巷１２號九樓之５","OBJECTID":402381},"geometry":{"x":170398.66999999993,"y":2545612.4800000023}},{"attributes":{"ID":402406,"DIS_CODE":0,"TOWNNAME":"北區","LI":"元寶里","LIN":"11鄰","STREET":"北園街","SECT":" ","MAREA":" ","LANE":"８巷","ALLEY":" ","HOUSE_NO":"１２號九樓之６","E_COORD97":170398.67000000001,"N_COORD97":2545612.48,"ADDRESS":"北園街８巷１２號九樓之６","OBJECTID":402382},"geometry":{"x":170398.66999999993,"y":2545612.4800000023}},{"attributes":{"ID":402407,"DIS_CODE":0,"TOWNNAME":"北區","LI":"元寶里","LIN":"11鄰","STREET":"北園街","SECT":" ","MAREA":" ","LANE":"８巷","ALLEY":" ","HOUSE_NO":"１２號九樓之７","E_COORD97":170398.67000000001,"N_COORD97":2545612.48,"ADDRESS":"北園街８巷１２號九樓之７","OBJECTID":402383},"geometry":{"x":170398.66999999993,"y":2545612.4800000023}},{"attributes":{"ID":402408,"DIS_CODE":0,"TOWNNAME":"北區","LI":"元寶里","LIN":"11鄰","STREET":"北園街","SECT":" ","MAREA":" ","LANE":"８巷","ALLEY":" ","HOUSE_NO":"１２號二樓","E_COORD97":170398.67000000001,"N_COORD97":2545612.48,"ADDRESS":"北園街８巷１２號二樓","OBJECTID":402384},"geometry":{"x":170398.66999999993,"y":2545612.4800000023}},{"attributes":{"ID":402409,"DIS_CODE":0,"TOWNNAME":"北區","LI":"元寶里","LIN":"11鄰","STREET":"北園街","SECT":" ","MAREA":" ","LANE":"８巷","ALLEY":" ","HOUSE_NO":"１２號八樓之１","E_COORD97":170398.67000000001,"N_COORD97":2545612.48,"ADDRESS":"北園街８巷１２號八樓之１","OBJECTID":402385},"geometry":{"x":170398.66999999993,"y":2545612.4800000023}},{"attributes":{"ID":402410,"DIS_CODE":0,"TOWNNAME":"北區","LI":"元寶里","LIN":"11鄰","STREET":"北園街","SECT":" ","MAREA":" ","LANE":"８巷","ALLEY":" ","HOUSE_NO":"１２號八樓之２","E_COORD97":170398.67000000001,"N_COORD97":2545612.48,"ADDRESS":"北園街８巷１２號八樓之２","OBJECTID":402386},"geometry":{"x":170398.66999999993,"y":2545612.4800000023}},{"attributes":{"ID":402411,"DIS_CODE":0,"TOWNNAME":"北區","LI":"元寶里","LIN":"11鄰","STREET":"北園街","SECT":" ","MAREA":" ","LANE":"８巷","ALLEY":" ","HOUSE_NO":"１２號八樓之３","E_COORD97":170398.67000000001,"N_COORD97":2545612.48,"ADDRESS":"北園街８巷１２號八樓之３","OBJECTID":402387},"geometry":{"x":170398.66999999993,"y":2545612.4800000023}},{"attributes":{"ID":402412,"DIS_CODE":0,"TOWNNAME":"北區","LI":"元寶里","LIN":"11鄰","STREET":"北園街","SECT":" ","MAREA":" ","LANE":"８巷","ALLEY":" ","HOUSE_NO":"１２號八樓之５","E_COORD97":170398.67000000001,"N_COORD97":2545612.48,"ADDRESS":"北園街８巷１２號八樓之５","OBJECTID":402388},"geometry":{"x":170398.66999999993,"y":2545612.4800000023}},{"attributes":{"ID":402413,"DIS_CODE":0,"TOWNNAME":"北區","LI":"元寶里","LIN":"11鄰","STREET":"北園街","SECT":" ","MAREA":" ","LANE":"８巷","ALLEY":" ","HOUSE_NO":"１２號八樓之６","E_COORD97":170398.67000000001,"N_COORD97":2545612.48,"ADDRESS":"北園街８巷１２號八樓之６","OBJECTID":402389},"geometry":{"x":170398.66999999993,"y":2545612.4800000023}},{"attributes":{"ID":402414,"DIS_CODE":0,"TOWNNAME":"北區","LI":"元寶里","LIN":"11鄰","STREET":"北園街","SECT":" ","MAREA":" ","LANE":"８巷","ALLEY":" ","HOUSE_NO":"１２號八樓之７","E_COORD97":170398.67000000001,"N_COORD97":2545612.48,"ADDRESS":"北園街８巷１２號八樓之７","OBJECTID":402390},"geometry":{"x":170398.66999999993,"y":2545612.4800000023}},{"attributes":{"ID":402415,"DIS_CODE":0,"TOWNNAME":"北區","LI":"元寶里","LIN":"11鄰","STREET":"北園街","SECT":" ","MAREA":" ","LANE":"８巷","ALLEY":" ","HOUSE_NO":"１２號八樓之８","E_COORD97":170398.67000000001,"N_COORD97":2545612.48,"ADDRESS":"北園街８巷１２號八樓之８","OBJECTID":402391},"geometry":{"x":170398.66999999993,"y":2545612.4800000023}},{"attributes":{"ID":402416,"DIS_CODE":0,"TOWNNAME":"北區","LI":"元寶里","LIN":"11鄰","STREET":"北園街","SECT":" ","MAREA":" ","LANE":"８巷","ALLEY":" ","HOUSE_NO":"１２號十一樓之１","E_COORD97":170398.67000000001,"N_COORD97":2545612.48,"ADDRESS":"北園街８巷１２號十一樓之１","OBJECTID":402392},"geometry":{"x":170398.66999999993,"y":2545612.4800000023}},{"attributes":{"ID":402417,"DIS_CODE":0,"TOWNNAME":"北區","LI":"元寶里","LIN":"11鄰","STREET":"北園街","SECT":" ","MAREA":" ","LANE":"８巷","ALLEY":" ","HOUSE_NO":"１２號十一樓之２","E_COORD97":170398.67000000001,"N_COORD97":2545612.48,"ADDRESS":"北園街８巷１２號十一樓之２","OBJECTID":402393},"geometry":{"x":170398.66999999993,"y":2545612.4800000023}},{"attributes":{"ID":402418,"DIS_CODE":0,"TOWNNAME":"北區","LI":"元寶里","LIN":"11鄰","STREET":"北園街","SECT":" ","MAREA":" ","LANE":"８巷","ALLEY":" ","HOUSE_NO":"１２號十一樓之３","E_COORD97":170398.67000000001,"N_COORD97":2545612.48,"ADDRESS":"北園街８巷１２號十一樓之３","OBJECTID":402394},"geometry":{"x":170398.66999999993,"y":2545612.4800000023}},{"attributes":{"ID":402419,"DIS_CODE":0,"TOWNNAME":"北區","LI":"元寶里","LIN":"11鄰","STREET":"北園街","SECT":" ","MAREA":" ","LANE":"８巷","ALLEY":" ","HOUSE_NO":"１２號十一樓之５","E_COORD97":170398.67000000001,"N_COORD97":2545612.48,"ADDRESS":"北園街８巷１２號十一樓之５","OBJECTID":402395},"geometry":{"x":170398.66999999993,"y":2545612.4800000023}},{"attributes":{"ID":402420,"DIS_CODE":0,"TOWNNAME":"北區","LI":"元寶里","LIN":"11鄰","STREET":"北園街","SECT":" ","MAREA":" ","LANE":"８巷","ALLEY":" ","HOUSE_NO":"１２號十一樓之６","E_COORD97":170398.67000000001,"N_COORD97":2545612.48,"ADDRESS":"北園街８巷１２號十一樓之６","OBJECTID":402396},"geometry":{"x":170398.66999999993,"y":2545612.4800000023}},{"attributes":{"ID":402421,"DIS_CODE":0,"TOWNNAME":"永康區","LI":"\u25A0洲里","LIN":"22鄰","STREET":"正南八街","SECT":" ","MAREA":" ","LANE":"３２巷","ALLEY":" ","HOUSE_NO":"５號","E_COORD97":171376.32999999999,"N_COORD97":2548844.6600000001,"ADDRESS":"正南八街３２巷５號","OBJECTID":402397},"geometry":{"x":171376.33000000101,"y":2548844.6600000039}},{"attributes":{"ID":402422,"DIS_CODE":0,"TOWNNAME":"北區","LI":"元寶里","LIN":"11鄰","STREET":"北園街","SECT":" ","MAREA":" ","LANE":"８巷","ALLEY":" ","HOUSE_NO":"１２號十一樓之７","E_COORD97":170398.67000000001,"N_COORD97":2545612.48,"ADDRESS":"北園街８巷１２號十一樓之７","OBJECTID":402398},"geometry":{"x":170398.66999999993,"y":2545612.4800000023}},{"attributes":{"ID":402423,"DIS_CODE":0,"TOWNNAME":"北區","LI":"元寶里","LIN":"11鄰","STREET":"北園街","SECT":" ","MAREA":" ","LANE":"８巷","ALLEY":" ","HOUSE_NO":"１２號十七樓之１","E_COORD97":170398.67000000001,"N_COORD97":2545612.48,"ADDRESS":"北園街８巷１２號十七樓之１","OBJECTID":402399},"geometry":{"x":170398.66999999993,"y":2545612.4800000023}},{"attributes":{"ID":402424,"DIS_CODE":0,"TOWNNAME":"北區","LI":"元寶里","LIN":"11鄰","STREET":"北園街","SECT":" ","MAREA":" ","LANE":"８巷","ALLEY":" ","HOUSE_NO":"１２號十七樓之２","E_COORD97":170398.67000000001,"N_COORD97":2545612.48,"ADDRESS":"北園街８巷１２號十七樓之２","OBJECTID":402400},"geometry":{"x":170398.66999999993,"y":2545612.4800000023}}]}