{"displayFieldName":"TOWNNAME","fieldAliases":{"ID":"ID","DIS_CODE":"DIS_CODE","TOWNNAME":"TOWNNAME","LI":"LI","LIN":"LIN","STREET":"STREET","SECT":"SECT","MAREA":"MAREA","LANE":"LANE","ALLEY":"ALLEY","HOUSE_NO":"HOUSE_NO","E_COORD97":"E_COORD97","N_COORD97":"N_COORD97","ADDRESS":"ADDRESS","OBJECTID":"OBJECTID"},"geometryType":"esriGeometryPoint","spatialReference":{"wkid":102443,"latestWkid":3826},"fields":[{"name":"ID","type":"esriFieldTypeDouble","alias":"ID"},{"name":"DIS_CODE","type":"esriFieldTypeInteger","alias":"DIS_CODE"},{"name":"TOWNNAME","type":"esriFieldTypeString","alias":"TOWNNAME","length":8},{"name":"LI","type":"esriFieldTypeString","alias":"LI","length":8},{"name":"LIN","type":"esriFieldTypeString","alias":"LIN","length":12},{"name":"STREET","type":"esriFieldTypeString","alias":"STREET","length":20},{"name":"SECT","type":"esriFieldTypeString","alias":"SECT","length":8},{"name":"MAREA","type":"esriFieldTypeString","alias":"MAREA","length":12},{"name":"LANE","type":"esriFieldTypeString","alias":"LANE","length":10},{"name":"ALLEY","type":"esriFieldTypeString","alias":"ALLEY","length":10},{"name":"HOUSE_NO","type":"esriFieldTypeString","alias":"HOUSE_NO","length":20},{"name":"E_COORD97","type":"esriFieldTypeDouble","alias":"E_COORD97"},{"name":"N_COORD97","type":"esriFieldTypeDouble","alias":"N_COORD97"},{"name":"ADDRESS","type":"esriFieldTypeString","alias":"ADDRESS","length":50},{"name":"OBJECTID","type":"esriFieldTypeOID","alias":"OBJECTID"}],"features":[{"attributes":{"ID":327810,"DIS_CODE":0,"TOWNNAME":"東區","LI":"關聖里","LIN":"20鄰","STREET":"裕信路","SECT":" ","MAREA":" ","LANE":"２３２巷","ALLEY":" ","HOUSE_NO":"１號","E_COORD97":172588.20000000001,"N_COORD97":2542892.6600000001,"ADDRESS":"裕信路２３２巷１號","OBJECTID":327801},"geometry":{"x":172588.20000000112,"y":2542892.6600000001}},{"attributes":{"ID":327811,"DIS_CODE":0,"TOWNNAME":"佳里區","LI":"安西里","LIN":"15鄰","STREET":"和平街","SECT":" ","MAREA":" ","LANE":"３０５巷","ALLEY":" ","HOUSE_NO":"１５號","E_COORD97":165180.20999999999,"N_COORD97":2562423.9900000002,"ADDRESS":"和平街３０５巷１５號","OBJECTID":327802},"geometry":{"x":165180.20999999996,"y":2562423.9899999984}},{"attributes":{"ID":327812,"DIS_CODE":0,"TOWNNAME":"佳里區","LI":"安西里","LIN":"15鄰","STREET":"和平街","SECT":" ","MAREA":" ","LANE":"３０５巷","ALLEY":" ","HOUSE_NO":"１６號","E_COORD97":165163.20999999999,"N_COORD97":2562424.1499999999,"ADDRESS":"和平街３０５巷１６號","OBJECTID":327803},"geometry":{"x":165163.20999999996,"y":2562424.1500000022}},{"attributes":{"ID":327813,"DIS_CODE":0,"TOWNNAME":"佳里區","LI":"安西里","LIN":"15鄰","STREET":"和平街","SECT":" ","MAREA":" ","LANE":"３０５巷","ALLEY":" ","HOUSE_NO":"１８號","E_COORD97":165163.17999999999,"N_COORD97":2562420.1000000001,"ADDRESS":"和平街３０５巷１８號","OBJECTID":327804},"geometry":{"x":165163.1799999997,"y":2562420.1000000015}},{"attributes":{"ID":327814,"DIS_CODE":0,"TOWNNAME":"佳里區","LI":"安西里","LIN":"15鄰","STREET":"和平街","SECT":" ","MAREA":" ","LANE":"３０５巷","ALLEY":" ","HOUSE_NO":"１號","E_COORD97":165181.01000000001,"N_COORD97":2562452.0099999998,"ADDRESS":"和平街３０５巷１號","OBJECTID":327805},"geometry":{"x":165181.01000000071,"y":2562452.0100000016}},{"attributes":{"ID":327815,"DIS_CODE":0,"TOWNNAME":"佳里區","LI":"安西里","LIN":"15鄰","STREET":"和平街","SECT":" ","MAREA":" ","LANE":"３０５巷","ALLEY":" ","HOUSE_NO":"２號","E_COORD97":165163.07999999999,"N_COORD97":2562452.79,"ADDRESS":"和平街３０５巷２號","OBJECTID":327806},"geometry":{"x":165163.07999999914,"y":2562452.790000001}},{"attributes":{"ID":327816,"DIS_CODE":0,"TOWNNAME":"佳里區","LI":"安西里","LIN":"15鄰","STREET":"和平街","SECT":" ","MAREA":" ","LANE":"３０５巷","ALLEY":" ","HOUSE_NO":"３號","E_COORD97":165180.51999999999,"N_COORD97":2562447.9700000002,"ADDRESS":"和平街３０５巷３號","OBJECTID":327807},"geometry":{"x":165180.52000000048,"y":2562447.9700000007}},{"attributes":{"ID":327817,"DIS_CODE":0,"TOWNNAME":"佳里區","LI":"安西里","LIN":"15鄰","STREET":"和平街","SECT":" ","MAREA":" ","LANE":"３０５巷","ALLEY":" ","HOUSE_NO":"４號","E_COORD97":165163.17999999999,"N_COORD97":2562448.96,"ADDRESS":"和平街３０５巷４號","OBJECTID":327808},"geometry":{"x":165163.1799999997,"y":2562448.9600000046}},{"attributes":{"ID":327818,"DIS_CODE":0,"TOWNNAME":"佳里區","LI":"安西里","LIN":"15鄰","STREET":"和平街","SECT":" ","MAREA":" ","LANE":"３０５巷","ALLEY":" ","HOUSE_NO":"５號","E_COORD97":165180.35000000001,"N_COORD97":2562444.04,"ADDRESS":"和平街３０５巷５號","OBJECTID":327809},"geometry":{"x":165180.35000000056,"y":2562444.040000001}},{"attributes":{"ID":327819,"DIS_CODE":0,"TOWNNAME":"佳里區","LI":"安西里","LIN":"15鄰","STREET":"和平街","SECT":" ","MAREA":" ","LANE":"３０５巷","ALLEY":" ","HOUSE_NO":"６號","E_COORD97":165163.10999999999,"N_COORD97":2562444.3599999999,"ADDRESS":"和平街３０５巷６號","OBJECTID":327810},"geometry":{"x":165163.11000000034,"y":2562444.3600000031}},{"attributes":{"ID":327820,"DIS_CODE":0,"TOWNNAME":"佳里區","LI":"安西里","LIN":"15鄰","STREET":"和平街","SECT":" ","MAREA":" ","LANE":"３０５巷","ALLEY":" ","HOUSE_NO":"７號","E_COORD97":165180.28,"N_COORD97":2562439.8599999999,"ADDRESS":"和平街３０５巷７號","OBJECTID":327811},"geometry":{"x":165180.28000000026,"y":2562439.8599999994}},{"attributes":{"ID":327821,"DIS_CODE":0,"TOWNNAME":"佳里區","LI":"安西里","LIN":"15鄰","STREET":"和平街","SECT":" ","MAREA":" ","LANE":"３０５巷","ALLEY":" ","HOUSE_NO":"８號","E_COORD97":165163.10000000001,"N_COORD97":2562440.3100000001,"ADDRESS":"和平街３０５巷８號","OBJECTID":327812},"geometry":{"x":165163.10000000056,"y":2562440.3100000024}},{"attributes":{"ID":327822,"DIS_CODE":0,"TOWNNAME":"南區","LI":"文南里","LIN":"17鄰","STREET":"永南一街","SECT":" ","MAREA":" ","LANE":" ","ALLEY":" ","HOUSE_NO":"４９號","E_COORD97":166715.82999999999,"N_COORD97":2542570.8900000001,"ADDRESS":"永南一街４９號","OBJECTID":327813},"geometry":{"x":166715.83000000007,"y":2542570.8899999987}},{"attributes":{"ID":327823,"DIS_CODE":0,"TOWNNAME":"東區","LI":"德高里","LIN":"1鄰","STREET":"自由路","SECT":"一段","MAREA":" ","LANE":"十五二巷","ALLEY":" ","HOUSE_NO":"１１號","E_COORD97":171748.22,"N_COORD97":2540969.3500000001,"ADDRESS":"自由路一段十五二巷１１號","OBJECTID":327814},"geometry":{"x":171748.22000000067,"y":2540969.3499999996}},{"attributes":{"ID":327824,"DIS_CODE":0,"TOWNNAME":"東區","LI":"關聖里","LIN":"20鄰","STREET":"裕孝路","SECT":" ","MAREA":" ","LANE":"１５７巷","ALLEY":" ","HOUSE_NO":"１號","E_COORD97":172456.92999999999,"N_COORD97":2542918.6200000001,"ADDRESS":"裕孝路１５７巷１號","OBJECTID":327815},"geometry":{"x":172456.93000000063,"y":2542918.620000001}},{"attributes":{"ID":327825,"DIS_CODE":0,"TOWNNAME":"東區","LI":"關聖里","LIN":"20鄰","STREET":"裕孝路","SECT":" ","MAREA":" ","LANE":"１５７巷","ALLEY":" ","HOUSE_NO":"１０號","E_COORD97":172476.85999999999,"N_COORD97":2542904.6699999999,"ADDRESS":"裕孝路１５７巷１０號","OBJECTID":327816},"geometry":{"x":172476.86000000127,"y":2542904.6700000018}},{"attributes":{"ID":327826,"DIS_CODE":0,"TOWNNAME":"東區","LI":"關聖里","LIN":"20鄰","STREET":"裕孝路","SECT":" ","MAREA":" ","LANE":"１５７巷","ALLEY":" ","HOUSE_NO":"１１號","E_COORD97":172492.79999999999,"N_COORD97":2542919.2200000002,"ADDRESS":"裕孝路１５７巷１１號","OBJECTID":327817},"geometry":{"x":172492.79999999981,"y":2542919.2200000025}},{"attributes":{"ID":327827,"DIS_CODE":0,"TOWNNAME":"官田區","LI":"官田里","LIN":"1鄰","STREET":" ","SECT":" ","MAREA":"官田","LANE":" ","ALLEY":" ","HOUSE_NO":"９號之２","E_COORD97":182567.67999999999,"N_COORD97":2565304.0800000001,"ADDRESS":"官田９號之２","OBJECTID":327818},"geometry":{"x":182567.6799999997,"y":2565304.0800000001}},{"attributes":{"ID":327828,"DIS_CODE":0,"TOWNNAME":"官田區","LI":"官田里","LIN":"1鄰","STREET":" ","SECT":" ","MAREA":"官田","LANE":" ","ALLEY":" ","HOUSE_NO":"９號之３","E_COORD97":182571.82000000001,"N_COORD97":2565303.1899999999,"ADDRESS":"官田９號之３","OBJECTID":327819},"geometry":{"x":182571.82000000123,"y":2565303.1899999995}},{"attributes":{"ID":327829,"DIS_CODE":0,"TOWNNAME":"東區","LI":"關聖里","LIN":"20鄰","STREET":"裕孝路","SECT":" ","MAREA":" ","LANE":"１５７巷","ALLEY":" ","HOUSE_NO":"１２號","E_COORD97":172493.20000000001,"N_COORD97":2542905.0699999998,"ADDRESS":"裕孝路１５７巷１２號","OBJECTID":327820},"geometry":{"x":172493.20000000112,"y":2542905.0699999984}},{"attributes":{"ID":327830,"DIS_CODE":0,"TOWNNAME":"佳里區","LI":"安西里","LIN":"15鄰","STREET":"和平街","SECT":" ","MAREA":" ","LANE":"３０５巷","ALLEY":" ","HOUSE_NO":"９號","E_COORD97":165180.48000000001,"N_COORD97":2562435.8199999998,"ADDRESS":"和平街３０５巷９號","OBJECTID":327821},"geometry":{"x":165180.48000000045,"y":2562435.8200000022}},{"attributes":{"ID":327831,"DIS_CODE":0,"TOWNNAME":"中西區","LI":"安海里","LIN":"15鄰","STREET":"河中街","SECT":" ","MAREA":" ","LANE":"５３巷","ALLEY":" ","HOUSE_NO":"１號","E_COORD97":167292.64999999999,"N_COORD97":2544082.23,"ADDRESS":"河中街５３巷１號","OBJECTID":327822},"geometry":{"x":167292.6500000013,"y":2544082.2300000023}},{"attributes":{"ID":327832,"DIS_CODE":0,"TOWNNAME":"中西區","LI":"大涼里","LIN":"15鄰","STREET":"府前一街","SECT":" ","MAREA":" ","LANE":"９巷","ALLEY":" ","HOUSE_NO":"１０之２０號","E_COORD97":166760.76000000001,"N_COORD97":2543745.5899999999,"ADDRESS":"府前一街９巷１０之２０號","OBJECTID":327823},"geometry":{"x":166760.76000000071,"y":2543745.5900000036}},{"attributes":{"ID":327833,"DIS_CODE":0,"TOWNNAME":"中西區","LI":"大涼里","LIN":"15鄰","STREET":"府前一街","SECT":" ","MAREA":" ","LANE":"９巷","ALLEY":" ","HOUSE_NO":"１０號","E_COORD97":166786.84,"N_COORD97":2543737.21,"ADDRESS":"府前一街９巷１０號","OBJECTID":327824},"geometry":{"x":166786.84000000171,"y":2543737.2100000028}},{"attributes":{"ID":327834,"DIS_CODE":0,"TOWNNAME":"中西區","LI":"大涼里","LIN":"15鄰","STREET":"府前一街","SECT":" ","MAREA":" ","LANE":"９巷","ALLEY":" ","HOUSE_NO":"１０號之１","E_COORD97":166783.95000000001,"N_COORD97":2543737.5099999998,"ADDRESS":"府前一街９巷１０號之１","OBJECTID":327825},"geometry":{"x":166783.95000000019,"y":2543737.5099999998}},{"attributes":{"ID":327835,"DIS_CODE":0,"TOWNNAME":"中西區","LI":"大涼里","LIN":"15鄰","STREET":"府前一街","SECT":" ","MAREA":" ","LANE":"９巷","ALLEY":" ","HOUSE_NO":"１０號之１０","E_COORD97":166799.32999999999,"N_COORD97":2543776.46,"ADDRESS":"府前一街９巷１０號之１０","OBJECTID":327826},"geometry":{"x":166799.33000000101,"y":2543776.4600000009}},{"attributes":{"ID":327836,"DIS_CODE":0,"TOWNNAME":"南區","LI":"文南里","LIN":"17鄰","STREET":"永南一街","SECT":" ","MAREA":" ","LANE":" ","ALLEY":" ","HOUSE_NO":"５１號","E_COORD97":166711.66,"N_COORD97":2542571.6000000001,"ADDRESS":"永南一街５１號","OBJECTID":327827},"geometry":{"x":166711.66000000015,"y":2542571.5999999996}},{"attributes":{"ID":327837,"DIS_CODE":0,"TOWNNAME":"南區","LI":"文南里","LIN":"17鄰","STREET":"健康路","SECT":"二段","MAREA":" ","LANE":" ","ALLEY":" ","HOUSE_NO":"３２４號","E_COORD97":166791.59,"N_COORD97":2542519.9300000002,"ADDRESS":"健康路二段３２４號","OBJECTID":327828},"geometry":{"x":166791.58999999985,"y":2542519.9300000016}},{"attributes":{"ID":327838,"DIS_CODE":0,"TOWNNAME":"歸仁區","LI":"大廟里","LIN":"14鄰","STREET":"大廟六街","SECT":" ","MAREA":" ","LANE":" ","ALLEY":" ","HOUSE_NO":"１２４號","E_COORD97":176204.22,"N_COORD97":2544287.25,"ADDRESS":"大廟六街１２４號","OBJECTID":327829},"geometry":{"x":176204.21999999881,"y":2544287.2500000037}},{"attributes":{"ID":327839,"DIS_CODE":0,"TOWNNAME":"南區","LI":"文南里","LIN":"17鄰","STREET":"健康路","SECT":"二段","MAREA":" ","LANE":" ","ALLEY":" ","HOUSE_NO":"３２６號","E_COORD97":166786.25,"N_COORD97":2542521.0099999998,"ADDRESS":"健康路二段３２６號","OBJECTID":327830},"geometry":{"x":166786.25000000093,"y":2542521.0099999998}},{"attributes":{"ID":327840,"DIS_CODE":0,"TOWNNAME":"東區","LI":"和平里","LIN":"20鄰","STREET":"文化一街","SECT":" ","MAREA":" ","LANE":"１６８巷","ALLEY":" ","HOUSE_NO":"１３號","E_COORD97":171223.38,"N_COORD97":2541854.3599999999,"ADDRESS":"文化一街１６８巷１３號","OBJECTID":327831},"geometry":{"x":171223.38000000082,"y":2541854.3599999994}},{"attributes":{"ID":327841,"DIS_CODE":0,"TOWNNAME":"東區","LI":"大智里","LIN":"13鄰","STREET":"長東街","SECT":" ","MAREA":" ","LANE":"１４１巷","ALLEY":" ","HOUSE_NO":"４９號","E_COORD97":171183.57999999999,"N_COORD97":2540153.7000000002,"ADDRESS":"長東街１４１巷４９號","OBJECTID":327832},"geometry":{"x":171183.58000000101,"y":2540153.700000003}},{"attributes":{"ID":327842,"DIS_CODE":0,"TOWNNAME":"東區","LI":"大智里","LIN":"13鄰","STREET":"長東街","SECT":" ","MAREA":" ","LANE":"１４１巷","ALLEY":" ","HOUSE_NO":"４９號","E_COORD97":171188.5,"N_COORD97":2540154.3599999999,"ADDRESS":"長東街１４１巷４９號","OBJECTID":327833},"geometry":{"x":171188.50000000093,"y":2540154.3600000013}},{"attributes":{"ID":327843,"DIS_CODE":0,"TOWNNAME":"東區","LI":"大智里","LIN":"13鄰","STREET":"長東街","SECT":" ","MAREA":" ","LANE":"１４１巷","ALLEY":" ","HOUSE_NO":"５５號","E_COORD97":171193.41,"N_COORD97":2540154.1899999999,"ADDRESS":"長東街１４１巷５５號","OBJECTID":327834},"geometry":{"x":171193.41000000015,"y":2540154.1900000032}},{"attributes":{"ID":327844,"DIS_CODE":0,"TOWNNAME":"中西區","LI":"大涼里","LIN":"15鄰","STREET":"府前一街","SECT":" ","MAREA":" ","LANE":"９巷","ALLEY":" ","HOUSE_NO":"１０號之１１","E_COORD97":166794.31,"N_COORD97":2543775.73,"ADDRESS":"府前一街９巷１０號之１１","OBJECTID":327835},"geometry":{"x":166794.31000000052,"y":2543775.7300000042}},{"attributes":{"ID":327845,"DIS_CODE":0,"TOWNNAME":"中西區","LI":"大涼里","LIN":"15鄰","STREET":"府前一街","SECT":" ","MAREA":" ","LANE":"９巷","ALLEY":" ","HOUSE_NO":"１０號之１２","E_COORD97":166789.35000000001,"N_COORD97":2543774.2599999998,"ADDRESS":"府前一街９巷１０號之１２","OBJECTID":327836},"geometry":{"x":166789.34999999963,"y":2543774.2599999998}},{"attributes":{"ID":327846,"DIS_CODE":0,"TOWNNAME":"中西區","LI":"大涼里","LIN":"15鄰","STREET":"府前一街","SECT":" ","MAREA":" ","LANE":"９巷","ALLEY":" ","HOUSE_NO":"１０號之１３","E_COORD97":166785.13,"N_COORD97":2543773.2200000002,"ADDRESS":"府前一街９巷１０號之１３","OBJECTID":327837},"geometry":{"x":166785.13000000082,"y":2543773.2200000025}},{"attributes":{"ID":327847,"DIS_CODE":0,"TOWNNAME":"下營區","LI":"仁里里","LIN":"15鄰","STREET":"公園路","SECT":" ","MAREA":" ","LANE":"３２巷","ALLEY":" ","HOUSE_NO":"１５號","E_COORD97":174307.73000000001,"N_COORD97":2570419.7999999998,"ADDRESS":"公園路３２巷１５號","OBJECTID":327838},"geometry":{"x":174307.73000000045,"y":2570419.8000000007}},{"attributes":{"ID":327848,"DIS_CODE":0,"TOWNNAME":"下營區","LI":"仁里里","LIN":"15鄰","STREET":"公園路","SECT":" ","MAREA":" ","LANE":"３２巷","ALLEY":" ","HOUSE_NO":"１７號","E_COORD97":174307.57000000001,"N_COORD97":2570424.2599999998,"ADDRESS":"公園路３２巷１７號","OBJECTID":327839},"geometry":{"x":174307.57000000123,"y":2570424.2600000016}},{"attributes":{"ID":327849,"DIS_CODE":0,"TOWNNAME":"下營區","LI":"仁里里","LIN":"15鄰","STREET":"公園路","SECT":" ","MAREA":" ","LANE":"３２巷","ALLEY":" ","HOUSE_NO":"１９號","E_COORD97":174307.35999999999,"N_COORD97":2570428.29,"ADDRESS":"公園路３２巷１９號","OBJECTID":327840},"geometry":{"x":174307.36000000127,"y":2570428.2899999991}},{"attributes":{"ID":327850,"DIS_CODE":0,"TOWNNAME":"下營區","LI":"仁里里","LIN":"15鄰","STREET":"公園路","SECT":" ","MAREA":" ","LANE":"３２巷","ALLEY":" ","HOUSE_NO":"５號","E_COORD97":174313.59,"N_COORD97":2570383.6899999999,"ADDRESS":"公園路３２巷５號","OBJECTID":327841},"geometry":{"x":174313.59000000171,"y":2570383.6900000013}},{"attributes":{"ID":327851,"DIS_CODE":0,"TOWNNAME":"南區","LI":"文南里","LIN":"17鄰","STREET":"健康路","SECT":"二段","MAREA":" ","LANE":" ","ALLEY":" ","HOUSE_NO":"３２８號","E_COORD97":166781.79999999999,"N_COORD97":2542521.1800000002,"ADDRESS":"健康路二段３２８號","OBJECTID":327842},"geometry":{"x":166781.79999999981,"y":2542521.1800000016}},{"attributes":{"ID":327852,"DIS_CODE":0,"TOWNNAME":"南區","LI":"文南里","LIN":"17鄰","STREET":"健康路","SECT":"二段","MAREA":" ","LANE":" ","ALLEY":" ","HOUSE_NO":"３３０號","E_COORD97":166776.20000000001,"N_COORD97":2542521.8999999999,"ADDRESS":"健康路二段３３０號","OBJECTID":327843},"geometry":{"x":166776.19999999925,"y":2542521.9000000004}},{"attributes":{"ID":327853,"DIS_CODE":0,"TOWNNAME":"南區","LI":"文南里","LIN":"17鄰","STREET":"健康路","SECT":"二段","MAREA":" ","LANE":" ","ALLEY":" ","HOUSE_NO":"３３２號","E_COORD97":166771.29999999999,"N_COORD97":2542522.3399999999,"ADDRESS":"健康路二段３３２號","OBJECTID":327844},"geometry":{"x":166771.29999999981,"y":2542522.3399999999}},{"attributes":{"ID":327854,"DIS_CODE":0,"TOWNNAME":"南區","LI":"文南里","LIN":"17鄰","STREET":"健康路","SECT":"二段","MAREA":" ","LANE":" ","ALLEY":" ","HOUSE_NO":"３３６號","E_COORD97":166758.31,"N_COORD97":2542523.8500000001,"ADDRESS":"健康路二段３３６號","OBJECTID":327845},"geometry":{"x":166758.31000000052,"y":2542523.8500000015}},{"attributes":{"ID":327855,"DIS_CODE":0,"TOWNNAME":"東區","LI":"崇善里","LIN":"26鄰","STREET":"崇善十二街","SECT":" ","MAREA":" ","LANE":"６巷","ALLEY":" ","HOUSE_NO":"１８號","E_COORD97":171233.82000000001,"N_COORD97":2541014.8700000001,"ADDRESS":"崇善十二街６巷１８號","OBJECTID":327846},"geometry":{"x":171233.8200000003,"y":2541014.870000001}},{"attributes":{"ID":327856,"DIS_CODE":0,"TOWNNAME":"東區","LI":"崇善里","LIN":"8鄰","STREET":"崇善七街","SECT":" ","MAREA":" ","LANE":"８巷","ALLEY":" ","HOUSE_NO":"１號","E_COORD97":171085.35000000001,"N_COORD97":2541440.77,"ADDRESS":"崇善七街８巷１號","OBJECTID":327847},"geometry":{"x":171085.34999999963,"y":2541440.7699999996}},{"attributes":{"ID":327857,"DIS_CODE":0,"TOWNNAME":"東區","LI":"崇善里","LIN":"8鄰","STREET":"崇善七街","SECT":" ","MAREA":" ","LANE":"８巷","ALLEY":" ","HOUSE_NO":"３號","E_COORD97":171087.37,"N_COORD97":2541436.2999999998,"ADDRESS":"崇善七街８巷３號","OBJECTID":327848},"geometry":{"x":171087.37000000011,"y":2541436.3000000045}},{"attributes":{"ID":327858,"DIS_CODE":0,"TOWNNAME":"下營區","LI":"仁里里","LIN":"15鄰","STREET":"公園路","SECT":" ","MAREA":" ","LANE":"３２巷","ALLEY":" ","HOUSE_NO":"７號","E_COORD97":174313.10000000001,"N_COORD97":2570388.3599999999,"ADDRESS":"公園路３２巷７號","OBJECTID":327849},"geometry":{"x":174313.0999999987,"y":2570388.3600000031}},{"attributes":{"ID":327859,"DIS_CODE":0,"TOWNNAME":"下營區","LI":"仁里里","LIN":"15鄰","STREET":"公園路","SECT":" ","MAREA":" ","LANE":"３２巷","ALLEY":" ","HOUSE_NO":"９號","E_COORD97":174312.10999999999,"N_COORD97":2570392.3799999999,"ADDRESS":"公園路３２巷９號","OBJECTID":327850},"geometry":{"x":174312.1099999994,"y":2570392.3800000008}},{"attributes":{"ID":327860,"DIS_CODE":0,"TOWNNAME":"南區","LI":"文南里","LIN":"17鄰","STREET":"健康路","SECT":"二段","MAREA":" ","LANE":" ","ALLEY":" ","HOUSE_NO":"３３８號","E_COORD97":166754.12,"N_COORD97":2542524.3900000001,"ADDRESS":"健康路二段３３８號","OBJECTID":327851},"geometry":{"x":166754.12000000011,"y":2542524.3900000025}},{"attributes":{"ID":327861,"DIS_CODE":0,"TOWNNAME":"南區","LI":"文南里","LIN":"17鄰","STREET":"健康路","SECT":"二段","MAREA":" ","LANE":" ","ALLEY":" ","HOUSE_NO":"３４０號","E_COORD97":166749.94,"N_COORD97":2542524.6600000001,"ADDRESS":"健康路二段３４０號","OBJECTID":327852},"geometry":{"x":166749.94000000134,"y":2542524.6600000039}},{"attributes":{"ID":327862,"DIS_CODE":0,"TOWNNAME":"東區","LI":"關聖里","LIN":"12鄰","STREET":"裕農二街","SECT":" ","MAREA":" ","LANE":" ","ALLEY":" ","HOUSE_NO":"８９號","E_COORD97":171988.54999999999,"N_COORD97":2542946.25,"ADDRESS":"裕農二街８９號","OBJECTID":327853},"geometry":{"x":171988.55000000075,"y":2542946.25}},{"attributes":{"ID":327863,"DIS_CODE":0,"TOWNNAME":"東區","LI":"後甲里","LIN":"14鄰","STREET":"裕農路","SECT":" ","MAREA":" ","LANE":"６２１巷","ALLEY":" ","HOUSE_NO":"３５號","E_COORD97":171611.62,"N_COORD97":2543405.3799999999,"ADDRESS":"裕農路６２１巷３５號","OBJECTID":327854},"geometry":{"x":171611.62000000104,"y":2543405.379999999}},{"attributes":{"ID":327864,"DIS_CODE":0,"TOWNNAME":"東區","LI":"大德里","LIN":"4鄰","STREET":"立德八路","SECT":" ","MAREA":" ","LANE":"３巷","ALLEY":" ","HOUSE_NO":"３４號","E_COORD97":169453.98000000001,"N_COORD97":2541978.79,"ADDRESS":"立德八路３巷３４號","OBJECTID":327855},"geometry":{"x":169453.98000000045,"y":2541978.7899999991}},{"attributes":{"ID":327865,"DIS_CODE":0,"TOWNNAME":"東區","LI":"大德里","LIN":"4鄰","STREET":"立德八路","SECT":" ","MAREA":" ","LANE":"３巷","ALLEY":" ","HOUSE_NO":"５８號","E_COORD97":169425.63,"N_COORD97":2542000.2599999998,"ADDRESS":"立德八路３巷５８號","OBJECTID":327856},"geometry":{"x":169425.62999999989,"y":2542000.2599999998}},{"attributes":{"ID":327866,"DIS_CODE":0,"TOWNNAME":"東區","LI":"大德里","LIN":"4鄰","STREET":"立德八路","SECT":" ","MAREA":" ","LANE":"３巷","ALLEY":" ","HOUSE_NO":"７４號","E_COORD97":169444.09,"N_COORD97":2542017.27,"ADDRESS":"立德八路３巷７４號","OBJECTID":327857},"geometry":{"x":169444.09000000078,"y":2542017.2699999996}},{"attributes":{"ID":327867,"DIS_CODE":0,"TOWNNAME":"東區","LI":"大德里","LIN":"4鄰","STREET":"立德八路","SECT":" ","MAREA":" ","LANE":"３巷","ALLEY":" ","HOUSE_NO":"７６號","E_COORD97":169438.76000000001,"N_COORD97":2542015.6299999999,"ADDRESS":"立德八路３巷７６號","OBJECTID":327858},"geometry":{"x":169438.76000000071,"y":2542015.6300000008}},{"attributes":{"ID":327868,"DIS_CODE":0,"TOWNNAME":"下營區","LI":"仁里里","LIN":"15鄰","STREET":"公園路","SECT":" ","MAREA":" ","LANE":"５２巷","ALLEY":" ","HOUSE_NO":"１６號","E_COORD97":174286.48999999999,"N_COORD97":2570386.5699999998,"ADDRESS":"公園路５２巷１６號","OBJECTID":327859},"geometry":{"x":174286.49000000115,"y":2570386.5700000003}},{"attributes":{"ID":327869,"DIS_CODE":0,"TOWNNAME":"下營區","LI":"仁里里","LIN":"15鄰","STREET":"公園路","SECT":" ","MAREA":" ","LANE":"５２巷","ALLEY":" ","HOUSE_NO":"１號","E_COORD97":174286.53,"N_COORD97":2570359.79,"ADDRESS":"公園路５２巷１號","OBJECTID":327860},"geometry":{"x":174286.53000000026,"y":2570359.7899999991}},{"attributes":{"ID":327870,"DIS_CODE":0,"TOWNNAME":"下營區","LI":"仁里里","LIN":"15鄰","STREET":"公園路","SECT":" ","MAREA":" ","LANE":"５２巷","ALLEY":" ","HOUSE_NO":"２０號","E_COORD97":174271.91,"N_COORD97":2570376.9900000002,"ADDRESS":"公園路５２巷２０號","OBJECTID":327861},"geometry":{"x":174271.91000000015,"y":2570376.9900000002}},{"attributes":{"ID":327871,"DIS_CODE":0,"TOWNNAME":"下營區","LI":"仁里里","LIN":"15鄰","STREET":"公園路","SECT":" ","MAREA":" ","LANE":"７６巷","ALLEY":" ","HOUSE_NO":"１２號","E_COORD97":174293.51999999999,"N_COORD97":2570387.6299999999,"ADDRESS":"公園路７６巷１２號","OBJECTID":327862},"geometry":{"x":174293.52000000048,"y":2570387.629999999}},{"attributes":{"ID":327872,"DIS_CODE":0,"TOWNNAME":"下營區","LI":"仁里里","LIN":"15鄰","STREET":"公園路","SECT":" ","MAREA":" ","LANE":"７６巷","ALLEY":" ","HOUSE_NO":"１５號","E_COORD97":174236.51999999999,"N_COORD97":2570391.2400000002,"ADDRESS":"公園路７６巷１５號","OBJECTID":327863},"geometry":{"x":174236.52000000048,"y":2570391.2400000021}},{"attributes":{"ID":327873,"DIS_CODE":0,"TOWNNAME":"南區","LI":"文南里","LIN":"17鄰","STREET":"健康路","SECT":"二段","MAREA":" ","LANE":" ","ALLEY":" ","HOUSE_NO":"３４２號","E_COORD97":166745.57999999999,"N_COORD97":2542525.0099999998,"ADDRESS":"健康路二段３４２號","OBJECTID":327864},"geometry":{"x":166745.58000000101,"y":2542525.0099999998}},{"attributes":{"ID":327874,"DIS_CODE":0,"TOWNNAME":"南區","LI":"文南里","LIN":"17鄰","STREET":"健康路","SECT":"二段","MAREA":" ","LANE":" ","ALLEY":" ","HOUSE_NO":"３４２之１號","E_COORD97":166741.39999999999,"N_COORD97":2542525.6299999999,"ADDRESS":"健康路二段３４２之１號","OBJECTID":327865},"geometry":{"x":166741.4000000013,"y":2542525.629999999}},{"attributes":{"ID":327875,"DIS_CODE":0,"TOWNNAME":"南區","LI":"文南里","LIN":"17鄰","STREET":"健康路","SECT":"二段","MAREA":" ","LANE":" ","ALLEY":" ","HOUSE_NO":"３４６號","E_COORD97":166737.13,"N_COORD97":2542525.9900000002,"ADDRESS":"健康路二段３４６號","OBJECTID":327866},"geometry":{"x":166737.12999999989,"y":2542525.9900000039}},{"attributes":{"ID":327876,"DIS_CODE":0,"TOWNNAME":"南區","LI":"文南里","LIN":"17鄰","STREET":"健康路","SECT":"二段","MAREA":" ","LANE":" ","ALLEY":" ","HOUSE_NO":"３４８號","E_COORD97":166732.76000000001,"N_COORD97":2542526.2599999998,"ADDRESS":"健康路二段３４８號","OBJECTID":327867},"geometry":{"x":166732.75999999978,"y":2542526.2599999998}},{"attributes":{"ID":327877,"DIS_CODE":0,"TOWNNAME":"南區","LI":"文南里","LIN":"17鄰","STREET":"健康路","SECT":"二段","MAREA":" ","LANE":" ","ALLEY":" ","HOUSE_NO":"３５０號","E_COORD97":166728.59,"N_COORD97":2542526.6800000002,"ADDRESS":"健康路二段３５０號","OBJECTID":327868},"geometry":{"x":166728.58999999985,"y":2542526.6799999997}},{"attributes":{"ID":327878,"DIS_CODE":0,"TOWNNAME":"東區","LI":"新東里","LIN":"4鄰","STREET":"衛國街","SECT":" ","MAREA":" ","LANE":"１０６巷","ALLEY":" ","HOUSE_NO":"１０號","E_COORD97":170380.10000000001,"N_COORD97":2543019.1000000001,"ADDRESS":"衛國街１０６巷１０號","OBJECTID":327869},"geometry":{"x":170380.09999999963,"y":2543019.0999999996}},{"attributes":{"ID":327879,"DIS_CODE":0,"TOWNNAME":"東區","LI":"新東里","LIN":"4鄰","STREET":"衛國街","SECT":" ","MAREA":" ","LANE":"１０６巷","ALLEY":" ","HOUSE_NO":"８號","E_COORD97":170380.19,"N_COORD97":2543025.0899999999,"ADDRESS":"衛國街１０６巷８號","OBJECTID":327870},"geometry":{"x":170380.19000000041,"y":2543025.0899999999}},{"attributes":{"ID":327880,"DIS_CODE":0,"TOWNNAME":"東區","LI":"新東里","LIN":"4鄰","STREET":"衛國街","SECT":" ","MAREA":" ","LANE":"１０６巷","ALLEY":" ","HOUSE_NO":"１３號","E_COORD97":170402.01000000001,"N_COORD97":2543026.6099999999,"ADDRESS":"衛國街１０６巷１３號","OBJECTID":327871},"geometry":{"x":170402.01000000071,"y":2543026.6100000013}},{"attributes":{"ID":327881,"DIS_CODE":0,"TOWNNAME":"東區","LI":"忠孝里","LIN":"13鄰","STREET":"榮譽街","SECT":" ","MAREA":" ","LANE":"８７巷","ALLEY":" ","HOUSE_NO":"１９號之１","E_COORD97":169747.82000000001,"N_COORD97":2541759.3900000001,"ADDRESS":"榮譽街８７巷１９號之１","OBJECTID":327872},"geometry":{"x":169747.82000000123,"y":2541759.3900000006}},{"attributes":{"ID":327882,"DIS_CODE":0,"TOWNNAME":"東區","LI":"大智里","LIN":"4鄰","STREET":"生產路","SECT":" ","MAREA":" ","LANE":"５３４巷","ALLEY":" ","HOUSE_NO":"１１號","E_COORD97":171093.92999999999,"N_COORD97":2540621.6800000002,"ADDRESS":"生產路５３４巷１１號","OBJECTID":327873},"geometry":{"x":171093.93000000063,"y":2540621.6799999997}},{"attributes":{"ID":327883,"DIS_CODE":0,"TOWNNAME":"東區","LI":"大智里","LIN":"4鄰","STREET":"生產路","SECT":" ","MAREA":" ","LANE":"５３４巷","ALLEY":" ","HOUSE_NO":"１３號","E_COORD97":171094.12,"N_COORD97":2540618.0699999998,"ADDRESS":"生產路５３４巷１３號","OBJECTID":327874},"geometry":{"x":171094.12000000011,"y":2540618.0700000022}},{"attributes":{"ID":327884,"DIS_CODE":0,"TOWNNAME":"東區","LI":"大智里","LIN":"4鄰","STREET":"生產路","SECT":" ","MAREA":" ","LANE":"５３４巷","ALLEY":" ","HOUSE_NO":"１５號","E_COORD97":171094.12,"N_COORD97":2540614.0800000001,"ADDRESS":"生產路５３４巷１５號","OBJECTID":327875},"geometry":{"x":171094.12000000011,"y":2540614.0800000019}},{"attributes":{"ID":327885,"DIS_CODE":0,"TOWNNAME":"下營區","LI":"仁里里","LIN":"15鄰","STREET":"公園路","SECT":" ","MAREA":" ","LANE":"７６巷","ALLEY":" ","HOUSE_NO":"１９號","E_COORD97":174236.23000000001,"N_COORD97":2570406.8199999998,"ADDRESS":"公園路７６巷１９號","OBJECTID":327876},"geometry":{"x":174236.23000000045,"y":2570406.8200000022}},{"attributes":{"ID":327886,"DIS_CODE":0,"TOWNNAME":"下營區","LI":"仁里里","LIN":"15鄰","STREET":"公園路","SECT":" ","MAREA":" ","LANE":"７６巷","ALLEY":" ","HOUSE_NO":"２２號","E_COORD97":174273.95999999999,"N_COORD97":2570384.3300000001,"ADDRESS":"公園路７６巷２２號","OBJECTID":327877},"geometry":{"x":174273.96000000183,"y":2570384.3300000001}},{"attributes":{"ID":327887,"DIS_CODE":0,"TOWNNAME":"下營區","LI":"仁里里","LIN":"15鄰","STREET":"公園路","SECT":" ","MAREA":" ","LANE":"７６巷","ALLEY":" ","HOUSE_NO":"２７號","E_COORD97":174260.28,"N_COORD97":2570391.5,"ADDRESS":"公園路７６巷２７號","OBJECTID":327878},"geometry":{"x":174260.28000000119,"y":2570391.5000000019}},{"attributes":{"ID":327888,"DIS_CODE":0,"TOWNNAME":"下營區","LI":"仁里里","LIN":"15鄰","STREET":"公園路","SECT":" ","MAREA":" ","LANE":"７６巷","ALLEY":" ","HOUSE_NO":"２９號","E_COORD97":174252.67999999999,"N_COORD97":2570389.8999999999,"ADDRESS":"公園路７６巷２９號","OBJECTID":327879},"geometry":{"x":174252.6799999997,"y":2570389.9000000022}},{"attributes":{"ID":327889,"DIS_CODE":0,"TOWNNAME":"下營區","LI":"仁里里","LIN":"15鄰","STREET":"公園路","SECT":" ","MAREA":" ","LANE":"７６巷","ALLEY":" ","HOUSE_NO":"３７號","E_COORD97":174281.32999999999,"N_COORD97":2570404.4100000001,"ADDRESS":"公園路７６巷３７號","OBJECTID":327880},"geometry":{"x":174281.33000000007,"y":2570404.4100000001}},{"attributes":{"ID":327890,"DIS_CODE":0,"TOWNNAME":"下營區","LI":"仁里里","LIN":"15鄰","STREET":"公園路","SECT":" ","MAREA":" ","LANE":"７６巷","ALLEY":" ","HOUSE_NO":"３９號","E_COORD97":174285.57000000001,"N_COORD97":2570404.6800000002,"ADDRESS":"公園路７６巷３９號","OBJECTID":327881},"geometry":{"x":174285.57000000123,"y":2570404.6800000016}},{"attributes":{"ID":327891,"DIS_CODE":0,"TOWNNAME":"下營區","LI":"仁里里","LIN":"15鄰","STREET":"公園路","SECT":" ","MAREA":" ","LANE":"７６巷","ALLEY":" ","HOUSE_NO":"４１號","E_COORD97":174289.81,"N_COORD97":2570404.9500000002,"ADDRESS":"公園路７６巷４１號","OBJECTID":327882},"geometry":{"x":174289.81000000145,"y":2570404.9500000011}},{"attributes":{"ID":327892,"DIS_CODE":0,"TOWNNAME":"下營區","LI":"仁里里","LIN":"15鄰","STREET":"公園路","SECT":" ","MAREA":" ","LANE":"７６巷","ALLEY":" ","HOUSE_NO":"４３號","E_COORD97":174293.85999999999,"N_COORD97":2570404.8700000001,"ADDRESS":"公園路７６巷４３號","OBJECTID":327883},"geometry":{"x":174293.86000000127,"y":2570404.8700000029}},{"attributes":{"ID":327893,"DIS_CODE":0,"TOWNNAME":"下營區","LI":"仁里里","LIN":"15鄰","STREET":"公園路","SECT":" ","MAREA":" ","LANE":"７６巷","ALLEY":" ","HOUSE_NO":"４５號","E_COORD97":174297.42999999999,"N_COORD97":2570405.1699999999,"ADDRESS":"公園路７６巷４５號","OBJECTID":327884},"geometry":{"x":174297.43000000156,"y":2570405.1700000018}},{"attributes":{"ID":327894,"DIS_CODE":0,"TOWNNAME":"下營區","LI":"宅內里","LIN":"15鄰","STREET":"玄德街","SECT":" ","MAREA":" ","LANE":"４３巷","ALLEY":" ","HOUSE_NO":"５號","E_COORD97":174318.20999999999,"N_COORD97":2570583.6000000001,"ADDRESS":"玄德街４３巷５號","OBJECTID":327885},"geometry":{"x":174318.21000000089,"y":2570583.6000000034}},{"attributes":{"ID":327895,"DIS_CODE":0,"TOWNNAME":"下營區","LI":"宅內里","LIN":"15鄰","STREET":"玄德街","SECT":" ","MAREA":" ","LANE":"４３巷","ALLEY":" ","HOUSE_NO":"７號","E_COORD97":174310.98999999999,"N_COORD97":2570590.7200000002,"ADDRESS":"玄德街４３巷７號","OBJECTID":327886},"geometry":{"x":174310.99000000022,"y":2570590.7200000044}},{"attributes":{"ID":327896,"DIS_CODE":0,"TOWNNAME":"中西區","LI":"大涼里","LIN":"15鄰","STREET":"府前一街","SECT":" ","MAREA":" ","LANE":"９巷","ALLEY":" ","HOUSE_NO":"１０號之１４","E_COORD97":166780.66,"N_COORD97":2543772.1200000001,"ADDRESS":"府前一街９巷１０號之１４","OBJECTID":327887},"geometry":{"x":166780.66000000108,"y":2543772.120000001}},{"attributes":{"ID":327897,"DIS_CODE":0,"TOWNNAME":"中西區","LI":"大涼里","LIN":"15鄰","STREET":"府前一街","SECT":" ","MAREA":" ","LANE":"９巷","ALLEY":" ","HOUSE_NO":"１０號之１５","E_COORD97":166774.42000000001,"N_COORD97":2543771.21,"ADDRESS":"府前一街９巷１０號之１５","OBJECTID":327888},"geometry":{"x":166774.41999999899,"y":2543771.2100000009}},{"attributes":{"ID":327898,"DIS_CODE":0,"TOWNNAME":"中西區","LI":"大涼里","LIN":"15鄰","STREET":"府前一街","SECT":" ","MAREA":" ","LANE":"９巷","ALLEY":" ","HOUSE_NO":"１０號之１６","E_COORD97":166770.70999999999,"N_COORD97":2543770.1000000001,"ADDRESS":"府前一街９巷１０號之１６","OBJECTID":327889},"geometry":{"x":166770.70999999996,"y":2543770.1000000015}},{"attributes":{"ID":327899,"DIS_CODE":0,"TOWNNAME":"南區","LI":"文南里","LIN":"17鄰","STREET":"健康路","SECT":"二段","MAREA":" ","LANE":" ","ALLEY":" ","HOUSE_NO":"３５２號","E_COORD97":166724.67999999999,"N_COORD97":2542527.3799999999,"ADDRESS":"健康路二段３５２號","OBJECTID":327890},"geometry":{"x":166724.6799999997,"y":2542527.379999999}},{"attributes":{"ID":327900,"DIS_CODE":0,"TOWNNAME":"南區","LI":"文南里","LIN":"17鄰","STREET":"健康路","SECT":"二段","MAREA":" ","LANE":" ","ALLEY":" ","HOUSE_NO":"３５４號","E_COORD97":166720.39999999999,"N_COORD97":2542527.7400000002,"ADDRESS":"健康路二段３５４號","OBJECTID":327891},"geometry":{"x":166720.40000000037,"y":2542527.7400000039}},{"attributes":{"ID":327901,"DIS_CODE":0,"TOWNNAME":"南區","LI":"文南里","LIN":"17鄰","STREET":"健康路","SECT":"二段","MAREA":" ","LANE":" ","ALLEY":" ","HOUSE_NO":"３５６號","E_COORD97":166715.95000000001,"N_COORD97":2542528.1000000001,"ADDRESS":"健康路二段３５６號","OBJECTID":327892},"geometry":{"x":166715.95000000112,"y":2542528.1000000034}},{"attributes":{"ID":327902,"DIS_CODE":0,"TOWNNAME":"南區","LI":"文南里","LIN":"17鄰","STREET":"健康路","SECT":"二段","MAREA":" ","LANE":" ","ALLEY":" ","HOUSE_NO":"３５８號","E_COORD97":166711.59,"N_COORD97":2542528.6299999999,"ADDRESS":"健康路二段３５８號","OBJECTID":327893},"geometry":{"x":166711.58999999985,"y":2542528.6300000008}},{"attributes":{"ID":327903,"DIS_CODE":0,"TOWNNAME":"南區","LI":"文華里","LIN":"17鄰","STREET":"德南街","SECT":" ","MAREA":" ","LANE":" ","ALLEY":" ","HOUSE_NO":"１２號","E_COORD97":166868.54999999999,"N_COORD97":2543140.5899999999,"ADDRESS":"德南街１２號","OBJECTID":327894},"geometry":{"x":166868.55000000168,"y":2543140.5899999999}},{"attributes":{"ID":327904,"DIS_CODE":0,"TOWNNAME":"南區","LI":"文華里","LIN":"17鄰","STREET":"德南街","SECT":" ","MAREA":" ","LANE":" ","ALLEY":" ","HOUSE_NO":"１４號","E_COORD97":166865.04999999999,"N_COORD97":2543137.27,"ADDRESS":"德南街１４號","OBJECTID":327895},"geometry":{"x":166865.05000000168,"y":2543137.2700000033}},{"attributes":{"ID":327905,"DIS_CODE":0,"TOWNNAME":"南區","LI":"文華里","LIN":"17鄰","STREET":"德南街","SECT":" ","MAREA":" ","LANE":" ","ALLEY":" ","HOUSE_NO":"３６號","E_COORD97":166814.69,"N_COORD97":2543091.8399999999,"ADDRESS":"德南街３６號","OBJECTID":327896},"geometry":{"x":166814.69000000134,"y":2543091.8399999999}},{"attributes":{"ID":327906,"DIS_CODE":0,"TOWNNAME":"東區","LI":"仁和里","LIN":"8鄰","STREET":"仁和路","SECT":" ","MAREA":" ","LANE":"１０９巷","ALLEY":" ","HOUSE_NO":"１１６號","E_COORD97":171670.92999999999,"N_COORD97":2541325.3700000001,"ADDRESS":"仁和路１０９巷１１６號","OBJECTID":327897},"geometry":{"x":171670.9299999997,"y":2541325.3700000029}},{"attributes":{"ID":327907,"DIS_CODE":0,"TOWNNAME":"東區","LI":"新東里","LIN":"4鄰","STREET":"衛國街","SECT":" ","MAREA":" ","LANE":"１０６巷","ALLEY":" ","HOUSE_NO":"２７號","E_COORD97":170403.87,"N_COORD97":2542988.6299999999,"ADDRESS":"衛國街１０６巷２７號","OBJECTID":327898},"geometry":{"x":170403.87000000011,"y":2542988.6300000008}},{"attributes":{"ID":327908,"DIS_CODE":0,"TOWNNAME":"東區","LI":"東安里","LIN":"17鄰","STREET":"衛國街","SECT":" ","MAREA":" ","LANE":"１３巷","ALLEY":" ","HOUSE_NO":"２０號","E_COORD97":170163.75,"N_COORD97":2543018.0600000001,"ADDRESS":"衛國街１３巷２０號","OBJECTID":327899},"geometry":{"x":170163.75,"y":2543018.0600000024}},{"attributes":{"ID":327909,"DIS_CODE":0,"TOWNNAME":"東區","LI":"大學里","LIN":"10鄰","STREET":"大學路","SECT":" ","MAREA":" ","LANE":"２２巷","ALLEY":" ","HOUSE_NO":"１０號","E_COORD97":170156.07000000001,"N_COORD97":2543988.2999999998,"ADDRESS":"大學路２２巷１０號","OBJECTID":327900},"geometry":{"x":170156.07000000123,"y":2543988.3000000007}},{"attributes":{"ID":327910,"DIS_CODE":0,"TOWNNAME":"東區","LI":"南聖里","LIN":"2鄰","STREET":"裕農路","SECT":" ","MAREA":" ","LANE":"６６８巷","ALLEY":" ","HOUSE_NO":"８號","E_COORD97":171716.09,"N_COORD97":2543189.5499999998,"ADDRESS":"裕農路６６８巷８號","OBJECTID":327901},"geometry":{"x":171716.08999999985,"y":2543189.5500000007}},{"attributes":{"ID":327911,"DIS_CODE":0,"TOWNNAME":"東區","LI":"後甲里","LIN":"4鄰","STREET":"裕農路","SECT":" ","MAREA":" ","LANE":"６２１巷","ALLEY":" ","HOUSE_NO":"３２號之２","E_COORD97":171629.63,"N_COORD97":2543321.5099999998,"ADDRESS":"裕農路６２１巷３２號之２","OBJECTID":327902},"geometry":{"x":171629.62999999989,"y":2543321.5099999998}},{"attributes":{"ID":327912,"DIS_CODE":0,"TOWNNAME":"東區","LI":"後甲里","LIN":"4鄰","STREET":"裕農路","SECT":" ","MAREA":" ","LANE":"６２１巷","ALLEY":" ","HOUSE_NO":"３２號","E_COORD97":171630.82999999999,"N_COORD97":2543313.3199999998,"ADDRESS":"裕農路６２１巷３２號","OBJECTID":327903},"geometry":{"x":171630.83000000101,"y":2543313.3200000003}},{"attributes":{"ID":327913,"DIS_CODE":0,"TOWNNAME":"東區","LI":"後甲里","LIN":"13鄰","STREET":"裕農路","SECT":" ","MAREA":" ","LANE":"６０５巷","ALLEY":" ","HOUSE_NO":"２２號","E_COORD97":171574.17999999999,"N_COORD97":2543292.73,"ADDRESS":"裕農路６０５巷２２號","OBJECTID":327904},"geometry":{"x":171574.1799999997,"y":2543292.7300000004}},{"attributes":{"ID":327914,"DIS_CODE":0,"TOWNNAME":"東區","LI":"後甲里","LIN":"13鄰","STREET":"裕農路","SECT":" ","MAREA":" ","LANE":"６０５巷","ALLEY":" ","HOUSE_NO":"２４號","E_COORD97":171573.94,"N_COORD97":2543297.2999999998,"ADDRESS":"裕農路６０５巷２４號","OBJECTID":327905},"geometry":{"x":171573.94000000227,"y":2543297.2999999989}},{"attributes":{"ID":327915,"DIS_CODE":0,"TOWNNAME":"東區","LI":"後甲里","LIN":"4鄰","STREET":"裕農路","SECT":" ","MAREA":" ","LANE":"６２１巷","ALLEY":" ","HOUSE_NO":"３２號之１","E_COORD97":171630.35000000001,"N_COORD97":2543317.1800000002,"ADDRESS":"裕農路６２１巷３２號之１","OBJECTID":327906},"geometry":{"x":171630.35000000056,"y":2543317.1799999997}},{"attributes":{"ID":327916,"DIS_CODE":0,"TOWNNAME":"中西區","LI":"大涼里","LIN":"15鄰","STREET":"府前一街","SECT":" ","MAREA":" ","LANE":"９巷","ALLEY":" ","HOUSE_NO":"１０號之１７","E_COORD97":166763.67000000001,"N_COORD97":2543769.29,"ADDRESS":"府前一街９巷１０號之１７","OBJECTID":327907},"geometry":{"x":166763.66999999993,"y":2543769.2899999991}},{"attributes":{"ID":327917,"DIS_CODE":0,"TOWNNAME":"中西區","LI":"大涼里","LIN":"15鄰","STREET":"府前一街","SECT":" ","MAREA":" ","LANE":"９巷","ALLEY":" ","HOUSE_NO":"１０號之１８","E_COORD97":166762.03,"N_COORD97":2543759.8500000001,"ADDRESS":"府前一街９巷１０號之１８","OBJECTID":327908},"geometry":{"x":166762.03000000026,"y":2543759.8499999996}},{"attributes":{"ID":327918,"DIS_CODE":0,"TOWNNAME":"中西區","LI":"大涼里","LIN":"15鄰","STREET":"府前一街","SECT":" ","MAREA":" ","LANE":"９巷","ALLEY":" ","HOUSE_NO":"１０號之１９","E_COORD97":166762.23999999999,"N_COORD97":2543755.5299999998,"ADDRESS":"府前一街９巷１０號之１９","OBJECTID":327909},"geometry":{"x":166762.24000000022,"y":2543755.5300000031}},{"attributes":{"ID":327919,"DIS_CODE":0,"TOWNNAME":"中西區","LI":"大涼里","LIN":"15鄰","STREET":"府前一街","SECT":" ","MAREA":" ","LANE":"９巷","ALLEY":" ","HOUSE_NO":"１０號之２","E_COORD97":166779.19,"N_COORD97":2543741.1699999999,"ADDRESS":"府前一街９巷１０號之２","OBJECTID":327910},"geometry":{"x":166779.19000000041,"y":2543741.1699999999}},{"attributes":{"ID":327920,"DIS_CODE":0,"TOWNNAME":"中西區","LI":"大涼里","LIN":"15鄰","STREET":"府前一街","SECT":" ","MAREA":" ","LANE":"９巷","ALLEY":" ","HOUSE_NO":"１０號之２０","E_COORD97":166760.54999999999,"N_COORD97":2543744.3300000001,"ADDRESS":"府前一街９巷１０號之２０","OBJECTID":327911},"geometry":{"x":166760.55000000075,"y":2543744.3300000038}},{"attributes":{"ID":327921,"DIS_CODE":0,"TOWNNAME":"中西區","LI":"大涼里","LIN":"15鄰","STREET":"府前一街","SECT":" ","MAREA":" ","LANE":"９巷","ALLEY":" ","HOUSE_NO":"２號","E_COORD97":166809.63,"N_COORD97":2543738.54,"ADDRESS":"府前一街９巷２號","OBJECTID":327912},"geometry":{"x":166809.62999999989,"y":2543738.540000001}},{"attributes":{"ID":327922,"DIS_CODE":0,"TOWNNAME":"中西區","LI":"大涼里","LIN":"15鄰","STREET":"府前一街","SECT":" ","MAREA":" ","LANE":"９巷","ALLEY":" ","HOUSE_NO":"４號","E_COORD97":166802.47,"N_COORD97":2543737.3900000001,"ADDRESS":"府前一街９巷４號","OBJECTID":327913},"geometry":{"x":166802.46999999974,"y":2543737.3900000043}},{"attributes":{"ID":327923,"DIS_CODE":0,"TOWNNAME":"南區","LI":"田寮里","LIN":"17鄰","STREET":"西門路","SECT":"一段","MAREA":" ","LANE":" ","ALLEY":" ","HOUSE_NO":"３０３號","E_COORD97":167717.23999999999,"N_COORD97":2541972.25,"ADDRESS":"西門路一段３０３號","OBJECTID":327914},"geometry":{"x":167717.24000000115,"y":2541972.2500000019}},{"attributes":{"ID":327924,"DIS_CODE":0,"TOWNNAME":"南區","LI":"田寮里","LIN":"17鄰","STREET":"西門路","SECT":"一段","MAREA":" ","LANE":" ","ALLEY":" ","HOUSE_NO":"３０５號","E_COORD97":167716.85999999999,"N_COORD97":2541977.29,"ADDRESS":"西門路一段３０５號","OBJECTID":327915},"geometry":{"x":167716.86000000127,"y":2541977.290000001}},{"attributes":{"ID":327925,"DIS_CODE":0,"TOWNNAME":"南區","LI":"田寮里","LIN":"17鄰","STREET":"西門路","SECT":"一段","MAREA":" ","LANE":" ","ALLEY":" ","HOUSE_NO":"３０７號","E_COORD97":167716.67999999999,"N_COORD97":2541981.2200000002,"ADDRESS":"西門路一段３０７號","OBJECTID":327916},"geometry":{"x":167716.67999999877,"y":2541981.2200000007}},{"attributes":{"ID":327926,"DIS_CODE":0,"TOWNNAME":"東區","LI":"龍山里","LIN":"17鄰","STREET":"崇學路","SECT":" ","MAREA":" ","LANE":" ","ALLEY":" ","HOUSE_NO":"２２３號","E_COORD97":170463.07999999999,"N_COORD97":2542407.1600000001,"ADDRESS":"崇學路２２３號","OBJECTID":327917},"geometry":{"x":170463.08000000101,"y":2542407.160000002}},{"attributes":{"ID":327927,"DIS_CODE":0,"TOWNNAME":"東區","LI":"龍山里","LIN":"17鄰","STREET":"崇學路","SECT":" ","MAREA":" ","LANE":" ","ALLEY":" ","HOUSE_NO":"２２５號","E_COORD97":170469.64000000001,"N_COORD97":2542415.2799999998,"ADDRESS":"崇學路２２５號","OBJECTID":327918},"geometry":{"x":170469.63999999966,"y":2542415.2800000012}},{"attributes":{"ID":327928,"DIS_CODE":0,"TOWNNAME":"東區","LI":"龍山里","LIN":"17鄰","STREET":"崇學路","SECT":" ","MAREA":" ","LANE":" ","ALLEY":" ","HOUSE_NO":"２３１號","E_COORD97":170474.70000000001,"N_COORD97":2542417.1099999999,"ADDRESS":"崇學路２３１號","OBJECTID":327919},"geometry":{"x":170474.70000000019,"y":2542417.1100000013}},{"attributes":{"ID":327929,"DIS_CODE":0,"TOWNNAME":"東區","LI":"龍山里","LIN":"17鄰","STREET":"崇學路","SECT":" ","MAREA":" ","LANE":" ","ALLEY":" ","HOUSE_NO":"２３３號","E_COORD97":170475.95000000001,"N_COORD97":2542422.4199999999,"ADDRESS":"崇學路２３３號","OBJECTID":327920},"geometry":{"x":170475.95000000112,"y":2542422.4200000018}},{"attributes":{"ID":327930,"DIS_CODE":0,"TOWNNAME":"東區","LI":"龍山里","LIN":"17鄰","STREET":"崇學路","SECT":" ","MAREA":" ","LANE":" ","ALLEY":" ","HOUSE_NO":"２３５號","E_COORD97":170479.85000000001,"N_COORD97":2542424.8199999998,"ADDRESS":"崇學路２３５號","OBJECTID":327921},"geometry":{"x":170479.84999999963,"y":2542424.8200000003}},{"attributes":{"ID":327931,"DIS_CODE":0,"TOWNNAME":"東區","LI":"龍山里","LIN":"17鄰","STREET":"崇學路","SECT":" ","MAREA":" ","LANE":" ","ALLEY":" ","HOUSE_NO":"２３７號","E_COORD97":170483.34,"N_COORD97":2542429.7999999998,"ADDRESS":"崇學路２３７號","OBJECTID":327922},"geometry":{"x":170483.33999999985,"y":2542429.8000000026}},{"attributes":{"ID":327932,"DIS_CODE":0,"TOWNNAME":"中西區","LI":"民生里","LIN":"17鄰","STREET":"大仁街","SECT":" ","MAREA":" ","LANE":" ","ALLEY":" ","HOUSE_NO":"１００號","E_COORD97":167186.42999999999,"N_COORD97":2543485.25,"ADDRESS":"大仁街１００號","OBJECTID":327923},"geometry":{"x":167186.43000000063,"y":2543485.25}},{"attributes":{"ID":327933,"DIS_CODE":0,"TOWNNAME":"東區","LI":"後甲里","LIN":"4鄰","STREET":"裕農路","SECT":" ","MAREA":" ","LANE":"６２１巷","ALLEY":" ","HOUSE_NO":"３２號之３","E_COORD97":171629.38,"N_COORD97":2543325.8500000001,"ADDRESS":"裕農路６２１巷３２號之３","OBJECTID":327924},"geometry":{"x":171629.37999999989,"y":2543325.8499999996}},{"attributes":{"ID":327934,"DIS_CODE":0,"TOWNNAME":"東區","LI":"後甲里","LIN":"13鄰","STREET":"裕農路","SECT":" ","MAREA":" ","LANE":"６０５巷","ALLEY":" ","HOUSE_NO":"２號","E_COORD97":171577.79999999999,"N_COORD97":2543251.0499999998,"ADDRESS":"裕農路６０５巷２號","OBJECTID":327925},"geometry":{"x":171577.80000000168,"y":2543251.0500000007}},{"attributes":{"ID":327935,"DIS_CODE":0,"TOWNNAME":"東區","LI":"後甲里","LIN":"13鄰","STREET":"裕農路","SECT":" ","MAREA":" ","LANE":"６０５巷","ALLEY":" ","HOUSE_NO":"２６號","E_COORD97":171573.20999999999,"N_COORD97":2543300.9199999999,"ADDRESS":"裕農路６０５巷２６號","OBJECTID":327926},"geometry":{"x":171573.20999999996,"y":2543300.9199999999}},{"attributes":{"ID":327936,"DIS_CODE":0,"TOWNNAME":"東區","LI":"後甲里","LIN":"7鄰","STREET":"裕農路","SECT":" ","MAREA":" ","LANE":"６２１巷","ALLEY":" ","HOUSE_NO":"８０號之１","E_COORD97":171631.62,"N_COORD97":2543490.0499999998,"ADDRESS":"裕農路６２１巷８０號之１","OBJECTID":327927},"geometry":{"x":171631.62000000011,"y":2543490.0500000026}},{"attributes":{"ID":327937,"DIS_CODE":0,"TOWNNAME":"東區","LI":"關聖里","LIN":"4鄰","STREET":"裕農路","SECT":" ","MAREA":" ","LANE":"６６８巷","ALLEY":" ","HOUSE_NO":"７１號","E_COORD97":171763.14999999999,"N_COORD97":2542908.8500000001,"ADDRESS":"裕農路６６８巷７１號","OBJECTID":327928},"geometry":{"x":171763.1500000013,"y":2542908.8499999996}},{"attributes":{"ID":327938,"DIS_CODE":0,"TOWNNAME":"東區","LI":"文聖里","LIN":"1鄰","STREET":"裕農路","SECT":" ","MAREA":" ","LANE":"６６８巷","ALLEY":" ","HOUSE_NO":"１０３號","E_COORD97":171763.09,"N_COORD97":2542818.1600000001,"ADDRESS":"裕農路６６８巷１０３號","OBJECTID":327929},"geometry":{"x":171763.09000000078,"y":2542818.1600000001}},{"attributes":{"ID":327939,"DIS_CODE":0,"TOWNNAME":"東區","LI":"文聖里","LIN":"1鄰","STREET":"裕農路","SECT":" ","MAREA":" ","LANE":"６６８巷","ALLEY":" ","HOUSE_NO":"７７號","E_COORD97":171769.19,"N_COORD97":2542882.3399999999,"ADDRESS":"裕農路６６８巷７７號","OBJECTID":327930},"geometry":{"x":171769.19000000134,"y":2542882.3399999999}},{"attributes":{"ID":327940,"DIS_CODE":0,"TOWNNAME":"永康區","LI":"埔園里","LIN":"15鄰","STREET":"龍埔街","SECT":" ","MAREA":" ","LANE":"５３６巷","ALLEY":" ","HOUSE_NO":"１６號","E_COORD97":173558.60000000001,"N_COORD97":2548430.2400000002,"ADDRESS":"龍埔街５３６巷１６號","OBJECTID":327931},"geometry":{"x":173558.59999999963,"y":2548430.2400000039}},{"attributes":{"ID":327941,"DIS_CODE":0,"TOWNNAME":"永康區","LI":"中華里","LIN":"15鄰","STREET":"忠義街","SECT":" ","MAREA":" ","LANE":"４４巷","ALLEY":" ","HOUSE_NO":"２３號","E_COORD97":171790.48999999999,"N_COORD97":2544482.25,"ADDRESS":"忠義街４４巷２３號","OBJECTID":327932},"geometry":{"x":171790.49000000209,"y":2544482.25}},{"attributes":{"ID":327942,"DIS_CODE":0,"TOWNNAME":"永康區","LI":"埔園里","LIN":"15鄰","STREET":"中山路","SECT":" ","MAREA":" ","LANE":"５３６巷","ALLEY":" ","HOUSE_NO":"１號之１","E_COORD97":173527,"N_COORD97":2548765.54,"ADDRESS":"中山路５３６巷１號之１","OBJECTID":327933},"geometry":{"x":173527,"y":2548765.5399999991}},{"attributes":{"ID":327943,"DIS_CODE":0,"TOWNNAME":"永康區","LI":"烏竹里","LIN":"15鄰","STREET":"龍橋街","SECT":" ","MAREA":" ","LANE":"３５０巷","ALLEY":" ","HOUSE_NO":"８９號","E_COORD97":174666.45999999999,"N_COORD97":2549238.5800000001,"ADDRESS":"龍橋街３５０巷８９號","OBJECTID":327934},"geometry":{"x":174666.45999999996,"y":2549238.5800000019}},{"attributes":{"ID":327944,"DIS_CODE":0,"TOWNNAME":"中西區","LI":"民生里","LIN":"17鄰","STREET":"大仁街","SECT":" ","MAREA":" ","LANE":" ","ALLEY":" ","HOUSE_NO":"１０２號","E_COORD97":167182.78,"N_COORD97":2543485.7000000002,"ADDRESS":"大仁街１０２號","OBJECTID":327935},"geometry":{"x":167182.78000000212,"y":2543485.6999999993}},{"attributes":{"ID":327945,"DIS_CODE":0,"TOWNNAME":"中西區","LI":"民生里","LIN":"17鄰","STREET":"大仁街","SECT":" ","MAREA":" ","LANE":" ","ALLEY":" ","HOUSE_NO":"１０４號","E_COORD97":167177.98999999999,"N_COORD97":2543486.3799999999,"ADDRESS":"大仁街１０４號","OBJECTID":327936},"geometry":{"x":167177.99000000115,"y":2543486.3800000008}},{"attributes":{"ID":327946,"DIS_CODE":0,"TOWNNAME":"中西區","LI":"民生里","LIN":"17鄰","STREET":"大仁街","SECT":" ","MAREA":" ","LANE":" ","ALLEY":" ","HOUSE_NO":"１０６號","E_COORD97":167172.51999999999,"N_COORD97":2543487.75,"ADDRESS":"大仁街１０６號","OBJECTID":327937},"geometry":{"x":167172.52000000048,"y":2543487.7500000019}},{"attributes":{"ID":327947,"DIS_CODE":0,"TOWNNAME":"中西區","LI":"民生里","LIN":"17鄰","STREET":"大仁街","SECT":" ","MAREA":" ","LANE":" ","ALLEY":" ","HOUSE_NO":"９２號","E_COORD97":167203.98000000001,"N_COORD97":2543481.3799999999,"ADDRESS":"大仁街９２號","OBJECTID":327938},"geometry":{"x":167203.98000000138,"y":2543481.3800000027}},{"attributes":{"ID":327948,"DIS_CODE":0,"TOWNNAME":"中西區","LI":"民生里","LIN":"17鄰","STREET":"大仁街","SECT":" ","MAREA":" ","LANE":" ","ALLEY":" ","HOUSE_NO":"９４號","E_COORD97":167200.56,"N_COORD97":2543482.0600000001,"ADDRESS":"大仁街９４號","OBJECTID":327939},"geometry":{"x":167200.56000000145,"y":2543482.0600000042}},{"attributes":{"ID":327949,"DIS_CODE":0,"TOWNNAME":"中西區","LI":"民生里","LIN":"17鄰","STREET":"大仁街","SECT":" ","MAREA":" ","LANE":" ","ALLEY":" ","HOUSE_NO":"９６號","E_COORD97":167196.23000000001,"N_COORD97":2543482.9700000002,"ADDRESS":"大仁街９６號","OBJECTID":327940},"geometry":{"x":167196.23000000045,"y":2543482.9700000044}},{"attributes":{"ID":327950,"DIS_CODE":0,"TOWNNAME":"歸仁區","LI":"西埔里","LIN":"13鄰","STREET":"西埔二街","SECT":" ","MAREA":" ","LANE":" ","ALLEY":" ","HOUSE_NO":"４２號","E_COORD97":176967.04000000001,"N_COORD97":2544770.25,"ADDRESS":"西埔二街４２號","OBJECTID":327941},"geometry":{"x":176967.0400000019,"y":2544770.25}},{"attributes":{"ID":327951,"DIS_CODE":0,"TOWNNAME":"中西區","LI":"民生里","LIN":"17鄰","STREET":"金華路","SECT":"三段","MAREA":" ","LANE":" ","ALLEY":" ","HOUSE_NO":"１０５號","E_COORD97":167211.04000000001,"N_COORD97":2543499.3599999999,"ADDRESS":"金華路三段１０５號","OBJECTID":327942},"geometry":{"x":167211.04000000004,"y":2543499.3600000013}},{"attributes":{"ID":327952,"DIS_CODE":0,"TOWNNAME":"東區","LI":"中西里","LIN":"4鄰","STREET":"勝利路","SECT":" ","MAREA":" ","LANE":"１２巷","ALLEY":" ","HOUSE_NO":"３３號","E_COORD97":169907.82000000001,"N_COORD97":2543373.0699999998,"ADDRESS":"勝利路１２巷３３號","OBJECTID":327943},"geometry":{"x":169907.8200000003,"y":2543373.070000004}},{"attributes":{"ID":327953,"DIS_CODE":0,"TOWNNAME":"東區","LI":"東安里","LIN":"18鄰","STREET":"衛國街","SECT":" ","MAREA":" ","LANE":"２５巷","ALLEY":" ","HOUSE_NO":"１５號","E_COORD97":170181.66,"N_COORD97":2543028.3100000001,"ADDRESS":"衛國街２５巷１５號","OBJECTID":327944},"geometry":{"x":170181.66000000015,"y":2543028.3100000005}},{"attributes":{"ID":327954,"DIS_CODE":0,"TOWNNAME":"東區","LI":"東安里","LIN":"18鄰","STREET":"衛國街","SECT":" ","MAREA":" ","LANE":"２５巷","ALLEY":" ","HOUSE_NO":"６號","E_COORD97":170213.42999999999,"N_COORD97":2543032.6699999999,"ADDRESS":"衛國街２５巷６號","OBJECTID":327945},"geometry":{"x":170213.4299999997,"y":2543032.6699999999}},{"attributes":{"ID":327955,"DIS_CODE":0,"TOWNNAME":"東區","LI":"大福里","LIN":"4鄰","STREET":"立德二路","SECT":" ","MAREA":" ","LANE":"８巷","ALLEY":" ","HOUSE_NO":"５號","E_COORD97":169496.25,"N_COORD97":2541702.6800000002,"ADDRESS":"立德二路８巷５號","OBJECTID":327946},"geometry":{"x":169496.25,"y":2541702.6799999997}},{"attributes":{"ID":327956,"DIS_CODE":0,"TOWNNAME":"東區","LI":"大福里","LIN":"4鄰","STREET":"立德二路","SECT":" ","MAREA":" ","LANE":"８巷","ALLEY":" ","HOUSE_NO":"７號","E_COORD97":169500.78,"N_COORD97":2541703.7200000002,"ADDRESS":"立德二路８巷７號","OBJECTID":327947},"geometry":{"x":169500.78000000119,"y":2541703.7200000007}},{"attributes":{"ID":327957,"DIS_CODE":0,"TOWNNAME":"東區","LI":"後甲里","LIN":"4鄰","STREET":"裕農路","SECT":" ","MAREA":" ","LANE":"６２１巷","ALLEY":" ","HOUSE_NO":"２８號之１","E_COORD97":171663.64000000001,"N_COORD97":2543297.5,"ADDRESS":"裕農路６２１巷２８號之１","OBJECTID":327948},"geometry":{"x":171663.6400000006,"y":2543297.5}},{"attributes":{"ID":327958,"DIS_CODE":0,"TOWNNAME":"東區","LI":"後甲里","LIN":"4鄰","STREET":"裕農路","SECT":" ","MAREA":" ","LANE":"６２１巷","ALLEY":" ","HOUSE_NO":"２６號之３","E_COORD97":171634.20999999999,"N_COORD97":2543291,"ADDRESS":"裕農路６２１巷２６號之３","OBJECTID":327949},"geometry":{"x":171634.20999999996,"y":2543291}},{"attributes":{"ID":327959,"DIS_CODE":0,"TOWNNAME":"永康區","LI":"復華里","LIN":"15鄰","STREET":"國華街","SECT":" ","MAREA":" ","LANE":"９１巷","ALLEY":" ","HOUSE_NO":"１２號","E_COORD97":172808.32000000001,"N_COORD97":2545971.4199999999,"ADDRESS":"國華街９１巷１２號","OBJECTID":327950},"geometry":{"x":172808.3200000003,"y":2545971.4200000018}},{"attributes":{"ID":327960,"DIS_CODE":0,"TOWNNAME":"永康區","LI":"復華里","LIN":"15鄰","STREET":"國華街","SECT":" ","MAREA":" ","LANE":"８９巷","ALLEY":" ","HOUSE_NO":"１１號","E_COORD97":172807,"N_COORD97":2545915.25,"ADDRESS":"國華街８９巷１１號","OBJECTID":327951},"geometry":{"x":172807,"y":2545915.2500000019}},{"attributes":{"ID":327961,"DIS_CODE":0,"TOWNNAME":"永康區","LI":"復興里","LIN":"15鄰","STREET":"復興路","SECT":" ","MAREA":" ","LANE":"３５６巷","ALLEY":" ","HOUSE_NO":"９號","E_COORD97":172225.45000000001,"N_COORD97":2544361.0299999998,"ADDRESS":"復興路３５６巷９號","OBJECTID":327952},"geometry":{"x":172225.45000000112,"y":2544361.0299999993}},{"attributes":{"ID":327962,"DIS_CODE":0,"TOWNNAME":"永康區","LI":"烏竹里","LIN":"15鄰","STREET":"龍橋街","SECT":" ","MAREA":" ","LANE":"３５０巷","ALLEY":" ","HOUSE_NO":"８１號","E_COORD97":174646.60000000001,"N_COORD97":2549217.8300000001,"ADDRESS":"龍橋街３５０巷８１號","OBJECTID":327953},"geometry":{"x":174646.59999999963,"y":2549217.8300000019}},{"attributes":{"ID":327963,"DIS_CODE":0,"TOWNNAME":"永康區","LI":"復華里","LIN":"15鄰","STREET":"國華街","SECT":" ","MAREA":" ","LANE":"９１巷","ALLEY":" ","HOUSE_NO":"２２號","E_COORD97":172790.70999999999,"N_COORD97":2545953.1699999999,"ADDRESS":"國華街９１巷２２號","OBJECTID":327954},"geometry":{"x":172790.71000000089,"y":2545953.1700000018}},{"attributes":{"ID":327964,"DIS_CODE":0,"TOWNNAME":"永康區","LI":"網寮里","LIN":"15鄰","STREET":"永和街","SECT":" ","MAREA":" ","LANE":"２８２巷","ALLEY":" ","HOUSE_NO":"１６號","E_COORD97":173336.42000000001,"N_COORD97":2546627.75,"ADDRESS":"永和街２８２巷１６號","OBJECTID":327955},"geometry":{"x":173336.41999999993,"y":2546627.7500000019}},{"attributes":{"ID":327965,"DIS_CODE":0,"TOWNNAME":"永康區","LI":"網寮里","LIN":"15鄰","STREET":"永和街","SECT":" ","MAREA":" ","LANE":"２６０巷","ALLEY":" ","HOUSE_NO":"８號","E_COORD97":173414.20999999999,"N_COORD97":2546600.5299999998,"ADDRESS":"永和街２６０巷８號","OBJECTID":327956},"geometry":{"x":173414.20999999996,"y":2546600.5300000012}},{"attributes":{"ID":327966,"DIS_CODE":0,"TOWNNAME":"永康區","LI":"復興里","LIN":"15鄰","STREET":"復興路","SECT":" ","MAREA":" ","LANE":"３５６巷","ALLEY":" ","HOUSE_NO":"５號","E_COORD97":172214.42999999999,"N_COORD97":2544367.0299999998,"ADDRESS":"復興路３５６巷５號","OBJECTID":327957},"geometry":{"x":172214.43000000063,"y":2544367.0300000012}},{"attributes":{"ID":327967,"DIS_CODE":0,"TOWNNAME":"永康區","LI":"勝利里","LIN":"15鄰","STREET":"勝利街","SECT":" ","MAREA":" ","LANE":"９５巷","ALLEY":" ","HOUSE_NO":"４６號","E_COORD97":171238.89999999999,"N_COORD97":2544889.7599999998,"ADDRESS":"勝利街９５巷４６號","OBJECTID":327958},"geometry":{"x":171238.9000000013,"y":2544889.7599999998}},{"attributes":{"ID":327968,"DIS_CODE":0,"TOWNNAME":"東區","LI":"崇信里","LIN":"15鄰","STREET":"崇學路","SECT":" ","MAREA":" ","LANE":"１４２巷","ALLEY":" ","HOUSE_NO":"１１號","E_COORD97":170548.53,"N_COORD97":2542362.25,"ADDRESS":"崇學路１４２巷１１號","OBJECTID":327959},"geometry":{"x":170548.53000000026,"y":2542362.2500000019}},{"attributes":{"ID":327969,"DIS_CODE":0,"TOWNNAME":"東區","LI":"崇信里","LIN":"15鄰","STREET":"崇學路","SECT":" ","MAREA":" ","LANE":"１４２巷","ALLEY":" ","HOUSE_NO":"１３號","E_COORD97":170551.87,"N_COORD97":2542359.7400000002,"ADDRESS":"崇學路１４２巷１３號","OBJECTID":327960},"geometry":{"x":170551.86999999918,"y":2542359.7400000021}},{"attributes":{"ID":327970,"DIS_CODE":0,"TOWNNAME":"東區","LI":"崇信里","LIN":"15鄰","STREET":"崇學路","SECT":" ","MAREA":" ","LANE":"１４２巷","ALLEY":" ","HOUSE_NO":"１５號","E_COORD97":170554.38,"N_COORD97":2542356.8199999998,"ADDRESS":"崇學路１４２巷１５號","OBJECTID":327961},"geometry":{"x":170554.37999999989,"y":2542356.8200000003}},{"attributes":{"ID":327971,"DIS_CODE":0,"TOWNNAME":"東區","LI":"崇信里","LIN":"15鄰","STREET":"崇學路","SECT":" ","MAREA":" ","LANE":"１４２巷","ALLEY":" ","HOUSE_NO":"１７號","E_COORD97":170557.92999999999,"N_COORD97":2542354.73,"ADDRESS":"崇學路１４２巷１７號","OBJECTID":327962},"geometry":{"x":170557.93000000156,"y":2542354.7300000004}},{"attributes":{"ID":327972,"DIS_CODE":0,"TOWNNAME":"東區","LI":"崇信里","LIN":"15鄰","STREET":"崇學路","SECT":" ","MAREA":" ","LANE":"１４２巷","ALLEY":" ","HOUSE_NO":"２１號","E_COORD97":170563.57000000001,"N_COORD97":2542350.3500000001,"ADDRESS":"崇學路１４２巷２１號","OBJECTID":327963},"geometry":{"x":170563.5700000003,"y":2542350.3500000015}},{"attributes":{"ID":327973,"DIS_CODE":0,"TOWNNAME":"東區","LI":"崇信里","LIN":"15鄰","STREET":"崇學路","SECT":" ","MAREA":" ","LANE":"１４２巷","ALLEY":" ","HOUSE_NO":"２１號之１","E_COORD97":170567.54000000001,"N_COORD97":2542346.5899999999,"ADDRESS":"崇學路１４２巷２１號之１","OBJECTID":327964},"geometry":{"x":170567.54000000004,"y":2542346.5900000017}},{"attributes":{"ID":327974,"DIS_CODE":0,"TOWNNAME":"東區","LI":"崇信里","LIN":"15鄰","STREET":"崇學路","SECT":" ","MAREA":" ","LANE":"１４２巷","ALLEY":" ","HOUSE_NO":"２３號","E_COORD97":170571.5,"N_COORD97":2542343.4300000002,"ADDRESS":"崇學路１４２巷２３號","OBJECTID":327965},"geometry":{"x":170571.50000000093,"y":2542343.4300000016}},{"attributes":{"ID":327975,"DIS_CODE":0,"TOWNNAME":"東區","LI":"崇信里","LIN":"15鄰","STREET":"崇學路","SECT":" ","MAREA":" ","LANE":"１４２巷","ALLEY":" ","HOUSE_NO":"２５號","E_COORD97":170575.32000000001,"N_COORD97":2542340.4199999999,"ADDRESS":"崇學路１４２巷２５號","OBJECTID":327966},"geometry":{"x":170575.32000000123,"y":2542340.4200000018}},{"attributes":{"ID":327976,"DIS_CODE":0,"TOWNNAME":"東區","LI":"崇信里","LIN":"15鄰","STREET":"崇學路","SECT":" ","MAREA":" ","LANE":"１４２巷","ALLEY":" ","HOUSE_NO":"２７號","E_COORD97":170579.14000000001,"N_COORD97":2542337.3999999999,"ADDRESS":"崇學路１４２巷２７號","OBJECTID":327967},"geometry":{"x":170579.1400000006,"y":2542337.4000000022}},{"attributes":{"ID":327977,"DIS_CODE":0,"TOWNNAME":"東區","LI":"崇信里","LIN":"15鄰","STREET":"崇學路","SECT":" ","MAREA":" ","LANE":"１４２巷","ALLEY":" ","HOUSE_NO":"２９號","E_COORD97":170582.97,"N_COORD97":2542335.7999999998,"ADDRESS":"崇學路１４２巷２９號","OBJECTID":327968},"geometry":{"x":170582.96999999881,"y":2542335.8000000026}},{"attributes":{"ID":327978,"DIS_CODE":0,"TOWNNAME":"東區","LI":"崇信里","LIN":"15鄰","STREET":"崇學路","SECT":" ","MAREA":" ","LANE":"１４２巷","ALLEY":" ","HOUSE_NO":"３１號","E_COORD97":170587.19,"N_COORD97":2542333.9900000002,"ADDRESS":"崇學路１４２巷３１號","OBJECTID":327969},"geometry":{"x":170587.19000000041,"y":2542333.9900000021}},{"attributes":{"ID":327979,"DIS_CODE":0,"TOWNNAME":"中西區","LI":"民生里","LIN":"17鄰","STREET":"金華路","SECT":"三段","MAREA":" ","LANE":" ","ALLEY":" ","HOUSE_NO":"１０７號","E_COORD97":167211.73000000001,"N_COORD97":2543502.5499999998,"ADDRESS":"金華路三段１０７號","OBJECTID":327970},"geometry":{"x":167211.73000000045,"y":2543502.5500000045}},{"attributes":{"ID":327980,"DIS_CODE":0,"TOWNNAME":"中西區","LI":"民生里","LIN":"17鄰","STREET":"金華路","SECT":"三段","MAREA":" ","LANE":" ","ALLEY":" ","HOUSE_NO":"１０９號","E_COORD97":167212.41,"N_COORD97":2543506.1899999999,"ADDRESS":"金華路三段１０９號","OBJECTID":327971},"geometry":{"x":167212.41000000108,"y":2543506.1899999995}},{"attributes":{"ID":327981,"DIS_CODE":0,"TOWNNAME":"中西區","LI":"民生里","LIN":"17鄰","STREET":"金華路","SECT":"三段","MAREA":" ","LANE":" ","ALLEY":" ","HOUSE_NO":"１１１號","E_COORD97":167212.87,"N_COORD97":2543509.6000000001,"ADDRESS":"金華路三段１１１號","OBJECTID":327972},"geometry":{"x":167212.87000000104,"y":2543509.5999999996}},{"attributes":{"ID":327982,"DIS_CODE":0,"TOWNNAME":"中西區","LI":"民生里","LIN":"17鄰","STREET":"金華路","SECT":"三段","MAREA":" ","LANE":" ","ALLEY":" ","HOUSE_NO":"１１３號","E_COORD97":167213.78,"N_COORD97":2543513.4700000002,"ADDRESS":"金華路三段１１３號","OBJECTID":327973},"geometry":{"x":167213.78000000119,"y":2543513.4700000044}},{"attributes":{"ID":327983,"DIS_CODE":0,"TOWNNAME":"新化區","LI":"太平里","LIN":"17鄰","STREET":"民權街","SECT":" ","MAREA":" ","LANE":" ","ALLEY":" ","HOUSE_NO":"９２號","E_COORD97":178744.35999999999,"N_COORD97":2548695.25,"ADDRESS":"民權街９２號","OBJECTID":327974},"geometry":{"x":178744.36000000034,"y":2548695.2500000019}},{"attributes":{"ID":327984,"DIS_CODE":0,"TOWNNAME":"安南區","LI":"安西里","LIN":"17鄰","STREET":"安通路","SECT":"四段","MAREA":" ","LANE":" ","ALLEY":" ","HOUSE_NO":"１１７號","E_COORD97":168737.95000000001,"N_COORD97":2547759.3300000001,"ADDRESS":"安通路四段１１７號","OBJECTID":327975},"geometry":{"x":168737.95000000112,"y":2547759.3300000019}},{"attributes":{"ID":327985,"DIS_CODE":0,"TOWNNAME":"安南區","LI":"安順里","LIN":"17鄰","STREET":"開安三街","SECT":" ","MAREA":" ","LANE":" ","ALLEY":" ","HOUSE_NO":"２８號","E_COORD97":170581.54999999999,"N_COORD97":2549798.71,"ADDRESS":"開安三街２８號","OBJECTID":327976},"geometry":{"x":170581.55000000075,"y":2549798.7100000028}},{"attributes":{"ID":327986,"DIS_CODE":0,"TOWNNAME":"東區","LI":"泉南里","LIN":"13鄰","STREET":"光華街","SECT":" ","MAREA":" ","LANE":"２２９巷","ALLEY":" ","HOUSE_NO":"１２號","E_COORD97":169476.01000000001,"N_COORD97":2543019.98,"ADDRESS":"光華街２２９巷１２號","OBJECTID":327977},"geometry":{"x":169476.01000000164,"y":2543019.9800000004}},{"attributes":{"ID":327987,"DIS_CODE":0,"TOWNNAME":"東區","LI":"大德里","LIN":"13鄰","STREET":"立德十路","SECT":" ","MAREA":" ","LANE":"８０巷","ALLEY":" ","HOUSE_NO":"１號","E_COORD97":169582.92000000001,"N_COORD97":2542059.8999999999,"ADDRESS":"立德十路８０巷１號","OBJECTID":327978},"geometry":{"x":169582.91999999993,"y":2542059.9000000022}},{"attributes":{"ID":327988,"DIS_CODE":0,"TOWNNAME":"東區","LI":"泉南里","LIN":"13鄰","STREET":"光華街","SECT":" ","MAREA":" ","LANE":"２２９巷","ALLEY":" ","HOUSE_NO":"１２號之１","E_COORD97":169473.44,"N_COORD97":2543016.25,"ADDRESS":"光華街２２９巷１２號之１","OBJECTID":327979},"geometry":{"x":169473.44000000041,"y":2543016.2500000019}},{"attributes":{"ID":327989,"DIS_CODE":0,"TOWNNAME":"東區","LI":"大德里","LIN":"13鄰","STREET":"立德十路","SECT":" ","MAREA":" ","LANE":"８０巷","ALLEY":" ","HOUSE_NO":"１１號","E_COORD97":169588.04999999999,"N_COORD97":2542041.8700000001,"ADDRESS":"立德十路８０巷１１號","OBJECTID":327980},"geometry":{"x":169588.05000000075,"y":2542041.870000001}},{"attributes":{"ID":327990,"DIS_CODE":0,"TOWNNAME":"東區","LI":"大德里","LIN":"13鄰","STREET":"立德十路","SECT":" ","MAREA":" ","LANE":"８０巷","ALLEY":" ","HOUSE_NO":"１５號","E_COORD97":169590.51000000001,"N_COORD97":2542034.7000000002,"ADDRESS":"立德十路８０巷１５號","OBJECTID":327981},"geometry":{"x":169590.50999999978,"y":2542034.6999999993}},{"attributes":{"ID":327991,"DIS_CODE":0,"TOWNNAME":"東區","LI":"大德里","LIN":"13鄰","STREET":"立德十路","SECT":" ","MAREA":" ","LANE":"８０巷","ALLEY":" ","HOUSE_NO":"１９號","E_COORD97":169592.35999999999,"N_COORD97":2542028.5499999998,"ADDRESS":"立德十路８０巷１９號","OBJECTID":327982},"geometry":{"x":169592.36000000034,"y":2542028.5500000026}},{"attributes":{"ID":327992,"DIS_CODE":0,"TOWNNAME":"東區","LI":"大德里","LIN":"13鄰","STREET":"立德十路","SECT":" ","MAREA":" ","LANE":"８０巷","ALLEY":" ","HOUSE_NO":"２１號","E_COORD97":169593.59,"N_COORD97":2542024.25,"ADDRESS":"立德十路８０巷２１號","OBJECTID":327983},"geometry":{"x":169593.58999999985,"y":2542024.25}},{"attributes":{"ID":327993,"DIS_CODE":0,"TOWNNAME":"東區","LI":"大德里","LIN":"13鄰","STREET":"立德十路","SECT":" ","MAREA":" ","LANE":"８０巷","ALLEY":" ","HOUSE_NO":"２３號","E_COORD97":169595.03,"N_COORD97":2542020.77,"ADDRESS":"立德十路８０巷２３號","OBJECTID":327984},"geometry":{"x":169595.03000000212,"y":2542020.7699999996}},{"attributes":{"ID":327994,"DIS_CODE":0,"TOWNNAME":"東區","LI":"大德里","LIN":"13鄰","STREET":"立德十路","SECT":" ","MAREA":" ","LANE":"８０巷","ALLEY":" ","HOUSE_NO":"２５號","E_COORD97":169596.26000000001,"N_COORD97":2542017.8999999999,"ADDRESS":"立德十路８０巷２５號","OBJECTID":327985},"geometry":{"x":169596.26000000164,"y":2542017.9000000004}},{"attributes":{"ID":327995,"DIS_CODE":0,"TOWNNAME":"東區","LI":"大德里","LIN":"13鄰","STREET":"立德十路","SECT":" ","MAREA":" ","LANE":"８０巷","ALLEY":" ","HOUSE_NO":"２７號","E_COORD97":169596.26000000001,"N_COORD97":2542013.6000000001,"ADDRESS":"立德十路８０巷２７號","OBJECTID":327986},"geometry":{"x":169596.26000000164,"y":2542013.6000000015}},{"attributes":{"ID":327996,"DIS_CODE":0,"TOWNNAME":"東區","LI":"大德里","LIN":"20鄰","STREET":"立德十路","SECT":" ","MAREA":" ","LANE":"１巷","ALLEY":" ","HOUSE_NO":"３號","E_COORD97":169398.16,"N_COORD97":2542052.0600000001,"ADDRESS":"立德十路１巷３號","OBJECTID":327987},"geometry":{"x":169398.16000000108,"y":2542052.0600000024}},{"attributes":{"ID":327997,"DIS_CODE":0,"TOWNNAME":"東區","LI":"大德里","LIN":"13鄰","STREET":"立德十路","SECT":" ","MAREA":" ","LANE":"８０巷","ALLEY":" ","HOUSE_NO":"８號","E_COORD97":169574.10000000001,"N_COORD97":2542026.6400000001,"ADDRESS":"立德十路８０巷８號","OBJECTID":327988},"geometry":{"x":169574.10000000056,"y":2542026.6400000006}},{"attributes":{"ID":327998,"DIS_CODE":0,"TOWNNAME":"東區","LI":"崇信里","LIN":"15鄰","STREET":"崇學路","SECT":" ","MAREA":" ","LANE":"１４２巷","ALLEY":" ","HOUSE_NO":"３３號","E_COORD97":170591.20999999999,"N_COORD97":2542332.5800000001,"ADDRESS":"崇學路１４２巷３３號","OBJECTID":327989},"geometry":{"x":170591.20999999996,"y":2542332.5800000019}},{"attributes":{"ID":327999,"DIS_CODE":0,"TOWNNAME":"東區","LI":"崇信里","LIN":"15鄰","STREET":"崇學路","SECT":" ","MAREA":" ","LANE":"１４２巷","ALLEY":" ","HOUSE_NO":"３５號","E_COORD97":170596.23999999999,"N_COORD97":2542329.9700000002,"ADDRESS":"崇學路１４２巷３５號","OBJECTID":327990},"geometry":{"x":170596.24000000022,"y":2542329.9700000044}},{"attributes":{"ID":328000,"DIS_CODE":0,"TOWNNAME":"東區","LI":"崇信里","LIN":"15鄰","STREET":"崇學路","SECT":" ","MAREA":" ","LANE":"１４２巷","ALLEY":" ","HOUSE_NO":"３７號","E_COORD97":170599.85999999999,"N_COORD97":2542328.7599999998,"ADDRESS":"崇學路１４２巷３７號","OBJECTID":327991},"geometry":{"x":170599.8600000022,"y":2542328.7599999998}},{"attributes":{"ID":328001,"DIS_CODE":0,"TOWNNAME":"安南區","LI":"安西里","LIN":"17鄰","STREET":"安通路","SECT":"四段","MAREA":" ","LANE":" ","ALLEY":" ","HOUSE_NO":"１１１號","E_COORD97":168764.87,"N_COORD97":2547757.5600000001,"ADDRESS":"安通路四段１１１號","OBJECTID":327992},"geometry":{"x":168764.87000000011,"y":2547757.5600000024}},{"attributes":{"ID":328002,"DIS_CODE":0,"TOWNNAME":"安南區","LI":"安西里","LIN":"17鄰","STREET":"安通路","SECT":"四段","MAREA":" ","LANE":" ","ALLEY":" ","HOUSE_NO":"１１２號","E_COORD97":168760.14000000001,"N_COORD97":2547756.6699999999,"ADDRESS":"安通路四段１１２號","OBJECTID":327993},"geometry":{"x":168760.1400000006,"y":2547756.6700000018}},{"attributes":{"ID":328003,"DIS_CODE":0,"TOWNNAME":"安南區","LI":"安西里","LIN":"17鄰","STREET":"安通路","SECT":"四段","MAREA":" ","LANE":" ","ALLEY":" ","HOUSE_NO":"１１３號","E_COORD97":168756,"N_COORD97":2547757.5600000001,"ADDRESS":"安通路四段１１３號","OBJECTID":327994},"geometry":{"x":168756.00000000093,"y":2547757.5600000024}},{"attributes":{"ID":328004,"DIS_CODE":0,"TOWNNAME":"安南區","LI":"安西里","LIN":"17鄰","STREET":"安通路","SECT":"四段","MAREA":" ","LANE":" ","ALLEY":" ","HOUSE_NO":"１１４號","E_COORD97":168751.26000000001,"N_COORD97":2547757.2599999998,"ADDRESS":"安通路四段１１４號","OBJECTID":327995},"geometry":{"x":168751.25999999978,"y":2547757.2599999998}},{"attributes":{"ID":328005,"DIS_CODE":0,"TOWNNAME":"善化區","LI":"牛庄里","LIN":"8鄰","STREET":" ","SECT":" ","MAREA":"牛庄","LANE":" ","ALLEY":" ","HOUSE_NO":"９５號","E_COORD97":180031.88,"N_COORD97":2560141,"ADDRESS":"牛庄９５號","OBJECTID":327996},"geometry":{"x":180031.88000000082,"y":2560141}},{"attributes":{"ID":328006,"DIS_CODE":0,"TOWNNAME":"安南區","LI":"安西里","LIN":"17鄰","STREET":"安通路","SECT":"四段","MAREA":" ","LANE":" ","ALLEY":" ","HOUSE_NO":"１１５號","E_COORD97":168747.12,"N_COORD97":2547757.5600000001,"ADDRESS":"安通路四段１１５號","OBJECTID":327997},"geometry":{"x":168747.12000000104,"y":2547757.5600000024}},{"attributes":{"ID":328007,"DIS_CODE":0,"TOWNNAME":"安南區","LI":"安西里","LIN":"17鄰","STREET":"安通路","SECT":"四段","MAREA":" ","LANE":" ","ALLEY":" ","HOUSE_NO":"１１６號","E_COORD97":168742.67999999999,"N_COORD97":2547759.3300000001,"ADDRESS":"安通路四段１１６號","OBJECTID":327998},"geometry":{"x":168742.68000000063,"y":2547759.3300000019}},{"attributes":{"ID":328008,"DIS_CODE":0,"TOWNNAME":"安南區","LI":"安西里","LIN":"17鄰","STREET":"安通路","SECT":"四段","MAREA":" ","LANE":" ","ALLEY":" ","HOUSE_NO":"１１８號","E_COORD97":168733.20999999999,"N_COORD97":2547759.3300000001,"ADDRESS":"安通路四段１１８號","OBJECTID":327999},"geometry":{"x":168733.20999999996,"y":2547759.3300000019}},{"attributes":{"ID":328009,"DIS_CODE":0,"TOWNNAME":"安南區","LI":"安西里","LIN":"17鄰","STREET":"安通路","SECT":"四段","MAREA":" ","LANE":" ","ALLEY":" ","HOUSE_NO":"１２１號","E_COORD97":168714.70999999999,"N_COORD97":2547760.8100000001,"ADDRESS":"安通路四段１２１號","OBJECTID":328000},"geometry":{"x":168714.70999999996,"y":2547760.8100000005}}]}