{"displayFieldName":"TOWNNAME","fieldAliases":{"ID":"ID","DIS_CODE":"DIS_CODE","TOWNNAME":"TOWNNAME","LI":"LI","LIN":"LIN","STREET":"STREET","SECT":"SECT","MAREA":"MAREA","LANE":"LANE","ALLEY":"ALLEY","HOUSE_NO":"HOUSE_NO","E_COORD97":"E_COORD97","N_COORD97":"N_COORD97","ADDRESS":"ADDRESS","OBJECTID":"OBJECTID"},"geometryType":"esriGeometryPoint","spatialReference":{"wkid":102443,"latestWkid":3826},"fields":[{"name":"ID","type":"esriFieldTypeDouble","alias":"ID"},{"name":"DIS_CODE","type":"esriFieldTypeInteger","alias":"DIS_CODE"},{"name":"TOWNNAME","type":"esriFieldTypeString","alias":"TOWNNAME","length":8},{"name":"LI","type":"esriFieldTypeString","alias":"LI","length":8},{"name":"LIN","type":"esriFieldTypeString","alias":"LIN","length":12},{"name":"STREET","type":"esriFieldTypeString","alias":"STREET","length":20},{"name":"SECT","type":"esriFieldTypeString","alias":"SECT","length":8},{"name":"MAREA","type":"esriFieldTypeString","alias":"MAREA","length":12},{"name":"LANE","type":"esriFieldTypeString","alias":"LANE","length":10},{"name":"ALLEY","type":"esriFieldTypeString","alias":"ALLEY","length":10},{"name":"HOUSE_NO","type":"esriFieldTypeString","alias":"HOUSE_NO","length":20},{"name":"E_COORD97","type":"esriFieldTypeDouble","alias":"E_COORD97"},{"name":"N_COORD97","type":"esriFieldTypeDouble","alias":"N_COORD97"},{"name":"ADDRESS","type":"esriFieldTypeString","alias":"ADDRESS","length":50},{"name":"OBJECTID","type":"esriFieldTypeOID","alias":"OBJECTID"}],"features":[{"attributes":{"ID":516228,"DIS_CODE":0,"TOWNNAME":"鹽水區","LI":"中境里","LIN":"1鄰","STREET":"武廟路","SECT":" ","MAREA":" ","LANE":" ","ALLEY":" ","HOUSE_NO":"１３號","E_COORD97":174838.69,"N_COORD97":2580010.48,"ADDRESS":"武廟路１３號","OBJECTID":516201},"geometry":{"x":174838.69000000041,"y":2580010.4800000042}},{"attributes":{"ID":516229,"DIS_CODE":0,"TOWNNAME":"鹽水區","LI":"中境里","LIN":"1鄰","STREET":"武廟路","SECT":" ","MAREA":" ","LANE":" ","ALLEY":" ","HOUSE_NO":"１５號","E_COORD97":174843.88,"N_COORD97":2580009.2200000002,"ADDRESS":"武廟路１５號","OBJECTID":516202},"geometry":{"x":174843.88000000175,"y":2580009.2200000025}},{"attributes":{"ID":516230,"DIS_CODE":0,"TOWNNAME":"鹽水區","LI":"中境里","LIN":"1鄰","STREET":"武廟路","SECT":" ","MAREA":" ","LANE":" ","ALLEY":" ","HOUSE_NO":"１７號","E_COORD97":174849.04999999999,"N_COORD97":2580008.3500000001,"ADDRESS":"武廟路１７號","OBJECTID":516203},"geometry":{"x":174849.04999999981,"y":2580008.3500000015}},{"attributes":{"ID":516231,"DIS_CODE":0,"TOWNNAME":"鹽水區","LI":"中境里","LIN":"1鄰","STREET":"武廟路","SECT":" ","MAREA":" ","LANE":" ","ALLEY":" ","HOUSE_NO":"１之１號","E_COORD97":174860.29000000001,"N_COORD97":2579965.5699999998,"ADDRESS":"武廟路１之１號","OBJECTID":516204},"geometry":{"x":174860.29000000097,"y":2579965.570000004}},{"attributes":{"ID":516232,"DIS_CODE":0,"TOWNNAME":"鹽水區","LI":"中境里","LIN":"1鄰","STREET":"武廟路","SECT":" ","MAREA":" ","LANE":" ","ALLEY":" ","HOUSE_NO":"１號之１","E_COORD97":174860.29000000001,"N_COORD97":2579965.5699999998,"ADDRESS":"武廟路１號之１","OBJECTID":516205},"geometry":{"x":174860.29000000097,"y":2579965.570000004}},{"attributes":{"ID":516233,"DIS_CODE":0,"TOWNNAME":"鹽水區","LI":"中境里","LIN":"1鄰","STREET":"武廟路","SECT":" ","MAREA":" ","LANE":" ","ALLEY":" ","HOUSE_NO":"１號之２","E_COORD97":174822.51999999999,"N_COORD97":2579941.3300000001,"ADDRESS":"武廟路１號之２","OBJECTID":516206},"geometry":{"x":174822.52000000048,"y":2579941.3300000019}},{"attributes":{"ID":516234,"DIS_CODE":0,"TOWNNAME":"鹽水區","LI":"中境里","LIN":"1鄰","STREET":"武廟路","SECT":" ","MAREA":" ","LANE":" ","ALLEY":" ","HOUSE_NO":"１之３號","E_COORD97":174842.73000000001,"N_COORD97":2579933.0499999998,"ADDRESS":"武廟路１之３號","OBJECTID":516207},"geometry":{"x":174842.73000000138,"y":2579933.0500000026}},{"attributes":{"ID":516235,"DIS_CODE":0,"TOWNNAME":"鹽水區","LI":"中境里","LIN":"1鄰","STREET":"武廟路","SECT":" ","MAREA":" ","LANE":" ","ALLEY":" ","HOUSE_NO":"２１號","E_COORD97":174884.25,"N_COORD97":2579986.6699999999,"ADDRESS":"武廟路２１號","OBJECTID":516208},"geometry":{"x":174884.25000000093,"y":2579986.6699999999}},{"attributes":{"ID":516236,"DIS_CODE":0,"TOWNNAME":"鹽水區","LI":"中境里","LIN":"1鄰","STREET":"武廟路","SECT":" ","MAREA":" ","LANE":" ","ALLEY":" ","HOUSE_NO":"２３號","E_COORD97":174884.07000000001,"N_COORD97":2580008.1099999999,"ADDRESS":"武廟路２３號","OBJECTID":516209},"geometry":{"x":174884.07000000123,"y":2580008.1099999975}},{"attributes":{"ID":516237,"DIS_CODE":0,"TOWNNAME":"鹽水區","LI":"中境里","LIN":"1鄰","STREET":"武廟路","SECT":" ","MAREA":" ","LANE":" ","ALLEY":" ","HOUSE_NO":"３號","E_COORD97":174804.17000000001,"N_COORD97":2579955.9700000002,"ADDRESS":"武廟路３號","OBJECTID":516210},"geometry":{"x":174804.16999999993,"y":2579955.9700000007}},{"attributes":{"ID":516238,"DIS_CODE":0,"TOWNNAME":"安平區","LI":"西門里","LIN":"1鄰","STREET":"安平路","SECT":" ","MAREA":" ","LANE":" ","ALLEY":" ","HOUSE_NO":"７９６號","E_COORD97":163925.17000000001,"N_COORD97":2544573.3199999998,"ADDRESS":"安平路７９６號","OBJECTID":516211},"geometry":{"x":163925.17000000086,"y":2544573.3200000022}},{"attributes":{"ID":516239,"DIS_CODE":0,"TOWNNAME":"安平區","LI":"西門里","LIN":"1鄰","STREET":"安平路","SECT":" ","MAREA":" ","LANE":" ","ALLEY":" ","HOUSE_NO":"７９８號","E_COORD97":163912.62,"N_COORD97":2544567.8700000001,"ADDRESS":"安平路７９８號","OBJECTID":516212},"geometry":{"x":163912.62000000104,"y":2544567.870000001}},{"attributes":{"ID":516240,"DIS_CODE":0,"TOWNNAME":"安平區","LI":"西門里","LIN":"1鄰","STREET":"安平路","SECT":" ","MAREA":" ","LANE":" ","ALLEY":" ","HOUSE_NO":"８００號","E_COORD97":163906.62,"N_COORD97":2544567.8700000001,"ADDRESS":"安平路８００號","OBJECTID":516213},"geometry":{"x":163906.62000000011,"y":2544567.870000001}},{"attributes":{"ID":516241,"DIS_CODE":0,"TOWNNAME":"安平區","LI":"西門里","LIN":"1鄰","STREET":"安平路","SECT":" ","MAREA":" ","LANE":" ","ALLEY":" ","HOUSE_NO":"８０２號","E_COORD97":163898.57000000001,"N_COORD97":2544564.8700000001,"ADDRESS":"安平路８０２號","OBJECTID":516214},"geometry":{"x":163898.5700000003,"y":2544564.870000001}},{"attributes":{"ID":516242,"DIS_CODE":0,"TOWNNAME":"安平區","LI":"西門里","LIN":"1鄰","STREET":"國勝路","SECT":" ","MAREA":" ","LANE":" ","ALLEY":" ","HOUSE_NO":"３３號","E_COORD97":163951.57999999999,"N_COORD97":2544593.3399999999,"ADDRESS":"國勝路３３號","OBJECTID":516215},"geometry":{"x":163951.58000000101,"y":2544593.3399999999}},{"attributes":{"ID":516243,"DIS_CODE":0,"TOWNNAME":"安平區","LI":"漁光里","LIN":"1鄰","STREET":"漁光路","SECT":" ","MAREA":" ","LANE":" ","ALLEY":" ","HOUSE_NO":"５９號","E_COORD97":164050.13,"N_COORD97":2541765.3500000001,"ADDRESS":"漁光路５９號","OBJECTID":516216},"geometry":{"x":164050.12999999989,"y":2541765.3499999996}},{"attributes":{"ID":516244,"DIS_CODE":0,"TOWNNAME":"安平區","LI":"漁光里","LIN":"1鄰","STREET":"漁光路","SECT":" ","MAREA":" ","LANE":" ","ALLEY":" ","HOUSE_NO":"４９號","E_COORD97":164085.85000000001,"N_COORD97":2541730.3300000001,"ADDRESS":"漁光路４９號","OBJECTID":516217},"geometry":{"x":164085.84999999963,"y":2541730.3300000038}},{"attributes":{"ID":516245,"DIS_CODE":0,"TOWNNAME":"安平區","LI":"漁光里","LIN":"1鄰","STREET":"漁光路","SECT":" ","MAREA":" ","LANE":" ","ALLEY":" ","HOUSE_NO":"５３號","E_COORD97":164107.06,"N_COORD97":2541721.3500000001,"ADDRESS":"漁光路５３號","OBJECTID":516218},"geometry":{"x":164107.06000000052,"y":2541721.3499999996}},{"attributes":{"ID":516246,"DIS_CODE":0,"TOWNNAME":"安平區","LI":"漁光里","LIN":"1鄰","STREET":"漁光路","SECT":" ","MAREA":" ","LANE":" ","ALLEY":" ","HOUSE_NO":"６５號","E_COORD97":164000.88,"N_COORD97":2541761.7400000002,"ADDRESS":"漁光路６５號","OBJECTID":516219},"geometry":{"x":164000.87999999989,"y":2541761.7400000039}},{"attributes":{"ID":516247,"DIS_CODE":0,"TOWNNAME":"安平區","LI":"漁光里","LIN":"1鄰","STREET":"漁光路","SECT":" ","MAREA":" ","LANE":" ","ALLEY":" ","HOUSE_NO":"６１號","E_COORD97":163974.32000000001,"N_COORD97":2541729.7200000002,"ADDRESS":"漁光路６１號","OBJECTID":516220},"geometry":{"x":163974.32000000123,"y":2541729.7200000025}},{"attributes":{"ID":516248,"DIS_CODE":0,"TOWNNAME":"安平區","LI":"漁光里","LIN":"1鄰","STREET":"漁光路","SECT":" ","MAREA":" ","LANE":" ","ALLEY":" ","HOUSE_NO":"５５號","E_COORD97":164026.37143699999,"N_COORD97":2541724.0928500001,"ADDRESS":"漁光路５５號","OBJECTID":516221},"geometry":{"x":164026.37143700011,"y":2541724.0928520001}},{"attributes":{"ID":516249,"DIS_CODE":0,"TOWNNAME":"安平區","LI":"金城里","LIN":"1鄰","STREET":"安平路","SECT":" ","MAREA":" ","LANE":" ","ALLEY":" ","HOUSE_NO":"１７７號","E_COORD97":164007.95999999999,"N_COORD97":2544546.6600000001,"ADDRESS":"安平路１７７號","OBJECTID":516222},"geometry":{"x":164007.96000000089,"y":2544546.660000002}},{"attributes":{"ID":516250,"DIS_CODE":0,"TOWNNAME":"安平區","LI":"港仔里","LIN":"1鄰","STREET":"安平路","SECT":" ","MAREA":" ","LANE":" ","ALLEY":" ","HOUSE_NO":"１１號之１","E_COORD97":164763.35000000001,"N_COORD97":2544388.4199999999,"ADDRESS":"安平路１１號之１","OBJECTID":516223},"geometry":{"x":164763.35000000056,"y":2544388.4200000018}},{"attributes":{"ID":516251,"DIS_CODE":0,"TOWNNAME":"安平區","LI":"國平里","LIN":"1鄰","STREET":"文平路","SECT":" ","MAREA":" ","LANE":" ","ALLEY":" ","HOUSE_NO":"２７７號","E_COORD97":165732.14999999999,"N_COORD97":2543318.0800000001,"ADDRESS":"文平路２７７號","OBJECTID":516224},"geometry":{"x":165732.15000000037,"y":2543318.0800000001}},{"attributes":{"ID":516252,"DIS_CODE":0,"TOWNNAME":"安平區","LI":"國平里","LIN":"1鄰","STREET":"永華路","SECT":"二段","MAREA":" ","LANE":" ","ALLEY":" ","HOUSE_NO":"４６３號","E_COORD97":165599.76000000001,"N_COORD97":2543428.3700000001,"ADDRESS":"永華路二段４６３號","OBJECTID":516225},"geometry":{"x":165599.76000000071,"y":2543428.370000001}},{"attributes":{"ID":516253,"DIS_CODE":0,"TOWNNAME":"安平區","LI":"國平里","LIN":"1鄰","STREET":"永華路","SECT":"二段","MAREA":" ","LANE":" ","ALLEY":" ","HOUSE_NO":"４８３號","E_COORD97":165565.29000000001,"N_COORD97":2543434.3399999999,"ADDRESS":"永華路二段４８３號","OBJECTID":516226},"geometry":{"x":165565.2900000019,"y":2543434.3399999999}},{"attributes":{"ID":516254,"DIS_CODE":0,"TOWNNAME":"鹽水區","LI":"中境里","LIN":"1鄰","STREET":"武廟路","SECT":" ","MAREA":" ","LANE":" ","ALLEY":" ","HOUSE_NO":"９號","E_COORD97":174747.67999999999,"N_COORD97":2579980.6600000001,"ADDRESS":"武廟路９號","OBJECTID":516227},"geometry":{"x":174747.6799999997,"y":2579980.6600000001}},{"attributes":{"ID":516255,"DIS_CODE":0,"TOWNNAME":"新營區","LI":"民生里","LIN":"15鄰","STREET":"三民路","SECT":" ","MAREA":" ","LANE":" ","ALLEY":" ","HOUSE_NO":"１３３號","E_COORD97":179278.41,"N_COORD97":2578245.02,"ADDRESS":"三民路１３３號","OBJECTID":516228},"geometry":{"x":179278.41000000015,"y":2578245.0199999996}},{"attributes":{"ID":516256,"DIS_CODE":0,"TOWNNAME":"北區","LI":"大道里","LIN":"1鄰","STREET":"和緯路","SECT":"一段","MAREA":" ","LANE":" ","ALLEY":" ","HOUSE_NO":"１６號","E_COORD97":169671.66,"N_COORD97":2545529.75,"ADDRESS":"和緯路一段１６號","OBJECTID":516229},"geometry":{"x":169671.66000000015,"y":2545529.75}},{"attributes":{"ID":516257,"DIS_CODE":0,"TOWNNAME":"北區","LI":"大道里","LIN":"1鄰","STREET":"和緯路","SECT":"一段","MAREA":" ","LANE":" ","ALLEY":" ","HOUSE_NO":"８號","E_COORD97":169679.44,"N_COORD97":2545520.23,"ADDRESS":"和緯路一段８號","OBJECTID":516230},"geometry":{"x":169679.44000000134,"y":2545520.2300000004}},{"attributes":{"ID":516258,"DIS_CODE":0,"TOWNNAME":"北區","LI":"賢北里","LIN":"1鄰","STREET":"賢北街","SECT":" ","MAREA":" ","LANE":" ","ALLEY":" ","HOUSE_NO":"６號","E_COORD97":166361.67000000001,"N_COORD97":2545221.6800000002,"ADDRESS":"賢北街６號","OBJECTID":516231},"geometry":{"x":166361.67000000086,"y":2545221.6799999997}},{"attributes":{"ID":516259,"DIS_CODE":0,"TOWNNAME":"北區","LI":"大和里","LIN":"1鄰","STREET":"文賢路","SECT":" ","MAREA":" ","LANE":" ","ALLEY":" ","HOUSE_NO":"６７７號","E_COORD97":167344.79999999999,"N_COORD97":2546060.6000000001,"ADDRESS":"文賢路６７７號","OBJECTID":516232},"geometry":{"x":167344.80000000168,"y":2546060.5999999978}},{"attributes":{"ID":516260,"DIS_CODE":0,"TOWNNAME":"北區","LI":"大港里","LIN":"1鄰","STREET":"大和路","SECT":" ","MAREA":" ","LANE":" ","ALLEY":" ","HOUSE_NO":"１３５號","E_COORD97":166971.34,"N_COORD97":2545791.04,"ADDRESS":"大和路１３５號","OBJECTID":516233},"geometry":{"x":166971.33999999985,"y":2545791.040000001}},{"attributes":{"ID":516261,"DIS_CODE":0,"TOWNNAME":"南區","LI":"日新里","LIN":"1鄰","STREET":"利南街","SECT":" ","MAREA":" ","LANE":" ","ALLEY":" ","HOUSE_NO":"２號之１","E_COORD97":166930.25,"N_COORD97":2541093.6099999999,"ADDRESS":"利南街２號之１","OBJECTID":516234},"geometry":{"x":166930.25000000093,"y":2541093.6100000031}},{"attributes":{"ID":516262,"DIS_CODE":0,"TOWNNAME":"北區","LI":"國姓里","LIN":"1鄰","STREET":"公園路","SECT":" ","MAREA":" ","LANE":" ","ALLEY":" ","HOUSE_NO":"４０３號","E_COORD97":169007.04000000001,"N_COORD97":2545260.1499999999,"ADDRESS":"公園路４０３號","OBJECTID":516235},"geometry":{"x":169007.04000000097,"y":2545260.1500000004}},{"attributes":{"ID":516263,"DIS_CODE":0,"TOWNNAME":"北區","LI":"國姓里","LIN":"1鄰","STREET":"公園路","SECT":" ","MAREA":" ","LANE":" ","ALLEY":" ","HOUSE_NO":"４０５號","E_COORD97":169004.88,"N_COORD97":2545263.5800000001,"ADDRESS":"公園路４０５號","OBJECTID":516236},"geometry":{"x":169004.87999999989,"y":2545263.5800000001}},{"attributes":{"ID":516264,"DIS_CODE":0,"TOWNNAME":"北區","LI":"國姓里","LIN":"1鄰","STREET":"公園路","SECT":" ","MAREA":" ","LANE":" ","ALLEY":" ","HOUSE_NO":"４０７號","E_COORD97":169004.12,"N_COORD97":2545266.6299999999,"ADDRESS":"公園路４０７號","OBJECTID":516237},"geometry":{"x":169004.12000000011,"y":2545266.6300000027}},{"attributes":{"ID":516265,"DIS_CODE":0,"TOWNNAME":"北區","LI":"文元里","LIN":"1鄰","STREET":"海安路","SECT":"三段","MAREA":" ","LANE":" ","ALLEY":" ","HOUSE_NO":"９２３號","E_COORD97":167988.56,"N_COORD97":2546482.52,"ADDRESS":"海安路三段９２３號","OBJECTID":516238},"geometry":{"x":167988.55999999959,"y":2546482.5200000014}},{"attributes":{"ID":516266,"DIS_CODE":0,"TOWNNAME":"北區","LI":"文元里","LIN":"1鄰","STREET":"海安路","SECT":"三段","MAREA":" ","LANE":" ","ALLEY":" ","HOUSE_NO":"９３３號","E_COORD97":167986.01999999999,"N_COORD97":2546511.3500000001,"ADDRESS":"海安路三段９３３號","OBJECTID":516239},"geometry":{"x":167986.02000000048,"y":2546511.3500000015}},{"attributes":{"ID":516267,"DIS_CODE":0,"TOWNNAME":"北區","LI":"文元里","LIN":"1鄰","STREET":"海安路","SECT":"三段","MAREA":" ","LANE":" ","ALLEY":" ","HOUSE_NO":"９２９號","E_COORD97":167987.54999999999,"N_COORD97":2546499.4100000001,"ADDRESS":"海安路三段９２９號","OBJECTID":516240},"geometry":{"x":167987.55000000075,"y":2546499.4100000001}},{"attributes":{"ID":516268,"DIS_CODE":0,"TOWNNAME":"北區","LI":"文元里","LIN":"1鄰","STREET":"海安路","SECT":"三段","MAREA":" ","LANE":" ","ALLEY":" ","HOUSE_NO":"９３１號","E_COORD97":167986.53,"N_COORD97":2546505,"ADDRESS":"海安路三段９３１號","OBJECTID":516241},"geometry":{"x":167986.53000000119,"y":2546505}},{"attributes":{"ID":516269,"DIS_CODE":0,"TOWNNAME":"南區","LI":"田寮里","LIN":"1鄰","STREET":"新興路","SECT":" ","MAREA":" ","LANE":" ","ALLEY":" ","HOUSE_NO":"３５７號","E_COORD97":167103.42000000001,"N_COORD97":2541801.5600000001,"ADDRESS":"新興路３５７號","OBJECTID":516242},"geometry":{"x":167103.42000000179,"y":2541801.5600000024}},{"attributes":{"ID":516270,"DIS_CODE":0,"TOWNNAME":"南區","LI":"田寮里","LIN":"1鄰","STREET":"新興路","SECT":" ","MAREA":" ","LANE":" ","ALLEY":" ","HOUSE_NO":"３５９號","E_COORD97":167107.79000000001,"N_COORD97":2541805.3999999999,"ADDRESS":"新興路３５９號","OBJECTID":516243},"geometry":{"x":167107.7900000019,"y":2541805.4000000022}},{"attributes":{"ID":516271,"DIS_CODE":0,"TOWNNAME":"南區","LI":"文華里","LIN":"1鄰","STREET":"永華路","SECT":"一段","MAREA":" ","LANE":" ","ALLEY":" ","HOUSE_NO":"２４７號","E_COORD97":167042.42999999999,"N_COORD97":2543213.8599999999,"ADDRESS":"永華路一段２４７號","OBJECTID":516244},"geometry":{"x":167042.43000000063,"y":2543213.8599999994}},{"attributes":{"ID":516272,"DIS_CODE":0,"TOWNNAME":"南區","LI":"文華里","LIN":"1鄰","STREET":"永華路","SECT":"一段","MAREA":" ","LANE":" ","ALLEY":" ","HOUSE_NO":"２４７號之１","E_COORD97":167038.35999999999,"N_COORD97":2543189.23,"ADDRESS":"永華路一段２４７號之１","OBJECTID":516245},"geometry":{"x":167038.36000000127,"y":2543189.2300000042}},{"attributes":{"ID":516273,"DIS_CODE":0,"TOWNNAME":"南區","LI":"喜北里","LIN":"1鄰","STREET":"濱南路","SECT":" ","MAREA":" ","LANE":" ","ALLEY":" ","HOUSE_NO":"２５５號之１","E_COORD97":165805.76000000001,"N_COORD97":2539091.25,"ADDRESS":"濱南路２５５號之１","OBJECTID":516246},"geometry":{"x":165805.75999999885,"y":2539091.25}},{"attributes":{"ID":516274,"DIS_CODE":0,"TOWNNAME":"南區","LI":"明興里","LIN":"1鄰","STREET":"德興路","SECT":" ","MAREA":" ","LANE":" ","ALLEY":" ","HOUSE_NO":"８號","E_COORD97":167164.28,"N_COORD97":2540848.6699999999,"ADDRESS":"德興路８號","OBJECTID":516247},"geometry":{"x":167164.28000000119,"y":2540848.6699999999}},{"attributes":{"ID":516275,"DIS_CODE":0,"TOWNNAME":"南區","LI":"大成里","LIN":"1鄰","STREET":"健康路","SECT":"一段","MAREA":" ","LANE":" ","ALLEY":" ","HOUSE_NO":"３４３號","E_COORD97":168033.32000000001,"N_COORD97":2542416.4300000002,"ADDRESS":"健康路一段３４３號","OBJECTID":516248},"geometry":{"x":168033.31999999937,"y":2542416.4299999997}},{"attributes":{"ID":516276,"DIS_CODE":0,"TOWNNAME":"南區","LI":"日新里","LIN":"1鄰","STREET":"利南街","SECT":" ","MAREA":" ","LANE":" ","ALLEY":" ","HOUSE_NO":"２號","E_COORD97":166936.48000000001,"N_COORD97":2541091.6800000002,"ADDRESS":"利南街２號","OBJECTID":516249},"geometry":{"x":166936.48000000138,"y":2541091.6800000016}},{"attributes":{"ID":516277,"DIS_CODE":0,"TOWNNAME":"新化區","LI":"中央里","LIN":"1鄰","STREET":"信義路","SECT":" ","MAREA":" ","LANE":" ","ALLEY":" ","HOUSE_NO":"２６０號","E_COORD97":179043.73000000001,"N_COORD97":2548314.25,"ADDRESS":"信義路２６０號","OBJECTID":516250},"geometry":{"x":179043.73000000045,"y":2548314.25}},{"attributes":{"ID":516278,"DIS_CODE":0,"TOWNNAME":"新營區","LI":"民榮里","LIN":"17鄰","STREET":"新進路","SECT":"二段","MAREA":" ","LANE":" ","ALLEY":" ","HOUSE_NO":"３２０號","E_COORD97":178759.75,"N_COORD97":2577787.9100000001,"ADDRESS":"新進路二段３２０號","OBJECTID":516251},"geometry":{"x":178759.75000000093,"y":2577787.910000002}},{"attributes":{"ID":516279,"DIS_CODE":0,"TOWNNAME":"新化區","LI":"協興里","LIN":"1鄰","STREET":"忠孝路","SECT":" ","MAREA":" ","LANE":" ","ALLEY":" ","HOUSE_NO":"１５２號","E_COORD97":178585.22,"N_COORD97":2548633.25,"ADDRESS":"忠孝路１５２號","OBJECTID":516252},"geometry":{"x":178585.22000000067,"y":2548633.2499999981}},{"attributes":{"ID":516280,"DIS_CODE":0,"TOWNNAME":"新化區","LI":"中央里","LIN":"1鄰","STREET":"信義路","SECT":" ","MAREA":" ","LANE":" ","ALLEY":" ","HOUSE_NO":"２４２號","E_COORD97":179063.23000000001,"N_COORD97":2548317.25,"ADDRESS":"信義路２４２號","OBJECTID":516253},"geometry":{"x":179063.23000000231,"y":2548317.25}},{"attributes":{"ID":516281,"DIS_CODE":0,"TOWNNAME":"新化區","LI":"協興里","LIN":"1鄰","STREET":"太平街","SECT":" ","MAREA":" ","LANE":" ","ALLEY":" ","HOUSE_NO":"９９號之６","E_COORD97":178576.42000000001,"N_COORD97":2548724.2599999998,"ADDRESS":"太平街９９號之６","OBJECTID":516254},"geometry":{"x":178576.42000000179,"y":2548724.2599999998}},{"attributes":{"ID":516282,"DIS_CODE":0,"TOWNNAME":"新化區","LI":"協興里","LIN":"1鄰","STREET":"忠孝路","SECT":" ","MAREA":" ","LANE":" ","ALLEY":" ","HOUSE_NO":"１５０號","E_COORD97":178600.12,"N_COORD97":2548636.25,"ADDRESS":"忠孝路１５０號","OBJECTID":516255},"geometry":{"x":178600.12000000011,"y":2548636.25}},{"attributes":{"ID":516283,"DIS_CODE":0,"TOWNNAME":"新化區","LI":"觀音里","LIN":"1鄰","STREET":"中正路","SECT":" ","MAREA":" ","LANE":" ","ALLEY":" ","HOUSE_NO":"４７５號","E_COORD97":179050.20999999999,"N_COORD97":2548509.25,"ADDRESS":"中正路４７５號","OBJECTID":516256},"geometry":{"x":179050.20999999996,"y":2548509.2500000019}},{"attributes":{"ID":516284,"DIS_CODE":0,"TOWNNAME":"新化區","LI":"中央里","LIN":"1鄰","STREET":"信義路","SECT":" ","MAREA":" ","LANE":" ","ALLEY":" ","HOUSE_NO":"２３８號","E_COORD97":179069.13,"N_COORD97":2548318.25,"ADDRESS":"信義路２３８號","OBJECTID":516257},"geometry":{"x":179069.13000000082,"y":2548318.2500000037}},{"attributes":{"ID":516285,"DIS_CODE":0,"TOWNNAME":"新化區","LI":"唪口里","LIN":"1鄰","STREET":"大德路","SECT":" ","MAREA":" ","LANE":" ","ALLEY":" ","HOUSE_NO":"３８號","E_COORD97":178537.78,"N_COORD97":2549403.25,"ADDRESS":"大德路３８號","OBJECTID":516258},"geometry":{"x":178537.78000000119,"y":2549403.2500000037}},{"attributes":{"ID":516286,"DIS_CODE":0,"TOWNNAME":"新化區","LI":"武安里","LIN":"1鄰","STREET":"中正路","SECT":" ","MAREA":" ","LANE":" ","ALLEY":" ","HOUSE_NO":"２１７號","E_COORD97":179093.10999999999,"N_COORD97":2547693.25,"ADDRESS":"中正路２１７號","OBJECTID":516259},"geometry":{"x":179093.11000000127,"y":2547693.25}},{"attributes":{"ID":516287,"DIS_CODE":0,"TOWNNAME":"新化區","LI":"太平里","LIN":"1鄰","STREET":"仁愛街","SECT":" ","MAREA":" ","LANE":" ","ALLEY":" ","HOUSE_NO":"２２號","E_COORD97":179145.57999999999,"N_COORD97":2548641.25,"ADDRESS":"仁愛街２２號","OBJECTID":516260},"geometry":{"x":179145.58000000101,"y":2548641.2500000019}},{"attributes":{"ID":516288,"DIS_CODE":0,"TOWNNAME":"新化區","LI":"協興里","LIN":"1鄰","STREET":"太平街","SECT":" ","MAREA":" ","LANE":" ","ALLEY":" ","HOUSE_NO":"９９號之３","E_COORD97":178592.51999999999,"N_COORD97":2548727.2599999998,"ADDRESS":"太平街９９號之３","OBJECTID":516261},"geometry":{"x":178592.52000000048,"y":2548727.2599999998}},{"attributes":{"ID":516289,"DIS_CODE":0,"TOWNNAME":"新化區","LI":"協興里","LIN":"1鄰","STREET":"忠孝路","SECT":" ","MAREA":" ","LANE":" ","ALLEY":" ","HOUSE_NO":"１５４號","E_COORD97":178579.42000000001,"N_COORD97":2548632.25,"ADDRESS":"忠孝路１５４號","OBJECTID":516262},"geometry":{"x":178579.41999999993,"y":2548632.25}},{"attributes":{"ID":516290,"DIS_CODE":0,"TOWNNAME":"北區","LI":"大港里","LIN":"1鄰","STREET":"大和路","SECT":" ","MAREA":" ","LANE":" ","ALLEY":" ","HOUSE_NO":"１１１號","E_COORD97":166977.66,"N_COORD97":2545725.9700000002,"ADDRESS":"大和路１１１號","OBJECTID":516263},"geometry":{"x":166977.66000000015,"y":2545725.9700000007}},{"attributes":{"ID":516291,"DIS_CODE":0,"TOWNNAME":"北區","LI":"大港里","LIN":"1鄰","STREET":"大和路","SECT":" ","MAREA":" ","LANE":" ","ALLEY":" ","HOUSE_NO":"１１３號","E_COORD97":166974.67000000001,"N_COORD97":2545746.1099999999,"ADDRESS":"大和路１１３號","OBJECTID":516264},"geometry":{"x":166974.67000000179,"y":2545746.1100000013}},{"attributes":{"ID":516292,"DIS_CODE":0,"TOWNNAME":"北區","LI":"大港里","LIN":"1鄰","STREET":"大和路","SECT":" ","MAREA":" ","LANE":" ","ALLEY":" ","HOUSE_NO":"１１５號","E_COORD97":166974.48999999999,"N_COORD97":2545750.3700000001,"ADDRESS":"大和路１１５號","OBJECTID":516265},"geometry":{"x":166974.49000000209,"y":2545750.370000001}},{"attributes":{"ID":516293,"DIS_CODE":0,"TOWNNAME":"北區","LI":"大港里","LIN":"1鄰","STREET":"大和路","SECT":" ","MAREA":" ","LANE":" ","ALLEY":" ","HOUSE_NO":"１１７號","E_COORD97":166974.67000000001,"N_COORD97":2545756.77,"ADDRESS":"大和路１１７號","OBJECTID":516266},"geometry":{"x":166974.67000000179,"y":2545756.7699999996}},{"attributes":{"ID":516294,"DIS_CODE":0,"TOWNNAME":"北區","LI":"大港里","LIN":"1鄰","STREET":"大和路","SECT":" ","MAREA":" ","LANE":" ","ALLEY":" ","HOUSE_NO":"１２１號","E_COORD97":166973.60000000001,"N_COORD97":2545766.1800000002,"ADDRESS":"大和路１２１號","OBJECTID":516267},"geometry":{"x":166973.60000000056,"y":2545766.1800000016}},{"attributes":{"ID":516295,"DIS_CODE":0,"TOWNNAME":"北區","LI":"大港里","LIN":"1鄰","STREET":"大和路","SECT":" ","MAREA":" ","LANE":" ","ALLEY":" ","HOUSE_NO":"１２５號","E_COORD97":166972.70999999999,"N_COORD97":2545772.2200000002,"ADDRESS":"大和路１２５號","OBJECTID":516268},"geometry":{"x":166972.71000000183,"y":2545772.2200000007}},{"attributes":{"ID":516296,"DIS_CODE":0,"TOWNNAME":"北區","LI":"大港里","LIN":"1鄰","STREET":"大和路","SECT":" ","MAREA":" ","LANE":" ","ALLEY":" ","HOUSE_NO":"１２７號","E_COORD97":166972.35000000001,"N_COORD97":2545777.3700000001,"ADDRESS":"大和路１２７號","OBJECTID":516269},"geometry":{"x":166972.34999999963,"y":2545777.370000001}},{"attributes":{"ID":516297,"DIS_CODE":0,"TOWNNAME":"北區","LI":"大港里","LIN":"1鄰","STREET":"大和路","SECT":" ","MAREA":" ","LANE":" ","ALLEY":" ","HOUSE_NO":"１３７號","E_COORD97":166971.10999999999,"N_COORD97":2545795.5699999998,"ADDRESS":"大和路１３７號","OBJECTID":516270},"geometry":{"x":166971.11000000127,"y":2545795.5700000003}},{"attributes":{"ID":516298,"DIS_CODE":0,"TOWNNAME":"北區","LI":"大港里","LIN":"1鄰","STREET":"大和路","SECT":" ","MAREA":" ","LANE":" ","ALLEY":" ","HOUSE_NO":"１３９號","E_COORD97":166970.39999999999,"N_COORD97":2545800.0099999998,"ADDRESS":"大和路１３９號","OBJECTID":516271},"geometry":{"x":166970.4000000013,"y":2545800.0099999998}},{"attributes":{"ID":516299,"DIS_CODE":0,"TOWNNAME":"北區","LI":"大港里","LIN":"1鄰","STREET":"大和路","SECT":" ","MAREA":" ","LANE":" ","ALLEY":" ","HOUSE_NO":"１４１號","E_COORD97":166970.75,"N_COORD97":2545804.4500000002,"ADDRESS":"大和路１４１號","OBJECTID":516272},"geometry":{"x":166970.75000000186,"y":2545804.4500000011}},{"attributes":{"ID":516300,"DIS_CODE":0,"TOWNNAME":"北區","LI":"大港里","LIN":"1鄰","STREET":"大和路","SECT":" ","MAREA":" ","LANE":" ","ALLEY":" ","HOUSE_NO":"１４５號","E_COORD97":166968.42999999999,"N_COORD97":2545813.6299999999,"ADDRESS":"大和路１４５號","OBJECTID":516273},"geometry":{"x":166968.4299999997,"y":2545813.6300000008}},{"attributes":{"ID":516301,"DIS_CODE":0,"TOWNNAME":"北區","LI":"大港里","LIN":"1鄰","STREET":"大和路","SECT":" ","MAREA":" ","LANE":" ","ALLEY":" ","HOUSE_NO":"１４７號","E_COORD97":166968.95999999999,"N_COORD97":2545817.8900000001,"ADDRESS":"大和路１４７號","OBJECTID":516274},"geometry":{"x":166968.95999999996,"y":2545817.8900000006}},{"attributes":{"ID":516302,"DIS_CODE":0,"TOWNNAME":"北區","LI":"大港里","LIN":"1鄰","STREET":"大和路","SECT":" ","MAREA":" ","LANE":" ","ALLEY":" ","HOUSE_NO":"１４９號","E_COORD97":166968.42999999999,"N_COORD97":2545822.8599999999,"ADDRESS":"大和路１４９號","OBJECTID":516275},"geometry":{"x":166968.4299999997,"y":2545822.8600000013}},{"attributes":{"ID":516303,"DIS_CODE":0,"TOWNNAME":"北區","LI":"大港里","LIN":"1鄰","STREET":"大和路","SECT":" ","MAREA":" ","LANE":" ","ALLEY":" ","HOUSE_NO":"１５１號","E_COORD97":166966.29000000001,"N_COORD97":2545826.5899999999,"ADDRESS":"大和路１５１號","OBJECTID":516276},"geometry":{"x":166966.29000000004,"y":2545826.5899999999}},{"attributes":{"ID":516304,"DIS_CODE":0,"TOWNNAME":"北區","LI":"大港里","LIN":"1鄰","STREET":"大和路","SECT":" ","MAREA":" ","LANE":" ","ALLEY":" ","HOUSE_NO":"１５９號","E_COORD97":166960.42999999999,"N_COORD97":2545843.1099999999,"ADDRESS":"大和路１５９號","OBJECTID":516277},"geometry":{"x":166960.4299999997,"y":2545843.1099999994}},{"attributes":{"ID":516305,"DIS_CODE":0,"TOWNNAME":"北區","LI":"大港里","LIN":"1鄰","STREET":"大和路","SECT":" ","MAREA":" ","LANE":" ","ALLEY":" ","HOUSE_NO":"１６１號","E_COORD97":166966.29000000001,"N_COORD97":2545849.8599999999,"ADDRESS":"大和路１６１號","OBJECTID":516278},"geometry":{"x":166966.29000000004,"y":2545849.8600000013}},{"attributes":{"ID":516306,"DIS_CODE":0,"TOWNNAME":"北區","LI":"大港里","LIN":"1鄰","STREET":"大和路","SECT":" ","MAREA":" ","LANE":" ","ALLEY":" ","HOUSE_NO":"１７１號","E_COORD97":166962.34,"N_COORD97":2545871.29,"ADDRESS":"大和路１７１號","OBJECTID":516279},"geometry":{"x":166962.33999999985,"y":2545871.2899999991}},{"attributes":{"ID":516307,"DIS_CODE":0,"TOWNNAME":"北區","LI":"大港里","LIN":"1鄰","STREET":"大和路","SECT":" ","MAREA":" ","LANE":" ","ALLEY":" ","HOUSE_NO":"１７５號","E_COORD97":166964.48000000001,"N_COORD97":2545883.8999999999,"ADDRESS":"大和路１７５號","OBJECTID":516280},"geometry":{"x":166964.47999999952,"y":2545883.9000000022}},{"attributes":{"ID":516308,"DIS_CODE":0,"TOWNNAME":"北區","LI":"大港里","LIN":"1鄰","STREET":"大和路","SECT":" ","MAREA":" ","LANE":" ","ALLEY":" ","HOUSE_NO":"１８３號","E_COORD97":166961.28,"N_COORD97":2545898.0899999999,"ADDRESS":"大和路１８３號","OBJECTID":516281},"geometry":{"x":166961.28000000119,"y":2545898.089999998}},{"attributes":{"ID":516309,"DIS_CODE":0,"TOWNNAME":"北區","LI":"大港里","LIN":"1鄰","STREET":"大和路","SECT":" ","MAREA":" ","LANE":" ","ALLEY":" ","HOUSE_NO":"１８５號","E_COORD97":166961.45999999999,"N_COORD97":2545905.3799999999,"ADDRESS":"大和路１８５號","OBJECTID":516282},"geometry":{"x":166961.46000000089,"y":2545905.3799999971}},{"attributes":{"ID":516310,"DIS_CODE":0,"TOWNNAME":"北區","LI":"大港里","LIN":"1鄰","STREET":"大和路","SECT":" ","MAREA":" ","LANE":" ","ALLEY":" ","HOUSE_NO":"１８９號","E_COORD97":166960.20999999999,"N_COORD97":2545911.77,"ADDRESS":"大和路１８９號","OBJECTID":516283},"geometry":{"x":166960.20999999996,"y":2545911.7700000014}},{"attributes":{"ID":516311,"DIS_CODE":0,"TOWNNAME":"北區","LI":"大港里","LIN":"1鄰","STREET":"大和路","SECT":" ","MAREA":" ","LANE":" ","ALLEY":" ","HOUSE_NO":"１９１號","E_COORD97":166960.20999999999,"N_COORD97":2545916.5699999998,"ADDRESS":"大和路１９１號","OBJECTID":516284},"geometry":{"x":166960.20999999996,"y":2545916.5700000022}},{"attributes":{"ID":516312,"DIS_CODE":0,"TOWNNAME":"北區","LI":"大港里","LIN":"1鄰","STREET":"大和路","SECT":" ","MAREA":" ","LANE":" ","ALLEY":" ","HOUSE_NO":"１９９號","E_COORD97":166958.95999999999,"N_COORD97":2545939.6400000001,"ADDRESS":"大和路１９９號","OBJECTID":516285},"geometry":{"x":166958.95999999903,"y":2545939.6400000043}},{"attributes":{"ID":516313,"DIS_CODE":0,"TOWNNAME":"北區","LI":"大港里","LIN":"1鄰","STREET":"大和路","SECT":" ","MAREA":" ","LANE":" ","ALLEY":" ","HOUSE_NO":"２０１號","E_COORD97":166958.95999999999,"N_COORD97":2545944.0800000001,"ADDRESS":"大和路２０１號","OBJECTID":516286},"geometry":{"x":166958.95999999903,"y":2545944.0800000019}},{"attributes":{"ID":516314,"DIS_CODE":0,"TOWNNAME":"北區","LI":"大港里","LIN":"1鄰","STREET":"大和路","SECT":" ","MAREA":" ","LANE":" ","ALLEY":" ","HOUSE_NO":"２０３號","E_COORD97":166958.60000000001,"N_COORD97":2545949.9500000002,"ADDRESS":"大和路２０３號","OBJECTID":516287},"geometry":{"x":166958.60000000056,"y":2545949.9500000011}},{"attributes":{"ID":516315,"DIS_CODE":0,"TOWNNAME":"北區","LI":"大港里","LIN":"1鄰","STREET":"大和路","SECT":" ","MAREA":" ","LANE":" ","ALLEY":" ","HOUSE_NO":"２０５號","E_COORD97":166958.60000000001,"N_COORD97":2545954.3900000001,"ADDRESS":"大和路２０５號","OBJECTID":516288},"geometry":{"x":166958.60000000056,"y":2545954.3900000006}},{"attributes":{"ID":516316,"DIS_CODE":0,"TOWNNAME":"北區","LI":"大港里","LIN":"1鄰","STREET":"大和路","SECT":" ","MAREA":" ","LANE":" ","ALLEY":" ","HOUSE_NO":"２０７號","E_COORD97":166957.70999999999,"N_COORD97":2545959.54,"ADDRESS":"大和路２０７號","OBJECTID":516289},"geometry":{"x":166957.71000000089,"y":2545959.540000001}},{"attributes":{"ID":516317,"DIS_CODE":0,"TOWNNAME":"北區","LI":"大港里","LIN":"1鄰","STREET":"大和路","SECT":" ","MAREA":" ","LANE":" ","ALLEY":" ","HOUSE_NO":"２０９號","E_COORD97":166957.35999999999,"N_COORD97":2545964.52,"ADDRESS":"大和路２０９號","OBJECTID":516290},"geometry":{"x":166957.36000000127,"y":2545964.5200000014}},{"attributes":{"ID":516318,"DIS_CODE":0,"TOWNNAME":"北區","LI":"大港里","LIN":"1鄰","STREET":"大和路","SECT":" ","MAREA":" ","LANE":" ","ALLEY":" ","HOUSE_NO":"２１１號","E_COORD97":166957.35999999999,"N_COORD97":2545969.1400000001,"ADDRESS":"大和路２１１號","OBJECTID":516291},"geometry":{"x":166957.36000000127,"y":2545969.1400000006}},{"attributes":{"ID":516319,"DIS_CODE":0,"TOWNNAME":"北區","LI":"大港里","LIN":"1鄰","STREET":"大和路","SECT":" ","MAREA":" ","LANE":" ","ALLEY":" ","HOUSE_NO":"２１５號","E_COORD97":166957.89000000001,"N_COORD97":2545979.7999999998,"ADDRESS":"大和路２１５號","OBJECTID":516292},"geometry":{"x":166957.8900000006,"y":2545979.8000000026}},{"attributes":{"ID":516320,"DIS_CODE":0,"TOWNNAME":"北區","LI":"大港里","LIN":"1鄰","STREET":"大興街","SECT":" ","MAREA":" ","LANE":" ","ALLEY":" ","HOUSE_NO":"１５４號","E_COORD97":166972.64000000001,"N_COORD97":2545721.8100000001,"ADDRESS":"大興街１５４號","OBJECTID":516293},"geometry":{"x":166972.63999999966,"y":2545721.8100000024}},{"attributes":{"ID":516321,"DIS_CODE":0,"TOWNNAME":"新營區","LI":"民榮里","LIN":" ","STREET":"裕民路","SECT":" ","MAREA":" ","LANE":" ","ALLEY":" ","HOUSE_NO":"１之３號","E_COORD97":179149.20000000001,"N_COORD97":2577963.29,"ADDRESS":"裕民路１之３號","OBJECTID":516294},"geometry":{"x":179149.20000000019,"y":2577963.290000001}},{"attributes":{"ID":516322,"DIS_CODE":0,"TOWNNAME":"北區","LI":"大港里","LIN":"1鄰","STREET":"大興街","SECT":" ","MAREA":" ","LANE":" ","ALLEY":" ","HOUSE_NO":"１５６號","E_COORD97":166968.48000000001,"N_COORD97":2545720.3999999999,"ADDRESS":"大興街１５６號","OBJECTID":516295},"geometry":{"x":166968.48000000138,"y":2545720.4000000041}},{"attributes":{"ID":516323,"DIS_CODE":0,"TOWNNAME":"北區","LI":"大港里","LIN":"1鄰","STREET":"大興街","SECT":" ","MAREA":" ","LANE":" ","ALLEY":" ","HOUSE_NO":"１５８號","E_COORD97":166963.79000000001,"N_COORD97":2545718.6299999999,"ADDRESS":"大興街１５８號","OBJECTID":516296},"geometry":{"x":166963.7900000019,"y":2545718.6300000008}},{"attributes":{"ID":516324,"DIS_CODE":0,"TOWNNAME":"北區","LI":"賢北里","LIN":"1鄰","STREET":"賢北街","SECT":" ","MAREA":" ","LANE":" ","ALLEY":" ","HOUSE_NO":"３４號","E_COORD97":166336.28,"N_COORD97":2545286.73,"ADDRESS":"賢北街３４號","OBJECTID":516297},"geometry":{"x":166336.28000000026,"y":2545286.7300000004}},{"attributes":{"ID":516325,"DIS_CODE":0,"TOWNNAME":"北區","LI":"賢北里","LIN":"1鄰","STREET":"賢北街","SECT":" ","MAREA":" ","LANE":" ","ALLEY":" ","HOUSE_NO":"３６號","E_COORD97":166334.44,"N_COORD97":2545292.04,"ADDRESS":"賢北街３６號","OBJECTID":516298},"geometry":{"x":166334.44000000134,"y":2545292.040000001}},{"attributes":{"ID":516326,"DIS_CODE":0,"TOWNNAME":"北區","LI":"賢北里","LIN":"1鄰","STREET":"賢北街","SECT":" ","MAREA":" ","LANE":" ","ALLEY":" ","HOUSE_NO":"２４號","E_COORD97":166346.22,"N_COORD97":2545262.4900000002,"ADDRESS":"賢北街２４號","OBJECTID":516299},"geometry":{"x":166346.21999999974,"y":2545262.4900000021}},{"attributes":{"ID":516327,"DIS_CODE":0,"TOWNNAME":"北區","LI":"賢北里","LIN":"1鄰","STREET":"賢北街","SECT":" ","MAREA":" ","LANE":" ","ALLEY":" ","HOUSE_NO":"２６號","E_COORD97":166344.14000000001,"N_COORD97":2545267.3399999999,"ADDRESS":"賢北街２６號","OBJECTID":516300},"geometry":{"x":166344.1400000006,"y":2545267.3400000017}},{"attributes":{"ID":516328,"DIS_CODE":0,"TOWNNAME":"關廟區","LI":"南花里","LIN":"1鄰","STREET":"四維街","SECT":" ","MAREA":" ","LANE":" ","ALLEY":" ","HOUSE_NO":"２７２號","E_COORD97":181862.76000000001,"N_COORD97":2540060.25,"ADDRESS":"四維街２７２號","OBJECTID":516301},"geometry":{"x":181862.76000000164,"y":2540060.2500000019}},{"attributes":{"ID":516329,"DIS_CODE":0,"TOWNNAME":"北區","LI":"賢北里","LIN":"1鄰","STREET":"和緯路","SECT":"五段","MAREA":" ","LANE":" ","ALLEY":" ","HOUSE_NO":"５０號","E_COORD97":166451.69,"N_COORD97":2545238.4199999999,"ADDRESS":"和緯路五段５０號","OBJECTID":516302},"geometry":{"x":166451.69000000134,"y":2545238.4200000037}},{"attributes":{"ID":516330,"DIS_CODE":0,"TOWNNAME":"新營區","LI":"民權里","LIN":" ","STREET":"信義街","SECT":" ","MAREA":" ","LANE":" ","ALLEY":" ","HOUSE_NO":"８５之２號","E_COORD97":179728.32000000001,"N_COORD97":2578797.77,"ADDRESS":"信義街８５之２號","OBJECTID":516303},"geometry":{"x":179728.3200000003,"y":2578797.7700000014}},{"attributes":{"ID":516331,"DIS_CODE":0,"TOWNNAME":"北區","LI":"賢北里","LIN":"1鄰","STREET":"和緯路","SECT":"五段","MAREA":" ","LANE":" ","ALLEY":" ","HOUSE_NO":"５２號","E_COORD97":166446.12,"N_COORD97":2545235.7400000002,"ADDRESS":"和緯路五段５２號","OBJECTID":516304},"geometry":{"x":166446.11999999918,"y":2545235.7400000002}},{"attributes":{"ID":516332,"DIS_CODE":0,"TOWNNAME":"北區","LI":"賢北里","LIN":"1鄰","STREET":"和緯路","SECT":"五段","MAREA":" ","LANE":" ","ALLEY":" ","HOUSE_NO":"５６號","E_COORD97":166437.42999999999,"N_COORD97":2545226.75,"ADDRESS":"和緯路五段５６號","OBJECTID":516305},"geometry":{"x":166437.43000000063,"y":2545226.7500000019}},{"attributes":{"ID":516333,"DIS_CODE":0,"TOWNNAME":"北區","LI":"賢北里","LIN":"1鄰","STREET":"和緯路","SECT":"五段","MAREA":" ","LANE":" ","ALLEY":" ","HOUSE_NO":"５８號","E_COORD97":166421.39000000001,"N_COORD97":2545218.8500000001,"ADDRESS":"和緯路五段５８號","OBJECTID":516306},"geometry":{"x":166421.38999999966,"y":2545218.8500000015}},{"attributes":{"ID":516334,"DIS_CODE":0,"TOWNNAME":"北區","LI":"賢北里","LIN":"1鄰","STREET":"和緯路","SECT":"五段","MAREA":" ","LANE":" ","ALLEY":" ","HOUSE_NO":"６０號","E_COORD97":166406.84,"N_COORD97":2545209.6099999999,"ADDRESS":"和緯路五段６０號","OBJECTID":516307},"geometry":{"x":166406.83999999985,"y":2545209.6100000031}},{"attributes":{"ID":516335,"DIS_CODE":0,"TOWNNAME":"北區","LI":"賢北里","LIN":"1鄰","STREET":"和緯路","SECT":"五段","MAREA":" ","LANE":" ","ALLEY":" ","HOUSE_NO":"６２號","E_COORD97":166401.76000000001,"N_COORD97":2545208.8599999999,"ADDRESS":"和緯路五段６２號","OBJECTID":516308},"geometry":{"x":166401.75999999978,"y":2545208.8600000013}},{"attributes":{"ID":516336,"DIS_CODE":0,"TOWNNAME":"北區","LI":"賢北里","LIN":"1鄰","STREET":"和緯路","SECT":"五段","MAREA":" ","LANE":" ","ALLEY":" ","HOUSE_NO":"６８號","E_COORD97":166383.85000000001,"N_COORD97":2545199.9199999999,"ADDRESS":"和緯路五段６８號","OBJECTID":516309},"geometry":{"x":166383.85000000056,"y":2545199.9199999999}},{"attributes":{"ID":516337,"DIS_CODE":0,"TOWNNAME":"北區","LI":"賢北里","LIN":"1鄰","STREET":"和緯路","SECT":"五段","MAREA":" ","LANE":" ","ALLEY":" ","HOUSE_NO":"７６號","E_COORD97":166375.25,"N_COORD97":2545195.02,"ADDRESS":"和緯路五段７６號","OBJECTID":516310},"geometry":{"x":166375.25,"y":2545195.0199999996}},{"attributes":{"ID":516338,"DIS_CODE":0,"TOWNNAME":"北區","LI":"賢北里","LIN":"1鄰","STREET":"賢北街","SECT":" ","MAREA":" ","LANE":" ","ALLEY":" ","HOUSE_NO":"１０號","E_COORD97":166359.88,"N_COORD97":2545227.27,"ADDRESS":"賢北街１０號","OBJECTID":516311},"geometry":{"x":166359.88000000082,"y":2545227.2699999996}},{"attributes":{"ID":516339,"DIS_CODE":0,"TOWNNAME":"北區","LI":"賢北里","LIN":"1鄰","STREET":"賢北街","SECT":" ","MAREA":" ","LANE":" ","ALLEY":" ","HOUSE_NO":"１２號","E_COORD97":166357.34,"N_COORD97":2545231.4300000002,"ADDRESS":"賢北街１２號","OBJECTID":516312},"geometry":{"x":166357.33999999985,"y":2545231.4300000034}},{"attributes":{"ID":516340,"DIS_CODE":0,"TOWNNAME":"北區","LI":"賢北里","LIN":"1鄰","STREET":"賢北街","SECT":" ","MAREA":" ","LANE":" ","ALLEY":" ","HOUSE_NO":"１４號","E_COORD97":166356.28,"N_COORD97":2545235.6099999999,"ADDRESS":"賢北街１４號","OBJECTID":516313},"geometry":{"x":166356.28000000119,"y":2545235.6099999994}},{"attributes":{"ID":516341,"DIS_CODE":0,"TOWNNAME":"北區","LI":"賢北里","LIN":"1鄰","STREET":"賢北街","SECT":" ","MAREA":" ","LANE":" ","ALLEY":" ","HOUSE_NO":"１８號","E_COORD97":166351.31,"N_COORD97":2545249.1000000001,"ADDRESS":"賢北街１８號","OBJECTID":516314},"geometry":{"x":166351.31000000052,"y":2545249.0999999996}},{"attributes":{"ID":516342,"DIS_CODE":0,"TOWNNAME":"北區","LI":"賢北里","LIN":"1鄰","STREET":"賢北街","SECT":" ","MAREA":" ","LANE":" ","ALLEY":" ","HOUSE_NO":"２０號","E_COORD97":166349,"N_COORD97":2545253.7200000002,"ADDRESS":"賢北街２０號","OBJECTID":516315},"geometry":{"x":166349.00000000093,"y":2545253.7200000007}},{"attributes":{"ID":516343,"DIS_CODE":0,"TOWNNAME":"北區","LI":"賢北里","LIN":"1鄰","STREET":"賢北街","SECT":" ","MAREA":" ","LANE":" ","ALLEY":" ","HOUSE_NO":"２２號","E_COORD97":166347.14999999999,"N_COORD97":2545258.3399999999,"ADDRESS":"賢北街２２號","OBJECTID":516316},"geometry":{"x":166347.15000000037,"y":2545258.3399999999}},{"attributes":{"ID":516344,"DIS_CODE":0,"TOWNNAME":"關廟區","LI":"埤頭里","LIN":"1鄰","STREET":"關新路","SECT":"一段","MAREA":" ","LANE":" ","ALLEY":" ","HOUSE_NO":"７４７號","E_COORD97":179122.97,"N_COORD97":2543697.2999999998,"ADDRESS":"關新路一段７４７號","OBJECTID":516317},"geometry":{"x":179122.96999999974,"y":2543697.2999999989}},{"attributes":{"ID":516345,"DIS_CODE":0,"TOWNNAME":"關廟區","LI":"龜洞里","LIN":"1鄰","STREET":"南雄南路","SECT":" ","MAREA":" ","LANE":" ","ALLEY":" ","HOUSE_NO":"６５６號","E_COORD97":183403.89000000001,"N_COORD97":2533643.2999999998,"ADDRESS":"南雄南路６５６號","OBJECTID":516318},"geometry":{"x":183403.88999999966,"y":2533643.3000000026}},{"attributes":{"ID":516346,"DIS_CODE":0,"TOWNNAME":"關廟區","LI":"東勢里","LIN":"1鄰","STREET":"東安街","SECT":" ","MAREA":" ","LANE":" ","ALLEY":" ","HOUSE_NO":"１３５號","E_COORD97":181436.07000000001,"N_COORD97":2539555.3199999998,"ADDRESS":"東安街１３５號","OBJECTID":516319},"geometry":{"x":181436.07000000123,"y":2539555.3200000022}},{"attributes":{"ID":516347,"DIS_CODE":0,"TOWNNAME":"關廟區","LI":"埤頭里","LIN":"1鄰","STREET":"關新路","SECT":"一段","MAREA":" ","LANE":" ","ALLEY":" ","HOUSE_NO":"７１５號","E_COORD97":179125.51999999999,"N_COORD97":2543635.2999999998,"ADDRESS":"關新路一段７１５號","OBJECTID":516320},"geometry":{"x":179125.51999999955,"y":2543635.3000000007}},{"attributes":{"ID":516348,"DIS_CODE":0,"TOWNNAME":"關廟區","LI":"埤頭里","LIN":"1鄰","STREET":"關新路","SECT":"一段","MAREA":" ","LANE":" ","ALLEY":" ","HOUSE_NO":"７４９號","E_COORD97":179122.17000000001,"N_COORD97":2543701.2999999998,"ADDRESS":"關新路一段７４９號","OBJECTID":516321},"geometry":{"x":179122.16999999993,"y":2543701.3000000026}},{"attributes":{"ID":516349,"DIS_CODE":0,"TOWNNAME":"關廟區","LI":"東勢里","LIN":"1鄰","STREET":"東安街","SECT":" ","MAREA":" ","LANE":" ","ALLEY":" ","HOUSE_NO":"１１３號","E_COORD97":181435.26999999999,"N_COORD97":2539620.3199999998,"ADDRESS":"東安街１１３號","OBJECTID":516322},"geometry":{"x":181435.27000000142,"y":2539620.3200000003}},{"attributes":{"ID":516350,"DIS_CODE":0,"TOWNNAME":"關廟區","LI":"埤頭里","LIN":"1鄰","STREET":"關新路","SECT":"一段","MAREA":" ","LANE":" ","ALLEY":" ","HOUSE_NO":"６５６號","E_COORD97":179187.72,"N_COORD97":2543491.2999999998,"ADDRESS":"關新路一段６５６號","OBJECTID":516323},"geometry":{"x":179187.71999999974,"y":2543491.3000000026}},{"attributes":{"ID":516351,"DIS_CODE":0,"TOWNNAME":"關廟區","LI":"香洋里","LIN":"1鄰","STREET":"南雄路","SECT":"二段","MAREA":" ","LANE":" ","ALLEY":" ","HOUSE_NO":"１４０號","E_COORD97":181169.39000000001,"N_COORD97":2540341.2799999998,"ADDRESS":"南雄路二段１４０號","OBJECTID":516324},"geometry":{"x":181169.38999999966,"y":2540341.2800000012}},{"attributes":{"ID":516352,"DIS_CODE":0,"TOWNNAME":"關廟區","LI":"埤頭里","LIN":"1鄰","STREET":"關新路","SECT":"一段","MAREA":" ","LANE":" ","ALLEY":" ","HOUSE_NO":"７３１號","E_COORD97":179126.76999999999,"N_COORD97":2543666.2999999998,"ADDRESS":"關新路一段７３１號","OBJECTID":516325},"geometry":{"x":179126.77000000048,"y":2543666.3000000007}},{"attributes":{"ID":516353,"DIS_CODE":0,"TOWNNAME":"關廟區","LI":"龜洞里","LIN":"1鄰","STREET":"南雄南路","SECT":" ","MAREA":" ","LANE":" ","ALLEY":" ","HOUSE_NO":"６５８號","E_COORD97":183402.19,"N_COORD97":2533639.25,"ADDRESS":"南雄南路６５８號","OBJECTID":516326},"geometry":{"x":183402.19000000134,"y":2533639.2500000019}},{"attributes":{"ID":516354,"DIS_CODE":0,"TOWNNAME":"關廟區","LI":"松腳里","LIN":"1鄰","STREET":"四維街","SECT":" ","MAREA":" ","LANE":" ","ALLEY":" ","HOUSE_NO":"１３８號","E_COORD97":181882.76000000001,"N_COORD97":2539721.25,"ADDRESS":"四維街１３８號","OBJECTID":516327},"geometry":{"x":181882.75999999978,"y":2539721.2500000019}},{"attributes":{"ID":516355,"DIS_CODE":0,"TOWNNAME":"關廟區","LI":"埤頭里","LIN":"1鄰","STREET":"關新路","SECT":"一段","MAREA":" ","LANE":" ","ALLEY":" ","HOUSE_NO":"７２３號","E_COORD97":179127.82000000001,"N_COORD97":2543651.2999999998,"ADDRESS":"關新路一段７２３號","OBJECTID":516328},"geometry":{"x":179127.8200000003,"y":2543651.3000000026}},{"attributes":{"ID":516356,"DIS_CODE":0,"TOWNNAME":"關廟區","LI":"東勢里","LIN":"1鄰","STREET":"東安街","SECT":" ","MAREA":" ","LANE":" ","ALLEY":" ","HOUSE_NO":"１４７號","E_COORD97":181442.97,"N_COORD97":2539517.3199999998,"ADDRESS":"東安街１４７號","OBJECTID":516329},"geometry":{"x":181442.97000000067,"y":2539517.3200000022}},{"attributes":{"ID":516357,"DIS_CODE":0,"TOWNNAME":"關廟區","LI":"松腳里","LIN":"1鄰","STREET":"四維街","SECT":" ","MAREA":" ","LANE":" ","ALLEY":" ","HOUSE_NO":"１３６號","E_COORD97":181883.45999999999,"N_COORD97":2539717.25,"ADDRESS":"四維街１３６號","OBJECTID":516330},"geometry":{"x":181883.45999999903,"y":2539717.2500000019}},{"attributes":{"ID":516358,"DIS_CODE":0,"TOWNNAME":"關廟區","LI":"新埔里","LIN":"1鄰","STREET":"新埔一街","SECT":" ","MAREA":" ","LANE":" ","ALLEY":" ","HOUSE_NO":"３０號","E_COORD97":181254.07000000001,"N_COORD97":2540815.25,"ADDRESS":"新埔一街３０號","OBJECTID":516331},"geometry":{"x":181254.0700000003,"y":2540815.2500000037}},{"attributes":{"ID":516359,"DIS_CODE":0,"TOWNNAME":"關廟區","LI":"新光里","LIN":"1鄰","STREET":"新湖街","SECT":" ","MAREA":" ","LANE":" ","ALLEY":" ","HOUSE_NO":"３５２號","E_COORD97":182987.48888700001,"N_COORD97":2542969.9896800001,"ADDRESS":"新湖街３５２號","OBJECTID":516332},"geometry":{"x":182987.4888869999,"y":2542969.9896760006}},{"attributes":{"ID":516360,"DIS_CODE":0,"TOWNNAME":"關廟區","LI":"新埔里","LIN":"1鄰","STREET":"新埔一街","SECT":" ","MAREA":" ","LANE":" ","ALLEY":" ","HOUSE_NO":"６７號","E_COORD97":181296.67000000001,"N_COORD97":2540885.25,"ADDRESS":"新埔一街６７號","OBJECTID":516333},"geometry":{"x":181296.66999999993,"y":2540885.25}},{"attributes":{"ID":516361,"DIS_CODE":0,"TOWNNAME":"關廟區","LI":"新埔里","LIN":"1鄰","STREET":"新埔一街","SECT":" ","MAREA":" ","LANE":" ","ALLEY":" ","HOUSE_NO":"４０號","E_COORD97":181270.17000000001,"N_COORD97":2540815.25,"ADDRESS":"新埔一街４０號","OBJECTID":516334},"geometry":{"x":181270.17000000179,"y":2540815.2500000037}},{"attributes":{"ID":516362,"DIS_CODE":0,"TOWNNAME":"新營區","LI":"民榮里","LIN":"5鄰","STREET":"興農街","SECT":" ","MAREA":" ","LANE":" ","ALLEY":" ","HOUSE_NO":"３３號","E_COORD97":179267.47,"N_COORD97":2577910.6200000001,"ADDRESS":"興農街３３號","OBJECTID":516335},"geometry":{"x":179267.46999999881,"y":2577910.620000001}},{"attributes":{"ID":516363,"DIS_CODE":0,"TOWNNAME":"關廟區","LI":"新埔里","LIN":"1鄰","STREET":"新埔一街","SECT":" ","MAREA":" ","LANE":" ","ALLEY":" ","HOUSE_NO":"６５號","E_COORD97":181297.07000000001,"N_COORD97":2540881.25,"ADDRESS":"新埔一街６５號","OBJECTID":516336},"geometry":{"x":181297.07000000123,"y":2540881.2500000019}},{"attributes":{"ID":516364,"DIS_CODE":0,"TOWNNAME":"關廟區","LI":"新光里","LIN":"1鄰","STREET":"新湖街","SECT":" ","MAREA":" ","LANE":" ","ALLEY":" ","HOUSE_NO":"３３０號","E_COORD97":182985.48999999999,"N_COORD97":2542962.25,"ADDRESS":"新湖街３３０號","OBJECTID":516337},"geometry":{"x":182985.49000000209,"y":2542962.2500000019}},{"attributes":{"ID":516365,"DIS_CODE":0,"TOWNNAME":"關廟區","LI":"關廟里","LIN":"1鄰","STREET":"文衡路","SECT":" ","MAREA":" ","LANE":" ","ALLEY":" ","HOUSE_NO":"１０號","E_COORD97":180906.95999999999,"N_COORD97":2540062.27,"ADDRESS":"文衡路１０號","OBJECTID":516338},"geometry":{"x":180906.95999999996,"y":2540062.2700000014}},{"attributes":{"ID":516366,"DIS_CODE":0,"TOWNNAME":"關廟區","LI":"新埔里","LIN":"1鄰","STREET":"新埔一街","SECT":" ","MAREA":" ","LANE":" ","ALLEY":" ","HOUSE_NO":"３２號","E_COORD97":181257.97,"N_COORD97":2540815.25,"ADDRESS":"新埔一街３２號","OBJECTID":516339},"geometry":{"x":181257.97000000067,"y":2540815.2500000037}},{"attributes":{"ID":516367,"DIS_CODE":0,"TOWNNAME":"關廟區","LI":"新埔里","LIN":"1鄰","STREET":"新埔一街","SECT":" ","MAREA":" ","LANE":" ","ALLEY":" ","HOUSE_NO":"３６號","E_COORD97":181261.76999999999,"N_COORD97":2540815.25,"ADDRESS":"新埔一街３６號","OBJECTID":516340},"geometry":{"x":181261.76999999955,"y":2540815.2500000037}},{"attributes":{"ID":516368,"DIS_CODE":0,"TOWNNAME":"關廟區","LI":"新埔里","LIN":"1鄰","STREET":"新埔一街","SECT":" ","MAREA":" ","LANE":" ","ALLEY":" ","HOUSE_NO":"１５號","E_COORD97":181222.97,"N_COORD97":2540831.25,"ADDRESS":"新埔一街１５號","OBJECTID":516341},"geometry":{"x":181222.96999999974,"y":2540831.25}},{"attributes":{"ID":516369,"DIS_CODE":0,"TOWNNAME":"關廟區","LI":"新埔里","LIN":"1鄰","STREET":"新埔一街","SECT":" ","MAREA":" ","LANE":" ","ALLEY":" ","HOUSE_NO":"２２號","E_COORD97":181241.76999999999,"N_COORD97":2540815.25,"ADDRESS":"新埔一街２２號","OBJECTID":516342},"geometry":{"x":181241.76999999955,"y":2540815.2500000037}},{"attributes":{"ID":516370,"DIS_CODE":0,"TOWNNAME":"關廟區","LI":"新埔里","LIN":"1鄰","STREET":"新埔一街","SECT":" ","MAREA":" ","LANE":" ","ALLEY":" ","HOUSE_NO":"５９號","E_COORD97":181298.26999999999,"N_COORD97":2540869.25,"ADDRESS":"新埔一街５９號","OBJECTID":516343},"geometry":{"x":181298.27000000048,"y":2540869.2499999981}},{"attributes":{"ID":516371,"DIS_CODE":0,"TOWNNAME":"關廟區","LI":"關廟里","LIN":"1鄰","STREET":"文衡路","SECT":" ","MAREA":" ","LANE":" ","ALLEY":" ","HOUSE_NO":"２６號","E_COORD97":180902.69,"N_COORD97":2540125.3300000001,"ADDRESS":"文衡路２６號","OBJECTID":516344},"geometry":{"x":180902.69000000227,"y":2540125.3300000001}},{"attributes":{"ID":516372,"DIS_CODE":0,"TOWNNAME":"關廟區","LI":"新埔里","LIN":"1鄰","STREET":"新埔一街","SECT":" ","MAREA":" ","LANE":" ","ALLEY":" ","HOUSE_NO":"１７號","E_COORD97":181236.76999999999,"N_COORD97":2540827.25,"ADDRESS":"新埔一街１７號","OBJECTID":516345},"geometry":{"x":181236.77000000142,"y":2540827.25}},{"attributes":{"ID":516373,"DIS_CODE":0,"TOWNNAME":"關廟區","LI":"新埔里","LIN":"1鄰","STREET":"新埔一街","SECT":" ","MAREA":" ","LANE":" ","ALLEY":" ","HOUSE_NO":"６號","E_COORD97":181202.92000000001,"N_COORD97":2540810.25,"ADDRESS":"新埔一街６號","OBJECTID":516346},"geometry":{"x":181202.92000000086,"y":2540810.25}},{"attributes":{"ID":516374,"DIS_CODE":0,"TOWNNAME":"關廟區","LI":"新埔里","LIN":"1鄰","STREET":"新埔一街","SECT":" ","MAREA":" ","LANE":" ","ALLEY":" ","HOUSE_NO":"１６號","E_COORD97":181224.57000000001,"N_COORD97":2540800.25,"ADDRESS":"新埔一街１６號","OBJECTID":516347},"geometry":{"x":181224.5700000003,"y":2540800.25}},{"attributes":{"ID":516375,"DIS_CODE":0,"TOWNNAME":"關廟區","LI":"新光里","LIN":"1鄰","STREET":"新湖街","SECT":" ","MAREA":" ","LANE":" ","ALLEY":" ","HOUSE_NO":"３４２號","E_COORD97":182956.34,"N_COORD97":2542980.25,"ADDRESS":"新湖街３４２號","OBJECTID":516348},"geometry":{"x":182956.34000000078,"y":2542980.25}},{"attributes":{"ID":516376,"DIS_CODE":0,"TOWNNAME":"關廟區","LI":"關廟里","LIN":"1鄰","STREET":"文衡路","SECT":" ","MAREA":" ","LANE":" ","ALLEY":" ","HOUSE_NO":"３６號","E_COORD97":180903.89000000001,"N_COORD97":2540140.3300000001,"ADDRESS":"文衡路３６號","OBJECTID":516349},"geometry":{"x":180903.89000000153,"y":2540140.3300000038}},{"attributes":{"ID":516377,"DIS_CODE":0,"TOWNNAME":"關廟區","LI":"五甲里","LIN":"1鄰","STREET":"旺萊路","SECT":" ","MAREA":" ","LANE":" ","ALLEY":" ","HOUSE_NO":"１０７號","E_COORD97":181667.17000000001,"N_COORD97":2539259.5699999998,"ADDRESS":"旺萊路１０７號","OBJECTID":516350},"geometry":{"x":181667.17000000086,"y":2539259.5700000003}},{"attributes":{"ID":516378,"DIS_CODE":0,"TOWNNAME":"關廟區","LI":"深坑里","LIN":"1鄰","STREET":"南雄路","SECT":"一段","MAREA":" ","LANE":" ","ALLEY":" ","HOUSE_NO":"１８０號","E_COORD97":182005.07000000001,"N_COORD97":2537219.4700000002,"ADDRESS":"南雄路一段１８０號","OBJECTID":516351},"geometry":{"x":182005.06999999937,"y":2537219.4700000007}},{"attributes":{"ID":516379,"DIS_CODE":0,"TOWNNAME":"新營區","LI":"民榮里","LIN":"35鄰","STREET":"新進路","SECT":"二段","MAREA":" ","LANE":" ","ALLEY":" ","HOUSE_NO":"４１９號","E_COORD97":178660.45000000001,"N_COORD97":2577986.6200000001,"ADDRESS":"新進路二段４１９號","OBJECTID":516352},"geometry":{"x":178660.45000000019,"y":2577986.6200000029}},{"attributes":{"ID":516380,"DIS_CODE":0,"TOWNNAME":"新營區","LI":"民權里","LIN":"24鄰","STREET":"信義街","SECT":" ","MAREA":" ","LANE":" ","ALLEY":" ","HOUSE_NO":"９３之４號","E_COORD97":179782.23000000001,"N_COORD97":2578752.1099999999,"ADDRESS":"信義街９３之４號","OBJECTID":516353},"geometry":{"x":179782.23000000138,"y":2578752.1100000013}},{"attributes":{"ID":516381,"DIS_CODE":0,"TOWNNAME":"新營區","LI":"大宏里","LIN":"1鄰","STREET":"民治路","SECT":" ","MAREA":" ","LANE":" ","ALLEY":" ","HOUSE_NO":"２３之３號","E_COORD97":180398.48000000001,"N_COORD97":2578838.9100000001,"ADDRESS":"民治路２３之３號","OBJECTID":516354},"geometry":{"x":180398.48000000045,"y":2578838.910000002}},{"attributes":{"ID":516382,"DIS_CODE":0,"TOWNNAME":"新營區","LI":"新北里","LIN":"1鄰","STREET":"三興街","SECT":" ","MAREA":" ","LANE":" ","ALLEY":" ","HOUSE_NO":"５７號之４","E_COORD97":179423.75,"N_COORD97":2578928.79,"ADDRESS":"三興街５７號之４","OBJECTID":516355},"geometry":{"x":179423.75000000093,"y":2578928.7900000028}},{"attributes":{"ID":516383,"DIS_CODE":0,"TOWNNAME":"新營區","LI":"新北里","LIN":"1鄰","STREET":"三興街","SECT":" ","MAREA":" ","LANE":" ","ALLEY":" ","HOUSE_NO":"５３號之３","E_COORD97":179436.01999999999,"N_COORD97":2578912.1099999999,"ADDRESS":"三興街５３號之３","OBJECTID":516356},"geometry":{"x":179436.01999999955,"y":2578912.1099999994}},{"attributes":{"ID":516384,"DIS_CODE":0,"TOWNNAME":"新營區","LI":"新北里","LIN":"1鄰","STREET":"三興街","SECT":" ","MAREA":" ","LANE":" ","ALLEY":" ","HOUSE_NO":"５３號之４","E_COORD97":179435.97,"N_COORD97":2578915.4399999999,"ADDRESS":"三興街５３號之４","OBJECTID":516357},"geometry":{"x":179435.97000000067,"y":2578915.4400000013}},{"attributes":{"ID":516385,"DIS_CODE":0,"TOWNNAME":"新營區","LI":"民生里","LIN":"1鄰","STREET":"復興路","SECT":" ","MAREA":" ","LANE":" ","ALLEY":" ","HOUSE_NO":"１２６號","E_COORD97":179425.84,"N_COORD97":2578059.3700000001,"ADDRESS":"復興路１２６號","OBJECTID":516358},"geometry":{"x":179425.83999999985,"y":2578059.3700000029}},{"attributes":{"ID":516386,"DIS_CODE":0,"TOWNNAME":"新營區","LI":"王公里","LIN":"18鄰","STREET":"樂利街","SECT":" ","MAREA":" ","LANE":" ","ALLEY":" ","HOUSE_NO":"１３號","E_COORD97":180190.29000000001,"N_COORD97":2579266.1899999999,"ADDRESS":"樂利街１３號","OBJECTID":516359},"geometry":{"x":180190.29000000097,"y":2579266.1900000013}},{"attributes":{"ID":516387,"DIS_CODE":0,"TOWNNAME":"新營區","LI":"新東里","LIN":"1鄰","STREET":"開元路","SECT":" ","MAREA":" ","LANE":" ","ALLEY":" ","HOUSE_NO":"２１５號之２","E_COORD97":181691.64999999999,"N_COORD97":2579572.6600000001,"ADDRESS":"開元路２１５號之２","OBJECTID":516360},"geometry":{"x":181691.6500000013,"y":2579572.660000002}},{"attributes":{"ID":516388,"DIS_CODE":0,"TOWNNAME":"新營區","LI":"中營里","LIN":"1鄰","STREET":"文昌街","SECT":" ","MAREA":" ","LANE":" ","ALLEY":" ","HOUSE_NO":"３３號之４","E_COORD97":180243.14000000001,"N_COORD97":2578284.7999999998,"ADDRESS":"文昌街３３號之４","OBJECTID":516361},"geometry":{"x":180243.1400000006,"y":2578284.8000000007}},{"attributes":{"ID":516389,"DIS_CODE":0,"TOWNNAME":"新營區","LI":"中營里","LIN":"1鄰","STREET":"中山路","SECT":" ","MAREA":" ","LANE":" ","ALLEY":" ","HOUSE_NO":"１２０號之２","E_COORD97":180284.14000000001,"N_COORD97":2578248.0699999998,"ADDRESS":"中山路１２０號之２","OBJECTID":516362},"geometry":{"x":180284.1400000006,"y":2578248.0700000022}},{"attributes":{"ID":516390,"DIS_CODE":0,"TOWNNAME":"新營區","LI":"永生里","LIN":"1鄰","STREET":"中興路","SECT":" ","MAREA":" ","LANE":" ","ALLEY":" ","HOUSE_NO":"６之１號","E_COORD97":180126.64000000001,"N_COORD97":2578083.7799999998,"ADDRESS":"中興路６之１號","OBJECTID":516363},"geometry":{"x":180126.63999999966,"y":2578083.7799999993}},{"attributes":{"ID":516391,"DIS_CODE":0,"TOWNNAME":"新營區","LI":"中營里","LIN":"1鄰","STREET":"中山路","SECT":" ","MAREA":" ","LANE":" ","ALLEY":" ","HOUSE_NO":"１４０號","E_COORD97":180146.59,"N_COORD97":2578193.2799999998,"ADDRESS":"中山路１４０號","OBJECTID":516364},"geometry":{"x":180146.58999999892,"y":2578193.2800000031}},{"attributes":{"ID":516392,"DIS_CODE":0,"TOWNNAME":"新營區","LI":"南興里","LIN":"1鄰","STREET":"延平路","SECT":" ","MAREA":" ","LANE":" ","ALLEY":" ","HOUSE_NO":"１１４號","E_COORD97":179711.34,"N_COORD97":2577651.5800000001,"ADDRESS":"延平路１１４號","OBJECTID":516365},"geometry":{"x":179711.34000000078,"y":2577651.5800000001}},{"attributes":{"ID":516393,"DIS_CODE":0,"TOWNNAME":"新營區","LI":"中營里","LIN":"1鄰","STREET":"中山路","SECT":" ","MAREA":" ","LANE":" ","ALLEY":" ","HOUSE_NO":"１４０之１號","E_COORD97":180152.39999999999,"N_COORD97":2578244.2599999998,"ADDRESS":"中山路１４０之１號","OBJECTID":516366},"geometry":{"x":180152.4000000013,"y":2578244.2599999998}},{"attributes":{"ID":516394,"DIS_CODE":0,"TOWNNAME":"新營區","LI":"中營里","LIN":"1鄰","STREET":"中山路","SECT":" ","MAREA":" ","LANE":" ","ALLEY":" ","HOUSE_NO":"１２０號之３","E_COORD97":180281.01999999999,"N_COORD97":2578246.9700000002,"ADDRESS":"中山路１２０號之３","OBJECTID":516367},"geometry":{"x":180281.02000000048,"y":2578246.9700000007}},{"attributes":{"ID":516395,"DIS_CODE":0,"TOWNNAME":"新營區","LI":"中營里","LIN":"1鄰","STREET":"中山路","SECT":" ","MAREA":" ","LANE":" ","ALLEY":" ","HOUSE_NO":"１４４號","E_COORD97":180135.35000000001,"N_COORD97":2578196.6499999999,"ADDRESS":"中山路１４４號","OBJECTID":516368},"geometry":{"x":180135.34999999963,"y":2578196.6500000022}},{"attributes":{"ID":516396,"DIS_CODE":0,"TOWNNAME":"新營區","LI":"中營里","LIN":"1鄰","STREET":"中山路","SECT":" ","MAREA":" ","LANE":" ","ALLEY":" ","HOUSE_NO":"１３４號","E_COORD97":180206.01999999999,"N_COORD97":2578214.0499999998,"ADDRESS":"中山路１３４號","OBJECTID":516369},"geometry":{"x":180206.01999999955,"y":2578214.0500000026}},{"attributes":{"ID":516397,"DIS_CODE":0,"TOWNNAME":"新營區","LI":"中營里","LIN":"1鄰","STREET":"中山路","SECT":" ","MAREA":" ","LANE":" ","ALLEY":" ","HOUSE_NO":"１１８號","E_COORD97":180295.20000000001,"N_COORD97":2578254.5899999999,"ADDRESS":"中山路１１８號","OBJECTID":516370},"geometry":{"x":180295.20000000019,"y":2578254.5899999999}},{"attributes":{"ID":516398,"DIS_CODE":0,"TOWNNAME":"新營區","LI":"新東里","LIN":"1鄰","STREET":"開元路","SECT":" ","MAREA":" ","LANE":" ","ALLEY":" ","HOUSE_NO":"１８５號","E_COORD97":181540.16,"N_COORD97":2579388.3599999999,"ADDRESS":"開元路１８５號","OBJECTID":516371},"geometry":{"x":181540.16000000108,"y":2579388.3599999994}},{"attributes":{"ID":516399,"DIS_CODE":0,"TOWNNAME":"新營區","LI":"中營里","LIN":"1鄰","STREET":"中山路","SECT":" ","MAREA":" ","LANE":" ","ALLEY":" ","HOUSE_NO":"１３８之５號","E_COORD97":180170.76999999999,"N_COORD97":2578236.4199999999,"ADDRESS":"中山路１３８之５號","OBJECTID":516372},"geometry":{"x":180170.77000000048,"y":2578236.4199999999}},{"attributes":{"ID":516400,"DIS_CODE":0,"TOWNNAME":"新營區","LI":"中營里","LIN":"1鄰","STREET":"中山路","SECT":" ","MAREA":" ","LANE":" ","ALLEY":" ","HOUSE_NO":"１２０號之１","E_COORD97":180288.10999999999,"N_COORD97":2578250.2599999998,"ADDRESS":"中山路１２０號之１","OBJECTID":516373},"geometry":{"x":180288.11000000127,"y":2578250.2599999998}},{"attributes":{"ID":516401,"DIS_CODE":0,"TOWNNAME":"新營區","LI":"大宏里","LIN":"1鄰","STREET":"民族路","SECT":" ","MAREA":" ","LANE":" ","ALLEY":" ","HOUSE_NO":"６８號","E_COORD97":180282.53,"N_COORD97":2578868.1800000002,"ADDRESS":"民族路６８號","OBJECTID":516374},"geometry":{"x":180282.53000000026,"y":2578868.1799999997}},{"attributes":{"ID":516402,"DIS_CODE":0,"TOWNNAME":"新營區","LI":"新東里","LIN":"1鄰","STREET":"開元路","SECT":" ","MAREA":" ","LANE":" ","ALLEY":" ","HOUSE_NO":"２２７號","E_COORD97":181731.44,"N_COORD97":2579597.8900000001,"ADDRESS":"開元路２２７號","OBJECTID":516375},"geometry":{"x":181731.44000000041,"y":2579597.8900000025}},{"attributes":{"ID":516403,"DIS_CODE":0,"TOWNNAME":"新營區","LI":"中營里","LIN":"1鄰","STREET":"中山路","SECT":" ","MAREA":" ","LANE":" ","ALLEY":" ","HOUSE_NO":"１３８號","E_COORD97":180175.26000000001,"N_COORD97":2578199.79,"ADDRESS":"中山路１３８號","OBJECTID":516376},"geometry":{"x":180175.25999999978,"y":2578199.7900000028}},{"attributes":{"ID":516404,"DIS_CODE":0,"TOWNNAME":"新營區","LI":"南興里","LIN":"1鄰","STREET":"南昌街","SECT":" ","MAREA":" ","LANE":" ","ALLEY":" ","HOUSE_NO":"３號","E_COORD97":179692.57999999999,"N_COORD97":2577656.0899999999,"ADDRESS":"南昌街３號","OBJECTID":516377},"geometry":{"x":179692.57999999914,"y":2577656.0900000036}},{"attributes":{"ID":516405,"DIS_CODE":0,"TOWNNAME":"新營區","LI":"新北里","LIN":"1鄰","STREET":"三興街","SECT":" ","MAREA":" ","LANE":" ","ALLEY":" ","HOUSE_NO":"５３號之１","E_COORD97":179434.87,"N_COORD97":2578904.3700000001,"ADDRESS":"三興街５３號之１","OBJECTID":516378},"geometry":{"x":179434.87000000197,"y":2578904.3700000029}},{"attributes":{"ID":516406,"DIS_CODE":0,"TOWNNAME":"新營區","LI":"新北里","LIN":"1鄰","STREET":"三興街","SECT":" ","MAREA":" ","LANE":" ","ALLEY":" ","HOUSE_NO":"５７號之７","E_COORD97":179412.54999999999,"N_COORD97":2578928.8500000001,"ADDRESS":"三興街５７號之７","OBJECTID":516379},"geometry":{"x":179412.54999999981,"y":2578928.8500000034}},{"attributes":{"ID":516407,"DIS_CODE":0,"TOWNNAME":"新營區","LI":"新東里","LIN":"1鄰","STREET":"開元路","SECT":" ","MAREA":" ","LANE":" ","ALLEY":" ","HOUSE_NO":"２３５號","E_COORD97":181684.42999999999,"N_COORD97":2579608.0699999998,"ADDRESS":"開元路２３５號","OBJECTID":516380},"geometry":{"x":181684.4299999997,"y":2579608.0700000003}},{"attributes":{"ID":516408,"DIS_CODE":0,"TOWNNAME":"新營區","LI":"新北里","LIN":"1鄰","STREET":"三興街","SECT":" ","MAREA":" ","LANE":" ","ALLEY":" ","HOUSE_NO":"５３號之２","E_COORD97":179436.04000000001,"N_COORD97":2578907.6899999999,"ADDRESS":"三興街５３號之２","OBJECTID":516381},"geometry":{"x":179436.04000000097,"y":2578907.6900000013}},{"attributes":{"ID":516409,"DIS_CODE":0,"TOWNNAME":"新營區","LI":"永生里","LIN":"1鄰","STREET":"中興路","SECT":" ","MAREA":" ","LANE":" ","ALLEY":" ","HOUSE_NO":"２４之５號","E_COORD97":180127.57000000001,"N_COORD97":2578000.73,"ADDRESS":"中興路２４之５號","OBJECTID":516382},"geometry":{"x":180127.57000000123,"y":2578000.7300000004}},{"attributes":{"ID":516410,"DIS_CODE":0,"TOWNNAME":"新營區","LI":"新東里","LIN":"1鄰","STREET":"開元路","SECT":" ","MAREA":" ","LANE":" ","ALLEY":" ","HOUSE_NO":"２０３號","E_COORD97":181626.67999999999,"N_COORD97":2579504.2400000002,"ADDRESS":"開元路２０３號","OBJECTID":516383},"geometry":{"x":181626.6799999997,"y":2579504.2400000021}},{"attributes":{"ID":516411,"DIS_CODE":0,"TOWNNAME":"新營區","LI":"民生里","LIN":"6鄰","STREET":"民生路","SECT":" ","MAREA":" ","LANE":" ","ALLEY":" ","HOUSE_NO":"２０號之２","E_COORD97":179380.81,"N_COORD97":2578205.8300000001,"ADDRESS":"民生路２０號之２","OBJECTID":516384},"geometry":{"x":179380.81000000052,"y":2578205.8300000001}},{"attributes":{"ID":516412,"DIS_CODE":0,"TOWNNAME":"新營區","LI":"新東里","LIN":"1鄰","STREET":"開元路","SECT":" ","MAREA":" ","LANE":" ","ALLEY":" ","HOUSE_NO":"２２９號","E_COORD97":181737.60000000001,"N_COORD97":2579604.5,"ADDRESS":"開元路２２９號","OBJECTID":516385},"geometry":{"x":181737.59999999963,"y":2579604.5000000019}},{"attributes":{"ID":516413,"DIS_CODE":0,"TOWNNAME":"新營區","LI":"新東里","LIN":"1鄰","STREET":"開元路","SECT":" ","MAREA":" ","LANE":" ","ALLEY":" ","HOUSE_NO":"２１３號","E_COORD97":181676.01999999999,"N_COORD97":2579557.1699999999,"ADDRESS":"開元路２１３號","OBJECTID":516386},"geometry":{"x":181676.02000000142,"y":2579557.1699999999}},{"attributes":{"ID":516414,"DIS_CODE":0,"TOWNNAME":"新營區","LI":"中營里","LIN":"1鄰","STREET":"中山路","SECT":" ","MAREA":" ","LANE":" ","ALLEY":" ","HOUSE_NO":"１２２號","E_COORD97":180269.57000000001,"N_COORD97":2578242.54,"ADDRESS":"中山路１２２號","OBJECTID":516387},"geometry":{"x":180269.57000000123,"y":2578242.540000001}},{"attributes":{"ID":516415,"DIS_CODE":0,"TOWNNAME":"新營區","LI":"新東里","LIN":"1鄰","STREET":"開元路","SECT":" ","MAREA":" ","LANE":" ","ALLEY":" ","HOUSE_NO":"２１５號之１","E_COORD97":181687.39000000001,"N_COORD97":2579563.8199999998,"ADDRESS":"開元路２１５號之１","OBJECTID":516388},"geometry":{"x":181687.3900000006,"y":2579563.820000004}},{"attributes":{"ID":516416,"DIS_CODE":0,"TOWNNAME":"新營區","LI":"三仙里","LIN":"1鄰","STREET":"民權路","SECT":" ","MAREA":" ","LANE":" ","ALLEY":" ","HOUSE_NO":"７號","E_COORD97":179746.47,"N_COORD97":2578029.0499999998,"ADDRESS":"民權路７號","OBJECTID":516389},"geometry":{"x":179746.46999999974,"y":2578029.0500000007}},{"attributes":{"ID":516417,"DIS_CODE":0,"TOWNNAME":"新營區","LI":"南興里","LIN":"1鄰","STREET":"南昌街","SECT":" ","MAREA":" ","LANE":" ","ALLEY":" ","HOUSE_NO":"７號","E_COORD97":179675.13,"N_COORD97":2577656.1699999999,"ADDRESS":"南昌街７號","OBJECTID":516390},"geometry":{"x":179675.13000000175,"y":2577656.1700000018}},{"attributes":{"ID":516418,"DIS_CODE":0,"TOWNNAME":"新營區","LI":"新東里","LIN":"1鄰","STREET":"開元路","SECT":" ","MAREA":" ","LANE":" ","ALLEY":" ","HOUSE_NO":"２１１號","E_COORD97":181667.79999999999,"N_COORD97":2579548.3399999999,"ADDRESS":"開元路２１１號","OBJECTID":516391},"geometry":{"x":181667.80000000075,"y":2579548.3399999999}},{"attributes":{"ID":516419,"DIS_CODE":0,"TOWNNAME":"新營區","LI":"新東里","LIN":"1鄰","STREET":"開元路","SECT":" ","MAREA":" ","LANE":" ","ALLEY":" ","HOUSE_NO":"２０９號","E_COORD97":181645.25,"N_COORD97":2579539.5899999999,"ADDRESS":"開元路２０９號","OBJECTID":516392},"geometry":{"x":181645.25,"y":2579539.5899999999}},{"attributes":{"ID":516420,"DIS_CODE":0,"TOWNNAME":"新營區","LI":"三仙里","LIN":"1鄰","STREET":"民權路","SECT":" ","MAREA":" ","LANE":" ","ALLEY":" ","HOUSE_NO":"９之１號","E_COORD97":179744.89000000001,"N_COORD97":2578045.7200000002,"ADDRESS":"民權路９之１號","OBJECTID":516393},"geometry":{"x":179744.8900000006,"y":2578045.7199999988}},{"attributes":{"ID":516421,"DIS_CODE":0,"TOWNNAME":"新營區","LI":"新東里","LIN":"1鄰","STREET":"開元路","SECT":" ","MAREA":" ","LANE":" ","ALLEY":" ","HOUSE_NO":"２１７號","E_COORD97":181695.54999999999,"N_COORD97":2579579.23,"ADDRESS":"開元路２１７號","OBJECTID":516394},"geometry":{"x":181695.54999999981,"y":2579579.2300000023}},{"attributes":{"ID":516422,"DIS_CODE":0,"TOWNNAME":"新營區","LI":"新東里","LIN":"1鄰","STREET":"開元路","SECT":" ","MAREA":" ","LANE":" ","ALLEY":" ","HOUSE_NO":"１８７號","E_COORD97":181538.19,"N_COORD97":2579403.8700000001,"ADDRESS":"開元路１８７號","OBJECTID":516395},"geometry":{"x":181538.19000000041,"y":2579403.870000001}},{"attributes":{"ID":516423,"DIS_CODE":0,"TOWNNAME":"新營區","LI":"中營里","LIN":"1鄰","STREET":"中山路","SECT":" ","MAREA":" ","LANE":" ","ALLEY":" ","HOUSE_NO":"１４２號","E_COORD97":180139.44,"N_COORD97":2578194.4199999999,"ADDRESS":"中山路１４２號","OBJECTID":516396},"geometry":{"x":180139.44000000041,"y":2578194.4200000018}},{"attributes":{"ID":516424,"DIS_CODE":0,"TOWNNAME":"新營區","LI":"永生里","LIN":"1鄰","STREET":"中興路","SECT":" ","MAREA":" ","LANE":" ","ALLEY":" ","HOUSE_NO":"６號","E_COORD97":180124.17999999999,"N_COORD97":2578089.27,"ADDRESS":"中興路６號","OBJECTID":516397},"geometry":{"x":180124.18000000063,"y":2578089.2700000014}},{"attributes":{"ID":516425,"DIS_CODE":0,"TOWNNAME":"新營區","LI":"新東里","LIN":"1鄰","STREET":"開元路","SECT":" ","MAREA":" ","LANE":" ","ALLEY":" ","HOUSE_NO":"２１９號","E_COORD97":181701.70999999999,"N_COORD97":2579584.7400000002,"ADDRESS":"開元路２１９號","OBJECTID":516398},"geometry":{"x":181701.70999999996,"y":2579584.7400000039}},{"attributes":{"ID":516426,"DIS_CODE":0,"TOWNNAME":"新營區","LI":"新東里","LIN":"1鄰","STREET":"開元路","SECT":" ","MAREA":" ","LANE":" ","ALLEY":" ","HOUSE_NO":"１８９號","E_COORD97":181548.45999999999,"N_COORD97":2579414.8900000001,"ADDRESS":"開元路１８９號","OBJECTID":516399},"geometry":{"x":181548.46000000089,"y":2579414.8900000025}},{"attributes":{"ID":516427,"DIS_CODE":0,"TOWNNAME":"新營區","LI":"新東里","LIN":"1鄰","STREET":"開元路","SECT":" ","MAREA":" ","LANE":" ","ALLEY":" ","HOUSE_NO":"１９７號","E_COORD97":181609.03,"N_COORD97":2579463.3500000001,"ADDRESS":"開元路１９７號","OBJECTID":516400},"geometry":{"x":181609.03000000119,"y":2579463.3499999996}}]}