{"displayFieldName":"TOWNNAME","fieldAliases":{"ID":"ID","DIS_CODE":"DIS_CODE","TOWNNAME":"TOWNNAME","LI":"LI","LIN":"LIN","STREET":"STREET","SECT":"SECT","MAREA":"MAREA","LANE":"LANE","ALLEY":"ALLEY","HOUSE_NO":"HOUSE_NO","E_COORD97":"E_COORD97","N_COORD97":"N_COORD97","ADDRESS":"ADDRESS","OBJECTID":"OBJECTID"},"geometryType":"esriGeometryPoint","spatialReference":{"wkid":102443,"latestWkid":3826},"fields":[{"name":"ID","type":"esriFieldTypeDouble","alias":"ID"},{"name":"DIS_CODE","type":"esriFieldTypeInteger","alias":"DIS_CODE"},{"name":"TOWNNAME","type":"esriFieldTypeString","alias":"TOWNNAME","length":8},{"name":"LI","type":"esriFieldTypeString","alias":"LI","length":8},{"name":"LIN","type":"esriFieldTypeString","alias":"LIN","length":12},{"name":"STREET","type":"esriFieldTypeString","alias":"STREET","length":20},{"name":"SECT","type":"esriFieldTypeString","alias":"SECT","length":8},{"name":"MAREA","type":"esriFieldTypeString","alias":"MAREA","length":12},{"name":"LANE","type":"esriFieldTypeString","alias":"LANE","length":10},{"name":"ALLEY","type":"esriFieldTypeString","alias":"ALLEY","length":10},{"name":"HOUSE_NO","type":"esriFieldTypeString","alias":"HOUSE_NO","length":20},{"name":"E_COORD97","type":"esriFieldTypeDouble","alias":"E_COORD97"},{"name":"N_COORD97","type":"esriFieldTypeDouble","alias":"N_COORD97"},{"name":"ADDRESS","type":"esriFieldTypeString","alias":"ADDRESS","length":50},{"name":"OBJECTID","type":"esriFieldTypeOID","alias":"OBJECTID"}],"features":[{"attributes":{"ID":222405,"DIS_CODE":0,"TOWNNAME":"南區","LI":"金華里","LIN":"9鄰","STREET":"金華路","SECT":"二段","MAREA":" ","LANE":"７１巷","ALLEY":" ","HOUSE_NO":"１９號","E_COORD97":166926.04000000001,"N_COORD97":2542171.71,"ADDRESS":"金華路二段７１巷１９號","OBJECTID":222401},"geometry":{"x":166926.04000000004,"y":2542171.7100000009}},{"attributes":{"ID":222406,"DIS_CODE":0,"TOWNNAME":"南區","LI":"金華里","LIN":"9鄰","STREET":"金華路","SECT":"二段","MAREA":" ","LANE":"７１巷","ALLEY":" ","HOUSE_NO":"２８號","E_COORD97":166910.39000000001,"N_COORD97":2542193.6600000001,"ADDRESS":"金華路二段７１巷２８號","OBJECTID":222402},"geometry":{"x":166910.3900000006,"y":2542193.660000002}},{"attributes":{"ID":222407,"DIS_CODE":0,"TOWNNAME":"東區","LI":"中西里","LIN":"9鄰","STREET":"勝利路","SECT":" ","MAREA":" ","LANE":"５２巷","ALLEY":" ","HOUSE_NO":"１號之３","E_COORD97":169847.88,"N_COORD97":2543567.3799999999,"ADDRESS":"勝利路５２巷１號之３","OBJECTID":222403},"geometry":{"x":169847.87999999989,"y":2543567.3800000008}},{"attributes":{"ID":222408,"DIS_CODE":0,"TOWNNAME":"安南區","LI":"佃東里","LIN":"9鄰","STREET":"海佃路","SECT":"四段","MAREA":" ","LANE":"３８８巷","ALLEY":" ","HOUSE_NO":"１１７號","E_COORD97":165587.10999999999,"N_COORD97":2551893.5299999998,"ADDRESS":"海佃路四段３８８巷１１７號","OBJECTID":222404},"geometry":{"x":165587.1100000022,"y":2551893.5300000012}},{"attributes":{"ID":222409,"DIS_CODE":0,"TOWNNAME":"安南區","LI":"佃東里","LIN":"9鄰","STREET":"海佃路","SECT":"四段","MAREA":" ","LANE":"３８８巷","ALLEY":" ","HOUSE_NO":"１１９號","E_COORD97":165588.85000000001,"N_COORD97":2551898.6899999999,"ADDRESS":"海佃路四段３８８巷１１９號","OBJECTID":222405},"geometry":{"x":165588.85000000056,"y":2551898.6900000013}},{"attributes":{"ID":222410,"DIS_CODE":0,"TOWNNAME":"安南區","LI":"佃東里","LIN":"9鄰","STREET":"海佃路","SECT":"四段","MAREA":" ","LANE":"３８８巷","ALLEY":" ","HOUSE_NO":"１２３號","E_COORD97":165588.20999999999,"N_COORD97":2551903.9399999999,"ADDRESS":"海佃路四段３８８巷１２３號","OBJECTID":222406},"geometry":{"x":165588.21000000089,"y":2551903.9400000013}},{"attributes":{"ID":222411,"DIS_CODE":0,"TOWNNAME":"安南區","LI":"頂安里","LIN":"9鄰","STREET":"頂安街","SECT":" ","MAREA":" ","LANE":"２６０巷","ALLEY":" ","HOUSE_NO":"３９號","E_COORD97":169158.70999999999,"N_COORD97":2549480.1499999999,"ADDRESS":"頂安街２６０巷３９號","OBJECTID":222407},"geometry":{"x":169158.70999999996,"y":2549480.1500000022}},{"attributes":{"ID":222412,"DIS_CODE":0,"TOWNNAME":"安南區","LI":"淵西里","LIN":"9鄰","STREET":"安中路","SECT":"四段","MAREA":" ","LANE":"２９０巷","ALLEY":" ","HOUSE_NO":"５５號","E_COORD97":164644.38,"N_COORD97":2550252.9500000002,"ADDRESS":"安中路四段２９０巷５５號","OBJECTID":222408},"geometry":{"x":164644.38000000082,"y":2550252.9500000011}},{"attributes":{"ID":222413,"DIS_CODE":0,"TOWNNAME":"安南區","LI":"淵西里","LIN":"9鄰","STREET":"安中路","SECT":"四段","MAREA":" ","LANE":"２９０巷","ALLEY":" ","HOUSE_NO":"５７號","E_COORD97":164649.14999999999,"N_COORD97":2550253.3999999999,"ADDRESS":"安中路四段２９０巷５７號","OBJECTID":222409},"geometry":{"x":164649.15000000037,"y":2550253.4000000041}},{"attributes":{"ID":222414,"DIS_CODE":0,"TOWNNAME":"安南區","LI":"淵西里","LIN":"9鄰","STREET":"安中路","SECT":"四段","MAREA":" ","LANE":"２９０巷","ALLEY":" ","HOUSE_NO":"５９號","E_COORD97":164653.23999999999,"N_COORD97":2550253.8599999999,"ADDRESS":"安中路四段２９０巷５９號","OBJECTID":222410},"geometry":{"x":164653.24000000022,"y":2550253.8600000013}},{"attributes":{"ID":222415,"DIS_CODE":0,"TOWNNAME":"安南區","LI":"淵西里","LIN":"9鄰","STREET":"安中路","SECT":"四段","MAREA":" ","LANE":"２９０巷","ALLEY":" ","HOUSE_NO":"５９號之１","E_COORD97":164645.97,"N_COORD97":2550266.7999999998,"ADDRESS":"安中路四段２９０巷５９號之１","OBJECTID":222411},"geometry":{"x":164645.96999999974,"y":2550266.8000000007}},{"attributes":{"ID":222416,"DIS_CODE":0,"TOWNNAME":"關廟區","LI":"東勢里","LIN":"28鄰","STREET":"東榮街","SECT":" ","MAREA":" ","LANE":"１４３巷","ALLEY":" ","HOUSE_NO":"１號","E_COORD97":182225.23000000001,"N_COORD97":2539359.1099999999,"ADDRESS":"東榮街１４３巷１號","OBJECTID":222412},"geometry":{"x":182225.23000000138,"y":2539359.1100000013}},{"attributes":{"ID":222417,"DIS_CODE":0,"TOWNNAME":"中西區","LI":"文賢里","LIN":"1鄰","STREET":"文和街","SECT":" ","MAREA":" ","LANE":" ","ALLEY":" ","HOUSE_NO":"８號之２","E_COORD97":167292.41,"N_COORD97":2545008.02,"ADDRESS":"文和街８號之２","OBJECTID":222413},"geometry":{"x":167292.41000000108,"y":2545008.0200000014}},{"attributes":{"ID":222418,"DIS_CODE":0,"TOWNNAME":"中西區","LI":"文賢里","LIN":"1鄰","STREET":"文賢路","SECT":" ","MAREA":" ","LANE":" ","ALLEY":" ","HOUSE_NO":"２２５號","E_COORD97":167331.64999999999,"N_COORD97":2544987.8999999999,"ADDRESS":"文賢路２２５號","OBJECTID":222414},"geometry":{"x":167331.6500000013,"y":2544987.9000000004}},{"attributes":{"ID":222419,"DIS_CODE":0,"TOWNNAME":"中西區","LI":"文賢里","LIN":"1鄰","STREET":"文賢路","SECT":" ","MAREA":" ","LANE":" ","ALLEY":" ","HOUSE_NO":"２３１號","E_COORD97":167328.54000000001,"N_COORD97":2545033.7799999998,"ADDRESS":"文賢路２３１號","OBJECTID":222415},"geometry":{"x":167328.54000000097,"y":2545033.7799999993}},{"attributes":{"ID":222420,"DIS_CODE":0,"TOWNNAME":"中西區","LI":"文賢里","LIN":"1鄰","STREET":"文賢路","SECT":" ","MAREA":" ","LANE":" ","ALLEY":" ","HOUSE_NO":"２３３號","E_COORD97":167329.16,"N_COORD97":2545038.21,"ADDRESS":"文賢路２３３號","OBJECTID":222416},"geometry":{"x":167329.16000000201,"y":2545038.2100000028}},{"attributes":{"ID":222421,"DIS_CODE":0,"TOWNNAME":"中西區","LI":"文賢里","LIN":"1鄰","STREET":"文賢路","SECT":" ","MAREA":" ","LANE":" ","ALLEY":" ","HOUSE_NO":"２３５號","E_COORD97":167328.66,"N_COORD97":2545042.5699999998,"ADDRESS":"文賢路２３５號","OBJECTID":222417},"geometry":{"x":167328.66000000015,"y":2545042.5700000022}},{"attributes":{"ID":222422,"DIS_CODE":0,"TOWNNAME":"中西區","LI":"文賢里","LIN":"1鄰","STREET":"文賢路","SECT":" ","MAREA":" ","LANE":" ","ALLEY":" ","HOUSE_NO":"２３７號","E_COORD97":167328.04000000001,"N_COORD97":2545047.29,"ADDRESS":"文賢路２３７號","OBJECTID":222418},"geometry":{"x":167328.04000000004,"y":2545047.2899999991}},{"attributes":{"ID":222423,"DIS_CODE":0,"TOWNNAME":"中西區","LI":"文賢里","LIN":"1鄰","STREET":"文賢路","SECT":" ","MAREA":" ","LANE":" ","ALLEY":" ","HOUSE_NO":"２３９號","E_COORD97":167328.54000000001,"N_COORD97":2545051.6499999999,"ADDRESS":"文賢路２３９號","OBJECTID":222419},"geometry":{"x":167328.54000000097,"y":2545051.6500000022}},{"attributes":{"ID":222424,"DIS_CODE":0,"TOWNNAME":"中西區","LI":"光賢里","LIN":"1鄰","STREET":"武聖路","SECT":" ","MAREA":" ","LANE":" ","ALLEY":" ","HOUSE_NO":"１１號","E_COORD97":167288.54000000001,"N_COORD97":2545083.5699999998,"ADDRESS":"武聖路１１號","OBJECTID":222420},"geometry":{"x":167288.54000000004,"y":2545083.5700000022}},{"attributes":{"ID":222425,"DIS_CODE":0,"TOWNNAME":"中西區","LI":"光賢里","LIN":"1鄰","STREET":"武聖路","SECT":" ","MAREA":" ","LANE":" ","ALLEY":" ","HOUSE_NO":"１５號","E_COORD97":167279.22,"N_COORD97":2545085.0499999998,"ADDRESS":"武聖路１５號","OBJECTID":222421},"geometry":{"x":167279.2200000016,"y":2545085.0500000007}},{"attributes":{"ID":222426,"DIS_CODE":0,"TOWNNAME":"歸仁區","LI":"歸南里","LIN":"28鄰","STREET":"民生南街","SECT":"二段","MAREA":" ","LANE":" ","ALLEY":" ","HOUSE_NO":"２５８號","E_COORD97":176046.76000000001,"N_COORD97":2540056.25,"ADDRESS":"民生南街二段２５８號","OBJECTID":222422},"geometry":{"x":176046.76000000071,"y":2540056.2500000019}},{"attributes":{"ID":222427,"DIS_CODE":0,"TOWNNAME":"歸仁區","LI":"歸仁里","LIN":"28鄰","STREET":"中山路","SECT":"一段","MAREA":" ","LANE":" ","ALLEY":" ","HOUSE_NO":"２５２號","E_COORD97":178712.41,"N_COORD97":2540606.25,"ADDRESS":"中山路一段２５２號","OBJECTID":222423},"geometry":{"x":178712.41000000201,"y":2540606.2500000019}},{"attributes":{"ID":222428,"DIS_CODE":0,"TOWNNAME":"安南區","LI":"淵西里","LIN":"9鄰","STREET":"安中路","SECT":"四段","MAREA":" ","LANE":"２９０巷","ALLEY":" ","HOUSE_NO":"５９號之２","E_COORD97":164643.47,"N_COORD97":2550273.1499999999,"ADDRESS":"安中路四段２９０巷５９號之２","OBJECTID":222424},"geometry":{"x":164643.47000000067,"y":2550273.1500000022}},{"attributes":{"ID":222429,"DIS_CODE":0,"TOWNNAME":"歸仁區","LI":"歸南里","LIN":"28鄰","STREET":"民生南街","SECT":"二段","MAREA":" ","LANE":" ","ALLEY":" ","HOUSE_NO":"２６２號","E_COORD97":176067.26000000001,"N_COORD97":2540043.25,"ADDRESS":"民生南街二段２６２號","OBJECTID":222425},"geometry":{"x":176067.26000000071,"y":2540043.2500000019}},{"attributes":{"ID":222430,"DIS_CODE":0,"TOWNNAME":"歸仁區","LI":"歸南里","LIN":"28鄰","STREET":"民生南街","SECT":"二段","MAREA":" ","LANE":" ","ALLEY":" ","HOUSE_NO":"２７２號","E_COORD97":176047.66,"N_COORD97":2540028.25,"ADDRESS":"民生南街二段２７２號","OBJECTID":222426},"geometry":{"x":176047.66000000201,"y":2540028.25}},{"attributes":{"ID":222431,"DIS_CODE":0,"TOWNNAME":"官田區","LI":"隆本里","LIN":"9鄰","STREET":"中華路","SECT":"二段","MAREA":" ","LANE":"８３巷","ALLEY":" ","HOUSE_NO":"１號","E_COORD97":179848.06,"N_COORD97":2566758.3999999999,"ADDRESS":"中華路二段８３巷１號","OBJECTID":222427},"geometry":{"x":179848.05999999959,"y":2566758.4000000022}},{"attributes":{"ID":222432,"DIS_CODE":0,"TOWNNAME":"官田區","LI":"隆本里","LIN":"9鄰","STREET":"中華路","SECT":"二段","MAREA":" ","LANE":"８３巷","ALLEY":" ","HOUSE_NO":"３號","E_COORD97":179841.12,"N_COORD97":2566755.9500000002,"ADDRESS":"中華路二段８３巷３號","OBJECTID":222428},"geometry":{"x":179841.12000000011,"y":2566755.9499999993}},{"attributes":{"ID":222433,"DIS_CODE":0,"TOWNNAME":"仁德區","LI":"土庫里","LIN":"9鄰","STREET":"土庫路","SECT":" ","MAREA":" ","LANE":"５３巷","ALLEY":" ","HOUSE_NO":"２之１號","E_COORD97":174247.16,"N_COORD97":2543325.5499999998,"ADDRESS":"土庫路５３巷２之１號","OBJECTID":222429},"geometry":{"x":174247.15999999922,"y":2543325.5500000007}},{"attributes":{"ID":222434,"DIS_CODE":0,"TOWNNAME":"仁德區","LI":"上崙里","LIN":"9鄰","STREET":"德善路","SECT":" ","MAREA":" ","LANE":"３４９巷","ALLEY":" ","HOUSE_NO":"３號","E_COORD97":174012.22,"N_COORD97":2538449.8199999998,"ADDRESS":"德善路３４９巷３號","OBJECTID":222430},"geometry":{"x":174012.21999999974,"y":2538449.8200000022}},{"attributes":{"ID":222435,"DIS_CODE":0,"TOWNNAME":"仁德區","LI":"上崙里","LIN":"9鄰","STREET":"德善路","SECT":" ","MAREA":" ","LANE":"３４９巷","ALLEY":" ","HOUSE_NO":"５號","E_COORD97":174017.22,"N_COORD97":2538449.5699999998,"ADDRESS":"德善路３４９巷５號","OBJECTID":222431},"geometry":{"x":174017.21999999974,"y":2538449.5700000003}},{"attributes":{"ID":222436,"DIS_CODE":0,"TOWNNAME":"仁德區","LI":"土庫里","LIN":"9鄰","STREET":"土庫路","SECT":" ","MAREA":" ","LANE":"５３巷","ALLEY":" ","HOUSE_NO":"８號","E_COORD97":174254.51999999999,"N_COORD97":2543327.25,"ADDRESS":"土庫路５３巷８號","OBJECTID":222432},"geometry":{"x":174254.52000000048,"y":2543327.25}},{"attributes":{"ID":222437,"DIS_CODE":0,"TOWNNAME":"仁德區","LI":"上崙里","LIN":"9鄰","STREET":"德善路","SECT":" ","MAREA":" ","LANE":"３４９巷","ALLEY":" ","HOUSE_NO":"１號","E_COORD97":174005.97,"N_COORD97":2538448.0699999998,"ADDRESS":"德善路３４９巷１號","OBJECTID":222433},"geometry":{"x":174005.97000000067,"y":2538448.0700000022}},{"attributes":{"ID":222438,"DIS_CODE":0,"TOWNNAME":"仁德區","LI":"上崙里","LIN":"9鄰","STREET":"德善路","SECT":" ","MAREA":" ","LANE":"３０５巷","ALLEY":" ","HOUSE_NO":"１號","E_COORD97":173982.54999999999,"N_COORD97":2538544.52,"ADDRESS":"德善路３０５巷１號","OBJECTID":222434},"geometry":{"x":173982.54999999981,"y":2538544.5199999977}},{"attributes":{"ID":222439,"DIS_CODE":0,"TOWNNAME":"歸仁區","LI":"歸仁里","LIN":"28鄰","STREET":"中山路","SECT":"一段","MAREA":" ","LANE":" ","ALLEY":" ","HOUSE_NO":"２３６之５號","E_COORD97":178755.10999999999,"N_COORD97":2540658.2599999998,"ADDRESS":"中山路一段２３６之５號","OBJECTID":222435},"geometry":{"x":178755.11000000034,"y":2540658.2599999998}},{"attributes":{"ID":222440,"DIS_CODE":0,"TOWNNAME":"仁德區","LI":"上崙里","LIN":"9鄰","STREET":"德善路","SECT":" ","MAREA":" ","LANE":"３０５巷","ALLEY":" ","HOUSE_NO":"５號","E_COORD97":173990.67999999999,"N_COORD97":2538550.02,"ADDRESS":"德善路３０５巷５號","OBJECTID":222436},"geometry":{"x":173990.68000000156,"y":2538550.0199999996}},{"attributes":{"ID":222441,"DIS_CODE":0,"TOWNNAME":"歸仁區","LI":"歸仁里","LIN":"28鄰","STREET":"中山路","SECT":"一段","MAREA":" ","LANE":" ","ALLEY":" ","HOUSE_NO":"１４號","E_COORD97":179613.23000000001,"N_COORD97":2540324.5699999998,"ADDRESS":"中山路一段１４號","OBJECTID":222437},"geometry":{"x":179613.23000000045,"y":2540324.5700000003}},{"attributes":{"ID":222442,"DIS_CODE":0,"TOWNNAME":"仁德區","LI":"上崙里","LIN":"9鄰","STREET":"德善路","SECT":" ","MAREA":" ","LANE":"３０５巷","ALLEY":" ","HOUSE_NO":"１１號","E_COORD97":174004.28,"N_COORD97":2538553.77,"ADDRESS":"德善路３０５巷１１號","OBJECTID":222438},"geometry":{"x":174004.28000000119,"y":2538553.7700000014}},{"attributes":{"ID":222443,"DIS_CODE":0,"TOWNNAME":"仁德區","LI":"上崙里","LIN":"9鄰","STREET":"德善路","SECT":" ","MAREA":" ","LANE":"３０５巷","ALLEY":" ","HOUSE_NO":"７號","E_COORD97":173994.89999999999,"N_COORD97":2538551.27,"ADDRESS":"德善路３０５巷７號","OBJECTID":222439},"geometry":{"x":173994.89999999944,"y":2538551.2700000014}},{"attributes":{"ID":222444,"DIS_CODE":0,"TOWNNAME":"歸仁區","LI":"歸仁里","LIN":"28鄰","STREET":"中山路","SECT":"一段","MAREA":" ","LANE":" ","ALLEY":" ","HOUSE_NO":"２６號","E_COORD97":179587.73000000001,"N_COORD97":2540332.5699999998,"ADDRESS":"中山路一段２６號","OBJECTID":222440},"geometry":{"x":179587.73000000138,"y":2540332.5700000022}},{"attributes":{"ID":222445,"DIS_CODE":0,"TOWNNAME":"歸仁區","LI":"歸南里","LIN":"28鄰","STREET":"民生南街","SECT":"二段","MAREA":" ","LANE":" ","ALLEY":" ","HOUSE_NO":"２５０號","E_COORD97":176067.35999999999,"N_COORD97":2540063.25,"ADDRESS":"民生南街二段２５０號","OBJECTID":222441},"geometry":{"x":176067.36000000127,"y":2540063.2500000019}},{"attributes":{"ID":222446,"DIS_CODE":0,"TOWNNAME":"仁德區","LI":"上崙里","LIN":"9鄰","STREET":"德善路","SECT":" ","MAREA":" ","LANE":"３０５巷","ALLEY":" ","HOUSE_NO":"３號","E_COORD97":173987.70000000001,"N_COORD97":2538546.27,"ADDRESS":"德善路３０５巷３號","OBJECTID":222442},"geometry":{"x":173987.70000000205,"y":2538546.2699999977}},{"attributes":{"ID":222447,"DIS_CODE":0,"TOWNNAME":"仁德區","LI":"土庫里","LIN":"9鄰","STREET":"土庫路","SECT":" ","MAREA":" ","LANE":"５３巷","ALLEY":" ","HOUSE_NO":"６號","E_COORD97":174249.73000000001,"N_COORD97":2543326.25,"ADDRESS":"土庫路５３巷６號","OBJECTID":222443},"geometry":{"x":174249.73000000045,"y":2543326.25}},{"attributes":{"ID":222448,"DIS_CODE":0,"TOWNNAME":"歸仁區","LI":"媽廟里","LIN":"28鄰","STREET":"保大路","SECT":"一段","MAREA":" ","LANE":" ","ALLEY":" ","HOUSE_NO":"１４２號","E_COORD97":177739.82999999999,"N_COORD97":2544032.7200000002,"ADDRESS":"保大路一段１４２號","OBJECTID":222444},"geometry":{"x":177739.83000000194,"y":2544032.7200000007}},{"attributes":{"ID":222449,"DIS_CODE":0,"TOWNNAME":"仁德區","LI":"大甲里","LIN":"9鄰","STREET":"行大街","SECT":" ","MAREA":" ","LANE":"３０７巷","ALLEY":" ","HOUSE_NO":"６４號","E_COORD97":169653.48999999999,"N_COORD97":2535096.4900000002,"ADDRESS":"行大街３０７巷６４號","OBJECTID":222445},"geometry":{"x":169653.49000000115,"y":2535096.4900000002}},{"attributes":{"ID":222450,"DIS_CODE":0,"TOWNNAME":"歸仁區","LI":"媽廟里","LIN":"28鄰","STREET":"保大路","SECT":"一段","MAREA":" ","LANE":" ","ALLEY":" ","HOUSE_NO":"１３６號","E_COORD97":177753.13,"N_COORD97":2544033.7200000002,"ADDRESS":"保大路一段１３６號","OBJECTID":222446},"geometry":{"x":177753.13000000082,"y":2544033.7200000044}},{"attributes":{"ID":222451,"DIS_CODE":0,"TOWNNAME":"仁德區","LI":"大甲里","LIN":"9鄰","STREET":"行大街","SECT":" ","MAREA":" ","LANE":"３０７巷","ALLEY":" ","HOUSE_NO":"５４號","E_COORD97":169670.01999999999,"N_COORD97":2535136.75,"ADDRESS":"行大街３０７巷５４號","OBJECTID":222447},"geometry":{"x":169670.01999999955,"y":2535136.7500000019}},{"attributes":{"ID":222452,"DIS_CODE":0,"TOWNNAME":"歸仁區","LI":"歸仁里","LIN":"28鄰","STREET":"中山路","SECT":"一段","MAREA":" ","LANE":" ","ALLEY":" ","HOUSE_NO":"１６號","E_COORD97":179608.13,"N_COORD97":2540325.5699999998,"ADDRESS":"中山路一段１６號","OBJECTID":222448},"geometry":{"x":179608.13000000082,"y":2540325.5700000022}},{"attributes":{"ID":222453,"DIS_CODE":0,"TOWNNAME":"歸仁區","LI":"歸南里","LIN":"28鄰","STREET":"民生南街","SECT":"二段","MAREA":" ","LANE":" ","ALLEY":" ","HOUSE_NO":"２４６號","E_COORD97":176067.35999999999,"N_COORD97":2540072.25,"ADDRESS":"民生南街二段２４６號","OBJECTID":222449},"geometry":{"x":176067.36000000127,"y":2540072.25}},{"attributes":{"ID":222454,"DIS_CODE":0,"TOWNNAME":"仁德區","LI":"大甲里","LIN":"9鄰","STREET":"行大街","SECT":" ","MAREA":" ","LANE":"３０７巷","ALLEY":" ","HOUSE_NO":"５８號","E_COORD97":169663.04000000001,"N_COORD97":2535122.5,"ADDRESS":"行大街３０７巷５８號","OBJECTID":222450},"geometry":{"x":169663.04000000097,"y":2535122.5000000019}},{"attributes":{"ID":222455,"DIS_CODE":0,"TOWNNAME":"歸仁區","LI":"崙頂里","LIN":"28鄰","STREET":"成功路","SECT":"二段","MAREA":" ","LANE":" ","ALLEY":" ","HOUSE_NO":"２４８號","E_COORD97":177800.51000000001,"N_COORD97":2539642.8199999998,"ADDRESS":"成功路二段２４８號","OBJECTID":222451},"geometry":{"x":177800.50999999978,"y":2539642.8200000022}},{"attributes":{"ID":222456,"DIS_CODE":0,"TOWNNAME":"東區","LI":"崇善里","LIN":"9鄰","STREET":"仁和路","SECT":" ","MAREA":" ","LANE":"７０巷","ALLEY":" ","HOUSE_NO":"５號","E_COORD97":171077.82999999999,"N_COORD97":2541778.8900000001,"ADDRESS":"仁和路７０巷５號","OBJECTID":222452},"geometry":{"x":171077.83000000194,"y":2541778.8900000025}},{"attributes":{"ID":222457,"DIS_CODE":0,"TOWNNAME":"歸仁區","LI":"崙頂里","LIN":"28鄰","STREET":"成功路","SECT":"二段","MAREA":" ","LANE":" ","ALLEY":" ","HOUSE_NO":"２４６號","E_COORD97":177804.70999999999,"N_COORD97":2539642.8199999998,"ADDRESS":"成功路二段２４６號","OBJECTID":222453},"geometry":{"x":177804.70999999996,"y":2539642.8200000022}},{"attributes":{"ID":222458,"DIS_CODE":0,"TOWNNAME":"東區","LI":"崇善里","LIN":"9鄰","STREET":"仁和路","SECT":" ","MAREA":" ","LANE":"７０巷","ALLEY":" ","HOUSE_NO":"７號","E_COORD97":171071.28,"N_COORD97":2541777.4100000001,"ADDRESS":"仁和路７０巷７號","OBJECTID":222454},"geometry":{"x":171071.28000000026,"y":2541777.4100000039}},{"attributes":{"ID":222459,"DIS_CODE":0,"TOWNNAME":"歸仁區","LI":"歸仁里","LIN":"28鄰","STREET":"中山路","SECT":"一段","MAREA":" ","LANE":" ","ALLEY":" ","HOUSE_NO":"２３６之６號","E_COORD97":178806.20999999999,"N_COORD97":2540624.2599999998,"ADDRESS":"中山路一段２３６之６號","OBJECTID":222455},"geometry":{"x":178806.20999999996,"y":2540624.2599999998}},{"attributes":{"ID":222460,"DIS_CODE":0,"TOWNNAME":"東區","LI":"崇善里","LIN":"9鄰","STREET":"仁和路","SECT":" ","MAREA":" ","LANE":"７０巷","ALLEY":" ","HOUSE_NO":"９之１號","E_COORD97":171058.22,"N_COORD97":2541768.77,"ADDRESS":"仁和路７０巷９之１號","OBJECTID":222456},"geometry":{"x":171058.22000000067,"y":2541768.7700000014}},{"attributes":{"ID":222461,"DIS_CODE":0,"TOWNNAME":"歸仁區","LI":"媽廟里","LIN":"28鄰","STREET":"保大路","SECT":"一段","MAREA":" ","LANE":" ","ALLEY":" ","HOUSE_NO":"２號","E_COORD97":178157.91,"N_COORD97":2544044.7400000002,"ADDRESS":"保大路一段２號","OBJECTID":222457},"geometry":{"x":178157.91000000015,"y":2544044.7400000021}},{"attributes":{"ID":222462,"DIS_CODE":0,"TOWNNAME":"東區","LI":"崇善里","LIN":"9鄰","STREET":"仁和路","SECT":" ","MAREA":" ","LANE":"７０巷","ALLEY":" ","HOUSE_NO":"９之３號","E_COORD97":171062.01999999999,"N_COORD97":2541758.8700000001,"ADDRESS":"仁和路７０巷９之３號","OBJECTID":222458},"geometry":{"x":171062.01999999955,"y":2541758.8700000029}},{"attributes":{"ID":222463,"DIS_CODE":0,"TOWNNAME":"歸仁區","LI":"歸仁里","LIN":"28鄰","STREET":"中山路","SECT":"一段","MAREA":" ","LANE":" ","ALLEY":" ","HOUSE_NO":"４６號","E_COORD97":179512.92999999999,"N_COORD97":2540359.5699999998,"ADDRESS":"中山路一段４０號","OBJECTID":222459},"geometry":{"x":179512.9299999997,"y":2540359.5700000022}},{"attributes":{"ID":222464,"DIS_CODE":0,"TOWNNAME":"東區","LI":"崇善里","LIN":"9鄰","STREET":"仁和路","SECT":" ","MAREA":" ","LANE":"７０巷","ALLEY":" ","HOUSE_NO":"９之６號","E_COORD97":171065.81,"N_COORD97":2541748.9700000002,"ADDRESS":"仁和路７０巷９之６號","OBJECTID":222460},"geometry":{"x":171065.81000000052,"y":2541748.9700000007}},{"attributes":{"ID":222465,"DIS_CODE":0,"TOWNNAME":"東區","LI":"崇善里","LIN":"9鄰","STREET":"仁和路","SECT":" ","MAREA":" ","LANE":"７０巷","ALLEY":" ","HOUSE_NO":"１１之１號","E_COORD97":171040.10999999999,"N_COORD97":2541761.8199999998,"ADDRESS":"仁和路７０巷１１之１號","OBJECTID":222461},"geometry":{"x":171040.11000000034,"y":2541761.8200000022}},{"attributes":{"ID":222466,"DIS_CODE":0,"TOWNNAME":"東區","LI":"中西里","LIN":"9鄰","STREET":"勝利路","SECT":" ","MAREA":" ","LANE":"５２巷","ALLEY":" ","HOUSE_NO":"１號之１","E_COORD97":169833.84677599999,"N_COORD97":2543560.4912399999,"ADDRESS":"勝利路５２巷１號之１","OBJECTID":222462},"geometry":{"x":169833.84677600209,"y":2543560.4912359994}},{"attributes":{"ID":222467,"DIS_CODE":0,"TOWNNAME":"東區","LI":"仁和里","LIN":"9鄰","STREET":"仁和路","SECT":" ","MAREA":" ","LANE":"１１１巷","ALLEY":" ","HOUSE_NO":"１０５號","E_COORD97":171659.69,"N_COORD97":2541305.6699999999,"ADDRESS":"仁和路１１１巷１０５號","OBJECTID":222463},"geometry":{"x":171659.69000000041,"y":2541305.6699999999}},{"attributes":{"ID":222468,"DIS_CODE":0,"TOWNNAME":"東區","LI":"仁和里","LIN":"9鄰","STREET":"仁和路","SECT":" ","MAREA":" ","LANE":"１１１巷","ALLEY":" ","HOUSE_NO":"１０７號","E_COORD97":171664.32999999999,"N_COORD97":2541306.7200000002,"ADDRESS":"仁和路１１１巷１０７號","OBJECTID":222464},"geometry":{"x":171664.33000000194,"y":2541306.7200000007}},{"attributes":{"ID":222469,"DIS_CODE":0,"TOWNNAME":"歸仁區","LI":"南興里","LIN":"28鄰","STREET":"文化街","SECT":"三段","MAREA":" ","LANE":" ","ALLEY":" ","HOUSE_NO":"７８２號","E_COORD97":175322.94,"N_COORD97":2541210.8300000001,"ADDRESS":"文化街三段７８２號","OBJECTID":222465},"geometry":{"x":175322.94000000041,"y":2541210.8300000001}},{"attributes":{"ID":222470,"DIS_CODE":0,"TOWNNAME":"東區","LI":"仁和里","LIN":"9鄰","STREET":"仁和路","SECT":" ","MAREA":" ","LANE":"１１１巷","ALLEY":" ","HOUSE_NO":"１０９號","E_COORD97":171668.12,"N_COORD97":2541307.98,"ADDRESS":"仁和路１１１巷１０９號","OBJECTID":222466},"geometry":{"x":171668.12000000104,"y":2541307.9800000004}},{"attributes":{"ID":222471,"DIS_CODE":0,"TOWNNAME":"東區","LI":"仁和里","LIN":"9鄰","STREET":"仁和路","SECT":" ","MAREA":" ","LANE":"１１１巷","ALLEY":" ","HOUSE_NO":"１１１號","E_COORD97":171672.12,"N_COORD97":2541305.46,"ADDRESS":"仁和路１１１巷１１１號","OBJECTID":222467},"geometry":{"x":171672.12000000011,"y":2541305.4600000009}},{"attributes":{"ID":222472,"DIS_CODE":0,"TOWNNAME":"麻豆區","LI":"南勢里","LIN":"11鄰","STREET":" ","SECT":" ","MAREA":"南勢","LANE":" ","ALLEY":" ","HOUSE_NO":"２號之２","E_COORD97":174242.79999999999,"N_COORD97":2565401.1400000001,"ADDRESS":"南勢２號之２","OBJECTID":222468},"geometry":{"x":174242.80000000075,"y":2565401.1400000025}},{"attributes":{"ID":222473,"DIS_CODE":0,"TOWNNAME":"東區","LI":"中西里","LIN":"9鄰","STREET":"勝利路","SECT":" ","MAREA":" ","LANE":"５２巷","ALLEY":" ","HOUSE_NO":"３號之１","E_COORD97":169862.51999999999,"N_COORD97":2543598.4199999999,"ADDRESS":"勝利路５２巷３號之１","OBJECTID":222469},"geometry":{"x":169862.52000000048,"y":2543598.4200000018}},{"attributes":{"ID":222474,"DIS_CODE":0,"TOWNNAME":"東區","LI":"大德里","LIN":"9鄰","STREET":"立德十一路","SECT":" ","MAREA":" ","LANE":"８１巷","ALLEY":" ","HOUSE_NO":"３３號","E_COORD97":169532.48000000001,"N_COORD97":2542170.7599999998,"ADDRESS":"立德十一路８１巷３３號","OBJECTID":222470},"geometry":{"x":169532.48000000045,"y":2542170.7599999998}},{"attributes":{"ID":222475,"DIS_CODE":0,"TOWNNAME":"東區","LI":"大德里","LIN":"9鄰","STREET":"立德十一路","SECT":" ","MAREA":" ","LANE":"８１巷","ALLEY":" ","HOUSE_NO":"３５號","E_COORD97":169530.57000000001,"N_COORD97":2542175.8399999999,"ADDRESS":"立德十一路８１巷３５號","OBJECTID":222471},"geometry":{"x":169530.57000000123,"y":2542175.8399999999}},{"attributes":{"ID":222476,"DIS_CODE":0,"TOWNNAME":"東區","LI":"大德里","LIN":"9鄰","STREET":"立德十一路","SECT":" ","MAREA":" ","LANE":"８１巷","ALLEY":" ","HOUSE_NO":"３７號","E_COORD97":169529.29999999999,"N_COORD97":2542182.8399999999,"ADDRESS":"立德十一路８１巷３７號","OBJECTID":222472},"geometry":{"x":169529.29999999981,"y":2542182.8399999999}},{"attributes":{"ID":222477,"DIS_CODE":0,"TOWNNAME":"東區","LI":"中西里","LIN":"9鄰","STREET":"勝利路","SECT":" ","MAREA":" ","LANE":"５２巷","ALLEY":" ","HOUSE_NO":"３號","E_COORD97":169865.20999999999,"N_COORD97":2543578.4199999999,"ADDRESS":"勝利路５２巷３號","OBJECTID":222473},"geometry":{"x":169865.21000000089,"y":2543578.4200000018}},{"attributes":{"ID":222478,"DIS_CODE":0,"TOWNNAME":"東區","LI":"中西里","LIN":"9鄰","STREET":"勝利路","SECT":" ","MAREA":" ","LANE":"５２巷","ALLEY":" ","HOUSE_NO":"３號之２","E_COORD97":169868.20000000001,"N_COORD97":2543580.5099999998,"ADDRESS":"勝利路５２巷３號之２","OBJECTID":222474},"geometry":{"x":169868.20000000019,"y":2543580.5100000016}},{"attributes":{"ID":222479,"DIS_CODE":0,"TOWNNAME":"東區","LI":"中西里","LIN":"9鄰","STREET":"勝利路","SECT":" ","MAREA":" ","LANE":"５２巷","ALLEY":" ","HOUSE_NO":"３號之３","E_COORD97":169872.67999999999,"N_COORD97":2543583.5,"ADDRESS":"勝利路５２巷３號之３","OBJECTID":222475},"geometry":{"x":169872.6799999997,"y":2543583.5000000037}},{"attributes":{"ID":222480,"DIS_CODE":0,"TOWNNAME":"東區","LI":"衛國里","LIN":"9鄰","STREET":"衛國街","SECT":" ","MAREA":" ","LANE":"１１２巷","ALLEY":" ","HOUSE_NO":"１７號","E_COORD97":170490.66,"N_COORD97":2543113.2400000002,"ADDRESS":"衛國街１１２巷１７號","OBJECTID":222476},"geometry":{"x":170490.66000000201,"y":2543113.2400000002}},{"attributes":{"ID":222481,"DIS_CODE":0,"TOWNNAME":"東區","LI":"崇善里","LIN":"9鄰","STREET":"仁和路","SECT":" ","MAREA":" ","LANE":"７０巷","ALLEY":" ","HOUSE_NO":"１３之６號","E_COORD97":171034.63,"N_COORD97":2541735.8799999999,"ADDRESS":"仁和路７０巷１３之６號","OBJECTID":222477},"geometry":{"x":171034.62999999989,"y":2541735.8800000008}},{"attributes":{"ID":222482,"DIS_CODE":0,"TOWNNAME":"東區","LI":"崇善里","LIN":"9鄰","STREET":"仁和路","SECT":" ","MAREA":" ","LANE":"７０巷","ALLEY":" ","HOUSE_NO":"１５之１號","E_COORD97":171008.54999999999,"N_COORD97":2541749.71,"ADDRESS":"仁和路７０巷１５之１號","OBJECTID":222478},"geometry":{"x":171008.55000000075,"y":2541749.7100000028}},{"attributes":{"ID":222483,"DIS_CODE":0,"TOWNNAME":"東區","LI":"崇善里","LIN":"9鄰","STREET":"仁和路","SECT":" ","MAREA":" ","LANE":"７０巷","ALLEY":" ","HOUSE_NO":"１５之３號","E_COORD97":171012.34,"N_COORD97":2541739.8199999998,"ADDRESS":"仁和路７０巷１５之３號","OBJECTID":222479},"geometry":{"x":171012.33999999985,"y":2541739.8200000003}},{"attributes":{"ID":222484,"DIS_CODE":0,"TOWNNAME":"東區","LI":"崇善里","LIN":"9鄰","STREET":"仁和路","SECT":" ","MAREA":" ","LANE":"７０巷","ALLEY":" ","HOUSE_NO":"１５之６號","E_COORD97":171016.14000000001,"N_COORD97":2541729.9199999999,"ADDRESS":"仁和路７０巷１５之６號","OBJECTID":222480},"geometry":{"x":171016.1400000006,"y":2541729.9200000018}},{"attributes":{"ID":222485,"DIS_CODE":0,"TOWNNAME":"東區","LI":"崇善里","LIN":"9鄰","STREET":"仁和路","SECT":" ","MAREA":" ","LANE":"７０巷","ALLEY":" ","HOUSE_NO":"１７之２號","E_COORD97":170997,"N_COORD97":2541739.6099999999,"ADDRESS":"仁和路７０巷１７之２號","OBJECTID":222481},"geometry":{"x":170997.00000000093,"y":2541739.6099999994}},{"attributes":{"ID":222486,"DIS_CODE":0,"TOWNNAME":"東區","LI":"崇善里","LIN":"9鄰","STREET":"仁和路","SECT":" ","MAREA":" ","LANE":"７０巷","ALLEY":" ","HOUSE_NO":"１７之５號","E_COORD97":171000.79999999999,"N_COORD97":2541729.71,"ADDRESS":"仁和路７０巷１７之５號","OBJECTID":222482},"geometry":{"x":171000.79999999981,"y":2541729.7100000028}},{"attributes":{"ID":222487,"DIS_CODE":0,"TOWNNAME":"東區","LI":"崇善里","LIN":"9鄰","STREET":"仁和路","SECT":" ","MAREA":" ","LANE":"７０巷","ALLEY":" ","HOUSE_NO":"１９之１號","E_COORD97":170976.98999999999,"N_COORD97":2541737.6099999999,"ADDRESS":"仁和路７０巷１９之１號","OBJECTID":222483},"geometry":{"x":170976.99000000115,"y":2541737.6099999975}},{"attributes":{"ID":222488,"DIS_CODE":0,"TOWNNAME":"新營區","LI":"新南里","LIN":"28鄰","STREET":"明清二街","SECT":" ","MAREA":" ","LANE":" ","ALLEY":" ","HOUSE_NO":"９號","E_COORD97":178250.97,"N_COORD97":2578669.6800000002,"ADDRESS":"明清二街９號","OBJECTID":222484},"geometry":{"x":178250.97000000067,"y":2578669.6800000016}},{"attributes":{"ID":222489,"DIS_CODE":0,"TOWNNAME":"安南區","LI":"四草里","LIN":"3鄰","STREET":"大眾路","SECT":" ","MAREA":" ","LANE":"３０１巷","ALLEY":" ","HOUSE_NO":"７００號","E_COORD97":161905.167307,"N_COORD97":2545658.0103199999,"ADDRESS":"大眾路３０１巷７００號","OBJECTID":222485},"geometry":{"x":161905.16730700061,"y":2545658.0103159975}},{"attributes":{"ID":222490,"DIS_CODE":0,"TOWNNAME":"東區","LI":"崇善里","LIN":"9鄰","STREET":"仁和路","SECT":" ","MAREA":" ","LANE":"７０巷","ALLEY":" ","HOUSE_NO":"１９之３號","E_COORD97":170980.79000000001,"N_COORD97":2541727.71,"ADDRESS":"仁和路７０巷１９之３號","OBJECTID":222486},"geometry":{"x":170980.79000000004,"y":2541727.7100000009}},{"attributes":{"ID":222491,"DIS_CODE":0,"TOWNNAME":"東區","LI":"崇善里","LIN":"9鄰","STREET":"仁和路","SECT":" ","MAREA":" ","LANE":"７０巷","ALLEY":" ","HOUSE_NO":"１９之６號","E_COORD97":170984.57999999999,"N_COORD97":2541717.8100000001,"ADDRESS":"仁和路７０巷１９之６號","OBJECTID":222487},"geometry":{"x":170984.58000000194,"y":2541717.8100000024}},{"attributes":{"ID":222492,"DIS_CODE":0,"TOWNNAME":"東區","LI":"崇善里","LIN":"9鄰","STREET":"仁和路","SECT":" ","MAREA":" ","LANE":"７０巷","ALLEY":" ","HOUSE_NO":"２１之１號","E_COORD97":170980.85999999999,"N_COORD97":2541762.1400000001,"ADDRESS":"仁和路７０巷２１之１號","OBJECTID":222488},"geometry":{"x":170980.86000000034,"y":2541762.1400000006}},{"attributes":{"ID":222493,"DIS_CODE":0,"TOWNNAME":"東區","LI":"崇善里","LIN":"9鄰","STREET":"仁和路","SECT":" ","MAREA":" ","LANE":"７０巷","ALLEY":" ","HOUSE_NO":"２１之３號","E_COORD97":170971.06,"N_COORD97":2541758.3799999999,"ADDRESS":"仁和路７０巷２１之３號","OBJECTID":222489},"geometry":{"x":170971.06000000052,"y":2541758.379999999}},{"attributes":{"ID":222494,"DIS_CODE":0,"TOWNNAME":"東區","LI":"崇善里","LIN":"9鄰","STREET":"仁和路","SECT":" ","MAREA":" ","LANE":"７０巷","ALLEY":" ","HOUSE_NO":"２３之２號","E_COORD97":170975.98000000001,"N_COORD97":2541776.02,"ADDRESS":"仁和路７０巷２３之２號","OBJECTID":222490},"geometry":{"x":170975.98000000138,"y":2541776.0200000033}},{"attributes":{"ID":222495,"DIS_CODE":0,"TOWNNAME":"東區","LI":"崇善里","LIN":"9鄰","STREET":"仁和路","SECT":" ","MAREA":" ","LANE":"７０巷","ALLEY":" ","HOUSE_NO":"２３之５號","E_COORD97":170966.54000000001,"N_COORD97":2541772.1600000001,"ADDRESS":"仁和路７０巷２３之５號","OBJECTID":222491},"geometry":{"x":170966.54000000097,"y":2541772.1600000039}},{"attributes":{"ID":222496,"DIS_CODE":0,"TOWNNAME":"東區","LI":"崇善里","LIN":"9鄰","STREET":"仁和路","SECT":" ","MAREA":" ","LANE":"７０巷","ALLEY":" ","HOUSE_NO":"２５之２號","E_COORD97":170968.04999999999,"N_COORD97":2541792.7599999998,"ADDRESS":"仁和路７０巷２５之２號","OBJECTID":222492},"geometry":{"x":170968.05000000075,"y":2541792.7600000016}},{"attributes":{"ID":222497,"DIS_CODE":0,"TOWNNAME":"東區","LI":"崇善里","LIN":"9鄰","STREET":"仁和路","SECT":" ","MAREA":" ","LANE":"７０巷","ALLEY":" ","HOUSE_NO":"２５之５號","E_COORD97":170958.60999999999,"N_COORD97":2541788.9100000001,"ADDRESS":"仁和路７０巷２５之５號","OBJECTID":222493},"geometry":{"x":170958.61000000034,"y":2541788.910000002}},{"attributes":{"ID":222498,"DIS_CODE":0,"TOWNNAME":"東區","LI":"崇善里","LIN":"9鄰","STREET":"仁和路","SECT":" ","MAREA":" ","LANE":"７０巷","ALLEY":" ","HOUSE_NO":"２７之１號","E_COORD97":170966.17000000001,"N_COORD97":2541807.3700000001,"ADDRESS":"仁和路７０巷２７之１號","OBJECTID":222494},"geometry":{"x":170966.16999999993,"y":2541807.370000001}},{"attributes":{"ID":222499,"DIS_CODE":0,"TOWNNAME":"東區","LI":"崇善里","LIN":"9鄰","STREET":"仁和路","SECT":" ","MAREA":" ","LANE":"７０巷","ALLEY":" ","HOUSE_NO":"２７之３號","E_COORD97":170957.22,"N_COORD97":2541801.2599999998,"ADDRESS":"仁和路７０巷２７之３號","OBJECTID":222495},"geometry":{"x":170957.21999999974,"y":2541801.2599999998}},{"attributes":{"ID":222500,"DIS_CODE":0,"TOWNNAME":"東區","LI":"崇善里","LIN":"9鄰","STREET":"仁和路","SECT":" ","MAREA":" ","LANE":"７０巷","ALLEY":" ","HOUSE_NO":"２９之２號","E_COORD97":170953.82000000001,"N_COORD97":2541823.6099999999,"ADDRESS":"仁和路７０巷２９之２號","OBJECTID":222496},"geometry":{"x":170953.8200000003,"y":2541823.6100000013}},{"attributes":{"ID":222501,"DIS_CODE":0,"TOWNNAME":"東區","LI":"崇善里","LIN":"9鄰","STREET":"仁和路","SECT":" ","MAREA":" ","LANE":"７０巷","ALLEY":" ","HOUSE_NO":"２９之５號","E_COORD97":170942.85000000001,"N_COORD97":2541818.9500000002,"ADDRESS":"仁和路７０巷２９之５號","OBJECTID":222497},"geometry":{"x":170942.84999999963,"y":2541818.9499999993}},{"attributes":{"ID":222502,"DIS_CODE":0,"TOWNNAME":"東區","LI":"崇善里","LIN":"9鄰","STREET":"仁和路","SECT":" ","MAREA":" ","LANE":"７０巷","ALLEY":" ","HOUSE_NO":"２３號","E_COORD97":170985.42999999999,"N_COORD97":2541779.8700000001,"ADDRESS":"仁和路７０巷２３號","OBJECTID":222498},"geometry":{"x":170985.43000000063,"y":2541779.8700000029}},{"attributes":{"ID":222503,"DIS_CODE":0,"TOWNNAME":"永康區","LI":"\u25A0行里","LIN":"9鄰","STREET":"中正路","SECT":" ","MAREA":" ","LANE":"３３７巷","ALLEY":" ","HOUSE_NO":"２６號","E_COORD97":172468.67999999999,"N_COORD97":2548261.2400000002,"ADDRESS":"中正路３３７巷２６號","OBJECTID":222499},"geometry":{"x":172468.68000000063,"y":2548261.2400000021}},{"attributes":{"ID":222504,"DIS_CODE":0,"TOWNNAME":"永康區","LI":"\u25A0行里","LIN":"9鄰","STREET":"中正路","SECT":" ","MAREA":" ","LANE":"３３７巷","ALLEY":" ","HOUSE_NO":"４８號","E_COORD97":172380.69,"N_COORD97":2548167.75,"ADDRESS":"中正路３３７巷４８號","OBJECTID":222500},"geometry":{"x":172380.69000000041,"y":2548167.75}},{"attributes":{"ID":222505,"DIS_CODE":0,"TOWNNAME":"永康區","LI":"\u25A0行里","LIN":"9鄰","STREET":"中正路","SECT":" ","MAREA":" ","LANE":"３３７巷","ALLEY":" ","HOUSE_NO":"２２號","E_COORD97":172481.57000000001,"N_COORD97":2548280.75,"ADDRESS":"中正路３３７巷２２號","OBJECTID":222501},"geometry":{"x":172481.57000000216,"y":2548280.7500000037}},{"attributes":{"ID":222506,"DIS_CODE":0,"TOWNNAME":"永康區","LI":"\u25A0行里","LIN":"9鄰","STREET":"中正路","SECT":" ","MAREA":" ","LANE":"３３７巷","ALLEY":" ","HOUSE_NO":"５號","E_COORD97":172503.29000000001,"N_COORD97":2548293.75,"ADDRESS":"中正路３３７巷５號","OBJECTID":222502},"geometry":{"x":172503.29000000004,"y":2548293.75}},{"attributes":{"ID":222507,"DIS_CODE":0,"TOWNNAME":"永康區","LI":"\u25A0行里","LIN":"9鄰","STREET":"中正路","SECT":" ","MAREA":" ","LANE":"３３７巷","ALLEY":" ","HOUSE_NO":"４２號","E_COORD97":172412.73999999999,"N_COORD97":2548184.75,"ADDRESS":"中正路３３７巷４２號","OBJECTID":222503},"geometry":{"x":172412.74000000115,"y":2548184.75}},{"attributes":{"ID":222508,"DIS_CODE":0,"TOWNNAME":"新營區","LI":"大宏里","LIN":"28鄰","STREET":"開元路","SECT":" ","MAREA":" ","LANE":" ","ALLEY":" ","HOUSE_NO":"５７號","E_COORD97":180872.98999999999,"N_COORD97":2578710.3599999999,"ADDRESS":"開元路５７號","OBJECTID":222504},"geometry":{"x":180872.99000000022,"y":2578710.3599999994}},{"attributes":{"ID":222509,"DIS_CODE":0,"TOWNNAME":"新營區","LI":"新北里","LIN":"28鄰","STREET":"新北二街","SECT":" ","MAREA":" ","LANE":" ","ALLEY":" ","HOUSE_NO":"６之１２號","E_COORD97":178921.01000000001,"N_COORD97":2578748.46,"ADDRESS":"新北二街６之１２號","OBJECTID":222505},"geometry":{"x":178921.00999999978,"y":2578748.4600000009}},{"attributes":{"ID":222510,"DIS_CODE":0,"TOWNNAME":"新營區","LI":"大宏里","LIN":"28鄰","STREET":"開元路","SECT":" ","MAREA":" ","LANE":" ","ALLEY":" ","HOUSE_NO":"５３號","E_COORD97":180869.87,"N_COORD97":2578699.3100000001,"ADDRESS":"開元路５３號","OBJECTID":222506},"geometry":{"x":180869.87000000011,"y":2578699.3099999987}},{"attributes":{"ID":222511,"DIS_CODE":0,"TOWNNAME":"新營區","LI":"新南里","LIN":"28鄰","STREET":"明清二街","SECT":" ","MAREA":" ","LANE":" ","ALLEY":" ","HOUSE_NO":"７７號","E_COORD97":178382.09,"N_COORD97":2578651.3300000001,"ADDRESS":"明清二街７７號","OBJECTID":222507},"geometry":{"x":178382.09000000171,"y":2578651.3300000038}},{"attributes":{"ID":222512,"DIS_CODE":0,"TOWNNAME":"中西區","LI":"萬昌里","LIN":"9鄰","STREET":"府前路","SECT":"一段","MAREA":" ","LANE":"１２２巷","ALLEY":" ","HOUSE_NO":"８２號","E_COORD97":168830.57999999999,"N_COORD97":2543460.46,"ADDRESS":"府前路一段１２２巷８２號","OBJECTID":222508},"geometry":{"x":168830.58000000101,"y":2543460.4600000028}},{"attributes":{"ID":222513,"DIS_CODE":0,"TOWNNAME":"中西區","LI":"萬昌里","LIN":"9鄰","STREET":"府前路","SECT":"一段","MAREA":" ","LANE":"１２２巷","ALLEY":" ","HOUSE_NO":"８２號之１","E_COORD97":168841.29999999999,"N_COORD97":2543457.3500000001,"ADDRESS":"府前路一段１２２巷８２號之１","OBJECTID":222509},"geometry":{"x":168841.29999999981,"y":2543457.3499999996}},{"attributes":{"ID":222514,"DIS_CODE":0,"TOWNNAME":"中西區","LI":"萬昌里","LIN":"9鄰","STREET":"府前路","SECT":"一段","MAREA":" ","LANE":"１２２巷","ALLEY":" ","HOUSE_NO":"７０號","E_COORD97":168805.20999999999,"N_COORD97":2543455.4900000002,"ADDRESS":"府前路一段１２２巷７０號","OBJECTID":222510},"geometry":{"x":168805.21000000183,"y":2543455.4900000021}},{"attributes":{"ID":222515,"DIS_CODE":0,"TOWNNAME":"中西區","LI":"萬昌里","LIN":"9鄰","STREET":"府前路","SECT":"一段","MAREA":" ","LANE":"１２２巷","ALLEY":" ","HOUSE_NO":"７２號","E_COORD97":168807.59,"N_COORD97":2543454.9399999999,"ADDRESS":"府前路一段１２２巷７２號","OBJECTID":222511},"geometry":{"x":168807.59000000171,"y":2543454.9400000013}},{"attributes":{"ID":222516,"DIS_CODE":0,"TOWNNAME":"安南區","LI":"城南里","LIN":"9鄰","STREET":"城西街","SECT":"一段","MAREA":" ","LANE":"１８１巷","ALLEY":" ","HOUSE_NO":"６３號","E_COORD97":160460.89000000001,"N_COORD97":2551134.02,"ADDRESS":"城西街一段１８１巷６３號","OBJECTID":222512},"geometry":{"x":160460.88999999966,"y":2551134.0200000014}},{"attributes":{"ID":222517,"DIS_CODE":0,"TOWNNAME":"歸仁區","LI":"歸仁里","LIN":"28鄰","STREET":"中山路","SECT":"一段","MAREA":" ","LANE":" ","ALLEY":" ","HOUSE_NO":"２３６之３號","E_COORD97":178739.51000000001,"N_COORD97":2540611.2599999998,"ADDRESS":"中山路一段２３６之３號","OBJECTID":222513},"geometry":{"x":178739.50999999978,"y":2540611.2599999979}},{"attributes":{"ID":222518,"DIS_CODE":0,"TOWNNAME":"安南區","LI":"淵中里","LIN":"9鄰","STREET":"安中路","SECT":"四段","MAREA":" ","LANE":"４巷","ALLEY":" ","HOUSE_NO":"５２號","E_COORD97":165194.26999999999,"N_COORD97":2550190.9700000002,"ADDRESS":"安中路四段４巷５２號","OBJECTID":222514},"geometry":{"x":165194.27000000048,"y":2550190.9700000007}},{"attributes":{"ID":222519,"DIS_CODE":0,"TOWNNAME":"安南區","LI":"淵中里","LIN":"9鄰","STREET":"安中路","SECT":"四段","MAREA":" ","LANE":"４巷","ALLEY":" ","HOUSE_NO":"６６號","E_COORD97":165145.94,"N_COORD97":2550204.96,"ADDRESS":"安中路四段４巷６６號","OBJECTID":222515},"geometry":{"x":165145.94000000227,"y":2550204.9600000009}},{"attributes":{"ID":222520,"DIS_CODE":0,"TOWNNAME":"安南區","LI":"學東里","LIN":"9鄰","STREET":"公學路","SECT":"六段","MAREA":" ","LANE":"６４２巷","ALLEY":" ","HOUSE_NO":"４２號","E_COORD97":162322.29000000001,"N_COORD97":2553347.8799999999,"ADDRESS":"公學路六段６４２巷４２號","OBJECTID":222516},"geometry":{"x":162322.2900000019,"y":2553347.8800000008}},{"attributes":{"ID":222521,"DIS_CODE":0,"TOWNNAME":"關廟區","LI":"東勢里","LIN":"28鄰","STREET":"東榮街","SECT":" ","MAREA":" ","LANE":" ","ALLEY":" ","HOUSE_NO":"１２３號","E_COORD97":182182.82999999999,"N_COORD97":2539359.1099999999,"ADDRESS":"東榮街１２３號","OBJECTID":222517},"geometry":{"x":182182.83000000194,"y":2539359.1100000013}},{"attributes":{"ID":222522,"DIS_CODE":0,"TOWNNAME":"安南區","LI":"\u25A0南里","LIN":"9鄰","STREET":"安昌街","SECT":" ","MAREA":" ","LANE":"２４３巷","ALLEY":" ","HOUSE_NO":"２７號","E_COORD97":170072.73000000001,"N_COORD97":2552589.7999999998,"ADDRESS":"安昌街２４３巷２７號","OBJECTID":222518},"geometry":{"x":170072.73000000045,"y":2552589.8000000007}},{"attributes":{"ID":222523,"DIS_CODE":0,"TOWNNAME":"安南區","LI":"學東里","LIN":"9鄰","STREET":"公學路","SECT":"六段","MAREA":" ","LANE":"６４２巷","ALLEY":" ","HOUSE_NO":"４６號","E_COORD97":162300.19,"N_COORD97":2553346.3300000001,"ADDRESS":"公學路六段６４２巷４６號","OBJECTID":222519},"geometry":{"x":162300.19000000134,"y":2553346.3300000019}},{"attributes":{"ID":222524,"DIS_CODE":0,"TOWNNAME":"安南區","LI":"學東里","LIN":"9鄰","STREET":"公學路","SECT":"六段","MAREA":" ","LANE":"６４２巷","ALLEY":" ","HOUSE_NO":"４４號","E_COORD97":162307.64999999999,"N_COORD97":2553348.1899999999,"ADDRESS":"公學路六段６４２巷４４號","OBJECTID":222520},"geometry":{"x":162307.65000000037,"y":2553348.1899999995}},{"attributes":{"ID":222525,"DIS_CODE":0,"TOWNNAME":"安南區","LI":"淵東里","LIN":"9鄰","STREET":"本原街","SECT":"三段","MAREA":" ","LANE":"３２１巷","ALLEY":" ","HOUSE_NO":"１１號","E_COORD97":165361,"N_COORD97":2550166.9500000002,"ADDRESS":"本原街三段３２１巷１１號","OBJECTID":222521},"geometry":{"x":165361.00000000093,"y":2550166.9499999974}},{"attributes":{"ID":222526,"DIS_CODE":0,"TOWNNAME":"安南區","LI":"淵東里","LIN":"9鄰","STREET":"本原街","SECT":"三段","MAREA":" ","LANE":"３２１巷","ALLEY":" ","HOUSE_NO":"１５號","E_COORD97":165367.37,"N_COORD97":2550170.7999999998,"ADDRESS":"本原街三段３２１巷１５號","OBJECTID":222522},"geometry":{"x":165367.37000000011,"y":2550170.8000000026}},{"attributes":{"ID":222527,"DIS_CODE":0,"TOWNNAME":"東山區","LI":"東原里","LIN":"28鄰","STREET":" ","SECT":" ","MAREA":"班芝花坑","LANE":" ","ALLEY":" ","HOUSE_NO":"２４號之１","E_COORD97":192364.17000000001,"N_COORD97":2575694.9500000002,"ADDRESS":"班芝花坑２４號之１","OBJECTID":222523},"geometry":{"x":192364.17000000086,"y":2575694.9500000011}},{"attributes":{"ID":222528,"DIS_CODE":0,"TOWNNAME":"東山區","LI":"東原里","LIN":"28鄰","STREET":" ","SECT":" ","MAREA":"班芝花坑","LANE":" ","ALLEY":" ","HOUSE_NO":"２４號之２","E_COORD97":192378.95000000001,"N_COORD97":2575696.1299999999,"ADDRESS":"班芝花坑２４號之２","OBJECTID":222524},"geometry":{"x":192378.95000000112,"y":2575696.1300000008}},{"attributes":{"ID":222529,"DIS_CODE":0,"TOWNNAME":"東山區","LI":"東原里","LIN":"28鄰","STREET":" ","SECT":" ","MAREA":"班芝花坑","LANE":" ","ALLEY":" ","HOUSE_NO":"２４號","E_COORD97":192342.89999999999,"N_COORD97":2575711.48,"ADDRESS":"班芝花坑２４號","OBJECTID":222525},"geometry":{"x":192342.90000000037,"y":2575711.4800000042}},{"attributes":{"ID":222530,"DIS_CODE":0,"TOWNNAME":"東山區","LI":"東原里","LIN":"28鄰","STREET":" ","SECT":" ","MAREA":"班芝花坑","LANE":" ","ALLEY":" ","HOUSE_NO":"２５號之１","E_COORD97":192334.76000000001,"N_COORD97":2575710.8300000001,"ADDRESS":"班芝花坑２５號之１","OBJECTID":222526},"geometry":{"x":192334.75999999978,"y":2575710.8300000001}},{"attributes":{"ID":222531,"DIS_CODE":0,"TOWNNAME":"安南區","LI":"淵東里","LIN":"9鄰","STREET":"本原街","SECT":"三段","MAREA":" ","LANE":"３２１巷","ALLEY":" ","HOUSE_NO":"１７號","E_COORD97":165371.22,"N_COORD97":2550172.8700000001,"ADDRESS":"本原街三段３２１巷１７號","OBJECTID":222527},"geometry":{"x":165371.22000000067,"y":2550172.8700000048}},{"attributes":{"ID":222532,"DIS_CODE":0,"TOWNNAME":"安南區","LI":"淵東里","LIN":"9鄰","STREET":"本原街","SECT":"三段","MAREA":" ","LANE":"３２１巷","ALLEY":" ","HOUSE_NO":"３號","E_COORD97":165344.84,"N_COORD97":2550159.3999999999,"ADDRESS":"本原街三段３２１巷３號","OBJECTID":222528},"geometry":{"x":165344.84000000078,"y":2550159.4000000022}},{"attributes":{"ID":222533,"DIS_CODE":0,"TOWNNAME":"關廟區","LI":"香洋里","LIN":"28鄰","STREET":"大仁街","SECT":" ","MAREA":" ","LANE":" ","ALLEY":" ","HOUSE_NO":"４１９號","E_COORD97":180989.67000000001,"N_COORD97":2539815.25,"ADDRESS":"大仁街４１９號","OBJECTID":222529},"geometry":{"x":180989.66999999993,"y":2539815.2500000037}},{"attributes":{"ID":222534,"DIS_CODE":0,"TOWNNAME":"關廟區","LI":"香洋里","LIN":"28鄰","STREET":"中山路","SECT":"二段","MAREA":" ","LANE":" ","ALLEY":" ","HOUSE_NO":"７３號","E_COORD97":181028.81,"N_COORD97":2539866.2799999998,"ADDRESS":"中山路二段７３號","OBJECTID":222530},"geometry":{"x":181028.81000000052,"y":2539866.2800000012}},{"attributes":{"ID":222535,"DIS_CODE":0,"TOWNNAME":"安南區","LI":"淵東里","LIN":"9鄰","STREET":"本原街","SECT":"三段","MAREA":" ","LANE":"３２１巷","ALLEY":" ","HOUSE_NO":"５號","E_COORD97":165348.54999999999,"N_COORD97":2550161.4700000002,"ADDRESS":"本原街三段３２１巷５號","OBJECTID":222531},"geometry":{"x":165348.55000000075,"y":2550161.4700000007}},{"attributes":{"ID":222536,"DIS_CODE":0,"TOWNNAME":"關廟區","LI":"香洋里","LIN":"28鄰","STREET":"中山路","SECT":"二段","MAREA":" ","LANE":" ","ALLEY":" ","HOUSE_NO":"７９之１號","E_COORD97":181024.31,"N_COORD97":2539884.2999999998,"ADDRESS":"中山路二段７９之１號","OBJECTID":222532},"geometry":{"x":181024.30999999959,"y":2539884.3000000026}},{"attributes":{"ID":222537,"DIS_CODE":0,"TOWNNAME":"關廟區","LI":"香洋里","LIN":"28鄰","STREET":"大富街","SECT":" ","MAREA":" ","LANE":" ","ALLEY":" ","HOUSE_NO":"３６３號","E_COORD97":180992.26999999999,"N_COORD97":2539931.25,"ADDRESS":"大富街３６３號","OBJECTID":222533},"geometry":{"x":180992.26999999955,"y":2539931.2500000019}},{"attributes":{"ID":222538,"DIS_CODE":0,"TOWNNAME":"安南區","LI":"淵東里","LIN":"9鄰","STREET":"本原街","SECT":"三段","MAREA":" ","LANE":"３２１巷","ALLEY":" ","HOUSE_NO":"７號","E_COORD97":165352.70000000001,"N_COORD97":2550162.9500000002,"ADDRESS":"本原街三段３２１巷７號","OBJECTID":222534},"geometry":{"x":165352.70000000112,"y":2550162.9499999993}},{"attributes":{"ID":222539,"DIS_CODE":0,"TOWNNAME":"東區","LI":"富強里","LIN":"9鄰","STREET":"裕農路","SECT":" ","MAREA":" ","LANE":"４４６巷","ALLEY":" ","HOUSE_NO":"９２號","E_COORD97":171241.75,"N_COORD97":2542894.6099999999,"ADDRESS":"裕農路４４６巷９２號","OBJECTID":222535},"geometry":{"x":171241.75000000093,"y":2542894.6100000013}},{"attributes":{"ID":222540,"DIS_CODE":0,"TOWNNAME":"關廟區","LI":"香洋里","LIN":"28鄰","STREET":"中山路","SECT":"二段","MAREA":" ","LANE":" ","ALLEY":" ","HOUSE_NO":"７７號","E_COORD97":181024.51000000001,"N_COORD97":2539875.2799999998,"ADDRESS":"中山路二段７７號","OBJECTID":222536},"geometry":{"x":181024.50999999978,"y":2539875.2800000031}},{"attributes":{"ID":222541,"DIS_CODE":0,"TOWNNAME":"關廟區","LI":"香洋里","LIN":"28鄰","STREET":"大仁街","SECT":" ","MAREA":" ","LANE":" ","ALLEY":" ","HOUSE_NO":"４０１號","E_COORD97":180958.87,"N_COORD97":2539795.25,"ADDRESS":"大仁街４０１號","OBJECTID":222537},"geometry":{"x":180958.87000000197,"y":2539795.2500000019}},{"attributes":{"ID":222542,"DIS_CODE":0,"TOWNNAME":"東區","LI":"崇誨里","LIN":"9鄰","STREET":"林森路","SECT":"二段","MAREA":" ","LANE":"１９２巷","ALLEY":" ","HOUSE_NO":"５號之１","E_COORD97":170503.85999999999,"N_COORD97":2543334.9199999999,"ADDRESS":"林森路二段１９２巷５號之１","OBJECTID":222538},"geometry":{"x":170503.86000000127,"y":2543334.9199999999}},{"attributes":{"ID":222543,"DIS_CODE":0,"TOWNNAME":"東區","LI":"崇誨里","LIN":"9鄰","STREET":"林森路","SECT":"二段","MAREA":" ","LANE":"１９２巷","ALLEY":" ","HOUSE_NO":"７號之１","E_COORD97":170507.19,"N_COORD97":2543343.02,"ADDRESS":"林森路二段１９２巷７號之１","OBJECTID":222539},"geometry":{"x":170507.19000000041,"y":2543343.0200000014}},{"attributes":{"ID":222544,"DIS_CODE":0,"TOWNNAME":"東區","LI":"路東里","LIN":"9鄰","STREET":"林森路","SECT":"一段","MAREA":" ","LANE":"５８巷","ALLEY":" ","HOUSE_NO":"２８之１號","E_COORD97":169367.67000000001,"N_COORD97":2542315.0699999998,"ADDRESS":"林森路一段５８巷２８之１號","OBJECTID":222540},"geometry":{"x":169367.66999999993,"y":2542315.0699999984}},{"attributes":{"ID":222545,"DIS_CODE":0,"TOWNNAME":"永康區","LI":"尚頂里","LIN":"9鄰","STREET":"正南一街","SECT":" ","MAREA":" ","LANE":"１２９巷","ALLEY":" ","HOUSE_NO":"３５號","E_COORD97":170713.42999999999,"N_COORD97":2547119.1299999999,"ADDRESS":"正南一街１２９巷３５號","OBJECTID":222541},"geometry":{"x":170713.4299999997,"y":2547119.1300000008}},{"attributes":{"ID":222546,"DIS_CODE":0,"TOWNNAME":"永康區","LI":"尚頂里","LIN":"9鄰","STREET":"正南一街","SECT":" ","MAREA":" ","LANE":"１２９巷","ALLEY":" ","HOUSE_NO":"１６號","E_COORD97":170811.26000000001,"N_COORD97":2547212.5699999998,"ADDRESS":"正南一街１２９巷１６號","OBJECTID":222542},"geometry":{"x":170811.25999999978,"y":2547212.5700000022}},{"attributes":{"ID":222547,"DIS_CODE":0,"TOWNNAME":"永康區","LI":"龍潭里","LIN":"9鄰","STREET":"龍橋街","SECT":" ","MAREA":" ","LANE":"５３巷","ALLEY":" ","HOUSE_NO":"５０號","E_COORD97":174725.70999999999,"N_COORD97":2548252.1699999999,"ADDRESS":"龍橋街５３巷５０號","OBJECTID":222543},"geometry":{"x":174725.70999999996,"y":2548252.1700000018}},{"attributes":{"ID":222548,"DIS_CODE":0,"TOWNNAME":"永康區","LI":"蔦松里","LIN":"9鄰","STREET":"正北三路","SECT":" ","MAREA":" ","LANE":"９１巷","ALLEY":" ","HOUSE_NO":"１３號","E_COORD97":174399.89999999999,"N_COORD97":2549875.9900000002,"ADDRESS":"正北三路９１巷１３號","OBJECTID":222544},"geometry":{"x":174399.90000000037,"y":2549875.9900000002}},{"attributes":{"ID":222549,"DIS_CODE":0,"TOWNNAME":"永康區","LI":"蔦松里","LIN":"9鄰","STREET":"正北三路","SECT":" ","MAREA":" ","LANE":"１５０巷","ALLEY":" ","HOUSE_NO":"６號","E_COORD97":174387.37,"N_COORD97":2550107.1099999999,"ADDRESS":"正北三路１５０巷６號","OBJECTID":222545},"geometry":{"x":174387.37000000011,"y":2550107.1099999994}},{"attributes":{"ID":222550,"DIS_CODE":0,"TOWNNAME":"永康區","LI":"蔦松里","LIN":"9鄰","STREET":"正北三路","SECT":" ","MAREA":" ","LANE":"９１巷","ALLEY":" ","HOUSE_NO":"８號","E_COORD97":174409.37,"N_COORD97":2549910.2400000002,"ADDRESS":"正北三路９１巷８號","OBJECTID":222546},"geometry":{"x":174409.37000000104,"y":2549910.2400000021}},{"attributes":{"ID":222551,"DIS_CODE":0,"TOWNNAME":"永康區","LI":"蔦松里","LIN":"9鄰","STREET":"正北三路","SECT":" ","MAREA":" ","LANE":"１１３巷","ALLEY":" ","HOUSE_NO":"１２號","E_COORD97":174331.63,"N_COORD97":2549976.25,"ADDRESS":"正北三路１１３巷１２號","OBJECTID":222547},"geometry":{"x":174331.62999999989,"y":2549976.2500000037}},{"attributes":{"ID":222552,"DIS_CODE":0,"TOWNNAME":"永康區","LI":"蔦松里","LIN":"9鄰","STREET":"正北三路","SECT":" ","MAREA":" ","LANE":"１３０巷","ALLEY":" ","HOUSE_NO":"１３號","E_COORD97":174452.76999999999,"N_COORD97":2550082.6699999999,"ADDRESS":"正北三路１３０巷１３號","OBJECTID":222548},"geometry":{"x":174452.77000000142,"y":2550082.6700000018}},{"attributes":{"ID":222553,"DIS_CODE":0,"TOWNNAME":"永康區","LI":"蔦松里","LIN":"9鄰","STREET":"正北三路","SECT":" ","MAREA":" ","LANE":"１３０巷","ALLEY":" ","HOUSE_NO":"１５號","E_COORD97":174461.57000000001,"N_COORD97":2550087.6899999999,"ADDRESS":"正北三路１３０巷１５號","OBJECTID":222549},"geometry":{"x":174461.57000000216,"y":2550087.6900000032}},{"attributes":{"ID":222554,"DIS_CODE":0,"TOWNNAME":"永康區","LI":"蔦松里","LIN":"9鄰","STREET":"正北三路","SECT":" ","MAREA":" ","LANE":"１３０巷","ALLEY":" ","HOUSE_NO":"２０號","E_COORD97":174477.70000000001,"N_COORD97":2550079.5699999998,"ADDRESS":"正北三路１３０巷２０號","OBJECTID":222550},"geometry":{"x":174477.70000000205,"y":2550079.570000004}},{"attributes":{"ID":222555,"DIS_CODE":0,"TOWNNAME":"永康區","LI":"蔦松里","LIN":"9鄰","STREET":"正北三路","SECT":" ","MAREA":" ","LANE":"９１巷","ALLEY":" ","HOUSE_NO":"１０號","E_COORD97":174402.70000000001,"N_COORD97":2549903.7400000002,"ADDRESS":"正北三路９１巷１０號","OBJECTID":222551},"geometry":{"x":174402.70000000019,"y":2549903.7400000002}},{"attributes":{"ID":222556,"DIS_CODE":0,"TOWNNAME":"永康區","LI":"蔦松里","LIN":"9鄰","STREET":"正北三路","SECT":" ","MAREA":" ","LANE":"９１巷","ALLEY":" ","HOUSE_NO":"９號","E_COORD97":174414.85999999999,"N_COORD97":2549889.7400000002,"ADDRESS":"正北三路９１巷９號","OBJECTID":222552},"geometry":{"x":174414.86000000034,"y":2549889.7400000021}},{"attributes":{"ID":222557,"DIS_CODE":0,"TOWNNAME":"永康區","LI":"蔦松里","LIN":"9鄰","STREET":"正北三路","SECT":" ","MAREA":" ","LANE":"１１３巷","ALLEY":" ","HOUSE_NO":"１１號","E_COORD97":174341.03,"N_COORD97":2549965.25,"ADDRESS":"正北三路１１３巷１１號","OBJECTID":222553},"geometry":{"x":174341.03000000026,"y":2549965.25}},{"attributes":{"ID":222558,"DIS_CODE":0,"TOWNNAME":"永康區","LI":"蔦松里","LIN":"9鄰","STREET":"正北三路","SECT":" ","MAREA":" ","LANE":"９１巷","ALLEY":" ","HOUSE_NO":"５號","E_COORD97":174430.67000000001,"N_COORD97":2549902.4900000002,"ADDRESS":"正北三路９１巷５號","OBJECTID":222554},"geometry":{"x":174430.67000000086,"y":2549902.4900000002}},{"attributes":{"ID":222559,"DIS_CODE":0,"TOWNNAME":"永康區","LI":"蔦松里","LIN":"9鄰","STREET":"正北三路","SECT":" ","MAREA":" ","LANE":"１５０巷","ALLEY":" ","HOUSE_NO":"１８號","E_COORD97":174416.12,"N_COORD97":2550139,"ADDRESS":"正北三路１５０巷１８號","OBJECTID":222555},"geometry":{"x":174416.12000000104,"y":2550139}},{"attributes":{"ID":222560,"DIS_CODE":0,"TOWNNAME":"中西區","LI":"光賢里","LIN":"1鄰","STREET":"武聖路","SECT":" ","MAREA":" ","LANE":" ","ALLEY":" ","HOUSE_NO":"１９號","E_COORD97":167270.12,"N_COORD97":2545085.8999999999,"ADDRESS":"武聖路１９號","OBJECTID":222556},"geometry":{"x":167270.12000000197,"y":2545085.9000000004}},{"attributes":{"ID":222561,"DIS_CODE":0,"TOWNNAME":"中西區","LI":"光賢里","LIN":"1鄰","STREET":"武聖路","SECT":" ","MAREA":" ","LANE":" ","ALLEY":" ","HOUSE_NO":"１號","E_COORD97":167314.57000000001,"N_COORD97":2545086.3199999998,"ADDRESS":"武聖路１號","OBJECTID":222557},"geometry":{"x":167314.56999999937,"y":2545086.3200000003}},{"attributes":{"ID":222562,"DIS_CODE":0,"TOWNNAME":"中西區","LI":"光賢里","LIN":"1鄰","STREET":"武聖路","SECT":" ","MAREA":" ","LANE":" ","ALLEY":" ","HOUSE_NO":"２１號","E_COORD97":167265.67999999999,"N_COORD97":2545086.96,"ADDRESS":"武聖路２１號","OBJECTID":222558},"geometry":{"x":167265.6799999997,"y":2545086.9600000028}},{"attributes":{"ID":222563,"DIS_CODE":0,"TOWNNAME":"中西區","LI":"光賢里","LIN":"1鄰","STREET":"武聖路","SECT":" ","MAREA":" ","LANE":" ","ALLEY":" ","HOUSE_NO":"２３號","E_COORD97":167261.23000000001,"N_COORD97":2545087.7999999998,"ADDRESS":"武聖路２３號","OBJECTID":222559},"geometry":{"x":167261.23000000231,"y":2545087.8000000045}},{"attributes":{"ID":222564,"DIS_CODE":0,"TOWNNAME":"中西區","LI":"光賢里","LIN":"1鄰","STREET":"武聖路","SECT":" ","MAREA":" ","LANE":" ","ALLEY":" ","HOUSE_NO":"２５號","E_COORD97":167256.57000000001,"N_COORD97":2545088.23,"ADDRESS":"武聖路２５號","OBJECTID":222560},"geometry":{"x":167256.5700000003,"y":2545088.2300000023}},{"attributes":{"ID":222565,"DIS_CODE":0,"TOWNNAME":"中西區","LI":"光賢里","LIN":"1鄰","STREET":"武聖路","SECT":" ","MAREA":" ","LANE":" ","ALLEY":" ","HOUSE_NO":"５號","E_COORD97":167302.29000000001,"N_COORD97":2545084.4199999999,"ADDRESS":"武聖路５號","OBJECTID":222561},"geometry":{"x":167302.29000000004,"y":2545084.4199999999}},{"attributes":{"ID":222566,"DIS_CODE":0,"TOWNNAME":"南區","LI":"彰南里","LIN":"13鄰","STREET":"新仁路","SECT":" ","MAREA":" ","LANE":" ","ALLEY":" ","HOUSE_NO":"１之１號","E_COORD97":166263.98000000001,"N_COORD97":2541876.8799999999,"ADDRESS":"新仁路１之１號","OBJECTID":222562},"geometry":{"x":166263.98000000045,"y":2541876.879999999}},{"attributes":{"ID":222567,"DIS_CODE":0,"TOWNNAME":"南區","LI":"彰南里","LIN":"13鄰","STREET":"新仁路","SECT":" ","MAREA":" ","LANE":" ","ALLEY":" ","HOUSE_NO":"１之２號","E_COORD97":166249.14999999999,"N_COORD97":2541878.1699999999,"ADDRESS":"新仁路１之２號","OBJECTID":222563},"geometry":{"x":166249.15000000037,"y":2541878.1700000018}},{"attributes":{"ID":222568,"DIS_CODE":0,"TOWNNAME":"北區","LI":"文元里","LIN":"28鄰","STREET":"文賢一路","SECT":" ","MAREA":" ","LANE":" ","ALLEY":" ","HOUSE_NO":"２７０號","E_COORD97":167534.25,"N_COORD97":2545739.1800000002,"ADDRESS":"文賢一路２７０號","OBJECTID":222564},"geometry":{"x":167534.25000000093,"y":2545739.1800000016}},{"attributes":{"ID":222569,"DIS_CODE":0,"TOWNNAME":"北區","LI":"文元里","LIN":"28鄰","STREET":"文賢一路","SECT":" ","MAREA":" ","LANE":" ","ALLEY":" ","HOUSE_NO":"２８２號","E_COORD97":167532.67000000001,"N_COORD97":2545762.04,"ADDRESS":"文賢一路２８２號","OBJECTID":222565},"geometry":{"x":167532.67000000086,"y":2545762.0399999972}},{"attributes":{"ID":222570,"DIS_CODE":0,"TOWNNAME":"北區","LI":"文元里","LIN":"28鄰","STREET":"文賢一路","SECT":" ","MAREA":" ","LANE":" ","ALLEY":" ","HOUSE_NO":"２８０號","E_COORD97":167532.98999999999,"N_COORD97":2545757.75,"ADDRESS":"文賢一路２８０號","OBJECTID":222566},"geometry":{"x":167532.99000000022,"y":2545757.75}},{"attributes":{"ID":222571,"DIS_CODE":0,"TOWNNAME":"北區","LI":"文元里","LIN":"28鄰","STREET":"文賢一路","SECT":" ","MAREA":" ","LANE":" ","ALLEY":" ","HOUSE_NO":"２７８號","E_COORD97":167533.62,"N_COORD97":2545753.1499999999,"ADDRESS":"文賢一路２７８號","OBJECTID":222567},"geometry":{"x":167533.62000000104,"y":2545753.1500000022}},{"attributes":{"ID":222572,"DIS_CODE":0,"TOWNNAME":"北區","LI":"文元里","LIN":"28鄰","STREET":"文賢一路","SECT":" ","MAREA":" ","LANE":" ","ALLEY":" ","HOUSE_NO":"２７６號","E_COORD97":167533.78,"N_COORD97":2545748.0699999998,"ADDRESS":"文賢一路２７６號","OBJECTID":222568},"geometry":{"x":167533.78000000119,"y":2545748.0700000022}},{"attributes":{"ID":222573,"DIS_CODE":0,"TOWNNAME":"北區","LI":"文元里","LIN":"28鄰","STREET":"文賢一路","SECT":" ","MAREA":" ","LANE":" ","ALLEY":" ","HOUSE_NO":"２７２號","E_COORD97":167534.25,"N_COORD97":2545743.1499999999,"ADDRESS":"文賢一路２７２號","OBJECTID":222569},"geometry":{"x":167534.25000000093,"y":2545743.1500000022}},{"attributes":{"ID":222574,"DIS_CODE":0,"TOWNNAME":"北區","LI":"文元里","LIN":"28鄰","STREET":"文賢一路","SECT":" ","MAREA":" ","LANE":" ","ALLEY":" ","HOUSE_NO":"２６８號","E_COORD97":167534.73000000001,"N_COORD97":2545733.9399999999,"ADDRESS":"文賢一路２６８號","OBJECTID":222570},"geometry":{"x":167534.73000000138,"y":2545733.9400000013}},{"attributes":{"ID":222575,"DIS_CODE":0,"TOWNNAME":"北區","LI":"文元里","LIN":"28鄰","STREET":"文賢一路","SECT":" ","MAREA":" ","LANE":" ","ALLEY":" ","HOUSE_NO":"２６６號","E_COORD97":167534.89000000001,"N_COORD97":2545730.29,"ADDRESS":"文賢一路２６６號","OBJECTID":222571},"geometry":{"x":167534.88999999966,"y":2545730.2900000028}},{"attributes":{"ID":222576,"DIS_CODE":0,"TOWNNAME":"永康區","LI":"蔦松里","LIN":"9鄰","STREET":"正北三路","SECT":" ","MAREA":" ","LANE":"１３０巷","ALLEY":" ","HOUSE_NO":"１２號","E_COORD97":174455.84,"N_COORD97":2550062.0600000001,"ADDRESS":"正北三路１３０巷１２號","OBJECTID":222572},"geometry":{"x":174455.83999999892,"y":2550062.0600000005}},{"attributes":{"ID":222577,"DIS_CODE":0,"TOWNNAME":"永康區","LI":"蔦松里","LIN":"9鄰","STREET":"正北三路","SECT":" ","MAREA":" ","LANE":"１１３巷","ALLEY":" ","HOUSE_NO":"１０號","E_COORD97":174336.60999999999,"N_COORD97":2549980.4900000002,"ADDRESS":"正北三路１１３巷１０號","OBJECTID":222573},"geometry":{"x":174336.61000000127,"y":2549980.4900000002}},{"attributes":{"ID":222578,"DIS_CODE":0,"TOWNNAME":"永康區","LI":"蔦松里","LIN":"9鄰","STREET":"正北三路","SECT":" ","MAREA":" ","LANE":"１３０巷","ALLEY":" ","HOUSE_NO":"７號","E_COORD97":174426.73999999999,"N_COORD97":2550060.7000000002,"ADDRESS":"正北三路１３０巷７號","OBJECTID":222574},"geometry":{"x":174426.74000000115,"y":2550060.7000000011}},{"attributes":{"ID":222579,"DIS_CODE":0,"TOWNNAME":"麻豆區","LI":"巷口里","LIN":"9鄰","STREET":"建南街","SECT":" ","MAREA":" ","LANE":"１２２巷","ALLEY":" ","HOUSE_NO":"３號","E_COORD97":173292.67999999999,"N_COORD97":2564230.1699999999,"ADDRESS":"建南街１２２巷３號","OBJECTID":222575},"geometry":{"x":173292.68000000063,"y":2564230.1700000018}},{"attributes":{"ID":222580,"DIS_CODE":0,"TOWNNAME":"麻豆區","LI":"巷口里","LIN":"9鄰","STREET":"建南街","SECT":" ","MAREA":" ","LANE":"１２２巷","ALLEY":" ","HOUSE_NO":"５號","E_COORD97":173293.39000000001,"N_COORD97":2564225.3900000001,"ADDRESS":"建南街１２２巷５號","OBJECTID":222576},"geometry":{"x":173293.38999999966,"y":2564225.3900000043}},{"attributes":{"ID":222581,"DIS_CODE":0,"TOWNNAME":"麻豆區","LI":"巷口里","LIN":"9鄰","STREET":"建南街","SECT":" ","MAREA":" ","LANE":"１２２巷","ALLEY":" ","HOUSE_NO":"７號","E_COORD97":173294.42000000001,"N_COORD97":2564219.9399999999,"ADDRESS":"建南街１２２巷７號","OBJECTID":222577},"geometry":{"x":173294.42000000086,"y":2564219.9399999995}},{"attributes":{"ID":222582,"DIS_CODE":0,"TOWNNAME":"麻豆區","LI":"巷口里","LIN":"9鄰","STREET":"建南街","SECT":" ","MAREA":" ","LANE":"７４巷","ALLEY":" ","HOUSE_NO":"１２１號","E_COORD97":173265,"N_COORD97":2564167.29,"ADDRESS":"建南街７４巷１２１號","OBJECTID":222578},"geometry":{"x":173265.00000000186,"y":2564167.290000001}},{"attributes":{"ID":222583,"DIS_CODE":0,"TOWNNAME":"麻豆區","LI":"巷口里","LIN":"9鄰","STREET":"建南街","SECT":" ","MAREA":" ","LANE":"７４巷","ALLEY":" ","HOUSE_NO":"１２２號","E_COORD97":173257.10999999999,"N_COORD97":2564166.3399999999,"ADDRESS":"建南街７４巷１２２號","OBJECTID":222579},"geometry":{"x":173257.11000000034,"y":2564166.3399999999}},{"attributes":{"ID":222584,"DIS_CODE":0,"TOWNNAME":"仁德區","LI":"土庫里","LIN":"9鄰","STREET":"土庫路","SECT":" ","MAREA":" ","LANE":"５３巷","ALLEY":" ","HOUSE_NO":"３號","E_COORD97":174242.67000000001,"N_COORD97":2543337.5,"ADDRESS":"土庫路５３巷３號","OBJECTID":222580},"geometry":{"x":174242.67000000086,"y":2543337.5000000019}},{"attributes":{"ID":222585,"DIS_CODE":0,"TOWNNAME":"仁德區","LI":"上崙里","LIN":"9鄰","STREET":"德善路","SECT":" ","MAREA":" ","LANE":"３０５巷","ALLEY":" ","HOUSE_NO":"９號","E_COORD97":173998.94,"N_COORD97":2538552.27,"ADDRESS":"德善路３０５巷９號","OBJECTID":222581},"geometry":{"x":173998.94000000134,"y":2538552.2699999996}},{"attributes":{"ID":222586,"DIS_CODE":0,"TOWNNAME":"仁德區","LI":"土庫里","LIN":"9鄰","STREET":"土庫路","SECT":" ","MAREA":" ","LANE":"５３巷","ALLEY":" ","HOUSE_NO":"７號","E_COORD97":174252.07000000001,"N_COORD97":2543339.25,"ADDRESS":"土庫路５３巷７號","OBJECTID":222582},"geometry":{"x":174252.07000000123,"y":2543339.2500000019}},{"attributes":{"ID":222587,"DIS_CODE":0,"TOWNNAME":"仁德區","LI":"仁義里","LIN":"9鄰","STREET":"仁義三街","SECT":" ","MAREA":" ","LANE":"１０７巷","ALLEY":" ","HOUSE_NO":"１號","E_COORD97":173615.45000000001,"N_COORD97":2541149.52,"ADDRESS":"仁義三街１０７巷１號","OBJECTID":222583},"geometry":{"x":173615.45000000112,"y":2541149.5200000014}},{"attributes":{"ID":222588,"DIS_CODE":0,"TOWNNAME":"仁德區","LI":"仁義里","LIN":"9鄰","STREET":"仁義三街","SECT":" ","MAREA":" ","LANE":"１０７巷","ALLEY":" ","HOUSE_NO":"２號","E_COORD97":173631.23000000001,"N_COORD97":2541149.27,"ADDRESS":"仁義三街１０７巷２號","OBJECTID":222584},"geometry":{"x":173631.23000000045,"y":2541149.2699999996}},{"attributes":{"ID":222589,"DIS_CODE":0,"TOWNNAME":"仁德區","LI":"仁德里","LIN":"9鄰","STREET":"中正路","SECT":"二段","MAREA":" ","LANE":"１１９１巷","ALLEY":" ","HOUSE_NO":"３號","E_COORD97":173271.70999999999,"N_COORD97":2541137.0299999998,"ADDRESS":"中正路二段１１９１巷３號","OBJECTID":222585},"geometry":{"x":173271.70999999996,"y":2541137.0299999993}},{"attributes":{"ID":222590,"DIS_CODE":0,"TOWNNAME":"仁德區","LI":"仁義里","LIN":"9鄰","STREET":"仁義一街","SECT":" ","MAREA":" ","LANE":"１５６巷","ALLEY":" ","HOUSE_NO":"２號","E_COORD97":173658.63,"N_COORD97":2541158.77,"ADDRESS":"仁義一街１５６巷２號","OBJECTID":222586},"geometry":{"x":173658.62999999989,"y":2541158.7699999996}},{"attributes":{"ID":222591,"DIS_CODE":0,"TOWNNAME":"仁德區","LI":"仁德里","LIN":"9鄰","STREET":"中正路","SECT":"二段","MAREA":" ","LANE":"１１９１巷","ALLEY":" ","HOUSE_NO":"１０號","E_COORD97":173251.004908,"N_COORD97":2541150.9734899998,"ADDRESS":"中正路二段１１９１巷１０號","OBJECTID":222587},"geometry":{"x":173251.00490800105,"y":2541150.9734850023}},{"attributes":{"ID":222592,"DIS_CODE":0,"TOWNNAME":"仁德區","LI":"仁德里","LIN":"9鄰","STREET":"中正路","SECT":"二段","MAREA":" ","LANE":"１１９１巷","ALLEY":" ","HOUSE_NO":"９號","E_COORD97":173258.85000000001,"N_COORD97":2541135.5299999998,"ADDRESS":"中正路二段１１９１巷９號","OBJECTID":222588},"geometry":{"x":173258.85000000149,"y":2541135.5300000012}},{"attributes":{"ID":222593,"DIS_CODE":0,"TOWNNAME":"仁德區","LI":"仁義里","LIN":"9鄰","STREET":"仁義三街","SECT":" ","MAREA":" ","LANE":"１０７巷","ALLEY":" ","HOUSE_NO":"３號","E_COORD97":173615.47,"N_COORD97":2541153.52,"ADDRESS":"仁義三街１０７巷３號","OBJECTID":222589},"geometry":{"x":173615.46999999974,"y":2541153.5200000014}},{"attributes":{"ID":222594,"DIS_CODE":0,"TOWNNAME":"仁德區","LI":"仁德里","LIN":"9鄰","STREET":"中正路","SECT":"二段","MAREA":" ","LANE":"１１９１巷","ALLEY":" ","HOUSE_NO":"４號","E_COORD97":173262.86950199999,"N_COORD97":2541152.34932,"ADDRESS":"中正路二段１１９１巷４號","OBJECTID":222590},"geometry":{"x":173262.86950200051,"y":2541152.3493179996}},{"attributes":{"ID":222595,"DIS_CODE":0,"TOWNNAME":"永康區","LI":"正強里","LIN":"9鄰","STREET":"正義街","SECT":" ","MAREA":" ","LANE":"１２６巷","ALLEY":" ","HOUSE_NO":"１０號","E_COORD97":173393.10000000001,"N_COORD97":2547586.77,"ADDRESS":"正義街１２６巷１０號","OBJECTID":222591},"geometry":{"x":173393.10000000056,"y":2547586.7700000014}},{"attributes":{"ID":222596,"DIS_CODE":0,"TOWNNAME":"永康區","LI":"正強里","LIN":"9鄰","STREET":"正義街","SECT":" ","MAREA":" ","LANE":"１２６巷","ALLEY":" ","HOUSE_NO":"６號","E_COORD97":173394.37,"N_COORD97":2547577.7599999998,"ADDRESS":"正義街１２６巷６號","OBJECTID":222592},"geometry":{"x":173394.37000000011,"y":2547577.7599999998}},{"attributes":{"ID":222597,"DIS_CODE":0,"TOWNNAME":"善化區","LI":"西關里","LIN":"9鄰","STREET":"復興街","SECT":" ","MAREA":" ","LANE":"３６巷","ALLEY":" ","HOUSE_NO":"２號","E_COORD97":177044.39999999999,"N_COORD97":2559102.2599999998,"ADDRESS":"復興街３６巷２號","OBJECTID":222593},"geometry":{"x":177044.40000000037,"y":2559102.2599999998}},{"attributes":{"ID":222598,"DIS_CODE":0,"TOWNNAME":"永康區","LI":"蔦松里","LIN":"9鄰","STREET":"正北三路","SECT":" ","MAREA":" ","LANE":"１５０巷","ALLEY":" ","HOUSE_NO":"１０號","E_COORD97":174403.48000000001,"N_COORD97":2550119.8100000001,"ADDRESS":"正北三路１５０巷１０號","OBJECTID":222594},"geometry":{"x":174403.48000000138,"y":2550119.8100000024}},{"attributes":{"ID":222599,"DIS_CODE":0,"TOWNNAME":"永康區","LI":"蔦松里","LIN":"9鄰","STREET":"正北三路","SECT":" ","MAREA":" ","LANE":"１３０巷","ALLEY":" ","HOUSE_NO":"１１號","E_COORD97":174443.28,"N_COORD97":2550074.5099999998,"ADDRESS":"正北三路１３０巷１１號","OBJECTID":222595},"geometry":{"x":174443.28000000212,"y":2550074.5099999998}},{"attributes":{"ID":222600,"DIS_CODE":0,"TOWNNAME":"永康區","LI":"蔦松里","LIN":"9鄰","STREET":"正北三路","SECT":" ","MAREA":" ","LANE":"９１巷","ALLEY":" ","HOUSE_NO":"１５號","E_COORD97":174392.45000000001,"N_COORD97":2549869.5,"ADDRESS":"正北三路９１巷１５號","OBJECTID":222596},"geometry":{"x":174392.45000000019,"y":2549869.5000000037}},{"attributes":{"ID":222601,"DIS_CODE":0,"TOWNNAME":"永康區","LI":"蔦松里","LIN":"9鄰","STREET":"正北三路","SECT":" ","MAREA":" ","LANE":"１１３巷","ALLEY":" ","HOUSE_NO":"７號","E_COORD97":174354.92999999999,"N_COORD97":2549978.9900000002,"ADDRESS":"正北三路１１３巷７號","OBJECTID":222597},"geometry":{"x":174354.9299999997,"y":2549978.9900000021}},{"attributes":{"ID":222602,"DIS_CODE":0,"TOWNNAME":"永康區","LI":"蔦松里","LIN":"9鄰","STREET":"蔦松二街","SECT":" ","MAREA":" ","LANE":"８７巷","ALLEY":" ","HOUSE_NO":"１８號","E_COORD97":173704.82000000001,"N_COORD97":2549356.9900000002,"ADDRESS":"蔦松二街８７巷１８號","OBJECTID":222598},"geometry":{"x":173704.8200000003,"y":2549356.9900000002}},{"attributes":{"ID":222603,"DIS_CODE":0,"TOWNNAME":"永康區","LI":"蔦松里","LIN":"9鄰","STREET":"蔦松二街","SECT":" ","MAREA":" ","LANE":"８７巷","ALLEY":" ","HOUSE_NO":"２０號","E_COORD97":173706.87,"N_COORD97":2549352.75,"ADDRESS":"蔦松二街８７巷２０號","OBJECTID":222599},"geometry":{"x":173706.87000000104,"y":2549352.7500000019}},{"attributes":{"ID":222604,"DIS_CODE":0,"TOWNNAME":"永康區","LI":"蔦松里","LIN":"9鄰","STREET":"正北三路","SECT":" ","MAREA":" ","LANE":"１５０巷","ALLEY":" ","HOUSE_NO":"１６號","E_COORD97":174416.12,"N_COORD97":2550139,"ADDRESS":"正北三路１５０巷１６號","OBJECTID":222600},"geometry":{"x":174416.12000000104,"y":2550139}}]}