{"displayFieldName":"TOWNNAME","fieldAliases":{"ID":"ID","DIS_CODE":"DIS_CODE","TOWNNAME":"TOWNNAME","LI":"LI","LIN":"LIN","STREET":"STREET","SECT":"SECT","MAREA":"MAREA","LANE":"LANE","ALLEY":"ALLEY","HOUSE_NO":"HOUSE_NO","E_COORD97":"E_COORD97","N_COORD97":"N_COORD97","ADDRESS":"ADDRESS","OBJECTID":"OBJECTID"},"geometryType":"esriGeometryPoint","spatialReference":{"wkid":102443,"latestWkid":3826},"fields":[{"name":"ID","type":"esriFieldTypeDouble","alias":"ID"},{"name":"DIS_CODE","type":"esriFieldTypeInteger","alias":"DIS_CODE"},{"name":"TOWNNAME","type":"esriFieldTypeString","alias":"TOWNNAME","length":8},{"name":"LI","type":"esriFieldTypeString","alias":"LI","length":8},{"name":"LIN","type":"esriFieldTypeString","alias":"LIN","length":12},{"name":"STREET","type":"esriFieldTypeString","alias":"STREET","length":20},{"name":"SECT","type":"esriFieldTypeString","alias":"SECT","length":8},{"name":"MAREA","type":"esriFieldTypeString","alias":"MAREA","length":12},{"name":"LANE","type":"esriFieldTypeString","alias":"LANE","length":10},{"name":"ALLEY","type":"esriFieldTypeString","alias":"ALLEY","length":10},{"name":"HOUSE_NO","type":"esriFieldTypeString","alias":"HOUSE_NO","length":20},{"name":"E_COORD97","type":"esriFieldTypeDouble","alias":"E_COORD97"},{"name":"N_COORD97","type":"esriFieldTypeDouble","alias":"N_COORD97"},{"name":"ADDRESS","type":"esriFieldTypeString","alias":"ADDRESS","length":50},{"name":"OBJECTID","type":"esriFieldTypeOID","alias":"OBJECTID"}],"features":[{"attributes":{"ID":412025,"DIS_CODE":0,"TOWNNAME":"北區","LI":"大和里","LIN":"3鄰","STREET":"大興街","SECT":" ","MAREA":" ","LANE":"７６巷","ALLEY":" ","HOUSE_NO":"７５號","E_COORD97":167161.5,"N_COORD97":2545969.25,"ADDRESS":"大興街７６巷７５號","OBJECTID":412001},"geometry":{"x":167161.5,"y":2545969.2500000019}},{"attributes":{"ID":412026,"DIS_CODE":0,"TOWNNAME":"北區","LI":"大和里","LIN":"3鄰","STREET":"大興街","SECT":" ","MAREA":" ","LANE":"７６巷","ALLEY":" ","HOUSE_NO":"７７號","E_COORD97":167159.25,"N_COORD97":2545991.21,"ADDRESS":"大興街７６巷７７號","OBJECTID":412002},"geometry":{"x":167159.25000000093,"y":2545991.2100000028}},{"attributes":{"ID":412027,"DIS_CODE":0,"TOWNNAME":"北區","LI":"大和里","LIN":"3鄰","STREET":"大興街","SECT":" ","MAREA":" ","LANE":"７６巷","ALLEY":" ","HOUSE_NO":"７９號","E_COORD97":167154.59,"N_COORD97":2545990.1699999999,"ADDRESS":"大興街７６巷７９號","OBJECTID":412003},"geometry":{"x":167154.58999999985,"y":2545990.1700000018}},{"attributes":{"ID":412028,"DIS_CODE":0,"TOWNNAME":"北區","LI":"大和里","LIN":"3鄰","STREET":"大興街","SECT":" ","MAREA":" ","LANE":"７６巷","ALLEY":" ","HOUSE_NO":"７號","E_COORD97":167166.14000000001,"N_COORD97":2545825.54,"ADDRESS":"大興街７６巷７號","OBJECTID":412004},"geometry":{"x":167166.14000000153,"y":2545825.5399999991}},{"attributes":{"ID":412029,"DIS_CODE":0,"TOWNNAME":"北區","LI":"大和里","LIN":"3鄰","STREET":"大興街","SECT":" ","MAREA":" ","LANE":"７６巷","ALLEY":" ","HOUSE_NO":"８１號","E_COORD97":167147.67000000001,"N_COORD97":2545989.1200000001,"ADDRESS":"大興街７６巷８１號","OBJECTID":412005},"geometry":{"x":167147.67000000086,"y":2545989.1200000029}},{"attributes":{"ID":412030,"DIS_CODE":0,"TOWNNAME":"北區","LI":"大和里","LIN":"3鄰","STREET":"大興街","SECT":" ","MAREA":" ","LANE":"７６巷","ALLEY":" ","HOUSE_NO":"８３號","E_COORD97":167142.25,"N_COORD97":2545988.6299999999,"ADDRESS":"大興街７６巷８３號","OBJECTID":412006},"geometry":{"x":167142.25000000093,"y":2545988.6300000027}},{"attributes":{"ID":412031,"DIS_CODE":0,"TOWNNAME":"北區","LI":"大和里","LIN":"3鄰","STREET":"大興街","SECT":" ","MAREA":" ","LANE":"７６巷","ALLEY":" ","HOUSE_NO":"８５號","E_COORD97":167140.78,"N_COORD97":2546000.6299999999,"ADDRESS":"大興街７６巷８５號","OBJECTID":412007},"geometry":{"x":167140.78000000119,"y":2546000.629999999}},{"attributes":{"ID":412032,"DIS_CODE":0,"TOWNNAME":"北區","LI":"大和里","LIN":"3鄰","STREET":"大興街","SECT":" ","MAREA":" ","LANE":"７６巷","ALLEY":" ","HOUSE_NO":"８７號","E_COORD97":167146.73000000001,"N_COORD97":2546001.1200000001,"ADDRESS":"大興街７６巷８７號","OBJECTID":412008},"geometry":{"x":167146.73000000138,"y":2546001.1200000048}},{"attributes":{"ID":412033,"DIS_CODE":0,"TOWNNAME":"北區","LI":"大和里","LIN":"3鄰","STREET":"大興街","SECT":" ","MAREA":" ","LANE":"７６巷","ALLEY":" ","HOUSE_NO":"８９號","E_COORD97":167153.23000000001,"N_COORD97":2546001.4300000002,"ADDRESS":"大興街７６巷８９號","OBJECTID":412009},"geometry":{"x":167153.23000000138,"y":2546001.4300000016}},{"attributes":{"ID":412034,"DIS_CODE":0,"TOWNNAME":"北區","LI":"大和里","LIN":"3鄰","STREET":"大興街","SECT":" ","MAREA":" ","LANE":"７６巷","ALLEY":" ","HOUSE_NO":"９１號","E_COORD97":167159.06,"N_COORD97":2546001.9199999999,"ADDRESS":"大興街７６巷９１號","OBJECTID":412010},"geometry":{"x":167159.05999999959,"y":2546001.9200000018}},{"attributes":{"ID":412035,"DIS_CODE":0,"TOWNNAME":"北區","LI":"大和里","LIN":"3鄰","STREET":"大興街","SECT":" ","MAREA":" ","LANE":"７６巷","ALLEY":" ","HOUSE_NO":"９３號","E_COORD97":167156.48999999999,"N_COORD97":2546019.77,"ADDRESS":"大興街７６巷９３號","OBJECTID":412011},"geometry":{"x":167156.49000000115,"y":2546019.7700000014}},{"attributes":{"ID":412036,"DIS_CODE":0,"TOWNNAME":"北區","LI":"大和里","LIN":"3鄰","STREET":"大興街","SECT":" ","MAREA":" ","LANE":"７６巷","ALLEY":" ","HOUSE_NO":"９５號","E_COORD97":167150.54000000001,"N_COORD97":2546019.3999999999,"ADDRESS":"大興街７６巷９５號","OBJECTID":412012},"geometry":{"x":167150.54000000097,"y":2546019.4000000022}},{"attributes":{"ID":412037,"DIS_CODE":0,"TOWNNAME":"北區","LI":"大和里","LIN":"3鄰","STREET":"大興街","SECT":" ","MAREA":" ","LANE":"７６巷","ALLEY":" ","HOUSE_NO":"９７號","E_COORD97":167144.34,"N_COORD97":2546019.2200000002,"ADDRESS":"大興街７６巷９７號","OBJECTID":412013},"geometry":{"x":167144.33999999985,"y":2546019.2200000007}},{"attributes":{"ID":412038,"DIS_CODE":0,"TOWNNAME":"北區","LI":"大和里","LIN":"3鄰","STREET":"大興街","SECT":" ","MAREA":" ","LANE":"７６巷","ALLEY":" ","HOUSE_NO":"９９號","E_COORD97":167138.79999999999,"N_COORD97":2546018.5899999999,"ADDRESS":"大興街７６巷９９號","OBJECTID":412014},"geometry":{"x":167138.80000000075,"y":2546018.5900000017}},{"attributes":{"ID":412039,"DIS_CODE":0,"TOWNNAME":"北區","LI":"大和里","LIN":"3鄰","STREET":"大興街","SECT":" ","MAREA":" ","LANE":"７６巷","ALLEY":" ","HOUSE_NO":"９號","E_COORD97":167165.94,"N_COORD97":2545829.5600000001,"ADDRESS":"大興街７６巷９號","OBJECTID":412015},"geometry":{"x":167165.94000000041,"y":2545829.5600000024}},{"attributes":{"ID":412040,"DIS_CODE":0,"TOWNNAME":"麻豆區","LI":"興農里","LIN":"3鄰","STREET":"新生南路","SECT":" ","MAREA":" ","LANE":"３７３巷","ALLEY":" ","HOUSE_NO":"１０號","E_COORD97":172482.09,"N_COORD97":2564090.27,"ADDRESS":"新生南路３７３巷１０號","OBJECTID":412016},"geometry":{"x":172482.08999999985,"y":2564090.2700000014}},{"attributes":{"ID":412041,"DIS_CODE":0,"TOWNNAME":"麻豆區","LI":"興農里","LIN":"3鄰","STREET":"新生南路","SECT":" ","MAREA":" ","LANE":"３７３巷","ALLEY":" ","HOUSE_NO":"１２號","E_COORD97":172482.32000000001,"N_COORD97":2564085.9399999999,"ADDRESS":"新生南路３７３巷１２號","OBJECTID":412017},"geometry":{"x":172482.32000000123,"y":2564085.9400000013}},{"attributes":{"ID":412042,"DIS_CODE":0,"TOWNNAME":"麻豆區","LI":"興農里","LIN":"3鄰","STREET":"新生南路","SECT":" ","MAREA":" ","LANE":"３７３巷","ALLEY":" ","HOUSE_NO":"１４號","E_COORD97":172482.34,"N_COORD97":2564081.4199999999,"ADDRESS":"新生南路３７３巷１４號","OBJECTID":412018},"geometry":{"x":172482.33999999985,"y":2564081.4199999999}},{"attributes":{"ID":412043,"DIS_CODE":0,"TOWNNAME":"麻豆區","LI":"興農里","LIN":"3鄰","STREET":"新生南路","SECT":" ","MAREA":" ","LANE":"３７３巷","ALLEY":" ","HOUSE_NO":"１６號","E_COORD97":172482.48999999999,"N_COORD97":2564076.7400000002,"ADDRESS":"新生南路３７３巷１６號","OBJECTID":412019},"geometry":{"x":172482.49000000115,"y":2564076.7399999984}},{"attributes":{"ID":412044,"DIS_CODE":0,"TOWNNAME":"麻豆區","LI":"興農里","LIN":"3鄰","STREET":"新生南路","SECT":" ","MAREA":" ","LANE":"３７３巷","ALLEY":" ","HOUSE_NO":"１８號","E_COORD97":172482.81,"N_COORD97":2564071.8300000001,"ADDRESS":"新生南路３７３巷１８號","OBJECTID":412020},"geometry":{"x":172482.81000000052,"y":2564071.8300000001}},{"attributes":{"ID":412045,"DIS_CODE":0,"TOWNNAME":"麻豆區","LI":"興農里","LIN":"3鄰","STREET":"新生南路","SECT":" ","MAREA":" ","LANE":"３７３巷","ALLEY":" ","HOUSE_NO":"２０號","E_COORD97":172504.92000000001,"N_COORD97":2564072.1499999999,"ADDRESS":"新生南路３７３巷２０號","OBJECTID":412021},"geometry":{"x":172504.92000000086,"y":2564072.1500000022}},{"attributes":{"ID":412046,"DIS_CODE":0,"TOWNNAME":"麻豆區","LI":"興農里","LIN":"3鄰","STREET":"新生南路","SECT":" ","MAREA":" ","LANE":"３７３巷","ALLEY":" ","HOUSE_NO":"２２號","E_COORD97":172505.34,"N_COORD97":2564076.5899999999,"ADDRESS":"新生南路３７３巷２２號","OBJECTID":412022},"geometry":{"x":172505.34000000078,"y":2564076.5899999999}},{"attributes":{"ID":412047,"DIS_CODE":0,"TOWNNAME":"麻豆區","LI":"興農里","LIN":"3鄰","STREET":"新生南路","SECT":" ","MAREA":" ","LANE":"３７３巷","ALLEY":" ","HOUSE_NO":"２４號","E_COORD97":172505.45999999999,"N_COORD97":2564081.3199999998,"ADDRESS":"新生南路３７３巷２４號","OBJECTID":412023},"geometry":{"x":172505.45999999996,"y":2564081.3200000022}},{"attributes":{"ID":412048,"DIS_CODE":0,"TOWNNAME":"麻豆區","LI":"興農里","LIN":"3鄰","STREET":"新生南路","SECT":" ","MAREA":" ","LANE":"３７３巷","ALLEY":" ","HOUSE_NO":"２６號","E_COORD97":172505.10999999999,"N_COORD97":2564086.04,"ADDRESS":"新生南路３７３巷２６號","OBJECTID":412024},"geometry":{"x":172505.1100000022,"y":2564086.0399999991}},{"attributes":{"ID":412049,"DIS_CODE":0,"TOWNNAME":"麻豆區","LI":"興農里","LIN":"3鄰","STREET":"新生南路","SECT":" ","MAREA":" ","LANE":"３７３巷","ALLEY":" ","HOUSE_NO":"２８號","E_COORD97":172504.95000000001,"N_COORD97":2564090.54,"ADDRESS":"新生南路３７３巷２８號","OBJECTID":412025},"geometry":{"x":172504.95000000112,"y":2564090.5399999972}},{"attributes":{"ID":412050,"DIS_CODE":0,"TOWNNAME":"麻豆區","LI":"興農里","LIN":"3鄰","STREET":"新生南路","SECT":" ","MAREA":" ","LANE":"３７３巷","ALLEY":" ","HOUSE_NO":"２號","E_COORD97":172481.70000000001,"N_COORD97":2564104.0099999998,"ADDRESS":"新生南路３７３巷２號","OBJECTID":412026},"geometry":{"x":172481.70000000019,"y":2564104.0099999998}},{"attributes":{"ID":412051,"DIS_CODE":0,"TOWNNAME":"麻豆區","LI":"興農里","LIN":"3鄰","STREET":"新生南路","SECT":" ","MAREA":" ","LANE":"３７３巷","ALLEY":" ","HOUSE_NO":"３０號","E_COORD97":172505,"N_COORD97":2564095.54,"ADDRESS":"新生南路３７３巷３０號","OBJECTID":412027},"geometry":{"x":172505,"y":2564095.540000001}},{"attributes":{"ID":412052,"DIS_CODE":0,"TOWNNAME":"麻豆區","LI":"興農里","LIN":"3鄰","STREET":"新生南路","SECT":" ","MAREA":" ","LANE":"３７３巷","ALLEY":" ","HOUSE_NO":"３２號","E_COORD97":172504.37,"N_COORD97":2564100.0899999999,"ADDRESS":"新生南路３７３巷３２號","OBJECTID":412028},"geometry":{"x":172504.37000000011,"y":2564100.0899999999}},{"attributes":{"ID":412053,"DIS_CODE":0,"TOWNNAME":"麻豆區","LI":"興農里","LIN":"3鄰","STREET":"新生南路","SECT":" ","MAREA":" ","LANE":"３７３巷","ALLEY":" ","HOUSE_NO":"３４號","E_COORD97":172504.20000000001,"N_COORD97":2564104.7599999998,"ADDRESS":"新生南路３７３巷３４號","OBJECTID":412029},"geometry":{"x":172504.20000000019,"y":2564104.7600000016}},{"attributes":{"ID":412054,"DIS_CODE":0,"TOWNNAME":"麻豆區","LI":"興農里","LIN":"3鄰","STREET":"新生南路","SECT":" ","MAREA":" ","LANE":"３７３巷","ALLEY":" ","HOUSE_NO":"３６號","E_COORD97":172516.97,"N_COORD97":2564102.9900000002,"ADDRESS":"新生南路３７３巷３６號","OBJECTID":412030},"geometry":{"x":172516.96999999974,"y":2564102.9900000021}},{"attributes":{"ID":412055,"DIS_CODE":0,"TOWNNAME":"麻豆區","LI":"興農里","LIN":"3鄰","STREET":"新生南路","SECT":" ","MAREA":" ","LANE":"３７３巷","ALLEY":" ","HOUSE_NO":"３８號","E_COORD97":172522.13,"N_COORD97":2564103.1400000001,"ADDRESS":"新生南路３７３巷３８號","OBJECTID":412031},"geometry":{"x":172522.13000000082,"y":2564103.1400000025}},{"attributes":{"ID":412056,"DIS_CODE":0,"TOWNNAME":"麻豆區","LI":"興農里","LIN":"3鄰","STREET":"新生南路","SECT":" ","MAREA":" ","LANE":"３７３巷","ALLEY":" ","HOUSE_NO":"４０號","E_COORD97":172527.34,"N_COORD97":2564103.3700000001,"ADDRESS":"新生南路３７３巷４０號","OBJECTID":412032},"geometry":{"x":172527.34000000078,"y":2564103.370000001}},{"attributes":{"ID":412057,"DIS_CODE":0,"TOWNNAME":"麻豆區","LI":"興農里","LIN":"3鄰","STREET":"新生南路","SECT":" ","MAREA":" ","LANE":"３７３巷","ALLEY":" ","HOUSE_NO":"４２號","E_COORD97":172532.51999999999,"N_COORD97":2564103.3999999999,"ADDRESS":"新生南路３７３巷４２號","OBJECTID":412033},"geometry":{"x":172532.52000000048,"y":2564103.4000000041}},{"attributes":{"ID":412058,"DIS_CODE":0,"TOWNNAME":"麻豆區","LI":"興農里","LIN":"3鄰","STREET":"新生南路","SECT":" ","MAREA":" ","LANE":"３７３巷","ALLEY":" ","HOUSE_NO":"４６號","E_COORD97":172537.32999999999,"N_COORD97":2564103.8700000001,"ADDRESS":"新生南路３７３巷４６號","OBJECTID":412034},"geometry":{"x":172537.33000000194,"y":2564103.8699999992}},{"attributes":{"ID":412059,"DIS_CODE":0,"TOWNNAME":"麻豆區","LI":"興農里","LIN":"3鄰","STREET":"新生南路","SECT":" ","MAREA":" ","LANE":"３７３巷","ALLEY":" ","HOUSE_NO":"４８號","E_COORD97":172542.54000000001,"N_COORD97":2564104.1899999999,"ADDRESS":"新生南路３７３巷４８號","OBJECTID":412035},"geometry":{"x":172542.5400000019,"y":2564104.1900000013}},{"attributes":{"ID":412060,"DIS_CODE":0,"TOWNNAME":"麻豆區","LI":"興農里","LIN":"3鄰","STREET":"新生南路","SECT":" ","MAREA":" ","LANE":"３７３巷","ALLEY":" ","HOUSE_NO":"５０號","E_COORD97":172547.17999999999,"N_COORD97":2564104.2200000002,"ADDRESS":"新生南路３７３巷５０號","OBJECTID":412036},"geometry":{"x":172547.18000000063,"y":2564104.2200000007}},{"attributes":{"ID":412061,"DIS_CODE":0,"TOWNNAME":"麻豆區","LI":"興農里","LIN":"3鄰","STREET":"新生南路","SECT":" ","MAREA":" ","LANE":"３７３巷","ALLEY":" ","HOUSE_NO":"５２號","E_COORD97":172552.54999999999,"N_COORD97":2564104.0899999999,"ADDRESS":"新生南路３７３巷５２號","OBJECTID":412037},"geometry":{"x":172552.55000000168,"y":2564104.0899999999}},{"attributes":{"ID":412062,"DIS_CODE":0,"TOWNNAME":"麻豆區","LI":"興農里","LIN":"3鄰","STREET":"新生南路","SECT":" ","MAREA":" ","LANE":"３７３巷","ALLEY":" ","HOUSE_NO":"５４號","E_COORD97":172518.13,"N_COORD97":2564084.7999999998,"ADDRESS":"新生南路３７３巷５４號","OBJECTID":412038},"geometry":{"x":172518.13000000175,"y":2564084.8000000026}},{"attributes":{"ID":412063,"DIS_CODE":0,"TOWNNAME":"東區","LI":"和平里","LIN":"1鄰","STREET":"文化一街","SECT":" ","MAREA":" ","LANE":" ","ALLEY":" ","HOUSE_NO":"６號五樓","E_COORD97":171099.45000000001,"N_COORD97":2542097.2200000002,"ADDRESS":"文化一街６號五樓","OBJECTID":412039},"geometry":{"x":171099.45000000112,"y":2542097.2200000007}},{"attributes":{"ID":412064,"DIS_CODE":0,"TOWNNAME":"麻豆區","LI":"興農里","LIN":"3鄰","STREET":"新生南路","SECT":" ","MAREA":" ","LANE":"３７３巷","ALLEY":" ","HOUSE_NO":"５６號","E_COORD97":172524.07999999999,"N_COORD97":2564085.2200000002,"ADDRESS":"新生南路３７３巷５６號","OBJECTID":412040},"geometry":{"x":172524.08000000101,"y":2564085.2200000025}},{"attributes":{"ID":412065,"DIS_CODE":0,"TOWNNAME":"麻豆區","LI":"興農里","LIN":"3鄰","STREET":"新生南路","SECT":" ","MAREA":" ","LANE":"３７３巷","ALLEY":" ","HOUSE_NO":"５８號","E_COORD97":172529.39999999999,"N_COORD97":2564085.2599999998,"ADDRESS":"新生南路３７３巷５８號","OBJECTID":412041},"geometry":{"x":172529.4000000013,"y":2564085.2599999998}},{"attributes":{"ID":412066,"DIS_CODE":0,"TOWNNAME":"麻豆區","LI":"興農里","LIN":"3鄰","STREET":"新生南路","SECT":" ","MAREA":" ","LANE":"３７３巷","ALLEY":" ","HOUSE_NO":"６０號","E_COORD97":172534.57000000001,"N_COORD97":2564085.4900000002,"ADDRESS":"新生南路３７３巷６０號","OBJECTID":412042},"geometry":{"x":172534.57000000123,"y":2564085.4900000039}},{"attributes":{"ID":412067,"DIS_CODE":0,"TOWNNAME":"麻豆區","LI":"興農里","LIN":"3鄰","STREET":"新生南路","SECT":" ","MAREA":" ","LANE":"３７３巷","ALLEY":" ","HOUSE_NO":"６２號","E_COORD97":172539.91,"N_COORD97":2564085.96,"ADDRESS":"新生南路３７３巷６２號","OBJECTID":412043},"geometry":{"x":172539.91000000015,"y":2564085.9600000009}},{"attributes":{"ID":412068,"DIS_CODE":0,"TOWNNAME":"麻豆區","LI":"興農里","LIN":"3鄰","STREET":"新生南路","SECT":" ","MAREA":" ","LANE":"３７３巷","ALLEY":" ","HOUSE_NO":"６４號","E_COORD97":172544.89000000001,"N_COORD97":2564085.96,"ADDRESS":"新生南路３７３巷６４號","OBJECTID":412044},"geometry":{"x":172544.89000000153,"y":2564085.9600000009}},{"attributes":{"ID":412069,"DIS_CODE":0,"TOWNNAME":"麻豆區","LI":"興農里","LIN":"3鄰","STREET":"新生南路","SECT":" ","MAREA":" ","LANE":"３７３巷","ALLEY":" ","HOUSE_NO":"６６號","E_COORD97":172550.17999999999,"N_COORD97":2564086.1299999999,"ADDRESS":"新生南路３７３巷６６號","OBJECTID":412045},"geometry":{"x":172550.18000000063,"y":2564086.129999999}},{"attributes":{"ID":412070,"DIS_CODE":0,"TOWNNAME":"麻豆區","LI":"興農里","LIN":"3鄰","STREET":"新生南路","SECT":" ","MAREA":" ","LANE":"３７３巷","ALLEY":" ","HOUSE_NO":"６８號","E_COORD97":172555.42000000001,"N_COORD97":2564086.1699999999,"ADDRESS":"新生南路３７３巷６８號","OBJECTID":412046},"geometry":{"x":172555.42000000086,"y":2564086.1699999999}},{"attributes":{"ID":412071,"DIS_CODE":0,"TOWNNAME":"麻豆區","LI":"興農里","LIN":"3鄰","STREET":"新生南路","SECT":" ","MAREA":" ","LANE":"３７３巷","ALLEY":" ","HOUSE_NO":"６號","E_COORD97":172481.81,"N_COORD97":2564099.48,"ADDRESS":"新生南路３７３巷６號","OBJECTID":412047},"geometry":{"x":172481.80999999959,"y":2564099.4800000042}},{"attributes":{"ID":412072,"DIS_CODE":0,"TOWNNAME":"麻豆區","LI":"興農里","LIN":"3鄰","STREET":"新生南路","SECT":" ","MAREA":" ","LANE":"３７３巷","ALLEY":" ","HOUSE_NO":"８號","E_COORD97":172482.01000000001,"N_COORD97":2564095.0299999998,"ADDRESS":"新生南路３７３巷８號","OBJECTID":412048},"geometry":{"x":172482.01000000071,"y":2564095.0300000012}},{"attributes":{"ID":412073,"DIS_CODE":0,"TOWNNAME":"官田區","LI":"隆田里","LIN":"13鄰","STREET":"勝利路","SECT":" ","MAREA":" ","LANE":"９９巷","ALLEY":" ","HOUSE_NO":"１號","E_COORD97":180060.29000000001,"N_COORD97":2565984.2200000002,"ADDRESS":"勝利路９９巷１號","OBJECTID":412049},"geometry":{"x":180060.29000000004,"y":2565984.2200000025}},{"attributes":{"ID":412074,"DIS_CODE":0,"TOWNNAME":"官田區","LI":"隆田里","LIN":"13鄰","STREET":"勝利路","SECT":" ","MAREA":" ","LANE":"９９巷","ALLEY":" ","HOUSE_NO":"２號","E_COORD97":180062.48999999999,"N_COORD97":2565980.1099999999,"ADDRESS":"勝利路９９巷２號","OBJECTID":412050},"geometry":{"x":180062.49000000022,"y":2565980.1100000013}},{"attributes":{"ID":412075,"DIS_CODE":0,"TOWNNAME":"官田區","LI":"隆田里","LIN":"13鄰","STREET":"勝利路","SECT":" ","MAREA":" ","LANE":"９９巷","ALLEY":" ","HOUSE_NO":"３號","E_COORD97":180064.63,"N_COORD97":2565976.29,"ADDRESS":"勝利路９９巷３號","OBJECTID":412051},"geometry":{"x":180064.62999999989,"y":2565976.2899999991}},{"attributes":{"ID":412076,"DIS_CODE":0,"TOWNNAME":"官田區","LI":"隆田里","LIN":"13鄰","STREET":"勝利路","SECT":" ","MAREA":" ","LANE":"９９巷","ALLEY":" ","HOUSE_NO":"４號","E_COORD97":180066.39999999999,"N_COORD97":2565972.54,"ADDRESS":"勝利路９９巷４號","OBJECTID":412052},"geometry":{"x":180066.40000000037,"y":2565972.5400000028}},{"attributes":{"ID":412077,"DIS_CODE":0,"TOWNNAME":"官田區","LI":"隆田里","LIN":"13鄰","STREET":"勝利路","SECT":" ","MAREA":" ","LANE":"９９巷","ALLEY":" ","HOUSE_NO":"５號","E_COORD97":180068.60000000001,"N_COORD97":2565968.5899999999,"ADDRESS":"勝利路９９巷５號","OBJECTID":412053},"geometry":{"x":180068.60000000056,"y":2565968.5899999999}},{"attributes":{"ID":412078,"DIS_CODE":0,"TOWNNAME":"官田區","LI":"隆田里","LIN":"13鄰","STREET":"勝利路","SECT":" ","MAREA":" ","LANE":"９９巷","ALLEY":" ","HOUSE_NO":"６號","E_COORD97":180071.70999999999,"N_COORD97":2565965.1000000001,"ADDRESS":"勝利路９９巷６號","OBJECTID":412054},"geometry":{"x":180071.71000000089,"y":2565965.0999999996}},{"attributes":{"ID":412079,"DIS_CODE":0,"TOWNNAME":"官田區","LI":"隆田里","LIN":"13鄰","STREET":"勝利路","SECT":" ","MAREA":" ","LANE":"９９巷","ALLEY":" ","HOUSE_NO":"７號","E_COORD97":180073.04999999999,"N_COORD97":2565961.3100000001,"ADDRESS":"勝利路９９巷７號","OBJECTID":412055},"geometry":{"x":180073.05000000075,"y":2565961.3100000005}},{"attributes":{"ID":412080,"DIS_CODE":0,"TOWNNAME":"官田區","LI":"隆田里","LIN":"13鄰","STREET":"勝利路","SECT":" ","MAREA":" ","LANE":"９９巷","ALLEY":" ","HOUSE_NO":"８號","E_COORD97":180075.14999999999,"N_COORD97":2565955.7000000002,"ADDRESS":"勝利路９９巷８號","OBJECTID":412056},"geometry":{"x":180075.15000000037,"y":2565955.7000000011}},{"attributes":{"ID":412081,"DIS_CODE":0,"TOWNNAME":"官田區","LI":"隆田里","LIN":"13鄰","STREET":"勝利路","SECT":" ","MAREA":" ","LANE":"９９巷","ALLEY":" ","HOUSE_NO":"９號","E_COORD97":180089.12,"N_COORD97":2565999.1299999999,"ADDRESS":"勝利路９９巷９號","OBJECTID":412057},"geometry":{"x":180089.12000000197,"y":2565999.1300000008}},{"attributes":{"ID":412082,"DIS_CODE":0,"TOWNNAME":"歸仁區","LI":"歸南里","LIN":"3鄰","STREET":"民權南路","SECT":" ","MAREA":" ","LANE":"２４８巷","ALLEY":" ","HOUSE_NO":"３４號","E_COORD97":176855.06,"N_COORD97":2540237.5,"ADDRESS":"民權南路２４８巷３４號","OBJECTID":412058},"geometry":{"x":176855.06000000052,"y":2540237.5000000019}},{"attributes":{"ID":412083,"DIS_CODE":0,"TOWNNAME":"歸仁區","LI":"崙頂里","LIN":"3鄰","STREET":"成功路","SECT":"二段","MAREA":" ","LANE":"１０巷","ALLEY":" ","HOUSE_NO":"１２號","E_COORD97":178166.97,"N_COORD97":2539917.5699999998,"ADDRESS":"成功路二段１０巷１２號","OBJECTID":412059},"geometry":{"x":178166.96999999974,"y":2539917.5700000003}},{"attributes":{"ID":412084,"DIS_CODE":0,"TOWNNAME":"歸仁區","LI":"媽廟里","LIN":"3鄰","STREET":"和順路","SECT":"一段","MAREA":" ","LANE":"６３巷","ALLEY":" ","HOUSE_NO":"２４號","E_COORD97":177342.72,"N_COORD97":2543649.7200000002,"ADDRESS":"和順路一段６３巷２４號","OBJECTID":412060},"geometry":{"x":177342.71999999974,"y":2543649.7200000007}},{"attributes":{"ID":412085,"DIS_CODE":0,"TOWNNAME":"歸仁區","LI":"媽廟里","LIN":"3鄰","STREET":"和順路","SECT":"一段","MAREA":" ","LANE":"６３巷","ALLEY":" ","HOUSE_NO":"１２號","E_COORD97":177304.82000000001,"N_COORD97":2543655.7200000002,"ADDRESS":"和順路一段６３巷１２號","OBJECTID":412061},"geometry":{"x":177304.82000000123,"y":2543655.7200000007}},{"attributes":{"ID":412086,"DIS_CODE":0,"TOWNNAME":"歸仁區","LI":"許厝里","LIN":"3鄰","STREET":"仁愛南街","SECT":" ","MAREA":" ","LANE":"３５巷","ALLEY":" ","HOUSE_NO":"６號","E_COORD97":178296.41,"N_COORD97":2540567.8999999999,"ADDRESS":"仁愛南街３５巷６號","OBJECTID":412062},"geometry":{"x":178296.41000000015,"y":2540567.9000000022}},{"attributes":{"ID":412087,"DIS_CODE":0,"TOWNNAME":"歸仁區","LI":"文化里","LIN":"3鄰","STREET":"國光街","SECT":" ","MAREA":" ","LANE":"１４３巷","ALLEY":" ","HOUSE_NO":"９號","E_COORD97":177310.32999999999,"N_COORD97":2541205.3300000001,"ADDRESS":"國光街１４３巷９號","OBJECTID":412063},"geometry":{"x":177310.33000000007,"y":2541205.3300000019}},{"attributes":{"ID":412088,"DIS_CODE":0,"TOWNNAME":"歸仁區","LI":"看東里","LIN":"3鄰","STREET":"成功六街","SECT":" ","MAREA":" ","LANE":"３８巷","ALLEY":" ","HOUSE_NO":"４９號","E_COORD97":178455.88,"N_COORD97":2540231.8300000001,"ADDRESS":"成功六街３８巷４９號","OBJECTID":412064},"geometry":{"x":178455.87999999989,"y":2540231.8300000038}},{"attributes":{"ID":412089,"DIS_CODE":0,"TOWNNAME":"歸仁區","LI":"後市里","LIN":"3鄰","STREET":"民族南街","SECT":" ","MAREA":" ","LANE":"１８巷","ALLEY":" ","HOUSE_NO":"７１號","E_COORD97":177254.34,"N_COORD97":2540749.5499999998,"ADDRESS":"民族南街１８巷７１號","OBJECTID":412065},"geometry":{"x":177254.33999999985,"y":2540749.5500000045}},{"attributes":{"ID":412090,"DIS_CODE":0,"TOWNNAME":"歸仁區","LI":"後市里","LIN":"3鄰","STREET":"民族南街","SECT":" ","MAREA":" ","LANE":"１８巷","ALLEY":" ","HOUSE_NO":"７３號","E_COORD97":177250.34,"N_COORD97":2540751.5499999998,"ADDRESS":"民族南街１８巷７３號","OBJECTID":412066},"geometry":{"x":177250.34000000078,"y":2540751.5500000007}},{"attributes":{"ID":412091,"DIS_CODE":0,"TOWNNAME":"歸仁區","LI":"後市里","LIN":"3鄰","STREET":"民族南街","SECT":" ","MAREA":" ","LANE":"１８巷","ALLEY":" ","HOUSE_NO":"６９號","E_COORD97":177258.44,"N_COORD97":2540749.5499999998,"ADDRESS":"民族南街１８巷６９號","OBJECTID":412067},"geometry":{"x":177258.44000000134,"y":2540749.5500000045}},{"attributes":{"ID":412092,"DIS_CODE":0,"TOWNNAME":"歸仁區","LI":"大潭里","LIN":"3鄰","STREET":"長榮路","SECT":"一段","MAREA":" ","LANE":"６１３巷","ALLEY":" ","HOUSE_NO":"９號","E_COORD97":176052.47,"N_COORD97":2534537.2799999998,"ADDRESS":"長榮路一段６１３巷９號","OBJECTID":412068},"geometry":{"x":176052.47000000067,"y":2534537.2799999993}},{"attributes":{"ID":412093,"DIS_CODE":0,"TOWNNAME":"歸仁區","LI":"西埔里","LIN":"3鄰","STREET":"保大路","SECT":"二段","MAREA":" ","LANE":"１４５巷","ALLEY":" ","HOUSE_NO":"３號","E_COORD97":176946.17000000001,"N_COORD97":2544101.2799999998,"ADDRESS":"保大路二段１４５巷３號","OBJECTID":412069},"geometry":{"x":176946.17000000086,"y":2544101.2800000012}},{"attributes":{"ID":412094,"DIS_CODE":0,"TOWNNAME":"歸仁區","LI":"西埔里","LIN":"3鄰","STREET":"保大路","SECT":"二段","MAREA":" ","LANE":"１４５巷","ALLEY":" ","HOUSE_NO":"１１號","E_COORD97":176953.51999999999,"N_COORD97":2544074.2799999998,"ADDRESS":"保大路二段１４５巷１１號","OBJECTID":412070},"geometry":{"x":176953.52000000048,"y":2544074.2799999993}},{"attributes":{"ID":412095,"DIS_CODE":0,"TOWNNAME":"歸仁區","LI":"西埔里","LIN":"3鄰","STREET":"保大路","SECT":"二段","MAREA":" ","LANE":"１４５巷","ALLEY":" ","HOUSE_NO":"１５號","E_COORD97":176954.51999999999,"N_COORD97":2544067.2799999998,"ADDRESS":"保大路二段１４５巷１５號","OBJECTID":412071},"geometry":{"x":176954.51999999955,"y":2544067.2800000012}},{"attributes":{"ID":412096,"DIS_CODE":0,"TOWNNAME":"歸仁區","LI":"南興里","LIN":"3鄰","STREET":"文化十二街","SECT":" ","MAREA":" ","LANE":"７１巷","ALLEY":" ","HOUSE_NO":"１１號","E_COORD97":176424.14000000001,"N_COORD97":2541337.3300000001,"ADDRESS":"文化十二街７１巷１１號","OBJECTID":412072},"geometry":{"x":176424.1400000006,"y":2541337.3300000019}},{"attributes":{"ID":412097,"DIS_CODE":0,"TOWNNAME":"歸仁區","LI":"武東里","LIN":"3鄰","STREET":"武東二街","SECT":" ","MAREA":" ","LANE":"２６巷","ALLEY":" ","HOUSE_NO":"２２號","E_COORD97":175463.98999999999,"N_COORD97":2535284.25,"ADDRESS":"武東二街２６巷２２號","OBJECTID":412073},"geometry":{"x":175463.99000000209,"y":2535284.25}},{"attributes":{"ID":412098,"DIS_CODE":0,"TOWNNAME":"歸仁區","LI":"西埔里","LIN":"3鄰","STREET":"保大路","SECT":"二段","MAREA":" ","LANE":"１１１巷","ALLEY":" ","HOUSE_NO":"１８號","E_COORD97":177025.22,"N_COORD97":2544064.2799999998,"ADDRESS":"保大路二段１１１巷１８號","OBJECTID":412074},"geometry":{"x":177025.22000000067,"y":2544064.2799999993}},{"attributes":{"ID":412099,"DIS_CODE":0,"TOWNNAME":"歸仁區","LI":"歸南里","LIN":"3鄰","STREET":"民權南路","SECT":" ","MAREA":" ","LANE":"２３４巷","ALLEY":" ","HOUSE_NO":"５號","E_COORD97":176925.29000000001,"N_COORD97":2540258.54,"ADDRESS":"民權南路２３４巷５號","OBJECTID":412075},"geometry":{"x":176925.29000000097,"y":2540258.5399999991}},{"attributes":{"ID":412100,"DIS_CODE":0,"TOWNNAME":"歸仁區","LI":"大廟里","LIN":"3鄰","STREET":"大廟二街","SECT":" ","MAREA":" ","LANE":"９３巷","ALLEY":" ","HOUSE_NO":"８號","E_COORD97":176079.14999999999,"N_COORD97":2543916.1699999999,"ADDRESS":"大廟二街９３巷８號","OBJECTID":412076},"geometry":{"x":176079.1500000013,"y":2543916.1700000018}},{"attributes":{"ID":412101,"DIS_CODE":0,"TOWNNAME":"歸仁區","LI":"後市里","LIN":"3鄰","STREET":"民族南街","SECT":" ","MAREA":" ","LANE":"１８巷","ALLEY":" ","HOUSE_NO":"６３號","E_COORD97":177271.84,"N_COORD97":2540749.5499999998,"ADDRESS":"民族南街１８巷６３號","OBJECTID":412077},"geometry":{"x":177271.84000000078,"y":2540749.5500000045}},{"attributes":{"ID":412102,"DIS_CODE":0,"TOWNNAME":"新營區","LI":"南紙里","LIN":"3鄰","STREET":"太子路","SECT":" ","MAREA":" ","LANE":"１５３巷","ALLEY":" ","HOUSE_NO":"１３號","E_COORD97":177941.26000000001,"N_COORD97":2577820.6600000001,"ADDRESS":"太子路１５３巷１３號","OBJECTID":412078},"geometry":{"x":177941.25999999978,"y":2577820.6600000001}},{"attributes":{"ID":412103,"DIS_CODE":0,"TOWNNAME":"新營區","LI":"南紙里","LIN":"3鄰","STREET":"太子路","SECT":" ","MAREA":" ","LANE":"１５３巷","ALLEY":" ","HOUSE_NO":"１５號","E_COORD97":177942.26000000001,"N_COORD97":2577816.23,"ADDRESS":"太子路１５３巷１５號","OBJECTID":412079},"geometry":{"x":177942.26000000071,"y":2577816.2300000023}},{"attributes":{"ID":412104,"DIS_CODE":0,"TOWNNAME":"新營區","LI":"南紙里","LIN":"3鄰","STREET":"太子路","SECT":" ","MAREA":" ","LANE":"１５３巷","ALLEY":" ","HOUSE_NO":"１７號","E_COORD97":177943.26000000001,"N_COORD97":2577811.79,"ADDRESS":"太子路１５３巷１７號","OBJECTID":412080},"geometry":{"x":177943.25999999885,"y":2577811.7899999991}},{"attributes":{"ID":412105,"DIS_CODE":0,"TOWNNAME":"新營區","LI":"忠政里","LIN":"3鄰","STREET":"中正路","SECT":" ","MAREA":" ","LANE":"３７巷","ALLEY":" ","HOUSE_NO":"３之１號","E_COORD97":180077.45000000001,"N_COORD97":2579128.3399999999,"ADDRESS":"中正路３７巷３之１號","OBJECTID":412081},"geometry":{"x":180077.45000000112,"y":2579128.3399999999}},{"attributes":{"ID":412106,"DIS_CODE":0,"TOWNNAME":"新營區","LI":"南紙里","LIN":"3鄰","STREET":"太子路","SECT":" ","MAREA":" ","LANE":"１５３巷","ALLEY":" ","HOUSE_NO":"８號","E_COORD97":177926.79999999999,"N_COORD97":2577825.1499999999,"ADDRESS":"太子路１５３巷８號","OBJECTID":412082},"geometry":{"x":177926.80000000075,"y":2577825.1500000004}},{"attributes":{"ID":412107,"DIS_CODE":0,"TOWNNAME":"新營區","LI":"忠政里","LIN":"3鄰","STREET":"中正路","SECT":" ","MAREA":" ","LANE":"３５巷","ALLEY":" ","HOUSE_NO":"７號","E_COORD97":180059.39000000001,"N_COORD97":2579096.25,"ADDRESS":"中正路３５巷７號","OBJECTID":412083},"geometry":{"x":180059.38999999966,"y":2579096.2500000037}},{"attributes":{"ID":412108,"DIS_CODE":0,"TOWNNAME":"新營區","LI":"忠政里","LIN":"3鄰","STREET":"中正路","SECT":" ","MAREA":" ","LANE":"３５巷","ALLEY":" ","HOUSE_NO":"７號之１","E_COORD97":180056.41,"N_COORD97":2579096.3300000001,"ADDRESS":"中正路３５巷７號之１","OBJECTID":412084},"geometry":{"x":180056.41000000015,"y":2579096.3300000019}},{"attributes":{"ID":412109,"DIS_CODE":0,"TOWNNAME":"新營區","LI":"忠政里","LIN":"3鄰","STREET":"中正路","SECT":" ","MAREA":" ","LANE":"３５巷","ALLEY":" ","HOUSE_NO":"５之１號","E_COORD97":180067,"N_COORD97":2579097.3900000001,"ADDRESS":"中正路３５巷５之１號","OBJECTID":412085},"geometry":{"x":180067,"y":2579097.3900000025}},{"attributes":{"ID":412110,"DIS_CODE":0,"TOWNNAME":"新營區","LI":"忠政里","LIN":"3鄰","STREET":"中正路","SECT":" ","MAREA":" ","LANE":"３５巷","ALLEY":" ","HOUSE_NO":"５號","E_COORD97":180069.62,"N_COORD97":2579097.3100000001,"ADDRESS":"中正路３５巷５號","OBJECTID":412086},"geometry":{"x":180069.62000000011,"y":2579097.3100000024}},{"attributes":{"ID":412111,"DIS_CODE":0,"TOWNNAME":"歸仁區","LI":"歸南里","LIN":"3鄰","STREET":"民權南路","SECT":" ","MAREA":" ","LANE":"２４８巷","ALLEY":" ","HOUSE_NO":"２８號","E_COORD97":176868.89999999999,"N_COORD97":2540235.8399999999,"ADDRESS":"民權南路２４８巷２８號","OBJECTID":412087},"geometry":{"x":176868.9000000013,"y":2540235.8400000017}},{"attributes":{"ID":412112,"DIS_CODE":0,"TOWNNAME":"歸仁區","LI":"西埔里","LIN":"3鄰","STREET":"保大路","SECT":"二段","MAREA":" ","LANE":"１４５巷","ALLEY":" ","HOUSE_NO":"１３號","E_COORD97":176954.51999999999,"N_COORD97":2544070.2799999998,"ADDRESS":"保大路二段１４５巷１３號","OBJECTID":412088},"geometry":{"x":176954.51999999955,"y":2544070.2800000012}},{"attributes":{"ID":412113,"DIS_CODE":0,"TOWNNAME":"歸仁區","LI":"七甲里","LIN":"3鄰","STREET":"中正北路","SECT":"二段","MAREA":" ","LANE":"５０１巷","ALLEY":" ","HOUSE_NO":"６０號","E_COORD97":177071.47,"N_COORD97":2543243.2599999998,"ADDRESS":"中正北路二段５０１巷６０號","OBJECTID":412089},"geometry":{"x":177071.46999999974,"y":2543243.2600000016}},{"attributes":{"ID":412114,"DIS_CODE":0,"TOWNNAME":"歸仁區","LI":"文化里","LIN":"3鄰","STREET":"國光街","SECT":" ","MAREA":" ","LANE":"１４３巷","ALLEY":" ","HOUSE_NO":"１３號","E_COORD97":177295.54000000001,"N_COORD97":2541204.25,"ADDRESS":"國光街１４３巷１３號","OBJECTID":412090},"geometry":{"x":177295.54000000004,"y":2541204.25}},{"attributes":{"ID":412115,"DIS_CODE":0,"TOWNNAME":"歸仁區","LI":"文化里","LIN":"3鄰","STREET":"國光街","SECT":" ","MAREA":" ","LANE":"１４３巷","ALLEY":" ","HOUSE_NO":"１號","E_COORD97":177319.89000000001,"N_COORD97":2541203.25,"ADDRESS":"國光街１４３巷１號","OBJECTID":412091},"geometry":{"x":177319.88999999966,"y":2541203.2500000019}},{"attributes":{"ID":412116,"DIS_CODE":0,"TOWNNAME":"歸仁區","LI":"西埔里","LIN":"3鄰","STREET":"保大路","SECT":"二段","MAREA":" ","LANE":"１４５巷","ALLEY":" ","HOUSE_NO":"１號","E_COORD97":176945.17000000001,"N_COORD97":2544104.2799999998,"ADDRESS":"保大路二段１４５巷１號","OBJECTID":412092},"geometry":{"x":176945.16999999993,"y":2544104.2800000012}},{"attributes":{"ID":412117,"DIS_CODE":0,"TOWNNAME":"歸仁區","LI":"七甲里","LIN":"3鄰","STREET":"中正北路","SECT":"二段","MAREA":" ","LANE":"５１６巷","ALLEY":" ","HOUSE_NO":"２８號","E_COORD97":177527.76999999999,"N_COORD97":2543261.2599999998,"ADDRESS":"中正北路二段５１６巷２８號","OBJECTID":412093},"geometry":{"x":177527.77000000142,"y":2543261.2599999998}},{"attributes":{"ID":412118,"DIS_CODE":0,"TOWNNAME":"歸仁區","LI":"文化里","LIN":"3鄰","STREET":"國光街","SECT":" ","MAREA":" ","LANE":"１４３巷","ALLEY":" ","HOUSE_NO":"７號","E_COORD97":177307.59,"N_COORD97":2541204.25,"ADDRESS":"國光街１４３巷７號","OBJECTID":412094},"geometry":{"x":177307.59000000078,"y":2541204.25}},{"attributes":{"ID":412119,"DIS_CODE":0,"TOWNNAME":"歸仁區","LI":"西埔里","LIN":"3鄰","STREET":"保大路","SECT":"二段","MAREA":" ","LANE":"１１１巷","ALLEY":" ","HOUSE_NO":"２４號","E_COORD97":177010.82000000001,"N_COORD97":2544062.2799999998,"ADDRESS":"保大路二段１１１巷２４號","OBJECTID":412095},"geometry":{"x":177010.8200000003,"y":2544062.2800000031}},{"attributes":{"ID":412120,"DIS_CODE":0,"TOWNNAME":"關廟區","LI":"北勢里","LIN":"3鄰","STREET":"中正路","SECT":" ","MAREA":" ","LANE":"８５０巷","ALLEY":" ","HOUSE_NO":"２０號","E_COORD97":181385.51000000001,"N_COORD97":2540278.25,"ADDRESS":"中正路８５０巷２０號","OBJECTID":412096},"geometry":{"x":181385.50999999978,"y":2540278.25}},{"attributes":{"ID":412121,"DIS_CODE":0,"TOWNNAME":"關廟區","LI":"東勢里","LIN":"3鄰","STREET":"東安街","SECT":" ","MAREA":" ","LANE":"２２１巷","ALLEY":" ","HOUSE_NO":"４１號","E_COORD97":181621.72,"N_COORD97":2539476.3199999998,"ADDRESS":"東安街２２１巷４１號","OBJECTID":412097},"geometry":{"x":181621.71999999974,"y":2539476.3200000022}},{"attributes":{"ID":412122,"DIS_CODE":0,"TOWNNAME":"關廟區","LI":"東勢里","LIN":"3鄰","STREET":"東安街","SECT":" ","MAREA":" ","LANE":"２４５巷","ALLEY":" ","HOUSE_NO":"６５號","E_COORD97":181656.32000000001,"N_COORD97":2539489.3199999998,"ADDRESS":"東安街２４５巷６５號","OBJECTID":412098},"geometry":{"x":181656.32000000123,"y":2539489.320000004}},{"attributes":{"ID":412123,"DIS_CODE":0,"TOWNNAME":"關廟區","LI":"東勢里","LIN":"3鄰","STREET":"東安街","SECT":" ","MAREA":" ","LANE":"２４５巷","ALLEY":" ","HOUSE_NO":"６３號","E_COORD97":181656.62,"N_COORD97":2539484.3199999998,"ADDRESS":"東安街２４５巷６３號","OBJECTID":412099},"geometry":{"x":181656.62000000011,"y":2539484.3200000022}},{"attributes":{"ID":412124,"DIS_CODE":0,"TOWNNAME":"關廟區","LI":"東勢里","LIN":"3鄰","STREET":"東興路","SECT":" ","MAREA":" ","LANE":"１８８巷","ALLEY":" ","HOUSE_NO":"１號","E_COORD97":181628.97,"N_COORD97":2539535.25,"ADDRESS":"東興路１８８巷１號","OBJECTID":412100},"geometry":{"x":181628.9700000016,"y":2539535.2500000019}},{"attributes":{"ID":412125,"DIS_CODE":0,"TOWNNAME":"關廟區","LI":"五甲里","LIN":"3鄰","STREET":"旺萊路","SECT":" ","MAREA":" ","LANE":"７１巷","ALLEY":" ","HOUSE_NO":"１６號","E_COORD97":181572.44,"N_COORD97":2539262.25,"ADDRESS":"旺萊路７１巷１６號","OBJECTID":412101},"geometry":{"x":181572.44000000134,"y":2539262.2499999981}},{"attributes":{"ID":412126,"DIS_CODE":0,"TOWNNAME":"關廟區","LI":"五甲里","LIN":"3鄰","STREET":"旺萊路","SECT":" ","MAREA":" ","LANE":"３９巷","ALLEY":" ","HOUSE_NO":"７號","E_COORD97":181477.89000000001,"N_COORD97":2539221.25,"ADDRESS":"旺萊路３９巷７號","OBJECTID":412102},"geometry":{"x":181477.88999999966,"y":2539221.25}},{"attributes":{"ID":412127,"DIS_CODE":0,"TOWNNAME":"關廟區","LI":"東勢里","LIN":"3鄰","STREET":"東安街","SECT":" ","MAREA":" ","LANE":"２４５巷","ALLEY":" ","HOUSE_NO":"７１號","E_COORD97":181660.12,"N_COORD97":2539509.3199999998,"ADDRESS":"東安街２４５巷７１號","OBJECTID":412103},"geometry":{"x":181660.12000000011,"y":2539509.3200000003}},{"attributes":{"ID":412128,"DIS_CODE":0,"TOWNNAME":"關廟區","LI":"東勢里","LIN":"3鄰","STREET":"東安街","SECT":" ","MAREA":" ","LANE":"２４１巷","ALLEY":" ","HOUSE_NO":"３３號","E_COORD97":181652.42000000001,"N_COORD97":2539440.3199999998,"ADDRESS":"東安街２４１巷３３號","OBJECTID":412104},"geometry":{"x":181652.41999999993,"y":2539440.3200000003}},{"attributes":{"ID":412129,"DIS_CODE":0,"TOWNNAME":"關廟區","LI":"北花里","LIN":"3鄰","STREET":"花園二街","SECT":" ","MAREA":" ","LANE":"４６巷","ALLEY":" ","HOUSE_NO":"１０號","E_COORD97":182121.89000000001,"N_COORD97":2540317.25,"ADDRESS":"花園二街４６巷１０號","OBJECTID":412105},"geometry":{"x":182121.88999999966,"y":2540317.2500000019}},{"attributes":{"ID":412130,"DIS_CODE":0,"TOWNNAME":"關廟區","LI":"五甲里","LIN":"3鄰","STREET":"旺萊路","SECT":" ","MAREA":" ","LANE":"７１巷","ALLEY":" ","HOUSE_NO":"８號","E_COORD97":181571.98999999999,"N_COORD97":2539229.25,"ADDRESS":"旺萊路７１巷８號","OBJECTID":412106},"geometry":{"x":181571.99000000115,"y":2539229.2500000019}},{"attributes":{"ID":412131,"DIS_CODE":0,"TOWNNAME":"關廟區","LI":"東勢里","LIN":"3鄰","STREET":"東興路","SECT":" ","MAREA":" ","LANE":"１８８巷","ALLEY":" ","HOUSE_NO":"３號","E_COORD97":181628.97,"N_COORD97":2539531.25,"ADDRESS":"東興路１８８巷３號","OBJECTID":412107},"geometry":{"x":181628.9700000016,"y":2539531.2500000019}},{"attributes":{"ID":412132,"DIS_CODE":0,"TOWNNAME":"關廟區","LI":"東勢里","LIN":"3鄰","STREET":"東安街","SECT":" ","MAREA":" ","LANE":"２４１巷","ALLEY":" ","HOUSE_NO":"４０號","E_COORD97":181651.32000000001,"N_COORD97":2539428.3199999998,"ADDRESS":"東安街２４１巷４０號","OBJECTID":412108},"geometry":{"x":181651.32000000123,"y":2539428.320000004}},{"attributes":{"ID":412133,"DIS_CODE":0,"TOWNNAME":"關廟區","LI":"東勢里","LIN":"3鄰","STREET":"東安街","SECT":" ","MAREA":" ","LANE":"２２１巷","ALLEY":" ","HOUSE_NO":"４５號","E_COORD97":181628.62,"N_COORD97":2539479.3199999998,"ADDRESS":"東安街２２１巷４５號","OBJECTID":412109},"geometry":{"x":181628.62000000104,"y":2539479.320000004}},{"attributes":{"ID":412134,"DIS_CODE":0,"TOWNNAME":"關廟區","LI":"北勢里","LIN":"3鄰","STREET":"中正路","SECT":" ","MAREA":" ","LANE":"８５０巷","ALLEY":" ","HOUSE_NO":"１８號","E_COORD97":181384.01000000001,"N_COORD97":2540274.25,"ADDRESS":"中正路８５０巷１８號","OBJECTID":412110},"geometry":{"x":181384.00999999978,"y":2540274.2500000019}},{"attributes":{"ID":412135,"DIS_CODE":0,"TOWNNAME":"關廟區","LI":"五甲里","LIN":"3鄰","STREET":"旺萊路","SECT":" ","MAREA":" ","LANE":"３９巷","ALLEY":" ","HOUSE_NO":"３號","E_COORD97":181479.48999999999,"N_COORD97":2539197.25,"ADDRESS":"旺萊路３９巷３號","OBJECTID":412111},"geometry":{"x":181479.49000000022,"y":2539197.25}},{"attributes":{"ID":412136,"DIS_CODE":0,"TOWNNAME":"關廟區","LI":"北花里","LIN":"3鄰","STREET":"中正路","SECT":" ","MAREA":" ","LANE":"６４７巷","ALLEY":" ","HOUSE_NO":"１０號","E_COORD97":182074.60999999999,"N_COORD97":2540346.25,"ADDRESS":"中正路６４７巷１０號","OBJECTID":412112},"geometry":{"x":182074.6100000022,"y":2540346.25}},{"attributes":{"ID":412137,"DIS_CODE":0,"TOWNNAME":"關廟區","LI":"深坑里","LIN":"3鄰","STREET":"南雄路","SECT":"一段","MAREA":" ","LANE":"３９８巷","ALLEY":" ","HOUSE_NO":"１０號","E_COORD97":181775.37,"N_COORD97":2537611.2999999998,"ADDRESS":"南雄路一段３９８巷１０號","OBJECTID":412113},"geometry":{"x":181775.37000000011,"y":2537611.3000000007}},{"attributes":{"ID":412138,"DIS_CODE":0,"TOWNNAME":"關廟區","LI":"松腳里","LIN":"3鄰","STREET":"松平街","SECT":" ","MAREA":" ","LANE":"５６巷","ALLEY":" ","HOUSE_NO":"１７號","E_COORD97":182007.37,"N_COORD97":2539790.25,"ADDRESS":"松平街５６巷１７號","OBJECTID":412114},"geometry":{"x":182007.37000000011,"y":2539790.25}},{"attributes":{"ID":412139,"DIS_CODE":0,"TOWNNAME":"關廟區","LI":"深坑里","LIN":"3鄰","STREET":"南雄路","SECT":"一段","MAREA":" ","LANE":"４３３巷","ALLEY":" ","HOUSE_NO":"２３號","E_COORD97":181615.236688,"N_COORD97":2537542.7901499998,"ADDRESS":"南雄路一段４３３巷２３號","OBJECTID":412115},"geometry":{"x":181615.23668800015,"y":2537542.790151}},{"attributes":{"ID":412140,"DIS_CODE":0,"TOWNNAME":"關廟區","LI":"南花里","LIN":"3鄰","STREET":"四維街","SECT":" ","MAREA":" ","LANE":"２８８巷","ALLEY":" ","HOUSE_NO":"５號","E_COORD97":181888.66,"N_COORD97":2540104.25,"ADDRESS":"四維街２８８巷５號","OBJECTID":412116},"geometry":{"x":181888.66000000015,"y":2540104.2500000019}},{"attributes":{"ID":412141,"DIS_CODE":0,"TOWNNAME":"關廟區","LI":"埤頭里","LIN":"3鄰","STREET":"保東路","SECT":" ","MAREA":" ","LANE":"８５巷","ALLEY":" ","HOUSE_NO":"６２號","E_COORD97":178940.07000000001,"N_COORD97":2543909.25,"ADDRESS":"保東路８５巷６２號","OBJECTID":412117},"geometry":{"x":178940.0700000003,"y":2543909.25}},{"attributes":{"ID":412142,"DIS_CODE":0,"TOWNNAME":"關廟區","LI":"新光里","LIN":"3鄰","STREET":"新湖街","SECT":" ","MAREA":" ","LANE":"１５８巷","ALLEY":" ","HOUSE_NO":"６號","E_COORD97":183601.47,"N_COORD97":2541953.25,"ADDRESS":"新湖街１５８巷６號","OBJECTID":412118},"geometry":{"x":183601.46999999974,"y":2541953.25}},{"attributes":{"ID":412143,"DIS_CODE":0,"TOWNNAME":"關廟區","LI":"埤頭里","LIN":"3鄰","STREET":"保東路","SECT":" ","MAREA":" ","LANE":"８５巷","ALLEY":" ","HOUSE_NO":"６８號","E_COORD97":178944.26999999999,"N_COORD97":2543896.25,"ADDRESS":"保東路８５巷６８號","OBJECTID":412119},"geometry":{"x":178944.26999999955,"y":2543896.25}},{"attributes":{"ID":412144,"DIS_CODE":0,"TOWNNAME":"關廟區","LI":"北勢里","LIN":"3鄰","STREET":"北仁街","SECT":" ","MAREA":" ","LANE":"８９巷","ALLEY":" ","HOUSE_NO":"１５號","E_COORD97":181420.48999999999,"N_COORD97":2540281.25,"ADDRESS":"北仁街８９巷１５號","OBJECTID":412120},"geometry":{"x":181420.49000000022,"y":2540281.2500000019}},{"attributes":{"ID":412145,"DIS_CODE":0,"TOWNNAME":"關廟區","LI":"北勢里","LIN":"3鄰","STREET":"北仁街","SECT":" ","MAREA":" ","LANE":"８９巷","ALLEY":" ","HOUSE_NO":"５號","E_COORD97":181430.04000000001,"N_COORD97":2540311.25,"ADDRESS":"北仁街８９巷５號","OBJECTID":412121},"geometry":{"x":181430.04000000004,"y":2540311.2500000019}},{"attributes":{"ID":412146,"DIS_CODE":0,"TOWNNAME":"關廟區","LI":"香洋里","LIN":"3鄰","STREET":"忠孝街","SECT":" ","MAREA":" ","LANE":"１６０巷","ALLEY":" ","HOUSE_NO":"１５號","E_COORD97":181129.73000000001,"N_COORD97":2540398.7400000002,"ADDRESS":"忠孝街１６０巷１５號","OBJECTID":412122},"geometry":{"x":181129.73000000138,"y":2540398.7400000039}},{"attributes":{"ID":412147,"DIS_CODE":0,"TOWNNAME":"關廟區","LI":"香洋里","LIN":"3鄰","STREET":"忠孝街","SECT":" ","MAREA":" ","LANE":"１８０巷","ALLEY":" ","HOUSE_NO":"８號","E_COORD97":181111.04000000001,"N_COORD97":2540470.25,"ADDRESS":"忠孝街１８０巷８號","OBJECTID":412123},"geometry":{"x":181111.04000000004,"y":2540470.2500000019}},{"attributes":{"ID":412148,"DIS_CODE":0,"TOWNNAME":"關廟區","LI":"香洋里","LIN":"3鄰","STREET":"忠孝街","SECT":" ","MAREA":" ","LANE":"１６０巷","ALLEY":" ","HOUSE_NO":"７號","E_COORD97":181124.54000000001,"N_COORD97":2540446.25,"ADDRESS":"忠孝街１６０巷７號","OBJECTID":412124},"geometry":{"x":181124.54000000004,"y":2540446.2500000019}},{"attributes":{"ID":412149,"DIS_CODE":0,"TOWNNAME":"關廟區","LI":"南花里","LIN":"3鄰","STREET":"四維街","SECT":" ","MAREA":" ","LANE":"３０２巷","ALLEY":" ","HOUSE_NO":"２號","E_COORD97":181871.06,"N_COORD97":2540123.25,"ADDRESS":"四維街３０２巷２號","OBJECTID":412125},"geometry":{"x":181871.06000000052,"y":2540123.25}},{"attributes":{"ID":412150,"DIS_CODE":0,"TOWNNAME":"關廟區","LI":"北花里","LIN":"3鄰","STREET":"中正路","SECT":" ","MAREA":" ","LANE":"６５７巷","ALLEY":" ","HOUSE_NO":"１７號","E_COORD97":182028.91,"N_COORD97":2540324.25,"ADDRESS":"中正路６５７巷１７號","OBJECTID":412126},"geometry":{"x":182028.91000000108,"y":2540324.2500000019}},{"attributes":{"ID":412151,"DIS_CODE":0,"TOWNNAME":"關廟區","LI":"北花里","LIN":"3鄰","STREET":"中正路","SECT":" ","MAREA":" ","LANE":"６４７巷","ALLEY":" ","HOUSE_NO":"１２號","E_COORD97":182072.20999999999,"N_COORD97":2540339.25,"ADDRESS":"中正路６４７巷１２號","OBJECTID":412127},"geometry":{"x":182072.21000000089,"y":2540339.25}},{"attributes":{"ID":412152,"DIS_CODE":0,"TOWNNAME":"關廟區","LI":"北勢里","LIN":"3鄰","STREET":"北仁街","SECT":" ","MAREA":" ","LANE":"８９巷","ALLEY":" ","HOUSE_NO":"１０號","E_COORD97":181413.19,"N_COORD97":2540299.25,"ADDRESS":"北仁街８９巷１０號","OBJECTID":412128},"geometry":{"x":181413.19000000134,"y":2540299.25}},{"attributes":{"ID":412153,"DIS_CODE":0,"TOWNNAME":"關廟區","LI":"深坑里","LIN":"3鄰","STREET":"南雄路","SECT":"一段","MAREA":" ","LANE":"４３３巷","ALLEY":" ","HOUSE_NO":"１２號","E_COORD97":181656.76999999999,"N_COORD97":2537583.2999999998,"ADDRESS":"南雄路一段４３３巷１２號","OBJECTID":412129},"geometry":{"x":181656.76999999955,"y":2537583.3000000007}},{"attributes":{"ID":412154,"DIS_CODE":0,"TOWNNAME":"鹽水區","LI":"三生里","LIN":"3鄰","STREET":"民生街","SECT":" ","MAREA":" ","LANE":"４巷","ALLEY":" ","HOUSE_NO":"１５號","E_COORD97":175132.42000000001,"N_COORD97":2580107.0600000001,"ADDRESS":"民生街４巷１５號","OBJECTID":412130},"geometry":{"x":175132.42000000086,"y":2580107.0600000005}},{"attributes":{"ID":412155,"DIS_CODE":0,"TOWNNAME":"安平區","LI":"漁光里","LIN":"3鄰","STREET":"漁光路","SECT":" ","MAREA":" ","LANE":"８９巷","ALLEY":" ","HOUSE_NO":"３９號","E_COORD97":163877.07000000001,"N_COORD97":2541979.8399999999,"ADDRESS":"漁光路８９巷３９號","OBJECTID":412131},"geometry":{"x":163877.07000000123,"y":2541979.8399999999}},{"attributes":{"ID":412156,"DIS_CODE":0,"TOWNNAME":"安平區","LI":"漁光里","LIN":"3鄰","STREET":"漁光路","SECT":" ","MAREA":" ","LANE":"８９巷","ALLEY":" ","HOUSE_NO":"３１號","E_COORD97":163887.10000000001,"N_COORD97":2541916.5699999998,"ADDRESS":"漁光路８９巷３１號","OBJECTID":412132},"geometry":{"x":163887.09999999963,"y":2541916.5700000022}},{"attributes":{"ID":412157,"DIS_CODE":0,"TOWNNAME":"安平區","LI":"漁光里","LIN":"3鄰","STREET":"漁光路","SECT":" ","MAREA":" ","LANE":"８９巷","ALLEY":" ","HOUSE_NO":"３０號","E_COORD97":163905.64000000001,"N_COORD97":2541944.6299999999,"ADDRESS":"漁光路８９巷３０號","OBJECTID":412133},"geometry":{"x":163905.63999999966,"y":2541944.6300000008}},{"attributes":{"ID":412158,"DIS_CODE":0,"TOWNNAME":"安平區","LI":"漁光里","LIN":"3鄰","STREET":"漁光路","SECT":" ","MAREA":" ","LANE":"８９巷","ALLEY":" ","HOUSE_NO":"３２號","E_COORD97":163900.45999999999,"N_COORD97":2541959.48,"ADDRESS":"漁光路８９巷３２號","OBJECTID":412134},"geometry":{"x":163900.45999999996,"y":2541959.4800000004}},{"attributes":{"ID":412159,"DIS_CODE":0,"TOWNNAME":"安平區","LI":"漁光里","LIN":"3鄰","STREET":"漁光路","SECT":" ","MAREA":" ","LANE":"８９巷","ALLEY":" ","HOUSE_NO":"３４號","E_COORD97":163899.45999999999,"N_COORD97":2541969.8199999998,"ADDRESS":"漁光路８９巷３４號","OBJECTID":412135},"geometry":{"x":163899.46000000089,"y":2541969.8200000003}},{"attributes":{"ID":412160,"DIS_CODE":0,"TOWNNAME":"安平區","LI":"漁光里","LIN":"3鄰","STREET":"漁光路","SECT":" ","MAREA":" ","LANE":"８９巷","ALLEY":" ","HOUSE_NO":"３７號","E_COORD97":163885.76000000001,"N_COORD97":2541968.8199999998,"ADDRESS":"漁光路８９巷３７號","OBJECTID":412136},"geometry":{"x":163885.76000000071,"y":2541968.8200000022}},{"attributes":{"ID":412161,"DIS_CODE":0,"TOWNNAME":"安平區","LI":"漁光里","LIN":"3鄰","STREET":"漁光路","SECT":" ","MAREA":" ","LANE":"８９巷","ALLEY":" ","HOUSE_NO":"１６之２號","E_COORD97":163964.13,"N_COORD97":2541865.2799999998,"ADDRESS":"漁光路８９巷１６之２號","OBJECTID":412137},"geometry":{"x":163964.13000000175,"y":2541865.2800000031}},{"attributes":{"ID":412162,"DIS_CODE":0,"TOWNNAME":"安平區","LI":"漁光里","LIN":"3鄰","STREET":"漁光路","SECT":" ","MAREA":" ","LANE":"８９巷","ALLEY":" ","HOUSE_NO":"１６號","E_COORD97":163961.79000000001,"N_COORD97":2541878.7999999998,"ADDRESS":"漁光路８９巷１６號","OBJECTID":412138},"geometry":{"x":163961.79000000097,"y":2541878.8000000007}},{"attributes":{"ID":412163,"DIS_CODE":0,"TOWNNAME":"安平區","LI":"漁光里","LIN":"3鄰","STREET":"漁光路","SECT":" ","MAREA":" ","LANE":"８９巷","ALLEY":" ","HOUSE_NO":"１８號","E_COORD97":163945.25,"N_COORD97":2541888.3199999998,"ADDRESS":"漁光路８９巷１８號","OBJECTID":412139},"geometry":{"x":163945.25000000093,"y":2541888.3200000003}},{"attributes":{"ID":412164,"DIS_CODE":0,"TOWNNAME":"安平區","LI":"漁光里","LIN":"3鄰","STREET":"漁光路","SECT":" ","MAREA":" ","LANE":"８９巷","ALLEY":" ","HOUSE_NO":"２０號","E_COORD97":163951.42999999999,"N_COORD97":2541904.0099999998,"ADDRESS":"漁光路８９巷２０號","OBJECTID":412140},"geometry":{"x":163951.4299999997,"y":2541904.0099999998}},{"attributes":{"ID":412165,"DIS_CODE":0,"TOWNNAME":"安平區","LI":"漁光里","LIN":"3鄰","STREET":"漁光路","SECT":" ","MAREA":" ","LANE":"８９巷","ALLEY":" ","HOUSE_NO":"２２號","E_COORD97":163917.07000000001,"N_COORD97":2541906.2000000002,"ADDRESS":"漁光路８９巷２２號","OBJECTID":412141},"geometry":{"x":163917.0700000003,"y":2541906.1999999993}},{"attributes":{"ID":412166,"DIS_CODE":0,"TOWNNAME":"安平區","LI":"漁光里","LIN":"3鄰","STREET":"漁光路","SECT":" ","MAREA":" ","LANE":"８９巷","ALLEY":" ","HOUSE_NO":"２４號","E_COORD97":163923.35000000001,"N_COORD97":2541902.8799999999,"ADDRESS":"漁光路８９巷２４號","OBJECTID":412142},"geometry":{"x":163923.35000000149,"y":2541902.8800000008}},{"attributes":{"ID":412167,"DIS_CODE":0,"TOWNNAME":"安平區","LI":"漁光里","LIN":"3鄰","STREET":"漁光路","SECT":" ","MAREA":" ","LANE":"８９巷","ALLEY":" ","HOUSE_NO":"２７號","E_COORD97":163906.98000000001,"N_COORD97":2541883.1899999999,"ADDRESS":"漁光路８９巷２７號","OBJECTID":412143},"geometry":{"x":163906.98000000138,"y":2541883.1900000032}},{"attributes":{"ID":412168,"DIS_CODE":0,"TOWNNAME":"安平區","LI":"漁光里","LIN":"3鄰","STREET":"漁光路","SECT":" ","MAREA":" ","LANE":"８９巷","ALLEY":" ","HOUSE_NO":"２６號","E_COORD97":163904.47,"N_COORD97":2541906.5600000001,"ADDRESS":"漁光路８９巷２６號","OBJECTID":412144},"geometry":{"x":163904.47000000067,"y":2541906.5600000024}},{"attributes":{"ID":412169,"DIS_CODE":0,"TOWNNAME":"安平區","LI":"漁光里","LIN":"3鄰","STREET":"漁光路","SECT":" ","MAREA":" ","LANE":"８９巷","ALLEY":" ","HOUSE_NO":"３３號","E_COORD97":163857.19,"N_COORD97":2541889.3599999999,"ADDRESS":"漁光路８９巷３３號","OBJECTID":412145},"geometry":{"x":163857.19000000041,"y":2541889.3600000013}},{"attributes":{"ID":412170,"DIS_CODE":0,"TOWNNAME":"安平區","LI":"漁光里","LIN":"3鄰","STREET":"漁光路","SECT":" ","MAREA":" ","LANE":"８９巷","ALLEY":" ","HOUSE_NO":"３５號","E_COORD97":163874.57000000001,"N_COORD97":2541883.6899999999,"ADDRESS":"漁光路８９巷３５號","OBJECTID":412146},"geometry":{"x":163874.5700000003,"y":2541883.6900000013}},{"attributes":{"ID":412171,"DIS_CODE":0,"TOWNNAME":"安平區","LI":"漁光里","LIN":"3鄰","STREET":"漁光路","SECT":" ","MAREA":" ","LANE":"８９巷","ALLEY":" ","HOUSE_NO":"２９號","E_COORD97":163873.73000000001,"N_COORD97":2541859.8100000001,"ADDRESS":"漁光路８９巷２９號","OBJECTID":412147},"geometry":{"x":163873.73000000045,"y":2541859.8100000042}},{"attributes":{"ID":412172,"DIS_CODE":0,"TOWNNAME":"安平區","LI":"漁光里","LIN":"3鄰","STREET":"漁光路","SECT":" ","MAREA":" ","LANE":"８９巷","ALLEY":" ","HOUSE_NO":"２５號","E_COORD97":163893.06,"N_COORD97":2541836.9500000002,"ADDRESS":"漁光路８９巷２５號","OBJECTID":412148},"geometry":{"x":163893.06000000145,"y":2541836.950000003}},{"attributes":{"ID":412173,"DIS_CODE":0,"TOWNNAME":"安平區","LI":"億載里","LIN":"3鄰","STREET":"永華十二街","SECT":" ","MAREA":" ","LANE":"３５巷","ALLEY":" ","HOUSE_NO":"１號","E_COORD97":163754.63,"N_COORD97":2543669.27,"ADDRESS":"永華十二街３５巷１號","OBJECTID":412149},"geometry":{"x":163754.63000000082,"y":2543669.2700000033}},{"attributes":{"ID":412174,"DIS_CODE":0,"TOWNNAME":"安平區","LI":"億載里","LIN":"3鄰","STREET":"永華十二街","SECT":" ","MAREA":" ","LANE":"３５巷","ALLEY":" ","HOUSE_NO":"１１號","E_COORD97":163731.07000000001,"N_COORD97":2543668.4900000002,"ADDRESS":"永華十二街３５巷１１號","OBJECTID":412150},"geometry":{"x":163731.07000000216,"y":2543668.4900000039}},{"attributes":{"ID":412175,"DIS_CODE":0,"TOWNNAME":"安平區","LI":"億載里","LIN":"3鄰","STREET":"永華十二街","SECT":" ","MAREA":" ","LANE":"３５巷","ALLEY":" ","HOUSE_NO":"７號","E_COORD97":163740.10000000001,"N_COORD97":2543668.4900000002,"ADDRESS":"永華十二街３５巷７號","OBJECTID":412151},"geometry":{"x":163740.09999999963,"y":2543668.4900000039}},{"attributes":{"ID":412176,"DIS_CODE":0,"TOWNNAME":"安平區","LI":"億載里","LIN":"3鄰","STREET":"永華十二街","SECT":" ","MAREA":" ","LANE":"３５巷","ALLEY":" ","HOUSE_NO":"１５號","E_COORD97":163721.26000000001,"N_COORD97":2543668.0899999999,"ADDRESS":"永華十二街３５巷１５號","OBJECTID":412152},"geometry":{"x":163721.26000000071,"y":2543668.0900000017}},{"attributes":{"ID":412177,"DIS_CODE":0,"TOWNNAME":"安平區","LI":"億載里","LIN":"3鄰","STREET":"永華十二街","SECT":" ","MAREA":" ","LANE":"３９巷","ALLEY":" ","HOUSE_NO":"１３號","E_COORD97":163725.57000000001,"N_COORD97":2543677.8999999999,"ADDRESS":"永華十二街３９巷１３號","OBJECTID":412153},"geometry":{"x":163725.5700000003,"y":2543677.9000000004}},{"attributes":{"ID":412178,"DIS_CODE":0,"TOWNNAME":"安平區","LI":"億載里","LIN":"3鄰","STREET":"永華十二街","SECT":" ","MAREA":" ","LANE":"３９巷","ALLEY":" ","HOUSE_NO":"２號","E_COORD97":163752.26999999999,"N_COORD97":2543695.5499999998,"ADDRESS":"永華十二街３９巷２號","OBJECTID":412154},"geometry":{"x":163752.26999999955,"y":2543695.5500000007}},{"attributes":{"ID":412179,"DIS_CODE":0,"TOWNNAME":"安平區","LI":"億載里","LIN":"3鄰","STREET":"永華十二街","SECT":" ","MAREA":" ","LANE":"３９巷","ALLEY":" ","HOUSE_NO":"１４號","E_COORD97":163724.39999999999,"N_COORD97":2543693.5899999999,"ADDRESS":"永華十二街３９巷１４號","OBJECTID":412155},"geometry":{"x":163724.4000000013,"y":2543693.5899999999}},{"attributes":{"ID":412180,"DIS_CODE":0,"TOWNNAME":"南區","LI":"建南里","LIN":"3鄰","STREET":"德興路","SECT":" ","MAREA":" ","LANE":"２３７巷","ALLEY":" ","HOUSE_NO":"２３號","E_COORD97":167283.54000000001,"N_COORD97":2540122.1800000002,"ADDRESS":"德興路２３７巷２３號","OBJECTID":412156},"geometry":{"x":167283.54000000004,"y":2540122.1799999997}},{"attributes":{"ID":412181,"DIS_CODE":0,"TOWNNAME":"新化區","LI":"武安里","LIN":"3鄰","STREET":"中正路","SECT":" ","MAREA":" ","LANE":"３０７巷","ALLEY":" ","HOUSE_NO":"１２號","E_COORD97":179057.56,"N_COORD97":2548101.25,"ADDRESS":"中正路３０７巷１２號","OBJECTID":412157},"geometry":{"x":179057.55999999959,"y":2548101.2500000037}},{"attributes":{"ID":412182,"DIS_CODE":0,"TOWNNAME":"新化區","LI":"武安里","LIN":"3鄰","STREET":"中正路","SECT":" ","MAREA":" ","LANE":"３０７巷","ALLEY":" ","HOUSE_NO":"８號","E_COORD97":179066.41,"N_COORD97":2548120.25,"ADDRESS":"中正路３０７巷８號","OBJECTID":412158},"geometry":{"x":179066.41000000015,"y":2548120.25}},{"attributes":{"ID":412183,"DIS_CODE":0,"TOWNNAME":"新化區","LI":"觀音里","LIN":"3鄰","STREET":"仁愛街","SECT":" ","MAREA":" ","LANE":"６５巷","ALLEY":" ","HOUSE_NO":"３８號","E_COORD97":178951.13,"N_COORD97":2548455.25,"ADDRESS":"仁愛街６５巷３８號","OBJECTID":412159},"geometry":{"x":178951.12999999989,"y":2548455.2500000019}},{"attributes":{"ID":412184,"DIS_CODE":0,"TOWNNAME":"新化區","LI":"武安里","LIN":"3鄰","STREET":"中正路","SECT":" ","MAREA":" ","LANE":"３０７巷","ALLEY":" ","HOUSE_NO":"１１號","E_COORD97":179114.35999999999,"N_COORD97":2548073.25,"ADDRESS":"中正路３０７巷１１號","OBJECTID":412160},"geometry":{"x":179114.36000000034,"y":2548073.25}},{"attributes":{"ID":412185,"DIS_CODE":0,"TOWNNAME":"新化區","LI":"太平里","LIN":"3鄰","STREET":"太平街","SECT":" ","MAREA":" ","LANE":"１巷","ALLEY":" ","HOUSE_NO":"１６號","E_COORD97":179070.26999999999,"N_COORD97":2548796.25,"ADDRESS":"太平街１巷１６號","OBJECTID":412161},"geometry":{"x":179070.26999999862,"y":2548796.2500000037}},{"attributes":{"ID":412186,"DIS_CODE":0,"TOWNNAME":"新化區","LI":"協興里","LIN":"3鄰","STREET":"忠孝路","SECT":" ","MAREA":" ","LANE":"２４３巷","ALLEY":" ","HOUSE_NO":"１３號","E_COORD97":178495.76999999999,"N_COORD97":2548546.25,"ADDRESS":"忠孝路２４３巷１３號","OBJECTID":412162},"geometry":{"x":178495.77000000142,"y":2548546.2500000019}},{"attributes":{"ID":412187,"DIS_CODE":0,"TOWNNAME":"新化區","LI":"太平里","LIN":"3鄰","STREET":"太平街","SECT":" ","MAREA":" ","LANE":"１巷","ALLEY":" ","HOUSE_NO":"１２號之３","E_COORD97":179049.42000000001,"N_COORD97":2548800.2599999998,"ADDRESS":"太平街１巷１２號之３","OBJECTID":412163},"geometry":{"x":179049.42000000179,"y":2548800.2600000016}},{"attributes":{"ID":412188,"DIS_CODE":0,"TOWNNAME":"新化區","LI":"太平里","LIN":"3鄰","STREET":"太平街","SECT":" ","MAREA":" ","LANE":"１巷","ALLEY":" ","HOUSE_NO":"１２號之１","E_COORD97":179067.89999999999,"N_COORD97":2548805.2599999998,"ADDRESS":"太平街１巷１２號之１","OBJECTID":412164},"geometry":{"x":179067.90000000037,"y":2548805.2599999998}},{"attributes":{"ID":412189,"DIS_CODE":0,"TOWNNAME":"新化區","LI":"太平里","LIN":"3鄰","STREET":"太平街","SECT":" ","MAREA":" ","LANE":"１巷","ALLEY":" ","HOUSE_NO":"１６號之２","E_COORD97":179061.03,"N_COORD97":2548795.2599999998,"ADDRESS":"太平街１巷１６號之２","OBJECTID":412165},"geometry":{"x":179061.03000000119,"y":2548795.2599999998}},{"attributes":{"ID":412190,"DIS_CODE":0,"TOWNNAME":"新化區","LI":"武安里","LIN":"3鄰","STREET":"中正路","SECT":" ","MAREA":" ","LANE":"３０７巷","ALLEY":" ","HOUSE_NO":"１４號","E_COORD97":179053.66,"N_COORD97":2548091.25,"ADDRESS":"中正路３０７巷１４號","OBJECTID":412166},"geometry":{"x":179053.66000000108,"y":2548091.2500000037}},{"attributes":{"ID":412191,"DIS_CODE":0,"TOWNNAME":"北區","LI":"大港里","LIN":"3鄰","STREET":"大興街","SECT":" ","MAREA":" ","LANE":"１７４巷","ALLEY":" ","HOUSE_NO":"１０號","E_COORD97":166880.20999999999,"N_COORD97":2545735.9300000002,"ADDRESS":"大興街１７４巷１０號","OBJECTID":412167},"geometry":{"x":166880.21000000089,"y":2545735.9299999997}},{"attributes":{"ID":412192,"DIS_CODE":0,"TOWNNAME":"北區","LI":"大港里","LIN":"3鄰","STREET":"大興街","SECT":" ","MAREA":" ","LANE":"１７４巷","ALLEY":" ","HOUSE_NO":"１４號","E_COORD97":166880.03,"N_COORD97":2545745.4100000001,"ADDRESS":"大興街１７４巷１４號","OBJECTID":412168},"geometry":{"x":166880.03000000119,"y":2545745.410000002}},{"attributes":{"ID":412193,"DIS_CODE":0,"TOWNNAME":"北區","LI":"大港里","LIN":"3鄰","STREET":"大興街","SECT":" ","MAREA":" ","LANE":"１７４巷","ALLEY":" ","HOUSE_NO":"１６號","E_COORD97":166879.29999999999,"N_COORD97":2545748.6899999999,"ADDRESS":"大興街１７４巷１６號","OBJECTID":412169},"geometry":{"x":166879.30000000075,"y":2545748.6900000013}},{"attributes":{"ID":412194,"DIS_CODE":0,"TOWNNAME":"北區","LI":"大港里","LIN":"3鄰","STREET":"大興街","SECT":" ","MAREA":" ","LANE":"１７４巷","ALLEY":" ","HOUSE_NO":"１８號","E_COORD97":166879.29999999999,"N_COORD97":2545753.0699999998,"ADDRESS":"大興街１７４巷１８號","OBJECTID":412170},"geometry":{"x":166879.30000000075,"y":2545753.070000004}},{"attributes":{"ID":412195,"DIS_CODE":0,"TOWNNAME":"北區","LI":"大港里","LIN":"3鄰","STREET":"大興街","SECT":" ","MAREA":" ","LANE":"１７４巷","ALLEY":" ","HOUSE_NO":"２０號","E_COORD97":166878.39000000001,"N_COORD97":2545758.7200000002,"ADDRESS":"大興街１７４巷２０號","OBJECTID":412171},"geometry":{"x":166878.3900000006,"y":2545758.7200000007}},{"attributes":{"ID":412196,"DIS_CODE":0,"TOWNNAME":"北區","LI":"大港里","LIN":"3鄰","STREET":"大興街","SECT":" ","MAREA":" ","LANE":"１７４巷","ALLEY":" ","HOUSE_NO":"２２號","E_COORD97":166877.84,"N_COORD97":2545762.3700000001,"ADDRESS":"大興街１７４巷２２號","OBJECTID":412172},"geometry":{"x":166877.83999999985,"y":2545762.3700000048}},{"attributes":{"ID":412197,"DIS_CODE":0,"TOWNNAME":"北區","LI":"大港里","LIN":"3鄰","STREET":"大興街","SECT":" ","MAREA":" ","LANE":"１７４巷","ALLEY":" ","HOUSE_NO":"２４號","E_COORD97":166877.48000000001,"N_COORD97":2545767.29,"ADDRESS":"大興街１７４巷２４號","OBJECTID":412173},"geometry":{"x":166877.48000000045,"y":2545767.2900000028}},{"attributes":{"ID":412198,"DIS_CODE":0,"TOWNNAME":"北區","LI":"大港里","LIN":"3鄰","STREET":"大興街","SECT":" ","MAREA":" ","LANE":"１７４巷","ALLEY":" ","HOUSE_NO":"２６號","E_COORD97":166877.48000000001,"N_COORD97":2545772.0299999998,"ADDRESS":"大興街１７４巷２６號","OBJECTID":412174},"geometry":{"x":166877.48000000045,"y":2545772.0299999993}},{"attributes":{"ID":412199,"DIS_CODE":0,"TOWNNAME":"北區","LI":"大港里","LIN":"3鄰","STREET":"大興街","SECT":" ","MAREA":" ","LANE":"１７４巷","ALLEY":" ","HOUSE_NO":"２號","E_COORD97":166881.85999999999,"N_COORD97":2545717.48,"ADDRESS":"大興街１７４巷２號","OBJECTID":412175},"geometry":{"x":166881.86000000034,"y":2545717.4800000023}},{"attributes":{"ID":412200,"DIS_CODE":0,"TOWNNAME":"北區","LI":"大港里","LIN":"3鄰","STREET":"大興街","SECT":" ","MAREA":" ","LANE":"１７４巷","ALLEY":" ","HOUSE_NO":"３２號","E_COORD97":166875.82999999999,"N_COORD97":2545788.4199999999,"ADDRESS":"大興街１７４巷３２號","OBJECTID":412176},"geometry":{"x":166875.83000000101,"y":2545788.4200000018}},{"attributes":{"ID":412201,"DIS_CODE":0,"TOWNNAME":"北區","LI":"大港里","LIN":"3鄰","STREET":"大興街","SECT":" ","MAREA":" ","LANE":"１７４巷","ALLEY":" ","HOUSE_NO":"３４號","E_COORD97":166877.10999999999,"N_COORD97":2545797.3500000001,"ADDRESS":"大興街１７４巷３４號","OBJECTID":412177},"geometry":{"x":166877.1100000022,"y":2545797.3499999996}},{"attributes":{"ID":412202,"DIS_CODE":0,"TOWNNAME":"北區","LI":"大港里","LIN":"3鄰","STREET":"大興街","SECT":" ","MAREA":" ","LANE":"１７４巷","ALLEY":" ","HOUSE_NO":"３６號","E_COORD97":166876.20000000001,"N_COORD97":2545801.5499999998,"ADDRESS":"大興街１７４巷３６號","OBJECTID":412178},"geometry":{"x":166876.19999999925,"y":2545801.5500000026}},{"attributes":{"ID":412203,"DIS_CODE":0,"TOWNNAME":"北區","LI":"大港里","LIN":"3鄰","STREET":"大興街","SECT":" ","MAREA":" ","LANE":"１７４巷","ALLEY":" ","HOUSE_NO":"３８號","E_COORD97":166875.29000000001,"N_COORD97":2545806.29,"ADDRESS":"大興街１７４巷３８號","OBJECTID":412179},"geometry":{"x":166875.29000000004,"y":2545806.290000001}},{"attributes":{"ID":412204,"DIS_CODE":0,"TOWNNAME":"北區","LI":"大港里","LIN":"3鄰","STREET":"大興街","SECT":" ","MAREA":" ","LANE":"１７４巷","ALLEY":" ","HOUSE_NO":"４０號","E_COORD97":166875.29000000001,"N_COORD97":2545811.21,"ADDRESS":"大興街１７４巷４０號","OBJECTID":412180},"geometry":{"x":166875.29000000004,"y":2545811.2100000028}},{"attributes":{"ID":412205,"DIS_CODE":0,"TOWNNAME":"北區","LI":"大港里","LIN":"3鄰","STREET":"大興街","SECT":" ","MAREA":" ","LANE":"１７４巷","ALLEY":" ","HOUSE_NO":"４２號","E_COORD97":166875.10000000001,"N_COORD97":2545815.04,"ADDRESS":"大興街１７４巷４２號","OBJECTID":412181},"geometry":{"x":166875.10000000056,"y":2545815.0399999991}},{"attributes":{"ID":412206,"DIS_CODE":0,"TOWNNAME":"北區","LI":"大港里","LIN":"3鄰","STREET":"大興街","SECT":" ","MAREA":" ","LANE":"１７４巷","ALLEY":" ","HOUSE_NO":"４４號","E_COORD97":166875.04000000001,"N_COORD97":2545820.48,"ADDRESS":"大興街１７４巷４４號","OBJECTID":412182},"geometry":{"x":166875.04000000004,"y":2545820.4800000004}},{"attributes":{"ID":412207,"DIS_CODE":0,"TOWNNAME":"北區","LI":"大港里","LIN":"3鄰","STREET":"大興街","SECT":" ","MAREA":" ","LANE":"１７４巷","ALLEY":" ","HOUSE_NO":"４號","E_COORD97":166881.85999999999,"N_COORD97":2545721.8599999999,"ADDRESS":"大興街１７４巷４號","OBJECTID":412183},"geometry":{"x":166881.86000000034,"y":2545721.8599999994}},{"attributes":{"ID":412208,"DIS_CODE":0,"TOWNNAME":"北區","LI":"大港里","LIN":"3鄰","STREET":"大興街","SECT":" ","MAREA":" ","LANE":"１７４巷","ALLEY":" ","HOUSE_NO":"５２號","E_COORD97":166872.91,"N_COORD97":2545836.7200000002,"ADDRESS":"大興街１７４巷５２號","OBJECTID":412184},"geometry":{"x":166872.91000000015,"y":2545836.7200000007}},{"attributes":{"ID":412209,"DIS_CODE":0,"TOWNNAME":"北區","LI":"大港里","LIN":"3鄰","STREET":"大興街","SECT":" ","MAREA":" ","LANE":"１７４巷","ALLEY":" ","HOUSE_NO":"５４號","E_COORD97":166872.54999999999,"N_COORD97":2545841.8199999998,"ADDRESS":"大興街１７４巷５４號","OBJECTID":412185},"geometry":{"x":166872.55000000075,"y":2545841.8200000003}},{"attributes":{"ID":412210,"DIS_CODE":0,"TOWNNAME":"北區","LI":"大港里","LIN":"3鄰","STREET":"大興街","SECT":" ","MAREA":" ","LANE":"１７４巷","ALLEY":" ","HOUSE_NO":"５６號","E_COORD97":166870.72,"N_COORD97":2545847.48,"ADDRESS":"大興街１７４巷５６號","OBJECTID":412186},"geometry":{"x":166870.7200000016,"y":2545847.4800000004}},{"attributes":{"ID":412211,"DIS_CODE":0,"TOWNNAME":"北區","LI":"大港里","LIN":"3鄰","STREET":"大興街","SECT":" ","MAREA":" ","LANE":"１７４巷","ALLEY":" ","HOUSE_NO":"６號","E_COORD97":166881.67999999999,"N_COORD97":2545726.7799999998,"ADDRESS":"大興街１７４巷６號","OBJECTID":412187},"geometry":{"x":166881.68000000063,"y":2545726.7799999975}},{"attributes":{"ID":412212,"DIS_CODE":0,"TOWNNAME":"北區","LI":"大港里","LIN":"3鄰","STREET":"大興街","SECT":" ","MAREA":" ","LANE":"１７４巷","ALLEY":" ","HOUSE_NO":"８號","E_COORD97":166881.67999999999,"N_COORD97":2545730.9700000002,"ADDRESS":"大興街１７４巷８號","OBJECTID":412188},"geometry":{"x":166881.68000000063,"y":2545730.9700000025}},{"attributes":{"ID":412213,"DIS_CODE":0,"TOWNNAME":"北區","LI":"大港里","LIN":"3鄰","STREET":"大興街","SECT":" ","MAREA":" ","LANE":"１７４巷","ALLEY":" ","HOUSE_NO":"１３號","E_COORD97":166865.28,"N_COORD97":2545738.48,"ADDRESS":"大興街１７４巷１３號","OBJECTID":412189},"geometry":{"x":166865.28000000026,"y":2545738.4800000023}},{"attributes":{"ID":412214,"DIS_CODE":0,"TOWNNAME":"北區","LI":"大港里","LIN":"3鄰","STREET":"大興街","SECT":" ","MAREA":" ","LANE":"１７４巷","ALLEY":" ","HOUSE_NO":"１５號","E_COORD97":166865.54999999999,"N_COORD97":2545743.7999999998,"ADDRESS":"大興街１７４巷１５號","OBJECTID":412190},"geometry":{"x":166865.55000000075,"y":2545743.8000000007}},{"attributes":{"ID":412215,"DIS_CODE":0,"TOWNNAME":"北區","LI":"大港里","LIN":"3鄰","STREET":"大興街","SECT":" ","MAREA":" ","LANE":"１７４巷","ALLEY":" ","HOUSE_NO":"１７號","E_COORD97":166864.75,"N_COORD97":2545747.7799999998,"ADDRESS":"大興街１７４巷１７號","OBJECTID":412191},"geometry":{"x":166864.75000000093,"y":2545747.7800000012}},{"attributes":{"ID":412216,"DIS_CODE":0,"TOWNNAME":"大內區","LI":"曲溪里","LIN":"10鄰","STREET":" ","SECT":" ","MAREA":"二重溪","LANE":" ","ALLEY":" ","HOUSE_NO":"１０１號之１","E_COORD97":187376.402886,"N_COORD97":2557734.1449899999,"ADDRESS":"二重溪１０１號之１","OBJECTID":412192},"geometry":{"x":187376.40288600046,"y":2557734.1449890025}},{"attributes":{"ID":412217,"DIS_CODE":0,"TOWNNAME":"北區","LI":"大港里","LIN":"3鄰","STREET":"大興街","SECT":" ","MAREA":" ","LANE":"１７４巷","ALLEY":" ","HOUSE_NO":"１９號","E_COORD97":166864.22,"N_COORD97":2545752.8300000001,"ADDRESS":"大興街１７４巷１９號","OBJECTID":412193},"geometry":{"x":166864.22000000067,"y":2545752.8300000019}},{"attributes":{"ID":412218,"DIS_CODE":0,"TOWNNAME":"北區","LI":"大港里","LIN":"3鄰","STREET":"大興街","SECT":" ","MAREA":" ","LANE":"１７４巷","ALLEY":" ","HOUSE_NO":"１號","E_COORD97":166867.14999999999,"N_COORD97":2545711.9199999999,"ADDRESS":"大興街１７４巷１號","OBJECTID":412194},"geometry":{"x":166867.1500000013,"y":2545711.9199999999}},{"attributes":{"ID":412219,"DIS_CODE":0,"TOWNNAME":"北區","LI":"大港里","LIN":"3鄰","STREET":"大興街","SECT":" ","MAREA":" ","LANE":"１７４巷","ALLEY":" ","HOUSE_NO":"２１號","E_COORD97":166864.48999999999,"N_COORD97":2545756.5499999998,"ADDRESS":"大興街１７４巷２１號","OBJECTID":412195},"geometry":{"x":166864.49000000115,"y":2545756.5500000007}},{"attributes":{"ID":412220,"DIS_CODE":0,"TOWNNAME":"北區","LI":"大港里","LIN":"3鄰","STREET":"大興街","SECT":" ","MAREA":" ","LANE":"１７４巷","ALLEY":" ","HOUSE_NO":"２５號","E_COORD97":166864.22,"N_COORD97":2545766.3799999999,"ADDRESS":"大興街１７４巷２５號","OBJECTID":412196},"geometry":{"x":166864.22000000067,"y":2545766.3799999971}},{"attributes":{"ID":412221,"DIS_CODE":0,"TOWNNAME":"北區","LI":"大港里","LIN":"3鄰","STREET":"大興街","SECT":" ","MAREA":" ","LANE":"１７４巷","ALLEY":" ","HOUSE_NO":"２７號","E_COORD97":166862.89000000001,"N_COORD97":2545770.52,"ADDRESS":"大興街１７４巷２７號","OBJECTID":412197},"geometry":{"x":166862.8900000006,"y":2545770.5200000014}},{"attributes":{"ID":412222,"DIS_CODE":0,"TOWNNAME":"北區","LI":"大港里","LIN":"3鄰","STREET":"大興街","SECT":" ","MAREA":" ","LANE":"１７４巷","ALLEY":" ","HOUSE_NO":"２９號","E_COORD97":166861.29000000001,"N_COORD97":2545781.4100000001,"ADDRESS":"大興街１７４巷２９號","OBJECTID":412198},"geometry":{"x":166861.29000000004,"y":2545781.4100000039}},{"attributes":{"ID":412223,"DIS_CODE":0,"TOWNNAME":"北區","LI":"大港里","LIN":"3鄰","STREET":"大興街","SECT":" ","MAREA":" ","LANE":"１７４巷","ALLEY":" ","HOUSE_NO":"３１號","E_COORD97":166861.29000000001,"N_COORD97":2545786.9900000002,"ADDRESS":"大興街１７４巷３１號","OBJECTID":412199},"geometry":{"x":166861.29000000004,"y":2545786.9900000002}},{"attributes":{"ID":412224,"DIS_CODE":0,"TOWNNAME":"北區","LI":"大港里","LIN":"3鄰","STREET":"大興街","SECT":" ","MAREA":" ","LANE":"１７４巷","ALLEY":" ","HOUSE_NO":"３３號","E_COORD97":166861.03,"N_COORD97":2545791.2400000002,"ADDRESS":"大興街１７４巷３３號","OBJECTID":412200},"geometry":{"x":166861.03000000119,"y":2545791.2400000002}}]}