{"displayFieldName":"TOWNNAME","fieldAliases":{"ID":"ID","DIS_CODE":"DIS_CODE","TOWNNAME":"TOWNNAME","LI":"LI","LIN":"LIN","STREET":"STREET","SECT":"SECT","MAREA":"MAREA","LANE":"LANE","ALLEY":"ALLEY","HOUSE_NO":"HOUSE_NO","E_COORD97":"E_COORD97","N_COORD97":"N_COORD97","ADDRESS":"ADDRESS","OBJECTID":"OBJECTID"},"geometryType":"esriGeometryPoint","spatialReference":{"wkid":102443,"latestWkid":3826},"fields":[{"name":"ID","type":"esriFieldTypeDouble","alias":"ID"},{"name":"DIS_CODE","type":"esriFieldTypeInteger","alias":"DIS_CODE"},{"name":"TOWNNAME","type":"esriFieldTypeString","alias":"TOWNNAME","length":8},{"name":"LI","type":"esriFieldTypeString","alias":"LI","length":8},{"name":"LIN","type":"esriFieldTypeString","alias":"LIN","length":12},{"name":"STREET","type":"esriFieldTypeString","alias":"STREET","length":20},{"name":"SECT","type":"esriFieldTypeString","alias":"SECT","length":8},{"name":"MAREA","type":"esriFieldTypeString","alias":"MAREA","length":12},{"name":"LANE","type":"esriFieldTypeString","alias":"LANE","length":10},{"name":"ALLEY","type":"esriFieldTypeString","alias":"ALLEY","length":10},{"name":"HOUSE_NO","type":"esriFieldTypeString","alias":"HOUSE_NO","length":20},{"name":"E_COORD97","type":"esriFieldTypeDouble","alias":"E_COORD97"},{"name":"N_COORD97","type":"esriFieldTypeDouble","alias":"N_COORD97"},{"name":"ADDRESS","type":"esriFieldTypeString","alias":"ADDRESS","length":50},{"name":"OBJECTID","type":"esriFieldTypeOID","alias":"OBJECTID"}],"features":[{"attributes":{"ID":369411,"DIS_CODE":0,"TOWNNAME":"安南區","LI":"安慶里","LIN":"12鄰","STREET":"長溪路","SECT":"一段","MAREA":" ","LANE":"６１巷","ALLEY":" ","HOUSE_NO":"１１號","E_COORD97":169153.29000000001,"N_COORD97":2548299.0099999998,"ADDRESS":"長溪路一段６１巷１１號","OBJECTID":369401},"geometry":{"x":169153.29000000004,"y":2548299.0099999979}},{"attributes":{"ID":369412,"DIS_CODE":0,"TOWNNAME":"安南區","LI":"安慶里","LIN":"12鄰","STREET":"長溪路","SECT":"一段","MAREA":" ","LANE":"６１巷","ALLEY":" ","HOUSE_NO":"１２號","E_COORD97":169139.97,"N_COORD97":2548326.1600000001,"ADDRESS":"長溪路一段６１巷１２號","OBJECTID":369402},"geometry":{"x":169139.96999999974,"y":2548326.160000002}},{"attributes":{"ID":369413,"DIS_CODE":0,"TOWNNAME":"安南區","LI":"安慶里","LIN":"12鄰","STREET":"長溪路","SECT":"一段","MAREA":" ","LANE":"６１巷","ALLEY":" ","HOUSE_NO":"１３號","E_COORD97":169148.82999999999,"N_COORD97":2548297.46,"ADDRESS":"長溪路一段６１巷１３號","OBJECTID":369403},"geometry":{"x":169148.83000000101,"y":2548297.4600000046}},{"attributes":{"ID":369414,"DIS_CODE":0,"TOWNNAME":"安南區","LI":"安慶里","LIN":"12鄰","STREET":"長溪路","SECT":"一段","MAREA":" ","LANE":"６１巷","ALLEY":" ","HOUSE_NO":"１４號","E_COORD97":169138.92000000001,"N_COORD97":2548331.6299999999,"ADDRESS":"長溪路一段６１巷１４號","OBJECTID":369404},"geometry":{"x":169138.91999999993,"y":2548331.6300000027}},{"attributes":{"ID":369415,"DIS_CODE":0,"TOWNNAME":"安南區","LI":"安慶里","LIN":"12鄰","STREET":"長溪路","SECT":"一段","MAREA":" ","LANE":"６１巷","ALLEY":" ","HOUSE_NO":"１５號","E_COORD97":169145.35999999999,"N_COORD97":2548296.0499999998,"ADDRESS":"長溪路一段６１巷１５號","OBJECTID":369405},"geometry":{"x":169145.3600000022,"y":2548296.0500000007}},{"attributes":{"ID":369416,"DIS_CODE":0,"TOWNNAME":"安南區","LI":"安慶里","LIN":"12鄰","STREET":"長溪路","SECT":"一段","MAREA":" ","LANE":"６１巷","ALLEY":" ","HOUSE_NO":"１６號","E_COORD97":169138.92000000001,"N_COORD97":2548335.9100000001,"ADDRESS":"長溪路一段６１巷１６號","OBJECTID":369406},"geometry":{"x":169138.91999999993,"y":2548335.9100000001}},{"attributes":{"ID":369417,"DIS_CODE":0,"TOWNNAME":"東區","LI":"和平里","LIN":"1鄰","STREET":"文化一街","SECT":" ","MAREA":" ","LANE":" ","ALLEY":" ","HOUSE_NO":"２號十一樓","E_COORD97":171099.45000000001,"N_COORD97":2542097.2200000002,"ADDRESS":"文化一街２號十一樓","OBJECTID":369407},"geometry":{"x":171099.45000000112,"y":2542097.2200000007}},{"attributes":{"ID":369418,"DIS_CODE":0,"TOWNNAME":"安南區","LI":"安慶里","LIN":"12鄰","STREET":"長溪路","SECT":"一段","MAREA":" ","LANE":"６１巷","ALLEY":" ","HOUSE_NO":"１７號","E_COORD97":169140.59,"N_COORD97":2548294.21,"ADDRESS":"長溪路一段６１巷１７號","OBJECTID":369408},"geometry":{"x":169140.59000000078,"y":2548294.2100000009}},{"attributes":{"ID":369419,"DIS_CODE":0,"TOWNNAME":"安南區","LI":"安慶里","LIN":"12鄰","STREET":"長溪路","SECT":"一段","MAREA":" ","LANE":"６１巷","ALLEY":" ","HOUSE_NO":"１８號","E_COORD97":169133.91,"N_COORD97":2548339.77,"ADDRESS":"長溪路一段６１巷１８號","OBJECTID":369409},"geometry":{"x":169133.91000000015,"y":2548339.7699999996}},{"attributes":{"ID":369420,"DIS_CODE":0,"TOWNNAME":"安南區","LI":"安慶里","LIN":"12鄰","STREET":"長溪路","SECT":"一段","MAREA":" ","LANE":"６１巷","ALLEY":" ","HOUSE_NO":"１號","E_COORD97":169174.20000000001,"N_COORD97":2548307.8799999999,"ADDRESS":"長溪路一段６１巷１號","OBJECTID":369410},"geometry":{"x":169174.20000000019,"y":2548307.879999999}},{"attributes":{"ID":369421,"DIS_CODE":0,"TOWNNAME":"安南區","LI":"安慶里","LIN":"12鄰","STREET":"長溪路","SECT":"一段","MAREA":" ","LANE":"６１巷","ALLEY":" ","HOUSE_NO":"２０號","E_COORD97":169132.76000000001,"N_COORD97":2548343.6299999999,"ADDRESS":"長溪路一段６１巷２０號","OBJECTID":369411},"geometry":{"x":169132.75999999978,"y":2548343.629999999}},{"attributes":{"ID":369422,"DIS_CODE":0,"TOWNNAME":"安南區","LI":"安慶里","LIN":"12鄰","STREET":"長溪路","SECT":"一段","MAREA":" ","LANE":"６１巷","ALLEY":" ","HOUSE_NO":"２１號","E_COORD97":169114.5,"N_COORD97":2548320.6299999999,"ADDRESS":"長溪路一段６１巷２１號","OBJECTID":369412},"geometry":{"x":169114.5,"y":2548320.629999999}},{"attributes":{"ID":369423,"DIS_CODE":0,"TOWNNAME":"安南區","LI":"安慶里","LIN":"12鄰","STREET":"長溪路","SECT":"一段","MAREA":" ","LANE":"６１巷","ALLEY":" ","HOUSE_NO":"２２號","E_COORD97":169131.19,"N_COORD97":2548348.1099999999,"ADDRESS":"長溪路一段６１巷２２號","OBJECTID":369413},"geometry":{"x":169131.19000000227,"y":2548348.1099999994}},{"attributes":{"ID":369424,"DIS_CODE":0,"TOWNNAME":"安南區","LI":"安慶里","LIN":"12鄰","STREET":"長溪路","SECT":"一段","MAREA":" ","LANE":"６１巷","ALLEY":" ","HOUSE_NO":"２３號","E_COORD97":169112.54999999999,"N_COORD97":2548325.29,"ADDRESS":"長溪路一段６１巷２３號","OBJECTID":369414},"geometry":{"x":169112.54999999981,"y":2548325.290000001}},{"attributes":{"ID":369425,"DIS_CODE":0,"TOWNNAME":"安南區","LI":"安慶里","LIN":"12鄰","STREET":"長溪路","SECT":"一段","MAREA":" ","LANE":"６１巷","ALLEY":" ","HOUSE_NO":"２４號","E_COORD97":169129.73000000001,"N_COORD97":2548352.7000000002,"ADDRESS":"長溪路一段６１巷２４號","OBJECTID":369415},"geometry":{"x":169129.73000000138,"y":2548352.7000000011}},{"attributes":{"ID":369426,"DIS_CODE":0,"TOWNNAME":"安南區","LI":"安慶里","LIN":"12鄰","STREET":"長溪路","SECT":"一段","MAREA":" ","LANE":"６１巷","ALLEY":" ","HOUSE_NO":"２５號","E_COORD97":169110.73999999999,"N_COORD97":2548331.3100000001,"ADDRESS":"長溪路一段６１巷２５號","OBJECTID":369416},"geometry":{"x":169110.74000000115,"y":2548331.3100000005}},{"attributes":{"ID":369427,"DIS_CODE":0,"TOWNNAME":"安南區","LI":"安慶里","LIN":"12鄰","STREET":"長溪路","SECT":"一段","MAREA":" ","LANE":"６１巷","ALLEY":" ","HOUSE_NO":"２９號","E_COORD97":169107.73000000001,"N_COORD97":2548341.23,"ADDRESS":"長溪路一段６１巷２９號","OBJECTID":369417},"geometry":{"x":169107.73000000138,"y":2548341.2300000004}},{"attributes":{"ID":369428,"DIS_CODE":0,"TOWNNAME":"安南區","LI":"安慶里","LIN":"12鄰","STREET":"長溪路","SECT":"一段","MAREA":" ","LANE":"６１巷","ALLEY":" ","HOUSE_NO":"２號","E_COORD97":169159.28,"N_COORD97":2548321.8799999999,"ADDRESS":"長溪路一段６１巷２號","OBJECTID":369418},"geometry":{"x":169159.28000000212,"y":2548321.879999999}},{"attributes":{"ID":369429,"DIS_CODE":0,"TOWNNAME":"安南區","LI":"安慶里","LIN":"12鄰","STREET":"長溪路","SECT":"一段","MAREA":" ","LANE":"６１巷","ALLEY":" ","HOUSE_NO":"３１號","E_COORD97":169105.92999999999,"N_COORD97":2548346.4900000002,"ADDRESS":"長溪路一段６１巷３１號","OBJECTID":369419},"geometry":{"x":169105.93000000063,"y":2548346.4900000002}},{"attributes":{"ID":369430,"DIS_CODE":0,"TOWNNAME":"安南區","LI":"安慶里","LIN":"12鄰","STREET":"長溪路","SECT":"一段","MAREA":" ","LANE":"６１巷","ALLEY":" ","HOUSE_NO":"３號","E_COORD97":169170.19,"N_COORD97":2548306.1499999999,"ADDRESS":"長溪路一段６１巷３號","OBJECTID":369420},"geometry":{"x":169170.19000000227,"y":2548306.1500000022}},{"attributes":{"ID":369431,"DIS_CODE":0,"TOWNNAME":"安南區","LI":"安慶里","LIN":"12鄰","STREET":"長溪路","SECT":"一段","MAREA":" ","LANE":"６１巷","ALLEY":" ","HOUSE_NO":"４號","E_COORD97":169151.54999999999,"N_COORD97":2548320,"ADDRESS":"長溪路一段６１巷４號","OBJECTID":369421},"geometry":{"x":169151.54999999981,"y":2548320.0000000037}},{"attributes":{"ID":369432,"DIS_CODE":0,"TOWNNAME":"安南區","LI":"安慶里","LIN":"12鄰","STREET":"長溪路","SECT":"一段","MAREA":" ","LANE":"６１巷","ALLEY":" ","HOUSE_NO":"６號","E_COORD97":169143.92999999999,"N_COORD97":2548318.1299999999,"ADDRESS":"長溪路一段６１巷６號","OBJECTID":369422},"geometry":{"x":169143.9299999997,"y":2548318.1300000027}},{"attributes":{"ID":369433,"DIS_CODE":0,"TOWNNAME":"安南區","LI":"安慶里","LIN":"12鄰","STREET":"長溪路","SECT":"一段","MAREA":" ","LANE":"６１巷","ALLEY":" ","HOUSE_NO":"７號","E_COORD97":169161.53,"N_COORD97":2548302.5800000001,"ADDRESS":"長溪路一段６１巷７號","OBJECTID":369423},"geometry":{"x":169161.53000000119,"y":2548302.5800000038}},{"attributes":{"ID":369434,"DIS_CODE":0,"TOWNNAME":"安南區","LI":"安慶里","LIN":"12鄰","STREET":"長溪路","SECT":"一段","MAREA":" ","LANE":"６１巷","ALLEY":" ","HOUSE_NO":"８號","E_COORD97":169136.42000000001,"N_COORD97":2548314.79,"ADDRESS":"長溪路一段６１巷８號","OBJECTID":369424},"geometry":{"x":169136.42000000086,"y":2548314.790000001}},{"attributes":{"ID":369435,"DIS_CODE":0,"TOWNNAME":"安南區","LI":"安慶里","LIN":"12鄰","STREET":"長溪路","SECT":"一段","MAREA":" ","LANE":"６１巷","ALLEY":" ","HOUSE_NO":"９號","E_COORD97":169157.51999999999,"N_COORD97":2548300.7400000002,"ADDRESS":"長溪路一段６１巷９號","OBJECTID":369425},"geometry":{"x":169157.52000000048,"y":2548300.7400000002}},{"attributes":{"ID":369436,"DIS_CODE":0,"TOWNNAME":"安南區","LI":"安慶里","LIN":"12鄰","STREET":"長溪路","SECT":"一段","MAREA":" ","LANE":"８７巷","ALLEY":" ","HOUSE_NO":"１０號","E_COORD97":169112.06,"N_COORD97":2548373.3999999999,"ADDRESS":"長溪路一段８７巷１０號","OBJECTID":369426},"geometry":{"x":169112.05999999959,"y":2548373.4000000022}},{"attributes":{"ID":369437,"DIS_CODE":0,"TOWNNAME":"安南區","LI":"長安里","LIN":"12鄰","STREET":"長溪路","SECT":"三段","MAREA":" ","LANE":"３８０巷","ALLEY":" ","HOUSE_NO":"１１號","E_COORD97":167710.37,"N_COORD97":2552083.7200000002,"ADDRESS":"長溪路三段３８０巷１１號","OBJECTID":369427},"geometry":{"x":167710.37000000011,"y":2552083.7200000025}},{"attributes":{"ID":369438,"DIS_CODE":0,"TOWNNAME":"安南區","LI":"長安里","LIN":"12鄰","STREET":"長溪路","SECT":"三段","MAREA":" ","LANE":"３８０巷","ALLEY":" ","HOUSE_NO":"１３號","E_COORD97":167725.32999999999,"N_COORD97":2552065.75,"ADDRESS":"長溪路三段３８０巷１３號","OBJECTID":369428},"geometry":{"x":167725.33000000101,"y":2552065.7500000019}},{"attributes":{"ID":369439,"DIS_CODE":0,"TOWNNAME":"安南區","LI":"長安里","LIN":"12鄰","STREET":"長溪路","SECT":"三段","MAREA":" ","LANE":"３８０巷","ALLEY":" ","HOUSE_NO":"１５號","E_COORD97":167729.45999999999,"N_COORD97":2552067.27,"ADDRESS":"長溪路三段３８０巷１５號","OBJECTID":369429},"geometry":{"x":167729.46000000089,"y":2552067.2700000033}},{"attributes":{"ID":369440,"DIS_CODE":0,"TOWNNAME":"安南區","LI":"長安里","LIN":"12鄰","STREET":"長溪路","SECT":"三段","MAREA":" ","LANE":"３８０巷","ALLEY":" ","HOUSE_NO":"１７號","E_COORD97":167732.07999999999,"N_COORD97":2552075.2799999998,"ADDRESS":"長溪路三段３８０巷１７號","OBJECTID":369430},"geometry":{"x":167732.08000000101,"y":2552075.2800000012}},{"attributes":{"ID":369441,"DIS_CODE":0,"TOWNNAME":"安南區","LI":"長安里","LIN":"12鄰","STREET":"長溪路","SECT":"三段","MAREA":" ","LANE":"３８０巷","ALLEY":" ","HOUSE_NO":"１９號","E_COORD97":167743.51000000001,"N_COORD97":2552081.8599999999,"ADDRESS":"長溪路三段３８０巷１９號","OBJECTID":369431},"geometry":{"x":167743.51000000164,"y":2552081.8599999994}},{"attributes":{"ID":369442,"DIS_CODE":0,"TOWNNAME":"安南區","LI":"長安里","LIN":"12鄰","STREET":"長溪路","SECT":"三段","MAREA":" ","LANE":"３８０巷","ALLEY":" ","HOUSE_NO":"２１號","E_COORD97":167726.59,"N_COORD97":2552104.8900000001,"ADDRESS":"長溪路三段３８０巷２１號","OBJECTID":369432},"geometry":{"x":167726.59000000078,"y":2552104.8900000043}},{"attributes":{"ID":369443,"DIS_CODE":0,"TOWNNAME":"安南區","LI":"長安里","LIN":"12鄰","STREET":"長溪路","SECT":"三段","MAREA":" ","LANE":"３８０巷","ALLEY":" ","HOUSE_NO":"２３號","E_COORD97":167723.20999999999,"N_COORD97":2552096.7400000002,"ADDRESS":"長溪路三段３８０巷２３號","OBJECTID":369433},"geometry":{"x":167723.20999999996,"y":2552096.7400000021}},{"attributes":{"ID":369444,"DIS_CODE":0,"TOWNNAME":"安南區","LI":"長安里","LIN":"12鄰","STREET":"長溪路","SECT":"三段","MAREA":" ","LANE":"３８０巷","ALLEY":" ","HOUSE_NO":"２７號","E_COORD97":167761.57999999999,"N_COORD97":2552091.5499999998,"ADDRESS":"長溪路三段３８０巷２７號","OBJECTID":369434},"geometry":{"x":167761.58000000007,"y":2552091.5500000026}},{"attributes":{"ID":369445,"DIS_CODE":0,"TOWNNAME":"安南區","LI":"長安里","LIN":"12鄰","STREET":"長溪路","SECT":"三段","MAREA":" ","LANE":"３８０巷","ALLEY":" ","HOUSE_NO":"３１號","E_COORD97":167738.10999999999,"N_COORD97":2552113.8300000001,"ADDRESS":"長溪路三段３８０巷３１號","OBJECTID":369435},"geometry":{"x":167738.11000000034,"y":2552113.8300000001}},{"attributes":{"ID":369446,"DIS_CODE":0,"TOWNNAME":"安南區","LI":"總頭里","LIN":"12鄰","STREET":"長溪路","SECT":"二段","MAREA":" ","LANE":"５２３巷","ALLEY":" ","HOUSE_NO":"１１號","E_COORD97":168218.45999999999,"N_COORD97":2550494.3399999999,"ADDRESS":"長溪路二段５２３巷１１號","OBJECTID":369436},"geometry":{"x":168218.45999999996,"y":2550494.3400000017}},{"attributes":{"ID":369447,"DIS_CODE":0,"TOWNNAME":"安南區","LI":"總頭里","LIN":"12鄰","STREET":"長溪路","SECT":"二段","MAREA":" ","LANE":"５２３巷","ALLEY":" ","HOUSE_NO":"１３號","E_COORD97":168218.92000000001,"N_COORD97":2550498.3999999999,"ADDRESS":"長溪路二段５２３巷１３號","OBJECTID":369437},"geometry":{"x":168218.92000000179,"y":2550498.4000000022}},{"attributes":{"ID":369448,"DIS_CODE":0,"TOWNNAME":"安南區","LI":"總頭里","LIN":"12鄰","STREET":"長溪路","SECT":"二段","MAREA":" ","LANE":"５２３巷","ALLEY":" ","HOUSE_NO":"１號","E_COORD97":168211.23000000001,"N_COORD97":2550477.1800000002,"ADDRESS":"長溪路二段５２３巷１號","OBJECTID":369438},"geometry":{"x":168211.23000000138,"y":2550477.1799999997}},{"attributes":{"ID":369449,"DIS_CODE":0,"TOWNNAME":"安南區","LI":"總頭里","LIN":"12鄰","STREET":"長溪路","SECT":"二段","MAREA":" ","LANE":"５２３巷","ALLEY":" ","HOUSE_NO":"２７號","E_COORD97":168166.47,"N_COORD97":2550502.46,"ADDRESS":"長溪路二段５２３巷２７號","OBJECTID":369439},"geometry":{"x":168166.47000000067,"y":2550502.4600000028}},{"attributes":{"ID":369450,"DIS_CODE":0,"TOWNNAME":"安南區","LI":"總頭里","LIN":"12鄰","STREET":"長溪路","SECT":"二段","MAREA":" ","LANE":"５２３巷","ALLEY":" ","HOUSE_NO":"７號","E_COORD97":168218.45999999999,"N_COORD97":2550483.9500000002,"ADDRESS":"長溪路二段５２３巷７號","OBJECTID":369440},"geometry":{"x":168218.45999999996,"y":2550483.9500000011}},{"attributes":{"ID":369451,"DIS_CODE":0,"TOWNNAME":"安南區","LI":"總頭里","LIN":"12鄰","STREET":"長溪路","SECT":"二段","MAREA":" ","LANE":"５２３巷","ALLEY":" ","HOUSE_NO":"９號","E_COORD97":168218.01000000001,"N_COORD97":2550488.9199999999,"ADDRESS":"長溪路二段５２３巷９號","OBJECTID":369441},"geometry":{"x":168218.00999999885,"y":2550488.9199999999}},{"attributes":{"ID":369452,"DIS_CODE":0,"TOWNNAME":"安南區","LI":"城東里","LIN":"12鄰","STREET":"城北路","SECT":" ","MAREA":" ","LANE":"１３８巷","ALLEY":" ","HOUSE_NO":"３８號之１","E_COORD97":161080.66,"N_COORD97":2551856.9700000002,"ADDRESS":"城北路１３８巷３８號之１","OBJECTID":369442},"geometry":{"x":161080.66000000201,"y":2551856.9700000044}},{"attributes":{"ID":369453,"DIS_CODE":0,"TOWNNAME":"安南區","LI":"長安里","LIN":"12鄰","STREET":"長溪路","SECT":"三段","MAREA":" ","LANE":"３８０巷","ALLEY":" ","HOUSE_NO":"９號","E_COORD97":167718.57000000001,"N_COORD97":2552062.1400000001,"ADDRESS":"長溪路三段３８０巷９號","OBJECTID":369443},"geometry":{"x":167718.57000000123,"y":2552062.1400000006}},{"attributes":{"ID":369454,"DIS_CODE":0,"TOWNNAME":"安南區","LI":"安慶里","LIN":"12鄰","STREET":"長溪路","SECT":"一段","MAREA":" ","LANE":"８７巷","ALLEY":" ","HOUSE_NO":"９號","E_COORD97":169118.12,"N_COORD97":2548357.3399999999,"ADDRESS":"長溪路一段８７巷９號","OBJECTID":369444},"geometry":{"x":169118.12000000104,"y":2548357.3399999999}},{"attributes":{"ID":369455,"DIS_CODE":0,"TOWNNAME":"安南區","LI":"淵西里","LIN":"12鄰","STREET":"安中路","SECT":"四段","MAREA":" ","LANE":"２１０巷","ALLEY":" ","HOUSE_NO":"４３號之１","E_COORD97":164848.23000000001,"N_COORD97":2550174.3599999999,"ADDRESS":"安中路四段２１０巷４３號之１","OBJECTID":369445},"geometry":{"x":164848.23000000045,"y":2550174.3599999994}},{"attributes":{"ID":369456,"DIS_CODE":0,"TOWNNAME":"安南區","LI":"淵西里","LIN":"12鄰","STREET":"安中路","SECT":"四段","MAREA":" ","LANE":"２１０巷","ALLEY":" ","HOUSE_NO":"４３號之２","E_COORD97":164851.23999999999,"N_COORD97":2550176.9900000002,"ADDRESS":"安中路四段２１０巷４３號之２","OBJECTID":369446},"geometry":{"x":164851.24000000022,"y":2550176.9900000002}},{"attributes":{"ID":369457,"DIS_CODE":0,"TOWNNAME":"安南區","LI":"淵西里","LIN":"12鄰","STREET":"安中路","SECT":"四段","MAREA":" ","LANE":"２１０巷","ALLEY":" ","HOUSE_NO":"４３號之３","E_COORD97":164853.85999999999,"N_COORD97":2550180.3599999999,"ADDRESS":"安中路四段２１０巷４３號之３","OBJECTID":369447},"geometry":{"x":164853.86000000127,"y":2550180.3599999994}},{"attributes":{"ID":369458,"DIS_CODE":0,"TOWNNAME":"安南區","LI":"淵西里","LIN":"12鄰","STREET":"安中路","SECT":"四段","MAREA":" ","LANE":"２１０巷","ALLEY":" ","HOUSE_NO":"４３號之４","E_COORD97":164856.87,"N_COORD97":2550183.3599999999,"ADDRESS":"安中路四段２１０巷４３號之４","OBJECTID":369448},"geometry":{"x":164856.87000000104,"y":2550183.3599999994}},{"attributes":{"ID":369459,"DIS_CODE":0,"TOWNNAME":"安南區","LI":"淵西里","LIN":"12鄰","STREET":"安中路","SECT":"四段","MAREA":" ","LANE":"２１０巷","ALLEY":" ","HOUSE_NO":"４３號之５","E_COORD97":164858.73999999999,"N_COORD97":2550187.1099999999,"ADDRESS":"安中路四段２１０巷４３號之５","OBJECTID":369449},"geometry":{"x":164858.73999999929,"y":2550187.1100000013}},{"attributes":{"ID":369460,"DIS_CODE":0,"TOWNNAME":"安南區","LI":"\u25A0南里","LIN":"12鄰","STREET":"安昌街","SECT":" ","MAREA":" ","LANE":"２７５巷","ALLEY":" ","HOUSE_NO":"３號","E_COORD97":170115.98999999999,"N_COORD97":2552672.1600000001,"ADDRESS":"安昌街２７５巷３號","OBJECTID":369450},"geometry":{"x":170115.99000000115,"y":2552672.1600000039}},{"attributes":{"ID":369461,"DIS_CODE":0,"TOWNNAME":"安南區","LI":"\u25A0南里","LIN":"12鄰","STREET":"安昌街","SECT":" ","MAREA":" ","LANE":"２７５巷","ALLEY":" ","HOUSE_NO":"５號","E_COORD97":170111.67000000001,"N_COORD97":2552670.3500000001,"ADDRESS":"安昌街２７５巷５號","OBJECTID":369451},"geometry":{"x":170111.66999999993,"y":2552670.3500000034}},{"attributes":{"ID":369462,"DIS_CODE":0,"TOWNNAME":"安南區","LI":"\u25A0南里","LIN":"12鄰","STREET":"安昌街","SECT":" ","MAREA":" ","LANE":"２７５巷","ALLEY":" ","HOUSE_NO":"７號","E_COORD97":170107.70000000001,"N_COORD97":2552670.1800000002,"ADDRESS":"安昌街２７５巷７號","OBJECTID":369452},"geometry":{"x":170107.70000000112,"y":2552670.1799999997}},{"attributes":{"ID":369463,"DIS_CODE":0,"TOWNNAME":"安南區","LI":"\u25A0南里","LIN":"12鄰","STREET":"安昌街","SECT":" ","MAREA":" ","LANE":"２７５巷","ALLEY":" ","HOUSE_NO":"９號","E_COORD97":170103.56,"N_COORD97":2552670.3500000001,"ADDRESS":"安昌街２７５巷９號","OBJECTID":369453},"geometry":{"x":170103.55999999959,"y":2552670.3500000034}},{"attributes":{"ID":369464,"DIS_CODE":0,"TOWNNAME":"安南區","LI":"\u25A0南里","LIN":"12鄰","STREET":"安昌街","SECT":" ","MAREA":" ","LANE":"２７５巷","ALLEY":" ","HOUSE_NO":"１１號","E_COORD97":170099.60000000001,"N_COORD97":2552670.3500000001,"ADDRESS":"安昌街２７５巷１１號","OBJECTID":369454},"geometry":{"x":170099.60000000056,"y":2552670.3500000034}},{"attributes":{"ID":369465,"DIS_CODE":0,"TOWNNAME":"安南區","LI":"\u25A0南里","LIN":"12鄰","STREET":"安昌街","SECT":" ","MAREA":" ","LANE":"２７５巷","ALLEY":" ","HOUSE_NO":"１３號","E_COORD97":170095.10000000001,"N_COORD97":2552670.1800000002,"ADDRESS":"安昌街２７５巷１３號","OBJECTID":369455},"geometry":{"x":170095.09999999963,"y":2552670.1799999997}},{"attributes":{"ID":369466,"DIS_CODE":0,"TOWNNAME":"安南區","LI":"\u25A0南里","LIN":"12鄰","STREET":"安昌街","SECT":" ","MAREA":" ","LANE":"２７５巷","ALLEY":" ","HOUSE_NO":"１５號","E_COORD97":170090.95999999999,"N_COORD97":2552669.8199999998,"ADDRESS":"安昌街２７５巷１５號","OBJECTID":369456},"geometry":{"x":170090.95999999996,"y":2552669.8200000003}},{"attributes":{"ID":369467,"DIS_CODE":0,"TOWNNAME":"安南區","LI":"安順里","LIN":"12鄰","STREET":"安和路","SECT":"四段","MAREA":" ","LANE":"３６巷","ALLEY":" ","HOUSE_NO":"１１０號","E_COORD97":170249.69,"N_COORD97":2550113.7200000002,"ADDRESS":"安和路四段３６巷１１０號","OBJECTID":369457},"geometry":{"x":170249.69000000041,"y":2550113.7200000025}},{"attributes":{"ID":369468,"DIS_CODE":0,"TOWNNAME":"安南區","LI":"\u25A0南里","LIN":"12鄰","STREET":"安昌街","SECT":" ","MAREA":" ","LANE":"２５４巷","ALLEY":" ","HOUSE_NO":"７號","E_COORD97":170166.48999999999,"N_COORD97":2552651.1299999999,"ADDRESS":"安昌街２５４巷７號","OBJECTID":369458},"geometry":{"x":170166.49000000209,"y":2552651.1300000008}},{"attributes":{"ID":369469,"DIS_CODE":0,"TOWNNAME":"安南區","LI":"\u25A0南里","LIN":"12鄰","STREET":"安昌街","SECT":" ","MAREA":" ","LANE":"２５４巷","ALLEY":" ","HOUSE_NO":"９號","E_COORD97":170171.38,"N_COORD97":2552649.9100000001,"ADDRESS":"安昌街２５４巷９號","OBJECTID":369459},"geometry":{"x":170171.37999999989,"y":2552649.9099999983}},{"attributes":{"ID":369470,"DIS_CODE":0,"TOWNNAME":"安南區","LI":"長安里","LIN":"12鄰","STREET":"長溪路","SECT":"三段","MAREA":" ","LANE":"４１８巷","ALLEY":" ","HOUSE_NO":"３６號","E_COORD97":167760.59,"N_COORD97":2552142.1299999999,"ADDRESS":"長溪路三段４１８巷３６號","OBJECTID":369460},"geometry":{"x":167760.59000000078,"y":2552142.1300000027}},{"attributes":{"ID":369471,"DIS_CODE":0,"TOWNNAME":"安南區","LI":"長安里","LIN":"12鄰","STREET":"長溪路","SECT":"三段","MAREA":" ","LANE":"４１８巷","ALLEY":" ","HOUSE_NO":"３８號","E_COORD97":167763.53,"N_COORD97":2552144.8900000001,"ADDRESS":"長溪路三段４１８巷３８號","OBJECTID":369461},"geometry":{"x":167763.53000000026,"y":2552144.8900000006}},{"attributes":{"ID":369472,"DIS_CODE":0,"TOWNNAME":"安南區","LI":"長安里","LIN":"12鄰","STREET":"長溪路","SECT":"三段","MAREA":" ","LANE":"４１８巷","ALLEY":" ","HOUSE_NO":"４０號","E_COORD97":167766.92000000001,"N_COORD97":2552147.1200000001,"ADDRESS":"長溪路三段４１８巷４０號","OBJECTID":369462},"geometry":{"x":167766.92000000086,"y":2552147.120000001}},{"attributes":{"ID":369473,"DIS_CODE":0,"TOWNNAME":"安南區","LI":"長安里","LIN":"12鄰","STREET":"長溪路","SECT":"三段","MAREA":" ","LANE":"４１８巷","ALLEY":" ","HOUSE_NO":"４２號","E_COORD97":167769.85999999999,"N_COORD97":2552149.3399999999,"ADDRESS":"長溪路三段４１８巷４２號","OBJECTID":369463},"geometry":{"x":167769.86000000034,"y":2552149.3400000017}},{"attributes":{"ID":369474,"DIS_CODE":0,"TOWNNAME":"安南區","LI":"長安里","LIN":"12鄰","STREET":"長溪路","SECT":"三段","MAREA":" ","LANE":"４１８巷","ALLEY":" ","HOUSE_NO":"１２號之１","E_COORD97":167706.20999999999,"N_COORD97":2552092.7599999998,"ADDRESS":"長溪路三段４１８巷１２號之１","OBJECTID":369464},"geometry":{"x":167706.20999999996,"y":2552092.7600000016}},{"attributes":{"ID":369475,"DIS_CODE":0,"TOWNNAME":"安南區","LI":"淵中里","LIN":"12鄰","STREET":"安中路","SECT":"四段","MAREA":" ","LANE":"２９０巷","ALLEY":" ","HOUSE_NO":"３４６號","E_COORD97":165252.98000000001,"N_COORD97":2550361.29,"ADDRESS":"安中路四段２９０巷３４６號","OBJECTID":369465},"geometry":{"x":165252.98000000138,"y":2550361.2900000028}},{"attributes":{"ID":369476,"DIS_CODE":0,"TOWNNAME":"安南區","LI":"安東里","LIN":"12鄰","STREET":"安和路","SECT":"一段","MAREA":" ","LANE":"２８８巷","ALLEY":" ","HOUSE_NO":"１００號","E_COORD97":169542.41,"N_COORD97":2548167.6600000001,"ADDRESS":"安和路一段２８８巷１００號","OBJECTID":369466},"geometry":{"x":169542.41000000015,"y":2548167.660000002}},{"attributes":{"ID":369477,"DIS_CODE":0,"TOWNNAME":"善化區","LI":"文正里","LIN":"1鄰","STREET":"進學路","SECT":" ","MAREA":" ","LANE":"國小巷","ALLEY":" ","HOUSE_NO":"１６號","E_COORD97":177148.85000000001,"N_COORD97":2559397.75,"ADDRESS":"進學路國小巷１６號","OBJECTID":369467},"geometry":{"x":177148.84999999963,"y":2559397.7499999981}},{"attributes":{"ID":369478,"DIS_CODE":0,"TOWNNAME":"善化區","LI":"文正里","LIN":"13鄰","STREET":"陽明路","SECT":" ","MAREA":" ","LANE":"１４２巷","ALLEY":" ","HOUSE_NO":"３９之６９號","E_COORD97":176542.76000000001,"N_COORD97":2559559.02,"ADDRESS":"陽明路１４２巷３９之６９號","OBJECTID":369468},"geometry":{"x":176542.75999999978,"y":2559559.0200000014}},{"attributes":{"ID":369479,"DIS_CODE":0,"TOWNNAME":"中西區","LI":"安海里","LIN":"12鄰","STREET":"河中街","SECT":" ","MAREA":" ","LANE":"３７巷","ALLEY":" ","HOUSE_NO":"３號","E_COORD97":167265.62,"N_COORD97":2544001.0600000001,"ADDRESS":"河中街３７巷３號","OBJECTID":369469},"geometry":{"x":167265.62000000104,"y":2544001.0600000024}},{"attributes":{"ID":369480,"DIS_CODE":0,"TOWNNAME":"中西區","LI":"安海里","LIN":"12鄰","STREET":"河中街","SECT":" ","MAREA":" ","LANE":"３７巷","ALLEY":" ","HOUSE_NO":"５號","E_COORD97":167262.26000000001,"N_COORD97":2544002.04,"ADDRESS":"河中街３７巷５號","OBJECTID":369470},"geometry":{"x":167262.26000000071,"y":2544002.0399999991}},{"attributes":{"ID":369481,"DIS_CODE":0,"TOWNNAME":"中西區","LI":"安海里","LIN":"12鄰","STREET":"河中街","SECT":" ","MAREA":" ","LANE":"３７巷","ALLEY":" ","HOUSE_NO":"７號","E_COORD97":167259.10999999999,"N_COORD97":2544003.0299999998,"ADDRESS":"河中街３７巷７號","OBJECTID":369471},"geometry":{"x":167259.11000000127,"y":2544003.0300000031}},{"attributes":{"ID":369482,"DIS_CODE":0,"TOWNNAME":"中西區","LI":"普濟里","LIN":"12鄰","STREET":"成功路","SECT":" ","MAREA":" ","LANE":"３２９巷","ALLEY":" ","HOUSE_NO":"１３號","E_COORD97":167991.73999999999,"N_COORD97":2544464.8100000001,"ADDRESS":"成功路３２９巷１３號","OBJECTID":369472},"geometry":{"x":167991.74000000115,"y":2544464.8100000024}},{"attributes":{"ID":369483,"DIS_CODE":0,"TOWNNAME":"中西區","LI":"普濟里","LIN":"12鄰","STREET":"成功路","SECT":" ","MAREA":" ","LANE":"３２９巷","ALLEY":" ","HOUSE_NO":"１３號之１","E_COORD97":167993.42999999999,"N_COORD97":2544461.04,"ADDRESS":"成功路３２９巷１３號之１","OBJECTID":369473},"geometry":{"x":167993.43000000063,"y":2544461.040000001}},{"attributes":{"ID":369484,"DIS_CODE":0,"TOWNNAME":"中西區","LI":"普濟里","LIN":"12鄰","STREET":"成功路","SECT":" ","MAREA":" ","LANE":"３２９巷","ALLEY":" ","HOUSE_NO":"１３號之２","E_COORD97":167993.92999999999,"N_COORD97":2544457.5600000001,"ADDRESS":"成功路３２９巷１３號之２","OBJECTID":369474},"geometry":{"x":167993.93000000063,"y":2544457.5600000005}},{"attributes":{"ID":369485,"DIS_CODE":0,"TOWNNAME":"中西區","LI":"普濟里","LIN":"12鄰","STREET":"成功路","SECT":" ","MAREA":" ","LANE":"３２９巷","ALLEY":" ","HOUSE_NO":"１３號之３","E_COORD97":167995.72,"N_COORD97":2544454.2799999998,"ADDRESS":"成功路３２９巷１３號之３","OBJECTID":369475},"geometry":{"x":167995.71999999974,"y":2544454.2799999993}},{"attributes":{"ID":369486,"DIS_CODE":0,"TOWNNAME":"中西區","LI":"普濟里","LIN":"12鄰","STREET":"國華街","SECT":"三段","MAREA":" ","LANE":"２５０巷","ALLEY":" ","HOUSE_NO":"１１號","E_COORD97":167989.75,"N_COORD97":2544437.1899999999,"ADDRESS":"國華街三段２５０巷１１號","OBJECTID":369476},"geometry":{"x":167989.75000000093,"y":2544437.1900000013}},{"attributes":{"ID":369487,"DIS_CODE":0,"TOWNNAME":"中西區","LI":"普濟里","LIN":"12鄰","STREET":"國華街","SECT":"三段","MAREA":" ","LANE":"２５０巷","ALLEY":" ","HOUSE_NO":"１３號","E_COORD97":167998.70000000001,"N_COORD97":2544439.1800000002,"ADDRESS":"國華街三段２５０巷１３號","OBJECTID":369477},"geometry":{"x":167998.70000000112,"y":2544439.1799999997}},{"attributes":{"ID":369488,"DIS_CODE":0,"TOWNNAME":"中西區","LI":"普濟里","LIN":"12鄰","STREET":"國華街","SECT":"三段","MAREA":" ","LANE":"２５０巷","ALLEY":" ","HOUSE_NO":"１５號","E_COORD97":167996.41,"N_COORD97":2544445.1400000001,"ADDRESS":"國華街三段２５０巷１５號","OBJECTID":369478},"geometry":{"x":167996.41000000015,"y":2544445.1400000025}},{"attributes":{"ID":369489,"DIS_CODE":0,"TOWNNAME":"中西區","LI":"普濟里","LIN":"12鄰","STREET":"國華街","SECT":"三段","MAREA":" ","LANE":"２５０巷","ALLEY":" ","HOUSE_NO":"１７號","E_COORD97":167995.92000000001,"N_COORD97":2544450.3100000001,"ADDRESS":"國華街三段２５０巷１７號","OBJECTID":369479},"geometry":{"x":167995.92000000086,"y":2544450.3100000024}},{"attributes":{"ID":369490,"DIS_CODE":0,"TOWNNAME":"中西區","LI":"普濟里","LIN":"12鄰","STREET":"國華街","SECT":"三段","MAREA":" ","LANE":"２５０巷","ALLEY":" ","HOUSE_NO":"７號","E_COORD97":167980,"N_COORD97":2544432.52,"ADDRESS":"國華街三段２５０巷７號","OBJECTID":369480},"geometry":{"x":167980.00000000093,"y":2544432.5199999996}},{"attributes":{"ID":369491,"DIS_CODE":0,"TOWNNAME":"中西區","LI":"普濟里","LIN":"12鄰","STREET":"國華街","SECT":"三段","MAREA":" ","LANE":"２５０巷","ALLEY":" ","HOUSE_NO":"９號","E_COORD97":167983.78,"N_COORD97":2544434.21,"ADDRESS":"國華街三段２５０巷９號","OBJECTID":369481},"geometry":{"x":167983.78000000026,"y":2544434.2100000046}},{"attributes":{"ID":369492,"DIS_CODE":0,"TOWNNAME":"下營區","LI":"宅內里","LIN":"12鄰","STREET":"友愛街","SECT":" ","MAREA":" ","LANE":"１０２巷","ALLEY":" ","HOUSE_NO":"３號","E_COORD97":174214.89000000001,"N_COORD97":2570544.6099999999,"ADDRESS":"友愛街１０２巷３號","OBJECTID":369482},"geometry":{"x":174214.8900000006,"y":2570544.6099999994}},{"attributes":{"ID":369493,"DIS_CODE":0,"TOWNNAME":"下營區","LI":"仁里里","LIN":"12鄰","STREET":"永安街","SECT":" ","MAREA":" ","LANE":"６７巷","ALLEY":" ","HOUSE_NO":"５３號","E_COORD97":173876.67999999999,"N_COORD97":2570496.2000000002,"ADDRESS":"永安街６７巷５３號","OBJECTID":369483},"geometry":{"x":173876.6799999997,"y":2570496.1999999993}},{"attributes":{"ID":369494,"DIS_CODE":0,"TOWNNAME":"下營區","LI":"仁里里","LIN":"12鄰","STREET":"永安街","SECT":" ","MAREA":" ","LANE":"６７巷","ALLEY":" ","HOUSE_NO":"９號","E_COORD97":174042.09,"N_COORD97":2570526.48,"ADDRESS":"永安街６７巷９號","OBJECTID":369484},"geometry":{"x":174042.08999999985,"y":2570526.4800000004}},{"attributes":{"ID":369495,"DIS_CODE":0,"TOWNNAME":"下營區","LI":"仁里里","LIN":"12鄰","STREET":"永安街","SECT":" ","MAREA":" ","LANE":"３５巷","ALLEY":" ","HOUSE_NO":"１０號","E_COORD97":174059.73000000001,"N_COORD97":2570429.0299999998,"ADDRESS":"永安街３５巷１０號","OBJECTID":369485},"geometry":{"x":174059.73000000138,"y":2570429.0300000012}},{"attributes":{"ID":369496,"DIS_CODE":0,"TOWNNAME":"下營區","LI":"仁里里","LIN":"12鄰","STREET":"永安街","SECT":" ","MAREA":" ","LANE":"３５巷","ALLEY":" ","HOUSE_NO":"１２號","E_COORD97":174059.57999999999,"N_COORD97":2570424.25,"ADDRESS":"永安街３５巷１２號","OBJECTID":369486},"geometry":{"x":174059.58000000194,"y":2570424.2500000019}},{"attributes":{"ID":369497,"DIS_CODE":0,"TOWNNAME":"下營區","LI":"仁里里","LIN":"12鄰","STREET":"永安街","SECT":" ","MAREA":" ","LANE":"３５巷","ALLEY":" ","HOUSE_NO":"１３號","E_COORD97":174038.51000000001,"N_COORD97":2570411.0600000001,"ADDRESS":"永安街３５巷１３號","OBJECTID":369487},"geometry":{"x":174038.51000000071,"y":2570411.0600000005}},{"attributes":{"ID":369498,"DIS_CODE":0,"TOWNNAME":"下營區","LI":"仁里里","LIN":"12鄰","STREET":"永安街","SECT":" ","MAREA":" ","LANE":"３５巷","ALLEY":" ","HOUSE_NO":"１５號","E_COORD97":174030.69,"N_COORD97":2570411.1699999999,"ADDRESS":"永安街３５巷１５號","OBJECTID":369488},"geometry":{"x":174030.69000000134,"y":2570411.1700000018}},{"attributes":{"ID":369499,"DIS_CODE":0,"TOWNNAME":"下營區","LI":"仁里里","LIN":"12鄰","STREET":"永安街","SECT":" ","MAREA":" ","LANE":"３５巷","ALLEY":" ","HOUSE_NO":"１６號","E_COORD97":174044.73999999999,"N_COORD97":2570428.6400000001,"ADDRESS":"永安街３５巷１６號","OBJECTID":369489},"geometry":{"x":174044.74000000022,"y":2570428.6400000025}},{"attributes":{"ID":369500,"DIS_CODE":0,"TOWNNAME":"下營區","LI":"仁里里","LIN":"12鄰","STREET":"永安街","SECT":" ","MAREA":" ","LANE":"３５巷","ALLEY":" ","HOUSE_NO":"１７號","E_COORD97":174008.81,"N_COORD97":2570411.9100000001,"ADDRESS":"永安街３５巷１７號","OBJECTID":369490},"geometry":{"x":174008.81000000052,"y":2570411.9100000001}},{"attributes":{"ID":369501,"DIS_CODE":0,"TOWNNAME":"下營區","LI":"仁里里","LIN":"12鄰","STREET":"永安街","SECT":" ","MAREA":" ","LANE":"３５巷","ALLEY":" ","HOUSE_NO":"１８號","E_COORD97":174039.63,"N_COORD97":2570428.6699999999,"ADDRESS":"永安街３５巷１８號","OBJECTID":369491},"geometry":{"x":174039.62999999989,"y":2570428.6700000018}},{"attributes":{"ID":369502,"DIS_CODE":0,"TOWNNAME":"下營區","LI":"仁里里","LIN":"12鄰","STREET":"永安街","SECT":" ","MAREA":" ","LANE":"３５巷","ALLEY":" ","HOUSE_NO":"１９號","E_COORD97":173998.66,"N_COORD97":2570408.8100000001,"ADDRESS":"永安街３５巷１９號","OBJECTID":369492},"geometry":{"x":173998.66000000108,"y":2570408.8100000005}},{"attributes":{"ID":369503,"DIS_CODE":0,"TOWNNAME":"下營區","LI":"仁里里","LIN":"12鄰","STREET":"永安街","SECT":" ","MAREA":" ","LANE":"３５巷","ALLEY":" ","HOUSE_NO":"２０號","E_COORD97":174032.60999999999,"N_COORD97":2570428.5,"ADDRESS":"永安街３５巷２０號","OBJECTID":369493},"geometry":{"x":174032.6100000022,"y":2570428.5000000037}},{"attributes":{"ID":369504,"DIS_CODE":0,"TOWNNAME":"下營區","LI":"仁里里","LIN":"12鄰","STREET":"永安街","SECT":" ","MAREA":" ","LANE":"３５巷","ALLEY":" ","HOUSE_NO":"２１號","E_COORD97":173993.92000000001,"N_COORD97":2570409.0600000001,"ADDRESS":"永安街３５巷２１號","OBJECTID":369494},"geometry":{"x":173993.91999999993,"y":2570409.0600000024}},{"attributes":{"ID":369505,"DIS_CODE":0,"TOWNNAME":"下營區","LI":"仁里里","LIN":"12鄰","STREET":"永安街","SECT":" ","MAREA":" ","LANE":"３５巷","ALLEY":" ","HOUSE_NO":"２２號","E_COORD97":174028.95999999999,"N_COORD97":2570428.6600000001,"ADDRESS":"永安街３５巷２２號","OBJECTID":369495},"geometry":{"x":174028.95999999996,"y":2570428.660000002}},{"attributes":{"ID":369506,"DIS_CODE":0,"TOWNNAME":"下營區","LI":"仁里里","LIN":"12鄰","STREET":"永安街","SECT":" ","MAREA":" ","LANE":"３５巷","ALLEY":" ","HOUSE_NO":"２３號","E_COORD97":174032.51999999999,"N_COORD97":2570400,"ADDRESS":"永安街３５巷２３號","OBJECTID":369496},"geometry":{"x":174032.52000000048,"y":2570400}},{"attributes":{"ID":369507,"DIS_CODE":0,"TOWNNAME":"下營區","LI":"仁里里","LIN":"12鄰","STREET":"永安街","SECT":" ","MAREA":" ","LANE":"３５巷","ALLEY":" ","HOUSE_NO":"２５號","E_COORD97":174033.92999999999,"N_COORD97":2570390.8999999999,"ADDRESS":"永安街３５巷２５號","OBJECTID":369497},"geometry":{"x":174033.9299999997,"y":2570390.9000000004}},{"attributes":{"ID":369508,"DIS_CODE":0,"TOWNNAME":"下營區","LI":"仁里里","LIN":"12鄰","STREET":"永安街","SECT":" ","MAREA":" ","LANE":"３５巷","ALLEY":" ","HOUSE_NO":"２８號","E_COORD97":174016.84,"N_COORD97":2570431.8700000001,"ADDRESS":"永安街３５巷２８號","OBJECTID":369498},"geometry":{"x":174016.84000000171,"y":2570431.8700000029}},{"attributes":{"ID":369509,"DIS_CODE":0,"TOWNNAME":"下營區","LI":"仁里里","LIN":"12鄰","STREET":"永安街","SECT":" ","MAREA":" ","LANE":"３５巷","ALLEY":" ","HOUSE_NO":"２號","E_COORD97":174051.17000000001,"N_COORD97":2570451.46,"ADDRESS":"永安街３５巷２號","OBJECTID":369499},"geometry":{"x":174051.16999999993,"y":2570451.4600000028}},{"attributes":{"ID":369510,"DIS_CODE":0,"TOWNNAME":"下營區","LI":"仁里里","LIN":"12鄰","STREET":"永安街","SECT":" ","MAREA":" ","LANE":"３５巷","ALLEY":" ","HOUSE_NO":"３０號","E_COORD97":174012.26999999999,"N_COORD97":2570432.1800000002,"ADDRESS":"永安街３５巷３０號","OBJECTID":369500},"geometry":{"x":174012.27000000048,"y":2570432.1799999997}},{"attributes":{"ID":369511,"DIS_CODE":0,"TOWNNAME":"下營區","LI":"仁里里","LIN":"12鄰","STREET":"永安街","SECT":" ","MAREA":" ","LANE":"３５巷","ALLEY":" ","HOUSE_NO":"３２號","E_COORD97":174007.14000000001,"N_COORD97":2570432.2999999998,"ADDRESS":"永安街３５巷３２號","OBJECTID":369501},"geometry":{"x":174007.13999999966,"y":2570432.3000000026}},{"attributes":{"ID":369512,"DIS_CODE":0,"TOWNNAME":"下營區","LI":"仁里里","LIN":"12鄰","STREET":"永安街","SECT":" ","MAREA":" ","LANE":"３５巷","ALLEY":" ","HOUSE_NO":"３６號","E_COORD97":174002.70999999999,"N_COORD97":2570432.2599999998,"ADDRESS":"永安街３５巷３６號","OBJECTID":369502},"geometry":{"x":174002.71000000183,"y":2570432.2599999998}},{"attributes":{"ID":369513,"DIS_CODE":0,"TOWNNAME":"下營區","LI":"仁里里","LIN":"12鄰","STREET":"永安街","SECT":" ","MAREA":" ","LANE":"３５巷","ALLEY":" ","HOUSE_NO":"３８號","E_COORD97":173998.75,"N_COORD97":2570432.3799999999,"ADDRESS":"永安街３５巷３８號","OBJECTID":369503},"geometry":{"x":173998.75,"y":2570432.3800000008}},{"attributes":{"ID":369514,"DIS_CODE":0,"TOWNNAME":"下營區","LI":"仁里里","LIN":"12鄰","STREET":"永安街","SECT":" ","MAREA":" ","LANE":"３５巷","ALLEY":" ","HOUSE_NO":"４０號","E_COORD97":173995.35000000001,"N_COORD97":2570432.4199999999,"ADDRESS":"永安街３５巷４０號","OBJECTID":369504},"geometry":{"x":173995.35000000056,"y":2570432.4200000037}},{"attributes":{"ID":369515,"DIS_CODE":0,"TOWNNAME":"下營區","LI":"仁里里","LIN":"12鄰","STREET":"永安街","SECT":" ","MAREA":" ","LANE":"３５巷","ALLEY":" ","HOUSE_NO":"４２號","E_COORD97":173989.37,"N_COORD97":2570432.4399999999,"ADDRESS":"永安街３５巷４２號","OBJECTID":369505},"geometry":{"x":173989.37000000011,"y":2570432.4400000013}},{"attributes":{"ID":369516,"DIS_CODE":0,"TOWNNAME":"下營區","LI":"仁里里","LIN":"12鄰","STREET":"永安街","SECT":" ","MAREA":" ","LANE":"３５巷","ALLEY":" ","HOUSE_NO":"４６號","E_COORD97":173983.94,"N_COORD97":2570432.48,"ADDRESS":"永安街３５巷４６號","OBJECTID":369506},"geometry":{"x":173983.94000000041,"y":2570432.4800000042}},{"attributes":{"ID":369517,"DIS_CODE":0,"TOWNNAME":"下營區","LI":"仁里里","LIN":"12鄰","STREET":"永安街","SECT":" ","MAREA":" ","LANE":"３５巷","ALLEY":" ","HOUSE_NO":"４８號","E_COORD97":174008.91,"N_COORD97":2570406.3500000001,"ADDRESS":"永安街３５巷４８號","OBJECTID":369507},"geometry":{"x":174008.91000000108,"y":2570406.3500000015}},{"attributes":{"ID":369518,"DIS_CODE":0,"TOWNNAME":"下營區","LI":"仁里里","LIN":"12鄰","STREET":"永安街","SECT":" ","MAREA":" ","LANE":"３５巷","ALLEY":" ","HOUSE_NO":"５０號","E_COORD97":174008.64999999999,"N_COORD97":2570400.9900000002,"ADDRESS":"永安街３５巷５０號","OBJECTID":369508},"geometry":{"x":174008.65000000224,"y":2570400.9900000002}},{"attributes":{"ID":369519,"DIS_CODE":0,"TOWNNAME":"下營區","LI":"仁里里","LIN":"12鄰","STREET":"永安街","SECT":" ","MAREA":" ","LANE":"６７巷","ALLEY":" ","HOUSE_NO":"４９號","E_COORD97":173890.44,"N_COORD97":2570511.0699999998,"ADDRESS":"永安街６７巷４９號","OBJECTID":369509},"geometry":{"x":173890.44000000134,"y":2570511.0700000022}},{"attributes":{"ID":369520,"DIS_CODE":0,"TOWNNAME":"下營區","LI":"仁里里","LIN":"12鄰","STREET":"永安街","SECT":" ","MAREA":" ","LANE":"６７巷","ALLEY":" ","HOUSE_NO":"５１號","E_COORD97":173886.10000000001,"N_COORD97":2570511.9199999999,"ADDRESS":"永安街６７巷５１號","OBJECTID":369510},"geometry":{"x":173886.10000000149,"y":2570511.9200000018}},{"attributes":{"ID":369521,"DIS_CODE":0,"TOWNNAME":"仁德區","LI":"新田里","LIN":"18鄰","STREET":"德糖路","SECT":" ","MAREA":" ","LANE":" ","ALLEY":" ","HOUSE_NO":"２０１號","E_COORD97":173806.95999999999,"N_COORD97":2539199.0699999998,"ADDRESS":"德糖路２０１號","OBJECTID":369511},"geometry":{"x":173806.95999999996,"y":2539199.0700000003}},{"attributes":{"ID":369522,"DIS_CODE":0,"TOWNNAME":"仁德區","LI":"仁義里","LIN":"18鄰","STREET":"正義三街","SECT":" ","MAREA":" ","LANE":"２８６巷","ALLEY":" ","HOUSE_NO":"１３號","E_COORD97":174025.53,"N_COORD97":2541497.0099999998,"ADDRESS":"正義三街２８６巷１３號","OBJECTID":369512},"geometry":{"x":174025.53000000026,"y":2541497.0099999998}},{"attributes":{"ID":369523,"DIS_CODE":0,"TOWNNAME":"永康區","LI":"網寮里","LIN":"12鄰","STREET":"永二街","SECT":" ","MAREA":" ","LANE":"２４４巷","ALLEY":" ","HOUSE_NO":"３３號","E_COORD97":173267.63,"N_COORD97":2546536.2200000002,"ADDRESS":"永二街２４４巷３３號","OBJECTID":369513},"geometry":{"x":173267.63000000082,"y":2546536.2200000025}},{"attributes":{"ID":369524,"DIS_CODE":0,"TOWNNAME":"永康區","LI":"復國里","LIN":"12鄰","STREET":"復國二路","SECT":" ","MAREA":" ","LANE":"１０６巷","ALLEY":" ","HOUSE_NO":"９號","E_COORD97":172891.85999999999,"N_COORD97":2545346.52,"ADDRESS":"復國二路１０６巷９號","OBJECTID":369514},"geometry":{"x":172891.86000000127,"y":2545346.5200000014}},{"attributes":{"ID":369525,"DIS_CODE":0,"TOWNNAME":"永康區","LI":"復華里","LIN":"12鄰","STREET":"國華街","SECT":" ","MAREA":" ","LANE":"１００巷","ALLEY":" ","HOUSE_NO":"１９號","E_COORD97":172891.57000000001,"N_COORD97":2546016.25,"ADDRESS":"國華街１００巷１９號","OBJECTID":369515},"geometry":{"x":172891.5700000003,"y":2546016.2500000037}},{"attributes":{"ID":369526,"DIS_CODE":0,"TOWNNAME":"永康區","LI":"網寮里","LIN":"12鄰","STREET":"永二街","SECT":" ","MAREA":" ","LANE":"２４４巷","ALLEY":" ","HOUSE_NO":"１１號","E_COORD97":173272.23999999999,"N_COORD97":2546479.96,"ADDRESS":"永二街２４４巷１１號","OBJECTID":369516},"geometry":{"x":173272.24000000115,"y":2546479.959999999}},{"attributes":{"ID":369527,"DIS_CODE":0,"TOWNNAME":"永康區","LI":"烏竹里","LIN":"12鄰","STREET":"竹園二街","SECT":" ","MAREA":" ","LANE":"１６０巷","ALLEY":" ","HOUSE_NO":"２２號","E_COORD97":174526.60000000001,"N_COORD97":2549209.5600000001,"ADDRESS":"竹園二街１６０巷２２號","OBJECTID":369517},"geometry":{"x":174526.59999999963,"y":2549209.5600000024}},{"attributes":{"ID":369528,"DIS_CODE":0,"TOWNNAME":"永康區","LI":"復華里","LIN":"12鄰","STREET":"國華街","SECT":" ","MAREA":" ","LANE":"１００巷","ALLEY":" ","HOUSE_NO":"３號","E_COORD97":172847.73999999999,"N_COORD97":2545995.25,"ADDRESS":"國華街１００巷３號","OBJECTID":369518},"geometry":{"x":172847.74000000022,"y":2545995.25}},{"attributes":{"ID":369529,"DIS_CODE":0,"TOWNNAME":"永康區","LI":"復華里","LIN":"12鄰","STREET":"國華街","SECT":" ","MAREA":" ","LANE":"１０２巷","ALLEY":" ","HOUSE_NO":"３０號","E_COORD97":172872.23000000001,"N_COORD97":2546055.2400000002,"ADDRESS":"國華街１０２巷３０號","OBJECTID":369519},"geometry":{"x":172872.23000000231,"y":2546055.2400000021}},{"attributes":{"ID":369530,"DIS_CODE":0,"TOWNNAME":"永康區","LI":"埔園里","LIN":"12鄰","STREET":"四維街","SECT":" ","MAREA":" ","LANE":"５８巷","ALLEY":" ","HOUSE_NO":"２０號之１","E_COORD97":173500.92999999999,"N_COORD97":2548074.0499999998,"ADDRESS":"四維街５８巷２０號之１","OBJECTID":369520},"geometry":{"x":173500.93000000063,"y":2548074.0500000026}},{"attributes":{"ID":369531,"DIS_CODE":0,"TOWNNAME":"永康區","LI":"復華里","LIN":"12鄰","STREET":"國華街","SECT":" ","MAREA":" ","LANE":"１０２巷","ALLEY":" ","HOUSE_NO":"２０號","E_COORD97":172857.26999999999,"N_COORD97":2546038.5,"ADDRESS":"國華街１０２巷２０號","OBJECTID":369521},"geometry":{"x":172857.26999999955,"y":2546038.5000000019}},{"attributes":{"ID":369532,"DIS_CODE":0,"TOWNNAME":"永康區","LI":"神洲里","LIN":"12鄰","STREET":"忠孝路","SECT":" ","MAREA":" ","LANE":"１５２巷","ALLEY":" ","HOUSE_NO":"２４號","E_COORD97":172187.79000000001,"N_COORD97":2545072.25,"ADDRESS":"忠孝路１５２巷２４號","OBJECTID":369522},"geometry":{"x":172187.79000000004,"y":2545072.25}},{"attributes":{"ID":369533,"DIS_CODE":0,"TOWNNAME":"東區","LI":"崇明里","LIN":"12鄰","STREET":"大同路","SECT":"二段","MAREA":" ","LANE":"６３５巷","ALLEY":" ","HOUSE_NO":"１０１號","E_COORD97":169735.82000000001,"N_COORD97":2540982.3599999999,"ADDRESS":"大同路二段６３５巷１０１號","OBJECTID":369523},"geometry":{"x":169735.82000000123,"y":2540982.3599999994}},{"attributes":{"ID":369534,"DIS_CODE":0,"TOWNNAME":"東區","LI":"崇明里","LIN":"12鄰","STREET":"大同路","SECT":"二段","MAREA":" ","LANE":"６３５巷","ALLEY":" ","HOUSE_NO":"１０３號","E_COORD97":169753.95000000001,"N_COORD97":2540980.9300000002,"ADDRESS":"大同路二段６３５巷１０３號","OBJECTID":369524},"geometry":{"x":169753.95000000019,"y":2540980.9300000016}},{"attributes":{"ID":369535,"DIS_CODE":0,"TOWNNAME":"東區","LI":"崇明里","LIN":"12鄰","STREET":"大同路","SECT":"二段","MAREA":" ","LANE":"６３５巷","ALLEY":" ","HOUSE_NO":"１０５號","E_COORD97":169751.44,"N_COORD97":2540959.5800000001,"ADDRESS":"大同路二段６３５巷１０５號","OBJECTID":369525},"geometry":{"x":169751.44000000041,"y":2540959.5800000019}},{"attributes":{"ID":369536,"DIS_CODE":0,"TOWNNAME":"東區","LI":"崇明里","LIN":"12鄰","STREET":"大同路","SECT":"二段","MAREA":" ","LANE":"６３５巷","ALLEY":" ","HOUSE_NO":"１１１號","E_COORD97":169749.87,"N_COORD97":2540945.79,"ADDRESS":"大同路二段６３５巷１１１號","OBJECTID":369526},"geometry":{"x":169749.87000000011,"y":2540945.7899999991}},{"attributes":{"ID":369537,"DIS_CODE":0,"TOWNNAME":"東區","LI":"崇明里","LIN":"12鄰","STREET":"大同路","SECT":"二段","MAREA":" ","LANE":"６３５巷","ALLEY":" ","HOUSE_NO":"２號","E_COORD97":169656.98999999999,"N_COORD97":2540892.1600000001,"ADDRESS":"大同路二段６３５巷２號","OBJECTID":369527},"geometry":{"x":169656.99000000115,"y":2540892.160000002}},{"attributes":{"ID":369538,"DIS_CODE":0,"TOWNNAME":"東區","LI":"崇明里","LIN":"12鄰","STREET":"大同路","SECT":"二段","MAREA":" ","LANE":"６３５巷","ALLEY":" ","HOUSE_NO":"４號","E_COORD97":169650.64000000001,"N_COORD97":2540890.8999999999,"ADDRESS":"大同路二段６３５巷４號","OBJECTID":369528},"geometry":{"x":169650.63999999966,"y":2540890.9000000022}},{"attributes":{"ID":369539,"DIS_CODE":0,"TOWNNAME":"東區","LI":"崇明里","LIN":"12鄰","STREET":"大同路","SECT":"二段","MAREA":" ","LANE":"６３５巷","ALLEY":" ","HOUSE_NO":"６號","E_COORD97":169643.34,"N_COORD97":2540890.4700000002,"ADDRESS":"大同路二段６３５巷６號","OBJECTID":369529},"geometry":{"x":169643.34000000171,"y":2540890.4700000025}},{"attributes":{"ID":369540,"DIS_CODE":0,"TOWNNAME":"東區","LI":"崇明里","LIN":"12鄰","STREET":"大同路","SECT":"二段","MAREA":" ","LANE":"６３５巷","ALLEY":" ","HOUSE_NO":"８號","E_COORD97":169636.67000000001,"N_COORD97":2540889.9399999999,"ADDRESS":"大同路二段６３５巷８號","OBJECTID":369530},"geometry":{"x":169636.67000000086,"y":2540889.9399999995}},{"attributes":{"ID":369541,"DIS_CODE":0,"TOWNNAME":"仁德區","LI":"大甲里","LIN":"20鄰","STREET":"行大街","SECT":" ","MAREA":" ","LANE":"４２２巷","ALLEY":" ","HOUSE_NO":"３號","E_COORD97":169436.20999999999,"N_COORD97":2535315.7400000002,"ADDRESS":"行大街４２２巷３號","OBJECTID":369531},"geometry":{"x":169436.21000000089,"y":2535315.7400000002}},{"attributes":{"ID":369542,"DIS_CODE":0,"TOWNNAME":"仁德區","LI":"後壁里","LIN":"40鄰","STREET":"德善二街","SECT":" ","MAREA":" ","LANE":"１７巷","ALLEY":" ","HOUSE_NO":"３５號","E_COORD97":173484.76000000001,"N_COORD97":2538970.52,"ADDRESS":"德善二街１７巷３５號","OBJECTID":369532},"geometry":{"x":173484.75999999978,"y":2538970.5199999996}},{"attributes":{"ID":369543,"DIS_CODE":0,"TOWNNAME":"仁德區","LI":"二行里","LIN":"7鄰","STREET":"行大街","SECT":" ","MAREA":" ","LANE":"５６巷","ALLEY":" ","HOUSE_NO":"５號","E_COORD97":170233.17000000001,"N_COORD97":2535243.75,"ADDRESS":"行大街５６巷５號","OBJECTID":369533},"geometry":{"x":170233.17000000086,"y":2535243.75}},{"attributes":{"ID":369544,"DIS_CODE":0,"TOWNNAME":"仁德區","LI":"上崙里","LIN":"12鄰","STREET":"德崙路","SECT":" ","MAREA":" ","LANE":"３８３巷","ALLEY":" ","HOUSE_NO":"２號","E_COORD97":174136.04000000001,"N_COORD97":2538118.02,"ADDRESS":"德崙路３８３巷２號","OBJECTID":369534},"geometry":{"x":174136.0400000019,"y":2538118.0200000014}},{"attributes":{"ID":369545,"DIS_CODE":0,"TOWNNAME":"佳里區","LI":"六安里","LIN":"12鄰","STREET":"延平路","SECT":" ","MAREA":" ","LANE":"６３０巷","ALLEY":" ","HOUSE_NO":"１０號","E_COORD97":166016.44,"N_COORD97":2563261.1299999999,"ADDRESS":"延平路６３０巷１０號","OBJECTID":369535},"geometry":{"x":166016.44000000041,"y":2563261.129999999}},{"attributes":{"ID":369546,"DIS_CODE":0,"TOWNNAME":"佳里區","LI":"六安里","LIN":"12鄰","STREET":"延平路","SECT":" ","MAREA":" ","LANE":"６３０巷","ALLEY":" ","HOUSE_NO":"１１號","E_COORD97":165999.57999999999,"N_COORD97":2563264.3599999999,"ADDRESS":"延平路６３０巷１１號","OBJECTID":369536},"geometry":{"x":165999.58000000101,"y":2563264.3599999994}},{"attributes":{"ID":369547,"DIS_CODE":0,"TOWNNAME":"下營區","LI":"仁里里","LIN":"12鄰","STREET":"蚵寮街","SECT":" ","MAREA":" ","LANE":"１３６巷","ALLEY":" ","HOUSE_NO":"３號","E_COORD97":173872.48000000001,"N_COORD97":2570382.23,"ADDRESS":"蚵寮街１３６巷３號","OBJECTID":369537},"geometry":{"x":173872.48000000231,"y":2570382.2300000004}},{"attributes":{"ID":369548,"DIS_CODE":0,"TOWNNAME":"佳里區","LI":"六安里","LIN":"12鄰","STREET":"延平路","SECT":" ","MAREA":" ","LANE":"６３０巷","ALLEY":" ","HOUSE_NO":"１２號","E_COORD97":165998.98000000001,"N_COORD97":2563246.5800000001,"ADDRESS":"延平路６３０巷１２號","OBJECTID":369538},"geometry":{"x":165998.98000000138,"y":2563246.5800000001}},{"attributes":{"ID":369549,"DIS_CODE":0,"TOWNNAME":"佳里區","LI":"六安里","LIN":"12鄰","STREET":"延平路","SECT":" ","MAREA":" ","LANE":"６３０巷","ALLEY":" ","HOUSE_NO":"１４號","E_COORD97":165992.75,"N_COORD97":2563247.02,"ADDRESS":"延平路６３０巷１４號","OBJECTID":369539},"geometry":{"x":165992.75000000093,"y":2563247.0200000033}},{"attributes":{"ID":369550,"DIS_CODE":0,"TOWNNAME":"佳里區","LI":"六安里","LIN":"12鄰","STREET":"延平路","SECT":" ","MAREA":" ","LANE":"６３０巷","ALLEY":" ","HOUSE_NO":"１６號","E_COORD97":165987.23000000001,"N_COORD97":2563247.7400000002,"ADDRESS":"延平路６３０巷１６號","OBJECTID":369540},"geometry":{"x":165987.23000000138,"y":2563247.7400000021}},{"attributes":{"ID":369551,"DIS_CODE":0,"TOWNNAME":"佳里區","LI":"六安里","LIN":"12鄰","STREET":"延平路","SECT":" ","MAREA":" ","LANE":"６３０巷","ALLEY":" ","HOUSE_NO":"１８號","E_COORD97":165982.32000000001,"N_COORD97":2563247.77,"ADDRESS":"延平路６３０巷１８號","OBJECTID":369541},"geometry":{"x":165982.32000000216,"y":2563247.7699999996}},{"attributes":{"ID":369552,"DIS_CODE":0,"TOWNNAME":"佳里區","LI":"六安里","LIN":"12鄰","STREET":"延平路","SECT":" ","MAREA":" ","LANE":"６３０巷","ALLEY":" ","HOUSE_NO":"２０號","E_COORD97":165977.10000000001,"N_COORD97":2563248.4900000002,"ADDRESS":"延平路６３０巷２０號","OBJECTID":369542},"geometry":{"x":165977.10000000056,"y":2563248.4900000021}},{"attributes":{"ID":369553,"DIS_CODE":0,"TOWNNAME":"佳里區","LI":"六安里","LIN":"12鄰","STREET":"延平路","SECT":" ","MAREA":" ","LANE":"６３０巷","ALLEY":" ","HOUSE_NO":"２２號","E_COORD97":165972.26999999999,"N_COORD97":2563248.8100000001,"ADDRESS":"延平路６３０巷２２號","OBJECTID":369543},"geometry":{"x":165972.27000000048,"y":2563248.8100000005}},{"attributes":{"ID":369554,"DIS_CODE":0,"TOWNNAME":"佳里區","LI":"六安里","LIN":"12鄰","STREET":"延平路","SECT":" ","MAREA":" ","LANE":"６３０巷","ALLEY":" ","HOUSE_NO":"３號之１","E_COORD97":165958.67999999999,"N_COORD97":2563277.3900000001,"ADDRESS":"延平路６３０巷３號之１","OBJECTID":369544},"geometry":{"x":165958.6799999997,"y":2563277.3900000025}},{"attributes":{"ID":369555,"DIS_CODE":0,"TOWNNAME":"佳里區","LI":"六安里","LIN":"12鄰","STREET":"延平路","SECT":" ","MAREA":" ","LANE":"６３０巷","ALLEY":" ","HOUSE_NO":"３號","E_COORD97":165975.85000000001,"N_COORD97":2563267.27,"ADDRESS":"延平路６３０巷３號","OBJECTID":369545},"geometry":{"x":165975.84999999963,"y":2563267.2700000014}},{"attributes":{"ID":369556,"DIS_CODE":0,"TOWNNAME":"佳里區","LI":"六安里","LIN":"12鄰","STREET":"延平路","SECT":" ","MAREA":" ","LANE":"６３０巷","ALLEY":" ","HOUSE_NO":"４號","E_COORD97":166034.67999999999,"N_COORD97":2563258.9500000002,"ADDRESS":"延平路６３０巷４號","OBJECTID":369546},"geometry":{"x":166034.6799999997,"y":2563258.9500000011}},{"attributes":{"ID":369557,"DIS_CODE":0,"TOWNNAME":"佳里區","LI":"六安里","LIN":"12鄰","STREET":"延平路","SECT":" ","MAREA":" ","LANE":"６３０巷","ALLEY":" ","HOUSE_NO":"５號","E_COORD97":165986.60999999999,"N_COORD97":2563265.8999999999,"ADDRESS":"延平路６３０巷５號","OBJECTID":369547},"geometry":{"x":165986.61000000034,"y":2563265.9000000041}},{"attributes":{"ID":369558,"DIS_CODE":0,"TOWNNAME":"佳里區","LI":"六安里","LIN":"12鄰","STREET":"延平路","SECT":" ","MAREA":" ","LANE":"６３０巷","ALLEY":" ","HOUSE_NO":"６號","E_COORD97":166028.14999999999,"N_COORD97":2563259.77,"ADDRESS":"延平路６３０巷６號","OBJECTID":369548},"geometry":{"x":166028.1500000013,"y":2563259.7700000014}},{"attributes":{"ID":369559,"DIS_CODE":0,"TOWNNAME":"佳里區","LI":"忠仁里","LIN":"12鄰","STREET":"忠仁街","SECT":" ","MAREA":" ","LANE":"１７６巷","ALLEY":" ","HOUSE_NO":"１５號","E_COORD97":166068.79999999999,"N_COORD97":2562275.4100000001,"ADDRESS":"忠仁街１７６巷１５號","OBJECTID":369549},"geometry":{"x":166068.80000000075,"y":2562275.4100000039}},{"attributes":{"ID":369560,"DIS_CODE":0,"TOWNNAME":"佳里區","LI":"忠仁里","LIN":"12鄰","STREET":"忠仁街","SECT":" ","MAREA":" ","LANE":"１７６巷","ALLEY":" ","HOUSE_NO":"１６號","E_COORD97":166067.38,"N_COORD97":2562279.2000000002,"ADDRESS":"忠仁街１７６巷１６號","OBJECTID":369550},"geometry":{"x":166067.37999999989,"y":2562279.200000003}},{"attributes":{"ID":369561,"DIS_CODE":0,"TOWNNAME":"佳里區","LI":"忠仁里","LIN":"12鄰","STREET":"忠仁街","SECT":" ","MAREA":" ","LANE":"１７６巷","ALLEY":" ","HOUSE_NO":"１７號","E_COORD97":166066.17000000001,"N_COORD97":2562282.7000000002,"ADDRESS":"忠仁街１７６巷１７號","OBJECTID":369551},"geometry":{"x":166066.17000000086,"y":2562282.700000003}},{"attributes":{"ID":369562,"DIS_CODE":0,"TOWNNAME":"佳里區","LI":"忠仁里","LIN":"12鄰","STREET":"忠仁街","SECT":" ","MAREA":" ","LANE":"１７６巷","ALLEY":" ","HOUSE_NO":"１９號","E_COORD97":166087.07999999999,"N_COORD97":2562288.2599999998,"ADDRESS":"忠仁街１７６巷１９號","OBJECTID":369552},"geometry":{"x":166087.08000000194,"y":2562288.2599999998}},{"attributes":{"ID":369563,"DIS_CODE":0,"TOWNNAME":"佳里區","LI":"忠仁里","LIN":"12鄰","STREET":"信義一街","SECT":" ","MAREA":" ","LANE":"３４１巷","ALLEY":" ","HOUSE_NO":"１１號","E_COORD97":166174.17000000001,"N_COORD97":2562354.8100000001,"ADDRESS":"信義一街３４１巷１１號","OBJECTID":369553},"geometry":{"x":166174.16999999993,"y":2562354.8100000024}},{"attributes":{"ID":369564,"DIS_CODE":0,"TOWNNAME":"佳里區","LI":"忠仁里","LIN":"12鄰","STREET":"信義一街","SECT":" ","MAREA":" ","LANE":"３４１巷","ALLEY":" ","HOUSE_NO":"１２號","E_COORD97":166177.23999999999,"N_COORD97":2562372.1099999999,"ADDRESS":"信義一街３４１巷１２號","OBJECTID":369554},"geometry":{"x":166177.24000000022,"y":2562372.1100000013}},{"attributes":{"ID":369565,"DIS_CODE":0,"TOWNNAME":"佳里區","LI":"忠仁里","LIN":"12鄰","STREET":"信義一街","SECT":" ","MAREA":" ","LANE":"３４１巷","ALLEY":" ","HOUSE_NO":"１３號","E_COORD97":166169.79999999999,"N_COORD97":2562354.52,"ADDRESS":"信義一街３４１巷１３號","OBJECTID":369555},"geometry":{"x":166169.79999999981,"y":2562354.5199999996}},{"attributes":{"ID":369566,"DIS_CODE":0,"TOWNNAME":"佳里區","LI":"忠仁里","LIN":"12鄰","STREET":"信義一街","SECT":" ","MAREA":" ","LANE":"３４１巷","ALLEY":" ","HOUSE_NO":"１５號","E_COORD97":166165.34,"N_COORD97":2562354.0699999998,"ADDRESS":"信義一街３４１巷１５號","OBJECTID":369556},"geometry":{"x":166165.34000000078,"y":2562354.0700000022}},{"attributes":{"ID":369567,"DIS_CODE":0,"TOWNNAME":"佳里區","LI":"忠仁里","LIN":"12鄰","STREET":"信義一街","SECT":" ","MAREA":" ","LANE":"３４１巷","ALLEY":" ","HOUSE_NO":"１６號","E_COORD97":166172.95000000001,"N_COORD97":2562371.9300000002,"ADDRESS":"信義一街３４１巷１６號","OBJECTID":369557},"geometry":{"x":166172.95000000205,"y":2562371.9299999997}},{"attributes":{"ID":369568,"DIS_CODE":0,"TOWNNAME":"佳里區","LI":"忠仁里","LIN":"12鄰","STREET":"信義一街","SECT":" ","MAREA":" ","LANE":"３４１巷","ALLEY":" ","HOUSE_NO":"１８號","E_COORD97":166168.70999999999,"N_COORD97":2562371.4199999999,"ADDRESS":"信義一街３４１巷１８號","OBJECTID":369558},"geometry":{"x":166168.70999999996,"y":2562371.4200000018}},{"attributes":{"ID":369569,"DIS_CODE":0,"TOWNNAME":"佳里區","LI":"忠仁里","LIN":"12鄰","STREET":"信義一街","SECT":" ","MAREA":" ","LANE":"３４１巷","ALLEY":" ","HOUSE_NO":"２０號","E_COORD97":166164.23000000001,"N_COORD97":2562371.2799999998,"ADDRESS":"信義一街３４１巷２０號","OBJECTID":369559},"geometry":{"x":166164.23000000045,"y":2562371.2800000012}},{"attributes":{"ID":369570,"DIS_CODE":0,"TOWNNAME":"佳里區","LI":"忠仁里","LIN":"12鄰","STREET":"信義一街","SECT":" ","MAREA":" ","LANE":"３４１巷","ALLEY":" ","HOUSE_NO":"７號","E_COORD97":166182.89999999999,"N_COORD97":2562355.5699999998,"ADDRESS":"信義一街３４１巷７號","OBJECTID":369560},"geometry":{"x":166182.90000000037,"y":2562355.5700000003}},{"attributes":{"ID":369571,"DIS_CODE":0,"TOWNNAME":"佳里區","LI":"忠仁里","LIN":"12鄰","STREET":"信義一街","SECT":" ","MAREA":" ","LANE":"３４１巷","ALLEY":" ","HOUSE_NO":"９號","E_COORD97":166178.48000000001,"N_COORD97":2562355.21,"ADDRESS":"信義一街３４１巷９號","OBJECTID":369561},"geometry":{"x":166178.48000000138,"y":2562355.2100000009}},{"attributes":{"ID":369572,"DIS_CODE":0,"TOWNNAME":"安南區","LI":"安順里","LIN":"12鄰","STREET":"安和路","SECT":"四段","MAREA":" ","LANE":"３６巷","ALLEY":" ","HOUSE_NO":"１７號","E_COORD97":170015.22,"N_COORD97":2550182.1299999999,"ADDRESS":"安和路四段３６巷１７號","OBJECTID":369562},"geometry":{"x":170015.2200000016,"y":2550182.129999999}},{"attributes":{"ID":369573,"DIS_CODE":0,"TOWNNAME":"安南區","LI":"安順里","LIN":"12鄰","STREET":"安和路","SECT":"四段","MAREA":" ","LANE":"３６巷","ALLEY":" ","HOUSE_NO":"１８０號","E_COORD97":170336.17000000001,"N_COORD97":2550102.1699999999,"ADDRESS":"安和路四段３６巷１８０號","OBJECTID":369563},"geometry":{"x":170336.17000000179,"y":2550102.1700000037}},{"attributes":{"ID":369574,"DIS_CODE":0,"TOWNNAME":"安南區","LI":"安順里","LIN":"12鄰","STREET":"安和路","SECT":"四段","MAREA":" ","LANE":"３６巷","ALLEY":" ","HOUSE_NO":"１９４號","E_COORD97":170371.29999999999,"N_COORD97":2550108.6800000002,"ADDRESS":"安和路四段３６巷１９４號","OBJECTID":369564},"geometry":{"x":170371.30000000075,"y":2550108.6800000034}},{"attributes":{"ID":369575,"DIS_CODE":0,"TOWNNAME":"安南區","LI":"安順里","LIN":"12鄰","STREET":"安和路","SECT":"四段","MAREA":" ","LANE":"３６巷","ALLEY":" ","HOUSE_NO":"１９６號","E_COORD97":170367.73000000001,"N_COORD97":2550133.8900000001,"ADDRESS":"安和路四段３６巷１９６號","OBJECTID":369565},"geometry":{"x":170367.73000000045,"y":2550133.8900000006}},{"attributes":{"ID":369576,"DIS_CODE":0,"TOWNNAME":"安南區","LI":"安順里","LIN":"12鄰","STREET":"安和路","SECT":"四段","MAREA":" ","LANE":"３６巷","ALLEY":" ","HOUSE_NO":"１９８號","E_COORD97":170370.04000000001,"N_COORD97":2550154.27,"ADDRESS":"安和路四段３６巷１９８號","OBJECTID":369566},"geometry":{"x":170370.04000000097,"y":2550154.2699999996}},{"attributes":{"ID":369577,"DIS_CODE":0,"TOWNNAME":"安南區","LI":"安順里","LIN":"12鄰","STREET":"安和路","SECT":"四段","MAREA":" ","LANE":"３６巷","ALLEY":" ","HOUSE_NO":"１９號","E_COORD97":170018.20000000001,"N_COORD97":2550182.3799999999,"ADDRESS":"安和路四段３６巷１９號","OBJECTID":369567},"geometry":{"x":170018.20000000112,"y":2550182.3800000008}},{"attributes":{"ID":369578,"DIS_CODE":0,"TOWNNAME":"安南區","LI":"安順里","LIN":"12鄰","STREET":"安和路","SECT":"四段","MAREA":" ","LANE":"３６巷","ALLEY":" ","HOUSE_NO":"２０８號","E_COORD97":170432.57999999999,"N_COORD97":2550134.3199999998,"ADDRESS":"安和路四段３６巷２０８號","OBJECTID":369568},"geometry":{"x":170432.58000000101,"y":2550134.3200000003}},{"attributes":{"ID":369579,"DIS_CODE":0,"TOWNNAME":"安南區","LI":"安順里","LIN":"12鄰","STREET":"安和路","SECT":"四段","MAREA":" ","LANE":"３６巷","ALLEY":" ","HOUSE_NO":"２３號","E_COORD97":170047.67999999999,"N_COORD97":2550177.46,"ADDRESS":"安和路四段３６巷２３號","OBJECTID":369569},"geometry":{"x":170047.68000000156,"y":2550177.4600000009}},{"attributes":{"ID":369580,"DIS_CODE":0,"TOWNNAME":"安南區","LI":"安順里","LIN":"12鄰","STREET":"安和路","SECT":"四段","MAREA":" ","LANE":"３６巷","ALLEY":" ","HOUSE_NO":"２５０號","E_COORD97":170487.20000000001,"N_COORD97":2550136.4199999999,"ADDRESS":"安和路四段３６巷２５０號","OBJECTID":369570},"geometry":{"x":170487.20000000205,"y":2550136.4199999999}},{"attributes":{"ID":369581,"DIS_CODE":0,"TOWNNAME":"安南區","LI":"安順里","LIN":"12鄰","STREET":"安和路","SECT":"四段","MAREA":" ","LANE":"３６巷","ALLEY":" ","HOUSE_NO":"２５６號","E_COORD97":170497.89999999999,"N_COORD97":2550148.0499999998,"ADDRESS":"安和路四段３６巷２５６號","OBJECTID":369571},"geometry":{"x":170497.90000000224,"y":2550148.0500000026}},{"attributes":{"ID":369582,"DIS_CODE":0,"TOWNNAME":"安南區","LI":"安順里","LIN":"12鄰","STREET":"安和路","SECT":"四段","MAREA":" ","LANE":"３６巷","ALLEY":" ","HOUSE_NO":"２５８號","E_COORD97":170509.73999999999,"N_COORD97":2550154.3500000001,"ADDRESS":"安和路四段３６巷２５８號","OBJECTID":369572},"geometry":{"x":170509.74000000115,"y":2550154.3499999996}},{"attributes":{"ID":369583,"DIS_CODE":0,"TOWNNAME":"安南區","LI":"安順里","LIN":"12鄰","STREET":"安和路","SECT":"四段","MAREA":" ","LANE":"３６巷","ALLEY":" ","HOUSE_NO":"２７８號","E_COORD97":170663.03,"N_COORD97":2550097.3999999999,"ADDRESS":"安和路四段３６巷２７８號","OBJECTID":369573},"geometry":{"x":170663.03000000212,"y":2550097.4000000041}},{"attributes":{"ID":369584,"DIS_CODE":0,"TOWNNAME":"安南區","LI":"安順里","LIN":"12鄰","STREET":"安和路","SECT":"四段","MAREA":" ","LANE":"３６巷","ALLEY":" ","HOUSE_NO":"２８０號","E_COORD97":170689.01000000001,"N_COORD97":2550111.1299999999,"ADDRESS":"安和路四段３６巷２８０號","OBJECTID":369574},"geometry":{"x":170689.00999999978,"y":2550111.1299999971}},{"attributes":{"ID":369585,"DIS_CODE":0,"TOWNNAME":"安南區","LI":"安順里","LIN":"12鄰","STREET":"安和路","SECT":"四段","MAREA":" ","LANE":"３６巷","ALLEY":" ","HOUSE_NO":"２８６號","E_COORD97":170708.06,"N_COORD97":2550098.9199999999,"ADDRESS":"安和路四段３６巷２８６號","OBJECTID":369575},"geometry":{"x":170708.06000000052,"y":2550098.9199999999}},{"attributes":{"ID":369586,"DIS_CODE":0,"TOWNNAME":"安南區","LI":"安順里","LIN":"12鄰","STREET":"安和路","SECT":"四段","MAREA":" ","LANE":"３６巷","ALLEY":" ","HOUSE_NO":"３５號","E_COORD97":170067.16,"N_COORD97":2550179.9399999999,"ADDRESS":"安和路四段３６巷３５號","OBJECTID":369576},"geometry":{"x":170067.16000000108,"y":2550179.9399999995}},{"attributes":{"ID":369587,"DIS_CODE":0,"TOWNNAME":"安南區","LI":"安順里","LIN":"12鄰","STREET":"安和路","SECT":"四段","MAREA":" ","LANE":"３６巷","ALLEY":" ","HOUSE_NO":"３５號之１","E_COORD97":170079.38,"N_COORD97":2550176.6899999999,"ADDRESS":"安和路四段３６巷３５號之１","OBJECTID":369577},"geometry":{"x":170079.38000000082,"y":2550176.6900000013}},{"attributes":{"ID":369588,"DIS_CODE":0,"TOWNNAME":"安南區","LI":"安順里","LIN":"12鄰","STREET":"安和路","SECT":"四段","MAREA":" ","LANE":"３６巷","ALLEY":" ","HOUSE_NO":"７５號","E_COORD97":170182.56,"N_COORD97":2550181.6499999999,"ADDRESS":"安和路四段３６巷７５號","OBJECTID":369578},"geometry":{"x":170182.56000000052,"y":2550181.6500000022}},{"attributes":{"ID":369589,"DIS_CODE":0,"TOWNNAME":"安南區","LI":"安順里","LIN":"12鄰","STREET":"安和路","SECT":"四段","MAREA":" ","LANE":"３６巷","ALLEY":" ","HOUSE_NO":"９號","E_COORD97":170005.72,"N_COORD97":2550181.1400000001,"ADDRESS":"安和路四段３６巷９號","OBJECTID":369579},"geometry":{"x":170005.72000000067,"y":2550181.1400000025}},{"attributes":{"ID":369590,"DIS_CODE":0,"TOWNNAME":"安南區","LI":"海西里","LIN":"12鄰","STREET":"海環街","SECT":" ","MAREA":" ","LANE":"２０５巷","ALLEY":" ","HOUSE_NO":"２１號","E_COORD97":166334.44,"N_COORD97":2548587.21,"ADDRESS":"海環街２０５巷２１號","OBJECTID":369580},"geometry":{"x":166334.44000000134,"y":2548587.2100000046}},{"attributes":{"ID":369591,"DIS_CODE":0,"TOWNNAME":"安南區","LI":"海西里","LIN":"12鄰","STREET":"海環街","SECT":" ","MAREA":" ","LANE":"２０５巷","ALLEY":" ","HOUSE_NO":"１０號","E_COORD97":166317.41,"N_COORD97":2548614.4300000002,"ADDRESS":"海環街２０５巷１０號","OBJECTID":369581},"geometry":{"x":166317.41000000108,"y":2548614.4299999997}},{"attributes":{"ID":369592,"DIS_CODE":0,"TOWNNAME":"安南區","LI":"海西里","LIN":"12鄰","STREET":"海環街","SECT":" ","MAREA":" ","LANE":"２０５巷","ALLEY":" ","HOUSE_NO":"１２號","E_COORD97":166317.41,"N_COORD97":2548610.21,"ADDRESS":"海環街２０５巷１２號","OBJECTID":369582},"geometry":{"x":166317.41000000108,"y":2548610.2100000009}},{"attributes":{"ID":369593,"DIS_CODE":0,"TOWNNAME":"安南區","LI":"海西里","LIN":"12鄰","STREET":"海環街","SECT":" ","MAREA":" ","LANE":"２０５巷","ALLEY":" ","HOUSE_NO":"１６號","E_COORD97":166317.13,"N_COORD97":2548601.77,"ADDRESS":"海環街２０５巷１６號","OBJECTID":369583},"geometry":{"x":166317.13000000175,"y":2548601.7699999996}},{"attributes":{"ID":369594,"DIS_CODE":0,"TOWNNAME":"安南區","LI":"海西里","LIN":"12鄰","STREET":"海環街","SECT":" ","MAREA":" ","LANE":"２０５巷","ALLEY":" ","HOUSE_NO":"１８號","E_COORD97":166316.28,"N_COORD97":2548596.9900000002,"ADDRESS":"海環街２０５巷１８號","OBJECTID":369584},"geometry":{"x":166316.28000000026,"y":2548596.9900000002}},{"attributes":{"ID":369595,"DIS_CODE":0,"TOWNNAME":"安南區","LI":"海西里","LIN":"12鄰","STREET":"海環街","SECT":" ","MAREA":" ","LANE":"２０５巷","ALLEY":" ","HOUSE_NO":"１９號","E_COORD97":166334.44,"N_COORD97":2548592.04,"ADDRESS":"海環街２０５巷１９號","OBJECTID":369585},"geometry":{"x":166334.44000000134,"y":2548592.0399999991}},{"attributes":{"ID":369596,"DIS_CODE":0,"TOWNNAME":"安南區","LI":"海西里","LIN":"12鄰","STREET":"海環街","SECT":" ","MAREA":" ","LANE":"２０５巷","ALLEY":" ","HOUSE_NO":"２０號","E_COORD97":166315.14999999999,"N_COORD97":2548593.0499999998,"ADDRESS":"海環街２０５巷２０號","OBJECTID":369586},"geometry":{"x":166315.15000000037,"y":2548593.0500000026}},{"attributes":{"ID":369597,"DIS_CODE":0,"TOWNNAME":"安南區","LI":"海西里","LIN":"12鄰","STREET":"海環街","SECT":" ","MAREA":" ","LANE":"２０５巷","ALLEY":" ","HOUSE_NO":"２２號","E_COORD97":166318.10000000001,"N_COORD97":2548588.5800000001,"ADDRESS":"海環街２０５巷２２號","OBJECTID":369587},"geometry":{"x":166318.09999999963,"y":2548588.5800000019}},{"attributes":{"ID":369598,"DIS_CODE":0,"TOWNNAME":"安南區","LI":"海西里","LIN":"12鄰","STREET":"海環街","SECT":" ","MAREA":" ","LANE":"２０５巷","ALLEY":" ","HOUSE_NO":"２３號","E_COORD97":166333.82999999999,"N_COORD97":2548583.79,"ADDRESS":"海環街２０５巷２３號","OBJECTID":369588},"geometry":{"x":166333.83000000007,"y":2548583.7899999991}},{"attributes":{"ID":369599,"DIS_CODE":0,"TOWNNAME":"安南區","LI":"海西里","LIN":"12鄰","STREET":"海環街","SECT":" ","MAREA":" ","LANE":"２０５巷","ALLEY":" ","HOUSE_NO":"２４號","E_COORD97":166318.10000000001,"N_COORD97":2548584.1499999999,"ADDRESS":"海環街２０５巷２４號","OBJECTID":369589},"geometry":{"x":166318.09999999963,"y":2548584.1500000022}},{"attributes":{"ID":369600,"DIS_CODE":0,"TOWNNAME":"安南區","LI":"海西里","LIN":"12鄰","STREET":"海環街","SECT":" ","MAREA":" ","LANE":"２０５巷","ALLEY":" ","HOUSE_NO":"２５號","E_COORD97":166333.63,"N_COORD97":2548578.3500000001,"ADDRESS":"海環街２０５巷２５號","OBJECTID":369590},"geometry":{"x":166333.62999999989,"y":2548578.3500000034}},{"attributes":{"ID":369601,"DIS_CODE":0,"TOWNNAME":"安南區","LI":"海西里","LIN":"12鄰","STREET":"海環街","SECT":" ","MAREA":" ","LANE":"２０５巷","ALLEY":" ","HOUSE_NO":"２６號","E_COORD97":166318.29999999999,"N_COORD97":2548580.3199999998,"ADDRESS":"海環街２０５巷２６號","OBJECTID":369591},"geometry":{"x":166318.30000000075,"y":2548580.3200000022}},{"attributes":{"ID":369602,"DIS_CODE":0,"TOWNNAME":"安南區","LI":"海西里","LIN":"12鄰","STREET":"海環街","SECT":" ","MAREA":" ","LANE":"２０５巷","ALLEY":" ","HOUSE_NO":"２７號","E_COORD97":166333.42999999999,"N_COORD97":2548575.1299999999,"ADDRESS":"海環街２０５巷２７號","OBJECTID":369592},"geometry":{"x":166333.43000000156,"y":2548575.129999999}},{"attributes":{"ID":369603,"DIS_CODE":0,"TOWNNAME":"安南區","LI":"海西里","LIN":"12鄰","STREET":"海環街","SECT":" ","MAREA":" ","LANE":"２０５巷","ALLEY":" ","HOUSE_NO":"２８號","E_COORD97":166318.5,"N_COORD97":2548576.1899999999,"ADDRESS":"海環街２０５巷２８號","OBJECTID":369593},"geometry":{"x":166318.50000000093,"y":2548576.1900000013}},{"attributes":{"ID":369604,"DIS_CODE":0,"TOWNNAME":"安南區","LI":"海西里","LIN":"12鄰","STREET":"海環街","SECT":" ","MAREA":" ","LANE":"２０５巷","ALLEY":" ","HOUSE_NO":"２９號","E_COORD97":166333.42999999999,"N_COORD97":2548570.0899999999,"ADDRESS":"海環街２０５巷２９號","OBJECTID":369594},"geometry":{"x":166333.43000000156,"y":2548570.0900000036}},{"attributes":{"ID":369605,"DIS_CODE":0,"TOWNNAME":"新營區","LI":"新北里","LIN":"12鄰","STREET":"南新街","SECT":" ","MAREA":" ","LANE":"５０巷","ALLEY":" ","HOUSE_NO":"６號","E_COORD97":179350.67999999999,"N_COORD97":2578905.8100000001,"ADDRESS":"南新街５０巷６號","OBJECTID":369595},"geometry":{"x":179350.6799999997,"y":2578905.8100000005}},{"attributes":{"ID":369606,"DIS_CODE":0,"TOWNNAME":"安南區","LI":"海西里","LIN":"12鄰","STREET":"海環街","SECT":" ","MAREA":" ","LANE":"２０５巷","ALLEY":" ","HOUSE_NO":"３７號","E_COORD97":166332.82999999999,"N_COORD97":2548551.7000000002,"ADDRESS":"海環街２０５巷３７號","OBJECTID":369596},"geometry":{"x":166332.83000000194,"y":2548551.700000003}},{"attributes":{"ID":369607,"DIS_CODE":0,"TOWNNAME":"安南區","LI":"海西里","LIN":"12鄰","STREET":"海環街","SECT":" ","MAREA":" ","LANE":"２０５巷","ALLEY":" ","HOUSE_NO":"３９號","E_COORD97":166332.22,"N_COORD97":2548547.4700000002,"ADDRESS":"海環街２０５巷３９號","OBJECTID":369597},"geometry":{"x":166332.22000000067,"y":2548547.4700000007}},{"attributes":{"ID":369608,"DIS_CODE":0,"TOWNNAME":"安南區","LI":"海西里","LIN":"12鄰","STREET":"海環街","SECT":" ","MAREA":" ","LANE":"２０５巷","ALLEY":" ","HOUSE_NO":"４０號","E_COORD97":166315.07000000001,"N_COORD97":2548548.6000000001,"ADDRESS":"海環街２０５巷４０號","OBJECTID":369598},"geometry":{"x":166315.07000000123,"y":2548548.5999999996}},{"attributes":{"ID":369609,"DIS_CODE":0,"TOWNNAME":"安南區","LI":"海西里","LIN":"12鄰","STREET":"海環街","SECT":" ","MAREA":" ","LANE":"２０５巷","ALLEY":" ","HOUSE_NO":"４１號","E_COORD97":166331.82000000001,"N_COORD97":2548542.6400000001,"ADDRESS":"海環街２０５巷４１號","OBJECTID":369599},"geometry":{"x":166331.82000000123,"y":2548542.6400000006}},{"attributes":{"ID":369610,"DIS_CODE":0,"TOWNNAME":"安南區","LI":"海西里","LIN":"12鄰","STREET":"海環街","SECT":" ","MAREA":" ","LANE":"２０５巷","ALLEY":" ","HOUSE_NO":"４３號","E_COORD97":166330.81,"N_COORD97":2548538.4100000001,"ADDRESS":"海環街２０５巷４３號","OBJECTID":369600},"geometry":{"x":166330.81000000145,"y":2548538.410000002}}]}