{"displayFieldName":"TOWNNAME","fieldAliases":{"ID":"ID","DIS_CODE":"DIS_CODE","TOWNNAME":"TOWNNAME","LI":"LI","LIN":"LIN","STREET":"STREET","SECT":"SECT","MAREA":"MAREA","LANE":"LANE","ALLEY":"ALLEY","HOUSE_NO":"HOUSE_NO","E_COORD97":"E_COORD97","N_COORD97":"N_COORD97","ADDRESS":"ADDRESS","OBJECTID":"OBJECTID"},"geometryType":"esriGeometryPoint","spatialReference":{"wkid":102443,"latestWkid":3826},"fields":[{"name":"ID","type":"esriFieldTypeDouble","alias":"ID"},{"name":"DIS_CODE","type":"esriFieldTypeInteger","alias":"DIS_CODE"},{"name":"TOWNNAME","type":"esriFieldTypeString","alias":"TOWNNAME","length":8},{"name":"LI","type":"esriFieldTypeString","alias":"LI","length":8},{"name":"LIN","type":"esriFieldTypeString","alias":"LIN","length":12},{"name":"STREET","type":"esriFieldTypeString","alias":"STREET","length":20},{"name":"SECT","type":"esriFieldTypeString","alias":"SECT","length":8},{"name":"MAREA","type":"esriFieldTypeString","alias":"MAREA","length":12},{"name":"LANE","type":"esriFieldTypeString","alias":"LANE","length":10},{"name":"ALLEY","type":"esriFieldTypeString","alias":"ALLEY","length":10},{"name":"HOUSE_NO","type":"esriFieldTypeString","alias":"HOUSE_NO","length":20},{"name":"E_COORD97","type":"esriFieldTypeDouble","alias":"E_COORD97"},{"name":"N_COORD97","type":"esriFieldTypeDouble","alias":"N_COORD97"},{"name":"ADDRESS","type":"esriFieldTypeString","alias":"ADDRESS","length":50},{"name":"OBJECTID","type":"esriFieldTypeOID","alias":"OBJECTID"}],"features":[{"attributes":{"ID":271606,"DIS_CODE":0,"TOWNNAME":"中西區","LI":"文賢里","LIN":"7鄰","STREET":"和美街","SECT":" ","MAREA":" ","LANE":"５１巷","ALLEY":" ","HOUSE_NO":"１８號","E_COORD97":167048.67000000001,"N_COORD97":2544795.6400000001,"ADDRESS":"和美街５１巷１８號","OBJECTID":271601},"geometry":{"x":167048.66999999993,"y":2544795.6400000006}},{"attributes":{"ID":271607,"DIS_CODE":0,"TOWNNAME":"中西區","LI":"文賢里","LIN":"7鄰","STREET":"和美街","SECT":" ","MAREA":" ","LANE":"５１巷","ALLEY":" ","HOUSE_NO":"２號","E_COORD97":167076.66,"N_COORD97":2544820.7999999998,"ADDRESS":"和美街５１巷２號","OBJECTID":271602},"geometry":{"x":167076.66000000201,"y":2544820.8000000026}},{"attributes":{"ID":271608,"DIS_CODE":0,"TOWNNAME":"中西區","LI":"文賢里","LIN":"7鄰","STREET":"和美街","SECT":" ","MAREA":" ","LANE":"５１巷","ALLEY":" ","HOUSE_NO":"３號","E_COORD97":167075.45000000001,"N_COORD97":2544805.0800000001,"ADDRESS":"和美街５１巷３號","OBJECTID":271603},"geometry":{"x":167075.45000000112,"y":2544805.0800000019}},{"attributes":{"ID":271609,"DIS_CODE":0,"TOWNNAME":"中西區","LI":"文賢里","LIN":"7鄰","STREET":"和美街","SECT":" ","MAREA":" ","LANE":"５１巷","ALLEY":" ","HOUSE_NO":"４號","E_COORD97":167072.98000000001,"N_COORD97":2544816.21,"ADDRESS":"和美街５１巷４號","OBJECTID":271604},"geometry":{"x":167072.97999999952,"y":2544816.2100000009}},{"attributes":{"ID":271610,"DIS_CODE":0,"TOWNNAME":"中西區","LI":"文賢里","LIN":"7鄰","STREET":"和美街","SECT":" ","MAREA":" ","LANE":"５１巷","ALLEY":" ","HOUSE_NO":"５號","E_COORD97":167071.51000000001,"N_COORD97":2544802.1800000002,"ADDRESS":"和美街５１巷５號","OBJECTID":271605},"geometry":{"x":167071.50999999978,"y":2544802.1799999997}},{"attributes":{"ID":271611,"DIS_CODE":0,"TOWNNAME":"中西區","LI":"文賢里","LIN":"7鄰","STREET":"和美街","SECT":" ","MAREA":" ","LANE":"５１巷","ALLEY":" ","HOUSE_NO":"６號","E_COORD97":167067.32999999999,"N_COORD97":2544813.0499999998,"ADDRESS":"和美街５１巷６號","OBJECTID":271606},"geometry":{"x":167067.33000000101,"y":2544813.0500000007}},{"attributes":{"ID":271612,"DIS_CODE":0,"TOWNNAME":"中西區","LI":"文賢里","LIN":"7鄰","STREET":"和美街","SECT":" ","MAREA":" ","LANE":"５１巷","ALLEY":" ","HOUSE_NO":"９號","E_COORD97":167063.20999999999,"N_COORD97":2544792.6000000001,"ADDRESS":"和美街５１巷９號","OBJECTID":271607},"geometry":{"x":167063.21000000089,"y":2544792.5999999978}},{"attributes":{"ID":271613,"DIS_CODE":0,"TOWNNAME":"中西區","LI":"光賢里","LIN":"7鄰","STREET":"武聖路","SECT":" ","MAREA":" ","LANE":"６９巷","ALLEY":" ","HOUSE_NO":"７３號","E_COORD97":167073.69,"N_COORD97":2544958.0899999999,"ADDRESS":"武聖路６９巷７３號","OBJECTID":271608},"geometry":{"x":167073.69000000134,"y":2544958.0899999999}},{"attributes":{"ID":271614,"DIS_CODE":0,"TOWNNAME":"中西區","LI":"光賢里","LIN":"7鄰","STREET":"武聖路","SECT":" ","MAREA":" ","LANE":"６９巷","ALLEY":" ","HOUSE_NO":"７５號","E_COORD97":167071.37,"N_COORD97":2544953.6499999999,"ADDRESS":"武聖路６９巷７５號","OBJECTID":271609},"geometry":{"x":167071.37000000011,"y":2544953.6500000022}},{"attributes":{"ID":271615,"DIS_CODE":0,"TOWNNAME":"中西區","LI":"光賢里","LIN":"7鄰","STREET":"武聖路","SECT":" ","MAREA":" ","LANE":"６９巷","ALLEY":" ","HOUSE_NO":"７７號","E_COORD97":167068.60999999999,"N_COORD97":2544948.5699999998,"ADDRESS":"武聖路６９巷７７號","OBJECTID":271610},"geometry":{"x":167068.6100000022,"y":2544948.5700000003}},{"attributes":{"ID":271616,"DIS_CODE":0,"TOWNNAME":"中西區","LI":"光賢里","LIN":"7鄰","STREET":"武聖路","SECT":" ","MAREA":" ","LANE":"６９巷","ALLEY":" ","HOUSE_NO":"７９號","E_COORD97":167066.29000000001,"N_COORD97":2544944.7599999998,"ADDRESS":"武聖路６９巷７９號","OBJECTID":271611},"geometry":{"x":167066.29000000004,"y":2544944.7600000016}},{"attributes":{"ID":271617,"DIS_CODE":0,"TOWNNAME":"南區","LI":"喜東里","LIN":"3鄰","STREET":"明興路","SECT":" ","MAREA":" ","LANE":" ","ALLEY":" ","HOUSE_NO":"３５２號","E_COORD97":166331.13,"N_COORD97":2538956,"ADDRESS":"明興路３５２號","OBJECTID":271612},"geometry":{"x":166331.13000000082,"y":2538956.0000000019}},{"attributes":{"ID":271618,"DIS_CODE":0,"TOWNNAME":"永康區","LI":"烏竹里","LIN":"3鄰","STREET":"竹園二街","SECT":" ","MAREA":" ","LANE":" ","ALLEY":" ","HOUSE_NO":"１８７號","E_COORD97":174623.45000000001,"N_COORD97":2549333.3500000001,"ADDRESS":"竹園二街１８７號","OBJECTID":271613},"geometry":{"x":174623.45000000205,"y":2549333.3499999996}},{"attributes":{"ID":271619,"DIS_CODE":0,"TOWNNAME":"永康區","LI":"烏竹里","LIN":"3鄰","STREET":"竹園二街","SECT":" ","MAREA":" ","LANE":" ","ALLEY":" ","HOUSE_NO":"１９１號","E_COORD97":174644.95000000001,"N_COORD97":2549352.6899999999,"ADDRESS":"竹園二街１９１號","OBJECTID":271614},"geometry":{"x":174644.95000000019,"y":2549352.6900000013}},{"attributes":{"ID":271620,"DIS_CODE":0,"TOWNNAME":"仁德區","LI":"大甲里","LIN":"12鄰","STREET":"行大一街","SECT":" ","MAREA":" ","LANE":" ","ALLEY":" ","HOUSE_NO":"３４５號","E_COORD97":169513.38445000001,"N_COORD97":2535066.4437299999,"ADDRESS":"行大一街３４５號","OBJECTID":271615},"geometry":{"x":169513.38444999978,"y":2535066.4437279999}},{"attributes":{"ID":271621,"DIS_CODE":0,"TOWNNAME":"中西區","LI":"光賢里","LIN":"7鄰","STREET":"武聖路","SECT":" ","MAREA":" ","LANE":"６９巷","ALLEY":" ","HOUSE_NO":"８１號","E_COORD97":167063.95999999999,"N_COORD97":2544940.3100000001,"ADDRESS":"武聖路６９巷８１號","OBJECTID":271616},"geometry":{"x":167063.95999999996,"y":2544940.3100000005}},{"attributes":{"ID":271622,"DIS_CODE":0,"TOWNNAME":"中西區","LI":"光賢里","LIN":"7鄰","STREET":"武聖路","SECT":" ","MAREA":" ","LANE":"６９巷","ALLEY":" ","HOUSE_NO":"８３號","E_COORD97":167061.63,"N_COORD97":2544935.6600000001,"ADDRESS":"武聖路６９巷８３號","OBJECTID":271617},"geometry":{"x":167061.63000000082,"y":2544935.660000002}},{"attributes":{"ID":271623,"DIS_CODE":0,"TOWNNAME":"永康區","LI":"中華里","LIN":"7鄰","STREET":"小東路","SECT":" ","MAREA":" ","LANE":"６４７巷","ALLEY":" ","HOUSE_NO":"９號","E_COORD97":171917.92000000001,"N_COORD97":2544377.5699999998,"ADDRESS":"小東路６４７巷９號","OBJECTID":271618},"geometry":{"x":171917.92000000086,"y":2544377.5700000022}},{"attributes":{"ID":271624,"DIS_CODE":0,"TOWNNAME":"永康區","LI":"中華里","LIN":"7鄰","STREET":"小東路","SECT":" ","MAREA":" ","LANE":"６４７巷","ALLEY":" ","HOUSE_NO":"１１號","E_COORD97":171923.07000000001,"N_COORD97":2544377.3500000001,"ADDRESS":"小東路６４７巷１１號","OBJECTID":271619},"geometry":{"x":171923.0700000003,"y":2544377.3500000034}},{"attributes":{"ID":271625,"DIS_CODE":0,"TOWNNAME":"永康區","LI":"勝利里","LIN":"7鄰","STREET":"勝利街","SECT":" ","MAREA":" ","LANE":"２２巷","ALLEY":" ","HOUSE_NO":"７號","E_COORD97":171257.59,"N_COORD97":2544607,"ADDRESS":"勝利街２２巷７號","OBJECTID":271620},"geometry":{"x":171257.59000000078,"y":2544607}},{"attributes":{"ID":271626,"DIS_CODE":0,"TOWNNAME":"永康區","LI":"中華里","LIN":"7鄰","STREET":"忠勇街","SECT":" ","MAREA":" ","LANE":"３２巷","ALLEY":" ","HOUSE_NO":"８號","E_COORD97":171930.32999999999,"N_COORD97":2544420.0899999999,"ADDRESS":"忠勇街３２巷８號","OBJECTID":271621},"geometry":{"x":171930.33000000194,"y":2544420.0900000036}},{"attributes":{"ID":271627,"DIS_CODE":0,"TOWNNAME":"永康區","LI":"中華里","LIN":"7鄰","STREET":"小東路","SECT":" ","MAREA":" ","LANE":"６４７巷","ALLEY":" ","HOUSE_NO":"１５號","E_COORD97":171934.32999999999,"N_COORD97":2544377.3500000001,"ADDRESS":"小東路６４７巷１５號","OBJECTID":271622},"geometry":{"x":171934.33000000101,"y":2544377.3500000034}},{"attributes":{"ID":271628,"DIS_CODE":0,"TOWNNAME":"永康區","LI":"中華里","LIN":"7鄰","STREET":"小東路","SECT":" ","MAREA":" ","LANE":"６４７巷","ALLEY":" ","HOUSE_NO":"２１號","E_COORD97":171934,"N_COORD97":2544398.98,"ADDRESS":"小東路６４７巷２１號","OBJECTID":271623},"geometry":{"x":171934,"y":2544398.9800000023}},{"attributes":{"ID":271629,"DIS_CODE":0,"TOWNNAME":"永康區","LI":"中華里","LIN":"7鄰","STREET":"忠勇街","SECT":" ","MAREA":" ","LANE":"３２巷","ALLEY":" ","HOUSE_NO":"６號","E_COORD97":171924.91,"N_COORD97":2544420.0899999999,"ADDRESS":"忠勇街３２巷６號","OBJECTID":271624},"geometry":{"x":171924.91000000201,"y":2544420.0900000036}},{"attributes":{"ID":271630,"DIS_CODE":0,"TOWNNAME":"永康區","LI":"中華里","LIN":"7鄰","STREET":"小東路","SECT":" ","MAREA":" ","LANE":"６４７巷","ALLEY":" ","HOUSE_NO":"５號","E_COORD97":171919,"N_COORD97":2544364.8300000001,"ADDRESS":"小東路６４７巷５號","OBJECTID":271625},"geometry":{"x":171919.00000000186,"y":2544364.8300000019}},{"attributes":{"ID":271631,"DIS_CODE":0,"TOWNNAME":"永康區","LI":"中華里","LIN":"7鄰","STREET":"小東路","SECT":" ","MAREA":" ","LANE":"６４７巷","ALLEY":" ","HOUSE_NO":"１９號","E_COORD97":171934,"N_COORD97":2544395.0800000001,"ADDRESS":"小東路６４７巷１９號","OBJECTID":271626},"geometry":{"x":171934,"y":2544395.0800000001}},{"attributes":{"ID":271632,"DIS_CODE":0,"TOWNNAME":"永康區","LI":"中華里","LIN":"7鄰","STREET":"小東路","SECT":" ","MAREA":" ","LANE":"６４７巷","ALLEY":" ","HOUSE_NO":"７號","E_COORD97":171914.84,"N_COORD97":2544364.9199999999,"ADDRESS":"小東路６４７巷７號","OBJECTID":271627},"geometry":{"x":171914.84000000171,"y":2544364.9200000018}},{"attributes":{"ID":271633,"DIS_CODE":0,"TOWNNAME":"永康區","LI":"中華里","LIN":"7鄰","STREET":"小東路","SECT":" ","MAREA":" ","LANE":"６４７巷","ALLEY":" ","HOUSE_NO":"１７號","E_COORD97":171934,"N_COORD97":2544391.3999999999,"ADDRESS":"小東路６４７巷１７號","OBJECTID":271628},"geometry":{"x":171934,"y":2544391.4000000041}},{"attributes":{"ID":271634,"DIS_CODE":0,"TOWNNAME":"永康區","LI":"三合里","LIN":"7鄰","STREET":"南工街","SECT":" ","MAREA":" ","LANE":"５５巷","ALLEY":" ","HOUSE_NO":"２號","E_COORD97":172078.63,"N_COORD97":2545623,"ADDRESS":"南工街５５巷２號","OBJECTID":271629},"geometry":{"x":172078.62999999989,"y":2545623}},{"attributes":{"ID":271635,"DIS_CODE":0,"TOWNNAME":"永康區","LI":"三合里","LIN":"7鄰","STREET":"南工街","SECT":" ","MAREA":" ","LANE":"７１巷","ALLEY":" ","HOUSE_NO":"８號","E_COORD97":172063.92999999999,"N_COORD97":2545658.4900000002,"ADDRESS":"南工街７１巷８號","OBJECTID":271630},"geometry":{"x":172063.93000000063,"y":2545658.4899999984}},{"attributes":{"ID":271636,"DIS_CODE":0,"TOWNNAME":"永康區","LI":"三民里","LIN":"7鄰","STREET":"三民街","SECT":" ","MAREA":" ","LANE":"１３６巷","ALLEY":" ","HOUSE_NO":"１２號","E_COORD97":172889.35999999999,"N_COORD97":2550426.5299999998,"ADDRESS":"三民街１３６巷１２號","OBJECTID":271631},"geometry":{"x":172889.36000000034,"y":2550426.5299999993}},{"attributes":{"ID":271637,"DIS_CODE":0,"TOWNNAME":"永康區","LI":"二王里","LIN":"7鄰","STREET":"中山南路","SECT":" ","MAREA":" ","LANE":"８１４巷","ALLEY":" ","HOUSE_NO":"８號","E_COORD97":172807.12,"N_COORD97":2546755.8900000001,"ADDRESS":"中山南路８１４巷８號","OBJECTID":271632},"geometry":{"x":172807.12000000104,"y":2546755.8900000025}},{"attributes":{"ID":271638,"DIS_CODE":0,"TOWNNAME":"中西區","LI":"西湖里","LIN":"7鄰","STREET":"民權路","SECT":"四段","MAREA":" ","LANE":"１１２巷","ALLEY":" ","HOUSE_NO":"６０號","E_COORD97":166276.03,"N_COORD97":2544673.79,"ADDRESS":"民權路四段１１２巷６０號","OBJECTID":271633},"geometry":{"x":166276.03000000119,"y":2544673.790000001}},{"attributes":{"ID":271639,"DIS_CODE":0,"TOWNNAME":"中西區","LI":"西湖里","LIN":"7鄰","STREET":"民權路","SECT":"四段","MAREA":" ","LANE":"１１２巷","ALLEY":" ","HOUSE_NO":"６號","E_COORD97":166281.62,"N_COORD97":2544522.8799999999,"ADDRESS":"民權路四段１１２巷６號","OBJECTID":271634},"geometry":{"x":166281.62000000011,"y":2544522.8800000008}},{"attributes":{"ID":271640,"DIS_CODE":0,"TOWNNAME":"安南區","LI":"溪頂里","LIN":"7鄰","STREET":"府安路","SECT":"四段","MAREA":" ","LANE":"１７６巷","ALLEY":" ","HOUSE_NO":"１８號","E_COORD97":168723.07999999999,"N_COORD97":2547307.2400000002,"ADDRESS":"府安路四段１７６巷１８號","OBJECTID":271635},"geometry":{"x":168723.08000000194,"y":2547307.2400000002}},{"attributes":{"ID":271641,"DIS_CODE":0,"TOWNNAME":"善化區","LI":"光文里","LIN":"7鄰","STREET":"光文路","SECT":" ","MAREA":" ","LANE":"３９巷","ALLEY":" ","HOUSE_NO":"１４號","E_COORD97":178969.20000000001,"N_COORD97":2559509.0299999998,"ADDRESS":"光文路３９巷１４號","OBJECTID":271636},"geometry":{"x":178969.20000000019,"y":2559509.0299999993}},{"attributes":{"ID":271642,"DIS_CODE":0,"TOWNNAME":"善化區","LI":"光文里","LIN":"7鄰","STREET":"光文路","SECT":" ","MAREA":" ","LANE":"２７巷","ALLEY":" ","HOUSE_NO":"３號","E_COORD97":178896.76000000001,"N_COORD97":2559477.7799999998,"ADDRESS":"光文路２７巷３號","OBJECTID":271637},"geometry":{"x":178896.76000000071,"y":2559477.7799999993}},{"attributes":{"ID":271643,"DIS_CODE":0,"TOWNNAME":"善化區","LI":"南關里","LIN":"7鄰","STREET":"三民路","SECT":" ","MAREA":" ","LANE":"南興巷","ALLEY":" ","HOUSE_NO":"２２號","E_COORD97":176919.35000000001,"N_COORD97":2558622.0099999998,"ADDRESS":"三民路南興巷２２號","OBJECTID":271638},"geometry":{"x":176919.35000000056,"y":2558622.0099999998}},{"attributes":{"ID":271644,"DIS_CODE":0,"TOWNNAME":"善化區","LI":"南關里","LIN":"7鄰","STREET":"三民路","SECT":" ","MAREA":" ","LANE":"六合巷","ALLEY":" ","HOUSE_NO":"２６號","E_COORD97":176960.73999999999,"N_COORD97":2558760.2599999998,"ADDRESS":"三民路六合巷２６號","OBJECTID":271639},"geometry":{"x":176960.74000000209,"y":2558760.2600000035}},{"attributes":{"ID":271645,"DIS_CODE":0,"TOWNNAME":"永康區","LI":"蔦松里","LIN":"7鄰","STREET":"蔦松一街","SECT":" ","MAREA":" ","LANE":"２２巷","ALLEY":" ","HOUSE_NO":"２１號","E_COORD97":174077.34,"N_COORD97":2549451.4199999999,"ADDRESS":"蔦松一街２２巷２１號","OBJECTID":271640},"geometry":{"x":174077.33999999985,"y":2549451.4199999999}},{"attributes":{"ID":271646,"DIS_CODE":0,"TOWNNAME":"永康區","LI":"神洲里","LIN":"3鄰","STREET":"忠孝路","SECT":" ","MAREA":" ","LANE":"３２巷","ALLEY":" ","HOUSE_NO":"１５號","E_COORD97":172152.39999999999,"N_COORD97":2544648.25,"ADDRESS":"忠孝路３２巷１５號","OBJECTID":271641},"geometry":{"x":172152.40000000224,"y":2544648.25}},{"attributes":{"ID":271647,"DIS_CODE":0,"TOWNNAME":"永康區","LI":"新樹里","LIN":"7鄰","STREET":"富強路","SECT":"二段","MAREA":" ","LANE":"５６巷","ALLEY":" ","HOUSE_NO":"３２號","E_COORD97":175808.10999999999,"N_COORD97":2546944.6000000001,"ADDRESS":"富強路二段５６巷３２號","OBJECTID":271642},"geometry":{"x":175808.11000000127,"y":2546944.5999999996}},{"attributes":{"ID":271648,"DIS_CODE":0,"TOWNNAME":"永康區","LI":"蔦松里","LIN":"7鄰","STREET":"蔦松一街","SECT":" ","MAREA":" ","LANE":"２２巷","ALLEY":" ","HOUSE_NO":"３３號","E_COORD97":174102.70999999999,"N_COORD97":2549440.5,"ADDRESS":"蔦松一街２２巷３３號","OBJECTID":271643},"geometry":{"x":174102.71000000183,"y":2549440.5}},{"attributes":{"ID":271649,"DIS_CODE":0,"TOWNNAME":"善化區","LI":"南關里","LIN":"7鄰","STREET":"三民路","SECT":" ","MAREA":" ","LANE":"南興巷","ALLEY":" ","HOUSE_NO":"１７號","E_COORD97":176926.84,"N_COORD97":2558605.2599999998,"ADDRESS":"三民路南興巷１７號","OBJECTID":271644},"geometry":{"x":176926.83999999985,"y":2558605.2600000016}},{"attributes":{"ID":271650,"DIS_CODE":0,"TOWNNAME":"善化區","LI":"南關里","LIN":"7鄰","STREET":"三民路","SECT":" ","MAREA":" ","LANE":"南興巷","ALLEY":" ","HOUSE_NO":"３２號","E_COORD97":176898.04000000001,"N_COORD97":2558623.0099999998,"ADDRESS":"三民路南興巷３２號","OBJECTID":271645},"geometry":{"x":176898.04000000097,"y":2558623.0100000035}},{"attributes":{"ID":271651,"DIS_CODE":0,"TOWNNAME":"安南區","LI":"海佃里","LIN":"7鄰","STREET":"國安街","SECT":" ","MAREA":" ","LANE":"５６巷","ALLEY":" ","HOUSE_NO":"３５號","E_COORD97":166958.84,"N_COORD97":2547131.3100000001,"ADDRESS":"國安街５６巷３５號","OBJECTID":271646},"geometry":{"x":166958.84000000078,"y":2547131.3100000005}},{"attributes":{"ID":271652,"DIS_CODE":0,"TOWNNAME":"安南區","LI":"海佃里","LIN":"7鄰","STREET":"國安街","SECT":" ","MAREA":" ","LANE":"５６巷","ALLEY":" ","HOUSE_NO":"３７號","E_COORD97":166959.5,"N_COORD97":2547137.2799999998,"ADDRESS":"國安街５６巷３７號","OBJECTID":271647},"geometry":{"x":166959.50000000093,"y":2547137.2800000031}},{"attributes":{"ID":271653,"DIS_CODE":0,"TOWNNAME":"安南區","LI":"海佃里","LIN":"7鄰","STREET":"國安街","SECT":" ","MAREA":" ","LANE":"５６巷","ALLEY":" ","HOUSE_NO":"３９號","E_COORD97":166960.82999999999,"N_COORD97":2547141.27,"ADDRESS":"國安街５６巷３９號","OBJECTID":271648},"geometry":{"x":166960.83000000101,"y":2547141.2700000033}},{"attributes":{"ID":271654,"DIS_CODE":0,"TOWNNAME":"安南區","LI":"公\u25A0里","LIN":"3鄰","STREET":"安興街","SECT":" ","MAREA":" ","LANE":" ","ALLEY":" ","HOUSE_NO":"７２號","E_COORD97":164263.81,"N_COORD97":2552235.6899999999,"ADDRESS":"安興街７２號","OBJECTID":271649},"geometry":{"x":164263.80999999959,"y":2552235.6899999995}},{"attributes":{"ID":271655,"DIS_CODE":0,"TOWNNAME":"山上區","LI":"南洲里","LIN":"3鄰","STREET":" ","SECT":" ","MAREA":"南洲","LANE":" ","ALLEY":" ","HOUSE_NO":"７０號","E_COORD97":183865.89000000001,"N_COORD97":2555723.25,"ADDRESS":"南洲７０號","OBJECTID":271650},"geometry":{"x":183865.8900000006,"y":2555723.2500000019}},{"attributes":{"ID":271656,"DIS_CODE":0,"TOWNNAME":"安南區","LI":"公\u25A0里","LIN":"3鄰","STREET":"安興街","SECT":" ","MAREA":" ","LANE":" ","ALLEY":" ","HOUSE_NO":"７４號","E_COORD97":164258.19,"N_COORD97":2552232.3900000001,"ADDRESS":"安興街７４號","OBJECTID":271651},"geometry":{"x":164258.19000000134,"y":2552232.3900000006}},{"attributes":{"ID":271657,"DIS_CODE":0,"TOWNNAME":"安南區","LI":"公\u25A0里","LIN":"3鄰","STREET":"安興街","SECT":" ","MAREA":" ","LANE":" ","ALLEY":" ","HOUSE_NO":"７６號","E_COORD97":164254.22,"N_COORD97":2552229.0899999999,"ADDRESS":"安興街７６號","OBJECTID":271652},"geometry":{"x":164254.21999999974,"y":2552229.0900000017}},{"attributes":{"ID":271658,"DIS_CODE":0,"TOWNNAME":"安南區","LI":"公\u25A0里","LIN":"3鄰","STREET":"安興街","SECT":" ","MAREA":" ","LANE":" ","ALLEY":" ","HOUSE_NO":"８１號","E_COORD97":164265.79000000001,"N_COORD97":2552205.3300000001,"ADDRESS":"安興街８１號","OBJECTID":271653},"geometry":{"x":164265.79000000097,"y":2552205.3300000001}},{"attributes":{"ID":271659,"DIS_CODE":0,"TOWNNAME":"安南區","LI":"公\u25A0里","LIN":"3鄰","STREET":"安興街","SECT":" ","MAREA":" ","LANE":" ","ALLEY":" ","HOUSE_NO":"８４號","E_COORD97":164242.98999999999,"N_COORD97":2552216.5499999998,"ADDRESS":"安興街８４號","OBJECTID":271654},"geometry":{"x":164242.99000000022,"y":2552216.5500000026}},{"attributes":{"ID":271660,"DIS_CODE":0,"TOWNNAME":"安南區","LI":"南興里","LIN":"3鄰","STREET":"安興街","SECT":" ","MAREA":" ","LANE":" ","ALLEY":" ","HOUSE_NO":"３９７號","E_COORD97":163663.60000000001,"N_COORD97":2552330.3599999999,"ADDRESS":"安興街３９７號","OBJECTID":271655},"geometry":{"x":163663.59999999963,"y":2552330.3599999994}},{"attributes":{"ID":271661,"DIS_CODE":0,"TOWNNAME":"新市區","LI":"永就里","LIN":"3鄰","STREET":" ","SECT":" ","MAREA":"永就","LANE":" ","ALLEY":" ","HOUSE_NO":"３０號","E_COORD97":178416.73000000001,"N_COORD97":2551406.25,"ADDRESS":"永就３０號","OBJECTID":271656},"geometry":{"x":178416.73000000045,"y":2551406.25}},{"attributes":{"ID":271662,"DIS_CODE":0,"TOWNNAME":"安南區","LI":"海佃里","LIN":"7鄰","STREET":"國安街","SECT":" ","MAREA":" ","LANE":"５６巷","ALLEY":" ","HOUSE_NO":"４１號","E_COORD97":166960.17000000001,"N_COORD97":2547145.2599999998,"ADDRESS":"國安街５６巷４１號","OBJECTID":271657},"geometry":{"x":166960.17000000086,"y":2547145.2600000016}},{"attributes":{"ID":271663,"DIS_CODE":0,"TOWNNAME":"山上區","LI":"明和里","LIN":"3鄰","STREET":" ","SECT":" ","MAREA":"明和","LANE":" ","ALLEY":" ","HOUSE_NO":"１２７號","E_COORD97":183141.34,"N_COORD97":2556252.25,"ADDRESS":"明和１２７號","OBJECTID":271658},"geometry":{"x":183141.33999999985,"y":2556252.2500000019}},{"attributes":{"ID":271664,"DIS_CODE":0,"TOWNNAME":"安南區","LI":"海佃里","LIN":"7鄰","STREET":"國安街","SECT":" ","MAREA":" ","LANE":"５６巷","ALLEY":" ","HOUSE_NO":"４３號","E_COORD97":166960.17000000001,"N_COORD97":2547151.23,"ADDRESS":"國安街５６巷４３號","OBJECTID":271659},"geometry":{"x":166960.17000000086,"y":2547151.2300000004}},{"attributes":{"ID":271665,"DIS_CODE":0,"TOWNNAME":"安南區","LI":"海佃里","LIN":"7鄰","STREET":"國安街","SECT":" ","MAREA":" ","LANE":"５６巷","ALLEY":" ","HOUSE_NO":"４５號","E_COORD97":166960.17000000001,"N_COORD97":2547155.2200000002,"ADDRESS":"國安街５６巷４５號","OBJECTID":271660},"geometry":{"x":166960.17000000086,"y":2547155.2200000007}},{"attributes":{"ID":271666,"DIS_CODE":0,"TOWNNAME":"安南區","LI":"海佃里","LIN":"7鄰","STREET":"國安街","SECT":" ","MAREA":" ","LANE":"５６巷","ALLEY":" ","HOUSE_NO":"４７號","E_COORD97":166958.84,"N_COORD97":2547159.8700000001,"ADDRESS":"國安街５６巷４７號","OBJECTID":271661},"geometry":{"x":166958.84000000078,"y":2547159.8700000029}},{"attributes":{"ID":271667,"DIS_CODE":0,"TOWNNAME":"安南區","LI":"海佃里","LIN":"7鄰","STREET":"國安街","SECT":" ","MAREA":" ","LANE":"５６巷","ALLEY":" ","HOUSE_NO":"５１號","E_COORD97":166955.51000000001,"N_COORD97":2547171.23,"ADDRESS":"國安街５６巷５１號","OBJECTID":271662},"geometry":{"x":166955.51000000071,"y":2547171.2300000004}},{"attributes":{"ID":271668,"DIS_CODE":0,"TOWNNAME":"安南區","LI":"海佃里","LIN":"7鄰","STREET":"國安街","SECT":" ","MAREA":" ","LANE":"５６巷","ALLEY":" ","HOUSE_NO":"５５號","E_COORD97":166954.17999999999,"N_COORD97":2547181.1899999999,"ADDRESS":"國安街５６巷５５號","OBJECTID":271663},"geometry":{"x":166954.18000000063,"y":2547181.1899999995}},{"attributes":{"ID":271669,"DIS_CODE":0,"TOWNNAME":"安南區","LI":"南興里","LIN":"3鄰","STREET":"安興街","SECT":" ","MAREA":" ","LANE":" ","ALLEY":" ","HOUSE_NO":"４２７號","E_COORD97":163573.57999999999,"N_COORD97":2552314.1200000001,"ADDRESS":"安興街４２７號","OBJECTID":271664},"geometry":{"x":163573.58000000101,"y":2552314.1200000048}},{"attributes":{"ID":271670,"DIS_CODE":0,"TOWNNAME":"山上區","LI":"明和里","LIN":"3鄰","STREET":" ","SECT":" ","MAREA":"明和","LANE":" ","ALLEY":" ","HOUSE_NO":"２７５之１號","E_COORD97":182660.94,"N_COORD97":2556901.2999999998,"ADDRESS":"明和２７５之１號","OBJECTID":271665},"geometry":{"x":182660.94000000134,"y":2556901.3000000026}},{"attributes":{"ID":271671,"DIS_CODE":0,"TOWNNAME":"山上區","LI":"南洲里","LIN":"3鄰","STREET":" ","SECT":" ","MAREA":"南洲","LANE":" ","ALLEY":" ","HOUSE_NO":"５７號","E_COORD97":183922.48999999999,"N_COORD97":2555703.25,"ADDRESS":"南洲５７號","OBJECTID":271666},"geometry":{"x":183922.49000000022,"y":2555703.2500000019}},{"attributes":{"ID":271672,"DIS_CODE":0,"TOWNNAME":"山上區","LI":"南洲里","LIN":"3鄰","STREET":" ","SECT":" ","MAREA":"南洲","LANE":" ","ALLEY":" ","HOUSE_NO":"５５號","E_COORD97":183937.79000000001,"N_COORD97":2555697.25,"ADDRESS":"南洲５５號","OBJECTID":271667},"geometry":{"x":183937.79000000097,"y":2555697.2500000019}},{"attributes":{"ID":271673,"DIS_CODE":0,"TOWNNAME":"山上區","LI":"平陽里","LIN":"3鄰","STREET":" ","SECT":" ","MAREA":"石子崎","LANE":" ","ALLEY":" ","HOUSE_NO":"３０號","E_COORD97":186615.72,"N_COORD97":2553921.25,"ADDRESS":"石子崎３０號","OBJECTID":271668},"geometry":{"x":186615.71999999974,"y":2553921.25}},{"attributes":{"ID":271674,"DIS_CODE":0,"TOWNNAME":"安南區","LI":"溪頂里","LIN":"7鄰","STREET":"府安路","SECT":"四段","MAREA":" ","LANE":"１６９巷","ALLEY":" ","HOUSE_NO":"１８號","E_COORD97":168759.82999999999,"N_COORD97":2547310.3199999998,"ADDRESS":"府安路四段１６９巷１８號","OBJECTID":271669},"geometry":{"x":168759.83000000007,"y":2547310.3200000003}},{"attributes":{"ID":271675,"DIS_CODE":0,"TOWNNAME":"安南區","LI":"幸福里","LIN":"7鄰","STREET":"國安街","SECT":" ","MAREA":" ","LANE":"１５５巷","ALLEY":" ","HOUSE_NO":"２２號","E_COORD97":166743.20000000001,"N_COORD97":2546888.79,"ADDRESS":"國安街１５５巷２２號","OBJECTID":271670},"geometry":{"x":166743.20000000112,"y":2546888.7899999991}},{"attributes":{"ID":271676,"DIS_CODE":0,"TOWNNAME":"安南區","LI":"幸福里","LIN":"7鄰","STREET":"國安街","SECT":" ","MAREA":" ","LANE":"１５５巷","ALLEY":" ","HOUSE_NO":"２４號","E_COORD97":166743.53,"N_COORD97":2546885.1000000001,"ADDRESS":"國安街１５５巷２４號","OBJECTID":271671},"geometry":{"x":166743.52999999933,"y":2546885.1000000015}},{"attributes":{"ID":271677,"DIS_CODE":0,"TOWNNAME":"安南區","LI":"幸福里","LIN":"7鄰","STREET":"國安街","SECT":" ","MAREA":" ","LANE":"１５５巷","ALLEY":" ","HOUSE_NO":"２６號","E_COORD97":166744.72,"N_COORD97":2546880.9700000002,"ADDRESS":"國安街１５５巷２６號","OBJECTID":271672},"geometry":{"x":166744.71999999974,"y":2546880.9700000025}},{"attributes":{"ID":271678,"DIS_CODE":0,"TOWNNAME":"山上區","LI":"新莊里","LIN":"3鄰","STREET":" ","SECT":" ","MAREA":"新庄","LANE":" ","ALLEY":" ","HOUSE_NO":"２５號","E_COORD97":184883.35999999999,"N_COORD97":2555346.25,"ADDRESS":"新庄２５號","OBJECTID":271673},"geometry":{"x":184883.3600000022,"y":2555346.2499999981}},{"attributes":{"ID":271679,"DIS_CODE":0,"TOWNNAME":"山上區","LI":"南洲里","LIN":"3鄰","STREET":" ","SECT":" ","MAREA":"南洲","LANE":" ","ALLEY":" ","HOUSE_NO":"５９號","E_COORD97":183915.19,"N_COORD97":2555705.25,"ADDRESS":"南洲５９號","OBJECTID":271674},"geometry":{"x":183915.19000000134,"y":2555705.25}},{"attributes":{"ID":271680,"DIS_CODE":0,"TOWNNAME":"山上區","LI":"明和里","LIN":"3鄰","STREET":" ","SECT":" ","MAREA":"明和","LANE":" ","ALLEY":" ","HOUSE_NO":"１０２號","E_COORD97":183155.73999999999,"N_COORD97":2556321.25,"ADDRESS":"明和１０２號","OBJECTID":271675},"geometry":{"x":183155.74000000115,"y":2556321.25}},{"attributes":{"ID":271681,"DIS_CODE":0,"TOWNNAME":"安南區","LI":"幸福里","LIN":"7鄰","STREET":"國安街","SECT":" ","MAREA":" ","LANE":"１５５巷","ALLEY":" ","HOUSE_NO":"２８號","E_COORD97":166745.04999999999,"N_COORD97":2546877.3799999999,"ADDRESS":"國安街１５５巷２８號","OBJECTID":271676},"geometry":{"x":166745.05000000075,"y":2546877.379999999}},{"attributes":{"ID":271682,"DIS_CODE":0,"TOWNNAME":"善化區","LI":"小新里","LIN":"3鄰","STREET":" ","SECT":" ","MAREA":"小新營","LANE":" ","ALLEY":" ","HOUSE_NO":"１７號","E_COORD97":179864.76000000001,"N_COORD97":2558286.5,"ADDRESS":"小新營１７號","OBJECTID":271677},"geometry":{"x":179864.76000000071,"y":2558286.5}},{"attributes":{"ID":271683,"DIS_CODE":0,"TOWNNAME":"安南區","LI":"幸福里","LIN":"7鄰","STREET":"國安街","SECT":" ","MAREA":" ","LANE":"１５５巷","ALLEY":" ","HOUSE_NO":"３０號","E_COORD97":166745.70000000001,"N_COORD97":2546873.6899999999,"ADDRESS":"國安街１５５巷３０號","OBJECTID":271678},"geometry":{"x":166745.69999999925,"y":2546873.6900000032}},{"attributes":{"ID":271684,"DIS_CODE":0,"TOWNNAME":"山上區","LI":"明和里","LIN":"3鄰","STREET":" ","SECT":" ","MAREA":"明和","LANE":" ","ALLEY":" ","HOUSE_NO":"１０４之１號","E_COORD97":183138.54000000001,"N_COORD97":2556281.2999999998,"ADDRESS":"明和１０４之１號","OBJECTID":271679},"geometry":{"x":183138.54000000004,"y":2556281.3000000007}},{"attributes":{"ID":271685,"DIS_CODE":0,"TOWNNAME":"山上區","LI":"明和里","LIN":"3鄰","STREET":" ","SECT":" ","MAREA":"明和","LANE":" ","ALLEY":" ","HOUSE_NO":"９６號","E_COORD97":183133.79000000001,"N_COORD97":2556358.25,"ADDRESS":"明和９６號","OBJECTID":271680},"geometry":{"x":183133.79000000004,"y":2556358.2500000019}},{"attributes":{"ID":271686,"DIS_CODE":0,"TOWNNAME":"山上區","LI":"玉\u25A0里","LIN":"3鄰","STREET":" ","SECT":" ","MAREA":"蚵\u25A0潭","LANE":" ","ALLEY":" ","HOUSE_NO":"２５之１號","E_COORD97":187437.22,"N_COORD97":2555740.2999999998,"ADDRESS":"蚵\u25A0潭２５之１號","OBJECTID":271681},"geometry":{"x":187437.22000000067,"y":2555740.3000000045}},{"attributes":{"ID":271687,"DIS_CODE":0,"TOWNNAME":"新市區","LI":"社內里","LIN":"3鄰","STREET":" ","SECT":" ","MAREA":"社內","LANE":" ","ALLEY":" ","HOUSE_NO":"３７之２１９號","E_COORD97":176635.04000000001,"N_COORD97":2552182.79,"ADDRESS":"社內３７之２１９號","OBJECTID":271682},"geometry":{"x":176635.04000000097,"y":2552182.790000001}},{"attributes":{"ID":271688,"DIS_CODE":0,"TOWNNAME":"新市區","LI":"大營里","LIN":"18鄰","STREET":" ","SECT":" ","MAREA":"豐榮","LANE":" ","ALLEY":" ","HOUSE_NO":"２７之１３號","E_COORD97":178832.01999999999,"N_COORD97":2554340.54,"ADDRESS":"豐榮２７之１３號","OBJECTID":271683},"geometry":{"x":178832.02000000048,"y":2554340.540000001}},{"attributes":{"ID":271689,"DIS_CODE":0,"TOWNNAME":"安南區","LI":"幸福里","LIN":"7鄰","STREET":"國安街","SECT":" ","MAREA":" ","LANE":"１５５巷","ALLEY":" ","HOUSE_NO":"３２號","E_COORD97":166746.57000000001,"N_COORD97":2546870.0899999999,"ADDRESS":"國安街１５５巷３２號","OBJECTID":271684},"geometry":{"x":166746.5700000003,"y":2546870.0899999999}},{"attributes":{"ID":271690,"DIS_CODE":0,"TOWNNAME":"新市區","LI":"大營里","LIN":"18鄰","STREET":" ","SECT":" ","MAREA":"豐榮","LANE":" ","ALLEY":" ","HOUSE_NO":"２７之１５號","E_COORD97":178835.17000000001,"N_COORD97":2554336.8599999999,"ADDRESS":"豐榮２７之１５號","OBJECTID":271685},"geometry":{"x":178835.16999999993,"y":2554336.8599999994}},{"attributes":{"ID":271691,"DIS_CODE":0,"TOWNNAME":"新市區","LI":"大營里","LIN":"18鄰","STREET":" ","SECT":" ","MAREA":"豐榮","LANE":" ","ALLEY":" ","HOUSE_NO":"２７之１６號","E_COORD97":178839.75,"N_COORD97":2554333.27,"ADDRESS":"豐榮２７之１６號","OBJECTID":271686},"geometry":{"x":178839.75,"y":2554333.2700000014}},{"attributes":{"ID":271692,"DIS_CODE":0,"TOWNNAME":"新市區","LI":"大營里","LIN":"18鄰","STREET":" ","SECT":" ","MAREA":"豐榮","LANE":" ","ALLEY":" ","HOUSE_NO":"２７之１８號","E_COORD97":178842.26000000001,"N_COORD97":2554319.2000000002,"ADDRESS":"豐榮２７之１８號","OBJECTID":271687},"geometry":{"x":178842.26000000071,"y":2554319.2000000011}},{"attributes":{"ID":271693,"DIS_CODE":0,"TOWNNAME":"善化區","LI":"光文里","LIN":"3鄰","STREET":" ","SECT":" ","MAREA":"北子店","LANE":"１２４巷","ALLEY":" ","HOUSE_NO":"８號","E_COORD97":179503.63,"N_COORD97":2559617.75,"ADDRESS":"北子店１２４巷８號","OBJECTID":271688},"geometry":{"x":179503.62999999989,"y":2559617.75}},{"attributes":{"ID":271694,"DIS_CODE":0,"TOWNNAME":"新市區","LI":"大營里","LIN":"18鄰","STREET":" ","SECT":" ","MAREA":"豐榮","LANE":" ","ALLEY":" ","HOUSE_NO":"２７之１７號","E_COORD97":178849.26000000001,"N_COORD97":2554324.23,"ADDRESS":"豐榮２７之１７號","OBJECTID":271689},"geometry":{"x":178849.26000000071,"y":2554324.2300000023}},{"attributes":{"ID":271695,"DIS_CODE":0,"TOWNNAME":"新市區","LI":"大營里","LIN":"18鄰","STREET":" ","SECT":" ","MAREA":"豐榮","LANE":" ","ALLEY":" ","HOUSE_NO":"２７之７號","E_COORD97":178860.54000000001,"N_COORD97":2554333.2200000002,"ADDRESS":"豐榮２７之７號","OBJECTID":271690},"geometry":{"x":178860.5400000019,"y":2554333.2200000007}},{"attributes":{"ID":271696,"DIS_CODE":0,"TOWNNAME":"新市區","LI":"大營里","LIN":"18鄰","STREET":" ","SECT":" ","MAREA":"豐榮","LANE":" ","ALLEY":" ","HOUSE_NO":"２８號","E_COORD97":178872.14999999999,"N_COORD97":2554379.3500000001,"ADDRESS":"豐榮２８號","OBJECTID":271691},"geometry":{"x":178872.15000000224,"y":2554379.3500000034}},{"attributes":{"ID":271697,"DIS_CODE":0,"TOWNNAME":"新市區","LI":"豐華里","LIN":"7鄰","STREET":" ","SECT":" ","MAREA":"豐華","LANE":" ","ALLEY":" ","HOUSE_NO":"５８之２號","E_COORD97":174883.17000000001,"N_COORD97":2553890.9100000001,"ADDRESS":"豐華５８之２號","OBJECTID":271692},"geometry":{"x":174883.17000000086,"y":2553890.9100000039}},{"attributes":{"ID":271698,"DIS_CODE":0,"TOWNNAME":"新市區","LI":"大社里","LIN":"30鄰","STREET":" ","SECT":" ","MAREA":"大社","LANE":" ","ALLEY":" ","HOUSE_NO":"１００３號","E_COORD97":180301.41,"N_COORD97":2553421.9500000002,"ADDRESS":"大社１００３號","OBJECTID":271693},"geometry":{"x":180301.41000000108,"y":2553421.950000003}},{"attributes":{"ID":271699,"DIS_CODE":0,"TOWNNAME":"新市區","LI":"大洲里","LIN":"10鄰","STREET":" ","SECT":" ","MAREA":"大洲","LANE":" ","ALLEY":" ","HOUSE_NO":"９７之３號","E_COORD97":174398.92999999999,"N_COORD97":2551443.54,"ADDRESS":"大洲９７之３號","OBJECTID":271694},"geometry":{"x":174398.9299999997,"y":2551443.5399999991}},{"attributes":{"ID":271700,"DIS_CODE":0,"TOWNNAME":"新市區","LI":"永就里","LIN":"4鄰","STREET":" ","SECT":" ","MAREA":"永就","LANE":" ","ALLEY":" ","HOUSE_NO":"４５之３０號","E_COORD97":178903.72,"N_COORD97":2551936.3799999999,"ADDRESS":"永就４５之３０號","OBJECTID":271695},"geometry":{"x":178903.72000000067,"y":2551936.379999999}},{"attributes":{"ID":271701,"DIS_CODE":0,"TOWNNAME":"安南區","LI":"幸福里","LIN":"7鄰","STREET":"國安街","SECT":" ","MAREA":" ","LANE":"１５５巷","ALLEY":" ","HOUSE_NO":"３８號","E_COORD97":166748.95999999999,"N_COORD97":2546856.3599999999,"ADDRESS":"國安街１５５巷３８號","OBJECTID":271696},"geometry":{"x":166748.96000000183,"y":2546856.3600000013}},{"attributes":{"ID":271702,"DIS_CODE":0,"TOWNNAME":"安南區","LI":"幸福里","LIN":"7鄰","STREET":"國安街","SECT":" ","MAREA":" ","LANE":"１５５巷","ALLEY":" ","HOUSE_NO":"４２號","E_COORD97":166749.01999999999,"N_COORD97":2546841.5600000001,"ADDRESS":"國安街１５５巷４２號","OBJECTID":271697},"geometry":{"x":166749.01999999955,"y":2546841.5599999987}},{"attributes":{"ID":271703,"DIS_CODE":0,"TOWNNAME":"安南區","LI":"幸福里","LIN":"7鄰","STREET":"國安街","SECT":" ","MAREA":" ","LANE":"１５５巷","ALLEY":" ","HOUSE_NO":"５０號","E_COORD97":166752.97,"N_COORD97":2546820.9100000001,"ADDRESS":"國安街１５５巷５０號","OBJECTID":271698},"geometry":{"x":166752.96999999974,"y":2546820.9100000001}},{"attributes":{"ID":271704,"DIS_CODE":0,"TOWNNAME":"善化區","LI":"光文里","LIN":"3鄰","STREET":" ","SECT":" ","MAREA":"北子店","LANE":"１１６巷","ALLEY":" ","HOUSE_NO":"２號","E_COORD97":179545.79999999999,"N_COORD97":2559630.25,"ADDRESS":"北子店１１６巷２號","OBJECTID":271699},"geometry":{"x":179545.80000000075,"y":2559630.25}},{"attributes":{"ID":271705,"DIS_CODE":0,"TOWNNAME":"善化區","LI":"光文里","LIN":"3鄰","STREET":" ","SECT":" ","MAREA":"北子店","LANE":"１１６巷","ALLEY":" ","HOUSE_NO":"１６號","E_COORD97":179483.76000000001,"N_COORD97":2559539.75,"ADDRESS":"北子店１１６巷１６號","OBJECTID":271700},"geometry":{"x":179483.75999999978,"y":2559539.75}},{"attributes":{"ID":271706,"DIS_CODE":0,"TOWNNAME":"善化區","LI":"嘉北里","LIN":"3鄰","STREET":" ","SECT":" ","MAREA":"茄拔","LANE":" ","ALLEY":" ","HOUSE_NO":"２８號之４","E_COORD97":181088.34,"N_COORD97":2559808.52,"ADDRESS":"茄拔２８號之４","OBJECTID":271701},"geometry":{"x":181088.34000000078,"y":2559808.5199999996}},{"attributes":{"ID":271707,"DIS_CODE":0,"TOWNNAME":"善化區","LI":"嘉北里","LIN":"3鄰","STREET":" ","SECT":" ","MAREA":"茄拔","LANE":" ","ALLEY":" ","HOUSE_NO":"２７號之１","E_COORD97":181137.95999999999,"N_COORD97":2559802.52,"ADDRESS":"茄拔２７號之１","OBJECTID":271702},"geometry":{"x":181137.96000000089,"y":2559802.5200000033}},{"attributes":{"ID":271708,"DIS_CODE":0,"TOWNNAME":"善化區","LI":"胡家里","LIN":"3鄰","STREET":" ","SECT":" ","MAREA":"胡厝寮","LANE":" ","ALLEY":" ","HOUSE_NO":"５７７號","E_COORD97":175928.91,"N_COORD97":2559920.5,"ADDRESS":"胡厝寮５７７號","OBJECTID":271703},"geometry":{"x":175928.91000000201,"y":2559920.5}},{"attributes":{"ID":271709,"DIS_CODE":0,"TOWNNAME":"善化區","LI":"胡厝里","LIN":"3鄰","STREET":" ","SECT":" ","MAREA":"胡厝寮","LANE":" ","ALLEY":" ","HOUSE_NO":"１８９之２號","E_COORD97":175184.92999999999,"N_COORD97":2560446.02,"ADDRESS":"胡厝寮１８９之２號","OBJECTID":271704},"geometry":{"x":175184.9299999997,"y":2560446.0199999996}},{"attributes":{"ID":271710,"DIS_CODE":0,"TOWNNAME":"新市區","LI":"社內里","LIN":"9鄰","STREET":" ","SECT":" ","MAREA":"社內","LANE":" ","ALLEY":" ","HOUSE_NO":"９１之２３號","E_COORD97":176394.14000000001,"N_COORD97":2553007.9199999999,"ADDRESS":"社內９１之２３號","OBJECTID":271705},"geometry":{"x":176394.13999999966,"y":2553007.9199999999}},{"attributes":{"ID":271711,"DIS_CODE":0,"TOWNNAME":"安南區","LI":"幸福里","LIN":"7鄰","STREET":"國安街","SECT":" ","MAREA":" ","LANE":"１５５巷","ALLEY":" ","HOUSE_NO":"５２號","E_COORD97":166753.59,"N_COORD97":2546815.98,"ADDRESS":"國安街１５５巷５２號","OBJECTID":271706},"geometry":{"x":166753.59000000078,"y":2546815.9800000023}},{"attributes":{"ID":271712,"DIS_CODE":0,"TOWNNAME":"善化區","LI":"胡家里","LIN":"3鄰","STREET":" ","SECT":" ","MAREA":"胡厝寮","LANE":" ","ALLEY":" ","HOUSE_NO":"４２５號","E_COORD97":175732.64000000001,"N_COORD97":2560179,"ADDRESS":"胡厝寮４２５號","OBJECTID":271707},"geometry":{"x":175732.6400000006,"y":2560179}},{"attributes":{"ID":271713,"DIS_CODE":0,"TOWNNAME":"安南區","LI":"幸福里","LIN":"7鄰","STREET":"國安街","SECT":" ","MAREA":" ","LANE":"１５５巷","ALLEY":" ","HOUSE_NO":"５８號","E_COORD97":166756.31,"N_COORD97":2546800.7000000002,"ADDRESS":"國安街１５５巷５８號","OBJECTID":271708},"geometry":{"x":166756.31000000145,"y":2546800.6999999993}},{"attributes":{"ID":271714,"DIS_CODE":0,"TOWNNAME":"安南區","LI":"幸福里","LIN":"7鄰","STREET":"國安街","SECT":" ","MAREA":" ","LANE":"１５５巷","ALLEY":" ","HOUSE_NO":"６０號","E_COORD97":166756.92000000001,"N_COORD97":2546796.2599999998,"ADDRESS":"國安街１５５巷６０號","OBJECTID":271709},"geometry":{"x":166756.91999999993,"y":2546796.2600000016}},{"attributes":{"ID":271715,"DIS_CODE":0,"TOWNNAME":"善化區","LI":"胡家里","LIN":"3鄰","STREET":" ","SECT":" ","MAREA":"胡厝寮","LANE":" ","ALLEY":" ","HOUSE_NO":"４１６號之１","E_COORD97":175669.01999999999,"N_COORD97":2560284.77,"ADDRESS":"胡厝寮４１６號之１","OBJECTID":271710},"geometry":{"x":175669.01999999955,"y":2560284.7699999996}},{"attributes":{"ID":271716,"DIS_CODE":0,"TOWNNAME":"善化區","LI":"小新里","LIN":"3鄰","STREET":" ","SECT":" ","MAREA":"小新營","LANE":" ","ALLEY":" ","HOUSE_NO":"２０號之１","E_COORD97":179824,"N_COORD97":2558276.27,"ADDRESS":"小新營２０號之１","OBJECTID":271711},"geometry":{"x":179824.00000000093,"y":2558276.2700000014}},{"attributes":{"ID":271717,"DIS_CODE":0,"TOWNNAME":"善化區","LI":"六分里","LIN":"3鄰","STREET":" ","SECT":" ","MAREA":"東勢宅","LANE":" ","ALLEY":" ","HOUSE_NO":"１之２號","E_COORD97":178017.70999999999,"N_COORD97":2561272.52,"ADDRESS":"東勢宅１之２號","OBJECTID":271712},"geometry":{"x":178017.70999999996,"y":2561272.5199999996}},{"attributes":{"ID":271718,"DIS_CODE":0,"TOWNNAME":"善化區","LI":"田寮里","LIN":"3鄰","STREET":" ","SECT":" ","MAREA":"六分寮","LANE":" ","ALLEY":" ","HOUSE_NO":"３５號","E_COORD97":178345.76999999999,"N_COORD97":2561260.25,"ADDRESS":"六分寮３５號","OBJECTID":271713},"geometry":{"x":178345.76999999955,"y":2561260.2500000019}},{"attributes":{"ID":271719,"DIS_CODE":0,"TOWNNAME":"善化區","LI":"六德里","LIN":"3鄰","STREET":" ","SECT":" ","MAREA":"六分寮","LANE":" ","ALLEY":" ","HOUSE_NO":"２１６號之１","E_COORD97":178614.62,"N_COORD97":2561715.27,"ADDRESS":"六分寮２１６號之１","OBJECTID":271714},"geometry":{"x":178614.62000000104,"y":2561715.2699999996}},{"attributes":{"ID":271720,"DIS_CODE":0,"TOWNNAME":"永康區","LI":"三合里","LIN":"7鄰","STREET":"南工街","SECT":" ","MAREA":" ","LANE":"１０３巷","ALLEY":" ","HOUSE_NO":"９號","E_COORD97":172062.35000000001,"N_COORD97":2545713.6200000001,"ADDRESS":"南工街１０３巷９號","OBJECTID":271715},"geometry":{"x":172062.35000000056,"y":2545713.6200000029}},{"attributes":{"ID":271721,"DIS_CODE":0,"TOWNNAME":"仁德區","LI":"中生里","LIN":"3鄰","STREET":" ","SECT":" ","MAREA":"中洲","LANE":" ","ALLEY":" ","HOUSE_NO":"９３號之２２","E_COORD97":173022.78,"N_COORD97":2534415.5499999998,"ADDRESS":"中洲９３號之２２","OBJECTID":271716},"geometry":{"x":173022.78000000119,"y":2534415.5500000007}},{"attributes":{"ID":271722,"DIS_CODE":0,"TOWNNAME":"永康區","LI":"三民里","LIN":"7鄰","STREET":"三民街","SECT":" ","MAREA":" ","LANE":"１３６巷","ALLEY":" ","HOUSE_NO":"２號","E_COORD97":172858.97,"N_COORD97":2550397.5299999998,"ADDRESS":"三民街１３６巷２號","OBJECTID":271717},"geometry":{"x":172858.96999999974,"y":2550397.5300000012}},{"attributes":{"ID":271723,"DIS_CODE":0,"TOWNNAME":"仁德區","LI":"三甲里","LIN":"3鄰","STREET":" ","SECT":" ","MAREA":"三甲子","LANE":" ","ALLEY":" ","HOUSE_NO":"２９號","E_COORD97":171820.39000000001,"N_COORD97":2536847.7400000002,"ADDRESS":"三甲子２９號","OBJECTID":271718},"geometry":{"x":171820.38999999966,"y":2536847.7400000002}},{"attributes":{"ID":271724,"DIS_CODE":0,"TOWNNAME":"永康區","LI":"三民里","LIN":"7鄰","STREET":"三民街","SECT":" ","MAREA":" ","LANE":"１３６巷","ALLEY":" ","HOUSE_NO":"１號","E_COORD97":172811.09,"N_COORD97":2550411.77,"ADDRESS":"三民街１３６巷１號","OBJECTID":271719},"geometry":{"x":172811.08999999985,"y":2550411.7699999996}},{"attributes":{"ID":271725,"DIS_CODE":0,"TOWNNAME":"永康區","LI":"三民里","LIN":"7鄰","STREET":"三民街","SECT":" ","MAREA":" ","LANE":"１３６巷","ALLEY":" ","HOUSE_NO":"１１號","E_COORD97":172784.73000000001,"N_COORD97":2550417.0699999998,"ADDRESS":"三民街１３６巷１１號","OBJECTID":271720},"geometry":{"x":172784.73000000138,"y":2550417.0700000003}},{"attributes":{"ID":271726,"DIS_CODE":0,"TOWNNAME":"新市區","LI":"港墘里","LIN":"7鄰","STREET":" ","SECT":" ","MAREA":"店頂","LANE":" ","ALLEY":" ","HOUSE_NO":"１３號","E_COORD97":179122.19,"N_COORD97":2553193.5899999999,"ADDRESS":"店頂１３號","OBJECTID":271721},"geometry":{"x":179122.19000000041,"y":2553193.5899999999}},{"attributes":{"ID":271727,"DIS_CODE":0,"TOWNNAME":"新市區","LI":"大營里","LIN":"15鄰","STREET":" ","SECT":" ","MAREA":"大營","LANE":" ","ALLEY":" ","HOUSE_NO":"２８７之３００號","E_COORD97":178498.70000000001,"N_COORD97":2556309.7999999998,"ADDRESS":"大營２８７之３００號","OBJECTID":271722},"geometry":{"x":178498.70000000112,"y":2556309.8000000045}},{"attributes":{"ID":271728,"DIS_CODE":0,"TOWNNAME":"永康區","LI":"三合里","LIN":"7鄰","STREET":"南工街","SECT":" ","MAREA":" ","LANE":"５５巷","ALLEY":" ","HOUSE_NO":"４號","E_COORD97":172074.88,"N_COORD97":2545623.5,"ADDRESS":"南工街５５巷４號","OBJECTID":271723},"geometry":{"x":172074.87999999989,"y":2545623.5}},{"attributes":{"ID":271729,"DIS_CODE":0,"TOWNNAME":"新市區","LI":"社內里","LIN":"15鄰","STREET":" ","SECT":" ","MAREA":"社內","LANE":" ","ALLEY":" ","HOUSE_NO":"１５３之１７號","E_COORD97":176272.10000000001,"N_COORD97":2553084.8399999999,"ADDRESS":"社內１５３之１７號","OBJECTID":271724},"geometry":{"x":176272.09999999963,"y":2553084.8400000017}},{"attributes":{"ID":271730,"DIS_CODE":0,"TOWNNAME":"新市區","LI":"社內里","LIN":"15鄰","STREET":" ","SECT":" ","MAREA":"社內","LANE":" ","ALLEY":" ","HOUSE_NO":"１５３之１６號","E_COORD97":176265.79000000001,"N_COORD97":2553082.6000000001,"ADDRESS":"社內１５３之１６號","OBJECTID":271725},"geometry":{"x":176265.79000000097,"y":2553082.6000000015}},{"attributes":{"ID":271731,"DIS_CODE":0,"TOWNNAME":"新市區","LI":"社內里","LIN":"15鄰","STREET":" ","SECT":" ","MAREA":"社內","LANE":" ","ALLEY":" ","HOUSE_NO":"１５３之１５號","E_COORD97":176260.22,"N_COORD97":2553082.8999999999,"ADDRESS":"社內１５３之１５號","OBJECTID":271726},"geometry":{"x":176260.21999999881,"y":2553082.9000000004}},{"attributes":{"ID":271732,"DIS_CODE":0,"TOWNNAME":"新市區","LI":"社內里","LIN":"15鄰","STREET":" ","SECT":" ","MAREA":"社內","LANE":" ","ALLEY":" ","HOUSE_NO":"１５３之１３號","E_COORD97":176253.72,"N_COORD97":2553084.6600000001,"ADDRESS":"社內１５３之１３號","OBJECTID":271727},"geometry":{"x":176253.72000000067,"y":2553084.6600000001}},{"attributes":{"ID":271733,"DIS_CODE":0,"TOWNNAME":"新市區","LI":"社內里","LIN":"15鄰","STREET":" ","SECT":" ","MAREA":"社內","LANE":" ","ALLEY":" ","HOUSE_NO":"１５３之１９號","E_COORD97":176256.72,"N_COORD97":2553102.23,"ADDRESS":"社內１５３之１９號","OBJECTID":271728},"geometry":{"x":176256.71999999974,"y":2553102.2300000004}},{"attributes":{"ID":271734,"DIS_CODE":0,"TOWNNAME":"新市區","LI":"社內里","LIN":"15鄰","STREET":" ","SECT":" ","MAREA":"社內","LANE":" ","ALLEY":" ","HOUSE_NO":"１５３之１８號","E_COORD97":176258.89000000001,"N_COORD97":2553096.1400000001,"ADDRESS":"社內１５３之１８號","OBJECTID":271729},"geometry":{"x":176258.88999999966,"y":2553096.1400000006}},{"attributes":{"ID":271735,"DIS_CODE":0,"TOWNNAME":"仁德區","LI":"中生里","LIN":"3鄰","STREET":" ","SECT":" ","MAREA":"中洲","LANE":" ","ALLEY":" ","HOUSE_NO":"９３號之２６","E_COORD97":173050.82999999999,"N_COORD97":2534419.2999999998,"ADDRESS":"中洲９３號之２６","OBJECTID":271730},"geometry":{"x":173050.82999999914,"y":2534419.3000000026}},{"attributes":{"ID":271736,"DIS_CODE":0,"TOWNNAME":"永康區","LI":"二王里","LIN":"7鄰","STREET":"中山南路","SECT":" ","MAREA":" ","LANE":"８１４巷","ALLEY":" ","HOUSE_NO":"２０號","E_COORD97":172811.48000000001,"N_COORD97":2546700.3199999998,"ADDRESS":"中山南路８１４巷２０號","OBJECTID":271731},"geometry":{"x":172811.48000000138,"y":2546700.3200000003}},{"attributes":{"ID":271737,"DIS_CODE":0,"TOWNNAME":"永康區","LI":"二王里","LIN":"7鄰","STREET":"中山南路","SECT":" ","MAREA":" ","LANE":"８１４巷","ALLEY":" ","HOUSE_NO":"１８號之１","E_COORD97":172811.91,"N_COORD97":2546706,"ADDRESS":"中山南路８１４巷１８號之１","OBJECTID":271732},"geometry":{"x":172811.91000000108,"y":2546706.0000000037}},{"attributes":{"ID":271738,"DIS_CODE":0,"TOWNNAME":"仁德區","LI":"三甲里","LIN":"3鄰","STREET":" ","SECT":" ","MAREA":"三甲子","LANE":" ","ALLEY":" ","HOUSE_NO":"２３之２號","E_COORD97":171755.51000000001,"N_COORD97":2536898.2999999998,"ADDRESS":"三甲子２３之２號","OBJECTID":271733},"geometry":{"x":171755.50999999978,"y":2536898.3000000007}},{"attributes":{"ID":271739,"DIS_CODE":0,"TOWNNAME":"仁德區","LI":"一甲里","LIN":"3鄰","STREET":"正義三街","SECT":" ","MAREA":" ","LANE":" ","ALLEY":" ","HOUSE_NO":"７號","E_COORD97":173433.45000000001,"N_COORD97":2541620.7599999998,"ADDRESS":"正義三街７號","OBJECTID":271734},"geometry":{"x":173433.45000000205,"y":2541620.7599999998}},{"attributes":{"ID":271740,"DIS_CODE":0,"TOWNNAME":"新市區","LI":"大營里","LIN":"12鄰","STREET":" ","SECT":" ","MAREA":" ","LANE":"蓮潭南一巷","ALLEY":"１弄","HOUSE_NO":"２號","E_COORD97":178940.92000000001,"N_COORD97":2556706.0899999999,"ADDRESS":"蓮潭南一巷１弄２號","OBJECTID":271735},"geometry":{"x":178940.92000000179,"y":2556706.0899999999}},{"attributes":{"ID":271741,"DIS_CODE":0,"TOWNNAME":"新市區","LI":"大營里","LIN":"12鄰","STREET":" ","SECT":" ","MAREA":" ","LANE":"蓮潭南一巷","ALLEY":"１５弄","HOUSE_NO":"１號","E_COORD97":178947.14000000001,"N_COORD97":2556692.27,"ADDRESS":"蓮潭南一巷１５弄１號","OBJECTID":271736},"geometry":{"x":178947.13999999966,"y":2556692.2700000014}},{"attributes":{"ID":271742,"DIS_CODE":0,"TOWNNAME":"新市區","LI":"大營里","LIN":"12鄰","STREET":" ","SECT":" ","MAREA":" ","LANE":"蓮潭南一巷","ALLEY":"１５弄","HOUSE_NO":"３號","E_COORD97":178950.60000000001,"N_COORD97":2556697.3799999999,"ADDRESS":"蓮潭南一巷１５弄３號","OBJECTID":271737},"geometry":{"x":178950.59999999963,"y":2556697.3800000027}},{"attributes":{"ID":271743,"DIS_CODE":0,"TOWNNAME":"新市區","LI":"大營里","LIN":"12鄰","STREET":" ","SECT":" ","MAREA":" ","LANE":"蓮潭南一巷","ALLEY":"１５弄","HOUSE_NO":"５號","E_COORD97":178955.07999999999,"N_COORD97":2556699.9500000002,"ADDRESS":"蓮潭南一巷１５弄５號","OBJECTID":271738},"geometry":{"x":178955.08000000007,"y":2556699.9499999993}},{"attributes":{"ID":271744,"DIS_CODE":0,"TOWNNAME":"新市區","LI":"大營里","LIN":"12鄰","STREET":" ","SECT":" ","MAREA":" ","LANE":"蓮潭南一巷","ALLEY":"１５弄","HOUSE_NO":"７號","E_COORD97":178959.56,"N_COORD97":2556702.5299999998,"ADDRESS":"蓮潭南一巷１５弄７號","OBJECTID":271739},"geometry":{"x":178959.55999999959,"y":2556702.5299999993}},{"attributes":{"ID":271745,"DIS_CODE":0,"TOWNNAME":"新市區","LI":"大營里","LIN":"12鄰","STREET":" ","SECT":" ","MAREA":" ","LANE":"蓮潭南一巷","ALLEY":"１５弄","HOUSE_NO":"９號","E_COORD97":178964.04000000001,"N_COORD97":2556705.1000000001,"ADDRESS":"蓮潭南一巷１５弄９號","OBJECTID":271740},"geometry":{"x":178964.0400000019,"y":2556705.0999999996}},{"attributes":{"ID":271746,"DIS_CODE":0,"TOWNNAME":"新市區","LI":"大營里","LIN":"12鄰","STREET":" ","SECT":" ","MAREA":" ","LANE":"蓮潭南一巷","ALLEY":"１５弄","HOUSE_NO":"１１號","E_COORD97":178968.69,"N_COORD97":2556706.3799999999,"ADDRESS":"蓮潭南一巷１５弄１１號","OBJECTID":271741},"geometry":{"x":178968.69000000134,"y":2556706.379999999}},{"attributes":{"ID":271747,"DIS_CODE":0,"TOWNNAME":"新市區","LI":"大營里","LIN":"12鄰","STREET":" ","SECT":" ","MAREA":" ","LANE":"蓮潭南一巷","ALLEY":"１５弄","HOUSE_NO":"１３號","E_COORD97":178972.85000000001,"N_COORD97":2556710.1400000001,"ADDRESS":"蓮潭南一巷１５弄１３號","OBJECTID":271742},"geometry":{"x":178972.84999999963,"y":2556710.1400000006}},{"attributes":{"ID":271748,"DIS_CODE":0,"TOWNNAME":"善化區","LI":"文昌里","LIN":"15鄰","STREET":"永福路","SECT":" ","MAREA":" ","LANE":" ","ALLEY":" ","HOUSE_NO":"９號","E_COORD97":177621.69,"N_COORD97":2558901.5,"ADDRESS":"永福路９號","OBJECTID":271743},"geometry":{"x":177621.69000000041,"y":2558901.5000000037}},{"attributes":{"ID":271749,"DIS_CODE":0,"TOWNNAME":"仁德區","LI":"二行里","LIN":"3鄰","STREET":"中正西路","SECT":" ","MAREA":" ","LANE":" ","ALLEY":" ","HOUSE_NO":"１６號","E_COORD97":170453.04000000001,"N_COORD97":2535455,"ADDRESS":"中正西路１６號","OBJECTID":271744},"geometry":{"x":170453.04000000097,"y":2535455.0000000019}},{"attributes":{"ID":271750,"DIS_CODE":0,"TOWNNAME":"仁德區","LI":"二行里","LIN":"3鄰","STREET":"二行一路","SECT":" ","MAREA":" ","LANE":" ","ALLEY":" ","HOUSE_NO":"１３１號","E_COORD97":170491.42999999999,"N_COORD97":2535488.4900000002,"ADDRESS":"二行一路１３１號","OBJECTID":271745},"geometry":{"x":170491.4299999997,"y":2535488.4900000021}},{"attributes":{"ID":271751,"DIS_CODE":0,"TOWNNAME":"東區","LI":"文聖里","LIN":"6鄰","STREET":"裕文路","SECT":" ","MAREA":" ","LANE":" ","ALLEY":" ","HOUSE_NO":"２７號","E_COORD97":171856.73999999999,"N_COORD97":2542614.7000000002,"ADDRESS":"裕文路２７號","OBJECTID":271746},"geometry":{"x":171856.74000000115,"y":2542614.6999999993}},{"attributes":{"ID":271752,"DIS_CODE":0,"TOWNNAME":"永康區","LI":"三合里","LIN":"7鄰","STREET":"南工街","SECT":" ","MAREA":" ","LANE":"１０３巷","ALLEY":" ","HOUSE_NO":"５號","E_COORD97":172070.76000000001,"N_COORD97":2545713.1200000001,"ADDRESS":"南工街１０３巷５號","OBJECTID":271747},"geometry":{"x":172070.75999999978,"y":2545713.1200000048}},{"attributes":{"ID":271753,"DIS_CODE":0,"TOWNNAME":"永康區","LI":"二王里","LIN":"7鄰","STREET":"中山南路","SECT":" ","MAREA":" ","LANE":"８１４巷","ALLEY":" ","HOUSE_NO":"６號","E_COORD97":172806.67999999999,"N_COORD97":2546760.1400000001,"ADDRESS":"中山南路８１４巷６號","OBJECTID":271748},"geometry":{"x":172806.6799999997,"y":2546760.1400000043}},{"attributes":{"ID":271754,"DIS_CODE":0,"TOWNNAME":"永康區","LI":"大橋里","LIN":"7鄰","STREET":"大橋三街","SECT":" ","MAREA":" ","LANE":"１９９巷","ALLEY":" ","HOUSE_NO":"２７號","E_COORD97":170859.54000000001,"N_COORD97":2546852.8199999998,"ADDRESS":"大橋三街１９９巷２７號","OBJECTID":271749},"geometry":{"x":170859.54000000097,"y":2546852.8200000003}},{"attributes":{"ID":271755,"DIS_CODE":0,"TOWNNAME":"永康區","LI":"二王里","LIN":"7鄰","STREET":"永二街","SECT":" ","MAREA":" ","LANE":"４０４巷","ALLEY":" ","HOUSE_NO":"１號之１","E_COORD97":172764.84,"N_COORD97":2546688.8399999999,"ADDRESS":"永二街４０４巷１號之１","OBJECTID":271750},"geometry":{"x":172764.84000000078,"y":2546688.8399999999}},{"attributes":{"ID":271756,"DIS_CODE":0,"TOWNNAME":"仁德區","LI":"仁愛里","LIN":"3鄰","STREET":" ","SECT":" ","MAREA":"仁愛","LANE":" ","ALLEY":" ","HOUSE_NO":"４０號","E_COORD97":170345.06849999999,"N_COORD97":2540077.6278400002,"ADDRESS":"仁愛４０號","OBJECTID":271751},"geometry":{"x":170345.06850000005,"y":2540077.6278440021}},{"attributes":{"ID":271757,"DIS_CODE":0,"TOWNNAME":"仁德區","LI":"仁愛里","LIN":"3鄰","STREET":" ","SECT":" ","MAREA":"仁愛","LANE":" ","ALLEY":" ","HOUSE_NO":"４２號","E_COORD97":170346.135626,"N_COORD97":2540060.0595200001,"ADDRESS":"仁愛４２號","OBJECTID":271752},"geometry":{"x":170346.13562600128,"y":2540060.0595200025}},{"attributes":{"ID":271758,"DIS_CODE":0,"TOWNNAME":"仁德區","LI":"三甲里","LIN":"3鄰","STREET":" ","SECT":" ","MAREA":"三甲子","LANE":" ","ALLEY":" ","HOUSE_NO":"２６號之１５","E_COORD97":171852.44,"N_COORD97":2536890.2999999998,"ADDRESS":"三甲子２６號之１５","OBJECTID":271753},"geometry":{"x":171852.44000000134,"y":2536890.3000000026}},{"attributes":{"ID":271759,"DIS_CODE":0,"TOWNNAME":"安南區","LI":"溪心里","LIN":"7鄰","STREET":"本原街","SECT":"二段","MAREA":" ","LANE":"１０６巷","ALLEY":" ","HOUSE_NO":"２５號","E_COORD97":166812.20000000001,"N_COORD97":2550868.0699999998,"ADDRESS":"本原街二段１０６巷２５號","OBJECTID":271754},"geometry":{"x":166812.20000000112,"y":2550868.0700000003}},{"attributes":{"ID":271760,"DIS_CODE":0,"TOWNNAME":"安南區","LI":"安慶里","LIN":"7鄰","STREET":"怡安路","SECT":"一段","MAREA":" ","LANE":"３０３巷","ALLEY":" ","HOUSE_NO":"３１號","E_COORD97":168947.64000000001,"N_COORD97":2549012.2999999998,"ADDRESS":"怡安路一段３０３巷３１號","OBJECTID":271755},"geometry":{"x":168947.63999999873,"y":2549012.3000000007}},{"attributes":{"ID":271761,"DIS_CODE":0,"TOWNNAME":"安南區","LI":"安慶里","LIN":"7鄰","STREET":"怡安路","SECT":"一段","MAREA":" ","LANE":"３４３巷","ALLEY":" ","HOUSE_NO":"１５號","E_COORD97":168781.72,"N_COORD97":2549110.8900000001,"ADDRESS":"怡安路一段３４３巷１５號","OBJECTID":271756},"geometry":{"x":168781.72000000067,"y":2549110.8900000006}},{"attributes":{"ID":271762,"DIS_CODE":0,"TOWNNAME":"安南區","LI":"安慶里","LIN":"7鄰","STREET":"怡安路","SECT":"一段","MAREA":" ","LANE":"３０３巷","ALLEY":" ","HOUSE_NO":"３５號","E_COORD97":168946.10000000001,"N_COORD97":2548994.71,"ADDRESS":"怡安路一段３０３巷３５號","OBJECTID":271757},"geometry":{"x":168946.09999999963,"y":2548994.7100000028}},{"attributes":{"ID":271763,"DIS_CODE":0,"TOWNNAME":"安南區","LI":"安慶里","LIN":"7鄰","STREET":"怡安路","SECT":"一段","MAREA":" ","LANE":"３０３巷","ALLEY":" ","HOUSE_NO":"３８號","E_COORD97":168907.45000000001,"N_COORD97":2548990.02,"ADDRESS":"怡安路一段３０３巷３８號","OBJECTID":271758},"geometry":{"x":168907.45000000112,"y":2548990.0199999996}},{"attributes":{"ID":271764,"DIS_CODE":0,"TOWNNAME":"仁德區","LI":"三甲里","LIN":"3鄰","STREET":" ","SECT":" ","MAREA":"三甲子","LANE":" ","ALLEY":" ","HOUSE_NO":"３０號之１","E_COORD97":171754.51000000001,"N_COORD97":2536864.54,"ADDRESS":"三甲子３０號之１","OBJECTID":271759},"geometry":{"x":171754.51000000071,"y":2536864.5399999991}},{"attributes":{"ID":271765,"DIS_CODE":0,"TOWNNAME":"安南區","LI":"安慶里","LIN":"7鄰","STREET":"怡安路","SECT":"一段","MAREA":" ","LANE":"３０３巷","ALLEY":" ","HOUSE_NO":"６號","E_COORD97":168910.48000000001,"N_COORD97":2549093.4700000002,"ADDRESS":"怡安路一段３０３巷６號","OBJECTID":271760},"geometry":{"x":168910.48000000045,"y":2549093.4700000007}},{"attributes":{"ID":271766,"DIS_CODE":0,"TOWNNAME":"安南區","LI":"海西里","LIN":"7鄰","STREET":"海中街","SECT":" ","MAREA":" ","LANE":"１２１巷","ALLEY":" ","HOUSE_NO":"４３號","E_COORD97":166284.09,"N_COORD97":2548988.2799999998,"ADDRESS":"海中街１２１巷４３號","OBJECTID":271761},"geometry":{"x":166284.09000000078,"y":2548988.2799999975}},{"attributes":{"ID":271767,"DIS_CODE":0,"TOWNNAME":"仁德區","LI":"三甲里","LIN":"3鄰","STREET":" ","SECT":" ","MAREA":"三甲子","LANE":" ","ALLEY":" ","HOUSE_NO":"２６號之１６","E_COORD97":171852.17999999999,"N_COORD97":2536894.5499999998,"ADDRESS":"三甲子２６號之１６","OBJECTID":271762},"geometry":{"x":171852.18000000063,"y":2536894.5499999989}},{"attributes":{"ID":271768,"DIS_CODE":0,"TOWNNAME":"仁德區","LI":"三甲里","LIN":"3鄰","STREET":" ","SECT":" ","MAREA":"三甲子","LANE":" ","ALLEY":" ","HOUSE_NO":"３１號之８","E_COORD97":171794.82000000001,"N_COORD97":2536847.54,"ADDRESS":"三甲子３１號之８","OBJECTID":271763},"geometry":{"x":171794.8200000003,"y":2536847.5399999991}},{"attributes":{"ID":271769,"DIS_CODE":0,"TOWNNAME":"仁德區","LI":"三甲里","LIN":"3鄰","STREET":" ","SECT":" ","MAREA":"三甲子","LANE":" ","ALLEY":" ","HOUSE_NO":"２８號之３","E_COORD97":171862.47,"N_COORD97":2536838.04,"ADDRESS":"三甲子２８號之３","OBJECTID":271764},"geometry":{"x":171862.46999999974,"y":2536838.0399999991}},{"attributes":{"ID":271770,"DIS_CODE":0,"TOWNNAME":"仁德區","LI":"三甲里","LIN":"3鄰","STREET":" ","SECT":" ","MAREA":"三甲子","LANE":" ","ALLEY":" ","HOUSE_NO":"２６號之２３","E_COORD97":171868.23000000001,"N_COORD97":2536890.0499999998,"ADDRESS":"三甲子２６號之２３","OBJECTID":271765},"geometry":{"x":171868.23000000045,"y":2536890.0500000007}},{"attributes":{"ID":271771,"DIS_CODE":0,"TOWNNAME":"仁德區","LI":"三甲里","LIN":"3鄰","STREET":" ","SECT":" ","MAREA":"三甲子","LANE":" ","ALLEY":" ","HOUSE_NO":"２４號","E_COORD97":171752.73000000001,"N_COORD97":2536880.75,"ADDRESS":"三甲子２４號","OBJECTID":271766},"geometry":{"x":171752.73000000045,"y":2536880.75}},{"attributes":{"ID":271772,"DIS_CODE":0,"TOWNNAME":"仁德區","LI":"二行里","LIN":"3鄰","STREET":"中正西路","SECT":" ","MAREA":" ","LANE":" ","ALLEY":" ","HOUSE_NO":"４６號","E_COORD97":170335.92999999999,"N_COORD97":2535440.25,"ADDRESS":"中正西路４６號","OBJECTID":271767},"geometry":{"x":170335.93000000156,"y":2535440.25}},{"attributes":{"ID":271773,"DIS_CODE":0,"TOWNNAME":"仁德區","LI":"二行里","LIN":"3鄰","STREET":"二行一路","SECT":" ","MAREA":" ","LANE":" ","ALLEY":" ","HOUSE_NO":"１３１之１號","E_COORD97":170495.91,"N_COORD97":2535493.04,"ADDRESS":"二行一路１３１之１號","OBJECTID":271768},"geometry":{"x":170495.91000000201,"y":2535493.0400000028}},{"attributes":{"ID":271774,"DIS_CODE":0,"TOWNNAME":"仁德區","LI":"仁愛里","LIN":"3鄰","STREET":" ","SECT":" ","MAREA":"仁愛","LANE":" ","ALLEY":" ","HOUSE_NO":"３５號","E_COORD97":170345.06849999999,"N_COORD97":2540097.1011700002,"ADDRESS":"仁愛３５號","OBJECTID":271769},"geometry":{"x":170345.06850000005,"y":2540097.1011670027}},{"attributes":{"ID":271775,"DIS_CODE":0,"TOWNNAME":"仁德區","LI":"成功里","LIN":"7鄰","STREET":"保華路","SECT":" ","MAREA":" ","LANE":"１２９巷","ALLEY":" ","HOUSE_NO":"６１號","E_COORD97":171141.32999999999,"N_COORD97":2539872.2400000002,"ADDRESS":"保華路１２９巷６１號","OBJECTID":271770},"geometry":{"x":171141.33000000007,"y":2539872.2400000002}},{"attributes":{"ID":271776,"DIS_CODE":0,"TOWNNAME":"仁德區","LI":"仁德里","LIN":"7鄰","STREET":"仁德三街","SECT":" ","MAREA":" ","LANE":"１６巷","ALLEY":" ","HOUSE_NO":"１號","E_COORD97":173300.56,"N_COORD97":2541015.5099999998,"ADDRESS":"仁德三街１６巷１號","OBJECTID":271771},"geometry":{"x":173300.56000000052,"y":2541015.5099999998}},{"attributes":{"ID":271777,"DIS_CODE":0,"TOWNNAME":"仁德區","LI":"成功里","LIN":"7鄰","STREET":"保華路","SECT":" ","MAREA":" ","LANE":"１１７巷","ALLEY":" ","HOUSE_NO":"６號","E_COORD97":171135.94,"N_COORD97":2540027.75,"ADDRESS":"保華路１１７巷６號","OBJECTID":271772},"geometry":{"x":171135.94000000041,"y":2540027.75}},{"attributes":{"ID":271778,"DIS_CODE":0,"TOWNNAME":"仁德區","LI":"仁愛里","LIN":"3鄰","STREET":" ","SECT":" ","MAREA":"仁愛","LANE":" ","ALLEY":" ","HOUSE_NO":"３８號","E_COORD97":170345.06849999999,"N_COORD97":2540085.3536700001,"ADDRESS":"仁愛３８號","OBJECTID":271773},"geometry":{"x":170345.06850000005,"y":2540085.353674002}},{"attributes":{"ID":271779,"DIS_CODE":0,"TOWNNAME":"仁德區","LI":"仁愛里","LIN":"3鄰","STREET":" ","SECT":" ","MAREA":"仁愛","LANE":" ","ALLEY":" ","HOUSE_NO":"４２號之１","E_COORD97":170345.06849999999,"N_COORD97":2540070.6428499999,"ADDRESS":"仁愛４２號之１","OBJECTID":271774},"geometry":{"x":170345.06850000005,"y":2540070.6428479999}},{"attributes":{"ID":271780,"DIS_CODE":0,"TOWNNAME":"仁德區","LI":"仁愛里","LIN":"3鄰","STREET":" ","SECT":" ","MAREA":"仁愛","LANE":" ","ALLEY":" ","HOUSE_NO":"４４號","E_COORD97":170333.953977,"N_COORD97":2540059.63619,"ADDRESS":"仁愛４４號","OBJECTID":271775},"geometry":{"x":170333.9539770009,"y":2540059.6361870002}},{"attributes":{"ID":271781,"DIS_CODE":0,"TOWNNAME":"仁德區","LI":"仁愛里","LIN":"3鄰","STREET":" ","SECT":" ","MAREA":"仁愛","LANE":" ","ALLEY":" ","HOUSE_NO":"４６號","E_COORD97":170324.95014900001,"N_COORD97":2540059.4245199999,"ADDRESS":"仁愛４６號","OBJECTID":271776},"geometry":{"x":170324.95014900062,"y":2540059.4245210029}},{"attributes":{"ID":271782,"DIS_CODE":0,"TOWNNAME":"仁德區","LI":"三甲里","LIN":"3鄰","STREET":" ","SECT":" ","MAREA":"三甲子","LANE":" ","ALLEY":" ","HOUSE_NO":"２５號之１","E_COORD97":171762.06,"N_COORD97":2536940.54,"ADDRESS":"三甲子２５號之１","OBJECTID":271777},"geometry":{"x":171762.05999999866,"y":2536940.5400000028}},{"attributes":{"ID":271783,"DIS_CODE":0,"TOWNNAME":"仁德區","LI":"成功里","LIN":"7鄰","STREET":"保華路","SECT":" ","MAREA":" ","LANE":"１２９巷","ALLEY":" ","HOUSE_NO":"１６號","E_COORD97":171087.09,"N_COORD97":2540005,"ADDRESS":"保華路１２９巷１６號","OBJECTID":271778},"geometry":{"x":171087.08999999985,"y":2540005}},{"attributes":{"ID":271784,"DIS_CODE":0,"TOWNNAME":"仁德區","LI":"成功里","LIN":"7鄰","STREET":"保華路","SECT":" ","MAREA":" ","LANE":"１２９巷","ALLEY":" ","HOUSE_NO":"２３號","E_COORD97":171110.51000000001,"N_COORD97":2539975.7400000002,"ADDRESS":"保華路１２９巷２３號","OBJECTID":271779},"geometry":{"x":171110.51000000071,"y":2539975.7400000021}},{"attributes":{"ID":271785,"DIS_CODE":0,"TOWNNAME":"仁德區","LI":"成功里","LIN":"7鄰","STREET":"保華路","SECT":" ","MAREA":" ","LANE":"１２９巷","ALLEY":" ","HOUSE_NO":"８７號","E_COORD97":171135.10999999999,"N_COORD97":2539808.25,"ADDRESS":"保華路１２９巷８７號","OBJECTID":271780},"geometry":{"x":171135.11000000034,"y":2539808.2500000037}},{"attributes":{"ID":271786,"DIS_CODE":0,"TOWNNAME":"仁德區","LI":"三甲里","LIN":"3鄰","STREET":" ","SECT":" ","MAREA":"三甲子","LANE":" ","ALLEY":" ","HOUSE_NO":"２６號之１１","E_COORD97":171852.45000000001,"N_COORD97":2536873.54,"ADDRESS":"三甲子２６號之１１","OBJECTID":271781},"geometry":{"x":171852.45000000112,"y":2536873.540000001}},{"attributes":{"ID":271787,"DIS_CODE":0,"TOWNNAME":"仁德區","LI":"三甲里","LIN":"3鄰","STREET":" ","SECT":" ","MAREA":"三甲子","LANE":" ","ALLEY":" ","HOUSE_NO":"２６號之１３","E_COORD97":171854.01999999999,"N_COORD97":2536882.2999999998,"ADDRESS":"三甲子２６號之１３","OBJECTID":271782},"geometry":{"x":171854.02000000142,"y":2536882.3000000007}},{"attributes":{"ID":271788,"DIS_CODE":0,"TOWNNAME":"新市區","LI":"新和里","LIN":"7鄰","STREET":"富強路","SECT":" ","MAREA":" ","LANE":"５１巷","ALLEY":" ","HOUSE_NO":"３號","E_COORD97":177289.79000000001,"N_COORD97":2552395.75,"ADDRESS":"富強路５１巷３號","OBJECTID":271783},"geometry":{"x":177289.79000000097,"y":2552395.75}},{"attributes":{"ID":271789,"DIS_CODE":0,"TOWNNAME":"仁德區","LI":"成功里","LIN":"7鄰","STREET":"保華路","SECT":" ","MAREA":" ","LANE":"１２９巷","ALLEY":" ","HOUSE_NO":"９３號","E_COORD97":171135.32000000001,"N_COORD97":2539799,"ADDRESS":"保華路１２９巷９３號","OBJECTID":271784},"geometry":{"x":171135.3200000003,"y":2539799}},{"attributes":{"ID":271790,"DIS_CODE":0,"TOWNNAME":"仁德區","LI":"成功里","LIN":"7鄰","STREET":"保華路","SECT":" ","MAREA":" ","LANE":"１２９巷","ALLEY":" ","HOUSE_NO":"８１號","E_COORD97":171123.72,"N_COORD97":2539823,"ADDRESS":"保華路１２９巷８１號","OBJECTID":271785},"geometry":{"x":171123.71999999974,"y":2539823}},{"attributes":{"ID":271791,"DIS_CODE":0,"TOWNNAME":"仁德區","LI":"後壁里","LIN":"7鄰","STREET":"德安路","SECT":" ","MAREA":" ","LANE":"７３巷","ALLEY":" ","HOUSE_NO":"７號","E_COORD97":173572.44,"N_COORD97":2539007.3100000001,"ADDRESS":"德安路７３巷７號","OBJECTID":271786},"geometry":{"x":173572.44000000041,"y":2539007.3100000005}},{"attributes":{"ID":271792,"DIS_CODE":0,"TOWNNAME":"仁德區","LI":"一甲里","LIN":"3鄰","STREET":"正義三街","SECT":" ","MAREA":" ","LANE":" ","ALLEY":" ","HOUSE_NO":"３號","E_COORD97":173425.17999999999,"N_COORD97":2541619.0099999998,"ADDRESS":"正義三街３號","OBJECTID":271787},"geometry":{"x":173425.18000000063,"y":2541619.0099999998}},{"attributes":{"ID":271793,"DIS_CODE":0,"TOWNNAME":"仁德區","LI":"成功里","LIN":"7鄰","STREET":"保華路","SECT":" ","MAREA":" ","LANE":"１１７巷","ALLEY":" ","HOUSE_NO":"３４號","E_COORD97":171139.26999999999,"N_COORD97":2539951.7400000002,"ADDRESS":"保華路１１７巷３４號","OBJECTID":271788},"geometry":{"x":171139.27000000048,"y":2539951.7400000021}},{"attributes":{"ID":271794,"DIS_CODE":0,"TOWNNAME":"仁德區","LI":"成功里","LIN":"7鄰","STREET":"保華路","SECT":" ","MAREA":" ","LANE":"１２９巷","ALLEY":" ","HOUSE_NO":"３１號","E_COORD97":171115.70999999999,"N_COORD97":2539947.9900000002,"ADDRESS":"保華路１２９巷３１號","OBJECTID":271789},"geometry":{"x":171115.71000000183,"y":2539947.9900000002}},{"attributes":{"ID":271795,"DIS_CODE":0,"TOWNNAME":"新化區","LI":"山\u25A0里","LIN":"3鄰","STREET":" ","SECT":" ","MAREA":"頂山\u25A0","LANE":" ","ALLEY":" ","HOUSE_NO":"９３號","E_COORD97":179583.57999999999,"N_COORD97":2546564.25,"ADDRESS":"頂山\u25A0９３號","OBJECTID":271790},"geometry":{"x":179583.58000000007,"y":2546564.25}},{"attributes":{"ID":271796,"DIS_CODE":0,"TOWNNAME":"仁德區","LI":"三甲里","LIN":"3鄰","STREET":" ","SECT":" ","MAREA":"三甲子","LANE":" ","ALLEY":" ","HOUSE_NO":"２６號之２２","E_COORD97":171868.97,"N_COORD97":2536885.7999999998,"ADDRESS":"三甲子２６號之２２","OBJECTID":271791},"geometry":{"x":171868.96999999974,"y":2536885.8000000007}},{"attributes":{"ID":271797,"DIS_CODE":0,"TOWNNAME":"仁德區","LI":"三甲里","LIN":"3鄰","STREET":" ","SECT":" ","MAREA":"三甲子","LANE":" ","ALLEY":" ","HOUSE_NO":"２７號之２","E_COORD97":171888.37,"N_COORD97":2536874.29,"ADDRESS":"三甲子２７號之２","OBJECTID":271792},"geometry":{"x":171888.37000000104,"y":2536874.2900000028}},{"attributes":{"ID":271798,"DIS_CODE":0,"TOWNNAME":"仁德區","LI":"成功里","LIN":"7鄰","STREET":"保華路","SECT":" ","MAREA":" ","LANE":"１２９巷","ALLEY":" ","HOUSE_NO":"７５號","E_COORD97":171142.64000000001,"N_COORD97":2539823,"ADDRESS":"保華路１２９巷７５號","OBJECTID":271793},"geometry":{"x":171142.63999999966,"y":2539823}},{"attributes":{"ID":271799,"DIS_CODE":0,"TOWNNAME":"仁德區","LI":"三甲里","LIN":"3鄰","STREET":" ","SECT":" ","MAREA":"三甲子","LANE":" ","ALLEY":" ","HOUSE_NO":"３１號之５","E_COORD97":171780.5,"N_COORD97":2536849.29,"ADDRESS":"三甲子３１號之５","OBJECTID":271794},"geometry":{"x":171780.50000000093,"y":2536849.2899999991}},{"attributes":{"ID":271800,"DIS_CODE":0,"TOWNNAME":"仁德區","LI":"成功里","LIN":"7鄰","STREET":"保華路","SECT":" ","MAREA":" ","LANE":"１２９巷","ALLEY":" ","HOUSE_NO":"１８號","E_COORD97":171091.19,"N_COORD97":2540001,"ADDRESS":"保華路１２９巷１８號","OBJECTID":271795},"geometry":{"x":171091.19000000134,"y":2540001.0000000019}},{"attributes":{"ID":271801,"DIS_CODE":0,"TOWNNAME":"仁德區","LI":"成功里","LIN":"7鄰","STREET":"保華路","SECT":" ","MAREA":" ","LANE":"１２９巷","ALLEY":" ","HOUSE_NO":"１１號","E_COORD97":171107.37,"N_COORD97":2540012,"ADDRESS":"保華路１２９巷１１號","OBJECTID":271796},"geometry":{"x":171107.37000000011,"y":2540012}},{"attributes":{"ID":271802,"DIS_CODE":0,"TOWNNAME":"仁德區","LI":"三甲里","LIN":"3鄰","STREET":" ","SECT":" ","MAREA":"三甲子","LANE":" ","ALLEY":" ","HOUSE_NO":"３１號之６","E_COORD97":171785.67000000001,"N_COORD97":2536849.04,"ADDRESS":"三甲子３１號之６","OBJECTID":271797},"geometry":{"x":171785.67000000086,"y":2536849.0400000028}},{"attributes":{"ID":271803,"DIS_CODE":0,"TOWNNAME":"新市區","LI":"新和里","LIN":"7鄰","STREET":"富強路","SECT":" ","MAREA":" ","LANE":"７５巷","ALLEY":" ","HOUSE_NO":"７號","E_COORD97":177240.09,"N_COORD97":2552356.75,"ADDRESS":"富強路７５巷７號","OBJECTID":271798},"geometry":{"x":177240.09000000078,"y":2552356.7500000019}},{"attributes":{"ID":271804,"DIS_CODE":0,"TOWNNAME":"仁德區","LI":"三甲里","LIN":"3鄰","STREET":" ","SECT":" ","MAREA":"三甲子","LANE":" ","ALLEY":" ","HOUSE_NO":"３１號","E_COORD97":171751.64000000001,"N_COORD97":2536849.2400000002,"ADDRESS":"三甲子３１號","OBJECTID":271799},"geometry":{"x":171751.64000000153,"y":2536849.2400000021}},{"attributes":{"ID":271805,"DIS_CODE":0,"TOWNNAME":"永康區","LI":"王行里","LIN":"7鄰","STREET":"王行路","SECT":" ","MAREA":" ","LANE":"３５１巷","ALLEY":" ","HOUSE_NO":"５６號","E_COORD97":175319.89000000001,"N_COORD97":2548662.4900000002,"ADDRESS":"王行路３５１巷５６號","OBJECTID":271800},"geometry":{"x":175319.89000000153,"y":2548662.4900000039}}]}