{"displayFieldName":"TOWNNAME","fieldAliases":{"ID":"ID","DIS_CODE":"DIS_CODE","TOWNNAME":"TOWNNAME","LI":"LI","LIN":"LIN","STREET":"STREET","SECT":"SECT","MAREA":"MAREA","LANE":"LANE","ALLEY":"ALLEY","HOUSE_NO":"HOUSE_NO","E_COORD97":"E_COORD97","N_COORD97":"N_COORD97","ADDRESS":"ADDRESS","OBJECTID":"OBJECTID"},"geometryType":"esriGeometryPoint","spatialReference":{"wkid":102443,"latestWkid":3826},"fields":[{"name":"ID","type":"esriFieldTypeDouble","alias":"ID"},{"name":"DIS_CODE","type":"esriFieldTypeInteger","alias":"DIS_CODE"},{"name":"TOWNNAME","type":"esriFieldTypeString","alias":"TOWNNAME","length":8},{"name":"LI","type":"esriFieldTypeString","alias":"LI","length":8},{"name":"LIN","type":"esriFieldTypeString","alias":"LIN","length":12},{"name":"STREET","type":"esriFieldTypeString","alias":"STREET","length":20},{"name":"SECT","type":"esriFieldTypeString","alias":"SECT","length":8},{"name":"MAREA","type":"esriFieldTypeString","alias":"MAREA","length":12},{"name":"LANE","type":"esriFieldTypeString","alias":"LANE","length":10},{"name":"ALLEY","type":"esriFieldTypeString","alias":"ALLEY","length":10},{"name":"HOUSE_NO","type":"esriFieldTypeString","alias":"HOUSE_NO","length":20},{"name":"E_COORD97","type":"esriFieldTypeDouble","alias":"E_COORD97"},{"name":"N_COORD97","type":"esriFieldTypeDouble","alias":"N_COORD97"},{"name":"ADDRESS","type":"esriFieldTypeString","alias":"ADDRESS","length":50},{"name":"OBJECTID","type":"esriFieldTypeOID","alias":"OBJECTID"}],"features":[{"attributes":{"ID":92601,"DIS_CODE":0,"TOWNNAME":"安南區","LI":"安和里","LIN":"10鄰","STREET":"安和路","SECT":"一段","MAREA":" ","LANE":"５２巷","ALLEY":"２１弄","HOUSE_NO":"２７號","E_COORD97":169568.23999999999,"N_COORD97":2547577.4300000002,"ADDRESS":"安和路一段５２巷２１弄２７號","OBJECTID":92601},"geometry":{"x":169568.24000000115,"y":2547577.4300000034}},{"attributes":{"ID":92602,"DIS_CODE":0,"TOWNNAME":"安南區","LI":"安和里","LIN":"10鄰","STREET":"安和路","SECT":"一段","MAREA":" ","LANE":"５２巷","ALLEY":"２１弄","HOUSE_NO":"２８號","E_COORD97":169622.98999999999,"N_COORD97":2547589.5800000001,"ADDRESS":"安和路一段５２巷２１弄２８號","OBJECTID":92602},"geometry":{"x":169622.99000000115,"y":2547589.5800000001}},{"attributes":{"ID":92603,"DIS_CODE":0,"TOWNNAME":"安南區","LI":"安和里","LIN":"10鄰","STREET":"安和路","SECT":"一段","MAREA":" ","LANE":"５２巷","ALLEY":"２１弄","HOUSE_NO":"２９號","E_COORD97":169566.47,"N_COORD97":2547581.98,"ADDRESS":"安和路一段５２巷２１弄２９號","OBJECTID":92603},"geometry":{"x":169566.47000000067,"y":2547581.9800000023}},{"attributes":{"ID":92604,"DIS_CODE":0,"TOWNNAME":"安南區","LI":"安和里","LIN":"10鄰","STREET":"安和路","SECT":"一段","MAREA":" ","LANE":"５２巷","ALLEY":"２１弄","HOUSE_NO":"３２號","E_COORD97":169614.88,"N_COORD97":2547580.9700000002,"ADDRESS":"安和路一段５２巷２１弄３２號","OBJECTID":92604},"geometry":{"x":169614.88000000082,"y":2547580.9700000007}},{"attributes":{"ID":92605,"DIS_CODE":0,"TOWNNAME":"安定區","LI":"保西里","LIN":"10鄰","STREET":" ","SECT":" ","MAREA":"安定","LANE":" ","ALLEY":" ","HOUSE_NO":"４１６號","E_COORD97":171701.01999999999,"N_COORD97":2557847.3199999998,"ADDRESS":"安定４１６號","OBJECTID":92605},"geometry":{"x":171701.01999999955,"y":2557847.3200000003}},{"attributes":{"ID":92606,"DIS_CODE":0,"TOWNNAME":"安南區","LI":"安和里","LIN":"10鄰","STREET":"安和路","SECT":"一段","MAREA":" ","LANE":"５２巷","ALLEY":"２１弄","HOUSE_NO":"３４號","E_COORD97":169610.57000000001,"N_COORD97":2547577.9300000002,"ADDRESS":"安和路一段５２巷２１弄３４號","OBJECTID":92606},"geometry":{"x":169610.57000000123,"y":2547577.9300000016}},{"attributes":{"ID":92607,"DIS_CODE":0,"TOWNNAME":"安南區","LI":"安和里","LIN":"10鄰","STREET":"安和路","SECT":"一段","MAREA":" ","LANE":"５２巷","ALLEY":"２１弄","HOUSE_NO":"３６號","E_COORD97":169605.5,"N_COORD97":2547574.3900000001,"ADDRESS":"安和路一段５２巷２１弄３６號","OBJECTID":92607},"geometry":{"x":169605.50000000093,"y":2547574.3900000006}},{"attributes":{"ID":92608,"DIS_CODE":0,"TOWNNAME":"安南區","LI":"安和里","LIN":"10鄰","STREET":"安和路","SECT":"一段","MAREA":" ","LANE":"５２巷","ALLEY":"２１弄","HOUSE_NO":"３８號","E_COORD97":169602.20000000001,"N_COORD97":2547570.3399999999,"ADDRESS":"安和路一段５２巷２１弄３８號","OBJECTID":92608},"geometry":{"x":169602.20000000205,"y":2547570.3399999999}},{"attributes":{"ID":92609,"DIS_CODE":0,"TOWNNAME":"安定區","LI":"蘇林里","LIN":"10鄰","STREET":" ","SECT":" ","MAREA":"蘇厝","LANE":" ","ALLEY":" ","HOUSE_NO":"１１２之２８號","E_COORD97":173809.57000000001,"N_COORD97":2558773.2999999998,"ADDRESS":"蘇厝１１２之２８號","OBJECTID":92609},"geometry":{"x":173809.57000000123,"y":2558773.3000000007}},{"attributes":{"ID":92610,"DIS_CODE":0,"TOWNNAME":"安定區","LI":"蘇林里","LIN":"10鄰","STREET":" ","SECT":" ","MAREA":"蘇厝","LANE":" ","ALLEY":" ","HOUSE_NO":"１１２號之１８","E_COORD97":173822.25,"N_COORD97":2558816.2999999998,"ADDRESS":"蘇厝１１２號之１８","OBJECTID":92610},"geometry":{"x":173822.25,"y":2558816.3000000026}},{"attributes":{"ID":92611,"DIS_CODE":0,"TOWNNAME":"安定區","LI":"港口里","LIN":"10鄰","STREET":" ","SECT":" ","MAREA":"港口","LANE":" ","ALLEY":" ","HOUSE_NO":"３０４之２號","E_COORD97":171339.29000000001,"N_COORD97":2554716.2999999998,"ADDRESS":"港口３０４之２號","OBJECTID":92611},"geometry":{"x":171339.29000000097,"y":2554716.3000000045}},{"attributes":{"ID":92612,"DIS_CODE":0,"TOWNNAME":"安定區","LI":"港口里","LIN":"10鄰","STREET":" ","SECT":" ","MAREA":"港口","LANE":" ","ALLEY":" ","HOUSE_NO":"３０３號之１","E_COORD97":171327.82999999999,"N_COORD97":2554728.2999999998,"ADDRESS":"港口３０３號之１","OBJECTID":92612},"geometry":{"x":171327.83000000007,"y":2554728.3000000007}},{"attributes":{"ID":92613,"DIS_CODE":0,"TOWNNAME":"安定區","LI":"安定里","LIN":"10鄰","STREET":" ","SECT":" ","MAREA":"安定","LANE":" ","ALLEY":" ","HOUSE_NO":"９６號之７","E_COORD97":172121.78,"N_COORD97":2557711.3199999998,"ADDRESS":"安定９６號之７","OBJECTID":92613},"geometry":{"x":172121.78000000026,"y":2557711.3200000003}},{"attributes":{"ID":92614,"DIS_CODE":0,"TOWNNAME":"安定區","LI":"蘇林里","LIN":"10鄰","STREET":" ","SECT":" ","MAREA":"蘇厝","LANE":" ","ALLEY":" ","HOUSE_NO":"１１２之８號","E_COORD97":173805.01999999999,"N_COORD97":2558803.2999999998,"ADDRESS":"蘇厝１１２之８號","OBJECTID":92614},"geometry":{"x":173805.01999999862,"y":2558803.3000000026}},{"attributes":{"ID":92615,"DIS_CODE":0,"TOWNNAME":"安定區","LI":"港口里","LIN":"10鄰","STREET":" ","SECT":" ","MAREA":"港口","LANE":" ","ALLEY":" ","HOUSE_NO":"３０９號","E_COORD97":171292.48999999999,"N_COORD97":2554683.25,"ADDRESS":"港口３０９號","OBJECTID":92615},"geometry":{"x":171292.49000000115,"y":2554683.2500000019}},{"attributes":{"ID":92616,"DIS_CODE":0,"TOWNNAME":"安定區","LI":"蘇林里","LIN":"10鄰","STREET":" ","SECT":" ","MAREA":"蘇厝","LANE":" ","ALLEY":" ","HOUSE_NO":"１１２之２９號","E_COORD97":173804.17000000001,"N_COORD97":2558773.2999999998,"ADDRESS":"蘇厝１１２之２９號","OBJECTID":92616},"geometry":{"x":173804.16999999993,"y":2558773.3000000007}},{"attributes":{"ID":92617,"DIS_CODE":0,"TOWNNAME":"安定區","LI":"港口里","LIN":"10鄰","STREET":" ","SECT":" ","MAREA":"港口","LANE":" ","ALLEY":" ","HOUSE_NO":"３０６之２號","E_COORD97":171369.48999999999,"N_COORD97":2554665.2999999998,"ADDRESS":"港口３０６之２號","OBJECTID":92617},"geometry":{"x":171369.49000000022,"y":2554665.3000000045}},{"attributes":{"ID":92618,"DIS_CODE":0,"TOWNNAME":"柳營區","LI":"神農里","LIN":"15鄰","STREET":" ","SECT":" ","MAREA":"新厝","LANE":" ","ALLEY":" ","HOUSE_NO":"１１號之１","E_COORD97":183295.29999999999,"N_COORD97":2573253.3599999999,"ADDRESS":"新厝１１號之１","OBJECTID":92618},"geometry":{"x":183295.30000000075,"y":2573253.3600000013}},{"attributes":{"ID":92619,"DIS_CODE":0,"TOWNNAME":"柳營區","LI":"神農里","LIN":"15鄰","STREET":" ","SECT":" ","MAREA":"新厝","LANE":" ","ALLEY":" ","HOUSE_NO":"１１號之２","E_COORD97":183303,"N_COORD97":2573251.71,"ADDRESS":"新厝１１號之２","OBJECTID":92619},"geometry":{"x":183303.00000000093,"y":2573251.7100000009}},{"attributes":{"ID":92620,"DIS_CODE":0,"TOWNNAME":"柳營區","LI":"神農里","LIN":"15鄰","STREET":" ","SECT":" ","MAREA":"新厝","LANE":" ","ALLEY":" ","HOUSE_NO":"１１號","E_COORD97":183287.57000000001,"N_COORD97":2573249.1800000002,"ADDRESS":"新厝１１號","OBJECTID":92620},"geometry":{"x":183287.57000000123,"y":2573249.1800000016}},{"attributes":{"ID":92621,"DIS_CODE":0,"TOWNNAME":"柳營區","LI":"神農里","LIN":"15鄰","STREET":" ","SECT":" ","MAREA":"新厝","LANE":" ","ALLEY":" ","HOUSE_NO":"１２號之１","E_COORD97":183251.76999999999,"N_COORD97":2573268.23,"ADDRESS":"新厝１２號之１","OBJECTID":92621},"geometry":{"x":183251.76999999955,"y":2573268.2300000004}},{"attributes":{"ID":92622,"DIS_CODE":0,"TOWNNAME":"柳營區","LI":"神農里","LIN":"15鄰","STREET":" ","SECT":" ","MAREA":"新厝","LANE":" ","ALLEY":" ","HOUSE_NO":"１３號之１","E_COORD97":183291.35000000001,"N_COORD97":2573188.5299999998,"ADDRESS":"新厝１３號之１","OBJECTID":92622},"geometry":{"x":183291.35000000056,"y":2573188.5300000012}},{"attributes":{"ID":92623,"DIS_CODE":0,"TOWNNAME":"柳營區","LI":"神農里","LIN":"15鄰","STREET":" ","SECT":" ","MAREA":"新厝","LANE":" ","ALLEY":" ","HOUSE_NO":"１３號之２","E_COORD97":183308.95000000001,"N_COORD97":2573086.5899999999,"ADDRESS":"新厝１３號之２","OBJECTID":92623},"geometry":{"x":183308.95000000019,"y":2573086.5900000017}},{"attributes":{"ID":92624,"DIS_CODE":0,"TOWNNAME":"柳營區","LI":"神農里","LIN":"15鄰","STREET":" ","SECT":" ","MAREA":"新厝","LANE":" ","ALLEY":" ","HOUSE_NO":"１３號之３","E_COORD97":183312.73000000001,"N_COORD97":2573102.4399999999,"ADDRESS":"新厝１３號之３","OBJECTID":92624},"geometry":{"x":183312.73000000045,"y":2573102.4399999995}},{"attributes":{"ID":92625,"DIS_CODE":0,"TOWNNAME":"柳營區","LI":"神農里","LIN":"15鄰","STREET":" ","SECT":" ","MAREA":"新厝","LANE":" ","ALLEY":" ","HOUSE_NO":"１３之５號","E_COORD97":183324.84,"N_COORD97":2573116.0699999998,"ADDRESS":"新厝１３之５號","OBJECTID":92625},"geometry":{"x":183324.83999999985,"y":2573116.0700000003}},{"attributes":{"ID":92626,"DIS_CODE":0,"TOWNNAME":"柳營區","LI":"神農里","LIN":"15鄰","STREET":" ","SECT":" ","MAREA":"新厝","LANE":" ","ALLEY":" ","HOUSE_NO":"１３號","E_COORD97":183333.16,"N_COORD97":2573157.8500000001,"ADDRESS":"新厝１３號","OBJECTID":92626},"geometry":{"x":183333.16000000015,"y":2573157.8499999996}},{"attributes":{"ID":92627,"DIS_CODE":0,"TOWNNAME":"安南區","LI":"安和里","LIN":"10鄰","STREET":"安和路","SECT":"一段","MAREA":" ","LANE":"５２巷","ALLEY":"２１弄","HOUSE_NO":"３號","E_COORD97":169586.73999999999,"N_COORD97":2547525.77,"ADDRESS":"安和路一段５２巷２１弄３號","OBJECTID":92627},"geometry":{"x":169586.74000000209,"y":2547525.7700000014}},{"attributes":{"ID":92628,"DIS_CODE":0,"TOWNNAME":"安南區","LI":"安和里","LIN":"10鄰","STREET":"安和路","SECT":"一段","MAREA":" ","LANE":"５２巷","ALLEY":"２１弄","HOUSE_NO":"４６號","E_COORD97":169607.62,"N_COORD97":2547610.4100000001,"ADDRESS":"安和路一段５２巷２１弄４６號","OBJECTID":92628},"geometry":{"x":169607.61999999918,"y":2547610.4100000001}},{"attributes":{"ID":92629,"DIS_CODE":0,"TOWNNAME":"柳營區","LI":"神農里","LIN":"15鄰","STREET":" ","SECT":" ","MAREA":"新厝","LANE":" ","ALLEY":" ","HOUSE_NO":"１４號之１","E_COORD97":183244.95999999999,"N_COORD97":2573215.3399999999,"ADDRESS":"新厝１４號之１","OBJECTID":92629},"geometry":{"x":183244.96000000089,"y":2573215.3399999999}},{"attributes":{"ID":92630,"DIS_CODE":0,"TOWNNAME":"安南區","LI":"安和里","LIN":"10鄰","STREET":"安和路","SECT":"一段","MAREA":" ","LANE":"５２巷","ALLEY":"２１弄","HOUSE_NO":"４８號","E_COORD97":169604.60999999999,"N_COORD97":2547607.7000000002,"ADDRESS":"安和路一段５２巷２１弄４８號","OBJECTID":92630},"geometry":{"x":169604.6100000022,"y":2547607.6999999993}},{"attributes":{"ID":92631,"DIS_CODE":0,"TOWNNAME":"安南區","LI":"安和里","LIN":"10鄰","STREET":"安和路","SECT":"一段","MAREA":" ","LANE":"５２巷","ALLEY":"２１弄","HOUSE_NO":"４號","E_COORD97":169601.70000000001,"N_COORD97":2547545.52,"ADDRESS":"安和路一段５２巷２１弄４號","OBJECTID":92631},"geometry":{"x":169601.70000000019,"y":2547545.5199999996}},{"attributes":{"ID":92632,"DIS_CODE":0,"TOWNNAME":"柳營區","LI":"神農里","LIN":"15鄰","STREET":" ","SECT":" ","MAREA":"新厝","LANE":" ","ALLEY":" ","HOUSE_NO":"１４號之２","E_COORD97":183271.60999999999,"N_COORD97":2573202.2999999998,"ADDRESS":"新厝１４號之２","OBJECTID":92632},"geometry":{"x":183271.61000000127,"y":2573202.3000000007}},{"attributes":{"ID":92633,"DIS_CODE":0,"TOWNNAME":"安平區","LI":"港仔里","LIN":"8鄰","STREET":"安平路","SECT":" ","MAREA":" ","LANE":" ","ALLEY":" ","HOUSE_NO":"１０１號","E_COORD97":164325.19,"N_COORD97":2544479.4199999999,"ADDRESS":"安平路１０１號","OBJECTID":92633},"geometry":{"x":164325.19000000041,"y":2544479.4200000018}},{"attributes":{"ID":92634,"DIS_CODE":0,"TOWNNAME":"柳營區","LI":"神農里","LIN":"15鄰","STREET":" ","SECT":" ","MAREA":"新厝","LANE":" ","ALLEY":" ","HOUSE_NO":"１號","E_COORD97":183944.07000000001,"N_COORD97":2572432.7599999998,"ADDRESS":"新厝１號","OBJECTID":92634},"geometry":{"x":183944.0700000003,"y":2572432.7599999998}},{"attributes":{"ID":92635,"DIS_CODE":0,"TOWNNAME":"安南區","LI":"安和里","LIN":"10鄰","STREET":"安和路","SECT":"一段","MAREA":" ","LANE":"５２巷","ALLEY":"２１弄","HOUSE_NO":"５０號","E_COORD97":169602.5,"N_COORD97":2547604.3999999999,"ADDRESS":"安和路一段５２巷２１弄５０號","OBJECTID":92635},"geometry":{"x":169602.50000000093,"y":2547604.4000000004}},{"attributes":{"ID":92636,"DIS_CODE":0,"TOWNNAME":"安南區","LI":"安和里","LIN":"10鄰","STREET":"安和路","SECT":"一段","MAREA":" ","LANE":"５２巷","ALLEY":"２１弄","HOUSE_NO":"５２號","E_COORD97":169598.59,"N_COORD97":2547601.3900000001,"ADDRESS":"安和路一段５２巷２１弄５２號","OBJECTID":92636},"geometry":{"x":169598.58999999985,"y":2547601.3900000006}},{"attributes":{"ID":92637,"DIS_CODE":0,"TOWNNAME":"安定區","LI":"蘇林里","LIN":"10鄰","STREET":" ","SECT":" ","MAREA":"蘇厝","LANE":" ","ALLEY":" ","HOUSE_NO":"１１２之１２號","E_COORD97":173824.76999999999,"N_COORD97":2558787.2999999998,"ADDRESS":"蘇厝１１２之１２號","OBJECTID":92637},"geometry":{"x":173824.76999999955,"y":2558787.3000000007}},{"attributes":{"ID":92638,"DIS_CODE":0,"TOWNNAME":"安定區","LI":"港口里","LIN":"10鄰","STREET":" ","SECT":" ","MAREA":"港口","LANE":" ","ALLEY":" ","HOUSE_NO":"３０５之１號","E_COORD97":171346.79000000001,"N_COORD97":2554704.2999999998,"ADDRESS":"港口３０５之１號","OBJECTID":92638},"geometry":{"x":171346.79000000004,"y":2554704.3000000026}},{"attributes":{"ID":92639,"DIS_CODE":0,"TOWNNAME":"東山區","LI":"科里里","LIN":"9鄰","STREET":" ","SECT":" ","MAREA":"科里","LANE":" ","ALLEY":" ","HOUSE_NO":"４５號","E_COORD97":189951.91,"N_COORD97":2578096.9300000002,"ADDRESS":"科里４５號","OBJECTID":92639},"geometry":{"x":189951.91000000108,"y":2578096.9299999997}},{"attributes":{"ID":92640,"DIS_CODE":0,"TOWNNAME":"安定區","LI":"保西里","LIN":"10鄰","STREET":" ","SECT":" ","MAREA":"安定","LANE":" ","ALLEY":" ","HOUSE_NO":"４１２號之３","E_COORD97":171688.85000000001,"N_COORD97":2557877.3199999998,"ADDRESS":"安定４１２號之３","OBJECTID":92640},"geometry":{"x":171688.84999999963,"y":2557877.3200000003}},{"attributes":{"ID":92641,"DIS_CODE":0,"TOWNNAME":"安定區","LI":"蘇林里","LIN":"10鄰","STREET":" ","SECT":" ","MAREA":"蘇厝","LANE":" ","ALLEY":" ","HOUSE_NO":"１１５號","E_COORD97":173628.72,"N_COORD97":2558816.25,"ADDRESS":"蘇厝１１５號","OBJECTID":92641},"geometry":{"x":173628.71999999974,"y":2558816.2500000019}},{"attributes":{"ID":92642,"DIS_CODE":0,"TOWNNAME":"安南區","LI":"安和里","LIN":"10鄰","STREET":"安和路","SECT":"一段","MAREA":" ","LANE":"５２巷","ALLEY":"２１弄","HOUSE_NO":"５４號","E_COORD97":169585.04999999999,"N_COORD97":2547580.9500000002,"ADDRESS":"安和路一段５２巷２１弄５４號","OBJECTID":92642},"geometry":{"x":169585.04999999981,"y":2547580.9500000011}},{"attributes":{"ID":92643,"DIS_CODE":0,"TOWNNAME":"安南區","LI":"溪北里","LIN":"10鄰","STREET":"府安路","SECT":"四段","MAREA":" ","LANE":"３４巷","ALLEY":"７弄","HOUSE_NO":"７號","E_COORD97":169365.48999999999,"N_COORD97":2547321.02,"ADDRESS":"府安路四段３４巷７弄７號","OBJECTID":92643},"geometry":{"x":169365.49000000022,"y":2547321.0199999996}},{"attributes":{"ID":92644,"DIS_CODE":0,"TOWNNAME":"安南區","LI":"安和里","LIN":"10鄰","STREET":"安和路","SECT":"一段","MAREA":" ","LANE":"５２巷","ALLEY":"２１弄","HOUSE_NO":"５６號","E_COORD97":169582.64999999999,"N_COORD97":2547584.5600000001,"ADDRESS":"安和路一段５２巷２１弄５６號","OBJECTID":92644},"geometry":{"x":169582.6500000013,"y":2547584.5600000042}},{"attributes":{"ID":92645,"DIS_CODE":0,"TOWNNAME":"安南區","LI":"安和里","LIN":"10鄰","STREET":"安和路","SECT":"一段","MAREA":" ","LANE":"５２巷","ALLEY":"２１弄","HOUSE_NO":"５８號","E_COORD97":169580.84,"N_COORD97":2547588.77,"ADDRESS":"安和路一段５２巷２１弄５８號","OBJECTID":92645},"geometry":{"x":169580.84000000078,"y":2547588.7700000033}},{"attributes":{"ID":92646,"DIS_CODE":0,"TOWNNAME":"安南區","LI":"安和里","LIN":"10鄰","STREET":"安和路","SECT":"一段","MAREA":" ","LANE":"５２巷","ALLEY":"２１弄","HOUSE_NO":"５號","E_COORD97":169585.98000000001,"N_COORD97":2547530.0800000001,"ADDRESS":"安和路一段５２巷２１弄５號","OBJECTID":92646},"geometry":{"x":169585.98000000138,"y":2547530.0800000019}},{"attributes":{"ID":92647,"DIS_CODE":0,"TOWNNAME":"安定區","LI":"港口里","LIN":"10鄰","STREET":" ","SECT":" ","MAREA":"港口","LANE":" ","ALLEY":" ","HOUSE_NO":"３０８之１號","E_COORD97":171360.19,"N_COORD97":2554641.2999999998,"ADDRESS":"港口３０８之１號","OBJECTID":92647},"geometry":{"x":171360.19000000041,"y":2554641.3000000007}},{"attributes":{"ID":92648,"DIS_CODE":0,"TOWNNAME":"安南區","LI":"安和里","LIN":"10鄰","STREET":"安和路","SECT":"一段","MAREA":" ","LANE":"５２巷","ALLEY":"２１弄","HOUSE_NO":"６２號","E_COORD97":169577.53,"N_COORD97":2547597.48,"ADDRESS":"安和路一段５２巷２１弄６２號","OBJECTID":92648},"geometry":{"x":169577.53000000026,"y":2547597.4800000004}},{"attributes":{"ID":92649,"DIS_CODE":0,"TOWNNAME":"安南區","LI":"安和里","LIN":"10鄰","STREET":"安和路","SECT":"一段","MAREA":" ","LANE":"５２巷","ALLEY":"２１弄","HOUSE_NO":"６４號","E_COORD97":169574.82999999999,"N_COORD97":2547601.0899999999,"ADDRESS":"安和路一段５２巷２１弄６４號","OBJECTID":92649},"geometry":{"x":169574.83000000101,"y":2547601.0900000017}},{"attributes":{"ID":92650,"DIS_CODE":0,"TOWNNAME":"安南區","LI":"安和里","LIN":"10鄰","STREET":"安和路","SECT":"一段","MAREA":" ","LANE":"５２巷","ALLEY":"２１弄","HOUSE_NO":"６號","E_COORD97":169604.98999999999,"N_COORD97":2547548.8199999998,"ADDRESS":"安和路一段５２巷２１弄６號","OBJECTID":92650},"geometry":{"x":169604.99000000022,"y":2547548.8200000022}},{"attributes":{"ID":92651,"DIS_CODE":0,"TOWNNAME":"安南區","LI":"安和里","LIN":"10鄰","STREET":"安和路","SECT":"一段","MAREA":" ","LANE":"５２巷","ALLEY":"２１弄","HOUSE_NO":"７號","E_COORD97":169584.20999999999,"N_COORD97":2547534.6400000001,"ADDRESS":"安和路一段５２巷２１弄７號","OBJECTID":92651},"geometry":{"x":169584.20999999996,"y":2547534.6400000025}},{"attributes":{"ID":92652,"DIS_CODE":0,"TOWNNAME":"安定區","LI":"蘇林里","LIN":"10鄰","STREET":" ","SECT":" ","MAREA":"蘇厝","LANE":" ","ALLEY":" ","HOUSE_NO":"１１２號之１７","E_COORD97":173822.48000000001,"N_COORD97":2558811.2999999998,"ADDRESS":"蘇厝１１２號之１７","OBJECTID":92652},"geometry":{"x":173822.48000000045,"y":2558811.3000000007}},{"attributes":{"ID":92653,"DIS_CODE":0,"TOWNNAME":"安南區","LI":"安和里","LIN":"10鄰","STREET":"安和路","SECT":"一段","MAREA":" ","LANE":"５２巷","ALLEY":"２１弄","HOUSE_NO":"８號","E_COORD97":169609.29999999999,"N_COORD97":2547553.6299999999,"ADDRESS":"安和路一段５２巷２１弄８號","OBJECTID":92653},"geometry":{"x":169609.29999999981,"y":2547553.629999999}},{"attributes":{"ID":92654,"DIS_CODE":0,"TOWNNAME":"安定區","LI":"港口里","LIN":"10鄰","STREET":" ","SECT":" ","MAREA":"港口","LANE":" ","ALLEY":" ","HOUSE_NO":"３０４號之１","E_COORD97":171341.39000000001,"N_COORD97":2554712.2999999998,"ADDRESS":"港口３０４之１號","OBJECTID":92654},"geometry":{"x":171341.39000000153,"y":2554712.3000000007}},{"attributes":{"ID":92655,"DIS_CODE":0,"TOWNNAME":"安定區","LI":"蘇林里","LIN":"10鄰","STREET":" ","SECT":" ","MAREA":"蘇厝","LANE":" ","ALLEY":" ","HOUSE_NO":"１１２之３５號","E_COORD97":173842.57000000001,"N_COORD97":2558883.2999999998,"ADDRESS":"蘇厝１１２之３５號","OBJECTID":92655},"geometry":{"x":173842.5700000003,"y":2558883.3000000045}},{"attributes":{"ID":92656,"DIS_CODE":0,"TOWNNAME":"安定區","LI":"蘇林里","LIN":"10鄰","STREET":" ","SECT":" ","MAREA":"蘇厝","LANE":" ","ALLEY":" ","HOUSE_NO":"１１２號之３","E_COORD97":173766.14999999999,"N_COORD97":2558785.2999999998,"ADDRESS":"蘇厝１１２號之３","OBJECTID":92656},"geometry":{"x":173766.15000000224,"y":2558785.3000000026}},{"attributes":{"ID":92657,"DIS_CODE":0,"TOWNNAME":"安南區","LI":"安和里","LIN":"10鄰","STREET":"安和路","SECT":"一段","MAREA":" ","LANE":"５２巷","ALLEY":"２１弄","HOUSE_NO":"９號","E_COORD97":169583.45000000001,"N_COORD97":2547538.6899999999,"ADDRESS":"安和路一段５２巷２１弄９號","OBJECTID":92657},"geometry":{"x":169583.44999999925,"y":2547538.6900000013}},{"attributes":{"ID":92658,"DIS_CODE":0,"TOWNNAME":"安南區","LI":"安和里","LIN":"10鄰","STREET":"安和路","SECT":"一段","MAREA":" ","LANE":"５２巷","ALLEY":"２１弄","HOUSE_NO":"６０號","E_COORD97":169579.64000000001,"N_COORD97":2547593.5800000001,"ADDRESS":"安和路一段５２巷２１弄６０號","OBJECTID":92658},"geometry":{"x":169579.63999999966,"y":2547593.5799999982}},{"attributes":{"ID":92659,"DIS_CODE":0,"TOWNNAME":"安南區","LI":"安和里","LIN":"10鄰","STREET":"安和路","SECT":"一段","MAREA":" ","LANE":"５２巷","ALLEY":"２１弄","HOUSE_NO":"１９號","E_COORD97":169576.10000000001,"N_COORD97":2547560.46,"ADDRESS":"安和路一段５２巷２１弄１９號","OBJECTID":92659},"geometry":{"x":169576.09999999963,"y":2547560.4600000009}},{"attributes":{"ID":92660,"DIS_CODE":0,"TOWNNAME":"安南區","LI":"砂崙里","LIN":"10鄰","STREET":"青砂街","SECT":"一段","MAREA":" ","LANE":"６３３巷","ALLEY":"２０弄","HOUSE_NO":"５４號","E_COORD97":159879.29000000001,"N_COORD97":2552773.23,"ADDRESS":"青砂街一段６３３巷２０弄５４號","OBJECTID":92660},"geometry":{"x":159879.29000000004,"y":2552773.2300000004}},{"attributes":{"ID":92661,"DIS_CODE":0,"TOWNNAME":"安定區","LI":"港口里","LIN":"10鄰","STREET":" ","SECT":" ","MAREA":"港口","LANE":" ","ALLEY":" ","HOUSE_NO":"３０７號","E_COORD97":171345.79000000001,"N_COORD97":2554666.25,"ADDRESS":"港口３０７號","OBJECTID":92661},"geometry":{"x":171345.7900000019,"y":2554666.2500000019}},{"attributes":{"ID":92662,"DIS_CODE":0,"TOWNNAME":"安南區","LI":"溪北里","LIN":"10鄰","STREET":"府安路","SECT":"四段","MAREA":" ","LANE":"３４巷","ALLEY":"７弄","HOUSE_NO":"１１號","E_COORD97":169356.79000000001,"N_COORD97":2547320.02,"ADDRESS":"府安路四段３４巷７弄１１號","OBJECTID":92662},"geometry":{"x":169356.79000000004,"y":2547320.0200000014}},{"attributes":{"ID":92663,"DIS_CODE":0,"TOWNNAME":"安南區","LI":"幸福里","LIN":"10鄰","STREET":"國安街","SECT":" ","MAREA":" ","LANE":"１５５巷","ALLEY":"７３弄","HOUSE_NO":"１２號","E_COORD97":166840.25,"N_COORD97":2546758.25,"ADDRESS":"國安街１５５巷７３弄１２號","OBJECTID":92663},"geometry":{"x":166840.25000000186,"y":2546758.25}},{"attributes":{"ID":92664,"DIS_CODE":0,"TOWNNAME":"安定區","LI":"港南里","LIN":"10鄰","STREET":" ","SECT":" ","MAREA":"港口","LANE":" ","ALLEY":" ","HOUSE_NO":"７１號","E_COORD97":171377.64000000001,"N_COORD97":2554343.25,"ADDRESS":"港口７１號","OBJECTID":92664},"geometry":{"x":171377.6400000006,"y":2554343.2500000019}},{"attributes":{"ID":92665,"DIS_CODE":0,"TOWNNAME":"安定區","LI":"保西里","LIN":"10鄰","STREET":" ","SECT":" ","MAREA":"安定","LANE":" ","ALLEY":" ","HOUSE_NO":"４１５號","E_COORD97":171708.42000000001,"N_COORD97":2557860.3199999998,"ADDRESS":"安定４１５號","OBJECTID":92665},"geometry":{"x":171708.41999999993,"y":2557860.3200000003}},{"attributes":{"ID":92666,"DIS_CODE":0,"TOWNNAME":"安定區","LI":"港口里","LIN":"10鄰","STREET":" ","SECT":" ","MAREA":"港口","LANE":" ","ALLEY":" ","HOUSE_NO":"３０３號","E_COORD97":171306.48999999999,"N_COORD97":2554703.25,"ADDRESS":"港口３０３號","OBJECTID":92666},"geometry":{"x":171306.49000000022,"y":2554703.2500000019}},{"attributes":{"ID":92667,"DIS_CODE":0,"TOWNNAME":"中西區","LI":"民權里","LIN":" ","STREET":"康樂街","SECT":" ","MAREA":" ","LANE":" ","ALLEY":" ","HOUSE_NO":"３０７號","E_COORD97":167585.29999999999,"N_COORD97":2544282.1200000001,"ADDRESS":"康樂街３０７號","OBJECTID":92667},"geometry":{"x":167585.29999999981,"y":2544282.1200000048}},{"attributes":{"ID":92668,"DIS_CODE":0,"TOWNNAME":"中西區","LI":"民權里","LIN":" ","STREET":"民權路","SECT":"三段","MAREA":" ","LANE":" ","ALLEY":" ","HOUSE_NO":"１５３號","E_COORD97":167552.73000000001,"N_COORD97":2544205.5899999999,"ADDRESS":"民權路三段１５３號","OBJECTID":92668},"geometry":{"x":167552.73000000231,"y":2544205.5899999999}},{"attributes":{"ID":92669,"DIS_CODE":0,"TOWNNAME":"中西區","LI":"民權里","LIN":" ","STREET":"民權路","SECT":"三段","MAREA":" ","LANE":" ","ALLEY":" ","HOUSE_NO":"１９９號","E_COORD97":167469.98000000001,"N_COORD97":2544237.3500000001,"ADDRESS":"民權路三段１９９號","OBJECTID":92669},"geometry":{"x":167469.98000000138,"y":2544237.3499999996}},{"attributes":{"ID":92670,"DIS_CODE":0,"TOWNNAME":"中西區","LI":"民權里","LIN":" ","STREET":"民生路","SECT":"二段","MAREA":" ","LANE":" ","ALLEY":" ","HOUSE_NO":"１８０號","E_COORD97":167413.91,"N_COORD97":2544081.8100000001,"ADDRESS":"民生路二段１８０號","OBJECTID":92670},"geometry":{"x":167413.91000000201,"y":2544081.8100000024}},{"attributes":{"ID":92671,"DIS_CODE":0,"TOWNNAME":"新營區","LI":"中營里","LIN":"1鄰","STREET":"民族路","SECT":" ","MAREA":" ","LANE":" ","ALLEY":" ","HOUSE_NO":"５號","E_COORD97":180292.95000000001,"N_COORD97":2578303.3199999998,"ADDRESS":"民族路５號","OBJECTID":92671},"geometry":{"x":180292.95000000019,"y":2578303.3200000022}},{"attributes":{"ID":92672,"DIS_CODE":0,"TOWNNAME":"安南區","LI":"溪北里","LIN":"10鄰","STREET":"府安路","SECT":"四段","MAREA":" ","LANE":"３４巷","ALLEY":"４２弄","HOUSE_NO":"６號","E_COORD97":169370.41,"N_COORD97":2547413.9700000002,"ADDRESS":"府安路四段３４巷４２弄６號","OBJECTID":92672},"geometry":{"x":169370.41000000108,"y":2547413.9700000007}},{"attributes":{"ID":92673,"DIS_CODE":0,"TOWNNAME":"新市區","LI":"三舍里","LIN":"1鄰","STREET":" ","SECT":" ","MAREA":"三舍","LANE":" ","ALLEY":" ","HOUSE_NO":"２１號","E_COORD97":177773.09,"N_COORD97":2554347.75,"ADDRESS":"三舍２１號","OBJECTID":92673},"geometry":{"x":177773.08999999985,"y":2554347.7500000019}},{"attributes":{"ID":92674,"DIS_CODE":0,"TOWNNAME":"安南區","LI":"溪北里","LIN":"10鄰","STREET":"府安路","SECT":"四段","MAREA":" ","LANE":"３４巷","ALLEY":"７弄","HOUSE_NO":"１０號","E_COORD97":169352.14999999999,"N_COORD97":2547339.9900000002,"ADDRESS":"府安路四段３４巷７弄１０號","OBJECTID":92674},"geometry":{"x":169352.1500000013,"y":2547339.9900000002}},{"attributes":{"ID":92675,"DIS_CODE":0,"TOWNNAME":"安南區","LI":"溪北里","LIN":"10鄰","STREET":"府安路","SECT":"四段","MAREA":" ","LANE":"３４巷","ALLEY":"７弄","HOUSE_NO":"１２號","E_COORD97":169347.70000000001,"N_COORD97":2547339.1899999999,"ADDRESS":"府安路四段３４巷７弄１２號","OBJECTID":92675},"geometry":{"x":169347.70000000019,"y":2547339.1900000013}},{"attributes":{"ID":92676,"DIS_CODE":0,"TOWNNAME":"安南區","LI":"溪北里","LIN":"10鄰","STREET":"府安路","SECT":"四段","MAREA":" ","LANE":"３４巷","ALLEY":"７弄","HOUSE_NO":"１３號","E_COORD97":169351.37,"N_COORD97":2547318.3799999999,"ADDRESS":"府安路四段３４巷７弄１３號","OBJECTID":92676},"geometry":{"x":169351.37000000011,"y":2547318.379999999}},{"attributes":{"ID":92677,"DIS_CODE":0,"TOWNNAME":"安南區","LI":"溪北里","LIN":"10鄰","STREET":"府安路","SECT":"四段","MAREA":" ","LANE":"３４巷","ALLEY":"７弄","HOUSE_NO":"１４號","E_COORD97":169342.14999999999,"N_COORD97":2547338.2400000002,"ADDRESS":"府安路四段３４巷７弄１４號","OBJECTID":92677},"geometry":{"x":169342.1500000013,"y":2547338.2400000002}},{"attributes":{"ID":92678,"DIS_CODE":0,"TOWNNAME":"安南區","LI":"溪北里","LIN":"10鄰","STREET":"府安路","SECT":"四段","MAREA":" ","LANE":"３４巷","ALLEY":"７弄","HOUSE_NO":"１５號","E_COORD97":169347.09,"N_COORD97":2547318.1299999999,"ADDRESS":"府安路四段３４巷７弄１５號","OBJECTID":92678},"geometry":{"x":169347.09000000078,"y":2547318.1300000008}},{"attributes":{"ID":92679,"DIS_CODE":0,"TOWNNAME":"安南區","LI":"溪北里","LIN":"10鄰","STREET":"府安路","SECT":"四段","MAREA":" ","LANE":"３４巷","ALLEY":"７弄","HOUSE_NO":"１６號","E_COORD97":169339.13,"N_COORD97":2547337.1299999999,"ADDRESS":"府安路四段３４巷７弄１６號","OBJECTID":92679},"geometry":{"x":169339.12999999989,"y":2547337.129999999}},{"attributes":{"ID":92680,"DIS_CODE":0,"TOWNNAME":"安南區","LI":"溪北里","LIN":"10鄰","STREET":"府安路","SECT":"四段","MAREA":" ","LANE":"３４巷","ALLEY":"７弄","HOUSE_NO":"１８號","E_COORD97":169334.20999999999,"N_COORD97":2547336.6600000001,"ADDRESS":"府安路四段３４巷７弄１８號","OBJECTID":92680},"geometry":{"x":169334.21000000089,"y":2547336.660000002}},{"attributes":{"ID":92681,"DIS_CODE":0,"TOWNNAME":"安南區","LI":"溪北里","LIN":"10鄰","STREET":"府安路","SECT":"四段","MAREA":" ","LANE":"３４巷","ALLEY":"７弄","HOUSE_NO":"１９號","E_COORD97":169339.01999999999,"N_COORD97":2547317.75,"ADDRESS":"府安路四段３４巷７弄１９號","OBJECTID":92681},"geometry":{"x":169339.02000000048,"y":2547317.7499999981}},{"attributes":{"ID":92682,"DIS_CODE":0,"TOWNNAME":"安南區","LI":"溪北里","LIN":"10鄰","STREET":"府安路","SECT":"四段","MAREA":" ","LANE":"３４巷","ALLEY":"７弄","HOUSE_NO":"１號","E_COORD97":169378.09,"N_COORD97":2547324.04,"ADDRESS":"府安路四段３４巷７弄１號","OBJECTID":92682},"geometry":{"x":169378.08999999985,"y":2547324.0399999991}},{"attributes":{"ID":92683,"DIS_CODE":0,"TOWNNAME":"安南區","LI":"溪北里","LIN":"10鄰","STREET":"府安路","SECT":"四段","MAREA":" ","LANE":"３４巷","ALLEY":"７弄","HOUSE_NO":"２１號","E_COORD97":169331.20999999999,"N_COORD97":2547317.1200000001,"ADDRESS":"府安路四段３４巷７弄２１號","OBJECTID":92683},"geometry":{"x":169331.21000000089,"y":2547317.1200000029}},{"attributes":{"ID":92684,"DIS_CODE":0,"TOWNNAME":"安南區","LI":"溪北里","LIN":"10鄰","STREET":"府安路","SECT":"四段","MAREA":" ","LANE":"３４巷","ALLEY":"７弄","HOUSE_NO":"２２號","E_COORD97":169325.16,"N_COORD97":2547335.71,"ADDRESS":"府安路四段３４巷７弄２２號","OBJECTID":92684},"geometry":{"x":169325.16000000108,"y":2547335.7100000009}},{"attributes":{"ID":92685,"DIS_CODE":0,"TOWNNAME":"安南區","LI":"溪北里","LIN":"10鄰","STREET":"府安路","SECT":"四段","MAREA":" ","LANE":"３４巷","ALLEY":"７弄","HOUSE_NO":"２號","E_COORD97":169369.92000000001,"N_COORD97":2547343.6299999999,"ADDRESS":"府安路四段３４巷７弄２號","OBJECTID":92685},"geometry":{"x":169369.92000000179,"y":2547343.629999999}},{"attributes":{"ID":92686,"DIS_CODE":0,"TOWNNAME":"安南區","LI":"溪北里","LIN":"10鄰","STREET":"府安路","SECT":"四段","MAREA":" ","LANE":"３４巷","ALLEY":"７弄","HOUSE_NO":"５號","E_COORD97":169369.89999999999,"N_COORD97":2547322.4100000001,"ADDRESS":"府安路四段３４巷７弄５號","OBJECTID":92686},"geometry":{"x":169369.90000000037,"y":2547322.4100000001}},{"attributes":{"ID":92687,"DIS_CODE":0,"TOWNNAME":"安南區","LI":"溪北里","LIN":"10鄰","STREET":"府安路","SECT":"四段","MAREA":" ","LANE":"３４巷","ALLEY":"７弄","HOUSE_NO":"６號","E_COORD97":169361.19,"N_COORD97":2547343.1600000001,"ADDRESS":"府安路四段３４巷７弄６號","OBJECTID":92687},"geometry":{"x":169361.19000000041,"y":2547343.160000002}},{"attributes":{"ID":92688,"DIS_CODE":0,"TOWNNAME":"安南區","LI":"溪北里","LIN":"10鄰","STREET":"府安路","SECT":"四段","MAREA":" ","LANE":"３４巷","ALLEY":"７弄","HOUSE_NO":"８號","E_COORD97":169355.39999999999,"N_COORD97":2547340.9399999999,"ADDRESS":"府安路四段３４巷７弄８號","OBJECTID":92688},"geometry":{"x":169355.4000000013,"y":2547340.9400000013}},{"attributes":{"ID":92689,"DIS_CODE":0,"TOWNNAME":"安南區","LI":"溪北里","LIN":"10鄰","STREET":"府安路","SECT":"四段","MAREA":" ","LANE":"３４巷","ALLEY":"７弄","HOUSE_NO":"９號","E_COORD97":169360.95000000001,"N_COORD97":2547320.02,"ADDRESS":"府安路四段３４巷７弄９號","OBJECTID":92689},"geometry":{"x":169360.95000000019,"y":2547320.0200000014}},{"attributes":{"ID":92690,"DIS_CODE":0,"TOWNNAME":"東區","LI":"仁和里","LIN":"10鄰","STREET":"仁和路","SECT":" ","MAREA":" ","LANE":"１３９巷","ALLEY":"７弄","HOUSE_NO":"１０號","E_COORD97":171570.48000000001,"N_COORD97":2541124.3500000001,"ADDRESS":"仁和路１３９巷７弄１０號","OBJECTID":92690},"geometry":{"x":171570.48000000231,"y":2541124.3500000015}},{"attributes":{"ID":92691,"DIS_CODE":0,"TOWNNAME":"歸仁區","LI":"大廟里","LIN":"15鄰","STREET":"大廟五街","SECT":" ","MAREA":" ","LANE":" ","ALLEY":" ","HOUSE_NO":"１２０號","E_COORD97":176069.48000000001,"N_COORD97":2544432.5299999998,"ADDRESS":"大廟五街１２０號","OBJECTID":92691},"geometry":{"x":176069.48000000231,"y":2544432.5299999993}},{"attributes":{"ID":92692,"DIS_CODE":0,"TOWNNAME":"中西區","LI":"民權里","LIN":" ","STREET":"康樂街","SECT":" ","MAREA":" ","LANE":" ","ALLEY":" ","HOUSE_NO":"２５５號","E_COORD97":167517.64999999999,"N_COORD97":2544091.8799999999,"ADDRESS":"康樂街２５５號","OBJECTID":92692},"geometry":{"x":167517.65000000224,"y":2544091.8800000027}},{"attributes":{"ID":92693,"DIS_CODE":0,"TOWNNAME":"中西區","LI":"民權里","LIN":" ","STREET":"和平街","SECT":" ","MAREA":" ","LANE":" ","ALLEY":" ","HOUSE_NO":"９０號","E_COORD97":167571.67999999999,"N_COORD97":2544170.2200000002,"ADDRESS":"和平街９０號","OBJECTID":92693},"geometry":{"x":167571.68000000063,"y":2544170.2200000025}},{"attributes":{"ID":92694,"DIS_CODE":0,"TOWNNAME":"安定區","LI":"保西里","LIN":"10鄰","STREET":" ","SECT":" ","MAREA":"安定","LANE":" ","ALLEY":" ","HOUSE_NO":"４１０號之１","E_COORD97":171762.95000000001,"N_COORD97":2557858.3199999998,"ADDRESS":"安定４１０號之１","OBJECTID":92694},"geometry":{"x":171762.95000000019,"y":2557858.3199999984}},{"attributes":{"ID":92695,"DIS_CODE":0,"TOWNNAME":"關廟區","LI":"東勢里","LIN":"15鄰","STREET":"東興路","SECT":" ","MAREA":" ","LANE":" ","ALLEY":" ","HOUSE_NO":"１８０號","E_COORD97":181605.67000000001,"N_COORD97":2539551.25,"ADDRESS":"東興路１８０號","OBJECTID":92695},"geometry":{"x":181605.66999999899,"y":2539551.2500000019}},{"attributes":{"ID":92696,"DIS_CODE":0,"TOWNNAME":"關廟區","LI":"五甲里","LIN":"15鄰","STREET":"東興一街","SECT":" ","MAREA":" ","LANE":" ","ALLEY":" ","HOUSE_NO":"６２號","E_COORD97":181263.67000000001,"N_COORD97":2539479.25,"ADDRESS":"東興一街６２號","OBJECTID":92696},"geometry":{"x":181263.67000000086,"y":2539479.2499999981}},{"attributes":{"ID":92697,"DIS_CODE":0,"TOWNNAME":"關廟區","LI":"五甲里","LIN":"15鄰","STREET":"東興二街","SECT":" ","MAREA":" ","LANE":" ","ALLEY":" ","HOUSE_NO":"１０６號","E_COORD97":181309.12,"N_COORD97":2539432.25,"ADDRESS":"東興二街１０６號","OBJECTID":92697},"geometry":{"x":181309.12000000011,"y":2539432.2500000037}},{"attributes":{"ID":92698,"DIS_CODE":0,"TOWNNAME":"安定區","LI":"安定里","LIN":"10鄰","STREET":" ","SECT":" ","MAREA":"安定","LANE":" ","ALLEY":" ","HOUSE_NO":"９６號之１７","E_COORD97":172124.92999999999,"N_COORD97":2557758.3199999998,"ADDRESS":"安定９６號之１７","OBJECTID":92698},"geometry":{"x":172124.93000000063,"y":2557758.3200000022}},{"attributes":{"ID":92699,"DIS_CODE":0,"TOWNNAME":"安定區","LI":"蘇林里","LIN":"10鄰","STREET":" ","SECT":" ","MAREA":"蘇厝","LANE":" ","ALLEY":" ","HOUSE_NO":"１１２之２６號","E_COORD97":173819.37,"N_COORD97":2558775.2999999998,"ADDRESS":"蘇厝１１２之２６號","OBJECTID":92699},"geometry":{"x":173819.37000000104,"y":2558775.3000000026}},{"attributes":{"ID":92700,"DIS_CODE":0,"TOWNNAME":"安定區","LI":"蘇林里","LIN":"10鄰","STREET":" ","SECT":" ","MAREA":"蘇厝","LANE":" ","ALLEY":" ","HOUSE_NO":"１１１號之１７","E_COORD97":173746.98000000001,"N_COORD97":2558883.2999999998,"ADDRESS":"蘇厝１１１號之１７","OBJECTID":92700},"geometry":{"x":173746.98000000231,"y":2558883.3000000045}},{"attributes":{"ID":92701,"DIS_CODE":0,"TOWNNAME":"安定區","LI":"港口里","LIN":"10鄰","STREET":" ","SECT":" ","MAREA":"港口","LANE":" ","ALLEY":" ","HOUSE_NO":"３０６之４號","E_COORD97":171375.48999999999,"N_COORD97":2554653.2999999998,"ADDRESS":"港口３０６之４號","OBJECTID":92701},"geometry":{"x":171375.49000000115,"y":2554653.3000000026}},{"attributes":{"ID":92702,"DIS_CODE":0,"TOWNNAME":"安定區","LI":"港口里","LIN":"10鄰","STREET":" ","SECT":" ","MAREA":"港口","LANE":" ","ALLEY":" ","HOUSE_NO":"３０８之２號","E_COORD97":171354.89000000001,"N_COORD97":2554636.2999999998,"ADDRESS":"港口３０８之２號","OBJECTID":92702},"geometry":{"x":171354.89000000153,"y":2554636.3000000026}},{"attributes":{"ID":92703,"DIS_CODE":0,"TOWNNAME":"安定區","LI":"保西里","LIN":"10鄰","STREET":" ","SECT":" ","MAREA":"安定","LANE":" ","ALLEY":" ","HOUSE_NO":"４１６之５號","E_COORD97":171716.92000000001,"N_COORD97":2557887.3199999998,"ADDRESS":"安定４１６之５號","OBJECTID":92703},"geometry":{"x":171716.91999999993,"y":2557887.3200000022}},{"attributes":{"ID":92704,"DIS_CODE":0,"TOWNNAME":"安定區","LI":"蘇林里","LIN":"10鄰","STREET":" ","SECT":" ","MAREA":"蘇厝","LANE":" ","ALLEY":" ","HOUSE_NO":"１１１之２１號","E_COORD97":173704.97,"N_COORD97":2558851.2999999998,"ADDRESS":"蘇厝１１１之２１號","OBJECTID":92704},"geometry":{"x":173704.96999999974,"y":2558851.3000000007}},{"attributes":{"ID":92705,"DIS_CODE":0,"TOWNNAME":"安定區","LI":"港南里","LIN":"10鄰","STREET":" ","SECT":" ","MAREA":"港口","LANE":" ","ALLEY":" ","HOUSE_NO":"６９號之５","E_COORD97":171389.23999999999,"N_COORD97":2554397.2999999998,"ADDRESS":"港口６９之５號","OBJECTID":92705},"geometry":{"x":171389.24000000115,"y":2554397.2999999989}},{"attributes":{"ID":92706,"DIS_CODE":0,"TOWNNAME":"安定區","LI":"蘇林里","LIN":"10鄰","STREET":" ","SECT":" ","MAREA":"蘇厝","LANE":" ","ALLEY":" ","HOUSE_NO":"１１２號之１６","E_COORD97":173823.10999999999,"N_COORD97":2558807.2999999998,"ADDRESS":"蘇厝１１２號之１６","OBJECTID":92706},"geometry":{"x":173823.11000000127,"y":2558807.3000000007}},{"attributes":{"ID":92707,"DIS_CODE":0,"TOWNNAME":"安定區","LI":"蘇林里","LIN":"10鄰","STREET":" ","SECT":" ","MAREA":"蘇厝","LANE":" ","ALLEY":" ","HOUSE_NO":"１１１之２０號","E_COORD97":173704.37,"N_COORD97":2558856.2999999998,"ADDRESS":"蘇厝１１１之２０號","OBJECTID":92707},"geometry":{"x":173704.37000000011,"y":2558856.3000000026}},{"attributes":{"ID":92708,"DIS_CODE":0,"TOWNNAME":"安定區","LI":"港口里","LIN":"10鄰","STREET":" ","SECT":" ","MAREA":"港口","LANE":" ","ALLEY":" ","HOUSE_NO":"３０６號","E_COORD97":171351.48999999999,"N_COORD97":2554695.25,"ADDRESS":"港口３０６號","OBJECTID":92708},"geometry":{"x":171351.49000000209,"y":2554695.2499999981}},{"attributes":{"ID":92709,"DIS_CODE":0,"TOWNNAME":"安定區","LI":"保西里","LIN":"10鄰","STREET":" ","SECT":" ","MAREA":"安定","LANE":" ","ALLEY":" ","HOUSE_NO":"４１６之２號","E_COORD97":171708.72,"N_COORD97":2557888.3199999998,"ADDRESS":"安定４１６之２號","OBJECTID":92709},"geometry":{"x":171708.7200000016,"y":2557888.3200000003}},{"attributes":{"ID":92710,"DIS_CODE":0,"TOWNNAME":"安定區","LI":"蘇林里","LIN":"10鄰","STREET":" ","SECT":" ","MAREA":"蘇厝","LANE":" ","ALLEY":" ","HOUSE_NO":"１１６號","E_COORD97":173645.72,"N_COORD97":2558860.25,"ADDRESS":"蘇厝１１６號","OBJECTID":92710},"geometry":{"x":173645.71999999974,"y":2558860.2500000019}},{"attributes":{"ID":92711,"DIS_CODE":0,"TOWNNAME":"東區","LI":"仁和里","LIN":"10鄰","STREET":"仁和路","SECT":" ","MAREA":" ","LANE":"１３９巷","ALLEY":"７弄","HOUSE_NO":"１１號","E_COORD97":171548.66,"N_COORD97":2541121.4500000002,"ADDRESS":"仁和路１３９巷７弄１１號","OBJECTID":92711},"geometry":{"x":171548.66000000108,"y":2541121.4499999974}},{"attributes":{"ID":92712,"DIS_CODE":0,"TOWNNAME":"安定區","LI":"蘇林里","LIN":"10鄰","STREET":" ","SECT":" ","MAREA":"蘇厝","LANE":" ","ALLEY":" ","HOUSE_NO":"１１２之５號","E_COORD97":173818.01999999999,"N_COORD97":2558860.2999999998,"ADDRESS":"蘇厝１１２之５號","OBJECTID":92712},"geometry":{"x":173818.01999999955,"y":2558860.3000000026}},{"attributes":{"ID":92713,"DIS_CODE":0,"TOWNNAME":"東區","LI":"仁和里","LIN":"10鄰","STREET":"仁和路","SECT":" ","MAREA":" ","LANE":"１３９巷","ALLEY":"７弄","HOUSE_NO":"１２號","E_COORD97":171569.51000000001,"N_COORD97":2541128.71,"ADDRESS":"仁和路１３９巷７弄１２號","OBJECTID":92713},"geometry":{"x":171569.51000000164,"y":2541128.7100000028}},{"attributes":{"ID":92714,"DIS_CODE":0,"TOWNNAME":"東區","LI":"仁和里","LIN":"10鄰","STREET":"仁和路","SECT":" ","MAREA":" ","LANE":"１３９巷","ALLEY":"７弄","HOUSE_NO":"１３號","E_COORD97":171547.45000000001,"N_COORD97":2541124.1099999999,"ADDRESS":"仁和路１３９巷７弄１３號","OBJECTID":92714},"geometry":{"x":171547.45000000019,"y":2541124.1100000031}},{"attributes":{"ID":92715,"DIS_CODE":0,"TOWNNAME":"東區","LI":"仁和里","LIN":"10鄰","STREET":"仁和路","SECT":" ","MAREA":" ","LANE":"１３９巷","ALLEY":"７弄","HOUSE_NO":"１４號","E_COORD97":171568.54000000001,"N_COORD97":2541132.5899999999,"ADDRESS":"仁和路１３９巷７弄１４號","OBJECTID":92715},"geometry":{"x":171568.54000000097,"y":2541132.5900000017}},{"attributes":{"ID":92716,"DIS_CODE":0,"TOWNNAME":"安定區","LI":"保西里","LIN":"10鄰","STREET":" ","SECT":" ","MAREA":"安定","LANE":" ","ALLEY":" ","HOUSE_NO":"４１６之１號","E_COORD97":171704.51999999999,"N_COORD97":2557889.3199999998,"ADDRESS":"安定４１６之１號","OBJECTID":92716},"geometry":{"x":171704.51999999955,"y":2557889.3200000022}},{"attributes":{"ID":92717,"DIS_CODE":0,"TOWNNAME":"東區","LI":"仁和里","LIN":"10鄰","STREET":"仁和路","SECT":" ","MAREA":" ","LANE":"１３９巷","ALLEY":"７弄","HOUSE_NO":"１５號","E_COORD97":171545.98999999999,"N_COORD97":2541128.23,"ADDRESS":"仁和路１３９巷７弄１５號","OBJECTID":92717},"geometry":{"x":171545.99000000022,"y":2541128.2300000023}},{"attributes":{"ID":92718,"DIS_CODE":0,"TOWNNAME":"東區","LI":"仁和里","LIN":"10鄰","STREET":"仁和路","SECT":" ","MAREA":" ","LANE":"１３９巷","ALLEY":"７弄","HOUSE_NO":"１７號","E_COORD97":171544.54000000001,"N_COORD97":2541132.5899999999,"ADDRESS":"仁和路１３９巷７弄１７號","OBJECTID":92718},"geometry":{"x":171544.54000000097,"y":2541132.5900000017}},{"attributes":{"ID":92719,"DIS_CODE":0,"TOWNNAME":"東區","LI":"仁和里","LIN":"10鄰","STREET":"仁和路","SECT":" ","MAREA":" ","LANE":"１３９巷","ALLEY":"７弄","HOUSE_NO":"１８號","E_COORD97":171566.10999999999,"N_COORD97":2541139.6099999999,"ADDRESS":"仁和路１３９巷７弄１８號","OBJECTID":92719},"geometry":{"x":171566.1100000022,"y":2541139.6099999994}},{"attributes":{"ID":92720,"DIS_CODE":0,"TOWNNAME":"安定區","LI":"港南里","LIN":"10鄰","STREET":" ","SECT":" ","MAREA":"港口","LANE":" ","ALLEY":" ","HOUSE_NO":"７７號","E_COORD97":171349.04000000001,"N_COORD97":2554367.25,"ADDRESS":"港口７７號","OBJECTID":92720},"geometry":{"x":171349.03999999911,"y":2554367.2500000019}},{"attributes":{"ID":92721,"DIS_CODE":0,"TOWNNAME":"東區","LI":"仁和里","LIN":"10鄰","STREET":"仁和路","SECT":" ","MAREA":" ","LANE":"１３９巷","ALLEY":"７弄","HOUSE_NO":"２０號","E_COORD97":171564.66,"N_COORD97":2541144.21,"ADDRESS":"仁和路１３９巷７弄２０號","OBJECTID":92721},"geometry":{"x":171564.66000000015,"y":2541144.2100000009}},{"attributes":{"ID":92722,"DIS_CODE":0,"TOWNNAME":"安定區","LI":"安定里","LIN":"10鄰","STREET":" ","SECT":" ","MAREA":"安定","LANE":" ","ALLEY":" ","HOUSE_NO":"９６號之１１","E_COORD97":172123.64999999999,"N_COORD97":2557732.3199999998,"ADDRESS":"安定９６號之１１","OBJECTID":92722},"geometry":{"x":172123.6500000013,"y":2557732.3200000003}},{"attributes":{"ID":92723,"DIS_CODE":0,"TOWNNAME":"安定區","LI":"蘇林里","LIN":"10鄰","STREET":" ","SECT":" ","MAREA":"蘇厝","LANE":" ","ALLEY":" ","HOUSE_NO":"１１２之２０號","E_COORD97":173892.26999999999,"N_COORD97":2559010.2999999998,"ADDRESS":"蘇厝１１２之２０號","OBJECTID":92723},"geometry":{"x":173892.27000000048,"y":2559010.3000000007}},{"attributes":{"ID":92724,"DIS_CODE":0,"TOWNNAME":"安定區","LI":"保西里","LIN":"10鄰","STREET":" ","SECT":" ","MAREA":"安定","LANE":" ","ALLEY":" ","HOUSE_NO":"４２３號之１","E_COORD97":171667.64999999999,"N_COORD97":2557861.3199999998,"ADDRESS":"安定４２３號之１","OBJECTID":92724},"geometry":{"x":171667.6500000013,"y":2557861.3200000003}},{"attributes":{"ID":92725,"DIS_CODE":0,"TOWNNAME":"安定區","LI":"蘇林里","LIN":"10鄰","STREET":" ","SECT":" ","MAREA":"蘇厝","LANE":" ","ALLEY":" ","HOUSE_NO":"１１２號之１５","E_COORD97":173823.45999999999,"N_COORD97":2558802.2999999998,"ADDRESS":"蘇厝１１２號之１５","OBJECTID":92725},"geometry":{"x":173823.46000000089,"y":2558802.3000000026}},{"attributes":{"ID":92726,"DIS_CODE":0,"TOWNNAME":"安定區","LI":"保西里","LIN":"10鄰","STREET":" ","SECT":" ","MAREA":"安定","LANE":" ","ALLEY":" ","HOUSE_NO":"４２２號","E_COORD97":171665.51999999999,"N_COORD97":2557844.3199999998,"ADDRESS":"安定４２２號","OBJECTID":92726},"geometry":{"x":171665.51999999955,"y":2557844.3200000003}},{"attributes":{"ID":92727,"DIS_CODE":0,"TOWNNAME":"東區","LI":"仁和里","LIN":"10鄰","STREET":"仁和路","SECT":" ","MAREA":" ","LANE":"１３９巷","ALLEY":"７弄","HOUSE_NO":"２號","E_COORD97":171575.57000000001,"N_COORD97":2541108.1299999999,"ADDRESS":"仁和路１３９巷７弄２號","OBJECTID":92727},"geometry":{"x":171575.5700000003,"y":2541108.1300000008}},{"attributes":{"ID":92728,"DIS_CODE":0,"TOWNNAME":"安定區","LI":"管寮里","LIN":"10鄰","STREET":" ","SECT":" ","MAREA":"管寮","LANE":" ","ALLEY":" ","HOUSE_NO":"９４號","E_COORD97":169876.34,"N_COORD97":2556438.25,"ADDRESS":"管寮９４號","OBJECTID":92728},"geometry":{"x":169876.34000000078,"y":2556438.2500000037}},{"attributes":{"ID":92729,"DIS_CODE":0,"TOWNNAME":"安定區","LI":"保西里","LIN":"10鄰","STREET":" ","SECT":" ","MAREA":"安定","LANE":" ","ALLEY":" ","HOUSE_NO":"４１０號之２","E_COORD97":171762.02737200001,"N_COORD97":2557854.9850900001,"ADDRESS":"安定４１０號之２","OBJECTID":92729},"geometry":{"x":171762.02737200074,"y":2557854.9850900024}},{"attributes":{"ID":92730,"DIS_CODE":0,"TOWNNAME":"東區","LI":"仁和里","LIN":"10鄰","STREET":"仁和路","SECT":" ","MAREA":" ","LANE":"１３９巷","ALLEY":"７弄","HOUSE_NO":"３號","E_COORD97":171553.98999999999,"N_COORD97":2541104.0099999998,"ADDRESS":"仁和路１３９巷７弄３號","OBJECTID":92730},"geometry":{"x":171553.99000000022,"y":2541104.0099999998}},{"attributes":{"ID":92731,"DIS_CODE":0,"TOWNNAME":"關廟區","LI":"北勢里","LIN":"15鄰","STREET":"成功路","SECT":" ","MAREA":" ","LANE":" ","ALLEY":" ","HOUSE_NO":"３２２號","E_COORD97":181315.87,"N_COORD97":2540510.27,"ADDRESS":"成功路３２２號","OBJECTID":92731},"geometry":{"x":181315.87000000011,"y":2540510.2700000014}},{"attributes":{"ID":92732,"DIS_CODE":0,"TOWNNAME":"關廟區","LI":"香洋里","LIN":"15鄰","STREET":"中央路","SECT":" ","MAREA":" ","LANE":" ","ALLEY":" ","HOUSE_NO":"１９８號","E_COORD97":181307.76000000001,"N_COORD97":2540057.3199999998,"ADDRESS":"中央路１９８號","OBJECTID":92732},"geometry":{"x":181307.75999999978,"y":2540057.3200000022}},{"attributes":{"ID":92733,"DIS_CODE":0,"TOWNNAME":"中西區","LI":"民權里","LIN":" ","STREET":"和平街","SECT":" ","MAREA":" ","LANE":" ","ALLEY":" ","HOUSE_NO":"１５７號","E_COORD97":167429.14999999999,"N_COORD97":2544118.1200000001,"ADDRESS":"和平街１５７號","OBJECTID":92733},"geometry":{"x":167429.15000000037,"y":2544118.120000001}},{"attributes":{"ID":92734,"DIS_CODE":0,"TOWNNAME":"中西區","LI":"民權里","LIN":"4鄰","STREET":"忠明街","SECT":" ","MAREA":" ","LANE":" ","ALLEY":" ","HOUSE_NO":"４５號","E_COORD97":167574.740949,"N_COORD97":2544102.8233400001,"ADDRESS":"忠明街４５號","OBJECTID":92734},"geometry":{"x":167574.74094900023,"y":2544102.8233430013}},{"attributes":{"ID":92735,"DIS_CODE":0,"TOWNNAME":"中西區","LI":"民權里","LIN":" ","STREET":"忠明街","SECT":" ","MAREA":" ","LANE":" ","ALLEY":" ","HOUSE_NO":"３３號之２","E_COORD97":167623.39999999999,"N_COORD97":2544081.79,"ADDRESS":"忠明街３３號之２","OBJECTID":92735},"geometry":{"x":167623.4000000013,"y":2544081.7899999991}},{"attributes":{"ID":92736,"DIS_CODE":0,"TOWNNAME":"中西區","LI":"民權里","LIN":" ","STREET":"忠明街","SECT":" ","MAREA":" ","LANE":" ","ALLEY":" ","HOUSE_NO":"３３號之３","E_COORD97":167625.01999999999,"N_COORD97":2544081.3599999999,"ADDRESS":"忠明街３３號之３","OBJECTID":92736},"geometry":{"x":167625.02000000048,"y":2544081.3599999994}},{"attributes":{"ID":92737,"DIS_CODE":0,"TOWNNAME":"安定區","LI":"安定里","LIN":"10鄰","STREET":" ","SECT":" ","MAREA":"安定","LANE":" ","ALLEY":" ","HOUSE_NO":"９６之１６號","E_COORD97":172124.66,"N_COORD97":2557753.3199999998,"ADDRESS":"安定９６號之１６","OBJECTID":92737},"geometry":{"x":172124.66000000015,"y":2557753.320000004}},{"attributes":{"ID":92738,"DIS_CODE":0,"TOWNNAME":"安定區","LI":"蘇林里","LIN":"10鄰","STREET":" ","SECT":" ","MAREA":"蘇厝","LANE":" ","ALLEY":" ","HOUSE_NO":"１１２號之１９","E_COORD97":173821.48999999999,"N_COORD97":2558820.2999999998,"ADDRESS":"蘇厝１１２號之１９","OBJECTID":92738},"geometry":{"x":173821.49000000115,"y":2558820.3000000026}},{"attributes":{"ID":92739,"DIS_CODE":0,"TOWNNAME":"安定區","LI":"蘇林里","LIN":"10鄰","STREET":" ","SECT":" ","MAREA":"蘇厝","LANE":" ","ALLEY":" ","HOUSE_NO":"１１２之２７號","E_COORD97":173814.17000000001,"N_COORD97":2558774.2999999998,"ADDRESS":"蘇厝１１２之２７號","OBJECTID":92739},"geometry":{"x":173814.16999999993,"y":2558774.2999999989}},{"attributes":{"ID":92740,"DIS_CODE":0,"TOWNNAME":"安定區","LI":"保西里","LIN":"10鄰","STREET":" ","SECT":" ","MAREA":"安定","LANE":" ","ALLEY":" ","HOUSE_NO":"４２３號之３","E_COORD97":171668.95000000001,"N_COORD97":2557853.3199999998,"ADDRESS":"安定４２３號之３","OBJECTID":92740},"geometry":{"x":171668.95000000112,"y":2557853.3200000022}},{"attributes":{"ID":92741,"DIS_CODE":0,"TOWNNAME":"安定區","LI":"安定里","LIN":"10鄰","STREET":" ","SECT":" ","MAREA":"安定","LANE":" ","ALLEY":" ","HOUSE_NO":"９６號之１８","E_COORD97":172125.39999999999,"N_COORD97":2557762.3199999998,"ADDRESS":"安定９６號之１８","OBJECTID":92741},"geometry":{"x":172125.4000000013,"y":2557762.3200000003}},{"attributes":{"ID":92742,"DIS_CODE":0,"TOWNNAME":"安定區","LI":"蘇林里","LIN":"10鄰","STREET":" ","SECT":" ","MAREA":"蘇厝","LANE":" ","ALLEY":" ","HOUSE_NO":"１１２之３０號","E_COORD97":174063.67000000001,"N_COORD97":2559005.2999999998,"ADDRESS":"蘇厝１１２之３０號","OBJECTID":92742},"geometry":{"x":174063.66999999993,"y":2559005.3000000045}},{"attributes":{"ID":92743,"DIS_CODE":0,"TOWNNAME":"安定區","LI":"安定里","LIN":"10鄰","STREET":" ","SECT":" ","MAREA":"安定","LANE":" ","ALLEY":" ","HOUSE_NO":"９６號之１５","E_COORD97":172124.70999999999,"N_COORD97":2557749.3199999998,"ADDRESS":"安定９６號之１５","OBJECTID":92743},"geometry":{"x":172124.71000000089,"y":2557749.3200000003}},{"attributes":{"ID":92744,"DIS_CODE":0,"TOWNNAME":"安定區","LI":"港口里","LIN":"10鄰","STREET":" ","SECT":" ","MAREA":"港口","LANE":" ","ALLEY":" ","HOUSE_NO":"３０５號之２","E_COORD97":171343.95999999999,"N_COORD97":2554708.2999999998,"ADDRESS":"港口３０５號之２","OBJECTID":92744},"geometry":{"x":171343.95999999996,"y":2554708.3000000007}},{"attributes":{"ID":92745,"DIS_CODE":0,"TOWNNAME":"東區","LI":"仁和里","LIN":"10鄰","STREET":"仁和路","SECT":" ","MAREA":" ","LANE":"１３９巷","ALLEY":"７弄","HOUSE_NO":"４號","E_COORD97":171574.60000000001,"N_COORD97":2541112,"ADDRESS":"仁和路１３９巷７弄４號","OBJECTID":92745},"geometry":{"x":171574.60000000056,"y":2541112.0000000037}},{"attributes":{"ID":92746,"DIS_CODE":0,"TOWNNAME":"東區","LI":"仁和里","LIN":"10鄰","STREET":"仁和路","SECT":" ","MAREA":" ","LANE":"１３９巷","ALLEY":"７弄","HOUSE_NO":"５號","E_COORD97":171552.04999999999,"N_COORD97":2541108.1299999999,"ADDRESS":"仁和路１３９巷７弄５號","OBJECTID":92746},"geometry":{"x":171552.04999999981,"y":2541108.1300000008}},{"attributes":{"ID":92747,"DIS_CODE":0,"TOWNNAME":"東區","LI":"仁和里","LIN":"10鄰","STREET":"仁和路","SECT":" ","MAREA":" ","LANE":"１３９巷","ALLEY":"７弄","HOUSE_NO":"６號","E_COORD97":171573.63,"N_COORD97":2541115.6299999999,"ADDRESS":"仁和路１３９巷７弄６號","OBJECTID":92747},"geometry":{"x":171573.62999999989,"y":2541115.629999999}},{"attributes":{"ID":92748,"DIS_CODE":0,"TOWNNAME":"東區","LI":"仁和里","LIN":"10鄰","STREET":"仁和路","SECT":" ","MAREA":" ","LANE":"１３９巷","ALLEY":"７弄","HOUSE_NO":"７號","E_COORD97":171551.07999999999,"N_COORD97":2541112,"ADDRESS":"仁和路１３９巷７弄７號","OBJECTID":92748},"geometry":{"x":171551.08000000101,"y":2541112.0000000037}},{"attributes":{"ID":92749,"DIS_CODE":0,"TOWNNAME":"東區","LI":"仁和里","LIN":"10鄰","STREET":"仁和路","SECT":" ","MAREA":" ","LANE":"１３９巷","ALLEY":"７弄","HOUSE_NO":"９號","E_COORD97":171550.35999999999,"N_COORD97":2541116.3599999999,"ADDRESS":"仁和路１３９巷７弄９號","OBJECTID":92749},"geometry":{"x":171550.36000000034,"y":2541116.3600000013}},{"attributes":{"ID":92750,"DIS_CODE":0,"TOWNNAME":"東區","LI":"仁和里","LIN":"10鄰","STREET":"仁和路","SECT":" ","MAREA":" ","LANE":"１３９巷","ALLEY":"７弄","HOUSE_NO":"１９號","E_COORD97":171543.07999999999,"N_COORD97":2541136.71,"ADDRESS":"仁和路１３９巷７弄１９號","OBJECTID":92750},"geometry":{"x":171543.08000000007,"y":2541136.7100000028}},{"attributes":{"ID":92751,"DIS_CODE":0,"TOWNNAME":"東區","LI":"仁和里","LIN":"10鄰","STREET":"仁和路","SECT":" ","MAREA":" ","LANE":"１３９巷","ALLEY":"７弄","HOUSE_NO":"８號","E_COORD97":171572.42000000001,"N_COORD97":2541119.9900000002,"ADDRESS":"仁和路１３９巷７弄８號","OBJECTID":92751},"geometry":{"x":171572.42000000086,"y":2541119.9900000021}},{"attributes":{"ID":92752,"DIS_CODE":0,"TOWNNAME":"東區","LI":"仁和里","LIN":"10鄰","STREET":"仁和路","SECT":" ","MAREA":" ","LANE":"１３９巷","ALLEY":"７弄","HOUSE_NO":"１６號","E_COORD97":171566.84,"N_COORD97":2541136.2200000002,"ADDRESS":"仁和路１３９巷７弄１６號","OBJECTID":92752},"geometry":{"x":171566.83999999985,"y":2541136.2200000025}},{"attributes":{"ID":92753,"DIS_CODE":0,"TOWNNAME":"東區","LI":"自強里","LIN":"3鄰","STREET":"東門路","SECT":"三段","MAREA":" ","LANE":"３７巷","ALLEY":"６弄","HOUSE_NO":"３６號之９","E_COORD97":171378.60999999999,"N_COORD97":2542313.6800000002,"ADDRESS":"東門路三段３７巷６弄３６號之９","OBJECTID":92753},"geometry":{"x":171378.61000000127,"y":2542313.6799999997}},{"attributes":{"ID":92754,"DIS_CODE":0,"TOWNNAME":"東區","LI":"新東里","LIN":"10鄰","STREET":"衛國街","SECT":" ","MAREA":" ","LANE":"１０６巷","ALLEY":"４５弄","HOUSE_NO":"１０號","E_COORD97":170431.64999999999,"N_COORD97":2542938.3300000001,"ADDRESS":"衛國街１０６巷４５弄１０號","OBJECTID":92754},"geometry":{"x":170431.65000000224,"y":2542938.3300000019}},{"attributes":{"ID":92755,"DIS_CODE":0,"TOWNNAME":"東區","LI":"新東里","LIN":"10鄰","STREET":"衛國街","SECT":" ","MAREA":" ","LANE":"１０６巷","ALLEY":"４５弄","HOUSE_NO":"１３號","E_COORD97":170458.28,"N_COORD97":2542960.8199999998,"ADDRESS":"衛國街１０６巷４５弄１３號","OBJECTID":92755},"geometry":{"x":170458.28000000119,"y":2542960.8200000003}},{"attributes":{"ID":92756,"DIS_CODE":0,"TOWNNAME":"東區","LI":"新東里","LIN":"10鄰","STREET":"衛國街","SECT":" ","MAREA":" ","LANE":"１０６巷","ALLEY":"４５弄","HOUSE_NO":"１４號","E_COORD97":170445.04000000001,"N_COORD97":2542940.2400000002,"ADDRESS":"衛國街１０６巷４５弄１４號","OBJECTID":92756},"geometry":{"x":170445.04000000004,"y":2542940.2400000002}},{"attributes":{"ID":92757,"DIS_CODE":0,"TOWNNAME":"關廟區","LI":"香洋里","LIN":"15鄰","STREET":"中央路","SECT":" ","MAREA":" ","LANE":" ","ALLEY":" ","HOUSE_NO":"１５６號","E_COORD97":181397.16,"N_COORD97":2540021.3199999998,"ADDRESS":"中央路１５６號","OBJECTID":92757},"geometry":{"x":181397.16000000015,"y":2540021.3200000003}},{"attributes":{"ID":92758,"DIS_CODE":0,"TOWNNAME":"關廟區","LI":"香洋里","LIN":"15鄰","STREET":"中央路","SECT":" ","MAREA":" ","LANE":" ","ALLEY":" ","HOUSE_NO":"１９０號","E_COORD97":181324.56,"N_COORD97":2540048.3199999998,"ADDRESS":"中央路１９０號","OBJECTID":92758},"geometry":{"x":181324.55999999959,"y":2540048.3200000003}},{"attributes":{"ID":92759,"DIS_CODE":0,"TOWNNAME":"關廟區","LI":"山西里","LIN":"15鄰","STREET":"崇仁街","SECT":" ","MAREA":" ","LANE":" ","ALLEY":" ","HOUSE_NO":"３０號","E_COORD97":181019.42000000001,"N_COORD97":2540428.25,"ADDRESS":"崇仁街３０號","OBJECTID":92759},"geometry":{"x":181019.42000000086,"y":2540428.25}},{"attributes":{"ID":92760,"DIS_CODE":0,"TOWNNAME":"關廟區","LI":"山西里","LIN":"15鄰","STREET":"忠孝街","SECT":" ","MAREA":" ","LANE":" ","ALLEY":" ","HOUSE_NO":"１４９號","E_COORD97":181067.94,"N_COORD97":2540446.25,"ADDRESS":"忠孝街１４９號","OBJECTID":92760},"geometry":{"x":181067.94000000041,"y":2540446.2500000019}},{"attributes":{"ID":92761,"DIS_CODE":0,"TOWNNAME":"關廟區","LI":"山西里","LIN":"15鄰","STREET":"忠孝街","SECT":" ","MAREA":" ","LANE":" ","ALLEY":" ","HOUSE_NO":"１３１號","E_COORD97":181049.84,"N_COORD97":2540409.25,"ADDRESS":"忠孝街１３１號","OBJECTID":92761},"geometry":{"x":181049.83999999985,"y":2540409.2500000019}},{"attributes":{"ID":92762,"DIS_CODE":0,"TOWNNAME":"關廟區","LI":"松腳里","LIN":"15鄰","STREET":"民族街","SECT":" ","MAREA":" ","LANE":" ","ALLEY":" ","HOUSE_NO":"３號","E_COORD97":181648.79000000001,"N_COORD97":2539775.29,"ADDRESS":"民族街３號","OBJECTID":92762},"geometry":{"x":181648.79000000004,"y":2539775.2899999991}},{"attributes":{"ID":92763,"DIS_CODE":0,"TOWNNAME":"關廟區","LI":"山西里","LIN":"15鄰","STREET":"忠孝街","SECT":" ","MAREA":" ","LANE":" ","ALLEY":" ","HOUSE_NO":"１５５號","E_COORD97":181074.04000000001,"N_COORD97":2540460.25,"ADDRESS":"忠孝街１５５號","OBJECTID":92763},"geometry":{"x":181074.04000000004,"y":2540460.2500000019}},{"attributes":{"ID":92764,"DIS_CODE":0,"TOWNNAME":"關廟區","LI":"山西里","LIN":"15鄰","STREET":"忠孝街","SECT":" ","MAREA":" ","LANE":" ","ALLEY":" ","HOUSE_NO":"１４７號","E_COORD97":181065.23999999999,"N_COORD97":2540441.25,"ADDRESS":"忠孝街１４７號","OBJECTID":92764},"geometry":{"x":181065.24000000115,"y":2540441.25}},{"attributes":{"ID":92765,"DIS_CODE":0,"TOWNNAME":"關廟區","LI":"山西里","LIN":"15鄰","STREET":"忠孝街","SECT":" ","MAREA":" ","LANE":" ","ALLEY":" ","HOUSE_NO":"１３３號","E_COORD97":181051.44,"N_COORD97":2540413.25,"ADDRESS":"忠孝街１３３號","OBJECTID":92765},"geometry":{"x":181051.44000000041,"y":2540413.2500000019}},{"attributes":{"ID":92766,"DIS_CODE":0,"TOWNNAME":"新營區","LI":"埤寮里","LIN":"15鄰","STREET":"中正路","SECT":" ","MAREA":" ","LANE":" ","ALLEY":" ","HOUSE_NO":"２７０號","E_COORD97":180084.32999999999,"N_COORD97":2579938.9199999999,"ADDRESS":"中正路２７０號","OBJECTID":92766},"geometry":{"x":180084.33000000194,"y":2579938.9200000037}},{"attributes":{"ID":92767,"DIS_CODE":0,"TOWNNAME":"東區","LI":"新東里","LIN":"10鄰","STREET":"衛國街","SECT":" ","MAREA":" ","LANE":"１０６巷","ALLEY":"４５弄","HOUSE_NO":"１６號","E_COORD97":170451.81,"N_COORD97":2542941.5600000001,"ADDRESS":"衛國街１０６巷４５弄１６號","OBJECTID":92767},"geometry":{"x":170451.81000000145,"y":2542941.5600000005}},{"attributes":{"ID":92768,"DIS_CODE":0,"TOWNNAME":"東區","LI":"新東里","LIN":"10鄰","STREET":"衛國街","SECT":" ","MAREA":" ","LANE":"１０６巷","ALLEY":"４５弄","HOUSE_NO":"１８號","E_COORD97":170458.57000000001,"N_COORD97":2542942.2999999998,"ADDRESS":"衛國街１０６巷４５弄１８號","OBJECTID":92768},"geometry":{"x":170458.5700000003,"y":2542942.3000000026}},{"attributes":{"ID":92769,"DIS_CODE":0,"TOWNNAME":"東區","LI":"新東里","LIN":"10鄰","STREET":"衛國街","SECT":" ","MAREA":" ","LANE":"１０６巷","ALLEY":"４５弄","HOUSE_NO":"２０號","E_COORD97":170465.48999999999,"N_COORD97":2542943.4700000002,"ADDRESS":"衛國街１０６巷４５弄２０號","OBJECTID":92769},"geometry":{"x":170465.49000000115,"y":2542943.4699999988}},{"attributes":{"ID":92770,"DIS_CODE":0,"TOWNNAME":"東區","LI":"新東里","LIN":"10鄰","STREET":"衛國街","SECT":" ","MAREA":" ","LANE":"１０６巷","ALLEY":"４５弄","HOUSE_NO":"２號","E_COORD97":170405.95000000001,"N_COORD97":2542934.8700000001,"ADDRESS":"衛國街１０６巷４５弄２號","OBJECTID":92770},"geometry":{"x":170405.95000000112,"y":2542934.8700000029}},{"attributes":{"ID":92771,"DIS_CODE":0,"TOWNNAME":"東區","LI":"新東里","LIN":"10鄰","STREET":"衛國街","SECT":" ","MAREA":" ","LANE":"１０６巷","ALLEY":"４５弄","HOUSE_NO":"３號","E_COORD97":170422.94,"N_COORD97":2542962.2000000002,"ADDRESS":"衛國街１０６巷４５弄３號","OBJECTID":92771},"geometry":{"x":170422.94000000227,"y":2542962.2000000011}},{"attributes":{"ID":92772,"DIS_CODE":0,"TOWNNAME":"東區","LI":"新東里","LIN":"10鄰","STREET":"衛國街","SECT":" ","MAREA":" ","LANE":"１０６巷","ALLEY":"４５弄","HOUSE_NO":"４號","E_COORD97":170411.60999999999,"N_COORD97":2542935.3399999999,"ADDRESS":"衛國街１０６巷４５弄４號","OBJECTID":92772},"geometry":{"x":170411.6100000022,"y":2542935.3399999999}},{"attributes":{"ID":92773,"DIS_CODE":0,"TOWNNAME":"東區","LI":"新東里","LIN":"10鄰","STREET":"衛國街","SECT":" ","MAREA":" ","LANE":"１０６巷","ALLEY":"４５弄","HOUSE_NO":"５號","E_COORD97":170427.53,"N_COORD97":2542962.4300000002,"ADDRESS":"衛國街１０６巷４５弄５號","OBJECTID":92773},"geometry":{"x":170427.53000000119,"y":2542962.4299999997}},{"attributes":{"ID":92774,"DIS_CODE":0,"TOWNNAME":"東區","LI":"新東里","LIN":"10鄰","STREET":"衛國街","SECT":" ","MAREA":" ","LANE":"１０６巷","ALLEY":"４５弄","HOUSE_NO":"６號","E_COORD97":170418.34,"N_COORD97":2542936.6400000001,"ADDRESS":"衛國街１０６巷４５弄６號","OBJECTID":92774},"geometry":{"x":170418.34000000078,"y":2542936.6400000025}},{"attributes":{"ID":92775,"DIS_CODE":0,"TOWNNAME":"東區","LI":"新東里","LIN":"10鄰","STREET":"衛國街","SECT":" ","MAREA":" ","LANE":"１０６巷","ALLEY":"４５弄","HOUSE_NO":"７號","E_COORD97":170432.38,"N_COORD97":2542962.8799999999,"ADDRESS":"衛國街１０６巷４５弄７號","OBJECTID":92775},"geometry":{"x":170432.37999999989,"y":2542962.8800000027}},{"attributes":{"ID":92776,"DIS_CODE":0,"TOWNNAME":"東區","LI":"新東里","LIN":"10鄰","STREET":"衛國街","SECT":" ","MAREA":" ","LANE":"１０６巷","ALLEY":"４５弄","HOUSE_NO":"８號","E_COORD97":170425.06,"N_COORD97":2542937.3500000001,"ADDRESS":"衛國街１０６巷４５弄８號","OBJECTID":92776},"geometry":{"x":170425.06000000052,"y":2542937.3500000015}},{"attributes":{"ID":92777,"DIS_CODE":0,"TOWNNAME":"東區","LI":"新東里","LIN":"10鄰","STREET":"衛國街","SECT":" ","MAREA":" ","LANE":"１０６巷","ALLEY":"４５弄","HOUSE_NO":"９號","E_COORD97":170440.04000000001,"N_COORD97":2542959.3500000001,"ADDRESS":"衛國街１０６巷４５弄９號","OBJECTID":92777},"geometry":{"x":170440.04000000004,"y":2542959.3499999996}},{"attributes":{"ID":92778,"DIS_CODE":0,"TOWNNAME":"永康區","LI":"\u25A0行里","LIN":"10鄰","STREET":"中正路","SECT":" ","MAREA":" ","LANE":"４９５巷","ALLEY":"２弄","HOUSE_NO":"１３號","E_COORD97":172182.89999999999,"N_COORD97":2548633.1299999999,"ADDRESS":"中正路４９５巷２弄１３號","OBJECTID":92778},"geometry":{"x":172182.90000000224,"y":2548633.1300000027}},{"attributes":{"ID":92779,"DIS_CODE":0,"TOWNNAME":"永康區","LI":"\u25A0行里","LIN":"10鄰","STREET":"中正路","SECT":" ","MAREA":" ","LANE":"４９５巷","ALLEY":"２弄","HOUSE_NO":"８號","E_COORD97":172203.79999999999,"N_COORD97":2548626.2400000002,"ADDRESS":"中正路４９５巷２弄８號","OBJECTID":92779},"geometry":{"x":172203.80000000075,"y":2548626.2400000002}},{"attributes":{"ID":92780,"DIS_CODE":0,"TOWNNAME":"永康區","LI":"網寮里","LIN":"10鄰","STREET":"永二街","SECT":" ","MAREA":" ","LANE":"２４４巷","ALLEY":"８弄","HOUSE_NO":"４５號","E_COORD97":173360.34,"N_COORD97":2546376.5899999999,"ADDRESS":"永二街２４４巷８弄４５號","OBJECTID":92780},"geometry":{"x":173360.33999999985,"y":2546376.5900000036}},{"attributes":{"ID":92781,"DIS_CODE":0,"TOWNNAME":"仁德區","LI":"上崙里","LIN":"10鄰","STREET":"德善路","SECT":" ","MAREA":" ","LANE":"３０５巷","ALLEY":"１３弄","HOUSE_NO":"１５３號","E_COORD97":174104.82000000001,"N_COORD97":2538310.71,"ADDRESS":"德善路３０５巷１３弄１５３號","OBJECTID":92781},"geometry":{"x":174104.8200000003,"y":2538310.709999999}},{"attributes":{"ID":92782,"DIS_CODE":0,"TOWNNAME":"仁德區","LI":"上崙里","LIN":"10鄰","STREET":"德善路","SECT":" ","MAREA":" ","LANE":"３０５巷","ALLEY":"１３弄","HOUSE_NO":"１９２號","E_COORD97":174071.54999999999,"N_COORD97":2538236.3900000001,"ADDRESS":"德善路３０５巷１３弄１９２號","OBJECTID":92782},"geometry":{"x":174071.55000000075,"y":2538236.3900000025}},{"attributes":{"ID":92783,"DIS_CODE":0,"TOWNNAME":"安定區","LI":"安定里","LIN":"10鄰","STREET":" ","SECT":" ","MAREA":"安定","LANE":" ","ALLEY":" ","HOUSE_NO":"１０４之３號","E_COORD97":172112.12,"N_COORD97":2557713.3199999998,"ADDRESS":"安定１０４之３號","OBJECTID":92783},"geometry":{"x":172112.12000000104,"y":2557713.3200000022}},{"attributes":{"ID":92784,"DIS_CODE":0,"TOWNNAME":"仁德區","LI":"上崙里","LIN":"10鄰","STREET":"德善路","SECT":" ","MAREA":" ","LANE":"３０５巷","ALLEY":"１３弄","HOUSE_NO":"１３０號","E_COORD97":174056.25,"N_COORD97":2538314.2000000002,"ADDRESS":"德善路３０５巷１３弄１３０號","OBJECTID":92784},"geometry":{"x":174056.25,"y":2538314.2000000011}},{"attributes":{"ID":92785,"DIS_CODE":0,"TOWNNAME":"仁德區","LI":"上崙里","LIN":"10鄰","STREET":"德善路","SECT":" ","MAREA":" ","LANE":"３０５巷","ALLEY":"１３弄","HOUSE_NO":"１５４號","E_COORD97":174068.57000000001,"N_COORD97":2538288.8199999998,"ADDRESS":"德善路３０５巷１３弄１５４號","OBJECTID":92785},"geometry":{"x":174068.57000000123,"y":2538288.8200000003}},{"attributes":{"ID":92786,"DIS_CODE":0,"TOWNNAME":"仁德區","LI":"上崙里","LIN":"10鄰","STREET":"德善路","SECT":" ","MAREA":" ","LANE":"３０５巷","ALLEY":"１３弄","HOUSE_NO":"１４０號","E_COORD97":174064.51000000001,"N_COORD97":2538299.8199999998,"ADDRESS":"德善路３０５巷１３弄１４０號","OBJECTID":92786},"geometry":{"x":174064.50999999978,"y":2538299.8200000022}},{"attributes":{"ID":92787,"DIS_CODE":0,"TOWNNAME":"仁德區","LI":"上崙里","LIN":"10鄰","STREET":"德善路","SECT":" ","MAREA":" ","LANE":"３０５巷","ALLEY":"１３弄","HOUSE_NO":"１４６號","E_COORD97":174050.10999999999,"N_COORD97":2538295.3199999998,"ADDRESS":"德善路３０５巷１３弄１４６號","OBJECTID":92787},"geometry":{"x":174050.11000000127,"y":2538295.3200000003}},{"attributes":{"ID":92788,"DIS_CODE":0,"TOWNNAME":"仁德區","LI":"上崙里","LIN":"10鄰","STREET":"德善路","SECT":" ","MAREA":" ","LANE":"３０５巷","ALLEY":"１３弄","HOUSE_NO":"１６１號","E_COORD97":174113.32000000001,"N_COORD97":2538301.46,"ADDRESS":"德善路３０５巷１３弄１６１號","OBJECTID":92788},"geometry":{"x":174113.3200000003,"y":2538301.4600000009}},{"attributes":{"ID":92789,"DIS_CODE":0,"TOWNNAME":"仁德區","LI":"上崙里","LIN":"10鄰","STREET":"德善路","SECT":" ","MAREA":" ","LANE":"３０５巷","ALLEY":"１３弄","HOUSE_NO":"１１９號","E_COORD97":174077.04000000001,"N_COORD97":2538347.9700000002,"ADDRESS":"德善路３０５巷１３弄１１９號","OBJECTID":92789},"geometry":{"x":174077.04000000097,"y":2538347.9700000025}},{"attributes":{"ID":92790,"DIS_CODE":0,"TOWNNAME":"仁德區","LI":"上崙里","LIN":"10鄰","STREET":"德善路","SECT":" ","MAREA":" ","LANE":"３０５巷","ALLEY":"１３弄","HOUSE_NO":"１２５號","E_COORD97":174093.12,"N_COORD97":2538343.9700000002,"ADDRESS":"德善路３０５巷１３弄１２５號","OBJECTID":92790},"geometry":{"x":174093.11999999918,"y":2538343.9700000025}},{"attributes":{"ID":92791,"DIS_CODE":0,"TOWNNAME":"仁德區","LI":"上崙里","LIN":"10鄰","STREET":"德善路","SECT":" ","MAREA":" ","LANE":"３０５巷","ALLEY":"１３弄","HOUSE_NO":"１４４號","E_COORD97":174054.89999999999,"N_COORD97":2538296.8199999998,"ADDRESS":"德善路３０５巷１３弄１４４號","OBJECTID":92791},"geometry":{"x":174054.9000000013,"y":2538296.8200000022}},{"attributes":{"ID":92792,"DIS_CODE":0,"TOWNNAME":"仁德區","LI":"上崙里","LIN":"10鄰","STREET":"德善路","SECT":" ","MAREA":" ","LANE":"３０５巷","ALLEY":"１３弄","HOUSE_NO":"１６６號","E_COORD97":174068.09,"N_COORD97":2538272.0800000001,"ADDRESS":"德善路３０５巷１３弄１６６號","OBJECTID":92792},"geometry":{"x":174068.09000000078,"y":2538272.0800000001}},{"attributes":{"ID":92793,"DIS_CODE":0,"TOWNNAME":"仁德區","LI":"上崙里","LIN":"10鄰","STREET":"德善路","SECT":" ","MAREA":" ","LANE":"３０５巷","ALLEY":"１３弄","HOUSE_NO":"１０９號","E_COORD97":174091.04000000001,"N_COORD97":2538368.2200000002,"ADDRESS":"德善路３０５巷１３弄１０９號","OBJECTID":92793},"geometry":{"x":174091.04000000097,"y":2538368.2200000044}},{"attributes":{"ID":92794,"DIS_CODE":0,"TOWNNAME":"仁德區","LI":"上崙里","LIN":"10鄰","STREET":"德善路","SECT":" ","MAREA":" ","LANE":"３０５巷","ALLEY":"１３弄","HOUSE_NO":"１６９號","E_COORD97":174093.29000000001,"N_COORD97":2538295.46,"ADDRESS":"德善路３０５巷１３弄１６９號","OBJECTID":92794},"geometry":{"x":174093.29000000004,"y":2538295.459999999}},{"attributes":{"ID":92795,"DIS_CODE":0,"TOWNNAME":"仁德區","LI":"上崙里","LIN":"10鄰","STREET":"德善路","SECT":" ","MAREA":" ","LANE":"３０５巷","ALLEY":"１３弄","HOUSE_NO":"１４３號","E_COORD97":174084.54999999999,"N_COORD97":2538321.46,"ADDRESS":"德善路３０５巷１３弄１４３號","OBJECTID":92795},"geometry":{"x":174084.54999999981,"y":2538321.4600000009}},{"attributes":{"ID":92796,"DIS_CODE":0,"TOWNNAME":"仁德區","LI":"上崙里","LIN":"10鄰","STREET":"德善路","SECT":" ","MAREA":" ","LANE":"３０５巷","ALLEY":"１３弄","HOUSE_NO":"６８號","E_COORD97":174034.95000000001,"N_COORD97":2538436.04,"ADDRESS":"德善路３０５巷１３弄６８號","OBJECTID":92796},"geometry":{"x":174034.95000000019,"y":2538436.040000001}},{"attributes":{"ID":92797,"DIS_CODE":0,"TOWNNAME":"仁德區","LI":"上崙里","LIN":"10鄰","STREET":"德善路","SECT":" ","MAREA":" ","LANE":"３０５巷","ALLEY":"１３弄","HOUSE_NO":"７８號","E_COORD97":174040.91,"N_COORD97":2538415.5299999998,"ADDRESS":"德善路３０５巷１３弄７８號","OBJECTID":92797},"geometry":{"x":174040.91000000108,"y":2538415.5300000031}},{"attributes":{"ID":92798,"DIS_CODE":0,"TOWNNAME":"仁德區","LI":"上崙里","LIN":"10鄰","STREET":"德善路","SECT":" ","MAREA":" ","LANE":"３０５巷","ALLEY":"１３弄","HOUSE_NO":"８４號","E_COORD97":174019.69,"N_COORD97":2538404.3500000001,"ADDRESS":"德善路３０５巷１３弄８４號","OBJECTID":92798},"geometry":{"x":174019.69000000041,"y":2538404.3500000015}},{"attributes":{"ID":92799,"DIS_CODE":0,"TOWNNAME":"仁德區","LI":"上崙里","LIN":"10鄰","STREET":"德善路","SECT":" ","MAREA":" ","LANE":"３０５巷","ALLEY":"１３弄","HOUSE_NO":"１６３號","E_COORD97":174108.42999999999,"N_COORD97":2538299.71,"ADDRESS":"德善路３０５巷１３弄１６３號","OBJECTID":92799},"geometry":{"x":174108.43000000063,"y":2538299.7100000009}},{"attributes":{"ID":92800,"DIS_CODE":0,"TOWNNAME":"安定區","LI":"蘇林里","LIN":"10鄰","STREET":" ","SECT":" ","MAREA":"蘇厝","LANE":" ","ALLEY":" ","HOUSE_NO":"１１２號之２２","E_COORD97":173817.04000000001,"N_COORD97":2558990.2999999998,"ADDRESS":"蘇厝１１２號之２２","OBJECTID":92800},"geometry":{"x":173817.04000000004,"y":2558990.3000000007}}]}