{"displayFieldName":"TOWNNAME","fieldAliases":{"ID":"ID","DIS_CODE":"DIS_CODE","TOWNNAME":"TOWNNAME","LI":"LI","LIN":"LIN","STREET":"STREET","SECT":"SECT","MAREA":"MAREA","LANE":"LANE","ALLEY":"ALLEY","HOUSE_NO":"HOUSE_NO","E_COORD97":"E_COORD97","N_COORD97":"N_COORD97","ADDRESS":"ADDRESS","OBJECTID":"OBJECTID"},"geometryType":"esriGeometryPoint","spatialReference":{"wkid":102443,"latestWkid":3826},"fields":[{"name":"ID","type":"esriFieldTypeDouble","alias":"ID"},{"name":"DIS_CODE","type":"esriFieldTypeInteger","alias":"DIS_CODE"},{"name":"TOWNNAME","type":"esriFieldTypeString","alias":"TOWNNAME","length":8},{"name":"LI","type":"esriFieldTypeString","alias":"LI","length":8},{"name":"LIN","type":"esriFieldTypeString","alias":"LIN","length":12},{"name":"STREET","type":"esriFieldTypeString","alias":"STREET","length":20},{"name":"SECT","type":"esriFieldTypeString","alias":"SECT","length":8},{"name":"MAREA","type":"esriFieldTypeString","alias":"MAREA","length":12},{"name":"LANE","type":"esriFieldTypeString","alias":"LANE","length":10},{"name":"ALLEY","type":"esriFieldTypeString","alias":"ALLEY","length":10},{"name":"HOUSE_NO","type":"esriFieldTypeString","alias":"HOUSE_NO","length":20},{"name":"E_COORD97","type":"esriFieldTypeDouble","alias":"E_COORD97"},{"name":"N_COORD97","type":"esriFieldTypeDouble","alias":"N_COORD97"},{"name":"ADDRESS","type":"esriFieldTypeString","alias":"ADDRESS","length":50},{"name":"OBJECTID","type":"esriFieldTypeOID","alias":"OBJECTID"}],"features":[{"attributes":{"ID":630428,"DIS_CODE":0,"TOWNNAME":"永康區","LI":"復國里","LIN":"8鄰","STREET":"復國二路","SECT":" ","MAREA":" ","LANE":" ","ALLEY":" ","HOUSE_NO":"８２號","E_COORD97":172847.70000000001,"N_COORD97":2545185.4100000001,"ADDRESS":"復國二路８２號","OBJECTID":630401},"geometry":{"x":172847.70000000019,"y":2545185.410000002}},{"attributes":{"ID":630429,"DIS_CODE":0,"TOWNNAME":"永康區","LI":"復國里","LIN":"4鄰","STREET":"復國一路","SECT":" ","MAREA":" ","LANE":" ","ALLEY":" ","HOUSE_NO":"６４號","E_COORD97":172723.64999999999,"N_COORD97":2544851.2799999998,"ADDRESS":"復國一路６４號","OBJECTID":630402},"geometry":{"x":172723.65000000224,"y":2544851.2799999993}},{"attributes":{"ID":630430,"DIS_CODE":0,"TOWNNAME":"永康區","LI":"勝利里","LIN":"41鄰","STREET":"中華路","SECT":" ","MAREA":" ","LANE":" ","ALLEY":" ","HOUSE_NO":"１８９號","E_COORD97":171592.98000000001,"N_COORD97":2544981.25,"ADDRESS":"中華路１８９號","OBJECTID":630403},"geometry":{"x":171592.98000000138,"y":2544981.25}},{"attributes":{"ID":630431,"DIS_CODE":0,"TOWNNAME":"永康區","LI":"復國里","LIN":"13鄰","STREET":"復國二路","SECT":" ","MAREA":" ","LANE":" ","ALLEY":" ","HOUSE_NO":"１０９號","E_COORD97":172877.89999999999,"N_COORD97":2545560.02,"ADDRESS":"復國二路１０９號","OBJECTID":630404},"geometry":{"x":172877.90000000224,"y":2545560.0200000014}},{"attributes":{"ID":630432,"DIS_CODE":0,"TOWNNAME":"永康區","LI":"埔園里","LIN":"18鄰","STREET":"龍埔街","SECT":" ","MAREA":" ","LANE":" ","ALLEY":" ","HOUSE_NO":"５１３號","E_COORD97":173356.48000000001,"N_COORD97":2548382,"ADDRESS":"龍埔街５１３號","OBJECTID":630405},"geometry":{"x":173356.48000000045,"y":2548382.0000000019}},{"attributes":{"ID":630433,"DIS_CODE":0,"TOWNNAME":"永康區","LI":"崑山里","LIN":"39鄰","STREET":"國光三街","SECT":" ","MAREA":" ","LANE":" ","ALLEY":" ","HOUSE_NO":"２６號","E_COORD97":174078.07000000001,"N_COORD97":2544895.4900000002,"ADDRESS":"國光三街２６號","OBJECTID":630406},"geometry":{"x":174078.0700000003,"y":2544895.4900000002}},{"attributes":{"ID":630434,"DIS_CODE":0,"TOWNNAME":"永康區","LI":"復國里","LIN":"18鄰","STREET":"國華街","SECT":" ","MAREA":" ","LANE":" ","ALLEY":" ","HOUSE_NO":"２５號","E_COORD97":172821.31,"N_COORD97":2545652.7400000002,"ADDRESS":"國華街２５號","OBJECTID":630407},"geometry":{"x":172821.30999999959,"y":2545652.7400000002}},{"attributes":{"ID":630435,"DIS_CODE":0,"TOWNNAME":"永康區","LI":"烏竹里","LIN":"20鄰","STREET":"自強路","SECT":" ","MAREA":" ","LANE":" ","ALLEY":" ","HOUSE_NO":"８０９號","E_COORD97":174546.79999999999,"N_COORD97":2548619.8199999998,"ADDRESS":"自強路８０９號","OBJECTID":630408},"geometry":{"x":174546.80000000075,"y":2548619.820000004}},{"attributes":{"ID":630436,"DIS_CODE":0,"TOWNNAME":"永康區","LI":"復國里","LIN":"17鄰","STREET":"國華街","SECT":" ","MAREA":" ","LANE":" ","ALLEY":" ","HOUSE_NO":"３２號","E_COORD97":172846.37,"N_COORD97":2545645.7799999998,"ADDRESS":"國華街３２號","OBJECTID":630409},"geometry":{"x":172846.37000000104,"y":2545645.7800000031}},{"attributes":{"ID":630437,"DIS_CODE":0,"TOWNNAME":"永康區","LI":"勝利里","LIN":"20鄰","STREET":"勝學路","SECT":" ","MAREA":" ","LANE":" ","ALLEY":" ","HOUSE_NO":"２６７號","E_COORD97":171180.54999999999,"N_COORD97":2545303.7599999998,"ADDRESS":"勝學路２６７號","OBJECTID":630410},"geometry":{"x":171180.54999999981,"y":2545303.7600000035}},{"attributes":{"ID":630438,"DIS_CODE":0,"TOWNNAME":"永康區","LI":"崑山里","LIN":"25鄰","STREET":"大仁街","SECT":" ","MAREA":" ","LANE":" ","ALLEY":" ","HOUSE_NO":"７９號","E_COORD97":173805.78,"N_COORD97":2544726.6200000001,"ADDRESS":"大仁街７９號","OBJECTID":630411},"geometry":{"x":173805.78000000212,"y":2544726.6200000029}},{"attributes":{"ID":630439,"DIS_CODE":0,"TOWNNAME":"永康區","LI":"埔園里","LIN":"18鄰","STREET":"龍埔街","SECT":" ","MAREA":" ","LANE":" ","ALLEY":" ","HOUSE_NO":"５０３號","E_COORD97":173379.23000000001,"N_COORD97":2548380.25,"ADDRESS":"龍埔街５０３號","OBJECTID":630412},"geometry":{"x":173379.23000000231,"y":2548380.2500000019}},{"attributes":{"ID":630440,"DIS_CODE":0,"TOWNNAME":"永康區","LI":"勝利里","LIN":"20鄰","STREET":"勝學路","SECT":" ","MAREA":" ","LANE":" ","ALLEY":" ","HOUSE_NO":"２７０號","E_COORD97":171209.54000000001,"N_COORD97":2545310.3999999999,"ADDRESS":"勝學路２７０號","OBJECTID":630413},"geometry":{"x":171209.54000000004,"y":2545310.4000000041}},{"attributes":{"ID":630441,"DIS_CODE":0,"TOWNNAME":"永康區","LI":"崑山里","LIN":"25鄰","STREET":"大仁街","SECT":" ","MAREA":" ","LANE":" ","ALLEY":" ","HOUSE_NO":"８１號","E_COORD97":173807.13,"N_COORD97":2544730.3700000001,"ADDRESS":"大仁街８１號","OBJECTID":630414},"geometry":{"x":173807.13000000082,"y":2544730.370000001}},{"attributes":{"ID":630442,"DIS_CODE":0,"TOWNNAME":"永康區","LI":"復國里","LIN":"18鄰","STREET":"國華街","SECT":" ","MAREA":" ","LANE":" ","ALLEY":" ","HOUSE_NO":"３３號","E_COORD97":172824.95000000001,"N_COORD97":2545676.7400000002,"ADDRESS":"國華街３３號","OBJECTID":630415},"geometry":{"x":172824.95000000112,"y":2545676.7400000002}},{"attributes":{"ID":630443,"DIS_CODE":0,"TOWNNAME":"永康區","LI":"烏竹里","LIN":"20鄰","STREET":"自強路","SECT":" ","MAREA":" ","LANE":" ","ALLEY":" ","HOUSE_NO":"８０１號","E_COORD97":174534.03,"N_COORD97":2548609.3199999998,"ADDRESS":"自強路８０１號","OBJECTID":630416},"geometry":{"x":174534.03000000026,"y":2548609.3199999984}},{"attributes":{"ID":630444,"DIS_CODE":0,"TOWNNAME":"永康區","LI":"烏竹里","LIN":"20鄰","STREET":"自強路","SECT":" ","MAREA":" ","LANE":" ","ALLEY":" ","HOUSE_NO":"７８５號","E_COORD97":174508.82000000001,"N_COORD97":2548587.8199999998,"ADDRESS":"自強路７８５號","OBJECTID":630417},"geometry":{"x":174508.8200000003,"y":2548587.8200000003}},{"attributes":{"ID":630445,"DIS_CODE":0,"TOWNNAME":"永康區","LI":"勝利里","LIN":"39鄰","STREET":"勝華街","SECT":" ","MAREA":" ","LANE":" ","ALLEY":" ","HOUSE_NO":"３９號","E_COORD97":171426.84,"N_COORD97":2545201.7599999998,"ADDRESS":"勝華街３９號","OBJECTID":630418},"geometry":{"x":171426.84000000078,"y":2545201.7599999998}},{"attributes":{"ID":630446,"DIS_CODE":0,"TOWNNAME":"永康區","LI":"崑山里","LIN":"41鄰","STREET":"國光五街","SECT":" ","MAREA":" ","LANE":" ","ALLEY":" ","HOUSE_NO":"３３號","E_COORD97":174071.17000000001,"N_COORD97":2545099.6299999999,"ADDRESS":"國光五街３３號","OBJECTID":630419},"geometry":{"x":174071.17000000086,"y":2545099.629999999}},{"attributes":{"ID":630447,"DIS_CODE":0,"TOWNNAME":"永康區","LI":"崑山里","LIN":"13鄰","STREET":"大灣路","SECT":" ","MAREA":" ","LANE":" ","ALLEY":" ","HOUSE_NO":"９９６號","E_COORD97":173494.81,"N_COORD97":2544399.6600000001,"ADDRESS":"大灣路９９６號","OBJECTID":630420},"geometry":{"x":173494.81000000052,"y":2544399.6600000039}},{"attributes":{"ID":630448,"DIS_CODE":0,"TOWNNAME":"永康區","LI":"復國里","LIN":"17鄰","STREET":"國華街","SECT":" ","MAREA":" ","LANE":" ","ALLEY":" ","HOUSE_NO":"４６號","E_COORD97":172850.13,"N_COORD97":2545674.2999999998,"ADDRESS":"國華街４６號","OBJECTID":630421},"geometry":{"x":172850.12999999989,"y":2545674.3000000045}},{"attributes":{"ID":630449,"DIS_CODE":0,"TOWNNAME":"永康區","LI":"崑山里","LIN":"39鄰","STREET":"國光三街","SECT":" ","MAREA":" ","LANE":" ","ALLEY":" ","HOUSE_NO":"１４號","E_COORD97":174123.44,"N_COORD97":2544881.98,"ADDRESS":"國光三街１４號","OBJECTID":630422},"geometry":{"x":174123.43999999948,"y":2544881.9800000004}},{"attributes":{"ID":630450,"DIS_CODE":0,"TOWNNAME":"永康區","LI":"勝利里","LIN":"20鄰","STREET":"勝學路","SECT":" ","MAREA":" ","LANE":" ","ALLEY":" ","HOUSE_NO":"２６５號","E_COORD97":171180.54999999999,"N_COORD97":2545299.7599999998,"ADDRESS":"勝學路２６５號","OBJECTID":630423},"geometry":{"x":171180.54999999981,"y":2545299.7599999998}},{"attributes":{"ID":630451,"DIS_CODE":0,"TOWNNAME":"永康區","LI":"勝利里","LIN":"20鄰","STREET":"勝學路","SECT":" ","MAREA":" ","LANE":" ","ALLEY":" ","HOUSE_NO":"２５０號","E_COORD97":171202.06,"N_COORD97":2545247.25,"ADDRESS":"勝學路２５０號","OBJECTID":630424},"geometry":{"x":171202.05999999959,"y":2545247.2500000019}},{"attributes":{"ID":630452,"DIS_CODE":0,"TOWNNAME":"永康區","LI":"烏竹里","LIN":"20鄰","STREET":"自強路","SECT":" ","MAREA":" ","LANE":" ","ALLEY":" ","HOUSE_NO":"８０７號","E_COORD97":174543.54999999999,"N_COORD97":2548617.0699999998,"ADDRESS":"自強路８０７號","OBJECTID":630425},"geometry":{"x":174543.54999999981,"y":2548617.0700000003}},{"attributes":{"ID":630453,"DIS_CODE":0,"TOWNNAME":"永康區","LI":"崑山里","LIN":"32鄰","STREET":"國光三街","SECT":" ","MAREA":" ","LANE":" ","ALLEY":" ","HOUSE_NO":"１９號","E_COORD97":174090.69,"N_COORD97":2544869.71,"ADDRESS":"國光三街１９號","OBJECTID":630426},"geometry":{"x":174090.69000000041,"y":2544869.7100000009}},{"attributes":{"ID":630454,"DIS_CODE":0,"TOWNNAME":"永康區","LI":"復國里","LIN":"13鄰","STREET":"復國二路","SECT":" ","MAREA":" ","LANE":" ","ALLEY":" ","HOUSE_NO":"１１３號","E_COORD97":172879.01999999999,"N_COORD97":2545570.5600000001,"ADDRESS":"復國二路１１３號","OBJECTID":630427},"geometry":{"x":172879.01999999955,"y":2545570.5600000042}},{"attributes":{"ID":630455,"DIS_CODE":0,"TOWNNAME":"永康區","LI":"復國里","LIN":"7鄰","STREET":"復國一路","SECT":" ","MAREA":" ","LANE":" ","ALLEY":" ","HOUSE_NO":"１２４號","E_COORD97":172726.06,"N_COORD97":2545017.02,"ADDRESS":"復國一路１２４號","OBJECTID":630428},"geometry":{"x":172726.05999999959,"y":2545017.0200000033}},{"attributes":{"ID":630456,"DIS_CODE":0,"TOWNNAME":"永康區","LI":"西灣里","LIN":"26鄰","STREET":"大勇路","SECT":" ","MAREA":" ","LANE":" ","ALLEY":" ","HOUSE_NO":"１４２之５號","E_COORD97":174303.34,"N_COORD97":2545699.6099999999,"ADDRESS":"大勇路１４２之５號","OBJECTID":630429},"geometry":{"x":174303.34000000171,"y":2545699.6099999994}},{"attributes":{"ID":630457,"DIS_CODE":0,"TOWNNAME":"東區","LI":"大智里","LIN":"25鄰","STREET":"文東街","SECT":" ","MAREA":" ","LANE":" ","ALLEY":" ","HOUSE_NO":"８２號","E_COORD97":171433.09,"N_COORD97":2540191.1200000001,"ADDRESS":"文東街８２號","OBJECTID":630430},"geometry":{"x":171433.08999999985,"y":2540191.1200000029}},{"attributes":{"ID":630458,"DIS_CODE":0,"TOWNNAME":"永康區","LI":"崑山里","LIN":"13鄰","STREET":"大灣路","SECT":" ","MAREA":" ","LANE":" ","ALLEY":" ","HOUSE_NO":"９９０號","E_COORD97":173500.48000000001,"N_COORD97":2544400.02,"ADDRESS":"大灣路９９０號","OBJECTID":630431},"geometry":{"x":173500.48000000045,"y":2544400.0200000033}},{"attributes":{"ID":630459,"DIS_CODE":0,"TOWNNAME":"永康區","LI":"三合里","LIN":"25鄰","STREET":"中山東路","SECT":" ","MAREA":" ","LANE":" ","ALLEY":" ","HOUSE_NO":"２８９號","E_COORD97":171877.67999999999,"N_COORD97":2545480.25,"ADDRESS":"中山東路２８９號","OBJECTID":630432},"geometry":{"x":171877.6799999997,"y":2545480.2499999981}},{"attributes":{"ID":630460,"DIS_CODE":0,"TOWNNAME":"永康區","LI":"王行里","LIN":"1鄰","STREET":"中山北路","SECT":" ","MAREA":" ","LANE":" ","ALLEY":" ","HOUSE_NO":"５２１號","E_COORD97":175318.07000000001,"N_COORD97":2547755.6499999999,"ADDRESS":"中山北路５２１號","OBJECTID":630433},"geometry":{"x":175318.07000000123,"y":2547755.6500000004}},{"attributes":{"ID":630461,"DIS_CODE":0,"TOWNNAME":"永康區","LI":"二王里","LIN":"1鄰","STREET":"二王路","SECT":" ","MAREA":" ","LANE":" ","ALLEY":" ","HOUSE_NO":"３１號","E_COORD97":173026.01999999999,"N_COORD97":2546791.8599999999,"ADDRESS":"二王路３１號","OBJECTID":630434},"geometry":{"x":173026.02000000048,"y":2546791.8600000013}},{"attributes":{"ID":630462,"DIS_CODE":0,"TOWNNAME":"永康區","LI":"二王里","LIN":"1鄰","STREET":"二王路","SECT":" ","MAREA":" ","LANE":" ","ALLEY":" ","HOUSE_NO":"３３號","E_COORD97":173026.01999999999,"N_COORD97":2546787.7200000002,"ADDRESS":"二王路３３號","OBJECTID":630435},"geometry":{"x":173026.02000000048,"y":2546787.7200000025}},{"attributes":{"ID":630463,"DIS_CODE":0,"TOWNNAME":"永康區","LI":"二王里","LIN":"1鄰","STREET":"二王路","SECT":" ","MAREA":" ","LANE":" ","ALLEY":" ","HOUSE_NO":"３５號","E_COORD97":173027.82999999999,"N_COORD97":2546783.9300000002,"ADDRESS":"二王路３５號","OBJECTID":630436},"geometry":{"x":173027.83000000101,"y":2546783.9299999978}},{"attributes":{"ID":630464,"DIS_CODE":0,"TOWNNAME":"永康區","LI":"二王里","LIN":"1鄰","STREET":"二王路","SECT":" ","MAREA":" ","LANE":" ","ALLEY":" ","HOUSE_NO":"３７號","E_COORD97":173028.17000000001,"N_COORD97":2546779.46,"ADDRESS":"二王路３７號","OBJECTID":630437},"geometry":{"x":173028.17000000179,"y":2546779.4600000028}},{"attributes":{"ID":630465,"DIS_CODE":0,"TOWNNAME":"永康區","LI":"二王里","LIN":"1鄰","STREET":"二王路","SECT":" ","MAREA":" ","LANE":" ","ALLEY":" ","HOUSE_NO":"３９號","E_COORD97":173028.59,"N_COORD97":2546775.0600000001,"ADDRESS":"二王路３９號","OBJECTID":630438},"geometry":{"x":173028.59000000171,"y":2546775.0600000024}},{"attributes":{"ID":630466,"DIS_CODE":0,"TOWNNAME":"永康區","LI":"三民里","LIN":"14鄰","STREET":"中正北路","SECT":" ","MAREA":" ","LANE":" ","ALLEY":" ","HOUSE_NO":"１０６９號","E_COORD97":175547.22,"N_COORD97":2550692.6400000001,"ADDRESS":"中正北路１０６９號","OBJECTID":630439},"geometry":{"x":175547.22000000067,"y":2550692.6399999987}},{"attributes":{"ID":630467,"DIS_CODE":0,"TOWNNAME":"東區","LI":"大智里","LIN":"25鄰","STREET":"文東街","SECT":" ","MAREA":" ","LANE":" ","ALLEY":" ","HOUSE_NO":"８５號","E_COORD97":171376.72,"N_COORD97":2540213.3300000001,"ADDRESS":"文東街８５號","OBJECTID":630440},"geometry":{"x":171376.72000000067,"y":2540213.3300000001}},{"attributes":{"ID":630468,"DIS_CODE":0,"TOWNNAME":"永康區","LI":"東橋里","LIN":"25鄰","STREET":"中正路","SECT":" ","MAREA":" ","LANE":" ","ALLEY":" ","HOUSE_NO":"２７７號之２","E_COORD97":172838.23000000001,"N_COORD97":2548053.8100000001,"ADDRESS":"中正路２７７號之２","OBJECTID":630441},"geometry":{"x":172838.23000000045,"y":2548053.8100000042}},{"attributes":{"ID":630469,"DIS_CODE":0,"TOWNNAME":"永康區","LI":"中興里","LIN":"4鄰","STREET":"中華一路","SECT":" ","MAREA":" ","LANE":" ","ALLEY":" ","HOUSE_NO":"１００號","E_COORD97":171767.56,"N_COORD97":2544977.9300000002,"ADDRESS":"中華一路１００號","OBJECTID":630442},"geometry":{"x":171767.56000000052,"y":2544977.9300000016}},{"attributes":{"ID":630470,"DIS_CODE":0,"TOWNNAME":"永康區","LI":"中興里","LIN":"4鄰","STREET":"中華一路","SECT":" ","MAREA":" ","LANE":" ","ALLEY":" ","HOUSE_NO":"１０２號","E_COORD97":171762.76000000001,"N_COORD97":2544977.5800000001,"ADDRESS":"中華一路１０２號","OBJECTID":630443},"geometry":{"x":171762.76000000164,"y":2544977.5800000019}},{"attributes":{"ID":630471,"DIS_CODE":0,"TOWNNAME":"永康區","LI":"網寮里","LIN":"20鄰","STREET":"文化路","SECT":" ","MAREA":" ","LANE":" ","ALLEY":" ","HOUSE_NO":"３３９號","E_COORD97":173391.32999999999,"N_COORD97":2546173.6699999999,"ADDRESS":"文化路３３９號","OBJECTID":630444},"geometry":{"x":173391.33000000007,"y":2546173.6700000018}},{"attributes":{"ID":630472,"DIS_CODE":0,"TOWNNAME":"永康區","LI":"網寮里","LIN":"20鄰","STREET":"文化路","SECT":" ","MAREA":" ","LANE":" ","ALLEY":" ","HOUSE_NO":"３４１號","E_COORD97":173387.75,"N_COORD97":2546175.98,"ADDRESS":"文化路３４１號","OBJECTID":630445},"geometry":{"x":173387.75000000093,"y":2546175.9800000023}},{"attributes":{"ID":630473,"DIS_CODE":0,"TOWNNAME":"永康區","LI":"正強里","LIN":"32鄰","STREET":"四維街","SECT":" ","MAREA":" ","LANE":" ","ALLEY":" ","HOUSE_NO":"１３號","E_COORD97":173429.47,"N_COORD97":2547957.4399999999,"ADDRESS":"四維街１３號","OBJECTID":630446},"geometry":{"x":173429.47000000067,"y":2547957.4400000013}},{"attributes":{"ID":630474,"DIS_CODE":0,"TOWNNAME":"永康區","LI":"中興里","LIN":"13鄰","STREET":"中興街","SECT":" ","MAREA":" ","LANE":" ","ALLEY":" ","HOUSE_NO":"１２２號","E_COORD97":172091.26000000001,"N_COORD97":2545409.3599999999,"ADDRESS":"中興街１２２號","OBJECTID":630447},"geometry":{"x":172091.25999999978,"y":2545409.3600000013}},{"attributes":{"ID":630475,"DIS_CODE":0,"TOWNNAME":"東區","LI":"崇善里","LIN":"4鄰","STREET":"崇善二街","SECT":" ","MAREA":" ","LANE":" ","ALLEY":" ","HOUSE_NO":"３３號","E_COORD97":170988.94,"N_COORD97":2542138.6499999999,"ADDRESS":"崇善二街３３號","OBJECTID":630448},"geometry":{"x":170988.94000000041,"y":2542138.6500000041}},{"attributes":{"ID":630476,"DIS_CODE":0,"TOWNNAME":"永康區","LI":"王行里","LIN":"1鄰","STREET":"王行路","SECT":" ","MAREA":" ","LANE":" ","ALLEY":" ","HOUSE_NO":"１３之１號","E_COORD97":175559.81,"N_COORD97":2547873.8100000001,"ADDRESS":"王行路１３之１號","OBJECTID":630449},"geometry":{"x":175559.81000000052,"y":2547873.8100000005}},{"attributes":{"ID":630477,"DIS_CODE":0,"TOWNNAME":"永康區","LI":"正強里","LIN":"32鄰","STREET":"四維街","SECT":" ","MAREA":" ","LANE":" ","ALLEY":" ","HOUSE_NO":"１１號","E_COORD97":173430.60999999999,"N_COORD97":2547953.79,"ADDRESS":"四維街１１號","OBJECTID":630450},"geometry":{"x":173430.6099999994,"y":2547953.7899999991}},{"attributes":{"ID":630478,"DIS_CODE":0,"TOWNNAME":"永康區","LI":"網寮里","LIN":"4鄰","STREET":"永二街","SECT":" ","MAREA":" ","LANE":" ","ALLEY":" ","HOUSE_NO":"１０２號","E_COORD97":173520.79000000001,"N_COORD97":2546491.7599999998,"ADDRESS":"永二街１０２號","OBJECTID":630451},"geometry":{"x":173520.7900000019,"y":2546491.7600000016}},{"attributes":{"ID":630479,"DIS_CODE":0,"TOWNNAME":"永康區","LI":"網寮里","LIN":"4鄰","STREET":"永二街","SECT":" ","MAREA":" ","LANE":" ","ALLEY":" ","HOUSE_NO":"１１６號","E_COORD97":173505.20000000001,"N_COORD97":2546464.6200000001,"ADDRESS":"永二街１１６號","OBJECTID":630452},"geometry":{"x":173505.20000000112,"y":2546464.620000001}},{"attributes":{"ID":630480,"DIS_CODE":0,"TOWNNAME":"東區","LI":"大智里","LIN":"25鄰","STREET":"文東街","SECT":" ","MAREA":" ","LANE":" ","ALLEY":" ","HOUSE_NO":"９１號","E_COORD97":171401.48000000001,"N_COORD97":2540214.3399999999,"ADDRESS":"文東街９１號","OBJECTID":630453},"geometry":{"x":171401.48000000138,"y":2540214.3400000036}},{"attributes":{"ID":630481,"DIS_CODE":0,"TOWNNAME":"永康區","LI":"永康里","LIN":"39鄰","STREET":"永大一路","SECT":" ","MAREA":" ","LANE":" ","ALLEY":" ","HOUSE_NO":"３６號","E_COORD97":174277.48999999999,"N_COORD97":2546495.0499999998,"ADDRESS":"永大一路３６號","OBJECTID":630454},"geometry":{"x":174277.49000000115,"y":2546495.0500000007}},{"attributes":{"ID":630482,"DIS_CODE":0,"TOWNNAME":"永康區","LI":"永康里","LIN":"42鄰","STREET":"永大一路","SECT":" ","MAREA":" ","LANE":" ","ALLEY":" ","HOUSE_NO":"７５號","E_COORD97":174167.5,"N_COORD97":2546425.8100000001,"ADDRESS":"永大一路７５號","OBJECTID":630455},"geometry":{"x":174167.50000000093,"y":2546425.8100000005}},{"attributes":{"ID":630483,"DIS_CODE":0,"TOWNNAME":"永康區","LI":"西灣里","LIN":"40鄰","STREET":"永華路","SECT":" ","MAREA":" ","LANE":" ","ALLEY":" ","HOUSE_NO":"８２號","E_COORD97":174107.32000000001,"N_COORD97":2545348.21,"ADDRESS":"永華路８２號","OBJECTID":630456},"geometry":{"x":174107.32000000216,"y":2545348.2100000009}},{"attributes":{"ID":630484,"DIS_CODE":0,"TOWNNAME":"永康區","LI":"北灣里","LIN":"39鄰","STREET":"永大路","SECT":"二段","MAREA":" ","LANE":" ","ALLEY":" ","HOUSE_NO":"１０１０號","E_COORD97":174454.29000000001,"N_COORD97":2546408.7000000002,"ADDRESS":"永大路二段１０１０號","OBJECTID":630457},"geometry":{"x":174454.29000000004,"y":2546408.6999999974}},{"attributes":{"ID":630485,"DIS_CODE":0,"TOWNNAME":"永康區","LI":"永康里","LIN":"25鄰","STREET":"永大路","SECT":"三段","MAREA":" ","LANE":" ","ALLEY":" ","HOUSE_NO":"１０１號","E_COORD97":174149.35999999999,"N_COORD97":2547822.8300000001,"ADDRESS":"永大路三段１０１號","OBJECTID":630458},"geometry":{"x":174149.3599999994,"y":2547822.8300000038}},{"attributes":{"ID":630486,"DIS_CODE":0,"TOWNNAME":"永康區","LI":"網寮里","LIN":"4鄰","STREET":"永勝街","SECT":" ","MAREA":" ","LANE":" ","ALLEY":" ","HOUSE_NO":"１６８號","E_COORD97":173381.23000000001,"N_COORD97":2546433.5899999999,"ADDRESS":"永勝街１６８號","OBJECTID":630459},"geometry":{"x":173381.23000000138,"y":2546433.5899999999}},{"attributes":{"ID":630487,"DIS_CODE":0,"TOWNNAME":"永康區","LI":"網寮里","LIN":"4鄰","STREET":"永勝街","SECT":" ","MAREA":" ","LANE":" ","ALLEY":" ","HOUSE_NO":"１７０號","E_COORD97":173376.31,"N_COORD97":2546435.1000000001,"ADDRESS":"永勝街１７０號","OBJECTID":630460},"geometry":{"x":173376.31000000052,"y":2546435.1000000015}},{"attributes":{"ID":630488,"DIS_CODE":0,"TOWNNAME":"永康區","LI":"永康里","LIN":"18鄰","STREET":"永華路","SECT":" ","MAREA":" ","LANE":" ","ALLEY":" ","HOUSE_NO":"４７９號","E_COORD97":174091.63,"N_COORD97":2547139.3399999999,"ADDRESS":"永華路４７９號","OBJECTID":630461},"geometry":{"x":174091.63000000082,"y":2547139.3399999999}},{"attributes":{"ID":630489,"DIS_CODE":0,"TOWNNAME":"永康區","LI":"永康里","LIN":"18鄰","STREET":"永華路","SECT":" ","MAREA":" ","LANE":" ","ALLEY":" ","HOUSE_NO":"４８１號","E_COORD97":174092.76000000001,"N_COORD97":2547141.6099999999,"ADDRESS":"永華路４８１號","OBJECTID":630462},"geometry":{"x":174092.76000000071,"y":2547141.6099999994}},{"attributes":{"ID":630490,"DIS_CODE":0,"TOWNNAME":"永康區","LI":"西灣里","LIN":"37鄰","STREET":"永華路","SECT":" ","MAREA":" ","LANE":" ","ALLEY":" ","HOUSE_NO":"３３０號","E_COORD97":174096.13,"N_COORD97":2545701.2599999998,"ADDRESS":"永華路３３０號","OBJECTID":630463},"geometry":{"x":174096.12999999989,"y":2545701.2600000016}},{"attributes":{"ID":630491,"DIS_CODE":0,"TOWNNAME":"永康區","LI":"烏竹里","LIN":"20鄰","STREET":"自強路","SECT":" ","MAREA":" ","LANE":" ","ALLEY":" ","HOUSE_NO":"８２７號","E_COORD97":174597.22,"N_COORD97":2548659.4900000002,"ADDRESS":"自強路８２７號","OBJECTID":630464},"geometry":{"x":174597.21999999881,"y":2548659.4900000021}},{"attributes":{"ID":630492,"DIS_CODE":0,"TOWNNAME":"永康區","LI":"西灣里","LIN":"41鄰","STREET":"永華路","SECT":" ","MAREA":" ","LANE":" ","ALLEY":" ","HOUSE_NO":"７１號","E_COORD97":174078.48000000001,"N_COORD97":2545335.6699999999,"ADDRESS":"永華路７１號","OBJECTID":630465},"geometry":{"x":174078.48000000045,"y":2545335.6700000018}},{"attributes":{"ID":630493,"DIS_CODE":0,"TOWNNAME":"永康區","LI":"西灣里","LIN":"41鄰","STREET":"永華路","SECT":" ","MAREA":" ","LANE":" ","ALLEY":" ","HOUSE_NO":"７３號","E_COORD97":174076.85000000001,"N_COORD97":2545334.8500000001,"ADDRESS":"永華路７３號","OBJECTID":630466},"geometry":{"x":174076.84999999963,"y":2545334.8500000015}},{"attributes":{"ID":630494,"DIS_CODE":0,"TOWNNAME":"永康區","LI":"西灣里","LIN":"40鄰","STREET":"永華路","SECT":" ","MAREA":" ","LANE":" ","ALLEY":" ","HOUSE_NO":"７０號","E_COORD97":174104.25,"N_COORD97":2545330.79,"ADDRESS":"永華路７０號","OBJECTID":630467},"geometry":{"x":174104.25000000093,"y":2545330.790000001}},{"attributes":{"ID":630495,"DIS_CODE":0,"TOWNNAME":"永康區","LI":"西灣里","LIN":"40鄰","STREET":"永華路","SECT":" ","MAREA":" ","LANE":" ","ALLEY":" ","HOUSE_NO":"７２號","E_COORD97":174105.64000000001,"N_COORD97":2545334.75,"ADDRESS":"永華路７２號","OBJECTID":630468},"geometry":{"x":174105.63999999966,"y":2545334.7500000037}},{"attributes":{"ID":630496,"DIS_CODE":0,"TOWNNAME":"永康區","LI":"西灣里","LIN":"40鄰","STREET":"永華路","SECT":" ","MAREA":" ","LANE":" ","ALLEY":" ","HOUSE_NO":"７８號","E_COORD97":174105.92000000001,"N_COORD97":2545338.7200000002,"ADDRESS":"永華路７８號","OBJECTID":630469},"geometry":{"x":174105.91999999993,"y":2545338.7199999988}},{"attributes":{"ID":630497,"DIS_CODE":0,"TOWNNAME":"永康區","LI":"西灣里","LIN":"40鄰","STREET":"永華路","SECT":" ","MAREA":" ","LANE":" ","ALLEY":" ","HOUSE_NO":"８０號","E_COORD97":174106.87,"N_COORD97":2545344.0299999998,"ADDRESS":"永華路８０號","OBJECTID":630470},"geometry":{"x":174106.87000000197,"y":2545344.0299999993}},{"attributes":{"ID":630498,"DIS_CODE":0,"TOWNNAME":"東區","LI":"大智里","LIN":"25鄰","STREET":"文東街","SECT":" ","MAREA":" ","LANE":" ","ALLEY":" ","HOUSE_NO":"７５號","E_COORD97":171356.82999999999,"N_COORD97":2540217.5,"ADDRESS":"文東街７５號","OBJECTID":630471},"geometry":{"x":171356.83000000007,"y":2540217.5000000019}},{"attributes":{"ID":630499,"DIS_CODE":0,"TOWNNAME":"中西區","LI":"西賢里","LIN":"19鄰","STREET":"西賢一街","SECT":" ","MAREA":" ","LANE":" ","ALLEY":" ","HOUSE_NO":"１０１號","E_COORD97":165680.32999999999,"N_COORD97":2544724.7599999998,"ADDRESS":"西賢一街１０１號","OBJECTID":630472},"geometry":{"x":165680.33000000194,"y":2544724.7600000016}},{"attributes":{"ID":630500,"DIS_CODE":0,"TOWNNAME":"中西區","LI":"西賢里","LIN":"19鄰","STREET":"西賢一街","SECT":" ","MAREA":" ","LANE":" ","ALLEY":" ","HOUSE_NO":"１０３號","E_COORD97":165680.04999999999,"N_COORD97":2544728.7000000002,"ADDRESS":"西賢一街１０３號","OBJECTID":630473},"geometry":{"x":165680.04999999888,"y":2544728.7000000011}},{"attributes":{"ID":630501,"DIS_CODE":0,"TOWNNAME":"中西區","LI":"西賢里","LIN":"19鄰","STREET":"西賢一街","SECT":" ","MAREA":" ","LANE":" ","ALLEY":" ","HOUSE_NO":"１０５號","E_COORD97":165680.04999999999,"N_COORD97":2544734.0499999998,"ADDRESS":"西賢一街１０５號","OBJECTID":630474},"geometry":{"x":165680.04999999888,"y":2544734.0500000026}},{"attributes":{"ID":630502,"DIS_CODE":0,"TOWNNAME":"中西區","LI":"西賢里","LIN":"19鄰","STREET":"西賢一街","SECT":" ","MAREA":" ","LANE":" ","ALLEY":" ","HOUSE_NO":"１０７號","E_COORD97":165680.04999999999,"N_COORD97":2544739.1099999999,"ADDRESS":"西賢一街１０７號","OBJECTID":630475},"geometry":{"x":165680.04999999888,"y":2544739.1100000013}},{"attributes":{"ID":630503,"DIS_CODE":0,"TOWNNAME":"中西區","LI":"西賢里","LIN":"20鄰","STREET":"西賢一街","SECT":" ","MAREA":" ","LANE":" ","ALLEY":" ","HOUSE_NO":"１３９號","E_COORD97":165676.34,"N_COORD97":2544829.8700000001,"ADDRESS":"西賢一街１３９號","OBJECTID":630476},"geometry":{"x":165676.33999999985,"y":2544829.8700000048}},{"attributes":{"ID":630504,"DIS_CODE":0,"TOWNNAME":"東區","LI":"大智里","LIN":"25鄰","STREET":"文東街","SECT":" ","MAREA":" ","LANE":" ","ALLEY":" ","HOUSE_NO":"７６號","E_COORD97":171421.13,"N_COORD97":2540192.3199999998,"ADDRESS":"文東街７６號","OBJECTID":630477},"geometry":{"x":171421.12999999989,"y":2540192.3200000022}},{"attributes":{"ID":630505,"DIS_CODE":0,"TOWNNAME":"中西區","LI":"西賢里","LIN":"19鄰","STREET":"西賢一街","SECT":" ","MAREA":" ","LANE":" ","ALLEY":" ","HOUSE_NO":"９７號","E_COORD97":165680.89000000001,"N_COORD97":2544713.5099999998,"ADDRESS":"西賢一街９７號","OBJECTID":630478},"geometry":{"x":165680.88999999966,"y":2544713.5100000016}},{"attributes":{"ID":630506,"DIS_CODE":0,"TOWNNAME":"中西區","LI":"西賢里","LIN":"19鄰","STREET":"西賢一街","SECT":" ","MAREA":" ","LANE":" ","ALLEY":" ","HOUSE_NO":"９９號","E_COORD97":165680.32999999999,"N_COORD97":2544719.4199999999,"ADDRESS":"西賢一街９９號","OBJECTID":630479},"geometry":{"x":165680.33000000194,"y":2544719.4199999999}},{"attributes":{"ID":630507,"DIS_CODE":0,"TOWNNAME":"東區","LI":"大智里","LIN":"25鄰","STREET":"文東街","SECT":" ","MAREA":" ","LANE":" ","ALLEY":" ","HOUSE_NO":"１０７號","E_COORD97":171437.87,"N_COORD97":2540216.8999999999,"ADDRESS":"文東街１０７號","OBJECTID":630480},"geometry":{"x":171437.87000000011,"y":2540216.9000000004}},{"attributes":{"ID":630508,"DIS_CODE":0,"TOWNNAME":"東區","LI":"大智里","LIN":"20鄰","STREET":"崇善十五街","SECT":" ","MAREA":" ","LANE":" ","ALLEY":" ","HOUSE_NO":"４１號","E_COORD97":171311.75,"N_COORD97":2540548.1699999999,"ADDRESS":"崇善十五街４１號","OBJECTID":630481},"geometry":{"x":171311.75,"y":2540548.1700000018}},{"attributes":{"ID":630509,"DIS_CODE":0,"TOWNNAME":"東區","LI":"大智里","LIN":"20鄰","STREET":"崇善十五街","SECT":" ","MAREA":" ","LANE":" ","ALLEY":" ","HOUSE_NO":"１７號之２","E_COORD97":171382.16,"N_COORD97":2540522.3700000001,"ADDRESS":"崇善十五街１７號之２","OBJECTID":630482},"geometry":{"x":171382.16000000015,"y":2540522.370000001}},{"attributes":{"ID":630510,"DIS_CODE":0,"TOWNNAME":"東區","LI":"大智里","LIN":"25鄰","STREET":"文東街","SECT":" ","MAREA":" ","LANE":" ","ALLEY":" ","HOUSE_NO":"７８號","E_COORD97":171425.73999999999,"N_COORD97":2540191.1200000001,"ADDRESS":"文東街７８號","OBJECTID":630483},"geometry":{"x":171425.74000000022,"y":2540191.1200000029}},{"attributes":{"ID":630511,"DIS_CODE":0,"TOWNNAME":"東區","LI":"大智里","LIN":"25鄰","STREET":"文東街","SECT":" ","MAREA":" ","LANE":" ","ALLEY":" ","HOUSE_NO":"８９號","E_COORD97":171385.81,"N_COORD97":2540213.1800000002,"ADDRESS":"文東街８９號","OBJECTID":630484},"geometry":{"x":171385.81000000145,"y":2540213.1800000016}},{"attributes":{"ID":630512,"DIS_CODE":0,"TOWNNAME":"東區","LI":"富裕里","LIN":"13鄰","STREET":"裕豐街","SECT":" ","MAREA":" ","LANE":" ","ALLEY":" ","HOUSE_NO":"４１號","E_COORD97":170701.32999999999,"N_COORD97":2542787.7799999998,"ADDRESS":"裕豐街４１號","OBJECTID":630485},"geometry":{"x":170701.33000000194,"y":2542787.7800000031}},{"attributes":{"ID":630513,"DIS_CODE":0,"TOWNNAME":"東區","LI":"德高里","LIN":"4鄰","STREET":"城東街","SECT":" ","MAREA":" ","LANE":" ","ALLEY":" ","HOUSE_NO":"４３號","E_COORD97":171560.79999999999,"N_COORD97":2540750.3599999999,"ADDRESS":"城東街４３號","OBJECTID":630486},"geometry":{"x":171560.80000000168,"y":2540750.3600000013}},{"attributes":{"ID":630514,"DIS_CODE":0,"TOWNNAME":"東區","LI":"德高里","LIN":"14鄰","STREET":"仁和路","SECT":" ","MAREA":" ","LANE":" ","ALLEY":" ","HOUSE_NO":"２２３號","E_COORD97":171693.22,"N_COORD97":2540784.46,"ADDRESS":"仁和路２２３號","OBJECTID":630487},"geometry":{"x":171693.21999999974,"y":2540784.4600000046}},{"attributes":{"ID":630515,"DIS_CODE":0,"TOWNNAME":"東區","LI":"圍下里","LIN":"16鄰","STREET":"新樓街","SECT":" ","MAREA":" ","LANE":" ","ALLEY":" ","HOUSE_NO":"５３號","E_COORD97":169578.54000000001,"N_COORD97":2543352.25,"ADDRESS":"新樓街５３號","OBJECTID":630488},"geometry":{"x":169578.54000000097,"y":2543352.2500000019}},{"attributes":{"ID":630516,"DIS_CODE":0,"TOWNNAME":"東區","LI":"德高里","LIN":"4鄰","STREET":"城東街","SECT":" ","MAREA":" ","LANE":" ","ALLEY":" ","HOUSE_NO":"６３號","E_COORD97":171596.45000000001,"N_COORD97":2540770.0099999998,"ADDRESS":"城東街６３號","OBJECTID":630489},"geometry":{"x":171596.45000000112,"y":2540770.0100000016}},{"attributes":{"ID":630517,"DIS_CODE":0,"TOWNNAME":"東區","LI":"德高里","LIN":"17鄰","STREET":"崇善路","SECT":" ","MAREA":" ","LANE":" ","ALLEY":" ","HOUSE_NO":"１１５５號","E_COORD97":171656.35000000001,"N_COORD97":2540359.46,"ADDRESS":"崇善路１１５５號","OBJECTID":630490},"geometry":{"x":171656.34999999963,"y":2540359.4600000009}},{"attributes":{"ID":630518,"DIS_CODE":0,"TOWNNAME":"東區","LI":"德高里","LIN":"13鄰","STREET":"城東街","SECT":" ","MAREA":" ","LANE":" ","ALLEY":" ","HOUSE_NO":"３５號","E_COORD97":171519.59,"N_COORD97":2540707.4500000002,"ADDRESS":"城東街３５號","OBJECTID":630491},"geometry":{"x":171519.58999999985,"y":2540707.4499999993}},{"attributes":{"ID":630519,"DIS_CODE":0,"TOWNNAME":"東區","LI":"中西里","LIN":"8鄰","STREET":"勝利路","SECT":" ","MAREA":" ","LANE":" ","ALLEY":" ","HOUSE_NO":"３４號","E_COORD97":169809.78,"N_COORD97":2543468.6699999999,"ADDRESS":"勝利路３４號","OBJECTID":630492},"geometry":{"x":169809.78000000026,"y":2543468.6700000018}},{"attributes":{"ID":630520,"DIS_CODE":0,"TOWNNAME":"東區","LI":"崇善里","LIN":"7鄰","STREET":"崇善七街","SECT":" ","MAREA":" ","LANE":" ","ALLEY":" ","HOUSE_NO":"２７號","E_COORD97":171103.88,"N_COORD97":2541475.73,"ADDRESS":"崇善七街２７號","OBJECTID":630493},"geometry":{"x":171103.87999999989,"y":2541475.7300000004}},{"attributes":{"ID":630521,"DIS_CODE":0,"TOWNNAME":"東區","LI":"崇善里","LIN":"7鄰","STREET":"崇善七街","SECT":" ","MAREA":" ","LANE":" ","ALLEY":" ","HOUSE_NO":"２９號","E_COORD97":171118.82000000001,"N_COORD97":2541483.29,"ADDRESS":"崇善七街２９號","OBJECTID":630494},"geometry":{"x":171118.82000000216,"y":2541483.290000001}},{"attributes":{"ID":630522,"DIS_CODE":0,"TOWNNAME":"東區","LI":"小東里","LIN":"7鄰","STREET":"東平路","SECT":" ","MAREA":" ","LANE":" ","ALLEY":" ","HOUSE_NO":"１６０號","E_COORD97":170988.26999999999,"N_COORD97":2543997.0299999998,"ADDRESS":"東平路１６０號","OBJECTID":630495},"geometry":{"x":170988.27000000048,"y":2543997.0300000012}},{"attributes":{"ID":630523,"DIS_CODE":0,"TOWNNAME":"東區","LI":"德高里","LIN":"4鄰","STREET":"德高街","SECT":" ","MAREA":" ","LANE":" ","ALLEY":" ","HOUSE_NO":"９３號","E_COORD97":171560.92999999999,"N_COORD97":2540785.5899999999,"ADDRESS":"德高街９３號","OBJECTID":630496},"geometry":{"x":171560.9299999997,"y":2540785.5900000036}},{"attributes":{"ID":630524,"DIS_CODE":0,"TOWNNAME":"東區","LI":"小東里","LIN":"18鄰","STREET":"東和路","SECT":" ","MAREA":" ","LANE":" ","ALLEY":" ","HOUSE_NO":"４０號","E_COORD97":170969.81,"N_COORD97":2544346.7400000002,"ADDRESS":"東和路４０號","OBJECTID":630497},"geometry":{"x":170969.80999999959,"y":2544346.7400000002}},{"attributes":{"ID":630525,"DIS_CODE":0,"TOWNNAME":"東區","LI":"衛國里","LIN":"20鄰","STREET":"林森路","SECT":"二段","MAREA":" ","LANE":" ","ALLEY":" ","HOUSE_NO":"１００號","E_COORD97":170403.35000000001,"N_COORD97":2543150.5099999998,"ADDRESS":"林森路二段１００號","OBJECTID":630498},"geometry":{"x":170403.34999999963,"y":2543150.5100000016}},{"attributes":{"ID":630526,"DIS_CODE":0,"TOWNNAME":"東區","LI":"中西里","LIN":"14鄰","STREET":"東寧路","SECT":" ","MAREA":" ","LANE":" ","ALLEY":" ","HOUSE_NO":"６６號","E_COORD97":170128.76000000001,"N_COORD97":2543578.0800000001,"ADDRESS":"東寧路６６號","OBJECTID":630499},"geometry":{"x":170128.76000000071,"y":2543578.0800000001}},{"attributes":{"ID":630527,"DIS_CODE":0,"TOWNNAME":"東區","LI":"中西里","LIN":"14鄰","STREET":"東寧路","SECT":" ","MAREA":" ","LANE":" ","ALLEY":" ","HOUSE_NO":"６８號","E_COORD97":170132.17000000001,"N_COORD97":2543580,"ADDRESS":"東寧路６８號","OBJECTID":630500},"geometry":{"x":170132.16999999993,"y":2543580.0000000037}},{"attributes":{"ID":630528,"DIS_CODE":0,"TOWNNAME":"東區","LI":"中西里","LIN":"14鄰","STREET":"東寧路","SECT":" ","MAREA":" ","LANE":" ","ALLEY":" ","HOUSE_NO":"７０號","E_COORD97":170138.82999999999,"N_COORD97":2543586.9500000002,"ADDRESS":"東寧路７０號","OBJECTID":630501},"geometry":{"x":170138.83000000101,"y":2543586.9500000011}},{"attributes":{"ID":630529,"DIS_CODE":0,"TOWNNAME":"東區","LI":"中西里","LIN":"14鄰","STREET":"東寧路","SECT":" ","MAREA":" ","LANE":" ","ALLEY":" ","HOUSE_NO":"７２號","E_COORD97":170145.34,"N_COORD97":2543590.0600000001,"ADDRESS":"東寧路７２號","OBJECTID":630502},"geometry":{"x":170145.34000000078,"y":2543590.0600000005}},{"attributes":{"ID":630530,"DIS_CODE":0,"TOWNNAME":"東區","LI":"中西里","LIN":"14鄰","STREET":"東寧路","SECT":" ","MAREA":" ","LANE":" ","ALLEY":" ","HOUSE_NO":"７４號","E_COORD97":170152.60000000001,"N_COORD97":2543595.3799999999,"ADDRESS":"東寧路７４號","OBJECTID":630503},"geometry":{"x":170152.59999999963,"y":2543595.379999999}},{"attributes":{"ID":630531,"DIS_CODE":0,"TOWNNAME":"東區","LI":"崇德里","LIN":"4鄰","STREET":"崇德五街","SECT":" ","MAREA":" ","LANE":" ","ALLEY":" ","HOUSE_NO":"８０號","E_COORD97":170760.19,"N_COORD97":2541921.46,"ADDRESS":"崇德五街８０號","OBJECTID":630504},"geometry":{"x":170760.18999999948,"y":2541921.4600000028}},{"attributes":{"ID":630532,"DIS_CODE":0,"TOWNNAME":"東區","LI":"崇德里","LIN":"4鄰","STREET":"崇德五街","SECT":" ","MAREA":" ","LANE":" ","ALLEY":" ","HOUSE_NO":"８２號","E_COORD97":170762.29999999999,"N_COORD97":2541925.6699999999,"ADDRESS":"崇德五街８２號","OBJECTID":630505},"geometry":{"x":170762.30000000168,"y":2541925.6700000018}},{"attributes":{"ID":630533,"DIS_CODE":0,"TOWNNAME":"東區","LI":"德高里","LIN":"4鄰","STREET":"德高街","SECT":" ","MAREA":" ","LANE":" ","ALLEY":" ","HOUSE_NO":"１０１號","E_COORD97":171548.48000000001,"N_COORD97":2540769.2200000002,"ADDRESS":"德高街１０１號","OBJECTID":630506},"geometry":{"x":171548.48000000231,"y":2540769.2200000025}},{"attributes":{"ID":630534,"DIS_CODE":0,"TOWNNAME":"東區","LI":"德高里","LIN":"4鄰","STREET":"德高街","SECT":" ","MAREA":" ","LANE":" ","ALLEY":" ","HOUSE_NO":"１０３號","E_COORD97":171560.14000000001,"N_COORD97":2540766.0800000001,"ADDRESS":"德高街１０３號","OBJECTID":630507},"geometry":{"x":171560.1400000006,"y":2540766.0800000019}},{"attributes":{"ID":630535,"DIS_CODE":0,"TOWNNAME":"東區","LI":"德高里","LIN":"4鄰","STREET":"德高街","SECT":" ","MAREA":" ","LANE":" ","ALLEY":" ","HOUSE_NO":"６５號","E_COORD97":171501.76999999999,"N_COORD97":2540824,"ADDRESS":"德高街６５號","OBJECTID":630508},"geometry":{"x":171501.77000000048,"y":2540824.0000000037}},{"attributes":{"ID":630536,"DIS_CODE":0,"TOWNNAME":"東區","LI":"德高里","LIN":"4鄰","STREET":"德高街","SECT":" ","MAREA":" ","LANE":" ","ALLEY":" ","HOUSE_NO":"６７號","E_COORD97":171504.81,"N_COORD97":2540820.8100000001,"ADDRESS":"德高街６７號","OBJECTID":630509},"geometry":{"x":171504.81000000052,"y":2540820.8100000005}},{"attributes":{"ID":630537,"DIS_CODE":0,"TOWNNAME":"東區","LI":"德高里","LIN":"4鄰","STREET":"德高街","SECT":" ","MAREA":" ","LANE":" ","ALLEY":" ","HOUSE_NO":"６９號","E_COORD97":171508,"N_COORD97":2540816.8999999999,"ADDRESS":"德高街６９號","OBJECTID":630510},"geometry":{"x":171508,"y":2540816.9000000004}},{"attributes":{"ID":630538,"DIS_CODE":0,"TOWNNAME":"東區","LI":"德高里","LIN":"4鄰","STREET":"德高街","SECT":" ","MAREA":" ","LANE":" ","ALLEY":" ","HOUSE_NO":"７１號","E_COORD97":171510.75,"N_COORD97":2540814.0099999998,"ADDRESS":"德高街７１號","OBJECTID":630511},"geometry":{"x":171510.75000000093,"y":2540814.0100000016}},{"attributes":{"ID":630539,"DIS_CODE":0,"TOWNNAME":"東區","LI":"德高里","LIN":"4鄰","STREET":"德高街","SECT":" ","MAREA":" ","LANE":" ","ALLEY":" ","HOUSE_NO":"７３號","E_COORD97":171518.20999999999,"N_COORD97":2540809.8799999999,"ADDRESS":"德高街７３號","OBJECTID":630512},"geometry":{"x":171518.21000000089,"y":2540809.8800000027}},{"attributes":{"ID":630540,"DIS_CODE":0,"TOWNNAME":"東區","LI":"德高里","LIN":"4鄰","STREET":"德高街","SECT":" ","MAREA":" ","LANE":" ","ALLEY":" ","HOUSE_NO":"７５號","E_COORD97":171520.97,"N_COORD97":2540806.3999999999,"ADDRESS":"德高街７５號","OBJECTID":630513},"geometry":{"x":171520.97000000067,"y":2540806.4000000004}},{"attributes":{"ID":630541,"DIS_CODE":0,"TOWNNAME":"東區","LI":"德高里","LIN":"4鄰","STREET":"德高街","SECT":" ","MAREA":" ","LANE":" ","ALLEY":" ","HOUSE_NO":"７７號","E_COORD97":171524.14999999999,"N_COORD97":2540802.6800000002,"ADDRESS":"德高街７７號","OBJECTID":630514},"geometry":{"x":171524.1500000013,"y":2540802.6800000016}},{"attributes":{"ID":630542,"DIS_CODE":0,"TOWNNAME":"東區","LI":"德高里","LIN":"4鄰","STREET":"德高街","SECT":" ","MAREA":" ","LANE":" ","ALLEY":" ","HOUSE_NO":"７９號","E_COORD97":171526.57000000001,"N_COORD97":2540799.6299999999,"ADDRESS":"德高街７９號","OBJECTID":630515},"geometry":{"x":171526.5700000003,"y":2540799.6300000008}},{"attributes":{"ID":630543,"DIS_CODE":0,"TOWNNAME":"東區","LI":"德高里","LIN":"4鄰","STREET":"德高街","SECT":" ","MAREA":" ","LANE":" ","ALLEY":" ","HOUSE_NO":"８１號","E_COORD97":171532.47,"N_COORD97":2540797.3199999998,"ADDRESS":"德高街８１號","OBJECTID":630516},"geometry":{"x":171532.4700000016,"y":2540797.3200000003}},{"attributes":{"ID":630544,"DIS_CODE":0,"TOWNNAME":"東區","LI":"德高里","LIN":"4鄰","STREET":"德高街","SECT":" ","MAREA":" ","LANE":" ","ALLEY":" ","HOUSE_NO":"８３號","E_COORD97":171535.84,"N_COORD97":2540794.0600000001,"ADDRESS":"德高街８３號","OBJECTID":630517},"geometry":{"x":171535.84000000078,"y":2540794.0600000024}},{"attributes":{"ID":630545,"DIS_CODE":0,"TOWNNAME":"東區","LI":"德高里","LIN":"4鄰","STREET":"德高街","SECT":" ","MAREA":" ","LANE":" ","ALLEY":" ","HOUSE_NO":"８５號","E_COORD97":171540.35000000001,"N_COORD97":2540785.7200000002,"ADDRESS":"德高街８５號","OBJECTID":630518},"geometry":{"x":171540.35000000056,"y":2540785.7200000044}},{"attributes":{"ID":630546,"DIS_CODE":0,"TOWNNAME":"東區","LI":"德高里","LIN":"4鄰","STREET":"德高街","SECT":" ","MAREA":" ","LANE":" ","ALLEY":" ","HOUSE_NO":"８７號","E_COORD97":171543.10999999999,"N_COORD97":2540781.0099999998,"ADDRESS":"德高街８７號","OBJECTID":630519},"geometry":{"x":171543.11000000127,"y":2540781.0100000016}},{"attributes":{"ID":630547,"DIS_CODE":0,"TOWNNAME":"東區","LI":"德高里","LIN":"4鄰","STREET":"德高街","SECT":" ","MAREA":" ","LANE":" ","ALLEY":" ","HOUSE_NO":"８９號","E_COORD97":171546.51000000001,"N_COORD97":2540777.0800000001,"ADDRESS":"德高街８９號","OBJECTID":630520},"geometry":{"x":171546.51000000071,"y":2540777.0800000019}},{"attributes":{"ID":630548,"DIS_CODE":0,"TOWNNAME":"東區","LI":"德高里","LIN":"4鄰","STREET":"德高街","SECT":" ","MAREA":" ","LANE":" ","ALLEY":" ","HOUSE_NO":"９７號","E_COORD97":171557,"N_COORD97":2540794.1600000001,"ADDRESS":"德高街９７號","OBJECTID":630521},"geometry":{"x":171557.00000000093,"y":2540794.1600000001}},{"attributes":{"ID":630549,"DIS_CODE":0,"TOWNNAME":"東區","LI":"德高里","LIN":"4鄰","STREET":"德高街","SECT":" ","MAREA":" ","LANE":" ","ALLEY":" ","HOUSE_NO":"９９號","E_COORD97":171553.32000000001,"N_COORD97":2540796.6899999999,"ADDRESS":"德高街９９號","OBJECTID":630522},"geometry":{"x":171553.32000000123,"y":2540796.6899999995}},{"attributes":{"ID":630550,"DIS_CODE":0,"TOWNNAME":"東區","LI":"東安里","LIN":"20鄰","STREET":"衛國街","SECT":" ","MAREA":" ","LANE":" ","ALLEY":" ","HOUSE_NO":"３８號之１","E_COORD97":170261.94,"N_COORD97":2543048.0299999998,"ADDRESS":"衛國街３８號之１","OBJECTID":630523},"geometry":{"x":170261.94000000227,"y":2543048.0300000012}},{"attributes":{"ID":630551,"DIS_CODE":0,"TOWNNAME":"東區","LI":"富裕里","LIN":"13鄰","STREET":"裕豐街","SECT":" ","MAREA":" ","LANE":" ","ALLEY":" ","HOUSE_NO":"１１號","E_COORD97":170685.39999999999,"N_COORD97":2542730.6099999999,"ADDRESS":"裕豐街１１號","OBJECTID":630524},"geometry":{"x":170685.40000000037,"y":2542730.6099999994}},{"attributes":{"ID":630552,"DIS_CODE":0,"TOWNNAME":"東區","LI":"南聖里","LIN":"8鄰","STREET":"裕農一街","SECT":" ","MAREA":" ","LANE":" ","ALLEY":" ","HOUSE_NO":"２號","E_COORD97":171893.32000000001,"N_COORD97":2543225.2599999998,"ADDRESS":"裕農一街２號","OBJECTID":630525},"geometry":{"x":171893.31999999937,"y":2543225.2599999979}},{"attributes":{"ID":630553,"DIS_CODE":0,"TOWNNAME":"東區","LI":"南聖里","LIN":"8鄰","STREET":"裕農一街","SECT":" ","MAREA":" ","LANE":" ","ALLEY":" ","HOUSE_NO":"６號","E_COORD97":171893.32000000001,"N_COORD97":2543220.2599999998,"ADDRESS":"裕農一街６號","OBJECTID":630526},"geometry":{"x":171893.31999999937,"y":2543220.2600000016}},{"attributes":{"ID":630554,"DIS_CODE":0,"TOWNNAME":"東區","LI":"南聖里","LIN":"8鄰","STREET":"裕農一街","SECT":" ","MAREA":" ","LANE":" ","ALLEY":" ","HOUSE_NO":"８號","E_COORD97":171894.39000000001,"N_COORD97":2543213.71,"ADDRESS":"裕農一街８號","OBJECTID":630527},"geometry":{"x":171894.3900000006,"y":2543213.7100000046}},{"attributes":{"ID":630555,"DIS_CODE":0,"TOWNNAME":"東區","LI":"南聖里","LIN":"8鄰","STREET":"裕農一街","SECT":" ","MAREA":" ","LANE":" ","ALLEY":" ","HOUSE_NO":"１０號","E_COORD97":171894.51000000001,"N_COORD97":2543207.5299999998,"ADDRESS":"裕農一街１０號","OBJECTID":630528},"geometry":{"x":171894.50999999978,"y":2543207.5300000012}},{"attributes":{"ID":630556,"DIS_CODE":0,"TOWNNAME":"中西區","LI":"萬昌里","LIN":"20鄰","STREET":"萬昌街","SECT":" ","MAREA":" ","LANE":" ","ALLEY":" ","HOUSE_NO":"６５號","E_COORD97":169036.04000000001,"N_COORD97":2543494.1299999999,"ADDRESS":"萬昌街６５號","OBJECTID":630529},"geometry":{"x":169036.04000000097,"y":2543494.1300000008}},{"attributes":{"ID":630557,"DIS_CODE":0,"TOWNNAME":"中西區","LI":"西賢里","LIN":"21鄰","STREET":"西賢一街","SECT":" ","MAREA":" ","LANE":" ","ALLEY":" ","HOUSE_NO":"１８９號","E_COORD97":165674.97,"N_COORD97":2544976.1400000001,"ADDRESS":"西賢一街１８９號","OBJECTID":630530},"geometry":{"x":165674.96999999974,"y":2544976.1400000006}},{"attributes":{"ID":630558,"DIS_CODE":0,"TOWNNAME":"中西區","LI":"西賢里","LIN":"21鄰","STREET":"西賢一街","SECT":" ","MAREA":" ","LANE":" ","ALLEY":" ","HOUSE_NO":"１９１號","E_COORD97":165675.41,"N_COORD97":2544980.4900000002,"ADDRESS":"西賢一街１９１號","OBJECTID":630531},"geometry":{"x":165675.41000000108,"y":2544980.4899999984}},{"attributes":{"ID":630559,"DIS_CODE":0,"TOWNNAME":"中西區","LI":"西賢里","LIN":"21鄰","STREET":"西賢一街","SECT":" ","MAREA":" ","LANE":" ","ALLEY":" ","HOUSE_NO":"１９３號","E_COORD97":165675.51999999999,"N_COORD97":2544983.9399999999,"ADDRESS":"西賢一街１９３號","OBJECTID":630532},"geometry":{"x":165675.52000000048,"y":2544983.9400000013}},{"attributes":{"ID":630560,"DIS_CODE":0,"TOWNNAME":"中西區","LI":"西賢里","LIN":"21鄰","STREET":"西賢一街","SECT":" ","MAREA":" ","LANE":" ","ALLEY":" ","HOUSE_NO":"１９５號","E_COORD97":165681.32000000001,"N_COORD97":2544994.6400000001,"ADDRESS":"西賢一街１９５號","OBJECTID":630533},"geometry":{"x":165681.32000000123,"y":2544994.6400000025}},{"attributes":{"ID":630561,"DIS_CODE":0,"TOWNNAME":"中西區","LI":"西賢里","LIN":"21鄰","STREET":"西賢一街","SECT":" ","MAREA":" ","LANE":" ","ALLEY":" ","HOUSE_NO":"１９７號","E_COORD97":165676.85000000001,"N_COORD97":2544995.1499999999,"ADDRESS":"西賢一街１９７號","OBJECTID":630534},"geometry":{"x":165676.85000000056,"y":2544995.1500000004}},{"attributes":{"ID":630562,"DIS_CODE":0,"TOWNNAME":"中西區","LI":"西賢里","LIN":"21鄰","STREET":"西賢一街","SECT":" ","MAREA":" ","LANE":" ","ALLEY":" ","HOUSE_NO":"１９９號","E_COORD97":165671.62,"N_COORD97":2544994.77,"ADDRESS":"西賢一街１９９號","OBJECTID":630535},"geometry":{"x":165671.62000000197,"y":2544994.7699999977}},{"attributes":{"ID":630563,"DIS_CODE":0,"TOWNNAME":"中西區","LI":"西賢里","LIN":"21鄰","STREET":"西賢一街","SECT":" ","MAREA":" ","LANE":" ","ALLEY":" ","HOUSE_NO":"２０１號","E_COORD97":165666.89999999999,"N_COORD97":2544994.6400000001,"ADDRESS":"西賢一街２０１號","OBJECTID":630536},"geometry":{"x":165666.9000000013,"y":2544994.6400000025}},{"attributes":{"ID":630564,"DIS_CODE":0,"TOWNNAME":"中西區","LI":"西賢里","LIN":"21鄰","STREET":"西賢一街","SECT":" ","MAREA":" ","LANE":" ","ALLEY":" ","HOUSE_NO":"２０３號","E_COORD97":165661.28,"N_COORD97":2544996.6800000002,"ADDRESS":"西賢一街２０３號","OBJECTID":630537},"geometry":{"x":165661.28000000026,"y":2544996.6800000016}},{"attributes":{"ID":630565,"DIS_CODE":0,"TOWNNAME":"中西區","LI":"水仙里","LIN":"17鄰","STREET":"民族路","SECT":"三段","MAREA":" ","LANE":" ","ALLEY":" ","HOUSE_NO":"２１號","E_COORD97":167850.04000000001,"N_COORD97":2544260.9100000001,"ADDRESS":"民族路三段２１號","OBJECTID":630538},"geometry":{"x":167850.04000000004,"y":2544260.9100000001}},{"attributes":{"ID":630566,"DIS_CODE":0,"TOWNNAME":"中西區","LI":"水仙里","LIN":"17鄰","STREET":"民族路","SECT":"三段","MAREA":" ","LANE":" ","ALLEY":" ","HOUSE_NO":"２３號","E_COORD97":167846.84,"N_COORD97":2544264.52,"ADDRESS":"民族路三段２３號","OBJECTID":630539},"geometry":{"x":167846.84000000078,"y":2544264.5200000033}},{"attributes":{"ID":630567,"DIS_CODE":0,"TOWNNAME":"中西區","LI":"水仙里","LIN":"17鄰","STREET":"民族路","SECT":"三段","MAREA":" ","LANE":" ","ALLEY":" ","HOUSE_NO":"２５號","E_COORD97":167842.79999999999,"N_COORD97":2544266.3300000001,"ADDRESS":"民族路三段２５號","OBJECTID":630540},"geometry":{"x":167842.79999999981,"y":2544266.3300000038}},{"attributes":{"ID":630568,"DIS_CODE":0,"TOWNNAME":"中西區","LI":"水仙里","LIN":"17鄰","STREET":"民族路","SECT":"三段","MAREA":" ","LANE":" ","ALLEY":" ","HOUSE_NO":"２７號","E_COORD97":167837.51000000001,"N_COORD97":2544268.5600000001,"ADDRESS":"民族路三段２７號","OBJECTID":630541},"geometry":{"x":167837.51000000071,"y":2544268.5600000042}},{"attributes":{"ID":630569,"DIS_CODE":0,"TOWNNAME":"中西區","LI":"水仙里","LIN":"17鄰","STREET":"民族路","SECT":"三段","MAREA":" ","LANE":" ","ALLEY":" ","HOUSE_NO":"２９號","E_COORD97":167833.75,"N_COORD97":2544270.3700000001,"ADDRESS":"民族路三段２９號","OBJECTID":630542},"geometry":{"x":167833.75000000093,"y":2544270.3700000048}},{"attributes":{"ID":630570,"DIS_CODE":0,"TOWNNAME":"中西區","LI":"水仙里","LIN":"13鄰","STREET":"國華街","SECT":"三段","MAREA":" ","LANE":" ","ALLEY":" ","HOUSE_NO":"１２８號","E_COORD97":167846.89000000001,"N_COORD97":2544131.7000000002,"ADDRESS":"國華街三段１２８號","OBJECTID":630543},"geometry":{"x":167846.88999999966,"y":2544131.7000000011}},{"attributes":{"ID":630571,"DIS_CODE":0,"TOWNNAME":"中西區","LI":"水仙里","LIN":"13鄰","STREET":"國華街","SECT":"三段","MAREA":" ","LANE":" ","ALLEY":" ","HOUSE_NO":"１３０號","E_COORD97":167848.56,"N_COORD97":2544134.7599999998,"ADDRESS":"國華街三段１３０號","OBJECTID":630544},"geometry":{"x":167848.56000000052,"y":2544134.7600000016}},{"attributes":{"ID":630572,"DIS_CODE":0,"TOWNNAME":"安南區","LI":"溪頂里","LIN":"25鄰","STREET":"郡安路","SECT":"四段","MAREA":" ","LANE":" ","ALLEY":" ","HOUSE_NO":"１１１號","E_COORD97":168918.62,"N_COORD97":2547608.3300000001,"ADDRESS":"郡安路四段１１１號","OBJECTID":630545},"geometry":{"x":168918.62000000104,"y":2547608.3300000001}},{"attributes":{"ID":630573,"DIS_CODE":0,"TOWNNAME":"安南區","LI":"溪頂里","LIN":"25鄰","STREET":"郡安路","SECT":"四段","MAREA":" ","LANE":" ","ALLEY":" ","HOUSE_NO":"１１２號","E_COORD97":168913.04000000001,"N_COORD97":2547609.1200000001,"ADDRESS":"郡安路四段１１２號","OBJECTID":630546},"geometry":{"x":168913.04000000004,"y":2547609.1200000029}},{"attributes":{"ID":630574,"DIS_CODE":0,"TOWNNAME":"安南區","LI":"溪頂里","LIN":"25鄰","STREET":"郡安路","SECT":"四段","MAREA":" ","LANE":" ","ALLEY":" ","HOUSE_NO":"１１３號","E_COORD97":168908.95000000001,"N_COORD97":2547609.79,"ADDRESS":"郡安路四段１１３號","OBJECTID":630547},"geometry":{"x":168908.95000000205,"y":2547609.790000001}},{"attributes":{"ID":630575,"DIS_CODE":0,"TOWNNAME":"安南區","LI":"溪頂里","LIN":"25鄰","STREET":"郡安路","SECT":"四段","MAREA":" ","LANE":" ","ALLEY":" ","HOUSE_NO":"１１４號","E_COORD97":168904.60999999999,"N_COORD97":2547609.98,"ADDRESS":"郡安路四段１１４號","OBJECTID":630548},"geometry":{"x":168904.6100000022,"y":2547609.9800000023}},{"attributes":{"ID":630576,"DIS_CODE":0,"TOWNNAME":"安南區","LI":"溪頂里","LIN":"25鄰","STREET":"郡安路","SECT":"四段","MAREA":" ","LANE":" ","ALLEY":" ","HOUSE_NO":"１１５號","E_COORD97":168899.91,"N_COORD97":2547610.2200000002,"ADDRESS":"郡安路四段１１５號","OBJECTID":630549},"geometry":{"x":168899.91000000015,"y":2547610.2199999988}},{"attributes":{"ID":630577,"DIS_CODE":0,"TOWNNAME":"安南區","LI":"溪頂里","LIN":"25鄰","STREET":"郡安路","SECT":"四段","MAREA":" ","LANE":" ","ALLEY":" ","HOUSE_NO":"１１６號","E_COORD97":168895.73999999999,"N_COORD97":2547610.5299999998,"ADDRESS":"郡安路四段１１６號","OBJECTID":630550},"geometry":{"x":168895.74000000115,"y":2547610.5300000031}},{"attributes":{"ID":630578,"DIS_CODE":0,"TOWNNAME":"安南區","LI":"溪頂里","LIN":"25鄰","STREET":"郡安路","SECT":"四段","MAREA":" ","LANE":" ","ALLEY":" ","HOUSE_NO":"１１７號","E_COORD97":168890.79000000001,"N_COORD97":2547610.71,"ADDRESS":"郡安路四段１１７號","OBJECTID":630551},"geometry":{"x":168890.79000000004,"y":2547610.7100000046}},{"attributes":{"ID":630579,"DIS_CODE":0,"TOWNNAME":"安南區","LI":"溪頂里","LIN":"25鄰","STREET":"郡安路","SECT":"四段","MAREA":" ","LANE":" ","ALLEY":" ","HOUSE_NO":"１１８號","E_COORD97":168885.84,"N_COORD97":2547611.0800000001,"ADDRESS":"郡安路四段１１８號","OBJECTID":630552},"geometry":{"x":168885.84000000078,"y":2547611.0800000019}},{"attributes":{"ID":630580,"DIS_CODE":0,"TOWNNAME":"安南區","LI":"溪頂里","LIN":"25鄰","STREET":"郡安路","SECT":"四段","MAREA":" ","LANE":" ","ALLEY":" ","HOUSE_NO":"１１９號","E_COORD97":168879.82999999999,"N_COORD97":2547611.1000000001,"ADDRESS":"郡安路四段１１９號","OBJECTID":630553},"geometry":{"x":168879.83000000101,"y":2547611.1000000015}},{"attributes":{"ID":630581,"DIS_CODE":0,"TOWNNAME":"安南區","LI":"溪墘里","LIN":"27鄰","STREET":"安寧街","SECT":" ","MAREA":" ","LANE":" ","ALLEY":" ","HOUSE_NO":"１０５號","E_COORD97":167361.79999999999,"N_COORD97":2547124.8399999999,"ADDRESS":"安寧街１０５號","OBJECTID":630554},"geometry":{"x":167361.80000000168,"y":2547124.8400000017}},{"attributes":{"ID":630582,"DIS_CODE":0,"TOWNNAME":"安南區","LI":"安慶里","LIN":"14鄰","STREET":"安中路","SECT":"一段","MAREA":" ","LANE":" ","ALLEY":" ","HOUSE_NO":"１２１號之３０","E_COORD97":168869.89999999999,"N_COORD97":2548399.3100000001,"ADDRESS":"安中路一段１２１號之３０","OBJECTID":630555},"geometry":{"x":168869.90000000037,"y":2548399.3100000005}},{"attributes":{"ID":630583,"DIS_CODE":0,"TOWNNAME":"安南區","LI":"安順里","LIN":"17鄰","STREET":"開安二街","SECT":" ","MAREA":" ","LANE":" ","ALLEY":" ","HOUSE_NO":"６５號","E_COORD97":170739.70999999999,"N_COORD97":2549673.6699999999,"ADDRESS":"開安二街６５號","OBJECTID":630556},"geometry":{"x":170739.71000000089,"y":2549673.6699999999}},{"attributes":{"ID":630584,"DIS_CODE":0,"TOWNNAME":"安南區","LI":"安順里","LIN":"17鄰","STREET":"開安二街","SECT":" ","MAREA":" ","LANE":" ","ALLEY":" ","HOUSE_NO":"６７號","E_COORD97":170743.70999999999,"N_COORD97":2549682.73,"ADDRESS":"開安二街６７號","OBJECTID":630557},"geometry":{"x":170743.70999999996,"y":2549682.7300000023}},{"attributes":{"ID":630585,"DIS_CODE":0,"TOWNNAME":"安南區","LI":"海佃里","LIN":"19鄰","STREET":"海佃路","SECT":"一段","MAREA":" ","LANE":" ","ALLEY":" ","HOUSE_NO":"１９９號","E_COORD97":167107.79999999999,"N_COORD97":2547220.6600000001,"ADDRESS":"海佃路一段１９９號","OBJECTID":630558},"geometry":{"x":167107.80000000075,"y":2547220.6600000039}},{"attributes":{"ID":630586,"DIS_CODE":0,"TOWNNAME":"安南區","LI":"新順里","LIN":"21鄰","STREET":"育安三街","SECT":" ","MAREA":" ","LANE":" ","ALLEY":" ","HOUSE_NO":"５０號","E_COORD97":169274.51000000001,"N_COORD97":2549852.29,"ADDRESS":"育安三街５０號","OBJECTID":630559},"geometry":{"x":169274.51000000071,"y":2549852.2899999991}},{"attributes":{"ID":630587,"DIS_CODE":0,"TOWNNAME":"安南區","LI":"新順里","LIN":"21鄰","STREET":"育安三街","SECT":" ","MAREA":" ","LANE":" ","ALLEY":" ","HOUSE_NO":"５２號","E_COORD97":169278.09,"N_COORD97":2549855.5600000001,"ADDRESS":"育安三街５２號","OBJECTID":630560},"geometry":{"x":169278.08999999985,"y":2549855.5600000005}},{"attributes":{"ID":630588,"DIS_CODE":0,"TOWNNAME":"安南區","LI":"新順里","LIN":"21鄰","STREET":"育安三街","SECT":" ","MAREA":" ","LANE":" ","ALLEY":" ","HOUSE_NO":"５６號","E_COORD97":169280.78,"N_COORD97":2549858.8399999999,"ADDRESS":"育安三街５６號","OBJECTID":630561},"geometry":{"x":169280.78000000026,"y":2549858.8399999999}},{"attributes":{"ID":630589,"DIS_CODE":0,"TOWNNAME":"安南區","LI":"新順里","LIN":"21鄰","STREET":"育安三街","SECT":" ","MAREA":" ","LANE":" ","ALLEY":" ","HOUSE_NO":"５８號","E_COORD97":169283.76000000001,"N_COORD97":2549861.52,"ADDRESS":"育安三街５８號","OBJECTID":630562},"geometry":{"x":169283.75999999978,"y":2549861.5199999996}},{"attributes":{"ID":630590,"DIS_CODE":0,"TOWNNAME":"安南區","LI":"新順里","LIN":"21鄰","STREET":"育安三街","SECT":" ","MAREA":" ","LANE":" ","ALLEY":" ","HOUSE_NO":"６０號","E_COORD97":169287.34,"N_COORD97":2549864.5,"ADDRESS":"育安三街６０號","OBJECTID":630563},"geometry":{"x":169287.34000000171,"y":2549864.5}},{"attributes":{"ID":630591,"DIS_CODE":0,"TOWNNAME":"安南區","LI":"新順里","LIN":"21鄰","STREET":"育安三街","SECT":" ","MAREA":" ","LANE":" ","ALLEY":" ","HOUSE_NO":"６２號","E_COORD97":169290.62,"N_COORD97":2549867.1899999999,"ADDRESS":"育安三街６２號","OBJECTID":630564},"geometry":{"x":169290.61999999918,"y":2549867.1899999976}},{"attributes":{"ID":630592,"DIS_CODE":0,"TOWNNAME":"中西區","LI":"永福里","LIN":"13鄰","STREET":"民權路","SECT":"二段","MAREA":" ","LANE":" ","ALLEY":" ","HOUSE_NO":"１４７號","E_COORD97":168328.73000000001,"N_COORD97":2543932.02,"ADDRESS":"民權路二段１４７號","OBJECTID":630565},"geometry":{"x":168328.73000000045,"y":2543932.0200000033}},{"attributes":{"ID":630593,"DIS_CODE":0,"TOWNNAME":"安南區","LI":"海東里","LIN":"18鄰","STREET":"海佃路","SECT":"二段","MAREA":" ","LANE":" ","ALLEY":" ","HOUSE_NO":"３２５號","E_COORD97":166777.29000000001,"N_COORD97":2548741.8300000001,"ADDRESS":"海佃路二段３２５號","OBJECTID":630566},"geometry":{"x":166777.2900000019,"y":2548741.8300000019}},{"attributes":{"ID":630594,"DIS_CODE":0,"TOWNNAME":"安南區","LI":"溪心里","LIN":"13鄰","STREET":"樂安二街","SECT":" ","MAREA":" ","LANE":" ","ALLEY":" ","HOUSE_NO":"４６號","E_COORD97":166009.42000000001,"N_COORD97":2549706,"ADDRESS":"樂安二街４６號","OBJECTID":630567},"geometry":{"x":166009.41999999993,"y":2549706}},{"attributes":{"ID":630595,"DIS_CODE":0,"TOWNNAME":"中西區","LI":"建國里","LIN":"17鄰","STREET":"新美街","SECT":" ","MAREA":" ","LANE":" ","ALLEY":" ","HOUSE_NO":"１０號","E_COORD97":168000.23000000001,"N_COORD97":2543897.3700000001,"ADDRESS":"新美街１０號","OBJECTID":630568},"geometry":{"x":168000.22999999952,"y":2543897.3700000048}},{"attributes":{"ID":630596,"DIS_CODE":0,"TOWNNAME":"中西區","LI":"建國里","LIN":"15鄰","STREET":"民生路","SECT":"一段","MAREA":" ","LANE":" ","ALLEY":" ","HOUSE_NO":"１７４號","E_COORD97":167971.91,"N_COORD97":2543889.2400000002,"ADDRESS":"民生路一段１７４號","OBJECTID":630569},"geometry":{"x":167971.91000000108,"y":2543889.2400000002}},{"attributes":{"ID":630597,"DIS_CODE":0,"TOWNNAME":"中西區","LI":"建國里","LIN":"15鄰","STREET":"民生路","SECT":"一段","MAREA":" ","LANE":" ","ALLEY":" ","HOUSE_NO":"１７６號","E_COORD97":167966.91,"N_COORD97":2543890.8300000001,"ADDRESS":"民生路一段１７６號","OBJECTID":630570},"geometry":{"x":167966.91000000108,"y":2543890.8300000019}},{"attributes":{"ID":630598,"DIS_CODE":0,"TOWNNAME":"中西區","LI":"建國里","LIN":"15鄰","STREET":"民生路","SECT":"一段","MAREA":" ","LANE":" ","ALLEY":" ","HOUSE_NO":"１７８號","E_COORD97":167962.10999999999,"N_COORD97":2543891.8300000001,"ADDRESS":"民生路一段１７８號","OBJECTID":630571},"geometry":{"x":167962.1100000022,"y":2543891.8300000001}},{"attributes":{"ID":630599,"DIS_CODE":0,"TOWNNAME":"中西區","LI":"建國里","LIN":"15鄰","STREET":"民生路","SECT":"一段","MAREA":" ","LANE":" ","ALLEY":" ","HOUSE_NO":"１８０號","E_COORD97":167958.91,"N_COORD97":2543893.6299999999,"ADDRESS":"民生路一段１８０號","OBJECTID":630572},"geometry":{"x":167958.91000000108,"y":2543893.6300000027}},{"attributes":{"ID":630600,"DIS_CODE":0,"TOWNNAME":"中西區","LI":"建國里","LIN":"15鄰","STREET":"民生路","SECT":"一段","MAREA":" ","LANE":" ","ALLEY":" ","HOUSE_NO":"１８２號","E_COORD97":167954.31,"N_COORD97":2543895.23,"ADDRESS":"民生路一段１８２號","OBJECTID":630573},"geometry":{"x":167954.30999999959,"y":2543895.2300000023}},{"attributes":{"ID":630601,"DIS_CODE":0,"TOWNNAME":"中西區","LI":"建國里","LIN":"15鄰","STREET":"民生路","SECT":"一段","MAREA":" ","LANE":" ","ALLEY":" ","HOUSE_NO":"１８４號","E_COORD97":167949.32000000001,"N_COORD97":2543897.2200000002,"ADDRESS":"民生路一段１８４號","OBJECTID":630574},"geometry":{"x":167949.32000000123,"y":2543897.2200000007}},{"attributes":{"ID":630602,"DIS_CODE":0,"TOWNNAME":"中西區","LI":"建國里","LIN":"15鄰","STREET":"民生路","SECT":"一段","MAREA":" ","LANE":" ","ALLEY":" ","HOUSE_NO":"１８６號","E_COORD97":167945.92000000001,"N_COORD97":2543898.6200000001,"ADDRESS":"民生路一段１８６號","OBJECTID":630575},"geometry":{"x":167945.92000000179,"y":2543898.620000001}},{"attributes":{"ID":630603,"DIS_CODE":0,"TOWNNAME":"中西區","LI":"建國里","LIN":"15鄰","STREET":"民生路","SECT":"一段","MAREA":" ","LANE":" ","ALLEY":" ","HOUSE_NO":"１８８號","E_COORD97":167940.92000000001,"N_COORD97":2543900.2200000002,"ADDRESS":"民生路一段１８８號","OBJECTID":630576},"geometry":{"x":167940.92000000179,"y":2543900.2200000007}},{"attributes":{"ID":630604,"DIS_CODE":0,"TOWNNAME":"中西區","LI":"建國里","LIN":"15鄰","STREET":"民生路","SECT":"一段","MAREA":" ","LANE":" ","ALLEY":" ","HOUSE_NO":"１９０號","E_COORD97":167933.92000000001,"N_COORD97":2543903.0099999998,"ADDRESS":"民生路一段１９０號","OBJECTID":630577},"geometry":{"x":167933.91999999993,"y":2543903.0100000016}},{"attributes":{"ID":630605,"DIS_CODE":0,"TOWNNAME":"中西區","LI":"建國里","LIN":"15鄰","STREET":"民生路","SECT":"一段","MAREA":" ","LANE":" ","ALLEY":" ","HOUSE_NO":"１９０號之１","E_COORD97":167932.89999999999,"N_COORD97":2543916.8300000001,"ADDRESS":"民生路一段１９０號之１","OBJECTID":630578},"geometry":{"x":167932.89999999944,"y":2543916.8299999982}},{"attributes":{"ID":630606,"DIS_CODE":0,"TOWNNAME":"中西區","LI":"建國里","LIN":"15鄰","STREET":"民生路","SECT":"一段","MAREA":" ","LANE":" ","ALLEY":" ","HOUSE_NO":"１９２號","E_COORD97":167930.73000000001,"N_COORD97":2543904.4100000001,"ADDRESS":"民生路一段１９２號","OBJECTID":630579},"geometry":{"x":167930.72999999952,"y":2543904.410000002}},{"attributes":{"ID":630607,"DIS_CODE":0,"TOWNNAME":"中西區","LI":"建國里","LIN":"19鄰","STREET":"民權路","SECT":"二段","MAREA":" ","LANE":" ","ALLEY":" ","HOUSE_NO":"２２５號","E_COORD97":168151.79999999999,"N_COORD97":2543991.2400000002,"ADDRESS":"民權路二段２２５號","OBJECTID":630580},"geometry":{"x":168151.80000000168,"y":2543991.2400000002}},{"attributes":{"ID":630608,"DIS_CODE":0,"TOWNNAME":"中西區","LI":"建國里","LIN":"19鄰","STREET":"民權路","SECT":"二段","MAREA":" ","LANE":" ","ALLEY":" ","HOUSE_NO":"２２７號","E_COORD97":168147.82000000001,"N_COORD97":2543992.6200000001,"ADDRESS":"民權路二段２２７號","OBJECTID":630581},"geometry":{"x":168147.82000000123,"y":2543992.620000001}},{"attributes":{"ID":630609,"DIS_CODE":0,"TOWNNAME":"中西區","LI":"建國里","LIN":"19鄰","STREET":"民權路","SECT":"二段","MAREA":" ","LANE":" ","ALLEY":" ","HOUSE_NO":"２２９號","E_COORD97":168143.85000000001,"N_COORD97":2543994.4100000001,"ADDRESS":"民權路二段２２９號","OBJECTID":630582},"geometry":{"x":168143.84999999963,"y":2543994.4100000039}},{"attributes":{"ID":630610,"DIS_CODE":0,"TOWNNAME":"中西區","LI":"建國里","LIN":"19鄰","STREET":"民權路","SECT":"二段","MAREA":" ","LANE":" ","ALLEY":" ","HOUSE_NO":"２３１號","E_COORD97":168140.23999999999,"N_COORD97":2543995.7000000002,"ADDRESS":"民權路二段２３１號","OBJECTID":630583},"geometry":{"x":168140.24000000022,"y":2543995.7000000011}},{"attributes":{"ID":630611,"DIS_CODE":0,"TOWNNAME":"中西區","LI":"建國里","LIN":"19鄰","STREET":"民權路","SECT":"二段","MAREA":" ","LANE":" ","ALLEY":" ","HOUSE_NO":"２３３號","E_COORD97":168136.64000000001,"N_COORD97":2543997.4500000002,"ADDRESS":"民權路二段２３３號","OBJECTID":630584},"geometry":{"x":168136.63999999966,"y":2543997.4500000011}},{"attributes":{"ID":630612,"DIS_CODE":0,"TOWNNAME":"中西區","LI":"建國里","LIN":"13鄰","STREET":"永福路","SECT":"二段","MAREA":" ","LANE":" ","ALLEY":" ","HOUSE_NO":"１３５號","E_COORD97":168112.73999999999,"N_COORD97":2543876.7400000002,"ADDRESS":"永福路二段１３５號","OBJECTID":630585},"geometry":{"x":168112.74000000115,"y":2543876.7400000002}},{"attributes":{"ID":630613,"DIS_CODE":0,"TOWNNAME":"中西區","LI":"建國里","LIN":"13鄰","STREET":"永福路","SECT":"二段","MAREA":" ","LANE":" ","ALLEY":" ","HOUSE_NO":"１３７號","E_COORD97":168113.42000000001,"N_COORD97":2543879.9399999999,"ADDRESS":"永福路二段１３７號","OBJECTID":630586},"geometry":{"x":168113.41999999993,"y":2543879.9400000013}},{"attributes":{"ID":630614,"DIS_CODE":0,"TOWNNAME":"中西區","LI":"建國里","LIN":"13鄰","STREET":"永福路","SECT":"二段","MAREA":" ","LANE":" ","ALLEY":" ","HOUSE_NO":"１３９號","E_COORD97":168114.92999999999,"N_COORD97":2543884.6499999999,"ADDRESS":"永福路二段１３９號","OBJECTID":630587},"geometry":{"x":168114.9299999997,"y":2543884.6500000041}},{"attributes":{"ID":630615,"DIS_CODE":0,"TOWNNAME":"中西區","LI":"建國里","LIN":"13鄰","STREET":"永福路","SECT":"二段","MAREA":" ","LANE":" ","ALLEY":" ","HOUSE_NO":"１４１號","E_COORD97":168117.45999999999,"N_COORD97":2543888.3599999999,"ADDRESS":"永福路二段１４１號","OBJECTID":630588},"geometry":{"x":168117.46000000089,"y":2543888.3599999994}},{"attributes":{"ID":630616,"DIS_CODE":0,"TOWNNAME":"中西區","LI":"建國里","LIN":"13鄰","STREET":"永福路","SECT":"二段","MAREA":" ","LANE":" ","ALLEY":" ","HOUSE_NO":"１４３號","E_COORD97":168102.12,"N_COORD97":2543892.8500000001,"ADDRESS":"永福路二段１４３號","OBJECTID":630589},"geometry":{"x":168102.12000000011,"y":2543892.8500000034}},{"attributes":{"ID":630617,"DIS_CODE":0,"TOWNNAME":"中西區","LI":"建國里","LIN":"13鄰","STREET":"永福路","SECT":"二段","MAREA":" ","LANE":" ","ALLEY":" ","HOUSE_NO":"１４５號","E_COORD97":168102.95999999999,"N_COORD97":2543895.71,"ADDRESS":"永福路二段１４５號","OBJECTID":630590},"geometry":{"x":168102.95999999996,"y":2543895.7100000028}},{"attributes":{"ID":630618,"DIS_CODE":0,"TOWNNAME":"中西區","LI":"建國里","LIN":"13鄰","STREET":"永福路","SECT":"二段","MAREA":" ","LANE":" ","ALLEY":" ","HOUSE_NO":"１４７號","E_COORD97":168104.48000000001,"N_COORD97":2543899.5899999999,"ADDRESS":"永福路二段１４７號","OBJECTID":630591},"geometry":{"x":168104.48000000138,"y":2543899.5900000017}},{"attributes":{"ID":630619,"DIS_CODE":0,"TOWNNAME":"中西區","LI":"建國里","LIN":"13鄰","STREET":"永福路","SECT":"二段","MAREA":" ","LANE":" ","ALLEY":" ","HOUSE_NO":"１４９號","E_COORD97":168114.09,"N_COORD97":2543902.96,"ADDRESS":"永福路二段１４９號","OBJECTID":630592},"geometry":{"x":168114.08999999892,"y":2543902.9600000009}},{"attributes":{"ID":630620,"DIS_CODE":0,"TOWNNAME":"中西區","LI":"建國里","LIN":"13鄰","STREET":"永福路","SECT":"二段","MAREA":" ","LANE":" ","ALLEY":" ","HOUSE_NO":"１５１號","E_COORD97":168118.81,"N_COORD97":2543891.8999999999,"ADDRESS":"永福路二段１５１號","OBJECTID":630593},"geometry":{"x":168118.80999999959,"y":2543891.9000000004}},{"attributes":{"ID":630621,"DIS_CODE":0,"TOWNNAME":"中西區","LI":"建國里","LIN":"13鄰","STREET":"永福路","SECT":"二段","MAREA":" ","LANE":" ","ALLEY":" ","HOUSE_NO":"１５３號","E_COORD97":168119.98999999999,"N_COORD97":2543896.7200000002,"ADDRESS":"永福路二段１５３號","OBJECTID":630594},"geometry":{"x":168119.99000000022,"y":2543896.7200000007}},{"attributes":{"ID":630622,"DIS_CODE":0,"TOWNNAME":"中西區","LI":"永福里","LIN":"13鄰","STREET":"民權路","SECT":"二段","MAREA":" ","LANE":" ","ALLEY":" ","HOUSE_NO":"１４９號","E_COORD97":168324.89999999999,"N_COORD97":2543933.1200000001,"ADDRESS":"民權路二段１４９號","OBJECTID":630595},"geometry":{"x":168324.9000000013,"y":2543933.1200000048}},{"attributes":{"ID":630623,"DIS_CODE":0,"TOWNNAME":"中西區","LI":"永福里","LIN":"13鄰","STREET":"民權路","SECT":"二段","MAREA":" ","LANE":" ","ALLEY":" ","HOUSE_NO":"１５１號","E_COORD97":168318.14999999999,"N_COORD97":2543935.2999999998,"ADDRESS":"民權路二段１５１號","OBJECTID":630596},"geometry":{"x":168318.1500000013,"y":2543935.3000000026}},{"attributes":{"ID":630624,"DIS_CODE":0,"TOWNNAME":"中西區","LI":"永福里","LIN":"13鄰","STREET":"民權路","SECT":"二段","MAREA":" ","LANE":" ","ALLEY":" ","HOUSE_NO":"１５９號","E_COORD97":168303.19,"N_COORD97":2543939.8599999999,"ADDRESS":"民權路二段１５９號","OBJECTID":630597},"geometry":{"x":168303.19000000041,"y":2543939.8600000031}},{"attributes":{"ID":630625,"DIS_CODE":0,"TOWNNAME":"中西區","LI":"永福里","LIN":"12鄰","STREET":"民權路","SECT":"二段","MAREA":" ","LANE":" ","ALLEY":" ","HOUSE_NO":"１８１號","E_COORD97":168251.89000000001,"N_COORD97":2543958.5099999998,"ADDRESS":"民權路二段１８１號","OBJECTID":630598},"geometry":{"x":168251.88999999966,"y":2543958.5099999998}},{"attributes":{"ID":630626,"DIS_CODE":0,"TOWNNAME":"中西區","LI":"永福里","LIN":"12鄰","STREET":"民權路","SECT":"二段","MAREA":" ","LANE":" ","ALLEY":" ","HOUSE_NO":"１８３號","E_COORD97":168248.79000000001,"N_COORD97":2543959.4199999999,"ADDRESS":"民權路二段１８３號","OBJECTID":630599},"geometry":{"x":168248.7900000019,"y":2543959.4199999999}},{"attributes":{"ID":630627,"DIS_CODE":0,"TOWNNAME":"中西區","LI":"永福里","LIN":"12鄰","STREET":"民權路","SECT":"二段","MAREA":" ","LANE":" ","ALLEY":" ","HOUSE_NO":"１８５號","E_COORD97":168244.59,"N_COORD97":2543960.8799999999,"ADDRESS":"民權路二段１８５號","OBJECTID":630600},"geometry":{"x":168244.58999999985,"y":2543960.8800000008}}]}