{"displayFieldName":"TOWNNAME","fieldAliases":{"ID":"ID","DIS_CODE":"DIS_CODE","TOWNNAME":"TOWNNAME","LI":"LI","LIN":"LIN","STREET":"STREET","SECT":"SECT","MAREA":"MAREA","LANE":"LANE","ALLEY":"ALLEY","HOUSE_NO":"HOUSE_NO","E_COORD97":"E_COORD97","N_COORD97":"N_COORD97","ADDRESS":"ADDRESS","OBJECTID":"OBJECTID"},"geometryType":"esriGeometryPoint","spatialReference":{"wkid":102443,"latestWkid":3826},"fields":[{"name":"ID","type":"esriFieldTypeDouble","alias":"ID"},{"name":"DIS_CODE","type":"esriFieldTypeInteger","alias":"DIS_CODE"},{"name":"TOWNNAME","type":"esriFieldTypeString","alias":"TOWNNAME","length":8},{"name":"LI","type":"esriFieldTypeString","alias":"LI","length":8},{"name":"LIN","type":"esriFieldTypeString","alias":"LIN","length":12},{"name":"STREET","type":"esriFieldTypeString","alias":"STREET","length":20},{"name":"SECT","type":"esriFieldTypeString","alias":"SECT","length":8},{"name":"MAREA","type":"esriFieldTypeString","alias":"MAREA","length":12},{"name":"LANE","type":"esriFieldTypeString","alias":"LANE","length":10},{"name":"ALLEY","type":"esriFieldTypeString","alias":"ALLEY","length":10},{"name":"HOUSE_NO","type":"esriFieldTypeString","alias":"HOUSE_NO","length":20},{"name":"E_COORD97","type":"esriFieldTypeDouble","alias":"E_COORD97"},{"name":"N_COORD97","type":"esriFieldTypeDouble","alias":"N_COORD97"},{"name":"ADDRESS","type":"esriFieldTypeString","alias":"ADDRESS","length":50},{"name":"OBJECTID","type":"esriFieldTypeOID","alias":"OBJECTID"}],"features":[{"attributes":{"ID":363211,"DIS_CODE":0,"TOWNNAME":"東區","LI":"中西里","LIN":"19鄰","STREET":"長榮路","SECT":"二段","MAREA":" ","LANE":"３２巷","ALLEY":" ","HOUSE_NO":"８９號","E_COORD97":170079.35999999999,"N_COORD97":2543205.4900000002,"ADDRESS":"長榮路二段３２巷８９號","OBJECTID":363201},"geometry":{"x":170079.3600000022,"y":2543205.4900000021}},{"attributes":{"ID":363212,"DIS_CODE":0,"TOWNNAME":"東區","LI":"德光里","LIN":"13鄰","STREET":"崇善路","SECT":" ","MAREA":" ","LANE":" ","ALLEY":" ","HOUSE_NO":"１３８號","E_COORD97":170301.34,"N_COORD97":2542377.2400000002,"ADDRESS":"崇善路１３８號","OBJECTID":363202},"geometry":{"x":170301.34000000078,"y":2542377.2400000002}},{"attributes":{"ID":363213,"DIS_CODE":0,"TOWNNAME":"東區","LI":"德光里","LIN":"13鄰","STREET":"崇善路","SECT":" ","MAREA":" ","LANE":" ","ALLEY":" ","HOUSE_NO":"１４０號","E_COORD97":170305.19,"N_COORD97":2542374.25,"ADDRESS":"崇善路１４０號","OBJECTID":363203},"geometry":{"x":170305.19000000041,"y":2542374.25}},{"attributes":{"ID":363214,"DIS_CODE":0,"TOWNNAME":"東區","LI":"德光里","LIN":"13鄰","STREET":"崇善路","SECT":" ","MAREA":" ","LANE":" ","ALLEY":" ","HOUSE_NO":"１４２號","E_COORD97":170308.26999999999,"N_COORD97":2542371.6099999999,"ADDRESS":"崇善路１４２號","OBJECTID":363204},"geometry":{"x":170308.27000000048,"y":2542371.6099999975}},{"attributes":{"ID":363215,"DIS_CODE":0,"TOWNNAME":"東區","LI":"德光里","LIN":"13鄰","STREET":"崇善路","SECT":" ","MAREA":" ","LANE":" ","ALLEY":" ","HOUSE_NO":"１４４號","E_COORD97":170311.69,"N_COORD97":2542369.1299999999,"ADDRESS":"崇善路１４４號","OBJECTID":363205},"geometry":{"x":170311.69000000134,"y":2542369.1300000008}},{"attributes":{"ID":363216,"DIS_CODE":0,"TOWNNAME":"東區","LI":"德光里","LIN":"13鄰","STREET":"崇善路","SECT":" ","MAREA":" ","LANE":" ","ALLEY":" ","HOUSE_NO":"１４６號","E_COORD97":170315.45000000001,"N_COORD97":2542365.9700000002,"ADDRESS":"崇善路１４６號","OBJECTID":363206},"geometry":{"x":170315.45000000019,"y":2542365.9700000007}},{"attributes":{"ID":363217,"DIS_CODE":0,"TOWNNAME":"東區","LI":"中西里","LIN":"19鄰","STREET":"長榮路","SECT":"二段","MAREA":" ","LANE":"３２巷","ALLEY":" ","HOUSE_NO":"９５號","E_COORD97":170079.67999999999,"N_COORD97":2543221.2400000002,"ADDRESS":"長榮路二段３２巷９５號","OBJECTID":363207},"geometry":{"x":170079.6799999997,"y":2543221.2400000002}},{"attributes":{"ID":363218,"DIS_CODE":0,"TOWNNAME":"東區","LI":"東安里","LIN":"19鄰","STREET":"長榮路","SECT":"二段","MAREA":" ","LANE":"３２巷","ALLEY":" ","HOUSE_NO":"１６４號","E_COORD97":170203.59,"N_COORD97":2543083.6200000001,"ADDRESS":"長榮路二段３２巷１６４號","OBJECTID":363208},"geometry":{"x":170203.58999999985,"y":2543083.6200000029}},{"attributes":{"ID":363219,"DIS_CODE":0,"TOWNNAME":"東區","LI":"東安里","LIN":"19鄰","STREET":"長榮路","SECT":"二段","MAREA":" ","LANE":"３２巷","ALLEY":" ","HOUSE_NO":"１６６號","E_COORD97":170212.31,"N_COORD97":2543086.3399999999,"ADDRESS":"長榮路二段３２巷１６６號","OBJECTID":363209},"geometry":{"x":170212.30999999959,"y":2543086.3400000017}},{"attributes":{"ID":363220,"DIS_CODE":0,"TOWNNAME":"中西區","LI":"藥王里","LIN":" ","STREET":"民權路","SECT":"三段","MAREA":" ","LANE":"４００巷","ALLEY":" ","HOUSE_NO":"１號","E_COORD97":166849.82999999999,"N_COORD97":2544428.1499999999,"ADDRESS":"民權路三段４００巷１號","OBJECTID":363210},"geometry":{"x":166849.82999999914,"y":2544428.1500000022}},{"attributes":{"ID":363221,"DIS_CODE":0,"TOWNNAME":"東區","LI":"東安里","LIN":"19鄰","STREET":"長榮路","SECT":"二段","MAREA":" ","LANE":"３２巷","ALLEY":" ","HOUSE_NO":"１６８號","E_COORD97":170220.29999999999,"N_COORD97":2543087.25,"ADDRESS":"長榮路二段３２巷１６８號","OBJECTID":363211},"geometry":{"x":170220.30000000075,"y":2543087.2500000019}},{"attributes":{"ID":363222,"DIS_CODE":0,"TOWNNAME":"東區","LI":"東安里","LIN":"19鄰","STREET":"長榮路","SECT":"二段","MAREA":" ","LANE":"３２巷","ALLEY":" ","HOUSE_NO":"１７４號","E_COORD97":170236.37,"N_COORD97":2543085.25,"ADDRESS":"長榮路二段３２巷１７４號","OBJECTID":363212},"geometry":{"x":170236.37000000011,"y":2543085.25}},{"attributes":{"ID":363223,"DIS_CODE":0,"TOWNNAME":"東區","LI":"東安里","LIN":"19鄰","STREET":"長榮路","SECT":"二段","MAREA":" ","LANE":"３２巷","ALLEY":" ","HOUSE_NO":"１７６號","E_COORD97":170242,"N_COORD97":2543080.6299999999,"ADDRESS":"長榮路二段３２巷１７６號","OBJECTID":363213},"geometry":{"x":170242,"y":2543080.6300000008}},{"attributes":{"ID":363224,"DIS_CODE":0,"TOWNNAME":"中西區","LI":"仙草里","LIN":"19鄰","STREET":"健康路","SECT":"一段","MAREA":" ","LANE":"３９０巷","ALLEY":" ","HOUSE_NO":"１０號","E_COORD97":167855.26999999999,"N_COORD97":2542491.5899999999,"ADDRESS":"健康路一段３９０巷１０號","OBJECTID":363214},"geometry":{"x":167855.27000000048,"y":2542491.5900000017}},{"attributes":{"ID":363225,"DIS_CODE":0,"TOWNNAME":"安南區","LI":"\u25A0南里","LIN":"19鄰","STREET":"安昌街","SECT":" ","MAREA":" ","LANE":"１０６巷","ALLEY":" ","HOUSE_NO":"４１號之１６","E_COORD97":170069.98999999999,"N_COORD97":2552001.5600000001,"ADDRESS":"安昌街１０６巷４１號之１６","OBJECTID":363215},"geometry":{"x":170069.99000000115,"y":2552001.5600000005}},{"attributes":{"ID":363226,"DIS_CODE":0,"TOWNNAME":"善化區","LI":"文昌里","LIN":"19鄰","STREET":"中正路","SECT":" ","MAREA":" ","LANE":"２４６巷","ALLEY":" ","HOUSE_NO":"８號","E_COORD97":177758.76000000001,"N_COORD97":2558379.25,"ADDRESS":"中正路２４６巷８號","OBJECTID":363216},"geometry":{"x":177758.76000000071,"y":2558379.25}},{"attributes":{"ID":363227,"DIS_CODE":0,"TOWNNAME":"善化區","LI":"文昌里","LIN":"19鄰","STREET":"中正路","SECT":" ","MAREA":" ","LANE":"２４６巷","ALLEY":" ","HOUSE_NO":"１２號","E_COORD97":177768.37,"N_COORD97":2558380.75,"ADDRESS":"中正路２４６巷１２號","OBJECTID":363217},"geometry":{"x":177768.37000000197,"y":2558380.7500000037}},{"attributes":{"ID":363228,"DIS_CODE":0,"TOWNNAME":"中西區","LI":"大南里","LIN":"5鄰","STREET":"南門路","SECT":" ","MAREA":" ","LANE":"６８巷","ALLEY":" ","HOUSE_NO":"２２號","E_COORD97":168200.29000000001,"N_COORD97":2542526.3100000001,"ADDRESS":"南門路６８巷２２號","OBJECTID":363218},"geometry":{"x":168200.29000000097,"y":2542526.3100000005}},{"attributes":{"ID":363229,"DIS_CODE":0,"TOWNNAME":"永康區","LI":"\u25A0洲里","LIN":"19鄰","STREET":"\u25A0行路","SECT":" ","MAREA":" ","LANE":"２５巷","ALLEY":" ","HOUSE_NO":"１２號","E_COORD97":171651.70999999999,"N_COORD97":2549095.2400000002,"ADDRESS":"\u25A0行路２５巷１２號","OBJECTID":363219},"geometry":{"x":171651.71000000089,"y":2549095.2400000021}},{"attributes":{"ID":363230,"DIS_CODE":0,"TOWNNAME":"永康區","LI":"\u25A0洲里","LIN":"19鄰","STREET":"\u25A0行路","SECT":" ","MAREA":" ","LANE":"２５巷","ALLEY":" ","HOUSE_NO":"３號","E_COORD97":171668.76000000001,"N_COORD97":2549085.7400000002,"ADDRESS":"\u25A0行路２５巷３號","OBJECTID":363220},"geometry":{"x":171668.75999999978,"y":2549085.7400000021}},{"attributes":{"ID":363231,"DIS_CODE":0,"TOWNNAME":"永康區","LI":"\u25A0洲里","LIN":"19鄰","STREET":"\u25A0行路","SECT":" ","MAREA":" ","LANE":"２５巷","ALLEY":" ","HOUSE_NO":"１１號","E_COORD97":171653.39999999999,"N_COORD97":2549072.7599999998,"ADDRESS":"\u25A0行路２５巷１１號","OBJECTID":363221},"geometry":{"x":171653.40000000037,"y":2549072.7599999998}},{"attributes":{"ID":363232,"DIS_CODE":0,"TOWNNAME":"永康區","LI":"\u25A0行里","LIN":"19鄰","STREET":"正南五街","SECT":" ","MAREA":" ","LANE":"５２０巷","ALLEY":" ","HOUSE_NO":"４９號","E_COORD97":171695.26000000001,"N_COORD97":2548796.3300000001,"ADDRESS":"正南五街５２０巷４９號","OBJECTID":363222},"geometry":{"x":171695.26000000071,"y":2548796.3300000019}},{"attributes":{"ID":363233,"DIS_CODE":0,"TOWNNAME":"永康區","LI":"\u25A0洲里","LIN":"19鄰","STREET":"\u25A0行路","SECT":" ","MAREA":" ","LANE":"２５巷","ALLEY":" ","HOUSE_NO":"１４號","E_COORD97":171655.04999999999,"N_COORD97":2549092.9900000002,"ADDRESS":"\u25A0行路２５巷１４號","OBJECTID":363223},"geometry":{"x":171655.04999999981,"y":2549092.9899999984}},{"attributes":{"ID":363234,"DIS_CODE":0,"TOWNNAME":"永康區","LI":"\u25A0洲里","LIN":"19鄰","STREET":"\u25A0行路","SECT":" ","MAREA":" ","LANE":"２５巷","ALLEY":" ","HOUSE_NO":"１５號","E_COORD97":171650.85999999999,"N_COORD97":2549068.5099999998,"ADDRESS":"\u25A0行路２５巷１５號","OBJECTID":363224},"geometry":{"x":171650.8600000022,"y":2549068.5099999998}},{"attributes":{"ID":363235,"DIS_CODE":0,"TOWNNAME":"永康區","LI":"\u25A0洲里","LIN":"19鄰","STREET":"\u25A0行路","SECT":" ","MAREA":" ","LANE":"２５巷","ALLEY":" ","HOUSE_NO":"２０號","E_COORD97":171643.60000000001,"N_COORD97":2549073.8399999999,"ADDRESS":"\u25A0行路２５巷２０號","OBJECTID":363225},"geometry":{"x":171643.60000000056,"y":2549073.8400000017}},{"attributes":{"ID":363236,"DIS_CODE":0,"TOWNNAME":"永康區","LI":"\u25A0行里","LIN":"19鄰","STREET":"中正路","SECT":" ","MAREA":" ","LANE":"６３５巷","ALLEY":" ","HOUSE_NO":"３１號","E_COORD97":171674.07999999999,"N_COORD97":2548820.5800000001,"ADDRESS":"中正路６３５巷３１號","OBJECTID":363226},"geometry":{"x":171674.08000000007,"y":2548820.5800000001}},{"attributes":{"ID":363237,"DIS_CODE":0,"TOWNNAME":"永康區","LI":"\u25A0行里","LIN":"19鄰","STREET":"中正路","SECT":" ","MAREA":" ","LANE":"６３５巷","ALLEY":" ","HOUSE_NO":"３５號","E_COORD97":171668.78,"N_COORD97":2548814.8300000001,"ADDRESS":"中正路６３５巷３５號","OBJECTID":363227},"geometry":{"x":171668.78000000119,"y":2548814.8300000001}},{"attributes":{"ID":363238,"DIS_CODE":0,"TOWNNAME":"歸仁區","LI":"八甲里","LIN":"20鄰","STREET":"大仁三街","SECT":" ","MAREA":" ","LANE":"２３巷","ALLEY":" ","HOUSE_NO":"８號","E_COORD97":178315.09,"N_COORD97":2541351.25,"ADDRESS":"大仁三街２３巷８號","OBJECTID":363228},"geometry":{"x":178315.08999999985,"y":2541351.2500000019}},{"attributes":{"ID":363239,"DIS_CODE":0,"TOWNNAME":"玉井區","LI":"玉田里","LIN":"42鄰","STREET":"仁愛街","SECT":" ","MAREA":" ","LANE":"１８０巷","ALLEY":" ","HOUSE_NO":"６號六樓之３","E_COORD97":195452.51999999999,"N_COORD97":2557875.29,"ADDRESS":"仁愛街１８０巷６號六樓之３","OBJECTID":363229},"geometry":{"x":195452.51999999955,"y":2557875.290000001}},{"attributes":{"ID":363240,"DIS_CODE":0,"TOWNNAME":"永康區","LI":"網寮里","LIN":"19鄰","STREET":"永二街","SECT":" ","MAREA":" ","LANE":"２２９巷","ALLEY":" ","HOUSE_NO":"１１號","E_COORD97":173449.59,"N_COORD97":2546249.3599999999,"ADDRESS":"永二街２２９巷１１號","OBJECTID":363230},"geometry":{"x":173449.59000000078,"y":2546249.3600000013}},{"attributes":{"ID":363241,"DIS_CODE":0,"TOWNNAME":"永康區","LI":"復興里","LIN":"19鄰","STREET":"復興路","SECT":" ","MAREA":" ","LANE":"３５６巷","ALLEY":" ","HOUSE_NO":"８號","E_COORD97":172256.85999999999,"N_COORD97":2544382.1800000002,"ADDRESS":"復興路３５６巷８號","OBJECTID":363231},"geometry":{"x":172256.86000000034,"y":2544382.1800000034}},{"attributes":{"ID":363242,"DIS_CODE":0,"TOWNNAME":"永康區","LI":"復興里","LIN":"19鄰","STREET":"復興路","SECT":" ","MAREA":" ","LANE":"３５６巷","ALLEY":" ","HOUSE_NO":"１２號","E_COORD97":172262.29999999999,"N_COORD97":2544388.02,"ADDRESS":"復興路３５６巷１２號","OBJECTID":363232},"geometry":{"x":172262.29999999981,"y":2544388.0200000014}},{"attributes":{"ID":363243,"DIS_CODE":0,"TOWNNAME":"永康區","LI":"網寮里","LIN":"19鄰","STREET":"永二街","SECT":" ","MAREA":" ","LANE":"２２９巷","ALLEY":" ","HOUSE_NO":"２號","E_COORD97":173411.42999999999,"N_COORD97":2546245.75,"ADDRESS":"永二街２２９巷２號","OBJECTID":363233},"geometry":{"x":173411.43000000063,"y":2546245.75}},{"attributes":{"ID":363244,"DIS_CODE":0,"TOWNNAME":"永康區","LI":"網寮里","LIN":"19鄰","STREET":"永二街","SECT":" ","MAREA":" ","LANE":"２２９巷","ALLEY":" ","HOUSE_NO":"１９號","E_COORD97":173422.10999999999,"N_COORD97":2546222.8399999999,"ADDRESS":"永二街２２９巷１９號","OBJECTID":363234},"geometry":{"x":173422.1099999994,"y":2546222.8400000017}},{"attributes":{"ID":363245,"DIS_CODE":0,"TOWNNAME":"永康區","LI":"復興里","LIN":"19鄰","STREET":"復興路","SECT":" ","MAREA":" ","LANE":"３５６巷","ALLEY":" ","HOUSE_NO":"１０號","E_COORD97":172260.26000000001,"N_COORD97":2544384.77,"ADDRESS":"復興路３５６巷１０號","OBJECTID":363235},"geometry":{"x":172260.26000000071,"y":2544384.7700000033}},{"attributes":{"ID":363246,"DIS_CODE":0,"TOWNNAME":"永康區","LI":"網寮里","LIN":"19鄰","STREET":"永二街","SECT":" ","MAREA":" ","LANE":"２２９巷","ALLEY":" ","HOUSE_NO":"１８號","E_COORD97":173425.97,"N_COORD97":2546220.3399999999,"ADDRESS":"永二街２２９巷１８號","OBJECTID":363236},"geometry":{"x":173425.9700000016,"y":2546220.3400000017}},{"attributes":{"ID":363247,"DIS_CODE":0,"TOWNNAME":"永康區","LI":"網寮里","LIN":"19鄰","STREET":"永二街","SECT":" ","MAREA":" ","LANE":"２２９巷","ALLEY":" ","HOUSE_NO":"２１號","E_COORD97":173408,"N_COORD97":2546232.6400000001,"ADDRESS":"永二街２２９巷２１號","OBJECTID":363237},"geometry":{"x":173408.00000000093,"y":2546232.6400000025}},{"attributes":{"ID":363248,"DIS_CODE":0,"TOWNNAME":"永康區","LI":"網寮里","LIN":"19鄰","STREET":"永二街","SECT":" ","MAREA":" ","LANE":"２２９巷","ALLEY":" ","HOUSE_NO":"１３號","E_COORD97":173454.82999999999,"N_COORD97":2546256.8599999999,"ADDRESS":"永二街２２９巷１３號","OBJECTID":363238},"geometry":{"x":173454.83000000101,"y":2546256.8600000013}},{"attributes":{"ID":363249,"DIS_CODE":0,"TOWNNAME":"永康區","LI":"復興里","LIN":"19鄰","STREET":"復興路","SECT":" ","MAREA":" ","LANE":"３５６巷","ALLEY":" ","HOUSE_NO":"４號","E_COORD97":172254.64999999999,"N_COORD97":2544379.0099999998,"ADDRESS":"復興路３５６巷４號","OBJECTID":363239},"geometry":{"x":172254.6500000013,"y":2544379.0099999998}},{"attributes":{"ID":363250,"DIS_CODE":0,"TOWNNAME":"永康區","LI":"網寮里","LIN":"19鄰","STREET":"永二街","SECT":" ","MAREA":" ","LANE":"２２９巷","ALLEY":" ","HOUSE_NO":"２２號","E_COORD97":173405.47,"N_COORD97":2546234.3900000001,"ADDRESS":"永二街２２９巷２２號","OBJECTID":363240},"geometry":{"x":173405.46999999881,"y":2546234.3900000025}},{"attributes":{"ID":363251,"DIS_CODE":0,"TOWNNAME":"中西區","LI":"仙草里","LIN":"5鄰","STREET":"五妃街","SECT":" ","MAREA":" ","LANE":"２８０巷","ALLEY":" ","HOUSE_NO":"１１號","E_COORD97":167887.10999999999,"N_COORD97":2542633.4900000002,"ADDRESS":"五妃街２８０巷１１號","OBJECTID":363241},"geometry":{"x":167887.11000000034,"y":2542633.4900000002}},{"attributes":{"ID":363252,"DIS_CODE":0,"TOWNNAME":"中西區","LI":"仙草里","LIN":"13鄰","STREET":"南寧街","SECT":" ","MAREA":" ","LANE":"８３巷","ALLEY":" ","HOUSE_NO":"７號","E_COORD97":167825.81,"N_COORD97":2542816.9500000002,"ADDRESS":"南寧街８３巷７號","OBJECTID":363242},"geometry":{"x":167825.80999999959,"y":2542816.950000003}},{"attributes":{"ID":363253,"DIS_CODE":0,"TOWNNAME":"中西區","LI":"仙草里","LIN":"13鄰","STREET":"南寧街","SECT":" ","MAREA":" ","LANE":"８３巷","ALLEY":" ","HOUSE_NO":"９號","E_COORD97":167825.29000000001,"N_COORD97":2542812.79,"ADDRESS":"南寧街８３巷９號","OBJECTID":363243},"geometry":{"x":167825.29000000097,"y":2542812.7899999991}},{"attributes":{"ID":363254,"DIS_CODE":0,"TOWNNAME":"永康區","LI":"網寮里","LIN":"19鄰","STREET":"永二街","SECT":" ","MAREA":" ","LANE":"２２９巷","ALLEY":" ","HOUSE_NO":"１６號","E_COORD97":173461.98999999999,"N_COORD97":2546267.6099999999,"ADDRESS":"永二街２２９巷１６號","OBJECTID":363244},"geometry":{"x":173461.99000000209,"y":2546267.6100000013}},{"attributes":{"ID":363255,"DIS_CODE":0,"TOWNNAME":"永康區","LI":"龍潭里","LIN":"19鄰","STREET":"龍潭街","SECT":" ","MAREA":" ","LANE":"２１９巷","ALLEY":" ","HOUSE_NO":"８號","E_COORD97":174909.41,"N_COORD97":2548425.2999999998,"ADDRESS":"龍潭街２１９巷８號","OBJECTID":363245},"geometry":{"x":174909.41000000015,"y":2548425.3000000026}},{"attributes":{"ID":363256,"DIS_CODE":0,"TOWNNAME":"永康區","LI":"網寮里","LIN":"19鄰","STREET":"永二街","SECT":" ","MAREA":" ","LANE":"２２９巷","ALLEY":" ","HOUSE_NO":"４號","E_COORD97":173418.54999999999,"N_COORD97":2546240.75,"ADDRESS":"永二街２２９巷４號","OBJECTID":363246},"geometry":{"x":173418.54999999981,"y":2546240.7500000019}},{"attributes":{"ID":363257,"DIS_CODE":0,"TOWNNAME":"永康區","LI":"網寮里","LIN":"19鄰","STREET":"永二街","SECT":" ","MAREA":" ","LANE":"２２９巷","ALLEY":" ","HOUSE_NO":"１０號","E_COORD97":173447.14999999999,"N_COORD97":2546245.8700000001,"ADDRESS":"永二街２２９巷１０號","OBJECTID":363247},"geometry":{"x":173447.15000000037,"y":2546245.870000001}},{"attributes":{"ID":363258,"DIS_CODE":0,"TOWNNAME":"永康區","LI":"網寮里","LIN":"19鄰","STREET":"永二街","SECT":" ","MAREA":" ","LANE":"２２９巷","ALLEY":" ","HOUSE_NO":"５號","E_COORD97":173421.85000000001,"N_COORD97":2546238.5,"ADDRESS":"永二街２２９巷５號","OBJECTID":363248},"geometry":{"x":173421.85000000056,"y":2546238.5000000019}},{"attributes":{"ID":363259,"DIS_CODE":0,"TOWNNAME":"永康區","LI":"龍潭里","LIN":"19鄰","STREET":"龍潭街","SECT":" ","MAREA":" ","LANE":"２４３巷","ALLEY":" ","HOUSE_NO":"４號之１","E_COORD97":174892.13,"N_COORD97":2548447.5299999998,"ADDRESS":"龍潭街２４３巷４號之１","OBJECTID":363249},"geometry":{"x":174892.13000000082,"y":2548447.5299999975}},{"attributes":{"ID":363260,"DIS_CODE":0,"TOWNNAME":"永康區","LI":"龍潭里","LIN":"19鄰","STREET":"龍潭街","SECT":" ","MAREA":" ","LANE":"２４３巷","ALLEY":" ","HOUSE_NO":"６號","E_COORD97":174889.31,"N_COORD97":2548438.0099999998,"ADDRESS":"龍潭街２４３巷６號","OBJECTID":363250},"geometry":{"x":174889.30999999959,"y":2548438.0099999979}},{"attributes":{"ID":363261,"DIS_CODE":0,"TOWNNAME":"東區","LI":"德光里","LIN":"13鄰","STREET":"崇善路","SECT":" ","MAREA":" ","LANE":" ","ALLEY":" ","HOUSE_NO":"１４８號","E_COORD97":170318.20999999999,"N_COORD97":2542363.6200000001,"ADDRESS":"崇善路１４８號","OBJECTID":363251},"geometry":{"x":170318.20999999996,"y":2542363.6200000029}},{"attributes":{"ID":363262,"DIS_CODE":0,"TOWNNAME":"東區","LI":"德光里","LIN":"13鄰","STREET":"崇善路","SECT":" ","MAREA":" ","LANE":" ","ALLEY":" ","HOUSE_NO":"１５６號","E_COORD97":170321.45999999999,"N_COORD97":2542360.6400000001,"ADDRESS":"崇善路１５６號","OBJECTID":363252},"geometry":{"x":170321.46000000089,"y":2542360.6400000025}},{"attributes":{"ID":363263,"DIS_CODE":0,"TOWNNAME":"東區","LI":"德光里","LIN":"13鄰","STREET":"崇善路","SECT":" ","MAREA":" ","LANE":" ","ALLEY":" ","HOUSE_NO":"１５８號","E_COORD97":170325.98999999999,"N_COORD97":2542356.6200000001,"ADDRESS":"崇善路１５８號","OBJECTID":363253},"geometry":{"x":170325.99000000115,"y":2542356.6200000048}},{"attributes":{"ID":363264,"DIS_CODE":0,"TOWNNAME":"永康區","LI":"正強里","LIN":"42鄰","STREET":"中正路","SECT":" ","MAREA":" ","LANE":"２５６巷","ALLEY":" ","HOUSE_NO":"１號之２６","E_COORD97":173178.16,"N_COORD97":2547946.8999999999,"ADDRESS":"中正路２５６巷１號之２６","OBJECTID":363254},"geometry":{"x":173178.16000000108,"y":2547946.9000000004}},{"attributes":{"ID":363265,"DIS_CODE":0,"TOWNNAME":"永康區","LI":"正強里","LIN":"42鄰","STREET":"中正路","SECT":" ","MAREA":" ","LANE":"２５６巷","ALLEY":" ","HOUSE_NO":"１號之３１","E_COORD97":173178.06,"N_COORD97":2547946.8999999999,"ADDRESS":"中正路２５６巷１號之３１","OBJECTID":363255},"geometry":{"x":173178.06000000052,"y":2547946.9000000004}},{"attributes":{"ID":363266,"DIS_CODE":0,"TOWNNAME":"永康區","LI":"正強里","LIN":"42鄰","STREET":"中正路","SECT":" ","MAREA":" ","LANE":"２５６巷","ALLEY":" ","HOUSE_NO":"１號之２４","E_COORD97":173178.07999999999,"N_COORD97":2547946.8999999999,"ADDRESS":"中正路２５６巷１號之２４","OBJECTID":363256},"geometry":{"x":173178.08000000194,"y":2547946.9000000004}},{"attributes":{"ID":363267,"DIS_CODE":0,"TOWNNAME":"永康區","LI":"正強里","LIN":"42鄰","STREET":"中正路","SECT":" ","MAREA":" ","LANE":"２５６巷","ALLEY":" ","HOUSE_NO":"１號之２８","E_COORD97":173178.20999999999,"N_COORD97":2547946.8999999999,"ADDRESS":"中正路２５６巷１號之２８","OBJECTID":363257},"geometry":{"x":173178.20999999996,"y":2547946.9000000004}},{"attributes":{"ID":363268,"DIS_CODE":0,"TOWNNAME":"永康區","LI":"崑山里","LIN":"42鄰","STREET":"大仁街","SECT":" ","MAREA":" ","LANE":"２１７巷","ALLEY":" ","HOUSE_NO":"３９號","E_COORD97":173855.98999999999,"N_COORD97":2545120.9100000001,"ADDRESS":"大仁街２１７巷３９號","OBJECTID":363258},"geometry":{"x":173855.99000000115,"y":2545120.910000002}},{"attributes":{"ID":363269,"DIS_CODE":0,"TOWNNAME":"永康區","LI":"崑山里","LIN":"42鄰","STREET":"大仁街","SECT":" ","MAREA":" ","LANE":"１９９巷","ALLEY":" ","HOUSE_NO":"２８號","E_COORD97":173863.45999999999,"N_COORD97":2545078.3100000001,"ADDRESS":"大仁街１９９巷２８號","OBJECTID":363259},"geometry":{"x":173863.45999999996,"y":2545078.3100000024}},{"attributes":{"ID":363270,"DIS_CODE":0,"TOWNNAME":"永康區","LI":"西灣里","LIN":"42鄰","STREET":"大灣路","SECT":" ","MAREA":" ","LANE":"９４２巷","ALLEY":" ","HOUSE_NO":"４７５號","E_COORD97":173944.29000000001,"N_COORD97":2545434.7400000002,"ADDRESS":"大灣路９４２巷４７５號","OBJECTID":363260},"geometry":{"x":173944.29000000004,"y":2545434.7400000021}},{"attributes":{"ID":363271,"DIS_CODE":0,"TOWNNAME":"永康區","LI":"成功里","LIN":"42鄰","STREET":"中華路","SECT":" ","MAREA":" ","LANE":"１５４巷","ALLEY":" ","HOUSE_NO":"２４號","E_COORD97":171693,"N_COORD97":2544886.1699999999,"ADDRESS":"中華路１５４巷２４號","OBJECTID":363261},"geometry":{"x":171693,"y":2544886.1699999999}},{"attributes":{"ID":363272,"DIS_CODE":0,"TOWNNAME":"歸仁區","LI":"六甲里","LIN":"42鄰","STREET":"民生十二街","SECT":" ","MAREA":" ","LANE":"７１巷","ALLEY":" ","HOUSE_NO":"３號","E_COORD97":175867.04999999999,"N_COORD97":2539466.7999999998,"ADDRESS":"民生十二街７１巷３號","OBJECTID":363262},"geometry":{"x":175867.05000000075,"y":2539466.8000000026}},{"attributes":{"ID":363273,"DIS_CODE":0,"TOWNNAME":"中西區","LI":"小西里","LIN":"1鄰","STREET":"永福路","SECT":"一段","MAREA":" ","LANE":"２５７巷","ALLEY":" ","HOUSE_NO":"１５號","E_COORD97":167938.23000000001,"N_COORD97":2543309.98,"ADDRESS":"永福路一段２５７巷１５號","OBJECTID":363263},"geometry":{"x":167938.23000000138,"y":2543309.9800000023}},{"attributes":{"ID":363274,"DIS_CODE":0,"TOWNNAME":"仁德區","LI":"土庫里","LIN":"19鄰","STREET":"太子二街","SECT":" ","MAREA":" ","LANE":"１６６巷","ALLEY":" ","HOUSE_NO":"９號","E_COORD97":174457.10000000001,"N_COORD97":2543177,"ADDRESS":"太子二街１６６巷９號","OBJECTID":363264},"geometry":{"x":174457.09999999963,"y":2543177.0000000019}},{"attributes":{"ID":363275,"DIS_CODE":0,"TOWNNAME":"仁德區","LI":"大甲里","LIN":"19鄰","STREET":"中正西路","SECT":" ","MAREA":" ","LANE":"４９５巷","ALLEY":" ","HOUSE_NO":"３０號","E_COORD97":169378.79999999999,"N_COORD97":2535356.5,"ADDRESS":"中正西路４９５巷３０號","OBJECTID":363265},"geometry":{"x":169378.79999999981,"y":2535356.5000000019}},{"attributes":{"ID":363276,"DIS_CODE":0,"TOWNNAME":"東區","LI":"新東里","LIN":"19鄰","STREET":"裕豐街","SECT":" ","MAREA":" ","LANE":"１８５巷","ALLEY":" ","HOUSE_NO":"５１號","E_COORD97":170662.23999999999,"N_COORD97":2543162.0600000001,"ADDRESS":"裕豐街１８５巷５１號","OBJECTID":363266},"geometry":{"x":170662.24000000115,"y":2543162.0600000005}},{"attributes":{"ID":363277,"DIS_CODE":0,"TOWNNAME":"東區","LI":"新東里","LIN":"19鄰","STREET":"裕豐街","SECT":" ","MAREA":" ","LANE":"１８５巷","ALLEY":" ","HOUSE_NO":"５３號","E_COORD97":170658.45999999999,"N_COORD97":2543161.3199999998,"ADDRESS":"裕豐街１８５巷５３號","OBJECTID":363267},"geometry":{"x":170658.46000000089,"y":2543161.320000004}},{"attributes":{"ID":363278,"DIS_CODE":0,"TOWNNAME":"中西區","LI":"小西里","LIN":"4鄰","STREET":"永福路","SECT":"一段","MAREA":" ","LANE":"２３３巷","ALLEY":" ","HOUSE_NO":"２３號","E_COORD97":167852.42999999999,"N_COORD97":2543261.2999999998,"ADDRESS":"永福路一段２３３巷２３號","OBJECTID":363268},"geometry":{"x":167852.43000000156,"y":2543261.3000000026}},{"attributes":{"ID":363279,"DIS_CODE":0,"TOWNNAME":"東區","LI":"中西里","LIN":"19鄰","STREET":"長榮路","SECT":"二段","MAREA":" ","LANE":"３２巷","ALLEY":" ","HOUSE_NO":"５７號","E_COORD97":170036.70999999999,"N_COORD97":2543214.6000000001,"ADDRESS":"長榮路二段３２巷５７號","OBJECTID":363269},"geometry":{"x":170036.71000000089,"y":2543214.5999999996}},{"attributes":{"ID":363280,"DIS_CODE":0,"TOWNNAME":"東區","LI":"圍下里","LIN":"19鄰","STREET":"慶東街","SECT":" ","MAREA":" ","LANE":"１２７巷","ALLEY":" ","HOUSE_NO":"６號","E_COORD97":169624.67999999999,"N_COORD97":2543404.04,"ADDRESS":"慶東街１２７巷６號","OBJECTID":363270},"geometry":{"x":169624.68000000063,"y":2543404.040000001}},{"attributes":{"ID":363281,"DIS_CODE":0,"TOWNNAME":"東區","LI":"小東里","LIN":"19鄰","STREET":"東興路","SECT":" ","MAREA":" ","LANE":"３１４巷","ALLEY":" ","HOUSE_NO":"１１號","E_COORD97":171086.64999999999,"N_COORD97":2544126.5299999998,"ADDRESS":"東興路３１４巷１１號","OBJECTID":363271},"geometry":{"x":171086.6500000013,"y":2544126.5300000012}},{"attributes":{"ID":363282,"DIS_CODE":0,"TOWNNAME":"東區","LI":"德光里","LIN":"13鄰","STREET":"崇德三街","SECT":" ","MAREA":" ","LANE":" ","ALLEY":" ","HOUSE_NO":"４３號","E_COORD97":170244.51999999999,"N_COORD97":2542249.7999999998,"ADDRESS":"崇德三街４３號","OBJECTID":363272},"geometry":{"x":170244.51999999955,"y":2542249.8000000045}},{"attributes":{"ID":363283,"DIS_CODE":0,"TOWNNAME":"東區","LI":"德光里","LIN":"13鄰","STREET":"崇德三街","SECT":" ","MAREA":" ","LANE":" ","ALLEY":" ","HOUSE_NO":"４５之１號","E_COORD97":170252.76999999999,"N_COORD97":2542260.75,"ADDRESS":"崇德三街４５之１號","OBJECTID":363273},"geometry":{"x":170252.77000000048,"y":2542260.7500000019}},{"attributes":{"ID":363284,"DIS_CODE":0,"TOWNNAME":"東區","LI":"德光里","LIN":"13鄰","STREET":"崇德三街","SECT":" ","MAREA":" ","LANE":" ","ALLEY":" ","HOUSE_NO":"４５之２號","E_COORD97":170266.10000000001,"N_COORD97":2542280.0099999998,"ADDRESS":"崇德三街４５之２號","OBJECTID":363274},"geometry":{"x":170266.09999999963,"y":2542280.0099999998}},{"attributes":{"ID":363285,"DIS_CODE":0,"TOWNNAME":"東區","LI":"德光里","LIN":"13鄰","STREET":"崇德三街","SECT":" ","MAREA":" ","LANE":" ","ALLEY":" ","HOUSE_NO":"４５號","E_COORD97":170247.48000000001,"N_COORD97":2542254.1099999999,"ADDRESS":"崇德三街４５號","OBJECTID":363275},"geometry":{"x":170247.48000000045,"y":2542254.1100000013}},{"attributes":{"ID":363286,"DIS_CODE":0,"TOWNNAME":"東區","LI":"德光里","LIN":"13鄰","STREET":"崇德三街","SECT":" ","MAREA":" ","LANE":" ","ALLEY":" ","HOUSE_NO":"５９之２號","E_COORD97":170269.67000000001,"N_COORD97":2542295.1400000001,"ADDRESS":"崇德三街５９之２號","OBJECTID":363276},"geometry":{"x":170269.66999999993,"y":2542295.1400000025}},{"attributes":{"ID":363287,"DIS_CODE":0,"TOWNNAME":"東區","LI":"德光里","LIN":"13鄰","STREET":"崇德三街","SECT":" ","MAREA":" ","LANE":" ","ALLEY":" ","HOUSE_NO":"５９之３號","E_COORD97":170263.39000000001,"N_COORD97":2542290.71,"ADDRESS":"崇德三街５９之３號","OBJECTID":363277},"geometry":{"x":170263.3900000006,"y":2542290.7100000009}},{"attributes":{"ID":363288,"DIS_CODE":0,"TOWNNAME":"東區","LI":"德光里","LIN":"13鄰","STREET":"崇德三街","SECT":" ","MAREA":" ","LANE":" ","ALLEY":" ","HOUSE_NO":"５９號之１","E_COORD97":170275.82999999999,"N_COORD97":2542290.5899999999,"ADDRESS":"崇德三街５９號之１","OBJECTID":363278},"geometry":{"x":170275.83000000194,"y":2542290.5899999999}},{"attributes":{"ID":363289,"DIS_CODE":0,"TOWNNAME":"東區","LI":"德光里","LIN":"13鄰","STREET":"崇德三街","SECT":" ","MAREA":" ","LANE":" ","ALLEY":" ","HOUSE_NO":"６９號","E_COORD97":170286.92000000001,"N_COORD97":2542310.0899999999,"ADDRESS":"崇德三街６９號","OBJECTID":363279},"geometry":{"x":170286.92000000179,"y":2542310.0899999999}},{"attributes":{"ID":363290,"DIS_CODE":0,"TOWNNAME":"東區","LI":"德光里","LIN":"13鄰","STREET":"崇德三街","SECT":" ","MAREA":" ","LANE":" ","ALLEY":" ","HOUSE_NO":"７１號","E_COORD97":170291.01000000001,"N_COORD97":2542316.29,"ADDRESS":"崇德三街７１號","OBJECTID":363280},"geometry":{"x":170291.00999999978,"y":2542316.290000001}},{"attributes":{"ID":363291,"DIS_CODE":0,"TOWNNAME":"歸仁區","LI":"後市里","LIN":"46鄰","STREET":"文化街","SECT":"二段","MAREA":" ","LANE":"１２１巷","ALLEY":" ","HOUSE_NO":"１１號","E_COORD97":177190.19,"N_COORD97":2541111.7599999998,"ADDRESS":"文化街二段１２１巷１１號","OBJECTID":363281},"geometry":{"x":177190.19000000227,"y":2541111.7599999998}},{"attributes":{"ID":363292,"DIS_CODE":0,"TOWNNAME":"歸仁區","LI":"後市里","LIN":"46鄰","STREET":"文化街","SECT":"二段","MAREA":" ","LANE":"１２１巷","ALLEY":" ","HOUSE_NO":"９號","E_COORD97":177190.04000000001,"N_COORD97":2541115.7599999998,"ADDRESS":"文化街二段１２１巷９號","OBJECTID":363282},"geometry":{"x":177190.04000000004,"y":2541115.7599999998}},{"attributes":{"ID":363293,"DIS_CODE":0,"TOWNNAME":"歸仁區","LI":"辜厝里","LIN":"46鄰","STREET":"中正八街","SECT":" ","MAREA":" ","LANE":"１１巷","ALLEY":" ","HOUSE_NO":"１１號","E_COORD97":177120.44,"N_COORD97":2540260.9500000002,"ADDRESS":"中正八街１１巷１１號","OBJECTID":363283},"geometry":{"x":177120.44000000041,"y":2540260.9500000011}},{"attributes":{"ID":363294,"DIS_CODE":0,"TOWNNAME":"歸仁區","LI":"辜厝里","LIN":"46鄰","STREET":"中正八街","SECT":" ","MAREA":" ","LANE":"１１巷","ALLEY":" ","HOUSE_NO":"１５號","E_COORD97":177113.23999999999,"N_COORD97":2540254.9500000002,"ADDRESS":"中正八街１１巷１５號","OBJECTID":363284},"geometry":{"x":177113.23999999929,"y":2540254.9500000011}},{"attributes":{"ID":363295,"DIS_CODE":0,"TOWNNAME":"仁德區","LI":"太子里","LIN":"46鄰","STREET":"太子一街","SECT":" ","MAREA":" ","LANE":"４３巷","ALLEY":" ","HOUSE_NO":"２４號","E_COORD97":174816.37,"N_COORD97":2543303.0099999998,"ADDRESS":"太子一街４３巷２４號","OBJECTID":363285},"geometry":{"x":174816.37000000011,"y":2543303.0100000016}},{"attributes":{"ID":363296,"DIS_CODE":0,"TOWNNAME":"仁德區","LI":"太子里","LIN":"46鄰","STREET":"太子一街","SECT":" ","MAREA":" ","LANE":"４３巷","ALLEY":" ","HOUSE_NO":"１號","E_COORD97":174803.64999999999,"N_COORD97":2543330.0099999998,"ADDRESS":"太子一街４３巷１號","OBJECTID":363286},"geometry":{"x":174803.65000000224,"y":2543330.0100000016}},{"attributes":{"ID":363297,"DIS_CODE":0,"TOWNNAME":"仁德區","LI":"太子里","LIN":"46鄰","STREET":"太子一街","SECT":" ","MAREA":" ","LANE":"４３巷","ALLEY":" ","HOUSE_NO":"６號","E_COORD97":174778.95000000001,"N_COORD97":2543334.2599999998,"ADDRESS":"太子一街４３巷６號","OBJECTID":363287},"geometry":{"x":174778.95000000019,"y":2543334.2600000035}},{"attributes":{"ID":363298,"DIS_CODE":0,"TOWNNAME":"仁德區","LI":"仁義里","LIN":"46鄰","STREET":"仁義路","SECT":" ","MAREA":" ","LANE":"９８巷","ALLEY":" ","HOUSE_NO":"１５號","E_COORD97":173627.56,"N_COORD97":2540910.2599999998,"ADDRESS":"仁義路９８巷１５號","OBJECTID":363288},"geometry":{"x":173627.56000000052,"y":2540910.2600000016}},{"attributes":{"ID":363299,"DIS_CODE":0,"TOWNNAME":"永康區","LI":"崑山里","LIN":"46鄰","STREET":"崑山街","SECT":" ","MAREA":" ","LANE":"２５８巷","ALLEY":" ","HOUSE_NO":"１７號","E_COORD97":174180.85999999999,"N_COORD97":2545138.0800000001,"ADDRESS":"崑山街２５８巷１７號","OBJECTID":363289},"geometry":{"x":174180.86000000034,"y":2545138.0800000001}},{"attributes":{"ID":363300,"DIS_CODE":0,"TOWNNAME":"永康區","LI":"正強里","LIN":"46鄰","STREET":"中正路","SECT":" ","MAREA":" ","LANE":"２５６巷","ALLEY":" ","HOUSE_NO":"９號之３１","E_COORD97":173207.06,"N_COORD97":2547991.8799999999,"ADDRESS":"中正路２５６巷９號之３１","OBJECTID":363290},"geometry":{"x":173207.06000000052,"y":2547991.8800000008}},{"attributes":{"ID":363301,"DIS_CODE":0,"TOWNNAME":"永康區","LI":"正強里","LIN":"46鄰","STREET":"中正路","SECT":" ","MAREA":" ","LANE":"２５６巷","ALLEY":" ","HOUSE_NO":"９號之４４","E_COORD97":173207.07999999999,"N_COORD97":2547991.8799999999,"ADDRESS":"中正路２５６巷９號之４４","OBJECTID":363291},"geometry":{"x":173207.08000000101,"y":2547991.8800000008}},{"attributes":{"ID":363302,"DIS_CODE":0,"TOWNNAME":"東區","LI":"崇成里","LIN":"25鄰","STREET":"崇明二十三街","SECT":" ","MAREA":" ","LANE":" ","ALLEY":" ","HOUSE_NO":"４１號三樓","E_COORD97":170737.38,"N_COORD97":2540885.6099999999,"ADDRESS":"崇明二十三街４１號三樓","OBJECTID":363292},"geometry":{"x":170737.37999999989,"y":2540885.6099999994}},{"attributes":{"ID":363303,"DIS_CODE":0,"TOWNNAME":"東區","LI":"崇成里","LIN":"25鄰","STREET":"崇明二十三街","SECT":" ","MAREA":" ","LANE":" ","ALLEY":" ","HOUSE_NO":"４１號五樓","E_COORD97":170737.38,"N_COORD97":2540885.6099999999,"ADDRESS":"崇明二十三街４１號五樓","OBJECTID":363293},"geometry":{"x":170737.37999999989,"y":2540885.6099999994}},{"attributes":{"ID":363304,"DIS_CODE":0,"TOWNNAME":"東區","LI":"崇成里","LIN":"25鄰","STREET":"崇明二十三街","SECT":" ","MAREA":" ","LANE":" ","ALLEY":" ","HOUSE_NO":"４１號六樓","E_COORD97":170737.38,"N_COORD97":2540885.6099999999,"ADDRESS":"崇明二十三街４１號六樓","OBJECTID":363294},"geometry":{"x":170737.37999999989,"y":2540885.6099999994}},{"attributes":{"ID":363305,"DIS_CODE":0,"TOWNNAME":"東區","LI":"崇成里","LIN":"25鄰","STREET":"崇明二十三街","SECT":" ","MAREA":" ","LANE":" ","ALLEY":" ","HOUSE_NO":"４１號四樓","E_COORD97":170737.38,"N_COORD97":2540885.6099999999,"ADDRESS":"崇明二十三街４１號四樓","OBJECTID":363295},"geometry":{"x":170737.37999999989,"y":2540885.6099999994}},{"attributes":{"ID":363306,"DIS_CODE":0,"TOWNNAME":"東區","LI":"崇成里","LIN":"25鄰","STREET":"崇明二十三街","SECT":" ","MAREA":" ","LANE":" ","ALLEY":" ","HOUSE_NO":"４３號二樓","E_COORD97":170738.07000000001,"N_COORD97":2540875.6099999999,"ADDRESS":"崇明二十三街４３號二樓","OBJECTID":363296},"geometry":{"x":170738.07000000123,"y":2540875.6099999994}},{"attributes":{"ID":363307,"DIS_CODE":0,"TOWNNAME":"東區","LI":"崇成里","LIN":"25鄰","STREET":"崇明二十三街","SECT":" ","MAREA":" ","LANE":" ","ALLEY":" ","HOUSE_NO":"４３號五樓","E_COORD97":170738.07000000001,"N_COORD97":2540875.6099999999,"ADDRESS":"崇明二十三街４３號五樓","OBJECTID":363297},"geometry":{"x":170738.07000000123,"y":2540875.6099999994}},{"attributes":{"ID":363308,"DIS_CODE":0,"TOWNNAME":"東區","LI":"崇成里","LIN":"25鄰","STREET":"崇明二十三街","SECT":" ","MAREA":" ","LANE":" ","ALLEY":" ","HOUSE_NO":"４３號六樓","E_COORD97":170738.07000000001,"N_COORD97":2540875.6099999999,"ADDRESS":"崇明二十三街４３號六樓","OBJECTID":363298},"geometry":{"x":170738.07000000123,"y":2540875.6099999994}},{"attributes":{"ID":363309,"DIS_CODE":0,"TOWNNAME":"東區","LI":"崇成里","LIN":"25鄰","STREET":"崇明二十三街","SECT":" ","MAREA":" ","LANE":" ","ALLEY":" ","HOUSE_NO":"４３號四樓","E_COORD97":170738.07000000001,"N_COORD97":2540875.6099999999,"ADDRESS":"崇明二十三街４３號四樓","OBJECTID":363299},"geometry":{"x":170738.07000000123,"y":2540875.6099999994}},{"attributes":{"ID":363310,"DIS_CODE":0,"TOWNNAME":"安平區","LI":"平通里","LIN":"19鄰","STREET":"慶平路","SECT":" ","MAREA":" ","LANE":" ","ALLEY":" ","HOUSE_NO":"７０５號四樓之４","E_COORD97":164590.81,"N_COORD97":2544263.6200000001,"ADDRESS":"慶平路７０５號四樓之４","OBJECTID":363300},"geometry":{"x":164590.80999999959,"y":2544263.620000001}},{"attributes":{"ID":363311,"DIS_CODE":0,"TOWNNAME":"南區","LI":"建南里","LIN":"19鄰","STREET":"明興路","SECT":" ","MAREA":" ","LANE":" ","ALLEY":" ","HOUSE_NO":"３１７號","E_COORD97":166395.48999999999,"N_COORD97":2539059.02,"ADDRESS":"明興路３１７號","OBJECTID":363301},"geometry":{"x":166395.49000000115,"y":2539059.0199999996}},{"attributes":{"ID":363312,"DIS_CODE":0,"TOWNNAME":"東區","LI":"裕聖里","LIN":"19鄰","STREET":"裕敬二街","SECT":" ","MAREA":" ","LANE":" ","ALLEY":" ","HOUSE_NO":"１００號","E_COORD97":172650.53,"N_COORD97":2542003.1800000002,"ADDRESS":"裕敬二街１００號","OBJECTID":363302},"geometry":{"x":172650.53000000119,"y":2542003.1800000016}},{"attributes":{"ID":363313,"DIS_CODE":0,"TOWNNAME":"東區","LI":"德光里","LIN":"19鄰","STREET":"崇德路","SECT":" ","MAREA":" ","LANE":" ","ALLEY":" ","HOUSE_NO":"１７７之１號","E_COORD97":169998.12,"N_COORD97":2542241.8599999999,"ADDRESS":"崇德路１７７之１號","OBJECTID":363303},"geometry":{"x":169998.12000000104,"y":2542241.8600000013}},{"attributes":{"ID":363314,"DIS_CODE":0,"TOWNNAME":"永康區","LI":"西灣里","LIN":"46鄰","STREET":"永華路","SECT":" ","MAREA":" ","LANE":"２３３巷","ALLEY":" ","HOUSE_NO":"５３號","E_COORD97":173964.53,"N_COORD97":2545784.25,"ADDRESS":"永華路２３３巷５３號","OBJECTID":363304},"geometry":{"x":173964.53000000026,"y":2545784.25}},{"attributes":{"ID":363315,"DIS_CODE":0,"TOWNNAME":"永康區","LI":"西灣里","LIN":"46鄰","STREET":"永華路","SECT":" ","MAREA":" ","LANE":"２３３巷","ALLEY":" ","HOUSE_NO":"４９號","E_COORD97":173967.03,"N_COORD97":2545775.4900000002,"ADDRESS":"永華路２３３巷４９號","OBJECTID":363305},"geometry":{"x":173967.03000000119,"y":2545775.4900000021}},{"attributes":{"ID":363316,"DIS_CODE":0,"TOWNNAME":"永康區","LI":"西灣里","LIN":"46鄰","STREET":"永華路","SECT":" ","MAREA":" ","LANE":"２３３巷","ALLEY":" ","HOUSE_NO":"４５號","E_COORD97":173969.12,"N_COORD97":2545766.7400000002,"ADDRESS":"永華路２３３巷４５號","OBJECTID":363306},"geometry":{"x":173969.12000000011,"y":2545766.7400000021}},{"attributes":{"ID":363317,"DIS_CODE":0,"TOWNNAME":"永康區","LI":"西灣里","LIN":"46鄰","STREET":"永華路","SECT":" ","MAREA":" ","LANE":"２３３巷","ALLEY":" ","HOUSE_NO":"５１號","E_COORD97":173965.73999999999,"N_COORD97":2545779.9900000002,"ADDRESS":"永華路２３３巷５１號","OBJECTID":363307},"geometry":{"x":173965.74000000115,"y":2545779.9900000002}},{"attributes":{"ID":363318,"DIS_CODE":0,"TOWNNAME":"永康區","LI":"西灣里","LIN":"46鄰","STREET":"永華路","SECT":" ","MAREA":" ","LANE":"２３３巷","ALLEY":" ","HOUSE_NO":"３３號","E_COORD97":173976.23000000001,"N_COORD97":2545740.7400000002,"ADDRESS":"永華路２３３巷３３號","OBJECTID":363308},"geometry":{"x":173976.23000000138,"y":2545740.7400000002}},{"attributes":{"ID":363319,"DIS_CODE":0,"TOWNNAME":"仁德區","LI":"仁義里","LIN":"46鄰","STREET":"仁義路","SECT":" ","MAREA":" ","LANE":"１２６巷","ALLEY":" ","HOUSE_NO":"１８號","E_COORD97":173680.07999999999,"N_COORD97":2540903.3900000001,"ADDRESS":"仁義路１２６巷１８號","OBJECTID":363309},"geometry":{"x":173680.08000000101,"y":2540903.3900000025}},{"attributes":{"ID":363320,"DIS_CODE":0,"TOWNNAME":"仁德區","LI":"仁義里","LIN":"46鄰","STREET":"仁義路","SECT":" ","MAREA":" ","LANE":"１２６巷","ALLEY":" ","HOUSE_NO":"４０號","E_COORD97":173677.35000000001,"N_COORD97":2540853.6499999999,"ADDRESS":"仁義路１２６巷４０號","OBJECTID":363310},"geometry":{"x":173677.34999999963,"y":2540853.6500000041}},{"attributes":{"ID":363321,"DIS_CODE":0,"TOWNNAME":"仁德區","LI":"仁義里","LIN":"46鄰","STREET":"仁義路","SECT":" ","MAREA":" ","LANE":"１２６巷","ALLEY":" ","HOUSE_NO":"５０號","E_COORD97":173676.13,"N_COORD97":2540830.3999999999,"ADDRESS":"仁義路１２６巷５０號","OBJECTID":363311},"geometry":{"x":173676.13000000082,"y":2540830.4000000004}},{"attributes":{"ID":363322,"DIS_CODE":0,"TOWNNAME":"仁德區","LI":"仁義里","LIN":"46鄰","STREET":"仁義路","SECT":" ","MAREA":" ","LANE":"１２６巷","ALLEY":" ","HOUSE_NO":"２８號","E_COORD97":173678.89000000001,"N_COORD97":2540880.3900000001,"ADDRESS":"仁義路１２６巷２８號","OBJECTID":363312},"geometry":{"x":173678.88999999873,"y":2540880.3900000025}},{"attributes":{"ID":363323,"DIS_CODE":0,"TOWNNAME":"仁德區","LI":"仁義里","LIN":"46鄰","STREET":"仁義路","SECT":" ","MAREA":" ","LANE":"１２６巷","ALLEY":" ","HOUSE_NO":"１４號","E_COORD97":173680.53,"N_COORD97":2540912.3900000001,"ADDRESS":"仁義路１２６巷１４號","OBJECTID":363313},"geometry":{"x":173680.53000000119,"y":2540912.3900000006}},{"attributes":{"ID":363324,"DIS_CODE":0,"TOWNNAME":"仁德區","LI":"仁義里","LIN":"46鄰","STREET":"仁義路","SECT":" ","MAREA":" ","LANE":"１２６巷","ALLEY":" ","HOUSE_NO":"１６號","E_COORD97":173680.19,"N_COORD97":2540907.8900000001,"ADDRESS":"仁義路１２６巷１６號","OBJECTID":363314},"geometry":{"x":173680.19000000134,"y":2540907.8900000025}},{"attributes":{"ID":363325,"DIS_CODE":0,"TOWNNAME":"仁德區","LI":"仁義里","LIN":"46鄰","STREET":"仁義路","SECT":" ","MAREA":" ","LANE":"１２６巷","ALLEY":" ","HOUSE_NO":"４２之１號","E_COORD97":173679.23999999999,"N_COORD97":2540844.6800000002,"ADDRESS":"仁義路１２６巷４２之１號","OBJECTID":363315},"geometry":{"x":173679.24000000115,"y":2540844.6799999997}},{"attributes":{"ID":363326,"DIS_CODE":0,"TOWNNAME":"仁德區","LI":"仁義里","LIN":"46鄰","STREET":"仁義路","SECT":" ","MAREA":" ","LANE":"９８巷","ALLEY":" ","HOUSE_NO":"４３號","E_COORD97":173626.29999999999,"N_COORD97":2540827.52,"ADDRESS":"仁義路９８巷４３號","OBJECTID":363316},"geometry":{"x":173626.30000000075,"y":2540827.5200000014}},{"attributes":{"ID":363327,"DIS_CODE":0,"TOWNNAME":"仁德區","LI":"仁義里","LIN":"46鄰","STREET":"仁義路","SECT":" ","MAREA":" ","LANE":"９８巷","ALLEY":" ","HOUSE_NO":"２５號","E_COORD97":173628.41,"N_COORD97":2540885.0099999998,"ADDRESS":"仁義路９８巷２５號","OBJECTID":363317},"geometry":{"x":173628.40999999922,"y":2540885.0100000016}},{"attributes":{"ID":363328,"DIS_CODE":0,"TOWNNAME":"仁德區","LI":"仁義里","LIN":"46鄰","STREET":"仁義路","SECT":" ","MAREA":" ","LANE":"９８巷","ALLEY":" ","HOUSE_NO":"４１號","E_COORD97":173626.06,"N_COORD97":2540833.02,"ADDRESS":"仁義路９８巷４１號","OBJECTID":363318},"geometry":{"x":173626.05999999959,"y":2540833.0199999977}},{"attributes":{"ID":363329,"DIS_CODE":0,"TOWNNAME":"東區","LI":"德光里","LIN":"13鄰","STREET":"崇德三街","SECT":" ","MAREA":" ","LANE":" ","ALLEY":" ","HOUSE_NO":"７３號","E_COORD97":170294.45000000001,"N_COORD97":2542321.0899999999,"ADDRESS":"崇德三街７３號","OBJECTID":363319},"geometry":{"x":170294.45000000112,"y":2542321.0899999999}},{"attributes":{"ID":363330,"DIS_CODE":0,"TOWNNAME":"東區","LI":"德光里","LIN":"13鄰","STREET":"崇德三街","SECT":" ","MAREA":" ","LANE":" ","ALLEY":" ","HOUSE_NO":"７５號","E_COORD97":170297.89999999999,"N_COORD97":2542326.25,"ADDRESS":"崇德三街７５號","OBJECTID":363320},"geometry":{"x":170297.9000000013,"y":2542326.25}},{"attributes":{"ID":363331,"DIS_CODE":0,"TOWNNAME":"東區","LI":"德光里","LIN":"13鄰","STREET":"崇德三街","SECT":" ","MAREA":" ","LANE":" ","ALLEY":" ","HOUSE_NO":"７７號","E_COORD97":170302.95000000001,"N_COORD97":2542330.5600000001,"ADDRESS":"崇德三街７７號","OBJECTID":363321},"geometry":{"x":170302.95000000112,"y":2542330.5600000024}},{"attributes":{"ID":363332,"DIS_CODE":0,"TOWNNAME":"東區","LI":"德光里","LIN":"13鄰","STREET":"德光街","SECT":" ","MAREA":" ","LANE":" ","ALLEY":" ","HOUSE_NO":"１０３號","E_COORD97":170203.45000000001,"N_COORD97":2542269.8799999999,"ADDRESS":"德光街１０３號","OBJECTID":363322},"geometry":{"x":170203.45000000019,"y":2542269.879999999}},{"attributes":{"ID":363333,"DIS_CODE":0,"TOWNNAME":"東區","LI":"德光里","LIN":"13鄰","STREET":"德光街","SECT":" ","MAREA":" ","LANE":" ","ALLEY":" ","HOUSE_NO":"５５號","E_COORD97":170259.26000000001,"N_COORD97":2542388.1299999999,"ADDRESS":"德光街５５號","OBJECTID":363323},"geometry":{"x":170259.26000000071,"y":2542388.1300000027}},{"attributes":{"ID":363334,"DIS_CODE":0,"TOWNNAME":"東區","LI":"德光里","LIN":"13鄰","STREET":"德光街","SECT":" ","MAREA":" ","LANE":" ","ALLEY":" ","HOUSE_NO":"５７號","E_COORD97":170257.82000000001,"N_COORD97":2542383.5299999998,"ADDRESS":"德光街５７號","OBJECTID":363324},"geometry":{"x":170257.82000000123,"y":2542383.5300000012}},{"attributes":{"ID":363335,"DIS_CODE":0,"TOWNNAME":"東區","LI":"德光里","LIN":"13鄰","STREET":"德光街","SECT":" ","MAREA":" ","LANE":" ","ALLEY":" ","HOUSE_NO":"５９號","E_COORD97":170256.38,"N_COORD97":2542380.0699999998,"ADDRESS":"德光街５９號","OBJECTID":363325},"geometry":{"x":170256.37999999989,"y":2542380.0700000022}},{"attributes":{"ID":363336,"DIS_CODE":0,"TOWNNAME":"東區","LI":"德光里","LIN":"13鄰","STREET":"德光街","SECT":" ","MAREA":" ","LANE":" ","ALLEY":" ","HOUSE_NO":"６１號","E_COORD97":170254.94,"N_COORD97":2542376.3300000001,"ADDRESS":"德光街６１號","OBJECTID":363326},"geometry":{"x":170254.94000000041,"y":2542376.3300000001}},{"attributes":{"ID":363337,"DIS_CODE":0,"TOWNNAME":"東區","LI":"德光里","LIN":"13鄰","STREET":"德光街","SECT":" ","MAREA":" ","LANE":" ","ALLEY":" ","HOUSE_NO":"６３號","E_COORD97":170258.98000000001,"N_COORD97":2542365.1000000001,"ADDRESS":"德光街６３號","OBJECTID":363327},"geometry":{"x":170258.98000000138,"y":2542365.0999999978}},{"attributes":{"ID":363338,"DIS_CODE":0,"TOWNNAME":"東區","LI":"德光里","LIN":"13鄰","STREET":"德光街","SECT":" ","MAREA":" ","LANE":" ","ALLEY":" ","HOUSE_NO":"６５號","E_COORD97":170241.97,"N_COORD97":2542348.98,"ADDRESS":"德光街６５號","OBJECTID":363328},"geometry":{"x":170241.96999999974,"y":2542348.9800000004}},{"attributes":{"ID":363339,"DIS_CODE":0,"TOWNNAME":"東區","LI":"德光里","LIN":"13鄰","STREET":"德光街","SECT":" ","MAREA":" ","LANE":" ","ALLEY":" ","HOUSE_NO":"６５號之１","E_COORD97":170238.79999999999,"N_COORD97":2542340.0600000001,"ADDRESS":"德光街６５號之１","OBJECTID":363329},"geometry":{"x":170238.80000000075,"y":2542340.0600000024}},{"attributes":{"ID":363340,"DIS_CODE":0,"TOWNNAME":"東區","LI":"德光里","LIN":"13鄰","STREET":"德光街","SECT":" ","MAREA":" ","LANE":" ","ALLEY":" ","HOUSE_NO":"６７號","E_COORD97":170229.85999999999,"N_COORD97":2542326.8100000001,"ADDRESS":"德光街６７號","OBJECTID":363330},"geometry":{"x":170229.86000000034,"y":2542326.8100000005}},{"attributes":{"ID":363341,"DIS_CODE":0,"TOWNNAME":"東區","LI":"德光里","LIN":"13鄰","STREET":"德光街","SECT":" ","MAREA":" ","LANE":" ","ALLEY":" ","HOUSE_NO":"９５號","E_COORD97":170221.64000000001,"N_COORD97":2542307.79,"ADDRESS":"德光街９５號","OBJECTID":363331},"geometry":{"x":170221.6400000006,"y":2542307.7899999991}},{"attributes":{"ID":363342,"DIS_CODE":0,"TOWNNAME":"東區","LI":"德光里","LIN":"13鄰","STREET":"德光街","SECT":" ","MAREA":" ","LANE":" ","ALLEY":" ","HOUSE_NO":"９７號","E_COORD97":170216.56,"N_COORD97":2542297,"ADDRESS":"德光街９７號","OBJECTID":363332},"geometry":{"x":170216.56000000052,"y":2542297}},{"attributes":{"ID":363343,"DIS_CODE":0,"TOWNNAME":"東區","LI":"德光里","LIN":"13鄰","STREET":"德光街","SECT":" ","MAREA":" ","LANE":" ","ALLEY":" ","HOUSE_NO":"９９號","E_COORD97":170210.56,"N_COORD97":2542287.1299999999,"ADDRESS":"德光街９９號","OBJECTID":363333},"geometry":{"x":170210.55999999959,"y":2542287.1300000008}},{"attributes":{"ID":363344,"DIS_CODE":0,"TOWNNAME":"南區","LI":"文南里","LIN":"13鄰","STREET":"育南街","SECT":" ","MAREA":" ","LANE":" ","ALLEY":" ","HOUSE_NO":"６６號","E_COORD97":166883.38,"N_COORD97":2542719.3799999999,"ADDRESS":"育南街６６號","OBJECTID":363334},"geometry":{"x":166883.38000000175,"y":2542719.3800000008}},{"attributes":{"ID":363345,"DIS_CODE":0,"TOWNNAME":"南區","LI":"文南里","LIN":"13鄰","STREET":"文南路","SECT":" ","MAREA":" ","LANE":" ","ALLEY":" ","HOUSE_NO":"１７號","E_COORD97":166912.82000000001,"N_COORD97":2542566.8900000001,"ADDRESS":"文南路１７號","OBJECTID":363335},"geometry":{"x":166912.81999999937,"y":2542566.8900000006}},{"attributes":{"ID":363346,"DIS_CODE":0,"TOWNNAME":"仁德區","LI":"太子里","LIN":"46鄰","STREET":"太子一街","SECT":" ","MAREA":" ","LANE":"４３巷","ALLEY":" ","HOUSE_NO":"２０號","E_COORD97":174809.34,"N_COORD97":2543307.5099999998,"ADDRESS":"太子一街４３巷２０號","OBJECTID":363336},"geometry":{"x":174809.34000000078,"y":2543307.5099999998}},{"attributes":{"ID":363347,"DIS_CODE":0,"TOWNNAME":"仁德區","LI":"仁義里","LIN":"46鄰","STREET":"仁義路","SECT":" ","MAREA":" ","LANE":"９８巷","ALLEY":" ","HOUSE_NO":"１７號","E_COORD97":173627.28,"N_COORD97":2540905.2599999998,"ADDRESS":"仁義路９８巷１７號","OBJECTID":363337},"geometry":{"x":173627.28000000026,"y":2540905.2599999998}},{"attributes":{"ID":363348,"DIS_CODE":0,"TOWNNAME":"仁德區","LI":"太子里","LIN":"46鄰","STREET":"太子一街","SECT":" ","MAREA":" ","LANE":"２７巷","ALLEY":" ","HOUSE_NO":"２０號","E_COORD97":174871.95999999999,"N_COORD97":2543335.7599999998,"ADDRESS":"太子一街２７巷２０號","OBJECTID":363338},"geometry":{"x":174871.95999999996,"y":2543335.7599999998}},{"attributes":{"ID":363349,"DIS_CODE":0,"TOWNNAME":"仁德區","LI":"太子里","LIN":"46鄰","STREET":"太子一街","SECT":" ","MAREA":" ","LANE":"２７巷","ALLEY":" ","HOUSE_NO":"６號","E_COORD97":174828.73999999999,"N_COORD97":2543340.5099999998,"ADDRESS":"太子一街２７巷６號","OBJECTID":363339},"geometry":{"x":174828.74000000115,"y":2543340.5100000016}},{"attributes":{"ID":363350,"DIS_CODE":0,"TOWNNAME":"仁德區","LI":"太子里","LIN":"46鄰","STREET":"太子一街","SECT":" ","MAREA":" ","LANE":"４３巷","ALLEY":" ","HOUSE_NO":"２號","E_COORD97":174773.29000000001,"N_COORD97":2543341.7599999998,"ADDRESS":"太子一街４３巷２號","OBJECTID":363340},"geometry":{"x":174773.29000000004,"y":2543341.7600000016}},{"attributes":{"ID":363351,"DIS_CODE":0,"TOWNNAME":"仁德區","LI":"仁義里","LIN":"46鄰","STREET":"仁義路","SECT":" ","MAREA":" ","LANE":"１２６巷","ALLEY":" ","HOUSE_NO":"３８號","E_COORD97":173677.64000000001,"N_COORD97":2540857.8999999999,"ADDRESS":"仁義路１２６巷３８號","OBJECTID":363341},"geometry":{"x":173677.6400000006,"y":2540857.9000000004}},{"attributes":{"ID":363352,"DIS_CODE":0,"TOWNNAME":"仁德區","LI":"仁義里","LIN":"46鄰","STREET":"仁義路","SECT":" ","MAREA":" ","LANE":"１２６巷","ALLEY":" ","HOUSE_NO":"２６號","E_COORD97":173679.32999999999,"N_COORD97":2540885.1400000001,"ADDRESS":"仁義路１２６巷２６號","OBJECTID":363342},"geometry":{"x":173679.33000000007,"y":2540885.1400000025}},{"attributes":{"ID":363353,"DIS_CODE":0,"TOWNNAME":"仁德區","LI":"仁義里","LIN":"46鄰","STREET":"仁義路","SECT":" ","MAREA":" ","LANE":"１２６巷","ALLEY":" ","HOUSE_NO":"４２號之１","E_COORD97":173678.87,"N_COORD97":2540844.6800000002,"ADDRESS":"仁義路１２６巷４２號之１","OBJECTID":363343},"geometry":{"x":173678.87000000011,"y":2540844.6799999997}},{"attributes":{"ID":363354,"DIS_CODE":0,"TOWNNAME":"仁德區","LI":"仁義里","LIN":"46鄰","STREET":"仁義路","SECT":" ","MAREA":" ","LANE":"１２６巷","ALLEY":" ","HOUSE_NO":"６２號","E_COORD97":173679.94,"N_COORD97":2540782.2599999998,"ADDRESS":"仁義路１２６巷６２號","OBJECTID":363344},"geometry":{"x":173679.94000000134,"y":2540782.2600000016}},{"attributes":{"ID":363355,"DIS_CODE":0,"TOWNNAME":"東區","LI":"小東里","LIN":"19鄰","STREET":"東興路","SECT":" ","MAREA":" ","LANE":"３１４巷","ALLEY":" ","HOUSE_NO":"１３號","E_COORD97":171086.48999999999,"N_COORD97":2544130.9199999999,"ADDRESS":"東興路３１４巷１３號","OBJECTID":363345},"geometry":{"x":171086.49000000022,"y":2544130.9200000018}},{"attributes":{"ID":363356,"DIS_CODE":0,"TOWNNAME":"東區","LI":"小東里","LIN":"19鄰","STREET":"東興路","SECT":" ","MAREA":" ","LANE":"３１４巷","ALLEY":" ","HOUSE_NO":"１７號","E_COORD97":171085.54999999999,"N_COORD97":2544140,"ADDRESS":"東興路３１４巷１７號","OBJECTID":363346},"geometry":{"x":171085.54999999981,"y":2544140.0000000019}},{"attributes":{"ID":363357,"DIS_CODE":0,"TOWNNAME":"東區","LI":"小東里","LIN":"19鄰","STREET":"東興路","SECT":" ","MAREA":" ","LANE":"３１４巷","ALLEY":" ","HOUSE_NO":"１８號","E_COORD97":171104.67999999999,"N_COORD97":2544105.1200000001,"ADDRESS":"東興路３１４巷１８號","OBJECTID":363347},"geometry":{"x":171104.6799999997,"y":2544105.120000001}},{"attributes":{"ID":363358,"DIS_CODE":0,"TOWNNAME":"東區","LI":"小東里","LIN":"19鄰","STREET":"東興路","SECT":" ","MAREA":" ","LANE":"３１４巷","ALLEY":" ","HOUSE_NO":"１９號","E_COORD97":171085.54999999999,"N_COORD97":2544143.6000000001,"ADDRESS":"東興路３１４巷１９號","OBJECTID":363348},"geometry":{"x":171085.54999999981,"y":2544143.5999999996}},{"attributes":{"ID":363359,"DIS_CODE":0,"TOWNNAME":"南區","LI":"文南里","LIN":"13鄰","STREET":"育南街","SECT":" ","MAREA":" ","LANE":" ","ALLEY":" ","HOUSE_NO":"６７號","E_COORD97":166863.79000000001,"N_COORD97":2542723.1800000002,"ADDRESS":"育南街６７號","OBJECTID":363349},"geometry":{"x":166863.7900000019,"y":2542723.1799999997}},{"attributes":{"ID":363360,"DIS_CODE":0,"TOWNNAME":"南區","LI":"文南里","LIN":"13鄰","STREET":"永南街","SECT":" ","MAREA":" ","LANE":" ","ALLEY":" ","HOUSE_NO":"６６號","E_COORD97":166835.07000000001,"N_COORD97":2542721.9500000002,"ADDRESS":"永南街６６號","OBJECTID":363350},"geometry":{"x":166835.07000000216,"y":2542721.950000003}},{"attributes":{"ID":363361,"DIS_CODE":0,"TOWNNAME":"南區","LI":"文南里","LIN":"13鄰","STREET":"文南路","SECT":" ","MAREA":" ","LANE":" ","ALLEY":" ","HOUSE_NO":"５號","E_COORD97":166911.48000000001,"N_COORD97":2542541.8199999998,"ADDRESS":"文南路５號","OBJECTID":363351},"geometry":{"x":166911.48000000045,"y":2542541.8200000022}},{"attributes":{"ID":363362,"DIS_CODE":0,"TOWNNAME":"南區","LI":"文南里","LIN":"13鄰","STREET":"文南路","SECT":" ","MAREA":" ","LANE":" ","ALLEY":" ","HOUSE_NO":"７號","E_COORD97":166911.57000000001,"N_COORD97":2542546.1800000002,"ADDRESS":"文南路７號","OBJECTID":363352},"geometry":{"x":166911.57000000123,"y":2542546.1800000016}},{"attributes":{"ID":363363,"DIS_CODE":0,"TOWNNAME":"南區","LI":"文南里","LIN":"13鄰","STREET":"文南路","SECT":" ","MAREA":" ","LANE":" ","ALLEY":" ","HOUSE_NO":"９號","E_COORD97":166911.92999999999,"N_COORD97":2542550.3599999999,"ADDRESS":"文南路９號","OBJECTID":363353},"geometry":{"x":166911.93000000063,"y":2542550.3600000013}},{"attributes":{"ID":363364,"DIS_CODE":0,"TOWNNAME":"南區","LI":"文南里","LIN":"13鄰","STREET":"文南路","SECT":" ","MAREA":" ","LANE":" ","ALLEY":" ","HOUSE_NO":"５１號底層","E_COORD97":166915.34,"N_COORD97":2542637.1400000001,"ADDRESS":"文南路５１號底層","OBJECTID":363354},"geometry":{"x":166915.33999999985,"y":2542637.1400000043}},{"attributes":{"ID":363365,"DIS_CODE":0,"TOWNNAME":"南區","LI":"文南里","LIN":"13鄰","STREET":"文南路","SECT":" ","MAREA":" ","LANE":" ","ALLEY":" ","HOUSE_NO":"５１號","E_COORD97":166915.34,"N_COORD97":2542637.1400000001,"ADDRESS":"文南路５１號","OBJECTID":363355},"geometry":{"x":166915.33999999985,"y":2542637.1400000043}},{"attributes":{"ID":363366,"DIS_CODE":0,"TOWNNAME":"南區","LI":"文南里","LIN":"13鄰","STREET":"永南街","SECT":" ","MAREA":" ","LANE":" ","ALLEY":" ","HOUSE_NO":"８號","E_COORD97":166820.07000000001,"N_COORD97":2542542.1499999999,"ADDRESS":"永南街８號","OBJECTID":363356},"geometry":{"x":166820.07000000123,"y":2542542.1500000041}},{"attributes":{"ID":363367,"DIS_CODE":0,"TOWNNAME":"南區","LI":"文南里","LIN":"13鄰","STREET":"永南街","SECT":" ","MAREA":" ","LANE":" ","ALLEY":" ","HOUSE_NO":"１０號","E_COORD97":166820.07000000001,"N_COORD97":2542547.2200000002,"ADDRESS":"永南街１０號","OBJECTID":363357},"geometry":{"x":166820.07000000123,"y":2542547.2200000007}},{"attributes":{"ID":363368,"DIS_CODE":0,"TOWNNAME":"南區","LI":"文南里","LIN":"13鄰","STREET":"永南街","SECT":" ","MAREA":" ","LANE":" ","ALLEY":" ","HOUSE_NO":"１２號","E_COORD97":166820.26000000001,"N_COORD97":2542551.9300000002,"ADDRESS":"永南街１２號","OBJECTID":363358},"geometry":{"x":166820.26000000071,"y":2542551.9299999997}},{"attributes":{"ID":363369,"DIS_CODE":0,"TOWNNAME":"仁德區","LI":"仁義里","LIN":"46鄰","STREET":"仁義路","SECT":" ","MAREA":" ","LANE":"１２６巷","ALLEY":" ","HOUSE_NO":"４８號","E_COORD97":173676.32999999999,"N_COORD97":2540835.1499999999,"ADDRESS":"仁義路１２６巷４８號","OBJECTID":363359},"geometry":{"x":173676.32999999914,"y":2540835.1500000004}},{"attributes":{"ID":363370,"DIS_CODE":0,"TOWNNAME":"仁德區","LI":"仁義里","LIN":"46鄰","STREET":"仁義路","SECT":" ","MAREA":" ","LANE":"１２６巷","ALLEY":" ","HOUSE_NO":"２４號","E_COORD97":173679.38,"N_COORD97":2540889.6400000001,"ADDRESS":"仁義路１２６巷２４號","OBJECTID":363360},"geometry":{"x":173679.38000000175,"y":2540889.6400000006}},{"attributes":{"ID":363371,"DIS_CODE":0,"TOWNNAME":"仁德區","LI":"仁義里","LIN":"46鄰","STREET":"仁義路","SECT":" ","MAREA":" ","LANE":"９８巷","ALLEY":" ","HOUSE_NO":"５號","E_COORD97":173628.92000000001,"N_COORD97":2540933.52,"ADDRESS":"仁義路９８巷５號","OBJECTID":363361},"geometry":{"x":173628.92000000086,"y":2540933.5199999996}},{"attributes":{"ID":363372,"DIS_CODE":0,"TOWNNAME":"仁德區","LI":"仁義里","LIN":"46鄰","STREET":"仁義路","SECT":" ","MAREA":" ","LANE":"１２６巷","ALLEY":" ","HOUSE_NO":"２號","E_COORD97":173684.20000000001,"N_COORD97":2540943.8999999999,"ADDRESS":"仁義路１２６巷２號","OBJECTID":363362},"geometry":{"x":173684.20000000205,"y":2540943.9000000022}},{"attributes":{"ID":363373,"DIS_CODE":0,"TOWNNAME":"仁德區","LI":"仁義里","LIN":"46鄰","STREET":"仁義路","SECT":" ","MAREA":" ","LANE":"１２６巷","ALLEY":" ","HOUSE_NO":"３２號","E_COORD97":173678.32999999999,"N_COORD97":2540871.3900000001,"ADDRESS":"仁義路１２６巷３２號","OBJECTID":363363},"geometry":{"x":173678.33000000101,"y":2540871.3900000006}},{"attributes":{"ID":363374,"DIS_CODE":0,"TOWNNAME":"仁德區","LI":"仁義里","LIN":"46鄰","STREET":"仁義路","SECT":" ","MAREA":" ","LANE":"９８巷","ALLEY":" ","HOUSE_NO":"７號","E_COORD97":173629.20000000001,"N_COORD97":2540929.52,"ADDRESS":"仁義路９８巷７號","OBJECTID":363364},"geometry":{"x":173629.20000000019,"y":2540929.5200000014}},{"attributes":{"ID":363375,"DIS_CODE":0,"TOWNNAME":"仁德區","LI":"仁義里","LIN":"46鄰","STREET":"仁義路","SECT":" ","MAREA":" ","LANE":"９８巷","ALLEY":" ","HOUSE_NO":"３９號","E_COORD97":173626.37,"N_COORD97":2540838.77,"ADDRESS":"仁義路９８巷３９號","OBJECTID":363365},"geometry":{"x":173626.37000000011,"y":2540838.7700000014}},{"attributes":{"ID":363376,"DIS_CODE":0,"TOWNNAME":"仁德區","LI":"仁義里","LIN":"46鄰","STREET":"仁義路","SECT":" ","MAREA":" ","LANE":"１２６巷","ALLEY":" ","HOUSE_NO":"２０號","E_COORD97":173679.82999999999,"N_COORD97":2540898.6400000001,"ADDRESS":"仁義路１２６巷２０號","OBJECTID":363366},"geometry":{"x":173679.83000000194,"y":2540898.6400000025}},{"attributes":{"ID":363377,"DIS_CODE":0,"TOWNNAME":"仁德區","LI":"太子里","LIN":"46鄰","STREET":"太子一街","SECT":" ","MAREA":" ","LANE":"４３巷","ALLEY":" ","HOUSE_NO":"３４號","E_COORD97":174836.29000000001,"N_COORD97":2543289.75,"ADDRESS":"太子一街４３巷３４號","OBJECTID":363367},"geometry":{"x":174836.2900000019,"y":2543289.75}},{"attributes":{"ID":363378,"DIS_CODE":0,"TOWNNAME":"仁德區","LI":"太子里","LIN":"46鄰","STREET":"太子一街","SECT":" ","MAREA":" ","LANE":"４３巷","ALLEY":" ","HOUSE_NO":"１１之１號","E_COORD97":174839.57000000001,"N_COORD97":2543306.5499999998,"ADDRESS":"太子一街４３巷１１之１號","OBJECTID":363368},"geometry":{"x":174839.56999999937,"y":2543306.5500000026}},{"attributes":{"ID":363379,"DIS_CODE":0,"TOWNNAME":"仁德區","LI":"仁義里","LIN":"46鄰","STREET":"仁義路","SECT":" ","MAREA":" ","LANE":"９８巷","ALLEY":" ","HOUSE_NO":"４７號","E_COORD97":173621.81,"N_COORD97":2540813.52,"ADDRESS":"仁義路９８巷４７號","OBJECTID":363369},"geometry":{"x":173621.81000000145,"y":2540813.5200000014}},{"attributes":{"ID":363380,"DIS_CODE":0,"TOWNNAME":"永康區","LI":"二王里","LIN":"46鄰","STREET":"南工街","SECT":" ","MAREA":" ","LANE":"２１４巷","ALLEY":" ","HOUSE_NO":"２８號","E_COORD97":172051.34,"N_COORD97":2546033,"ADDRESS":"南工街２１４巷２８號","OBJECTID":363370},"geometry":{"x":172051.33999999985,"y":2546033.0000000019}},{"attributes":{"ID":363381,"DIS_CODE":0,"TOWNNAME":"永康區","LI":"二王里","LIN":"46鄰","STREET":"南工街","SECT":" ","MAREA":" ","LANE":"２１４巷","ALLEY":" ","HOUSE_NO":"１８號","E_COORD97":172048.28,"N_COORD97":2546006.75,"ADDRESS":"南工街２１４巷１８號","OBJECTID":363371},"geometry":{"x":172048.28000000119,"y":2546006.7500000019}},{"attributes":{"ID":363382,"DIS_CODE":0,"TOWNNAME":"永康區","LI":"二王里","LIN":"46鄰","STREET":"南工街","SECT":" ","MAREA":" ","LANE":"２１４巷","ALLEY":" ","HOUSE_NO":"６號","E_COORD97":172043.26000000001,"N_COORD97":2545975.98,"ADDRESS":"南工街２１４巷６號","OBJECTID":363372},"geometry":{"x":172043.26000000071,"y":2545975.9800000023}},{"attributes":{"ID":363383,"DIS_CODE":0,"TOWNNAME":"永康區","LI":"二王里","LIN":"46鄰","STREET":"南工街","SECT":" ","MAREA":" ","LANE":"２１４巷","ALLEY":" ","HOUSE_NO":"２０號","E_COORD97":172048.70000000001,"N_COORD97":2546011.25,"ADDRESS":"南工街２１４巷２０號","OBJECTID":363373},"geometry":{"x":172048.70000000112,"y":2546011.25}},{"attributes":{"ID":363384,"DIS_CODE":0,"TOWNNAME":"東區","LI":"復國里","LIN":"19鄰","STREET":"中華東路","SECT":"一段","MAREA":" ","LANE":" ","ALLEY":" ","HOUSE_NO":"９１號","E_COORD97":171492.29999999999,"N_COORD97":2543691.3199999998,"ADDRESS":"中華東路一段９１號","OBJECTID":363374},"geometry":{"x":171492.29999999981,"y":2543691.3200000022}},{"attributes":{"ID":363385,"DIS_CODE":0,"TOWNNAME":"安南區","LI":"溪北里","LIN":"19鄰","STREET":"郡安路","SECT":"四段","MAREA":" ","LANE":" ","ALLEY":" ","HOUSE_NO":"７６號","E_COORD97":169098.07999999999,"N_COORD97":2547593.71,"ADDRESS":"郡安路四段７６號","OBJECTID":363375},"geometry":{"x":169098.08000000101,"y":2547593.7100000046}},{"attributes":{"ID":363386,"DIS_CODE":0,"TOWNNAME":"安南區","LI":"新順里","LIN":"19鄰","STREET":"培安二街","SECT":" ","MAREA":" ","LANE":" ","ALLEY":" ","HOUSE_NO":"１３號","E_COORD97":169382.39999999999,"N_COORD97":2549664.1200000001,"ADDRESS":"培安二街１３號","OBJECTID":363376},"geometry":{"x":169382.40000000224,"y":2549664.1200000029}},{"attributes":{"ID":363387,"DIS_CODE":0,"TOWNNAME":"東區","LI":"成大里","LIN":"19鄰","STREET":"勝利路","SECT":" ","MAREA":" ","LANE":" ","ALLEY":" ","HOUSE_NO":"１１５號四樓之４","E_COORD97":169820.38,"N_COORD97":2543885.6099999999,"ADDRESS":"勝利路１１５號四樓之４","OBJECTID":363377},"geometry":{"x":169820.37999999989,"y":2543885.6099999994}},{"attributes":{"ID":363388,"DIS_CODE":0,"TOWNNAME":"安平區","LI":"億載里","LIN":"8鄰","STREET":"永華路","SECT":"二段","MAREA":" ","LANE":" ","ALLEY":" ","HOUSE_NO":"１２４５之１號","E_COORD97":163956.01999999999,"N_COORD97":2543580.23,"ADDRESS":"永華路二段１２４５之１號","OBJECTID":363378},"geometry":{"x":163956.02000000142,"y":2543580.2300000023}},{"attributes":{"ID":363389,"DIS_CODE":0,"TOWNNAME":"安平區","LI":"怡平里","LIN":"4鄰","STREET":"建平十七街","SECT":" ","MAREA":" ","LANE":" ","ALLEY":" ","HOUSE_NO":"２３１號四樓之４","E_COORD97":165551.87,"N_COORD97":2544199.1600000001,"ADDRESS":"建平十七街２３１號四樓之４","OBJECTID":363379},"geometry":{"x":165551.87000000104,"y":2544199.1600000001}},{"attributes":{"ID":363390,"DIS_CODE":0,"TOWNNAME":"中西區","LI":"水仙里","LIN":"4鄰","STREET":"西門路","SECT":"二段","MAREA":" ","LANE":" ","ALLEY":" ","HOUSE_NO":"２４５號","E_COORD97":167915.10999999999,"N_COORD97":2544009.8100000001,"ADDRESS":"西門路二段２４５號","OBJECTID":363380},"geometry":{"x":167915.11000000127,"y":2544009.8100000024}},{"attributes":{"ID":363391,"DIS_CODE":0,"TOWNNAME":"中西區","LI":"水仙里","LIN":"4鄰","STREET":"西門路","SECT":"二段","MAREA":" ","LANE":" ","ALLEY":" ","HOUSE_NO":"２５３號","E_COORD97":167918.20000000001,"N_COORD97":2544026.7599999998,"ADDRESS":"西門路二段２５３號","OBJECTID":363381},"geometry":{"x":167918.20000000019,"y":2544026.7600000016}},{"attributes":{"ID":363392,"DIS_CODE":0,"TOWNNAME":"安平區","LI":"平安里","LIN":"4鄰","STREET":"安平路","SECT":" ","MAREA":" ","LANE":" ","ALLEY":" ","HOUSE_NO":"１３０號","E_COORD97":166262.85000000001,"N_COORD97":2544341.54,"ADDRESS":"安平路１３０號","OBJECTID":363382},"geometry":{"x":166262.85000000149,"y":2544341.5399999972}},{"attributes":{"ID":363393,"DIS_CODE":0,"TOWNNAME":"安平區","LI":"平安里","LIN":"4鄰","STREET":"安平路","SECT":" ","MAREA":" ","LANE":" ","ALLEY":" ","HOUSE_NO":"１３２號","E_COORD97":166257.26000000001,"N_COORD97":2544341.54,"ADDRESS":"安平路１３２號","OBJECTID":363383},"geometry":{"x":166257.26000000071,"y":2544341.5399999972}},{"attributes":{"ID":363394,"DIS_CODE":0,"TOWNNAME":"安平區","LI":"平安里","LIN":"4鄰","STREET":"安平路","SECT":" ","MAREA":" ","LANE":" ","ALLEY":" ","HOUSE_NO":"１３６號","E_COORD97":166246.35999999999,"N_COORD97":2544342.4199999999,"ADDRESS":"安平路１３６號","OBJECTID":363384},"geometry":{"x":166246.3599999994,"y":2544342.4199999999}},{"attributes":{"ID":363395,"DIS_CODE":0,"TOWNNAME":"安平區","LI":"平安里","LIN":"4鄰","STREET":"安平路","SECT":" ","MAREA":" ","LANE":" ","ALLEY":" ","HOUSE_NO":"１４０號","E_COORD97":166230.45999999999,"N_COORD97":2544345.0699999998,"ADDRESS":"安平路１４０號","OBJECTID":363385},"geometry":{"x":166230.46000000089,"y":2544345.0700000003}},{"attributes":{"ID":363396,"DIS_CODE":0,"TOWNNAME":"安平區","LI":"平安里","LIN":"4鄰","STREET":"安平路","SECT":" ","MAREA":" ","LANE":" ","ALLEY":" ","HOUSE_NO":"１５６號","E_COORD97":166187.17999999999,"N_COORD97":2544349.1800000002,"ADDRESS":"安平路１５６號","OBJECTID":363386},"geometry":{"x":166187.1799999997,"y":2544349.1800000016}},{"attributes":{"ID":363397,"DIS_CODE":0,"TOWNNAME":"安平區","LI":"平安里","LIN":"4鄰","STREET":"安平路","SECT":" ","MAREA":" ","LANE":" ","ALLEY":" ","HOUSE_NO":"１４８號","E_COORD97":166207.20000000001,"N_COORD97":2544346.8199999998,"ADDRESS":"安平路１４８號","OBJECTID":363387},"geometry":{"x":166207.20000000112,"y":2544346.8200000003}},{"attributes":{"ID":363398,"DIS_CODE":0,"TOWNNAME":"安平區","LI":"平安里","LIN":"4鄰","STREET":"安平路","SECT":" ","MAREA":" ","LANE":" ","ALLEY":" ","HOUSE_NO":"１６４號","E_COORD97":166170.69,"N_COORD97":2544350.6499999999,"ADDRESS":"安平路１６４號","OBJECTID":363388},"geometry":{"x":166170.69000000041,"y":2544350.6500000022}},{"attributes":{"ID":363399,"DIS_CODE":0,"TOWNNAME":"永康區","LI":"正強里","LIN":"46鄰","STREET":"中正路","SECT":" ","MAREA":" ","LANE":"２５６巷","ALLEY":" ","HOUSE_NO":"９號之３６","E_COORD97":173207.16,"N_COORD97":2547991.8799999999,"ADDRESS":"中正路２５６巷９號之３６","OBJECTID":363389},"geometry":{"x":173207.16000000108,"y":2547991.8800000008}},{"attributes":{"ID":363400,"DIS_CODE":0,"TOWNNAME":"永康區","LI":"正強里","LIN":"46鄰","STREET":"中正路","SECT":" ","MAREA":" ","LANE":"２５６巷","ALLEY":" ","HOUSE_NO":"９號之５０","E_COORD97":173207.10999999999,"N_COORD97":2547991.8799999999,"ADDRESS":"中正路２５６巷９號之５０","OBJECTID":363390},"geometry":{"x":173207.11000000127,"y":2547991.8800000008}},{"attributes":{"ID":363401,"DIS_CODE":0,"TOWNNAME":"永康區","LI":"正強里","LIN":"46鄰","STREET":"中正路","SECT":" ","MAREA":" ","LANE":"２５６巷","ALLEY":" ","HOUSE_NO":"９號之４１","E_COORD97":173207.06,"N_COORD97":2547991.8799999999,"ADDRESS":"中正路２５６巷９號之４１","OBJECTID":363391},"geometry":{"x":173207.06000000052,"y":2547991.8800000008}},{"attributes":{"ID":363402,"DIS_CODE":0,"TOWNNAME":"新市區","LI":"新和里","LIN":"46鄰","STREET":"和平街","SECT":" ","MAREA":" ","LANE":"２１２巷","ALLEY":" ","HOUSE_NO":"８號","E_COORD97":177344.09,"N_COORD97":2553245.75,"ADDRESS":"和平街２１２巷８號","OBJECTID":363392},"geometry":{"x":177344.08999999985,"y":2553245.7500000019}},{"attributes":{"ID":363403,"DIS_CODE":0,"TOWNNAME":"東區","LI":"小東里","LIN":"19鄰","STREET":"東興路","SECT":" ","MAREA":" ","LANE":"３１４巷","ALLEY":" ","HOUSE_NO":"１號","E_COORD97":171084.45000000001,"N_COORD97":2544103.9900000002,"ADDRESS":"東興路３１４巷１號","OBJECTID":363393},"geometry":{"x":171084.45000000112,"y":2544103.9900000021}},{"attributes":{"ID":363404,"DIS_CODE":0,"TOWNNAME":"東區","LI":"小東里","LIN":"19鄰","STREET":"東興路","SECT":" ","MAREA":" ","LANE":"３１４巷","ALLEY":" ","HOUSE_NO":"２０號","E_COORD97":171104.67999999999,"N_COORD97":2544109.6600000001,"ADDRESS":"東興路３１４巷２０號","OBJECTID":363394},"geometry":{"x":171104.6799999997,"y":2544109.660000002}},{"attributes":{"ID":363405,"DIS_CODE":0,"TOWNNAME":"東區","LI":"小東里","LIN":"19鄰","STREET":"東興路","SECT":" ","MAREA":" ","LANE":"３１４巷","ALLEY":" ","HOUSE_NO":"２１號","E_COORD97":171085.54999999999,"N_COORD97":2544149.2400000002,"ADDRESS":"東興路３１４巷２１號","OBJECTID":363395},"geometry":{"x":171085.54999999981,"y":2544149.2400000021}},{"attributes":{"ID":363406,"DIS_CODE":0,"TOWNNAME":"東區","LI":"小東里","LIN":"19鄰","STREET":"東興路","SECT":" ","MAREA":" ","LANE":"３１４巷","ALLEY":" ","HOUSE_NO":"２２號","E_COORD97":171104.20999999999,"N_COORD97":2544114.52,"ADDRESS":"東興路３１４巷２２號","OBJECTID":363396},"geometry":{"x":171104.21000000089,"y":2544114.5199999996}},{"attributes":{"ID":363407,"DIS_CODE":0,"TOWNNAME":"東區","LI":"小東里","LIN":"19鄰","STREET":"東興路","SECT":" ","MAREA":" ","LANE":"３１４巷","ALLEY":" ","HOUSE_NO":"２３號","E_COORD97":171084.76999999999,"N_COORD97":2544153.1099999999,"ADDRESS":"東興路３１４巷２３號","OBJECTID":363397},"geometry":{"x":171084.77000000048,"y":2544153.1100000013}},{"attributes":{"ID":363408,"DIS_CODE":0,"TOWNNAME":"東區","LI":"小東里","LIN":"19鄰","STREET":"東興路","SECT":" ","MAREA":" ","LANE":"３１４巷","ALLEY":" ","HOUSE_NO":"２４號","E_COORD97":171103.73999999999,"N_COORD97":2544118.4300000002,"ADDRESS":"東興路３１４巷２４號","OBJECTID":363398},"geometry":{"x":171103.74000000022,"y":2544118.4299999997}},{"attributes":{"ID":363409,"DIS_CODE":0,"TOWNNAME":"東區","LI":"小東里","LIN":"19鄰","STREET":"東興路","SECT":" ","MAREA":" ","LANE":"３１４巷","ALLEY":" ","HOUSE_NO":"２５號","E_COORD97":171084.76999999999,"N_COORD97":2544157.8100000001,"ADDRESS":"東興路３１４巷２５號","OBJECTID":363399},"geometry":{"x":171084.77000000048,"y":2544157.8100000005}},{"attributes":{"ID":363410,"DIS_CODE":0,"TOWNNAME":"東區","LI":"小東里","LIN":"19鄰","STREET":"東興路","SECT":" ","MAREA":" ","LANE":"３４４巷","ALLEY":" ","HOUSE_NO":"１號","E_COORD97":171064.23000000001,"N_COORD97":2544177.1000000001,"ADDRESS":"東興路３４４巷１號","OBJECTID":363400},"geometry":{"x":171064.23000000138,"y":2544177.1000000015}}]}