{"displayFieldName":"TOWNNAME","fieldAliases":{"ID":"ID","DIS_CODE":"DIS_CODE","TOWNNAME":"TOWNNAME","LI":"LI","LIN":"LIN","STREET":"STREET","SECT":"SECT","MAREA":"MAREA","LANE":"LANE","ALLEY":"ALLEY","HOUSE_NO":"HOUSE_NO","E_COORD97":"E_COORD97","N_COORD97":"N_COORD97","ADDRESS":"ADDRESS","OBJECTID":"OBJECTID"},"geometryType":"esriGeometryPoint","spatialReference":{"wkid":102443,"latestWkid":3826},"fields":[{"name":"ID","type":"esriFieldTypeDouble","alias":"ID"},{"name":"DIS_CODE","type":"esriFieldTypeInteger","alias":"DIS_CODE"},{"name":"TOWNNAME","type":"esriFieldTypeString","alias":"TOWNNAME","length":8},{"name":"LI","type":"esriFieldTypeString","alias":"LI","length":8},{"name":"LIN","type":"esriFieldTypeString","alias":"LIN","length":12},{"name":"STREET","type":"esriFieldTypeString","alias":"STREET","length":20},{"name":"SECT","type":"esriFieldTypeString","alias":"SECT","length":8},{"name":"MAREA","type":"esriFieldTypeString","alias":"MAREA","length":12},{"name":"LANE","type":"esriFieldTypeString","alias":"LANE","length":10},{"name":"ALLEY","type":"esriFieldTypeString","alias":"ALLEY","length":10},{"name":"HOUSE_NO","type":"esriFieldTypeString","alias":"HOUSE_NO","length":20},{"name":"E_COORD97","type":"esriFieldTypeDouble","alias":"E_COORD97"},{"name":"N_COORD97","type":"esriFieldTypeDouble","alias":"N_COORD97"},{"name":"ADDRESS","type":"esriFieldTypeString","alias":"ADDRESS","length":50},{"name":"OBJECTID","type":"esriFieldTypeOID","alias":"OBJECTID"}],"features":[{"attributes":{"ID":373611,"DIS_CODE":0,"TOWNNAME":"東區","LI":"關聖里","LIN":"10鄰","STREET":"裕農路","SECT":" ","MAREA":" ","LANE":"７２６巷","ALLEY":" ","HOUSE_NO":"６９號","E_COORD97":171885.94,"N_COORD97":2542949.1000000001,"ADDRESS":"裕農路７２６巷６９號","OBJECTID":373601},"geometry":{"x":171885.94000000227,"y":2542949.1000000015}},{"attributes":{"ID":373612,"DIS_CODE":0,"TOWNNAME":"東區","LI":"關聖里","LIN":"10鄰","STREET":"裕農路","SECT":" ","MAREA":" ","LANE":"７２６巷","ALLEY":" ","HOUSE_NO":"７５號","E_COORD97":171898.76999999999,"N_COORD97":2542951.8599999999,"ADDRESS":"裕農路７２６巷７５號","OBJECTID":373602},"geometry":{"x":171898.77000000048,"y":2542951.8599999994}},{"attributes":{"ID":373613,"DIS_CODE":0,"TOWNNAME":"東區","LI":"關聖里","LIN":"10鄰","STREET":"裕農路","SECT":" ","MAREA":" ","LANE":"７２６巷","ALLEY":" ","HOUSE_NO":"７７號","E_COORD97":171899.26000000001,"N_COORD97":2542923.9399999999,"ADDRESS":"裕農路７２６巷７７號","OBJECTID":373603},"geometry":{"x":171899.25999999978,"y":2542923.9399999995}},{"attributes":{"ID":373614,"DIS_CODE":0,"TOWNNAME":"東區","LI":"關聖里","LIN":"10鄰","STREET":"裕農路","SECT":" ","MAREA":" ","LANE":"７２６巷","ALLEY":" ","HOUSE_NO":"７９號","E_COORD97":171894.38,"N_COORD97":2542926.8599999999,"ADDRESS":"裕農路７２６巷７９號","OBJECTID":373604},"geometry":{"x":171894.38000000175,"y":2542926.8600000013}},{"attributes":{"ID":373615,"DIS_CODE":0,"TOWNNAME":"東區","LI":"關聖里","LIN":"10鄰","STREET":"裕農路","SECT":" ","MAREA":" ","LANE":"７２６巷","ALLEY":" ","HOUSE_NO":"８１號","E_COORD97":171889.51000000001,"N_COORD97":2542924.4300000002,"ADDRESS":"裕農路７２６巷８１號","OBJECTID":373605},"geometry":{"x":171889.50999999978,"y":2542924.4299999997}},{"attributes":{"ID":373616,"DIS_CODE":0,"TOWNNAME":"東區","LI":"關聖里","LIN":"10鄰","STREET":"裕農路","SECT":" ","MAREA":" ","LANE":"７２６巷","ALLEY":" ","HOUSE_NO":"８３號","E_COORD97":171885.45000000001,"N_COORD97":2542926.3799999999,"ADDRESS":"裕農路７２６巷８３號","OBJECTID":373606},"geometry":{"x":171885.45000000019,"y":2542926.3800000008}},{"attributes":{"ID":373617,"DIS_CODE":0,"TOWNNAME":"東區","LI":"關聖里","LIN":"10鄰","STREET":"裕農路","SECT":" ","MAREA":" ","LANE":"７２６巷","ALLEY":" ","HOUSE_NO":"８５號","E_COORD97":171891.14000000001,"N_COORD97":2542916.6400000001,"ADDRESS":"裕農路７２６巷８５號","OBJECTID":373607},"geometry":{"x":171891.1400000006,"y":2542916.6400000025}},{"attributes":{"ID":373618,"DIS_CODE":0,"TOWNNAME":"東區","LI":"關聖里","LIN":"10鄰","STREET":"裕農路","SECT":" ","MAREA":" ","LANE":"７２６巷","ALLEY":" ","HOUSE_NO":"８７號","E_COORD97":171890.64999999999,"N_COORD97":2542912.0899999999,"ADDRESS":"裕農路７２６巷８７號","OBJECTID":373608},"geometry":{"x":171890.65000000037,"y":2542912.0900000017}},{"attributes":{"ID":373619,"DIS_CODE":0,"TOWNNAME":"東區","LI":"關聖里","LIN":"10鄰","STREET":"裕農路","SECT":" ","MAREA":" ","LANE":"７２６巷","ALLEY":" ","HOUSE_NO":"２５號","E_COORD97":171893.03,"N_COORD97":2543048.8500000001,"ADDRESS":"裕農路７２６巷２５號","OBJECTID":373609},"geometry":{"x":171893.03000000026,"y":2543048.8500000015}},{"attributes":{"ID":373620,"DIS_CODE":0,"TOWNNAME":"東區","LI":"關聖里","LIN":"10鄰","STREET":"裕農路","SECT":" ","MAREA":" ","LANE":"７２６巷","ALLEY":" ","HOUSE_NO":"２７號","E_COORD97":171892.62,"N_COORD97":2543043.5499999998,"ADDRESS":"裕農路７２６巷２７號","OBJECTID":373610},"geometry":{"x":171892.62000000011,"y":2543043.5500000007}},{"attributes":{"ID":373621,"DIS_CODE":0,"TOWNNAME":"東區","LI":"關聖里","LIN":"10鄰","STREET":"裕農路","SECT":" ","MAREA":" ","LANE":"７２６巷","ALLEY":" ","HOUSE_NO":"２９號","E_COORD97":171892.22,"N_COORD97":2543037.4300000002,"ADDRESS":"裕農路７２６巷２９號","OBJECTID":373611},"geometry":{"x":171892.22000000067,"y":2543037.4299999997}},{"attributes":{"ID":373622,"DIS_CODE":0,"TOWNNAME":"東區","LI":"關聖里","LIN":"10鄰","STREET":"裕農路","SECT":" ","MAREA":" ","LANE":"７２６巷","ALLEY":" ","HOUSE_NO":"３１號","E_COORD97":171892.53,"N_COORD97":2543032.2200000002,"ADDRESS":"裕農路７２６巷３１號","OBJECTID":373612},"geometry":{"x":171892.53000000119,"y":2543032.2200000007}},{"attributes":{"ID":373623,"DIS_CODE":0,"TOWNNAME":"東區","LI":"關聖里","LIN":"10鄰","STREET":"裕農路","SECT":" ","MAREA":" ","LANE":"７２６巷","ALLEY":" ","HOUSE_NO":"３３號","E_COORD97":171892.53,"N_COORD97":2543028.1200000001,"ADDRESS":"裕農路７２６巷３３號","OBJECTID":373613},"geometry":{"x":171892.53000000119,"y":2543028.1200000029}},{"attributes":{"ID":373624,"DIS_CODE":0,"TOWNNAME":"東區","LI":"崇德里","LIN":"10鄰","STREET":"崇德八街","SECT":" ","MAREA":" ","LANE":"４６巷","ALLEY":" ","HOUSE_NO":"５７號","E_COORD97":170966.13,"N_COORD97":2541493.9900000002,"ADDRESS":"崇德八街４６巷５７號","OBJECTID":373614},"geometry":{"x":170966.13000000082,"y":2541493.9900000002}},{"attributes":{"ID":373625,"DIS_CODE":0,"TOWNNAME":"東區","LI":"富強里","LIN":"10鄰","STREET":"中華東路","SECT":"二段","MAREA":" ","LANE":"２２６巷","ALLEY":" ","HOUSE_NO":"４２號","E_COORD97":171111.57999999999,"N_COORD97":2542660.1299999999,"ADDRESS":"中華東路二段２２６巷４２號","OBJECTID":373615},"geometry":{"x":171111.58000000194,"y":2542660.1300000008}},{"attributes":{"ID":373626,"DIS_CODE":0,"TOWNNAME":"東區","LI":"富強里","LIN":"10鄰","STREET":"中華東路","SECT":"二段","MAREA":" ","LANE":"２２６巷","ALLEY":" ","HOUSE_NO":"４６號","E_COORD97":171110.76000000001,"N_COORD97":2542668.29,"ADDRESS":"中華東路二段２２６巷４６號","OBJECTID":373616},"geometry":{"x":171110.76000000071,"y":2542668.2899999991}},{"attributes":{"ID":373627,"DIS_CODE":0,"TOWNNAME":"東區","LI":"崇德里","LIN":"10鄰","STREET":"崇德八街","SECT":" ","MAREA":" ","LANE":"４６巷","ALLEY":" ","HOUSE_NO":"４９號","E_COORD97":170960.32000000001,"N_COORD97":2541510.0499999998,"ADDRESS":"崇德八街４６巷４９號","OBJECTID":373617},"geometry":{"x":170960.3200000003,"y":2541510.0500000026}},{"attributes":{"ID":373628,"DIS_CODE":0,"TOWNNAME":"仁德區","LI":"後壁里","LIN":"10鄰","STREET":"民安路","SECT":"二段","MAREA":" ","LANE":"１８２巷","ALLEY":" ","HOUSE_NO":"３８號","E_COORD97":173718.26000000001,"N_COORD97":2538840.5600000001,"ADDRESS":"民安路二段１８２巷３８號","OBJECTID":373618},"geometry":{"x":173718.25999999978,"y":2538840.5600000042}},{"attributes":{"ID":373629,"DIS_CODE":0,"TOWNNAME":"永康區","LI":"復國里","LIN":"10鄰","STREET":"復國一路","SECT":" ","MAREA":" ","LANE":"２５０巷","ALLEY":" ","HOUSE_NO":"１３號","E_COORD97":172791.28,"N_COORD97":2545349.8700000001,"ADDRESS":"復國一路２５０巷１３號","OBJECTID":373619},"geometry":{"x":172791.28000000026,"y":2545349.8700000029}},{"attributes":{"ID":373630,"DIS_CODE":0,"TOWNNAME":"永康區","LI":"復國里","LIN":"10鄰","STREET":"復國一路","SECT":" ","MAREA":" ","LANE":"２５０巷","ALLEY":" ","HOUSE_NO":"１５號","E_COORD97":172794.26999999999,"N_COORD97":2545349.52,"ADDRESS":"復國一路２５０巷１５號","OBJECTID":373620},"geometry":{"x":172794.26999999955,"y":2545349.5200000033}},{"attributes":{"ID":373631,"DIS_CODE":0,"TOWNNAME":"永康區","LI":"復國里","LIN":"10鄰","STREET":"復國一路","SECT":" ","MAREA":" ","LANE":"２５０巷","ALLEY":" ","HOUSE_NO":"１７號","E_COORD97":172797.76999999999,"N_COORD97":2545349.27,"ADDRESS":"復國一路２５０巷１７號","OBJECTID":373621},"geometry":{"x":172797.76999999955,"y":2545349.2700000014}},{"attributes":{"ID":373632,"DIS_CODE":0,"TOWNNAME":"永康區","LI":"復國里","LIN":"10鄰","STREET":"復國一路","SECT":" ","MAREA":" ","LANE":"２５０巷","ALLEY":" ","HOUSE_NO":"１９號","E_COORD97":172800.76999999999,"N_COORD97":2545348.9399999999,"ADDRESS":"復國一路２５０巷１９號","OBJECTID":373622},"geometry":{"x":172800.76999999955,"y":2545348.9399999995}},{"attributes":{"ID":373633,"DIS_CODE":0,"TOWNNAME":"永康區","LI":"復國里","LIN":"10鄰","STREET":"復國一路","SECT":" ","MAREA":" ","LANE":"２５０巷","ALLEY":" ","HOUSE_NO":"５號","E_COORD97":172779.34,"N_COORD97":2545349.04,"ADDRESS":"復國一路２５０巷５號","OBJECTID":373623},"geometry":{"x":172779.34000000171,"y":2545349.040000001}},{"attributes":{"ID":373634,"DIS_CODE":0,"TOWNNAME":"永康區","LI":"復國里","LIN":"10鄰","STREET":"復國一路","SECT":" ","MAREA":" ","LANE":"２５０巷","ALLEY":" ","HOUSE_NO":"７號","E_COORD97":172781.95000000001,"N_COORD97":2545348.7799999998,"ADDRESS":"復國一路２５０巷７號","OBJECTID":373624},"geometry":{"x":172781.95000000019,"y":2545348.7800000012}},{"attributes":{"ID":373635,"DIS_CODE":0,"TOWNNAME":"永康區","LI":"復國里","LIN":"10鄰","STREET":"復國一路","SECT":" ","MAREA":" ","LANE":"２５０巷","ALLEY":" ","HOUSE_NO":"９號","E_COORD97":172784.06,"N_COORD97":2545348.8300000001,"ADDRESS":"復國一路２５０巷９號","OBJECTID":373625},"geometry":{"x":172784.05999999959,"y":2545348.8300000019}},{"attributes":{"ID":373636,"DIS_CODE":0,"TOWNNAME":"永康區","LI":"西勢里","LIN":"10鄰","STREET":"廣盛街","SECT":" ","MAREA":" ","LANE":"１５３巷","ALLEY":" ","HOUSE_NO":"１６號","E_COORD97":176041.57999999999,"N_COORD97":2546661.23,"ADDRESS":"廣盛街１５３巷１６號","OBJECTID":373626},"geometry":{"x":176041.58000000101,"y":2546661.2300000023}},{"attributes":{"ID":373637,"DIS_CODE":0,"TOWNNAME":"永康區","LI":"西勢里","LIN":"10鄰","STREET":"廣盛街","SECT":" ","MAREA":" ","LANE":"１５３巷","ALLEY":" ","HOUSE_NO":"１８號","E_COORD97":176041.98000000001,"N_COORD97":2546657.9199999999,"ADDRESS":"廣盛街１５３巷１８號","OBJECTID":373627},"geometry":{"x":176041.98000000045,"y":2546657.9199999999}},{"attributes":{"ID":373638,"DIS_CODE":0,"TOWNNAME":"永康區","LI":"西勢里","LIN":"10鄰","STREET":"廣興街","SECT":" ","MAREA":" ","LANE":"９５巷","ALLEY":" ","HOUSE_NO":"３２號","E_COORD97":176020.14999999999,"N_COORD97":2546659.9399999999,"ADDRESS":"廣興街９５巷３２號","OBJECTID":373628},"geometry":{"x":176020.15000000037,"y":2546659.9400000013}},{"attributes":{"ID":373639,"DIS_CODE":0,"TOWNNAME":"永康區","LI":"西勢里","LIN":"10鄰","STREET":"廣興街","SECT":" ","MAREA":" ","LANE":"９５巷","ALLEY":" ","HOUSE_NO":"３６號","E_COORD97":176020.48999999999,"N_COORD97":2546657.0800000001,"ADDRESS":"廣興街９５巷３６號","OBJECTID":373629},"geometry":{"x":176020.49000000115,"y":2546657.0800000001}},{"attributes":{"ID":373640,"DIS_CODE":0,"TOWNNAME":"永康區","LI":"西勢里","LIN":"10鄰","STREET":"廣興街","SECT":" ","MAREA":" ","LANE":"９５巷","ALLEY":" ","HOUSE_NO":"３８號","E_COORD97":176020.89000000001,"N_COORD97":2546654.3799999999,"ADDRESS":"廣興街９５巷３８號","OBJECTID":373630},"geometry":{"x":176020.88999999966,"y":2546654.379999999}},{"attributes":{"ID":373641,"DIS_CODE":0,"TOWNNAME":"永康區","LI":"西勢里","LIN":"10鄰","STREET":"廣興街","SECT":" ","MAREA":" ","LANE":"９５巷","ALLEY":" ","HOUSE_NO":"５７號","E_COORD97":176009.41,"N_COORD97":2546728.6800000002,"ADDRESS":"廣興街９５巷５７號","OBJECTID":373631},"geometry":{"x":176009.41000000015,"y":2546728.6800000016}},{"attributes":{"ID":373642,"DIS_CODE":0,"TOWNNAME":"永康區","LI":"六合里","LIN":"10鄰","STREET":"中華路","SECT":" ","MAREA":" ","LANE":"４８５巷","ALLEY":" ","HOUSE_NO":"１１號","E_COORD97":171241.42999999999,"N_COORD97":2545739.4900000002,"ADDRESS":"中華路４８５巷１１號","OBJECTID":373632},"geometry":{"x":171241.43000000063,"y":2545739.4900000002}},{"attributes":{"ID":373643,"DIS_CODE":0,"TOWNNAME":"永康區","LI":"六合里","LIN":"10鄰","STREET":"中華路","SECT":" ","MAREA":" ","LANE":"４８５巷","ALLEY":" ","HOUSE_NO":"１２號","E_COORD97":171207.64000000001,"N_COORD97":2545754.2400000002,"ADDRESS":"中華路４８５巷１２號","OBJECTID":373633},"geometry":{"x":171207.6400000006,"y":2545754.2400000002}},{"attributes":{"ID":373644,"DIS_CODE":0,"TOWNNAME":"永康區","LI":"六合里","LIN":"10鄰","STREET":"中華路","SECT":" ","MAREA":" ","LANE":"４８５巷","ALLEY":" ","HOUSE_NO":"１３號","E_COORD97":171242.17999999999,"N_COORD97":2545733.7400000002,"ADDRESS":"中華路４８５巷１３號","OBJECTID":373634},"geometry":{"x":171242.1799999997,"y":2545733.7400000002}},{"attributes":{"ID":373645,"DIS_CODE":0,"TOWNNAME":"南區","LI":"大忠里","LIN":"37鄰","STREET":"國民路","SECT":" ","MAREA":" ","LANE":"２７０巷","ALLEY":" ","HOUSE_NO":"３８號","E_COORD97":169090.94,"N_COORD97":2541512.6299999999,"ADDRESS":"國民路２７０巷３８號","OBJECTID":373635},"geometry":{"x":169090.94000000134,"y":2541512.629999999}},{"attributes":{"ID":373646,"DIS_CODE":0,"TOWNNAME":"南區","LI":"彰南里","LIN":"19鄰","STREET":"新港路","SECT":" ","MAREA":" ","LANE":"２３巷","ALLEY":" ","HOUSE_NO":"２５號","E_COORD97":165353.62,"N_COORD97":2541313.7599999998,"ADDRESS":"新港路２３巷２５號","OBJECTID":373636},"geometry":{"x":165353.62000000104,"y":2541313.7600000016}},{"attributes":{"ID":373647,"DIS_CODE":0,"TOWNNAME":"永康區","LI":"六合里","LIN":"10鄰","STREET":"中華路","SECT":" ","MAREA":" ","LANE":"４８５巷","ALLEY":" ","HOUSE_NO":"１５號","E_COORD97":171225.10999999999,"N_COORD97":2545731.4900000002,"ADDRESS":"中華路４８５巷１５號","OBJECTID":373637},"geometry":{"x":171225.11000000034,"y":2545731.4900000021}},{"attributes":{"ID":373648,"DIS_CODE":0,"TOWNNAME":"永康區","LI":"六合里","LIN":"10鄰","STREET":"中華路","SECT":" ","MAREA":" ","LANE":"４８５巷","ALLEY":" ","HOUSE_NO":"１７號","E_COORD97":171225.35000000001,"N_COORD97":2545737.2400000002,"ADDRESS":"中華路４８５巷１７號","OBJECTID":373638},"geometry":{"x":171225.35000000056,"y":2545737.2400000002}},{"attributes":{"ID":373649,"DIS_CODE":0,"TOWNNAME":"永康區","LI":"六合里","LIN":"10鄰","STREET":"中華路","SECT":" ","MAREA":" ","LANE":"４８５巷","ALLEY":" ","HOUSE_NO":"１９號","E_COORD97":171217.37,"N_COORD97":2545746.2400000002,"ADDRESS":"中華路４８５巷１９號","OBJECTID":373639},"geometry":{"x":171217.37000000011,"y":2545746.2400000021}},{"attributes":{"ID":373650,"DIS_CODE":0,"TOWNNAME":"永康區","LI":"六合里","LIN":"10鄰","STREET":"中華路","SECT":" ","MAREA":" ","LANE":"４８５巷","ALLEY":" ","HOUSE_NO":"２１號","E_COORD97":171197.98999999999,"N_COORD97":2545733.9900000002,"ADDRESS":"中華路４８５巷２１號","OBJECTID":373640},"geometry":{"x":171197.99000000022,"y":2545733.9900000021}},{"attributes":{"ID":373651,"DIS_CODE":0,"TOWNNAME":"永康區","LI":"六合里","LIN":"10鄰","STREET":"六合路","SECT":" ","MAREA":" ","LANE":"６８巷","ALLEY":" ","HOUSE_NO":"１１號","E_COORD97":171214.62,"N_COORD97":2545708.75,"ADDRESS":"六合路６８巷１１號","OBJECTID":373641},"geometry":{"x":171214.62000000011,"y":2545708.7500000019}},{"attributes":{"ID":373652,"DIS_CODE":0,"TOWNNAME":"永康區","LI":"六合里","LIN":"10鄰","STREET":"六合路","SECT":" ","MAREA":" ","LANE":"６８巷","ALLEY":" ","HOUSE_NO":"１３號","E_COORD97":171219.23000000001,"N_COORD97":2545708.25,"ADDRESS":"六合路６８巷１３號","OBJECTID":373642},"geometry":{"x":171219.23000000045,"y":2545708.2500000019}},{"attributes":{"ID":373653,"DIS_CODE":0,"TOWNNAME":"永康區","LI":"六合里","LIN":"10鄰","STREET":"六合路","SECT":" ","MAREA":" ","LANE":"６８巷","ALLEY":" ","HOUSE_NO":"１５號","E_COORD97":171223.82999999999,"N_COORD97":2545708.5,"ADDRESS":"六合路６８巷１５號","OBJECTID":373643},"geometry":{"x":171223.83000000101,"y":2545708.5}},{"attributes":{"ID":373654,"DIS_CODE":0,"TOWNNAME":"永康區","LI":"六合里","LIN":"10鄰","STREET":"六合路","SECT":" ","MAREA":" ","LANE":"６８巷","ALLEY":" ","HOUSE_NO":"１７號","E_COORD97":171228.26000000001,"N_COORD97":2545709,"ADDRESS":"六合路６８巷１７號","OBJECTID":373644},"geometry":{"x":171228.25999999978,"y":2545708.9999999981}},{"attributes":{"ID":373655,"DIS_CODE":0,"TOWNNAME":"永康區","LI":"六合里","LIN":"10鄰","STREET":"六合路","SECT":" ","MAREA":" ","LANE":"６８巷","ALLEY":" ","HOUSE_NO":"１９號","E_COORD97":171232.87,"N_COORD97":2545708.75,"ADDRESS":"六合路６８巷１９號","OBJECTID":373645},"geometry":{"x":171232.87000000011,"y":2545708.7500000019}},{"attributes":{"ID":373656,"DIS_CODE":0,"TOWNNAME":"永康區","LI":"六合里","LIN":"10鄰","STREET":"六合路","SECT":" ","MAREA":" ","LANE":"６８巷","ALLEY":" ","HOUSE_NO":"２３號","E_COORD97":171232.87,"N_COORD97":2545723.5,"ADDRESS":"六合路６８巷２３號","OBJECTID":373646},"geometry":{"x":171232.87000000011,"y":2545723.5000000019}},{"attributes":{"ID":373657,"DIS_CODE":0,"TOWNNAME":"永康區","LI":"六合里","LIN":"10鄰","STREET":"六合路","SECT":" ","MAREA":" ","LANE":"６８巷","ALLEY":" ","HOUSE_NO":"２５號","E_COORD97":171243.01000000001,"N_COORD97":2545727,"ADDRESS":"六合路６８巷２５號","OBJECTID":373647},"geometry":{"x":171243.01000000071,"y":2545727.0000000019}},{"attributes":{"ID":373658,"DIS_CODE":0,"TOWNNAME":"永康區","LI":"六合里","LIN":"10鄰","STREET":"六合路","SECT":" ","MAREA":" ","LANE":"６８巷","ALLEY":" ","HOUSE_NO":"２７號","E_COORD97":171244.10000000001,"N_COORD97":2545722,"ADDRESS":"六合路６８巷２７號","OBJECTID":373648},"geometry":{"x":171244.09999999963,"y":2545722}},{"attributes":{"ID":373659,"DIS_CODE":0,"TOWNNAME":"永康區","LI":"六合里","LIN":"10鄰","STREET":"六合路","SECT":" ","MAREA":" ","LANE":"６８巷","ALLEY":" ","HOUSE_NO":"２９號","E_COORD97":171241.76000000001,"N_COORD97":2545708.25,"ADDRESS":"六合路６８巷２９號","OBJECTID":373649},"geometry":{"x":171241.75999999978,"y":2545708.2500000019}},{"attributes":{"ID":373660,"DIS_CODE":0,"TOWNNAME":"永康區","LI":"六合里","LIN":"10鄰","STREET":"六合路","SECT":" ","MAREA":" ","LANE":"６８巷","ALLEY":" ","HOUSE_NO":"３１號","E_COORD97":171246.37,"N_COORD97":2545708.25,"ADDRESS":"六合路６８巷３１號","OBJECTID":373650},"geometry":{"x":171246.37000000011,"y":2545708.2500000019}},{"attributes":{"ID":373661,"DIS_CODE":0,"TOWNNAME":"永康區","LI":"六合里","LIN":"10鄰","STREET":"六合路","SECT":" ","MAREA":" ","LANE":"６８巷","ALLEY":" ","HOUSE_NO":"３３號","E_COORD97":171251.37,"N_COORD97":2545707.75,"ADDRESS":"六合路６８巷３３號","OBJECTID":373651},"geometry":{"x":171251.37000000011,"y":2545707.7500000037}},{"attributes":{"ID":373662,"DIS_CODE":0,"TOWNNAME":"永康區","LI":"六合里","LIN":"10鄰","STREET":"六合路","SECT":" ","MAREA":" ","LANE":"６８巷","ALLEY":" ","HOUSE_NO":"３５號","E_COORD97":171259.31,"N_COORD97":2545708.75,"ADDRESS":"六合路６８巷３５號","OBJECTID":373652},"geometry":{"x":171259.31000000052,"y":2545708.7500000019}},{"attributes":{"ID":373663,"DIS_CODE":0,"TOWNNAME":"永康區","LI":"六合里","LIN":"10鄰","STREET":"六合路","SECT":" ","MAREA":" ","LANE":"６８巷","ALLEY":" ","HOUSE_NO":"３號","E_COORD97":171202.17000000001,"N_COORD97":2545726,"ADDRESS":"六合路６８巷３號","OBJECTID":373653},"geometry":{"x":171202.16999999993,"y":2545725.9999999981}},{"attributes":{"ID":373664,"DIS_CODE":0,"TOWNNAME":"永康區","LI":"六合里","LIN":"10鄰","STREET":"六合路","SECT":" ","MAREA":" ","LANE":"６８巷","ALLEY":" ","HOUSE_NO":"５號","E_COORD97":171199.62,"N_COORD97":2545709.25,"ADDRESS":"六合路６８巷５號","OBJECTID":373654},"geometry":{"x":171199.62000000197,"y":2545709.2500000019}},{"attributes":{"ID":373665,"DIS_CODE":0,"TOWNNAME":"永康區","LI":"六合里","LIN":"10鄰","STREET":"六合路","SECT":" ","MAREA":" ","LANE":"６８巷","ALLEY":" ","HOUSE_NO":"７號","E_COORD97":171204.39000000001,"N_COORD97":2545709,"ADDRESS":"六合路６８巷７號","OBJECTID":373655},"geometry":{"x":171204.3900000006,"y":2545708.9999999981}},{"attributes":{"ID":373666,"DIS_CODE":0,"TOWNNAME":"永康區","LI":"六合里","LIN":"10鄰","STREET":"六合路","SECT":" ","MAREA":" ","LANE":"６８巷","ALLEY":" ","HOUSE_NO":"９號","E_COORD97":171208.62,"N_COORD97":2545708.75,"ADDRESS":"六合路６８巷９號","OBJECTID":373656},"geometry":{"x":171208.62000000104,"y":2545708.7500000019}},{"attributes":{"ID":373667,"DIS_CODE":0,"TOWNNAME":"永康區","LI":"\u25A0行里","LIN":"10鄰","STREET":"新中街","SECT":" ","MAREA":" ","LANE":"３１巷","ALLEY":" ","HOUSE_NO":"２號","E_COORD97":172020.42999999999,"N_COORD97":2548467.6699999999,"ADDRESS":"新中街３１巷２號","OBJECTID":373657},"geometry":{"x":172020.4299999997,"y":2548467.6700000037}},{"attributes":{"ID":373668,"DIS_CODE":0,"TOWNNAME":"永康區","LI":"\u25A0行里","LIN":"10鄰","STREET":"新中街","SECT":" ","MAREA":" ","LANE":"３１巷","ALLEY":" ","HOUSE_NO":"６號","E_COORD97":172025.48000000001,"N_COORD97":2548468.0899999999,"ADDRESS":"新中街３１巷６號","OBJECTID":373658},"geometry":{"x":172025.48000000138,"y":2548468.089999998}},{"attributes":{"ID":373669,"DIS_CODE":0,"TOWNNAME":"南區","LI":"省躬里","LIN":"2鄰","STREET":"灣裡路","SECT":" ","MAREA":" ","LANE":"８８巷","ALLEY":" ","HOUSE_NO":"８４之１號","E_COORD97":165824.73000000001,"N_COORD97":2536702.77,"ADDRESS":"灣裡路８８巷８４之１號","OBJECTID":373659},"geometry":{"x":165824.73000000045,"y":2536702.7700000014}},{"attributes":{"ID":373670,"DIS_CODE":0,"TOWNNAME":"南區","LI":"省躬里","LIN":"2鄰","STREET":"灣裡路","SECT":" ","MAREA":" ","LANE":"８８巷","ALLEY":" ","HOUSE_NO":"８４之２號","E_COORD97":165820.76000000001,"N_COORD97":2536702.1299999999,"ADDRESS":"灣裡路８８巷８４之２號","OBJECTID":373660},"geometry":{"x":165820.75999999978,"y":2536702.129999999}},{"attributes":{"ID":373671,"DIS_CODE":0,"TOWNNAME":"仁德區","LI":"新田里","LIN":"10鄰","STREET":"北保路","SECT":" ","MAREA":" ","LANE":"９５巷","ALLEY":" ","HOUSE_NO":"７號","E_COORD97":173252.78,"N_COORD97":2539558.2400000002,"ADDRESS":"北保路９５巷７號","OBJECTID":373661},"geometry":{"x":173252.78000000026,"y":2539558.2400000021}},{"attributes":{"ID":373672,"DIS_CODE":0,"TOWNNAME":"新化區","LI":"協興里","LIN":"10鄰","STREET":"太平街","SECT":" ","MAREA":" ","LANE":"１３４巷","ALLEY":" ","HOUSE_NO":"３４號","E_COORD97":178494.67000000001,"N_COORD97":2548759.25,"ADDRESS":"太平街１３４巷３４號","OBJECTID":373662},"geometry":{"x":178494.66999999993,"y":2548759.2500000019}},{"attributes":{"ID":373673,"DIS_CODE":0,"TOWNNAME":"新化區","LI":"協興里","LIN":"10鄰","STREET":"太平街","SECT":" ","MAREA":" ","LANE":"１３４巷","ALLEY":" ","HOUSE_NO":"５２號","E_COORD97":178492.87,"N_COORD97":2548786.25,"ADDRESS":"太平街１３４巷５２號","OBJECTID":373663},"geometry":{"x":178492.87000000104,"y":2548786.2500000037}},{"attributes":{"ID":373674,"DIS_CODE":0,"TOWNNAME":"新化區","LI":"協興里","LIN":"10鄰","STREET":"太平街","SECT":" ","MAREA":" ","LANE":"１３４巷","ALLEY":" ","HOUSE_NO":"４２號","E_COORD97":178512.67000000001,"N_COORD97":2548761.25,"ADDRESS":"太平街１３４巷４２號","OBJECTID":373664},"geometry":{"x":178512.67000000086,"y":2548761.25}},{"attributes":{"ID":373675,"DIS_CODE":0,"TOWNNAME":"新化區","LI":"豐榮里","LIN":"10鄰","STREET":"信義路","SECT":" ","MAREA":" ","LANE":"４８４巷","ALLEY":" ","HOUSE_NO":"２８號","E_COORD97":178396.78,"N_COORD97":2548353.25,"ADDRESS":"信義路４８４巷２８號","OBJECTID":373665},"geometry":{"x":178396.78000000119,"y":2548353.2500000019}},{"attributes":{"ID":373676,"DIS_CODE":0,"TOWNNAME":"新化區","LI":"豐榮里","LIN":"10鄰","STREET":"信義路","SECT":" ","MAREA":" ","LANE":"４８４巷","ALLEY":" ","HOUSE_NO":"１０號","E_COORD97":178439.48000000001,"N_COORD97":2548309.25,"ADDRESS":"信義路４８４巷１０號","OBJECTID":373666},"geometry":{"x":178439.48000000138,"y":2548309.2500000019}},{"attributes":{"ID":373677,"DIS_CODE":0,"TOWNNAME":"新化區","LI":"太平里","LIN":"10鄰","STREET":"中正路","SECT":" ","MAREA":" ","LANE":"７７７巷","ALLEY":" ","HOUSE_NO":"３５號之３","E_COORD97":178681.01000000001,"N_COORD97":2549204.2599999998,"ADDRESS":"中正路７７７巷３５號之３","OBJECTID":373667},"geometry":{"x":178681.01000000071,"y":2549204.2600000016}},{"attributes":{"ID":373678,"DIS_CODE":0,"TOWNNAME":"新化區","LI":"太平里","LIN":"10鄰","STREET":"中正路","SECT":" ","MAREA":" ","LANE":"７７７巷","ALLEY":" ","HOUSE_NO":"８５號","E_COORD97":178611.35999999999,"N_COORD97":2549356.2400000002,"ADDRESS":"中正路７７７巷８５號","OBJECTID":373668},"geometry":{"x":178611.36000000127,"y":2549356.2400000021}},{"attributes":{"ID":373679,"DIS_CODE":0,"TOWNNAME":"新化區","LI":"協興里","LIN":"10鄰","STREET":"正新路","SECT":" ","MAREA":" ","LANE":"３６３巷","ALLEY":" ","HOUSE_NO":"９號","E_COORD97":178489.22,"N_COORD97":2548867.25,"ADDRESS":"正新路３６３巷９號","OBJECTID":373669},"geometry":{"x":178489.21999999974,"y":2548867.2499999981}},{"attributes":{"ID":373680,"DIS_CODE":0,"TOWNNAME":"新化區","LI":"豐榮里","LIN":"10鄰","STREET":"正新路","SECT":" ","MAREA":" ","LANE":"２１７巷","ALLEY":" ","HOUSE_NO":"２１號","E_COORD97":178489.17000000001,"N_COORD97":2548350.25,"ADDRESS":"正新路２１７巷２１號","OBJECTID":373670},"geometry":{"x":178489.16999999993,"y":2548350.2500000019}},{"attributes":{"ID":373681,"DIS_CODE":0,"TOWNNAME":"新化區","LI":"豐榮里","LIN":"10鄰","STREET":"信義路","SECT":" ","MAREA":" ","LANE":"４８４巷","ALLEY":" ","HOUSE_NO":"１號","E_COORD97":178445.23000000001,"N_COORD97":2548285.25,"ADDRESS":"信義路４８４巷１號","OBJECTID":373671},"geometry":{"x":178445.23000000045,"y":2548285.2500000019}},{"attributes":{"ID":373682,"DIS_CODE":0,"TOWNNAME":"新化區","LI":"太平里","LIN":"10鄰","STREET":"中正路","SECT":" ","MAREA":" ","LANE":"７７７巷","ALLEY":" ","HOUSE_NO":"３１號","E_COORD97":178670.76000000001,"N_COORD97":2549240.25,"ADDRESS":"中正路７７７巷３１號","OBJECTID":373672},"geometry":{"x":178670.76000000071,"y":2549240.2500000037}},{"attributes":{"ID":373683,"DIS_CODE":0,"TOWNNAME":"新化區","LI":"太平里","LIN":"10鄰","STREET":"中正路","SECT":" ","MAREA":" ","LANE":"７７７巷","ALLEY":" ","HOUSE_NO":"１號","E_COORD97":178666.81,"N_COORD97":2549314.25,"ADDRESS":"中正路７７７巷１號","OBJECTID":373673},"geometry":{"x":178666.81000000145,"y":2549314.25}},{"attributes":{"ID":373684,"DIS_CODE":0,"TOWNNAME":"東區","LI":"路東里","LIN":"10鄰","STREET":"林森路","SECT":"一段","MAREA":" ","LANE":"５６巷","ALLEY":" ","HOUSE_NO":"１０號","E_COORD97":169325.26999999999,"N_COORD97":2542367.5699999998,"ADDRESS":"林森路一段５６巷１０號","OBJECTID":373674},"geometry":{"x":169325.27000000048,"y":2542367.5700000022}},{"attributes":{"ID":373685,"DIS_CODE":0,"TOWNNAME":"東區","LI":"路東里","LIN":"10鄰","STREET":"林森路","SECT":"一段","MAREA":" ","LANE":"５６巷","ALLEY":" ","HOUSE_NO":"１３號","E_COORD97":169352.79000000001,"N_COORD97":2542376.04,"ADDRESS":"林森路一段５６巷１３號","OBJECTID":373675},"geometry":{"x":169352.79000000097,"y":2542376.040000001}},{"attributes":{"ID":373686,"DIS_CODE":0,"TOWNNAME":"東區","LI":"路東里","LIN":"10鄰","STREET":"林森路","SECT":"一段","MAREA":" ","LANE":"５６巷","ALLEY":" ","HOUSE_NO":"２０號","E_COORD97":169347.70999999999,"N_COORD97":2542363.5499999998,"ADDRESS":"林森路一段５６巷２０號","OBJECTID":373676},"geometry":{"x":169347.71000000183,"y":2542363.5500000045}},{"attributes":{"ID":373687,"DIS_CODE":0,"TOWNNAME":"東區","LI":"路東里","LIN":"10鄰","STREET":"林森路","SECT":"一段","MAREA":" ","LANE":"５６巷","ALLEY":" ","HOUSE_NO":"２２號","E_COORD97":169352.79000000001,"N_COORD97":2542363.3399999999,"ADDRESS":"林森路一段５６巷２２號","OBJECTID":373677},"geometry":{"x":169352.79000000097,"y":2542363.3399999999}},{"attributes":{"ID":373688,"DIS_CODE":0,"TOWNNAME":"東區","LI":"路東里","LIN":"10鄰","STREET":"林森路","SECT":"一段","MAREA":" ","LANE":"５６巷","ALLEY":" ","HOUSE_NO":"５號","E_COORD97":169327.17999999999,"N_COORD97":2542378.5800000001,"ADDRESS":"林森路一段５６巷５號","OBJECTID":373678},"geometry":{"x":169327.18000000156,"y":2542378.5800000001}},{"attributes":{"ID":373689,"DIS_CODE":0,"TOWNNAME":"東區","LI":"路東里","LIN":"10鄰","STREET":"林森路","SECT":"一段","MAREA":" ","LANE":"５６巷","ALLEY":" ","HOUSE_NO":"６號","E_COORD97":169315.10999999999,"N_COORD97":2542368.6299999999,"ADDRESS":"林森路一段５６巷６號","OBJECTID":373679},"geometry":{"x":169315.11000000127,"y":2542368.6300000008}},{"attributes":{"ID":373690,"DIS_CODE":0,"TOWNNAME":"東區","LI":"路東里","LIN":"10鄰","STREET":"林森路","SECT":"一段","MAREA":" ","LANE":"５６巷","ALLEY":" ","HOUSE_NO":"８號","E_COORD97":169319.98000000001,"N_COORD97":2542367.9900000002,"ADDRESS":"林森路一段５６巷８號","OBJECTID":373680},"geometry":{"x":169319.98000000138,"y":2542367.9900000021}},{"attributes":{"ID":373691,"DIS_CODE":0,"TOWNNAME":"東區","LI":"路東里","LIN":"10鄰","STREET":"林森路","SECT":"一段","MAREA":" ","LANE":"５６巷","ALLEY":" ","HOUSE_NO":"１２號","E_COORD97":169330.35000000001,"N_COORD97":2542366.9300000002,"ADDRESS":"林森路一段５６巷１２號","OBJECTID":373681},"geometry":{"x":169330.34999999963,"y":2542366.9300000016}},{"attributes":{"ID":373692,"DIS_CODE":0,"TOWNNAME":"東區","LI":"路東里","LIN":"10鄰","STREET":"林森路","SECT":"一段","MAREA":" ","LANE":"５６巷","ALLEY":" ","HOUSE_NO":"１５號","E_COORD97":169351.73000000001,"N_COORD97":2542380.48,"ADDRESS":"林森路一段５６巷１５號","OBJECTID":373682},"geometry":{"x":169351.73000000138,"y":2542380.4800000042}},{"attributes":{"ID":373693,"DIS_CODE":0,"TOWNNAME":"東區","LI":"路東里","LIN":"10鄰","STREET":"林森路","SECT":"一段","MAREA":" ","LANE":"５６巷","ALLEY":" ","HOUSE_NO":"１６號","E_COORD97":169335.64000000001,"N_COORD97":2542365.8799999999,"ADDRESS":"林森路一段５６巷１６號","OBJECTID":373683},"geometry":{"x":169335.63999999966,"y":2542365.8799999971}},{"attributes":{"ID":373694,"DIS_CODE":0,"TOWNNAME":"東區","LI":"路東里","LIN":"10鄰","STREET":"林森路","SECT":"一段","MAREA":" ","LANE":"５６巷","ALLEY":" ","HOUSE_NO":"１７號","E_COORD97":169352.79000000001,"N_COORD97":2542386.2000000002,"ADDRESS":"林森路一段５６巷１７號","OBJECTID":373684},"geometry":{"x":169352.79000000097,"y":2542386.2000000011}},{"attributes":{"ID":373695,"DIS_CODE":0,"TOWNNAME":"東區","LI":"路東里","LIN":"10鄰","STREET":"林森路","SECT":"一段","MAREA":" ","LANE":"５６巷","ALLEY":" ","HOUSE_NO":"１８號","E_COORD97":169340.51000000001,"N_COORD97":2542365.4500000002,"ADDRESS":"林森路一段５６巷１８號","OBJECTID":373685},"geometry":{"x":169340.51000000071,"y":2542365.4499999993}},{"attributes":{"ID":373696,"DIS_CODE":0,"TOWNNAME":"東區","LI":"路東里","LIN":"10鄰","STREET":"林森路","SECT":"一段","MAREA":" ","LANE":"５６巷","ALLEY":" ","HOUSE_NO":"１９號","E_COORD97":169363.16,"N_COORD97":2542383.6600000001,"ADDRESS":"林森路一段５６巷１９號","OBJECTID":373686},"geometry":{"x":169363.16000000015,"y":2542383.660000002}},{"attributes":{"ID":373697,"DIS_CODE":0,"TOWNNAME":"東區","LI":"路東里","LIN":"10鄰","STREET":"林森路","SECT":"一段","MAREA":" ","LANE":"５６巷","ALLEY":" ","HOUSE_NO":"２１號","E_COORD97":169362.73999999999,"N_COORD97":2542379.4199999999,"ADDRESS":"林森路一段５６巷２１號","OBJECTID":373687},"geometry":{"x":169362.74000000022,"y":2542379.4199999999}},{"attributes":{"ID":373698,"DIS_CODE":0,"TOWNNAME":"東區","LI":"路東里","LIN":"10鄰","STREET":"林森路","SECT":"一段","MAREA":" ","LANE":"５６巷","ALLEY":" ","HOUSE_NO":"２３號","E_COORD97":169362.32000000001,"N_COORD97":2542374.77,"ADDRESS":"林森路一段５６巷２３號","OBJECTID":373688},"geometry":{"x":169362.3200000003,"y":2542374.7700000014}},{"attributes":{"ID":373699,"DIS_CODE":0,"TOWNNAME":"東區","LI":"路東里","LIN":"10鄰","STREET":"林森路","SECT":"一段","MAREA":" ","LANE":"５６巷","ALLEY":" ","HOUSE_NO":"２６號","E_COORD97":169358.07999999999,"N_COORD97":2542362.7000000002,"ADDRESS":"林森路一段５６巷２６號","OBJECTID":373689},"geometry":{"x":169358.08000000007,"y":2542362.6999999993}},{"attributes":{"ID":373700,"DIS_CODE":0,"TOWNNAME":"東區","LI":"路東里","LIN":"10鄰","STREET":"林森路","SECT":"一段","MAREA":" ","LANE":"５６巷","ALLEY":" ","HOUSE_NO":"２８號","E_COORD97":169364.01000000001,"N_COORD97":2542362.2799999998,"ADDRESS":"林森路一段５６巷２８號","OBJECTID":373690},"geometry":{"x":169364.01000000164,"y":2542362.2799999993}},{"attributes":{"ID":373701,"DIS_CODE":0,"TOWNNAME":"東區","LI":"路東里","LIN":"10鄰","STREET":"林森路","SECT":"一段","MAREA":" ","LANE":"５６巷","ALLEY":" ","HOUSE_NO":"２９號","E_COORD97":169385.39000000001,"N_COORD97":2542371.3799999999,"ADDRESS":"林森路一段５６巷２９號","OBJECTID":373691},"geometry":{"x":169385.3900000006,"y":2542371.379999999}},{"attributes":{"ID":373702,"DIS_CODE":0,"TOWNNAME":"東區","LI":"路東里","LIN":"10鄰","STREET":"林森路","SECT":"一段","MAREA":" ","LANE":"５６巷","ALLEY":" ","HOUSE_NO":"２號","E_COORD97":169309.82000000001,"N_COORD97":2542368.4199999999,"ADDRESS":"林森路一段５６巷２號","OBJECTID":373692},"geometry":{"x":169309.81999999937,"y":2542368.4200000018}},{"attributes":{"ID":373703,"DIS_CODE":0,"TOWNNAME":"東區","LI":"路東里","LIN":"10鄰","STREET":"林森路","SECT":"一段","MAREA":" ","LANE":"５６巷","ALLEY":" ","HOUSE_NO":"３２號","E_COORD97":169379.25,"N_COORD97":2542359.9500000002,"ADDRESS":"林森路一段５６巷３２號","OBJECTID":373693},"geometry":{"x":169379.25,"y":2542359.9500000011}},{"attributes":{"ID":373704,"DIS_CODE":0,"TOWNNAME":"東區","LI":"路東里","LIN":"10鄰","STREET":"林森路","SECT":"一段","MAREA":" ","LANE":"５６巷","ALLEY":" ","HOUSE_NO":"３６號","E_COORD97":169388.14000000001,"N_COORD97":2542358.2599999998,"ADDRESS":"林森路一段５６巷３６號","OBJECTID":373694},"geometry":{"x":169388.13999999966,"y":2542358.2600000016}},{"attributes":{"ID":373705,"DIS_CODE":0,"TOWNNAME":"東區","LI":"路東里","LIN":"10鄰","STREET":"林森路","SECT":"一段","MAREA":" ","LANE":"５６巷","ALLEY":" ","HOUSE_NO":"３號","E_COORD97":169320.82999999999,"N_COORD97":2542379.21,"ADDRESS":"林森路一段５６巷３號","OBJECTID":373695},"geometry":{"x":169320.83000000007,"y":2542379.209999999}},{"attributes":{"ID":373706,"DIS_CODE":0,"TOWNNAME":"東區","LI":"路東里","LIN":"10鄰","STREET":"林森路","SECT":"一段","MAREA":" ","LANE":"５６巷","ALLEY":" ","HOUSE_NO":"７號","E_COORD97":169332.26000000001,"N_COORD97":2542377.73,"ADDRESS":"林森路一段５６巷７號","OBJECTID":373696},"geometry":{"x":169332.26000000071,"y":2542377.7300000004}},{"attributes":{"ID":373707,"DIS_CODE":0,"TOWNNAME":"東區","LI":"路東里","LIN":"10鄰","STREET":"林森路","SECT":"一段","MAREA":" ","LANE":"５６巷","ALLEY":" ","HOUSE_NO":"９號","E_COORD97":169338.82000000001,"N_COORD97":2542376.6699999999,"ADDRESS":"林森路一段５６巷９號","OBJECTID":373697},"geometry":{"x":169338.82000000216,"y":2542376.6700000018}},{"attributes":{"ID":373708,"DIS_CODE":0,"TOWNNAME":"南區","LI":"府南里","LIN":"8鄰","STREET":"金華路","SECT":"一段","MAREA":" ","LANE":"４８４巷","ALLEY":" ","HOUSE_NO":"１１３之１號","E_COORD97":167243.64999999999,"N_COORD97":2541363.8999999999,"ADDRESS":"金華路一段４８４巷１１３之１號","OBJECTID":373698},"geometry":{"x":167243.6500000013,"y":2541363.9000000041}},{"attributes":{"ID":373709,"DIS_CODE":0,"TOWNNAME":"歸仁區","LI":"看東里","LIN":"10鄰","STREET":"忠孝南路","SECT":" ","MAREA":" ","LANE":"１３９巷","ALLEY":" ","HOUSE_NO":"３９號","E_COORD97":178619.87,"N_COORD97":2540258.6800000002,"ADDRESS":"忠孝南路１３９巷３９號","OBJECTID":373699},"geometry":{"x":178619.87000000104,"y":2540258.6799999997}},{"attributes":{"ID":373710,"DIS_CODE":0,"TOWNNAME":"歸仁區","LI":"崙頂里","LIN":"10鄰","STREET":"成功路","SECT":"二段","MAREA":" ","LANE":"８８巷","ALLEY":" ","HOUSE_NO":"３號","E_COORD97":178057.51999999999,"N_COORD97":2539819.3599999999,"ADDRESS":"成功路二段８８巷３號","OBJECTID":373700},"geometry":{"x":178057.51999999955,"y":2539819.3599999994}},{"attributes":{"ID":373711,"DIS_CODE":0,"TOWNNAME":"歸仁區","LI":"新厝里","LIN":"10鄰","STREET":"中正三街","SECT":" ","MAREA":" ","LANE":"４６巷","ALLEY":" ","HOUSE_NO":"１９號","E_COORD97":177712.35999999999,"N_COORD97":2540525.25,"ADDRESS":"中正三街４６巷１９號","OBJECTID":373701},"geometry":{"x":177712.36000000034,"y":2540525.2500000019}},{"attributes":{"ID":373712,"DIS_CODE":0,"TOWNNAME":"歸仁區","LI":"歸南里","LIN":"10鄰","STREET":"民生九街","SECT":" ","MAREA":" ","LANE":"１３３巷","ALLEY":" ","HOUSE_NO":"６號","E_COORD97":176249.76000000001,"N_COORD97":2540035.25,"ADDRESS":"民生九街１３３巷６號","OBJECTID":373702},"geometry":{"x":176249.75999999885,"y":2540035.2499999981}},{"attributes":{"ID":373713,"DIS_CODE":0,"TOWNNAME":"歸仁區","LI":"歸南里","LIN":"10鄰","STREET":"民生九街","SECT":" ","MAREA":" ","LANE":"１３３巷","ALLEY":" ","HOUSE_NO":"３７號","E_COORD97":176305.51000000001,"N_COORD97":2540076.25,"ADDRESS":"民生九街１３３巷３７號","OBJECTID":373703},"geometry":{"x":176305.50999999978,"y":2540076.2500000037}},{"attributes":{"ID":373714,"DIS_CODE":0,"TOWNNAME":"歸仁區","LI":"歸南里","LIN":"10鄰","STREET":"民生九街","SECT":" ","MAREA":" ","LANE":"１３３巷","ALLEY":" ","HOUSE_NO":"２號","E_COORD97":176245.66,"N_COORD97":2540034.25,"ADDRESS":"民生九街１３３巷２號","OBJECTID":373704},"geometry":{"x":176245.66000000015,"y":2540034.25}},{"attributes":{"ID":373715,"DIS_CODE":0,"TOWNNAME":"安南區","LI":"安慶里","LIN":"13鄰","STREET":"怡安路","SECT":"一段","MAREA":" ","LANE":" ","ALLEY":" ","HOUSE_NO":"２７號","E_COORD97":169474.32000000001,"N_COORD97":2548948.6600000001,"ADDRESS":"怡安路一段２７號","OBJECTID":373705},"geometry":{"x":169474.32000000216,"y":2548948.6600000001}},{"attributes":{"ID":373716,"DIS_CODE":0,"TOWNNAME":"歸仁區","LI":"許厝里","LIN":"10鄰","STREET":"信義南路","SECT":" ","MAREA":" ","LANE":"１０１巷","ALLEY":" ","HOUSE_NO":"１１號","E_COORD97":178157.92000000001,"N_COORD97":2540452.1000000001,"ADDRESS":"信義南路１０１巷１１號","OBJECTID":373706},"geometry":{"x":178157.92000000086,"y":2540452.0999999996}},{"attributes":{"ID":373717,"DIS_CODE":0,"TOWNNAME":"歸仁區","LI":"看東里","LIN":"10鄰","STREET":"忠孝南路","SECT":" ","MAREA":" ","LANE":"１３９巷","ALLEY":" ","HOUSE_NO":"２２號","E_COORD97":178602.57000000001,"N_COORD97":2540287.6800000002,"ADDRESS":"忠孝南路１３９巷２２號","OBJECTID":373707},"geometry":{"x":178602.5700000003,"y":2540287.6800000016}},{"attributes":{"ID":373718,"DIS_CODE":0,"TOWNNAME":"歸仁區","LI":"許厝里","LIN":"10鄰","STREET":"信義南路","SECT":" ","MAREA":" ","LANE":"１０１巷","ALLEY":" ","HOUSE_NO":"１０號","E_COORD97":178170.69,"N_COORD97":2540432.1000000001,"ADDRESS":"信義南路１０１巷１０號","OBJECTID":373708},"geometry":{"x":178170.69000000134,"y":2540432.0999999996}},{"attributes":{"ID":373719,"DIS_CODE":0,"TOWNNAME":"歸仁區","LI":"媽廟里","LIN":"10鄰","STREET":"保大路","SECT":"一段","MAREA":" ","LANE":"１８７巷","ALLEY":" ","HOUSE_NO":"２１號","E_COORD97":177558.57999999999,"N_COORD97":2543922.7200000002,"ADDRESS":"保大路一段１８７巷２１號","OBJECTID":373709},"geometry":{"x":177558.58000000101,"y":2543922.7200000025}},{"attributes":{"ID":373720,"DIS_CODE":0,"TOWNNAME":"歸仁區","LI":"崙頂里","LIN":"10鄰","STREET":"成功路","SECT":"二段","MAREA":" ","LANE":"１６８巷","ALLEY":" ","HOUSE_NO":"２２號","E_COORD97":177954.19,"N_COORD97":2539785.25,"ADDRESS":"成功路二段１６８巷２２號","OBJECTID":373710},"geometry":{"x":177954.19000000041,"y":2539785.2500000019}},{"attributes":{"ID":373721,"DIS_CODE":0,"TOWNNAME":"歸仁區","LI":"歸南里","LIN":"10鄰","STREET":"民生九街","SECT":" ","MAREA":" ","LANE":"１３３巷","ALLEY":" ","HOUSE_NO":"８號","E_COORD97":176254.85999999999,"N_COORD97":2540035.25,"ADDRESS":"民生九街１３３巷８號","OBJECTID":373711},"geometry":{"x":176254.8600000022,"y":2540035.2499999981}},{"attributes":{"ID":373722,"DIS_CODE":0,"TOWNNAME":"歸仁區","LI":"看東里","LIN":"10鄰","STREET":"忠孝南路","SECT":" ","MAREA":" ","LANE":"１３９巷","ALLEY":" ","HOUSE_NO":"２０號","E_COORD97":178601.57000000001,"N_COORD97":2540293.6800000002,"ADDRESS":"忠孝南路１３９巷２０號","OBJECTID":373712},"geometry":{"x":178601.57000000123,"y":2540293.6800000016}},{"attributes":{"ID":373723,"DIS_CODE":0,"TOWNNAME":"北區","LI":"賢北里","LIN":"10鄰","STREET":"賢北街","SECT":" ","MAREA":" ","LANE":"２３巷","ALLEY":" ","HOUSE_NO":"４９號","E_COORD97":166187.03,"N_COORD97":2545286.8599999999,"ADDRESS":"賢北街２３巷４９號","OBJECTID":373713},"geometry":{"x":166187.03000000026,"y":2545286.8600000013}},{"attributes":{"ID":373724,"DIS_CODE":0,"TOWNNAME":"北區","LI":"賢北里","LIN":"10鄰","STREET":"賢北街","SECT":" ","MAREA":" ","LANE":"２３巷","ALLEY":" ","HOUSE_NO":"５１號","E_COORD97":166180.14999999999,"N_COORD97":2545284.3599999999,"ADDRESS":"賢北街２３巷５１號","OBJECTID":373714},"geometry":{"x":166180.15000000224,"y":2545284.3599999994}},{"attributes":{"ID":373725,"DIS_CODE":0,"TOWNNAME":"北區","LI":"賢北里","LIN":"10鄰","STREET":"賢北街","SECT":" ","MAREA":" ","LANE":"２３巷","ALLEY":" ","HOUSE_NO":"５３號","E_COORD97":166175.57000000001,"N_COORD97":2545281.6499999999,"ADDRESS":"賢北街２３巷５３號","OBJECTID":373715},"geometry":{"x":166175.57000000216,"y":2545281.6500000041}},{"attributes":{"ID":373726,"DIS_CODE":0,"TOWNNAME":"北區","LI":"賢北里","LIN":"10鄰","STREET":"賢北街","SECT":" ","MAREA":" ","LANE":"２３巷","ALLEY":" ","HOUSE_NO":"５５號","E_COORD97":166170.98000000001,"N_COORD97":2545279.9900000002,"ADDRESS":"賢北街２３巷５５號","OBJECTID":373716},"geometry":{"x":166170.98000000045,"y":2545279.9900000021}},{"attributes":{"ID":373727,"DIS_CODE":0,"TOWNNAME":"北區","LI":"賢北里","LIN":"10鄰","STREET":"賢北街","SECT":" ","MAREA":" ","LANE":"２３巷","ALLEY":" ","HOUSE_NO":"５７號","E_COORD97":166166.17999999999,"N_COORD97":2545277.7000000002,"ADDRESS":"賢北街２３巷５７號","OBJECTID":373717},"geometry":{"x":166166.18000000063,"y":2545277.7000000011}},{"attributes":{"ID":373728,"DIS_CODE":0,"TOWNNAME":"北區","LI":"賢北里","LIN":"10鄰","STREET":"賢北街","SECT":" ","MAREA":" ","LANE":"２３巷","ALLEY":" ","HOUSE_NO":"５９號","E_COORD97":166162.01000000001,"N_COORD97":2545275.6099999999,"ADDRESS":"賢北街２３巷５９號","OBJECTID":373718},"geometry":{"x":166162.01000000071,"y":2545275.6100000013}},{"attributes":{"ID":373729,"DIS_CODE":0,"TOWNNAME":"北區","LI":"賢北里","LIN":"10鄰","STREET":"賢北街","SECT":" ","MAREA":" ","LANE":"２３巷","ALLEY":" ","HOUSE_NO":"６１號","E_COORD97":166156.17999999999,"N_COORD97":2545275.3999999999,"ADDRESS":"賢北街２３巷６１號","OBJECTID":373719},"geometry":{"x":166156.18000000063,"y":2545275.4000000004}},{"attributes":{"ID":373730,"DIS_CODE":0,"TOWNNAME":"北區","LI":"賢北里","LIN":"10鄰","STREET":"賢北街","SECT":" ","MAREA":" ","LANE":"２３巷","ALLEY":" ","HOUSE_NO":"６３號","E_COORD97":166152.01000000001,"N_COORD97":2545272.9100000001,"ADDRESS":"賢北街２３巷６３號","OBJECTID":373720},"geometry":{"x":166152.01000000071,"y":2545272.9100000039}},{"attributes":{"ID":373731,"DIS_CODE":0,"TOWNNAME":"北區","LI":"小康里","LIN":"10鄰","STREET":"大武街","SECT":" ","MAREA":" ","LANE":"２２１巷","ALLEY":" ","HOUSE_NO":"１２號","E_COORD97":169612.88620400001,"N_COORD97":2546167.03284,"ADDRESS":"大武街２２１巷１２號","OBJECTID":373721},"geometry":{"x":169612.88620400149,"y":2546167.0328359995}},{"attributes":{"ID":373732,"DIS_CODE":0,"TOWNNAME":"北區","LI":"小康里","LIN":"10鄰","STREET":"大武街","SECT":" ","MAREA":" ","LANE":"２２１巷","ALLEY":" ","HOUSE_NO":"１０號之３","E_COORD97":169612.662603,"N_COORD97":2546163.4305699999,"ADDRESS":"大武街２２１巷１０號之３","OBJECTID":373722},"geometry":{"x":169612.66260300111,"y":2546163.430571001}},{"attributes":{"ID":373733,"DIS_CODE":0,"TOWNNAME":"北區","LI":"延平里","LIN":"10鄰","STREET":"公園路","SECT":" ","MAREA":" ","LANE":"８２０巷","ALLEY":" ","HOUSE_NO":"９號","E_COORD97":169249.98999999999,"N_COORD97":2545814.1699999999,"ADDRESS":"公園路８２０巷９號","OBJECTID":373723},"geometry":{"x":169249.99000000115,"y":2545814.1700000018}},{"attributes":{"ID":373734,"DIS_CODE":0,"TOWNNAME":"安平區","LI":"怡平里","LIN":"10鄰","STREET":"永華六街","SECT":" ","MAREA":" ","LANE":"２０６巷","ALLEY":" ","HOUSE_NO":"１１號","E_COORD97":165694.89000000001,"N_COORD97":2544130,"ADDRESS":"永華六街２０６巷１１號","OBJECTID":373724},"geometry":{"x":165694.8900000006,"y":2544130.0000000019}},{"attributes":{"ID":373735,"DIS_CODE":0,"TOWNNAME":"新營區","LI":"嘉芳里","LIN":"10鄰","STREET":"嘉芳街","SECT":" ","MAREA":" ","LANE":"２５巷","ALLEY":" ","HOUSE_NO":"２９號","E_COORD97":177030.41,"N_COORD97":2578544.9700000002,"ADDRESS":"嘉芳街２５巷２９號","OBJECTID":373725},"geometry":{"x":177030.41000000015,"y":2578544.9700000007}},{"attributes":{"ID":373736,"DIS_CODE":0,"TOWNNAME":"玉井區","LI":"玉井里","LIN":"10鄰","STREET":"樹糖街","SECT":" ","MAREA":" ","LANE":"１６巷","ALLEY":" ","HOUSE_NO":"２號","E_COORD97":194683.23999999999,"N_COORD97":2558176.2400000002,"ADDRESS":"樹糖街１６巷２號","OBJECTID":373726},"geometry":{"x":194683.24000000022,"y":2558176.2400000002}},{"attributes":{"ID":373737,"DIS_CODE":0,"TOWNNAME":"新營區","LI":"南興里","LIN":"10鄰","STREET":"和平路","SECT":" ","MAREA":" ","LANE":"１０４巷","ALLEY":" ","HOUSE_NO":"２０號","E_COORD97":179352.76000000001,"N_COORD97":2577566.8999999999,"ADDRESS":"和平路１０４巷２０號","OBJECTID":373727},"geometry":{"x":179352.76000000071,"y":2577566.9000000022}},{"attributes":{"ID":373738,"DIS_CODE":0,"TOWNNAME":"新營區","LI":"王公里","LIN":"10鄰","STREET":"民族路","SECT":" ","MAREA":" ","LANE":"１０６巷","ALLEY":" ","HOUSE_NO":"１７號","E_COORD97":180376.03,"N_COORD97":2579180.04,"ADDRESS":"民族路１０６巷１７號","OBJECTID":373728},"geometry":{"x":180376.03000000026,"y":2579180.0399999991}},{"attributes":{"ID":373739,"DIS_CODE":0,"TOWNNAME":"新營區","LI":"南紙里","LIN":"10鄰","STREET":"南紙街","SECT":" ","MAREA":" ","LANE":"５４巷","ALLEY":" ","HOUSE_NO":"７號","E_COORD97":177775.64999999999,"N_COORD97":2577670.8399999999,"ADDRESS":"南紙街５４巷７號","OBJECTID":373729},"geometry":{"x":177775.6500000013,"y":2577670.8399999999}},{"attributes":{"ID":373740,"DIS_CODE":0,"TOWNNAME":"新營區","LI":"南興里","LIN":"10鄰","STREET":"和平路","SECT":" ","MAREA":" ","LANE":"１０２巷","ALLEY":" ","HOUSE_NO":"７號","E_COORD97":179379.20000000001,"N_COORD97":2577591.1400000001,"ADDRESS":"和平路１０２巷７號","OBJECTID":373730},"geometry":{"x":179379.20000000112,"y":2577591.1400000006}},{"attributes":{"ID":373741,"DIS_CODE":0,"TOWNNAME":"新營區","LI":"南興里","LIN":"10鄰","STREET":"和平路","SECT":" ","MAREA":" ","LANE":"１０４巷","ALLEY":" ","HOUSE_NO":"１４號","E_COORD97":179363.94,"N_COORD97":2577566.8399999999,"ADDRESS":"和平路１０４巷１４號","OBJECTID":373731},"geometry":{"x":179363.94000000134,"y":2577566.8400000017}},{"attributes":{"ID":373742,"DIS_CODE":0,"TOWNNAME":"新營區","LI":"南興里","LIN":"10鄰","STREET":"和平路","SECT":" ","MAREA":" ","LANE":"１０４巷","ALLEY":" ","HOUSE_NO":"１２號","E_COORD97":179371.09,"N_COORD97":2577565.7000000002,"ADDRESS":"和平路１０４巷１２號","OBJECTID":373732},"geometry":{"x":179371.09000000078,"y":2577565.6999999993}},{"attributes":{"ID":373743,"DIS_CODE":0,"TOWNNAME":"新營區","LI":"新北里","LIN":"10鄰","STREET":"長榮路","SECT":"二段","MAREA":" ","LANE":"２７１巷","ALLEY":" ","HOUSE_NO":"３號","E_COORD97":179259.78,"N_COORD97":2579773.3900000001,"ADDRESS":"長榮路二段２７１巷３號","OBJECTID":373733},"geometry":{"x":179259.78000000119,"y":2579773.3900000006}},{"attributes":{"ID":373744,"DIS_CODE":0,"TOWNNAME":"新營區","LI":"王公里","LIN":"10鄰","STREET":"民族路","SECT":" ","MAREA":" ","LANE":"１０６巷","ALLEY":" ","HOUSE_NO":"２６號","E_COORD97":180399.32999999999,"N_COORD97":2579116.7999999998,"ADDRESS":"民族路１０６巷２６號","OBJECTID":373734},"geometry":{"x":180399.33000000007,"y":2579116.8000000045}},{"attributes":{"ID":373745,"DIS_CODE":0,"TOWNNAME":"新營區","LI":"南興里","LIN":"10鄰","STREET":"和平路","SECT":" ","MAREA":" ","LANE":"１０２巷","ALLEY":" ","HOUSE_NO":"５號","E_COORD97":179383.28,"N_COORD97":2577591.1200000001,"ADDRESS":"和平路１０２巷５號","OBJECTID":373735},"geometry":{"x":179383.28000000119,"y":2577591.120000001}},{"attributes":{"ID":373746,"DIS_CODE":0,"TOWNNAME":"安平區","LI":"華平里","LIN":"10鄰","STREET":"怡平路","SECT":" ","MAREA":" ","LANE":"４４２巷","ALLEY":" ","HOUSE_NO":"１２號","E_COORD97":165297.91,"N_COORD97":2543879.4700000002,"ADDRESS":"怡平路４４２巷１２號","OBJECTID":373736},"geometry":{"x":165297.91000000015,"y":2543879.4700000044}},{"attributes":{"ID":373747,"DIS_CODE":0,"TOWNNAME":"安平區","LI":"華平里","LIN":"10鄰","STREET":"怡平路","SECT":" ","MAREA":" ","LANE":"４４２巷","ALLEY":" ","HOUSE_NO":"１４號","E_COORD97":165299.07999999999,"N_COORD97":2543886.3999999999,"ADDRESS":"怡平路４４２巷１４號","OBJECTID":373737},"geometry":{"x":165299.08000000101,"y":2543886.4000000041}},{"attributes":{"ID":373748,"DIS_CODE":0,"TOWNNAME":"北區","LI":"東興里","LIN":"10鄰","STREET":"小東路","SECT":" ","MAREA":" ","LANE":"４０１巷","ALLEY":" ","HOUSE_NO":"５號","E_COORD97":171297.66,"N_COORD97":2544390.1000000001,"ADDRESS":"小東路４０１巷５號","OBJECTID":373738},"geometry":{"x":171297.66000000201,"y":2544390.1000000015}},{"attributes":{"ID":373749,"DIS_CODE":0,"TOWNNAME":"北區","LI":"東興里","LIN":"10鄰","STREET":"小東路","SECT":" ","MAREA":" ","LANE":"４０１巷","ALLEY":" ","HOUSE_NO":"５號之１","E_COORD97":171304.76000000001,"N_COORD97":2544390.8700000001,"ADDRESS":"小東路４０１巷５號之１","OBJECTID":373739},"geometry":{"x":171304.75999999978,"y":2544390.870000001}},{"attributes":{"ID":373750,"DIS_CODE":0,"TOWNNAME":"北區","LI":"東興里","LIN":"10鄰","STREET":"小東路","SECT":" ","MAREA":" ","LANE":"４０１巷","ALLEY":" ","HOUSE_NO":"５號之２","E_COORD97":171297.73999999999,"N_COORD97":2544429.3700000001,"ADDRESS":"小東路４０１巷５號之２","OBJECTID":373740},"geometry":{"x":171297.74000000115,"y":2544429.370000001}},{"attributes":{"ID":373751,"DIS_CODE":0,"TOWNNAME":"北區","LI":"中樓里","LIN":"10鄰","STREET":"開元路","SECT":" ","MAREA":" ","LANE":"６６巷","ALLEY":" ","HOUSE_NO":"２２號","E_COORD97":169731.01999999999,"N_COORD97":2545080.3399999999,"ADDRESS":"開元路６６巷２２號","OBJECTID":373741},"geometry":{"x":169731.01999999955,"y":2545080.3400000017}},{"attributes":{"ID":373752,"DIS_CODE":0,"TOWNNAME":"北區","LI":"中樓里","LIN":"10鄰","STREET":"開元路","SECT":" ","MAREA":" ","LANE":"６６巷","ALLEY":" ","HOUSE_NO":"２４號","E_COORD97":169734.59,"N_COORD97":2545068.1800000002,"ADDRESS":"開元路６６巷２４號","OBJECTID":373742},"geometry":{"x":169734.58999999985,"y":2545068.1800000016}},{"attributes":{"ID":373753,"DIS_CODE":0,"TOWNNAME":"北區","LI":"中樓里","LIN":"10鄰","STREET":"開元路","SECT":" ","MAREA":" ","LANE":"６６巷","ALLEY":" ","HOUSE_NO":"２６號","E_COORD97":169738.28,"N_COORD97":2545056.6499999999,"ADDRESS":"開元路６６巷２６號","OBJECTID":373743},"geometry":{"x":169738.28000000026,"y":2545056.6500000004}},{"attributes":{"ID":373754,"DIS_CODE":0,"TOWNNAME":"北區","LI":"中樓里","LIN":"10鄰","STREET":"開元路","SECT":" ","MAREA":" ","LANE":"６６巷","ALLEY":" ","HOUSE_NO":"２８號","E_COORD97":169740.76000000001,"N_COORD97":2545048.7999999998,"ADDRESS":"開元路６６巷２８號","OBJECTID":373744},"geometry":{"x":169740.76000000071,"y":2545048.8000000007}},{"attributes":{"ID":373755,"DIS_CODE":0,"TOWNNAME":"北區","LI":"中樓里","LIN":"10鄰","STREET":"開元路","SECT":" ","MAREA":" ","LANE":"６６巷","ALLEY":" ","HOUSE_NO":"２號","E_COORD97":169717.39999999999,"N_COORD97":2545123.6000000001,"ADDRESS":"開元路６６巷２號","OBJECTID":373745},"geometry":{"x":169717.40000000037,"y":2545123.5999999996}},{"attributes":{"ID":373756,"DIS_CODE":0,"TOWNNAME":"北區","LI":"中樓里","LIN":"10鄰","STREET":"開元路","SECT":" ","MAREA":" ","LANE":"６６巷","ALLEY":" ","HOUSE_NO":"３０號","E_COORD97":169743.89000000001,"N_COORD97":2545036.8399999999,"ADDRESS":"開元路６６巷３０號","OBJECTID":373746},"geometry":{"x":169743.88999999966,"y":2545036.8400000017}},{"attributes":{"ID":373757,"DIS_CODE":0,"TOWNNAME":"北區","LI":"中樓里","LIN":"10鄰","STREET":"開元路","SECT":" ","MAREA":" ","LANE":"６６巷","ALLEY":" ","HOUSE_NO":"３２號","E_COORD97":169746.76999999999,"N_COORD97":2545027.71,"ADDRESS":"開元路６６巷３２號","OBJECTID":373747},"geometry":{"x":169746.76999999862,"y":2545027.7100000028}},{"attributes":{"ID":373758,"DIS_CODE":0,"TOWNNAME":"北區","LI":"三德里","LIN":"10鄰","STREET":"裕民街","SECT":" ","MAREA":" ","LANE":"８３巷","ALLEY":" ","HOUSE_NO":"１０號之１","E_COORD97":168415.79000000001,"N_COORD97":2544561.21,"ADDRESS":"裕民街８３巷１０號之１","OBJECTID":373748},"geometry":{"x":168415.79000000004,"y":2544561.2100000009}},{"attributes":{"ID":373759,"DIS_CODE":0,"TOWNNAME":"北區","LI":"三德里","LIN":"10鄰","STREET":"裕民街","SECT":" ","MAREA":" ","LANE":"８３巷","ALLEY":" ","HOUSE_NO":"１２號","E_COORD97":168402.51999999999,"N_COORD97":2544549.5899999999,"ADDRESS":"裕民街８３巷１２號","OBJECTID":373749},"geometry":{"x":168402.52000000142,"y":2544549.5900000017}},{"attributes":{"ID":373760,"DIS_CODE":0,"TOWNNAME":"北區","LI":"三德里","LIN":"10鄰","STREET":"長北街","SECT":" ","MAREA":" ","LANE":"５８巷","ALLEY":" ","HOUSE_NO":"１０號","E_COORD97":168439.26999999999,"N_COORD97":2544586.3199999998,"ADDRESS":"長北街５８巷１０號","OBJECTID":373750},"geometry":{"x":168439.26999999955,"y":2544586.3200000022}},{"attributes":{"ID":373761,"DIS_CODE":0,"TOWNNAME":"北區","LI":"三德里","LIN":"10鄰","STREET":"長北街","SECT":" ","MAREA":" ","LANE":"５８巷","ALLEY":" ","HOUSE_NO":"１１號","E_COORD97":168451.42999999999,"N_COORD97":2544586.4199999999,"ADDRESS":"長北街５８巷１１號","OBJECTID":373751},"geometry":{"x":168451.43000000063,"y":2544586.4199999999}},{"attributes":{"ID":373762,"DIS_CODE":0,"TOWNNAME":"北區","LI":"三德里","LIN":"10鄰","STREET":"長北街","SECT":" ","MAREA":" ","LANE":"５８巷","ALLEY":" ","HOUSE_NO":"１２號","E_COORD97":168441.94,"N_COORD97":2544583.23,"ADDRESS":"長北街５８巷１２號","OBJECTID":373752},"geometry":{"x":168441.94000000134,"y":2544583.2300000023}},{"attributes":{"ID":373763,"DIS_CODE":0,"TOWNNAME":"北區","LI":"三德里","LIN":"10鄰","STREET":"長北街","SECT":" ","MAREA":" ","LANE":"５８巷","ALLEY":" ","HOUSE_NO":"１２號之１","E_COORD97":168444.32999999999,"N_COORD97":2544579.8599999999,"ADDRESS":"長北街５８巷１２號之１","OBJECTID":373753},"geometry":{"x":168444.33000000007,"y":2544579.8599999994}},{"attributes":{"ID":373764,"DIS_CODE":0,"TOWNNAME":"北區","LI":"三德里","LIN":"10鄰","STREET":"長北街","SECT":" ","MAREA":" ","LANE":"５８巷","ALLEY":" ","HOUSE_NO":"４號","E_COORD97":168427.04000000001,"N_COORD97":2544605.4100000001,"ADDRESS":"長北街５８巷４號","OBJECTID":373754},"geometry":{"x":168427.04000000097,"y":2544605.410000002}},{"attributes":{"ID":373765,"DIS_CODE":0,"TOWNNAME":"北區","LI":"三德里","LIN":"10鄰","STREET":"長北街","SECT":" ","MAREA":" ","LANE":"５８巷","ALLEY":" ","HOUSE_NO":"６號","E_COORD97":168432.51999999999,"N_COORD97":2544596.0099999998,"ADDRESS":"長北街５８巷６號","OBJECTID":373755},"geometry":{"x":168432.51999999955,"y":2544596.0099999998}},{"attributes":{"ID":373766,"DIS_CODE":0,"TOWNNAME":"北區","LI":"三德里","LIN":"10鄰","STREET":"長北街","SECT":" ","MAREA":" ","LANE":"５８巷","ALLEY":" ","HOUSE_NO":"８號","E_COORD97":168436.73999999999,"N_COORD97":2544588.9900000002,"ADDRESS":"長北街５８巷８號","OBJECTID":373756},"geometry":{"x":168436.74000000022,"y":2544588.9900000021}},{"attributes":{"ID":373767,"DIS_CODE":0,"TOWNNAME":"北區","LI":"三德里","LIN":"10鄰","STREET":"長北街","SECT":" ","MAREA":" ","LANE":"５８巷","ALLEY":" ","HOUSE_NO":"９號","E_COORD97":168448.23000000001,"N_COORD97":2544592.3999999999,"ADDRESS":"長北街５８巷９號","OBJECTID":373757},"geometry":{"x":168448.23000000138,"y":2544592.4000000022}},{"attributes":{"ID":373768,"DIS_CODE":0,"TOWNNAME":"歸仁區","LI":"新厝里","LIN":"10鄰","STREET":"中正三街","SECT":" ","MAREA":" ","LANE":"５６巷","ALLEY":" ","HOUSE_NO":"５３號","E_COORD97":177703.41,"N_COORD97":2540459.5,"ADDRESS":"中正三街５６巷５３號","OBJECTID":373758},"geometry":{"x":177703.41000000015,"y":2540459.5}},{"attributes":{"ID":373769,"DIS_CODE":0,"TOWNNAME":"歸仁區","LI":"許厝里","LIN":"10鄰","STREET":"公園路","SECT":" ","MAREA":" ","LANE":"３９巷","ALLEY":" ","HOUSE_NO":"２２號","E_COORD97":178169.92000000001,"N_COORD97":2540491.1000000001,"ADDRESS":"公園路３９巷２２號","OBJECTID":373759},"geometry":{"x":178169.92000000086,"y":2540491.1000000015}},{"attributes":{"ID":373770,"DIS_CODE":0,"TOWNNAME":"歸仁區","LI":"媽廟里","LIN":"10鄰","STREET":"保大路","SECT":"一段","MAREA":" ","LANE":"１８７巷","ALLEY":" ","HOUSE_NO":"７號","E_COORD97":177574.03,"N_COORD97":2544002.7200000002,"ADDRESS":"保大路一段１８７巷７號","OBJECTID":373760},"geometry":{"x":177574.03000000026,"y":2544002.7200000007}},{"attributes":{"ID":373771,"DIS_CODE":0,"TOWNNAME":"歸仁區","LI":"許厝里","LIN":"10鄰","STREET":"公園路","SECT":" ","MAREA":" ","LANE":"３９巷","ALLEY":" ","HOUSE_NO":"２６號","E_COORD97":178169.92000000001,"N_COORD97":2540484.0899999999,"ADDRESS":"公園路３９巷２６號","OBJECTID":373761},"geometry":{"x":178169.92000000086,"y":2540484.0900000036}},{"attributes":{"ID":373772,"DIS_CODE":0,"TOWNNAME":"歸仁區","LI":"許厝里","LIN":"10鄰","STREET":"公園路","SECT":" ","MAREA":" ","LANE":"３９巷","ALLEY":" ","HOUSE_NO":"３０號","E_COORD97":178170.92000000001,"N_COORD97":2540475.1000000001,"ADDRESS":"公園路３９巷３０號","OBJECTID":373762},"geometry":{"x":178170.91999999993,"y":2540475.1000000015}},{"attributes":{"ID":373773,"DIS_CODE":0,"TOWNNAME":"歸仁區","LI":"崙頂里","LIN":"10鄰","STREET":"成功路","SECT":"二段","MAREA":" ","LANE":"１６８巷","ALLEY":" ","HOUSE_NO":"８號","E_COORD97":177953.84,"N_COORD97":2539762.25,"ADDRESS":"成功路二段１６８巷８號","OBJECTID":373763},"geometry":{"x":177953.84000000078,"y":2539762.2500000019}},{"attributes":{"ID":373774,"DIS_CODE":0,"TOWNNAME":"歸仁區","LI":"西埔里","LIN":"10鄰","STREET":"西埔一街","SECT":" ","MAREA":" ","LANE":"３００巷","ALLEY":" ","HOUSE_NO":"２號","E_COORD97":177159.69,"N_COORD97":2544789.9500000002,"ADDRESS":"西埔一街３００巷２號","OBJECTID":373764},"geometry":{"x":177159.69000000227,"y":2544789.950000003}},{"attributes":{"ID":373775,"DIS_CODE":0,"TOWNNAME":"歸仁區","LI":"西埔里","LIN":"10鄰","STREET":"西埔一街","SECT":" ","MAREA":" ","LANE":"３００巷","ALLEY":" ","HOUSE_NO":"４０號","E_COORD97":177229.54000000001,"N_COORD97":2544760.9500000002,"ADDRESS":"西埔一街３００巷４０號","OBJECTID":373765},"geometry":{"x":177229.54000000004,"y":2544760.9500000011}},{"attributes":{"ID":373776,"DIS_CODE":0,"TOWNNAME":"歸仁區","LI":"西埔里","LIN":"10鄰","STREET":"西埔一街","SECT":" ","MAREA":" ","LANE":"１８８巷","ALLEY":" ","HOUSE_NO":"５５號","E_COORD97":177146.81,"N_COORD97":2544674.9700000002,"ADDRESS":"西埔一街１８８巷５５號","OBJECTID":373766},"geometry":{"x":177146.81000000052,"y":2544674.9700000007}},{"attributes":{"ID":373777,"DIS_CODE":0,"TOWNNAME":"歸仁區","LI":"文化里","LIN":"10鄰","STREET":"民族北街","SECT":" ","MAREA":" ","LANE":"２３７巷","ALLEY":" ","HOUSE_NO":"６號","E_COORD97":177454,"N_COORD97":2541462.3300000001,"ADDRESS":"民族北街２３７巷６號","OBJECTID":373767},"geometry":{"x":177454.00000000093,"y":2541462.3300000038}},{"attributes":{"ID":373778,"DIS_CODE":0,"TOWNNAME":"歸仁區","LI":"七甲里","LIN":"10鄰","STREET":"七甲一街","SECT":" ","MAREA":" ","LANE":"３３巷","ALLEY":" ","HOUSE_NO":"１３號","E_COORD97":177580.94,"N_COORD97":2542535.6600000001,"ADDRESS":"七甲一街３３巷１３號","OBJECTID":373768},"geometry":{"x":177580.94000000041,"y":2542535.660000002}},{"attributes":{"ID":373779,"DIS_CODE":0,"TOWNNAME":"玉井區","LI":"竹圍里","LIN":"10鄰","STREET":"武成街","SECT":" ","MAREA":" ","LANE":"１６７巷","ALLEY":" ","HOUSE_NO":"３８號","E_COORD97":196205.23000000001,"N_COORD97":2559079.4399999999,"ADDRESS":"武成街１６７巷３８號","OBJECTID":373769},"geometry":{"x":196205.23000000138,"y":2559079.4399999995}},{"attributes":{"ID":373780,"DIS_CODE":0,"TOWNNAME":"玉井區","LI":"竹圍里","LIN":"10鄰","STREET":"武成街","SECT":" ","MAREA":" ","LANE":"１６７巷","ALLEY":" ","HOUSE_NO":"１０號","E_COORD97":196222.23000000001,"N_COORD97":2559076.5,"ADDRESS":"武成街１６７巷１０號","OBJECTID":373770},"geometry":{"x":196222.23000000138,"y":2559076.5}},{"attributes":{"ID":373781,"DIS_CODE":0,"TOWNNAME":"玉井區","LI":"竹圍里","LIN":"10鄰","STREET":"武成街","SECT":" ","MAREA":" ","LANE":"１６７巷","ALLEY":" ","HOUSE_NO":"２８號","E_COORD97":196211.67999999999,"N_COORD97":2559078.2000000002,"ADDRESS":"武成街１６７巷２８號","OBJECTID":373771},"geometry":{"x":196211.68000000063,"y":2559078.1999999993}},{"attributes":{"ID":373782,"DIS_CODE":0,"TOWNNAME":"玉井區","LI":"竹圍里","LIN":"10鄰","STREET":"武成街","SECT":" ","MAREA":" ","LANE":"１５５巷","ALLEY":" ","HOUSE_NO":"１９號","E_COORD97":196170.48999999999,"N_COORD97":2559044.9100000001,"ADDRESS":"武成街１５５巷１９號","OBJECTID":373772},"geometry":{"x":196170.49000000022,"y":2559044.910000002}},{"attributes":{"ID":373783,"DIS_CODE":0,"TOWNNAME":"玉井區","LI":"竹圍里","LIN":"10鄰","STREET":"武成街","SECT":" ","MAREA":" ","LANE":"１６７巷","ALLEY":" ","HOUSE_NO":"４８號","E_COORD97":196197.76999999999,"N_COORD97":2559081.79,"ADDRESS":"武成街１６７巷４８號","OBJECTID":373773},"geometry":{"x":196197.76999999955,"y":2559081.790000001}},{"attributes":{"ID":373784,"DIS_CODE":0,"TOWNNAME":"玉井區","LI":"玉田里","LIN":"10鄰","STREET":"中華路","SECT":" ","MAREA":" ","LANE":"８２巷","ALLEY":" ","HOUSE_NO":"１８號","E_COORD97":194934.95999999999,"N_COORD97":2557970.2400000002,"ADDRESS":"中華路８２巷１８號","OBJECTID":373774},"geometry":{"x":194934.96000000089,"y":2557970.2400000002}},{"attributes":{"ID":373785,"DIS_CODE":0,"TOWNNAME":"玉井區","LI":"玉田里","LIN":"10鄰","STREET":"中華路","SECT":" ","MAREA":" ","LANE":"８２巷","ALLEY":" ","HOUSE_NO":"５號之３","E_COORD97":194920.54999999999,"N_COORD97":2558030.2999999998,"ADDRESS":"中華路８２巷５號之３","OBJECTID":373775},"geometry":{"x":194920.55000000168,"y":2558030.3000000026}},{"attributes":{"ID":373786,"DIS_CODE":0,"TOWNNAME":"玉井區","LI":"玉田里","LIN":"10鄰","STREET":"中華路","SECT":" ","MAREA":" ","LANE":"８２巷","ALLEY":" ","HOUSE_NO":"１４號","E_COORD97":194927.45999999999,"N_COORD97":2557968.23,"ADDRESS":"中華路８２巷１４號","OBJECTID":373776},"geometry":{"x":194927.45999999996,"y":2557968.2300000023}},{"attributes":{"ID":373787,"DIS_CODE":0,"TOWNNAME":"玉井區","LI":"玉田里","LIN":"10鄰","STREET":"中華路","SECT":" ","MAREA":" ","LANE":"８２巷","ALLEY":" ","HOUSE_NO":"１２號","E_COORD97":194930.54999999999,"N_COORD97":2557968.23,"ADDRESS":"中華路８２巷１２號","OBJECTID":373777},"geometry":{"x":194930.54999999888,"y":2557968.2300000023}},{"attributes":{"ID":373788,"DIS_CODE":0,"TOWNNAME":"玉井區","LI":"玉田里","LIN":"10鄰","STREET":"中華路","SECT":" ","MAREA":" ","LANE":"８２巷","ALLEY":" ","HOUSE_NO":"１５號","E_COORD97":194922.35000000001,"N_COORD97":2557970.2400000002,"ADDRESS":"中華路８２巷１５號","OBJECTID":373778},"geometry":{"x":194922.35000000056,"y":2557970.2400000002}},{"attributes":{"ID":373789,"DIS_CODE":0,"TOWNNAME":"北區","LI":"和順里","LIN":"10鄰","STREET":"民德路","SECT":" ","MAREA":" ","LANE":"１２５巷","ALLEY":" ","HOUSE_NO":"１１號","E_COORD97":168067.51000000001,"N_COORD97":2545200.3900000001,"ADDRESS":"民德路１２５巷１１號","OBJECTID":373779},"geometry":{"x":168067.51000000071,"y":2545200.3900000006}},{"attributes":{"ID":373790,"DIS_CODE":0,"TOWNNAME":"北區","LI":"和順里","LIN":"10鄰","STREET":"民德路","SECT":" ","MAREA":" ","LANE":"１２５巷","ALLEY":" ","HOUSE_NO":"１號","E_COORD97":168108.38,"N_COORD97":2545217.9700000002,"ADDRESS":"民德路１２５巷１號","OBJECTID":373780},"geometry":{"x":168108.37999999989,"y":2545217.9700000007}},{"attributes":{"ID":373791,"DIS_CODE":0,"TOWNNAME":"北區","LI":"和順里","LIN":"10鄰","STREET":"民德路","SECT":" ","MAREA":" ","LANE":"１２５巷","ALLEY":" ","HOUSE_NO":"３號","E_COORD97":168097.69,"N_COORD97":2545213.3700000001,"ADDRESS":"民德路１２５巷３號","OBJECTID":373781},"geometry":{"x":168097.69000000134,"y":2545213.3700000029}},{"attributes":{"ID":373792,"DIS_CODE":0,"TOWNNAME":"北區","LI":"和順里","LIN":"10鄰","STREET":"民德路","SECT":" ","MAREA":" ","LANE":"１２５巷","ALLEY":" ","HOUSE_NO":"５號","E_COORD97":168089.51999999999,"N_COORD97":2545210.23,"ADDRESS":"民德路１２５巷５號","OBJECTID":373782},"geometry":{"x":168089.52000000048,"y":2545210.2300000023}},{"attributes":{"ID":373793,"DIS_CODE":0,"TOWNNAME":"北區","LI":"和順里","LIN":"10鄰","STREET":"民德路","SECT":" ","MAREA":" ","LANE":"１２５巷","ALLEY":" ","HOUSE_NO":"７號","E_COORD97":168082.60000000001,"N_COORD97":2545207.5,"ADDRESS":"民德路１２５巷７號","OBJECTID":373783},"geometry":{"x":168082.59999999963,"y":2545207.5000000037}},{"attributes":{"ID":373794,"DIS_CODE":0,"TOWNNAME":"北區","LI":"和順里","LIN":"10鄰","STREET":"民德路","SECT":" ","MAREA":" ","LANE":"１２５巷","ALLEY":" ","HOUSE_NO":"９號","E_COORD97":168074.85000000001,"N_COORD97":2545204.9900000002,"ADDRESS":"民德路１２５巷９號","OBJECTID":373784},"geometry":{"x":168074.8499999987,"y":2545204.9900000021}},{"attributes":{"ID":373795,"DIS_CODE":0,"TOWNNAME":"北區","LI":"和順里","LIN":"10鄰","STREET":"民德路","SECT":" ","MAREA":" ","LANE":"１１５巷","ALLEY":" ","HOUSE_NO":"１２號","E_COORD97":168084.07000000001,"N_COORD97":2545188.0299999998,"ADDRESS":"民德路１１５巷１２號","OBJECTID":373785},"geometry":{"x":168084.0700000003,"y":2545188.0299999993}},{"attributes":{"ID":373796,"DIS_CODE":0,"TOWNNAME":"北區","LI":"和順里","LIN":"10鄰","STREET":"民德路","SECT":" ","MAREA":" ","LANE":"１１５巷","ALLEY":" ","HOUSE_NO":"１５號","E_COORD97":168106.98999999999,"N_COORD97":2545170.0699999998,"ADDRESS":"民德路１１５巷１５號","OBJECTID":373786},"geometry":{"x":168106.99000000115,"y":2545170.070000004}},{"attributes":{"ID":373797,"DIS_CODE":0,"TOWNNAME":"北區","LI":"六甲里","LIN":"10鄰","STREET":"公園路","SECT":" ","MAREA":" ","LANE":"４８７巷","ALLEY":" ","HOUSE_NO":"４１號","E_COORD97":168940.51000000001,"N_COORD97":2545573.6800000002,"ADDRESS":"公園路４８７巷４１號","OBJECTID":373787},"geometry":{"x":168940.51000000071,"y":2545573.6800000016}},{"attributes":{"ID":373798,"DIS_CODE":0,"TOWNNAME":"北區","LI":"和順里","LIN":"10鄰","STREET":"民德路","SECT":" ","MAREA":" ","LANE":"１１５巷","ALLEY":" ","HOUSE_NO":"１１號","E_COORD97":168115.29000000001,"N_COORD97":2545172.1899999999,"ADDRESS":"民德路１１５巷１１號","OBJECTID":373788},"geometry":{"x":168115.29000000097,"y":2545172.1900000013}},{"attributes":{"ID":373799,"DIS_CODE":0,"TOWNNAME":"北區","LI":"和順里","LIN":"10鄰","STREET":"民德路","SECT":" ","MAREA":" ","LANE":"１１５巷","ALLEY":" ","HOUSE_NO":"１３號","E_COORD97":168112.01000000001,"N_COORD97":2545171.0299999998,"ADDRESS":"民德路１１５巷１３號","OBJECTID":373789},"geometry":{"x":168112.01000000071,"y":2545171.0299999993}},{"attributes":{"ID":373800,"DIS_CODE":0,"TOWNNAME":"北區","LI":"和順里","LIN":"10鄰","STREET":"民德路","SECT":" ","MAREA":" ","LANE":"１１５巷","ALLEY":" ","HOUSE_NO":"１７號","E_COORD97":168103.70999999999,"N_COORD97":2545167.3700000001,"ADDRESS":"民德路１１５巷１７號","OBJECTID":373790},"geometry":{"x":168103.71000000089,"y":2545167.370000001}},{"attributes":{"ID":373801,"DIS_CODE":0,"TOWNNAME":"北區","LI":"和順里","LIN":"10鄰","STREET":"民德路","SECT":" ","MAREA":" ","LANE":"１１５巷","ALLEY":" ","HOUSE_NO":"１９號","E_COORD97":168099.66,"N_COORD97":2545166.3999999999,"ADDRESS":"民德路１１５巷１９號","OBJECTID":373791},"geometry":{"x":168099.66000000015,"y":2545166.4000000004}},{"attributes":{"ID":373802,"DIS_CODE":0,"TOWNNAME":"北區","LI":"和順里","LIN":"10鄰","STREET":"民德路","SECT":" ","MAREA":" ","LANE":"１１５巷","ALLEY":" ","HOUSE_NO":"１號","E_COORD97":168134.78,"N_COORD97":2545179.5099999998,"ADDRESS":"民德路１１５巷１號","OBJECTID":373792},"geometry":{"x":168134.78000000026,"y":2545179.5099999998}},{"attributes":{"ID":373803,"DIS_CODE":0,"TOWNNAME":"北區","LI":"和順里","LIN":"10鄰","STREET":"民德路","SECT":" ","MAREA":" ","LANE":"１１５巷","ALLEY":" ","HOUSE_NO":"２１號","E_COORD97":168095.60999999999,"N_COORD97":2545165.25,"ADDRESS":"民德路１１５巷２１號","OBJECTID":373793},"geometry":{"x":168095.61000000034,"y":2545165.2500000037}},{"attributes":{"ID":373804,"DIS_CODE":0,"TOWNNAME":"北區","LI":"延平里","LIN":"10鄰","STREET":"長榮路","SECT":"五段","MAREA":" ","LANE":"４０１巷","ALLEY":" ","HOUSE_NO":"１０３號","E_COORD97":169333.10000000001,"N_COORD97":2545807.1099999999,"ADDRESS":"長榮路五段４０１巷１０３號","OBJECTID":373794},"geometry":{"x":169333.10000000056,"y":2545807.1100000013}},{"attributes":{"ID":373805,"DIS_CODE":0,"TOWNNAME":"北區","LI":"延平里","LIN":"10鄰","STREET":"長榮路","SECT":"五段","MAREA":" ","LANE":"４０１巷","ALLEY":" ","HOUSE_NO":"１０５號","E_COORD97":169316.62,"N_COORD97":2545803.6800000002,"ADDRESS":"長榮路五段４０１巷１０５號","OBJECTID":373795},"geometry":{"x":169316.62000000104,"y":2545803.6800000016}},{"attributes":{"ID":373806,"DIS_CODE":0,"TOWNNAME":"北區","LI":"延平里","LIN":"10鄰","STREET":"長榮路","SECT":"五段","MAREA":" ","LANE":"４０１巷","ALLEY":" ","HOUSE_NO":"３６號","E_COORD97":169319.70999999999,"N_COORD97":2545854.7400000002,"ADDRESS":"長榮路五段４０１巷３６號","OBJECTID":373796},"geometry":{"x":169319.70999999996,"y":2545854.7400000021}},{"attributes":{"ID":373807,"DIS_CODE":0,"TOWNNAME":"北區","LI":"延平里","LIN":"10鄰","STREET":"長榮路","SECT":"五段","MAREA":" ","LANE":"４０１巷","ALLEY":" ","HOUSE_NO":"３８號","E_COORD97":169315.76000000001,"N_COORD97":2545848.0499999998,"ADDRESS":"長榮路五段４０１巷３８號","OBJECTID":373797},"geometry":{"x":169315.75999999978,"y":2545848.0500000007}},{"attributes":{"ID":373808,"DIS_CODE":0,"TOWNNAME":"北區","LI":"延平里","LIN":"10鄰","STREET":"長榮路","SECT":"五段","MAREA":" ","LANE":"４０１巷","ALLEY":" ","HOUSE_NO":"４０號","E_COORD97":169308.03,"N_COORD97":2545852.1600000001,"ADDRESS":"長榮路五段４０１巷４０號","OBJECTID":373798},"geometry":{"x":169308.03000000026,"y":2545852.160000002}},{"attributes":{"ID":373809,"DIS_CODE":0,"TOWNNAME":"北區","LI":"延平里","LIN":"10鄰","STREET":"長榮路","SECT":"五段","MAREA":" ","LANE":"４０１巷","ALLEY":" ","HOUSE_NO":"４２號","E_COORD97":169302.70999999999,"N_COORD97":2545854.5699999998,"ADDRESS":"長榮路五段４０１巷４２號","OBJECTID":373799},"geometry":{"x":169302.70999999996,"y":2545854.5700000003}},{"attributes":{"ID":373810,"DIS_CODE":0,"TOWNNAME":"北區","LI":"延平里","LIN":"10鄰","STREET":"長榮路","SECT":"五段","MAREA":" ","LANE":"４０１巷","ALLEY":" ","HOUSE_NO":"４４號","E_COORD97":169297.89999999999,"N_COORD97":2545857.1400000001,"ADDRESS":"長榮路五段４０１巷４４號","OBJECTID":373800},"geometry":{"x":169297.9000000013,"y":2545857.1400000006}}]}