{"displayFieldName":"TOWNNAME","fieldAliases":{"ID":"ID","DIS_CODE":"DIS_CODE","TOWNNAME":"TOWNNAME","LI":"LI","LIN":"LIN","STREET":"STREET","SECT":"SECT","MAREA":"MAREA","LANE":"LANE","ALLEY":"ALLEY","HOUSE_NO":"HOUSE_NO","E_COORD97":"E_COORD97","N_COORD97":"N_COORD97","ADDRESS":"ADDRESS","OBJECTID":"OBJECTID"},"geometryType":"esriGeometryPoint","spatialReference":{"wkid":102443,"latestWkid":3826},"fields":[{"name":"ID","type":"esriFieldTypeDouble","alias":"ID"},{"name":"DIS_CODE","type":"esriFieldTypeInteger","alias":"DIS_CODE"},{"name":"TOWNNAME","type":"esriFieldTypeString","alias":"TOWNNAME","length":8},{"name":"LI","type":"esriFieldTypeString","alias":"LI","length":8},{"name":"LIN","type":"esriFieldTypeString","alias":"LIN","length":12},{"name":"STREET","type":"esriFieldTypeString","alias":"STREET","length":20},{"name":"SECT","type":"esriFieldTypeString","alias":"SECT","length":8},{"name":"MAREA","type":"esriFieldTypeString","alias":"MAREA","length":12},{"name":"LANE","type":"esriFieldTypeString","alias":"LANE","length":10},{"name":"ALLEY","type":"esriFieldTypeString","alias":"ALLEY","length":10},{"name":"HOUSE_NO","type":"esriFieldTypeString","alias":"HOUSE_NO","length":20},{"name":"E_COORD97","type":"esriFieldTypeDouble","alias":"E_COORD97"},{"name":"N_COORD97","type":"esriFieldTypeDouble","alias":"N_COORD97"},{"name":"ADDRESS","type":"esriFieldTypeString","alias":"ADDRESS","length":50},{"name":"OBJECTID","type":"esriFieldTypeOID","alias":"OBJECTID"}],"features":[{"attributes":{"ID":384811,"DIS_CODE":0,"TOWNNAME":"南區","LI":"大成里","LIN":"9鄰","STREET":"西門路","SECT":"一段","MAREA":" ","LANE":"３５２巷","ALLEY":" ","HOUSE_NO":"１８號","E_COORD97":167795.73000000001,"N_COORD97":2542310.2200000002,"ADDRESS":"西門路一段３５２巷１８號","OBJECTID":384801},"geometry":{"x":167795.73000000138,"y":2542310.2200000007}},{"attributes":{"ID":384812,"DIS_CODE":0,"TOWNNAME":"南區","LI":"大成里","LIN":"9鄰","STREET":"西門路","SECT":"一段","MAREA":" ","LANE":"３５２巷","ALLEY":" ","HOUSE_NO":"２０號","E_COORD97":167799.98000000001,"N_COORD97":2542310.2200000002,"ADDRESS":"西門路一段３５２巷２０號","OBJECTID":384802},"geometry":{"x":167799.98000000045,"y":2542310.2200000007}},{"attributes":{"ID":384813,"DIS_CODE":0,"TOWNNAME":"南區","LI":"大成里","LIN":"9鄰","STREET":"西門路","SECT":"一段","MAREA":" ","LANE":"３５２巷","ALLEY":" ","HOUSE_NO":"２２號","E_COORD97":167804.78,"N_COORD97":2542310.5899999999,"ADDRESS":"西門路一段３５２巷２２號","OBJECTID":384803},"geometry":{"x":167804.78000000212,"y":2542310.5899999999}},{"attributes":{"ID":384814,"DIS_CODE":0,"TOWNNAME":"南區","LI":"大成里","LIN":"9鄰","STREET":"西門路","SECT":"一段","MAREA":" ","LANE":"３５２巷","ALLEY":" ","HOUSE_NO":"２４號","E_COORD97":167809.03,"N_COORD97":2542310.0299999998,"ADDRESS":"西門路一段３５２巷２４號","OBJECTID":384804},"geometry":{"x":167809.03000000119,"y":2542310.0299999993}},{"attributes":{"ID":384815,"DIS_CODE":0,"TOWNNAME":"南區","LI":"大成里","LIN":"9鄰","STREET":"西門路","SECT":"一段","MAREA":" ","LANE":"３５２巷","ALLEY":" ","HOUSE_NO":"２６號","E_COORD97":167813.45999999999,"N_COORD97":2542310.2200000002,"ADDRESS":"西門路一段３５２巷２６號","OBJECTID":384805},"geometry":{"x":167813.46000000183,"y":2542310.2200000007}},{"attributes":{"ID":384816,"DIS_CODE":0,"TOWNNAME":"南區","LI":"大成里","LIN":"9鄰","STREET":"西門路","SECT":"一段","MAREA":" ","LANE":"３５２巷","ALLEY":" ","HOUSE_NO":"２８號","E_COORD97":167818.26999999999,"N_COORD97":2542309.8500000001,"ADDRESS":"西門路一段３５２巷２８號","OBJECTID":384806},"geometry":{"x":167818.27000000048,"y":2542309.8500000015}},{"attributes":{"ID":384817,"DIS_CODE":0,"TOWNNAME":"永康區","LI":"復興里","LIN":" ","STREET":"復興路","SECT":" ","MAREA":" ","LANE":"４２９巷","ALLEY":" ","HOUSE_NO":"４２７之１８號","E_COORD97":172197.01000000001,"N_COORD97":2543912.21,"ADDRESS":"復興路４２９巷４２７之１８號","OBJECTID":384807},"geometry":{"x":172197.01000000071,"y":2543912.2100000028}},{"attributes":{"ID":384818,"DIS_CODE":0,"TOWNNAME":"永康區","LI":"安康里","LIN":" ","STREET":"中華西街","SECT":" ","MAREA":" ","LANE":"１９６巷","ALLEY":" ","HOUSE_NO":"３９號","E_COORD97":170713.92999999999,"N_COORD97":2546389.8199999998,"ADDRESS":"中華西街１９６巷３９號","OBJECTID":384808},"geometry":{"x":170713.93000000156,"y":2546389.8200000022}},{"attributes":{"ID":384819,"DIS_CODE":0,"TOWNNAME":"永康區","LI":"東橋里","LIN":" ","STREET":"自強路","SECT":" ","MAREA":" ","LANE":"１４０巷","ALLEY":" ","HOUSE_NO":"３號","E_COORD97":172998.75,"N_COORD97":2547322.7400000002,"ADDRESS":"自強路１４０巷３號","OBJECTID":384809},"geometry":{"x":172998.74999999907,"y":2547322.7400000021}},{"attributes":{"ID":384820,"DIS_CODE":0,"TOWNNAME":"南區","LI":"大成里","LIN":"9鄰","STREET":"西門路","SECT":"一段","MAREA":" ","LANE":"３５２巷","ALLEY":" ","HOUSE_NO":"３０號","E_COORD97":167822.51000000001,"N_COORD97":2542309.8500000001,"ADDRESS":"西門路一段３５２巷３０號","OBJECTID":384810},"geometry":{"x":167822.50999999978,"y":2542309.8500000015}},{"attributes":{"ID":384821,"DIS_CODE":0,"TOWNNAME":"南區","LI":"大成里","LIN":"9鄰","STREET":"西門路","SECT":"一段","MAREA":" ","LANE":"３５２巷","ALLEY":" ","HOUSE_NO":"３２號","E_COORD97":167827.13,"N_COORD97":2542310.0299999998,"ADDRESS":"西門路一段３５２巷３２號","OBJECTID":384811},"geometry":{"x":167827.12999999989,"y":2542310.0299999993}},{"attributes":{"ID":384822,"DIS_CODE":0,"TOWNNAME":"南區","LI":"大成里","LIN":"9鄰","STREET":"西門路","SECT":"一段","MAREA":" ","LANE":"３５２巷","ALLEY":" ","HOUSE_NO":"３４號","E_COORD97":167831.92999999999,"N_COORD97":2542310.2200000002,"ADDRESS":"西門路一段３５２巷３４號","OBJECTID":384812},"geometry":{"x":167831.92999999877,"y":2542310.2200000007}},{"attributes":{"ID":384823,"DIS_CODE":0,"TOWNNAME":"南區","LI":"大成里","LIN":"9鄰","STREET":"西門路","SECT":"一段","MAREA":" ","LANE":"３５２巷","ALLEY":" ","HOUSE_NO":"３６號","E_COORD97":167836.37,"N_COORD97":2542310.3999999999,"ADDRESS":"西門路一段３５２巷３６號","OBJECTID":384813},"geometry":{"x":167836.37000000197,"y":2542310.4000000022}},{"attributes":{"ID":384824,"DIS_CODE":0,"TOWNNAME":"南區","LI":"大成里","LIN":"9鄰","STREET":"西門路","SECT":"一段","MAREA":" ","LANE":"３５２巷","ALLEY":" ","HOUSE_NO":"６號","E_COORD97":167766.37,"N_COORD97":2542310.96,"ADDRESS":"西門路一段３５２巷６號","OBJECTID":384814},"geometry":{"x":167766.37000000011,"y":2542310.9600000028}},{"attributes":{"ID":384825,"DIS_CODE":0,"TOWNNAME":"南區","LI":"大成里","LIN":"9鄰","STREET":"西門路","SECT":"一段","MAREA":" ","LANE":"３５２巷","ALLEY":" ","HOUSE_NO":"８號","E_COORD97":167770.79999999999,"N_COORD97":2542310.77,"ADDRESS":"西門路一段３５２巷８號","OBJECTID":384815},"geometry":{"x":167770.80000000075,"y":2542310.7700000014}},{"attributes":{"ID":384826,"DIS_CODE":0,"TOWNNAME":"鹽水區","LI":"三生里","LIN":"9鄰","STREET":"朝琴路","SECT":" ","MAREA":" ","LANE":"５５巷","ALLEY":" ","HOUSE_NO":"１５號","E_COORD97":175147.85999999999,"N_COORD97":2580112.7799999998,"ADDRESS":"朝琴路５５巷１５號","OBJECTID":384816},"geometry":{"x":175147.8599999994,"y":2580112.7800000012}},{"attributes":{"ID":384827,"DIS_CODE":0,"TOWNNAME":"鹽水區","LI":"水秀里","LIN":"9鄰","STREET":"朝琴路","SECT":" ","MAREA":" ","LANE":"８４巷","ALLEY":" ","HOUSE_NO":"１之１號","E_COORD97":175356.04000000001,"N_COORD97":2580075.5899999999,"ADDRESS":"朝琴路８４巷１之１號","OBJECTID":384817},"geometry":{"x":175356.04000000004,"y":2580075.5899999999}},{"attributes":{"ID":384828,"DIS_CODE":0,"TOWNNAME":"鹽水區","LI":"水秀里","LIN":"9鄰","STREET":"朝琴路","SECT":" ","MAREA":" ","LANE":"８４巷","ALLEY":" ","HOUSE_NO":"１號","E_COORD97":175362.16,"N_COORD97":2580070.4500000002,"ADDRESS":"朝琴路８４巷１號","OBJECTID":384818},"geometry":{"x":175362.16000000015,"y":2580070.450000003}},{"attributes":{"ID":384829,"DIS_CODE":0,"TOWNNAME":"鹽水區","LI":"水秀里","LIN":"9鄰","STREET":"朝琴路","SECT":" ","MAREA":" ","LANE":"８４巷","ALLEY":" ","HOUSE_NO":"３號","E_COORD97":175371.59,"N_COORD97":2580064.02,"ADDRESS":"朝琴路８４巷３號","OBJECTID":384819},"geometry":{"x":175371.59000000078,"y":2580064.0200000014}},{"attributes":{"ID":384830,"DIS_CODE":0,"TOWNNAME":"永康區","LI":"安康里","LIN":" ","STREET":"中華西街","SECT":" ","MAREA":" ","LANE":"１９６巷","ALLEY":" ","HOUSE_NO":"４５號","E_COORD97":170713.92999999999,"N_COORD97":2546389.8199999998,"ADDRESS":"中華西街１９６巷４５號","OBJECTID":384820},"geometry":{"x":170713.93000000156,"y":2546389.8200000022}},{"attributes":{"ID":384831,"DIS_CODE":0,"TOWNNAME":"永康區","LI":"\u25A0洲里","LIN":"25鄰","STREET":"洲工街","SECT":" ","MAREA":" ","LANE":"９巷","ALLEY":" ","HOUSE_NO":"３號","E_COORD97":170609.01000000001,"N_COORD97":2548027.4900000002,"ADDRESS":"洲工街９巷３號","OBJECTID":384821},"geometry":{"x":170609.01000000071,"y":2548027.4900000002}},{"attributes":{"ID":384832,"DIS_CODE":0,"TOWNNAME":"永康區","LI":"永康里","LIN":"6鄰","STREET":"中山南路","SECT":" ","MAREA":" ","LANE":"１１１６巷","ALLEY":" ","HOUSE_NO":"１０號","E_COORD97":173882.17999999999,"N_COORD97":2547294.1200000001,"ADDRESS":"中山南路１１１６巷１０號","OBJECTID":384822},"geometry":{"x":173882.18000000156,"y":2547294.1200000029}},{"attributes":{"ID":384833,"DIS_CODE":0,"TOWNNAME":"安平區","LI":"文平里","LIN":"9鄰","STREET":"建平七街","SECT":" ","MAREA":" ","LANE":"１８２巷","ALLEY":" ","HOUSE_NO":"３３號","E_COORD97":166066.59,"N_COORD97":2543294.5800000001,"ADDRESS":"建平七街１８２巷３３號","OBJECTID":384823},"geometry":{"x":166066.59000000078,"y":2543294.5799999982}},{"attributes":{"ID":384834,"DIS_CODE":0,"TOWNNAME":"安平區","LI":"建平里","LIN":"9鄰","STREET":"建平十一街","SECT":" ","MAREA":" ","LANE":"１６４巷","ALLEY":" ","HOUSE_NO":"４０號","E_COORD97":166013.22,"N_COORD97":2544114.7400000002,"ADDRESS":"建平十一街１６４巷４０號","OBJECTID":384824},"geometry":{"x":166013.22000000067,"y":2544114.7400000021}},{"attributes":{"ID":384835,"DIS_CODE":0,"TOWNNAME":"歸仁區","LI":"看東里","LIN":"9鄰","STREET":"成功一街","SECT":" ","MAREA":" ","LANE":"１３巷","ALLEY":" ","HOUSE_NO":"１號","E_COORD97":178646.59,"N_COORD97":2540177.25,"ADDRESS":"成功一街１３巷１號","OBJECTID":384825},"geometry":{"x":178646.59000000078,"y":2540177.25}},{"attributes":{"ID":384836,"DIS_CODE":0,"TOWNNAME":"歸仁區","LI":"許厝里","LIN":"9鄰","STREET":"信義南路","SECT":" ","MAREA":" ","LANE":"１２７巷","ALLEY":" ","HOUSE_NO":"１９之１號","E_COORD97":178199.89000000001,"N_COORD97":2540429.1099999999,"ADDRESS":"信義南路１２７巷１９之１號","OBJECTID":384826},"geometry":{"x":178199.88999999966,"y":2540429.1100000031}},{"attributes":{"ID":384837,"DIS_CODE":0,"TOWNNAME":"歸仁區","LI":"看西里","LIN":"9鄰","STREET":"仁愛五街","SECT":" ","MAREA":" ","LANE":"２巷","ALLEY":" ","HOUSE_NO":"１１號","E_COORD97":178356.42999999999,"N_COORD97":2540286.2000000002,"ADDRESS":"仁愛五街２巷１１號","OBJECTID":384827},"geometry":{"x":178356.43000000063,"y":2540286.2000000011}},{"attributes":{"ID":384838,"DIS_CODE":0,"TOWNNAME":"歸仁區","LI":"許厝里","LIN":"9鄰","STREET":"仁愛南街","SECT":" ","MAREA":" ","LANE":"５６巷","ALLEY":" ","HOUSE_NO":"２５號","E_COORD97":178220.48000000001,"N_COORD97":2540491.1099999999,"ADDRESS":"仁愛南街５６巷２５號","OBJECTID":384828},"geometry":{"x":178220.47999999952,"y":2540491.1100000013}},{"attributes":{"ID":384839,"DIS_CODE":0,"TOWNNAME":"永康區","LI":"\u25A0洲里","LIN":"38鄰","STREET":"\u25A0行路","SECT":" ","MAREA":" ","LANE":"１８８巷","ALLEY":" ","HOUSE_NO":"９號","E_COORD97":171305.01000000001,"N_COORD97":2549236.6099999999,"ADDRESS":"\u25A0行路１８８巷９號","OBJECTID":384829},"geometry":{"x":171305.01000000164,"y":2549236.6099999994}},{"attributes":{"ID":384840,"DIS_CODE":0,"TOWNNAME":"歸仁區","LI":"許厝里","LIN":"9鄰","STREET":"仁愛南街","SECT":" ","MAREA":" ","LANE":"５６巷","ALLEY":" ","HOUSE_NO":"２９號","E_COORD97":178209.98000000001,"N_COORD97":2540460.1099999999,"ADDRESS":"仁愛南街５６巷２９號","OBJECTID":384830},"geometry":{"x":178209.98000000045,"y":2540460.1100000013}},{"attributes":{"ID":384841,"DIS_CODE":0,"TOWNNAME":"歸仁區","LI":"看西里","LIN":"9鄰","STREET":"仁愛五街","SECT":" ","MAREA":" ","LANE":"２巷","ALLEY":" ","HOUSE_NO":"１２號","E_COORD97":178335.92999999999,"N_COORD97":2540284.1899999999,"ADDRESS":"仁愛五街２巷１２號","OBJECTID":384831},"geometry":{"x":178335.93000000063,"y":2540284.1900000013}},{"attributes":{"ID":384842,"DIS_CODE":0,"TOWNNAME":"北區","LI":"大豐里","LIN":"9鄰","STREET":"文賢路","SECT":" ","MAREA":" ","LANE":"３１３巷","ALLEY":" ","HOUSE_NO":"６２號","E_COORD97":167149.16,"N_COORD97":2545270.1800000002,"ADDRESS":"文賢路３１３巷６２號","OBJECTID":384832},"geometry":{"x":167149.16000000015,"y":2545270.1799999978}},{"attributes":{"ID":384843,"DIS_CODE":0,"TOWNNAME":"永康區","LI":"尚頂里","LIN":" ","STREET":"中正二街","SECT":" ","MAREA":" ","LANE":"１６９巷","ALLEY":" ","HOUSE_NO":"７２之３號","E_COORD97":171232.16,"N_COORD97":2547804.3900000001,"ADDRESS":"中正二街１６９巷７２之３號","OBJECTID":384833},"geometry":{"x":171232.16000000108,"y":2547804.3900000006}},{"attributes":{"ID":384844,"DIS_CODE":0,"TOWNNAME":"永康區","LI":"西橋里","LIN":" ","STREET":"大橋一街","SECT":" ","MAREA":" ","LANE":"３１巷","ALLEY":" ","HOUSE_NO":"４４號","E_COORD97":170579.54999999999,"N_COORD97":2546351.9900000002,"ADDRESS":"大橋一街３１巷４４號","OBJECTID":384834},"geometry":{"x":170579.55000000075,"y":2546351.9900000021}},{"attributes":{"ID":384845,"DIS_CODE":0,"TOWNNAME":"北區","LI":"正風里","LIN":"9鄰","STREET":"大武街","SECT":" ","MAREA":" ","LANE":"３３７巷","ALLEY":" ","HOUSE_NO":"１５號","E_COORD97":169727.87,"N_COORD97":2546458.3100000001,"ADDRESS":"大武街３３７巷１５號","OBJECTID":384835},"geometry":{"x":169727.87000000011,"y":2546458.3100000024}},{"attributes":{"ID":384846,"DIS_CODE":0,"TOWNNAME":"新營區","LI":"忠政里","LIN":"9鄰","STREET":"中正路","SECT":" ","MAREA":" ","LANE":"３９巷","ALLEY":" ","HOUSE_NO":"４１號之１","E_COORD97":179967.35999999999,"N_COORD97":2579240.73,"ADDRESS":"中正路３９巷４１號之１","OBJECTID":384836},"geometry":{"x":179967.3600000022,"y":2579240.7300000004}},{"attributes":{"ID":384847,"DIS_CODE":0,"TOWNNAME":"新營區","LI":"新北里","LIN":"9鄰","STREET":"三興街","SECT":" ","MAREA":" ","LANE":"３０１巷","ALLEY":" ","HOUSE_NO":"２０號","E_COORD97":179263.89000000001,"N_COORD97":2579733.5,"ADDRESS":"三興街３０１巷２０號","OBJECTID":384837},"geometry":{"x":179263.88999999966,"y":2579733.5}},{"attributes":{"ID":384848,"DIS_CODE":0,"TOWNNAME":"新營區","LI":"忠政里","LIN":"9鄰","STREET":"中正路","SECT":" ","MAREA":" ","LANE":"３９巷","ALLEY":" ","HOUSE_NO":"３７號之２","E_COORD97":179988.98000000001,"N_COORD97":2579237.2999999998,"ADDRESS":"中正路３９巷３７號之２","OBJECTID":384838},"geometry":{"x":179988.98000000138,"y":2579237.3000000007}},{"attributes":{"ID":384849,"DIS_CODE":0,"TOWNNAME":"新營區","LI":"新北里","LIN":"9鄰","STREET":"三興街","SECT":" ","MAREA":" ","LANE":"３０１巷","ALLEY":" ","HOUSE_NO":"２８號","E_COORD97":179247.5,"N_COORD97":2579728.04,"ADDRESS":"三興街３０１巷２８號","OBJECTID":384839},"geometry":{"x":179247.50000000093,"y":2579728.040000001}},{"attributes":{"ID":384850,"DIS_CODE":0,"TOWNNAME":"新營區","LI":"忠政里","LIN":"9鄰","STREET":"中正路","SECT":" ","MAREA":" ","LANE":"３９巷","ALLEY":" ","HOUSE_NO":"４３號之１","E_COORD97":179957.14000000001,"N_COORD97":2579241.8799999999,"ADDRESS":"中正路３９巷４３號之１","OBJECTID":384840},"geometry":{"x":179957.13999999966,"y":2579241.879999999}},{"attributes":{"ID":384851,"DIS_CODE":0,"TOWNNAME":"新營區","LI":"新北里","LIN":"9鄰","STREET":"三興街","SECT":" ","MAREA":" ","LANE":"３０１巷","ALLEY":" ","HOUSE_NO":"２２號","E_COORD97":179259.79000000001,"N_COORD97":2579733.52,"ADDRESS":"三興街３０１巷２２號","OBJECTID":384841},"geometry":{"x":179259.79000000004,"y":2579733.5199999996}},{"attributes":{"ID":384852,"DIS_CODE":0,"TOWNNAME":"新營區","LI":"新北里","LIN":"9鄰","STREET":"三興街","SECT":" ","MAREA":" ","LANE":"３０１巷","ALLEY":" ","HOUSE_NO":"２４號","E_COORD97":179255.69,"N_COORD97":2579732.4300000002,"ADDRESS":"三興街３０１巷２４號","OBJECTID":384842},"geometry":{"x":179255.69000000134,"y":2579732.4300000016}},{"attributes":{"ID":384853,"DIS_CODE":0,"TOWNNAME":"永康區","LI":"永康里","LIN":" ","STREET":"永信路","SECT":" ","MAREA":" ","LANE":"５８巷","ALLEY":" ","HOUSE_NO":"６２之１０號","E_COORD97":174173.70999999999,"N_COORD97":2546480.21,"ADDRESS":"永信路５８巷６２之１０號","OBJECTID":384843},"geometry":{"x":174173.70999999903,"y":2546480.2100000009}},{"attributes":{"ID":384854,"DIS_CODE":0,"TOWNNAME":"永康區","LI":"\u25A0洲里","LIN":"36鄰","STREET":"\u25A0洲二街","SECT":" ","MAREA":" ","LANE":"１７５巷","ALLEY":" ","HOUSE_NO":"３號","E_COORD97":171696.97,"N_COORD97":2549418.75,"ADDRESS":"\u25A0洲二街１７５巷３號","OBJECTID":384844},"geometry":{"x":171696.9700000016,"y":2549418.75}},{"attributes":{"ID":384855,"DIS_CODE":0,"TOWNNAME":"新營區","LI":"忠政里","LIN":"9鄰","STREET":"中正路","SECT":" ","MAREA":" ","LANE":"３９巷","ALLEY":" ","HOUSE_NO":"１７號之３","E_COORD97":180013.32000000001,"N_COORD97":2579221.6800000002,"ADDRESS":"中正路３９巷１７號之３","OBJECTID":384845},"geometry":{"x":180013.32000000216,"y":2579221.6800000034}},{"attributes":{"ID":384856,"DIS_CODE":0,"TOWNNAME":"新營區","LI":"忠政里","LIN":"9鄰","STREET":"中正路","SECT":" ","MAREA":" ","LANE":"３９巷","ALLEY":" ","HOUSE_NO":"４１號之３","E_COORD97":179967.45999999999,"N_COORD97":2579240.73,"ADDRESS":"中正路３９巷４１號之３","OBJECTID":384846},"geometry":{"x":179967.45999999996,"y":2579240.7300000004}},{"attributes":{"ID":384857,"DIS_CODE":0,"TOWNNAME":"新營區","LI":"忠政里","LIN":"9鄰","STREET":"中正路","SECT":" ","MAREA":" ","LANE":"３９巷","ALLEY":" ","HOUSE_NO":"３９號之２","E_COORD97":179978.76000000001,"N_COORD97":2579238.4500000002,"ADDRESS":"中正路３９巷３９號之２","OBJECTID":384847},"geometry":{"x":179978.75999999978,"y":2579238.4499999993}},{"attributes":{"ID":384858,"DIS_CODE":0,"TOWNNAME":"新營區","LI":"忠政里","LIN":"9鄰","STREET":"中正路","SECT":" ","MAREA":" ","LANE":"３９巷","ALLEY":" ","HOUSE_NO":"４３號","E_COORD97":179955.01000000001,"N_COORD97":2579241.8300000001,"ADDRESS":"中正路３９巷４３號","OBJECTID":384848},"geometry":{"x":179955.00999999978,"y":2579241.8300000019}},{"attributes":{"ID":384859,"DIS_CODE":0,"TOWNNAME":"永康區","LI":"尚頂里","LIN":" ","STREET":"正南一街","SECT":" ","MAREA":" ","LANE":"９２巷","ALLEY":" ","HOUSE_NO":"３２之１號","E_COORD97":171107.44,"N_COORD97":2547372.5299999998,"ADDRESS":"正南一街９２巷３２之１號","OBJECTID":384849},"geometry":{"x":171107.44000000041,"y":2547372.5299999993}},{"attributes":{"ID":384860,"DIS_CODE":0,"TOWNNAME":"永康區","LI":"尚頂里","LIN":" ","STREET":"中正南路","SECT":" ","MAREA":" ","LANE":"３１３巷","ALLEY":" ","HOUSE_NO":"２７號","E_COORD97":170158.82000000001,"N_COORD97":2547574.1600000001,"ADDRESS":"中正南路３１３巷２７號","OBJECTID":384850},"geometry":{"x":170158.8200000003,"y":2547574.160000002}},{"attributes":{"ID":384861,"DIS_CODE":0,"TOWNNAME":"永康區","LI":"\u25A0洲里","LIN":"36鄰","STREET":"\u25A0洲二街","SECT":" ","MAREA":" ","LANE":"１７５巷","ALLEY":" ","HOUSE_NO":"４８號","E_COORD97":171663.92999999999,"N_COORD97":2549483.9900000002,"ADDRESS":"\u25A0洲二街１７５巷４８號","OBJECTID":384851},"geometry":{"x":171663.93000000063,"y":2549483.9900000021}},{"attributes":{"ID":384862,"DIS_CODE":0,"TOWNNAME":"永康區","LI":"\u25A0洲里","LIN":"5鄰","STREET":"仁愛街","SECT":" ","MAREA":" ","LANE":"１０３巷","ALLEY":" ","HOUSE_NO":"８０號","E_COORD97":171890.01999999999,"N_COORD97":2549565.27,"ADDRESS":"仁愛街１０３巷８０號","OBJECTID":384852},"geometry":{"x":171890.02000000048,"y":2549565.2700000033}},{"attributes":{"ID":384863,"DIS_CODE":0,"TOWNNAME":"新營區","LI":"忠政里","LIN":"9鄰","STREET":"中正路","SECT":" ","MAREA":" ","LANE":"３９巷","ALLEY":" ","HOUSE_NO":"４２號","E_COORD97":179915.22,"N_COORD97":2579261.9500000002,"ADDRESS":"中正路３９巷４２號","OBJECTID":384853},"geometry":{"x":179915.2200000016,"y":2579261.9499999993}},{"attributes":{"ID":384864,"DIS_CODE":0,"TOWNNAME":"新營區","LI":"忠政里","LIN":"9鄰","STREET":"中正路","SECT":" ","MAREA":" ","LANE":"３９巷","ALLEY":" ","HOUSE_NO":"３９號之３","E_COORD97":179978.72,"N_COORD97":2579238.4500000002,"ADDRESS":"中正路３９巷３９號之３","OBJECTID":384854},"geometry":{"x":179978.71999999974,"y":2579238.4499999993}},{"attributes":{"ID":384865,"DIS_CODE":0,"TOWNNAME":"新營區","LI":"忠政里","LIN":"9鄰","STREET":"中正路","SECT":" ","MAREA":" ","LANE":"３９巷","ALLEY":" ","HOUSE_NO":"３９之１號","E_COORD97":179978.98999999999,"N_COORD97":2579238.4500000002,"ADDRESS":"中正路３９巷３９之１號","OBJECTID":384855},"geometry":{"x":179978.99000000115,"y":2579238.4499999993}},{"attributes":{"ID":384866,"DIS_CODE":0,"TOWNNAME":"楠西區","LI":"東勢里","LIN":"9鄰","STREET":"水庫路","SECT":" ","MAREA":" ","LANE":"２３６巷","ALLEY":" ","HOUSE_NO":"１１號","E_COORD97":197689.32000000001,"N_COORD97":2564183.25,"ADDRESS":"水庫路２３６巷１１號","OBJECTID":384856},"geometry":{"x":197689.32000000123,"y":2564183.2500000019}},{"attributes":{"ID":384867,"DIS_CODE":0,"TOWNNAME":"楠西區","LI":"東勢里","LIN":"9鄰","STREET":"水庫路","SECT":" ","MAREA":" ","LANE":"２３６巷","ALLEY":" ","HOUSE_NO":"１５號","E_COORD97":197687.51999999999,"N_COORD97":2564202.25,"ADDRESS":"水庫路２３６巷１５號","OBJECTID":384857},"geometry":{"x":197687.52000000048,"y":2564202.2500000037}},{"attributes":{"ID":384868,"DIS_CODE":0,"TOWNNAME":"永康區","LI":"尚頂里","LIN":" ","STREET":"鹽信街","SECT":" ","MAREA":" ","LANE":"１４６巷","ALLEY":" ","HOUSE_NO":"３４號","E_COORD97":171120.44,"N_COORD97":2547703.8199999998,"ADDRESS":"鹽信街１４６巷３４號","OBJECTID":384858},"geometry":{"x":171120.44000000134,"y":2547703.8200000003}},{"attributes":{"ID":384869,"DIS_CODE":0,"TOWNNAME":"永康區","LI":"南灣里","LIN":" ","STREET":"南興路","SECT":" ","MAREA":" ","LANE":"１１２巷","ALLEY":" ","HOUSE_NO":"６號之４","E_COORD97":174386.03,"N_COORD97":2544407.0800000001,"ADDRESS":"南興路１１２巷６號之４","OBJECTID":384859},"geometry":{"x":174386.03000000119,"y":2544407.0800000038}},{"attributes":{"ID":384870,"DIS_CODE":0,"TOWNNAME":"楠西區","LI":"東勢里","LIN":"9鄰","STREET":"水庫路","SECT":" ","MAREA":" ","LANE":"２３６巷","ALLEY":" ","HOUSE_NO":"９號","E_COORD97":197689.67000000001,"N_COORD97":2564173.25,"ADDRESS":"水庫路２３６巷９號","OBJECTID":384860},"geometry":{"x":197689.67000000179,"y":2564173.2500000019}},{"attributes":{"ID":384871,"DIS_CODE":0,"TOWNNAME":"楠西區","LI":"東勢里","LIN":"9鄰","STREET":"水庫路","SECT":" ","MAREA":" ","LANE":"２３６巷","ALLEY":" ","HOUSE_NO":"４號","E_COORD97":197678.26999999999,"N_COORD97":2564163.25,"ADDRESS":"水庫路２３６巷４號","OBJECTID":384861},"geometry":{"x":197678.26999999955,"y":2564163.25}},{"attributes":{"ID":384872,"DIS_CODE":0,"TOWNNAME":"永康區","LI":"\u25A0洲里","LIN":"4鄰","STREET":"\u25A0洲二街","SECT":" ","MAREA":" ","LANE":"１３３巷","ALLEY":" ","HOUSE_NO":"２３號","E_COORD97":171594.98000000001,"N_COORD97":2549377.2799999998,"ADDRESS":"\u25A0洲二街１３３巷２３號","OBJECTID":384862},"geometry":{"x":171594.98000000045,"y":2549377.2799999993}},{"attributes":{"ID":384873,"DIS_CODE":0,"TOWNNAME":"永康區","LI":"尚頂里","LIN":" ","STREET":"國聖街","SECT":" ","MAREA":" ","LANE":"４３巷","ALLEY":" ","HOUSE_NO":"１０號","E_COORD97":170329.54000000001,"N_COORD97":2547835.23,"ADDRESS":"國聖街４３巷１０號","OBJECTID":384863},"geometry":{"x":170329.54000000004,"y":2547835.2300000023}},{"attributes":{"ID":384874,"DIS_CODE":0,"TOWNNAME":"永康區","LI":"\u25A0洲里","LIN":"40鄰","STREET":"洲尾街","SECT":" ","MAREA":" ","LANE":"１１５巷","ALLEY":" ","HOUSE_NO":"６號","E_COORD97":170949.88,"N_COORD97":2548755.25,"ADDRESS":"洲尾街１１５巷６號","OBJECTID":384864},"geometry":{"x":170949.87999999989,"y":2548755.2499999981}},{"attributes":{"ID":384875,"DIS_CODE":0,"TOWNNAME":"永康區","LI":"\u25A0洲里","LIN":"24鄰","STREET":"中正南路","SECT":" ","MAREA":" ","LANE":"４９１巷","ALLEY":" ","HOUSE_NO":"１號","E_COORD97":170864.82000000001,"N_COORD97":2548157.4399999999,"ADDRESS":"中正南路４９１巷１號","OBJECTID":384865},"geometry":{"x":170864.82000000123,"y":2548157.4400000013}},{"attributes":{"ID":384876,"DIS_CODE":0,"TOWNNAME":"東山區","LI":"東中里","LIN":"9鄰","STREET":"鳳安二街","SECT":" ","MAREA":" ","LANE":"１１８巷","ALLEY":" ","HOUSE_NO":"１號","E_COORD97":188645.04999999999,"N_COORD97":2580013.3300000001,"ADDRESS":"鳳安二街１１８巷１號","OBJECTID":384866},"geometry":{"x":188645.05000000075,"y":2580013.3300000001}},{"attributes":{"ID":384877,"DIS_CODE":0,"TOWNNAME":"東山區","LI":"東中里","LIN":"9鄰","STREET":"鳳安二街","SECT":" ","MAREA":" ","LANE":"１１８巷","ALLEY":" ","HOUSE_NO":"３號","E_COORD97":188649.91,"N_COORD97":2580011.6800000002,"ADDRESS":"鳳安二街１１８巷３號","OBJECTID":384867},"geometry":{"x":188649.91000000108,"y":2580011.6800000034}},{"attributes":{"ID":384878,"DIS_CODE":0,"TOWNNAME":"東山區","LI":"東中里","LIN":"9鄰","STREET":"鳳安二街","SECT":" ","MAREA":" ","LANE":"１１８巷","ALLEY":" ","HOUSE_NO":"５號","E_COORD97":188654.76000000001,"N_COORD97":2580010.0299999998,"ADDRESS":"鳳安二街１１８巷５號","OBJECTID":384868},"geometry":{"x":188654.75999999978,"y":2580010.0300000012}},{"attributes":{"ID":384879,"DIS_CODE":0,"TOWNNAME":"東山區","LI":"東中里","LIN":"9鄰","STREET":"鳳安二街","SECT":" ","MAREA":" ","LANE":"１１８巷","ALLEY":" ","HOUSE_NO":"７號","E_COORD97":188659.60999999999,"N_COORD97":2580008.3799999999,"ADDRESS":"鳳安二街１１８巷７號","OBJECTID":384869},"geometry":{"x":188659.61000000034,"y":2580008.379999999}},{"attributes":{"ID":384880,"DIS_CODE":0,"TOWNNAME":"新化區","LI":"東榮里","LIN":"9鄰","STREET":"信義路","SECT":" ","MAREA":" ","LANE":"１３１巷","ALLEY":" ","HOUSE_NO":"７２號","E_COORD97":179621.67999999999,"N_COORD97":2548309.25,"ADDRESS":"信義路１３１巷７２號","OBJECTID":384870},"geometry":{"x":179621.6799999997,"y":2548309.2500000019}},{"attributes":{"ID":384881,"DIS_CODE":0,"TOWNNAME":"新化區","LI":"東榮里","LIN":"9鄰","STREET":"信義路","SECT":" ","MAREA":" ","LANE":"１３１巷","ALLEY":" ","HOUSE_NO":"１００號","E_COORD97":179649.53,"N_COORD97":2548263.25,"ADDRESS":"信義路１３１巷１００號","OBJECTID":384871},"geometry":{"x":179649.53000000119,"y":2548263.25}},{"attributes":{"ID":384882,"DIS_CODE":0,"TOWNNAME":"新化區","LI":"護國里","LIN":"9鄰","STREET":"中山路","SECT":" ","MAREA":" ","LANE":"１１１巷","ALLEY":" ","HOUSE_NO":"６０號","E_COORD97":180256.06,"N_COORD97":2549152.25,"ADDRESS":"中山路１１１巷６０號","OBJECTID":384872},"geometry":{"x":180256.05999999959,"y":2549152.2500000037}},{"attributes":{"ID":384883,"DIS_CODE":0,"TOWNNAME":"新化區","LI":"護國里","LIN":"9鄰","STREET":"中山路","SECT":" ","MAREA":" ","LANE":"１９巷","ALLEY":" ","HOUSE_NO":"７０號","E_COORD97":180408.10999999999,"N_COORD97":2549152.25,"ADDRESS":"中山路１９巷７０號","OBJECTID":384873},"geometry":{"x":180408.1100000022,"y":2549152.2500000037}},{"attributes":{"ID":384884,"DIS_CODE":0,"TOWNNAME":"新化區","LI":"東榮里","LIN":"9鄰","STREET":"信義路","SECT":" ","MAREA":" ","LANE":"１３１巷","ALLEY":" ","HOUSE_NO":"８６號","E_COORD97":179654.48000000001,"N_COORD97":2548294.25,"ADDRESS":"信義路１３１巷８６號","OBJECTID":384874},"geometry":{"x":179654.48000000045,"y":2548294.2499999981}},{"attributes":{"ID":384885,"DIS_CODE":0,"TOWNNAME":"永康區","LI":"尚頂里","LIN":" ","STREET":"國聖街","SECT":" ","MAREA":" ","LANE":"４３巷","ALLEY":" ","HOUSE_NO":"２８號","E_COORD97":170310.64000000001,"N_COORD97":2547771.2400000002,"ADDRESS":"國聖街４３巷２８號","OBJECTID":384875},"geometry":{"x":170310.64000000153,"y":2547771.2400000002}},{"attributes":{"ID":384886,"DIS_CODE":0,"TOWNNAME":"永康區","LI":"尚頂里","LIN":" ","STREET":"中正南路","SECT":" ","MAREA":" ","LANE":"２２０巷","ALLEY":" ","HOUSE_NO":"２之２號","E_COORD97":170170.89999999999,"N_COORD97":2547294.73,"ADDRESS":"中正南路２２０巷２之２號","OBJECTID":384876},"geometry":{"x":170170.9000000013,"y":2547294.7299999986}},{"attributes":{"ID":384887,"DIS_CODE":0,"TOWNNAME":"新化區","LI":"東榮里","LIN":"9鄰","STREET":"信義路","SECT":" ","MAREA":" ","LANE":"１３１巷","ALLEY":" ","HOUSE_NO":"１０２號","E_COORD97":179644.63,"N_COORD97":2548263.25,"ADDRESS":"信義路１３１巷１０２號","OBJECTID":384877},"geometry":{"x":179644.63000000175,"y":2548263.25}},{"attributes":{"ID":384888,"DIS_CODE":0,"TOWNNAME":"新化區","LI":"護國里","LIN":"9鄰","STREET":"中山路","SECT":" ","MAREA":" ","LANE":"１１１巷","ALLEY":" ","HOUSE_NO":"６６號","E_COORD97":180330.26000000001,"N_COORD97":2549072.25,"ADDRESS":"中山路１１１巷６６號","OBJECTID":384878},"geometry":{"x":180330.26000000164,"y":2549072.2500000019}},{"attributes":{"ID":384889,"DIS_CODE":0,"TOWNNAME":"新化區","LI":"太平里","LIN":"9鄰","STREET":"中正路","SECT":" ","MAREA":" ","LANE":"６８６巷","ALLEY":" ","HOUSE_NO":"５號","E_COORD97":178638.51000000001,"N_COORD97":2549591.25,"ADDRESS":"中正路６８６巷５號","OBJECTID":384879},"geometry":{"x":178638.51000000164,"y":2549591.25}},{"attributes":{"ID":384890,"DIS_CODE":0,"TOWNNAME":"新化區","LI":"東榮里","LIN":"9鄰","STREET":"信義路","SECT":" ","MAREA":" ","LANE":"１３１巷","ALLEY":" ","HOUSE_NO":"６０號","E_COORD97":179636.57999999999,"N_COORD97":2548302.25,"ADDRESS":"信義路１３１巷６０號","OBJECTID":384880},"geometry":{"x":179636.58000000007,"y":2548302.2500000019}},{"attributes":{"ID":384891,"DIS_CODE":0,"TOWNNAME":"新化區","LI":"東榮里","LIN":"9鄰","STREET":"信義路","SECT":" ","MAREA":" ","LANE":"１３１巷","ALLEY":" ","HOUSE_NO":"５４號","E_COORD97":179660.98000000001,"N_COORD97":2548308.25,"ADDRESS":"信義路１３１巷５４號","OBJECTID":384881},"geometry":{"x":179660.98000000045,"y":2548308.2500000037}},{"attributes":{"ID":384892,"DIS_CODE":0,"TOWNNAME":"新化區","LI":"東榮里","LIN":"9鄰","STREET":"信義路","SECT":" ","MAREA":" ","LANE":"１３１巷","ALLEY":" ","HOUSE_NO":"４８號","E_COORD97":179658.38,"N_COORD97":2548326.25,"ADDRESS":"信義路１３１巷４８號","OBJECTID":384882},"geometry":{"x":179658.38000000082,"y":2548326.2500000019}},{"attributes":{"ID":384893,"DIS_CODE":0,"TOWNNAME":"新化區","LI":"東榮里","LIN":"9鄰","STREET":"信義路","SECT":" ","MAREA":" ","LANE":"１３１巷","ALLEY":" ","HOUSE_NO":"５８號","E_COORD97":179640.17999999999,"N_COORD97":2548303.25,"ADDRESS":"信義路１３１巷５８號","OBJECTID":384883},"geometry":{"x":179640.1799999997,"y":2548303.25}},{"attributes":{"ID":384894,"DIS_CODE":0,"TOWNNAME":"新化區","LI":"東榮里","LIN":"9鄰","STREET":"信義路","SECT":" ","MAREA":" ","LANE":"１３１巷","ALLEY":" ","HOUSE_NO":"１２０號","E_COORD97":179667.03,"N_COORD97":2548231.25,"ADDRESS":"信義路１３１巷１２０號","OBJECTID":384884},"geometry":{"x":179667.03000000026,"y":2548231.2500000019}},{"attributes":{"ID":384895,"DIS_CODE":0,"TOWNNAME":"永康區","LI":"\u25A0洲里","LIN":"4鄰","STREET":"\u25A0洲二街","SECT":" ","MAREA":" ","LANE":"１１１巷","ALLEY":" ","HOUSE_NO":"１０號","E_COORD97":171600.01999999999,"N_COORD97":2549336.75,"ADDRESS":"\u25A0洲二街１１１巷１０號","OBJECTID":384885},"geometry":{"x":171600.02000000048,"y":2549336.7500000019}},{"attributes":{"ID":384896,"DIS_CODE":0,"TOWNNAME":"永康區","LI":"永康里","LIN":" ","STREET":"永信路","SECT":" ","MAREA":" ","LANE":"５８巷","ALLEY":" ","HOUSE_NO":"６２之１２號","E_COORD97":174165.70999999999,"N_COORD97":2546477.71,"ADDRESS":"永信路５８巷６２之１２號","OBJECTID":384886},"geometry":{"x":174165.71000000089,"y":2546477.7100000009}},{"attributes":{"ID":384897,"DIS_CODE":0,"TOWNNAME":"永康區","LI":"東橋里","LIN":" ","STREET":"中山南路","SECT":" ","MAREA":" ","LANE":"４７１巷","ALLEY":" ","HOUSE_NO":"１４號","E_COORD97":172940.31,"N_COORD97":2547003.0499999998,"ADDRESS":"中山南路４７１巷１４號","OBJECTID":384887},"geometry":{"x":172940.31000000145,"y":2547003.0500000026}},{"attributes":{"ID":384898,"DIS_CODE":0,"TOWNNAME":"永康區","LI":"正強里","LIN":"9鄰","STREET":"正義街","SECT":" ","MAREA":" ","LANE":"１２６巷","ALLEY":" ","HOUSE_NO":"１８號","E_COORD97":173389.89999999999,"N_COORD97":2547600.0099999998,"ADDRESS":"正義街１２６巷１８號","OBJECTID":384888},"geometry":{"x":173389.90000000224,"y":2547600.0099999998}},{"attributes":{"ID":384899,"DIS_CODE":0,"TOWNNAME":"新化區","LI":"東榮里","LIN":"9鄰","STREET":"信義路","SECT":" ","MAREA":" ","LANE":"１３１巷","ALLEY":" ","HOUSE_NO":"８２號","E_COORD97":179641.88,"N_COORD97":2548291.25,"ADDRESS":"信義路１３１巷８２號","OBJECTID":384889},"geometry":{"x":179641.88000000082,"y":2548291.2500000037}},{"attributes":{"ID":384900,"DIS_CODE":0,"TOWNNAME":"新化區","LI":"護國里","LIN":"9鄰","STREET":"中山路","SECT":" ","MAREA":" ","LANE":"１１１巷","ALLEY":" ","HOUSE_NO":"２號","E_COORD97":179695.81,"N_COORD97":2549142.25,"ADDRESS":"中山路１１１巷２號","OBJECTID":384890},"geometry":{"x":179695.81000000145,"y":2549142.2500000037}},{"attributes":{"ID":384901,"DIS_CODE":0,"TOWNNAME":"新化區","LI":"東榮里","LIN":"9鄰","STREET":"信義路","SECT":" ","MAREA":" ","LANE":"１３１巷","ALLEY":" ","HOUSE_NO":"９４號","E_COORD97":179665.88,"N_COORD97":2548273.25,"ADDRESS":"信義路１３１巷９４號","OBJECTID":384891},"geometry":{"x":179665.87999999989,"y":2548273.25}},{"attributes":{"ID":384902,"DIS_CODE":0,"TOWNNAME":"新化區","LI":"東榮里","LIN":"9鄰","STREET":"信義路","SECT":" ","MAREA":" ","LANE":"１３１巷","ALLEY":" ","HOUSE_NO":"５６號","E_COORD97":179644.17999999999,"N_COORD97":2548303.25,"ADDRESS":"信義路１３１巷５６號","OBJECTID":384892},"geometry":{"x":179644.18000000156,"y":2548303.25}},{"attributes":{"ID":384903,"DIS_CODE":0,"TOWNNAME":"新化區","LI":"東榮里","LIN":"9鄰","STREET":"信義路","SECT":" ","MAREA":" ","LANE":"１３１巷","ALLEY":" ","HOUSE_NO":"１１０號","E_COORD97":179669.53,"N_COORD97":2548253.25,"ADDRESS":"信義路１３１巷１１０號","OBJECTID":384893},"geometry":{"x":179669.53000000212,"y":2548253.25}},{"attributes":{"ID":384904,"DIS_CODE":0,"TOWNNAME":"新化區","LI":"東榮里","LIN":"9鄰","STREET":"信義路","SECT":" ","MAREA":" ","LANE":"１３１巷","ALLEY":" ","HOUSE_NO":"８０號","E_COORD97":179637.78,"N_COORD97":2548291.25,"ADDRESS":"信義路１３１巷８０號","OBJECTID":384894},"geometry":{"x":179637.78000000119,"y":2548291.2500000037}},{"attributes":{"ID":384905,"DIS_CODE":0,"TOWNNAME":"新化區","LI":"東榮里","LIN":"9鄰","STREET":"信義路","SECT":" ","MAREA":" ","LANE":"１３１巷","ALLEY":" ","HOUSE_NO":"８４號","E_COORD97":179644.28,"N_COORD97":2548292.25,"ADDRESS":"信義路１３１巷８４號","OBJECTID":384895},"geometry":{"x":179644.28000000119,"y":2548292.2500000019}},{"attributes":{"ID":384906,"DIS_CODE":0,"TOWNNAME":"新化區","LI":"東榮里","LIN":"9鄰","STREET":"信義路","SECT":" ","MAREA":" ","LANE":"１３１巷","ALLEY":" ","HOUSE_NO":"７４號","E_COORD97":179622.17999999999,"N_COORD97":2548305.25,"ADDRESS":"信義路１３１巷７４號","OBJECTID":384896},"geometry":{"x":179622.18000000156,"y":2548305.2500000019}},{"attributes":{"ID":384907,"DIS_CODE":0,"TOWNNAME":"新化區","LI":"東榮里","LIN":"9鄰","STREET":"信義路","SECT":" ","MAREA":" ","LANE":"１３１巷","ALLEY":" ","HOUSE_NO":"１１８號","E_COORD97":179667.42999999999,"N_COORD97":2548235.25,"ADDRESS":"信義路１３１巷１１８號","OBJECTID":384897},"geometry":{"x":179667.4299999997,"y":2548235.25}},{"attributes":{"ID":384908,"DIS_CODE":0,"TOWNNAME":"新化區","LI":"太平里","LIN":"9鄰","STREET":"中正路","SECT":" ","MAREA":" ","LANE":"６８６巷","ALLEY":" ","HOUSE_NO":"２１號","E_COORD97":178659.26000000001,"N_COORD97":2549579.25,"ADDRESS":"中正路６８６巷２１號","OBJECTID":384898},"geometry":{"x":178659.26000000071,"y":2549579.2500000037}},{"attributes":{"ID":384909,"DIS_CODE":0,"TOWNNAME":"新化區","LI":"東榮里","LIN":"9鄰","STREET":"信義路","SECT":" ","MAREA":" ","LANE":"１３１巷","ALLEY":" ","HOUSE_NO":"７８號","E_COORD97":179633.38,"N_COORD97":2548290.25,"ADDRESS":"信義路１３１巷７８號","OBJECTID":384899},"geometry":{"x":179633.38000000082,"y":2548290.25}},{"attributes":{"ID":384910,"DIS_CODE":0,"TOWNNAME":"新化區","LI":"武安里","LIN":"9鄰","STREET":"大同街","SECT":" ","MAREA":" ","LANE":"４９巷","ALLEY":" ","HOUSE_NO":"２號之３","E_COORD97":178967.63,"N_COORD97":2548186.2599999998,"ADDRESS":"大同街４９巷２號之３","OBJECTID":384900},"geometry":{"x":178967.62999999989,"y":2548186.2600000016}},{"attributes":{"ID":384911,"DIS_CODE":0,"TOWNNAME":"新化區","LI":"武安里","LIN":"9鄰","STREET":"大同街","SECT":" ","MAREA":" ","LANE":"４９巷","ALLEY":" ","HOUSE_NO":"２號之１","E_COORD97":178975.01000000001,"N_COORD97":2548187.2599999998,"ADDRESS":"大同街４９巷２號之１","OBJECTID":384901},"geometry":{"x":178975.00999999978,"y":2548187.2600000016}},{"attributes":{"ID":384912,"DIS_CODE":0,"TOWNNAME":"新化區","LI":"武安里","LIN":"9鄰","STREET":"大同街","SECT":" ","MAREA":" ","LANE":"４９巷","ALLEY":" ","HOUSE_NO":"３號","E_COORD97":178956.88,"N_COORD97":2548175.25,"ADDRESS":"大同街４９巷３號","OBJECTID":384902},"geometry":{"x":178956.88000000082,"y":2548175.25}},{"attributes":{"ID":384913,"DIS_CODE":0,"TOWNNAME":"新化區","LI":"武安里","LIN":"9鄰","STREET":"大同街","SECT":" ","MAREA":" ","LANE":"９１巷","ALLEY":" ","HOUSE_NO":"８號","E_COORD97":178956.67999999999,"N_COORD97":2548253.25,"ADDRESS":"大同街９１巷８號","OBJECTID":384903},"geometry":{"x":178956.68000000063,"y":2548253.25}},{"attributes":{"ID":384914,"DIS_CODE":0,"TOWNNAME":"新化區","LI":"武安里","LIN":"9鄰","STREET":"大同街","SECT":" ","MAREA":" ","LANE":"４９巷","ALLEY":" ","HOUSE_NO":"１號","E_COORD97":178957.48000000001,"N_COORD97":2548171.25,"ADDRESS":"大同街４９巷１號","OBJECTID":384904},"geometry":{"x":178957.48000000045,"y":2548171.25}},{"attributes":{"ID":384915,"DIS_CODE":0,"TOWNNAME":"新化區","LI":"武安里","LIN":"9鄰","STREET":"大同街","SECT":" ","MAREA":" ","LANE":"４９巷","ALLEY":" ","HOUSE_NO":"７號","E_COORD97":178955.07999999999,"N_COORD97":2548185.25,"ADDRESS":"大同街４９巷７號","OBJECTID":384905},"geometry":{"x":178955.08000000007,"y":2548185.25}},{"attributes":{"ID":384918,"DIS_CODE":0,"TOWNNAME":"安平區","LI":"平安里","LIN":"9鄰","STREET":"安平路","SECT":" ","MAREA":" ","LANE":"４２６巷","ALLEY":" ","HOUSE_NO":"３４號之３","E_COORD97":165396.070928,"N_COORD97":2544401.8833699999,"ADDRESS":"安平路４２６巷３４號之３","OBJECTID":384906},"geometry":{"x":165396.07092800085,"y":2544401.8833660018}},{"attributes":{"ID":384919,"DIS_CODE":0,"TOWNNAME":"永康區","LI":"東橋里","LIN":" ","STREET":"自強路","SECT":" ","MAREA":" ","LANE":"１１８巷","ALLEY":" ","HOUSE_NO":"２０號","E_COORD97":172941.60999999999,"N_COORD97":2547310.9900000002,"ADDRESS":"自強路１１８巷２０號","OBJECTID":384907},"geometry":{"x":172941.61000000127,"y":2547310.9900000021}},{"attributes":{"ID":384920,"DIS_CODE":0,"TOWNNAME":"永康區","LI":"尚頂里","LIN":" ","STREET":"國聖街","SECT":" ","MAREA":" ","LANE":"４３巷","ALLEY":" ","HOUSE_NO":"１９號","E_COORD97":170353.91,"N_COORD97":2547831.9900000002,"ADDRESS":"國聖街４３巷１９號","OBJECTID":384908},"geometry":{"x":170353.91000000108,"y":2547831.9900000039}},{"attributes":{"ID":384921,"DIS_CODE":0,"TOWNNAME":"永康區","LI":"永康里","LIN":" ","STREET":"永信路","SECT":" ","MAREA":" ","LANE":"５８巷","ALLEY":" ","HOUSE_NO":"６２之１６號","E_COORD97":174142.39000000001,"N_COORD97":2546470.96,"ADDRESS":"永信路５８巷６２之１６號","OBJECTID":384909},"geometry":{"x":174142.3900000006,"y":2546470.9600000028}},{"attributes":{"ID":384934,"DIS_CODE":0,"TOWNNAME":"永康區","LI":"安康里","LIN":"9鄰","STREET":"中山南路","SECT":" ","MAREA":" ","LANE":"９５巷","ALLEY":" ","HOUSE_NO":"５之１號","E_COORD97":170864.98999999999,"N_COORD97":2545949.0800000001,"ADDRESS":"中山南路９５巷５之１號","OBJECTID":384910},"geometry":{"x":170864.99000000209,"y":2545949.0800000001}},{"attributes":{"ID":384935,"DIS_CODE":0,"TOWNNAME":"永康區","LI":"安康里","LIN":"9鄰","STREET":"中山南路","SECT":" ","MAREA":" ","LANE":"９５巷","ALLEY":" ","HOUSE_NO":"３號","E_COORD97":170866.89999999999,"N_COORD97":2545945.5600000001,"ADDRESS":"中山南路９５巷３號","OBJECTID":384911},"geometry":{"x":170866.90000000037,"y":2545945.5600000005}},{"attributes":{"ID":384936,"DIS_CODE":0,"TOWNNAME":"永康區","LI":"光復里","LIN":"9鄰","STREET":"復國路","SECT":" ","MAREA":" ","LANE":"５３巷","ALLEY":" ","HOUSE_NO":"１８６號","E_COORD97":172443.35000000001,"N_COORD97":2544441.9500000002,"ADDRESS":"復國路５３巷１８６號","OBJECTID":384912},"geometry":{"x":172443.3499999987,"y":2544441.9500000011}},{"attributes":{"ID":384937,"DIS_CODE":0,"TOWNNAME":"永康區","LI":"光復里","LIN":"9鄰","STREET":"復國路","SECT":" ","MAREA":" ","LANE":"６１巷","ALLEY":" ","HOUSE_NO":"１３１號","E_COORD97":172456.92000000001,"N_COORD97":2544469.2599999998,"ADDRESS":"復國路６１巷１３１號","OBJECTID":384913},"geometry":{"x":172456.92000000179,"y":2544469.2599999998}},{"attributes":{"ID":384938,"DIS_CODE":0,"TOWNNAME":"歸仁區","LI":"許厝里","LIN":"9鄰","STREET":"仁愛南街","SECT":" ","MAREA":" ","LANE":"５６巷","ALLEY":" ","HOUSE_NO":"５７號","E_COORD97":178185.92999999999,"N_COORD97":2540498.4100000001,"ADDRESS":"仁愛南街５６巷５７號","OBJECTID":384914},"geometry":{"x":178185.9299999997,"y":2540498.4100000001}},{"attributes":{"ID":384939,"DIS_CODE":0,"TOWNNAME":"歸仁區","LI":"許厝里","LIN":"9鄰","STREET":"信義南路","SECT":" ","MAREA":" ","LANE":"１２７巷","ALLEY":" ","HOUSE_NO":"１９號","E_COORD97":178204.84,"N_COORD97":2540436.3900000001,"ADDRESS":"信義南路１２７巷１９號","OBJECTID":384915},"geometry":{"x":178204.83999999985,"y":2540436.3900000025}},{"attributes":{"ID":384940,"DIS_CODE":0,"TOWNNAME":"歸仁區","LI":"許厝里","LIN":"9鄰","STREET":"信義男路","SECT":" ","MAREA":" ","LANE":"１２７巷","ALLEY":" ","HOUSE_NO":"２１號","E_COORD97":178209.29000000001,"N_COORD97":2540437.4500000002,"ADDRESS":"信義男路１２７巷２１號","OBJECTID":384916},"geometry":{"x":178209.29000000004,"y":2540437.4500000011}},{"attributes":{"ID":384941,"DIS_CODE":0,"TOWNNAME":"新營區","LI":"延平里","LIN":"9鄰","STREET":"復興路","SECT":" ","MAREA":" ","LANE":"２９巷","ALLEY":" ","HOUSE_NO":"１８之２號","E_COORD97":179664.01999999999,"N_COORD97":2577943.29,"ADDRESS":"復興路２９巷１８之２號","OBJECTID":384917},"geometry":{"x":179664.02000000048,"y":2577943.290000001}},{"attributes":{"ID":384942,"DIS_CODE":0,"TOWNNAME":"新營區","LI":"延平里","LIN":"9鄰","STREET":"復興路","SECT":" ","MAREA":" ","LANE":"２９巷","ALLEY":" ","HOUSE_NO":"１８之３號","E_COORD97":179662.32999999999,"N_COORD97":2577941.3799999999,"ADDRESS":"復興路２９巷１８之３號","OBJECTID":384918},"geometry":{"x":179662.33000000101,"y":2577941.3800000027}},{"attributes":{"ID":384943,"DIS_CODE":0,"TOWNNAME":"下營區","LI":"新興里","LIN":"9鄰","STREET":"自由街","SECT":" ","MAREA":" ","LANE":"２１巷","ALLEY":" ","HOUSE_NO":"１２號","E_COORD97":174746.95999999999,"N_COORD97":2570690.5600000001,"ADDRESS":"自由街２１巷１２號","OBJECTID":384919},"geometry":{"x":174746.96000000089,"y":2570690.5600000024}},{"attributes":{"ID":384944,"DIS_CODE":0,"TOWNNAME":"永康區","LI":"\u25A0洲里","LIN":"31鄰","STREET":"洲尾街","SECT":" ","MAREA":" ","LANE":"３１９巷","ALLEY":" ","HOUSE_NO":"４１號","E_COORD97":171016.59,"N_COORD97":2549202.2799999998,"ADDRESS":"洲尾街３１９巷４１號","OBJECTID":384920},"geometry":{"x":171016.59000000078,"y":2549202.2800000031}},{"attributes":{"ID":384945,"DIS_CODE":0,"TOWNNAME":"玉井區","LI":"竹圍里","LIN":"9鄰","STREET":"\u25A0吧哖東路","SECT":" ","MAREA":" ","LANE":"２０７巷","ALLEY":" ","HOUSE_NO":"１６號","E_COORD97":196087.09,"N_COORD97":2558975.21,"ADDRESS":"\u25A0吧哖東路２０７巷１６號","OBJECTID":384921},"geometry":{"x":196087.09000000078,"y":2558975.2100000046}},{"attributes":{"ID":384946,"DIS_CODE":0,"TOWNNAME":"玉井區","LI":"竹圍里","LIN":"9鄰","STREET":"\u25A0吧哖東路","SECT":" ","MAREA":" ","LANE":"２０７巷","ALLEY":" ","HOUSE_NO":"１８號","E_COORD97":196087.20999999999,"N_COORD97":2558980.1899999999,"ADDRESS":"\u25A0吧哖東路２０７巷１８號","OBJECTID":384922},"geometry":{"x":196087.20999999996,"y":2558980.1899999995}},{"attributes":{"ID":384947,"DIS_CODE":0,"TOWNNAME":"安南區","LI":"新順里","LIN":"9鄰","STREET":"安生街","SECT":" ","MAREA":" ","LANE":"１４７巷","ALLEY":" ","HOUSE_NO":"５號","E_COORD97":169436.20999999999,"N_COORD97":2549511.7200000002,"ADDRESS":"安生街１４７巷５號","OBJECTID":384923},"geometry":{"x":169436.21000000089,"y":2549511.7200000007}},{"attributes":{"ID":384948,"DIS_CODE":0,"TOWNNAME":"玉井區","LI":"竹圍里","LIN":"9鄰","STREET":"\u25A0吧哖東路","SECT":" ","MAREA":" ","LANE":"２０７巷","ALLEY":" ","HOUSE_NO":"２號","E_COORD97":196085.14000000001,"N_COORD97":2558951.96,"ADDRESS":"\u25A0吧哖東路２０７巷２號","OBJECTID":384924},"geometry":{"x":196085.1400000006,"y":2558951.9600000009}},{"attributes":{"ID":384949,"DIS_CODE":0,"TOWNNAME":"白河區","LI":"外角里","LIN":"13鄰","STREET":"三民路","SECT":" ","MAREA":" ","LANE":" ","ALLEY":" ","HOUSE_NO":"２３８號","E_COORD97":190805.48999999999,"N_COORD97":2583313.3700000001,"ADDRESS":"三民路２３８號","OBJECTID":384925},"geometry":{"x":190805.49000000209,"y":2583313.370000001}},{"attributes":{"ID":384950,"DIS_CODE":0,"TOWNNAME":"玉井區","LI":"竹圍里","LIN":"9鄰","STREET":"\u25A0吧哖東路","SECT":" ","MAREA":" ","LANE":"２０７巷","ALLEY":" ","HOUSE_NO":"１０號","E_COORD97":196086.54000000001,"N_COORD97":2558965.46,"ADDRESS":"\u25A0吧哖東路２０７巷１０號","OBJECTID":384926},"geometry":{"x":196086.54000000004,"y":2558965.4600000009}},{"attributes":{"ID":384951,"DIS_CODE":0,"TOWNNAME":"玉井區","LI":"竹圍里","LIN":"9鄰","STREET":"\u25A0吧哖東路","SECT":" ","MAREA":" ","LANE":"２０７巷","ALLEY":" ","HOUSE_NO":"８號","E_COORD97":196085.26999999999,"N_COORD97":2558960.2599999998,"ADDRESS":"\u25A0吧哖東路２０７巷８號","OBJECTID":384927},"geometry":{"x":196085.27000000048,"y":2558960.2600000035}},{"attributes":{"ID":384952,"DIS_CODE":0,"TOWNNAME":"玉井區","LI":"竹圍里","LIN":"9鄰","STREET":"\u25A0吧哖東路","SECT":" ","MAREA":" ","LANE":"２０７巷","ALLEY":" ","HOUSE_NO":"６號","E_COORD97":196085.16,"N_COORD97":2558955.9399999999,"ADDRESS":"\u25A0吧哖東路２０７巷６號","OBJECTID":384928},"geometry":{"x":196085.16000000108,"y":2558955.9400000013}},{"attributes":{"ID":384953,"DIS_CODE":0,"TOWNNAME":"玉井區","LI":"竹圍里","LIN":"9鄰","STREET":"\u25A0吧哖東路","SECT":" ","MAREA":" ","LANE":"２０７巷","ALLEY":" ","HOUSE_NO":"１２號","E_COORD97":196086.66,"N_COORD97":2558970.3399999999,"ADDRESS":"\u25A0吧哖東路２０７巷１２號","OBJECTID":384929},"geometry":{"x":196086.66000000108,"y":2558970.3400000017}},{"attributes":{"ID":384954,"DIS_CODE":0,"TOWNNAME":"南區","LI":"文華里","LIN":"9鄰","STREET":"金華路","SECT":"二段","MAREA":" ","LANE":"３４５巷","ALLEY":" ","HOUSE_NO":"４０號","E_COORD97":167013.14999999999,"N_COORD97":2542940.5499999998,"ADDRESS":"金華路二段３４５巷４０號","OBJECTID":384930},"geometry":{"x":167013.1500000013,"y":2542940.5500000026}},{"attributes":{"ID":384955,"DIS_CODE":0,"TOWNNAME":"南區","LI":"文華里","LIN":"9鄰","STREET":"金華路","SECT":"二段","MAREA":" ","LANE":"３４５巷","ALLEY":" ","HOUSE_NO":"４２號","E_COORD97":167009.01999999999,"N_COORD97":2542941.8100000001,"ADDRESS":"金華路二段３４５巷４２號","OBJECTID":384931},"geometry":{"x":167009.01999999862,"y":2542941.8100000024}},{"attributes":{"ID":384956,"DIS_CODE":0,"TOWNNAME":"南區","LI":"日新里","LIN":"9鄰","STREET":"金華路","SECT":"一段","MAREA":" ","LANE":"５０３巷","ALLEY":" ","HOUSE_NO":"１０５號","E_COORD97":166862.97,"N_COORD97":2541543.0499999998,"ADDRESS":"金華路一段５０３巷１０５號","OBJECTID":384932},"geometry":{"x":166862.97000000067,"y":2541543.0500000045}},{"attributes":{"ID":384957,"DIS_CODE":0,"TOWNNAME":"南區","LI":"日新里","LIN":"9鄰","STREET":"金華路","SECT":"一段","MAREA":" ","LANE":"５０３巷","ALLEY":" ","HOUSE_NO":"１０７號","E_COORD97":166866.79999999999,"N_COORD97":2541546.2000000002,"ADDRESS":"金華路一段５０３巷１０７號","OBJECTID":384933},"geometry":{"x":166866.80000000168,"y":2541546.1999999993}},{"attributes":{"ID":384958,"DIS_CODE":0,"TOWNNAME":"南區","LI":"日新里","LIN":"9鄰","STREET":"金華路","SECT":"一段","MAREA":" ","LANE":"５０３巷","ALLEY":" ","HOUSE_NO":"１０９號","E_COORD97":166869.44,"N_COORD97":2541549.6800000002,"ADDRESS":"金華路一段５０３巷１０９號","OBJECTID":384934},"geometry":{"x":166869.44000000041,"y":2541549.6799999997}},{"attributes":{"ID":384959,"DIS_CODE":0,"TOWNNAME":"南區","LI":"日新里","LIN":"9鄰","STREET":"金華路","SECT":"一段","MAREA":" ","LANE":"５０３巷","ALLEY":" ","HOUSE_NO":"１１１號","E_COORD97":166872.57999999999,"N_COORD97":2541553.8500000001,"ADDRESS":"金華路一段５０３巷１１１號","OBJECTID":384935},"geometry":{"x":166872.58000000101,"y":2541553.8500000015}},{"attributes":{"ID":384960,"DIS_CODE":0,"TOWNNAME":"南區","LI":"日新里","LIN":"9鄰","STREET":"金華路","SECT":"一段","MAREA":" ","LANE":"５０３巷","ALLEY":" ","HOUSE_NO":"１１３號","E_COORD97":166876.16,"N_COORD97":2541557.7599999998,"ADDRESS":"金華路一段５０３巷１１３號","OBJECTID":384936},"geometry":{"x":166876.16000000015,"y":2541557.7600000016}},{"attributes":{"ID":384961,"DIS_CODE":0,"TOWNNAME":"南區","LI":"日新里","LIN":"9鄰","STREET":"金華路","SECT":"一段","MAREA":" ","LANE":"５０３巷","ALLEY":" ","HOUSE_NO":"１１５號","E_COORD97":166879.04999999999,"N_COORD97":2541560.8199999998,"ADDRESS":"金華路一段５０３巷１１５號","OBJECTID":384937},"geometry":{"x":166879.05000000075,"y":2541560.8199999984}},{"attributes":{"ID":384962,"DIS_CODE":0,"TOWNNAME":"南區","LI":"日新里","LIN":"9鄰","STREET":"金華路","SECT":"一段","MAREA":" ","LANE":"５０３巷","ALLEY":" ","HOUSE_NO":"１１７號","E_COORD97":166882.20000000001,"N_COORD97":2541564.4700000002,"ADDRESS":"金華路一段５０３巷１１７號","OBJECTID":384938},"geometry":{"x":166882.20000000112,"y":2541564.4700000025}},{"attributes":{"ID":384963,"DIS_CODE":0,"TOWNNAME":"南區","LI":"日新里","LIN":"9鄰","STREET":"金華路","SECT":"一段","MAREA":" ","LANE":"５０３巷","ALLEY":" ","HOUSE_NO":"１１９號","E_COORD97":166886.28,"N_COORD97":2541568.2200000002,"ADDRESS":"金華路一段５０３巷１１９號","OBJECTID":384939},"geometry":{"x":166886.28000000119,"y":2541568.2200000007}},{"attributes":{"ID":384964,"DIS_CODE":0,"TOWNNAME":"南區","LI":"日新里","LIN":"9鄰","STREET":"金華路","SECT":"一段","MAREA":" ","LANE":"５０３巷","ALLEY":" ","HOUSE_NO":"１２１號","E_COORD97":166889.10000000001,"N_COORD97":2541571.9100000001,"ADDRESS":"金華路一段５０３巷１２１號","OBJECTID":384940},"geometry":{"x":166889.10000000056,"y":2541571.910000002}},{"attributes":{"ID":384965,"DIS_CODE":0,"TOWNNAME":"南區","LI":"日新里","LIN":"9鄰","STREET":"金華路","SECT":"一段","MAREA":" ","LANE":"５０３巷","ALLEY":" ","HOUSE_NO":"１２３號","E_COORD97":166877.62,"N_COORD97":2541582.7000000002,"ADDRESS":"金華路一段５０３巷１２３號","OBJECTID":384941},"geometry":{"x":166877.62000000104,"y":2541582.7000000011}},{"attributes":{"ID":384966,"DIS_CODE":0,"TOWNNAME":"南區","LI":"日新里","LIN":"9鄰","STREET":"金華路","SECT":"一段","MAREA":" ","LANE":"５０３巷","ALLEY":" ","HOUSE_NO":"１２５號","E_COORD97":166873.62,"N_COORD97":2541577.6000000001,"ADDRESS":"金華路一段５０３巷１２５號","OBJECTID":384942},"geometry":{"x":166873.62000000104,"y":2541577.5999999996}},{"attributes":{"ID":384967,"DIS_CODE":0,"TOWNNAME":"南區","LI":"日新里","LIN":"9鄰","STREET":"金華路","SECT":"一段","MAREA":" ","LANE":"５０３巷","ALLEY":" ","HOUSE_NO":"１２７號","E_COORD97":166870.64999999999,"N_COORD97":2541573.9399999999,"ADDRESS":"金華路一段５０３巷１２７號","OBJECTID":384943},"geometry":{"x":166870.6500000013,"y":2541573.9400000013}},{"attributes":{"ID":384968,"DIS_CODE":0,"TOWNNAME":"南區","LI":"日新里","LIN":"9鄰","STREET":"金華路","SECT":"一段","MAREA":" ","LANE":"５０３巷","ALLEY":" ","HOUSE_NO":"１２９號","E_COORD97":166867.32999999999,"N_COORD97":2541570.9700000002,"ADDRESS":"金華路一段５０３巷１２９號","OBJECTID":384944},"geometry":{"x":166867.33000000101,"y":2541570.9700000025}},{"attributes":{"ID":384969,"DIS_CODE":0,"TOWNNAME":"南區","LI":"日新里","LIN":"9鄰","STREET":"金華路","SECT":"一段","MAREA":" ","LANE":"５０３巷","ALLEY":" ","HOUSE_NO":"１３１號","E_COORD97":166864.35000000001,"N_COORD97":2541567.0600000001,"ADDRESS":"金華路一段５０３巷１３１號","OBJECTID":384945},"geometry":{"x":166864.34999999963,"y":2541567.0600000024}},{"attributes":{"ID":384970,"DIS_CODE":0,"TOWNNAME":"南區","LI":"日新里","LIN":"9鄰","STREET":"金華路","SECT":"一段","MAREA":" ","LANE":"５０３巷","ALLEY":" ","HOUSE_NO":"１３３號","E_COORD97":166861.79999999999,"N_COORD97":2541563.23,"ADDRESS":"金華路一段５０３巷１３３號","OBJECTID":384946},"geometry":{"x":166861.80000000168,"y":2541563.2300000023}},{"attributes":{"ID":384971,"DIS_CODE":0,"TOWNNAME":"南區","LI":"日新里","LIN":"9鄰","STREET":"金華路","SECT":"一段","MAREA":" ","LANE":"５０３巷","ALLEY":" ","HOUSE_NO":"１３５號","E_COORD97":166858.14000000001,"N_COORD97":2541559.6600000001,"ADDRESS":"金華路一段５０３巷１３５號","OBJECTID":384947},"geometry":{"x":166858.1400000006,"y":2541559.660000002}},{"attributes":{"ID":384972,"DIS_CODE":0,"TOWNNAME":"南區","LI":"日新里","LIN":"9鄰","STREET":"金華路","SECT":"一段","MAREA":" ","LANE":"５０３巷","ALLEY":" ","HOUSE_NO":"１３７號","E_COORD97":166855.67000000001,"N_COORD97":2541556.6800000002,"ADDRESS":"金華路一段５０３巷１３７號","OBJECTID":384948},"geometry":{"x":166855.66999999993,"y":2541556.6799999997}},{"attributes":{"ID":384973,"DIS_CODE":0,"TOWNNAME":"永康區","LI":"\u25A0洲里","LIN":"37鄰","STREET":"\u25A0洲二街","SECT":" ","MAREA":" ","LANE":"１９７巷","ALLEY":" ","HOUSE_NO":"１０號","E_COORD97":171745.5,"N_COORD97":2549472.4900000002,"ADDRESS":"\u25A0洲二街１９７巷１０號","OBJECTID":384949},"geometry":{"x":171745.5,"y":2549472.4900000002}},{"attributes":{"ID":384974,"DIS_CODE":0,"TOWNNAME":"永康區","LI":"\u25A0洲里","LIN":"38鄰","STREET":"\u25A0行路","SECT":" ","MAREA":" ","LANE":"１８８巷","ALLEY":" ","HOUSE_NO":"５號","E_COORD97":171310.51000000001,"N_COORD97":2549230.6099999999,"ADDRESS":"\u25A0行路１８８巷５號","OBJECTID":384950},"geometry":{"x":171310.51000000071,"y":2549230.6100000031}},{"attributes":{"ID":384975,"DIS_CODE":0,"TOWNNAME":"南區","LI":"日新里","LIN":"9鄰","STREET":"金華路","SECT":"一段","MAREA":" ","LANE":"５０３巷","ALLEY":" ","HOUSE_NO":"９１號","E_COORD97":166895.91,"N_COORD97":2541565.7799999998,"ADDRESS":"金華路一段５０３巷９１號","OBJECTID":384951},"geometry":{"x":166895.91000000108,"y":2541565.7799999993}},{"attributes":{"ID":384976,"DIS_CODE":0,"TOWNNAME":"南區","LI":"日新里","LIN":"9鄰","STREET":"金華路","SECT":"一段","MAREA":" ","LANE":"５０３巷","ALLEY":" ","HOUSE_NO":"９３號","E_COORD97":166894.04000000001,"N_COORD97":2541561.5299999998,"ADDRESS":"金華路一段５０３巷９３號","OBJECTID":384952},"geometry":{"x":166894.04000000004,"y":2541561.5299999993}},{"attributes":{"ID":384977,"DIS_CODE":0,"TOWNNAME":"南區","LI":"日新里","LIN":"9鄰","STREET":"金華路","SECT":"一段","MAREA":" ","LANE":"５０３巷","ALLEY":" ","HOUSE_NO":"９５號","E_COORD97":166891.06,"N_COORD97":2541558.0499999998,"ADDRESS":"金華路一段５０３巷９５號","OBJECTID":384953},"geometry":{"x":166891.06000000052,"y":2541558.0500000026}},{"attributes":{"ID":384978,"DIS_CODE":0,"TOWNNAME":"南區","LI":"日新里","LIN":"9鄰","STREET":"金華路","SECT":"一段","MAREA":" ","LANE":"５０３巷","ALLEY":" ","HOUSE_NO":"９７號","E_COORD97":166886.64000000001,"N_COORD97":2541554.0499999998,"ADDRESS":"金華路一段５０３巷９７號","OBJECTID":384954},"geometry":{"x":166886.6400000006,"y":2541554.0500000026}},{"attributes":{"ID":384979,"DIS_CODE":0,"TOWNNAME":"南區","LI":"日新里","LIN":"9鄰","STREET":"金華路","SECT":"一段","MAREA":" ","LANE":"５０３巷","ALLEY":" ","HOUSE_NO":"９９號","E_COORD97":166885.01000000001,"N_COORD97":2541550.27,"ADDRESS":"金華路一段５０３巷９９號","OBJECTID":384955},"geometry":{"x":166885.00999999978,"y":2541550.2700000033}},{"attributes":{"ID":384980,"DIS_CODE":0,"TOWNNAME":"南區","LI":"田寮里","LIN":"9鄰","STREET":"新興路","SECT":" ","MAREA":" ","LANE":"１６１巷","ALLEY":" ","HOUSE_NO":"９號","E_COORD97":167469.28,"N_COORD97":2542026.8900000001,"ADDRESS":"新興路１６１巷９號","OBJECTID":384956},"geometry":{"x":167469.28000000212,"y":2542026.8900000025}},{"attributes":{"ID":384981,"DIS_CODE":0,"TOWNNAME":"南區","LI":"田寮里","LIN":"9鄰","STREET":"新興路","SECT":" ","MAREA":" ","LANE":"１６１巷","ALLEY":" ","HOUSE_NO":"１４號","E_COORD97":167487.35999999999,"N_COORD97":2541995.1299999999,"ADDRESS":"新興路１６１巷１４號","OBJECTID":384957},"geometry":{"x":167487.3600000022,"y":2541995.1300000008}},{"attributes":{"ID":384982,"DIS_CODE":0,"TOWNNAME":"南區","LI":"田寮里","LIN":"9鄰","STREET":"新興路","SECT":" ","MAREA":" ","LANE":"１６１巷","ALLEY":" ","HOUSE_NO":"２１號","E_COORD97":167492.04999999999,"N_COORD97":2542010.9300000002,"ADDRESS":"新興路１６１巷２１號","OBJECTID":384958},"geometry":{"x":167492.04999999981,"y":2542010.9300000016}},{"attributes":{"ID":384983,"DIS_CODE":0,"TOWNNAME":"南區","LI":"田寮里","LIN":"9鄰","STREET":"新興路","SECT":" ","MAREA":" ","LANE":"１６１巷","ALLEY":" ","HOUSE_NO":"１９號","E_COORD97":167484.06,"N_COORD97":2542015.4399999999,"ADDRESS":"新興路１６１巷１９號","OBJECTID":384959},"geometry":{"x":167484.06000000052,"y":2542015.4399999995}},{"attributes":{"ID":384984,"DIS_CODE":0,"TOWNNAME":"南區","LI":"田寮里","LIN":"9鄰","STREET":"新興路","SECT":" ","MAREA":" ","LANE":"１６１巷","ALLEY":" ","HOUSE_NO":"４號","E_COORD97":167461.28,"N_COORD97":2541999.4700000002,"ADDRESS":"新興路１６１巷４號","OBJECTID":384960},"geometry":{"x":167461.28000000119,"y":2541999.4700000007}},{"attributes":{"ID":384985,"DIS_CODE":0,"TOWNNAME":"南區","LI":"田寮里","LIN":"9鄰","STREET":"新興路","SECT":" ","MAREA":" ","LANE":"１６１巷","ALLEY":" ","HOUSE_NO":"２號","E_COORD97":167457.41,"N_COORD97":2542014.0800000001,"ADDRESS":"新興路１６１巷２號","OBJECTID":384961},"geometry":{"x":167457.41000000015,"y":2542014.0800000019}},{"attributes":{"ID":384986,"DIS_CODE":0,"TOWNNAME":"永康區","LI":"安康里","LIN":"9鄰","STREET":"中山南路","SECT":" ","MAREA":" ","LANE":"９５巷","ALLEY":" ","HOUSE_NO":"９號","E_COORD97":170861.23999999999,"N_COORD97":2545952.9900000002,"ADDRESS":"中山南路９５巷９號","OBJECTID":384962},"geometry":{"x":170861.24000000022,"y":2545952.9900000002}},{"attributes":{"ID":384987,"DIS_CODE":0,"TOWNNAME":"永康區","LI":"甲頂里","LIN":"9鄰","STREET":"中華路","SECT":" ","MAREA":" ","LANE":"８９７巷","ALLEY":" ","HOUSE_NO":"４號","E_COORD97":170406.01000000001,"N_COORD97":2546698.9900000002,"ADDRESS":"中華路８９７巷４號","OBJECTID":384963},"geometry":{"x":170406.00999999978,"y":2546698.9900000002}},{"attributes":{"ID":384988,"DIS_CODE":0,"TOWNNAME":"永康區","LI":"\u25A0洲里","LIN":"37鄰","STREET":"\u25A0洲二街","SECT":" ","MAREA":" ","LANE":"１９７巷","ALLEY":" ","HOUSE_NO":"５號","E_COORD97":171731.01000000001,"N_COORD97":2549453,"ADDRESS":"\u25A0洲二街１９７巷５號","OBJECTID":384964},"geometry":{"x":171731.01000000071,"y":2549453.0000000019}},{"attributes":{"ID":384989,"DIS_CODE":0,"TOWNNAME":"永康區","LI":"甲頂里","LIN":"9鄰","STREET":"中華路","SECT":" ","MAREA":" ","LANE":"８９９巷","ALLEY":" ","HOUSE_NO":"４號","E_COORD97":170375.26000000001,"N_COORD97":2546730.5,"ADDRESS":"中華路８９９巷４號","OBJECTID":384965},"geometry":{"x":170375.25999999978,"y":2546730.5000000019}},{"attributes":{"ID":384990,"DIS_CODE":0,"TOWNNAME":"永康區","LI":"西橋里","LIN":"9鄰","STREET":"中華西街","SECT":" ","MAREA":" ","LANE":"１２７巷","ALLEY":" ","HOUSE_NO":"２３號","E_COORD97":170594.29000000001,"N_COORD97":2546140.25,"ADDRESS":"中華西街１２７巷２３號","OBJECTID":384966},"geometry":{"x":170594.29000000004,"y":2546140.25}},{"attributes":{"ID":384991,"DIS_CODE":0,"TOWNNAME":"永康區","LI":"甲頂里","LIN":"9鄰","STREET":"中華路","SECT":" ","MAREA":" ","LANE":"８９９巷","ALLEY":" ","HOUSE_NO":"２號","E_COORD97":170378.01000000001,"N_COORD97":2546734.5,"ADDRESS":"中華路８９９巷２號","OBJECTID":384967},"geometry":{"x":170378.01000000071,"y":2546734.5000000019}},{"attributes":{"ID":384992,"DIS_CODE":0,"TOWNNAME":"永康區","LI":"安康里","LIN":"9鄰","STREET":"中華路","SECT":" ","MAREA":" ","LANE":"６１９巷","ALLEY":" ","HOUSE_NO":"７５號","E_COORD97":170838.32000000001,"N_COORD97":2545972.6099999999,"ADDRESS":"中華路６１９巷７５號","OBJECTID":384968},"geometry":{"x":170838.3200000003,"y":2545972.6100000031}},{"attributes":{"ID":384993,"DIS_CODE":0,"TOWNNAME":"中西區","LI":"元安里","LIN":"9鄰","STREET":"國華街","SECT":"二段","MAREA":" ","LANE":"６１巷","ALLEY":" ","HOUSE_NO":"１２號","E_COORD97":167578.20999999999,"N_COORD97":2543321.2799999998,"ADDRESS":"國華街二段６１巷１２號","OBJECTID":384969},"geometry":{"x":167578.21000000089,"y":2543321.2800000012}},{"attributes":{"ID":384994,"DIS_CODE":0,"TOWNNAME":"中西區","LI":"元安里","LIN":"9鄰","STREET":"國華街","SECT":"二段","MAREA":" ","LANE":"６１巷","ALLEY":" ","HOUSE_NO":"２號","E_COORD97":167608.44,"N_COORD97":2543321.4500000002,"ADDRESS":"國華街二段６１巷２號","OBJECTID":384970},"geometry":{"x":167608.44000000041,"y":2543321.4499999993}},{"attributes":{"ID":384995,"DIS_CODE":0,"TOWNNAME":"中西區","LI":"元安里","LIN":"9鄰","STREET":"國華街","SECT":"二段","MAREA":" ","LANE":"６１巷","ALLEY":" ","HOUSE_NO":"６號","E_COORD97":167604.51999999999,"N_COORD97":2543321.7599999998,"ADDRESS":"國華街二段６１巷６號","OBJECTID":384971},"geometry":{"x":167604.52000000048,"y":2543321.7600000016}},{"attributes":{"ID":384996,"DIS_CODE":0,"TOWNNAME":"中西區","LI":"元安里","LIN":"9鄰","STREET":"國華街","SECT":"二段","MAREA":" ","LANE":"６１巷","ALLEY":" ","HOUSE_NO":"８號","E_COORD97":167601.07000000001,"N_COORD97":2543322,"ADDRESS":"國華街二段６１巷８號","OBJECTID":384972},"geometry":{"x":167601.06999999937,"y":2543322}},{"attributes":{"ID":384997,"DIS_CODE":0,"TOWNNAME":"中西區","LI":"元安里","LIN":"9鄰","STREET":"國華街","SECT":"二段","MAREA":" ","LANE":"７１巷","ALLEY":" ","HOUSE_NO":"１１號","E_COORD97":167594.57000000001,"N_COORD97":2543334.1000000001,"ADDRESS":"國華街二段７１巷１１號","OBJECTID":384973},"geometry":{"x":167594.57000000123,"y":2543334.0999999996}},{"attributes":{"ID":384998,"DIS_CODE":0,"TOWNNAME":"中西區","LI":"元安里","LIN":"9鄰","STREET":"國華街","SECT":"二段","MAREA":" ","LANE":"７１巷","ALLEY":" ","HOUSE_NO":"１３號","E_COORD97":167590.42000000001,"N_COORD97":2543334.3599999999,"ADDRESS":"國華街二段７１巷１３號","OBJECTID":384974},"geometry":{"x":167590.42000000086,"y":2543334.3600000013}},{"attributes":{"ID":384999,"DIS_CODE":0,"TOWNNAME":"中西區","LI":"元安里","LIN":"9鄰","STREET":"國華街","SECT":"二段","MAREA":" ","LANE":"７１巷","ALLEY":" ","HOUSE_NO":"１５號","E_COORD97":167586.17000000001,"N_COORD97":2543334.8100000001,"ADDRESS":"國華街二段７１巷１５號","OBJECTID":384975},"geometry":{"x":167586.16999999993,"y":2543334.8100000024}},{"attributes":{"ID":385000,"DIS_CODE":0,"TOWNNAME":"中西區","LI":"元安里","LIN":"9鄰","STREET":"國華街","SECT":"二段","MAREA":" ","LANE":"７１巷","ALLEY":" ","HOUSE_NO":"１號","E_COORD97":167613.38,"N_COORD97":2543335,"ADDRESS":"國華街二段７１巷１號","OBJECTID":384976},"geometry":{"x":167613.37999999989,"y":2543335}},{"attributes":{"ID":385001,"DIS_CODE":0,"TOWNNAME":"中西區","LI":"元安里","LIN":"9鄰","STREET":"國華街","SECT":"二段","MAREA":" ","LANE":"７１巷","ALLEY":" ","HOUSE_NO":"３號","E_COORD97":167608.98999999999,"N_COORD97":2543333.8300000001,"ADDRESS":"國華街二段７１巷３號","OBJECTID":384977},"geometry":{"x":167608.99000000115,"y":2543333.8300000038}},{"attributes":{"ID":385002,"DIS_CODE":0,"TOWNNAME":"中西區","LI":"元安里","LIN":"9鄰","STREET":"國華街","SECT":"二段","MAREA":" ","LANE":"７１巷","ALLEY":" ","HOUSE_NO":"５號","E_COORD97":167605.70000000001,"N_COORD97":2543333.75,"ADDRESS":"國華街二段７１巷５號","OBJECTID":384978},"geometry":{"x":167605.70000000112,"y":2543333.75}},{"attributes":{"ID":385003,"DIS_CODE":0,"TOWNNAME":"中西區","LI":"元安里","LIN":"9鄰","STREET":"國華街","SECT":"二段","MAREA":" ","LANE":"７１巷","ALLEY":" ","HOUSE_NO":"７號","E_COORD97":167602.32000000001,"N_COORD97":2543333.8300000001,"ADDRESS":"國華街二段７１巷７號","OBJECTID":384979},"geometry":{"x":167602.3200000003,"y":2543333.8300000038}},{"attributes":{"ID":385004,"DIS_CODE":0,"TOWNNAME":"中西區","LI":"元安里","LIN":"9鄰","STREET":"國華街","SECT":"二段","MAREA":" ","LANE":"７１巷","ALLEY":" ","HOUSE_NO":"９號","E_COORD97":167598.35000000001,"N_COORD97":2543333.48,"ADDRESS":"國華街二段７１巷９號","OBJECTID":384980},"geometry":{"x":167598.34999999963,"y":2543333.4800000042}},{"attributes":{"ID":385005,"DIS_CODE":0,"TOWNNAME":"中西區","LI":"元安里","LIN":"9鄰","STREET":"西門路","SECT":"一段","MAREA":" ","LANE":"７４３巷","ALLEY":" ","HOUSE_NO":"１４號","E_COORD97":167654.19,"N_COORD97":2543319.8900000001,"ADDRESS":"西門路一段７４３巷１４號","OBJECTID":384981},"geometry":{"x":167654.19000000041,"y":2543319.8900000006}},{"attributes":{"ID":385006,"DIS_CODE":0,"TOWNNAME":"中西區","LI":"元安里","LIN":"9鄰","STREET":"西門路","SECT":"一段","MAREA":" ","LANE":"７４３巷","ALLEY":" ","HOUSE_NO":"１８號","E_COORD97":167644.94,"N_COORD97":2543321.21,"ADDRESS":"西門路一段７４３巷１８號","OBJECTID":384982},"geometry":{"x":167644.94000000134,"y":2543321.2100000009}},{"attributes":{"ID":385007,"DIS_CODE":0,"TOWNNAME":"中西區","LI":"元安里","LIN":"9鄰","STREET":"西門路","SECT":"一段","MAREA":" ","LANE":"７４３巷","ALLEY":" ","HOUSE_NO":"２０號","E_COORD97":167641.37,"N_COORD97":2543325.2599999998,"ADDRESS":"西門路一段７４３巷２０號","OBJECTID":384983},"geometry":{"x":167641.37000000197,"y":2543325.2600000016}},{"attributes":{"ID":385008,"DIS_CODE":0,"TOWNNAME":"中西區","LI":"元安里","LIN":"9鄰","STREET":"西門路","SECT":"一段","MAREA":" ","LANE":"７４３巷","ALLEY":" ","HOUSE_NO":"２２號","E_COORD97":167637.67000000001,"N_COORD97":2543323.4399999999,"ADDRESS":"西門路一段７４３巷２２號","OBJECTID":384984},"geometry":{"x":167637.67000000086,"y":2543323.4400000013}},{"attributes":{"ID":385009,"DIS_CODE":0,"TOWNNAME":"中西區","LI":"元安里","LIN":"9鄰","STREET":"西門路","SECT":"一段","MAREA":" ","LANE":"７４３巷","ALLEY":" ","HOUSE_NO":"２４號","E_COORD97":167634.31,"N_COORD97":2543321.4900000002,"ADDRESS":"西門路一段７４３巷２４號","OBJECTID":384985},"geometry":{"x":167634.30999999866,"y":2543321.4900000002}},{"attributes":{"ID":385010,"DIS_CODE":0,"TOWNNAME":"中西區","LI":"元安里","LIN":"9鄰","STREET":"西門路","SECT":"一段","MAREA":" ","LANE":"７４７巷","ALLEY":" ","HOUSE_NO":"１１號","E_COORD97":167657.26000000001,"N_COORD97":2543324.0800000001,"ADDRESS":"西門路一段７４７巷１１號","OBJECTID":384986},"geometry":{"x":167657.26000000071,"y":2543324.0800000001}},{"attributes":{"ID":385011,"DIS_CODE":0,"TOWNNAME":"中西區","LI":"元安里","LIN":"9鄰","STREET":"西門路","SECT":"一段","MAREA":" ","LANE":"７４７巷","ALLEY":" ","HOUSE_NO":"１３號","E_COORD97":167653.42000000001,"N_COORD97":2543329.4500000002,"ADDRESS":"西門路一段７４７巷１３號","OBJECTID":384987},"geometry":{"x":167653.42000000086,"y":2543329.4500000011}},{"attributes":{"ID":385012,"DIS_CODE":0,"TOWNNAME":"中西區","LI":"元安里","LIN":"9鄰","STREET":"西門路","SECT":"一段","MAREA":" ","LANE":"７４７巷","ALLEY":" ","HOUSE_NO":"１５號","E_COORD97":167649.92000000001,"N_COORD97":2543322.54,"ADDRESS":"西門路一段７４７巷１５號","OBJECTID":384988},"geometry":{"x":167649.92000000086,"y":2543322.540000001}},{"attributes":{"ID":385013,"DIS_CODE":0,"TOWNNAME":"永康區","LI":"\u25A0洲里","LIN":"38鄰","STREET":"\u25A0行路","SECT":" ","MAREA":" ","LANE":"２０４巷","ALLEY":" ","HOUSE_NO":"５號","E_COORD97":171267.51999999999,"N_COORD97":2549193.4900000002,"ADDRESS":"\u25A0行路２０４巷５號","OBJECTID":384989},"geometry":{"x":171267.52000000142,"y":2549193.4900000002}},{"attributes":{"ID":385014,"DIS_CODE":0,"TOWNNAME":"中西區","LI":"元安里","LIN":"9鄰","STREET":"西門路","SECT":"一段","MAREA":" ","LANE":"７４７巷","ALLEY":" ","HOUSE_NO":"１７號","E_COORD97":167645.26999999999,"N_COORD97":2543330.7599999998,"ADDRESS":"西門路一段７４７巷１７號","OBJECTID":384990},"geometry":{"x":167645.27000000048,"y":2543330.7600000035}},{"attributes":{"ID":385015,"DIS_CODE":0,"TOWNNAME":"中西區","LI":"元安里","LIN":"9鄰","STREET":"西門路","SECT":"一段","MAREA":" ","LANE":"７４７巷","ALLEY":" ","HOUSE_NO":"１９號","E_COORD97":167639.82000000001,"N_COORD97":2543331.5,"ADDRESS":"西門路一段７４７巷１９號","OBJECTID":384991},"geometry":{"x":167639.8200000003,"y":2543331.5}},{"attributes":{"ID":385016,"DIS_CODE":0,"TOWNNAME":"中西區","LI":"元安里","LIN":"9鄰","STREET":"西門路","SECT":"一段","MAREA":" ","LANE":"７４７巷","ALLEY":" ","HOUSE_NO":"１號","E_COORD97":167685.07000000001,"N_COORD97":2543333.6000000001,"ADDRESS":"西門路一段７４７巷１號","OBJECTID":384992},"geometry":{"x":167685.07000000123,"y":2543333.5999999996}},{"attributes":{"ID":385017,"DIS_CODE":0,"TOWNNAME":"中西區","LI":"元安里","LIN":"9鄰","STREET":"西門路","SECT":"一段","MAREA":" ","LANE":"７４７巷","ALLEY":" ","HOUSE_NO":"７號","E_COORD97":167668.12,"N_COORD97":2543323.8599999999,"ADDRESS":"西門路一段７４７巷７號","OBJECTID":384993},"geometry":{"x":167668.12000000011,"y":2543323.8600000013}},{"attributes":{"ID":385018,"DIS_CODE":0,"TOWNNAME":"中西區","LI":"元安里","LIN":"9鄰","STREET":"西門路","SECT":"一段","MAREA":" ","LANE":"７４７巷","ALLEY":" ","HOUSE_NO":"９號","E_COORD97":167660.84,"N_COORD97":2543327.0699999998,"ADDRESS":"西門路一段７４７巷９號","OBJECTID":384994},"geometry":{"x":167660.83999999985,"y":2543327.0700000022}},{"attributes":{"ID":385019,"DIS_CODE":0,"TOWNNAME":"永康區","LI":"\u25A0洲里","LIN":"4鄰","STREET":"\u25A0洲二街","SECT":" ","MAREA":" ","LANE":"１５３巷","ALLEY":" ","HOUSE_NO":"３０號","E_COORD97":171645.75,"N_COORD97":2549428.1699999999,"ADDRESS":"\u25A0洲二街１５３巷３０號","OBJECTID":384995},"geometry":{"x":171645.75,"y":2549428.1700000018}},{"attributes":{"ID":385020,"DIS_CODE":0,"TOWNNAME":"永康區","LI":"\u25A0洲里","LIN":"28鄰","STREET":"洲尾街","SECT":" ","MAREA":" ","LANE":"１５２巷","ALLEY":" ","HOUSE_NO":"２９號","E_COORD97":171104.42000000001,"N_COORD97":2549075.54,"ADDRESS":"洲尾街１５２巷２９號","OBJECTID":384996},"geometry":{"x":171104.42000000086,"y":2549075.540000001}},{"attributes":{"ID":385021,"DIS_CODE":0,"TOWNNAME":"永康區","LI":"\u25A0洲里","LIN":"5鄰","STREET":"仁愛街","SECT":" ","MAREA":" ","LANE":"１０３巷","ALLEY":" ","HOUSE_NO":"５３號","E_COORD97":171844.10999999999,"N_COORD97":2549568.52,"ADDRESS":"仁愛街１０３巷５３號","OBJECTID":384997},"geometry":{"x":171844.1100000022,"y":2549568.5200000014}},{"attributes":{"ID":385022,"DIS_CODE":0,"TOWNNAME":"永康區","LI":"\u25A0洲里","LIN":"37鄰","STREET":"\u25A0洲二街","SECT":" ","MAREA":" ","LANE":"１９７巷","ALLEY":" ","HOUSE_NO":"１７號","E_COORD97":171715.01999999999,"N_COORD97":2549470.4900000002,"ADDRESS":"\u25A0洲二街１９７巷１７號","OBJECTID":384998},"geometry":{"x":171715.02000000142,"y":2549470.4900000021}},{"attributes":{"ID":385023,"DIS_CODE":0,"TOWNNAME":"永康區","LI":"\u25A0洲里","LIN":"38鄰","STREET":"\u25A0行路","SECT":" ","MAREA":" ","LANE":"１８８巷","ALLEY":" ","HOUSE_NO":"１７號","E_COORD97":171294.79999999999,"N_COORD97":2549248.3599999999,"ADDRESS":"\u25A0行路１８８巷１７號","OBJECTID":384999},"geometry":{"x":171294.80000000075,"y":2549248.3599999994}},{"attributes":{"ID":385024,"DIS_CODE":0,"TOWNNAME":"新化區","LI":"協興里","LIN":"9鄰","STREET":"太平街","SECT":" ","MAREA":" ","LANE":"１５０巷","ALLEY":" ","HOUSE_NO":"２６號","E_COORD97":178341.26999999999,"N_COORD97":2548760.25,"ADDRESS":"太平街１５０巷２６號","OBJECTID":385000},"geometry":{"x":178341.26999999955,"y":2548760.2500000019}}]}