{"displayFieldName":"TOWNNAME","fieldAliases":{"ID":"ID","DIS_CODE":"DIS_CODE","TOWNNAME":"TOWNNAME","LI":"LI","LIN":"LIN","STREET":"STREET","SECT":"SECT","MAREA":"MAREA","LANE":"LANE","ALLEY":"ALLEY","HOUSE_NO":"HOUSE_NO","E_COORD97":"E_COORD97","N_COORD97":"N_COORD97","ADDRESS":"ADDRESS","OBJECTID":"OBJECTID"},"geometryType":"esriGeometryPoint","spatialReference":{"wkid":102443,"latestWkid":3826},"fields":[{"name":"ID","type":"esriFieldTypeDouble","alias":"ID"},{"name":"DIS_CODE","type":"esriFieldTypeInteger","alias":"DIS_CODE"},{"name":"TOWNNAME","type":"esriFieldTypeString","alias":"TOWNNAME","length":8},{"name":"LI","type":"esriFieldTypeString","alias":"LI","length":8},{"name":"LIN","type":"esriFieldTypeString","alias":"LIN","length":12},{"name":"STREET","type":"esriFieldTypeString","alias":"STREET","length":20},{"name":"SECT","type":"esriFieldTypeString","alias":"SECT","length":8},{"name":"MAREA","type":"esriFieldTypeString","alias":"MAREA","length":12},{"name":"LANE","type":"esriFieldTypeString","alias":"LANE","length":10},{"name":"ALLEY","type":"esriFieldTypeString","alias":"ALLEY","length":10},{"name":"HOUSE_NO","type":"esriFieldTypeString","alias":"HOUSE_NO","length":20},{"name":"E_COORD97","type":"esriFieldTypeDouble","alias":"E_COORD97"},{"name":"N_COORD97","type":"esriFieldTypeDouble","alias":"N_COORD97"},{"name":"ADDRESS","type":"esriFieldTypeString","alias":"ADDRESS","length":50},{"name":"OBJECTID","type":"esriFieldTypeOID","alias":"OBJECTID"}],"features":[{"attributes":{"ID":612428,"DIS_CODE":0,"TOWNNAME":"北區","LI":"正覺里","LIN":"2鄰","STREET":"西門路","SECT":"四段","MAREA":" ","LANE":" ","ALLEY":" ","HOUSE_NO":"４４２號","E_COORD97":169083.53,"N_COORD97":2546250.1099999999,"ADDRESS":"西門路四段４４２號","OBJECTID":612401},"geometry":{"x":169083.53000000119,"y":2546250.1099999975}},{"attributes":{"ID":612429,"DIS_CODE":0,"TOWNNAME":"北區","LI":"正覺里","LIN":"2鄰","STREET":"西門路","SECT":"四段","MAREA":" ","LANE":" ","ALLEY":" ","HOUSE_NO":"４４６號","E_COORD97":169086.17999999999,"N_COORD97":2546253.1600000001,"ADDRESS":"西門路四段４４６號","OBJECTID":612402},"geometry":{"x":169086.1799999997,"y":2546253.1600000001}},{"attributes":{"ID":612430,"DIS_CODE":0,"TOWNNAME":"北區","LI":"正覺里","LIN":"2鄰","STREET":"西門路","SECT":"四段","MAREA":" ","LANE":" ","ALLEY":" ","HOUSE_NO":"４４８號","E_COORD97":169088.14999999999,"N_COORD97":2546256.2999999998,"ADDRESS":"西門路四段４４８號","OBJECTID":612403},"geometry":{"x":169088.1500000013,"y":2546256.3000000007}},{"attributes":{"ID":612431,"DIS_CODE":0,"TOWNNAME":"北區","LI":"正覺里","LIN":"2鄰","STREET":"西門路","SECT":"四段","MAREA":" ","LANE":" ","ALLEY":" ","HOUSE_NO":"４５０號","E_COORD97":169090.51000000001,"N_COORD97":2546259.5499999998,"ADDRESS":"西門路四段４５０號","OBJECTID":612404},"geometry":{"x":169090.50999999978,"y":2546259.5500000026}},{"attributes":{"ID":612432,"DIS_CODE":0,"TOWNNAME":"北區","LI":"正覺里","LIN":"2鄰","STREET":"西門路","SECT":"四段","MAREA":" ","LANE":" ","ALLEY":" ","HOUSE_NO":"４５２號","E_COORD97":169094.22,"N_COORD97":2546264.0800000001,"ADDRESS":"西門路四段４５２號","OBJECTID":612405},"geometry":{"x":169094.21999999974,"y":2546264.0800000001}},{"attributes":{"ID":612433,"DIS_CODE":0,"TOWNNAME":"北區","LI":"正覺里","LIN":"2鄰","STREET":"西門路","SECT":"四段","MAREA":" ","LANE":" ","ALLEY":" ","HOUSE_NO":"４５４號","E_COORD97":169096.62,"N_COORD97":2546267.5699999998,"ADDRESS":"西門路四段４５４號","OBJECTID":612406},"geometry":{"x":169096.62000000104,"y":2546267.5700000003}},{"attributes":{"ID":612434,"DIS_CODE":0,"TOWNNAME":"北區","LI":"正覺里","LIN":"2鄰","STREET":"西門路","SECT":"四段","MAREA":" ","LANE":" ","ALLEY":" ","HOUSE_NO":"４５６號","E_COORD97":169099.04000000001,"N_COORD97":2546270.8700000001,"ADDRESS":"西門路四段４５６號","OBJECTID":612407},"geometry":{"x":169099.04000000004,"y":2546270.8700000048}},{"attributes":{"ID":612435,"DIS_CODE":0,"TOWNNAME":"北區","LI":"正覺里","LIN":"2鄰","STREET":"西門路","SECT":"四段","MAREA":" ","LANE":" ","ALLEY":" ","HOUSE_NO":"４５８號","E_COORD97":169101.70000000001,"N_COORD97":2546274.8900000001,"ADDRESS":"西門路四段４５８號","OBJECTID":612408},"geometry":{"x":169101.70000000019,"y":2546274.8900000025}},{"attributes":{"ID":612436,"DIS_CODE":0,"TOWNNAME":"北區","LI":"正覺里","LIN":"2鄰","STREET":"西門路","SECT":"四段","MAREA":" ","LANE":" ","ALLEY":" ","HOUSE_NO":"４６２號","E_COORD97":169107.26999999999,"N_COORD97":2546283.0499999998,"ADDRESS":"西門路四段４６２號","OBJECTID":612409},"geometry":{"x":169107.26999999955,"y":2546283.0500000026}},{"attributes":{"ID":612437,"DIS_CODE":0,"TOWNNAME":"北區","LI":"正覺里","LIN":"2鄰","STREET":"西門路","SECT":"四段","MAREA":" ","LANE":" ","ALLEY":" ","HOUSE_NO":"４６４號","E_COORD97":169111.01000000001,"N_COORD97":2546288.6499999999,"ADDRESS":"西門路四段４６４號","OBJECTID":612410},"geometry":{"x":169111.00999999978,"y":2546288.6500000041}},{"attributes":{"ID":612438,"DIS_CODE":0,"TOWNNAME":"歸仁區","LI":"武東里","LIN":"2鄰","STREET":"中正南路","SECT":"二段","MAREA":" ","LANE":" ","ALLEY":" ","HOUSE_NO":"２３９號","E_COORD97":175402.41,"N_COORD97":2535293.2799999998,"ADDRESS":"中正南路二段２３９號","OBJECTID":612411},"geometry":{"x":175402.41000000108,"y":2535293.2799999993}},{"attributes":{"ID":612439,"DIS_CODE":0,"TOWNNAME":"東區","LI":"大同里","LIN":"3鄰","STREET":"府東街","SECT":" ","MAREA":" ","LANE":" ","ALLEY":" ","HOUSE_NO":"２３９號","E_COORD97":169295.38,"N_COORD97":2543087.3999999999,"ADDRESS":"府東街２３９號","OBJECTID":612412},"geometry":{"x":169295.37999999989,"y":2543087.4000000022}},{"attributes":{"ID":612440,"DIS_CODE":0,"TOWNNAME":"東區","LI":"大同里","LIN":"3鄰","STREET":"府東街","SECT":" ","MAREA":" ","LANE":" ","ALLEY":" ","HOUSE_NO":"２４１號","E_COORD97":169291.28,"N_COORD97":2543102.2000000002,"ADDRESS":"府東街２４１號","OBJECTID":612413},"geometry":{"x":169291.28000000026,"y":2543102.1999999993}},{"attributes":{"ID":612441,"DIS_CODE":0,"TOWNNAME":"東區","LI":"大同里","LIN":"3鄰","STREET":"府東街","SECT":" ","MAREA":" ","LANE":" ","ALLEY":" ","HOUSE_NO":"２４３號","E_COORD97":169286.95000000001,"N_COORD97":2543111.9900000002,"ADDRESS":"府東街２４３號","OBJECTID":612414},"geometry":{"x":169286.95000000205,"y":2543111.9900000002}},{"attributes":{"ID":612442,"DIS_CODE":0,"TOWNNAME":"東區","LI":"大同里","LIN":"3鄰","STREET":"府東街","SECT":" ","MAREA":" ","LANE":" ","ALLEY":" ","HOUSE_NO":"２４５號","E_COORD97":169284.38,"N_COORD97":2543121.8700000001,"ADDRESS":"府東街２４５號","OBJECTID":612415},"geometry":{"x":169284.38000000082,"y":2543121.8700000029}},{"attributes":{"ID":612443,"DIS_CODE":0,"TOWNNAME":"東區","LI":"大同里","LIN":"3鄰","STREET":"府東街","SECT":" ","MAREA":" ","LANE":" ","ALLEY":" ","HOUSE_NO":"２４９號","E_COORD97":169265.73999999999,"N_COORD97":2543117.4399999999,"ADDRESS":"府東街２４９號","OBJECTID":612416},"geometry":{"x":169265.74000000022,"y":2543117.4399999995}},{"attributes":{"ID":612444,"DIS_CODE":0,"TOWNNAME":"東區","LI":"大同里","LIN":"3鄰","STREET":"府東街","SECT":" ","MAREA":" ","LANE":" ","ALLEY":" ","HOUSE_NO":"２５３號","E_COORD97":169253.35000000001,"N_COORD97":2543115.2799999998,"ADDRESS":"府東街２５３號","OBJECTID":612417},"geometry":{"x":169253.35000000056,"y":2543115.2799999993}},{"attributes":{"ID":612445,"DIS_CODE":0,"TOWNNAME":"歸仁區","LI":"七甲里","LIN":"2鄰","STREET":"七甲五街","SECT":" ","MAREA":" ","LANE":" ","ALLEY":" ","HOUSE_NO":"６８號","E_COORD97":177295.57999999999,"N_COORD97":2542623.2400000002,"ADDRESS":"七甲五街６８號","OBJECTID":612418},"geometry":{"x":177295.57999999914,"y":2542623.2400000021}},{"attributes":{"ID":612446,"DIS_CODE":0,"TOWNNAME":"歸仁區","LI":"大潭里","LIN":"2鄰","STREET":"中正南路","SECT":"三段","MAREA":" ","LANE":" ","ALLEY":" ","HOUSE_NO":"２１５號","E_COORD97":175199.81,"N_COORD97":2534784.2799999998,"ADDRESS":"中正南路三段２１５號","OBJECTID":612419},"geometry":{"x":175199.80999999959,"y":2534784.2800000012}},{"attributes":{"ID":612447,"DIS_CODE":0,"TOWNNAME":"歸仁區","LI":"八甲里","LIN":"2鄰","STREET":"大光街","SECT":" ","MAREA":" ","LANE":" ","ALLEY":" ","HOUSE_NO":"４８之１號","E_COORD97":177943.07000000001,"N_COORD97":2541662.6200000001,"ADDRESS":"大光街４８之１號","OBJECTID":612420},"geometry":{"x":177943.0700000003,"y":2541662.6200000029}},{"attributes":{"ID":612448,"DIS_CODE":0,"TOWNNAME":"歸仁區","LI":"南興里","LIN":"2鄰","STREET":"文化十二街","SECT":" ","MAREA":" ","LANE":" ","ALLEY":" ","HOUSE_NO":"７４號","E_COORD97":176470.59,"N_COORD97":2541318.3300000001,"ADDRESS":"文化十二街７４號","OBJECTID":612421},"geometry":{"x":176470.59000000078,"y":2541318.3300000001}},{"attributes":{"ID":612449,"DIS_CODE":0,"TOWNNAME":"歸仁區","LI":"八甲里","LIN":"2鄰","STREET":"大光街","SECT":" ","MAREA":" ","LANE":" ","ALLEY":" ","HOUSE_NO":"４２號","E_COORD97":177924.07000000001,"N_COORD97":2541657.6099999999,"ADDRESS":"大光街４２號","OBJECTID":612422},"geometry":{"x":177924.0700000003,"y":2541657.6100000013}},{"attributes":{"ID":612450,"DIS_CODE":0,"TOWNNAME":"歸仁區","LI":"大潭里","LIN":"2鄰","STREET":"中正南路","SECT":"三段","MAREA":" ","LANE":" ","ALLEY":" ","HOUSE_NO":"１６１號","E_COORD97":175226.91,"N_COORD97":2534862.2799999998,"ADDRESS":"中正南路三段１６１號","OBJECTID":612423},"geometry":{"x":175226.91000000015,"y":2534862.2800000012}},{"attributes":{"ID":612451,"DIS_CODE":0,"TOWNNAME":"南區","LI":"永寧里","LIN":"2鄰","STREET":"灣裡路","SECT":" ","MAREA":" ","LANE":" ","ALLEY":" ","HOUSE_NO":"１７４號","E_COORD97":166032.73000000001,"N_COORD97":2536630.8500000001,"ADDRESS":"灣裡路１７４號","OBJECTID":612424},"geometry":{"x":166032.73000000138,"y":2536630.8500000015}},{"attributes":{"ID":612452,"DIS_CODE":0,"TOWNNAME":"南區","LI":"永寧里","LIN":"2鄰","STREET":"灣裡路","SECT":" ","MAREA":" ","LANE":" ","ALLEY":" ","HOUSE_NO":"１７６號","E_COORD97":166033.37,"N_COORD97":2536627.1899999999,"ADDRESS":"灣裡路１７６號","OBJECTID":612425},"geometry":{"x":166033.37000000104,"y":2536627.1899999995}},{"attributes":{"ID":612453,"DIS_CODE":0,"TOWNNAME":"南區","LI":"永寧里","LIN":"2鄰","STREET":"灣裡路","SECT":" ","MAREA":" ","LANE":" ","ALLEY":" ","HOUSE_NO":"１７８號","E_COORD97":166036.48000000001,"N_COORD97":2536623.3500000001,"ADDRESS":"灣裡路１７８號","OBJECTID":612426},"geometry":{"x":166036.48000000045,"y":2536623.3499999996}},{"attributes":{"ID":612454,"DIS_CODE":0,"TOWNNAME":"南區","LI":"永寧里","LIN":"2鄰","STREET":"灣裡路","SECT":" ","MAREA":" ","LANE":" ","ALLEY":" ","HOUSE_NO":"１８０號","E_COORD97":166036.85000000001,"N_COORD97":2536619.5899999999,"ADDRESS":"灣裡路１８０號","OBJECTID":612427},"geometry":{"x":166036.84999999963,"y":2536619.5900000017}},{"attributes":{"ID":612455,"DIS_CODE":0,"TOWNNAME":"南區","LI":"永寧里","LIN":"2鄰","STREET":"灣裡路","SECT":" ","MAREA":" ","LANE":" ","ALLEY":" ","HOUSE_NO":"１８２號","E_COORD97":166037.67999999999,"N_COORD97":2536615.9199999999,"ADDRESS":"灣裡路１８２號","OBJECTID":612428},"geometry":{"x":166037.68000000063,"y":2536615.9199999999}},{"attributes":{"ID":612456,"DIS_CODE":0,"TOWNNAME":"南區","LI":"永寧里","LIN":"2鄰","STREET":"灣裡路","SECT":" ","MAREA":" ","LANE":" ","ALLEY":" ","HOUSE_NO":"１８４號","E_COORD97":166038.10000000001,"N_COORD97":2536611.3799999999,"ADDRESS":"灣裡路１８４號","OBJECTID":612429},"geometry":{"x":166038.10000000056,"y":2536611.379999999}},{"attributes":{"ID":612457,"DIS_CODE":0,"TOWNNAME":"南區","LI":"大成里","LIN":"2鄰","STREET":"西門路","SECT":"一段","MAREA":" ","LANE":" ","ALLEY":" ","HOUSE_NO":"３６４號","E_COORD97":167754.17999999999,"N_COORD97":2542351.6600000001,"ADDRESS":"西門路一段３６４號","OBJECTID":612430},"geometry":{"x":167754.18000000156,"y":2542351.6599999983}},{"attributes":{"ID":612458,"DIS_CODE":0,"TOWNNAME":"南區","LI":"大成里","LIN":"2鄰","STREET":"西門路","SECT":"一段","MAREA":" ","LANE":" ","ALLEY":" ","HOUSE_NO":"３６６號","E_COORD97":167754.73000000001,"N_COORD97":2542356.6299999999,"ADDRESS":"西門路一段３６６號","OBJECTID":612431},"geometry":{"x":167754.73000000138,"y":2542356.629999999}},{"attributes":{"ID":612459,"DIS_CODE":0,"TOWNNAME":"南區","LI":"大成里","LIN":"2鄰","STREET":"西門路","SECT":"一段","MAREA":" ","LANE":" ","ALLEY":" ","HOUSE_NO":"３６８號","E_COORD97":167754.54999999999,"N_COORD97":2542361.23,"ADDRESS":"西門路一段３６８號","OBJECTID":612432},"geometry":{"x":167754.54999999981,"y":2542361.2300000004}},{"attributes":{"ID":612460,"DIS_CODE":0,"TOWNNAME":"南區","LI":"大成里","LIN":"2鄰","STREET":"西門路","SECT":"一段","MAREA":" ","LANE":" ","ALLEY":" ","HOUSE_NO":"３７０號","E_COORD97":167753.98999999999,"N_COORD97":2542366.21,"ADDRESS":"西門路一段３７０號","OBJECTID":612433},"geometry":{"x":167753.99000000022,"y":2542366.2100000028}},{"attributes":{"ID":612461,"DIS_CODE":0,"TOWNNAME":"南區","LI":"大成里","LIN":"2鄰","STREET":"西門路","SECT":"一段","MAREA":" ","LANE":" ","ALLEY":" ","HOUSE_NO":"３７２號","E_COORD97":167754.35999999999,"N_COORD97":2542370.4399999999,"ADDRESS":"西門路一段３７２號","OBJECTID":612434},"geometry":{"x":167754.36000000127,"y":2542370.4400000013}},{"attributes":{"ID":612462,"DIS_CODE":0,"TOWNNAME":"南區","LI":"大成里","LIN":"2鄰","STREET":"西門路","SECT":"一段","MAREA":" ","LANE":" ","ALLEY":" ","HOUSE_NO":"３７４號","E_COORD97":167754.35999999999,"N_COORD97":2542375.7799999998,"ADDRESS":"西門路一段３７４號","OBJECTID":612435},"geometry":{"x":167754.36000000127,"y":2542375.7799999993}},{"attributes":{"ID":612463,"DIS_CODE":0,"TOWNNAME":"南區","LI":"大成里","LIN":"2鄰","STREET":"西門路","SECT":"一段","MAREA":" ","LANE":" ","ALLEY":" ","HOUSE_NO":"３７６號","E_COORD97":167754.35999999999,"N_COORD97":2542380.7599999998,"ADDRESS":"西門路一段３７６號","OBJECTID":612436},"geometry":{"x":167754.36000000127,"y":2542380.7599999998}},{"attributes":{"ID":612464,"DIS_CODE":0,"TOWNNAME":"南區","LI":"大成里","LIN":"2鄰","STREET":"西門路","SECT":"一段","MAREA":" ","LANE":" ","ALLEY":" ","HOUSE_NO":"３７８號","E_COORD97":167754.73000000001,"N_COORD97":2542384.2599999998,"ADDRESS":"西門路一段３７８號","OBJECTID":612437},"geometry":{"x":167754.73000000138,"y":2542384.2599999998}},{"attributes":{"ID":612465,"DIS_CODE":0,"TOWNNAME":"東區","LI":"大同里","LIN":"8鄰","STREET":"樹林街","SECT":"一段","MAREA":" ","LANE":" ","ALLEY":" ","HOUSE_NO":"１９１號","E_COORD97":169244,"N_COORD97":2543005.54,"ADDRESS":"樹林街一段１９１號","OBJECTID":612438},"geometry":{"x":169244.00000000186,"y":2543005.5399999991}},{"attributes":{"ID":612466,"DIS_CODE":0,"TOWNNAME":"東區","LI":"大同里","LIN":"7鄰","STREET":"樹林街","SECT":"一段","MAREA":" ","LANE":" ","ALLEY":" ","HOUSE_NO":"１７６號地下層","E_COORD97":169201.22,"N_COORD97":2543023.2799999998,"ADDRESS":"樹林街一段１７６號地下層","OBJECTID":612439},"geometry":{"x":169201.21999999974,"y":2543023.2799999993}},{"attributes":{"ID":612467,"DIS_CODE":0,"TOWNNAME":"東區","LI":"大同里","LIN":"7鄰","STREET":"樹林街","SECT":"一段","MAREA":" ","LANE":" ","ALLEY":" ","HOUSE_NO":"１７８號","E_COORD97":169193.34,"N_COORD97":2543019,"ADDRESS":"樹林街一段１７８號","OBJECTID":612440},"geometry":{"x":169193.33999999985,"y":2543019.0000000019}},{"attributes":{"ID":612468,"DIS_CODE":0,"TOWNNAME":"東區","LI":"大同里","LIN":"7鄰","STREET":"樹林街","SECT":"一段","MAREA":" ","LANE":" ","ALLEY":" ","HOUSE_NO":"１８０號","E_COORD97":169186.01999999999,"N_COORD97":2543020.1000000001,"ADDRESS":"樹林街一段１８０號","OBJECTID":612441},"geometry":{"x":169186.02000000048,"y":2543020.1000000015}},{"attributes":{"ID":612469,"DIS_CODE":0,"TOWNNAME":"東區","LI":"大同里","LIN":"7鄰","STREET":"樹林街","SECT":"一段","MAREA":" ","LANE":" ","ALLEY":" ","HOUSE_NO":"１８２號","E_COORD97":169181.32000000001,"N_COORD97":2543019.1400000001,"ADDRESS":"樹林街一段１８２號","OBJECTID":612442},"geometry":{"x":169181.32000000123,"y":2543019.1400000006}},{"attributes":{"ID":612470,"DIS_CODE":0,"TOWNNAME":"南區","LI":"大恩里","LIN":"2鄰","STREET":"大同路","SECT":"二段","MAREA":" ","LANE":" ","ALLEY":" ","HOUSE_NO":"６５８號","E_COORD97":169558.06,"N_COORD97":2540999.2200000002,"ADDRESS":"大同路二段６５８號","OBJECTID":612443},"geometry":{"x":169558.05999999959,"y":2540999.2200000044}},{"attributes":{"ID":612471,"DIS_CODE":0,"TOWNNAME":"南區","LI":"大恩里","LIN":"2鄰","STREET":"大同路","SECT":"二段","MAREA":" ","LANE":" ","ALLEY":" ","HOUSE_NO":"６６０號","E_COORD97":169558.39000000001,"N_COORD97":2540994.5800000001,"ADDRESS":"大同路二段６６０號","OBJECTID":612444},"geometry":{"x":169558.3900000006,"y":2540994.5800000001}},{"attributes":{"ID":612472,"DIS_CODE":0,"TOWNNAME":"南區","LI":"大恩里","LIN":"2鄰","STREET":"大同路","SECT":"二段","MAREA":" ","LANE":" ","ALLEY":" ","HOUSE_NO":"６６２號","E_COORD97":169560.16,"N_COORD97":2540990.1699999999,"ADDRESS":"大同路二段６６２號","OBJECTID":612445},"geometry":{"x":169560.16000000201,"y":2540990.1700000018}},{"attributes":{"ID":612473,"DIS_CODE":0,"TOWNNAME":"南區","LI":"大恩里","LIN":"2鄰","STREET":"大同路","SECT":"二段","MAREA":" ","LANE":" ","ALLEY":" ","HOUSE_NO":"６６４號","E_COORD97":169560.48999999999,"N_COORD97":2540985.6400000001,"ADDRESS":"大同路二段６６４號","OBJECTID":612446},"geometry":{"x":169560.49000000022,"y":2540985.6400000006}},{"attributes":{"ID":612474,"DIS_CODE":0,"TOWNNAME":"南區","LI":"大恩里","LIN":"2鄰","STREET":"大同路","SECT":"二段","MAREA":" ","LANE":" ","ALLEY":" ","HOUSE_NO":"６６６號","E_COORD97":169561.48999999999,"N_COORD97":2540981.5600000001,"ADDRESS":"大同路二段６６６號","OBJECTID":612447},"geometry":{"x":169561.49000000115,"y":2540981.5600000005}},{"attributes":{"ID":612475,"DIS_CODE":0,"TOWNNAME":"南區","LI":"大恩里","LIN":"2鄰","STREET":"大同路","SECT":"二段","MAREA":" ","LANE":" ","ALLEY":" ","HOUSE_NO":"６６８號","E_COORD97":169562.04000000001,"N_COORD97":2540976.9199999999,"ADDRESS":"大同路二段６６８號","OBJECTID":612448},"geometry":{"x":169562.04000000004,"y":2540976.9200000037}},{"attributes":{"ID":612476,"DIS_CODE":0,"TOWNNAME":"楠西區","LI":"東勢里","LIN":"2鄰","STREET":"中興路","SECT":" ","MAREA":" ","LANE":" ","ALLEY":" ","HOUSE_NO":"２１０號","E_COORD97":197369.56,"N_COORD97":2564487.25,"ADDRESS":"中興路２１０號","OBJECTID":612449},"geometry":{"x":197369.55999999959,"y":2564487.2500000019}},{"attributes":{"ID":612477,"DIS_CODE":0,"TOWNNAME":"楠西區","LI":"東勢里","LIN":"2鄰","STREET":"中興路","SECT":" ","MAREA":" ","LANE":" ","ALLEY":" ","HOUSE_NO":"２２４號","E_COORD97":197382.26000000001,"N_COORD97":2564462.25,"ADDRESS":"中興路２２４號","OBJECTID":612450},"geometry":{"x":197382.26000000071,"y":2564462.25}},{"attributes":{"ID":612478,"DIS_CODE":0,"TOWNNAME":"楠西區","LI":"東勢里","LIN":"2鄰","STREET":"中興路","SECT":" ","MAREA":" ","LANE":" ","ALLEY":" ","HOUSE_NO":"２５０號","E_COORD97":197390.45999999999,"N_COORD97":2564403.25,"ADDRESS":"中興路２５０號","OBJECTID":612451},"geometry":{"x":197390.45999999996,"y":2564403.2500000019}},{"attributes":{"ID":612479,"DIS_CODE":0,"TOWNNAME":"楠西區","LI":"東勢里","LIN":"2鄰","STREET":"中興路","SECT":" ","MAREA":" ","LANE":" ","ALLEY":" ","HOUSE_NO":"２２４號之６","E_COORD97":197385.79999999999,"N_COORD97":2564444.2999999998,"ADDRESS":"中興路２２４號之６","OBJECTID":612452},"geometry":{"x":197385.80000000075,"y":2564444.3000000026}},{"attributes":{"ID":612480,"DIS_CODE":0,"TOWNNAME":"楠西區","LI":"東勢里","LIN":"2鄰","STREET":"中興路","SECT":" ","MAREA":" ","LANE":" ","ALLEY":" ","HOUSE_NO":"２０８號","E_COORD97":197364.85999999999,"N_COORD97":2564475.25,"ADDRESS":"中興路２０８號","OBJECTID":612453},"geometry":{"x":197364.86000000034,"y":2564475.25}},{"attributes":{"ID":612481,"DIS_CODE":0,"TOWNNAME":"楠西區","LI":"東勢里","LIN":"2鄰","STREET":"中興路","SECT":" ","MAREA":" ","LANE":" ","ALLEY":" ","HOUSE_NO":"３０８號","E_COORD97":197390.45999999999,"N_COORD97":2564522.25,"ADDRESS":"中興路３０８號","OBJECTID":612454},"geometry":{"x":197390.45999999996,"y":2564522.2500000019}},{"attributes":{"ID":612482,"DIS_CODE":0,"TOWNNAME":"楠西區","LI":"東勢里","LIN":"2鄰","STREET":"中興路","SECT":" ","MAREA":" ","LANE":" ","ALLEY":" ","HOUSE_NO":"２１２號","E_COORD97":197354.35999999999,"N_COORD97":2564481.25,"ADDRESS":"中興路２１２號","OBJECTID":612455},"geometry":{"x":197354.36000000034,"y":2564481.2500000019}},{"attributes":{"ID":612483,"DIS_CODE":0,"TOWNNAME":"楠西區","LI":"東勢里","LIN":"2鄰","STREET":"中興路","SECT":" ","MAREA":" ","LANE":" ","ALLEY":" ","HOUSE_NO":"３０６號","E_COORD97":197390.45999999999,"N_COORD97":2564518.25,"ADDRESS":"中興路３０６號","OBJECTID":612456},"geometry":{"x":197390.45999999996,"y":2564518.2500000019}},{"attributes":{"ID":612484,"DIS_CODE":0,"TOWNNAME":"楠西區","LI":"東勢里","LIN":"2鄰","STREET":"中興路","SECT":" ","MAREA":" ","LANE":" ","ALLEY":" ","HOUSE_NO":"３０２號","E_COORD97":197390.45999999999,"N_COORD97":2564510.25,"ADDRESS":"中興路３０２號","OBJECTID":612457},"geometry":{"x":197390.45999999996,"y":2564510.25}},{"attributes":{"ID":612485,"DIS_CODE":0,"TOWNNAME":"楠西區","LI":"東勢里","LIN":"2鄰","STREET":"中興路","SECT":" ","MAREA":" ","LANE":" ","ALLEY":" ","HOUSE_NO":"１９０號","E_COORD97":197335.26000000001,"N_COORD97":2564522.25,"ADDRESS":"中興路１９０號","OBJECTID":612458},"geometry":{"x":197335.26000000071,"y":2564522.2500000019}},{"attributes":{"ID":612486,"DIS_CODE":0,"TOWNNAME":"楠西區","LI":"東勢里","LIN":"2鄰","STREET":"中興路","SECT":" ","MAREA":" ","LANE":" ","ALLEY":" ","HOUSE_NO":"２９４號","E_COORD97":197390.26000000001,"N_COORD97":2564497.25,"ADDRESS":"中興路２９４號","OBJECTID":612459},"geometry":{"x":197390.25999999978,"y":2564497.2500000037}},{"attributes":{"ID":612487,"DIS_CODE":0,"TOWNNAME":"楠西區","LI":"東勢里","LIN":"2鄰","STREET":"中興路","SECT":" ","MAREA":" ","LANE":" ","ALLEY":" ","HOUSE_NO":"２４２號","E_COORD97":197391.85999999999,"N_COORD97":2564372.25,"ADDRESS":"中興路２４２號","OBJECTID":612460},"geometry":{"x":197391.86000000034,"y":2564372.2500000019}},{"attributes":{"ID":612488,"DIS_CODE":0,"TOWNNAME":"楠西區","LI":"東勢里","LIN":"2鄰","STREET":"中興路","SECT":" ","MAREA":" ","LANE":" ","ALLEY":" ","HOUSE_NO":"２９８號","E_COORD97":197390.06,"N_COORD97":2564503.25,"ADDRESS":"中興路２９８號","OBJECTID":612461},"geometry":{"x":197390.06000000145,"y":2564503.25}},{"attributes":{"ID":612489,"DIS_CODE":0,"TOWNNAME":"楠西區","LI":"東勢里","LIN":"2鄰","STREET":"民生路","SECT":" ","MAREA":" ","LANE":" ","ALLEY":" ","HOUSE_NO":"２０８號","E_COORD97":197402.09,"N_COORD97":2564471.29,"ADDRESS":"民生路２０８號","OBJECTID":612462},"geometry":{"x":197402.09000000171,"y":2564471.2899999991}},{"attributes":{"ID":612490,"DIS_CODE":0,"TOWNNAME":"楠西區","LI":"東勢里","LIN":"2鄰","STREET":"中興路","SECT":" ","MAREA":" ","LANE":" ","ALLEY":" ","HOUSE_NO":"２９６號","E_COORD97":197390.26000000001,"N_COORD97":2564500.25,"ADDRESS":"中興路２９６號","OBJECTID":612463},"geometry":{"x":197390.25999999978,"y":2564500.2499999981}},{"attributes":{"ID":612491,"DIS_CODE":0,"TOWNNAME":"楠西區","LI":"東勢里","LIN":"2鄰","STREET":"中興路","SECT":" ","MAREA":" ","LANE":" ","ALLEY":" ","HOUSE_NO":"３００號","E_COORD97":197390.66,"N_COORD97":2564506.25,"ADDRESS":"中興路３００號","OBJECTID":612464},"geometry":{"x":197390.66000000108,"y":2564506.25}},{"attributes":{"ID":612492,"DIS_CODE":0,"TOWNNAME":"楠西區","LI":"東勢里","LIN":"2鄰","STREET":"中興路","SECT":" ","MAREA":" ","LANE":" ","ALLEY":" ","HOUSE_NO":"２６８號","E_COORD97":197389.45999999999,"N_COORD97":2564441.25,"ADDRESS":"中興路２６８號","OBJECTID":612465},"geometry":{"x":197389.46000000183,"y":2564441.25}},{"attributes":{"ID":612493,"DIS_CODE":0,"TOWNNAME":"楠西區","LI":"東勢里","LIN":"2鄰","STREET":"中興路","SECT":" ","MAREA":" ","LANE":" ","ALLEY":" ","HOUSE_NO":"２３８號","E_COORD97":197393.76000000001,"N_COORD97":2564363.25,"ADDRESS":"中興路２３８號","OBJECTID":612466},"geometry":{"x":197393.75999999978,"y":2564363.25}},{"attributes":{"ID":612494,"DIS_CODE":0,"TOWNNAME":"楠西區","LI":"東勢里","LIN":"2鄰","STREET":"中興路","SECT":" ","MAREA":" ","LANE":" ","ALLEY":" ","HOUSE_NO":"２６０號","E_COORD97":197389.85999999999,"N_COORD97":2564422.25,"ADDRESS":"中興路２６０號","OBJECTID":612467},"geometry":{"x":197389.86000000034,"y":2564422.2499999981}},{"attributes":{"ID":612495,"DIS_CODE":0,"TOWNNAME":"楠西區","LI":"東勢里","LIN":"2鄰","STREET":"中興路","SECT":" ","MAREA":" ","LANE":" ","ALLEY":" ","HOUSE_NO":"２４０號","E_COORD97":197392.16,"N_COORD97":2564367.25,"ADDRESS":"中興路２４０號","OBJECTID":612468},"geometry":{"x":197392.16000000108,"y":2564367.25}},{"attributes":{"ID":612496,"DIS_CODE":0,"TOWNNAME":"楠西區","LI":"東勢里","LIN":"2鄰","STREET":"民生路","SECT":" ","MAREA":" ","LANE":" ","ALLEY":" ","HOUSE_NO":"２００號","E_COORD97":197401.59,"N_COORD97":2564459.29,"ADDRESS":"民生路２００號","OBJECTID":612469},"geometry":{"x":197401.58999999985,"y":2564459.290000001}},{"attributes":{"ID":612497,"DIS_CODE":0,"TOWNNAME":"楠西區","LI":"東勢里","LIN":"2鄰","STREET":"中興路","SECT":" ","MAREA":" ","LANE":" ","ALLEY":" ","HOUSE_NO":"２６２號","E_COORD97":197389.66,"N_COORD97":2564426.25,"ADDRESS":"中興路２６２號","OBJECTID":612470},"geometry":{"x":197389.66000000015,"y":2564426.2500000019}},{"attributes":{"ID":612498,"DIS_CODE":0,"TOWNNAME":"楠西區","LI":"東勢里","LIN":"2鄰","STREET":"中興路","SECT":" ","MAREA":" ","LANE":" ","ALLEY":" ","HOUSE_NO":"３１２號","E_COORD97":197390.06,"N_COORD97":2564530.25,"ADDRESS":"中興路３１２號","OBJECTID":612471},"geometry":{"x":197390.06000000145,"y":2564530.25}},{"attributes":{"ID":612499,"DIS_CODE":0,"TOWNNAME":"東區","LI":"中西里","LIN":"38鄰","STREET":"長榮路","SECT":"二段","MAREA":" ","LANE":" ","ALLEY":" ","HOUSE_NO":"１０１號","E_COORD97":170111.92000000001,"N_COORD97":2543459.1899999999,"ADDRESS":"長榮路二段１０１號","OBJECTID":612472},"geometry":{"x":170111.91999999993,"y":2543459.1899999995}},{"attributes":{"ID":612500,"DIS_CODE":0,"TOWNNAME":"東區","LI":"中西里","LIN":"38鄰","STREET":"長榮路","SECT":"二段","MAREA":" ","LANE":" ","ALLEY":" ","HOUSE_NO":"１３５號","E_COORD97":170137.07000000001,"N_COORD97":2543506.6299999999,"ADDRESS":"長榮路二段１３５號","OBJECTID":612473},"geometry":{"x":170137.06999999937,"y":2543506.629999999}},{"attributes":{"ID":612501,"DIS_CODE":0,"TOWNNAME":"東區","LI":"中西里","LIN":"38鄰","STREET":"長榮路","SECT":"二段","MAREA":" ","LANE":" ","ALLEY":" ","HOUSE_NO":"１３７號","E_COORD97":170153.95000000001,"N_COORD97":2543523.1899999999,"ADDRESS":"長榮路二段１３７號","OBJECTID":612474},"geometry":{"x":170153.95000000112,"y":2543523.1899999995}},{"attributes":{"ID":612502,"DIS_CODE":0,"TOWNNAME":"東區","LI":"中西里","LIN":"38鄰","STREET":"長榮路","SECT":"二段","MAREA":" ","LANE":" ","ALLEY":" ","HOUSE_NO":"１５７號","E_COORD97":170176.75,"N_COORD97":2543543.7200000002,"ADDRESS":"長榮路二段１５７號","OBJECTID":612475},"geometry":{"x":170176.75000000093,"y":2543543.7200000025}},{"attributes":{"ID":612503,"DIS_CODE":0,"TOWNNAME":"東區","LI":"中西里","LIN":"38鄰","STREET":"長榮路","SECT":"二段","MAREA":" ","LANE":" ","ALLEY":" ","HOUSE_NO":"１５９號","E_COORD97":170178.07999999999,"N_COORD97":2543552.7599999998,"ADDRESS":"長榮路二段１５９號","OBJECTID":612476},"geometry":{"x":170178.08000000101,"y":2543552.7599999998}},{"attributes":{"ID":612504,"DIS_CODE":0,"TOWNNAME":"東區","LI":"中西里","LIN":"38鄰","STREET":"長榮路","SECT":"二段","MAREA":" ","LANE":" ","ALLEY":" ","HOUSE_NO":"１６１號","E_COORD97":170178.67000000001,"N_COORD97":2543557.79,"ADDRESS":"長榮路二段１６１號","OBJECTID":612477},"geometry":{"x":170178.67000000086,"y":2543557.790000001}},{"attributes":{"ID":612505,"DIS_CODE":0,"TOWNNAME":"東區","LI":"中西里","LIN":"38鄰","STREET":"長榮路","SECT":"二段","MAREA":" ","LANE":" ","ALLEY":" ","HOUSE_NO":"１６３號","E_COORD97":170179.12,"N_COORD97":2543567.3999999999,"ADDRESS":"長榮路二段１６３號","OBJECTID":612478},"geometry":{"x":170179.12000000197,"y":2543567.3999999985}},{"attributes":{"ID":612506,"DIS_CODE":0,"TOWNNAME":"東區","LI":"中西里","LIN":"38鄰","STREET":"長榮路","SECT":"二段","MAREA":" ","LANE":" ","ALLEY":" ","HOUSE_NO":"１６９號","E_COORD97":170180,"N_COORD97":2543579.9700000002,"ADDRESS":"長榮路二段１６９號","OBJECTID":612479},"geometry":{"x":170180.00000000093,"y":2543579.9700000007}},{"attributes":{"ID":612507,"DIS_CODE":0,"TOWNNAME":"東區","LI":"中西里","LIN":"38鄰","STREET":"長榮路","SECT":"二段","MAREA":" ","LANE":" ","ALLEY":" ","HOUSE_NO":"１７１號","E_COORD97":170181.04000000001,"N_COORD97":2543590.9199999999,"ADDRESS":"長榮路二段１７１號","OBJECTID":612480},"geometry":{"x":170181.04000000004,"y":2543590.9200000037}},{"attributes":{"ID":612508,"DIS_CODE":0,"TOWNNAME":"東區","LI":"中西里","LIN":"38鄰","STREET":"長榮路","SECT":"二段","MAREA":" ","LANE":" ","ALLEY":" ","HOUSE_NO":"７３號","E_COORD97":170077.64000000001,"N_COORD97":2543413.6400000001,"ADDRESS":"長榮路二段７３號","OBJECTID":612481},"geometry":{"x":170077.63999999966,"y":2543413.6400000043}},{"attributes":{"ID":612509,"DIS_CODE":0,"TOWNNAME":"楠西區","LI":"東勢里","LIN":"2鄰","STREET":"中興路","SECT":" ","MAREA":" ","LANE":" ","ALLEY":" ","HOUSE_NO":"２００號","E_COORD97":197360.95999999999,"N_COORD97":2564491.25,"ADDRESS":"中興路２００號","OBJECTID":612482},"geometry":{"x":197360.96000000089,"y":2564491.2500000019}},{"attributes":{"ID":612510,"DIS_CODE":0,"TOWNNAME":"楠西區","LI":"東勢里","LIN":"2鄰","STREET":"中興路","SECT":" ","MAREA":" ","LANE":" ","ALLEY":" ","HOUSE_NO":"２７０號","E_COORD97":197389.66,"N_COORD97":2564445.25,"ADDRESS":"中興路２７０號","OBJECTID":612483},"geometry":{"x":197389.66000000015,"y":2564445.25}},{"attributes":{"ID":612511,"DIS_CODE":0,"TOWNNAME":"楠西區","LI":"東勢里","LIN":"2鄰","STREET":"中興路","SECT":" ","MAREA":" ","LANE":" ","ALLEY":" ","HOUSE_NO":"２５４號","E_COORD97":197390.06,"N_COORD97":2564411.25,"ADDRESS":"中興路２５４號","OBJECTID":612484},"geometry":{"x":197390.06000000145,"y":2564411.25}},{"attributes":{"ID":612512,"DIS_CODE":0,"TOWNNAME":"楠西區","LI":"東勢里","LIN":"2鄰","STREET":"中興路","SECT":" ","MAREA":" ","LANE":" ","ALLEY":" ","HOUSE_NO":"１９６號之５","E_COORD97":197370.45000000001,"N_COORD97":2564542.2999999998,"ADDRESS":"中興路１９６號之５","OBJECTID":612485},"geometry":{"x":197370.45000000019,"y":2564542.3000000026}},{"attributes":{"ID":612513,"DIS_CODE":0,"TOWNNAME":"楠西區","LI":"東勢里","LIN":"2鄰","STREET":"中興路","SECT":" ","MAREA":" ","LANE":" ","ALLEY":" ","HOUSE_NO":"２５６號","E_COORD97":197389.66,"N_COORD97":2564415.25,"ADDRESS":"中興路２５６號","OBJECTID":612486},"geometry":{"x":197389.66000000015,"y":2564415.25}},{"attributes":{"ID":612514,"DIS_CODE":0,"TOWNNAME":"楠西區","LI":"東勢里","LIN":"2鄰","STREET":"中興路","SECT":" ","MAREA":" ","LANE":" ","ALLEY":" ","HOUSE_NO":"２０４號","E_COORD97":197369.95999999999,"N_COORD97":2564492.25,"ADDRESS":"中興路２０４號","OBJECTID":612487},"geometry":{"x":197369.95999999996,"y":2564492.25}},{"attributes":{"ID":612515,"DIS_CODE":0,"TOWNNAME":"楠西區","LI":"東勢里","LIN":"2鄰","STREET":"中興路","SECT":" ","MAREA":" ","LANE":" ","ALLEY":" ","HOUSE_NO":"３０４號","E_COORD97":197390.45999999999,"N_COORD97":2564514.25,"ADDRESS":"中興路３０４號","OBJECTID":612488},"geometry":{"x":197390.45999999996,"y":2564514.2500000037}},{"attributes":{"ID":612516,"DIS_CODE":0,"TOWNNAME":"東區","LI":"中西里","LIN":"38鄰","STREET":"長榮路","SECT":"二段","MAREA":" ","LANE":" ","ALLEY":" ","HOUSE_NO":"７５號","E_COORD97":170081.89000000001,"N_COORD97":2543420.2400000002,"ADDRESS":"長榮路二段７５號","OBJECTID":612489},"geometry":{"x":170081.89000000153,"y":2543420.2400000021}},{"attributes":{"ID":612517,"DIS_CODE":0,"TOWNNAME":"東區","LI":"中西里","LIN":"38鄰","STREET":"長榮路","SECT":"二段","MAREA":" ","LANE":" ","ALLEY":" ","HOUSE_NO":"８５號","E_COORD97":170088.39000000001,"N_COORD97":2543427.3999999999,"ADDRESS":"長榮路二段８５號","OBJECTID":612490},"geometry":{"x":170088.38999999966,"y":2543427.4000000004}},{"attributes":{"ID":612518,"DIS_CODE":0,"TOWNNAME":"東區","LI":"中西里","LIN":"38鄰","STREET":"長榮路","SECT":"二段","MAREA":" ","LANE":" ","ALLEY":" ","HOUSE_NO":"８７號","E_COORD97":170090.95999999999,"N_COORD97":2543431.54,"ADDRESS":"長榮路二段８７號","OBJECTID":612491},"geometry":{"x":170090.95999999996,"y":2543431.5399999991}},{"attributes":{"ID":612519,"DIS_CODE":0,"TOWNNAME":"東區","LI":"中西里","LIN":"38鄰","STREET":"長榮路","SECT":"二段","MAREA":" ","LANE":" ","ALLEY":" ","HOUSE_NO":"９３號","E_COORD97":170099.60000000001,"N_COORD97":2543442.52,"ADDRESS":"長榮路二段９３號","OBJECTID":612492},"geometry":{"x":170099.60000000056,"y":2543442.5199999996}},{"attributes":{"ID":612520,"DIS_CODE":0,"TOWNNAME":"東區","LI":"中西里","LIN":"38鄰","STREET":"長榮路","SECT":"二段","MAREA":" ","LANE":" ","ALLEY":" ","HOUSE_NO":"９５號","E_COORD97":170102.51000000001,"N_COORD97":2543446.3300000001,"ADDRESS":"長榮路二段９５號","OBJECTID":612493},"geometry":{"x":170102.50999999978,"y":2543446.3300000019}},{"attributes":{"ID":612521,"DIS_CODE":0,"TOWNNAME":"東區","LI":"中西里","LIN":"38鄰","STREET":"長榮路","SECT":"二段","MAREA":" ","LANE":" ","ALLEY":" ","HOUSE_NO":"９７號","E_COORD97":170105.76000000001,"N_COORD97":2543450.2400000002,"ADDRESS":"長榮路二段９７號","OBJECTID":612494},"geometry":{"x":170105.75999999978,"y":2543450.2400000021}},{"attributes":{"ID":612522,"DIS_CODE":0,"TOWNNAME":"東區","LI":"中西里","LIN":"38鄰","STREET":"長榮路","SECT":"二段","MAREA":" ","LANE":" ","ALLEY":" ","HOUSE_NO":"９９號","E_COORD97":170108,"N_COORD97":2543454.04,"ADDRESS":"長榮路二段９９號","OBJECTID":612495},"geometry":{"x":170108,"y":2543454.040000001}},{"attributes":{"ID":612523,"DIS_CODE":0,"TOWNNAME":"楠西區","LI":"東勢里","LIN":"2鄰","STREET":"中興路","SECT":" ","MAREA":" ","LANE":" ","ALLEY":" ","HOUSE_NO":"１９４號","E_COORD97":197343.95999999999,"N_COORD97":2564528.25,"ADDRESS":"中興路１９４號","OBJECTID":612496},"geometry":{"x":197343.96000000089,"y":2564528.2500000019}},{"attributes":{"ID":612524,"DIS_CODE":0,"TOWNNAME":"楠西區","LI":"東勢里","LIN":"2鄰","STREET":"中興路","SECT":" ","MAREA":" ","LANE":" ","ALLEY":" ","HOUSE_NO":"１９８號","E_COORD97":197356.85999999999,"N_COORD97":2564491.25,"ADDRESS":"中興路１９８號","OBJECTID":612497},"geometry":{"x":197356.86000000127,"y":2564491.2500000019}},{"attributes":{"ID":612525,"DIS_CODE":0,"TOWNNAME":"楠西區","LI":"東勢里","LIN":"2鄰","STREET":"中興路","SECT":" ","MAREA":" ","LANE":" ","ALLEY":" ","HOUSE_NO":"２９０號","E_COORD97":197390.26000000001,"N_COORD97":2564491.25,"ADDRESS":"中興路２９０號","OBJECTID":612498},"geometry":{"x":197390.25999999978,"y":2564491.2500000019}},{"attributes":{"ID":612526,"DIS_CODE":0,"TOWNNAME":"楠西區","LI":"東勢里","LIN":"2鄰","STREET":"民生路","SECT":" ","MAREA":" ","LANE":" ","ALLEY":" ","HOUSE_NO":"２１０號","E_COORD97":197402.29000000001,"N_COORD97":2564474.29,"ADDRESS":"民生路２１０號","OBJECTID":612499},"geometry":{"x":197402.29000000004,"y":2564474.2899999991}},{"attributes":{"ID":612527,"DIS_CODE":0,"TOWNNAME":"楠西區","LI":"東勢里","LIN":"2鄰","STREET":"中興路","SECT":" ","MAREA":" ","LANE":" ","ALLEY":" ","HOUSE_NO":"３１４號","E_COORD97":197389.85999999999,"N_COORD97":2564534.25,"ADDRESS":"中興路３１４號","OBJECTID":612500},"geometry":{"x":197389.86000000034,"y":2564534.2500000037}},{"attributes":{"ID":612528,"DIS_CODE":0,"TOWNNAME":"楠西區","LI":"東勢里","LIN":"2鄰","STREET":"中興路","SECT":" ","MAREA":" ","LANE":" ","ALLEY":" ","HOUSE_NO":"２６４號","E_COORD97":197388.66,"N_COORD97":2564431.25,"ADDRESS":"中興路２６４號","OBJECTID":612501},"geometry":{"x":197388.66000000108,"y":2564431.25}},{"attributes":{"ID":612529,"DIS_CODE":0,"TOWNNAME":"楠西區","LI":"東勢里","LIN":"2鄰","STREET":"民生路","SECT":" ","MAREA":" ","LANE":" ","ALLEY":" ","HOUSE_NO":"１８６號","E_COORD97":197401.39000000001,"N_COORD97":2564448.29,"ADDRESS":"民生路１８６號","OBJECTID":612502},"geometry":{"x":197401.38999999873,"y":2564448.2900000028}},{"attributes":{"ID":612530,"DIS_CODE":0,"TOWNNAME":"楠西區","LI":"東勢里","LIN":"2鄰","STREET":"中興路","SECT":" ","MAREA":" ","LANE":" ","ALLEY":" ","HOUSE_NO":"２３６號","E_COORD97":197394.26000000001,"N_COORD97":2564358.25,"ADDRESS":"中興路２３６號","OBJECTID":612503},"geometry":{"x":197394.26000000071,"y":2564358.2500000037}},{"attributes":{"ID":612531,"DIS_CODE":0,"TOWNNAME":"楠西區","LI":"東勢里","LIN":"2鄰","STREET":"中興路","SECT":" ","MAREA":" ","LANE":" ","ALLEY":" ","HOUSE_NO":"２８６號","E_COORD97":197390.66,"N_COORD97":2564482.25,"ADDRESS":"中興路２８６號","OBJECTID":612504},"geometry":{"x":197390.66000000108,"y":2564482.25}},{"attributes":{"ID":612532,"DIS_CODE":0,"TOWNNAME":"東區","LI":"仁和里","LIN":"17鄰","STREET":"仁東街","SECT":" ","MAREA":" ","LANE":" ","ALLEY":" ","HOUSE_NO":"７號","E_COORD97":171523.45000000001,"N_COORD97":2541148,"ADDRESS":"仁東街７號","OBJECTID":612505},"geometry":{"x":171523.45000000112,"y":2541148}},{"attributes":{"ID":612533,"DIS_CODE":0,"TOWNNAME":"東區","LI":"仁和里","LIN":"17鄰","STREET":"仁東街","SECT":" ","MAREA":" ","LANE":" ","ALLEY":" ","HOUSE_NO":"９號","E_COORD97":171529.25,"N_COORD97":2541149.9900000002,"ADDRESS":"仁東街９號","OBJECTID":612506},"geometry":{"x":171529.25000000093,"y":2541149.9900000021}},{"attributes":{"ID":612534,"DIS_CODE":0,"TOWNNAME":"楠西區","LI":"楠西里","LIN":"2鄰","STREET":"中華路","SECT":" ","MAREA":" ","LANE":" ","ALLEY":" ","HOUSE_NO":"２８０號","E_COORD97":196927.26000000001,"N_COORD97":2564613.25,"ADDRESS":"中華路２８０號","OBJECTID":612507},"geometry":{"x":196927.25999999978,"y":2564613.2500000019}},{"attributes":{"ID":612535,"DIS_CODE":0,"TOWNNAME":"楠西區","LI":"楠西里","LIN":"2鄰","STREET":"中華路","SECT":" ","MAREA":" ","LANE":" ","ALLEY":" ","HOUSE_NO":"２２０號","E_COORD97":197026.57000000001,"N_COORD97":2564309.8900000001,"ADDRESS":"中華路２２０號","OBJECTID":612508},"geometry":{"x":197026.57000000123,"y":2564309.8900000006}},{"attributes":{"ID":612536,"DIS_CODE":0,"TOWNNAME":"柳營區","LI":"士林里","LIN":"2鄰","STREET":"士賢街","SECT":" ","MAREA":" ","LANE":" ","ALLEY":" ","HOUSE_NO":"１１６號","E_COORD97":179271.94,"N_COORD97":2575252.23,"ADDRESS":"士賢街１１６號","OBJECTID":612509},"geometry":{"x":179271.94000000227,"y":2575252.2300000023}},{"attributes":{"ID":612537,"DIS_CODE":0,"TOWNNAME":"柳營區","LI":"士林里","LIN":"2鄰","STREET":"士賢街","SECT":" ","MAREA":" ","LANE":" ","ALLEY":" ","HOUSE_NO":"１１８號","E_COORD97":179267.70999999999,"N_COORD97":2575251.5099999998,"ADDRESS":"士賢街１１８號","OBJECTID":612510},"geometry":{"x":179267.70999999996,"y":2575251.5099999998}},{"attributes":{"ID":612538,"DIS_CODE":0,"TOWNNAME":"柳營區","LI":"士林里","LIN":"2鄰","STREET":"士賢街","SECT":" ","MAREA":" ","LANE":" ","ALLEY":" ","HOUSE_NO":"１２０號","E_COORD97":179254.60000000001,"N_COORD97":2575249.8700000001,"ADDRESS":"士賢街１２０號","OBJECTID":612511},"geometry":{"x":179254.5999999987,"y":2575249.8700000029}},{"attributes":{"ID":612539,"DIS_CODE":0,"TOWNNAME":"柳營區","LI":"士林里","LIN":"2鄰","STREET":"士賢街","SECT":" ","MAREA":" ","LANE":" ","ALLEY":" ","HOUSE_NO":"１２２號","E_COORD97":179250.09,"N_COORD97":2575249.0499999998,"ADDRESS":"士賢街１２２號","OBJECTID":612512},"geometry":{"x":179250.09000000078,"y":2575249.0500000007}},{"attributes":{"ID":612540,"DIS_CODE":0,"TOWNNAME":"柳營區","LI":"士林里","LIN":"2鄰","STREET":"士賢街","SECT":" ","MAREA":" ","LANE":" ","ALLEY":" ","HOUSE_NO":"１２６號","E_COORD97":179245.57999999999,"N_COORD97":2575248.2400000002,"ADDRESS":"士賢街１２６號","OBJECTID":612513},"geometry":{"x":179245.58000000101,"y":2575248.2400000039}},{"attributes":{"ID":612541,"DIS_CODE":0,"TOWNNAME":"柳營區","LI":"士林里","LIN":"2鄰","STREET":"士賢街","SECT":" ","MAREA":" ","LANE":" ","ALLEY":" ","HOUSE_NO":"１２８號","E_COORD97":179241.06,"N_COORD97":2575247.4300000002,"ADDRESS":"士賢街１２８號","OBJECTID":612514},"geometry":{"x":179241.05999999959,"y":2575247.4300000016}},{"attributes":{"ID":612542,"DIS_CODE":0,"TOWNNAME":"柳營區","LI":"士林里","LIN":"2鄰","STREET":"士賢街","SECT":" ","MAREA":" ","LANE":" ","ALLEY":" ","HOUSE_NO":"１３０號","E_COORD97":179236.54999999999,"N_COORD97":2575246.6099999999,"ADDRESS":"士賢街１３０號","OBJECTID":612515},"geometry":{"x":179236.55000000168,"y":2575246.6099999994}},{"attributes":{"ID":612543,"DIS_CODE":0,"TOWNNAME":"柳營區","LI":"士林里","LIN":"2鄰","STREET":"士賢街","SECT":" ","MAREA":" ","LANE":" ","ALLEY":" ","HOUSE_NO":"１３６號","E_COORD97":179227.53,"N_COORD97":2575244.98,"ADDRESS":"士賢街１３６號","OBJECTID":612516},"geometry":{"x":179227.53000000119,"y":2575244.9800000023}},{"attributes":{"ID":612544,"DIS_CODE":0,"TOWNNAME":"柳營區","LI":"士林里","LIN":"2鄰","STREET":"士賢街","SECT":" ","MAREA":" ","LANE":" ","ALLEY":" ","HOUSE_NO":"１３８號","E_COORD97":179223.01999999999,"N_COORD97":2575244.1699999999,"ADDRESS":"士賢街１３８號","OBJECTID":612517},"geometry":{"x":179223.02000000142,"y":2575244.1699999999}},{"attributes":{"ID":612545,"DIS_CODE":0,"TOWNNAME":"柳營區","LI":"士林里","LIN":"2鄰","STREET":"士賢街","SECT":" ","MAREA":" ","LANE":" ","ALLEY":" ","HOUSE_NO":"１４０號","E_COORD97":179218.51000000001,"N_COORD97":2575243.3500000001,"ADDRESS":"士賢街１４０號","OBJECTID":612518},"geometry":{"x":179218.51000000071,"y":2575243.3500000034}},{"attributes":{"ID":612546,"DIS_CODE":0,"TOWNNAME":"柳營區","LI":"士林里","LIN":"2鄰","STREET":"士賢街","SECT":" ","MAREA":" ","LANE":" ","ALLEY":" ","HOUSE_NO":"１４２號","E_COORD97":179214,"N_COORD97":2575242.54,"ADDRESS":"士賢街１４２號","OBJECTID":612519},"geometry":{"x":179214.00000000093,"y":2575242.540000001}},{"attributes":{"ID":612547,"DIS_CODE":0,"TOWNNAME":"柳營區","LI":"士林里","LIN":"2鄰","STREET":"士賢街","SECT":" ","MAREA":" ","LANE":" ","ALLEY":" ","HOUSE_NO":"１４８號","E_COORD97":179205.01999999999,"N_COORD97":2575238.5099999998,"ADDRESS":"士賢街１４８號","OBJECTID":612520},"geometry":{"x":179205.02000000048,"y":2575238.5099999998}},{"attributes":{"ID":612548,"DIS_CODE":0,"TOWNNAME":"柳營區","LI":"士林里","LIN":"2鄰","STREET":"士賢街","SECT":" ","MAREA":" ","LANE":" ","ALLEY":" ","HOUSE_NO":"１５０號","E_COORD97":179200.39000000001,"N_COORD97":2575237.75,"ADDRESS":"士賢街１５０號","OBJECTID":612521},"geometry":{"x":179200.3900000006,"y":2575237.7500000037}},{"attributes":{"ID":612549,"DIS_CODE":0,"TOWNNAME":"柳營區","LI":"士林里","LIN":"2鄰","STREET":"士賢街","SECT":" ","MAREA":" ","LANE":" ","ALLEY":" ","HOUSE_NO":"１５６號","E_COORD97":179159.48999999999,"N_COORD97":2575235.73,"ADDRESS":"士賢街１５６號","OBJECTID":612522},"geometry":{"x":179159.49000000209,"y":2575235.7300000023}},{"attributes":{"ID":612550,"DIS_CODE":0,"TOWNNAME":"柳營區","LI":"士林里","LIN":"2鄰","STREET":"士賢街","SECT":" ","MAREA":" ","LANE":" ","ALLEY":" ","HOUSE_NO":"１７２號","E_COORD97":179138.54000000001,"N_COORD97":2575254.3100000001,"ADDRESS":"士賢街１７２號","OBJECTID":612523},"geometry":{"x":179138.5400000019,"y":2575254.3100000005}},{"attributes":{"ID":612551,"DIS_CODE":0,"TOWNNAME":"柳營區","LI":"士林里","LIN":"2鄰","STREET":"士賢街","SECT":" ","MAREA":" ","LANE":" ","ALLEY":" ","HOUSE_NO":"１９０號","E_COORD97":179109.37,"N_COORD97":2575227.8100000001,"ADDRESS":"士賢街１９０號","OBJECTID":612524},"geometry":{"x":179109.37000000197,"y":2575227.8100000042}},{"attributes":{"ID":612552,"DIS_CODE":0,"TOWNNAME":"柳營區","LI":"士林里","LIN":"2鄰","STREET":"士賢街","SECT":" ","MAREA":" ","LANE":" ","ALLEY":" ","HOUSE_NO":"２００號","E_COORD97":179081.62,"N_COORD97":2575232.0600000001,"ADDRESS":"士賢街２００號","OBJECTID":612525},"geometry":{"x":179081.62000000011,"y":2575232.0600000005}},{"attributes":{"ID":612553,"DIS_CODE":0,"TOWNNAME":"新營區","LI":"新北里","LIN":"2鄰","STREET":"三興街","SECT":" ","MAREA":" ","LANE":" ","ALLEY":" ","HOUSE_NO":"７１號之６","E_COORD97":179413.94,"N_COORD97":2578995.2799999998,"ADDRESS":"三興街７１號之６","OBJECTID":612526},"geometry":{"x":179413.94000000041,"y":2578995.2799999993}},{"attributes":{"ID":612554,"DIS_CODE":0,"TOWNNAME":"新營區","LI":"嘉芳里","LIN":"2鄰","STREET":"復興路","SECT":" ","MAREA":" ","LANE":" ","ALLEY":" ","HOUSE_NO":"７２４之２號","E_COORD97":177154.07999999999,"N_COORD97":2578600.8999999999,"ADDRESS":"復興路７２４之２號","OBJECTID":612527},"geometry":{"x":177154.08000000101,"y":2578600.9000000022}},{"attributes":{"ID":612555,"DIS_CODE":0,"TOWNNAME":"東區","LI":"仁和里","LIN":"25鄰","STREET":"利東街","SECT":" ","MAREA":" ","LANE":" ","ALLEY":" ","HOUSE_NO":"１１號","E_COORD97":171651.82000000001,"N_COORD97":2541152.8300000001,"ADDRESS":"利東街１１號","OBJECTID":612528},"geometry":{"x":171651.82000000123,"y":2541152.8300000001}},{"attributes":{"ID":612556,"DIS_CODE":0,"TOWNNAME":"東區","LI":"仁和里","LIN":"25鄰","STREET":"利東街","SECT":" ","MAREA":" ","LANE":" ","ALLEY":" ","HOUSE_NO":"１３號","E_COORD97":171652.91,"N_COORD97":2541147.1000000001,"ADDRESS":"利東街１３號","OBJECTID":612529},"geometry":{"x":171652.91000000015,"y":2541147.0999999996}},{"attributes":{"ID":612557,"DIS_CODE":0,"TOWNNAME":"東區","LI":"仁和里","LIN":"25鄰","STREET":"利東街","SECT":" ","MAREA":" ","LANE":" ","ALLEY":" ","HOUSE_NO":"１５號","E_COORD97":171653.73000000001,"N_COORD97":2541142.7400000002,"ADDRESS":"利東街１５號","OBJECTID":612530},"geometry":{"x":171653.73000000138,"y":2541142.7400000002}},{"attributes":{"ID":612558,"DIS_CODE":0,"TOWNNAME":"東區","LI":"仁和里","LIN":"25鄰","STREET":"利東街","SECT":" ","MAREA":" ","LANE":" ","ALLEY":" ","HOUSE_NO":"１７號","E_COORD97":171655.91,"N_COORD97":2541138.6499999999,"ADDRESS":"利東街１７號","OBJECTID":612531},"geometry":{"x":171655.91000000108,"y":2541138.6500000041}},{"attributes":{"ID":612559,"DIS_CODE":0,"TOWNNAME":"東區","LI":"仁和里","LIN":"25鄰","STREET":"利東街","SECT":" ","MAREA":" ","LANE":" ","ALLEY":" ","HOUSE_NO":"１９號","E_COORD97":171656.73000000001,"N_COORD97":2541133.75,"ADDRESS":"利東街１９號","OBJECTID":612532},"geometry":{"x":171656.72999999952,"y":2541133.7499999981}},{"attributes":{"ID":612560,"DIS_CODE":0,"TOWNNAME":"東區","LI":"仁和里","LIN":"25鄰","STREET":"利東街","SECT":" ","MAREA":" ","LANE":" ","ALLEY":" ","HOUSE_NO":"２１號","E_COORD97":171658.35999999999,"N_COORD97":2541128.2999999998,"ADDRESS":"利東街２１號","OBJECTID":612533},"geometry":{"x":171658.36000000127,"y":2541128.3000000026}},{"attributes":{"ID":612561,"DIS_CODE":0,"TOWNNAME":"東區","LI":"仁和里","LIN":"25鄰","STREET":"利東街","SECT":" ","MAREA":" ","LANE":" ","ALLEY":" ","HOUSE_NO":"２３號","E_COORD97":171659.73000000001,"N_COORD97":2541122.2999999998,"ADDRESS":"利東街２３號","OBJECTID":612534},"geometry":{"x":171659.73000000045,"y":2541122.3000000026}},{"attributes":{"ID":612562,"DIS_CODE":0,"TOWNNAME":"東區","LI":"仁和里","LIN":"25鄰","STREET":"利東街","SECT":" ","MAREA":" ","LANE":" ","ALLEY":" ","HOUSE_NO":"２５號","E_COORD97":171661.91,"N_COORD97":2541117.3900000001,"ADDRESS":"利東街２５號","OBJECTID":612535},"geometry":{"x":171661.91000000015,"y":2541117.3900000025}},{"attributes":{"ID":612563,"DIS_CODE":0,"TOWNNAME":"東區","LI":"仁和里","LIN":"25鄰","STREET":"利東街","SECT":" ","MAREA":" ","LANE":" ","ALLEY":" ","HOUSE_NO":"２７號","E_COORD97":171675.10000000001,"N_COORD97":2541115.8999999999,"ADDRESS":"利東街２７號","OBJECTID":612536},"geometry":{"x":171675.09999999963,"y":2541115.9000000004}},{"attributes":{"ID":612564,"DIS_CODE":0,"TOWNNAME":"東區","LI":"仁和里","LIN":"24鄰","STREET":"利東街","SECT":" ","MAREA":" ","LANE":" ","ALLEY":" ","HOUSE_NO":"１０號","E_COORD97":171631.79000000001,"N_COORD97":2541140.75,"ADDRESS":"利東街１０號","OBJECTID":612537},"geometry":{"x":171631.79000000004,"y":2541140.7500000037}},{"attributes":{"ID":612565,"DIS_CODE":0,"TOWNNAME":"東區","LI":"仁和里","LIN":"24鄰","STREET":"利東街","SECT":" ","MAREA":" ","LANE":" ","ALLEY":" ","HOUSE_NO":"１２號","E_COORD97":171633.59,"N_COORD97":2541138.0600000001,"ADDRESS":"利東街１２號","OBJECTID":612538},"geometry":{"x":171633.59000000078,"y":2541138.0600000005}},{"attributes":{"ID":612566,"DIS_CODE":0,"TOWNNAME":"東區","LI":"仁和里","LIN":"24鄰","STREET":"利東街","SECT":" ","MAREA":" ","LANE":" ","ALLEY":" ","HOUSE_NO":"１４號","E_COORD97":171635.39000000001,"N_COORD97":2541135.0600000001,"ADDRESS":"利東街１４號","OBJECTID":612539},"geometry":{"x":171635.3900000006,"y":2541135.0600000005}},{"attributes":{"ID":612567,"DIS_CODE":0,"TOWNNAME":"東區","LI":"仁和里","LIN":"24鄰","STREET":"利東街","SECT":" ","MAREA":" ","LANE":" ","ALLEY":" ","HOUSE_NO":"１６號","E_COORD97":171636.29000000001,"N_COORD97":2541131.1800000002,"ADDRESS":"利東街１６號","OBJECTID":612540},"geometry":{"x":171636.29000000097,"y":2541131.1800000016}},{"attributes":{"ID":612568,"DIS_CODE":0,"TOWNNAME":"東區","LI":"仁和里","LIN":"24鄰","STREET":"利東街","SECT":" ","MAREA":" ","LANE":" ","ALLEY":" ","HOUSE_NO":"１８號","E_COORD97":171637.48000000001,"N_COORD97":2541126.6899999999,"ADDRESS":"利東街１８號","OBJECTID":612541},"geometry":{"x":171637.48000000045,"y":2541126.6899999995}},{"attributes":{"ID":612569,"DIS_CODE":0,"TOWNNAME":"東區","LI":"仁和里","LIN":"24鄰","STREET":"利東街","SECT":" ","MAREA":" ","LANE":" ","ALLEY":" ","HOUSE_NO":"２０號","E_COORD97":171638.38,"N_COORD97":2541123.3999999999,"ADDRESS":"利東街２０號","OBJECTID":612542},"geometry":{"x":171638.38000000175,"y":2541123.4000000041}},{"attributes":{"ID":612570,"DIS_CODE":0,"TOWNNAME":"東區","LI":"仁和里","LIN":"24鄰","STREET":"利東街","SECT":" ","MAREA":" ","LANE":" ","ALLEY":" ","HOUSE_NO":"２２號","E_COORD97":171638.67999999999,"N_COORD97":2541117.71,"ADDRESS":"利東街２２號","OBJECTID":612543},"geometry":{"x":171638.6799999997,"y":2541117.7100000009}},{"attributes":{"ID":612571,"DIS_CODE":0,"TOWNNAME":"東區","LI":"仁和里","LIN":"24鄰","STREET":"利東街","SECT":" ","MAREA":" ","LANE":" ","ALLEY":" ","HOUSE_NO":"２４號","E_COORD97":171639.42999999999,"N_COORD97":2541115.2200000002,"ADDRESS":"利東街２４號","OBJECTID":612544},"geometry":{"x":171639.43000000156,"y":2541115.2200000025}},{"attributes":{"ID":612572,"DIS_CODE":0,"TOWNNAME":"東區","LI":"仁和里","LIN":"24鄰","STREET":"利東街","SECT":" ","MAREA":" ","LANE":" ","ALLEY":" ","HOUSE_NO":"２６號","E_COORD97":171639.28,"N_COORD97":2541113.5299999998,"ADDRESS":"利東街２６號","OBJECTID":612545},"geometry":{"x":171639.27999999933,"y":2541113.5299999993}},{"attributes":{"ID":612573,"DIS_CODE":0,"TOWNNAME":"東區","LI":"仁和里","LIN":"24鄰","STREET":"利東街","SECT":" ","MAREA":" ","LANE":" ","ALLEY":" ","HOUSE_NO":"２８號","E_COORD97":171640.17999999999,"N_COORD97":2541110.2400000002,"ADDRESS":"利東街２８號","OBJECTID":612546},"geometry":{"x":171640.18000000063,"y":2541110.2400000002}},{"attributes":{"ID":612574,"DIS_CODE":0,"TOWNNAME":"東區","LI":"仁和里","LIN":"27鄰","STREET":"仁東街","SECT":" ","MAREA":" ","LANE":" ","ALLEY":" ","HOUSE_NO":"７２號","E_COORD97":171716.60999999999,"N_COORD97":2541177.0800000001,"ADDRESS":"仁東街７２號","OBJECTID":612547},"geometry":{"x":171716.61000000034,"y":2541177.0800000019}},{"attributes":{"ID":612575,"DIS_CODE":0,"TOWNNAME":"東區","LI":"仁和里","LIN":"25鄰","STREET":"利東街","SECT":" ","MAREA":" ","LANE":" ","ALLEY":" ","HOUSE_NO":"３１號","E_COORD97":171671.67000000001,"N_COORD97":2541129.9300000002,"ADDRESS":"利東街３１號","OBJECTID":612548},"geometry":{"x":171671.66999999993,"y":2541129.9300000016}},{"attributes":{"ID":612576,"DIS_CODE":0,"TOWNNAME":"東區","LI":"仁和里","LIN":"24鄰","STREET":"利東街","SECT":" ","MAREA":" ","LANE":" ","ALLEY":" ","HOUSE_NO":"２號","E_COORD97":171628.20000000001,"N_COORD97":2541150.6200000001,"ADDRESS":"利東街２號","OBJECTID":612549},"geometry":{"x":171628.20000000112,"y":2541150.6200000029}},{"attributes":{"ID":612577,"DIS_CODE":0,"TOWNNAME":"東區","LI":"仁和里","LIN":"24鄰","STREET":"利東街","SECT":" ","MAREA":" ","LANE":" ","ALLEY":" ","HOUSE_NO":"３０號","E_COORD97":171633.89000000001,"N_COORD97":2541106.0499999998,"ADDRESS":"利東街３０號","OBJECTID":612550},"geometry":{"x":171633.88999999966,"y":2541106.0500000026}},{"attributes":{"ID":612578,"DIS_CODE":0,"TOWNNAME":"新營區","LI":"民生里","LIN":"2鄰","STREET":"民生路","SECT":" ","MAREA":" ","LANE":" ","ALLEY":" ","HOUSE_NO":"１８之１號","E_COORD97":179396.81,"N_COORD97":2578143.73,"ADDRESS":"民生路１８之１號","OBJECTID":612551},"geometry":{"x":179396.80999999959,"y":2578143.7299999986}},{"attributes":{"ID":612579,"DIS_CODE":0,"TOWNNAME":"新營區","LI":"民權里","LIN":"2鄰","STREET":"博愛街","SECT":" ","MAREA":" ","LANE":" ","ALLEY":" ","HOUSE_NO":"２３號","E_COORD97":179996.87,"N_COORD97":2578146.3599999999,"ADDRESS":"博愛街２３號","OBJECTID":612552},"geometry":{"x":179996.87000000011,"y":2578146.3600000013}},{"attributes":{"ID":612580,"DIS_CODE":0,"TOWNNAME":"新營區","LI":"三仙里","LIN":"2鄰","STREET":"正義街","SECT":" ","MAREA":" ","LANE":" ","ALLEY":" ","HOUSE_NO":"８號之１","E_COORD97":179704.76999999999,"N_COORD97":2578053.6600000001,"ADDRESS":"正義街８號之１","OBJECTID":612553},"geometry":{"x":179704.77000000048,"y":2578053.660000002}},{"attributes":{"ID":612581,"DIS_CODE":0,"TOWNNAME":"新營區","LI":"興業里","LIN":"2鄰","STREET":"新進路","SECT":" ","MAREA":" ","LANE":" ","ALLEY":" ","HOUSE_NO":"２４２號","E_COORD97":180196.34,"N_COORD97":2577882.96,"ADDRESS":"新進路２４２號","OBJECTID":612554},"geometry":{"x":180196.34000000078,"y":2577882.9600000028}},{"attributes":{"ID":612582,"DIS_CODE":0,"TOWNNAME":"新營區","LI":"新南里","LIN":"2鄰","STREET":"新北一街","SECT":" ","MAREA":" ","LANE":" ","ALLEY":" ","HOUSE_NO":"１９號","E_COORD97":178854.39999999999,"N_COORD97":2578606.96,"ADDRESS":"新北一街１９號","OBJECTID":612555},"geometry":{"x":178854.40000000037,"y":2578606.9600000009}},{"attributes":{"ID":612583,"DIS_CODE":0,"TOWNNAME":"新營區","LI":"新北里","LIN":"2鄰","STREET":"周武街","SECT":" ","MAREA":" ","LANE":" ","ALLEY":" ","HOUSE_NO":"５０號","E_COORD97":179392.01999999999,"N_COORD97":2578947.71,"ADDRESS":"周武街５０號","OBJECTID":612556},"geometry":{"x":179392.01999999955,"y":2578947.7100000009}},{"attributes":{"ID":612584,"DIS_CODE":0,"TOWNNAME":"新營區","LI":"南興里","LIN":"2鄰","STREET":"建業路","SECT":" ","MAREA":" ","LANE":" ","ALLEY":" ","HOUSE_NO":"４號之２","E_COORD97":179678.47,"N_COORD97":2577605.2799999998,"ADDRESS":"建業路４之２號","OBJECTID":612557},"geometry":{"x":179678.47000000067,"y":2577605.2799999993}},{"attributes":{"ID":612585,"DIS_CODE":0,"TOWNNAME":"新營區","LI":"南興里","LIN":"2鄰","STREET":"建業路","SECT":" ","MAREA":" ","LANE":" ","ALLEY":" ","HOUSE_NO":"２之６號","E_COORD97":179678.39000000001,"N_COORD97":2577590.8799999999,"ADDRESS":"建業路２之６號","OBJECTID":612558},"geometry":{"x":179678.39000000153,"y":2577590.879999999}},{"attributes":{"ID":612586,"DIS_CODE":0,"TOWNNAME":"新營區","LI":"興業里","LIN":"2鄰","STREET":"新進路","SECT":" ","MAREA":" ","LANE":" ","ALLEY":" ","HOUSE_NO":"２３０之１號","E_COORD97":180313.41,"N_COORD97":2577884.6800000002,"ADDRESS":"新進路２３０之１號","OBJECTID":612559},"geometry":{"x":180313.41000000108,"y":2577884.6799999997}},{"attributes":{"ID":612587,"DIS_CODE":0,"TOWNNAME":"新營區","LI":"忠政里","LIN":"2鄰","STREET":"中正路","SECT":" ","MAREA":" ","LANE":" ","ALLEY":" ","HOUSE_NO":"３３之１０號","E_COORD97":180105.19,"N_COORD97":2579059.5699999998,"ADDRESS":"中正路３３之１０號","OBJECTID":612560},"geometry":{"x":180105.19000000041,"y":2579059.5700000003}},{"attributes":{"ID":612588,"DIS_CODE":0,"TOWNNAME":"新營區","LI":"新南里","LIN":"2鄰","STREET":"新北一街","SECT":" ","MAREA":" ","LANE":" ","ALLEY":" ","HOUSE_NO":"３９號","E_COORD97":178790.10999999999,"N_COORD97":2578618.3599999999,"ADDRESS":"新北一街３９號","OBJECTID":612561},"geometry":{"x":178790.11000000034,"y":2578618.3599999994}},{"attributes":{"ID":612589,"DIS_CODE":0,"TOWNNAME":"新營區","LI":"忠政里","LIN":"2鄰","STREET":"中正路","SECT":" ","MAREA":" ","LANE":" ","ALLEY":" ","HOUSE_NO":"３３之５號","E_COORD97":180104.85999999999,"N_COORD97":2579038.52,"ADDRESS":"中正路３３之５號","OBJECTID":612562},"geometry":{"x":180104.86000000127,"y":2579038.5199999996}},{"attributes":{"ID":612590,"DIS_CODE":0,"TOWNNAME":"新營區","LI":"新北里","LIN":"2鄰","STREET":"三興街","SECT":" ","MAREA":" ","LANE":" ","ALLEY":" ","HOUSE_NO":"７１號之８","E_COORD97":179404.76000000001,"N_COORD97":2578993.1099999999,"ADDRESS":"三興街７１號之８","OBJECTID":612563},"geometry":{"x":179404.76000000164,"y":2578993.1099999994}},{"attributes":{"ID":612591,"DIS_CODE":0,"TOWNNAME":"新營區","LI":"中營里","LIN":"2鄰","STREET":"文昌街","SECT":" ","MAREA":" ","LANE":" ","ALLEY":" ","HOUSE_NO":"３１號之１","E_COORD97":180325.10000000001,"N_COORD97":2578315.4300000002,"ADDRESS":"文昌街３１號之１","OBJECTID":612564},"geometry":{"x":180325.10000000056,"y":2578315.4300000016}},{"attributes":{"ID":612592,"DIS_CODE":0,"TOWNNAME":"新營區","LI":"好平里","LIN":"2鄰","STREET":"武侯街","SECT":" ","MAREA":" ","LANE":" ","ALLEY":" ","HOUSE_NO":"７之１號","E_COORD97":179676.87,"N_COORD97":2577710.4900000002,"ADDRESS":"武侯街７之１號","OBJECTID":612565},"geometry":{"x":179676.87000000011,"y":2577710.4900000002}},{"attributes":{"ID":612593,"DIS_CODE":0,"TOWNNAME":"新營區","LI":"新南里","LIN":"2鄰","STREET":"新北一街","SECT":" ","MAREA":" ","LANE":" ","ALLEY":" ","HOUSE_NO":"４７號","E_COORD97":178762.53,"N_COORD97":2578628.46,"ADDRESS":"新北一街４７號","OBJECTID":612566},"geometry":{"x":178762.53000000212,"y":2578628.4600000028}},{"attributes":{"ID":612594,"DIS_CODE":0,"TOWNNAME":"新營區","LI":"好平里","LIN":"2鄰","STREET":"新進路","SECT":"二段","MAREA":" ","LANE":" ","ALLEY":" ","HOUSE_NO":"７１號","E_COORD97":179558.04999999999,"N_COORD97":2577724.29,"ADDRESS":"新進路二段７１號","OBJECTID":612567},"geometry":{"x":179558.04999999981,"y":2577724.2899999991}},{"attributes":{"ID":612595,"DIS_CODE":0,"TOWNNAME":"新營區","LI":"新南里","LIN":"2鄰","STREET":"新北一街","SECT":" ","MAREA":" ","LANE":" ","ALLEY":" ","HOUSE_NO":"１１號","E_COORD97":178863.67999999999,"N_COORD97":2578622.4300000002,"ADDRESS":"新北一街１１號","OBJECTID":612568},"geometry":{"x":178863.6799999997,"y":2578622.4299999997}},{"attributes":{"ID":612596,"DIS_CODE":0,"TOWNNAME":"新營區","LI":"好平里","LIN":"2鄰","STREET":"新進路","SECT":"二段","MAREA":" ","LANE":" ","ALLEY":" ","HOUSE_NO":"４９號","E_COORD97":179634.85999999999,"N_COORD97":2577732.7799999998,"ADDRESS":"新進路二段４９號","OBJECTID":612569},"geometry":{"x":179634.86000000034,"y":2577732.7800000012}},{"attributes":{"ID":612597,"DIS_CODE":0,"TOWNNAME":"東區","LI":"仁和里","LIN":"25鄰","STREET":"利東街","SECT":" ","MAREA":" ","LANE":" ","ALLEY":" ","HOUSE_NO":"３３號","E_COORD97":171666.67000000001,"N_COORD97":2541143.0299999998,"ADDRESS":"利東街３３號","OBJECTID":612570},"geometry":{"x":171666.66999999993,"y":2541143.0300000012}},{"attributes":{"ID":612598,"DIS_CODE":0,"TOWNNAME":"東區","LI":"仁和里","LIN":"24鄰","STREET":"利東街","SECT":" ","MAREA":" ","LANE":" ","ALLEY":" ","HOUSE_NO":"３２號","E_COORD97":171625.01999999999,"N_COORD97":2541123.98,"ADDRESS":"利東街３２號","OBJECTID":612571},"geometry":{"x":171625.01999999862,"y":2541123.9800000023}},{"attributes":{"ID":612599,"DIS_CODE":0,"TOWNNAME":"新營區","LI":"民權里","LIN":"2鄰","STREET":"博愛街","SECT":" ","MAREA":" ","LANE":" ","ALLEY":" ","HOUSE_NO":"１９號","E_COORD97":180005,"N_COORD97":2578149.6499999999,"ADDRESS":"博愛街１９號","OBJECTID":612572},"geometry":{"x":180005.00000000186,"y":2578149.6500000004}},{"attributes":{"ID":612600,"DIS_CODE":0,"TOWNNAME":"新營區","LI":"三仙里","LIN":"2鄰","STREET":"復興路","SECT":" ","MAREA":" ","LANE":" ","ALLEY":" ","HOUSE_NO":"６號之２","E_COORD97":179738.26999999999,"N_COORD97":2577987.0600000001,"ADDRESS":"復興路６號之２","OBJECTID":612573},"geometry":{"x":179738.27000000142,"y":2577987.0600000024}},{"attributes":{"ID":612601,"DIS_CODE":0,"TOWNNAME":"新營區","LI":"南興里","LIN":"2鄰","STREET":"建業路","SECT":" ","MAREA":" ","LANE":" ","ALLEY":" ","HOUSE_NO":"１２號","E_COORD97":179619.85000000001,"N_COORD97":2577603.2799999998,"ADDRESS":"建業路１２號","OBJECTID":612574},"geometry":{"x":179619.85000000056,"y":2577603.2800000031}},{"attributes":{"ID":612602,"DIS_CODE":0,"TOWNNAME":"新營區","LI":"延平里","LIN":"2鄰","STREET":"成功街","SECT":" ","MAREA":" ","LANE":" ","ALLEY":" ","HOUSE_NO":"４號","E_COORD97":179761.978413,"N_COORD97":2577817.9461300001,"ADDRESS":"成功街４號","OBJECTID":612575},"geometry":{"x":179761.9784130007,"y":2577817.9461300019}},{"attributes":{"ID":612603,"DIS_CODE":0,"TOWNNAME":"新營區","LI":"三仙里","LIN":"2鄰","STREET":"復興路","SECT":" ","MAREA":" ","LANE":" ","ALLEY":" ","HOUSE_NO":"１８號","E_COORD97":179711.73000000001,"N_COORD97":2577998.21,"ADDRESS":"復興路１８號","OBJECTID":612576},"geometry":{"x":179711.73000000045,"y":2577998.2100000009}},{"attributes":{"ID":612604,"DIS_CODE":0,"TOWNNAME":"新營區","LI":"好平里","LIN":"2鄰","STREET":"新進路","SECT":"二段","MAREA":" ","LANE":" ","ALLEY":" ","HOUSE_NO":"６３號","E_COORD97":179577.48000000001,"N_COORD97":2577725.2999999998,"ADDRESS":"新進路二段６３號","OBJECTID":612577},"geometry":{"x":179577.48000000138,"y":2577725.3000000007}},{"attributes":{"ID":612605,"DIS_CODE":0,"TOWNNAME":"新營區","LI":"新北里","LIN":"2鄰","STREET":"周武街","SECT":" ","MAREA":" ","LANE":" ","ALLEY":" ","HOUSE_NO":"７０號","E_COORD97":179377.95999999999,"N_COORD97":2578998.71,"ADDRESS":"周武街７０號","OBJECTID":612578},"geometry":{"x":179377.95999999903,"y":2578998.709999999}},{"attributes":{"ID":612606,"DIS_CODE":0,"TOWNNAME":"新營區","LI":"嘉芳里","LIN":"2鄰","STREET":"復興路","SECT":" ","MAREA":" ","LANE":" ","ALLEY":" ","HOUSE_NO":"７５６號","E_COORD97":177032.17999999999,"N_COORD97":2578656.8199999998,"ADDRESS":"復興路７５６號","OBJECTID":612579},"geometry":{"x":177032.18000000063,"y":2578656.8200000003}},{"attributes":{"ID":612607,"DIS_CODE":0,"TOWNNAME":"新營區","LI":"忠政里","LIN":"2鄰","STREET":"中正路","SECT":" ","MAREA":" ","LANE":" ","ALLEY":" ","HOUSE_NO":"３３之２號","E_COORD97":180105.82999999999,"N_COORD97":2579026.3300000001,"ADDRESS":"中正路３３之２號","OBJECTID":612580},"geometry":{"x":180105.83000000007,"y":2579026.3300000001}},{"attributes":{"ID":612608,"DIS_CODE":0,"TOWNNAME":"新營區","LI":"民生里","LIN":"2鄰","STREET":"三興街","SECT":" ","MAREA":" ","LANE":" ","ALLEY":" ","HOUSE_NO":"７號","E_COORD97":179483.14000000001,"N_COORD97":2578152.1099999999,"ADDRESS":"三興街７號","OBJECTID":612581},"geometry":{"x":179483.13999999966,"y":2578152.1100000013}},{"attributes":{"ID":612609,"DIS_CODE":0,"TOWNNAME":"新營區","LI":"新東里","LIN":"2鄰","STREET":"開元路","SECT":" ","MAREA":" ","LANE":" ","ALLEY":" ","HOUSE_NO":"１１７號","E_COORD97":181021.54000000001,"N_COORD97":2578935.6099999999,"ADDRESS":"開元路１１７號","OBJECTID":612582},"geometry":{"x":181021.54000000004,"y":2578935.6099999994}},{"attributes":{"ID":612610,"DIS_CODE":0,"TOWNNAME":"新營區","LI":"民榮里","LIN":"2鄰","STREET":"興農街","SECT":" ","MAREA":" ","LANE":" ","ALLEY":" ","HOUSE_NO":"１７號","E_COORD97":179267.63,"N_COORD97":2577962.6600000001,"ADDRESS":"興農街１７號","OBJECTID":612583},"geometry":{"x":179267.62999999989,"y":2577962.660000002}},{"attributes":{"ID":612611,"DIS_CODE":0,"TOWNNAME":"新營區","LI":"民榮里","LIN":"2鄰","STREET":"濟安街","SECT":" ","MAREA":" ","LANE":" ","ALLEY":" ","HOUSE_NO":"７４號","E_COORD97":179289.04000000001,"N_COORD97":2577941.52,"ADDRESS":"濟安街７４號","OBJECTID":612584},"geometry":{"x":179289.04000000004,"y":2577941.5200000014}},{"attributes":{"ID":612612,"DIS_CODE":0,"TOWNNAME":"安平區","LI":"億載里","LIN":"2鄰","STREET":"光州七街","SECT":" ","MAREA":" ","LANE":" ","ALLEY":" ","HOUSE_NO":"１１２號","E_COORD97":163967.88,"N_COORD97":2543734.5099999998,"ADDRESS":"光州七街１１２號","OBJECTID":612585},"geometry":{"x":163967.88000000082,"y":2543734.5099999998}},{"attributes":{"ID":612613,"DIS_CODE":0,"TOWNNAME":"安平區","LI":"億載里","LIN":"2鄰","STREET":"光州七街","SECT":" ","MAREA":" ","LANE":" ","ALLEY":" ","HOUSE_NO":"１１４號","E_COORD97":163963.17000000001,"N_COORD97":2543732.9399999999,"ADDRESS":"光州七街１１４號","OBJECTID":612586},"geometry":{"x":163963.16999999993,"y":2543732.9400000013}},{"attributes":{"ID":612614,"DIS_CODE":0,"TOWNNAME":"安平區","LI":"億載里","LIN":"2鄰","STREET":"光州七街","SECT":" ","MAREA":" ","LANE":" ","ALLEY":" ","HOUSE_NO":"１１６號","E_COORD97":163958.45999999999,"N_COORD97":2543734.1200000001,"ADDRESS":"光州七街１１６號","OBJECTID":612587},"geometry":{"x":163958.45999999996,"y":2543734.1200000029}},{"attributes":{"ID":612615,"DIS_CODE":0,"TOWNNAME":"安平區","LI":"億載里","LIN":"2鄰","STREET":"光州七街","SECT":" ","MAREA":" ","LANE":" ","ALLEY":" ","HOUSE_NO":"１１８號","E_COORD97":163954.14000000001,"N_COORD97":2543735.6899999999,"ADDRESS":"光州七街１１８號","OBJECTID":612588},"geometry":{"x":163954.1400000006,"y":2543735.6900000013}},{"attributes":{"ID":612616,"DIS_CODE":0,"TOWNNAME":"安平區","LI":"億載里","LIN":"2鄰","STREET":"光州路","SECT":" ","MAREA":" ","LANE":" ","ALLEY":" ","HOUSE_NO":"１３２號","E_COORD97":163841.45999999999,"N_COORD97":2543767.8599999999,"ADDRESS":"光州路１３２號","OBJECTID":612589},"geometry":{"x":163841.45999999996,"y":2543767.8600000013}},{"attributes":{"ID":612617,"DIS_CODE":0,"TOWNNAME":"東區","LI":"仁和里","LIN":"25鄰","STREET":"利東街","SECT":" ","MAREA":" ","LANE":" ","ALLEY":" ","HOUSE_NO":"３５號","E_COORD97":171677.60000000001,"N_COORD97":2541159.25,"ADDRESS":"利東街３５號","OBJECTID":612590},"geometry":{"x":171677.60000000056,"y":2541159.2500000019}},{"attributes":{"ID":612618,"DIS_CODE":0,"TOWNNAME":"東區","LI":"仁和里","LIN":"24鄰","STREET":"利東街","SECT":" ","MAREA":" ","LANE":" ","ALLEY":" ","HOUSE_NO":"３６號","E_COORD97":171647.32000000001,"N_COORD97":2541093.2599999998,"ADDRESS":"利東街３６號","OBJECTID":612591},"geometry":{"x":171647.3200000003,"y":2541093.2600000016}},{"attributes":{"ID":612619,"DIS_CODE":0,"TOWNNAME":"東區","LI":"仁和里","LIN":"27鄰","STREET":"利東街","SECT":" ","MAREA":" ","LANE":" ","ALLEY":" ","HOUSE_NO":"３７號","E_COORD97":171692.89000000001,"N_COORD97":2541160.4900000002,"ADDRESS":"利東街３７號","OBJECTID":612592},"geometry":{"x":171692.8900000006,"y":2541160.4900000021}},{"attributes":{"ID":612620,"DIS_CODE":0,"TOWNNAME":"安平區","LI":"文平里","LIN":"2鄰","STREET":"中華西路","SECT":"二段","MAREA":" ","LANE":" ","ALLEY":" ","HOUSE_NO":"７７號","E_COORD97":166605.5,"N_COORD97":2543238.1699999999,"ADDRESS":"中華西路二段７７號","OBJECTID":612593},"geometry":{"x":166605.5,"y":2543238.1699999999}},{"attributes":{"ID":612621,"DIS_CODE":0,"TOWNNAME":"安平區","LI":"文平里","LIN":"2鄰","STREET":"中華西路","SECT":"二段","MAREA":" ","LANE":" ","ALLEY":" ","HOUSE_NO":"７９號","E_COORD97":166605.89999999999,"N_COORD97":2543243.0800000001,"ADDRESS":"中華西路二段７９號","OBJECTID":612594},"geometry":{"x":166605.9000000013,"y":2543243.0800000001}},{"attributes":{"ID":612622,"DIS_CODE":0,"TOWNNAME":"南區","LI":"省躬里","LIN":"2鄰","STREET":"省躬三街","SECT":" ","MAREA":" ","LANE":" ","ALLEY":" ","HOUSE_NO":"１６１號","E_COORD97":165744.92000000001,"N_COORD97":2536728.9700000002,"ADDRESS":"省躬三街１６１號","OBJECTID":612595},"geometry":{"x":165744.91999999993,"y":2536728.9700000044}},{"attributes":{"ID":612623,"DIS_CODE":0,"TOWNNAME":"南區","LI":"省躬里","LIN":"2鄰","STREET":"省躬三街","SECT":" ","MAREA":" ","LANE":" ","ALLEY":" ","HOUSE_NO":"１６９號","E_COORD97":165749.54999999999,"N_COORD97":2536705.3799999999,"ADDRESS":"省躬三街１６９號","OBJECTID":612596},"geometry":{"x":165749.54999999888,"y":2536705.3800000008}},{"attributes":{"ID":612624,"DIS_CODE":0,"TOWNNAME":"東區","LI":"仁和里","LIN":"24鄰","STREET":"利東街","SECT":" ","MAREA":" ","LANE":" ","ALLEY":" ","HOUSE_NO":"３８號","E_COORD97":171648.16,"N_COORD97":2541085.2999999998,"ADDRESS":"利東街３８號","OBJECTID":612597},"geometry":{"x":171648.16000000015,"y":2541085.3000000007}},{"attributes":{"ID":612625,"DIS_CODE":0,"TOWNNAME":"東區","LI":"仁和里","LIN":"27鄰","STREET":"利東街","SECT":" ","MAREA":" ","LANE":" ","ALLEY":" ","HOUSE_NO":"３９號","E_COORD97":171706.94,"N_COORD97":2541153.0099999998,"ADDRESS":"利東街３９號","OBJECTID":612598},"geometry":{"x":171706.94000000134,"y":2541153.0100000016}},{"attributes":{"ID":612626,"DIS_CODE":0,"TOWNNAME":"南區","LI":"省躬里","LIN":"2鄰","STREET":"省躬三街","SECT":" ","MAREA":" ","LANE":" ","ALLEY":" ","HOUSE_NO":"１７１號","E_COORD97":165749.54999999999,"N_COORD97":2536699.9500000002,"ADDRESS":"省躬三街１７１號","OBJECTID":612599},"geometry":{"x":165749.54999999888,"y":2536699.9499999993}},{"attributes":{"ID":612627,"DIS_CODE":0,"TOWNNAME":"南區","LI":"省躬里","LIN":"2鄰","STREET":"省躬三街","SECT":" ","MAREA":" ","LANE":" ","ALLEY":" ","HOUSE_NO":"１７３號","E_COORD97":165750.91,"N_COORD97":2536694.7799999998,"ADDRESS":"省躬三街１７３號","OBJECTID":612600},"geometry":{"x":165750.91000000201,"y":2536694.7799999975}}]}