{"displayFieldName":"TOWNNAME","fieldAliases":{"ID":"ID","DIS_CODE":"DIS_CODE","TOWNNAME":"TOWNNAME","LI":"LI","LIN":"LIN","STREET":"STREET","SECT":"SECT","MAREA":"MAREA","LANE":"LANE","ALLEY":"ALLEY","HOUSE_NO":"HOUSE_NO","E_COORD97":"E_COORD97","N_COORD97":"N_COORD97","ADDRESS":"ADDRESS","OBJECTID":"OBJECTID"},"geometryType":"esriGeometryPoint","spatialReference":{"wkid":102443,"latestWkid":3826},"fields":[{"name":"ID","type":"esriFieldTypeDouble","alias":"ID"},{"name":"DIS_CODE","type":"esriFieldTypeInteger","alias":"DIS_CODE"},{"name":"TOWNNAME","type":"esriFieldTypeString","alias":"TOWNNAME","length":8},{"name":"LI","type":"esriFieldTypeString","alias":"LI","length":8},{"name":"LIN","type":"esriFieldTypeString","alias":"LIN","length":12},{"name":"STREET","type":"esriFieldTypeString","alias":"STREET","length":20},{"name":"SECT","type":"esriFieldTypeString","alias":"SECT","length":8},{"name":"MAREA","type":"esriFieldTypeString","alias":"MAREA","length":12},{"name":"LANE","type":"esriFieldTypeString","alias":"LANE","length":10},{"name":"ALLEY","type":"esriFieldTypeString","alias":"ALLEY","length":10},{"name":"HOUSE_NO","type":"esriFieldTypeString","alias":"HOUSE_NO","length":20},{"name":"E_COORD97","type":"esriFieldTypeDouble","alias":"E_COORD97"},{"name":"N_COORD97","type":"esriFieldTypeDouble","alias":"N_COORD97"},{"name":"ADDRESS","type":"esriFieldTypeString","alias":"ADDRESS","length":50},{"name":"OBJECTID","type":"esriFieldTypeOID","alias":"OBJECTID"}],"features":[{"attributes":{"ID":659828,"DIS_CODE":0,"TOWNNAME":"永康區","LI":"大灣里","LIN":"31鄰","STREET":"文賢街","SECT":" ","MAREA":" ","LANE":"６８巷","ALLEY":"３６弄","HOUSE_NO":"７６號","E_COORD97":175422.019703,"N_COORD97":2545044.4536700002,"ADDRESS":"文賢街６８巷３６弄７６號","OBJECTID":659801},"geometry":{"x":175422.01970299985,"y":2545044.4536670018}},{"attributes":{"ID":659829,"DIS_CODE":0,"TOWNNAME":"新營區","LI":"新南里","LIN":"16鄰","STREET":"隋唐街","SECT":" ","MAREA":" ","LANE":"３１巷","ALLEY":" ","HOUSE_NO":"４９號","E_COORD97":178690.484161,"N_COORD97":2578348.6787399999,"ADDRESS":"隋唐街３１巷４９號","OBJECTID":659802},"geometry":{"x":178690.48416099977,"y":2578348.6787360013}},{"attributes":{"ID":659830,"DIS_CODE":0,"TOWNNAME":"西港區","LI":"港東里","LIN":"11鄰","STREET":" ","SECT":" ","MAREA":"烏竹林","LANE":" ","ALLEY":" ","HOUSE_NO":"５８之８號","E_COORD97":169628.314071,"N_COORD97":2558222.8054399998,"ADDRESS":"烏竹林５８之８號","OBJECTID":659803},"geometry":{"x":169628.31407100148,"y":2558222.8054419998}},{"attributes":{"ID":659831,"DIS_CODE":0,"TOWNNAME":"安南區","LI":"州南里","LIN":"19鄰","STREET":"安和路","SECT":"四段","MAREA":" ","LANE":"５３８巷","ALLEY":" ","HOUSE_NO":"１１２號","E_COORD97":170106.534235,"N_COORD97":2551196.1505499999,"ADDRESS":"安和路四段５３８巷１１２號","OBJECTID":659804},"geometry":{"x":170106.53423500061,"y":2551196.1505540013}},{"attributes":{"ID":659832,"DIS_CODE":0,"TOWNNAME":"安南區","LI":"州南里","LIN":"19鄰","STREET":"安和路","SECT":"四段","MAREA":" ","LANE":"５３８巷","ALLEY":" ","HOUSE_NO":"１１６號","E_COORD97":170116.874171,"N_COORD97":2551195.39903,"ADDRESS":"安和路四段５３８巷１１６號","OBJECTID":659805},"geometry":{"x":170116.87417100184,"y":2551195.3990250006}},{"attributes":{"ID":659833,"DIS_CODE":0,"TOWNNAME":"西港區","LI":"港東里","LIN":"11鄰","STREET":" ","SECT":" ","MAREA":"烏竹林","LANE":" ","ALLEY":" ","HOUSE_NO":"５８之５號","E_COORD97":169711.58180700001,"N_COORD97":2558169.9946400002,"ADDRESS":"烏竹林５８之５號","OBJECTID":659806},"geometry":{"x":169711.58180699963,"y":2558169.9946369994}},{"attributes":{"ID":659834,"DIS_CODE":0,"TOWNNAME":"安南區","LI":"州南里","LIN":"19鄰","STREET":"安和路","SECT":"四段","MAREA":" ","LANE":"５３８巷","ALLEY":" ","HOUSE_NO":"１１８號","E_COORD97":170122.79613500001,"N_COORD97":2551195.2111399998,"ADDRESS":"安和路四段５３８巷１１８號","OBJECTID":659807},"geometry":{"x":170122.79613500182,"y":2551195.2111420017}},{"attributes":{"ID":659835,"DIS_CODE":0,"TOWNNAME":"安南區","LI":"州南里","LIN":"19鄰","STREET":"安和路","SECT":"四段","MAREA":" ","LANE":"５３８巷","ALLEY":" ","HOUSE_NO":"１２０號","E_COORD97":170129.37609400001,"N_COORD97":2551195.0232600002,"ADDRESS":"安和路四段５３８巷１２０號","OBJECTID":659808},"geometry":{"x":170129.37609400041,"y":2551195.0232600011}},{"attributes":{"ID":659836,"DIS_CODE":0,"TOWNNAME":"安南區","LI":"州南里","LIN":"19鄰","STREET":"安和路","SECT":"四段","MAREA":" ","LANE":"５３８巷","ALLEY":" ","HOUSE_NO":"１２２號","E_COORD97":170137.46004400001,"N_COORD97":2551195.7747900002,"ADDRESS":"安和路四段５３８巷１２２號","OBJECTID":659809},"geometry":{"x":170137.4600440003,"y":2551195.7747890018}},{"attributes":{"ID":659837,"DIS_CODE":0,"TOWNNAME":"西港區","LI":"南海里","LIN":"21鄰","STREET":" ","SECT":" ","MAREA":"中港","LANE":" ","ALLEY":" ","HOUSE_NO":"４０號","E_COORD97":167595.93849,"N_COORD97":2556537.6286399998,"ADDRESS":"中港４０號","OBJECTID":659810},"geometry":{"x":167595.93849000055,"y":2556537.6286399998}},{"attributes":{"ID":659838,"DIS_CODE":0,"TOWNNAME":"善化區","LI":"溪美里","LIN":"1鄰","STREET":" ","SECT":" ","MAREA":"溪尾","LANE":" ","ALLEY":" ","HOUSE_NO":"８８２號","E_COORD97":177089.671302,"N_COORD97":2560243.6769900001,"ADDRESS":"溪尾８８２號","OBJECTID":659811},"geometry":{"x":177089.67130200099,"y":2560243.6769950036}},{"attributes":{"ID":659839,"DIS_CODE":0,"TOWNNAME":"仁德區","LI":"仁德里","LIN":"17鄰","STREET":"文華路","SECT":"三段","MAREA":" ","LANE":"４２８巷","ALLEY":"３９弄","HOUSE_NO":"１號","E_COORD97":172517.07038200001,"N_COORD97":2541267.7199300001,"ADDRESS":"文華路三段４２８巷３９弄１號","OBJECTID":659812},"geometry":{"x":172517.07038200088,"y":2541267.7199260015}},{"attributes":{"ID":659840,"DIS_CODE":0,"TOWNNAME":"仁德區","LI":"仁德里","LIN":"17鄰","STREET":"文華路","SECT":"三段","MAREA":" ","LANE":"４２８巷","ALLEY":"３９弄","HOUSE_NO":"３號","E_COORD97":172517.706236,"N_COORD97":2541274.4932599999,"ADDRESS":"文華路三段４２８巷３９弄３號","OBJECTID":659813},"geometry":{"x":172517.70623600017,"y":2541274.4932559971}},{"attributes":{"ID":659841,"DIS_CODE":0,"TOWNNAME":"仁德區","LI":"仁德里","LIN":"17鄰","STREET":"文華路","SECT":"三段","MAREA":" ","LANE":"４２８巷","ALLEY":"３９弄","HOUSE_NO":"５號","E_COORD97":172519.18989499999,"N_COORD97":2541282.32492,"ADDRESS":"文華路三段４２８巷３９弄５號","OBJECTID":659814},"geometry":{"x":172519.18989499938,"y":2541282.3249190021}},{"attributes":{"ID":659842,"DIS_CODE":0,"TOWNNAME":"仁德區","LI":"仁德里","LIN":"17鄰","STREET":"文華路","SECT":"三段","MAREA":" ","LANE":"４２８巷","ALLEY":"３９弄","HOUSE_NO":"７號","E_COORD97":172520.24965099999,"N_COORD97":2541289.73325,"ADDRESS":"文華路三段４２８巷３９弄７號","OBJECTID":659815},"geometry":{"x":172520.24965100084,"y":2541289.7332479991}},{"attributes":{"ID":659843,"DIS_CODE":0,"TOWNNAME":"仁德區","LI":"仁德里","LIN":"17鄰","STREET":"文華路","SECT":"三段","MAREA":" ","LANE":"４２８巷","ALLEY":"３９弄","HOUSE_NO":"９號","E_COORD97":172521.52135900001,"N_COORD97":2541297.1415800001,"ADDRESS":"文華路三段４２８巷３９弄９號","OBJECTID":659816},"geometry":{"x":172521.52135900222,"y":2541297.1415770017}},{"attributes":{"ID":659844,"DIS_CODE":0,"TOWNNAME":"仁德區","LI":"仁德里","LIN":"17鄰","STREET":"文華路","SECT":"三段","MAREA":" ","LANE":"４２８巷","ALLEY":"３９弄","HOUSE_NO":"１１號","E_COORD97":172523.42892000001,"N_COORD97":2541304.5499100001,"ADDRESS":"文華路三段４２８巷３９弄１１號","OBJECTID":659817},"geometry":{"x":172523.42892000079,"y":2541304.5499069989}},{"attributes":{"ID":659845,"DIS_CODE":0,"TOWNNAME":"仁德區","LI":"仁德里","LIN":"17鄰","STREET":"文華路","SECT":"三段","MAREA":" ","LANE":"４２８巷","ALLEY":"３９弄","HOUSE_NO":"１３號","E_COORD97":172524.064774,"N_COORD97":2541311.74657,"ADDRESS":"文華路三段４２８巷３９弄１３號","OBJECTID":659818},"geometry":{"x":172524.06477400009,"y":2541311.7465689983}},{"attributes":{"ID":659846,"DIS_CODE":0,"TOWNNAME":"仁德區","LI":"仁德里","LIN":"17鄰","STREET":"文華路","SECT":"三段","MAREA":" ","LANE":"４２８巷","ALLEY":"３９弄","HOUSE_NO":"１５號","E_COORD97":172524.912579,"N_COORD97":2541319.7899000002,"ADDRESS":"文華路三段４２８巷３９弄１５號","OBJECTID":659819},"geometry":{"x":172524.912579,"y":2541319.7898980007}},{"attributes":{"ID":659847,"DIS_CODE":0,"TOWNNAME":"仁德區","LI":"仁德里","LIN":"17鄰","STREET":"文華路","SECT":"三段","MAREA":" ","LANE":"４２８巷","ALLEY":"５３弄","HOUSE_NO":"１號","E_COORD97":172574.509173,"N_COORD97":2541267.7199300001,"ADDRESS":"文華路三段４２８巷５３弄１號","OBJECTID":659820},"geometry":{"x":172574.50917300116,"y":2541267.7199260015}},{"attributes":{"ID":659848,"DIS_CODE":0,"TOWNNAME":"仁德區","LI":"仁德里","LIN":"17鄰","STREET":"文華路","SECT":"三段","MAREA":" ","LANE":"４２８巷","ALLEY":"５３弄","HOUSE_NO":"３號","E_COORD97":172567.090879,"N_COORD97":2541269.2015900002,"ADDRESS":"文華路三段４２８巷５３弄３號","OBJECTID":659821},"geometry":{"x":172567.09087899979,"y":2541269.2015920021}},{"attributes":{"ID":659849,"DIS_CODE":0,"TOWNNAME":"仁德區","LI":"仁德里","LIN":"17鄰","STREET":"文華路","SECT":"三段","MAREA":" ","LANE":"４２８巷","ALLEY":"５３弄","HOUSE_NO":"５號","E_COORD97":172559.46063399999,"N_COORD97":2541270.89493,"ADDRESS":"文華路三段４２８巷５３弄５號","OBJECTID":659822},"geometry":{"x":172559.4606340006,"y":2541270.8949250001}},{"attributes":{"ID":659850,"DIS_CODE":0,"TOWNNAME":"仁德區","LI":"仁德里","LIN":"17鄰","STREET":"文華路","SECT":"三段","MAREA":" ","LANE":"４２８巷","ALLEY":"５３弄","HOUSE_NO":"７號","E_COORD97":172552.25429099999,"N_COORD97":2541273.20909,"ADDRESS":"文華路三段４２８巷５３弄７號","OBJECTID":659823},"geometry":{"x":172552.25429099984,"y":2541273.2090930007}},{"attributes":{"ID":659851,"DIS_CODE":0,"TOWNNAME":"仁德區","LI":"仁德里","LIN":"17鄰","STREET":"文華路","SECT":"三段","MAREA":" ","LANE":"４２８巷","ALLEY":"５３弄","HOUSE_NO":"９號","E_COORD97":172545.04794799999,"N_COORD97":2541274.9024299998,"ADDRESS":"文華路三段４２８巷５３弄９號","OBJECTID":659824},"geometry":{"x":172545.04794800002,"y":2541274.9024260025}},{"attributes":{"ID":659852,"DIS_CODE":0,"TOWNNAME":"仁德區","LI":"仁德里","LIN":"17鄰","STREET":"文華路","SECT":"三段","MAREA":" ","LANE":"４２８巷","ALLEY":"５３弄","HOUSE_NO":"１１號","E_COORD97":172538.26550800001,"N_COORD97":2541276.5957599999,"ADDRESS":"文華路三段４２８巷５３弄１１號","OBJECTID":659825},"geometry":{"x":172538.26550800074,"y":2541276.5957580004}},{"attributes":{"ID":659853,"DIS_CODE":0,"TOWNNAME":"仁德區","LI":"仁德里","LIN":"17鄰","STREET":"文華路","SECT":"三段","MAREA":" ","LANE":"４２８巷","ALLEY":"５３弄","HOUSE_NO":"２號","E_COORD97":172588.07405299999,"N_COORD97":2541238.9191100001,"ADDRESS":"文華路三段４２８巷５３弄２號","OBJECTID":659826},"geometry":{"x":172588.07405299973,"y":2541238.9191120006}},{"attributes":{"ID":659854,"DIS_CODE":0,"TOWNNAME":"仁德區","LI":"仁德里","LIN":"17鄰","STREET":"文華路","SECT":"三段","MAREA":" ","LANE":"４２８巷","ALLEY":"５３弄","HOUSE_NO":"６號","E_COORD97":172590.723444,"N_COORD97":2541245.37494,"ADDRESS":"文華路三段４２８巷５３弄６號","OBJECTID":659827},"geometry":{"x":172590.72344400082,"y":2541245.374942001}},{"attributes":{"ID":659855,"DIS_CODE":0,"TOWNNAME":"仁德區","LI":"仁德里","LIN":"17鄰","STREET":"文華路","SECT":"三段","MAREA":" ","LANE":"４２８巷","ALLEY":"５３弄","HOUSE_NO":"８號","E_COORD97":172592.31307800001,"N_COORD97":2541252.2541,"ADDRESS":"文華路三段４２８巷５３弄８號","OBJECTID":659828},"geometry":{"x":172592.31307800114,"y":2541252.2541050036}},{"attributes":{"ID":659856,"DIS_CODE":0,"TOWNNAME":"仁德區","LI":"仁德里","LIN":"17鄰","STREET":"文華路","SECT":"三段","MAREA":" ","LANE":"４２８巷","ALLEY":"５３弄","HOUSE_NO":"１０號","E_COORD97":172593.58478599999,"N_COORD97":2541259.66243,"ADDRESS":"文華路三段４２８巷５３弄１０號","OBJECTID":659829},"geometry":{"x":172593.58478599973,"y":2541259.6624340005}},{"attributes":{"ID":659857,"DIS_CODE":0,"TOWNNAME":"仁德區","LI":"仁德里","LIN":"17鄰","STREET":"文華路","SECT":"三段","MAREA":" ","LANE":"４２８巷","ALLEY":"５３弄","HOUSE_NO":"１６號","E_COORD97":172585.95454100001,"N_COORD97":2541286.75575,"ADDRESS":"文華路三段４２８巷５３弄１６號","OBJECTID":659830},"geometry":{"x":172585.95454099961,"y":2541286.7557529993}},{"attributes":{"ID":659858,"DIS_CODE":0,"TOWNNAME":"仁德區","LI":"仁德里","LIN":"17鄰","STREET":"文華路","SECT":"三段","MAREA":" ","LANE":"４２８巷","ALLEY":"５３弄","HOUSE_NO":"１８號","E_COORD97":172577.47649,"N_COORD97":2541288.2374200001,"ADDRESS":"文華路三段４２８巷５３弄１８號","OBJECTID":659831},"geometry":{"x":172577.47649000119,"y":2541288.2374189999}},{"attributes":{"ID":659859,"DIS_CODE":0,"TOWNNAME":"仁德區","LI":"仁德里","LIN":"17鄰","STREET":"文華路","SECT":"三段","MAREA":" ","LANE":"４２８巷","ALLEY":"５３弄","HOUSE_NO":"２０號","E_COORD97":172570.48209899999,"N_COORD97":2541290.1424199999,"ADDRESS":"文華路三段４２８巷５３弄２０號","OBJECTID":659832},"geometry":{"x":172570.48209900036,"y":2541290.1424180046}},{"attributes":{"ID":659860,"DIS_CODE":0,"TOWNNAME":"仁德區","LI":"仁德里","LIN":"17鄰","STREET":"文華路","SECT":"三段","MAREA":" ","LANE":"４２８巷","ALLEY":"５３弄","HOUSE_NO":"２２號","E_COORD97":172563.06380500001,"N_COORD97":2541291.2007499998,"ADDRESS":"文華路三段４２８巷５３弄２２號","OBJECTID":659833},"geometry":{"x":172563.06380499993,"y":2541291.2007500026}},{"attributes":{"ID":659861,"DIS_CODE":0,"TOWNNAME":"仁德區","LI":"仁德里","LIN":"17鄰","STREET":"文華路","SECT":"三段","MAREA":" ","LANE":"４２８巷","ALLEY":"５３弄","HOUSE_NO":"２６號","E_COORD97":172555.64551100001,"N_COORD97":2541293.1057500001,"ADDRESS":"文華路三段４２８巷５３弄２６號","OBJECTID":659834},"geometry":{"x":172555.64551100135,"y":2541293.1057490017}},{"attributes":{"ID":659862,"DIS_CODE":0,"TOWNNAME":"仁德區","LI":"仁德里","LIN":"17鄰","STREET":"文華路","SECT":"三段","MAREA":" ","LANE":"４２８巷","ALLEY":"５３弄","HOUSE_NO":"２８號","E_COORD97":172549.075022,"N_COORD97":2541294.16408,"ADDRESS":"文華路三段４２８巷５３弄２８號","OBJECTID":659835},"geometry":{"x":172549.07502199989,"y":2541294.164082}},{"attributes":{"ID":659863,"DIS_CODE":0,"TOWNNAME":"仁德區","LI":"仁德里","LIN":"17鄰","STREET":"文華路","SECT":"三段","MAREA":" ","LANE":"４２８巷","ALLEY":"５３弄","HOUSE_NO":"３０號","E_COORD97":172541.86867900001,"N_COORD97":2541294.7990799998,"ADDRESS":"文華路三段４２８巷５３弄３０號","OBJECTID":659836},"geometry":{"x":172541.86867900006,"y":2541294.7990819998}},{"attributes":{"ID":659864,"DIS_CODE":0,"TOWNNAME":"山上區","LI":"玉\u25A0里","LIN":"8鄰","STREET":" ","SECT":" ","MAREA":"埔\u25A0坑","LANE":" ","ALLEY":" ","HOUSE_NO":"５號之１","E_COORD97":187463.97643800001,"N_COORD97":2553398.21777,"ADDRESS":"埔\u25A0坑５號之１","OBJECTID":659837},"geometry":{"x":187463.97643799987,"y":2553398.217771003}},{"attributes":{"ID":659865,"DIS_CODE":0,"TOWNNAME":"山上區","LI":"玉\u25A0里","LIN":"8鄰","STREET":" ","SECT":" ","MAREA":"埔\u25A0坑","LANE":" ","ALLEY":" ","HOUSE_NO":"１４號","E_COORD97":187498.08411900001,"N_COORD97":2553362.7636199999,"ADDRESS":"埔\u25A0坑１４號","OBJECTID":659838},"geometry":{"x":187498.08411899954,"y":2553362.7636230011}},{"attributes":{"ID":659866,"DIS_CODE":0,"TOWNNAME":"山上區","LI":"玉\u25A0里","LIN":"8鄰","STREET":" ","SECT":" ","MAREA":"埔\u25A0坑","LANE":" ","ALLEY":" ","HOUSE_NO":"１６號","E_COORD97":187539.60651400001,"N_COORD97":2553441.8210800001,"ADDRESS":"埔\u25A0坑１６號","OBJECTID":659839},"geometry":{"x":187539.60651400033,"y":2553441.8210799992}},{"attributes":{"ID":659867,"DIS_CODE":0,"TOWNNAME":"山上區","LI":"玉\u25A0里","LIN":"8鄰","STREET":" ","SECT":" ","MAREA":"埔\u25A0坑","LANE":" ","ALLEY":" ","HOUSE_NO":"１號","E_COORD97":187555.07148799999,"N_COORD97":2553483.7310600001,"ADDRESS":"埔\u25A0坑１號","OBJECTID":659840},"geometry":{"x":187555.07148800045,"y":2553483.7310580015}},{"attributes":{"ID":659868,"DIS_CODE":0,"TOWNNAME":"山上區","LI":"玉\u25A0里","LIN":"4鄰","STREET":" ","SECT":" ","MAREA":"蚵\u25A0潭","LANE":" ","ALLEY":" ","HOUSE_NO":"３９號","E_COORD97":187472.90404699999,"N_COORD97":2555394.0194899999,"ADDRESS":"蚵\u25A0潭３９號","OBJECTID":659841},"geometry":{"x":187472.90404699929,"y":2555394.0194859989}},{"attributes":{"ID":659869,"DIS_CODE":0,"TOWNNAME":"山上區","LI":"玉\u25A0里","LIN":"4鄰","STREET":" ","SECT":" ","MAREA":"蚵\u25A0潭","LANE":" ","ALLEY":" ","HOUSE_NO":"４０號","E_COORD97":187455.744282,"N_COORD97":2555388.7278200001,"ADDRESS":"蚵\u25A0潭４０號","OBJECTID":659842},"geometry":{"x":187455.74428200163,"y":2555388.727822002}},{"attributes":{"ID":659870,"DIS_CODE":0,"TOWNNAME":"山上區","LI":"玉\u25A0里","LIN":"4鄰","STREET":" ","SECT":" ","MAREA":"蚵\u25A0潭","LANE":" ","ALLEY":" ","HOUSE_NO":"４２號之１","E_COORD97":187450.44805800001,"N_COORD97":2555332.9536899999,"ADDRESS":"蚵\u25A0潭４２號之１","OBJECTID":659843},"geometry":{"x":187450.44805799983,"y":2555332.9536859989}},{"attributes":{"ID":659871,"DIS_CODE":0,"TOWNNAME":"山上區","LI":"玉\u25A0里","LIN":"4鄰","STREET":" ","SECT":" ","MAREA":"蚵\u25A0潭","LANE":" ","ALLEY":" ","HOUSE_NO":"４２之１號","E_COORD97":187447.27032400001,"N_COORD97":2555334.11785,"ADDRESS":"蚵\u25A0潭４２之１號","OBJECTID":659844},"geometry":{"x":187447.27032400109,"y":2555334.1178520024}},{"attributes":{"ID":659872,"DIS_CODE":0,"TOWNNAME":"山上區","LI":"玉\u25A0里","LIN":"4鄰","STREET":" ","SECT":" ","MAREA":"蚵\u25A0潭","LANE":" ","ALLEY":" ","HOUSE_NO":"４１號","E_COORD97":187434.347538,"N_COORD97":2555364.1745000002,"ADDRESS":"蚵\u25A0潭４１號","OBJECTID":659845},"geometry":{"x":187434.3475380009,"y":2555364.1745019984}},{"attributes":{"ID":659873,"DIS_CODE":0,"TOWNNAME":"山上區","LI":"玉\u25A0里","LIN":"1鄰","STREET":" ","SECT":" ","MAREA":"蚵\u25A0潭","LANE":" ","ALLEY":" ","HOUSE_NO":"１之２號","E_COORD97":187236.03336500001,"N_COORD97":2555539.1769900001,"ADDRESS":"蚵\u25A0潭１之２號","OBJECTID":659846},"geometry":{"x":187236.0333650019,"y":2555539.1769950017}},{"attributes":{"ID":659874,"DIS_CODE":0,"TOWNNAME":"山上區","LI":"玉\u25A0里","LIN":"5鄰","STREET":" ","SECT":" ","MAREA":"中坑","LANE":" ","ALLEY":" ","HOUSE_NO":"１號","E_COORD97":187708.02003099999,"N_COORD97":2554928.3201100002,"ADDRESS":"中坑１號","OBJECTID":659847},"geometry":{"x":187708.02003100142,"y":2554928.320112003}},{"attributes":{"ID":659875,"DIS_CODE":0,"TOWNNAME":"山上區","LI":"玉\u25A0里","LIN":"6鄰","STREET":" ","SECT":" ","MAREA":"中坑","LANE":" ","ALLEY":" ","HOUSE_NO":"１７號","E_COORD97":187593.19814699999,"N_COORD97":2554910.2248300002,"ADDRESS":"中坑１７號","OBJECTID":659848},"geometry":{"x":187593.19814699981,"y":2554910.2248280011}},{"attributes":{"ID":659876,"DIS_CODE":0,"TOWNNAME":"新營區","LI":"新東里","LIN":"21鄰","STREET":"東興路","SECT":" ","MAREA":" ","LANE":" ","ALLEY":" ","HOUSE_NO":"５１０號","E_COORD97":180756.69184499999,"N_COORD97":2579819.8010300002,"ADDRESS":"東興路５１０號","OBJECTID":659849},"geometry":{"x":180756.69184500072,"y":2579819.8010320012}},{"attributes":{"ID":659877,"DIS_CODE":0,"TOWNNAME":"新營區","LI":"新東里","LIN":"21鄰","STREET":"東興路","SECT":" ","MAREA":" ","LANE":" ","ALLEY":" ","HOUSE_NO":"５０８號","E_COORD97":180756.903727,"N_COORD97":2579817.0493700001,"ADDRESS":"東興路５０８號","OBJECTID":659850},"geometry":{"x":180756.90372699965,"y":2579817.0493670013}},{"attributes":{"ID":659878,"DIS_CODE":0,"TOWNNAME":"新營區","LI":"新東里","LIN":"21鄰","STREET":"東興路","SECT":" ","MAREA":" ","LANE":" ","ALLEY":" ","HOUSE_NO":"５１８號","E_COORD97":180756.26808000001,"N_COORD97":2579836.7343600001,"ADDRESS":"東興路５１８號","OBJECTID":659851},"geometry":{"x":180756.26807999983,"y":2579836.7343570013}},{"attributes":{"ID":659879,"DIS_CODE":0,"TOWNNAME":"新營區","LI":"新東里","LIN":"28鄰","STREET":"東興路","SECT":" ","MAREA":" ","LANE":" ","ALLEY":" ","HOUSE_NO":"３６７號","E_COORD97":180739.317503,"N_COORD97":2579840.5443500001,"ADDRESS":"東興路３６７號","OBJECTID":659852},"geometry":{"x":180739.31750299968,"y":2579840.5443550013}},{"attributes":{"ID":659880,"DIS_CODE":0,"TOWNNAME":"新營區","LI":"新東里","LIN":"27鄰","STREET":"東光街","SECT":" ","MAREA":" ","LANE":"４０巷","ALLEY":"２８弄","HOUSE_NO":"１號","E_COORD97":180707.00546399999,"N_COORD97":2579574.69117,"ADDRESS":"東光街４０巷２８弄１號","OBJECTID":659853},"geometry":{"x":180707.00546400063,"y":2579574.6911650021}},{"attributes":{"ID":659881,"DIS_CODE":0,"TOWNNAME":"新營區","LI":"新東里","LIN":"27鄰","STREET":"東光街","SECT":" ","MAREA":" ","LANE":"４０巷","ALLEY":"２８弄","HOUSE_NO":"３號","E_COORD97":180706.79358200001,"N_COORD97":2579568.7645,"ADDRESS":"東光街４０巷２８弄３號","OBJECTID":659854},"geometry":{"x":180706.7935820017,"y":2579568.7645010017}},{"attributes":{"ID":659882,"DIS_CODE":0,"TOWNNAME":"新營區","LI":"新東里","LIN":"27鄰","STREET":"東光街","SECT":" ","MAREA":" ","LANE":"４０巷","ALLEY":"２８弄","HOUSE_NO":"５號","E_COORD97":180706.581699,"N_COORD97":2579563.2611699998,"ADDRESS":"東光街４０巷２８弄５號","OBJECTID":659855},"geometry":{"x":180706.58169900067,"y":2579563.2611710001}},{"attributes":{"ID":659883,"DIS_CODE":0,"TOWNNAME":"新營區","LI":"新東里","LIN":"27鄰","STREET":"東光街","SECT":" ","MAREA":" ","LANE":"４０巷","ALLEY":"２８弄","HOUSE_NO":"７號","E_COORD97":180706.79358200001,"N_COORD97":2579556.9111700002,"ADDRESS":"東光街４０巷２８弄７號","OBJECTID":659856},"geometry":{"x":180706.7935820017,"y":2579556.9111740012}},{"attributes":{"ID":659884,"DIS_CODE":0,"TOWNNAME":"新營區","LI":"新東里","LIN":"27鄰","STREET":"東光街","SECT":" ","MAREA":" ","LANE":"４０巷","ALLEY":"２８弄","HOUSE_NO":"６號","E_COORD97":180690.69053299999,"N_COORD97":2579568.55284,"ADDRESS":"東光街４０巷２８弄６號","OBJECTID":659857},"geometry":{"x":180690.69053300098,"y":2579568.5528350007}},{"attributes":{"ID":659885,"DIS_CODE":0,"TOWNNAME":"新營區","LI":"新東里","LIN":"27鄰","STREET":"東光街","SECT":" ","MAREA":" ","LANE":"４０巷","ALLEY":"２８弄","HOUSE_NO":"８號","E_COORD97":180690.69053299999,"N_COORD97":2579562.41451,"ADDRESS":"東光街４０巷２８弄８號","OBJECTID":659858},"geometry":{"x":180690.69053300098,"y":2579562.414505003}},{"attributes":{"ID":659886,"DIS_CODE":0,"TOWNNAME":"永康區","LI":"光復里","LIN":"1鄰","STREET":"復國路","SECT":" ","MAREA":" ","LANE":"５３巷","ALLEY":" ","HOUSE_NO":"８２號","E_COORD97":172594.510002,"N_COORD97":2544451.7902500001,"ADDRESS":"復國路５３巷８２號","OBJECTID":659859},"geometry":{"x":172594.51000200026,"y":2544451.7902510017}},{"attributes":{"ID":659887,"DIS_CODE":0,"TOWNNAME":"永康區","LI":"光復里","LIN":"11鄰","STREET":"復國路","SECT":" ","MAREA":" ","LANE":"５３巷","ALLEY":" ","HOUSE_NO":"１９８號","E_COORD97":172421.13384299999,"N_COORD97":2544437.1852600002,"ADDRESS":"復國路５３巷１９８號","OBJECTID":659860},"geometry":{"x":172421.13384300005,"y":2544437.1852590013}},{"attributes":{"ID":659888,"DIS_CODE":0,"TOWNNAME":"永康區","LI":"光復里","LIN":"11鄰","STREET":"復國路","SECT":" ","MAREA":" ","LANE":"５３巷","ALLEY":" ","HOUSE_NO":"２００號","E_COORD97":172418.37847600001,"N_COORD97":2544437.3969299998,"ADDRESS":"復國路５３巷２００號","OBJECTID":659861},"geometry":{"x":172418.37847600132,"y":2544437.3969260026}},{"attributes":{"ID":659889,"DIS_CODE":0,"TOWNNAME":"善化區","LI":"溪美里","LIN":"1鄰","STREET":" ","SECT":" ","MAREA":"溪尾","LANE":" ","ALLEY":" ","HOUSE_NO":"８７２號之１","E_COORD97":177047.497023,"N_COORD97":2560292.5719699999,"ADDRESS":"溪尾８７２號之１","OBJECTID":659862},"geometry":{"x":177047.49702300131,"y":2560292.5719680004}},{"attributes":{"ID":659890,"DIS_CODE":0,"TOWNNAME":"永康區","LI":"光復里","LIN":"1鄰","STREET":"復國路","SECT":" ","MAREA":" ","LANE":"６１巷","ALLEY":" ","HOUSE_NO":"５３號","E_COORD97":172602.98805399999,"N_COORD97":2544480.8944000001,"ADDRESS":"復國路６１巷５３號","OBJECTID":659863},"geometry":{"x":172602.9880540017,"y":2544480.8944020011}},{"attributes":{"ID":659891,"DIS_CODE":0,"TOWNNAME":"永康區","LI":"光復里","LIN":"17鄰","STREET":"復國路","SECT":" ","MAREA":" ","LANE":"５３巷","ALLEY":" ","HOUSE_NO":"８３號","E_COORD97":172597.695141,"N_COORD97":2544440.6513100001,"ADDRESS":"復國路５３巷８３號","OBJECTID":659864},"geometry":{"x":172597.69514100067,"y":2544440.6513139997}},{"attributes":{"ID":659892,"DIS_CODE":0,"TOWNNAME":"善化區","LI":"溪美里","LIN":"1鄰","STREET":" ","SECT":" ","MAREA":"溪尾","LANE":" ","ALLEY":" ","HOUSE_NO":"８６６之１號","E_COORD97":177048.76860899999,"N_COORD97":2560303.5786299999,"ADDRESS":"溪尾８６６之１號","OBJECTID":659865},"geometry":{"x":177048.76860900223,"y":2560303.5786290038}},{"attributes":{"ID":659893,"DIS_CODE":0,"TOWNNAME":"善化區","LI":"田寮里","LIN":"4鄰","STREET":" ","SECT":" ","MAREA":"六分寮","LANE":" ","ALLEY":" ","HOUSE_NO":"５４號之１","E_COORD97":178436.89793000001,"N_COORD97":2561135.3162600002,"ADDRESS":"六分寮５４號之１","OBJECTID":659866},"geometry":{"x":178436.89792999998,"y":2561135.3162600026}},{"attributes":{"ID":659894,"DIS_CODE":0,"TOWNNAME":"善化區","LI":"田寮里","LIN":"7鄰","STREET":" ","SECT":" ","MAREA":"六分寮","LANE":" ","ALLEY":" ","HOUSE_NO":"７７號之１","E_COORD97":178489.6643,"N_COORD97":2561405.8261099998,"ADDRESS":"六分寮７７號之１","OBJECTID":659867},"geometry":{"x":178489.6643000003,"y":2561405.8261099998}},{"attributes":{"ID":659895,"DIS_CODE":0,"TOWNNAME":"東區","LI":"大福里","LIN":"26鄰","STREET":"榮譽街","SECT":" ","MAREA":" ","LANE":" ","ALLEY":" ","HOUSE_NO":"３８號","E_COORD97":169664.049898,"N_COORD97":2541600.1220800001,"ADDRESS":"榮譽街３８號","OBJECTID":659868},"geometry":{"x":169664.04989800043,"y":2541600.1220790017}},{"attributes":{"ID":659896,"DIS_CODE":0,"TOWNNAME":"善化區","LI":"田寮里","LIN":"6鄰","STREET":" ","SECT":" ","MAREA":"六分寮","LANE":" ","ALLEY":" ","HOUSE_NO":"７２號","E_COORD97":178454.06289599999,"N_COORD97":2561337.8811499998,"ADDRESS":"六分寮７２號","OBJECTID":659869},"geometry":{"x":178454.06289600022,"y":2561337.8811530024}},{"attributes":{"ID":659897,"DIS_CODE":0,"TOWNNAME":"東區","LI":"大福里","LIN":"26鄰","STREET":"榮譽街","SECT":" ","MAREA":" ","LANE":" ","ALLEY":" ","HOUSE_NO":"４０號","E_COORD97":169664.049898,"N_COORD97":2541596.9470799998,"ADDRESS":"榮譽街４０號","OBJECTID":659870},"geometry":{"x":169664.04989800043,"y":2541596.9470800031}},{"attributes":{"ID":659898,"DIS_CODE":0,"TOWNNAME":"東區","LI":"大福里","LIN":"26鄰","STREET":"榮譽街","SECT":" ","MAREA":" ","LANE":" ","ALLEY":" ","HOUSE_NO":"４０號之１","E_COORD97":169663.838025,"N_COORD97":2541594.1954199998,"ADDRESS":"榮譽街４０號之１","OBJECTID":659871},"geometry":{"x":169663.83802500181,"y":2541594.1954150014}},{"attributes":{"ID":659899,"DIS_CODE":0,"TOWNNAME":"東區","LI":"大福里","LIN":"26鄰","STREET":"榮譽街","SECT":" ","MAREA":" ","LANE":" ","ALLEY":" ","HOUSE_NO":"４２號","E_COORD97":169667.863625,"N_COORD97":2541588.2687499998,"ADDRESS":"榮譽街４２號","OBJECTID":659872},"geometry":{"x":169667.86362500023,"y":2541588.2687520012}},{"attributes":{"ID":659900,"DIS_CODE":0,"TOWNNAME":"善化區","LI":"田寮里","LIN":"7鄰","STREET":" ","SECT":" ","MAREA":"六分寮","LANE":" ","ALLEY":" ","HOUSE_NO":"７４號","E_COORD97":178430.75244800001,"N_COORD97":2561368.1494700001,"ADDRESS":"六分寮７４號","OBJECTID":659873},"geometry":{"x":178430.75244800095,"y":2561368.1494700015}},{"attributes":{"ID":659901,"DIS_CODE":0,"TOWNNAME":"善化區","LI":"田寮里","LIN":"5鄰","STREET":" ","SECT":" ","MAREA":"六分寮","LANE":" ","ALLEY":" ","HOUSE_NO":"６０之３號","E_COORD97":178484.79030600001,"N_COORD97":2561157.3295800001,"ADDRESS":"六分寮６０之３號","OBJECTID":659874},"geometry":{"x":178484.79030600097,"y":2561157.3295840006}},{"attributes":{"ID":659902,"DIS_CODE":0,"TOWNNAME":"關廟區","LI":"深坑里","LIN":"4鄰","STREET":"深坑三街","SECT":" ","MAREA":" ","LANE":" ","ALLEY":" ","HOUSE_NO":"７９號","E_COORD97":181915.910978,"N_COORD97":2537669.45052,"ADDRESS":"深坑三街７９號","OBJECTID":659875},"geometry":{"x":181915.91097800061,"y":2537669.4505219981}},{"attributes":{"ID":659903,"DIS_CODE":0,"TOWNNAME":"佳里區","LI":"民安里","LIN":"12鄰","STREET":" ","SECT":" ","MAREA":"新宅","LANE":" ","ALLEY":" ","HOUSE_NO":"２２號之１３","E_COORD97":167373.84250200001,"N_COORD97":2564612.1065500001,"ADDRESS":"新宅２２號之１３","OBJECTID":659876},"geometry":{"x":167373.84250199888,"y":2564612.1065540034}},{"attributes":{"ID":659904,"DIS_CODE":0,"TOWNNAME":"山上區","LI":"新莊里","LIN":"1鄰","STREET":" ","SECT":" ","MAREA":"新庄","LANE":" ","ALLEY":" ","HOUSE_NO":"８之５號","E_COORD97":185203.85991999999,"N_COORD97":2554776.74535,"ADDRESS":"新庄８之５號","OBJECTID":659877},"geometry":{"x":185203.85991999879,"y":2554776.745352}},{"attributes":{"ID":659905,"DIS_CODE":0,"TOWNNAME":"關廟區","LI":"深坑里","LIN":"4鄰","STREET":"深坑三街","SECT":" ","MAREA":" ","LANE":" ","ALLEY":" ","HOUSE_NO":"６８號","E_COORD97":181901.653655,"N_COORD97":2537675.4962499999,"ADDRESS":"深坑三街６８號","OBJECTID":659878},"geometry":{"x":181901.65365500003,"y":2537675.4962479994}},{"attributes":{"ID":659906,"DIS_CODE":0,"TOWNNAME":"山上區","LI":"新莊里","LIN":"5鄰","STREET":" ","SECT":" ","MAREA":"新庄","LANE":" ","ALLEY":" ","HOUSE_NO":"５８號之７","E_COORD97":184659.91100600001,"N_COORD97":2555021.22022,"ADDRESS":"新庄５８號之７","OBJECTID":659879},"geometry":{"x":184659.91100599989,"y":2555021.2202199996}},{"attributes":{"ID":659907,"DIS_CODE":0,"TOWNNAME":"山上區","LI":"新莊里","LIN":"5鄰","STREET":" ","SECT":" ","MAREA":"新庄","LANE":" ","ALLEY":" ","HOUSE_NO":"５８號之１５","E_COORD97":184624.97449299999,"N_COORD97":2554993.0685700001,"ADDRESS":"新庄５８號之１５","OBJECTID":659880},"geometry":{"x":184624.97449300066,"y":2554993.0685680024}},{"attributes":{"ID":659908,"DIS_CODE":0,"TOWNNAME":"善化區","LI":"田寮里","LIN":"5鄰","STREET":" ","SECT":" ","MAREA":"六分寮","LANE":" ","ALLEY":" ","HOUSE_NO":"５９號","E_COORD97":178476.280784,"N_COORD97":2561212.1512199999,"ADDRESS":"六分寮５９號","OBJECTID":659881},"geometry":{"x":178476.28078400064,"y":2561212.1512210015}},{"attributes":{"ID":659909,"DIS_CODE":0,"TOWNNAME":"善化區","LI":"田寮里","LIN":"5鄰","STREET":" ","SECT":" ","MAREA":"六分寮","LANE":" ","ALLEY":" ","HOUSE_NO":"６１號","E_COORD97":178501.28653799999,"N_COORD97":2561189.0795700001,"ADDRESS":"六分寮６１號","OBJECTID":659882},"geometry":{"x":178501.28653800115,"y":2561189.0795670003}},{"attributes":{"ID":659910,"DIS_CODE":0,"TOWNNAME":"善化區","LI":"田寮里","LIN":"5鄰","STREET":" ","SECT":" ","MAREA":"六分寮","LANE":" ","ALLEY":" ","HOUSE_NO":"６１之２１號","E_COORD97":178539.854735,"N_COORD97":2561141.0312600001,"ADDRESS":"六分寮６１之２１號","OBJECTID":659883},"geometry":{"x":178539.85473500099,"y":2561141.0312600005}},{"attributes":{"ID":659911,"DIS_CODE":0,"TOWNNAME":"善化區","LI":"田寮里","LIN":"5鄰","STREET":" ","SECT":" ","MAREA":"六分寮","LANE":" ","ALLEY":" ","HOUSE_NO":"６１之２３號","E_COORD97":178543.45725899999,"N_COORD97":2561130.6595999999,"ADDRESS":"六分寮６１之２３號","OBJECTID":659884},"geometry":{"x":178543.45725899935,"y":2561130.6595990006}},{"attributes":{"ID":659912,"DIS_CODE":0,"TOWNNAME":"新營區","LI":"民生里","LIN":"8鄰","STREET":"民生路","SECT":" ","MAREA":" ","LANE":" ","ALLEY":" ","HOUSE_NO":"９之１號","E_COORD97":179360.71567500001,"N_COORD97":2578116.8178400001,"ADDRESS":"民生路９之１號","OBJECTID":659885},"geometry":{"x":179360.7156750001,"y":2578116.8178360015}},{"attributes":{"ID":659913,"DIS_CODE":0,"TOWNNAME":"西港區","LI":"金砂里","LIN":"7鄰","STREET":" ","SECT":" ","MAREA":"砂凹子","LANE":" ","ALLEY":" ","HOUSE_NO":"３７之２１號","E_COORD97":169387.32070099999,"N_COORD97":2562252.3176600002,"ADDRESS":"砂凹子３７之２１號","OBJECTID":659886},"geometry":{"x":169387.32070100121,"y":2562252.3176609986}},{"attributes":{"ID":659914,"DIS_CODE":0,"TOWNNAME":"新營區","LI":"民生里","LIN":"10鄰","STREET":"三民路","SECT":" ","MAREA":" ","LANE":" ","ALLEY":" ","HOUSE_NO":"１４３號","E_COORD97":179218.330823,"N_COORD97":2578127.41439,"ADDRESS":"三民路１４３號","OBJECTID":659887},"geometry":{"x":179218.33082300052,"y":2578127.4143930022}},{"attributes":{"ID":659915,"DIS_CODE":0,"TOWNNAME":"西港區","LI":"南海里","LIN":"4鄰","STREET":" ","SECT":" ","MAREA":"南海埔","LANE":" ","ALLEY":" ","HOUSE_NO":"２９之２６號","E_COORD97":167767.259877,"N_COORD97":2557688.6618499998,"ADDRESS":"南海埔２９之２６號","OBJECTID":659888},"geometry":{"x":167767.25987700187,"y":2557688.6618480012}},{"attributes":{"ID":659916,"DIS_CODE":0,"TOWNNAME":"西港區","LI":"南海里","LIN":"4鄰","STREET":" ","SECT":" ","MAREA":"南海埔","LANE":" ","ALLEY":" ","HOUSE_NO":"２９之３０號","E_COORD97":167767.04800000001,"N_COORD97":2557678.9251899999,"ADDRESS":"南海埔２９之３０號","OBJECTID":659889},"geometry":{"x":167767.04800000135,"y":2557678.9251860026}},{"attributes":{"ID":659917,"DIS_CODE":0,"TOWNNAME":"新營區","LI":"民生里","LIN":"10鄰","STREET":"三民路","SECT":" ","MAREA":" ","LANE":" ","ALLEY":" ","HOUSE_NO":"１４１號","E_COORD97":179234.43387099999,"N_COORD97":2578129.3193899998,"ADDRESS":"三民路１４１號","OBJECTID":659890},"geometry":{"x":179234.43387100101,"y":2578129.3193920013}},{"attributes":{"ID":659918,"DIS_CODE":0,"TOWNNAME":"北區","LI":"勝安里","LIN":"1鄰","STREET":"開元路","SECT":" ","MAREA":" ","LANE":" ","ALLEY":" ","HOUSE_NO":"２３號","E_COORD97":169541.18403599999,"N_COORD97":2545120.9454999999,"ADDRESS":"開元路２３號","OBJECTID":659891},"geometry":{"x":169541.18403600063,"y":2545120.9454990029}},{"attributes":{"ID":659919,"DIS_CODE":0,"TOWNNAME":"西港區","LI":"南海里","LIN":"4鄰","STREET":"慶安路","SECT":" ","MAREA":" ","LANE":" ","ALLEY":" ","HOUSE_NO":"２２０之１號","E_COORD97":167732.51201800001,"N_COORD97":2557843.5488499999,"ADDRESS":"慶安路２２０之１號","OBJECTID":659892},"geometry":{"x":167732.51201800164,"y":2557843.5488479994}},{"attributes":{"ID":659920,"DIS_CODE":0,"TOWNNAME":"北區","LI":"勝安里","LIN":"1鄰","STREET":"開元路","SECT":" ","MAREA":" ","LANE":" ","ALLEY":" ","HOUSE_NO":"３號","E_COORD97":169505.91682799999,"N_COORD97":2545101.1546800002,"ADDRESS":"開元路３號","OBJECTID":659893},"geometry":{"x":169505.91682799999,"y":2545101.1546769999}},{"attributes":{"ID":659921,"DIS_CODE":0,"TOWNNAME":"西港區","LI":"南海里","LIN":"4鄰","STREET":"慶安路","SECT":" ","MAREA":" ","LANE":"２２８巷","ALLEY":" ","HOUSE_NO":"２５號","E_COORD97":167686.74653999999,"N_COORD97":2557893.1846500002,"ADDRESS":"慶安路２２８巷２５號","OBJECTID":659894},"geometry":{"x":167686.74654000066,"y":2557893.1846500039}},{"attributes":{"ID":659922,"DIS_CODE":0,"TOWNNAME":"西港區","LI":"南海里","LIN":"4鄰","STREET":"慶安路","SECT":" ","MAREA":" ","LANE":" ","ALLEY":" ","HOUSE_NO":"２３７號","E_COORD97":167517.24479,"N_COORD97":2557656.7531099999,"ADDRESS":"慶安路２３７號","OBJECTID":659895},"geometry":{"x":167517.24479000177,"y":2557656.7531099971}},{"attributes":{"ID":659923,"DIS_CODE":0,"TOWNNAME":"西港區","LI":"南海里","LIN":"14鄰","STREET":" ","SECT":" ","MAREA":"南海埔","LANE":" ","ALLEY":" ","HOUSE_NO":"１２６之１號","E_COORD97":167485.67509,"N_COORD97":2557369.3099400001,"ADDRESS":"南海埔１２６之１號","OBJECTID":659896},"geometry":{"x":167485.67509000003,"y":2557369.3099370003}},{"attributes":{"ID":659924,"DIS_CODE":0,"TOWNNAME":"西港區","LI":"南海里","LIN":"16鄰","STREET":" ","SECT":" ","MAREA":"東港","LANE":" ","ALLEY":" ","HOUSE_NO":"１２之１２號","E_COORD97":166964.457199,"N_COORD97":2556229.5913900002,"ADDRESS":"東港１２之１２號","OBJECTID":659897},"geometry":{"x":166964.45719899982,"y":2556229.5913860016}},{"attributes":{"ID":659925,"DIS_CODE":0,"TOWNNAME":"西港區","LI":"南海里","LIN":"16鄰","STREET":" ","SECT":" ","MAREA":"東港","LANE":" ","ALLEY":" ","HOUSE_NO":"１２之８號","E_COORD97":166992.84874300001,"N_COORD97":2556223.8763899999,"ADDRESS":"東港１２之８號","OBJECTID":659898},"geometry":{"x":166992.84874300007,"y":2556223.8763890024}},{"attributes":{"ID":659926,"DIS_CODE":0,"TOWNNAME":"東區","LI":"龍山里","LIN":"3鄰","STREET":"富德街","SECT":" ","MAREA":" ","LANE":"２５巷","ALLEY":"１弄","HOUSE_NO":"１７號","E_COORD97":170344.170946,"N_COORD97":2542782.3985299999,"ADDRESS":"富德街２５巷１弄１７號","OBJECTID":659899},"geometry":{"x":170344.17094600108,"y":2542782.3985290024}},{"attributes":{"ID":659927,"DIS_CODE":0,"TOWNNAME":"西港區","LI":"南海里","LIN":"17鄰","STREET":" ","SECT":" ","MAREA":"東港","LANE":" ","ALLEY":" ","HOUSE_NO":"３１號","E_COORD97":167175.06312000001,"N_COORD97":2556574.29036,"ADDRESS":"東港３１號","OBJECTID":659900},"geometry":{"x":167175.06312000006,"y":2556574.29036}},{"attributes":{"ID":659928,"DIS_CODE":0,"TOWNNAME":"安南區","LI":"東和里","LIN":"7鄰","STREET":"長和路","SECT":"一段","MAREA":" ","LANE":"１巷","ALLEY":" ","HOUSE_NO":"２５之１５號","E_COORD97":171716.25320000001,"N_COORD97":2550154.8240899998,"ADDRESS":"長和路一段１巷２５之１５號","OBJECTID":659901},"geometry":{"x":171716.25320000015,"y":2550154.8240890019}},{"attributes":{"ID":659929,"DIS_CODE":0,"TOWNNAME":"西港區","LI":"南海里","LIN":"20鄰","STREET":" ","SECT":" ","MAREA":"中港","LANE":" ","ALLEY":" ","HOUSE_NO":"２７之１號","E_COORD97":167491.81952799999,"N_COORD97":2556517.3520599999,"ADDRESS":"中港２７之１號","OBJECTID":659902},"geometry":{"x":167491.81952800229,"y":2556517.3520640023}},{"attributes":{"ID":659930,"DIS_CODE":0,"TOWNNAME":"安南區","LI":"城南里","LIN":"14鄰","STREET":"城西街","SECT":"二段","MAREA":" ","LANE":"１巷","ALLEY":"１０１弄","HOUSE_NO":"１２０號","E_COORD97":160224.280146,"N_COORD97":2550930.8801299999,"ADDRESS":"城西街二段１巷１０１弄１２０號","OBJECTID":659903},"geometry":{"x":160224.28014600091,"y":2550930.8801259995}},{"attributes":{"ID":659931,"DIS_CODE":0,"TOWNNAME":"安南區","LI":"城南里","LIN":"14鄰","STREET":"城西街","SECT":"二段","MAREA":" ","LANE":"１巷","ALLEY":"１０１弄","HOUSE_NO":"１２０之３０號","E_COORD97":160218.351024,"N_COORD97":2550929.82179,"ADDRESS":"城西街二段１巷１０１弄１２０之３０號","OBJECTID":659904},"geometry":{"x":160218.35102400091,"y":2550929.8217930011}},{"attributes":{"ID":659932,"DIS_CODE":0,"TOWNNAME":"安南區","LI":"城南里","LIN":"14鄰","STREET":"城西街","SECT":"二段","MAREA":" ","LANE":"１巷","ALLEY":"３１５弄","HOUSE_NO":"８３號","E_COORD97":160224.49189999999,"N_COORD97":2550921.14347,"ADDRESS":"城西街二段１巷３１５弄８３號","OBJECTID":659905},"geometry":{"x":160224.49189999979,"y":2550921.143465003}},{"attributes":{"ID":659933,"DIS_CODE":0,"TOWNNAME":"安南區","LI":"城南里","LIN":"14鄰","STREET":"城西街","SECT":"二段","MAREA":" ","LANE":"１巷","ALLEY":"３１５弄","HOUSE_NO":"８３號之１０","E_COORD97":160221.73909399999,"N_COORD97":2550920.7201299998,"ADDRESS":"城西街二段１巷３１５弄８３號之１０","OBJECTID":659906},"geometry":{"x":160221.73909400124,"y":2550920.7201310005}},{"attributes":{"ID":659934,"DIS_CODE":0,"TOWNNAME":"安南區","LI":"城南里","LIN":"14鄰","STREET":"城西街","SECT":"二段","MAREA":" ","LANE":"１巷","ALLEY":"３１５弄","HOUSE_NO":"８３號之３６","E_COORD97":160218.77453299999,"N_COORD97":2550920.08513,"ADDRESS":"城西街二段１巷３１５弄８３號之３６","OBJECTID":659907},"geometry":{"x":160218.77453299984,"y":2550920.085132001}},{"attributes":{"ID":659935,"DIS_CODE":0,"TOWNNAME":"安南區","LI":"城南里","LIN":"14鄰","STREET":"城西街","SECT":"二段","MAREA":" ","LANE":"１巷","ALLEY":"３１５弄","HOUSE_NO":"８３號之６６","E_COORD97":160215.38646400001,"N_COORD97":2550918.81513,"ADDRESS":"城西街二段１巷３１５弄８３號之６６","OBJECTID":659908},"geometry":{"x":160215.38646400068,"y":2550918.8151320014}},{"attributes":{"ID":659936,"DIS_CODE":0,"TOWNNAME":"安南區","LI":"城南里","LIN":"14鄰","STREET":"城西街","SECT":"二段","MAREA":" ","LANE":"１巷","ALLEY":"３１５弄","HOUSE_NO":"８３號之７６","E_COORD97":160211.78664000001,"N_COORD97":2550918.1801300002,"ADDRESS":"城西街二段１巷３１５弄８３號之７６","OBJECTID":659909},"geometry":{"x":160211.7866399996,"y":2550918.180133}},{"attributes":{"ID":659937,"DIS_CODE":0,"TOWNNAME":"安南區","LI":"城南里","LIN":"14鄰","STREET":"城西街","SECT":"二段","MAREA":" ","LANE":"１巷","ALLEY":"３１５弄","HOUSE_NO":"８３號之１００","E_COORD97":160208.82208000001,"N_COORD97":2550916.4868000001,"ADDRESS":"城西街二段１巷３１５弄８３號之１００","OBJECTID":659910},"geometry":{"x":160208.8220800003,"y":2550916.4868000038}},{"attributes":{"ID":659938,"DIS_CODE":0,"TOWNNAME":"安南區","LI":"城南里","LIN":"14鄰","STREET":"城西街","SECT":"二段","MAREA":" ","LANE":"１巷","ALLEY":"３１５弄","HOUSE_NO":"８３號之１５０","E_COORD97":160204.586993,"N_COORD97":2550916.27513,"ADDRESS":"城西街二段１巷３１５弄８３號之１５０","OBJECTID":659911},"geometry":{"x":160204.58699300047,"y":2550916.2751340009}},{"attributes":{"ID":659939,"DIS_CODE":0,"TOWNNAME":"安南區","LI":"城南里","LIN":"14鄰","STREET":"城西街","SECT":"二段","MAREA":" ","LANE":"１巷","ALLEY":"３１５弄","HOUSE_NO":"８３號之２００","E_COORD97":160200.56366099999,"N_COORD97":2550915.00514,"ADDRESS":"城西街二段１巷３１５弄８３號之２００","OBJECTID":659912},"geometry":{"x":160200.56366100069,"y":2550915.0051350016}},{"attributes":{"ID":659940,"DIS_CODE":0,"TOWNNAME":"安南區","LI":"城南里","LIN":"14鄰","STREET":"城西街","SECT":"二段","MAREA":" ","LANE":"１巷","ALLEY":" ","HOUSE_NO":"７８９號之１２０","E_COORD97":160225.97417999999,"N_COORD97":2550883.8901499999,"ADDRESS":"城西街二段１巷７８９號之１２０","OBJECTID":659913},"geometry":{"x":160225.97417999897,"y":2550883.8901510015}},{"attributes":{"ID":659941,"DIS_CODE":0,"TOWNNAME":"七股區","LI":"十份里","LIN":"10鄰","STREET":" ","SECT":" ","MAREA":"海埔","LANE":" ","ALLEY":" ","HOUSE_NO":"３３號之６","E_COORD97":151926.18098599999,"N_COORD97":2555829.2711299998,"ADDRESS":"海埔３３號之６","OBJECTID":659914},"geometry":{"x":151926.18098600116,"y":2555829.2711279988}},{"attributes":{"ID":659942,"DIS_CODE":0,"TOWNNAME":"官田區","LI":"二鎮里","LIN":"8鄰","STREET":" ","SECT":" ","MAREA":"二鎮","LANE":" ","ALLEY":" ","HOUSE_NO":"７５號之１６７","E_COORD97":182367.23100299999,"N_COORD97":2569042.5544099999,"ADDRESS":"二鎮７５號之１６７","OBJECTID":659915},"geometry":{"x":182367.23100300133,"y":2569042.5544140022}},{"attributes":{"ID":659943,"DIS_CODE":0,"TOWNNAME":"官田區","LI":"二鎮里","LIN":"8鄰","STREET":" ","SECT":" ","MAREA":"二鎮","LANE":" ","ALLEY":" ","HOUSE_NO":"７５號之１６８","E_COORD97":182371.680219,"N_COORD97":2569042.1310800002,"ADDRESS":"二鎮７５號之１６８","OBJECTID":659916},"geometry":{"x":182371.68021900114,"y":2569042.131081}},{"attributes":{"ID":659944,"DIS_CODE":0,"TOWNNAME":"官田區","LI":"二鎮里","LIN":"8鄰","STREET":" ","SECT":" ","MAREA":"二鎮","LANE":" ","ALLEY":" ","HOUSE_NO":"７５號之１６９","E_COORD97":182376.659254,"N_COORD97":2569041.8135799998,"ADDRESS":"二鎮７５號之１６９","OBJECTID":659917},"geometry":{"x":182376.65925399959,"y":2569041.8135810029}},{"attributes":{"ID":659945,"DIS_CODE":0,"TOWNNAME":"官田區","LI":"二鎮里","LIN":"8鄰","STREET":" ","SECT":" ","MAREA":"二鎮","LANE":" ","ALLEY":" ","HOUSE_NO":"７５號之１７０","E_COORD97":182381.32033799999,"N_COORD97":2569040.7552499999,"ADDRESS":"二鎮７５號之１７０","OBJECTID":659918},"geometry":{"x":182381.32033800054,"y":2569040.755247999}},{"attributes":{"ID":659946,"DIS_CODE":0,"TOWNNAME":"官田區","LI":"二鎮里","LIN":"8鄰","STREET":" ","SECT":" ","MAREA":"二鎮","LANE":" ","ALLEY":" ","HOUSE_NO":"７５號之１７１","E_COORD97":182386.617023,"N_COORD97":2569039.69692,"ADDRESS":"二鎮７５號之１７１","OBJECTID":659919},"geometry":{"x":182386.61702299863,"y":2569039.6969160009}},{"attributes":{"ID":659947,"DIS_CODE":0,"TOWNNAME":"官田區","LI":"二鎮里","LIN":"8鄰","STREET":" ","SECT":" ","MAREA":"二鎮","LANE":" ","ALLEY":" ","HOUSE_NO":"７５號之１７２","E_COORD97":182391.06623900001,"N_COORD97":2569039.2735799998,"ADDRESS":"二鎮７５號之１７２","OBJECTID":659920},"geometry":{"x":182391.06623900123,"y":2569039.273582004}},{"attributes":{"ID":659948,"DIS_CODE":0,"TOWNNAME":"官田區","LI":"二鎮里","LIN":"8鄰","STREET":" ","SECT":" ","MAREA":"二鎮","LANE":" ","ALLEY":" ","HOUSE_NO":"７５號之１７３","E_COORD97":182396.786659,"N_COORD97":2569038.42692,"ADDRESS":"二鎮７５號之１７３","OBJECTID":659921},"geometry":{"x":182396.78665900137,"y":2569038.4269160014}},{"attributes":{"ID":659949,"DIS_CODE":0,"TOWNNAME":"官田區","LI":"二鎮里","LIN":"8鄰","STREET":" ","SECT":" ","MAREA":"二鎮","LANE":" ","ALLEY":" ","HOUSE_NO":"７５號之１７５","E_COORD97":182402.08334499999,"N_COORD97":2569037.15692,"ADDRESS":"二鎮７５號之１７５","OBJECTID":659922},"geometry":{"x":182402.0833449997,"y":2569037.1569170021}},{"attributes":{"ID":659950,"DIS_CODE":0,"TOWNNAME":"官田區","LI":"二鎮里","LIN":"8鄰","STREET":" ","SECT":" ","MAREA":"二鎮","LANE":" ","ALLEY":" ","HOUSE_NO":"７５號之１７６","E_COORD97":182409.07496999999,"N_COORD97":2569036.9452499999,"ADDRESS":"二鎮７５號之１７６","OBJECTID":659923},"geometry":{"x":182409.07497000135,"y":2569036.9452500008}},{"attributes":{"ID":659951,"DIS_CODE":0,"TOWNNAME":"官田區","LI":"二鎮里","LIN":"8鄰","STREET":" ","SECT":" ","MAREA":"二鎮","LANE":" ","ALLEY":" ","HOUSE_NO":"７５號之１７７","E_COORD97":182415.43099200001,"N_COORD97":2569036.3102500001,"ADDRESS":"二鎮７５號之１７７","OBJECTID":659924},"geometry":{"x":182415.4309919998,"y":2569036.3102509994}},{"attributes":{"ID":659952,"DIS_CODE":0,"TOWNNAME":"官田區","LI":"二鎮里","LIN":"8鄰","STREET":" ","SECT":" ","MAREA":"二鎮","LANE":" ","ALLEY":" ","HOUSE_NO":"７５號之１７８","E_COORD97":182422.84635199999,"N_COORD97":2569035.4635899998,"ADDRESS":"二鎮７５號之１７８","OBJECTID":659925},"geometry":{"x":182422.84635199979,"y":2569035.4635850023}},{"attributes":{"ID":659953,"DIS_CODE":0,"TOWNNAME":"官田區","LI":"二鎮里","LIN":"8鄰","STREET":" ","SECT":" ","MAREA":"二鎮","LANE":" ","ALLEY":" ","HOUSE_NO":"７５號之１７９","E_COORD97":182431.39937599999,"N_COORD97":2569034.2252799999,"ADDRESS":"二鎮７５號之１７９","OBJECTID":659926},"geometry":{"x":182431.39937599935,"y":2569034.2252830043}},{"attributes":{"ID":659954,"DIS_CODE":0,"TOWNNAME":"官田區","LI":"二鎮里","LIN":"8鄰","STREET":" ","SECT":" ","MAREA":"二鎮","LANE":" ","ALLEY":" ","HOUSE_NO":"７５號之１８０","E_COORD97":182438.60286899999,"N_COORD97":2569033.16695,"ADDRESS":"二鎮７５號之１８０","OBJECTID":659927},"geometry":{"x":182438.60286900122,"y":2569033.1669500005}},{"attributes":{"ID":659955,"DIS_CODE":0,"TOWNNAME":"官田區","LI":"二鎮里","LIN":"8鄰","STREET":" ","SECT":" ","MAREA":"二鎮","LANE":" ","ALLEY":" ","HOUSE_NO":"７５號之１８１","E_COORD97":182447.289433,"N_COORD97":2569031.2619500002,"ADDRESS":"二鎮７５號之１８１","OBJECTID":659928},"geometry":{"x":182447.28943299968,"y":2569031.2619510014}},{"attributes":{"ID":659956,"DIS_CODE":0,"TOWNNAME":"麻豆區","LI":"安東里","LIN":"7鄰","STREET":" ","SECT":" ","MAREA":"安業","LANE":" ","ALLEY":" ","HOUSE_NO":"７４號","E_COORD97":173047.00347699999,"N_COORD97":2562490.6549999998,"ADDRESS":"安業７４號","OBJECTID":659929},"geometry":{"x":173047.0034769997,"y":2562490.6550009977}},{"attributes":{"ID":659957,"DIS_CODE":0,"TOWNNAME":"麻豆區","LI":"安東里","LIN":"7鄰","STREET":" ","SECT":" ","MAREA":"安業","LANE":" ","ALLEY":" ","HOUSE_NO":"７６號","E_COORD97":172964.585169,"N_COORD97":2562300.8959400002,"ADDRESS":"安業７６號","OBJECTID":659930},"geometry":{"x":172964.58516900055,"y":2562300.8959369995}},{"attributes":{"ID":659958,"DIS_CODE":0,"TOWNNAME":"麻豆區","LI":"安東里","LIN":"7鄰","STREET":" ","SECT":" ","MAREA":"安業","LANE":" ","ALLEY":" ","HOUSE_NO":"７６號之１","E_COORD97":172977.50937700001,"N_COORD97":2562302.1659400002,"ADDRESS":"安業７６號之１","OBJECTID":659931},"geometry":{"x":172977.50937700085,"y":2562302.1659360006}},{"attributes":{"ID":659959,"DIS_CODE":0,"TOWNNAME":"麻豆區","LI":"安東里","LIN":"8鄰","STREET":" ","SECT":" ","MAREA":"安業","LANE":" ","ALLEY":" ","HOUSE_NO":"１１７號","E_COORD97":172846.337635,"N_COORD97":2562384.82173,"ADDRESS":"安業１１７號","OBJECTID":659932},"geometry":{"x":172846.33763500024,"y":2562384.8217249997}},{"attributes":{"ID":659960,"DIS_CODE":0,"TOWNNAME":"麻豆區","LI":"安東里","LIN":"8鄰","STREET":" ","SECT":" ","MAREA":"安業","LANE":" ","ALLEY":" ","HOUSE_NO":"２７４號","E_COORD97":172812.64994599999,"N_COORD97":2562488.1150000002,"ADDRESS":"安業２７４號","OBJECTID":659933},"geometry":{"x":172812.64994600043,"y":2562488.1150019988}},{"attributes":{"ID":659961,"DIS_CODE":0,"TOWNNAME":"麻豆區","LI":"安東里","LIN":"8鄰","STREET":" ","SECT":" ","MAREA":"安業","LANE":" ","ALLEY":" ","HOUSE_NO":"２７５號之６","E_COORD97":172879.17783599999,"N_COORD97":2562491.81917,"ADDRESS":"安業２７５號之６","OBJECTID":659934},"geometry":{"x":172879.17783599999,"y":2562491.8191670012}},{"attributes":{"ID":659962,"DIS_CODE":0,"TOWNNAME":"麻豆區","LI":"安東里","LIN":"8鄰","STREET":" ","SECT":" ","MAREA":"安業","LANE":" ","ALLEY":" ","HOUSE_NO":"２７５號之１６","E_COORD97":172834.68466100001,"N_COORD97":2562530.0249800002,"ADDRESS":"安業２７５號之１６","OBJECTID":659935},"geometry":{"x":172834.68466100097,"y":2562530.0249790009}},{"attributes":{"ID":659963,"DIS_CODE":0,"TOWNNAME":"麻豆區","LI":"安東里","LIN":"8鄰","STREET":" ","SECT":" ","MAREA":"安業","LANE":" ","ALLEY":" ","HOUSE_NO":"２７５號之１７","E_COORD97":172831.29470500001,"N_COORD97":2562539.1266399999,"ADDRESS":"安業２７５號之１７","OBJECTID":659936},"geometry":{"x":172831.29470499977,"y":2562539.1266410016}},{"attributes":{"ID":659964,"DIS_CODE":0,"TOWNNAME":"麻豆區","LI":"安東里","LIN":"7鄰","STREET":" ","SECT":" ","MAREA":"安業","LANE":" ","ALLEY":" ","HOUSE_NO":"７６號之２","E_COORD97":173044.650069,"N_COORD97":2562307.4575999998,"ADDRESS":"安業７６號之２","OBJECTID":659937},"geometry":{"x":173044.6500690002,"y":2562307.4576000012}},{"attributes":{"ID":659965,"DIS_CODE":0,"TOWNNAME":"麻豆區","LI":"安東里","LIN":"1鄰","STREET":" ","SECT":" ","MAREA":"安業","LANE":" ","ALLEY":" ","HOUSE_NO":"１號之９","E_COORD97":172866.91205799999,"N_COORD97":2563139.49603,"ADDRESS":"安業１號之９","OBJECTID":659938},"geometry":{"x":172866.91205800045,"y":2563139.4960260019}},{"attributes":{"ID":659966,"DIS_CODE":0,"TOWNNAME":"麻豆區","LI":"安東里","LIN":"4鄰","STREET":" ","SECT":" ","MAREA":"安業","LANE":" ","ALLEY":" ","HOUSE_NO":"２７７號之６","E_COORD97":172745.509253,"N_COORD97":2562676.8987799999,"ADDRESS":"安業２７７號之６","OBJECTID":659939},"geometry":{"x":172745.50925299991,"y":2562676.8987760022}},{"attributes":{"ID":659967,"DIS_CODE":0,"TOWNNAME":"麻豆區","LI":"安東里","LIN":"8鄰","STREET":" ","SECT":" ","MAREA":"安業","LANE":" ","ALLEY":" ","HOUSE_NO":"１１５號之２","E_COORD97":172911.82897599999,"N_COORD97":2562397.60476,"ADDRESS":"安業１１５號之２","OBJECTID":659940},"geometry":{"x":172911.8289759988,"y":2562397.6047600005}},{"attributes":{"ID":659968,"DIS_CODE":0,"TOWNNAME":"麻豆區","LI":"安東里","LIN":"8鄰","STREET":" ","SECT":" ","MAREA":"安業","LANE":" ","ALLEY":" ","HOUSE_NO":"１１５號之３","E_COORD97":172910.98148700001,"N_COORD97":2562404.5897599999,"ADDRESS":"安業１１５號之３","OBJECTID":659941},"geometry":{"x":172910.98148700129,"y":2562404.5897560008}},{"attributes":{"ID":659969,"DIS_CODE":0,"TOWNNAME":"山上區","LI":"南洲里","LIN":"10鄰","STREET":" ","SECT":" ","MAREA":"南洲","LANE":" ","ALLEY":" ","HOUSE_NO":"２２０之１號","E_COORD97":183742.82981,"N_COORD97":2555505.0109299999,"ADDRESS":"南洲２２０之１號","OBJECTID":659942},"geometry":{"x":183742.82981000096,"y":2555505.0109299999}},{"attributes":{"ID":659970,"DIS_CODE":0,"TOWNNAME":"山上區","LI":"明和里","LIN":"14鄰","STREET":" ","SECT":" ","MAREA":"明和","LANE":" ","ALLEY":" ","HOUSE_NO":"２０２號之１","E_COORD97":183476.36957000001,"N_COORD97":2556173.8252300001,"ADDRESS":"明和２０２之１號","OBJECTID":659943},"geometry":{"x":183476.3695700001,"y":2556173.8252300005}},{"attributes":{"ID":659971,"DIS_CODE":0,"TOWNNAME":"山上區","LI":"明和里","LIN":"14鄰","STREET":" ","SECT":" ","MAREA":"明和","LANE":" ","ALLEY":" ","HOUSE_NO":"２０３號","E_COORD97":183462.91682799999,"N_COORD97":2556191.1818900001,"ADDRESS":"明和２０３號","OBJECTID":659944},"geometry":{"x":183462.91682799999,"y":2556191.1818890013}},{"attributes":{"ID":659972,"DIS_CODE":0,"TOWNNAME":"山上區","LI":"明和里","LIN":"13鄰","STREET":" ","SECT":" ","MAREA":"明和","LANE":" ","ALLEY":" ","HOUSE_NO":"２４７之２號","E_COORD97":183005.841269,"N_COORD97":2556660.1822299999,"ADDRESS":"明和２４７之２號","OBJECTID":659945},"geometry":{"x":183005.84126900043,"y":2556660.1822340023}},{"attributes":{"ID":659973,"DIS_CODE":0,"TOWNNAME":"善化區","LI":"田寮里","LIN":"1鄰","STREET":" ","SECT":" ","MAREA":"六分寮","LANE":" ","ALLEY":" ","HOUSE_NO":"１６之１號","E_COORD97":178337.93448,"N_COORD97":2561301.22988,"ADDRESS":"六分寮１６之１號","OBJECTID":659946},"geometry":{"x":178337.93448000122,"y":2561301.229883004}},{"attributes":{"ID":659974,"DIS_CODE":0,"TOWNNAME":"善化區","LI":"田寮里","LIN":"1鄰","STREET":" ","SECT":" ","MAREA":"六分寮","LANE":" ","ALLEY":" ","HOUSE_NO":"１６之３號","E_COORD97":178335.603435,"N_COORD97":2561309.90821,"ADDRESS":"六分寮１６之３號","OBJECTID":659947},"geometry":{"x":178335.60343500134,"y":2561309.9082120005}},{"attributes":{"ID":659975,"DIS_CODE":0,"TOWNNAME":"善化區","LI":"田寮里","LIN":"9鄰","STREET":" ","SECT":" ","MAREA":"六分寮","LANE":" ","ALLEY":" ","HOUSE_NO":"９５號","E_COORD97":178644.14900899999,"N_COORD97":2561514.3780999999,"ADDRESS":"六分寮９５號","OBJECTID":659948},"geometry":{"x":178644.14900899958,"y":2561514.3781020008}},{"attributes":{"ID":659976,"DIS_CODE":0,"TOWNNAME":"善化區","LI":"田寮里","LIN":"9鄰","STREET":" ","SECT":" ","MAREA":"六分寮","LANE":" ","ALLEY":" ","HOUSE_NO":"９１號","E_COORD97":178625.288737,"N_COORD97":2561502.31311,"ADDRESS":"六分寮９１號","OBJECTID":659949},"geometry":{"x":178625.2887370009,"y":2561502.3131080028}},{"attributes":{"ID":659977,"DIS_CODE":0,"TOWNNAME":"善化區","LI":"田寮里","LIN":"9鄰","STREET":" ","SECT":" ","MAREA":"六分寮","LANE":" ","ALLEY":" ","HOUSE_NO":"９１號之３","E_COORD97":178620.20282000001,"N_COORD97":2561495.11644,"ADDRESS":"六分寮９１號之３","OBJECTID":659950},"geometry":{"x":178620.20282000117,"y":2561495.1164400019}},{"attributes":{"ID":659978,"DIS_CODE":0,"TOWNNAME":"善化區","LI":"田寮里","LIN":"9鄰","STREET":" ","SECT":" ","MAREA":"六分寮","LANE":" ","ALLEY":" ","HOUSE_NO":"１０１號之３","E_COORD97":178611.51438000001,"N_COORD97":2561465.9064600002,"ADDRESS":"六分寮１０１號之３","OBJECTID":659951},"geometry":{"x":178611.5143799996,"y":2561465.9064600002}},{"attributes":{"ID":659979,"DIS_CODE":0,"TOWNNAME":"善化區","LI":"田寮里","LIN":"9鄰","STREET":" ","SECT":" ","MAREA":"六分寮","LANE":" ","ALLEY":" ","HOUSE_NO":"１００號","E_COORD97":178624.86491100001,"N_COORD97":2561476.7014500001,"ADDRESS":"六分寮１００號","OBJECTID":659952},"geometry":{"x":178624.86491100024,"y":2561476.7014550027}},{"attributes":{"ID":659980,"DIS_CODE":0,"TOWNNAME":"善化區","LI":"田寮里","LIN":"9鄰","STREET":" ","SECT":" ","MAREA":"六分寮","LANE":" ","ALLEY":" ","HOUSE_NO":"９２之１號","E_COORD97":178641.182225,"N_COORD97":2561485.16812,"ADDRESS":"六分寮９２之１號","OBJECTID":659953},"geometry":{"x":178641.18222500104,"y":2561485.1681170017}},{"attributes":{"ID":659981,"DIS_CODE":0,"TOWNNAME":"新市區","LI":"大營里","LIN":"17鄰","STREET":" ","SECT":" ","MAREA":"大營","LANE":" ","ALLEY":" ","HOUSE_NO":"３２６之２６號","E_COORD97":179109.82081,"N_COORD97":2555251.0953099998,"ADDRESS":"大營３２６之２６號","OBJECTID":659954},"geometry":{"x":179109.82081000134,"y":2555251.095312003}},{"attributes":{"ID":659982,"DIS_CODE":0,"TOWNNAME":"北區","LI":"東興里","LIN":"1鄰","STREET":"小東路","SECT":" ","MAREA":" ","LANE":" ","ALLEY":" ","HOUSE_NO":"１４９號","E_COORD97":170734.135778,"N_COORD97":2544544.7845000001,"ADDRESS":"小東路１４９號","OBJECTID":659955},"geometry":{"x":170734.13577800058,"y":2544544.7844989989}},{"attributes":{"ID":659983,"DIS_CODE":0,"TOWNNAME":"北區","LI":"東興里","LIN":"1鄰","STREET":"小東路","SECT":" ","MAREA":" ","LANE":" ","ALLEY":" ","HOUSE_NO":"１５１號","E_COORD97":170738.79571000001,"N_COORD97":2544543.9378300002,"ADDRESS":"小東路１５１號","OBJECTID":659956},"geometry":{"x":170738.79571000021,"y":2544543.9378319997}},{"attributes":{"ID":659984,"DIS_CODE":0,"TOWNNAME":"北區","LI":"東興里","LIN":"1鄰","STREET":"小東路","SECT":" ","MAREA":" ","LANE":" ","ALLEY":" ","HOUSE_NO":"１５３號","E_COORD97":170742.608381,"N_COORD97":2544542.6678300002,"ADDRESS":"小東路１５３號","OBJECTID":659957},"geometry":{"x":170742.60838100035,"y":2544542.6678330041}},{"attributes":{"ID":659985,"DIS_CODE":0,"TOWNNAME":"北區","LI":"東興里","LIN":"1鄰","STREET":"小東路","SECT":" ","MAREA":" ","LANE":" ","ALLEY":" ","HOUSE_NO":"１５５號","E_COORD97":170745.04425400001,"N_COORD97":2544542.3503299998,"ADDRESS":"小東路１５５號","OBJECTID":659958},"geometry":{"x":170745.04425400123,"y":2544542.3503330015}},{"attributes":{"ID":659986,"DIS_CODE":0,"TOWNNAME":"北區","LI":"東興里","LIN":"1鄰","STREET":"小東路","SECT":" ","MAREA":" ","LANE":" ","ALLEY":" ","HOUSE_NO":"１５７號","E_COORD97":170748.00966499999,"N_COORD97":2544541.9270000001,"ADDRESS":"小東路１５７號","OBJECTID":659959},"geometry":{"x":170748.00966500025,"y":2544541.9270000029}},{"attributes":{"ID":659987,"DIS_CODE":0,"TOWNNAME":"下營區","LI":"開化里","LIN":"10鄰","STREET":" ","SECT":" ","MAREA":"中營","LANE":" ","ALLEY":" ","HOUSE_NO":"５６５號","E_COORD97":176165.550663,"N_COORD97":2568287.5923600001,"ADDRESS":"中營５６５號","OBJECTID":659960},"geometry":{"x":176165.5506630009,"y":2568287.5923620015}},{"attributes":{"ID":659988,"DIS_CODE":0,"TOWNNAME":"北區","LI":"東興里","LIN":"1鄰","STREET":"小東路","SECT":" ","MAREA":" ","LANE":" ","ALLEY":" ","HOUSE_NO":"１８５號","E_COORD97":170794.291257,"N_COORD97":2544525.3111800002,"ADDRESS":"小東路１８５號","OBJECTID":659961},"geometry":{"x":170794.2912569996,"y":2544525.3111760002}},{"attributes":{"ID":659989,"DIS_CODE":0,"TOWNNAME":"北區","LI":"東興里","LIN":"1鄰","STREET":"小東路","SECT":" ","MAREA":" ","LANE":" ","ALLEY":" ","HOUSE_NO":"１８７號","E_COORD97":170797.468483,"N_COORD97":2544523.61784,"ADDRESS":"小東路１８７號","OBJECTID":659962},"geometry":{"x":170797.46848300006,"y":2544523.6178430021}},{"attributes":{"ID":659990,"DIS_CODE":0,"TOWNNAME":"北區","LI":"東興里","LIN":"2鄰","STREET":"小東路","SECT":" ","MAREA":" ","LANE":"１８９巷","ALLEY":" ","HOUSE_NO":"２５號","E_COORD97":170811.34237,"N_COORD97":2544566.9036500002,"ADDRESS":"小東路１８９巷２５號","OBJECTID":659963},"geometry":{"x":170811.34236999974,"y":2544566.9036529996}},{"attributes":{"ID":659991,"DIS_CODE":0,"TOWNNAME":"北區","LI":"東興里","LIN":"2鄰","STREET":"小東路","SECT":" ","MAREA":" ","LANE":"１８９巷","ALLEY":" ","HOUSE_NO":"２７號","E_COORD97":170812.18963000001,"N_COORD97":2544569.86699,"ADDRESS":"小東路１８９巷２７號","OBJECTID":659964},"geometry":{"x":170812.18962999992,"y":2544569.8669850025}},{"attributes":{"ID":659992,"DIS_CODE":0,"TOWNNAME":"北區","LI":"東興里","LIN":"2鄰","STREET":"小東路","SECT":" ","MAREA":" ","LANE":"１８９巷","ALLEY":" ","HOUSE_NO":"２９號","E_COORD97":170813.24870500001,"N_COORD97":2544573.8886500001,"ADDRESS":"小東路１８９巷２９號","OBJECTID":659965},"geometry":{"x":170813.24870499969,"y":2544573.8886500038}},{"attributes":{"ID":659993,"DIS_CODE":0,"TOWNNAME":"北區","LI":"東興里","LIN":"2鄰","STREET":"小東路","SECT":" ","MAREA":" ","LANE":"１８９巷","ALLEY":" ","HOUSE_NO":"３１號","E_COORD97":170814.519596,"N_COORD97":2544577.48698,"ADDRESS":"小東路１８９巷３１號","OBJECTID":659966},"geometry":{"x":170814.5195960002,"y":2544577.4869810008}},{"attributes":{"ID":659994,"DIS_CODE":0,"TOWNNAME":"北區","LI":"東興里","LIN":"2鄰","STREET":"小東路","SECT":" ","MAREA":" ","LANE":"１８９巷","ALLEY":" ","HOUSE_NO":"７號","E_COORD97":170796.40940800001,"N_COORD97":2544534.4128399999,"ADDRESS":"小東路１８９巷７號","OBJECTID":659967},"geometry":{"x":170796.4094080003,"y":2544534.4128380008}},{"attributes":{"ID":659995,"DIS_CODE":0,"TOWNNAME":"北區","LI":"東興里","LIN":"2鄰","STREET":"小東路","SECT":" ","MAREA":" ","LANE":" ","ALLEY":" ","HOUSE_NO":"１７９號","E_COORD97":170786.50705300001,"N_COORD97":2544528.7507600002,"ADDRESS":"小東路１７９號","OBJECTID":659968},"geometry":{"x":170786.50705300085,"y":2544528.7507569995}},{"attributes":{"ID":659996,"DIS_CODE":0,"TOWNNAME":"北區","LI":"東興里","LIN":"2鄰","STREET":"小東路","SECT":" ","MAREA":" ","LANE":" ","ALLEY":" ","HOUSE_NO":"１８１號","E_COORD97":170788.62520400001,"N_COORD97":2544526.8457599999,"ADDRESS":"小東路１８１號","OBJECTID":659969},"geometry":{"x":170788.62520399969,"y":2544526.8457580004}},{"attributes":{"ID":659997,"DIS_CODE":0,"TOWNNAME":"北區","LI":"東興里","LIN":"2鄰","STREET":"小東路","SECT":" ","MAREA":" ","LANE":" ","ALLEY":" ","HOUSE_NO":"１８３號","E_COORD97":170791.37880000001,"N_COORD97":2544524.51743,"ADDRESS":"小東路１８３號","OBJECTID":659970},"geometry":{"x":170791.37880000193,"y":2544524.5174260009}},{"attributes":{"ID":659998,"DIS_CODE":0,"TOWNNAME":"北區","LI":"東興里","LIN":"2鄰","STREET":"小東路","SECT":" ","MAREA":" ","LANE":" ","ALLEY":" ","HOUSE_NO":"１９１號","E_COORD97":170801.810692,"N_COORD97":2544516.5270099998,"ADDRESS":"小東路１９１號","OBJECTID":659971},"geometry":{"x":170801.8106920002,"y":2544516.5270140022}},{"attributes":{"ID":659999,"DIS_CODE":0,"TOWNNAME":"北區","LI":"東興里","LIN":"2鄰","STREET":"小東路","SECT":" ","MAREA":" ","LANE":" ","ALLEY":" ","HOUSE_NO":"１９３號","E_COORD97":170803.92884199999,"N_COORD97":2544515.68035,"ADDRESS":"小東路１９３號","OBJECTID":659972},"geometry":{"x":170803.92884199973,"y":2544515.6803480014}},{"attributes":{"ID":660000,"DIS_CODE":0,"TOWNNAME":"北區","LI":"東興里","LIN":"2鄰","STREET":"小東路","SECT":" ","MAREA":" ","LANE":" ","ALLEY":" ","HOUSE_NO":"２１１號之１","E_COORD97":170839.24900000001,"N_COORD97":2544507.0549300001,"ADDRESS":"小東路２１１之１號","OBJECTID":659973},"geometry":{"x":170839.24899999984,"y":2544507.0549300015}},{"attributes":{"ID":660001,"DIS_CODE":0,"TOWNNAME":"下營區","LI":"開化里","LIN":"1鄰","STREET":" ","SECT":" ","MAREA":"中營","LANE":" ","ALLEY":" ","HOUSE_NO":"３４號","E_COORD97":175528.517922,"N_COORD97":2568339.6623300002,"ADDRESS":"中營３４號","OBJECTID":659974},"geometry":{"x":175528.51792200003,"y":2568339.6623340007}},{"attributes":{"ID":660002,"DIS_CODE":0,"TOWNNAME":"山上區","LI":"新莊里","LIN":"5鄰","STREET":" ","SECT":" ","MAREA":"新庄","LANE":" ","ALLEY":" ","HOUSE_NO":"６０號","E_COORD97":184426.34598899999,"N_COORD97":2554941.1833700002,"ADDRESS":"新庄６０號","OBJECTID":659975},"geometry":{"x":184426.34598900005,"y":2554941.1833699998}},{"attributes":{"ID":660003,"DIS_CODE":0,"TOWNNAME":"善化區","LI":"光文里","LIN":"5鄰","STREET":" ","SECT":" ","MAREA":"北子店","LANE":" ","ALLEY":" ","HOUSE_NO":"２８１號之２","E_COORD97":179172.62078,"N_COORD97":2559651.4983399999,"ADDRESS":"北子店２８１號之２","OBJECTID":659976},"geometry":{"x":179172.62078000046,"y":2559651.4983399995}},{"attributes":{"ID":660004,"DIS_CODE":0,"TOWNNAME":"善化區","LI":"溪美里","LIN":"21鄰","STREET":" ","SECT":" ","MAREA":"溪尾","LANE":" ","ALLEY":" ","HOUSE_NO":"１８５號之１","E_COORD97":176977.20991999999,"N_COORD97":2561220.64011,"ADDRESS":"溪尾１８５號之１","OBJECTID":659977},"geometry":{"x":176977.20992000215,"y":2561220.6401100028}},{"attributes":{"ID":660005,"DIS_CODE":0,"TOWNNAME":"善化區","LI":"溪美里","LIN":"10鄰","STREET":" ","SECT":" ","MAREA":"溪尾","LANE":" ","ALLEY":" ","HOUSE_NO":"９２號之１","E_COORD97":176830.57832999999,"N_COORD97":2561436.3283199999,"ADDRESS":"溪尾９２號之１","OBJECTID":659978},"geometry":{"x":176830.57833000086,"y":2561436.3283200003}},{"attributes":{"ID":660006,"DIS_CODE":0,"TOWNNAME":"善化區","LI":"溪美里","LIN":"14鄰","STREET":" ","SECT":" ","MAREA":"溪尾","LANE":" ","ALLEY":" ","HOUSE_NO":"１３４號","E_COORD97":176969.804328,"N_COORD97":2561399.9002200002,"ADDRESS":"溪尾１３４號","OBJECTID":659979},"geometry":{"x":176969.80432800017,"y":2561399.9002220035}},{"attributes":{"ID":660007,"DIS_CODE":0,"TOWNNAME":"善化區","LI":"溪美里","LIN":"12鄰","STREET":" ","SECT":" ","MAREA":"溪尾","LANE":" ","ALLEY":" ","HOUSE_NO":"１１２號","E_COORD97":176729.83283,"N_COORD97":2561511.4484999999,"ADDRESS":"溪尾１１２號","OBJECTID":659980},"geometry":{"x":176729.83282999974,"y":2561511.448495999}},{"attributes":{"ID":660008,"DIS_CODE":0,"TOWNNAME":"善化區","LI":"溪美里","LIN":"20鄰","STREET":" ","SECT":" ","MAREA":"溪尾","LANE":" ","ALLEY":" ","HOUSE_NO":"１７８號之５","E_COORD97":176908.72549000001,"N_COORD97":2561275.33445,"ADDRESS":"溪尾１７８號之５","OBJECTID":659981},"geometry":{"x":176908.72548999917,"y":2561275.3344500009}},{"attributes":{"ID":660009,"DIS_CODE":0,"TOWNNAME":"善化區","LI":"溪美里","LIN":"20鄰","STREET":" ","SECT":" ","MAREA":"溪尾","LANE":" ","ALLEY":" ","HOUSE_NO":"１７８號之７","E_COORD97":176897.21942000001,"N_COORD97":2561262.96269,"ADDRESS":"溪尾１７８號之７","OBJECTID":659982},"geometry":{"x":176897.21941999998,"y":2561262.9626900014}},{"attributes":{"ID":660010,"DIS_CODE":0,"TOWNNAME":"善化區","LI":"溪美里","LIN":"22鄰","STREET":" ","SECT":" ","MAREA":"溪尾","LANE":" ","ALLEY":" ","HOUSE_NO":"１９１號之１","E_COORD97":176938.32712,"N_COORD97":2561181.68273,"ADDRESS":"溪尾１９１號之１","OBJECTID":659983},"geometry":{"x":176938.32711999863,"y":2561181.6827300042}},{"attributes":{"ID":660011,"DIS_CODE":0,"TOWNNAME":"善化區","LI":"溪美里","LIN":"1鄰","STREET":" ","SECT":" ","MAREA":"溪尾","LANE":" ","ALLEY":" ","HOUSE_NO":"８１５號","E_COORD97":177122.782038,"N_COORD97":2560432.5948100002,"ADDRESS":"溪尾８１５號","OBJECTID":659984},"geometry":{"x":177122.78203800134,"y":2560432.594806999}},{"attributes":{"ID":660012,"DIS_CODE":0,"TOWNNAME":"善化區","LI":"溪美里","LIN":"1鄰","STREET":" ","SECT":" ","MAREA":"溪尾","LANE":" ","ALLEY":" ","HOUSE_NO":"６８１號之６","E_COORD97":177141.32287999999,"N_COORD97":2560795.17961,"ADDRESS":"溪尾６８１號之６","OBJECTID":659985},"geometry":{"x":177141.32287999988,"y":2560795.1796100009}},{"attributes":{"ID":660013,"DIS_CODE":0,"TOWNNAME":"善化區","LI":"溪美里","LIN":"2鄰","STREET":" ","SECT":" ","MAREA":"溪尾","LANE":" ","ALLEY":" ","HOUSE_NO":"６５４號","E_COORD97":177073.30447100001,"N_COORD97":2560842.8045899998,"ADDRESS":"溪尾６５４號","OBJECTID":659986},"geometry":{"x":177073.30447099917,"y":2560842.8045860007}},{"attributes":{"ID":660014,"DIS_CODE":0,"TOWNNAME":"善化區","LI":"溪美里","LIN":"22鄰","STREET":" ","SECT":" ","MAREA":"溪尾","LANE":" ","ALLEY":" ","HOUSE_NO":"３４９號","E_COORD97":176943.306667,"N_COORD97":2561118.3944399999,"ADDRESS":"溪尾３４９號","OBJECTID":659987},"geometry":{"x":176943.30666700006,"y":2561118.394437002}},{"attributes":{"ID":660015,"DIS_CODE":0,"TOWNNAME":"善化區","LI":"溪美里","LIN":"22鄰","STREET":" ","SECT":" ","MAREA":"溪尾","LANE":" ","ALLEY":" ","HOUSE_NO":"５６１號之１","E_COORD97":177044.27480000001,"N_COORD97":2561270.37102,"ADDRESS":"溪尾５６１號之１","OBJECTID":659988},"geometry":{"x":177044.27479999885,"y":2561270.3710200023}},{"attributes":{"ID":660016,"DIS_CODE":0,"TOWNNAME":"善化區","LI":"溪美里","LIN":"22鄰","STREET":" ","SECT":" ","MAREA":"溪尾","LANE":" ","ALLEY":" ","HOUSE_NO":"６１１號之１","E_COORD97":177084.74682,"N_COORD97":2561081.3527899999,"ADDRESS":"溪尾６１１號之１","OBJECTID":659989},"geometry":{"x":177084.74682000093,"y":2561081.3527900036}},{"attributes":{"ID":660017,"DIS_CODE":0,"TOWNNAME":"善化區","LI":"溪美里","LIN":"4鄰","STREET":" ","SECT":" ","MAREA":"溪尾","LANE":" ","ALLEY":" ","HOUSE_NO":"３７號","E_COORD97":176699.521053,"N_COORD97":2561041.3478100002,"ADDRESS":"溪尾３７號","OBJECTID":659990},"geometry":{"x":176699.52105300035,"y":2561041.3478120007}},{"attributes":{"ID":660018,"DIS_CODE":0,"TOWNNAME":"善化區","LI":"溪美里","LIN":"5鄰","STREET":" ","SECT":" ","MAREA":"溪尾","LANE":" ","ALLEY":" ","HOUSE_NO":"４７號之１","E_COORD97":176750.79973,"N_COORD97":2561211.7393800002,"ADDRESS":"溪尾４７號之１","OBJECTID":659991},"geometry":{"x":176750.79972999915,"y":2561211.7393800002}},{"attributes":{"ID":660019,"DIS_CODE":0,"TOWNNAME":"善化區","LI":"溪美里","LIN":"6鄰","STREET":" ","SECT":" ","MAREA":"溪尾","LANE":" ","ALLEY":" ","HOUSE_NO":"５４號","E_COORD97":176795.72154699999,"N_COORD97":2561163.2677500001,"ADDRESS":"溪尾５４號","OBJECTID":659992},"geometry":{"x":176795.72154700104,"y":2561163.2677460033}},{"attributes":{"ID":660020,"DIS_CODE":0,"TOWNNAME":"善化區","LI":"溪美里","LIN":"6鄰","STREET":" ","SECT":" ","MAREA":"溪尾","LANE":" ","ALLEY":" ","HOUSE_NO":"５６號之４","E_COORD97":176852.40354999999,"N_COORD97":2561212.1627199999,"ADDRESS":"溪尾５６號之４","OBJECTID":659993},"geometry":{"x":176852.40355000086,"y":2561212.1627200022}},{"attributes":{"ID":660021,"DIS_CODE":0,"TOWNNAME":"善化區","LI":"溪美里","LIN":"8鄰","STREET":" ","SECT":" ","MAREA":"溪尾","LANE":" ","ALLEY":" ","HOUSE_NO":"７２號之１","E_COORD97":176650.57321999999,"N_COORD97":2561268.04268,"ADDRESS":"溪尾７２號之１","OBJECTID":659994},"geometry":{"x":176650.57321999967,"y":2561268.0426800009}},{"attributes":{"ID":660022,"DIS_CODE":0,"TOWNNAME":"善化區","LI":"溪美里","LIN":"9鄰","STREET":" ","SECT":" ","MAREA":"溪尾","LANE":" ","ALLEY":" ","HOUSE_NO":"８５號","E_COORD97":176786.21264300001,"N_COORD97":2561355.0951299998,"ADDRESS":"溪尾８５號","OBJECTID":659995},"geometry":{"x":176786.2126430003,"y":2561355.0951310005}},{"attributes":{"ID":660023,"DIS_CODE":0,"TOWNNAME":"善化區","LI":"溪美里","LIN":"8鄰","STREET":" ","SECT":" ","MAREA":"溪尾","LANE":" ","ALLEY":" ","HOUSE_NO":"７２號之２","E_COORD97":176648.16281000001,"N_COORD97":2561280.1651699999,"ADDRESS":"溪尾７２號之２","OBJECTID":659996},"geometry":{"x":176648.16281000059,"y":2561280.1651700009}},{"attributes":{"ID":660024,"DIS_CODE":0,"TOWNNAME":"善化區","LI":"溪美里","LIN":"19鄰","STREET":" ","SECT":" ","MAREA":"溪尾","LANE":" ","ALLEY":" ","HOUSE_NO":"２６２號","E_COORD97":177242.34389600001,"N_COORD97":2561593.2200000002,"ADDRESS":"溪尾２６２號","OBJECTID":659997},"geometry":{"x":177242.34389600065,"y":2561593.2200020012}},{"attributes":{"ID":660025,"DIS_CODE":0,"TOWNNAME":"善化區","LI":"東關里","LIN":"7鄰","STREET":"中山路","SECT":" ","MAREA":" ","LANE":" ","ALLEY":" ","HOUSE_NO":"４６９號","E_COORD97":177260.01095900001,"N_COORD97":2559106.18034,"ADDRESS":"中山路４６９號","OBJECTID":659998},"geometry":{"x":177260.01095900033,"y":2559106.1803399995}},{"attributes":{"ID":660026,"DIS_CODE":0,"TOWNNAME":"善化區","LI":"東關里","LIN":"6鄰","STREET":"中山路","SECT":" ","MAREA":" ","LANE":" ","ALLEY":" ","HOUSE_NO":"４７０號","E_COORD97":177280.91265899999,"N_COORD97":2559159.6922900002,"ADDRESS":"中山路４７０號","OBJECTID":659999},"geometry":{"x":177280.91265899967,"y":2559159.6922900025}},{"attributes":{"ID":660027,"DIS_CODE":0,"TOWNNAME":"善化區","LI":"東關里","LIN":"16鄰","STREET":"中和街","SECT":" ","MAREA":" ","LANE":" ","ALLEY":" ","HOUSE_NO":"１號","E_COORD97":177448.973982,"N_COORD97":2558995.8623799998,"ADDRESS":"中和街１號","OBJECTID":660000},"geometry":{"x":177448.97398200072,"y":2558995.8623779994}}]}