{"displayFieldName":"TOWNNAME","fieldAliases":{"ID":"ID","DIS_CODE":"DIS_CODE","TOWNNAME":"TOWNNAME","LI":"LI","LIN":"LIN","STREET":"STREET","SECT":"SECT","MAREA":"MAREA","LANE":"LANE","ALLEY":"ALLEY","HOUSE_NO":"HOUSE_NO","E_COORD97":"E_COORD97","N_COORD97":"N_COORD97","ADDRESS":"ADDRESS","OBJECTID":"OBJECTID"},"geometryType":"esriGeometryPoint","spatialReference":{"wkid":102443,"latestWkid":3826},"fields":[{"name":"ID","type":"esriFieldTypeDouble","alias":"ID"},{"name":"DIS_CODE","type":"esriFieldTypeInteger","alias":"DIS_CODE"},{"name":"TOWNNAME","type":"esriFieldTypeString","alias":"TOWNNAME","length":8},{"name":"LI","type":"esriFieldTypeString","alias":"LI","length":8},{"name":"LIN","type":"esriFieldTypeString","alias":"LIN","length":12},{"name":"STREET","type":"esriFieldTypeString","alias":"STREET","length":20},{"name":"SECT","type":"esriFieldTypeString","alias":"SECT","length":8},{"name":"MAREA","type":"esriFieldTypeString","alias":"MAREA","length":12},{"name":"LANE","type":"esriFieldTypeString","alias":"LANE","length":10},{"name":"ALLEY","type":"esriFieldTypeString","alias":"ALLEY","length":10},{"name":"HOUSE_NO","type":"esriFieldTypeString","alias":"HOUSE_NO","length":20},{"name":"E_COORD97","type":"esriFieldTypeDouble","alias":"E_COORD97"},{"name":"N_COORD97","type":"esriFieldTypeDouble","alias":"N_COORD97"},{"name":"ADDRESS","type":"esriFieldTypeString","alias":"ADDRESS","length":50},{"name":"OBJECTID","type":"esriFieldTypeOID","alias":"OBJECTID"}],"features":[{"attributes":{"ID":430426,"DIS_CODE":0,"TOWNNAME":"永康區","LI":"五王里","LIN":"41鄰","STREET":"中山南路","SECT":" ","MAREA":" ","LANE":"２６２巷","ALLEY":" ","HOUSE_NO":"２號十一樓之２","E_COORD97":171550.57999999999,"N_COORD97":2546054.6200000001,"ADDRESS":"中山南路２６２巷２號十一樓之２","OBJECTID":430401},"geometry":{"x":171550.57999999914,"y":2546054.620000001}},{"attributes":{"ID":430427,"DIS_CODE":0,"TOWNNAME":"永康區","LI":"五王里","LIN":"41鄰","STREET":"中山南路","SECT":" ","MAREA":" ","LANE":"２６２巷","ALLEY":" ","HOUSE_NO":"２號十二樓之１３","E_COORD97":171551.79999999999,"N_COORD97":2546054.6200000001,"ADDRESS":"中山南路２６２巷２號十二樓之１３","OBJECTID":430402},"geometry":{"x":171551.79999999981,"y":2546054.620000001}},{"attributes":{"ID":430428,"DIS_CODE":0,"TOWNNAME":"安定區","LI":"管寮里","LIN":"11鄰","STREET":" ","SECT":" ","MAREA":"管寮","LANE":" ","ALLEY":" ","HOUSE_NO":"１０１之１號","E_COORD97":169949.570064,"N_COORD97":2556409.01009,"ADDRESS":"管寮１０１之１號","OBJECTID":430403},"geometry":{"x":169949.57006400172,"y":2556409.0100890044}},{"attributes":{"ID":430429,"DIS_CODE":0,"TOWNNAME":"永康區","LI":"五王里","LIN":"41鄰","STREET":"中山南路","SECT":" ","MAREA":" ","LANE":"２６２巷","ALLEY":" ","HOUSE_NO":"２號十二樓之７","E_COORD97":171550.53,"N_COORD97":2546054.6200000001,"ADDRESS":"中山南路２６２巷２號十二樓之７","OBJECTID":430404},"geometry":{"x":171550.53000000026,"y":2546054.620000001}},{"attributes":{"ID":430430,"DIS_CODE":0,"TOWNNAME":"永康區","LI":"五王里","LIN":"41鄰","STREET":"中山南路","SECT":" ","MAREA":" ","LANE":"２６２巷","ALLEY":" ","HOUSE_NO":"２號十樓之２","E_COORD97":171549.32999999999,"N_COORD97":2546054.6200000001,"ADDRESS":"中山南路２６２巷２號十樓之２","OBJECTID":430405},"geometry":{"x":171549.33000000101,"y":2546054.620000001}},{"attributes":{"ID":430431,"DIS_CODE":0,"TOWNNAME":"東區","LI":"泉南里","LIN":"25鄰","STREET":"光華街","SECT":" ","MAREA":" ","LANE":"２２９巷","ALLEY":" ","HOUSE_NO":"２３號五樓","E_COORD97":169463.70000000001,"N_COORD97":2542934.4199999999,"ADDRESS":"光華街２２９巷２３號五樓","OBJECTID":430406},"geometry":{"x":169463.70000000112,"y":2542934.4200000018}},{"attributes":{"ID":430432,"DIS_CODE":0,"TOWNNAME":"永康區","LI":"五王里","LIN":"41鄰","STREET":"中山南路","SECT":" ","MAREA":" ","LANE":"２６２巷","ALLEY":" ","HOUSE_NO":"２號十四樓之１","E_COORD97":171550.45000000001,"N_COORD97":2546054.6200000001,"ADDRESS":"中山南路２６２巷２號十四樓之１","OBJECTID":430407},"geometry":{"x":171550.45000000112,"y":2546054.620000001}},{"attributes":{"ID":430433,"DIS_CODE":0,"TOWNNAME":"永康區","LI":"五王里","LIN":"41鄰","STREET":"中山南路","SECT":" ","MAREA":" ","LANE":"２６２巷","ALLEY":" ","HOUSE_NO":"２號十樓之５","E_COORD97":171549.35000000001,"N_COORD97":2546054.6200000001,"ADDRESS":"中山南路２６２巷２號十樓之５","OBJECTID":430408},"geometry":{"x":171549.34999999963,"y":2546054.620000001}},{"attributes":{"ID":430434,"DIS_CODE":0,"TOWNNAME":"永康區","LI":"大橋里","LIN":"4鄰","STREET":"大橋一街","SECT":" ","MAREA":" ","LANE":"２４７巷","ALLEY":" ","HOUSE_NO":"１６７號二樓之２","E_COORD97":171018.98999999999,"N_COORD97":2547037.52,"ADDRESS":"大橋一街２４７巷１６７號二樓之２","OBJECTID":430409},"geometry":{"x":171018.99000000022,"y":2547037.5199999977}},{"attributes":{"ID":430435,"DIS_CODE":0,"TOWNNAME":"永康區","LI":"大橋里","LIN":"4鄰","STREET":"大橋一街","SECT":" ","MAREA":" ","LANE":"２４７巷","ALLEY":" ","HOUSE_NO":"１６７號五樓之２","E_COORD97":171018.98999999999,"N_COORD97":2547037.52,"ADDRESS":"大橋一街２４７巷１６７號五樓之２","OBJECTID":430410},"geometry":{"x":171018.99000000022,"y":2547037.5199999977}},{"attributes":{"ID":430436,"DIS_CODE":0,"TOWNNAME":"永康區","LI":"五王里","LIN":"32鄰","STREET":"中華路","SECT":" ","MAREA":" ","LANE":"５７８巷","ALLEY":" ","HOUSE_NO":"２號五樓之１","E_COORD97":171284.88,"N_COORD97":2545927.0499999998,"ADDRESS":"中華路５７８巷２號五樓之１","OBJECTID":430411},"geometry":{"x":171284.87999999989,"y":2545927.0500000026}},{"attributes":{"ID":430437,"DIS_CODE":0,"TOWNNAME":"永康區","LI":"五王里","LIN":"18鄰","STREET":"成功路","SECT":" ","MAREA":" ","LANE":"１８８巷","ALLEY":" ","HOUSE_NO":"２號六樓之７","E_COORD97":171440.94,"N_COORD97":2545664.04,"ADDRESS":"成功路１８８巷２號六樓之７","OBJECTID":430412},"geometry":{"x":171440.94000000041,"y":2545664.0400000028}},{"attributes":{"ID":430438,"DIS_CODE":0,"TOWNNAME":"永康區","LI":"五王里","LIN":"41鄰","STREET":"中山南路","SECT":" ","MAREA":" ","LANE":"２６２巷","ALLEY":" ","HOUSE_NO":"２號十五樓之１","E_COORD97":171550.45000000001,"N_COORD97":2546054.6200000001,"ADDRESS":"中山南路２６２巷２號十五樓之１","OBJECTID":430413},"geometry":{"x":171550.45000000112,"y":2546054.620000001}},{"attributes":{"ID":430439,"DIS_CODE":0,"TOWNNAME":"永康區","LI":"五王里","LIN":"41鄰","STREET":"中山南路","SECT":" ","MAREA":" ","LANE":"２６２巷","ALLEY":" ","HOUSE_NO":"２號十一樓之７","E_COORD97":171550.53,"N_COORD97":2546054.6200000001,"ADDRESS":"中山南路２６２巷２號十一樓之７","OBJECTID":430414},"geometry":{"x":171550.53000000026,"y":2546054.620000001}},{"attributes":{"ID":430440,"DIS_CODE":0,"TOWNNAME":"永康區","LI":"三合里","LIN":"24鄰","STREET":"南工街","SECT":" ","MAREA":" ","LANE":"２６７巷","ALLEY":" ","HOUSE_NO":"５８號九樓之３","E_COORD97":171830.60000000001,"N_COORD97":2545838.54,"ADDRESS":"南工街２６７巷５８號九樓之３","OBJECTID":430415},"geometry":{"x":171830.60000000056,"y":2545838.540000001}},{"attributes":{"ID":430441,"DIS_CODE":0,"TOWNNAME":"永康區","LI":"大橋里","LIN":"4鄰","STREET":"大橋一街","SECT":" ","MAREA":" ","LANE":"２４７巷","ALLEY":" ","HOUSE_NO":"１６７號三樓之２","E_COORD97":171018.98999999999,"N_COORD97":2547037.52,"ADDRESS":"大橋一街２４７巷１６７號三樓之２","OBJECTID":430416},"geometry":{"x":171018.99000000022,"y":2547037.5199999977}},{"attributes":{"ID":430442,"DIS_CODE":0,"TOWNNAME":"永康區","LI":"中興里","LIN":"25鄰","STREET":"中華路","SECT":" ","MAREA":" ","LANE":"２１６巷","ALLEY":" ","HOUSE_NO":"３號之２七樓","E_COORD97":171724.41,"N_COORD97":2545150.79,"ADDRESS":"中華路２１６巷３號之２七樓","OBJECTID":430417},"geometry":{"x":171724.41000000015,"y":2545150.790000001}},{"attributes":{"ID":430443,"DIS_CODE":0,"TOWNNAME":"永康區","LI":"五王里","LIN":"32鄰","STREET":"中華路","SECT":" ","MAREA":" ","LANE":"５７８巷","ALLEY":" ","HOUSE_NO":"２號三樓之８","E_COORD97":171285.03,"N_COORD97":2545927.0499999998,"ADDRESS":"中華路５７８巷２號三樓之８","OBJECTID":430418},"geometry":{"x":171285.03000000212,"y":2545927.0500000026}},{"attributes":{"ID":430444,"DIS_CODE":0,"TOWNNAME":"永康區","LI":"五王里","LIN":"32鄰","STREET":"中華路","SECT":" ","MAREA":" ","LANE":"５７８巷","ALLEY":" ","HOUSE_NO":"２號之１八樓之１","E_COORD97":171237.89999999999,"N_COORD97":2545914.2999999998,"ADDRESS":"中華路５７８巷２號之１八樓之１","OBJECTID":430419},"geometry":{"x":171237.90000000037,"y":2545914.3000000007}},{"attributes":{"ID":430445,"DIS_CODE":0,"TOWNNAME":"永康區","LI":"大橋里","LIN":"4鄰","STREET":"大橋一街","SECT":" ","MAREA":" ","LANE":"２４７巷","ALLEY":" ","HOUSE_NO":"１６７號三樓之１","E_COORD97":171018.85000000001,"N_COORD97":2547037.52,"ADDRESS":"大橋一街２４７巷１６７號三樓之１","OBJECTID":430420},"geometry":{"x":171018.84999999963,"y":2547037.5199999977}},{"attributes":{"ID":430446,"DIS_CODE":0,"TOWNNAME":"永康區","LI":"五王里","LIN":"32鄰","STREET":"中華路","SECT":" ","MAREA":" ","LANE":"５７８巷","ALLEY":" ","HOUSE_NO":"２號七樓之４","E_COORD97":171284.89999999999,"N_COORD97":2545927.0499999998,"ADDRESS":"中華路５７８巷２號七樓之４","OBJECTID":430421},"geometry":{"x":171284.9000000013,"y":2545927.0500000026}},{"attributes":{"ID":430447,"DIS_CODE":0,"TOWNNAME":"東區","LI":"中西里","LIN":"15鄰","STREET":"勝利路","SECT":" ","MAREA":" ","LANE":"５２巷","ALLEY":" ","HOUSE_NO":"１１０號三樓","E_COORD97":169995.56,"N_COORD97":2543378.1800000002,"ADDRESS":"勝利路５２巷１１０號三樓","OBJECTID":430422},"geometry":{"x":169995.55999999959,"y":2543378.1799999997}},{"attributes":{"ID":430448,"DIS_CODE":0,"TOWNNAME":"東區","LI":"中西里","LIN":"15鄰","STREET":"勝利路","SECT":" ","MAREA":" ","LANE":"５２巷","ALLEY":" ","HOUSE_NO":"１１２號三樓","E_COORD97":169999.94,"N_COORD97":2543370.5299999998,"ADDRESS":"勝利路５２巷１１２號三樓","OBJECTID":430423},"geometry":{"x":169999.94000000134,"y":2543370.5300000012}},{"attributes":{"ID":430449,"DIS_CODE":0,"TOWNNAME":"東區","LI":"中西里","LIN":"15鄰","STREET":"長榮路","SECT":"二段","MAREA":" ","LANE":"７１巷","ALLEY":" ","HOUSE_NO":"１０號二樓","E_COORD97":170050.56,"N_COORD97":2543425.7799999998,"ADDRESS":"長榮路二段７１巷１０號二樓","OBJECTID":430424},"geometry":{"x":170050.56000000052,"y":2543425.7800000012}},{"attributes":{"ID":430450,"DIS_CODE":0,"TOWNNAME":"東區","LI":"中西里","LIN":"15鄰","STREET":"長榮路","SECT":"二段","MAREA":" ","LANE":"７１巷","ALLEY":" ","HOUSE_NO":"１２號三樓","E_COORD97":170042.95000000001,"N_COORD97":2543421.3100000001,"ADDRESS":"長榮路二段７１巷１２號三樓","OBJECTID":430425},"geometry":{"x":170042.95000000205,"y":2543421.3100000005}},{"attributes":{"ID":430451,"DIS_CODE":0,"TOWNNAME":"東區","LI":"中西里","LIN":"15鄰","STREET":"長榮路","SECT":"二段","MAREA":" ","LANE":"７１巷","ALLEY":" ","HOUSE_NO":"１２號三樓之１","E_COORD97":170042.95000000001,"N_COORD97":2543421.3100000001,"ADDRESS":"長榮路二段７１巷１２號三樓之１","OBJECTID":430426},"geometry":{"x":170042.95000000205,"y":2543421.3100000005}},{"attributes":{"ID":430452,"DIS_CODE":0,"TOWNNAME":"東區","LI":"中西里","LIN":"15鄰","STREET":"長榮路","SECT":"二段","MAREA":" ","LANE":"７１巷","ALLEY":" ","HOUSE_NO":"１２號四樓","E_COORD97":170042.95000000001,"N_COORD97":2543421.3100000001,"ADDRESS":"長榮路二段７１巷１２號四樓","OBJECTID":430427},"geometry":{"x":170042.95000000205,"y":2543421.3100000005}},{"attributes":{"ID":430453,"DIS_CODE":0,"TOWNNAME":"東區","LI":"中西里","LIN":"15鄰","STREET":"長榮路","SECT":"二段","MAREA":" ","LANE":"７１巷","ALLEY":" ","HOUSE_NO":"１２號四樓之１","E_COORD97":170042.95000000001,"N_COORD97":2543421.3100000001,"ADDRESS":"長榮路二段７１巷１２號四樓之１","OBJECTID":430428},"geometry":{"x":170042.95000000205,"y":2543421.3100000005}},{"attributes":{"ID":430454,"DIS_CODE":0,"TOWNNAME":"東區","LI":"莊敬里","LIN":"15鄰","STREET":"東光路","SECT":"二段","MAREA":" ","LANE":"５５巷","ALLEY":" ","HOUSE_NO":"１號七樓之３","E_COORD97":171191.94,"N_COORD97":2544087.3399999999,"ADDRESS":"東光路二段５５巷１號七樓之３","OBJECTID":430429},"geometry":{"x":171191.94000000041,"y":2544087.3400000017}},{"attributes":{"ID":430455,"DIS_CODE":0,"TOWNNAME":"東區","LI":"大德里","LIN":"10鄰","STREET":"大同路","SECT":"二段","MAREA":" ","LANE":"６１巷","ALLEY":" ","HOUSE_NO":"１１８號二樓","E_COORD97":169432.67999999999,"N_COORD97":2542231.6699999999,"ADDRESS":"大同路二段６１巷１１８號二樓","OBJECTID":430430},"geometry":{"x":169432.68000000063,"y":2542231.6699999999}},{"attributes":{"ID":430456,"DIS_CODE":0,"TOWNNAME":"東區","LI":"大德里","LIN":"10鄰","STREET":"大同路","SECT":"二段","MAREA":" ","LANE":"６１巷","ALLEY":" ","HOUSE_NO":"１１８號三樓","E_COORD97":169432.67999999999,"N_COORD97":2542231.6699999999,"ADDRESS":"大同路二段６１巷１１８號三樓","OBJECTID":430431},"geometry":{"x":169432.68000000063,"y":2542231.6699999999}},{"attributes":{"ID":430457,"DIS_CODE":0,"TOWNNAME":"東區","LI":"後甲里","LIN":"29鄰","STREET":"裕農路","SECT":" ","MAREA":" ","LANE":"６６１巷","ALLEY":" ","HOUSE_NO":"８號之２五樓","E_COORD97":171732.09,"N_COORD97":2543265.6499999999,"ADDRESS":"裕農路６６１巷８號之２五樓","OBJECTID":430432},"geometry":{"x":171732.09000000078,"y":2543265.6500000022}},{"attributes":{"ID":430458,"DIS_CODE":0,"TOWNNAME":"東區","LI":"泉南里","LIN":"25鄰","STREET":"光華街","SECT":" ","MAREA":" ","LANE":"２２９巷","ALLEY":" ","HOUSE_NO":"２３號三樓","E_COORD97":169463.70000000001,"N_COORD97":2542934.4199999999,"ADDRESS":"光華街２２９巷２３號三樓","OBJECTID":430433},"geometry":{"x":169463.70000000112,"y":2542934.4200000018}},{"attributes":{"ID":430459,"DIS_CODE":0,"TOWNNAME":"東區","LI":"泉南里","LIN":"25鄰","STREET":"光華街","SECT":" ","MAREA":" ","LANE":"２２９巷","ALLEY":" ","HOUSE_NO":"２３號四樓","E_COORD97":169463.70000000001,"N_COORD97":2542934.4199999999,"ADDRESS":"光華街２２９巷２３號四樓","OBJECTID":430434},"geometry":{"x":169463.70000000112,"y":2542934.4200000018}},{"attributes":{"ID":430460,"DIS_CODE":0,"TOWNNAME":"東區","LI":"泉南里","LIN":"25鄰","STREET":"光華街","SECT":" ","MAREA":" ","LANE":"２２９巷","ALLEY":" ","HOUSE_NO":"２３號四樓之１","E_COORD97":169463.70000000001,"N_COORD97":2542934.4199999999,"ADDRESS":"光華街２２９巷２３號四樓之１","OBJECTID":430435},"geometry":{"x":169463.70000000112,"y":2542934.4200000018}},{"attributes":{"ID":430461,"DIS_CODE":0,"TOWNNAME":"東區","LI":"泉南里","LIN":"25鄰","STREET":"光華街","SECT":" ","MAREA":" ","LANE":"２２９巷","ALLEY":" ","HOUSE_NO":"２３號五樓之１","E_COORD97":169463.70000000001,"N_COORD97":2542934.4199999999,"ADDRESS":"光華街２２９巷２３號五樓之１","OBJECTID":430436},"geometry":{"x":169463.70000000112,"y":2542934.4200000018}},{"attributes":{"ID":430462,"DIS_CODE":0,"TOWNNAME":"東區","LI":"大學里","LIN":"15鄰","STREET":"長榮路","SECT":"三段","MAREA":" ","LANE":"２４巷","ALLEY":" ","HOUSE_NO":"２１號四樓","E_COORD97":170271.85999999999,"N_COORD97":2543672.6400000001,"ADDRESS":"長榮路三段２４巷２１號四樓","OBJECTID":430437},"geometry":{"x":170271.86000000034,"y":2543672.6400000025}},{"attributes":{"ID":430463,"DIS_CODE":0,"TOWNNAME":"東區","LI":"大學里","LIN":"15鄰","STREET":"長榮路","SECT":"三段","MAREA":" ","LANE":"２４巷","ALLEY":" ","HOUSE_NO":"２３號二樓","E_COORD97":170274.07999999999,"N_COORD97":2543678.4100000001,"ADDRESS":"長榮路三段２４巷２３號二樓","OBJECTID":430438},"geometry":{"x":170274.07999999914,"y":2543678.4100000001}},{"attributes":{"ID":430464,"DIS_CODE":0,"TOWNNAME":"東區","LI":"大學里","LIN":"15鄰","STREET":"長榮路","SECT":"三段","MAREA":" ","LANE":"２４巷","ALLEY":" ","HOUSE_NO":"２３號三樓","E_COORD97":170274.07999999999,"N_COORD97":2543678.4100000001,"ADDRESS":"長榮路三段２４巷２３號三樓","OBJECTID":430439},"geometry":{"x":170274.07999999914,"y":2543678.4100000001}},{"attributes":{"ID":430465,"DIS_CODE":0,"TOWNNAME":"東區","LI":"泉南里","LIN":"15鄰","STREET":"光華街","SECT":" ","MAREA":" ","LANE":"１１９巷","ALLEY":" ","HOUSE_NO":"９號三樓","E_COORD97":169758.22,"N_COORD97":2542826.1000000001,"ADDRESS":"光華街１１９巷９號三樓","OBJECTID":430440},"geometry":{"x":169758.22000000067,"y":2542826.0999999978}},{"attributes":{"ID":430466,"DIS_CODE":0,"TOWNNAME":"東區","LI":"泉南里","LIN":"15鄰","STREET":"光華街","SECT":" ","MAREA":" ","LANE":"１１９巷","ALLEY":" ","HOUSE_NO":"１１號五樓","E_COORD97":169769.81,"N_COORD97":2542822.1299999999,"ADDRESS":"光華街１１９巷１１號五樓","OBJECTID":430441},"geometry":{"x":169769.80999999959,"y":2542822.1300000027}},{"attributes":{"ID":430467,"DIS_CODE":0,"TOWNNAME":"東區","LI":"泉南里","LIN":"15鄰","STREET":"光華街","SECT":" ","MAREA":" ","LANE":"１１９巷","ALLEY":" ","HOUSE_NO":"１３號二樓","E_COORD97":169778.10999999999,"N_COORD97":2542818.5,"ADDRESS":"光華街１１９巷１３號二樓","OBJECTID":430442},"geometry":{"x":169778.11000000127,"y":2542818.5000000019}},{"attributes":{"ID":430468,"DIS_CODE":0,"TOWNNAME":"東區","LI":"泉南里","LIN":"15鄰","STREET":"光華街","SECT":" ","MAREA":" ","LANE":"１１９巷","ALLEY":" ","HOUSE_NO":"１３號三樓","E_COORD97":169778.10999999999,"N_COORD97":2542818.5,"ADDRESS":"光華街１１９巷１３號三樓","OBJECTID":430443},"geometry":{"x":169778.11000000127,"y":2542818.5000000019}},{"attributes":{"ID":430469,"DIS_CODE":0,"TOWNNAME":"東區","LI":"泉南里","LIN":"15鄰","STREET":"光華街","SECT":" ","MAREA":" ","LANE":"１１９巷","ALLEY":" ","HOUSE_NO":"１３號五樓","E_COORD97":169778.10999999999,"N_COORD97":2542818.5,"ADDRESS":"光華街１１９巷１３號五樓","OBJECTID":430444},"geometry":{"x":169778.11000000127,"y":2542818.5000000019}},{"attributes":{"ID":430470,"DIS_CODE":0,"TOWNNAME":"東區","LI":"泉南里","LIN":"15鄰","STREET":"光華街","SECT":" ","MAREA":" ","LANE":"１１９巷","ALLEY":" ","HOUSE_NO":"９號二樓","E_COORD97":169758.22,"N_COORD97":2542826.1000000001,"ADDRESS":"光華街１１９巷９號二樓","OBJECTID":430445},"geometry":{"x":169758.22000000067,"y":2542826.0999999978}},{"attributes":{"ID":430471,"DIS_CODE":0,"TOWNNAME":"東區","LI":"莊敬里","LIN":"14鄰","STREET":"莊敬路","SECT":" ","MAREA":" ","LANE":"２０５巷","ALLEY":" ","HOUSE_NO":"２４號七樓","E_COORD97":171286.66,"N_COORD97":2544183.3199999998,"ADDRESS":"莊敬路２０５巷２４號七樓","OBJECTID":430446},"geometry":{"x":171286.66000000015,"y":2544183.3200000022}},{"attributes":{"ID":430472,"DIS_CODE":0,"TOWNNAME":"東區","LI":"富強里","LIN":"16鄰","STREET":"裕農路","SECT":" ","MAREA":" ","LANE":"２８８巷","ALLEY":" ","HOUSE_NO":"８８號二樓","E_COORD97":170948.70999999999,"N_COORD97":2542930.6699999999,"ADDRESS":"裕農路２８８巷８８號二樓","OBJECTID":430447},"geometry":{"x":170948.71000000089,"y":2542930.6699999999}},{"attributes":{"ID":430473,"DIS_CODE":0,"TOWNNAME":"東區","LI":"富強里","LIN":"16鄰","STREET":"裕農路","SECT":" ","MAREA":" ","LANE":"２８８巷","ALLEY":" ","HOUSE_NO":"８８號五樓","E_COORD97":170948.70999999999,"N_COORD97":2542930.6699999999,"ADDRESS":"裕農路２８８巷８８號五樓","OBJECTID":430448},"geometry":{"x":170948.71000000089,"y":2542930.6699999999}},{"attributes":{"ID":430474,"DIS_CODE":0,"TOWNNAME":"東區","LI":"富強里","LIN":"16鄰","STREET":"裕農路","SECT":" ","MAREA":" ","LANE":"２８８巷","ALLEY":" ","HOUSE_NO":"８８號四樓","E_COORD97":170948.70999999999,"N_COORD97":2542930.6699999999,"ADDRESS":"裕農路２８８巷８８號四樓","OBJECTID":430449},"geometry":{"x":170948.71000000089,"y":2542930.6699999999}},{"attributes":{"ID":430475,"DIS_CODE":0,"TOWNNAME":"東區","LI":"富強里","LIN":"16鄰","STREET":"裕農路","SECT":" ","MAREA":" ","LANE":"２８８巷","ALLEY":" ","HOUSE_NO":"９０號二樓","E_COORD97":170954.98000000001,"N_COORD97":2542930.96,"ADDRESS":"裕農路２８８巷９０號二樓","OBJECTID":430450},"geometry":{"x":170954.98000000231,"y":2542930.9600000028}},{"attributes":{"ID":430476,"DIS_CODE":0,"TOWNNAME":"東區","LI":"富強里","LIN":"16鄰","STREET":"裕農路","SECT":" ","MAREA":" ","LANE":"２８８巷","ALLEY":" ","HOUSE_NO":"９０號三樓","E_COORD97":170954.98000000001,"N_COORD97":2542930.96,"ADDRESS":"裕農路２８８巷９０號三樓","OBJECTID":430451},"geometry":{"x":170954.98000000231,"y":2542930.9600000028}},{"attributes":{"ID":430477,"DIS_CODE":0,"TOWNNAME":"東區","LI":"富強里","LIN":"16鄰","STREET":"裕農路","SECT":" ","MAREA":" ","LANE":"２８８巷","ALLEY":" ","HOUSE_NO":"９０號五樓","E_COORD97":170954.98000000001,"N_COORD97":2542930.96,"ADDRESS":"裕農路２８８巷９０號五樓","OBJECTID":430452},"geometry":{"x":170954.98000000231,"y":2542930.9600000028}},{"attributes":{"ID":430478,"DIS_CODE":0,"TOWNNAME":"東區","LI":"大福里","LIN":"3鄰","STREET":"榮譽街","SECT":" ","MAREA":" ","LANE":"４７巷","ALLEY":" ","HOUSE_NO":"１號三樓","E_COORD97":169645.42999999999,"N_COORD97":2541679.5499999998,"ADDRESS":"榮譽街４７巷１號三樓","OBJECTID":430453},"geometry":{"x":169645.4299999997,"y":2541679.5500000026}},{"attributes":{"ID":430479,"DIS_CODE":0,"TOWNNAME":"東區","LI":"大福里","LIN":"3鄰","STREET":"榮譽街","SECT":" ","MAREA":" ","LANE":"４７巷","ALLEY":" ","HOUSE_NO":"１號之１三樓","E_COORD97":169641.12,"N_COORD97":2541688.1699999999,"ADDRESS":"榮譽街４７巷１號之１三樓","OBJECTID":430454},"geometry":{"x":169641.12000000011,"y":2541688.1700000018}},{"attributes":{"ID":430480,"DIS_CODE":0,"TOWNNAME":"東區","LI":"大福里","LIN":"3鄰","STREET":"榮譽街","SECT":" ","MAREA":" ","LANE":"４７巷","ALLEY":" ","HOUSE_NO":"１號之１五樓","E_COORD97":169641.12,"N_COORD97":2541688.1699999999,"ADDRESS":"榮譽街４７巷１號之１五樓","OBJECTID":430455},"geometry":{"x":169641.12000000011,"y":2541688.1700000018}},{"attributes":{"ID":430481,"DIS_CODE":0,"TOWNNAME":"東區","LI":"大福里","LIN":"3鄰","STREET":"榮譽街","SECT":" ","MAREA":" ","LANE":"４７巷","ALLEY":" ","HOUSE_NO":"１號四樓","E_COORD97":169645.42999999999,"N_COORD97":2541679.5499999998,"ADDRESS":"榮譽街４７巷１號四樓","OBJECTID":430456},"geometry":{"x":169645.4299999997,"y":2541679.5500000026}},{"attributes":{"ID":430482,"DIS_CODE":0,"TOWNNAME":"東區","LI":"虎尾里","LIN":"29鄰","STREET":"東成街","SECT":" ","MAREA":" ","LANE":"２００巷","ALLEY":" ","HOUSE_NO":"５６號三樓","E_COORD97":171868.17000000001,"N_COORD97":2542139.04,"ADDRESS":"東成街２００巷５６號三樓","OBJECTID":430457},"geometry":{"x":171868.16999999993,"y":2542139.040000001}},{"attributes":{"ID":430483,"DIS_CODE":0,"TOWNNAME":"東區","LI":"莊敬里","LIN":"24鄰","STREET":"東光路","SECT":"二段","MAREA":" ","LANE":"１１巷","ALLEY":" ","HOUSE_NO":"１３號二樓","E_COORD97":171164.26000000001,"N_COORD97":2543996.04,"ADDRESS":"東光路二段１１巷１３號二樓","OBJECTID":430458},"geometry":{"x":171164.26000000164,"y":2543996.0400000028}},{"attributes":{"ID":430484,"DIS_CODE":0,"TOWNNAME":"東區","LI":"大智里","LIN":"9鄰","STREET":"德東街","SECT":" ","MAREA":" ","LANE":"１５１巷","ALLEY":" ","HOUSE_NO":"３號三樓","E_COORD97":171192.41,"N_COORD97":2540291.7999999998,"ADDRESS":"德東街１５１巷３號三樓","OBJECTID":430459},"geometry":{"x":171192.40999999922,"y":2540291.8000000026}},{"attributes":{"ID":430485,"DIS_CODE":0,"TOWNNAME":"永康區","LI":"五王里","LIN":"32鄰","STREET":"中華路","SECT":" ","MAREA":" ","LANE":"５７８巷","ALLEY":" ","HOUSE_NO":"２號四樓之２","E_COORD97":171285.01000000001,"N_COORD97":2545927.0499999998,"ADDRESS":"中華路５７８巷２號四樓之２","OBJECTID":430460},"geometry":{"x":171285.01000000071,"y":2545927.0500000026}},{"attributes":{"ID":430486,"DIS_CODE":0,"TOWNNAME":"永康區","LI":"三合里","LIN":"24鄰","STREET":"南工街","SECT":" ","MAREA":" ","LANE":"２６７巷","ALLEY":" ","HOUSE_NO":"５８號二樓之３","E_COORD97":171830.60000000001,"N_COORD97":2545838.54,"ADDRESS":"南工街２６７巷５８號二樓之３","OBJECTID":430461},"geometry":{"x":171830.60000000056,"y":2545838.540000001}},{"attributes":{"ID":430487,"DIS_CODE":0,"TOWNNAME":"永康區","LI":"五王里","LIN":"18鄰","STREET":"成功路","SECT":" ","MAREA":" ","LANE":"１８８巷","ALLEY":" ","HOUSE_NO":"２號六樓之６","E_COORD97":171440.97,"N_COORD97":2545664.04,"ADDRESS":"成功路１８８巷２號六樓之６","OBJECTID":430462},"geometry":{"x":171440.9700000016,"y":2545664.0400000028}},{"attributes":{"ID":430488,"DIS_CODE":0,"TOWNNAME":"永康區","LI":"五王里","LIN":"32鄰","STREET":"中華路","SECT":" ","MAREA":" ","LANE":"５７８巷","ALLEY":" ","HOUSE_NO":"２號五樓之５","E_COORD97":171285.03,"N_COORD97":2545927.0499999998,"ADDRESS":"中華路５７８巷２號五樓之５","OBJECTID":430463},"geometry":{"x":171285.03000000212,"y":2545927.0500000026}},{"attributes":{"ID":430489,"DIS_CODE":0,"TOWNNAME":"永康區","LI":"五王里","LIN":"18鄰","STREET":"成功路","SECT":" ","MAREA":" ","LANE":"１８８巷","ALLEY":" ","HOUSE_NO":"２號七樓之９","E_COORD97":171440.95000000001,"N_COORD97":2545664.04,"ADDRESS":"成功路１８８巷２號七樓之９","OBJECTID":430464},"geometry":{"x":171440.95000000019,"y":2545664.0400000028}},{"attributes":{"ID":430490,"DIS_CODE":0,"TOWNNAME":"永康區","LI":"五王里","LIN":"18鄰","STREET":"成功路","SECT":" ","MAREA":" ","LANE":"１８８巷","ALLEY":" ","HOUSE_NO":"２號七樓之８","E_COORD97":171441.01000000001,"N_COORD97":2545664.04,"ADDRESS":"成功路１８８巷２號七樓之８","OBJECTID":430465},"geometry":{"x":171441.01000000071,"y":2545664.0400000028}},{"attributes":{"ID":430491,"DIS_CODE":0,"TOWNNAME":"永康區","LI":"五王里","LIN":"32鄰","STREET":"中華路","SECT":" ","MAREA":" ","LANE":"５７８巷","ALLEY":" ","HOUSE_NO":"２號之１六樓之３","E_COORD97":171238,"N_COORD97":2545914.2999999998,"ADDRESS":"中華路５７８巷２號之１六樓之３","OBJECTID":430466},"geometry":{"x":171238.00000000093,"y":2545914.3000000007}},{"attributes":{"ID":430492,"DIS_CODE":0,"TOWNNAME":"永康區","LI":"五王里","LIN":"32鄰","STREET":"中華路","SECT":" ","MAREA":" ","LANE":"５７８巷","ALLEY":" ","HOUSE_NO":"２號四樓之７","E_COORD97":171284.95999999999,"N_COORD97":2545927.0499999998,"ADDRESS":"中華路５７８巷２號四樓之７","OBJECTID":430467},"geometry":{"x":171284.95999999996,"y":2545927.0500000026}},{"attributes":{"ID":430493,"DIS_CODE":0,"TOWNNAME":"永康區","LI":"五王里","LIN":"32鄰","STREET":"中華路","SECT":" ","MAREA":" ","LANE":"５７８巷","ALLEY":" ","HOUSE_NO":"２號三樓之１","E_COORD97":171284.88,"N_COORD97":2545927.0499999998,"ADDRESS":"中華路５７８巷２號三樓之１","OBJECTID":430468},"geometry":{"x":171284.87999999989,"y":2545927.0500000026}},{"attributes":{"ID":430494,"DIS_CODE":0,"TOWNNAME":"永康區","LI":"大橋里","LIN":"4鄰","STREET":"大橋一街","SECT":" ","MAREA":" ","LANE":"１０３巷","ALLEY":" ","HOUSE_NO":"２３８號五樓","E_COORD97":170747.01000000001,"N_COORD97":2546877.5099999998,"ADDRESS":"大橋一街１０３巷２３８號五樓","OBJECTID":430469},"geometry":{"x":170747.00999999978,"y":2546877.5099999998}},{"attributes":{"ID":430495,"DIS_CODE":0,"TOWNNAME":"永康區","LI":"三合里","LIN":"24鄰","STREET":"南工街","SECT":" ","MAREA":" ","LANE":"２６７巷","ALLEY":" ","HOUSE_NO":"６６號十樓之２","E_COORD97":171848.04000000001,"N_COORD97":2545837.79,"ADDRESS":"南工街２６７巷６６號十樓之２","OBJECTID":430470},"geometry":{"x":171848.04000000097,"y":2545837.7899999991}},{"attributes":{"ID":430496,"DIS_CODE":0,"TOWNNAME":"永康區","LI":"三合里","LIN":"24鄰","STREET":"南工街","SECT":" ","MAREA":" ","LANE":"２６７巷","ALLEY":" ","HOUSE_NO":"６６號七樓之２","E_COORD97":171848.04000000001,"N_COORD97":2545837.79,"ADDRESS":"南工街２６７巷６６號七樓之２","OBJECTID":430471},"geometry":{"x":171848.04000000097,"y":2545837.7899999991}},{"attributes":{"ID":430497,"DIS_CODE":0,"TOWNNAME":"永康區","LI":"三合里","LIN":"24鄰","STREET":"南工街","SECT":" ","MAREA":" ","LANE":"２６７巷","ALLEY":" ","HOUSE_NO":"５０號十一樓之６","E_COORD97":171845.56,"N_COORD97":2545845.04,"ADDRESS":"南工街２６７巷５０號十一樓之６","OBJECTID":430472},"geometry":{"x":171845.56000000052,"y":2545845.040000001}},{"attributes":{"ID":430498,"DIS_CODE":0,"TOWNNAME":"永康區","LI":"三合里","LIN":"24鄰","STREET":"南工街","SECT":" ","MAREA":" ","LANE":"２６７巷","ALLEY":" ","HOUSE_NO":"６６號三樓之６","E_COORD97":171848.01000000001,"N_COORD97":2545837.79,"ADDRESS":"南工街２６７巷６６號三樓之６","OBJECTID":430473},"geometry":{"x":171848.01000000071,"y":2545837.7899999991}},{"attributes":{"ID":430499,"DIS_CODE":0,"TOWNNAME":"永康區","LI":"勝利里","LIN":"20鄰","STREET":"勝學路","SECT":" ","MAREA":" ","LANE":"２６９巷","ALLEY":" ","HOUSE_NO":"６號六樓之５","E_COORD97":171164.44,"N_COORD97":2545316.29,"ADDRESS":"勝學路２６９巷６號六樓之５","OBJECTID":430474},"geometry":{"x":171164.44000000134,"y":2545316.2899999972}},{"attributes":{"ID":430500,"DIS_CODE":0,"TOWNNAME":"永康區","LI":"三合里","LIN":"24鄰","STREET":"南工街","SECT":" ","MAREA":" ","LANE":"２６７巷","ALLEY":" ","HOUSE_NO":"４６號五樓之３","E_COORD97":171855.34,"N_COORD97":2545843.79,"ADDRESS":"南工街２６７巷４６號五樓之３","OBJECTID":430475},"geometry":{"x":171855.33999999985,"y":2545843.7899999991}},{"attributes":{"ID":430501,"DIS_CODE":0,"TOWNNAME":"永康區","LI":"三合里","LIN":"24鄰","STREET":"南工街","SECT":" ","MAREA":" ","LANE":"２６７巷","ALLEY":" ","HOUSE_NO":"５０號八樓之６","E_COORD97":171844.31,"N_COORD97":2545845.04,"ADDRESS":"南工街２６７巷５０號八樓之６","OBJECTID":430476},"geometry":{"x":171844.31000000052,"y":2545845.040000001}},{"attributes":{"ID":430502,"DIS_CODE":0,"TOWNNAME":"永康區","LI":"勝利里","LIN":"34鄰","STREET":"勝利街","SECT":" ","MAREA":" ","LANE":"１巷","ALLEY":" ","HOUSE_NO":"４７號十四樓之１","E_COORD97":170990.51999999999,"N_COORD97":2544676.5499999998,"ADDRESS":"勝利街１巷４７號十四樓之１","OBJECTID":430477},"geometry":{"x":170990.51999999955,"y":2544676.5500000026}},{"attributes":{"ID":430503,"DIS_CODE":0,"TOWNNAME":"永康區","LI":"勝利里","LIN":"34鄰","STREET":"勝利街","SECT":" ","MAREA":" ","LANE":"１巷","ALLEY":" ","HOUSE_NO":"４７號七樓之２","E_COORD97":170989.41,"N_COORD97":2544676.5499999998,"ADDRESS":"勝利街１巷４７號七樓之２","OBJECTID":430478},"geometry":{"x":170989.41000000108,"y":2544676.5500000026}},{"attributes":{"ID":430504,"DIS_CODE":0,"TOWNNAME":"永康區","LI":"勝利里","LIN":"34鄰","STREET":"勝利街","SECT":" ","MAREA":" ","LANE":"１巷","ALLEY":" ","HOUSE_NO":"４５號十一樓之１","E_COORD97":170975.5,"N_COORD97":2544680.54,"ADDRESS":"勝利街１巷４５號十一樓之１","OBJECTID":430479},"geometry":{"x":170975.50000000093,"y":2544680.5399999972}},{"attributes":{"ID":430505,"DIS_CODE":0,"TOWNNAME":"永康區","LI":"復華里","LIN":"17鄰","STREET":"國華街","SECT":" ","MAREA":" ","LANE":"１０２巷","ALLEY":" ","HOUSE_NO":"６３號四樓之３","E_COORD97":172874.54000000001,"N_COORD97":2546145.02,"ADDRESS":"國華街１０２巷６３號四樓之３","OBJECTID":430480},"geometry":{"x":172874.54000000004,"y":2546145.0199999996}},{"attributes":{"ID":430506,"DIS_CODE":0,"TOWNNAME":"永康區","LI":"勝利里","LIN":"34鄰","STREET":"勝利街","SECT":" ","MAREA":" ","LANE":"１巷","ALLEY":" ","HOUSE_NO":"４６號九樓之２","E_COORD97":170989.41,"N_COORD97":2544676.5499999998,"ADDRESS":"勝利街１巷４６號九樓之２","OBJECTID":430481},"geometry":{"x":170989.41000000108,"y":2544676.5500000026}},{"attributes":{"ID":430507,"DIS_CODE":0,"TOWNNAME":"永康區","LI":"勝利里","LIN":"34鄰","STREET":"勝利街","SECT":" ","MAREA":" ","LANE":"１巷","ALLEY":" ","HOUSE_NO":"４７號七樓之１","E_COORD97":170989.26999999999,"N_COORD97":2544676.5499999998,"ADDRESS":"勝利街１巷４７號七樓之１","OBJECTID":430482},"geometry":{"x":170989.26999999955,"y":2544676.5500000026}},{"attributes":{"ID":430508,"DIS_CODE":0,"TOWNNAME":"仁德區","LI":"太子里","LIN":"4鄰","STREET":"太子路","SECT":" ","MAREA":" ","LANE":"１９０巷","ALLEY":" ","HOUSE_NO":"３１號一樓","E_COORD97":174310.39000000001,"N_COORD97":2543626.48,"ADDRESS":"太子路１９０巷３１號一樓","OBJECTID":430483},"geometry":{"x":174310.3900000006,"y":2543626.4800000023}},{"attributes":{"ID":430509,"DIS_CODE":0,"TOWNNAME":"仁德區","LI":"太子里","LIN":"4鄰","STREET":"太子路","SECT":" ","MAREA":" ","LANE":"１９０巷","ALLEY":" ","HOUSE_NO":"３６號四樓","E_COORD97":174325.73999999999,"N_COORD97":2543684,"ADDRESS":"太子路１９０巷３６號四樓","OBJECTID":430484},"geometry":{"x":174325.74000000022,"y":2543684}},{"attributes":{"ID":430510,"DIS_CODE":0,"TOWNNAME":"仁德區","LI":"太子里","LIN":"4鄰","STREET":"太子路","SECT":" ","MAREA":" ","LANE":"１９０巷","ALLEY":" ","HOUSE_NO":"３７號三樓","E_COORD97":174308.04999999999,"N_COORD97":2543662.7200000002,"ADDRESS":"太子路１９０巷３７號三樓","OBJECTID":430485},"geometry":{"x":174308.04999999981,"y":2543662.7200000007}},{"attributes":{"ID":430511,"DIS_CODE":0,"TOWNNAME":"仁德區","LI":"太子里","LIN":"4鄰","STREET":"太子路","SECT":" ","MAREA":" ","LANE":"１９０巷","ALLEY":" ","HOUSE_NO":"３４號四樓","E_COORD97":174325.70000000001,"N_COORD97":2543676.5,"ADDRESS":"太子路１９０巷３４號四樓","OBJECTID":430486},"geometry":{"x":174325.70000000112,"y":2543676.5000000019}},{"attributes":{"ID":430512,"DIS_CODE":0,"TOWNNAME":"仁德區","LI":"太子里","LIN":"4鄰","STREET":"太子路","SECT":" ","MAREA":" ","LANE":"１９０巷","ALLEY":" ","HOUSE_NO":"３０號二樓","E_COORD97":174347.01999999999,"N_COORD97":2543674.25,"ADDRESS":"太子路１９０巷３０號二樓","OBJECTID":430487},"geometry":{"x":174347.01999999955,"y":2543674.2500000019}},{"attributes":{"ID":430513,"DIS_CODE":0,"TOWNNAME":"仁德區","LI":"太子里","LIN":"4鄰","STREET":"太子路","SECT":" ","MAREA":" ","LANE":"１９０巷","ALLEY":" ","HOUSE_NO":"３０號五樓","E_COORD97":174347.01999999999,"N_COORD97":2543674.25,"ADDRESS":"太子路１９０巷３０號五樓","OBJECTID":430488},"geometry":{"x":174347.01999999955,"y":2543674.2500000019}},{"attributes":{"ID":430514,"DIS_CODE":0,"TOWNNAME":"仁德區","LI":"太子里","LIN":"4鄰","STREET":"太子路","SECT":" ","MAREA":" ","LANE":"１９０巷","ALLEY":" ","HOUSE_NO":"３６號二樓","E_COORD97":174325.73999999999,"N_COORD97":2543684,"ADDRESS":"太子路１９０巷３６號二樓","OBJECTID":430489},"geometry":{"x":174325.74000000022,"y":2543684}},{"attributes":{"ID":430515,"DIS_CODE":0,"TOWNNAME":"仁德區","LI":"太子里","LIN":"4鄰","STREET":"太子路","SECT":" ","MAREA":" ","LANE":"１９０巷","ALLEY":" ","HOUSE_NO":"３８號五樓","E_COORD97":174325.91,"N_COORD97":2543689.25,"ADDRESS":"太子路１９０巷３８號五樓","OBJECTID":430490},"geometry":{"x":174325.91000000108,"y":2543689.25}},{"attributes":{"ID":430516,"DIS_CODE":0,"TOWNNAME":"仁德區","LI":"太子里","LIN":"4鄰","STREET":"太子路","SECT":" ","MAREA":" ","LANE":"１９０巷","ALLEY":" ","HOUSE_NO":"２９號三樓","E_COORD97":174310.88,"N_COORD97":2543617.23,"ADDRESS":"太子路１９０巷２９號三樓","OBJECTID":430491},"geometry":{"x":174310.87999999989,"y":2543617.2300000023}},{"attributes":{"ID":430517,"DIS_CODE":0,"TOWNNAME":"仁德區","LI":"太子里","LIN":"4鄰","STREET":"太子路","SECT":" ","MAREA":" ","LANE":"１９０巷","ALLEY":" ","HOUSE_NO":"３０號三樓","E_COORD97":174347.01999999999,"N_COORD97":2543674.25,"ADDRESS":"太子路１９０巷３０號三樓","OBJECTID":430492},"geometry":{"x":174347.01999999955,"y":2543674.2500000019}},{"attributes":{"ID":430518,"DIS_CODE":0,"TOWNNAME":"仁德區","LI":"太子里","LIN":"4鄰","STREET":"太子路","SECT":" ","MAREA":" ","LANE":"１９０巷","ALLEY":" ","HOUSE_NO":"３４號一樓","E_COORD97":174325.70000000001,"N_COORD97":2543676.5,"ADDRESS":"太子路１９０巷３４號一樓","OBJECTID":430493},"geometry":{"x":174325.70000000112,"y":2543676.5000000019}},{"attributes":{"ID":430519,"DIS_CODE":0,"TOWNNAME":"仁德區","LI":"太子里","LIN":"4鄰","STREET":"太子路","SECT":" ","MAREA":" ","LANE":"１９０巷","ALLEY":" ","HOUSE_NO":"３８號一樓","E_COORD97":174325.91,"N_COORD97":2543689.25,"ADDRESS":"太子路１９０巷３８號一樓","OBJECTID":430494},"geometry":{"x":174325.91000000108,"y":2543689.25}},{"attributes":{"ID":430520,"DIS_CODE":0,"TOWNNAME":"仁德區","LI":"太子里","LIN":"4鄰","STREET":"太子路","SECT":" ","MAREA":" ","LANE":"１９０巷","ALLEY":" ","HOUSE_NO":"２９號四樓","E_COORD97":174310.88,"N_COORD97":2543617.23,"ADDRESS":"太子路１９０巷２９號四樓","OBJECTID":430495},"geometry":{"x":174310.87999999989,"y":2543617.2300000023}},{"attributes":{"ID":430521,"DIS_CODE":0,"TOWNNAME":"仁德區","LI":"太子里","LIN":"4鄰","STREET":"太子路","SECT":" ","MAREA":" ","LANE":"１９０巷","ALLEY":" ","HOUSE_NO":"３６號五樓","E_COORD97":174325.73999999999,"N_COORD97":2543684,"ADDRESS":"太子路１９０巷３６號五樓","OBJECTID":430496},"geometry":{"x":174325.74000000022,"y":2543684}},{"attributes":{"ID":430522,"DIS_CODE":0,"TOWNNAME":"仁德區","LI":"太子里","LIN":"4鄰","STREET":"太子路","SECT":" ","MAREA":" ","LANE":"１９０巷","ALLEY":" ","HOUSE_NO":"３０號一樓","E_COORD97":174347.01999999999,"N_COORD97":2543674.25,"ADDRESS":"太子路１９０巷３０號一樓","OBJECTID":430497},"geometry":{"x":174347.01999999955,"y":2543674.2500000019}},{"attributes":{"ID":430523,"DIS_CODE":0,"TOWNNAME":"仁德區","LI":"太子里","LIN":"4鄰","STREET":"太子路","SECT":" ","MAREA":" ","LANE":"１９０巷","ALLEY":" ","HOUSE_NO":"３２號一樓","E_COORD97":174346.62,"N_COORD97":2543682,"ADDRESS":"太子路１９０巷３２號一樓","OBJECTID":430498},"geometry":{"x":174346.62000000104,"y":2543682.0000000037}},{"attributes":{"ID":430524,"DIS_CODE":0,"TOWNNAME":"仁德區","LI":"太子里","LIN":"4鄰","STREET":"太子路","SECT":" ","MAREA":" ","LANE":"１９０巷","ALLEY":" ","HOUSE_NO":"３２號二樓","E_COORD97":174346.62,"N_COORD97":2543682,"ADDRESS":"太子路１９０巷３２號二樓","OBJECTID":430499},"geometry":{"x":174346.62000000104,"y":2543682.0000000037}},{"attributes":{"ID":430525,"DIS_CODE":0,"TOWNNAME":"仁德區","LI":"太子里","LIN":"4鄰","STREET":"太子路","SECT":" ","MAREA":" ","LANE":"１９０巷","ALLEY":" ","HOUSE_NO":"４２號三樓","E_COORD97":174350.29999999999,"N_COORD97":2543688.75,"ADDRESS":"太子路１９０巷４２號三樓","OBJECTID":430500},"geometry":{"x":174350.29999999981,"y":2543688.75}},{"attributes":{"ID":430526,"DIS_CODE":0,"TOWNNAME":"仁德區","LI":"太子里","LIN":"4鄰","STREET":"太子路","SECT":" ","MAREA":" ","LANE":"１９０巷","ALLEY":" ","HOUSE_NO":"３１號四樓","E_COORD97":174310.39000000001,"N_COORD97":2543626.48,"ADDRESS":"太子路１９０巷３１號四樓","OBJECTID":430501},"geometry":{"x":174310.3900000006,"y":2543626.4800000023}},{"attributes":{"ID":430527,"DIS_CODE":0,"TOWNNAME":"仁德區","LI":"太子里","LIN":"4鄰","STREET":"太子路","SECT":" ","MAREA":" ","LANE":"１９０巷","ALLEY":" ","HOUSE_NO":"２９號五樓","E_COORD97":174310.88,"N_COORD97":2543617.23,"ADDRESS":"太子路１９０巷２９號五樓","OBJECTID":430502},"geometry":{"x":174310.87999999989,"y":2543617.2300000023}},{"attributes":{"ID":430528,"DIS_CODE":0,"TOWNNAME":"仁德區","LI":"保安里","LIN":"12鄰","STREET":"永德路","SECT":" ","MAREA":" ","LANE":"１７巷","ALLEY":" ","HOUSE_NO":"４號二樓","E_COORD97":172306.29000000001,"N_COORD97":2535905.0099999998,"ADDRESS":"永德路１７巷４號二樓","OBJECTID":430503},"geometry":{"x":172306.29000000004,"y":2535905.0100000016}},{"attributes":{"ID":430529,"DIS_CODE":0,"TOWNNAME":"中西區","LI":"光賢里","LIN":"18鄰","STREET":"武聖路","SECT":" ","MAREA":" ","LANE":"１９７巷","ALLEY":" ","HOUSE_NO":"２０號四樓","E_COORD97":166740.32000000001,"N_COORD97":2545261.27,"ADDRESS":"武聖路１９７巷２０號四樓","OBJECTID":430504},"geometry":{"x":166740.32000000123,"y":2545261.2699999996}},{"attributes":{"ID":430530,"DIS_CODE":0,"TOWNNAME":"中西區","LI":"郡西里","LIN":"6鄰","STREET":"大智街","SECT":" ","MAREA":" ","LANE":"１１１巷","ALLEY":" ","HOUSE_NO":"５號二樓","E_COORD97":167298.87,"N_COORD97":2543351.6499999999,"ADDRESS":"大智街１１１巷５號二樓","OBJECTID":430505},"geometry":{"x":167298.87000000197,"y":2543351.6500000004}},{"attributes":{"ID":430531,"DIS_CODE":0,"TOWNNAME":"中西區","LI":"郡西里","LIN":"6鄰","STREET":"大智街","SECT":" ","MAREA":" ","LANE":"１１１巷","ALLEY":" ","HOUSE_NO":"５號三樓","E_COORD97":167298.87,"N_COORD97":2543351.6499999999,"ADDRESS":"大智街１１１巷５號三樓","OBJECTID":430506},"geometry":{"x":167298.87000000197,"y":2543351.6500000004}},{"attributes":{"ID":430532,"DIS_CODE":0,"TOWNNAME":"中西區","LI":"郡西里","LIN":"6鄰","STREET":"大智街","SECT":" ","MAREA":" ","LANE":"１１１巷","ALLEY":" ","HOUSE_NO":"５號四樓","E_COORD97":167298.87,"N_COORD97":2543351.6499999999,"ADDRESS":"大智街１１１巷５號四樓","OBJECTID":430507},"geometry":{"x":167298.87000000197,"y":2543351.6500000004}},{"attributes":{"ID":430533,"DIS_CODE":0,"TOWNNAME":"中西區","LI":"西湖里","LIN":"25鄰","STREET":"湖美街","SECT":" ","MAREA":" ","LANE":"７０巷","ALLEY":" ","HOUSE_NO":"６號九樓之６","E_COORD97":165947.67999999999,"N_COORD97":2544723.3599999999,"ADDRESS":"湖美街７０巷６號九樓之６","OBJECTID":430508},"geometry":{"x":165947.68000000063,"y":2544723.3600000013}},{"attributes":{"ID":430534,"DIS_CODE":0,"TOWNNAME":"中西區","LI":"藥王里","LIN":"1鄰","STREET":"金華路","SECT":"四段","MAREA":" ","LANE":"４７巷","ALLEY":" ","HOUSE_NO":"２０號二樓之１","E_COORD97":167398.25,"N_COORD97":2544308.5600000001,"ADDRESS":"金華路四段４７巷２０號二樓之１","OBJECTID":430509},"geometry":{"x":167398.25000000093,"y":2544308.5600000005}},{"attributes":{"ID":430535,"DIS_CODE":0,"TOWNNAME":"中西區","LI":"藥王里","LIN":"1鄰","STREET":"金華路","SECT":"四段","MAREA":" ","LANE":"４７巷","ALLEY":" ","HOUSE_NO":"２０號二樓之２","E_COORD97":167398.25,"N_COORD97":2544308.5600000001,"ADDRESS":"金華路四段４７巷２０號二樓之２","OBJECTID":430510},"geometry":{"x":167398.25000000093,"y":2544308.5600000005}},{"attributes":{"ID":430536,"DIS_CODE":0,"TOWNNAME":"中西區","LI":"開山里","LIN":"4鄰","STREET":"開山路","SECT":" ","MAREA":" ","LANE":"１２７巷","ALLEY":" ","HOUSE_NO":"４６號二樓之１","E_COORD97":168911.48999999999,"N_COORD97":2543146.7799999998,"ADDRESS":"開山路１２７巷４６號二樓之１","OBJECTID":430511},"geometry":{"x":168911.49000000022,"y":2543146.7799999975}},{"attributes":{"ID":430537,"DIS_CODE":0,"TOWNNAME":"中西區","LI":"開山里","LIN":"4鄰","STREET":"開山路","SECT":" ","MAREA":" ","LANE":"１２７巷","ALLEY":" ","HOUSE_NO":"４６號二樓之２","E_COORD97":168911.48999999999,"N_COORD97":2543146.7799999998,"ADDRESS":"開山路１２７巷４６號二樓之２","OBJECTID":430512},"geometry":{"x":168911.49000000022,"y":2543146.7799999975}},{"attributes":{"ID":430538,"DIS_CODE":0,"TOWNNAME":"中西區","LI":"開山里","LIN":"4鄰","STREET":"開山路","SECT":" ","MAREA":" ","LANE":"１２７巷","ALLEY":" ","HOUSE_NO":"４６號二樓之３","E_COORD97":168911.48999999999,"N_COORD97":2543146.7799999998,"ADDRESS":"開山路１２７巷４６號二樓之３","OBJECTID":430513},"geometry":{"x":168911.49000000022,"y":2543146.7799999975}},{"attributes":{"ID":430539,"DIS_CODE":0,"TOWNNAME":"中西區","LI":"開山里","LIN":"4鄰","STREET":"開山路","SECT":" ","MAREA":" ","LANE":"１２７巷","ALLEY":" ","HOUSE_NO":"４６號二樓之４","E_COORD97":168911.48999999999,"N_COORD97":2543146.7799999998,"ADDRESS":"開山路１２７巷４６號二樓之４","OBJECTID":430514},"geometry":{"x":168911.49000000022,"y":2543146.7799999975}},{"attributes":{"ID":430540,"DIS_CODE":0,"TOWNNAME":"中西區","LI":"開山里","LIN":"4鄰","STREET":"開山路","SECT":" ","MAREA":" ","LANE":"１２７巷","ALLEY":" ","HOUSE_NO":"４６號三樓之１","E_COORD97":168911.48999999999,"N_COORD97":2543146.7799999998,"ADDRESS":"開山路１２７巷４６號三樓之１","OBJECTID":430515},"geometry":{"x":168911.49000000022,"y":2543146.7799999975}},{"attributes":{"ID":430541,"DIS_CODE":0,"TOWNNAME":"中西區","LI":"開山里","LIN":"4鄰","STREET":"開山路","SECT":" ","MAREA":" ","LANE":"１２７巷","ALLEY":" ","HOUSE_NO":"４６號三樓之２","E_COORD97":168911.48999999999,"N_COORD97":2543146.7799999998,"ADDRESS":"開山路１２７巷４６號三樓之２","OBJECTID":430516},"geometry":{"x":168911.49000000022,"y":2543146.7799999975}},{"attributes":{"ID":430542,"DIS_CODE":0,"TOWNNAME":"中西區","LI":"開山里","LIN":"4鄰","STREET":"開山路","SECT":" ","MAREA":" ","LANE":"１２７巷","ALLEY":" ","HOUSE_NO":"４６號三樓之３","E_COORD97":168911.48999999999,"N_COORD97":2543146.7799999998,"ADDRESS":"開山路１２７巷４６號三樓之３","OBJECTID":430517},"geometry":{"x":168911.49000000022,"y":2543146.7799999975}},{"attributes":{"ID":430543,"DIS_CODE":0,"TOWNNAME":"中西區","LI":"開山里","LIN":"4鄰","STREET":"開山路","SECT":" ","MAREA":" ","LANE":"１２７巷","ALLEY":" ","HOUSE_NO":"４６號三樓之４","E_COORD97":168911.48999999999,"N_COORD97":2543146.7799999998,"ADDRESS":"開山路１２７巷４６號三樓之４","OBJECTID":430518},"geometry":{"x":168911.49000000022,"y":2543146.7799999975}},{"attributes":{"ID":430544,"DIS_CODE":0,"TOWNNAME":"中西區","LI":"開山里","LIN":"4鄰","STREET":"開山路","SECT":" ","MAREA":" ","LANE":"１２７巷","ALLEY":" ","HOUSE_NO":"４６號五樓之１","E_COORD97":168911.48999999999,"N_COORD97":2543146.7799999998,"ADDRESS":"開山路１２７巷４６號五樓之１","OBJECTID":430519},"geometry":{"x":168911.49000000022,"y":2543146.7799999975}},{"attributes":{"ID":430545,"DIS_CODE":0,"TOWNNAME":"中西區","LI":"開山里","LIN":"4鄰","STREET":"開山路","SECT":" ","MAREA":" ","LANE":"１２７巷","ALLEY":" ","HOUSE_NO":"４６號五樓之２","E_COORD97":168911.48999999999,"N_COORD97":2543146.7799999998,"ADDRESS":"開山路１２７巷４６號五樓之２","OBJECTID":430520},"geometry":{"x":168911.49000000022,"y":2543146.7799999975}},{"attributes":{"ID":430546,"DIS_CODE":0,"TOWNNAME":"中西區","LI":"開山里","LIN":"4鄰","STREET":"開山路","SECT":" ","MAREA":" ","LANE":"１２７巷","ALLEY":" ","HOUSE_NO":"４６號五樓之３","E_COORD97":168911.48999999999,"N_COORD97":2543146.7799999998,"ADDRESS":"開山路１２７巷４６號五樓之３","OBJECTID":430521},"geometry":{"x":168911.49000000022,"y":2543146.7799999975}},{"attributes":{"ID":430547,"DIS_CODE":0,"TOWNNAME":"中西區","LI":"開山里","LIN":"4鄰","STREET":"開山路","SECT":" ","MAREA":" ","LANE":"１２７巷","ALLEY":" ","HOUSE_NO":"４６號五樓之４","E_COORD97":168911.48999999999,"N_COORD97":2543146.7799999998,"ADDRESS":"開山路１２７巷４６號五樓之４","OBJECTID":430522},"geometry":{"x":168911.49000000022,"y":2543146.7799999975}},{"attributes":{"ID":430548,"DIS_CODE":0,"TOWNNAME":"中西區","LI":"開山里","LIN":"4鄰","STREET":"開山路","SECT":" ","MAREA":" ","LANE":"１２７巷","ALLEY":" ","HOUSE_NO":"４６號四樓之１","E_COORD97":168911.48999999999,"N_COORD97":2543146.7799999998,"ADDRESS":"開山路１２７巷４６號四樓之１","OBJECTID":430523},"geometry":{"x":168911.49000000022,"y":2543146.7799999975}},{"attributes":{"ID":430549,"DIS_CODE":0,"TOWNNAME":"中西區","LI":"開山里","LIN":"4鄰","STREET":"開山路","SECT":" ","MAREA":" ","LANE":"１２７巷","ALLEY":" ","HOUSE_NO":"４６號四樓之２","E_COORD97":168911.48999999999,"N_COORD97":2543146.7799999998,"ADDRESS":"開山路１２７巷４６號四樓之２","OBJECTID":430524},"geometry":{"x":168911.49000000022,"y":2543146.7799999975}},{"attributes":{"ID":430550,"DIS_CODE":0,"TOWNNAME":"中西區","LI":"開山里","LIN":"4鄰","STREET":"開山路","SECT":" ","MAREA":" ","LANE":"１２７巷","ALLEY":" ","HOUSE_NO":"４６號四樓之３","E_COORD97":168911.48999999999,"N_COORD97":2543146.7799999998,"ADDRESS":"開山路１２７巷４６號四樓之３","OBJECTID":430525},"geometry":{"x":168911.49000000022,"y":2543146.7799999975}},{"attributes":{"ID":430551,"DIS_CODE":0,"TOWNNAME":"安南區","LI":"布袋里","LIN":"1鄰","STREET":"工明南一路","SECT":" ","MAREA":" ","LANE":" ","ALLEY":" ","HOUSE_NO":"７０號","E_COORD97":168724.54000000001,"N_COORD97":2551146.9199999999,"ADDRESS":"工明南一路７０號","OBJECTID":430526},"geometry":{"x":168724.54000000004,"y":2551146.9199999999}},{"attributes":{"ID":430552,"DIS_CODE":0,"TOWNNAME":"中西區","LI":"開山里","LIN":"4鄰","STREET":"開山路","SECT":" ","MAREA":" ","LANE":"１２７巷","ALLEY":" ","HOUSE_NO":"４６號四樓之４","E_COORD97":168911.48999999999,"N_COORD97":2543146.7799999998,"ADDRESS":"開山路１２７巷４６號四樓之４","OBJECTID":430527},"geometry":{"x":168911.49000000022,"y":2543146.7799999975}},{"attributes":{"ID":430553,"DIS_CODE":0,"TOWNNAME":"中西區","LI":"開山里","LIN":"19鄰","STREET":"開山路","SECT":" ","MAREA":" ","LANE":"２３５巷","ALLEY":" ","HOUSE_NO":"１２號二樓之１","E_COORD97":169031.16,"N_COORD97":2543009.54,"ADDRESS":"開山路２３５巷１２號二樓之１","OBJECTID":430528},"geometry":{"x":169031.16000000201,"y":2543009.5400000028}},{"attributes":{"ID":430554,"DIS_CODE":0,"TOWNNAME":"中西區","LI":"開山里","LIN":"19鄰","STREET":"開山路","SECT":" ","MAREA":" ","LANE":"２３５巷","ALLEY":" ","HOUSE_NO":"１２號二樓之２","E_COORD97":169031.16,"N_COORD97":2543009.54,"ADDRESS":"開山路２３５巷１２號二樓之２","OBJECTID":430529},"geometry":{"x":169031.16000000201,"y":2543009.5400000028}},{"attributes":{"ID":430555,"DIS_CODE":0,"TOWNNAME":"中西區","LI":"開山里","LIN":"19鄰","STREET":"開山路","SECT":" ","MAREA":" ","LANE":"２３５巷","ALLEY":" ","HOUSE_NO":"１２號二樓之３","E_COORD97":169031.16,"N_COORD97":2543009.54,"ADDRESS":"開山路２３５巷１２號二樓之３","OBJECTID":430530},"geometry":{"x":169031.16000000201,"y":2543009.5400000028}},{"attributes":{"ID":430556,"DIS_CODE":0,"TOWNNAME":"中西區","LI":"開山里","LIN":"19鄰","STREET":"開山路","SECT":" ","MAREA":" ","LANE":"２３５巷","ALLEY":" ","HOUSE_NO":"１２號二樓之４","E_COORD97":169031.16,"N_COORD97":2543009.54,"ADDRESS":"開山路２３５巷１２號二樓之４","OBJECTID":430531},"geometry":{"x":169031.16000000201,"y":2543009.5400000028}},{"attributes":{"ID":430557,"DIS_CODE":0,"TOWNNAME":"中西區","LI":"開山里","LIN":"19鄰","STREET":"開山路","SECT":" ","MAREA":" ","LANE":"２３５巷","ALLEY":" ","HOUSE_NO":"１２號二樓之５","E_COORD97":169031.16,"N_COORD97":2543009.54,"ADDRESS":"開山路２３５巷１２號二樓之５","OBJECTID":430532},"geometry":{"x":169031.16000000201,"y":2543009.5400000028}},{"attributes":{"ID":430558,"DIS_CODE":0,"TOWNNAME":"中西區","LI":"開山里","LIN":"19鄰","STREET":"開山路","SECT":" ","MAREA":" ","LANE":"２３５巷","ALLEY":" ","HOUSE_NO":"１２號二樓之６","E_COORD97":169031.16,"N_COORD97":2543009.54,"ADDRESS":"開山路２３５巷１２號二樓之６","OBJECTID":430533},"geometry":{"x":169031.16000000201,"y":2543009.5400000028}},{"attributes":{"ID":430559,"DIS_CODE":0,"TOWNNAME":"中西區","LI":"開山里","LIN":"16鄰","STREET":"大同路","SECT":"一段","MAREA":" ","LANE":"７０巷","ALLEY":" ","HOUSE_NO":"１０號二樓","E_COORD97":169086.73000000001,"N_COORD97":2543057.7200000002,"ADDRESS":"大同路一段７０巷１０號二樓","OBJECTID":430534},"geometry":{"x":169086.73000000045,"y":2543057.7200000025}},{"attributes":{"ID":430560,"DIS_CODE":0,"TOWNNAME":"東區","LI":"裕農里","LIN":"14鄰","STREET":"裕豐街","SECT":" ","MAREA":" ","LANE":"２１４巷","ALLEY":" ","HOUSE_NO":"１號之１二樓","E_COORD97":170810.81,"N_COORD97":2543176.48,"ADDRESS":"裕豐街２１４巷１號之１二樓","OBJECTID":430535},"geometry":{"x":170810.80999999959,"y":2543176.4800000004}},{"attributes":{"ID":430561,"DIS_CODE":0,"TOWNNAME":"東區","LI":"裕農里","LIN":"14鄰","STREET":"裕豐街","SECT":" ","MAREA":" ","LANE":"２１４巷","ALLEY":" ","HOUSE_NO":"１號之１二樓之１","E_COORD97":170810.81,"N_COORD97":2543176.48,"ADDRESS":"裕豐街２１４巷１號之１二樓之１","OBJECTID":430536},"geometry":{"x":170810.80999999959,"y":2543176.4800000004}},{"attributes":{"ID":430562,"DIS_CODE":0,"TOWNNAME":"東區","LI":"裕農里","LIN":"14鄰","STREET":"裕豐街","SECT":" ","MAREA":" ","LANE":"２１４巷","ALLEY":" ","HOUSE_NO":"１號三樓","E_COORD97":170810.28,"N_COORD97":2543174.1299999999,"ADDRESS":"裕豐街２１４巷１號三樓","OBJECTID":430537},"geometry":{"x":170810.27999999933,"y":2543174.129999999}},{"attributes":{"ID":430563,"DIS_CODE":0,"TOWNNAME":"東區","LI":"裕農里","LIN":"14鄰","STREET":"裕豐街","SECT":" ","MAREA":" ","LANE":"２１４巷","ALLEY":" ","HOUSE_NO":"１號三樓之１","E_COORD97":170802.69,"N_COORD97":2543174.6499999999,"ADDRESS":"裕豐街２１４巷１號三樓之１","OBJECTID":430538},"geometry":{"x":170802.69000000227,"y":2543174.6500000004}},{"attributes":{"ID":430564,"DIS_CODE":0,"TOWNNAME":"東區","LI":"大德里","LIN":"15鄰","STREET":"立德十一路","SECT":" ","MAREA":" ","LANE":"２９巷","ALLEY":" ","HOUSE_NO":"１號二樓","E_COORD97":169432.95000000001,"N_COORD97":2542113.0099999998,"ADDRESS":"立德十一路２９巷１號二樓","OBJECTID":430539},"geometry":{"x":169432.95000000112,"y":2542113.0100000016}},{"attributes":{"ID":430565,"DIS_CODE":0,"TOWNNAME":"東區","LI":"莊敬里","LIN":"13鄰","STREET":"東光路","SECT":"二段","MAREA":" ","LANE":"５８巷","ALLEY":" ","HOUSE_NO":"１４號三樓","E_COORD97":171274.41,"N_COORD97":2544097.4700000002,"ADDRESS":"東光路二段５８巷１４號三樓","OBJECTID":430540},"geometry":{"x":171274.41000000108,"y":2544097.4700000025}},{"attributes":{"ID":430566,"DIS_CODE":0,"TOWNNAME":"東區","LI":"莊敬里","LIN":"13鄰","STREET":"東光路","SECT":"二段","MAREA":" ","LANE":"５８巷","ALLEY":" ","HOUSE_NO":"１４號二樓","E_COORD97":171274.41,"N_COORD97":2544097.4700000002,"ADDRESS":"東光路二段５８巷１４號二樓","OBJECTID":430541},"geometry":{"x":171274.41000000108,"y":2544097.4700000025}},{"attributes":{"ID":430567,"DIS_CODE":0,"TOWNNAME":"永康區","LI":"二王里","LIN":"41鄰","STREET":"中山南路","SECT":" ","MAREA":" ","LANE":"３１６巷","ALLEY":" ","HOUSE_NO":"２４號二樓之１","E_COORD97":172007.72,"N_COORD97":2546155.2799999998,"ADDRESS":"中山南路３１６巷２４號二樓之１","OBJECTID":430542},"geometry":{"x":172007.72000000067,"y":2546155.2800000012}},{"attributes":{"ID":430568,"DIS_CODE":0,"TOWNNAME":"永康區","LI":"五王里","LIN":"41鄰","STREET":"中山南路","SECT":" ","MAREA":" ","LANE":"２６２巷","ALLEY":" ","HOUSE_NO":"２號十三樓之１３","E_COORD97":171551.79999999999,"N_COORD97":2546054.6200000001,"ADDRESS":"中山南路２６２巷２號十三樓之１３","OBJECTID":430543},"geometry":{"x":171551.79999999981,"y":2546054.620000001}},{"attributes":{"ID":430569,"DIS_CODE":0,"TOWNNAME":"永康區","LI":"三合里","LIN":"24鄰","STREET":"南工街","SECT":" ","MAREA":" ","LANE":"２６７巷","ALLEY":" ","HOUSE_NO":"６６號三樓之２","E_COORD97":171848.04000000001,"N_COORD97":2545837.79,"ADDRESS":"南工街２６７巷６６號三樓之２","OBJECTID":430544},"geometry":{"x":171848.04000000097,"y":2545837.7899999991}},{"attributes":{"ID":430570,"DIS_CODE":0,"TOWNNAME":"永康區","LI":"三合里","LIN":"24鄰","STREET":"南工街","SECT":" ","MAREA":" ","LANE":"３１１巷","ALLEY":" ","HOUSE_NO":"７９號九樓之２","E_COORD97":171800.26000000001,"N_COORD97":2545806.7999999998,"ADDRESS":"南工街３１１巷７９號九樓之２","OBJECTID":430545},"geometry":{"x":171800.26000000071,"y":2545806.8000000026}},{"attributes":{"ID":430571,"DIS_CODE":0,"TOWNNAME":"永康區","LI":"三合里","LIN":"24鄰","STREET":"南工街","SECT":" ","MAREA":" ","LANE":"２６７巷","ALLEY":" ","HOUSE_NO":"５０號七樓之６","E_COORD97":171844.31,"N_COORD97":2545845.04,"ADDRESS":"南工街２６７巷５０號七樓之６","OBJECTID":430546},"geometry":{"x":171844.31000000052,"y":2545845.040000001}},{"attributes":{"ID":430572,"DIS_CODE":0,"TOWNNAME":"永康區","LI":"三合里","LIN":"24鄰","STREET":"南工街","SECT":" ","MAREA":" ","LANE":"２６７巷","ALLEY":" ","HOUSE_NO":"４６號十樓之１","E_COORD97":171855.23999999999,"N_COORD97":2545843.79,"ADDRESS":"南工街２６７巷４６號十樓之１","OBJECTID":430547},"geometry":{"x":171855.24000000115,"y":2545843.7899999991}},{"attributes":{"ID":430573,"DIS_CODE":0,"TOWNNAME":"永康區","LI":"三合里","LIN":"24鄰","STREET":"南工街","SECT":" ","MAREA":" ","LANE":"２６７巷","ALLEY":" ","HOUSE_NO":"４６號七樓之６","E_COORD97":171855.35000000001,"N_COORD97":2545843.79,"ADDRESS":"南工街２６７巷４６號七樓之６","OBJECTID":430548},"geometry":{"x":171855.35000000056,"y":2545843.7899999991}},{"attributes":{"ID":430574,"DIS_CODE":0,"TOWNNAME":"永康區","LI":"三合里","LIN":"24鄰","STREET":"南工街","SECT":" ","MAREA":" ","LANE":"２６７巷","ALLEY":" ","HOUSE_NO":"４６號五樓之６","E_COORD97":171855.35000000001,"N_COORD97":2545843.79,"ADDRESS":"南工街２６７巷４６號五樓之６","OBJECTID":430549},"geometry":{"x":171855.35000000056,"y":2545843.7899999991}},{"attributes":{"ID":430575,"DIS_CODE":0,"TOWNNAME":"永康區","LI":"三合里","LIN":"24鄰","STREET":"南工街","SECT":" ","MAREA":" ","LANE":"２６７巷","ALLEY":" ","HOUSE_NO":"６６號五樓之１","E_COORD97":171847.89999999999,"N_COORD97":2545837.79,"ADDRESS":"南工街２６７巷６６號五樓之１","OBJECTID":430550},"geometry":{"x":171847.9000000013,"y":2545837.7899999991}},{"attributes":{"ID":430576,"DIS_CODE":0,"TOWNNAME":"永康區","LI":"三合里","LIN":"24鄰","STREET":"南工街","SECT":" ","MAREA":" ","LANE":"２６７巷","ALLEY":" ","HOUSE_NO":"５０號七樓之２","E_COORD97":171844.34,"N_COORD97":2545845.04,"ADDRESS":"南工街２６７巷５０號七樓之２","OBJECTID":430551},"geometry":{"x":171844.34000000078,"y":2545845.040000001}},{"attributes":{"ID":430577,"DIS_CODE":0,"TOWNNAME":"永康區","LI":"三合里","LIN":"24鄰","STREET":"南工街","SECT":" ","MAREA":" ","LANE":"２６７巷","ALLEY":" ","HOUSE_NO":"５０號八樓之３","E_COORD97":171844.29999999999,"N_COORD97":2545845.04,"ADDRESS":"南工街２６７巷５０號八樓之３","OBJECTID":430552},"geometry":{"x":171844.30000000075,"y":2545845.040000001}},{"attributes":{"ID":430578,"DIS_CODE":0,"TOWNNAME":"永康區","LI":"五王里","LIN":"41鄰","STREET":"中山南路","SECT":" ","MAREA":" ","LANE":"２６２巷","ALLEY":" ","HOUSE_NO":"２號十二樓之２","E_COORD97":171550.57999999999,"N_COORD97":2546054.6200000001,"ADDRESS":"中山南路２６２巷２號十二樓之２","OBJECTID":430553},"geometry":{"x":171550.57999999914,"y":2546054.620000001}},{"attributes":{"ID":430579,"DIS_CODE":0,"TOWNNAME":"永康區","LI":"三合里","LIN":"24鄰","STREET":"南工街","SECT":" ","MAREA":" ","LANE":"３１１巷","ALLEY":" ","HOUSE_NO":"７９號十一樓之１","E_COORD97":171801.37,"N_COORD97":2545806.7999999998,"ADDRESS":"南工街３１１巷７９號十一樓之１","OBJECTID":430554},"geometry":{"x":171801.37000000197,"y":2545806.8000000026}},{"attributes":{"ID":430580,"DIS_CODE":0,"TOWNNAME":"永康區","LI":"三合里","LIN":"24鄰","STREET":"南工街","SECT":" ","MAREA":" ","LANE":"２６７巷","ALLEY":" ","HOUSE_NO":"５０號六樓之１","E_COORD97":171844.20000000001,"N_COORD97":2545845.04,"ADDRESS":"南工街２６７巷５０號六樓之１","OBJECTID":430555},"geometry":{"x":171844.20000000019,"y":2545845.040000001}},{"attributes":{"ID":430581,"DIS_CODE":0,"TOWNNAME":"永康區","LI":"三合里","LIN":"24鄰","STREET":"南工街","SECT":" ","MAREA":" ","LANE":"３１１巷","ALLEY":" ","HOUSE_NO":"７９號三樓之２","E_COORD97":171800.26000000001,"N_COORD97":2545806.7999999998,"ADDRESS":"南工街３１１巷７９號三樓之２","OBJECTID":430556},"geometry":{"x":171800.26000000071,"y":2545806.8000000026}},{"attributes":{"ID":430582,"DIS_CODE":0,"TOWNNAME":"永康區","LI":"三合里","LIN":"24鄰","STREET":"南工街","SECT":" ","MAREA":" ","LANE":"３１１巷","ALLEY":" ","HOUSE_NO":"７９號九樓之３","E_COORD97":171800.22,"N_COORD97":2545806.7999999998,"ADDRESS":"南工街３１１巷７９號九樓之３","OBJECTID":430557},"geometry":{"x":171800.2200000016,"y":2545806.8000000026}},{"attributes":{"ID":430583,"DIS_CODE":0,"TOWNNAME":"永康區","LI":"三合里","LIN":"24鄰","STREET":"南工街","SECT":" ","MAREA":" ","LANE":"２６７巷","ALLEY":" ","HOUSE_NO":"４６號七樓之１","E_COORD97":171855.23999999999,"N_COORD97":2545843.79,"ADDRESS":"南工街２６７巷４６號七樓之１","OBJECTID":430558},"geometry":{"x":171855.24000000115,"y":2545843.7899999991}},{"attributes":{"ID":430584,"DIS_CODE":0,"TOWNNAME":"永康區","LI":"三合里","LIN":"24鄰","STREET":"南工街","SECT":" ","MAREA":" ","LANE":"２６７巷","ALLEY":" ","HOUSE_NO":"４６號六樓之１","E_COORD97":171855.23999999999,"N_COORD97":2545843.79,"ADDRESS":"南工街２６７巷４６號六樓之１","OBJECTID":430559},"geometry":{"x":171855.24000000115,"y":2545843.7899999991}},{"attributes":{"ID":430585,"DIS_CODE":0,"TOWNNAME":"永康區","LI":"三合里","LIN":"24鄰","STREET":"南工街","SECT":" ","MAREA":" ","LANE":"２６７巷","ALLEY":" ","HOUSE_NO":"６６號六樓之１","E_COORD97":171847.89999999999,"N_COORD97":2545837.79,"ADDRESS":"南工街２６７巷６６號六樓之１","OBJECTID":430560},"geometry":{"x":171847.9000000013,"y":2545837.7899999991}},{"attributes":{"ID":430586,"DIS_CODE":0,"TOWNNAME":"永康區","LI":"五王里","LIN":"4鄰","STREET":"中華二路","SECT":" ","MAREA":" ","LANE":"２０６巷","ALLEY":" ","HOUSE_NO":"３８號五樓之２","E_COORD97":171620.59,"N_COORD97":2545583.1800000002,"ADDRESS":"中華二路２０６巷３８號五樓之２","OBJECTID":430561},"geometry":{"x":171620.59000000078,"y":2545583.1800000016}},{"attributes":{"ID":430587,"DIS_CODE":0,"TOWNNAME":"永康區","LI":"中興里","LIN":"25鄰","STREET":"中華路","SECT":" ","MAREA":" ","LANE":"２１６巷","ALLEY":" ","HOUSE_NO":"３號之３六樓","E_COORD97":171728.19,"N_COORD97":2545151.04,"ADDRESS":"中華路２１６巷３號之３六樓","OBJECTID":430562},"geometry":{"x":171728.18999999948,"y":2545151.0399999991}},{"attributes":{"ID":430588,"DIS_CODE":0,"TOWNNAME":"永康區","LI":"中興里","LIN":"25鄰","STREET":"中華路","SECT":" ","MAREA":" ","LANE":"２１６巷","ALLEY":" ","HOUSE_NO":"３號之３七樓","E_COORD97":171728.19,"N_COORD97":2545151.04,"ADDRESS":"中華路２１６巷３號之３七樓","OBJECTID":430563},"geometry":{"x":171728.18999999948,"y":2545151.0399999991}},{"attributes":{"ID":430589,"DIS_CODE":0,"TOWNNAME":"永康區","LI":"五王里","LIN":"32鄰","STREET":"中華路","SECT":" ","MAREA":" ","LANE":"５７８巷","ALLEY":" ","HOUSE_NO":"２號之１五樓之３","E_COORD97":171238,"N_COORD97":2545914.2999999998,"ADDRESS":"中華路５７８巷２號之１五樓之３","OBJECTID":430564},"geometry":{"x":171238.00000000093,"y":2545914.3000000007}},{"attributes":{"ID":430590,"DIS_CODE":0,"TOWNNAME":"永康區","LI":"五王里","LIN":"41鄰","STREET":"中山南路","SECT":" ","MAREA":" ","LANE":"２６２巷","ALLEY":" ","HOUSE_NO":"６號五樓之２","E_COORD97":171560.39000000001,"N_COORD97":2546015.2000000002,"ADDRESS":"中山南路２６２巷６號五樓之２","OBJECTID":430565},"geometry":{"x":171560.3900000006,"y":2546015.1999999993}},{"attributes":{"ID":430591,"DIS_CODE":0,"TOWNNAME":"永康區","LI":"五王里","LIN":"4鄰","STREET":"中華二路","SECT":" ","MAREA":" ","LANE":"２０６巷","ALLEY":" ","HOUSE_NO":"４６號三樓之３","E_COORD97":171617.10000000001,"N_COORD97":2545597.6800000002,"ADDRESS":"中華二路２０６巷４６號三樓之３","OBJECTID":430566},"geometry":{"x":171617.09999999963,"y":2545597.6799999997}},{"attributes":{"ID":430592,"DIS_CODE":0,"TOWNNAME":"永康區","LI":"中興里","LIN":"25鄰","STREET":"中華路","SECT":" ","MAREA":" ","LANE":"２１６巷","ALLEY":" ","HOUSE_NO":"３號之２六樓","E_COORD97":171724.41,"N_COORD97":2545150.79,"ADDRESS":"中華路２１６巷３號之２六樓","OBJECTID":430567},"geometry":{"x":171724.41000000015,"y":2545150.790000001}},{"attributes":{"ID":430593,"DIS_CODE":0,"TOWNNAME":"永康區","LI":"五王里","LIN":"32鄰","STREET":"中華路","SECT":" ","MAREA":" ","LANE":"５７８巷","ALLEY":" ","HOUSE_NO":"２號之２五樓之７","E_COORD97":171242.66,"N_COORD97":2545916.0499999998,"ADDRESS":"中華路５７８巷２號之２五樓之７","OBJECTID":430568},"geometry":{"x":171242.66000000015,"y":2545916.0500000007}},{"attributes":{"ID":430594,"DIS_CODE":0,"TOWNNAME":"永康區","LI":"五王里","LIN":"32鄰","STREET":"中華路","SECT":" ","MAREA":" ","LANE":"５７８巷","ALLEY":" ","HOUSE_NO":"２號之２七樓之７","E_COORD97":171242.66,"N_COORD97":2545916.0499999998,"ADDRESS":"中華路５７８巷２號之２七樓之７","OBJECTID":430569},"geometry":{"x":171242.66000000015,"y":2545916.0500000007}},{"attributes":{"ID":430595,"DIS_CODE":0,"TOWNNAME":"永康區","LI":"五王里","LIN":"4鄰","STREET":"中華二路","SECT":" ","MAREA":" ","LANE":"２０６巷","ALLEY":" ","HOUSE_NO":"３８號三樓之２","E_COORD97":171620.59,"N_COORD97":2545583.1800000002,"ADDRESS":"中華二路２０６巷３８號三樓之２","OBJECTID":430570},"geometry":{"x":171620.59000000078,"y":2545583.1800000016}},{"attributes":{"ID":430596,"DIS_CODE":0,"TOWNNAME":"永康區","LI":"五王里","LIN":"18鄰","STREET":"成功路","SECT":" ","MAREA":" ","LANE":"１８８巷","ALLEY":" ","HOUSE_NO":"２號六樓之５","E_COORD97":171441.01999999999,"N_COORD97":2545664.04,"ADDRESS":"成功路１８８巷２號六樓之５","OBJECTID":430571},"geometry":{"x":171441.02000000048,"y":2545664.0400000028}},{"attributes":{"ID":430597,"DIS_CODE":0,"TOWNNAME":"永康區","LI":"五王里","LIN":"18鄰","STREET":"成功路","SECT":" ","MAREA":" ","LANE":"１８８巷","ALLEY":" ","HOUSE_NO":"２號六樓之４","E_COORD97":171440.89000000001,"N_COORD97":2545664.04,"ADDRESS":"成功路１８８巷２號六樓之４","OBJECTID":430572},"geometry":{"x":171440.88999999966,"y":2545664.0400000028}},{"attributes":{"ID":430598,"DIS_CODE":0,"TOWNNAME":"永康區","LI":"五王里","LIN":"18鄰","STREET":"成功路","SECT":" ","MAREA":" ","LANE":"１８８巷","ALLEY":" ","HOUSE_NO":"２４號四樓","E_COORD97":171497.85999999999,"N_COORD97":2545704.02,"ADDRESS":"成功路１８８巷２４號四樓","OBJECTID":430573},"geometry":{"x":171497.86000000034,"y":2545704.0199999996}},{"attributes":{"ID":430599,"DIS_CODE":0,"TOWNNAME":"永康區","LI":"五王里","LIN":"18鄰","STREET":"成功路","SECT":" ","MAREA":" ","LANE":"１８８巷","ALLEY":" ","HOUSE_NO":"２號五樓之３","E_COORD97":171440.95999999999,"N_COORD97":2545664.04,"ADDRESS":"成功路１８８巷２號五樓之３","OBJECTID":430574},"geometry":{"x":171440.95999999996,"y":2545664.0400000028}},{"attributes":{"ID":430600,"DIS_CODE":0,"TOWNNAME":"永康區","LI":"五王里","LIN":"18鄰","STREET":"成功路","SECT":" ","MAREA":" ","LANE":"１８８巷","ALLEY":" ","HOUSE_NO":"２號六樓之３","E_COORD97":171440.95999999999,"N_COORD97":2545664.04,"ADDRESS":"成功路１８８巷２號六樓之３","OBJECTID":430575},"geometry":{"x":171440.95999999996,"y":2545664.0400000028}},{"attributes":{"ID":430601,"DIS_CODE":0,"TOWNNAME":"永康區","LI":"中興里","LIN":"25鄰","STREET":"中華路","SECT":" ","MAREA":" ","LANE":"２１６巷","ALLEY":" ","HOUSE_NO":"３號之３五樓","E_COORD97":171728.19,"N_COORD97":2545151.04,"ADDRESS":"中華路２１６巷３號之３五樓","OBJECTID":430576},"geometry":{"x":171728.18999999948,"y":2545151.0399999991}},{"attributes":{"ID":430602,"DIS_CODE":0,"TOWNNAME":"永康區","LI":"五王里","LIN":"32鄰","STREET":"中華路","SECT":" ","MAREA":" ","LANE":"５７８巷","ALLEY":" ","HOUSE_NO":"２號五樓之２","E_COORD97":171285.01000000001,"N_COORD97":2545927.0499999998,"ADDRESS":"中華路５７８巷２號五樓之２","OBJECTID":430577},"geometry":{"x":171285.01000000071,"y":2545927.0500000026}},{"attributes":{"ID":430603,"DIS_CODE":0,"TOWNNAME":"永康區","LI":"五王里","LIN":"32鄰","STREET":"中華路","SECT":" ","MAREA":" ","LANE":"５７８巷","ALLEY":" ","HOUSE_NO":"２號五樓之３","E_COORD97":171284.98000000001,"N_COORD97":2545927.0499999998,"ADDRESS":"中華路５７８巷２號五樓之３","OBJECTID":430578},"geometry":{"x":171284.98000000045,"y":2545927.0500000026}},{"attributes":{"ID":430604,"DIS_CODE":0,"TOWNNAME":"永康區","LI":"五王里","LIN":"32鄰","STREET":"中華路","SECT":" ","MAREA":" ","LANE":"５７８巷","ALLEY":" ","HOUSE_NO":"２號之１四樓之１","E_COORD97":171237.89999999999,"N_COORD97":2545914.2999999998,"ADDRESS":"中華路５７８巷２號之１四樓之１","OBJECTID":430579},"geometry":{"x":171237.90000000037,"y":2545914.3000000007}},{"attributes":{"ID":430605,"DIS_CODE":0,"TOWNNAME":"永康區","LI":"勝利里","LIN":"20鄰","STREET":"勝學路","SECT":" ","MAREA":" ","LANE":"２６９巷","ALLEY":" ","HOUSE_NO":"２號三樓之３","E_COORD97":171173.38,"N_COORD97":2545316.0499999998,"ADDRESS":"勝學路２６９巷２號三樓之３","OBJECTID":430580},"geometry":{"x":171173.37999999989,"y":2545316.0500000007}},{"attributes":{"ID":430606,"DIS_CODE":0,"TOWNNAME":"永康區","LI":"勝利里","LIN":"20鄰","STREET":"勝學路","SECT":" ","MAREA":" ","LANE":"２６９巷","ALLEY":" ","HOUSE_NO":"６號七樓之１","E_COORD97":171164.28,"N_COORD97":2545316.29,"ADDRESS":"勝學路２６９巷６號七樓之１","OBJECTID":430581},"geometry":{"x":171164.28000000026,"y":2545316.2899999972}},{"attributes":{"ID":430607,"DIS_CODE":0,"TOWNNAME":"下營區","LI":"營前里","LIN":"18鄰","STREET":"文化街","SECT":" ","MAREA":" ","LANE":"２１巷","ALLEY":" ","HOUSE_NO":"７號","E_COORD97":174791.04999999999,"N_COORD97":2570289.96,"ADDRESS":"文化街２１巷７號","OBJECTID":430582},"geometry":{"x":174791.04999999981,"y":2570289.9600000009}},{"attributes":{"ID":430608,"DIS_CODE":0,"TOWNNAME":"永康區","LI":"五王里","LIN":"41鄰","STREET":"中山南路","SECT":" ","MAREA":" ","LANE":"２６２巷","ALLEY":" ","HOUSE_NO":"２號九樓之１９","E_COORD97":171550.53,"N_COORD97":2546054.6200000001,"ADDRESS":"中山南路２６２巷２號九樓之１９","OBJECTID":430583},"geometry":{"x":171550.53000000026,"y":2546054.620000001}},{"attributes":{"ID":430609,"DIS_CODE":0,"TOWNNAME":"永康區","LI":"三合里","LIN":"24鄰","STREET":"南工街","SECT":" ","MAREA":" ","LANE":"２６７巷","ALLEY":" ","HOUSE_NO":"５８號八樓之６","E_COORD97":171830.60999999999,"N_COORD97":2545838.54,"ADDRESS":"南工街２６７巷５８號八樓之６","OBJECTID":430584},"geometry":{"x":171830.61000000127,"y":2545838.540000001}},{"attributes":{"ID":430610,"DIS_CODE":0,"TOWNNAME":"永康區","LI":"永康里","LIN":"32鄰","STREET":"大同街","SECT":" ","MAREA":" ","LANE":"９７６巷","ALLEY":" ","HOUSE_NO":"８號","E_COORD97":174406.47,"N_COORD97":2547118.0800000001,"ADDRESS":"大同街９７６巷８號","OBJECTID":430585},"geometry":{"x":174406.47000000067,"y":2547118.0800000001}},{"attributes":{"ID":430611,"DIS_CODE":0,"TOWNNAME":"永康區","LI":"三合里","LIN":"24鄰","STREET":"南工街","SECT":" ","MAREA":" ","LANE":"２６７巷","ALLEY":" ","HOUSE_NO":"６６號六樓之７","E_COORD97":171847.98000000001,"N_COORD97":2545837.79,"ADDRESS":"南工街２６７巷６６號六樓之７","OBJECTID":430586},"geometry":{"x":171847.98000000045,"y":2545837.7899999991}},{"attributes":{"ID":430612,"DIS_CODE":0,"TOWNNAME":"永康區","LI":"勝利里","LIN":"34鄰","STREET":"勝利街","SECT":" ","MAREA":" ","LANE":"１巷","ALLEY":" ","HOUSE_NO":"４７號四樓之１","E_COORD97":170989.26999999999,"N_COORD97":2544676.5499999998,"ADDRESS":"勝利街１巷４７號四樓之１","OBJECTID":430587},"geometry":{"x":170989.26999999955,"y":2544676.5500000026}},{"attributes":{"ID":430613,"DIS_CODE":0,"TOWNNAME":"永康區","LI":"五王里","LIN":"17鄰","STREET":"成功路","SECT":" ","MAREA":" ","LANE":"２０４巷","ALLEY":" ","HOUSE_NO":"３１號四樓之２","E_COORD97":171477.53,"N_COORD97":2545766.8999999999,"ADDRESS":"成功路２０４巷３１號四樓之２","OBJECTID":430588},"geometry":{"x":171477.53000000026,"y":2545766.9000000004}},{"attributes":{"ID":430614,"DIS_CODE":0,"TOWNNAME":"永康區","LI":"勝利里","LIN":"20鄰","STREET":"勝學路","SECT":" ","MAREA":" ","LANE":"２６９巷","ALLEY":" ","HOUSE_NO":"６號三樓之２","E_COORD97":171164.42000000001,"N_COORD97":2545316.29,"ADDRESS":"勝學路２６９巷６號三樓之２","OBJECTID":430589},"geometry":{"x":171164.41999999993,"y":2545316.2899999972}},{"attributes":{"ID":430615,"DIS_CODE":0,"TOWNNAME":"永康區","LI":"勝利里","LIN":"20鄰","STREET":"勝學路","SECT":" ","MAREA":" ","LANE":"２６９巷","ALLEY":" ","HOUSE_NO":"２號七樓之２","E_COORD97":171173.42000000001,"N_COORD97":2545316.0499999998,"ADDRESS":"勝學路２６９巷２號七樓之２","OBJECTID":430590},"geometry":{"x":171173.41999999993,"y":2545316.0500000007}},{"attributes":{"ID":430616,"DIS_CODE":0,"TOWNNAME":"永康區","LI":"勝利里","LIN":"20鄰","STREET":"勝學路","SECT":" ","MAREA":" ","LANE":"２６９巷","ALLEY":" ","HOUSE_NO":"２號六樓之３","E_COORD97":171173.38,"N_COORD97":2545316.0499999998,"ADDRESS":"勝學路２６９巷２號六樓之３","OBJECTID":430591},"geometry":{"x":171173.37999999989,"y":2545316.0500000007}},{"attributes":{"ID":430617,"DIS_CODE":0,"TOWNNAME":"永康區","LI":"復華里","LIN":"26鄰","STREET":"復華八街","SECT":" ","MAREA":" ","LANE":"４７巷","ALLEY":" ","HOUSE_NO":"３４號三樓之１","E_COORD97":172703.03,"N_COORD97":2546385.9500000002,"ADDRESS":"復華八街４７巷３４號三樓之１","OBJECTID":430592},"geometry":{"x":172703.03000000119,"y":2546385.9499999993}},{"attributes":{"ID":430618,"DIS_CODE":0,"TOWNNAME":"永康區","LI":"復國里","LIN":"25鄰","STREET":"復華三街","SECT":" ","MAREA":" ","LANE":"９０巷","ALLEY":" ","HOUSE_NO":"１６號十四樓之４","E_COORD97":172657.37,"N_COORD97":2545612.7999999998,"ADDRESS":"復華三街９０巷１６號十四樓之４","OBJECTID":430593},"geometry":{"x":172657.37000000197,"y":2545612.8000000007}},{"attributes":{"ID":430619,"DIS_CODE":0,"TOWNNAME":"永康區","LI":"復國里","LIN":"25鄰","STREET":"復華三街","SECT":" ","MAREA":" ","LANE":"９０巷","ALLEY":" ","HOUSE_NO":"１８號十五樓之６","E_COORD97":172640.82000000001,"N_COORD97":2545614.2999999998,"ADDRESS":"復華三街９０巷１８號十五樓之６","OBJECTID":430594},"geometry":{"x":172640.8200000003,"y":2545614.3000000026}},{"attributes":{"ID":430620,"DIS_CODE":0,"TOWNNAME":"永康區","LI":"復華里","LIN":"17鄰","STREET":"國華街","SECT":" ","MAREA":" ","LANE":"１０２巷","ALLEY":" ","HOUSE_NO":"６３號七樓之２","E_COORD97":172874.57000000001,"N_COORD97":2546145.02,"ADDRESS":"國華街１０２巷６３號七樓之２","OBJECTID":430595},"geometry":{"x":172874.5700000003,"y":2546145.0199999996}},{"attributes":{"ID":430621,"DIS_CODE":0,"TOWNNAME":"永康區","LI":"復華里","LIN":"17鄰","STREET":"國華街","SECT":" ","MAREA":" ","LANE":"１０２巷","ALLEY":" ","HOUSE_NO":"６３號六樓之１","E_COORD97":172874.44,"N_COORD97":2546145.02,"ADDRESS":"國華街１０２巷６３號六樓之１","OBJECTID":430596},"geometry":{"x":172874.44000000134,"y":2546145.0199999996}},{"attributes":{"ID":430622,"DIS_CODE":0,"TOWNNAME":"永康區","LI":"復華里","LIN":"6鄰","STREET":"國華街","SECT":" ","MAREA":" ","LANE":"１０２巷","ALLEY":" ","HOUSE_NO":"９６號七樓之１","E_COORD97":173016.94,"N_COORD97":2546176.0800000001,"ADDRESS":"國華街１０２巷９６號七樓之１","OBJECTID":430597},"geometry":{"x":173016.94000000134,"y":2546176.0800000001}},{"attributes":{"ID":430623,"DIS_CODE":0,"TOWNNAME":"永康區","LI":"復華里","LIN":"6鄰","STREET":"國華街","SECT":" ","MAREA":" ","LANE":"１０２巷","ALLEY":" ","HOUSE_NO":"９２號五樓之１","E_COORD97":173003.64000000001,"N_COORD97":2546148.5499999998,"ADDRESS":"國華街１０２巷９２號五樓之１","OBJECTID":430598},"geometry":{"x":173003.63999999966,"y":2546148.5500000026}},{"attributes":{"ID":430624,"DIS_CODE":0,"TOWNNAME":"永康區","LI":"復華里","LIN":"6鄰","STREET":"國華街","SECT":" ","MAREA":" ","LANE":"１０２巷","ALLEY":" ","HOUSE_NO":"９２號六樓之２","E_COORD97":173003.76999999999,"N_COORD97":2546148.5499999998,"ADDRESS":"國華街１０２巷９２號六樓之２","OBJECTID":430599},"geometry":{"x":173003.77000000048,"y":2546148.5500000026}},{"attributes":{"ID":430625,"DIS_CODE":0,"TOWNNAME":"永康區","LI":"復華里","LIN":"6鄰","STREET":"國華街","SECT":" ","MAREA":" ","LANE":"１０２巷","ALLEY":" ","HOUSE_NO":"９６號九樓之２","E_COORD97":173017.07000000001,"N_COORD97":2546176.0800000001,"ADDRESS":"國華街１０２巷９６號九樓之２","OBJECTID":430600},"geometry":{"x":173017.0700000003,"y":2546176.0800000001}}]}