{"displayFieldName":"TOWNNAME","fieldAliases":{"ID":"ID","DIS_CODE":"DIS_CODE","TOWNNAME":"TOWNNAME","LI":"LI","LIN":"LIN","STREET":"STREET","SECT":"SECT","MAREA":"MAREA","LANE":"LANE","ALLEY":"ALLEY","HOUSE_NO":"HOUSE_NO","E_COORD97":"E_COORD97","N_COORD97":"N_COORD97","ADDRESS":"ADDRESS","OBJECTID":"OBJECTID"},"geometryType":"esriGeometryPoint","spatialReference":{"wkid":102443,"latestWkid":3826},"fields":[{"name":"ID","type":"esriFieldTypeDouble","alias":"ID"},{"name":"DIS_CODE","type":"esriFieldTypeInteger","alias":"DIS_CODE"},{"name":"TOWNNAME","type":"esriFieldTypeString","alias":"TOWNNAME","length":8},{"name":"LI","type":"esriFieldTypeString","alias":"LI","length":8},{"name":"LIN","type":"esriFieldTypeString","alias":"LIN","length":12},{"name":"STREET","type":"esriFieldTypeString","alias":"STREET","length":20},{"name":"SECT","type":"esriFieldTypeString","alias":"SECT","length":8},{"name":"MAREA","type":"esriFieldTypeString","alias":"MAREA","length":12},{"name":"LANE","type":"esriFieldTypeString","alias":"LANE","length":10},{"name":"ALLEY","type":"esriFieldTypeString","alias":"ALLEY","length":10},{"name":"HOUSE_NO","type":"esriFieldTypeString","alias":"HOUSE_NO","length":20},{"name":"E_COORD97","type":"esriFieldTypeDouble","alias":"E_COORD97"},{"name":"N_COORD97","type":"esriFieldTypeDouble","alias":"N_COORD97"},{"name":"ADDRESS","type":"esriFieldTypeString","alias":"ADDRESS","length":50},{"name":"OBJECTID","type":"esriFieldTypeOID","alias":"OBJECTID"}],"features":[{"attributes":{"ID":498828,"DIS_CODE":0,"TOWNNAME":"東區","LI":"文聖里","LIN":"7鄰","STREET":"裕農一街","SECT":" ","MAREA":" ","LANE":" ","ALLEY":" ","HOUSE_NO":"１９９號","E_COORD97":171937.70999999999,"N_COORD97":2542678.1800000002,"ADDRESS":"裕農一街１９９號","OBJECTID":498801},"geometry":{"x":171937.70999999996,"y":2542678.1800000016}},{"attributes":{"ID":498829,"DIS_CODE":0,"TOWNNAME":"東區","LI":"文聖里","LIN":"7鄰","STREET":"裕農一街","SECT":" ","MAREA":" ","LANE":" ","ALLEY":" ","HOUSE_NO":"２０１號","E_COORD97":171931.38,"N_COORD97":2542676.52,"ADDRESS":"裕農一街２０１號","OBJECTID":498802},"geometry":{"x":171931.37999999989,"y":2542676.5199999996}},{"attributes":{"ID":498830,"DIS_CODE":0,"TOWNNAME":"東區","LI":"文聖里","LIN":"7鄰","STREET":"裕農二街","SECT":" ","MAREA":" ","LANE":" ","ALLEY":" ","HOUSE_NO":"１６８號","E_COORD97":171963.35999999999,"N_COORD97":2542759.9500000002,"ADDRESS":"裕農二街１６８號","OBJECTID":498803},"geometry":{"x":171963.36000000127,"y":2542759.9500000011}},{"attributes":{"ID":498831,"DIS_CODE":0,"TOWNNAME":"東區","LI":"文聖里","LIN":"7鄰","STREET":"裕農二街","SECT":" ","MAREA":" ","LANE":" ","ALLEY":" ","HOUSE_NO":"１７０號","E_COORD97":171963.19,"N_COORD97":2542755.46,"ADDRESS":"裕農二街１７０號","OBJECTID":498804},"geometry":{"x":171963.19000000041,"y":2542755.4600000028}},{"attributes":{"ID":498832,"DIS_CODE":0,"TOWNNAME":"東區","LI":"文聖里","LIN":"7鄰","STREET":"裕農二街","SECT":" ","MAREA":" ","LANE":" ","ALLEY":" ","HOUSE_NO":"１７２號","E_COORD97":171963.19,"N_COORD97":2542750.96,"ADDRESS":"裕農二街１７２號","OBJECTID":498805},"geometry":{"x":171963.19000000041,"y":2542750.9600000028}},{"attributes":{"ID":498833,"DIS_CODE":0,"TOWNNAME":"東區","LI":"文聖里","LIN":"7鄰","STREET":"裕農二街","SECT":" ","MAREA":" ","LANE":" ","ALLEY":" ","HOUSE_NO":"１７６號","E_COORD97":171962.85999999999,"N_COORD97":2542746.7999999998,"ADDRESS":"裕農二街１７６號","OBJECTID":498806},"geometry":{"x":171962.86000000127,"y":2542746.8000000007}},{"attributes":{"ID":498834,"DIS_CODE":0,"TOWNNAME":"東區","LI":"文聖里","LIN":"7鄰","STREET":"裕農二街","SECT":" ","MAREA":" ","LANE":" ","ALLEY":" ","HOUSE_NO":"１７８號","E_COORD97":171962.35999999999,"N_COORD97":2542741.8100000001,"ADDRESS":"裕農二街１７８號","OBJECTID":498807},"geometry":{"x":171962.36000000034,"y":2542741.8100000024}},{"attributes":{"ID":498835,"DIS_CODE":0,"TOWNNAME":"東區","LI":"文聖里","LIN":"7鄰","STREET":"裕農二街","SECT":" ","MAREA":" ","LANE":" ","ALLEY":" ","HOUSE_NO":"１８０號","E_COORD97":171961.85999999999,"N_COORD97":2542736.7599999998,"ADDRESS":"裕農二街１８０號","OBJECTID":498808},"geometry":{"x":171961.86000000034,"y":2542736.7599999998}},{"attributes":{"ID":498836,"DIS_CODE":0,"TOWNNAME":"東區","LI":"文聖里","LIN":"7鄰","STREET":"裕農二街","SECT":" ","MAREA":" ","LANE":" ","ALLEY":" ","HOUSE_NO":"１８２號","E_COORD97":171961.85999999999,"N_COORD97":2542731.4300000002,"ADDRESS":"裕農二街１８２號","OBJECTID":498809},"geometry":{"x":171961.86000000034,"y":2542731.4299999997}},{"attributes":{"ID":498837,"DIS_CODE":0,"TOWNNAME":"東區","LI":"文聖里","LIN":"7鄰","STREET":"裕農二街","SECT":" ","MAREA":" ","LANE":" ","ALLEY":" ","HOUSE_NO":"１８６號","E_COORD97":171962.51999999999,"N_COORD97":2542724.7799999998,"ADDRESS":"裕農二街１８６號","OBJECTID":498810},"geometry":{"x":171962.52000000142,"y":2542724.7800000012}},{"attributes":{"ID":498838,"DIS_CODE":0,"TOWNNAME":"東區","LI":"文聖里","LIN":"7鄰","STREET":"裕農二街","SECT":" ","MAREA":" ","LANE":" ","ALLEY":" ","HOUSE_NO":"１８８號","E_COORD97":171961.35999999999,"N_COORD97":2542720.2799999998,"ADDRESS":"裕農二街１８８號","OBJECTID":498811},"geometry":{"x":171961.36000000127,"y":2542720.2800000012}},{"attributes":{"ID":498839,"DIS_CODE":0,"TOWNNAME":"東區","LI":"文聖里","LIN":"7鄰","STREET":"裕農二街","SECT":" ","MAREA":" ","LANE":" ","ALLEY":" ","HOUSE_NO":"１９０號","E_COORD97":171961.35999999999,"N_COORD97":2542714.29,"ADDRESS":"裕農二街１９０號","OBJECTID":498812},"geometry":{"x":171961.36000000127,"y":2542714.290000001}},{"attributes":{"ID":498840,"DIS_CODE":0,"TOWNNAME":"東區","LI":"文聖里","LIN":"7鄰","STREET":"裕農二街","SECT":" ","MAREA":" ","LANE":" ","ALLEY":" ","HOUSE_NO":"１９２號","E_COORD97":171961.35999999999,"N_COORD97":2542708.4700000002,"ADDRESS":"裕農二街１９２號","OBJECTID":498813},"geometry":{"x":171961.36000000127,"y":2542708.4700000007}},{"attributes":{"ID":498841,"DIS_CODE":0,"TOWNNAME":"東區","LI":"文聖里","LIN":"7鄰","STREET":"裕農二街","SECT":" ","MAREA":" ","LANE":" ","ALLEY":" ","HOUSE_NO":"１９６號","E_COORD97":171960.85999999999,"N_COORD97":2542703.6400000001,"ADDRESS":"裕農二街１９６號","OBJECTID":498814},"geometry":{"x":171960.8599999994,"y":2542703.6400000006}},{"attributes":{"ID":498842,"DIS_CODE":0,"TOWNNAME":"東區","LI":"文聖里","LIN":"7鄰","STREET":"裕農二街","SECT":" ","MAREA":" ","LANE":" ","ALLEY":" ","HOUSE_NO":"１９８號","E_COORD97":171961.01999999999,"N_COORD97":2542698.48,"ADDRESS":"裕農二街１９８號","OBJECTID":498815},"geometry":{"x":171961.02000000048,"y":2542698.4800000004}},{"attributes":{"ID":498843,"DIS_CODE":0,"TOWNNAME":"東區","LI":"文聖里","LIN":"7鄰","STREET":"裕農二街","SECT":" ","MAREA":" ","LANE":" ","ALLEY":" ","HOUSE_NO":"２００號","E_COORD97":171960.51999999999,"N_COORD97":2542694.3199999998,"ADDRESS":"裕農二街２００號","OBJECTID":498816},"geometry":{"x":171960.51999999955,"y":2542694.3200000022}},{"attributes":{"ID":498844,"DIS_CODE":0,"TOWNNAME":"東區","LI":"文聖里","LIN":"7鄰","STREET":"裕農二街","SECT":" ","MAREA":" ","LANE":" ","ALLEY":" ","HOUSE_NO":"２０２號","E_COORD97":171960.19,"N_COORD97":2542689.8300000001,"ADDRESS":"裕農二街２０２號","OBJECTID":498817},"geometry":{"x":171960.19000000041,"y":2542689.8300000038}},{"attributes":{"ID":498845,"DIS_CODE":0,"TOWNNAME":"東區","LI":"文聖里","LIN":"7鄰","STREET":"裕興街","SECT":" ","MAREA":" ","LANE":" ","ALLEY":" ","HOUSE_NO":"１號","E_COORD97":171953.03,"N_COORD97":2542682.6699999999,"ADDRESS":"裕興街１號","OBJECTID":498818},"geometry":{"x":171953.03000000212,"y":2542682.6699999999}},{"attributes":{"ID":498846,"DIS_CODE":0,"TOWNNAME":"東區","LI":"文聖里","LIN":"7鄰","STREET":"裕興街","SECT":" ","MAREA":" ","LANE":" ","ALLEY":" ","HOUSE_NO":"３號","E_COORD97":171958.03,"N_COORD97":2542679.0099999998,"ADDRESS":"裕興街３號","OBJECTID":498819},"geometry":{"x":171958.03000000212,"y":2542679.0100000016}},{"attributes":{"ID":498847,"DIS_CODE":0,"TOWNNAME":"東區","LI":"文聖里","LIN":"7鄰","STREET":"裕興街","SECT":" ","MAREA":" ","LANE":" ","ALLEY":" ","HOUSE_NO":"５號","E_COORD97":171963.35999999999,"N_COORD97":2542682.3399999999,"ADDRESS":"裕興街５號","OBJECTID":498820},"geometry":{"x":171963.36000000127,"y":2542682.339999998}},{"attributes":{"ID":498848,"DIS_CODE":0,"TOWNNAME":"東區","LI":"文聖里","LIN":"7鄰","STREET":"裕興街","SECT":" ","MAREA":" ","LANE":" ","ALLEY":" ","HOUSE_NO":"７號","E_COORD97":171968.35000000001,"N_COORD97":2542679.8500000001,"ADDRESS":"裕興街７號","OBJECTID":498821},"geometry":{"x":171968.34999999963,"y":2542679.8500000015}},{"attributes":{"ID":498849,"DIS_CODE":0,"TOWNNAME":"東區","LI":"崇德里","LIN":"7鄰","STREET":"崇德六街","SECT":" ","MAREA":" ","LANE":" ","ALLEY":" ","HOUSE_NO":"３８號","E_COORD97":170765.69,"N_COORD97":2541767.8900000001,"ADDRESS":"崇德六街３８號","OBJECTID":498822},"geometry":{"x":170765.69000000134,"y":2541767.8900000043}},{"attributes":{"ID":498850,"DIS_CODE":0,"TOWNNAME":"安南區","LI":"城中里","LIN":"7鄰","STREET":"城安西街","SECT":" ","MAREA":" ","LANE":" ","ALLEY":" ","HOUSE_NO":"１０號","E_COORD97":160724.998758,"N_COORD97":2551529.9857200002,"ADDRESS":"城安西街１０號","OBJECTID":498823},"geometry":{"x":160724.99875800125,"y":2551529.985715}},{"attributes":{"ID":498851,"DIS_CODE":0,"TOWNNAME":"安南區","LI":"城中里","LIN":"7鄰","STREET":"城安西街","SECT":" ","MAREA":" ","LANE":" ","ALLEY":" ","HOUSE_NO":"１８號","E_COORD97":160719.070618,"N_COORD97":2551540.7807100001,"ADDRESS":"城安西街１８號","OBJECTID":498824},"geometry":{"x":160719.07061799988,"y":2551540.780709004}},{"attributes":{"ID":498852,"DIS_CODE":0,"TOWNNAME":"安南區","LI":"城中里","LIN":"7鄰","STREET":"城安西街","SECT":" ","MAREA":" ","LANE":" ","ALLEY":" ","HOUSE_NO":"２０號","E_COORD97":160717.37686399999,"N_COORD97":2551544.1673699999,"ADDRESS":"城安西街２０號","OBJECTID":498825},"geometry":{"x":160717.37686400115,"y":2551544.167374}},{"attributes":{"ID":498853,"DIS_CODE":0,"TOWNNAME":"安南區","LI":"城中里","LIN":"7鄰","STREET":"城安西街","SECT":" ","MAREA":" ","LANE":" ","ALLEY":" ","HOUSE_NO":"２２號","E_COORD97":160715.894829,"N_COORD97":2551546.9190400001,"ADDRESS":"城安西街２２號","OBJECTID":498826},"geometry":{"x":160715.89482900128,"y":2551546.9190389998}},{"attributes":{"ID":498854,"DIS_CODE":0,"TOWNNAME":"安南區","LI":"新順里","LIN":"7鄰","STREET":"北安路","SECT":"三段","MAREA":" ","LANE":" ","ALLEY":" ","HOUSE_NO":"７９１之３號","E_COORD97":169247.29999999999,"N_COORD97":2549949.2999999998,"ADDRESS":"北安路三段７９１之３號","OBJECTID":498827},"geometry":{"x":169247.30000000075,"y":2549949.3000000045}},{"attributes":{"ID":498855,"DIS_CODE":0,"TOWNNAME":"安南區","LI":"新順里","LIN":"7鄰","STREET":"北安路","SECT":"三段","MAREA":" ","LANE":" ","ALLEY":" ","HOUSE_NO":"７９１之５號","E_COORD97":169253.78,"N_COORD97":2549954.8900000001,"ADDRESS":"北安路三段７９１之５號","OBJECTID":498828},"geometry":{"x":169253.78000000026,"y":2549954.8900000006}},{"attributes":{"ID":498856,"DIS_CODE":0,"TOWNNAME":"安南區","LI":"新順里","LIN":"7鄰","STREET":"北安路","SECT":"三段","MAREA":" ","LANE":" ","ALLEY":" ","HOUSE_NO":"７９１之９號","E_COORD97":169271.04999999999,"N_COORD97":2549974.5699999998,"ADDRESS":"北安路三段７９１之９號","OBJECTID":498829},"geometry":{"x":169271.05000000075,"y":2549974.5700000022}},{"attributes":{"ID":498857,"DIS_CODE":0,"TOWNNAME":"安南區","LI":"原佃里","LIN":"7鄰","STREET":"安吉路","SECT":"一段","MAREA":" ","LANE":" ","ALLEY":" ","HOUSE_NO":"４８６號","E_COORD97":166872.32000000001,"N_COORD97":2549734.0299999998,"ADDRESS":"安吉路一段４８６號","OBJECTID":498830},"geometry":{"x":166872.32000000216,"y":2549734.0300000012}},{"attributes":{"ID":498858,"DIS_CODE":0,"TOWNNAME":"安南區","LI":"城北里","LIN":"7鄰","STREET":"安明路","SECT":"四段","MAREA":" ","LANE":" ","ALLEY":" ","HOUSE_NO":"２６０之９０號","E_COORD97":161290.48000000001,"N_COORD97":2551391.6600000001,"ADDRESS":"安明路四段２６０之９０號","OBJECTID":498831},"geometry":{"x":161290.48000000045,"y":2551391.660000002}},{"attributes":{"ID":498859,"DIS_CODE":0,"TOWNNAME":"安南區","LI":"原佃里","LIN":"7鄰","STREET":"安吉路","SECT":"一段","MAREA":" ","LANE":" ","ALLEY":" ","HOUSE_NO":"２２２號","E_COORD97":166860.57000000001,"N_COORD97":2549659.2599999998,"ADDRESS":"安吉路一段２２２號","OBJECTID":498832},"geometry":{"x":166860.57000000123,"y":2549659.2599999998}},{"attributes":{"ID":498860,"DIS_CODE":0,"TOWNNAME":"中西區","LI":"光賢里","LIN":"15鄰","STREET":"武聖路","SECT":" ","MAREA":" ","LANE":" ","ALLEY":" ","HOUSE_NO":"１３７號","E_COORD97":167072.81,"N_COORD97":2545158.3399999999,"ADDRESS":"武聖路１３７號","OBJECTID":498833},"geometry":{"x":167072.80999999959,"y":2545158.3400000017}},{"attributes":{"ID":498861,"DIS_CODE":0,"TOWNNAME":"南區","LI":"府南里","LIN":"30鄰","STREET":"永成路","SECT":"三段","MAREA":" ","LANE":"４６１巷","ALLEY":"２弄","HOUSE_NO":"１８號","E_COORD97":167456.82635799999,"N_COORD97":2541542.5540999998,"ADDRESS":"永成路三段４６１巷２弄１８號","OBJECTID":498834},"geometry":{"x":167456.82635800075,"y":2541542.5540970005}},{"attributes":{"ID":498862,"DIS_CODE":0,"TOWNNAME":"仁德區","LI":"仁義里","LIN":"7鄰","STREET":"中山路","SECT":" ","MAREA":" ","LANE":" ","ALLEY":" ","HOUSE_NO":"４２１號","E_COORD97":173785.64999999999,"N_COORD97":2541255.75,"ADDRESS":"中山路４２１號","OBJECTID":498835},"geometry":{"x":173785.65000000037,"y":2541255.7499999981}},{"attributes":{"ID":498863,"DIS_CODE":0,"TOWNNAME":"仁德區","LI":"田厝里","LIN":"7鄰","STREET":"保安路","SECT":"二段","MAREA":" ","LANE":" ","ALLEY":" ","HOUSE_NO":"５９７號","E_COORD97":172702.23999999999,"N_COORD97":2537596.0600000001,"ADDRESS":"保安路二段５９７號","OBJECTID":498836},"geometry":{"x":172702.24000000022,"y":2537596.0599999987}},{"attributes":{"ID":498864,"DIS_CODE":0,"TOWNNAME":"仁德區","LI":"上崙里","LIN":"7鄰","STREET":"德善路","SECT":" ","MAREA":" ","LANE":" ","ALLEY":" ","HOUSE_NO":"３４４號","E_COORD97":174016.48000000001,"N_COORD97":2538274.0099999998,"ADDRESS":"德善路３４４號","OBJECTID":498837},"geometry":{"x":174016.48000000231,"y":2538274.0100000035}},{"attributes":{"ID":498865,"DIS_CODE":0,"TOWNNAME":"仁德區","LI":"上崙里","LIN":"7鄰","STREET":"德善路","SECT":" ","MAREA":" ","LANE":" ","ALLEY":" ","HOUSE_NO":"３３８號","E_COORD97":174007.48000000001,"N_COORD97":2538301.7599999998,"ADDRESS":"德善路３３８號","OBJECTID":498838},"geometry":{"x":174007.48000000045,"y":2538301.7599999998}},{"attributes":{"ID":498866,"DIS_CODE":0,"TOWNNAME":"仁德區","LI":"二行里","LIN":"7鄰","STREET":"行大街","SECT":" ","MAREA":" ","LANE":" ","ALLEY":" ","HOUSE_NO":"１０號","E_COORD97":170348.59,"N_COORD97":2535245.75,"ADDRESS":"行大街１０號","OBJECTID":498839},"geometry":{"x":170348.59000000171,"y":2535245.7500000019}},{"attributes":{"ID":498867,"DIS_CODE":0,"TOWNNAME":"佳里區","LI":"東寧里","LIN":"7鄰","STREET":"義民街","SECT":" ","MAREA":" ","LANE":" ","ALLEY":" ","HOUSE_NO":"１０４號","E_COORD97":165843.92000000001,"N_COORD97":2562433.4700000002,"ADDRESS":"義民街１０４號","OBJECTID":498840},"geometry":{"x":165843.92000000179,"y":2562433.4700000007}},{"attributes":{"ID":498868,"DIS_CODE":0,"TOWNNAME":"佳里區","LI":"東寧里","LIN":"7鄰","STREET":"義民街","SECT":" ","MAREA":" ","LANE":" ","ALLEY":" ","HOUSE_NO":"１０６號","E_COORD97":165838.98000000001,"N_COORD97":2562433.2000000002,"ADDRESS":"義民街１０６號","OBJECTID":498841},"geometry":{"x":165838.98000000231,"y":2562433.2000000011}},{"attributes":{"ID":498869,"DIS_CODE":0,"TOWNNAME":"佳里區","LI":"東寧里","LIN":"7鄰","STREET":"義民街","SECT":" ","MAREA":" ","LANE":" ","ALLEY":" ","HOUSE_NO":"１０８號","E_COORD97":165833.95000000001,"N_COORD97":2562433.0499999998,"ADDRESS":"義民街１０８號","OBJECTID":498842},"geometry":{"x":165833.95000000112,"y":2562433.0500000007}},{"attributes":{"ID":498870,"DIS_CODE":0,"TOWNNAME":"佳里區","LI":"東寧里","LIN":"7鄰","STREET":"義民街","SECT":" ","MAREA":" ","LANE":" ","ALLEY":" ","HOUSE_NO":"１２８號","E_COORD97":165791.29000000001,"N_COORD97":2562431.25,"ADDRESS":"義民街１２８號","OBJECTID":498843},"geometry":{"x":165791.29000000097,"y":2562431.25}},{"attributes":{"ID":498871,"DIS_CODE":0,"TOWNNAME":"佳里區","LI":"東寧里","LIN":"7鄰","STREET":"義民街","SECT":" ","MAREA":" ","LANE":" ","ALLEY":" ","HOUSE_NO":"１３０號","E_COORD97":165787.98999999999,"N_COORD97":2562431.1200000001,"ADDRESS":"義民街１３０號","OBJECTID":498844},"geometry":{"x":165787.99000000115,"y":2562431.1200000048}},{"attributes":{"ID":498872,"DIS_CODE":0,"TOWNNAME":"佳里區","LI":"東寧里","LIN":"7鄰","STREET":"義民街","SECT":" ","MAREA":" ","LANE":" ","ALLEY":" ","HOUSE_NO":"１３２號","E_COORD97":165784.41,"N_COORD97":2562430.8900000001,"ADDRESS":"義民街１３２號","OBJECTID":498845},"geometry":{"x":165784.41000000015,"y":2562430.8900000006}},{"attributes":{"ID":498873,"DIS_CODE":0,"TOWNNAME":"佳里區","LI":"東寧里","LIN":"7鄰","STREET":"義民街","SECT":" ","MAREA":" ","LANE":" ","ALLEY":" ","HOUSE_NO":"１３４號","E_COORD97":165780.72,"N_COORD97":2562430.8500000001,"ADDRESS":"義民街１３４號","OBJECTID":498846},"geometry":{"x":165780.7200000016,"y":2562430.8499999996}},{"attributes":{"ID":498874,"DIS_CODE":0,"TOWNNAME":"佳里區","LI":"東寧里","LIN":"7鄰","STREET":"義民街","SECT":" ","MAREA":" ","LANE":" ","ALLEY":" ","HOUSE_NO":"１３６號","E_COORD97":165776.85000000001,"N_COORD97":2562430.79,"ADDRESS":"義民街１３６號","OBJECTID":498847},"geometry":{"x":165776.85000000056,"y":2562430.7899999991}},{"attributes":{"ID":498875,"DIS_CODE":0,"TOWNNAME":"佳里區","LI":"東寧里","LIN":"7鄰","STREET":"義民街","SECT":" ","MAREA":" ","LANE":" ","ALLEY":" ","HOUSE_NO":"１３８號","E_COORD97":165773.35000000001,"N_COORD97":2562430.5600000001,"ADDRESS":"義民街１３８號","OBJECTID":498848},"geometry":{"x":165773.35000000056,"y":2562430.5599999987}},{"attributes":{"ID":498876,"DIS_CODE":0,"TOWNNAME":"佳里區","LI":"東寧里","LIN":"7鄰","STREET":"義民街","SECT":" ","MAREA":" ","LANE":" ","ALLEY":" ","HOUSE_NO":"１４０號","E_COORD97":165769.66,"N_COORD97":2562430.3799999999,"ADDRESS":"義民街１４０號","OBJECTID":498849},"geometry":{"x":165769.66000000201,"y":2562430.3800000027}},{"attributes":{"ID":498877,"DIS_CODE":0,"TOWNNAME":"佳里區","LI":"東寧里","LIN":"7鄰","STREET":"義民街","SECT":" ","MAREA":" ","LANE":" ","ALLEY":" ","HOUSE_NO":"１４２號之１","E_COORD97":165761.88,"N_COORD97":2562429.8199999998,"ADDRESS":"義民街１４２號之１","OBJECTID":498850},"geometry":{"x":165761.88000000082,"y":2562429.8200000022}},{"attributes":{"ID":498878,"DIS_CODE":0,"TOWNNAME":"佳里區","LI":"東寧里","LIN":"7鄰","STREET":"義民街","SECT":" ","MAREA":" ","LANE":" ","ALLEY":" ","HOUSE_NO":"１４２號","E_COORD97":165766.07999999999,"N_COORD97":2562430.1200000001,"ADDRESS":"義民街１４２號","OBJECTID":498851},"geometry":{"x":165766.08000000007,"y":2562430.120000001}},{"attributes":{"ID":498879,"DIS_CODE":0,"TOWNNAME":"永康區","LI":"永康里","LIN":"7鄰","STREET":"永中街","SECT":" ","MAREA":" ","LANE":" ","ALLEY":" ","HOUSE_NO":"６９號","E_COORD97":173940.42000000001,"N_COORD97":2547238.25,"ADDRESS":"永中街６９號","OBJECTID":498852},"geometry":{"x":173940.42000000086,"y":2547238.2500000019}},{"attributes":{"ID":498880,"DIS_CODE":0,"TOWNNAME":"永康區","LI":"甲頂里","LIN":"7鄰","STREET":"中華路","SECT":" ","MAREA":" ","LANE":" ","ALLEY":" ","HOUSE_NO":"９０３號","E_COORD97":170196.37,"N_COORD97":2546859.5,"ADDRESS":"中華路９０３號","OBJECTID":498853},"geometry":{"x":170196.37000000104,"y":2546859.5000000019}},{"attributes":{"ID":498881,"DIS_CODE":0,"TOWNNAME":"永康區","LI":"永康里","LIN":"7鄰","STREET":"永中街","SECT":" ","MAREA":" ","LANE":" ","ALLEY":" ","HOUSE_NO":"６７號","E_COORD97":173938.41,"N_COORD97":2547235,"ADDRESS":"永中街６７號","OBJECTID":498854},"geometry":{"x":173938.41000000015,"y":2547235.0000000037}},{"attributes":{"ID":498882,"DIS_CODE":0,"TOWNNAME":"永康區","LI":"三合里","LIN":"7鄰","STREET":"南工街","SECT":" ","MAREA":" ","LANE":" ","ALLEY":" ","HOUSE_NO":"６１號","E_COORD97":172090.37,"N_COORD97":2545631.2400000002,"ADDRESS":"南工街６１號","OBJECTID":498855},"geometry":{"x":172090.37000000011,"y":2545631.2400000021}},{"attributes":{"ID":498883,"DIS_CODE":0,"TOWNNAME":"永康區","LI":"復國里","LIN":"7鄰","STREET":"復國一路","SECT":" ","MAREA":" ","LANE":" ","ALLEY":" ","HOUSE_NO":"２３０號","E_COORD97":172739.12,"N_COORD97":2545249.4500000002,"ADDRESS":"復國一路２３０號","OBJECTID":498856},"geometry":{"x":172739.12000000104,"y":2545249.4499999993}},{"attributes":{"ID":498884,"DIS_CODE":0,"TOWNNAME":"永康區","LI":"二王里","LIN":"7鄰","STREET":"永二街","SECT":" ","MAREA":" ","LANE":" ","ALLEY":" ","HOUSE_NO":"４１２號","E_COORD97":172745.64000000001,"N_COORD97":2546671.79,"ADDRESS":"永二街４１２號","OBJECTID":498857},"geometry":{"x":172745.6400000006,"y":2546671.7899999991}},{"attributes":{"ID":498885,"DIS_CODE":0,"TOWNNAME":"永康區","LI":"尚頂里","LIN":"7鄰","STREET":"尚頂路","SECT":" ","MAREA":" ","LANE":" ","ALLEY":" ","HOUSE_NO":"７１號","E_COORD97":171085.70999999999,"N_COORD97":2547563.7799999998,"ADDRESS":"尚頂路７１號","OBJECTID":498858},"geometry":{"x":171085.71000000089,"y":2547563.7799999993}},{"attributes":{"ID":498886,"DIS_CODE":0,"TOWNNAME":"永康區","LI":"復國里","LIN":"7鄰","STREET":"復國一路","SECT":" ","MAREA":" ","LANE":" ","ALLEY":" ","HOUSE_NO":"１３２號","E_COORD97":172729.39000000001,"N_COORD97":2545034.02,"ADDRESS":"復國一路１３２號","OBJECTID":498859},"geometry":{"x":172729.38999999966,"y":2545034.0200000033}},{"attributes":{"ID":498887,"DIS_CODE":0,"TOWNNAME":"永康區","LI":"西勢里","LIN":"7鄰","STREET":"富強路","SECT":"一段","MAREA":" ","LANE":" ","ALLEY":" ","HOUSE_NO":"２５５號","E_COORD97":175683.10999999999,"N_COORD97":2546548.7799999998,"ADDRESS":"富強路一段２５５號","OBJECTID":498860},"geometry":{"x":175683.11000000034,"y":2546548.7800000012}},{"attributes":{"ID":498888,"DIS_CODE":0,"TOWNNAME":"永康區","LI":"三民里","LIN":"7鄰","STREET":"三民街","SECT":" ","MAREA":" ","LANE":" ","ALLEY":" ","HOUSE_NO":"１４８號","E_COORD97":172758.87,"N_COORD97":2550382.54,"ADDRESS":"三民街１４８號","OBJECTID":498861},"geometry":{"x":172758.87000000011,"y":2550382.5399999991}},{"attributes":{"ID":498889,"DIS_CODE":0,"TOWNNAME":"永康區","LI":"蔦松里","LIN":"7鄰","STREET":"中正北路","SECT":" ","MAREA":" ","LANE":" ","ALLEY":" ","HOUSE_NO":"５６６之３號","E_COORD97":174197.48999999999,"N_COORD97":2549400.1000000001,"ADDRESS":"中正北路５６６之３號","OBJECTID":498862},"geometry":{"x":174197.48999999929,"y":2549400.0999999978}},{"attributes":{"ID":498890,"DIS_CODE":0,"TOWNNAME":"永康區","LI":"勝利里","LIN":"7鄰","STREET":"勝利街","SECT":" ","MAREA":" ","LANE":" ","ALLEY":" ","HOUSE_NO":"２０號之７","E_COORD97":171255.45000000001,"N_COORD97":2544584.5499999998,"ADDRESS":"勝利街２０號之７","OBJECTID":498863},"geometry":{"x":171255.45000000112,"y":2544584.5500000026}},{"attributes":{"ID":498891,"DIS_CODE":0,"TOWNNAME":"永康區","LI":"烏竹里","LIN":"7鄰","STREET":"龍橋街","SECT":" ","MAREA":" ","LANE":" ","ALLEY":" ","HOUSE_NO":"５０５號","E_COORD97":174366.29000000001,"N_COORD97":2549439.0899999999,"ADDRESS":"龍橋街５０５號","OBJECTID":498864},"geometry":{"x":174366.29000000004,"y":2549439.0900000017}},{"attributes":{"ID":498892,"DIS_CODE":0,"TOWNNAME":"永康區","LI":"西勢里","LIN":"7鄰","STREET":"富強路","SECT":"一段","MAREA":" ","LANE":" ","ALLEY":" ","HOUSE_NO":"２９７號","E_COORD97":175714.39999999999,"N_COORD97":2546641.98,"ADDRESS":"富強路一段２９７號","OBJECTID":498865},"geometry":{"x":175714.4000000013,"y":2546641.9799999986}},{"attributes":{"ID":498893,"DIS_CODE":0,"TOWNNAME":"永康區","LI":"尚頂里","LIN":"7鄰","STREET":"尚頂路","SECT":" ","MAREA":" ","LANE":" ","ALLEY":" ","HOUSE_NO":"９２號","E_COORD97":171067.95999999999,"N_COORD97":2547621.5499999998,"ADDRESS":"尚頂路９２號","OBJECTID":498866},"geometry":{"x":171067.95999999996,"y":2547621.5500000007}},{"attributes":{"ID":498894,"DIS_CODE":0,"TOWNNAME":"永康區","LI":"復國里","LIN":"7鄰","STREET":"復國一路","SECT":" ","MAREA":" ","LANE":" ","ALLEY":" ","HOUSE_NO":"２９６號","E_COORD97":172756.57999999999,"N_COORD97":2545523.52,"ADDRESS":"復國一路２９６號","OBJECTID":498867},"geometry":{"x":172756.58000000101,"y":2545523.5200000014}},{"attributes":{"ID":498895,"DIS_CODE":0,"TOWNNAME":"永康區","LI":"正強里","LIN":"7鄰","STREET":"正義街","SECT":" ","MAREA":" ","LANE":" ","ALLEY":" ","HOUSE_NO":"５６號","E_COORD97":173525.70000000001,"N_COORD97":2547644.0099999998,"ADDRESS":"正義街５６號","OBJECTID":498868},"geometry":{"x":173525.70000000112,"y":2547644.0099999998}},{"attributes":{"ID":498896,"DIS_CODE":0,"TOWNNAME":"永康區","LI":"崑山里","LIN":"7鄰","STREET":"大灣路","SECT":" ","MAREA":" ","LANE":" ","ALLEY":" ","HOUSE_NO":"９３１號","E_COORD97":173501.48000000001,"N_COORD97":2544373.1200000001,"ADDRESS":"大灣路９３１號","OBJECTID":498869},"geometry":{"x":173501.48000000138,"y":2544373.120000001}},{"attributes":{"ID":498897,"DIS_CODE":0,"TOWNNAME":"永康區","LI":"蔦松里","LIN":"7鄰","STREET":"中正北路","SECT":" ","MAREA":" ","LANE":" ","ALLEY":" ","HOUSE_NO":"５７６號","E_COORD97":174310.35000000001,"N_COORD97":2549499.4399999999,"ADDRESS":"中正北路５７６號","OBJECTID":498870},"geometry":{"x":174310.35000000056,"y":2549499.4400000032}},{"attributes":{"ID":498898,"DIS_CODE":0,"TOWNNAME":"永康區","LI":"復華里","LIN":"21鄰","STREET":"國華街","SECT":" ","MAREA":" ","LANE":"１３２巷","ALLEY":"８弄","HOUSE_NO":"１６號","E_COORD97":172889.62008699999,"N_COORD97":2546334.21924,"ADDRESS":"國華街１３２巷８弄１６號","OBJECTID":498871},"geometry":{"x":172889.62008699961,"y":2546334.2192450017}},{"attributes":{"ID":498899,"DIS_CODE":0,"TOWNNAME":"永康區","LI":"正強里","LIN":"7鄰","STREET":"正義街","SECT":" ","MAREA":" ","LANE":" ","ALLEY":" ","HOUSE_NO":"８０號","E_COORD97":173480.82000000001,"N_COORD97":2547605.7599999998,"ADDRESS":"正義街８０號","OBJECTID":498872},"geometry":{"x":173480.82000000123,"y":2547605.7600000035}},{"attributes":{"ID":498900,"DIS_CODE":0,"TOWNNAME":"永康區","LI":"永康里","LIN":"7鄰","STREET":"中山南路","SECT":" ","MAREA":" ","LANE":" ","ALLEY":" ","HOUSE_NO":"９９號","E_COORD97":170903.07000000001,"N_COORD97":2545914.75,"ADDRESS":"中山南路９９號","OBJECTID":498873},"geometry":{"x":170903.0700000003,"y":2545914.7500000019}},{"attributes":{"ID":498901,"DIS_CODE":0,"TOWNNAME":"永康區","LI":"崑山里","LIN":"7鄰","STREET":"大灣路","SECT":" ","MAREA":" ","LANE":" ","ALLEY":" ","HOUSE_NO":"８９９號","E_COORD97":173600.29000000001,"N_COORD97":2544395.3500000001,"ADDRESS":"大灣路８９９號","OBJECTID":498874},"geometry":{"x":173600.28999999911,"y":2544395.3500000015}},{"attributes":{"ID":498902,"DIS_CODE":0,"TOWNNAME":"永康區","LI":"北灣里","LIN":"7鄰","STREET":"大灣路","SECT":" ","MAREA":" ","LANE":" ","ALLEY":" ","HOUSE_NO":"１３８號","E_COORD97":175118.88,"N_COORD97":2545588.2799999998,"ADDRESS":"大灣路１３８號","OBJECTID":498875},"geometry":{"x":175118.88000000082,"y":2545588.2800000012}},{"attributes":{"ID":498903,"DIS_CODE":0,"TOWNNAME":"永康區","LI":"復興里","LIN":"7鄰","STREET":"復興路","SECT":" ","MAREA":" ","LANE":" ","ALLEY":" ","HOUSE_NO":"３３５號","E_COORD97":172224.81,"N_COORD97":2544315.3100000001,"ADDRESS":"復興路３３５號","OBJECTID":498876},"geometry":{"x":172224.80999999959,"y":2544315.3100000024}},{"attributes":{"ID":498904,"DIS_CODE":0,"TOWNNAME":"安南區","LI":"原佃里","LIN":"7鄰","STREET":"安中路","SECT":"二段","MAREA":" ","LANE":" ","ALLEY":" ","HOUSE_NO":"６６號","E_COORD97":166938.70000000001,"N_COORD97":2549617.5499999998,"ADDRESS":"安中路二段６６號","OBJECTID":498877},"geometry":{"x":166938.70000000019,"y":2549617.5500000007}},{"attributes":{"ID":498905,"DIS_CODE":0,"TOWNNAME":"安南區","LI":"原佃里","LIN":"7鄰","STREET":"安中路","SECT":"二段","MAREA":" ","LANE":" ","ALLEY":" ","HOUSE_NO":"６８號","E_COORD97":166933.14000000001,"N_COORD97":2549618.0800000001,"ADDRESS":"安中路二段６８號","OBJECTID":498878},"geometry":{"x":166933.13999999966,"y":2549618.0800000038}},{"attributes":{"ID":498906,"DIS_CODE":0,"TOWNNAME":"安南區","LI":"原佃里","LIN":"7鄰","STREET":"安中路","SECT":"二段","MAREA":" ","LANE":" ","ALLEY":" ","HOUSE_NO":"７０號","E_COORD97":166929.17000000001,"N_COORD97":2549618.8700000001,"ADDRESS":"安中路二段７０號","OBJECTID":498879},"geometry":{"x":166929.17000000086,"y":2549618.870000001}},{"attributes":{"ID":498907,"DIS_CODE":0,"TOWNNAME":"安南區","LI":"原佃里","LIN":"7鄰","STREET":"安中路","SECT":"二段","MAREA":" ","LANE":" ","ALLEY":" ","HOUSE_NO":"７２號","E_COORD97":166924.67999999999,"N_COORD97":2549620.46,"ADDRESS":"安中路二段７２號","OBJECTID":498880},"geometry":{"x":166924.6799999997,"y":2549620.4600000028}},{"attributes":{"ID":498908,"DIS_CODE":0,"TOWNNAME":"安南區","LI":"原佃里","LIN":"7鄰","STREET":"安中路","SECT":"二段","MAREA":" ","LANE":" ","ALLEY":" ","HOUSE_NO":"７６號","E_COORD97":166920.17999999999,"N_COORD97":2549622.0499999998,"ADDRESS":"安中路二段７６號","OBJECTID":498881},"geometry":{"x":166920.18000000063,"y":2549622.0499999989}},{"attributes":{"ID":498909,"DIS_CODE":0,"TOWNNAME":"安南區","LI":"原佃里","LIN":"7鄰","STREET":"安中路","SECT":"二段","MAREA":" ","LANE":" ","ALLEY":" ","HOUSE_NO":"７８號","E_COORD97":166917.53,"N_COORD97":2549622.5800000001,"ADDRESS":"安中路二段７８號","OBJECTID":498882},"geometry":{"x":166917.53000000026,"y":2549622.5800000019}},{"attributes":{"ID":498910,"DIS_CODE":0,"TOWNNAME":"安南區","LI":"\u25A0田里","LIN":"7鄰","STREET":"工業三路","SECT":" ","MAREA":" ","LANE":" ","ALLEY":" ","HOUSE_NO":"２０號","E_COORD97":163341.98000000001,"N_COORD97":2548340.8799999999,"ADDRESS":"工業三路２０號","OBJECTID":498883},"geometry":{"x":163341.98000000231,"y":2548340.8800000008}},{"attributes":{"ID":498911,"DIS_CODE":0,"TOWNNAME":"安南區","LI":"\u25A0田里","LIN":"7鄰","STREET":"工業三路","SECT":" ","MAREA":" ","LANE":" ","ALLEY":" ","HOUSE_NO":"２６號","E_COORD97":163318.17000000001,"N_COORD97":2548373.8300000001,"ADDRESS":"工業三路２６號","OBJECTID":498884},"geometry":{"x":163318.17000000179,"y":2548373.8300000001}},{"attributes":{"ID":498912,"DIS_CODE":0,"TOWNNAME":"安南區","LI":"\u25A0田里","LIN":"7鄰","STREET":"工業三路","SECT":" ","MAREA":" ","LANE":" ","ALLEY":" ","HOUSE_NO":"２１號","E_COORD97":163357.85999999999,"N_COORD97":2548164.27,"ADDRESS":"工業三路２１號","OBJECTID":498885},"geometry":{"x":163357.8600000022,"y":2548164.2699999996}},{"attributes":{"ID":498913,"DIS_CODE":0,"TOWNNAME":"安南區","LI":"\u25A0田里","LIN":"7鄰","STREET":"本田路","SECT":"二段","MAREA":" ","LANE":" ","ALLEY":" ","HOUSE_NO":"３９１號","E_COORD97":163288.64999999999,"N_COORD97":2548750.04,"ADDRESS":"本田路二段３９１號","OBJECTID":498886},"geometry":{"x":163288.6500000013,"y":2548750.040000001}},{"attributes":{"ID":498914,"DIS_CODE":0,"TOWNNAME":"安南區","LI":"\u25A0田里","LIN":"7鄰","STREET":"本田路","SECT":"二段","MAREA":" ","LANE":" ","ALLEY":" ","HOUSE_NO":"４０７號","E_COORD97":163585.89999999999,"N_COORD97":2549022.4500000002,"ADDRESS":"本田路二段４０７號","OBJECTID":498887},"geometry":{"x":163585.90000000037,"y":2549022.4500000011}},{"attributes":{"ID":498915,"DIS_CODE":0,"TOWNNAME":"安南區","LI":"\u25A0田里","LIN":"7鄰","STREET":"本田路","SECT":"二段","MAREA":" ","LANE":" ","ALLEY":" ","HOUSE_NO":"３９９號","E_COORD97":163470.64999999999,"N_COORD97":2548849.1000000001,"ADDRESS":"本田路二段３９９號","OBJECTID":498888},"geometry":{"x":163470.65000000037,"y":2548849.1000000015}},{"attributes":{"ID":498916,"DIS_CODE":0,"TOWNNAME":"安南區","LI":"\u25A0田里","LIN":"7鄰","STREET":"工業二路","SECT":" ","MAREA":" ","LANE":" ","ALLEY":" ","HOUSE_NO":"４２號","E_COORD97":163370,"N_COORD97":2548835.7599999998,"ADDRESS":"工業二路４２號","OBJECTID":498889},"geometry":{"x":163370,"y":2548835.7599999998}},{"attributes":{"ID":498917,"DIS_CODE":0,"TOWNNAME":"安南區","LI":"\u25A0田里","LIN":"7鄰","STREET":"工業一路","SECT":" ","MAREA":" ","LANE":" ","ALLEY":" ","HOUSE_NO":"８號","E_COORD97":163410,"N_COORD97":2548900.21,"ADDRESS":"工業一路８號","OBJECTID":498890},"geometry":{"x":163410,"y":2548900.2100000028}},{"attributes":{"ID":498918,"DIS_CODE":0,"TOWNNAME":"安南區","LI":"\u25A0田里","LIN":"7鄰","STREET":"工業一路","SECT":" ","MAREA":" ","LANE":" ","ALLEY":" ","HOUSE_NO":"１號","E_COORD97":163319.51999999999,"N_COORD97":2548899.2599999998,"ADDRESS":"工業一路１號","OBJECTID":498891},"geometry":{"x":163319.52000000048,"y":2548899.2600000016}},{"attributes":{"ID":498919,"DIS_CODE":0,"TOWNNAME":"安南區","LI":"\u25A0田里","LIN":"7鄰","STREET":"工業二路","SECT":" ","MAREA":" ","LANE":" ","ALLEY":" ","HOUSE_NO":"６８號","E_COORD97":163139.81,"N_COORD97":2549051.98,"ADDRESS":"工業二路６８號","OBJECTID":498892},"geometry":{"x":163139.80999999959,"y":2549051.9800000004}},{"attributes":{"ID":498920,"DIS_CODE":0,"TOWNNAME":"安南區","LI":"\u25A0田里","LIN":"7鄰","STREET":"工業二路","SECT":" ","MAREA":" ","LANE":" ","ALLEY":" ","HOUSE_NO":"７０號","E_COORD97":163068.69,"N_COORD97":2549085,"ADDRESS":"工業二路７０號","OBJECTID":498893},"geometry":{"x":163068.69000000041,"y":2549085}},{"attributes":{"ID":498921,"DIS_CODE":0,"TOWNNAME":"安南區","LI":"\u25A0田里","LIN":"7鄰","STREET":"科技一路","SECT":" ","MAREA":" ","LANE":" ","ALLEY":" ","HOUSE_NO":"３號","E_COORD97":163216.64999999999,"N_COORD97":2549299.9500000002,"ADDRESS":"科技一路３號","OBJECTID":498894},"geometry":{"x":163216.65000000037,"y":2549299.9500000011}},{"attributes":{"ID":498922,"DIS_CODE":0,"TOWNNAME":"安南區","LI":"\u25A0田里","LIN":"7鄰","STREET":"工業一路","SECT":" ","MAREA":" ","LANE":" ","ALLEY":" ","HOUSE_NO":"１８號","E_COORD97":163348.73000000001,"N_COORD97":2549216.7599999998,"ADDRESS":"工業一路１８號","OBJECTID":498895},"geometry":{"x":163348.73000000231,"y":2549216.7600000016}},{"attributes":{"ID":498923,"DIS_CODE":0,"TOWNNAME":"安南區","LI":"\u25A0田里","LIN":"7鄰","STREET":"工業一路","SECT":" ","MAREA":" ","LANE":" ","ALLEY":" ","HOUSE_NO":"２８號","E_COORD97":163295.70999999999,"N_COORD97":2549257.3999999999,"ADDRESS":"工業一路２８號","OBJECTID":498896},"geometry":{"x":163295.70999999903,"y":2549257.4000000022}},{"attributes":{"ID":498924,"DIS_CODE":0,"TOWNNAME":"安南區","LI":"\u25A0田里","LIN":"7鄰","STREET":"工業二路","SECT":" ","MAREA":" ","LANE":" ","ALLEY":" ","HOUSE_NO":"３９號","E_COORD97":163044.5,"N_COORD97":2548979.6000000001,"ADDRESS":"工業二路３９號","OBJECTID":498897},"geometry":{"x":163044.5,"y":2548979.5999999996}},{"attributes":{"ID":498925,"DIS_CODE":0,"TOWNNAME":"安南區","LI":"\u25A0田里","LIN":"7鄰","STREET":"工業二路","SECT":" ","MAREA":" ","LANE":" ","ALLEY":" ","HOUSE_NO":"３７號","E_COORD97":163085.14000000001,"N_COORD97":2548957.3700000001,"ADDRESS":"工業二路３７號","OBJECTID":498898},"geometry":{"x":163085.13999999966,"y":2548957.3700000029}},{"attributes":{"ID":498926,"DIS_CODE":0,"TOWNNAME":"安南區","LI":"\u25A0田里","LIN":"7鄰","STREET":"工業二路","SECT":" ","MAREA":" ","LANE":" ","ALLEY":" ","HOUSE_NO":"３３號","E_COORD97":163187.69,"N_COORD97":2548864.98,"ADDRESS":"工業二路３３號","OBJECTID":498899},"geometry":{"x":163187.69000000041,"y":2548864.9800000004}},{"attributes":{"ID":498927,"DIS_CODE":0,"TOWNNAME":"安南區","LI":"\u25A0田里","LIN":"7鄰","STREET":"本田路","SECT":"二段","MAREA":" ","LANE":" ","ALLEY":" ","HOUSE_NO":"３８９號","E_COORD97":163147.67999999999,"N_COORD97":2548645.27,"ADDRESS":"本田路二段３８９號","OBJECTID":498900},"geometry":{"x":163147.6799999997,"y":2548645.2699999996}},{"attributes":{"ID":498928,"DIS_CODE":0,"TOWNNAME":"安南區","LI":"\u25A0田里","LIN":"7鄰","STREET":"工業三路","SECT":" ","MAREA":" ","LANE":" ","ALLEY":" ","HOUSE_NO":"３０號","E_COORD97":163079.10000000001,"N_COORD97":2548592.2400000002,"ADDRESS":"工業三路３０號","OBJECTID":498901},"geometry":{"x":163079.0999999987,"y":2548592.2400000002}},{"attributes":{"ID":498929,"DIS_CODE":0,"TOWNNAME":"安南區","LI":"\u25A0田里","LIN":"7鄰","STREET":"工業三路","SECT":" ","MAREA":" ","LANE":" ","ALLEY":" ","HOUSE_NO":"５０號","E_COORD97":162918.13,"N_COORD97":2548724.0099999998,"ADDRESS":"工業三路５０號","OBJECTID":498902},"geometry":{"x":162918.12999999896,"y":2548724.0100000016}},{"attributes":{"ID":498930,"DIS_CODE":0,"TOWNNAME":"南區","LI":"明亮里","LIN":"7鄰","STREET":"新都路","SECT":" ","MAREA":" ","LANE":" ","ALLEY":" ","HOUSE_NO":"５０８號","E_COORD97":167159.35000000001,"N_COORD97":2540888.3999999999,"ADDRESS":"新都路５０８號","OBJECTID":498903},"geometry":{"x":167159.34999999963,"y":2540888.4000000004}},{"attributes":{"ID":498931,"DIS_CODE":0,"TOWNNAME":"南區","LI":"明亮里","LIN":"7鄰","STREET":"新都路","SECT":" ","MAREA":" ","LANE":" ","ALLEY":" ","HOUSE_NO":"５１０號","E_COORD97":167154.09,"N_COORD97":2540886.1400000001,"ADDRESS":"新都路５１０號","OBJECTID":498904},"geometry":{"x":167154.08999999985,"y":2540886.1400000006}},{"attributes":{"ID":498932,"DIS_CODE":0,"TOWNNAME":"南區","LI":"明亮里","LIN":"7鄰","STREET":"新都路","SECT":" ","MAREA":" ","LANE":" ","ALLEY":" ","HOUSE_NO":"５１６號","E_COORD97":167144.69,"N_COORD97":2540887.6499999999,"ADDRESS":"新都路５１６號","OBJECTID":498905},"geometry":{"x":167144.69000000134,"y":2540887.6500000041}},{"attributes":{"ID":498933,"DIS_CODE":0,"TOWNNAME":"南區","LI":"明德里","LIN":"7鄰","STREET":"新都路","SECT":" ","MAREA":" ","LANE":" ","ALLEY":" ","HOUSE_NO":"１４７號","E_COORD97":168209.66,"N_COORD97":2541331.0600000001,"ADDRESS":"新都路１４７號","OBJECTID":498906},"geometry":{"x":168209.66000000108,"y":2541331.0600000005}},{"attributes":{"ID":498934,"DIS_CODE":0,"TOWNNAME":"南區","LI":"明興里","LIN":"7鄰","STREET":"金華路","SECT":"一段","MAREA":" ","LANE":" ","ALLEY":" ","HOUSE_NO":"１５６號","E_COORD97":166940.39000000001,"N_COORD97":2540656.6600000001,"ADDRESS":"金華路一段１５６號","OBJECTID":498907},"geometry":{"x":166940.38999999966,"y":2540656.6600000039}},{"attributes":{"ID":498935,"DIS_CODE":0,"TOWNNAME":"東區","LI":"東光里","LIN":"7鄰","STREET":"東平路","SECT":" ","MAREA":" ","LANE":" ","ALLEY":" ","HOUSE_NO":"１４７號","E_COORD97":171014.03,"N_COORD97":2543964.0099999998,"ADDRESS":"東平路１４７號","OBJECTID":498908},"geometry":{"x":171014.03000000119,"y":2543964.0100000016}},{"attributes":{"ID":498936,"DIS_CODE":0,"TOWNNAME":"東區","LI":"東光里","LIN":"7鄰","STREET":"東平路","SECT":" ","MAREA":" ","LANE":" ","ALLEY":" ","HOUSE_NO":"１４９號","E_COORD97":171009.59,"N_COORD97":2543966.8999999999,"ADDRESS":"東平路１４９號","OBJECTID":498909},"geometry":{"x":171009.59000000171,"y":2543966.9000000004}},{"attributes":{"ID":498937,"DIS_CODE":0,"TOWNNAME":"東區","LI":"東光里","LIN":"7鄰","STREET":"東平路","SECT":" ","MAREA":" ","LANE":" ","ALLEY":" ","HOUSE_NO":"１５１號","E_COORD97":171004.51999999999,"N_COORD97":2543964.79,"ADDRESS":"東平路１５１號","OBJECTID":498910},"geometry":{"x":171004.51999999955,"y":2543964.790000001}},{"attributes":{"ID":498938,"DIS_CODE":0,"TOWNNAME":"東區","LI":"東光里","LIN":"7鄰","STREET":"東平路","SECT":" ","MAREA":" ","LANE":" ","ALLEY":" ","HOUSE_NO":"１５３號","E_COORD97":171000.23000000001,"N_COORD97":2543967.52,"ADDRESS":"東平路１５３號","OBJECTID":498911},"geometry":{"x":171000.23000000045,"y":2543967.5200000014}},{"attributes":{"ID":498939,"DIS_CODE":0,"TOWNNAME":"東區","LI":"東光里","LIN":"7鄰","STREET":"東平路","SECT":" ","MAREA":" ","LANE":" ","ALLEY":" ","HOUSE_NO":"１５５號","E_COORD97":170995.53,"N_COORD97":2543964.9900000002,"ADDRESS":"東平路１５５號","OBJECTID":498912},"geometry":{"x":170995.53000000119,"y":2543964.9900000021}},{"attributes":{"ID":498940,"DIS_CODE":0,"TOWNNAME":"東區","LI":"東光里","LIN":"7鄰","STREET":"東平路","SECT":" ","MAREA":" ","LANE":" ","ALLEY":" ","HOUSE_NO":"１５９號","E_COORD97":170985.95000000001,"N_COORD97":2543965.2799999998,"ADDRESS":"東平路１５９號","OBJECTID":498913},"geometry":{"x":170985.95000000112,"y":2543965.2800000012}},{"attributes":{"ID":498941,"DIS_CODE":0,"TOWNNAME":"東區","LI":"東光里","LIN":"7鄰","STREET":"怡東路","SECT":" ","MAREA":" ","LANE":" ","ALLEY":" ","HOUSE_NO":"１１８號","E_COORD97":170911.10999999999,"N_COORD97":2543855.3900000001,"ADDRESS":"怡東路１１８號","OBJECTID":498914},"geometry":{"x":170911.11000000034,"y":2543855.3900000006}},{"attributes":{"ID":498942,"DIS_CODE":0,"TOWNNAME":"東區","LI":"崇成里","LIN":"7鄰","STREET":"崇德十二街","SECT":" ","MAREA":" ","LANE":" ","ALLEY":" ","HOUSE_NO":"８３號","E_COORD97":171001.91,"N_COORD97":2541368.9199999999,"ADDRESS":"崇德十二街８３號","OBJECTID":498915},"geometry":{"x":171001.91000000015,"y":2541368.9199999999}},{"attributes":{"ID":498943,"DIS_CODE":0,"TOWNNAME":"東區","LI":"崇德里","LIN":"7鄰","STREET":"崇德路","SECT":" ","MAREA":" ","LANE":" ","ALLEY":" ","HOUSE_NO":"４８１號","E_COORD97":170728.47,"N_COORD97":2541681.25,"ADDRESS":"崇德路４８１號","OBJECTID":498916},"geometry":{"x":170728.46999999974,"y":2541681.2500000019}},{"attributes":{"ID":498944,"DIS_CODE":0,"TOWNNAME":"東區","LI":"崇德里","LIN":"7鄰","STREET":"崇德七街","SECT":" ","MAREA":" ","LANE":" ","ALLEY":" ","HOUSE_NO":"７１號","E_COORD97":170846.20000000001,"N_COORD97":2541823.1699999999,"ADDRESS":"崇德七街７１號","OBJECTID":498917},"geometry":{"x":170846.20000000019,"y":2541823.1700000018}},{"attributes":{"ID":498945,"DIS_CODE":0,"TOWNNAME":"東區","LI":"裕聖里","LIN":"7鄰","STREET":"裕敬路","SECT":" ","MAREA":" ","LANE":" ","ALLEY":" ","HOUSE_NO":"４０２號","E_COORD97":172793.10999999999,"N_COORD97":2542239.1000000001,"ADDRESS":"裕敬路４０２號","OBJECTID":498918},"geometry":{"x":172793.11000000034,"y":2542239.0999999996}},{"attributes":{"ID":498946,"DIS_CODE":0,"TOWNNAME":"東區","LI":"裕聖里","LIN":"7鄰","STREET":"裕敬路","SECT":" ","MAREA":" ","LANE":" ","ALLEY":" ","HOUSE_NO":"４０６號","E_COORD97":172796.81,"N_COORD97":2542239.1000000001,"ADDRESS":"裕敬路４０６號","OBJECTID":498919},"geometry":{"x":172796.81000000052,"y":2542239.0999999996}},{"attributes":{"ID":498947,"DIS_CODE":0,"TOWNNAME":"東區","LI":"裕聖里","LIN":"7鄰","STREET":"裕敬路","SECT":" ","MAREA":" ","LANE":" ","ALLEY":" ","HOUSE_NO":"４０８號","E_COORD97":172800.35000000001,"N_COORD97":2542240.6099999999,"ADDRESS":"裕敬路４０８號","OBJECTID":498920},"geometry":{"x":172800.34999999963,"y":2542240.6100000013}},{"attributes":{"ID":498948,"DIS_CODE":0,"TOWNNAME":"東區","LI":"裕聖里","LIN":"7鄰","STREET":"裕敬路","SECT":" ","MAREA":" ","LANE":" ","ALLEY":" ","HOUSE_NO":"４１０號","E_COORD97":172803.04000000001,"N_COORD97":2542238.2599999998,"ADDRESS":"裕敬路４１０號","OBJECTID":498921},"geometry":{"x":172803.04000000004,"y":2542238.2599999998}},{"attributes":{"ID":498949,"DIS_CODE":0,"TOWNNAME":"新市區","LI":"新市里","LIN":"7鄰","STREET":"中興街","SECT":" ","MAREA":" ","LANE":" ","ALLEY":" ","HOUSE_NO":"１４３號","E_COORD97":177469.37,"N_COORD97":2553088.75,"ADDRESS":"中興街１４３號","OBJECTID":498922},"geometry":{"x":177469.37000000011,"y":2553088.7500000019}},{"attributes":{"ID":498950,"DIS_CODE":0,"TOWNNAME":"新市區","LI":"新市里","LIN":"7鄰","STREET":"中正路","SECT":" ","MAREA":" ","LANE":" ","ALLEY":" ","HOUSE_NO":"２７６號","E_COORD97":177457.29000000001,"N_COORD97":2553038.5,"ADDRESS":"中正路２７６號","OBJECTID":498923},"geometry":{"x":177457.29000000097,"y":2553038.5}},{"attributes":{"ID":498951,"DIS_CODE":0,"TOWNNAME":"新市區","LI":"新市里","LIN":"7鄰","STREET":"中正路","SECT":" ","MAREA":" ","LANE":" ","ALLEY":" ","HOUSE_NO":"２８４號","E_COORD97":177459.79000000001,"N_COORD97":2553054.75,"ADDRESS":"中正路２８４號","OBJECTID":498924},"geometry":{"x":177459.79000000004,"y":2553054.7500000037}},{"attributes":{"ID":498952,"DIS_CODE":0,"TOWNNAME":"新市區","LI":"新市里","LIN":"7鄰","STREET":"中興街","SECT":" ","MAREA":" ","LANE":" ","ALLEY":" ","HOUSE_NO":"１２７號","E_COORD97":177505.62,"N_COORD97":2553096.25,"ADDRESS":"中興街１２７號","OBJECTID":498925},"geometry":{"x":177505.62000000197,"y":2553096.2500000019}},{"attributes":{"ID":498953,"DIS_CODE":0,"TOWNNAME":"新市區","LI":"新市里","LIN":"7鄰","STREET":"中正路","SECT":" ","MAREA":" ","LANE":" ","ALLEY":" ","HOUSE_NO":"２８０號","E_COORD97":177461.95000000001,"N_COORD97":2553045.75,"ADDRESS":"中正路２８０號","OBJECTID":498926},"geometry":{"x":177461.95000000019,"y":2553045.7500000019}},{"attributes":{"ID":498954,"DIS_CODE":0,"TOWNNAME":"新市區","LI":"新市里","LIN":"7鄰","STREET":"中興街","SECT":" ","MAREA":" ","LANE":" ","ALLEY":" ","HOUSE_NO":"１４５號","E_COORD97":177462.51000000001,"N_COORD97":2553074.75,"ADDRESS":"中興街１４５號","OBJECTID":498927},"geometry":{"x":177462.51000000071,"y":2553074.7500000037}},{"attributes":{"ID":498955,"DIS_CODE":0,"TOWNNAME":"新市區","LI":"新市里","LIN":"7鄰","STREET":"中正路","SECT":" ","MAREA":" ","LANE":" ","ALLEY":" ","HOUSE_NO":"２７８號","E_COORD97":177461.23999999999,"N_COORD97":2553042,"ADDRESS":"中正路２７８號","OBJECTID":498928},"geometry":{"x":177461.24000000115,"y":2553042}},{"attributes":{"ID":498956,"DIS_CODE":0,"TOWNNAME":"新市區","LI":"新市里","LIN":"7鄰","STREET":"中興街","SECT":" ","MAREA":" ","LANE":" ","ALLEY":" ","HOUSE_NO":"１３９號","E_COORD97":177479.51000000001,"N_COORD97":2553095.75,"ADDRESS":"中興街１３９號","OBJECTID":498929},"geometry":{"x":177479.51000000071,"y":2553095.7500000019}},{"attributes":{"ID":498957,"DIS_CODE":0,"TOWNNAME":"新市區","LI":"新市里","LIN":"7鄰","STREET":"中興街","SECT":" ","MAREA":" ","LANE":" ","ALLEY":" ","HOUSE_NO":"１３３號","E_COORD97":177492.20999999999,"N_COORD97":2553095.25,"ADDRESS":"中興街１３３號","OBJECTID":498930},"geometry":{"x":177492.20999999996,"y":2553095.2500000037}},{"attributes":{"ID":498958,"DIS_CODE":0,"TOWNNAME":"新市區","LI":"新市里","LIN":"7鄰","STREET":"中正路","SECT":" ","MAREA":" ","LANE":" ","ALLEY":" ","HOUSE_NO":"２８６號","E_COORD97":177460.35000000001,"N_COORD97":2553059,"ADDRESS":"中正路２８６號","OBJECTID":498931},"geometry":{"x":177460.34999999963,"y":2553059}},{"attributes":{"ID":498959,"DIS_CODE":0,"TOWNNAME":"新市區","LI":"新市里","LIN":"7鄰","STREET":"中興街","SECT":" ","MAREA":" ","LANE":" ","ALLEY":" ","HOUSE_NO":"１２５號","E_COORD97":177510.20999999999,"N_COORD97":2553096.5,"ADDRESS":"中興街１２５號","OBJECTID":498932},"geometry":{"x":177510.21000000089,"y":2553096.5}},{"attributes":{"ID":498960,"DIS_CODE":0,"TOWNNAME":"新市區","LI":"新市里","LIN":"7鄰","STREET":"中興街","SECT":" ","MAREA":" ","LANE":" ","ALLEY":" ","HOUSE_NO":"１３１號","E_COORD97":177496.57000000001,"N_COORD97":2553095.25,"ADDRESS":"中興街１３１號","OBJECTID":498933},"geometry":{"x":177496.57000000123,"y":2553095.2500000037}},{"attributes":{"ID":498961,"DIS_CODE":0,"TOWNNAME":"新市區","LI":"新和里","LIN":"7鄰","STREET":"富強路","SECT":" ","MAREA":" ","LANE":" ","ALLEY":" ","HOUSE_NO":"５７號","E_COORD97":177264.29000000001,"N_COORD97":2552410.25,"ADDRESS":"富強路５７號","OBJECTID":498934},"geometry":{"x":177264.29000000097,"y":2552410.2500000037}},{"attributes":{"ID":498962,"DIS_CODE":0,"TOWNNAME":"中西區","LI":"郡王里","LIN":"7鄰","STREET":"大埔街","SECT":" ","MAREA":" ","LANE":" ","ALLEY":" ","HOUSE_NO":"７９號","E_COORD97":168797.23000000001,"N_COORD97":2543072.0499999998,"ADDRESS":"大埔街７９號","OBJECTID":498935},"geometry":{"x":168797.23000000138,"y":2543072.0500000045}},{"attributes":{"ID":498963,"DIS_CODE":0,"TOWNNAME":"中西區","LI":"郡王里","LIN":"7鄰","STREET":"大埔街","SECT":" ","MAREA":" ","LANE":" ","ALLEY":" ","HOUSE_NO":"８１號","E_COORD97":168792.14000000001,"N_COORD97":2543073.0099999998,"ADDRESS":"大埔街８１號","OBJECTID":498936},"geometry":{"x":168792.1400000006,"y":2543073.0099999998}},{"attributes":{"ID":498964,"DIS_CODE":0,"TOWNNAME":"中西區","LI":"郡王里","LIN":"7鄰","STREET":"大埔街","SECT":" ","MAREA":" ","LANE":" ","ALLEY":" ","HOUSE_NO":"８１號之１","E_COORD97":168787.85000000001,"N_COORD97":2543073.54,"ADDRESS":"大埔街８１號之１","OBJECTID":498937},"geometry":{"x":168787.84999999963,"y":2543073.5399999972}},{"attributes":{"ID":498965,"DIS_CODE":0,"TOWNNAME":"中西區","LI":"郡王里","LIN":"7鄰","STREET":"大埔街","SECT":" ","MAREA":" ","LANE":" ","ALLEY":" ","HOUSE_NO":"８１號之２","E_COORD97":168784.35000000001,"N_COORD97":2543074.6699999999,"ADDRESS":"大埔街８１號之２","OBJECTID":498938},"geometry":{"x":168784.35000000056,"y":2543074.6700000018}},{"attributes":{"ID":498966,"DIS_CODE":0,"TOWNNAME":"中西區","LI":"郡王里","LIN":"7鄰","STREET":"大埔街","SECT":" ","MAREA":" ","LANE":" ","ALLEY":" ","HOUSE_NO":"８３號","E_COORD97":168778.48999999999,"N_COORD97":2543075.02,"ADDRESS":"大埔街８３號","OBJECTID":498939},"geometry":{"x":168778.49000000115,"y":2543075.0200000014}},{"attributes":{"ID":498967,"DIS_CODE":0,"TOWNNAME":"中西區","LI":"郡王里","LIN":"7鄰","STREET":"大埔街","SECT":" ","MAREA":" ","LANE":" ","ALLEY":" ","HOUSE_NO":"８５號","E_COORD97":168770.78,"N_COORD97":2543075.02,"ADDRESS":"大埔街８５號","OBJECTID":498940},"geometry":{"x":168770.78000000026,"y":2543075.0200000014}},{"attributes":{"ID":498968,"DIS_CODE":0,"TOWNNAME":"中西區","LI":"郡王里","LIN":"7鄰","STREET":"大埔街","SECT":" ","MAREA":" ","LANE":" ","ALLEY":" ","HOUSE_NO":"８７號","E_COORD97":168768.76999999999,"N_COORD97":2543075.46,"ADDRESS":"大埔街８７號","OBJECTID":498941},"geometry":{"x":168768.77000000142,"y":2543075.4600000009}},{"attributes":{"ID":498969,"DIS_CODE":0,"TOWNNAME":"中西區","LI":"郡王里","LIN":"7鄰","STREET":"大埔街","SECT":" ","MAREA":" ","LANE":" ","ALLEY":" ","HOUSE_NO":"９１號","E_COORD97":168753.22,"N_COORD97":2543070.0600000001,"ADDRESS":"大埔街９１號","OBJECTID":498942},"geometry":{"x":168753.21999999974,"y":2543070.0600000005}},{"attributes":{"ID":498970,"DIS_CODE":0,"TOWNNAME":"中西區","LI":"郡王里","LIN":"7鄰","STREET":"大埔街","SECT":" ","MAREA":" ","LANE":" ","ALLEY":" ","HOUSE_NO":"９３號","E_COORD97":168749.31,"N_COORD97":2543070.8500000001,"ADDRESS":"大埔街９３號","OBJECTID":498943},"geometry":{"x":168749.30999999959,"y":2543070.8499999996}},{"attributes":{"ID":498971,"DIS_CODE":0,"TOWNNAME":"新營區","LI":"忠政里","LIN":"13鄰","STREET":"中正路","SECT":" ","MAREA":" ","LANE":"１１５巷","ALLEY":"３３弄","HOUSE_NO":"２號","E_COORD97":179891.26000000001,"N_COORD97":2579654.1000000001,"ADDRESS":"中正路１１５巷３３弄２號","OBJECTID":498944},"geometry":{"x":179891.26000000164,"y":2579654.1000000015}},{"attributes":{"ID":498972,"DIS_CODE":0,"TOWNNAME":"中西區","LI":"郡王里","LIN":"7鄰","STREET":"大埔街","SECT":" ","MAREA":" ","LANE":" ","ALLEY":" ","HOUSE_NO":"９５號","E_COORD97":168745.85999999999,"N_COORD97":2543071.98,"ADDRESS":"大埔街９５號","OBJECTID":498945},"geometry":{"x":168745.86000000127,"y":2543071.9799999986}},{"attributes":{"ID":498973,"DIS_CODE":0,"TOWNNAME":"中西區","LI":"郡王里","LIN":"7鄰","STREET":"大埔街","SECT":" ","MAREA":" ","LANE":" ","ALLEY":" ","HOUSE_NO":"９５號之１","E_COORD97":168742.35000000001,"N_COORD97":2543072.2400000002,"ADDRESS":"大埔街９５號之１","OBJECTID":498946},"geometry":{"x":168742.34999999963,"y":2543072.2400000002}},{"attributes":{"ID":498974,"DIS_CODE":0,"TOWNNAME":"中西區","LI":"郡王里","LIN":"7鄰","STREET":"大埔街","SECT":" ","MAREA":" ","LANE":" ","ALLEY":" ","HOUSE_NO":"９５號之２","E_COORD97":168739.04000000001,"N_COORD97":2543072.7000000002,"ADDRESS":"大埔街９５號之２","OBJECTID":498947},"geometry":{"x":168739.04000000097,"y":2543072.700000003}},{"attributes":{"ID":498975,"DIS_CODE":0,"TOWNNAME":"中西區","LI":"郡王里","LIN":"7鄰","STREET":"大埔街","SECT":" ","MAREA":" ","LANE":" ","ALLEY":" ","HOUSE_NO":"９５號之３","E_COORD97":168735.73999999999,"N_COORD97":2543073.1699999999,"ADDRESS":"大埔街９５號之３","OBJECTID":498948},"geometry":{"x":168735.74000000209,"y":2543073.1699999999}},{"attributes":{"ID":498976,"DIS_CODE":0,"TOWNNAME":"中西區","LI":"郡王里","LIN":"7鄰","STREET":"大埔街","SECT":" ","MAREA":" ","LANE":" ","ALLEY":" ","HOUSE_NO":"９５號之４","E_COORD97":168731.89999999999,"N_COORD97":2543073.1699999999,"ADDRESS":"大埔街９５號之４","OBJECTID":498949},"geometry":{"x":168731.9000000013,"y":2543073.1699999999}},{"attributes":{"ID":498977,"DIS_CODE":0,"TOWNNAME":"中西區","LI":"郡王里","LIN":"7鄰","STREET":"大埔街","SECT":" ","MAREA":" ","LANE":" ","ALLEY":" ","HOUSE_NO":"９５號之５","E_COORD97":168727.39999999999,"N_COORD97":2543073.2999999998,"ADDRESS":"大埔街９５號之５","OBJECTID":498950},"geometry":{"x":168727.40000000037,"y":2543073.3000000007}},{"attributes":{"ID":498978,"DIS_CODE":0,"TOWNNAME":"永康區","LI":"烏竹里","LIN":"7鄰","STREET":"龍橋街","SECT":" ","MAREA":" ","LANE":" ","ALLEY":" ","HOUSE_NO":"４５５號","E_COORD97":174387.92999999999,"N_COORD97":2549320.25,"ADDRESS":"龍橋街４５５號","OBJECTID":498951},"geometry":{"x":174387.93000000063,"y":2549320.25}},{"attributes":{"ID":498979,"DIS_CODE":0,"TOWNNAME":"中西區","LI":"小西里","LIN":"7鄰","STREET":"西門路","SECT":"一段","MAREA":" ","LANE":" ","ALLEY":" ","HOUSE_NO":"６７４號","E_COORD97":167749.76999999999,"N_COORD97":2543303.9700000002,"ADDRESS":"西門路一段６７４號","OBJECTID":498952},"geometry":{"x":167749.76999999955,"y":2543303.9700000025}},{"attributes":{"ID":498980,"DIS_CODE":0,"TOWNNAME":"中西區","LI":"法華里","LIN":"7鄰","STREET":"健康路","SECT":"一段","MAREA":" ","LANE":" ","ALLEY":" ","HOUSE_NO":"５６號","E_COORD97":169032.32999999999,"N_COORD97":2542446.0299999998,"ADDRESS":"健康路一段５６號","OBJECTID":498953},"geometry":{"x":169032.33000000101,"y":2542446.0299999993}},{"attributes":{"ID":498981,"DIS_CODE":0,"TOWNNAME":"中西區","LI":"法華里","LIN":"7鄰","STREET":"健康路","SECT":"一段","MAREA":" ","LANE":" ","ALLEY":" ","HOUSE_NO":"５８號","E_COORD97":169028.14999999999,"N_COORD97":2542442.3199999998,"ADDRESS":"健康路一段５８號","OBJECTID":498954},"geometry":{"x":169028.15000000224,"y":2542442.3199999984}},{"attributes":{"ID":498982,"DIS_CODE":0,"TOWNNAME":"中西區","LI":"法華里","LIN":"7鄰","STREET":"健康路","SECT":"一段","MAREA":" ","LANE":" ","ALLEY":" ","HOUSE_NO":"６０號","E_COORD97":169023.97,"N_COORD97":2542445.1000000001,"ADDRESS":"健康路一段６０號","OBJECTID":498955},"geometry":{"x":169023.97000000067,"y":2542445.0999999996}},{"attributes":{"ID":498983,"DIS_CODE":0,"TOWNNAME":"中西區","LI":"法華里","LIN":"7鄰","STREET":"健康路","SECT":"一段","MAREA":" ","LANE":" ","ALLEY":" ","HOUSE_NO":"６２號","E_COORD97":169020.26000000001,"N_COORD97":2542448.8100000001,"ADDRESS":"健康路一段６２號","OBJECTID":498956},"geometry":{"x":169020.26000000071,"y":2542448.8100000005}},{"attributes":{"ID":498984,"DIS_CODE":0,"TOWNNAME":"中西區","LI":"法華里","LIN":"7鄰","STREET":"健康路","SECT":"一段","MAREA":" ","LANE":" ","ALLEY":" ","HOUSE_NO":"６４號","E_COORD97":169015.16,"N_COORD97":2542446.4900000002,"ADDRESS":"健康路一段６４號","OBJECTID":498957},"geometry":{"x":169015.16000000015,"y":2542446.4900000002}},{"attributes":{"ID":498985,"DIS_CODE":0,"TOWNNAME":"中西區","LI":"大南里","LIN":"7鄰","STREET":"南門路","SECT":" ","MAREA":" ","LANE":" ","ALLEY":" ","HOUSE_NO":"４２號之３","E_COORD97":168396.70000000001,"N_COORD97":2542921.2599999998,"ADDRESS":"南門路４２號之３","OBJECTID":498958},"geometry":{"x":168396.70000000019,"y":2542921.2600000016}},{"attributes":{"ID":498986,"DIS_CODE":0,"TOWNNAME":"中西區","LI":"大南里","LIN":"7鄰","STREET":"南門路","SECT":" ","MAREA":" ","LANE":" ","ALLEY":" ","HOUSE_NO":"４２號之４","E_COORD97":168394.23000000001,"N_COORD97":2542915.2799999998,"ADDRESS":"南門路４２號之４","OBJECTID":498959},"geometry":{"x":168394.23000000138,"y":2542915.2799999993}},{"attributes":{"ID":498987,"DIS_CODE":0,"TOWNNAME":"中西區","LI":"大南里","LIN":"7鄰","STREET":"南門路","SECT":" ","MAREA":" ","LANE":" ","ALLEY":" ","HOUSE_NO":"４２號之５","E_COORD97":168392.82000000001,"N_COORD97":2542912.1200000001,"ADDRESS":"南門路４２號之５","OBJECTID":498960},"geometry":{"x":168392.82000000216,"y":2542912.120000001}},{"attributes":{"ID":498988,"DIS_CODE":0,"TOWNNAME":"中西區","LI":"大南里","LIN":"7鄰","STREET":"南門路","SECT":" ","MAREA":" ","LANE":" ","ALLEY":" ","HOUSE_NO":"４６號","E_COORD97":168391.06,"N_COORD97":2542900.8599999999,"ADDRESS":"南門路４６號","OBJECTID":498961},"geometry":{"x":168391.06000000052,"y":2542900.8599999994}},{"attributes":{"ID":498989,"DIS_CODE":0,"TOWNNAME":"中西區","LI":"大南里","LIN":"7鄰","STREET":"南門路","SECT":" ","MAREA":" ","LANE":" ","ALLEY":" ","HOUSE_NO":"４６號之１１","E_COORD97":168387.92000000001,"N_COORD97":2542847.6699999999,"ADDRESS":"南門路４６號之１１","OBJECTID":498962},"geometry":{"x":168387.91999999993,"y":2542847.6700000018}},{"attributes":{"ID":498990,"DIS_CODE":0,"TOWNNAME":"中西區","LI":"大南里","LIN":"7鄰","STREET":"南門路","SECT":" ","MAREA":" ","LANE":" ","ALLEY":" ","HOUSE_NO":"４６號之１２","E_COORD97":168388.62,"N_COORD97":2542842.7400000002,"ADDRESS":"南門路４６號之１２","OBJECTID":498963},"geometry":{"x":168388.62000000011,"y":2542842.7399999984}},{"attributes":{"ID":498991,"DIS_CODE":0,"TOWNNAME":"中西區","LI":"大南里","LIN":"7鄰","STREET":"南門路","SECT":" ","MAREA":" ","LANE":" ","ALLEY":" ","HOUSE_NO":"４６號之１３","E_COORD97":168386.51000000001,"N_COORD97":2542834.6499999999,"ADDRESS":"南門路４６號之１３","OBJECTID":498964},"geometry":{"x":168386.51000000071,"y":2542834.6500000022}},{"attributes":{"ID":498992,"DIS_CODE":0,"TOWNNAME":"中西區","LI":"大南里","LIN":"7鄰","STREET":"南門路","SECT":" ","MAREA":" ","LANE":" ","ALLEY":" ","HOUSE_NO":"４６號之１４","E_COORD97":168386.51000000001,"N_COORD97":2542831.4900000002,"ADDRESS":"南門路４６號之１４","OBJECTID":498965},"geometry":{"x":168386.51000000071,"y":2542831.4900000021}},{"attributes":{"ID":498993,"DIS_CODE":0,"TOWNNAME":"中西區","LI":"大南里","LIN":"7鄰","STREET":"南門路","SECT":" ","MAREA":" ","LANE":" ","ALLEY":" ","HOUSE_NO":"４６號之１５","E_COORD97":168387.20999999999,"N_COORD97":2542827.6200000001,"ADDRESS":"南門路４６號之１５","OBJECTID":498966},"geometry":{"x":168387.21000000089,"y":2542827.6200000048}},{"attributes":{"ID":498994,"DIS_CODE":0,"TOWNNAME":"中西區","LI":"大南里","LIN":"7鄰","STREET":"南門路","SECT":" ","MAREA":" ","LANE":" ","ALLEY":" ","HOUSE_NO":"４６號之２","E_COORD97":168392.82000000001,"N_COORD97":2542892.77,"ADDRESS":"南門路４６號之２","OBJECTID":498967},"geometry":{"x":168392.82000000216,"y":2542892.7699999977}},{"attributes":{"ID":498995,"DIS_CODE":0,"TOWNNAME":"中西區","LI":"大南里","LIN":"7鄰","STREET":"南門路","SECT":" ","MAREA":" ","LANE":" ","ALLEY":" ","HOUSE_NO":"４６號之３","E_COORD97":168392.47,"N_COORD97":2542888.5499999998,"ADDRESS":"南門路４６號之３","OBJECTID":498968},"geometry":{"x":168392.46999999974,"y":2542888.5500000007}},{"attributes":{"ID":498996,"DIS_CODE":0,"TOWNNAME":"中西區","LI":"大南里","LIN":"7鄰","STREET":"南門路","SECT":" ","MAREA":" ","LANE":" ","ALLEY":" ","HOUSE_NO":"４６號之４","E_COORD97":168391.76999999999,"N_COORD97":2542884.6800000002,"ADDRESS":"南門路４６號之４","OBJECTID":498969},"geometry":{"x":168391.76999999955,"y":2542884.6800000016}},{"attributes":{"ID":498997,"DIS_CODE":0,"TOWNNAME":"中西區","LI":"大南里","LIN":"7鄰","STREET":"南門路","SECT":" ","MAREA":" ","LANE":" ","ALLEY":" ","HOUSE_NO":"４６號之５","E_COORD97":168392.47,"N_COORD97":2542880.4500000002,"ADDRESS":"南門路４６號之５","OBJECTID":498970},"geometry":{"x":168392.46999999974,"y":2542880.4499999993}},{"attributes":{"ID":498998,"DIS_CODE":0,"TOWNNAME":"中西區","LI":"大南里","LIN":"7鄰","STREET":"南門路","SECT":" ","MAREA":" ","LANE":" ","ALLEY":" ","HOUSE_NO":"４６號之６","E_COORD97":168391.76999999999,"N_COORD97":2542877.29,"ADDRESS":"南門路４６號之６","OBJECTID":498971},"geometry":{"x":168391.76999999955,"y":2542877.2899999991}},{"attributes":{"ID":498999,"DIS_CODE":0,"TOWNNAME":"中西區","LI":"大南里","LIN":"7鄰","STREET":"南門路","SECT":" ","MAREA":" ","LANE":" ","ALLEY":" ","HOUSE_NO":"４６號之７","E_COORD97":168388.26999999999,"N_COORD97":2542863.8500000001,"ADDRESS":"南門路４６號之７","OBJECTID":498972},"geometry":{"x":168388.26999999955,"y":2542863.8499999996}},{"attributes":{"ID":499000,"DIS_CODE":0,"TOWNNAME":"中西區","LI":"大南里","LIN":"7鄰","STREET":"南門路","SECT":" ","MAREA":" ","LANE":" ","ALLEY":" ","HOUSE_NO":"４６號之８","E_COORD97":168388.97,"N_COORD97":2542860.6899999999,"ADDRESS":"南門路４６號之８","OBJECTID":498973},"geometry":{"x":168388.96999999974,"y":2542860.6900000013}},{"attributes":{"ID":499001,"DIS_CODE":0,"TOWNNAME":"中西區","LI":"大南里","LIN":"7鄰","STREET":"南門路","SECT":" ","MAREA":" ","LANE":" ","ALLEY":" ","HOUSE_NO":"４６號之９","E_COORD97":168388.62,"N_COORD97":2542857.1699999999,"ADDRESS":"南門路４６號之９","OBJECTID":498974},"geometry":{"x":168388.62000000011,"y":2542857.1700000018}},{"attributes":{"ID":499002,"DIS_CODE":0,"TOWNNAME":"中西區","LI":"大南里","LIN":"7鄰","STREET":"南寧街","SECT":" ","MAREA":" ","LANE":" ","ALLEY":" ","HOUSE_NO":"３２號","E_COORD97":168381.22,"N_COORD97":2542828.6699999999,"ADDRESS":"南寧街３２號","OBJECTID":498975},"geometry":{"x":168381.22000000067,"y":2542828.6699999999}},{"attributes":{"ID":499003,"DIS_CODE":0,"TOWNNAME":"中西區","LI":"大南里","LIN":"7鄰","STREET":"南寧街","SECT":" ","MAREA":" ","LANE":" ","ALLEY":" ","HOUSE_NO":"３２號底層","E_COORD97":168381.22,"N_COORD97":2542828.6699999999,"ADDRESS":"南寧街３２號底層","OBJECTID":498976},"geometry":{"x":168381.22000000067,"y":2542828.6699999999}},{"attributes":{"ID":499004,"DIS_CODE":0,"TOWNNAME":"中西區","LI":"大南里","LIN":"7鄰","STREET":"南寧街","SECT":" ","MAREA":" ","LANE":" ","ALLEY":" ","HOUSE_NO":"３４號","E_COORD97":168375.23999999999,"N_COORD97":2542829.3799999999,"ADDRESS":"南寧街３４號","OBJECTID":498977},"geometry":{"x":168375.24000000115,"y":2542829.379999999}},{"attributes":{"ID":499005,"DIS_CODE":0,"TOWNNAME":"中西區","LI":"大南里","LIN":"7鄰","STREET":"南寧街","SECT":" ","MAREA":" ","LANE":" ","ALLEY":" ","HOUSE_NO":"３６號","E_COORD97":168366.78,"N_COORD97":2542832.54,"ADDRESS":"南寧街３６號","OBJECTID":498978},"geometry":{"x":168366.78000000119,"y":2542832.5399999991}},{"attributes":{"ID":499006,"DIS_CODE":0,"TOWNNAME":"中西區","LI":"大南里","LIN":"7鄰","STREET":"南寧街","SECT":" ","MAREA":" ","LANE":" ","ALLEY":" ","HOUSE_NO":"３８號","E_COORD97":168362.54999999999,"N_COORD97":2542834.2999999998,"ADDRESS":"南寧街３８號","OBJECTID":498979},"geometry":{"x":168362.55000000075,"y":2542834.3000000026}},{"attributes":{"ID":499007,"DIS_CODE":0,"TOWNNAME":"中西區","LI":"大南里","LIN":"7鄰","STREET":"南寧街","SECT":" ","MAREA":" ","LANE":" ","ALLEY":" ","HOUSE_NO":"４０號","E_COORD97":168357.98000000001,"N_COORD97":2542835,"ADDRESS":"南寧街４０號","OBJECTID":498980},"geometry":{"x":168357.98000000231,"y":2542835.0000000019}},{"attributes":{"ID":499008,"DIS_CODE":0,"TOWNNAME":"安南區","LI":"溪墘里","LIN":"7鄰","STREET":"安富街","SECT":" ","MAREA":" ","LANE":" ","ALLEY":" ","HOUSE_NO":"４０５號","E_COORD97":167186.45999999999,"N_COORD97":2547356.0899999999,"ADDRESS":"安富街４０５號","OBJECTID":498981},"geometry":{"x":167186.46000000089,"y":2547356.0900000036}},{"attributes":{"ID":499009,"DIS_CODE":0,"TOWNNAME":"安南區","LI":"溪墘里","LIN":"7鄰","STREET":"安富街","SECT":" ","MAREA":" ","LANE":" ","ALLEY":" ","HOUSE_NO":"３５７號","E_COORD97":167299.48000000001,"N_COORD97":2547383.8799999999,"ADDRESS":"安富街３５７號","OBJECTID":498982},"geometry":{"x":167299.48000000045,"y":2547383.8800000027}},{"attributes":{"ID":499010,"DIS_CODE":0,"TOWNNAME":"安南區","LI":"溪墘里","LIN":"7鄰","STREET":"安富街","SECT":" ","MAREA":" ","LANE":" ","ALLEY":" ","HOUSE_NO":"３５９號","E_COORD97":167294.48999999999,"N_COORD97":2547383.5800000001,"ADDRESS":"安富街３５９號","OBJECTID":498983},"geometry":{"x":167294.49000000022,"y":2547383.5800000038}},{"attributes":{"ID":499011,"DIS_CODE":0,"TOWNNAME":"安南區","LI":"溪墘里","LIN":"7鄰","STREET":"安富街","SECT":" ","MAREA":" ","LANE":" ","ALLEY":" ","HOUSE_NO":"３６１號","E_COORD97":167289.70000000001,"N_COORD97":2547382.5099999998,"ADDRESS":"安富街３６１號","OBJECTID":498984},"geometry":{"x":167289.70000000019,"y":2547382.5099999998}},{"attributes":{"ID":499012,"DIS_CODE":0,"TOWNNAME":"安南區","LI":"溪墘里","LIN":"7鄰","STREET":"安富街","SECT":" ","MAREA":" ","LANE":" ","ALLEY":" ","HOUSE_NO":"３６５號","E_COORD97":167280.5,"N_COORD97":2547379.48,"ADDRESS":"安富街３６５號","OBJECTID":498985},"geometry":{"x":167280.5,"y":2547379.4800000023}},{"attributes":{"ID":499013,"DIS_CODE":0,"TOWNNAME":"安南區","LI":"溪墘里","LIN":"7鄰","STREET":"安富街","SECT":" ","MAREA":" ","LANE":" ","ALLEY":" ","HOUSE_NO":"３６７號","E_COORD97":167275.76000000001,"N_COORD97":2547378.25,"ADDRESS":"安富街３６７號","OBJECTID":498986},"geometry":{"x":167275.76000000071,"y":2547378.25}},{"attributes":{"ID":499014,"DIS_CODE":0,"TOWNNAME":"安南區","LI":"溪墘里","LIN":"7鄰","STREET":"安富街","SECT":" ","MAREA":" ","LANE":" ","ALLEY":" ","HOUSE_NO":"３６９號","E_COORD97":167271.03,"N_COORD97":2547376.6800000002,"ADDRESS":"安富街３６９號","OBJECTID":498987},"geometry":{"x":167271.03000000119,"y":2547376.6800000016}},{"attributes":{"ID":499015,"DIS_CODE":0,"TOWNNAME":"安南區","LI":"溪墘里","LIN":"7鄰","STREET":"安富街","SECT":" ","MAREA":" ","LANE":" ","ALLEY":" ","HOUSE_NO":"３７１號","E_COORD97":167265.92999999999,"N_COORD97":2547376.27,"ADDRESS":"安富街３７１號","OBJECTID":498988},"geometry":{"x":167265.93000000156,"y":2547376.2700000014}},{"attributes":{"ID":499016,"DIS_CODE":0,"TOWNNAME":"安南區","LI":"溪墘里","LIN":"7鄰","STREET":"安富街","SECT":" ","MAREA":" ","LANE":" ","ALLEY":" ","HOUSE_NO":"３７３號","E_COORD97":167261.20000000001,"N_COORD97":2547375.2000000002,"ADDRESS":"安富街３７３號","OBJECTID":498989},"geometry":{"x":167261.20000000205,"y":2547375.200000003}},{"attributes":{"ID":499017,"DIS_CODE":0,"TOWNNAME":"安南區","LI":"溪墘里","LIN":"7鄰","STREET":"安富街","SECT":" ","MAREA":" ","LANE":" ","ALLEY":" ","HOUSE_NO":"３７７號","E_COORD97":167251.57999999999,"N_COORD97":2547373.0600000001,"ADDRESS":"安富街３７７號","OBJECTID":498990},"geometry":{"x":167251.57999999914,"y":2547373.0600000005}},{"attributes":{"ID":499018,"DIS_CODE":0,"TOWNNAME":"安南區","LI":"溪墘里","LIN":"7鄰","STREET":"安富街","SECT":" ","MAREA":" ","LANE":" ","ALLEY":" ","HOUSE_NO":"３８３號","E_COORD97":167237.59,"N_COORD97":2547369.6600000001,"ADDRESS":"安富街３８３號","OBJECTID":498991},"geometry":{"x":167237.58999999985,"y":2547369.6600000039}},{"attributes":{"ID":499019,"DIS_CODE":0,"TOWNNAME":"安南區","LI":"溪墘里","LIN":"7鄰","STREET":"安富街","SECT":" ","MAREA":" ","LANE":" ","ALLEY":" ","HOUSE_NO":"３８５號","E_COORD97":167233.57000000001,"N_COORD97":2547369.1000000001,"ADDRESS":"安富街３８５號","OBJECTID":498992},"geometry":{"x":167233.57000000123,"y":2547369.0999999996}},{"attributes":{"ID":499020,"DIS_CODE":0,"TOWNNAME":"安南區","LI":"溪墘里","LIN":"7鄰","STREET":"安富街","SECT":" ","MAREA":" ","LANE":" ","ALLEY":" ","HOUSE_NO":"３９１號","E_COORD97":167219.39000000001,"N_COORD97":2547363.8500000001,"ADDRESS":"安富街３９１號","OBJECTID":498993},"geometry":{"x":167219.3900000006,"y":2547363.8499999996}},{"attributes":{"ID":499021,"DIS_CODE":0,"TOWNNAME":"安南區","LI":"溪墘里","LIN":"7鄰","STREET":"安富街","SECT":" ","MAREA":" ","LANE":" ","ALLEY":" ","HOUSE_NO":"３９３號","E_COORD97":167213.94,"N_COORD97":2547362.48,"ADDRESS":"安富街３９３號","OBJECTID":498994},"geometry":{"x":167213.94000000227,"y":2547362.4800000023}},{"attributes":{"ID":499022,"DIS_CODE":0,"TOWNNAME":"安南區","LI":"溪墘里","LIN":"7鄰","STREET":"安富街","SECT":" ","MAREA":" ","LANE":" ","ALLEY":" ","HOUSE_NO":"４０１號","E_COORD97":167195.97,"N_COORD97":2547358.2799999998,"ADDRESS":"安富街４０１號","OBJECTID":498995},"geometry":{"x":167195.96999999974,"y":2547358.2800000012}},{"attributes":{"ID":499023,"DIS_CODE":0,"TOWNNAME":"安南區","LI":"溪墘里","LIN":"7鄰","STREET":"安富街","SECT":" ","MAREA":" ","LANE":" ","ALLEY":" ","HOUSE_NO":"４０３號","E_COORD97":167191.82999999999,"N_COORD97":2547356.8599999999,"ADDRESS":"安富街４０３號","OBJECTID":498996},"geometry":{"x":167191.83000000007,"y":2547356.8599999994}},{"attributes":{"ID":499024,"DIS_CODE":0,"TOWNNAME":"安南區","LI":"溪墘里","LIN":"7鄰","STREET":"安富街","SECT":" ","MAREA":" ","LANE":" ","ALLEY":" ","HOUSE_NO":"４０７號","E_COORD97":167181.54999999999,"N_COORD97":2547354.9199999999,"ADDRESS":"安富街４０７號","OBJECTID":498997},"geometry":{"x":167181.54999999981,"y":2547354.9200000018}},{"attributes":{"ID":499025,"DIS_CODE":0,"TOWNNAME":"安南區","LI":"溪墘里","LIN":"7鄰","STREET":"安富街","SECT":" ","MAREA":" ","LANE":" ","ALLEY":" ","HOUSE_NO":"４０９號","E_COORD97":167177.54000000001,"N_COORD97":2547352.6000000001,"ADDRESS":"安富街４０９號","OBJECTID":498998},"geometry":{"x":167177.54000000097,"y":2547352.6000000034}},{"attributes":{"ID":499026,"DIS_CODE":0,"TOWNNAME":"安南區","LI":"溪墘里","LIN":"7鄰","STREET":"安富街","SECT":" ","MAREA":" ","LANE":" ","ALLEY":" ","HOUSE_NO":"３９９號","E_COORD97":167199.59,"N_COORD97":2547359.96,"ADDRESS":"安富街３９９號","OBJECTID":498999},"geometry":{"x":167199.59000000078,"y":2547359.9600000009}},{"attributes":{"ID":499027,"DIS_CODE":0,"TOWNNAME":"安南區","LI":"溪墘里","LIN":"7鄰","STREET":"安富街","SECT":" ","MAREA":" ","LANE":" ","ALLEY":" ","HOUSE_NO":"３７５號","E_COORD97":167256.62,"N_COORD97":2547374.0299999998,"ADDRESS":"安富街３７５號","OBJECTID":499000},"geometry":{"x":167256.62000000197,"y":2547374.0300000012}}]}