{"displayFieldName":"TOWNNAME","fieldAliases":{"ID":"ID","DIS_CODE":"DIS_CODE","TOWNNAME":"TOWNNAME","LI":"LI","LIN":"LIN","STREET":"STREET","SECT":"SECT","MAREA":"MAREA","LANE":"LANE","ALLEY":"ALLEY","HOUSE_NO":"HOUSE_NO","E_COORD97":"E_COORD97","N_COORD97":"N_COORD97","ADDRESS":"ADDRESS","OBJECTID":"OBJECTID"},"geometryType":"esriGeometryPoint","spatialReference":{"wkid":102443,"latestWkid":3826},"fields":[{"name":"ID","type":"esriFieldTypeDouble","alias":"ID"},{"name":"DIS_CODE","type":"esriFieldTypeInteger","alias":"DIS_CODE"},{"name":"TOWNNAME","type":"esriFieldTypeString","alias":"TOWNNAME","length":8},{"name":"LI","type":"esriFieldTypeString","alias":"LI","length":8},{"name":"LIN","type":"esriFieldTypeString","alias":"LIN","length":12},{"name":"STREET","type":"esriFieldTypeString","alias":"STREET","length":20},{"name":"SECT","type":"esriFieldTypeString","alias":"SECT","length":8},{"name":"MAREA","type":"esriFieldTypeString","alias":"MAREA","length":12},{"name":"LANE","type":"esriFieldTypeString","alias":"LANE","length":10},{"name":"ALLEY","type":"esriFieldTypeString","alias":"ALLEY","length":10},{"name":"HOUSE_NO","type":"esriFieldTypeString","alias":"HOUSE_NO","length":20},{"name":"E_COORD97","type":"esriFieldTypeDouble","alias":"E_COORD97"},{"name":"N_COORD97","type":"esriFieldTypeDouble","alias":"N_COORD97"},{"name":"ADDRESS","type":"esriFieldTypeString","alias":"ADDRESS","length":50},{"name":"OBJECTID","type":"esriFieldTypeOID","alias":"OBJECTID"}],"features":[{"attributes":{"ID":546628,"DIS_CODE":0,"TOWNNAME":"永康區","LI":"東灣里","LIN":"10鄰","STREET":"大灣路","SECT":" ","MAREA":" ","LANE":" ","ALLEY":" ","HOUSE_NO":"４９２號","E_COORD97":174717.12,"N_COORD97":2544877,"ADDRESS":"大灣路４９２號","OBJECTID":546601},"geometry":{"x":174717.12000000197,"y":2544877}},{"attributes":{"ID":546629,"DIS_CODE":0,"TOWNNAME":"永康區","LI":"南灣里","LIN":"10鄰","STREET":"南興路","SECT":" ","MAREA":" ","LANE":" ","ALLEY":" ","HOUSE_NO":"５９號","E_COORD97":174216.72,"N_COORD97":2544220.7400000002,"ADDRESS":"南興路５９號","OBJECTID":546602},"geometry":{"x":174216.72000000067,"y":2544220.7400000021}},{"attributes":{"ID":546630,"DIS_CODE":0,"TOWNNAME":"永康區","LI":"南灣里","LIN":"10鄰","STREET":"南興路","SECT":" ","MAREA":" ","LANE":" ","ALLEY":" ","HOUSE_NO":"１５號之８","E_COORD97":174080.57000000001,"N_COORD97":2544071.7999999998,"ADDRESS":"南興路１５號之８","OBJECTID":546603},"geometry":{"x":174080.57000000123,"y":2544071.8000000026}},{"attributes":{"ID":546631,"DIS_CODE":0,"TOWNNAME":"永康區","LI":"東灣里","LIN":"10鄰","STREET":"大灣路","SECT":" ","MAREA":" ","LANE":" ","ALLEY":" ","HOUSE_NO":"４８２號","E_COORD97":174725.79999999999,"N_COORD97":2544893.75,"ADDRESS":"大灣路４８２號","OBJECTID":546604},"geometry":{"x":174725.80000000168,"y":2544893.7500000037}},{"attributes":{"ID":546632,"DIS_CODE":0,"TOWNNAME":"永康區","LI":"東灣里","LIN":"10鄰","STREET":"大灣路","SECT":" ","MAREA":" ","LANE":" ","ALLEY":" ","HOUSE_NO":"４７６號之１","E_COORD97":174724.85999999999,"N_COORD97":2544907.79,"ADDRESS":"大灣路４７６號之１","OBJECTID":546605},"geometry":{"x":174724.86000000127,"y":2544907.790000001}},{"attributes":{"ID":546633,"DIS_CODE":0,"TOWNNAME":"永康區","LI":"南灣里","LIN":"10鄰","STREET":"大灣東路","SECT":" ","MAREA":" ","LANE":" ","ALLEY":" ","HOUSE_NO":"２８號","E_COORD97":174140.82000000001,"N_COORD97":2544272.3199999998,"ADDRESS":"大灣東路２８號","OBJECTID":546606},"geometry":{"x":174140.8200000003,"y":2544272.3200000003}},{"attributes":{"ID":546634,"DIS_CODE":0,"TOWNNAME":"永康區","LI":"南灣里","LIN":"10鄰","STREET":"大灣東路","SECT":" ","MAREA":" ","LANE":" ","ALLEY":" ","HOUSE_NO":"３０號","E_COORD97":174154.07000000001,"N_COORD97":2544276.3199999998,"ADDRESS":"大灣東路３０號","OBJECTID":546607},"geometry":{"x":174154.0700000003,"y":2544276.3200000003}},{"attributes":{"ID":546635,"DIS_CODE":0,"TOWNNAME":"永康區","LI":"南灣里","LIN":"10鄰","STREET":"大灣東路","SECT":" ","MAREA":" ","LANE":" ","ALLEY":" ","HOUSE_NO":"２號","E_COORD97":174015.92000000001,"N_COORD97":2544227.9900000002,"ADDRESS":"大灣東路２號","OBJECTID":546608},"geometry":{"x":174015.91999999993,"y":2544227.9900000039}},{"attributes":{"ID":546636,"DIS_CODE":0,"TOWNNAME":"永康區","LI":"南灣里","LIN":"10鄰","STREET":"南興路","SECT":" ","MAREA":" ","LANE":" ","ALLEY":" ","HOUSE_NO":"６５號","E_COORD97":174221.48000000001,"N_COORD97":2544246.25,"ADDRESS":"南興路６５號","OBJECTID":546609},"geometry":{"x":174221.48000000045,"y":2544246.2500000037}},{"attributes":{"ID":546637,"DIS_CODE":0,"TOWNNAME":"永康區","LI":"南灣里","LIN":"10鄰","STREET":"大灣東路","SECT":" ","MAREA":" ","LANE":" ","ALLEY":" ","HOUSE_NO":"２６號","E_COORD97":174128.29000000001,"N_COORD97":2544268.8199999998,"ADDRESS":"大灣東路２６號","OBJECTID":546610},"geometry":{"x":174128.29000000097,"y":2544268.8200000003}},{"attributes":{"ID":546638,"DIS_CODE":0,"TOWNNAME":"安南區","LI":"新順里","LIN":"10鄰","STREET":"安和路","SECT":"二段","MAREA":" ","LANE":" ","ALLEY":" ","HOUSE_NO":"２５９號","E_COORD97":169651.54999999999,"N_COORD97":2549171.1099999999,"ADDRESS":"安和路二段２５９號","OBJECTID":546611},"geometry":{"x":169651.54999999981,"y":2549171.1100000013}},{"attributes":{"ID":546639,"DIS_CODE":0,"TOWNNAME":"安南區","LI":"淵西里","LIN":"10鄰","STREET":"安中路","SECT":"四段","MAREA":" ","LANE":" ","ALLEY":" ","HOUSE_NO":"３２４號","E_COORD97":164388.45000000001,"N_COORD97":2550293.7400000002,"ADDRESS":"安中路四段３２４號","OBJECTID":546612},"geometry":{"x":164388.45000000112,"y":2550293.7400000002}},{"attributes":{"ID":546640,"DIS_CODE":0,"TOWNNAME":"安南區","LI":"安順里","LIN":"10鄰","STREET":"開安路","SECT":" ","MAREA":" ","LANE":" ","ALLEY":" ","HOUSE_NO":"１６５號","E_COORD97":170498.56,"N_COORD97":2550000.6600000001,"ADDRESS":"開安路１６５號","OBJECTID":546613},"geometry":{"x":170498.55999999959,"y":2550000.6600000039}},{"attributes":{"ID":546641,"DIS_CODE":0,"TOWNNAME":"新市區","LI":"新市里","LIN":"10鄰","STREET":"中興街","SECT":" ","MAREA":" ","LANE":" ","ALLEY":" ","HOUSE_NO":"２６號","E_COORD97":177736.23999999999,"N_COORD97":2553166.5,"ADDRESS":"中興街２６號","OBJECTID":546614},"geometry":{"x":177736.24000000115,"y":2553166.5}},{"attributes":{"ID":546642,"DIS_CODE":0,"TOWNNAME":"新市區","LI":"永就里","LIN":"10鄰","STREET":"中山路","SECT":" ","MAREA":" ","LANE":" ","ALLEY":" ","HOUSE_NO":"２５９號","E_COORD97":177117.85000000001,"N_COORD97":2551613.5,"ADDRESS":"中山路２５９號","OBJECTID":546615},"geometry":{"x":177117.85000000056,"y":2551613.5000000019}},{"attributes":{"ID":546643,"DIS_CODE":0,"TOWNNAME":"新市區","LI":"新市里","LIN":"10鄰","STREET":"仁愛街","SECT":" ","MAREA":" ","LANE":" ","ALLEY":" ","HOUSE_NO":"３５４之１０號","E_COORD97":177696.84,"N_COORD97":2553181.0499999998,"ADDRESS":"仁愛街３５４之１０號","OBJECTID":546616},"geometry":{"x":177696.83999999985,"y":2553181.0500000007}},{"attributes":{"ID":546644,"DIS_CODE":0,"TOWNNAME":"新市區","LI":"新和里","LIN":"10鄰","STREET":"忠孝街","SECT":" ","MAREA":" ","LANE":" ","ALLEY":" ","HOUSE_NO":"３２號","E_COORD97":177649.45999999999,"N_COORD97":2552476.25,"ADDRESS":"忠孝街３２號","OBJECTID":546617},"geometry":{"x":177649.46000000089,"y":2552476.2500000019}},{"attributes":{"ID":546645,"DIS_CODE":0,"TOWNNAME":"新市區","LI":"新和里","LIN":"10鄰","STREET":"忠孝街","SECT":" ","MAREA":" ","LANE":" ","ALLEY":" ","HOUSE_NO":"２號","E_COORD97":177570.92999999999,"N_COORD97":2552492,"ADDRESS":"忠孝街２號","OBJECTID":546618},"geometry":{"x":177570.93000000156,"y":2552492}},{"attributes":{"ID":546646,"DIS_CODE":0,"TOWNNAME":"中西區","LI":"中正里","LIN":"10鄰","STREET":"正德街","SECT":" ","MAREA":" ","LANE":" ","ALLEY":" ","HOUSE_NO":"４６號","E_COORD97":167530.34,"N_COORD97":2543883.3500000001,"ADDRESS":"正德街４６號","OBJECTID":546619},"geometry":{"x":167530.33999999985,"y":2543883.3500000015}},{"attributes":{"ID":546647,"DIS_CODE":0,"TOWNNAME":"中西區","LI":"中正里","LIN":"10鄰","STREET":"正德街","SECT":" ","MAREA":" ","LANE":" ","ALLEY":" ","HOUSE_NO":"４８號","E_COORD97":167547.51999999999,"N_COORD97":2543900.5600000001,"ADDRESS":"正德街４８號","OBJECTID":546620},"geometry":{"x":167547.51999999955,"y":2543900.5600000024}},{"attributes":{"ID":546648,"DIS_CODE":0,"TOWNNAME":"中西區","LI":"民主里","LIN":"10鄰","STREET":"友愛街","SECT":" ","MAREA":" ","LANE":" ","ALLEY":" ","HOUSE_NO":"３５１號","E_COORD97":167396.98000000001,"N_COORD97":2543677,"ADDRESS":"友愛街３５１號","OBJECTID":546621},"geometry":{"x":167396.98000000138,"y":2543677}},{"attributes":{"ID":546649,"DIS_CODE":0,"TOWNNAME":"中西區","LI":"民主里","LIN":"10鄰","STREET":"友愛街","SECT":" ","MAREA":" ","LANE":" ","ALLEY":" ","HOUSE_NO":"３５３號","E_COORD97":167392.01999999999,"N_COORD97":2543677.7999999998,"ADDRESS":"友愛街３５３號","OBJECTID":546622},"geometry":{"x":167392.01999999955,"y":2543677.8000000026}},{"attributes":{"ID":546650,"DIS_CODE":0,"TOWNNAME":"中西區","LI":"民主里","LIN":"10鄰","STREET":"友愛街","SECT":" ","MAREA":" ","LANE":" ","ALLEY":" ","HOUSE_NO":"３５５號","E_COORD97":167388.73999999999,"N_COORD97":2543678.7599999998,"ADDRESS":"友愛街３５５號","OBJECTID":546623},"geometry":{"x":167388.74000000115,"y":2543678.7599999998}},{"attributes":{"ID":546651,"DIS_CODE":0,"TOWNNAME":"中西區","LI":"民主里","LIN":"10鄰","STREET":"友愛街","SECT":" ","MAREA":" ","LANE":" ","ALLEY":" ","HOUSE_NO":"３５７號","E_COORD97":167384.09,"N_COORD97":2543680.9199999999,"ADDRESS":"友愛街３５７號","OBJECTID":546624},"geometry":{"x":167384.09000000078,"y":2543680.9199999999}},{"attributes":{"ID":546652,"DIS_CODE":0,"TOWNNAME":"中西區","LI":"民主里","LIN":"10鄰","STREET":"友愛街","SECT":" ","MAREA":" ","LANE":" ","ALLEY":" ","HOUSE_NO":"３５９號","E_COORD97":167378.64999999999,"N_COORD97":2543680.2799999998,"ADDRESS":"友愛街３５９號","OBJECTID":546625},"geometry":{"x":167378.65000000224,"y":2543680.2800000012}},{"attributes":{"ID":546653,"DIS_CODE":0,"TOWNNAME":"中西區","LI":"民主里","LIN":"10鄰","STREET":"友愛街","SECT":" ","MAREA":" ","LANE":" ","ALLEY":" ","HOUSE_NO":"３６３號","E_COORD97":167368.14999999999,"N_COORD97":2543680.0499999998,"ADDRESS":"友愛街３６３號","OBJECTID":546626},"geometry":{"x":167368.15000000037,"y":2543680.0500000026}},{"attributes":{"ID":546654,"DIS_CODE":0,"TOWNNAME":"中西區","LI":"民主里","LIN":"10鄰","STREET":"友愛街","SECT":" ","MAREA":" ","LANE":" ","ALLEY":" ","HOUSE_NO":"３６３號底層","E_COORD97":167368.14999999999,"N_COORD97":2543680.0499999998,"ADDRESS":"友愛街３６３號底層","OBJECTID":546627},"geometry":{"x":167368.15000000037,"y":2543680.0500000026}},{"attributes":{"ID":546655,"DIS_CODE":0,"TOWNNAME":"中西區","LI":"民主里","LIN":"10鄰","STREET":"友愛街","SECT":" ","MAREA":" ","LANE":" ","ALLEY":" ","HOUSE_NO":"３６５號","E_COORD97":167360.76999999999,"N_COORD97":2543685.2400000002,"ADDRESS":"友愛街３６５號","OBJECTID":546628},"geometry":{"x":167360.77000000048,"y":2543685.2400000021}},{"attributes":{"ID":546656,"DIS_CODE":0,"TOWNNAME":"中西區","LI":"民主里","LIN":"10鄰","STREET":"康樂街","SECT":" ","MAREA":" ","LANE":" ","ALLEY":" ","HOUSE_NO":"１０１號","E_COORD97":167386.82000000001,"N_COORD97":2543661.54,"ADDRESS":"康樂街１０１號","OBJECTID":546629},"geometry":{"x":167386.8200000003,"y":2543661.540000001}},{"attributes":{"ID":546657,"DIS_CODE":0,"TOWNNAME":"中西區","LI":"民主里","LIN":"10鄰","STREET":"康樂街","SECT":" ","MAREA":" ","LANE":" ","ALLEY":" ","HOUSE_NO":"１０３號","E_COORD97":167389.78,"N_COORD97":2543660.5800000001,"ADDRESS":"康樂街１０３號","OBJECTID":546630},"geometry":{"x":167389.78000000119,"y":2543660.5800000001}},{"attributes":{"ID":546658,"DIS_CODE":0,"TOWNNAME":"永康區","LI":"尚頂里","LIN":"10鄰","STREET":"正南一街","SECT":" ","MAREA":" ","LANE":" ","ALLEY":" ","HOUSE_NO":"１１３號","E_COORD97":170931.75,"N_COORD97":2547222.7000000002,"ADDRESS":"正南一街１１３號","OBJECTID":546631},"geometry":{"x":170931.75,"y":2547222.700000003}},{"attributes":{"ID":546659,"DIS_CODE":0,"TOWNNAME":"中西區","LI":"民主里","LIN":"10鄰","STREET":"康樂街","SECT":" ","MAREA":" ","LANE":" ","ALLEY":" ","HOUSE_NO":"１０５號","E_COORD97":167395.62,"N_COORD97":2543657.8900000001,"ADDRESS":"康樂街１０５號","OBJECTID":546632},"geometry":{"x":167395.62000000197,"y":2543657.8900000006}},{"attributes":{"ID":546660,"DIS_CODE":0,"TOWNNAME":"中西區","LI":"民主里","LIN":"10鄰","STREET":"康樂街","SECT":" ","MAREA":" ","LANE":" ","ALLEY":" ","HOUSE_NO":"１０７號","E_COORD97":167396.97,"N_COORD97":2543661.8300000001,"ADDRESS":"康樂街１０７號","OBJECTID":546633},"geometry":{"x":167396.97000000067,"y":2543661.8300000001}},{"attributes":{"ID":546661,"DIS_CODE":0,"TOWNNAME":"中西區","LI":"民主里","LIN":"10鄰","STREET":"康樂街","SECT":" ","MAREA":" ","LANE":" ","ALLEY":" ","HOUSE_NO":"１１１號","E_COORD97":167390.73999999999,"N_COORD97":2543665.7000000002,"ADDRESS":"康樂街１１１號","OBJECTID":546634},"geometry":{"x":167390.74000000022,"y":2543665.6999999993}},{"attributes":{"ID":546662,"DIS_CODE":0,"TOWNNAME":"中西區","LI":"民主里","LIN":"10鄰","STREET":"康樂街","SECT":" ","MAREA":" ","LANE":" ","ALLEY":" ","HOUSE_NO":"１１３號","E_COORD97":167387.62,"N_COORD97":2543666.3399999999,"ADDRESS":"康樂街１１３號","OBJECTID":546635},"geometry":{"x":167387.62000000104,"y":2543666.3400000017}},{"attributes":{"ID":546663,"DIS_CODE":0,"TOWNNAME":"中西區","LI":"民主里","LIN":"10鄰","STREET":"康樂街","SECT":" ","MAREA":" ","LANE":" ","ALLEY":" ","HOUSE_NO":"１１７號","E_COORD97":167381.60999999999,"N_COORD97":2543668.1000000001,"ADDRESS":"康樂街１１７號","OBJECTID":546636},"geometry":{"x":167381.61000000034,"y":2543668.1000000015}},{"attributes":{"ID":546664,"DIS_CODE":0,"TOWNNAME":"中西區","LI":"民主里","LIN":"10鄰","STREET":"康樂街","SECT":" ","MAREA":" ","LANE":" ","ALLEY":" ","HOUSE_NO":"１１９號","E_COORD97":167378.25,"N_COORD97":2543668.8199999998,"ADDRESS":"康樂街１１９號","OBJECTID":546637},"geometry":{"x":167378.25000000093,"y":2543668.8200000003}},{"attributes":{"ID":546665,"DIS_CODE":0,"TOWNNAME":"中西區","LI":"民主里","LIN":"10鄰","STREET":"康樂街","SECT":" ","MAREA":" ","LANE":" ","ALLEY":" ","HOUSE_NO":"１２３號","E_COORD97":167400.41,"N_COORD97":2543673.0699999998,"ADDRESS":"康樂街１２３號","OBJECTID":546638},"geometry":{"x":167400.41000000201,"y":2543673.0700000022}},{"attributes":{"ID":546666,"DIS_CODE":0,"TOWNNAME":"中西區","LI":"民主里","LIN":"10鄰","STREET":"康樂街","SECT":" ","MAREA":" ","LANE":" ","ALLEY":" ","HOUSE_NO":"７９號","E_COORD97":167392.78,"N_COORD97":2543644.6200000001,"ADDRESS":"康樂街７９號","OBJECTID":546639},"geometry":{"x":167392.77999999933,"y":2543644.6199999992}},{"attributes":{"ID":546667,"DIS_CODE":0,"TOWNNAME":"中西區","LI":"民主里","LIN":"10鄰","STREET":"康樂街","SECT":" ","MAREA":" ","LANE":" ","ALLEY":" ","HOUSE_NO":"８１號","E_COORD97":167393.60999999999,"N_COORD97":2543648.21,"ADDRESS":"康樂街８１號","OBJECTID":546640},"geometry":{"x":167393.61000000034,"y":2543648.2100000028}},{"attributes":{"ID":546668,"DIS_CODE":0,"TOWNNAME":"中西區","LI":"民主里","LIN":"10鄰","STREET":"康樂街","SECT":" ","MAREA":" ","LANE":" ","ALLEY":" ","HOUSE_NO":"８３號","E_COORD97":167394.89999999999,"N_COORD97":2543651.8999999999,"ADDRESS":"康樂街８３號","OBJECTID":546641},"geometry":{"x":167394.90000000037,"y":2543651.9000000004}},{"attributes":{"ID":546669,"DIS_CODE":0,"TOWNNAME":"中西區","LI":"民主里","LIN":"10鄰","STREET":"康樂街","SECT":" ","MAREA":" ","LANE":" ","ALLEY":" ","HOUSE_NO":"９５號","E_COORD97":167376.97,"N_COORD97":2543663.2200000002,"ADDRESS":"康樂街９５號","OBJECTID":546642},"geometry":{"x":167376.96999999974,"y":2543663.2200000007}},{"attributes":{"ID":546670,"DIS_CODE":0,"TOWNNAME":"中西區","LI":"民主里","LIN":"10鄰","STREET":"康樂街","SECT":" ","MAREA":" ","LANE":" ","ALLEY":" ","HOUSE_NO":"９７號","E_COORD97":167380.57000000001,"N_COORD97":2543662.8199999998,"ADDRESS":"康樂街９７號","OBJECTID":546643},"geometry":{"x":167380.5700000003,"y":2543662.8199999984}},{"attributes":{"ID":546671,"DIS_CODE":0,"TOWNNAME":"中西區","LI":"民主里","LIN":"10鄰","STREET":"康樂街","SECT":" ","MAREA":" ","LANE":" ","ALLEY":" ","HOUSE_NO":"９９號","E_COORD97":167383.29000000001,"N_COORD97":2543662.3399999999,"ADDRESS":"康樂街９９號","OBJECTID":546644},"geometry":{"x":167383.29000000004,"y":2543662.3400000036}},{"attributes":{"ID":546672,"DIS_CODE":0,"TOWNNAME":"中西區","LI":"安海里","LIN":"10鄰","STREET":"金華路","SECT":"三段","MAREA":" ","LANE":" ","ALLEY":" ","HOUSE_NO":"２１７號","E_COORD97":167309.16,"N_COORD97":2543923.9500000002,"ADDRESS":"金華路三段２１７號","OBJECTID":546645},"geometry":{"x":167309.16000000108,"y":2543923.9499999993}},{"attributes":{"ID":546673,"DIS_CODE":0,"TOWNNAME":"中西區","LI":"安海里","LIN":"10鄰","STREET":"金華路","SECT":"三段","MAREA":" ","LANE":" ","ALLEY":" ","HOUSE_NO":"２２１號","E_COORD97":167309.53,"N_COORD97":2543931.8300000001,"ADDRESS":"金華路三段２２１號","OBJECTID":546646},"geometry":{"x":167309.53000000026,"y":2543931.8300000019}},{"attributes":{"ID":546674,"DIS_CODE":0,"TOWNNAME":"中西區","LI":"安海里","LIN":"10鄰","STREET":"金華路","SECT":"三段","MAREA":" ","LANE":" ","ALLEY":" ","HOUSE_NO":"２２９號","E_COORD97":167311.97,"N_COORD97":2543946.4700000002,"ADDRESS":"金華路三段２２９號","OBJECTID":546647},"geometry":{"x":167311.97000000067,"y":2543946.4700000007}},{"attributes":{"ID":546675,"DIS_CODE":0,"TOWNNAME":"中西區","LI":"安海里","LIN":"10鄰","STREET":"金華路","SECT":"三段","MAREA":" ","LANE":" ","ALLEY":" ","HOUSE_NO":"２３３號","E_COORD97":167313.29000000001,"N_COORD97":2543952.8399999999,"ADDRESS":"金華路三段２３３號","OBJECTID":546648},"geometry":{"x":167313.29000000097,"y":2543952.8399999999}},{"attributes":{"ID":546676,"DIS_CODE":0,"TOWNNAME":"中西區","LI":"安海里","LIN":"10鄰","STREET":"河中街","SECT":" ","MAREA":" ","LANE":" ","ALLEY":" ","HOUSE_NO":"１１號","E_COORD97":167247.85999999999,"N_COORD97":2543907.0299999998,"ADDRESS":"河中街１１號","OBJECTID":546649},"geometry":{"x":167247.86000000034,"y":2543907.0299999993}},{"attributes":{"ID":546677,"DIS_CODE":0,"TOWNNAME":"中西區","LI":"安海里","LIN":"10鄰","STREET":"河中街","SECT":" ","MAREA":" ","LANE":" ","ALLEY":" ","HOUSE_NO":"１３號","E_COORD97":167243.91,"N_COORD97":2543908.21,"ADDRESS":"河中街１３號","OBJECTID":546650},"geometry":{"x":167243.91000000015,"y":2543908.2100000009}},{"attributes":{"ID":546678,"DIS_CODE":0,"TOWNNAME":"中西區","LI":"安海里","LIN":"10鄰","STREET":"河中街","SECT":" ","MAREA":" ","LANE":" ","ALLEY":" ","HOUSE_NO":"１５號","E_COORD97":167260.88,"N_COORD97":2543907.0299999998,"ADDRESS":"河中街１５號","OBJECTID":546651},"geometry":{"x":167260.87999999989,"y":2543907.0299999993}},{"attributes":{"ID":546679,"DIS_CODE":0,"TOWNNAME":"中西區","LI":"安海里","LIN":"10鄰","STREET":"河中街","SECT":" ","MAREA":" ","LANE":" ","ALLEY":" ","HOUSE_NO":"１７號","E_COORD97":167259.29999999999,"N_COORD97":2543912.7400000002,"ADDRESS":"河中街１７號","OBJECTID":546652},"geometry":{"x":167259.29999999981,"y":2543912.7400000002}},{"attributes":{"ID":546680,"DIS_CODE":0,"TOWNNAME":"中西區","LI":"安海里","LIN":"10鄰","STREET":"河中街","SECT":" ","MAREA":" ","LANE":" ","ALLEY":" ","HOUSE_NO":"１９號","E_COORD97":167262.26000000001,"N_COORD97":2543922.9900000002,"ADDRESS":"河中街１９號","OBJECTID":546653},"geometry":{"x":167262.26000000071,"y":2543922.9900000039}},{"attributes":{"ID":546681,"DIS_CODE":0,"TOWNNAME":"中西區","LI":"安海里","LIN":"10鄰","STREET":"河中街","SECT":" ","MAREA":" ","LANE":" ","ALLEY":" ","HOUSE_NO":"１號","E_COORD97":167257.32999999999,"N_COORD97":2543880.9399999999,"ADDRESS":"河中街１號","OBJECTID":546654},"geometry":{"x":167257.33000000101,"y":2543880.9399999995}},{"attributes":{"ID":546682,"DIS_CODE":0,"TOWNNAME":"中西區","LI":"安海里","LIN":"10鄰","STREET":"河中街","SECT":" ","MAREA":" ","LANE":" ","ALLEY":" ","HOUSE_NO":"１號之１","E_COORD97":167254.76000000001,"N_COORD97":2543890.2799999998,"ADDRESS":"河中街１號之１","OBJECTID":546655},"geometry":{"x":167254.75999999978,"y":2543890.2800000012}},{"attributes":{"ID":546683,"DIS_CODE":0,"TOWNNAME":"中西區","LI":"安海里","LIN":"10鄰","STREET":"河中街","SECT":" ","MAREA":" ","LANE":" ","ALLEY":" ","HOUSE_NO":"２１號","E_COORD97":167262.26000000001,"N_COORD97":2543928.71,"ADDRESS":"河中街２１號","OBJECTID":546656},"geometry":{"x":167262.26000000071,"y":2543928.7100000046}},{"attributes":{"ID":546684,"DIS_CODE":0,"TOWNNAME":"中西區","LI":"安海里","LIN":"10鄰","STREET":"河中街","SECT":" ","MAREA":" ","LANE":" ","ALLEY":" ","HOUSE_NO":"３號","E_COORD97":167256.73999999999,"N_COORD97":2543893.04,"ADDRESS":"河中街３號","OBJECTID":546657},"geometry":{"x":167256.74000000022,"y":2543893.0399999991}},{"attributes":{"ID":546685,"DIS_CODE":0,"TOWNNAME":"永康區","LI":"西勢里","LIN":"9鄰","STREET":"富強路","SECT":"一段","MAREA":" ","LANE":" ","ALLEY":" ","HOUSE_NO":"３５２號","E_COORD97":175726.20000000001,"N_COORD97":2546754.98,"ADDRESS":"富強路一段３５２號","OBJECTID":546658},"geometry":{"x":175726.20000000019,"y":2546754.9800000023}},{"attributes":{"ID":546686,"DIS_CODE":0,"TOWNNAME":"東區","LI":"大同里","LIN":"10鄰","STREET":"大同路","SECT":"一段","MAREA":" ","LANE":" ","ALLEY":" ","HOUSE_NO":"１１７號","E_COORD97":169150.63,"N_COORD97":2542960.25,"ADDRESS":"大同路一段１１７號","OBJECTID":546659},"geometry":{"x":169150.62999999989,"y":2542960.25}},{"attributes":{"ID":546687,"DIS_CODE":0,"TOWNNAME":"麻豆區","LI":"保安里","LIN":"10鄰","STREET":"興中路","SECT":" ","MAREA":" ","LANE":" ","ALLEY":" ","HOUSE_NO":"２４號","E_COORD97":173139.23000000001,"N_COORD97":2564806.0499999998,"ADDRESS":"興中路２４號","OBJECTID":546660},"geometry":{"x":173139.23000000138,"y":2564806.0500000007}},{"attributes":{"ID":546688,"DIS_CODE":0,"TOWNNAME":"麻豆區","LI":"東角里","LIN":"10鄰","STREET":"興中路","SECT":" ","MAREA":" ","LANE":" ","ALLEY":" ","HOUSE_NO":"２０４號","E_COORD97":173785.28,"N_COORD97":2564806.6800000002,"ADDRESS":"興中路２０４號","OBJECTID":546661},"geometry":{"x":173785.28000000026,"y":2564806.6800000016}},{"attributes":{"ID":546689,"DIS_CODE":0,"TOWNNAME":"麻豆區","LI":"東角里","LIN":"10鄰","STREET":"興中路","SECT":" ","MAREA":" ","LANE":" ","ALLEY":" ","HOUSE_NO":"２０６號","E_COORD97":173795.73000000001,"N_COORD97":2564803.9500000002,"ADDRESS":"興中路２０６號","OBJECTID":546662},"geometry":{"x":173795.73000000045,"y":2564803.9500000011}},{"attributes":{"ID":546690,"DIS_CODE":0,"TOWNNAME":"麻豆區","LI":"東角里","LIN":"10鄰","STREET":"興中路","SECT":" ","MAREA":" ","LANE":" ","ALLEY":" ","HOUSE_NO":"２０８號之１","E_COORD97":173848.57999999999,"N_COORD97":2564803.7400000002,"ADDRESS":"興中路２０８號之１","OBJECTID":546663},"geometry":{"x":173848.58000000007,"y":2564803.7400000021}},{"attributes":{"ID":546691,"DIS_CODE":0,"TOWNNAME":"麻豆區","LI":"東角里","LIN":"10鄰","STREET":"興中路","SECT":" ","MAREA":" ","LANE":" ","ALLEY":" ","HOUSE_NO":"２０８號之２","E_COORD97":173842.42000000001,"N_COORD97":2564802.7000000002,"ADDRESS":"興中路２０８號之２","OBJECTID":546664},"geometry":{"x":173842.42000000086,"y":2564802.7000000011}},{"attributes":{"ID":546692,"DIS_CODE":0,"TOWNNAME":"麻豆區","LI":"東角里","LIN":"10鄰","STREET":"興中路","SECT":" ","MAREA":" ","LANE":" ","ALLEY":" ","HOUSE_NO":"２０８號之３","E_COORD97":173836.41,"N_COORD97":2564803.9900000002,"ADDRESS":"興中路２０８號之３","OBJECTID":546665},"geometry":{"x":173836.41000000015,"y":2564803.9899999984}},{"attributes":{"ID":546693,"DIS_CODE":0,"TOWNNAME":"麻豆區","LI":"東角里","LIN":"10鄰","STREET":"興中路","SECT":" ","MAREA":" ","LANE":" ","ALLEY":" ","HOUSE_NO":"２０８號之６","E_COORD97":173818.13,"N_COORD97":2564796.9700000002,"ADDRESS":"興中路２０８號之６","OBJECTID":546666},"geometry":{"x":173818.12999999989,"y":2564796.9700000007}},{"attributes":{"ID":546694,"DIS_CODE":0,"TOWNNAME":"麻豆區","LI":"東角里","LIN":"10鄰","STREET":"興中路","SECT":" ","MAREA":" ","LANE":" ","ALLEY":" ","HOUSE_NO":"２０８號之７","E_COORD97":173813.89999999999,"N_COORD97":2564797.2999999998,"ADDRESS":"興中路２０８號之７","OBJECTID":546667},"geometry":{"x":173813.9000000013,"y":2564797.3000000026}},{"attributes":{"ID":546695,"DIS_CODE":0,"TOWNNAME":"麻豆區","LI":"東角里","LIN":"10鄰","STREET":"興中路","SECT":" ","MAREA":" ","LANE":" ","ALLEY":" ","HOUSE_NO":"２０８號之８","E_COORD97":173809.60999999999,"N_COORD97":2564797.0499999998,"ADDRESS":"興中路２０８號之８","OBJECTID":546668},"geometry":{"x":173809.61000000034,"y":2564797.0500000007}},{"attributes":{"ID":546696,"DIS_CODE":0,"TOWNNAME":"麻豆區","LI":"東角里","LIN":"10鄰","STREET":"興中路","SECT":" ","MAREA":" ","LANE":" ","ALLEY":" ","HOUSE_NO":"２０８號","E_COORD97":173823.67000000001,"N_COORD97":2564794.04,"ADDRESS":"興中路２０８號","OBJECTID":546669},"geometry":{"x":173823.67000000086,"y":2564794.040000001}},{"attributes":{"ID":546697,"DIS_CODE":0,"TOWNNAME":"麻豆區","LI":"保安里","LIN":"10鄰","STREET":"興中路","SECT":" ","MAREA":" ","LANE":" ","ALLEY":" ","HOUSE_NO":"２０號","E_COORD97":173131.95999999999,"N_COORD97":2564805.5099999998,"ADDRESS":"興中路２０號","OBJECTID":546670},"geometry":{"x":173131.96000000089,"y":2564805.5099999998}},{"attributes":{"ID":546698,"DIS_CODE":0,"TOWNNAME":"麻豆區","LI":"東角里","LIN":"10鄰","STREET":"興中路","SECT":" ","MAREA":" ","LANE":" ","ALLEY":" ","HOUSE_NO":"２１０號之１","E_COORD97":173857.84,"N_COORD97":2564806.1699999999,"ADDRESS":"興中路２１０號之１","OBJECTID":546671},"geometry":{"x":173857.84000000078,"y":2564806.1700000037}},{"attributes":{"ID":546699,"DIS_CODE":0,"TOWNNAME":"麻豆區","LI":"東角里","LIN":"10鄰","STREET":"興中路","SECT":" ","MAREA":" ","LANE":" ","ALLEY":" ","HOUSE_NO":"２１０號之２","E_COORD97":173857.07000000001,"N_COORD97":2564774.1699999999,"ADDRESS":"興中路２１０號之２","OBJECTID":546672},"geometry":{"x":173857.07000000123,"y":2564774.1699999999}},{"attributes":{"ID":546700,"DIS_CODE":0,"TOWNNAME":"麻豆區","LI":"東角里","LIN":"10鄰","STREET":"興中路","SECT":" ","MAREA":" ","LANE":" ","ALLEY":" ","HOUSE_NO":"２１０號之３","E_COORD97":173873.84,"N_COORD97":2564802.3700000001,"ADDRESS":"興中路２１０號之３","OBJECTID":546673},"geometry":{"x":173873.83999999985,"y":2564802.3700000048}},{"attributes":{"ID":546701,"DIS_CODE":0,"TOWNNAME":"麻豆區","LI":"東角里","LIN":"10鄰","STREET":"興中路","SECT":" ","MAREA":" ","LANE":" ","ALLEY":" ","HOUSE_NO":"２１０號之５","E_COORD97":173854.54999999999,"N_COORD97":2564806.1299999999,"ADDRESS":"興中路２１０號之５","OBJECTID":546674},"geometry":{"x":173854.55000000075,"y":2564806.1300000008}},{"attributes":{"ID":546702,"DIS_CODE":0,"TOWNNAME":"麻豆區","LI":"東角里","LIN":"10鄰","STREET":"興中路","SECT":" ","MAREA":" ","LANE":" ","ALLEY":" ","HOUSE_NO":"２１０號","E_COORD97":173850.82000000001,"N_COORD97":2564784.8399999999,"ADDRESS":"興中路２１０號","OBJECTID":546675},"geometry":{"x":173850.8200000003,"y":2564784.8400000017}},{"attributes":{"ID":546703,"DIS_CODE":0,"TOWNNAME":"麻豆區","LI":"東角里","LIN":"10鄰","STREET":"興中路","SECT":" ","MAREA":" ","LANE":" ","ALLEY":" ","HOUSE_NO":"２１２號","E_COORD97":173914.56,"N_COORD97":2564785.3799999999,"ADDRESS":"興中路２１２號","OBJECTID":546676},"geometry":{"x":173914.55999999959,"y":2564785.379999999}},{"attributes":{"ID":546704,"DIS_CODE":0,"TOWNNAME":"麻豆區","LI":"東角里","LIN":"10鄰","STREET":"興中路","SECT":" ","MAREA":" ","LANE":" ","ALLEY":" ","HOUSE_NO":"２１４號","E_COORD97":173954.10999999999,"N_COORD97":2564798.4100000001,"ADDRESS":"興中路２１４號","OBJECTID":546677},"geometry":{"x":173954.11000000034,"y":2564798.410000002}},{"attributes":{"ID":546705,"DIS_CODE":0,"TOWNNAME":"麻豆區","LI":"東角里","LIN":"10鄰","STREET":"興中路","SECT":" ","MAREA":" ","LANE":" ","ALLEY":" ","HOUSE_NO":"２１６號","E_COORD97":173958.67000000001,"N_COORD97":2564798.52,"ADDRESS":"興中路２１６號","OBJECTID":546678},"geometry":{"x":173958.66999999899,"y":2564798.5199999996}},{"attributes":{"ID":546706,"DIS_CODE":0,"TOWNNAME":"麻豆區","LI":"東角里","LIN":"10鄰","STREET":"興中路","SECT":" ","MAREA":" ","LANE":" ","ALLEY":" ","HOUSE_NO":"２１８號","E_COORD97":173962.75,"N_COORD97":2564798.9500000002,"ADDRESS":"興中路２１８號","OBJECTID":546679},"geometry":{"x":173962.75,"y":2564798.9499999993}},{"attributes":{"ID":546707,"DIS_CODE":0,"TOWNNAME":"麻豆區","LI":"東角里","LIN":"10鄰","STREET":"興中路","SECT":" ","MAREA":" ","LANE":" ","ALLEY":" ","HOUSE_NO":"２２０號","E_COORD97":173966.81,"N_COORD97":2564798.3100000001,"ADDRESS":"興中路２２０號","OBJECTID":546680},"geometry":{"x":173966.80999999959,"y":2564798.3100000005}},{"attributes":{"ID":546708,"DIS_CODE":0,"TOWNNAME":"麻豆區","LI":"東角里","LIN":"10鄰","STREET":"興中路","SECT":" ","MAREA":" ","LANE":" ","ALLEY":" ","HOUSE_NO":"２２２號","E_COORD97":173973.28,"N_COORD97":2564798.2400000002,"ADDRESS":"興中路２２２號","OBJECTID":546681},"geometry":{"x":173973.28000000026,"y":2564798.2400000002}},{"attributes":{"ID":546709,"DIS_CODE":0,"TOWNNAME":"麻豆區","LI":"保安里","LIN":"10鄰","STREET":"興中路","SECT":" ","MAREA":" ","LANE":" ","ALLEY":" ","HOUSE_NO":"２２號","E_COORD97":173135.42999999999,"N_COORD97":2564805.71,"ADDRESS":"興中路２２號","OBJECTID":546682},"geometry":{"x":173135.43000000063,"y":2564805.7100000009}},{"attributes":{"ID":546710,"DIS_CODE":0,"TOWNNAME":"麻豆區","LI":"保安里","LIN":"10鄰","STREET":"興中路","SECT":" ","MAREA":" ","LANE":" ","ALLEY":" ","HOUSE_NO":"２號","E_COORD97":173082.38,"N_COORD97":2564809.6899999999,"ADDRESS":"興中路２號","OBJECTID":546683},"geometry":{"x":173082.37999999989,"y":2564809.6900000013}},{"attributes":{"ID":546711,"DIS_CODE":0,"TOWNNAME":"麻豆區","LI":"東角里","LIN":"10鄰","STREET":"興中路","SECT":" ","MAREA":" ","LANE":" ","ALLEY":" ","HOUSE_NO":"３００號","E_COORD97":174137.20000000001,"N_COORD97":2564801.7200000002,"ADDRESS":"興中路３００號","OBJECTID":546684},"geometry":{"x":174137.20000000112,"y":2564801.7200000007}},{"attributes":{"ID":546712,"DIS_CODE":0,"TOWNNAME":"永康區","LI":"永康里","LIN":"31鄰","STREET":"聖龍街","SECT":" ","MAREA":" ","LANE":" ","ALLEY":" ","HOUSE_NO":"２９２號","E_COORD97":174352.95000000001,"N_COORD97":2547834.3999999999,"ADDRESS":"聖龍街２９２號","OBJECTID":546685},"geometry":{"x":174352.95000000112,"y":2547834.4000000022}},{"attributes":{"ID":546713,"DIS_CODE":0,"TOWNNAME":"永康區","LI":"西勢里","LIN":"23鄰","STREET":"富強路","SECT":"一段","MAREA":" ","LANE":" ","ALLEY":" ","HOUSE_NO":"１６６號","E_COORD97":175576.87,"N_COORD97":2546293.77,"ADDRESS":"富強路一段１６６號","OBJECTID":546686},"geometry":{"x":175576.87000000104,"y":2546293.7700000033}},{"attributes":{"ID":546714,"DIS_CODE":0,"TOWNNAME":"永康區","LI":"西橋里","LIN":"11鄰","STREET":"大橋一街","SECT":" ","MAREA":" ","LANE":" ","ALLEY":" ","HOUSE_NO":"１６號","E_COORD97":170573.04000000001,"N_COORD97":2546175.9100000001,"ADDRESS":"大橋一街１６號","OBJECTID":546687},"geometry":{"x":170573.04000000097,"y":2546175.910000002}},{"attributes":{"ID":546715,"DIS_CODE":0,"TOWNNAME":"下營區","LI":"下營里","LIN":"10鄰","STREET":"中山路","SECT":"一段","MAREA":" ","LANE":" ","ALLEY":" ","HOUSE_NO":"４１號","E_COORD97":174480.95000000001,"N_COORD97":2570511.8300000001,"ADDRESS":"中山路一段４１號","OBJECTID":546688},"geometry":{"x":174480.95000000205,"y":2570511.8300000019}},{"attributes":{"ID":546716,"DIS_CODE":0,"TOWNNAME":"下營區","LI":"下營里","LIN":"10鄰","STREET":"中山路","SECT":"一段","MAREA":" ","LANE":" ","ALLEY":" ","HOUSE_NO":"４３號","E_COORD97":174485.54999999999,"N_COORD97":2570512.6499999999,"ADDRESS":"中山路一段４３號","OBJECTID":546689},"geometry":{"x":174485.55000000075,"y":2570512.6500000041}},{"attributes":{"ID":546717,"DIS_CODE":0,"TOWNNAME":"下營區","LI":"下營里","LIN":"10鄰","STREET":"中山路","SECT":"一段","MAREA":" ","LANE":" ","ALLEY":" ","HOUSE_NO":"４５號","E_COORD97":174489.89000000001,"N_COORD97":2570512.8100000001,"ADDRESS":"中山路一段４５號","OBJECTID":546690},"geometry":{"x":174489.8900000006,"y":2570512.8100000024}},{"attributes":{"ID":546718,"DIS_CODE":0,"TOWNNAME":"下營區","LI":"下營里","LIN":"10鄰","STREET":"中山路","SECT":"一段","MAREA":" ","LANE":" ","ALLEY":" ","HOUSE_NO":"４７號","E_COORD97":174495.01999999999,"N_COORD97":2570513.7000000002,"ADDRESS":"中山路一段４７號","OBJECTID":546691},"geometry":{"x":174495.02000000142,"y":2570513.6999999993}},{"attributes":{"ID":546719,"DIS_CODE":0,"TOWNNAME":"下營區","LI":"下營里","LIN":"10鄰","STREET":"中山路","SECT":"一段","MAREA":" ","LANE":" ","ALLEY":" ","HOUSE_NO":"４９號","E_COORD97":174507.67000000001,"N_COORD97":2570519.2799999998,"ADDRESS":"中山路一段４９號","OBJECTID":546692},"geometry":{"x":174507.66999999993,"y":2570519.2799999993}},{"attributes":{"ID":546720,"DIS_CODE":0,"TOWNNAME":"下營區","LI":"下營里","LIN":"10鄰","STREET":"中山路","SECT":"一段","MAREA":" ","LANE":" ","ALLEY":" ","HOUSE_NO":"５１號","E_COORD97":174501.95000000001,"N_COORD97":2570534.1499999999,"ADDRESS":"中山路一段５１號","OBJECTID":546693},"geometry":{"x":174501.95000000112,"y":2570534.1500000022}},{"attributes":{"ID":546721,"DIS_CODE":0,"TOWNNAME":"下營區","LI":"後街里","LIN":"10鄰","STREET":"中正北路","SECT":" ","MAREA":" ","LANE":" ","ALLEY":" ","HOUSE_NO":"６１號","E_COORD97":174468.45000000001,"N_COORD97":2570677.5299999998,"ADDRESS":"中正北路６１號","OBJECTID":546694},"geometry":{"x":174468.45000000019,"y":2570677.5299999993}},{"attributes":{"ID":546722,"DIS_CODE":0,"TOWNNAME":"下營區","LI":"後街里","LIN":"10鄰","STREET":"中正北路","SECT":" ","MAREA":" ","LANE":" ","ALLEY":" ","HOUSE_NO":"６３號","E_COORD97":174464.95000000001,"N_COORD97":2570682.1899999999,"ADDRESS":"中正北路６３號","OBJECTID":546695},"geometry":{"x":174464.95000000019,"y":2570682.1900000013}},{"attributes":{"ID":546723,"DIS_CODE":0,"TOWNNAME":"下營區","LI":"後街里","LIN":"10鄰","STREET":"中正北路","SECT":" ","MAREA":" ","LANE":" ","ALLEY":" ","HOUSE_NO":"６５號","E_COORD97":174462.95999999999,"N_COORD97":2570686.1699999999,"ADDRESS":"中正北路６５號","OBJECTID":546696},"geometry":{"x":174462.95999999996,"y":2570686.1700000018}},{"attributes":{"ID":546724,"DIS_CODE":0,"TOWNNAME":"下營區","LI":"後街里","LIN":"10鄰","STREET":"中正北路","SECT":" ","MAREA":" ","LANE":" ","ALLEY":" ","HOUSE_NO":"６７號","E_COORD97":174462.88,"N_COORD97":2570691.0600000001,"ADDRESS":"中正北路６７號","OBJECTID":546697},"geometry":{"x":174462.88000000082,"y":2570691.0600000024}},{"attributes":{"ID":546725,"DIS_CODE":0,"TOWNNAME":"下營區","LI":"後街里","LIN":"10鄰","STREET":"中正北路","SECT":" ","MAREA":" ","LANE":" ","ALLEY":" ","HOUSE_NO":"６９號","E_COORD97":174459.92999999999,"N_COORD97":2570696.7599999998,"ADDRESS":"中正北路６９號","OBJECTID":546698},"geometry":{"x":174459.9299999997,"y":2570696.7599999998}},{"attributes":{"ID":546726,"DIS_CODE":0,"TOWNNAME":"下營區","LI":"營前里","LIN":"10鄰","STREET":"中正南路","SECT":" ","MAREA":" ","LANE":" ","ALLEY":" ","HOUSE_NO":"１５１號","E_COORD97":174683.04999999999,"N_COORD97":2570119.0699999998,"ADDRESS":"中正南路１５１號","OBJECTID":546699},"geometry":{"x":174683.04999999981,"y":2570119.0700000003}},{"attributes":{"ID":546727,"DIS_CODE":0,"TOWNNAME":"下營區","LI":"營前里","LIN":"10鄰","STREET":"中正南路","SECT":" ","MAREA":" ","LANE":" ","ALLEY":" ","HOUSE_NO":"１５３號","E_COORD97":174684.81,"N_COORD97":2570114.1800000002,"ADDRESS":"中正南路１５３號","OBJECTID":546700},"geometry":{"x":174684.81000000145,"y":2570114.1799999997}},{"attributes":{"ID":546728,"DIS_CODE":0,"TOWNNAME":"下營區","LI":"營前里","LIN":"10鄰","STREET":"中正南路","SECT":" ","MAREA":" ","LANE":" ","ALLEY":" ","HOUSE_NO":"１６７號","E_COORD97":174688.54000000001,"N_COORD97":2570096.9399999999,"ADDRESS":"中正南路１６７號","OBJECTID":546701},"geometry":{"x":174688.54000000004,"y":2570096.9400000013}},{"attributes":{"ID":546729,"DIS_CODE":0,"TOWNNAME":"下營區","LI":"營前里","LIN":"10鄰","STREET":"中正南路","SECT":" ","MAREA":" ","LANE":" ","ALLEY":" ","HOUSE_NO":"１６９號","E_COORD97":174695.66,"N_COORD97":2570093.6400000001,"ADDRESS":"中正南路１６９號","OBJECTID":546702},"geometry":{"x":174695.66000000015,"y":2570093.6400000025}},{"attributes":{"ID":546730,"DIS_CODE":0,"TOWNNAME":"下營區","LI":"營前里","LIN":"10鄰","STREET":"中正南路","SECT":" ","MAREA":" ","LANE":" ","ALLEY":" ","HOUSE_NO":"１７１號","E_COORD97":174697.41,"N_COORD97":2570089.5099999998,"ADDRESS":"中正南路１７１號","OBJECTID":546703},"geometry":{"x":174697.41000000015,"y":2570089.5100000016}},{"attributes":{"ID":546731,"DIS_CODE":0,"TOWNNAME":"下營區","LI":"營前里","LIN":"10鄰","STREET":"中正南路","SECT":" ","MAREA":" ","LANE":" ","ALLEY":" ","HOUSE_NO":"１７３號","E_COORD97":174698.85999999999,"N_COORD97":2570085.3999999999,"ADDRESS":"中正南路１７３號","OBJECTID":546704},"geometry":{"x":174698.86000000127,"y":2570085.4000000022}},{"attributes":{"ID":546732,"DIS_CODE":0,"TOWNNAME":"下營區","LI":"營前里","LIN":"10鄰","STREET":"中正南路","SECT":" ","MAREA":" ","LANE":" ","ALLEY":" ","HOUSE_NO":"１７５號","E_COORD97":174701.01999999999,"N_COORD97":2570080.3900000001,"ADDRESS":"中正南路１７５號","OBJECTID":546705},"geometry":{"x":174701.02000000048,"y":2570080.3900000006}},{"attributes":{"ID":546733,"DIS_CODE":0,"TOWNNAME":"永康區","LI":"東灣里","LIN":"10鄰","STREET":"大灣路","SECT":" ","MAREA":" ","LANE":" ","ALLEY":" ","HOUSE_NO":"４８８號","E_COORD97":174721.56,"N_COORD97":2544885,"ADDRESS":"大灣路４８８號","OBJECTID":546706},"geometry":{"x":174721.55999999959,"y":2544885}},{"attributes":{"ID":546734,"DIS_CODE":0,"TOWNNAME":"永康區","LI":"南灣里","LIN":"10鄰","STREET":"南興路","SECT":" ","MAREA":" ","LANE":" ","ALLEY":" ","HOUSE_NO":"１１號","E_COORD97":174140.51999999999,"N_COORD97":2543901.3599999999,"ADDRESS":"南興路１１號","OBJECTID":546707},"geometry":{"x":174140.51999999955,"y":2543901.3599999994}},{"attributes":{"ID":546735,"DIS_CODE":0,"TOWNNAME":"永康區","LI":"南灣里","LIN":"10鄰","STREET":"南興路","SECT":" ","MAREA":" ","LANE":" ","ALLEY":" ","HOUSE_NO":"２３號","E_COORD97":174170.39000000001,"N_COORD97":2544000.7400000002,"ADDRESS":"南興路２３號","OBJECTID":546708},"geometry":{"x":174170.38999999966,"y":2544000.7400000021}},{"attributes":{"ID":546736,"DIS_CODE":0,"TOWNNAME":"永康區","LI":"正強里","LIN":"10鄰","STREET":"正義街","SECT":" ","MAREA":" ","LANE":" ","ALLEY":" ","HOUSE_NO":"１０５號","E_COORD97":173403.10000000001,"N_COORD97":2547542.1699999999,"ADDRESS":"正義街１０５號","OBJECTID":546709},"geometry":{"x":173403.10000000056,"y":2547542.1700000037}},{"attributes":{"ID":546737,"DIS_CODE":0,"TOWNNAME":"安南區","LI":"新順里","LIN":"10鄰","STREET":"怡安路","SECT":"一段","MAREA":" ","LANE":" ","ALLEY":" ","HOUSE_NO":"６４號","E_COORD97":169415.34,"N_COORD97":2548998.2599999998,"ADDRESS":"怡安路一段６４號","OBJECTID":546710},"geometry":{"x":169415.33999999985,"y":2548998.2599999998}},{"attributes":{"ID":546738,"DIS_CODE":0,"TOWNNAME":"安南區","LI":"新順里","LIN":"10鄰","STREET":"景安街","SECT":" ","MAREA":" ","LANE":" ","ALLEY":" ","HOUSE_NO":"８９號","E_COORD97":169514,"N_COORD97":2549141.7200000002,"ADDRESS":"景安街８９號","OBJECTID":546711},"geometry":{"x":169514.00000000093,"y":2549141.7200000007}},{"attributes":{"ID":546739,"DIS_CODE":0,"TOWNNAME":"安南區","LI":"新順里","LIN":"10鄰","STREET":"景安街","SECT":" ","MAREA":" ","LANE":" ","ALLEY":" ","HOUSE_NO":"８７號","E_COORD97":169518.70000000001,"N_COORD97":2549140.5800000001,"ADDRESS":"景安街８７號","OBJECTID":546712},"geometry":{"x":169518.70000000019,"y":2549140.5800000019}},{"attributes":{"ID":546740,"DIS_CODE":0,"TOWNNAME":"安南區","LI":"新順里","LIN":"10鄰","STREET":"景安街","SECT":" ","MAREA":" ","LANE":" ","ALLEY":" ","HOUSE_NO":"５號","E_COORD97":169600.10000000001,"N_COORD97":2549125.7200000002,"ADDRESS":"景安街５號","OBJECTID":546713},"geometry":{"x":169600.09999999963,"y":2549125.7199999988}},{"attributes":{"ID":546741,"DIS_CODE":0,"TOWNNAME":"安南區","LI":"新順里","LIN":"10鄰","STREET":"興安路","SECT":" ","MAREA":" ","LANE":" ","ALLEY":" ","HOUSE_NO":"５８號","E_COORD97":169518.19,"N_COORD97":2549091.8100000001,"ADDRESS":"興安路５８號","OBJECTID":546714},"geometry":{"x":169518.19000000134,"y":2549091.8100000024}},{"attributes":{"ID":546742,"DIS_CODE":0,"TOWNNAME":"安南區","LI":"新順里","LIN":"10鄰","STREET":"興安路","SECT":" ","MAREA":" ","LANE":" ","ALLEY":" ","HOUSE_NO":"６０號","E_COORD97":169513.10999999999,"N_COORD97":2549092.9500000002,"ADDRESS":"興安路６０號","OBJECTID":546715},"geometry":{"x":169513.1100000022,"y":2549092.9500000011}},{"attributes":{"ID":546743,"DIS_CODE":0,"TOWNNAME":"安南區","LI":"新順里","LIN":"10鄰","STREET":"興安路","SECT":" ","MAREA":" ","LANE":" ","ALLEY":" ","HOUSE_NO":"６２號","E_COORD97":169508.54000000001,"N_COORD97":2549093.9700000002,"ADDRESS":"興安路６２號","OBJECTID":546716},"geometry":{"x":169508.54000000097,"y":2549093.9700000044}},{"attributes":{"ID":546744,"DIS_CODE":0,"TOWNNAME":"安南區","LI":"新順里","LIN":"10鄰","STREET":"興安路","SECT":" ","MAREA":" ","LANE":" ","ALLEY":" ","HOUSE_NO":"６６號","E_COORD97":169502.57000000001,"N_COORD97":2549095.6200000001,"ADDRESS":"興安路６６號","OBJECTID":546717},"geometry":{"x":169502.5700000003,"y":2549095.620000001}},{"attributes":{"ID":546745,"DIS_CODE":0,"TOWNNAME":"安南區","LI":"新順里","LIN":"10鄰","STREET":"興安路","SECT":" ","MAREA":" ","LANE":" ","ALLEY":" ","HOUSE_NO":"６８號","E_COORD97":169497.73999999999,"N_COORD97":2549096.6299999999,"ADDRESS":"興安路６８號","OBJECTID":546718},"geometry":{"x":169497.74000000022,"y":2549096.629999999}},{"attributes":{"ID":546746,"DIS_CODE":0,"TOWNNAME":"安南區","LI":"新順里","LIN":"10鄰","STREET":"興安路","SECT":" ","MAREA":" ","LANE":" ","ALLEY":" ","HOUSE_NO":"７０號","E_COORD97":169493.04000000001,"N_COORD97":2549097.8999999999,"ADDRESS":"興安路７０號","OBJECTID":546719},"geometry":{"x":169493.0400000019,"y":2549097.9000000022}},{"attributes":{"ID":546747,"DIS_CODE":0,"TOWNNAME":"安南區","LI":"新順里","LIN":"10鄰","STREET":"興安路","SECT":" ","MAREA":" ","LANE":" ","ALLEY":" ","HOUSE_NO":"７２號","E_COORD97":169488.09,"N_COORD97":2549098.6699999999,"ADDRESS":"興安路７２號","OBJECTID":546720},"geometry":{"x":169488.09000000078,"y":2549098.6700000037}},{"attributes":{"ID":546748,"DIS_CODE":0,"TOWNNAME":"安南區","LI":"新順里","LIN":"10鄰","STREET":"興安路","SECT":" ","MAREA":" ","LANE":" ","ALLEY":" ","HOUSE_NO":"７６號","E_COORD97":169483.51999999999,"N_COORD97":2549099.9399999999,"ADDRESS":"興安路７６號","OBJECTID":546721},"geometry":{"x":169483.51999999955,"y":2549099.9400000013}},{"attributes":{"ID":546749,"DIS_CODE":0,"TOWNNAME":"東區","LI":"關聖里","LIN":"14鄰","STREET":"裕英街","SECT":" ","MAREA":" ","LANE":" ","ALLEY":" ","HOUSE_NO":"６８號","E_COORD97":172188.42999999999,"N_COORD97":2543005.29,"ADDRESS":"裕英街６８號","OBJECTID":546722},"geometry":{"x":172188.4299999997,"y":2543005.290000001}},{"attributes":{"ID":546750,"DIS_CODE":0,"TOWNNAME":"安南區","LI":"溪心里","LIN":"10鄰","STREET":"仁安八街","SECT":" ","MAREA":" ","LANE":" ","ALLEY":" ","HOUSE_NO":"４０之３號","E_COORD97":166284.76000000001,"N_COORD97":2549926.9399999999,"ADDRESS":"仁安八街４０之３號","OBJECTID":546723},"geometry":{"x":166284.75999999978,"y":2549926.9400000032}},{"attributes":{"ID":546751,"DIS_CODE":0,"TOWNNAME":"東區","LI":"關聖里","LIN":"16鄰","STREET":"裕英街","SECT":" ","MAREA":" ","LANE":" ","ALLEY":" ","HOUSE_NO":"８０號","E_COORD97":172274.01000000001,"N_COORD97":2543004.8199999998,"ADDRESS":"裕英街８０號","OBJECTID":546724},"geometry":{"x":172274.00999999978,"y":2543004.8200000003}},{"attributes":{"ID":546752,"DIS_CODE":0,"TOWNNAME":"佳里區","LI":"六安里","LIN":"10鄰","STREET":"安北路","SECT":" ","MAREA":" ","LANE":" ","ALLEY":" ","HOUSE_NO":"６７號","E_COORD97":165975.07000000001,"N_COORD97":2563123.1499999999,"ADDRESS":"安北路６７號","OBJECTID":546725},"geometry":{"x":165975.0700000003,"y":2563123.1500000022}},{"attributes":{"ID":546753,"DIS_CODE":0,"TOWNNAME":"佳里區","LI":"六安里","LIN":"10鄰","STREET":"安北路","SECT":" ","MAREA":" ","LANE":" ","ALLEY":" ","HOUSE_NO":"６９號","E_COORD97":165966.63,"N_COORD97":2563126.5899999999,"ADDRESS":"安北路６９號","OBJECTID":546726},"geometry":{"x":165966.63000000082,"y":2563126.5899999999}},{"attributes":{"ID":546754,"DIS_CODE":0,"TOWNNAME":"佳里區","LI":"六安里","LIN":"10鄰","STREET":"安北路","SECT":" ","MAREA":" ","LANE":" ","ALLEY":" ","HOUSE_NO":"７０號","E_COORD97":166028.39999999999,"N_COORD97":2563147.5,"ADDRESS":"安北路７０號","OBJECTID":546727},"geometry":{"x":166028.4000000013,"y":2563147.5000000019}},{"attributes":{"ID":546755,"DIS_CODE":0,"TOWNNAME":"佳里區","LI":"六安里","LIN":"10鄰","STREET":"安北路","SECT":" ","MAREA":" ","LANE":" ","ALLEY":" ","HOUSE_NO":"７１號","E_COORD97":165961.60999999999,"N_COORD97":2563126.3799999999,"ADDRESS":"安北路７１號","OBJECTID":546728},"geometry":{"x":165961.6099999994,"y":2563126.3800000008}},{"attributes":{"ID":546756,"DIS_CODE":0,"TOWNNAME":"佳里區","LI":"六安里","LIN":"10鄰","STREET":"安北路","SECT":" ","MAREA":" ","LANE":" ","ALLEY":" ","HOUSE_NO":"７２號","E_COORD97":166023.72,"N_COORD97":2563147.2999999998,"ADDRESS":"安北路７２號","OBJECTID":546729},"geometry":{"x":166023.72000000067,"y":2563147.3000000007}},{"attributes":{"ID":546757,"DIS_CODE":0,"TOWNNAME":"佳里區","LI":"六安里","LIN":"10鄰","STREET":"安北路","SECT":" ","MAREA":" ","LANE":" ","ALLEY":" ","HOUSE_NO":"７３號","E_COORD97":165956.17000000001,"N_COORD97":2563126.9500000002,"ADDRESS":"安北路７３號","OBJECTID":546730},"geometry":{"x":165956.17000000086,"y":2563126.9499999993}},{"attributes":{"ID":546758,"DIS_CODE":0,"TOWNNAME":"佳里區","LI":"六安里","LIN":"10鄰","STREET":"安北路","SECT":" ","MAREA":" ","LANE":" ","ALLEY":" ","HOUSE_NO":"７５號","E_COORD97":165951.57999999999,"N_COORD97":2563126.8100000001,"ADDRESS":"安北路７５號","OBJECTID":546731},"geometry":{"x":165951.58000000194,"y":2563126.8100000005}},{"attributes":{"ID":546759,"DIS_CODE":0,"TOWNNAME":"佳里區","LI":"六安里","LIN":"10鄰","STREET":"安北路","SECT":" ","MAREA":" ","LANE":" ","ALLEY":" ","HOUSE_NO":"７６號","E_COORD97":166018.75,"N_COORD97":2563147.3999999999,"ADDRESS":"安北路７６號","OBJECTID":546732},"geometry":{"x":166018.75000000093,"y":2563147.4000000022}},{"attributes":{"ID":546760,"DIS_CODE":0,"TOWNNAME":"佳里區","LI":"六安里","LIN":"10鄰","STREET":"安北路","SECT":" ","MAREA":" ","LANE":" ","ALLEY":" ","HOUSE_NO":"７７號","E_COORD97":165946.48999999999,"N_COORD97":2563126.7400000002,"ADDRESS":"安北路７７號","OBJECTID":546733},"geometry":{"x":165946.49000000022,"y":2563126.7400000002}},{"attributes":{"ID":546761,"DIS_CODE":0,"TOWNNAME":"佳里區","LI":"六安里","LIN":"10鄰","STREET":"安北路","SECT":" ","MAREA":" ","LANE":" ","ALLEY":" ","HOUSE_NO":"７８號","E_COORD97":166014.03,"N_COORD97":2563147.75,"ADDRESS":"安北路７８號","OBJECTID":546734},"geometry":{"x":166014.03000000026,"y":2563147.7500000037}},{"attributes":{"ID":546762,"DIS_CODE":0,"TOWNNAME":"佳里區","LI":"六安里","LIN":"10鄰","STREET":"安北路","SECT":" ","MAREA":" ","LANE":" ","ALLEY":" ","HOUSE_NO":"７９號","E_COORD97":165942.10999999999,"N_COORD97":2563127.02,"ADDRESS":"安北路７９號","OBJECTID":546735},"geometry":{"x":165942.11000000127,"y":2563127.0199999996}},{"attributes":{"ID":546763,"DIS_CODE":0,"TOWNNAME":"安南區","LI":"顯宮里","LIN":"10鄰","STREET":"媽祖宮路","SECT":" ","MAREA":" ","LANE":" ","ALLEY":" ","HOUSE_NO":"２１６號","E_COORD97":160444,"N_COORD97":2548750.0600000001,"ADDRESS":"媽祖宮路２１６號","OBJECTID":546736},"geometry":{"x":160444,"y":2548750.0600000005}},{"attributes":{"ID":546764,"DIS_CODE":0,"TOWNNAME":"安南區","LI":"顯宮里","LIN":"10鄰","STREET":"媽祖宮路","SECT":" ","MAREA":" ","LANE":" ","ALLEY":" ","HOUSE_NO":"１９１號","E_COORD97":160451.91,"N_COORD97":2548721.3199999998,"ADDRESS":"媽祖宮路１９１號","OBJECTID":546737},"geometry":{"x":160451.91000000201,"y":2548721.3199999984}},{"attributes":{"ID":546765,"DIS_CODE":0,"TOWNNAME":"安南區","LI":"州南里","LIN":"10鄰","STREET":"長和路","SECT":"三段","MAREA":" ","LANE":" ","ALLEY":" ","HOUSE_NO":"２７號","E_COORD97":169879.29000000001,"N_COORD97":2551500.6299999999,"ADDRESS":"長和路三段２７號","OBJECTID":546738},"geometry":{"x":169879.29000000004,"y":2551500.629999999}},{"attributes":{"ID":546766,"DIS_CODE":0,"TOWNNAME":"安南區","LI":"州南里","LIN":"10鄰","STREET":"長和路","SECT":"三段","MAREA":" ","LANE":" ","ALLEY":" ","HOUSE_NO":"３１號","E_COORD97":169873.70000000001,"N_COORD97":2551500.3799999999,"ADDRESS":"長和路三段３１號","OBJECTID":546739},"geometry":{"x":169873.70000000112,"y":2551500.3800000008}},{"attributes":{"ID":546767,"DIS_CODE":0,"TOWNNAME":"安南區","LI":"州南里","LIN":"10鄰","STREET":"長和路","SECT":"三段","MAREA":" ","LANE":" ","ALLEY":" ","HOUSE_NO":"２９號","E_COORD97":169876.23999999999,"N_COORD97":2551497.71,"ADDRESS":"長和路三段２９號","OBJECTID":546740},"geometry":{"x":169876.24000000022,"y":2551497.7100000028}},{"attributes":{"ID":546768,"DIS_CODE":0,"TOWNNAME":"安南區","LI":"州南里","LIN":"10鄰","STREET":"長和路","SECT":"三段","MAREA":" ","LANE":" ","ALLEY":" ","HOUSE_NO":"２９號","E_COORD97":169876.23999999999,"N_COORD97":2551497.8399999999,"ADDRESS":"長和路三段２９號","OBJECTID":546741},"geometry":{"x":169876.24000000022,"y":2551497.8400000036}},{"attributes":{"ID":546769,"DIS_CODE":0,"TOWNNAME":"安南區","LI":"州南里","LIN":"10鄰","STREET":"長和路","SECT":"三段","MAREA":" ","LANE":" ","ALLEY":" ","HOUSE_NO":"２８號","E_COORD97":169878.53,"N_COORD97":2551523.6200000001,"ADDRESS":"長和路三段２８號","OBJECTID":546742},"geometry":{"x":169878.53000000119,"y":2551523.620000001}},{"attributes":{"ID":546770,"DIS_CODE":0,"TOWNNAME":"安南區","LI":"州南里","LIN":"10鄰","STREET":"長和路","SECT":"三段","MAREA":" ","LANE":" ","ALLEY":" ","HOUSE_NO":"２７號","E_COORD97":169879.16,"N_COORD97":2551500.6299999999,"ADDRESS":"長和路三段２７號","OBJECTID":546743},"geometry":{"x":169879.16000000108,"y":2551500.629999999}},{"attributes":{"ID":546771,"DIS_CODE":0,"TOWNNAME":"安南區","LI":"州南里","LIN":"10鄰","STREET":"長和路","SECT":"三段","MAREA":" ","LANE":" ","ALLEY":" ","HOUSE_NO":"２５號","E_COORD97":169882.34,"N_COORD97":2551500.8799999999,"ADDRESS":"長和路三段２５號","OBJECTID":546744},"geometry":{"x":169882.34000000171,"y":2551500.8800000008}},{"attributes":{"ID":546772,"DIS_CODE":0,"TOWNNAME":"安南區","LI":"州南里","LIN":"10鄰","STREET":"長和路","SECT":"三段","MAREA":" ","LANE":" ","ALLEY":" ","HOUSE_NO":"２８號","E_COORD97":169878.39999999999,"N_COORD97":2551523.7400000002,"ADDRESS":"長和路三段２８號","OBJECTID":546745},"geometry":{"x":169878.40000000037,"y":2551523.7400000021}},{"attributes":{"ID":546773,"DIS_CODE":0,"TOWNNAME":"安南區","LI":"州南里","LIN":"10鄰","STREET":"長和路","SECT":"三段","MAREA":" ","LANE":" ","ALLEY":" ","HOUSE_NO":"３０號","E_COORD97":169872.17999999999,"N_COORD97":2551523.6200000001,"ADDRESS":"長和路三段３０號","OBJECTID":546746},"geometry":{"x":169872.18000000063,"y":2551523.620000001}},{"attributes":{"ID":546774,"DIS_CODE":0,"TOWNNAME":"安南區","LI":"州南里","LIN":"10鄰","STREET":"長和路","SECT":"三段","MAREA":" ","LANE":" ","ALLEY":" ","HOUSE_NO":"４８號","E_COORD97":169827.73000000001,"N_COORD97":2551523.1099999999,"ADDRESS":"長和路三段４８號","OBJECTID":546747},"geometry":{"x":169827.73000000231,"y":2551523.1100000013}},{"attributes":{"ID":546775,"DIS_CODE":0,"TOWNNAME":"安南區","LI":"州南里","LIN":"10鄰","STREET":"長和路","SECT":"三段","MAREA":" ","LANE":" ","ALLEY":" ","HOUSE_NO":"５０號","E_COORD97":169823.92000000001,"N_COORD97":2551523.4900000002,"ADDRESS":"長和路三段５０號","OBJECTID":546748},"geometry":{"x":169823.91999999993,"y":2551523.4900000002}},{"attributes":{"ID":546776,"DIS_CODE":0,"TOWNNAME":"安南區","LI":"州南里","LIN":"10鄰","STREET":"長和路","SECT":"三段","MAREA":" ","LANE":" ","ALLEY":" ","HOUSE_NO":"６０之１號","E_COORD97":169788.44,"N_COORD97":2551522.96,"ADDRESS":"長和路三段６０之１號","OBJECTID":546749},"geometry":{"x":169788.44000000041,"y":2551522.9600000028}},{"attributes":{"ID":546777,"DIS_CODE":0,"TOWNNAME":"安南區","LI":"州南里","LIN":"10鄰","STREET":"長和路","SECT":"三段","MAREA":" ","LANE":" ","ALLEY":" ","HOUSE_NO":"６０號","E_COORD97":169791.73999999999,"N_COORD97":2551522.96,"ADDRESS":"長和路三段６０號","OBJECTID":546750},"geometry":{"x":169791.73999999929,"y":2551522.9600000028}},{"attributes":{"ID":546778,"DIS_CODE":0,"TOWNNAME":"安南區","LI":"佃西里","LIN":"10鄰","STREET":"海佃路","SECT":"四段","MAREA":" ","LANE":" ","ALLEY":" ","HOUSE_NO":"４３４之２號","E_COORD97":165474.82000000001,"N_COORD97":2551586.3700000001,"ADDRESS":"海佃路四段４３４之２號","OBJECTID":546751},"geometry":{"x":165474.8200000003,"y":2551586.370000001}},{"attributes":{"ID":546779,"DIS_CODE":0,"TOWNNAME":"安南區","LI":"佃西里","LIN":"10鄰","STREET":"海佃路","SECT":"四段","MAREA":" ","LANE":" ","ALLEY":" ","HOUSE_NO":"４４８號","E_COORD97":165466.67999999999,"N_COORD97":2551588.1499999999,"ADDRESS":"海佃路四段４４８號","OBJECTID":546752},"geometry":{"x":165466.6799999997,"y":2551588.1500000022}},{"attributes":{"ID":546780,"DIS_CODE":0,"TOWNNAME":"安南區","LI":"原佃里","LIN":"10鄰","STREET":"本原街","SECT":"一段","MAREA":" ","LANE":" ","ALLEY":" ","HOUSE_NO":"４０８號","E_COORD97":167514.45999999999,"N_COORD97":2550497.5099999998,"ADDRESS":"本原街一段４０８號","OBJECTID":546753},"geometry":{"x":167514.45999999996,"y":2550497.5100000016}},{"attributes":{"ID":546781,"DIS_CODE":0,"TOWNNAME":"安南區","LI":"城南里","LIN":"10鄰","STREET":"城西街","SECT":"一段","MAREA":" ","LANE":" ","ALLEY":" ","HOUSE_NO":"２８３號","E_COORD97":160289.56,"N_COORD97":2551133.5600000001,"ADDRESS":"城西街一段２８３號","OBJECTID":546754},"geometry":{"x":160289.56000000052,"y":2551133.5600000005}},{"attributes":{"ID":546782,"DIS_CODE":0,"TOWNNAME":"安南區","LI":"城南里","LIN":"10鄰","STREET":"城南路","SECT":" ","MAREA":" ","LANE":" ","ALLEY":" ","HOUSE_NO":"３００之２５號","E_COORD97":160261.45000000001,"N_COORD97":2550879.4700000002,"ADDRESS":"城南路３００之２５號","OBJECTID":546755},"geometry":{"x":160261.45000000019,"y":2550879.4700000007}},{"attributes":{"ID":546783,"DIS_CODE":0,"TOWNNAME":"安南區","LI":"安順里","LIN":"10鄰","STREET":"開安五街","SECT":" ","MAREA":" ","LANE":" ","ALLEY":" ","HOUSE_NO":"２號","E_COORD97":170582.94,"N_COORD97":2549988.23,"ADDRESS":"開安五街２號","OBJECTID":546756},"geometry":{"x":170582.94000000134,"y":2549988.2300000023}},{"attributes":{"ID":546784,"DIS_CODE":0,"TOWNNAME":"安南區","LI":"安順里","LIN":"10鄰","STREET":"開安五街","SECT":" ","MAREA":" ","LANE":" ","ALLEY":" ","HOUSE_NO":"３２之１號","E_COORD97":170740.29000000001,"N_COORD97":2549889.4300000002,"ADDRESS":"開安五街３２之１號","OBJECTID":546757},"geometry":{"x":170740.29000000004,"y":2549889.4299999997}},{"attributes":{"ID":546785,"DIS_CODE":0,"TOWNNAME":"安南區","LI":"安順里","LIN":"10鄰","STREET":"開安四街","SECT":" ","MAREA":" ","LANE":" ","ALLEY":" ","HOUSE_NO":"１之１號","E_COORD97":170582.31,"N_COORD97":2549933.1200000001,"ADDRESS":"開安四街１之１號","OBJECTID":546758},"geometry":{"x":170582.31000000145,"y":2549933.120000001}},{"attributes":{"ID":546786,"DIS_CODE":0,"TOWNNAME":"安南區","LI":"安順里","LIN":"10鄰","STREET":"開安四街","SECT":" ","MAREA":" ","LANE":" ","ALLEY":" ","HOUSE_NO":"２之２號","E_COORD97":170556.51999999999,"N_COORD97":2549889.5600000001,"ADDRESS":"開安四街２之２號","OBJECTID":546759},"geometry":{"x":170556.51999999955,"y":2549889.5599999987}},{"attributes":{"ID":546787,"DIS_CODE":0,"TOWNNAME":"安南區","LI":"安順里","LIN":"10鄰","STREET":"開安四街","SECT":" ","MAREA":" ","LANE":" ","ALLEY":" ","HOUSE_NO":"９號","E_COORD97":170646.95000000001,"N_COORD97":2549896.79,"ADDRESS":"開安四街９號","OBJECTID":546760},"geometry":{"x":170646.95000000112,"y":2549896.7900000028}},{"attributes":{"ID":546788,"DIS_CODE":0,"TOWNNAME":"安南區","LI":"安順里","LIN":"10鄰","STREET":"開安四街","SECT":" ","MAREA":" ","LANE":" ","ALLEY":" ","HOUSE_NO":"９之１號","E_COORD97":170654.70000000001,"N_COORD97":2549894.25,"ADDRESS":"開安四街９之１號","OBJECTID":546761},"geometry":{"x":170654.70000000019,"y":2549894.25}},{"attributes":{"ID":546789,"DIS_CODE":0,"TOWNNAME":"安南區","LI":"安順里","LIN":"10鄰","STREET":"開安路","SECT":" ","MAREA":" ","LANE":" ","ALLEY":" ","HOUSE_NO":"２００號","E_COORD97":170632.35000000001,"N_COORD97":2550140.5099999998,"ADDRESS":"開安路２００號","OBJECTID":546762},"geometry":{"x":170632.34999999963,"y":2550140.5100000016}},{"attributes":{"ID":546790,"DIS_CODE":0,"TOWNNAME":"安南區","LI":"安順里","LIN":"10鄰","STREET":"開安路","SECT":" ","MAREA":" ","LANE":" ","ALLEY":" ","HOUSE_NO":"６５號","E_COORD97":170380.37,"N_COORD97":2549748.71,"ADDRESS":"開安路６５號","OBJECTID":546763},"geometry":{"x":170380.37000000011,"y":2549748.7100000009}},{"attributes":{"ID":546791,"DIS_CODE":0,"TOWNNAME":"安南區","LI":"安順里","LIN":"10鄰","STREET":"開安路","SECT":" ","MAREA":" ","LANE":" ","ALLEY":" ","HOUSE_NO":"７７號","E_COORD97":170420.25,"N_COORD97":2549824.02,"ADDRESS":"開安路７７號","OBJECTID":546764},"geometry":{"x":170420.25,"y":2549824.0199999996}},{"attributes":{"ID":546792,"DIS_CODE":0,"TOWNNAME":"安南區","LI":"安順里","LIN":"10鄰","STREET":"開安路","SECT":" ","MAREA":" ","LANE":" ","ALLEY":" ","HOUSE_NO":"６７號","E_COORD97":170393.07000000001,"N_COORD97":2549773.3500000001,"ADDRESS":"開安路６７號","OBJECTID":546765},"geometry":{"x":170393.06999999937,"y":2549773.3499999996}},{"attributes":{"ID":546793,"DIS_CODE":0,"TOWNNAME":"安南區","LI":"安順里","LIN":"10鄰","STREET":"開安六街","SECT":" ","MAREA":" ","LANE":" ","ALLEY":" ","HOUSE_NO":"１號","E_COORD97":170634.20999999999,"N_COORD97":2550081.5,"ADDRESS":"開安六街１號","OBJECTID":546766},"geometry":{"x":170634.21000000183,"y":2550081.5}},{"attributes":{"ID":546794,"DIS_CODE":0,"TOWNNAME":"安南區","LI":"溪心里","LIN":"10鄰","STREET":"安中路","SECT":"三段","MAREA":" ","LANE":" ","ALLEY":" ","HOUSE_NO":"３２之１號","E_COORD97":166277.01000000001,"N_COORD97":2549773.0899999999,"ADDRESS":"安中路三段３２之１號","OBJECTID":546767},"geometry":{"x":166277.00999999885,"y":2549773.0899999999}},{"attributes":{"ID":546795,"DIS_CODE":0,"TOWNNAME":"安南區","LI":"新順里","LIN":"10鄰","STREET":"安和路","SECT":"二段","MAREA":" ","LANE":" ","ALLEY":" ","HOUSE_NO":"１８２之５號","E_COORD97":169620.10999999999,"N_COORD97":2548999.2000000002,"ADDRESS":"安和路二段１８２之５號","OBJECTID":546768},"geometry":{"x":169620.11000000127,"y":2548999.200000003}},{"attributes":{"ID":546796,"DIS_CODE":0,"TOWNNAME":"東區","LI":"裕聖里","LIN":"10鄰","STREET":"裕信路","SECT":" ","MAREA":" ","LANE":" ","ALLEY":" ","HOUSE_NO":"３９８號","E_COORD97":172558.92999999999,"N_COORD97":2542010.1099999999,"ADDRESS":"裕信路３９８號","OBJECTID":546769},"geometry":{"x":172558.93000000063,"y":2542010.1100000013}},{"attributes":{"ID":546797,"DIS_CODE":0,"TOWNNAME":"東區","LI":"裕聖里","LIN":"10鄰","STREET":"裕信路","SECT":" ","MAREA":" ","LANE":" ","ALLEY":" ","HOUSE_NO":"４３８號","E_COORD97":172506.56,"N_COORD97":2541996.3100000001,"ADDRESS":"裕信路４３８號","OBJECTID":546770},"geometry":{"x":172506.56000000052,"y":2541996.3100000024}},{"attributes":{"ID":546798,"DIS_CODE":0,"TOWNNAME":"東區","LI":"裕聖里","LIN":"10鄰","STREET":"裕信路","SECT":" ","MAREA":" ","LANE":" ","ALLEY":" ","HOUSE_NO":"４４０號","E_COORD97":172512.60000000001,"N_COORD97":2541994.1899999999,"ADDRESS":"裕信路４４０號","OBJECTID":546771},"geometry":{"x":172512.59999999963,"y":2541994.1899999995}},{"attributes":{"ID":546799,"DIS_CODE":0,"TOWNNAME":"東區","LI":"裕聖里","LIN":"10鄰","STREET":"裕信路","SECT":" ","MAREA":" ","LANE":" ","ALLEY":" ","HOUSE_NO":"４４２號","E_COORD97":172519.25,"N_COORD97":2541992.3799999999,"ADDRESS":"裕信路４４２號","OBJECTID":546772},"geometry":{"x":172519.25000000093,"y":2541992.379999999}},{"attributes":{"ID":546800,"DIS_CODE":0,"TOWNNAME":"東區","LI":"裕聖里","LIN":"10鄰","STREET":"裕信路","SECT":" ","MAREA":" ","LANE":" ","ALLEY":" ","HOUSE_NO":"４４６號","E_COORD97":172524.69,"N_COORD97":2541991.7799999998,"ADDRESS":"裕信路４４６號","OBJECTID":546773},"geometry":{"x":172524.69000000041,"y":2541991.7800000012}},{"attributes":{"ID":546801,"DIS_CODE":0,"TOWNNAME":"東區","LI":"裕聖里","LIN":"10鄰","STREET":"裕信路","SECT":" ","MAREA":" ","LANE":" ","ALLEY":" ","HOUSE_NO":"４４８號","E_COORD97":172530.12,"N_COORD97":2541989.3599999999,"ADDRESS":"裕信路４４８號","OBJECTID":546774},"geometry":{"x":172530.11999999918,"y":2541989.3599999994}},{"attributes":{"ID":546802,"DIS_CODE":0,"TOWNNAME":"東區","LI":"裕聖里","LIN":"10鄰","STREET":"裕信路","SECT":" ","MAREA":" ","LANE":" ","ALLEY":" ","HOUSE_NO":"４５０號","E_COORD97":172535.85999999999,"N_COORD97":2541987.8500000001,"ADDRESS":"裕信路４５０號","OBJECTID":546775},"geometry":{"x":172535.86000000127,"y":2541987.8500000015}},{"attributes":{"ID":546803,"DIS_CODE":0,"TOWNNAME":"東區","LI":"裕聖里","LIN":"10鄰","STREET":"裕信路","SECT":" ","MAREA":" ","LANE":" ","ALLEY":" ","HOUSE_NO":"４５２號","E_COORD97":172542.81,"N_COORD97":2541986.3500000001,"ADDRESS":"裕信路４５２號","OBJECTID":546776},"geometry":{"x":172542.81000000052,"y":2541986.3499999996}},{"attributes":{"ID":546804,"DIS_CODE":0,"TOWNNAME":"東區","LI":"裕聖里","LIN":"10鄰","STREET":"裕信路","SECT":" ","MAREA":" ","LANE":" ","ALLEY":" ","HOUSE_NO":"４５６號","E_COORD97":172547.34,"N_COORD97":2541985.7400000002,"ADDRESS":"裕信路４５６號","OBJECTID":546777},"geometry":{"x":172547.34000000078,"y":2541985.7400000021}},{"attributes":{"ID":546805,"DIS_CODE":0,"TOWNNAME":"東區","LI":"裕聖里","LIN":"10鄰","STREET":"裕信路","SECT":" ","MAREA":" ","LANE":" ","ALLEY":" ","HOUSE_NO":"４５８號","E_COORD97":172552.78,"N_COORD97":2541984.23,"ADDRESS":"裕信路４５８號","OBJECTID":546778},"geometry":{"x":172552.78000000026,"y":2541984.2300000004}},{"attributes":{"ID":546806,"DIS_CODE":0,"TOWNNAME":"東區","LI":"裕聖里","LIN":"10鄰","STREET":"裕信路","SECT":" ","MAREA":" ","LANE":" ","ALLEY":" ","HOUSE_NO":"４６０號","E_COORD97":172558.82000000001,"N_COORD97":2541981.21,"ADDRESS":"裕信路４６０號","OBJECTID":546779},"geometry":{"x":172558.8200000003,"y":2541981.2100000009}},{"attributes":{"ID":546807,"DIS_CODE":0,"TOWNNAME":"東區","LI":"裕聖里","LIN":"10鄰","STREET":"裕信路","SECT":" ","MAREA":" ","LANE":" ","ALLEY":" ","HOUSE_NO":"４６２號","E_COORD97":172566.98000000001,"N_COORD97":2541979.7000000002,"ADDRESS":"裕信路４６２號","OBJECTID":546780},"geometry":{"x":172566.98000000045,"y":2541979.6999999993}},{"attributes":{"ID":546808,"DIS_CODE":0,"TOWNNAME":"東區","LI":"裕聖里","LIN":"10鄰","STREET":"裕信路","SECT":" ","MAREA":" ","LANE":" ","ALLEY":" ","HOUSE_NO":"４６６號","E_COORD97":172563.04999999999,"N_COORD97":2541966.1200000001,"ADDRESS":"裕信路４６６號","OBJECTID":546781},"geometry":{"x":172563.05000000075,"y":2541966.120000001}},{"attributes":{"ID":546809,"DIS_CODE":0,"TOWNNAME":"東區","LI":"裕聖里","LIN":"10鄰","STREET":"裕信路","SECT":" ","MAREA":" ","LANE":" ","ALLEY":" ","HOUSE_NO":"４６８號","E_COORD97":172556.41,"N_COORD97":2541969.1400000001,"ADDRESS":"裕信路４６８號","OBJECTID":546782},"geometry":{"x":172556.41000000015,"y":2541969.1399999987}},{"attributes":{"ID":546810,"DIS_CODE":0,"TOWNNAME":"東區","LI":"裕聖里","LIN":"10鄰","STREET":"裕信路","SECT":" ","MAREA":" ","LANE":" ","ALLEY":" ","HOUSE_NO":"４７０號","E_COORD97":172550.37,"N_COORD97":2541970.6499999999,"ADDRESS":"裕信路４７０號","OBJECTID":546783},"geometry":{"x":172550.37000000011,"y":2541970.6500000022}},{"attributes":{"ID":546811,"DIS_CODE":0,"TOWNNAME":"東區","LI":"裕聖里","LIN":"10鄰","STREET":"裕信路","SECT":" ","MAREA":" ","LANE":" ","ALLEY":" ","HOUSE_NO":"４７２號","E_COORD97":172544.92999999999,"N_COORD97":2541972.7599999998,"ADDRESS":"裕信路４７２號","OBJECTID":546784},"geometry":{"x":172544.93000000063,"y":2541972.7600000016}},{"attributes":{"ID":546812,"DIS_CODE":0,"TOWNNAME":"東區","LI":"裕聖里","LIN":"10鄰","STREET":"裕信路","SECT":" ","MAREA":" ","LANE":" ","ALLEY":" ","HOUSE_NO":"４７６號","E_COORD97":172539.79000000001,"N_COORD97":2541975.1800000002,"ADDRESS":"裕信路４７６號","OBJECTID":546785},"geometry":{"x":172539.79000000097,"y":2541975.1800000034}},{"attributes":{"ID":546813,"DIS_CODE":0,"TOWNNAME":"東區","LI":"裕聖里","LIN":"10鄰","STREET":"裕信路","SECT":" ","MAREA":" ","LANE":" ","ALLEY":" ","HOUSE_NO":"４７８號","E_COORD97":172534.35000000001,"N_COORD97":2541973.6699999999,"ADDRESS":"裕信路４７８號","OBJECTID":546786},"geometry":{"x":172534.34999999963,"y":2541973.6699999999}},{"attributes":{"ID":546814,"DIS_CODE":0,"TOWNNAME":"東區","LI":"裕聖里","LIN":"10鄰","STREET":"裕信路","SECT":" ","MAREA":" ","LANE":" ","ALLEY":" ","HOUSE_NO":"４８０號","E_COORD97":172527.70999999999,"N_COORD97":2541977.29,"ADDRESS":"裕信路４８０號","OBJECTID":546787},"geometry":{"x":172527.70999999903,"y":2541977.290000001}},{"attributes":{"ID":546815,"DIS_CODE":0,"TOWNNAME":"東區","LI":"裕聖里","LIN":"10鄰","STREET":"裕信路","SECT":" ","MAREA":" ","LANE":" ","ALLEY":" ","HOUSE_NO":"４８２號","E_COORD97":172521.67000000001,"N_COORD97":2541975.7799999998,"ADDRESS":"裕信路４８２號","OBJECTID":546788},"geometry":{"x":172521.67000000086,"y":2541975.7799999993}},{"attributes":{"ID":546816,"DIS_CODE":0,"TOWNNAME":"東區","LI":"裕聖里","LIN":"10鄰","STREET":"裕信路","SECT":" ","MAREA":" ","LANE":" ","ALLEY":" ","HOUSE_NO":"４８６號","E_COORD97":172516.53,"N_COORD97":2541979.7000000002,"ADDRESS":"裕信路４８６號","OBJECTID":546789},"geometry":{"x":172516.53000000119,"y":2541979.6999999993}},{"attributes":{"ID":546817,"DIS_CODE":0,"TOWNNAME":"東區","LI":"裕聖里","LIN":"10鄰","STREET":"裕信路","SECT":" ","MAREA":" ","LANE":" ","ALLEY":" ","HOUSE_NO":"４８８號","E_COORD97":172511.09,"N_COORD97":2541978.2000000002,"ADDRESS":"裕信路４８８號","OBJECTID":546790},"geometry":{"x":172511.08999999985,"y":2541978.2000000011}},{"attributes":{"ID":546818,"DIS_CODE":0,"TOWNNAME":"東區","LI":"裕聖里","LIN":"10鄰","STREET":"裕信路","SECT":" ","MAREA":" ","LANE":" ","ALLEY":" ","HOUSE_NO":"４９０號","E_COORD97":172505.64999999999,"N_COORD97":2541980.6099999999,"ADDRESS":"裕信路４９０號","OBJECTID":546791},"geometry":{"x":172505.6500000013,"y":2541980.6099999994}},{"attributes":{"ID":546819,"DIS_CODE":0,"TOWNNAME":"東區","LI":"成大里","LIN":"10鄰","STREET":"民族路","SECT":"一段","MAREA":" ","LANE":" ","ALLEY":" ","HOUSE_NO":"５２號","E_COORD97":169486.38,"N_COORD97":2543878.1699999999,"ADDRESS":"民族路一段５２號","OBJECTID":546792},"geometry":{"x":169486.37999999989,"y":2543878.1700000018}},{"attributes":{"ID":546820,"DIS_CODE":0,"TOWNNAME":"東區","LI":"成大里","LIN":"10鄰","STREET":"民族路","SECT":"一段","MAREA":" ","LANE":" ","ALLEY":" ","HOUSE_NO":"５４號","E_COORD97":169481.23999999999,"N_COORD97":2543876.6099999999,"ADDRESS":"民族路一段５４號","OBJECTID":546793},"geometry":{"x":169481.24000000022,"y":2543876.6099999994}},{"attributes":{"ID":546821,"DIS_CODE":0,"TOWNNAME":"東區","LI":"成大里","LIN":"10鄰","STREET":"民族路","SECT":"一段","MAREA":" ","LANE":" ","ALLEY":" ","HOUSE_NO":"５６號","E_COORD97":169476.88,"N_COORD97":2543878.0099999998,"ADDRESS":"民族路一段５６號","OBJECTID":546794},"geometry":{"x":169476.88000000175,"y":2543878.0099999979}},{"attributes":{"ID":546822,"DIS_CODE":0,"TOWNNAME":"東區","LI":"成大里","LIN":"10鄰","STREET":"民族路","SECT":"一段","MAREA":" ","LANE":" ","ALLEY":" ","HOUSE_NO":"５８號","E_COORD97":169472.20999999999,"N_COORD97":2543878.79,"ADDRESS":"民族路一段５８號","OBJECTID":546795},"geometry":{"x":169472.21000000089,"y":2543878.7899999972}},{"attributes":{"ID":546823,"DIS_CODE":0,"TOWNNAME":"東區","LI":"成大里","LIN":"10鄰","STREET":"民族路","SECT":"一段","MAREA":" ","LANE":" ","ALLEY":" ","HOUSE_NO":"６２號","E_COORD97":169457.39000000001,"N_COORD97":2543879.8999999999,"ADDRESS":"民族路一段６２號","OBJECTID":546796},"geometry":{"x":169457.38999999966,"y":2543879.9000000022}},{"attributes":{"ID":546824,"DIS_CODE":0,"TOWNNAME":"東區","LI":"成大里","LIN":"10鄰","STREET":"民族路","SECT":"一段","MAREA":" ","LANE":" ","ALLEY":" ","HOUSE_NO":"６４號","E_COORD97":169451.23999999999,"N_COORD97":2543880.1899999999,"ADDRESS":"民族路一段６４號","OBJECTID":546797},"geometry":{"x":169451.24000000115,"y":2543880.1900000032}},{"attributes":{"ID":546825,"DIS_CODE":0,"TOWNNAME":"東區","LI":"成大里","LIN":"10鄰","STREET":"民族路","SECT":"一段","MAREA":" ","LANE":" ","ALLEY":" ","HOUSE_NO":"６６號","E_COORD97":169445.79000000001,"N_COORD97":2543880.8100000001,"ADDRESS":"民族路一段６６號","OBJECTID":546798},"geometry":{"x":169445.79000000097,"y":2543880.8100000024}},{"attributes":{"ID":546826,"DIS_CODE":0,"TOWNNAME":"東區","LI":"成大里","LIN":"10鄰","STREET":"民族路","SECT":"一段","MAREA":" ","LANE":" ","ALLEY":" ","HOUSE_NO":"６８號","E_COORD97":169440.34,"N_COORD97":2543880.8100000001,"ADDRESS":"民族路一段６８號","OBJECTID":546799},"geometry":{"x":169440.34000000078,"y":2543880.8100000024}},{"attributes":{"ID":546827,"DIS_CODE":0,"TOWNNAME":"東區","LI":"成大里","LIN":"10鄰","STREET":"民族路","SECT":"一段","MAREA":" ","LANE":" ","ALLEY":" ","HOUSE_NO":"７０號","E_COORD97":169434.42000000001,"N_COORD97":2543881.5899999999,"ADDRESS":"民族路一段７０號","OBJECTID":546800},"geometry":{"x":169434.42000000179,"y":2543881.5900000017}}]}