{"displayFieldName":"TOWNNAME","fieldAliases":{"ID":"ID","DIS_CODE":"DIS_CODE","TOWNNAME":"TOWNNAME","LI":"LI","LIN":"LIN","STREET":"STREET","SECT":"SECT","MAREA":"MAREA","LANE":"LANE","ALLEY":"ALLEY","HOUSE_NO":"HOUSE_NO","E_COORD97":"E_COORD97","N_COORD97":"N_COORD97","ADDRESS":"ADDRESS","OBJECTID":"OBJECTID"},"geometryType":"esriGeometryPoint","spatialReference":{"wkid":102443,"latestWkid":3826},"fields":[{"name":"ID","type":"esriFieldTypeDouble","alias":"ID"},{"name":"DIS_CODE","type":"esriFieldTypeInteger","alias":"DIS_CODE"},{"name":"TOWNNAME","type":"esriFieldTypeString","alias":"TOWNNAME","length":8},{"name":"LI","type":"esriFieldTypeString","alias":"LI","length":8},{"name":"LIN","type":"esriFieldTypeString","alias":"LIN","length":12},{"name":"STREET","type":"esriFieldTypeString","alias":"STREET","length":20},{"name":"SECT","type":"esriFieldTypeString","alias":"SECT","length":8},{"name":"MAREA","type":"esriFieldTypeString","alias":"MAREA","length":12},{"name":"LANE","type":"esriFieldTypeString","alias":"LANE","length":10},{"name":"ALLEY","type":"esriFieldTypeString","alias":"ALLEY","length":10},{"name":"HOUSE_NO","type":"esriFieldTypeString","alias":"HOUSE_NO","length":20},{"name":"E_COORD97","type":"esriFieldTypeDouble","alias":"E_COORD97"},{"name":"N_COORD97","type":"esriFieldTypeDouble","alias":"N_COORD97"},{"name":"ADDRESS","type":"esriFieldTypeString","alias":"ADDRESS","length":50},{"name":"OBJECTID","type":"esriFieldTypeOID","alias":"OBJECTID"}],"features":[{"attributes":{"ID":194402,"DIS_CODE":0,"TOWNNAME":"南化區","LI":"東和里","LIN":"3鄰","STREET":" ","SECT":" ","MAREA":"東和","LANE":" ","ALLEY":" ","HOUSE_NO":"２４號之１","E_COORD97":195768.89999999999,"N_COORD97":2545933.7999999998,"ADDRESS":"東和２４號之１","OBJECTID":194401},"geometry":{"x":195768.90000000037,"y":2545933.8000000007}},{"attributes":{"ID":194403,"DIS_CODE":0,"TOWNNAME":"南化區","LI":"東和里","LIN":"3鄰","STREET":" ","SECT":" ","MAREA":"東和","LANE":" ","ALLEY":" ","HOUSE_NO":"２３號之１","E_COORD97":195733.20000000001,"N_COORD97":2546309.7999999998,"ADDRESS":"東和２３號之１","OBJECTID":194402},"geometry":{"x":195733.20000000019,"y":2546309.8000000026}},{"attributes":{"ID":194404,"DIS_CODE":0,"TOWNNAME":"南化區","LI":"東和里","LIN":"3鄰","STREET":" ","SECT":" ","MAREA":"東和","LANE":" ","ALLEY":" ","HOUSE_NO":"２４號","E_COORD97":195542.87,"N_COORD97":2545609.75,"ADDRESS":"東和２４號","OBJECTID":194403},"geometry":{"x":195542.87000000104,"y":2545609.7500000019}},{"attributes":{"ID":194405,"DIS_CODE":0,"TOWNNAME":"南化區","LI":"東和里","LIN":"3鄰","STREET":" ","SECT":" ","MAREA":"東和","LANE":" ","ALLEY":" ","HOUSE_NO":"２４號之２","E_COORD97":195661.34,"N_COORD97":2545744.7999999998,"ADDRESS":"東和２４號之２","OBJECTID":194404},"geometry":{"x":195661.34000000078,"y":2545744.8000000007}},{"attributes":{"ID":194406,"DIS_CODE":0,"TOWNNAME":"南化區","LI":"東和里","LIN":"3鄰","STREET":" ","SECT":" ","MAREA":"東和","LANE":" ","ALLEY":" ","HOUSE_NO":"２５號之２","E_COORD97":195506.44,"N_COORD97":2545584.7999999998,"ADDRESS":"東和２５號之２","OBJECTID":194405},"geometry":{"x":195506.44000000041,"y":2545584.8000000007}},{"attributes":{"ID":194407,"DIS_CODE":0,"TOWNNAME":"南化區","LI":"小崙里","LIN":"3鄰","STREET":" ","SECT":" ","MAREA":"小崙","LANE":" ","ALLEY":" ","HOUSE_NO":"３５號之１","E_COORD97":197119.10000000001,"N_COORD97":2550811.7999999998,"ADDRESS":"小崙３５號之１","OBJECTID":194406},"geometry":{"x":197119.10000000056,"y":2550811.8000000026}},{"attributes":{"ID":194408,"DIS_CODE":0,"TOWNNAME":"南化區","LI":"西埔里","LIN":"3鄰","STREET":" ","SECT":" ","MAREA":"西埔","LANE":" ","ALLEY":" ","HOUSE_NO":"２５號","E_COORD97":195273.23999999999,"N_COORD97":2546713.75,"ADDRESS":"西埔２５號","OBJECTID":194407},"geometry":{"x":195273.24000000022,"y":2546713.75}},{"attributes":{"ID":194409,"DIS_CODE":0,"TOWNNAME":"南化區","LI":"東和里","LIN":"3鄰","STREET":" ","SECT":" ","MAREA":"東和","LANE":" ","ALLEY":" ","HOUSE_NO":"２３號","E_COORD97":195940.76999999999,"N_COORD97":2546155.75,"ADDRESS":"東和２３號","OBJECTID":194408},"geometry":{"x":195940.76999999955,"y":2546155.7500000019}},{"attributes":{"ID":194410,"DIS_CODE":0,"TOWNNAME":"南化區","LI":"小崙里","LIN":"3鄰","STREET":" ","SECT":" ","MAREA":"小崙","LANE":" ","ALLEY":" ","HOUSE_NO":"２８號之２","E_COORD97":197324.14000000001,"N_COORD97":2550548.7999999998,"ADDRESS":"小崙２８號之２","OBJECTID":194409},"geometry":{"x":197324.1400000006,"y":2550548.8000000007}},{"attributes":{"ID":194411,"DIS_CODE":0,"TOWNNAME":"南化區","LI":"南化里","LIN":"3鄰","STREET":" ","SECT":" ","MAREA":"南化","LANE":" ","ALLEY":" ","HOUSE_NO":"３２之２８號","E_COORD97":195804.64000000001,"N_COORD97":2549368.7999999998,"ADDRESS":"南化３２之２８號","OBJECTID":194410},"geometry":{"x":195804.64000000153,"y":2549368.8000000007}},{"attributes":{"ID":194412,"DIS_CODE":0,"TOWNNAME":"南化區","LI":"南化里","LIN":"3鄰","STREET":" ","SECT":" ","MAREA":"南化","LANE":" ","ALLEY":" ","HOUSE_NO":"３１號之２０","E_COORD97":195779.23000000001,"N_COORD97":2549400.7999999998,"ADDRESS":"南化３１號之２０","OBJECTID":194411},"geometry":{"x":195779.23000000045,"y":2549400.8000000026}},{"attributes":{"ID":194413,"DIS_CODE":0,"TOWNNAME":"南化區","LI":"小崙里","LIN":"3鄰","STREET":" ","SECT":" ","MAREA":"小崙","LANE":" ","ALLEY":" ","HOUSE_NO":"２５號","E_COORD97":197346.37,"N_COORD97":2550492.75,"ADDRESS":"小崙２５號","OBJECTID":194412},"geometry":{"x":197346.37000000104,"y":2550492.7500000019}},{"attributes":{"ID":194414,"DIS_CODE":0,"TOWNNAME":"東區","LI":"泉南里","LIN":"38鄰","STREET":"林森路","SECT":"一段","MAREA":" ","LANE":"１５３巷","ALLEY":"２７弄","HOUSE_NO":"３號三樓","E_COORD97":169484.07999999999,"N_COORD97":2542733.6699999999,"ADDRESS":"林森路一段１５３巷２７弄３號三樓","OBJECTID":194413},"geometry":{"x":169484.08000000007,"y":2542733.6699999999}},{"attributes":{"ID":194415,"DIS_CODE":0,"TOWNNAME":"東區","LI":"泉南里","LIN":"38鄰","STREET":"林森路","SECT":"一段","MAREA":" ","LANE":"１５３巷","ALLEY":"２７弄","HOUSE_NO":"３號五樓","E_COORD97":169484.07999999999,"N_COORD97":2542733.6699999999,"ADDRESS":"林森路一段１５３巷２７弄３號五樓","OBJECTID":194414},"geometry":{"x":169484.08000000007,"y":2542733.6699999999}},{"attributes":{"ID":194416,"DIS_CODE":0,"TOWNNAME":"東區","LI":"泉南里","LIN":"38鄰","STREET":"林森路","SECT":"一段","MAREA":" ","LANE":"１５３巷","ALLEY":"２７弄","HOUSE_NO":"３號六樓","E_COORD97":169484.07999999999,"N_COORD97":2542733.6699999999,"ADDRESS":"林森路一段１５３巷２７弄３號六樓","OBJECTID":194415},"geometry":{"x":169484.08000000007,"y":2542733.6699999999}},{"attributes":{"ID":194417,"DIS_CODE":0,"TOWNNAME":"東區","LI":"泉南里","LIN":"38鄰","STREET":"林森路","SECT":"一段","MAREA":" ","LANE":"１５３巷","ALLEY":"２７弄","HOUSE_NO":"３號四樓","E_COORD97":169484.07999999999,"N_COORD97":2542733.6699999999,"ADDRESS":"林森路一段１５３巷２７弄３號四樓","OBJECTID":194416},"geometry":{"x":169484.08000000007,"y":2542733.6699999999}},{"attributes":{"ID":194418,"DIS_CODE":0,"TOWNNAME":"東區","LI":"泉南里","LIN":"38鄰","STREET":"林森路","SECT":"一段","MAREA":" ","LANE":"１５３巷","ALLEY":"２７弄","HOUSE_NO":"５號七樓","E_COORD97":169473.17000000001,"N_COORD97":2542731.1400000001,"ADDRESS":"林森路一段１５３巷２７弄５號七樓","OBJECTID":194417},"geometry":{"x":169473.16999999899,"y":2542731.1400000006}},{"attributes":{"ID":194419,"DIS_CODE":0,"TOWNNAME":"東區","LI":"泉南里","LIN":"38鄰","STREET":"林森路","SECT":"一段","MAREA":" ","LANE":"１５３巷","ALLEY":"２７弄","HOUSE_NO":"５號九樓","E_COORD97":169473.17000000001,"N_COORD97":2542731.1400000001,"ADDRESS":"林森路一段１５３巷２７弄５號九樓","OBJECTID":194418},"geometry":{"x":169473.16999999899,"y":2542731.1400000006}},{"attributes":{"ID":194420,"DIS_CODE":0,"TOWNNAME":"東區","LI":"泉南里","LIN":"38鄰","STREET":"林森路","SECT":"一段","MAREA":" ","LANE":"１５３巷","ALLEY":"２７弄","HOUSE_NO":"５號二樓","E_COORD97":169473.17000000001,"N_COORD97":2542731.1400000001,"ADDRESS":"林森路一段１５３巷２７弄５號二樓","OBJECTID":194419},"geometry":{"x":169473.16999999899,"y":2542731.1400000006}},{"attributes":{"ID":194421,"DIS_CODE":0,"TOWNNAME":"東區","LI":"泉南里","LIN":"38鄰","STREET":"林森路","SECT":"一段","MAREA":" ","LANE":"１５３巷","ALLEY":"２７弄","HOUSE_NO":"５號八樓","E_COORD97":169473.17000000001,"N_COORD97":2542731.1400000001,"ADDRESS":"林森路一段１５３巷２７弄５號八樓","OBJECTID":194420},"geometry":{"x":169473.16999999899,"y":2542731.1400000006}},{"attributes":{"ID":194422,"DIS_CODE":0,"TOWNNAME":"新營區","LI":"民榮里","LIN":"38鄰","STREET":"太子路","SECT":" ","MAREA":" ","LANE":"５３巷","ALLEY":"６弄","HOUSE_NO":"１７號之４","E_COORD97":178283.64000000001,"N_COORD97":2577947.52,"ADDRESS":"太子路５３巷６弄１７號之４","OBJECTID":194421},"geometry":{"x":178283.6400000006,"y":2577947.5199999977}},{"attributes":{"ID":194423,"DIS_CODE":0,"TOWNNAME":"東區","LI":"泉南里","LIN":"38鄰","STREET":"林森路","SECT":"一段","MAREA":" ","LANE":"１５３巷","ALLEY":"２７弄","HOUSE_NO":"５號十一樓","E_COORD97":169473.17000000001,"N_COORD97":2542731.1400000001,"ADDRESS":"林森路一段１５３巷２７弄５號十一樓","OBJECTID":194422},"geometry":{"x":169473.16999999899,"y":2542731.1400000006}},{"attributes":{"ID":194424,"DIS_CODE":0,"TOWNNAME":"東區","LI":"泉南里","LIN":"38鄰","STREET":"林森路","SECT":"一段","MAREA":" ","LANE":"１５３巷","ALLEY":"２７弄","HOUSE_NO":"５號十二樓","E_COORD97":169473.17000000001,"N_COORD97":2542731.1400000001,"ADDRESS":"林森路一段１５３巷２７弄５號十二樓","OBJECTID":194423},"geometry":{"x":169473.16999999899,"y":2542731.1400000006}},{"attributes":{"ID":194425,"DIS_CODE":0,"TOWNNAME":"南化區","LI":"中坑里","LIN":"3鄰","STREET":" ","SECT":" ","MAREA":"中坑","LANE":" ","ALLEY":" ","HOUSE_NO":"２１號","E_COORD97":194196.26000000001,"N_COORD97":2549594.7799999998,"ADDRESS":"中坑２１號","OBJECTID":194424},"geometry":{"x":194196.25999999978,"y":2549594.7799999993}},{"attributes":{"ID":194426,"DIS_CODE":0,"TOWNNAME":"南化區","LI":"關山里","LIN":"3鄰","STREET":" ","SECT":" ","MAREA":"西阿里關","LANE":" ","ALLEY":" ","HOUSE_NO":"６０號","E_COORD97":207503.23999999999,"N_COORD97":2561182.75,"ADDRESS":"西阿里關６０號","OBJECTID":194425},"geometry":{"x":207503.24000000115,"y":2561182.7500000019}},{"attributes":{"ID":194427,"DIS_CODE":0,"TOWNNAME":"鹽水區","LI":"飯店里","LIN":"3鄰","STREET":" ","SECT":" ","MAREA":"麻油寮","LANE":" ","ALLEY":" ","HOUSE_NO":"５９號","E_COORD97":169451.35000000001,"N_COORD97":2574062.3399999999,"ADDRESS":"麻油寮５９號","OBJECTID":194426},"geometry":{"x":169451.35000000149,"y":2574062.3399999999}},{"attributes":{"ID":194428,"DIS_CODE":0,"TOWNNAME":"東區","LI":"泉南里","LIN":"38鄰","STREET":"林森路","SECT":"一段","MAREA":" ","LANE":"１５３巷","ALLEY":"２７弄","HOUSE_NO":"５號十三樓","E_COORD97":169473.17000000001,"N_COORD97":2542731.1400000001,"ADDRESS":"林森路一段１５３巷２７弄５號十三樓","OBJECTID":194427},"geometry":{"x":169473.16999999899,"y":2542731.1400000006}},{"attributes":{"ID":194429,"DIS_CODE":0,"TOWNNAME":"東區","LI":"泉南里","LIN":"38鄰","STREET":"林森路","SECT":"一段","MAREA":" ","LANE":"１５３巷","ALLEY":"２７弄","HOUSE_NO":"５號十五樓","E_COORD97":169473.17000000001,"N_COORD97":2542731.1400000001,"ADDRESS":"林森路一段１５３巷２７弄５號十五樓","OBJECTID":194428},"geometry":{"x":169473.16999999899,"y":2542731.1400000006}},{"attributes":{"ID":194430,"DIS_CODE":0,"TOWNNAME":"東區","LI":"泉南里","LIN":"38鄰","STREET":"林森路","SECT":"一段","MAREA":" ","LANE":"１５３巷","ALLEY":"２７弄","HOUSE_NO":"５號十四樓","E_COORD97":169473.17000000001,"N_COORD97":2542731.1400000001,"ADDRESS":"林森路一段１５３巷２７弄５號十四樓","OBJECTID":194429},"geometry":{"x":169473.16999999899,"y":2542731.1400000006}},{"attributes":{"ID":194431,"DIS_CODE":0,"TOWNNAME":"東區","LI":"泉南里","LIN":"38鄰","STREET":"林森路","SECT":"一段","MAREA":" ","LANE":"１５３巷","ALLEY":"２７弄","HOUSE_NO":"５號十樓","E_COORD97":169473.17000000001,"N_COORD97":2542731.1400000001,"ADDRESS":"林森路一段１５３巷２７弄５號十樓","OBJECTID":194430},"geometry":{"x":169473.16999999899,"y":2542731.1400000006}},{"attributes":{"ID":194432,"DIS_CODE":0,"TOWNNAME":"東區","LI":"泉南里","LIN":"38鄰","STREET":"林森路","SECT":"一段","MAREA":" ","LANE":"１５３巷","ALLEY":"２７弄","HOUSE_NO":"５號三樓","E_COORD97":169473.17000000001,"N_COORD97":2542731.1400000001,"ADDRESS":"林森路一段１５３巷２７弄５號三樓","OBJECTID":194431},"geometry":{"x":169473.16999999899,"y":2542731.1400000006}},{"attributes":{"ID":194433,"DIS_CODE":0,"TOWNNAME":"東區","LI":"泉南里","LIN":"38鄰","STREET":"林森路","SECT":"一段","MAREA":" ","LANE":"１５３巷","ALLEY":"２７弄","HOUSE_NO":"５號五樓","E_COORD97":169473.17000000001,"N_COORD97":2542731.1400000001,"ADDRESS":"林森路一段１５３巷２７弄５號五樓","OBJECTID":194432},"geometry":{"x":169473.16999999899,"y":2542731.1400000006}},{"attributes":{"ID":194434,"DIS_CODE":0,"TOWNNAME":"東區","LI":"泉南里","LIN":"38鄰","STREET":"林森路","SECT":"一段","MAREA":" ","LANE":"１５３巷","ALLEY":"２７弄","HOUSE_NO":"５號六樓","E_COORD97":169473.17000000001,"N_COORD97":2542731.1400000001,"ADDRESS":"林森路一段１５３巷２７弄５號六樓","OBJECTID":194433},"geometry":{"x":169473.16999999899,"y":2542731.1400000006}},{"attributes":{"ID":194435,"DIS_CODE":0,"TOWNNAME":"東區","LI":"泉南里","LIN":"38鄰","STREET":"林森路","SECT":"一段","MAREA":" ","LANE":"１５３巷","ALLEY":"２７弄","HOUSE_NO":"５號四樓","E_COORD97":169473.17000000001,"N_COORD97":2542731.1400000001,"ADDRESS":"林森路一段１５３巷２７弄５號四樓","OBJECTID":194434},"geometry":{"x":169473.16999999899,"y":2542731.1400000006}},{"attributes":{"ID":194436,"DIS_CODE":0,"TOWNNAME":"東區","LI":"泉南里","LIN":"38鄰","STREET":"林森路","SECT":"一段","MAREA":" ","LANE":"１５３巷","ALLEY":"２７弄","HOUSE_NO":"７號七樓","E_COORD97":169442.14999999999,"N_COORD97":2542736.8999999999,"ADDRESS":"林森路一段１５３巷２７弄７號七樓","OBJECTID":194435},"geometry":{"x":169442.1500000013,"y":2542736.9000000041}},{"attributes":{"ID":194437,"DIS_CODE":0,"TOWNNAME":"東區","LI":"泉南里","LIN":"38鄰","STREET":"林森路","SECT":"一段","MAREA":" ","LANE":"１５３巷","ALLEY":"２７弄","HOUSE_NO":"７號九樓","E_COORD97":169442.14999999999,"N_COORD97":2542736.8999999999,"ADDRESS":"林森路一段１５３巷２７弄７號九樓","OBJECTID":194436},"geometry":{"x":169442.1500000013,"y":2542736.9000000041}},{"attributes":{"ID":194438,"DIS_CODE":0,"TOWNNAME":"東區","LI":"泉南里","LIN":"38鄰","STREET":"林森路","SECT":"一段","MAREA":" ","LANE":"１５３巷","ALLEY":"２７弄","HOUSE_NO":"７號八樓","E_COORD97":169442.14999999999,"N_COORD97":2542736.8999999999,"ADDRESS":"林森路一段１５３巷２７弄７號八樓","OBJECTID":194437},"geometry":{"x":169442.1500000013,"y":2542736.9000000041}},{"attributes":{"ID":194439,"DIS_CODE":0,"TOWNNAME":"東區","LI":"泉南里","LIN":"38鄰","STREET":"林森路","SECT":"一段","MAREA":" ","LANE":"１５３巷","ALLEY":"２７弄","HOUSE_NO":"７號十一樓","E_COORD97":169442.14999999999,"N_COORD97":2542736.8999999999,"ADDRESS":"林森路一段１５３巷２７弄７號十一樓","OBJECTID":194438},"geometry":{"x":169442.1500000013,"y":2542736.9000000041}},{"attributes":{"ID":194440,"DIS_CODE":0,"TOWNNAME":"東區","LI":"泉南里","LIN":"38鄰","STREET":"林森路","SECT":"一段","MAREA":" ","LANE":"１５３巷","ALLEY":"２７弄","HOUSE_NO":"７號十二樓","E_COORD97":169442.14999999999,"N_COORD97":2542736.8999999999,"ADDRESS":"林森路一段１５３巷２７弄７號十二樓","OBJECTID":194439},"geometry":{"x":169442.1500000013,"y":2542736.9000000041}},{"attributes":{"ID":194441,"DIS_CODE":0,"TOWNNAME":"東區","LI":"泉南里","LIN":"38鄰","STREET":"林森路","SECT":"一段","MAREA":" ","LANE":"１５３巷","ALLEY":"２７弄","HOUSE_NO":"７號十三樓","E_COORD97":169442.14999999999,"N_COORD97":2542736.8999999999,"ADDRESS":"林森路一段１５３巷２７弄７號十三樓","OBJECTID":194440},"geometry":{"x":169442.1500000013,"y":2542736.9000000041}},{"attributes":{"ID":194442,"DIS_CODE":0,"TOWNNAME":"東區","LI":"泉南里","LIN":"38鄰","STREET":"林森路","SECT":"一段","MAREA":" ","LANE":"１５３巷","ALLEY":"２７弄","HOUSE_NO":"７號十四樓","E_COORD97":169442.14999999999,"N_COORD97":2542736.8999999999,"ADDRESS":"林森路一段１５３巷２７弄７號十四樓","OBJECTID":194441},"geometry":{"x":169442.1500000013,"y":2542736.9000000041}},{"attributes":{"ID":194443,"DIS_CODE":0,"TOWNNAME":"東區","LI":"泉南里","LIN":"38鄰","STREET":"林森路","SECT":"一段","MAREA":" ","LANE":"１５３巷","ALLEY":"２７弄","HOUSE_NO":"７號十樓","E_COORD97":169442.14999999999,"N_COORD97":2542736.8999999999,"ADDRESS":"林森路一段１５３巷２７弄７號十樓","OBJECTID":194442},"geometry":{"x":169442.1500000013,"y":2542736.9000000041}},{"attributes":{"ID":194444,"DIS_CODE":0,"TOWNNAME":"東區","LI":"泉南里","LIN":"38鄰","STREET":"林森路","SECT":"一段","MAREA":" ","LANE":"１５３巷","ALLEY":"２７弄","HOUSE_NO":"７號三樓","E_COORD97":169442.14999999999,"N_COORD97":2542736.8999999999,"ADDRESS":"林森路一段１５３巷２７弄７號三樓","OBJECTID":194443},"geometry":{"x":169442.1500000013,"y":2542736.9000000041}},{"attributes":{"ID":194445,"DIS_CODE":0,"TOWNNAME":"東區","LI":"泉南里","LIN":"38鄰","STREET":"林森路","SECT":"一段","MAREA":" ","LANE":"１５３巷","ALLEY":"２７弄","HOUSE_NO":"７號五樓","E_COORD97":169442.14999999999,"N_COORD97":2542736.8999999999,"ADDRESS":"林森路一段１５３巷２７弄７號五樓","OBJECTID":194444},"geometry":{"x":169442.1500000013,"y":2542736.9000000041}},{"attributes":{"ID":194446,"DIS_CODE":0,"TOWNNAME":"東區","LI":"泉南里","LIN":"38鄰","STREET":"林森路","SECT":"一段","MAREA":" ","LANE":"１５３巷","ALLEY":"２７弄","HOUSE_NO":"７號六樓","E_COORD97":169442.14999999999,"N_COORD97":2542736.8999999999,"ADDRESS":"林森路一段１５３巷２７弄７號六樓","OBJECTID":194445},"geometry":{"x":169442.1500000013,"y":2542736.9000000041}},{"attributes":{"ID":194447,"DIS_CODE":0,"TOWNNAME":"南化區","LI":"北寮里","LIN":"3鄰","STREET":" ","SECT":" ","MAREA":"北寮","LANE":" ","ALLEY":" ","HOUSE_NO":"５３號","E_COORD97":197648.98999999999,"N_COORD97":2553199.75,"ADDRESS":"北寮５３號","OBJECTID":194446},"geometry":{"x":197648.99000000209,"y":2553199.75}},{"attributes":{"ID":194448,"DIS_CODE":0,"TOWNNAME":"東區","LI":"泉南里","LIN":"38鄰","STREET":"林森路","SECT":"一段","MAREA":" ","LANE":"１５３巷","ALLEY":"２７弄","HOUSE_NO":"７號四樓","E_COORD97":169442.14999999999,"N_COORD97":2542736.8999999999,"ADDRESS":"林森路一段１５３巷２７弄７號四樓","OBJECTID":194447},"geometry":{"x":169442.1500000013,"y":2542736.9000000041}},{"attributes":{"ID":194449,"DIS_CODE":0,"TOWNNAME":"東區","LI":"泉南里","LIN":"38鄰","STREET":"林森路","SECT":"一段","MAREA":" ","LANE":"１５３巷","ALLEY":"２７弄","HOUSE_NO":"９號七樓","E_COORD97":169453.82999999999,"N_COORD97":2542739.3900000001,"ADDRESS":"林森路一段１５３巷２７弄９號七樓","OBJECTID":194448},"geometry":{"x":169453.83000000194,"y":2542739.3900000006}},{"attributes":{"ID":194450,"DIS_CODE":0,"TOWNNAME":"東區","LI":"泉南里","LIN":"38鄰","STREET":"林森路","SECT":"一段","MAREA":" ","LANE":"１５３巷","ALLEY":"２７弄","HOUSE_NO":"９號九樓","E_COORD97":169453.82999999999,"N_COORD97":2542739.3900000001,"ADDRESS":"林森路一段１５３巷２７弄９號九樓","OBJECTID":194449},"geometry":{"x":169453.83000000194,"y":2542739.3900000006}},{"attributes":{"ID":194451,"DIS_CODE":0,"TOWNNAME":"東區","LI":"泉南里","LIN":"38鄰","STREET":"林森路","SECT":"一段","MAREA":" ","LANE":"１５３巷","ALLEY":"２７弄","HOUSE_NO":"９號八樓","E_COORD97":169453.82999999999,"N_COORD97":2542739.3900000001,"ADDRESS":"林森路一段１５３巷２７弄９號八樓","OBJECTID":194450},"geometry":{"x":169453.83000000194,"y":2542739.3900000006}},{"attributes":{"ID":194452,"DIS_CODE":0,"TOWNNAME":"東區","LI":"泉南里","LIN":"38鄰","STREET":"林森路","SECT":"一段","MAREA":" ","LANE":"１５３巷","ALLEY":"２７弄","HOUSE_NO":"９號十一樓","E_COORD97":169453.82999999999,"N_COORD97":2542739.3900000001,"ADDRESS":"林森路一段１５３巷２７弄９號十一樓","OBJECTID":194451},"geometry":{"x":169453.83000000194,"y":2542739.3900000006}},{"attributes":{"ID":194453,"DIS_CODE":0,"TOWNNAME":"東區","LI":"泉南里","LIN":"38鄰","STREET":"林森路","SECT":"一段","MAREA":" ","LANE":"１５３巷","ALLEY":"２７弄","HOUSE_NO":"９號十二樓","E_COORD97":169453.82999999999,"N_COORD97":2542739.3900000001,"ADDRESS":"林森路一段１５３巷２７弄９號十二樓","OBJECTID":194452},"geometry":{"x":169453.83000000194,"y":2542739.3900000006}},{"attributes":{"ID":194454,"DIS_CODE":0,"TOWNNAME":"永康區","LI":"北灣里","LIN":"21鄰","STREET":"大灣路","SECT":" ","MAREA":" ","LANE":"４０巷","ALLEY":" ","HOUSE_NO":"１０１號","E_COORD97":174952.54999999999,"N_COORD97":2546147.5499999998,"ADDRESS":"大灣路４０巷１０１號","OBJECTID":194453},"geometry":{"x":174952.54999999981,"y":2546147.5500000026}},{"attributes":{"ID":194455,"DIS_CODE":0,"TOWNNAME":"鹽水區","LI":"歡雅里","LIN":"3鄰","STREET":" ","SECT":" ","MAREA":"歡雅","LANE":" ","ALLEY":" ","HOUSE_NO":"６３號","E_COORD97":172431.03,"N_COORD97":2576613.4399999999,"ADDRESS":"歡雅６３號","OBJECTID":194454},"geometry":{"x":172431.03000000212,"y":2576613.4400000013}},{"attributes":{"ID":194456,"DIS_CODE":0,"TOWNNAME":"歸仁區","LI":"後市里","LIN":"40鄰","STREET":"中山路","SECT":"二段","MAREA":" ","LANE":" ","ALLEY":" ","HOUSE_NO":"１８８號","E_COORD97":177123.63,"N_COORD97":2540855.7400000002,"ADDRESS":"中山路二段１８８號","OBJECTID":194455},"geometry":{"x":177123.62999999989,"y":2540855.7400000002}},{"attributes":{"ID":194457,"DIS_CODE":0,"TOWNNAME":"東區","LI":"泉南里","LIN":"38鄰","STREET":"林森路","SECT":"一段","MAREA":" ","LANE":"１５３巷","ALLEY":"２７弄","HOUSE_NO":"９號十三樓","E_COORD97":169453.82999999999,"N_COORD97":2542739.3900000001,"ADDRESS":"林森路一段１５３巷２７弄９號十三樓","OBJECTID":194456},"geometry":{"x":169453.83000000194,"y":2542739.3900000006}},{"attributes":{"ID":194458,"DIS_CODE":0,"TOWNNAME":"東區","LI":"泉南里","LIN":"38鄰","STREET":"林森路","SECT":"一段","MAREA":" ","LANE":"１５３巷","ALLEY":"２７弄","HOUSE_NO":"９號十四樓","E_COORD97":169453.82999999999,"N_COORD97":2542739.3900000001,"ADDRESS":"林森路一段１５３巷２７弄９號十四樓","OBJECTID":194457},"geometry":{"x":169453.83000000194,"y":2542739.3900000006}},{"attributes":{"ID":194459,"DIS_CODE":0,"TOWNNAME":"東區","LI":"泉南里","LIN":"38鄰","STREET":"林森路","SECT":"一段","MAREA":" ","LANE":"１５３巷","ALLEY":"２７弄","HOUSE_NO":"９號十樓","E_COORD97":169453.82999999999,"N_COORD97":2542739.3900000001,"ADDRESS":"林森路一段１５３巷２７弄９號十樓","OBJECTID":194458},"geometry":{"x":169453.83000000194,"y":2542739.3900000006}},{"attributes":{"ID":194460,"DIS_CODE":0,"TOWNNAME":"東區","LI":"泉南里","LIN":"38鄰","STREET":"林森路","SECT":"一段","MAREA":" ","LANE":"１５３巷","ALLEY":"２７弄","HOUSE_NO":"９號三樓","E_COORD97":169453.82999999999,"N_COORD97":2542739.3900000001,"ADDRESS":"林森路一段１５３巷２７弄９號三樓","OBJECTID":194459},"geometry":{"x":169453.83000000194,"y":2542739.3900000006}},{"attributes":{"ID":194461,"DIS_CODE":0,"TOWNNAME":"東區","LI":"泉南里","LIN":"38鄰","STREET":"林森路","SECT":"一段","MAREA":" ","LANE":"１５３巷","ALLEY":"２７弄","HOUSE_NO":"９號五樓","E_COORD97":169453.82999999999,"N_COORD97":2542739.3900000001,"ADDRESS":"林森路一段１５３巷２７弄９號五樓","OBJECTID":194460},"geometry":{"x":169453.83000000194,"y":2542739.3900000006}},{"attributes":{"ID":194462,"DIS_CODE":0,"TOWNNAME":"東區","LI":"泉南里","LIN":"38鄰","STREET":"林森路","SECT":"一段","MAREA":" ","LANE":"１５３巷","ALLEY":"２７弄","HOUSE_NO":"９號六樓","E_COORD97":169453.82999999999,"N_COORD97":2542739.3900000001,"ADDRESS":"林森路一段１５３巷２７弄９號六樓","OBJECTID":194461},"geometry":{"x":169453.83000000194,"y":2542739.3900000006}},{"attributes":{"ID":194463,"DIS_CODE":0,"TOWNNAME":"南化區","LI":"中坑里","LIN":"3鄰","STREET":" ","SECT":" ","MAREA":"中坑","LANE":" ","ALLEY":" ","HOUSE_NO":"２４號之１","E_COORD97":194043.29999999999,"N_COORD97":2549301.7999999998,"ADDRESS":"中坑２４號之１","OBJECTID":194462},"geometry":{"x":194043.29999999981,"y":2549301.8000000045}},{"attributes":{"ID":194464,"DIS_CODE":0,"TOWNNAME":"南化區","LI":"北寮里","LIN":"3鄰","STREET":" ","SECT":" ","MAREA":"北寮","LANE":" ","ALLEY":" ","HOUSE_NO":"３９號","E_COORD97":197719.98999999999,"N_COORD97":2553136.75,"ADDRESS":"北寮３９號","OBJECTID":194463},"geometry":{"x":197719.98999999929,"y":2553136.7500000019}},{"attributes":{"ID":194465,"DIS_CODE":0,"TOWNNAME":"南化區","LI":"南化里","LIN":"3鄰","STREET":" ","SECT":" ","MAREA":"南化","LANE":" ","ALLEY":" ","HOUSE_NO":"３１號之１３","E_COORD97":195768.47,"N_COORD97":2549370.7999999998,"ADDRESS":"南化３１號之１３","OBJECTID":194464},"geometry":{"x":195768.4700000016,"y":2549370.8000000026}},{"attributes":{"ID":194466,"DIS_CODE":0,"TOWNNAME":"南化區","LI":"北寮里","LIN":"3鄰","STREET":" ","SECT":" ","MAREA":"北寮","LANE":" ","ALLEY":" ","HOUSE_NO":"３９之２號","E_COORD97":197718.79000000001,"N_COORD97":2553149.7999999998,"ADDRESS":"北寮３９之２號","OBJECTID":194465},"geometry":{"x":197718.79000000004,"y":2553149.8000000045}},{"attributes":{"ID":194467,"DIS_CODE":0,"TOWNNAME":"南化區","LI":"南化里","LIN":"3鄰","STREET":" ","SECT":" ","MAREA":"南化","LANE":" ","ALLEY":" ","HOUSE_NO":"３２號之９","E_COORD97":195850.60999999999,"N_COORD97":2549373.7999999998,"ADDRESS":"南化３２號之９","OBJECTID":194466},"geometry":{"x":195850.61000000034,"y":2549373.8000000026}},{"attributes":{"ID":194468,"DIS_CODE":0,"TOWNNAME":"南化區","LI":"南化里","LIN":"3鄰","STREET":" ","SECT":" ","MAREA":"南化","LANE":" ","ALLEY":" ","HOUSE_NO":"３１號之１５","E_COORD97":195771.63,"N_COORD97":2549378.7999999998,"ADDRESS":"南化３１號之１５","OBJECTID":194467},"geometry":{"x":195771.63000000082,"y":2549378.8000000007}},{"attributes":{"ID":194469,"DIS_CODE":0,"TOWNNAME":"南化區","LI":"南化里","LIN":"3鄰","STREET":" ","SECT":" ","MAREA":"南化","LANE":" ","ALLEY":" ","HOUSE_NO":"３２號之１９","E_COORD97":195830.06,"N_COORD97":2549377.7999999998,"ADDRESS":"南化３２號之１９","OBJECTID":194468},"geometry":{"x":195830.05999999959,"y":2549377.8000000026}},{"attributes":{"ID":194470,"DIS_CODE":0,"TOWNNAME":"南化區","LI":"中坑里","LIN":"3鄰","STREET":" ","SECT":" ","MAREA":"中坑","LANE":" ","ALLEY":" ","HOUSE_NO":"２３之３號","E_COORD97":194101.95999999999,"N_COORD97":2549366.7999999998,"ADDRESS":"中坑２３之３號","OBJECTID":194469},"geometry":{"x":194101.95999999996,"y":2549366.8000000026}},{"attributes":{"ID":194471,"DIS_CODE":0,"TOWNNAME":"南化區","LI":"北寮里","LIN":"3鄰","STREET":" ","SECT":" ","MAREA":"北寮","LANE":" ","ALLEY":" ","HOUSE_NO":"３９之６號","E_COORD97":197706.19,"N_COORD97":2553161.7999999998,"ADDRESS":"北寮３９之６號","OBJECTID":194470},"geometry":{"x":197706.19000000134,"y":2553161.8000000007}},{"attributes":{"ID":194472,"DIS_CODE":0,"TOWNNAME":"南化區","LI":"中坑里","LIN":"3鄰","STREET":" ","SECT":" ","MAREA":"中坑","LANE":" ","ALLEY":" ","HOUSE_NO":"１７號","E_COORD97":194352.06,"N_COORD97":2549608.7799999998,"ADDRESS":"中坑１７號","OBJECTID":194471},"geometry":{"x":194352.05999999959,"y":2549608.7799999975}},{"attributes":{"ID":194473,"DIS_CODE":0,"TOWNNAME":"南化區","LI":"南化里","LIN":"3鄰","STREET":" ","SECT":" ","MAREA":"南化","LANE":" ","ALLEY":" ","HOUSE_NO":"３１號之１７","E_COORD97":195774.64999999999,"N_COORD97":2549387.7999999998,"ADDRESS":"南化３１號之１７","OBJECTID":194472},"geometry":{"x":195774.64999999944,"y":2549387.8000000026}},{"attributes":{"ID":194474,"DIS_CODE":0,"TOWNNAME":"南化區","LI":"南化里","LIN":"3鄰","STREET":" ","SECT":" ","MAREA":"南化","LANE":" ","ALLEY":" ","HOUSE_NO":"３２之１０號","E_COORD97":195852.34,"N_COORD97":2549377.7999999998,"ADDRESS":"南化３２之１０號","OBJECTID":194473},"geometry":{"x":195852.33999999985,"y":2549377.8000000026}},{"attributes":{"ID":194475,"DIS_CODE":0,"TOWNNAME":"南化區","LI":"北平里","LIN":"3鄰","STREET":" ","SECT":" ","MAREA":"北平","LANE":" ","ALLEY":" ","HOUSE_NO":"２５號之３","E_COORD97":196007.82999999999,"N_COORD97":2551679.7999999998,"ADDRESS":"北平２５號之３","OBJECTID":194474},"geometry":{"x":196007.83000000101,"y":2551679.8000000026}},{"attributes":{"ID":194476,"DIS_CODE":0,"TOWNNAME":"南化區","LI":"南化里","LIN":"3鄰","STREET":" ","SECT":" ","MAREA":"南化","LANE":" ","ALLEY":" ","HOUSE_NO":"３２號之２０","E_COORD97":195822.73000000001,"N_COORD97":2549377.7999999998,"ADDRESS":"南化３２號之２０","OBJECTID":194475},"geometry":{"x":195822.73000000045,"y":2549377.8000000026}},{"attributes":{"ID":194477,"DIS_CODE":0,"TOWNNAME":"南化區","LI":"南化里","LIN":"3鄰","STREET":" ","SECT":" ","MAREA":"南化","LANE":" ","ALLEY":" ","HOUSE_NO":"３１號之３","E_COORD97":195790.51999999999,"N_COORD97":2549335.7999999998,"ADDRESS":"南化３１號之３","OBJECTID":194476},"geometry":{"x":195790.52000000048,"y":2549335.8000000045}},{"attributes":{"ID":194478,"DIS_CODE":0,"TOWNNAME":"南化區","LI":"中坑里","LIN":"3鄰","STREET":" ","SECT":" ","MAREA":"中坑","LANE":" ","ALLEY":" ","HOUSE_NO":"１８號","E_COORD97":194383.06,"N_COORD97":2549617.7799999998,"ADDRESS":"中坑１８號","OBJECTID":194477},"geometry":{"x":194383.06000000052,"y":2549617.7799999993}},{"attributes":{"ID":194479,"DIS_CODE":0,"TOWNNAME":"南化區","LI":"北平里","LIN":"3鄰","STREET":" ","SECT":" ","MAREA":"北平","LANE":" ","ALLEY":" ","HOUSE_NO":"２５號之４","E_COORD97":195996.64999999999,"N_COORD97":2551685.7999999998,"ADDRESS":"北平２５號之４","OBJECTID":194478},"geometry":{"x":195996.65000000037,"y":2551685.8000000026}},{"attributes":{"ID":194480,"DIS_CODE":0,"TOWNNAME":"南化區","LI":"南化里","LIN":"3鄰","STREET":" ","SECT":" ","MAREA":"南化","LANE":" ","ALLEY":" ","HOUSE_NO":"３１號之１","E_COORD97":195799.01999999999,"N_COORD97":2549335.7999999998,"ADDRESS":"南化３１號之１","OBJECTID":194479},"geometry":{"x":195799.02000000048,"y":2549335.8000000045}},{"attributes":{"ID":194481,"DIS_CODE":0,"TOWNNAME":"南化區","LI":"南化里","LIN":"3鄰","STREET":" ","SECT":" ","MAREA":"南化","LANE":" ","ALLEY":" ","HOUSE_NO":"３１號之２７","E_COORD97":195834.14999999999,"N_COORD97":2549335.7999999998,"ADDRESS":"南化３１號之２７","OBJECTID":194480},"geometry":{"x":195834.15000000224,"y":2549335.8000000045}},{"attributes":{"ID":194482,"DIS_CODE":0,"TOWNNAME":"南化區","LI":"南化里","LIN":"3鄰","STREET":" ","SECT":" ","MAREA":"南化","LANE":" ","ALLEY":" ","HOUSE_NO":"３２號之１４","E_COORD97":195858.10000000001,"N_COORD97":2549394.7999999998,"ADDRESS":"南化３２號之１４","OBJECTID":194481},"geometry":{"x":195858.10000000056,"y":2549394.8000000026}},{"attributes":{"ID":194483,"DIS_CODE":0,"TOWNNAME":"東區","LI":"泉南里","LIN":"38鄰","STREET":"林森路","SECT":"一段","MAREA":" ","LANE":"１５３巷","ALLEY":"２７弄","HOUSE_NO":"９號四樓","E_COORD97":169453.82999999999,"N_COORD97":2542739.3900000001,"ADDRESS":"林森路一段１５３巷２７弄９號四樓","OBJECTID":194482},"geometry":{"x":169453.83000000194,"y":2542739.3900000006}},{"attributes":{"ID":194484,"DIS_CODE":0,"TOWNNAME":"永康區","LI":"勝利里","LIN":"38鄰","STREET":"勝利街","SECT":" ","MAREA":" ","LANE":"１９７巷","ALLEY":"８弄","HOUSE_NO":"８號二樓之１","E_COORD97":171347.07000000001,"N_COORD97":2545178.2999999998,"ADDRESS":"勝利街１９７巷８弄８號二樓之１","OBJECTID":194483},"geometry":{"x":171347.0700000003,"y":2545178.3000000007}},{"attributes":{"ID":194485,"DIS_CODE":0,"TOWNNAME":"東區","LI":"圍下里","LIN":"15鄰","STREET":"育樂街","SECT":" ","MAREA":" ","LANE":" ","ALLEY":" ","HOUSE_NO":"２２２號","E_COORD97":169455.12,"N_COORD97":2543672.98,"ADDRESS":"育樂街２２２號","OBJECTID":194484},"geometry":{"x":169455.12000000197,"y":2543672.9800000023}},{"attributes":{"ID":194486,"DIS_CODE":0,"TOWNNAME":"南化區","LI":"北平里","LIN":"3鄰","STREET":" ","SECT":" ","MAREA":"北平","LANE":" ","ALLEY":" ","HOUSE_NO":"３１號","E_COORD97":196174.39000000001,"N_COORD97":2551908.75,"ADDRESS":"北平３１號","OBJECTID":194485},"geometry":{"x":196174.3900000006,"y":2551908.7500000037}},{"attributes":{"ID":194487,"DIS_CODE":0,"TOWNNAME":"南化區","LI":"北平里","LIN":"3鄰","STREET":" ","SECT":" ","MAREA":"北平","LANE":" ","ALLEY":" ","HOUSE_NO":"２８號","E_COORD97":195997.59,"N_COORD97":2551713.75,"ADDRESS":"北平２８號","OBJECTID":194486},"geometry":{"x":195997.58999999985,"y":2551713.75}},{"attributes":{"ID":194488,"DIS_CODE":0,"TOWNNAME":"南化區","LI":"北平里","LIN":"3鄰","STREET":" ","SECT":" ","MAREA":"北平","LANE":" ","ALLEY":" ","HOUSE_NO":"３６號","E_COORD97":195762.69,"N_COORD97":2552144.75,"ADDRESS":"北平３６號","OBJECTID":194487},"geometry":{"x":195762.69000000227,"y":2552144.75}},{"attributes":{"ID":194489,"DIS_CODE":0,"TOWNNAME":"南化區","LI":"南化里","LIN":"3鄰","STREET":" ","SECT":" ","MAREA":"南化","LANE":" ","ALLEY":" ","HOUSE_NO":"３１號之２５","E_COORD97":195825.42999999999,"N_COORD97":2549335.7999999998,"ADDRESS":"南化３１號之２５","OBJECTID":194488},"geometry":{"x":195825.43000000063,"y":2549335.8000000045}},{"attributes":{"ID":194490,"DIS_CODE":0,"TOWNNAME":"永康區","LI":"勝利里","LIN":"38鄰","STREET":"勝利街","SECT":" ","MAREA":" ","LANE":"１９７巷","ALLEY":"８弄","HOUSE_NO":"１０號三樓之４","E_COORD97":171351.41,"N_COORD97":2545188.0499999998,"ADDRESS":"勝利街１９７巷８弄１０號三樓之４","OBJECTID":194489},"geometry":{"x":171351.41000000015,"y":2545188.0500000026}},{"attributes":{"ID":194491,"DIS_CODE":0,"TOWNNAME":"永康區","LI":"北灣里","LIN":"38鄰","STREET":"大灣路","SECT":" ","MAREA":" ","LANE":"４０巷","ALLEY":"１８１弄","HOUSE_NO":"４０號","E_COORD97":174793.41,"N_COORD97":2546225.46,"ADDRESS":"大灣路４０巷１８１弄４０號","OBJECTID":194490},"geometry":{"x":174793.41000000108,"y":2546225.4600000009}},{"attributes":{"ID":194492,"DIS_CODE":0,"TOWNNAME":"永康區","LI":"五王里","LIN":"21鄰","STREET":"振興路","SECT":" ","MAREA":" ","LANE":" ","ALLEY":" ","HOUSE_NO":"４０號","E_COORD97":171448.47,"N_COORD97":2545774.02,"ADDRESS":"振興路４０號","OBJECTID":194491},"geometry":{"x":171448.47000000067,"y":2545774.0200000014}},{"attributes":{"ID":194493,"DIS_CODE":0,"TOWNNAME":"東區","LI":"崇文里","LIN":"21鄰","STREET":"崇德二十一街","SECT":" ","MAREA":" ","LANE":" ","ALLEY":" ","HOUSE_NO":"１０５號","E_COORD97":171093.19,"N_COORD97":2540878.6499999999,"ADDRESS":"崇德二十一街１０５號","OBJECTID":194492},"geometry":{"x":171093.19000000134,"y":2540878.6500000022}},{"attributes":{"ID":194494,"DIS_CODE":0,"TOWNNAME":"南化區","LI":"南化里","LIN":"3鄰","STREET":" ","SECT":" ","MAREA":"南化","LANE":" ","ALLEY":" ","HOUSE_NO":"３１號之７","E_COORD97":195774.70000000001,"N_COORD97":2549335.7999999998,"ADDRESS":"南化３１號之７","OBJECTID":194493},"geometry":{"x":195774.70000000112,"y":2549335.8000000045}},{"attributes":{"ID":194495,"DIS_CODE":0,"TOWNNAME":"南化區","LI":"北平里","LIN":"3鄰","STREET":" ","SECT":" ","MAREA":"北平","LANE":" ","ALLEY":" ","HOUSE_NO":"２５之６號","E_COORD97":195974.69,"N_COORD97":2551722.7999999998,"ADDRESS":"北平２５之６號","OBJECTID":194494},"geometry":{"x":195974.69000000227,"y":2551722.8000000045}},{"attributes":{"ID":194496,"DIS_CODE":0,"TOWNNAME":"南化區","LI":"北平里","LIN":"3鄰","STREET":" ","SECT":" ","MAREA":"北平","LANE":" ","ALLEY":" ","HOUSE_NO":"３２號","E_COORD97":196086.89000000001,"N_COORD97":2551982.75,"ADDRESS":"北平３２號","OBJECTID":194495},"geometry":{"x":196086.88999999966,"y":2551982.75}},{"attributes":{"ID":194497,"DIS_CODE":0,"TOWNNAME":"南化區","LI":"北平里","LIN":"3鄰","STREET":" ","SECT":" ","MAREA":"北平","LANE":" ","ALLEY":" ","HOUSE_NO":"３３號","E_COORD97":196023.69,"N_COORD97":2551852.75,"ADDRESS":"北平３３號","OBJECTID":194496},"geometry":{"x":196023.69000000227,"y":2551852.75}},{"attributes":{"ID":194498,"DIS_CODE":0,"TOWNNAME":"南化區","LI":"南化里","LIN":"3鄰","STREET":" ","SECT":" ","MAREA":"南化","LANE":" ","ALLEY":" ","HOUSE_NO":"３１號之４","E_COORD97":195786.25,"N_COORD97":2549335.7999999998,"ADDRESS":"南化３１號之４","OBJECTID":194497},"geometry":{"x":195786.25000000093,"y":2549335.8000000045}},{"attributes":{"ID":194499,"DIS_CODE":0,"TOWNNAME":"南化區","LI":"北平里","LIN":"3鄰","STREET":" ","SECT":" ","MAREA":"北平","LANE":" ","ALLEY":" ","HOUSE_NO":"３６號之１","E_COORD97":195755.13,"N_COORD97":2552158.7999999998,"ADDRESS":"北平３６號之１","OBJECTID":194498},"geometry":{"x":195755.12999999989,"y":2552158.8000000007}},{"attributes":{"ID":194500,"DIS_CODE":0,"TOWNNAME":"南化區","LI":"北平里","LIN":"3鄰","STREET":" ","SECT":" ","MAREA":"北平","LANE":" ","ALLEY":" ","HOUSE_NO":"３０號之１","E_COORD97":196102.03,"N_COORD97":2552109.7999999998,"ADDRESS":"北平３０號之１","OBJECTID":194499},"geometry":{"x":196102.03000000026,"y":2552109.8000000026}},{"attributes":{"ID":194501,"DIS_CODE":0,"TOWNNAME":"南化區","LI":"北平里","LIN":"3鄰","STREET":" ","SECT":" ","MAREA":"北平","LANE":" ","ALLEY":" ","HOUSE_NO":"２５號之１","E_COORD97":196072.23000000001,"N_COORD97":2551678.7999999998,"ADDRESS":"北平２５號之１","OBJECTID":194500},"geometry":{"x":196072.23000000045,"y":2551678.8000000026}},{"attributes":{"ID":194502,"DIS_CODE":0,"TOWNNAME":"南化區","LI":"北平里","LIN":"3鄰","STREET":" ","SECT":" ","MAREA":"北平","LANE":" ","ALLEY":" ","HOUSE_NO":"２５之５號","E_COORD97":196030.09,"N_COORD97":2551668.7999999998,"ADDRESS":"北平２５之５號","OBJECTID":194501},"geometry":{"x":196030.08999999985,"y":2551668.8000000026}},{"attributes":{"ID":194503,"DIS_CODE":0,"TOWNNAME":"南化區","LI":"北平里","LIN":"3鄰","STREET":" ","SECT":" ","MAREA":"北平","LANE":" ","ALLEY":" ","HOUSE_NO":"２９號之１","E_COORD97":196092.42999999999,"N_COORD97":2552092.7999999998,"ADDRESS":"北平２９號之１","OBJECTID":194502},"geometry":{"x":196092.42999999877,"y":2552092.8000000026}},{"attributes":{"ID":194504,"DIS_CODE":0,"TOWNNAME":"南化區","LI":"北平里","LIN":"3鄰","STREET":" ","SECT":" ","MAREA":"北平","LANE":" ","ALLEY":" ","HOUSE_NO":"３０之２號","E_COORD97":196311.48999999999,"N_COORD97":2552301.7999999998,"ADDRESS":"北平３０之２號","OBJECTID":194503},"geometry":{"x":196311.49000000209,"y":2552301.8000000007}},{"attributes":{"ID":194505,"DIS_CODE":0,"TOWNNAME":"南化區","LI":"南化里","LIN":"3鄰","STREET":" ","SECT":" ","MAREA":"南化","LANE":" ","ALLEY":" ","HOUSE_NO":"３１號之８","E_COORD97":195770.76999999999,"N_COORD97":2549335.7999999998,"ADDRESS":"南化３１號之８","OBJECTID":194504},"geometry":{"x":195770.76999999955,"y":2549335.8000000045}},{"attributes":{"ID":194506,"DIS_CODE":0,"TOWNNAME":"南化區","LI":"北平里","LIN":"3鄰","STREET":" ","SECT":" ","MAREA":"北平","LANE":" ","ALLEY":" ","HOUSE_NO":"２６號之１","E_COORD97":196032.32999999999,"N_COORD97":2551759.7999999998,"ADDRESS":"北平２６號之１","OBJECTID":194505},"geometry":{"x":196032.33000000007,"y":2551759.8000000045}},{"attributes":{"ID":194507,"DIS_CODE":0,"TOWNNAME":"南化區","LI":"南化里","LIN":"3鄰","STREET":" ","SECT":" ","MAREA":"南化","LANE":" ","ALLEY":" ","HOUSE_NO":"３１號之２","E_COORD97":195794.45999999999,"N_COORD97":2549335.7999999998,"ADDRESS":"南化３１號之２","OBJECTID":194506},"geometry":{"x":195794.46000000089,"y":2549335.8000000045}},{"attributes":{"ID":194508,"DIS_CODE":0,"TOWNNAME":"南化區","LI":"北平里","LIN":"3鄰","STREET":" ","SECT":" ","MAREA":"北平","LANE":" ","ALLEY":" ","HOUSE_NO":"３５之２號","E_COORD97":195761.39000000001,"N_COORD97":2551878.7999999998,"ADDRESS":"北平３５之２號","OBJECTID":194507},"geometry":{"x":195761.38999999966,"y":2551878.8000000026}},{"attributes":{"ID":194509,"DIS_CODE":0,"TOWNNAME":"南化區","LI":"北平里","LIN":"3鄰","STREET":" ","SECT":" ","MAREA":"北平","LANE":" ","ALLEY":" ","HOUSE_NO":"２５號之２","E_COORD97":196019.26000000001,"N_COORD97":2551674.7999999998,"ADDRESS":"北平２５號之２","OBJECTID":194508},"geometry":{"x":196019.26000000164,"y":2551674.8000000007}},{"attributes":{"ID":194510,"DIS_CODE":0,"TOWNNAME":"南化區","LI":"小崙里","LIN":"3鄰","STREET":" ","SECT":" ","MAREA":"小崙","LANE":" ","ALLEY":" ","HOUSE_NO":"２９號","E_COORD97":197353.17000000001,"N_COORD97":2550619.75,"ADDRESS":"小崙２９號","OBJECTID":194509},"geometry":{"x":197353.17000000086,"y":2550619.75}},{"attributes":{"ID":194511,"DIS_CODE":0,"TOWNNAME":"南化區","LI":"南化里","LIN":"3鄰","STREET":" ","SECT":" ","MAREA":"南化","LANE":" ","ALLEY":" ","HOUSE_NO":"３１號之１４","E_COORD97":195770.39999999999,"N_COORD97":2549374.7999999998,"ADDRESS":"南化３１號之１４","OBJECTID":194510},"geometry":{"x":195770.4000000013,"y":2549374.8000000007}},{"attributes":{"ID":194512,"DIS_CODE":0,"TOWNNAME":"南化區","LI":"南化里","LIN":"3鄰","STREET":" ","SECT":" ","MAREA":"南化","LANE":" ","ALLEY":" ","HOUSE_NO":"３２之６號","E_COORD97":195849.89000000001,"N_COORD97":2549360.7999999998,"ADDRESS":"南化３２之６號","OBJECTID":194511},"geometry":{"x":195849.88999999966,"y":2549360.8000000026}},{"attributes":{"ID":194513,"DIS_CODE":0,"TOWNNAME":"南化區","LI":"南化里","LIN":"3鄰","STREET":" ","SECT":" ","MAREA":"南化","LANE":" ","ALLEY":" ","HOUSE_NO":"３９之５號","E_COORD97":195379.48999999999,"N_COORD97":2549843.7999999998,"ADDRESS":"南化３９之５號","OBJECTID":194512},"geometry":{"x":195379.49000000115,"y":2549843.8000000007}},{"attributes":{"ID":194514,"DIS_CODE":0,"TOWNNAME":"南化區","LI":"南化里","LIN":"3鄰","STREET":" ","SECT":" ","MAREA":"南化","LANE":" ","ALLEY":" ","HOUSE_NO":"３４之８號","E_COORD97":195482.89000000001,"N_COORD97":2549621.7999999998,"ADDRESS":"南化３４之８號","OBJECTID":194513},"geometry":{"x":195482.8900000006,"y":2549621.8000000026}},{"attributes":{"ID":194515,"DIS_CODE":0,"TOWNNAME":"南化區","LI":"北寮里","LIN":"3鄰","STREET":" ","SECT":" ","MAREA":"北寮","LANE":" ","ALLEY":" ","HOUSE_NO":"４５之１號","E_COORD97":197672.48999999999,"N_COORD97":2553198.7999999998,"ADDRESS":"北寮４５之１號","OBJECTID":194514},"geometry":{"x":197672.48999999929,"y":2553198.8000000026}},{"attributes":{"ID":194516,"DIS_CODE":0,"TOWNNAME":"南化區","LI":"南化里","LIN":"3鄰","STREET":" ","SECT":" ","MAREA":"南化","LANE":" ","ALLEY":" ","HOUSE_NO":"３２之１５號","E_COORD97":195845.44,"N_COORD97":2549398.7999999998,"ADDRESS":"南化３２之１５號","OBJECTID":194515},"geometry":{"x":195845.44000000041,"y":2549398.8000000007}},{"attributes":{"ID":194517,"DIS_CODE":0,"TOWNNAME":"南化區","LI":"小崙里","LIN":"3鄰","STREET":" ","SECT":" ","MAREA":"小崙","LANE":" ","ALLEY":" ","HOUSE_NO":"３１號","E_COORD97":197336.87,"N_COORD97":2550667.75,"ADDRESS":"小崙３１號","OBJECTID":194516},"geometry":{"x":197336.87000000011,"y":2550667.7500000037}},{"attributes":{"ID":194518,"DIS_CODE":0,"TOWNNAME":"南化區","LI":"南化里","LIN":"3鄰","STREET":" ","SECT":" ","MAREA":"南化","LANE":" ","ALLEY":" ","HOUSE_NO":"３２之２號","E_COORD97":195857.39000000001,"N_COORD97":2549337.7999999998,"ADDRESS":"南化３２之２號","OBJECTID":194517},"geometry":{"x":195857.3900000006,"y":2549337.8000000007}},{"attributes":{"ID":194519,"DIS_CODE":0,"TOWNNAME":"南化區","LI":"小崙里","LIN":"3鄰","STREET":" ","SECT":" ","MAREA":"小崙","LANE":" ","ALLEY":" ","HOUSE_NO":"２３號之１","E_COORD97":196960.89999999999,"N_COORD97":2550687.7999999998,"ADDRESS":"小崙２３號之１","OBJECTID":194518},"geometry":{"x":196960.90000000037,"y":2550687.8000000007}},{"attributes":{"ID":194520,"DIS_CODE":0,"TOWNNAME":"南化區","LI":"南化里","LIN":"3鄰","STREET":" ","SECT":" ","MAREA":"南化","LANE":" ","ALLEY":" ","HOUSE_NO":"３４之６號","E_COORD97":195523.39000000001,"N_COORD97":2549528.7999999998,"ADDRESS":"南化３４之６號","OBJECTID":194519},"geometry":{"x":195523.3900000006,"y":2549528.7999999989}},{"attributes":{"ID":194521,"DIS_CODE":0,"TOWNNAME":"南化區","LI":"小崙里","LIN":"3鄰","STREET":" ","SECT":" ","MAREA":"小崙","LANE":" ","ALLEY":" ","HOUSE_NO":"２８號之４","E_COORD97":197290.82999999999,"N_COORD97":2550597.7999999998,"ADDRESS":"小崙２８號之４","OBJECTID":194520},"geometry":{"x":197290.83000000101,"y":2550597.8000000026}},{"attributes":{"ID":194522,"DIS_CODE":0,"TOWNNAME":"南化區","LI":"南化里","LIN":"3鄰","STREET":" ","SECT":" ","MAREA":"南化","LANE":" ","ALLEY":" ","HOUSE_NO":"３２號之５","E_COORD97":195849.48000000001,"N_COORD97":2549356.7999999998,"ADDRESS":"南化３２號之５","OBJECTID":194521},"geometry":{"x":195849.48000000138,"y":2549356.8000000026}},{"attributes":{"ID":194523,"DIS_CODE":0,"TOWNNAME":"南化區","LI":"南化里","LIN":"3鄰","STREET":" ","SECT":" ","MAREA":"南化","LANE":" ","ALLEY":" ","HOUSE_NO":"３２號之４","E_COORD97":195865.75,"N_COORD97":2549338.7999999998,"ADDRESS":"南化３２號之４","OBJECTID":194522},"geometry":{"x":195865.75000000093,"y":2549338.8000000007}},{"attributes":{"ID":194524,"DIS_CODE":0,"TOWNNAME":"南化區","LI":"小崙里","LIN":"3鄰","STREET":" ","SECT":" ","MAREA":"小崙","LANE":" ","ALLEY":" ","HOUSE_NO":"２８之５號","E_COORD97":197328.47,"N_COORD97":2550529.7999999998,"ADDRESS":"小崙２８之５號","OBJECTID":194523},"geometry":{"x":197328.47000000067,"y":2550529.8000000026}},{"attributes":{"ID":194525,"DIS_CODE":0,"TOWNNAME":"佳里區","LI":"佳化里","LIN":"21鄰","STREET":" ","SECT":" ","MAREA":"佳里興","LANE":" ","ALLEY":" ","HOUSE_NO":"２０２號之２","E_COORD97":167201.66,"N_COORD97":2565313.4300000002,"ADDRESS":"佳里興２０２號之２","OBJECTID":194524},"geometry":{"x":167201.66000000015,"y":2565313.4300000016}},{"attributes":{"ID":194526,"DIS_CODE":0,"TOWNNAME":"佳里區","LI":"佳化里","LIN":"21鄰","STREET":" ","SECT":" ","MAREA":"佳里興","LANE":" ","ALLEY":" ","HOUSE_NO":"２０２號之３","E_COORD97":167201.23000000001,"N_COORD97":2565308.1499999999,"ADDRESS":"佳里興２０２號之３","OBJECTID":194525},"geometry":{"x":167201.23000000045,"y":2565308.1499999985}},{"attributes":{"ID":194527,"DIS_CODE":0,"TOWNNAME":"佳里區","LI":"佳化里","LIN":"21鄰","STREET":" ","SECT":" ","MAREA":"佳里興","LANE":" ","ALLEY":" ","HOUSE_NO":"２０２號之５","E_COORD97":167210.28,"N_COORD97":2565300.7999999998,"ADDRESS":"佳里興２０２號之５","OBJECTID":194526},"geometry":{"x":167210.28000000119,"y":2565300.7999999989}},{"attributes":{"ID":194528,"DIS_CODE":0,"TOWNNAME":"佳里區","LI":"佳化里","LIN":"21鄰","STREET":" ","SECT":" ","MAREA":"佳里興","LANE":" ","ALLEY":" ","HOUSE_NO":"２０２號之６","E_COORD97":167210.48000000001,"N_COORD97":2565295.8799999999,"ADDRESS":"佳里興２０２號之６","OBJECTID":194527},"geometry":{"x":167210.48000000231,"y":2565295.8800000008}},{"attributes":{"ID":194529,"DIS_CODE":0,"TOWNNAME":"佳里區","LI":"佳化里","LIN":"21鄰","STREET":" ","SECT":" ","MAREA":"佳里興","LANE":" ","ALLEY":" ","HOUSE_NO":"２０２號","E_COORD97":167233.44,"N_COORD97":2565245.8700000001,"ADDRESS":"佳里興２０２號","OBJECTID":194528},"geometry":{"x":167233.44000000134,"y":2565245.870000001}},{"attributes":{"ID":194530,"DIS_CODE":0,"TOWNNAME":"佳里區","LI":"佳化里","LIN":"21鄰","STREET":" ","SECT":" ","MAREA":"佳里興","LANE":" ","ALLEY":" ","HOUSE_NO":"２０４號之１","E_COORD97":167288.62,"N_COORD97":2565274.9399999999,"ADDRESS":"佳里興２０４號之１","OBJECTID":194529},"geometry":{"x":167288.61999999918,"y":2565274.9400000032}},{"attributes":{"ID":194531,"DIS_CODE":0,"TOWNNAME":"佳里區","LI":"佳化里","LIN":"21鄰","STREET":" ","SECT":" ","MAREA":"佳里興","LANE":" ","ALLEY":" ","HOUSE_NO":"２０４號","E_COORD97":167244.64000000001,"N_COORD97":2565294.96,"ADDRESS":"佳里興２０４號","OBJECTID":194530},"geometry":{"x":167244.6400000006,"y":2565294.9600000028}},{"attributes":{"ID":194532,"DIS_CODE":0,"TOWNNAME":"佳里區","LI":"佳化里","LIN":"21鄰","STREET":" ","SECT":" ","MAREA":"佳里興","LANE":" ","ALLEY":" ","HOUSE_NO":"２０５號之１","E_COORD97":167248.14000000001,"N_COORD97":2565273.8100000001,"ADDRESS":"佳里興２０５號之１","OBJECTID":194531},"geometry":{"x":167248.1400000006,"y":2565273.8100000042}},{"attributes":{"ID":194533,"DIS_CODE":0,"TOWNNAME":"佳里區","LI":"佳化里","LIN":"21鄰","STREET":" ","SECT":" ","MAREA":"佳里興","LANE":" ","ALLEY":" ","HOUSE_NO":"２０５號之２","E_COORD97":167258.85999999999,"N_COORD97":2565270.6200000001,"ADDRESS":"佳里興２０５號之２","OBJECTID":194532},"geometry":{"x":167258.86000000127,"y":2565270.620000001}},{"attributes":{"ID":194534,"DIS_CODE":0,"TOWNNAME":"佳里區","LI":"佳化里","LIN":"21鄰","STREET":" ","SECT":" ","MAREA":"佳里興","LANE":" ","ALLEY":" ","HOUSE_NO":"２０５號","E_COORD97":167262.23999999999,"N_COORD97":2565284.25,"ADDRESS":"佳里興２０５號","OBJECTID":194533},"geometry":{"x":167262.24000000022,"y":2565284.2500000019}},{"attributes":{"ID":194535,"DIS_CODE":0,"TOWNNAME":"佳里區","LI":"佳化里","LIN":"21鄰","STREET":" ","SECT":" ","MAREA":"佳里興","LANE":" ","ALLEY":" ","HOUSE_NO":"２０６號之１０","E_COORD97":167322.79999999999,"N_COORD97":2565242.4700000002,"ADDRESS":"佳里興２０６號之１０","OBJECTID":194534},"geometry":{"x":167322.80000000168,"y":2565242.4700000025}},{"attributes":{"ID":194536,"DIS_CODE":0,"TOWNNAME":"佳里區","LI":"佳化里","LIN":"21鄰","STREET":" ","SECT":" ","MAREA":"佳里興","LANE":" ","ALLEY":" ","HOUSE_NO":"２０６號之１１","E_COORD97":167327.91,"N_COORD97":2565241.9399999999,"ADDRESS":"佳里興２０６號之１１","OBJECTID":194535},"geometry":{"x":167327.91000000108,"y":2565241.9400000013}},{"attributes":{"ID":194537,"DIS_CODE":0,"TOWNNAME":"佳里區","LI":"佳化里","LIN":"21鄰","STREET":" ","SECT":" ","MAREA":"佳里興","LANE":" ","ALLEY":" ","HOUSE_NO":"２０６號之１２","E_COORD97":167332.45999999999,"N_COORD97":2565240.8700000001,"ADDRESS":"佳里興２０６號之１２","OBJECTID":194536},"geometry":{"x":167332.46000000089,"y":2565240.8700000029}},{"attributes":{"ID":194538,"DIS_CODE":0,"TOWNNAME":"佳里區","LI":"佳化里","LIN":"21鄰","STREET":" ","SECT":" ","MAREA":"佳里興","LANE":" ","ALLEY":" ","HOUSE_NO":"２０６號之１３","E_COORD97":167337.12,"N_COORD97":2565241.0299999998,"ADDRESS":"佳里興２０６號之１３","OBJECTID":194537},"geometry":{"x":167337.12000000011,"y":2565241.0300000012}},{"attributes":{"ID":194539,"DIS_CODE":0,"TOWNNAME":"佳里區","LI":"佳化里","LIN":"21鄰","STREET":" ","SECT":" ","MAREA":"佳里興","LANE":" ","ALLEY":" ","HOUSE_NO":"２０６號之１４","E_COORD97":167328.95000000001,"N_COORD97":2565258.48,"ADDRESS":"佳里興２０６號之１４","OBJECTID":194538},"geometry":{"x":167328.95000000205,"y":2565258.4800000004}},{"attributes":{"ID":194540,"DIS_CODE":0,"TOWNNAME":"佳里區","LI":"佳化里","LIN":"21鄰","STREET":" ","SECT":" ","MAREA":"佳里興","LANE":" ","ALLEY":" ","HOUSE_NO":"２０６號之１５","E_COORD97":167329.70000000001,"N_COORD97":2565263.52,"ADDRESS":"佳里興２０６號之１５","OBJECTID":194539},"geometry":{"x":167329.70000000112,"y":2565263.5199999996}},{"attributes":{"ID":194541,"DIS_CODE":0,"TOWNNAME":"南化區","LI":"南化里","LIN":"3鄰","STREET":" ","SECT":" ","MAREA":"南化","LANE":" ","ALLEY":" ","HOUSE_NO":"３８號","E_COORD97":195634.48999999999,"N_COORD97":2549599.75,"ADDRESS":"南化３８號","OBJECTID":194540},"geometry":{"x":195634.49000000022,"y":2549599.7500000037}},{"attributes":{"ID":194542,"DIS_CODE":0,"TOWNNAME":"南化區","LI":"關山里","LIN":"3鄰","STREET":" ","SECT":" ","MAREA":"西阿里關","LANE":" ","ALLEY":" ","HOUSE_NO":"５９號","E_COORD97":207556.84,"N_COORD97":2561329.75,"ADDRESS":"西阿里關５９號","OBJECTID":194541},"geometry":{"x":207556.84000000078,"y":2561329.75}},{"attributes":{"ID":194543,"DIS_CODE":0,"TOWNNAME":"南化區","LI":"南化里","LIN":"3鄰","STREET":" ","SECT":" ","MAREA":"南化","LANE":" ","ALLEY":" ","HOUSE_NO":"４０之１號","E_COORD97":195700.39000000001,"N_COORD97":2549617.7999999998,"ADDRESS":"南化４０之１號","OBJECTID":194542},"geometry":{"x":195700.38999999966,"y":2549617.8000000026}},{"attributes":{"ID":194544,"DIS_CODE":0,"TOWNNAME":"南化區","LI":"南化里","LIN":"3鄰","STREET":" ","SECT":" ","MAREA":"南化","LANE":" ","ALLEY":" ","HOUSE_NO":"３１號之２２","E_COORD97":195813.10999999999,"N_COORD97":2549335.7999999998,"ADDRESS":"南化３１號之２２","OBJECTID":194543},"geometry":{"x":195813.11000000127,"y":2549335.8000000045}},{"attributes":{"ID":194545,"DIS_CODE":0,"TOWNNAME":"佳里區","LI":"佳化里","LIN":"21鄰","STREET":" ","SECT":" ","MAREA":"佳里興","LANE":" ","ALLEY":" ","HOUSE_NO":"２０９號之２１","E_COORD97":167344.07999999999,"N_COORD97":2565394.4100000001,"ADDRESS":"佳里興２０９號之２１","OBJECTID":194544},"geometry":{"x":167344.08000000007,"y":2565394.4099999983}},{"attributes":{"ID":194546,"DIS_CODE":0,"TOWNNAME":"佳里區","LI":"佳化里","LIN":"21鄰","STREET":" ","SECT":" ","MAREA":"佳里興","LANE":" ","ALLEY":" ","HOUSE_NO":"２０９號之２２","E_COORD97":167344.07000000001,"N_COORD97":2565399.0099999998,"ADDRESS":"佳里興２０９號之２２","OBJECTID":194545},"geometry":{"x":167344.07000000123,"y":2565399.0099999998}},{"attributes":{"ID":194547,"DIS_CODE":0,"TOWNNAME":"佳里區","LI":"佳化里","LIN":"21鄰","STREET":" ","SECT":" ","MAREA":"佳里興","LANE":" ","ALLEY":" ","HOUSE_NO":"２０９號之２３","E_COORD97":167345.38,"N_COORD97":2565402.9500000002,"ADDRESS":"佳里興２０９號之２３","OBJECTID":194546},"geometry":{"x":167345.37999999989,"y":2565402.9499999993}},{"attributes":{"ID":194548,"DIS_CODE":0,"TOWNNAME":"佳里區","LI":"佳化里","LIN":"21鄰","STREET":" ","SECT":" ","MAREA":"佳里興","LANE":" ","ALLEY":" ","HOUSE_NO":"２０９號之２４","E_COORD97":167345.88,"N_COORD97":2565407.2400000002,"ADDRESS":"佳里興２０９號之２４","OBJECTID":194547},"geometry":{"x":167345.87999999989,"y":2565407.2400000021}},{"attributes":{"ID":194549,"DIS_CODE":0,"TOWNNAME":"佳里區","LI":"佳化里","LIN":"21鄰","STREET":" ","SECT":" ","MAREA":"佳里興","LANE":" ","ALLEY":" ","HOUSE_NO":"２０９號之２５","E_COORD97":167359.53,"N_COORD97":2565415.46,"ADDRESS":"佳里興２０９號之２５","OBJECTID":194548},"geometry":{"x":167359.53000000119,"y":2565415.4600000046}},{"attributes":{"ID":194550,"DIS_CODE":0,"TOWNNAME":"佳里區","LI":"佳化里","LIN":"21鄰","STREET":" ","SECT":" ","MAREA":"佳里興","LANE":" ","ALLEY":" ","HOUSE_NO":"２０９號之２６","E_COORD97":167354.48999999999,"N_COORD97":2565416.1899999999,"ADDRESS":"佳里興２０９號之２６","OBJECTID":194549},"geometry":{"x":167354.49000000115,"y":2565416.1900000013}},{"attributes":{"ID":194551,"DIS_CODE":0,"TOWNNAME":"佳里區","LI":"佳化里","LIN":"21鄰","STREET":" ","SECT":" ","MAREA":"佳里興","LANE":" ","ALLEY":" ","HOUSE_NO":"２０９號之２７","E_COORD97":167349.79999999999,"N_COORD97":2565417.1800000002,"ADDRESS":"佳里興２０９號之２７","OBJECTID":194550},"geometry":{"x":167349.79999999888,"y":2565417.1800000016}},{"attributes":{"ID":194552,"DIS_CODE":0,"TOWNNAME":"佳里區","LI":"佳化里","LIN":"21鄰","STREET":" ","SECT":" ","MAREA":"佳里興","LANE":" ","ALLEY":" ","HOUSE_NO":"２０９號之２８","E_COORD97":167346.01999999999,"N_COORD97":2565418.1600000001,"ADDRESS":"佳里興２０９號之２８","OBJECTID":194551},"geometry":{"x":167346.01999999955,"y":2565418.160000002}},{"attributes":{"ID":194553,"DIS_CODE":0,"TOWNNAME":"佳里區","LI":"佳化里","LIN":"21鄰","STREET":" ","SECT":" ","MAREA":"佳里興","LANE":" ","ALLEY":" ","HOUSE_NO":"２０９號之２９","E_COORD97":167341.95000000001,"N_COORD97":2565418.8300000001,"ADDRESS":"佳里興２０９號之２９","OBJECTID":194552},"geometry":{"x":167341.95000000019,"y":2565418.8300000038}},{"attributes":{"ID":194554,"DIS_CODE":0,"TOWNNAME":"佳里區","LI":"佳化里","LIN":"21鄰","STREET":" ","SECT":" ","MAREA":"佳里興","LANE":" ","ALLEY":" ","HOUSE_NO":"２０９號之２","E_COORD97":167312.92000000001,"N_COORD97":2565338.8900000001,"ADDRESS":"佳里興２０９號之２","OBJECTID":194553},"geometry":{"x":167312.91999999993,"y":2565338.8900000025}},{"attributes":{"ID":194555,"DIS_CODE":0,"TOWNNAME":"佳里區","LI":"佳化里","LIN":"21鄰","STREET":" ","SECT":" ","MAREA":"佳里興","LANE":" ","ALLEY":" ","HOUSE_NO":"２０９號之３","E_COORD97":167312.39999999999,"N_COORD97":2565334.75,"ADDRESS":"佳里興２０９號之３","OBJECTID":194554},"geometry":{"x":167312.39999999944,"y":2565334.7500000019}},{"attributes":{"ID":194556,"DIS_CODE":0,"TOWNNAME":"佳里區","LI":"佳化里","LIN":"21鄰","STREET":" ","SECT":" ","MAREA":"佳里興","LANE":" ","ALLEY":" ","HOUSE_NO":"２０９號之４","E_COORD97":167312.01999999999,"N_COORD97":2565330.1000000001,"ADDRESS":"佳里興２０９號之４","OBJECTID":194555},"geometry":{"x":167312.01999999955,"y":2565330.0999999996}},{"attributes":{"ID":194557,"DIS_CODE":0,"TOWNNAME":"佳里區","LI":"佳化里","LIN":"21鄰","STREET":" ","SECT":" ","MAREA":"佳里興","LANE":" ","ALLEY":" ","HOUSE_NO":"２０９號之５","E_COORD97":167337.64000000001,"N_COORD97":2565338.8900000001,"ADDRESS":"佳里興２０９號之５","OBJECTID":194556},"geometry":{"x":167337.6400000006,"y":2565338.8900000025}},{"attributes":{"ID":194558,"DIS_CODE":0,"TOWNNAME":"佳里區","LI":"佳化里","LIN":"21鄰","STREET":" ","SECT":" ","MAREA":"佳里興","LANE":" ","ALLEY":" ","HOUSE_NO":"２０９號之６","E_COORD97":167337.04999999999,"N_COORD97":2565334.1299999999,"ADDRESS":"佳里興２０９號之６","OBJECTID":194557},"geometry":{"x":167337.05000000075,"y":2565334.1300000027}},{"attributes":{"ID":194559,"DIS_CODE":0,"TOWNNAME":"佳里區","LI":"佳化里","LIN":"21鄰","STREET":" ","SECT":" ","MAREA":"佳里興","LANE":" ","ALLEY":" ","HOUSE_NO":"２０９號之７","E_COORD97":167336.35999999999,"N_COORD97":2565330.5,"ADDRESS":"佳里興２０９號之７","OBJECTID":194558},"geometry":{"x":167336.36000000034,"y":2565330.5000000019}},{"attributes":{"ID":194560,"DIS_CODE":0,"TOWNNAME":"佳里區","LI":"佳化里","LIN":"21鄰","STREET":" ","SECT":" ","MAREA":"佳里興","LANE":" ","ALLEY":" ","HOUSE_NO":"２０９號之８","E_COORD97":167336.04999999999,"N_COORD97":2565325.9300000002,"ADDRESS":"佳里興２０９號之８","OBJECTID":194559},"geometry":{"x":167336.04999999981,"y":2565325.9299999978}},{"attributes":{"ID":194561,"DIS_CODE":0,"TOWNNAME":"佳里區","LI":"佳化里","LIN":"21鄰","STREET":" ","SECT":" ","MAREA":"佳里興","LANE":" ","ALLEY":" ","HOUSE_NO":"２０９號之９","E_COORD97":167341.17999999999,"N_COORD97":2565343.6499999999,"ADDRESS":"佳里興２０９號之９","OBJECTID":194560},"geometry":{"x":167341.18000000063,"y":2565343.6500000022}},{"attributes":{"ID":194562,"DIS_CODE":0,"TOWNNAME":"南化區","LI":"南化里","LIN":"3鄰","STREET":" ","SECT":" ","MAREA":"南化","LANE":" ","ALLEY":" ","HOUSE_NO":"３１號之１６","E_COORD97":195772.88,"N_COORD97":2549381.7999999998,"ADDRESS":"南化３１號之１６","OBJECTID":194561},"geometry":{"x":195772.88000000082,"y":2549381.8000000007}},{"attributes":{"ID":194563,"DIS_CODE":0,"TOWNNAME":"永康區","LI":"北灣里","LIN":"38鄰","STREET":"大灣路","SECT":" ","MAREA":" ","LANE":"４０巷","ALLEY":"１８１弄","HOUSE_NO":"１２號","E_COORD97":174835.22,"N_COORD97":2546269.9100000001,"ADDRESS":"大灣路４０巷１８１弄１２號","OBJECTID":194562},"geometry":{"x":174835.22000000067,"y":2546269.910000002}},{"attributes":{"ID":194564,"DIS_CODE":0,"TOWNNAME":"新營區","LI":"民榮里","LIN":"38鄰","STREET":"太子路","SECT":" ","MAREA":" ","LANE":"５３巷","ALLEY":"６弄","HOUSE_NO":"２３之４號","E_COORD97":178267.63,"N_COORD97":2577935.4199999999,"ADDRESS":"太子路５３巷６弄２３之４號","OBJECTID":194563},"geometry":{"x":178267.62999999989,"y":2577935.4200000037}},{"attributes":{"ID":194565,"DIS_CODE":0,"TOWNNAME":"新營區","LI":"民榮里","LIN":"38鄰","STREET":"太子路","SECT":" ","MAREA":" ","LANE":"５３巷","ALLEY":"６弄","HOUSE_NO":"１５號之１","E_COORD97":178294.89999999999,"N_COORD97":2577953,"ADDRESS":"太子路５３巷６弄１５號之１","OBJECTID":194564},"geometry":{"x":178294.90000000037,"y":2577953.0000000019}},{"attributes":{"ID":194566,"DIS_CODE":0,"TOWNNAME":"新營區","LI":"民榮里","LIN":"38鄰","STREET":"太子路","SECT":" ","MAREA":" ","LANE":"５３巷","ALLEY":"６弄","HOUSE_NO":"１５之６號","E_COORD97":178295.26000000001,"N_COORD97":2577953,"ADDRESS":"太子路５３巷６弄１５之６號","OBJECTID":194565},"geometry":{"x":178295.25999999978,"y":2577953.0000000019}},{"attributes":{"ID":194567,"DIS_CODE":0,"TOWNNAME":"新營區","LI":"民榮里","LIN":"38鄰","STREET":"太子路","SECT":" ","MAREA":" ","LANE":"５３巷","ALLEY":"６弄","HOUSE_NO":"１１之２號","E_COORD97":178307.51999999999,"N_COORD97":2577950.73,"ADDRESS":"太子路５３巷６弄１１之２號","OBJECTID":194566},"geometry":{"x":178307.52000000142,"y":2577950.7300000042}},{"attributes":{"ID":194568,"DIS_CODE":0,"TOWNNAME":"下營區","LI":"仁里里","LIN":"21鄰","STREET":"仁里街","SECT":" ","MAREA":" ","LANE":"１０３巷","ALLEY":" ","HOUSE_NO":"１０號","E_COORD97":174221.42000000001,"N_COORD97":2569708.4399999999,"ADDRESS":"仁里街１０３巷１０號","OBJECTID":194567},"geometry":{"x":174221.41999999899,"y":2569708.4399999995}},{"attributes":{"ID":194569,"DIS_CODE":0,"TOWNNAME":"東區","LI":"圍下里","LIN":"15鄰","STREET":"育樂街","SECT":" ","MAREA":" ","LANE":" ","ALLEY":" ","HOUSE_NO":"２２４號","E_COORD97":169453.98999999999,"N_COORD97":2543668.8700000001,"ADDRESS":"育樂街２２４號","OBJECTID":194568},"geometry":{"x":169453.99000000022,"y":2543668.870000001}},{"attributes":{"ID":194570,"DIS_CODE":0,"TOWNNAME":"東區","LI":"圍下里","LIN":"15鄰","STREET":"育樂街","SECT":" ","MAREA":" ","LANE":" ","ALLEY":" ","HOUSE_NO":"２２６號","E_COORD97":169453.57999999999,"N_COORD97":2543664.8700000001,"ADDRESS":"育樂街２２６號","OBJECTID":194569},"geometry":{"x":169453.58000000007,"y":2543664.8700000029}},{"attributes":{"ID":194571,"DIS_CODE":0,"TOWNNAME":"南化區","LI":"南化里","LIN":"3鄰","STREET":" ","SECT":" ","MAREA":"南化","LANE":" ","ALLEY":" ","HOUSE_NO":"３１號之２４","E_COORD97":195821.10000000001,"N_COORD97":2549335.7999999998,"ADDRESS":"南化３１號之２４","OBJECTID":194570},"geometry":{"x":195821.09999999963,"y":2549335.8000000045}},{"attributes":{"ID":194572,"DIS_CODE":0,"TOWNNAME":"南化區","LI":"關山里","LIN":"3鄰","STREET":" ","SECT":" ","MAREA":"西阿里關","LANE":" ","ALLEY":" ","HOUSE_NO":"６５號","E_COORD97":208049.14000000001,"N_COORD97":2562754.75,"ADDRESS":"西阿里關６５號","OBJECTID":194571},"geometry":{"x":208049.1400000006,"y":2562754.7500000019}},{"attributes":{"ID":194573,"DIS_CODE":0,"TOWNNAME":"南化區","LI":"南化里","LIN":"3鄰","STREET":" ","SECT":" ","MAREA":"南化","LANE":" ","ALLEY":" ","HOUSE_NO":"３３號之２","E_COORD97":195767.06,"N_COORD97":2549441.7999999998,"ADDRESS":"南化３３號之２","OBJECTID":194572},"geometry":{"x":195767.05999999959,"y":2549441.8000000026}},{"attributes":{"ID":194574,"DIS_CODE":0,"TOWNNAME":"南化區","LI":"南化里","LIN":"3鄰","STREET":" ","SECT":" ","MAREA":"南化","LANE":" ","ALLEY":" ","HOUSE_NO":"３１號之１８","E_COORD97":195776.01999999999,"N_COORD97":2549391.7999999998,"ADDRESS":"南化３１號之１８","OBJECTID":194573},"geometry":{"x":195776.01999999955,"y":2549391.8000000007}},{"attributes":{"ID":194575,"DIS_CODE":0,"TOWNNAME":"南化區","LI":"小崙里","LIN":"3鄰","STREET":" ","SECT":" ","MAREA":"小崙","LANE":" ","ALLEY":" ","HOUSE_NO":"２８號","E_COORD97":197380.47,"N_COORD97":2550575.75,"ADDRESS":"小崙２８號","OBJECTID":194574},"geometry":{"x":197380.46999999974,"y":2550575.75}},{"attributes":{"ID":194576,"DIS_CODE":0,"TOWNNAME":"南化區","LI":"北寮里","LIN":"3鄰","STREET":" ","SECT":" ","MAREA":"北寮","LANE":" ","ALLEY":" ","HOUSE_NO":"４５之６號","E_COORD97":197650.09,"N_COORD97":2553229.7999999998,"ADDRESS":"北寮４５之６號","OBJECTID":194575},"geometry":{"x":197650.09000000078,"y":2553229.8000000007}},{"attributes":{"ID":194577,"DIS_CODE":0,"TOWNNAME":"南化區","LI":"南化里","LIN":"3鄰","STREET":" ","SECT":" ","MAREA":"南化","LANE":" ","ALLEY":" ","HOUSE_NO":"３１號之２３","E_COORD97":195817.07000000001,"N_COORD97":2549335.7999999998,"ADDRESS":"南化３１號之２３","OBJECTID":194576},"geometry":{"x":195817.0700000003,"y":2549335.8000000045}},{"attributes":{"ID":194578,"DIS_CODE":0,"TOWNNAME":"新營區","LI":"角帶里","LIN":"3鄰","STREET":" ","SECT":" ","MAREA":"角帶圍","LANE":" ","ALLEY":" ","HOUSE_NO":"３１號","E_COORD97":174793.29999999999,"N_COORD97":2575899.3500000001,"ADDRESS":"角帶圍３１號","OBJECTID":194577},"geometry":{"x":174793.29999999981,"y":2575899.3500000015}},{"attributes":{"ID":194579,"DIS_CODE":0,"TOWNNAME":"新營區","LI":"角帶里","LIN":"3鄰","STREET":" ","SECT":" ","MAREA":"角帶圍","LANE":" ","ALLEY":" ","HOUSE_NO":"３２號","E_COORD97":174812.82000000001,"N_COORD97":2575915.8599999999,"ADDRESS":"角帶圍３２號","OBJECTID":194578},"geometry":{"x":174812.82000000123,"y":2575915.8600000013}},{"attributes":{"ID":194580,"DIS_CODE":0,"TOWNNAME":"新營區","LI":"五興里","LIN":"3鄰","STREET":" ","SECT":" ","MAREA":"五間厝","LANE":" ","ALLEY":" ","HOUSE_NO":"３１之２１號","E_COORD97":175701.44,"N_COORD97":2575084.1800000002,"ADDRESS":"五間厝３１之２１號","OBJECTID":194579},"geometry":{"x":175701.44000000041,"y":2575084.1799999997}},{"attributes":{"ID":194581,"DIS_CODE":0,"TOWNNAME":"新營區","LI":"五興里","LIN":"3鄰","STREET":" ","SECT":" ","MAREA":"五間厝","LANE":" ","ALLEY":" ","HOUSE_NO":"３１之２３號","E_COORD97":175710.64000000001,"N_COORD97":2575084.1400000001,"ADDRESS":"五間厝３１之２３號","OBJECTID":194580},"geometry":{"x":175710.6400000006,"y":2575084.1400000025}},{"attributes":{"ID":194582,"DIS_CODE":0,"TOWNNAME":"鹽水區","LI":"飯店里","LIN":"3鄰","STREET":" ","SECT":" ","MAREA":"麻油寮","LANE":" ","ALLEY":" ","HOUSE_NO":"５４號之１","E_COORD97":169415.20000000001,"N_COORD97":2573918.1200000001,"ADDRESS":"麻油寮５４號之１","OBJECTID":194581},"geometry":{"x":169415.20000000019,"y":2573918.1200000029}},{"attributes":{"ID":194583,"DIS_CODE":0,"TOWNNAME":"鹽水區","LI":"飯店里","LIN":"3鄰","STREET":" ","SECT":" ","MAREA":"麻油寮","LANE":" ","ALLEY":" ","HOUSE_NO":"５４之２號","E_COORD97":169423.44,"N_COORD97":2573904.5800000001,"ADDRESS":"麻油寮５４之２號","OBJECTID":194582},"geometry":{"x":169423.44000000134,"y":2573904.5800000019}},{"attributes":{"ID":194584,"DIS_CODE":0,"TOWNNAME":"鹽水區","LI":"飯店里","LIN":"3鄰","STREET":" ","SECT":" ","MAREA":"麻油寮","LANE":" ","ALLEY":" ","HOUSE_NO":"５４號之３","E_COORD97":169420.29000000001,"N_COORD97":2573902.3599999999,"ADDRESS":"麻油寮５４號之３","OBJECTID":194583},"geometry":{"x":169420.29000000097,"y":2573902.3599999994}},{"attributes":{"ID":194585,"DIS_CODE":0,"TOWNNAME":"鹽水區","LI":"飯店里","LIN":"3鄰","STREET":" ","SECT":" ","MAREA":"麻油寮","LANE":" ","ALLEY":" ","HOUSE_NO":"５４號之５","E_COORD97":169415.91,"N_COORD97":2573901.1400000001,"ADDRESS":"麻油寮５４號之５","OBJECTID":194584},"geometry":{"x":169415.91000000201,"y":2573901.1400000025}},{"attributes":{"ID":194586,"DIS_CODE":0,"TOWNNAME":"鹽水區","LI":"飯店里","LIN":"3鄰","STREET":" ","SECT":" ","MAREA":"麻油寮","LANE":" ","ALLEY":" ","HOUSE_NO":"５４號之６","E_COORD97":169409.85999999999,"N_COORD97":2573899.0899999999,"ADDRESS":"麻油寮５４號之６","OBJECTID":194585},"geometry":{"x":169409.86000000127,"y":2573899.0899999999}},{"attributes":{"ID":194587,"DIS_CODE":0,"TOWNNAME":"鹽水區","LI":"飯店里","LIN":"3鄰","STREET":" ","SECT":" ","MAREA":"麻油寮","LANE":" ","ALLEY":" ","HOUSE_NO":"５４號","E_COORD97":169429.45999999999,"N_COORD97":2573903.48,"ADDRESS":"麻油寮５４號","OBJECTID":194586},"geometry":{"x":169429.46000000089,"y":2573903.4800000004}},{"attributes":{"ID":194588,"DIS_CODE":0,"TOWNNAME":"鹽水區","LI":"飯店里","LIN":"3鄰","STREET":" ","SECT":" ","MAREA":"麻油寮","LANE":" ","ALLEY":" ","HOUSE_NO":"５５號","E_COORD97":169440.07999999999,"N_COORD97":2573909.4100000001,"ADDRESS":"麻油寮５５號","OBJECTID":194587},"geometry":{"x":169440.07999999914,"y":2573909.410000002}},{"attributes":{"ID":194589,"DIS_CODE":0,"TOWNNAME":"鹽水區","LI":"飯店里","LIN":"3鄰","STREET":" ","SECT":" ","MAREA":"麻油寮","LANE":" ","ALLEY":" ","HOUSE_NO":"５６號之１","E_COORD97":169458.28,"N_COORD97":2573902.8100000001,"ADDRESS":"麻油寮５６號之１","OBJECTID":194588},"geometry":{"x":169458.28000000119,"y":2573902.8100000024}},{"attributes":{"ID":194590,"DIS_CODE":0,"TOWNNAME":"鹽水區","LI":"飯店里","LIN":"3鄰","STREET":" ","SECT":" ","MAREA":"麻油寮","LANE":" ","ALLEY":" ","HOUSE_NO":"５６號之２","E_COORD97":169470.31,"N_COORD97":2573909.5699999998,"ADDRESS":"麻油寮５６號之２","OBJECTID":194589},"geometry":{"x":169470.31000000145,"y":2573909.5700000003}},{"attributes":{"ID":194591,"DIS_CODE":0,"TOWNNAME":"鹽水區","LI":"飯店里","LIN":"3鄰","STREET":" ","SECT":" ","MAREA":"麻油寮","LANE":" ","ALLEY":" ","HOUSE_NO":"５６號之３","E_COORD97":169462.89000000001,"N_COORD97":2573907.2999999998,"ADDRESS":"麻油寮５６號之３","OBJECTID":194590},"geometry":{"x":169462.88999999966,"y":2573907.3000000026}},{"attributes":{"ID":194592,"DIS_CODE":0,"TOWNNAME":"鹽水區","LI":"飯店里","LIN":"3鄰","STREET":" ","SECT":" ","MAREA":"麻油寮","LANE":" ","ALLEY":" ","HOUSE_NO":"５８號","E_COORD97":169478.16,"N_COORD97":2573917.2799999998,"ADDRESS":"麻油寮５８號","OBJECTID":194591},"geometry":{"x":169478.16000000015,"y":2573917.2799999993}},{"attributes":{"ID":194593,"DIS_CODE":0,"TOWNNAME":"東區","LI":"圍下里","LIN":"15鄰","STREET":"育樂街","SECT":" ","MAREA":" ","LANE":" ","ALLEY":" ","HOUSE_NO":"２２８號","E_COORD97":169451.94,"N_COORD97":2543659.9399999999,"ADDRESS":"育樂街２２８號","OBJECTID":194592},"geometry":{"x":169451.94000000134,"y":2543659.9399999995}},{"attributes":{"ID":194594,"DIS_CODE":0,"TOWNNAME":"東區","LI":"圍下里","LIN":"15鄰","STREET":"育樂街","SECT":" ","MAREA":" ","LANE":" ","ALLEY":" ","HOUSE_NO":"２３０號","E_COORD97":169451.53,"N_COORD97":2543657.1699999999,"ADDRESS":"育樂街２３０號","OBJECTID":194593},"geometry":{"x":169451.53000000119,"y":2543657.1700000018}},{"attributes":{"ID":194595,"DIS_CODE":0,"TOWNNAME":"東區","LI":"圍下里","LIN":"15鄰","STREET":"育樂街","SECT":" ","MAREA":" ","LANE":" ","ALLEY":" ","HOUSE_NO":"２３２號","E_COORD97":169467.87,"N_COORD97":2543657.48,"ADDRESS":"育樂街２３２號","OBJECTID":194594},"geometry":{"x":169467.87000000104,"y":2543657.4800000004}},{"attributes":{"ID":194596,"DIS_CODE":0,"TOWNNAME":"鹽水區","LI":"飯店里","LIN":"3鄰","STREET":" ","SECT":" ","MAREA":"麻油寮","LANE":" ","ALLEY":" ","HOUSE_NO":"６０號","E_COORD97":169554.23000000001,"N_COORD97":2573948.5800000001,"ADDRESS":"麻油寮６０號","OBJECTID":194595},"geometry":{"x":169554.23000000045,"y":2573948.5800000019}},{"attributes":{"ID":194597,"DIS_CODE":0,"TOWNNAME":"鹽水區","LI":"飯店里","LIN":"3鄰","STREET":" ","SECT":" ","MAREA":"麻油寮","LANE":" ","ALLEY":" ","HOUSE_NO":"６２號","E_COORD97":169658.31,"N_COORD97":2574033.9399999999,"ADDRESS":"麻油寮６２號","OBJECTID":194596},"geometry":{"x":169658.30999999959,"y":2574033.9400000013}},{"attributes":{"ID":194598,"DIS_CODE":0,"TOWNNAME":"鹽水區","LI":"飯店里","LIN":"3鄰","STREET":" ","SECT":" ","MAREA":"麻油寮","LANE":" ","ALLEY":" ","HOUSE_NO":"６３號","E_COORD97":169508.64999999999,"N_COORD97":2574087.6200000001,"ADDRESS":"麻油寮６３號","OBJECTID":194597},"geometry":{"x":169508.6500000013,"y":2574087.6200000029}},{"attributes":{"ID":194599,"DIS_CODE":0,"TOWNNAME":"鹽水區","LI":"飯店里","LIN":"3鄰","STREET":" ","SECT":" ","MAREA":"麻油寮","LANE":" ","ALLEY":" ","HOUSE_NO":"６６號","E_COORD97":169532.37,"N_COORD97":2574104.9199999999,"ADDRESS":"麻油寮６６號","OBJECTID":194598},"geometry":{"x":169532.37000000011,"y":2574104.9200000018}},{"attributes":{"ID":194600,"DIS_CODE":0,"TOWNNAME":"下營區","LI":"營前里","LIN":"21鄰","STREET":"文化街","SECT":" ","MAREA":" ","LANE":" ","ALLEY":" ","HOUSE_NO":"５６號之１","E_COORD97":174822.82999999999,"N_COORD97":2570327.2400000002,"ADDRESS":"文化街５６號之１","OBJECTID":194599},"geometry":{"x":174822.83000000101,"y":2570327.2400000002}},{"attributes":{"ID":194601,"DIS_CODE":0,"TOWNNAME":"下營區","LI":"營前里","LIN":"21鄰","STREET":"文化街","SECT":" ","MAREA":" ","LANE":" ","ALLEY":" ","HOUSE_NO":"５６號之２","E_COORD97":174823.64000000001,"N_COORD97":2570323.98,"ADDRESS":"文化街５６號之２","OBJECTID":194600},"geometry":{"x":174823.6400000006,"y":2570323.9800000042}}]}