{"displayFieldName":"TOWNNAME","fieldAliases":{"ID":"ID","DIS_CODE":"DIS_CODE","TOWNNAME":"TOWNNAME","LI":"LI","LIN":"LIN","STREET":"STREET","SECT":"SECT","MAREA":"MAREA","LANE":"LANE","ALLEY":"ALLEY","HOUSE_NO":"HOUSE_NO","E_COORD97":"E_COORD97","N_COORD97":"N_COORD97","ADDRESS":"ADDRESS","OBJECTID":"OBJECTID"},"geometryType":"esriGeometryPoint","spatialReference":{"wkid":102443,"latestWkid":3826},"fields":[{"name":"ID","type":"esriFieldTypeDouble","alias":"ID"},{"name":"DIS_CODE","type":"esriFieldTypeInteger","alias":"DIS_CODE"},{"name":"TOWNNAME","type":"esriFieldTypeString","alias":"TOWNNAME","length":8},{"name":"LI","type":"esriFieldTypeString","alias":"LI","length":8},{"name":"LIN","type":"esriFieldTypeString","alias":"LIN","length":12},{"name":"STREET","type":"esriFieldTypeString","alias":"STREET","length":20},{"name":"SECT","type":"esriFieldTypeString","alias":"SECT","length":8},{"name":"MAREA","type":"esriFieldTypeString","alias":"MAREA","length":12},{"name":"LANE","type":"esriFieldTypeString","alias":"LANE","length":10},{"name":"ALLEY","type":"esriFieldTypeString","alias":"ALLEY","length":10},{"name":"HOUSE_NO","type":"esriFieldTypeString","alias":"HOUSE_NO","length":20},{"name":"E_COORD97","type":"esriFieldTypeDouble","alias":"E_COORD97"},{"name":"N_COORD97","type":"esriFieldTypeDouble","alias":"N_COORD97"},{"name":"ADDRESS","type":"esriFieldTypeString","alias":"ADDRESS","length":50},{"name":"OBJECTID","type":"esriFieldTypeOID","alias":"OBJECTID"}],"features":[{"attributes":{"ID":545628,"DIS_CODE":0,"TOWNNAME":"安平區","LI":"平通里","LIN":"10鄰","STREET":"育平九街","SECT":" ","MAREA":" ","LANE":" ","ALLEY":" ","HOUSE_NO":"２３０號","E_COORD97":164950.57000000001,"N_COORD97":2544025.73,"ADDRESS":"育平九街２３０號","OBJECTID":545601},"geometry":{"x":164950.57000000123,"y":2544025.7300000004}},{"attributes":{"ID":545629,"DIS_CODE":0,"TOWNNAME":"安平區","LI":"平通里","LIN":"10鄰","STREET":"育平九街","SECT":" ","MAREA":" ","LANE":" ","ALLEY":" ","HOUSE_NO":"２３２號","E_COORD97":164945.09,"N_COORD97":2544026.0499999998,"ADDRESS":"育平九街２３２號","OBJECTID":545602},"geometry":{"x":164945.08999999985,"y":2544026.0500000026}},{"attributes":{"ID":545630,"DIS_CODE":0,"TOWNNAME":"安平區","LI":"平通里","LIN":"10鄰","STREET":"健康三街","SECT":" ","MAREA":" ","LANE":" ","ALLEY":" ","HOUSE_NO":"５６８號","E_COORD97":164872.64000000001,"N_COORD97":2544090.98,"ADDRESS":"健康三街５６８號","OBJECTID":545603},"geometry":{"x":164872.6400000006,"y":2544090.9800000004}},{"attributes":{"ID":545631,"DIS_CODE":0,"TOWNNAME":"安平區","LI":"平通里","LIN":"10鄰","STREET":"健康三街","SECT":" ","MAREA":" ","LANE":" ","ALLEY":" ","HOUSE_NO":"５７０號","E_COORD97":164872.88,"N_COORD97":2544094.8300000001,"ADDRESS":"健康三街５７０號","OBJECTID":545604},"geometry":{"x":164872.88000000175,"y":2544094.8300000019}},{"attributes":{"ID":545632,"DIS_CODE":0,"TOWNNAME":"安平區","LI":"平通里","LIN":"10鄰","STREET":"健康三街","SECT":" ","MAREA":" ","LANE":" ","ALLEY":" ","HOUSE_NO":"５７２號","E_COORD97":164873.35999999999,"N_COORD97":2544098.8799999999,"ADDRESS":"健康三街５７２號","OBJECTID":545605},"geometry":{"x":164873.3600000022,"y":2544098.8800000008}},{"attributes":{"ID":545633,"DIS_CODE":0,"TOWNNAME":"安平區","LI":"平通里","LIN":"10鄰","STREET":"健康三街","SECT":" ","MAREA":" ","LANE":" ","ALLEY":" ","HOUSE_NO":"５７４號","E_COORD97":164873.72,"N_COORD97":2544102.6099999999,"ADDRESS":"健康三街５７４號","OBJECTID":545606},"geometry":{"x":164873.7200000016,"y":2544102.6099999994}},{"attributes":{"ID":545634,"DIS_CODE":0,"TOWNNAME":"安平區","LI":"平通里","LIN":"10鄰","STREET":"健康三街","SECT":" ","MAREA":" ","LANE":" ","ALLEY":" ","HOUSE_NO":"５７６號","E_COORD97":164874.07999999999,"N_COORD97":2544106.5800000001,"ADDRESS":"健康三街５７６號","OBJECTID":545607},"geometry":{"x":164874.08000000101,"y":2544106.5800000019}},{"attributes":{"ID":545635,"DIS_CODE":0,"TOWNNAME":"安平區","LI":"平通里","LIN":"10鄰","STREET":"健康三街","SECT":" ","MAREA":" ","LANE":" ","ALLEY":" ","HOUSE_NO":"５７８號","E_COORD97":164873.84,"N_COORD97":2544110.6699999999,"ADDRESS":"健康三街５７８號","OBJECTID":545608},"geometry":{"x":164873.84000000078,"y":2544110.6699999999}},{"attributes":{"ID":545636,"DIS_CODE":0,"TOWNNAME":"安平區","LI":"平通里","LIN":"10鄰","STREET":"健康三街","SECT":" ","MAREA":" ","LANE":" ","ALLEY":" ","HOUSE_NO":"５８０號","E_COORD97":164873.95999999999,"N_COORD97":2544114.7599999998,"ADDRESS":"健康三街５８０號","OBJECTID":545609},"geometry":{"x":164873.96000000183,"y":2544114.7600000016}},{"attributes":{"ID":545637,"DIS_CODE":0,"TOWNNAME":"安平區","LI":"平通里","LIN":"10鄰","STREET":"健康三街","SECT":" ","MAREA":" ","LANE":" ","ALLEY":" ","HOUSE_NO":"５８２號","E_COORD97":164873.72,"N_COORD97":2544118.6099999999,"ADDRESS":"健康三街５８２號","OBJECTID":545610},"geometry":{"x":164873.7200000016,"y":2544118.6100000013}},{"attributes":{"ID":545638,"DIS_CODE":0,"TOWNNAME":"安平區","LI":"平通里","LIN":"10鄰","STREET":"健康三街","SECT":" ","MAREA":" ","LANE":" ","ALLEY":" ","HOUSE_NO":"５８４號","E_COORD97":164873.72,"N_COORD97":2544122.8300000001,"ADDRESS":"健康三街５８４號","OBJECTID":545611},"geometry":{"x":164873.7200000016,"y":2544122.8300000001}},{"attributes":{"ID":545639,"DIS_CODE":0,"TOWNNAME":"安平區","LI":"平通里","LIN":"10鄰","STREET":"健康三街","SECT":" ","MAREA":" ","LANE":" ","ALLEY":" ","HOUSE_NO":"５８８號","E_COORD97":164874.98999999999,"N_COORD97":2544162.6000000001,"ADDRESS":"健康三街５８８號","OBJECTID":545612},"geometry":{"x":164874.99000000022,"y":2544162.6000000015}},{"attributes":{"ID":545640,"DIS_CODE":0,"TOWNNAME":"安平區","LI":"平通里","LIN":"10鄰","STREET":"健康三街","SECT":" ","MAREA":" ","LANE":" ","ALLEY":" ","HOUSE_NO":"５９０號","E_COORD97":164872.03,"N_COORD97":2544181.79,"ADDRESS":"健康三街５９０號","OBJECTID":545613},"geometry":{"x":164872.02999999933,"y":2544181.790000001}},{"attributes":{"ID":545641,"DIS_CODE":0,"TOWNNAME":"新營區","LI":"嘉芳里","LIN":"10鄰","STREET":"復興路","SECT":" ","MAREA":" ","LANE":" ","ALLEY":" ","HOUSE_NO":"７７０號","E_COORD97":176965.79000000001,"N_COORD97":2578677.0800000001,"ADDRESS":"復興路７７０號","OBJECTID":545614},"geometry":{"x":176965.79000000097,"y":2578677.0800000038}},{"attributes":{"ID":545642,"DIS_CODE":0,"TOWNNAME":"新營區","LI":"興安里","LIN":"10鄰","STREET":"新進路","SECT":" ","MAREA":" ","LANE":" ","ALLEY":" ","HOUSE_NO":"３０７號","E_COORD97":179931.88,"N_COORD97":2577762.3900000001,"ADDRESS":"新進路３０７號","OBJECTID":545615},"geometry":{"x":179931.88000000082,"y":2577762.3900000006}},{"attributes":{"ID":545643,"DIS_CODE":0,"TOWNNAME":"新營區","LI":"王公里","LIN":"10鄰","STREET":"民族路","SECT":" ","MAREA":" ","LANE":" ","ALLEY":" ","HOUSE_NO":"９６號","E_COORD97":180320.60999999999,"N_COORD97":2579144.8700000001,"ADDRESS":"民族路９６號","OBJECTID":545616},"geometry":{"x":180320.61000000127,"y":2579144.8700000029}},{"attributes":{"ID":545644,"DIS_CODE":0,"TOWNNAME":"新營區","LI":"民生里","LIN":"10鄰","STREET":"復興路","SECT":" ","MAREA":" ","LANE":" ","ALLEY":" ","HOUSE_NO":"１５２之１號","E_COORD97":179202.10999999999,"N_COORD97":2578023.96,"ADDRESS":"復興路１５２之１號","OBJECTID":545617},"geometry":{"x":179202.11000000034,"y":2578023.959999999}},{"attributes":{"ID":545645,"DIS_CODE":0,"TOWNNAME":"新營區","LI":"興安里","LIN":"10鄰","STREET":"新進路","SECT":" ","MAREA":" ","LANE":" ","ALLEY":" ","HOUSE_NO":"３１５號","E_COORD97":179919.70000000001,"N_COORD97":2577782.3799999999,"ADDRESS":"新進路３１５號","OBJECTID":545618},"geometry":{"x":179919.70000000112,"y":2577782.3800000008}},{"attributes":{"ID":545646,"DIS_CODE":0,"TOWNNAME":"柳營區","LI":"光福里","LIN":"10鄰","STREET":"福中街","SECT":" ","MAREA":" ","LANE":" ","ALLEY":" ","HOUSE_NO":"５７號","E_COORD97":179806.76000000001,"N_COORD97":2575261.2599999998,"ADDRESS":"福中街５７號","OBJECTID":545619},"geometry":{"x":179806.76000000071,"y":2575261.2600000035}},{"attributes":{"ID":545647,"DIS_CODE":0,"TOWNNAME":"柳營區","LI":"光福里","LIN":"10鄰","STREET":"福中街","SECT":" ","MAREA":" ","LANE":" ","ALLEY":" ","HOUSE_NO":"４１號","E_COORD97":179818.04000000001,"N_COORD97":2575224.1899999999,"ADDRESS":"福中街４１號","OBJECTID":545620},"geometry":{"x":179818.04000000004,"y":2575224.1900000032}},{"attributes":{"ID":545648,"DIS_CODE":0,"TOWNNAME":"柳營區","LI":"光福里","LIN":"10鄰","STREET":"福中街","SECT":" ","MAREA":" ","LANE":" ","ALLEY":" ","HOUSE_NO":"４５號","E_COORD97":179815.06,"N_COORD97":2575230.1600000001,"ADDRESS":"福中街４５號","OBJECTID":545621},"geometry":{"x":179815.06000000052,"y":2575230.1600000001}},{"attributes":{"ID":545649,"DIS_CODE":0,"TOWNNAME":"北區","LI":"玉皇里","LIN":"10鄰","STREET":"佑民街","SECT":" ","MAREA":" ","LANE":" ","ALLEY":" ","HOUSE_NO":"９７號","E_COORD97":168682.57000000001,"N_COORD97":2544497.4100000001,"ADDRESS":"佑民街９７號","OBJECTID":545622},"geometry":{"x":168682.5700000003,"y":2544497.410000002}},{"attributes":{"ID":545650,"DIS_CODE":0,"TOWNNAME":"南區","LI":"金華里","LIN":"10鄰","STREET":"聖南街","SECT":" ","MAREA":" ","LANE":" ","ALLEY":" ","HOUSE_NO":"１０７號","E_COORD97":166886.94,"N_COORD97":2542242.1000000001,"ADDRESS":"聖南街１０７號","OBJECTID":545623},"geometry":{"x":166886.94000000227,"y":2542242.0999999996}},{"attributes":{"ID":545651,"DIS_CODE":0,"TOWNNAME":"南區","LI":"金華里","LIN":"10鄰","STREET":"聖南街","SECT":" ","MAREA":" ","LANE":" ","ALLEY":" ","HOUSE_NO":"１１０號","E_COORD97":166891.67000000001,"N_COORD97":2542261.2000000002,"ADDRESS":"聖南街１１０號","OBJECTID":545624},"geometry":{"x":166891.67000000086,"y":2542261.1999999993}},{"attributes":{"ID":545652,"DIS_CODE":0,"TOWNNAME":"南區","LI":"金華里","LIN":"10鄰","STREET":"聖南街","SECT":" ","MAREA":" ","LANE":" ","ALLEY":" ","HOUSE_NO":"１１２號","E_COORD97":166887.32999999999,"N_COORD97":2542261.2000000002,"ADDRESS":"聖南街１１２號","OBJECTID":545625},"geometry":{"x":166887.33000000194,"y":2542261.1999999993}},{"attributes":{"ID":545653,"DIS_CODE":0,"TOWNNAME":"南區","LI":"金華里","LIN":"10鄰","STREET":"聖南街","SECT":" ","MAREA":" ","LANE":" ","ALLEY":" ","HOUSE_NO":"９５號","E_COORD97":166937.67000000001,"N_COORD97":2542237.1600000001,"ADDRESS":"聖南街９５號","OBJECTID":545626},"geometry":{"x":166937.67000000086,"y":2542237.160000002}},{"attributes":{"ID":545654,"DIS_CODE":0,"TOWNNAME":"南區","LI":"金華里","LIN":"10鄰","STREET":"聖南街","SECT":" ","MAREA":" ","LANE":" ","ALLEY":" ","HOUSE_NO":"９７號","E_COORD97":166932.10000000001,"N_COORD97":2542236.23,"ADDRESS":"聖南街９７號","OBJECTID":545627},"geometry":{"x":166932.09999999963,"y":2542236.2299999986}},{"attributes":{"ID":545655,"DIS_CODE":0,"TOWNNAME":"南區","LI":"金華里","LIN":"10鄰","STREET":"聖南街","SECT":" ","MAREA":" ","LANE":" ","ALLEY":" ","HOUSE_NO":"９９號","E_COORD97":166925.91,"N_COORD97":2542237.4700000002,"ADDRESS":"聖南街９９號","OBJECTID":545628},"geometry":{"x":166925.91000000108,"y":2542237.4700000007}},{"attributes":{"ID":545656,"DIS_CODE":0,"TOWNNAME":"北區","LI":"長德里","LIN":"10鄰","STREET":"長北街","SECT":" ","MAREA":" ","LANE":" ","ALLEY":" ","HOUSE_NO":"１６４號","E_COORD97":168514.60999999999,"N_COORD97":2544906.9100000001,"ADDRESS":"長北街１６４號","OBJECTID":545629},"geometry":{"x":168514.6100000022,"y":2544906.910000002}},{"attributes":{"ID":545657,"DIS_CODE":0,"TOWNNAME":"柳營區","LI":"人和里","LIN":"10鄰","STREET":"雙和路","SECT":" ","MAREA":" ","LANE":" ","ALLEY":" ","HOUSE_NO":"７９號","E_COORD97":179575.01999999999,"N_COORD97":2576908.6299999999,"ADDRESS":"雙和路７９號","OBJECTID":545630},"geometry":{"x":179575.01999999955,"y":2576908.629999999}},{"attributes":{"ID":545658,"DIS_CODE":0,"TOWNNAME":"關廟區","LI":"關廟里","LIN":"10鄰","STREET":"大仁街","SECT":" ","MAREA":" ","LANE":" ","ALLEY":" ","HOUSE_NO":"３１７號","E_COORD97":180778.17000000001,"N_COORD97":2539644.25,"ADDRESS":"大仁街３１７號","OBJECTID":545631},"geometry":{"x":180778.16999999993,"y":2539644.25}},{"attributes":{"ID":545659,"DIS_CODE":0,"TOWNNAME":"麻豆區","LI":"新建里","LIN":"10鄰","STREET":"麻佳路","SECT":"一段","MAREA":" ","LANE":" ","ALLEY":" ","HOUSE_NO":"８０號之１","E_COORD97":172059.67999999999,"N_COORD97":2565066.8799999999,"ADDRESS":"麻佳路一段８０號之１","OBJECTID":545632},"geometry":{"x":172059.6799999997,"y":2565066.879999999}},{"attributes":{"ID":545660,"DIS_CODE":0,"TOWNNAME":"麻豆區","LI":"新建里","LIN":"10鄰","STREET":"麻佳路","SECT":"一段","MAREA":" ","LANE":" ","ALLEY":" ","HOUSE_NO":"８０號之２０","E_COORD97":172149.95000000001,"N_COORD97":2565031.3599999999,"ADDRESS":"麻佳路一段８０號之２０","OBJECTID":545633},"geometry":{"x":172149.94999999925,"y":2565031.3600000031}},{"attributes":{"ID":545661,"DIS_CODE":0,"TOWNNAME":"麻豆區","LI":"新建里","LIN":"10鄰","STREET":"麻佳路","SECT":"一段","MAREA":" ","LANE":" ","ALLEY":" ","HOUSE_NO":"８０號之２１","E_COORD97":172146.98999999999,"N_COORD97":2565044.8399999999,"ADDRESS":"麻佳路一段８０號之２１","OBJECTID":545634},"geometry":{"x":172146.99000000115,"y":2565044.8399999999}},{"attributes":{"ID":545662,"DIS_CODE":0,"TOWNNAME":"麻豆區","LI":"新建里","LIN":"10鄰","STREET":"麻佳路","SECT":"一段","MAREA":" ","LANE":" ","ALLEY":" ","HOUSE_NO":"８０號之２２","E_COORD97":172002.53,"N_COORD97":2564969.2799999998,"ADDRESS":"麻佳路一段８０號之２２","OBJECTID":545635},"geometry":{"x":172002.53000000119,"y":2564969.2799999993}},{"attributes":{"ID":545663,"DIS_CODE":0,"TOWNNAME":"麻豆區","LI":"新建里","LIN":"10鄰","STREET":"麻佳路","SECT":"一段","MAREA":" ","LANE":" ","ALLEY":" ","HOUSE_NO":"８０號之２３","E_COORD97":172098.76000000001,"N_COORD97":2565063.3500000001,"ADDRESS":"麻佳路一段８０號之２３","OBJECTID":545636},"geometry":{"x":172098.76000000071,"y":2565063.3500000015}},{"attributes":{"ID":545664,"DIS_CODE":0,"TOWNNAME":"麻豆區","LI":"新建里","LIN":"10鄰","STREET":"麻佳路","SECT":"一段","MAREA":" ","LANE":" ","ALLEY":" ","HOUSE_NO":"８２號之１","E_COORD97":172124.69,"N_COORD97":2564945.98,"ADDRESS":"麻佳路一段８２號之１","OBJECTID":545637},"geometry":{"x":172124.69000000041,"y":2564945.9800000004}},{"attributes":{"ID":545665,"DIS_CODE":0,"TOWNNAME":"麻豆區","LI":"新建里","LIN":"10鄰","STREET":"麻學路","SECT":"一段","MAREA":" ","LANE":" ","ALLEY":" ","HOUSE_NO":"１５號之１","E_COORD97":172206.97,"N_COORD97":2565018.4399999999,"ADDRESS":"麻學路一段１５號之１","OBJECTID":545638},"geometry":{"x":172206.96999999881,"y":2565018.4400000013}},{"attributes":{"ID":545666,"DIS_CODE":0,"TOWNNAME":"麻豆區","LI":"新建里","LIN":"10鄰","STREET":"麻學路","SECT":"一段","MAREA":" ","LANE":" ","ALLEY":" ","HOUSE_NO":"１５號之２","E_COORD97":172209.69,"N_COORD97":2565009.6000000001,"ADDRESS":"麻學路一段１５號之２","OBJECTID":545639},"geometry":{"x":172209.69000000227,"y":2565009.6000000034}},{"attributes":{"ID":545667,"DIS_CODE":0,"TOWNNAME":"麻豆區","LI":"新建里","LIN":"10鄰","STREET":"麻學路","SECT":"一段","MAREA":" ","LANE":" ","ALLEY":" ","HOUSE_NO":"１５號之３","E_COORD97":172219.25,"N_COORD97":2565012.77,"ADDRESS":"麻學路一段１５號之３","OBJECTID":545640},"geometry":{"x":172219.25000000093,"y":2565012.7700000014}},{"attributes":{"ID":545668,"DIS_CODE":0,"TOWNNAME":"北區","LI":"玉皇里","LIN":"10鄰","STREET":"佑民街","SECT":" ","MAREA":" ","LANE":" ","ALLEY":" ","HOUSE_NO":"６３號","E_COORD97":168630.67000000001,"N_COORD97":2544458.6499999999,"ADDRESS":"佑民街６３號","OBJECTID":545641},"geometry":{"x":168630.66999999899,"y":2544458.6500000022}},{"attributes":{"ID":545669,"DIS_CODE":0,"TOWNNAME":"北區","LI":"大仁里","LIN":"10鄰","STREET":"北門路","SECT":"二段","MAREA":" ","LANE":" ","ALLEY":" ","HOUSE_NO":"１５７號","E_COORD97":169463.95000000001,"N_COORD97":2545183.5499999998,"ADDRESS":"北門路二段１５７號","OBJECTID":545642},"geometry":{"x":169463.95000000112,"y":2545183.5500000007}},{"attributes":{"ID":545670,"DIS_CODE":0,"TOWNNAME":"北區","LI":"大仁里","LIN":"10鄰","STREET":"北門路","SECT":"二段","MAREA":" ","LANE":" ","ALLEY":" ","HOUSE_NO":"１５９號","E_COORD97":169465.13,"N_COORD97":2545187.25,"ADDRESS":"北門路二段１５９號","OBJECTID":545643},"geometry":{"x":169465.13000000175,"y":2545187.25}},{"attributes":{"ID":545671,"DIS_CODE":0,"TOWNNAME":"北區","LI":"大仁里","LIN":"10鄰","STREET":"北門路","SECT":"二段","MAREA":" ","LANE":" ","ALLEY":" ","HOUSE_NO":"１６１號","E_COORD97":169466.81,"N_COORD97":2545190.8500000001,"ADDRESS":"北門路二段１６１號","OBJECTID":545644},"geometry":{"x":169466.80999999866,"y":2545190.8499999996}},{"attributes":{"ID":545672,"DIS_CODE":0,"TOWNNAME":"北區","LI":"大仁里","LIN":"10鄰","STREET":"北門路","SECT":"二段","MAREA":" ","LANE":" ","ALLEY":" ","HOUSE_NO":"１６３號","E_COORD97":169468.69,"N_COORD97":2545194.7599999998,"ADDRESS":"北門路二段１６３號","OBJECTID":545645},"geometry":{"x":169468.69000000227,"y":2545194.7599999998}},{"attributes":{"ID":545673,"DIS_CODE":0,"TOWNNAME":"北區","LI":"大仁里","LIN":"10鄰","STREET":"北門路","SECT":"二段","MAREA":" ","LANE":" ","ALLEY":" ","HOUSE_NO":"１６５號","E_COORD97":169469.97,"N_COORD97":2545197.9900000002,"ADDRESS":"北門路二段１６５號","OBJECTID":545646},"geometry":{"x":169469.97000000067,"y":2545197.9900000021}},{"attributes":{"ID":545674,"DIS_CODE":0,"TOWNNAME":"北區","LI":"大仁里","LIN":"10鄰","STREET":"北門路","SECT":"二段","MAREA":" ","LANE":" ","ALLEY":" ","HOUSE_NO":"１６７號","E_COORD97":169452.22,"N_COORD97":2545197.5600000001,"ADDRESS":"北門路二段１６７號","OBJECTID":545647},"geometry":{"x":169452.21999999974,"y":2545197.5600000042}},{"attributes":{"ID":545675,"DIS_CODE":0,"TOWNNAME":"北區","LI":"玉皇里","LIN":"10鄰","STREET":"崇安街","SECT":" ","MAREA":" ","LANE":" ","ALLEY":" ","HOUSE_NO":"２６號","E_COORD97":168624.45999999999,"N_COORD97":2544516.0299999998,"ADDRESS":"崇安街２６號","OBJECTID":545648},"geometry":{"x":168624.46000000089,"y":2544516.0300000012}},{"attributes":{"ID":545676,"DIS_CODE":0,"TOWNNAME":"北區","LI":"玉皇里","LIN":"10鄰","STREET":"崇安街","SECT":" ","MAREA":" ","LANE":" ","ALLEY":" ","HOUSE_NO":"２８號","E_COORD97":168627.88,"N_COORD97":2544518.9199999999,"ADDRESS":"崇安街２８號","OBJECTID":545649},"geometry":{"x":168627.88000000082,"y":2544518.9199999999}},{"attributes":{"ID":545677,"DIS_CODE":0,"TOWNNAME":"北區","LI":"玉皇里","LIN":"10鄰","STREET":"崇安街","SECT":" ","MAREA":" ","LANE":" ","ALLEY":" ","HOUSE_NO":"３０號","E_COORD97":168631.89999999999,"N_COORD97":2544520.8500000001,"ADDRESS":"崇安街３０號","OBJECTID":545650},"geometry":{"x":168631.9000000013,"y":2544520.8500000015}},{"attributes":{"ID":545678,"DIS_CODE":0,"TOWNNAME":"北區","LI":"玉皇里","LIN":"10鄰","STREET":"崇安街","SECT":" ","MAREA":" ","LANE":" ","ALLEY":" ","HOUSE_NO":"３２號","E_COORD97":168636.35999999999,"N_COORD97":2544521.4500000002,"ADDRESS":"崇安街３２號","OBJECTID":545651},"geometry":{"x":168636.36000000034,"y":2544521.4499999993}},{"attributes":{"ID":545679,"DIS_CODE":0,"TOWNNAME":"北區","LI":"玉皇里","LIN":"10鄰","STREET":"崇安街","SECT":" ","MAREA":" ","LANE":" ","ALLEY":" ","HOUSE_NO":"３４號","E_COORD97":168639.10999999999,"N_COORD97":2544525.0899999999,"ADDRESS":"崇安街３４號","OBJECTID":545652},"geometry":{"x":168639.11000000127,"y":2544525.089999998}},{"attributes":{"ID":545680,"DIS_CODE":0,"TOWNNAME":"北區","LI":"玉皇里","LIN":"10鄰","STREET":"崇安街","SECT":" ","MAREA":" ","LANE":" ","ALLEY":" ","HOUSE_NO":"３６號","E_COORD97":168642.23000000001,"N_COORD97":2544527.46,"ADDRESS":"崇安街３６號","OBJECTID":545653},"geometry":{"x":168642.23000000045,"y":2544527.4600000046}},{"attributes":{"ID":545681,"DIS_CODE":0,"TOWNNAME":"安平區","LI":"石門里","LIN":"10鄰","STREET":"安北路","SECT":" ","MAREA":" ","LANE":" ","ALLEY":" ","HOUSE_NO":"１號","E_COORD97":164676.97,"N_COORD97":2544454.6800000002,"ADDRESS":"安北路１號","OBJECTID":545654},"geometry":{"x":164676.96999999881,"y":2544454.6800000016}},{"attributes":{"ID":545682,"DIS_CODE":0,"TOWNNAME":"安平區","LI":"石門里","LIN":"10鄰","STREET":"安北路","SECT":" ","MAREA":" ","LANE":" ","ALLEY":" ","HOUSE_NO":"２５號","E_COORD97":164620.23000000001,"N_COORD97":2544521.9700000002,"ADDRESS":"安北路２５號","OBJECTID":545655},"geometry":{"x":164620.23000000231,"y":2544521.9700000007}},{"attributes":{"ID":545683,"DIS_CODE":0,"TOWNNAME":"安平區","LI":"石門里","LIN":"10鄰","STREET":"安北路","SECT":" ","MAREA":" ","LANE":" ","ALLEY":" ","HOUSE_NO":"２７號","E_COORD97":164613.26999999999,"N_COORD97":2544528.6699999999,"ADDRESS":"安北路２７號","OBJECTID":545656},"geometry":{"x":164613.26999999955,"y":2544528.6700000018}},{"attributes":{"ID":545684,"DIS_CODE":0,"TOWNNAME":"北區","LI":"玉皇里","LIN":"10鄰","STREET":"佑民街","SECT":" ","MAREA":" ","LANE":" ","ALLEY":" ","HOUSE_NO":"５５號","E_COORD97":168605.89000000001,"N_COORD97":2544438.3300000001,"ADDRESS":"佑民街５５號","OBJECTID":545657},"geometry":{"x":168605.8900000006,"y":2544438.3300000001}},{"attributes":{"ID":545685,"DIS_CODE":0,"TOWNNAME":"北區","LI":"玉皇里","LIN":"10鄰","STREET":"佑民街","SECT":" ","MAREA":" ","LANE":" ","ALLEY":" ","HOUSE_NO":"５７號","E_COORD97":168614.23000000001,"N_COORD97":2544441.46,"ADDRESS":"佑民街５７號","OBJECTID":545658},"geometry":{"x":168614.23000000138,"y":2544441.4600000009}},{"attributes":{"ID":545686,"DIS_CODE":0,"TOWNNAME":"北區","LI":"玉皇里","LIN":"10鄰","STREET":"佑民街","SECT":" ","MAREA":" ","LANE":" ","ALLEY":" ","HOUSE_NO":"５９號","E_COORD97":168617.57000000001,"N_COORD97":2544444.6499999999,"ADDRESS":"佑民街５９號","OBJECTID":545659},"geometry":{"x":168617.5700000003,"y":2544444.6500000022}},{"attributes":{"ID":545687,"DIS_CODE":0,"TOWNNAME":"北區","LI":"玉皇里","LIN":"10鄰","STREET":"佑民街","SECT":" ","MAREA":" ","LANE":" ","ALLEY":" ","HOUSE_NO":"６１號","E_COORD97":168627.25,"N_COORD97":2544454.5699999998,"ADDRESS":"佑民街６１號","OBJECTID":545660},"geometry":{"x":168627.25000000093,"y":2544454.570000004}},{"attributes":{"ID":545688,"DIS_CODE":0,"TOWNNAME":"北區","LI":"玉皇里","LIN":"10鄰","STREET":"忠義路","SECT":"三段","MAREA":" ","LANE":" ","ALLEY":" ","HOUSE_NO":"５２號","E_COORD97":168558.91,"N_COORD97":2544480.1299999999,"ADDRESS":"忠義路三段５２號","OBJECTID":545661},"geometry":{"x":168558.91000000108,"y":2544480.1300000027}},{"attributes":{"ID":545689,"DIS_CODE":0,"TOWNNAME":"北區","LI":"玉皇里","LIN":"10鄰","STREET":"忠義路","SECT":"三段","MAREA":" ","LANE":" ","ALLEY":" ","HOUSE_NO":"５４號","E_COORD97":168562.32999999999,"N_COORD97":2544482.1400000001,"ADDRESS":"忠義路三段５４號","OBJECTID":545662},"geometry":{"x":168562.33000000101,"y":2544482.1400000025}},{"attributes":{"ID":545690,"DIS_CODE":0,"TOWNNAME":"北區","LI":"玉皇里","LIN":"10鄰","STREET":"忠義路","SECT":"三段","MAREA":" ","LANE":" ","ALLEY":" ","HOUSE_NO":"５６號","E_COORD97":168565.14999999999,"N_COORD97":2544484,"ADDRESS":"忠義路三段５６號","OBJECTID":545663},"geometry":{"x":168565.14999999944,"y":2544484}},{"attributes":{"ID":545691,"DIS_CODE":0,"TOWNNAME":"北區","LI":"玉皇里","LIN":"10鄰","STREET":"崇安街","SECT":" ","MAREA":" ","LANE":" ","ALLEY":" ","HOUSE_NO":"１０號","E_COORD97":168584.5,"N_COORD97":2544495.1699999999,"ADDRESS":"崇安街１０號","OBJECTID":545664},"geometry":{"x":168584.50000000186,"y":2544495.1700000018}},{"attributes":{"ID":545692,"DIS_CODE":0,"TOWNNAME":"北區","LI":"玉皇里","LIN":"10鄰","STREET":"崇安街","SECT":" ","MAREA":" ","LANE":" ","ALLEY":" ","HOUSE_NO":"１２號","E_COORD97":168588.66,"N_COORD97":2544498.1400000001,"ADDRESS":"崇安街１２號","OBJECTID":545665},"geometry":{"x":168588.66000000201,"y":2544498.1400000006}},{"attributes":{"ID":545693,"DIS_CODE":0,"TOWNNAME":"北區","LI":"玉皇里","LIN":"10鄰","STREET":"崇安街","SECT":" ","MAREA":" ","LANE":" ","ALLEY":" ","HOUSE_NO":"１４號","E_COORD97":168603.39999999999,"N_COORD97":2544501.8100000001,"ADDRESS":"崇安街１４號","OBJECTID":545666},"geometry":{"x":168603.4000000013,"y":2544501.8100000024}},{"attributes":{"ID":545694,"DIS_CODE":0,"TOWNNAME":"麻豆區","LI":"新建里","LIN":"10鄰","STREET":"麻學路","SECT":"一段","MAREA":" ","LANE":" ","ALLEY":" ","HOUSE_NO":"３３號","E_COORD97":172216.78,"N_COORD97":2565035.8700000001,"ADDRESS":"麻學路一段３３號","OBJECTID":545667},"geometry":{"x":172216.78000000026,"y":2565035.870000001}},{"attributes":{"ID":545695,"DIS_CODE":0,"TOWNNAME":"麻豆區","LI":"新建里","LIN":"10鄰","STREET":"麻學路","SECT":"一段","MAREA":" ","LANE":" ","ALLEY":" ","HOUSE_NO":"３５號","E_COORD97":172209.35999999999,"N_COORD97":2565039.52,"ADDRESS":"麻學路一段３５號","OBJECTID":545668},"geometry":{"x":172209.36000000034,"y":2565039.5199999996}},{"attributes":{"ID":545696,"DIS_CODE":0,"TOWNNAME":"麻豆區","LI":"新建里","LIN":"10鄰","STREET":"麻學路","SECT":"一段","MAREA":" ","LANE":" ","ALLEY":" ","HOUSE_NO":"３９號","E_COORD97":172192.63,"N_COORD97":2565011.73,"ADDRESS":"麻學路一段３９號","OBJECTID":545669},"geometry":{"x":172192.63000000175,"y":2565011.7300000004}},{"attributes":{"ID":545697,"DIS_CODE":0,"TOWNNAME":"麻豆區","LI":"新建里","LIN":"10鄰","STREET":"麻學路","SECT":"一段","MAREA":" ","LANE":" ","ALLEY":" ","HOUSE_NO":"５號","E_COORD97":172246.32999999999,"N_COORD97":2565016.3900000001,"ADDRESS":"麻學路一段５號","OBJECTID":545670},"geometry":{"x":172246.33000000101,"y":2565016.3900000025}},{"attributes":{"ID":545698,"DIS_CODE":0,"TOWNNAME":"麻豆區","LI":"新建里","LIN":"10鄰","STREET":"麻學路","SECT":"一段","MAREA":" ","LANE":" ","ALLEY":" ","HOUSE_NO":"７號","E_COORD97":172242.59,"N_COORD97":2565019.2000000002,"ADDRESS":"麻學路一段７號","OBJECTID":545671},"geometry":{"x":172242.59000000078,"y":2565019.2000000011}},{"attributes":{"ID":545699,"DIS_CODE":0,"TOWNNAME":"麻豆區","LI":"新建里","LIN":"10鄰","STREET":"麻學路","SECT":"一段","MAREA":" ","LANE":" ","ALLEY":" ","HOUSE_NO":"９號","E_COORD97":172238.85000000001,"N_COORD97":2565022,"ADDRESS":"麻學路一段９號","OBJECTID":545672},"geometry":{"x":172238.85000000056,"y":2565022.0000000019}},{"attributes":{"ID":545700,"DIS_CODE":0,"TOWNNAME":"麻豆區","LI":"興農里","LIN":"10鄰","STREET":"新生南路","SECT":" ","MAREA":" ","LANE":" ","ALLEY":" ","HOUSE_NO":"１１６號","E_COORD97":172304.87,"N_COORD97":2564666.0099999998,"ADDRESS":"新生南路１１６號","OBJECTID":545673},"geometry":{"x":172304.87000000197,"y":2564666.0100000016}},{"attributes":{"ID":545701,"DIS_CODE":0,"TOWNNAME":"麻豆區","LI":"興農里","LIN":"10鄰","STREET":"新生南路","SECT":" ","MAREA":" ","LANE":" ","ALLEY":" ","HOUSE_NO":"１１８號","E_COORD97":172304.69,"N_COORD97":2564658.5899999999,"ADDRESS":"新生南路１１８號","OBJECTID":545674},"geometry":{"x":172304.69000000227,"y":2564658.5900000017}},{"attributes":{"ID":545702,"DIS_CODE":0,"TOWNNAME":"歸仁區","LI":"南保里","LIN":"10鄰","STREET":"文化八街","SECT":" ","MAREA":" ","LANE":" ","ALLEY":" ","HOUSE_NO":"２５號","E_COORD97":176744.04000000001,"N_COORD97":2541293.3300000001,"ADDRESS":"文化八街２５號","OBJECTID":545675},"geometry":{"x":176744.04000000097,"y":2541293.3300000019}},{"attributes":{"ID":545703,"DIS_CODE":0,"TOWNNAME":"歸仁區","LI":"歸仁里","LIN":"10鄰","STREET":"大通一街","SECT":" ","MAREA":" ","LANE":" ","ALLEY":" ","HOUSE_NO":"６號","E_COORD97":177906.56,"N_COORD97":2540883.4900000002,"ADDRESS":"大通一街６號","OBJECTID":545676},"geometry":{"x":177906.55999999959,"y":2540883.4900000002}},{"attributes":{"ID":545704,"DIS_CODE":0,"TOWNNAME":"歸仁區","LI":"歸南里","LIN":"10鄰","STREET":"民生九街","SECT":" ","MAREA":" ","LANE":" ","ALLEY":" ","HOUSE_NO":"１０９號","E_COORD97":176224.76000000001,"N_COORD97":2540072.25,"ADDRESS":"民生九街１０９號","OBJECTID":545677},"geometry":{"x":176224.76000000071,"y":2540072.25}},{"attributes":{"ID":545705,"DIS_CODE":0,"TOWNNAME":"歸仁區","LI":"媽廟里","LIN":"10鄰","STREET":"中正北路","SECT":"三段","MAREA":" ","LANE":" ","ALLEY":" ","HOUSE_NO":"２２９號","E_COORD97":177604.06,"N_COORD97":2543906.7200000002,"ADDRESS":"中正北路三段２２９號","OBJECTID":545678},"geometry":{"x":177604.06000000052,"y":2543906.7200000007}},{"attributes":{"ID":545706,"DIS_CODE":0,"TOWNNAME":"歸仁區","LI":"歸仁里","LIN":"10鄰","STREET":"大通一街","SECT":" ","MAREA":" ","LANE":" ","ALLEY":" ","HOUSE_NO":"１６號","E_COORD97":177909.91,"N_COORD97":2540902.4900000002,"ADDRESS":"大通一街１６號","OBJECTID":545679},"geometry":{"x":177909.91000000015,"y":2540902.4900000021}},{"attributes":{"ID":545707,"DIS_CODE":0,"TOWNNAME":"歸仁區","LI":"歸仁里","LIN":"10鄰","STREET":"大通一街","SECT":" ","MAREA":" ","LANE":" ","ALLEY":" ","HOUSE_NO":"８號","E_COORD97":177908.56,"N_COORD97":2540887.4900000002,"ADDRESS":"大通一街８號","OBJECTID":545680},"geometry":{"x":177908.55999999959,"y":2540887.4900000002}},{"attributes":{"ID":545708,"DIS_CODE":0,"TOWNNAME":"歸仁區","LI":"媽廟里","LIN":"10鄰","STREET":"中正北路","SECT":"三段","MAREA":" ","LANE":" ","ALLEY":" ","HOUSE_NO":"２２７號","E_COORD97":177602.06,"N_COORD97":2543901.7200000002,"ADDRESS":"中正北路三段２２７號","OBJECTID":545681},"geometry":{"x":177602.06000000145,"y":2543901.7200000025}},{"attributes":{"ID":545709,"DIS_CODE":0,"TOWNNAME":"歸仁區","LI":"崙頂里","LIN":"10鄰","STREET":"成功路","SECT":"二段","MAREA":" ","LANE":" ","ALLEY":" ","HOUSE_NO":"１６６號","E_COORD97":177953.14000000001,"N_COORD97":2539720.25,"ADDRESS":"成功路二段１６６號","OBJECTID":545682},"geometry":{"x":177953.1400000006,"y":2539720.2500000037}},{"attributes":{"ID":545710,"DIS_CODE":0,"TOWNNAME":"歸仁區","LI":"南興里","LIN":"10鄰","STREET":"文化十六街","SECT":" ","MAREA":" ","LANE":" ","ALLEY":" ","HOUSE_NO":"２７號","E_COORD97":176020.19,"N_COORD97":2541263.3300000001,"ADDRESS":"文化十六街２７號","OBJECTID":545683},"geometry":{"x":176020.19000000041,"y":2541263.3300000019}},{"attributes":{"ID":545711,"DIS_CODE":0,"TOWNNAME":"歸仁區","LI":"南興里","LIN":"10鄰","STREET":"文化十六街","SECT":" ","MAREA":" ","LANE":" ","ALLEY":" ","HOUSE_NO":"４７號","E_COORD97":176023.39000000001,"N_COORD97":2541307.3300000001,"ADDRESS":"文化十六街４７號","OBJECTID":545684},"geometry":{"x":176023.39000000153,"y":2541307.3300000019}},{"attributes":{"ID":545712,"DIS_CODE":0,"TOWNNAME":"新營區","LI":"新北里","LIN":"10鄰","STREET":"長榮路","SECT":"二段","MAREA":" ","LANE":" ","ALLEY":" ","HOUSE_NO":"１１２號","E_COORD97":179214.53,"N_COORD97":2579859.9900000002,"ADDRESS":"長榮路二段１１２號","OBJECTID":545685},"geometry":{"x":179214.53000000026,"y":2579859.9900000002}},{"attributes":{"ID":545713,"DIS_CODE":0,"TOWNNAME":"北區","LI":"新勝里","LIN":"10鄰","STREET":"長榮路","SECT":"五段","MAREA":" ","LANE":" ","ALLEY":" ","HOUSE_NO":"８９號","E_COORD97":170047.67999999999,"N_COORD97":2545607.4500000002,"ADDRESS":"長榮路五段８９號","OBJECTID":545686},"geometry":{"x":170047.68000000156,"y":2545607.4500000011}},{"attributes":{"ID":545714,"DIS_CODE":0,"TOWNNAME":"新營區","LI":"新北里","LIN":"10鄰","STREET":"長榮路","SECT":"二段","MAREA":" ","LANE":" ","ALLEY":" ","HOUSE_NO":"２８９號","E_COORD97":179213.20000000001,"N_COORD97":2579780.27,"ADDRESS":"長榮路二段２８９號","OBJECTID":545687},"geometry":{"x":179213.20000000019,"y":2579780.2700000033}},{"attributes":{"ID":545715,"DIS_CODE":0,"TOWNNAME":"新營區","LI":"忠政里","LIN":"10鄰","STREET":"中正路","SECT":" ","MAREA":" ","LANE":" ","ALLEY":" ","HOUSE_NO":"５３之６號","E_COORD97":180030.20000000001,"N_COORD97":2579485.1800000002,"ADDRESS":"中正路５３之６號","OBJECTID":545688},"geometry":{"x":180030.20000000019,"y":2579485.1799999997}},{"attributes":{"ID":545716,"DIS_CODE":0,"TOWNNAME":"新營區","LI":"南紙里","LIN":"10鄰","STREET":"南紙街","SECT":" ","MAREA":" ","LANE":" ","ALLEY":" ","HOUSE_NO":"４８號","E_COORD97":177810.82000000001,"N_COORD97":2577696.1600000001,"ADDRESS":"南紙街４８號","OBJECTID":545689},"geometry":{"x":177810.8200000003,"y":2577696.1600000001}},{"attributes":{"ID":545717,"DIS_CODE":0,"TOWNNAME":"新營區","LI":"南紙里","LIN":"10鄰","STREET":"南紙街","SECT":" ","MAREA":" ","LANE":" ","ALLEY":" ","HOUSE_NO":"５８號","E_COORD97":177808.60999999999,"N_COORD97":2577672.8999999999,"ADDRESS":"南紙街５８號","OBJECTID":545690},"geometry":{"x":177808.61000000034,"y":2577672.9000000022}},{"attributes":{"ID":545718,"DIS_CODE":0,"TOWNNAME":"新營區","LI":"新北里","LIN":"10鄰","STREET":"長榮路","SECT":"二段","MAREA":" ","LANE":" ","ALLEY":" ","HOUSE_NO":"２６９號","E_COORD97":179253.14000000001,"N_COORD97":2579792.2599999998,"ADDRESS":"長榮路二段２６９號","OBJECTID":545691},"geometry":{"x":179253.1400000006,"y":2579792.2600000016}},{"attributes":{"ID":545719,"DIS_CODE":0,"TOWNNAME":"新營區","LI":"新東里","LIN":"10鄰","STREET":"東勇街","SECT":" ","MAREA":" ","LANE":" ","ALLEY":" ","HOUSE_NO":"１００號","E_COORD97":181470.97,"N_COORD97":2579687.6899999999,"ADDRESS":"東勇街１００號","OBJECTID":545692},"geometry":{"x":181470.96999999974,"y":2579687.6899999995}},{"attributes":{"ID":545720,"DIS_CODE":0,"TOWNNAME":"新營區","LI":"三仙里","LIN":"10鄰","STREET":"中華路","SECT":" ","MAREA":" ","LANE":" ","ALLEY":" ","HOUSE_NO":"５７號之１","E_COORD97":179515.28,"N_COORD97":2578176.3900000001,"ADDRESS":"中華路５７號之１","OBJECTID":545693},"geometry":{"x":179515.28000000212,"y":2578176.3900000006}},{"attributes":{"ID":545721,"DIS_CODE":0,"TOWNNAME":"新營區","LI":"三仙里","LIN":"10鄰","STREET":"中華路","SECT":" ","MAREA":" ","LANE":" ","ALLEY":" ","HOUSE_NO":"５３號","E_COORD97":179558.17999999999,"N_COORD97":2578182.77,"ADDRESS":"中華路５３號","OBJECTID":545694},"geometry":{"x":179558.18000000063,"y":2578182.7699999996}},{"attributes":{"ID":545722,"DIS_CODE":0,"TOWNNAME":"北區","LI":"元寶里","LIN":"10鄰","STREET":"北園街","SECT":" ","MAREA":" ","LANE":" ","ALLEY":" ","HOUSE_NO":"６之３號","E_COORD97":170387.41,"N_COORD97":2545626.1899999999,"ADDRESS":"北園街６之３號","OBJECTID":545695},"geometry":{"x":170387.41000000201,"y":2545626.1900000032}},{"attributes":{"ID":545723,"DIS_CODE":0,"TOWNNAME":"南區","LI":"喜東里","LIN":"10鄰","STREET":"明興路","SECT":" ","MAREA":" ","LANE":" ","ALLEY":" ","HOUSE_NO":"５５７號","E_COORD97":166187.63,"N_COORD97":2538354.52,"ADDRESS":"明興路５５７號","OBJECTID":545696},"geometry":{"x":166187.62999999989,"y":2538354.5199999996}},{"attributes":{"ID":545724,"DIS_CODE":0,"TOWNNAME":"南區","LI":"喜東里","LIN":"10鄰","STREET":"明興路","SECT":" ","MAREA":" ","LANE":" ","ALLEY":" ","HOUSE_NO":"６２５號","E_COORD97":166074.35000000001,"N_COORD97":2537939.1600000001,"ADDRESS":"明興路６２５號","OBJECTID":545697},"geometry":{"x":166074.34999999963,"y":2537939.160000002}},{"attributes":{"ID":545725,"DIS_CODE":0,"TOWNNAME":"北區","LI":"元寶里","LIN":"10鄰","STREET":"北園街","SECT":" ","MAREA":" ","LANE":" ","ALLEY":" ","HOUSE_NO":"６之６號","E_COORD97":170385.84,"N_COORD97":2545635.8599999999,"ADDRESS":"北園街６之６號","OBJECTID":545698},"geometry":{"x":170385.84000000171,"y":2545635.8600000013}},{"attributes":{"ID":545726,"DIS_CODE":0,"TOWNNAME":"北區","LI":"新勝里","LIN":"10鄰","STREET":"長榮路","SECT":"五段","MAREA":" ","LANE":" ","ALLEY":" ","HOUSE_NO":"５３號","E_COORD97":170086.92999999999,"N_COORD97":2545546.0600000001,"ADDRESS":"長榮路五段５３號","OBJECTID":545699},"geometry":{"x":170086.93000000063,"y":2545546.0600000005}},{"attributes":{"ID":545727,"DIS_CODE":0,"TOWNNAME":"北區","LI":"新勝里","LIN":"10鄰","STREET":"長榮路","SECT":"五段","MAREA":" ","LANE":" ","ALLEY":" ","HOUSE_NO":"５５號","E_COORD97":170086.92999999999,"N_COORD97":2545549.9300000002,"ADDRESS":"長榮路五段５５號","OBJECTID":545700},"geometry":{"x":170086.93000000063,"y":2545549.9299999978}},{"attributes":{"ID":545728,"DIS_CODE":0,"TOWNNAME":"北區","LI":"新勝里","LIN":"10鄰","STREET":"長榮路","SECT":"五段","MAREA":" ","LANE":" ","ALLEY":" ","HOUSE_NO":"５７號","E_COORD97":170086.85000000001,"N_COORD97":2545554.4300000002,"ADDRESS":"長榮路五段５７號","OBJECTID":545701},"geometry":{"x":170086.84999999963,"y":2545554.4300000016}},{"attributes":{"ID":545729,"DIS_CODE":0,"TOWNNAME":"北區","LI":"新勝里","LIN":"10鄰","STREET":"長榮路","SECT":"五段","MAREA":" ","LANE":" ","ALLEY":" ","HOUSE_NO":"５９號","E_COORD97":170086.60999999999,"N_COORD97":2545558.9300000002,"ADDRESS":"長榮路五段５９號","OBJECTID":545702},"geometry":{"x":170086.61000000127,"y":2545558.9299999997}},{"attributes":{"ID":545730,"DIS_CODE":0,"TOWNNAME":"北區","LI":"新勝里","LIN":"10鄰","STREET":"長榮路","SECT":"五段","MAREA":" ","LANE":" ","ALLEY":" ","HOUSE_NO":"６１號","E_COORD97":170072.14999999999,"N_COORD97":2545554.5899999999,"ADDRESS":"長榮路五段６１號","OBJECTID":545703},"geometry":{"x":170072.15000000037,"y":2545554.5899999999}},{"attributes":{"ID":545731,"DIS_CODE":0,"TOWNNAME":"北區","LI":"新勝里","LIN":"10鄰","STREET":"長榮路","SECT":"五段","MAREA":" ","LANE":" ","ALLEY":" ","HOUSE_NO":"６５號","E_COORD97":170080.51999999999,"N_COORD97":2545572.0499999998,"ADDRESS":"長榮路五段６５號","OBJECTID":545704},"geometry":{"x":170080.51999999955,"y":2545572.0500000026}},{"attributes":{"ID":545732,"DIS_CODE":0,"TOWNNAME":"北區","LI":"新勝里","LIN":"10鄰","STREET":"長榮路","SECT":"五段","MAREA":" ","LANE":" ","ALLEY":" ","HOUSE_NO":"６７號","E_COORD97":170071.20000000001,"N_COORD97":2545570.6299999999,"ADDRESS":"長榮路五段６７號","OBJECTID":545705},"geometry":{"x":170071.20000000019,"y":2545570.629999999}},{"attributes":{"ID":545733,"DIS_CODE":0,"TOWNNAME":"北區","LI":"新勝里","LIN":"10鄰","STREET":"長榮路","SECT":"五段","MAREA":" ","LANE":" ","ALLEY":" ","HOUSE_NO":"６９號","E_COORD97":170057.92999999999,"N_COORD97":2545574.9199999999,"ADDRESS":"長榮路五段６９號","OBJECTID":545706},"geometry":{"x":170057.93000000156,"y":2545574.9200000018}},{"attributes":{"ID":545734,"DIS_CODE":0,"TOWNNAME":"北區","LI":"新勝里","LIN":"10鄰","STREET":"長榮路","SECT":"五段","MAREA":" ","LANE":" ","ALLEY":" ","HOUSE_NO":"７１號","E_COORD97":170064.09,"N_COORD97":2545577.0499999998,"ADDRESS":"長榮路五段７１號","OBJECTID":545707},"geometry":{"x":170064.09000000078,"y":2545577.0500000007}},{"attributes":{"ID":545735,"DIS_CODE":0,"TOWNNAME":"北區","LI":"新勝里","LIN":"10鄰","STREET":"長榮路","SECT":"五段","MAREA":" ","LANE":" ","ALLEY":" ","HOUSE_NO":"７３號","E_COORD97":170072.39000000001,"N_COORD97":2545576.8100000001,"ADDRESS":"長榮路五段７３號","OBJECTID":545708},"geometry":{"x":170072.3900000006,"y":2545576.8100000024}},{"attributes":{"ID":545736,"DIS_CODE":0,"TOWNNAME":"北區","LI":"新勝里","LIN":"10鄰","STREET":"長榮路","SECT":"五段","MAREA":" ","LANE":" ","ALLEY":" ","HOUSE_NO":"７５號","E_COORD97":170082.64999999999,"N_COORD97":2545578.9399999999,"ADDRESS":"長榮路五段７５號","OBJECTID":545709},"geometry":{"x":170082.6500000013,"y":2545578.9399999995}},{"attributes":{"ID":545737,"DIS_CODE":0,"TOWNNAME":"北區","LI":"新勝里","LIN":"10鄰","STREET":"長榮路","SECT":"五段","MAREA":" ","LANE":" ","ALLEY":" ","HOUSE_NO":"７７號","E_COORD97":170082.57000000001,"N_COORD97":2545586.2000000002,"ADDRESS":"長榮路五段７７號","OBJECTID":545710},"geometry":{"x":170082.5700000003,"y":2545586.2000000011}},{"attributes":{"ID":545738,"DIS_CODE":0,"TOWNNAME":"北區","LI":"新勝里","LIN":"10鄰","STREET":"長榮路","SECT":"五段","MAREA":" ","LANE":" ","ALLEY":" ","HOUSE_NO":"７９號","E_COORD97":170077.69,"N_COORD97":2545596.9500000002,"ADDRESS":"長榮路五段７９號","OBJECTID":545711},"geometry":{"x":170077.69000000134,"y":2545596.950000003}},{"attributes":{"ID":545739,"DIS_CODE":0,"TOWNNAME":"北區","LI":"新勝里","LIN":"10鄰","STREET":"長榮路","SECT":"五段","MAREA":" ","LANE":" ","ALLEY":" ","HOUSE_NO":"８１號","E_COORD97":170081.34,"N_COORD97":2545600.46,"ADDRESS":"長榮路五段８１號","OBJECTID":545712},"geometry":{"x":170081.34000000078,"y":2545600.4600000009}},{"attributes":{"ID":545740,"DIS_CODE":0,"TOWNNAME":"北區","LI":"新勝里","LIN":"10鄰","STREET":"長榮路","SECT":"五段","MAREA":" ","LANE":" ","ALLEY":" ","HOUSE_NO":"１０１號","E_COORD97":170075.35000000001,"N_COORD97":2545614.98,"ADDRESS":"長榮路五段１０１號","OBJECTID":545713},"geometry":{"x":170075.35000000149,"y":2545614.9800000042}},{"attributes":{"ID":545741,"DIS_CODE":0,"TOWNNAME":"北區","LI":"新勝里","LIN":"10鄰","STREET":"長榮路","SECT":"五段","MAREA":" ","LANE":" ","ALLEY":" ","HOUSE_NO":"１０３號","E_COORD97":170077.5,"N_COORD97":2545618.1699999999,"ADDRESS":"長榮路五段１０３號","OBJECTID":545714},"geometry":{"x":170077.5,"y":2545618.1700000018}},{"attributes":{"ID":545742,"DIS_CODE":0,"TOWNNAME":"北區","LI":"新勝里","LIN":"10鄰","STREET":"長榮路","SECT":"五段","MAREA":" ","LANE":" ","ALLEY":" ","HOUSE_NO":"１０５號","E_COORD97":170073.98000000001,"N_COORD97":2545621.8900000001,"ADDRESS":"長榮路五段１０５號","OBJECTID":545715},"geometry":{"x":170073.98000000138,"y":2545621.8900000006}},{"attributes":{"ID":545743,"DIS_CODE":0,"TOWNNAME":"北區","LI":"新勝里","LIN":"10鄰","STREET":"長榮路","SECT":"五段","MAREA":" ","LANE":" ","ALLEY":" ","HOUSE_NO":"１０７號","E_COORD97":170073.45999999999,"N_COORD97":2545626.7000000002,"ADDRESS":"長榮路五段１０７號","OBJECTID":545716},"geometry":{"x":170073.46000000089,"y":2545626.7000000011}},{"attributes":{"ID":545744,"DIS_CODE":0,"TOWNNAME":"北區","LI":"新勝里","LIN":"10鄰","STREET":"長榮路","SECT":"五段","MAREA":" ","LANE":" ","ALLEY":" ","HOUSE_NO":"１０９號","E_COORD97":170072.16,"N_COORD97":2545630.8599999999,"ADDRESS":"長榮路五段１０９號","OBJECTID":545717},"geometry":{"x":170072.16000000108,"y":2545630.8599999994}},{"attributes":{"ID":545745,"DIS_CODE":0,"TOWNNAME":"北區","LI":"新勝里","LIN":"10鄰","STREET":"長榮路","SECT":"五段","MAREA":" ","LANE":" ","ALLEY":" ","HOUSE_NO":"１１１號","E_COORD97":170075.09,"N_COORD97":2545634.3100000001,"ADDRESS":"長榮路五段１１１號","OBJECTID":545718},"geometry":{"x":170075.08999999985,"y":2545634.3100000024}},{"attributes":{"ID":545746,"DIS_CODE":0,"TOWNNAME":"北區","LI":"新勝里","LIN":"10鄰","STREET":"長榮路","SECT":"五段","MAREA":" ","LANE":" ","ALLEY":" ","HOUSE_NO":"１１３號","E_COORD97":170071.31,"N_COORD97":2545636.6600000001,"ADDRESS":"長榮路五段１１３號","OBJECTID":545719},"geometry":{"x":170071.30999999959,"y":2545636.6600000001}},{"attributes":{"ID":545747,"DIS_CODE":0,"TOWNNAME":"北區","LI":"新勝里","LIN":"10鄰","STREET":"長榮路","SECT":"五段","MAREA":" ","LANE":" ","ALLEY":" ","HOUSE_NO":"８３號","E_COORD97":170069.94,"N_COORD97":2545599.0299999998,"ADDRESS":"長榮路五段８３號","OBJECTID":545720},"geometry":{"x":170069.94000000041,"y":2545599.0299999993}},{"attributes":{"ID":545748,"DIS_CODE":0,"TOWNNAME":"北區","LI":"新勝里","LIN":"10鄰","STREET":"長榮路","SECT":"五段","MAREA":" ","LANE":" ","ALLEY":" ","HOUSE_NO":"８５號","E_COORD97":170061.92999999999,"N_COORD97":2545597.9900000002,"ADDRESS":"長榮路五段８５號","OBJECTID":545721},"geometry":{"x":170061.93000000063,"y":2545597.9900000021}},{"attributes":{"ID":545749,"DIS_CODE":0,"TOWNNAME":"北區","LI":"新勝里","LIN":"10鄰","STREET":"長榮路","SECT":"五段","MAREA":" ","LANE":" ","ALLEY":" ","HOUSE_NO":"８７號","E_COORD97":170053.85999999999,"N_COORD97":2545596.4300000002,"ADDRESS":"長榮路五段８７號","OBJECTID":545722},"geometry":{"x":170053.8600000022,"y":2545596.4299999997}},{"attributes":{"ID":545750,"DIS_CODE":0,"TOWNNAME":"北區","LI":"新勝里","LIN":"10鄰","STREET":"長榮路","SECT":"五段","MAREA":" ","LANE":" ","ALLEY":" ","HOUSE_NO":"９１號","E_COORD97":170042.98999999999,"N_COORD97":2545613.6299999999,"ADDRESS":"長榮路五段９１號","OBJECTID":545723},"geometry":{"x":170042.99000000115,"y":2545613.6300000008}},{"attributes":{"ID":545751,"DIS_CODE":0,"TOWNNAME":"北區","LI":"新勝里","LIN":"10鄰","STREET":"長榮路","SECT":"五段","MAREA":" ","LANE":" ","ALLEY":" ","HOUSE_NO":"９３號","E_COORD97":170031.79999999999,"N_COORD97":2545626.3799999999,"ADDRESS":"長榮路五段９３號","OBJECTID":545724},"geometry":{"x":170031.80000000168,"y":2545626.379999999}},{"attributes":{"ID":545752,"DIS_CODE":0,"TOWNNAME":"北區","LI":"新勝里","LIN":"10鄰","STREET":"長榮路","SECT":"五段","MAREA":" ","LANE":" ","ALLEY":" ","HOUSE_NO":"９５號","E_COORD97":170039.48000000001,"N_COORD97":2545627.4900000002,"ADDRESS":"長榮路五段９５號","OBJECTID":545725},"geometry":{"x":170039.48000000045,"y":2545627.4900000002}},{"attributes":{"ID":545753,"DIS_CODE":0,"TOWNNAME":"北區","LI":"新勝里","LIN":"10鄰","STREET":"長榮路","SECT":"五段","MAREA":" ","LANE":" ","ALLEY":" ","HOUSE_NO":"９７號","E_COORD97":170046.89999999999,"N_COORD97":2545630.2200000002,"ADDRESS":"長榮路五段９７號","OBJECTID":545726},"geometry":{"x":170046.90000000224,"y":2545630.2200000007}},{"attributes":{"ID":545754,"DIS_CODE":0,"TOWNNAME":"北區","LI":"新勝里","LIN":"10鄰","STREET":"長榮路","SECT":"五段","MAREA":" ","LANE":" ","ALLEY":" ","HOUSE_NO":"９９號","E_COORD97":170053.85999999999,"N_COORD97":2545631.3300000001,"ADDRESS":"長榮路五段９９號","OBJECTID":545727},"geometry":{"x":170053.8600000022,"y":2545631.3300000001}},{"attributes":{"ID":545755,"DIS_CODE":0,"TOWNNAME":"西港區","LI":"慶安里","LIN":"14鄰","STREET":"進學街","SECT":" ","MAREA":" ","LANE":" ","ALLEY":" ","HOUSE_NO":"１１３號","E_COORD97":167962.57999999999,"N_COORD97":2558020.71,"ADDRESS":"進學街１１３號","OBJECTID":545728},"geometry":{"x":167962.58000000101,"y":2558020.7100000028}},{"attributes":{"ID":545756,"DIS_CODE":0,"TOWNNAME":"西港區","LI":"慶安里","LIN":"14鄰","STREET":"進學街","SECT":" ","MAREA":" ","LANE":" ","ALLEY":" ","HOUSE_NO":"１１５號","E_COORD97":167962.32999999999,"N_COORD97":2558016.4300000002,"ADDRESS":"進學街１１５號","OBJECTID":545729},"geometry":{"x":167962.33000000101,"y":2558016.4300000034}},{"attributes":{"ID":545757,"DIS_CODE":0,"TOWNNAME":"西港區","LI":"慶安里","LIN":"14鄰","STREET":"進學街","SECT":" ","MAREA":" ","LANE":" ","ALLEY":" ","HOUSE_NO":"１１７號","E_COORD97":167962.35999999999,"N_COORD97":2558012.21,"ADDRESS":"進學街１１７號","OBJECTID":545730},"geometry":{"x":167962.36000000127,"y":2558012.209999999}},{"attributes":{"ID":545758,"DIS_CODE":0,"TOWNNAME":"西港區","LI":"慶安里","LIN":"14鄰","STREET":"進學街","SECT":" ","MAREA":" ","LANE":" ","ALLEY":" ","HOUSE_NO":"１１９號","E_COORD97":167962.59,"N_COORD97":2558007.98,"ADDRESS":"進學街１１９號","OBJECTID":545731},"geometry":{"x":167962.58999999985,"y":2558007.9800000023}},{"attributes":{"ID":545759,"DIS_CODE":0,"TOWNNAME":"西港區","LI":"慶安里","LIN":"14鄰","STREET":"進學街","SECT":" ","MAREA":" ","LANE":" ","ALLEY":" ","HOUSE_NO":"１２１號","E_COORD97":167962.59,"N_COORD97":2558003.8500000001,"ADDRESS":"進學街１２１號","OBJECTID":545732},"geometry":{"x":167962.58999999985,"y":2558003.8500000015}},{"attributes":{"ID":545760,"DIS_CODE":0,"TOWNNAME":"西港區","LI":"慶安里","LIN":"14鄰","STREET":"進學街","SECT":" ","MAREA":" ","LANE":" ","ALLEY":" ","HOUSE_NO":"１２３號","E_COORD97":167962.85000000001,"N_COORD97":2557999.5,"ADDRESS":"進學街１２３號","OBJECTID":545733},"geometry":{"x":167962.84999999963,"y":2557999.5000000037}},{"attributes":{"ID":545761,"DIS_CODE":0,"TOWNNAME":"西港區","LI":"慶安里","LIN":"14鄰","STREET":"進學街","SECT":" ","MAREA":" ","LANE":" ","ALLEY":" ","HOUSE_NO":"１２５號","E_COORD97":167962.94,"N_COORD97":2557995.29,"ADDRESS":"進學街１２５號","OBJECTID":545734},"geometry":{"x":167962.94000000041,"y":2557995.2899999991}},{"attributes":{"ID":545762,"DIS_CODE":0,"TOWNNAME":"西港區","LI":"慶安里","LIN":"14鄰","STREET":"進學街","SECT":" ","MAREA":" ","LANE":" ","ALLEY":" ","HOUSE_NO":"１２７號","E_COORD97":167963.60999999999,"N_COORD97":2557989.54,"ADDRESS":"進學街１２７號","OBJECTID":545735},"geometry":{"x":167963.6099999994,"y":2557989.540000001}},{"attributes":{"ID":545763,"DIS_CODE":0,"TOWNNAME":"西港區","LI":"慶安里","LIN":"14鄰","STREET":"進學街","SECT":" ","MAREA":" ","LANE":" ","ALLEY":" ","HOUSE_NO":"１２９號","E_COORD97":167966.78,"N_COORD97":2557979.71,"ADDRESS":"進學街１２９號","OBJECTID":545736},"geometry":{"x":167966.78000000026,"y":2557979.7100000028}},{"attributes":{"ID":545764,"DIS_CODE":0,"TOWNNAME":"西港區","LI":"慶安里","LIN":"19鄰","STREET":"進學街","SECT":" ","MAREA":" ","LANE":" ","ALLEY":" ","HOUSE_NO":"１１號","E_COORD97":168315.89999999999,"N_COORD97":2558027.04,"ADDRESS":"進學街１１號","OBJECTID":545737},"geometry":{"x":168315.90000000037,"y":2558027.0399999991}},{"attributes":{"ID":545765,"DIS_CODE":0,"TOWNNAME":"西港區","LI":"慶安里","LIN":"19鄰","STREET":"進學街","SECT":" ","MAREA":" ","LANE":" ","ALLEY":" ","HOUSE_NO":"１３號","E_COORD97":168316.94,"N_COORD97":2558019.6800000002,"ADDRESS":"進學街１３號","OBJECTID":545738},"geometry":{"x":168316.94000000041,"y":2558019.6800000016}},{"attributes":{"ID":545766,"DIS_CODE":0,"TOWNNAME":"西港區","LI":"慶安里","LIN":"12鄰","STREET":"進學街","SECT":" ","MAREA":" ","LANE":" ","ALLEY":" ","HOUSE_NO":"５６之５號","E_COORD97":168087.13,"N_COORD97":2558075.1099999999,"ADDRESS":"進學街５６之５號","OBJECTID":545739},"geometry":{"x":168087.13000000082,"y":2558075.1099999994}},{"attributes":{"ID":545767,"DIS_CODE":0,"TOWNNAME":"西港區","LI":"慶安里","LIN":"12鄰","STREET":"進學街","SECT":" ","MAREA":" ","LANE":" ","ALLEY":" ","HOUSE_NO":"５６號","E_COORD97":168102.97,"N_COORD97":2558056.0600000001,"ADDRESS":"進學街５６號","OBJECTID":545740},"geometry":{"x":168102.96999999881,"y":2558056.0600000005}},{"attributes":{"ID":545768,"DIS_CODE":0,"TOWNNAME":"安平區","LI":"億載里","LIN":"10鄰","STREET":"郡平路","SECT":" ","MAREA":" ","LANE":" ","ALLEY":" ","HOUSE_NO":"４５８號","E_COORD97":163965.89000000001,"N_COORD97":2543373.77,"ADDRESS":"郡平路４５８號","OBJECTID":545741},"geometry":{"x":163965.8900000006,"y":2543373.7699999996}},{"attributes":{"ID":545769,"DIS_CODE":0,"TOWNNAME":"鹽水區","LI":"橋南里","LIN":"10鄰","STREET":"南門路","SECT":" ","MAREA":" ","LANE":" ","ALLEY":" ","HOUSE_NO":"６２號","E_COORD97":175103.48000000001,"N_COORD97":2579334.1400000001,"ADDRESS":"南門路６２號","OBJECTID":545742},"geometry":{"x":175103.48000000138,"y":2579334.1400000006}},{"attributes":{"ID":545770,"DIS_CODE":0,"TOWNNAME":"鹽水區","LI":"橋南里","LIN":"10鄰","STREET":"南門路","SECT":" ","MAREA":" ","LANE":" ","ALLEY":" ","HOUSE_NO":"６８號","E_COORD97":175128.20000000001,"N_COORD97":2579322.2400000002,"ADDRESS":"南門路６８號","OBJECTID":545743},"geometry":{"x":175128.20000000019,"y":2579322.2400000002}},{"attributes":{"ID":545771,"DIS_CODE":0,"TOWNNAME":"鹽水區","LI":"橋南里","LIN":"10鄰","STREET":"南門路","SECT":" ","MAREA":" ","LANE":" ","ALLEY":" ","HOUSE_NO":"７０號","E_COORD97":175145.72,"N_COORD97":2579303.6600000001,"ADDRESS":"南門路７０號","OBJECTID":545744},"geometry":{"x":175145.71999999974,"y":2579303.6600000039}},{"attributes":{"ID":545772,"DIS_CODE":0,"TOWNNAME":"南區","LI":"明興里","LIN":"10鄰","STREET":"金華路","SECT":"一段","MAREA":" ","LANE":" ","ALLEY":" ","HOUSE_NO":"１１４號","E_COORD97":166920.28,"N_COORD97":2540532.1699999999,"ADDRESS":"金華路一段１１４號","OBJECTID":545745},"geometry":{"x":166920.28000000119,"y":2540532.1700000018}},{"attributes":{"ID":545773,"DIS_CODE":0,"TOWNNAME":"關廟區","LI":"新埔里","LIN":"10鄰","STREET":"新埔二街","SECT":" ","MAREA":" ","LANE":" ","ALLEY":" ","HOUSE_NO":"１號","E_COORD97":181379.12,"N_COORD97":2540933.25,"ADDRESS":"新埔二街１號","OBJECTID":545746},"geometry":{"x":181379.12000000197,"y":2540933.25}},{"attributes":{"ID":545774,"DIS_CODE":0,"TOWNNAME":"西港區","LI":"慶安里","LIN":"14鄰","STREET":"進學街","SECT":" ","MAREA":" ","LANE":" ","ALLEY":" ","HOUSE_NO":"９７之１號","E_COORD97":167996.63,"N_COORD97":2558020.5,"ADDRESS":"進學街９７之１號","OBJECTID":545747},"geometry":{"x":167996.62999999989,"y":2558020.5000000019}},{"attributes":{"ID":545775,"DIS_CODE":0,"TOWNNAME":"關廟區","LI":"香洋里","LIN":"10鄰","STREET":"南雄路","SECT":"二段","MAREA":" ","LANE":" ","ALLEY":" ","HOUSE_NO":"９８號","E_COORD97":181137.84,"N_COORD97":2540218.2799999998,"ADDRESS":"南雄路二段９８號","OBJECTID":545748},"geometry":{"x":181137.83999999985,"y":2540218.2800000012}},{"attributes":{"ID":545776,"DIS_CODE":0,"TOWNNAME":"北區","LI":"公園里","LIN":"10鄰","STREET":"成功路","SECT":" ","MAREA":" ","LANE":" ","ALLEY":" ","HOUSE_NO":"１２號","E_COORD97":168978.22,"N_COORD97":2544250.3900000001,"ADDRESS":"成功路１２號","OBJECTID":545749},"geometry":{"x":168978.22000000067,"y":2544250.3900000025}},{"attributes":{"ID":545777,"DIS_CODE":0,"TOWNNAME":"南區","LI":"國宅里","LIN":"10鄰","STREET":"新興路","SECT":" ","MAREA":" ","LANE":" ","ALLEY":" ","HOUSE_NO":"３７２號","E_COORD97":166885.98000000001,"N_COORD97":2541804.3300000001,"ADDRESS":"新興路３７２號","OBJECTID":545750},"geometry":{"x":166885.98000000045,"y":2541804.3300000001}},{"attributes":{"ID":545778,"DIS_CODE":0,"TOWNNAME":"南區","LI":"國宅里","LIN":"10鄰","STREET":"新興路","SECT":" ","MAREA":" ","LANE":" ","ALLEY":" ","HOUSE_NO":"３７４號","E_COORD97":166877.51999999999,"N_COORD97":2541793.3500000001,"ADDRESS":"新興路３７４號","OBJECTID":545751},"geometry":{"x":166877.52000000048,"y":2541793.3499999996}},{"attributes":{"ID":545779,"DIS_CODE":0,"TOWNNAME":"南區","LI":"國宅里","LIN":"10鄰","STREET":"新興路","SECT":" ","MAREA":" ","LANE":" ","ALLEY":" ","HOUSE_NO":"３７６號","E_COORD97":166871.45999999999,"N_COORD97":2541793.7799999998,"ADDRESS":"新興路３７６號","OBJECTID":545752},"geometry":{"x":166871.46000000089,"y":2541793.7799999993}},{"attributes":{"ID":545780,"DIS_CODE":0,"TOWNNAME":"歸仁區","LI":"後市里","LIN":"10鄰","STREET":"大順六街","SECT":" ","MAREA":" ","LANE":" ","ALLEY":" ","HOUSE_NO":"４７號","E_COORD97":177028.91,"N_COORD97":2540715.25,"ADDRESS":"大順六街４７號","OBJECTID":545753},"geometry":{"x":177028.91000000015,"y":2540715.25}},{"attributes":{"ID":545781,"DIS_CODE":0,"TOWNNAME":"歸仁區","LI":"南保里","LIN":"10鄰","STREET":"文化街","SECT":"三段","MAREA":" ","LANE":" ","ALLEY":" ","HOUSE_NO":"１３０號","E_COORD97":176682.92000000001,"N_COORD97":2541216.2599999998,"ADDRESS":"文化街三段１３０號","OBJECTID":545754},"geometry":{"x":176682.92000000179,"y":2541216.2600000016}},{"attributes":{"ID":545782,"DIS_CODE":0,"TOWNNAME":"新化區","LI":"武安里","LIN":"10鄰","STREET":"和平街","SECT":" ","MAREA":" ","LANE":" ","ALLEY":" ","HOUSE_NO":"１５５號","E_COORD97":178899.01999999999,"N_COORD97":2548206.25,"ADDRESS":"和平街１５５號","OBJECTID":545755},"geometry":{"x":178899.01999999955,"y":2548206.2500000037}},{"attributes":{"ID":545783,"DIS_CODE":0,"TOWNNAME":"新化區","LI":"護國里","LIN":"10鄰","STREET":"中山路","SECT":" ","MAREA":" ","LANE":" ","ALLEY":" ","HOUSE_NO":"４６號","E_COORD97":179866.77035999999,"N_COORD97":2549424.3351400001,"ADDRESS":"中山路４６號","OBJECTID":545756},"geometry":{"x":179866.7703599995,"y":2549424.3351440001}},{"attributes":{"ID":545784,"DIS_CODE":0,"TOWNNAME":"新化區","LI":"協興里","LIN":"10鄰","STREET":"正新路","SECT":" ","MAREA":" ","LANE":" ","ALLEY":" ","HOUSE_NO":"３３６號","E_COORD97":178567.12,"N_COORD97":2548831.25,"ADDRESS":"正新路３３６號","OBJECTID":545757},"geometry":{"x":178567.12000000104,"y":2548831.2500000019}},{"attributes":{"ID":545785,"DIS_CODE":0,"TOWNNAME":"新化區","LI":"協興里","LIN":"10鄰","STREET":"正新路","SECT":" ","MAREA":" ","LANE":" ","ALLEY":" ","HOUSE_NO":"３４２號","E_COORD97":178549.51999999999,"N_COORD97":2548839.25,"ADDRESS":"正新路３４２號","OBJECTID":545758},"geometry":{"x":178549.51999999955,"y":2548839.25}},{"attributes":{"ID":545786,"DIS_CODE":0,"TOWNNAME":"新化區","LI":"協興里","LIN":"10鄰","STREET":"正新路","SECT":" ","MAREA":" ","LANE":" ","ALLEY":" ","HOUSE_NO":"３３５號","E_COORD97":178533.92000000001,"N_COORD97":2548810.25,"ADDRESS":"正新路３３５號","OBJECTID":545759},"geometry":{"x":178533.91999999993,"y":2548810.2500000019}},{"attributes":{"ID":545787,"DIS_CODE":0,"TOWNNAME":"新化區","LI":"協興里","LIN":"10鄰","STREET":"正新路","SECT":" ","MAREA":" ","LANE":" ","ALLEY":" ","HOUSE_NO":"３３９號","E_COORD97":178532.72,"N_COORD97":2548820.25,"ADDRESS":"正新路３３９號","OBJECTID":545760},"geometry":{"x":178532.71999999974,"y":2548820.2500000019}},{"attributes":{"ID":545788,"DIS_CODE":0,"TOWNNAME":"新化區","LI":"協興里","LIN":"10鄰","STREET":"正新路","SECT":" ","MAREA":" ","LANE":" ","ALLEY":" ","HOUSE_NO":"３５３號","E_COORD97":178527.12,"N_COORD97":2548853.25,"ADDRESS":"正新路３５３號","OBJECTID":545761},"geometry":{"x":178527.12000000011,"y":2548853.25}},{"attributes":{"ID":545789,"DIS_CODE":0,"TOWNNAME":"新化區","LI":"協興里","LIN":"10鄰","STREET":"正新路","SECT":" ","MAREA":" ","LANE":" ","ALLEY":" ","HOUSE_NO":"３４０號","E_COORD97":178550.72,"N_COORD97":2548827.25,"ADDRESS":"正新路３４０號","OBJECTID":545762},"geometry":{"x":178550.72000000067,"y":2548827.2500000019}},{"attributes":{"ID":545790,"DIS_CODE":0,"TOWNNAME":"新化區","LI":"協興里","LIN":"10鄰","STREET":"正新路","SECT":" ","MAREA":" ","LANE":" ","ALLEY":" ","HOUSE_NO":"３６０號","E_COORD97":178544.01999999999,"N_COORD97":2548877.25,"ADDRESS":"正新路３６０號","OBJECTID":545763},"geometry":{"x":178544.02000000048,"y":2548877.25}},{"attributes":{"ID":545791,"DIS_CODE":0,"TOWNNAME":"新化區","LI":"協興里","LIN":"10鄰","STREET":"正新路","SECT":" ","MAREA":" ","LANE":" ","ALLEY":" ","HOUSE_NO":"３５９號","E_COORD97":178524.62,"N_COORD97":2548865.25,"ADDRESS":"正新路３５９號","OBJECTID":545764},"geometry":{"x":178524.62000000104,"y":2548865.2500000019}},{"attributes":{"ID":545792,"DIS_CODE":0,"TOWNNAME":"新化區","LI":"協興里","LIN":"10鄰","STREET":"正新路","SECT":" ","MAREA":" ","LANE":" ","ALLEY":" ","HOUSE_NO":"３６２號","E_COORD97":178540.51999999999,"N_COORD97":2548882.25,"ADDRESS":"正新路３６２號","OBJECTID":545765},"geometry":{"x":178540.52000000048,"y":2548882.2500000019}},{"attributes":{"ID":545793,"DIS_CODE":0,"TOWNNAME":"中西區","LI":"元安里","LIN":"10鄰","STREET":"國華街","SECT":"二段","MAREA":" ","LANE":" ","ALLEY":" ","HOUSE_NO":"７７號","E_COORD97":167623.76999999999,"N_COORD97":2543396.8399999999,"ADDRESS":"國華街二段７７號","OBJECTID":545766},"geometry":{"x":167623.76999999955,"y":2543396.8399999999}},{"attributes":{"ID":545794,"DIS_CODE":0,"TOWNNAME":"中西區","LI":"民主里","LIN":"10鄰","STREET":"尊王路","SECT":" ","MAREA":" ","LANE":" ","ALLEY":" ","HOUSE_NO":"１２６號","E_COORD97":167381.89000000001,"N_COORD97":2543638.1699999999,"ADDRESS":"尊王路１２６號","OBJECTID":545767},"geometry":{"x":167381.8900000006,"y":2543638.1700000018}},{"attributes":{"ID":545795,"DIS_CODE":0,"TOWNNAME":"中西區","LI":"民主里","LIN":"10鄰","STREET":"尊王路","SECT":" ","MAREA":" ","LANE":" ","ALLEY":" ","HOUSE_NO":"１２８號","E_COORD97":167370.54999999999,"N_COORD97":2543639.73,"ADDRESS":"尊王路１２８號","OBJECTID":545768},"geometry":{"x":167370.55000000075,"y":2543639.7300000004}},{"attributes":{"ID":545796,"DIS_CODE":0,"TOWNNAME":"中西區","LI":"民主里","LIN":"10鄰","STREET":"尊王路","SECT":" ","MAREA":" ","LANE":" ","ALLEY":" ","HOUSE_NO":"１３０號","E_COORD97":167361.42000000001,"N_COORD97":2543643.1400000001,"ADDRESS":"尊王路１３０號","OBJECTID":545769},"geometry":{"x":167361.42000000086,"y":2543643.1400000006}},{"attributes":{"ID":545797,"DIS_CODE":0,"TOWNNAME":"中西區","LI":"民主里","LIN":"10鄰","STREET":"尊王路","SECT":" ","MAREA":" ","LANE":" ","ALLEY":" ","HOUSE_NO":"１３２號","E_COORD97":167350.31,"N_COORD97":2543645.29,"ADDRESS":"尊王路１３２號","OBJECTID":545770},"geometry":{"x":167350.31000000052,"y":2543645.290000001}},{"attributes":{"ID":545798,"DIS_CODE":0,"TOWNNAME":"中西區","LI":"民主里","LIN":"10鄰","STREET":"尊王路","SECT":" ","MAREA":" ","LANE":" ","ALLEY":" ","HOUSE_NO":"１３６號","E_COORD97":167344.62,"N_COORD97":2543646.6299999999,"ADDRESS":"尊王路１３６號","OBJECTID":545771},"geometry":{"x":167344.62000000197,"y":2543646.6300000008}},{"attributes":{"ID":545799,"DIS_CODE":0,"TOWNNAME":"東區","LI":"德光里","LIN":"10鄰","STREET":"崇德三街","SECT":" ","MAREA":" ","LANE":" ","ALLEY":" ","HOUSE_NO":"１２號","E_COORD97":170233.48999999999,"N_COORD97":2542207.6899999999,"ADDRESS":"崇德三街１２號","OBJECTID":545772},"geometry":{"x":170233.49000000022,"y":2542207.6899999995}},{"attributes":{"ID":545800,"DIS_CODE":0,"TOWNNAME":"東區","LI":"德光里","LIN":"10鄰","STREET":"崇德三街","SECT":" ","MAREA":" ","LANE":" ","ALLEY":" ","HOUSE_NO":"１２號地下一層","E_COORD97":170233.48999999999,"N_COORD97":2542207.6899999999,"ADDRESS":"崇德三街１２號地下一層","OBJECTID":545773},"geometry":{"x":170233.49000000022,"y":2542207.6899999995}},{"attributes":{"ID":545801,"DIS_CODE":0,"TOWNNAME":"東區","LI":"德光里","LIN":"10鄰","STREET":"崇德路","SECT":" ","MAREA":" ","LANE":" ","ALLEY":" ","HOUSE_NO":"２６３號","E_COORD97":170170.75,"N_COORD97":2542106.4900000002,"ADDRESS":"崇德路２６３號","OBJECTID":545774},"geometry":{"x":170170.75,"y":2542106.4900000021}},{"attributes":{"ID":545802,"DIS_CODE":0,"TOWNNAME":"東區","LI":"德光里","LIN":"10鄰","STREET":"崇德路","SECT":" ","MAREA":" ","LANE":" ","ALLEY":" ","HOUSE_NO":"２６９號","E_COORD97":170190.73999999999,"N_COORD97":2542093.04,"ADDRESS":"崇德路２６９號","OBJECTID":545775},"geometry":{"x":170190.74000000115,"y":2542093.0399999991}},{"attributes":{"ID":545803,"DIS_CODE":0,"TOWNNAME":"東區","LI":"德光里","LIN":"10鄰","STREET":"崇學路","SECT":" ","MAREA":" ","LANE":" ","ALLEY":" ","HOUSE_NO":"８９號","E_COORD97":170197.62,"N_COORD97":2542099.5,"ADDRESS":"崇學路８９號","OBJECTID":545776},"geometry":{"x":170197.62000000197,"y":2542099.5000000019}},{"attributes":{"ID":545804,"DIS_CODE":0,"TOWNNAME":"東區","LI":"德光里","LIN":"10鄰","STREET":"崇學路","SECT":" ","MAREA":" ","LANE":" ","ALLEY":" ","HOUSE_NO":"９９號","E_COORD97":170211.81,"N_COORD97":2542113.8799999999,"ADDRESS":"崇學路９９號","OBJECTID":545777},"geometry":{"x":170211.81000000052,"y":2542113.879999999}},{"attributes":{"ID":545805,"DIS_CODE":0,"TOWNNAME":"東區","LI":"南聖里","LIN":"10鄰","STREET":"裕忠路","SECT":" ","MAREA":" ","LANE":" ","ALLEY":" ","HOUSE_NO":"１３號","E_COORD97":172247.53,"N_COORD97":2543241.3500000001,"ADDRESS":"裕忠路１３號","OBJECTID":545778},"geometry":{"x":172247.53000000026,"y":2543241.3499999996}},{"attributes":{"ID":545806,"DIS_CODE":0,"TOWNNAME":"東區","LI":"南聖里","LIN":"10鄰","STREET":"裕忠路","SECT":" ","MAREA":" ","LANE":" ","ALLEY":" ","HOUSE_NO":"１５號","E_COORD97":172248.23999999999,"N_COORD97":2543237.3100000001,"ADDRESS":"裕忠路１５號","OBJECTID":545779},"geometry":{"x":172248.24000000209,"y":2543237.3100000024}},{"attributes":{"ID":545807,"DIS_CODE":0,"TOWNNAME":"仁德區","LI":"新田里","LIN":"10鄰","STREET":"中正路","SECT":"二段","MAREA":" ","LANE":" ","ALLEY":" ","HOUSE_NO":"４６５號","E_COORD97":173343.54999999999,"N_COORD97":2539508.2799999998,"ADDRESS":"中正路二段４６５號","OBJECTID":545780},"geometry":{"x":173343.54999999981,"y":2539508.2799999993}},{"attributes":{"ID":545808,"DIS_CODE":0,"TOWNNAME":"仁德區","LI":"太子里","LIN":"10鄰","STREET":"長興路","SECT":" ","MAREA":" ","LANE":" ","ALLEY":" ","HOUSE_NO":"３０號","E_COORD97":174131.64999999999,"N_COORD97":2543615.0099999998,"ADDRESS":"長興路３０號","OBJECTID":545781},"geometry":{"x":174131.65000000037,"y":2543615.0100000016}},{"attributes":{"ID":545809,"DIS_CODE":0,"TOWNNAME":"仁德區","LI":"二行里","LIN":"10鄰","STREET":"行大街","SECT":" ","MAREA":" ","LANE":" ","ALLEY":" ","HOUSE_NO":"１３２號","E_COORD97":170091.76999999999,"N_COORD97":2535108.9900000002,"ADDRESS":"行大街１３２號","OBJECTID":545782},"geometry":{"x":170091.77000000048,"y":2535108.9900000021}},{"attributes":{"ID":545810,"DIS_CODE":0,"TOWNNAME":"仁德區","LI":"一甲里","LIN":"10鄰","STREET":"忠義路","SECT":" ","MAREA":" ","LANE":" ","ALLEY":" ","HOUSE_NO":"２２２號","E_COORD97":173720.5,"N_COORD97":2541874.27,"ADDRESS":"忠義路２２２號","OBJECTID":545783},"geometry":{"x":173720.5,"y":2541874.2699999996}},{"attributes":{"ID":545811,"DIS_CODE":0,"TOWNNAME":"佳里區","LI":"忠仁里","LIN":"10鄰","STREET":"興中街","SECT":" ","MAREA":" ","LANE":" ","ALLEY":" ","HOUSE_NO":"２４號","E_COORD97":165960.23999999999,"N_COORD97":2562206.2999999998,"ADDRESS":"興中街２４號","OBJECTID":545784},"geometry":{"x":165960.24000000022,"y":2562206.3000000026}},{"attributes":{"ID":545812,"DIS_CODE":0,"TOWNNAME":"佳里區","LI":"忠仁里","LIN":"10鄰","STREET":"興中街","SECT":" ","MAREA":" ","LANE":" ","ALLEY":" ","HOUSE_NO":"２６號","E_COORD97":165955.72,"N_COORD97":2562205.9900000002,"ADDRESS":"興中街２６號","OBJECTID":545785},"geometry":{"x":165955.72000000067,"y":2562205.9900000002}},{"attributes":{"ID":545813,"DIS_CODE":0,"TOWNNAME":"永康區","LI":"烏竹里","LIN":"10鄰","STREET":"竹園二街","SECT":" ","MAREA":" ","LANE":" ","ALLEY":" ","HOUSE_NO":"１３８號","E_COORD97":174525.29999999999,"N_COORD97":2549231.5699999998,"ADDRESS":"竹園二街１３８號","OBJECTID":545786},"geometry":{"x":174525.29999999981,"y":2549231.5699999984}},{"attributes":{"ID":545814,"DIS_CODE":0,"TOWNNAME":"中西區","LI":"仙草里","LIN":"10鄰","STREET":"府緯街","SECT":" ","MAREA":" ","LANE":" ","ALLEY":" ","HOUSE_NO":"１０號","E_COORD97":167939.82999999999,"N_COORD97":2542728.0899999999,"ADDRESS":"府緯街１０號","OBJECTID":545787},"geometry":{"x":167939.82999999914,"y":2542728.089999998}},{"attributes":{"ID":545815,"DIS_CODE":0,"TOWNNAME":"中西區","LI":"仙草里","LIN":"10鄰","STREET":"府緯街","SECT":" ","MAREA":" ","LANE":" ","ALLEY":" ","HOUSE_NO":"１２號","E_COORD97":167936.19,"N_COORD97":2542727.7400000002,"ADDRESS":"府緯街１２號","OBJECTID":545788},"geometry":{"x":167936.19000000227,"y":2542727.7400000039}},{"attributes":{"ID":545816,"DIS_CODE":0,"TOWNNAME":"中西區","LI":"仙草里","LIN":"10鄰","STREET":"府緯街","SECT":" ","MAREA":" ","LANE":" ","ALLEY":" ","HOUSE_NO":"１４號","E_COORD97":167932.20000000001,"N_COORD97":2542728.6099999999,"ADDRESS":"府緯街１４號","OBJECTID":545789},"geometry":{"x":167932.20000000019,"y":2542728.6100000013}},{"attributes":{"ID":545817,"DIS_CODE":0,"TOWNNAME":"中西區","LI":"仙草里","LIN":"10鄰","STREET":"府緯街","SECT":" ","MAREA":" ","LANE":" ","ALLEY":" ","HOUSE_NO":"１８號","E_COORD97":167924.91,"N_COORD97":2542727.04,"ADDRESS":"府緯街１８號","OBJECTID":545790},"geometry":{"x":167924.91000000108,"y":2542727.0399999991}},{"attributes":{"ID":545818,"DIS_CODE":0,"TOWNNAME":"中西區","LI":"小西里","LIN":"10鄰","STREET":"西門路","SECT":"一段","MAREA":" ","LANE":" ","ALLEY":" ","HOUSE_NO":"７１６號之１","E_COORD97":167758.39999999999,"N_COORD97":2543391.7999999998,"ADDRESS":"西門路一段７１６號之１","OBJECTID":545791},"geometry":{"x":167758.40000000224,"y":2543391.8000000007}},{"attributes":{"ID":545819,"DIS_CODE":0,"TOWNNAME":"永康區","LI":"永康里","LIN":"10鄰","STREET":"永康街","SECT":" ","MAREA":" ","LANE":" ","ALLEY":" ","HOUSE_NO":"４２號","E_COORD97":173772.95000000001,"N_COORD97":2547248.75,"ADDRESS":"永康街４２號","OBJECTID":545792},"geometry":{"x":173772.95000000112,"y":2547248.75}},{"attributes":{"ID":545820,"DIS_CODE":0,"TOWNNAME":"西港區","LI":"慶安里","LIN":"32鄰","STREET":"新興街","SECT":" ","MAREA":" ","LANE":" ","ALLEY":" ","HOUSE_NO":"８號之１８３","E_COORD97":168353.06,"N_COORD97":2557597.21,"ADDRESS":"新興街８號之１８３","OBJECTID":545793},"geometry":{"x":168353.05999999866,"y":2557597.2100000009}},{"attributes":{"ID":545821,"DIS_CODE":0,"TOWNNAME":"東區","LI":"南聖里","LIN":"10鄰","STREET":"裕孝路","SECT":" ","MAREA":" ","LANE":" ","ALLEY":" ","HOUSE_NO":"３８號","E_COORD97":172406.62,"N_COORD97":2543232.1699999999,"ADDRESS":"裕孝路３８號","OBJECTID":545794},"geometry":{"x":172406.62000000197,"y":2543232.1699999999}},{"attributes":{"ID":545822,"DIS_CODE":0,"TOWNNAME":"仁德區","LI":"一甲里","LIN":"10鄰","STREET":"忠義路","SECT":" ","MAREA":" ","LANE":" ","ALLEY":" ","HOUSE_NO":"２４４號","E_COORD97":173626.20999999999,"N_COORD97":2541883.27,"ADDRESS":"忠義路２４４號","OBJECTID":545795},"geometry":{"x":173626.21000000183,"y":2541883.2700000014}},{"attributes":{"ID":545823,"DIS_CODE":0,"TOWNNAME":"新化區","LI":"太平里","LIN":"10鄰","STREET":"中正路","SECT":" ","MAREA":" ","LANE":" ","ALLEY":" ","HOUSE_NO":"７９３號","E_COORD97":178659.10999999999,"N_COORD97":2549372.25,"ADDRESS":"中正路７９３號","OBJECTID":545796},"geometry":{"x":178659.11000000127,"y":2549372.25}},{"attributes":{"ID":545824,"DIS_CODE":0,"TOWNNAME":"西港區","LI":"慶安里","LIN":"18鄰","STREET":"新興街","SECT":" ","MAREA":" ","LANE":" ","ALLEY":" ","HOUSE_NO":"３０號","E_COORD97":168197,"N_COORD97":2557929.9199999999,"ADDRESS":"新興街３０號","OBJECTID":545797},"geometry":{"x":168197.00000000093,"y":2557929.9200000018}},{"attributes":{"ID":545825,"DIS_CODE":0,"TOWNNAME":"西港區","LI":"慶安里","LIN":"26鄰","STREET":"新興街","SECT":" ","MAREA":" ","LANE":" ","ALLEY":" ","HOUSE_NO":"１４號之１０","E_COORD97":168227.37,"N_COORD97":2557790.0800000001,"ADDRESS":"新興街１４號之１０","OBJECTID":545798},"geometry":{"x":168227.37000000011,"y":2557790.0800000019}},{"attributes":{"ID":545826,"DIS_CODE":0,"TOWNNAME":"西港區","LI":"慶安里","LIN":"26鄰","STREET":"新興街","SECT":" ","MAREA":" ","LANE":" ","ALLEY":" ","HOUSE_NO":"１４號之１","E_COORD97":168217.26999999999,"N_COORD97":2557833.8999999999,"ADDRESS":"新興街１４號之１","OBJECTID":545799},"geometry":{"x":168217.26999999955,"y":2557833.9000000004}},{"attributes":{"ID":545827,"DIS_CODE":0,"TOWNNAME":"西港區","LI":"慶安里","LIN":"26鄰","STREET":"新興街","SECT":" ","MAREA":" ","LANE":" ","ALLEY":" ","HOUSE_NO":"１４號之２","E_COORD97":168218.10999999999,"N_COORD97":2557829.0800000001,"ADDRESS":"新興街１４號之２","OBJECTID":545800},"geometry":{"x":168218.1100000022,"y":2557829.0800000001}}]}