{"displayFieldName":"TOWNNAME","fieldAliases":{"ID":"ID","DIS_CODE":"DIS_CODE","TOWNNAME":"TOWNNAME","LI":"LI","LIN":"LIN","STREET":"STREET","SECT":"SECT","MAREA":"MAREA","LANE":"LANE","ALLEY":"ALLEY","HOUSE_NO":"HOUSE_NO","E_COORD97":"E_COORD97","N_COORD97":"N_COORD97","ADDRESS":"ADDRESS","OBJECTID":"OBJECTID"},"geometryType":"esriGeometryPoint","spatialReference":{"wkid":102443,"latestWkid":3826},"fields":[{"name":"ID","type":"esriFieldTypeDouble","alias":"ID"},{"name":"DIS_CODE","type":"esriFieldTypeInteger","alias":"DIS_CODE"},{"name":"TOWNNAME","type":"esriFieldTypeString","alias":"TOWNNAME","length":8},{"name":"LI","type":"esriFieldTypeString","alias":"LI","length":8},{"name":"LIN","type":"esriFieldTypeString","alias":"LIN","length":12},{"name":"STREET","type":"esriFieldTypeString","alias":"STREET","length":20},{"name":"SECT","type":"esriFieldTypeString","alias":"SECT","length":8},{"name":"MAREA","type":"esriFieldTypeString","alias":"MAREA","length":12},{"name":"LANE","type":"esriFieldTypeString","alias":"LANE","length":10},{"name":"ALLEY","type":"esriFieldTypeString","alias":"ALLEY","length":10},{"name":"HOUSE_NO","type":"esriFieldTypeString","alias":"HOUSE_NO","length":20},{"name":"E_COORD97","type":"esriFieldTypeDouble","alias":"E_COORD97"},{"name":"N_COORD97","type":"esriFieldTypeDouble","alias":"N_COORD97"},{"name":"ADDRESS","type":"esriFieldTypeString","alias":"ADDRESS","length":50},{"name":"OBJECTID","type":"esriFieldTypeOID","alias":"OBJECTID"}],"features":[{"attributes":{"ID":12601,"DIS_CODE":0,"TOWNNAME":"東山區","LI":"科里里","LIN":"24鄰","STREET":" ","SECT":" ","MAREA":"科里","LANE":" ","ALLEY":" ","HOUSE_NO":"４０號之９","E_COORD97":189818.37,"N_COORD97":2578242.46,"ADDRESS":"科里４０號之９","OBJECTID":12601},"geometry":{"x":189818.37000000104,"y":2578242.4600000028}},{"attributes":{"ID":12602,"DIS_CODE":0,"TOWNNAME":"東山區","LI":"科里里","LIN":"24鄰","STREET":" ","SECT":" ","MAREA":"科里","LANE":" ","ALLEY":" ","HOUSE_NO":"４０號","E_COORD97":189856.19,"N_COORD97":2578216.4300000002,"ADDRESS":"科里４０號","OBJECTID":12602},"geometry":{"x":189856.19000000041,"y":2578216.4300000034}},{"attributes":{"ID":12603,"DIS_CODE":0,"TOWNNAME":"新市區","LI":"大社里","LIN":"24鄰","STREET":" ","SECT":" ","MAREA":"大社","LANE":" ","ALLEY":" ","HOUSE_NO":"８８９號","E_COORD97":179846.45999999999,"N_COORD97":2554107.5,"ADDRESS":"大社８８９號","OBJECTID":12603},"geometry":{"x":179846.46000000089,"y":2554107.5000000037}},{"attributes":{"ID":12604,"DIS_CODE":0,"TOWNNAME":"新市區","LI":"大社里","LIN":"24鄰","STREET":" ","SECT":" ","MAREA":"大社","LANE":" ","ALLEY":" ","HOUSE_NO":"８８７之８號","E_COORD97":179781.73000000001,"N_COORD97":2554081.5499999998,"ADDRESS":"大社８８７之８號","OBJECTID":12604},"geometry":{"x":179781.73000000045,"y":2554081.5500000026}},{"attributes":{"ID":12605,"DIS_CODE":0,"TOWNNAME":"仁德區","LI":"仁和里","LIN":"24鄰","STREET":" ","SECT":" ","MAREA":"仁和","LANE":" ","ALLEY":" ","HOUSE_NO":"４９５號","E_COORD97":170398.091373,"N_COORD97":2539772.25,"ADDRESS":"仁和４９５號","OBJECTID":12605},"geometry":{"x":170398.09137300029,"y":2539772.2500000019}},{"attributes":{"ID":12606,"DIS_CODE":0,"TOWNNAME":"仁德區","LI":"仁和里","LIN":"24鄰","STREET":" ","SECT":" ","MAREA":"仁和","LANE":" ","ALLEY":" ","HOUSE_NO":"４８１號","E_COORD97":170369.64720199999,"N_COORD97":2539781.1499999999,"ADDRESS":"仁和４８１號","OBJECTID":12606},"geometry":{"x":170369.64720200002,"y":2539781.1500000004}},{"attributes":{"ID":12607,"DIS_CODE":0,"TOWNNAME":"仁德區","LI":"仁和里","LIN":"24鄰","STREET":" ","SECT":" ","MAREA":"仁和","LANE":" ","ALLEY":" ","HOUSE_NO":"４７３號","E_COORD97":170368.11111,"N_COORD97":2539808.5499999998,"ADDRESS":"仁和４７３號","OBJECTID":12607},"geometry":{"x":170368.11110999994,"y":2539808.5500000026}},{"attributes":{"ID":12608,"DIS_CODE":0,"TOWNNAME":"官田區","LI":"官田里","LIN":"24鄰","STREET":" ","SECT":" ","MAREA":"官田","LANE":" ","ALLEY":" ","HOUSE_NO":"３８０號","E_COORD97":182358.13,"N_COORD97":2565226.9399999999,"ADDRESS":"官田３８０號","OBJECTID":12608},"geometry":{"x":182358.12999999989,"y":2565226.9399999995}},{"attributes":{"ID":12609,"DIS_CODE":0,"TOWNNAME":"官田區","LI":"官田里","LIN":"24鄰","STREET":" ","SECT":" ","MAREA":"官田","LANE":" ","ALLEY":" ","HOUSE_NO":"３８１號","E_COORD97":182372.39999999999,"N_COORD97":2565231.0600000001,"ADDRESS":"官田３８１號","OBJECTID":12609},"geometry":{"x":182372.40000000037,"y":2565231.0599999987}},{"attributes":{"ID":12610,"DIS_CODE":0,"TOWNNAME":"官田區","LI":"官田里","LIN":"24鄰","STREET":" ","SECT":" ","MAREA":"官田","LANE":" ","ALLEY":" ","HOUSE_NO":"３８２號","E_COORD97":182375.13,"N_COORD97":2565234.5499999998,"ADDRESS":"官田３８２號","OBJECTID":12610},"geometry":{"x":182375.12999999989,"y":2565234.5500000007}},{"attributes":{"ID":12611,"DIS_CODE":0,"TOWNNAME":"歸仁區","LI":"南保里","LIN":"60鄰","STREET":"中山路","SECT":"三段","MAREA":" ","LANE":"８１巷","ALLEY":"２弄","HOUSE_NO":"１２號","E_COORD97":176746.79999999999,"N_COORD97":2540847.7200000002,"ADDRESS":"中山路三段８１巷２弄１２號","OBJECTID":12611},"geometry":{"x":176746.80000000075,"y":2540847.7200000025}},{"attributes":{"ID":12612,"DIS_CODE":0,"TOWNNAME":"官田區","LI":"官田里","LIN":"24鄰","STREET":" ","SECT":" ","MAREA":"官田","LANE":" ","ALLEY":" ","HOUSE_NO":"３８３號","E_COORD97":182381.53,"N_COORD97":2565242.9100000001,"ADDRESS":"官田３８３號","OBJECTID":12612},"geometry":{"x":182381.53000000026,"y":2565242.910000002}},{"attributes":{"ID":12613,"DIS_CODE":0,"TOWNNAME":"官田區","LI":"官田里","LIN":"24鄰","STREET":" ","SECT":" ","MAREA":"官田","LANE":" ","ALLEY":" ","HOUSE_NO":"３８４號","E_COORD97":182363.26999999999,"N_COORD97":2565247.8300000001,"ADDRESS":"官田３８４號","OBJECTID":12613},"geometry":{"x":182363.27000000048,"y":2565247.8300000001}},{"attributes":{"ID":12614,"DIS_CODE":0,"TOWNNAME":"官田區","LI":"官田里","LIN":"24鄰","STREET":" ","SECT":" ","MAREA":"官田","LANE":" ","ALLEY":" ","HOUSE_NO":"３８５號","E_COORD97":182334.25,"N_COORD97":2565258.8100000001,"ADDRESS":"官田３８５號","OBJECTID":12614},"geometry":{"x":182334.25000000186,"y":2565258.8100000005}},{"attributes":{"ID":12615,"DIS_CODE":0,"TOWNNAME":"官田區","LI":"官田里","LIN":"24鄰","STREET":" ","SECT":" ","MAREA":"官田","LANE":" ","ALLEY":" ","HOUSE_NO":"３８６號","E_COORD97":182335.88,"N_COORD97":2565250.1800000002,"ADDRESS":"官田３８６號","OBJECTID":12615},"geometry":{"x":182335.87999999989,"y":2565250.1800000016}},{"attributes":{"ID":12616,"DIS_CODE":0,"TOWNNAME":"官田區","LI":"官田里","LIN":"24鄰","STREET":" ","SECT":" ","MAREA":"官田","LANE":" ","ALLEY":" ","HOUSE_NO":"３８７號","E_COORD97":182342.42999999999,"N_COORD97":2565242.4100000001,"ADDRESS":"官田３８７號","OBJECTID":12616},"geometry":{"x":182342.4299999997,"y":2565242.410000002}},{"attributes":{"ID":12617,"DIS_CODE":0,"TOWNNAME":"永康區","LI":"中興里","LIN":"24鄰","STREET":"中華路","SECT":" ","MAREA":" ","LANE":"２１６巷","ALLEY":"１２弄","HOUSE_NO":"１號之２","E_COORD97":171741.76999999999,"N_COORD97":2545107.0600000001,"ADDRESS":"中華路２１６巷１２弄１號之２","OBJECTID":12617},"geometry":{"x":171741.76999999955,"y":2545107.0600000024}},{"attributes":{"ID":12618,"DIS_CODE":0,"TOWNNAME":"官田區","LI":"官田里","LIN":"24鄰","STREET":" ","SECT":" ","MAREA":"官田","LANE":" ","ALLEY":" ","HOUSE_NO":"３８９號","E_COORD97":182336.23000000001,"N_COORD97":2565221.27,"ADDRESS":"官田３８９號","OBJECTID":12618},"geometry":{"x":182336.23000000045,"y":2565221.2699999996}},{"attributes":{"ID":12619,"DIS_CODE":0,"TOWNNAME":"永康區","LI":"大橋里","LIN":"24鄰","STREET":"大橋一街","SECT":" ","MAREA":" ","LANE":"２２３巷","ALLEY":"９８弄","HOUSE_NO":"８號","E_COORD97":171160.73999999999,"N_COORD97":2546789.2400000002,"ADDRESS":"大橋一街２２３巷９８弄８號","OBJECTID":12619},"geometry":{"x":171160.74000000022,"y":2546789.2399999984}},{"attributes":{"ID":12620,"DIS_CODE":0,"TOWNNAME":"永康區","LI":"中興里","LIN":"24鄰","STREET":"中華路","SECT":" ","MAREA":" ","LANE":"２１６巷","ALLEY":"１２弄","HOUSE_NO":"１號之９","E_COORD97":171773.13,"N_COORD97":2545109.5499999998,"ADDRESS":"中華路２１６巷１２弄１號之９","OBJECTID":12620},"geometry":{"x":171773.12999999989,"y":2545109.5500000045}},{"attributes":{"ID":12621,"DIS_CODE":0,"TOWNNAME":"官田區","LI":"官田里","LIN":"24鄰","STREET":" ","SECT":" ","MAREA":"官田","LANE":" ","ALLEY":" ","HOUSE_NO":"３９２號","E_COORD97":182283.20999999999,"N_COORD97":2565231.8599999999,"ADDRESS":"官田３９２號","OBJECTID":12621},"geometry":{"x":182283.20999999996,"y":2565231.8600000013}},{"attributes":{"ID":12622,"DIS_CODE":0,"TOWNNAME":"官田區","LI":"官田里","LIN":"24鄰","STREET":" ","SECT":" ","MAREA":"官田","LANE":" ","ALLEY":" ","HOUSE_NO":"３９３號之１","E_COORD97":182270.16,"N_COORD97":2565189.48,"ADDRESS":"官田３９３號之１","OBJECTID":12622},"geometry":{"x":182270.16000000015,"y":2565189.4800000004}},{"attributes":{"ID":12623,"DIS_CODE":0,"TOWNNAME":"永康區","LI":"大橋里","LIN":"24鄰","STREET":"大橋一街","SECT":" ","MAREA":" ","LANE":"２２３巷","ALLEY":"６弄","HOUSE_NO":"１３號","E_COORD97":171210.31,"N_COORD97":2546740.75,"ADDRESS":"大橋一街２２３巷６弄１３號","OBJECTID":12623},"geometry":{"x":171210.31000000052,"y":2546740.75}},{"attributes":{"ID":12624,"DIS_CODE":0,"TOWNNAME":"永康區","LI":"中興里","LIN":"24鄰","STREET":"中華路","SECT":" ","MAREA":" ","LANE":"２１６巷","ALLEY":"１２弄","HOUSE_NO":"１號","E_COORD97":171791.85999999999,"N_COORD97":2545113.3700000001,"ADDRESS":"中華路２１６巷１２弄１號","OBJECTID":12624},"geometry":{"x":171791.86000000127,"y":2545113.370000001}},{"attributes":{"ID":12625,"DIS_CODE":0,"TOWNNAME":"官田區","LI":"官田里","LIN":"24鄰","STREET":" ","SECT":" ","MAREA":"官田","LANE":" ","ALLEY":" ","HOUSE_NO":"３９３號","E_COORD97":182268.44,"N_COORD97":2565194.1099999999,"ADDRESS":"官田３９３號","OBJECTID":12625},"geometry":{"x":182268.44000000041,"y":2565194.1099999994}},{"attributes":{"ID":12626,"DIS_CODE":0,"TOWNNAME":"永康區","LI":"中興里","LIN":"24鄰","STREET":"中華路","SECT":" ","MAREA":" ","LANE":"２１６巷","ALLEY":"１２弄","HOUSE_NO":"９號","E_COORD97":171815.56,"N_COORD97":2545114.5800000001,"ADDRESS":"中華路２１６巷１２弄９號","OBJECTID":12626},"geometry":{"x":171815.56000000052,"y":2545114.5800000001}},{"attributes":{"ID":12627,"DIS_CODE":0,"TOWNNAME":"永康區","LI":"中興里","LIN":"24鄰","STREET":"中華路","SECT":" ","MAREA":" ","LANE":"２１６巷","ALLEY":"１２弄","HOUSE_NO":"１１號","E_COORD97":171823.85999999999,"N_COORD97":2545115.3300000001,"ADDRESS":"中華路２１６巷１２弄１１號","OBJECTID":12627},"geometry":{"x":171823.86000000127,"y":2545115.3300000019}},{"attributes":{"ID":12628,"DIS_CODE":0,"TOWNNAME":"永康區","LI":"中興里","LIN":"24鄰","STREET":"中華路","SECT":" ","MAREA":" ","LANE":"２１６巷","ALLEY":"１２弄","HOUSE_NO":"１號之５","E_COORD97":171755.57000000001,"N_COORD97":2545108.5600000001,"ADDRESS":"中華路２１６巷１２弄１號之５","OBJECTID":12628},"geometry":{"x":171755.5700000003,"y":2545108.5600000005}},{"attributes":{"ID":12629,"DIS_CODE":0,"TOWNNAME":"官田區","LI":"官田里","LIN":"24鄰","STREET":" ","SECT":" ","MAREA":"官田","LANE":" ","ALLEY":" ","HOUSE_NO":"３９４號之１","E_COORD97":182267.57999999999,"N_COORD97":2565197.3900000001,"ADDRESS":"官田３９４號之１","OBJECTID":12629},"geometry":{"x":182267.57999999914,"y":2565197.3900000006}},{"attributes":{"ID":12630,"DIS_CODE":0,"TOWNNAME":"南區","LI":"大忠里","LIN":"13鄰","STREET":"公英四街","SECT":" ","MAREA":" ","LANE":" ","ALLEY":" ","HOUSE_NO":"３號","E_COORD97":169387.20999999999,"N_COORD97":2541146.1099999999,"ADDRESS":"公英四街３號","OBJECTID":12630},"geometry":{"x":169387.21000000089,"y":2541146.1100000013}},{"attributes":{"ID":12631,"DIS_CODE":0,"TOWNNAME":"官田區","LI":"官田里","LIN":"24鄰","STREET":" ","SECT":" ","MAREA":"官田","LANE":" ","ALLEY":" ","HOUSE_NO":"３９４號之２","E_COORD97":182266.51999999999,"N_COORD97":2565202.0299999998,"ADDRESS":"官田３９４號之２","OBJECTID":12631},"geometry":{"x":182266.52000000048,"y":2565202.0299999993}},{"attributes":{"ID":12632,"DIS_CODE":0,"TOWNNAME":"官田區","LI":"官田里","LIN":"24鄰","STREET":" ","SECT":" ","MAREA":"官田","LANE":" ","ALLEY":" ","HOUSE_NO":"３９４號之３","E_COORD97":182265.22,"N_COORD97":2565205.77,"ADDRESS":"官田３９４號之３","OBJECTID":12632},"geometry":{"x":182265.22000000067,"y":2565205.7700000014}},{"attributes":{"ID":12633,"DIS_CODE":0,"TOWNNAME":"南區","LI":"大忠里","LIN":"13鄰","STREET":"公英四街","SECT":" ","MAREA":" ","LANE":" ","ALLEY":" ","HOUSE_NO":"４０號","E_COORD97":169307.56,"N_COORD97":2541151.8900000001,"ADDRESS":"公英四街４０號","OBJECTID":12633},"geometry":{"x":169307.56000000145,"y":2541151.8900000025}},{"attributes":{"ID":12634,"DIS_CODE":0,"TOWNNAME":"南區","LI":"大忠里","LIN":"13鄰","STREET":"公英四街","SECT":" ","MAREA":" ","LANE":" ","ALLEY":" ","HOUSE_NO":"４１號","E_COORD97":169310.45999999999,"N_COORD97":2541134.1600000001,"ADDRESS":"公英四街４１號","OBJECTID":12634},"geometry":{"x":169310.46000000089,"y":2541134.1600000001}},{"attributes":{"ID":12635,"DIS_CODE":0,"TOWNNAME":"南區","LI":"大忠里","LIN":"13鄰","STREET":"公英四街","SECT":" ","MAREA":" ","LANE":" ","ALLEY":" ","HOUSE_NO":"４２號","E_COORD97":169304.03,"N_COORD97":2541151.25,"ADDRESS":"公英四街４２號","OBJECTID":12635},"geometry":{"x":169304.03000000119,"y":2541151.2500000019}},{"attributes":{"ID":12636,"DIS_CODE":0,"TOWNNAME":"南區","LI":"大忠里","LIN":"13鄰","STREET":"公英四街","SECT":" ","MAREA":" ","LANE":" ","ALLEY":" ","HOUSE_NO":"４３號","E_COORD97":169306.95999999999,"N_COORD97":2541133.25,"ADDRESS":"公英四街４３號","OBJECTID":12636},"geometry":{"x":169306.96000000183,"y":2541133.25}},{"attributes":{"ID":12637,"DIS_CODE":0,"TOWNNAME":"南區","LI":"大忠里","LIN":"13鄰","STREET":"公英四街","SECT":" ","MAREA":" ","LANE":" ","ALLEY":" ","HOUSE_NO":"４４號","E_COORD97":169299.87,"N_COORD97":2541150.1400000001,"ADDRESS":"公英四街４４號","OBJECTID":12637},"geometry":{"x":169299.87000000104,"y":2541150.1400000025}},{"attributes":{"ID":12638,"DIS_CODE":0,"TOWNNAME":"南區","LI":"大忠里","LIN":"13鄰","STREET":"公英四街","SECT":" ","MAREA":" ","LANE":" ","ALLEY":" ","HOUSE_NO":"４號","E_COORD97":169384.89999999999,"N_COORD97":2541163.8700000001,"ADDRESS":"公英四街４號","OBJECTID":12638},"geometry":{"x":169384.9000000013,"y":2541163.870000001}},{"attributes":{"ID":12639,"DIS_CODE":0,"TOWNNAME":"南區","LI":"大忠里","LIN":"13鄰","STREET":"公英四街","SECT":" ","MAREA":" ","LANE":" ","ALLEY":" ","HOUSE_NO":"５號","E_COORD97":169382.01000000001,"N_COORD97":2541145.48,"ADDRESS":"公英四街５號","OBJECTID":12639},"geometry":{"x":169382.00999999978,"y":2541145.4800000004}},{"attributes":{"ID":12640,"DIS_CODE":0,"TOWNNAME":"永康區","LI":"大橋里","LIN":"24鄰","STREET":"大橋一街","SECT":" ","MAREA":" ","LANE":"２２３巷","ALLEY":"６弄","HOUSE_NO":"１９號","E_COORD97":171221.54999999999,"N_COORD97":2546748,"ADDRESS":"大橋一街２２３巷６弄１９號","OBJECTID":12640},"geometry":{"x":171221.54999999981,"y":2546748.0000000019}},{"attributes":{"ID":12641,"DIS_CODE":0,"TOWNNAME":"永康區","LI":"中興里","LIN":"24鄰","STREET":"中華路","SECT":" ","MAREA":" ","LANE":"２１６巷","ALLEY":"１２弄","HOUSE_NO":"１號之７","E_COORD97":171764.12,"N_COORD97":2545108.5499999998,"ADDRESS":"中華路２１６巷１２弄１號之７","OBJECTID":12641},"geometry":{"x":171764.12000000197,"y":2545108.5500000007}},{"attributes":{"ID":12642,"DIS_CODE":0,"TOWNNAME":"官田區","LI":"官田里","LIN":"24鄰","STREET":" ","SECT":" ","MAREA":"官田","LANE":" ","ALLEY":" ","HOUSE_NO":"３９４號之５","E_COORD97":182264.16,"N_COORD97":2565209.4399999999,"ADDRESS":"官田３９４號之５","OBJECTID":12642},"geometry":{"x":182264.16000000108,"y":2565209.4399999995}},{"attributes":{"ID":12643,"DIS_CODE":0,"TOWNNAME":"官田區","LI":"官田里","LIN":"24鄰","STREET":" ","SECT":" ","MAREA":"官田","LANE":" ","ALLEY":" ","HOUSE_NO":"３９４號之６","E_COORD97":182261.35999999999,"N_COORD97":2565212.3799999999,"ADDRESS":"官田３９４號之６","OBJECTID":12643},"geometry":{"x":182261.36000000127,"y":2565212.379999999}},{"attributes":{"ID":12644,"DIS_CODE":0,"TOWNNAME":"永康區","LI":"中興里","LIN":"24鄰","STREET":"中華路","SECT":" ","MAREA":" ","LANE":"２１６巷","ALLEY":"１２弄","HOUSE_NO":"３號","E_COORD97":171795.88,"N_COORD97":2545113.1200000001,"ADDRESS":"中華路２１６巷１２弄３號","OBJECTID":12644},"geometry":{"x":171795.88000000175,"y":2545113.1200000048}},{"attributes":{"ID":12645,"DIS_CODE":0,"TOWNNAME":"永康區","LI":"中興里","LIN":"24鄰","STREET":"中華路","SECT":" ","MAREA":" ","LANE":"２１６巷","ALLEY":"１２弄","HOUSE_NO":"１號之４","E_COORD97":171750.79000000001,"N_COORD97":2545108.0600000001,"ADDRESS":"中華路２１６巷１２弄１號之４","OBJECTID":12645},"geometry":{"x":171750.79000000004,"y":2545108.0600000005}},{"attributes":{"ID":12646,"DIS_CODE":0,"TOWNNAME":"官田區","LI":"官田里","LIN":"24鄰","STREET":" ","SECT":" ","MAREA":"官田","LANE":" ","ALLEY":" ","HOUSE_NO":"３９５號","E_COORD97":182261.69,"N_COORD97":2565218.6600000001,"ADDRESS":"官田３９５號","OBJECTID":12646},"geometry":{"x":182261.69000000041,"y":2565218.6600000001}},{"attributes":{"ID":12647,"DIS_CODE":0,"TOWNNAME":"西港區","LI":"西港里","LIN":"24鄰","STREET":" ","SECT":" ","MAREA":"堀子頭","LANE":" ","ALLEY":" ","HOUSE_NO":"３號之２０","E_COORD97":168490.82000000001,"N_COORD97":2557537.6800000002,"ADDRESS":"堀子頭３號之２０","OBJECTID":12647},"geometry":{"x":168490.8200000003,"y":2557537.6800000016}},{"attributes":{"ID":12648,"DIS_CODE":0,"TOWNNAME":"西港區","LI":"西港里","LIN":"24鄰","STREET":" ","SECT":" ","MAREA":"堀子頭","LANE":" ","ALLEY":" ","HOUSE_NO":"３號之２１","E_COORD97":168487.07000000001,"N_COORD97":2557537.75,"ADDRESS":"堀子頭３號之２１","OBJECTID":12648},"geometry":{"x":168487.0700000003,"y":2557537.7500000019}},{"attributes":{"ID":12649,"DIS_CODE":0,"TOWNNAME":"西港區","LI":"西港里","LIN":"24鄰","STREET":" ","SECT":" ","MAREA":"堀子頭","LANE":" ","ALLEY":" ","HOUSE_NO":"３號之２２","E_COORD97":168497.35000000001,"N_COORD97":2557539.3500000001,"ADDRESS":"堀子頭３號之２２","OBJECTID":12649},"geometry":{"x":168497.35000000056,"y":2557539.3500000015}},{"attributes":{"ID":12650,"DIS_CODE":0,"TOWNNAME":"永康區","LI":"大橋里","LIN":"24鄰","STREET":"大橋一街","SECT":" ","MAREA":" ","LANE":"２２３巷","ALLEY":"６弄","HOUSE_NO":"７號","E_COORD97":171195.64999999999,"N_COORD97":2546734,"ADDRESS":"大橋一街２２３巷６弄７號","OBJECTID":12650},"geometry":{"x":171195.65000000037,"y":2546734.0000000019}},{"attributes":{"ID":12651,"DIS_CODE":0,"TOWNNAME":"永康區","LI":"三合里","LIN":"24鄰","STREET":"南工街","SECT":" ","MAREA":" ","LANE":"３１１巷","ALLEY":"４３弄","HOUSE_NO":"３號","E_COORD97":171844.78,"N_COORD97":2545891.5,"ADDRESS":"南工街３１１巷４３弄３號","OBJECTID":12651},"geometry":{"x":171844.78000000119,"y":2545891.5}},{"attributes":{"ID":12652,"DIS_CODE":0,"TOWNNAME":"官田區","LI":"二鎮里","LIN":"14鄰","STREET":" ","SECT":" ","MAREA":"程泰","LANE":" ","ALLEY":" ","HOUSE_NO":"５３號","E_COORD97":181639.82000000001,"N_COORD97":2566497.3300000001,"ADDRESS":"程泰５３號","OBJECTID":12652},"geometry":{"x":181639.82000000123,"y":2566497.3300000019}},{"attributes":{"ID":12653,"DIS_CODE":0,"TOWNNAME":"永康區","LI":"二王里","LIN":"24鄰","STREET":"中山南路","SECT":" ","MAREA":" ","LANE":"５４４巷","ALLEY":"６３弄","HOUSE_NO":"１９號","E_COORD97":172398.01999999999,"N_COORD97":2546406.8300000001,"ADDRESS":"中山南路５４４巷６３弄１９號","OBJECTID":12653},"geometry":{"x":172398.01999999862,"y":2546406.8300000019}},{"attributes":{"ID":12654,"DIS_CODE":0,"TOWNNAME":"永康區","LI":"二王里","LIN":"24鄰","STREET":"中山南路","SECT":" ","MAREA":" ","LANE":"５４４巷","ALLEY":"６３弄","HOUSE_NO":"２４號","E_COORD97":172407.75,"N_COORD97":2546387.5699999998,"ADDRESS":"中山南路５４４巷６３弄２４號","OBJECTID":12654},"geometry":{"x":172407.75000000093,"y":2546387.5700000022}},{"attributes":{"ID":12655,"DIS_CODE":0,"TOWNNAME":"安南區","LI":"安富里","LIN":"24鄰","STREET":"郡安路","SECT":"五段","MAREA":" ","LANE":"１６４巷","ALLEY":"５弄","HOUSE_NO":"１０號","E_COORD97":167687.42000000001,"N_COORD97":2547648.7799999998,"ADDRESS":"郡安路五段１６４巷５弄１０號","OBJECTID":12655},"geometry":{"x":167687.41999999993,"y":2547648.7799999993}},{"attributes":{"ID":12656,"DIS_CODE":0,"TOWNNAME":"學甲區","LI":"秀昌里","LIN":"13鄰","STREET":" ","SECT":" ","MAREA":"一秀","LANE":" ","ALLEY":" ","HOUSE_NO":"１４４號","E_COORD97":165772.07999999999,"N_COORD97":2571073.0899999999,"ADDRESS":"一秀１４４號","OBJECTID":12656},"geometry":{"x":165772.08000000101,"y":2571073.0900000017}},{"attributes":{"ID":12657,"DIS_CODE":0,"TOWNNAME":"安南區","LI":"安富里","LIN":"24鄰","STREET":"郡安路","SECT":"五段","MAREA":" ","LANE":"１６４巷","ALLEY":"５弄","HOUSE_NO":"１１號","E_COORD97":167690.17000000001,"N_COORD97":2547668.3100000001,"ADDRESS":"郡安路五段１６４巷５弄１１號","OBJECTID":12657},"geometry":{"x":167690.17000000086,"y":2547668.3100000024}},{"attributes":{"ID":12658,"DIS_CODE":0,"TOWNNAME":"安南區","LI":"安富里","LIN":"24鄰","STREET":"郡安路","SECT":"五段","MAREA":" ","LANE":"１６４巷","ALLEY":"５弄","HOUSE_NO":"１３號","E_COORD97":167695.67999999999,"N_COORD97":2547671.2799999998,"ADDRESS":"郡安路五段１６４巷５弄１３號","OBJECTID":12658},"geometry":{"x":167695.6799999997,"y":2547671.2800000012}},{"attributes":{"ID":12659,"DIS_CODE":0,"TOWNNAME":"安南區","LI":"安富里","LIN":"24鄰","STREET":"郡安路","SECT":"五段","MAREA":" ","LANE":"１６４巷","ALLEY":"５弄","HOUSE_NO":"１４號","E_COORD97":167700.48999999999,"N_COORD97":2547649.2400000002,"ADDRESS":"郡安路五段１６４巷５弄１４號","OBJECTID":12659},"geometry":{"x":167700.49000000115,"y":2547649.2400000002}},{"attributes":{"ID":12660,"DIS_CODE":0,"TOWNNAME":"安南區","LI":"安富里","LIN":"24鄰","STREET":"郡安路","SECT":"五段","MAREA":" ","LANE":"１６４巷","ALLEY":"５弄","HOUSE_NO":"１５號","E_COORD97":167704.62,"N_COORD97":2547673.5699999998,"ADDRESS":"郡安路五段１６４巷５弄１５號","OBJECTID":12660},"geometry":{"x":167704.62000000104,"y":2547673.5700000022}},{"attributes":{"ID":12661,"DIS_CODE":0,"TOWNNAME":"安南區","LI":"安富里","LIN":"24鄰","STREET":"郡安路","SECT":"五段","MAREA":" ","LANE":"１６４巷","ALLEY":"５弄","HOUSE_NO":"１６號","E_COORD97":167709.20999999999,"N_COORD97":2547652.2200000002,"ADDRESS":"郡安路五段１６４巷５弄１６號","OBJECTID":12661},"geometry":{"x":167709.21000000089,"y":2547652.2200000025}},{"attributes":{"ID":12662,"DIS_CODE":0,"TOWNNAME":"安南區","LI":"安富里","LIN":"24鄰","STREET":"郡安路","SECT":"五段","MAREA":" ","LANE":"１６４巷","ALLEY":"５弄","HOUSE_NO":"１８號","E_COORD97":167716.09,"N_COORD97":2547653.1400000001,"ADDRESS":"郡安路五段１６４巷５弄１８號","OBJECTID":12662},"geometry":{"x":167716.09000000078,"y":2547653.1400000025}},{"attributes":{"ID":12663,"DIS_CODE":0,"TOWNNAME":"安南區","LI":"安富里","LIN":"24鄰","STREET":"郡安路","SECT":"五段","MAREA":" ","LANE":"１６４巷","ALLEY":"５弄","HOUSE_NO":"１９號","E_COORD97":167716.54999999999,"N_COORD97":2547675.6299999999,"ADDRESS":"郡安路五段１６４巷５弄１９號","OBJECTID":12663},"geometry":{"x":167716.55000000075,"y":2547675.629999999}},{"attributes":{"ID":12664,"DIS_CODE":0,"TOWNNAME":"安南區","LI":"安富里","LIN":"24鄰","STREET":"郡安路","SECT":"五段","MAREA":" ","LANE":"１６４巷","ALLEY":"５弄","HOUSE_NO":"２１號","E_COORD97":167721.60000000001,"N_COORD97":2547676.0899999999,"ADDRESS":"郡安路五段１６４巷５弄２１號","OBJECTID":12664},"geometry":{"x":167721.59999999963,"y":2547676.0900000017}},{"attributes":{"ID":12665,"DIS_CODE":0,"TOWNNAME":"安南區","LI":"安富里","LIN":"24鄰","STREET":"郡安路","SECT":"五段","MAREA":" ","LANE":"１６４巷","ALLEY":"５弄","HOUSE_NO":"２２號","E_COORD97":167726.41,"N_COORD97":2547656.3399999999,"ADDRESS":"郡安路五段１６４巷５弄２２號","OBJECTID":12665},"geometry":{"x":167726.41000000108,"y":2547656.3400000036}},{"attributes":{"ID":12666,"DIS_CODE":0,"TOWNNAME":"歸仁區","LI":"看西里","LIN":"13鄰","STREET":"仁愛南街","SECT":" ","MAREA":" ","LANE":" ","ALLEY":" ","HOUSE_NO":"２５３號","E_COORD97":178268.45999999999,"N_COORD97":2540117.1200000001,"ADDRESS":"仁愛南街２５３號","OBJECTID":12666},"geometry":{"x":178268.46000000089,"y":2540117.1200000029}},{"attributes":{"ID":12667,"DIS_CODE":0,"TOWNNAME":"歸仁區","LI":"看西里","LIN":"13鄰","STREET":"仁愛南街","SECT":" ","MAREA":" ","LANE":" ","ALLEY":" ","HOUSE_NO":"２５７號","E_COORD97":178303.26000000001,"N_COORD97":2540120.1200000001,"ADDRESS":"仁愛南街２５７號","OBJECTID":12667},"geometry":{"x":178303.26000000071,"y":2540120.1200000029}},{"attributes":{"ID":12668,"DIS_CODE":0,"TOWNNAME":"歸仁區","LI":"南興里","LIN":"13鄰","STREET":"文化十八街","SECT":" ","MAREA":" ","LANE":" ","ALLEY":" ","HOUSE_NO":"３４號","E_COORD97":175867.76999999999,"N_COORD97":2541299.2599999998,"ADDRESS":"文化十八街３４號","OBJECTID":12668},"geometry":{"x":175867.76999999955,"y":2541299.2599999998}},{"attributes":{"ID":12669,"DIS_CODE":0,"TOWNNAME":"北區","LI":"文元里","LIN":"13鄰","STREET":"文賢路","SECT":" ","MAREA":" ","LANE":" ","ALLEY":" ","HOUSE_NO":"１１７２號","E_COORD97":167324.89000000001,"N_COORD97":2546438.77,"ADDRESS":"文賢路１１７２號","OBJECTID":12669},"geometry":{"x":167324.88999999966,"y":2546438.7699999996}},{"attributes":{"ID":12670,"DIS_CODE":0,"TOWNNAME":"北區","LI":"文元里","LIN":"13鄰","STREET":"文賢路","SECT":" ","MAREA":" ","LANE":" ","ALLEY":" ","HOUSE_NO":"１１７４號","E_COORD97":167324.17999999999,"N_COORD97":2546444.1099999999,"ADDRESS":"文賢路１１７４號","OBJECTID":12670},"geometry":{"x":167324.18000000063,"y":2546444.1100000013}},{"attributes":{"ID":12671,"DIS_CODE":0,"TOWNNAME":"北區","LI":"文元里","LIN":"13鄰","STREET":"文賢路","SECT":" ","MAREA":" ","LANE":" ","ALLEY":" ","HOUSE_NO":"１１７６號","E_COORD97":167323.47,"N_COORD97":2546449.1000000001,"ADDRESS":"文賢路１１７６號","OBJECTID":12671},"geometry":{"x":167323.47000000067,"y":2546449.0999999996}},{"attributes":{"ID":12672,"DIS_CODE":0,"TOWNNAME":"北區","LI":"文元里","LIN":"13鄰","STREET":"文賢路","SECT":" ","MAREA":" ","LANE":" ","ALLEY":" ","HOUSE_NO":"１１７８號","E_COORD97":167323.10999999999,"N_COORD97":2546453.0099999998,"ADDRESS":"文賢路１１７８號","OBJECTID":12672},"geometry":{"x":167323.11000000127,"y":2546453.0100000016}},{"attributes":{"ID":12673,"DIS_CODE":0,"TOWNNAME":"安南區","LI":"安富里","LIN":"24鄰","STREET":"郡安路","SECT":"五段","MAREA":" ","LANE":"１６４巷","ALLEY":"５弄","HOUSE_NO":"２４號","E_COORD97":167730.76999999999,"N_COORD97":2547658.6299999999,"ADDRESS":"郡安路五段１６４巷５弄２４號","OBJECTID":12673},"geometry":{"x":167730.76999999955,"y":2547658.629999999}},{"attributes":{"ID":12674,"DIS_CODE":0,"TOWNNAME":"安南區","LI":"安富里","LIN":"24鄰","STREET":"郡安路","SECT":"五段","MAREA":" ","LANE":"１６４巷","ALLEY":"５弄","HOUSE_NO":"２５號","E_COORD97":167731.92000000001,"N_COORD97":2547677.6899999999,"ADDRESS":"郡安路五段１６４巷５弄２５號","OBJECTID":12674},"geometry":{"x":167731.91999999993,"y":2547677.6900000013}},{"attributes":{"ID":12675,"DIS_CODE":0,"TOWNNAME":"安南區","LI":"安富里","LIN":"24鄰","STREET":"郡安路","SECT":"五段","MAREA":" ","LANE":"１６４巷","ALLEY":"５弄","HOUSE_NO":"２６號","E_COORD97":167736.04999999999,"N_COORD97":2547656.3399999999,"ADDRESS":"郡安路五段１６４巷５弄２６號","OBJECTID":12675},"geometry":{"x":167736.04999999981,"y":2547656.3400000036}},{"attributes":{"ID":12676,"DIS_CODE":0,"TOWNNAME":"安南區","LI":"安富里","LIN":"24鄰","STREET":"郡安路","SECT":"五段","MAREA":" ","LANE":"１６４巷","ALLEY":"５弄","HOUSE_NO":"２７號","E_COORD97":167736.28,"N_COORD97":2547680.4399999999,"ADDRESS":"郡安路五段１６４巷５弄２７號","OBJECTID":12676},"geometry":{"x":167736.28000000026,"y":2547680.4400000013}},{"attributes":{"ID":12677,"DIS_CODE":0,"TOWNNAME":"安南區","LI":"安富里","LIN":"24鄰","STREET":"郡安路","SECT":"五段","MAREA":" ","LANE":"１６４巷","ALLEY":"５弄","HOUSE_NO":"２９號","E_COORD97":167741.78,"N_COORD97":2547680.21,"ADDRESS":"郡安路五段１６４巷５弄２９號","OBJECTID":12677},"geometry":{"x":167741.78000000026,"y":2547680.2100000028}},{"attributes":{"ID":12678,"DIS_CODE":0,"TOWNNAME":"安南區","LI":"安富里","LIN":"24鄰","STREET":"郡安路","SECT":"五段","MAREA":" ","LANE":"１６４巷","ALLEY":"５弄","HOUSE_NO":"２號","E_COORD97":167664.25,"N_COORD97":2547643.75,"ADDRESS":"郡安路五段１６４巷５弄２號","OBJECTID":12678},"geometry":{"x":167664.25000000093,"y":2547643.7500000019}},{"attributes":{"ID":12679,"DIS_CODE":0,"TOWNNAME":"善化區","LI":"西關里","LIN":"13鄰","STREET":"興農路","SECT":" ","MAREA":" ","LANE":" ","ALLEY":" ","HOUSE_NO":"３３號","E_COORD97":176464.64999999999,"N_COORD97":2559144.2599999998,"ADDRESS":"興農路３３號","OBJECTID":12679},"geometry":{"x":176464.65000000037,"y":2559144.2600000016}},{"attributes":{"ID":12680,"DIS_CODE":0,"TOWNNAME":"新營區","LI":"民權里","LIN":"13鄰","STREET":"武昌街","SECT":" ","MAREA":" ","LANE":" ","ALLEY":" ","HOUSE_NO":"２２之６號","E_COORD97":179920.38,"N_COORD97":2578369.3799999999,"ADDRESS":"武昌街２２之６號","OBJECTID":12680},"geometry":{"x":179920.37999999989,"y":2578369.3800000008}},{"attributes":{"ID":12681,"DIS_CODE":0,"TOWNNAME":"新營區","LI":"新東里","LIN":"13鄰","STREET":"東興六街","SECT":" ","MAREA":" ","LANE":" ","ALLEY":" ","HOUSE_NO":"９９號","E_COORD97":180996.10999999999,"N_COORD97":2579239.1600000001,"ADDRESS":"東興六街９９號","OBJECTID":12681},"geometry":{"x":180996.11000000034,"y":2579239.1600000039}},{"attributes":{"ID":12682,"DIS_CODE":0,"TOWNNAME":"大內區","LI":"石城里","LIN":"13鄰","STREET":" ","SECT":" ","MAREA":"石子瀨","LANE":" ","ALLEY":" ","HOUSE_NO":"１１５號之１１","E_COORD97":184013.95536600001,"N_COORD97":2557979.1179599999,"ADDRESS":"石子瀨１１５號之１１","OBJECTID":12682},"geometry":{"x":184013.95536600146,"y":2557979.1179600023}},{"attributes":{"ID":12683,"DIS_CODE":0,"TOWNNAME":"大內區","LI":"石城里","LIN":"13鄰","STREET":" ","SECT":" ","MAREA":"石子瀨","LANE":" ","ALLEY":" ","HOUSE_NO":"１１５號之１０","E_COORD97":184011.20135799999,"N_COORD97":2557982.5046299999,"ADDRESS":"石子瀨１１５號之１０","OBJECTID":12683},"geometry":{"x":184011.20135800075,"y":2557982.5046250001}},{"attributes":{"ID":12684,"DIS_CODE":0,"TOWNNAME":"大內區","LI":"石城里","LIN":"13鄰","STREET":" ","SECT":" ","MAREA":"石子瀨","LANE":" ","ALLEY":" ","HOUSE_NO":"１１５號之１２","E_COORD97":184016.497527,"N_COORD97":2557977.68921,"ADDRESS":"石子瀨１１５號之１２","OBJECTID":12684},"geometry":{"x":184016.49752700049,"y":2557977.6892109998}},{"attributes":{"ID":12685,"DIS_CODE":0,"TOWNNAME":"新營區","LI":"鐵線里","LIN":"13鄰","STREET":" ","SECT":" ","MAREA":"秀才","LANE":" ","ALLEY":" ","HOUSE_NO":"５之２號","E_COORD97":174932.51999999999,"N_COORD97":2573818.8999999999,"ADDRESS":"秀才５之２號","OBJECTID":12685},"geometry":{"x":174932.52000000142,"y":2573818.9000000004}},{"attributes":{"ID":12686,"DIS_CODE":0,"TOWNNAME":"楠西區","LI":"鹿田里","LIN":"13鄰","STREET":" ","SECT":" ","MAREA":"油車","LANE":" ","ALLEY":" ","HOUSE_NO":"６２號之４","E_COORD97":197860,"N_COORD97":2562875.2999999998,"ADDRESS":"油車６２號之４","OBJECTID":12686},"geometry":{"x":197860,"y":2562875.3000000007}},{"attributes":{"ID":12687,"DIS_CODE":0,"TOWNNAME":"學甲區","LI":"秀昌里","LIN":"13鄰","STREET":" ","SECT":" ","MAREA":"一秀","LANE":" ","ALLEY":" ","HOUSE_NO":"１４３號","E_COORD97":165754.31,"N_COORD97":2571076.8700000001,"ADDRESS":"一秀１４３號","OBJECTID":12687},"geometry":{"x":165754.30999999866,"y":2571076.870000001}},{"attributes":{"ID":12688,"DIS_CODE":0,"TOWNNAME":"學甲區","LI":"秀昌里","LIN":"13鄰","STREET":" ","SECT":" ","MAREA":"一秀","LANE":" ","ALLEY":" ","HOUSE_NO":"１４５號","E_COORD97":165786.35999999999,"N_COORD97":2571068.6800000002,"ADDRESS":"一秀１４５號","OBJECTID":12688},"geometry":{"x":165786.36000000034,"y":2571068.6800000016}},{"attributes":{"ID":12689,"DIS_CODE":0,"TOWNNAME":"學甲區","LI":"秀昌里","LIN":"13鄰","STREET":" ","SECT":" ","MAREA":"一秀","LANE":" ","ALLEY":" ","HOUSE_NO":"１４６號","E_COORD97":165801.09,"N_COORD97":2571051.9100000001,"ADDRESS":"一秀１４６號","OBJECTID":12689},"geometry":{"x":165801.09000000078,"y":2571051.9100000001}},{"attributes":{"ID":12690,"DIS_CODE":0,"TOWNNAME":"學甲區","LI":"秀昌里","LIN":"13鄰","STREET":" ","SECT":" ","MAREA":"一秀","LANE":" ","ALLEY":" ","HOUSE_NO":"１４７號","E_COORD97":165815.39999999999,"N_COORD97":2571043.1200000001,"ADDRESS":"一秀１４７號","OBJECTID":12690},"geometry":{"x":165815.40000000037,"y":2571043.1200000029}},{"attributes":{"ID":12691,"DIS_CODE":0,"TOWNNAME":"學甲區","LI":"秀昌里","LIN":"13鄰","STREET":" ","SECT":" ","MAREA":"一秀","LANE":" ","ALLEY":" ","HOUSE_NO":"１４８號","E_COORD97":165839,"N_COORD97":2571045.23,"ADDRESS":"一秀１４８號","OBJECTID":12691},"geometry":{"x":165839.00000000093,"y":2571045.2300000023}},{"attributes":{"ID":12692,"DIS_CODE":0,"TOWNNAME":"學甲區","LI":"秀昌里","LIN":"13鄰","STREET":" ","SECT":" ","MAREA":"一秀","LANE":" ","ALLEY":" ","HOUSE_NO":"１４９號","E_COORD97":165826.20000000001,"N_COORD97":2571066.1099999999,"ADDRESS":"一秀１４９號","OBJECTID":12692},"geometry":{"x":165826.20000000019,"y":2571066.1100000013}},{"attributes":{"ID":12693,"DIS_CODE":0,"TOWNNAME":"北門區","LI":"保吉里","LIN":"1鄰","STREET":" ","SECT":" ","MAREA":"蚵寮","LANE":" ","ALLEY":" ","HOUSE_NO":"１號","E_COORD97":161424.89000000001,"N_COORD97":2575766.8500000001,"ADDRESS":"蚵寮１號","OBJECTID":12693},"geometry":{"x":161424.8900000006,"y":2575766.8500000015}},{"attributes":{"ID":12694,"DIS_CODE":0,"TOWNNAME":"新營區","LI":"中營里","LIN":"13鄰","STREET":"東山路","SECT":" ","MAREA":" ","LANE":" ","ALLEY":" ","HOUSE_NO":"１３８之１號","E_COORD97":181592.45000000001,"N_COORD97":2578653.9399999999,"ADDRESS":"東山路１３８之１號","OBJECTID":12694},"geometry":{"x":181592.45000000112,"y":2578653.9400000013}},{"attributes":{"ID":12695,"DIS_CODE":0,"TOWNNAME":"安南區","LI":"安富里","LIN":"24鄰","STREET":"郡安路","SECT":"五段","MAREA":" ","LANE":"１６４巷","ALLEY":"５弄","HOUSE_NO":"３０號","E_COORD97":167746.37,"N_COORD97":2547659.0899999999,"ADDRESS":"郡安路五段１６４巷５弄３０號","OBJECTID":12695},"geometry":{"x":167746.37000000197,"y":2547659.0900000017}},{"attributes":{"ID":12696,"DIS_CODE":0,"TOWNNAME":"東山區","LI":"東山里","LIN":"13鄰","STREET":" ","SECT":" ","MAREA":"東山","LANE":" ","ALLEY":" ","HOUSE_NO":"２２５號之３","E_COORD97":189018.66,"N_COORD97":2580522.4300000002,"ADDRESS":"東山２２５號之３","OBJECTID":12696},"geometry":{"x":189018.66000000015,"y":2580522.4300000016}},{"attributes":{"ID":12697,"DIS_CODE":0,"TOWNNAME":"安南區","LI":"安富里","LIN":"24鄰","STREET":"郡安路","SECT":"五段","MAREA":" ","LANE":"１６４巷","ALLEY":"５弄","HOUSE_NO":"３號","E_COORD97":167665.63,"N_COORD97":2547666.2400000002,"ADDRESS":"郡安路五段１６４巷５弄３號","OBJECTID":12697},"geometry":{"x":167665.62999999989,"y":2547666.2400000002}},{"attributes":{"ID":12698,"DIS_CODE":0,"TOWNNAME":"東山區","LI":"東山里","LIN":"13鄰","STREET":" ","SECT":" ","MAREA":"東山","LANE":" ","ALLEY":" ","HOUSE_NO":"２２５號之４","E_COORD97":189067.10999999999,"N_COORD97":2580525.7999999998,"ADDRESS":"東山２２５號之４","OBJECTID":12698},"geometry":{"x":189067.1100000022,"y":2580525.8000000007}},{"attributes":{"ID":12699,"DIS_CODE":0,"TOWNNAME":"東山區","LI":"東山里","LIN":"13鄰","STREET":" ","SECT":" ","MAREA":"東山","LANE":" ","ALLEY":" ","HOUSE_NO":"２２５號","E_COORD97":189098.23000000001,"N_COORD97":2580532.1099999999,"ADDRESS":"東山２２５號","OBJECTID":12699},"geometry":{"x":189098.23000000045,"y":2580532.1100000013}},{"attributes":{"ID":12700,"DIS_CODE":0,"TOWNNAME":"東山區","LI":"東山里","LIN":"13鄰","STREET":" ","SECT":" ","MAREA":"東山","LANE":" ","ALLEY":" ","HOUSE_NO":"２２６號","E_COORD97":189068.12,"N_COORD97":2580475.3599999999,"ADDRESS":"東山２２６號","OBJECTID":12700},"geometry":{"x":189068.12000000011,"y":2580475.3600000013}},{"attributes":{"ID":12701,"DIS_CODE":0,"TOWNNAME":"東山區","LI":"東正里","LIN":"13鄰","STREET":" ","SECT":" ","MAREA":"東勢","LANE":" ","ALLEY":" ","HOUSE_NO":"８４號","E_COORD97":189267.67999999999,"N_COORD97":2580253.1000000001,"ADDRESS":"東勢８４號","OBJECTID":12701},"geometry":{"x":189267.68000000156,"y":2580253.1000000015}},{"attributes":{"ID":12702,"DIS_CODE":0,"TOWNNAME":"安南區","LI":"安富里","LIN":"24鄰","STREET":"郡安路","SECT":"五段","MAREA":" ","LANE":"１６４巷","ALLEY":"５弄","HOUSE_NO":"４號","E_COORD97":167670.22,"N_COORD97":2547645.3500000001,"ADDRESS":"郡安路五段１６４巷５弄４號","OBJECTID":12702},"geometry":{"x":167670.21999999974,"y":2547645.3499999996}},{"attributes":{"ID":12703,"DIS_CODE":0,"TOWNNAME":"安南區","LI":"安富里","LIN":"24鄰","STREET":"郡安路","SECT":"五段","MAREA":" ","LANE":"１６４巷","ALLEY":"５弄","HOUSE_NO":"５號","E_COORD97":167671.82000000001,"N_COORD97":2547665.5600000001,"ADDRESS":"郡安路五段１６４巷５弄５號","OBJECTID":12703},"geometry":{"x":167671.8200000003,"y":2547665.5600000042}},{"attributes":{"ID":12704,"DIS_CODE":0,"TOWNNAME":"東山區","LI":"東正里","LIN":"13鄰","STREET":" ","SECT":" ","MAREA":"東勢","LANE":" ","ALLEY":" ","HOUSE_NO":"８５號","E_COORD97":189266.66,"N_COORD97":2580272.0099999998,"ADDRESS":"東勢８５號","OBJECTID":12704},"geometry":{"x":189266.66000000201,"y":2580272.0100000016}},{"attributes":{"ID":12705,"DIS_CODE":0,"TOWNNAME":"安南區","LI":"安富里","LIN":"24鄰","STREET":"郡安路","SECT":"五段","MAREA":" ","LANE":"１６４巷","ALLEY":"５弄","HOUSE_NO":"６號","E_COORD97":167675.72,"N_COORD97":2547646.4900000002,"ADDRESS":"郡安路五段１６４巷５弄６號","OBJECTID":12705},"geometry":{"x":167675.71999999881,"y":2547646.4900000021}},{"attributes":{"ID":12706,"DIS_CODE":0,"TOWNNAME":"東山區","LI":"東正里","LIN":"13鄰","STREET":" ","SECT":" ","MAREA":"東勢","LANE":" ","ALLEY":" ","HOUSE_NO":"８９號之１","E_COORD97":189291.38,"N_COORD97":2580291.1699999999,"ADDRESS":"東勢８９號之１","OBJECTID":12706},"geometry":{"x":189291.37999999989,"y":2580291.1700000018}},{"attributes":{"ID":12707,"DIS_CODE":0,"TOWNNAME":"東山區","LI":"青山里","LIN":"13鄰","STREET":" ","SECT":" ","MAREA":"青山","LANE":" ","ALLEY":" ","HOUSE_NO":"１０４號之１","E_COORD97":194288.89999999999,"N_COORD97":2574167.5299999998,"ADDRESS":"青山１０４號之１","OBJECTID":12707},"geometry":{"x":194288.9000000013,"y":2574167.5300000012}},{"attributes":{"ID":12708,"DIS_CODE":0,"TOWNNAME":"東山區","LI":"青山里","LIN":"13鄰","STREET":" ","SECT":" ","MAREA":"青山","LANE":" ","ALLEY":" ","HOUSE_NO":"１０５號","E_COORD97":194638.60999999999,"N_COORD97":2574180.54,"ADDRESS":"青山１０５號","OBJECTID":12708},"geometry":{"x":194638.61000000034,"y":2574180.5400000028}},{"attributes":{"ID":12709,"DIS_CODE":0,"TOWNNAME":"安南區","LI":"安富里","LIN":"24鄰","STREET":"郡安路","SECT":"五段","MAREA":" ","LANE":"１６４巷","ALLEY":"５弄","HOUSE_NO":"７號","E_COORD97":167678.01999999999,"N_COORD97":2547666.2400000002,"ADDRESS":"郡安路五段１６４巷５弄７號","OBJECTID":12709},"geometry":{"x":167678.01999999955,"y":2547666.2400000002}},{"attributes":{"ID":12710,"DIS_CODE":0,"TOWNNAME":"東山區","LI":"青山里","LIN":"13鄰","STREET":" ","SECT":" ","MAREA":"青山","LANE":" ","ALLEY":" ","HOUSE_NO":"１０７號","E_COORD97":194573.31,"N_COORD97":2574135.23,"ADDRESS":"青山１０７號","OBJECTID":12710},"geometry":{"x":194573.31000000052,"y":2574135.2300000004}},{"attributes":{"ID":12711,"DIS_CODE":0,"TOWNNAME":"東山區","LI":"青山里","LIN":"13鄰","STREET":" ","SECT":" ","MAREA":"青山","LANE":" ","ALLEY":" ","HOUSE_NO":"１０９號","E_COORD97":194559.20999999999,"N_COORD97":2574138.71,"ADDRESS":"青山１０９號","OBJECTID":12711},"geometry":{"x":194559.21000000089,"y":2574138.7100000028}},{"attributes":{"ID":12712,"DIS_CODE":0,"TOWNNAME":"新化區","LI":"知義里","LIN":"13鄰","STREET":" ","SECT":" ","MAREA":"口埤","LANE":" ","ALLEY":" ","HOUSE_NO":"５２號","E_COORD97":183910.10000000001,"N_COORD97":2546755.25,"ADDRESS":"口埤５２號","OBJECTID":12712},"geometry":{"x":183910.10000000056,"y":2546755.2500000037}},{"attributes":{"ID":12713,"DIS_CODE":0,"TOWNNAME":"新化區","LI":"知義里","LIN":"13鄰","STREET":" ","SECT":" ","MAREA":"口埤","LANE":" ","ALLEY":" ","HOUSE_NO":"４６號","E_COORD97":183483.89999999999,"N_COORD97":2547078.25,"ADDRESS":"口埤４６號","OBJECTID":12713},"geometry":{"x":183483.90000000037,"y":2547078.2500000019}},{"attributes":{"ID":12714,"DIS_CODE":0,"TOWNNAME":"新化區","LI":"全興里","LIN":"13鄰","STREET":" ","SECT":" ","MAREA":"竹子\u25A0","LANE":" ","ALLEY":" ","HOUSE_NO":"２４７號之２５３","E_COORD97":178186.48000000001,"N_COORD97":2546748.2599999998,"ADDRESS":"竹子\u25A0２４７號之２５３","OBJECTID":12714},"geometry":{"x":178186.48000000045,"y":2546748.2600000035}},{"attributes":{"ID":12715,"DIS_CODE":0,"TOWNNAME":"新化區","LI":"礁坑里","LIN":"13鄰","STREET":" ","SECT":" ","MAREA":"礁坑子","LANE":" ","ALLEY":" ","HOUSE_NO":"２７號","E_COORD97":184246.78,"N_COORD97":2547860.25,"ADDRESS":"礁坑子２７號","OBJECTID":12715},"geometry":{"x":184246.78000000119,"y":2547860.2499999981}},{"attributes":{"ID":12716,"DIS_CODE":0,"TOWNNAME":"安南區","LI":"安富里","LIN":"24鄰","STREET":"郡安路","SECT":"五段","MAREA":" ","LANE":"１６４巷","ALLEY":"５弄","HOUSE_NO":"８號","E_COORD97":167681.69,"N_COORD97":2547647.4100000001,"ADDRESS":"郡安路五段１６４巷５弄８號","OBJECTID":12716},"geometry":{"x":167681.69000000041,"y":2547647.410000002}},{"attributes":{"ID":12717,"DIS_CODE":0,"TOWNNAME":"安南區","LI":"安富里","LIN":"24鄰","STREET":"郡安路","SECT":"五段","MAREA":" ","LANE":"１６４巷","ALLEY":"５弄","HOUSE_NO":"９號","E_COORD97":167683.51999999999,"N_COORD97":2547669.4500000002,"ADDRESS":"郡安路五段１６４巷５弄９號","OBJECTID":12717},"geometry":{"x":167683.51999999955,"y":2547669.4500000011}},{"attributes":{"ID":12718,"DIS_CODE":0,"TOWNNAME":"安南區","LI":"安富里","LIN":"24鄰","STREET":"郡安路","SECT":"五段","MAREA":" ","LANE":"１６４巷","ALLEY":"６弄","HOUSE_NO":"１０號","E_COORD97":167622.84,"N_COORD97":2547655.54,"ADDRESS":"郡安路五段１６４巷６弄１０號","OBJECTID":12718},"geometry":{"x":167622.84000000078,"y":2547655.540000001}},{"attributes":{"ID":12719,"DIS_CODE":0,"TOWNNAME":"安南區","LI":"安富里","LIN":"24鄰","STREET":"郡安路","SECT":"五段","MAREA":" ","LANE":"１６４巷","ALLEY":"６弄","HOUSE_NO":"１２號","E_COORD97":167615.82999999999,"N_COORD97":2547654.79,"ADDRESS":"郡安路五段１６４巷６弄１２號","OBJECTID":12719},"geometry":{"x":167615.83000000007,"y":2547654.7899999991}},{"attributes":{"ID":12720,"DIS_CODE":0,"TOWNNAME":"安南區","LI":"安富里","LIN":"24鄰","STREET":"郡安路","SECT":"五段","MAREA":" ","LANE":"１６４巷","ALLEY":"６弄","HOUSE_NO":"１４號","E_COORD97":167610.32999999999,"N_COORD97":2547652.7999999998,"ADDRESS":"郡安路五段１６４巷６弄１４號","OBJECTID":12720},"geometry":{"x":167610.33000000007,"y":2547652.8000000007}},{"attributes":{"ID":12721,"DIS_CODE":0,"TOWNNAME":"安南區","LI":"安富里","LIN":"24鄰","STREET":"郡安路","SECT":"五段","MAREA":" ","LANE":"１６４巷","ALLEY":"６弄","HOUSE_NO":"１６號","E_COORD97":167600.92999999999,"N_COORD97":2547651.6200000001,"ADDRESS":"郡安路五段１６４巷６弄１６號","OBJECTID":12721},"geometry":{"x":167600.9299999997,"y":2547651.620000001}},{"attributes":{"ID":12722,"DIS_CODE":0,"TOWNNAME":"安南區","LI":"安富里","LIN":"24鄰","STREET":"郡安路","SECT":"五段","MAREA":" ","LANE":"１６４巷","ALLEY":"６弄","HOUSE_NO":"１８號","E_COORD97":167593.56,"N_COORD97":2547650.1200000001,"ADDRESS":"郡安路五段１６４巷６弄１８號","OBJECTID":12722},"geometry":{"x":167593.55999999959,"y":2547650.1200000029}},{"attributes":{"ID":12723,"DIS_CODE":0,"TOWNNAME":"安南區","LI":"安富里","LIN":"24鄰","STREET":"郡安路","SECT":"五段","MAREA":" ","LANE":"１６４巷","ALLEY":"６弄","HOUSE_NO":"２１號","E_COORD97":167586.56,"N_COORD97":2547628.8199999998,"ADDRESS":"郡安路五段１６４巷６弄２１號","OBJECTID":12723},"geometry":{"x":167586.55999999959,"y":2547628.8200000003}},{"attributes":{"ID":12724,"DIS_CODE":0,"TOWNNAME":"安南區","LI":"安富里","LIN":"24鄰","STREET":"郡安路","SECT":"五段","MAREA":" ","LANE":"１６４巷","ALLEY":"６弄","HOUSE_NO":"２２號","E_COORD97":167582.04999999999,"N_COORD97":2547647.6200000001,"ADDRESS":"郡安路五段１６４巷６弄２２號","OBJECTID":12724},"geometry":{"x":167582.04999999888,"y":2547647.620000001}},{"attributes":{"ID":12725,"DIS_CODE":0,"TOWNNAME":"安南區","LI":"安富里","LIN":"24鄰","STREET":"郡安路","SECT":"五段","MAREA":" ","LANE":"１６４巷","ALLEY":"６弄","HOUSE_NO":"２３號","E_COORD97":167581.06,"N_COORD97":2547627.5699999998,"ADDRESS":"郡安路五段１６４巷６弄２３號","OBJECTID":12725},"geometry":{"x":167581.05999999959,"y":2547627.5700000003}},{"attributes":{"ID":12726,"DIS_CODE":0,"TOWNNAME":"新化區","LI":"全興里","LIN":"13鄰","STREET":" ","SECT":" ","MAREA":"竹子\u25A0","LANE":" ","ALLEY":" ","HOUSE_NO":"２４７號之７４","E_COORD97":178313.51999999999,"N_COORD97":2546763.2599999998,"ADDRESS":"竹子\u25A0２４７號之７４","OBJECTID":12726},"geometry":{"x":178313.51999999955,"y":2546763.2600000016}},{"attributes":{"ID":12727,"DIS_CODE":0,"TOWNNAME":"安南區","LI":"安富里","LIN":"24鄰","STREET":"郡安路","SECT":"五段","MAREA":" ","LANE":"１６４巷","ALLEY":"６弄","HOUSE_NO":"２４號","E_COORD97":167576.04000000001,"N_COORD97":2547648.6200000001,"ADDRESS":"郡安路五段１６４巷６弄２４號","OBJECTID":12727},"geometry":{"x":167576.04000000097,"y":2547648.6199999992}},{"attributes":{"ID":12728,"DIS_CODE":0,"TOWNNAME":"新化區","LI":"礁坑里","LIN":"13鄰","STREET":" ","SECT":" ","MAREA":"礁坑子","LANE":" ","ALLEY":" ","HOUSE_NO":"２０號","E_COORD97":184288.98000000001,"N_COORD97":2547770.25,"ADDRESS":"礁坑子２０號","OBJECTID":12728},"geometry":{"x":184288.98000000045,"y":2547770.2500000019}},{"attributes":{"ID":12729,"DIS_CODE":0,"TOWNNAME":"安南區","LI":"安富里","LIN":"24鄰","STREET":"郡安路","SECT":"五段","MAREA":" ","LANE":"１６４巷","ALLEY":"６弄","HOUSE_NO":"２５號","E_COORD97":167575.31,"N_COORD97":2547625.8199999998,"ADDRESS":"郡安路五段１６４巷６弄２５號","OBJECTID":12729},"geometry":{"x":167575.31000000052,"y":2547625.8200000003}},{"attributes":{"ID":12730,"DIS_CODE":0,"TOWNNAME":"西港區","LI":"西港里","LIN":"24鄰","STREET":" ","SECT":" ","MAREA":"堀子頭","LANE":" ","ALLEY":" ","HOUSE_NO":"３號之２３","E_COORD97":168502.34,"N_COORD97":2557539.3900000001,"ADDRESS":"堀子頭３號之２３","OBJECTID":12730},"geometry":{"x":168502.33999999892,"y":2557539.3900000006}},{"attributes":{"ID":12731,"DIS_CODE":0,"TOWNNAME":"西港區","LI":"西港里","LIN":"24鄰","STREET":" ","SECT":" ","MAREA":"堀子頭","LANE":" ","ALLEY":" ","HOUSE_NO":"３號之２４","E_COORD97":168506.98000000001,"N_COORD97":2557539.6699999999,"ADDRESS":"堀子頭３號之２４","OBJECTID":12731},"geometry":{"x":168506.98000000045,"y":2557539.6699999999}},{"attributes":{"ID":12732,"DIS_CODE":0,"TOWNNAME":"新化區","LI":"豐榮里","LIN":"13鄰","STREET":"正新南路","SECT":" ","MAREA":" ","LANE":" ","ALLEY":" ","HOUSE_NO":"２０２號","E_COORD97":178668.37,"N_COORD97":2547936.25,"ADDRESS":"正新南路２０２號","OBJECTID":12732},"geometry":{"x":178668.37000000011,"y":2547936.2500000019}},{"attributes":{"ID":12733,"DIS_CODE":0,"TOWNNAME":"西港區","LI":"西港里","LIN":"24鄰","STREET":" ","SECT":" ","MAREA":"堀子頭","LANE":" ","ALLEY":" ","HOUSE_NO":"３號之２５","E_COORD97":168513.09,"N_COORD97":2557539.73,"ADDRESS":"堀子頭３號之２５","OBJECTID":12733},"geometry":{"x":168513.09000000078,"y":2557539.7300000004}},{"attributes":{"ID":12734,"DIS_CODE":0,"TOWNNAME":"西港區","LI":"西港里","LIN":"24鄰","STREET":" ","SECT":" ","MAREA":"堀子頭","LANE":" ","ALLEY":" ","HOUSE_NO":"３號之２６","E_COORD97":168517.95999999999,"N_COORD97":2557539.9399999999,"ADDRESS":"堀子頭３號之２６","OBJECTID":12734},"geometry":{"x":168517.95999999996,"y":2557539.9399999995}},{"attributes":{"ID":12735,"DIS_CODE":0,"TOWNNAME":"西港區","LI":"西港里","LIN":"24鄰","STREET":" ","SECT":" ","MAREA":"堀子頭","LANE":" ","ALLEY":" ","HOUSE_NO":"３號之２７","E_COORD97":168522.95000000001,"N_COORD97":2557539.73,"ADDRESS":"堀子頭３號之２７","OBJECTID":12735},"geometry":{"x":168522.95000000112,"y":2557539.7300000004}},{"attributes":{"ID":12736,"DIS_CODE":0,"TOWNNAME":"西港區","LI":"西港里","LIN":"24鄰","STREET":" ","SECT":" ","MAREA":"堀子頭","LANE":" ","ALLEY":" ","HOUSE_NO":"３號之２８","E_COORD97":168521.44,"N_COORD97":2557554.3300000001,"ADDRESS":"堀子頭３號之２８","OBJECTID":12736},"geometry":{"x":168521.44000000134,"y":2557554.3300000019}},{"attributes":{"ID":12737,"DIS_CODE":0,"TOWNNAME":"新化區","LI":"豐榮里","LIN":"13鄰","STREET":"正新南路","SECT":" ","MAREA":" ","LANE":" ","ALLEY":" ","HOUSE_NO":"２００號","E_COORD97":178694.76999999999,"N_COORD97":2547943.25,"ADDRESS":"正新南路２００號","OBJECTID":12737},"geometry":{"x":178694.77000000048,"y":2547943.2500000019}},{"attributes":{"ID":12738,"DIS_CODE":0,"TOWNNAME":"西港區","LI":"西港里","LIN":"24鄰","STREET":" ","SECT":" ","MAREA":"堀子頭","LANE":" ","ALLEY":" ","HOUSE_NO":"３號之２９","E_COORD97":168516.39999999999,"N_COORD97":2557554.0499999998,"ADDRESS":"堀子頭３號之２９","OBJECTID":12738},"geometry":{"x":168516.4000000013,"y":2557554.0500000007}},{"attributes":{"ID":12739,"DIS_CODE":0,"TOWNNAME":"西港區","LI":"西港里","LIN":"24鄰","STREET":" ","SECT":" ","MAREA":"堀子頭","LANE":" ","ALLEY":" ","HOUSE_NO":"３號之３０","E_COORD97":168511.48999999999,"N_COORD97":2557553.6200000001,"ADDRESS":"堀子頭３號之３０","OBJECTID":12739},"geometry":{"x":168511.49000000022,"y":2557553.6200000029}},{"attributes":{"ID":12740,"DIS_CODE":0,"TOWNNAME":"南區","LI":"大林里","LIN":"20鄰","STREET":"大林路","SECT":" ","MAREA":" ","LANE":" ","ALLEY":" ","HOUSE_NO":"１２９號","E_COORD97":169086.23000000001,"N_COORD97":2541764.27,"ADDRESS":"大林路１２９號","OBJECTID":12740},"geometry":{"x":169086.23000000045,"y":2541764.2700000014}},{"attributes":{"ID":12741,"DIS_CODE":0,"TOWNNAME":"南區","LI":"大林里","LIN":"20鄰","STREET":"大林路","SECT":" ","MAREA":" ","LANE":" ","ALLEY":" ","HOUSE_NO":"１２７號","E_COORD97":169089.56,"N_COORD97":2541763.1600000001,"ADDRESS":"大林路１２７號","OBJECTID":12741},"geometry":{"x":169089.56000000052,"y":2541763.160000002}},{"attributes":{"ID":12742,"DIS_CODE":0,"TOWNNAME":"新化區","LI":"知義里","LIN":"13鄰","STREET":" ","SECT":" ","MAREA":"口埤","LANE":" ","ALLEY":" ","HOUSE_NO":"５３號之２０","E_COORD97":184069.79000000001,"N_COORD97":2546433.2599999998,"ADDRESS":"口埤５３號之２０","OBJECTID":12742},"geometry":{"x":184069.78999999911,"y":2546433.2600000016}},{"attributes":{"ID":12743,"DIS_CODE":0,"TOWNNAME":"西港區","LI":"西港里","LIN":"24鄰","STREET":" ","SECT":" ","MAREA":"堀子頭","LANE":" ","ALLEY":" ","HOUSE_NO":"３號之３１","E_COORD97":168506.23999999999,"N_COORD97":2557553.1099999999,"ADDRESS":"堀子頭３號之３１","OBJECTID":12743},"geometry":{"x":168506.24000000022,"y":2557553.1099999994}},{"attributes":{"ID":12744,"DIS_CODE":0,"TOWNNAME":"安南區","LI":"安富里","LIN":"24鄰","STREET":"郡安路","SECT":"五段","MAREA":" ","LANE":"１６４巷","ALLEY":"６弄","HOUSE_NO":"２６號","E_COORD97":167571.29000000001,"N_COORD97":2547646.3700000001,"ADDRESS":"郡安路五段１６４巷６弄２６號","OBJECTID":12744},"geometry":{"x":167571.29000000097,"y":2547646.370000001}},{"attributes":{"ID":12745,"DIS_CODE":0,"TOWNNAME":"安南區","LI":"安富里","LIN":"24鄰","STREET":"郡安路","SECT":"五段","MAREA":" ","LANE":"１６４巷","ALLEY":"６弄","HOUSE_NO":"５號","E_COORD97":167638.10000000001,"N_COORD97":2547637.3300000001,"ADDRESS":"郡安路五段１６４巷６弄５號","OBJECTID":12745},"geometry":{"x":167638.10000000056,"y":2547637.3300000019}},{"attributes":{"ID":12746,"DIS_CODE":0,"TOWNNAME":"永康區","LI":"勝利里","LIN":"24鄰","STREET":"勝利街","SECT":" ","MAREA":" ","LANE":"１１６巷","ALLEY":"１２弄","HOUSE_NO":"４１號","E_COORD97":171420.79999999999,"N_COORD97":2544771.0099999998,"ADDRESS":"勝利街１１６巷１２弄４１號","OBJECTID":12746},"geometry":{"x":171420.80000000075,"y":2544771.0100000016}},{"attributes":{"ID":12747,"DIS_CODE":0,"TOWNNAME":"西港區","LI":"西港里","LIN":"24鄰","STREET":" ","SECT":" ","MAREA":"堀子頭","LANE":" ","ALLEY":" ","HOUSE_NO":"３號之３２","E_COORD97":168501.47,"N_COORD97":2557553.1299999999,"ADDRESS":"堀子頭３號之３２","OBJECTID":12747},"geometry":{"x":168501.4700000016,"y":2557553.1300000027}},{"attributes":{"ID":12748,"DIS_CODE":0,"TOWNNAME":"西港區","LI":"西港里","LIN":"24鄰","STREET":" ","SECT":" ","MAREA":"堀子頭","LANE":" ","ALLEY":" ","HOUSE_NO":"３號之３３","E_COORD97":168496.44,"N_COORD97":2557552.8399999999,"ADDRESS":"堀子頭３號之３３","OBJECTID":12748},"geometry":{"x":168496.44000000041,"y":2557552.8400000036}},{"attributes":{"ID":12749,"DIS_CODE":0,"TOWNNAME":"永康區","LI":"勝利里","LIN":"24鄰","STREET":"勝利街","SECT":" ","MAREA":" ","LANE":"１１６巷","ALLEY":"１２弄","HOUSE_NO":"２２號","E_COORD97":171400.67000000001,"N_COORD97":2544815.77,"ADDRESS":"勝利街１１６巷１２弄２２號","OBJECTID":12749},"geometry":{"x":171400.67000000179,"y":2544815.7700000014}},{"attributes":{"ID":12750,"DIS_CODE":0,"TOWNNAME":"永康區","LI":"勝利里","LIN":"24鄰","STREET":"勝利街","SECT":" ","MAREA":" ","LANE":"１１６巷","ALLEY":"１２弄","HOUSE_NO":"１８號","E_COORD97":171402.13,"N_COORD97":2544824.52,"ADDRESS":"勝利街１１６巷１２弄１８號","OBJECTID":12750},"geometry":{"x":171402.12999999989,"y":2544824.5200000014}},{"attributes":{"ID":12751,"DIS_CODE":0,"TOWNNAME":"永康區","LI":"勝利里","LIN":"24鄰","STREET":"勝利街","SECT":" ","MAREA":" ","LANE":"１１６巷","ALLEY":"１２弄","HOUSE_NO":"３號","E_COORD97":171422.07000000001,"N_COORD97":2544851.5099999998,"ADDRESS":"勝利街１１６巷１２弄３號","OBJECTID":12751},"geometry":{"x":171422.07000000216,"y":2544851.5100000016}},{"attributes":{"ID":12752,"DIS_CODE":0,"TOWNNAME":"永康區","LI":"勝利里","LIN":"24鄰","STREET":"勝利街","SECT":" ","MAREA":" ","LANE":"１１６巷","ALLEY":"１２弄","HOUSE_NO":"３８號","E_COORD97":171402.88,"N_COORD97":2544779.2400000002,"ADDRESS":"勝利街１１６巷１２弄３８號","OBJECTID":12752},"geometry":{"x":171402.88000000082,"y":2544779.2400000021}},{"attributes":{"ID":12753,"DIS_CODE":0,"TOWNNAME":"永康區","LI":"勝利里","LIN":"24鄰","STREET":"勝利街","SECT":" ","MAREA":" ","LANE":"１１６巷","ALLEY":"１２弄","HOUSE_NO":"３６號","E_COORD97":171403.04999999999,"N_COORD97":2544782.9900000002,"ADDRESS":"勝利街１１６巷１２弄３６號","OBJECTID":12753},"geometry":{"x":171403.05000000168,"y":2544782.9900000002}},{"attributes":{"ID":12754,"DIS_CODE":0,"TOWNNAME":"永康區","LI":"北灣里","LIN":"24鄰","STREET":"大灣路","SECT":" ","MAREA":" ","LANE":"３７巷","ALLEY":"７弄","HOUSE_NO":"１９號","E_COORD97":175393.10999999999,"N_COORD97":2545912.27,"ADDRESS":"大灣路３７巷７弄１９號","OBJECTID":12754},"geometry":{"x":175393.11000000034,"y":2545912.2699999996}},{"attributes":{"ID":12755,"DIS_CODE":0,"TOWNNAME":"永康區","LI":"北灣里","LIN":"24鄰","STREET":"大灣路","SECT":" ","MAREA":" ","LANE":"３７巷","ALLEY":"７弄","HOUSE_NO":"２０號","E_COORD97":175402.23999999999,"N_COORD97":2545908.3900000001,"ADDRESS":"大灣路３７巷７弄２０號","OBJECTID":12755},"geometry":{"x":175402.24000000022,"y":2545908.3900000025}},{"attributes":{"ID":12756,"DIS_CODE":0,"TOWNNAME":"永康區","LI":"北灣里","LIN":"24鄰","STREET":"大灣路","SECT":" ","MAREA":" ","LANE":"３７巷","ALLEY":"７弄","HOUSE_NO":"２１號","E_COORD97":175394.45999999999,"N_COORD97":2545915.9700000002,"ADDRESS":"大灣路３７巷７弄２１號","OBJECTID":12756},"geometry":{"x":175394.46000000183,"y":2545915.9700000007}},{"attributes":{"ID":12757,"DIS_CODE":0,"TOWNNAME":"永康區","LI":"北灣里","LIN":"24鄰","STREET":"大灣路","SECT":" ","MAREA":" ","LANE":"３７巷","ALLEY":"７弄","HOUSE_NO":"２２號","E_COORD97":175404.57000000001,"N_COORD97":2545912.52,"ADDRESS":"大灣路３７巷７弄２２號","OBJECTID":12757},"geometry":{"x":175404.57000000123,"y":2545912.5200000014}},{"attributes":{"ID":12758,"DIS_CODE":0,"TOWNNAME":"永康區","LI":"北灣里","LIN":"24鄰","STREET":"大灣路","SECT":" ","MAREA":" ","LANE":"３７巷","ALLEY":"７弄","HOUSE_NO":"２３號","E_COORD97":175396.48000000001,"N_COORD97":2545920.27,"ADDRESS":"大灣路３７巷７弄２３號","OBJECTID":12758},"geometry":{"x":175396.48000000231,"y":2545920.2699999996}},{"attributes":{"ID":12759,"DIS_CODE":0,"TOWNNAME":"新化區","LI":"豐榮里","LIN":"13鄰","STREET":"正新南路","SECT":" ","MAREA":" ","LANE":" ","ALLEY":" ","HOUSE_NO":"１９１號","E_COORD97":178721.07000000001,"N_COORD97":2547930.25,"ADDRESS":"正新南路１９１號","OBJECTID":12759},"geometry":{"x":178721.0700000003,"y":2547930.25}},{"attributes":{"ID":12760,"DIS_CODE":0,"TOWNNAME":"新化區","LI":"豐榮里","LIN":"13鄰","STREET":"民治路","SECT":" ","MAREA":" ","LANE":" ","ALLEY":" ","HOUSE_NO":"１５０號","E_COORD97":178706.59,"N_COORD97":2548223.6200000001,"ADDRESS":"民治路１５０號","OBJECTID":12760},"geometry":{"x":178706.59000000078,"y":2548223.620000001}},{"attributes":{"ID":12761,"DIS_CODE":0,"TOWNNAME":"新化區","LI":"豐榮里","LIN":"13鄰","STREET":"民治路","SECT":" ","MAREA":" ","LANE":" ","ALLEY":" ","HOUSE_NO":"１５２號","E_COORD97":178708.48000000001,"N_COORD97":2548228.6600000001,"ADDRESS":"民治路１５２號","OBJECTID":12761},"geometry":{"x":178708.48000000045,"y":2548228.660000002}},{"attributes":{"ID":12762,"DIS_CODE":0,"TOWNNAME":"西港區","LI":"西港里","LIN":"24鄰","STREET":" ","SECT":" ","MAREA":"堀子頭","LANE":" ","ALLEY":" ","HOUSE_NO":"３號之３４","E_COORD97":168496.60000000001,"N_COORD97":2557572.1499999999,"ADDRESS":"堀子頭３號之３４","OBJECTID":12762},"geometry":{"x":168496.59999999963,"y":2557572.1500000022}},{"attributes":{"ID":12763,"DIS_CODE":0,"TOWNNAME":"西港區","LI":"西港里","LIN":"24鄰","STREET":" ","SECT":" ","MAREA":"堀子頭","LANE":" ","ALLEY":" ","HOUSE_NO":"３號之３５","E_COORD97":168501.12,"N_COORD97":2557572.6200000001,"ADDRESS":"堀子頭３號之３５","OBJECTID":12763},"geometry":{"x":168501.12000000104,"y":2557572.6200000048}},{"attributes":{"ID":12764,"DIS_CODE":0,"TOWNNAME":"西港區","LI":"西港里","LIN":"24鄰","STREET":" ","SECT":" ","MAREA":"堀子頭","LANE":" ","ALLEY":" ","HOUSE_NO":"３號之３６","E_COORD97":168506.45000000001,"N_COORD97":2557572.5699999998,"ADDRESS":"堀子頭３號之３６","OBJECTID":12764},"geometry":{"x":168506.45000000019,"y":2557572.5700000022}},{"attributes":{"ID":12765,"DIS_CODE":0,"TOWNNAME":"西港區","LI":"西港里","LIN":"24鄰","STREET":" ","SECT":" ","MAREA":"堀子頭","LANE":" ","ALLEY":" ","HOUSE_NO":"３號之３７","E_COORD97":168511.07000000001,"N_COORD97":2557572.9900000002,"ADDRESS":"堀子頭３號之３７","OBJECTID":12765},"geometry":{"x":168511.0700000003,"y":2557572.9900000021}},{"attributes":{"ID":12766,"DIS_CODE":0,"TOWNNAME":"新化區","LI":"豐榮里","LIN":"13鄰","STREET":"民治路","SECT":" ","MAREA":" ","LANE":" ","ALLEY":" ","HOUSE_NO":"１５６號","E_COORD97":178708.26999999999,"N_COORD97":2548233.1000000001,"ADDRESS":"民治路１５６號","OBJECTID":12766},"geometry":{"x":178708.27000000048,"y":2548233.0999999996}},{"attributes":{"ID":12767,"DIS_CODE":0,"TOWNNAME":"新化區","LI":"豐榮里","LIN":"13鄰","STREET":"民治路","SECT":" ","MAREA":" ","LANE":" ","ALLEY":" ","HOUSE_NO":"１５８號","E_COORD97":178709.70999999999,"N_COORD97":2548237.9700000002,"ADDRESS":"民治路１５８號","OBJECTID":12767},"geometry":{"x":178709.70999999996,"y":2548237.9700000007}},{"attributes":{"ID":12768,"DIS_CODE":0,"TOWNNAME":"新化區","LI":"豐榮里","LIN":"13鄰","STREET":"民治路","SECT":" ","MAREA":" ","LANE":" ","ALLEY":" ","HOUSE_NO":"１６０號","E_COORD97":178707.85999999999,"N_COORD97":2548241.96,"ADDRESS":"民治路１６０號","OBJECTID":12768},"geometry":{"x":178707.8600000022,"y":2548241.9600000009}},{"attributes":{"ID":12769,"DIS_CODE":0,"TOWNNAME":"新化區","LI":"豐榮里","LIN":"13鄰","STREET":"民治路","SECT":" ","MAREA":" ","LANE":" ","ALLEY":" ","HOUSE_NO":"１６２號","E_COORD97":178707.95999999999,"N_COORD97":2548246.8999999999,"ADDRESS":"民治路１６２號","OBJECTID":12769},"geometry":{"x":178707.95999999996,"y":2548246.9000000022}},{"attributes":{"ID":12770,"DIS_CODE":0,"TOWNNAME":"新化區","LI":"豐榮里","LIN":"13鄰","STREET":"民治路","SECT":" ","MAREA":" ","LANE":" ","ALLEY":" ","HOUSE_NO":"１６６號","E_COORD97":178702.13,"N_COORD97":2548249.8700000001,"ADDRESS":"民治路１６６號","OBJECTID":12770},"geometry":{"x":178702.13000000175,"y":2548249.870000001}},{"attributes":{"ID":12771,"DIS_CODE":0,"TOWNNAME":"新化區","LI":"豐榮里","LIN":"13鄰","STREET":"民治路","SECT":" ","MAREA":" ","LANE":" ","ALLEY":" ","HOUSE_NO":"１６８號","E_COORD97":178701.92000000001,"N_COORD97":2548254.2999999998,"ADDRESS":"民治路１６８號","OBJECTID":12771},"geometry":{"x":178701.92000000179,"y":2548254.3000000045}},{"attributes":{"ID":12772,"DIS_CODE":0,"TOWNNAME":"永康區","LI":"北灣里","LIN":"24鄰","STREET":"大灣路","SECT":" ","MAREA":" ","LANE":"３７巷","ALLEY":"７弄","HOUSE_NO":"２５號","E_COORD97":175398.94,"N_COORD97":2545924.5800000001,"ADDRESS":"大灣路３７巷７弄２５號","OBJECTID":12772},"geometry":{"x":175398.94000000134,"y":2545924.5800000001}},{"attributes":{"ID":12773,"DIS_CODE":0,"TOWNNAME":"永康區","LI":"北灣里","LIN":"24鄰","STREET":"大灣路","SECT":" ","MAREA":" ","LANE":"３７巷","ALLEY":"７弄","HOUSE_NO":"２６號","E_COORD97":175406.5,"N_COORD97":2545916.5,"ADDRESS":"大灣路３７巷７弄２６號","OBJECTID":12773},"geometry":{"x":175406.50000000093,"y":2545916.5000000019}},{"attributes":{"ID":12774,"DIS_CODE":0,"TOWNNAME":"永康區","LI":"北灣里","LIN":"24鄰","STREET":"大灣路","SECT":" ","MAREA":" ","LANE":"３７巷","ALLEY":"７弄","HOUSE_NO":"２７號","E_COORD97":175401.76999999999,"N_COORD97":2545928.8900000001,"ADDRESS":"大灣路３７巷７弄２７號","OBJECTID":12774},"geometry":{"x":175401.76999999955,"y":2545928.8900000025}},{"attributes":{"ID":12775,"DIS_CODE":0,"TOWNNAME":"永康區","LI":"北灣里","LIN":"24鄰","STREET":"大灣路","SECT":" ","MAREA":" ","LANE":"３７巷","ALLEY":"７弄","HOUSE_NO":"２８號","E_COORD97":175408.73000000001,"N_COORD97":2545920.54,"ADDRESS":"大灣路３７巷７弄２８號","OBJECTID":12775},"geometry":{"x":175408.73000000138,"y":2545920.5399999991}},{"attributes":{"ID":12776,"DIS_CODE":0,"TOWNNAME":"永康區","LI":"北灣里","LIN":"24鄰","STREET":"大灣路","SECT":" ","MAREA":" ","LANE":"３７巷","ALLEY":"７弄","HOUSE_NO":"２９號","E_COORD97":175404.16,"N_COORD97":2545933.21,"ADDRESS":"大灣路３７巷７弄２９號","OBJECTID":12776},"geometry":{"x":175404.16000000108,"y":2545933.2100000028}},{"attributes":{"ID":12777,"DIS_CODE":0,"TOWNNAME":"永康區","LI":"北灣里","LIN":"24鄰","STREET":"大灣路","SECT":" ","MAREA":" ","LANE":"３７巷","ALLEY":"７弄","HOUSE_NO":"２號","E_COORD97":175385.39000000001,"N_COORD97":2545880.3399999999,"ADDRESS":"大灣路３７巷７弄２號","OBJECTID":12777},"geometry":{"x":175385.38999999966,"y":2545880.3400000017}},{"attributes":{"ID":12778,"DIS_CODE":0,"TOWNNAME":"永康區","LI":"北灣里","LIN":"24鄰","STREET":"大灣路","SECT":" ","MAREA":" ","LANE":"３７巷","ALLEY":"７弄","HOUSE_NO":"３號","E_COORD97":175370.82999999999,"N_COORD97":2545879.54,"ADDRESS":"大灣路３７巷７弄３號","OBJECTID":12778},"geometry":{"x":175370.83000000007,"y":2545879.5399999991}},{"attributes":{"ID":12779,"DIS_CODE":0,"TOWNNAME":"永康區","LI":"北灣里","LIN":"24鄰","STREET":"大灣路","SECT":" ","MAREA":" ","LANE":"３７巷","ALLEY":"７弄","HOUSE_NO":"５號","E_COORD97":175373.04999999999,"N_COORD97":2545883.0499999998,"ADDRESS":"大灣路３７巷７弄５號","OBJECTID":12779},"geometry":{"x":175373.04999999981,"y":2545883.0500000026}},{"attributes":{"ID":12780,"DIS_CODE":0,"TOWNNAME":"永康區","LI":"北灣里","LIN":"24鄰","STREET":"大灣路","SECT":" ","MAREA":" ","LANE":"３７巷","ALLEY":"７弄","HOUSE_NO":"６號","E_COORD97":175386.78,"N_COORD97":2545884.1000000001,"ADDRESS":"大灣路３７巷７弄６號","OBJECTID":12780},"geometry":{"x":175386.78000000026,"y":2545884.0999999996}},{"attributes":{"ID":12781,"DIS_CODE":0,"TOWNNAME":"西港區","LI":"西港里","LIN":"24鄰","STREET":" ","SECT":" ","MAREA":"堀子頭","LANE":" ","ALLEY":" ","HOUSE_NO":"３號之３８","E_COORD97":168515.95000000001,"N_COORD97":2557573.0800000001,"ADDRESS":"堀子頭３號之３８","OBJECTID":12781},"geometry":{"x":168515.95000000112,"y":2557573.0800000019}},{"attributes":{"ID":12782,"DIS_CODE":0,"TOWNNAME":"西港區","LI":"西港里","LIN":"24鄰","STREET":" ","SECT":" ","MAREA":"堀子頭","LANE":" ","ALLEY":" ","HOUSE_NO":"３號之３９","E_COORD97":168521.10999999999,"N_COORD97":2557573.3700000001,"ADDRESS":"堀子頭３號之３９","OBJECTID":12782},"geometry":{"x":168521.11000000034,"y":2557573.370000001}},{"attributes":{"ID":12783,"DIS_CODE":0,"TOWNNAME":"西港區","LI":"西港里","LIN":"24鄰","STREET":" ","SECT":" ","MAREA":"堀子頭","LANE":" ","ALLEY":" ","HOUSE_NO":"３號之３","E_COORD97":168552.07999999999,"N_COORD97":2557532.6699999999,"ADDRESS":"堀子頭３號之３","OBJECTID":12783},"geometry":{"x":168552.08000000101,"y":2557532.6699999999}},{"attributes":{"ID":12784,"DIS_CODE":0,"TOWNNAME":"西港區","LI":"西港里","LIN":"24鄰","STREET":" ","SECT":" ","MAREA":"堀子頭","LANE":" ","ALLEY":" ","HOUSE_NO":"３號之４０","E_COORD97":168519.95999999999,"N_COORD97":2557586.2999999998,"ADDRESS":"堀子頭３號之４０","OBJECTID":12784},"geometry":{"x":168519.95999999996,"y":2557586.3000000007}},{"attributes":{"ID":12785,"DIS_CODE":0,"TOWNNAME":"西港區","LI":"西港里","LIN":"24鄰","STREET":" ","SECT":" ","MAREA":"堀子頭","LANE":" ","ALLEY":" ","HOUSE_NO":"３號之４１","E_COORD97":168515.09,"N_COORD97":2557586.0699999998,"ADDRESS":"堀子頭３號之４１","OBJECTID":12785},"geometry":{"x":168515.09000000078,"y":2557586.0700000022}},{"attributes":{"ID":12786,"DIS_CODE":0,"TOWNNAME":"西港區","LI":"西港里","LIN":"24鄰","STREET":" ","SECT":" ","MAREA":"堀子頭","LANE":" ","ALLEY":" ","HOUSE_NO":"３號之４２","E_COORD97":168510.45999999999,"N_COORD97":2557585.96,"ADDRESS":"堀子頭３號之４２","OBJECTID":12786},"geometry":{"x":168510.46000000089,"y":2557585.9600000009}},{"attributes":{"ID":12787,"DIS_CODE":0,"TOWNNAME":"西港區","LI":"西港里","LIN":"24鄰","STREET":" ","SECT":" ","MAREA":"堀子頭","LANE":" ","ALLEY":" ","HOUSE_NO":"７號","E_COORD97":168503.57000000001,"N_COORD97":2557641.2599999998,"ADDRESS":"堀子頭７號","OBJECTID":12787},"geometry":{"x":168503.57000000123,"y":2557641.2599999979}},{"attributes":{"ID":12788,"DIS_CODE":0,"TOWNNAME":"麻豆區","LI":"南勢里","LIN":"24鄰","STREET":" ","SECT":" ","MAREA":"南勢","LANE":" ","ALLEY":" ","HOUSE_NO":"８２號之３","E_COORD97":174593.75,"N_COORD97":2564979.6200000001,"ADDRESS":"南勢８２號之３","OBJECTID":12788},"geometry":{"x":174593.75,"y":2564979.620000001}},{"attributes":{"ID":12789,"DIS_CODE":0,"TOWNNAME":"永康區","LI":"北灣里","LIN":"24鄰","STREET":"大灣路","SECT":" ","MAREA":" ","LANE":"３７巷","ALLEY":"７弄","HOUSE_NO":"７號","E_COORD97":175376.17000000001,"N_COORD97":2545887.6699999999,"ADDRESS":"大灣路３７巷７弄７號","OBJECTID":12789},"geometry":{"x":175376.17000000086,"y":2545887.6700000037}},{"attributes":{"ID":12790,"DIS_CODE":0,"TOWNNAME":"永康區","LI":"北灣里","LIN":"24鄰","STREET":"大灣路","SECT":" ","MAREA":" ","LANE":"３７巷","ALLEY":"７弄","HOUSE_NO":"８號","E_COORD97":175389.23999999999,"N_COORD97":2545887.5899999999,"ADDRESS":"大灣路３７巷７弄８號","OBJECTID":12790},"geometry":{"x":175389.23999999929,"y":2545887.5899999999}},{"attributes":{"ID":12791,"DIS_CODE":0,"TOWNNAME":"永康區","LI":"北灣里","LIN":"24鄰","STREET":"大灣路","SECT":" ","MAREA":" ","LANE":"３７巷","ALLEY":"７弄","HOUSE_NO":"９號","E_COORD97":175378.17000000001,"N_COORD97":2545891.5600000001,"ADDRESS":"大灣路３７巷７弄９號","OBJECTID":12791},"geometry":{"x":175378.17000000086,"y":2545891.5600000005}},{"attributes":{"ID":12792,"DIS_CODE":0,"TOWNNAME":"東區","LI":"崇善里","LIN":"24鄰","STREET":"崇善十二街","SECT":" ","MAREA":" ","LANE":"６巷","ALLEY":"１５弄","HOUSE_NO":"７號","E_COORD97":171245.76000000001,"N_COORD97":2541060.7599999998,"ADDRESS":"崇善十二街６巷１５弄７號","OBJECTID":12792},"geometry":{"x":171245.76000000164,"y":2541060.7599999998}},{"attributes":{"ID":12793,"DIS_CODE":0,"TOWNNAME":"北區","LI":"成功里","LIN":"18鄰","STREET":"北成路","SECT":" ","MAREA":" ","LANE":"１２８巷","ALLEY":"４５弄","HOUSE_NO":"３５號","E_COORD97":168865.54000000001,"N_COORD97":2546846.3500000001,"ADDRESS":"北成路１２８巷４５弄３５號","OBJECTID":12793},"geometry":{"x":168865.54000000004,"y":2546846.3500000015}},{"attributes":{"ID":12794,"DIS_CODE":0,"TOWNNAME":"安南區","LI":"海佃里","LIN":"24鄰","STREET":"國安街","SECT":" ","MAREA":" ","LANE":"１５６巷","ALLEY":"１５６弄","HOUSE_NO":"４號","E_COORD97":166702.57999999999,"N_COORD97":2547380.25,"ADDRESS":"國安街１５６巷１５６弄４號","OBJECTID":12794},"geometry":{"x":166702.58000000101,"y":2547380.2500000019}},{"attributes":{"ID":12795,"DIS_CODE":0,"TOWNNAME":"安南區","LI":"海東里","LIN":"24鄰","STREET":"同安路","SECT":" ","MAREA":" ","LANE":"１９５巷","ALLEY":"２弄","HOUSE_NO":"６號","E_COORD97":167145.92999999999,"N_COORD97":2549183.0299999998,"ADDRESS":"同安路１９５巷２弄６號","OBJECTID":12795},"geometry":{"x":167145.93000000063,"y":2549183.0299999993}},{"attributes":{"ID":12796,"DIS_CODE":0,"TOWNNAME":"永康區","LI":"勝利里","LIN":"24鄰","STREET":"勝利街","SECT":" ","MAREA":" ","LANE":"１１６巷","ALLEY":"１２弄","HOUSE_NO":"１號","E_COORD97":171422.79000000001,"N_COORD97":2544856.0099999998,"ADDRESS":"勝利街１１６巷１２弄１號","OBJECTID":12796},"geometry":{"x":171422.79000000097,"y":2544856.0100000016}},{"attributes":{"ID":12797,"DIS_CODE":0,"TOWNNAME":"麻豆區","LI":"南勢里","LIN":"24鄰","STREET":" ","SECT":" ","MAREA":"南勢","LANE":" ","ALLEY":" ","HOUSE_NO":"８２號之５","E_COORD97":174626,"N_COORD97":2564972.8500000001,"ADDRESS":"南勢８２號之５","OBJECTID":12797},"geometry":{"x":174626,"y":2564972.8499999996}},{"attributes":{"ID":12798,"DIS_CODE":0,"TOWNNAME":"永康區","LI":"勝利里","LIN":"24鄰","STREET":"勝利街","SECT":" ","MAREA":" ","LANE":"１１６巷","ALLEY":"１２弄","HOUSE_NO":"８號","E_COORD97":171403.94,"N_COORD97":2544845.27,"ADDRESS":"勝利街１１６巷１２弄８號","OBJECTID":12798},"geometry":{"x":171403.94000000041,"y":2544845.2699999996}},{"attributes":{"ID":12799,"DIS_CODE":0,"TOWNNAME":"永康區","LI":"勝利里","LIN":"24鄰","STREET":"勝利街","SECT":" ","MAREA":" ","LANE":"１１６巷","ALLEY":"１２弄","HOUSE_NO":"２４號","E_COORD97":171399.95999999999,"N_COORD97":2544811.52,"ADDRESS":"勝利街１１６巷１２弄２４號","OBJECTID":12799},"geometry":{"x":171399.95999999996,"y":2544811.5200000014}},{"attributes":{"ID":12800,"DIS_CODE":0,"TOWNNAME":"永康區","LI":"勝利里","LIN":"24鄰","STREET":"勝利街","SECT":" ","MAREA":" ","LANE":"１１６巷","ALLEY":"１２弄","HOUSE_NO":"２１號","E_COORD97":171421.89999999999,"N_COORD97":2544812.25,"ADDRESS":"勝利街１１６巷１２弄２１號","OBJECTID":12800},"geometry":{"x":171421.9000000013,"y":2544812.2499999981}}]}