{"displayFieldName":"TOWNNAME","fieldAliases":{"ID":"ID","DIS_CODE":"DIS_CODE","TOWNNAME":"TOWNNAME","LI":"LI","LIN":"LIN","STREET":"STREET","SECT":"SECT","MAREA":"MAREA","LANE":"LANE","ALLEY":"ALLEY","HOUSE_NO":"HOUSE_NO","E_COORD97":"E_COORD97","N_COORD97":"N_COORD97","ADDRESS":"ADDRESS","OBJECTID":"OBJECTID"},"geometryType":"esriGeometryPoint","spatialReference":{"wkid":102443,"latestWkid":3826},"fields":[{"name":"ID","type":"esriFieldTypeDouble","alias":"ID"},{"name":"DIS_CODE","type":"esriFieldTypeInteger","alias":"DIS_CODE"},{"name":"TOWNNAME","type":"esriFieldTypeString","alias":"TOWNNAME","length":8},{"name":"LI","type":"esriFieldTypeString","alias":"LI","length":8},{"name":"LIN","type":"esriFieldTypeString","alias":"LIN","length":12},{"name":"STREET","type":"esriFieldTypeString","alias":"STREET","length":20},{"name":"SECT","type":"esriFieldTypeString","alias":"SECT","length":8},{"name":"MAREA","type":"esriFieldTypeString","alias":"MAREA","length":12},{"name":"LANE","type":"esriFieldTypeString","alias":"LANE","length":10},{"name":"ALLEY","type":"esriFieldTypeString","alias":"ALLEY","length":10},{"name":"HOUSE_NO","type":"esriFieldTypeString","alias":"HOUSE_NO","length":20},{"name":"E_COORD97","type":"esriFieldTypeDouble","alias":"E_COORD97"},{"name":"N_COORD97","type":"esriFieldTypeDouble","alias":"N_COORD97"},{"name":"ADDRESS","type":"esriFieldTypeString","alias":"ADDRESS","length":50},{"name":"OBJECTID","type":"esriFieldTypeOID","alias":"OBJECTID"}],"features":[{"attributes":{"ID":637028,"DIS_CODE":0,"TOWNNAME":"安平區","LI":"育平里","LIN":"26鄰","STREET":"郡平路","SECT":" ","MAREA":" ","LANE":" ","ALLEY":" ","HOUSE_NO":"１８１號十三樓之２７","E_COORD97":164638.45000000001,"N_COORD97":2543300.3100000001,"ADDRESS":"郡平路１８１號十三樓之２７","OBJECTID":637001},"geometry":{"x":164638.45000000019,"y":2543300.3099999987}},{"attributes":{"ID":637029,"DIS_CODE":0,"TOWNNAME":"安平區","LI":"育平里","LIN":"25鄰","STREET":"郡平路","SECT":" ","MAREA":" ","LANE":" ","ALLEY":" ","HOUSE_NO":"１８１號十三樓之１２","E_COORD97":164638.45000000001,"N_COORD97":2543300.3100000001,"ADDRESS":"郡平路１８１號十三樓之１２","OBJECTID":637002},"geometry":{"x":164638.45000000019,"y":2543300.3099999987}},{"attributes":{"ID":637030,"DIS_CODE":0,"TOWNNAME":"安平區","LI":"育平里","LIN":"25鄰","STREET":"郡平路","SECT":" ","MAREA":" ","LANE":" ","ALLEY":" ","HOUSE_NO":"１８１號十三樓之１３","E_COORD97":164638.45000000001,"N_COORD97":2543300.3100000001,"ADDRESS":"郡平路１８１號十三樓之１３","OBJECTID":637003},"geometry":{"x":164638.45000000019,"y":2543300.3099999987}},{"attributes":{"ID":637031,"DIS_CODE":0,"TOWNNAME":"安平區","LI":"育平里","LIN":"25鄰","STREET":"郡平路","SECT":" ","MAREA":" ","LANE":" ","ALLEY":" ","HOUSE_NO":"１８１號十三樓之１４","E_COORD97":164638.45000000001,"N_COORD97":2543300.3100000001,"ADDRESS":"郡平路１８１號十三樓之１４","OBJECTID":637004},"geometry":{"x":164638.45000000019,"y":2543300.3099999987}},{"attributes":{"ID":637032,"DIS_CODE":0,"TOWNNAME":"安平區","LI":"育平里","LIN":"25鄰","STREET":"郡平路","SECT":" ","MAREA":" ","LANE":" ","ALLEY":" ","HOUSE_NO":"１８１號十三樓之１５","E_COORD97":164638.45000000001,"N_COORD97":2543300.3100000001,"ADDRESS":"郡平路１８１號十三樓之１５","OBJECTID":637005},"geometry":{"x":164638.45000000019,"y":2543300.3099999987}},{"attributes":{"ID":637033,"DIS_CODE":0,"TOWNNAME":"安平區","LI":"育平里","LIN":"25鄰","STREET":"郡平路","SECT":" ","MAREA":" ","LANE":" ","ALLEY":" ","HOUSE_NO":"１８１號十三樓之１６","E_COORD97":164638.45000000001,"N_COORD97":2543300.3100000001,"ADDRESS":"郡平路１８１號十三樓之１６","OBJECTID":637006},"geometry":{"x":164638.45000000019,"y":2543300.3099999987}},{"attributes":{"ID":637034,"DIS_CODE":0,"TOWNNAME":"安平區","LI":"育平里","LIN":"25鄰","STREET":"郡平路","SECT":" ","MAREA":" ","LANE":" ","ALLEY":" ","HOUSE_NO":"１８１號十三樓之１７","E_COORD97":164638.45000000001,"N_COORD97":2543300.3100000001,"ADDRESS":"郡平路１８１號十三樓之１７","OBJECTID":637007},"geometry":{"x":164638.45000000019,"y":2543300.3099999987}},{"attributes":{"ID":637035,"DIS_CODE":0,"TOWNNAME":"安平區","LI":"育平里","LIN":"25鄰","STREET":"郡平路","SECT":" ","MAREA":" ","LANE":" ","ALLEY":" ","HOUSE_NO":"１８１號十三樓之１８","E_COORD97":164638.45000000001,"N_COORD97":2543300.3100000001,"ADDRESS":"郡平路１８１號十三樓之１８","OBJECTID":637008},"geometry":{"x":164638.45000000019,"y":2543300.3099999987}},{"attributes":{"ID":637036,"DIS_CODE":0,"TOWNNAME":"安平區","LI":"育平里","LIN":"24鄰","STREET":"郡平路","SECT":" ","MAREA":" ","LANE":" ","ALLEY":" ","HOUSE_NO":"１８１號十三樓之２","E_COORD97":164638.45000000001,"N_COORD97":2543300.3100000001,"ADDRESS":"郡平路１８１號十三樓之２","OBJECTID":637009},"geometry":{"x":164638.45000000019,"y":2543300.3099999987}},{"attributes":{"ID":637037,"DIS_CODE":0,"TOWNNAME":"南區","LI":"金華里","LIN":" ","STREET":"賢南街","SECT":" ","MAREA":" ","LANE":" ","ALLEY":" ","HOUSE_NO":"２５號四樓","E_COORD97":166872.44,"N_COORD97":2542420.0699999998,"ADDRESS":"賢南街２５號四樓","OBJECTID":637010},"geometry":{"x":166872.44000000041,"y":2542420.0700000003}},{"attributes":{"ID":637038,"DIS_CODE":0,"TOWNNAME":"安平區","LI":"國平里","LIN":"20鄰","STREET":"育平五街","SECT":" ","MAREA":" ","LANE":" ","ALLEY":" ","HOUSE_NO":"６號七樓之１０","E_COORD97":164895.03,"N_COORD97":2543486.02,"ADDRESS":"育平五街６號七樓之１０","OBJECTID":637011},"geometry":{"x":164895.03000000119,"y":2543486.0200000014}},{"attributes":{"ID":637039,"DIS_CODE":0,"TOWNNAME":"安平區","LI":"國平里","LIN":"20鄰","STREET":"育平五街","SECT":" ","MAREA":" ","LANE":" ","ALLEY":" ","HOUSE_NO":"６號七樓之１１","E_COORD97":164895.03,"N_COORD97":2543486.02,"ADDRESS":"育平五街６號七樓之１１","OBJECTID":637012},"geometry":{"x":164895.03000000119,"y":2543486.0200000014}},{"attributes":{"ID":637040,"DIS_CODE":0,"TOWNNAME":"安平區","LI":"國平里","LIN":"20鄰","STREET":"育平五街","SECT":" ","MAREA":" ","LANE":" ","ALLEY":" ","HOUSE_NO":"６號七樓之１２","E_COORD97":164895.03,"N_COORD97":2543486.02,"ADDRESS":"育平五街６號七樓之１２","OBJECTID":637013},"geometry":{"x":164895.03000000119,"y":2543486.0200000014}},{"attributes":{"ID":637041,"DIS_CODE":0,"TOWNNAME":"安平區","LI":"國平里","LIN":"20鄰","STREET":"育平五街","SECT":" ","MAREA":" ","LANE":" ","ALLEY":" ","HOUSE_NO":"６號七樓之１３","E_COORD97":164895.03,"N_COORD97":2543486.02,"ADDRESS":"育平五街６號七樓之１３","OBJECTID":637014},"geometry":{"x":164895.03000000119,"y":2543486.0200000014}},{"attributes":{"ID":637042,"DIS_CODE":0,"TOWNNAME":"安平區","LI":"國平里","LIN":"20鄰","STREET":"育平五街","SECT":" ","MAREA":" ","LANE":" ","ALLEY":" ","HOUSE_NO":"６號七樓之１４","E_COORD97":164895.03,"N_COORD97":2543486.02,"ADDRESS":"育平五街６號七樓之１４","OBJECTID":637015},"geometry":{"x":164895.03000000119,"y":2543486.0200000014}},{"attributes":{"ID":637043,"DIS_CODE":0,"TOWNNAME":"安平區","LI":"育平里","LIN":"25鄰","STREET":"郡平路","SECT":" ","MAREA":" ","LANE":" ","ALLEY":" ","HOUSE_NO":"１８１號十四樓之１０","E_COORD97":164638.45000000001,"N_COORD97":2543300.3100000001,"ADDRESS":"郡平路１８１號十四樓之１０","OBJECTID":637016},"geometry":{"x":164638.45000000019,"y":2543300.3099999987}},{"attributes":{"ID":637044,"DIS_CODE":0,"TOWNNAME":"安平區","LI":"育平里","LIN":"25鄰","STREET":"郡平路","SECT":" ","MAREA":" ","LANE":" ","ALLEY":" ","HOUSE_NO":"１８１號十四樓之１１","E_COORD97":164638.45000000001,"N_COORD97":2543300.3100000001,"ADDRESS":"郡平路１８１號十四樓之１１","OBJECTID":637017},"geometry":{"x":164638.45000000019,"y":2543300.3099999987}},{"attributes":{"ID":637045,"DIS_CODE":0,"TOWNNAME":"安平區","LI":"育平里","LIN":"25鄰","STREET":"郡平路","SECT":" ","MAREA":" ","LANE":" ","ALLEY":" ","HOUSE_NO":"１８１號十四樓之１２","E_COORD97":164638.45000000001,"N_COORD97":2543300.3100000001,"ADDRESS":"郡平路１８１號十四樓之１２","OBJECTID":637018},"geometry":{"x":164638.45000000019,"y":2543300.3099999987}},{"attributes":{"ID":637046,"DIS_CODE":0,"TOWNNAME":"安平區","LI":"育平里","LIN":"25鄰","STREET":"郡平路","SECT":" ","MAREA":" ","LANE":" ","ALLEY":" ","HOUSE_NO":"１８１號十四樓之１３","E_COORD97":164638.45000000001,"N_COORD97":2543300.3100000001,"ADDRESS":"郡平路１８１號十四樓之１３","OBJECTID":637019},"geometry":{"x":164638.45000000019,"y":2543300.3099999987}},{"attributes":{"ID":637047,"DIS_CODE":0,"TOWNNAME":"安平區","LI":"育平里","LIN":"25鄰","STREET":"郡平路","SECT":" ","MAREA":" ","LANE":" ","ALLEY":" ","HOUSE_NO":"１８１號十四樓之１４","E_COORD97":164638.45000000001,"N_COORD97":2543300.3100000001,"ADDRESS":"郡平路１８１號十四樓之１４","OBJECTID":637020},"geometry":{"x":164638.45000000019,"y":2543300.3099999987}},{"attributes":{"ID":637048,"DIS_CODE":0,"TOWNNAME":"安平區","LI":"國平里","LIN":"19鄰","STREET":"育平五街","SECT":" ","MAREA":" ","LANE":" ","ALLEY":" ","HOUSE_NO":"６號七樓之１","E_COORD97":164895.03,"N_COORD97":2543486.02,"ADDRESS":"育平五街６號七樓之１","OBJECTID":637021},"geometry":{"x":164895.03000000119,"y":2543486.0200000014}},{"attributes":{"ID":637049,"DIS_CODE":0,"TOWNNAME":"安平區","LI":"育平里","LIN":"26鄰","STREET":"郡平路","SECT":" ","MAREA":" ","LANE":" ","ALLEY":" ","HOUSE_NO":"１８１號十四樓之２０","E_COORD97":164638.45000000001,"N_COORD97":2543300.3100000001,"ADDRESS":"郡平路１８１號十四樓之２０","OBJECTID":637022},"geometry":{"x":164638.45000000019,"y":2543300.3099999987}},{"attributes":{"ID":637050,"DIS_CODE":0,"TOWNNAME":"安平區","LI":"育平里","LIN":"26鄰","STREET":"郡平路","SECT":" ","MAREA":" ","LANE":" ","ALLEY":" ","HOUSE_NO":"１８１號十四樓之２１","E_COORD97":164638.45000000001,"N_COORD97":2543300.3100000001,"ADDRESS":"郡平路１８１號十四樓之２１","OBJECTID":637023},"geometry":{"x":164638.45000000019,"y":2543300.3099999987}},{"attributes":{"ID":637051,"DIS_CODE":0,"TOWNNAME":"安平區","LI":"育平里","LIN":"26鄰","STREET":"郡平路","SECT":" ","MAREA":" ","LANE":" ","ALLEY":" ","HOUSE_NO":"１８１號十四樓之２２","E_COORD97":164638.45000000001,"N_COORD97":2543300.3100000001,"ADDRESS":"郡平路１８１號十四樓之２２","OBJECTID":637024},"geometry":{"x":164638.45000000019,"y":2543300.3099999987}},{"attributes":{"ID":637052,"DIS_CODE":0,"TOWNNAME":"安平區","LI":"育平里","LIN":"26鄰","STREET":"郡平路","SECT":" ","MAREA":" ","LANE":" ","ALLEY":" ","HOUSE_NO":"１８１號十四樓之２３","E_COORD97":164638.45000000001,"N_COORD97":2543300.3100000001,"ADDRESS":"郡平路１８１號十四樓之２３","OBJECTID":637025},"geometry":{"x":164638.45000000019,"y":2543300.3099999987}},{"attributes":{"ID":637053,"DIS_CODE":0,"TOWNNAME":"安平區","LI":"育平里","LIN":"25鄰","STREET":"郡平路","SECT":" ","MAREA":" ","LANE":" ","ALLEY":" ","HOUSE_NO":"１８１號十四樓之１５","E_COORD97":164638.45000000001,"N_COORD97":2543300.3100000001,"ADDRESS":"郡平路１８１號十四樓之１５","OBJECTID":637026},"geometry":{"x":164638.45000000019,"y":2543300.3099999987}},{"attributes":{"ID":637054,"DIS_CODE":0,"TOWNNAME":"安平區","LI":"育平里","LIN":"25鄰","STREET":"郡平路","SECT":" ","MAREA":" ","LANE":" ","ALLEY":" ","HOUSE_NO":"１８１號十四樓之１６","E_COORD97":164638.45000000001,"N_COORD97":2543300.3100000001,"ADDRESS":"郡平路１８１號十四樓之１６","OBJECTID":637027},"geometry":{"x":164638.45000000019,"y":2543300.3099999987}},{"attributes":{"ID":637055,"DIS_CODE":0,"TOWNNAME":"安平區","LI":"育平里","LIN":"25鄰","STREET":"郡平路","SECT":" ","MAREA":" ","LANE":" ","ALLEY":" ","HOUSE_NO":"１８１號十四樓之１７","E_COORD97":164638.45000000001,"N_COORD97":2543300.3100000001,"ADDRESS":"郡平路１８１號十四樓之１７","OBJECTID":637028},"geometry":{"x":164638.45000000019,"y":2543300.3099999987}},{"attributes":{"ID":637056,"DIS_CODE":0,"TOWNNAME":"安平區","LI":"育平里","LIN":"25鄰","STREET":"郡平路","SECT":" ","MAREA":" ","LANE":" ","ALLEY":" ","HOUSE_NO":"１８１號十四樓之１８","E_COORD97":164638.45000000001,"N_COORD97":2543300.3100000001,"ADDRESS":"郡平路１８１號十四樓之１８","OBJECTID":637029},"geometry":{"x":164638.45000000019,"y":2543300.3099999987}},{"attributes":{"ID":637057,"DIS_CODE":0,"TOWNNAME":"安平區","LI":"育平里","LIN":"25鄰","STREET":"郡平路","SECT":" ","MAREA":" ","LANE":" ","ALLEY":" ","HOUSE_NO":"１８１號十四樓之１９","E_COORD97":164638.45000000001,"N_COORD97":2543300.3100000001,"ADDRESS":"郡平路１８１號十四樓之１９","OBJECTID":637030},"geometry":{"x":164638.45000000019,"y":2543300.3099999987}},{"attributes":{"ID":637058,"DIS_CODE":0,"TOWNNAME":"安平區","LI":"育平里","LIN":"24鄰","STREET":"郡平路","SECT":" ","MAREA":" ","LANE":" ","ALLEY":" ","HOUSE_NO":"１８１號十四樓之２","E_COORD97":164638.45000000001,"N_COORD97":2543300.3100000001,"ADDRESS":"郡平路１８１號十四樓之２","OBJECTID":637031},"geometry":{"x":164638.45000000019,"y":2543300.3099999987}},{"attributes":{"ID":637059,"DIS_CODE":0,"TOWNNAME":"安平區","LI":"育平里","LIN":"24鄰","STREET":"郡平路","SECT":" ","MAREA":" ","LANE":" ","ALLEY":" ","HOUSE_NO":"１８１號十四樓之３","E_COORD97":164638.45000000001,"N_COORD97":2543300.3100000001,"ADDRESS":"郡平路１８１號十四樓之３","OBJECTID":637032},"geometry":{"x":164638.45000000019,"y":2543300.3099999987}},{"attributes":{"ID":637060,"DIS_CODE":0,"TOWNNAME":"安平區","LI":"國平里","LIN":"19鄰","STREET":"育平五街","SECT":" ","MAREA":" ","LANE":" ","ALLEY":" ","HOUSE_NO":"６號七樓之３","E_COORD97":164895.03,"N_COORD97":2543486.02,"ADDRESS":"育平五街６號七樓之３","OBJECTID":637033},"geometry":{"x":164895.03000000119,"y":2543486.0200000014}},{"attributes":{"ID":637061,"DIS_CODE":0,"TOWNNAME":"安平區","LI":"國平里","LIN":"20鄰","STREET":"育平五街","SECT":" ","MAREA":" ","LANE":" ","ALLEY":" ","HOUSE_NO":"６號九樓之１３","E_COORD97":164895.03,"N_COORD97":2543486.02,"ADDRESS":"育平五街６號九樓之１３","OBJECTID":637034},"geometry":{"x":164895.03000000119,"y":2543486.0200000014}},{"attributes":{"ID":637062,"DIS_CODE":0,"TOWNNAME":"安平區","LI":"國平里","LIN":"20鄰","STREET":"育平五街","SECT":" ","MAREA":" ","LANE":" ","ALLEY":" ","HOUSE_NO":"６號九樓之１４","E_COORD97":164895.03,"N_COORD97":2543486.02,"ADDRESS":"育平五街６號九樓之１４","OBJECTID":637035},"geometry":{"x":164895.03000000119,"y":2543486.0200000014}},{"attributes":{"ID":637063,"DIS_CODE":0,"TOWNNAME":"安平區","LI":"國平里","LIN":"20鄰","STREET":"育平五街","SECT":" ","MAREA":" ","LANE":" ","ALLEY":" ","HOUSE_NO":"６號九樓之８","E_COORD97":164895.03,"N_COORD97":2543486.02,"ADDRESS":"育平五街６號九樓之８","OBJECTID":637036},"geometry":{"x":164895.03000000119,"y":2543486.0200000014}},{"attributes":{"ID":637064,"DIS_CODE":0,"TOWNNAME":"安平區","LI":"國平里","LIN":"20鄰","STREET":"育平五街","SECT":" ","MAREA":" ","LANE":" ","ALLEY":" ","HOUSE_NO":"６號九樓之９","E_COORD97":164895.03,"N_COORD97":2543486.02,"ADDRESS":"育平五街６號九樓之９","OBJECTID":637037},"geometry":{"x":164895.03000000119,"y":2543486.0200000014}},{"attributes":{"ID":637065,"DIS_CODE":0,"TOWNNAME":"安平區","LI":"國平里","LIN":"20鄰","STREET":"育平五街","SECT":" ","MAREA":" ","LANE":" ","ALLEY":" ","HOUSE_NO":"６號二十一樓之１０","E_COORD97":164895.03,"N_COORD97":2543486.02,"ADDRESS":"育平五街６號二十一樓之１０","OBJECTID":637038},"geometry":{"x":164895.03000000119,"y":2543486.0200000014}},{"attributes":{"ID":637066,"DIS_CODE":0,"TOWNNAME":"安平區","LI":"國平里","LIN":"20鄰","STREET":"育平五街","SECT":" ","MAREA":" ","LANE":" ","ALLEY":" ","HOUSE_NO":"６號二十一樓之１１","E_COORD97":164895.03,"N_COORD97":2543486.02,"ADDRESS":"育平五街６號二十一樓之１１","OBJECTID":637039},"geometry":{"x":164895.03000000119,"y":2543486.0200000014}},{"attributes":{"ID":637067,"DIS_CODE":0,"TOWNNAME":"安平區","LI":"國平里","LIN":"20鄰","STREET":"育平五街","SECT":" ","MAREA":" ","LANE":" ","ALLEY":" ","HOUSE_NO":"６號二十一樓之１２","E_COORD97":164895.03,"N_COORD97":2543486.02,"ADDRESS":"育平五街６號二十一樓之１２","OBJECTID":637040},"geometry":{"x":164895.03000000119,"y":2543486.0200000014}},{"attributes":{"ID":637068,"DIS_CODE":0,"TOWNNAME":"安平區","LI":"育平里","LIN":"24鄰","STREET":"郡平路","SECT":" ","MAREA":" ","LANE":" ","ALLEY":" ","HOUSE_NO":"１８１號十四樓之５","E_COORD97":164638.45000000001,"N_COORD97":2543300.3100000001,"ADDRESS":"郡平路１８１號十四樓之５","OBJECTID":637041},"geometry":{"x":164638.45000000019,"y":2543300.3099999987}},{"attributes":{"ID":637069,"DIS_CODE":0,"TOWNNAME":"安平區","LI":"育平里","LIN":"24鄰","STREET":"郡平路","SECT":" ","MAREA":" ","LANE":" ","ALLEY":" ","HOUSE_NO":"１８１號十四樓之６","E_COORD97":164638.45000000001,"N_COORD97":2543300.3100000001,"ADDRESS":"郡平路１８１號十四樓之６","OBJECTID":637042},"geometry":{"x":164638.45000000019,"y":2543300.3099999987}},{"attributes":{"ID":637070,"DIS_CODE":0,"TOWNNAME":"安平區","LI":"國平里","LIN":"19鄰","STREET":"育平五街","SECT":" ","MAREA":" ","LANE":" ","ALLEY":" ","HOUSE_NO":"６號九樓之２","E_COORD97":164895.03,"N_COORD97":2543486.02,"ADDRESS":"育平五街６號九樓之２","OBJECTID":637043},"geometry":{"x":164895.03000000119,"y":2543486.0200000014}},{"attributes":{"ID":637071,"DIS_CODE":0,"TOWNNAME":"安平區","LI":"國平里","LIN":"19鄰","STREET":"育平五街","SECT":" ","MAREA":" ","LANE":" ","ALLEY":" ","HOUSE_NO":"６號九樓之３","E_COORD97":164895.03,"N_COORD97":2543486.02,"ADDRESS":"育平五街６號九樓之３","OBJECTID":637044},"geometry":{"x":164895.03000000119,"y":2543486.0200000014}},{"attributes":{"ID":637072,"DIS_CODE":0,"TOWNNAME":"安平區","LI":"國平里","LIN":"19鄰","STREET":"育平五街","SECT":" ","MAREA":" ","LANE":" ","ALLEY":" ","HOUSE_NO":"６號九樓之４","E_COORD97":164895.03,"N_COORD97":2543486.02,"ADDRESS":"育平五街６號九樓之４","OBJECTID":637045},"geometry":{"x":164895.03000000119,"y":2543486.0200000014}},{"attributes":{"ID":637073,"DIS_CODE":0,"TOWNNAME":"安平區","LI":"國平里","LIN":"19鄰","STREET":"育平五街","SECT":" ","MAREA":" ","LANE":" ","ALLEY":" ","HOUSE_NO":"６號九樓之５","E_COORD97":164895.03,"N_COORD97":2543486.02,"ADDRESS":"育平五街６號九樓之５","OBJECTID":637046},"geometry":{"x":164895.03000000119,"y":2543486.0200000014}},{"attributes":{"ID":637074,"DIS_CODE":0,"TOWNNAME":"安平區","LI":"國平里","LIN":"19鄰","STREET":"育平五街","SECT":" ","MAREA":" ","LANE":" ","ALLEY":" ","HOUSE_NO":"６號九樓之６","E_COORD97":164895.03,"N_COORD97":2543486.02,"ADDRESS":"育平五街６號九樓之６","OBJECTID":637047},"geometry":{"x":164895.03000000119,"y":2543486.0200000014}},{"attributes":{"ID":637075,"DIS_CODE":0,"TOWNNAME":"安平區","LI":"國平里","LIN":"19鄰","STREET":"育平五街","SECT":" ","MAREA":" ","LANE":" ","ALLEY":" ","HOUSE_NO":"６號九樓之７","E_COORD97":164895.03,"N_COORD97":2543486.02,"ADDRESS":"育平五街６號九樓之７","OBJECTID":637048},"geometry":{"x":164895.03000000119,"y":2543486.0200000014}},{"attributes":{"ID":637076,"DIS_CODE":0,"TOWNNAME":"安平區","LI":"國平里","LIN":"19鄰","STREET":"育平五街","SECT":" ","MAREA":" ","LANE":" ","ALLEY":" ","HOUSE_NO":"６號二十一樓之１","E_COORD97":164895.03,"N_COORD97":2543486.02,"ADDRESS":"育平五街６號二十一樓之１","OBJECTID":637049},"geometry":{"x":164895.03000000119,"y":2543486.0200000014}},{"attributes":{"ID":637077,"DIS_CODE":0,"TOWNNAME":"安平區","LI":"國平里","LIN":"19鄰","STREET":"育平五街","SECT":" ","MAREA":" ","LANE":" ","ALLEY":" ","HOUSE_NO":"６號二十一樓之２","E_COORD97":164895.03,"N_COORD97":2543486.02,"ADDRESS":"育平五街６號二十一樓之２","OBJECTID":637050},"geometry":{"x":164895.03000000119,"y":2543486.0200000014}},{"attributes":{"ID":637078,"DIS_CODE":0,"TOWNNAME":"安平區","LI":"國平里","LIN":"19鄰","STREET":"育平五街","SECT":" ","MAREA":" ","LANE":" ","ALLEY":" ","HOUSE_NO":"６號二十一樓之３","E_COORD97":164895.03,"N_COORD97":2543486.02,"ADDRESS":"育平五街６號二十一樓之３","OBJECTID":637051},"geometry":{"x":164895.03000000119,"y":2543486.0200000014}},{"attributes":{"ID":637079,"DIS_CODE":0,"TOWNNAME":"安平區","LI":"國平里","LIN":"19鄰","STREET":"育平五街","SECT":" ","MAREA":" ","LANE":" ","ALLEY":" ","HOUSE_NO":"６號二十一樓之４","E_COORD97":164895.03,"N_COORD97":2543486.02,"ADDRESS":"育平五街６號二十一樓之４","OBJECTID":637052},"geometry":{"x":164895.03000000119,"y":2543486.0200000014}},{"attributes":{"ID":637080,"DIS_CODE":0,"TOWNNAME":"安平區","LI":"國平里","LIN":"19鄰","STREET":"育平五街","SECT":" ","MAREA":" ","LANE":" ","ALLEY":" ","HOUSE_NO":"６號二十一樓之５","E_COORD97":164895.03,"N_COORD97":2543486.02,"ADDRESS":"育平五街６號二十一樓之５","OBJECTID":637053},"geometry":{"x":164895.03000000119,"y":2543486.0200000014}},{"attributes":{"ID":637081,"DIS_CODE":0,"TOWNNAME":"安平區","LI":"國平里","LIN":"19鄰","STREET":"育平五街","SECT":" ","MAREA":" ","LANE":" ","ALLEY":" ","HOUSE_NO":"６號二十一樓之６","E_COORD97":164895.03,"N_COORD97":2543486.02,"ADDRESS":"育平五街６號二十一樓之６","OBJECTID":637054},"geometry":{"x":164895.03000000119,"y":2543486.0200000014}},{"attributes":{"ID":637082,"DIS_CODE":0,"TOWNNAME":"安平區","LI":"育平里","LIN":"24鄰","STREET":"郡平路","SECT":" ","MAREA":" ","LANE":" ","ALLEY":" ","HOUSE_NO":"１８１號十四樓之７","E_COORD97":164638.45000000001,"N_COORD97":2543300.3100000001,"ADDRESS":"郡平路１８１號十四樓之７","OBJECTID":637055},"geometry":{"x":164638.45000000019,"y":2543300.3099999987}},{"attributes":{"ID":637083,"DIS_CODE":0,"TOWNNAME":"南區","LI":"金華里","LIN":"6鄰","STREET":"聖南街","SECT":" ","MAREA":" ","LANE":" ","ALLEY":" ","HOUSE_NO":"４６號二樓之２","E_COORD97":167007.97,"N_COORD97":2542283.3900000001,"ADDRESS":"聖南街４６號二樓之２","OBJECTID":637056},"geometry":{"x":167007.9700000016,"y":2542283.3900000025}},{"attributes":{"ID":637084,"DIS_CODE":0,"TOWNNAME":"南區","LI":"金華里","LIN":"6鄰","STREET":"聖南街","SECT":" ","MAREA":" ","LANE":" ","ALLEY":" ","HOUSE_NO":"４６號三樓之２","E_COORD97":167007.97,"N_COORD97":2542283.3900000001,"ADDRESS":"聖南街４６號三樓之２","OBJECTID":637057},"geometry":{"x":167007.9700000016,"y":2542283.3900000025}},{"attributes":{"ID":637085,"DIS_CODE":0,"TOWNNAME":"南區","LI":"金華里","LIN":"6鄰","STREET":"聖南街","SECT":" ","MAREA":" ","LANE":" ","ALLEY":" ","HOUSE_NO":"４６號五樓之２","E_COORD97":167007.97,"N_COORD97":2542283.3900000001,"ADDRESS":"聖南街４６號五樓之２","OBJECTID":637058},"geometry":{"x":167007.9700000016,"y":2542283.3900000025}},{"attributes":{"ID":637086,"DIS_CODE":0,"TOWNNAME":"南區","LI":"金華里","LIN":"6鄰","STREET":"聖南街","SECT":" ","MAREA":" ","LANE":" ","ALLEY":" ","HOUSE_NO":"４６號六樓之２","E_COORD97":167007.97,"N_COORD97":2542283.3900000001,"ADDRESS":"聖南街４６號六樓之２","OBJECTID":637059},"geometry":{"x":167007.9700000016,"y":2542283.3900000025}},{"attributes":{"ID":637087,"DIS_CODE":0,"TOWNNAME":"南區","LI":"金華里","LIN":"6鄰","STREET":"聖南街","SECT":" ","MAREA":" ","LANE":" ","ALLEY":" ","HOUSE_NO":"４６號四樓之２","E_COORD97":167007.97,"N_COORD97":2542283.3900000001,"ADDRESS":"聖南街４６號四樓之２","OBJECTID":637060},"geometry":{"x":167007.9700000016,"y":2542283.3900000025}},{"attributes":{"ID":637088,"DIS_CODE":0,"TOWNNAME":"南區","LI":"金華里","LIN":"6鄰","STREET":"聖南街","SECT":" ","MAREA":" ","LANE":" ","ALLEY":" ","HOUSE_NO":"４６號七樓之３","E_COORD97":167008.76000000001,"N_COORD97":2542292.3300000001,"ADDRESS":"聖南街４６號七樓之３","OBJECTID":637061},"geometry":{"x":167008.75999999978,"y":2542292.3300000001}},{"attributes":{"ID":637089,"DIS_CODE":0,"TOWNNAME":"南區","LI":"金華里","LIN":"6鄰","STREET":"聖南街","SECT":" ","MAREA":" ","LANE":" ","ALLEY":" ","HOUSE_NO":"４６號二樓之３","E_COORD97":167008.76000000001,"N_COORD97":2542292.3300000001,"ADDRESS":"聖南街４６號二樓之３","OBJECTID":637062},"geometry":{"x":167008.75999999978,"y":2542292.3300000001}},{"attributes":{"ID":637090,"DIS_CODE":0,"TOWNNAME":"南區","LI":"金華里","LIN":"6鄰","STREET":"聖南街","SECT":" ","MAREA":" ","LANE":" ","ALLEY":" ","HOUSE_NO":"４６號三樓之３","E_COORD97":167008.76000000001,"N_COORD97":2542292.3300000001,"ADDRESS":"聖南街４６號三樓之３","OBJECTID":637063},"geometry":{"x":167008.75999999978,"y":2542292.3300000001}},{"attributes":{"ID":637091,"DIS_CODE":0,"TOWNNAME":"南區","LI":"金華里","LIN":"6鄰","STREET":"聖南街","SECT":" ","MAREA":" ","LANE":" ","ALLEY":" ","HOUSE_NO":"４６號六樓之３","E_COORD97":167008.76000000001,"N_COORD97":2542292.3300000001,"ADDRESS":"聖南街４６號六樓之３","OBJECTID":637064},"geometry":{"x":167008.75999999978,"y":2542292.3300000001}},{"attributes":{"ID":637092,"DIS_CODE":0,"TOWNNAME":"南區","LI":"金華里","LIN":"6鄰","STREET":"聖南街","SECT":" ","MAREA":" ","LANE":" ","ALLEY":" ","HOUSE_NO":"４６號四樓之３","E_COORD97":167008.76000000001,"N_COORD97":2542292.3300000001,"ADDRESS":"聖南街４６號四樓之３","OBJECTID":637065},"geometry":{"x":167008.75999999978,"y":2542292.3300000001}},{"attributes":{"ID":637093,"DIS_CODE":0,"TOWNNAME":"南區","LI":"金華里","LIN":"6鄰","STREET":"聖南街","SECT":" ","MAREA":" ","LANE":" ","ALLEY":" ","HOUSE_NO":"４６號七樓之４","E_COORD97":167022.70999999999,"N_COORD97":2542291.54,"ADDRESS":"聖南街４６號七樓之４","OBJECTID":637066},"geometry":{"x":167022.70999999996,"y":2542291.540000001}},{"attributes":{"ID":637094,"DIS_CODE":0,"TOWNNAME":"南區","LI":"金華里","LIN":"6鄰","STREET":"聖南街","SECT":" ","MAREA":" ","LANE":" ","ALLEY":" ","HOUSE_NO":"４６號二樓之４","E_COORD97":167022.70999999999,"N_COORD97":2542291.54,"ADDRESS":"聖南街４６號二樓之４","OBJECTID":637067},"geometry":{"x":167022.70999999996,"y":2542291.540000001}},{"attributes":{"ID":637095,"DIS_CODE":0,"TOWNNAME":"南區","LI":"金華里","LIN":"6鄰","STREET":"聖南街","SECT":" ","MAREA":" ","LANE":" ","ALLEY":" ","HOUSE_NO":"４６號三樓之４","E_COORD97":167022.70999999999,"N_COORD97":2542291.54,"ADDRESS":"聖南街４６號三樓之４","OBJECTID":637068},"geometry":{"x":167022.70999999996,"y":2542291.540000001}},{"attributes":{"ID":637096,"DIS_CODE":0,"TOWNNAME":"南區","LI":"金華里","LIN":"6鄰","STREET":"聖南街","SECT":" ","MAREA":" ","LANE":" ","ALLEY":" ","HOUSE_NO":"４６號五樓之４","E_COORD97":167022.70999999999,"N_COORD97":2542291.54,"ADDRESS":"聖南街４６號五樓之４","OBJECTID":637069},"geometry":{"x":167022.70999999996,"y":2542291.540000001}},{"attributes":{"ID":637097,"DIS_CODE":0,"TOWNNAME":"南區","LI":"金華里","LIN":"6鄰","STREET":"聖南街","SECT":" ","MAREA":" ","LANE":" ","ALLEY":" ","HOUSE_NO":"４６號六樓之４","E_COORD97":167022.70999999999,"N_COORD97":2542291.54,"ADDRESS":"聖南街４６號六樓之４","OBJECTID":637070},"geometry":{"x":167022.70999999996,"y":2542291.540000001}},{"attributes":{"ID":637098,"DIS_CODE":0,"TOWNNAME":"南區","LI":"金華里","LIN":"6鄰","STREET":"聖南街","SECT":" ","MAREA":" ","LANE":" ","ALLEY":" ","HOUSE_NO":"４６號四樓之４","E_COORD97":167022.70999999999,"N_COORD97":2542291.54,"ADDRESS":"聖南街４６號四樓之４","OBJECTID":637071},"geometry":{"x":167022.70999999996,"y":2542291.540000001}},{"attributes":{"ID":637099,"DIS_CODE":0,"TOWNNAME":"南區","LI":"金華里","LIN":" ","STREET":"賢南街","SECT":" ","MAREA":" ","LANE":" ","ALLEY":" ","HOUSE_NO":"２５號二樓","E_COORD97":166872.44,"N_COORD97":2542420.0699999998,"ADDRESS":"賢南街２５號二樓","OBJECTID":637072},"geometry":{"x":166872.44000000041,"y":2542420.0700000003}},{"attributes":{"ID":637100,"DIS_CODE":0,"TOWNNAME":"南區","LI":"金華里","LIN":" ","STREET":"賢南街","SECT":" ","MAREA":" ","LANE":" ","ALLEY":" ","HOUSE_NO":"２５號三樓","E_COORD97":166872.44,"N_COORD97":2542420.0699999998,"ADDRESS":"賢南街２５號三樓","OBJECTID":637073},"geometry":{"x":166872.44000000041,"y":2542420.0700000003}},{"attributes":{"ID":637101,"DIS_CODE":0,"TOWNNAME":"南區","LI":"金華里","LIN":" ","STREET":"賢南街","SECT":" ","MAREA":" ","LANE":" ","ALLEY":" ","HOUSE_NO":"２５號五樓","E_COORD97":166872.44,"N_COORD97":2542420.0699999998,"ADDRESS":"賢南街２５號五樓","OBJECTID":637074},"geometry":{"x":166872.44000000041,"y":2542420.0700000003}},{"attributes":{"ID":637102,"DIS_CODE":0,"TOWNNAME":"南區","LI":"金華里","LIN":" ","STREET":"賢南街","SECT":" ","MAREA":" ","LANE":" ","ALLEY":" ","HOUSE_NO":"２７號二樓","E_COORD97":166870.59,"N_COORD97":2542414.0299999998,"ADDRESS":"賢南街２７號二樓","OBJECTID":637075},"geometry":{"x":166870.59000000078,"y":2542414.0300000012}},{"attributes":{"ID":637103,"DIS_CODE":0,"TOWNNAME":"南區","LI":"金華里","LIN":" ","STREET":"賢南街","SECT":" ","MAREA":" ","LANE":" ","ALLEY":" ","HOUSE_NO":"２７號三樓","E_COORD97":166870.59,"N_COORD97":2542414.0299999998,"ADDRESS":"賢南街２７號三樓","OBJECTID":637076},"geometry":{"x":166870.59000000078,"y":2542414.0300000012}},{"attributes":{"ID":637104,"DIS_CODE":0,"TOWNNAME":"南區","LI":"金華里","LIN":" ","STREET":"賢南街","SECT":" ","MAREA":" ","LANE":" ","ALLEY":" ","HOUSE_NO":"２７號四樓","E_COORD97":166870.59,"N_COORD97":2542414.0299999998,"ADDRESS":"賢南街２７號四樓","OBJECTID":637077},"geometry":{"x":166870.59000000078,"y":2542414.0300000012}},{"attributes":{"ID":637105,"DIS_CODE":0,"TOWNNAME":"南區","LI":"金華里","LIN":" ","STREET":"賢南街","SECT":" ","MAREA":" ","LANE":" ","ALLEY":" ","HOUSE_NO":"２７號五樓","E_COORD97":166870.59,"N_COORD97":2542414.0299999998,"ADDRESS":"賢南街２７號五樓","OBJECTID":637078},"geometry":{"x":166870.59000000078,"y":2542414.0300000012}},{"attributes":{"ID":637106,"DIS_CODE":0,"TOWNNAME":"南區","LI":"金華里","LIN":"10鄰","STREET":"聖南街","SECT":" ","MAREA":" ","LANE":" ","ALLEY":" ","HOUSE_NO":"９９號三樓之２","E_COORD97":166925.91,"N_COORD97":2542237.4700000002,"ADDRESS":"聖南街９９號三樓之２","OBJECTID":637079},"geometry":{"x":166925.91000000108,"y":2542237.4700000007}},{"attributes":{"ID":637107,"DIS_CODE":0,"TOWNNAME":"南區","LI":"金華里","LIN":"10鄰","STREET":"聖南街","SECT":" ","MAREA":" ","LANE":" ","ALLEY":" ","HOUSE_NO":"９９號五樓","E_COORD97":166925.91,"N_COORD97":2542237.4700000002,"ADDRESS":"聖南街９９號五樓","OBJECTID":637080},"geometry":{"x":166925.91000000108,"y":2542237.4700000007}},{"attributes":{"ID":637108,"DIS_CODE":0,"TOWNNAME":"南區","LI":"金華里","LIN":"10鄰","STREET":"聖南街","SECT":" ","MAREA":" ","LANE":" ","ALLEY":" ","HOUSE_NO":"９９號四樓之１","E_COORD97":166925.91,"N_COORD97":2542237.4700000002,"ADDRESS":"聖南街９９號四樓之１","OBJECTID":637081},"geometry":{"x":166925.91000000108,"y":2542237.4700000007}},{"attributes":{"ID":637109,"DIS_CODE":0,"TOWNNAME":"南區","LI":"金華里","LIN":"10鄰","STREET":"聖南街","SECT":" ","MAREA":" ","LANE":" ","ALLEY":" ","HOUSE_NO":"９９號四樓之２","E_COORD97":166925.91,"N_COORD97":2542237.4700000002,"ADDRESS":"聖南街９９號四樓之２","OBJECTID":637082},"geometry":{"x":166925.91000000108,"y":2542237.4700000007}},{"attributes":{"ID":637110,"DIS_CODE":0,"TOWNNAME":"南區","LI":"金華里","LIN":"20鄰","STREET":"尊南街","SECT":" ","MAREA":" ","LANE":" ","ALLEY":" ","HOUSE_NO":"２５１號五樓之九","E_COORD97":166842.81,"N_COORD97":2542371.6699999999,"ADDRESS":"尊南街２５１號五樓之九","OBJECTID":637083},"geometry":{"x":166842.81000000145,"y":2542371.6699999981}},{"attributes":{"ID":637111,"DIS_CODE":0,"TOWNNAME":"東區","LI":"東安里","LIN":"4鄰","STREET":"東門路","SECT":"二段","MAREA":" ","LANE":" ","ALLEY":" ","HOUSE_NO":"２３號","E_COORD97":169975.75,"N_COORD97":2543005.54,"ADDRESS":"東門路二段２３號","OBJECTID":637084},"geometry":{"x":169975.75,"y":2543005.5399999991}},{"attributes":{"ID":637112,"DIS_CODE":0,"TOWNNAME":"南區","LI":"金華里","LIN":" ","STREET":"尊南街","SECT":" ","MAREA":" ","LANE":" ","ALLEY":" ","HOUSE_NO":"２５３號三樓之３","E_COORD97":166844.89000000001,"N_COORD97":2542384.3300000001,"ADDRESS":"尊南街２５３號三樓之３","OBJECTID":637085},"geometry":{"x":166844.88999999966,"y":2542384.3299999982}},{"attributes":{"ID":637113,"DIS_CODE":0,"TOWNNAME":"南區","LI":"金華里","LIN":" ","STREET":"尊南街","SECT":" ","MAREA":" ","LANE":" ","ALLEY":" ","HOUSE_NO":"２５３號五樓之３","E_COORD97":166844.89000000001,"N_COORD97":2542384.3300000001,"ADDRESS":"尊南街２５３號五樓之３","OBJECTID":637086},"geometry":{"x":166844.88999999966,"y":2542384.3299999982}},{"attributes":{"ID":637114,"DIS_CODE":0,"TOWNNAME":"南區","LI":"金華里","LIN":"21鄰","STREET":"賢南街","SECT":" ","MAREA":" ","LANE":" ","ALLEY":" ","HOUSE_NO":"５３號三樓之１","E_COORD97":166781.41,"N_COORD97":2542397.1000000001,"ADDRESS":"賢南街５３號三樓之１","OBJECTID":637087},"geometry":{"x":166781.41000000015,"y":2542397.1000000015}},{"attributes":{"ID":637115,"DIS_CODE":0,"TOWNNAME":"南區","LI":"金華里","LIN":"21鄰","STREET":"賢南街","SECT":" ","MAREA":" ","LANE":" ","ALLEY":" ","HOUSE_NO":"５３號三樓之２","E_COORD97":166781.41,"N_COORD97":2542397.1000000001,"ADDRESS":"賢南街５３號三樓之２","OBJECTID":637088},"geometry":{"x":166781.41000000015,"y":2542397.1000000015}},{"attributes":{"ID":637116,"DIS_CODE":0,"TOWNNAME":"南區","LI":"金華里","LIN":"21鄰","STREET":"賢南街","SECT":" ","MAREA":" ","LANE":" ","ALLEY":" ","HOUSE_NO":"５３號五樓之１","E_COORD97":166781.41,"N_COORD97":2542397.1000000001,"ADDRESS":"賢南街５３號五樓之１","OBJECTID":637089},"geometry":{"x":166781.41000000015,"y":2542397.1000000015}},{"attributes":{"ID":637117,"DIS_CODE":0,"TOWNNAME":"南區","LI":"金華里","LIN":"21鄰","STREET":"賢南街","SECT":" ","MAREA":" ","LANE":" ","ALLEY":" ","HOUSE_NO":"５３號五樓之２","E_COORD97":166781.41,"N_COORD97":2542397.1000000001,"ADDRESS":"賢南街５３號五樓之２","OBJECTID":637090},"geometry":{"x":166781.41000000015,"y":2542397.1000000015}},{"attributes":{"ID":637118,"DIS_CODE":0,"TOWNNAME":"南區","LI":"金華里","LIN":"21鄰","STREET":"賢南街","SECT":" ","MAREA":" ","LANE":" ","ALLEY":" ","HOUSE_NO":"５３號五樓之３","E_COORD97":166781.41,"N_COORD97":2542397.1000000001,"ADDRESS":"賢南街５３號五樓之３","OBJECTID":637091},"geometry":{"x":166781.41000000015,"y":2542397.1000000015}},{"attributes":{"ID":637119,"DIS_CODE":0,"TOWNNAME":"南區","LI":"金華里","LIN":"21鄰","STREET":"賢南街","SECT":" ","MAREA":" ","LANE":" ","ALLEY":" ","HOUSE_NO":"５３號五樓之５","E_COORD97":166781.41,"N_COORD97":2542397.1000000001,"ADDRESS":"賢南街５３號五樓之５","OBJECTID":637092},"geometry":{"x":166781.41000000015,"y":2542397.1000000015}},{"attributes":{"ID":637120,"DIS_CODE":0,"TOWNNAME":"南區","LI":"金華里","LIN":"21鄰","STREET":"賢南街","SECT":" ","MAREA":" ","LANE":" ","ALLEY":" ","HOUSE_NO":"５３號六樓之１","E_COORD97":166781.41,"N_COORD97":2542397.1000000001,"ADDRESS":"賢南街５３號六樓之１","OBJECTID":637093},"geometry":{"x":166781.41000000015,"y":2542397.1000000015}},{"attributes":{"ID":637121,"DIS_CODE":0,"TOWNNAME":"南區","LI":"金華里","LIN":"21鄰","STREET":"賢南街","SECT":" ","MAREA":" ","LANE":" ","ALLEY":" ","HOUSE_NO":"５３號六樓之２","E_COORD97":166781.41,"N_COORD97":2542397.1000000001,"ADDRESS":"賢南街５３號六樓之２","OBJECTID":637094},"geometry":{"x":166781.41000000015,"y":2542397.1000000015}},{"attributes":{"ID":637122,"DIS_CODE":0,"TOWNNAME":"南區","LI":"金華里","LIN":"21鄰","STREET":"賢南街","SECT":" ","MAREA":" ","LANE":" ","ALLEY":" ","HOUSE_NO":"５３號六樓之３","E_COORD97":166781.41,"N_COORD97":2542397.1000000001,"ADDRESS":"賢南街５３號六樓之３","OBJECTID":637095},"geometry":{"x":166781.41000000015,"y":2542397.1000000015}},{"attributes":{"ID":637123,"DIS_CODE":0,"TOWNNAME":"南區","LI":"金華里","LIN":"21鄰","STREET":"賢南街","SECT":" ","MAREA":" ","LANE":" ","ALLEY":" ","HOUSE_NO":"５３號四樓之１","E_COORD97":166781.41,"N_COORD97":2542397.1000000001,"ADDRESS":"賢南街５３號四樓之１","OBJECTID":637096},"geometry":{"x":166781.41000000015,"y":2542397.1000000015}},{"attributes":{"ID":637124,"DIS_CODE":0,"TOWNNAME":"南區","LI":"金華里","LIN":"21鄰","STREET":"賢南街","SECT":" ","MAREA":" ","LANE":" ","ALLEY":" ","HOUSE_NO":"５３號四樓之２","E_COORD97":166781.41,"N_COORD97":2542397.1000000001,"ADDRESS":"賢南街５３號四樓之２","OBJECTID":637097},"geometry":{"x":166781.41000000015,"y":2542397.1000000015}},{"attributes":{"ID":637125,"DIS_CODE":0,"TOWNNAME":"南區","LI":"金華里","LIN":"21鄰","STREET":"賢南街","SECT":" ","MAREA":" ","LANE":" ","ALLEY":" ","HOUSE_NO":"５３號四樓之３","E_COORD97":166781.41,"N_COORD97":2542397.1000000001,"ADDRESS":"賢南街５３號四樓之３","OBJECTID":637098},"geometry":{"x":166781.41000000015,"y":2542397.1000000015}},{"attributes":{"ID":637126,"DIS_CODE":0,"TOWNNAME":"南區","LI":"金華里","LIN":"21鄰","STREET":"賢南街","SECT":" ","MAREA":" ","LANE":" ","ALLEY":" ","HOUSE_NO":"５３號四樓之５","E_COORD97":166781.41,"N_COORD97":2542397.1000000001,"ADDRESS":"賢南街５３號四樓之５","OBJECTID":637099},"geometry":{"x":166781.41000000015,"y":2542397.1000000015}},{"attributes":{"ID":637127,"DIS_CODE":0,"TOWNNAME":"南區","LI":"金華里","LIN":"21鄰","STREET":"賢南街","SECT":" ","MAREA":" ","LANE":" ","ALLEY":" ","HOUSE_NO":"５３號二樓之１","E_COORD97":166781.41,"N_COORD97":2542397.1000000001,"ADDRESS":"賢南街５３號二樓之１","OBJECTID":637100},"geometry":{"x":166781.41000000015,"y":2542397.1000000015}},{"attributes":{"ID":637128,"DIS_CODE":0,"TOWNNAME":"南區","LI":"金華里","LIN":"21鄰","STREET":"賢南街","SECT":" ","MAREA":" ","LANE":" ","ALLEY":" ","HOUSE_NO":"５３號二樓之２","E_COORD97":166781.41,"N_COORD97":2542397.1000000001,"ADDRESS":"賢南街５３號二樓之２","OBJECTID":637101},"geometry":{"x":166781.41000000015,"y":2542397.1000000015}},{"attributes":{"ID":637129,"DIS_CODE":0,"TOWNNAME":"南區","LI":"金華里","LIN":"21鄰","STREET":"惠南街","SECT":" ","MAREA":" ","LANE":" ","ALLEY":" ","HOUSE_NO":"１０６號二樓之１","E_COORD97":166750.31,"N_COORD97":2542351.6099999999,"ADDRESS":"惠南街１０６號二樓之１","OBJECTID":637102},"geometry":{"x":166750.31000000052,"y":2542351.6100000031}},{"attributes":{"ID":637130,"DIS_CODE":0,"TOWNNAME":"南區","LI":"金華里","LIN":"21鄰","STREET":"惠南街","SECT":" ","MAREA":" ","LANE":" ","ALLEY":" ","HOUSE_NO":"１０６號二樓之２","E_COORD97":166750.31,"N_COORD97":2542351.6099999999,"ADDRESS":"惠南街１０６號二樓之２","OBJECTID":637103},"geometry":{"x":166750.31000000052,"y":2542351.6100000031}},{"attributes":{"ID":637131,"DIS_CODE":0,"TOWNNAME":"南區","LI":"金華里","LIN":"21鄰","STREET":"惠南街","SECT":" ","MAREA":" ","LANE":" ","ALLEY":" ","HOUSE_NO":"１０６號三樓之１","E_COORD97":166750.31,"N_COORD97":2542351.6099999999,"ADDRESS":"惠南街１０６號三樓之１","OBJECTID":637104},"geometry":{"x":166750.31000000052,"y":2542351.6100000031}},{"attributes":{"ID":637132,"DIS_CODE":0,"TOWNNAME":"南區","LI":"金華里","LIN":"21鄰","STREET":"惠南街","SECT":" ","MAREA":" ","LANE":" ","ALLEY":" ","HOUSE_NO":"１０６號三樓之２","E_COORD97":166750.31,"N_COORD97":2542351.6099999999,"ADDRESS":"惠南街１０６號三樓之２","OBJECTID":637105},"geometry":{"x":166750.31000000052,"y":2542351.6100000031}},{"attributes":{"ID":637133,"DIS_CODE":0,"TOWNNAME":"南區","LI":"金華里","LIN":"21鄰","STREET":"惠南街","SECT":" ","MAREA":" ","LANE":" ","ALLEY":" ","HOUSE_NO":"１０６號五樓","E_COORD97":166750.31,"N_COORD97":2542351.6099999999,"ADDRESS":"惠南街１０６號五樓","OBJECTID":637106},"geometry":{"x":166750.31000000052,"y":2542351.6100000031}},{"attributes":{"ID":637134,"DIS_CODE":0,"TOWNNAME":"南區","LI":"金華里","LIN":"21鄰","STREET":"惠南街","SECT":" ","MAREA":" ","LANE":" ","ALLEY":" ","HOUSE_NO":"１０６號四樓之１","E_COORD97":166750.31,"N_COORD97":2542351.6099999999,"ADDRESS":"惠南街１０６號四樓之１","OBJECTID":637107},"geometry":{"x":166750.31000000052,"y":2542351.6100000031}},{"attributes":{"ID":637135,"DIS_CODE":0,"TOWNNAME":"南區","LI":"金華里","LIN":"21鄰","STREET":"惠南街","SECT":" ","MAREA":" ","LANE":" ","ALLEY":" ","HOUSE_NO":"１０６號四樓之２","E_COORD97":166750.31,"N_COORD97":2542351.6099999999,"ADDRESS":"惠南街１０６號四樓之２","OBJECTID":637108},"geometry":{"x":166750.31000000052,"y":2542351.6100000031}},{"attributes":{"ID":637136,"DIS_CODE":0,"TOWNNAME":"南區","LI":"金華里","LIN":"21鄰","STREET":"惠南街","SECT":" ","MAREA":" ","LANE":" ","ALLEY":" ","HOUSE_NO":"１０８號一樓之１","E_COORD97":166767.60999999999,"N_COORD97":2542354.7400000002,"ADDRESS":"惠南街１０８號一樓之１","OBJECTID":637109},"geometry":{"x":166767.61000000127,"y":2542354.7400000039}},{"attributes":{"ID":637137,"DIS_CODE":0,"TOWNNAME":"南區","LI":"金華里","LIN":"21鄰","STREET":"惠南街","SECT":" ","MAREA":" ","LANE":" ","ALLEY":" ","HOUSE_NO":"１０８號二樓之１","E_COORD97":166767.60999999999,"N_COORD97":2542354.7400000002,"ADDRESS":"惠南街１０８號二樓之１","OBJECTID":637110},"geometry":{"x":166767.61000000127,"y":2542354.7400000039}},{"attributes":{"ID":637138,"DIS_CODE":0,"TOWNNAME":"南區","LI":"金華里","LIN":"21鄰","STREET":"惠南街","SECT":" ","MAREA":" ","LANE":" ","ALLEY":" ","HOUSE_NO":"１０８號二樓之２","E_COORD97":166767.60999999999,"N_COORD97":2542354.7400000002,"ADDRESS":"惠南街１０８號二樓之２","OBJECTID":637111},"geometry":{"x":166767.61000000127,"y":2542354.7400000039}},{"attributes":{"ID":637139,"DIS_CODE":0,"TOWNNAME":"南區","LI":"金華里","LIN":"21鄰","STREET":"惠南街","SECT":" ","MAREA":" ","LANE":" ","ALLEY":" ","HOUSE_NO":"１０８號二樓之３","E_COORD97":166767.60999999999,"N_COORD97":2542354.7400000002,"ADDRESS":"惠南街１０８號二樓之３","OBJECTID":637112},"geometry":{"x":166767.61000000127,"y":2542354.7400000039}},{"attributes":{"ID":637140,"DIS_CODE":0,"TOWNNAME":"南區","LI":"金華里","LIN":"21鄰","STREET":"惠南街","SECT":" ","MAREA":" ","LANE":" ","ALLEY":" ","HOUSE_NO":"１０８號二樓之４","E_COORD97":166767.60999999999,"N_COORD97":2542354.7400000002,"ADDRESS":"惠南街１０８號二樓之４","OBJECTID":637113},"geometry":{"x":166767.61000000127,"y":2542354.7400000039}},{"attributes":{"ID":637141,"DIS_CODE":0,"TOWNNAME":"南區","LI":"金華里","LIN":"21鄰","STREET":"惠南街","SECT":" ","MAREA":" ","LANE":" ","ALLEY":" ","HOUSE_NO":"１０８號二樓之５","E_COORD97":166767.60999999999,"N_COORD97":2542354.7400000002,"ADDRESS":"惠南街１０８號二樓之５","OBJECTID":637114},"geometry":{"x":166767.61000000127,"y":2542354.7400000039}},{"attributes":{"ID":637142,"DIS_CODE":0,"TOWNNAME":"南區","LI":"金華里","LIN":"21鄰","STREET":"惠南街","SECT":" ","MAREA":" ","LANE":" ","ALLEY":" ","HOUSE_NO":"１０８號三樓之１","E_COORD97":166767.60999999999,"N_COORD97":2542354.7400000002,"ADDRESS":"惠南街１０８號三樓之１","OBJECTID":637115},"geometry":{"x":166767.61000000127,"y":2542354.7400000039}},{"attributes":{"ID":637143,"DIS_CODE":0,"TOWNNAME":"新營區","LI":"延平里","LIN":" ","STREET":"延平路","SECT":" ","MAREA":" ","LANE":" ","ALLEY":" ","HOUSE_NO":"４０之２號七樓之１","E_COORD97":179768.34,"N_COORD97":2577845.1899999999,"ADDRESS":"延平路４０之２號七樓之１","OBJECTID":637116},"geometry":{"x":179768.33999999985,"y":2577845.1900000013}},{"attributes":{"ID":637144,"DIS_CODE":0,"TOWNNAME":"新營區","LI":"永生里","LIN":" ","STREET":"康樂街","SECT":" ","MAREA":" ","LANE":" ","ALLEY":" ","HOUSE_NO":"１６之２號三樓之５","E_COORD97":179970.23000000001,"N_COORD97":2577908.4700000002,"ADDRESS":"康樂街１６之２號三樓之５","OBJECTID":637117},"geometry":{"x":179970.23000000138,"y":2577908.4700000044}},{"attributes":{"ID":637145,"DIS_CODE":0,"TOWNNAME":"新營區","LI":"新南里","LIN":"24鄰","STREET":"金華路","SECT":"二段","MAREA":" ","LANE":" ","ALLEY":" ","HOUSE_NO":"１８０號三樓之１","E_COORD97":178387.51000000001,"N_COORD97":2578561.6800000002,"ADDRESS":"金華路二段１８０號三樓之１","OBJECTID":637118},"geometry":{"x":178387.51000000164,"y":2578561.6800000016}},{"attributes":{"ID":637146,"DIS_CODE":0,"TOWNNAME":"新營區","LI":"新南里","LIN":"24鄰","STREET":"金華路","SECT":"二段","MAREA":" ","LANE":" ","ALLEY":" ","HOUSE_NO":"１８０號十二樓之１","E_COORD97":178388.76000000001,"N_COORD97":2578561.6800000002,"ADDRESS":"金華路二段１８０號十二樓之１","OBJECTID":637119},"geometry":{"x":178388.75999999978,"y":2578561.6800000016}},{"attributes":{"ID":637147,"DIS_CODE":0,"TOWNNAME":"新營區","LI":"新南里","LIN":"24鄰","STREET":"金華路","SECT":"二段","MAREA":" ","LANE":" ","ALLEY":" ","HOUSE_NO":"１８０號五樓之１","E_COORD97":178387.51000000001,"N_COORD97":2578561.6800000002,"ADDRESS":"金華路二段１８０號五樓之１","OBJECTID":637120},"geometry":{"x":178387.51000000164,"y":2578561.6800000016}},{"attributes":{"ID":637148,"DIS_CODE":0,"TOWNNAME":"新營區","LI":"興業里","LIN":"20鄰","STREET":"中山路","SECT":" ","MAREA":" ","LANE":" ","ALLEY":" ","HOUSE_NO":"１１５號十三樓之１","E_COORD97":180280.45000000001,"N_COORD97":2578215.9900000002,"ADDRESS":"中山路１１５號十三樓之１","OBJECTID":637121},"geometry":{"x":180280.45000000112,"y":2578215.9900000002}},{"attributes":{"ID":637149,"DIS_CODE":0,"TOWNNAME":"新營區","LI":"大宏里","LIN":" ","STREET":"中正路","SECT":" ","MAREA":" ","LANE":" ","ALLEY":" ","HOUSE_NO":"１０號４樓","E_COORD97":180078.51000000001,"N_COORD97":2578674.25,"ADDRESS":"中正路１０號４樓","OBJECTID":637122},"geometry":{"x":180078.50999999978,"y":2578674.25}},{"attributes":{"ID":637150,"DIS_CODE":0,"TOWNNAME":"新營區","LI":"忠政里","LIN":"32鄰","STREET":"府西路","SECT":" ","MAREA":" ","LANE":" ","ALLEY":" ","HOUSE_NO":"３５號三樓","E_COORD97":179804.89000000001,"N_COORD97":2578977.8799999999,"ADDRESS":"府西路３５號三樓","OBJECTID":637123},"geometry":{"x":179804.88999999966,"y":2578977.879999999}},{"attributes":{"ID":637151,"DIS_CODE":0,"TOWNNAME":"新營區","LI":"三仙里","LIN":"24鄰","STREET":"三興街","SECT":" ","MAREA":" ","LANE":" ","ALLEY":" ","HOUSE_NO":"５２之２號三樓之２","E_COORD97":179452.01000000001,"N_COORD97":2578890.6899999999,"ADDRESS":"三興街５２之２號三樓之２","OBJECTID":637124},"geometry":{"x":179452.00999999885,"y":2578890.6900000013}},{"attributes":{"ID":637152,"DIS_CODE":0,"TOWNNAME":"新營區","LI":"忠政里","LIN":"32鄰","STREET":"府西路","SECT":" ","MAREA":" ","LANE":" ","ALLEY":" ","HOUSE_NO":"３５號五樓","E_COORD97":179804.89000000001,"N_COORD97":2578977.8799999999,"ADDRESS":"府西路３５號五樓","OBJECTID":637125},"geometry":{"x":179804.88999999966,"y":2578977.879999999}},{"attributes":{"ID":637153,"DIS_CODE":0,"TOWNNAME":"新營區","LI":"民榮里","LIN":"34鄰","STREET":"復興路","SECT":" ","MAREA":" ","LANE":" ","ALLEY":" ","HOUSE_NO":"３０１號十七樓之４","E_COORD97":178609.81,"N_COORD97":2578135.3500000001,"ADDRESS":"復興路３０１號十七樓之４","OBJECTID":637126},"geometry":{"x":178609.81000000052,"y":2578135.3500000034}},{"attributes":{"ID":637154,"DIS_CODE":0,"TOWNNAME":"新營區","LI":"民榮里","LIN":"34鄰","STREET":"復興路","SECT":" ","MAREA":" ","LANE":" ","ALLEY":" ","HOUSE_NO":"３０１號七樓之４","E_COORD97":178608.56,"N_COORD97":2578135.3500000001,"ADDRESS":"復興路３０１號七樓之４","OBJECTID":637127},"geometry":{"x":178608.55999999959,"y":2578135.3500000034}},{"attributes":{"ID":637155,"DIS_CODE":0,"TOWNNAME":"新營區","LI":"民權里","LIN":" ","STREET":"博愛街","SECT":" ","MAREA":" ","LANE":" ","ALLEY":" ","HOUSE_NO":"３５號６樓","E_COORD97":179942.10000000001,"N_COORD97":2578144.4300000002,"ADDRESS":"博愛街３５號６樓","OBJECTID":637128},"geometry":{"x":179942.09999999963,"y":2578144.4299999997}},{"attributes":{"ID":637156,"DIS_CODE":0,"TOWNNAME":"歸仁區","LI":"辜厝里","LIN":"19鄰","STREET":"大順一街","SECT":" ","MAREA":" ","LANE":" ","ALLEY":" ","HOUSE_NO":"３號五樓","E_COORD97":177457.67999999999,"N_COORD97":2540505.9500000002,"ADDRESS":"大順一街３號五樓","OBJECTID":637129},"geometry":{"x":177457.68000000063,"y":2540505.9500000011}},{"attributes":{"ID":637157,"DIS_CODE":0,"TOWNNAME":"北區","LI":"成功里","LIN":"1鄰","STREET":"西門路","SECT":"四段","MAREA":" ","LANE":" ","ALLEY":" ","HOUSE_NO":"４５５號三樓之１","E_COORD97":169211.01999999999,"N_COORD97":2546487.04,"ADDRESS":"西門路四段４５５號三樓之１","OBJECTID":637130},"geometry":{"x":169211.01999999955,"y":2546487.0399999991}},{"attributes":{"ID":637158,"DIS_CODE":0,"TOWNNAME":"北區","LI":"成功里","LIN":"1鄰","STREET":"西門路","SECT":"四段","MAREA":" ","LANE":" ","ALLEY":" ","HOUSE_NO":"４５５號三樓之２","E_COORD97":169211.01999999999,"N_COORD97":2546487.04,"ADDRESS":"西門路四段４５５號三樓之２","OBJECTID":637131},"geometry":{"x":169211.01999999955,"y":2546487.0399999991}},{"attributes":{"ID":637159,"DIS_CODE":0,"TOWNNAME":"北區","LI":"成功里","LIN":"1鄰","STREET":"西門路","SECT":"四段","MAREA":" ","LANE":" ","ALLEY":" ","HOUSE_NO":"４５５號三樓之３","E_COORD97":169211.01999999999,"N_COORD97":2546487.04,"ADDRESS":"西門路四段４５５號三樓之３","OBJECTID":637132},"geometry":{"x":169211.01999999955,"y":2546487.0399999991}},{"attributes":{"ID":637160,"DIS_CODE":0,"TOWNNAME":"北區","LI":"成功里","LIN":"1鄰","STREET":"西門路","SECT":"四段","MAREA":" ","LANE":" ","ALLEY":" ","HOUSE_NO":"４５５號五樓之１","E_COORD97":169211.01999999999,"N_COORD97":2546487.04,"ADDRESS":"西門路四段４５５號五樓之１","OBJECTID":637133},"geometry":{"x":169211.01999999955,"y":2546487.0399999991}},{"attributes":{"ID":637161,"DIS_CODE":0,"TOWNNAME":"北區","LI":"成功里","LIN":"1鄰","STREET":"西門路","SECT":"四段","MAREA":" ","LANE":" ","ALLEY":" ","HOUSE_NO":"４５５號五樓之２","E_COORD97":169211.01999999999,"N_COORD97":2546487.04,"ADDRESS":"西門路四段４５５號五樓之２","OBJECTID":637134},"geometry":{"x":169211.01999999955,"y":2546487.0399999991}},{"attributes":{"ID":637162,"DIS_CODE":0,"TOWNNAME":"北區","LI":"成功里","LIN":"1鄰","STREET":"西門路","SECT":"四段","MAREA":" ","LANE":" ","ALLEY":" ","HOUSE_NO":"４５５號五樓之３","E_COORD97":169211.01999999999,"N_COORD97":2546487.04,"ADDRESS":"西門路四段４５５號五樓之３","OBJECTID":637135},"geometry":{"x":169211.01999999955,"y":2546487.0399999991}},{"attributes":{"ID":637163,"DIS_CODE":0,"TOWNNAME":"北區","LI":"成功里","LIN":"1鄰","STREET":"西門路","SECT":"四段","MAREA":" ","LANE":" ","ALLEY":" ","HOUSE_NO":"４５５號六樓之１","E_COORD97":169211.01999999999,"N_COORD97":2546487.04,"ADDRESS":"西門路四段４５５號六樓之１","OBJECTID":637136},"geometry":{"x":169211.01999999955,"y":2546487.0399999991}},{"attributes":{"ID":637164,"DIS_CODE":0,"TOWNNAME":"永康區","LI":"永康里","LIN":"26鄰","STREET":"中山北路","SECT":" ","MAREA":" ","LANE":" ","ALLEY":" ","HOUSE_NO":"８６號","E_COORD97":174077.95999999999,"N_COORD97":2547430.04,"ADDRESS":"中山北路８６號","OBJECTID":637137},"geometry":{"x":174077.96000000089,"y":2547430.0399999991}},{"attributes":{"ID":637165,"DIS_CODE":0,"TOWNNAME":"北區","LI":"成功里","LIN":"1鄰","STREET":"西門路","SECT":"四段","MAREA":" ","LANE":" ","ALLEY":" ","HOUSE_NO":"４５５號六樓之２","E_COORD97":169211.01999999999,"N_COORD97":2546487.04,"ADDRESS":"西門路四段４５５號六樓之２","OBJECTID":637138},"geometry":{"x":169211.01999999955,"y":2546487.0399999991}},{"attributes":{"ID":637166,"DIS_CODE":0,"TOWNNAME":"北區","LI":"成功里","LIN":"1鄰","STREET":"西門路","SECT":"四段","MAREA":" ","LANE":" ","ALLEY":" ","HOUSE_NO":"４５５號六樓之３","E_COORD97":169211.01999999999,"N_COORD97":2546487.04,"ADDRESS":"西門路四段４５５號六樓之３","OBJECTID":637139},"geometry":{"x":169211.01999999955,"y":2546487.0399999991}},{"attributes":{"ID":637167,"DIS_CODE":0,"TOWNNAME":"北區","LI":"成功里","LIN":"1鄰","STREET":"西門路","SECT":"四段","MAREA":" ","LANE":" ","ALLEY":" ","HOUSE_NO":"４５５號六樓之４","E_COORD97":169211.01999999999,"N_COORD97":2546487.04,"ADDRESS":"西門路四段４５５號六樓之４","OBJECTID":637140},"geometry":{"x":169211.01999999955,"y":2546487.0399999991}},{"attributes":{"ID":637168,"DIS_CODE":0,"TOWNNAME":"北區","LI":"成功里","LIN":"1鄰","STREET":"西門路","SECT":"四段","MAREA":" ","LANE":" ","ALLEY":" ","HOUSE_NO":"４５５號六樓之５","E_COORD97":169211.01999999999,"N_COORD97":2546487.04,"ADDRESS":"西門路四段４５５號六樓之５","OBJECTID":637141},"geometry":{"x":169211.01999999955,"y":2546487.0399999991}},{"attributes":{"ID":637169,"DIS_CODE":0,"TOWNNAME":"北區","LI":"成功里","LIN":"1鄰","STREET":"西門路","SECT":"四段","MAREA":" ","LANE":" ","ALLEY":" ","HOUSE_NO":"４５５號六樓之６","E_COORD97":169211.01999999999,"N_COORD97":2546487.04,"ADDRESS":"西門路四段４５５號六樓之６","OBJECTID":637142},"geometry":{"x":169211.01999999955,"y":2546487.0399999991}},{"attributes":{"ID":637170,"DIS_CODE":0,"TOWNNAME":"北區","LI":"成功里","LIN":"1鄰","STREET":"西門路","SECT":"四段","MAREA":" ","LANE":" ","ALLEY":" ","HOUSE_NO":"４５５號六樓之７","E_COORD97":169211.01999999999,"N_COORD97":2546487.04,"ADDRESS":"西門路四段４５５號六樓之７","OBJECTID":637143},"geometry":{"x":169211.01999999955,"y":2546487.0399999991}},{"attributes":{"ID":637171,"DIS_CODE":0,"TOWNNAME":"北區","LI":"成功里","LIN":"1鄰","STREET":"西門路","SECT":"四段","MAREA":" ","LANE":" ","ALLEY":" ","HOUSE_NO":"４５５號四樓之１","E_COORD97":169211.01999999999,"N_COORD97":2546487.04,"ADDRESS":"西門路四段４５５號四樓之１","OBJECTID":637144},"geometry":{"x":169211.01999999955,"y":2546487.0399999991}},{"attributes":{"ID":637172,"DIS_CODE":0,"TOWNNAME":"北區","LI":"成功里","LIN":"1鄰","STREET":"西門路","SECT":"四段","MAREA":" ","LANE":" ","ALLEY":" ","HOUSE_NO":"４５５號四樓之２","E_COORD97":169211.01999999999,"N_COORD97":2546487.04,"ADDRESS":"西門路四段４５５號四樓之２","OBJECTID":637145},"geometry":{"x":169211.01999999955,"y":2546487.0399999991}},{"attributes":{"ID":637173,"DIS_CODE":0,"TOWNNAME":"北區","LI":"成功里","LIN":"1鄰","STREET":"西門路","SECT":"四段","MAREA":" ","LANE":" ","ALLEY":" ","HOUSE_NO":"４５５號四樓之３","E_COORD97":169211.01999999999,"N_COORD97":2546487.04,"ADDRESS":"西門路四段４５５號四樓之３","OBJECTID":637146},"geometry":{"x":169211.01999999955,"y":2546487.0399999991}},{"attributes":{"ID":637174,"DIS_CODE":0,"TOWNNAME":"鹽水區","LI":"三生里","LIN":"1鄰","STREET":"三福路","SECT":" ","MAREA":" ","LANE":" ","ALLEY":" ","HOUSE_NO":"１４號二樓之一","E_COORD97":175079.35999999999,"N_COORD97":2580040,"ADDRESS":"三福路１４號二樓之一","OBJECTID":637147},"geometry":{"x":175079.36000000034,"y":2580039.9999999981}},{"attributes":{"ID":637175,"DIS_CODE":0,"TOWNNAME":"鹽水區","LI":"三生里","LIN":"1鄰","STREET":"三福路","SECT":" ","MAREA":" ","LANE":" ","ALLEY":" ","HOUSE_NO":"１４號二樓之一","E_COORD97":175079.35999999999,"N_COORD97":2580040,"ADDRESS":"三福路１４號二樓之一","OBJECTID":637148},"geometry":{"x":175079.36000000034,"y":2580039.9999999981}},{"attributes":{"ID":637176,"DIS_CODE":0,"TOWNNAME":"鹽水區","LI":"三生里","LIN":"1鄰","STREET":"三福路","SECT":" ","MAREA":" ","LANE":" ","ALLEY":" ","HOUSE_NO":"１４號二樓之二","E_COORD97":175079.35999999999,"N_COORD97":2580040,"ADDRESS":"三福路１４號二樓之二","OBJECTID":637149},"geometry":{"x":175079.36000000034,"y":2580039.9999999981}},{"attributes":{"ID":637177,"DIS_CODE":0,"TOWNNAME":"鹽水區","LI":"三生里","LIN":"1鄰","STREET":"三福路","SECT":" ","MAREA":" ","LANE":" ","ALLEY":" ","HOUSE_NO":"１４號三樓","E_COORD97":175079.35999999999,"N_COORD97":2580040,"ADDRESS":"三福路１４號三樓","OBJECTID":637150},"geometry":{"x":175079.36000000034,"y":2580039.9999999981}},{"attributes":{"ID":637178,"DIS_CODE":0,"TOWNNAME":"佳里區","LI":"安西里","LIN":"56鄰","STREET":"佳安中街","SECT":" ","MAREA":" ","LANE":" ","ALLEY":" ","HOUSE_NO":"５６號","E_COORD97":163858.79000000001,"N_COORD97":2562296.7200000002,"ADDRESS":"佳安中街５６號","OBJECTID":637151},"geometry":{"x":163858.79000000097,"y":2562296.7200000007}},{"attributes":{"ID":637179,"DIS_CODE":0,"TOWNNAME":"北區","LI":"成德里","LIN":"7鄰","STREET":"育德路","SECT":" ","MAREA":" ","LANE":" ","ALLEY":" ","HOUSE_NO":"１２２號三樓","E_COORD97":168512.17000000001,"N_COORD97":2545445.9700000002,"ADDRESS":"育德路１２２號三樓","OBJECTID":637152},"geometry":{"x":168512.17000000179,"y":2545445.9700000044}},{"attributes":{"ID":637180,"DIS_CODE":0,"TOWNNAME":"北區","LI":"成德里","LIN":"7鄰","STREET":"育德路","SECT":" ","MAREA":" ","LANE":" ","ALLEY":" ","HOUSE_NO":"１２２號四樓","E_COORD97":168512.17000000001,"N_COORD97":2545445.9700000002,"ADDRESS":"育德路１２２號四樓","OBJECTID":637153},"geometry":{"x":168512.17000000179,"y":2545445.9700000044}},{"attributes":{"ID":637181,"DIS_CODE":0,"TOWNNAME":"北區","LI":"大仁里","LIN":"4鄰","STREET":"北門路","SECT":"二段","MAREA":" ","LANE":" ","ALLEY":" ","HOUSE_NO":"４１８號二樓","E_COORD97":169649.81,"N_COORD97":2545493.1800000002,"ADDRESS":"北門路二段４１８號二樓","OBJECTID":637154},"geometry":{"x":169649.80999999959,"y":2545493.1799999997}},{"attributes":{"ID":637182,"DIS_CODE":0,"TOWNNAME":"北區","LI":"大仁里","LIN":"4鄰","STREET":"北門路","SECT":"二段","MAREA":" ","LANE":" ","ALLEY":" ","HOUSE_NO":"４１８號二樓之１","E_COORD97":169649.81,"N_COORD97":2545493.1800000002,"ADDRESS":"北門路二段４１８號二樓之１","OBJECTID":637155},"geometry":{"x":169649.80999999959,"y":2545493.1799999997}},{"attributes":{"ID":637183,"DIS_CODE":0,"TOWNNAME":"北區","LI":"大仁里","LIN":"4鄰","STREET":"北門路","SECT":"二段","MAREA":" ","LANE":" ","ALLEY":" ","HOUSE_NO":"４１８號二樓之２","E_COORD97":169649.81,"N_COORD97":2545493.1800000002,"ADDRESS":"北門路二段４１８號二樓之２","OBJECTID":637156},"geometry":{"x":169649.80999999959,"y":2545493.1799999997}},{"attributes":{"ID":637184,"DIS_CODE":0,"TOWNNAME":"北區","LI":"大仁里","LIN":"4鄰","STREET":"北門路","SECT":"二段","MAREA":" ","LANE":" ","ALLEY":" ","HOUSE_NO":"４１８號三樓之１","E_COORD97":169649.81,"N_COORD97":2545493.1800000002,"ADDRESS":"北門路二段４１８號三樓之１","OBJECTID":637157},"geometry":{"x":169649.80999999959,"y":2545493.1799999997}},{"attributes":{"ID":637185,"DIS_CODE":0,"TOWNNAME":"北區","LI":"大仁里","LIN":"4鄰","STREET":"北門路","SECT":"二段","MAREA":" ","LANE":" ","ALLEY":" ","HOUSE_NO":"４１８號三樓之２","E_COORD97":169649.81,"N_COORD97":2545493.1800000002,"ADDRESS":"北門路二段４１８號三樓之２","OBJECTID":637158},"geometry":{"x":169649.80999999959,"y":2545493.1799999997}},{"attributes":{"ID":637186,"DIS_CODE":0,"TOWNNAME":"北區","LI":"大仁里","LIN":"4鄰","STREET":"北門路","SECT":"二段","MAREA":" ","LANE":" ","ALLEY":" ","HOUSE_NO":"４１８號五樓之１","E_COORD97":169649.81,"N_COORD97":2545493.1800000002,"ADDRESS":"北門路二段４１８號五樓之１","OBJECTID":637159},"geometry":{"x":169649.80999999959,"y":2545493.1799999997}},{"attributes":{"ID":637187,"DIS_CODE":0,"TOWNNAME":"北區","LI":"大仁里","LIN":"4鄰","STREET":"北門路","SECT":"二段","MAREA":" ","LANE":" ","ALLEY":" ","HOUSE_NO":"４１８號五樓之２","E_COORD97":169649.81,"N_COORD97":2545493.1800000002,"ADDRESS":"北門路二段４１８號五樓之２","OBJECTID":637160},"geometry":{"x":169649.80999999959,"y":2545493.1799999997}},{"attributes":{"ID":637188,"DIS_CODE":0,"TOWNNAME":"北區","LI":"大仁里","LIN":"4鄰","STREET":"北門路","SECT":"二段","MAREA":" ","LANE":" ","ALLEY":" ","HOUSE_NO":"４１８號四樓之１","E_COORD97":169649.81,"N_COORD97":2545493.1800000002,"ADDRESS":"北門路二段４１８號四樓之１","OBJECTID":637161},"geometry":{"x":169649.80999999959,"y":2545493.1799999997}},{"attributes":{"ID":637189,"DIS_CODE":0,"TOWNNAME":"北區","LI":"大仁里","LIN":"4鄰","STREET":"北門路","SECT":"二段","MAREA":" ","LANE":" ","ALLEY":" ","HOUSE_NO":"４１８號四樓之２","E_COORD97":169649.81,"N_COORD97":2545493.1800000002,"ADDRESS":"北門路二段４１８號四樓之２","OBJECTID":637162},"geometry":{"x":169649.80999999959,"y":2545493.1799999997}},{"attributes":{"ID":637190,"DIS_CODE":0,"TOWNNAME":"安平區","LI":"國平里","LIN":"20鄰","STREET":"育平五街","SECT":" ","MAREA":" ","LANE":" ","ALLEY":" ","HOUSE_NO":"６號二十二樓之１３","E_COORD97":164895.03,"N_COORD97":2543486.02,"ADDRESS":"育平五街６號二十二樓之１３","OBJECTID":637163},"geometry":{"x":164895.03000000119,"y":2543486.0200000014}},{"attributes":{"ID":637191,"DIS_CODE":0,"TOWNNAME":"安平區","LI":"育平里","LIN":"24鄰","STREET":"郡平路","SECT":" ","MAREA":" ","LANE":" ","ALLEY":" ","HOUSE_NO":"１８１號十四樓之８","E_COORD97":164638.45000000001,"N_COORD97":2543300.3100000001,"ADDRESS":"郡平路１８１號十四樓之８","OBJECTID":637164},"geometry":{"x":164638.45000000019,"y":2543300.3099999987}},{"attributes":{"ID":637192,"DIS_CODE":0,"TOWNNAME":"安平區","LI":"育平里","LIN":"24鄰","STREET":"郡平路","SECT":" ","MAREA":" ","LANE":" ","ALLEY":" ","HOUSE_NO":"１８１號十四樓之９","E_COORD97":164638.45000000001,"N_COORD97":2543300.3100000001,"ADDRESS":"郡平路１８１號十四樓之９","OBJECTID":637165},"geometry":{"x":164638.45000000019,"y":2543300.3099999987}},{"attributes":{"ID":637193,"DIS_CODE":0,"TOWNNAME":"安平區","LI":"育平里","LIN":"24鄰","STREET":"郡平路","SECT":" ","MAREA":" ","LANE":" ","ALLEY":" ","HOUSE_NO":"１８１號十樓之１","E_COORD97":164638.45000000001,"N_COORD97":2543300.3100000001,"ADDRESS":"郡平路１８１號十樓之１","OBJECTID":637166},"geometry":{"x":164638.45000000019,"y":2543300.3099999987}},{"attributes":{"ID":637194,"DIS_CODE":0,"TOWNNAME":"北區","LI":"玉皇里","LIN":"14鄰","STREET":"成功路","SECT":" ","MAREA":" ","LANE":" ","ALLEY":" ","HOUSE_NO":"１２０號六樓之４","E_COORD97":168513.31,"N_COORD97":2544355.96,"ADDRESS":"成功路１２０號六樓之４","OBJECTID":637167},"geometry":{"x":168513.31000000052,"y":2544355.9600000028}},{"attributes":{"ID":637195,"DIS_CODE":0,"TOWNNAME":"北區","LI":"玉皇里","LIN":"14鄰","STREET":"成功路","SECT":" ","MAREA":" ","LANE":" ","ALLEY":" ","HOUSE_NO":"１２０號四樓之１","E_COORD97":168513.31,"N_COORD97":2544355.96,"ADDRESS":"成功路１２０號四樓之１","OBJECTID":637168},"geometry":{"x":168513.31000000052,"y":2544355.9600000028}},{"attributes":{"ID":637196,"DIS_CODE":0,"TOWNNAME":"北區","LI":"玉皇里","LIN":"14鄰","STREET":"成功路","SECT":" ","MAREA":" ","LANE":" ","ALLEY":" ","HOUSE_NO":"１２０號四樓之２","E_COORD97":168513.31,"N_COORD97":2544355.96,"ADDRESS":"成功路１２０號四樓之２","OBJECTID":637169},"geometry":{"x":168513.31000000052,"y":2544355.9600000028}},{"attributes":{"ID":637197,"DIS_CODE":0,"TOWNNAME":"北區","LI":"玉皇里","LIN":"14鄰","STREET":"成功路","SECT":" ","MAREA":" ","LANE":" ","ALLEY":" ","HOUSE_NO":"１２０號四樓之３","E_COORD97":168513.31,"N_COORD97":2544355.96,"ADDRESS":"成功路１２０號四樓之３","OBJECTID":637170},"geometry":{"x":168513.31000000052,"y":2544355.9600000028}},{"attributes":{"ID":637198,"DIS_CODE":0,"TOWNNAME":"北區","LI":"玉皇里","LIN":"14鄰","STREET":"成功路","SECT":" ","MAREA":" ","LANE":" ","ALLEY":" ","HOUSE_NO":"１２０號四樓之４","E_COORD97":168513.31,"N_COORD97":2544355.96,"ADDRESS":"成功路１２０號四樓之４","OBJECTID":637171},"geometry":{"x":168513.31000000052,"y":2544355.9600000028}},{"attributes":{"ID":637199,"DIS_CODE":0,"TOWNNAME":"北區","LI":"玉皇里","LIN":"14鄰","STREET":"忠義路","SECT":"三段","MAREA":" ","LANE":" ","ALLEY":" ","HOUSE_NO":"２２號七樓之１","E_COORD97":168537.85999999999,"N_COORD97":2544419.5800000001,"ADDRESS":"忠義路三段２２號七樓之１","OBJECTID":637172},"geometry":{"x":168537.86000000034,"y":2544419.5800000001}},{"attributes":{"ID":637200,"DIS_CODE":0,"TOWNNAME":"北區","LI":"玉皇里","LIN":"14鄰","STREET":"忠義路","SECT":"三段","MAREA":" ","LANE":" ","ALLEY":" ","HOUSE_NO":"２２號七樓之２","E_COORD97":168537.85999999999,"N_COORD97":2544419.5800000001,"ADDRESS":"忠義路三段２２號七樓之２","OBJECTID":637173},"geometry":{"x":168537.86000000034,"y":2544419.5800000001}},{"attributes":{"ID":637201,"DIS_CODE":0,"TOWNNAME":"北區","LI":"玉皇里","LIN":"14鄰","STREET":"忠義路","SECT":"三段","MAREA":" ","LANE":" ","ALLEY":" ","HOUSE_NO":"２２號七樓之３","E_COORD97":168537.85999999999,"N_COORD97":2544419.5800000001,"ADDRESS":"忠義路三段２２號七樓之３","OBJECTID":637174},"geometry":{"x":168537.86000000034,"y":2544419.5800000001}},{"attributes":{"ID":637202,"DIS_CODE":0,"TOWNNAME":"北區","LI":"玉皇里","LIN":"14鄰","STREET":"忠義路","SECT":"三段","MAREA":" ","LANE":" ","ALLEY":" ","HOUSE_NO":"２２號七樓之４","E_COORD97":168537.85999999999,"N_COORD97":2544419.5800000001,"ADDRESS":"忠義路三段２２號七樓之４","OBJECTID":637175},"geometry":{"x":168537.86000000034,"y":2544419.5800000001}},{"attributes":{"ID":637203,"DIS_CODE":0,"TOWNNAME":"北區","LI":"玉皇里","LIN":"14鄰","STREET":"忠義路","SECT":"三段","MAREA":" ","LANE":" ","ALLEY":" ","HOUSE_NO":"２２號七樓之５","E_COORD97":168537.85999999999,"N_COORD97":2544419.5800000001,"ADDRESS":"忠義路三段２２號七樓之５","OBJECTID":637176},"geometry":{"x":168537.86000000034,"y":2544419.5800000001}},{"attributes":{"ID":637204,"DIS_CODE":0,"TOWNNAME":"北區","LI":"玉皇里","LIN":"14鄰","STREET":"忠義路","SECT":"三段","MAREA":" ","LANE":" ","ALLEY":" ","HOUSE_NO":"２２號七樓之６","E_COORD97":168537.85999999999,"N_COORD97":2544419.5800000001,"ADDRESS":"忠義路三段２２號七樓之６","OBJECTID":637177},"geometry":{"x":168537.86000000034,"y":2544419.5800000001}},{"attributes":{"ID":637205,"DIS_CODE":0,"TOWNNAME":"安平區","LI":"育平里","LIN":"25鄰","STREET":"郡平路","SECT":" ","MAREA":" ","LANE":" ","ALLEY":" ","HOUSE_NO":"１８１號十樓之１２","E_COORD97":164638.45000000001,"N_COORD97":2543300.3100000001,"ADDRESS":"郡平路１８１號十樓之１２","OBJECTID":637178},"geometry":{"x":164638.45000000019,"y":2543300.3099999987}},{"attributes":{"ID":637206,"DIS_CODE":0,"TOWNNAME":"安平區","LI":"國平里","LIN":"19鄰","STREET":"育平五街","SECT":" ","MAREA":" ","LANE":" ","ALLEY":" ","HOUSE_NO":"６號二十二樓之２","E_COORD97":164895.03,"N_COORD97":2543486.02,"ADDRESS":"育平五街６號二十二樓之２","OBJECTID":637179},"geometry":{"x":164895.03000000119,"y":2543486.0200000014}},{"attributes":{"ID":637207,"DIS_CODE":0,"TOWNNAME":"安平區","LI":"國平里","LIN":"19鄰","STREET":"育平五街","SECT":" ","MAREA":" ","LANE":" ","ALLEY":" ","HOUSE_NO":"６號二十二樓之３","E_COORD97":164895.03,"N_COORD97":2543486.02,"ADDRESS":"育平五街６號二十二樓之３","OBJECTID":637180},"geometry":{"x":164895.03000000119,"y":2543486.0200000014}},{"attributes":{"ID":637208,"DIS_CODE":0,"TOWNNAME":"安平區","LI":"國平里","LIN":"19鄰","STREET":"育平五街","SECT":" ","MAREA":" ","LANE":" ","ALLEY":" ","HOUSE_NO":"６號二十二樓之４","E_COORD97":164895.03,"N_COORD97":2543486.02,"ADDRESS":"育平五街６號二十二樓之４","OBJECTID":637181},"geometry":{"x":164895.03000000119,"y":2543486.0200000014}},{"attributes":{"ID":637209,"DIS_CODE":0,"TOWNNAME":"安平區","LI":"國平里","LIN":"19鄰","STREET":"育平五街","SECT":" ","MAREA":" ","LANE":" ","ALLEY":" ","HOUSE_NO":"６號二十二樓之５","E_COORD97":164895.03,"N_COORD97":2543486.02,"ADDRESS":"育平五街６號二十二樓之５","OBJECTID":637182},"geometry":{"x":164895.03000000119,"y":2543486.0200000014}},{"attributes":{"ID":637210,"DIS_CODE":0,"TOWNNAME":"安平區","LI":"國平里","LIN":"20鄰","STREET":"育平五街","SECT":" ","MAREA":" ","LANE":" ","ALLEY":" ","HOUSE_NO":"６號二十樓之１３","E_COORD97":164895.03,"N_COORD97":2543486.02,"ADDRESS":"育平五街６號二十樓之１３","OBJECTID":637183},"geometry":{"x":164895.03000000119,"y":2543486.0200000014}},{"attributes":{"ID":637211,"DIS_CODE":0,"TOWNNAME":"安平區","LI":"國平里","LIN":"20鄰","STREET":"育平五街","SECT":" ","MAREA":" ","LANE":" ","ALLEY":" ","HOUSE_NO":"６號二十樓之１４","E_COORD97":164895.03,"N_COORD97":2543486.02,"ADDRESS":"育平五街６號二十樓之１４","OBJECTID":637184},"geometry":{"x":164895.03000000119,"y":2543486.0200000014}},{"attributes":{"ID":637212,"DIS_CODE":0,"TOWNNAME":"安平區","LI":"國平里","LIN":"19鄰","STREET":"育平五街","SECT":" ","MAREA":" ","LANE":" ","ALLEY":" ","HOUSE_NO":"６號二十樓之２","E_COORD97":164895.03,"N_COORD97":2543486.02,"ADDRESS":"育平五街６號二十樓之２","OBJECTID":637185},"geometry":{"x":164895.03000000119,"y":2543486.0200000014}},{"attributes":{"ID":637213,"DIS_CODE":0,"TOWNNAME":"安平區","LI":"國平里","LIN":"19鄰","STREET":"育平五街","SECT":" ","MAREA":" ","LANE":" ","ALLEY":" ","HOUSE_NO":"６號二十樓之３","E_COORD97":164895.03,"N_COORD97":2543486.02,"ADDRESS":"育平五街６號二十樓之３","OBJECTID":637186},"geometry":{"x":164895.03000000119,"y":2543486.0200000014}},{"attributes":{"ID":637214,"DIS_CODE":0,"TOWNNAME":"安平區","LI":"國平里","LIN":"19鄰","STREET":"育平五街","SECT":" ","MAREA":" ","LANE":" ","ALLEY":" ","HOUSE_NO":"６號二十樓之４","E_COORD97":164895.03,"N_COORD97":2543486.02,"ADDRESS":"育平五街６號二十樓之４","OBJECTID":637187},"geometry":{"x":164895.03000000119,"y":2543486.0200000014}},{"attributes":{"ID":637215,"DIS_CODE":0,"TOWNNAME":"安平區","LI":"國平里","LIN":"19鄰","STREET":"育平五街","SECT":" ","MAREA":" ","LANE":" ","ALLEY":" ","HOUSE_NO":"６號二十樓之５","E_COORD97":164895.03,"N_COORD97":2543486.02,"ADDRESS":"育平五街６號二十樓之５","OBJECTID":637188},"geometry":{"x":164895.03000000119,"y":2543486.0200000014}},{"attributes":{"ID":637216,"DIS_CODE":0,"TOWNNAME":"安平區","LI":"國平里","LIN":"19鄰","STREET":"育平五街","SECT":" ","MAREA":" ","LANE":" ","ALLEY":" ","HOUSE_NO":"６號二十樓之６","E_COORD97":164895.03,"N_COORD97":2543486.02,"ADDRESS":"育平五街６號二十樓之６","OBJECTID":637189},"geometry":{"x":164895.03000000119,"y":2543486.0200000014}},{"attributes":{"ID":637217,"DIS_CODE":0,"TOWNNAME":"安平區","LI":"國平里","LIN":"19鄰","STREET":"育平五街","SECT":" ","MAREA":" ","LANE":" ","ALLEY":" ","HOUSE_NO":"６號二十樓之７","E_COORD97":164895.03,"N_COORD97":2543486.02,"ADDRESS":"育平五街６號二十樓之７","OBJECTID":637190},"geometry":{"x":164895.03000000119,"y":2543486.0200000014}},{"attributes":{"ID":637218,"DIS_CODE":0,"TOWNNAME":"安平區","LI":"國平里","LIN":"19鄰","STREET":"育平五街","SECT":" ","MAREA":" ","LANE":" ","ALLEY":" ","HOUSE_NO":"６號八樓之１","E_COORD97":164895.03,"N_COORD97":2543486.02,"ADDRESS":"育平五街６號八樓之１","OBJECTID":637191},"geometry":{"x":164895.03000000119,"y":2543486.0200000014}},{"attributes":{"ID":637219,"DIS_CODE":0,"TOWNNAME":"安平區","LI":"國平里","LIN":"19鄰","STREET":"育平五街","SECT":" ","MAREA":" ","LANE":" ","ALLEY":" ","HOUSE_NO":"６號八樓之２","E_COORD97":164895.03,"N_COORD97":2543486.02,"ADDRESS":"育平五街６號八樓之２","OBJECTID":637192},"geometry":{"x":164895.03000000119,"y":2543486.0200000014}},{"attributes":{"ID":637220,"DIS_CODE":0,"TOWNNAME":"安平區","LI":"國平里","LIN":"19鄰","STREET":"育平五街","SECT":" ","MAREA":" ","LANE":" ","ALLEY":" ","HOUSE_NO":"６號八樓之３","E_COORD97":164895.03,"N_COORD97":2543486.02,"ADDRESS":"育平五街６號八樓之３","OBJECTID":637193},"geometry":{"x":164895.03000000119,"y":2543486.0200000014}},{"attributes":{"ID":637221,"DIS_CODE":0,"TOWNNAME":"安平區","LI":"國平里","LIN":"19鄰","STREET":"育平五街","SECT":" ","MAREA":" ","LANE":" ","ALLEY":" ","HOUSE_NO":"６號八樓之４","E_COORD97":164895.03,"N_COORD97":2543486.02,"ADDRESS":"育平五街６號八樓之４","OBJECTID":637194},"geometry":{"x":164895.03000000119,"y":2543486.0200000014}},{"attributes":{"ID":637222,"DIS_CODE":0,"TOWNNAME":"安平區","LI":"國平里","LIN":"19鄰","STREET":"育平五街","SECT":" ","MAREA":" ","LANE":" ","ALLEY":" ","HOUSE_NO":"６號八樓之５","E_COORD97":164895.03,"N_COORD97":2543486.02,"ADDRESS":"育平五街６號八樓之５","OBJECTID":637195},"geometry":{"x":164895.03000000119,"y":2543486.0200000014}},{"attributes":{"ID":637223,"DIS_CODE":0,"TOWNNAME":"安平區","LI":"國平里","LIN":"19鄰","STREET":"育平五街","SECT":" ","MAREA":" ","LANE":" ","ALLEY":" ","HOUSE_NO":"６號八樓之７","E_COORD97":164895.03,"N_COORD97":2543486.02,"ADDRESS":"育平五街６號八樓之７","OBJECTID":637196},"geometry":{"x":164895.03000000119,"y":2543486.0200000014}},{"attributes":{"ID":637224,"DIS_CODE":0,"TOWNNAME":"安平區","LI":"國平里","LIN":"19鄰","STREET":"育平五街","SECT":" ","MAREA":" ","LANE":" ","ALLEY":" ","HOUSE_NO":"６號十一樓之１","E_COORD97":164895.03,"N_COORD97":2543486.02,"ADDRESS":"育平五街６號十一樓之１","OBJECTID":637197},"geometry":{"x":164895.03000000119,"y":2543486.0200000014}},{"attributes":{"ID":637225,"DIS_CODE":0,"TOWNNAME":"安平區","LI":"國平里","LIN":"19鄰","STREET":"育平五街","SECT":" ","MAREA":" ","LANE":" ","ALLEY":" ","HOUSE_NO":"６號十一樓之２","E_COORD97":164895.03,"N_COORD97":2543486.02,"ADDRESS":"育平五街６號十一樓之２","OBJECTID":637198},"geometry":{"x":164895.03000000119,"y":2543486.0200000014}},{"attributes":{"ID":637226,"DIS_CODE":0,"TOWNNAME":"安平區","LI":"國平里","LIN":"19鄰","STREET":"育平五街","SECT":" ","MAREA":" ","LANE":" ","ALLEY":" ","HOUSE_NO":"６號十一樓之３","E_COORD97":164895.03,"N_COORD97":2543486.02,"ADDRESS":"育平五街６號十一樓之３","OBJECTID":637199},"geometry":{"x":164895.03000000119,"y":2543486.0200000014}},{"attributes":{"ID":637227,"DIS_CODE":0,"TOWNNAME":"安平區","LI":"國平里","LIN":"19鄰","STREET":"育平五街","SECT":" ","MAREA":" ","LANE":" ","ALLEY":" ","HOUSE_NO":"６號十一樓之４","E_COORD97":164895.03,"N_COORD97":2543486.02,"ADDRESS":"育平五街６號十一樓之４","OBJECTID":637200},"geometry":{"x":164895.03000000119,"y":2543486.0200000014}}]}