{"displayFieldName":"TOWNNAME","fieldAliases":{"ID":"ID","DIS_CODE":"DIS_CODE","TOWNNAME":"TOWNNAME","LI":"LI","LIN":"LIN","STREET":"STREET","SECT":"SECT","MAREA":"MAREA","LANE":"LANE","ALLEY":"ALLEY","HOUSE_NO":"HOUSE_NO","E_COORD97":"E_COORD97","N_COORD97":"N_COORD97","ADDRESS":"ADDRESS","OBJECTID":"OBJECTID"},"geometryType":"esriGeometryPoint","spatialReference":{"wkid":102443,"latestWkid":3826},"fields":[{"name":"ID","type":"esriFieldTypeDouble","alias":"ID"},{"name":"DIS_CODE","type":"esriFieldTypeInteger","alias":"DIS_CODE"},{"name":"TOWNNAME","type":"esriFieldTypeString","alias":"TOWNNAME","length":8},{"name":"LI","type":"esriFieldTypeString","alias":"LI","length":8},{"name":"LIN","type":"esriFieldTypeString","alias":"LIN","length":12},{"name":"STREET","type":"esriFieldTypeString","alias":"STREET","length":20},{"name":"SECT","type":"esriFieldTypeString","alias":"SECT","length":8},{"name":"MAREA","type":"esriFieldTypeString","alias":"MAREA","length":12},{"name":"LANE","type":"esriFieldTypeString","alias":"LANE","length":10},{"name":"ALLEY","type":"esriFieldTypeString","alias":"ALLEY","length":10},{"name":"HOUSE_NO","type":"esriFieldTypeString","alias":"HOUSE_NO","length":20},{"name":"E_COORD97","type":"esriFieldTypeDouble","alias":"E_COORD97"},{"name":"N_COORD97","type":"esriFieldTypeDouble","alias":"N_COORD97"},{"name":"ADDRESS","type":"esriFieldTypeString","alias":"ADDRESS","length":50},{"name":"OBJECTID","type":"esriFieldTypeOID","alias":"OBJECTID"}],"features":[{"attributes":{"ID":568428,"DIS_CODE":0,"TOWNNAME":"安南區","LI":"溪墘里","LIN":"28鄰","STREET":"海佃路","SECT":"一段","MAREA":" ","LANE":" ","ALLEY":" ","HOUSE_NO":"６８號","E_COORD97":167214.97,"N_COORD97":2546914.2799999998,"ADDRESS":"海佃路一段６８號","OBJECTID":568401},"geometry":{"x":167214.97000000067,"y":2546914.2800000012}},{"attributes":{"ID":568429,"DIS_CODE":0,"TOWNNAME":"安南區","LI":"溪墘里","LIN":"28鄰","STREET":"海佃路","SECT":"一段","MAREA":" ","LANE":" ","ALLEY":" ","HOUSE_NO":"６號","E_COORD97":167240.53,"N_COORD97":2546769.0499999998,"ADDRESS":"海佃路一段６號","OBJECTID":568402},"geometry":{"x":167240.53000000119,"y":2546769.0500000026}},{"attributes":{"ID":568430,"DIS_CODE":0,"TOWNNAME":"安南區","LI":"溪墘里","LIN":"28鄰","STREET":"海佃路","SECT":"一段","MAREA":" ","LANE":" ","ALLEY":" ","HOUSE_NO":"７２號","E_COORD97":167212.23000000001,"N_COORD97":2546938.04,"ADDRESS":"海佃路一段７２號","OBJECTID":568403},"geometry":{"x":167212.23000000138,"y":2546938.0399999991}},{"attributes":{"ID":568431,"DIS_CODE":0,"TOWNNAME":"中西區","LI":"法華里","LIN":"8鄰","STREET":"五妃街","SECT":" ","MAREA":" ","LANE":" ","ALLEY":" ","HOUSE_NO":"１１之１號","E_COORD97":169067.39999999999,"N_COORD97":2542552.1200000001,"ADDRESS":"五妃街１１之１號","OBJECTID":568404},"geometry":{"x":169067.4000000013,"y":2542552.120000001}},{"attributes":{"ID":568432,"DIS_CODE":0,"TOWNNAME":"中西區","LI":"法華里","LIN":"8鄰","STREET":"五妃街","SECT":" ","MAREA":" ","LANE":" ","ALLEY":" ","HOUSE_NO":"１１之２號","E_COORD97":169091.98999999999,"N_COORD97":2542542.8500000001,"ADDRESS":"五妃街１１之２號","OBJECTID":568405},"geometry":{"x":169091.99000000115,"y":2542542.8499999996}},{"attributes":{"ID":568433,"DIS_CODE":0,"TOWNNAME":"中西區","LI":"法華里","LIN":"8鄰","STREET":"五妃街","SECT":" ","MAREA":" ","LANE":" ","ALLEY":" ","HOUSE_NO":"１１之３號","E_COORD97":169085.95999999999,"N_COORD97":2542539.6099999999,"ADDRESS":"五妃街１１之３號","OBJECTID":568406},"geometry":{"x":169085.95999999996,"y":2542539.6099999994}},{"attributes":{"ID":568434,"DIS_CODE":0,"TOWNNAME":"中西區","LI":"法華里","LIN":"8鄰","STREET":"五妃街","SECT":" ","MAREA":" ","LANE":" ","ALLEY":" ","HOUSE_NO":"１１之５號","E_COORD97":169072.97,"N_COORD97":2542541.9300000002,"ADDRESS":"五妃街１１之５號","OBJECTID":568407},"geometry":{"x":169072.97000000067,"y":2542541.9299999997}},{"attributes":{"ID":568435,"DIS_CODE":0,"TOWNNAME":"安南區","LI":"溪墘里","LIN":"28鄰","STREET":"海佃路","SECT":"一段","MAREA":" ","LANE":" ","ALLEY":" ","HOUSE_NO":"９８號","E_COORD97":167202.88,"N_COORD97":2546973.75,"ADDRESS":"海佃路一段９８號","OBJECTID":568408},"geometry":{"x":167202.87999999989,"y":2546973.7500000019}},{"attributes":{"ID":568436,"DIS_CODE":0,"TOWNNAME":"永康區","LI":"埔園里","LIN":"28鄰","STREET":"中山路","SECT":" ","MAREA":" ","LANE":" ","ALLEY":" ","HOUSE_NO":"３２０號","E_COORD97":173680.26000000001,"N_COORD97":2548182.25,"ADDRESS":"中山路３２０號","OBJECTID":568409},"geometry":{"x":173680.26000000071,"y":2548182.25}},{"attributes":{"ID":568437,"DIS_CODE":0,"TOWNNAME":"永康區","LI":"埔園里","LIN":"28鄰","STREET":"中山路","SECT":" ","MAREA":" ","LANE":" ","ALLEY":" ","HOUSE_NO":"３２８號","E_COORD97":173674.10000000001,"N_COORD97":2548196.1899999999,"ADDRESS":"中山路３２８號","OBJECTID":568410},"geometry":{"x":173674.10000000149,"y":2548196.1900000032}},{"attributes":{"ID":568438,"DIS_CODE":0,"TOWNNAME":"永康區","LI":"大橋里","LIN":"28鄰","STREET":"中華路","SECT":" ","MAREA":" ","LANE":" ","ALLEY":" ","HOUSE_NO":"６６０號","E_COORD97":171075.48999999999,"N_COORD97":2546146.4900000002,"ADDRESS":"中華路６６０號","OBJECTID":568411},"geometry":{"x":171075.49000000115,"y":2546146.4900000002}},{"attributes":{"ID":568439,"DIS_CODE":0,"TOWNNAME":"永康區","LI":"埔園里","LIN":"28鄰","STREET":"中山路","SECT":" ","MAREA":" ","LANE":" ","ALLEY":" ","HOUSE_NO":"２９６號","E_COORD97":173693.98000000001,"N_COORD97":2548104,"ADDRESS":"中山路２９６號","OBJECTID":568412},"geometry":{"x":173693.98000000045,"y":2548104.0000000019}},{"attributes":{"ID":568440,"DIS_CODE":0,"TOWNNAME":"永康區","LI":"埔園里","LIN":"28鄰","STREET":"中山路","SECT":" ","MAREA":" ","LANE":" ","ALLEY":" ","HOUSE_NO":"３１２號","E_COORD97":173679.39999999999,"N_COORD97":2548154.2400000002,"ADDRESS":"中山路３１２號","OBJECTID":568413},"geometry":{"x":173679.40000000037,"y":2548154.2400000002}},{"attributes":{"ID":568441,"DIS_CODE":0,"TOWNNAME":"永康區","LI":"勝利里","LIN":"28鄰","STREET":"勝利街","SECT":" ","MAREA":" ","LANE":" ","ALLEY":" ","HOUSE_NO":"４６之１號","E_COORD97":171346.35000000001,"N_COORD97":2544641.54,"ADDRESS":"勝利街４６之１號","OBJECTID":568414},"geometry":{"x":171346.34999999963,"y":2544641.540000001}},{"attributes":{"ID":568442,"DIS_CODE":0,"TOWNNAME":"永康區","LI":"埔園里","LIN":"28鄰","STREET":"埔園街","SECT":" ","MAREA":" ","LANE":" ","ALLEY":" ","HOUSE_NO":"２４８號","E_COORD97":173677.17999999999,"N_COORD97":2548252.4900000002,"ADDRESS":"埔園街２４８號","OBJECTID":568415},"geometry":{"x":173677.18000000156,"y":2548252.4900000039}},{"attributes":{"ID":568443,"DIS_CODE":0,"TOWNNAME":"永康區","LI":"埔園里","LIN":"28鄰","STREET":"中山路","SECT":" ","MAREA":" ","LANE":" ","ALLEY":" ","HOUSE_NO":"３４８號","E_COORD97":173655.31,"N_COORD97":2548259.7200000002,"ADDRESS":"中山路３４８號","OBJECTID":568416},"geometry":{"x":173655.30999999959,"y":2548259.7200000025}},{"attributes":{"ID":568444,"DIS_CODE":0,"TOWNNAME":"永康區","LI":"埔園里","LIN":"28鄰","STREET":"中山路","SECT":" ","MAREA":" ","LANE":" ","ALLEY":" ","HOUSE_NO":"３１０號","E_COORD97":173680.35000000001,"N_COORD97":2548149.4900000002,"ADDRESS":"中山路３１０號","OBJECTID":568417},"geometry":{"x":173680.34999999963,"y":2548149.4900000002}},{"attributes":{"ID":568445,"DIS_CODE":0,"TOWNNAME":"永康區","LI":"五王里","LIN":"28鄰","STREET":"五福街","SECT":" ","MAREA":" ","LANE":" ","ALLEY":" ","HOUSE_NO":"８６號","E_COORD97":171490.48999999999,"N_COORD97":2545961.1899999999,"ADDRESS":"五福街８６號","OBJECTID":568418},"geometry":{"x":171490.49000000209,"y":2545961.1899999995}},{"attributes":{"ID":568446,"DIS_CODE":0,"TOWNNAME":"安南區","LI":"溪墘里","LIN":"28鄰","STREET":"海佃路","SECT":"一段","MAREA":" ","LANE":" ","ALLEY":" ","HOUSE_NO":"６４號","E_COORD97":167216.48999999999,"N_COORD97":2546892.3399999999,"ADDRESS":"海佃路一段６４號","OBJECTID":568419},"geometry":{"x":167216.49000000022,"y":2546892.3399999999}},{"attributes":{"ID":568447,"DIS_CODE":0,"TOWNNAME":"東區","LI":"後甲里","LIN":"28鄰","STREET":"裕永一街","SECT":" ","MAREA":" ","LANE":" ","ALLEY":" ","HOUSE_NO":"６６號","E_COORD97":172378.70999999999,"N_COORD97":2543399.7000000002,"ADDRESS":"裕永一街６６號","OBJECTID":568420},"geometry":{"x":172378.71000000183,"y":2543399.7000000011}},{"attributes":{"ID":568448,"DIS_CODE":0,"TOWNNAME":"東區","LI":"後甲里","LIN":"28鄰","STREET":"裕永一街","SECT":" ","MAREA":" ","LANE":" ","ALLEY":" ","HOUSE_NO":"２３９之１號","E_COORD97":172643.42999999999,"N_COORD97":2543485.0699999998,"ADDRESS":"裕永一街２３９之１號","OBJECTID":568421},"geometry":{"x":172643.43000000063,"y":2543485.070000004}},{"attributes":{"ID":568449,"DIS_CODE":0,"TOWNNAME":"東區","LI":"後甲里","LIN":"28鄰","STREET":"裕永一街","SECT":" ","MAREA":" ","LANE":" ","ALLEY":" ","HOUSE_NO":"２３７之１號","E_COORD97":172607.31,"N_COORD97":2543492.0600000001,"ADDRESS":"裕永一街２３７之１號","OBJECTID":568422},"geometry":{"x":172607.30999999959,"y":2543492.0600000042}},{"attributes":{"ID":568450,"DIS_CODE":0,"TOWNNAME":"中西區","LI":"法華里","LIN":"10鄰","STREET":"五妃街","SECT":" ","MAREA":" ","LANE":" ","ALLEY":" ","HOUSE_NO":"２５號","E_COORD97":169033.51999999999,"N_COORD97":2542537.7599999998,"ADDRESS":"五妃街２５號","OBJECTID":568423},"geometry":{"x":169033.52000000048,"y":2542537.7600000016}},{"attributes":{"ID":568451,"DIS_CODE":0,"TOWNNAME":"中西區","LI":"法華里","LIN":"10鄰","STREET":"五妃街","SECT":" ","MAREA":" ","LANE":" ","ALLEY":" ","HOUSE_NO":"２７號","E_COORD97":169033.98999999999,"N_COORD97":2542524.3199999998,"ADDRESS":"五妃街２７號","OBJECTID":568424},"geometry":{"x":169033.98999999929,"y":2542524.3200000022}},{"attributes":{"ID":568452,"DIS_CODE":0,"TOWNNAME":"中西區","LI":"法華里","LIN":"9鄰","STREET":"五妃街","SECT":" ","MAREA":" ","LANE":" ","ALLEY":" ","HOUSE_NO":"１７號","E_COORD97":169051.16,"N_COORD97":2542552.5800000001,"ADDRESS":"五妃街１７號","OBJECTID":568425},"geometry":{"x":169051.16000000015,"y":2542552.5800000038}},{"attributes":{"ID":568453,"DIS_CODE":0,"TOWNNAME":"中西區","LI":"法華里","LIN":"9鄰","STREET":"五妃街","SECT":" ","MAREA":" ","LANE":" ","ALLEY":" ","HOUSE_NO":"１９號","E_COORD97":169044.20000000001,"N_COORD97":2542555.8199999998,"ADDRESS":"五妃街１９號","OBJECTID":568426},"geometry":{"x":169044.20000000019,"y":2542555.8200000022}},{"attributes":{"ID":568454,"DIS_CODE":0,"TOWNNAME":"永康區","LI":"復興里","LIN":"28鄰","STREET":"興國街","SECT":" ","MAREA":" ","LANE":" ","ALLEY":" ","HOUSE_NO":"１００號","E_COORD97":172349.19,"N_COORD97":2544847.98,"ADDRESS":"興國街１００號","OBJECTID":568427},"geometry":{"x":172349.19000000134,"y":2544847.9800000004}},{"attributes":{"ID":568455,"DIS_CODE":0,"TOWNNAME":"永康區","LI":"六合里","LIN":"28鄰","STREET":"中華二路","SECT":" ","MAREA":" ","LANE":" ","ALLEY":" ","HOUSE_NO":"３６３號","E_COORD97":171276.20000000001,"N_COORD97":2545408.3700000001,"ADDRESS":"中華二路３６３號","OBJECTID":568428},"geometry":{"x":171276.20000000019,"y":2545408.370000001}},{"attributes":{"ID":568456,"DIS_CODE":0,"TOWNNAME":"永康區","LI":"六合里","LIN":"28鄰","STREET":"中華二路","SECT":" ","MAREA":" ","LANE":" ","ALLEY":" ","HOUSE_NO":"３６５號","E_COORD97":171271.67000000001,"N_COORD97":2545408.1200000001,"ADDRESS":"中華二路３６５號","OBJECTID":568429},"geometry":{"x":171271.66999999993,"y":2545408.1200000029}},{"attributes":{"ID":568457,"DIS_CODE":0,"TOWNNAME":"永康區","LI":"六合里","LIN":"28鄰","STREET":"中華二路","SECT":" ","MAREA":" ","LANE":" ","ALLEY":" ","HOUSE_NO":"３６７號","E_COORD97":171267.07999999999,"N_COORD97":2545407.8700000001,"ADDRESS":"中華二路３６７號","OBJECTID":568430},"geometry":{"x":171267.08000000007,"y":2545407.870000001}},{"attributes":{"ID":568458,"DIS_CODE":0,"TOWNNAME":"永康區","LI":"六合里","LIN":"28鄰","STREET":"中華二路","SECT":" ","MAREA":" ","LANE":" ","ALLEY":" ","HOUSE_NO":"３６９號","E_COORD97":171263.20000000001,"N_COORD97":2545407.8700000001,"ADDRESS":"中華二路３６９號","OBJECTID":568431},"geometry":{"x":171263.20000000019,"y":2545407.870000001}},{"attributes":{"ID":568459,"DIS_CODE":0,"TOWNNAME":"永康區","LI":"六合里","LIN":"28鄰","STREET":"中華二路","SECT":" ","MAREA":" ","LANE":" ","ALLEY":" ","HOUSE_NO":"３７１號","E_COORD97":171254.63,"N_COORD97":2545410.54,"ADDRESS":"中華二路３７１號","OBJECTID":568432},"geometry":{"x":171254.62999999989,"y":2545410.540000001}},{"attributes":{"ID":568460,"DIS_CODE":0,"TOWNNAME":"永康區","LI":"六合里","LIN":"28鄰","STREET":"中華二路","SECT":" ","MAREA":" ","LANE":" ","ALLEY":" ","HOUSE_NO":"３７３號","E_COORD97":171250.39999999999,"N_COORD97":2545410.54,"ADDRESS":"中華二路３７３號","OBJECTID":568433},"geometry":{"x":171250.40000000224,"y":2545410.540000001}},{"attributes":{"ID":568461,"DIS_CODE":0,"TOWNNAME":"永康區","LI":"六合里","LIN":"28鄰","STREET":"中華二路","SECT":" ","MAREA":" ","LANE":" ","ALLEY":" ","HOUSE_NO":"３７５號","E_COORD97":171245.95000000001,"N_COORD97":2545410.27,"ADDRESS":"中華二路３７５號","OBJECTID":568434},"geometry":{"x":171245.95000000019,"y":2545410.2700000014}},{"attributes":{"ID":568462,"DIS_CODE":0,"TOWNNAME":"永康區","LI":"六合里","LIN":"28鄰","STREET":"中華二路","SECT":" ","MAREA":" ","LANE":" ","ALLEY":" ","HOUSE_NO":"３７７號","E_COORD97":171241.25,"N_COORD97":2545409.9900000002,"ADDRESS":"中華二路３７７號","OBJECTID":568435},"geometry":{"x":171241.25000000093,"y":2545409.9900000002}},{"attributes":{"ID":568463,"DIS_CODE":0,"TOWNNAME":"中西區","LI":"法華里","LIN":"14鄰","STREET":"五妃街","SECT":" ","MAREA":" ","LANE":" ","ALLEY":" ","HOUSE_NO":"５７號","E_COORD97":168943.60999999999,"N_COORD97":2542552.4199999999,"ADDRESS":"五妃街５７號","OBJECTID":568436},"geometry":{"x":168943.6100000022,"y":2542552.4199999999}},{"attributes":{"ID":568464,"DIS_CODE":0,"TOWNNAME":"中西區","LI":"法華里","LIN":"8鄰","STREET":"五妃街","SECT":" ","MAREA":" ","LANE":" ","ALLEY":" ","HOUSE_NO":"３號","E_COORD97":169099.41,"N_COORD97":2542554.4300000002,"ADDRESS":"五妃街３號","OBJECTID":568437},"geometry":{"x":169099.41000000108,"y":2542554.4300000016}},{"attributes":{"ID":568465,"DIS_CODE":0,"TOWNNAME":"中西區","LI":"法華里","LIN":"8鄰","STREET":"五妃街","SECT":" ","MAREA":" ","LANE":" ","ALLEY":" ","HOUSE_NO":"５號","E_COORD97":169092.45000000001,"N_COORD97":2542552.1200000001,"ADDRESS":"五妃街５號","OBJECTID":568438},"geometry":{"x":169092.45000000112,"y":2542552.120000001}},{"attributes":{"ID":568466,"DIS_CODE":0,"TOWNNAME":"中西區","LI":"法華里","LIN":"10鄰","STREET":"五妃街","SECT":" ","MAREA":" ","LANE":" ","ALLEY":" ","HOUSE_NO":"２９號","E_COORD97":169027.48999999999,"N_COORD97":2542518.7599999998,"ADDRESS":"五妃街２９號","OBJECTID":568439},"geometry":{"x":169027.49000000115,"y":2542518.7599999998}},{"attributes":{"ID":568467,"DIS_CODE":0,"TOWNNAME":"中西區","LI":"法華里","LIN":"10鄰","STREET":"五妃街","SECT":" ","MAREA":" ","LANE":" ","ALLEY":" ","HOUSE_NO":"３１號","E_COORD97":169020.07000000001,"N_COORD97":2542515.98,"ADDRESS":"五妃街３１號","OBJECTID":568440},"geometry":{"x":169020.07000000216,"y":2542515.9799999986}},{"attributes":{"ID":568468,"DIS_CODE":0,"TOWNNAME":"永康區","LI":"六合里","LIN":"28鄰","STREET":"中華二路","SECT":" ","MAREA":" ","LANE":" ","ALLEY":" ","HOUSE_NO":"３８１號","E_COORD97":171230.29000000001,"N_COORD97":2545409.4900000002,"ADDRESS":"中華二路３８１號","OBJECTID":568441},"geometry":{"x":171230.29000000004,"y":2545409.4900000021}},{"attributes":{"ID":568469,"DIS_CODE":0,"TOWNNAME":"永康區","LI":"六合里","LIN":"28鄰","STREET":"中華二路","SECT":" ","MAREA":" ","LANE":" ","ALLEY":" ","HOUSE_NO":"３８３號","E_COORD97":171225.70000000001,"N_COORD97":2545409.4900000002,"ADDRESS":"中華二路３８３號","OBJECTID":568442},"geometry":{"x":171225.70000000019,"y":2545409.4900000021}},{"attributes":{"ID":568470,"DIS_CODE":0,"TOWNNAME":"永康區","LI":"六合里","LIN":"28鄰","STREET":"中華二路","SECT":" ","MAREA":" ","LANE":" ","ALLEY":" ","HOUSE_NO":"３８５號","E_COORD97":171220.92999999999,"N_COORD97":2545409.0099999998,"ADDRESS":"中華二路３８５號","OBJECTID":568443},"geometry":{"x":171220.93000000063,"y":2545409.0099999998}},{"attributes":{"ID":568471,"DIS_CODE":0,"TOWNNAME":"永康區","LI":"六合里","LIN":"28鄰","STREET":"中華二路","SECT":" ","MAREA":" ","LANE":" ","ALLEY":" ","HOUSE_NO":"３８７號","E_COORD97":171216.34,"N_COORD97":2545408.71,"ADDRESS":"中華二路３８７號","OBJECTID":568444},"geometry":{"x":171216.33999999892,"y":2545408.7100000028}},{"attributes":{"ID":568472,"DIS_CODE":0,"TOWNNAME":"永康區","LI":"六合里","LIN":"28鄰","STREET":"中華二路","SECT":" ","MAREA":" ","LANE":" ","ALLEY":" ","HOUSE_NO":"３９９號","E_COORD97":171170.85000000001,"N_COORD97":2545402.7599999998,"ADDRESS":"中華二路３９９號","OBJECTID":568445},"geometry":{"x":171170.85000000056,"y":2545402.7600000016}},{"attributes":{"ID":568473,"DIS_CODE":0,"TOWNNAME":"永康區","LI":"六合里","LIN":"28鄰","STREET":"中華二路","SECT":" ","MAREA":" ","LANE":" ","ALLEY":" ","HOUSE_NO":"４０１號","E_COORD97":171164.92000000001,"N_COORD97":2545402.7599999998,"ADDRESS":"中華二路４０１號","OBJECTID":568446},"geometry":{"x":171164.91999999993,"y":2545402.7600000016}},{"attributes":{"ID":568474,"DIS_CODE":0,"TOWNNAME":"永康區","LI":"六合里","LIN":"28鄰","STREET":"中華二路","SECT":" ","MAREA":" ","LANE":" ","ALLEY":" ","HOUSE_NO":"４０３號","E_COORD97":171160.22,"N_COORD97":2545402.6499999999,"ADDRESS":"中華二路４０３號","OBJECTID":568447},"geometry":{"x":171160.22000000067,"y":2545402.6500000004}},{"attributes":{"ID":568475,"DIS_CODE":0,"TOWNNAME":"永康區","LI":"六合里","LIN":"28鄰","STREET":"中華二路","SECT":" ","MAREA":" ","LANE":" ","ALLEY":" ","HOUSE_NO":"４０５號","E_COORD97":171154.41,"N_COORD97":2545402.5600000001,"ADDRESS":"中華二路４０５號","OBJECTID":568448},"geometry":{"x":171154.41000000015,"y":2545402.5600000024}},{"attributes":{"ID":568476,"DIS_CODE":0,"TOWNNAME":"永康區","LI":"六合里","LIN":"28鄰","STREET":"中華二路","SECT":" ","MAREA":" ","LANE":" ","ALLEY":" ","HOUSE_NO":"４０７號","E_COORD97":171149.5,"N_COORD97":2545402.3799999999,"ADDRESS":"中華二路４０７號","OBJECTID":568449},"geometry":{"x":171149.50000000186,"y":2545402.379999999}},{"attributes":{"ID":568477,"DIS_CODE":0,"TOWNNAME":"永康區","LI":"六合里","LIN":"28鄰","STREET":"中華二路","SECT":" ","MAREA":" ","LANE":" ","ALLEY":" ","HOUSE_NO":"４０９號","E_COORD97":171144.23000000001,"N_COORD97":2545402.4700000002,"ADDRESS":"中華二路４０９號","OBJECTID":568450},"geometry":{"x":171144.23000000045,"y":2545402.4700000025}},{"attributes":{"ID":568478,"DIS_CODE":0,"TOWNNAME":"永康區","LI":"\u25A0行里","LIN":"28鄰","STREET":"中正三街","SECT":" ","MAREA":" ","LANE":" ","ALLEY":" ","HOUSE_NO":"１３１號","E_COORD97":172517.16,"N_COORD97":2548738.21,"ADDRESS":"中正三街１３１號","OBJECTID":568451},"geometry":{"x":172517.16000000108,"y":2548738.2100000009}},{"attributes":{"ID":568479,"DIS_CODE":0,"TOWNNAME":"仁德區","LI":"上崙里","LIN":"28鄰","STREET":"中正路","SECT":"一段","MAREA":" ","LANE":" ","ALLEY":" ","HOUSE_NO":"６７６號","E_COORD97":172876.16,"N_COORD97":2537582.52,"ADDRESS":"中正路一段６７６號","OBJECTID":568452},"geometry":{"x":172876.16000000108,"y":2537582.5200000014}},{"attributes":{"ID":568480,"DIS_CODE":0,"TOWNNAME":"新化區","LI":"東榮里","LIN":"28鄰","STREET":"中興路","SECT":" ","MAREA":" ","LANE":" ","ALLEY":" ","HOUSE_NO":"８２７號","E_COORD97":179154.70999999999,"N_COORD97":2548209.25,"ADDRESS":"中興路８２７號","OBJECTID":568453},"geometry":{"x":179154.71000000089,"y":2548209.25}},{"attributes":{"ID":568481,"DIS_CODE":0,"TOWNNAME":"佳里區","LI":"建南里","LIN":"28鄰","STREET":"祥和三街","SECT":" ","MAREA":" ","LANE":" ","ALLEY":" ","HOUSE_NO":"１０４號","E_COORD97":165880.64000000001,"N_COORD97":2561251.8999999999,"ADDRESS":"祥和三街１０４號","OBJECTID":568454},"geometry":{"x":165880.63999999966,"y":2561251.9000000041}},{"attributes":{"ID":568482,"DIS_CODE":0,"TOWNNAME":"佳里區","LI":"建南里","LIN":"28鄰","STREET":"祥和三街","SECT":" ","MAREA":" ","LANE":" ","ALLEY":" ","HOUSE_NO":"１０６號","E_COORD97":165876.51999999999,"N_COORD97":2561251.5800000001,"ADDRESS":"祥和三街１０６號","OBJECTID":568455},"geometry":{"x":165876.51999999955,"y":2561251.5800000019}},{"attributes":{"ID":568483,"DIS_CODE":0,"TOWNNAME":"佳里區","LI":"建南里","LIN":"28鄰","STREET":"祥和三街","SECT":" ","MAREA":" ","LANE":" ","ALLEY":" ","HOUSE_NO":"１０８號","E_COORD97":165872.32999999999,"N_COORD97":2561251.3199999998,"ADDRESS":"祥和三街１０８號","OBJECTID":568456},"geometry":{"x":165872.33000000101,"y":2561251.3200000003}},{"attributes":{"ID":568484,"DIS_CODE":0,"TOWNNAME":"佳里區","LI":"建南里","LIN":"28鄰","STREET":"祥和三街","SECT":" ","MAREA":" ","LANE":" ","ALLEY":" ","HOUSE_NO":"１１０號","E_COORD97":165867.82999999999,"N_COORD97":2561251.25,"ADDRESS":"祥和三街１１０號","OBJECTID":568457},"geometry":{"x":165867.83000000007,"y":2561251.25}},{"attributes":{"ID":568485,"DIS_CODE":0,"TOWNNAME":"佳里區","LI":"建南里","LIN":"28鄰","STREET":"祥和三街","SECT":" ","MAREA":" ","LANE":" ","ALLEY":" ","HOUSE_NO":"１１２號","E_COORD97":165864.19,"N_COORD97":2561250.7000000002,"ADDRESS":"祥和三街１１２號","OBJECTID":568458},"geometry":{"x":165864.19000000041,"y":2561250.6999999993}},{"attributes":{"ID":568486,"DIS_CODE":0,"TOWNNAME":"佳里區","LI":"建南里","LIN":"28鄰","STREET":"祥和三街","SECT":" ","MAREA":" ","LANE":" ","ALLEY":" ","HOUSE_NO":"１１４號","E_COORD97":165859.78,"N_COORD97":2561250.4900000002,"ADDRESS":"祥和三街１１４號","OBJECTID":568459},"geometry":{"x":165859.78000000026,"y":2561250.4900000002}},{"attributes":{"ID":568487,"DIS_CODE":0,"TOWNNAME":"佳里區","LI":"建南里","LIN":"28鄰","STREET":"祥和三街","SECT":" ","MAREA":" ","LANE":" ","ALLEY":" ","HOUSE_NO":"１１６號","E_COORD97":165856.01000000001,"N_COORD97":2561250.2400000002,"ADDRESS":"祥和三街１１６號","OBJECTID":568460},"geometry":{"x":165856.00999999978,"y":2561250.2400000021}},{"attributes":{"ID":568488,"DIS_CODE":0,"TOWNNAME":"佳里區","LI":"建南里","LIN":"28鄰","STREET":"祥和三街","SECT":" ","MAREA":" ","LANE":" ","ALLEY":" ","HOUSE_NO":"１１８號","E_COORD97":165851.23000000001,"N_COORD97":2561249.8900000001,"ADDRESS":"祥和三街１１８號","OBJECTID":568461},"geometry":{"x":165851.23000000138,"y":2561249.8900000025}},{"attributes":{"ID":568489,"DIS_CODE":0,"TOWNNAME":"佳里區","LI":"建南里","LIN":"28鄰","STREET":"祥和三街","SECT":" ","MAREA":" ","LANE":" ","ALLEY":" ","HOUSE_NO":"１２０號","E_COORD97":165847.39000000001,"N_COORD97":2561249.4199999999,"ADDRESS":"祥和三街１２０號","OBJECTID":568462},"geometry":{"x":165847.3900000006,"y":2561249.4200000018}},{"attributes":{"ID":568490,"DIS_CODE":0,"TOWNNAME":"佳里區","LI":"建南里","LIN":"28鄰","STREET":"祥和三街","SECT":" ","MAREA":" ","LANE":" ","ALLEY":" ","HOUSE_NO":"１２２號","E_COORD97":165843.42999999999,"N_COORD97":2561248.7799999998,"ADDRESS":"祥和三街１２２號","OBJECTID":568463},"geometry":{"x":165843.4299999997,"y":2561248.7800000012}},{"attributes":{"ID":568491,"DIS_CODE":0,"TOWNNAME":"佳里區","LI":"建南里","LIN":"28鄰","STREET":"祥和三街","SECT":" ","MAREA":" ","LANE":" ","ALLEY":" ","HOUSE_NO":"１２４號","E_COORD97":165838.81,"N_COORD97":2561248.46,"ADDRESS":"祥和三街１２４號","OBJECTID":568464},"geometry":{"x":165838.80999999959,"y":2561248.4600000046}},{"attributes":{"ID":568492,"DIS_CODE":0,"TOWNNAME":"佳里區","LI":"建南里","LIN":"28鄰","STREET":"祥和三街","SECT":" ","MAREA":" ","LANE":" ","ALLEY":" ","HOUSE_NO":"１２６號","E_COORD97":165835.10999999999,"N_COORD97":2561248.27,"ADDRESS":"祥和三街１２６號","OBJECTID":568465},"geometry":{"x":165835.11000000127,"y":2561248.2699999977}},{"attributes":{"ID":568493,"DIS_CODE":0,"TOWNNAME":"中西區","LI":"法華里","LIN":"8鄰","STREET":"五妃街","SECT":" ","MAREA":" ","LANE":" ","ALLEY":" ","HOUSE_NO":"７號","E_COORD97":169086.42000000001,"N_COORD97":2542554.4300000002,"ADDRESS":"五妃街７號","OBJECTID":568466},"geometry":{"x":169086.41999999993,"y":2542554.4300000016}},{"attributes":{"ID":568494,"DIS_CODE":0,"TOWNNAME":"中西區","LI":"法華里","LIN":"8鄰","STREET":"五妃街","SECT":" ","MAREA":" ","LANE":" ","ALLEY":" ","HOUSE_NO":"９號","E_COORD97":169079,"N_COORD97":2542552.1200000001,"ADDRESS":"五妃街９號","OBJECTID":568467},"geometry":{"x":169079,"y":2542552.120000001}},{"attributes":{"ID":568495,"DIS_CODE":0,"TOWNNAME":"佳里區","LI":"建南里","LIN":"28鄰","STREET":"祥和三街","SECT":" ","MAREA":" ","LANE":" ","ALLEY":" ","HOUSE_NO":"１２８號","E_COORD97":165830.85999999999,"N_COORD97":2561247.75,"ADDRESS":"祥和三街１２８號","OBJECTID":568468},"geometry":{"x":165830.86000000034,"y":2561247.75}},{"attributes":{"ID":568496,"DIS_CODE":0,"TOWNNAME":"佳里區","LI":"建南里","LIN":"28鄰","STREET":"祥和三街","SECT":" ","MAREA":" ","LANE":" ","ALLEY":" ","HOUSE_NO":"１３０號","E_COORD97":165826.75,"N_COORD97":2561247.2400000002,"ADDRESS":"祥和三街１３０號","OBJECTID":568469},"geometry":{"x":165826.75000000093,"y":2561247.2400000021}},{"attributes":{"ID":568497,"DIS_CODE":0,"TOWNNAME":"佳里區","LI":"建南里","LIN":"28鄰","STREET":"勝利路","SECT":" ","MAREA":" ","LANE":" ","ALLEY":" ","HOUSE_NO":"１００號","E_COORD97":165899.39000000001,"N_COORD97":2561281.1899999999,"ADDRESS":"勝利路１００號","OBJECTID":568470},"geometry":{"x":165899.38999999966,"y":2561281.1899999995}},{"attributes":{"ID":568498,"DIS_CODE":0,"TOWNNAME":"佳里區","LI":"建南里","LIN":"28鄰","STREET":"勝利路","SECT":" ","MAREA":" ","LANE":" ","ALLEY":" ","HOUSE_NO":"１０２號","E_COORD97":165900.78,"N_COORD97":2561276.8900000001,"ADDRESS":"勝利路１０２號","OBJECTID":568471},"geometry":{"x":165900.78000000026,"y":2561276.8900000025}},{"attributes":{"ID":568499,"DIS_CODE":0,"TOWNNAME":"歸仁區","LI":"崙頂里","LIN":"28鄰","STREET":"成功十街","SECT":" ","MAREA":" ","LANE":" ","ALLEY":" ","HOUSE_NO":"７２號","E_COORD97":177787.54000000001,"N_COORD97":2539718.5499999998,"ADDRESS":"成功十街７２號","OBJECTID":568472},"geometry":{"x":177787.5400000019,"y":2539718.5500000007}},{"attributes":{"ID":568500,"DIS_CODE":0,"TOWNNAME":"歸仁區","LI":"崙頂里","LIN":"28鄰","STREET":"成功十街","SECT":" ","MAREA":" ","LANE":" ","ALLEY":" ","HOUSE_NO":"８０號","E_COORD97":177798.94,"N_COORD97":2539740.5499999998,"ADDRESS":"成功十街８０號","OBJECTID":568473},"geometry":{"x":177798.94000000134,"y":2539740.5500000026}},{"attributes":{"ID":568501,"DIS_CODE":0,"TOWNNAME":"歸仁區","LI":"許厝里","LIN":"28鄰","STREET":"大仁街","SECT":" ","MAREA":" ","LANE":" ","ALLEY":" ","HOUSE_NO":"１６號","E_COORD97":177921.85000000001,"N_COORD97":2540787.04,"ADDRESS":"大仁街１６號","OBJECTID":568474},"geometry":{"x":177921.84999999963,"y":2540787.0399999991}},{"attributes":{"ID":568502,"DIS_CODE":0,"TOWNNAME":"中西區","LI":"法華里","LIN":"12鄰","STREET":"健康路","SECT":"一段","MAREA":" ","LANE":" ","ALLEY":" ","HOUSE_NO":"１０２號","E_COORD97":168906.60999999999,"N_COORD97":2542448.1800000002,"ADDRESS":"健康路一段１０２號","OBJECTID":568475},"geometry":{"x":168906.61000000127,"y":2542448.1799999997}},{"attributes":{"ID":568503,"DIS_CODE":0,"TOWNNAME":"歸仁區","LI":"崙頂里","LIN":"28鄰","STREET":"成功路","SECT":"二段","MAREA":" ","LANE":" ","ALLEY":" ","HOUSE_NO":"２３６號","E_COORD97":177821.10999999999,"N_COORD97":2539646.8199999998,"ADDRESS":"成功路二段２３６號","OBJECTID":568476},"geometry":{"x":177821.1099999994,"y":2539646.8200000022}},{"attributes":{"ID":568504,"DIS_CODE":0,"TOWNNAME":"歸仁區","LI":"媽廟里","LIN":"28鄰","STREET":"保大路","SECT":"一段","MAREA":" ","LANE":" ","ALLEY":" ","HOUSE_NO":"１５０號","E_COORD97":177714.23000000001,"N_COORD97":2544034.7200000002,"ADDRESS":"保大路一段１５０號","OBJECTID":568477},"geometry":{"x":177714.23000000138,"y":2544034.7200000025}},{"attributes":{"ID":568505,"DIS_CODE":0,"TOWNNAME":"歸仁區","LI":"崙頂里","LIN":"28鄰","STREET":"成功十街","SECT":" ","MAREA":" ","LANE":" ","ALLEY":" ","HOUSE_NO":"８６號","E_COORD97":177791.84,"N_COORD97":2539756.5499999998,"ADDRESS":"成功十街８６號","OBJECTID":568478},"geometry":{"x":177791.83999999985,"y":2539756.5500000026}},{"attributes":{"ID":568506,"DIS_CODE":0,"TOWNNAME":"歸仁區","LI":"辜厝里","LIN":"28鄰","STREET":"大順街","SECT":" ","MAREA":" ","LANE":" ","ALLEY":" ","HOUSE_NO":"６７號","E_COORD97":177322.07999999999,"N_COORD97":2540595.25,"ADDRESS":"大順街６７號","OBJECTID":568479},"geometry":{"x":177322.08000000007,"y":2540595.2500000019}},{"attributes":{"ID":568507,"DIS_CODE":0,"TOWNNAME":"歸仁區","LI":"辜厝里","LIN":"28鄰","STREET":"大吉二街","SECT":" ","MAREA":" ","LANE":" ","ALLEY":" ","HOUSE_NO":"３號","E_COORD97":177229.29000000001,"N_COORD97":2540549.6800000002,"ADDRESS":"大吉二街３號","OBJECTID":568480},"geometry":{"x":177229.29000000004,"y":2540549.6799999997}},{"attributes":{"ID":568508,"DIS_CODE":0,"TOWNNAME":"歸仁區","LI":"辜厝里","LIN":"28鄰","STREET":"大吉街","SECT":" ","MAREA":" ","LANE":" ","ALLEY":" ","HOUSE_NO":"１１７號","E_COORD97":177213.14000000001,"N_COORD97":2540550.6800000002,"ADDRESS":"大吉街１１７號","OBJECTID":568481},"geometry":{"x":177213.13999999966,"y":2540550.6799999997}},{"attributes":{"ID":568509,"DIS_CODE":0,"TOWNNAME":"中西區","LI":"法華里","LIN":"12鄰","STREET":"健康路","SECT":"一段","MAREA":" ","LANE":" ","ALLEY":" ","HOUSE_NO":"１１０號","E_COORD97":168894.39999999999,"N_COORD97":2542450.5299999998,"ADDRESS":"健康路一段１１０號","OBJECTID":568482},"geometry":{"x":168894.4000000013,"y":2542450.5300000012}},{"attributes":{"ID":568510,"DIS_CODE":0,"TOWNNAME":"中西區","LI":"法華里","LIN":"12鄰","STREET":"健康路","SECT":"一段","MAREA":" ","LANE":" ","ALLEY":" ","HOUSE_NO":"１１２號","E_COORD97":168888.5,"N_COORD97":2542448.5699999998,"ADDRESS":"健康路一段１１２號","OBJECTID":568483},"geometry":{"x":168888.50000000093,"y":2542448.5700000022}},{"attributes":{"ID":568511,"DIS_CODE":0,"TOWNNAME":"歸仁區","LI":"辜厝里","LIN":"28鄰","STREET":"大順街","SECT":" ","MAREA":" ","LANE":" ","ALLEY":" ","HOUSE_NO":"７５號","E_COORD97":177252.09,"N_COORD97":2540591.6800000002,"ADDRESS":"大順街７５號","OBJECTID":568484},"geometry":{"x":177252.09000000078,"y":2540591.6800000034}},{"attributes":{"ID":568512,"DIS_CODE":0,"TOWNNAME":"安平區","LI":"建平里","LIN":"28鄰","STREET":"建平九街","SECT":" ","MAREA":" ","LANE":" ","ALLEY":" ","HOUSE_NO":"７０號","E_COORD97":165983.07999999999,"N_COORD97":2543542.5099999998,"ADDRESS":"建平九街７０號","OBJECTID":568485},"geometry":{"x":165983.08000000007,"y":2543542.5100000035}},{"attributes":{"ID":568513,"DIS_CODE":0,"TOWNNAME":"安平區","LI":"建平里","LIN":"28鄰","STREET":"建平九街","SECT":" ","MAREA":" ","LANE":" ","ALLEY":" ","HOUSE_NO":"９５號","E_COORD97":165902.81,"N_COORD97":2543539.4100000001,"ADDRESS":"建平九街９５號","OBJECTID":568486},"geometry":{"x":165902.80999999959,"y":2543539.4100000001}},{"attributes":{"ID":568514,"DIS_CODE":0,"TOWNNAME":"安平區","LI":"育平里","LIN":"28鄰","STREET":"健康三街","SECT":" ","MAREA":" ","LANE":" ","ALLEY":" ","HOUSE_NO":"１７３號","E_COORD97":164738.45999999999,"N_COORD97":2543226.8100000001,"ADDRESS":"健康三街１７３號","OBJECTID":568487},"geometry":{"x":164738.46000000183,"y":2543226.8100000024}},{"attributes":{"ID":568515,"DIS_CODE":0,"TOWNNAME":"安平區","LI":"華平里","LIN":"28鄰","STREET":"平通路","SECT":" ","MAREA":" ","LANE":" ","ALLEY":" ","HOUSE_NO":"４２１號","E_COORD97":165352.41,"N_COORD97":2543753.3599999999,"ADDRESS":"平通路４２１號","OBJECTID":568488},"geometry":{"x":165352.41000000015,"y":2543753.3600000031}},{"attributes":{"ID":568516,"DIS_CODE":0,"TOWNNAME":"安平區","LI":"華平里","LIN":"28鄰","STREET":"平通路","SECT":" ","MAREA":" ","LANE":" ","ALLEY":" ","HOUSE_NO":"４２５號","E_COORD97":165340.26000000001,"N_COORD97":2543754.0800000001,"ADDRESS":"平通路４２５號","OBJECTID":568489},"geometry":{"x":165340.26000000071,"y":2543754.0800000019}},{"attributes":{"ID":568517,"DIS_CODE":0,"TOWNNAME":"新營區","LI":"新南里","LIN":"28鄰","STREET":"明清二街","SECT":" ","MAREA":" ","LANE":" ","ALLEY":" ","HOUSE_NO":"６７號","E_COORD97":178351.39999999999,"N_COORD97":2578653.6899999999,"ADDRESS":"明清二街６７號","OBJECTID":568490},"geometry":{"x":178351.40000000037,"y":2578653.6899999995}},{"attributes":{"ID":568518,"DIS_CODE":0,"TOWNNAME":"新營區","LI":"新南里","LIN":"28鄰","STREET":"明清二街","SECT":" ","MAREA":" ","LANE":" ","ALLEY":" ","HOUSE_NO":"１１號","E_COORD97":178253.31,"N_COORD97":2578676.3100000001,"ADDRESS":"明清二街１１號","OBJECTID":568491},"geometry":{"x":178253.31000000052,"y":2578676.3100000024}},{"attributes":{"ID":568519,"DIS_CODE":0,"TOWNNAME":"中西區","LI":"法華里","LIN":"15鄰","STREET":"法華街","SECT":" ","MAREA":" ","LANE":" ","ALLEY":" ","HOUSE_NO":"１０９號","E_COORD97":168951.59,"N_COORD97":2542644.8799999999,"ADDRESS":"法華街１０９號","OBJECTID":568492},"geometry":{"x":168951.59000000171,"y":2542644.8800000008}},{"attributes":{"ID":568520,"DIS_CODE":0,"TOWNNAME":"新營區","LI":"新南里","LIN":"28鄰","STREET":"金華路","SECT":"二段","MAREA":" ","LANE":" ","ALLEY":" ","HOUSE_NO":"１７０號","E_COORD97":178468.10000000001,"N_COORD97":2578630.9900000002,"ADDRESS":"金華路二段１７０號","OBJECTID":568493},"geometry":{"x":178468.10000000149,"y":2578630.9900000021}},{"attributes":{"ID":568521,"DIS_CODE":0,"TOWNNAME":"新營區","LI":"民榮里","LIN":"28鄰","STREET":"復興路","SECT":" ","MAREA":" ","LANE":" ","ALLEY":" ","HOUSE_NO":"５４９之２號","E_COORD97":177988.26999999999,"N_COORD97":2578298.9199999999,"ADDRESS":"復興路５４９之２號","OBJECTID":568494},"geometry":{"x":177988.26999999955,"y":2578298.9200000018}},{"attributes":{"ID":568522,"DIS_CODE":0,"TOWNNAME":"中西區","LI":"法華里","LIN":"14鄰","STREET":"五妃街","SECT":" ","MAREA":" ","LANE":" ","ALLEY":" ","HOUSE_NO":"５９號","E_COORD97":168937.31,"N_COORD97":2542538.4700000002,"ADDRESS":"五妃街５９號","OBJECTID":568495},"geometry":{"x":168937.30999999959,"y":2542538.4700000025}},{"attributes":{"ID":568523,"DIS_CODE":0,"TOWNNAME":"中西區","LI":"法華里","LIN":"14鄰","STREET":"五妃街","SECT":" ","MAREA":" ","LANE":" ","ALLEY":" ","HOUSE_NO":"６１號","E_COORD97":168933.37,"N_COORD97":2542541.2200000002,"ADDRESS":"五妃街６１號","OBJECTID":568496},"geometry":{"x":168933.37000000104,"y":2542541.2200000007}},{"attributes":{"ID":568524,"DIS_CODE":0,"TOWNNAME":"中西區","LI":"法華里","LIN":"14鄰","STREET":"五妃街","SECT":" ","MAREA":" ","LANE":" ","ALLEY":" ","HOUSE_NO":"６３號","E_COORD97":168926.67999999999,"N_COORD97":2542539.6499999999,"ADDRESS":"五妃街６３號","OBJECTID":568497},"geometry":{"x":168926.6799999997,"y":2542539.6500000022}},{"attributes":{"ID":568525,"DIS_CODE":0,"TOWNNAME":"中西區","LI":"法華里","LIN":"14鄰","STREET":"五妃街","SECT":" ","MAREA":" ","LANE":" ","ALLEY":" ","HOUSE_NO":"６５號","E_COORD97":168921.17000000001,"N_COORD97":2542541.6200000001,"ADDRESS":"五妃街６５號","OBJECTID":568498},"geometry":{"x":168921.17000000086,"y":2542541.620000001}},{"attributes":{"ID":568526,"DIS_CODE":0,"TOWNNAME":"新營區","LI":"新北里","LIN":"28鄰","STREET":"新北街","SECT":" ","MAREA":" ","LANE":" ","ALLEY":" ","HOUSE_NO":"５６號","E_COORD97":178833.5,"N_COORD97":2578723.3599999999,"ADDRESS":"新北街５６號","OBJECTID":568499},"geometry":{"x":178833.5,"y":2578723.3600000013}},{"attributes":{"ID":568527,"DIS_CODE":0,"TOWNNAME":"安平區","LI":"建平里","LIN":"28鄰","STREET":"建平九街","SECT":" ","MAREA":" ","LANE":" ","ALLEY":" ","HOUSE_NO":"１００號","E_COORD97":165898.95999999999,"N_COORD97":2543559.0600000001,"ADDRESS":"建平九街１００號","OBJECTID":568500},"geometry":{"x":165898.95999999996,"y":2543559.0600000005}},{"attributes":{"ID":568528,"DIS_CODE":0,"TOWNNAME":"安平區","LI":"建平里","LIN":"28鄰","STREET":"建平九街","SECT":" ","MAREA":" ","LANE":" ","ALLEY":" ","HOUSE_NO":"６２號","E_COORD97":166009,"N_COORD97":2543544.5800000001,"ADDRESS":"建平九街６２號","OBJECTID":568501},"geometry":{"x":166009,"y":2543544.5800000001}},{"attributes":{"ID":568529,"DIS_CODE":0,"TOWNNAME":"安平區","LI":"建平里","LIN":"28鄰","STREET":"建平九街","SECT":" ","MAREA":" ","LANE":" ","ALLEY":" ","HOUSE_NO":"６４號","E_COORD97":165999.45000000001,"N_COORD97":2543545.3799999999,"ADDRESS":"建平九街６４號","OBJECTID":568502},"geometry":{"x":165999.45000000019,"y":2543545.379999999}},{"attributes":{"ID":568530,"DIS_CODE":0,"TOWNNAME":"安平區","LI":"建平里","LIN":"28鄰","STREET":"建平九街","SECT":" ","MAREA":" ","LANE":" ","ALLEY":" ","HOUSE_NO":"６６號","E_COORD97":165993.23999999999,"N_COORD97":2543546.4900000002,"ADDRESS":"建平九街６６號","OBJECTID":568503},"geometry":{"x":165993.24000000115,"y":2543546.4900000039}},{"attributes":{"ID":568531,"DIS_CODE":0,"TOWNNAME":"安平區","LI":"建平里","LIN":"28鄰","STREET":"建平九街","SECT":" ","MAREA":" ","LANE":" ","ALLEY":" ","HOUSE_NO":"６８號","E_COORD97":165988.28,"N_COORD97":2543545.5299999998,"ADDRESS":"建平九街６８號","OBJECTID":568504},"geometry":{"x":165988.28000000119,"y":2543545.5300000031}},{"attributes":{"ID":568532,"DIS_CODE":0,"TOWNNAME":"安平區","LI":"建平里","LIN":"28鄰","STREET":"建平九街","SECT":" ","MAREA":" ","LANE":" ","ALLEY":" ","HOUSE_NO":"７８號","E_COORD97":165963.28,"N_COORD97":2543551.2599999998,"ADDRESS":"建平九街７８號","OBJECTID":568505},"geometry":{"x":165963.28000000026,"y":2543551.2600000016}},{"attributes":{"ID":568533,"DIS_CODE":0,"TOWNNAME":"中西區","LI":"法華里","LIN":"15鄰","STREET":"法華街","SECT":" ","MAREA":" ","LANE":" ","ALLEY":" ","HOUSE_NO":"１１３號","E_COORD97":168929.17000000001,"N_COORD97":2542631.4100000001,"ADDRESS":"法華街１１３號","OBJECTID":568506},"geometry":{"x":168929.17000000179,"y":2542631.4099999983}},{"attributes":{"ID":568534,"DIS_CODE":0,"TOWNNAME":"中西區","LI":"法華里","LIN":"15鄰","STREET":"法華街","SECT":" ","MAREA":" ","LANE":" ","ALLEY":" ","HOUSE_NO":"１１５號","E_COORD97":168928.64999999999,"N_COORD97":2542624.1200000001,"ADDRESS":"法華街１１５號","OBJECTID":568507},"geometry":{"x":168928.6500000013,"y":2542624.1199999992}},{"attributes":{"ID":568535,"DIS_CODE":0,"TOWNNAME":"中西區","LI":"法華里","LIN":"15鄰","STREET":"法華街","SECT":" ","MAREA":" ","LANE":" ","ALLEY":" ","HOUSE_NO":"１１７號","E_COORD97":168906.75,"N_COORD97":2542615.79,"ADDRESS":"法華街１１７號","OBJECTID":568508},"geometry":{"x":168906.75000000186,"y":2542615.790000001}},{"attributes":{"ID":568536,"DIS_CODE":0,"TOWNNAME":"中西區","LI":"法華里","LIN":"15鄰","STREET":"法華街","SECT":" ","MAREA":" ","LANE":" ","ALLEY":" ","HOUSE_NO":"１１９號","E_COORD97":168900.23999999999,"N_COORD97":2542603.04,"ADDRESS":"法華街１１９號","OBJECTID":568509},"geometry":{"x":168900.24000000209,"y":2542603.040000001}},{"attributes":{"ID":568537,"DIS_CODE":0,"TOWNNAME":"中西區","LI":"法華里","LIN":"15鄰","STREET":"法華街","SECT":" ","MAREA":" ","LANE":" ","ALLEY":" ","HOUSE_NO":"１２５號","E_COORD97":168889.67000000001,"N_COORD97":2542590.5600000001,"ADDRESS":"法華街１２５號","OBJECTID":568510},"geometry":{"x":168889.66999999993,"y":2542590.5600000024}},{"attributes":{"ID":568538,"DIS_CODE":0,"TOWNNAME":"安平區","LI":"建平里","LIN":"28鄰","STREET":"建平九街","SECT":" ","MAREA":" ","LANE":" ","ALLEY":" ","HOUSE_NO":"８０號","E_COORD97":165959.62,"N_COORD97":2543553.6499999999,"ADDRESS":"建平九街８０號","OBJECTID":568511},"geometry":{"x":165959.61999999918,"y":2543553.6500000022}},{"attributes":{"ID":568539,"DIS_CODE":0,"TOWNNAME":"安平區","LI":"建平里","LIN":"28鄰","STREET":"建平九街","SECT":" ","MAREA":" ","LANE":" ","ALLEY":" ","HOUSE_NO":"９０號","E_COORD97":165935.73000000001,"N_COORD97":2543555.2400000002,"ADDRESS":"建平九街９０號","OBJECTID":568512},"geometry":{"x":165935.73000000138,"y":2543555.2400000039}},{"attributes":{"ID":568540,"DIS_CODE":0,"TOWNNAME":"安平區","LI":"建平里","LIN":"28鄰","STREET":"建平八街","SECT":" ","MAREA":" ","LANE":" ","ALLEY":" ","HOUSE_NO":"６８號","E_COORD97":165961.12,"N_COORD97":2543484.9500000002,"ADDRESS":"建平八街６８號","OBJECTID":568513},"geometry":{"x":165961.12000000011,"y":2543484.950000003}},{"attributes":{"ID":568541,"DIS_CODE":0,"TOWNNAME":"安平區","LI":"建平里","LIN":"28鄰","STREET":"建平八街","SECT":" ","MAREA":" ","LANE":" ","ALLEY":" ","HOUSE_NO":"７８號","E_COORD97":165892.41,"N_COORD97":2543504.5899999999,"ADDRESS":"建平八街７８號","OBJECTID":568514},"geometry":{"x":165892.41000000108,"y":2543504.589999998}},{"attributes":{"ID":568542,"DIS_CODE":0,"TOWNNAME":"安平區","LI":"華平里","LIN":"28鄰","STREET":"平通路","SECT":" ","MAREA":" ","LANE":" ","ALLEY":" ","HOUSE_NO":"４３３號","E_COORD97":165305.37,"N_COORD97":2543761.4700000002,"ADDRESS":"平通路４３３號","OBJECTID":568515},"geometry":{"x":165305.37000000197,"y":2543761.4700000025}},{"attributes":{"ID":568543,"DIS_CODE":0,"TOWNNAME":"安平區","LI":"華平里","LIN":"28鄰","STREET":"平通路","SECT":" ","MAREA":" ","LANE":" ","ALLEY":" ","HOUSE_NO":"４３５號","E_COORD97":165301.01000000001,"N_COORD97":2543761.8100000001,"ADDRESS":"平通路４３５號","OBJECTID":568516},"geometry":{"x":165301.01000000071,"y":2543761.8100000042}},{"attributes":{"ID":568544,"DIS_CODE":0,"TOWNNAME":"安平區","LI":"華平里","LIN":"28鄰","STREET":"平通路","SECT":" ","MAREA":" ","LANE":" ","ALLEY":" ","HOUSE_NO":"４３７號","E_COORD97":165297.20999999999,"N_COORD97":2543762.1400000001,"ADDRESS":"平通路４３７號","OBJECTID":568517},"geometry":{"x":165297.20999999996,"y":2543762.1400000006}},{"attributes":{"ID":568545,"DIS_CODE":0,"TOWNNAME":"安平區","LI":"華平里","LIN":"28鄰","STREET":"平通路","SECT":" ","MAREA":" ","LANE":" ","ALLEY":" ","HOUSE_NO":"４３９號","E_COORD97":165292.06,"N_COORD97":2543763.04,"ADDRESS":"平通路４３９號","OBJECTID":568518},"geometry":{"x":165292.06000000052,"y":2543763.040000001}},{"attributes":{"ID":568546,"DIS_CODE":0,"TOWNNAME":"安平區","LI":"華平里","LIN":"28鄰","STREET":"平通路","SECT":" ","MAREA":" ","LANE":" ","ALLEY":" ","HOUSE_NO":"４５７號","E_COORD97":165255.48000000001,"N_COORD97":2543766.7200000002,"ADDRESS":"平通路４５７號","OBJECTID":568519},"geometry":{"x":165255.48000000045,"y":2543766.7200000025}},{"attributes":{"ID":568547,"DIS_CODE":0,"TOWNNAME":"安平區","LI":"華平里","LIN":"28鄰","STREET":"平通路","SECT":" ","MAREA":" ","LANE":" ","ALLEY":" ","HOUSE_NO":"４５９號","E_COORD97":165251.07999999999,"N_COORD97":2543767.8599999999,"ADDRESS":"平通路４５９號","OBJECTID":568520},"geometry":{"x":165251.08000000007,"y":2543767.8600000013}},{"attributes":{"ID":568548,"DIS_CODE":0,"TOWNNAME":"安平區","LI":"華平里","LIN":"28鄰","STREET":"平通路","SECT":" ","MAREA":" ","LANE":" ","ALLEY":" ","HOUSE_NO":"４７９號","E_COORD97":165210.70999999999,"N_COORD97":2543774.71,"ADDRESS":"平通路４７９號","OBJECTID":568521},"geometry":{"x":165210.70999999996,"y":2543774.7100000009}},{"attributes":{"ID":568549,"DIS_CODE":0,"TOWNNAME":"安平區","LI":"華平里","LIN":"28鄰","STREET":"平通路","SECT":" ","MAREA":" ","LANE":" ","ALLEY":" ","HOUSE_NO":"４８１號","E_COORD97":165206.91,"N_COORD97":2543775.5800000001,"ADDRESS":"平通路４８１號","OBJECTID":568522},"geometry":{"x":165206.91000000201,"y":2543775.5800000001}},{"attributes":{"ID":568550,"DIS_CODE":0,"TOWNNAME":"安平區","LI":"華平里","LIN":"28鄰","STREET":"平通路","SECT":" ","MAREA":" ","LANE":" ","ALLEY":" ","HOUSE_NO":"４８３號","E_COORD97":165202.76999999999,"N_COORD97":2543776.0899999999,"ADDRESS":"平通路４８３號","OBJECTID":568523},"geometry":{"x":165202.77000000048,"y":2543776.0900000036}},{"attributes":{"ID":568551,"DIS_CODE":0,"TOWNNAME":"安平區","LI":"華平里","LIN":"28鄰","STREET":"平通路","SECT":" ","MAREA":" ","LANE":" ","ALLEY":" ","HOUSE_NO":"４８５號","E_COORD97":165198.26999999999,"N_COORD97":2543776.6099999999,"ADDRESS":"平通路４８５號","OBJECTID":568524},"geometry":{"x":165198.26999999955,"y":2543776.6100000013}},{"attributes":{"ID":568552,"DIS_CODE":0,"TOWNNAME":"安平區","LI":"華平里","LIN":"28鄰","STREET":"平通路","SECT":" ","MAREA":" ","LANE":" ","ALLEY":" ","HOUSE_NO":"４８７號","E_COORD97":165194.13,"N_COORD97":2543777.2999999998,"ADDRESS":"平通路４８７號","OBJECTID":568525},"geometry":{"x":165194.12999999989,"y":2543777.3000000007}},{"attributes":{"ID":568553,"DIS_CODE":0,"TOWNNAME":"中西區","LI":"法華里","LIN":"15鄰","STREET":"府連路","SECT":" ","MAREA":" ","LANE":" ","ALLEY":" ","HOUSE_NO":"９９號","E_COORD97":168989.89000000001,"N_COORD97":2542624.71,"ADDRESS":"府連路９９號","OBJECTID":568526},"geometry":{"x":168989.88999999966,"y":2542624.7100000028}},{"attributes":{"ID":568554,"DIS_CODE":0,"TOWNNAME":"安平區","LI":"華平里","LIN":"28鄰","STREET":"平通路","SECT":" ","MAREA":" ","LANE":" ","ALLEY":" ","HOUSE_NO":"４８９號","E_COORD97":165189.98000000001,"N_COORD97":2543778.3399999999,"ADDRESS":"平通路４８９號","OBJECTID":568527},"geometry":{"x":165189.98000000138,"y":2543778.3400000017}},{"attributes":{"ID":568555,"DIS_CODE":0,"TOWNNAME":"安平區","LI":"華平里","LIN":"28鄰","STREET":"平通路","SECT":" ","MAREA":" ","LANE":" ","ALLEY":" ","HOUSE_NO":"４９１號","E_COORD97":165185.84,"N_COORD97":2543778.8500000001,"ADDRESS":"平通路４９１號","OBJECTID":568528},"geometry":{"x":165185.83999999985,"y":2543778.8500000015}},{"attributes":{"ID":568556,"DIS_CODE":0,"TOWNNAME":"安平區","LI":"華平里","LIN":"28鄰","STREET":"平通路","SECT":" ","MAREA":" ","LANE":" ","ALLEY":" ","HOUSE_NO":"４９７號","E_COORD97":165172.19,"N_COORD97":2543779.8900000001,"ADDRESS":"平通路４９７號","OBJECTID":568529},"geometry":{"x":165172.19000000041,"y":2543779.8900000006}},{"attributes":{"ID":568557,"DIS_CODE":0,"TOWNNAME":"安平區","LI":"華平里","LIN":"28鄰","STREET":"平通路","SECT":" ","MAREA":" ","LANE":" ","ALLEY":" ","HOUSE_NO":"４９９號","E_COORD97":165156.42999999999,"N_COORD97":2543783.04,"ADDRESS":"平通路４９９號","OBJECTID":568530},"geometry":{"x":165156.4299999997,"y":2543783.040000001}},{"attributes":{"ID":568558,"DIS_CODE":0,"TOWNNAME":"安平區","LI":"華平里","LIN":"28鄰","STREET":"平通路","SECT":" ","MAREA":" ","LANE":" ","ALLEY":" ","HOUSE_NO":"５０３號","E_COORD97":165147.76999999999,"N_COORD97":2543784.3399999999,"ADDRESS":"平通路５０３號","OBJECTID":568531},"geometry":{"x":165147.77000000142,"y":2543784.3400000036}},{"attributes":{"ID":568559,"DIS_CODE":0,"TOWNNAME":"安平區","LI":"華平里","LIN":"28鄰","STREET":"平通路","SECT":" ","MAREA":" ","LANE":" ","ALLEY":" ","HOUSE_NO":"５０５號","E_COORD97":165143.62,"N_COORD97":2543785.4100000001,"ADDRESS":"平通路５０５號","OBJECTID":568532},"geometry":{"x":165143.62000000011,"y":2543785.410000002}},{"attributes":{"ID":568560,"DIS_CODE":0,"TOWNNAME":"安平區","LI":"華平里","LIN":"28鄰","STREET":"平通路","SECT":" ","MAREA":" ","LANE":" ","ALLEY":" ","HOUSE_NO":"５０７號","E_COORD97":165139.35000000001,"N_COORD97":2543786.4700000002,"ADDRESS":"平通路５０７號","OBJECTID":568533},"geometry":{"x":165139.35000000056,"y":2543786.4700000007}},{"attributes":{"ID":568561,"DIS_CODE":0,"TOWNNAME":"安平區","LI":"華平里","LIN":"28鄰","STREET":"平通路","SECT":" ","MAREA":" ","LANE":" ","ALLEY":" ","HOUSE_NO":"５０９號","E_COORD97":165135.44,"N_COORD97":2543786.9500000002,"ADDRESS":"平通路５０９號","OBJECTID":568534},"geometry":{"x":165135.44000000041,"y":2543786.9500000011}},{"attributes":{"ID":568562,"DIS_CODE":0,"TOWNNAME":"安平區","LI":"華平里","LIN":"28鄰","STREET":"平通路","SECT":" ","MAREA":" ","LANE":" ","ALLEY":" ","HOUSE_NO":"５１１號","E_COORD97":165130.81,"N_COORD97":2543787.6600000001,"ADDRESS":"平通路５１１號","OBJECTID":568535},"geometry":{"x":165130.81000000052,"y":2543787.660000002}},{"attributes":{"ID":568563,"DIS_CODE":0,"TOWNNAME":"安平區","LI":"華平里","LIN":"28鄰","STREET":"平通路","SECT":" ","MAREA":" ","LANE":" ","ALLEY":" ","HOUSE_NO":"５１９號","E_COORD97":165112.53,"N_COORD97":2543790.52,"ADDRESS":"平通路５１９號","OBJECTID":568536},"geometry":{"x":165112.53000000026,"y":2543790.5200000014}},{"attributes":{"ID":568564,"DIS_CODE":0,"TOWNNAME":"安平區","LI":"華平里","LIN":"28鄰","STREET":"平通路","SECT":" ","MAREA":" ","LANE":" ","ALLEY":" ","HOUSE_NO":"５２３號","E_COORD97":165103.78,"N_COORD97":2543791.9700000002,"ADDRESS":"平通路５２３號","OBJECTID":568537},"geometry":{"x":165103.78000000026,"y":2543791.9700000025}},{"attributes":{"ID":568565,"DIS_CODE":0,"TOWNNAME":"安平區","LI":"華平里","LIN":"28鄰","STREET":"平通路","SECT":" ","MAREA":" ","LANE":" ","ALLEY":" ","HOUSE_NO":"５２５號","E_COORD97":165099.31,"N_COORD97":2543792.6499999999,"ADDRESS":"平通路５２５號","OBJECTID":568538},"geometry":{"x":165099.30999999959,"y":2543792.6500000004}},{"attributes":{"ID":568566,"DIS_CODE":0,"TOWNNAME":"安平區","LI":"華平里","LIN":"28鄰","STREET":"平通路","SECT":" ","MAREA":" ","LANE":" ","ALLEY":" ","HOUSE_NO":"５２７號","E_COORD97":165095.81,"N_COORD97":2543793.3300000001,"ADDRESS":"平通路５２７號","OBJECTID":568539},"geometry":{"x":165095.81000000052,"y":2543793.3300000001}},{"attributes":{"ID":568567,"DIS_CODE":0,"TOWNNAME":"安平區","LI":"華平里","LIN":"28鄰","STREET":"平通路","SECT":" ","MAREA":" ","LANE":" ","ALLEY":" ","HOUSE_NO":"５２９號","E_COORD97":165091.23999999999,"N_COORD97":2543793.6200000001,"ADDRESS":"平通路５２９號","OBJECTID":568540},"geometry":{"x":165091.24000000115,"y":2543793.620000001}},{"attributes":{"ID":568568,"DIS_CODE":0,"TOWNNAME":"安平區","LI":"華平里","LIN":"28鄰","STREET":"平通路","SECT":" ","MAREA":" ","LANE":" ","ALLEY":" ","HOUSE_NO":"５３１號","E_COORD97":165086.97,"N_COORD97":2543794.2999999998,"ADDRESS":"平通路５３１號","OBJECTID":568541},"geometry":{"x":165086.96999999974,"y":2543794.3000000007}},{"attributes":{"ID":568569,"DIS_CODE":0,"TOWNNAME":"安平區","LI":"華平里","LIN":"28鄰","STREET":"平通路","SECT":" ","MAREA":" ","LANE":" ","ALLEY":" ","HOUSE_NO":"５３３號","E_COORD97":165082.79000000001,"N_COORD97":2543795.3700000001,"ADDRESS":"平通路５３３號","OBJECTID":568542},"geometry":{"x":165082.79000000097,"y":2543795.370000001}},{"attributes":{"ID":568570,"DIS_CODE":0,"TOWNNAME":"安平區","LI":"華平里","LIN":"28鄰","STREET":"平通路","SECT":" ","MAREA":" ","LANE":" ","ALLEY":" ","HOUSE_NO":"５３５號","E_COORD97":165078.32000000001,"N_COORD97":2543795.3700000001,"ADDRESS":"平通路５３５號","OBJECTID":568543},"geometry":{"x":165078.3200000003,"y":2543795.370000001}},{"attributes":{"ID":568571,"DIS_CODE":0,"TOWNNAME":"歸仁區","LI":"歸仁里","LIN":"28鄰","STREET":"中山路","SECT":"一段","MAREA":" ","LANE":" ","ALLEY":" ","HOUSE_NO":"２８８號","E_COORD97":178566.01000000001,"N_COORD97":2540672.25,"ADDRESS":"中山路一段２８８號","OBJECTID":568544},"geometry":{"x":178566.01000000071,"y":2540672.25}},{"attributes":{"ID":568572,"DIS_CODE":0,"TOWNNAME":"歸仁區","LI":"許厝里","LIN":"28鄰","STREET":"中山路","SECT":"一段","MAREA":" ","LANE":" ","ALLEY":" ","HOUSE_NO":"４９２號","E_COORD97":177919.38,"N_COORD97":2540754.04,"ADDRESS":"中山路一段４９２號","OBJECTID":568545},"geometry":{"x":177919.38000000082,"y":2540754.0399999991}},{"attributes":{"ID":568573,"DIS_CODE":0,"TOWNNAME":"中西區","LI":"法華里","LIN":"17鄰","STREET":"法華街","SECT":" ","MAREA":" ","LANE":" ","ALLEY":" ","HOUSE_NO":"１７６號之２","E_COORD97":168843.23000000001,"N_COORD97":2542533.7599999998,"ADDRESS":"法華街１７６號之２","OBJECTID":568546},"geometry":{"x":168843.23000000138,"y":2542533.7600000035}},{"attributes":{"ID":568574,"DIS_CODE":0,"TOWNNAME":"中西區","LI":"法華里","LIN":"17鄰","STREET":"法華街","SECT":" ","MAREA":" ","LANE":" ","ALLEY":" ","HOUSE_NO":"１７６號之３","E_COORD97":168842.44,"N_COORD97":2542526.29,"ADDRESS":"法華街１７６號之３","OBJECTID":568547},"geometry":{"x":168842.44000000041,"y":2542526.2900000028}},{"attributes":{"ID":568575,"DIS_CODE":0,"TOWNNAME":"中西區","LI":"法華里","LIN":"17鄰","STREET":"法華街","SECT":" ","MAREA":" ","LANE":" ","ALLEY":" ","HOUSE_NO":"１８０號","E_COORD97":168860.94,"N_COORD97":2542510.5699999998,"ADDRESS":"法華街１８０號","OBJECTID":568548},"geometry":{"x":168860.94000000041,"y":2542510.5700000003}},{"attributes":{"ID":568576,"DIS_CODE":0,"TOWNNAME":"中西區","LI":"法華里","LIN":"17鄰","STREET":"法華街","SECT":" ","MAREA":" ","LANE":" ","ALLEY":" ","HOUSE_NO":"１８２號","E_COORD97":168855.82000000001,"N_COORD97":2542498.3799999999,"ADDRESS":"法華街１８２號","OBJECTID":568549},"geometry":{"x":168855.82000000123,"y":2542498.3800000027}},{"attributes":{"ID":568577,"DIS_CODE":0,"TOWNNAME":"中西區","LI":"法華里","LIN":"17鄰","STREET":"法華街","SECT":" ","MAREA":" ","LANE":" ","ALLEY":" ","HOUSE_NO":"１８４號","E_COORD97":168857.01000000001,"N_COORD97":2542494.0600000001,"ADDRESS":"法華街１８４號","OBJECTID":568550},"geometry":{"x":168857.00999999978,"y":2542494.0600000005}},{"attributes":{"ID":568578,"DIS_CODE":0,"TOWNNAME":"中西區","LI":"法華里","LIN":"17鄰","STREET":"法華街","SECT":" ","MAREA":" ","LANE":" ","ALLEY":" ","HOUSE_NO":"１８６號","E_COORD97":168855.82000000001,"N_COORD97":2542490.52,"ADDRESS":"法華街１８６號","OBJECTID":568551},"geometry":{"x":168855.82000000123,"y":2542490.5199999996}},{"attributes":{"ID":568579,"DIS_CODE":0,"TOWNNAME":"中西區","LI":"法華里","LIN":"17鄰","STREET":"法華街","SECT":" ","MAREA":" ","LANE":" ","ALLEY":" ","HOUSE_NO":"１８８號","E_COORD97":168857.01000000001,"N_COORD97":2542486.2000000002,"ADDRESS":"法華街１８８號","OBJECTID":568552},"geometry":{"x":168857.00999999978,"y":2542486.200000003}},{"attributes":{"ID":568580,"DIS_CODE":0,"TOWNNAME":"中西區","LI":"法華里","LIN":"17鄰","STREET":"法華街","SECT":" ","MAREA":" ","LANE":" ","ALLEY":" ","HOUSE_NO":"１９０號","E_COORD97":168844.41,"N_COORD97":2542493.6699999999,"ADDRESS":"法華街１９０號","OBJECTID":568553},"geometry":{"x":168844.41000000015,"y":2542493.6699999999}},{"attributes":{"ID":568581,"DIS_CODE":0,"TOWNNAME":"中西區","LI":"法華里","LIN":"17鄰","STREET":"法華街","SECT":" ","MAREA":" ","LANE":" ","ALLEY":" ","HOUSE_NO":"１９０號之１","E_COORD97":168831.81,"N_COORD97":2542483.6099999999,"ADDRESS":"法華街１９０號之１","OBJECTID":568554},"geometry":{"x":168831.81000000052,"y":2542483.6100000031}},{"attributes":{"ID":568582,"DIS_CODE":0,"TOWNNAME":"中西區","LI":"法華里","LIN":"17鄰","STREET":"法華街","SECT":" ","MAREA":" ","LANE":" ","ALLEY":" ","HOUSE_NO":"１９０號之２","E_COORD97":168836.92999999999,"N_COORD97":2542494.0600000001,"ADDRESS":"法華街１９０號之２","OBJECTID":568555},"geometry":{"x":168836.9299999997,"y":2542494.0600000005}},{"attributes":{"ID":568583,"DIS_CODE":0,"TOWNNAME":"歸仁區","LI":"辜厝里","LIN":"28鄰","STREET":"大吉二街","SECT":" ","MAREA":" ","LANE":" ","ALLEY":" ","HOUSE_NO":"５號","E_COORD97":177233.39000000001,"N_COORD97":2540549.6800000002,"ADDRESS":"大吉二街５號","OBJECTID":568556},"geometry":{"x":177233.38999999966,"y":2540549.6799999997}},{"attributes":{"ID":568584,"DIS_CODE":0,"TOWNNAME":"歸仁區","LI":"歸南里","LIN":"28鄰","STREET":"民生南街","SECT":"二段","MAREA":" ","LANE":" ","ALLEY":" ","HOUSE_NO":"３３６號","E_COORD97":176080.54000000001,"N_COORD97":2539906.29,"ADDRESS":"民生南街二段３３６號","OBJECTID":568557},"geometry":{"x":176080.5400000019,"y":2539906.290000001}},{"attributes":{"ID":568585,"DIS_CODE":0,"TOWNNAME":"歸仁區","LI":"辜厝里","LIN":"28鄰","STREET":"大吉街","SECT":" ","MAREA":" ","LANE":" ","ALLEY":" ","HOUSE_NO":"１０９號","E_COORD97":177213.23999999999,"N_COORD97":2540576.6800000002,"ADDRESS":"大吉街１０９號","OBJECTID":568558},"geometry":{"x":177213.23999999929,"y":2540576.6799999997}},{"attributes":{"ID":568586,"DIS_CODE":0,"TOWNNAME":"玉井區","LI":"玉田里","LIN":"28鄰","STREET":"中山路","SECT":" ","MAREA":" ","LANE":" ","ALLEY":" ","HOUSE_NO":"７號","E_COORD97":194910.75,"N_COORD97":2557716.25,"ADDRESS":"中山路７號","OBJECTID":568559},"geometry":{"x":194910.74999999907,"y":2557716.2500000037}},{"attributes":{"ID":568587,"DIS_CODE":0,"TOWNNAME":"玉井區","LI":"玉田里","LIN":"28鄰","STREET":"中山路","SECT":" ","MAREA":" ","LANE":" ","ALLEY":" ","HOUSE_NO":"１９號","E_COORD97":194956.70999999999,"N_COORD97":2557721.25,"ADDRESS":"中山路１９號","OBJECTID":568560},"geometry":{"x":194956.70999999903,"y":2557721.2500000019}},{"attributes":{"ID":568588,"DIS_CODE":0,"TOWNNAME":"玉井區","LI":"玉田里","LIN":"28鄰","STREET":"中山路","SECT":" ","MAREA":" ","LANE":" ","ALLEY":" ","HOUSE_NO":"６３號","E_COORD97":195116.39999999999,"N_COORD97":2557750.2400000002,"ADDRESS":"中山路６３號","OBJECTID":568561},"geometry":{"x":195116.40000000037,"y":2557750.2399999984}},{"attributes":{"ID":568589,"DIS_CODE":0,"TOWNNAME":"中西區","LI":"法華里","LIN":"17鄰","STREET":"法華街","SECT":" ","MAREA":" ","LANE":" ","ALLEY":" ","HOUSE_NO":"１９８號","E_COORD97":168846.76999999999,"N_COORD97":2542476.9199999999,"ADDRESS":"法華街１９８號","OBJECTID":568562},"geometry":{"x":168846.77000000142,"y":2542476.9200000018}},{"attributes":{"ID":568590,"DIS_CODE":0,"TOWNNAME":"中西區","LI":"法華里","LIN":"17鄰","STREET":"法華街","SECT":" ","MAREA":" ","LANE":" ","ALLEY":" ","HOUSE_NO":"２００號","E_COORD97":168838.5,"N_COORD97":2542478.5,"ADDRESS":"法華街２００號","OBJECTID":568563},"geometry":{"x":168838.5,"y":2542478.5000000037}},{"attributes":{"ID":568591,"DIS_CODE":0,"TOWNNAME":"中西區","LI":"法華里","LIN":"17鄰","STREET":"法華街","SECT":" ","MAREA":" ","LANE":" ","ALLEY":" ","HOUSE_NO":"２０２號","E_COORD97":168839.69,"N_COORD97":2542465.9199999999,"ADDRESS":"法華街２０２號","OBJECTID":568564},"geometry":{"x":168839.69000000227,"y":2542465.9200000018}},{"attributes":{"ID":568592,"DIS_CODE":0,"TOWNNAME":"中西區","LI":"法華里","LIN":"17鄰","STREET":"法華街","SECT":" ","MAREA":" ","LANE":" ","ALLEY":" ","HOUSE_NO":"２０４號","E_COORD97":168845.59,"N_COORD97":2542464.7400000002,"ADDRESS":"法華街２０４號","OBJECTID":568565},"geometry":{"x":168845.59000000078,"y":2542464.7400000021}},{"attributes":{"ID":568593,"DIS_CODE":0,"TOWNNAME":"中西區","LI":"法華里","LIN":"17鄰","STREET":"法華街","SECT":" ","MAREA":" ","LANE":" ","ALLEY":" ","HOUSE_NO":"２０６號","E_COORD97":168852.67999999999,"N_COORD97":2542463.9500000002,"ADDRESS":"法華街２０６號","OBJECTID":568566},"geometry":{"x":168852.68000000156,"y":2542463.9499999993}},{"attributes":{"ID":568594,"DIS_CODE":0,"TOWNNAME":"中西區","LI":"法華里","LIN":"17鄰","STREET":"法華街","SECT":" ","MAREA":" ","LANE":" ","ALLEY":" ","HOUSE_NO":"２１０號","E_COORD97":168855.82000000001,"N_COORD97":2542457.6699999999,"ADDRESS":"法華街２１０號","OBJECTID":568567},"geometry":{"x":168855.82000000123,"y":2542457.6700000018}},{"attributes":{"ID":568595,"DIS_CODE":0,"TOWNNAME":"中西區","LI":"法華里","LIN":"17鄰","STREET":"法華街","SECT":" ","MAREA":" ","LANE":" ","ALLEY":" ","HOUSE_NO":"２１２號","E_COORD97":168855.82000000001,"N_COORD97":2542453.3399999999,"ADDRESS":"法華街２１２號","OBJECTID":568568},"geometry":{"x":168855.82000000123,"y":2542453.3400000017}},{"attributes":{"ID":568596,"DIS_CODE":0,"TOWNNAME":"歸仁區","LI":"歸南里","LIN":"28鄰","STREET":"民生南街","SECT":"二段","MAREA":" ","LANE":" ","ALLEY":" ","HOUSE_NO":"２５４號","E_COORD97":176077.14000000001,"N_COORD97":2540056.29,"ADDRESS":"民生南街二段２５４號","OBJECTID":568569},"geometry":{"x":176077.13999999966,"y":2540056.2899999991}},{"attributes":{"ID":568597,"DIS_CODE":0,"TOWNNAME":"中西區","LI":"法華里","LIN":"19鄰","STREET":"五妃街","SECT":" ","MAREA":" ","LANE":" ","ALLEY":" ","HOUSE_NO":"１１７號","E_COORD97":168806.82000000001,"N_COORD97":2542562.04,"ADDRESS":"五妃街１１７號","OBJECTID":568570},"geometry":{"x":168806.82000000123,"y":2542562.0400000028}},{"attributes":{"ID":568598,"DIS_CODE":0,"TOWNNAME":"中西區","LI":"法華里","LIN":"19鄰","STREET":"五妃街","SECT":" ","MAREA":" ","LANE":" ","ALLEY":" ","HOUSE_NO":"１１９號","E_COORD97":168801.60999999999,"N_COORD97":2542560.1400000001,"ADDRESS":"五妃街１１９號","OBJECTID":568571},"geometry":{"x":168801.61000000127,"y":2542560.1400000025}},{"attributes":{"ID":568599,"DIS_CODE":0,"TOWNNAME":"中西區","LI":"法華里","LIN":"19鄰","STREET":"五妃街","SECT":" ","MAREA":" ","LANE":" ","ALLEY":" ","HOUSE_NO":"１２１號","E_COORD97":168797.39000000001,"N_COORD97":2542562.1000000001,"ADDRESS":"五妃街１２１號","OBJECTID":568572},"geometry":{"x":168797.3900000006,"y":2542562.1000000034}},{"attributes":{"ID":568600,"DIS_CODE":0,"TOWNNAME":"中西區","LI":"法華里","LIN":"19鄰","STREET":"五妃街","SECT":" ","MAREA":" ","LANE":" ","ALLEY":" ","HOUSE_NO":"１２３號","E_COORD97":168792.89000000001,"N_COORD97":2542560.98,"ADDRESS":"五妃街１２３號","OBJECTID":568573},"geometry":{"x":168792.88999999966,"y":2542560.9800000023}},{"attributes":{"ID":568601,"DIS_CODE":0,"TOWNNAME":"中西區","LI":"法華里","LIN":"19鄰","STREET":"五妃街","SECT":" ","MAREA":" ","LANE":" ","ALLEY":" ","HOUSE_NO":"１２５號","E_COORD97":168788.67000000001,"N_COORD97":2542559.0099999998,"ADDRESS":"五妃街１２５號","OBJECTID":568574},"geometry":{"x":168788.67000000086,"y":2542559.0099999998}},{"attributes":{"ID":568602,"DIS_CODE":0,"TOWNNAME":"中西區","LI":"法華里","LIN":"19鄰","STREET":"五妃街","SECT":" ","MAREA":" ","LANE":" ","ALLEY":" ","HOUSE_NO":"１２７號","E_COORD97":168784.73000000001,"N_COORD97":2542561.8199999998,"ADDRESS":"五妃街１２７號","OBJECTID":568575},"geometry":{"x":168784.73000000045,"y":2542561.8200000022}},{"attributes":{"ID":568603,"DIS_CODE":0,"TOWNNAME":"中西區","LI":"法華里","LIN":"19鄰","STREET":"五妃街","SECT":" ","MAREA":" ","LANE":" ","ALLEY":" ","HOUSE_NO":"１２９號","E_COORD97":168780.23000000001,"N_COORD97":2542559.29,"ADDRESS":"五妃街１２９號","OBJECTID":568576},"geometry":{"x":168780.23000000231,"y":2542559.2899999991}},{"attributes":{"ID":568604,"DIS_CODE":0,"TOWNNAME":"中西區","LI":"法華里","LIN":"19鄰","STREET":"五妃街","SECT":" ","MAREA":" ","LANE":" ","ALLEY":" ","HOUSE_NO":"１３１號","E_COORD97":168775.17000000001,"N_COORD97":2542557.6099999999,"ADDRESS":"五妃街１３１號","OBJECTID":568577},"geometry":{"x":168775.17000000086,"y":2542557.6099999994}},{"attributes":{"ID":568605,"DIS_CODE":0,"TOWNNAME":"中西區","LI":"法華里","LIN":"19鄰","STREET":"五妃街","SECT":" ","MAREA":" ","LANE":" ","ALLEY":" ","HOUSE_NO":"１３３號","E_COORD97":168770.66,"N_COORD97":2542560.1400000001,"ADDRESS":"五妃街１３３號","OBJECTID":568578},"geometry":{"x":168770.66000000108,"y":2542560.1400000025}},{"attributes":{"ID":568606,"DIS_CODE":0,"TOWNNAME":"中西區","LI":"法華里","LIN":"19鄰","STREET":"五妃街","SECT":" ","MAREA":" ","LANE":" ","ALLEY":" ","HOUSE_NO":"１３５號","E_COORD97":168766.45000000001,"N_COORD97":2542562.1000000001,"ADDRESS":"五妃街１３５號","OBJECTID":568579},"geometry":{"x":168766.45000000205,"y":2542562.1000000034}},{"attributes":{"ID":568607,"DIS_CODE":0,"TOWNNAME":"中西區","LI":"法華里","LIN":"19鄰","STREET":"五妃街","SECT":" ","MAREA":" ","LANE":" ","ALLEY":" ","HOUSE_NO":"１３７號","E_COORD97":168762.23000000001,"N_COORD97":2542560.1400000001,"ADDRESS":"五妃街１３７號","OBJECTID":568580},"geometry":{"x":168762.23000000138,"y":2542560.1400000025}},{"attributes":{"ID":568608,"DIS_CODE":0,"TOWNNAME":"中西區","LI":"法華里","LIN":"19鄰","STREET":"五妃街","SECT":" ","MAREA":" ","LANE":" ","ALLEY":" ","HOUSE_NO":"１３９號","E_COORD97":168757.73000000001,"N_COORD97":2542562.6600000001,"ADDRESS":"五妃街１３９號","OBJECTID":568581},"geometry":{"x":168757.73000000045,"y":2542562.660000002}},{"attributes":{"ID":568609,"DIS_CODE":0,"TOWNNAME":"中西區","LI":"法華里","LIN":"19鄰","STREET":"五妃街","SECT":" ","MAREA":" ","LANE":" ","ALLEY":" ","HOUSE_NO":"１４１號","E_COORD97":168753.79000000001,"N_COORD97":2542561.2599999998,"ADDRESS":"五妃街１４１號","OBJECTID":568582},"geometry":{"x":168753.7900000019,"y":2542561.2600000035}},{"attributes":{"ID":568610,"DIS_CODE":0,"TOWNNAME":"中西區","LI":"法華里","LIN":"20鄰","STREET":"五妃街","SECT":" ","MAREA":" ","LANE":" ","ALLEY":" ","HOUSE_NO":"１４５號","E_COORD97":168738.88,"N_COORD97":2542563.0699999998,"ADDRESS":"五妃街１４５號","OBJECTID":568583},"geometry":{"x":168738.87999999989,"y":2542563.070000004}},{"attributes":{"ID":568611,"DIS_CODE":0,"TOWNNAME":"新營區","LI":"新南里","LIN":"28鄰","STREET":"明清二街","SECT":" ","MAREA":" ","LANE":" ","ALLEY":" ","HOUSE_NO":"２００號","E_COORD97":178437.14999999999,"N_COORD97":2578675.4900000002,"ADDRESS":"明清二街２００號","OBJECTID":568584},"geometry":{"x":178437.1500000013,"y":2578675.4900000021}},{"attributes":{"ID":568612,"DIS_CODE":0,"TOWNNAME":"新營區","LI":"新南里","LIN":"28鄰","STREET":"明清二街","SECT":" ","MAREA":" ","LANE":" ","ALLEY":" ","HOUSE_NO":"１６２之２號","E_COORD97":178298.35999999999,"N_COORD97":2578715.7000000002,"ADDRESS":"明清二街１６２之２號","OBJECTID":568585},"geometry":{"x":178298.36000000127,"y":2578715.6999999974}},{"attributes":{"ID":568613,"DIS_CODE":0,"TOWNNAME":"新營區","LI":"新南里","LIN":"28鄰","STREET":"明清二街","SECT":" ","MAREA":" ","LANE":" ","ALLEY":" ","HOUSE_NO":"１９０號","E_COORD97":178437.60000000001,"N_COORD97":2578686.7400000002,"ADDRESS":"明清二街１９０號","OBJECTID":568586},"geometry":{"x":178437.60000000149,"y":2578686.7400000021}},{"attributes":{"ID":568614,"DIS_CODE":0,"TOWNNAME":"新營區","LI":"民生里","LIN":"28鄰","STREET":"進修街","SECT":" ","MAREA":" ","LANE":" ","ALLEY":" ","HOUSE_NO":"２５之４２號","E_COORD97":178932.60000000001,"N_COORD97":2578545.75,"ADDRESS":"進修街２５之４２號","OBJECTID":568587},"geometry":{"x":178932.60000000149,"y":2578545.75}},{"attributes":{"ID":568615,"DIS_CODE":0,"TOWNNAME":"新營區","LI":"新東里","LIN":"28鄰","STREET":"東光街","SECT":" ","MAREA":" ","LANE":" ","ALLEY":" ","HOUSE_NO":"５３號","E_COORD97":180602.67000000001,"N_COORD97":2579673.46,"ADDRESS":"東光街５３號","OBJECTID":568588},"geometry":{"x":180602.67000000086,"y":2579673.4600000028}},{"attributes":{"ID":568616,"DIS_CODE":0,"TOWNNAME":"新營區","LI":"民生里","LIN":"28鄰","STREET":"進修街","SECT":" ","MAREA":" ","LANE":" ","ALLEY":" ","HOUSE_NO":"２５之７２號","E_COORD97":178997.20999999999,"N_COORD97":2578583.0899999999,"ADDRESS":"進修街２５之７２號","OBJECTID":568589},"geometry":{"x":178997.21000000089,"y":2578583.0900000017}},{"attributes":{"ID":568617,"DIS_CODE":0,"TOWNNAME":"新營區","LI":"新北里","LIN":"28鄰","STREET":"新北二街","SECT":" ","MAREA":" ","LANE":" ","ALLEY":" ","HOUSE_NO":"６之１３號","E_COORD97":178925.10000000001,"N_COORD97":2578748.4399999999,"ADDRESS":"新北二街６之１３號","OBJECTID":568590},"geometry":{"x":178925.09999999963,"y":2578748.4400000032}},{"attributes":{"ID":568618,"DIS_CODE":0,"TOWNNAME":"新營區","LI":"新北里","LIN":"28鄰","STREET":"新北二街","SECT":" ","MAREA":" ","LANE":" ","ALLEY":" ","HOUSE_NO":"６之８號","E_COORD97":178900.32999999999,"N_COORD97":2578748.5499999998,"ADDRESS":"新北二街６之８號","OBJECTID":568591},"geometry":{"x":178900.33000000007,"y":2578748.5500000007}},{"attributes":{"ID":568619,"DIS_CODE":0,"TOWNNAME":"新營區","LI":"新北里","LIN":"28鄰","STREET":"新北二街","SECT":" ","MAREA":" ","LANE":" ","ALLEY":" ","HOUSE_NO":"２６號","E_COORD97":178905.39999999999,"N_COORD97":2578775.0600000001,"ADDRESS":"新北二街２６號","OBJECTID":568592},"geometry":{"x":178905.40000000037,"y":2578775.0600000005}},{"attributes":{"ID":568620,"DIS_CODE":0,"TOWNNAME":"新營區","LI":"三仙里","LIN":"28鄰","STREET":"育德街","SECT":" ","MAREA":" ","LANE":" ","ALLEY":" ","HOUSE_NO":"１０２號","E_COORD97":179600.32999999999,"N_COORD97":2579261.2400000002,"ADDRESS":"育德街１０２號","OBJECTID":568593},"geometry":{"x":179600.33000000007,"y":2579261.2400000002}},{"attributes":{"ID":568621,"DIS_CODE":0,"TOWNNAME":"新營區","LI":"新南里","LIN":"28鄰","STREET":"明清二街","SECT":" ","MAREA":" ","LANE":" ","ALLEY":" ","HOUSE_NO":"４９號","E_COORD97":178310.57000000001,"N_COORD97":2578658.3199999998,"ADDRESS":"明清二街４９號","OBJECTID":568594},"geometry":{"x":178310.5700000003,"y":2578658.3199999984}},{"attributes":{"ID":568622,"DIS_CODE":0,"TOWNNAME":"中西區","LI":"法華里","LIN":"21鄰","STREET":"健康路","SECT":"一段","MAREA":" ","LANE":" ","ALLEY":" ","HOUSE_NO":"１４２號","E_COORD97":168804.42000000001,"N_COORD97":2542449.73,"ADDRESS":"健康路一段１４２號","OBJECTID":568595},"geometry":{"x":168804.42000000086,"y":2542449.7300000004}},{"attributes":{"ID":568623,"DIS_CODE":0,"TOWNNAME":"中西區","LI":"法華里","LIN":"21鄰","STREET":"健康路","SECT":"一段","MAREA":" ","LANE":" ","ALLEY":" ","HOUSE_NO":"１４４號","E_COORD97":168797.10999999999,"N_COORD97":2542451.1400000001,"ADDRESS":"健康路一段１４４號","OBJECTID":568596},"geometry":{"x":168797.11000000034,"y":2542451.1400000025}},{"attributes":{"ID":568624,"DIS_CODE":0,"TOWNNAME":"中西區","LI":"法華里","LIN":"21鄰","STREET":"健康路","SECT":"一段","MAREA":" ","LANE":" ","ALLEY":" ","HOUSE_NO":"１４８號","E_COORD97":168786.98000000001,"N_COORD97":2542462.6499999999,"ADDRESS":"健康路一段１４８號","OBJECTID":568597},"geometry":{"x":168786.98000000231,"y":2542462.6500000004}},{"attributes":{"ID":568625,"DIS_CODE":0,"TOWNNAME":"新營區","LI":"三仙里","LIN":"28鄰","STREET":"育德街","SECT":" ","MAREA":" ","LANE":" ","ALLEY":" ","HOUSE_NO":"７０之３號","E_COORD97":179601.19,"N_COORD97":2579172.6899999999,"ADDRESS":"育德街７０之３號","OBJECTID":568598},"geometry":{"x":179601.19000000134,"y":2579172.6899999995}},{"attributes":{"ID":568626,"DIS_CODE":0,"TOWNNAME":"新營區","LI":"新南里","LIN":"28鄰","STREET":"金華路","SECT":"二段","MAREA":" ","LANE":" ","ALLEY":" ","HOUSE_NO":"１５０號","E_COORD97":178497.89999999999,"N_COORD97":2578657.4199999999,"ADDRESS":"金華路二段１５０號","OBJECTID":568599},"geometry":{"x":178497.9000000013,"y":2578657.4200000037}},{"attributes":{"ID":568627,"DIS_CODE":0,"TOWNNAME":"新營區","LI":"新南里","LIN":"28鄰","STREET":"明清街","SECT":" ","MAREA":" ","LANE":" ","ALLEY":" ","HOUSE_NO":"８６號","E_COORD97":178324.44,"N_COORD97":2578777.8599999999,"ADDRESS":"明清街８６號","OBJECTID":568600},"geometry":{"x":178324.44000000134,"y":2578777.8599999994}}]}