{"displayFieldName":"TOWNNAME","fieldAliases":{"ID":"ID","DIS_CODE":"DIS_CODE","TOWNNAME":"TOWNNAME","LI":"LI","LIN":"LIN","STREET":"STREET","SECT":"SECT","MAREA":"MAREA","LANE":"LANE","ALLEY":"ALLEY","HOUSE_NO":"HOUSE_NO","E_COORD97":"E_COORD97","N_COORD97":"N_COORD97","ADDRESS":"ADDRESS","OBJECTID":"OBJECTID"},"geometryType":"esriGeometryPoint","spatialReference":{"wkid":102443,"latestWkid":3826},"fields":[{"name":"ID","type":"esriFieldTypeDouble","alias":"ID"},{"name":"DIS_CODE","type":"esriFieldTypeInteger","alias":"DIS_CODE"},{"name":"TOWNNAME","type":"esriFieldTypeString","alias":"TOWNNAME","length":8},{"name":"LI","type":"esriFieldTypeString","alias":"LI","length":8},{"name":"LIN","type":"esriFieldTypeString","alias":"LIN","length":12},{"name":"STREET","type":"esriFieldTypeString","alias":"STREET","length":20},{"name":"SECT","type":"esriFieldTypeString","alias":"SECT","length":8},{"name":"MAREA","type":"esriFieldTypeString","alias":"MAREA","length":12},{"name":"LANE","type":"esriFieldTypeString","alias":"LANE","length":10},{"name":"ALLEY","type":"esriFieldTypeString","alias":"ALLEY","length":10},{"name":"HOUSE_NO","type":"esriFieldTypeString","alias":"HOUSE_NO","length":20},{"name":"E_COORD97","type":"esriFieldTypeDouble","alias":"E_COORD97"},{"name":"N_COORD97","type":"esriFieldTypeDouble","alias":"N_COORD97"},{"name":"ADDRESS","type":"esriFieldTypeString","alias":"ADDRESS","length":50},{"name":"OBJECTID","type":"esriFieldTypeOID","alias":"OBJECTID"}],"features":[{"attributes":{"ID":381411,"DIS_CODE":0,"TOWNNAME":"官田區","LI":"隆田里","LIN":"9鄰","STREET":"中山路","SECT":"一段","MAREA":" ","LANE":"１０２巷","ALLEY":" ","HOUSE_NO":"１５號","E_COORD97":180088.59,"N_COORD97":2565860.2799999998,"ADDRESS":"中山路一段１０２巷１５號","OBJECTID":381401},"geometry":{"x":180088.58999999985,"y":2565860.2800000012}},{"attributes":{"ID":381412,"DIS_CODE":0,"TOWNNAME":"官田區","LI":"隆田里","LIN":"9鄰","STREET":"中山路","SECT":"一段","MAREA":" ","LANE":"１０２巷","ALLEY":" ","HOUSE_NO":"１６號","E_COORD97":180066.03,"N_COORD97":2565850.0299999998,"ADDRESS":"中山路一段１０２巷１６號","OBJECTID":381402},"geometry":{"x":180066.02999999933,"y":2565850.0299999993}},{"attributes":{"ID":381413,"DIS_CODE":0,"TOWNNAME":"官田區","LI":"隆田里","LIN":"9鄰","STREET":"中山路","SECT":"一段","MAREA":" ","LANE":"１０２巷","ALLEY":" ","HOUSE_NO":"１８號","E_COORD97":180065.92000000001,"N_COORD97":2565853.7200000002,"ADDRESS":"中山路一段１０２巷１８號","OBJECTID":381403},"geometry":{"x":180065.91999999993,"y":2565853.7200000007}},{"attributes":{"ID":381414,"DIS_CODE":0,"TOWNNAME":"官田區","LI":"隆田里","LIN":"9鄰","STREET":"中山路","SECT":"一段","MAREA":" ","LANE":"１０２巷","ALLEY":" ","HOUSE_NO":"１９號","E_COORD97":180088.67000000001,"N_COORD97":2565868.25,"ADDRESS":"中山路一段１０２巷１９號","OBJECTID":381404},"geometry":{"x":180088.67000000179,"y":2565868.2500000019}},{"attributes":{"ID":381415,"DIS_CODE":0,"TOWNNAME":"官田區","LI":"隆田里","LIN":"9鄰","STREET":"中山路","SECT":"一段","MAREA":" ","LANE":"１０２巷","ALLEY":" ","HOUSE_NO":"１號","E_COORD97":180087.82000000001,"N_COORD97":2565830.6200000001,"ADDRESS":"中山路一段１０２巷１號","OBJECTID":381405},"geometry":{"x":180087.81999999937,"y":2565830.620000001}},{"attributes":{"ID":381416,"DIS_CODE":0,"TOWNNAME":"官田區","LI":"隆田里","LIN":"9鄰","STREET":"中山路","SECT":"一段","MAREA":" ","LANE":"１０２巷","ALLEY":" ","HOUSE_NO":"２０號","E_COORD97":180066.01000000001,"N_COORD97":2565858.0499999998,"ADDRESS":"中山路一段１０２巷２０號","OBJECTID":381406},"geometry":{"x":180066.01000000071,"y":2565858.0500000007}},{"attributes":{"ID":381417,"DIS_CODE":0,"TOWNNAME":"官田區","LI":"隆田里","LIN":"9鄰","STREET":"中山路","SECT":"一段","MAREA":" ","LANE":"１０２巷","ALLEY":" ","HOUSE_NO":"２１號","E_COORD97":180088.26000000001,"N_COORD97":2565872.3300000001,"ADDRESS":"中山路一段１０２巷２１號","OBJECTID":381407},"geometry":{"x":180088.26000000071,"y":2565872.3300000001}},{"attributes":{"ID":381418,"DIS_CODE":0,"TOWNNAME":"官田區","LI":"隆田里","LIN":"9鄰","STREET":"中山路","SECT":"一段","MAREA":" ","LANE":"１０２巷","ALLEY":" ","HOUSE_NO":"２２號","E_COORD97":180066.41,"N_COORD97":2565861.9900000002,"ADDRESS":"中山路一段１０２巷２２號","OBJECTID":381408},"geometry":{"x":180066.41000000015,"y":2565861.9900000039}},{"attributes":{"ID":381419,"DIS_CODE":0,"TOWNNAME":"安南區","LI":"安順里","LIN":"9鄰","STREET":"安和路","SECT":"四段","MAREA":" ","LANE":"１０１巷","ALLEY":" ","HOUSE_NO":"８號","E_COORD97":169889.85999999999,"N_COORD97":2550369.1200000001,"ADDRESS":"安和路四段１０１巷８號","OBJECTID":381409},"geometry":{"x":169889.86000000127,"y":2550369.1200000029}},{"attributes":{"ID":381420,"DIS_CODE":0,"TOWNNAME":"安南區","LI":"安順里","LIN":"9鄰","STREET":"安和路","SECT":"四段","MAREA":" ","LANE":"１３１巷","ALLEY":" ","HOUSE_NO":"２號","E_COORD97":169880.20000000001,"N_COORD97":2550430.73,"ADDRESS":"安和路四段１３１巷２號","OBJECTID":381410},"geometry":{"x":169880.20000000205,"y":2550430.7299999986}},{"attributes":{"ID":381421,"DIS_CODE":0,"TOWNNAME":"永康區","LI":"北灣里","LIN":" ","STREET":"大灣七街","SECT":" ","MAREA":" ","LANE":"１０１巷","ALLEY":" ","HOUSE_NO":"８號","E_COORD97":175026.07000000001,"N_COORD97":2545865.0800000001,"ADDRESS":"大灣七街１０１巷８號","OBJECTID":381411},"geometry":{"x":175026.07000000216,"y":2545865.0800000019}},{"attributes":{"ID":381422,"DIS_CODE":0,"TOWNNAME":"永康區","LI":"埔園里","LIN":" ","STREET":"龍埔街","SECT":" ","MAREA":" ","LANE":"２３３巷","ALLEY":" ","HOUSE_NO":"２３１號","E_COORD97":174291.04999999999,"N_COORD97":2548246.7200000002,"ADDRESS":"龍埔街２３３巷２３１號","OBJECTID":381412},"geometry":{"x":174291.04999999981,"y":2548246.7200000007}},{"attributes":{"ID":381423,"DIS_CODE":0,"TOWNNAME":"安南區","LI":"安順里","LIN":"9鄰","STREET":"安和路","SECT":"四段","MAREA":" ","LANE":"１６３巷","ALLEY":" ","HOUSE_NO":"２６號","E_COORD97":169805.35999999999,"N_COORD97":2550513.71,"ADDRESS":"安和路四段１６３巷２６號","OBJECTID":381413},"geometry":{"x":169805.36000000127,"y":2550513.7100000028}},{"attributes":{"ID":381424,"DIS_CODE":0,"TOWNNAME":"安南區","LI":"州南里","LIN":"9鄰","STREET":"安和路","SECT":"五段","MAREA":" ","LANE":"８１巷","ALLEY":" ","HOUSE_NO":"６７號","E_COORD97":169775.89000000001,"N_COORD97":2551619.3199999998,"ADDRESS":"安和路五段８１巷６７號","OBJECTID":381414},"geometry":{"x":169775.88999999966,"y":2551619.3200000003}},{"attributes":{"ID":381425,"DIS_CODE":0,"TOWNNAME":"安南區","LI":"州南里","LIN":"9鄰","STREET":"安和路","SECT":"五段","MAREA":" ","LANE":"８１巷","ALLEY":" ","HOUSE_NO":"７１號","E_COORD97":169767.26000000001,"N_COORD97":2551617.3500000001,"ADDRESS":"安和路五段８１巷７１號","OBJECTID":381415},"geometry":{"x":169767.25999999978,"y":2551617.3500000015}},{"attributes":{"ID":381426,"DIS_CODE":0,"TOWNNAME":"永康區","LI":"大橋里","LIN":" ","STREET":"大橋一街","SECT":" ","MAREA":" ","LANE":"１３７巷","ALLEY":" ","HOUSE_NO":"７號","E_COORD97":171022.60000000001,"N_COORD97":2546534,"ADDRESS":"大橋一街１３７巷７號","OBJECTID":381416},"geometry":{"x":171022.59999999963,"y":2546534.0000000019}},{"attributes":{"ID":381427,"DIS_CODE":0,"TOWNNAME":"永康區","LI":"大橋里","LIN":" ","STREET":"大橋一街","SECT":" ","MAREA":" ","LANE":"１３７巷","ALLEY":" ","HOUSE_NO":"２號","E_COORD97":171043.79999999999,"N_COORD97":2546520.5,"ADDRESS":"大橋一街１３７巷２號","OBJECTID":381417},"geometry":{"x":171043.80000000168,"y":2546520.5000000019}},{"attributes":{"ID":381428,"DIS_CODE":0,"TOWNNAME":"永康區","LI":"\u25A0行里","LIN":"25鄰","STREET":"\u25A0和街","SECT":" ","MAREA":" ","LANE":"２８２巷","ALLEY":" ","HOUSE_NO":"４號","E_COORD97":171545.57999999999,"N_COORD97":2548486.75,"ADDRESS":"\u25A0和街２８２巷４號","OBJECTID":381418},"geometry":{"x":171545.58000000194,"y":2548486.75}},{"attributes":{"ID":381429,"DIS_CODE":0,"TOWNNAME":"永康區","LI":"\u25A0行里","LIN":"1鄰","STREET":"中正路","SECT":" ","MAREA":" ","LANE":"９７０巷","ALLEY":" ","HOUSE_NO":"３６號","E_COORD97":172048.57999999999,"N_COORD97":2549005.5600000001,"ADDRESS":"中正路９７０巷３６號","OBJECTID":381419},"geometry":{"x":172048.58000000007,"y":2549005.5600000024}},{"attributes":{"ID":381430,"DIS_CODE":0,"TOWNNAME":"永康區","LI":"正強里","LIN":"9鄰","STREET":"正義街","SECT":" ","MAREA":" ","LANE":"１２６巷","ALLEY":" ","HOUSE_NO":"１３號","E_COORD97":173350.95000000001,"N_COORD97":2547570.9100000001,"ADDRESS":"正義街１２６巷１３號","OBJECTID":381420},"geometry":{"x":173350.95000000112,"y":2547570.9100000001}},{"attributes":{"ID":381431,"DIS_CODE":0,"TOWNNAME":"永康區","LI":"正強里","LIN":"9鄰","STREET":"正義街","SECT":" ","MAREA":" ","LANE":"１２６巷","ALLEY":" ","HOUSE_NO":"２１號","E_COORD97":173365.72,"N_COORD97":2547580.52,"ADDRESS":"正義街１２６巷２１號","OBJECTID":381421},"geometry":{"x":173365.72000000067,"y":2547580.5200000014}},{"attributes":{"ID":381432,"DIS_CODE":0,"TOWNNAME":"永康區","LI":"正強里","LIN":"9鄰","STREET":"自強路","SECT":" ","MAREA":" ","LANE":"３３０巷","ALLEY":" ","HOUSE_NO":"２０號","E_COORD97":173426.17999999999,"N_COORD97":2547608.2400000002,"ADDRESS":"自強路３３０巷２０號","OBJECTID":381422},"geometry":{"x":173426.18000000156,"y":2547608.2400000002}},{"attributes":{"ID":381433,"DIS_CODE":0,"TOWNNAME":"永康區","LI":"\u25A0行里","LIN":"38鄰","STREET":"仁愛街","SECT":" ","MAREA":" ","LANE":"１３８巷","ALLEY":" ","HOUSE_NO":"１５號","E_COORD97":172271.20000000001,"N_COORD97":2549663.2799999998,"ADDRESS":"仁愛街１３８巷１５號","OBJECTID":381423},"geometry":{"x":172271.20000000112,"y":2549663.2800000031}},{"attributes":{"ID":381434,"DIS_CODE":0,"TOWNNAME":"永康區","LI":"崑山里","LIN":" ","STREET":"大灣路","SECT":" ","MAREA":" ","LANE":"１１０２巷","ALLEY":" ","HOUSE_NO":"４之１０號","E_COORD97":173193.54000000001,"N_COORD97":2544533.7599999998,"ADDRESS":"大灣路１１０２巷４之１０號","OBJECTID":381424},"geometry":{"x":173193.5400000019,"y":2544533.7599999998}},{"attributes":{"ID":381435,"DIS_CODE":0,"TOWNNAME":"永康區","LI":"\u25A0洲里","LIN":"36鄰","STREET":"\u25A0洲二街","SECT":" ","MAREA":" ","LANE":"１７５巷","ALLEY":" ","HOUSE_NO":"２６號","E_COORD97":171690.16,"N_COORD97":2549457.5,"ADDRESS":"\u25A0洲二街１７５巷２６號","OBJECTID":381425},"geometry":{"x":171690.16000000015,"y":2549457.5}},{"attributes":{"ID":381436,"DIS_CODE":0,"TOWNNAME":"永康區","LI":"中華里","LIN":"12鄰","STREET":"忠義街","SECT":" ","MAREA":" ","LANE":"４４巷","ALLEY":" ","HOUSE_NO":"３８號","E_COORD97":171823.88,"N_COORD97":2544463.4199999999,"ADDRESS":"忠義街４４巷３８號","OBJECTID":381426},"geometry":{"x":171823.88000000082,"y":2544463.4200000018}},{"attributes":{"ID":381437,"DIS_CODE":0,"TOWNNAME":"永康區","LI":"建國里","LIN":" ","STREET":"復興路","SECT":" ","MAREA":" ","LANE":"２０巷","ALLEY":" ","HOUSE_NO":"１８號","E_COORD97":173132.37,"N_COORD97":2544556.7799999998,"ADDRESS":"復興路２０巷１８號","OBJECTID":381427},"geometry":{"x":173132.37000000104,"y":2544556.7799999993}},{"attributes":{"ID":381438,"DIS_CODE":0,"TOWNNAME":"永康區","LI":"二王里","LIN":" ","STREET":"中山南路","SECT":" ","MAREA":" ","LANE":"８７２巷","ALLEY":" ","HOUSE_NO":"８６６號","E_COORD97":172970.59,"N_COORD97":2546856.9300000002,"ADDRESS":"中山南路８７２巷８６６號","OBJECTID":381428},"geometry":{"x":172970.58999999985,"y":2546856.9300000016}},{"attributes":{"ID":381439,"DIS_CODE":0,"TOWNNAME":"永康區","LI":"復國里","LIN":"10鄰","STREET":"復國一路","SECT":" ","MAREA":" ","LANE":"２５０巷","ALLEY":" ","HOUSE_NO":"１７號","E_COORD97":172805.53,"N_COORD97":2545332.52,"ADDRESS":"復國一路２５０巷１７號","OBJECTID":381429},"geometry":{"x":172805.52999999933,"y":2545332.5200000033}},{"attributes":{"ID":381440,"DIS_CODE":0,"TOWNNAME":"永康區","LI":"\u25A0洲里","LIN":"5鄰","STREET":"仁愛街","SECT":" ","MAREA":" ","LANE":"１０３巷","ALLEY":" ","HOUSE_NO":"２１號","E_COORD97":171959.84,"N_COORD97":2549504.77,"ADDRESS":"仁愛街１０３巷２１號","OBJECTID":381430},"geometry":{"x":171959.83999999985,"y":2549504.7700000014}},{"attributes":{"ID":381441,"DIS_CODE":0,"TOWNNAME":"永康區","LI":"大橋里","LIN":"13鄰","STREET":"大橋二街","SECT":" ","MAREA":" ","LANE":"２３９巷","ALLEY":" ","HOUSE_NO":"６號","E_COORD97":171121.54000000001,"N_COORD97":2546837.5,"ADDRESS":"大橋二街２３９巷６號","OBJECTID":381431},"geometry":{"x":171121.54000000004,"y":2546837.5}},{"attributes":{"ID":381442,"DIS_CODE":0,"TOWNNAME":"永康區","LI":"正強里","LIN":" ","STREET":"正強街","SECT":" ","MAREA":" ","LANE":"３１３巷","ALLEY":" ","HOUSE_NO":"２５號","E_COORD97":173186.60999999999,"N_COORD97":2548236.1099999999,"ADDRESS":"正強街３１３巷２５號","OBJECTID":381432},"geometry":{"x":173186.6100000022,"y":2548236.1099999994}},{"attributes":{"ID":381443,"DIS_CODE":0,"TOWNNAME":"永康區","LI":"\u25A0行里","LIN":"40鄰","STREET":"永安路","SECT":" ","MAREA":" ","LANE":"１０５巷","ALLEY":" ","HOUSE_NO":"１８號","E_COORD97":172685.14000000001,"N_COORD97":2549299.7000000002,"ADDRESS":"永安路１０５巷１８號","OBJECTID":381433},"geometry":{"x":172685.13999999966,"y":2549299.6999999993}},{"attributes":{"ID":381444,"DIS_CODE":0,"TOWNNAME":"永康區","LI":"\u25A0洲里","LIN":"24鄰","STREET":"正南二街","SECT":" ","MAREA":" ","LANE":"８６巷","ALLEY":" ","HOUSE_NO":"２３號","E_COORD97":170766.76000000001,"N_COORD97":2548487.25,"ADDRESS":"正南二街８６巷２３號","OBJECTID":381434},"geometry":{"x":170766.76000000071,"y":2548487.25}},{"attributes":{"ID":381445,"DIS_CODE":0,"TOWNNAME":"永康區","LI":"正強里","LIN":"30鄰","STREET":"中正路","SECT":" ","MAREA":" ","LANE":"２０９巷","ALLEY":" ","HOUSE_NO":"１３０號","E_COORD97":173128.88,"N_COORD97":2547656,"ADDRESS":"中正路２０９巷１３０號","OBJECTID":381435},"geometry":{"x":173128.88000000082,"y":2547656.0000000019}},{"attributes":{"ID":381446,"DIS_CODE":0,"TOWNNAME":"永康區","LI":"\u25A0洲里","LIN":"36鄰","STREET":"\u25A0洲二街","SECT":" ","MAREA":" ","LANE":"１７５巷","ALLEY":" ","HOUSE_NO":"８號","E_COORD97":171709.42999999999,"N_COORD97":2549437.25,"ADDRESS":"\u25A0洲二街１７５巷８號","OBJECTID":381436},"geometry":{"x":171709.43000000063,"y":2549437.2500000037}},{"attributes":{"ID":381447,"DIS_CODE":0,"TOWNNAME":"永康區","LI":"\u25A0洲里","LIN":"7鄰","STREET":"\u25A0洲二街","SECT":" ","MAREA":" ","LANE":"２２１巷","ALLEY":" ","HOUSE_NO":"１１號","E_COORD97":171809.95999999999,"N_COORD97":2549534.25,"ADDRESS":"\u25A0洲二街２２１巷１１號","OBJECTID":381437},"geometry":{"x":171809.95999999996,"y":2549534.25}},{"attributes":{"ID":381448,"DIS_CODE":0,"TOWNNAME":"永康區","LI":"\u25A0行里","LIN":"1鄰","STREET":"中正路","SECT":" ","MAREA":" ","LANE":"９７０巷","ALLEY":" ","HOUSE_NO":"１６號","E_COORD97":171992.82000000001,"N_COORD97":2549014.25,"ADDRESS":"中正路９７０巷１６號","OBJECTID":381438},"geometry":{"x":171992.8200000003,"y":2549014.2500000019}},{"attributes":{"ID":381449,"DIS_CODE":0,"TOWNNAME":"永康區","LI":"\u25A0洲里","LIN":"12鄰","STREET":"\u25A0洲一街","SECT":" ","MAREA":" ","LANE":"１１巷","ALLEY":" ","HOUSE_NO":"５６號","E_COORD97":171582.76999999999,"N_COORD97":2549115.5,"ADDRESS":"\u25A0洲一街１１巷５６號","OBJECTID":381439},"geometry":{"x":171582.77000000142,"y":2549115.5}},{"attributes":{"ID":381450,"DIS_CODE":0,"TOWNNAME":"永康區","LI":"\u25A0行里","LIN":"28鄰","STREET":"中正三街","SECT":" ","MAREA":" ","LANE":"４５５巷","ALLEY":" ","HOUSE_NO":"１５號","E_COORD97":173100.73000000001,"N_COORD97":2548578.2400000002,"ADDRESS":"中正三街４５５巷１５號","OBJECTID":381440},"geometry":{"x":173100.73000000045,"y":2548578.2400000002}},{"attributes":{"ID":381451,"DIS_CODE":0,"TOWNNAME":"永康區","LI":"\u25A0洲里","LIN":"36鄰","STREET":"\u25A0洲二街","SECT":" ","MAREA":" ","LANE":"１７５巷","ALLEY":" ","HOUSE_NO":"１０號","E_COORD97":171707.60000000001,"N_COORD97":2549440,"ADDRESS":"\u25A0洲二街１７５巷１０號","OBJECTID":381441},"geometry":{"x":171707.5999999987,"y":2549440.0000000019}},{"attributes":{"ID":381452,"DIS_CODE":0,"TOWNNAME":"永康區","LI":"\u25A0洲里","LIN":"5鄰","STREET":"仁愛街","SECT":" ","MAREA":" ","LANE":"１０３巷","ALLEY":" ","HOUSE_NO":"２９號","E_COORD97":171925.95000000001,"N_COORD97":2549522.7799999998,"ADDRESS":"仁愛街１０３巷２９號","OBJECTID":381442},"geometry":{"x":171925.95000000019,"y":2549522.7799999993}},{"attributes":{"ID":381453,"DIS_CODE":0,"TOWNNAME":"永康區","LI":"復興里","LIN":" ","STREET":"興國街","SECT":" ","MAREA":" ","LANE":"１８５巷","ALLEY":" ","HOUSE_NO":"４２號","E_COORD97":172322.14999999999,"N_COORD97":2544746.7400000002,"ADDRESS":"興國街１８５巷４２號","OBJECTID":381443},"geometry":{"x":172322.1500000013,"y":2544746.7400000002}},{"attributes":{"ID":381454,"DIS_CODE":0,"TOWNNAME":"永康區","LI":"\u25A0洲里","LIN":"6鄰","STREET":"\u25A0洲二街","SECT":" ","MAREA":" ","LANE":"２２１巷","ALLEY":" ","HOUSE_NO":"２２號","E_COORD97":171808.42999999999,"N_COORD97":2549557.75,"ADDRESS":"\u25A0洲二街２２１巷２２號","OBJECTID":381444},"geometry":{"x":171808.4299999997,"y":2549557.75}},{"attributes":{"ID":381455,"DIS_CODE":0,"TOWNNAME":"安平區","LI":"億載里","LIN":"9鄰","STREET":"永華十一街","SECT":" ","MAREA":" ","LANE":"１７巷","ALLEY":" ","HOUSE_NO":"３５號一樓之２","E_COORD97":163998.34,"N_COORD97":2543412.3199999998,"ADDRESS":"永華十一街１７巷３５號一樓之２","OBJECTID":381445},"geometry":{"x":163998.34000000171,"y":2543412.320000004}},{"attributes":{"ID":381456,"DIS_CODE":0,"TOWNNAME":"永康區","LI":"復興里","LIN":" ","STREET":"復興路","SECT":" ","MAREA":" ","LANE":"３５６巷","ALLEY":" ","HOUSE_NO":"２號","E_COORD97":172249.66,"N_COORD97":2544371.77,"ADDRESS":"復興路３５６巷２號","OBJECTID":381446},"geometry":{"x":172249.66000000015,"y":2544371.7700000014}},{"attributes":{"ID":381457,"DIS_CODE":0,"TOWNNAME":"安平區","LI":"億載里","LIN":"9鄰","STREET":"永華十一街","SECT":" ","MAREA":" ","LANE":"１７巷","ALLEY":" ","HOUSE_NO":"３５號三樓之２","E_COORD97":163998.34,"N_COORD97":2543412.3199999998,"ADDRESS":"永華十一街１７巷３５號三樓之２","OBJECTID":381447},"geometry":{"x":163998.34000000171,"y":2543412.320000004}},{"attributes":{"ID":381458,"DIS_CODE":0,"TOWNNAME":"安平區","LI":"億載里","LIN":"9鄰","STREET":"永華十一街","SECT":" ","MAREA":" ","LANE":"１７巷","ALLEY":" ","HOUSE_NO":"３５號四樓之１","E_COORD97":163998.34,"N_COORD97":2543412.3199999998,"ADDRESS":"永華十一街１７巷３５號四樓之１","OBJECTID":381448},"geometry":{"x":163998.34000000171,"y":2543412.320000004}},{"attributes":{"ID":381459,"DIS_CODE":0,"TOWNNAME":"安平區","LI":"億載里","LIN":"9鄰","STREET":"永華十一街","SECT":" ","MAREA":" ","LANE":"１７巷","ALLEY":" ","HOUSE_NO":"３５號五樓之３","E_COORD97":163998.34,"N_COORD97":2543412.3199999998,"ADDRESS":"永華十一街１７巷３５號五樓之３","OBJECTID":381449},"geometry":{"x":163998.34000000171,"y":2543412.320000004}},{"attributes":{"ID":381460,"DIS_CODE":0,"TOWNNAME":"新營區","LI":"永生里","LIN":"9鄰","STREET":"康樂街","SECT":" ","MAREA":" ","LANE":"１巷","ALLEY":" ","HOUSE_NO":"２號四樓","E_COORD97":180066.60000000001,"N_COORD97":2577917.9199999999,"ADDRESS":"康樂街１巷２號四樓","OBJECTID":381450},"geometry":{"x":180066.5999999987,"y":2577917.9199999999}},{"attributes":{"ID":381461,"DIS_CODE":0,"TOWNNAME":"南區","LI":"大成里","LIN":"9鄰","STREET":"西門路","SECT":"一段","MAREA":" ","LANE":"３５２巷","ALLEY":" ","HOUSE_NO":"１０號三樓","E_COORD97":167775.42000000001,"N_COORD97":2542310.5899999999,"ADDRESS":"西門路一段３５２巷１０號三樓","OBJECTID":381451},"geometry":{"x":167775.42000000086,"y":2542310.5899999999}},{"attributes":{"ID":381462,"DIS_CODE":0,"TOWNNAME":"安平區","LI":"怡平里","LIN":"9鄰","STREET":"建平十二街","SECT":" ","MAREA":" ","LANE":"１４８巷","ALLEY":" ","HOUSE_NO":"１６號七樓之４","E_COORD97":165796.56,"N_COORD97":2544082.0499999998,"ADDRESS":"建平十二街１４８巷１６號七樓之４","OBJECTID":381452},"geometry":{"x":165796.55999999959,"y":2544082.0500000007}},{"attributes":{"ID":381463,"DIS_CODE":0,"TOWNNAME":"北區","LI":"光武里","LIN":"9鄰","STREET":"北門路","SECT":"二段","MAREA":" ","LANE":"５７７巷","ALLEY":" ","HOUSE_NO":"７號三樓之１","E_COORD97":169642.98999999999,"N_COORD97":2545710.02,"ADDRESS":"北門路二段５７７巷７號三樓之１","OBJECTID":381453},"geometry":{"x":169642.99000000115,"y":2545710.0200000014}},{"attributes":{"ID":381464,"DIS_CODE":0,"TOWNNAME":"北區","LI":"光武里","LIN":"9鄰","STREET":"北門路","SECT":"二段","MAREA":" ","LANE":"５７７巷","ALLEY":" ","HOUSE_NO":"７號四樓之１","E_COORD97":169642.98999999999,"N_COORD97":2545710.02,"ADDRESS":"北門路二段５７７巷７號四樓之１","OBJECTID":381454},"geometry":{"x":169642.99000000115,"y":2545710.0200000014}},{"attributes":{"ID":381465,"DIS_CODE":0,"TOWNNAME":"北區","LI":"光武里","LIN":"9鄰","STREET":"北門路","SECT":"二段","MAREA":" ","LANE":"５７７巷","ALLEY":" ","HOUSE_NO":"７號五樓之１","E_COORD97":169642.98999999999,"N_COORD97":2545710.02,"ADDRESS":"北門路二段５７７巷７號五樓之１","OBJECTID":381455},"geometry":{"x":169642.99000000115,"y":2545710.0200000014}},{"attributes":{"ID":381466,"DIS_CODE":0,"TOWNNAME":"北區","LI":"光武里","LIN":"9鄰","STREET":"北門路","SECT":"二段","MAREA":" ","LANE":"５７７巷","ALLEY":" ","HOUSE_NO":"７號六樓之１","E_COORD97":169642.98999999999,"N_COORD97":2545710.02,"ADDRESS":"北門路二段５７７巷７號六樓之１","OBJECTID":381456},"geometry":{"x":169642.99000000115,"y":2545710.0200000014}},{"attributes":{"ID":381467,"DIS_CODE":0,"TOWNNAME":"北區","LI":"光武里","LIN":"9鄰","STREET":"北門路","SECT":"二段","MAREA":" ","LANE":"５７７巷","ALLEY":" ","HOUSE_NO":"７號七樓之１","E_COORD97":169642.98999999999,"N_COORD97":2545710.02,"ADDRESS":"北門路二段５７７巷７號七樓之１","OBJECTID":381457},"geometry":{"x":169642.99000000115,"y":2545710.0200000014}},{"attributes":{"ID":381468,"DIS_CODE":0,"TOWNNAME":"北區","LI":"光武里","LIN":"9鄰","STREET":"北門路","SECT":"二段","MAREA":" ","LANE":"５７７巷","ALLEY":" ","HOUSE_NO":"７號八樓之１","E_COORD97":169642.98999999999,"N_COORD97":2545710.02,"ADDRESS":"北門路二段５７７巷７號八樓之１","OBJECTID":381458},"geometry":{"x":169642.99000000115,"y":2545710.0200000014}},{"attributes":{"ID":381469,"DIS_CODE":0,"TOWNNAME":"北區","LI":"光武里","LIN":"9鄰","STREET":"北門路","SECT":"二段","MAREA":" ","LANE":"５７７巷","ALLEY":" ","HOUSE_NO":"７號九樓之１","E_COORD97":169642.98999999999,"N_COORD97":2545710.02,"ADDRESS":"北門路二段５７７巷７號九樓之１","OBJECTID":381459},"geometry":{"x":169642.99000000115,"y":2545710.0200000014}},{"attributes":{"ID":381470,"DIS_CODE":0,"TOWNNAME":"北區","LI":"光武里","LIN":"9鄰","STREET":"北門路","SECT":"二段","MAREA":" ","LANE":"５７７巷","ALLEY":" ","HOUSE_NO":"７號十樓之１","E_COORD97":169642.98999999999,"N_COORD97":2545710.02,"ADDRESS":"北門路二段５７７巷７號十樓之１","OBJECTID":381460},"geometry":{"x":169642.99000000115,"y":2545710.0200000014}},{"attributes":{"ID":381471,"DIS_CODE":0,"TOWNNAME":"北區","LI":"光武里","LIN":"9鄰","STREET":"北門路","SECT":"二段","MAREA":" ","LANE":"５７７巷","ALLEY":" ","HOUSE_NO":"７號三樓之２","E_COORD97":169642.98999999999,"N_COORD97":2545710.02,"ADDRESS":"北門路二段５７７巷７號三樓之２","OBJECTID":381461},"geometry":{"x":169642.99000000115,"y":2545710.0200000014}},{"attributes":{"ID":381472,"DIS_CODE":0,"TOWNNAME":"北區","LI":"光武里","LIN":"9鄰","STREET":"北門路","SECT":"二段","MAREA":" ","LANE":"５７７巷","ALLEY":" ","HOUSE_NO":"７號四樓之２","E_COORD97":169642.98999999999,"N_COORD97":2545710.02,"ADDRESS":"北門路二段５７７巷７號四樓之２","OBJECTID":381462},"geometry":{"x":169642.99000000115,"y":2545710.0200000014}},{"attributes":{"ID":381473,"DIS_CODE":0,"TOWNNAME":"北區","LI":"光武里","LIN":"9鄰","STREET":"北門路","SECT":"二段","MAREA":" ","LANE":"５７７巷","ALLEY":" ","HOUSE_NO":"７號五樓之２","E_COORD97":169642.98999999999,"N_COORD97":2545710.02,"ADDRESS":"北門路二段５７７巷７號五樓之２","OBJECTID":381463},"geometry":{"x":169642.99000000115,"y":2545710.0200000014}},{"attributes":{"ID":381474,"DIS_CODE":0,"TOWNNAME":"北區","LI":"光武里","LIN":"9鄰","STREET":"北門路","SECT":"二段","MAREA":" ","LANE":"５７７巷","ALLEY":" ","HOUSE_NO":"７號六樓之２","E_COORD97":169642.98999999999,"N_COORD97":2545710.02,"ADDRESS":"北門路二段５７７巷７號六樓之２","OBJECTID":381464},"geometry":{"x":169642.99000000115,"y":2545710.0200000014}},{"attributes":{"ID":381475,"DIS_CODE":0,"TOWNNAME":"北區","LI":"光武里","LIN":"9鄰","STREET":"北門路","SECT":"二段","MAREA":" ","LANE":"５７７巷","ALLEY":" ","HOUSE_NO":"７號七樓之２","E_COORD97":169642.98999999999,"N_COORD97":2545710.02,"ADDRESS":"北門路二段５７７巷７號七樓之２","OBJECTID":381465},"geometry":{"x":169642.99000000115,"y":2545710.0200000014}},{"attributes":{"ID":381476,"DIS_CODE":0,"TOWNNAME":"北區","LI":"光武里","LIN":"9鄰","STREET":"北門路","SECT":"二段","MAREA":" ","LANE":"５７７巷","ALLEY":" ","HOUSE_NO":"７號八樓之２","E_COORD97":169642.98999999999,"N_COORD97":2545710.02,"ADDRESS":"北門路二段５７７巷７號八樓之２","OBJECTID":381466},"geometry":{"x":169642.99000000115,"y":2545710.0200000014}},{"attributes":{"ID":381477,"DIS_CODE":0,"TOWNNAME":"北區","LI":"光武里","LIN":"9鄰","STREET":"北門路","SECT":"二段","MAREA":" ","LANE":"５７７巷","ALLEY":" ","HOUSE_NO":"７號九樓之２","E_COORD97":169642.98999999999,"N_COORD97":2545710.02,"ADDRESS":"北門路二段５７７巷７號九樓之２","OBJECTID":381467},"geometry":{"x":169642.99000000115,"y":2545710.0200000014}},{"attributes":{"ID":381478,"DIS_CODE":0,"TOWNNAME":"北區","LI":"光武里","LIN":"9鄰","STREET":"北門路","SECT":"二段","MAREA":" ","LANE":"５７７巷","ALLEY":" ","HOUSE_NO":"７號十樓之２","E_COORD97":169642.98999999999,"N_COORD97":2545710.02,"ADDRESS":"北門路二段５７７巷７號十樓之２","OBJECTID":381468},"geometry":{"x":169642.99000000115,"y":2545710.0200000014}},{"attributes":{"ID":381479,"DIS_CODE":0,"TOWNNAME":"北區","LI":"光武里","LIN":"9鄰","STREET":"北門路","SECT":"二段","MAREA":" ","LANE":"５７７巷","ALLEY":" ","HOUSE_NO":"７號十一樓之１","E_COORD97":169642.98999999999,"N_COORD97":2545710.02,"ADDRESS":"北門路二段５７７巷７號十一樓之１","OBJECTID":381469},"geometry":{"x":169642.99000000115,"y":2545710.0200000014}},{"attributes":{"ID":381480,"DIS_CODE":0,"TOWNNAME":"北區","LI":"光武里","LIN":"9鄰","STREET":"北門路","SECT":"二段","MAREA":" ","LANE":"５７７巷","ALLEY":" ","HOUSE_NO":"７號十一樓之２","E_COORD97":169642.98999999999,"N_COORD97":2545710.02,"ADDRESS":"北門路二段５７７巷７號十一樓之２","OBJECTID":381470},"geometry":{"x":169642.99000000115,"y":2545710.0200000014}},{"attributes":{"ID":381481,"DIS_CODE":0,"TOWNNAME":"南區","LI":"田寮里","LIN":"9鄰","STREET":"新興路","SECT":" ","MAREA":" ","LANE":"１６１巷","ALLEY":" ","HOUSE_NO":"２１號二樓之１","E_COORD97":167492.04999999999,"N_COORD97":2542010.9300000002,"ADDRESS":"新興路１６１巷２１號二樓之１","OBJECTID":381471},"geometry":{"x":167492.04999999981,"y":2542010.9300000016}},{"attributes":{"ID":381482,"DIS_CODE":0,"TOWNNAME":"南區","LI":"田寮里","LIN":"9鄰","STREET":"新興路","SECT":" ","MAREA":" ","LANE":"１６１巷","ALLEY":" ","HOUSE_NO":"２１號二樓之２","E_COORD97":167492.04999999999,"N_COORD97":2542010.9300000002,"ADDRESS":"新興路１６１巷２１號二樓之２","OBJECTID":381472},"geometry":{"x":167492.04999999981,"y":2542010.9300000016}},{"attributes":{"ID":381483,"DIS_CODE":0,"TOWNNAME":"南區","LI":"田寮里","LIN":"9鄰","STREET":"新興路","SECT":" ","MAREA":" ","LANE":"１６１巷","ALLEY":" ","HOUSE_NO":"２１號三樓之１","E_COORD97":167492.04999999999,"N_COORD97":2542010.9300000002,"ADDRESS":"新興路１６１巷２１號三樓之１","OBJECTID":381473},"geometry":{"x":167492.04999999981,"y":2542010.9300000016}},{"attributes":{"ID":381484,"DIS_CODE":0,"TOWNNAME":"南區","LI":"田寮里","LIN":"9鄰","STREET":"新興路","SECT":" ","MAREA":" ","LANE":"１６１巷","ALLEY":" ","HOUSE_NO":"２１號三樓之２","E_COORD97":167492.04999999999,"N_COORD97":2542010.9300000002,"ADDRESS":"新興路１６１巷２１號三樓之２","OBJECTID":381474},"geometry":{"x":167492.04999999981,"y":2542010.9300000016}},{"attributes":{"ID":381485,"DIS_CODE":0,"TOWNNAME":"南區","LI":"田寮里","LIN":"9鄰","STREET":"新興路","SECT":" ","MAREA":" ","LANE":"１６１巷","ALLEY":" ","HOUSE_NO":"２１號四樓之１","E_COORD97":167492.04999999999,"N_COORD97":2542010.9300000002,"ADDRESS":"新興路１６１巷２１號四樓之１","OBJECTID":381475},"geometry":{"x":167492.04999999981,"y":2542010.9300000016}},{"attributes":{"ID":381486,"DIS_CODE":0,"TOWNNAME":"南區","LI":"田寮里","LIN":"9鄰","STREET":"新興路","SECT":" ","MAREA":" ","LANE":"１６１巷","ALLEY":" ","HOUSE_NO":"２１號四樓之２","E_COORD97":167492.04999999999,"N_COORD97":2542010.9300000002,"ADDRESS":"新興路１６１巷２１號四樓之２","OBJECTID":381476},"geometry":{"x":167492.04999999981,"y":2542010.9300000016}},{"attributes":{"ID":381487,"DIS_CODE":0,"TOWNNAME":"南區","LI":"田寮里","LIN":"9鄰","STREET":"新興路","SECT":" ","MAREA":" ","LANE":"１６１巷","ALLEY":" ","HOUSE_NO":"２１號五樓之１","E_COORD97":167492.04999999999,"N_COORD97":2542010.9300000002,"ADDRESS":"新興路１６１巷２１號五樓之１","OBJECTID":381477},"geometry":{"x":167492.04999999981,"y":2542010.9300000016}},{"attributes":{"ID":381488,"DIS_CODE":0,"TOWNNAME":"南區","LI":"田寮里","LIN":"9鄰","STREET":"新興路","SECT":" ","MAREA":" ","LANE":"１６１巷","ALLEY":" ","HOUSE_NO":"２１號五樓之２","E_COORD97":167492.04999999999,"N_COORD97":2542010.9300000002,"ADDRESS":"新興路１６１巷２１號五樓之２","OBJECTID":381478},"geometry":{"x":167492.04999999981,"y":2542010.9300000016}},{"attributes":{"ID":381489,"DIS_CODE":0,"TOWNNAME":"永康區","LI":"埔園里","LIN":"9鄰","STREET":"中山路","SECT":" ","MAREA":" ","LANE":"１０１巷","ALLEY":" ","HOUSE_NO":"２號之１七樓之１","E_COORD97":173738.23000000001,"N_COORD97":2547819.29,"ADDRESS":"中山路１０１巷２號之１七樓之１","OBJECTID":381479},"geometry":{"x":173738.23000000045,"y":2547819.290000001}},{"attributes":{"ID":381490,"DIS_CODE":0,"TOWNNAME":"南區","LI":"明亮里","LIN":"9鄰","STREET":"新都路","SECT":" ","MAREA":" ","LANE":"４６２巷","ALLEY":" ","HOUSE_NO":"１號二樓","E_COORD97":167253.59,"N_COORD97":2540898.6200000001,"ADDRESS":"新都路４６２巷１號二樓","OBJECTID":381480},"geometry":{"x":167253.59000000078,"y":2540898.6200000048}},{"attributes":{"ID":381491,"DIS_CODE":0,"TOWNNAME":"南區","LI":"明亮里","LIN":"9鄰","STREET":"新都路","SECT":" ","MAREA":" ","LANE":"４６２巷","ALLEY":" ","HOUSE_NO":"１號三樓","E_COORD97":167253.59,"N_COORD97":2540898.6200000001,"ADDRESS":"新都路４６２巷１號三樓","OBJECTID":381481},"geometry":{"x":167253.59000000078,"y":2540898.6200000048}},{"attributes":{"ID":381492,"DIS_CODE":0,"TOWNNAME":"南區","LI":"明亮里","LIN":"9鄰","STREET":"新都路","SECT":" ","MAREA":" ","LANE":"４６２巷","ALLEY":" ","HOUSE_NO":"１號四樓","E_COORD97":167253.59,"N_COORD97":2540898.6200000001,"ADDRESS":"新都路４６２巷１號四樓","OBJECTID":381482},"geometry":{"x":167253.59000000078,"y":2540898.6200000048}},{"attributes":{"ID":381493,"DIS_CODE":0,"TOWNNAME":"南區","LI":"明亮里","LIN":"9鄰","STREET":"新都路","SECT":" ","MAREA":" ","LANE":"４６２巷","ALLEY":" ","HOUSE_NO":"１號五樓","E_COORD97":167253.59,"N_COORD97":2540898.6200000001,"ADDRESS":"新都路４６２巷１號五樓","OBJECTID":381483},"geometry":{"x":167253.59000000078,"y":2540898.6200000048}},{"attributes":{"ID":381494,"DIS_CODE":0,"TOWNNAME":"南區","LI":"明亮里","LIN":"9鄰","STREET":"新都路","SECT":" ","MAREA":" ","LANE":"４６２巷","ALLEY":" ","HOUSE_NO":"３號二樓","E_COORD97":167232.57000000001,"N_COORD97":2540899.25,"ADDRESS":"新都路４６２巷３號二樓","OBJECTID":381484},"geometry":{"x":167232.5700000003,"y":2540899.25}},{"attributes":{"ID":381495,"DIS_CODE":0,"TOWNNAME":"南區","LI":"明亮里","LIN":"9鄰","STREET":"新都路","SECT":" ","MAREA":" ","LANE":"４６２巷","ALLEY":" ","HOUSE_NO":"３號三樓","E_COORD97":167232.57000000001,"N_COORD97":2540899.25,"ADDRESS":"新都路４６２巷３號三樓","OBJECTID":381485},"geometry":{"x":167232.5700000003,"y":2540899.25}},{"attributes":{"ID":381496,"DIS_CODE":0,"TOWNNAME":"南區","LI":"明亮里","LIN":"9鄰","STREET":"新都路","SECT":" ","MAREA":" ","LANE":"４６２巷","ALLEY":" ","HOUSE_NO":"３號四樓","E_COORD97":167232.57000000001,"N_COORD97":2540899.25,"ADDRESS":"新都路４６２巷３號四樓","OBJECTID":381486},"geometry":{"x":167232.5700000003,"y":2540899.25}},{"attributes":{"ID":381497,"DIS_CODE":0,"TOWNNAME":"南區","LI":"明亮里","LIN":"9鄰","STREET":"新都路","SECT":" ","MAREA":" ","LANE":"４６２巷","ALLEY":" ","HOUSE_NO":"３號五樓","E_COORD97":167232.57000000001,"N_COORD97":2540899.25,"ADDRESS":"新都路４６２巷３號五樓","OBJECTID":381487},"geometry":{"x":167232.5700000003,"y":2540899.25}},{"attributes":{"ID":381498,"DIS_CODE":0,"TOWNNAME":"南區","LI":"明亮里","LIN":"9鄰","STREET":"新都路","SECT":" ","MAREA":" ","LANE":"４６２巷","ALLEY":" ","HOUSE_NO":"５號二樓","E_COORD97":167233.20000000001,"N_COORD97":2540907.3900000001,"ADDRESS":"新都路４６２巷５號二樓","OBJECTID":381488},"geometry":{"x":167233.20000000019,"y":2540907.3900000025}},{"attributes":{"ID":381499,"DIS_CODE":0,"TOWNNAME":"南區","LI":"明亮里","LIN":"9鄰","STREET":"新都路","SECT":" ","MAREA":" ","LANE":"４６２巷","ALLEY":" ","HOUSE_NO":"５號三樓","E_COORD97":167233.20000000001,"N_COORD97":2540907.3900000001,"ADDRESS":"新都路４６２巷５號三樓","OBJECTID":381489},"geometry":{"x":167233.20000000019,"y":2540907.3900000025}},{"attributes":{"ID":381500,"DIS_CODE":0,"TOWNNAME":"南區","LI":"明亮里","LIN":"9鄰","STREET":"新都路","SECT":" ","MAREA":" ","LANE":"４６２巷","ALLEY":" ","HOUSE_NO":"５號四樓","E_COORD97":167233.20000000001,"N_COORD97":2540907.3900000001,"ADDRESS":"新都路４６２巷５號四樓","OBJECTID":381490},"geometry":{"x":167233.20000000019,"y":2540907.3900000025}},{"attributes":{"ID":381501,"DIS_CODE":0,"TOWNNAME":"南區","LI":"明亮里","LIN":"9鄰","STREET":"新都路","SECT":" ","MAREA":" ","LANE":"４６２巷","ALLEY":" ","HOUSE_NO":"５號五樓","E_COORD97":167233.20000000001,"N_COORD97":2540907.3900000001,"ADDRESS":"新都路４６２巷５號五樓","OBJECTID":381491},"geometry":{"x":167233.20000000019,"y":2540907.3900000025}},{"attributes":{"ID":381502,"DIS_CODE":0,"TOWNNAME":"南區","LI":"明亮里","LIN":"9鄰","STREET":"新都路","SECT":" ","MAREA":" ","LANE":"４６２巷","ALLEY":" ","HOUSE_NO":"９號二樓","E_COORD97":167256.72,"N_COORD97":2540909.27,"ADDRESS":"新都路４６２巷９號二樓","OBJECTID":381492},"geometry":{"x":167256.71999999974,"y":2540909.2699999996}},{"attributes":{"ID":381503,"DIS_CODE":0,"TOWNNAME":"南區","LI":"明亮里","LIN":"9鄰","STREET":"新都路","SECT":" ","MAREA":" ","LANE":"４６２巷","ALLEY":" ","HOUSE_NO":"９號三樓","E_COORD97":167256.72,"N_COORD97":2540909.27,"ADDRESS":"新都路４６２巷９號三樓","OBJECTID":381493},"geometry":{"x":167256.71999999974,"y":2540909.2699999996}},{"attributes":{"ID":381504,"DIS_CODE":0,"TOWNNAME":"南區","LI":"明亮里","LIN":"9鄰","STREET":"新都路","SECT":" ","MAREA":" ","LANE":"４６２巷","ALLEY":" ","HOUSE_NO":"９號四樓","E_COORD97":167256.72,"N_COORD97":2540909.27,"ADDRESS":"新都路４６２巷９號四樓","OBJECTID":381494},"geometry":{"x":167256.71999999974,"y":2540909.2699999996}},{"attributes":{"ID":381505,"DIS_CODE":0,"TOWNNAME":"南區","LI":"明亮里","LIN":"9鄰","STREET":"新都路","SECT":" ","MAREA":" ","LANE":"４６２巷","ALLEY":" ","HOUSE_NO":"９號五樓","E_COORD97":167256.72,"N_COORD97":2540909.27,"ADDRESS":"新都路４６２巷９號五樓","OBJECTID":381495},"geometry":{"x":167256.71999999974,"y":2540909.2699999996}},{"attributes":{"ID":381506,"DIS_CODE":0,"TOWNNAME":"南區","LI":"明亮里","LIN":"9鄰","STREET":"新都路","SECT":" ","MAREA":" ","LANE":"４６２巷","ALLEY":" ","HOUSE_NO":"１１號二樓","E_COORD97":167235.70999999999,"N_COORD97":2540913.0299999998,"ADDRESS":"新都路４６２巷１１號二樓","OBJECTID":381496},"geometry":{"x":167235.71000000089,"y":2540913.0299999993}},{"attributes":{"ID":381507,"DIS_CODE":0,"TOWNNAME":"南區","LI":"明亮里","LIN":"9鄰","STREET":"新都路","SECT":" ","MAREA":" ","LANE":"４６２巷","ALLEY":" ","HOUSE_NO":"１１號三樓","E_COORD97":167235.70999999999,"N_COORD97":2540913.0299999998,"ADDRESS":"新都路４６２巷１１號三樓","OBJECTID":381497},"geometry":{"x":167235.71000000089,"y":2540913.0299999993}},{"attributes":{"ID":381508,"DIS_CODE":0,"TOWNNAME":"南區","LI":"明亮里","LIN":"9鄰","STREET":"新都路","SECT":" ","MAREA":" ","LANE":"４６２巷","ALLEY":" ","HOUSE_NO":"１１號四樓","E_COORD97":167235.70999999999,"N_COORD97":2540913.0299999998,"ADDRESS":"新都路４６２巷１１號四樓","OBJECTID":381498},"geometry":{"x":167235.71000000089,"y":2540913.0299999993}},{"attributes":{"ID":381509,"DIS_CODE":0,"TOWNNAME":"南區","LI":"明亮里","LIN":"9鄰","STREET":"新都路","SECT":" ","MAREA":" ","LANE":"４６２巷","ALLEY":" ","HOUSE_NO":"１１號五樓","E_COORD97":167235.70999999999,"N_COORD97":2540913.0299999998,"ADDRESS":"新都路４６２巷１１號五樓","OBJECTID":381499},"geometry":{"x":167235.71000000089,"y":2540913.0299999993}},{"attributes":{"ID":381510,"DIS_CODE":0,"TOWNNAME":"南區","LI":"明亮里","LIN":"9鄰","STREET":"新都路","SECT":" ","MAREA":" ","LANE":"４６２巷","ALLEY":" ","HOUSE_NO":"１３號二樓","E_COORD97":167238.53,"N_COORD97":2540922.1200000001,"ADDRESS":"新都路４６２巷１３號二樓","OBJECTID":381500},"geometry":{"x":167238.52999999933,"y":2540922.1199999992}},{"attributes":{"ID":381511,"DIS_CODE":0,"TOWNNAME":"南區","LI":"明亮里","LIN":"9鄰","STREET":"新都路","SECT":" ","MAREA":" ","LANE":"４６２巷","ALLEY":" ","HOUSE_NO":"１３號三樓","E_COORD97":167238.53,"N_COORD97":2540922.1200000001,"ADDRESS":"新都路４６２巷１３號三樓","OBJECTID":381501},"geometry":{"x":167238.52999999933,"y":2540922.1199999992}},{"attributes":{"ID":381512,"DIS_CODE":0,"TOWNNAME":"南區","LI":"明亮里","LIN":"9鄰","STREET":"新都路","SECT":" ","MAREA":" ","LANE":"４６２巷","ALLEY":" ","HOUSE_NO":"１３號四樓","E_COORD97":167238.53,"N_COORD97":2540922.1200000001,"ADDRESS":"新都路４６２巷１３號四樓","OBJECTID":381502},"geometry":{"x":167238.52999999933,"y":2540922.1199999992}},{"attributes":{"ID":381513,"DIS_CODE":0,"TOWNNAME":"南區","LI":"明亮里","LIN":"9鄰","STREET":"新都路","SECT":" ","MAREA":" ","LANE":"４６２巷","ALLEY":" ","HOUSE_NO":"１３號五樓","E_COORD97":167238.53,"N_COORD97":2540922.1200000001,"ADDRESS":"新都路４６２巷１３號五樓","OBJECTID":381503},"geometry":{"x":167238.52999999933,"y":2540922.1199999992}},{"attributes":{"ID":381514,"DIS_CODE":0,"TOWNNAME":"南區","LI":"明亮里","LIN":"9鄰","STREET":"新都路","SECT":" ","MAREA":" ","LANE":"４６２巷","ALLEY":" ","HOUSE_NO":"１５號二樓","E_COORD97":167258.60999999999,"N_COORD97":2540916.79,"ADDRESS":"新都路４６２巷１５號二樓","OBJECTID":381504},"geometry":{"x":167258.6100000022,"y":2540916.790000001}},{"attributes":{"ID":381515,"DIS_CODE":0,"TOWNNAME":"南區","LI":"明亮里","LIN":"9鄰","STREET":"新都路","SECT":" ","MAREA":" ","LANE":"４６２巷","ALLEY":" ","HOUSE_NO":"１５號三樓","E_COORD97":167258.60999999999,"N_COORD97":2540916.79,"ADDRESS":"新都路４６２巷１５號三樓","OBJECTID":381505},"geometry":{"x":167258.6100000022,"y":2540916.790000001}},{"attributes":{"ID":381516,"DIS_CODE":0,"TOWNNAME":"南區","LI":"明亮里","LIN":"9鄰","STREET":"新都路","SECT":" ","MAREA":" ","LANE":"４６２巷","ALLEY":" ","HOUSE_NO":"１５號四樓","E_COORD97":167258.60999999999,"N_COORD97":2540916.79,"ADDRESS":"新都路４６２巷１５號四樓","OBJECTID":381506},"geometry":{"x":167258.6100000022,"y":2540916.790000001}},{"attributes":{"ID":381517,"DIS_CODE":0,"TOWNNAME":"南區","LI":"明亮里","LIN":"9鄰","STREET":"新都路","SECT":" ","MAREA":" ","LANE":"４６２巷","ALLEY":" ","HOUSE_NO":"１５號五樓","E_COORD97":167258.60999999999,"N_COORD97":2540916.79,"ADDRESS":"新都路４６２巷１５號五樓","OBJECTID":381507},"geometry":{"x":167258.6100000022,"y":2540916.790000001}},{"attributes":{"ID":381518,"DIS_CODE":0,"TOWNNAME":"中西區","LI":"銀同里","LIN":"9鄰","STREET":"開山路","SECT":" ","MAREA":" ","LANE":"３５巷","ALLEY":" ","HOUSE_NO":"１４號一樓之１","E_COORD97":168659.57999999999,"N_COORD97":2543481.4500000002,"ADDRESS":"開山路３５巷１４號一樓之１","OBJECTID":381508},"geometry":{"x":168659.58000000007,"y":2543481.450000003}},{"attributes":{"ID":381519,"DIS_CODE":0,"TOWNNAME":"中西區","LI":"銀同里","LIN":"9鄰","STREET":"開山路","SECT":" ","MAREA":" ","LANE":"３５巷","ALLEY":" ","HOUSE_NO":"１４號一樓之２","E_COORD97":168656.69,"N_COORD97":2543481.6000000001,"ADDRESS":"開山路３５巷１４號一樓之２","OBJECTID":381509},"geometry":{"x":168656.69000000227,"y":2543481.6000000015}},{"attributes":{"ID":381520,"DIS_CODE":0,"TOWNNAME":"中西區","LI":"銀同里","LIN":"9鄰","STREET":"開山路","SECT":" ","MAREA":" ","LANE":"３５巷","ALLEY":" ","HOUSE_NO":"１４號二樓之１","E_COORD97":168659.57999999999,"N_COORD97":2543481.4500000002,"ADDRESS":"開山路３５巷１４號二樓之１","OBJECTID":381510},"geometry":{"x":168659.58000000007,"y":2543481.450000003}},{"attributes":{"ID":381521,"DIS_CODE":0,"TOWNNAME":"中西區","LI":"銀同里","LIN":"9鄰","STREET":"開山路","SECT":" ","MAREA":" ","LANE":"３５巷","ALLEY":" ","HOUSE_NO":"１４號二樓之２","E_COORD97":168656.69,"N_COORD97":2543481.6000000001,"ADDRESS":"開山路３５巷１４號二樓之２","OBJECTID":381511},"geometry":{"x":168656.69000000227,"y":2543481.6000000015}},{"attributes":{"ID":381522,"DIS_CODE":0,"TOWNNAME":"中西區","LI":"銀同里","LIN":"9鄰","STREET":"開山路","SECT":" ","MAREA":" ","LANE":"３５巷","ALLEY":" ","HOUSE_NO":"１４號三樓之１","E_COORD97":168659.57999999999,"N_COORD97":2543481.4500000002,"ADDRESS":"開山路３５巷１４號三樓之１","OBJECTID":381512},"geometry":{"x":168659.58000000007,"y":2543481.450000003}},{"attributes":{"ID":381523,"DIS_CODE":0,"TOWNNAME":"中西區","LI":"銀同里","LIN":"9鄰","STREET":"開山路","SECT":" ","MAREA":" ","LANE":"３５巷","ALLEY":" ","HOUSE_NO":"１４號三樓之２","E_COORD97":168656.69,"N_COORD97":2543481.6000000001,"ADDRESS":"開山路３５巷１４號三樓之２","OBJECTID":381513},"geometry":{"x":168656.69000000227,"y":2543481.6000000015}},{"attributes":{"ID":381524,"DIS_CODE":0,"TOWNNAME":"中西區","LI":"銀同里","LIN":"9鄰","STREET":"開山路","SECT":" ","MAREA":" ","LANE":"３５巷","ALLEY":" ","HOUSE_NO":"１４號五樓之１","E_COORD97":168659.57999999999,"N_COORD97":2543481.4500000002,"ADDRESS":"開山路３５巷１４號五樓之１","OBJECTID":381514},"geometry":{"x":168659.58000000007,"y":2543481.450000003}},{"attributes":{"ID":381525,"DIS_CODE":0,"TOWNNAME":"中西區","LI":"銀同里","LIN":"9鄰","STREET":"開山路","SECT":" ","MAREA":" ","LANE":"３５巷","ALLEY":" ","HOUSE_NO":"１４號五樓之２","E_COORD97":168656.69,"N_COORD97":2543481.6000000001,"ADDRESS":"開山路３５巷１４號五樓之２","OBJECTID":381515},"geometry":{"x":168656.69000000227,"y":2543481.6000000015}},{"attributes":{"ID":381526,"DIS_CODE":0,"TOWNNAME":"中西區","LI":"銀同里","LIN":"9鄰","STREET":"開山路","SECT":" ","MAREA":" ","LANE":"３５巷","ALLEY":" ","HOUSE_NO":"１４號四樓之１","E_COORD97":168659.57999999999,"N_COORD97":2543481.4500000002,"ADDRESS":"開山路３５巷１４號四樓之１","OBJECTID":381516},"geometry":{"x":168659.58000000007,"y":2543481.450000003}},{"attributes":{"ID":381527,"DIS_CODE":0,"TOWNNAME":"中西區","LI":"銀同里","LIN":"9鄰","STREET":"開山路","SECT":" ","MAREA":" ","LANE":"３５巷","ALLEY":" ","HOUSE_NO":"１４號四樓之２","E_COORD97":168656.69,"N_COORD97":2543481.6000000001,"ADDRESS":"開山路３５巷１４號四樓之２","OBJECTID":381517},"geometry":{"x":168656.69000000227,"y":2543481.6000000015}},{"attributes":{"ID":381528,"DIS_CODE":0,"TOWNNAME":"中西區","LI":"小西里","LIN":"9鄰","STREET":"西門路","SECT":"一段","MAREA":" ","LANE":"６７６巷","ALLEY":" ","HOUSE_NO":"２５號二樓","E_COORD97":167802.70999999999,"N_COORD97":2543314.7999999998,"ADDRESS":"西門路一段６７６巷２５號二樓","OBJECTID":381518},"geometry":{"x":167802.70999999996,"y":2543314.8000000026}},{"attributes":{"ID":381529,"DIS_CODE":0,"TOWNNAME":"中西區","LI":"小西里","LIN":"9鄰","STREET":"西門路","SECT":"一段","MAREA":" ","LANE":"６７６巷","ALLEY":" ","HOUSE_NO":"２７號二樓","E_COORD97":167802.41,"N_COORD97":2543311.2599999998,"ADDRESS":"西門路一段６７６巷２７號二樓","OBJECTID":381519},"geometry":{"x":167802.41000000108,"y":2543311.2600000016}},{"attributes":{"ID":381530,"DIS_CODE":0,"TOWNNAME":"中西區","LI":"小西里","LIN":"9鄰","STREET":"西門路","SECT":"一段","MAREA":" ","LANE":"６７６巷","ALLEY":" ","HOUSE_NO":"３１號二樓","E_COORD97":167803.69,"N_COORD97":2543305.4700000002,"ADDRESS":"西門路一段６７６巷３１號二樓","OBJECTID":381520},"geometry":{"x":167803.69000000041,"y":2543305.4700000007}},{"attributes":{"ID":381531,"DIS_CODE":0,"TOWNNAME":"中西區","LI":"銀同里","LIN":"9鄰","STREET":"開山路","SECT":" ","MAREA":" ","LANE":"３５巷","ALLEY":" ","HOUSE_NO":"２號三樓","E_COORD97":168651.06,"N_COORD97":2543498.3700000001,"ADDRESS":"開山路３５巷２號三樓","OBJECTID":381521},"geometry":{"x":168651.05999999959,"y":2543498.3700000029}},{"attributes":{"ID":381532,"DIS_CODE":0,"TOWNNAME":"中西區","LI":"銀同里","LIN":"9鄰","STREET":"開山路","SECT":" ","MAREA":" ","LANE":"３５巷","ALLEY":" ","HOUSE_NO":"６號二樓之１","E_COORD97":168654.53,"N_COORD97":2543492.6899999999,"ADDRESS":"開山路３５巷６號二樓之１","OBJECTID":381522},"geometry":{"x":168654.53000000119,"y":2543492.6899999995}},{"attributes":{"ID":381533,"DIS_CODE":0,"TOWNNAME":"中西區","LI":"銀同里","LIN":"9鄰","STREET":"開山路","SECT":" ","MAREA":" ","LANE":"３５巷","ALLEY":" ","HOUSE_NO":"６號二樓之２","E_COORD97":168657.70000000001,"N_COORD97":2543488.2200000002,"ADDRESS":"開山路３５巷６號二樓之２","OBJECTID":381523},"geometry":{"x":168657.70000000019,"y":2543488.2200000025}},{"attributes":{"ID":381534,"DIS_CODE":0,"TOWNNAME":"中西區","LI":"銀同里","LIN":"9鄰","STREET":"開山路","SECT":" ","MAREA":" ","LANE":"３５巷","ALLEY":" ","HOUSE_NO":"６號三樓之１","E_COORD97":168654.53,"N_COORD97":2543492.6899999999,"ADDRESS":"開山路３５巷６號三樓之１","OBJECTID":381524},"geometry":{"x":168654.53000000119,"y":2543492.6899999995}},{"attributes":{"ID":381535,"DIS_CODE":0,"TOWNNAME":"中西區","LI":"銀同里","LIN":"9鄰","STREET":"開山路","SECT":" ","MAREA":" ","LANE":"３５巷","ALLEY":" ","HOUSE_NO":"６號三樓之２","E_COORD97":168657.70000000001,"N_COORD97":2543488.2200000002,"ADDRESS":"開山路３５巷６號三樓之２","OBJECTID":381525},"geometry":{"x":168657.70000000019,"y":2543488.2200000025}},{"attributes":{"ID":381536,"DIS_CODE":0,"TOWNNAME":"中西區","LI":"銀同里","LIN":"9鄰","STREET":"開山路","SECT":" ","MAREA":" ","LANE":"３５巷","ALLEY":" ","HOUSE_NO":"６號四樓之１","E_COORD97":168654.53,"N_COORD97":2543492.6899999999,"ADDRESS":"開山路３５巷６號四樓之１","OBJECTID":381526},"geometry":{"x":168654.53000000119,"y":2543492.6899999995}},{"attributes":{"ID":381537,"DIS_CODE":0,"TOWNNAME":"中西區","LI":"銀同里","LIN":"9鄰","STREET":"開山路","SECT":" ","MAREA":" ","LANE":"３５巷","ALLEY":" ","HOUSE_NO":"６號四樓之２","E_COORD97":168657.70000000001,"N_COORD97":2543488.2200000002,"ADDRESS":"開山路３５巷６號四樓之２","OBJECTID":381527},"geometry":{"x":168657.70000000019,"y":2543488.2200000025}},{"attributes":{"ID":381538,"DIS_CODE":0,"TOWNNAME":"南區","LI":"郡南里","LIN":"9鄰","STREET":"永成路","SECT":"三段","MAREA":" ","LANE":"１３７巷","ALLEY":" ","HOUSE_NO":"３１號二樓","E_COORD97":167395.10000000001,"N_COORD97":2540721.5499999998,"ADDRESS":"永成路三段１３７巷３１號二樓","OBJECTID":381528},"geometry":{"x":167395.10000000149,"y":2540721.5500000007}},{"attributes":{"ID":381539,"DIS_CODE":0,"TOWNNAME":"南區","LI":"郡南里","LIN":"9鄰","STREET":"永成路","SECT":"三段","MAREA":" ","LANE":"１３７巷","ALLEY":" ","HOUSE_NO":"３１號三樓","E_COORD97":167395.10000000001,"N_COORD97":2540721.5499999998,"ADDRESS":"永成路三段１３７巷３１號三樓","OBJECTID":381529},"geometry":{"x":167395.10000000149,"y":2540721.5500000007}},{"attributes":{"ID":381540,"DIS_CODE":0,"TOWNNAME":"南區","LI":"郡南里","LIN":"9鄰","STREET":"永成路","SECT":"三段","MAREA":" ","LANE":"１３７巷","ALLEY":" ","HOUSE_NO":"３１號四樓","E_COORD97":167395.10000000001,"N_COORD97":2540721.5499999998,"ADDRESS":"永成路三段１３７巷３１號四樓","OBJECTID":381530},"geometry":{"x":167395.10000000149,"y":2540721.5500000007}},{"attributes":{"ID":381541,"DIS_CODE":0,"TOWNNAME":"南區","LI":"郡南里","LIN":"9鄰","STREET":"永成路","SECT":"三段","MAREA":" ","LANE":"１３７巷","ALLEY":" ","HOUSE_NO":"３１號五樓","E_COORD97":167395.10000000001,"N_COORD97":2540721.5499999998,"ADDRESS":"永成路三段１３７巷３１號五樓","OBJECTID":381531},"geometry":{"x":167395.10000000149,"y":2540721.5500000007}},{"attributes":{"ID":381542,"DIS_CODE":0,"TOWNNAME":"南區","LI":"郡南里","LIN":"9鄰","STREET":"永成路","SECT":"三段","MAREA":" ","LANE":"１３７巷","ALLEY":" ","HOUSE_NO":"３３號二樓","E_COORD97":167392.79000000001,"N_COORD97":2540728.46,"ADDRESS":"永成路三段１３７巷３３號二樓","OBJECTID":381532},"geometry":{"x":167392.79000000097,"y":2540728.4600000009}},{"attributes":{"ID":381543,"DIS_CODE":0,"TOWNNAME":"南區","LI":"郡南里","LIN":"9鄰","STREET":"永成路","SECT":"三段","MAREA":" ","LANE":"１３７巷","ALLEY":" ","HOUSE_NO":"３３號三樓","E_COORD97":167392.79000000001,"N_COORD97":2540728.46,"ADDRESS":"永成路三段１３７巷３３號三樓","OBJECTID":381533},"geometry":{"x":167392.79000000097,"y":2540728.4600000009}},{"attributes":{"ID":381544,"DIS_CODE":0,"TOWNNAME":"南區","LI":"郡南里","LIN":"9鄰","STREET":"永成路","SECT":"三段","MAREA":" ","LANE":"１３７巷","ALLEY":" ","HOUSE_NO":"３５號三樓","E_COORD97":167392.13,"N_COORD97":2540733.73,"ADDRESS":"永成路三段１３７巷３５號三樓","OBJECTID":381534},"geometry":{"x":167392.13000000082,"y":2540733.7300000004}},{"attributes":{"ID":381545,"DIS_CODE":0,"TOWNNAME":"南區","LI":"郡南里","LIN":"9鄰","STREET":"永成路","SECT":"三段","MAREA":" ","LANE":"１３７巷","ALLEY":" ","HOUSE_NO":"３５號四樓","E_COORD97":167392.13,"N_COORD97":2540733.73,"ADDRESS":"永成路三段１３７巷３５號四樓","OBJECTID":381535},"geometry":{"x":167392.13000000082,"y":2540733.7300000004}},{"attributes":{"ID":381546,"DIS_CODE":0,"TOWNNAME":"善化區","LI":"光文里","LIN":"9鄰","STREET":"民生路","SECT":" ","MAREA":" ","LANE":"３６巷","ALLEY":" ","HOUSE_NO":"１號","E_COORD97":178806.35999999999,"N_COORD97":2559023.0800000001,"ADDRESS":"民生路３６巷１號","OBJECTID":381536},"geometry":{"x":178806.36000000127,"y":2559023.0800000038}},{"attributes":{"ID":381547,"DIS_CODE":0,"TOWNNAME":"南區","LI":"郡南里","LIN":"9鄰","STREET":"永成路","SECT":"三段","MAREA":" ","LANE":"１３７巷","ALLEY":" ","HOUSE_NO":"３５號五樓","E_COORD97":167392.13,"N_COORD97":2540733.73,"ADDRESS":"永成路三段１３７巷３５號五樓","OBJECTID":381537},"geometry":{"x":167392.13000000082,"y":2540733.7300000004}},{"attributes":{"ID":381548,"DIS_CODE":0,"TOWNNAME":"南區","LI":"郡南里","LIN":"9鄰","STREET":"永成路","SECT":"三段","MAREA":" ","LANE":"１３７巷","ALLEY":" ","HOUSE_NO":"３７號二樓","E_COORD97":167389.17000000001,"N_COORD97":2540737.6800000002,"ADDRESS":"永成路三段１３７巷３７號二樓","OBJECTID":381538},"geometry":{"x":167389.16999999993,"y":2540737.6800000034}},{"attributes":{"ID":381549,"DIS_CODE":0,"TOWNNAME":"南區","LI":"郡南里","LIN":"9鄰","STREET":"永成路","SECT":"三段","MAREA":" ","LANE":"１３７巷","ALLEY":" ","HOUSE_NO":"３７號三樓","E_COORD97":167389.17000000001,"N_COORD97":2540737.6800000002,"ADDRESS":"永成路三段１３７巷３７號三樓","OBJECTID":381539},"geometry":{"x":167389.16999999993,"y":2540737.6800000034}},{"attributes":{"ID":381550,"DIS_CODE":0,"TOWNNAME":"南區","LI":"郡南里","LIN":"9鄰","STREET":"永成路","SECT":"三段","MAREA":" ","LANE":"１３７巷","ALLEY":" ","HOUSE_NO":"３７號五樓","E_COORD97":167389.17000000001,"N_COORD97":2540737.6800000002,"ADDRESS":"永成路三段１３７巷３７號五樓","OBJECTID":381540},"geometry":{"x":167389.16999999993,"y":2540737.6800000034}},{"attributes":{"ID":381551,"DIS_CODE":0,"TOWNNAME":"南區","LI":"郡南里","LIN":"9鄰","STREET":"永成路","SECT":"三段","MAREA":" ","LANE":"１３７巷","ALLEY":" ","HOUSE_NO":"３９號二樓","E_COORD97":167387.85000000001,"N_COORD97":2540742.6200000001,"ADDRESS":"永成路三段１３７巷３９號二樓","OBJECTID":381541},"geometry":{"x":167387.84999999963,"y":2540742.6200000048}},{"attributes":{"ID":381552,"DIS_CODE":0,"TOWNNAME":"南區","LI":"郡南里","LIN":"9鄰","STREET":"永成路","SECT":"三段","MAREA":" ","LANE":"１３７巷","ALLEY":" ","HOUSE_NO":"３９號三樓","E_COORD97":167387.85000000001,"N_COORD97":2540742.6200000001,"ADDRESS":"永成路三段１３７巷３９號三樓","OBJECTID":381542},"geometry":{"x":167387.84999999963,"y":2540742.6200000048}},{"attributes":{"ID":381553,"DIS_CODE":0,"TOWNNAME":"南區","LI":"郡南里","LIN":"9鄰","STREET":"永成路","SECT":"三段","MAREA":" ","LANE":"１３７巷","ALLEY":" ","HOUSE_NO":"３９號四樓","E_COORD97":167387.85000000001,"N_COORD97":2540742.6200000001,"ADDRESS":"永成路三段１３７巷３９號四樓","OBJECTID":381543},"geometry":{"x":167387.84999999963,"y":2540742.6200000048}},{"attributes":{"ID":381554,"DIS_CODE":0,"TOWNNAME":"南區","LI":"郡南里","LIN":"9鄰","STREET":"永成路","SECT":"三段","MAREA":" ","LANE":"１３７巷","ALLEY":" ","HOUSE_NO":"３９號五樓","E_COORD97":167387.85000000001,"N_COORD97":2540742.6200000001,"ADDRESS":"永成路三段１３７巷３９號五樓","OBJECTID":381544},"geometry":{"x":167387.84999999963,"y":2540742.6200000048}},{"attributes":{"ID":381555,"DIS_CODE":0,"TOWNNAME":"南區","LI":"郡南里","LIN":"9鄰","STREET":"永成路","SECT":"三段","MAREA":" ","LANE":"１３７巷","ALLEY":" ","HOUSE_NO":"４１號二樓","E_COORD97":167387.85000000001,"N_COORD97":2540746.5699999998,"ADDRESS":"永成路三段１３７巷４１號二樓","OBJECTID":381545},"geometry":{"x":167387.84999999963,"y":2540746.5700000022}},{"attributes":{"ID":381556,"DIS_CODE":0,"TOWNNAME":"南區","LI":"郡南里","LIN":"9鄰","STREET":"永成路","SECT":"三段","MAREA":" ","LANE":"１３７巷","ALLEY":" ","HOUSE_NO":"４１號三樓","E_COORD97":167387.85000000001,"N_COORD97":2540746.5699999998,"ADDRESS":"永成路三段１３７巷４１號三樓","OBJECTID":381546},"geometry":{"x":167387.84999999963,"y":2540746.5700000022}},{"attributes":{"ID":381557,"DIS_CODE":0,"TOWNNAME":"南區","LI":"郡南里","LIN":"9鄰","STREET":"永成路","SECT":"三段","MAREA":" ","LANE":"１３７巷","ALLEY":" ","HOUSE_NO":"４１號四樓","E_COORD97":167387.85000000001,"N_COORD97":2540746.5699999998,"ADDRESS":"永成路三段１３７巷４１號四樓","OBJECTID":381547},"geometry":{"x":167387.84999999963,"y":2540746.5700000022}},{"attributes":{"ID":381558,"DIS_CODE":0,"TOWNNAME":"南區","LI":"開南里","LIN":"9鄰","STREET":"中華西路","SECT":"一段","MAREA":" ","LANE":"２巷","ALLEY":" ","HOUSE_NO":"１０號二樓","E_COORD97":166424.62,"N_COORD97":2540478.1299999999,"ADDRESS":"中華西路一段２巷１０號二樓","OBJECTID":381548},"geometry":{"x":166424.62000000104,"y":2540478.129999999}},{"attributes":{"ID":381559,"DIS_CODE":0,"TOWNNAME":"南區","LI":"開南里","LIN":"9鄰","STREET":"中華西路","SECT":"一段","MAREA":" ","LANE":"２巷","ALLEY":" ","HOUSE_NO":"１０號三樓","E_COORD97":166424.62,"N_COORD97":2540478.1299999999,"ADDRESS":"中華西路一段２巷１０號三樓","OBJECTID":381549},"geometry":{"x":166424.62000000104,"y":2540478.129999999}},{"attributes":{"ID":381560,"DIS_CODE":0,"TOWNNAME":"南區","LI":"開南里","LIN":"9鄰","STREET":"中華西路","SECT":"一段","MAREA":" ","LANE":"２巷","ALLEY":" ","HOUSE_NO":"１０號五樓","E_COORD97":166424.62,"N_COORD97":2540478.1299999999,"ADDRESS":"中華西路一段２巷１０號五樓","OBJECTID":381550},"geometry":{"x":166424.62000000104,"y":2540478.129999999}},{"attributes":{"ID":381561,"DIS_CODE":0,"TOWNNAME":"南區","LI":"開南里","LIN":"9鄰","STREET":"中華西路","SECT":"一段","MAREA":" ","LANE":"２巷","ALLEY":" ","HOUSE_NO":"１０號四樓","E_COORD97":166424.62,"N_COORD97":2540478.1299999999,"ADDRESS":"中華西路一段２巷１０號四樓","OBJECTID":381551},"geometry":{"x":166424.62000000104,"y":2540478.129999999}},{"attributes":{"ID":381562,"DIS_CODE":0,"TOWNNAME":"南區","LI":"開南里","LIN":"9鄰","STREET":"中華西路","SECT":"一段","MAREA":" ","LANE":"２巷","ALLEY":" ","HOUSE_NO":"１１號二樓","E_COORD97":166436.37,"N_COORD97":2540479.02,"ADDRESS":"中華西路一段２巷１１號二樓","OBJECTID":381552},"geometry":{"x":166436.37000000104,"y":2540479.0199999996}},{"attributes":{"ID":381563,"DIS_CODE":0,"TOWNNAME":"南區","LI":"開南里","LIN":"9鄰","STREET":"中華西路","SECT":"一段","MAREA":" ","LANE":"２巷","ALLEY":" ","HOUSE_NO":"１１號三樓","E_COORD97":166436.37,"N_COORD97":2540479.02,"ADDRESS":"中華西路一段２巷１１號三樓","OBJECTID":381553},"geometry":{"x":166436.37000000104,"y":2540479.0199999996}},{"attributes":{"ID":381564,"DIS_CODE":0,"TOWNNAME":"南區","LI":"開南里","LIN":"9鄰","STREET":"中華西路","SECT":"一段","MAREA":" ","LANE":"２巷","ALLEY":" ","HOUSE_NO":"１１號五樓","E_COORD97":166436.37,"N_COORD97":2540479.02,"ADDRESS":"中華西路一段２巷１１號五樓","OBJECTID":381554},"geometry":{"x":166436.37000000104,"y":2540479.0199999996}},{"attributes":{"ID":381565,"DIS_CODE":0,"TOWNNAME":"南區","LI":"開南里","LIN":"9鄰","STREET":"中華西路","SECT":"一段","MAREA":" ","LANE":"２巷","ALLEY":" ","HOUSE_NO":"１１號四樓","E_COORD97":166436.37,"N_COORD97":2540479.02,"ADDRESS":"中華西路一段２巷１１號四樓","OBJECTID":381555},"geometry":{"x":166436.37000000104,"y":2540479.0199999996}},{"attributes":{"ID":381566,"DIS_CODE":0,"TOWNNAME":"南區","LI":"開南里","LIN":"9鄰","STREET":"中華西路","SECT":"一段","MAREA":" ","LANE":"２巷","ALLEY":" ","HOUSE_NO":"１２號二樓","E_COORD97":166441.20999999999,"N_COORD97":2540479,"ADDRESS":"中華西路一段２巷１２號二樓","OBJECTID":381556},"geometry":{"x":166441.21000000089,"y":2540479.0000000019}},{"attributes":{"ID":381567,"DIS_CODE":0,"TOWNNAME":"南區","LI":"開南里","LIN":"9鄰","STREET":"中華西路","SECT":"一段","MAREA":" ","LANE":"２巷","ALLEY":" ","HOUSE_NO":"１２號三樓","E_COORD97":166441.20999999999,"N_COORD97":2540479,"ADDRESS":"中華西路一段２巷１２號三樓","OBJECTID":381557},"geometry":{"x":166441.21000000089,"y":2540479.0000000019}},{"attributes":{"ID":381568,"DIS_CODE":0,"TOWNNAME":"南區","LI":"開南里","LIN":"9鄰","STREET":"中華西路","SECT":"一段","MAREA":" ","LANE":"２巷","ALLEY":" ","HOUSE_NO":"１２號五樓","E_COORD97":166441.20999999999,"N_COORD97":2540479,"ADDRESS":"中華西路一段２巷１２號五樓","OBJECTID":381558},"geometry":{"x":166441.21000000089,"y":2540479.0000000019}},{"attributes":{"ID":381569,"DIS_CODE":0,"TOWNNAME":"南區","LI":"開南里","LIN":"9鄰","STREET":"中華西路","SECT":"一段","MAREA":" ","LANE":"２巷","ALLEY":" ","HOUSE_NO":"１２號四樓","E_COORD97":166441.20999999999,"N_COORD97":2540479,"ADDRESS":"中華西路一段２巷１２號四樓","OBJECTID":381559},"geometry":{"x":166441.21000000089,"y":2540479.0000000019}},{"attributes":{"ID":381570,"DIS_CODE":0,"TOWNNAME":"南區","LI":"開南里","LIN":"9鄰","STREET":"中華西路","SECT":"一段","MAREA":" ","LANE":"２巷","ALLEY":" ","HOUSE_NO":"１３號二樓","E_COORD97":166479.60999999999,"N_COORD97":2540486.1400000001,"ADDRESS":"中華西路一段２巷１３號二樓","OBJECTID":381560},"geometry":{"x":166479.61000000034,"y":2540486.1400000006}},{"attributes":{"ID":381571,"DIS_CODE":0,"TOWNNAME":"南區","LI":"開南里","LIN":"9鄰","STREET":"中華西路","SECT":"一段","MAREA":" ","LANE":"２巷","ALLEY":" ","HOUSE_NO":"１３號三樓","E_COORD97":166479.60999999999,"N_COORD97":2540486.1400000001,"ADDRESS":"中華西路一段２巷１３號三樓","OBJECTID":381561},"geometry":{"x":166479.61000000034,"y":2540486.1400000006}},{"attributes":{"ID":381572,"DIS_CODE":0,"TOWNNAME":"南區","LI":"開南里","LIN":"9鄰","STREET":"中華西路","SECT":"一段","MAREA":" ","LANE":"２巷","ALLEY":" ","HOUSE_NO":"１３號五樓","E_COORD97":166479.60999999999,"N_COORD97":2540486.1400000001,"ADDRESS":"中華西路一段２巷１３號五樓","OBJECTID":381562},"geometry":{"x":166479.61000000034,"y":2540486.1400000006}},{"attributes":{"ID":381573,"DIS_CODE":0,"TOWNNAME":"南區","LI":"開南里","LIN":"9鄰","STREET":"中華西路","SECT":"一段","MAREA":" ","LANE":"２巷","ALLEY":" ","HOUSE_NO":"１３號四樓","E_COORD97":166479.60999999999,"N_COORD97":2540486.1400000001,"ADDRESS":"中華西路一段２巷１３號四樓","OBJECTID":381563},"geometry":{"x":166479.61000000034,"y":2540486.1400000006}},{"attributes":{"ID":381574,"DIS_CODE":0,"TOWNNAME":"南區","LI":"開南里","LIN":"9鄰","STREET":"中華西路","SECT":"一段","MAREA":" ","LANE":"２巷","ALLEY":" ","HOUSE_NO":"１４號二樓","E_COORD97":166484.35000000001,"N_COORD97":2540486,"ADDRESS":"中華西路一段２巷１４號二樓","OBJECTID":381564},"geometry":{"x":166484.34999999963,"y":2540486.0000000019}},{"attributes":{"ID":381575,"DIS_CODE":0,"TOWNNAME":"南區","LI":"開南里","LIN":"9鄰","STREET":"中華西路","SECT":"一段","MAREA":" ","LANE":"２巷","ALLEY":" ","HOUSE_NO":"１４號三樓","E_COORD97":166484.35000000001,"N_COORD97":2540486,"ADDRESS":"中華西路一段２巷１４號三樓","OBJECTID":381565},"geometry":{"x":166484.34999999963,"y":2540486.0000000019}},{"attributes":{"ID":381576,"DIS_CODE":0,"TOWNNAME":"南區","LI":"開南里","LIN":"9鄰","STREET":"中華西路","SECT":"一段","MAREA":" ","LANE":"２巷","ALLEY":" ","HOUSE_NO":"１４號五樓","E_COORD97":166484.35000000001,"N_COORD97":2540486,"ADDRESS":"中華西路一段２巷１４號五樓","OBJECTID":381566},"geometry":{"x":166484.34999999963,"y":2540486.0000000019}},{"attributes":{"ID":381577,"DIS_CODE":0,"TOWNNAME":"南區","LI":"開南里","LIN":"9鄰","STREET":"中華西路","SECT":"一段","MAREA":" ","LANE":"２巷","ALLEY":" ","HOUSE_NO":"１４號四樓","E_COORD97":166484.35000000001,"N_COORD97":2540486,"ADDRESS":"中華西路一段２巷１４號四樓","OBJECTID":381567},"geometry":{"x":166484.34999999963,"y":2540486.0000000019}},{"attributes":{"ID":381578,"DIS_CODE":0,"TOWNNAME":"南區","LI":"開南里","LIN":"9鄰","STREET":"中華西路","SECT":"一段","MAREA":" ","LANE":"２巷","ALLEY":" ","HOUSE_NO":"１５號三樓","E_COORD97":166502.48000000001,"N_COORD97":2540486.7000000002,"ADDRESS":"中華西路一段２巷１５號三樓","OBJECTID":381568},"geometry":{"x":166502.48000000138,"y":2540486.7000000011}},{"attributes":{"ID":381579,"DIS_CODE":0,"TOWNNAME":"南區","LI":"開南里","LIN":"9鄰","STREET":"中華西路","SECT":"一段","MAREA":" ","LANE":"２巷","ALLEY":" ","HOUSE_NO":"１５號五樓","E_COORD97":166502.48000000001,"N_COORD97":2540486.7000000002,"ADDRESS":"中華西路一段２巷１５號五樓","OBJECTID":381569},"geometry":{"x":166502.48000000138,"y":2540486.7000000011}},{"attributes":{"ID":381580,"DIS_CODE":0,"TOWNNAME":"南區","LI":"開南里","LIN":"9鄰","STREET":"中華西路","SECT":"一段","MAREA":" ","LANE":"２巷","ALLEY":" ","HOUSE_NO":"１５號四樓","E_COORD97":166502.48000000001,"N_COORD97":2540486.7000000002,"ADDRESS":"中華西路一段２巷１５號四樓","OBJECTID":381570},"geometry":{"x":166502.48000000138,"y":2540486.7000000011}},{"attributes":{"ID":381581,"DIS_CODE":0,"TOWNNAME":"南區","LI":"開南里","LIN":"9鄰","STREET":"中華西路","SECT":"一段","MAREA":" ","LANE":"２巷","ALLEY":" ","HOUSE_NO":"１５號二樓","E_COORD97":166502.48000000001,"N_COORD97":2540486.7000000002,"ADDRESS":"中華西路一段２巷１５號二樓","OBJECTID":381571},"geometry":{"x":166502.48000000138,"y":2540486.7000000011}},{"attributes":{"ID":381582,"DIS_CODE":0,"TOWNNAME":"南區","LI":"開南里","LIN":"9鄰","STREET":"中華西路","SECT":"一段","MAREA":" ","LANE":"２巷","ALLEY":" ","HOUSE_NO":"１６號二樓","E_COORD97":166507.78,"N_COORD97":2540486.2799999998,"ADDRESS":"中華西路一段２巷１６號二樓","OBJECTID":381572},"geometry":{"x":166507.78000000026,"y":2540486.2800000012}},{"attributes":{"ID":381583,"DIS_CODE":0,"TOWNNAME":"南區","LI":"開南里","LIN":"9鄰","STREET":"中華西路","SECT":"一段","MAREA":" ","LANE":"２巷","ALLEY":" ","HOUSE_NO":"１６號三樓","E_COORD97":166507.78,"N_COORD97":2540486.2799999998,"ADDRESS":"中華西路一段２巷１６號三樓","OBJECTID":381573},"geometry":{"x":166507.78000000026,"y":2540486.2800000012}},{"attributes":{"ID":381584,"DIS_CODE":0,"TOWNNAME":"南區","LI":"開南里","LIN":"9鄰","STREET":"中華西路","SECT":"一段","MAREA":" ","LANE":"２巷","ALLEY":" ","HOUSE_NO":"１６號五樓","E_COORD97":166507.78,"N_COORD97":2540486.2799999998,"ADDRESS":"中華西路一段２巷１６號五樓","OBJECTID":381574},"geometry":{"x":166507.78000000026,"y":2540486.2800000012}},{"attributes":{"ID":381585,"DIS_CODE":0,"TOWNNAME":"南區","LI":"開南里","LIN":"9鄰","STREET":"中華西路","SECT":"一段","MAREA":" ","LANE":"２巷","ALLEY":" ","HOUSE_NO":"１６號四樓","E_COORD97":166507.78,"N_COORD97":2540486.2799999998,"ADDRESS":"中華西路一段２巷１６號四樓","OBJECTID":381575},"geometry":{"x":166507.78000000026,"y":2540486.2800000012}},{"attributes":{"ID":381586,"DIS_CODE":0,"TOWNNAME":"南區","LI":"開南里","LIN":"9鄰","STREET":"中華西路","SECT":"一段","MAREA":" ","LANE":"２巷","ALLEY":" ","HOUSE_NO":"１號二樓","E_COORD97":166331.39000000001,"N_COORD97":2540478.5800000001,"ADDRESS":"中華西路一段２巷１號二樓","OBJECTID":381576},"geometry":{"x":166331.38999999966,"y":2540478.5800000019}},{"attributes":{"ID":381587,"DIS_CODE":0,"TOWNNAME":"南區","LI":"開南里","LIN":"9鄰","STREET":"中華西路","SECT":"一段","MAREA":" ","LANE":"２巷","ALLEY":" ","HOUSE_NO":"１號三樓","E_COORD97":166331.39000000001,"N_COORD97":2540478.5800000001,"ADDRESS":"中華西路一段２巷１號三樓","OBJECTID":381577},"geometry":{"x":166331.38999999966,"y":2540478.5800000019}},{"attributes":{"ID":381588,"DIS_CODE":0,"TOWNNAME":"南區","LI":"開南里","LIN":"9鄰","STREET":"中華西路","SECT":"一段","MAREA":" ","LANE":"２巷","ALLEY":" ","HOUSE_NO":"１號五樓","E_COORD97":166331.39000000001,"N_COORD97":2540478.5800000001,"ADDRESS":"中華西路一段２巷１號五樓","OBJECTID":381578},"geometry":{"x":166331.38999999966,"y":2540478.5800000019}},{"attributes":{"ID":381589,"DIS_CODE":0,"TOWNNAME":"南區","LI":"開南里","LIN":"9鄰","STREET":"中華西路","SECT":"一段","MAREA":" ","LANE":"２巷","ALLEY":" ","HOUSE_NO":"１號四樓","E_COORD97":166331.39000000001,"N_COORD97":2540478.5800000001,"ADDRESS":"中華西路一段２巷１號四樓","OBJECTID":381579},"geometry":{"x":166331.38999999966,"y":2540478.5800000019}},{"attributes":{"ID":381590,"DIS_CODE":0,"TOWNNAME":"南區","LI":"開南里","LIN":"9鄰","STREET":"中華西路","SECT":"一段","MAREA":" ","LANE":"２巷","ALLEY":" ","HOUSE_NO":"２號二樓","E_COORD97":166338.28,"N_COORD97":2540478.7999999998,"ADDRESS":"中華西路一段２巷２號二樓","OBJECTID":381580},"geometry":{"x":166338.28000000026,"y":2540478.8000000007}},{"attributes":{"ID":381591,"DIS_CODE":0,"TOWNNAME":"南區","LI":"開南里","LIN":"9鄰","STREET":"中華西路","SECT":"一段","MAREA":" ","LANE":"２巷","ALLEY":" ","HOUSE_NO":"２號三樓","E_COORD97":166338.28,"N_COORD97":2540478.7999999998,"ADDRESS":"中華西路一段２巷２號三樓","OBJECTID":381581},"geometry":{"x":166338.28000000026,"y":2540478.8000000007}},{"attributes":{"ID":381592,"DIS_CODE":0,"TOWNNAME":"南區","LI":"開南里","LIN":"9鄰","STREET":"中華西路","SECT":"一段","MAREA":" ","LANE":"２巷","ALLEY":" ","HOUSE_NO":"２號五樓","E_COORD97":166338.28,"N_COORD97":2540478.7999999998,"ADDRESS":"中華西路一段２巷２號五樓","OBJECTID":381582},"geometry":{"x":166338.28000000026,"y":2540478.8000000007}},{"attributes":{"ID":381593,"DIS_CODE":0,"TOWNNAME":"南區","LI":"開南里","LIN":"9鄰","STREET":"中華西路","SECT":"一段","MAREA":" ","LANE":"２巷","ALLEY":" ","HOUSE_NO":"２號四樓","E_COORD97":166338.28,"N_COORD97":2540478.7999999998,"ADDRESS":"中華西路一段２巷２號四樓","OBJECTID":381583},"geometry":{"x":166338.28000000026,"y":2540478.8000000007}},{"attributes":{"ID":381594,"DIS_CODE":0,"TOWNNAME":"南區","LI":"開南里","LIN":"9鄰","STREET":"中華西路","SECT":"一段","MAREA":" ","LANE":"２巷","ALLEY":" ","HOUSE_NO":"３號二樓","E_COORD97":166349.39000000001,"N_COORD97":2540478.5699999998,"ADDRESS":"中華西路一段２巷３號二樓","OBJECTID":381584},"geometry":{"x":166349.3900000006,"y":2540478.5700000022}},{"attributes":{"ID":381595,"DIS_CODE":0,"TOWNNAME":"南區","LI":"開南里","LIN":"9鄰","STREET":"中華西路","SECT":"一段","MAREA":" ","LANE":"２巷","ALLEY":" ","HOUSE_NO":"３號三樓","E_COORD97":166349.39000000001,"N_COORD97":2540478.5699999998,"ADDRESS":"中華西路一段２巷３號三樓","OBJECTID":381585},"geometry":{"x":166349.3900000006,"y":2540478.5700000022}},{"attributes":{"ID":381596,"DIS_CODE":0,"TOWNNAME":"南區","LI":"開南里","LIN":"9鄰","STREET":"中華西路","SECT":"一段","MAREA":" ","LANE":"２巷","ALLEY":" ","HOUSE_NO":"３號五樓","E_COORD97":166349.39000000001,"N_COORD97":2540478.5699999998,"ADDRESS":"中華西路一段２巷３號五樓","OBJECTID":381586},"geometry":{"x":166349.3900000006,"y":2540478.5700000022}},{"attributes":{"ID":381597,"DIS_CODE":0,"TOWNNAME":"南區","LI":"開南里","LIN":"9鄰","STREET":"中華西路","SECT":"一段","MAREA":" ","LANE":"２巷","ALLEY":" ","HOUSE_NO":"３號四樓","E_COORD97":166349.39000000001,"N_COORD97":2540478.5699999998,"ADDRESS":"中華西路一段２巷３號四樓","OBJECTID":381587},"geometry":{"x":166349.3900000006,"y":2540478.5700000022}},{"attributes":{"ID":381598,"DIS_CODE":0,"TOWNNAME":"南區","LI":"開南里","LIN":"9鄰","STREET":"中華西路","SECT":"一段","MAREA":" ","LANE":"２巷","ALLEY":" ","HOUSE_NO":"４號二樓","E_COORD97":166356.60000000001,"N_COORD97":2540478.6899999999,"ADDRESS":"中華西路一段２巷４號二樓","OBJECTID":381588},"geometry":{"x":166356.60000000056,"y":2540478.6899999995}},{"attributes":{"ID":381599,"DIS_CODE":0,"TOWNNAME":"南區","LI":"開南里","LIN":"9鄰","STREET":"中華西路","SECT":"一段","MAREA":" ","LANE":"２巷","ALLEY":" ","HOUSE_NO":"４號三樓","E_COORD97":166356.60000000001,"N_COORD97":2540478.6899999999,"ADDRESS":"中華西路一段２巷４號三樓","OBJECTID":381589},"geometry":{"x":166356.60000000056,"y":2540478.6899999995}},{"attributes":{"ID":381600,"DIS_CODE":0,"TOWNNAME":"南區","LI":"開南里","LIN":"9鄰","STREET":"中華西路","SECT":"一段","MAREA":" ","LANE":"２巷","ALLEY":" ","HOUSE_NO":"４號五樓","E_COORD97":166356.60000000001,"N_COORD97":2540478.6899999999,"ADDRESS":"中華西路一段２巷４號五樓","OBJECTID":381590},"geometry":{"x":166356.60000000056,"y":2540478.6899999995}},{"attributes":{"ID":381601,"DIS_CODE":0,"TOWNNAME":"南區","LI":"開南里","LIN":"9鄰","STREET":"中華西路","SECT":"一段","MAREA":" ","LANE":"２巷","ALLEY":" ","HOUSE_NO":"４號四樓","E_COORD97":166356.60000000001,"N_COORD97":2540478.6899999999,"ADDRESS":"中華西路一段２巷４號四樓","OBJECTID":381591},"geometry":{"x":166356.60000000056,"y":2540478.6899999995}},{"attributes":{"ID":381602,"DIS_CODE":0,"TOWNNAME":"南區","LI":"開南里","LIN":"9鄰","STREET":"中華西路","SECT":"一段","MAREA":" ","LANE":"２巷","ALLEY":" ","HOUSE_NO":"５號二樓","E_COORD97":166366.60000000001,"N_COORD97":2540478.6899999999,"ADDRESS":"中華西路一段２巷５號二樓","OBJECTID":381592},"geometry":{"x":166366.60000000056,"y":2540478.6899999995}},{"attributes":{"ID":381603,"DIS_CODE":0,"TOWNNAME":"南區","LI":"開南里","LIN":"9鄰","STREET":"中華西路","SECT":"一段","MAREA":" ","LANE":"２巷","ALLEY":" ","HOUSE_NO":"５號三樓","E_COORD97":166366.60000000001,"N_COORD97":2540478.6899999999,"ADDRESS":"中華西路一段２巷５號三樓","OBJECTID":381593},"geometry":{"x":166366.60000000056,"y":2540478.6899999995}},{"attributes":{"ID":381604,"DIS_CODE":0,"TOWNNAME":"南區","LI":"開南里","LIN":"9鄰","STREET":"中華西路","SECT":"一段","MAREA":" ","LANE":"２巷","ALLEY":" ","HOUSE_NO":"５號五樓","E_COORD97":166366.60000000001,"N_COORD97":2540478.6899999999,"ADDRESS":"中華西路一段２巷５號五樓","OBJECTID":381594},"geometry":{"x":166366.60000000056,"y":2540478.6899999995}},{"attributes":{"ID":381605,"DIS_CODE":0,"TOWNNAME":"南區","LI":"開南里","LIN":"9鄰","STREET":"中華西路","SECT":"一段","MAREA":" ","LANE":"２巷","ALLEY":" ","HOUSE_NO":"５號四樓","E_COORD97":166366.60000000001,"N_COORD97":2540478.6899999999,"ADDRESS":"中華西路一段２巷５號四樓","OBJECTID":381595},"geometry":{"x":166366.60000000056,"y":2540478.6899999995}},{"attributes":{"ID":381606,"DIS_CODE":0,"TOWNNAME":"南區","LI":"開南里","LIN":"9鄰","STREET":"中華西路","SECT":"一段","MAREA":" ","LANE":"２巷","ALLEY":" ","HOUSE_NO":"６號二樓","E_COORD97":166374.48000000001,"N_COORD97":2540479.02,"ADDRESS":"中華西路一段２巷６號二樓","OBJECTID":381596},"geometry":{"x":166374.48000000045,"y":2540479.0199999996}},{"attributes":{"ID":381607,"DIS_CODE":0,"TOWNNAME":"南區","LI":"開南里","LIN":"9鄰","STREET":"中華西路","SECT":"一段","MAREA":" ","LANE":"２巷","ALLEY":" ","HOUSE_NO":"６號三樓","E_COORD97":166374.48000000001,"N_COORD97":2540479.02,"ADDRESS":"中華西路一段２巷６號三樓","OBJECTID":381597},"geometry":{"x":166374.48000000045,"y":2540479.0199999996}},{"attributes":{"ID":381608,"DIS_CODE":0,"TOWNNAME":"南區","LI":"開南里","LIN":"9鄰","STREET":"中華西路","SECT":"一段","MAREA":" ","LANE":"２巷","ALLEY":" ","HOUSE_NO":"６號五樓","E_COORD97":166374.48000000001,"N_COORD97":2540479.02,"ADDRESS":"中華西路一段２巷６號五樓","OBJECTID":381598},"geometry":{"x":166374.48000000045,"y":2540479.0199999996}},{"attributes":{"ID":381609,"DIS_CODE":0,"TOWNNAME":"南區","LI":"開南里","LIN":"9鄰","STREET":"中華西路","SECT":"一段","MAREA":" ","LANE":"２巷","ALLEY":" ","HOUSE_NO":"６號四樓","E_COORD97":166374.48000000001,"N_COORD97":2540479.02,"ADDRESS":"中華西路一段２巷６號四樓","OBJECTID":381599},"geometry":{"x":166374.48000000045,"y":2540479.0199999996}},{"attributes":{"ID":381610,"DIS_CODE":0,"TOWNNAME":"南區","LI":"開南里","LIN":"9鄰","STREET":"中華西路","SECT":"一段","MAREA":" ","LANE":"２巷","ALLEY":" ","HOUSE_NO":"７號二樓","E_COORD97":166399.97,"N_COORD97":2540478.1299999999,"ADDRESS":"中華西路一段２巷７號二樓","OBJECTID":381600},"geometry":{"x":166399.97000000067,"y":2540478.129999999}}]}