{"displayFieldName":"TOWNNAME","fieldAliases":{"ID":"ID","DIS_CODE":"DIS_CODE","TOWNNAME":"TOWNNAME","LI":"LI","LIN":"LIN","STREET":"STREET","SECT":"SECT","MAREA":"MAREA","LANE":"LANE","ALLEY":"ALLEY","HOUSE_NO":"HOUSE_NO","E_COORD97":"E_COORD97","N_COORD97":"N_COORD97","ADDRESS":"ADDRESS","OBJECTID":"OBJECTID"},"geometryType":"esriGeometryPoint","spatialReference":{"wkid":102443,"latestWkid":3826},"fields":[{"name":"ID","type":"esriFieldTypeDouble","alias":"ID"},{"name":"DIS_CODE","type":"esriFieldTypeInteger","alias":"DIS_CODE"},{"name":"TOWNNAME","type":"esriFieldTypeString","alias":"TOWNNAME","length":8},{"name":"LI","type":"esriFieldTypeString","alias":"LI","length":8},{"name":"LIN","type":"esriFieldTypeString","alias":"LIN","length":12},{"name":"STREET","type":"esriFieldTypeString","alias":"STREET","length":20},{"name":"SECT","type":"esriFieldTypeString","alias":"SECT","length":8},{"name":"MAREA","type":"esriFieldTypeString","alias":"MAREA","length":12},{"name":"LANE","type":"esriFieldTypeString","alias":"LANE","length":10},{"name":"ALLEY","type":"esriFieldTypeString","alias":"ALLEY","length":10},{"name":"HOUSE_NO","type":"esriFieldTypeString","alias":"HOUSE_NO","length":20},{"name":"E_COORD97","type":"esriFieldTypeDouble","alias":"E_COORD97"},{"name":"N_COORD97","type":"esriFieldTypeDouble","alias":"N_COORD97"},{"name":"ADDRESS","type":"esriFieldTypeString","alias":"ADDRESS","length":50},{"name":"OBJECTID","type":"esriFieldTypeOID","alias":"OBJECTID"}],"features":[{"attributes":{"ID":568828,"DIS_CODE":0,"TOWNNAME":"東區","LI":"中西里","LIN":"28鄰","STREET":"東寧路","SECT":" ","MAREA":" ","LANE":" ","ALLEY":" ","HOUSE_NO":"１５４號之７六樓","E_COORD97":170337.32000000001,"N_COORD97":2543502.2599999998,"ADDRESS":"東寧路１５４號之７六樓","OBJECTID":568801},"geometry":{"x":170337.32000000216,"y":2543502.2599999998}},{"attributes":{"ID":568829,"DIS_CODE":0,"TOWNNAME":"東區","LI":"中西里","LIN":"28鄰","STREET":"東寧路","SECT":" ","MAREA":" ","LANE":" ","ALLEY":" ","HOUSE_NO":"１５４號之７七樓","E_COORD97":170337.32000000001,"N_COORD97":2543502.2599999998,"ADDRESS":"東寧路１５４號之７七樓","OBJECTID":568802},"geometry":{"x":170337.32000000216,"y":2543502.2599999998}},{"attributes":{"ID":568830,"DIS_CODE":0,"TOWNNAME":"永康區","LI":"埔園里","LIN":"28鄰","STREET":"中山路","SECT":" ","MAREA":" ","LANE":" ","ALLEY":" ","HOUSE_NO":"３５４號二十五樓之２","E_COORD97":173657.92999999999,"N_COORD97":2548283.27,"ADDRESS":"中山路３５４號二十五樓之２","OBJECTID":568803},"geometry":{"x":173657.9299999997,"y":2548283.2699999996}},{"attributes":{"ID":568831,"DIS_CODE":0,"TOWNNAME":"永康區","LI":"埔園里","LIN":"28鄰","STREET":"中山路","SECT":" ","MAREA":" ","LANE":" ","ALLEY":" ","HOUSE_NO":"３５６號九樓之９","E_COORD97":173652.39000000001,"N_COORD97":2548293.02,"ADDRESS":"中山路３５６號九樓之９","OBJECTID":568804},"geometry":{"x":173652.3900000006,"y":2548293.0200000014}},{"attributes":{"ID":568832,"DIS_CODE":0,"TOWNNAME":"永康區","LI":"埔園里","LIN":"28鄰","STREET":"中山路","SECT":" ","MAREA":" ","LANE":" ","ALLEY":" ","HOUSE_NO":"３５６號十五樓之２","E_COORD97":173653.69,"N_COORD97":2548293.02,"ADDRESS":"中山路３５６號十五樓之２","OBJECTID":568805},"geometry":{"x":173653.69000000041,"y":2548293.0200000014}},{"attributes":{"ID":568833,"DIS_CODE":0,"TOWNNAME":"永康區","LI":"埔園里","LIN":"28鄰","STREET":"中山路","SECT":" ","MAREA":" ","LANE":" ","ALLEY":" ","HOUSE_NO":"３５６號二十五樓之２","E_COORD97":173654.94,"N_COORD97":2548293.02,"ADDRESS":"中山路３５６號二十五樓之２","OBJECTID":568806},"geometry":{"x":173654.94000000041,"y":2548293.0200000014}},{"attributes":{"ID":568834,"DIS_CODE":0,"TOWNNAME":"永康區","LI":"埔園里","LIN":"28鄰","STREET":"中山路","SECT":" ","MAREA":" ","LANE":" ","ALLEY":" ","HOUSE_NO":"３５４號十一樓之５","E_COORD97":173656.70999999999,"N_COORD97":2548283.27,"ADDRESS":"中山路３５４號十一樓之５","OBJECTID":568807},"geometry":{"x":173656.70999999903,"y":2548283.2699999996}},{"attributes":{"ID":568835,"DIS_CODE":0,"TOWNNAME":"永康區","LI":"埔園里","LIN":"28鄰","STREET":"中山路","SECT":" ","MAREA":" ","LANE":" ","ALLEY":" ","HOUSE_NO":"３５４號十一樓之２","E_COORD97":173656.67999999999,"N_COORD97":2548283.27,"ADDRESS":"中山路３５４號十一樓之２","OBJECTID":568808},"geometry":{"x":173656.68000000156,"y":2548283.2699999996}},{"attributes":{"ID":568836,"DIS_CODE":0,"TOWNNAME":"永康區","LI":"埔園里","LIN":"28鄰","STREET":"中山路","SECT":" ","MAREA":" ","LANE":" ","ALLEY":" ","HOUSE_NO":"３５６號五樓之７","E_COORD97":173652.39000000001,"N_COORD97":2548293.02,"ADDRESS":"中山路３５６號五樓之７","OBJECTID":568809},"geometry":{"x":173652.3900000006,"y":2548293.0200000014}},{"attributes":{"ID":568837,"DIS_CODE":0,"TOWNNAME":"永康區","LI":"埔園里","LIN":"28鄰","STREET":"中山路","SECT":" ","MAREA":" ","LANE":" ","ALLEY":" ","HOUSE_NO":"３５４號二十一樓之５","E_COORD97":173657.95999999999,"N_COORD97":2548283.27,"ADDRESS":"中山路３５４號二十一樓之５","OBJECTID":568810},"geometry":{"x":173657.95999999996,"y":2548283.2699999996}},{"attributes":{"ID":568838,"DIS_CODE":0,"TOWNNAME":"永康區","LI":"埔園里","LIN":"28鄰","STREET":"中山路","SECT":" ","MAREA":" ","LANE":" ","ALLEY":" ","HOUSE_NO":"３５６號十九樓之３","E_COORD97":173653.66,"N_COORD97":2548293.02,"ADDRESS":"中山路３５６號十九樓之３","OBJECTID":568811},"geometry":{"x":173653.66000000015,"y":2548293.0200000014}},{"attributes":{"ID":568839,"DIS_CODE":0,"TOWNNAME":"永康區","LI":"埔園里","LIN":"28鄰","STREET":"中山路","SECT":" ","MAREA":" ","LANE":" ","ALLEY":" ","HOUSE_NO":"３５６號十九樓之２","E_COORD97":173653.69,"N_COORD97":2548293.02,"ADDRESS":"中山路３５６號十九樓之２","OBJECTID":568812},"geometry":{"x":173653.69000000041,"y":2548293.0200000014}},{"attributes":{"ID":568840,"DIS_CODE":0,"TOWNNAME":"永康區","LI":"埔園里","LIN":"28鄰","STREET":"中山路","SECT":" ","MAREA":" ","LANE":" ","ALLEY":" ","HOUSE_NO":"３５６號三樓之９","E_COORD97":173652.39000000001,"N_COORD97":2548293.02,"ADDRESS":"中山路３５６號三樓之９","OBJECTID":568813},"geometry":{"x":173652.3900000006,"y":2548293.0200000014}},{"attributes":{"ID":568841,"DIS_CODE":0,"TOWNNAME":"永康區","LI":"埔園里","LIN":"28鄰","STREET":"中山路","SECT":" ","MAREA":" ","LANE":" ","ALLEY":" ","HOUSE_NO":"３５６號十九樓之７","E_COORD97":173653.64000000001,"N_COORD97":2548293.02,"ADDRESS":"中山路３５６號十九樓之７","OBJECTID":568814},"geometry":{"x":173653.64000000153,"y":2548293.0200000014}},{"attributes":{"ID":568842,"DIS_CODE":0,"TOWNNAME":"永康區","LI":"埔園里","LIN":"28鄰","STREET":"中山路","SECT":" ","MAREA":" ","LANE":" ","ALLEY":" ","HOUSE_NO":"３５４號二十三樓之３","E_COORD97":173657.89999999999,"N_COORD97":2548283.27,"ADDRESS":"中山路３５４號二十三樓之３","OBJECTID":568815},"geometry":{"x":173657.9000000013,"y":2548283.2699999996}},{"attributes":{"ID":568843,"DIS_CODE":0,"TOWNNAME":"永康區","LI":"埔園里","LIN":"28鄰","STREET":"中山路","SECT":" ","MAREA":" ","LANE":" ","ALLEY":" ","HOUSE_NO":"３５４號十一樓之８","E_COORD97":173656.70000000001,"N_COORD97":2548283.27,"ADDRESS":"中山路３５４號十一樓之８","OBJECTID":568816},"geometry":{"x":173656.70000000019,"y":2548283.2699999996}},{"attributes":{"ID":568844,"DIS_CODE":0,"TOWNNAME":"永康區","LI":"埔園里","LIN":"28鄰","STREET":"中山路","SECT":" ","MAREA":" ","LANE":" ","ALLEY":" ","HOUSE_NO":"３５４號七樓之５","E_COORD97":173655.45999999999,"N_COORD97":2548283.27,"ADDRESS":"中山路３５４號七樓之５","OBJECTID":568817},"geometry":{"x":173655.46000000089,"y":2548283.2699999996}},{"attributes":{"ID":568845,"DIS_CODE":0,"TOWNNAME":"永康區","LI":"埔園里","LIN":"28鄰","STREET":"中山路","SECT":" ","MAREA":" ","LANE":" ","ALLEY":" ","HOUSE_NO":"３５６號二十一樓之５","E_COORD97":173654.97,"N_COORD97":2548293.02,"ADDRESS":"中山路３５６號二十一樓之５","OBJECTID":568818},"geometry":{"x":173654.97000000067,"y":2548293.0200000014}},{"attributes":{"ID":568846,"DIS_CODE":0,"TOWNNAME":"永康區","LI":"埔園里","LIN":"28鄰","STREET":"中山路","SECT":" ","MAREA":" ","LANE":" ","ALLEY":" ","HOUSE_NO":"３５６號十三樓之２","E_COORD97":173653.69,"N_COORD97":2548293.02,"ADDRESS":"中山路３５６號十三樓之２","OBJECTID":568819},"geometry":{"x":173653.69000000041,"y":2548293.0200000014}},{"attributes":{"ID":568847,"DIS_CODE":0,"TOWNNAME":"永康區","LI":"埔園里","LIN":"28鄰","STREET":"中山路","SECT":" ","MAREA":" ","LANE":" ","ALLEY":" ","HOUSE_NO":"３５４號十一樓之６","E_COORD97":173656.64999999999,"N_COORD97":2548283.27,"ADDRESS":"中山路３５４號十一樓之６","OBJECTID":568820},"geometry":{"x":173656.6500000013,"y":2548283.2699999996}},{"attributes":{"ID":568848,"DIS_CODE":0,"TOWNNAME":"東區","LI":"仁和里","LIN":"28鄰","STREET":"利東街","SECT":" ","MAREA":" ","LANE":" ","ALLEY":" ","HOUSE_NO":"４５號七樓之１","E_COORD97":171709.70000000001,"N_COORD97":2541119.8799999999,"ADDRESS":"利東街４５號七樓之１","OBJECTID":568821},"geometry":{"x":171709.70000000112,"y":2541119.8800000008}},{"attributes":{"ID":568849,"DIS_CODE":0,"TOWNNAME":"東區","LI":"仁和里","LIN":"28鄰","STREET":"利東街","SECT":" ","MAREA":" ","LANE":" ","ALLEY":" ","HOUSE_NO":"４５號七樓之２","E_COORD97":171709.70000000001,"N_COORD97":2541119.8799999999,"ADDRESS":"利東街４５號七樓之２","OBJECTID":568822},"geometry":{"x":171709.70000000112,"y":2541119.8800000008}},{"attributes":{"ID":568850,"DIS_CODE":0,"TOWNNAME":"東區","LI":"仁和里","LIN":"28鄰","STREET":"利東街","SECT":" ","MAREA":" ","LANE":" ","ALLEY":" ","HOUSE_NO":"４５號九樓之１","E_COORD97":171709.70000000001,"N_COORD97":2541119.8799999999,"ADDRESS":"利東街４５號九樓之１","OBJECTID":568823},"geometry":{"x":171709.70000000112,"y":2541119.8800000008}},{"attributes":{"ID":568851,"DIS_CODE":0,"TOWNNAME":"東區","LI":"仁和里","LIN":"28鄰","STREET":"利東街","SECT":" ","MAREA":" ","LANE":" ","ALLEY":" ","HOUSE_NO":"４５號九樓之２","E_COORD97":171709.70000000001,"N_COORD97":2541119.8799999999,"ADDRESS":"利東街４５號九樓之２","OBJECTID":568824},"geometry":{"x":171709.70000000112,"y":2541119.8800000008}},{"attributes":{"ID":568852,"DIS_CODE":0,"TOWNNAME":"東區","LI":"仁和里","LIN":"28鄰","STREET":"利東街","SECT":" ","MAREA":" ","LANE":" ","ALLEY":" ","HOUSE_NO":"４５號二樓","E_COORD97":171709.70000000001,"N_COORD97":2541119.8799999999,"ADDRESS":"利東街４５號二樓","OBJECTID":568825},"geometry":{"x":171709.70000000112,"y":2541119.8800000008}},{"attributes":{"ID":568853,"DIS_CODE":0,"TOWNNAME":"東區","LI":"仁和里","LIN":"28鄰","STREET":"利東街","SECT":" ","MAREA":" ","LANE":" ","ALLEY":" ","HOUSE_NO":"４５號二樓之１","E_COORD97":171709.70000000001,"N_COORD97":2541119.8799999999,"ADDRESS":"利東街４５號二樓之１","OBJECTID":568826},"geometry":{"x":171709.70000000112,"y":2541119.8800000008}},{"attributes":{"ID":568854,"DIS_CODE":0,"TOWNNAME":"東區","LI":"仁和里","LIN":"28鄰","STREET":"利東街","SECT":" ","MAREA":" ","LANE":" ","ALLEY":" ","HOUSE_NO":"４５號八樓","E_COORD97":171709.70000000001,"N_COORD97":2541119.8799999999,"ADDRESS":"利東街４５號八樓","OBJECTID":568827},"geometry":{"x":171709.70000000112,"y":2541119.8800000008}},{"attributes":{"ID":568855,"DIS_CODE":0,"TOWNNAME":"東區","LI":"仁和里","LIN":"28鄰","STREET":"利東街","SECT":" ","MAREA":" ","LANE":" ","ALLEY":" ","HOUSE_NO":"４５號八樓之１","E_COORD97":171709.70000000001,"N_COORD97":2541119.8799999999,"ADDRESS":"利東街４５號八樓之１","OBJECTID":568828},"geometry":{"x":171709.70000000112,"y":2541119.8800000008}},{"attributes":{"ID":568856,"DIS_CODE":0,"TOWNNAME":"東區","LI":"仁和里","LIN":"28鄰","STREET":"利東街","SECT":" ","MAREA":" ","LANE":" ","ALLEY":" ","HOUSE_NO":"４５號八樓之２","E_COORD97":171709.70000000001,"N_COORD97":2541119.8799999999,"ADDRESS":"利東街４５號八樓之２","OBJECTID":568829},"geometry":{"x":171709.70000000112,"y":2541119.8800000008}},{"attributes":{"ID":568857,"DIS_CODE":0,"TOWNNAME":"東區","LI":"仁和里","LIN":"28鄰","STREET":"利東街","SECT":" ","MAREA":" ","LANE":" ","ALLEY":" ","HOUSE_NO":"４５號三樓","E_COORD97":171709.70000000001,"N_COORD97":2541119.8799999999,"ADDRESS":"利東街４５號三樓","OBJECTID":568830},"geometry":{"x":171709.70000000112,"y":2541119.8800000008}},{"attributes":{"ID":568858,"DIS_CODE":0,"TOWNNAME":"東區","LI":"仁和里","LIN":"28鄰","STREET":"利東街","SECT":" ","MAREA":" ","LANE":" ","ALLEY":" ","HOUSE_NO":"４５號三樓之１","E_COORD97":171709.70000000001,"N_COORD97":2541119.8799999999,"ADDRESS":"利東街４５號三樓之１","OBJECTID":568831},"geometry":{"x":171709.70000000112,"y":2541119.8800000008}},{"attributes":{"ID":568859,"DIS_CODE":0,"TOWNNAME":"東區","LI":"仁和里","LIN":"28鄰","STREET":"利東街","SECT":" ","MAREA":" ","LANE":" ","ALLEY":" ","HOUSE_NO":"４５號三樓之２","E_COORD97":171709.70000000001,"N_COORD97":2541119.8799999999,"ADDRESS":"利東街４５號三樓之２","OBJECTID":568832},"geometry":{"x":171709.70000000112,"y":2541119.8800000008}},{"attributes":{"ID":568860,"DIS_CODE":0,"TOWNNAME":"東區","LI":"仁和里","LIN":"28鄰","STREET":"利東街","SECT":" ","MAREA":" ","LANE":" ","ALLEY":" ","HOUSE_NO":"４５號五樓","E_COORD97":171709.70000000001,"N_COORD97":2541119.8799999999,"ADDRESS":"利東街４５號五樓","OBJECTID":568833},"geometry":{"x":171709.70000000112,"y":2541119.8800000008}},{"attributes":{"ID":568861,"DIS_CODE":0,"TOWNNAME":"東區","LI":"仁和里","LIN":"28鄰","STREET":"利東街","SECT":" ","MAREA":" ","LANE":" ","ALLEY":" ","HOUSE_NO":"４５號五樓之１","E_COORD97":171709.70000000001,"N_COORD97":2541119.8799999999,"ADDRESS":"利東街４５號五樓之１","OBJECTID":568834},"geometry":{"x":171709.70000000112,"y":2541119.8800000008}},{"attributes":{"ID":568862,"DIS_CODE":0,"TOWNNAME":"東區","LI":"仁和里","LIN":"28鄰","STREET":"利東街","SECT":" ","MAREA":" ","LANE":" ","ALLEY":" ","HOUSE_NO":"４５號六樓之１","E_COORD97":171709.70000000001,"N_COORD97":2541119.8799999999,"ADDRESS":"利東街４５號六樓之１","OBJECTID":568835},"geometry":{"x":171709.70000000112,"y":2541119.8800000008}},{"attributes":{"ID":568863,"DIS_CODE":0,"TOWNNAME":"東區","LI":"仁和里","LIN":"28鄰","STREET":"利東街","SECT":" ","MAREA":" ","LANE":" ","ALLEY":" ","HOUSE_NO":"４５號六樓之２","E_COORD97":171709.70000000001,"N_COORD97":2541119.8799999999,"ADDRESS":"利東街４５號六樓之２","OBJECTID":568836},"geometry":{"x":171709.70000000112,"y":2541119.8800000008}},{"attributes":{"ID":568864,"DIS_CODE":0,"TOWNNAME":"東區","LI":"仁和里","LIN":"28鄰","STREET":"利東街","SECT":" ","MAREA":" ","LANE":" ","ALLEY":" ","HOUSE_NO":"４５號四樓","E_COORD97":171709.70000000001,"N_COORD97":2541119.8799999999,"ADDRESS":"利東街４５號四樓","OBJECTID":568837},"geometry":{"x":171709.70000000112,"y":2541119.8800000008}},{"attributes":{"ID":568865,"DIS_CODE":0,"TOWNNAME":"東區","LI":"仁和里","LIN":"28鄰","STREET":"利東街","SECT":" ","MAREA":" ","LANE":" ","ALLEY":" ","HOUSE_NO":"４５號四樓之１","E_COORD97":171709.70000000001,"N_COORD97":2541119.8799999999,"ADDRESS":"利東街４５號四樓之１","OBJECTID":568838},"geometry":{"x":171709.70000000112,"y":2541119.8800000008}},{"attributes":{"ID":568866,"DIS_CODE":0,"TOWNNAME":"東區","LI":"仁和里","LIN":"28鄰","STREET":"利東街","SECT":" ","MAREA":" ","LANE":" ","ALLEY":" ","HOUSE_NO":"４５號四樓之２","E_COORD97":171709.70000000001,"N_COORD97":2541119.8799999999,"ADDRESS":"利東街４５號四樓之２","OBJECTID":568839},"geometry":{"x":171709.70000000112,"y":2541119.8800000008}},{"attributes":{"ID":568867,"DIS_CODE":0,"TOWNNAME":"東區","LI":"仁和里","LIN":"28鄰","STREET":"利東街","SECT":" ","MAREA":" ","LANE":" ","ALLEY":" ","HOUSE_NO":"４７號七樓","E_COORD97":171710.34,"N_COORD97":2541100.2799999998,"ADDRESS":"利東街４７號七樓","OBJECTID":568840},"geometry":{"x":171710.34000000078,"y":2541100.2800000012}},{"attributes":{"ID":568868,"DIS_CODE":0,"TOWNNAME":"東區","LI":"仁和里","LIN":"28鄰","STREET":"利東街","SECT":" ","MAREA":" ","LANE":" ","ALLEY":" ","HOUSE_NO":"４７號七樓之１","E_COORD97":171710.34,"N_COORD97":2541100.2799999998,"ADDRESS":"利東街４７號七樓之１","OBJECTID":568841},"geometry":{"x":171710.34000000078,"y":2541100.2800000012}},{"attributes":{"ID":568869,"DIS_CODE":0,"TOWNNAME":"東區","LI":"仁和里","LIN":"28鄰","STREET":"利東街","SECT":" ","MAREA":" ","LANE":" ","ALLEY":" ","HOUSE_NO":"４７號七樓之２","E_COORD97":171710.34,"N_COORD97":2541100.2799999998,"ADDRESS":"利東街４７號七樓之２","OBJECTID":568842},"geometry":{"x":171710.34000000078,"y":2541100.2800000012}},{"attributes":{"ID":568870,"DIS_CODE":0,"TOWNNAME":"東區","LI":"仁和里","LIN":"28鄰","STREET":"利東街","SECT":" ","MAREA":" ","LANE":" ","ALLEY":" ","HOUSE_NO":"４７號七樓之３","E_COORD97":171710.34,"N_COORD97":2541100.2799999998,"ADDRESS":"利東街４７號七樓之３","OBJECTID":568843},"geometry":{"x":171710.34000000078,"y":2541100.2800000012}},{"attributes":{"ID":568871,"DIS_CODE":0,"TOWNNAME":"東區","LI":"仁和里","LIN":"28鄰","STREET":"利東街","SECT":" ","MAREA":" ","LANE":" ","ALLEY":" ","HOUSE_NO":"４７號九樓","E_COORD97":171710.34,"N_COORD97":2541100.2799999998,"ADDRESS":"利東街４７號九樓","OBJECTID":568844},"geometry":{"x":171710.34000000078,"y":2541100.2800000012}},{"attributes":{"ID":568872,"DIS_CODE":0,"TOWNNAME":"東區","LI":"仁和里","LIN":"28鄰","STREET":"利東街","SECT":" ","MAREA":" ","LANE":" ","ALLEY":" ","HOUSE_NO":"４７號九樓之１","E_COORD97":171710.34,"N_COORD97":2541100.2799999998,"ADDRESS":"利東街４７號九樓之１","OBJECTID":568845},"geometry":{"x":171710.34000000078,"y":2541100.2800000012}},{"attributes":{"ID":568873,"DIS_CODE":0,"TOWNNAME":"東區","LI":"仁和里","LIN":"28鄰","STREET":"利東街","SECT":" ","MAREA":" ","LANE":" ","ALLEY":" ","HOUSE_NO":"４７號九樓之２","E_COORD97":171710.34,"N_COORD97":2541100.2799999998,"ADDRESS":"利東街４７號九樓之２","OBJECTID":568846},"geometry":{"x":171710.34000000078,"y":2541100.2800000012}},{"attributes":{"ID":568874,"DIS_CODE":0,"TOWNNAME":"東區","LI":"仁和里","LIN":"28鄰","STREET":"利東街","SECT":" ","MAREA":" ","LANE":" ","ALLEY":" ","HOUSE_NO":"４７號九樓之３","E_COORD97":171710.34,"N_COORD97":2541100.2799999998,"ADDRESS":"利東街４７號九樓之３","OBJECTID":568847},"geometry":{"x":171710.34000000078,"y":2541100.2800000012}},{"attributes":{"ID":568875,"DIS_CODE":0,"TOWNNAME":"東區","LI":"仁和里","LIN":"28鄰","STREET":"利東街","SECT":" ","MAREA":" ","LANE":" ","ALLEY":" ","HOUSE_NO":"４７號二樓","E_COORD97":171710.34,"N_COORD97":2541100.2799999998,"ADDRESS":"利東街４７號二樓","OBJECTID":568848},"geometry":{"x":171710.34000000078,"y":2541100.2800000012}},{"attributes":{"ID":568876,"DIS_CODE":0,"TOWNNAME":"東區","LI":"仁和里","LIN":"28鄰","STREET":"利東街","SECT":" ","MAREA":" ","LANE":" ","ALLEY":" ","HOUSE_NO":"４７號二樓之１","E_COORD97":171710.34,"N_COORD97":2541100.2799999998,"ADDRESS":"利東街４７號二樓之１","OBJECTID":568849},"geometry":{"x":171710.34000000078,"y":2541100.2800000012}},{"attributes":{"ID":568877,"DIS_CODE":0,"TOWNNAME":"東區","LI":"仁和里","LIN":"28鄰","STREET":"利東街","SECT":" ","MAREA":" ","LANE":" ","ALLEY":" ","HOUSE_NO":"４７號二樓之２","E_COORD97":171710.34,"N_COORD97":2541100.2799999998,"ADDRESS":"利東街４７號二樓之２","OBJECTID":568850},"geometry":{"x":171710.34000000078,"y":2541100.2800000012}},{"attributes":{"ID":568878,"DIS_CODE":0,"TOWNNAME":"東區","LI":"仁和里","LIN":"28鄰","STREET":"利東街","SECT":" ","MAREA":" ","LANE":" ","ALLEY":" ","HOUSE_NO":"４７號二樓之３","E_COORD97":171710.34,"N_COORD97":2541100.2799999998,"ADDRESS":"利東街４７號二樓之３","OBJECTID":568851},"geometry":{"x":171710.34000000078,"y":2541100.2800000012}},{"attributes":{"ID":568879,"DIS_CODE":0,"TOWNNAME":"東區","LI":"仁和里","LIN":"28鄰","STREET":"利東街","SECT":" ","MAREA":" ","LANE":" ","ALLEY":" ","HOUSE_NO":"４７號八樓","E_COORD97":171710.34,"N_COORD97":2541100.2799999998,"ADDRESS":"利東街４７號八樓","OBJECTID":568852},"geometry":{"x":171710.34000000078,"y":2541100.2800000012}},{"attributes":{"ID":568880,"DIS_CODE":0,"TOWNNAME":"東區","LI":"仁和里","LIN":"28鄰","STREET":"利東街","SECT":" ","MAREA":" ","LANE":" ","ALLEY":" ","HOUSE_NO":"４７號八樓之１","E_COORD97":171710.34,"N_COORD97":2541100.2799999998,"ADDRESS":"利東街４７號八樓之１","OBJECTID":568853},"geometry":{"x":171710.34000000078,"y":2541100.2800000012}},{"attributes":{"ID":568881,"DIS_CODE":0,"TOWNNAME":"東區","LI":"仁和里","LIN":"28鄰","STREET":"利東街","SECT":" ","MAREA":" ","LANE":" ","ALLEY":" ","HOUSE_NO":"４７號八樓之２","E_COORD97":171710.34,"N_COORD97":2541100.2799999998,"ADDRESS":"利東街４７號八樓之２","OBJECTID":568854},"geometry":{"x":171710.34000000078,"y":2541100.2800000012}},{"attributes":{"ID":568882,"DIS_CODE":0,"TOWNNAME":"東區","LI":"仁和里","LIN":"28鄰","STREET":"利東街","SECT":" ","MAREA":" ","LANE":" ","ALLEY":" ","HOUSE_NO":"４７號八樓之３","E_COORD97":171710.34,"N_COORD97":2541100.2799999998,"ADDRESS":"利東街４７號八樓之３","OBJECTID":568855},"geometry":{"x":171710.34000000078,"y":2541100.2800000012}},{"attributes":{"ID":568883,"DIS_CODE":0,"TOWNNAME":"東區","LI":"仁和里","LIN":"28鄰","STREET":"利東街","SECT":" ","MAREA":" ","LANE":" ","ALLEY":" ","HOUSE_NO":"４７號三樓","E_COORD97":171710.34,"N_COORD97":2541100.2799999998,"ADDRESS":"利東街４７號三樓","OBJECTID":568856},"geometry":{"x":171710.34000000078,"y":2541100.2800000012}},{"attributes":{"ID":568884,"DIS_CODE":0,"TOWNNAME":"東區","LI":"仁和里","LIN":"28鄰","STREET":"利東街","SECT":" ","MAREA":" ","LANE":" ","ALLEY":" ","HOUSE_NO":"４７號三樓之１","E_COORD97":171710.34,"N_COORD97":2541100.2799999998,"ADDRESS":"利東街４７號三樓之１","OBJECTID":568857},"geometry":{"x":171710.34000000078,"y":2541100.2800000012}},{"attributes":{"ID":568885,"DIS_CODE":0,"TOWNNAME":"東區","LI":"仁和里","LIN":"28鄰","STREET":"利東街","SECT":" ","MAREA":" ","LANE":" ","ALLEY":" ","HOUSE_NO":"４７號三樓之２","E_COORD97":171710.34,"N_COORD97":2541100.2799999998,"ADDRESS":"利東街４７號三樓之２","OBJECTID":568858},"geometry":{"x":171710.34000000078,"y":2541100.2800000012}},{"attributes":{"ID":568886,"DIS_CODE":0,"TOWNNAME":"東區","LI":"仁和里","LIN":"28鄰","STREET":"利東街","SECT":" ","MAREA":" ","LANE":" ","ALLEY":" ","HOUSE_NO":"４７號三樓之３","E_COORD97":171710.34,"N_COORD97":2541100.2799999998,"ADDRESS":"利東街４７號三樓之３","OBJECTID":568859},"geometry":{"x":171710.34000000078,"y":2541100.2800000012}},{"attributes":{"ID":568887,"DIS_CODE":0,"TOWNNAME":"東區","LI":"仁和里","LIN":"28鄰","STREET":"利東街","SECT":" ","MAREA":" ","LANE":" ","ALLEY":" ","HOUSE_NO":"４７號五樓","E_COORD97":171710.34,"N_COORD97":2541100.2799999998,"ADDRESS":"利東街４７號五樓","OBJECTID":568860},"geometry":{"x":171710.34000000078,"y":2541100.2800000012}},{"attributes":{"ID":568888,"DIS_CODE":0,"TOWNNAME":"東區","LI":"仁和里","LIN":"28鄰","STREET":"利東街","SECT":" ","MAREA":" ","LANE":" ","ALLEY":" ","HOUSE_NO":"４７號五樓之１","E_COORD97":171710.34,"N_COORD97":2541100.2799999998,"ADDRESS":"利東街４７號五樓之１","OBJECTID":568861},"geometry":{"x":171710.34000000078,"y":2541100.2800000012}},{"attributes":{"ID":568889,"DIS_CODE":0,"TOWNNAME":"東區","LI":"仁和里","LIN":"28鄰","STREET":"利東街","SECT":" ","MAREA":" ","LANE":" ","ALLEY":" ","HOUSE_NO":"４７號五樓之２","E_COORD97":171710.34,"N_COORD97":2541100.2799999998,"ADDRESS":"利東街４７號五樓之２","OBJECTID":568862},"geometry":{"x":171710.34000000078,"y":2541100.2800000012}},{"attributes":{"ID":568890,"DIS_CODE":0,"TOWNNAME":"東區","LI":"仁和里","LIN":"28鄰","STREET":"利東街","SECT":" ","MAREA":" ","LANE":" ","ALLEY":" ","HOUSE_NO":"４７號五樓之３","E_COORD97":171710.34,"N_COORD97":2541100.2799999998,"ADDRESS":"利東街４７號五樓之３","OBJECTID":568863},"geometry":{"x":171710.34000000078,"y":2541100.2800000012}},{"attributes":{"ID":568891,"DIS_CODE":0,"TOWNNAME":"東區","LI":"仁和里","LIN":"28鄰","STREET":"利東街","SECT":" ","MAREA":" ","LANE":" ","ALLEY":" ","HOUSE_NO":"４７號六樓","E_COORD97":171710.34,"N_COORD97":2541100.2799999998,"ADDRESS":"利東街４７號六樓","OBJECTID":568864},"geometry":{"x":171710.34000000078,"y":2541100.2800000012}},{"attributes":{"ID":568892,"DIS_CODE":0,"TOWNNAME":"東區","LI":"仁和里","LIN":"28鄰","STREET":"利東街","SECT":" ","MAREA":" ","LANE":" ","ALLEY":" ","HOUSE_NO":"４７號六樓之１","E_COORD97":171710.34,"N_COORD97":2541100.2799999998,"ADDRESS":"利東街４７號六樓之１","OBJECTID":568865},"geometry":{"x":171710.34000000078,"y":2541100.2800000012}},{"attributes":{"ID":568893,"DIS_CODE":0,"TOWNNAME":"東區","LI":"仁和里","LIN":"28鄰","STREET":"利東街","SECT":" ","MAREA":" ","LANE":" ","ALLEY":" ","HOUSE_NO":"４７號六樓之２","E_COORD97":171710.34,"N_COORD97":2541100.2799999998,"ADDRESS":"利東街４７號六樓之２","OBJECTID":568866},"geometry":{"x":171710.34000000078,"y":2541100.2800000012}},{"attributes":{"ID":568894,"DIS_CODE":0,"TOWNNAME":"東區","LI":"仁和里","LIN":"28鄰","STREET":"利東街","SECT":" ","MAREA":" ","LANE":" ","ALLEY":" ","HOUSE_NO":"４７號六樓之３","E_COORD97":171710.34,"N_COORD97":2541100.2799999998,"ADDRESS":"利東街４７號六樓之３","OBJECTID":568867},"geometry":{"x":171710.34000000078,"y":2541100.2800000012}},{"attributes":{"ID":568895,"DIS_CODE":0,"TOWNNAME":"東區","LI":"仁和里","LIN":"28鄰","STREET":"利東街","SECT":" ","MAREA":" ","LANE":" ","ALLEY":" ","HOUSE_NO":"４７號四樓","E_COORD97":171710.34,"N_COORD97":2541100.2799999998,"ADDRESS":"利東街４７號四樓","OBJECTID":568868},"geometry":{"x":171710.34000000078,"y":2541100.2800000012}},{"attributes":{"ID":568896,"DIS_CODE":0,"TOWNNAME":"東區","LI":"仁和里","LIN":"28鄰","STREET":"利東街","SECT":" ","MAREA":" ","LANE":" ","ALLEY":" ","HOUSE_NO":"４７號四樓之１","E_COORD97":171710.34,"N_COORD97":2541100.2799999998,"ADDRESS":"利東街４７號四樓之１","OBJECTID":568869},"geometry":{"x":171710.34000000078,"y":2541100.2800000012}},{"attributes":{"ID":568897,"DIS_CODE":0,"TOWNNAME":"東區","LI":"仁和里","LIN":"28鄰","STREET":"利東街","SECT":" ","MAREA":" ","LANE":" ","ALLEY":" ","HOUSE_NO":"４７號四樓之２","E_COORD97":171710.34,"N_COORD97":2541100.2799999998,"ADDRESS":"利東街４７號四樓之２","OBJECTID":568870},"geometry":{"x":171710.34000000078,"y":2541100.2800000012}},{"attributes":{"ID":568898,"DIS_CODE":0,"TOWNNAME":"東區","LI":"仁和里","LIN":"28鄰","STREET":"利東街","SECT":" ","MAREA":" ","LANE":" ","ALLEY":" ","HOUSE_NO":"４７號四樓之３","E_COORD97":171710.34,"N_COORD97":2541100.2799999998,"ADDRESS":"利東街４７號四樓之３","OBJECTID":568871},"geometry":{"x":171710.34000000078,"y":2541100.2800000012}},{"attributes":{"ID":568899,"DIS_CODE":0,"TOWNNAME":"東區","LI":"仁和里","LIN":"28鄰","STREET":"利東街","SECT":" ","MAREA":" ","LANE":" ","ALLEY":" ","HOUSE_NO":"４９號七樓","E_COORD97":171710.44,"N_COORD97":2541084.25,"ADDRESS":"利東街４９號七樓","OBJECTID":568872},"geometry":{"x":171710.44000000134,"y":2541084.2500000019}},{"attributes":{"ID":568900,"DIS_CODE":0,"TOWNNAME":"東區","LI":"仁和里","LIN":"28鄰","STREET":"利東街","SECT":" ","MAREA":" ","LANE":" ","ALLEY":" ","HOUSE_NO":"４９號七樓之１","E_COORD97":171710.44,"N_COORD97":2541084.25,"ADDRESS":"利東街４９號七樓之１","OBJECTID":568873},"geometry":{"x":171710.44000000134,"y":2541084.2500000019}},{"attributes":{"ID":568901,"DIS_CODE":0,"TOWNNAME":"東區","LI":"仁和里","LIN":"28鄰","STREET":"利東街","SECT":" ","MAREA":" ","LANE":" ","ALLEY":" ","HOUSE_NO":"４９號七樓之２","E_COORD97":171710.44,"N_COORD97":2541084.25,"ADDRESS":"利東街４９號七樓之２","OBJECTID":568874},"geometry":{"x":171710.44000000134,"y":2541084.2500000019}},{"attributes":{"ID":568902,"DIS_CODE":0,"TOWNNAME":"東區","LI":"仁和里","LIN":"28鄰","STREET":"利東街","SECT":" ","MAREA":" ","LANE":" ","ALLEY":" ","HOUSE_NO":"４９號七樓之３","E_COORD97":171710.44,"N_COORD97":2541084.25,"ADDRESS":"利東街４９號七樓之３","OBJECTID":568875},"geometry":{"x":171710.44000000134,"y":2541084.2500000019}},{"attributes":{"ID":568903,"DIS_CODE":0,"TOWNNAME":"東區","LI":"仁和里","LIN":"28鄰","STREET":"利東街","SECT":" ","MAREA":" ","LANE":" ","ALLEY":" ","HOUSE_NO":"４９號九樓","E_COORD97":171710.44,"N_COORD97":2541084.25,"ADDRESS":"利東街４９號九樓","OBJECTID":568876},"geometry":{"x":171710.44000000134,"y":2541084.2500000019}},{"attributes":{"ID":568904,"DIS_CODE":0,"TOWNNAME":"東區","LI":"仁和里","LIN":"28鄰","STREET":"利東街","SECT":" ","MAREA":" ","LANE":" ","ALLEY":" ","HOUSE_NO":"４９號九樓之１","E_COORD97":171710.44,"N_COORD97":2541084.25,"ADDRESS":"利東街４９號九樓之１","OBJECTID":568877},"geometry":{"x":171710.44000000134,"y":2541084.2500000019}},{"attributes":{"ID":568905,"DIS_CODE":0,"TOWNNAME":"東區","LI":"仁和里","LIN":"28鄰","STREET":"利東街","SECT":" ","MAREA":" ","LANE":" ","ALLEY":" ","HOUSE_NO":"４９號九樓之２","E_COORD97":171710.44,"N_COORD97":2541084.25,"ADDRESS":"利東街４９號九樓之２","OBJECTID":568878},"geometry":{"x":171710.44000000134,"y":2541084.2500000019}},{"attributes":{"ID":568906,"DIS_CODE":0,"TOWNNAME":"東區","LI":"仁和里","LIN":"28鄰","STREET":"利東街","SECT":" ","MAREA":" ","LANE":" ","ALLEY":" ","HOUSE_NO":"４９號九樓之３","E_COORD97":171710.44,"N_COORD97":2541084.25,"ADDRESS":"利東街４９號九樓之３","OBJECTID":568879},"geometry":{"x":171710.44000000134,"y":2541084.2500000019}},{"attributes":{"ID":568907,"DIS_CODE":0,"TOWNNAME":"東區","LI":"仁和里","LIN":"28鄰","STREET":"利東街","SECT":" ","MAREA":" ","LANE":" ","ALLEY":" ","HOUSE_NO":"４９號二樓","E_COORD97":171710.44,"N_COORD97":2541084.25,"ADDRESS":"利東街４９號二樓","OBJECTID":568880},"geometry":{"x":171710.44000000134,"y":2541084.2500000019}},{"attributes":{"ID":568908,"DIS_CODE":0,"TOWNNAME":"東區","LI":"仁和里","LIN":"28鄰","STREET":"利東街","SECT":" ","MAREA":" ","LANE":" ","ALLEY":" ","HOUSE_NO":"４９號八樓","E_COORD97":171710.44,"N_COORD97":2541084.25,"ADDRESS":"利東街４９號八樓","OBJECTID":568881},"geometry":{"x":171710.44000000134,"y":2541084.2500000019}},{"attributes":{"ID":568909,"DIS_CODE":0,"TOWNNAME":"東區","LI":"仁和里","LIN":"28鄰","STREET":"利東街","SECT":" ","MAREA":" ","LANE":" ","ALLEY":" ","HOUSE_NO":"４９號八樓之１","E_COORD97":171710.44,"N_COORD97":2541084.25,"ADDRESS":"利東街４９號八樓之１","OBJECTID":568882},"geometry":{"x":171710.44000000134,"y":2541084.2500000019}},{"attributes":{"ID":568910,"DIS_CODE":0,"TOWNNAME":"東區","LI":"仁和里","LIN":"28鄰","STREET":"利東街","SECT":" ","MAREA":" ","LANE":" ","ALLEY":" ","HOUSE_NO":"４９號八樓之２","E_COORD97":171710.44,"N_COORD97":2541084.25,"ADDRESS":"利東街４９號八樓之２","OBJECTID":568883},"geometry":{"x":171710.44000000134,"y":2541084.2500000019}},{"attributes":{"ID":568911,"DIS_CODE":0,"TOWNNAME":"東區","LI":"仁和里","LIN":"28鄰","STREET":"利東街","SECT":" ","MAREA":" ","LANE":" ","ALLEY":" ","HOUSE_NO":"４９號八樓之３","E_COORD97":171710.44,"N_COORD97":2541084.25,"ADDRESS":"利東街４９號八樓之３","OBJECTID":568884},"geometry":{"x":171710.44000000134,"y":2541084.2500000019}},{"attributes":{"ID":568912,"DIS_CODE":0,"TOWNNAME":"東區","LI":"仁和里","LIN":"28鄰","STREET":"利東街","SECT":" ","MAREA":" ","LANE":" ","ALLEY":" ","HOUSE_NO":"４９號三樓","E_COORD97":171710.44,"N_COORD97":2541084.25,"ADDRESS":"利東街４９號三樓","OBJECTID":568885},"geometry":{"x":171710.44000000134,"y":2541084.2500000019}},{"attributes":{"ID":568913,"DIS_CODE":0,"TOWNNAME":"東區","LI":"仁和里","LIN":"28鄰","STREET":"利東街","SECT":" ","MAREA":" ","LANE":" ","ALLEY":" ","HOUSE_NO":"４９號三樓之１","E_COORD97":171710.44,"N_COORD97":2541084.25,"ADDRESS":"利東街４９號三樓之１","OBJECTID":568886},"geometry":{"x":171710.44000000134,"y":2541084.2500000019}},{"attributes":{"ID":568914,"DIS_CODE":0,"TOWNNAME":"東區","LI":"仁和里","LIN":"28鄰","STREET":"利東街","SECT":" ","MAREA":" ","LANE":" ","ALLEY":" ","HOUSE_NO":"４９號三樓之２","E_COORD97":171710.44,"N_COORD97":2541084.25,"ADDRESS":"利東街４９號三樓之２","OBJECTID":568887},"geometry":{"x":171710.44000000134,"y":2541084.2500000019}},{"attributes":{"ID":568915,"DIS_CODE":0,"TOWNNAME":"東區","LI":"仁和里","LIN":"28鄰","STREET":"利東街","SECT":" ","MAREA":" ","LANE":" ","ALLEY":" ","HOUSE_NO":"４９號三樓之３","E_COORD97":171710.44,"N_COORD97":2541084.25,"ADDRESS":"利東街４９號三樓之３","OBJECTID":568888},"geometry":{"x":171710.44000000134,"y":2541084.2500000019}},{"attributes":{"ID":568916,"DIS_CODE":0,"TOWNNAME":"東區","LI":"仁和里","LIN":"28鄰","STREET":"利東街","SECT":" ","MAREA":" ","LANE":" ","ALLEY":" ","HOUSE_NO":"４９號五樓","E_COORD97":171710.44,"N_COORD97":2541084.25,"ADDRESS":"利東街４９號五樓","OBJECTID":568889},"geometry":{"x":171710.44000000134,"y":2541084.2500000019}},{"attributes":{"ID":568917,"DIS_CODE":0,"TOWNNAME":"東區","LI":"仁和里","LIN":"28鄰","STREET":"利東街","SECT":" ","MAREA":" ","LANE":" ","ALLEY":" ","HOUSE_NO":"４９號五樓之１","E_COORD97":171710.44,"N_COORD97":2541084.25,"ADDRESS":"利東街４９號五樓之１","OBJECTID":568890},"geometry":{"x":171710.44000000134,"y":2541084.2500000019}},{"attributes":{"ID":568918,"DIS_CODE":0,"TOWNNAME":"東區","LI":"仁和里","LIN":"28鄰","STREET":"利東街","SECT":" ","MAREA":" ","LANE":" ","ALLEY":" ","HOUSE_NO":"４９號五樓之２","E_COORD97":171710.44,"N_COORD97":2541084.25,"ADDRESS":"利東街４９號五樓之２","OBJECTID":568891},"geometry":{"x":171710.44000000134,"y":2541084.2500000019}},{"attributes":{"ID":568919,"DIS_CODE":0,"TOWNNAME":"東區","LI":"仁和里","LIN":"28鄰","STREET":"利東街","SECT":" ","MAREA":" ","LANE":" ","ALLEY":" ","HOUSE_NO":"４９號五樓之３","E_COORD97":171710.44,"N_COORD97":2541084.25,"ADDRESS":"利東街４９號五樓之３","OBJECTID":568892},"geometry":{"x":171710.44000000134,"y":2541084.2500000019}},{"attributes":{"ID":568920,"DIS_CODE":0,"TOWNNAME":"東區","LI":"仁和里","LIN":"28鄰","STREET":"利東街","SECT":" ","MAREA":" ","LANE":" ","ALLEY":" ","HOUSE_NO":"４９號六樓","E_COORD97":171710.44,"N_COORD97":2541084.25,"ADDRESS":"利東街４９號六樓","OBJECTID":568893},"geometry":{"x":171710.44000000134,"y":2541084.2500000019}},{"attributes":{"ID":568921,"DIS_CODE":0,"TOWNNAME":"東區","LI":"仁和里","LIN":"28鄰","STREET":"利東街","SECT":" ","MAREA":" ","LANE":" ","ALLEY":" ","HOUSE_NO":"４９號六樓之１","E_COORD97":171710.44,"N_COORD97":2541084.25,"ADDRESS":"利東街４９號六樓之１","OBJECTID":568894},"geometry":{"x":171710.44000000134,"y":2541084.2500000019}},{"attributes":{"ID":568922,"DIS_CODE":0,"TOWNNAME":"東區","LI":"仁和里","LIN":"28鄰","STREET":"利東街","SECT":" ","MAREA":" ","LANE":" ","ALLEY":" ","HOUSE_NO":"４９號六樓之２","E_COORD97":171710.44,"N_COORD97":2541084.25,"ADDRESS":"利東街４９號六樓之２","OBJECTID":568895},"geometry":{"x":171710.44000000134,"y":2541084.2500000019}},{"attributes":{"ID":568923,"DIS_CODE":0,"TOWNNAME":"東區","LI":"仁和里","LIN":"28鄰","STREET":"利東街","SECT":" ","MAREA":" ","LANE":" ","ALLEY":" ","HOUSE_NO":"４９號六樓之３","E_COORD97":171710.44,"N_COORD97":2541084.25,"ADDRESS":"利東街４９號六樓之３","OBJECTID":568896},"geometry":{"x":171710.44000000134,"y":2541084.2500000019}},{"attributes":{"ID":568924,"DIS_CODE":0,"TOWNNAME":"東區","LI":"仁和里","LIN":"28鄰","STREET":"利東街","SECT":" ","MAREA":" ","LANE":" ","ALLEY":" ","HOUSE_NO":"４９號四樓","E_COORD97":171710.44,"N_COORD97":2541084.25,"ADDRESS":"利東街４９號四樓","OBJECTID":568897},"geometry":{"x":171710.44000000134,"y":2541084.2500000019}},{"attributes":{"ID":568925,"DIS_CODE":0,"TOWNNAME":"東區","LI":"仁和里","LIN":"28鄰","STREET":"利東街","SECT":" ","MAREA":" ","LANE":" ","ALLEY":" ","HOUSE_NO":"４９號四樓之１","E_COORD97":171710.44,"N_COORD97":2541084.25,"ADDRESS":"利東街４９號四樓之１","OBJECTID":568898},"geometry":{"x":171710.44000000134,"y":2541084.2500000019}},{"attributes":{"ID":568926,"DIS_CODE":0,"TOWNNAME":"永康區","LI":"埔園里","LIN":"28鄰","STREET":"中山路","SECT":" ","MAREA":" ","LANE":" ","ALLEY":" ","HOUSE_NO":"３５６號十三樓之５","E_COORD97":173653.72,"N_COORD97":2548293.02,"ADDRESS":"中山路３５６號十三樓之５","OBJECTID":568899},"geometry":{"x":173653.72000000067,"y":2548293.0200000014}},{"attributes":{"ID":568927,"DIS_CODE":0,"TOWNNAME":"永康區","LI":"埔園里","LIN":"28鄰","STREET":"中山路","SECT":" ","MAREA":" ","LANE":" ","ALLEY":" ","HOUSE_NO":"３５４號十三樓之１","E_COORD97":173656.54999999999,"N_COORD97":2548283.27,"ADDRESS":"中山路３５４號十三樓之１","OBJECTID":568900},"geometry":{"x":173656.55000000075,"y":2548283.2699999996}},{"attributes":{"ID":568928,"DIS_CODE":0,"TOWNNAME":"東區","LI":"莊敬里","LIN":"28鄰","STREET":"中華東路","SECT":"一段","MAREA":" ","LANE":" ","ALLEY":" ","HOUSE_NO":"６６號二樓","E_COORD97":171487.25,"N_COORD97":2544076.27,"ADDRESS":"中華東路一段６６號二樓","OBJECTID":568901},"geometry":{"x":171487.25000000093,"y":2544076.2700000033}},{"attributes":{"ID":568929,"DIS_CODE":0,"TOWNNAME":"東區","LI":"莊敬里","LIN":"28鄰","STREET":"中華東路","SECT":"一段","MAREA":" ","LANE":" ","ALLEY":" ","HOUSE_NO":"６６號三樓","E_COORD97":171487.25,"N_COORD97":2544076.27,"ADDRESS":"中華東路一段６６號三樓","OBJECTID":568902},"geometry":{"x":171487.25000000093,"y":2544076.2700000033}},{"attributes":{"ID":568930,"DIS_CODE":0,"TOWNNAME":"官田區","LI":"隆本里","LIN":"28鄰","STREET":"中山路","SECT":"一段","MAREA":" ","LANE":" ","ALLEY":" ","HOUSE_NO":"１９０號二樓","E_COORD97":179738.12,"N_COORD97":2565832.3199999998,"ADDRESS":"中山路一段１９０號二樓","OBJECTID":568903},"geometry":{"x":179738.11999999918,"y":2565832.3200000003}},{"attributes":{"ID":568931,"DIS_CODE":0,"TOWNNAME":"官田區","LI":"隆本里","LIN":"28鄰","STREET":"中山路","SECT":"一段","MAREA":" ","LANE":" ","ALLEY":" ","HOUSE_NO":"１９０號三樓","E_COORD97":179738.12,"N_COORD97":2565832.3199999998,"ADDRESS":"中山路一段１９０號三樓","OBJECTID":568904},"geometry":{"x":179738.11999999918,"y":2565832.3200000003}},{"attributes":{"ID":568932,"DIS_CODE":0,"TOWNNAME":"官田區","LI":"隆本里","LIN":"28鄰","STREET":"中山路","SECT":"一段","MAREA":" ","LANE":" ","ALLEY":" ","HOUSE_NO":"１９０號五樓","E_COORD97":179738.12,"N_COORD97":2565832.3199999998,"ADDRESS":"中山路一段１９０號五樓","OBJECTID":568905},"geometry":{"x":179738.11999999918,"y":2565832.3200000003}},{"attributes":{"ID":568933,"DIS_CODE":0,"TOWNNAME":"官田區","LI":"隆本里","LIN":"28鄰","STREET":"中山路","SECT":"一段","MAREA":" ","LANE":" ","ALLEY":" ","HOUSE_NO":"１９０號四樓","E_COORD97":179738.12,"N_COORD97":2565832.3199999998,"ADDRESS":"中山路一段１９０號四樓","OBJECTID":568906},"geometry":{"x":179738.11999999918,"y":2565832.3200000003}},{"attributes":{"ID":568934,"DIS_CODE":0,"TOWNNAME":"東區","LI":"崇文里","LIN":"28鄰","STREET":"崇德路","SECT":" ","MAREA":" ","LANE":" ","ALLEY":" ","HOUSE_NO":"７９３號七樓","E_COORD97":170808.06,"N_COORD97":2540732.5,"ADDRESS":"崇德路７９３號七樓","OBJECTID":568907},"geometry":{"x":170808.06000000052,"y":2540732.5000000019}},{"attributes":{"ID":568935,"DIS_CODE":0,"TOWNNAME":"東區","LI":"崇文里","LIN":"28鄰","STREET":"崇德路","SECT":" ","MAREA":" ","LANE":" ","ALLEY":" ","HOUSE_NO":"７９３號七樓之１","E_COORD97":170808.06,"N_COORD97":2540732.5,"ADDRESS":"崇德路７９３號七樓之１","OBJECTID":568908},"geometry":{"x":170808.06000000052,"y":2540732.5000000019}},{"attributes":{"ID":568936,"DIS_CODE":0,"TOWNNAME":"東區","LI":"崇文里","LIN":"28鄰","STREET":"崇德路","SECT":" ","MAREA":" ","LANE":" ","ALLEY":" ","HOUSE_NO":"７９３號七樓之２","E_COORD97":170808.06,"N_COORD97":2540732.5,"ADDRESS":"崇德路７９３號七樓之２","OBJECTID":568909},"geometry":{"x":170808.06000000052,"y":2540732.5000000019}},{"attributes":{"ID":568937,"DIS_CODE":0,"TOWNNAME":"東區","LI":"崇文里","LIN":"28鄰","STREET":"崇德路","SECT":" ","MAREA":" ","LANE":" ","ALLEY":" ","HOUSE_NO":"７９３號二樓","E_COORD97":170808.06,"N_COORD97":2540732.5,"ADDRESS":"崇德路７９３號二樓","OBJECTID":568910},"geometry":{"x":170808.06000000052,"y":2540732.5000000019}},{"attributes":{"ID":568938,"DIS_CODE":0,"TOWNNAME":"東區","LI":"崇文里","LIN":"28鄰","STREET":"崇德路","SECT":" ","MAREA":" ","LANE":" ","ALLEY":" ","HOUSE_NO":"７９３號八樓","E_COORD97":170808.06,"N_COORD97":2540732.5,"ADDRESS":"崇德路７９３號八樓","OBJECTID":568911},"geometry":{"x":170808.06000000052,"y":2540732.5000000019}},{"attributes":{"ID":568939,"DIS_CODE":0,"TOWNNAME":"東區","LI":"崇文里","LIN":"28鄰","STREET":"崇德路","SECT":" ","MAREA":" ","LANE":" ","ALLEY":" ","HOUSE_NO":"７９３號八樓之１","E_COORD97":170808.06,"N_COORD97":2540732.5,"ADDRESS":"崇德路７９３號八樓之１","OBJECTID":568912},"geometry":{"x":170808.06000000052,"y":2540732.5000000019}},{"attributes":{"ID":568940,"DIS_CODE":0,"TOWNNAME":"東區","LI":"崇文里","LIN":"28鄰","STREET":"崇德路","SECT":" ","MAREA":" ","LANE":" ","ALLEY":" ","HOUSE_NO":"７９３號八樓之２","E_COORD97":170808.06,"N_COORD97":2540732.5,"ADDRESS":"崇德路７９３號八樓之２","OBJECTID":568913},"geometry":{"x":170808.06000000052,"y":2540732.5000000019}},{"attributes":{"ID":568941,"DIS_CODE":0,"TOWNNAME":"東區","LI":"崇文里","LIN":"28鄰","STREET":"崇德路","SECT":" ","MAREA":" ","LANE":" ","ALLEY":" ","HOUSE_NO":"７９３號三樓","E_COORD97":170808.06,"N_COORD97":2540732.5,"ADDRESS":"崇德路７９３號三樓","OBJECTID":568914},"geometry":{"x":170808.06000000052,"y":2540732.5000000019}},{"attributes":{"ID":568942,"DIS_CODE":0,"TOWNNAME":"東區","LI":"崇文里","LIN":"28鄰","STREET":"崇德路","SECT":" ","MAREA":" ","LANE":" ","ALLEY":" ","HOUSE_NO":"７９３號三樓之１","E_COORD97":170808.06,"N_COORD97":2540732.5,"ADDRESS":"崇德路７９３號三樓之１","OBJECTID":568915},"geometry":{"x":170808.06000000052,"y":2540732.5000000019}},{"attributes":{"ID":568943,"DIS_CODE":0,"TOWNNAME":"東區","LI":"崇文里","LIN":"28鄰","STREET":"崇德路","SECT":" ","MAREA":" ","LANE":" ","ALLEY":" ","HOUSE_NO":"７９３號五樓","E_COORD97":170808.06,"N_COORD97":2540732.5,"ADDRESS":"崇德路７９３號五樓","OBJECTID":568916},"geometry":{"x":170808.06000000052,"y":2540732.5000000019}},{"attributes":{"ID":568944,"DIS_CODE":0,"TOWNNAME":"東區","LI":"崇文里","LIN":"28鄰","STREET":"崇德路","SECT":" ","MAREA":" ","LANE":" ","ALLEY":" ","HOUSE_NO":"７９３號五樓之１","E_COORD97":170808.06,"N_COORD97":2540732.5,"ADDRESS":"崇德路７９３號五樓之１","OBJECTID":568917},"geometry":{"x":170808.06000000052,"y":2540732.5000000019}},{"attributes":{"ID":568945,"DIS_CODE":0,"TOWNNAME":"東區","LI":"崇文里","LIN":"28鄰","STREET":"崇德路","SECT":" ","MAREA":" ","LANE":" ","ALLEY":" ","HOUSE_NO":"７９３號五樓之２","E_COORD97":170808.06,"N_COORD97":2540732.5,"ADDRESS":"崇德路７９３號五樓之２","OBJECTID":568918},"geometry":{"x":170808.06000000052,"y":2540732.5000000019}},{"attributes":{"ID":568946,"DIS_CODE":0,"TOWNNAME":"東區","LI":"崇文里","LIN":"28鄰","STREET":"崇德路","SECT":" ","MAREA":" ","LANE":" ","ALLEY":" ","HOUSE_NO":"７９３號六樓","E_COORD97":170808.06,"N_COORD97":2540732.5,"ADDRESS":"崇德路７９３號六樓","OBJECTID":568919},"geometry":{"x":170808.06000000052,"y":2540732.5000000019}},{"attributes":{"ID":568947,"DIS_CODE":0,"TOWNNAME":"東區","LI":"崇文里","LIN":"28鄰","STREET":"崇德路","SECT":" ","MAREA":" ","LANE":" ","ALLEY":" ","HOUSE_NO":"７９３號六樓之１","E_COORD97":170808.06,"N_COORD97":2540732.5,"ADDRESS":"崇德路７９３號六樓之１","OBJECTID":568920},"geometry":{"x":170808.06000000052,"y":2540732.5000000019}},{"attributes":{"ID":568948,"DIS_CODE":0,"TOWNNAME":"東區","LI":"崇文里","LIN":"28鄰","STREET":"崇德路","SECT":" ","MAREA":" ","LANE":" ","ALLEY":" ","HOUSE_NO":"７９３號六樓之２","E_COORD97":170808.06,"N_COORD97":2540732.5,"ADDRESS":"崇德路７９３號六樓之２","OBJECTID":568921},"geometry":{"x":170808.06000000052,"y":2540732.5000000019}},{"attributes":{"ID":568949,"DIS_CODE":0,"TOWNNAME":"東區","LI":"崇文里","LIN":"28鄰","STREET":"崇德路","SECT":" ","MAREA":" ","LANE":" ","ALLEY":" ","HOUSE_NO":"７９３號四樓","E_COORD97":170808.06,"N_COORD97":2540732.5,"ADDRESS":"崇德路７９３號四樓","OBJECTID":568922},"geometry":{"x":170808.06000000052,"y":2540732.5000000019}},{"attributes":{"ID":568950,"DIS_CODE":0,"TOWNNAME":"東區","LI":"崇文里","LIN":"28鄰","STREET":"崇德路","SECT":" ","MAREA":" ","LANE":" ","ALLEY":" ","HOUSE_NO":"７９３號四樓之１","E_COORD97":170808.06,"N_COORD97":2540732.5,"ADDRESS":"崇德路７９３號四樓之１","OBJECTID":568923},"geometry":{"x":170808.06000000052,"y":2540732.5000000019}},{"attributes":{"ID":568951,"DIS_CODE":0,"TOWNNAME":"東區","LI":"崇文里","LIN":"28鄰","STREET":"崇德路","SECT":" ","MAREA":" ","LANE":" ","ALLEY":" ","HOUSE_NO":"７９３號四樓之２","E_COORD97":170808.06,"N_COORD97":2540732.5,"ADDRESS":"崇德路７９３號四樓之２","OBJECTID":568924},"geometry":{"x":170808.06000000052,"y":2540732.5000000019}},{"attributes":{"ID":568952,"DIS_CODE":0,"TOWNNAME":"永康區","LI":"埔園里","LIN":"28鄰","STREET":"中山路","SECT":" ","MAREA":" ","LANE":" ","ALLEY":" ","HOUSE_NO":"３５６號十五樓之３","E_COORD97":173653.66,"N_COORD97":2548293.02,"ADDRESS":"中山路３５６號十五樓之３","OBJECTID":568925},"geometry":{"x":173653.66000000015,"y":2548293.0200000014}},{"attributes":{"ID":568953,"DIS_CODE":0,"TOWNNAME":"永康區","LI":"埔園里","LIN":"28鄰","STREET":"中山路","SECT":" ","MAREA":" ","LANE":" ","ALLEY":" ","HOUSE_NO":"３５４號十一樓之１","E_COORD97":173656.54999999999,"N_COORD97":2548283.27,"ADDRESS":"中山路３５４號十一樓之１","OBJECTID":568926},"geometry":{"x":173656.55000000075,"y":2548283.2699999996}},{"attributes":{"ID":568954,"DIS_CODE":0,"TOWNNAME":"永康區","LI":"埔園里","LIN":"28鄰","STREET":"中山路","SECT":" ","MAREA":" ","LANE":" ","ALLEY":" ","HOUSE_NO":"３５４號十七樓之６","E_COORD97":173656.64999999999,"N_COORD97":2548283.27,"ADDRESS":"中山路３５４號十七樓之６","OBJECTID":568927},"geometry":{"x":173656.6500000013,"y":2548283.2699999996}},{"attributes":{"ID":568955,"DIS_CODE":0,"TOWNNAME":"東區","LI":"莊敬里","LIN":"28鄰","STREET":"中華東路","SECT":"一段","MAREA":" ","LANE":" ","ALLEY":" ","HOUSE_NO":"８６號九樓之１","E_COORD97":171468.88,"N_COORD97":2543966.2400000002,"ADDRESS":"中華東路一段８６號九樓之１","OBJECTID":568928},"geometry":{"x":171468.88000000175,"y":2543966.2400000021}},{"attributes":{"ID":568956,"DIS_CODE":0,"TOWNNAME":"永康區","LI":"埔園里","LIN":"28鄰","STREET":"中山路","SECT":" ","MAREA":" ","LANE":" ","ALLEY":" ","HOUSE_NO":"３５４號十九樓之２","E_COORD97":173656.67999999999,"N_COORD97":2548283.27,"ADDRESS":"中山路３５４號十九樓之２","OBJECTID":568929},"geometry":{"x":173656.68000000156,"y":2548283.2699999996}},{"attributes":{"ID":568957,"DIS_CODE":0,"TOWNNAME":"永康區","LI":"埔園里","LIN":"28鄰","STREET":"中山路","SECT":" ","MAREA":" ","LANE":" ","ALLEY":" ","HOUSE_NO":"３５４號三樓之５","E_COORD97":173655.45999999999,"N_COORD97":2548283.27,"ADDRESS":"中山路３５４號三樓之５","OBJECTID":568930},"geometry":{"x":173655.46000000089,"y":2548283.2699999996}},{"attributes":{"ID":568958,"DIS_CODE":0,"TOWNNAME":"永康區","LI":"埔園里","LIN":"28鄰","STREET":"中山路","SECT":" ","MAREA":" ","LANE":" ","ALLEY":" ","HOUSE_NO":"３５４號十七樓之１","E_COORD97":173656.54999999999,"N_COORD97":2548283.27,"ADDRESS":"中山路３５４號十七樓之１","OBJECTID":568931},"geometry":{"x":173656.55000000075,"y":2548283.2699999996}},{"attributes":{"ID":568959,"DIS_CODE":0,"TOWNNAME":"永康區","LI":"埔園里","LIN":"28鄰","STREET":"中山路","SECT":" ","MAREA":" ","LANE":" ","ALLEY":" ","HOUSE_NO":"３５４號三樓之２","E_COORD97":173655.42999999999,"N_COORD97":2548283.27,"ADDRESS":"中山路３５４號三樓之２","OBJECTID":568932},"geometry":{"x":173655.43000000063,"y":2548283.2699999996}},{"attributes":{"ID":568960,"DIS_CODE":0,"TOWNNAME":"永康區","LI":"埔園里","LIN":"28鄰","STREET":"中山路","SECT":" ","MAREA":" ","LANE":" ","ALLEY":" ","HOUSE_NO":"３５４號十一樓之７","E_COORD97":173656.63,"N_COORD97":2548283.27,"ADDRESS":"中山路３５４號十一樓之７","OBJECTID":568933},"geometry":{"x":173656.62999999989,"y":2548283.2699999996}},{"attributes":{"ID":568961,"DIS_CODE":0,"TOWNNAME":"永康區","LI":"埔園里","LIN":"28鄰","STREET":"中山路","SECT":" ","MAREA":" ","LANE":" ","ALLEY":" ","HOUSE_NO":"３５４號二十五樓之１","E_COORD97":173657.79999999999,"N_COORD97":2548283.27,"ADDRESS":"中山路３５４號二十五樓之１","OBJECTID":568934},"geometry":{"x":173657.80000000168,"y":2548283.2699999996}},{"attributes":{"ID":568962,"DIS_CODE":0,"TOWNNAME":"永康區","LI":"埔園里","LIN":"28鄰","STREET":"中山路","SECT":" ","MAREA":" ","LANE":" ","ALLEY":" ","HOUSE_NO":"３５６號二十一樓之３","E_COORD97":173654.91,"N_COORD97":2548293.02,"ADDRESS":"中山路３５６號二十一樓之３","OBJECTID":568935},"geometry":{"x":173654.91000000015,"y":2548293.0200000014}},{"attributes":{"ID":568963,"DIS_CODE":0,"TOWNNAME":"永康區","LI":"埔園里","LIN":"28鄰","STREET":"中山路","SECT":" ","MAREA":" ","LANE":" ","ALLEY":" ","HOUSE_NO":"３５６號五樓之６","E_COORD97":173652.41,"N_COORD97":2548293.02,"ADDRESS":"中山路３５６號五樓之６","OBJECTID":568936},"geometry":{"x":173652.41000000108,"y":2548293.0200000014}},{"attributes":{"ID":568964,"DIS_CODE":0,"TOWNNAME":"永康區","LI":"埔園里","LIN":"28鄰","STREET":"中山路","SECT":" ","MAREA":" ","LANE":" ","ALLEY":" ","HOUSE_NO":"３５６號九樓之１","E_COORD97":173652.31,"N_COORD97":2548293.02,"ADDRESS":"中山路３５６號九樓之１","OBJECTID":568937},"geometry":{"x":173652.31000000145,"y":2548293.0200000014}},{"attributes":{"ID":568965,"DIS_CODE":0,"TOWNNAME":"永康區","LI":"埔園里","LIN":"28鄰","STREET":"中山路","SECT":" ","MAREA":" ","LANE":" ","ALLEY":" ","HOUSE_NO":"３５４號十一樓之９","E_COORD97":173656.63,"N_COORD97":2548283.27,"ADDRESS":"中山路３５４號十一樓之９","OBJECTID":568938},"geometry":{"x":173656.62999999989,"y":2548283.2699999996}},{"attributes":{"ID":568966,"DIS_CODE":0,"TOWNNAME":"永康區","LI":"埔園里","LIN":"28鄰","STREET":"中山路","SECT":" ","MAREA":" ","LANE":" ","ALLEY":" ","HOUSE_NO":"３５６號十九樓之１","E_COORD97":173653.56,"N_COORD97":2548293.02,"ADDRESS":"中山路３５６號十九樓之１","OBJECTID":568939},"geometry":{"x":173653.55999999959,"y":2548293.0200000014}},{"attributes":{"ID":568967,"DIS_CODE":0,"TOWNNAME":"永康區","LI":"埔園里","LIN":"28鄰","STREET":"中山路","SECT":" ","MAREA":" ","LANE":" ","ALLEY":" ","HOUSE_NO":"３５６號十七樓之３","E_COORD97":173653.66,"N_COORD97":2548293.02,"ADDRESS":"中山路３５６號十七樓之３","OBJECTID":568940},"geometry":{"x":173653.66000000015,"y":2548293.0200000014}},{"attributes":{"ID":568968,"DIS_CODE":0,"TOWNNAME":"永康區","LI":"埔園里","LIN":"28鄰","STREET":"中山路","SECT":" ","MAREA":" ","LANE":" ","ALLEY":" ","HOUSE_NO":"３５６號九樓之５","E_COORD97":173652.47,"N_COORD97":2548293.02,"ADDRESS":"中山路３５６號九樓之５","OBJECTID":568941},"geometry":{"x":173652.46999999974,"y":2548293.0200000014}},{"attributes":{"ID":568969,"DIS_CODE":0,"TOWNNAME":"永康區","LI":"埔園里","LIN":"28鄰","STREET":"中山路","SECT":" ","MAREA":" ","LANE":" ","ALLEY":" ","HOUSE_NO":"３５６號十一樓之８","E_COORD97":173653.70999999999,"N_COORD97":2548293.02,"ADDRESS":"中山路３５６號十一樓之８","OBJECTID":568942},"geometry":{"x":173653.71000000089,"y":2548293.0200000014}},{"attributes":{"ID":568970,"DIS_CODE":0,"TOWNNAME":"永康區","LI":"埔園里","LIN":"28鄰","STREET":"中山路","SECT":" ","MAREA":" ","LANE":" ","ALLEY":" ","HOUSE_NO":"３５６號十五樓之５","E_COORD97":173653.72,"N_COORD97":2548293.02,"ADDRESS":"中山路３５６號十五樓之５","OBJECTID":568943},"geometry":{"x":173653.72000000067,"y":2548293.0200000014}},{"attributes":{"ID":568971,"DIS_CODE":0,"TOWNNAME":"永康區","LI":"埔園里","LIN":"28鄰","STREET":"中山路","SECT":" ","MAREA":" ","LANE":" ","ALLEY":" ","HOUSE_NO":"３５６號十一樓之３","E_COORD97":173653.66,"N_COORD97":2548293.02,"ADDRESS":"中山路３５６號十一樓之３","OBJECTID":568944},"geometry":{"x":173653.66000000015,"y":2548293.0200000014}},{"attributes":{"ID":568972,"DIS_CODE":0,"TOWNNAME":"東區","LI":"莊敬里","LIN":"28鄰","STREET":"中華東路","SECT":"一段","MAREA":" ","LANE":" ","ALLEY":" ","HOUSE_NO":"８６號七樓之１","E_COORD97":171468.88,"N_COORD97":2543966.2400000002,"ADDRESS":"中華東路一段８６號七樓之１","OBJECTID":568945},"geometry":{"x":171468.88000000175,"y":2543966.2400000021}},{"attributes":{"ID":568973,"DIS_CODE":0,"TOWNNAME":"東區","LI":"莊敬里","LIN":"28鄰","STREET":"中華東路","SECT":"一段","MAREA":" ","LANE":" ","ALLEY":" ","HOUSE_NO":"８６號七樓之２","E_COORD97":171468.88,"N_COORD97":2543966.2400000002,"ADDRESS":"中華東路一段８６號七樓之２","OBJECTID":568946},"geometry":{"x":171468.88000000175,"y":2543966.2400000021}},{"attributes":{"ID":568974,"DIS_CODE":0,"TOWNNAME":"東區","LI":"莊敬里","LIN":"28鄰","STREET":"中華東路","SECT":"一段","MAREA":" ","LANE":" ","ALLEY":" ","HOUSE_NO":"８６號七樓之３","E_COORD97":171468.88,"N_COORD97":2543966.2400000002,"ADDRESS":"中華東路一段８６號七樓之３","OBJECTID":568947},"geometry":{"x":171468.88000000175,"y":2543966.2400000021}},{"attributes":{"ID":568975,"DIS_CODE":0,"TOWNNAME":"東區","LI":"莊敬里","LIN":"28鄰","STREET":"中華東路","SECT":"一段","MAREA":" ","LANE":" ","ALLEY":" ","HOUSE_NO":"８６號七樓之５","E_COORD97":171468.88,"N_COORD97":2543966.2400000002,"ADDRESS":"中華東路一段８６號七樓之５","OBJECTID":568948},"geometry":{"x":171468.88000000175,"y":2543966.2400000021}},{"attributes":{"ID":568976,"DIS_CODE":0,"TOWNNAME":"東區","LI":"莊敬里","LIN":"28鄰","STREET":"中華東路","SECT":"一段","MAREA":" ","LANE":" ","ALLEY":" ","HOUSE_NO":"８６號九樓之２","E_COORD97":171468.88,"N_COORD97":2543966.2400000002,"ADDRESS":"中華東路一段８６號九樓之２","OBJECTID":568949},"geometry":{"x":171468.88000000175,"y":2543966.2400000021}},{"attributes":{"ID":568977,"DIS_CODE":0,"TOWNNAME":"東區","LI":"莊敬里","LIN":"28鄰","STREET":"中華東路","SECT":"一段","MAREA":" ","LANE":" ","ALLEY":" ","HOUSE_NO":"８６號九樓之３","E_COORD97":171468.88,"N_COORD97":2543966.2400000002,"ADDRESS":"中華東路一段８６號九樓之３","OBJECTID":568950},"geometry":{"x":171468.88000000175,"y":2543966.2400000021}},{"attributes":{"ID":568978,"DIS_CODE":0,"TOWNNAME":"東區","LI":"莊敬里","LIN":"28鄰","STREET":"中華東路","SECT":"一段","MAREA":" ","LANE":" ","ALLEY":" ","HOUSE_NO":"８６號九樓之５","E_COORD97":171468.88,"N_COORD97":2543966.2400000002,"ADDRESS":"中華東路一段８６號九樓之５","OBJECTID":568951},"geometry":{"x":171468.88000000175,"y":2543966.2400000021}},{"attributes":{"ID":568979,"DIS_CODE":0,"TOWNNAME":"東區","LI":"莊敬里","LIN":"28鄰","STREET":"中華東路","SECT":"一段","MAREA":" ","LANE":" ","ALLEY":" ","HOUSE_NO":"８６號九樓之６","E_COORD97":171468.88,"N_COORD97":2543966.2400000002,"ADDRESS":"中華東路一段８６號九樓之６","OBJECTID":568952},"geometry":{"x":171468.88000000175,"y":2543966.2400000021}},{"attributes":{"ID":568980,"DIS_CODE":0,"TOWNNAME":"東區","LI":"莊敬里","LIN":"28鄰","STREET":"中華東路","SECT":"一段","MAREA":" ","LANE":" ","ALLEY":" ","HOUSE_NO":"８６號八樓之１","E_COORD97":171468.88,"N_COORD97":2543966.2400000002,"ADDRESS":"中華東路一段８６號八樓之１","OBJECTID":568953},"geometry":{"x":171468.88000000175,"y":2543966.2400000021}},{"attributes":{"ID":568981,"DIS_CODE":0,"TOWNNAME":"東區","LI":"莊敬里","LIN":"28鄰","STREET":"中華東路","SECT":"一段","MAREA":" ","LANE":" ","ALLEY":" ","HOUSE_NO":"８６號八樓之２","E_COORD97":171468.88,"N_COORD97":2543966.2400000002,"ADDRESS":"中華東路一段８６號八樓之２","OBJECTID":568954},"geometry":{"x":171468.88000000175,"y":2543966.2400000021}},{"attributes":{"ID":568982,"DIS_CODE":0,"TOWNNAME":"東區","LI":"莊敬里","LIN":"28鄰","STREET":"中華東路","SECT":"一段","MAREA":" ","LANE":" ","ALLEY":" ","HOUSE_NO":"８６號八樓之３","E_COORD97":171468.88,"N_COORD97":2543966.2400000002,"ADDRESS":"中華東路一段８６號八樓之３","OBJECTID":568955},"geometry":{"x":171468.88000000175,"y":2543966.2400000021}},{"attributes":{"ID":568983,"DIS_CODE":0,"TOWNNAME":"東區","LI":"莊敬里","LIN":"28鄰","STREET":"中華東路","SECT":"一段","MAREA":" ","LANE":" ","ALLEY":" ","HOUSE_NO":"８６號八樓之５","E_COORD97":171468.88,"N_COORD97":2543966.2400000002,"ADDRESS":"中華東路一段８６號八樓之５","OBJECTID":568956},"geometry":{"x":171468.88000000175,"y":2543966.2400000021}},{"attributes":{"ID":568984,"DIS_CODE":0,"TOWNNAME":"東區","LI":"莊敬里","LIN":"28鄰","STREET":"中華東路","SECT":"一段","MAREA":" ","LANE":" ","ALLEY":" ","HOUSE_NO":"８６號八樓之６","E_COORD97":171468.88,"N_COORD97":2543966.2400000002,"ADDRESS":"中華東路一段８６號八樓之６","OBJECTID":568957},"geometry":{"x":171468.88000000175,"y":2543966.2400000021}},{"attributes":{"ID":568985,"DIS_CODE":0,"TOWNNAME":"東區","LI":"莊敬里","LIN":"28鄰","STREET":"中華東路","SECT":"一段","MAREA":" ","LANE":" ","ALLEY":" ","HOUSE_NO":"８６號十一樓之１","E_COORD97":171468.88,"N_COORD97":2543966.2400000002,"ADDRESS":"中華東路一段８６號十一樓之１","OBJECTID":568958},"geometry":{"x":171468.88000000175,"y":2543966.2400000021}},{"attributes":{"ID":568986,"DIS_CODE":0,"TOWNNAME":"東區","LI":"莊敬里","LIN":"28鄰","STREET":"中華東路","SECT":"一段","MAREA":" ","LANE":" ","ALLEY":" ","HOUSE_NO":"８６號十一樓之２","E_COORD97":171468.88,"N_COORD97":2543966.2400000002,"ADDRESS":"中華東路一段８６號十一樓之２","OBJECTID":568959},"geometry":{"x":171468.88000000175,"y":2543966.2400000021}},{"attributes":{"ID":568987,"DIS_CODE":0,"TOWNNAME":"東區","LI":"莊敬里","LIN":"28鄰","STREET":"中華東路","SECT":"一段","MAREA":" ","LANE":" ","ALLEY":" ","HOUSE_NO":"８６號十一樓之３","E_COORD97":171468.88,"N_COORD97":2543966.2400000002,"ADDRESS":"中華東路一段８６號十一樓之３","OBJECTID":568960},"geometry":{"x":171468.88000000175,"y":2543966.2400000021}},{"attributes":{"ID":568988,"DIS_CODE":0,"TOWNNAME":"東區","LI":"莊敬里","LIN":"28鄰","STREET":"中華東路","SECT":"一段","MAREA":" ","LANE":" ","ALLEY":" ","HOUSE_NO":"８６號十一樓之５","E_COORD97":171468.88,"N_COORD97":2543966.2400000002,"ADDRESS":"中華東路一段８６號十一樓之５","OBJECTID":568961},"geometry":{"x":171468.88000000175,"y":2543966.2400000021}},{"attributes":{"ID":568989,"DIS_CODE":0,"TOWNNAME":"東區","LI":"莊敬里","LIN":"28鄰","STREET":"中華東路","SECT":"一段","MAREA":" ","LANE":" ","ALLEY":" ","HOUSE_NO":"８６號十一樓之６","E_COORD97":171468.88,"N_COORD97":2543966.2400000002,"ADDRESS":"中華東路一段８６號十一樓之６","OBJECTID":568962},"geometry":{"x":171468.88000000175,"y":2543966.2400000021}},{"attributes":{"ID":568990,"DIS_CODE":0,"TOWNNAME":"東區","LI":"莊敬里","LIN":"28鄰","STREET":"中華東路","SECT":"一段","MAREA":" ","LANE":" ","ALLEY":" ","HOUSE_NO":"８６號十二樓之６","E_COORD97":171468.88,"N_COORD97":2543966.2400000002,"ADDRESS":"中華東路一段８６號十二樓之６","OBJECTID":568963},"geometry":{"x":171468.88000000175,"y":2543966.2400000021}},{"attributes":{"ID":568991,"DIS_CODE":0,"TOWNNAME":"東區","LI":"莊敬里","LIN":"28鄰","STREET":"中華東路","SECT":"一段","MAREA":" ","LANE":" ","ALLEY":" ","HOUSE_NO":"８６號十三樓之１","E_COORD97":171468.88,"N_COORD97":2543966.2400000002,"ADDRESS":"中華東路一段８６號十三樓之１","OBJECTID":568964},"geometry":{"x":171468.88000000175,"y":2543966.2400000021}},{"attributes":{"ID":568992,"DIS_CODE":0,"TOWNNAME":"東區","LI":"莊敬里","LIN":"28鄰","STREET":"中華東路","SECT":"一段","MAREA":" ","LANE":" ","ALLEY":" ","HOUSE_NO":"８６號十三樓之２","E_COORD97":171468.88,"N_COORD97":2543966.2400000002,"ADDRESS":"中華東路一段８６號十三樓之２","OBJECTID":568965},"geometry":{"x":171468.88000000175,"y":2543966.2400000021}},{"attributes":{"ID":568993,"DIS_CODE":0,"TOWNNAME":"東區","LI":"莊敬里","LIN":"28鄰","STREET":"中華東路","SECT":"一段","MAREA":" ","LANE":" ","ALLEY":" ","HOUSE_NO":"８６號十三樓之３","E_COORD97":171468.88,"N_COORD97":2543966.2400000002,"ADDRESS":"中華東路一段８６號十三樓之３","OBJECTID":568966},"geometry":{"x":171468.88000000175,"y":2543966.2400000021}},{"attributes":{"ID":568994,"DIS_CODE":0,"TOWNNAME":"東區","LI":"莊敬里","LIN":"28鄰","STREET":"中華東路","SECT":"一段","MAREA":" ","LANE":" ","ALLEY":" ","HOUSE_NO":"８６號十三樓之５","E_COORD97":171468.88,"N_COORD97":2543966.2400000002,"ADDRESS":"中華東路一段８６號十三樓之５","OBJECTID":568967},"geometry":{"x":171468.88000000175,"y":2543966.2400000021}},{"attributes":{"ID":568995,"DIS_CODE":0,"TOWNNAME":"東區","LI":"莊敬里","LIN":"28鄰","STREET":"中華東路","SECT":"一段","MAREA":" ","LANE":" ","ALLEY":" ","HOUSE_NO":"８６號十三樓之６","E_COORD97":171468.88,"N_COORD97":2543966.2400000002,"ADDRESS":"中華東路一段８６號十三樓之６","OBJECTID":568968},"geometry":{"x":171468.88000000175,"y":2543966.2400000021}},{"attributes":{"ID":568996,"DIS_CODE":0,"TOWNNAME":"東區","LI":"莊敬里","LIN":"28鄰","STREET":"中華東路","SECT":"一段","MAREA":" ","LANE":" ","ALLEY":" ","HOUSE_NO":"８６號十四樓之１","E_COORD97":171468.88,"N_COORD97":2543966.2400000002,"ADDRESS":"中華東路一段８６號十四樓之１","OBJECTID":568969},"geometry":{"x":171468.88000000175,"y":2543966.2400000021}},{"attributes":{"ID":568997,"DIS_CODE":0,"TOWNNAME":"東區","LI":"莊敬里","LIN":"28鄰","STREET":"中華東路","SECT":"一段","MAREA":" ","LANE":" ","ALLEY":" ","HOUSE_NO":"８６號十四樓之２","E_COORD97":171468.88,"N_COORD97":2543966.2400000002,"ADDRESS":"中華東路一段８６號十四樓之２","OBJECTID":568970},"geometry":{"x":171468.88000000175,"y":2543966.2400000021}},{"attributes":{"ID":568998,"DIS_CODE":0,"TOWNNAME":"東區","LI":"莊敬里","LIN":"28鄰","STREET":"中華東路","SECT":"一段","MAREA":" ","LANE":" ","ALLEY":" ","HOUSE_NO":"８６號十四樓之３","E_COORD97":171468.88,"N_COORD97":2543966.2400000002,"ADDRESS":"中華東路一段８６號十四樓之３","OBJECTID":568971},"geometry":{"x":171468.88000000175,"y":2543966.2400000021}},{"attributes":{"ID":568999,"DIS_CODE":0,"TOWNNAME":"東區","LI":"莊敬里","LIN":"28鄰","STREET":"中華東路","SECT":"一段","MAREA":" ","LANE":" ","ALLEY":" ","HOUSE_NO":"８６號十四樓之５","E_COORD97":171468.88,"N_COORD97":2543966.2400000002,"ADDRESS":"中華東路一段８６號十四樓之５","OBJECTID":568972},"geometry":{"x":171468.88000000175,"y":2543966.2400000021}},{"attributes":{"ID":569000,"DIS_CODE":0,"TOWNNAME":"東區","LI":"莊敬里","LIN":"28鄰","STREET":"中華東路","SECT":"一段","MAREA":" ","LANE":" ","ALLEY":" ","HOUSE_NO":"８６號十四樓之６","E_COORD97":171468.88,"N_COORD97":2543966.2400000002,"ADDRESS":"中華東路一段８６號十四樓之６","OBJECTID":568973},"geometry":{"x":171468.88000000175,"y":2543966.2400000021}},{"attributes":{"ID":569001,"DIS_CODE":0,"TOWNNAME":"東區","LI":"莊敬里","LIN":"28鄰","STREET":"中華東路","SECT":"一段","MAREA":" ","LANE":" ","ALLEY":" ","HOUSE_NO":"８６號十樓之１","E_COORD97":171468.88,"N_COORD97":2543966.2400000002,"ADDRESS":"中華東路一段８６號十樓之１","OBJECTID":568974},"geometry":{"x":171468.88000000175,"y":2543966.2400000021}},{"attributes":{"ID":569002,"DIS_CODE":0,"TOWNNAME":"東區","LI":"莊敬里","LIN":"28鄰","STREET":"中華東路","SECT":"一段","MAREA":" ","LANE":" ","ALLEY":" ","HOUSE_NO":"８６號十樓之２","E_COORD97":171468.88,"N_COORD97":2543966.2400000002,"ADDRESS":"中華東路一段８６號十樓之２","OBJECTID":568975},"geometry":{"x":171468.88000000175,"y":2543966.2400000021}},{"attributes":{"ID":569003,"DIS_CODE":0,"TOWNNAME":"東區","LI":"莊敬里","LIN":"28鄰","STREET":"中華東路","SECT":"一段","MAREA":" ","LANE":" ","ALLEY":" ","HOUSE_NO":"８６號十樓之３","E_COORD97":171468.88,"N_COORD97":2543966.2400000002,"ADDRESS":"中華東路一段８６號十樓之３","OBJECTID":568976},"geometry":{"x":171468.88000000175,"y":2543966.2400000021}},{"attributes":{"ID":569004,"DIS_CODE":0,"TOWNNAME":"東區","LI":"莊敬里","LIN":"28鄰","STREET":"中華東路","SECT":"一段","MAREA":" ","LANE":" ","ALLEY":" ","HOUSE_NO":"８６號十樓之５","E_COORD97":171468.88,"N_COORD97":2543966.2400000002,"ADDRESS":"中華東路一段８６號十樓之５","OBJECTID":568977},"geometry":{"x":171468.88000000175,"y":2543966.2400000021}},{"attributes":{"ID":569005,"DIS_CODE":0,"TOWNNAME":"東區","LI":"莊敬里","LIN":"28鄰","STREET":"中華東路","SECT":"一段","MAREA":" ","LANE":" ","ALLEY":" ","HOUSE_NO":"８６號十樓之６","E_COORD97":171468.88,"N_COORD97":2543966.2400000002,"ADDRESS":"中華東路一段８６號十樓之６","OBJECTID":568978},"geometry":{"x":171468.88000000175,"y":2543966.2400000021}},{"attributes":{"ID":569006,"DIS_CODE":0,"TOWNNAME":"東區","LI":"莊敬里","LIN":"28鄰","STREET":"中華東路","SECT":"一段","MAREA":" ","LANE":" ","ALLEY":" ","HOUSE_NO":"８６號五樓之１","E_COORD97":171468.88,"N_COORD97":2543966.2400000002,"ADDRESS":"中華東路一段８６號五樓之１","OBJECTID":568979},"geometry":{"x":171468.88000000175,"y":2543966.2400000021}},{"attributes":{"ID":569007,"DIS_CODE":0,"TOWNNAME":"東區","LI":"莊敬里","LIN":"28鄰","STREET":"中華東路","SECT":"一段","MAREA":" ","LANE":" ","ALLEY":" ","HOUSE_NO":"８６號六樓之１","E_COORD97":171468.88,"N_COORD97":2543966.2400000002,"ADDRESS":"中華東路一段８６號六樓之１","OBJECTID":568980},"geometry":{"x":171468.88000000175,"y":2543966.2400000021}},{"attributes":{"ID":569008,"DIS_CODE":0,"TOWNNAME":"東區","LI":"莊敬里","LIN":"28鄰","STREET":"中華東路","SECT":"一段","MAREA":" ","LANE":" ","ALLEY":" ","HOUSE_NO":"８６號六樓之２","E_COORD97":171468.88,"N_COORD97":2543966.2400000002,"ADDRESS":"中華東路一段８６號六樓之２","OBJECTID":568981},"geometry":{"x":171468.88000000175,"y":2543966.2400000021}},{"attributes":{"ID":569009,"DIS_CODE":0,"TOWNNAME":"東區","LI":"莊敬里","LIN":"28鄰","STREET":"中華東路","SECT":"一段","MAREA":" ","LANE":" ","ALLEY":" ","HOUSE_NO":"８６號六樓之３","E_COORD97":171468.88,"N_COORD97":2543966.2400000002,"ADDRESS":"中華東路一段８６號六樓之３","OBJECTID":568982},"geometry":{"x":171468.88000000175,"y":2543966.2400000021}},{"attributes":{"ID":569010,"DIS_CODE":0,"TOWNNAME":"東區","LI":"莊敬里","LIN":"28鄰","STREET":"中華東路","SECT":"一段","MAREA":" ","LANE":" ","ALLEY":" ","HOUSE_NO":"８６號六樓之５","E_COORD97":171468.88,"N_COORD97":2543966.2400000002,"ADDRESS":"中華東路一段８６號六樓之５","OBJECTID":568983},"geometry":{"x":171468.88000000175,"y":2543966.2400000021}},{"attributes":{"ID":569011,"DIS_CODE":0,"TOWNNAME":"東區","LI":"莊敬里","LIN":"28鄰","STREET":"中華東路","SECT":"一段","MAREA":" ","LANE":" ","ALLEY":" ","HOUSE_NO":"８６號四樓之１","E_COORD97":171468.88,"N_COORD97":2543966.2400000002,"ADDRESS":"中華東路一段８６號四樓之１","OBJECTID":568984},"geometry":{"x":171468.88000000175,"y":2543966.2400000021}},{"attributes":{"ID":569012,"DIS_CODE":0,"TOWNNAME":"東區","LI":"莊敬里","LIN":"28鄰","STREET":"中華東路","SECT":"一段","MAREA":" ","LANE":" ","ALLEY":" ","HOUSE_NO":"８６號四樓之２","E_COORD97":171468.88,"N_COORD97":2543966.2400000002,"ADDRESS":"中華東路一段８６號四樓之２","OBJECTID":568985},"geometry":{"x":171468.88000000175,"y":2543966.2400000021}},{"attributes":{"ID":569013,"DIS_CODE":0,"TOWNNAME":"東區","LI":"莊敬里","LIN":"28鄰","STREET":"中華東路","SECT":"一段","MAREA":" ","LANE":" ","ALLEY":" ","HOUSE_NO":"８６號四樓之３","E_COORD97":171468.88,"N_COORD97":2543966.2400000002,"ADDRESS":"中華東路一段８６號四樓之３","OBJECTID":568986},"geometry":{"x":171468.88000000175,"y":2543966.2400000021}},{"attributes":{"ID":569014,"DIS_CODE":0,"TOWNNAME":"東區","LI":"莊敬里","LIN":"28鄰","STREET":"中華東路","SECT":"一段","MAREA":" ","LANE":" ","ALLEY":" ","HOUSE_NO":"８６號四樓之５","E_COORD97":171468.88,"N_COORD97":2543966.2400000002,"ADDRESS":"中華東路一段８６號四樓之５","OBJECTID":568987},"geometry":{"x":171468.88000000175,"y":2543966.2400000021}},{"attributes":{"ID":569015,"DIS_CODE":0,"TOWNNAME":"東區","LI":"莊敬里","LIN":"28鄰","STREET":"中華東路","SECT":"一段","MAREA":" ","LANE":" ","ALLEY":" ","HOUSE_NO":"８６號四樓之６","E_COORD97":171468.88,"N_COORD97":2543966.2400000002,"ADDRESS":"中華東路一段８６號四樓之６","OBJECTID":568988},"geometry":{"x":171468.88000000175,"y":2543966.2400000021}},{"attributes":{"ID":569016,"DIS_CODE":0,"TOWNNAME":"東區","LI":"裕農里","LIN":"28鄰","STREET":"東寧路","SECT":" ","MAREA":" ","LANE":" ","ALLEY":" ","HOUSE_NO":"５４６號三樓之１","E_COORD97":171233.32999999999,"N_COORD97":2543212.8700000001,"ADDRESS":"東寧路５４６號三樓之１","OBJECTID":568989},"geometry":{"x":171233.33000000007,"y":2543212.8700000029}},{"attributes":{"ID":569017,"DIS_CODE":0,"TOWNNAME":"東區","LI":"裕農里","LIN":"28鄰","STREET":"東寧路","SECT":" ","MAREA":" ","LANE":" ","ALLEY":" ","HOUSE_NO":"５４６號七樓","E_COORD97":171233.32999999999,"N_COORD97":2543212.8700000001,"ADDRESS":"東寧路５４６號七樓","OBJECTID":568990},"geometry":{"x":171233.33000000007,"y":2543212.8700000029}},{"attributes":{"ID":569018,"DIS_CODE":0,"TOWNNAME":"東區","LI":"裕農里","LIN":"28鄰","STREET":"東寧路","SECT":" ","MAREA":" ","LANE":" ","ALLEY":" ","HOUSE_NO":"５４６號七樓之１","E_COORD97":171233.32999999999,"N_COORD97":2543212.8700000001,"ADDRESS":"東寧路５４６號七樓之１","OBJECTID":568991},"geometry":{"x":171233.33000000007,"y":2543212.8700000029}},{"attributes":{"ID":569019,"DIS_CODE":0,"TOWNNAME":"東區","LI":"裕農里","LIN":"28鄰","STREET":"東寧路","SECT":" ","MAREA":" ","LANE":" ","ALLEY":" ","HOUSE_NO":"５４６號七樓之２","E_COORD97":171233.32999999999,"N_COORD97":2543212.8700000001,"ADDRESS":"東寧路５４６號七樓之２","OBJECTID":568992},"geometry":{"x":171233.33000000007,"y":2543212.8700000029}},{"attributes":{"ID":569020,"DIS_CODE":0,"TOWNNAME":"東區","LI":"裕農里","LIN":"28鄰","STREET":"東寧路","SECT":" ","MAREA":" ","LANE":" ","ALLEY":" ","HOUSE_NO":"５５６號十樓","E_COORD97":171250.17999999999,"N_COORD97":2543215.5099999998,"ADDRESS":"東寧路５５６號十樓","OBJECTID":568993},"geometry":{"x":171250.18000000063,"y":2543215.5099999998}},{"attributes":{"ID":569021,"DIS_CODE":0,"TOWNNAME":"東區","LI":"裕農里","LIN":"28鄰","STREET":"東寧路","SECT":" ","MAREA":" ","LANE":" ","ALLEY":" ","HOUSE_NO":"５４６號七樓之３","E_COORD97":171233.32999999999,"N_COORD97":2543212.8700000001,"ADDRESS":"東寧路５４６號七樓之３","OBJECTID":568994},"geometry":{"x":171233.33000000007,"y":2543212.8700000029}},{"attributes":{"ID":569022,"DIS_CODE":0,"TOWNNAME":"東區","LI":"裕農里","LIN":"28鄰","STREET":"東寧路","SECT":" ","MAREA":" ","LANE":" ","ALLEY":" ","HOUSE_NO":"５４６號九樓","E_COORD97":171233.32999999999,"N_COORD97":2543212.8700000001,"ADDRESS":"東寧路５４６號九樓","OBJECTID":568995},"geometry":{"x":171233.33000000007,"y":2543212.8700000029}},{"attributes":{"ID":569023,"DIS_CODE":0,"TOWNNAME":"東區","LI":"裕農里","LIN":"28鄰","STREET":"東寧路","SECT":" ","MAREA":" ","LANE":" ","ALLEY":" ","HOUSE_NO":"５４６號九樓之１","E_COORD97":171233.32999999999,"N_COORD97":2543212.8700000001,"ADDRESS":"東寧路５４６號九樓之１","OBJECTID":568996},"geometry":{"x":171233.33000000007,"y":2543212.8700000029}},{"attributes":{"ID":569024,"DIS_CODE":0,"TOWNNAME":"東區","LI":"裕農里","LIN":"28鄰","STREET":"東寧路","SECT":" ","MAREA":" ","LANE":" ","ALLEY":" ","HOUSE_NO":"５４６號九樓之２","E_COORD97":171233.32999999999,"N_COORD97":2543212.8700000001,"ADDRESS":"東寧路５４６號九樓之２","OBJECTID":568997},"geometry":{"x":171233.33000000007,"y":2543212.8700000029}},{"attributes":{"ID":569025,"DIS_CODE":0,"TOWNNAME":"東區","LI":"裕農里","LIN":"28鄰","STREET":"東寧路","SECT":" ","MAREA":" ","LANE":" ","ALLEY":" ","HOUSE_NO":"５４６號九樓之３","E_COORD97":171233.32999999999,"N_COORD97":2543212.8700000001,"ADDRESS":"東寧路５４６號九樓之３","OBJECTID":568998},"geometry":{"x":171233.33000000007,"y":2543212.8700000029}},{"attributes":{"ID":569026,"DIS_CODE":0,"TOWNNAME":"東區","LI":"裕農里","LIN":"28鄰","STREET":"東寧路","SECT":" ","MAREA":" ","LANE":" ","ALLEY":" ","HOUSE_NO":"５４６號二樓之１","E_COORD97":171233.32999999999,"N_COORD97":2543212.8700000001,"ADDRESS":"東寧路５４６號二樓之１","OBJECTID":568999},"geometry":{"x":171233.33000000007,"y":2543212.8700000029}},{"attributes":{"ID":569027,"DIS_CODE":0,"TOWNNAME":"東區","LI":"裕農里","LIN":"28鄰","STREET":"東寧路","SECT":" ","MAREA":" ","LANE":" ","ALLEY":" ","HOUSE_NO":"５４６號八樓","E_COORD97":171233.32999999999,"N_COORD97":2543212.8700000001,"ADDRESS":"東寧路５４６號八樓","OBJECTID":569000},"geometry":{"x":171233.33000000007,"y":2543212.8700000029}}]}