{"displayFieldName":"TOWNNAME","fieldAliases":{"ID":"ID","DIS_CODE":"DIS_CODE","TOWNNAME":"TOWNNAME","LI":"LI","LIN":"LIN","STREET":"STREET","SECT":"SECT","MAREA":"MAREA","LANE":"LANE","ALLEY":"ALLEY","HOUSE_NO":"HOUSE_NO","E_COORD97":"E_COORD97","N_COORD97":"N_COORD97","ADDRESS":"ADDRESS","OBJECTID":"OBJECTID"},"geometryType":"esriGeometryPoint","spatialReference":{"wkid":102443,"latestWkid":3826},"fields":[{"name":"ID","type":"esriFieldTypeDouble","alias":"ID"},{"name":"DIS_CODE","type":"esriFieldTypeInteger","alias":"DIS_CODE"},{"name":"TOWNNAME","type":"esriFieldTypeString","alias":"TOWNNAME","length":8},{"name":"LI","type":"esriFieldTypeString","alias":"LI","length":8},{"name":"LIN","type":"esriFieldTypeString","alias":"LIN","length":12},{"name":"STREET","type":"esriFieldTypeString","alias":"STREET","length":20},{"name":"SECT","type":"esriFieldTypeString","alias":"SECT","length":8},{"name":"MAREA","type":"esriFieldTypeString","alias":"MAREA","length":12},{"name":"LANE","type":"esriFieldTypeString","alias":"LANE","length":10},{"name":"ALLEY","type":"esriFieldTypeString","alias":"ALLEY","length":10},{"name":"HOUSE_NO","type":"esriFieldTypeString","alias":"HOUSE_NO","length":20},{"name":"E_COORD97","type":"esriFieldTypeDouble","alias":"E_COORD97"},{"name":"N_COORD97","type":"esriFieldTypeDouble","alias":"N_COORD97"},{"name":"ADDRESS","type":"esriFieldTypeString","alias":"ADDRESS","length":50},{"name":"OBJECTID","type":"esriFieldTypeOID","alias":"OBJECTID"}],"features":[{"attributes":{"ID":545228,"DIS_CODE":0,"TOWNNAME":"安南區","LI":"南興里","LIN":"12鄰","STREET":"公學路","SECT":"五段","MAREA":" ","LANE":" ","ALLEY":" ","HOUSE_NO":"６６１號","E_COORD97":163944.01000000001,"N_COORD97":2552754.8700000001,"ADDRESS":"公學路五段６６１號","OBJECTID":545201},"geometry":{"x":163944.00999999978,"y":2552754.870000001}},{"attributes":{"ID":545229,"DIS_CODE":0,"TOWNNAME":"東區","LI":"中西里","LIN":"12鄰","STREET":"東寧路","SECT":" ","MAREA":" ","LANE":" ","ALLEY":" ","HOUSE_NO":"１８號之１","E_COORD97":169956.51000000001,"N_COORD97":2543624.1600000001,"ADDRESS":"東寧路１８號之１","OBJECTID":545202},"geometry":{"x":169956.50999999978,"y":2543624.160000002}},{"attributes":{"ID":545230,"DIS_CODE":0,"TOWNNAME":"東區","LI":"中西里","LIN":"12鄰","STREET":"東寧路","SECT":" ","MAREA":" ","LANE":" ","ALLEY":" ","HOUSE_NO":"１８號之２","E_COORD97":169961.06,"N_COORD97":2543623.8100000001,"ADDRESS":"東寧路１８號之２","OBJECTID":545203},"geometry":{"x":169961.05999999959,"y":2543623.8100000024}},{"attributes":{"ID":545231,"DIS_CODE":0,"TOWNNAME":"東區","LI":"中西里","LIN":"12鄰","STREET":"東寧路","SECT":" ","MAREA":" ","LANE":" ","ALLEY":" ","HOUSE_NO":"１８號之３","E_COORD97":169965.04000000001,"N_COORD97":2543622.8700000001,"ADDRESS":"東寧路１８號之３","OBJECTID":545204},"geometry":{"x":169965.04000000097,"y":2543622.8700000048}},{"attributes":{"ID":545232,"DIS_CODE":0,"TOWNNAME":"東區","LI":"中西里","LIN":"12鄰","STREET":"東寧路","SECT":" ","MAREA":" ","LANE":" ","ALLEY":" ","HOUSE_NO":"２０號","E_COORD97":169970.89000000001,"N_COORD97":2543603.5,"ADDRESS":"東寧路２０號","OBJECTID":545205},"geometry":{"x":169970.88999999966,"y":2543603.5}},{"attributes":{"ID":545233,"DIS_CODE":0,"TOWNNAME":"東區","LI":"富裕里","LIN":"12鄰","STREET":"裕豐街","SECT":" ","MAREA":" ","LANE":" ","ALLEY":" ","HOUSE_NO":"７０號","E_COORD97":170725.35000000001,"N_COORD97":2542798.5,"ADDRESS":"裕豐街７０號","OBJECTID":545206},"geometry":{"x":170725.34999999963,"y":2542798.5000000019}},{"attributes":{"ID":545234,"DIS_CODE":0,"TOWNNAME":"東區","LI":"裕農里","LIN":"12鄰","STREET":"東寧路","SECT":" ","MAREA":" ","LANE":" ","ALLEY":" ","HOUSE_NO":"４７６號","E_COORD97":171044.17999999999,"N_COORD97":2543302.1899999999,"ADDRESS":"東寧路４７６號","OBJECTID":545207},"geometry":{"x":171044.1799999997,"y":2543302.1899999995}},{"attributes":{"ID":545235,"DIS_CODE":0,"TOWNNAME":"東區","LI":"裕農里","LIN":"12鄰","STREET":"東寧路","SECT":" ","MAREA":" ","LANE":" ","ALLEY":" ","HOUSE_NO":"４７８號","E_COORD97":171048.48000000001,"N_COORD97":2543300.8700000001,"ADDRESS":"東寧路４７８號","OBJECTID":545208},"geometry":{"x":171048.48000000138,"y":2543300.8700000048}},{"attributes":{"ID":545236,"DIS_CODE":0,"TOWNNAME":"東區","LI":"裕農里","LIN":"12鄰","STREET":"東寧路","SECT":" ","MAREA":" ","LANE":" ","ALLEY":" ","HOUSE_NO":"４８０號","E_COORD97":171052.44,"N_COORD97":2543300.21,"ADDRESS":"東寧路４８０號","OBJECTID":545209},"geometry":{"x":171052.44000000134,"y":2543300.2100000009}},{"attributes":{"ID":545237,"DIS_CODE":0,"TOWNNAME":"東區","LI":"裕農里","LIN":"12鄰","STREET":"東寧路","SECT":" ","MAREA":" ","LANE":" ","ALLEY":" ","HOUSE_NO":"４８２號","E_COORD97":171056.41,"N_COORD97":2543300.21,"ADDRESS":"東寧路４８２號","OBJECTID":545210},"geometry":{"x":171056.41000000015,"y":2543300.2100000009}},{"attributes":{"ID":545238,"DIS_CODE":0,"TOWNNAME":"東區","LI":"裕農里","LIN":"12鄰","STREET":"東寧路","SECT":" ","MAREA":" ","LANE":" ","ALLEY":" ","HOUSE_NO":"４８４號","E_COORD97":171061.03,"N_COORD97":2543299.5499999998,"ADDRESS":"東寧路４８４號","OBJECTID":545211},"geometry":{"x":171061.03000000026,"y":2543299.5500000026}},{"attributes":{"ID":545239,"DIS_CODE":0,"TOWNNAME":"東區","LI":"裕農里","LIN":"12鄰","STREET":"東寧路","SECT":" ","MAREA":" ","LANE":" ","ALLEY":" ","HOUSE_NO":"４８６號","E_COORD97":171065.32999999999,"N_COORD97":2543298.23,"ADDRESS":"東寧路４８６號","OBJECTID":545212},"geometry":{"x":171065.33000000007,"y":2543298.2300000023}},{"attributes":{"ID":545240,"DIS_CODE":0,"TOWNNAME":"東區","LI":"裕農里","LIN":"12鄰","STREET":"東寧路","SECT":" ","MAREA":" ","LANE":" ","ALLEY":" ","HOUSE_NO":"４８８號","E_COORD97":171069.29000000001,"N_COORD97":2543298.23,"ADDRESS":"東寧路４８８號","OBJECTID":545213},"geometry":{"x":171069.29000000004,"y":2543298.2300000023}},{"attributes":{"ID":545241,"DIS_CODE":0,"TOWNNAME":"東區","LI":"裕農里","LIN":"12鄰","STREET":"東寧路","SECT":" ","MAREA":" ","LANE":" ","ALLEY":" ","HOUSE_NO":"４９０號","E_COORD97":171072.59,"N_COORD97":2543296.9100000001,"ADDRESS":"東寧路４９０號","OBJECTID":545214},"geometry":{"x":171072.59000000078,"y":2543296.910000002}},{"attributes":{"ID":545242,"DIS_CODE":0,"TOWNNAME":"東區","LI":"崇學里","LIN":"12鄰","STREET":"崇明十一街","SECT":" ","MAREA":" ","LANE":" ","ALLEY":" ","HOUSE_NO":"５號","E_COORD97":170279.59,"N_COORD97":2541822.1400000001,"ADDRESS":"崇明十一街５號","OBJECTID":545215},"geometry":{"x":170279.59000000078,"y":2541822.1400000006}},{"attributes":{"ID":545243,"DIS_CODE":0,"TOWNNAME":"東區","LI":"崇學里","LIN":"12鄰","STREET":"崇明路","SECT":" ","MAREA":" ","LANE":" ","ALLEY":" ","HOUSE_NO":"３２９號","E_COORD97":170213.38,"N_COORD97":2541833.5899999999,"ADDRESS":"崇明路３２９號","OBJECTID":545216},"geometry":{"x":170213.38000000082,"y":2541833.5900000017}},{"attributes":{"ID":545244,"DIS_CODE":0,"TOWNNAME":"東區","LI":"崇學里","LIN":"12鄰","STREET":"崇明路","SECT":" ","MAREA":" ","LANE":" ","ALLEY":" ","HOUSE_NO":"３３１號","E_COORD97":170216.41,"N_COORD97":2541830.8999999999,"ADDRESS":"崇明路３３１號","OBJECTID":545217},"geometry":{"x":170216.41000000108,"y":2541830.9000000004}},{"attributes":{"ID":545245,"DIS_CODE":0,"TOWNNAME":"東區","LI":"崇學里","LIN":"12鄰","STREET":"崇明路","SECT":" ","MAREA":" ","LANE":" ","ALLEY":" ","HOUSE_NO":"３３３號","E_COORD97":170219.10999999999,"N_COORD97":2541827.7000000002,"ADDRESS":"崇明路３３３號","OBJECTID":545218},"geometry":{"x":170219.11000000127,"y":2541827.6999999993}},{"attributes":{"ID":545246,"DIS_CODE":0,"TOWNNAME":"東區","LI":"崇學里","LIN":"12鄰","STREET":"崇明路","SECT":" ","MAREA":" ","LANE":" ","ALLEY":" ","HOUSE_NO":"３３５號","E_COORD97":170222.31,"N_COORD97":2541825.1699999999,"ADDRESS":"崇明路３３５號","OBJECTID":545219},"geometry":{"x":170222.30999999959,"y":2541825.1699999999}},{"attributes":{"ID":545247,"DIS_CODE":0,"TOWNNAME":"東區","LI":"崇學里","LIN":"12鄰","STREET":"崇明路","SECT":" ","MAREA":" ","LANE":" ","ALLEY":" ","HOUSE_NO":"３３７號","E_COORD97":170225.85000000001,"N_COORD97":2541821.9700000002,"ADDRESS":"崇明路３３７號","OBJECTID":545220},"geometry":{"x":170225.84999999963,"y":2541821.9700000025}},{"attributes":{"ID":545248,"DIS_CODE":0,"TOWNNAME":"東區","LI":"崇學里","LIN":"12鄰","STREET":"崇明路","SECT":" ","MAREA":" ","LANE":" ","ALLEY":" ","HOUSE_NO":"３４７號","E_COORD97":170238.82999999999,"N_COORD97":2541805.7999999998,"ADDRESS":"崇明路３４７號","OBJECTID":545221},"geometry":{"x":170238.83000000101,"y":2541805.8000000045}},{"attributes":{"ID":545249,"DIS_CODE":0,"TOWNNAME":"東區","LI":"崇學里","LIN":"12鄰","STREET":"崇明路","SECT":" ","MAREA":" ","LANE":" ","ALLEY":" ","HOUSE_NO":"３４９號","E_COORD97":170241.87,"N_COORD97":2541802.2599999998,"ADDRESS":"崇明路３４９號","OBJECTID":545222},"geometry":{"x":170241.87000000197,"y":2541802.2600000016}},{"attributes":{"ID":545250,"DIS_CODE":0,"TOWNNAME":"東區","LI":"崇學里","LIN":"12鄰","STREET":"崇明路","SECT":" ","MAREA":" ","LANE":" ","ALLEY":" ","HOUSE_NO":"３５１號","E_COORD97":170245.41,"N_COORD97":2541799.73,"ADDRESS":"崇明路３５１號","OBJECTID":545223},"geometry":{"x":170245.41000000108,"y":2541799.7300000023}},{"attributes":{"ID":545251,"DIS_CODE":0,"TOWNNAME":"東區","LI":"崇學里","LIN":"12鄰","STREET":"崇明路","SECT":" ","MAREA":" ","LANE":" ","ALLEY":" ","HOUSE_NO":"３５３號","E_COORD97":170248.44,"N_COORD97":2541795.8599999999,"ADDRESS":"崇明路３５３號","OBJECTID":545224},"geometry":{"x":170248.44000000227,"y":2541795.8599999994}},{"attributes":{"ID":545252,"DIS_CODE":0,"TOWNNAME":"東區","LI":"德高里","LIN":"12鄰","STREET":"崇善路","SECT":" ","MAREA":" ","LANE":" ","ALLEY":" ","HOUSE_NO":"９０９號","E_COORD97":171414.22,"N_COORD97":2540683.8799999999,"ADDRESS":"崇善路９０９號","OBJECTID":545225},"geometry":{"x":171414.22000000067,"y":2540683.879999999}},{"attributes":{"ID":545253,"DIS_CODE":0,"TOWNNAME":"東區","LI":"德高里","LIN":"12鄰","STREET":"崇善路","SECT":" ","MAREA":" ","LANE":" ","ALLEY":" ","HOUSE_NO":"９０５號","E_COORD97":171408.26000000001,"N_COORD97":2540690.04,"ADDRESS":"崇善路９０５號","OBJECTID":545226},"geometry":{"x":171408.25999999978,"y":2540690.0399999972}},{"attributes":{"ID":545254,"DIS_CODE":0,"TOWNNAME":"東區","LI":"德高里","LIN":"12鄰","STREET":"崇善路","SECT":" ","MAREA":" ","LANE":" ","ALLEY":" ","HOUSE_NO":"９１１號","E_COORD97":171417.39999999999,"N_COORD97":2540680.1099999999,"ADDRESS":"崇善路９１１號","OBJECTID":545227},"geometry":{"x":171417.4000000013,"y":2540680.1100000031}},{"attributes":{"ID":545255,"DIS_CODE":0,"TOWNNAME":"安南區","LI":"溪心里","LIN":"12鄰","STREET":"海佃路","SECT":"二段","MAREA":" ","LANE":" ","ALLEY":" ","HOUSE_NO":"６８０號","E_COORD97":166578.59,"N_COORD97":2549463.79,"ADDRESS":"海佃路二段６８０號","OBJECTID":545228},"geometry":{"x":166578.59000000078,"y":2549463.790000001}},{"attributes":{"ID":545256,"DIS_CODE":0,"TOWNNAME":"安南區","LI":"溪心里","LIN":"12鄰","STREET":"海佃路","SECT":"二段","MAREA":" ","LANE":" ","ALLEY":" ","HOUSE_NO":"６８２號","E_COORD97":166576.20999999999,"N_COORD97":2549467.8300000001,"ADDRESS":"海佃路二段６８２號","OBJECTID":545229},"geometry":{"x":166576.21000000089,"y":2549467.8300000019}},{"attributes":{"ID":545257,"DIS_CODE":0,"TOWNNAME":"安南區","LI":"溪心里","LIN":"12鄰","STREET":"海佃路","SECT":"二段","MAREA":" ","LANE":" ","ALLEY":" ","HOUSE_NO":"６９２號","E_COORD97":166566.79000000001,"N_COORD97":2549481.9399999999,"ADDRESS":"海佃路二段６９２號","OBJECTID":545230},"geometry":{"x":166566.79000000004,"y":2549481.9399999995}},{"attributes":{"ID":545258,"DIS_CODE":0,"TOWNNAME":"安南區","LI":"溪心里","LIN":"12鄰","STREET":"海佃路","SECT":"二段","MAREA":" ","LANE":" ","ALLEY":" ","HOUSE_NO":"６８６號","E_COORD97":166570.89999999999,"N_COORD97":2549470.3399999999,"ADDRESS":"海佃路二段６８６號","OBJECTID":545231},"geometry":{"x":166570.90000000037,"y":2549470.3400000036}},{"attributes":{"ID":545259,"DIS_CODE":0,"TOWNNAME":"安南區","LI":"溪心里","LIN":"12鄰","STREET":"海佃路","SECT":"二段","MAREA":" ","LANE":" ","ALLEY":" ","HOUSE_NO":"６８８號","E_COORD97":166568.51999999999,"N_COORD97":2549474.04,"ADDRESS":"海佃路二段６８８號","OBJECTID":545232},"geometry":{"x":166568.52000000048,"y":2549474.0399999991}},{"attributes":{"ID":545260,"DIS_CODE":0,"TOWNNAME":"安南區","LI":"溪心里","LIN":"12鄰","STREET":"海佃路","SECT":"二段","MAREA":" ","LANE":" ","ALLEY":" ","HOUSE_NO":"６９０號","E_COORD97":166567.79999999999,"N_COORD97":2549478.46,"ADDRESS":"海佃路二段６９０號","OBJECTID":545233},"geometry":{"x":166567.79999999981,"y":2549478.4600000028}},{"attributes":{"ID":545261,"DIS_CODE":0,"TOWNNAME":"安南區","LI":"新順里","LIN":"12鄰","STREET":"安和路","SECT":"三段","MAREA":" ","LANE":" ","ALLEY":" ","HOUSE_NO":"５５之１號","E_COORD97":169755.47,"N_COORD97":2549462.1299999999,"ADDRESS":"安和路三段５５之１號","OBJECTID":545234},"geometry":{"x":169755.46999999974,"y":2549462.129999999}},{"attributes":{"ID":545262,"DIS_CODE":0,"TOWNNAME":"安南區","LI":"頂安里","LIN":"12鄰","STREET":"怡安路","SECT":"一段","MAREA":" ","LANE":" ","ALLEY":" ","HOUSE_NO":"４６２號","E_COORD97":168542.39000000001,"N_COORD97":2549230.3599999999,"ADDRESS":"怡安路一段４６２號","OBJECTID":545235},"geometry":{"x":168542.38999999966,"y":2549230.3600000013}},{"attributes":{"ID":545263,"DIS_CODE":0,"TOWNNAME":"安南區","LI":"頂安里","LIN":"12鄰","STREET":"怡安路","SECT":"一段","MAREA":" ","LANE":" ","ALLEY":" ","HOUSE_NO":"４６６號","E_COORD97":168537.34,"N_COORD97":2549230.3599999999,"ADDRESS":"怡安路一段４６６號","OBJECTID":545236},"geometry":{"x":168537.33999999985,"y":2549230.3600000013}},{"attributes":{"ID":545264,"DIS_CODE":0,"TOWNNAME":"安南區","LI":"頂安里","LIN":"12鄰","STREET":"怡安路","SECT":"一段","MAREA":" ","LANE":" ","ALLEY":" ","HOUSE_NO":"４６８號","E_COORD97":168531.70999999999,"N_COORD97":2549233.46,"ADDRESS":"怡安路一段４６８號","OBJECTID":545237},"geometry":{"x":168531.70999999996,"y":2549233.4600000028}},{"attributes":{"ID":545265,"DIS_CODE":0,"TOWNNAME":"安南區","LI":"新順里","LIN":"12鄰","STREET":"安和路","SECT":"三段","MAREA":" ","LANE":" ","ALLEY":" ","HOUSE_NO":"８３之１號","E_COORD97":169784.79999999999,"N_COORD97":2549537.8500000001,"ADDRESS":"安和路三段８３之１號","OBJECTID":545238},"geometry":{"x":169784.80000000075,"y":2549537.8500000034}},{"attributes":{"ID":545266,"DIS_CODE":0,"TOWNNAME":"永康區","LI":"\u25A0行里","LIN":"12鄰","STREET":"中正路","SECT":" ","MAREA":" ","LANE":" ","ALLEY":" ","HOUSE_NO":"５５９號","E_COORD97":171965.67000000001,"N_COORD97":2548908.73,"ADDRESS":"中正路５５９號","OBJECTID":545239},"geometry":{"x":171965.67000000086,"y":2548908.7300000042}},{"attributes":{"ID":545267,"DIS_CODE":0,"TOWNNAME":"白河區","LI":"外角里","LIN":"12鄰","STREET":"三民路","SECT":" ","MAREA":" ","LANE":" ","ALLEY":" ","HOUSE_NO":"１６５之１號","E_COORD97":190889.91,"N_COORD97":2583286.0099999998,"ADDRESS":"三民路１６５之１號","OBJECTID":545240},"geometry":{"x":190889.91000000015,"y":2583286.0100000016}},{"attributes":{"ID":545268,"DIS_CODE":0,"TOWNNAME":"白河區","LI":"外角里","LIN":"12鄰","STREET":"三民路","SECT":" ","MAREA":" ","LANE":" ","ALLEY":" ","HOUSE_NO":"１６５之２號","E_COORD97":190884.25,"N_COORD97":2583288.0699999998,"ADDRESS":"三民路１６５之２號","OBJECTID":545241},"geometry":{"x":190884.25,"y":2583288.070000004}},{"attributes":{"ID":545269,"DIS_CODE":0,"TOWNNAME":"白河區","LI":"外角里","LIN":"12鄰","STREET":"三民路","SECT":" ","MAREA":" ","LANE":" ","ALLEY":" ","HOUSE_NO":"１６５之３號","E_COORD97":190887.98000000001,"N_COORD97":2583273.1200000001,"ADDRESS":"三民路１６５之３號","OBJECTID":545242},"geometry":{"x":190887.98000000045,"y":2583273.1200000029}},{"attributes":{"ID":545270,"DIS_CODE":0,"TOWNNAME":"白河區","LI":"外角里","LIN":"12鄰","STREET":"三民路","SECT":" ","MAREA":" ","LANE":" ","ALLEY":" ","HOUSE_NO":"１６５之５號","E_COORD97":190886.38,"N_COORD97":2583265.1699999999,"ADDRESS":"三民路１６５之５號","OBJECTID":545243},"geometry":{"x":190886.37999999989,"y":2583265.1699999999}},{"attributes":{"ID":545271,"DIS_CODE":0,"TOWNNAME":"白河區","LI":"外角里","LIN":"12鄰","STREET":"三民路","SECT":" ","MAREA":" ","LANE":" ","ALLEY":" ","HOUSE_NO":"１６９號","E_COORD97":190866.81,"N_COORD97":2583289.8300000001,"ADDRESS":"三民路１６９號","OBJECTID":545244},"geometry":{"x":190866.80999999959,"y":2583289.8300000019}},{"attributes":{"ID":545272,"DIS_CODE":0,"TOWNNAME":"白河區","LI":"外角里","LIN":"12鄰","STREET":"三民路","SECT":" ","MAREA":" ","LANE":" ","ALLEY":" ","HOUSE_NO":"１７１號","E_COORD97":190863.26999999999,"N_COORD97":2583290.2400000002,"ADDRESS":"三民路１７１號","OBJECTID":545245},"geometry":{"x":190863.26999999955,"y":2583290.2400000039}},{"attributes":{"ID":545273,"DIS_CODE":0,"TOWNNAME":"白河區","LI":"外角里","LIN":"12鄰","STREET":"三民路","SECT":" ","MAREA":" ","LANE":" ","ALLEY":" ","HOUSE_NO":"１７３號","E_COORD97":190859.23000000001,"N_COORD97":2583290.4399999999,"ADDRESS":"三民路１７３號","OBJECTID":545246},"geometry":{"x":190859.23000000045,"y":2583290.4399999995}},{"attributes":{"ID":545274,"DIS_CODE":0,"TOWNNAME":"白河區","LI":"外角里","LIN":"12鄰","STREET":"三民路","SECT":" ","MAREA":" ","LANE":" ","ALLEY":" ","HOUSE_NO":"１７５號","E_COORD97":190855.42000000001,"N_COORD97":2583290.3100000001,"ADDRESS":"三民路１７５號","OBJECTID":545247},"geometry":{"x":190855.42000000086,"y":2583290.3100000042}},{"attributes":{"ID":545275,"DIS_CODE":0,"TOWNNAME":"白河區","LI":"外角里","LIN":"12鄰","STREET":"三民路","SECT":" ","MAREA":" ","LANE":" ","ALLEY":" ","HOUSE_NO":"１７７號","E_COORD97":190851.88,"N_COORD97":2583290.2799999998,"ADDRESS":"三民路１７７號","OBJECTID":545248},"geometry":{"x":190851.88000000082,"y":2583290.2800000012}},{"attributes":{"ID":545276,"DIS_CODE":0,"TOWNNAME":"白河區","LI":"外角里","LIN":"12鄰","STREET":"三民路","SECT":" ","MAREA":" ","LANE":" ","ALLEY":" ","HOUSE_NO":"１７９號","E_COORD97":190847.89999999999,"N_COORD97":2583290.2999999998,"ADDRESS":"三民路１７９號","OBJECTID":545249},"geometry":{"x":190847.90000000037,"y":2583290.3000000045}},{"attributes":{"ID":545277,"DIS_CODE":0,"TOWNNAME":"白河區","LI":"外角里","LIN":"12鄰","STREET":"三民路","SECT":" ","MAREA":" ","LANE":" ","ALLEY":" ","HOUSE_NO":"２０６號","E_COORD97":190884.12,"N_COORD97":2583306.1299999999,"ADDRESS":"三民路２０６號","OBJECTID":545250},"geometry":{"x":190884.12000000197,"y":2583306.129999999}},{"attributes":{"ID":545278,"DIS_CODE":0,"TOWNNAME":"白河區","LI":"外角里","LIN":"12鄰","STREET":"三民路","SECT":" ","MAREA":" ","LANE":" ","ALLEY":" ","HOUSE_NO":"２１０號","E_COORD97":190868.28,"N_COORD97":2583306.3100000001,"ADDRESS":"三民路２１０號","OBJECTID":545251},"geometry":{"x":190868.28000000119,"y":2583306.3100000005}},{"attributes":{"ID":545279,"DIS_CODE":0,"TOWNNAME":"白河區","LI":"外角里","LIN":"12鄰","STREET":"三民路","SECT":" ","MAREA":" ","LANE":" ","ALLEY":" ","HOUSE_NO":"２１２號","E_COORD97":190862.94,"N_COORD97":2583306.6499999999,"ADDRESS":"三民路２１２號","OBJECTID":545252},"geometry":{"x":190862.94000000041,"y":2583306.6500000004}},{"attributes":{"ID":545280,"DIS_CODE":0,"TOWNNAME":"白河區","LI":"外角里","LIN":"12鄰","STREET":"三民路","SECT":" ","MAREA":" ","LANE":" ","ALLEY":" ","HOUSE_NO":"２１４號","E_COORD97":190858.97,"N_COORD97":2583306.9900000002,"ADDRESS":"三民路２１４號","OBJECTID":545253},"geometry":{"x":190858.96999999974,"y":2583306.9900000021}},{"attributes":{"ID":545281,"DIS_CODE":0,"TOWNNAME":"白河區","LI":"外角里","LIN":"12鄰","STREET":"三民路","SECT":" ","MAREA":" ","LANE":" ","ALLEY":" ","HOUSE_NO":"２１６號","E_COORD97":190854.70999999999,"N_COORD97":2583307.46,"ADDRESS":"三民路２１６號","OBJECTID":545254},"geometry":{"x":190854.71000000089,"y":2583307.4600000028}},{"attributes":{"ID":545282,"DIS_CODE":0,"TOWNNAME":"白河區","LI":"外角里","LIN":"12鄰","STREET":"三民路","SECT":" ","MAREA":" ","LANE":" ","ALLEY":" ","HOUSE_NO":"２１８號","E_COORD97":190850.35000000001,"N_COORD97":2583307.7799999998,"ADDRESS":"三民路２１８號","OBJECTID":545255},"geometry":{"x":190850.35000000056,"y":2583307.7799999993}},{"attributes":{"ID":545283,"DIS_CODE":0,"TOWNNAME":"白河區","LI":"外角里","LIN":"12鄰","STREET":"三民路","SECT":" ","MAREA":" ","LANE":" ","ALLEY":" ","HOUSE_NO":"２２０號","E_COORD97":190846.04999999999,"N_COORD97":2583308.1499999999,"ADDRESS":"三民路２２０號","OBJECTID":545256},"geometry":{"x":190846.05000000075,"y":2583308.1500000041}},{"attributes":{"ID":545284,"DIS_CODE":0,"TOWNNAME":"永康區","LI":"\u25A0行里","LIN":"12鄰","STREET":"中正路","SECT":" ","MAREA":" ","LANE":" ","ALLEY":" ","HOUSE_NO":"５８１號","E_COORD97":171935.26000000001,"N_COORD97":2548941.4900000002,"ADDRESS":"中正路５８１號","OBJECTID":545257},"geometry":{"x":171935.25999999978,"y":2548941.4900000021}},{"attributes":{"ID":545285,"DIS_CODE":0,"TOWNNAME":"永康區","LI":"\u25A0行里","LIN":"12鄰","STREET":"中正路","SECT":" ","MAREA":" ","LANE":" ","ALLEY":" ","HOUSE_NO":"６２５號","E_COORD97":171863.62,"N_COORD97":2549012.3700000001,"ADDRESS":"中正路６２５號","OBJECTID":545258},"geometry":{"x":171863.62000000011,"y":2549012.370000001}},{"attributes":{"ID":545286,"DIS_CODE":0,"TOWNNAME":"永康區","LI":"\u25A0行里","LIN":"12鄰","STREET":"中正路","SECT":" ","MAREA":" ","LANE":" ","ALLEY":" ","HOUSE_NO":"６０１號","E_COORD97":171901.47,"N_COORD97":2548973.6499999999,"ADDRESS":"中正路６０１號","OBJECTID":545259},"geometry":{"x":171901.46999999974,"y":2548973.6500000041}},{"attributes":{"ID":545287,"DIS_CODE":0,"TOWNNAME":"永康區","LI":"\u25A0行里","LIN":"12鄰","STREET":"中正路","SECT":" ","MAREA":" ","LANE":" ","ALLEY":" ","HOUSE_NO":"６１７號","E_COORD97":171876.88,"N_COORD97":2548998.3100000001,"ADDRESS":"中正路６１７號","OBJECTID":545260},"geometry":{"x":171876.87999999989,"y":2548998.3100000005}},{"attributes":{"ID":545288,"DIS_CODE":0,"TOWNNAME":"永康區","LI":"\u25A0行里","LIN":"12鄰","STREET":"中正路","SECT":" ","MAREA":" ","LANE":" ","ALLEY":" ","HOUSE_NO":"５２９號","E_COORD97":171955.03,"N_COORD97":2548839.7400000002,"ADDRESS":"中正路５２９號","OBJECTID":545261},"geometry":{"x":171955.03000000119,"y":2548839.7400000002}},{"attributes":{"ID":545289,"DIS_CODE":0,"TOWNNAME":"永康區","LI":"\u25A0行里","LIN":"12鄰","STREET":"中正路","SECT":" ","MAREA":" ","LANE":" ","ALLEY":" ","HOUSE_NO":"５８５號","E_COORD97":171925.89000000001,"N_COORD97":2548947.3399999999,"ADDRESS":"中正路５８５號","OBJECTID":545262},"geometry":{"x":171925.88999999966,"y":2548947.3399999999}},{"attributes":{"ID":545290,"DIS_CODE":0,"TOWNNAME":"永康區","LI":"\u25A0行里","LIN":"12鄰","STREET":"中正路","SECT":" ","MAREA":" ","LANE":" ","ALLEY":" ","HOUSE_NO":"５３３號","E_COORD97":172005.73999999999,"N_COORD97":2548867.73,"ADDRESS":"中正路５３３號","OBJECTID":545263},"geometry":{"x":172005.74000000209,"y":2548867.7300000004}},{"attributes":{"ID":545291,"DIS_CODE":0,"TOWNNAME":"永康區","LI":"安康里","LIN":"12鄰","STREET":"中華路","SECT":" ","MAREA":" ","LANE":" ","ALLEY":" ","HOUSE_NO":"６１３號","E_COORD97":171080.32999999999,"N_COORD97":2546061.2400000002,"ADDRESS":"中華路６１３號","OBJECTID":545264},"geometry":{"x":171080.33000000007,"y":2546061.2400000021}},{"attributes":{"ID":545292,"DIS_CODE":0,"TOWNNAME":"永康區","LI":"\u25A0行里","LIN":"12鄰","STREET":"中正路","SECT":" ","MAREA":" ","LANE":" ","ALLEY":" ","HOUSE_NO":"５６５號","E_COORD97":171958.20999999999,"N_COORD97":2548918.21,"ADDRESS":"中正路５６５號","OBJECTID":545265},"geometry":{"x":171958.21000000183,"y":2548918.2100000009}},{"attributes":{"ID":545293,"DIS_CODE":0,"TOWNNAME":"永康區","LI":"永康里","LIN":"10鄰","STREET":"中山南路","SECT":" ","MAREA":" ","LANE":" ","ALLEY":" ","HOUSE_NO":"１０５８號","E_COORD97":173730.67999999999,"N_COORD97":2547302.6800000002,"ADDRESS":"中山南路１０５８號","OBJECTID":545266},"geometry":{"x":173730.6799999997,"y":2547302.6800000016}},{"attributes":{"ID":545294,"DIS_CODE":0,"TOWNNAME":"永康區","LI":"\u25A0行里","LIN":"12鄰","STREET":"中正路","SECT":" ","MAREA":" ","LANE":" ","ALLEY":" ","HOUSE_NO":"６０５號","E_COORD97":171894.48999999999,"N_COORD97":2548980.1499999999,"ADDRESS":"中正路６０５號","OBJECTID":545267},"geometry":{"x":171894.49000000115,"y":2548980.1499999985}},{"attributes":{"ID":545295,"DIS_CODE":0,"TOWNNAME":"永康區","LI":"\u25A0行里","LIN":"12鄰","STREET":"中正路","SECT":" ","MAREA":" ","LANE":" ","ALLEY":" ","HOUSE_NO":"６０７號","E_COORD97":171891.76999999999,"N_COORD97":2548982.6499999999,"ADDRESS":"中正路６０７號","OBJECTID":545268},"geometry":{"x":171891.77000000048,"y":2548982.6500000004}},{"attributes":{"ID":545296,"DIS_CODE":0,"TOWNNAME":"永康區","LI":"\u25A0行里","LIN":"12鄰","STREET":"中正路","SECT":" ","MAREA":" ","LANE":" ","ALLEY":" ","HOUSE_NO":"６３３號","E_COORD97":171852.45999999999,"N_COORD97":2549023.6200000001,"ADDRESS":"中正路６３３號","OBJECTID":545269},"geometry":{"x":171852.45999999996,"y":2549023.6200000029}},{"attributes":{"ID":545297,"DIS_CODE":0,"TOWNNAME":"永康區","LI":"\u25A0行里","LIN":"12鄰","STREET":"中正路","SECT":" ","MAREA":" ","LANE":" ","ALLEY":" ","HOUSE_NO":"５９７號","E_COORD97":171910.14999999999,"N_COORD97":2548965.3999999999,"ADDRESS":"中正路５９７號","OBJECTID":545270},"geometry":{"x":171910.1500000013,"y":2548965.4000000022}},{"attributes":{"ID":545298,"DIS_CODE":0,"TOWNNAME":"永康區","LI":"\u25A0行里","LIN":"12鄰","STREET":"中正路","SECT":" ","MAREA":" ","LANE":" ","ALLEY":" ","HOUSE_NO":"５９３號","E_COORD97":171913.29999999999,"N_COORD97":2548958.5899999999,"ADDRESS":"中正路５９３號","OBJECTID":545271},"geometry":{"x":171913.30000000168,"y":2548958.5899999999}},{"attributes":{"ID":545299,"DIS_CODE":0,"TOWNNAME":"永康區","LI":"\u25A0行里","LIN":"12鄰","STREET":"中正路","SECT":" ","MAREA":" ","LANE":" ","ALLEY":" ","HOUSE_NO":"５４９號","E_COORD97":171981.67000000001,"N_COORD97":2548891.6000000001,"ADDRESS":"中正路５４９號","OBJECTID":545272},"geometry":{"x":171981.66999999993,"y":2548891.5999999978}},{"attributes":{"ID":545300,"DIS_CODE":0,"TOWNNAME":"永康區","LI":"\u25A0行里","LIN":"12鄰","STREET":"中正路","SECT":" ","MAREA":" ","LANE":" ","ALLEY":" ","HOUSE_NO":"５８３號","E_COORD97":171928.47,"N_COORD97":2548944.3399999999,"ADDRESS":"中正路５８３號","OBJECTID":545273},"geometry":{"x":171928.46999999974,"y":2548944.3399999999}},{"attributes":{"ID":545301,"DIS_CODE":0,"TOWNNAME":"永康區","LI":"\u25A0行里","LIN":"12鄰","STREET":"中正路","SECT":" ","MAREA":" ","LANE":" ","ALLEY":" ","HOUSE_NO":"６２７號","E_COORD97":171860.91,"N_COORD97":2549015.3700000001,"ADDRESS":"中正路６２７號","OBJECTID":545274},"geometry":{"x":171860.91000000108,"y":2549015.370000001}},{"attributes":{"ID":545302,"DIS_CODE":0,"TOWNNAME":"永康區","LI":"\u25A0行里","LIN":"12鄰","STREET":"中正路","SECT":" ","MAREA":" ","LANE":" ","ALLEY":" ","HOUSE_NO":"６１５號","E_COORD97":171880.17999999999,"N_COORD97":2548995.5600000001,"ADDRESS":"中正路６１５號","OBJECTID":545275},"geometry":{"x":171880.18000000156,"y":2548995.5600000024}},{"attributes":{"ID":545303,"DIS_CODE":0,"TOWNNAME":"永康區","LI":"\u25A0行里","LIN":"12鄰","STREET":"中正路","SECT":" ","MAREA":" ","LANE":" ","ALLEY":" ","HOUSE_NO":"５３７號","E_COORD97":171998.57000000001,"N_COORD97":2548874.23,"ADDRESS":"中正路５３７號","OBJECTID":545276},"geometry":{"x":171998.57000000216,"y":2548874.2300000004}},{"attributes":{"ID":545304,"DIS_CODE":0,"TOWNNAME":"永康區","LI":"\u25A0行里","LIN":"12鄰","STREET":"中正路","SECT":" ","MAREA":" ","LANE":" ","ALLEY":" ","HOUSE_NO":"６２３號","E_COORD97":171866.32999999999,"N_COORD97":2549008.5600000001,"ADDRESS":"中正路６２３號","OBJECTID":545277},"geometry":{"x":171866.33000000101,"y":2549008.5600000024}},{"attributes":{"ID":545305,"DIS_CODE":0,"TOWNNAME":"安南區","LI":"佃西里","LIN":"12鄰","STREET":"公學路","SECT":"五段","MAREA":" ","LANE":" ","ALLEY":" ","HOUSE_NO":"１７１之７號","E_COORD97":164703.79000000001,"N_COORD97":2552091.5899999999,"ADDRESS":"公學路五段１７１之７號","OBJECTID":545278},"geometry":{"x":164703.79000000004,"y":2552091.5899999999}},{"attributes":{"ID":545306,"DIS_CODE":0,"TOWNNAME":"善化區","LI":"光文里","LIN":"12鄰","STREET":"民生路","SECT":" ","MAREA":" ","LANE":" ","ALLEY":" ","HOUSE_NO":"１００號","E_COORD97":178691.10000000001,"N_COORD97":2559005.0099999998,"ADDRESS":"民生路１００號","OBJECTID":545279},"geometry":{"x":178691.09999999963,"y":2559005.0099999998}},{"attributes":{"ID":545307,"DIS_CODE":0,"TOWNNAME":"善化區","LI":"光文里","LIN":"12鄰","STREET":"民生路","SECT":" ","MAREA":" ","LANE":" ","ALLEY":" ","HOUSE_NO":"１５５號","E_COORD97":178543.60000000001,"N_COORD97":2558964.2599999998,"ADDRESS":"民生路１５５號","OBJECTID":545280},"geometry":{"x":178543.59999999963,"y":2558964.2600000016}},{"attributes":{"ID":545308,"DIS_CODE":0,"TOWNNAME":"善化區","LI":"坐駕里","LIN":"12鄰","STREET":"大成路","SECT":" ","MAREA":" ","LANE":" ","ALLEY":" ","HOUSE_NO":"２４７號","E_COORD97":178260.20999999999,"N_COORD97":2558827,"ADDRESS":"大成路２４７號","OBJECTID":545281},"geometry":{"x":178260.20999999996,"y":2558827.0000000019}},{"attributes":{"ID":545309,"DIS_CODE":0,"TOWNNAME":"善化區","LI":"光文里","LIN":"12鄰","STREET":"民生路","SECT":" ","MAREA":" ","LANE":" ","ALLEY":" ","HOUSE_NO":"１０４號","E_COORD97":178682.12,"N_COORD97":2559003.5099999998,"ADDRESS":"民生路１０４號","OBJECTID":545282},"geometry":{"x":178682.12000000197,"y":2559003.5100000016}},{"attributes":{"ID":545310,"DIS_CODE":0,"TOWNNAME":"善化區","LI":"西關里","LIN":"12鄰","STREET":"光復路","SECT":" ","MAREA":" ","LANE":" ","ALLEY":" ","HOUSE_NO":"６２８號","E_COORD97":176770.35000000001,"N_COORD97":2559134.5099999998,"ADDRESS":"光復路６２８號","OBJECTID":545283},"geometry":{"x":176770.35000000056,"y":2559134.5099999998}},{"attributes":{"ID":545311,"DIS_CODE":0,"TOWNNAME":"善化區","LI":"光文里","LIN":"12鄰","STREET":"民生路","SECT":" ","MAREA":" ","LANE":" ","ALLEY":" ","HOUSE_NO":"１４７號","E_COORD97":178560.76000000001,"N_COORD97":2558967.0099999998,"ADDRESS":"民生路１４７號","OBJECTID":545284},"geometry":{"x":178560.76000000071,"y":2558967.0100000016}},{"attributes":{"ID":545312,"DIS_CODE":0,"TOWNNAME":"善化區","LI":"西關里","LIN":"12鄰","STREET":"光復路","SECT":" ","MAREA":" ","LANE":" ","ALLEY":" ","HOUSE_NO":"６３２號","E_COORD97":176769.67000000001,"N_COORD97":2559143.2599999998,"ADDRESS":"光復路６３２號","OBJECTID":545285},"geometry":{"x":176769.67000000086,"y":2559143.2600000035}},{"attributes":{"ID":545313,"DIS_CODE":0,"TOWNNAME":"善化區","LI":"西關里","LIN":"12鄰","STREET":"中山路","SECT":" ","MAREA":" ","LANE":" ","ALLEY":" ","HOUSE_NO":"５８７號","E_COORD97":176911.44,"N_COORD97":2559157,"ADDRESS":"中山路５８７號","OBJECTID":545286},"geometry":{"x":176911.44000000041,"y":2559157.0000000019}},{"attributes":{"ID":545314,"DIS_CODE":0,"TOWNNAME":"善化區","LI":"東關里","LIN":"12鄰","STREET":"中山路","SECT":" ","MAREA":" ","LANE":" ","ALLEY":" ","HOUSE_NO":"３８５號","E_COORD97":177412.76000000001,"N_COORD97":2559096.25,"ADDRESS":"中山路３８５號","OBJECTID":545287},"geometry":{"x":177412.76000000164,"y":2559096.2500000037}},{"attributes":{"ID":545315,"DIS_CODE":0,"TOWNNAME":"善化區","LI":"東關里","LIN":"12鄰","STREET":"中山路","SECT":" ","MAREA":" ","LANE":" ","ALLEY":" ","HOUSE_NO":"３９１號","E_COORD97":177400.47,"N_COORD97":2559097.25,"ADDRESS":"中山路３９１號","OBJECTID":545288},"geometry":{"x":177400.46999999974,"y":2559097.2500000019}},{"attributes":{"ID":545316,"DIS_CODE":0,"TOWNNAME":"善化區","LI":"南關里","LIN":"12鄰","STREET":"復興街","SECT":" ","MAREA":" ","LANE":" ","ALLEY":" ","HOUSE_NO":"５３號之５","E_COORD97":177003.01000000001,"N_COORD97":2559034.52,"ADDRESS":"復興街５３號之５","OBJECTID":545289},"geometry":{"x":177003.01000000071,"y":2559034.5200000014}},{"attributes":{"ID":545317,"DIS_CODE":0,"TOWNNAME":"善化區","LI":"南關里","LIN":"12鄰","STREET":"復興街","SECT":" ","MAREA":" ","LANE":" ","ALLEY":" ","HOUSE_NO":"５３號","E_COORD97":176990.88,"N_COORD97":2559018.2599999998,"ADDRESS":"復興街５３號","OBJECTID":545290},"geometry":{"x":176990.87999999989,"y":2559018.2600000016}},{"attributes":{"ID":545318,"DIS_CODE":0,"TOWNNAME":"善化區","LI":"坐駕里","LIN":"12鄰","STREET":"信義路","SECT":" ","MAREA":" ","LANE":" ","ALLEY":" ","HOUSE_NO":"８９號","E_COORD97":178268.25,"N_COORD97":2558796.75,"ADDRESS":"信義路８９號","OBJECTID":545291},"geometry":{"x":178268.25000000093,"y":2558796.75}},{"attributes":{"ID":545319,"DIS_CODE":0,"TOWNNAME":"善化區","LI":"東關里","LIN":"12鄰","STREET":"中山路","SECT":" ","MAREA":" ","LANE":" ","ALLEY":" ","HOUSE_NO":"３７９號","E_COORD97":177425.42000000001,"N_COORD97":2559095.75,"ADDRESS":"中山路３７９號","OBJECTID":545292},"geometry":{"x":177425.42000000179,"y":2559095.75}},{"attributes":{"ID":545320,"DIS_CODE":0,"TOWNNAME":"善化區","LI":"南關里","LIN":"12鄰","STREET":"復興街","SECT":" ","MAREA":" ","LANE":" ","ALLEY":" ","HOUSE_NO":"５３號之１","E_COORD97":176993.25,"N_COORD97":2559028.77,"ADDRESS":"復興街５３號之１","OBJECTID":545293},"geometry":{"x":176993.25000000093,"y":2559028.7700000014}},{"attributes":{"ID":545321,"DIS_CODE":0,"TOWNNAME":"善化區","LI":"南關里","LIN":"12鄰","STREET":"復興街","SECT":" ","MAREA":" ","LANE":" ","ALLEY":" ","HOUSE_NO":"５３號之２","E_COORD97":176997.64999999999,"N_COORD97":2559006.27,"ADDRESS":"復興街５３號之２","OBJECTID":545294},"geometry":{"x":176997.6500000013,"y":2559006.2699999996}},{"attributes":{"ID":545322,"DIS_CODE":0,"TOWNNAME":"善化區","LI":"坐駕里","LIN":"12鄰","STREET":"信義路","SECT":" ","MAREA":" ","LANE":" ","ALLEY":" ","HOUSE_NO":"８１號","E_COORD97":178269.67999999999,"N_COORD97":2558781.7400000002,"ADDRESS":"信義路８１號","OBJECTID":545295},"geometry":{"x":178269.68000000063,"y":2558781.7400000021}},{"attributes":{"ID":545323,"DIS_CODE":0,"TOWNNAME":"善化區","LI":"坐駕里","LIN":"12鄰","STREET":"大成路","SECT":" ","MAREA":" ","LANE":" ","ALLEY":" ","HOUSE_NO":"３２５號","E_COORD97":178073.26999999999,"N_COORD97":2558796.5,"ADDRESS":"大成路３２５號","OBJECTID":545296},"geometry":{"x":178073.26999999955,"y":2558796.5000000019}},{"attributes":{"ID":545324,"DIS_CODE":0,"TOWNNAME":"善化區","LI":"西關里","LIN":"12鄰","STREET":"自由路","SECT":" ","MAREA":" ","LANE":" ","ALLEY":" ","HOUSE_NO":"２５３號","E_COORD97":176848.54000000001,"N_COORD97":2559068,"ADDRESS":"自由路２５３號","OBJECTID":545297},"geometry":{"x":176848.54000000097,"y":2559068.0000000019}},{"attributes":{"ID":545325,"DIS_CODE":0,"TOWNNAME":"善化區","LI":"西關里","LIN":"12鄰","STREET":"自由路","SECT":" ","MAREA":" ","LANE":" ","ALLEY":" ","HOUSE_NO":"２４９號","E_COORD97":176849.32000000001,"N_COORD97":2559059,"ADDRESS":"自由路２４９號","OBJECTID":545298},"geometry":{"x":176849.3200000003,"y":2559059}},{"attributes":{"ID":545326,"DIS_CODE":0,"TOWNNAME":"善化區","LI":"西關里","LIN":"12鄰","STREET":"中山路","SECT":" ","MAREA":" ","LANE":" ","ALLEY":" ","HOUSE_NO":"５７３號之２","E_COORD97":176997.25,"N_COORD97":2559166.52,"ADDRESS":"中山路５７３號之２","OBJECTID":545299},"geometry":{"x":176997.25,"y":2559166.5200000014}},{"attributes":{"ID":545327,"DIS_CODE":0,"TOWNNAME":"善化區","LI":"西關里","LIN":"12鄰","STREET":"中山路","SECT":" ","MAREA":" ","LANE":" ","ALLEY":" ","HOUSE_NO":"５８３之２號","E_COORD97":176967.67999999999,"N_COORD97":2559174.02,"ADDRESS":"中山路５８３之２號","OBJECTID":545300},"geometry":{"x":176967.68000000063,"y":2559174.0199999996}},{"attributes":{"ID":545328,"DIS_CODE":0,"TOWNNAME":"善化區","LI":"西關里","LIN":"12鄰","STREET":"光復路","SECT":" ","MAREA":" ","LANE":" ","ALLEY":" ","HOUSE_NO":"６０２號","E_COORD97":176774.10999999999,"N_COORD97":2559072.2599999998,"ADDRESS":"光復路６０２號","OBJECTID":545301},"geometry":{"x":176774.11000000127,"y":2559072.2600000035}},{"attributes":{"ID":545329,"DIS_CODE":0,"TOWNNAME":"善化區","LI":"光文里","LIN":"12鄰","STREET":"大成路","SECT":" ","MAREA":" ","LANE":" ","ALLEY":" ","HOUSE_NO":"１４６號","E_COORD97":178516.45999999999,"N_COORD97":2558901.75,"ADDRESS":"大成路１４６號","OBJECTID":545302},"geometry":{"x":178516.45999999996,"y":2558901.75}},{"attributes":{"ID":545330,"DIS_CODE":0,"TOWNNAME":"善化區","LI":"光文里","LIN":"12鄰","STREET":"民生路","SECT":" ","MAREA":" ","LANE":" ","ALLEY":" ","HOUSE_NO":"１４３號","E_COORD97":178569.35000000001,"N_COORD97":2558968.2599999998,"ADDRESS":"民生路１４３號","OBJECTID":545303},"geometry":{"x":178569.34999999963,"y":2558968.2600000016}},{"attributes":{"ID":545331,"DIS_CODE":0,"TOWNNAME":"善化區","LI":"光文里","LIN":"12鄰","STREET":"民生路","SECT":" ","MAREA":" ","LANE":" ","ALLEY":" ","HOUSE_NO":"１３１號","E_COORD97":178595.10000000001,"N_COORD97":2558972.2599999998,"ADDRESS":"民生路１３１號","OBJECTID":545304},"geometry":{"x":178595.09999999963,"y":2558972.2599999998}},{"attributes":{"ID":545332,"DIS_CODE":0,"TOWNNAME":"善化區","LI":"光文里","LIN":"12鄰","STREET":"大成路","SECT":" ","MAREA":" ","LANE":" ","ALLEY":" ","HOUSE_NO":"６６號","E_COORD97":178763.29999999999,"N_COORD97":2558946,"ADDRESS":"大成路６６號","OBJECTID":545305},"geometry":{"x":178763.29999999981,"y":2558946.0000000019}},{"attributes":{"ID":545333,"DIS_CODE":0,"TOWNNAME":"善化區","LI":"光文里","LIN":"12鄰","STREET":"大成路","SECT":" ","MAREA":" ","LANE":" ","ALLEY":" ","HOUSE_NO":"１１６號之２","E_COORD97":178590.39999999999,"N_COORD97":2558938.27,"ADDRESS":"大成路１１６號之２","OBJECTID":545306},"geometry":{"x":178590.40000000037,"y":2558938.2699999996}},{"attributes":{"ID":545334,"DIS_CODE":0,"TOWNNAME":"善化區","LI":"光文里","LIN":"12鄰","STREET":"民生路","SECT":" ","MAREA":" ","LANE":" ","ALLEY":" ","HOUSE_NO":"９９號","E_COORD97":178696.91,"N_COORD97":2558988.5099999998,"ADDRESS":"民生路９９號","OBJECTID":545307},"geometry":{"x":178696.91000000015,"y":2558988.5099999998}},{"attributes":{"ID":545335,"DIS_CODE":0,"TOWNNAME":"善化區","LI":"光文里","LIN":"12鄰","STREET":"民生路","SECT":" ","MAREA":" ","LANE":" ","ALLEY":" ","HOUSE_NO":"７７號","E_COORD97":178744.85000000001,"N_COORD97":2558992.2599999998,"ADDRESS":"民生路７７號","OBJECTID":545308},"geometry":{"x":178744.85000000056,"y":2558992.2600000016}},{"attributes":{"ID":545336,"DIS_CODE":0,"TOWNNAME":"善化區","LI":"光文里","LIN":"12鄰","STREET":"民生路","SECT":" ","MAREA":" ","LANE":" ","ALLEY":" ","HOUSE_NO":"８２號","E_COORD97":178726.87,"N_COORD97":2559014.7599999998,"ADDRESS":"民生路８２號","OBJECTID":545309},"geometry":{"x":178726.87000000104,"y":2559014.7600000035}},{"attributes":{"ID":545337,"DIS_CODE":0,"TOWNNAME":"善化區","LI":"光文里","LIN":"12鄰","STREET":"民生路","SECT":" ","MAREA":" ","LANE":" ","ALLEY":" ","HOUSE_NO":"１０５號","E_COORD97":178685.01000000001,"N_COORD97":2558986.5099999998,"ADDRESS":"民生路１０５號","OBJECTID":545310},"geometry":{"x":178685.01000000071,"y":2558986.5100000016}},{"attributes":{"ID":545338,"DIS_CODE":0,"TOWNNAME":"善化區","LI":"光文里","LIN":"12鄰","STREET":"大成路","SECT":" ","MAREA":" ","LANE":" ","ALLEY":" ","HOUSE_NO":"５２號","E_COORD97":178798.73000000001,"N_COORD97":2558947,"ADDRESS":"大成路５２號","OBJECTID":545311},"geometry":{"x":178798.73000000231,"y":2558947}},{"attributes":{"ID":545339,"DIS_CODE":0,"TOWNNAME":"善化區","LI":"西關里","LIN":"12鄰","STREET":"中山路","SECT":" ","MAREA":" ","LANE":" ","ALLEY":" ","HOUSE_NO":"５９１號","E_COORD97":176931.89000000001,"N_COORD97":2559127.5,"ADDRESS":"中山路５９１號","OBJECTID":545312},"geometry":{"x":176931.88999999966,"y":2559127.5}},{"attributes":{"ID":545340,"DIS_CODE":0,"TOWNNAME":"善化區","LI":"西關里","LIN":"12鄰","STREET":"中山路","SECT":" ","MAREA":" ","LANE":" ","ALLEY":" ","HOUSE_NO":"５８３之３號","E_COORD97":176963.20999999999,"N_COORD97":2559175.27,"ADDRESS":"中山路５８３之３號","OBJECTID":545313},"geometry":{"x":176963.21000000089,"y":2559175.2699999996}},{"attributes":{"ID":545341,"DIS_CODE":0,"TOWNNAME":"善化區","LI":"坐駕里","LIN":"12鄰","STREET":"大成路","SECT":" ","MAREA":" ","LANE":" ","ALLEY":" ","HOUSE_NO":"３５７號","E_COORD97":177968,"N_COORD97":2558783,"ADDRESS":"大成路３５７號","OBJECTID":545314},"geometry":{"x":177968.00000000093,"y":2558783.0000000019}},{"attributes":{"ID":545342,"DIS_CODE":0,"TOWNNAME":"善化區","LI":"西關里","LIN":"12鄰","STREET":"中山路","SECT":" ","MAREA":" ","LANE":" ","ALLEY":" ","HOUSE_NO":"５８５號之７","E_COORD97":176904.04999999999,"N_COORD97":2559182.77,"ADDRESS":"中山路５８５號之７","OBJECTID":545315},"geometry":{"x":176904.05000000168,"y":2559182.7699999996}},{"attributes":{"ID":545343,"DIS_CODE":0,"TOWNNAME":"善化區","LI":"西關里","LIN":"12鄰","STREET":"中山路","SECT":" ","MAREA":" ","LANE":" ","ALLEY":" ","HOUSE_NO":"５９９之３號","E_COORD97":176771.82999999999,"N_COORD97":2559193.02,"ADDRESS":"中山路５９９之３號","OBJECTID":545316},"geometry":{"x":176771.83000000194,"y":2559193.0200000014}},{"attributes":{"ID":545344,"DIS_CODE":0,"TOWNNAME":"善化區","LI":"光文里","LIN":"12鄰","STREET":"大成路","SECT":" ","MAREA":" ","LANE":" ","ALLEY":" ","HOUSE_NO":"１１８號","E_COORD97":178589.10000000001,"N_COORD97":2558910.75,"ADDRESS":"大成路１１８號","OBJECTID":545317},"geometry":{"x":178589.10000000056,"y":2558910.7500000019}},{"attributes":{"ID":545345,"DIS_CODE":0,"TOWNNAME":"善化區","LI":"光文里","LIN":"12鄰","STREET":"民生路","SECT":" ","MAREA":" ","LANE":" ","ALLEY":" ","HOUSE_NO":"１２９號","E_COORD97":178599.35000000001,"N_COORD97":2558973.0099999998,"ADDRESS":"民生路１２９號","OBJECTID":545318},"geometry":{"x":178599.35000000056,"y":2558973.0100000016}},{"attributes":{"ID":545346,"DIS_CODE":0,"TOWNNAME":"善化區","LI":"光文里","LIN":"12鄰","STREET":"大成路","SECT":" ","MAREA":" ","LANE":" ","ALLEY":" ","HOUSE_NO":"１４２號","E_COORD97":178537.26999999999,"N_COORD97":2558902.75,"ADDRESS":"大成路１４２號","OBJECTID":545319},"geometry":{"x":178537.26999999955,"y":2558902.7499999981}},{"attributes":{"ID":545347,"DIS_CODE":0,"TOWNNAME":"善化區","LI":"坐駕里","LIN":"12鄰","STREET":"大成路","SECT":" ","MAREA":" ","LANE":" ","ALLEY":" ","HOUSE_NO":"２６３號","E_COORD97":178248.26999999999,"N_COORD97":2558823.5,"ADDRESS":"大成路２６３號","OBJECTID":545320},"geometry":{"x":178248.27000000142,"y":2558823.5000000037}},{"attributes":{"ID":545348,"DIS_CODE":0,"TOWNNAME":"善化區","LI":"西關里","LIN":"12鄰","STREET":"中山路","SECT":" ","MAREA":" ","LANE":" ","ALLEY":" ","HOUSE_NO":"５７３號","E_COORD97":176990.14000000001,"N_COORD97":2559169.5,"ADDRESS":"中山路５７３號","OBJECTID":545321},"geometry":{"x":176990.1400000006,"y":2559169.5000000019}},{"attributes":{"ID":545349,"DIS_CODE":0,"TOWNNAME":"善化區","LI":"光文里","LIN":"12鄰","STREET":"大成路","SECT":" ","MAREA":" ","LANE":" ","ALLEY":" ","HOUSE_NO":"６２號","E_COORD97":178773.70999999999,"N_COORD97":2558948.75,"ADDRESS":"大成路６２號","OBJECTID":545322},"geometry":{"x":178773.71000000089,"y":2558948.75}},{"attributes":{"ID":545350,"DIS_CODE":0,"TOWNNAME":"善化區","LI":"西關里","LIN":"12鄰","STREET":"中山路","SECT":" ","MAREA":" ","LANE":" ","ALLEY":" ","HOUSE_NO":"５８３之１號","E_COORD97":176972.28,"N_COORD97":2559172.52,"ADDRESS":"中山路５８３之１號","OBJECTID":545323},"geometry":{"x":176972.28000000026,"y":2559172.5200000014}},{"attributes":{"ID":545351,"DIS_CODE":0,"TOWNNAME":"善化區","LI":"西關里","LIN":"12鄰","STREET":"光復路","SECT":" ","MAREA":" ","LANE":" ","ALLEY":" ","HOUSE_NO":"６１０號","E_COORD97":176772.81,"N_COORD97":2559094.7599999998,"ADDRESS":"光復路６１０號","OBJECTID":545324},"geometry":{"x":176772.80999999959,"y":2559094.7599999998}},{"attributes":{"ID":545352,"DIS_CODE":0,"TOWNNAME":"善化區","LI":"光文里","LIN":"12鄰","STREET":"大成路","SECT":" ","MAREA":" ","LANE":" ","ALLEY":" ","HOUSE_NO":"９４號","E_COORD97":178639.91,"N_COORD97":2558918.75,"ADDRESS":"大成路９４號","OBJECTID":545325},"geometry":{"x":178639.91000000108,"y":2558918.75}},{"attributes":{"ID":545353,"DIS_CODE":0,"TOWNNAME":"善化區","LI":"光文里","LIN":"12鄰","STREET":"民生路","SECT":" ","MAREA":" ","LANE":" ","ALLEY":" ","HOUSE_NO":"７６號","E_COORD97":178740.26999999999,"N_COORD97":2559016.7599999998,"ADDRESS":"民生路７６號","OBJECTID":545326},"geometry":{"x":178740.27000000048,"y":2559016.7599999998}},{"attributes":{"ID":545354,"DIS_CODE":0,"TOWNNAME":"善化區","LI":"坐駕里","LIN":"12鄰","STREET":"大成路","SECT":" ","MAREA":" ","LANE":" ","ALLEY":" ","HOUSE_NO":"２８９號","E_COORD97":178167.29000000001,"N_COORD97":2558812,"ADDRESS":"大成路２８９號","OBJECTID":545327},"geometry":{"x":178167.2900000019,"y":2558812}},{"attributes":{"ID":545355,"DIS_CODE":0,"TOWNNAME":"善化區","LI":"西關里","LIN":"12鄰","STREET":"光復路","SECT":" ","MAREA":" ","LANE":" ","ALLEY":" ","HOUSE_NO":"６１４號","E_COORD97":176772.14999999999,"N_COORD97":2559103.7599999998,"ADDRESS":"光復路６１４號","OBJECTID":545328},"geometry":{"x":176772.1500000013,"y":2559103.7600000016}},{"attributes":{"ID":545356,"DIS_CODE":0,"TOWNNAME":"善化區","LI":"光文里","LIN":"12鄰","STREET":"民生路","SECT":" ","MAREA":" ","LANE":" ","ALLEY":" ","HOUSE_NO":"８３號","E_COORD97":178732.78,"N_COORD97":2558990.7599999998,"ADDRESS":"民生路８３號","OBJECTID":545329},"geometry":{"x":178732.78000000119,"y":2558990.7600000035}},{"attributes":{"ID":545357,"DIS_CODE":0,"TOWNNAME":"善化區","LI":"光文里","LIN":"12鄰","STREET":"民生路","SECT":" ","MAREA":" ","LANE":" ","ALLEY":" ","HOUSE_NO":"１５１號","E_COORD97":178552.19,"N_COORD97":2558965.5099999998,"ADDRESS":"民生路１５１號","OBJECTID":545330},"geometry":{"x":178552.19000000134,"y":2558965.5100000035}},{"attributes":{"ID":545358,"DIS_CODE":0,"TOWNNAME":"善化區","LI":"光文里","LIN":"12鄰","STREET":"四維路","SECT":" ","MAREA":" ","LANE":" ","ALLEY":" ","HOUSE_NO":"８２號","E_COORD97":178793.98999999999,"N_COORD97":2559003.25,"ADDRESS":"四維路８２號","OBJECTID":545331},"geometry":{"x":178793.99000000115,"y":2559003.25}},{"attributes":{"ID":545359,"DIS_CODE":0,"TOWNNAME":"善化區","LI":"光文里","LIN":"12鄰","STREET":"民生路","SECT":" ","MAREA":" ","LANE":" ","ALLEY":" ","HOUSE_NO":"１１１號","E_COORD97":178672.54999999999,"N_COORD97":2558984.2599999998,"ADDRESS":"民生路１１１號","OBJECTID":545332},"geometry":{"x":178672.55000000075,"y":2558984.2600000035}},{"attributes":{"ID":545360,"DIS_CODE":0,"TOWNNAME":"善化區","LI":"光文里","LIN":"12鄰","STREET":"民生路","SECT":" ","MAREA":" ","LANE":" ","ALLEY":" ","HOUSE_NO":"１３７號","E_COORD97":178582.19,"N_COORD97":2558970.2599999998,"ADDRESS":"民生路１３７號","OBJECTID":545333},"geometry":{"x":178582.19000000134,"y":2558970.2599999979}},{"attributes":{"ID":545361,"DIS_CODE":0,"TOWNNAME":"善化區","LI":"光文里","LIN":"12鄰","STREET":"四維路","SECT":" ","MAREA":" ","LANE":" ","ALLEY":" ","HOUSE_NO":"７８號","E_COORD97":178795.35999999999,"N_COORD97":2558992.25,"ADDRESS":"四維路７８號","OBJECTID":545334},"geometry":{"x":178795.36000000034,"y":2558992.2500000019}},{"attributes":{"ID":545362,"DIS_CODE":0,"TOWNNAME":"善化區","LI":"光文里","LIN":"12鄰","STREET":"民生路","SECT":" ","MAREA":" ","LANE":" ","ALLEY":" ","HOUSE_NO":"７８號","E_COORD97":178736.04000000001,"N_COORD97":2559016.0099999998,"ADDRESS":"民生路７８號","OBJECTID":545335},"geometry":{"x":178736.04000000004,"y":2559016.0099999979}},{"attributes":{"ID":545363,"DIS_CODE":0,"TOWNNAME":"善化區","LI":"光文里","LIN":"12鄰","STREET":"大成路","SECT":" ","MAREA":" ","LANE":" ","ALLEY":" ","HOUSE_NO":"１３２號","E_COORD97":178558.88,"N_COORD97":2558906.25,"ADDRESS":"大成路１３２號","OBJECTID":545336},"geometry":{"x":178558.88000000082,"y":2558906.2500000037}},{"attributes":{"ID":545364,"DIS_CODE":0,"TOWNNAME":"善化區","LI":"光文里","LIN":"12鄰","STREET":"大成路","SECT":" ","MAREA":" ","LANE":" ","ALLEY":" ","HOUSE_NO":"１３０號","E_COORD97":178563.19,"N_COORD97":2558906.75,"ADDRESS":"大成路１３０號","OBJECTID":545337},"geometry":{"x":178563.18999999948,"y":2558906.7500000019}},{"attributes":{"ID":545365,"DIS_CODE":0,"TOWNNAME":"善化區","LI":"西關里","LIN":"12鄰","STREET":"中山路","SECT":" ","MAREA":" ","LANE":" ","ALLEY":" ","HOUSE_NO":"５９７號之４","E_COORD97":176823.51000000001,"N_COORD97":2559200.27,"ADDRESS":"中山路５９７號之４","OBJECTID":545338},"geometry":{"x":176823.51000000071,"y":2559200.2699999996}},{"attributes":{"ID":545366,"DIS_CODE":0,"TOWNNAME":"善化區","LI":"光文里","LIN":"12鄰","STREET":"四維路","SECT":" ","MAREA":" ","LANE":" ","ALLEY":" ","HOUSE_NO":"７６號","E_COORD97":178796.09,"N_COORD97":2558987.25,"ADDRESS":"四維路７６號","OBJECTID":545339},"geometry":{"x":178796.09000000078,"y":2558987.25}},{"attributes":{"ID":545367,"DIS_CODE":0,"TOWNNAME":"善化區","LI":"光文里","LIN":"12鄰","STREET":"大成路","SECT":" ","MAREA":" ","LANE":" ","ALLEY":" ","HOUSE_NO":"１１４號之１","E_COORD97":178594.98999999999,"N_COORD97":2558939.02,"ADDRESS":"大成路１１４號之１","OBJECTID":545340},"geometry":{"x":178594.99000000209,"y":2558939.0200000014}},{"attributes":{"ID":545368,"DIS_CODE":0,"TOWNNAME":"善化區","LI":"光文里","LIN":"12鄰","STREET":"民生路","SECT":" ","MAREA":" ","LANE":" ","ALLEY":" ","HOUSE_NO":"１６３號","E_COORD97":178487.95999999999,"N_COORD97":2558956.7599999998,"ADDRESS":"民生路１６３號","OBJECTID":545341},"geometry":{"x":178487.95999999903,"y":2558956.7600000035}},{"attributes":{"ID":545369,"DIS_CODE":0,"TOWNNAME":"善化區","LI":"光文里","LIN":"12鄰","STREET":"民生路","SECT":" ","MAREA":" ","LANE":" ","ALLEY":" ","HOUSE_NO":"１５７號","E_COORD97":178539.32000000001,"N_COORD97":2558963.5099999998,"ADDRESS":"民生路１５７號","OBJECTID":545342},"geometry":{"x":178539.32000000123,"y":2558963.5100000016}},{"attributes":{"ID":545370,"DIS_CODE":0,"TOWNNAME":"善化區","LI":"西關里","LIN":"12鄰","STREET":"光復路","SECT":" ","MAREA":" ","LANE":" ","ALLEY":" ","HOUSE_NO":"６２６號","E_COORD97":176770.56,"N_COORD97":2559130.2599999998,"ADDRESS":"光復路６２６號","OBJECTID":545343},"geometry":{"x":176770.56000000052,"y":2559130.2600000016}},{"attributes":{"ID":545371,"DIS_CODE":0,"TOWNNAME":"永康區","LI":"新樹里","LIN":"12鄰","STREET":"富強路","SECT":"二段","MAREA":" ","LANE":" ","ALLEY":" ","HOUSE_NO":"７１號","E_COORD97":175670.39999999999,"N_COORD97":2546952.2999999998,"ADDRESS":"富強路二段７１號","OBJECTID":545344},"geometry":{"x":175670.4000000013,"y":2546952.3000000045}},{"attributes":{"ID":545372,"DIS_CODE":0,"TOWNNAME":"永康區","LI":"新樹里","LIN":"12鄰","STREET":"富強路","SECT":"二段","MAREA":" ","LANE":" ","ALLEY":" ","HOUSE_NO":"１３７號","E_COORD97":175627.04000000001,"N_COORD97":2547109.3500000001,"ADDRESS":"富強路二段１３７號","OBJECTID":545345},"geometry":{"x":175627.04000000004,"y":2547109.3499999996}},{"attributes":{"ID":545373,"DIS_CODE":0,"TOWNNAME":"永康區","LI":"新樹里","LIN":"12鄰","STREET":"富強路","SECT":"二段","MAREA":" ","LANE":" ","ALLEY":" ","HOUSE_NO":"９９號","E_COORD97":175653.67999999999,"N_COORD97":2547007.6200000001,"ADDRESS":"富強路二段９９號","OBJECTID":545346},"geometry":{"x":175653.68000000156,"y":2547007.620000001}},{"attributes":{"ID":545374,"DIS_CODE":0,"TOWNNAME":"永康區","LI":"龍潭里","LIN":"12鄰","STREET":"龍橋街","SECT":" ","MAREA":" ","LANE":" ","ALLEY":" ","HOUSE_NO":"４１號","E_COORD97":174814.98999999999,"N_COORD97":2548372.8199999998,"ADDRESS":"龍橋街４１號","OBJECTID":545347},"geometry":{"x":174814.99000000115,"y":2548372.8200000022}},{"attributes":{"ID":545375,"DIS_CODE":0,"TOWNNAME":"東區","LI":"龍山里","LIN":"12鄰","STREET":"東門路","SECT":"一段","MAREA":" ","LANE":" ","ALLEY":" ","HOUSE_NO":"３３８號","E_COORD97":169793.51999999999,"N_COORD97":2543007.9900000002,"ADDRESS":"東門路一段３３８號","OBJECTID":545348},"geometry":{"x":169793.51999999955,"y":2543007.9900000021}},{"attributes":{"ID":545376,"DIS_CODE":0,"TOWNNAME":"安南區","LI":"淵東里","LIN":"12鄰","STREET":"海佃路","SECT":"四段","MAREA":" ","LANE":" ","ALLEY":" ","HOUSE_NO":"５９號","E_COORD97":165672.79000000001,"N_COORD97":2550610.0699999998,"ADDRESS":"海佃路四段５９號","OBJECTID":545349},"geometry":{"x":165672.79000000097,"y":2550610.0700000003}},{"attributes":{"ID":545377,"DIS_CODE":0,"TOWNNAME":"東區","LI":"崇文里","LIN":"12鄰","STREET":"崇德十八街","SECT":" ","MAREA":" ","LANE":" ","ALLEY":" ","HOUSE_NO":"１０２號","E_COORD97":171075.84,"N_COORD97":2541016.2999999998,"ADDRESS":"崇德十八街１０２號","OBJECTID":545350},"geometry":{"x":171075.84000000171,"y":2541016.3000000026}},{"attributes":{"ID":545378,"DIS_CODE":0,"TOWNNAME":"東區","LI":"崇文里","LIN":"12鄰","STREET":"崇德十八街","SECT":" ","MAREA":" ","LANE":" ","ALLEY":" ","HOUSE_NO":"１０４號","E_COORD97":171082.31,"N_COORD97":2541023.2599999998,"ADDRESS":"崇德十八街１０４號","OBJECTID":545351},"geometry":{"x":171082.30999999866,"y":2541023.2600000016}},{"attributes":{"ID":545379,"DIS_CODE":0,"TOWNNAME":"東區","LI":"崇文里","LIN":"12鄰","STREET":"崇德十八街","SECT":" ","MAREA":" ","LANE":" ","ALLEY":" ","HOUSE_NO":"１０６號","E_COORD97":171084.5,"N_COORD97":2541015.6000000001,"ADDRESS":"崇德十八街１０６號","OBJECTID":545352},"geometry":{"x":171084.5,"y":2541015.5999999996}},{"attributes":{"ID":545380,"DIS_CODE":0,"TOWNNAME":"東區","LI":"崇文里","LIN":"12鄰","STREET":"崇德十八街","SECT":" ","MAREA":" ","LANE":" ","ALLEY":" ","HOUSE_NO":"１０８號","E_COORD97":171099.63,"N_COORD97":2541021.5699999998,"ADDRESS":"崇德十八街１０８號","OBJECTID":545353},"geometry":{"x":171099.63000000082,"y":2541021.5700000022}},{"attributes":{"ID":545381,"DIS_CODE":0,"TOWNNAME":"東區","LI":"崇文里","LIN":"12鄰","STREET":"崇德十八街","SECT":" ","MAREA":" ","LANE":" ","ALLEY":" ","HOUSE_NO":"１１０號","E_COORD97":171097.73999999999,"N_COORD97":2541029.1299999999,"ADDRESS":"崇德十八街１１０號","OBJECTID":545354},"geometry":{"x":171097.74000000115,"y":2541029.1300000008}},{"attributes":{"ID":545382,"DIS_CODE":0,"TOWNNAME":"東區","LI":"崇文里","LIN":"12鄰","STREET":"崇德十八街","SECT":" ","MAREA":" ","LANE":" ","ALLEY":" ","HOUSE_NO":"８８號","E_COORD97":171036.95999999999,"N_COORD97":2541014.0899999999,"ADDRESS":"崇德十八街８８號","OBJECTID":545355},"geometry":{"x":171036.95999999996,"y":2541014.0900000017}},{"attributes":{"ID":545383,"DIS_CODE":0,"TOWNNAME":"東區","LI":"崇文里","LIN":"12鄰","STREET":"崇德十八街","SECT":" ","MAREA":" ","LANE":" ","ALLEY":" ","HOUSE_NO":"９０號","E_COORD97":171043.07000000001,"N_COORD97":2541012.3900000001,"ADDRESS":"崇德十八街９０號","OBJECTID":545356},"geometry":{"x":171043.07000000123,"y":2541012.3900000025}},{"attributes":{"ID":545384,"DIS_CODE":0,"TOWNNAME":"東區","LI":"崇文里","LIN":"12鄰","STREET":"崇德十八街","SECT":" ","MAREA":" ","LANE":" ","ALLEY":" ","HOUSE_NO":"９６號","E_COORD97":171055.85999999999,"N_COORD97":2541012.9199999999,"ADDRESS":"崇德十八街９６號","OBJECTID":545357},"geometry":{"x":171055.8600000022,"y":2541012.9199999999}},{"attributes":{"ID":545385,"DIS_CODE":0,"TOWNNAME":"東區","LI":"崇成里","LIN":"12鄰","STREET":"崇明十五街","SECT":" ","MAREA":" ","LANE":" ","ALLEY":" ","HOUSE_NO":"１６號","E_COORD97":170683.25,"N_COORD97":2541334.1299999999,"ADDRESS":"崇明十五街１６號","OBJECTID":545358},"geometry":{"x":170683.25000000186,"y":2541334.1300000008}},{"attributes":{"ID":545386,"DIS_CODE":0,"TOWNNAME":"東區","LI":"崇成里","LIN":"12鄰","STREET":"崇明十五街","SECT":" ","MAREA":" ","LANE":" ","ALLEY":" ","HOUSE_NO":"２８號","E_COORD97":170706.67000000001,"N_COORD97":2541343.3500000001,"ADDRESS":"崇明十五街２８號","OBJECTID":545359},"geometry":{"x":170706.66999999993,"y":2541343.3500000034}},{"attributes":{"ID":545387,"DIS_CODE":0,"TOWNNAME":"東區","LI":"崇成里","LIN":"12鄰","STREET":"崇明十五街","SECT":" ","MAREA":" ","LANE":" ","ALLEY":" ","HOUSE_NO":"３２號","E_COORD97":170714.04000000001,"N_COORD97":2541341.6800000002,"ADDRESS":"崇明十五街３２號","OBJECTID":545360},"geometry":{"x":170714.04000000097,"y":2541341.6800000016}},{"attributes":{"ID":545388,"DIS_CODE":0,"TOWNNAME":"東區","LI":"崇成里","LIN":"12鄰","STREET":"崇明十五街","SECT":" ","MAREA":" ","LANE":" ","ALLEY":" ","HOUSE_NO":"３４號","E_COORD97":170717.20999999999,"N_COORD97":2541342.6800000002,"ADDRESS":"崇明十五街３４號","OBJECTID":545361},"geometry":{"x":170717.20999999903,"y":2541342.6799999997}},{"attributes":{"ID":545389,"DIS_CODE":0,"TOWNNAME":"東區","LI":"崇成里","LIN":"12鄰","STREET":"崇明十五街","SECT":" ","MAREA":" ","LANE":" ","ALLEY":" ","HOUSE_NO":"３６號","E_COORD97":170721.04000000001,"N_COORD97":2541342.6800000002,"ADDRESS":"崇明十五街３６號","OBJECTID":545362},"geometry":{"x":170721.04000000097,"y":2541342.6799999997}},{"attributes":{"ID":545390,"DIS_CODE":0,"TOWNNAME":"東區","LI":"崇成里","LIN":"12鄰","STREET":"崇明十五街","SECT":" ","MAREA":" ","LANE":" ","ALLEY":" ","HOUSE_NO":"３８號","E_COORD97":170725.20999999999,"N_COORD97":2541343.02,"ADDRESS":"崇明十五街３８號","OBJECTID":545363},"geometry":{"x":170725.20999999996,"y":2541343.0200000014}},{"attributes":{"ID":545391,"DIS_CODE":0,"TOWNNAME":"東區","LI":"崇成里","LIN":"12鄰","STREET":"崇明十五街","SECT":" ","MAREA":" ","LANE":" ","ALLEY":" ","HOUSE_NO":"４０號","E_COORD97":170725.70999999999,"N_COORD97":2541334.8500000001,"ADDRESS":"崇明十五街４０號","OBJECTID":545364},"geometry":{"x":170725.70999999903,"y":2541334.8499999996}},{"attributes":{"ID":545392,"DIS_CODE":0,"TOWNNAME":"東區","LI":"崇成里","LIN":"12鄰","STREET":"崇明十五街","SECT":" ","MAREA":" ","LANE":" ","ALLEY":" ","HOUSE_NO":"４４號","E_COORD97":170730.54999999999,"N_COORD97":2541343.02,"ADDRESS":"崇明十五街４４號","OBJECTID":545365},"geometry":{"x":170730.55000000075,"y":2541343.0200000014}},{"attributes":{"ID":545393,"DIS_CODE":0,"TOWNNAME":"東區","LI":"崇成里","LIN":"12鄰","STREET":"崇明十五街","SECT":" ","MAREA":" ","LANE":" ","ALLEY":" ","HOUSE_NO":"４８號","E_COORD97":170742.57000000001,"N_COORD97":2541336.52,"ADDRESS":"崇明十五街４８號","OBJECTID":545366},"geometry":{"x":170742.57000000123,"y":2541336.5200000014}},{"attributes":{"ID":545394,"DIS_CODE":0,"TOWNNAME":"東區","LI":"崇成里","LIN":"12鄰","STREET":"崇明十五街","SECT":" ","MAREA":" ","LANE":" ","ALLEY":" ","HOUSE_NO":"４號","E_COORD97":170641.38,"N_COORD97":2541328.3399999999,"ADDRESS":"崇明十五街４號","OBJECTID":545367},"geometry":{"x":170641.37999999896,"y":2541328.3399999999}},{"attributes":{"ID":545395,"DIS_CODE":0,"TOWNNAME":"東區","LI":"崇成里","LIN":"12鄰","STREET":"崇明十五街","SECT":" ","MAREA":" ","LANE":" ","ALLEY":" ","HOUSE_NO":"５０號","E_COORD97":170747.91,"N_COORD97":2541336.8500000001,"ADDRESS":"崇明十五街５０號","OBJECTID":545368},"geometry":{"x":170747.91000000015,"y":2541336.8500000015}},{"attributes":{"ID":545396,"DIS_CODE":0,"TOWNNAME":"中西區","LI":"安海里","LIN":"12鄰","STREET":"河中街","SECT":" ","MAREA":" ","LANE":" ","ALLEY":" ","HOUSE_NO":"２５號","E_COORD97":167262.85999999999,"N_COORD97":2543941.0699999998,"ADDRESS":"河中街２５號","OBJECTID":545369},"geometry":{"x":167262.86000000034,"y":2543941.0700000003}},{"attributes":{"ID":545397,"DIS_CODE":0,"TOWNNAME":"中西區","LI":"安海里","LIN":"12鄰","STREET":"河中街","SECT":" ","MAREA":" ","LANE":" ","ALLEY":" ","HOUSE_NO":"２７號","E_COORD97":167264.23999999999,"N_COORD97":2543950.73,"ADDRESS":"河中街２７號","OBJECTID":545370},"geometry":{"x":167264.24000000209,"y":2543950.7300000004}},{"attributes":{"ID":545398,"DIS_CODE":0,"TOWNNAME":"中西區","LI":"安海里","LIN":"12鄰","STREET":"河中街","SECT":" ","MAREA":" ","LANE":" ","ALLEY":" ","HOUSE_NO":"３３號","E_COORD97":167270.95000000001,"N_COORD97":2543977.5499999998,"ADDRESS":"河中街３３號","OBJECTID":545371},"geometry":{"x":167270.95000000019,"y":2543977.5500000026}},{"attributes":{"ID":545399,"DIS_CODE":0,"TOWNNAME":"中西區","LI":"安海里","LIN":"12鄰","STREET":"河中街","SECT":" ","MAREA":" ","LANE":" ","ALLEY":" ","HOUSE_NO":"３３號之１","E_COORD97":167274.29999999999,"N_COORD97":2543981.29,"ADDRESS":"河中街３３號之１","OBJECTID":545372},"geometry":{"x":167274.30000000075,"y":2543981.290000001}},{"attributes":{"ID":545400,"DIS_CODE":0,"TOWNNAME":"中西區","LI":"安海里","LIN":"12鄰","STREET":"河中街","SECT":" ","MAREA":" ","LANE":" ","ALLEY":" ","HOUSE_NO":"３５號","E_COORD97":167276.87,"N_COORD97":2543993.77,"ADDRESS":"河中街３５號","OBJECTID":545373},"geometry":{"x":167276.87000000197,"y":2543993.7699999996}},{"attributes":{"ID":545401,"DIS_CODE":0,"TOWNNAME":"中西區","LI":"安海里","LIN":"12鄰","STREET":"環河街","SECT":" ","MAREA":" ","LANE":" ","ALLEY":" ","HOUSE_NO":"９４號","E_COORD97":167240.35999999999,"N_COORD97":2543965.7000000002,"ADDRESS":"環河街９４號","OBJECTID":545374},"geometry":{"x":167240.36000000127,"y":2543965.7000000011}},{"attributes":{"ID":545402,"DIS_CODE":0,"TOWNNAME":"中西區","LI":"安海里","LIN":"12鄰","STREET":"環河街","SECT":" ","MAREA":" ","LANE":" ","ALLEY":" ","HOUSE_NO":"９４號之１","E_COORD97":167239.57000000001,"N_COORD97":2543959.6000000001,"ADDRESS":"環河街９４號之１","OBJECTID":545375},"geometry":{"x":167239.5700000003,"y":2543959.6000000015}},{"attributes":{"ID":545403,"DIS_CODE":0,"TOWNNAME":"中西區","LI":"普濟里","LIN":"12鄰","STREET":"國華街","SECT":"三段","MAREA":" ","LANE":" ","ALLEY":" ","HOUSE_NO":"２５６號","E_COORD97":167964.34,"N_COORD97":2544437.0299999998,"ADDRESS":"國華街三段２５６號","OBJECTID":545376},"geometry":{"x":167964.33999999985,"y":2544437.0300000031}},{"attributes":{"ID":545404,"DIS_CODE":0,"TOWNNAME":"中西區","LI":"普濟里","LIN":"12鄰","STREET":"國華街","SECT":"三段","MAREA":" ","LANE":" ","ALLEY":" ","HOUSE_NO":"２５８號","E_COORD97":167966.47,"N_COORD97":2544442.27,"ADDRESS":"國華街三段２５８號","OBJECTID":545377},"geometry":{"x":167966.47000000067,"y":2544442.2700000033}},{"attributes":{"ID":545405,"DIS_CODE":0,"TOWNNAME":"中西區","LI":"普濟里","LIN":"12鄰","STREET":"國華街","SECT":"三段","MAREA":" ","LANE":" ","ALLEY":" ","HOUSE_NO":"２６０號","E_COORD97":167970.17000000001,"N_COORD97":2544449.1699999999,"ADDRESS":"國華街三段２６０號","OBJECTID":545378},"geometry":{"x":167970.17000000086,"y":2544449.1699999999}},{"attributes":{"ID":545406,"DIS_CODE":0,"TOWNNAME":"永康區","LI":"中華里","LIN":"12鄰","STREET":"忠勇街","SECT":" ","MAREA":" ","LANE":" ","ALLEY":" ","HOUSE_NO":"３５號","E_COORD97":171860.03,"N_COORD97":2544431.9500000002,"ADDRESS":"忠勇街３５號","OBJECTID":545379},"geometry":{"x":171860.03000000119,"y":2544431.9500000011}},{"attributes":{"ID":545407,"DIS_CODE":0,"TOWNNAME":"永康區","LI":"中華里","LIN":"12鄰","STREET":"忠勇街","SECT":" ","MAREA":" ","LANE":" ","ALLEY":" ","HOUSE_NO":"１５號","E_COORD97":171878.5,"N_COORD97":2544396.8799999999,"ADDRESS":"忠勇街１５號","OBJECTID":545380},"geometry":{"x":171878.50000000093,"y":2544396.8800000027}},{"attributes":{"ID":545408,"DIS_CODE":0,"TOWNNAME":"永康區","LI":"東橋里","LIN":"12鄰","STREET":"中山南路","SECT":" ","MAREA":" ","LANE":" ","ALLEY":" ","HOUSE_NO":"２１９號","E_COORD97":171631.66,"N_COORD97":2546193.5699999998,"ADDRESS":"中山南路２１９號","OBJECTID":545381},"geometry":{"x":171631.66000000201,"y":2546193.5700000003}},{"attributes":{"ID":545409,"DIS_CODE":0,"TOWNNAME":"永康區","LI":"東橋里","LIN":"12鄰","STREET":"中山南路","SECT":" ","MAREA":" ","LANE":" ","ALLEY":" ","HOUSE_NO":"１９７號","E_COORD97":171594.95000000001,"N_COORD97":2546165.1099999999,"ADDRESS":"中山南路１９７號","OBJECTID":545382},"geometry":{"x":171594.95000000019,"y":2546165.1099999994}},{"attributes":{"ID":545410,"DIS_CODE":0,"TOWNNAME":"永康區","LI":"\u25A0行里","LIN":"12鄰","STREET":"中正路","SECT":" ","MAREA":" ","LANE":" ","ALLEY":" ","HOUSE_NO":"６１１號","E_COORD97":171886.07000000001,"N_COORD97":2548989.5499999998,"ADDRESS":"中正路６１１號","OBJECTID":545383},"geometry":{"x":171886.0700000003,"y":2548989.5500000026}},{"attributes":{"ID":545411,"DIS_CODE":0,"TOWNNAME":"永康區","LI":"中華里","LIN":"12鄰","STREET":"忠勇街","SECT":" ","MAREA":" ","LANE":" ","ALLEY":" ","HOUSE_NO":"２９號","E_COORD97":171860.67999999999,"N_COORD97":2544420.9100000001,"ADDRESS":"忠勇街２９號","OBJECTID":545384},"geometry":{"x":171860.6799999997,"y":2544420.9100000001}},{"attributes":{"ID":545412,"DIS_CODE":0,"TOWNNAME":"永康區","LI":"中華里","LIN":"12鄰","STREET":"忠勇街","SECT":" ","MAREA":" ","LANE":" ","ALLEY":" ","HOUSE_NO":"２５號","E_COORD97":171878.5,"N_COORD97":2544415.7200000002,"ADDRESS":"忠勇街２５號","OBJECTID":545385},"geometry":{"x":171878.50000000093,"y":2544415.7200000007}},{"attributes":{"ID":545413,"DIS_CODE":0,"TOWNNAME":"永康區","LI":"\u25A0行里","LIN":"12鄰","STREET":"中正路","SECT":" ","MAREA":" ","LANE":" ","ALLEY":" ","HOUSE_NO":"６３１號","E_COORD97":171855.95999999999,"N_COORD97":2549020.6200000001,"ADDRESS":"中正路６３１號","OBJECTID":545386},"geometry":{"x":171855.95999999996,"y":2549020.620000001}},{"attributes":{"ID":545414,"DIS_CODE":0,"TOWNNAME":"東區","LI":"崇明里","LIN":"12鄰","STREET":"大同路","SECT":"二段","MAREA":" ","LANE":" ","ALLEY":" ","HOUSE_NO":"６０３號","E_COORD97":169603.37,"N_COORD97":2540975.2000000002,"ADDRESS":"大同路二段６０３號","OBJECTID":545387},"geometry":{"x":169603.37000000104,"y":2540975.2000000011}},{"attributes":{"ID":545415,"DIS_CODE":0,"TOWNNAME":"東區","LI":"崇明里","LIN":"12鄰","STREET":"大同路","SECT":"二段","MAREA":" ","LANE":" ","ALLEY":" ","HOUSE_NO":"６０９號","E_COORD97":169637.06,"N_COORD97":2540976.9300000002,"ADDRESS":"大同路二段６０９號","OBJECTID":545388},"geometry":{"x":169637.06000000052,"y":2540976.9300000016}},{"attributes":{"ID":545416,"DIS_CODE":0,"TOWNNAME":"東區","LI":"崇明里","LIN":"12鄰","STREET":"大同路","SECT":"二段","MAREA":" ","LANE":" ","ALLEY":" ","HOUSE_NO":"６１１號","E_COORD97":169640.54999999999,"N_COORD97":2540970.1600000001,"ADDRESS":"大同路二段６１１號","OBJECTID":545389},"geometry":{"x":169640.55000000075,"y":2540970.160000002}},{"attributes":{"ID":545417,"DIS_CODE":0,"TOWNNAME":"東區","LI":"崇明里","LIN":"12鄰","STREET":"大同路","SECT":"二段","MAREA":" ","LANE":" ","ALLEY":" ","HOUSE_NO":"６１３號","E_COORD97":169604.37,"N_COORD97":2540967.75,"ADDRESS":"大同路二段６１３號","OBJECTID":545390},"geometry":{"x":169604.37000000197,"y":2540967.7500000037}},{"attributes":{"ID":545418,"DIS_CODE":0,"TOWNNAME":"東區","LI":"崇明里","LIN":"12鄰","STREET":"大同路","SECT":"二段","MAREA":" ","LANE":" ","ALLEY":" ","HOUSE_NO":"６１３號之１","E_COORD97":169607.60000000001,"N_COORD97":2540958.4199999999,"ADDRESS":"大同路二段６１３號之１","OBJECTID":545391},"geometry":{"x":169607.60000000056,"y":2540958.4199999999}},{"attributes":{"ID":545419,"DIS_CODE":0,"TOWNNAME":"東區","LI":"崇明里","LIN":"12鄰","STREET":"大同路","SECT":"二段","MAREA":" ","LANE":" ","ALLEY":" ","HOUSE_NO":"６１５號","E_COORD97":169611.35000000001,"N_COORD97":2540929.4900000002,"ADDRESS":"大同路二段６１５號","OBJECTID":545392},"geometry":{"x":169611.35000000056,"y":2540929.4900000021}},{"attributes":{"ID":545420,"DIS_CODE":0,"TOWNNAME":"東區","LI":"崇明里","LIN":"12鄰","STREET":"大同路","SECT":"二段","MAREA":" ","LANE":" ","ALLEY":" ","HOUSE_NO":"６１７號","E_COORD97":169642.23999999999,"N_COORD97":2540932.98,"ADDRESS":"大同路二段６１７號","OBJECTID":545393},"geometry":{"x":169642.24000000022,"y":2540932.9800000042}},{"attributes":{"ID":545421,"DIS_CODE":0,"TOWNNAME":"東區","LI":"崇德里","LIN":"12鄰","STREET":"崇道路","SECT":" ","MAREA":" ","LANE":" ","ALLEY":" ","HOUSE_NO":"１０１號","E_COORD97":170849.56,"N_COORD97":2541423.1000000001,"ADDRESS":"崇道路１０１號","OBJECTID":545394},"geometry":{"x":170849.55999999959,"y":2541423.1000000015}},{"attributes":{"ID":545422,"DIS_CODE":0,"TOWNNAME":"東區","LI":"崇德里","LIN":"12鄰","STREET":"崇道路","SECT":" ","MAREA":" ","LANE":" ","ALLEY":" ","HOUSE_NO":"１０３號","E_COORD97":170854.95999999999,"N_COORD97":2541425.3599999999,"ADDRESS":"崇道路１０３號","OBJECTID":545395},"geometry":{"x":170854.96000000089,"y":2541425.3600000013}},{"attributes":{"ID":545423,"DIS_CODE":0,"TOWNNAME":"東區","LI":"崇德里","LIN":"12鄰","STREET":"崇道路","SECT":" ","MAREA":" ","LANE":" ","ALLEY":" ","HOUSE_NO":"１０５號","E_COORD97":170860.60999999999,"N_COORD97":2541423.73,"ADDRESS":"崇道路１０５號","OBJECTID":545396},"geometry":{"x":170860.61000000034,"y":2541423.7300000023}},{"attributes":{"ID":545424,"DIS_CODE":0,"TOWNNAME":"東區","LI":"崇德里","LIN":"12鄰","STREET":"崇道路","SECT":" ","MAREA":" ","LANE":" ","ALLEY":" ","HOUSE_NO":"１０７號","E_COORD97":170865.63,"N_COORD97":2541426.6099999999,"ADDRESS":"崇道路１０７號","OBJECTID":545397},"geometry":{"x":170865.63000000082,"y":2541426.6100000013}},{"attributes":{"ID":545425,"DIS_CODE":0,"TOWNNAME":"東區","LI":"崇德里","LIN":"12鄰","STREET":"崇道路","SECT":" ","MAREA":" ","LANE":" ","ALLEY":" ","HOUSE_NO":"１０９號","E_COORD97":170870.28,"N_COORD97":2541423.73,"ADDRESS":"崇道路１０９號","OBJECTID":545398},"geometry":{"x":170870.28000000119,"y":2541423.7300000023}},{"attributes":{"ID":545426,"DIS_CODE":0,"TOWNNAME":"東區","LI":"崇德里","LIN":"12鄰","STREET":"崇道路","SECT":" ","MAREA":" ","LANE":" ","ALLEY":" ","HOUSE_NO":"１１９號","E_COORD97":170889.75,"N_COORD97":2541423.73,"ADDRESS":"崇道路１１９號","OBJECTID":545399},"geometry":{"x":170889.75,"y":2541423.7300000023}},{"attributes":{"ID":545427,"DIS_CODE":0,"TOWNNAME":"東區","LI":"崇德里","LIN":"12鄰","STREET":"崇道路","SECT":" ","MAREA":" ","LANE":" ","ALLEY":" ","HOUSE_NO":"１２１號","E_COORD97":170894.51999999999,"N_COORD97":2541425.6099999999,"ADDRESS":"崇道路１２１號","OBJECTID":545400},"geometry":{"x":170894.52000000142,"y":2541425.6099999975}}]}