{"displayFieldName":"TOWNNAME","fieldAliases":{"ID":"ID","DIS_CODE":"DIS_CODE","TOWNNAME":"TOWNNAME","LI":"LI","LIN":"LIN","STREET":"STREET","SECT":"SECT","MAREA":"MAREA","LANE":"LANE","ALLEY":"ALLEY","HOUSE_NO":"HOUSE_NO","E_COORD97":"E_COORD97","N_COORD97":"N_COORD97","ADDRESS":"ADDRESS","OBJECTID":"OBJECTID"},"geometryType":"esriGeometryPoint","spatialReference":{"wkid":102443,"latestWkid":3826},"fields":[{"name":"ID","type":"esriFieldTypeDouble","alias":"ID"},{"name":"DIS_CODE","type":"esriFieldTypeInteger","alias":"DIS_CODE"},{"name":"TOWNNAME","type":"esriFieldTypeString","alias":"TOWNNAME","length":8},{"name":"LI","type":"esriFieldTypeString","alias":"LI","length":8},{"name":"LIN","type":"esriFieldTypeString","alias":"LIN","length":12},{"name":"STREET","type":"esriFieldTypeString","alias":"STREET","length":20},{"name":"SECT","type":"esriFieldTypeString","alias":"SECT","length":8},{"name":"MAREA","type":"esriFieldTypeString","alias":"MAREA","length":12},{"name":"LANE","type":"esriFieldTypeString","alias":"LANE","length":10},{"name":"ALLEY","type":"esriFieldTypeString","alias":"ALLEY","length":10},{"name":"HOUSE_NO","type":"esriFieldTypeString","alias":"HOUSE_NO","length":20},{"name":"E_COORD97","type":"esriFieldTypeDouble","alias":"E_COORD97"},{"name":"N_COORD97","type":"esriFieldTypeDouble","alias":"N_COORD97"},{"name":"ADDRESS","type":"esriFieldTypeString","alias":"ADDRESS","length":50},{"name":"OBJECTID","type":"esriFieldTypeOID","alias":"OBJECTID"}],"features":[{"attributes":{"ID":444626,"DIS_CODE":0,"TOWNNAME":"北區","LI":"文成里","LIN":"5鄰","STREET":"文賢路","SECT":" ","MAREA":" ","LANE":"５９６巷","ALLEY":" ","HOUSE_NO":"７號","E_COORD97":167407.01999999999,"N_COORD97":2545479.2799999998,"ADDRESS":"文賢路５９６巷７號","OBJECTID":444601},"geometry":{"x":167407.01999999955,"y":2545479.2799999975}},{"attributes":{"ID":444627,"DIS_CODE":0,"TOWNNAME":"北區","LI":"文成里","LIN":"5鄰","STREET":"文賢路","SECT":" ","MAREA":" ","LANE":"５９６巷","ALLEY":" ","HOUSE_NO":"９號","E_COORD97":167411.79000000001,"N_COORD97":2545479.4700000002,"ADDRESS":"文賢路５９６巷９號","OBJECTID":444602},"geometry":{"x":167411.79000000097,"y":2545479.4699999988}},{"attributes":{"ID":444628,"DIS_CODE":0,"TOWNNAME":"北區","LI":"文成里","LIN":"5鄰","STREET":"文賢路","SECT":" ","MAREA":" ","LANE":"６１８巷","ALLEY":" ","HOUSE_NO":"１０號","E_COORD97":167414.10000000001,"N_COORD97":2545516.6699999999,"ADDRESS":"文賢路６１８巷１０號","OBJECTID":444603},"geometry":{"x":167414.10000000056,"y":2545516.6699999999}},{"attributes":{"ID":444629,"DIS_CODE":0,"TOWNNAME":"北區","LI":"文成里","LIN":"5鄰","STREET":"文賢路","SECT":" ","MAREA":" ","LANE":"６１８巷","ALLEY":" ","HOUSE_NO":"１６號","E_COORD97":167425.73999999999,"N_COORD97":2545516.1000000001,"ADDRESS":"文賢路６１８巷１６號","OBJECTID":444604},"geometry":{"x":167425.74000000115,"y":2545516.1000000015}},{"attributes":{"ID":444630,"DIS_CODE":0,"TOWNNAME":"北區","LI":"文成里","LIN":"5鄰","STREET":"文賢路","SECT":" ","MAREA":" ","LANE":"６１８巷","ALLEY":" ","HOUSE_NO":"１８號","E_COORD97":167430.31,"N_COORD97":2545516.29,"ADDRESS":"文賢路６１８巷１８號","OBJECTID":444605},"geometry":{"x":167430.30999999959,"y":2545516.2899999972}},{"attributes":{"ID":444631,"DIS_CODE":0,"TOWNNAME":"北區","LI":"文成里","LIN":"5鄰","STREET":"文賢路","SECT":" ","MAREA":" ","LANE":"６１８巷","ALLEY":" ","HOUSE_NO":"２０號","E_COORD97":167437.75,"N_COORD97":2545515.3300000001,"ADDRESS":"文賢路６１８巷２０號","OBJECTID":444606},"geometry":{"x":167437.75000000093,"y":2545515.3300000019}},{"attributes":{"ID":444632,"DIS_CODE":0,"TOWNNAME":"永康區","LI":"復華里","LIN":"5鄰","STREET":"國華街","SECT":" ","MAREA":" ","LANE":"１０２巷","ALLEY":" ","HOUSE_NO":"８６號四樓之２","E_COORD97":172977.23999999999,"N_COORD97":2546138.5299999998,"ADDRESS":"國華街１０２巷８６號四樓之２","OBJECTID":444607},"geometry":{"x":172977.24000000115,"y":2546138.5299999993}},{"attributes":{"ID":444633,"DIS_CODE":0,"TOWNNAME":"永康區","LI":"復華里","LIN":"5鄰","STREET":"國華街","SECT":" ","MAREA":" ","LANE":"１０２巷","ALLEY":" ","HOUSE_NO":"８８號八樓之１","E_COORD97":172989.01999999999,"N_COORD97":2546133.2799999998,"ADDRESS":"國華街１０２巷８８號八樓之１","OBJECTID":444608},"geometry":{"x":172989.01999999955,"y":2546133.2799999993}},{"attributes":{"ID":444634,"DIS_CODE":0,"TOWNNAME":"永康區","LI":"復華里","LIN":"5鄰","STREET":"國華街","SECT":" ","MAREA":" ","LANE":"１０２巷","ALLEY":" ","HOUSE_NO":"８８號十一樓之２","E_COORD97":172990.39999999999,"N_COORD97":2546133.2799999998,"ADDRESS":"國華街１０２巷８８號十一樓之２","OBJECTID":444609},"geometry":{"x":172990.4000000013,"y":2546133.2799999993}},{"attributes":{"ID":444635,"DIS_CODE":0,"TOWNNAME":"永康區","LI":"復華里","LIN":"5鄰","STREET":"國華街","SECT":" ","MAREA":" ","LANE":"１０２巷","ALLEY":" ","HOUSE_NO":"８８號七樓之１","E_COORD97":172989.01999999999,"N_COORD97":2546133.2799999998,"ADDRESS":"國華街１０２巷８８號七樓之１","OBJECTID":444610},"geometry":{"x":172989.01999999955,"y":2546133.2799999993}},{"attributes":{"ID":444636,"DIS_CODE":0,"TOWNNAME":"永康區","LI":"復華里","LIN":"5鄰","STREET":"國華街","SECT":" ","MAREA":" ","LANE":"１０２巷","ALLEY":" ","HOUSE_NO":"８０號三樓之２","E_COORD97":172951.31,"N_COORD97":2546166.52,"ADDRESS":"國華街１０２巷８０號三樓之２","OBJECTID":444611},"geometry":{"x":172951.31000000052,"y":2546166.5200000033}},{"attributes":{"ID":444637,"DIS_CODE":0,"TOWNNAME":"永康區","LI":"復華里","LIN":"5鄰","STREET":"國華街","SECT":" ","MAREA":" ","LANE":"１０２巷","ALLEY":" ","HOUSE_NO":"８６號八樓之１","E_COORD97":172977.10999999999,"N_COORD97":2546138.5299999998,"ADDRESS":"國華街１０２巷８６號八樓之１","OBJECTID":444612},"geometry":{"x":172977.11000000127,"y":2546138.5299999993}},{"attributes":{"ID":444638,"DIS_CODE":0,"TOWNNAME":"永康區","LI":"復華里","LIN":"5鄰","STREET":"國華街","SECT":" ","MAREA":" ","LANE":"１０２巷","ALLEY":" ","HOUSE_NO":"８８號四樓之１","E_COORD97":172989.01999999999,"N_COORD97":2546133.2799999998,"ADDRESS":"國華街１０２巷８８號四樓之１","OBJECTID":444613},"geometry":{"x":172989.01999999955,"y":2546133.2799999993}},{"attributes":{"ID":444639,"DIS_CODE":0,"TOWNNAME":"永康區","LI":"復華里","LIN":"5鄰","STREET":"國華街","SECT":" ","MAREA":" ","LANE":"１０２巷","ALLEY":" ","HOUSE_NO":"８８號九樓之２","E_COORD97":172989.14999999999,"N_COORD97":2546133.2799999998,"ADDRESS":"國華街１０２巷８８號九樓之２","OBJECTID":444614},"geometry":{"x":172989.15000000037,"y":2546133.2799999993}},{"attributes":{"ID":444640,"DIS_CODE":0,"TOWNNAME":"永康區","LI":"復華里","LIN":"5鄰","STREET":"國華街","SECT":" ","MAREA":" ","LANE":"１０２巷","ALLEY":" ","HOUSE_NO":"８８號十二樓之１","E_COORD97":172990.26999999999,"N_COORD97":2546133.2799999998,"ADDRESS":"國華街１０２巷８８號十二樓之１","OBJECTID":444615},"geometry":{"x":172990.27000000048,"y":2546133.2799999993}},{"attributes":{"ID":444641,"DIS_CODE":0,"TOWNNAME":"永康區","LI":"復華里","LIN":"5鄰","STREET":"國華街","SECT":" ","MAREA":" ","LANE":"１０２巷","ALLEY":" ","HOUSE_NO":"８０號四樓之１","E_COORD97":172951.17999999999,"N_COORD97":2546166.52,"ADDRESS":"國華街１０２巷８０號四樓之１","OBJECTID":444616},"geometry":{"x":172951.1799999997,"y":2546166.5200000033}},{"attributes":{"ID":444642,"DIS_CODE":0,"TOWNNAME":"永康區","LI":"復華里","LIN":"5鄰","STREET":"國華街","SECT":" ","MAREA":" ","LANE":"１０２巷","ALLEY":" ","HOUSE_NO":"８４號七樓之１","E_COORD97":172962.35999999999,"N_COORD97":2546145.02,"ADDRESS":"國華街１０２巷８４號七樓之１","OBJECTID":444617},"geometry":{"x":172962.36000000034,"y":2546145.0199999996}},{"attributes":{"ID":444643,"DIS_CODE":0,"TOWNNAME":"永康區","LI":"大橋里","LIN":"5鄰","STREET":"大橋一街","SECT":" ","MAREA":" ","LANE":"１０３巷","ALLEY":" ","HOUSE_NO":"１９８號三樓","E_COORD97":170811.23999999999,"N_COORD97":2546796.5,"ADDRESS":"大橋一街１０３巷１９８號三樓","OBJECTID":444618},"geometry":{"x":170811.24000000115,"y":2546796.5}},{"attributes":{"ID":444644,"DIS_CODE":0,"TOWNNAME":"永康區","LI":"大橋里","LIN":"5鄰","STREET":"大橋一街","SECT":" ","MAREA":" ","LANE":"１０３巷","ALLEY":" ","HOUSE_NO":"１９４號三樓","E_COORD97":170801.89999999999,"N_COORD97":2546785,"ADDRESS":"大橋一街１０３巷１９４號三樓","OBJECTID":444619},"geometry":{"x":170801.9000000013,"y":2546785.0000000019}},{"attributes":{"ID":444645,"DIS_CODE":0,"TOWNNAME":"永康區","LI":"大橋里","LIN":"5鄰","STREET":"大橋一街","SECT":" ","MAREA":" ","LANE":"１０３巷","ALLEY":" ","HOUSE_NO":"２０２號二樓","E_COORD97":170793.45000000001,"N_COORD97":2546796,"ADDRESS":"大橋一街１０３巷２０２號二樓","OBJECTID":444620},"geometry":{"x":170793.45000000019,"y":2546796}},{"attributes":{"ID":444646,"DIS_CODE":0,"TOWNNAME":"仁德區","LI":"仁德里","LIN":"14鄰","STREET":"四維街","SECT":" ","MAREA":" ","LANE":"８巷","ALLEY":" ","HOUSE_NO":"２號","E_COORD97":173321.17999999999,"N_COORD97":2541557,"ADDRESS":"四維街８巷２號","OBJECTID":444621},"geometry":{"x":173321.18000000156,"y":2541557.0000000019}},{"attributes":{"ID":444647,"DIS_CODE":0,"TOWNNAME":"永康區","LI":"大橋里","LIN":"5鄰","STREET":"大橋一街","SECT":" ","MAREA":" ","LANE":"１０３巷","ALLEY":" ","HOUSE_NO":"２００號底層一樓","E_COORD97":170809.14999999999,"N_COORD97":2546802.75,"ADDRESS":"大橋一街１０３巷２００號底層一樓","OBJECTID":444622},"geometry":{"x":170809.15000000037,"y":2546802.7500000037}},{"attributes":{"ID":444648,"DIS_CODE":0,"TOWNNAME":"永康區","LI":"復華里","LIN":"5鄰","STREET":"國華街","SECT":" ","MAREA":" ","LANE":"１０２巷","ALLEY":" ","HOUSE_NO":"８０號五樓之２","E_COORD97":172951.31,"N_COORD97":2546166.52,"ADDRESS":"國華街１０２巷８０號五樓之２","OBJECTID":444623},"geometry":{"x":172951.31000000052,"y":2546166.5200000033}},{"attributes":{"ID":444649,"DIS_CODE":0,"TOWNNAME":"永康區","LI":"復華里","LIN":"5鄰","STREET":"國華街","SECT":" ","MAREA":" ","LANE":"１０２巷","ALLEY":" ","HOUSE_NO":"８０號六樓之１","E_COORD97":172951.17999999999,"N_COORD97":2546166.52,"ADDRESS":"國華街１０２巷８０號六樓之１","OBJECTID":444624},"geometry":{"x":172951.1799999997,"y":2546166.5200000033}},{"attributes":{"ID":444650,"DIS_CODE":0,"TOWNNAME":"永康區","LI":"復華里","LIN":"5鄰","STREET":"國華街","SECT":" ","MAREA":" ","LANE":"１０２巷","ALLEY":" ","HOUSE_NO":"８２號九樓之２","E_COORD97":172951.60000000001,"N_COORD97":2546149.8599999999,"ADDRESS":"國華街１０２巷８２號九樓之２","OBJECTID":444625},"geometry":{"x":172951.59999999963,"y":2546149.8599999994}},{"attributes":{"ID":444651,"DIS_CODE":0,"TOWNNAME":"東區","LI":"崇明里","LIN":"5鄰","STREET":"大同路","SECT":"二段","MAREA":" ","LANE":"４０３巷","ALLEY":" ","HOUSE_NO":"８２號二樓","E_COORD97":169730.41,"N_COORD97":2541423.9199999999,"ADDRESS":"大同路二段４０３巷８２號二樓","OBJECTID":444626},"geometry":{"x":169730.41000000108,"y":2541423.9199999999}},{"attributes":{"ID":444652,"DIS_CODE":0,"TOWNNAME":"東區","LI":"崇明里","LIN":"5鄰","STREET":"大同路","SECT":"二段","MAREA":" ","LANE":"４０３巷","ALLEY":" ","HOUSE_NO":"８２號三樓","E_COORD97":169730.41,"N_COORD97":2541423.9199999999,"ADDRESS":"大同路二段４０３巷８２號三樓","OBJECTID":444627},"geometry":{"x":169730.41000000108,"y":2541423.9199999999}},{"attributes":{"ID":444653,"DIS_CODE":0,"TOWNNAME":"東區","LI":"崇明里","LIN":"5鄰","STREET":"大同路","SECT":"二段","MAREA":" ","LANE":"４０３巷","ALLEY":" ","HOUSE_NO":"８２號五樓","E_COORD97":169730.41,"N_COORD97":2541423.9199999999,"ADDRESS":"大同路二段４０３巷８２號五樓","OBJECTID":444628},"geometry":{"x":169730.41000000108,"y":2541423.9199999999}},{"attributes":{"ID":444654,"DIS_CODE":0,"TOWNNAME":"東區","LI":"崇明里","LIN":"5鄰","STREET":"大同路","SECT":"二段","MAREA":" ","LANE":"４０３巷","ALLEY":" ","HOUSE_NO":"８２號四樓","E_COORD97":169730.41,"N_COORD97":2541423.9199999999,"ADDRESS":"大同路二段４０３巷８２號四樓","OBJECTID":444629},"geometry":{"x":169730.41000000108,"y":2541423.9199999999}},{"attributes":{"ID":444655,"DIS_CODE":0,"TOWNNAME":"柳營區","LI":"東昇里","LIN":"5鄰","STREET":"成功街","SECT":" ","MAREA":" ","LANE":"７６巷","ALLEY":" ","HOUSE_NO":"７號","E_COORD97":180015.10999999999,"N_COORD97":2575360.04,"ADDRESS":"成功街７６巷７號","OBJECTID":444630},"geometry":{"x":180015.11000000127,"y":2575360.0399999972}},{"attributes":{"ID":444656,"DIS_CODE":0,"TOWNNAME":"東區","LI":"關聖里","LIN":"5鄰","STREET":"裕農路","SECT":" ","MAREA":" ","LANE":"６６８巷","ALLEY":" ","HOUSE_NO":"２８號三樓","E_COORD97":171730.23000000001,"N_COORD97":2543066.4399999999,"ADDRESS":"裕農路６６８巷２８號三樓","OBJECTID":444631},"geometry":{"x":171730.23000000138,"y":2543066.4399999995}},{"attributes":{"ID":444657,"DIS_CODE":0,"TOWNNAME":"東區","LI":"關聖里","LIN":"5鄰","STREET":"裕農路","SECT":" ","MAREA":" ","LANE":"６６８巷","ALLEY":" ","HOUSE_NO":"２８號五樓","E_COORD97":171730.23000000001,"N_COORD97":2543066.4399999999,"ADDRESS":"裕農路６６８巷２８號五樓","OBJECTID":444632},"geometry":{"x":171730.23000000138,"y":2543066.4399999995}},{"attributes":{"ID":444658,"DIS_CODE":0,"TOWNNAME":"東區","LI":"關聖里","LIN":"5鄰","STREET":"裕農路","SECT":" ","MAREA":" ","LANE":"６６８巷","ALLEY":" ","HOUSE_NO":"２８號四樓","E_COORD97":171730.23000000001,"N_COORD97":2543066.4399999999,"ADDRESS":"裕農路６６８巷２８號四樓","OBJECTID":444633},"geometry":{"x":171730.23000000138,"y":2543066.4399999995}},{"attributes":{"ID":444659,"DIS_CODE":0,"TOWNNAME":"東區","LI":"關聖里","LIN":"5鄰","STREET":"裕農路","SECT":" ","MAREA":" ","LANE":"６６８巷","ALLEY":" ","HOUSE_NO":"３０號二樓","E_COORD97":171730.79999999999,"N_COORD97":2543060.7200000002,"ADDRESS":"裕農路６６８巷３０號二樓","OBJECTID":444634},"geometry":{"x":171730.80000000075,"y":2543060.7200000044}},{"attributes":{"ID":444660,"DIS_CODE":0,"TOWNNAME":"東區","LI":"關聖里","LIN":"5鄰","STREET":"裕農路","SECT":" ","MAREA":" ","LANE":"６６８巷","ALLEY":" ","HOUSE_NO":"３０號三樓","E_COORD97":171730.79999999999,"N_COORD97":2543060.7200000002,"ADDRESS":"裕農路６６８巷３０號三樓","OBJECTID":444635},"geometry":{"x":171730.80000000075,"y":2543060.7200000044}},{"attributes":{"ID":444661,"DIS_CODE":0,"TOWNNAME":"東區","LI":"關聖里","LIN":"5鄰","STREET":"裕農路","SECT":" ","MAREA":" ","LANE":"６６８巷","ALLEY":" ","HOUSE_NO":"３０號之１二樓之１","E_COORD97":171717.85000000001,"N_COORD97":2543063,"ADDRESS":"裕農路６６８巷３０號之１二樓之１","OBJECTID":444636},"geometry":{"x":171717.85000000149,"y":2543063.0000000019}},{"attributes":{"ID":444662,"DIS_CODE":0,"TOWNNAME":"東區","LI":"關聖里","LIN":"5鄰","STREET":"裕農路","SECT":" ","MAREA":" ","LANE":"６６８巷","ALLEY":" ","HOUSE_NO":"３０號之１二樓之２","E_COORD97":171717.85000000001,"N_COORD97":2543063,"ADDRESS":"裕農路６６８巷３０號之１二樓之２","OBJECTID":444637},"geometry":{"x":171717.85000000149,"y":2543063.0000000019}},{"attributes":{"ID":444663,"DIS_CODE":0,"TOWNNAME":"佳里區","LI":"鎮山里","LIN":"20鄰","STREET":"鎮山街","SECT":" ","MAREA":" ","LANE":"１６０巷","ALLEY":" ","HOUSE_NO":"１２號","E_COORD97":166236.84,"N_COORD97":2560982.2200000002,"ADDRESS":"鎮山街１６０巷１２號","OBJECTID":444638},"geometry":{"x":166236.83999999985,"y":2560982.2200000044}},{"attributes":{"ID":444664,"DIS_CODE":0,"TOWNNAME":"東區","LI":"關聖里","LIN":"5鄰","STREET":"裕農路","SECT":" ","MAREA":" ","LANE":"６６８巷","ALLEY":" ","HOUSE_NO":"３０號之１三樓之１","E_COORD97":171717.85000000001,"N_COORD97":2543063,"ADDRESS":"裕農路６６８巷３０號之１三樓之１","OBJECTID":444639},"geometry":{"x":171717.85000000149,"y":2543063.0000000019}},{"attributes":{"ID":444665,"DIS_CODE":0,"TOWNNAME":"東區","LI":"關聖里","LIN":"5鄰","STREET":"裕農路","SECT":" ","MAREA":" ","LANE":"６６８巷","ALLEY":" ","HOUSE_NO":"３０號之１三樓之２","E_COORD97":171717.85000000001,"N_COORD97":2543063,"ADDRESS":"裕農路６６８巷３０號之１三樓之２","OBJECTID":444640},"geometry":{"x":171717.85000000149,"y":2543063.0000000019}},{"attributes":{"ID":444666,"DIS_CODE":0,"TOWNNAME":"東區","LI":"關聖里","LIN":"5鄰","STREET":"裕農路","SECT":" ","MAREA":" ","LANE":"６６８巷","ALLEY":" ","HOUSE_NO":"３０號之１四樓之１","E_COORD97":171717.85000000001,"N_COORD97":2543063,"ADDRESS":"裕農路６６８巷３０號之１四樓之１","OBJECTID":444641},"geometry":{"x":171717.85000000149,"y":2543063.0000000019}},{"attributes":{"ID":444667,"DIS_CODE":0,"TOWNNAME":"東區","LI":"關聖里","LIN":"5鄰","STREET":"裕農路","SECT":" ","MAREA":" ","LANE":"６６８巷","ALLEY":" ","HOUSE_NO":"３０號之１四樓之２","E_COORD97":171717.85000000001,"N_COORD97":2543063,"ADDRESS":"裕農路６６８巷３０號之１四樓之２","OBJECTID":444642},"geometry":{"x":171717.85000000149,"y":2543063.0000000019}},{"attributes":{"ID":444668,"DIS_CODE":0,"TOWNNAME":"東區","LI":"關聖里","LIN":"5鄰","STREET":"裕農路","SECT":" ","MAREA":" ","LANE":"６６８巷","ALLEY":" ","HOUSE_NO":"３０號之２二樓","E_COORD97":171703.29000000001,"N_COORD97":2543066.23,"ADDRESS":"裕農路６６８巷３０號之２二樓","OBJECTID":444643},"geometry":{"x":171703.29000000004,"y":2543066.2300000004}},{"attributes":{"ID":444669,"DIS_CODE":0,"TOWNNAME":"東區","LI":"關聖里","LIN":"5鄰","STREET":"裕農路","SECT":" ","MAREA":" ","LANE":"６６８巷","ALLEY":" ","HOUSE_NO":"３０號之２四樓","E_COORD97":171703.29000000001,"N_COORD97":2543066.23,"ADDRESS":"裕農路６６８巷３０號之２四樓","OBJECTID":444644},"geometry":{"x":171703.29000000004,"y":2543066.2300000004}},{"attributes":{"ID":444670,"DIS_CODE":0,"TOWNNAME":"東區","LI":"關聖里","LIN":"5鄰","STREET":"裕農路","SECT":" ","MAREA":" ","LANE":"６６８巷","ALLEY":" ","HOUSE_NO":"３０號之３二樓","E_COORD97":171691.22,"N_COORD97":2543066.77,"ADDRESS":"裕農路６６８巷３０號之３二樓","OBJECTID":444645},"geometry":{"x":171691.21999999974,"y":2543066.7700000014}},{"attributes":{"ID":444671,"DIS_CODE":0,"TOWNNAME":"東區","LI":"關聖里","LIN":"5鄰","STREET":"裕農路","SECT":" ","MAREA":" ","LANE":"６６８巷","ALLEY":" ","HOUSE_NO":"３０號之３三樓","E_COORD97":171691.22,"N_COORD97":2543066.77,"ADDRESS":"裕農路６６８巷３０號之３三樓","OBJECTID":444646},"geometry":{"x":171691.21999999974,"y":2543066.7700000014}},{"attributes":{"ID":444672,"DIS_CODE":0,"TOWNNAME":"東區","LI":"關聖里","LIN":"5鄰","STREET":"裕農路","SECT":" ","MAREA":" ","LANE":"６６８巷","ALLEY":" ","HOUSE_NO":"３０號之３四樓","E_COORD97":171691.22,"N_COORD97":2543066.77,"ADDRESS":"裕農路６６８巷３０號之３四樓","OBJECTID":444647},"geometry":{"x":171691.21999999974,"y":2543066.7700000014}},{"attributes":{"ID":444673,"DIS_CODE":0,"TOWNNAME":"東區","LI":"關聖里","LIN":"5鄰","STREET":"裕農路","SECT":" ","MAREA":" ","LANE":"６６８巷","ALLEY":" ","HOUSE_NO":"３０號之４二樓","E_COORD97":171691.98000000001,"N_COORD97":2543059.77,"ADDRESS":"裕農路６６８巷３０號之４二樓","OBJECTID":444648},"geometry":{"x":171691.98000000045,"y":2543059.7700000014}},{"attributes":{"ID":444674,"DIS_CODE":0,"TOWNNAME":"東區","LI":"關聖里","LIN":"5鄰","STREET":"裕農路","SECT":" ","MAREA":" ","LANE":"６６８巷","ALLEY":" ","HOUSE_NO":"３０號之４三樓","E_COORD97":171691.98000000001,"N_COORD97":2543059.77,"ADDRESS":"裕農路６６８巷３０號之４三樓","OBJECTID":444649},"geometry":{"x":171691.98000000045,"y":2543059.7700000014}},{"attributes":{"ID":444675,"DIS_CODE":0,"TOWNNAME":"東區","LI":"崇文里","LIN":"40鄰","STREET":"生產路","SECT":" ","MAREA":" ","LANE":" ","ALLEY":" ","HOUSE_NO":"２６９號十樓","E_COORD97":170885.10999999999,"N_COORD97":2540617.8100000001,"ADDRESS":"生產路２６９號十樓","OBJECTID":444650},"geometry":{"x":170885.11000000127,"y":2540617.8100000005}},{"attributes":{"ID":444676,"DIS_CODE":0,"TOWNNAME":"東區","LI":"關聖里","LIN":"5鄰","STREET":"裕農路","SECT":" ","MAREA":" ","LANE":"６６８巷","ALLEY":" ","HOUSE_NO":"３０號之５二樓","E_COORD97":171703.51000000001,"N_COORD97":2543060.2999999998,"ADDRESS":"裕農路６６８巷３０號之５二樓","OBJECTID":444651},"geometry":{"x":171703.51000000164,"y":2543060.3000000045}},{"attributes":{"ID":444677,"DIS_CODE":0,"TOWNNAME":"東區","LI":"關聖里","LIN":"5鄰","STREET":"裕農路","SECT":" ","MAREA":" ","LANE":"６６８巷","ALLEY":" ","HOUSE_NO":"３０號之５三樓","E_COORD97":171703.51000000001,"N_COORD97":2543060.2999999998,"ADDRESS":"裕農路６６８巷３０號之５三樓","OBJECTID":444652},"geometry":{"x":171703.51000000164,"y":2543060.3000000045}},{"attributes":{"ID":444678,"DIS_CODE":0,"TOWNNAME":"東區","LI":"關聖里","LIN":"5鄰","STREET":"裕農路","SECT":" ","MAREA":" ","LANE":"６６８巷","ALLEY":" ","HOUSE_NO":"３０號之５五樓","E_COORD97":171703.51000000001,"N_COORD97":2543060.2999999998,"ADDRESS":"裕農路６６８巷３０號之５五樓","OBJECTID":444653},"geometry":{"x":171703.51000000164,"y":2543060.3000000045}},{"attributes":{"ID":444679,"DIS_CODE":0,"TOWNNAME":"東區","LI":"關聖里","LIN":"5鄰","STREET":"裕農路","SECT":" ","MAREA":" ","LANE":"６６８巷","ALLEY":" ","HOUSE_NO":"３０號之５四樓","E_COORD97":171703.51000000001,"N_COORD97":2543060.2999999998,"ADDRESS":"裕農路６６８巷３０號之５四樓","OBJECTID":444654},"geometry":{"x":171703.51000000164,"y":2543060.3000000045}},{"attributes":{"ID":444680,"DIS_CODE":0,"TOWNNAME":"東區","LI":"關聖里","LIN":"5鄰","STREET":"裕農路","SECT":" ","MAREA":" ","LANE":"６６８巷","ALLEY":" ","HOUSE_NO":"３０號五樓","E_COORD97":171730.79999999999,"N_COORD97":2543060.7200000002,"ADDRESS":"裕農路６６８巷３０號五樓","OBJECTID":444655},"geometry":{"x":171730.80000000075,"y":2543060.7200000044}},{"attributes":{"ID":444681,"DIS_CODE":0,"TOWNNAME":"東區","LI":"關聖里","LIN":"5鄰","STREET":"裕農路","SECT":" ","MAREA":" ","LANE":"６６８巷","ALLEY":" ","HOUSE_NO":"３０號四樓","E_COORD97":171730.79999999999,"N_COORD97":2543060.7200000002,"ADDRESS":"裕農路６６８巷３０號四樓","OBJECTID":444656},"geometry":{"x":171730.80000000075,"y":2543060.7200000044}},{"attributes":{"ID":444682,"DIS_CODE":0,"TOWNNAME":"東區","LI":"關聖里","LIN":"5鄰","STREET":"裕農路","SECT":" ","MAREA":" ","LANE":"６６８巷","ALLEY":" ","HOUSE_NO":"３０號四樓之４","E_COORD97":171730.79999999999,"N_COORD97":2543060.7200000002,"ADDRESS":"裕農路６６８巷３０號四樓之４","OBJECTID":444657},"geometry":{"x":171730.80000000075,"y":2543060.7200000044}},{"attributes":{"ID":444683,"DIS_CODE":0,"TOWNNAME":"永康區","LI":"大橋里","LIN":"5鄰","STREET":"大橋一街","SECT":" ","MAREA":" ","LANE":"１０３巷","ALLEY":" ","HOUSE_NO":"１９８號五樓","E_COORD97":170811.23999999999,"N_COORD97":2546796.5,"ADDRESS":"大橋一街１０３巷１９８號五樓","OBJECTID":444658},"geometry":{"x":170811.24000000115,"y":2546796.5}},{"attributes":{"ID":444684,"DIS_CODE":0,"TOWNNAME":"永康區","LI":"五王里","LIN":"5鄰","STREET":"中華二路","SECT":" ","MAREA":" ","LANE":"２０６巷","ALLEY":" ","HOUSE_NO":"５８號五樓之１","E_COORD97":171610.76000000001,"N_COORD97":2545620.4399999999,"ADDRESS":"中華二路２０６巷５８號五樓之１","OBJECTID":444659},"geometry":{"x":171610.76000000071,"y":2545620.4399999995}},{"attributes":{"ID":444685,"DIS_CODE":0,"TOWNNAME":"永康區","LI":"五王里","LIN":"5鄰","STREET":"中華二路","SECT":" ","MAREA":" ","LANE":"２０６巷","ALLEY":" ","HOUSE_NO":"５８號四樓之１","E_COORD97":171610.76000000001,"N_COORD97":2545620.4399999999,"ADDRESS":"中華二路２０６巷５８號四樓之１","OBJECTID":444660},"geometry":{"x":171610.76000000071,"y":2545620.4399999995}},{"attributes":{"ID":444686,"DIS_CODE":0,"TOWNNAME":"永康區","LI":"五王里","LIN":"5鄰","STREET":"中華二路","SECT":" ","MAREA":" ","LANE":"２０６巷","ALLEY":" ","HOUSE_NO":"５８號三樓之１","E_COORD97":171610.76000000001,"N_COORD97":2545620.4399999999,"ADDRESS":"中華二路２０６巷５８號三樓之１","OBJECTID":444661},"geometry":{"x":171610.76000000071,"y":2545620.4399999995}},{"attributes":{"ID":444687,"DIS_CODE":0,"TOWNNAME":"永康區","LI":"五王里","LIN":"5鄰","STREET":"中華二路","SECT":" ","MAREA":" ","LANE":"２０６巷","ALLEY":" ","HOUSE_NO":"５８號四樓之２","E_COORD97":171610.89000000001,"N_COORD97":2545620.4399999999,"ADDRESS":"中華二路２０６巷５８號四樓之２","OBJECTID":444662},"geometry":{"x":171610.89000000153,"y":2545620.4399999995}},{"attributes":{"ID":444688,"DIS_CODE":0,"TOWNNAME":"永康區","LI":"正強里","LIN":"5鄰","STREET":"中正路","SECT":" ","MAREA":" ","LANE":"５５巷","ALLEY":" ","HOUSE_NO":"８號五樓之３","E_COORD97":173558.89999999999,"N_COORD97":2547783.4900000002,"ADDRESS":"中正路５５巷８號五樓之３","OBJECTID":444663},"geometry":{"x":173558.90000000037,"y":2547783.4900000002}},{"attributes":{"ID":444689,"DIS_CODE":0,"TOWNNAME":"永康區","LI":"大橋里","LIN":"5鄰","STREET":"大橋一街","SECT":" ","MAREA":" ","LANE":"１０３巷","ALLEY":" ","HOUSE_NO":"１９８號四樓","E_COORD97":170811.23999999999,"N_COORD97":2546796.5,"ADDRESS":"大橋一街１０３巷１９８號四樓","OBJECTID":444664},"geometry":{"x":170811.24000000115,"y":2546796.5}},{"attributes":{"ID":444690,"DIS_CODE":0,"TOWNNAME":"永康區","LI":"大橋里","LIN":"5鄰","STREET":"大橋一街","SECT":" ","MAREA":" ","LANE":"１０３巷","ALLEY":" ","HOUSE_NO":"２００號五樓","E_COORD97":170806.64999999999,"N_COORD97":2546802.75,"ADDRESS":"大橋一街１０３巷２００號五樓","OBJECTID":444665},"geometry":{"x":170806.6500000013,"y":2546802.7500000037}},{"attributes":{"ID":444691,"DIS_CODE":0,"TOWNNAME":"永康區","LI":"大橋里","LIN":"5鄰","STREET":"大橋一街","SECT":" ","MAREA":" ","LANE":"１０３巷","ALLEY":" ","HOUSE_NO":"１９４號六樓","E_COORD97":170801.89999999999,"N_COORD97":2546785,"ADDRESS":"大橋一街１０３巷１９４號六樓","OBJECTID":444666},"geometry":{"x":170801.9000000013,"y":2546785.0000000019}},{"attributes":{"ID":444692,"DIS_CODE":0,"TOWNNAME":"永康區","LI":"大橋里","LIN":"5鄰","STREET":"大橋一街","SECT":" ","MAREA":" ","LANE":"１０３巷","ALLEY":" ","HOUSE_NO":"２０２號三樓","E_COORD97":170793.45000000001,"N_COORD97":2546796,"ADDRESS":"大橋一街１０３巷２０２號三樓","OBJECTID":444667},"geometry":{"x":170793.45000000019,"y":2546796}},{"attributes":{"ID":444693,"DIS_CODE":0,"TOWNNAME":"永康區","LI":"復華里","LIN":"5鄰","STREET":"國華街","SECT":" ","MAREA":" ","LANE":"１０２巷","ALLEY":" ","HOUSE_NO":"８６號三樓之１","E_COORD97":172977.10999999999,"N_COORD97":2546138.5299999998,"ADDRESS":"國華街１０２巷８６號三樓之１","OBJECTID":444668},"geometry":{"x":172977.11000000127,"y":2546138.5299999993}},{"attributes":{"ID":444694,"DIS_CODE":0,"TOWNNAME":"永康區","LI":"復華里","LIN":"5鄰","STREET":"國華街","SECT":" ","MAREA":" ","LANE":"１０２巷","ALLEY":" ","HOUSE_NO":"８２號六樓之２","E_COORD97":172951.60000000001,"N_COORD97":2546149.8599999999,"ADDRESS":"國華街１０２巷８２號六樓之２","OBJECTID":444669},"geometry":{"x":172951.59999999963,"y":2546149.8599999994}},{"attributes":{"ID":444695,"DIS_CODE":0,"TOWNNAME":"永康區","LI":"復華里","LIN":"5鄰","STREET":"國華街","SECT":" ","MAREA":" ","LANE":"１０２巷","ALLEY":" ","HOUSE_NO":"１０２號六樓之１","E_COORD97":172972.94,"N_COORD97":2546187.8300000001,"ADDRESS":"國華街１０２巷１０２號六樓之１","OBJECTID":444670},"geometry":{"x":172972.94000000134,"y":2546187.8300000001}},{"attributes":{"ID":444696,"DIS_CODE":0,"TOWNNAME":"永康區","LI":"復華里","LIN":"5鄰","STREET":"國華街","SECT":" ","MAREA":" ","LANE":"１０２巷","ALLEY":" ","HOUSE_NO":"１０２號三樓之１","E_COORD97":172972.94,"N_COORD97":2546187.8300000001,"ADDRESS":"國華街１０２巷１０２號三樓之１","OBJECTID":444671},"geometry":{"x":172972.94000000134,"y":2546187.8300000001}},{"attributes":{"ID":444697,"DIS_CODE":0,"TOWNNAME":"永康區","LI":"復華里","LIN":"5鄰","STREET":"國華街","SECT":" ","MAREA":" ","LANE":"１０２巷","ALLEY":" ","HOUSE_NO":"１０２號四樓之１","E_COORD97":172972.94,"N_COORD97":2546187.8300000001,"ADDRESS":"國華街１０２巷１０２號四樓之１","OBJECTID":444672},"geometry":{"x":172972.94000000134,"y":2546187.8300000001}},{"attributes":{"ID":444698,"DIS_CODE":0,"TOWNNAME":"永康區","LI":"復華里","LIN":"5鄰","STREET":"國華街","SECT":" ","MAREA":" ","LANE":"１０２巷","ALLEY":" ","HOUSE_NO":"１０２號四樓之２","E_COORD97":172973.07000000001,"N_COORD97":2546187.8300000001,"ADDRESS":"國華街１０２巷１０２號四樓之２","OBJECTID":444673},"geometry":{"x":172973.0700000003,"y":2546187.8300000001}},{"attributes":{"ID":444699,"DIS_CODE":0,"TOWNNAME":"永康區","LI":"復華里","LIN":"5鄰","STREET":"國華街","SECT":" ","MAREA":" ","LANE":"１０２巷","ALLEY":" ","HOUSE_NO":"８８號十樓之１","E_COORD97":172989.01999999999,"N_COORD97":2546133.2799999998,"ADDRESS":"國華街１０２巷８８號十樓之１","OBJECTID":444674},"geometry":{"x":172989.01999999955,"y":2546133.2799999993}},{"attributes":{"ID":444700,"DIS_CODE":0,"TOWNNAME":"永康區","LI":"復華里","LIN":"5鄰","STREET":"國華街","SECT":" ","MAREA":" ","LANE":"１０２巷","ALLEY":" ","HOUSE_NO":"１０２號六樓之２","E_COORD97":172973.07000000001,"N_COORD97":2546187.8300000001,"ADDRESS":"國華街１０２巷１０２號六樓之２","OBJECTID":444675},"geometry":{"x":172973.0700000003,"y":2546187.8300000001}},{"attributes":{"ID":444701,"DIS_CODE":0,"TOWNNAME":"永康區","LI":"復華里","LIN":"5鄰","STREET":"國華街","SECT":" ","MAREA":" ","LANE":"１０２巷","ALLEY":" ","HOUSE_NO":"１０２號五樓之２","E_COORD97":172973.07000000001,"N_COORD97":2546187.8300000001,"ADDRESS":"國華街１０２巷１０２號五樓之２","OBJECTID":444676},"geometry":{"x":172973.0700000003,"y":2546187.8300000001}},{"attributes":{"ID":444702,"DIS_CODE":0,"TOWNNAME":"永康區","LI":"復華里","LIN":"5鄰","STREET":"國華街","SECT":" ","MAREA":" ","LANE":"１０２巷","ALLEY":" ","HOUSE_NO":"１０２號二樓","E_COORD97":172970.79999999999,"N_COORD97":2546187.79,"ADDRESS":"國華街１０２巷１０２號二樓","OBJECTID":444677},"geometry":{"x":172970.79999999981,"y":2546187.7900000028}},{"attributes":{"ID":444703,"DIS_CODE":0,"TOWNNAME":"永康區","LI":"復華里","LIN":"5鄰","STREET":"國華街","SECT":" ","MAREA":" ","LANE":"１０２巷","ALLEY":" ","HOUSE_NO":"８２號八樓之２","E_COORD97":172951.60000000001,"N_COORD97":2546149.8599999999,"ADDRESS":"國華街１０２巷８２號八樓之２","OBJECTID":444678},"geometry":{"x":172951.59999999963,"y":2546149.8599999994}},{"attributes":{"ID":444704,"DIS_CODE":0,"TOWNNAME":"安南區","LI":"大安里","LIN":"14鄰","STREET":"義安街","SECT":" ","MAREA":" ","LANE":"８６巷","ALLEY":" ","HOUSE_NO":"２號","E_COORD97":167454.67999999999,"N_COORD97":2548038.0099999998,"ADDRESS":"義安街８６巷２號","OBJECTID":444679},"geometry":{"x":167454.68000000063,"y":2548038.0099999979}},{"attributes":{"ID":444705,"DIS_CODE":0,"TOWNNAME":"永康區","LI":"復華里","LIN":"5鄰","STREET":"國華街","SECT":" ","MAREA":" ","LANE":"１０２巷","ALLEY":" ","HOUSE_NO":"８６號十樓之１","E_COORD97":172977.10999999999,"N_COORD97":2546138.5299999998,"ADDRESS":"國華街１０２巷８６號十樓之１","OBJECTID":444680},"geometry":{"x":172977.11000000127,"y":2546138.5299999993}},{"attributes":{"ID":444706,"DIS_CODE":0,"TOWNNAME":"新營區","LI":"太北里","LIN":"17鄰","STREET":" ","SECT":" ","MAREA":"太子宮","LANE":" ","ALLEY":" ","HOUSE_NO":"１４７之３０號","E_COORD97":175362.52315399999,"N_COORD97":2577136.0147199999,"ADDRESS":"太子宮１４７之３０號","OBJECTID":444681},"geometry":{"x":175362.52315399889,"y":2577136.0147210024}},{"attributes":{"ID":444707,"DIS_CODE":0,"TOWNNAME":"永康區","LI":"復華里","LIN":"5鄰","STREET":"國華街","SECT":" ","MAREA":" ","LANE":"１０２巷","ALLEY":" ","HOUSE_NO":"８０號九樓之２","E_COORD97":172951.31,"N_COORD97":2546166.52,"ADDRESS":"國華街１０２巷８０號九樓之２","OBJECTID":444682},"geometry":{"x":172951.31000000052,"y":2546166.5200000033}},{"attributes":{"ID":444708,"DIS_CODE":0,"TOWNNAME":"永康區","LI":"復華里","LIN":"5鄰","STREET":"國華街","SECT":" ","MAREA":" ","LANE":"１０２巷","ALLEY":" ","HOUSE_NO":"８０號十一樓之２","E_COORD97":172952.56,"N_COORD97":2546166.52,"ADDRESS":"國華街１０２巷８０號十一樓之２","OBJECTID":444683},"geometry":{"x":172952.56000000052,"y":2546166.5200000033}},{"attributes":{"ID":444709,"DIS_CODE":0,"TOWNNAME":"永康區","LI":"復華里","LIN":"5鄰","STREET":"國華街","SECT":" ","MAREA":" ","LANE":"１０２巷","ALLEY":" ","HOUSE_NO":"８０號十二樓之１","E_COORD97":172952.42999999999,"N_COORD97":2546166.52,"ADDRESS":"國華街１０２巷８０號十二樓之１","OBJECTID":444684},"geometry":{"x":172952.4299999997,"y":2546166.5200000033}},{"attributes":{"ID":444710,"DIS_CODE":0,"TOWNNAME":"永康區","LI":"復華里","LIN":"5鄰","STREET":"國華街","SECT":" ","MAREA":" ","LANE":"１０２巷","ALLEY":" ","HOUSE_NO":"８６號五樓之２","E_COORD97":172977.23999999999,"N_COORD97":2546138.5299999998,"ADDRESS":"國華街１０２巷８６號五樓之２","OBJECTID":444685},"geometry":{"x":172977.24000000115,"y":2546138.5299999993}},{"attributes":{"ID":444711,"DIS_CODE":0,"TOWNNAME":"永康區","LI":"復華里","LIN":"5鄰","STREET":"國華街","SECT":" ","MAREA":" ","LANE":"１０２巷","ALLEY":" ","HOUSE_NO":"８４號六樓之１","E_COORD97":172962.35999999999,"N_COORD97":2546145.02,"ADDRESS":"國華街１０２巷８４號六樓之１","OBJECTID":444686},"geometry":{"x":172962.36000000034,"y":2546145.0199999996}},{"attributes":{"ID":444712,"DIS_CODE":0,"TOWNNAME":"永康區","LI":"復華里","LIN":"5鄰","STREET":"國華街","SECT":" ","MAREA":" ","LANE":"１０２巷","ALLEY":" ","HOUSE_NO":"８２號五樓之２","E_COORD97":172951.60000000001,"N_COORD97":2546149.8599999999,"ADDRESS":"國華街１０２巷８２號五樓之２","OBJECTID":444687},"geometry":{"x":172951.59999999963,"y":2546149.8599999994}},{"attributes":{"ID":444713,"DIS_CODE":0,"TOWNNAME":"永康區","LI":"復華里","LIN":"5鄰","STREET":"國華街","SECT":" ","MAREA":" ","LANE":"１０２巷","ALLEY":" ","HOUSE_NO":"８６號三樓之２","E_COORD97":172977.23999999999,"N_COORD97":2546138.5299999998,"ADDRESS":"國華街１０２巷８６號三樓之２","OBJECTID":444688},"geometry":{"x":172977.24000000115,"y":2546138.5299999993}},{"attributes":{"ID":444714,"DIS_CODE":0,"TOWNNAME":"歸仁區","LI":"新厝里","LIN":"5鄰","STREET":"中正三街","SECT":" ","MAREA":" ","LANE":"７巷","ALLEY":" ","HOUSE_NO":"７號","E_COORD97":177645.63,"N_COORD97":2540601.9300000002,"ADDRESS":"中正三街７巷７號","OBJECTID":444689},"geometry":{"x":177645.62999999989,"y":2540601.9299999997}},{"attributes":{"ID":444715,"DIS_CODE":0,"TOWNNAME":"永康區","LI":"復華里","LIN":"5鄰","STREET":"國華街","SECT":" ","MAREA":" ","LANE":"１０２巷","ALLEY":" ","HOUSE_NO":"８２號十二樓之１","E_COORD97":172952.72,"N_COORD97":2546149.8599999999,"ADDRESS":"國華街１０２巷８２號十二樓之１","OBJECTID":444690},"geometry":{"x":172952.71999999974,"y":2546149.8599999994}},{"attributes":{"ID":444716,"DIS_CODE":0,"TOWNNAME":"永康區","LI":"復華里","LIN":"5鄰","STREET":"國華街","SECT":" ","MAREA":" ","LANE":"１０２巷","ALLEY":" ","HOUSE_NO":"８２號十樓之１","E_COORD97":172951.47,"N_COORD97":2546149.8599999999,"ADDRESS":"國華街１０２巷８２號十樓之１","OBJECTID":444691},"geometry":{"x":172951.47000000067,"y":2546149.8599999994}},{"attributes":{"ID":444717,"DIS_CODE":0,"TOWNNAME":"東區","LI":"關聖里","LIN":"5鄰","STREET":"裕農路","SECT":" ","MAREA":" ","LANE":"６６８巷","ALLEY":" ","HOUSE_NO":"３０號之４四樓","E_COORD97":171691.98000000001,"N_COORD97":2543059.77,"ADDRESS":"裕農路６６８巷３０號之４四樓","OBJECTID":444692},"geometry":{"x":171691.98000000045,"y":2543059.7700000014}},{"attributes":{"ID":444718,"DIS_CODE":0,"TOWNNAME":"東區","LI":"關聖里","LIN":"5鄰","STREET":"裕農路","SECT":" ","MAREA":" ","LANE":"６６８巷","ALLEY":" ","HOUSE_NO":"３０號之１五樓之１","E_COORD97":171717.85000000001,"N_COORD97":2543063,"ADDRESS":"裕農路６６８巷３０號之１五樓之１","OBJECTID":444693},"geometry":{"x":171717.85000000149,"y":2543063.0000000019}},{"attributes":{"ID":444719,"DIS_CODE":0,"TOWNNAME":"東區","LI":"關聖里","LIN":"5鄰","STREET":"裕農路","SECT":" ","MAREA":" ","LANE":"６６８巷","ALLEY":" ","HOUSE_NO":"３０號之１五樓之２","E_COORD97":171717.85000000001,"N_COORD97":2543063,"ADDRESS":"裕農路６６８巷３０號之１五樓之２","OBJECTID":444694},"geometry":{"x":171717.85000000149,"y":2543063.0000000019}},{"attributes":{"ID":444720,"DIS_CODE":0,"TOWNNAME":"佳里區","LI":"鎮山里","LIN":"20鄰","STREET":"鎮山街","SECT":" ","MAREA":" ","LANE":"１６０巷","ALLEY":" ","HOUSE_NO":"２９號","E_COORD97":166195.01999999999,"N_COORD97":2560956.1400000001,"ADDRESS":"鎮山街１６０巷２９號","OBJECTID":444695},"geometry":{"x":166195.01999999955,"y":2560956.1400000025}},{"attributes":{"ID":444721,"DIS_CODE":0,"TOWNNAME":"東區","LI":"關聖里","LIN":"5鄰","STREET":"裕農路","SECT":" ","MAREA":" ","LANE":"６６８巷","ALLEY":" ","HOUSE_NO":"３０號之２三樓","E_COORD97":171703.29000000001,"N_COORD97":2543066.23,"ADDRESS":"裕農路６６８巷３０號之２三樓","OBJECTID":444696},"geometry":{"x":171703.29000000004,"y":2543066.2300000004}},{"attributes":{"ID":444722,"DIS_CODE":0,"TOWNNAME":"東區","LI":"關聖里","LIN":"5鄰","STREET":"裕農路","SECT":" ","MAREA":" ","LANE":"６６８巷","ALLEY":" ","HOUSE_NO":"３０號之２五樓","E_COORD97":171703.29000000001,"N_COORD97":2543066.23,"ADDRESS":"裕農路６６８巷３０號之２五樓","OBJECTID":444697},"geometry":{"x":171703.29000000004,"y":2543066.2300000004}},{"attributes":{"ID":444723,"DIS_CODE":0,"TOWNNAME":"東區","LI":"關聖里","LIN":"5鄰","STREET":"裕農路","SECT":" ","MAREA":" ","LANE":"６６８巷","ALLEY":" ","HOUSE_NO":"３０號之３五樓","E_COORD97":171691.22,"N_COORD97":2543066.77,"ADDRESS":"裕農路６６８巷３０號之３五樓","OBJECTID":444698},"geometry":{"x":171691.21999999974,"y":2543066.7700000014}},{"attributes":{"ID":444724,"DIS_CODE":0,"TOWNNAME":"東區","LI":"關聖里","LIN":"5鄰","STREET":"裕農路","SECT":" ","MAREA":" ","LANE":"６６８巷","ALLEY":" ","HOUSE_NO":"３０號之４五樓","E_COORD97":171691.98000000001,"N_COORD97":2543059.77,"ADDRESS":"裕農路６６８巷３０號之４五樓","OBJECTID":444699},"geometry":{"x":171691.98000000045,"y":2543059.7700000014}},{"attributes":{"ID":444725,"DIS_CODE":0,"TOWNNAME":"永康區","LI":"大橋里","LIN":"5鄰","STREET":"大橋一街","SECT":" ","MAREA":" ","LANE":"１０３巷","ALLEY":" ","HOUSE_NO":"２００號三樓","E_COORD97":170806.64999999999,"N_COORD97":2546802.75,"ADDRESS":"大橋一街１０３巷２００號三樓","OBJECTID":444700},"geometry":{"x":170806.6500000013,"y":2546802.7500000037}},{"attributes":{"ID":444726,"DIS_CODE":0,"TOWNNAME":"永康區","LI":"大橋里","LIN":"5鄰","STREET":"大橋一街","SECT":" ","MAREA":" ","LANE":"１０３巷","ALLEY":" ","HOUSE_NO":"１９４號五樓","E_COORD97":170801.89999999999,"N_COORD97":2546785,"ADDRESS":"大橋一街１０３巷１９４號五樓","OBJECTID":444701},"geometry":{"x":170801.9000000013,"y":2546785.0000000019}},{"attributes":{"ID":444727,"DIS_CODE":0,"TOWNNAME":"永康區","LI":"大橋里","LIN":"5鄰","STREET":"大橋一街","SECT":" ","MAREA":" ","LANE":"１０３巷","ALLEY":" ","HOUSE_NO":"１９８號二樓","E_COORD97":170811.23999999999,"N_COORD97":2546796.5,"ADDRESS":"大橋一街１０３巷１９８號二樓","OBJECTID":444702},"geometry":{"x":170811.24000000115,"y":2546796.5}},{"attributes":{"ID":444728,"DIS_CODE":0,"TOWNNAME":"永康區","LI":"大橋里","LIN":"5鄰","STREET":"大橋一街","SECT":" ","MAREA":" ","LANE":"１０３巷","ALLEY":" ","HOUSE_NO":"２００號二樓","E_COORD97":170806.64999999999,"N_COORD97":2546802.75,"ADDRESS":"大橋一街１０３巷２００號二樓","OBJECTID":444703},"geometry":{"x":170806.6500000013,"y":2546802.7500000037}},{"attributes":{"ID":444729,"DIS_CODE":0,"TOWNNAME":"永康區","LI":"大橋里","LIN":"5鄰","STREET":"大橋一街","SECT":" ","MAREA":" ","LANE":"１０３巷","ALLEY":" ","HOUSE_NO":"２０２號六樓","E_COORD97":170793.45000000001,"N_COORD97":2546796,"ADDRESS":"大橋一街１０３巷２０２號六樓","OBJECTID":444704},"geometry":{"x":170793.45000000019,"y":2546796}},{"attributes":{"ID":444730,"DIS_CODE":0,"TOWNNAME":"永康區","LI":"大橋里","LIN":"5鄰","STREET":"大橋一街","SECT":" ","MAREA":" ","LANE":"１０３巷","ALLEY":" ","HOUSE_NO":"１９４號四樓","E_COORD97":170801.89999999999,"N_COORD97":2546785,"ADDRESS":"大橋一街１０３巷１９４號四樓","OBJECTID":444705},"geometry":{"x":170801.9000000013,"y":2546785.0000000019}},{"attributes":{"ID":444731,"DIS_CODE":0,"TOWNNAME":"永康區","LI":"大橋里","LIN":"5鄰","STREET":"大橋一街","SECT":" ","MAREA":" ","LANE":"１０３巷","ALLEY":" ","HOUSE_NO":"２００號四樓","E_COORD97":170806.64999999999,"N_COORD97":2546802.75,"ADDRESS":"大橋一街１０３巷２００號四樓","OBJECTID":444706},"geometry":{"x":170806.6500000013,"y":2546802.7500000037}},{"attributes":{"ID":444732,"DIS_CODE":0,"TOWNNAME":"永康區","LI":"大橋里","LIN":"5鄰","STREET":"大橋一街","SECT":" ","MAREA":" ","LANE":"１０３巷","ALLEY":" ","HOUSE_NO":"２０２號四樓","E_COORD97":170793.45000000001,"N_COORD97":2546796,"ADDRESS":"大橋一街１０３巷２０２號四樓","OBJECTID":444707},"geometry":{"x":170793.45000000019,"y":2546796}},{"attributes":{"ID":444733,"DIS_CODE":0,"TOWNNAME":"東區","LI":"崇文里","LIN":"40鄰","STREET":"生產路","SECT":" ","MAREA":" ","LANE":" ","ALLEY":" ","HOUSE_NO":"２６９號三樓","E_COORD97":170885.10999999999,"N_COORD97":2540617.8100000001,"ADDRESS":"生產路２６９號三樓","OBJECTID":444708},"geometry":{"x":170885.11000000127,"y":2540617.8100000005}},{"attributes":{"ID":444734,"DIS_CODE":0,"TOWNNAME":"東區","LI":"崇文里","LIN":"40鄰","STREET":"生產路","SECT":" ","MAREA":" ","LANE":" ","ALLEY":" ","HOUSE_NO":"２６９號五樓","E_COORD97":170885.10999999999,"N_COORD97":2540617.8100000001,"ADDRESS":"生產路２６９號五樓","OBJECTID":444709},"geometry":{"x":170885.11000000127,"y":2540617.8100000005}},{"attributes":{"ID":444735,"DIS_CODE":0,"TOWNNAME":"永康區","LI":"大橋里","LIN":"5鄰","STREET":"大橋一街","SECT":" ","MAREA":" ","LANE":"１０３巷","ALLEY":" ","HOUSE_NO":"２００號六樓","E_COORD97":170806.64999999999,"N_COORD97":2546802.75,"ADDRESS":"大橋一街１０３巷２００號六樓","OBJECTID":444710},"geometry":{"x":170806.6500000013,"y":2546802.7500000037}},{"attributes":{"ID":444736,"DIS_CODE":0,"TOWNNAME":"永康區","LI":"五王里","LIN":"5鄰","STREET":"中華二路","SECT":" ","MAREA":" ","LANE":"２０６巷","ALLEY":" ","HOUSE_NO":"５８號三樓之２","E_COORD97":171610.89000000001,"N_COORD97":2545620.4399999999,"ADDRESS":"中華二路２０６巷５８號三樓之２","OBJECTID":444711},"geometry":{"x":171610.89000000153,"y":2545620.4399999995}},{"attributes":{"ID":444737,"DIS_CODE":0,"TOWNNAME":"永康區","LI":"大橋里","LIN":"5鄰","STREET":"大橋一街","SECT":" ","MAREA":" ","LANE":"１０３巷","ALLEY":" ","HOUSE_NO":"２０２號五樓","E_COORD97":170793.45000000001,"N_COORD97":2546796,"ADDRESS":"大橋一街１０３巷２０２號五樓","OBJECTID":444712},"geometry":{"x":170793.45000000019,"y":2546796}},{"attributes":{"ID":444738,"DIS_CODE":0,"TOWNNAME":"永康區","LI":"復華里","LIN":"5鄰","STREET":"國華街","SECT":" ","MAREA":" ","LANE":"１０２巷","ALLEY":" ","HOUSE_NO":"８４號十二樓之１","E_COORD97":172963.60999999999,"N_COORD97":2546145.02,"ADDRESS":"國華街１０２巷８４號十二樓之１","OBJECTID":444713},"geometry":{"x":172963.61000000127,"y":2546145.0199999996}},{"attributes":{"ID":444739,"DIS_CODE":0,"TOWNNAME":"永康區","LI":"復華里","LIN":"5鄰","STREET":"國華街","SECT":" ","MAREA":" ","LANE":"１０２巷","ALLEY":" ","HOUSE_NO":"８２號七樓之１","E_COORD97":172951.47,"N_COORD97":2546149.8599999999,"ADDRESS":"國華街１０２巷８２號七樓之１","OBJECTID":444714},"geometry":{"x":172951.47000000067,"y":2546149.8599999994}},{"attributes":{"ID":444740,"DIS_CODE":0,"TOWNNAME":"永康區","LI":"復華里","LIN":"5鄰","STREET":"國華街","SECT":" ","MAREA":" ","LANE":"１０２巷","ALLEY":" ","HOUSE_NO":"８４號五樓之１","E_COORD97":172962.35999999999,"N_COORD97":2546145.02,"ADDRESS":"國華街１０２巷８４號五樓之１","OBJECTID":444715},"geometry":{"x":172962.36000000034,"y":2546145.0199999996}},{"attributes":{"ID":444741,"DIS_CODE":0,"TOWNNAME":"永康區","LI":"復華里","LIN":"5鄰","STREET":"國華街","SECT":" ","MAREA":" ","LANE":"１０２巷","ALLEY":" ","HOUSE_NO":"８０號二樓","E_COORD97":172949.04000000001,"N_COORD97":2546166.4900000002,"ADDRESS":"國華街１０２巷８０號二樓","OBJECTID":444716},"geometry":{"x":172949.04000000004,"y":2546166.4900000002}},{"attributes":{"ID":444742,"DIS_CODE":0,"TOWNNAME":"永康區","LI":"復華里","LIN":"5鄰","STREET":"國華街","SECT":" ","MAREA":" ","LANE":"１０２巷","ALLEY":" ","HOUSE_NO":"８４號九樓之２","E_COORD97":172962.48999999999,"N_COORD97":2546145.02,"ADDRESS":"國華街１０２巷８４號九樓之２","OBJECTID":444717},"geometry":{"x":172962.49000000115,"y":2546145.0199999996}},{"attributes":{"ID":444743,"DIS_CODE":0,"TOWNNAME":"關廟區","LI":"埤頭里","LIN":"5鄰","STREET":"保東路","SECT":" ","MAREA":" ","LANE":"３巷","ALLEY":" ","HOUSE_NO":"１８號","E_COORD97":179019.42000000001,"N_COORD97":2543986.2999999998,"ADDRESS":"保東路３巷１８號","OBJECTID":444718},"geometry":{"x":179019.42000000086,"y":2543986.3000000026}},{"attributes":{"ID":444744,"DIS_CODE":0,"TOWNNAME":"永康區","LI":"復華里","LIN":"5鄰","STREET":"國華街","SECT":" ","MAREA":" ","LANE":"１０２巷","ALLEY":" ","HOUSE_NO":"８４號十樓之２","E_COORD97":172962.48999999999,"N_COORD97":2546145.02,"ADDRESS":"國華街１０２巷８４號十樓之２","OBJECTID":444719},"geometry":{"x":172962.49000000115,"y":2546145.0199999996}},{"attributes":{"ID":444745,"DIS_CODE":0,"TOWNNAME":"永康區","LI":"復華里","LIN":"5鄰","STREET":"國華街","SECT":" ","MAREA":" ","LANE":"１０２巷","ALLEY":" ","HOUSE_NO":"８０號十樓之１","E_COORD97":172951.17999999999,"N_COORD97":2546166.52,"ADDRESS":"國華街１０２巷８０號十樓之１","OBJECTID":444720},"geometry":{"x":172951.1799999997,"y":2546166.5200000033}},{"attributes":{"ID":444746,"DIS_CODE":0,"TOWNNAME":"永康區","LI":"復華里","LIN":"5鄰","STREET":"國華街","SECT":" ","MAREA":" ","LANE":"１０２巷","ALLEY":" ","HOUSE_NO":"８０號九樓之１","E_COORD97":172951.17999999999,"N_COORD97":2546166.52,"ADDRESS":"國華街１０２巷８０號九樓之１","OBJECTID":444721},"geometry":{"x":172951.1799999997,"y":2546166.5200000033}},{"attributes":{"ID":444747,"DIS_CODE":0,"TOWNNAME":"永康區","LI":"復華里","LIN":"5鄰","STREET":"國華街","SECT":" ","MAREA":" ","LANE":"１０２巷","ALLEY":" ","HOUSE_NO":"８６號六樓之１","E_COORD97":172977.10999999999,"N_COORD97":2546138.5299999998,"ADDRESS":"國華街１０２巷８６號六樓之１","OBJECTID":444722},"geometry":{"x":172977.11000000127,"y":2546138.5299999993}},{"attributes":{"ID":444748,"DIS_CODE":0,"TOWNNAME":"永康區","LI":"復華里","LIN":"5鄰","STREET":"國華街","SECT":" ","MAREA":" ","LANE":"１０２巷","ALLEY":" ","HOUSE_NO":"８２號十二樓之２","E_COORD97":172952.85000000001,"N_COORD97":2546149.8599999999,"ADDRESS":"國華街１０２巷８２號十二樓之２","OBJECTID":444723},"geometry":{"x":172952.84999999963,"y":2546149.8599999994}},{"attributes":{"ID":444749,"DIS_CODE":0,"TOWNNAME":"永康區","LI":"復華里","LIN":"5鄰","STREET":"國華街","SECT":" ","MAREA":" ","LANE":"１０２巷","ALLEY":" ","HOUSE_NO":"８６號六樓之２","E_COORD97":172977.23999999999,"N_COORD97":2546138.5299999998,"ADDRESS":"國華街１０２巷８６號六樓之２","OBJECTID":444724},"geometry":{"x":172977.24000000115,"y":2546138.5299999993}},{"attributes":{"ID":444750,"DIS_CODE":0,"TOWNNAME":"永康區","LI":"復華里","LIN":"5鄰","STREET":"國華街","SECT":" ","MAREA":" ","LANE":"１０２巷","ALLEY":" ","HOUSE_NO":"８４號十樓之１","E_COORD97":172962.35999999999,"N_COORD97":2546145.02,"ADDRESS":"國華街１０２巷８４號十樓之１","OBJECTID":444725},"geometry":{"x":172962.36000000034,"y":2546145.0199999996}},{"attributes":{"ID":444751,"DIS_CODE":0,"TOWNNAME":"永康區","LI":"復華里","LIN":"5鄰","STREET":"國華街","SECT":" ","MAREA":" ","LANE":"１０２巷","ALLEY":" ","HOUSE_NO":"８２號六樓之１","E_COORD97":172951.47,"N_COORD97":2546149.8599999999,"ADDRESS":"國華街１０２巷８２號六樓之１","OBJECTID":444726},"geometry":{"x":172951.47000000067,"y":2546149.8599999994}},{"attributes":{"ID":444752,"DIS_CODE":0,"TOWNNAME":"永康區","LI":"復華里","LIN":"5鄰","STREET":"國華街","SECT":" ","MAREA":" ","LANE":"１０２巷","ALLEY":" ","HOUSE_NO":"８６號十樓之２","E_COORD97":172977.23999999999,"N_COORD97":2546138.5299999998,"ADDRESS":"國華街１０２巷８６號十樓之２","OBJECTID":444727},"geometry":{"x":172977.24000000115,"y":2546138.5299999993}},{"attributes":{"ID":444753,"DIS_CODE":0,"TOWNNAME":"永康區","LI":"復華里","LIN":"5鄰","STREET":"國華街","SECT":" ","MAREA":" ","LANE":"１０２巷","ALLEY":" ","HOUSE_NO":"８４號三樓之１","E_COORD97":172962.35999999999,"N_COORD97":2546145.02,"ADDRESS":"國華街１０２巷８４號三樓之１","OBJECTID":444728},"geometry":{"x":172962.36000000034,"y":2546145.0199999996}},{"attributes":{"ID":444754,"DIS_CODE":0,"TOWNNAME":"永康區","LI":"復華里","LIN":"5鄰","STREET":"國華街","SECT":" ","MAREA":" ","LANE":"１０２巷","ALLEY":" ","HOUSE_NO":"８２號四樓之１","E_COORD97":172951.47,"N_COORD97":2546149.8599999999,"ADDRESS":"國華街１０２巷８２號四樓之１","OBJECTID":444729},"geometry":{"x":172951.47000000067,"y":2546149.8599999994}},{"attributes":{"ID":444755,"DIS_CODE":0,"TOWNNAME":"永康區","LI":"復華里","LIN":"5鄰","STREET":"國華街","SECT":" ","MAREA":" ","LANE":"１０２巷","ALLEY":" ","HOUSE_NO":"８２號三樓之１","E_COORD97":172951.47,"N_COORD97":2546149.8599999999,"ADDRESS":"國華街１０２巷８２號三樓之１","OBJECTID":444730},"geometry":{"x":172951.47000000067,"y":2546149.8599999994}},{"attributes":{"ID":444756,"DIS_CODE":0,"TOWNNAME":"永康區","LI":"復華里","LIN":"5鄰","STREET":"國華街","SECT":" ","MAREA":" ","LANE":"１０２巷","ALLEY":" ","HOUSE_NO":"８０號七樓之２","E_COORD97":172951.31,"N_COORD97":2546166.52,"ADDRESS":"國華街１０２巷８０號七樓之２","OBJECTID":444731},"geometry":{"x":172951.31000000052,"y":2546166.5200000033}},{"attributes":{"ID":444757,"DIS_CODE":0,"TOWNNAME":"永康區","LI":"復華里","LIN":"5鄰","STREET":"國華街","SECT":" ","MAREA":" ","LANE":"１０２巷","ALLEY":" ","HOUSE_NO":"８４號六樓之２","E_COORD97":172962.48999999999,"N_COORD97":2546145.02,"ADDRESS":"國華街１０２巷８４號六樓之２","OBJECTID":444732},"geometry":{"x":172962.49000000115,"y":2546145.0199999996}},{"attributes":{"ID":444758,"DIS_CODE":0,"TOWNNAME":"永康區","LI":"復華里","LIN":"5鄰","STREET":"國華街","SECT":" ","MAREA":" ","LANE":"１０２巷","ALLEY":" ","HOUSE_NO":"８０號三樓之１","E_COORD97":172951.17999999999,"N_COORD97":2546166.52,"ADDRESS":"國華街１０２巷８０號三樓之１","OBJECTID":444733},"geometry":{"x":172951.1799999997,"y":2546166.5200000033}},{"attributes":{"ID":444759,"DIS_CODE":0,"TOWNNAME":"永康區","LI":"復華里","LIN":"5鄰","STREET":"國華街","SECT":" ","MAREA":" ","LANE":"１０２巷","ALLEY":" ","HOUSE_NO":"８２號三樓之２","E_COORD97":172951.60000000001,"N_COORD97":2546149.8599999999,"ADDRESS":"國華街１０２巷８２號三樓之２","OBJECTID":444734},"geometry":{"x":172951.59999999963,"y":2546149.8599999994}},{"attributes":{"ID":444760,"DIS_CODE":0,"TOWNNAME":"永康區","LI":"復華里","LIN":"5鄰","STREET":"國華街","SECT":" ","MAREA":" ","LANE":"１０２巷","ALLEY":" ","HOUSE_NO":"８４號七樓之２","E_COORD97":172962.48999999999,"N_COORD97":2546145.02,"ADDRESS":"國華街１０２巷８４號七樓之２","OBJECTID":444735},"geometry":{"x":172962.49000000115,"y":2546145.0199999996}},{"attributes":{"ID":444761,"DIS_CODE":0,"TOWNNAME":"永康區","LI":"復華里","LIN":"5鄰","STREET":"國華街","SECT":" ","MAREA":" ","LANE":"１０２巷","ALLEY":" ","HOUSE_NO":"８２號九樓之１","E_COORD97":172951.47,"N_COORD97":2546149.8599999999,"ADDRESS":"國華街１０２巷８２號九樓之１","OBJECTID":444736},"geometry":{"x":172951.47000000067,"y":2546149.8599999994}},{"attributes":{"ID":444762,"DIS_CODE":0,"TOWNNAME":"永康區","LI":"復華里","LIN":"5鄰","STREET":"國華街","SECT":" ","MAREA":" ","LANE":"１０２巷","ALLEY":" ","HOUSE_NO":"８４號十一樓之１","E_COORD97":172963.60999999999,"N_COORD97":2546145.02,"ADDRESS":"國華街１０２巷８４號十一樓之１","OBJECTID":444737},"geometry":{"x":172963.61000000127,"y":2546145.0199999996}},{"attributes":{"ID":444763,"DIS_CODE":0,"TOWNNAME":"永康區","LI":"復華里","LIN":"5鄰","STREET":"國華街","SECT":" ","MAREA":" ","LANE":"１０２巷","ALLEY":" ","HOUSE_NO":"８６號四樓之１","E_COORD97":172977.10999999999,"N_COORD97":2546138.5299999998,"ADDRESS":"國華街１０２巷８６號四樓之１","OBJECTID":444738},"geometry":{"x":172977.11000000127,"y":2546138.5299999993}},{"attributes":{"ID":444764,"DIS_CODE":0,"TOWNNAME":"永康區","LI":"復華里","LIN":"5鄰","STREET":"國華街","SECT":" ","MAREA":" ","LANE":"１０２巷","ALLEY":" ","HOUSE_NO":"８４號十二樓之２","E_COORD97":172963.73999999999,"N_COORD97":2546145.02,"ADDRESS":"國華街１０２巷８４號十二樓之２","OBJECTID":444739},"geometry":{"x":172963.74000000115,"y":2546145.0199999996}},{"attributes":{"ID":444765,"DIS_CODE":0,"TOWNNAME":"永康區","LI":"復華里","LIN":"5鄰","STREET":"國華街","SECT":" ","MAREA":" ","LANE":"１０２巷","ALLEY":" ","HOUSE_NO":"８４號五樓之２","E_COORD97":172962.48999999999,"N_COORD97":2546145.02,"ADDRESS":"國華街１０２巷８４號五樓之２","OBJECTID":444740},"geometry":{"x":172962.49000000115,"y":2546145.0199999996}},{"attributes":{"ID":444766,"DIS_CODE":0,"TOWNNAME":"永康區","LI":"復華里","LIN":"5鄰","STREET":"國華街","SECT":" ","MAREA":" ","LANE":"１０２巷","ALLEY":" ","HOUSE_NO":"８４號四樓之２","E_COORD97":172962.48999999999,"N_COORD97":2546145.02,"ADDRESS":"國華街１０２巷８４號四樓之２","OBJECTID":444741},"geometry":{"x":172962.49000000115,"y":2546145.0199999996}},{"attributes":{"ID":444767,"DIS_CODE":0,"TOWNNAME":"永康區","LI":"復華里","LIN":"5鄰","STREET":"國華街","SECT":" ","MAREA":" ","LANE":"１０２巷","ALLEY":" ","HOUSE_NO":"８２號七樓之２","E_COORD97":172951.60000000001,"N_COORD97":2546149.8599999999,"ADDRESS":"國華街１０２巷８２號七樓之２","OBJECTID":444742},"geometry":{"x":172951.59999999963,"y":2546149.8599999994}},{"attributes":{"ID":444768,"DIS_CODE":0,"TOWNNAME":"永康區","LI":"復華里","LIN":"5鄰","STREET":"國華街","SECT":" ","MAREA":" ","LANE":"１０２巷","ALLEY":" ","HOUSE_NO":"８２號五樓之１","E_COORD97":172951.47,"N_COORD97":2546149.8599999999,"ADDRESS":"國華街１０２巷８２號五樓之１","OBJECTID":444743},"geometry":{"x":172951.47000000067,"y":2546149.8599999994}},{"attributes":{"ID":444769,"DIS_CODE":0,"TOWNNAME":"永康區","LI":"復華里","LIN":"5鄰","STREET":"國華街","SECT":" ","MAREA":" ","LANE":"１０２巷","ALLEY":" ","HOUSE_NO":"８２號八樓之１","E_COORD97":172951.47,"N_COORD97":2546149.8599999999,"ADDRESS":"國華街１０２巷８２號八樓之１","OBJECTID":444744},"geometry":{"x":172951.47000000067,"y":2546149.8599999994}},{"attributes":{"ID":444770,"DIS_CODE":0,"TOWNNAME":"永康區","LI":"復華里","LIN":"5鄰","STREET":"國華街","SECT":" ","MAREA":" ","LANE":"１０２巷","ALLEY":" ","HOUSE_NO":"８４號四樓之１","E_COORD97":172962.35999999999,"N_COORD97":2546145.02,"ADDRESS":"國華街１０２巷８４號四樓之１","OBJECTID":444745},"geometry":{"x":172962.36000000034,"y":2546145.0199999996}},{"attributes":{"ID":444771,"DIS_CODE":0,"TOWNNAME":"永康區","LI":"復華里","LIN":"5鄰","STREET":"國華街","SECT":" ","MAREA":" ","LANE":"１０２巷","ALLEY":" ","HOUSE_NO":"８０號八樓之１","E_COORD97":172951.17999999999,"N_COORD97":2546166.52,"ADDRESS":"國華街１０２巷８０號八樓之１","OBJECTID":444746},"geometry":{"x":172951.1799999997,"y":2546166.5200000033}},{"attributes":{"ID":444772,"DIS_CODE":0,"TOWNNAME":"新市區","LI":"港墘里","LIN":"11鄰","STREET":" ","SECT":" ","MAREA":"崙頂","LANE":" ","ALLEY":" ","HOUSE_NO":"３３號","E_COORD97":178826.230419,"N_COORD97":2552607.9775299998,"ADDRESS":"崙頂３３號","OBJECTID":444747},"geometry":{"x":178826.23041900154,"y":2552607.9775260016}},{"attributes":{"ID":444773,"DIS_CODE":0,"TOWNNAME":"永康區","LI":"復華里","LIN":"5鄰","STREET":"國華街","SECT":" ","MAREA":" ","LANE":"１０２巷","ALLEY":" ","HOUSE_NO":"８４號八樓之２","E_COORD97":172962.48999999999,"N_COORD97":2546145.02,"ADDRESS":"國華街１０２巷８４號八樓之２","OBJECTID":444748},"geometry":{"x":172962.49000000115,"y":2546145.0199999996}},{"attributes":{"ID":444774,"DIS_CODE":0,"TOWNNAME":"永康區","LI":"復華里","LIN":"5鄰","STREET":"國華街","SECT":" ","MAREA":" ","LANE":"１０２巷","ALLEY":" ","HOUSE_NO":"８０號四樓之２","E_COORD97":172951.31,"N_COORD97":2546166.52,"ADDRESS":"國華街１０２巷８０號四樓之２","OBJECTID":444749},"geometry":{"x":172951.31000000052,"y":2546166.5200000033}},{"attributes":{"ID":444775,"DIS_CODE":0,"TOWNNAME":"永康區","LI":"復華里","LIN":"5鄰","STREET":"國華街","SECT":" ","MAREA":" ","LANE":"１０２巷","ALLEY":" ","HOUSE_NO":"８２號十一樓之２","E_COORD97":172952.85000000001,"N_COORD97":2546149.8599999999,"ADDRESS":"國華街１０２巷８２號十一樓之２","OBJECTID":444750},"geometry":{"x":172952.84999999963,"y":2546149.8599999994}},{"attributes":{"ID":444776,"DIS_CODE":0,"TOWNNAME":"東區","LI":"虎尾里","LIN":"5鄰","STREET":"富農街","SECT":"一段","MAREA":" ","LANE":"７２巷","ALLEY":" ","HOUSE_NO":"２２號七樓","E_COORD97":171604.66,"N_COORD97":2542175.6699999999,"ADDRESS":"富農街一段７２巷２２號七樓","OBJECTID":444751},"geometry":{"x":171604.66000000108,"y":2542175.6700000018}},{"attributes":{"ID":444777,"DIS_CODE":0,"TOWNNAME":"東區","LI":"虎尾里","LIN":"5鄰","STREET":"富農街","SECT":"一段","MAREA":" ","LANE":"７２巷","ALLEY":" ","HOUSE_NO":"２２號七樓之１","E_COORD97":171604.66,"N_COORD97":2542175.6699999999,"ADDRESS":"富農街一段７２巷２２號七樓之１","OBJECTID":444752},"geometry":{"x":171604.66000000108,"y":2542175.6700000018}},{"attributes":{"ID":444778,"DIS_CODE":0,"TOWNNAME":"東區","LI":"虎尾里","LIN":"5鄰","STREET":"富農街","SECT":"一段","MAREA":" ","LANE":"７２巷","ALLEY":" ","HOUSE_NO":"２２號七樓之２","E_COORD97":171604.66,"N_COORD97":2542175.6699999999,"ADDRESS":"富農街一段７２巷２２號七樓之２","OBJECTID":444753},"geometry":{"x":171604.66000000108,"y":2542175.6700000018}},{"attributes":{"ID":444779,"DIS_CODE":0,"TOWNNAME":"東區","LI":"虎尾里","LIN":"5鄰","STREET":"富農街","SECT":"一段","MAREA":" ","LANE":"７２巷","ALLEY":" ","HOUSE_NO":"２２號二樓","E_COORD97":171604.66,"N_COORD97":2542175.6699999999,"ADDRESS":"富農街一段７２巷２２號二樓","OBJECTID":444754},"geometry":{"x":171604.66000000108,"y":2542175.6700000018}},{"attributes":{"ID":444780,"DIS_CODE":0,"TOWNNAME":"東區","LI":"虎尾里","LIN":"5鄰","STREET":"富農街","SECT":"一段","MAREA":" ","LANE":"７２巷","ALLEY":" ","HOUSE_NO":"２２號三樓","E_COORD97":171604.66,"N_COORD97":2542175.6699999999,"ADDRESS":"富農街一段７２巷２２號三樓","OBJECTID":444755},"geometry":{"x":171604.66000000108,"y":2542175.6700000018}},{"attributes":{"ID":444781,"DIS_CODE":0,"TOWNNAME":"東區","LI":"虎尾里","LIN":"5鄰","STREET":"富農街","SECT":"一段","MAREA":" ","LANE":"７２巷","ALLEY":" ","HOUSE_NO":"２２號三樓之１","E_COORD97":171604.66,"N_COORD97":2542175.6699999999,"ADDRESS":"富農街一段７２巷２２號三樓之１","OBJECTID":444756},"geometry":{"x":171604.66000000108,"y":2542175.6700000018}},{"attributes":{"ID":444782,"DIS_CODE":0,"TOWNNAME":"東區","LI":"虎尾里","LIN":"5鄰","STREET":"富農街","SECT":"一段","MAREA":" ","LANE":"７２巷","ALLEY":" ","HOUSE_NO":"２２號三樓之２","E_COORD97":171604.66,"N_COORD97":2542175.6699999999,"ADDRESS":"富農街一段７２巷２２號三樓之２","OBJECTID":444757},"geometry":{"x":171604.66000000108,"y":2542175.6700000018}},{"attributes":{"ID":444783,"DIS_CODE":0,"TOWNNAME":"東區","LI":"虎尾里","LIN":"5鄰","STREET":"富農街","SECT":"一段","MAREA":" ","LANE":"７２巷","ALLEY":" ","HOUSE_NO":"２２號五樓","E_COORD97":171604.66,"N_COORD97":2542175.6699999999,"ADDRESS":"富農街一段７２巷２２號五樓","OBJECTID":444758},"geometry":{"x":171604.66000000108,"y":2542175.6700000018}},{"attributes":{"ID":444784,"DIS_CODE":0,"TOWNNAME":"新營區","LI":"民生里","LIN":"5鄰","STREET":"中華路","SECT":" ","MAREA":" ","LANE":"８０巷","ALLEY":" ","HOUSE_NO":"３號","E_COORD97":179399.63,"N_COORD97":2578214.5299999998,"ADDRESS":"中華路８０巷３號","OBJECTID":444759},"geometry":{"x":179399.63000000082,"y":2578214.5299999993}},{"attributes":{"ID":444785,"DIS_CODE":0,"TOWNNAME":"東區","LI":"虎尾里","LIN":"5鄰","STREET":"富農街","SECT":"一段","MAREA":" ","LANE":"７２巷","ALLEY":" ","HOUSE_NO":"２２號五樓之１","E_COORD97":171604.66,"N_COORD97":2542175.6699999999,"ADDRESS":"富農街一段７２巷２２號五樓之１","OBJECTID":444760},"geometry":{"x":171604.66000000108,"y":2542175.6700000018}},{"attributes":{"ID":444786,"DIS_CODE":0,"TOWNNAME":"東區","LI":"虎尾里","LIN":"5鄰","STREET":"富農街","SECT":"一段","MAREA":" ","LANE":"７２巷","ALLEY":" ","HOUSE_NO":"２２號五樓之２","E_COORD97":171604.66,"N_COORD97":2542175.6699999999,"ADDRESS":"富農街一段７２巷２２號五樓之２","OBJECTID":444761},"geometry":{"x":171604.66000000108,"y":2542175.6700000018}},{"attributes":{"ID":444787,"DIS_CODE":0,"TOWNNAME":"東區","LI":"虎尾里","LIN":"5鄰","STREET":"富農街","SECT":"一段","MAREA":" ","LANE":"７２巷","ALLEY":" ","HOUSE_NO":"２２號六樓","E_COORD97":171604.66,"N_COORD97":2542175.6699999999,"ADDRESS":"富農街一段７２巷２２號六樓","OBJECTID":444762},"geometry":{"x":171604.66000000108,"y":2542175.6700000018}},{"attributes":{"ID":444788,"DIS_CODE":0,"TOWNNAME":"東區","LI":"虎尾里","LIN":"5鄰","STREET":"富農街","SECT":"一段","MAREA":" ","LANE":"７２巷","ALLEY":" ","HOUSE_NO":"２２號六樓之１","E_COORD97":171604.66,"N_COORD97":2542175.6699999999,"ADDRESS":"富農街一段７２巷２２號六樓之１","OBJECTID":444763},"geometry":{"x":171604.66000000108,"y":2542175.6700000018}},{"attributes":{"ID":444789,"DIS_CODE":0,"TOWNNAME":"東區","LI":"虎尾里","LIN":"5鄰","STREET":"富農街","SECT":"一段","MAREA":" ","LANE":"７２巷","ALLEY":" ","HOUSE_NO":"２２號六樓之２","E_COORD97":171604.66,"N_COORD97":2542175.6699999999,"ADDRESS":"富農街一段７２巷２２號六樓之２","OBJECTID":444764},"geometry":{"x":171604.66000000108,"y":2542175.6700000018}},{"attributes":{"ID":444790,"DIS_CODE":0,"TOWNNAME":"東區","LI":"虎尾里","LIN":"5鄰","STREET":"富農街","SECT":"一段","MAREA":" ","LANE":"７２巷","ALLEY":" ","HOUSE_NO":"２２號四樓","E_COORD97":171604.66,"N_COORD97":2542175.6699999999,"ADDRESS":"富農街一段７２巷２２號四樓","OBJECTID":444765},"geometry":{"x":171604.66000000108,"y":2542175.6700000018}},{"attributes":{"ID":444791,"DIS_CODE":0,"TOWNNAME":"東區","LI":"虎尾里","LIN":"5鄰","STREET":"富農街","SECT":"一段","MAREA":" ","LANE":"７２巷","ALLEY":" ","HOUSE_NO":"２２號四樓之１","E_COORD97":171604.66,"N_COORD97":2542175.6699999999,"ADDRESS":"富農街一段７２巷２２號四樓之１","OBJECTID":444766},"geometry":{"x":171604.66000000108,"y":2542175.6700000018}},{"attributes":{"ID":444792,"DIS_CODE":0,"TOWNNAME":"東區","LI":"虎尾里","LIN":"5鄰","STREET":"富農街","SECT":"一段","MAREA":" ","LANE":"７２巷","ALLEY":" ","HOUSE_NO":"２２號四樓之２","E_COORD97":171604.66,"N_COORD97":2542175.6699999999,"ADDRESS":"富農街一段７２巷２２號四樓之２","OBJECTID":444767},"geometry":{"x":171604.66000000108,"y":2542175.6700000018}},{"attributes":{"ID":444793,"DIS_CODE":0,"TOWNNAME":"永康區","LI":"復華里","LIN":"5鄰","STREET":"國華街","SECT":" ","MAREA":" ","LANE":"１０２巷","ALLEY":" ","HOUSE_NO":"８８號五樓之１","E_COORD97":172989,"N_COORD97":2546133.1400000001,"ADDRESS":"國華街１０２巷８８號五樓之１","OBJECTID":444768},"geometry":{"x":172989.00000000093,"y":2546133.1400000025}},{"attributes":{"ID":444794,"DIS_CODE":0,"TOWNNAME":"永康區","LI":"正強里","LIN":"5鄰","STREET":"中正路","SECT":" ","MAREA":" ","LANE":"５５巷","ALLEY":" ","HOUSE_NO":"４號七樓之１","E_COORD97":173584.60999999999,"N_COORD97":2547799.7400000002,"ADDRESS":"中正路５５巷４號七樓之１","OBJECTID":444769},"geometry":{"x":173584.61000000034,"y":2547799.7400000039}},{"attributes":{"ID":444795,"DIS_CODE":0,"TOWNNAME":"永康區","LI":"正強里","LIN":"5鄰","STREET":"中正路","SECT":" ","MAREA":" ","LANE":"５５巷","ALLEY":" ","HOUSE_NO":"６號七樓之１","E_COORD97":173572.32000000001,"N_COORD97":2547795.4900000002,"ADDRESS":"中正路５５巷６號七樓之１","OBJECTID":444770},"geometry":{"x":173572.32000000123,"y":2547795.4900000021}},{"attributes":{"ID":444796,"DIS_CODE":0,"TOWNNAME":"永康區","LI":"正強里","LIN":"5鄰","STREET":"中正路","SECT":" ","MAREA":" ","LANE":"５５巷","ALLEY":" ","HOUSE_NO":"８號八樓之２","E_COORD97":173558.92999999999,"N_COORD97":2547783.4900000002,"ADDRESS":"中正路５５巷８號八樓之２","OBJECTID":444771},"geometry":{"x":173558.93000000063,"y":2547783.4900000002}},{"attributes":{"ID":444797,"DIS_CODE":0,"TOWNNAME":"永康區","LI":"正強里","LIN":"5鄰","STREET":"中正路","SECT":" ","MAREA":" ","LANE":"５５巷","ALLEY":" ","HOUSE_NO":"２號八樓之１","E_COORD97":173591.41,"N_COORD97":2547793.7400000002,"ADDRESS":"中正路５５巷２號八樓之１","OBJECTID":444772},"geometry":{"x":173591.41000000108,"y":2547793.7400000021}},{"attributes":{"ID":444798,"DIS_CODE":0,"TOWNNAME":"永康區","LI":"正強里","LIN":"5鄰","STREET":"中正路","SECT":" ","MAREA":" ","LANE":"５５巷","ALLEY":" ","HOUSE_NO":"４號四樓之１","E_COORD97":173584.60999999999,"N_COORD97":2547799.7400000002,"ADDRESS":"中正路５５巷４號四樓之１","OBJECTID":444773},"geometry":{"x":173584.61000000034,"y":2547799.7400000039}},{"attributes":{"ID":444799,"DIS_CODE":0,"TOWNNAME":"永康區","LI":"正強里","LIN":"5鄰","STREET":"中正路","SECT":" ","MAREA":" ","LANE":"５５巷","ALLEY":" ","HOUSE_NO":"４號七樓之３","E_COORD97":173584.70999999999,"N_COORD97":2547799.7400000002,"ADDRESS":"中正路５５巷４號七樓之３","OBJECTID":444774},"geometry":{"x":173584.71000000089,"y":2547799.7400000039}},{"attributes":{"ID":444800,"DIS_CODE":0,"TOWNNAME":"永康區","LI":"正強里","LIN":"5鄰","STREET":"中正路","SECT":" ","MAREA":" ","LANE":"５５巷","ALLEY":" ","HOUSE_NO":"４號八樓之１","E_COORD97":173584.60999999999,"N_COORD97":2547799.7400000002,"ADDRESS":"中正路５５巷４號八樓之１","OBJECTID":444775},"geometry":{"x":173584.61000000034,"y":2547799.7400000039}},{"attributes":{"ID":444801,"DIS_CODE":0,"TOWNNAME":"永康區","LI":"正強里","LIN":"5鄰","STREET":"中正路","SECT":" ","MAREA":" ","LANE":"５５巷","ALLEY":" ","HOUSE_NO":"４號八樓之２","E_COORD97":173584.73999999999,"N_COORD97":2547799.7400000002,"ADDRESS":"中正路５５巷４號八樓之２","OBJECTID":444776},"geometry":{"x":173584.74000000115,"y":2547799.7400000039}},{"attributes":{"ID":444802,"DIS_CODE":0,"TOWNNAME":"永康區","LI":"正強里","LIN":"5鄰","STREET":"中正路","SECT":" ","MAREA":" ","LANE":"５５巷","ALLEY":" ","HOUSE_NO":"２號六樓之１","E_COORD97":173591.41,"N_COORD97":2547793.7400000002,"ADDRESS":"中正路５５巷２號六樓之１","OBJECTID":444777},"geometry":{"x":173591.41000000108,"y":2547793.7400000021}},{"attributes":{"ID":444803,"DIS_CODE":0,"TOWNNAME":"永康區","LI":"正強里","LIN":"5鄰","STREET":"中正路","SECT":" ","MAREA":" ","LANE":"５５巷","ALLEY":" ","HOUSE_NO":"２號五樓之２","E_COORD97":173591.54000000001,"N_COORD97":2547793.7400000002,"ADDRESS":"中正路５５巷２號五樓之２","OBJECTID":444778},"geometry":{"x":173591.54000000004,"y":2547793.7400000021}},{"attributes":{"ID":444804,"DIS_CODE":0,"TOWNNAME":"永康區","LI":"正強里","LIN":"5鄰","STREET":"中正路","SECT":" ","MAREA":" ","LANE":"５５巷","ALLEY":" ","HOUSE_NO":"４號六樓之３","E_COORD97":173584.70999999999,"N_COORD97":2547799.7400000002,"ADDRESS":"中正路５５巷４號六樓之３","OBJECTID":444779},"geometry":{"x":173584.71000000089,"y":2547799.7400000039}},{"attributes":{"ID":444805,"DIS_CODE":0,"TOWNNAME":"永康區","LI":"正強里","LIN":"5鄰","STREET":"中正路","SECT":" ","MAREA":" ","LANE":"５５巷","ALLEY":" ","HOUSE_NO":"２號七樓之１","E_COORD97":173591.41,"N_COORD97":2547793.7400000002,"ADDRESS":"中正路５５巷２號七樓之１","OBJECTID":444780},"geometry":{"x":173591.41000000108,"y":2547793.7400000021}},{"attributes":{"ID":444806,"DIS_CODE":0,"TOWNNAME":"永康區","LI":"正強里","LIN":"5鄰","STREET":"中正路","SECT":" ","MAREA":" ","LANE":"５５巷","ALLEY":" ","HOUSE_NO":"８號七樓之２","E_COORD97":173558.92999999999,"N_COORD97":2547783.4900000002,"ADDRESS":"中正路５５巷８號七樓之２","OBJECTID":444781},"geometry":{"x":173558.93000000063,"y":2547783.4900000002}},{"attributes":{"ID":444807,"DIS_CODE":0,"TOWNNAME":"永康區","LI":"正強里","LIN":"5鄰","STREET":"中正路","SECT":" ","MAREA":" ","LANE":"５５巷","ALLEY":" ","HOUSE_NO":"６號六樓之２","E_COORD97":173572.45000000001,"N_COORD97":2547795.4900000002,"ADDRESS":"中正路５５巷６號六樓之２","OBJECTID":444782},"geometry":{"x":173572.45000000205,"y":2547795.4900000021}},{"attributes":{"ID":444808,"DIS_CODE":0,"TOWNNAME":"永康區","LI":"正強里","LIN":"5鄰","STREET":"中正路","SECT":" ","MAREA":" ","LANE":"５５巷","ALLEY":" ","HOUSE_NO":"６號八樓之１","E_COORD97":173572.32000000001,"N_COORD97":2547795.4900000002,"ADDRESS":"中正路５５巷６號八樓之１","OBJECTID":444783},"geometry":{"x":173572.32000000123,"y":2547795.4900000021}},{"attributes":{"ID":444809,"DIS_CODE":0,"TOWNNAME":"永康區","LI":"正強里","LIN":"5鄰","STREET":"中正路","SECT":" ","MAREA":" ","LANE":"５５巷","ALLEY":" ","HOUSE_NO":"８號六樓之２","E_COORD97":173558.92999999999,"N_COORD97":2547783.4900000002,"ADDRESS":"中正路５５巷８號六樓之２","OBJECTID":444784},"geometry":{"x":173558.93000000063,"y":2547783.4900000002}},{"attributes":{"ID":444810,"DIS_CODE":0,"TOWNNAME":"永康區","LI":"正強里","LIN":"5鄰","STREET":"中正路","SECT":" ","MAREA":" ","LANE":"５５巷","ALLEY":" ","HOUSE_NO":"２號五樓之１","E_COORD97":173591.41,"N_COORD97":2547793.7400000002,"ADDRESS":"中正路５５巷２號五樓之１","OBJECTID":444785},"geometry":{"x":173591.41000000108,"y":2547793.7400000021}},{"attributes":{"ID":444811,"DIS_CODE":0,"TOWNNAME":"永康區","LI":"正強里","LIN":"5鄰","STREET":"中正路","SECT":" ","MAREA":" ","LANE":"５５巷","ALLEY":" ","HOUSE_NO":"８號七樓之１","E_COORD97":173558.79999999999,"N_COORD97":2547783.4900000002,"ADDRESS":"中正路５５巷８號七樓之１","OBJECTID":444786},"geometry":{"x":173558.79999999981,"y":2547783.4900000002}},{"attributes":{"ID":444812,"DIS_CODE":0,"TOWNNAME":"永康區","LI":"正強里","LIN":"5鄰","STREET":"中正路","SECT":" ","MAREA":" ","LANE":"５５巷","ALLEY":" ","HOUSE_NO":"６號四樓之１","E_COORD97":173572.32000000001,"N_COORD97":2547795.4900000002,"ADDRESS":"中正路５５巷６號四樓之１","OBJECTID":444787},"geometry":{"x":173572.32000000123,"y":2547795.4900000021}},{"attributes":{"ID":444813,"DIS_CODE":0,"TOWNNAME":"永康區","LI":"正強里","LIN":"5鄰","STREET":"中正路","SECT":" ","MAREA":" ","LANE":"５５巷","ALLEY":" ","HOUSE_NO":"４號四樓之３","E_COORD97":173584.70999999999,"N_COORD97":2547799.7400000002,"ADDRESS":"中正路５５巷４號四樓之３","OBJECTID":444788},"geometry":{"x":173584.71000000089,"y":2547799.7400000039}},{"attributes":{"ID":444814,"DIS_CODE":0,"TOWNNAME":"永康區","LI":"正強里","LIN":"5鄰","STREET":"中正路","SECT":" ","MAREA":" ","LANE":"５５巷","ALLEY":" ","HOUSE_NO":"８號六樓之１","E_COORD97":173558.79999999999,"N_COORD97":2547783.4900000002,"ADDRESS":"中正路５５巷８號六樓之１","OBJECTID":444789},"geometry":{"x":173558.79999999981,"y":2547783.4900000002}},{"attributes":{"ID":444815,"DIS_CODE":0,"TOWNNAME":"永康區","LI":"正強里","LIN":"5鄰","STREET":"中正路","SECT":" ","MAREA":" ","LANE":"５５巷","ALLEY":" ","HOUSE_NO":"２號四樓之１","E_COORD97":173591.41,"N_COORD97":2547793.7400000002,"ADDRESS":"中正路５５巷２號四樓之１","OBJECTID":444790},"geometry":{"x":173591.41000000108,"y":2547793.7400000021}},{"attributes":{"ID":444816,"DIS_CODE":0,"TOWNNAME":"永康區","LI":"正強里","LIN":"5鄰","STREET":"中正路","SECT":" ","MAREA":" ","LANE":"５５巷","ALLEY":" ","HOUSE_NO":"８號五樓之１","E_COORD97":173558.79999999999,"N_COORD97":2547783.4900000002,"ADDRESS":"中正路５５巷８號五樓之１","OBJECTID":444791},"geometry":{"x":173558.79999999981,"y":2547783.4900000002}},{"attributes":{"ID":444817,"DIS_CODE":0,"TOWNNAME":"永康區","LI":"正強里","LIN":"5鄰","STREET":"中正路","SECT":" ","MAREA":" ","LANE":"５５巷","ALLEY":" ","HOUSE_NO":"４號六樓之２","E_COORD97":173584.73999999999,"N_COORD97":2547799.7400000002,"ADDRESS":"中正路５５巷４號六樓之２","OBJECTID":444792},"geometry":{"x":173584.74000000115,"y":2547799.7400000039}},{"attributes":{"ID":444818,"DIS_CODE":0,"TOWNNAME":"永康區","LI":"五王里","LIN":"5鄰","STREET":"中華二路","SECT":" ","MAREA":" ","LANE":"２０６巷","ALLEY":" ","HOUSE_NO":"５８號四樓之３","E_COORD97":171610.85999999999,"N_COORD97":2545620.4399999999,"ADDRESS":"中華二路２０６巷５８號四樓之３","OBJECTID":444793},"geometry":{"x":171610.86000000127,"y":2545620.4399999995}},{"attributes":{"ID":444819,"DIS_CODE":0,"TOWNNAME":"永康區","LI":"正強里","LIN":"5鄰","STREET":"中正路","SECT":" ","MAREA":" ","LANE":"５５巷","ALLEY":" ","HOUSE_NO":"４號五樓之１","E_COORD97":173584.60999999999,"N_COORD97":2547799.7400000002,"ADDRESS":"中正路５５巷４號五樓之１","OBJECTID":444794},"geometry":{"x":173584.61000000034,"y":2547799.7400000039}},{"attributes":{"ID":444820,"DIS_CODE":0,"TOWNNAME":"永康區","LI":"正強里","LIN":"5鄰","STREET":"中正路","SECT":" ","MAREA":" ","LANE":"５５巷","ALLEY":" ","HOUSE_NO":"４號五樓之２","E_COORD97":173584.73999999999,"N_COORD97":2547799.7400000002,"ADDRESS":"中正路５５巷４號五樓之２","OBJECTID":444795},"geometry":{"x":173584.74000000115,"y":2547799.7400000039}},{"attributes":{"ID":444821,"DIS_CODE":0,"TOWNNAME":"永康區","LI":"五王里","LIN":"5鄰","STREET":"中華二路","SECT":" ","MAREA":" ","LANE":"２０６巷","ALLEY":" ","HOUSE_NO":"５８號五樓之３","E_COORD97":171610.85999999999,"N_COORD97":2545620.4399999999,"ADDRESS":"中華二路２０６巷５８號五樓之３","OBJECTID":444796},"geometry":{"x":171610.86000000127,"y":2545620.4399999995}},{"attributes":{"ID":444822,"DIS_CODE":0,"TOWNNAME":"永康區","LI":"正強里","LIN":"5鄰","STREET":"中正路","SECT":" ","MAREA":" ","LANE":"５５巷","ALLEY":" ","HOUSE_NO":"２號六樓之２","E_COORD97":173591.54000000001,"N_COORD97":2547793.7400000002,"ADDRESS":"中正路５５巷２號六樓之２","OBJECTID":444797},"geometry":{"x":173591.54000000004,"y":2547793.7400000021}},{"attributes":{"ID":444823,"DIS_CODE":0,"TOWNNAME":"永康區","LI":"正強里","LIN":"5鄰","STREET":"中正路","SECT":" ","MAREA":" ","LANE":"５５巷","ALLEY":" ","HOUSE_NO":"４號六樓之１","E_COORD97":173584.60999999999,"N_COORD97":2547799.7400000002,"ADDRESS":"中正路５５巷４號六樓之１","OBJECTID":444798},"geometry":{"x":173584.61000000034,"y":2547799.7400000039}},{"attributes":{"ID":444824,"DIS_CODE":0,"TOWNNAME":"永康區","LI":"東橋里","LIN":"5鄰","STREET":"中山南路","SECT":" ","MAREA":" ","LANE":"１９５巷","ALLEY":" ","HOUSE_NO":"３２之７號十樓之７","E_COORD97":171459.92999999999,"N_COORD97":2546395.8999999999,"ADDRESS":"中山南路１９５巷３２之７號十樓之７","OBJECTID":444799},"geometry":{"x":171459.93000000063,"y":2546395.9000000022}},{"attributes":{"ID":444825,"DIS_CODE":0,"TOWNNAME":"新營區","LI":"太北里","LIN":"17鄰","STREET":" ","SECT":" ","MAREA":"太子宮","LANE":" ","ALLEY":" ","HOUSE_NO":"１４７之３１號","E_COORD97":175358.708534,"N_COORD97":2577135.5913900002,"ADDRESS":"太子宮１４７之３１號","OBJECTID":444800},"geometry":{"x":175358.70853400137,"y":2577135.5913880039}}]}