{"displayFieldName":"TOWNNAME","fieldAliases":{"ID":"ID","DIS_CODE":"DIS_CODE","TOWNNAME":"TOWNNAME","LI":"LI","LIN":"LIN","STREET":"STREET","SECT":"SECT","MAREA":"MAREA","LANE":"LANE","ALLEY":"ALLEY","HOUSE_NO":"HOUSE_NO","E_COORD97":"E_COORD97","N_COORD97":"N_COORD97","ADDRESS":"ADDRESS","OBJECTID":"OBJECTID"},"geometryType":"esriGeometryPoint","spatialReference":{"wkid":102443,"latestWkid":3826},"fields":[{"name":"ID","type":"esriFieldTypeDouble","alias":"ID"},{"name":"DIS_CODE","type":"esriFieldTypeInteger","alias":"DIS_CODE"},{"name":"TOWNNAME","type":"esriFieldTypeString","alias":"TOWNNAME","length":8},{"name":"LI","type":"esriFieldTypeString","alias":"LI","length":8},{"name":"LIN","type":"esriFieldTypeString","alias":"LIN","length":12},{"name":"STREET","type":"esriFieldTypeString","alias":"STREET","length":20},{"name":"SECT","type":"esriFieldTypeString","alias":"SECT","length":8},{"name":"MAREA","type":"esriFieldTypeString","alias":"MAREA","length":12},{"name":"LANE","type":"esriFieldTypeString","alias":"LANE","length":10},{"name":"ALLEY","type":"esriFieldTypeString","alias":"ALLEY","length":10},{"name":"HOUSE_NO","type":"esriFieldTypeString","alias":"HOUSE_NO","length":20},{"name":"E_COORD97","type":"esriFieldTypeDouble","alias":"E_COORD97"},{"name":"N_COORD97","type":"esriFieldTypeDouble","alias":"N_COORD97"},{"name":"ADDRESS","type":"esriFieldTypeString","alias":"ADDRESS","length":50},{"name":"OBJECTID","type":"esriFieldTypeOID","alias":"OBJECTID"}],"features":[{"attributes":{"ID":397225,"DIS_CODE":0,"TOWNNAME":"永康區","LI":"六合里","LIN":"16鄰","STREET":"六合路","SECT":" ","MAREA":" ","LANE":"４２巷","ALLEY":" ","HOUSE_NO":"１號之１","E_COORD97":171205.14000000001,"N_COORD97":2545540.04,"ADDRESS":"六合路４２巷１號之１","OBJECTID":397201},"geometry":{"x":171205.13999999966,"y":2545540.040000001}},{"attributes":{"ID":397226,"DIS_CODE":0,"TOWNNAME":"永康區","LI":"六合里","LIN":"16鄰","STREET":"六合路","SECT":" ","MAREA":" ","LANE":"４２巷","ALLEY":" ","HOUSE_NO":"２１號","E_COORD97":171284.76000000001,"N_COORD97":2545532.7400000002,"ADDRESS":"六合路４２巷２１號","OBJECTID":397202},"geometry":{"x":171284.76000000164,"y":2545532.7400000021}},{"attributes":{"ID":397227,"DIS_CODE":0,"TOWNNAME":"永康區","LI":"六合里","LIN":"16鄰","STREET":"六合路","SECT":" ","MAREA":" ","LANE":"４２巷","ALLEY":" ","HOUSE_NO":"２２號","E_COORD97":171253.89999999999,"N_COORD97":2545511.25,"ADDRESS":"六合路４２巷２２號","OBJECTID":397203},"geometry":{"x":171253.90000000224,"y":2545511.2500000019}},{"attributes":{"ID":397228,"DIS_CODE":0,"TOWNNAME":"永康區","LI":"六合里","LIN":"16鄰","STREET":"六合路","SECT":" ","MAREA":" ","LANE":"４２巷","ALLEY":" ","HOUSE_NO":"２３號","E_COORD97":171289.14999999999,"N_COORD97":2545532.4900000002,"ADDRESS":"六合路４２巷２３號","OBJECTID":397204},"geometry":{"x":171289.15000000037,"y":2545532.4900000002}},{"attributes":{"ID":397229,"DIS_CODE":0,"TOWNNAME":"永康區","LI":"六合里","LIN":"16鄰","STREET":"六合路","SECT":" ","MAREA":" ","LANE":"４２巷","ALLEY":" ","HOUSE_NO":"２４號","E_COORD97":171262.29999999999,"N_COORD97":2545509.5,"ADDRESS":"六合路４２巷２４號","OBJECTID":397205},"geometry":{"x":171262.29999999888,"y":2545509.5000000037}},{"attributes":{"ID":397230,"DIS_CODE":0,"TOWNNAME":"永康區","LI":"六合里","LIN":"16鄰","STREET":"六合路","SECT":" ","MAREA":" ","LANE":"４２巷","ALLEY":" ","HOUSE_NO":"２７號","E_COORD97":171296.95999999999,"N_COORD97":2545532.2400000002,"ADDRESS":"六合路４２巷２７號","OBJECTID":397206},"geometry":{"x":171296.95999999903,"y":2545532.2400000021}},{"attributes":{"ID":397231,"DIS_CODE":0,"TOWNNAME":"永康區","LI":"六合里","LIN":"16鄰","STREET":"六合路","SECT":" ","MAREA":" ","LANE":"４２巷","ALLEY":" ","HOUSE_NO":"２８號","E_COORD97":171281.76000000001,"N_COORD97":2545511,"ADDRESS":"六合路４２巷２８號","OBJECTID":397207},"geometry":{"x":171281.76000000071,"y":2545511}},{"attributes":{"ID":397232,"DIS_CODE":0,"TOWNNAME":"永康區","LI":"六合里","LIN":"16鄰","STREET":"六合路","SECT":" ","MAREA":" ","LANE":"４２巷","ALLEY":" ","HOUSE_NO":"２９號","E_COORD97":171301.14999999999,"N_COORD97":2545531.7400000002,"ADDRESS":"六合路４２巷２９號","OBJECTID":397208},"geometry":{"x":171301.15000000037,"y":2545531.7400000039}},{"attributes":{"ID":397233,"DIS_CODE":0,"TOWNNAME":"永康區","LI":"六合里","LIN":"16鄰","STREET":"六合路","SECT":" ","MAREA":" ","LANE":"４２巷","ALLEY":" ","HOUSE_NO":"３０號","E_COORD97":171285.48999999999,"N_COORD97":2545511.5,"ADDRESS":"六合路４２巷３０號","OBJECTID":397209},"geometry":{"x":171285.49000000115,"y":2545511.5}},{"attributes":{"ID":397234,"DIS_CODE":0,"TOWNNAME":"永康區","LI":"六合里","LIN":"16鄰","STREET":"六合路","SECT":" ","MAREA":" ","LANE":"４２巷","ALLEY":" ","HOUSE_NO":"３１號","E_COORD97":171305.70000000001,"N_COORD97":2545529.7400000002,"ADDRESS":"六合路４２巷３１號","OBJECTID":397210},"geometry":{"x":171305.70000000019,"y":2545529.7400000021}},{"attributes":{"ID":397235,"DIS_CODE":0,"TOWNNAME":"永康區","LI":"六合里","LIN":"16鄰","STREET":"六合路","SECT":" ","MAREA":" ","LANE":"４２巷","ALLEY":" ","HOUSE_NO":"３２號","E_COORD97":171289.14999999999,"N_COORD97":2545511,"ADDRESS":"六合路４２巷３２號","OBJECTID":397211},"geometry":{"x":171289.15000000037,"y":2545511}},{"attributes":{"ID":397236,"DIS_CODE":0,"TOWNNAME":"永康區","LI":"六合里","LIN":"16鄰","STREET":"六合路","SECT":" ","MAREA":" ","LANE":"４２巷","ALLEY":" ","HOUSE_NO":"３３號","E_COORD97":171310.14999999999,"N_COORD97":2545529.4900000002,"ADDRESS":"六合路４２巷３３號","OBJECTID":397212},"geometry":{"x":171310.1500000013,"y":2545529.4900000002}},{"attributes":{"ID":397237,"DIS_CODE":0,"TOWNNAME":"永康區","LI":"六合里","LIN":"16鄰","STREET":"六合路","SECT":" ","MAREA":" ","LANE":"４２巷","ALLEY":" ","HOUSE_NO":"３４號","E_COORD97":171292.70000000001,"N_COORD97":2545511,"ADDRESS":"六合路４２巷３４號","OBJECTID":397213},"geometry":{"x":171292.70000000112,"y":2545511}},{"attributes":{"ID":397238,"DIS_CODE":0,"TOWNNAME":"永康區","LI":"六合里","LIN":"16鄰","STREET":"六合路","SECT":" ","MAREA":" ","LANE":"４２巷","ALLEY":" ","HOUSE_NO":"３６號","E_COORD97":171296.29000000001,"N_COORD97":2545510.5,"ADDRESS":"六合路４２巷３６號","OBJECTID":397214},"geometry":{"x":171296.29000000004,"y":2545510.5000000019}},{"attributes":{"ID":397239,"DIS_CODE":0,"TOWNNAME":"永康區","LI":"六合里","LIN":"16鄰","STREET":"六合路","SECT":" ","MAREA":" ","LANE":"４２巷","ALLEY":" ","HOUSE_NO":"３８號","E_COORD97":171299.98999999999,"N_COORD97":2545510.5,"ADDRESS":"六合路４２巷３８號","OBJECTID":397215},"geometry":{"x":171299.99000000022,"y":2545510.5000000019}},{"attributes":{"ID":397240,"DIS_CODE":0,"TOWNNAME":"永康區","LI":"六合里","LIN":"16鄰","STREET":"六合路","SECT":" ","MAREA":" ","LANE":"４２巷","ALLEY":" ","HOUSE_NO":"３號","E_COORD97":171219.60999999999,"N_COORD97":2545533.4900000002,"ADDRESS":"六合路４２巷３號","OBJECTID":397216},"geometry":{"x":171219.61000000034,"y":2545533.4900000039}},{"attributes":{"ID":397241,"DIS_CODE":0,"TOWNNAME":"永康區","LI":"六合里","LIN":"16鄰","STREET":"六合路","SECT":" ","MAREA":" ","LANE":"４２巷","ALLEY":" ","HOUSE_NO":"４０號","E_COORD97":171303.64000000001,"N_COORD97":2545510.25,"ADDRESS":"六合路４２巷４０號","OBJECTID":397217},"geometry":{"x":171303.63999999966,"y":2545510.25}},{"attributes":{"ID":397242,"DIS_CODE":0,"TOWNNAME":"永康區","LI":"六合里","LIN":"16鄰","STREET":"六合路","SECT":" ","MAREA":" ","LANE":"４２巷","ALLEY":" ","HOUSE_NO":"４２之１號","E_COORD97":171313.53,"N_COORD97":2545509.7999999998,"ADDRESS":"六合路４２巷４２之１號","OBJECTID":397218},"geometry":{"x":171313.53000000026,"y":2545509.8000000007}},{"attributes":{"ID":397243,"DIS_CODE":0,"TOWNNAME":"永康區","LI":"六合里","LIN":"16鄰","STREET":"六合路","SECT":" ","MAREA":" ","LANE":"４２巷","ALLEY":" ","HOUSE_NO":"４２號","E_COORD97":171307.31,"N_COORD97":2545510,"ADDRESS":"六合路４２巷４２號","OBJECTID":397219},"geometry":{"x":171307.30999999959,"y":2545510.0000000019}},{"attributes":{"ID":397244,"DIS_CODE":0,"TOWNNAME":"永康區","LI":"六合里","LIN":"16鄰","STREET":"六合路","SECT":" ","MAREA":" ","LANE":"４２巷","ALLEY":" ","HOUSE_NO":"４６號","E_COORD97":171314.45000000001,"N_COORD97":2545509.5,"ADDRESS":"六合路４２巷４６號","OBJECTID":397220},"geometry":{"x":171314.45000000205,"y":2545509.5000000037}},{"attributes":{"ID":397245,"DIS_CODE":0,"TOWNNAME":"永康區","LI":"六合里","LIN":"16鄰","STREET":"六合路","SECT":" ","MAREA":" ","LANE":"４２巷","ALLEY":" ","HOUSE_NO":"４８號","E_COORD97":171318,"N_COORD97":2545509.25,"ADDRESS":"六合路４２巷４８號","OBJECTID":397221},"geometry":{"x":171318.00000000093,"y":2545509.25}},{"attributes":{"ID":397246,"DIS_CODE":0,"TOWNNAME":"東區","LI":"虎尾里","LIN":"5鄰","STREET":"富農街","SECT":"一段","MAREA":" ","LANE":"４８巷","ALLEY":" ","HOUSE_NO":"４３號","E_COORD97":171635.78,"N_COORD97":2542159.5499999998,"ADDRESS":"富農街一段４８巷４３號","OBJECTID":397222},"geometry":{"x":171635.78000000026,"y":2542159.5500000007}},{"attributes":{"ID":397247,"DIS_CODE":0,"TOWNNAME":"東區","LI":"虎尾里","LIN":"5鄰","STREET":"富農街","SECT":"一段","MAREA":" ","LANE":"４８巷","ALLEY":" ","HOUSE_NO":"４５號","E_COORD97":171640.60999999999,"N_COORD97":2542160.3799999999,"ADDRESS":"富農街一段４８巷４５號","OBJECTID":397223},"geometry":{"x":171640.6100000022,"y":2542160.3800000008}},{"attributes":{"ID":397248,"DIS_CODE":0,"TOWNNAME":"東區","LI":"虎尾里","LIN":"5鄰","STREET":"富農街","SECT":"一段","MAREA":" ","LANE":"４８巷","ALLEY":" ","HOUSE_NO":"４７號","E_COORD97":171645.59,"N_COORD97":2542160.9300000002,"ADDRESS":"富農街一段４８巷４７號","OBJECTID":397224},"geometry":{"x":171645.59000000078,"y":2542160.9300000016}},{"attributes":{"ID":397249,"DIS_CODE":0,"TOWNNAME":"東區","LI":"虎尾里","LIN":"5鄰","STREET":"富農街","SECT":"一段","MAREA":" ","LANE":"４８巷","ALLEY":" ","HOUSE_NO":"４９號","E_COORD97":171650.82999999999,"N_COORD97":2542162.73,"ADDRESS":"富農街一段４８巷４９號","OBJECTID":397225},"geometry":{"x":171650.83000000101,"y":2542162.7300000023}},{"attributes":{"ID":397250,"DIS_CODE":0,"TOWNNAME":"東區","LI":"崇德里","LIN":"25鄰","STREET":"崇道路","SECT":" ","MAREA":" ","LANE":"１９巷","ALLEY":" ","HOUSE_NO":"２０號","E_COORD97":170609.67999999999,"N_COORD97":2541476.2400000002,"ADDRESS":"崇道路１９巷２０號","OBJECTID":397226},"geometry":{"x":170609.6799999997,"y":2541476.2400000002}},{"attributes":{"ID":397251,"DIS_CODE":0,"TOWNNAME":"永康區","LI":"六合里","LIN":"16鄰","STREET":"六合路","SECT":" ","MAREA":" ","LANE":"４２巷","ALLEY":" ","HOUSE_NO":"５０號","E_COORD97":171321.57999999999,"N_COORD97":2545508.75,"ADDRESS":"六合路４２巷５０號","OBJECTID":397227},"geometry":{"x":171321.58000000007,"y":2545508.7500000019}},{"attributes":{"ID":397252,"DIS_CODE":0,"TOWNNAME":"永康區","LI":"六合里","LIN":"16鄰","STREET":"六合路","SECT":" ","MAREA":" ","LANE":"４２巷","ALLEY":" ","HOUSE_NO":"５２號","E_COORD97":171328.76000000001,"N_COORD97":2545518,"ADDRESS":"六合路４２巷５２號","OBJECTID":397228},"geometry":{"x":171328.76000000164,"y":2545518}},{"attributes":{"ID":397253,"DIS_CODE":0,"TOWNNAME":"永康區","LI":"六合里","LIN":"16鄰","STREET":"六合路","SECT":" ","MAREA":" ","LANE":"４２巷","ALLEY":" ","HOUSE_NO":"５８號","E_COORD97":171343.95999999999,"N_COORD97":2545516.4900000002,"ADDRESS":"六合路４２巷５８號","OBJECTID":397229},"geometry":{"x":171343.95999999996,"y":2545516.4900000039}},{"attributes":{"ID":397254,"DIS_CODE":0,"TOWNNAME":"永康區","LI":"六合里","LIN":"16鄰","STREET":"六合路","SECT":" ","MAREA":" ","LANE":"４４巷","ALLEY":" ","HOUSE_NO":"１８號","E_COORD97":171225.79999999999,"N_COORD97":2545553.4900000002,"ADDRESS":"六合路４４巷１８號","OBJECTID":397230},"geometry":{"x":171225.80000000075,"y":2545553.4900000039}},{"attributes":{"ID":397255,"DIS_CODE":0,"TOWNNAME":"永康區","LI":"六合里","LIN":"16鄰","STREET":"六合路","SECT":" ","MAREA":" ","LANE":"４４巷","ALLEY":" ","HOUSE_NO":"２０號","E_COORD97":171230.14999999999,"N_COORD97":2545553.2400000002,"ADDRESS":"六合路４４巷２０號","OBJECTID":397231},"geometry":{"x":171230.15000000224,"y":2545553.2400000021}},{"attributes":{"ID":397256,"DIS_CODE":0,"TOWNNAME":"永康區","LI":"六合里","LIN":"16鄰","STREET":"六合路","SECT":" ","MAREA":" ","LANE":"４４巷","ALLEY":" ","HOUSE_NO":"２２號","E_COORD97":171234.20999999999,"N_COORD97":2545551.9900000002,"ADDRESS":"六合路４４巷２２號","OBJECTID":397232},"geometry":{"x":171234.20999999996,"y":2545551.9900000002}},{"attributes":{"ID":397257,"DIS_CODE":0,"TOWNNAME":"永康區","LI":"六合里","LIN":"16鄰","STREET":"六合路","SECT":" ","MAREA":" ","LANE":"４４巷","ALLEY":" ","HOUSE_NO":"２４號","E_COORD97":171238.38,"N_COORD97":2545551.2400000002,"ADDRESS":"六合路４４巷２４號","OBJECTID":397233},"geometry":{"x":171238.38000000082,"y":2545551.2400000002}},{"attributes":{"ID":397258,"DIS_CODE":0,"TOWNNAME":"永康區","LI":"六合里","LIN":"16鄰","STREET":"六合路","SECT":" ","MAREA":" ","LANE":"４４巷","ALLEY":" ","HOUSE_NO":"２６號","E_COORD97":171242.14999999999,"N_COORD97":2545550.2400000002,"ADDRESS":"六合路４４巷２６號","OBJECTID":397234},"geometry":{"x":171242.1500000013,"y":2545550.2400000002}},{"attributes":{"ID":397259,"DIS_CODE":0,"TOWNNAME":"永康區","LI":"六合里","LIN":"16鄰","STREET":"六合路","SECT":" ","MAREA":" ","LANE":"４４巷","ALLEY":" ","HOUSE_NO":"２８號","E_COORD97":171245.85999999999,"N_COORD97":2545549.4900000002,"ADDRESS":"六合路４４巷２８號","OBJECTID":397235},"geometry":{"x":171245.86000000127,"y":2545549.4900000002}},{"attributes":{"ID":397260,"DIS_CODE":0,"TOWNNAME":"永康區","LI":"六合里","LIN":"16鄰","STREET":"六合路","SECT":" ","MAREA":" ","LANE":"４４巷","ALLEY":" ","HOUSE_NO":"２號","E_COORD97":171187.07000000001,"N_COORD97":2545559.9900000002,"ADDRESS":"六合路４４巷２號","OBJECTID":397236},"geometry":{"x":171187.07000000123,"y":2545559.9900000002}},{"attributes":{"ID":397261,"DIS_CODE":0,"TOWNNAME":"東區","LI":"大德里","LIN":"9鄰","STREET":"立德十一路","SECT":" ","MAREA":" ","LANE":"８１巷","ALLEY":" ","HOUSE_NO":"５９號","E_COORD97":169529.20999999999,"N_COORD97":2542231.0499999998,"ADDRESS":"立德十一路８１巷５９號","OBJECTID":397237},"geometry":{"x":169529.21000000089,"y":2542231.0500000045}},{"attributes":{"ID":397262,"DIS_CODE":0,"TOWNNAME":"永康區","LI":"六合里","LIN":"16鄰","STREET":"六合路","SECT":" ","MAREA":" ","LANE":"４４巷","ALLEY":" ","HOUSE_NO":"３０號","E_COORD97":171249.60000000001,"N_COORD97":2545548.4900000002,"ADDRESS":"六合路４４巷３０號","OBJECTID":397238},"geometry":{"x":171249.59999999963,"y":2545548.4900000021}},{"attributes":{"ID":397263,"DIS_CODE":0,"TOWNNAME":"永康區","LI":"六合里","LIN":"16鄰","STREET":"六合路","SECT":" ","MAREA":" ","LANE":"４４巷","ALLEY":" ","HOUSE_NO":"３２號","E_COORD97":171253.35000000001,"N_COORD97":2545547.4900000002,"ADDRESS":"六合路４４巷３２號","OBJECTID":397239},"geometry":{"x":171253.35000000149,"y":2545547.4900000021}},{"attributes":{"ID":397264,"DIS_CODE":0,"TOWNNAME":"永康區","LI":"六合里","LIN":"16鄰","STREET":"六合路","SECT":" ","MAREA":" ","LANE":"４４巷","ALLEY":" ","HOUSE_NO":"３４號","E_COORD97":171257.06,"N_COORD97":2545546.7400000002,"ADDRESS":"六合路４４巷３４號","OBJECTID":397240},"geometry":{"x":171257.06000000145,"y":2545546.7400000021}},{"attributes":{"ID":397265,"DIS_CODE":0,"TOWNNAME":"永康區","LI":"六合里","LIN":"16鄰","STREET":"六合路","SECT":" ","MAREA":" ","LANE":"４４巷","ALLEY":" ","HOUSE_NO":"３６號","E_COORD97":171260.79999999999,"N_COORD97":2545545.7400000002,"ADDRESS":"六合路４４巷３６號","OBJECTID":397241},"geometry":{"x":171260.80000000168,"y":2545545.7400000021}},{"attributes":{"ID":397266,"DIS_CODE":0,"TOWNNAME":"永康區","LI":"六合里","LIN":"16鄰","STREET":"六合路","SECT":" ","MAREA":" ","LANE":"４４巷","ALLEY":" ","HOUSE_NO":"３８號","E_COORD97":171264.56,"N_COORD97":2545544.9900000002,"ADDRESS":"六合路４４巷３８號","OBJECTID":397242},"geometry":{"x":171264.56000000052,"y":2545544.9900000021}},{"attributes":{"ID":397267,"DIS_CODE":0,"TOWNNAME":"永康區","LI":"六合里","LIN":"16鄰","STREET":"六合路","SECT":" ","MAREA":" ","LANE":"４４巷","ALLEY":" ","HOUSE_NO":"４０號","E_COORD97":171268.35000000001,"N_COORD97":2545543.9900000002,"ADDRESS":"六合路４４巷４０號","OBJECTID":397243},"geometry":{"x":171268.34999999963,"y":2545543.9900000021}},{"attributes":{"ID":397268,"DIS_CODE":0,"TOWNNAME":"永康區","LI":"六合里","LIN":"16鄰","STREET":"六合路","SECT":" ","MAREA":" ","LANE":"４４巷","ALLEY":" ","HOUSE_NO":"４２號","E_COORD97":171272.23999999999,"N_COORD97":2545542.9900000002,"ADDRESS":"六合路４４巷４２號","OBJECTID":397244},"geometry":{"x":171272.24000000115,"y":2545542.9900000002}},{"attributes":{"ID":397269,"DIS_CODE":0,"TOWNNAME":"永康區","LI":"六合里","LIN":"16鄰","STREET":"六合路","SECT":" ","MAREA":" ","LANE":"４４巷","ALLEY":" ","HOUSE_NO":"４４號","E_COORD97":171276.14999999999,"N_COORD97":2545541.9900000002,"ADDRESS":"六合路４４巷４４號","OBJECTID":397245},"geometry":{"x":171276.1500000013,"y":2545541.9900000002}},{"attributes":{"ID":397270,"DIS_CODE":0,"TOWNNAME":"永康區","LI":"六合里","LIN":"16鄰","STREET":"六合路","SECT":" ","MAREA":" ","LANE":"４４巷","ALLEY":" ","HOUSE_NO":"４６號","E_COORD97":171280.45000000001,"N_COORD97":2545540.7400000002,"ADDRESS":"六合路４４巷４６號","OBJECTID":397246},"geometry":{"x":171280.45000000205,"y":2545540.7400000002}},{"attributes":{"ID":397271,"DIS_CODE":0,"TOWNNAME":"永康區","LI":"六合里","LIN":"16鄰","STREET":"六合路","SECT":" ","MAREA":" ","LANE":"４４巷","ALLEY":" ","HOUSE_NO":"４號","E_COORD97":171196.26000000001,"N_COORD97":2545557.9900000002,"ADDRESS":"六合路４４巷４號","OBJECTID":397247},"geometry":{"x":171196.25999999978,"y":2545557.9900000021}},{"attributes":{"ID":397272,"DIS_CODE":0,"TOWNNAME":"永康區","LI":"六合里","LIN":"16鄰","STREET":"六合路","SECT":" ","MAREA":" ","LANE":"４４巷","ALLEY":" ","HOUSE_NO":"８號","E_COORD97":171205.67000000001,"N_COORD97":2545557.4900000002,"ADDRESS":"六合路４４巷８號","OBJECTID":397248},"geometry":{"x":171205.66999999899,"y":2545557.4900000021}},{"attributes":{"ID":397273,"DIS_CODE":0,"TOWNNAME":"永康區","LI":"埔園里","LIN":"16鄰","STREET":"八德街","SECT":" ","MAREA":" ","LANE":"３８８巷","ALLEY":" ","HOUSE_NO":"６號","E_COORD97":173443.23000000001,"N_COORD97":2548577.7799999998,"ADDRESS":"八德街３８８巷６號","OBJECTID":397249},"geometry":{"x":173443.23000000045,"y":2548577.7799999993}},{"attributes":{"ID":397274,"DIS_CODE":0,"TOWNNAME":"永康區","LI":"埔園里","LIN":"16鄰","STREET":"八德街","SECT":" ","MAREA":" ","LANE":"３８８巷","ALLEY":" ","HOUSE_NO":"１０號","E_COORD97":173441.28,"N_COORD97":2548585.3900000001,"ADDRESS":"八德街３８８巷１０號","OBJECTID":397250},"geometry":{"x":173441.28000000212,"y":2548585.3900000006}},{"attributes":{"ID":397275,"DIS_CODE":0,"TOWNNAME":"東區","LI":"後甲里","LIN":"29鄰","STREET":"裕農路","SECT":" ","MAREA":" ","LANE":"６６１巷","ALLEY":" ","HOUSE_NO":"２號地下層","E_COORD97":171750.38,"N_COORD97":2543258.23,"ADDRESS":"裕農路６６１巷２號地下層","OBJECTID":397251},"geometry":{"x":171750.38000000082,"y":2543258.2300000023}},{"attributes":{"ID":397276,"DIS_CODE":0,"TOWNNAME":"東區","LI":"後甲里","LIN":"29鄰","STREET":"裕農路","SECT":" ","MAREA":" ","LANE":"６６１巷","ALLEY":" ","HOUSE_NO":"２號","E_COORD97":171750.38,"N_COORD97":2543258.23,"ADDRESS":"裕農路６６１巷２號","OBJECTID":397252},"geometry":{"x":171750.38000000082,"y":2543258.2300000023}},{"attributes":{"ID":397277,"DIS_CODE":0,"TOWNNAME":"東區","LI":"後甲里","LIN":"29鄰","STREET":"裕農路","SECT":" ","MAREA":" ","LANE":"６６１巷","ALLEY":" ","HOUSE_NO":"６號","E_COORD97":171770.79000000001,"N_COORD97":2543267.5,"ADDRESS":"裕農路６６１巷６號","OBJECTID":397253},"geometry":{"x":171770.79000000004,"y":2543267.5}},{"attributes":{"ID":397278,"DIS_CODE":0,"TOWNNAME":"東區","LI":"後甲里","LIN":"29鄰","STREET":"裕農路","SECT":" ","MAREA":" ","LANE":"６６１巷","ALLEY":" ","HOUSE_NO":"８號之１","E_COORD97":171747.98999999999,"N_COORD97":2543267.23,"ADDRESS":"裕農路６６１巷８號之１","OBJECTID":397254},"geometry":{"x":171747.98999999929,"y":2543267.2300000042}},{"attributes":{"ID":397279,"DIS_CODE":0,"TOWNNAME":"東區","LI":"龍山里","LIN":"23鄰","STREET":"東門路","SECT":"二段","MAREA":" ","LANE":"１０４巷","ALLEY":" ","HOUSE_NO":"２號","E_COORD97":170034.42999999999,"N_COORD97":2542943.5800000001,"ADDRESS":"東門路二段１０４巷２號","OBJECTID":397255},"geometry":{"x":170034.43000000063,"y":2542943.5800000019}},{"attributes":{"ID":397280,"DIS_CODE":0,"TOWNNAME":"東區","LI":"裕農里","LIN":"14鄰","STREET":"裕豐街","SECT":" ","MAREA":" ","LANE":"２１４巷","ALLEY":" ","HOUSE_NO":"１３號","E_COORD97":170851.48000000001,"N_COORD97":2543185.4500000002,"ADDRESS":"裕豐街２１４巷１３號","OBJECTID":397256},"geometry":{"x":170851.48000000045,"y":2543185.4499999993}},{"attributes":{"ID":397281,"DIS_CODE":0,"TOWNNAME":"東區","LI":"富裕里","LIN":"6鄰","STREET":"裕農路","SECT":" ","MAREA":" ","LANE":"２８８巷","ALLEY":" ","HOUSE_NO":"６８號","E_COORD97":170937.5,"N_COORD97":2542934.5600000001,"ADDRESS":"裕農路２８８巷６８號","OBJECTID":397257},"geometry":{"x":170937.50000000186,"y":2542934.5600000005}},{"attributes":{"ID":397282,"DIS_CODE":0,"TOWNNAME":"東區","LI":"大德里","LIN":"10鄰","STREET":"大同路","SECT":"二段","MAREA":" ","LANE":"６１巷","ALLEY":" ","HOUSE_NO":"１２０號","E_COORD97":169428.37,"N_COORD97":2542234.1299999999,"ADDRESS":"大同路二段６１巷１２０號","OBJECTID":397258},"geometry":{"x":169428.37000000104,"y":2542234.129999999}},{"attributes":{"ID":397283,"DIS_CODE":0,"TOWNNAME":"東區","LI":"大德里","LIN":"10鄰","STREET":"大同路","SECT":"二段","MAREA":" ","LANE":"６１巷","ALLEY":" ","HOUSE_NO":"１２２號","E_COORD97":169430.42000000001,"N_COORD97":2542243.7599999998,"ADDRESS":"大同路二段６１巷１２２號","OBJECTID":397259},"geometry":{"x":169430.41999999993,"y":2542243.7600000016}},{"attributes":{"ID":397284,"DIS_CODE":0,"TOWNNAME":"東區","LI":"大德里","LIN":"10鄰","STREET":"大同路","SECT":"二段","MAREA":" ","LANE":"６１巷","ALLEY":" ","HOUSE_NO":"１１８號","E_COORD97":169432.67999999999,"N_COORD97":2542231.6699999999,"ADDRESS":"大同路二段６１巷１１８號","OBJECTID":397260},"geometry":{"x":169432.68000000063,"y":2542231.6699999999}},{"attributes":{"ID":397285,"DIS_CODE":0,"TOWNNAME":"東區","LI":"崇德里","LIN":"23鄰","STREET":"崇德路","SECT":" ","MAREA":" ","LANE":"５３０巷","ALLEY":" ","HOUSE_NO":"３５號","E_COORD97":170638.60000000001,"N_COORD97":2541497.3900000001,"ADDRESS":"崇德路５３０巷３５號","OBJECTID":397261},"geometry":{"x":170638.60000000056,"y":2541497.3900000025}},{"attributes":{"ID":397286,"DIS_CODE":0,"TOWNNAME":"東區","LI":"裕農里","LIN":"27鄰","STREET":"東寧路","SECT":" ","MAREA":" ","LANE":"４２８巷","ALLEY":" ","HOUSE_NO":"１６號","E_COORD97":170956.20999999999,"N_COORD97":2543266.25,"ADDRESS":"東寧路４２８巷１６號","OBJECTID":397262},"geometry":{"x":170956.20999999996,"y":2543266.2499999981}},{"attributes":{"ID":397287,"DIS_CODE":0,"TOWNNAME":"下營區","LI":"新興里","LIN":"16鄰","STREET":"裕農街","SECT":" ","MAREA":" ","LANE":"４５０巷","ALLEY":" ","HOUSE_NO":"５０５號","E_COORD97":175992.69,"N_COORD97":2569739.9500000002,"ADDRESS":"裕農街４５０巷５０５號","OBJECTID":397263},"geometry":{"x":175992.69000000041,"y":2569739.950000003}},{"attributes":{"ID":397288,"DIS_CODE":0,"TOWNNAME":"下營區","LI":"新興里","LIN":"16鄰","STREET":"寮前一街","SECT":" ","MAREA":" ","LANE":"３９巷","ALLEY":" ","HOUSE_NO":"１０號","E_COORD97":175298.10999999999,"N_COORD97":2570449.7799999998,"ADDRESS":"寮前一街３９巷１０號","OBJECTID":397264},"geometry":{"x":175298.11000000034,"y":2570449.7800000031}},{"attributes":{"ID":397289,"DIS_CODE":0,"TOWNNAME":"下營區","LI":"新興里","LIN":"16鄰","STREET":"寮前一街","SECT":" ","MAREA":" ","LANE":"３９巷","ALLEY":" ","HOUSE_NO":"２號","E_COORD97":175306.92000000001,"N_COORD97":2570457.8799999999,"ADDRESS":"寮前一街３９巷２號","OBJECTID":397265},"geometry":{"x":175306.92000000086,"y":2570457.879999999}},{"attributes":{"ID":397290,"DIS_CODE":0,"TOWNNAME":"下營區","LI":"新興里","LIN":"16鄰","STREET":"寮前一街","SECT":" ","MAREA":" ","LANE":"４６巷","ALLEY":" ","HOUSE_NO":"５號","E_COORD97":175352.54999999999,"N_COORD97":2570397.8900000001,"ADDRESS":"寮前一街４６巷５號","OBJECTID":397266},"geometry":{"x":175352.54999999981,"y":2570397.8900000006}},{"attributes":{"ID":397291,"DIS_CODE":0,"TOWNNAME":"下營區","LI":"新興里","LIN":"16鄰","STREET":"寮前一街","SECT":" ","MAREA":" ","LANE":"５０巷","ALLEY":" ","HOUSE_NO":"５號","E_COORD97":175338.19,"N_COORD97":2570431.29,"ADDRESS":"寮前一街５０巷５號","OBJECTID":397267},"geometry":{"x":175338.19000000041,"y":2570431.2899999991}},{"attributes":{"ID":397292,"DIS_CODE":0,"TOWNNAME":"下營區","LI":"新興里","LIN":"16鄰","STREET":"寮前一街","SECT":" ","MAREA":" ","LANE":"６６巷","ALLEY":" ","HOUSE_NO":"９號","E_COORD97":175322.59,"N_COORD97":2570521.5600000001,"ADDRESS":"寮前一街６６巷９號","OBJECTID":397268},"geometry":{"x":175322.59000000078,"y":2570521.5600000024}},{"attributes":{"ID":397293,"DIS_CODE":0,"TOWNNAME":"新化區","LI":"協興里","LIN":"16鄰","STREET":"中山路","SECT":" ","MAREA":" ","LANE":"６６０巷","ALLEY":" ","HOUSE_NO":"４３號","E_COORD97":178081.95999999999,"N_COORD97":2548609.25,"ADDRESS":"中山路６６０巷４３號","OBJECTID":397269},"geometry":{"x":178081.96000000089,"y":2548609.25}},{"attributes":{"ID":397294,"DIS_CODE":0,"TOWNNAME":"新化區","LI":"協興里","LIN":"16鄰","STREET":"中山路","SECT":" ","MAREA":" ","LANE":"６６０巷","ALLEY":" ","HOUSE_NO":"２６號","E_COORD97":178104.66,"N_COORD97":2548596.25,"ADDRESS":"中山路６６０巷２６號","OBJECTID":397270},"geometry":{"x":178104.66000000015,"y":2548596.2500000037}},{"attributes":{"ID":397295,"DIS_CODE":0,"TOWNNAME":"新化區","LI":"太平里","LIN":"16鄰","STREET":"太平街","SECT":" ","MAREA":" ","LANE":"６３巷","ALLEY":" ","HOUSE_NO":"１３號","E_COORD97":178849.82000000001,"N_COORD97":2548721.25,"ADDRESS":"太平街６３巷１３號","OBJECTID":397271},"geometry":{"x":178849.8200000003,"y":2548721.25}},{"attributes":{"ID":397296,"DIS_CODE":0,"TOWNNAME":"新化區","LI":"協興里","LIN":"16鄰","STREET":"大新路","SECT":" ","MAREA":" ","LANE":"３７巷","ALLEY":" ","HOUSE_NO":"６號","E_COORD97":178174.48000000001,"N_COORD97":2548584.25,"ADDRESS":"大新路３７巷６號","OBJECTID":397272},"geometry":{"x":178174.48000000045,"y":2548584.2500000019}},{"attributes":{"ID":397297,"DIS_CODE":0,"TOWNNAME":"新化區","LI":"協興里","LIN":"16鄰","STREET":"中山路","SECT":" ","MAREA":" ","LANE":"６６０巷","ALLEY":" ","HOUSE_NO":"１２號","E_COORD97":178127.56,"N_COORD97":2548561.25,"ADDRESS":"中山路６６０巷１２號","OBJECTID":397273},"geometry":{"x":178127.56000000145,"y":2548561.25}},{"attributes":{"ID":397298,"DIS_CODE":0,"TOWNNAME":"佳里區","LI":"忠仁里","LIN":"16鄰","STREET":"博愛街","SECT":" ","MAREA":" ","LANE":"８１巷","ALLEY":" ","HOUSE_NO":"１０號","E_COORD97":165948.81,"N_COORD97":2561935.96,"ADDRESS":"博愛街８１巷１０號","OBJECTID":397274},"geometry":{"x":165948.80999999959,"y":2561935.9600000009}},{"attributes":{"ID":397299,"DIS_CODE":0,"TOWNNAME":"佳里區","LI":"忠仁里","LIN":"16鄰","STREET":"博愛街","SECT":" ","MAREA":" ","LANE":"８１巷","ALLEY":" ","HOUSE_NO":"１１號","E_COORD97":165948.23999999999,"N_COORD97":2561940.23,"ADDRESS":"博愛街８１巷１１號","OBJECTID":397275},"geometry":{"x":165948.24000000022,"y":2561940.2300000004}},{"attributes":{"ID":397300,"DIS_CODE":0,"TOWNNAME":"東區","LI":"虎尾里","LIN":"6鄰","STREET":"富農街","SECT":"一段","MAREA":" ","LANE":"７２巷","ALLEY":" ","HOUSE_NO":"３３號","E_COORD97":171615.73999999999,"N_COORD97":2542206.1800000002,"ADDRESS":"富農街一段７２巷３３號","OBJECTID":397276},"geometry":{"x":171615.73999999929,"y":2542206.1800000016}},{"attributes":{"ID":397301,"DIS_CODE":0,"TOWNNAME":"佳里區","LI":"忠仁里","LIN":"16鄰","STREET":"博愛街","SECT":" ","MAREA":" ","LANE":"８１巷","ALLEY":" ","HOUSE_NO":"１２號","E_COORD97":165947.63,"N_COORD97":2561944.2799999998,"ADDRESS":"博愛街８１巷１２號","OBJECTID":397277},"geometry":{"x":165947.63000000175,"y":2561944.2800000012}},{"attributes":{"ID":397302,"DIS_CODE":0,"TOWNNAME":"佳里區","LI":"忠仁里","LIN":"16鄰","STREET":"博愛街","SECT":" ","MAREA":" ","LANE":"８１巷","ALLEY":" ","HOUSE_NO":"１３號","E_COORD97":165939.76000000001,"N_COORD97":2561957.7400000002,"ADDRESS":"博愛街８１巷１３號","OBJECTID":397278},"geometry":{"x":165939.76000000164,"y":2561957.7399999984}},{"attributes":{"ID":397303,"DIS_CODE":0,"TOWNNAME":"佳里區","LI":"忠仁里","LIN":"16鄰","STREET":"博愛街","SECT":" ","MAREA":" ","LANE":"８１巷","ALLEY":" ","HOUSE_NO":"１４號","E_COORD97":165944.20000000001,"N_COORD97":2561958.2200000002,"ADDRESS":"博愛街８１巷１４號","OBJECTID":397279},"geometry":{"x":165944.20000000112,"y":2561958.2200000007}},{"attributes":{"ID":397304,"DIS_CODE":0,"TOWNNAME":"佳里區","LI":"忠仁里","LIN":"16鄰","STREET":"博愛街","SECT":" ","MAREA":" ","LANE":"８１巷","ALLEY":" ","HOUSE_NO":"１５號","E_COORD97":165948.56,"N_COORD97":2561958.71,"ADDRESS":"博愛街８１巷１５號","OBJECTID":397280},"geometry":{"x":165948.55999999959,"y":2561958.709999999}},{"attributes":{"ID":397305,"DIS_CODE":0,"TOWNNAME":"佳里區","LI":"忠仁里","LIN":"16鄰","STREET":"博愛街","SECT":" ","MAREA":" ","LANE":"８１巷","ALLEY":" ","HOUSE_NO":"１６號","E_COORD97":165953.19,"N_COORD97":2561959.8799999999,"ADDRESS":"博愛街８１巷１６號","OBJECTID":397281},"geometry":{"x":165953.19000000134,"y":2561959.8800000008}},{"attributes":{"ID":397306,"DIS_CODE":0,"TOWNNAME":"佳里區","LI":"忠仁里","LIN":"16鄰","STREET":"博愛街","SECT":" ","MAREA":" ","LANE":"８１巷","ALLEY":" ","HOUSE_NO":"１７號","E_COORD97":165957.62,"N_COORD97":2561960.0699999998,"ADDRESS":"博愛街８１巷１７號","OBJECTID":397282},"geometry":{"x":165957.62000000011,"y":2561960.0700000022}},{"attributes":{"ID":397307,"DIS_CODE":0,"TOWNNAME":"佳里區","LI":"忠仁里","LIN":"16鄰","STREET":"博愛街","SECT":" ","MAREA":" ","LANE":"８１巷","ALLEY":" ","HOUSE_NO":"１８號","E_COORD97":165962,"N_COORD97":2561960.8900000001,"ADDRESS":"博愛街８１巷１８號","OBJECTID":397283},"geometry":{"x":165961.99999999907,"y":2561960.8900000043}},{"attributes":{"ID":397308,"DIS_CODE":0,"TOWNNAME":"佳里區","LI":"忠仁里","LIN":"16鄰","STREET":"博愛街","SECT":" ","MAREA":" ","LANE":"８１巷","ALLEY":" ","HOUSE_NO":"１９號","E_COORD97":165961.47,"N_COORD97":2561974.6000000001,"ADDRESS":"博愛街８１巷１９號","OBJECTID":397284},"geometry":{"x":165961.46999999974,"y":2561974.5999999996}},{"attributes":{"ID":397309,"DIS_CODE":0,"TOWNNAME":"佳里區","LI":"忠仁里","LIN":"16鄰","STREET":"博愛街","SECT":" ","MAREA":" ","LANE":"８１巷","ALLEY":" ","HOUSE_NO":"２０號","E_COORD97":165957.92999999999,"N_COORD97":2561973.8999999999,"ADDRESS":"博愛街８１巷２０號","OBJECTID":397285},"geometry":{"x":165957.93000000063,"y":2561973.9000000041}},{"attributes":{"ID":397310,"DIS_CODE":0,"TOWNNAME":"佳里區","LI":"忠仁里","LIN":"16鄰","STREET":"博愛街","SECT":" ","MAREA":" ","LANE":"８１巷","ALLEY":" ","HOUSE_NO":"２１號","E_COORD97":165953.95000000001,"N_COORD97":2561973.4399999999,"ADDRESS":"博愛街８１巷２１號","OBJECTID":397286},"geometry":{"x":165953.95000000019,"y":2561973.4400000013}},{"attributes":{"ID":397311,"DIS_CODE":0,"TOWNNAME":"佳里區","LI":"忠仁里","LIN":"16鄰","STREET":"博愛街","SECT":" ","MAREA":" ","LANE":"８１巷","ALLEY":" ","HOUSE_NO":"２２號","E_COORD97":165949.73000000001,"N_COORD97":2561972.9399999999,"ADDRESS":"博愛街８１巷２２號","OBJECTID":397287},"geometry":{"x":165949.73000000138,"y":2561972.9400000032}},{"attributes":{"ID":397312,"DIS_CODE":0,"TOWNNAME":"佳里區","LI":"忠仁里","LIN":"16鄰","STREET":"博愛街","SECT":" ","MAREA":" ","LANE":"８１巷","ALLEY":" ","HOUSE_NO":"２３號","E_COORD97":165945.89999999999,"N_COORD97":2561972.1499999999,"ADDRESS":"博愛街８１巷２３號","OBJECTID":397288},"geometry":{"x":165945.90000000037,"y":2561972.1499999985}},{"attributes":{"ID":397313,"DIS_CODE":0,"TOWNNAME":"佳里區","LI":"忠仁里","LIN":"16鄰","STREET":"博愛街","SECT":" ","MAREA":" ","LANE":"８１巷","ALLEY":" ","HOUSE_NO":"２４號","E_COORD97":165942.09,"N_COORD97":2561971.6699999999,"ADDRESS":"博愛街８１巷２４號","OBJECTID":397289},"geometry":{"x":165942.08999999985,"y":2561971.6700000037}},{"attributes":{"ID":397314,"DIS_CODE":0,"TOWNNAME":"佳里區","LI":"忠仁里","LIN":"16鄰","STREET":"博愛街","SECT":" ","MAREA":" ","LANE":"８１巷","ALLEY":" ","HOUSE_NO":"２５號","E_COORD97":165938.26000000001,"N_COORD97":2561971.1600000001,"ADDRESS":"博愛街８１巷２５號","OBJECTID":397290},"geometry":{"x":165938.26000000071,"y":2561971.1600000001}},{"attributes":{"ID":397315,"DIS_CODE":0,"TOWNNAME":"東區","LI":"大德里","LIN":"18鄰","STREET":"立德十一路","SECT":" ","MAREA":" ","LANE":"５５巷","ALLEY":" ","HOUSE_NO":"２４號","E_COORD97":169498.73999999999,"N_COORD97":2542164.0800000001,"ADDRESS":"立德十一路５５巷２４號","OBJECTID":397291},"geometry":{"x":169498.74000000115,"y":2542164.0800000019}},{"attributes":{"ID":397316,"DIS_CODE":0,"TOWNNAME":"東區","LI":"大德里","LIN":"18鄰","STREET":"立德十一路","SECT":" ","MAREA":" ","LANE":"５５巷","ALLEY":" ","HOUSE_NO":"２６號","E_COORD97":169507.64999999999,"N_COORD97":2542165.3500000001,"ADDRESS":"立德十一路５５巷２６號","OBJECTID":397292},"geometry":{"x":169507.65000000037,"y":2542165.3499999996}},{"attributes":{"ID":397317,"DIS_CODE":0,"TOWNNAME":"東區","LI":"泉南里","LIN":"25鄰","STREET":"光華街","SECT":" ","MAREA":" ","LANE":"２２９巷","ALLEY":" ","HOUSE_NO":"２３號","E_COORD97":169463.70000000001,"N_COORD97":2542934.4199999999,"ADDRESS":"光華街２２９巷２３號","OBJECTID":397293},"geometry":{"x":169463.70000000112,"y":2542934.4200000018}},{"attributes":{"ID":397318,"DIS_CODE":0,"TOWNNAME":"東區","LI":"大學里","LIN":"15鄰","STREET":"長榮路","SECT":"三段","MAREA":" ","LANE":"２４巷","ALLEY":" ","HOUSE_NO":"２０號","E_COORD97":170275.60000000001,"N_COORD97":2543659.3399999999,"ADDRESS":"長榮路三段２４巷２０號","OBJECTID":397294},"geometry":{"x":170275.60000000056,"y":2543659.3400000017}},{"attributes":{"ID":397319,"DIS_CODE":0,"TOWNNAME":"東區","LI":"大學里","LIN":"15鄰","STREET":"長榮路","SECT":"三段","MAREA":" ","LANE":"２４巷","ALLEY":" ","HOUSE_NO":"２２號","E_COORD97":170282.07000000001,"N_COORD97":2543659.2000000002,"ADDRESS":"長榮路三段２４巷２２號","OBJECTID":397295},"geometry":{"x":170282.07000000123,"y":2543659.200000003}},{"attributes":{"ID":397320,"DIS_CODE":0,"TOWNNAME":"東區","LI":"大學里","LIN":"15鄰","STREET":"長榮路","SECT":"三段","MAREA":" ","LANE":"２４巷","ALLEY":" ","HOUSE_NO":"２４號","E_COORD97":170289.03,"N_COORD97":2543656.98,"ADDRESS":"長榮路三段２４巷２４號","OBJECTID":397296},"geometry":{"x":170289.03000000119,"y":2543656.9800000023}},{"attributes":{"ID":397321,"DIS_CODE":0,"TOWNNAME":"東區","LI":"大學里","LIN":"15鄰","STREET":"長榮路","SECT":"三段","MAREA":" ","LANE":"２４巷","ALLEY":" ","HOUSE_NO":"２５號","E_COORD97":170283.41,"N_COORD97":2543669.4399999999,"ADDRESS":"長榮路三段２４巷２５號","OBJECTID":397297},"geometry":{"x":170283.41000000015,"y":2543669.4400000013}},{"attributes":{"ID":397322,"DIS_CODE":0,"TOWNNAME":"東區","LI":"大學里","LIN":"15鄰","STREET":"長榮路","SECT":"三段","MAREA":" ","LANE":"２４巷","ALLEY":" ","HOUSE_NO":"２１號","E_COORD97":170271.85999999999,"N_COORD97":2543672.6400000001,"ADDRESS":"長榮路三段２４巷２１號","OBJECTID":397298},"geometry":{"x":170271.86000000034,"y":2543672.6400000025}},{"attributes":{"ID":397323,"DIS_CODE":0,"TOWNNAME":"東區","LI":"大學里","LIN":"15鄰","STREET":"長榮路","SECT":"三段","MAREA":" ","LANE":"２４巷","ALLEY":" ","HOUSE_NO":"２１號地下層","E_COORD97":170271.85999999999,"N_COORD97":2543672.6400000001,"ADDRESS":"長榮路三段２４巷２１號地下層","OBJECTID":397299},"geometry":{"x":170271.86000000034,"y":2543672.6400000025}},{"attributes":{"ID":397324,"DIS_CODE":0,"TOWNNAME":"東區","LI":"大學里","LIN":"15鄰","STREET":"長榮路","SECT":"三段","MAREA":" ","LANE":"２４巷","ALLEY":" ","HOUSE_NO":"２３號","E_COORD97":170274.07999999999,"N_COORD97":2543678.4100000001,"ADDRESS":"長榮路三段２４巷２３號","OBJECTID":397300},"geometry":{"x":170274.07999999914,"y":2543678.4100000001}},{"attributes":{"ID":397325,"DIS_CODE":0,"TOWNNAME":"東區","LI":"崇德里","LIN":"19鄰","STREET":"崇明十三街","SECT":" ","MAREA":" ","LANE":"１１巷","ALLEY":" ","HOUSE_NO":"９５號","E_COORD97":170556.42000000001,"N_COORD97":2541744.77,"ADDRESS":"崇明十三街１１巷９５號","OBJECTID":397301},"geometry":{"x":170556.41999999899,"y":2541744.7700000014}},{"attributes":{"ID":397326,"DIS_CODE":0,"TOWNNAME":"東區","LI":"大德里","LIN":"18鄰","STREET":"立德十一路","SECT":" ","MAREA":" ","LANE":"５５巷","ALLEY":" ","HOUSE_NO":"２８號","E_COORD97":169513.06,"N_COORD97":2542171.3900000001,"ADDRESS":"立德十一路５５巷２８號","OBJECTID":397302},"geometry":{"x":169513.06000000052,"y":2542171.3900000025}},{"attributes":{"ID":397327,"DIS_CODE":0,"TOWNNAME":"東區","LI":"大德里","LIN":"18鄰","STREET":"立德十一路","SECT":" ","MAREA":" ","LANE":"５５巷","ALLEY":" ","HOUSE_NO":"３４號","E_COORD97":169519.42999999999,"N_COORD97":2542181.25,"ADDRESS":"立德十一路５５巷３４號","OBJECTID":397303},"geometry":{"x":169519.43000000063,"y":2542181.25}},{"attributes":{"ID":397328,"DIS_CODE":0,"TOWNNAME":"東區","LI":"大德里","LIN":"18鄰","STREET":"立德十一路","SECT":" ","MAREA":" ","LANE":"５５巷","ALLEY":" ","HOUSE_NO":"２４號地下層","E_COORD97":169498.73999999999,"N_COORD97":2542164.0800000001,"ADDRESS":"立德十一路５５巷２４號地下層","OBJECTID":397304},"geometry":{"x":169498.74000000115,"y":2542164.0800000019}},{"attributes":{"ID":397329,"DIS_CODE":0,"TOWNNAME":"東區","LI":"大德里","LIN":"18鄰","STREET":"立德十一路","SECT":" ","MAREA":" ","LANE":"５５巷","ALLEY":" ","HOUSE_NO":"３０號","E_COORD97":169518.79000000001,"N_COORD97":2542173.2999999998,"ADDRESS":"立德十一路５５巷３０號","OBJECTID":397305},"geometry":{"x":169518.79000000097,"y":2542173.3000000026}},{"attributes":{"ID":397330,"DIS_CODE":0,"TOWNNAME":"東區","LI":"大德里","LIN":"18鄰","STREET":"立德十一路","SECT":" ","MAREA":" ","LANE":"５５巷","ALLEY":" ","HOUSE_NO":"３２號","E_COORD97":169523.57000000001,"N_COORD97":2542171.71,"ADDRESS":"立德十一路５５巷３２號","OBJECTID":397306},"geometry":{"x":169523.57000000216,"y":2542171.7100000009}},{"attributes":{"ID":397331,"DIS_CODE":0,"TOWNNAME":"東區","LI":"崇德里","LIN":"24鄰","STREET":"崇德路","SECT":" ","MAREA":" ","LANE":"５５０巷","ALLEY":" ","HOUSE_NO":"２１號","E_COORD97":170717.32999999999,"N_COORD97":2541445.2200000002,"ADDRESS":"崇德路５５０巷２１號","OBJECTID":397307},"geometry":{"x":170717.33000000101,"y":2541445.2200000007}},{"attributes":{"ID":397332,"DIS_CODE":0,"TOWNNAME":"東區","LI":"泉南里","LIN":"15鄰","STREET":"光華街","SECT":" ","MAREA":" ","LANE":"１１９巷","ALLEY":" ","HOUSE_NO":"１１號","E_COORD97":169769.81,"N_COORD97":2542822.1299999999,"ADDRESS":"光華街１１９巷１１號","OBJECTID":397308},"geometry":{"x":169769.80999999959,"y":2542822.1300000027}},{"attributes":{"ID":397333,"DIS_CODE":0,"TOWNNAME":"東區","LI":"後甲里","LIN":"16鄰","STREET":"裕農路","SECT":" ","MAREA":" ","LANE":"６０５巷","ALLEY":" ","HOUSE_NO":"１１號","E_COORD97":171556.09,"N_COORD97":2543269.3599999999,"ADDRESS":"裕農路６０５巷１１號","OBJECTID":397309},"geometry":{"x":171556.09000000078,"y":2543269.3600000013}},{"attributes":{"ID":397334,"DIS_CODE":0,"TOWNNAME":"東區","LI":"後甲里","LIN":"16鄰","STREET":"裕農路","SECT":" ","MAREA":" ","LANE":"６０５巷","ALLEY":" ","HOUSE_NO":"１３號","E_COORD97":171556.09,"N_COORD97":2543274.1699999999,"ADDRESS":"裕農路６０５巷１３號","OBJECTID":397310},"geometry":{"x":171556.09000000078,"y":2543274.1700000018}},{"attributes":{"ID":397335,"DIS_CODE":0,"TOWNNAME":"東區","LI":"後甲里","LIN":"16鄰","STREET":"裕農路","SECT":" ","MAREA":" ","LANE":"６０５巷","ALLEY":" ","HOUSE_NO":"９號","E_COORD97":171556.57000000001,"N_COORD97":2543265.2599999998,"ADDRESS":"裕農路６０５巷９號","OBJECTID":397311},"geometry":{"x":171556.57000000123,"y":2543265.2599999998}},{"attributes":{"ID":397336,"DIS_CODE":0,"TOWNNAME":"東區","LI":"後甲里","LIN":"16鄰","STREET":"裕農路","SECT":" ","MAREA":" ","LANE":"６０５巷","ALLEY":" ","HOUSE_NO":"１５號","E_COORD97":171555.84,"N_COORD97":2543278.5099999998,"ADDRESS":"裕農路６０５巷１５號","OBJECTID":397312},"geometry":{"x":171555.84000000078,"y":2543278.5100000016}},{"attributes":{"ID":397337,"DIS_CODE":0,"TOWNNAME":"東區","LI":"東明里","LIN":"14鄰","STREET":"東安路","SECT":" ","MAREA":" ","LANE":"９２巷","ALLEY":" ","HOUSE_NO":"６號","E_COORD97":170790.26000000001,"N_COORD97":2543699.4199999999,"ADDRESS":"東安路９２巷６號","OBJECTID":397313},"geometry":{"x":170790.26000000071,"y":2543699.4200000037}},{"attributes":{"ID":397338,"DIS_CODE":0,"TOWNNAME":"東區","LI":"東明里","LIN":"14鄰","STREET":"東安路","SECT":" ","MAREA":" ","LANE":"９２巷","ALLEY":" ","HOUSE_NO":"８號","E_COORD97":170800.04000000001,"N_COORD97":2543698.1099999999,"ADDRESS":"東安路９２巷８號","OBJECTID":397314},"geometry":{"x":170800.0400000019,"y":2543698.1100000013}},{"attributes":{"ID":397339,"DIS_CODE":0,"TOWNNAME":"東區","LI":"泉南里","LIN":"15鄰","STREET":"光華街","SECT":" ","MAREA":" ","LANE":"１１９巷","ALLEY":" ","HOUSE_NO":"１３號","E_COORD97":169778.10999999999,"N_COORD97":2542818.5,"ADDRESS":"光華街１１９巷１３號","OBJECTID":397315},"geometry":{"x":169778.11000000127,"y":2542818.5000000019}},{"attributes":{"ID":397340,"DIS_CODE":0,"TOWNNAME":"東區","LI":"泉南里","LIN":"15鄰","STREET":"光華街","SECT":" ","MAREA":" ","LANE":"１１９巷","ALLEY":" ","HOUSE_NO":"９號","E_COORD97":169758.22,"N_COORD97":2542826.1000000001,"ADDRESS":"光華街１１９巷９號","OBJECTID":397316},"geometry":{"x":169758.22000000067,"y":2542826.0999999978}},{"attributes":{"ID":397341,"DIS_CODE":0,"TOWNNAME":"東區","LI":"泉南里","LIN":"15鄰","STREET":"光華街","SECT":" ","MAREA":" ","LANE":"１１９巷","ALLEY":" ","HOUSE_NO":"１５號","E_COORD97":169771.17000000001,"N_COORD97":2542810.21,"ADDRESS":"光華街１１９巷１５號","OBJECTID":397317},"geometry":{"x":169771.16999999993,"y":2542810.2100000046}},{"attributes":{"ID":397342,"DIS_CODE":0,"TOWNNAME":"東區","LI":"中西里","LIN":"26鄰","STREET":"東寧路","SECT":" ","MAREA":" ","LANE":"１２０巷","ALLEY":" ","HOUSE_NO":"３５號","E_COORD97":170263.62,"N_COORD97":2543529.0899999999,"ADDRESS":"東寧路１２０巷３５號","OBJECTID":397318},"geometry":{"x":170263.62000000011,"y":2543529.0900000017}},{"attributes":{"ID":397343,"DIS_CODE":0,"TOWNNAME":"歸仁區","LI":"看東里","LIN":"16鄰","STREET":"中山路","SECT":"一段","MAREA":" ","LANE":"１巷","ALLEY":" ","HOUSE_NO":"５５號","E_COORD97":179512.53,"N_COORD97":2540171.5699999998,"ADDRESS":"中山路一段１巷５５號","OBJECTID":397319},"geometry":{"x":179512.53000000119,"y":2540171.5700000003}},{"attributes":{"ID":397344,"DIS_CODE":0,"TOWNNAME":"歸仁區","LI":"歸南里","LIN":"16鄰","STREET":"民生十一街","SECT":" ","MAREA":" ","LANE":"３１巷","ALLEY":" ","HOUSE_NO":"６號","E_COORD97":176180.66,"N_COORD97":2539756.25,"ADDRESS":"民生十一街３１巷６號","OBJECTID":397320},"geometry":{"x":176180.66000000015,"y":2539756.25}},{"attributes":{"ID":397345,"DIS_CODE":0,"TOWNNAME":"歸仁區","LI":"看西里","LIN":"16鄰","STREET":"仁愛南街","SECT":" ","MAREA":" ","LANE":"２７７巷","ALLEY":" ","HOUSE_NO":"３０號","E_COORD97":178307.91,"N_COORD97":2540062.1200000001,"ADDRESS":"仁愛南街２７７巷３０號","OBJECTID":397321},"geometry":{"x":178307.91000000108,"y":2540062.1200000029}},{"attributes":{"ID":397346,"DIS_CODE":0,"TOWNNAME":"歸仁區","LI":"崙頂里","LIN":"16鄰","STREET":"崙頂街","SECT":" ","MAREA":" ","LANE":"１７巷","ALLEY":" ","HOUSE_NO":"１５號","E_COORD97":177901.63,"N_COORD97":2540053.25,"ADDRESS":"崙頂街１７巷１５號","OBJECTID":397322},"geometry":{"x":177901.62999999989,"y":2540053.2500000019}},{"attributes":{"ID":397347,"DIS_CODE":0,"TOWNNAME":"歸仁區","LI":"崙頂里","LIN":"16鄰","STREET":"崙頂街","SECT":" ","MAREA":" ","LANE":"１７巷","ALLEY":" ","HOUSE_NO":"４５號","E_COORD97":177980.87,"N_COORD97":2540061.6800000002,"ADDRESS":"崙頂街１７巷４５號","OBJECTID":397323},"geometry":{"x":177980.87000000104,"y":2540061.6799999997}},{"attributes":{"ID":397348,"DIS_CODE":0,"TOWNNAME":"東區","LI":"中西里","LIN":"26鄰","STREET":"東寧路","SECT":" ","MAREA":" ","LANE":"１２０巷","ALLEY":" ","HOUSE_NO":"３５號之１","E_COORD97":170259.42999999999,"N_COORD97":2543528.0499999998,"ADDRESS":"東寧路１２０巷３５號之１","OBJECTID":397324},"geometry":{"x":170259.42999999877,"y":2543528.0500000007}},{"attributes":{"ID":397349,"DIS_CODE":0,"TOWNNAME":"東區","LI":"裕農里","LIN":"14鄰","STREET":"裕豐街","SECT":" ","MAREA":" ","LANE":"２１４巷","ALLEY":" ","HOUSE_NO":"３號","E_COORD97":170824.07000000001,"N_COORD97":2543176.7200000002,"ADDRESS":"裕豐街２１４巷３號","OBJECTID":397325},"geometry":{"x":170824.07000000123,"y":2543176.7200000025}},{"attributes":{"ID":397350,"DIS_CODE":0,"TOWNNAME":"北區","LI":"小康里","LIN":"16鄰","STREET":"大武街","SECT":" ","MAREA":" ","LANE":"４１３巷","ALLEY":" ","HOUSE_NO":"６號","E_COORD97":169787.54000000001,"N_COORD97":2546499.25,"ADDRESS":"大武街４１３巷６號","OBJECTID":397326},"geometry":{"x":169787.54000000004,"y":2546499.25}},{"attributes":{"ID":397351,"DIS_CODE":0,"TOWNNAME":"北區","LI":"小康里","LIN":"16鄰","STREET":"大武街","SECT":" ","MAREA":" ","LANE":"４１３巷","ALLEY":" ","HOUSE_NO":"８號","E_COORD97":169786.60000000001,"N_COORD97":2546502.8900000001,"ADDRESS":"大武街４１３巷８號","OBJECTID":397327},"geometry":{"x":169786.59999999963,"y":2546502.8900000006}},{"attributes":{"ID":397352,"DIS_CODE":0,"TOWNNAME":"北區","LI":"小康里","LIN":"16鄰","STREET":"大武街","SECT":" ","MAREA":" ","LANE":"４３１巷","ALLEY":" ","HOUSE_NO":"１０號","E_COORD97":169832.23000000001,"N_COORD97":2546520.98,"ADDRESS":"大武街４３１巷１０號","OBJECTID":397328},"geometry":{"x":169832.23000000045,"y":2546520.9800000023}},{"attributes":{"ID":397353,"DIS_CODE":0,"TOWNNAME":"北區","LI":"小康里","LIN":"16鄰","STREET":"大武街","SECT":" ","MAREA":" ","LANE":"４３１巷","ALLEY":" ","HOUSE_NO":"１號","E_COORD97":169839.89000000001,"N_COORD97":2546473.71,"ADDRESS":"大武街４３１巷１號","OBJECTID":397329},"geometry":{"x":169839.8900000006,"y":2546473.7100000009}},{"attributes":{"ID":397354,"DIS_CODE":0,"TOWNNAME":"北區","LI":"小康里","LIN":"16鄰","STREET":"大武街","SECT":" ","MAREA":" ","LANE":"４３１巷","ALLEY":" ","HOUSE_NO":"２號","E_COORD97":169823.26999999999,"N_COORD97":2546483.4700000002,"ADDRESS":"大武街４３１巷２號","OBJECTID":397330},"geometry":{"x":169823.27000000048,"y":2546483.4700000025}},{"attributes":{"ID":397355,"DIS_CODE":0,"TOWNNAME":"北區","LI":"小康里","LIN":"16鄰","STREET":"大武街","SECT":" ","MAREA":" ","LANE":"４３１巷","ALLEY":" ","HOUSE_NO":"３號","E_COORD97":169841.42000000001,"N_COORD97":2546478.23,"ADDRESS":"大武街４３１巷３號","OBJECTID":397331},"geometry":{"x":169841.42000000086,"y":2546478.2300000023}},{"attributes":{"ID":397356,"DIS_CODE":0,"TOWNNAME":"北區","LI":"小康里","LIN":"16鄰","STREET":"大武街","SECT":" ","MAREA":" ","LANE":"４３１巷","ALLEY":" ","HOUSE_NO":"４號","E_COORD97":169825.34,"N_COORD97":2546490.4700000002,"ADDRESS":"大武街４３１巷４號","OBJECTID":397332},"geometry":{"x":169825.34000000078,"y":2546490.4700000025}},{"attributes":{"ID":397357,"DIS_CODE":0,"TOWNNAME":"北區","LI":"小康里","LIN":"16鄰","STREET":"大武街","SECT":" ","MAREA":" ","LANE":"４３１巷","ALLEY":" ","HOUSE_NO":"５號","E_COORD97":169841.42000000001,"N_COORD97":2546484.3500000001,"ADDRESS":"大武街４３１巷５號","OBJECTID":397333},"geometry":{"x":169841.42000000086,"y":2546484.3500000015}},{"attributes":{"ID":397358,"DIS_CODE":0,"TOWNNAME":"北區","LI":"小康里","LIN":"16鄰","STREET":"大武街","SECT":" ","MAREA":" ","LANE":"４３１巷","ALLEY":" ","HOUSE_NO":"６號","E_COORD97":169830.28,"N_COORD97":2546506.1800000002,"ADDRESS":"大武街４３１巷６號","OBJECTID":397334},"geometry":{"x":169830.28000000026,"y":2546506.1799999997}},{"attributes":{"ID":397359,"DIS_CODE":0,"TOWNNAME":"北區","LI":"小康里","LIN":"16鄰","STREET":"大武街","SECT":" ","MAREA":" ","LANE":"４３１巷","ALLEY":" ","HOUSE_NO":"７號","E_COORD97":169843.67999999999,"N_COORD97":2546489.27,"ADDRESS":"大武街４３１巷７號","OBJECTID":397335},"geometry":{"x":169843.6799999997,"y":2546489.2699999996}},{"attributes":{"ID":397360,"DIS_CODE":0,"TOWNNAME":"北區","LI":"小康里","LIN":"16鄰","STREET":"大武街","SECT":" ","MAREA":" ","LANE":"４３１巷","ALLEY":" ","HOUSE_NO":"７號之１","E_COORD97":169844.28,"N_COORD97":2546492.21,"ADDRESS":"大武街４３１巷７號之１","OBJECTID":397336},"geometry":{"x":169844.28000000212,"y":2546492.2100000046}},{"attributes":{"ID":397361,"DIS_CODE":0,"TOWNNAME":"北區","LI":"小康里","LIN":"16鄰","STREET":"大武街","SECT":" ","MAREA":" ","LANE":"４３１巷","ALLEY":" ","HOUSE_NO":"８號","E_COORD97":169831.19,"N_COORD97":2546513.75,"ADDRESS":"大武街４３１巷８號","OBJECTID":397337},"geometry":{"x":169831.19000000041,"y":2546513.75}},{"attributes":{"ID":397362,"DIS_CODE":0,"TOWNNAME":"安平區","LI":"怡平里","LIN":"16鄰","STREET":"永華六街","SECT":" ","MAREA":" ","LANE":"１５４巷","ALLEY":" ","HOUSE_NO":"１７號","E_COORD97":165670.62,"N_COORD97":2543927.1499999999,"ADDRESS":"永華六街１５４巷１７號","OBJECTID":397338},"geometry":{"x":165670.62000000104,"y":2543927.1500000004}},{"attributes":{"ID":397363,"DIS_CODE":0,"TOWNNAME":"安平區","LI":"怡平里","LIN":"16鄰","STREET":"永華六街","SECT":" ","MAREA":" ","LANE":"１５４巷","ALLEY":" ","HOUSE_NO":"１５號","E_COORD97":165667.29000000001,"N_COORD97":2543928.1099999999,"ADDRESS":"永華六街１５４巷１５號","OBJECTID":397339},"geometry":{"x":165667.29000000097,"y":2543928.1100000031}},{"attributes":{"ID":397364,"DIS_CODE":0,"TOWNNAME":"安平區","LI":"怡平里","LIN":"16鄰","STREET":"永華六街","SECT":" ","MAREA":" ","LANE":"１５４巷","ALLEY":" ","HOUSE_NO":"１９號","E_COORD97":165673.95999999999,"N_COORD97":2543926.6800000002,"ADDRESS":"永華六街１５４巷１９號","OBJECTID":397340},"geometry":{"x":165673.95999999996,"y":2543926.6799999997}},{"attributes":{"ID":397365,"DIS_CODE":0,"TOWNNAME":"安平區","LI":"怡平里","LIN":"16鄰","STREET":"永華六街","SECT":" ","MAREA":" ","LANE":"１５４巷","ALLEY":" ","HOUSE_NO":"２１號","E_COORD97":165678.07999999999,"N_COORD97":2543925.7200000002,"ADDRESS":"永華六街１５４巷２１號","OBJECTID":397341},"geometry":{"x":165678.08000000007,"y":2543925.7200000025}},{"attributes":{"ID":397366,"DIS_CODE":0,"TOWNNAME":"安平區","LI":"怡平里","LIN":"16鄰","STREET":"永華六街","SECT":" ","MAREA":" ","LANE":"１５４巷","ALLEY":" ","HOUSE_NO":"２３號","E_COORD97":165681.42000000001,"N_COORD97":2543925.25,"ADDRESS":"永華六街１５４巷２３號","OBJECTID":397342},"geometry":{"x":165681.42000000086,"y":2543925.2500000019}},{"attributes":{"ID":397367,"DIS_CODE":0,"TOWNNAME":"安平區","LI":"怡平里","LIN":"16鄰","STREET":"永華六街","SECT":" ","MAREA":" ","LANE":"１５４巷","ALLEY":" ","HOUSE_NO":"２５號","E_COORD97":165684.42999999999,"N_COORD97":2543924.4500000002,"ADDRESS":"永華六街１５４巷２５號","OBJECTID":397343},"geometry":{"x":165684.43000000063,"y":2543924.4499999993}},{"attributes":{"ID":397368,"DIS_CODE":0,"TOWNNAME":"安平區","LI":"怡平里","LIN":"16鄰","STREET":"永華六街","SECT":" ","MAREA":" ","LANE":"１５４巷","ALLEY":" ","HOUSE_NO":"２７號","E_COORD97":165689.51000000001,"N_COORD97":2543923.8199999998,"ADDRESS":"永華六街１５４巷２７號","OBJECTID":397344},"geometry":{"x":165689.51000000071,"y":2543923.8199999984}},{"attributes":{"ID":397369,"DIS_CODE":0,"TOWNNAME":"安平區","LI":"怡平里","LIN":"16鄰","STREET":"永華六街","SECT":" ","MAREA":" ","LANE":"１５４巷","ALLEY":" ","HOUSE_NO":"２９號","E_COORD97":165694.91,"N_COORD97":2543923.1800000002,"ADDRESS":"永華六街１５４巷２９號","OBJECTID":397345},"geometry":{"x":165694.90999999922,"y":2543923.1799999997}},{"attributes":{"ID":397370,"DIS_CODE":0,"TOWNNAME":"安平區","LI":"怡平里","LIN":"16鄰","STREET":"永華六街","SECT":" ","MAREA":" ","LANE":"１５４巷","ALLEY":" ","HOUSE_NO":"３１號","E_COORD97":165701.57999999999,"N_COORD97":2543922.3900000001,"ADDRESS":"永華六街１５４巷３１號","OBJECTID":397346},"geometry":{"x":165701.58000000007,"y":2543922.3900000006}},{"attributes":{"ID":397371,"DIS_CODE":0,"TOWNNAME":"新營區","LI":"大宏里","LIN":"16鄰","STREET":"民治東路","SECT":" ","MAREA":" ","LANE":"１７巷","ALLEY":" ","HOUSE_NO":"３號","E_COORD97":180760.01000000001,"N_COORD97":2578862.6099999999,"ADDRESS":"民治東路１７巷３號","OBJECTID":397347},"geometry":{"x":180760.00999999978,"y":2578862.6100000031}},{"attributes":{"ID":397372,"DIS_CODE":0,"TOWNNAME":"東區","LI":"莊敬里","LIN":"14鄰","STREET":"莊敬路","SECT":" ","MAREA":" ","LANE":"２０５巷","ALLEY":" ","HOUSE_NO":"２４號","E_COORD97":171293.73000000001,"N_COORD97":2544177.7599999998,"ADDRESS":"莊敬路２０５巷２４號","OBJECTID":397348},"geometry":{"x":171293.73000000045,"y":2544177.7599999998}},{"attributes":{"ID":397373,"DIS_CODE":0,"TOWNNAME":"東區","LI":"莊敬里","LIN":"14鄰","STREET":"莊敬路","SECT":" ","MAREA":" ","LANE":"２１９巷","ALLEY":" ","HOUSE_NO":"１５號","E_COORD97":171291.67999999999,"N_COORD97":2544199.4900000002,"ADDRESS":"莊敬路２１９巷１５號","OBJECTID":397349},"geometry":{"x":171291.6799999997,"y":2544199.4900000002}},{"attributes":{"ID":397374,"DIS_CODE":0,"TOWNNAME":"東區","LI":"龍山里","LIN":"1鄰","STREET":"東門路","SECT":"二段","MAREA":" ","LANE":"３１２巷","ALLEY":" ","HOUSE_NO":"３號","E_COORD97":170624.51999999999,"N_COORD97":2542643.8900000001,"ADDRESS":"東門路二段３１２巷３號","OBJECTID":397350},"geometry":{"x":170624.51999999955,"y":2542643.8900000025}},{"attributes":{"ID":397375,"DIS_CODE":0,"TOWNNAME":"東區","LI":"中西里","LIN":"19鄰","STREET":"長榮路","SECT":"二段","MAREA":" ","LANE":"３２巷","ALLEY":" ","HOUSE_NO":"７１號","E_COORD97":170060.13,"N_COORD97":2543193.2999999998,"ADDRESS":"長榮路二段３２巷７１號","OBJECTID":397351},"geometry":{"x":170060.13000000175,"y":2543193.3000000026}},{"attributes":{"ID":397376,"DIS_CODE":0,"TOWNNAME":"東區","LI":"裕農里","LIN":"12鄰","STREET":"東寧路","SECT":" ","MAREA":" ","LANE":"５１０巷","ALLEY":" ","HOUSE_NO":"４１號","E_COORD97":171042.85999999999,"N_COORD97":2543256.7599999998,"ADDRESS":"東寧路５１０巷４１號","OBJECTID":397352},"geometry":{"x":171042.86000000127,"y":2543256.7600000016}},{"attributes":{"ID":397377,"DIS_CODE":0,"TOWNNAME":"東區","LI":"裕農里","LIN":"12鄰","STREET":"東寧路","SECT":" ","MAREA":" ","LANE":"５１０巷","ALLEY":" ","HOUSE_NO":"４１號之１","E_COORD97":171044.51000000001,"N_COORD97":2543240.0499999998,"ADDRESS":"東寧路５１０巷４１號之１","OBJECTID":397353},"geometry":{"x":171044.51000000071,"y":2543240.0500000007}},{"attributes":{"ID":397378,"DIS_CODE":0,"TOWNNAME":"新營區","LI":"新東里","LIN":"16鄰","STREET":"東智街","SECT":" ","MAREA":" ","LANE":"４６巷","ALLEY":" ","HOUSE_NO":"２６號","E_COORD97":181047.42999999999,"N_COORD97":2579696.29,"ADDRESS":"東智街４６巷２６號","OBJECTID":397354},"geometry":{"x":181047.4299999997,"y":2579696.290000001}},{"attributes":{"ID":397379,"DIS_CODE":0,"TOWNNAME":"新營區","LI":"南紙里","LIN":"16鄰","STREET":"南紙街","SECT":" ","MAREA":" ","LANE":"１６２巷","ALLEY":" ","HOUSE_NO":"２２號","E_COORD97":177801.75,"N_COORD97":2577304.1600000001,"ADDRESS":"南紙街１６２巷２２號","OBJECTID":397355},"geometry":{"x":177801.75000000093,"y":2577304.160000002}},{"attributes":{"ID":397380,"DIS_CODE":0,"TOWNNAME":"新營區","LI":"民榮里","LIN":"16鄰","STREET":"太子路","SECT":" ","MAREA":" ","LANE":"１９巷","ALLEY":" ","HOUSE_NO":"３３號","E_COORD97":178470.42000000001,"N_COORD97":2578078.3399999999,"ADDRESS":"太子路１９巷３３號","OBJECTID":397356},"geometry":{"x":178470.42000000086,"y":2578078.3400000036}},{"attributes":{"ID":397381,"DIS_CODE":0,"TOWNNAME":"新營區","LI":"南紙里","LIN":"16鄰","STREET":"南紙街","SECT":" ","MAREA":" ","LANE":"１６２巷","ALLEY":" ","HOUSE_NO":"１０號","E_COORD97":177774.03,"N_COORD97":2577298.7599999998,"ADDRESS":"南紙街１６２巷１０號","OBJECTID":397357},"geometry":{"x":177774.03000000026,"y":2577298.7600000035}},{"attributes":{"ID":397382,"DIS_CODE":0,"TOWNNAME":"新營區","LI":"大宏里","LIN":"16鄰","STREET":"民治東路","SECT":" ","MAREA":" ","LANE":"１７巷","ALLEY":" ","HOUSE_NO":"１６號","E_COORD97":180749.82999999999,"N_COORD97":2578843.8399999999,"ADDRESS":"民治東路１７巷１６號","OBJECTID":397358},"geometry":{"x":180749.83000000007,"y":2578843.8399999999}},{"attributes":{"ID":397383,"DIS_CODE":0,"TOWNNAME":"新營區","LI":"民榮里","LIN":"16鄰","STREET":"太子路","SECT":" ","MAREA":" ","LANE":"１９巷","ALLEY":" ","HOUSE_NO":"１４號","E_COORD97":178438.5,"N_COORD97":2578053.0299999998,"ADDRESS":"太子路１９巷１４號","OBJECTID":397359},"geometry":{"x":178438.5,"y":2578053.0300000012}},{"attributes":{"ID":397384,"DIS_CODE":0,"TOWNNAME":"新營區","LI":"忠政里","LIN":"16鄰","STREET":"府西路","SECT":" ","MAREA":" ","LANE":"２５９巷","ALLEY":" ","HOUSE_NO":"１１號","E_COORD97":179763.91,"N_COORD97":2579724.48,"ADDRESS":"府西路２５９巷１１號","OBJECTID":397360},"geometry":{"x":179763.91000000108,"y":2579724.4800000004}},{"attributes":{"ID":397385,"DIS_CODE":0,"TOWNNAME":"新營區","LI":"南紙里","LIN":"16鄰","STREET":"南紙街","SECT":" ","MAREA":" ","LANE":"１６２巷","ALLEY":" ","HOUSE_NO":"２８號","E_COORD97":177810.95000000001,"N_COORD97":2577305.2200000002,"ADDRESS":"南紙街１６２巷２８號","OBJECTID":397361},"geometry":{"x":177810.95000000112,"y":2577305.2200000007}},{"attributes":{"ID":397386,"DIS_CODE":0,"TOWNNAME":"新營區","LI":"忠政里","LIN":"16鄰","STREET":"府西路","SECT":" ","MAREA":" ","LANE":"２６１巷","ALLEY":" ","HOUSE_NO":"９號","E_COORD97":179766.92999999999,"N_COORD97":2579767.6499999999,"ADDRESS":"府西路２６１巷９號","OBJECTID":397362},"geometry":{"x":179766.93000000063,"y":2579767.6500000004}},{"attributes":{"ID":397387,"DIS_CODE":0,"TOWNNAME":"南區","LI":"新興里","LIN":"16鄰","STREET":"三官路","SECT":" ","MAREA":" ","LANE":"２５巷","ALLEY":" ","HOUSE_NO":"１１號","E_COORD97":167397.48000000001,"N_COORD97":2542381.5699999998,"ADDRESS":"三官路２５巷１１號","OBJECTID":397363},"geometry":{"x":167397.48000000138,"y":2542381.5700000003}},{"attributes":{"ID":397388,"DIS_CODE":0,"TOWNNAME":"南區","LI":"新興里","LIN":"16鄰","STREET":"三官路","SECT":" ","MAREA":" ","LANE":"２５巷","ALLEY":" ","HOUSE_NO":"１２號","E_COORD97":167397.92999999999,"N_COORD97":2542359.21,"ADDRESS":"三官路２５巷１２號","OBJECTID":397364},"geometry":{"x":167397.9299999997,"y":2542359.2100000046}},{"attributes":{"ID":397389,"DIS_CODE":0,"TOWNNAME":"南區","LI":"新興里","LIN":"16鄰","STREET":"三官路","SECT":" ","MAREA":" ","LANE":"２５巷","ALLEY":" ","HOUSE_NO":"２號","E_COORD97":167375.81,"N_COORD97":2542361.6499999999,"ADDRESS":"三官路２５巷２號","OBJECTID":397365},"geometry":{"x":167375.81000000052,"y":2542361.6500000004}},{"attributes":{"ID":397390,"DIS_CODE":0,"TOWNNAME":"南區","LI":"新興里","LIN":"16鄰","STREET":"三官路","SECT":" ","MAREA":" ","LANE":"２５巷","ALLEY":" ","HOUSE_NO":"４號","E_COORD97":167380.70000000001,"N_COORD97":2542361.54,"ADDRESS":"三官路２５巷４號","OBJECTID":397366},"geometry":{"x":167380.70000000019,"y":2542361.5399999972}},{"attributes":{"ID":397391,"DIS_CODE":0,"TOWNNAME":"南區","LI":"新興里","LIN":"16鄰","STREET":"三官路","SECT":" ","MAREA":" ","LANE":"２５巷","ALLEY":" ","HOUSE_NO":"５號","E_COORD97":167384.92000000001,"N_COORD97":2542381.6899999999,"ADDRESS":"三官路２５巷５號","OBJECTID":397367},"geometry":{"x":167384.92000000179,"y":2542381.6900000032}},{"attributes":{"ID":397392,"DIS_CODE":0,"TOWNNAME":"南區","LI":"新興里","LIN":"16鄰","STREET":"三官路","SECT":" ","MAREA":" ","LANE":"２５巷","ALLEY":" ","HOUSE_NO":"６號","E_COORD97":167384.81,"N_COORD97":2542361.54,"ADDRESS":"三官路２５巷６號","OBJECTID":397368},"geometry":{"x":167384.80999999959,"y":2542361.5399999972}},{"attributes":{"ID":397393,"DIS_CODE":0,"TOWNNAME":"南區","LI":"新興里","LIN":"16鄰","STREET":"三官路","SECT":" ","MAREA":" ","LANE":"２５巷","ALLEY":" ","HOUSE_NO":"７號","E_COORD97":167388.26000000001,"N_COORD97":2542381.46,"ADDRESS":"三官路２５巷７號","OBJECTID":397369},"geometry":{"x":167388.26000000071,"y":2542381.4600000028}},{"attributes":{"ID":397394,"DIS_CODE":0,"TOWNNAME":"南區","LI":"新興里","LIN":"16鄰","STREET":"三官路","SECT":" ","MAREA":" ","LANE":"２５巷","ALLEY":" ","HOUSE_NO":"８號","E_COORD97":167388.81,"N_COORD97":2542360.6499999999,"ADDRESS":"三官路２５巷８號","OBJECTID":397370},"geometry":{"x":167388.81000000052,"y":2542360.6500000004}},{"attributes":{"ID":397395,"DIS_CODE":0,"TOWNNAME":"南區","LI":"新興里","LIN":"16鄰","STREET":"三官路","SECT":" ","MAREA":" ","LANE":"２５巷","ALLEY":" ","HOUSE_NO":"９號","E_COORD97":167393.26000000001,"N_COORD97":2542382.1299999999,"ADDRESS":"三官路２５巷９號","OBJECTID":397371},"geometry":{"x":167393.26000000071,"y":2542382.1300000008}},{"attributes":{"ID":397396,"DIS_CODE":0,"TOWNNAME":"南區","LI":"新興里","LIN":"16鄰","STREET":"三官路","SECT":" ","MAREA":" ","LANE":"７巷","ALLEY":" ","HOUSE_NO":"２３號","E_COORD97":167414.95999999999,"N_COORD97":2542400.8700000001,"ADDRESS":"三官路７巷２３號","OBJECTID":397372},"geometry":{"x":167414.95999999996,"y":2542400.870000001}},{"attributes":{"ID":397397,"DIS_CODE":0,"TOWNNAME":"南區","LI":"新興里","LIN":"16鄰","STREET":"三官路","SECT":" ","MAREA":" ","LANE":"７巷","ALLEY":" ","HOUSE_NO":"２４號","E_COORD97":167389.87,"N_COORD97":2542345.71,"ADDRESS":"三官路７巷２４號","OBJECTID":397373},"geometry":{"x":167389.87000000011,"y":2542345.7100000046}},{"attributes":{"ID":397398,"DIS_CODE":0,"TOWNNAME":"南區","LI":"新興里","LIN":"16鄰","STREET":"三官路","SECT":" ","MAREA":" ","LANE":"７巷","ALLEY":" ","HOUSE_NO":"２８號","E_COORD97":167390.23000000001,"N_COORD97":2542337.4700000002,"ADDRESS":"三官路７巷２８號","OBJECTID":397374},"geometry":{"x":167390.23000000138,"y":2542337.4700000025}},{"attributes":{"ID":397399,"DIS_CODE":0,"TOWNNAME":"南區","LI":"新興里","LIN":"16鄰","STREET":"三官路","SECT":" ","MAREA":" ","LANE":"７巷","ALLEY":" ","HOUSE_NO":"２９號","E_COORD97":167414.23999999999,"N_COORD97":2542388.3799999999,"ADDRESS":"三官路７巷２９號","OBJECTID":397375},"geometry":{"x":167414.24000000115,"y":2542388.379999999}},{"attributes":{"ID":397400,"DIS_CODE":0,"TOWNNAME":"南區","LI":"新興里","LIN":"16鄰","STREET":"三官路","SECT":" ","MAREA":" ","LANE":"７巷","ALLEY":" ","HOUSE_NO":"３０號","E_COORD97":167389.51999999999,"N_COORD97":2542331.73,"ADDRESS":"三官路７巷３０號","OBJECTID":397376},"geometry":{"x":167389.52000000048,"y":2542331.7300000023}},{"attributes":{"ID":397401,"DIS_CODE":0,"TOWNNAME":"東區","LI":"崇德里","LIN":"1鄰","STREET":"崇善路","SECT":" ","MAREA":" ","LANE":"２３２巷","ALLEY":" ","HOUSE_NO":"２３號","E_COORD97":170704.29999999999,"N_COORD97":2541930.5800000001,"ADDRESS":"崇善路２３２巷２３號","OBJECTID":397377},"geometry":{"x":170704.29999999981,"y":2541930.5800000001}},{"attributes":{"ID":397402,"DIS_CODE":0,"TOWNNAME":"東區","LI":"崇德里","LIN":"1鄰","STREET":"崇善路","SECT":" ","MAREA":" ","LANE":"２３２巷","ALLEY":" ","HOUSE_NO":"２３號之１","E_COORD97":170701.48999999999,"N_COORD97":2541927.0800000001,"ADDRESS":"崇善路２３２巷２３號之１","OBJECTID":397378},"geometry":{"x":170701.49000000022,"y":2541927.0800000001}},{"attributes":{"ID":397403,"DIS_CODE":0,"TOWNNAME":"南區","LI":"新興里","LIN":"16鄰","STREET":"三官路","SECT":" ","MAREA":" ","LANE":"７巷","ALLEY":" ","HOUSE_NO":"３１號","E_COORD97":167413.79000000001,"N_COORD97":2542385.0800000001,"ADDRESS":"三官路７巷３１號","OBJECTID":397379},"geometry":{"x":167413.79000000004,"y":2542385.0800000001}},{"attributes":{"ID":397404,"DIS_CODE":0,"TOWNNAME":"南區","LI":"新興里","LIN":"16鄰","STREET":"三官路","SECT":" ","MAREA":" ","LANE":"７巷","ALLEY":" ","HOUSE_NO":"３２號","E_COORD97":167389.51999999999,"N_COORD97":2542327.4300000002,"ADDRESS":"三官路７巷３２號","OBJECTID":397380},"geometry":{"x":167389.52000000048,"y":2542327.4300000016}},{"attributes":{"ID":397405,"DIS_CODE":0,"TOWNNAME":"南區","LI":"新興里","LIN":"16鄰","STREET":"三官路","SECT":" ","MAREA":" ","LANE":"７巷","ALLEY":" ","HOUSE_NO":"３４號","E_COORD97":167391.31,"N_COORD97":2542322.77,"ADDRESS":"三官路７巷３４號","OBJECTID":397381},"geometry":{"x":167391.30999999959,"y":2542322.7699999996}},{"attributes":{"ID":397406,"DIS_CODE":0,"TOWNNAME":"南區","LI":"新興里","LIN":"16鄰","STREET":"三官路","SECT":" ","MAREA":" ","LANE":"７巷","ALLEY":" ","HOUSE_NO":"３５號","E_COORD97":167415.57999999999,"N_COORD97":2542375.8300000001,"ADDRESS":"三官路７巷３５號","OBJECTID":397382},"geometry":{"x":167415.58000000007,"y":2542375.8300000019}},{"attributes":{"ID":397407,"DIS_CODE":0,"TOWNNAME":"南區","LI":"新興里","LIN":"16鄰","STREET":"三官路","SECT":" ","MAREA":" ","LANE":"７巷","ALLEY":" ","HOUSE_NO":"３６號","E_COORD97":167392.03,"N_COORD97":2542319.1899999999,"ADDRESS":"三官路７巷３６號","OBJECTID":397383},"geometry":{"x":167392.03000000119,"y":2542319.1899999995}},{"attributes":{"ID":397408,"DIS_CODE":0,"TOWNNAME":"南區","LI":"新興里","LIN":"16鄰","STREET":"三官路","SECT":" ","MAREA":" ","LANE":"７巷","ALLEY":" ","HOUSE_NO":"３７號","E_COORD97":167414.78,"N_COORD97":2542371.4500000002,"ADDRESS":"三官路７巷３７號","OBJECTID":397384},"geometry":{"x":167414.78000000026,"y":2542371.4499999993}},{"attributes":{"ID":397409,"DIS_CODE":0,"TOWNNAME":"南區","LI":"新興里","LIN":"16鄰","STREET":"三官路","SECT":" ","MAREA":" ","LANE":"７巷","ALLEY":" ","HOUSE_NO":"４７號","E_COORD97":167416.25,"N_COORD97":2542311.3599999999,"ADDRESS":"三官路７巷４７號","OBJECTID":397385},"geometry":{"x":167416.25,"y":2542311.3599999994}},{"attributes":{"ID":397410,"DIS_CODE":0,"TOWNNAME":"南區","LI":"新興里","LIN":"16鄰","STREET":"三官路","SECT":" ","MAREA":" ","LANE":"７巷","ALLEY":" ","HOUSE_NO":"４８號","E_COORD97":167387.14999999999,"N_COORD97":2542304.77,"ADDRESS":"三官路７巷４８號","OBJECTID":397386},"geometry":{"x":167387.15000000224,"y":2542304.7699999996}},{"attributes":{"ID":397411,"DIS_CODE":0,"TOWNNAME":"南區","LI":"新興里","LIN":"16鄰","STREET":"三官路","SECT":" ","MAREA":" ","LANE":"７巷","ALLEY":" ","HOUSE_NO":"５１號","E_COORD97":167417.51000000001,"N_COORD97":2542297.8599999999,"ADDRESS":"三官路７巷５１號","OBJECTID":397387},"geometry":{"x":167417.50999999978,"y":2542297.8599999994}},{"attributes":{"ID":397412,"DIS_CODE":0,"TOWNNAME":"南區","LI":"新興里","LIN":"16鄰","STREET":"三官路","SECT":" ","MAREA":" ","LANE":"７巷","ALLEY":" ","HOUSE_NO":"５１號之１","E_COORD97":167417.14999999999,"N_COORD97":2542292.8399999999,"ADDRESS":"三官路７巷５１號之１","OBJECTID":397388},"geometry":{"x":167417.15000000037,"y":2542292.8400000036}},{"attributes":{"ID":397413,"DIS_CODE":0,"TOWNNAME":"南區","LI":"新興里","LIN":"16鄰","STREET":"三官路","SECT":" ","MAREA":" ","LANE":"７巷","ALLEY":" ","HOUSE_NO":"５３號","E_COORD97":167411.76999999999,"N_COORD97":2542285.6800000002,"ADDRESS":"三官路７巷５３號","OBJECTID":397389},"geometry":{"x":167411.76999999955,"y":2542285.6799999997}},{"attributes":{"ID":397414,"DIS_CODE":0,"TOWNNAME":"南區","LI":"新興里","LIN":"16鄰","STREET":"三官路","SECT":" ","MAREA":" ","LANE":"７巷","ALLEY":" ","HOUSE_NO":"５３號之１","E_COORD97":167412.12,"N_COORD97":2542289.6200000001,"ADDRESS":"三官路７巷５３號之１","OBJECTID":397390},"geometry":{"x":167412.12000000011,"y":2542289.6200000029}},{"attributes":{"ID":397415,"DIS_CODE":0,"TOWNNAME":"東區","LI":"後甲里","LIN":"15鄰","STREET":"裕農路","SECT":" ","MAREA":" ","LANE":"６２１巷","ALLEY":" ","HOUSE_NO":"５１號之６","E_COORD97":171521.06,"N_COORD97":2543450.79,"ADDRESS":"裕農路６２１巷５１號之６","OBJECTID":397391},"geometry":{"x":171521.05999999959,"y":2543450.7899999991}},{"attributes":{"ID":397416,"DIS_CODE":0,"TOWNNAME":"南區","LI":"新興里","LIN":"16鄰","STREET":"三官路","SECT":" ","MAREA":" ","LANE":"７巷","ALLEY":" ","HOUSE_NO":"５５號","E_COORD97":167401.92000000001,"N_COORD97":2542286.6899999999,"ADDRESS":"三官路７巷５５號","OBJECTID":397392},"geometry":{"x":167401.92000000086,"y":2542286.6900000032}},{"attributes":{"ID":397417,"DIS_CODE":0,"TOWNNAME":"南區","LI":"新興里","LIN":"16鄰","STREET":"三官路","SECT":" ","MAREA":" ","LANE":"７巷","ALLEY":" ","HOUSE_NO":"５７號","E_COORD97":167397.17000000001,"N_COORD97":2542285.7000000002,"ADDRESS":"三官路７巷５７號","OBJECTID":397393},"geometry":{"x":167397.17000000086,"y":2542285.6999999993}},{"attributes":{"ID":397418,"DIS_CODE":0,"TOWNNAME":"南區","LI":"新興里","LIN":"16鄰","STREET":"三官路","SECT":" ","MAREA":" ","LANE":"７巷","ALLEY":" ","HOUSE_NO":"５９號","E_COORD97":167392.04000000001,"N_COORD97":2542279.1800000002,"ADDRESS":"三官路７巷５９號","OBJECTID":397394},"geometry":{"x":167392.04000000004,"y":2542279.1799999997}},{"attributes":{"ID":397419,"DIS_CODE":0,"TOWNNAME":"南區","LI":"新興里","LIN":"16鄰","STREET":"三官路","SECT":" ","MAREA":" ","LANE":"７巷","ALLEY":" ","HOUSE_NO":"６１號","E_COORD97":167388.14999999999,"N_COORD97":2542278.0800000001,"ADDRESS":"三官路７巷６１號","OBJECTID":397395},"geometry":{"x":167388.15000000037,"y":2542278.0800000019}},{"attributes":{"ID":397420,"DIS_CODE":0,"TOWNNAME":"南區","LI":"新興里","LIN":"16鄰","STREET":"三官路","SECT":" ","MAREA":" ","LANE":"７巷","ALLEY":" ","HOUSE_NO":"６３號","E_COORD97":167383.14999999999,"N_COORD97":2542277.6400000001,"ADDRESS":"三官路７巷６３號","OBJECTID":397396},"geometry":{"x":167383.15000000037,"y":2542277.6399999987}},{"attributes":{"ID":397421,"DIS_CODE":0,"TOWNNAME":"安平區","LI":"怡平里","LIN":"16鄰","STREET":"永華六街","SECT":" ","MAREA":" ","LANE":"１５４巷","ALLEY":" ","HOUSE_NO":"９號之１","E_COORD97":165728.81,"N_COORD97":2543919.29,"ADDRESS":"永華六街１５４巷９號之１","OBJECTID":397397},"geometry":{"x":165728.80999999959,"y":2543919.2899999991}},{"attributes":{"ID":397422,"DIS_CODE":0,"TOWNNAME":"安平區","LI":"怡平里","LIN":"16鄰","STREET":"永華六街","SECT":" ","MAREA":" ","LANE":"１５４巷","ALLEY":" ","HOUSE_NO":"１１號之３","E_COORD97":165721.32000000001,"N_COORD97":2543908.6200000001,"ADDRESS":"永華六街１５４巷１１號之３","OBJECTID":397398},"geometry":{"x":165721.32000000216,"y":2543908.620000001}},{"attributes":{"ID":397423,"DIS_CODE":0,"TOWNNAME":"安平區","LI":"怡平里","LIN":"16鄰","STREET":"永華六街","SECT":" ","MAREA":" ","LANE":"１５４巷","ALLEY":" ","HOUSE_NO":"１５號之２","E_COORD97":165707.82000000001,"N_COORD97":2543922.1000000001,"ADDRESS":"永華六街１５４巷１５號之２","OBJECTID":397399},"geometry":{"x":165707.82000000123,"y":2543922.1000000015}},{"attributes":{"ID":397424,"DIS_CODE":0,"TOWNNAME":"安平區","LI":"怡平里","LIN":"16鄰","STREET":"永華六街","SECT":" ","MAREA":" ","LANE":"１５４巷","ALLEY":" ","HOUSE_NO":"６０號之２","E_COORD97":165668.06,"N_COORD97":2543946.0600000001,"ADDRESS":"永華六街１５４巷６０號之２","OBJECTID":397400},"geometry":{"x":165668.06000000145,"y":2543946.0600000005}}]}