{"displayFieldName":"TOWNNAME","fieldAliases":{"ID":"ID","DIS_CODE":"DIS_CODE","TOWNNAME":"TOWNNAME","LI":"LI","LIN":"LIN","STREET":"STREET","SECT":"SECT","MAREA":"MAREA","LANE":"LANE","ALLEY":"ALLEY","HOUSE_NO":"HOUSE_NO","E_COORD97":"E_COORD97","N_COORD97":"N_COORD97","ADDRESS":"ADDRESS","OBJECTID":"OBJECTID"},"geometryType":"esriGeometryPoint","spatialReference":{"wkid":102443,"latestWkid":3826},"fields":[{"name":"ID","type":"esriFieldTypeDouble","alias":"ID"},{"name":"DIS_CODE","type":"esriFieldTypeInteger","alias":"DIS_CODE"},{"name":"TOWNNAME","type":"esriFieldTypeString","alias":"TOWNNAME","length":8},{"name":"LI","type":"esriFieldTypeString","alias":"LI","length":8},{"name":"LIN","type":"esriFieldTypeString","alias":"LIN","length":12},{"name":"STREET","type":"esriFieldTypeString","alias":"STREET","length":20},{"name":"SECT","type":"esriFieldTypeString","alias":"SECT","length":8},{"name":"MAREA","type":"esriFieldTypeString","alias":"MAREA","length":12},{"name":"LANE","type":"esriFieldTypeString","alias":"LANE","length":10},{"name":"ALLEY","type":"esriFieldTypeString","alias":"ALLEY","length":10},{"name":"HOUSE_NO","type":"esriFieldTypeString","alias":"HOUSE_NO","length":20},{"name":"E_COORD97","type":"esriFieldTypeDouble","alias":"E_COORD97"},{"name":"N_COORD97","type":"esriFieldTypeDouble","alias":"N_COORD97"},{"name":"ADDRESS","type":"esriFieldTypeString","alias":"ADDRESS","length":50},{"name":"OBJECTID","type":"esriFieldTypeOID","alias":"OBJECTID"}],"features":[{"attributes":{"ID":268406,"DIS_CODE":0,"TOWNNAME":"六甲區","LI":"菁埔里","LIN":"3鄰","STREET":" ","SECT":" ","MAREA":"林鳳營","LANE":" ","ALLEY":" ","HOUSE_NO":"４８８號","E_COORD97":178973.26999999999,"N_COORD97":2571304.27,"ADDRESS":"林鳳營４８８號","OBJECTID":268401},"geometry":{"x":178973.26999999955,"y":2571304.2700000033}},{"attributes":{"ID":268407,"DIS_CODE":0,"TOWNNAME":"六甲區","LI":"菁埔里","LIN":"3鄰","STREET":" ","SECT":" ","MAREA":"林鳳營","LANE":" ","ALLEY":" ","HOUSE_NO":"４９０號","E_COORD97":178945.51000000001,"N_COORD97":2571302.1499999999,"ADDRESS":"林鳳營４９０號","OBJECTID":268402},"geometry":{"x":178945.51000000071,"y":2571302.1500000004}},{"attributes":{"ID":268408,"DIS_CODE":0,"TOWNNAME":"六甲區","LI":"菁埔里","LIN":"3鄰","STREET":" ","SECT":" ","MAREA":"林鳳營","LANE":" ","ALLEY":" ","HOUSE_NO":"５００號","E_COORD97":178785.32000000001,"N_COORD97":2571512.5499999998,"ADDRESS":"林鳳營５００號","OBJECTID":268403},"geometry":{"x":178785.3200000003,"y":2571512.5500000007}},{"attributes":{"ID":268409,"DIS_CODE":0,"TOWNNAME":"六甲區","LI":"菁埔里","LIN":"3鄰","STREET":" ","SECT":" ","MAREA":"林鳳營","LANE":" ","ALLEY":" ","HOUSE_NO":"５１３號","E_COORD97":178758.54999999999,"N_COORD97":2571103.0299999998,"ADDRESS":"林鳳營５１３號","OBJECTID":268404},"geometry":{"x":178758.55000000168,"y":2571103.0300000012}},{"attributes":{"ID":268410,"DIS_CODE":0,"TOWNNAME":"六甲區","LI":"菁埔里","LIN":"3鄰","STREET":" ","SECT":" ","MAREA":"林鳳營","LANE":" ","ALLEY":" ","HOUSE_NO":"５１７號","E_COORD97":178676.88,"N_COORD97":2571122.6099999999,"ADDRESS":"林鳳營５１７號","OBJECTID":268405},"geometry":{"x":178676.88000000082,"y":2571122.6100000013}},{"attributes":{"ID":268411,"DIS_CODE":0,"TOWNNAME":"安南區","LI":"理想里","LIN":"17鄰","STREET":"大安街","SECT":" ","MAREA":" ","LANE":"２５７巷","ALLEY":" ","HOUSE_NO":"１７號","E_COORD97":167416.39000000001,"N_COORD97":2548468.8100000001,"ADDRESS":"大安街２５７巷１７號","OBJECTID":268406},"geometry":{"x":167416.38999999966,"y":2548468.8100000024}},{"attributes":{"ID":268412,"DIS_CODE":0,"TOWNNAME":"永康區","LI":"勝利里","LIN":"17鄰","STREET":"中華一路","SECT":" ","MAREA":" ","LANE":"２９９巷","ALLEY":" ","HOUSE_NO":"１號","E_COORD97":171222.45000000001,"N_COORD97":2544961,"ADDRESS":"中華一路２９９巷１號","OBJECTID":268407},"geometry":{"x":171222.45000000019,"y":2544961.0000000019}},{"attributes":{"ID":268413,"DIS_CODE":0,"TOWNNAME":"新營區","LI":"新南里","LIN":"3鄰","STREET":"新北街","SECT":" ","MAREA":" ","LANE":" ","ALLEY":" ","HOUSE_NO":"９９之５號","E_COORD97":178719.59,"N_COORD97":2578773.7999999998,"ADDRESS":"新北街９９之５號","OBJECTID":268408},"geometry":{"x":178719.59000000078,"y":2578773.8000000007}},{"attributes":{"ID":268414,"DIS_CODE":0,"TOWNNAME":"歸仁區","LI":"文化里","LIN":"18鄰","STREET":"文化北二街","SECT":" ","MAREA":" ","LANE":"４５巷","ALLEY":" ","HOUSE_NO":"３號","E_COORD97":177140.20999999999,"N_COORD97":2541439.3399999999,"ADDRESS":"文化北二街４５巷３號","OBJECTID":268409},"geometry":{"x":177140.20999999996,"y":2541439.3400000017}},{"attributes":{"ID":268415,"DIS_CODE":0,"TOWNNAME":"安南區","LI":"溪墘里","LIN":"17鄰","STREET":"海佃路","SECT":"一段","MAREA":" ","LANE":"３７２巷","ALLEY":" ","HOUSE_NO":"１０號","E_COORD97":167130.76999999999,"N_COORD97":2547597.5800000001,"ADDRESS":"海佃路一段３７２巷１０號","OBJECTID":268410},"geometry":{"x":167130.76999999955,"y":2547597.5800000019}},{"attributes":{"ID":268416,"DIS_CODE":0,"TOWNNAME":"六甲區","LI":"菁埔里","LIN":"3鄰","STREET":" ","SECT":" ","MAREA":"林鳳營","LANE":" ","ALLEY":" ","HOUSE_NO":"５７２之１號","E_COORD97":178027.25,"N_COORD97":2571621.46,"ADDRESS":"林鳳營５７２之１號","OBJECTID":268411},"geometry":{"x":178027.25000000093,"y":2571621.4600000009}},{"attributes":{"ID":268417,"DIS_CODE":0,"TOWNNAME":"新營區","LI":"太南里","LIN":"3鄰","STREET":" ","SECT":" ","MAREA":"太子宮","LANE":" ","ALLEY":" ","HOUSE_NO":"１７１之６號","E_COORD97":176193.04999999999,"N_COORD97":2577057.4300000002,"ADDRESS":"太子宮１７１之６號","OBJECTID":268412},"geometry":{"x":176193.04999999981,"y":2577057.4300000016}},{"attributes":{"ID":268418,"DIS_CODE":0,"TOWNNAME":"新營區","LI":"民權里","LIN":"3鄰","STREET":"博愛街","SECT":" ","MAREA":" ","LANE":"２巷","ALLEY":" ","HOUSE_NO":"１４號","E_COORD97":179990.85999999999,"N_COORD97":2578189.5800000001,"ADDRESS":"博愛街２巷１４號","OBJECTID":268413},"geometry":{"x":179990.86000000034,"y":2578189.5800000019}},{"attributes":{"ID":268419,"DIS_CODE":0,"TOWNNAME":"中西區","LI":"西湖里","LIN":"34鄰","STREET":"西湖街","SECT":" ","MAREA":" ","LANE":" ","ALLEY":" ","HOUSE_NO":"１５８號","E_COORD97":166358.87,"N_COORD97":2544917.52,"ADDRESS":"西湖街１５８號","OBJECTID":268414},"geometry":{"x":166358.87000000104,"y":2544917.5199999996}},{"attributes":{"ID":268420,"DIS_CODE":0,"TOWNNAME":"新營區","LI":"嘉芳里","LIN":"3鄰","STREET":" ","SECT":" ","MAREA":"茄苳腳","LANE":" ","ALLEY":" ","HOUSE_NO":"２８之１８號","E_COORD97":177036.70999999999,"N_COORD97":2578438.6899999999,"ADDRESS":"茄苳腳２８之１８號","OBJECTID":268415},"geometry":{"x":177036.70999999996,"y":2578438.6900000013}},{"attributes":{"ID":268421,"DIS_CODE":0,"TOWNNAME":"新營區","LI":"新南里","LIN":"3鄰","STREET":"新北街","SECT":" ","MAREA":" ","LANE":" ","ALLEY":" ","HOUSE_NO":"３１號","E_COORD97":178852.79000000001,"N_COORD97":2578678.96,"ADDRESS":"新北街３１號","OBJECTID":268416},"geometry":{"x":178852.79000000097,"y":2578678.9600000028}},{"attributes":{"ID":268422,"DIS_CODE":0,"TOWNNAME":"安南區","LI":"溪墘里","LIN":"17鄰","STREET":"海佃路","SECT":"一段","MAREA":" ","LANE":"３７２巷","ALLEY":" ","HOUSE_NO":"１２號","E_COORD97":167135.47,"N_COORD97":2547598.7200000002,"ADDRESS":"海佃路一段３７２巷１２號","OBJECTID":268417},"geometry":{"x":167135.47000000067,"y":2547598.7200000007}},{"attributes":{"ID":268423,"DIS_CODE":0,"TOWNNAME":"安南區","LI":"溪墘里","LIN":"17鄰","STREET":"海佃路","SECT":"一段","MAREA":" ","LANE":"３７２巷","ALLEY":" ","HOUSE_NO":"１６號","E_COORD97":167140.29000000001,"N_COORD97":2547599.73,"ADDRESS":"海佃路一段３７２巷１６號","OBJECTID":268418},"geometry":{"x":167140.29000000097,"y":2547599.7300000004}},{"attributes":{"ID":268424,"DIS_CODE":0,"TOWNNAME":"仁德區","LI":"保安里","LIN":"17鄰","STREET":"中正路","SECT":"一段","MAREA":" ","LANE":"７０巷","ALLEY":" ","HOUSE_NO":"６號","E_COORD97":170924.59,"N_COORD97":2535493.27,"ADDRESS":"中正路一段７０巷６號","OBJECTID":268419},"geometry":{"x":170924.58999999985,"y":2535493.2700000014}},{"attributes":{"ID":268425,"DIS_CODE":0,"TOWNNAME":"仁德區","LI":"成功里","LIN":"17鄰","STREET":"全福路","SECT":" ","MAREA":" ","LANE":"８０巷","ALLEY":" ","HOUSE_NO":"３號","E_COORD97":171034.5,"N_COORD97":2539290.75,"ADDRESS":"全福路８０巷３號","OBJECTID":268420},"geometry":{"x":171034.50000000093,"y":2539290.7500000019}},{"attributes":{"ID":268426,"DIS_CODE":0,"TOWNNAME":"仁德區","LI":"保安里","LIN":"17鄰","STREET":"中正路","SECT":"一段","MAREA":" ","LANE":"７０巷","ALLEY":" ","HOUSE_NO":"１３號","E_COORD97":170945.17999999999,"N_COORD97":2535477.77,"ADDRESS":"中正路一段７０巷１３號","OBJECTID":268421},"geometry":{"x":170945.18000000063,"y":2535477.7699999996}},{"attributes":{"ID":268427,"DIS_CODE":0,"TOWNNAME":"仁德區","LI":"成功里","LIN":"17鄰","STREET":"全福路","SECT":" ","MAREA":" ","LANE":"８０巷","ALLEY":" ","HOUSE_NO":"７號","E_COORD97":171033.92999999999,"N_COORD97":2539281,"ADDRESS":"全福路８０巷７號","OBJECTID":268422},"geometry":{"x":171033.9299999997,"y":2539281.0000000037}},{"attributes":{"ID":268428,"DIS_CODE":0,"TOWNNAME":"仁德區","LI":"成功里","LIN":"17鄰","STREET":"全福路","SECT":" ","MAREA":" ","LANE":"８０巷","ALLEY":" ","HOUSE_NO":"２１號","E_COORD97":171030.84,"N_COORD97":2539238.9900000002,"ADDRESS":"全福路８０巷２１號","OBJECTID":268423},"geometry":{"x":171030.83999999985,"y":2539238.9900000021}},{"attributes":{"ID":268429,"DIS_CODE":0,"TOWNNAME":"仁德區","LI":"後壁里","LIN":"38鄰","STREET":"德安路","SECT":" ","MAREA":" ","LANE":" ","ALLEY":" ","HOUSE_NO":"９號","E_COORD97":173410.85000000001,"N_COORD97":2539203.5699999998,"ADDRESS":"德安路９號","OBJECTID":268424},"geometry":{"x":173410.84999999963,"y":2539203.5700000022}},{"attributes":{"ID":268430,"DIS_CODE":0,"TOWNNAME":"歸仁區","LI":"六甲里","LIN":"10鄰","STREET":"六甲路","SECT":" ","MAREA":" ","LANE":"１５１巷","ALLEY":" ","HOUSE_NO":"２８號","E_COORD97":176123.81,"N_COORD97":2539114.25,"ADDRESS":"六甲路１５１巷２８號","OBJECTID":268425},"geometry":{"x":176123.80999999866,"y":2539114.2500000019}},{"attributes":{"ID":268431,"DIS_CODE":0,"TOWNNAME":"仁德區","LI":"中生里","LIN":"5鄰","STREET":" ","SECT":" ","MAREA":"中洲","LANE":" ","ALLEY":" ","HOUSE_NO":"１３２之１８號","E_COORD97":172573.093994,"N_COORD97":2534133.3163299998,"ADDRESS":"中洲１３２之１８號","OBJECTID":268426},"geometry":{"x":172573.09399400093,"y":2534133.3163249996}},{"attributes":{"ID":268432,"DIS_CODE":0,"TOWNNAME":"歸仁區","LI":"七甲里","LIN":"2鄰","STREET":"中正北路","SECT":"二段","MAREA":" ","LANE":"３１９巷","ALLEY":" ","HOUSE_NO":"１９號","E_COORD97":177435.03,"N_COORD97":2542734.3900000001,"ADDRESS":"中正北路二段３１９巷１９號","OBJECTID":268427},"geometry":{"x":177435.03000000026,"y":2542734.3900000025}},{"attributes":{"ID":268433,"DIS_CODE":0,"TOWNNAME":"歸仁區","LI":"七甲里","LIN":"5鄰","STREET":"中正北路","SECT":"二段","MAREA":" ","LANE":"４３２巷","ALLEY":" ","HOUSE_NO":"１號","E_COORD97":177504.12,"N_COORD97":2543085.2599999998,"ADDRESS":"中正北路二段４３２巷１號","OBJECTID":268428},"geometry":{"x":177504.12000000104,"y":2543085.2599999998}},{"attributes":{"ID":268434,"DIS_CODE":0,"TOWNNAME":"新營區","LI":"太南里","LIN":"3鄰","STREET":" ","SECT":" ","MAREA":"太子宮","LANE":" ","ALLEY":" ","HOUSE_NO":"１７１之４號","E_COORD97":176200.22,"N_COORD97":2577059.6099999999,"ADDRESS":"太子宮１７１之４號","OBJECTID":268429},"geometry":{"x":176200.21999999974,"y":2577059.6100000013}},{"attributes":{"ID":268435,"DIS_CODE":0,"TOWNNAME":"仁德區","LI":"後壁里","LIN":"38鄰","STREET":"德安路","SECT":" ","MAREA":" ","LANE":" ","ALLEY":" ","HOUSE_NO":"６６號","E_COORD97":173429.85000000001,"N_COORD97":2539147.8100000001,"ADDRESS":"德安路６６號","OBJECTID":268430},"geometry":{"x":173429.84999999963,"y":2539147.8100000024}},{"attributes":{"ID":268436,"DIS_CODE":0,"TOWNNAME":"新營區","LI":"太南里","LIN":"3鄰","STREET":" ","SECT":" ","MAREA":"太子宮","LANE":" ","ALLEY":" ","HOUSE_NO":"１５７號","E_COORD97":176230.41,"N_COORD97":2577050.54,"ADDRESS":"太子宮１５７號","OBJECTID":268431},"geometry":{"x":176230.41000000015,"y":2577050.5399999991}},{"attributes":{"ID":268437,"DIS_CODE":0,"TOWNNAME":"新營區","LI":"太南里","LIN":"3鄰","STREET":" ","SECT":" ","MAREA":"太子宮","LANE":" ","ALLEY":" ","HOUSE_NO":"１５８號","E_COORD97":176294.70999999999,"N_COORD97":2577021.4300000002,"ADDRESS":"太子宮１５８號","OBJECTID":268432},"geometry":{"x":176294.71000000089,"y":2577021.4299999997}},{"attributes":{"ID":268438,"DIS_CODE":0,"TOWNNAME":"新營區","LI":"太南里","LIN":"3鄰","STREET":" ","SECT":" ","MAREA":"太子宮","LANE":" ","ALLEY":" ","HOUSE_NO":"１５７之５號","E_COORD97":176243.28,"N_COORD97":2577078.23,"ADDRESS":"太子宮１５７之５號","OBJECTID":268433},"geometry":{"x":176243.28000000026,"y":2577078.2300000004}},{"attributes":{"ID":268439,"DIS_CODE":0,"TOWNNAME":"新營區","LI":"嘉芳里","LIN":"3鄰","STREET":" ","SECT":" ","MAREA":"茄苳腳","LANE":" ","ALLEY":" ","HOUSE_NO":"２８之９號","E_COORD97":177038.47,"N_COORD97":2578427.6000000001,"ADDRESS":"茄苳腳２８之９號","OBJECTID":268434},"geometry":{"x":177038.4700000016,"y":2578427.5999999996}},{"attributes":{"ID":268440,"DIS_CODE":0,"TOWNNAME":"北區","LI":"賢北里","LIN":"17鄰","STREET":"和緯路","SECT":"五段","MAREA":" ","LANE":"２３４巷","ALLEY":" ","HOUSE_NO":"５０號","E_COORD97":166054.17000000001,"N_COORD97":2545257.6499999999,"ADDRESS":"和緯路五段２３４巷５０號","OBJECTID":268435},"geometry":{"x":166054.17000000179,"y":2545257.6500000041}},{"attributes":{"ID":268441,"DIS_CODE":0,"TOWNNAME":"歸仁區","LI":"大廟里","LIN":"4鄰","STREET":"和順路","SECT":"二段","MAREA":" ","LANE":"８７巷","ALLEY":" ","HOUSE_NO":"８６號","E_COORD97":176234.22,"N_COORD97":2543479.1400000001,"ADDRESS":"和順路二段８７巷８６號","OBJECTID":268436},"geometry":{"x":176234.21999999974,"y":2543479.1400000025}},{"attributes":{"ID":268442,"DIS_CODE":0,"TOWNNAME":"北區","LI":"賢北里","LIN":"17鄰","STREET":"和緯路","SECT":"五段","MAREA":" ","LANE":"２３４巷","ALLEY":" ","HOUSE_NO":"５２號","E_COORD97":166058.85000000001,"N_COORD97":2545260.2000000002,"ADDRESS":"和緯路五段２３４巷５２號","OBJECTID":268437},"geometry":{"x":166058.84999999963,"y":2545260.2000000011}},{"attributes":{"ID":268443,"DIS_CODE":0,"TOWNNAME":"北區","LI":"賢北里","LIN":"17鄰","STREET":"和緯路","SECT":"五段","MAREA":" ","LANE":"２３４巷","ALLEY":" ","HOUSE_NO":"５４號","E_COORD97":166065.03,"N_COORD97":2545262.3300000001,"ADDRESS":"和緯路五段２３４巷５４號","OBJECTID":268438},"geometry":{"x":166065.03000000026,"y":2545262.3300000001}},{"attributes":{"ID":268444,"DIS_CODE":0,"TOWNNAME":"歸仁區","LI":"八甲里","LIN":"3鄰","STREET":"大光街","SECT":" ","MAREA":" ","LANE":" ","ALLEY":" ","HOUSE_NO":"５６號","E_COORD97":177975.47,"N_COORD97":2541676.6099999999,"ADDRESS":"大光街５６號","OBJECTID":268439},"geometry":{"x":177975.46999999974,"y":2541676.6100000031}},{"attributes":{"ID":268445,"DIS_CODE":0,"TOWNNAME":"歸仁區","LI":"大潭里","LIN":"3鄰","STREET":"大潭一街","SECT":" ","MAREA":" ","LANE":" ","ALLEY":" ","HOUSE_NO":"８５號","E_COORD97":175301.76999999999,"N_COORD97":2534570.25,"ADDRESS":"大潭一街８５號","OBJECTID":268440},"geometry":{"x":175301.76999999955,"y":2534570.2500000037}},{"attributes":{"ID":268446,"DIS_CODE":0,"TOWNNAME":"歸仁區","LI":"大廟里","LIN":"3鄰","STREET":"保大路","SECT":"三段","MAREA":" ","LANE":" ","ALLEY":" ","HOUSE_NO":"１之１號","E_COORD97":176469.97,"N_COORD97":2544089.2999999998,"ADDRESS":"保大路三段１之１號","OBJECTID":268441},"geometry":{"x":176469.96999999974,"y":2544089.3000000007}},{"attributes":{"ID":268447,"DIS_CODE":0,"TOWNNAME":"歸仁區","LI":"西埔里","LIN":"3鄰","STREET":"保大路","SECT":"二段","MAREA":" ","LANE":" ","ALLEY":" ","HOUSE_NO":"１４３號","E_COORD97":176936.67000000001,"N_COORD97":2544126.2799999998,"ADDRESS":"保大路二段１４３號","OBJECTID":268442},"geometry":{"x":176936.66999999993,"y":2544126.2799999993}},{"attributes":{"ID":268448,"DIS_CODE":0,"TOWNNAME":"北區","LI":"賢北里","LIN":"17鄰","STREET":"和緯路","SECT":"五段","MAREA":" ","LANE":"２３４巷","ALLEY":" ","HOUSE_NO":"５６號","E_COORD97":166070.57999999999,"N_COORD97":2545264.46,"ADDRESS":"和緯路五段２３４巷５６號","OBJECTID":268443},"geometry":{"x":166070.58000000101,"y":2545264.4600000028}},{"attributes":{"ID":268449,"DIS_CODE":0,"TOWNNAME":"北區","LI":"賢北里","LIN":"17鄰","STREET":"和緯路","SECT":"五段","MAREA":" ","LANE":"２３４巷","ALLEY":" ","HOUSE_NO":"５８號","E_COORD97":166065.03,"N_COORD97":2545279.1400000001,"ADDRESS":"和緯路五段２３４巷５８號","OBJECTID":268444},"geometry":{"x":166065.03000000026,"y":2545279.1400000025}},{"attributes":{"ID":268450,"DIS_CODE":0,"TOWNNAME":"北區","LI":"賢北里","LIN":"17鄰","STREET":"和緯路","SECT":"五段","MAREA":" ","LANE":"２３４巷","ALLEY":" ","HOUSE_NO":"６０號","E_COORD97":166059.48999999999,"N_COORD97":2545276.3799999999,"ADDRESS":"和緯路五段２３４巷６０號","OBJECTID":268445},"geometry":{"x":166059.49000000115,"y":2545276.3800000008}},{"attributes":{"ID":268451,"DIS_CODE":0,"TOWNNAME":"歸仁區","LI":"大潭里","LIN":"3鄰","STREET":"大潭一街","SECT":" ","MAREA":" ","LANE":" ","ALLEY":" ","HOUSE_NO":"９７號","E_COORD97":175305.67000000001,"N_COORD97":2534531.25,"ADDRESS":"大潭一街９７號","OBJECTID":268446},"geometry":{"x":175305.66999999993,"y":2534531.25}},{"attributes":{"ID":268452,"DIS_CODE":0,"TOWNNAME":"北區","LI":"賢北里","LIN":"17鄰","STREET":"和緯路","SECT":"五段","MAREA":" ","LANE":"２３４巷","ALLEY":" ","HOUSE_NO":"６２號","E_COORD97":166053.95000000001,"N_COORD97":2545273.3999999999,"ADDRESS":"和緯路五段２３４巷６２號","OBJECTID":268447},"geometry":{"x":166053.95000000019,"y":2545273.4000000022}},{"attributes":{"ID":268453,"DIS_CODE":0,"TOWNNAME":"北區","LI":"賢北里","LIN":"17鄰","STREET":"和緯路","SECT":"五段","MAREA":" ","LANE":"２３４巷","ALLEY":" ","HOUSE_NO":"６４號","E_COORD97":166047.13,"N_COORD97":2545270.4199999999,"ADDRESS":"和緯路五段２３４巷６４號","OBJECTID":268448},"geometry":{"x":166047.12999999989,"y":2545270.4200000018}},{"attributes":{"ID":268454,"DIS_CODE":0,"TOWNNAME":"歸仁區","LI":"八甲里","LIN":"3鄰","STREET":"大光街","SECT":" ","MAREA":" ","LANE":" ","ALLEY":" ","HOUSE_NO":"８２號","E_COORD97":177992.26999999999,"N_COORD97":2541765.6099999999,"ADDRESS":"大光街８２號","OBJECTID":268449},"geometry":{"x":177992.27000000142,"y":2541765.6100000013}},{"attributes":{"ID":268455,"DIS_CODE":0,"TOWNNAME":"歸仁區","LI":"大廟里","LIN":"3鄰","STREET":"大廟三街","SECT":" ","MAREA":" ","LANE":" ","ALLEY":" ","HOUSE_NO":"１２１號","E_COORD97":176271.51999999999,"N_COORD97":2543808.25,"ADDRESS":"大廟三街１２１號","OBJECTID":268450},"geometry":{"x":176271.51999999862,"y":2543808.25}},{"attributes":{"ID":268456,"DIS_CODE":0,"TOWNNAME":"北區","LI":"賢北里","LIN":"17鄰","STREET":"賢北街","SECT":" ","MAREA":" ","LANE":"２７巷","ALLEY":" ","HOUSE_NO":"９３號","E_COORD97":166057.76999999999,"N_COORD97":2545295.3700000001,"ADDRESS":"賢北街２７巷９３號","OBJECTID":268451},"geometry":{"x":166057.76999999955,"y":2545295.3700000029}},{"attributes":{"ID":268457,"DIS_CODE":0,"TOWNNAME":"北區","LI":"賢北里","LIN":"17鄰","STREET":"賢北街","SECT":" ","MAREA":" ","LANE":"２７巷","ALLEY":" ","HOUSE_NO":"９５號","E_COORD97":166053.63,"N_COORD97":2545292.6099999999,"ADDRESS":"賢北街２７巷９５號","OBJECTID":268452},"geometry":{"x":166053.62999999989,"y":2545292.6099999994}},{"attributes":{"ID":268458,"DIS_CODE":0,"TOWNNAME":"北區","LI":"賢北里","LIN":"17鄰","STREET":"賢北街","SECT":" ","MAREA":" ","LANE":"２７巷","ALLEY":" ","HOUSE_NO":"９７號","E_COORD97":166049.82000000001,"N_COORD97":2545291.23,"ADDRESS":"賢北街２７巷９７號","OBJECTID":268453},"geometry":{"x":166049.8200000003,"y":2545291.2300000042}},{"attributes":{"ID":268459,"DIS_CODE":0,"TOWNNAME":"北區","LI":"賢北里","LIN":"17鄰","STREET":"賢北街","SECT":" ","MAREA":" ","LANE":"２７巷","ALLEY":" ","HOUSE_NO":"９９號","E_COORD97":166046.01999999999,"N_COORD97":2545288.8100000001,"ADDRESS":"賢北街２７巷９９號","OBJECTID":268454},"geometry":{"x":166046.01999999955,"y":2545288.8100000024}},{"attributes":{"ID":268460,"DIS_CODE":0,"TOWNNAME":"北區","LI":"永祥里","LIN":"17鄰","STREET":"大武街","SECT":" ","MAREA":" ","LANE":"５４２巷","ALLEY":" ","HOUSE_NO":"１０號","E_COORD97":170209.06,"N_COORD97":2546374.1899999999,"ADDRESS":"大武街５４２巷１０號","OBJECTID":268455},"geometry":{"x":170209.05999999959,"y":2546374.1899999995}},{"attributes":{"ID":268461,"DIS_CODE":0,"TOWNNAME":"北區","LI":"永祥里","LIN":"17鄰","STREET":"大武街","SECT":" ","MAREA":" ","LANE":"５４２巷","ALLEY":" ","HOUSE_NO":"１２號","E_COORD97":170209.13,"N_COORD97":2546369.6099999999,"ADDRESS":"大武街５４２巷１２號","OBJECTID":268456},"geometry":{"x":170209.12999999896,"y":2546369.6100000013}},{"attributes":{"ID":268462,"DIS_CODE":0,"TOWNNAME":"歸仁區","LI":"大廟里","LIN":"3鄰","STREET":"和順路","SECT":"二段","MAREA":" ","LANE":" ","ALLEY":" ","HOUSE_NO":"２１２號","E_COORD97":175965.44,"N_COORD97":2543638.2799999998,"ADDRESS":"和順路二段２１２號","OBJECTID":268457},"geometry":{"x":175965.44000000041,"y":2543638.2799999975}},{"attributes":{"ID":268463,"DIS_CODE":0,"TOWNNAME":"歸仁區","LI":"文化里","LIN":"3鄰","STREET":"國光街","SECT":" ","MAREA":" ","LANE":" ","ALLEY":" ","HOUSE_NO":"１３９號","E_COORD97":177345.73000000001,"N_COORD97":2541196.3300000001,"ADDRESS":"國光街１３９號","OBJECTID":268458},"geometry":{"x":177345.73000000045,"y":2541196.3300000001}},{"attributes":{"ID":268464,"DIS_CODE":0,"TOWNNAME":"歸仁區","LI":"八甲里","LIN":"3鄰","STREET":"大明三街","SECT":" ","MAREA":" ","LANE":" ","ALLEY":" ","HOUSE_NO":"６８號","E_COORD97":178006.42000000001,"N_COORD97":2541661.6099999999,"ADDRESS":"大明三街６８號","OBJECTID":268459},"geometry":{"x":178006.41999999993,"y":2541661.6099999994}},{"attributes":{"ID":268465,"DIS_CODE":0,"TOWNNAME":"北區","LI":"文元里","LIN":"3鄰","STREET":"文成三路","SECT":" ","MAREA":" ","LANE":" ","ALLEY":" ","HOUSE_NO":"９３８號","E_COORD97":167613.44,"N_COORD97":2546248.73,"ADDRESS":"文成三路９３８號","OBJECTID":268460},"geometry":{"x":167613.44000000041,"y":2546248.7300000023}},{"attributes":{"ID":268466,"DIS_CODE":0,"TOWNNAME":"安平區","LI":"國平里","LIN":"17鄰","STREET":"華平路","SECT":" ","MAREA":" ","LANE":"２１巷","ALLEY":" ","HOUSE_NO":"３７號","E_COORD97":165190,"N_COORD97":2542795.8199999998,"ADDRESS":"華平路２１巷３７號","OBJECTID":268461},"geometry":{"x":165190,"y":2542795.8200000022}},{"attributes":{"ID":268467,"DIS_CODE":0,"TOWNNAME":"安平區","LI":"國平里","LIN":"17鄰","STREET":"華平路","SECT":" ","MAREA":" ","LANE":"２１巷","ALLEY":" ","HOUSE_NO":"３５號","E_COORD97":165196.35000000001,"N_COORD97":2542792.7999999998,"ADDRESS":"華平路２１巷３５號","OBJECTID":268462},"geometry":{"x":165196.34999999963,"y":2542792.8000000026}},{"attributes":{"ID":268468,"DIS_CODE":0,"TOWNNAME":"安平區","LI":"國平里","LIN":"17鄰","STREET":"華平路","SECT":" ","MAREA":" ","LANE":"２１巷","ALLEY":" ","HOUSE_NO":"３１號","E_COORD97":165225.23999999999,"N_COORD97":2542789.79,"ADDRESS":"華平路２１巷３１號","OBJECTID":268463},"geometry":{"x":165225.24000000115,"y":2542789.7899999991}},{"attributes":{"ID":268469,"DIS_CODE":0,"TOWNNAME":"安平區","LI":"國平里","LIN":"17鄰","STREET":"華平路","SECT":" ","MAREA":" ","LANE":"２１巷","ALLEY":" ","HOUSE_NO":"２９號","E_COORD97":165228.57000000001,"N_COORD97":2542788.6800000002,"ADDRESS":"華平路２１巷２９號","OBJECTID":268464},"geometry":{"x":165228.57000000123,"y":2542788.6800000034}},{"attributes":{"ID":268470,"DIS_CODE":0,"TOWNNAME":"北區","LI":"小康里","LIN":"17鄰","STREET":"大武街","SECT":" ","MAREA":" ","LANE":"４０１巷","ALLEY":" ","HOUSE_NO":"４號","E_COORD97":169766.91,"N_COORD97":2546501.8799999999,"ADDRESS":"大武街４０１巷４號","OBJECTID":268465},"geometry":{"x":169766.91000000201,"y":2546501.879999999}},{"attributes":{"ID":268471,"DIS_CODE":0,"TOWNNAME":"北區","LI":"小康里","LIN":"17鄰","STREET":"大武街","SECT":" ","MAREA":" ","LANE":"４０１巷","ALLEY":" ","HOUSE_NO":"６號","E_COORD97":169767.48000000001,"N_COORD97":2546505.0899999999,"ADDRESS":"大武街４０１巷６號","OBJECTID":268466},"geometry":{"x":169767.48000000138,"y":2546505.089999998}},{"attributes":{"ID":268472,"DIS_CODE":0,"TOWNNAME":"北區","LI":"小康里","LIN":"17鄰","STREET":"大武街","SECT":" ","MAREA":" ","LANE":"４０１巷","ALLEY":" ","HOUSE_NO":"８號","E_COORD97":169767.48000000001,"N_COORD97":2546510.1400000001,"ADDRESS":"大武街４０１巷８號","OBJECTID":268467},"geometry":{"x":169767.48000000138,"y":2546510.1400000025}},{"attributes":{"ID":268473,"DIS_CODE":0,"TOWNNAME":"安平區","LI":"華平里","LIN":"17鄰","STREET":"永華八街","SECT":" ","MAREA":" ","LANE":"１９３巷","ALLEY":" ","HOUSE_NO":"１８號之４","E_COORD97":165107.95999999999,"N_COORD97":2543748.02,"ADDRESS":"永華八街１９３巷１８號之４","OBJECTID":268468},"geometry":{"x":165107.96000000183,"y":2543748.0199999996}},{"attributes":{"ID":268474,"DIS_CODE":0,"TOWNNAME":"北區","LI":"東興里","LIN":"17鄰","STREET":"小東路","SECT":" ","MAREA":" ","LANE":"２９９巷","ALLEY":" ","HOUSE_NO":"１１號","E_COORD97":171097.07999999999,"N_COORD97":2544463.3300000001,"ADDRESS":"小東路２９９巷１１號","OBJECTID":268469},"geometry":{"x":171097.08000000101,"y":2544463.3300000019}},{"attributes":{"ID":268475,"DIS_CODE":0,"TOWNNAME":"北區","LI":"東興里","LIN":"17鄰","STREET":"小東路","SECT":" ","MAREA":" ","LANE":"２９９巷","ALLEY":" ","HOUSE_NO":"１３之３號","E_COORD97":171092.89000000001,"N_COORD97":2544467.8999999999,"ADDRESS":"小東路２９９巷１３之３號","OBJECTID":268470},"geometry":{"x":171092.8900000006,"y":2544467.9000000004}},{"attributes":{"ID":268476,"DIS_CODE":0,"TOWNNAME":"北區","LI":"東興里","LIN":"17鄰","STREET":"小東路","SECT":" ","MAREA":" ","LANE":"２９９巷","ALLEY":" ","HOUSE_NO":"１３號","E_COORD97":171098.34,"N_COORD97":2544466.8300000001,"ADDRESS":"小東路２９９巷１３號","OBJECTID":268471},"geometry":{"x":171098.34000000078,"y":2544466.8300000019}},{"attributes":{"ID":268477,"DIS_CODE":0,"TOWNNAME":"仁德區","LI":"中生里","LIN":"5鄰","STREET":" ","SECT":" ","MAREA":"中洲","LANE":" ","ALLEY":" ","HOUSE_NO":"１３２之８２號","E_COORD97":172619.280314,"N_COORD97":2534428.8028299999,"ADDRESS":"中洲１３２之８２號","OBJECTID":268472},"geometry":{"x":172619.28031400032,"y":2534428.802832}},{"attributes":{"ID":268478,"DIS_CODE":0,"TOWNNAME":"柳營區","LI":"果毅里","LIN":"3鄰","STREET":" ","SECT":" ","MAREA":"果毅後","LANE":" ","ALLEY":" ","HOUSE_NO":"４０號","E_COORD97":185565.44,"N_COORD97":2572941,"ADDRESS":"果毅後４０號","OBJECTID":268473},"geometry":{"x":185565.44000000041,"y":2572941.0000000037}},{"attributes":{"ID":268479,"DIS_CODE":0,"TOWNNAME":"柳營區","LI":"果毅里","LIN":"3鄰","STREET":" ","SECT":" ","MAREA":"果毅後","LANE":" ","ALLEY":" ","HOUSE_NO":"３８號","E_COORD97":185567.62,"N_COORD97":2572962.75,"ADDRESS":"果毅後３８號","OBJECTID":268474},"geometry":{"x":185567.62000000011,"y":2572962.7500000037}},{"attributes":{"ID":268480,"DIS_CODE":0,"TOWNNAME":"柳營區","LI":"果毅里","LIN":"3鄰","STREET":" ","SECT":" ","MAREA":"果毅後","LANE":" ","ALLEY":" ","HOUSE_NO":"３９號","E_COORD97":185563.64000000001,"N_COORD97":2572953.75,"ADDRESS":"果毅後３９號","OBJECTID":268475},"geometry":{"x":185563.63999999966,"y":2572953.7500000019}},{"attributes":{"ID":268481,"DIS_CODE":0,"TOWNNAME":"柳營區","LI":"果毅里","LIN":"3鄰","STREET":" ","SECT":" ","MAREA":"果毅後","LANE":" ","ALLEY":" ","HOUSE_NO":"４１號之１","E_COORD97":185571.89999999999,"N_COORD97":2572933,"ADDRESS":"果毅後４１號之１","OBJECTID":268476},"geometry":{"x":185571.9000000013,"y":2572933}},{"attributes":{"ID":268482,"DIS_CODE":0,"TOWNNAME":"柳營區","LI":"果毅里","LIN":"3鄰","STREET":" ","SECT":" ","MAREA":"果毅後","LANE":" ","ALLEY":" ","HOUSE_NO":"４１號","E_COORD97":185577.62,"N_COORD97":2572934.54,"ADDRESS":"果毅後４１號","OBJECTID":268477},"geometry":{"x":185577.62000000011,"y":2572934.5399999991}},{"attributes":{"ID":268483,"DIS_CODE":0,"TOWNNAME":"北區","LI":"東興里","LIN":"17鄰","STREET":"小東路","SECT":" ","MAREA":" ","LANE":"２９９巷","ALLEY":" ","HOUSE_NO":"１５號","E_COORD97":171099.31,"N_COORD97":2544470.8199999998,"ADDRESS":"小東路２９９巷１５號","OBJECTID":268478},"geometry":{"x":171099.31000000145,"y":2544470.8200000022}},{"attributes":{"ID":268484,"DIS_CODE":0,"TOWNNAME":"柳營區","LI":"士林里","LIN":"3鄰","STREET":" ","SECT":" ","MAREA":"柳營","LANE":" ","ALLEY":" ","HOUSE_NO":"２５號","E_COORD97":179325.45999999999,"N_COORD97":2575188.3900000001,"ADDRESS":"柳營２５號","OBJECTID":268479},"geometry":{"x":179325.46000000183,"y":2575188.3900000006}},{"attributes":{"ID":268485,"DIS_CODE":0,"TOWNNAME":"柳營區","LI":"中埕里","LIN":"3鄰","STREET":" ","SECT":" ","MAREA":"柳營","LANE":" ","ALLEY":" ","HOUSE_NO":"２９５號之１","E_COORD97":179896.38,"N_COORD97":2575260.3900000001,"ADDRESS":"柳營２９５號之１","OBJECTID":268480},"geometry":{"x":179896.38000000082,"y":2575260.3900000006}},{"attributes":{"ID":268486,"DIS_CODE":0,"TOWNNAME":"柳營區","LI":"中埕里","LIN":"3鄰","STREET":" ","SECT":" ","MAREA":"柳營","LANE":" ","ALLEY":" ","HOUSE_NO":"２９５號","E_COORD97":179903.54000000001,"N_COORD97":2575267.0499999998,"ADDRESS":"柳營２９５號","OBJECTID":268481},"geometry":{"x":179903.54000000097,"y":2575267.0500000045}},{"attributes":{"ID":268487,"DIS_CODE":0,"TOWNNAME":"柳營區","LI":"中埕里","LIN":"3鄰","STREET":" ","SECT":" ","MAREA":"柳營","LANE":" ","ALLEY":" ","HOUSE_NO":"２９８號","E_COORD97":179913,"N_COORD97":2575229.6200000001,"ADDRESS":"柳營２９８號","OBJECTID":268482},"geometry":{"x":179913,"y":2575229.6200000048}},{"attributes":{"ID":268488,"DIS_CODE":0,"TOWNNAME":"柳營區","LI":"士林里","LIN":"3鄰","STREET":" ","SECT":" ","MAREA":"柳營","LANE":" ","ALLEY":" ","HOUSE_NO":"３１號","E_COORD97":179310.29999999999,"N_COORD97":2575172.5099999998,"ADDRESS":"柳營３１號","OBJECTID":268483},"geometry":{"x":179310.30000000075,"y":2575172.5100000016}},{"attributes":{"ID":268489,"DIS_CODE":0,"TOWNNAME":"柳營區","LI":"東昇里","LIN":"3鄰","STREET":" ","SECT":" ","MAREA":"柳營","LANE":" ","ALLEY":" ","HOUSE_NO":"４００號之１","E_COORD97":179870.82000000001,"N_COORD97":2575486.3500000001,"ADDRESS":"柳營４００號之１","OBJECTID":268484},"geometry":{"x":179870.8200000003,"y":2575486.3499999996}},{"attributes":{"ID":268490,"DIS_CODE":0,"TOWNNAME":"柳營區","LI":"東昇里","LIN":"3鄰","STREET":" ","SECT":" ","MAREA":"柳營","LANE":" ","ALLEY":" ","HOUSE_NO":"４００號","E_COORD97":179910.63,"N_COORD97":2575433.9900000002,"ADDRESS":"柳營４００號","OBJECTID":268485},"geometry":{"x":179910.62999999989,"y":2575433.9900000021}},{"attributes":{"ID":268491,"DIS_CODE":0,"TOWNNAME":"柳營區","LI":"東昇里","LIN":"3鄰","STREET":" ","SECT":" ","MAREA":"柳營","LANE":" ","ALLEY":" ","HOUSE_NO":"４０１號之１１","E_COORD97":179918.32000000001,"N_COORD97":2575453.8500000001,"ADDRESS":"柳營４０１號之１１","OBJECTID":268486},"geometry":{"x":179918.31999999937,"y":2575453.8500000034}},{"attributes":{"ID":268492,"DIS_CODE":0,"TOWNNAME":"柳營區","LI":"東昇里","LIN":"3鄰","STREET":" ","SECT":" ","MAREA":"柳營","LANE":" ","ALLEY":" ","HOUSE_NO":"４０１號之１３","E_COORD97":179906.32000000001,"N_COORD97":2575456.7799999998,"ADDRESS":"柳營４０１號之１３","OBJECTID":268487},"geometry":{"x":179906.3200000003,"y":2575456.7799999993}},{"attributes":{"ID":268493,"DIS_CODE":0,"TOWNNAME":"柳營區","LI":"東昇里","LIN":"3鄰","STREET":" ","SECT":" ","MAREA":"柳營","LANE":" ","ALLEY":" ","HOUSE_NO":"４０１號之１５","E_COORD97":179901.51000000001,"N_COORD97":2575455.0099999998,"ADDRESS":"柳營４０１號之１５","OBJECTID":268488},"geometry":{"x":179901.51000000071,"y":2575455.0099999998}},{"attributes":{"ID":268494,"DIS_CODE":0,"TOWNNAME":"柳營區","LI":"人和里","LIN":"3鄰","STREET":"界和路","SECT":" ","MAREA":" ","LANE":" ","ALLEY":" ","HOUSE_NO":"２４７號","E_COORD97":178500.17000000001,"N_COORD97":2575996.6800000002,"ADDRESS":"界和路２４７號","OBJECTID":268489},"geometry":{"x":178500.17000000179,"y":2575996.6799999997}},{"attributes":{"ID":268495,"DIS_CODE":0,"TOWNNAME":"柳營區","LI":"人和里","LIN":"3鄰","STREET":"界和路","SECT":" ","MAREA":" ","LANE":" ","ALLEY":" ","HOUSE_NO":"２５１號","E_COORD97":178507.75,"N_COORD97":2575987.8700000001,"ADDRESS":"界和路２５１號","OBJECTID":268490},"geometry":{"x":178507.75,"y":2575987.8700000029}},{"attributes":{"ID":268496,"DIS_CODE":0,"TOWNNAME":"北區","LI":"東興里","LIN":"17鄰","STREET":"小東路","SECT":" ","MAREA":" ","LANE":"２９９巷","ALLEY":" ","HOUSE_NO":"１５號之２","E_COORD97":171095.42000000001,"N_COORD97":2544473.6400000001,"ADDRESS":"小東路２９９巷１５號之２","OBJECTID":268491},"geometry":{"x":171095.41999999993,"y":2544473.6400000006}},{"attributes":{"ID":268497,"DIS_CODE":0,"TOWNNAME":"歸仁區","LI":"新厝里","LIN":"17鄰","STREET":"中正南路","SECT":"一段","MAREA":" ","LANE":"１５３巷","ALLEY":" ","HOUSE_NO":"７號","E_COORD97":177484.72,"N_COORD97":2540393.3999999999,"ADDRESS":"中正南路一段１５３巷７號","OBJECTID":268492},"geometry":{"x":177484.72000000067,"y":2540393.4000000004}},{"attributes":{"ID":268498,"DIS_CODE":0,"TOWNNAME":"歸仁區","LI":"新厝里","LIN":"17鄰","STREET":"中正南路","SECT":"一段","MAREA":" ","LANE":"１３１巷","ALLEY":" ","HOUSE_NO":"４０號","E_COORD97":177520.76999999999,"N_COORD97":2540365.3999999999,"ADDRESS":"中正南路一段１３１巷４０號","OBJECTID":268493},"geometry":{"x":177520.76999999955,"y":2540365.4000000022}},{"attributes":{"ID":268499,"DIS_CODE":0,"TOWNNAME":"歸仁區","LI":"歸仁里","LIN":"17鄰","STREET":"信義北路","SECT":" ","MAREA":" ","LANE":"９６巷","ALLEY":" ","HOUSE_NO":"２８號","E_COORD97":178061.51999999999,"N_COORD97":2541016.1099999999,"ADDRESS":"信義北路９６巷２８號","OBJECTID":268494},"geometry":{"x":178061.51999999955,"y":2541016.1100000013}},{"attributes":{"ID":268500,"DIS_CODE":0,"TOWNNAME":"歸仁區","LI":"六甲里","LIN":"17鄰","STREET":"六甲路","SECT":" ","MAREA":" ","LANE":"３２１巷","ALLEY":" ","HOUSE_NO":"１５號","E_COORD97":175747.694843,"N_COORD97":2539175.8323599999,"ADDRESS":"六甲路３２１巷１５號","OBJECTID":268495},"geometry":{"x":175747.69484300073,"y":2539175.8323550019}},{"attributes":{"ID":268501,"DIS_CODE":0,"TOWNNAME":"玉井區","LI":"玉井里","LIN":"17鄰","STREET":"民主街","SECT":" ","MAREA":" ","LANE":"３９巷","ALLEY":" ","HOUSE_NO":"１１號","E_COORD97":194848.29000000001,"N_COORD97":2558107.2799999998,"ADDRESS":"民主街３９巷１１號","OBJECTID":268496},"geometry":{"x":194848.29000000097,"y":2558107.2799999993}},{"attributes":{"ID":268502,"DIS_CODE":0,"TOWNNAME":"玉井區","LI":"玉井里","LIN":"17鄰","STREET":"民主街","SECT":" ","MAREA":" ","LANE":"３９巷","ALLEY":" ","HOUSE_NO":"３號","E_COORD97":194848.04000000001,"N_COORD97":2558084.2799999998,"ADDRESS":"民主街３９巷３號","OBJECTID":268497},"geometry":{"x":194848.04000000097,"y":2558084.2799999993}},{"attributes":{"ID":268503,"DIS_CODE":0,"TOWNNAME":"玉井區","LI":"玉井里","LIN":"17鄰","STREET":"民主街","SECT":" ","MAREA":" ","LANE":"３５巷","ALLEY":" ","HOUSE_NO":"３號","E_COORD97":194832.82999999999,"N_COORD97":2558078.2799999998,"ADDRESS":"民主街３５巷３號","OBJECTID":268498},"geometry":{"x":194832.83000000101,"y":2558078.2800000031}},{"attributes":{"ID":268504,"DIS_CODE":0,"TOWNNAME":"玉井區","LI":"玉井里","LIN":"17鄰","STREET":"民主街","SECT":" ","MAREA":" ","LANE":"３９巷","ALLEY":" ","HOUSE_NO":"７號","E_COORD97":194848.14000000001,"N_COORD97":2558093.2799999998,"ADDRESS":"民主街３９巷７號","OBJECTID":268499},"geometry":{"x":194848.13999999966,"y":2558093.2800000012}},{"attributes":{"ID":268505,"DIS_CODE":0,"TOWNNAME":"北區","LI":"文元里","LIN":"17鄰","STREET":"文賢路","SECT":" ","MAREA":" ","LANE":"１０３０巷","ALLEY":" ","HOUSE_NO":"２１號","E_COORD97":167472.89000000001,"N_COORD97":2546081.75,"ADDRESS":"文賢路１０３０巷２１號","OBJECTID":268500},"geometry":{"x":167472.89000000153,"y":2546081.7500000019}},{"attributes":{"ID":268506,"DIS_CODE":0,"TOWNNAME":"柳營區","LI":"大農里","LIN":"3鄰","STREET":"義士路","SECT":"一段","MAREA":" ","LANE":" ","ALLEY":" ","HOUSE_NO":"３７８號","E_COORD97":186159.38,"N_COORD97":2575748.1099999999,"ADDRESS":"義士路一段３７８號","OBJECTID":268501},"geometry":{"x":186159.38000000175,"y":2575748.1100000013}},{"attributes":{"ID":268507,"DIS_CODE":0,"TOWNNAME":"柳營區","LI":"大農里","LIN":"3鄰","STREET":"義士路","SECT":"一段","MAREA":" ","LANE":" ","ALLEY":" ","HOUSE_NO":"３８０號","E_COORD97":186155.51000000001,"N_COORD97":2575744.9199999999,"ADDRESS":"義士路一段３８０號","OBJECTID":268502},"geometry":{"x":186155.51000000071,"y":2575744.9199999981}},{"attributes":{"ID":268508,"DIS_CODE":0,"TOWNNAME":"學甲區","LI":"仁得里","LIN":"17鄰","STREET":"信義路","SECT":" ","MAREA":" ","LANE":"１７巷","ALLEY":" ","HOUSE_NO":"１１號","E_COORD97":165501.62,"N_COORD97":2570028.4900000002,"ADDRESS":"信義路１７巷１１號","OBJECTID":268503},"geometry":{"x":165501.62000000011,"y":2570028.4899999984}},{"attributes":{"ID":268509,"DIS_CODE":0,"TOWNNAME":"學甲區","LI":"仁得里","LIN":"17鄰","STREET":"信義路","SECT":" ","MAREA":" ","LANE":"１７巷","ALLEY":" ","HOUSE_NO":"２號之１","E_COORD97":165560.32000000001,"N_COORD97":2569970.3700000001,"ADDRESS":"信義路１７巷２號之１","OBJECTID":268504},"geometry":{"x":165560.32000000123,"y":2569970.3700000029}},{"attributes":{"ID":268510,"DIS_CODE":0,"TOWNNAME":"學甲區","LI":"仁得里","LIN":"17鄰","STREET":"信義路","SECT":" ","MAREA":" ","LANE":"１７巷","ALLEY":" ","HOUSE_NO":"２號之２","E_COORD97":165479.88,"N_COORD97":2570009.9700000002,"ADDRESS":"信義路１７巷２號之２","OBJECTID":268505},"geometry":{"x":165479.88000000082,"y":2570009.9700000025}},{"attributes":{"ID":268511,"DIS_CODE":0,"TOWNNAME":"學甲區","LI":"仁得里","LIN":"17鄰","STREET":"信義路","SECT":" ","MAREA":" ","LANE":"１７巷","ALLEY":" ","HOUSE_NO":"２號之３","E_COORD97":165625.51000000001,"N_COORD97":2569983.1000000001,"ADDRESS":"信義路１７巷２號之３","OBJECTID":268506},"geometry":{"x":165625.50999999978,"y":2569983.0999999978}},{"attributes":{"ID":268512,"DIS_CODE":0,"TOWNNAME":"柳營區","LI":"大農里","LIN":"3鄰","STREET":"義士路","SECT":"一段","MAREA":" ","LANE":" ","ALLEY":" ","HOUSE_NO":"３８２號","E_COORD97":186152.07000000001,"N_COORD97":2575743.29,"ADDRESS":"義士路一段３８２號","OBJECTID":268507},"geometry":{"x":186152.07000000123,"y":2575743.290000001}},{"attributes":{"ID":268513,"DIS_CODE":0,"TOWNNAME":"學甲區","LI":"仁得里","LIN":"17鄰","STREET":"信義路","SECT":" ","MAREA":" ","LANE":"１７巷","ALLEY":" ","HOUSE_NO":"２號之４","E_COORD97":165587.73000000001,"N_COORD97":2569948.9500000002,"ADDRESS":"信義路１７巷２號之４","OBJECTID":268508},"geometry":{"x":165587.73000000045,"y":2569948.9499999993}},{"attributes":{"ID":268514,"DIS_CODE":0,"TOWNNAME":"學甲區","LI":"仁得里","LIN":"17鄰","STREET":"信義路","SECT":" ","MAREA":" ","LANE":"１７巷","ALLEY":" ","HOUSE_NO":"２號之６","E_COORD97":165681.03,"N_COORD97":2570004.25,"ADDRESS":"信義路１７巷２號之６","OBJECTID":268509},"geometry":{"x":165681.03000000119,"y":2570004.2500000019}},{"attributes":{"ID":268515,"DIS_CODE":0,"TOWNNAME":"歸仁區","LI":"大潭里","LIN":"17鄰","STREET":"大潭二街","SECT":" ","MAREA":" ","LANE":"１２巷","ALLEY":" ","HOUSE_NO":"５號","E_COORD97":175098.76000000001,"N_COORD97":2534714.25,"ADDRESS":"大潭二街１２巷５號","OBJECTID":268510},"geometry":{"x":175098.75999999885,"y":2534714.2500000019}},{"attributes":{"ID":268516,"DIS_CODE":0,"TOWNNAME":"北區","LI":"文元里","LIN":"17鄰","STREET":"文賢路","SECT":" ","MAREA":" ","LANE":"１０３０巷","ALLEY":" ","HOUSE_NO":"３９號","E_COORD97":167525.76000000001,"N_COORD97":2546087.79,"ADDRESS":"文賢路１０３０巷３９號","OBJECTID":268511},"geometry":{"x":167525.75999999978,"y":2546087.7899999991}},{"attributes":{"ID":268517,"DIS_CODE":0,"TOWNNAME":"北區","LI":"和順里","LIN":"17鄰","STREET":"臨安路","SECT":"二段","MAREA":" ","LANE":"２４９巷","ALLEY":" ","HOUSE_NO":"１１號","E_COORD97":168065.38,"N_COORD97":2545012.3700000001,"ADDRESS":"臨安路二段２４９巷１１號","OBJECTID":268512},"geometry":{"x":168065.38000000082,"y":2545012.370000001}},{"attributes":{"ID":268518,"DIS_CODE":0,"TOWNNAME":"柳營區","LI":"大農里","LIN":"3鄰","STREET":"義士路","SECT":"一段","MAREA":" ","LANE":" ","ALLEY":" ","HOUSE_NO":"３９２號","E_COORD97":186137.26999999999,"N_COORD97":2575741.2400000002,"ADDRESS":"義士路一段３９２號","OBJECTID":268513},"geometry":{"x":186137.26999999955,"y":2575741.2400000021}},{"attributes":{"ID":268519,"DIS_CODE":0,"TOWNNAME":"柳營區","LI":"大農里","LIN":"3鄰","STREET":"義士路","SECT":"一段","MAREA":" ","LANE":" ","ALLEY":" ","HOUSE_NO":"４００號","E_COORD97":186129.12,"N_COORD97":2575743.5899999999,"ADDRESS":"義士路一段４００號","OBJECTID":268514},"geometry":{"x":186129.12000000197,"y":2575743.589999998}},{"attributes":{"ID":268520,"DIS_CODE":0,"TOWNNAME":"東區","LI":"小東里","LIN":"14鄰","STREET":"光明街","SECT":" ","MAREA":" ","LANE":" ","ALLEY":" ","HOUSE_NO":"１４７號之１","E_COORD97":170917.10000000001,"N_COORD97":2544250.1600000001,"ADDRESS":"光明街１４７號之１","OBJECTID":268515},"geometry":{"x":170917.09999999963,"y":2544250.1600000001}},{"attributes":{"ID":268521,"DIS_CODE":0,"TOWNNAME":"東區","LI":"小東里","LIN":"14鄰","STREET":"光明街","SECT":" ","MAREA":" ","LANE":" ","ALLEY":" ","HOUSE_NO":"１４７號之１０","E_COORD97":170921.48999999999,"N_COORD97":2544214.0299999998,"ADDRESS":"光明街１４７號之１０","OBJECTID":268516},"geometry":{"x":170921.49000000115,"y":2544214.0300000012}},{"attributes":{"ID":268522,"DIS_CODE":0,"TOWNNAME":"東區","LI":"小東里","LIN":"14鄰","STREET":"光明街","SECT":" ","MAREA":" ","LANE":" ","ALLEY":" ","HOUSE_NO":"１４７號之２","E_COORD97":170917.89000000001,"N_COORD97":2544245.77,"ADDRESS":"光明街１４７號之２","OBJECTID":268517},"geometry":{"x":170917.8900000006,"y":2544245.7700000033}},{"attributes":{"ID":268523,"DIS_CODE":0,"TOWNNAME":"東區","LI":"小東里","LIN":"14鄰","STREET":"光明街","SECT":" ","MAREA":" ","LANE":" ","ALLEY":" ","HOUSE_NO":"１４７號之３","E_COORD97":170918.20000000001,"N_COORD97":2544241.23,"ADDRESS":"光明街１４７號之３","OBJECTID":268518},"geometry":{"x":170918.20000000112,"y":2544241.2300000023}},{"attributes":{"ID":268524,"DIS_CODE":0,"TOWNNAME":"柳營區","LI":"旭山里","LIN":"3鄰","STREET":" ","SECT":" ","MAREA":"新吉庄","LANE":" ","ALLEY":" ","HOUSE_NO":"２１之１號","E_COORD97":187166.42999999999,"N_COORD97":2573789.7599999998,"ADDRESS":"新吉庄２１之１號","OBJECTID":268519},"geometry":{"x":187166.43000000063,"y":2573789.7600000035}},{"attributes":{"ID":268525,"DIS_CODE":0,"TOWNNAME":"柳營區","LI":"旭山里","LIN":"3鄰","STREET":" ","SECT":" ","MAREA":"新吉庄","LANE":" ","ALLEY":" ","HOUSE_NO":"２１之２號","E_COORD97":187155.32000000001,"N_COORD97":2573769.1899999999,"ADDRESS":"新吉庄２１之２號","OBJECTID":268520},"geometry":{"x":187155.32000000216,"y":2573769.1899999995}},{"attributes":{"ID":268526,"DIS_CODE":0,"TOWNNAME":"柳營區","LI":"旭山里","LIN":"3鄰","STREET":" ","SECT":" ","MAREA":"新吉庄","LANE":" ","ALLEY":" ","HOUSE_NO":"２２之１號","E_COORD97":187192.79999999999,"N_COORD97":2573840.04,"ADDRESS":"新吉庄２２之１號","OBJECTID":268521},"geometry":{"x":187192.80000000075,"y":2573840.0399999991}},{"attributes":{"ID":268527,"DIS_CODE":0,"TOWNNAME":"柳營區","LI":"旭山里","LIN":"3鄰","STREET":" ","SECT":" ","MAREA":"新吉庄","LANE":" ","ALLEY":" ","HOUSE_NO":"２２之２號","E_COORD97":187200.88,"N_COORD97":2573853.29,"ADDRESS":"新吉庄２２之２號","OBJECTID":268522},"geometry":{"x":187200.88000000082,"y":2573853.2900000028}},{"attributes":{"ID":268528,"DIS_CODE":0,"TOWNNAME":"柳營區","LI":"人和里","LIN":"3鄰","STREET":" ","SECT":" ","MAREA":"橋南","LANE":" ","ALLEY":" ","HOUSE_NO":"２１之１０號","E_COORD97":178554.64000000001,"N_COORD97":2575726.7999999998,"ADDRESS":"橋南２１之１０號","OBJECTID":268523},"geometry":{"x":178554.6400000006,"y":2575726.8000000026}},{"attributes":{"ID":268529,"DIS_CODE":0,"TOWNNAME":"麻豆區","LI":"港尾里","LIN":"3鄰","STREET":" ","SECT":" ","MAREA":"姓陳寮","LANE":" ","ALLEY":" ","HOUSE_NO":"１２號","E_COORD97":168790.79000000001,"N_COORD97":2566807.46,"ADDRESS":"姓陳寮１２號","OBJECTID":268524},"geometry":{"x":168790.79000000004,"y":2566807.4600000009}},{"attributes":{"ID":268530,"DIS_CODE":0,"TOWNNAME":"北區","LI":"和順里","LIN":"17鄰","STREET":"臨安路","SECT":"二段","MAREA":" ","LANE":"２４９巷","ALLEY":" ","HOUSE_NO":"１３號","E_COORD97":168063.01999999999,"N_COORD97":2545017.6699999999,"ADDRESS":"臨安路二段２４９巷１３號","OBJECTID":268525},"geometry":{"x":168063.01999999955,"y":2545017.6700000018}},{"attributes":{"ID":268531,"DIS_CODE":0,"TOWNNAME":"北區","LI":"和順里","LIN":"17鄰","STREET":"臨安路","SECT":"二段","MAREA":" ","LANE":"２４９巷","ALLEY":" ","HOUSE_NO":"１７號","E_COORD97":168057.70999999999,"N_COORD97":2545029.2599999998,"ADDRESS":"臨安路二段２４９巷１７號","OBJECTID":268526},"geometry":{"x":168057.71000000183,"y":2545029.2600000035}},{"attributes":{"ID":268532,"DIS_CODE":0,"TOWNNAME":"北區","LI":"和順里","LIN":"17鄰","STREET":"臨安路","SECT":"二段","MAREA":" ","LANE":"２４９巷","ALLEY":" ","HOUSE_NO":"１９號","E_COORD97":168056.32999999999,"N_COORD97":2545033.5800000001,"ADDRESS":"臨安路二段２４９巷１９號","OBJECTID":268527},"geometry":{"x":168056.33000000007,"y":2545033.5800000001}},{"attributes":{"ID":268533,"DIS_CODE":0,"TOWNNAME":"北區","LI":"和順里","LIN":"17鄰","STREET":"臨安路","SECT":"二段","MAREA":" ","LANE":"２４９巷","ALLEY":" ","HOUSE_NO":"２１號","E_COORD97":168054.35999999999,"N_COORD97":2545038.1000000001,"ADDRESS":"臨安路二段２４９巷２１號","OBJECTID":268528},"geometry":{"x":168054.36000000127,"y":2545038.1000000015}},{"attributes":{"ID":268534,"DIS_CODE":0,"TOWNNAME":"北區","LI":"和順里","LIN":"17鄰","STREET":"臨安路","SECT":"二段","MAREA":" ","LANE":"２４９巷","ALLEY":" ","HOUSE_NO":"２３號","E_COORD97":168052.98999999999,"N_COORD97":2545042.23,"ADDRESS":"臨安路二段２４９巷２３號","OBJECTID":268529},"geometry":{"x":168052.99000000115,"y":2545042.2300000004}},{"attributes":{"ID":268535,"DIS_CODE":0,"TOWNNAME":"北區","LI":"和順里","LIN":"17鄰","STREET":"臨安路","SECT":"二段","MAREA":" ","LANE":"２４９巷","ALLEY":" ","HOUSE_NO":"２５號","E_COORD97":168051.22,"N_COORD97":2545046.8399999999,"ADDRESS":"臨安路二段２４９巷２５號","OBJECTID":268530},"geometry":{"x":168051.22000000067,"y":2545046.8400000017}},{"attributes":{"ID":268536,"DIS_CODE":0,"TOWNNAME":"北區","LI":"和順里","LIN":"17鄰","STREET":"臨安路","SECT":"二段","MAREA":" ","LANE":"２４９巷","ALLEY":" ","HOUSE_NO":"３１號","E_COORD97":168049.04999999999,"N_COORD97":2545060.2000000002,"ADDRESS":"臨安路二段２４９巷３１號","OBJECTID":268531},"geometry":{"x":168049.05000000075,"y":2545060.2000000011}},{"attributes":{"ID":268537,"DIS_CODE":0,"TOWNNAME":"北區","LI":"和順里","LIN":"17鄰","STREET":"臨安路","SECT":"二段","MAREA":" ","LANE":"２４９巷","ALLEY":" ","HOUSE_NO":"７號","E_COORD97":168067.73999999999,"N_COORD97":2545003.4300000002,"ADDRESS":"臨安路二段２４９巷７號","OBJECTID":268532},"geometry":{"x":168067.73999999929,"y":2545003.4299999997}},{"attributes":{"ID":268538,"DIS_CODE":0,"TOWNNAME":"北區","LI":"和順里","LIN":"17鄰","STREET":"臨安路","SECT":"二段","MAREA":" ","LANE":"２４９巷","ALLEY":" ","HOUSE_NO":"９號","E_COORD97":168066.35999999999,"N_COORD97":2545007.6600000001,"ADDRESS":"臨安路二段２４９巷９號","OBJECTID":268533},"geometry":{"x":168066.36000000034,"y":2545007.660000002}},{"attributes":{"ID":268539,"DIS_CODE":0,"TOWNNAME":"歸仁區","LI":"大廟里","LIN":"17鄰","STREET":"保吉路","SECT":" ","MAREA":" ","LANE":"７３巷","ALLEY":" ","HOUSE_NO":"３１號","E_COORD97":175789.26999999999,"N_COORD97":2545132.25,"ADDRESS":"保吉路７３巷３１號","OBJECTID":268534},"geometry":{"x":175789.27000000048,"y":2545132.2500000019}},{"attributes":{"ID":268540,"DIS_CODE":0,"TOWNNAME":"歸仁區","LI":"大廟里","LIN":"17鄰","STREET":"大廟五街","SECT":" ","MAREA":" ","LANE":"１３１巷","ALLEY":" ","HOUSE_NO":"１２之２號","E_COORD97":176030.60000000001,"N_COORD97":2544490.1299999999,"ADDRESS":"大廟五街１３１巷１２之２號","OBJECTID":268535},"geometry":{"x":176030.60000000056,"y":2544490.1300000027}},{"attributes":{"ID":268541,"DIS_CODE":0,"TOWNNAME":"歸仁區","LI":"大廟里","LIN":"17鄰","STREET":"大廟五街","SECT":" ","MAREA":" ","LANE":"７３巷","ALLEY":" ","HOUSE_NO":"３０號","E_COORD97":175939.32999999999,"N_COORD97":2544364.0899999999,"ADDRESS":"大廟五街７３巷３０號","OBJECTID":268536},"geometry":{"x":175939.33000000007,"y":2544364.0900000017}},{"attributes":{"ID":268542,"DIS_CODE":0,"TOWNNAME":"歸仁區","LI":"八甲里","LIN":"17鄰","STREET":"大仁六街","SECT":" ","MAREA":" ","LANE":"２０巷","ALLEY":" ","HOUSE_NO":"１２號","E_COORD97":178045.54000000001,"N_COORD97":2541539.25,"ADDRESS":"大仁六街２０巷１２號","OBJECTID":268537},"geometry":{"x":178045.54000000097,"y":2541539.25}},{"attributes":{"ID":268543,"DIS_CODE":0,"TOWNNAME":"歸仁區","LI":"大廟里","LIN":"17鄰","STREET":"大廟五街","SECT":" ","MAREA":" ","LANE":"１３１巷","ALLEY":" ","HOUSE_NO":"８３號","E_COORD97":175787.17000000001,"N_COORD97":2544612.25,"ADDRESS":"大廟五街１３１巷８３號","OBJECTID":268538},"geometry":{"x":175787.16999999993,"y":2544612.2499999981}},{"attributes":{"ID":268544,"DIS_CODE":0,"TOWNNAME":"歸仁區","LI":"大廟里","LIN":"17鄰","STREET":"大廟五街","SECT":" ","MAREA":" ","LANE":"２１１巷","ALLEY":" ","HOUSE_NO":"１１號","E_COORD97":176345.87,"N_COORD97":2545030.25,"ADDRESS":"大廟五街２１１巷１１號","OBJECTID":268539},"geometry":{"x":176345.87000000011,"y":2545030.2500000019}},{"attributes":{"ID":268545,"DIS_CODE":0,"TOWNNAME":"歸仁區","LI":"大廟里","LIN":"17鄰","STREET":"大廟五街","SECT":" ","MAREA":" ","LANE":"７３巷","ALLEY":" ","HOUSE_NO":"１８號","E_COORD97":175972.03,"N_COORD97":2544351.0899999999,"ADDRESS":"大廟五街７３巷１８號","OBJECTID":268540},"geometry":{"x":175972.03000000026,"y":2544351.0899999999}},{"attributes":{"ID":268546,"DIS_CODE":0,"TOWNNAME":"歸仁區","LI":"大廟里","LIN":"17鄰","STREET":"大廟五街","SECT":" ","MAREA":" ","LANE":"７３巷","ALLEY":" ","HOUSE_NO":"１２號","E_COORD97":175987.42999999999,"N_COORD97":2544346.0899999999,"ADDRESS":"大廟五街７３巷１２號","OBJECTID":268541},"geometry":{"x":175987.4299999997,"y":2544346.0900000017}},{"attributes":{"ID":268547,"DIS_CODE":0,"TOWNNAME":"歸仁區","LI":"大廟里","LIN":"17鄰","STREET":"保吉路","SECT":" ","MAREA":" ","LANE":"１７５巷","ALLEY":" ","HOUSE_NO":"３６號","E_COORD97":176067.72,"N_COORD97":2545203.25,"ADDRESS":"保吉路１７５巷３６號","OBJECTID":268542},"geometry":{"x":176067.72000000067,"y":2545203.2500000019}},{"attributes":{"ID":268548,"DIS_CODE":0,"TOWNNAME":"歸仁區","LI":"大廟里","LIN":"17鄰","STREET":"大廟五街","SECT":" ","MAREA":" ","LANE":"１３１巷","ALLEY":" ","HOUSE_NO":"５６號","E_COORD97":175975.57000000001,"N_COORD97":2544567.25,"ADDRESS":"大廟五街１３１巷５６號","OBJECTID":268543},"geometry":{"x":175975.57000000123,"y":2544567.25}},{"attributes":{"ID":268549,"DIS_CODE":0,"TOWNNAME":"歸仁區","LI":"大廟里","LIN":"17鄰","STREET":"大廟五街","SECT":" ","MAREA":" ","LANE":"１８９巷","ALLEY":" ","HOUSE_NO":"３６號","E_COORD97":176315.37,"N_COORD97":2544864.25,"ADDRESS":"大廟五街１８９巷３６號","OBJECTID":268544},"geometry":{"x":176315.37000000011,"y":2544864.2500000019}},{"attributes":{"ID":268550,"DIS_CODE":0,"TOWNNAME":"南區","LI":"鯤鯓里","LIN":"17鄰","STREET":"鯤鯓路","SECT":" ","MAREA":" ","LANE":"１９４巷","ALLEY":" ","HOUSE_NO":"１號","E_COORD97":164874.26999999999,"N_COORD97":2540293.29,"ADDRESS":"鯤鯓路１９４巷１號","OBJECTID":268545},"geometry":{"x":164874.26999999955,"y":2540293.290000001}},{"attributes":{"ID":268551,"DIS_CODE":0,"TOWNNAME":"南區","LI":"大忠里","LIN":"17鄰","STREET":"大同路","SECT":"二段","MAREA":" ","LANE":"６２０巷","ALLEY":" ","HOUSE_NO":"１０號","E_COORD97":169485.60000000001,"N_COORD97":2541100.9700000002,"ADDRESS":"大同路二段６２０巷１０號","OBJECTID":268546},"geometry":{"x":169485.60000000056,"y":2541100.9700000007}},{"attributes":{"ID":268552,"DIS_CODE":0,"TOWNNAME":"南區","LI":"大忠里","LIN":"17鄰","STREET":"大同路","SECT":"二段","MAREA":" ","LANE":"６２０巷","ALLEY":" ","HOUSE_NO":"１１號","E_COORD97":169497.20000000001,"N_COORD97":2541070.1099999999,"ADDRESS":"大同路二段６２０巷１１號","OBJECTID":268547},"geometry":{"x":169497.20000000205,"y":2541070.1100000031}},{"attributes":{"ID":268553,"DIS_CODE":0,"TOWNNAME":"歸仁區","LI":"大潭里","LIN":"14鄰","STREET":"大潭二街","SECT":" ","MAREA":" ","LANE":"３０巷","ALLEY":" ","HOUSE_NO":"１９號","E_COORD97":174988.01000000001,"N_COORD97":2534682.25,"ADDRESS":"大潭二街３０巷１９號","OBJECTID":268548},"geometry":{"x":174988.00999999978,"y":2534682.2500000037}},{"attributes":{"ID":268554,"DIS_CODE":0,"TOWNNAME":"南區","LI":"大忠里","LIN":"17鄰","STREET":"大同路","SECT":"二段","MAREA":" ","LANE":"６２０巷","ALLEY":" ","HOUSE_NO":"１３號","E_COORD97":169490.5,"N_COORD97":2541068.9199999999,"ADDRESS":"大同路二段６２０巷１３號","OBJECTID":268549},"geometry":{"x":169490.50000000093,"y":2541068.9200000018}},{"attributes":{"ID":268555,"DIS_CODE":0,"TOWNNAME":"南區","LI":"大忠里","LIN":"17鄰","STREET":"大同路","SECT":"二段","MAREA":" ","LANE":"６２０巷","ALLEY":" ","HOUSE_NO":"２９號","E_COORD97":169445.82000000001,"N_COORD97":2541067.9700000002,"ADDRESS":"大同路二段６２０巷２９號","OBJECTID":268550},"geometry":{"x":169445.82000000123,"y":2541067.9700000007}},{"attributes":{"ID":268556,"DIS_CODE":0,"TOWNNAME":"歸仁區","LI":"大廟里","LIN":"3鄰","STREET":"大廟三街","SECT":" ","MAREA":" ","LANE":" ","ALLEY":" ","HOUSE_NO":"１號","E_COORD97":176098.12,"N_COORD97":2544074.25,"ADDRESS":"大廟三街１號","OBJECTID":268551},"geometry":{"x":176098.12000000011,"y":2544074.2500000019}},{"attributes":{"ID":268557,"DIS_CODE":0,"TOWNNAME":"歸仁區","LI":"大廟里","LIN":"3鄰","STREET":"大廟三街","SECT":" ","MAREA":" ","LANE":" ","ALLEY":" ","HOUSE_NO":"１２３號","E_COORD97":176274.62,"N_COORD97":2543795.25,"ADDRESS":"大廟三街１２３號","OBJECTID":268552},"geometry":{"x":176274.62000000011,"y":2543795.2499999981}},{"attributes":{"ID":268558,"DIS_CODE":0,"TOWNNAME":"南區","LI":"大忠里","LIN":"17鄰","STREET":"大同路","SECT":"二段","MAREA":" ","LANE":"６２０巷","ALLEY":" ","HOUSE_NO":"３１號","E_COORD97":169445.34,"N_COORD97":2541059.6299999999,"ADDRESS":"大同路二段６２０巷３１號","OBJECTID":268553},"geometry":{"x":169445.34000000078,"y":2541059.6300000008}},{"attributes":{"ID":268559,"DIS_CODE":0,"TOWNNAME":"歸仁區","LI":"大潭里","LIN":"3鄰","STREET":"大潭一街","SECT":" ","MAREA":" ","LANE":" ","ALLEY":" ","HOUSE_NO":"５７號","E_COORD97":175280.57000000001,"N_COORD97":2534636.25,"ADDRESS":"大潭一街５７號","OBJECTID":268554},"geometry":{"x":175280.57000000123,"y":2534636.2500000019}},{"attributes":{"ID":268560,"DIS_CODE":0,"TOWNNAME":"歸仁區","LI":"大廟里","LIN":"3鄰","STREET":"大廟二街","SECT":" ","MAREA":" ","LANE":" ","ALLEY":" ","HOUSE_NO":"８５號","E_COORD97":176032.97,"N_COORD97":2543918.25,"ADDRESS":"大廟二街８５號","OBJECTID":268555},"geometry":{"x":176032.96999999974,"y":2543918.2500000019}},{"attributes":{"ID":268561,"DIS_CODE":0,"TOWNNAME":"歸仁區","LI":"文化里","LIN":"3鄰","STREET":"文化街","SECT":"二段","MAREA":" ","LANE":" ","ALLEY":" ","HOUSE_NO":"８８號","E_COORD97":177311.60999999999,"N_COORD97":2541162.3399999999,"ADDRESS":"文化街二段８８號","OBJECTID":268556},"geometry":{"x":177311.61000000127,"y":2541162.3399999999}},{"attributes":{"ID":268562,"DIS_CODE":0,"TOWNNAME":"東山區","LI":"科里里","LIN":"3鄰","STREET":" ","SECT":" ","MAREA":"下庄子","LANE":" ","ALLEY":" ","HOUSE_NO":"２６號","E_COORD97":189576.42000000001,"N_COORD97":2578368.2200000002,"ADDRESS":"下庄子２６號","OBJECTID":268557},"geometry":{"x":189576.41999999899,"y":2578368.2200000044}},{"attributes":{"ID":268563,"DIS_CODE":0,"TOWNNAME":"東山區","LI":"南勢里","LIN":"3鄰","STREET":" ","SECT":" ","MAREA":"大洋","LANE":" ","ALLEY":" ","HOUSE_NO":"２８號","E_COORD97":195405.34,"N_COORD97":2574133.3900000001,"ADDRESS":"大洋２８號","OBJECTID":268558},"geometry":{"x":195405.34000000078,"y":2574133.3900000025}},{"attributes":{"ID":268564,"DIS_CODE":0,"TOWNNAME":"歸仁區","LI":"沙崙里","LIN":"3鄰","STREET":" ","SECT":" ","MAREA":"二甲","LANE":" ","ALLEY":" ","HOUSE_NO":"１７９號","E_COORD97":178704.09,"N_COORD97":2538998.96,"ADDRESS":"二甲１７９號","OBJECTID":268559},"geometry":{"x":178704.09000000171,"y":2538998.9600000028}},{"attributes":{"ID":268565,"DIS_CODE":0,"TOWNNAME":"南區","LI":"大忠里","LIN":"17鄰","STREET":"大同路","SECT":"二段","MAREA":" ","LANE":"６２０巷","ALLEY":" ","HOUSE_NO":"６號","E_COORD97":169503.85000000001,"N_COORD97":2541102.8900000001,"ADDRESS":"大同路二段６２０巷６號","OBJECTID":268560},"geometry":{"x":169503.8499999987,"y":2541102.8899999987}},{"attributes":{"ID":268566,"DIS_CODE":0,"TOWNNAME":"南區","LI":"大林里","LIN":"17鄰","STREET":"大同路","SECT":"二段","MAREA":" ","LANE":"４０６巷","ALLEY":" ","HOUSE_NO":"１４號","E_COORD97":169374.14000000001,"N_COORD97":2541696.71,"ADDRESS":"大同路二段４０６巷１４號","OBJECTID":268561},"geometry":{"x":169374.13999999966,"y":2541696.7100000009}},{"attributes":{"ID":268567,"DIS_CODE":0,"TOWNNAME":"楠西區","LI":"東勢里","LIN":"17鄰","STREET":"信義路","SECT":" ","MAREA":" ","LANE":"５７巷","ALLEY":" ","HOUSE_NO":"３０號","E_COORD97":197558.07000000001,"N_COORD97":2563534.27,"ADDRESS":"信義路５７巷３０號","OBJECTID":268562},"geometry":{"x":197558.0700000003,"y":2563534.2700000014}},{"attributes":{"ID":268568,"DIS_CODE":0,"TOWNNAME":"南區","LI":"大恩里","LIN":"17鄰","STREET":"國民路","SECT":" ","MAREA":" ","LANE":"１６５巷","ALLEY":" ","HOUSE_NO":"１７號","E_COORD97":169182.73999999999,"N_COORD97":2540823.7000000002,"ADDRESS":"國民路１６５巷１７號","OBJECTID":268563},"geometry":{"x":169182.74000000022,"y":2540823.6999999993}},{"attributes":{"ID":268569,"DIS_CODE":0,"TOWNNAME":"麻豆區","LI":"港尾里","LIN":"3鄰","STREET":" ","SECT":" ","MAREA":"姓陳寮","LANE":" ","ALLEY":" ","HOUSE_NO":"１１號","E_COORD97":168793.67000000001,"N_COORD97":2566831.48,"ADDRESS":"姓陳寮１１號","OBJECTID":268564},"geometry":{"x":168793.67000000086,"y":2566831.4800000004}},{"attributes":{"ID":268570,"DIS_CODE":0,"TOWNNAME":"南區","LI":"大恩里","LIN":"17鄰","STREET":"國民路","SECT":" ","MAREA":" ","LANE":"１６５巷","ALLEY":" ","HOUSE_NO":"１９號","E_COORD97":169181.23999999999,"N_COORD97":2540819.6299999999,"ADDRESS":"國民路１６５巷１９號","OBJECTID":268565},"geometry":{"x":169181.24000000022,"y":2540819.6300000008}},{"attributes":{"ID":268571,"DIS_CODE":0,"TOWNNAME":"新營區","LI":"興業里","LIN":"17鄰","STREET":"中興路","SECT":" ","MAREA":" ","LANE":"１５巷","ALLEY":" ","HOUSE_NO":"２６號","E_COORD97":180268.89000000001,"N_COORD97":2577915.8399999999,"ADDRESS":"中興路１５巷２６號","OBJECTID":268566},"geometry":{"x":180268.8900000006,"y":2577915.8400000017}},{"attributes":{"ID":268572,"DIS_CODE":0,"TOWNNAME":"新營區","LI":"永生里","LIN":"17鄰","STREET":"中山路","SECT":" ","MAREA":" ","LANE":"２４５巷","ALLEY":" ","HOUSE_NO":"１５號","E_COORD97":179860.54999999999,"N_COORD97":2577886.75,"ADDRESS":"中山路２４５巷１５號","OBJECTID":268567},"geometry":{"x":179860.55000000075,"y":2577886.7500000019}},{"attributes":{"ID":268573,"DIS_CODE":0,"TOWNNAME":"新營區","LI":"興業里","LIN":"17鄰","STREET":"中興路","SECT":" ","MAREA":" ","LANE":"１５巷","ALLEY":" ","HOUSE_NO":"２２號","E_COORD97":180248.45000000001,"N_COORD97":2577917.04,"ADDRESS":"中興路１５巷２２號","OBJECTID":268568},"geometry":{"x":180248.45000000112,"y":2577917.040000001}},{"attributes":{"ID":268574,"DIS_CODE":0,"TOWNNAME":"新營區","LI":"南紙里","LIN":"17鄰","STREET":"南紙街","SECT":" ","MAREA":" ","LANE":"１６２巷","ALLEY":" ","HOUSE_NO":"４７號","E_COORD97":177849.79000000001,"N_COORD97":2577295.0699999998,"ADDRESS":"南紙街１６２巷４７號","OBJECTID":268569},"geometry":{"x":177849.79000000004,"y":2577295.0700000022}},{"attributes":{"ID":268575,"DIS_CODE":0,"TOWNNAME":"歸仁區","LI":"大潭里","LIN":"3鄰","STREET":"長榮路","SECT":"一段","MAREA":" ","LANE":" ","ALLEY":" ","HOUSE_NO":"７１３號","E_COORD97":176236.57000000001,"N_COORD97":2534512.2799999998,"ADDRESS":"長榮路一段７１３號","OBJECTID":268570},"geometry":{"x":176236.57000000216,"y":2534512.2800000012}},{"attributes":{"ID":268576,"DIS_CODE":0,"TOWNNAME":"歸仁區","LI":"六甲里","LIN":"3鄰","STREET":"中正南路","SECT":"一段","MAREA":" ","LANE":" ","ALLEY":" ","HOUSE_NO":"６４１號","E_COORD97":176640.46053000001,"N_COORD97":2539845.2051599999,"ADDRESS":"中正南路一段６４１號","OBJECTID":268571},"geometry":{"x":176640.46052999981,"y":2539845.2051579989}},{"attributes":{"ID":268577,"DIS_CODE":0,"TOWNNAME":"歸仁區","LI":"西埔里","LIN":"3鄰","STREET":"保大路","SECT":"二段","MAREA":" ","LANE":" ","ALLEY":" ","HOUSE_NO":"１４１號","E_COORD97":176941.76999999999,"N_COORD97":2544126.2799999998,"ADDRESS":"保大路二段１４１號","OBJECTID":268572},"geometry":{"x":176941.77000000048,"y":2544126.2799999993}},{"attributes":{"ID":268578,"DIS_CODE":0,"TOWNNAME":"歸仁區","LI":"大廟里","LIN":"3鄰","STREET":"大廟三街","SECT":" ","MAREA":" ","LANE":" ","ALLEY":" ","HOUSE_NO":"１３４號","E_COORD97":176235.62,"N_COORD97":2543796.25,"ADDRESS":"大廟三街１３４號","OBJECTID":268573},"geometry":{"x":176235.62000000011,"y":2543796.2500000019}},{"attributes":{"ID":268579,"DIS_CODE":0,"TOWNNAME":"歸仁區","LI":"六甲里","LIN":"3鄰","STREET":"中正南路","SECT":"一段","MAREA":" ","LANE":" ","ALLEY":" ","HOUSE_NO":"６５３號","E_COORD97":176620.75685999999,"N_COORD97":2539831.2880799999,"ADDRESS":"中正南路一段６５３號","OBJECTID":268574},"geometry":{"x":176620.75686000101,"y":2539831.2880819999}},{"attributes":{"ID":268580,"DIS_CODE":0,"TOWNNAME":"歸仁區","LI":"大廟里","LIN":"8鄰","STREET":"大廟一街","SECT":" ","MAREA":" ","LANE":"８３巷","ALLEY":" ","HOUSE_NO":"１３號","E_COORD97":175862.62,"N_COORD97":2543944.25,"ADDRESS":"大廟一街８３巷１３號","OBJECTID":268575},"geometry":{"x":175862.62000000011,"y":2543944.25}},{"attributes":{"ID":268581,"DIS_CODE":0,"TOWNNAME":"歸仁區","LI":"大潭里","LIN":"15鄰","STREET":"大潭二街","SECT":" ","MAREA":" ","LANE":"３０巷","ALLEY":" ","HOUSE_NO":"３５號","E_COORD97":174959.81,"N_COORD97":2534772.25,"ADDRESS":"大潭二街３０巷３５號","OBJECTID":268576},"geometry":{"x":174959.81000000052,"y":2534772.25}},{"attributes":{"ID":268582,"DIS_CODE":0,"TOWNNAME":"新營區","LI":"南興里","LIN":"17鄰","STREET":"興農街","SECT":" ","MAREA":" ","LANE":"１４０巷","ALLEY":" ","HOUSE_NO":"１７之３號","E_COORD97":179183.14000000001,"N_COORD97":2577525.6899999999,"ADDRESS":"興農街１４０巷１７之３號","OBJECTID":268577},"geometry":{"x":179183.13999999873,"y":2577525.6899999995}},{"attributes":{"ID":268583,"DIS_CODE":0,"TOWNNAME":"新營區","LI":"南紙里","LIN":"17鄰","STREET":"南紙街","SECT":" ","MAREA":" ","LANE":"１６２巷","ALLEY":" ","HOUSE_NO":"３５號","E_COORD97":177823.17999999999,"N_COORD97":2577290.77,"ADDRESS":"南紙街１６２巷３５號","OBJECTID":268578},"geometry":{"x":177823.1799999997,"y":2577290.7699999996}},{"attributes":{"ID":268584,"DIS_CODE":0,"TOWNNAME":"新營區","LI":"延平里","LIN":"17鄰","STREET":"長春街","SECT":" ","MAREA":" ","LANE":"１３４巷","ALLEY":" ","HOUSE_NO":"３０號","E_COORD97":179506.70999999999,"N_COORD97":2577886.2200000002,"ADDRESS":"長春街１３４巷３０號","OBJECTID":268579},"geometry":{"x":179506.70999999996,"y":2577886.2200000007}},{"attributes":{"ID":268585,"DIS_CODE":0,"TOWNNAME":"仁德區","LI":"中生里","LIN":"5鄰","STREET":" ","SECT":" ","MAREA":"中洲","LANE":" ","ALLEY":" ","HOUSE_NO":"１３２號之１","E_COORD97":172754.661314,"N_COORD97":2534195.54629,"ADDRESS":"中洲１３２號之１","OBJECTID":268580},"geometry":{"x":172754.66131400038,"y":2534195.546291003}},{"attributes":{"ID":268586,"DIS_CODE":0,"TOWNNAME":"新營區","LI":"忠政里","LIN":"17鄰","STREET":"府西路","SECT":" ","MAREA":" ","LANE":"２６０巷","ALLEY":" ","HOUSE_NO":"１４號","E_COORD97":179833.67000000001,"N_COORD97":2579768.4500000002,"ADDRESS":"府西路２６０巷１４號","OBJECTID":268581},"geometry":{"x":179833.66999999993,"y":2579768.450000003}},{"attributes":{"ID":268587,"DIS_CODE":0,"TOWNNAME":"歸仁區","LI":"沙崙里","LIN":"3鄰","STREET":" ","SECT":" ","MAREA":"二甲","LANE":" ","ALLEY":" ","HOUSE_NO":"１７３號","E_COORD97":178665.39000000001,"N_COORD97":2539066.96,"ADDRESS":"二甲１７３號","OBJECTID":268582},"geometry":{"x":178665.38999999966,"y":2539066.9600000028}},{"attributes":{"ID":268588,"DIS_CODE":0,"TOWNNAME":"歸仁區","LI":"沙崙里","LIN":"3鄰","STREET":" ","SECT":" ","MAREA":"二甲","LANE":" ","ALLEY":" ","HOUSE_NO":"１７８號","E_COORD97":178634.09,"N_COORD97":2538733.96,"ADDRESS":"二甲１７８號","OBJECTID":268583},"geometry":{"x":178634.08999999985,"y":2538733.9600000028}},{"attributes":{"ID":268589,"DIS_CODE":0,"TOWNNAME":"新營區","LI":"忠政里","LIN":"17鄰","STREET":"府西路","SECT":" ","MAREA":" ","LANE":"２５８巷","ALLEY":" ","HOUSE_NO":"３３號","E_COORD97":179877.60999999999,"N_COORD97":2579742.7599999998,"ADDRESS":"府西路２５８巷３３號","OBJECTID":268584},"geometry":{"x":179877.6100000022,"y":2579742.7599999998}},{"attributes":{"ID":268590,"DIS_CODE":0,"TOWNNAME":"新營區","LI":"新東里","LIN":"17鄰","STREET":"東興四街","SECT":" ","MAREA":" ","LANE":"３２巷","ALLEY":" ","HOUSE_NO":"７號","E_COORD97":180902.44,"N_COORD97":2579148.7799999998,"ADDRESS":"東興四街３２巷７號","OBJECTID":268585},"geometry":{"x":180902.44000000041,"y":2579148.7799999993}},{"attributes":{"ID":268591,"DIS_CODE":0,"TOWNNAME":"安平區","LI":"華平里","LIN":"17鄰","STREET":"永華八街","SECT":" ","MAREA":" ","LANE":"１９３巷","ALLEY":" ","HOUSE_NO":"２８號","E_COORD97":165082.57000000001,"N_COORD97":2543769.6400000001,"ADDRESS":"永華八街１９３巷２８號","OBJECTID":268586},"geometry":{"x":165082.57000000123,"y":2543769.6400000043}},{"attributes":{"ID":268592,"DIS_CODE":0,"TOWNNAME":"歸仁區","LI":"西埔里","LIN":"3鄰","STREET":"保大路","SECT":"二段","MAREA":" ","LANE":" ","ALLEY":" ","HOUSE_NO":"１２３號","E_COORD97":176981.76999999999,"N_COORD97":2544126.2799999998,"ADDRESS":"保大路二段１２３號","OBJECTID":268587},"geometry":{"x":176981.76999999955,"y":2544126.2799999993}},{"attributes":{"ID":268593,"DIS_CODE":0,"TOWNNAME":"歸仁區","LI":"大潭里","LIN":"3鄰","STREET":"大潭一街","SECT":" ","MAREA":" ","LANE":" ","ALLEY":" ","HOUSE_NO":"５９號","E_COORD97":175281.57000000001,"N_COORD97":2534631.25,"ADDRESS":"大潭一街５９號","OBJECTID":268588},"geometry":{"x":175281.5700000003,"y":2534631.2500000037}},{"attributes":{"ID":268594,"DIS_CODE":0,"TOWNNAME":"歸仁區","LI":"六甲里","LIN":"3鄰","STREET":"中正南路","SECT":"一段","MAREA":" ","LANE":" ","ALLEY":" ","HOUSE_NO":"６４７號","E_COORD97":176630.39682699999,"N_COORD97":2539838.37891,"ADDRESS":"中正南路一段６４７號","OBJECTID":268589},"geometry":{"x":176630.39682700019,"y":2539838.3789109997}},{"attributes":{"ID":268595,"DIS_CODE":0,"TOWNNAME":"安平區","LI":"華平里","LIN":"17鄰","STREET":"建平八街","SECT":" ","MAREA":" ","LANE":"４５０巷","ALLEY":" ","HOUSE_NO":"６１號","E_COORD97":165099.57000000001,"N_COORD97":2543733.4700000002,"ADDRESS":"建平八街４５０巷６１號","OBJECTID":268590},"geometry":{"x":165099.57000000123,"y":2543733.4700000044}},{"attributes":{"ID":268596,"DIS_CODE":0,"TOWNNAME":"北區","LI":"文元里","LIN":"17鄰","STREET":"文賢路","SECT":" ","MAREA":" ","LANE":"１０３０巷","ALLEY":" ","HOUSE_NO":"２９號","E_COORD97":167497.28,"N_COORD97":2546088.8599999999,"ADDRESS":"文賢路１０３０巷２９號","OBJECTID":268591},"geometry":{"x":167497.28000000026,"y":2546088.8599999994}},{"attributes":{"ID":268597,"DIS_CODE":0,"TOWNNAME":"歸仁區","LI":"文化里","LIN":"3鄰","STREET":"文化街","SECT":"二段","MAREA":" ","LANE":" ","ALLEY":" ","HOUSE_NO":"１２２號","E_COORD97":177241.26000000001,"N_COORD97":2541189.3399999999,"ADDRESS":"文化街二段１２２號","OBJECTID":268592},"geometry":{"x":177241.25999999978,"y":2541189.3399999999}},{"attributes":{"ID":268598,"DIS_CODE":0,"TOWNNAME":"北區","LI":"仁愛里","LIN":"17鄰","STREET":"東豐路","SECT":" ","MAREA":" ","LANE":"３０５巷","ALLEY":" ","HOUSE_NO":"１７號","E_COORD97":170414.54000000001,"N_COORD97":2544850.77,"ADDRESS":"東豐路３０５巷１７號","OBJECTID":268593},"geometry":{"x":170414.54000000004,"y":2544850.7700000014}},{"attributes":{"ID":268599,"DIS_CODE":0,"TOWNNAME":"北區","LI":"仁愛里","LIN":"17鄰","STREET":"東豐路","SECT":" ","MAREA":" ","LANE":"２７３巷","ALLEY":" ","HOUSE_NO":"１０號","E_COORD97":170343.54999999999,"N_COORD97":2544889.1400000001,"ADDRESS":"東豐路２７３巷１０號","OBJECTID":268594},"geometry":{"x":170343.54999999888,"y":2544889.1400000025}},{"attributes":{"ID":268600,"DIS_CODE":0,"TOWNNAME":"北區","LI":"仁愛里","LIN":"17鄰","STREET":"東豐路","SECT":" ","MAREA":" ","LANE":"２７３巷","ALLEY":" ","HOUSE_NO":"１１號","E_COORD97":170330.39999999999,"N_COORD97":2544871.8500000001,"ADDRESS":"東豐路２７３巷１１號","OBJECTID":268595},"geometry":{"x":170330.4000000013,"y":2544871.8499999996}},{"attributes":{"ID":268601,"DIS_CODE":0,"TOWNNAME":"歸仁區","LI":"沙崙里","LIN":"3鄰","STREET":" ","SECT":" ","MAREA":"二甲","LANE":" ","ALLEY":" ","HOUSE_NO":"１０２號","E_COORD97":178423.42999999999,"N_COORD97":2539226.8900000001,"ADDRESS":"二甲１０２號","OBJECTID":268596},"geometry":{"x":178423.4299999997,"y":2539226.8900000006}},{"attributes":{"ID":268602,"DIS_CODE":0,"TOWNNAME":"麻豆區","LI":"港尾里","LIN":"3鄰","STREET":" ","SECT":" ","MAREA":"姓陳寮","LANE":" ","ALLEY":" ","HOUSE_NO":"１０號","E_COORD97":168813.98000000001,"N_COORD97":2566809.0499999998,"ADDRESS":"姓陳寮１０號","OBJECTID":268597},"geometry":{"x":168813.98000000231,"y":2566809.0500000026}},{"attributes":{"ID":268603,"DIS_CODE":0,"TOWNNAME":"北區","LI":"仁愛里","LIN":"17鄰","STREET":"東豐路","SECT":" ","MAREA":" ","LANE":"３０５巷","ALLEY":" ","HOUSE_NO":"２１號","E_COORD97":170415.48999999999,"N_COORD97":2544857.79,"ADDRESS":"東豐路３０５巷２１號","OBJECTID":268598},"geometry":{"x":170415.49000000022,"y":2544857.7899999991}},{"attributes":{"ID":268604,"DIS_CODE":0,"TOWNNAME":"北區","LI":"仁愛里","LIN":"17鄰","STREET":"東豐路","SECT":" ","MAREA":" ","LANE":"３０５巷","ALLEY":" ","HOUSE_NO":"２３號","E_COORD97":170417.10999999999,"N_COORD97":2544861.98,"ADDRESS":"東豐路３０５巷２３號","OBJECTID":268599},"geometry":{"x":170417.11000000127,"y":2544861.9800000004}},{"attributes":{"ID":268605,"DIS_CODE":0,"TOWNNAME":"北區","LI":"文元里","LIN":"17鄰","STREET":"文成路","SECT":" ","MAREA":" ","LANE":"７５０巷","ALLEY":" ","HOUSE_NO":"１５１號","E_COORD97":167605.85000000001,"N_COORD97":2546119.6899999999,"ADDRESS":"文成路７５０巷１５１號","OBJECTID":268600},"geometry":{"x":167605.85000000056,"y":2546119.6899999995}}]}