{"displayFieldName":"TOWNNAME","fieldAliases":{"ID":"ID","DIS_CODE":"DIS_CODE","TOWNNAME":"TOWNNAME","LI":"LI","LIN":"LIN","STREET":"STREET","SECT":"SECT","MAREA":"MAREA","LANE":"LANE","ALLEY":"ALLEY","HOUSE_NO":"HOUSE_NO","E_COORD97":"E_COORD97","N_COORD97":"N_COORD97","ADDRESS":"ADDRESS","OBJECTID":"OBJECTID"},"geometryType":"esriGeometryPoint","spatialReference":{"wkid":102443,"latestWkid":3826},"fields":[{"name":"ID","type":"esriFieldTypeDouble","alias":"ID"},{"name":"DIS_CODE","type":"esriFieldTypeInteger","alias":"DIS_CODE"},{"name":"TOWNNAME","type":"esriFieldTypeString","alias":"TOWNNAME","length":8},{"name":"LI","type":"esriFieldTypeString","alias":"LI","length":8},{"name":"LIN","type":"esriFieldTypeString","alias":"LIN","length":12},{"name":"STREET","type":"esriFieldTypeString","alias":"STREET","length":20},{"name":"SECT","type":"esriFieldTypeString","alias":"SECT","length":8},{"name":"MAREA","type":"esriFieldTypeString","alias":"MAREA","length":12},{"name":"LANE","type":"esriFieldTypeString","alias":"LANE","length":10},{"name":"ALLEY","type":"esriFieldTypeString","alias":"ALLEY","length":10},{"name":"HOUSE_NO","type":"esriFieldTypeString","alias":"HOUSE_NO","length":20},{"name":"E_COORD97","type":"esriFieldTypeDouble","alias":"E_COORD97"},{"name":"N_COORD97","type":"esriFieldTypeDouble","alias":"N_COORD97"},{"name":"ADDRESS","type":"esriFieldTypeString","alias":"ADDRESS","length":50},{"name":"OBJECTID","type":"esriFieldTypeOID","alias":"OBJECTID"}],"features":[{"attributes":{"ID":202202,"DIS_CODE":0,"TOWNNAME":"東區","LI":"富強里","LIN":"20鄰","STREET":"裕農路","SECT":" ","MAREA":" ","LANE":"２８８巷","ALLEY":"９６弄","HOUSE_NO":"２號","E_COORD97":170961.73000000001,"N_COORD97":2542925.1699999999,"ADDRESS":"裕農路２８８巷９６弄２號","OBJECTID":202201},"geometry":{"x":170961.72999999952,"y":2542925.1700000018}},{"attributes":{"ID":202203,"DIS_CODE":0,"TOWNNAME":"東區","LI":"富強里","LIN":"20鄰","STREET":"裕農路","SECT":" ","MAREA":" ","LANE":"２８８巷","ALLEY":"９６弄","HOUSE_NO":"３０號","E_COORD97":170967.32000000001,"N_COORD97":2542866.6200000001,"ADDRESS":"裕農路２８８巷９６弄３０號","OBJECTID":202202},"geometry":{"x":170967.3200000003,"y":2542866.6200000029}},{"attributes":{"ID":202204,"DIS_CODE":0,"TOWNNAME":"東區","LI":"富強里","LIN":"20鄰","STREET":"裕農路","SECT":" ","MAREA":" ","LANE":"２８８巷","ALLEY":"９６弄","HOUSE_NO":"３２號","E_COORD97":170966.98999999999,"N_COORD97":2542862.6600000001,"ADDRESS":"裕農路２８８巷９６弄３２號","OBJECTID":202203},"geometry":{"x":170966.99000000115,"y":2542862.6600000001}},{"attributes":{"ID":202205,"DIS_CODE":0,"TOWNNAME":"東區","LI":"富強里","LIN":"20鄰","STREET":"裕農路","SECT":" ","MAREA":" ","LANE":"２８８巷","ALLEY":"９６弄","HOUSE_NO":"３４號","E_COORD97":170967.32000000001,"N_COORD97":2542858.21,"ADDRESS":"裕農路２８８巷９６弄３４號","OBJECTID":202204},"geometry":{"x":170967.3200000003,"y":2542858.2100000028}},{"attributes":{"ID":202206,"DIS_CODE":0,"TOWNNAME":"東區","LI":"富強里","LIN":"20鄰","STREET":"裕農路","SECT":" ","MAREA":" ","LANE":"２８８巷","ALLEY":"９６弄","HOUSE_NO":"３６號","E_COORD97":170968.14999999999,"N_COORD97":2542853.5899999999,"ADDRESS":"裕農路２８８巷９６弄３６號","OBJECTID":202205},"geometry":{"x":170968.1500000013,"y":2542853.589999998}},{"attributes":{"ID":202207,"DIS_CODE":0,"TOWNNAME":"東區","LI":"富強里","LIN":"20鄰","STREET":"裕農路","SECT":" ","MAREA":" ","LANE":"２８８巷","ALLEY":"９６弄","HOUSE_NO":"３８號","E_COORD97":170967.32000000001,"N_COORD97":2542849.7999999998,"ADDRESS":"裕農路２８８巷９６弄３８號","OBJECTID":202206},"geometry":{"x":170967.3200000003,"y":2542849.8000000045}},{"attributes":{"ID":202208,"DIS_CODE":0,"TOWNNAME":"東區","LI":"富強里","LIN":"20鄰","STREET":"裕農路","SECT":" ","MAREA":" ","LANE":"２８８巷","ALLEY":"９６弄","HOUSE_NO":"３號","E_COORD97":170979.41,"N_COORD97":2542922.0699999998,"ADDRESS":"裕農路２８８巷９６弄３號","OBJECTID":202207},"geometry":{"x":170979.41000000108,"y":2542922.0699999984}},{"attributes":{"ID":202209,"DIS_CODE":0,"TOWNNAME":"東區","LI":"富強里","LIN":"20鄰","STREET":"裕農路","SECT":" ","MAREA":" ","LANE":"２８８巷","ALLEY":"９６弄","HOUSE_NO":"４０號","E_COORD97":170968.48000000001,"N_COORD97":2542845.3500000001,"ADDRESS":"裕農路２８８巷９６弄４０號","OBJECTID":202208},"geometry":{"x":170968.47999999952,"y":2542845.3500000015}},{"attributes":{"ID":202210,"DIS_CODE":0,"TOWNNAME":"東區","LI":"富強里","LIN":"20鄰","STREET":"裕農路","SECT":" ","MAREA":" ","LANE":"２８８巷","ALLEY":"９６弄","HOUSE_NO":"４２號","E_COORD97":170967.48999999999,"N_COORD97":2542841.0600000001,"ADDRESS":"裕農路２８８巷９６弄４２號","OBJECTID":202209},"geometry":{"x":170967.49000000022,"y":2542841.0600000042}},{"attributes":{"ID":202211,"DIS_CODE":0,"TOWNNAME":"東區","LI":"富強里","LIN":"20鄰","STREET":"裕農路","SECT":" ","MAREA":" ","LANE":"２８８巷","ALLEY":"９６弄","HOUSE_NO":"４３號","E_COORD97":170997.73000000001,"N_COORD97":2542814.71,"ADDRESS":"裕農路２８８巷９６弄４３號","OBJECTID":202210},"geometry":{"x":170997.73000000138,"y":2542814.7100000028}},{"attributes":{"ID":202212,"DIS_CODE":0,"TOWNNAME":"東區","LI":"富強里","LIN":"20鄰","STREET":"裕農路","SECT":" ","MAREA":" ","LANE":"２８８巷","ALLEY":"９６弄","HOUSE_NO":"４５號","E_COORD97":170997.82000000001,"N_COORD97":2542810.0299999998,"ADDRESS":"裕農路２８８巷９６弄４５號","OBJECTID":202211},"geometry":{"x":170997.8200000003,"y":2542810.0300000012}},{"attributes":{"ID":202213,"DIS_CODE":0,"TOWNNAME":"東區","LI":"富強里","LIN":"20鄰","STREET":"裕農路","SECT":" ","MAREA":" ","LANE":"２８８巷","ALLEY":"９６弄","HOUSE_NO":"４６號","E_COORD97":170971.34,"N_COORD97":2542814.8900000001,"ADDRESS":"裕農路２８８巷９６弄４６號","OBJECTID":202212},"geometry":{"x":170971.34000000078,"y":2542814.8900000006}},{"attributes":{"ID":202214,"DIS_CODE":0,"TOWNNAME":"東區","LI":"富強里","LIN":"20鄰","STREET":"裕農路","SECT":" ","MAREA":" ","LANE":"２８８巷","ALLEY":"９６弄","HOUSE_NO":"４７號","E_COORD97":170998.70999999999,"N_COORD97":2542806.1400000001,"ADDRESS":"裕農路２８８巷９６弄４７號","OBJECTID":202213},"geometry":{"x":170998.71000000183,"y":2542806.1400000006}},{"attributes":{"ID":202215,"DIS_CODE":0,"TOWNNAME":"東區","LI":"富強里","LIN":"20鄰","STREET":"裕農路","SECT":" ","MAREA":" ","LANE":"２８８巷","ALLEY":"９６弄","HOUSE_NO":"４８號","E_COORD97":170971.63,"N_COORD97":2542807.6099999999,"ADDRESS":"裕農路２８８巷９６弄４８號","OBJECTID":202214},"geometry":{"x":170971.62999999989,"y":2542807.6099999994}},{"attributes":{"ID":202216,"DIS_CODE":0,"TOWNNAME":"東區","LI":"富強里","LIN":"20鄰","STREET":"裕農路","SECT":" ","MAREA":" ","LANE":"２８８巷","ALLEY":"９６弄","HOUSE_NO":"４９號","E_COORD97":170998.70999999999,"N_COORD97":2542801.6400000001,"ADDRESS":"裕農路２８８巷９６弄４９號","OBJECTID":202215},"geometry":{"x":170998.71000000183,"y":2542801.6400000025}},{"attributes":{"ID":202217,"DIS_CODE":0,"TOWNNAME":"東區","LI":"富強里","LIN":"20鄰","STREET":"裕農路","SECT":" ","MAREA":" ","LANE":"２８８巷","ALLEY":"９６弄","HOUSE_NO":"４號","E_COORD97":170962.29999999999,"N_COORD97":2542920.7999999998,"ADDRESS":"裕農路２８８巷９６弄４號","OBJECTID":202216},"geometry":{"x":170962.30000000168,"y":2542920.8000000007}},{"attributes":{"ID":202218,"DIS_CODE":0,"TOWNNAME":"東區","LI":"富強里","LIN":"20鄰","STREET":"裕農路","SECT":" ","MAREA":" ","LANE":"２８８巷","ALLEY":"９６弄","HOUSE_NO":"５０號","E_COORD97":170972.07000000001,"N_COORD97":2542803.9700000002,"ADDRESS":"裕農路２８８巷９６弄５０號","OBJECTID":202217},"geometry":{"x":170972.0700000003,"y":2542803.9700000007}},{"attributes":{"ID":202219,"DIS_CODE":0,"TOWNNAME":"東區","LI":"富強里","LIN":"20鄰","STREET":"裕農路","SECT":" ","MAREA":" ","LANE":"２８８巷","ALLEY":"９６弄","HOUSE_NO":"５１號","E_COORD97":170998.09,"N_COORD97":2542797.4900000002,"ADDRESS":"裕農路２８８巷９６弄５１號","OBJECTID":202218},"geometry":{"x":170998.09000000078,"y":2542797.4900000039}},{"attributes":{"ID":202220,"DIS_CODE":0,"TOWNNAME":"東區","LI":"富強里","LIN":"20鄰","STREET":"裕農路","SECT":" ","MAREA":" ","LANE":"２８８巷","ALLEY":"９６弄","HOUSE_NO":"５２號","E_COORD97":170972.14000000001,"N_COORD97":2542800.54,"ADDRESS":"裕農路２８８巷９６弄５２號","OBJECTID":202219},"geometry":{"x":170972.1400000006,"y":2542800.540000001}},{"attributes":{"ID":202221,"DIS_CODE":0,"TOWNNAME":"後壁區","LI":"崁頂里","LIN":"3鄰","STREET":" ","SECT":" ","MAREA":"崁頂","LANE":" ","ALLEY":" ","HOUSE_NO":"３０號","E_COORD97":182894.98999999999,"N_COORD97":2586805.96,"ADDRESS":"崁頂３０號","OBJECTID":202220},"geometry":{"x":182894.99000000022,"y":2586805.9600000028}},{"attributes":{"ID":202222,"DIS_CODE":0,"TOWNNAME":"東區","LI":"富強里","LIN":"20鄰","STREET":"裕農路","SECT":" ","MAREA":" ","LANE":"２８８巷","ALLEY":"９６弄","HOUSE_NO":"５６號","E_COORD97":170973.01999999999,"N_COORD97":2542793.27,"ADDRESS":"裕農路２８８巷９６弄５６號","OBJECTID":202221},"geometry":{"x":170973.02000000048,"y":2542793.2699999996}},{"attributes":{"ID":202223,"DIS_CODE":0,"TOWNNAME":"東區","LI":"富強里","LIN":"20鄰","STREET":"裕農路","SECT":" ","MAREA":" ","LANE":"２８８巷","ALLEY":"９６弄","HOUSE_NO":"５７號","E_COORD97":170997.47,"N_COORD97":2542784.1299999999,"ADDRESS":"裕農路２８８巷９６弄５７號","OBJECTID":202222},"geometry":{"x":170997.47000000067,"y":2542784.129999999}},{"attributes":{"ID":202224,"DIS_CODE":0,"TOWNNAME":"東區","LI":"富強里","LIN":"20鄰","STREET":"裕農路","SECT":" ","MAREA":" ","LANE":"２８８巷","ALLEY":"９６弄","HOUSE_NO":"５號","E_COORD97":170980.07000000001,"N_COORD97":2542918.27,"ADDRESS":"裕農路２８８巷９６弄５號","OBJECTID":202223},"geometry":{"x":170980.07000000123,"y":2542918.2700000014}},{"attributes":{"ID":202225,"DIS_CODE":0,"TOWNNAME":"東區","LI":"富強里","LIN":"20鄰","STREET":"裕農路","SECT":" ","MAREA":" ","LANE":"２８８巷","ALLEY":"９６弄","HOUSE_NO":"６８號","E_COORD97":170975.35999999999,"N_COORD97":2542770.6299999999,"ADDRESS":"裕農路２８８巷９６弄６８號","OBJECTID":202224},"geometry":{"x":170975.36000000034,"y":2542770.629999999}},{"attributes":{"ID":202226,"DIS_CODE":0,"TOWNNAME":"東區","LI":"富強里","LIN":"20鄰","STREET":"裕農路","SECT":" ","MAREA":" ","LANE":"２８８巷","ALLEY":"９６弄","HOUSE_NO":"６號","E_COORD97":170962.10999999999,"N_COORD97":2542916.7200000002,"ADDRESS":"裕農路２８８巷９６弄６號","OBJECTID":202225},"geometry":{"x":170962.11000000034,"y":2542916.7200000007}},{"attributes":{"ID":202227,"DIS_CODE":0,"TOWNNAME":"東區","LI":"富強里","LIN":"20鄰","STREET":"裕農路","SECT":" ","MAREA":" ","LANE":"２８８巷","ALLEY":"９６弄","HOUSE_NO":"７０號","E_COORD97":170975.23999999999,"N_COORD97":2542766.9100000001,"ADDRESS":"裕農路２８８巷９６弄７０號","OBJECTID":202226},"geometry":{"x":170975.24000000115,"y":2542766.9100000001}},{"attributes":{"ID":202228,"DIS_CODE":0,"TOWNNAME":"東區","LI":"富強里","LIN":"20鄰","STREET":"裕農路","SECT":" ","MAREA":" ","LANE":"２８８巷","ALLEY":"９６弄","HOUSE_NO":"７４號","E_COORD97":170974.31,"N_COORD97":2542758.5899999999,"ADDRESS":"裕農路２８８巷９６弄７４號","OBJECTID":202227},"geometry":{"x":170974.31000000052,"y":2542758.5899999999}},{"attributes":{"ID":202229,"DIS_CODE":0,"TOWNNAME":"東區","LI":"富強里","LIN":"20鄰","STREET":"裕農路","SECT":" ","MAREA":" ","LANE":"２８８巷","ALLEY":"９６弄","HOUSE_NO":"７６號","E_COORD97":170974.54000000001,"N_COORD97":2542754.4100000001,"ADDRESS":"裕農路２８８巷９６弄７６號","OBJECTID":202228},"geometry":{"x":170974.5400000019,"y":2542754.410000002}},{"attributes":{"ID":202230,"DIS_CODE":0,"TOWNNAME":"東區","LI":"富強里","LIN":"20鄰","STREET":"裕農路","SECT":" ","MAREA":" ","LANE":"２８８巷","ALLEY":"９６弄","HOUSE_NO":"７８號","E_COORD97":170973.63,"N_COORD97":2542750.8300000001,"ADDRESS":"裕農路２８８巷９６弄７８號","OBJECTID":202229},"geometry":{"x":170973.62999999989,"y":2542750.8300000038}},{"attributes":{"ID":202231,"DIS_CODE":0,"TOWNNAME":"東區","LI":"富強里","LIN":"20鄰","STREET":"裕農路","SECT":" ","MAREA":" ","LANE":"２８８巷","ALLEY":"９６弄","HOUSE_NO":"８號","E_COORD97":170962.67999999999,"N_COORD97":2542912.54,"ADDRESS":"裕農路２８８巷９６弄８號","OBJECTID":202230},"geometry":{"x":170962.6799999997,"y":2542912.540000001}},{"attributes":{"ID":202232,"DIS_CODE":0,"TOWNNAME":"永康區","LI":"正強里","LIN":"20鄰","STREET":"中山南路","SECT":" ","MAREA":" ","LANE":"４７１巷","ALLEY":"１５弄","HOUSE_NO":"８號","E_COORD97":173123.01000000001,"N_COORD97":2547227.7400000002,"ADDRESS":"中山南路４７１巷１５弄８號","OBJECTID":202231},"geometry":{"x":173123.01000000071,"y":2547227.7400000021}},{"attributes":{"ID":202233,"DIS_CODE":0,"TOWNNAME":"歸仁區","LI":"大潭里","LIN":"20鄰","STREET":"長榮路","SECT":"二段","MAREA":" ","LANE":"７５巷","ALLEY":"５６弄","HOUSE_NO":"１號","E_COORD97":176946.37,"N_COORD97":2534614.2799999998,"ADDRESS":"長榮路二段７５巷５６弄１號","OBJECTID":202232},"geometry":{"x":176946.37000000104,"y":2534614.2800000012}},{"attributes":{"ID":202234,"DIS_CODE":0,"TOWNNAME":"永康區","LI":"網寮里","LIN":"20鄰","STREET":"大灣路","SECT":" ","MAREA":" ","LANE":"９４２巷","ALLEY":"６４１弄","HOUSE_NO":"７７號之１","E_COORD97":173491.87,"N_COORD97":2545994.8999999999,"ADDRESS":"大灣路９４２巷６４１弄７７號之１","OBJECTID":202233},"geometry":{"x":173491.87000000104,"y":2545994.8999999985}},{"attributes":{"ID":202235,"DIS_CODE":0,"TOWNNAME":"永康區","LI":"網寮里","LIN":"20鄰","STREET":"永二街","SECT":" ","MAREA":" ","LANE":"２４５巷","ALLEY":"２６弄","HOUSE_NO":"１５號","E_COORD97":173254.01999999999,"N_COORD97":2546136.8999999999,"ADDRESS":"永二街２４５巷２６弄１５號","OBJECTID":202234},"geometry":{"x":173254.01999999955,"y":2546136.9000000004}},{"attributes":{"ID":202236,"DIS_CODE":0,"TOWNNAME":"東區","LI":"成大里","LIN":"22鄰","STREET":"育樂街","SECT":" ","MAREA":" ","LANE":"５７巷","ALLEY":"２弄","HOUSE_NO":"８號","E_COORD97":169642.59,"N_COORD97":2543982.8100000001,"ADDRESS":"育樂街５７巷２弄８號","OBJECTID":202235},"geometry":{"x":169642.58999999985,"y":2543982.8100000024}},{"attributes":{"ID":202237,"DIS_CODE":0,"TOWNNAME":"東區","LI":"成大里","LIN":"22鄰","STREET":"育樂街","SECT":" ","MAREA":" ","LANE":"５７巷","ALLEY":"２弄","HOUSE_NO":"８號","E_COORD97":169642.59,"N_COORD97":2543982.8100000001,"ADDRESS":"育樂街５７巷２弄８號","OBJECTID":202236},"geometry":{"x":169642.58999999985,"y":2543982.8100000024}},{"attributes":{"ID":202238,"DIS_CODE":0,"TOWNNAME":"東區","LI":"路東里","LIN":"9鄰","STREET":"大同路","SECT":"二段","MAREA":" ","LANE":"１９巷","ALLEY":"４弄","HOUSE_NO":"６號","E_COORD97":169283.69,"N_COORD97":2542343.1099999999,"ADDRESS":"大同路二段１９巷４弄６號","OBJECTID":202237},"geometry":{"x":169283.68999999948,"y":2542343.1099999994}},{"attributes":{"ID":202239,"DIS_CODE":0,"TOWNNAME":"後壁區","LI":"頂安里","LIN":"3鄰","STREET":" ","SECT":" ","MAREA":"頂寮","LANE":" ","ALLEY":" ","HOUSE_NO":"３２號之１","E_COORD97":183979.19,"N_COORD97":2581568.1800000002,"ADDRESS":"頂寮３２號之１","OBJECTID":202238},"geometry":{"x":183979.19000000041,"y":2581568.1800000016}},{"attributes":{"ID":202240,"DIS_CODE":0,"TOWNNAME":"南區","LI":"光明里","LIN":"9鄰","STREET":"鹽埕路","SECT":" ","MAREA":" ","LANE":"２９１巷","ALLEY":"３２弄","HOUSE_NO":"５４號","E_COORD97":166616.48999999999,"N_COORD97":2541426.1400000001,"ADDRESS":"鹽埕路２９１巷３２弄５４號","OBJECTID":202239},"geometry":{"x":166616.49000000022,"y":2541426.1400000006}},{"attributes":{"ID":202241,"DIS_CODE":0,"TOWNNAME":"南區","LI":"府南里","LIN":"9鄰","STREET":"金華路","SECT":"一段","MAREA":" ","LANE":"４８４巷","ALLEY":"１８３弄","HOUSE_NO":"３號","E_COORD97":167372.01999999999,"N_COORD97":2541213.5499999998,"ADDRESS":"金華路一段４８４巷１８３弄３號","OBJECTID":202240},"geometry":{"x":167372.02000000048,"y":2541213.5500000007}},{"attributes":{"ID":202242,"DIS_CODE":0,"TOWNNAME":"南區","LI":"府南里","LIN":"9鄰","STREET":"金華路","SECT":"一段","MAREA":" ","LANE":"４８４巷","ALLEY":"１８３弄","HOUSE_NO":"５號","E_COORD97":167376.45999999999,"N_COORD97":2541215.2999999998,"ADDRESS":"金華路一段４８４巷１８３弄５號","OBJECTID":202241},"geometry":{"x":167376.46000000089,"y":2541215.3000000007}},{"attributes":{"ID":202243,"DIS_CODE":0,"TOWNNAME":"官田區","LI":"隆本里","LIN":"26鄰","STREET":"信義街","SECT":"二段","MAREA":" ","LANE":"４１巷","ALLEY":"２弄","HOUSE_NO":"９號","E_COORD97":179726.07000000001,"N_COORD97":2566015.3500000001,"ADDRESS":"信義街二段４１巷２弄９號","OBJECTID":202242},"geometry":{"x":179726.0700000003,"y":2566015.3500000015}},{"attributes":{"ID":202244,"DIS_CODE":0,"TOWNNAME":"南區","LI":"府南里","LIN":"9鄰","STREET":"金華路","SECT":"一段","MAREA":" ","LANE":"４８４巷","ALLEY":"１８３弄","HOUSE_NO":"７號","E_COORD97":167390.10999999999,"N_COORD97":2541219.8999999999,"ADDRESS":"金華路一段４８４巷１８３弄７號","OBJECTID":202243},"geometry":{"x":167390.11000000034,"y":2541219.9000000004}},{"attributes":{"ID":202245,"DIS_CODE":0,"TOWNNAME":"南區","LI":"府南里","LIN":"9鄰","STREET":"金華路","SECT":"一段","MAREA":" ","LANE":"４８４巷","ALLEY":"１８３弄","HOUSE_NO":"９號","E_COORD97":167394.39999999999,"N_COORD97":2541221.6499999999,"ADDRESS":"金華路一段４８４巷１８３弄９號","OBJECTID":202244},"geometry":{"x":167394.4000000013,"y":2541221.6500000004}},{"attributes":{"ID":202246,"DIS_CODE":0,"TOWNNAME":"南區","LI":"府南里","LIN":"9鄰","STREET":"金華路","SECT":"一段","MAREA":" ","LANE":"４８４巷","ALLEY":"１８３弄","HOUSE_NO":"１１號","E_COORD97":167398.37,"N_COORD97":2541222.9199999999,"ADDRESS":"金華路一段４８４巷１８３弄１１號","OBJECTID":202245},"geometry":{"x":167398.37000000011,"y":2541222.9199999999}},{"attributes":{"ID":202247,"DIS_CODE":0,"TOWNNAME":"南區","LI":"府南里","LIN":"9鄰","STREET":"金華路","SECT":"一段","MAREA":" ","LANE":"４８４巷","ALLEY":"１８３弄","HOUSE_NO":"１３號","E_COORD97":167402.97,"N_COORD97":2541224.3500000001,"ADDRESS":"金華路一段４８４巷１８３弄１３號","OBJECTID":202246},"geometry":{"x":167402.9700000016,"y":2541224.3500000034}},{"attributes":{"ID":202248,"DIS_CODE":0,"TOWNNAME":"南區","LI":"府南里","LIN":"9鄰","STREET":"金華路","SECT":"一段","MAREA":" ","LANE":"４８４巷","ALLEY":"１８３弄","HOUSE_NO":"１５號","E_COORD97":167407.42000000001,"N_COORD97":2541225.9300000002,"ADDRESS":"金華路一段４８４巷１８３弄１５號","OBJECTID":202247},"geometry":{"x":167407.42000000086,"y":2541225.9299999997}},{"attributes":{"ID":202249,"DIS_CODE":0,"TOWNNAME":"南區","LI":"府南里","LIN":"9鄰","STREET":"金華路","SECT":"一段","MAREA":" ","LANE":"４８４巷","ALLEY":"１８３弄","HOUSE_NO":"１７號","E_COORD97":167411.85999999999,"N_COORD97":2541227.3599999999,"ADDRESS":"金華路一段４８４巷１８３弄１７號","OBJECTID":202248},"geometry":{"x":167411.86000000127,"y":2541227.3599999975}},{"attributes":{"ID":202250,"DIS_CODE":0,"TOWNNAME":"南區","LI":"府南里","LIN":"9鄰","STREET":"金華路","SECT":"一段","MAREA":" ","LANE":"４８４巷","ALLEY":"１８３弄","HOUSE_NO":"１９號","E_COORD97":167415.98999999999,"N_COORD97":2541228.6299999999,"ADDRESS":"金華路一段４８４巷１８３弄１９號","OBJECTID":202249},"geometry":{"x":167415.99000000115,"y":2541228.6300000027}},{"attributes":{"ID":202251,"DIS_CODE":0,"TOWNNAME":"後壁區","LI":"崁頂里","LIN":"3鄰","STREET":" ","SECT":" ","MAREA":"崁頂","LANE":" ","ALLEY":" ","HOUSE_NO":"３１號","E_COORD97":182890.16,"N_COORD97":2586826.8399999999,"ADDRESS":"崁頂３１號","OBJECTID":202250},"geometry":{"x":182890.16000000108,"y":2586826.8400000017}},{"attributes":{"ID":202252,"DIS_CODE":0,"TOWNNAME":"東區","LI":"和平里","LIN":"9鄰","STREET":"東門路","SECT":"三段","MAREA":" ","LANE":"３３８巷","ALLEY":"５６弄","HOUSE_NO":"５號","E_COORD97":171838.14000000001,"N_COORD97":2541361.25,"ADDRESS":"東門路三段３３８巷５６弄５號","OBJECTID":202251},"geometry":{"x":171838.14000000153,"y":2541361.2500000037}},{"attributes":{"ID":202253,"DIS_CODE":0,"TOWNNAME":"東區","LI":"和平里","LIN":"9鄰","STREET":"東門路","SECT":"三段","MAREA":" ","LANE":"３３８巷","ALLEY":"５６弄","HOUSE_NO":"７號","E_COORD97":171836.67000000001,"N_COORD97":2541356.3100000001,"ADDRESS":"東門路三段３３８巷５６弄７號","OBJECTID":202252},"geometry":{"x":171836.67000000086,"y":2541356.3100000005}},{"attributes":{"ID":202254,"DIS_CODE":0,"TOWNNAME":"白河區","LI":"虎山里","LIN":"3鄰","STREET":" ","SECT":" ","MAREA":"木屐寮","LANE":" ","ALLEY":" ","HOUSE_NO":"４１號","E_COORD97":194327,"N_COORD97":2583919.7000000002,"ADDRESS":"木屐寮４１號","OBJECTID":202253},"geometry":{"x":194327,"y":2583919.6999999993}},{"attributes":{"ID":202255,"DIS_CODE":0,"TOWNNAME":"後壁區","LI":"崁頂里","LIN":"3鄰","STREET":" ","SECT":" ","MAREA":"崁頂","LANE":" ","ALLEY":" ","HOUSE_NO":"３２號之１","E_COORD97":182875.14000000001,"N_COORD97":2586853.8900000001,"ADDRESS":"崁頂３２號之１","OBJECTID":202254},"geometry":{"x":182875.13999999966,"y":2586853.8900000025}},{"attributes":{"ID":202256,"DIS_CODE":0,"TOWNNAME":"後壁區","LI":"崁頂里","LIN":"3鄰","STREET":" ","SECT":" ","MAREA":"崁頂","LANE":" ","ALLEY":" ","HOUSE_NO":"３２號之２","E_COORD97":182866.48000000001,"N_COORD97":2586838.9100000001,"ADDRESS":"崁頂３２號之２","OBJECTID":202255},"geometry":{"x":182866.48000000045,"y":2586838.9100000039}},{"attributes":{"ID":202257,"DIS_CODE":0,"TOWNNAME":"後壁區","LI":"崁頂里","LIN":"3鄰","STREET":" ","SECT":" ","MAREA":"崁頂","LANE":" ","ALLEY":" ","HOUSE_NO":"３２號之３","E_COORD97":182838.04999999999,"N_COORD97":2586836.7400000002,"ADDRESS":"崁頂３２號之３","OBJECTID":202256},"geometry":{"x":182838.04999999981,"y":2586836.7400000039}},{"attributes":{"ID":202258,"DIS_CODE":0,"TOWNNAME":"後壁區","LI":"崁頂里","LIN":"3鄰","STREET":" ","SECT":" ","MAREA":"崁頂","LANE":" ","ALLEY":" ","HOUSE_NO":"３２號","E_COORD97":182908.07000000001,"N_COORD97":2586855.0899999999,"ADDRESS":"崁頂３２號","OBJECTID":202257},"geometry":{"x":182908.0700000003,"y":2586855.0900000017}},{"attributes":{"ID":202259,"DIS_CODE":0,"TOWNNAME":"後壁區","LI":"崁頂里","LIN":"3鄰","STREET":" ","SECT":" ","MAREA":"崁頂","LANE":" ","ALLEY":" ","HOUSE_NO":"３３號","E_COORD97":182917.37,"N_COORD97":2586844.25,"ADDRESS":"崁頂３３號","OBJECTID":202258},"geometry":{"x":182917.37000000104,"y":2586844.2500000019}},{"attributes":{"ID":202260,"DIS_CODE":0,"TOWNNAME":"後壁區","LI":"烏樹里","LIN":"3鄰","STREET":" ","SECT":" ","MAREA":"烏樹林","LANE":" ","ALLEY":" ","HOUSE_NO":"２７之１號","E_COORD97":186335.47,"N_COORD97":2581524.6099999999,"ADDRESS":"烏樹林２７之１號","OBJECTID":202259},"geometry":{"x":186335.47000000067,"y":2581524.6100000013}},{"attributes":{"ID":202261,"DIS_CODE":0,"TOWNNAME":"後壁區","LI":"烏樹里","LIN":"3鄰","STREET":" ","SECT":" ","MAREA":"烏樹林","LANE":" ","ALLEY":" ","HOUSE_NO":"２８之１號","E_COORD97":186355.22,"N_COORD97":2581493.0499999998,"ADDRESS":"烏樹林２８之１號","OBJECTID":202260},"geometry":{"x":186355.2200000016,"y":2581493.0500000026}},{"attributes":{"ID":202262,"DIS_CODE":0,"TOWNNAME":"後壁區","LI":"烏樹里","LIN":"3鄰","STREET":" ","SECT":" ","MAREA":"烏樹林","LANE":" ","ALLEY":" ","HOUSE_NO":"２８號","E_COORD97":186365.44,"N_COORD97":2581516.52,"ADDRESS":"烏樹林２８號","OBJECTID":202261},"geometry":{"x":186365.44000000041,"y":2581516.5199999996}},{"attributes":{"ID":202263,"DIS_CODE":0,"TOWNNAME":"後壁區","LI":"烏樹里","LIN":"3鄰","STREET":" ","SECT":" ","MAREA":"烏樹林","LANE":" ","ALLEY":" ","HOUSE_NO":"３１之１號","E_COORD97":186316.23000000001,"N_COORD97":2581516.7200000002,"ADDRESS":"烏樹林３１之１號","OBJECTID":202262},"geometry":{"x":186316.23000000045,"y":2581516.7200000007}},{"attributes":{"ID":202264,"DIS_CODE":0,"TOWNNAME":"後壁區","LI":"烏樹里","LIN":"3鄰","STREET":" ","SECT":" ","MAREA":"烏樹林","LANE":" ","ALLEY":" ","HOUSE_NO":"３１號","E_COORD97":186319.32000000001,"N_COORD97":2581508.25,"ADDRESS":"烏樹林３１號","OBJECTID":202263},"geometry":{"x":186319.3200000003,"y":2581508.2500000019}},{"attributes":{"ID":202265,"DIS_CODE":0,"TOWNNAME":"後壁區","LI":"烏樹里","LIN":"3鄰","STREET":" ","SECT":" ","MAREA":"烏樹林","LANE":" ","ALLEY":" ","HOUSE_NO":"３２號","E_COORD97":186292.98999999999,"N_COORD97":2581536.75,"ADDRESS":"烏樹林３２號","OBJECTID":202264},"geometry":{"x":186292.99000000115,"y":2581536.75}},{"attributes":{"ID":202266,"DIS_CODE":0,"TOWNNAME":"後壁區","LI":"烏樹里","LIN":"3鄰","STREET":" ","SECT":" ","MAREA":"烏樹林","LANE":" ","ALLEY":" ","HOUSE_NO":"３４號","E_COORD97":186291.89999999999,"N_COORD97":2581555.1899999999,"ADDRESS":"烏樹林３４號","OBJECTID":202265},"geometry":{"x":186291.90000000224,"y":2581555.1900000013}},{"attributes":{"ID":202267,"DIS_CODE":0,"TOWNNAME":"後壁區","LI":"烏樹里","LIN":"3鄰","STREET":" ","SECT":" ","MAREA":"烏樹林","LANE":" ","ALLEY":" ","HOUSE_NO":"３６之１號","E_COORD97":186257.76000000001,"N_COORD97":2581589.4900000002,"ADDRESS":"烏樹林３６之１號","OBJECTID":202266},"geometry":{"x":186257.75999999978,"y":2581589.4900000002}},{"attributes":{"ID":202268,"DIS_CODE":0,"TOWNNAME":"後壁區","LI":"烏樹里","LIN":"3鄰","STREET":" ","SECT":" ","MAREA":"烏樹林","LANE":" ","ALLEY":" ","HOUSE_NO":"３６號","E_COORD97":186276.70000000001,"N_COORD97":2581582.25,"ADDRESS":"烏樹林３６號","OBJECTID":202267},"geometry":{"x":186276.70000000112,"y":2581582.2500000019}},{"attributes":{"ID":202269,"DIS_CODE":0,"TOWNNAME":"後壁區","LI":"烏樹里","LIN":"3鄰","STREET":" ","SECT":" ","MAREA":"烏樹林","LANE":" ","ALLEY":" ","HOUSE_NO":"３７號","E_COORD97":186267.14999999999,"N_COORD97":2581604.5299999998,"ADDRESS":"烏樹林３７號","OBJECTID":202268},"geometry":{"x":186267.1500000013,"y":2581604.5299999993}},{"attributes":{"ID":202270,"DIS_CODE":0,"TOWNNAME":"後壁區","LI":"頂安里","LIN":"3鄰","STREET":" ","SECT":" ","MAREA":"頂寮","LANE":" ","ALLEY":" ","HOUSE_NO":"３０號","E_COORD97":183972.20999999999,"N_COORD97":2581597.4500000002,"ADDRESS":"頂寮３０號","OBJECTID":202269},"geometry":{"x":183972.21000000089,"y":2581597.4500000011}},{"attributes":{"ID":202271,"DIS_CODE":0,"TOWNNAME":"後壁區","LI":"頂安里","LIN":"3鄰","STREET":" ","SECT":" ","MAREA":"頂寮","LANE":" ","ALLEY":" ","HOUSE_NO":"２５號之５","E_COORD97":184002.14999999999,"N_COORD97":2581539.9100000001,"ADDRESS":"頂寮２５號之５","OBJECTID":202270},"geometry":{"x":184002.1500000013,"y":2581539.910000002}},{"attributes":{"ID":202272,"DIS_CODE":0,"TOWNNAME":"後壁區","LI":"頂安里","LIN":"3鄰","STREET":" ","SECT":" ","MAREA":"頂寮","LANE":" ","ALLEY":" ","HOUSE_NO":"２５號之６","E_COORD97":183993.31,"N_COORD97":2581538.8199999998,"ADDRESS":"頂寮２５號之６","OBJECTID":202271},"geometry":{"x":183993.31000000052,"y":2581538.8200000003}},{"attributes":{"ID":202273,"DIS_CODE":0,"TOWNNAME":"後壁區","LI":"頂安里","LIN":"3鄰","STREET":" ","SECT":" ","MAREA":"頂寮","LANE":" ","ALLEY":" ","HOUSE_NO":"２５號之７","E_COORD97":183985.64999999999,"N_COORD97":2581534.8100000001,"ADDRESS":"頂寮２５號之７","OBJECTID":202272},"geometry":{"x":183985.65000000037,"y":2581534.8100000024}},{"attributes":{"ID":202274,"DIS_CODE":0,"TOWNNAME":"後壁區","LI":"頂安里","LIN":"3鄰","STREET":" ","SECT":" ","MAREA":"頂寮","LANE":" ","ALLEY":" ","HOUSE_NO":"２６號之１","E_COORD97":184052.47,"N_COORD97":2581657.52,"ADDRESS":"頂寮２６號之１","OBJECTID":202273},"geometry":{"x":184052.46999999974,"y":2581657.5200000014}},{"attributes":{"ID":202275,"DIS_CODE":0,"TOWNNAME":"後壁區","LI":"頂安里","LIN":"3鄰","STREET":" ","SECT":" ","MAREA":"頂寮","LANE":" ","ALLEY":" ","HOUSE_NO":"２６號","E_COORD97":184022.10999999999,"N_COORD97":2581659.1400000001,"ADDRESS":"頂寮２６號","OBJECTID":202274},"geometry":{"x":184022.11000000034,"y":2581659.1400000006}},{"attributes":{"ID":202276,"DIS_CODE":0,"TOWNNAME":"後壁區","LI":"頂安里","LIN":"3鄰","STREET":" ","SECT":" ","MAREA":"頂寮","LANE":" ","ALLEY":" ","HOUSE_NO":"２７號","E_COORD97":183979.56,"N_COORD97":2581609.5,"ADDRESS":"頂寮２７號","OBJECTID":202275},"geometry":{"x":183979.56000000052,"y":2581609.5}},{"attributes":{"ID":202277,"DIS_CODE":0,"TOWNNAME":"後壁區","LI":"頂安里","LIN":"3鄰","STREET":" ","SECT":" ","MAREA":"頂寮","LANE":" ","ALLEY":" ","HOUSE_NO":"２８號","E_COORD97":183983.95000000001,"N_COORD97":2581624.79,"ADDRESS":"頂寮２８號","OBJECTID":202276},"geometry":{"x":183983.95000000019,"y":2581624.790000001}},{"attributes":{"ID":202278,"DIS_CODE":0,"TOWNNAME":"後壁區","LI":"頂安里","LIN":"3鄰","STREET":" ","SECT":" ","MAREA":"頂寮","LANE":" ","ALLEY":" ","HOUSE_NO":"２９號之１２","E_COORD97":183890.73000000001,"N_COORD97":2581788.8599999999,"ADDRESS":"頂寮２９號之１２","OBJECTID":202277},"geometry":{"x":183890.73000000045,"y":2581788.8599999994}},{"attributes":{"ID":202279,"DIS_CODE":0,"TOWNNAME":"後壁區","LI":"頂安里","LIN":"3鄰","STREET":" ","SECT":" ","MAREA":"頂寮","LANE":" ","ALLEY":" ","HOUSE_NO":"２９號之１","E_COORD97":183956.22,"N_COORD97":2581645.54,"ADDRESS":"頂寮２９號之１","OBJECTID":202278},"geometry":{"x":183956.21999999974,"y":2581645.5399999991}},{"attributes":{"ID":202280,"DIS_CODE":0,"TOWNNAME":"後壁區","LI":"頂安里","LIN":"3鄰","STREET":" ","SECT":" ","MAREA":"頂寮","LANE":" ","ALLEY":" ","HOUSE_NO":"２９號之２","E_COORD97":184008.03,"N_COORD97":2581649.1200000001,"ADDRESS":"頂寮２９號之２","OBJECTID":202279},"geometry":{"x":184008.03000000119,"y":2581649.1200000029}},{"attributes":{"ID":202281,"DIS_CODE":0,"TOWNNAME":"後壁區","LI":"頂安里","LIN":"3鄰","STREET":" ","SECT":" ","MAREA":"頂寮","LANE":" ","ALLEY":" ","HOUSE_NO":"２９號之７","E_COORD97":183931.84,"N_COORD97":2581675.7000000002,"ADDRESS":"頂寮２９號之７","OBJECTID":202280},"geometry":{"x":183931.83999999985,"y":2581675.700000003}},{"attributes":{"ID":202282,"DIS_CODE":0,"TOWNNAME":"後壁區","LI":"頂安里","LIN":"3鄰","STREET":" ","SECT":" ","MAREA":"頂寮","LANE":" ","ALLEY":" ","HOUSE_NO":"２９號","E_COORD97":183967.75,"N_COORD97":2581641.5899999999,"ADDRESS":"頂寮２９號","OBJECTID":202281},"geometry":{"x":183967.75,"y":2581641.5899999999}},{"attributes":{"ID":202283,"DIS_CODE":0,"TOWNNAME":"後壁區","LI":"頂安里","LIN":"3鄰","STREET":" ","SECT":" ","MAREA":"頂寮","LANE":" ","ALLEY":" ","HOUSE_NO":"３０號之１","E_COORD97":183966.64000000001,"N_COORD97":2581622.1000000001,"ADDRESS":"頂寮３０號之１","OBJECTID":202282},"geometry":{"x":183966.63999999966,"y":2581622.0999999996}},{"attributes":{"ID":202284,"DIS_CODE":0,"TOWNNAME":"後壁區","LI":"頂安里","LIN":"3鄰","STREET":" ","SECT":" ","MAREA":"頂寮","LANE":" ","ALLEY":" ","HOUSE_NO":"３１號","E_COORD97":183994.63,"N_COORD97":2581586.5299999998,"ADDRESS":"頂寮３１號","OBJECTID":202283},"geometry":{"x":183994.63000000175,"y":2581586.5300000012}},{"attributes":{"ID":202285,"DIS_CODE":0,"TOWNNAME":"東區","LI":"大智里","LIN":"28鄰","STREET":"德東街","SECT":" ","MAREA":" ","LANE":"２３５巷","ALLEY":"１１８弄","HOUSE_NO":"１１２號","E_COORD97":171537.57999999999,"N_COORD97":2540333.7200000002,"ADDRESS":"德東街２３５巷１１８弄１１２號","OBJECTID":202284},"geometry":{"x":171537.58000000101,"y":2540333.7200000007}},{"attributes":{"ID":202286,"DIS_CODE":0,"TOWNNAME":"東區","LI":"大智里","LIN":"28鄰","STREET":"德東街","SECT":" ","MAREA":" ","LANE":"２３５巷","ALLEY":"１１８弄","HOUSE_NO":"１１６號","E_COORD97":171543.84,"N_COORD97":2540335.1800000002,"ADDRESS":"德東街２３５巷１１８弄１１６號","OBJECTID":202285},"geometry":{"x":171543.84000000078,"y":2540335.1800000016}},{"attributes":{"ID":202287,"DIS_CODE":0,"TOWNNAME":"東區","LI":"大智里","LIN":"28鄰","STREET":"德東街","SECT":" ","MAREA":" ","LANE":"２３５巷","ALLEY":"１１８弄","HOUSE_NO":"１１８號","E_COORD97":171549.48000000001,"N_COORD97":2540336.6400000001,"ADDRESS":"德東街２３５巷１１８弄１１８號","OBJECTID":202286},"geometry":{"x":171549.48000000045,"y":2540336.6400000025}},{"attributes":{"ID":202288,"DIS_CODE":0,"TOWNNAME":"東區","LI":"大智里","LIN":"28鄰","STREET":"德東街","SECT":" ","MAREA":" ","LANE":"２３５巷","ALLEY":"１１８弄","HOUSE_NO":"１２０號","E_COORD97":171554.89999999999,"N_COORD97":2540337.8900000001,"ADDRESS":"德東街２３５巷１１８弄１２０號","OBJECTID":202287},"geometry":{"x":171554.90000000037,"y":2540337.8900000025}},{"attributes":{"ID":202289,"DIS_CODE":0,"TOWNNAME":"東區","LI":"大智里","LIN":"28鄰","STREET":"德東街","SECT":" ","MAREA":" ","LANE":"２３５巷","ALLEY":"１１８弄","HOUSE_NO":"１２２號","E_COORD97":171560.53,"N_COORD97":2540339.3500000001,"ADDRESS":"德東街２３５巷１１８弄１２２號","OBJECTID":202288},"geometry":{"x":171560.53000000026,"y":2540339.3499999978}},{"attributes":{"ID":202290,"DIS_CODE":0,"TOWNNAME":"東區","LI":"大智里","LIN":"28鄰","STREET":"德東街","SECT":" ","MAREA":" ","LANE":"２３５巷","ALLEY":"１１８弄","HOUSE_NO":"１２６號","E_COORD97":171567.63,"N_COORD97":2540341.02,"ADDRESS":"德東街２３５巷１１８弄１２６號","OBJECTID":202289},"geometry":{"x":171567.63000000082,"y":2540341.0199999996}},{"attributes":{"ID":202291,"DIS_CODE":0,"TOWNNAME":"東區","LI":"大智里","LIN":"28鄰","STREET":"德東街","SECT":" ","MAREA":" ","LANE":"２３５巷","ALLEY":"１１８弄","HOUSE_NO":"１２８號","E_COORD97":171573.89000000001,"N_COORD97":2540330.1699999999,"ADDRESS":"德東街２３５巷１１８弄１２８號","OBJECTID":202290},"geometry":{"x":171573.8900000006,"y":2540330.1699999999}},{"attributes":{"ID":202292,"DIS_CODE":0,"TOWNNAME":"東區","LI":"大智里","LIN":"28鄰","STREET":"德東街","SECT":" ","MAREA":" ","LANE":"２３５巷","ALLEY":"１１８弄","HOUSE_NO":"１３０號","E_COORD97":171563.87,"N_COORD97":2540325.5800000001,"ADDRESS":"德東街２３５巷１１８弄１３０號","OBJECTID":202291},"geometry":{"x":171563.86999999918,"y":2540325.5800000019}},{"attributes":{"ID":202293,"DIS_CODE":0,"TOWNNAME":"永康區","LI":"復興里","LIN":"26鄰","STREET":"復興路","SECT":" ","MAREA":" ","LANE":"４２３巷","ALLEY":"８５弄","HOUSE_NO":"３６號","E_COORD97":172276.03,"N_COORD97":2544189.27,"ADDRESS":"復興路４２３巷８５弄３６號","OBJECTID":202292},"geometry":{"x":172276.03000000026,"y":2544189.2700000014}},{"attributes":{"ID":202294,"DIS_CODE":0,"TOWNNAME":"永康區","LI":"崑山里","LIN":"26鄰","STREET":"大灣路","SECT":" ","MAREA":" ","LANE":"９４２巷","ALLEY":"７１弄","HOUSE_NO":"１４２號","E_COORD97":173571.13,"N_COORD97":2544666.0800000001,"ADDRESS":"大灣路９４２巷７１弄１４２號","OBJECTID":202293},"geometry":{"x":173571.13000000082,"y":2544666.0800000019}},{"attributes":{"ID":202295,"DIS_CODE":0,"TOWNNAME":"永康區","LI":"大灣里","LIN":"26鄰","STREET":"民族路","SECT":" ","MAREA":" ","LANE":"１９０巷","ALLEY":"１弄","HOUSE_NO":"１５號","E_COORD97":175159.25,"N_COORD97":2545177.1899999999,"ADDRESS":"民族路１９０巷１弄１５號","OBJECTID":202294},"geometry":{"x":175159.25000000093,"y":2545177.1899999995}},{"attributes":{"ID":202296,"DIS_CODE":0,"TOWNNAME":"永康區","LI":"大灣里","LIN":"26鄰","STREET":"民族路","SECT":" ","MAREA":" ","LANE":"１９０巷","ALLEY":"１弄","HOUSE_NO":"１號","E_COORD97":175156.67999999999,"N_COORD97":2545118.1800000002,"ADDRESS":"民族路１９０巷１弄１號","OBJECTID":202295},"geometry":{"x":175156.6799999997,"y":2545118.1800000016}},{"attributes":{"ID":202297,"DIS_CODE":0,"TOWNNAME":"永康區","LI":"大灣里","LIN":"26鄰","STREET":"民族路","SECT":" ","MAREA":" ","LANE":"１９０巷","ALLEY":"１弄","HOUSE_NO":"５號","E_COORD97":175157.17000000001,"N_COORD97":2545134.9300000002,"ADDRESS":"民族路１９０巷１弄５號","OBJECTID":202296},"geometry":{"x":175157.16999999899,"y":2545134.9299999997}},{"attributes":{"ID":202298,"DIS_CODE":0,"TOWNNAME":"官田區","LI":"隆本里","LIN":"26鄰","STREET":"信義街","SECT":"二段","MAREA":" ","LANE":"４１巷","ALLEY":"２弄","HOUSE_NO":"１１號","E_COORD97":179725.92999999999,"N_COORD97":2566021.6099999999,"ADDRESS":"信義街二段４１巷２弄１１號","OBJECTID":202297},"geometry":{"x":179725.93000000063,"y":2566021.6099999994}},{"attributes":{"ID":202299,"DIS_CODE":0,"TOWNNAME":"官田區","LI":"隆本里","LIN":"26鄰","STREET":"信義街","SECT":"二段","MAREA":" ","LANE":"４１巷","ALLEY":"２弄","HOUSE_NO":"１３號","E_COORD97":179726,"N_COORD97":2566026.1699999999,"ADDRESS":"信義街二段４１巷２弄１３號","OBJECTID":202298},"geometry":{"x":179726.00000000093,"y":2566026.1699999999}},{"attributes":{"ID":202300,"DIS_CODE":0,"TOWNNAME":"官田區","LI":"隆本里","LIN":"26鄰","STREET":"信義街","SECT":"二段","MAREA":" ","LANE":"４１巷","ALLEY":"２弄","HOUSE_NO":"１５號","E_COORD97":179725.92999999999,"N_COORD97":2566030.0899999999,"ADDRESS":"信義街二段４１巷２弄１５號","OBJECTID":202299},"geometry":{"x":179725.93000000063,"y":2566030.0899999999}},{"attributes":{"ID":202301,"DIS_CODE":0,"TOWNNAME":"官田區","LI":"隆本里","LIN":"26鄰","STREET":"信義街","SECT":"二段","MAREA":" ","LANE":"４１巷","ALLEY":"２弄","HOUSE_NO":"１７號","E_COORD97":179726.10999999999,"N_COORD97":2566034.2200000002,"ADDRESS":"信義街二段４１巷２弄１７號","OBJECTID":202300},"geometry":{"x":179726.11000000034,"y":2566034.2200000025}},{"attributes":{"ID":202302,"DIS_CODE":0,"TOWNNAME":"白河區","LI":"虎山里","LIN":"3鄰","STREET":" ","SECT":" ","MAREA":"木屐寮","LANE":" ","ALLEY":" ","HOUSE_NO":"３５之１號","E_COORD97":194113.73999999999,"N_COORD97":2583779.6899999999,"ADDRESS":"木屐寮３５之１號","OBJECTID":202301},"geometry":{"x":194113.74000000022,"y":2583779.6899999995}},{"attributes":{"ID":202303,"DIS_CODE":0,"TOWNNAME":"官田區","LI":"隆本里","LIN":"26鄰","STREET":"信義街","SECT":"二段","MAREA":" ","LANE":"４１巷","ALLEY":"２弄","HOUSE_NO":"１９號","E_COORD97":179723.17000000001,"N_COORD97":2566044.27,"ADDRESS":"信義街二段４１巷２弄１９號","OBJECTID":202302},"geometry":{"x":179723.17000000086,"y":2566044.2699999996}},{"attributes":{"ID":202304,"DIS_CODE":0,"TOWNNAME":"官田區","LI":"隆本里","LIN":"26鄰","STREET":"信義街","SECT":"二段","MAREA":" ","LANE":"４１巷","ALLEY":"２弄","HOUSE_NO":"３號","E_COORD97":179720.67999999999,"N_COORD97":2565985.9199999999,"ADDRESS":"信義街二段４１巷２弄３號","OBJECTID":202303},"geometry":{"x":179720.68000000063,"y":2565985.9199999999}},{"attributes":{"ID":202305,"DIS_CODE":0,"TOWNNAME":"永康區","LI":"二王里","LIN":"26鄰","STREET":"中山南路","SECT":" ","MAREA":" ","LANE":"５４４巷","ALLEY":"９２弄","HOUSE_NO":"１１號","E_COORD97":172270.92999999999,"N_COORD97":2546227.0299999998,"ADDRESS":"中山南路５４４巷９２弄１１號","OBJECTID":202304},"geometry":{"x":172270.9299999997,"y":2546227.0300000031}},{"attributes":{"ID":202306,"DIS_CODE":0,"TOWNNAME":"安南區","LI":"安富里","LIN":"26鄰","STREET":"郡安路","SECT":"五段","MAREA":" ","LANE":"１６４巷","ALLEY":"２弄","HOUSE_NO":"１１號","E_COORD97":167612.04999999999,"N_COORD97":2547701.0499999998,"ADDRESS":"郡安路五段１６４巷２弄１１號","OBJECTID":202305},"geometry":{"x":167612.04999999981,"y":2547701.0500000026}},{"attributes":{"ID":202307,"DIS_CODE":0,"TOWNNAME":"後壁區","LI":"頂安里","LIN":"3鄰","STREET":" ","SECT":" ","MAREA":"頂寮","LANE":" ","ALLEY":" ","HOUSE_NO":"３３號","E_COORD97":183983.53,"N_COORD97":2581560.0299999998,"ADDRESS":"頂寮３３號","OBJECTID":202306},"geometry":{"x":183983.53000000026,"y":2581560.0299999993}},{"attributes":{"ID":202308,"DIS_CODE":0,"TOWNNAME":"安南區","LI":"安富里","LIN":"26鄰","STREET":"郡安路","SECT":"五段","MAREA":" ","LANE":"１６４巷","ALLEY":"２弄","HOUSE_NO":"１５號","E_COORD97":167600.35000000001,"N_COORD97":2547700.3700000001,"ADDRESS":"郡安路五段１６４巷２弄１５號","OBJECTID":202307},"geometry":{"x":167600.35000000149,"y":2547700.370000001}},{"attributes":{"ID":202309,"DIS_CODE":0,"TOWNNAME":"安南區","LI":"安富里","LIN":"26鄰","STREET":"郡安路","SECT":"五段","MAREA":" ","LANE":"１６４巷","ALLEY":"２弄","HOUSE_NO":"１６號","E_COORD97":167555.98999999999,"N_COORD97":2547712.5299999998,"ADDRESS":"郡安路五段１６４巷２弄１６號","OBJECTID":202308},"geometry":{"x":167555.99000000209,"y":2547712.5300000012}},{"attributes":{"ID":202310,"DIS_CODE":0,"TOWNNAME":"安南區","LI":"安富里","LIN":"26鄰","STREET":"郡安路","SECT":"五段","MAREA":" ","LANE":"１６４巷","ALLEY":"２弄","HOUSE_NO":"１７號","E_COORD97":167592.28,"N_COORD97":2547698.75,"ADDRESS":"郡安路五段１６４巷２弄１７號","OBJECTID":202309},"geometry":{"x":167592.28000000026,"y":2547698.7500000019}},{"attributes":{"ID":202311,"DIS_CODE":0,"TOWNNAME":"安南區","LI":"安富里","LIN":"26鄰","STREET":"郡安路","SECT":"五段","MAREA":" ","LANE":"１６４巷","ALLEY":"２弄","HOUSE_NO":"１９號","E_COORD97":167588.14999999999,"N_COORD97":2547696.25,"ADDRESS":"郡安路五段１６４巷２弄１９號","OBJECTID":202310},"geometry":{"x":167588.15000000037,"y":2547696.25}},{"attributes":{"ID":202312,"DIS_CODE":0,"TOWNNAME":"白河區","LI":"崎內里","LIN":"3鄰","STREET":" ","SECT":" ","MAREA":"內崎內","LANE":" ","ALLEY":" ","HOUSE_NO":"１５號","E_COORD97":195337.45000000001,"N_COORD97":2586372.96,"ADDRESS":"內崎內１５號","OBJECTID":202311},"geometry":{"x":195337.45000000112,"y":2586372.9600000028}},{"attributes":{"ID":202313,"DIS_CODE":0,"TOWNNAME":"白河區","LI":"崎內里","LIN":"3鄰","STREET":" ","SECT":" ","MAREA":"內崎內","LANE":" ","ALLEY":" ","HOUSE_NO":"１６號","E_COORD97":195372.20999999999,"N_COORD97":2586423.1699999999,"ADDRESS":"內崎內１６號","OBJECTID":202312},"geometry":{"x":195372.21000000183,"y":2586423.1700000037}},{"attributes":{"ID":202314,"DIS_CODE":0,"TOWNNAME":"白河區","LI":"崎內里","LIN":"3鄰","STREET":" ","SECT":" ","MAREA":"內崎內","LANE":" ","ALLEY":" ","HOUSE_NO":"１７之１號","E_COORD97":195409.85000000001,"N_COORD97":2586459.8300000001,"ADDRESS":"內崎內１７之１號","OBJECTID":202313},"geometry":{"x":195409.85000000149,"y":2586459.8300000019}},{"attributes":{"ID":202315,"DIS_CODE":0,"TOWNNAME":"白河區","LI":"崎內里","LIN":"3鄰","STREET":" ","SECT":" ","MAREA":"內崎內","LANE":" ","ALLEY":" ","HOUSE_NO":"１７之２號","E_COORD97":195323.29999999999,"N_COORD97":2586435.02,"ADDRESS":"內崎內１７之２號","OBJECTID":202314},"geometry":{"x":195323.29999999981,"y":2586435.0200000014}},{"attributes":{"ID":202316,"DIS_CODE":0,"TOWNNAME":"白河區","LI":"崎內里","LIN":"3鄰","STREET":" ","SECT":" ","MAREA":"內崎內","LANE":" ","ALLEY":" ","HOUSE_NO":"１８之１號","E_COORD97":195369.20000000001,"N_COORD97":2586639.1699999999,"ADDRESS":"內崎內１８之１號","OBJECTID":202315},"geometry":{"x":195369.20000000205,"y":2586639.1699999999}},{"attributes":{"ID":202317,"DIS_CODE":0,"TOWNNAME":"白河區","LI":"崎內里","LIN":"3鄰","STREET":" ","SECT":" ","MAREA":"內崎內","LANE":" ","ALLEY":" ","HOUSE_NO":"１８之２號","E_COORD97":195372.95999999999,"N_COORD97":2586620.54,"ADDRESS":"內崎內１８之２號","OBJECTID":202316},"geometry":{"x":195372.96000000089,"y":2586620.540000001}},{"attributes":{"ID":202318,"DIS_CODE":0,"TOWNNAME":"白河區","LI":"崎內里","LIN":"3鄰","STREET":" ","SECT":" ","MAREA":"內崎內","LANE":" ","ALLEY":" ","HOUSE_NO":"１８號","E_COORD97":195383.28,"N_COORD97":2586634.71,"ADDRESS":"內崎內１８號","OBJECTID":202317},"geometry":{"x":195383.28000000026,"y":2586634.7100000028}},{"attributes":{"ID":202319,"DIS_CODE":0,"TOWNNAME":"白河區","LI":"崎內里","LIN":"3鄰","STREET":" ","SECT":" ","MAREA":"內崎內","LANE":" ","ALLEY":" ","HOUSE_NO":"１９之１０號","E_COORD97":195503.85999999999,"N_COORD97":2586527.6099999999,"ADDRESS":"內崎內１９之１０號","OBJECTID":202318},"geometry":{"x":195503.8600000022,"y":2586527.6099999994}},{"attributes":{"ID":202320,"DIS_CODE":0,"TOWNNAME":"白河區","LI":"崎內里","LIN":"3鄰","STREET":" ","SECT":" ","MAREA":"內崎內","LANE":" ","ALLEY":" ","HOUSE_NO":"１９之１６號","E_COORD97":195591.75,"N_COORD97":2586788.9900000002,"ADDRESS":"內崎內１９之１６號","OBJECTID":202319},"geometry":{"x":195591.75,"y":2586788.9900000021}},{"attributes":{"ID":202321,"DIS_CODE":0,"TOWNNAME":"白河區","LI":"崎內里","LIN":"3鄰","STREET":" ","SECT":" ","MAREA":"內崎內","LANE":" ","ALLEY":" ","HOUSE_NO":"１９之４號","E_COORD97":195613.53,"N_COORD97":2586851.1200000001,"ADDRESS":"內崎內１９之４號","OBJECTID":202320},"geometry":{"x":195613.53000000119,"y":2586851.120000001}},{"attributes":{"ID":202322,"DIS_CODE":0,"TOWNNAME":"白河區","LI":"崎內里","LIN":"3鄰","STREET":" ","SECT":" ","MAREA":"內崎內","LANE":" ","ALLEY":" ","HOUSE_NO":"１９之５號","E_COORD97":195614.06,"N_COORD97":2586731.9300000002,"ADDRESS":"內崎內１９之５號","OBJECTID":202321},"geometry":{"x":195614.06000000052,"y":2586731.9299999997}},{"attributes":{"ID":202323,"DIS_CODE":0,"TOWNNAME":"白河區","LI":"崎內里","LIN":"3鄰","STREET":" ","SECT":" ","MAREA":"內崎內","LANE":" ","ALLEY":" ","HOUSE_NO":"１９之６號","E_COORD97":195604.01000000001,"N_COORD97":2586695.23,"ADDRESS":"內崎內１９之６號","OBJECTID":202322},"geometry":{"x":195604.01000000071,"y":2586695.2300000023}},{"attributes":{"ID":202324,"DIS_CODE":0,"TOWNNAME":"白河區","LI":"崎內里","LIN":"3鄰","STREET":" ","SECT":" ","MAREA":"內崎內","LANE":" ","ALLEY":" ","HOUSE_NO":"５１之９號","E_COORD97":196187.45999999999,"N_COORD97":2586048.1000000001,"ADDRESS":"內崎內５１之９號","OBJECTID":202323},"geometry":{"x":196187.45999999903,"y":2586048.1000000015}},{"attributes":{"ID":202325,"DIS_CODE":0,"TOWNNAME":"白河區","LI":"六溪里","LIN":"3鄰","STREET":" ","SECT":" ","MAREA":"六重溪","LANE":" ","ALLEY":" ","HOUSE_NO":"１號","E_COORD97":193582.82999999999,"N_COORD97":2578931.2400000002,"ADDRESS":"六重溪１號","OBJECTID":202324},"geometry":{"x":193582.83000000007,"y":2578931.2400000021}},{"attributes":{"ID":202326,"DIS_CODE":0,"TOWNNAME":"白河區","LI":"六溪里","LIN":"3鄰","STREET":" ","SECT":" ","MAREA":"六重溪","LANE":" ","ALLEY":" ","HOUSE_NO":"２號","E_COORD97":193671.10999999999,"N_COORD97":2579032.2599999998,"ADDRESS":"六重溪２號","OBJECTID":202325},"geometry":{"x":193671.11000000034,"y":2579032.2600000016}},{"attributes":{"ID":202327,"DIS_CODE":0,"TOWNNAME":"白河區","LI":"六溪里","LIN":"3鄰","STREET":" ","SECT":" ","MAREA":"六重溪","LANE":" ","ALLEY":" ","HOUSE_NO":"３號","E_COORD97":193688.37,"N_COORD97":2579077.0299999998,"ADDRESS":"六重溪３號","OBJECTID":202326},"geometry":{"x":193688.37000000104,"y":2579077.0300000012}},{"attributes":{"ID":202328,"DIS_CODE":0,"TOWNNAME":"白河區","LI":"六溪里","LIN":"3鄰","STREET":" ","SECT":" ","MAREA":"六重溪","LANE":" ","ALLEY":" ","HOUSE_NO":"４號","E_COORD97":193769.59,"N_COORD97":2579076.8300000001,"ADDRESS":"六重溪４號","OBJECTID":202327},"geometry":{"x":193769.59000000078,"y":2579076.8300000019}},{"attributes":{"ID":202329,"DIS_CODE":0,"TOWNNAME":"白河區","LI":"六溪里","LIN":"3鄰","STREET":" ","SECT":" ","MAREA":"六重溪","LANE":" ","ALLEY":" ","HOUSE_NO":"５之１號","E_COORD97":193813.75,"N_COORD97":2578910,"ADDRESS":"六重溪５之１號","OBJECTID":202328},"geometry":{"x":193813.75,"y":2578910}},{"attributes":{"ID":202330,"DIS_CODE":0,"TOWNNAME":"白河區","LI":"六溪里","LIN":"3鄰","STREET":" ","SECT":" ","MAREA":"六重溪","LANE":" ","ALLEY":" ","HOUSE_NO":"５號","E_COORD97":193802.64000000001,"N_COORD97":2579064.9900000002,"ADDRESS":"六重溪５號","OBJECTID":202329},"geometry":{"x":193802.64000000153,"y":2579064.9900000021}},{"attributes":{"ID":202331,"DIS_CODE":0,"TOWNNAME":"白河區","LI":"虎山里","LIN":"3鄰","STREET":" ","SECT":" ","MAREA":"木屐寮","LANE":" ","ALLEY":" ","HOUSE_NO":"３１號","E_COORD97":194304.75,"N_COORD97":2583843.3399999999,"ADDRESS":"木屐寮３１號","OBJECTID":202330},"geometry":{"x":194304.75000000093,"y":2583843.3400000017}},{"attributes":{"ID":202332,"DIS_CODE":0,"TOWNNAME":"白河區","LI":"虎山里","LIN":"3鄰","STREET":" ","SECT":" ","MAREA":"木屐寮","LANE":" ","ALLEY":" ","HOUSE_NO":"３２之５號","E_COORD97":194247.14999999999,"N_COORD97":2583633.29,"ADDRESS":"木屐寮３２之５號","OBJECTID":202331},"geometry":{"x":194247.15000000037,"y":2583633.2899999991}},{"attributes":{"ID":202333,"DIS_CODE":0,"TOWNNAME":"白河區","LI":"虎山里","LIN":"3鄰","STREET":" ","SECT":" ","MAREA":"木屐寮","LANE":" ","ALLEY":" ","HOUSE_NO":"３２之９號","E_COORD97":194156.20000000001,"N_COORD97":2583653.0099999998,"ADDRESS":"木屐寮３２之９號","OBJECTID":202332},"geometry":{"x":194156.20000000019,"y":2583653.0099999998}},{"attributes":{"ID":202334,"DIS_CODE":0,"TOWNNAME":"白河區","LI":"虎山里","LIN":"3鄰","STREET":" ","SECT":" ","MAREA":"木屐寮","LANE":" ","ALLEY":" ","HOUSE_NO":"３２號","E_COORD97":194305.91,"N_COORD97":2583815.54,"ADDRESS":"木屐寮３２號","OBJECTID":202333},"geometry":{"x":194305.91000000015,"y":2583815.5399999991}},{"attributes":{"ID":202335,"DIS_CODE":0,"TOWNNAME":"白河區","LI":"虎山里","LIN":"3鄰","STREET":" ","SECT":" ","MAREA":"木屐寮","LANE":" ","ALLEY":" ","HOUSE_NO":"３４號","E_COORD97":194312.01000000001,"N_COORD97":2583865.0299999998,"ADDRESS":"木屐寮３４號","OBJECTID":202334},"geometry":{"x":194312.00999999885,"y":2583865.0300000012}},{"attributes":{"ID":202336,"DIS_CODE":0,"TOWNNAME":"安南區","LI":"安富里","LIN":"26鄰","STREET":"郡安路","SECT":"五段","MAREA":" ","LANE":"１６４巷","ALLEY":"２弄","HOUSE_NO":"１號","E_COORD97":167637.97,"N_COORD97":2547708.1499999999,"ADDRESS":"郡安路五段１６４巷２弄１號","OBJECTID":202335},"geometry":{"x":167637.96999999974,"y":2547708.1500000004}},{"attributes":{"ID":202337,"DIS_CODE":0,"TOWNNAME":"安南區","LI":"安富里","LIN":"26鄰","STREET":"郡安路","SECT":"五段","MAREA":" ","LANE":"１６４巷","ALLEY":"２弄","HOUSE_NO":"２５號","E_COORD97":167569.57000000001,"N_COORD97":2547693.96,"ADDRESS":"郡安路五段１６４巷２弄２５號","OBJECTID":202336},"geometry":{"x":167569.57000000123,"y":2547693.9600000046}},{"attributes":{"ID":202338,"DIS_CODE":0,"TOWNNAME":"安南區","LI":"安富里","LIN":"26鄰","STREET":"郡安路","SECT":"五段","MAREA":" ","LANE":"１６４巷","ALLEY":"２弄","HOUSE_NO":"２７號","E_COORD97":167565.20999999999,"N_COORD97":2547691.6699999999,"ADDRESS":"郡安路五段１６４巷２弄２７號","OBJECTID":202337},"geometry":{"x":167565.20999999996,"y":2547691.6700000037}},{"attributes":{"ID":202339,"DIS_CODE":0,"TOWNNAME":"安南區","LI":"安富里","LIN":"26鄰","STREET":"郡安路","SECT":"五段","MAREA":" ","LANE":"１６４巷","ALLEY":"２弄","HOUSE_NO":"３１號","E_COORD97":167555.12,"N_COORD97":2547691.21,"ADDRESS":"郡安路五段１６４巷２弄３１號","OBJECTID":202338},"geometry":{"x":167555.12000000104,"y":2547691.2100000009}},{"attributes":{"ID":202340,"DIS_CODE":0,"TOWNNAME":"安南區","LI":"安富里","LIN":"26鄰","STREET":"郡安路","SECT":"五段","MAREA":" ","LANE":"１６４巷","ALLEY":"２弄","HOUSE_NO":"３號","E_COORD97":167634.53,"N_COORD97":2547705.6400000001,"ADDRESS":"郡安路五段１６４巷２弄３號","OBJECTID":202339},"geometry":{"x":167634.53000000026,"y":2547705.6399999987}},{"attributes":{"ID":202341,"DIS_CODE":0,"TOWNNAME":"安南區","LI":"安富里","LIN":"26鄰","STREET":"郡安路","SECT":"五段","MAREA":" ","LANE":"１６４巷","ALLEY":"２弄","HOUSE_NO":"４號","E_COORD97":167604.20000000001,"N_COORD97":2547720.5499999998,"ADDRESS":"郡安路五段１６４巷２弄４號","OBJECTID":202340},"geometry":{"x":167604.20000000112,"y":2547720.5500000026}},{"attributes":{"ID":202342,"DIS_CODE":0,"TOWNNAME":"新市區","LI":"新和里","LIN":"40鄰","STREET":"勝利街","SECT":" ","MAREA":" ","LANE":" ","ALLEY":" ","HOUSE_NO":"３９號","E_COORD97":177290.35000000001,"N_COORD97":2552940.5099999998,"ADDRESS":"勝利街３９號","OBJECTID":202341},"geometry":{"x":177290.35000000056,"y":2552940.5100000035}},{"attributes":{"ID":202343,"DIS_CODE":0,"TOWNNAME":"新市區","LI":"新和里","LIN":"40鄰","STREET":"信義街","SECT":" ","MAREA":" ","LANE":" ","ALLEY":" ","HOUSE_NO":"１０３號","E_COORD97":177209.64999999999,"N_COORD97":2553001.27,"ADDRESS":"信義街１０３號","OBJECTID":202342},"geometry":{"x":177209.6500000013,"y":2553001.2700000014}},{"attributes":{"ID":202344,"DIS_CODE":0,"TOWNNAME":"新市區","LI":"新和里","LIN":"40鄰","STREET":"信義街","SECT":" ","MAREA":" ","LANE":" ","ALLEY":" ","HOUSE_NO":"６７之１號","E_COORD97":177189.28,"N_COORD97":2552884.1699999999,"ADDRESS":"信義街６７之１號","OBJECTID":202343},"geometry":{"x":177189.27999999933,"y":2552884.1699999999}},{"attributes":{"ID":202345,"DIS_CODE":0,"TOWNNAME":"新市區","LI":"新和里","LIN":"40鄰","STREET":"信義街","SECT":" ","MAREA":" ","LANE":" ","ALLEY":" ","HOUSE_NO":"６７之２號","E_COORD97":177183.29000000001,"N_COORD97":2552882.3500000001,"ADDRESS":"信義街６７之２號","OBJECTID":202344},"geometry":{"x":177183.29000000004,"y":2552882.3499999996}},{"attributes":{"ID":202346,"DIS_CODE":0,"TOWNNAME":"安南區","LI":"安富里","LIN":"26鄰","STREET":"郡安路","SECT":"五段","MAREA":" ","LANE":"１６４巷","ALLEY":"２弄","HOUSE_NO":"５號","E_COORD97":167629.70999999999,"N_COORD97":2547707.9300000002,"ADDRESS":"郡安路五段１６４巷２弄５號","OBJECTID":202345},"geometry":{"x":167629.70999999996,"y":2547707.9300000016}},{"attributes":{"ID":202347,"DIS_CODE":0,"TOWNNAME":"安南區","LI":"安富里","LIN":"26鄰","STREET":"郡安路","SECT":"五段","MAREA":" ","LANE":"１６４巷","ALLEY":"２弄","HOUSE_NO":"６號","E_COORD97":167593.64999999999,"N_COORD97":2547718.7200000002,"ADDRESS":"郡安路五段１６４巷２弄６號","OBJECTID":202346},"geometry":{"x":167593.65000000037,"y":2547718.7199999988}},{"attributes":{"ID":202348,"DIS_CODE":0,"TOWNNAME":"安南區","LI":"安富里","LIN":"26鄰","STREET":"郡安路","SECT":"五段","MAREA":" ","LANE":"１６４巷","ALLEY":"２弄","HOUSE_NO":"７號","E_COORD97":167625.12,"N_COORD97":2547705.4100000001,"ADDRESS":"郡安路五段１６４巷２弄７號","OBJECTID":202347},"geometry":{"x":167625.12000000104,"y":2547705.4100000001}},{"attributes":{"ID":202349,"DIS_CODE":0,"TOWNNAME":"安南區","LI":"安富里","LIN":"26鄰","STREET":"郡安路","SECT":"五段","MAREA":" ","LANE":"１６４巷","ALLEY":"２弄","HOUSE_NO":"９號","E_COORD97":167619.85000000001,"N_COORD97":2547703.5699999998,"ADDRESS":"郡安路五段１６４巷２弄９號","OBJECTID":202348},"geometry":{"x":167619.84999999963,"y":2547703.5700000022}},{"attributes":{"ID":202350,"DIS_CODE":0,"TOWNNAME":"永康區","LI":"東灣里","LIN":"26鄰","STREET":"大灣東路","SECT":" ","MAREA":" ","LANE":"３３０巷","ALLEY":"３３弄","HOUSE_NO":"１號","E_COORD97":175070.04000000001,"N_COORD97":2544485.6699999999,"ADDRESS":"大灣東路３３０巷３３弄１號","OBJECTID":202349},"geometry":{"x":175070.03999999911,"y":2544485.6700000018}},{"attributes":{"ID":202351,"DIS_CODE":0,"TOWNNAME":"永康區","LI":"勝利里","LIN":"26鄰","STREET":"中華路","SECT":" ","MAREA":" ","LANE":"１２１巷","ALLEY":"２１弄","HOUSE_NO":"１７號","E_COORD97":171482.69,"N_COORD97":2544690.98,"ADDRESS":"中華路１２１巷２１弄１７號","OBJECTID":202350},"geometry":{"x":171482.69000000134,"y":2544690.9800000023}},{"attributes":{"ID":202352,"DIS_CODE":0,"TOWNNAME":"永康區","LI":"東灣里","LIN":"26鄰","STREET":"民族路","SECT":" ","MAREA":" ","LANE":"１巷","ALLEY":"１３０弄","HOUSE_NO":"８號","E_COORD97":175462.54999999999,"N_COORD97":2543920.5499999998,"ADDRESS":"民族路１巷１３０弄８號","OBJECTID":202351},"geometry":{"x":175462.54999999981,"y":2543920.5500000026}},{"attributes":{"ID":202353,"DIS_CODE":0,"TOWNNAME":"新營區","LI":"南紙里","LIN":"26鄰","STREET":"建業路","SECT":" ","MAREA":" ","LANE":"２２７巷","ALLEY":"２２弄","HOUSE_NO":"５號","E_COORD97":178091.22,"N_COORD97":2577357,"ADDRESS":"建業路２２７巷２２弄５號","OBJECTID":202352},"geometry":{"x":178091.2200000016,"y":2577357}},{"attributes":{"ID":202354,"DIS_CODE":0,"TOWNNAME":"安平區","LI":"華平里","LIN":"26鄰","STREET":"健康二街","SECT":" ","MAREA":" ","LANE":"４１９巷","ALLEY":"３５弄","HOUSE_NO":"１號","E_COORD97":165215.56,"N_COORD97":2543698.5800000001,"ADDRESS":"健康二街４１９巷３５弄１號","OBJECTID":202353},"geometry":{"x":165215.56000000052,"y":2543698.5800000038}},{"attributes":{"ID":202355,"DIS_CODE":0,"TOWNNAME":"安平區","LI":"華平里","LIN":"26鄰","STREET":"健康二街","SECT":" ","MAREA":" ","LANE":"４１９巷","ALLEY":"３５弄","HOUSE_NO":"２號","E_COORD97":165203.29000000001,"N_COORD97":2543699.73,"ADDRESS":"健康二街４１９巷３５弄２號","OBJECTID":202354},"geometry":{"x":165203.29000000004,"y":2543699.7300000004}},{"attributes":{"ID":202356,"DIS_CODE":0,"TOWNNAME":"安平區","LI":"華平里","LIN":"26鄰","STREET":"健康二街","SECT":" ","MAREA":" ","LANE":"４１９巷","ALLEY":"３５弄","HOUSE_NO":"３號","E_COORD97":165214.51999999999,"N_COORD97":2543694.79,"ADDRESS":"健康二街４１９巷３５弄３號","OBJECTID":202355},"geometry":{"x":165214.52000000048,"y":2543694.7899999991}},{"attributes":{"ID":202357,"DIS_CODE":0,"TOWNNAME":"安平區","LI":"華平里","LIN":"26鄰","STREET":"健康二街","SECT":" ","MAREA":" ","LANE":"４１９巷","ALLEY":"３５弄","HOUSE_NO":"４號","E_COORD97":165203.29000000001,"N_COORD97":2543695.9300000002,"ADDRESS":"健康二街４１９巷３５弄４號","OBJECTID":202356},"geometry":{"x":165203.29000000004,"y":2543695.9300000016}},{"attributes":{"ID":202358,"DIS_CODE":0,"TOWNNAME":"安平區","LI":"建平里","LIN":"26鄰","STREET":"建平九街","SECT":" ","MAREA":" ","LANE":"６０巷","ALLEY":"１３弄","HOUSE_NO":"１１號","E_COORD97":165974.88,"N_COORD97":2543572.1000000001,"ADDRESS":"建平九街６０巷１３弄１１號","OBJECTID":202357},"geometry":{"x":165974.88000000082,"y":2543572.0999999978}},{"attributes":{"ID":202359,"DIS_CODE":0,"TOWNNAME":"安平區","LI":"建平里","LIN":"26鄰","STREET":"建平九街","SECT":" ","MAREA":" ","LANE":"６０巷","ALLEY":"１３弄","HOUSE_NO":"１２號","E_COORD97":165976.78,"N_COORD97":2543593.96,"ADDRESS":"建平九街６０巷１３弄１２號","OBJECTID":202358},"geometry":{"x":165976.78000000026,"y":2543593.9600000009}},{"attributes":{"ID":202360,"DIS_CODE":0,"TOWNNAME":"安平區","LI":"建平里","LIN":"26鄰","STREET":"建平九街","SECT":" ","MAREA":" ","LANE":"６０巷","ALLEY":"１３弄","HOUSE_NO":"１３號","E_COORD97":165968.98999999999,"N_COORD97":2543571.6200000001,"ADDRESS":"建平九街６０巷１３弄１３號","OBJECTID":202359},"geometry":{"x":165968.99000000022,"y":2543571.6200000029}},{"attributes":{"ID":202361,"DIS_CODE":0,"TOWNNAME":"安平區","LI":"建平里","LIN":"26鄰","STREET":"建平九街","SECT":" ","MAREA":" ","LANE":"６０巷","ALLEY":"１３弄","HOUSE_NO":"１５號","E_COORD97":165964.85000000001,"N_COORD97":2543573.3700000001,"ADDRESS":"建平九街６０巷１３弄１５號","OBJECTID":202360},"geometry":{"x":165964.85000000056,"y":2543573.3700000029}},{"attributes":{"ID":202362,"DIS_CODE":0,"TOWNNAME":"善化區","LI":"光文里","LIN":"9鄰","STREET":"民生路","SECT":" ","MAREA":" ","LANE":"２２巷","ALLEY":" ","HOUSE_NO":"８號","E_COORD97":178870.29000000001,"N_COORD97":2559061.2599999998,"ADDRESS":"民生路２２巷８號","OBJECTID":202361},"geometry":{"x":178870.29000000004,"y":2559061.2599999998}},{"attributes":{"ID":202363,"DIS_CODE":0,"TOWNNAME":"中西區","LI":"法華里","LIN":"9鄰","STREET":"五妃街","SECT":" ","MAREA":" ","LANE":" ","ALLEY":" ","HOUSE_NO":"１５號八樓之８","E_COORD97":169057.64999999999,"N_COORD97":2542555.8199999998,"ADDRESS":"五妃街１５號八樓之８","OBJECTID":202362},"geometry":{"x":169057.6500000013,"y":2542555.8200000022}},{"attributes":{"ID":202364,"DIS_CODE":0,"TOWNNAME":"中西區","LI":"法華里","LIN":"9鄰","STREET":"五妃街","SECT":" ","MAREA":" ","LANE":" ","ALLEY":" ","HOUSE_NO":"１５號三樓之４","E_COORD97":169057.64999999999,"N_COORD97":2542555.8199999998,"ADDRESS":"五妃街１５號三樓之４","OBJECTID":202363},"geometry":{"x":169057.6500000013,"y":2542555.8200000022}},{"attributes":{"ID":202365,"DIS_CODE":0,"TOWNNAME":"中西區","LI":"天后里","LIN":"9鄰","STREET":"新美街","SECT":" ","MAREA":" ","LANE":" ","ALLEY":" ","HOUSE_NO":"１２７號二樓","E_COORD97":168068.79999999999,"N_COORD97":2544174.1800000002,"ADDRESS":"新美街１２７號二樓","OBJECTID":202364},"geometry":{"x":168068.80000000168,"y":2544174.1799999997}},{"attributes":{"ID":202366,"DIS_CODE":0,"TOWNNAME":"中西區","LI":"天后里","LIN":"9鄰","STREET":"新美街","SECT":" ","MAREA":" ","LANE":" ","ALLEY":" ","HOUSE_NO":"１２７號三樓","E_COORD97":168068.79999999999,"N_COORD97":2544174.1800000002,"ADDRESS":"新美街１２７號三樓","OBJECTID":202365},"geometry":{"x":168068.80000000168,"y":2544174.1799999997}},{"attributes":{"ID":202367,"DIS_CODE":0,"TOWNNAME":"白河區","LI":"虎山里","LIN":"3鄰","STREET":" ","SECT":" ","MAREA":"木屐寮","LANE":" ","ALLEY":" ","HOUSE_NO":"３５號","E_COORD97":194338.66,"N_COORD97":2583829.27,"ADDRESS":"木屐寮３５號","OBJECTID":202366},"geometry":{"x":194338.66000000201,"y":2583829.2700000014}},{"attributes":{"ID":202368,"DIS_CODE":0,"TOWNNAME":"白河區","LI":"虎山里","LIN":"3鄰","STREET":" ","SECT":" ","MAREA":"木屐寮","LANE":" ","ALLEY":" ","HOUSE_NO":"３６號","E_COORD97":194335.76000000001,"N_COORD97":2583850.9100000001,"ADDRESS":"木屐寮３６號","OBJECTID":202367},"geometry":{"x":194335.75999999885,"y":2583850.9100000001}},{"attributes":{"ID":202369,"DIS_CODE":0,"TOWNNAME":"白河區","LI":"虎山里","LIN":"3鄰","STREET":" ","SECT":" ","MAREA":"木屐寮","LANE":" ","ALLEY":" ","HOUSE_NO":"３７號","E_COORD97":194405.07999999999,"N_COORD97":2583882.1200000001,"ADDRESS":"木屐寮３７號","OBJECTID":202368},"geometry":{"x":194405.07999999914,"y":2583882.1200000029}},{"attributes":{"ID":202370,"DIS_CODE":0,"TOWNNAME":"白河區","LI":"虎山里","LIN":"3鄰","STREET":" ","SECT":" ","MAREA":"木屐寮","LANE":" ","ALLEY":" ","HOUSE_NO":"３８號","E_COORD97":194345.12,"N_COORD97":2583895.8599999999,"ADDRESS":"木屐寮３８號","OBJECTID":202369},"geometry":{"x":194345.12000000011,"y":2583895.8600000013}},{"attributes":{"ID":202371,"DIS_CODE":0,"TOWNNAME":"白河區","LI":"虎山里","LIN":"3鄰","STREET":" ","SECT":" ","MAREA":"木屐寮","LANE":" ","ALLEY":" ","HOUSE_NO":"４２號","E_COORD97":194325.19,"N_COORD97":2583905.5600000001,"ADDRESS":"木屐寮４２號","OBJECTID":202370},"geometry":{"x":194325.19000000227,"y":2583905.5600000042}},{"attributes":{"ID":202372,"DIS_CODE":0,"TOWNNAME":"白河區","LI":"虎山里","LIN":"3鄰","STREET":" ","SECT":" ","MAREA":"木屐寮","LANE":" ","ALLEY":" ","HOUSE_NO":"４３號","E_COORD97":194291.98999999999,"N_COORD97":2583934.48,"ADDRESS":"木屐寮４３號","OBJECTID":202371},"geometry":{"x":194291.99000000022,"y":2583934.4800000023}},{"attributes":{"ID":202373,"DIS_CODE":0,"TOWNNAME":"白河區","LI":"虎山里","LIN":"3鄰","STREET":" ","SECT":" ","MAREA":"木屐寮","LANE":" ","ALLEY":" ","HOUSE_NO":"４５號","E_COORD97":194282.59,"N_COORD97":2583903.3199999998,"ADDRESS":"木屐寮４５號","OBJECTID":202372},"geometry":{"x":194282.58999999985,"y":2583903.320000004}},{"attributes":{"ID":202374,"DIS_CODE":0,"TOWNNAME":"白河區","LI":"虎山里","LIN":"3鄰","STREET":" ","SECT":" ","MAREA":"木屐寮","LANE":" ","ALLEY":" ","HOUSE_NO":"４６之１號","E_COORD97":194232.32999999999,"N_COORD97":2583886.4700000002,"ADDRESS":"木屐寮４６之１號","OBJECTID":202373},"geometry":{"x":194232.33000000194,"y":2583886.4700000025}},{"attributes":{"ID":202375,"DIS_CODE":0,"TOWNNAME":"白河區","LI":"虎山里","LIN":"3鄰","STREET":" ","SECT":" ","MAREA":"木屐寮","LANE":" ","ALLEY":" ","HOUSE_NO":"４６之３號","E_COORD97":194254.92000000001,"N_COORD97":2583924.3199999998,"ADDRESS":"木屐寮４６之３號","OBJECTID":202374},"geometry":{"x":194254.91999999993,"y":2583924.3200000022}},{"attributes":{"ID":202376,"DIS_CODE":0,"TOWNNAME":"將軍區","LI":"苓和里","LIN":"3鄰","STREET":" ","SECT":" ","MAREA":"苓和","LANE":" ","ALLEY":" ","HOUSE_NO":"２３之１號","E_COORD97":164724.56,"N_COORD97":2568899.1499999999,"ADDRESS":"苓和２３之１號","OBJECTID":202375},"geometry":{"x":164724.56000000052,"y":2568899.1500000022}},{"attributes":{"ID":202377,"DIS_CODE":0,"TOWNNAME":"將軍區","LI":"苓和里","LIN":"3鄰","STREET":" ","SECT":" ","MAREA":"苓和","LANE":" ","ALLEY":" ","HOUSE_NO":"２３之２號","E_COORD97":164721.54000000001,"N_COORD97":2568915.77,"ADDRESS":"苓和２３之２號","OBJECTID":202376},"geometry":{"x":164721.54000000097,"y":2568915.7700000014}},{"attributes":{"ID":202378,"DIS_CODE":0,"TOWNNAME":"大內區","LI":"大內里","LIN":"1鄰","STREET":" ","SECT":" ","MAREA":"內庄","LANE":" ","ALLEY":" ","HOUSE_NO":"７號之４","E_COORD97":184426.34,"N_COORD97":2557589.2999999998,"ADDRESS":"內庄７號之４","OBJECTID":202377},"geometry":{"x":184426.33999999985,"y":2557589.3000000026}},{"attributes":{"ID":202379,"DIS_CODE":0,"TOWNNAME":"將軍區","LI":"苓和里","LIN":"3鄰","STREET":" ","SECT":" ","MAREA":"苓和","LANE":" ","ALLEY":" ","HOUSE_NO":"２３之３號","E_COORD97":164745.01999999999,"N_COORD97":2568902.8300000001,"ADDRESS":"苓和２３之３號","OBJECTID":202378},"geometry":{"x":164745.02000000048,"y":2568902.8300000001}},{"attributes":{"ID":202380,"DIS_CODE":0,"TOWNNAME":"將軍區","LI":"苓和里","LIN":"3鄰","STREET":" ","SECT":" ","MAREA":"苓和","LANE":" ","ALLEY":" ","HOUSE_NO":"２３之４號","E_COORD97":164742.75,"N_COORD97":2568918.0699999998,"ADDRESS":"苓和２３之４號","OBJECTID":202379},"geometry":{"x":164742.75,"y":2568918.0700000003}},{"attributes":{"ID":202381,"DIS_CODE":0,"TOWNNAME":"將軍區","LI":"苓和里","LIN":"3鄰","STREET":" ","SECT":" ","MAREA":"苓和","LANE":" ","ALLEY":" ","HOUSE_NO":"２３之５號","E_COORD97":164750.32999999999,"N_COORD97":2568916.0499999998,"ADDRESS":"苓和２３之５號","OBJECTID":202380},"geometry":{"x":164750.33000000101,"y":2568916.0500000007}},{"attributes":{"ID":202382,"DIS_CODE":0,"TOWNNAME":"將軍區","LI":"苓和里","LIN":"3鄰","STREET":" ","SECT":" ","MAREA":"苓和","LANE":" ","ALLEY":" ","HOUSE_NO":"２３號","E_COORD97":164740.29000000001,"N_COORD97":2568943.8799999999,"ADDRESS":"苓和２３號","OBJECTID":202381},"geometry":{"x":164740.29000000097,"y":2568943.8800000008}},{"attributes":{"ID":202383,"DIS_CODE":0,"TOWNNAME":"將軍區","LI":"苓和里","LIN":"3鄰","STREET":" ","SECT":" ","MAREA":"苓和","LANE":" ","ALLEY":" ","HOUSE_NO":"２４之１號","E_COORD97":164709.95000000001,"N_COORD97":2568901.3500000001,"ADDRESS":"苓和２４之１號","OBJECTID":202382},"geometry":{"x":164709.95000000205,"y":2568901.3500000015}},{"attributes":{"ID":202384,"DIS_CODE":0,"TOWNNAME":"將軍區","LI":"苓和里","LIN":"3鄰","STREET":" ","SECT":" ","MAREA":"苓和","LANE":" ","ALLEY":" ","HOUSE_NO":"２４號","E_COORD97":164699.28,"N_COORD97":2568901.7200000002,"ADDRESS":"苓和２４號","OBJECTID":202383},"geometry":{"x":164699.28000000212,"y":2568901.7200000007}},{"attributes":{"ID":202385,"DIS_CODE":0,"TOWNNAME":"將軍區","LI":"苓和里","LIN":"3鄰","STREET":" ","SECT":" ","MAREA":"苓和","LANE":" ","ALLEY":" ","HOUSE_NO":"２５之１號","E_COORD97":164690.03,"N_COORD97":2568899.8399999999,"ADDRESS":"苓和２５之１號","OBJECTID":202384},"geometry":{"x":164690.03000000026,"y":2568899.8399999999}},{"attributes":{"ID":202386,"DIS_CODE":0,"TOWNNAME":"將軍區","LI":"苓和里","LIN":"3鄰","STREET":" ","SECT":" ","MAREA":"苓和","LANE":" ","ALLEY":" ","HOUSE_NO":"２５之５號","E_COORD97":164675.37,"N_COORD97":2568908.0800000001,"ADDRESS":"苓和２５之５號","OBJECTID":202385},"geometry":{"x":164675.37000000104,"y":2568908.0800000001}},{"attributes":{"ID":202387,"DIS_CODE":0,"TOWNNAME":"將軍區","LI":"苓和里","LIN":"3鄰","STREET":" ","SECT":" ","MAREA":"苓和","LANE":" ","ALLEY":" ","HOUSE_NO":"２６號","E_COORD97":164696.45999999999,"N_COORD97":2568915.9500000002,"ADDRESS":"苓和２６號","OBJECTID":202386},"geometry":{"x":164696.46000000089,"y":2568915.950000003}},{"attributes":{"ID":202388,"DIS_CODE":0,"TOWNNAME":"將軍區","LI":"苓和里","LIN":"3鄰","STREET":" ","SECT":" ","MAREA":"苓和","LANE":" ","ALLEY":" ","HOUSE_NO":"２７之１號","E_COORD97":164678.73000000001,"N_COORD97":2568937.9399999999,"ADDRESS":"苓和２７之１號","OBJECTID":202387},"geometry":{"x":164678.73000000045,"y":2568937.9400000013}},{"attributes":{"ID":202389,"DIS_CODE":0,"TOWNNAME":"將軍區","LI":"苓和里","LIN":"3鄰","STREET":" ","SECT":" ","MAREA":"苓和","LANE":" ","ALLEY":" ","HOUSE_NO":"２７之２號","E_COORD97":164680.98999999999,"N_COORD97":2568913.8199999998,"ADDRESS":"苓和２７之２號","OBJECTID":202388},"geometry":{"x":164680.99000000115,"y":2568913.8200000003}},{"attributes":{"ID":202390,"DIS_CODE":0,"TOWNNAME":"將軍區","LI":"保源里","LIN":"3鄰","STREET":" ","SECT":" ","MAREA":"苓保","LANE":" ","ALLEY":" ","HOUSE_NO":"２３之１號","E_COORD97":164560.60999999999,"N_COORD97":2568869.54,"ADDRESS":"苓保２３之１號","OBJECTID":202389},"geometry":{"x":164560.61000000127,"y":2568869.5399999991}},{"attributes":{"ID":202391,"DIS_CODE":0,"TOWNNAME":"將軍區","LI":"保源里","LIN":"3鄰","STREET":" ","SECT":" ","MAREA":"苓保","LANE":" ","ALLEY":" ","HOUSE_NO":"２３號","E_COORD97":164576.70000000001,"N_COORD97":2568871.48,"ADDRESS":"苓保２３號","OBJECTID":202390},"geometry":{"x":164576.70000000112,"y":2568871.4800000004}},{"attributes":{"ID":202392,"DIS_CODE":0,"TOWNNAME":"將軍區","LI":"保源里","LIN":"3鄰","STREET":" ","SECT":" ","MAREA":"苓保","LANE":" ","ALLEY":" ","HOUSE_NO":"２４號","E_COORD97":164568.09,"N_COORD97":2568842.4399999999,"ADDRESS":"苓保２４號","OBJECTID":202391},"geometry":{"x":164568.09000000078,"y":2568842.4400000013}},{"attributes":{"ID":202393,"DIS_CODE":0,"TOWNNAME":"將軍區","LI":"保源里","LIN":"3鄰","STREET":" ","SECT":" ","MAREA":"苓保","LANE":" ","ALLEY":" ","HOUSE_NO":"２８之１號","E_COORD97":164556.98999999999,"N_COORD97":2568812.6499999999,"ADDRESS":"苓保２８之１號","OBJECTID":202392},"geometry":{"x":164556.98999999929,"y":2568812.6500000004}},{"attributes":{"ID":202394,"DIS_CODE":0,"TOWNNAME":"將軍區","LI":"保源里","LIN":"3鄰","STREET":" ","SECT":" ","MAREA":"苓保","LANE":" ","ALLEY":" ","HOUSE_NO":"２８號","E_COORD97":164559.92000000001,"N_COORD97":2568806.6699999999,"ADDRESS":"苓保２８號","OBJECTID":202393},"geometry":{"x":164559.91999999993,"y":2568806.6700000037}},{"attributes":{"ID":202395,"DIS_CODE":0,"TOWNNAME":"將軍區","LI":"保源里","LIN":"3鄰","STREET":" ","SECT":" ","MAREA":"苓保","LANE":" ","ALLEY":" ","HOUSE_NO":"２９之１號","E_COORD97":164551.97,"N_COORD97":2568795.6499999999,"ADDRESS":"苓保２９之１號","OBJECTID":202394},"geometry":{"x":164551.97000000067,"y":2568795.6500000004}},{"attributes":{"ID":202396,"DIS_CODE":0,"TOWNNAME":"將軍區","LI":"保源里","LIN":"3鄰","STREET":" ","SECT":" ","MAREA":"苓保","LANE":" ","ALLEY":" ","HOUSE_NO":"２９號","E_COORD97":164554.57000000001,"N_COORD97":2568786.2200000002,"ADDRESS":"苓保２９號","OBJECTID":202395},"geometry":{"x":164554.5700000003,"y":2568786.2200000007}},{"attributes":{"ID":202397,"DIS_CODE":0,"TOWNNAME":"將軍區","LI":"保源里","LIN":"3鄰","STREET":" ","SECT":" ","MAREA":"苓保","LANE":" ","ALLEY":" ","HOUSE_NO":"３３號","E_COORD97":164591.14999999999,"N_COORD97":2568756.7400000002,"ADDRESS":"苓保３３號","OBJECTID":202396},"geometry":{"x":164591.15000000037,"y":2568756.7400000021}},{"attributes":{"ID":202398,"DIS_CODE":0,"TOWNNAME":"將軍區","LI":"將富里","LIN":"3鄰","STREET":" ","SECT":" ","MAREA":"將富","LANE":" ","ALLEY":" ","HOUSE_NO":"２６號","E_COORD97":161748.29000000001,"N_COORD97":2568544.27,"ADDRESS":"將富２６號","OBJECTID":202397},"geometry":{"x":161748.29000000097,"y":2568544.2699999996}},{"attributes":{"ID":202399,"DIS_CODE":0,"TOWNNAME":"將軍區","LI":"將富里","LIN":"3鄰","STREET":" ","SECT":" ","MAREA":"將富","LANE":" ","ALLEY":" ","HOUSE_NO":"２７號","E_COORD97":161724.06,"N_COORD97":2568525.3500000001,"ADDRESS":"將富２７號","OBJECTID":202398},"geometry":{"x":161724.06000000052,"y":2568525.3500000015}},{"attributes":{"ID":202400,"DIS_CODE":0,"TOWNNAME":"將軍區","LI":"將富里","LIN":"3鄰","STREET":" ","SECT":" ","MAREA":"將富","LANE":" ","ALLEY":" ","HOUSE_NO":"２８之１０號","E_COORD97":161619.42000000001,"N_COORD97":2568500.6800000002,"ADDRESS":"將富２８之１０號","OBJECTID":202399},"geometry":{"x":161619.42000000179,"y":2568500.6799999997}},{"attributes":{"ID":202401,"DIS_CODE":0,"TOWNNAME":"將軍區","LI":"將富里","LIN":"3鄰","STREET":" ","SECT":" ","MAREA":"將富","LANE":" ","ALLEY":" ","HOUSE_NO":"２８之１１號","E_COORD97":161614.97,"N_COORD97":2568501.8900000001,"ADDRESS":"將富２８之１１號","OBJECTID":202400},"geometry":{"x":161614.96999999974,"y":2568501.8900000025}}]}