{"displayFieldName":"TOWNNAME","fieldAliases":{"ID":"ID","DIS_CODE":"DIS_CODE","TOWNNAME":"TOWNNAME","LI":"LI","LIN":"LIN","STREET":"STREET","SECT":"SECT","MAREA":"MAREA","LANE":"LANE","ALLEY":"ALLEY","HOUSE_NO":"HOUSE_NO","E_COORD97":"E_COORD97","N_COORD97":"N_COORD97","ADDRESS":"ADDRESS","OBJECTID":"OBJECTID"},"geometryType":"esriGeometryPoint","spatialReference":{"wkid":102443,"latestWkid":3826},"fields":[{"name":"ID","type":"esriFieldTypeDouble","alias":"ID"},{"name":"DIS_CODE","type":"esriFieldTypeInteger","alias":"DIS_CODE"},{"name":"TOWNNAME","type":"esriFieldTypeString","alias":"TOWNNAME","length":8},{"name":"LI","type":"esriFieldTypeString","alias":"LI","length":8},{"name":"LIN","type":"esriFieldTypeString","alias":"LIN","length":12},{"name":"STREET","type":"esriFieldTypeString","alias":"STREET","length":20},{"name":"SECT","type":"esriFieldTypeString","alias":"SECT","length":8},{"name":"MAREA","type":"esriFieldTypeString","alias":"MAREA","length":12},{"name":"LANE","type":"esriFieldTypeString","alias":"LANE","length":10},{"name":"ALLEY","type":"esriFieldTypeString","alias":"ALLEY","length":10},{"name":"HOUSE_NO","type":"esriFieldTypeString","alias":"HOUSE_NO","length":20},{"name":"E_COORD97","type":"esriFieldTypeDouble","alias":"E_COORD97"},{"name":"N_COORD97","type":"esriFieldTypeDouble","alias":"N_COORD97"},{"name":"ADDRESS","type":"esriFieldTypeString","alias":"ADDRESS","length":50},{"name":"OBJECTID","type":"esriFieldTypeOID","alias":"OBJECTID"}],"features":[{"attributes":{"ID":212202,"DIS_CODE":0,"TOWNNAME":"新市區","LI":"永就里","LIN":"2鄰","STREET":" ","SECT":" ","MAREA":"永就","LANE":" ","ALLEY":" ","HOUSE_NO":"１８號","E_COORD97":178402.42000000001,"N_COORD97":2551363,"ADDRESS":"永就１８號","OBJECTID":212201},"geometry":{"x":178402.42000000086,"y":2551363}},{"attributes":{"ID":212203,"DIS_CODE":0,"TOWNNAME":"新市區","LI":"社內里","LIN":"2鄰","STREET":" ","SECT":" ","MAREA":"社內","LANE":" ","ALLEY":" ","HOUSE_NO":"２２之４１號","E_COORD97":176869.06,"N_COORD97":2552870.2999999998,"ADDRESS":"社內２２之４１號","OBJECTID":212202},"geometry":{"x":176869.05999999959,"y":2552870.3000000007}},{"attributes":{"ID":212204,"DIS_CODE":0,"TOWNNAME":"新市區","LI":"社內里","LIN":"2鄰","STREET":" ","SECT":" ","MAREA":"社內","LANE":" ","ALLEY":" ","HOUSE_NO":"２８之１４號","E_COORD97":176835.07999999999,"N_COORD97":2552832.7999999998,"ADDRESS":"社內２８之１４號","OBJECTID":212203},"geometry":{"x":176835.08000000101,"y":2552832.8000000026}},{"attributes":{"ID":212205,"DIS_CODE":0,"TOWNNAME":"新市區","LI":"社內里","LIN":"2鄰","STREET":" ","SECT":" ","MAREA":"社內","LANE":" ","ALLEY":" ","HOUSE_NO":"２９之１０號","E_COORD97":176835.14000000001,"N_COORD97":2552678.2999999998,"ADDRESS":"社內２９之１０號","OBJECTID":212204},"geometry":{"x":176835.13999999966,"y":2552678.3000000007}},{"attributes":{"ID":212206,"DIS_CODE":0,"TOWNNAME":"新市區","LI":"社內里","LIN":"2鄰","STREET":" ","SECT":" ","MAREA":"社內","LANE":" ","ALLEY":" ","HOUSE_NO":"２８之１９號","E_COORD97":176782.59,"N_COORD97":2552863.5499999998,"ADDRESS":"社內２８之１９號","OBJECTID":212205},"geometry":{"x":176782.58999999985,"y":2552863.5500000045}},{"attributes":{"ID":212207,"DIS_CODE":0,"TOWNNAME":"新市區","LI":"三舍里","LIN":"2鄰","STREET":" ","SECT":" ","MAREA":"三舍","LANE":" ","ALLEY":" ","HOUSE_NO":"４１之２號","E_COORD97":177932.95000000001,"N_COORD97":2554401.0499999998,"ADDRESS":"三舍４１之２號","OBJECTID":212206},"geometry":{"x":177932.95000000112,"y":2554401.0500000007}},{"attributes":{"ID":212208,"DIS_CODE":0,"TOWNNAME":"新市區","LI":"社內里","LIN":"2鄰","STREET":" ","SECT":" ","MAREA":"社內","LANE":" ","ALLEY":" ","HOUSE_NO":"２８之９號","E_COORD97":176816,"N_COORD97":2552859.0499999998,"ADDRESS":"社內２８之９號","OBJECTID":212207},"geometry":{"x":176816,"y":2552859.0500000007}},{"attributes":{"ID":212209,"DIS_CODE":0,"TOWNNAME":"新市區","LI":"社內里","LIN":"2鄰","STREET":" ","SECT":" ","MAREA":"社內","LANE":" ","ALLEY":" ","HOUSE_NO":"２８之１號","E_COORD97":176785.20000000001,"N_COORD97":2552847.7999999998,"ADDRESS":"社內２８之１號","OBJECTID":212208},"geometry":{"x":176785.20000000112,"y":2552847.8000000007}},{"attributes":{"ID":212210,"DIS_CODE":0,"TOWNNAME":"新市區","LI":"永就里","LIN":"2鄰","STREET":" ","SECT":" ","MAREA":"永就","LANE":" ","ALLEY":" ","HOUSE_NO":"２４號","E_COORD97":178477.87,"N_COORD97":2551345.5,"ADDRESS":"永就２４號","OBJECTID":212209},"geometry":{"x":178477.87000000011,"y":2551345.5000000019}},{"attributes":{"ID":212211,"DIS_CODE":0,"TOWNNAME":"新市區","LI":"社內里","LIN":"2鄰","STREET":" ","SECT":" ","MAREA":"社內","LANE":" ","ALLEY":" ","HOUSE_NO":"２２之３２號","E_COORD97":176892.75,"N_COORD97":2552850.0499999998,"ADDRESS":"社內２２之３２號","OBJECTID":212210},"geometry":{"x":176892.75000000186,"y":2552850.0500000045}},{"attributes":{"ID":212212,"DIS_CODE":0,"TOWNNAME":"新市區","LI":"永就里","LIN":"2鄰","STREET":" ","SECT":" ","MAREA":"永就","LANE":" ","ALLEY":" ","HOUSE_NO":"１７號","E_COORD97":178387.73000000001,"N_COORD97":2551334.25,"ADDRESS":"永就１７號","OBJECTID":212211},"geometry":{"x":178387.73000000045,"y":2551334.25}},{"attributes":{"ID":212213,"DIS_CODE":0,"TOWNNAME":"新市區","LI":"社內里","LIN":"2鄰","STREET":" ","SECT":" ","MAREA":"社內","LANE":" ","ALLEY":" ","HOUSE_NO":"２８之１０號","E_COORD97":176821.84,"N_COORD97":2552860.5499999998,"ADDRESS":"社內２８之１０號","OBJECTID":212212},"geometry":{"x":176821.83999999985,"y":2552860.5500000026}},{"attributes":{"ID":212214,"DIS_CODE":0,"TOWNNAME":"新市區","LI":"社內里","LIN":"2鄰","STREET":" ","SECT":" ","MAREA":"社內","LANE":" ","ALLEY":" ","HOUSE_NO":"２８之１６號","E_COORD97":176824.73000000001,"N_COORD97":2552832.2999999998,"ADDRESS":"社內２８之１６號","OBJECTID":212213},"geometry":{"x":176824.73000000045,"y":2552832.3000000026}},{"attributes":{"ID":212215,"DIS_CODE":0,"TOWNNAME":"新市區","LI":"社內里","LIN":"2鄰","STREET":" ","SECT":" ","MAREA":"社內","LANE":" ","ALLEY":" ","HOUSE_NO":"２８之３４號","E_COORD97":176859.09,"N_COORD97":2552869.2999999998,"ADDRESS":"社內２８之３４號","OBJECTID":212214},"geometry":{"x":176859.08999999985,"y":2552869.3000000026}},{"attributes":{"ID":212216,"DIS_CODE":0,"TOWNNAME":"新市區","LI":"社內里","LIN":"2鄰","STREET":" ","SECT":" ","MAREA":"社內","LANE":" ","ALLEY":" ","HOUSE_NO":"２８之２９號","E_COORD97":176839.12,"N_COORD97":2552866.7999999998,"ADDRESS":"社內２８之２９號","OBJECTID":212215},"geometry":{"x":176839.12000000011,"y":2552866.8000000026}},{"attributes":{"ID":212217,"DIS_CODE":0,"TOWNNAME":"新市區","LI":"社內里","LIN":"2鄰","STREET":" ","SECT":" ","MAREA":"社內","LANE":" ","ALLEY":" ","HOUSE_NO":"２８之６號","E_COORD97":176805.34,"N_COORD97":2552852.7999999998,"ADDRESS":"社內２８之６號","OBJECTID":212216},"geometry":{"x":176805.33999999892,"y":2552852.8000000026}},{"attributes":{"ID":212218,"DIS_CODE":0,"TOWNNAME":"新市區","LI":"永就里","LIN":"2鄰","STREET":" ","SECT":" ","MAREA":"永就","LANE":" ","ALLEY":" ","HOUSE_NO":"１６之１號","E_COORD97":178369.87,"N_COORD97":2551357.7999999998,"ADDRESS":"永就１６之１號","OBJECTID":212217},"geometry":{"x":178369.87000000011,"y":2551357.8000000026}},{"attributes":{"ID":212219,"DIS_CODE":0,"TOWNNAME":"七股區","LI":"十份里","LIN":"2鄰","STREET":" ","SECT":" ","MAREA":"十份","LANE":" ","ALLEY":" ","HOUSE_NO":"１６號之３","E_COORD97":158433.45999999999,"N_COORD97":2555152.2599999998,"ADDRESS":"十份１６號之３","OBJECTID":212218},"geometry":{"x":158433.45999999996,"y":2555152.2599999998}},{"attributes":{"ID":212220,"DIS_CODE":0,"TOWNNAME":"北區","LI":"成功里","LIN":"13鄰","STREET":"北成路","SECT":" ","MAREA":" ","LANE":"８０巷","ALLEY":"２２弄","HOUSE_NO":"８號四樓","E_COORD97":169031.47,"N_COORD97":2546664.4900000002,"ADDRESS":"北成路８０巷２２弄８號四樓","OBJECTID":212219},"geometry":{"x":169031.46999999974,"y":2546664.4900000002}},{"attributes":{"ID":212221,"DIS_CODE":0,"TOWNNAME":"新營區","LI":"新南里","LIN":"18鄰","STREET":"隋唐街","SECT":" ","MAREA":" ","LANE":"３１巷","ALLEY":"２８弄","HOUSE_NO":"２號","E_COORD97":178672.14000000001,"N_COORD97":2578386.3500000001,"ADDRESS":"隋唐街３１巷２８弄２號","OBJECTID":212220},"geometry":{"x":178672.1400000006,"y":2578386.3500000034}},{"attributes":{"ID":212222,"DIS_CODE":0,"TOWNNAME":"七股區","LI":"十份里","LIN":"2鄰","STREET":" ","SECT":" ","MAREA":"十份","LANE":" ","ALLEY":" ","HOUSE_NO":"１７號之１１","E_COORD97":158446.23999999999,"N_COORD97":2555061.8799999999,"ADDRESS":"十份１７號之１１","OBJECTID":212221},"geometry":{"x":158446.24000000115,"y":2555061.879999999}},{"attributes":{"ID":212223,"DIS_CODE":0,"TOWNNAME":"七股區","LI":"十份里","LIN":"2鄰","STREET":" ","SECT":" ","MAREA":"十份","LANE":" ","ALLEY":" ","HOUSE_NO":"１７號之１","E_COORD97":158436.10999999999,"N_COORD97":2555106.21,"ADDRESS":"十份１７號之１","OBJECTID":212222},"geometry":{"x":158436.11000000034,"y":2555106.2100000009}},{"attributes":{"ID":212224,"DIS_CODE":0,"TOWNNAME":"七股區","LI":"十份里","LIN":"2鄰","STREET":" ","SECT":" ","MAREA":"十份","LANE":" ","ALLEY":" ","HOUSE_NO":"１７號之２","E_COORD97":158429.62,"N_COORD97":2555094.46,"ADDRESS":"十份１７號之２","OBJECTID":212223},"geometry":{"x":158429.62000000197,"y":2555094.4600000009}},{"attributes":{"ID":212225,"DIS_CODE":0,"TOWNNAME":"新營區","LI":"新北里","LIN":"13鄰","STREET":"周武街","SECT":" ","MAREA":" ","LANE":"７９巷","ALLEY":"４６弄","HOUSE_NO":"１號三樓之４","E_COORD97":179296.73999999999,"N_COORD97":2579060.0800000001,"ADDRESS":"周武街７９巷４６弄１號三樓之４","OBJECTID":212224},"geometry":{"x":179296.74000000209,"y":2579060.0800000038}},{"attributes":{"ID":212226,"DIS_CODE":0,"TOWNNAME":"新營區","LI":"新北里","LIN":"13鄰","STREET":"周武街","SECT":" ","MAREA":" ","LANE":"７９巷","ALLEY":"４６弄","HOUSE_NO":"１號四樓之３","E_COORD97":179296.81,"N_COORD97":2579060.0800000001,"ADDRESS":"周武街７９巷４６弄１號四樓之３","OBJECTID":212225},"geometry":{"x":179296.80999999959,"y":2579060.0800000038}},{"attributes":{"ID":212227,"DIS_CODE":0,"TOWNNAME":"新營區","LI":"新東里","LIN":"4鄰","STREET":"東大街","SECT":" ","MAREA":" ","LANE":"５２巷","ALLEY":"２弄","HOUSE_NO":"２６號","E_COORD97":181064.03,"N_COORD97":2579088.23,"ADDRESS":"東大街５２巷２弄２６號","OBJECTID":212226},"geometry":{"x":181064.03000000026,"y":2579088.2300000004}},{"attributes":{"ID":212228,"DIS_CODE":0,"TOWNNAME":"仁德區","LI":"土庫里","LIN":"13鄰","STREET":"土庫路","SECT":" ","MAREA":" ","LANE":"１８５巷","ALLEY":"１４弄","HOUSE_NO":"２號四樓之１","E_COORD97":174360.28,"N_COORD97":2542925.7599999998,"ADDRESS":"土庫路１８５巷１４弄２號四樓之１","OBJECTID":212227},"geometry":{"x":174360.28000000119,"y":2542925.7599999998}},{"attributes":{"ID":212229,"DIS_CODE":0,"TOWNNAME":"永康區","LI":"勝利里","LIN":" ","STREET":"勝利街","SECT":" ","MAREA":" ","LANE":"１１３巷","ALLEY":" ","HOUSE_NO":"１號","E_COORD97":171342.67000000001,"N_COORD97":2544915.75,"ADDRESS":"勝利街１１３巷１號","OBJECTID":212228},"geometry":{"x":171342.66999999993,"y":2544915.7500000019}},{"attributes":{"ID":212230,"DIS_CODE":0,"TOWNNAME":"東山區","LI":"東中里","LIN":"9鄰","STREET":"惠明街","SECT":" ","MAREA":" ","LANE":" ","ALLEY":" ","HOUSE_NO":"１０號","E_COORD97":188585.54000000001,"N_COORD97":2579978.8900000001,"ADDRESS":"惠明街１０號","OBJECTID":212229},"geometry":{"x":188585.54000000004,"y":2579978.8900000025}},{"attributes":{"ID":212231,"DIS_CODE":0,"TOWNNAME":"東山區","LI":"東中里","LIN":"9鄰","STREET":"鳳安二街","SECT":" ","MAREA":" ","LANE":" ","ALLEY":" ","HOUSE_NO":"７９號","E_COORD97":188609.13,"N_COORD97":2579985.0899999999,"ADDRESS":"鳳安二街７９號","OBJECTID":212230},"geometry":{"x":188609.13000000082,"y":2579985.0900000036}},{"attributes":{"ID":212232,"DIS_CODE":0,"TOWNNAME":"東山區","LI":"東中里","LIN":"9鄰","STREET":" ","SECT":" ","MAREA":"鳳尾厝","LANE":" ","ALLEY":" ","HOUSE_NO":"１２號","E_COORD97":188596.42000000001,"N_COORD97":2579799.7999999998,"ADDRESS":"鳳尾厝１２號","OBJECTID":212231},"geometry":{"x":188596.41999999993,"y":2579799.8000000026}},{"attributes":{"ID":212233,"DIS_CODE":0,"TOWNNAME":"東山區","LI":"東中里","LIN":"9鄰","STREET":" ","SECT":" ","MAREA":"鳳尾厝","LANE":" ","ALLEY":" ","HOUSE_NO":"１３號之１","E_COORD97":188548.53,"N_COORD97":2579781.1499999999,"ADDRESS":"鳳尾厝１３號之１","OBJECTID":212232},"geometry":{"x":188548.53000000026,"y":2579781.1500000004}},{"attributes":{"ID":212234,"DIS_CODE":0,"TOWNNAME":"東山區","LI":"東中里","LIN":"9鄰","STREET":" ","SECT":" ","MAREA":"鳳尾厝","LANE":" ","ALLEY":" ","HOUSE_NO":"１３號之２","E_COORD97":188552.98000000001,"N_COORD97":2579798.9100000001,"ADDRESS":"鳳尾厝１３號之２","OBJECTID":212233},"geometry":{"x":188552.98000000138,"y":2579798.9100000001}},{"attributes":{"ID":212235,"DIS_CODE":0,"TOWNNAME":"東山區","LI":"東中里","LIN":"9鄰","STREET":" ","SECT":" ","MAREA":"鳳尾厝","LANE":" ","ALLEY":" ","HOUSE_NO":"１３號之４","E_COORD97":188576.04000000001,"N_COORD97":2579816.3300000001,"ADDRESS":"鳳尾厝１３號之４","OBJECTID":212234},"geometry":{"x":188576.04000000097,"y":2579816.3300000001}},{"attributes":{"ID":212236,"DIS_CODE":0,"TOWNNAME":"東山區","LI":"東中里","LIN":"9鄰","STREET":" ","SECT":" ","MAREA":"鳳尾厝","LANE":" ","ALLEY":" ","HOUSE_NO":"１３號","E_COORD97":188568.14999999999,"N_COORD97":2579769.3999999999,"ADDRESS":"鳳尾厝１３號","OBJECTID":212235},"geometry":{"x":188568.15000000037,"y":2579769.4000000004}},{"attributes":{"ID":212237,"DIS_CODE":0,"TOWNNAME":"新化區","LI":"\u25A0拔里","LIN":"9鄰","STREET":" ","SECT":" ","MAREA":"\u25A0拔林","LANE":" ","ALLEY":" ","HOUSE_NO":"３５５號之１","E_COORD97":183248.14999999999,"N_COORD97":2551784.2599999998,"ADDRESS":"\u25A0拔林３５５號之１","OBJECTID":212236},"geometry":{"x":183248.1500000013,"y":2551784.2600000016}},{"attributes":{"ID":212238,"DIS_CODE":0,"TOWNNAME":"仁德區","LI":"土庫里","LIN":"13鄰","STREET":"土庫路","SECT":" ","MAREA":" ","LANE":"１８５巷","ALLEY":"１４弄","HOUSE_NO":"２號七樓之３","E_COORD97":174360.37,"N_COORD97":2542925.7599999998,"ADDRESS":"土庫路１８５巷１４弄２號七樓之３","OBJECTID":212237},"geometry":{"x":174360.37000000011,"y":2542925.7599999998}},{"attributes":{"ID":212239,"DIS_CODE":0,"TOWNNAME":"仁德區","LI":"土庫里","LIN":"13鄰","STREET":"土庫路","SECT":" ","MAREA":" ","LANE":"１８５巷","ALLEY":"１４弄","HOUSE_NO":"８號六樓之２","E_COORD97":174350.53,"N_COORD97":2542914.2599999998,"ADDRESS":"土庫路１８５巷１４弄８號六樓之２","OBJECTID":212238},"geometry":{"x":174350.53000000119,"y":2542914.2600000016}},{"attributes":{"ID":212240,"DIS_CODE":0,"TOWNNAME":"新營區","LI":"民榮里","LIN":"39鄰","STREET":"太子路","SECT":" ","MAREA":" ","LANE":"５３巷","ALLEY":"７弄","HOUSE_NO":"１４號","E_COORD97":178321.32000000001,"N_COORD97":2577936.21,"ADDRESS":"太子路５３巷７弄１４號","OBJECTID":212239},"geometry":{"x":178321.3200000003,"y":2577936.2100000009}},{"attributes":{"ID":212241,"DIS_CODE":0,"TOWNNAME":"新營區","LI":"民榮里","LIN":"38鄰","STREET":"太子路","SECT":" ","MAREA":" ","LANE":"５３巷","ALLEY":"６弄","HOUSE_NO":"１５之３號","E_COORD97":178295.26000000001,"N_COORD97":2577953,"ADDRESS":"太子路５３巷６弄１５之３號","OBJECTID":212240},"geometry":{"x":178295.25999999978,"y":2577953.0000000019}},{"attributes":{"ID":212242,"DIS_CODE":0,"TOWNNAME":"新營區","LI":"民榮里","LIN":"36鄰","STREET":"新進路","SECT":"二段","MAREA":" ","LANE":"４４５巷","ALLEY":"２５弄","HOUSE_NO":"５５號","E_COORD97":178462.32999999999,"N_COORD97":2577901.2000000002,"ADDRESS":"新進路二段４４５巷２５弄５５號","OBJECTID":212241},"geometry":{"x":178462.33000000101,"y":2577901.1999999993}},{"attributes":{"ID":212243,"DIS_CODE":0,"TOWNNAME":"新營區","LI":"忠政里","LIN":"14鄰","STREET":"中正路","SECT":" ","MAREA":" ","LANE":"５９巷","ALLEY":"１９弄","HOUSE_NO":"１８號","E_COORD97":180021.04000000001,"N_COORD97":2579597.0099999998,"ADDRESS":"中正路５９巷１９弄１８號","OBJECTID":212242},"geometry":{"x":180021.04000000004,"y":2579597.0100000016}},{"attributes":{"ID":212244,"DIS_CODE":0,"TOWNNAME":"仁德區","LI":"土庫里","LIN":"13鄰","STREET":"土庫路","SECT":" ","MAREA":" ","LANE":"１８５巷","ALLEY":"１４弄","HOUSE_NO":"２號六樓之２","E_COORD97":174360.41,"N_COORD97":2542925.7599999998,"ADDRESS":"土庫路１８５巷１４弄２號六樓之２","OBJECTID":212243},"geometry":{"x":174360.41000000015,"y":2542925.7599999998}},{"attributes":{"ID":212245,"DIS_CODE":0,"TOWNNAME":"新化區","LI":"崙頂里","LIN":"9鄰","STREET":" ","SECT":" ","MAREA":"崙子頂","LANE":" ","ALLEY":" ","HOUSE_NO":"３５１號","E_COORD97":176760.13,"N_COORD97":2546848.25,"ADDRESS":"崙子頂３５１號","OBJECTID":212244},"geometry":{"x":176760.13000000082,"y":2546848.2500000019}},{"attributes":{"ID":212246,"DIS_CODE":0,"TOWNNAME":"新化區","LI":"大坑里","LIN":"9鄰","STREET":" ","SECT":" ","MAREA":"大坑尾","LANE":" ","ALLEY":" ","HOUSE_NO":"４５號之２","E_COORD97":185448.844431,"N_COORD97":2545386.1587,"ADDRESS":"大坑尾４５號之２","OBJECTID":212245},"geometry":{"x":185448.84443100076,"y":2545386.158699004}},{"attributes":{"ID":212247,"DIS_CODE":0,"TOWNNAME":"新化區","LI":"知義里","LIN":"9鄰","STREET":" ","SECT":" ","MAREA":"新和庄","LANE":" ","ALLEY":" ","HOUSE_NO":"６３號","E_COORD97":181893.73999999999,"N_COORD97":2546573.25,"ADDRESS":"新和庄６３號","OBJECTID":212246},"geometry":{"x":181893.74000000209,"y":2546573.2500000019}},{"attributes":{"ID":212248,"DIS_CODE":0,"TOWNNAME":"仁德區","LI":"土庫里","LIN":"13鄰","STREET":"土庫路","SECT":" ","MAREA":" ","LANE":"１８５巷","ALLEY":"１４弄","HOUSE_NO":"２號七樓之２","E_COORD97":174360.41,"N_COORD97":2542925.7599999998,"ADDRESS":"土庫路１８５巷１４弄２號七樓之２","OBJECTID":212247},"geometry":{"x":174360.41000000015,"y":2542925.7599999998}},{"attributes":{"ID":212249,"DIS_CODE":0,"TOWNNAME":"新化區","LI":"知義里","LIN":"9鄰","STREET":" ","SECT":" ","MAREA":"新和庄","LANE":" ","ALLEY":" ","HOUSE_NO":"８３號","E_COORD97":182001.94,"N_COORD97":2546512.25,"ADDRESS":"新和庄８３號","OBJECTID":212248},"geometry":{"x":182001.94000000134,"y":2546512.2500000019}},{"attributes":{"ID":212250,"DIS_CODE":0,"TOWNNAME":"新化區","LI":"大坑里","LIN":"9鄰","STREET":" ","SECT":" ","MAREA":"大坑尾","LANE":" ","ALLEY":" ","HOUSE_NO":"２５號","E_COORD97":184885.57999999999,"N_COORD97":2545502.25,"ADDRESS":"大坑尾２５號","OBJECTID":212249},"geometry":{"x":184885.58000000101,"y":2545502.2500000019}},{"attributes":{"ID":212251,"DIS_CODE":0,"TOWNNAME":"仁德區","LI":"土庫里","LIN":"13鄰","STREET":"土庫路","SECT":" ","MAREA":" ","LANE":"１８５巷","ALLEY":"１４弄","HOUSE_NO":"８號五樓之２","E_COORD97":174350.53,"N_COORD97":2542914.2599999998,"ADDRESS":"土庫路１８５巷１４弄８號五樓之２","OBJECTID":212250},"geometry":{"x":174350.53000000119,"y":2542914.2600000016}},{"attributes":{"ID":212252,"DIS_CODE":0,"TOWNNAME":"安定區","LI":"安定里","LIN":"9鄰","STREET":" ","SECT":" ","MAREA":"安定","LANE":" ","ALLEY":" ","HOUSE_NO":"８５之２號","E_COORD97":171921.32637600001,"N_COORD97":2557812.6235600002,"ADDRESS":"安定８５之２號","OBJECTID":212251},"geometry":{"x":171921.32637600042,"y":2557812.6235569995}},{"attributes":{"ID":212253,"DIS_CODE":0,"TOWNNAME":"仁德區","LI":"土庫里","LIN":"13鄰","STREET":"土庫路","SECT":" ","MAREA":" ","LANE":"１８５巷","ALLEY":"１４弄","HOUSE_NO":"２號四樓之３","E_COORD97":174360.37,"N_COORD97":2542925.7599999998,"ADDRESS":"土庫路１８５巷１４弄２號四樓之３","OBJECTID":212252},"geometry":{"x":174360.37000000011,"y":2542925.7599999998}},{"attributes":{"ID":212254,"DIS_CODE":0,"TOWNNAME":"仁德區","LI":"土庫里","LIN":"13鄰","STREET":"土庫路","SECT":" ","MAREA":" ","LANE":"１８５巷","ALLEY":"１４弄","HOUSE_NO":"２號六樓之１","E_COORD97":174360.28,"N_COORD97":2542925.7599999998,"ADDRESS":"土庫路１８５巷１４弄２號六樓之１","OBJECTID":212253},"geometry":{"x":174360.28000000119,"y":2542925.7599999998}},{"attributes":{"ID":212255,"DIS_CODE":0,"TOWNNAME":"仁德區","LI":"土庫里","LIN":"13鄰","STREET":"土庫路","SECT":" ","MAREA":" ","LANE":"１８５巷","ALLEY":"１４弄","HOUSE_NO":"８號三樓之１","E_COORD97":174350.39999999999,"N_COORD97":2542914.2599999998,"ADDRESS":"土庫路１８５巷１４弄８號三樓之１","OBJECTID":212254},"geometry":{"x":174350.40000000037,"y":2542914.2600000016}},{"attributes":{"ID":212256,"DIS_CODE":0,"TOWNNAME":"仁德區","LI":"土庫里","LIN":"13鄰","STREET":"土庫路","SECT":" ","MAREA":" ","LANE":"１８５巷","ALLEY":"１４弄","HOUSE_NO":"２號三樓之１","E_COORD97":174360.28,"N_COORD97":2542925.7599999998,"ADDRESS":"土庫路１８５巷１４弄２號三樓之１","OBJECTID":212255},"geometry":{"x":174360.28000000119,"y":2542925.7599999998}},{"attributes":{"ID":212257,"DIS_CODE":0,"TOWNNAME":"新營區","LI":"民榮里","LIN":"38鄰","STREET":"太子路","SECT":" ","MAREA":" ","LANE":"５３巷","ALLEY":"６弄","HOUSE_NO":"２１之４號","E_COORD97":178275.82000000001,"N_COORD97":2577937.6000000001,"ADDRESS":"太子路５３巷６弄２１之４號","OBJECTID":212256},"geometry":{"x":178275.82000000216,"y":2577937.6000000015}},{"attributes":{"ID":212258,"DIS_CODE":0,"TOWNNAME":"新化區","LI":"豐榮里","LIN":"9鄰","STREET":"中山路","SECT":" ","MAREA":" ","LANE":" ","ALLEY":" ","HOUSE_NO":"５３１號","E_COORD97":178503.51000000001,"N_COORD97":2548424.25,"ADDRESS":"中山路５３１號","OBJECTID":212257},"geometry":{"x":178503.51000000071,"y":2548424.2500000019}},{"attributes":{"ID":212259,"DIS_CODE":0,"TOWNNAME":"新化區","LI":"唪口里","LIN":"9鄰","STREET":" ","SECT":" ","MAREA":"唪口","LANE":" ","ALLEY":" ","HOUSE_NO":"１２５號","E_COORD97":177895.14999999999,"N_COORD97":2548987.25,"ADDRESS":"唪口１２５號","OBJECTID":212258},"geometry":{"x":177895.15000000037,"y":2548987.2500000019}},{"attributes":{"ID":212260,"DIS_CODE":0,"TOWNNAME":"新化區","LI":"唪口里","LIN":"9鄰","STREET":" ","SECT":" ","MAREA":"唪口","LANE":" ","ALLEY":" ","HOUSE_NO":"１３８號","E_COORD97":177838.64999999999,"N_COORD97":2549008.25,"ADDRESS":"唪口１３８號","OBJECTID":212259},"geometry":{"x":177838.6500000013,"y":2549008.25}},{"attributes":{"ID":212261,"DIS_CODE":0,"TOWNNAME":"新化區","LI":"護國里","LIN":"9鄰","STREET":"中山路","SECT":" ","MAREA":" ","LANE":" ","ALLEY":" ","HOUSE_NO":"１１５號之８","E_COORD97":179665.87,"N_COORD97":2549124.2599999998,"ADDRESS":"中山路１１５號之８","OBJECTID":212260},"geometry":{"x":179665.87000000104,"y":2549124.2599999998}},{"attributes":{"ID":212262,"DIS_CODE":0,"TOWNNAME":"新化區","LI":"\u25A0拔里","LIN":"9鄰","STREET":" ","SECT":" ","MAREA":"\u25A0拔林","LANE":" ","ALLEY":" ","HOUSE_NO":"３５５號之８","E_COORD97":183275.88,"N_COORD97":2551803.2599999998,"ADDRESS":"\u25A0拔林３５５號之８","OBJECTID":212261},"geometry":{"x":183275.88000000175,"y":2551803.2600000035}},{"attributes":{"ID":212263,"DIS_CODE":0,"TOWNNAME":"新化區","LI":"豐榮里","LIN":"9鄰","STREET":"大智路","SECT":" ","MAREA":" ","LANE":" ","ALLEY":" ","HOUSE_NO":"２１號","E_COORD97":178370.38,"N_COORD97":2548416.25,"ADDRESS":"大智路２１號","OBJECTID":212262},"geometry":{"x":178370.38000000082,"y":2548416.2499999981}},{"attributes":{"ID":212264,"DIS_CODE":0,"TOWNNAME":"新化區","LI":"太平里","LIN":"9鄰","STREET":"中正路","SECT":" ","MAREA":" ","LANE":" ","ALLEY":" ","HOUSE_NO":"６９２號","E_COORD97":178584.01000000001,"N_COORD97":2549628.25,"ADDRESS":"中正路６９２號","OBJECTID":212263},"geometry":{"x":178584.00999999978,"y":2549628.2500000019}},{"attributes":{"ID":212265,"DIS_CODE":0,"TOWNNAME":"新化區","LI":"知義里","LIN":"9鄰","STREET":" ","SECT":" ","MAREA":"新和庄","LANE":" ","ALLEY":" ","HOUSE_NO":"１５１號之６","E_COORD97":181972.84,"N_COORD97":2546583.2599999998,"ADDRESS":"新和庄１５１號之６","OBJECTID":212264},"geometry":{"x":181972.84000000078,"y":2546583.2600000016}},{"attributes":{"ID":212266,"DIS_CODE":0,"TOWNNAME":"新化區","LI":"唪口里","LIN":"9鄰","STREET":" ","SECT":" ","MAREA":"唪口","LANE":" ","ALLEY":" ","HOUSE_NO":"１２４號","E_COORD97":177878.35000000001,"N_COORD97":2548968.25,"ADDRESS":"唪口１２４號","OBJECTID":212265},"geometry":{"x":177878.35000000056,"y":2548968.25}},{"attributes":{"ID":212267,"DIS_CODE":0,"TOWNNAME":"新化區","LI":"礁坑里","LIN":"9鄰","STREET":" ","SECT":" ","MAREA":"蔡厝仔","LANE":" ","ALLEY":" ","HOUSE_NO":"４７號","E_COORD97":184591.26999999999,"N_COORD97":2548959.25,"ADDRESS":"蔡厝仔４７號","OBJECTID":212266},"geometry":{"x":184591.26999999955,"y":2548959.2500000019}},{"attributes":{"ID":212268,"DIS_CODE":0,"TOWNNAME":"新化區","LI":"太平里","LIN":"9鄰","STREET":"中正路","SECT":" ","MAREA":" ","LANE":" ","ALLEY":" ","HOUSE_NO":"６７８號","E_COORD97":178612.01000000001,"N_COORD97":2549570.25,"ADDRESS":"中正路６７８號","OBJECTID":212267},"geometry":{"x":178612.01000000071,"y":2549570.2500000019}},{"attributes":{"ID":212269,"DIS_CODE":0,"TOWNNAME":"新化區","LI":"礁坑里","LIN":"9鄰","STREET":" ","SECT":" ","MAREA":"蔡厝仔","LANE":" ","ALLEY":" ","HOUSE_NO":"５１號","E_COORD97":184587.07000000001,"N_COORD97":2549144.25,"ADDRESS":"蔡厝仔５１號","OBJECTID":212268},"geometry":{"x":184587.07000000216,"y":2549144.25}},{"attributes":{"ID":212270,"DIS_CODE":0,"TOWNNAME":"新化區","LI":"山\u25A0里","LIN":"9鄰","STREET":" ","SECT":" ","MAREA":"五甲勢","LANE":" ","ALLEY":" ","HOUSE_NO":"１號之２","E_COORD97":181585.48000000001,"N_COORD97":2546305.2599999998,"ADDRESS":"五甲勢１號之２","OBJECTID":212269},"geometry":{"x":181585.47999999952,"y":2546305.2600000016}},{"attributes":{"ID":212271,"DIS_CODE":0,"TOWNNAME":"新化區","LI":"知義里","LIN":"9鄰","STREET":" ","SECT":" ","MAREA":"新和庄","LANE":" ","ALLEY":" ","HOUSE_NO":"６０號","E_COORD97":181881.44,"N_COORD97":2546581.25,"ADDRESS":"新和庄６０號","OBJECTID":212270},"geometry":{"x":181881.44000000134,"y":2546581.25}},{"attributes":{"ID":212272,"DIS_CODE":0,"TOWNNAME":"新化區","LI":"唪口里","LIN":"9鄰","STREET":" ","SECT":" ","MAREA":"唪口","LANE":" ","ALLEY":" ","HOUSE_NO":"２００號","E_COORD97":177931.85000000001,"N_COORD97":2548875.2400000002,"ADDRESS":"唪口２００號","OBJECTID":212271},"geometry":{"x":177931.84999999963,"y":2548875.2400000021}},{"attributes":{"ID":212273,"DIS_CODE":0,"TOWNNAME":"七股區","LI":"十份里","LIN":"2鄰","STREET":" ","SECT":" ","MAREA":"十份","LANE":" ","ALLEY":" ","HOUSE_NO":"１７號之３","E_COORD97":158429.13,"N_COORD97":2555087.5099999998,"ADDRESS":"十份１７號之３","OBJECTID":212272},"geometry":{"x":158429.12999999989,"y":2555087.5100000016}},{"attributes":{"ID":212274,"DIS_CODE":0,"TOWNNAME":"七股區","LI":"十份里","LIN":"2鄰","STREET":" ","SECT":" ","MAREA":"十份","LANE":" ","ALLEY":" ","HOUSE_NO":"１７號之４","E_COORD97":158428.17999999999,"N_COORD97":2555081.25,"ADDRESS":"十份１７號之４","OBJECTID":212273},"geometry":{"x":158428.1799999997,"y":2555081.25}},{"attributes":{"ID":212275,"DIS_CODE":0,"TOWNNAME":"七股區","LI":"十份里","LIN":"2鄰","STREET":" ","SECT":" ","MAREA":"十份","LANE":" ","ALLEY":" ","HOUSE_NO":"１７號之７","E_COORD97":158428.39000000001,"N_COORD97":2555066.8100000001,"ADDRESS":"十份１７號之７","OBJECTID":212274},"geometry":{"x":158428.38999999966,"y":2555066.8100000024}},{"attributes":{"ID":212276,"DIS_CODE":0,"TOWNNAME":"七股區","LI":"十份里","LIN":"2鄰","STREET":" ","SECT":" ","MAREA":"十份","LANE":" ","ALLEY":" ","HOUSE_NO":"１８號之３","E_COORD97":158464.64000000001,"N_COORD97":2555059.8599999999,"ADDRESS":"十份１８號之５","OBJECTID":212275},"geometry":{"x":158464.64000000153,"y":2555059.8599999994}},{"attributes":{"ID":212277,"DIS_CODE":0,"TOWNNAME":"新化區","LI":"豐榮里","LIN":"9鄰","STREET":"中山路","SECT":" ","MAREA":" ","LANE":" ","ALLEY":" ","HOUSE_NO":"５５１號","E_COORD97":178428.60999999999,"N_COORD97":2548441.25,"ADDRESS":"中山路５５１號","OBJECTID":212276},"geometry":{"x":178428.61000000127,"y":2548441.2500000019}},{"attributes":{"ID":212278,"DIS_CODE":0,"TOWNNAME":"新營區","LI":"新東里","LIN":"17鄰","STREET":"東興四街","SECT":" ","MAREA":" ","LANE":"３２巷","ALLEY":"３１弄","HOUSE_NO":"８號","E_COORD97":180935.89000000001,"N_COORD97":2579075.5299999998,"ADDRESS":"東興四街３２巷３１弄８號","OBJECTID":212277},"geometry":{"x":180935.88999999966,"y":2579075.5299999993}},{"attributes":{"ID":212279,"DIS_CODE":0,"TOWNNAME":"新營區","LI":"嘉芳里","LIN":"12鄰","STREET":"復興路","SECT":" ","MAREA":" ","LANE":"８０３巷","ALLEY":"３４弄","HOUSE_NO":"６號","E_COORD97":177091.10999999999,"N_COORD97":2578467.1400000001,"ADDRESS":"復興路８０３巷３４弄６號","OBJECTID":212278},"geometry":{"x":177091.11000000127,"y":2578467.1400000025}},{"attributes":{"ID":212280,"DIS_CODE":0,"TOWNNAME":"新營區","LI":"三仙里","LIN":"32鄰","STREET":"三興街","SECT":" ","MAREA":" ","LANE":"１４４巷","ALLEY":"１弄","HOUSE_NO":"７號","E_COORD97":179455.95000000001,"N_COORD97":2579315.0699999998,"ADDRESS":"三興街１４４巷１弄７號","OBJECTID":212279},"geometry":{"x":179455.95000000019,"y":2579315.0700000022}},{"attributes":{"ID":212281,"DIS_CODE":0,"TOWNNAME":"仁德區","LI":"土庫里","LIN":"13鄰","STREET":"土庫路","SECT":" ","MAREA":" ","LANE":"１８５巷","ALLEY":"１４弄","HOUSE_NO":"８號四樓","E_COORD97":174348.26000000001,"N_COORD97":2542914.23,"ADDRESS":"土庫路１８５巷１４弄８號四樓","OBJECTID":212280},"geometry":{"x":174348.26000000071,"y":2542914.2300000004}},{"attributes":{"ID":212282,"DIS_CODE":0,"TOWNNAME":"永康區","LI":"神洲里","LIN":"13鄰","STREET":"忠孝路","SECT":" ","MAREA":" ","LANE":"７６巷","ALLEY":"６３弄","HOUSE_NO":"１號三樓","E_COORD97":172256.95999999999,"N_COORD97":2545020.25,"ADDRESS":"忠孝路７６巷６３弄１號三樓","OBJECTID":212281},"geometry":{"x":172256.96000000089,"y":2545020.2500000019}},{"attributes":{"ID":212283,"DIS_CODE":0,"TOWNNAME":"永康區","LI":"神洲里","LIN":"13鄰","STREET":"忠孝路","SECT":" ","MAREA":" ","LANE":"７６巷","ALLEY":"６３弄","HOUSE_NO":"３號三樓","E_COORD97":172256.72,"N_COORD97":2545012.75,"ADDRESS":"忠孝路７６巷６３弄３號三樓","OBJECTID":212282},"geometry":{"x":172256.72000000067,"y":2545012.7500000037}},{"attributes":{"ID":212284,"DIS_CODE":0,"TOWNNAME":"永康區","LI":"神洲里","LIN":"13鄰","STREET":"忠孝路","SECT":" ","MAREA":" ","LANE":"７６巷","ALLEY":"６３弄","HOUSE_NO":"３號二樓","E_COORD97":172256.72,"N_COORD97":2545012.75,"ADDRESS":"忠孝路７６巷６３弄３號二樓","OBJECTID":212283},"geometry":{"x":172256.72000000067,"y":2545012.7500000037}},{"attributes":{"ID":212285,"DIS_CODE":0,"TOWNNAME":"永康區","LI":"神洲里","LIN":"13鄰","STREET":"忠孝路","SECT":" ","MAREA":" ","LANE":"７６巷","ALLEY":"６３弄","HOUSE_NO":"１號四樓","E_COORD97":172256.95999999999,"N_COORD97":2545020.25,"ADDRESS":"忠孝路７６巷６３弄１號四樓","OBJECTID":212284},"geometry":{"x":172256.96000000089,"y":2545020.2500000019}},{"attributes":{"ID":212286,"DIS_CODE":0,"TOWNNAME":"永康區","LI":"神洲里","LIN":"13鄰","STREET":"忠孝路","SECT":" ","MAREA":" ","LANE":"７６巷","ALLEY":"６３弄","HOUSE_NO":"１號二樓","E_COORD97":172256.95999999999,"N_COORD97":2545020.25,"ADDRESS":"忠孝路７６巷６３弄１號二樓","OBJECTID":212285},"geometry":{"x":172256.96000000089,"y":2545020.2500000019}},{"attributes":{"ID":212287,"DIS_CODE":0,"TOWNNAME":"永康區","LI":"神洲里","LIN":"13鄰","STREET":"忠孝路","SECT":" ","MAREA":" ","LANE":"７６巷","ALLEY":"６３弄","HOUSE_NO":"３號四樓","E_COORD97":172256.72,"N_COORD97":2545012.75,"ADDRESS":"忠孝路７６巷６３弄３號四樓","OBJECTID":212286},"geometry":{"x":172256.72000000067,"y":2545012.7500000037}},{"attributes":{"ID":212288,"DIS_CODE":0,"TOWNNAME":"仁德區","LI":"土庫里","LIN":"13鄰","STREET":"土庫路","SECT":" ","MAREA":" ","LANE":"１８５巷","ALLEY":"１４弄","HOUSE_NO":"８號七樓之１","E_COORD97":174350.39999999999,"N_COORD97":2542914.2599999998,"ADDRESS":"土庫路１８５巷１４弄８號七樓之１","OBJECTID":212287},"geometry":{"x":174350.40000000037,"y":2542914.2600000016}},{"attributes":{"ID":212289,"DIS_CODE":0,"TOWNNAME":"仁德區","LI":"土庫里","LIN":"13鄰","STREET":"土庫路","SECT":" ","MAREA":" ","LANE":"１８５巷","ALLEY":"１４弄","HOUSE_NO":"２號八樓之１","E_COORD97":174360.28,"N_COORD97":2542925.7599999998,"ADDRESS":"土庫路１８５巷１４弄２號八樓之１","OBJECTID":212288},"geometry":{"x":174360.28000000119,"y":2542925.7599999998}},{"attributes":{"ID":212290,"DIS_CODE":0,"TOWNNAME":"仁德區","LI":"土庫里","LIN":"13鄰","STREET":"土庫路","SECT":" ","MAREA":" ","LANE":"１８５巷","ALLEY":"１４弄","HOUSE_NO":"２號五樓之３","E_COORD97":174360.37,"N_COORD97":2542925.7599999998,"ADDRESS":"土庫路１８５巷１４弄２號五樓之３","OBJECTID":212289},"geometry":{"x":174360.37000000011,"y":2542925.7599999998}},{"attributes":{"ID":212291,"DIS_CODE":0,"TOWNNAME":"仁德區","LI":"土庫里","LIN":"13鄰","STREET":"土庫路","SECT":" ","MAREA":" ","LANE":"１８５巷","ALLEY":"１４弄","HOUSE_NO":"２號六樓之３","E_COORD97":174360.37,"N_COORD97":2542925.7599999998,"ADDRESS":"土庫路１８５巷１４弄２號六樓之３","OBJECTID":212290},"geometry":{"x":174360.37000000011,"y":2542925.7599999998}},{"attributes":{"ID":212292,"DIS_CODE":0,"TOWNNAME":"新化區","LI":"太平里","LIN":"9鄰","STREET":"中正路","SECT":" ","MAREA":" ","LANE":" ","ALLEY":" ","HOUSE_NO":"７０２號","E_COORD97":178551.70999999999,"N_COORD97":2549704.25,"ADDRESS":"中正路７０２號","OBJECTID":212291},"geometry":{"x":178551.70999999996,"y":2549704.25}},{"attributes":{"ID":212293,"DIS_CODE":0,"TOWNNAME":"新化區","LI":"唪口里","LIN":"9鄰","STREET":" ","SECT":" ","MAREA":"唪口","LANE":" ","ALLEY":" ","HOUSE_NO":"１３５號之２","E_COORD97":177883.79999999999,"N_COORD97":2548995.2599999998,"ADDRESS":"唪口１３５號之２","OBJECTID":212292},"geometry":{"x":177883.80000000168,"y":2548995.2599999998}},{"attributes":{"ID":212294,"DIS_CODE":0,"TOWNNAME":"新化區","LI":"山\u25A0里","LIN":"9鄰","STREET":" ","SECT":" ","MAREA":"五甲勢","LANE":" ","ALLEY":" ","HOUSE_NO":"１２號","E_COORD97":181854.28,"N_COORD97":2546221.2599999998,"ADDRESS":"五甲勢１２號","OBJECTID":212293},"geometry":{"x":181854.28000000026,"y":2546221.2599999998}},{"attributes":{"ID":212295,"DIS_CODE":0,"TOWNNAME":"新化區","LI":"知義里","LIN":"9鄰","STREET":" ","SECT":" ","MAREA":"新和庄","LANE":" ","ALLEY":" ","HOUSE_NO":"７１號","E_COORD97":181934.59260500001,"N_COORD97":2546552.7574,"ADDRESS":"新和庄７１號","OBJECTID":212294},"geometry":{"x":181934.59260500036,"y":2546552.7573960014}},{"attributes":{"ID":212296,"DIS_CODE":0,"TOWNNAME":"新化區","LI":"唪口里","LIN":"9鄰","STREET":" ","SECT":" ","MAREA":"唪口","LANE":" ","ALLEY":" ","HOUSE_NO":"１８１號之７","E_COORD97":177793.89000000001,"N_COORD97":2548924.2599999998,"ADDRESS":"唪口１８１號之７","OBJECTID":212295},"geometry":{"x":177793.8900000006,"y":2548924.2599999998}},{"attributes":{"ID":212297,"DIS_CODE":0,"TOWNNAME":"新化區","LI":"大坑里","LIN":"9鄰","STREET":" ","SECT":" ","MAREA":"大坑尾","LANE":" ","ALLEY":" ","HOUSE_NO":"２６號之３","E_COORD97":184644.92999999999,"N_COORD97":2545429.2599999998,"ADDRESS":"大坑尾２６號之３","OBJECTID":212296},"geometry":{"x":184644.93000000156,"y":2545429.2600000035}},{"attributes":{"ID":212298,"DIS_CODE":0,"TOWNNAME":"新化區","LI":"唪口里","LIN":"9鄰","STREET":" ","SECT":" ","MAREA":"唪口","LANE":" ","ALLEY":" ","HOUSE_NO":"１３８號之１","E_COORD97":177833.88,"N_COORD97":2549014.2599999998,"ADDRESS":"唪口１３８號之１","OBJECTID":212297},"geometry":{"x":177833.87999999989,"y":2549014.2600000016}},{"attributes":{"ID":212299,"DIS_CODE":0,"TOWNNAME":"仁德區","LI":"土庫里","LIN":"13鄰","STREET":"土庫路","SECT":" ","MAREA":" ","LANE":"１８５巷","ALLEY":"１４弄","HOUSE_NO":"２號四樓之２","E_COORD97":174360.41,"N_COORD97":2542925.7599999998,"ADDRESS":"土庫路１８５巷１４弄２號四樓之２","OBJECTID":212298},"geometry":{"x":174360.41000000015,"y":2542925.7599999998}},{"attributes":{"ID":212300,"DIS_CODE":0,"TOWNNAME":"仁德區","LI":"土庫里","LIN":"13鄰","STREET":"土庫路","SECT":" ","MAREA":" ","LANE":"１８５巷","ALLEY":"１４弄","HOUSE_NO":"２號七樓之１","E_COORD97":174360.28,"N_COORD97":2542925.7599999998,"ADDRESS":"土庫路１８５巷１４弄２號七樓之１","OBJECTID":212299},"geometry":{"x":174360.28000000119,"y":2542925.7599999998}},{"attributes":{"ID":212301,"DIS_CODE":0,"TOWNNAME":"新化區","LI":"\u25A0拔里","LIN":"9鄰","STREET":" ","SECT":" ","MAREA":"\u25A0拔林","LANE":" ","ALLEY":" ","HOUSE_NO":"３４７號","E_COORD97":183341.22,"N_COORD97":2551877.25,"ADDRESS":"\u25A0拔林３４７號","OBJECTID":212300},"geometry":{"x":183341.2200000016,"y":2551877.25}},{"attributes":{"ID":212302,"DIS_CODE":0,"TOWNNAME":"新化區","LI":"\u25A0拔里","LIN":"9鄰","STREET":" ","SECT":" ","MAREA":"\u25A0拔林","LANE":" ","ALLEY":" ","HOUSE_NO":"３５２號之１","E_COORD97":183430.45000000001,"N_COORD97":2551792.2599999998,"ADDRESS":"\u25A0拔林３５２號之１","OBJECTID":212301},"geometry":{"x":183430.45000000112,"y":2551792.2599999998}},{"attributes":{"ID":212303,"DIS_CODE":0,"TOWNNAME":"新化區","LI":"崙頂里","LIN":"9鄰","STREET":" ","SECT":" ","MAREA":"崙子頂","LANE":" ","ALLEY":" ","HOUSE_NO":"３４０號","E_COORD97":176721.03,"N_COORD97":2546850.25,"ADDRESS":"崙子頂３４０號","OBJECTID":212302},"geometry":{"x":176721.03000000026,"y":2546850.2500000037}},{"attributes":{"ID":212304,"DIS_CODE":0,"TOWNNAME":"新化區","LI":"全興里","LIN":"9鄰","STREET":" ","SECT":" ","MAREA":"竹子\u25A0","LANE":" ","ALLEY":" ","HOUSE_NO":"１２８號之１","E_COORD97":177501.95999999999,"N_COORD97":2547640.2599999998,"ADDRESS":"竹子\u25A0１２８號之１","OBJECTID":212303},"geometry":{"x":177501.96000000089,"y":2547640.2600000016}},{"attributes":{"ID":212305,"DIS_CODE":0,"TOWNNAME":"仁德區","LI":"土庫里","LIN":"13鄰","STREET":"土庫路","SECT":" ","MAREA":" ","LANE":"１８５巷","ALLEY":"１４弄","HOUSE_NO":"８號六樓之１","E_COORD97":174350.39999999999,"N_COORD97":2542914.2599999998,"ADDRESS":"土庫路１８５巷１４弄８號六樓之１","OBJECTID":212304},"geometry":{"x":174350.40000000037,"y":2542914.2600000016}},{"attributes":{"ID":212306,"DIS_CODE":0,"TOWNNAME":"新化區","LI":"全興里","LIN":"9鄰","STREET":" ","SECT":" ","MAREA":"竹子\u25A0","LANE":" ","ALLEY":" ","HOUSE_NO":"１２８號之２","E_COORD97":177506.89000000001,"N_COORD97":2547636.2599999998,"ADDRESS":"竹子\u25A0１２８號之２","OBJECTID":212305},"geometry":{"x":177506.8900000006,"y":2547636.2600000035}},{"attributes":{"ID":212307,"DIS_CODE":0,"TOWNNAME":"仁德區","LI":"土庫里","LIN":"13鄰","STREET":"土庫路","SECT":" ","MAREA":" ","LANE":"１８５巷","ALLEY":"１４弄","HOUSE_NO":"８號七樓之２","E_COORD97":174350.53,"N_COORD97":2542914.2599999998,"ADDRESS":"土庫路１８５巷１４弄８號七樓之２","OBJECTID":212306},"geometry":{"x":174350.53000000119,"y":2542914.2600000016}},{"attributes":{"ID":212308,"DIS_CODE":0,"TOWNNAME":"仁德區","LI":"土庫里","LIN":"13鄰","STREET":"土庫路","SECT":" ","MAREA":" ","LANE":"１８５巷","ALLEY":"１４弄","HOUSE_NO":"８號四樓之２","E_COORD97":174350.53,"N_COORD97":2542914.2599999998,"ADDRESS":"土庫路１８５巷１４弄８號四樓之２","OBJECTID":212307},"geometry":{"x":174350.53000000119,"y":2542914.2600000016}},{"attributes":{"ID":212309,"DIS_CODE":0,"TOWNNAME":"新化區","LI":"知義里","LIN":"9鄰","STREET":" ","SECT":" ","MAREA":"新和庄","LANE":" ","ALLEY":" ","HOUSE_NO":"９０號","E_COORD97":182038.73999999999,"N_COORD97":2546491.25,"ADDRESS":"新和庄９０號","OBJECTID":212308},"geometry":{"x":182038.74000000022,"y":2546491.2500000019}},{"attributes":{"ID":212310,"DIS_CODE":0,"TOWNNAME":"新化區","LI":"知義里","LIN":"9鄰","STREET":" ","SECT":" ","MAREA":"新和庄","LANE":" ","ALLEY":" ","HOUSE_NO":"１６５號","E_COORD97":182041.98999999999,"N_COORD97":2546749.25,"ADDRESS":"新和庄１６５號","OBJECTID":212309},"geometry":{"x":182041.99000000115,"y":2546749.2500000019}},{"attributes":{"ID":212311,"DIS_CODE":0,"TOWNNAME":"新營區","LI":"南紙里","LIN":"26鄰","STREET":"建業路","SECT":" ","MAREA":" ","LANE":"２２７巷","ALLEY":"２４弄","HOUSE_NO":"１號","E_COORD97":178119.76000000001,"N_COORD97":2577341.3599999999,"ADDRESS":"建業路２２７巷２４弄１號","OBJECTID":212310},"geometry":{"x":178119.76000000164,"y":2577341.3599999994}},{"attributes":{"ID":212312,"DIS_CODE":0,"TOWNNAME":"新化區","LI":"\u25A0拔里","LIN":"9鄰","STREET":" ","SECT":" ","MAREA":"\u25A0拔林","LANE":" ","ALLEY":" ","HOUSE_NO":"３５５號之７","E_COORD97":183266.57000000001,"N_COORD97":2551805.2599999998,"ADDRESS":"\u25A0拔林３５５號之７","OBJECTID":212311},"geometry":{"x":183266.57000000123,"y":2551805.2599999998}},{"attributes":{"ID":212313,"DIS_CODE":0,"TOWNNAME":"新化區","LI":"豐榮里","LIN":"9鄰","STREET":"大智路","SECT":" ","MAREA":" ","LANE":" ","ALLEY":" ","HOUSE_NO":"１５號","E_COORD97":178382.98000000001,"N_COORD97":2548428.25,"ADDRESS":"大智路１５號","OBJECTID":212312},"geometry":{"x":178382.98000000045,"y":2548428.2500000019}},{"attributes":{"ID":212314,"DIS_CODE":0,"TOWNNAME":"永康區","LI":"神洲里","LIN":"13鄰","STREET":"忠孝路","SECT":" ","MAREA":" ","LANE":"７６巷","ALLEY":"６３弄","HOUSE_NO":"５號二樓","E_COORD97":172255.97,"N_COORD97":2545005.0099999998,"ADDRESS":"忠孝路７６巷６３弄５號二樓","OBJECTID":212313},"geometry":{"x":172255.96999999974,"y":2545005.0100000016}},{"attributes":{"ID":212315,"DIS_CODE":0,"TOWNNAME":"永康區","LI":"神洲里","LIN":"13鄰","STREET":"忠孝路","SECT":" ","MAREA":" ","LANE":"７６巷","ALLEY":"６３弄","HOUSE_NO":"７號四樓","E_COORD97":172255.26000000001,"N_COORD97":2544997.7599999998,"ADDRESS":"忠孝路７６巷６３弄７號四樓","OBJECTID":212314},"geometry":{"x":172255.25999999978,"y":2544997.7599999998}},{"attributes":{"ID":212316,"DIS_CODE":0,"TOWNNAME":"新化區","LI":"大坑里","LIN":"9鄰","STREET":" ","SECT":" ","MAREA":"大坑尾","LANE":" ","ALLEY":" ","HOUSE_NO":"４５號之３","E_COORD97":185443.759613,"N_COORD97":2545380.7612000001,"ADDRESS":"大坑尾４５號之３","OBJECTID":212315},"geometry":{"x":185443.75961300079,"y":2545380.7612020019}},{"attributes":{"ID":212317,"DIS_CODE":0,"TOWNNAME":"新化區","LI":"礁坑里","LIN":"9鄰","STREET":" ","SECT":" ","MAREA":"蔡厝仔","LANE":" ","ALLEY":" ","HOUSE_NO":"４５號","E_COORD97":184225.07000000001,"N_COORD97":2548755.25,"ADDRESS":"蔡厝仔４５號","OBJECTID":212316},"geometry":{"x":184225.0700000003,"y":2548755.2499999981}},{"attributes":{"ID":212318,"DIS_CODE":0,"TOWNNAME":"新化區","LI":"唪口里","LIN":"9鄰","STREET":" ","SECT":" ","MAREA":"唪口","LANE":" ","ALLEY":" ","HOUSE_NO":"１２４號之１","E_COORD97":177875.78,"N_COORD97":2548976.2599999998,"ADDRESS":"唪口１２４號之１","OBJECTID":212317},"geometry":{"x":177875.78000000026,"y":2548976.2600000016}},{"attributes":{"ID":212319,"DIS_CODE":0,"TOWNNAME":"後壁區","LI":"嘉民里","LIN":"9鄰","STREET":" ","SECT":" ","MAREA":"上茄苳","LANE":" ","ALLEY":" ","HOUSE_NO":"２１２號","E_COORD97":186529.35000000001,"N_COORD97":2586912.1800000002,"ADDRESS":"上茄苳２１２號","OBJECTID":212318},"geometry":{"x":186529.35000000056,"y":2586912.1800000016}},{"attributes":{"ID":212320,"DIS_CODE":0,"TOWNNAME":"永康區","LI":"神洲里","LIN":"13鄰","STREET":"忠孝路","SECT":" ","MAREA":" ","LANE":"７６巷","ALLEY":"６３弄","HOUSE_NO":"３號五樓","E_COORD97":172256.72,"N_COORD97":2545012.75,"ADDRESS":"忠孝路７６巷６３弄３號五樓","OBJECTID":212319},"geometry":{"x":172256.72000000067,"y":2545012.7500000037}},{"attributes":{"ID":212321,"DIS_CODE":0,"TOWNNAME":"新化區","LI":"豐榮里","LIN":"9鄰","STREET":"信義路","SECT":" ","MAREA":" ","LANE":" ","ALLEY":" ","HOUSE_NO":"５１０號","E_COORD97":178390.92999999999,"N_COORD97":2548384.25,"ADDRESS":"信義路５１０號","OBJECTID":212320},"geometry":{"x":178390.9299999997,"y":2548384.2500000019}},{"attributes":{"ID":212322,"DIS_CODE":0,"TOWNNAME":"永康區","LI":"神洲里","LIN":"13鄰","STREET":"忠孝路","SECT":" ","MAREA":" ","LANE":"７６巷","ALLEY":"６３弄","HOUSE_NO":"７號二樓","E_COORD97":172255.26000000001,"N_COORD97":2544997.7599999998,"ADDRESS":"忠孝路７６巷６３弄７號二樓","OBJECTID":212321},"geometry":{"x":172255.25999999978,"y":2544997.7599999998}},{"attributes":{"ID":212323,"DIS_CODE":0,"TOWNNAME":"永康區","LI":"勝利里","LIN":" ","STREET":"中華一路","SECT":" ","MAREA":" ","LANE":" ","ALLEY":" ","HOUSE_NO":"３１０號","E_COORD97":171245.54999999999,"N_COORD97":2544997.5,"ADDRESS":"中華一路３１０號","OBJECTID":212322},"geometry":{"x":171245.55000000168,"y":2544997.5000000037}},{"attributes":{"ID":212324,"DIS_CODE":0,"TOWNNAME":"永康區","LI":"南灣里","LIN":" ","STREET":"南興路","SECT":" ","MAREA":" ","LANE":" ","ALLEY":" ","HOUSE_NO":"５０之２號","E_COORD97":174247.85000000001,"N_COORD97":2544171.5499999998,"ADDRESS":"南興路５０之２號","OBJECTID":212323},"geometry":{"x":174247.85000000056,"y":2544171.5500000026}},{"attributes":{"ID":212325,"DIS_CODE":0,"TOWNNAME":"永康區","LI":"神洲里","LIN":"13鄰","STREET":"忠孝路","SECT":" ","MAREA":" ","LANE":"７６巷","ALLEY":"６３弄","HOUSE_NO":"７號五樓","E_COORD97":172255.26000000001,"N_COORD97":2544997.7599999998,"ADDRESS":"忠孝路７６巷６３弄７號五樓","OBJECTID":212324},"geometry":{"x":172255.25999999978,"y":2544997.7599999998}},{"attributes":{"ID":212326,"DIS_CODE":0,"TOWNNAME":"永康區","LI":"勝利里","LIN":" ","STREET":"勝利街","SECT":" ","MAREA":" ","LANE":" ","ALLEY":" ","HOUSE_NO":"７６號","E_COORD97":171352.60000000001,"N_COORD97":2544715.7200000002,"ADDRESS":"勝利街７６號","OBJECTID":212325},"geometry":{"x":171352.59999999963,"y":2544715.7200000025}},{"attributes":{"ID":212327,"DIS_CODE":0,"TOWNNAME":"永康區","LI":"神洲里","LIN":"13鄰","STREET":"忠孝路","SECT":" ","MAREA":" ","LANE":"７６巷","ALLEY":"６３弄","HOUSE_NO":"７號三樓","E_COORD97":172255.26000000001,"N_COORD97":2544997.7599999998,"ADDRESS":"忠孝路７６巷６３弄７號三樓","OBJECTID":212326},"geometry":{"x":172255.25999999978,"y":2544997.7599999998}},{"attributes":{"ID":212328,"DIS_CODE":0,"TOWNNAME":"永康區","LI":"神洲里","LIN":"13鄰","STREET":"忠孝路","SECT":" ","MAREA":" ","LANE":"７６巷","ALLEY":"６３弄","HOUSE_NO":"５號三樓","E_COORD97":172255.97,"N_COORD97":2545005.0099999998,"ADDRESS":"忠孝路７６巷６３弄５號三樓","OBJECTID":212327},"geometry":{"x":172255.96999999974,"y":2545005.0100000016}},{"attributes":{"ID":212329,"DIS_CODE":0,"TOWNNAME":"永康區","LI":"神洲里","LIN":"13鄰","STREET":"忠孝路","SECT":" ","MAREA":" ","LANE":"７６巷","ALLEY":"６３弄","HOUSE_NO":"５號四樓","E_COORD97":172255.97,"N_COORD97":2545005.0099999998,"ADDRESS":"忠孝路７６巷６３弄５號四樓","OBJECTID":212328},"geometry":{"x":172255.96999999974,"y":2545005.0100000016}},{"attributes":{"ID":212330,"DIS_CODE":0,"TOWNNAME":"新化區","LI":"唪口里","LIN":"9鄰","STREET":" ","SECT":" ","MAREA":"唪口","LANE":" ","ALLEY":" ","HOUSE_NO":"１３６號之１","E_COORD97":177849.17999999999,"N_COORD97":2548998.2599999998,"ADDRESS":"唪口１３６號之１","OBJECTID":212329},"geometry":{"x":177849.18000000063,"y":2548998.2599999998}},{"attributes":{"ID":212331,"DIS_CODE":0,"TOWNNAME":"新營區","LI":"民榮里","LIN":"36鄰","STREET":"新進路","SECT":"二段","MAREA":" ","LANE":"４４５巷","ALLEY":"２５弄","HOUSE_NO":"４９號","E_COORD97":178473.66,"N_COORD97":2577905.5699999998,"ADDRESS":"新進路二段４４５巷２５弄４９號","OBJECTID":212330},"geometry":{"x":178473.66000000108,"y":2577905.5700000022}},{"attributes":{"ID":212332,"DIS_CODE":0,"TOWNNAME":"新化區","LI":"唪口里","LIN":"9鄰","STREET":" ","SECT":" ","MAREA":"唪口","LANE":" ","ALLEY":" ","HOUSE_NO":"１９０號","E_COORD97":177904.54999999999,"N_COORD97":2548878.25,"ADDRESS":"唪口１９０號","OBJECTID":212331},"geometry":{"x":177904.55000000075,"y":2548878.2500000019}},{"attributes":{"ID":212333,"DIS_CODE":0,"TOWNNAME":"永康區","LI":"\u25A0洲里","LIN":"40鄰","STREET":"洲尾街","SECT":" ","MAREA":" ","LANE":" ","ALLEY":" ","HOUSE_NO":"１０７號","E_COORD97":171008.5,"N_COORD97":2548749.75,"ADDRESS":"洲尾街１０７號","OBJECTID":212332},"geometry":{"x":171008.5,"y":2548749.7500000019}},{"attributes":{"ID":212334,"DIS_CODE":0,"TOWNNAME":"永康區","LI":"復華里","LIN":"13鄰","STREET":"國華街","SECT":" ","MAREA":" ","LANE":"９６巷","ALLEY":"１９弄","HOUSE_NO":"１３號","E_COORD97":172942.78,"N_COORD97":2545970.3399999999,"ADDRESS":"國華街９６巷１９弄１３號","OBJECTID":212333},"geometry":{"x":172942.78000000026,"y":2545970.3399999999}},{"attributes":{"ID":212335,"DIS_CODE":0,"TOWNNAME":"永康區","LI":"復華里","LIN":"13鄰","STREET":"國華街","SECT":" ","MAREA":" ","LANE":"９６巷","ALLEY":"１５弄","HOUSE_NO":"２４號","E_COORD97":172934.10999999999,"N_COORD97":2546017.21,"ADDRESS":"國華街９６巷１５弄２４號","OBJECTID":212334},"geometry":{"x":172934.1100000022,"y":2546017.2100000046}},{"attributes":{"ID":212336,"DIS_CODE":0,"TOWNNAME":"新化區","LI":"崙頂里","LIN":"9鄰","STREET":" ","SECT":" ","MAREA":"崙子頂","LANE":" ","ALLEY":" ","HOUSE_NO":"３３７號","E_COORD97":176707.42999999999,"N_COORD97":2546885.25,"ADDRESS":"崙子頂３３７號","OBJECTID":212335},"geometry":{"x":176707.4299999997,"y":2546885.2500000019}},{"attributes":{"ID":212337,"DIS_CODE":0,"TOWNNAME":"新化區","LI":"崙頂里","LIN":"9鄰","STREET":" ","SECT":" ","MAREA":"崙子頂","LANE":" ","ALLEY":" ","HOUSE_NO":"３５７號","E_COORD97":176787.53,"N_COORD97":2546831.25,"ADDRESS":"崙子頂３５７號","OBJECTID":212336},"geometry":{"x":176787.52999999933,"y":2546831.2500000019}},{"attributes":{"ID":212338,"DIS_CODE":0,"TOWNNAME":"新化區","LI":"知義里","LIN":"9鄰","STREET":" ","SECT":" ","MAREA":"新和庄","LANE":" ","ALLEY":" ","HOUSE_NO":"１５７號","E_COORD97":182144.54875799999,"N_COORD97":2546828.23073,"ADDRESS":"新和庄１５７號","OBJECTID":212337},"geometry":{"x":182144.548758002,"y":2546828.2307280023}},{"attributes":{"ID":212339,"DIS_CODE":0,"TOWNNAME":"新化區","LI":"山\u25A0里","LIN":"9鄰","STREET":" ","SECT":" ","MAREA":"五甲勢","LANE":" ","ALLEY":" ","HOUSE_NO":"１９號","E_COORD97":182007.67999999999,"N_COORD97":2545892.2599999998,"ADDRESS":"五甲勢１９號","OBJECTID":212338},"geometry":{"x":182007.68000000063,"y":2545892.2599999998}},{"attributes":{"ID":212340,"DIS_CODE":0,"TOWNNAME":"新化區","LI":"唪口里","LIN":"9鄰","STREET":" ","SECT":" ","MAREA":"唪口","LANE":" ","ALLEY":" ","HOUSE_NO":"１８２號","E_COORD97":177862.35000000001,"N_COORD97":2548947.25,"ADDRESS":"唪口１８２號","OBJECTID":212339},"geometry":{"x":177862.34999999963,"y":2548947.25}},{"attributes":{"ID":212341,"DIS_CODE":0,"TOWNNAME":"新化區","LI":"\u25A0拔里","LIN":"9鄰","STREET":" ","SECT":" ","MAREA":"\u25A0拔林","LANE":" ","ALLEY":" ","HOUSE_NO":"３５０號之２","E_COORD97":183346.17999999999,"N_COORD97":2551827.2599999998,"ADDRESS":"\u25A0拔林３５０號之２","OBJECTID":212340},"geometry":{"x":183346.1799999997,"y":2551827.2600000016}},{"attributes":{"ID":212342,"DIS_CODE":0,"TOWNNAME":"新化區","LI":"山\u25A0里","LIN":"9鄰","STREET":" ","SECT":" ","MAREA":"五甲勢","LANE":" ","ALLEY":" ","HOUSE_NO":"２０號","E_COORD97":181991.88,"N_COORD97":2545894.2599999998,"ADDRESS":"五甲勢２０號","OBJECTID":212341},"geometry":{"x":181991.87999999989,"y":2545894.2600000016}},{"attributes":{"ID":212343,"DIS_CODE":0,"TOWNNAME":"永康區","LI":"復華里","LIN":"13鄰","STREET":"國華街","SECT":" ","MAREA":" ","LANE":"９６巷","ALLEY":"１９弄","HOUSE_NO":"５號","E_COORD97":172939.54000000001,"N_COORD97":2545941.2400000002,"ADDRESS":"國華街９６巷１９弄５號","OBJECTID":212342},"geometry":{"x":172939.54000000097,"y":2545941.2400000002}},{"attributes":{"ID":212344,"DIS_CODE":0,"TOWNNAME":"永康區","LI":"蔦松里","LIN":" ","STREET":"中正北路","SECT":" ","MAREA":" ","LANE":" ","ALLEY":" ","HOUSE_NO":"７０９號","E_COORD97":174158.73000000001,"N_COORD97":2549458,"ADDRESS":"中正北路７０９號","OBJECTID":212343},"geometry":{"x":174158.73000000045,"y":2549458}},{"attributes":{"ID":212345,"DIS_CODE":0,"TOWNNAME":"永康區","LI":"大灣里","LIN":"13鄰","STREET":"大灣路","SECT":" ","MAREA":" ","LANE":"２１５巷","ALLEY":"４弄","HOUSE_NO":"５號","E_COORD97":175018.48000000001,"N_COORD97":2545278.7999999998,"ADDRESS":"大灣路２１５巷４弄５號","OBJECTID":212344},"geometry":{"x":175018.48000000231,"y":2545278.8000000026}},{"attributes":{"ID":212346,"DIS_CODE":0,"TOWNNAME":"永康區","LI":"五王里","LIN":"13鄰","STREET":"中山東路","SECT":" ","MAREA":" ","LANE":"２１８巷","ALLEY":"２３弄","HOUSE_NO":"２號","E_COORD97":171692.97,"N_COORD97":2545714.7599999998,"ADDRESS":"中山東路２１８巷２３弄２號","OBJECTID":212345},"geometry":{"x":171692.96999999974,"y":2545714.7600000016}},{"attributes":{"ID":212347,"DIS_CODE":0,"TOWNNAME":"永康區","LI":"大橋里","LIN":"13鄰","STREET":"大橋二街","SECT":" ","MAREA":" ","LANE":"２３９巷","ALLEY":"２２弄","HOUSE_NO":"９號","E_COORD97":171101.69,"N_COORD97":2546871.4300000002,"ADDRESS":"大橋二街２３９巷２２弄９號","OBJECTID":212346},"geometry":{"x":171101.69000000134,"y":2546871.4299999997}},{"attributes":{"ID":212348,"DIS_CODE":0,"TOWNNAME":"永康區","LI":"五王里","LIN":"13鄰","STREET":"中山東路","SECT":" ","MAREA":" ","LANE":"２１８巷","ALLEY":"２３弄","HOUSE_NO":"６號","E_COORD97":171693.98000000001,"N_COORD97":2545710.5099999998,"ADDRESS":"中山東路２１８巷２３弄６號","OBJECTID":212347},"geometry":{"x":171693.98000000045,"y":2545710.5100000016}},{"attributes":{"ID":212349,"DIS_CODE":0,"TOWNNAME":"新化區","LI":"武安里","LIN":"9鄰","STREET":"信義路","SECT":" ","MAREA":" ","LANE":" ","ALLEY":" ","HOUSE_NO":"２９９號","E_COORD97":178947.32999999999,"N_COORD97":2548297.25,"ADDRESS":"信義路２９９號","OBJECTID":212348},"geometry":{"x":178947.33000000101,"y":2548297.25}},{"attributes":{"ID":212350,"DIS_CODE":0,"TOWNNAME":"永康區","LI":"西灣里","LIN":"13鄰","STREET":"大灣五街","SECT":" ","MAREA":" ","LANE":" ","ALLEY":" ","HOUSE_NO":"１２８號","E_COORD97":174596.28,"N_COORD97":2545325.6200000001,"ADDRESS":"大灣五街１２８號","OBJECTID":212349},"geometry":{"x":174596.28000000119,"y":2545325.620000001}},{"attributes":{"ID":212351,"DIS_CODE":0,"TOWNNAME":"安定區","LI":"港南里","LIN":"9鄰","STREET":" ","SECT":" ","MAREA":"港口","LANE":" ","ALLEY":" ","HOUSE_NO":"６６號","E_COORD97":171408.94,"N_COORD97":2554317.25,"ADDRESS":"港口６６號","OBJECTID":212350},"geometry":{"x":171408.94000000041,"y":2554317.2500000019}},{"attributes":{"ID":212352,"DIS_CODE":0,"TOWNNAME":"永康區","LI":"西灣里","LIN":"18鄰","STREET":"大安街","SECT":" ","MAREA":" ","LANE":" ","ALLEY":" ","HOUSE_NO":"２７９之１號","E_COORD97":174670.22,"N_COORD97":2545523.6400000001,"ADDRESS":"大安街２７９之１號","OBJECTID":212351},"geometry":{"x":174670.2200000016,"y":2545523.6400000025}},{"attributes":{"ID":212353,"DIS_CODE":0,"TOWNNAME":"永康區","LI":"西橋里","LIN":"25鄰","STREET":"中華路","SECT":" ","MAREA":" ","LANE":" ","ALLEY":" ","HOUSE_NO":"８０７號","E_COORD97":170564.37,"N_COORD97":2546607.7400000002,"ADDRESS":"中華路８０７號","OBJECTID":212352},"geometry":{"x":170564.37000000104,"y":2546607.7400000021}},{"attributes":{"ID":212354,"DIS_CODE":0,"TOWNNAME":"永康區","LI":"五王里","LIN":"13鄰","STREET":"中山東路","SECT":" ","MAREA":" ","LANE":"２１８巷","ALLEY":"２３弄","HOUSE_NO":"１０號","E_COORD97":171697.17000000001,"N_COORD97":2545702.7599999998,"ADDRESS":"中山東路２１８巷２３弄１０號","OBJECTID":212353},"geometry":{"x":171697.16999999993,"y":2545702.7599999998}},{"attributes":{"ID":212355,"DIS_CODE":0,"TOWNNAME":"東區","LI":"關聖里","LIN":"13鄰","STREET":"裕英街","SECT":" ","MAREA":" ","LANE":" ","ALLEY":" ","HOUSE_NO":"６１號","E_COORD97":172213.01999999999,"N_COORD97":2543026.9199999999,"ADDRESS":"裕英街６１號","OBJECTID":212354},"geometry":{"x":172213.01999999955,"y":2543026.9199999999}},{"attributes":{"ID":212356,"DIS_CODE":0,"TOWNNAME":"永康區","LI":"蔦松里","LIN":" ","STREET":"正北三路","SECT":" ","MAREA":" ","LANE":"９１巷","ALLEY":" ","HOUSE_NO":"２號","E_COORD97":174432.12,"N_COORD97":2549932,"ADDRESS":"正北三路９１巷２號","OBJECTID":212355},"geometry":{"x":174432.12000000011,"y":2549932}},{"attributes":{"ID":212357,"DIS_CODE":0,"TOWNNAME":"新化區","LI":"\u25A0拔里","LIN":"9鄰","STREET":" ","SECT":" ","MAREA":"\u25A0拔林","LANE":" ","ALLEY":" ","HOUSE_NO":"３４３號","E_COORD97":183430.72,"N_COORD97":2551823.25,"ADDRESS":"\u25A0拔林３４３號","OBJECTID":212356},"geometry":{"x":183430.71999999974,"y":2551823.25}},{"attributes":{"ID":212358,"DIS_CODE":0,"TOWNNAME":"新化區","LI":"\u25A0拔里","LIN":"9鄰","STREET":" ","SECT":" ","MAREA":"\u25A0拔林","LANE":" ","ALLEY":" ","HOUSE_NO":"３３３號","E_COORD97":183371.01999999999,"N_COORD97":2551869.25,"ADDRESS":"\u25A0拔林３３３號","OBJECTID":212357},"geometry":{"x":183371.02000000142,"y":2551869.2500000019}},{"attributes":{"ID":212359,"DIS_CODE":0,"TOWNNAME":"永康區","LI":"五王里","LIN":"13鄰","STREET":"中華二路","SECT":" ","MAREA":" ","LANE":"２０６巷","ALLEY":"６８弄","HOUSE_NO":"１２３號","E_COORD97":171672.67999999999,"N_COORD97":2545715.5,"ADDRESS":"中華二路２０６巷６８弄１２３號","OBJECTID":212358},"geometry":{"x":171672.6799999997,"y":2545715.5}},{"attributes":{"ID":212360,"DIS_CODE":0,"TOWNNAME":"永康區","LI":"大灣里","LIN":"13鄰","STREET":"大灣路","SECT":" ","MAREA":" ","LANE":"２１５巷","ALLEY":"２４弄","HOUSE_NO":"４號","E_COORD97":175063.38,"N_COORD97":2545275.2400000002,"ADDRESS":"大灣路２１５巷２４弄４號","OBJECTID":212359},"geometry":{"x":175063.38000000082,"y":2545275.2400000021}},{"attributes":{"ID":212361,"DIS_CODE":0,"TOWNNAME":"善化區","LI":"西關里","LIN":"13鄰","STREET":"興農路","SECT":" ","MAREA":" ","LANE":"６９巷","ALLEY":"３１弄","HOUSE_NO":"１１號","E_COORD97":176466.14999999999,"N_COORD97":2559012.5299999998,"ADDRESS":"興農路６９巷３１弄１１號","OBJECTID":212360},"geometry":{"x":176466.15000000037,"y":2559012.5300000012}},{"attributes":{"ID":212362,"DIS_CODE":0,"TOWNNAME":"新市區","LI":"新市里","LIN":"13鄰","STREET":"中正路","SECT":" ","MAREA":" ","LANE":"３０１巷","ALLEY":"１５弄","HOUSE_NO":"２２號","E_COORD97":177536.20000000001,"N_COORD97":2553281.75,"ADDRESS":"中正路３０１巷１５弄２２號","OBJECTID":212361},"geometry":{"x":177536.20000000112,"y":2553281.7500000037}},{"attributes":{"ID":212363,"DIS_CODE":0,"TOWNNAME":"新市區","LI":"港墘里","LIN":"13鄰","STREET":"中山路","SECT":" ","MAREA":" ","LANE":"７８巷","ALLEY":"１３弄","HOUSE_NO":"７號","E_COORD97":178374.51999999999,"N_COORD97":2552817,"ADDRESS":"中山路７８巷１３弄７號","OBJECTID":212362},"geometry":{"x":178374.51999999955,"y":2552817.0000000019}},{"attributes":{"ID":212364,"DIS_CODE":0,"TOWNNAME":"南區","LI":"大恩里","LIN":"20鄰","STREET":"國民路","SECT":" ","MAREA":" ","LANE":"２１７巷","ALLEY":"１８弄","HOUSE_NO":"１５號","E_COORD97":169015.25,"N_COORD97":2540852.4500000002,"ADDRESS":"國民路２１７巷１８弄１５號","OBJECTID":212363},"geometry":{"x":169015.25000000186,"y":2540852.4499999993}},{"attributes":{"ID":212365,"DIS_CODE":0,"TOWNNAME":"新化區","LI":"知義里","LIN":"9鄰","STREET":" ","SECT":" ","MAREA":"新和庄","LANE":" ","ALLEY":" ","HOUSE_NO":"５４號之１０","E_COORD97":181522.92999999999,"N_COORD97":2546468.2599999998,"ADDRESS":"新和庄５４號之１０","OBJECTID":212364},"geometry":{"x":181522.93000000063,"y":2546468.2600000016}},{"attributes":{"ID":212366,"DIS_CODE":0,"TOWNNAME":"新化區","LI":"\u25A0拔里","LIN":"9鄰","STREET":" ","SECT":" ","MAREA":"\u25A0拔林","LANE":" ","ALLEY":" ","HOUSE_NO":"３５２號","E_COORD97":183422.12,"N_COORD97":2551792.25,"ADDRESS":"\u25A0拔林３５２號","OBJECTID":212365},"geometry":{"x":183422.12000000104,"y":2551792.25}},{"attributes":{"ID":212367,"DIS_CODE":0,"TOWNNAME":"新化區","LI":"太平里","LIN":"9鄰","STREET":"中正路","SECT":" ","MAREA":" ","LANE":" ","ALLEY":" ","HOUSE_NO":"６９０號之６","E_COORD97":178585.35999999999,"N_COORD97":2549626.2599999998,"ADDRESS":"中正路６９０號之６","OBJECTID":212366},"geometry":{"x":178585.36000000034,"y":2549626.2599999998}},{"attributes":{"ID":212368,"DIS_CODE":0,"TOWNNAME":"新化區","LI":"唪口里","LIN":"9鄰","STREET":" ","SECT":" ","MAREA":"唪口","LANE":" ","ALLEY":" ","HOUSE_NO":"１９１號","E_COORD97":177878.25,"N_COORD97":2548873.25,"ADDRESS":"唪口１９１號","OBJECTID":212367},"geometry":{"x":177878.25000000093,"y":2548873.25}},{"attributes":{"ID":212369,"DIS_CODE":0,"TOWNNAME":"新化區","LI":"崙頂里","LIN":"9鄰","STREET":" ","SECT":" ","MAREA":"崙子頂","LANE":" ","ALLEY":" ","HOUSE_NO":"３４７號之１","E_COORD97":176760.35999999999,"N_COORD97":2546828.2599999998,"ADDRESS":"崙子頂３４７號之１","OBJECTID":212368},"geometry":{"x":176760.36000000127,"y":2546828.2599999998}},{"attributes":{"ID":212370,"DIS_CODE":0,"TOWNNAME":"新化區","LI":"山\u25A0里","LIN":"9鄰","STREET":" ","SECT":" ","MAREA":"五甲勢","LANE":" ","ALLEY":" ","HOUSE_NO":"１４號","E_COORD97":181906.88,"N_COORD97":2545965.2599999998,"ADDRESS":"五甲勢１４號","OBJECTID":212369},"geometry":{"x":181906.88000000082,"y":2545965.2600000016}},{"attributes":{"ID":212371,"DIS_CODE":0,"TOWNNAME":"新化區","LI":"武安里","LIN":"9鄰","STREET":"大同街","SECT":" ","MAREA":" ","LANE":" ","ALLEY":" ","HOUSE_NO":"１０３號","E_COORD97":178985.92999999999,"N_COORD97":2548288.25,"ADDRESS":"大同街１０３號","OBJECTID":212370},"geometry":{"x":178985.9299999997,"y":2548288.2500000019}},{"attributes":{"ID":212372,"DIS_CODE":0,"TOWNNAME":"新營區","LI":"中營里","LIN":"9鄰","STREET":"同濟街","SECT":" ","MAREA":" ","LANE":" ","ALLEY":" ","HOUSE_NO":"１０號","E_COORD97":180510.53,"N_COORD97":2578238.52,"ADDRESS":"同濟街１０號","OBJECTID":212371},"geometry":{"x":180510.53000000119,"y":2578238.5199999996}},{"attributes":{"ID":212373,"DIS_CODE":0,"TOWNNAME":"新化區","LI":"唪口里","LIN":"9鄰","STREET":"大德路","SECT":" ","MAREA":" ","LANE":" ","ALLEY":" ","HOUSE_NO":"１８８號","E_COORD97":177714.82999999999,"N_COORD97":2549356.2400000002,"ADDRESS":"大德路１８８號","OBJECTID":212372},"geometry":{"x":177714.83000000101,"y":2549356.2400000021}},{"attributes":{"ID":212374,"DIS_CODE":0,"TOWNNAME":"永康區","LI":"尚頂里","LIN":" ","STREET":"國聖街","SECT":" ","MAREA":" ","LANE":" ","ALLEY":" ","HOUSE_NO":"６號","E_COORD97":170514.64000000001,"N_COORD97":2548066,"ADDRESS":"國聖街６號","OBJECTID":212373},"geometry":{"x":170514.6400000006,"y":2548066.0000000019}},{"attributes":{"ID":212375,"DIS_CODE":0,"TOWNNAME":"新化區","LI":"山\u25A0里","LIN":"9鄰","STREET":" ","SECT":" ","MAREA":"五甲勢","LANE":" ","ALLEY":" ","HOUSE_NO":"１１號之１","E_COORD97":181581.10999999999,"N_COORD97":2546229.2599999998,"ADDRESS":"五甲勢１１號之１","OBJECTID":212374},"geometry":{"x":181581.1100000022,"y":2546229.2600000035}},{"attributes":{"ID":212376,"DIS_CODE":0,"TOWNNAME":"永康區","LI":"\u25A0洲里","LIN":"26鄰","STREET":"洲尾街","SECT":" ","MAREA":" ","LANE":" ","ALLEY":" ","HOUSE_NO":"２０１號","E_COORD97":170894.14999999999,"N_COORD97":2549002.2599999998,"ADDRESS":"洲尾街２０１號","OBJECTID":212375},"geometry":{"x":170894.15000000037,"y":2549002.2599999998}},{"attributes":{"ID":212377,"DIS_CODE":0,"TOWNNAME":"新化區","LI":"豐榮里","LIN":"9鄰","STREET":"信義路","SECT":" ","MAREA":" ","LANE":" ","ALLEY":" ","HOUSE_NO":"５１６號","E_COORD97":178404.23000000001,"N_COORD97":2548386.25,"ADDRESS":"信義路５１６號","OBJECTID":212376},"geometry":{"x":178404.23000000138,"y":2548386.2500000019}},{"attributes":{"ID":212378,"DIS_CODE":0,"TOWNNAME":"新化區","LI":"唪口里","LIN":"9鄰","STREET":" ","SECT":" ","MAREA":"唪口","LANE":" ","ALLEY":" ","HOUSE_NO":"１８３號","E_COORD97":177866.35000000001,"N_COORD97":2548930.25,"ADDRESS":"唪口１８３號","OBJECTID":212377},"geometry":{"x":177866.35000000149,"y":2548930.25}},{"attributes":{"ID":212379,"DIS_CODE":0,"TOWNNAME":"新化區","LI":"山\u25A0里","LIN":"9鄰","STREET":" ","SECT":" ","MAREA":"五甲勢","LANE":" ","ALLEY":" ","HOUSE_NO":"２２號","E_COORD97":181976.88,"N_COORD97":2545909.2599999998,"ADDRESS":"五甲勢２２號","OBJECTID":212378},"geometry":{"x":181976.87999999989,"y":2545909.2599999998}},{"attributes":{"ID":212380,"DIS_CODE":0,"TOWNNAME":"新化區","LI":"礁坑里","LIN":"9鄰","STREET":" ","SECT":" ","MAREA":"蔡厝仔","LANE":" ","ALLEY":" ","HOUSE_NO":"３５號","E_COORD97":184437.97,"N_COORD97":2548847.25,"ADDRESS":"蔡厝仔３５號","OBJECTID":212379},"geometry":{"x":184437.9700000016,"y":2548847.2500000037}},{"attributes":{"ID":212381,"DIS_CODE":0,"TOWNNAME":"新化區","LI":"唪口里","LIN":"9鄰","STREET":" ","SECT":" ","MAREA":"唪口","LANE":" ","ALLEY":" ","HOUSE_NO":"１３５號之１","E_COORD97":177888.38,"N_COORD97":2548996.2599999998,"ADDRESS":"唪口１３５號之１","OBJECTID":212380},"geometry":{"x":177888.38000000175,"y":2548996.2600000016}},{"attributes":{"ID":212382,"DIS_CODE":0,"TOWNNAME":"新化區","LI":"山\u25A0里","LIN":"9鄰","STREET":" ","SECT":" ","MAREA":"五甲勢","LANE":" ","ALLEY":" ","HOUSE_NO":"２３號之１","E_COORD97":182073.10999999999,"N_COORD97":2545809.2599999998,"ADDRESS":"五甲勢２３號之１","OBJECTID":212381},"geometry":{"x":182073.11000000127,"y":2545809.2600000016}},{"attributes":{"ID":212383,"DIS_CODE":0,"TOWNNAME":"新化區","LI":"唪口里","LIN":"9鄰","STREET":" ","SECT":" ","MAREA":"唪口","LANE":" ","ALLEY":" ","HOUSE_NO":"１１７號","E_COORD97":177926.14999999999,"N_COORD97":2548926.25,"ADDRESS":"唪口１１７號","OBJECTID":212382},"geometry":{"x":177926.15000000224,"y":2548926.2500000019}},{"attributes":{"ID":212384,"DIS_CODE":0,"TOWNNAME":"南區","LI":"大恩里","LIN":"20鄰","STREET":"國民路","SECT":" ","MAREA":" ","LANE":"２１７巷","ALLEY":"１８弄","HOUSE_NO":"１７號","E_COORD97":169011.70000000001,"N_COORD97":2540853.4100000001,"ADDRESS":"國民路２１７巷１８弄１７號","OBJECTID":212383},"geometry":{"x":169011.70000000019,"y":2540853.4100000001}},{"attributes":{"ID":212385,"DIS_CODE":0,"TOWNNAME":"將軍區","LI":"西華里","LIN":"9鄰","STREET":" ","SECT":" ","MAREA":"西","LANE":" ","ALLEY":" ","HOUSE_NO":"１０３號","E_COORD97":163357.45999999999,"N_COORD97":2566474.6099999999,"ADDRESS":"西１０３號","OBJECTID":212384},"geometry":{"x":163357.46000000089,"y":2566474.6100000013}},{"attributes":{"ID":212386,"DIS_CODE":0,"TOWNNAME":"安定區","LI":"港尾里","LIN":"9鄰","STREET":" ","SECT":" ","MAREA":"港子尾","LANE":" ","ALLEY":" ","HOUSE_NO":"４５號","E_COORD97":171571.69,"N_COORD97":2555909.2599999998,"ADDRESS":"港子尾４５號","OBJECTID":212385},"geometry":{"x":171571.69000000041,"y":2555909.2600000016}},{"attributes":{"ID":212387,"DIS_CODE":0,"TOWNNAME":"南區","LI":"大恩里","LIN":"20鄰","STREET":"國民路","SECT":" ","MAREA":" ","LANE":"２１７巷","ALLEY":"１８弄","HOUSE_NO":"１９號","E_COORD97":169007.51000000001,"N_COORD97":2540855.0800000001,"ADDRESS":"國民路２１７巷１８弄１９號","OBJECTID":212386},"geometry":{"x":169007.50999999978,"y":2540855.0800000019}},{"attributes":{"ID":212388,"DIS_CODE":0,"TOWNNAME":"南區","LI":"大恩里","LIN":"20鄰","STREET":"國民路","SECT":" ","MAREA":" ","LANE":"２１７巷","ALLEY":"１８弄","HOUSE_NO":"１號","E_COORD97":169043.48999999999,"N_COORD97":2540844.5099999998,"ADDRESS":"國民路２１７巷１８弄１號","OBJECTID":212387},"geometry":{"x":169043.49000000022,"y":2540844.5100000016}},{"attributes":{"ID":212389,"DIS_CODE":0,"TOWNNAME":"南區","LI":"大恩里","LIN":"20鄰","STREET":"國民路","SECT":" ","MAREA":" ","LANE":"２１７巷","ALLEY":"１８弄","HOUSE_NO":"２１號","E_COORD97":169003.54000000001,"N_COORD97":2540855.7200000002,"ADDRESS":"國民路２１７巷１８弄２１號","OBJECTID":212388},"geometry":{"x":169003.54000000097,"y":2540855.7200000007}},{"attributes":{"ID":212390,"DIS_CODE":0,"TOWNNAME":"南區","LI":"大恩里","LIN":"20鄰","STREET":"國民路","SECT":" ","MAREA":" ","LANE":"２１７巷","ALLEY":"１８弄","HOUSE_NO":"２３號","E_COORD97":168998.92000000001,"N_COORD97":2540856.8999999999,"ADDRESS":"國民路２１７巷１８弄２３號","OBJECTID":212389},"geometry":{"x":168998.92000000086,"y":2540856.9000000022}},{"attributes":{"ID":212391,"DIS_CODE":0,"TOWNNAME":"七股區","LI":"三股里","LIN":"2鄰","STREET":" ","SECT":" ","MAREA":"三股","LANE":" ","ALLEY":" ","HOUSE_NO":"２２號","E_COORD97":159655.42000000001,"N_COORD97":2555516.8900000001,"ADDRESS":"三股２２號","OBJECTID":212390},"geometry":{"x":159655.42000000086,"y":2555516.8900000025}},{"attributes":{"ID":212392,"DIS_CODE":0,"TOWNNAME":"永康區","LI":"大灣里","LIN":"13鄰","STREET":"民族路","SECT":" ","MAREA":" ","LANE":"１２６巷","ALLEY":"９弄","HOUSE_NO":"２號","E_COORD97":175328.78,"N_COORD97":2544920.3700000001,"ADDRESS":"民族路１２６巷９弄２號","OBJECTID":212391},"geometry":{"x":175328.78000000119,"y":2544920.370000001}},{"attributes":{"ID":212393,"DIS_CODE":0,"TOWNNAME":"南區","LI":"南華里","LIN":"17鄰","STREET":"中華南路","SECT":"二段","MAREA":" ","LANE":"３０２巷","ALLEY":"６弄","HOUSE_NO":"１２號","E_COORD97":166705.34,"N_COORD97":2540396.1400000001,"ADDRESS":"中華南路二段３０２巷６弄１２號","OBJECTID":212392},"geometry":{"x":166705.33999999985,"y":2540396.1400000043}},{"attributes":{"ID":212394,"DIS_CODE":0,"TOWNNAME":"將軍區","LI":"西華里","LIN":"9鄰","STREET":" ","SECT":" ","MAREA":"西華","LANE":" ","ALLEY":" ","HOUSE_NO":"１０７號","E_COORD97":163367.26000000001,"N_COORD97":2566351.1499999999,"ADDRESS":"西華１０７號","OBJECTID":212393},"geometry":{"x":163367.26000000071,"y":2566351.1500000004}},{"attributes":{"ID":212395,"DIS_CODE":0,"TOWNNAME":"南區","LI":"南華里","LIN":"17鄰","STREET":"中華南路","SECT":"二段","MAREA":" ","LANE":"３０２巷","ALLEY":"６弄","HOUSE_NO":"１號","E_COORD97":166684.19,"N_COORD97":2540421.6899999999,"ADDRESS":"中華南路二段３０２巷６弄１號","OBJECTID":212394},"geometry":{"x":166684.19000000134,"y":2540421.6900000032}},{"attributes":{"ID":212396,"DIS_CODE":0,"TOWNNAME":"南區","LI":"南華里","LIN":"17鄰","STREET":"中華南路","SECT":"二段","MAREA":" ","LANE":"３０２巷","ALLEY":"６弄","HOUSE_NO":"２號","E_COORD97":166661,"N_COORD97":2540395.3100000001,"ADDRESS":"中華南路二段３０２巷６弄２號","OBJECTID":212395},"geometry":{"x":166661.00000000093,"y":2540395.3100000024}},{"attributes":{"ID":212397,"DIS_CODE":0,"TOWNNAME":"南區","LI":"南華里","LIN":"17鄰","STREET":"中華南路","SECT":"二段","MAREA":" ","LANE":"３０２巷","ALLEY":"６弄","HOUSE_NO":"３號","E_COORD97":166691.91,"N_COORD97":2540421.8100000001,"ADDRESS":"中華南路二段３０２巷６弄３號","OBJECTID":212396},"geometry":{"x":166691.91000000201,"y":2540421.8100000005}},{"attributes":{"ID":212398,"DIS_CODE":0,"TOWNNAME":"南區","LI":"南華里","LIN":"17鄰","STREET":"中華南路","SECT":"二段","MAREA":" ","LANE":"３０２巷","ALLEY":"６弄","HOUSE_NO":"４號","E_COORD97":166669.67999999999,"N_COORD97":2540396.02,"ADDRESS":"中華南路二段３０２巷６弄４號","OBJECTID":212397},"geometry":{"x":166669.68000000063,"y":2540396.0200000033}},{"attributes":{"ID":212399,"DIS_CODE":0,"TOWNNAME":"南區","LI":"大恩里","LIN":"15鄰","STREET":"國民路","SECT":" ","MAREA":" ","LANE":"２１７巷","ALLEY":"１８弄","HOUSE_NO":"１６號","E_COORD97":169003.85999999999,"N_COORD97":2540875.5800000001,"ADDRESS":"國民路２１７巷１８弄１６號","OBJECTID":212398},"geometry":{"x":169003.86000000034,"y":2540875.5800000019}},{"attributes":{"ID":212400,"DIS_CODE":0,"TOWNNAME":"新市區","LI":"新市里","LIN":"13鄰","STREET":"中正路","SECT":" ","MAREA":" ","LANE":"３０１巷","ALLEY":"１５弄","HOUSE_NO":"１６號","E_COORD97":177530.13,"N_COORD97":2553300.75,"ADDRESS":"中正路３０１巷１５弄１６號","OBJECTID":212399},"geometry":{"x":177530.12999999989,"y":2553300.75}},{"attributes":{"ID":212401,"DIS_CODE":0,"TOWNNAME":"新市區","LI":"新市里","LIN":"13鄰","STREET":"中正路","SECT":" ","MAREA":" ","LANE":"３０１巷","ALLEY":"１５弄","HOUSE_NO":"１８號","E_COORD97":177543.09,"N_COORD97":2553285.5,"ADDRESS":"中正路３０１巷１５弄１８號","OBJECTID":212400},"geometry":{"x":177543.09000000078,"y":2553285.5}}]}