{"displayFieldName":"TOWNNAME","fieldAliases":{"ID":"ID","DIS_CODE":"DIS_CODE","TOWNNAME":"TOWNNAME","LI":"LI","LIN":"LIN","STREET":"STREET","SECT":"SECT","MAREA":"MAREA","LANE":"LANE","ALLEY":"ALLEY","HOUSE_NO":"HOUSE_NO","E_COORD97":"E_COORD97","N_COORD97":"N_COORD97","ADDRESS":"ADDRESS","OBJECTID":"OBJECTID"},"geometryType":"esriGeometryPoint","spatialReference":{"wkid":102443,"latestWkid":3826},"fields":[{"name":"ID","type":"esriFieldTypeDouble","alias":"ID"},{"name":"DIS_CODE","type":"esriFieldTypeInteger","alias":"DIS_CODE"},{"name":"TOWNNAME","type":"esriFieldTypeString","alias":"TOWNNAME","length":8},{"name":"LI","type":"esriFieldTypeString","alias":"LI","length":8},{"name":"LIN","type":"esriFieldTypeString","alias":"LIN","length":12},{"name":"STREET","type":"esriFieldTypeString","alias":"STREET","length":20},{"name":"SECT","type":"esriFieldTypeString","alias":"SECT","length":8},{"name":"MAREA","type":"esriFieldTypeString","alias":"MAREA","length":12},{"name":"LANE","type":"esriFieldTypeString","alias":"LANE","length":10},{"name":"ALLEY","type":"esriFieldTypeString","alias":"ALLEY","length":10},{"name":"HOUSE_NO","type":"esriFieldTypeString","alias":"HOUSE_NO","length":20},{"name":"E_COORD97","type":"esriFieldTypeDouble","alias":"E_COORD97"},{"name":"N_COORD97","type":"esriFieldTypeDouble","alias":"N_COORD97"},{"name":"ADDRESS","type":"esriFieldTypeString","alias":"ADDRESS","length":50},{"name":"OBJECTID","type":"esriFieldTypeOID","alias":"OBJECTID"}],"features":[{"attributes":{"ID":285007,"DIS_CODE":0,"TOWNNAME":"安南區","LI":"淵西里","LIN":"12鄰","STREET":"安中路","SECT":"四段","MAREA":" ","LANE":"２４０巷","ALLEY":" ","HOUSE_NO":"２１號","E_COORD97":164687.42999999999,"N_COORD97":2550200.23,"ADDRESS":"安中路四段２４０巷２１號","OBJECTID":285001},"geometry":{"x":164687.43000000156,"y":2550200.2299999986}},{"attributes":{"ID":285008,"DIS_CODE":0,"TOWNNAME":"麻豆區","LI":"大埕里","LIN":"2鄰","STREET":"中正路","SECT":" ","MAREA":" ","LANE":" ","ALLEY":" ","HOUSE_NO":"５３號之５","E_COORD97":173094.51999999999,"N_COORD97":2564998.6699999999,"ADDRESS":"中正路５３號之５","OBJECTID":285002},"geometry":{"x":173094.51999999955,"y":2564998.6699999999}},{"attributes":{"ID":285009,"DIS_CODE":0,"TOWNNAME":"中西區","LI":"三民里","LIN":"8鄰","STREET":"忠義路","SECT":"二段","MAREA":" ","LANE":" ","ALLEY":" ","HOUSE_NO":"９８號","E_COORD97":168339.31,"N_COORD97":2543880.21,"ADDRESS":"忠義路二段９８號","OBJECTID":285003},"geometry":{"x":168339.30999999959,"y":2543880.2100000009}},{"attributes":{"ID":285010,"DIS_CODE":0,"TOWNNAME":"中西區","LI":"三民里","LIN":"3鄰","STREET":"公園路","SECT":" ","MAREA":" ","LANE":" ","ALLEY":" ","HOUSE_NO":"１１號","E_COORD97":168466.82999999999,"N_COORD97":2543736.9100000001,"ADDRESS":"公園路１１號","OBJECTID":285004},"geometry":{"x":168466.83000000007,"y":2543736.9100000039}},{"attributes":{"ID":285011,"DIS_CODE":0,"TOWNNAME":"中西區","LI":"三民里","LIN":"3鄰","STREET":"公園路","SECT":" ","MAREA":" ","LANE":" ","ALLEY":" ","HOUSE_NO":"１３號","E_COORD97":168472.10999999999,"N_COORD97":2543739.9300000002,"ADDRESS":"公園路１３號","OBJECTID":285005},"geometry":{"x":168472.11000000034,"y":2543739.9300000016}},{"attributes":{"ID":285012,"DIS_CODE":0,"TOWNNAME":"中西區","LI":"三民里","LIN":"3鄰","STREET":"公園路","SECT":" ","MAREA":" ","LANE":" ","ALLEY":" ","HOUSE_NO":"１５號","E_COORD97":168479.66,"N_COORD97":2543744.2599999998,"ADDRESS":"公園路１５號","OBJECTID":285006},"geometry":{"x":168479.66000000015,"y":2543744.2600000035}},{"attributes":{"ID":285013,"DIS_CODE":0,"TOWNNAME":"安南區","LI":"淵西里","LIN":"12鄰","STREET":"安中路","SECT":"四段","MAREA":" ","LANE":"２４０巷","ALLEY":" ","HOUSE_NO":"２３號","E_COORD97":164683.26999999999,"N_COORD97":2550201.4700000002,"ADDRESS":"安中路四段２４０巷２３號","OBJECTID":285007},"geometry":{"x":164683.27000000142,"y":2550201.4700000007}},{"attributes":{"ID":285014,"DIS_CODE":0,"TOWNNAME":"安南區","LI":"淵西里","LIN":"12鄰","STREET":"安中路","SECT":"四段","MAREA":" ","LANE":"２４０巷","ALLEY":" ","HOUSE_NO":"２５號","E_COORD97":164679.73999999999,"N_COORD97":2550203.1299999999,"ADDRESS":"安中路四段２４０巷２５號","OBJECTID":285008},"geometry":{"x":164679.74000000115,"y":2550203.1300000027}},{"attributes":{"ID":285015,"DIS_CODE":0,"TOWNNAME":"安南區","LI":"淵西里","LIN":"12鄰","STREET":"安中路","SECT":"四段","MAREA":" ","LANE":"２４０巷","ALLEY":" ","HOUSE_NO":"２７號","E_COORD97":164675.79999999999,"N_COORD97":2550204.1699999999,"ADDRESS":"安中路四段２４０巷２７號","OBJECTID":285009},"geometry":{"x":164675.79999999981,"y":2550204.1700000018}},{"attributes":{"ID":285016,"DIS_CODE":0,"TOWNNAME":"安南區","LI":"淵西里","LIN":"12鄰","STREET":"安中路","SECT":"四段","MAREA":" ","LANE":"２４０巷","ALLEY":" ","HOUSE_NO":"２９號","E_COORD97":164672.06,"N_COORD97":2550205.4100000001,"ADDRESS":"安中路四段２４０巷２９號","OBJECTID":285010},"geometry":{"x":164672.06000000052,"y":2550205.4099999983}},{"attributes":{"ID":285017,"DIS_CODE":0,"TOWNNAME":"安南區","LI":"溪東里","LIN":"12鄰","STREET":"北安路","SECT":"二段","MAREA":" ","LANE":"６３巷","ALLEY":" ","HOUSE_NO":"２０號","E_COORD97":168410.5,"N_COORD97":2547383.1299999999,"ADDRESS":"北安路二段６３巷２０號","OBJECTID":285011},"geometry":{"x":168410.50000000093,"y":2547383.1300000008}},{"attributes":{"ID":285018,"DIS_CODE":0,"TOWNNAME":"中西區","LI":"光賢里","LIN":"12鄰","STREET":"和善街","SECT":" ","MAREA":" ","LANE":"１２５巷","ALLEY":" ","HOUSE_NO":"５８號","E_COORD97":166739.75,"N_COORD97":2544739.98,"ADDRESS":"和善街１２５巷５８號","OBJECTID":285012},"geometry":{"x":166739.75,"y":2544739.9799999986}},{"attributes":{"ID":285019,"DIS_CODE":0,"TOWNNAME":"永康區","LI":"中華里","LIN":"12鄰","STREET":"小東路","SECT":" ","MAREA":" ","LANE":"５９１巷","ALLEY":" ","HOUSE_NO":"３２號","E_COORD97":171842.32000000001,"N_COORD97":2544446.3300000001,"ADDRESS":"小東路５９１巷３２號","OBJECTID":285013},"geometry":{"x":171842.3200000003,"y":2544446.3300000019}},{"attributes":{"ID":285020,"DIS_CODE":0,"TOWNNAME":"永康區","LI":"三民里","LIN":"12鄰","STREET":"和平路","SECT":" ","MAREA":" ","LANE":"２１７巷","ALLEY":" ","HOUSE_NO":"８之１號","E_COORD97":174668.38,"N_COORD97":2550619.54,"ADDRESS":"和平路２１７巷８之１號","OBJECTID":285014},"geometry":{"x":174668.38000000082,"y":2550619.5399999991}},{"attributes":{"ID":285021,"DIS_CODE":0,"TOWNNAME":"永康區","LI":"中華里","LIN":"12鄰","STREET":"小東路","SECT":" ","MAREA":" ","LANE":"５９１巷","ALLEY":" ","HOUSE_NO":"１０號","E_COORD97":171842.32000000001,"N_COORD97":2544399.7599999998,"ADDRESS":"小東路５９１巷１０號","OBJECTID":285015},"geometry":{"x":171842.3200000003,"y":2544399.7600000016}},{"attributes":{"ID":285022,"DIS_CODE":0,"TOWNNAME":"永康區","LI":"中華里","LIN":"12鄰","STREET":"小東路","SECT":" ","MAREA":" ","LANE":"５９１巷","ALLEY":" ","HOUSE_NO":"１４號","E_COORD97":171842.32000000001,"N_COORD97":2544408.6299999999,"ADDRESS":"小東路５９１巷１４號","OBJECTID":285016},"geometry":{"x":171842.3200000003,"y":2544408.6300000027}},{"attributes":{"ID":285023,"DIS_CODE":0,"TOWNNAME":"永康區","LI":"中華里","LIN":"12鄰","STREET":"小東路","SECT":" ","MAREA":" ","LANE":"５９１巷","ALLEY":" ","HOUSE_NO":"２６號","E_COORD97":171842.54000000001,"N_COORD97":2544433.3199999998,"ADDRESS":"小東路５９１巷２６號","OBJECTID":285017},"geometry":{"x":171842.5400000019,"y":2544433.3200000022}},{"attributes":{"ID":285024,"DIS_CODE":0,"TOWNNAME":"永康區","LI":"中華里","LIN":"12鄰","STREET":"小東路","SECT":" ","MAREA":" ","LANE":"５９１巷","ALLEY":" ","HOUSE_NO":"１６號","E_COORD97":171842.32000000001,"N_COORD97":2544412.5299999998,"ADDRESS":"小東路５９１巷１６號","OBJECTID":285018},"geometry":{"x":171842.3200000003,"y":2544412.5299999993}},{"attributes":{"ID":285025,"DIS_CODE":0,"TOWNNAME":"永康區","LI":"中華里","LIN":"12鄰","STREET":"小東路","SECT":" ","MAREA":" ","LANE":"５９１巷","ALLEY":" ","HOUSE_NO":"６號","E_COORD97":171841.07000000001,"N_COORD97":2544391.3100000001,"ADDRESS":"小東路５９１巷６號","OBJECTID":285019},"geometry":{"x":171841.07000000123,"y":2544391.3100000005}},{"attributes":{"ID":285026,"DIS_CODE":0,"TOWNNAME":"永康區","LI":"中華里","LIN":"12鄰","STREET":"小東路","SECT":" ","MAREA":" ","LANE":"５９１巷","ALLEY":" ","HOUSE_NO":"３０號","E_COORD97":171843.19,"N_COORD97":2544441.7799999998,"ADDRESS":"小東路５９１巷３０號","OBJECTID":285020},"geometry":{"x":171843.19000000041,"y":2544441.7799999975}},{"attributes":{"ID":285027,"DIS_CODE":0,"TOWNNAME":"中西區","LI":"西湖里","LIN":"12鄰","STREET":"湖美一街","SECT":" ","MAREA":" ","LANE":"４３巷","ALLEY":" ","HOUSE_NO":"１０號","E_COORD97":166038.72,"N_COORD97":2544608.52,"ADDRESS":"湖美一街４３巷１０號","OBJECTID":285021},"geometry":{"x":166038.72000000067,"y":2544608.5199999996}},{"attributes":{"ID":285028,"DIS_CODE":0,"TOWNNAME":"中西區","LI":"西湖里","LIN":"12鄰","STREET":"湖美一街","SECT":" ","MAREA":" ","LANE":"４３巷","ALLEY":" ","HOUSE_NO":"１２號","E_COORD97":166034.34,"N_COORD97":2544608.2799999998,"ADDRESS":"湖美一街４３巷１２號","OBJECTID":285022},"geometry":{"x":166034.34000000171,"y":2544608.2800000031}},{"attributes":{"ID":285029,"DIS_CODE":0,"TOWNNAME":"仁德區","LI":"上崙里","LIN":"12鄰","STREET":"德崙路","SECT":" ","MAREA":" ","LANE":"３９５巷","ALLEY":" ","HOUSE_NO":"１４號","E_COORD97":174176.42000000001,"N_COORD97":2538147.02,"ADDRESS":"德崙路３９５巷１４號","OBJECTID":285023},"geometry":{"x":174176.42000000086,"y":2538147.0199999996}},{"attributes":{"ID":285030,"DIS_CODE":0,"TOWNNAME":"仁德區","LI":"上崙里","LIN":"12鄰","STREET":"德崙路","SECT":" ","MAREA":" ","LANE":"３９５巷","ALLEY":" ","HOUSE_NO":"９號","E_COORD97":174154.98000000001,"N_COORD97":2538129.77,"ADDRESS":"德崙路３９５巷９號","OBJECTID":285024},"geometry":{"x":174154.98000000045,"y":2538129.7700000014}},{"attributes":{"ID":285031,"DIS_CODE":0,"TOWNNAME":"仁德區","LI":"上崙里","LIN":"12鄰","STREET":"德崙路","SECT":" ","MAREA":" ","LANE":"３９５巷","ALLEY":" ","HOUSE_NO":"１５號","E_COORD97":174161.54999999999,"N_COORD97":2538151.02,"ADDRESS":"德崙路３９５巷１５號","OBJECTID":285025},"geometry":{"x":174161.55000000075,"y":2538151.0199999996}},{"attributes":{"ID":285032,"DIS_CODE":0,"TOWNNAME":"仁德區","LI":"太子里","LIN":"12鄰","STREET":"長興二街","SECT":" ","MAREA":" ","LANE":"７０巷","ALLEY":" ","HOUSE_NO":"３號","E_COORD97":174265.92999999999,"N_COORD97":2543718.5099999998,"ADDRESS":"長興二街７０巷３號","OBJECTID":285026},"geometry":{"x":174265.93000000063,"y":2543718.5099999998}},{"attributes":{"ID":285033,"DIS_CODE":0,"TOWNNAME":"仁德區","LI":"仁德里","LIN":"12鄰","STREET":"四維街","SECT":" ","MAREA":" ","LANE":"３１巷","ALLEY":" ","HOUSE_NO":"３號","E_COORD97":173232.04000000001,"N_COORD97":2541501.9900000002,"ADDRESS":"四維街３１巷３號","OBJECTID":285027},"geometry":{"x":173232.04000000004,"y":2541501.9900000039}},{"attributes":{"ID":285034,"DIS_CODE":0,"TOWNNAME":"中西區","LI":"三民里","LIN":"3鄰","STREET":"公園路","SECT":" ","MAREA":" ","LANE":" ","ALLEY":" ","HOUSE_NO":"１７號","E_COORD97":168487.39999999999,"N_COORD97":2543745.5800000001,"ADDRESS":"公園路１７號","OBJECTID":285028},"geometry":{"x":168487.40000000224,"y":2543745.5799999982}},{"attributes":{"ID":285035,"DIS_CODE":0,"TOWNNAME":"中西區","LI":"三民里","LIN":"3鄰","STREET":"公園路","SECT":" ","MAREA":" ","LANE":" ","ALLEY":" ","HOUSE_NO":"１９號","E_COORD97":168496.26999999999,"N_COORD97":2543746.1499999999,"ADDRESS":"公園路１９號","OBJECTID":285029},"geometry":{"x":168496.27000000048,"y":2543746.1500000022}},{"attributes":{"ID":285036,"DIS_CODE":0,"TOWNNAME":"中西區","LI":"三民里","LIN":"3鄰","STREET":"公園路","SECT":" ","MAREA":" ","LANE":" ","ALLEY":" ","HOUSE_NO":"２１號","E_COORD97":168492.31,"N_COORD97":2543767.6400000001,"ADDRESS":"公園路２１號","OBJECTID":285030},"geometry":{"x":168492.31000000052,"y":2543767.6400000025}},{"attributes":{"ID":285037,"DIS_CODE":0,"TOWNNAME":"中西區","LI":"三民里","LIN":"4鄰","STREET":"忠義路","SECT":"二段","MAREA":" ","LANE":" ","ALLEY":" ","HOUSE_NO":"６８號","E_COORD97":168316.26999999999,"N_COORD97":2543800.6400000001,"ADDRESS":"忠義路二段６８號","OBJECTID":285031},"geometry":{"x":168316.27000000048,"y":2543800.6400000025}},{"attributes":{"ID":285038,"DIS_CODE":0,"TOWNNAME":"中西區","LI":"三民里","LIN":"4鄰","STREET":"忠義路","SECT":"二段","MAREA":" ","LANE":" ","ALLEY":" ","HOUSE_NO":"７０號","E_COORD97":168317.45999999999,"N_COORD97":2543804.6099999999,"ADDRESS":"忠義路二段７０號","OBJECTID":285032},"geometry":{"x":168317.46000000089,"y":2543804.6099999994}},{"attributes":{"ID":285039,"DIS_CODE":0,"TOWNNAME":"中西區","LI":"三民里","LIN":"4鄰","STREET":"忠義路","SECT":"二段","MAREA":" ","LANE":" ","ALLEY":" ","HOUSE_NO":"７２號","E_COORD97":168318.45000000001,"N_COORD97":2543807.7799999998,"ADDRESS":"忠義路二段７２號","OBJECTID":285033},"geometry":{"x":168318.45000000019,"y":2543807.7799999975}},{"attributes":{"ID":285040,"DIS_CODE":0,"TOWNNAME":"中西區","LI":"三民里","LIN":"4鄰","STREET":"忠義路","SECT":"二段","MAREA":" ","LANE":" ","ALLEY":" ","HOUSE_NO":"７４號","E_COORD97":168318.64999999999,"N_COORD97":2543812.3300000001,"ADDRESS":"忠義路二段７４號","OBJECTID":285034},"geometry":{"x":168318.65000000037,"y":2543812.3300000019}},{"attributes":{"ID":285041,"DIS_CODE":0,"TOWNNAME":"歸仁區","LI":"看東里","LIN":"2鄰","STREET":"忠孝南路","SECT":" ","MAREA":" ","LANE":" ","ALLEY":" ","HOUSE_NO":"１３０號","E_COORD97":178529.19384299999,"N_COORD97":2540321.7827699999,"ADDRESS":"忠孝南路１３０號","OBJECTID":285035},"geometry":{"x":178529.19384299964,"y":2540321.7827730011}},{"attributes":{"ID":285042,"DIS_CODE":0,"TOWNNAME":"關廟區","LI":"田中里","LIN":"2鄰","STREET":"田大路","SECT":" ","MAREA":" ","LANE":" ","ALLEY":" ","HOUSE_NO":"６９號","E_COORD97":184217.76142200001,"N_COORD97":2533831.8864899999,"ADDRESS":"田大路６９號","OBJECTID":285036},"geometry":{"x":184217.76142199989,"y":2533831.8864880037}},{"attributes":{"ID":285043,"DIS_CODE":0,"TOWNNAME":"關廟區","LI":"田中里","LIN":"2鄰","STREET":"田大路","SECT":" ","MAREA":" ","LANE":" ","ALLEY":" ","HOUSE_NO":"６５號","E_COORD97":184214.05365700001,"N_COORD97":2533834.5323200002,"ADDRESS":"田大路６５號","OBJECTID":285037},"geometry":{"x":184214.05365699995,"y":2533834.532319}},{"attributes":{"ID":285044,"DIS_CODE":0,"TOWNNAME":"大內區","LI":"石城里","LIN":"2鄰","STREET":" ","SECT":" ","MAREA":"石子瀨","LANE":" ","ALLEY":" ","HOUSE_NO":"１４號","E_COORD97":184365.901877,"N_COORD97":2557851.8799000001,"ADDRESS":"石子瀨１４號","OBJECTID":285038},"geometry":{"x":184365.90187700093,"y":2557851.8799029998}},{"attributes":{"ID":285045,"DIS_CODE":0,"TOWNNAME":"關廟區","LI":"田中里","LIN":"2鄰","STREET":"田大路","SECT":" ","MAREA":" ","LANE":" ","ALLEY":" ","HOUSE_NO":"１５２號","E_COORD97":184383.47201200001,"N_COORD97":2533759.52299,"ADDRESS":"田大路１５２號","OBJECTID":285039},"geometry":{"x":184383.47201200016,"y":2533759.5229850039}},{"attributes":{"ID":285046,"DIS_CODE":0,"TOWNNAME":"關廟區","LI":"田中里","LIN":"2鄰","STREET":"田大路","SECT":" ","MAREA":" ","LANE":" ","ALLEY":" ","HOUSE_NO":"１５０號","E_COORD97":184380.50580000001,"N_COORD97":2533758.3588200002,"ADDRESS":"田大路１５０號","OBJECTID":285040},"geometry":{"x":184380.50580000039,"y":2533758.3588190004}},{"attributes":{"ID":285047,"DIS_CODE":0,"TOWNNAME":"安平區","LI":"文平里","LIN":"2鄰","STREET":"中華西路","SECT":"二段","MAREA":" ","LANE":" ","ALLEY":" ","HOUSE_NO":"６７號","E_COORD97":166603.82601700001,"N_COORD97":2543220.0550000002,"ADDRESS":"中華西路二段６７號","OBJECTID":285041},"geometry":{"x":166603.82601700071,"y":2543220.0550030023}},{"attributes":{"ID":285048,"DIS_CODE":0,"TOWNNAME":"仁德區","LI":"田厝里","LIN":"12鄰","STREET":"田厝二街","SECT":" ","MAREA":" ","LANE":"９６巷","ALLEY":" ","HOUSE_NO":"９號","E_COORD97":172329.66,"N_COORD97":2537745.75,"ADDRESS":"田厝二街９６巷９號","OBJECTID":285042},"geometry":{"x":172329.66000000015,"y":2537745.75}},{"attributes":{"ID":285049,"DIS_CODE":0,"TOWNNAME":"仁德區","LI":"田厝里","LIN":"12鄰","STREET":"田厝二街","SECT":" ","MAREA":" ","LANE":"９６巷","ALLEY":" ","HOUSE_NO":"１７號","E_COORD97":172341.32999999999,"N_COORD97":2537776.7400000002,"ADDRESS":"田厝二街９６巷１７號","OBJECTID":285043},"geometry":{"x":172341.33000000101,"y":2537776.7400000002}},{"attributes":{"ID":285050,"DIS_CODE":0,"TOWNNAME":"仁德區","LI":"田厝里","LIN":"12鄰","STREET":"田厝一街","SECT":" ","MAREA":" ","LANE":"１７２巷","ALLEY":" ","HOUSE_NO":"６５６號","E_COORD97":172382.22,"N_COORD97":2538049.75,"ADDRESS":"田厝一街１７２巷６５６號","OBJECTID":285044},"geometry":{"x":172382.22000000067,"y":2538049.7500000019}},{"attributes":{"ID":285051,"DIS_CODE":0,"TOWNNAME":"仁德區","LI":"田厝里","LIN":"12鄰","STREET":"田厝一街","SECT":" ","MAREA":" ","LANE":"２１６巷","ALLEY":" ","HOUSE_NO":"１１號","E_COORD97":172288.01000000001,"N_COORD97":2537787.7400000002,"ADDRESS":"田厝一街２１６巷１１號","OBJECTID":285045},"geometry":{"x":172288.00999999978,"y":2537787.7399999984}},{"attributes":{"ID":285052,"DIS_CODE":0,"TOWNNAME":"南區","LI":"郡南里","LIN":"14鄰","STREET":"永興三街","SECT":" ","MAREA":" ","LANE":"５９巷","ALLEY":" ","HOUSE_NO":"８號","E_COORD97":167330.76000000001,"N_COORD97":2540565,"ADDRESS":"永興三街５９巷８號","OBJECTID":285046},"geometry":{"x":167330.75999999978,"y":2540565}},{"attributes":{"ID":285053,"DIS_CODE":0,"TOWNNAME":"永康區","LI":"安康里","LIN":"12鄰","STREET":"中華路","SECT":" ","MAREA":" ","LANE":"６１９巷","ALLEY":" ","HOUSE_NO":"１９號之３","E_COORD97":170994.31,"N_COORD97":2546063.79,"ADDRESS":"中華路６１９巷１９號之３","OBJECTID":285047},"geometry":{"x":170994.31000000145,"y":2546063.790000001}},{"attributes":{"ID":285054,"DIS_CODE":0,"TOWNNAME":"永康區","LI":"尚頂里","LIN":"12鄰","STREET":"正南一街","SECT":" ","MAREA":" ","LANE":"９２巷","ALLEY":" ","HOUSE_NO":"２０號","E_COORD97":171063.54999999999,"N_COORD97":2547348.2400000002,"ADDRESS":"正南一街９２巷２０號","OBJECTID":285048},"geometry":{"x":171063.54999999981,"y":2547348.2400000002}},{"attributes":{"ID":285055,"DIS_CODE":0,"TOWNNAME":"南區","LI":"國宅里","LIN":"1鄰","STREET":"金華路","SECT":"二段","MAREA":" ","LANE":"３巷","ALLEY":" ","HOUSE_NO":"５號","E_COORD97":166951.22,"N_COORD97":2541802.5,"ADDRESS":"金華路二段３巷５號","OBJECTID":285049},"geometry":{"x":166951.21999999974,"y":2541802.5}},{"attributes":{"ID":285056,"DIS_CODE":0,"TOWNNAME":"永康區","LI":"三民里","LIN":"12鄰","STREET":"正北一路","SECT":" ","MAREA":" ","LANE":"２７９巷","ALLEY":" ","HOUSE_NO":"６號","E_COORD97":174004.69,"N_COORD97":2550740.1699999999,"ADDRESS":"正北一路２７９巷６號","OBJECTID":285050},"geometry":{"x":174004.69000000041,"y":2550740.1700000018}},{"attributes":{"ID":285057,"DIS_CODE":0,"TOWNNAME":"永康區","LI":"二王里","LIN":"12鄰","STREET":"永二街","SECT":" ","MAREA":" ","LANE":"４３１巷","ALLEY":" ","HOUSE_NO":"８號","E_COORD97":172757.17999999999,"N_COORD97":2546587.2000000002,"ADDRESS":"永二街４３１巷８號","OBJECTID":285051},"geometry":{"x":172757.18000000063,"y":2546587.1999999993}},{"attributes":{"ID":285058,"DIS_CODE":0,"TOWNNAME":"永康區","LI":"三民里","LIN":"12鄰","STREET":"和平路","SECT":" ","MAREA":" ","LANE":"２４１巷","ALLEY":" ","HOUSE_NO":"８號","E_COORD97":174658.91,"N_COORD97":2550752.7400000002,"ADDRESS":"和平路２４１巷８號","OBJECTID":285052},"geometry":{"x":174658.91000000015,"y":2550752.7400000039}},{"attributes":{"ID":285059,"DIS_CODE":0,"TOWNNAME":"永康區","LI":"二王里","LIN":"12鄰","STREET":"永二街","SECT":" ","MAREA":" ","LANE":"４４７巷","ALLEY":" ","HOUSE_NO":"５１號","E_COORD97":172805.82999999999,"N_COORD97":2546558.6699999999,"ADDRESS":"永二街４４７巷５１號","OBJECTID":285053},"geometry":{"x":172805.83000000101,"y":2546558.6699999999}},{"attributes":{"ID":285060,"DIS_CODE":0,"TOWNNAME":"永康區","LI":"安康里","LIN":"12鄰","STREET":"中華路","SECT":" ","MAREA":" ","LANE":"６１９巷","ALLEY":" ","HOUSE_NO":"１５號之３","E_COORD97":171003.76999999999,"N_COORD97":2546069.54,"ADDRESS":"中華路６１９巷１５號之３","OBJECTID":285054},"geometry":{"x":171003.77000000048,"y":2546069.5399999991}},{"attributes":{"ID":285061,"DIS_CODE":0,"TOWNNAME":"永康區","LI":"二王里","LIN":"12鄰","STREET":"永二街","SECT":" ","MAREA":" ","LANE":"４３１巷","ALLEY":" ","HOUSE_NO":"１０號","E_COORD97":172758.82999999999,"N_COORD97":2546580.7000000002,"ADDRESS":"永二街４３１巷１０號","OBJECTID":285055},"geometry":{"x":172758.83000000007,"y":2546580.6999999993}},{"attributes":{"ID":285062,"DIS_CODE":0,"TOWNNAME":"永康區","LI":"三民里","LIN":"12鄰","STREET":"正北一路","SECT":" ","MAREA":" ","LANE":"２７６巷","ALLEY":" ","HOUSE_NO":"１６號","E_COORD97":174179.97,"N_COORD97":2550641.4500000002,"ADDRESS":"正北一路２７６巷１６號","OBJECTID":285056},"geometry":{"x":174179.96999999974,"y":2550641.4499999993}},{"attributes":{"ID":285063,"DIS_CODE":0,"TOWNNAME":"東區","LI":"虎尾里","LIN":"2鄰","STREET":"東門路","SECT":"三段","MAREA":" ","LANE":"１７９巷","ALLEY":" ","HOUSE_NO":"７２號","E_COORD97":171744.20000000001,"N_COORD97":2542013.96,"ADDRESS":"東門路三段１７９巷７２號","OBJECTID":285057},"geometry":{"x":171744.20000000019,"y":2542013.9600000009}},{"attributes":{"ID":285064,"DIS_CODE":0,"TOWNNAME":"東區","LI":"虎尾里","LIN":"2鄰","STREET":"東門路","SECT":"三段","MAREA":" ","LANE":"１７９巷","ALLEY":" ","HOUSE_NO":"７４號","E_COORD97":171748.42000000001,"N_COORD97":2542014.3199999998,"ADDRESS":"東門路三段１７９巷７４號","OBJECTID":285058},"geometry":{"x":171748.42000000086,"y":2542014.3200000003}},{"attributes":{"ID":285065,"DIS_CODE":0,"TOWNNAME":"東區","LI":"虎尾里","LIN":"2鄰","STREET":"東門路","SECT":"三段","MAREA":" ","LANE":"１７９巷","ALLEY":" ","HOUSE_NO":"７６號","E_COORD97":171753,"N_COORD97":2542014.5600000001,"ADDRESS":"東門路三段１７９巷７６號","OBJECTID":285059},"geometry":{"x":171753.00000000093,"y":2542014.5600000024}},{"attributes":{"ID":285066,"DIS_CODE":0,"TOWNNAME":"東區","LI":"虎尾里","LIN":"2鄰","STREET":"東門路","SECT":"三段","MAREA":" ","LANE":"１７９巷","ALLEY":" ","HOUSE_NO":"８４號","E_COORD97":171770.84,"N_COORD97":2542016.0099999998,"ADDRESS":"東門路三段１７９巷８４號","OBJECTID":285060},"geometry":{"x":171770.84000000171,"y":2542016.0099999998}},{"attributes":{"ID":285067,"DIS_CODE":0,"TOWNNAME":"仁德區","LI":"仁義里","LIN":"34鄰","STREET":"正義三街","SECT":" ","MAREA":" ","LANE":" ","ALLEY":" ","HOUSE_NO":"１４０號七樓","E_COORD97":173790.16,"N_COORD97":2541622.0099999998,"ADDRESS":"正義三街１４０號七樓","OBJECTID":285061},"geometry":{"x":173790.16000000108,"y":2541622.0099999998}},{"attributes":{"ID":285068,"DIS_CODE":0,"TOWNNAME":"仁德區","LI":"仁義里","LIN":"34鄰","STREET":"正義二街","SECT":" ","MAREA":" ","LANE":" ","ALLEY":" ","HOUSE_NO":"１６４號六樓","E_COORD97":173836.39000000001,"N_COORD97":2541581.02,"ADDRESS":"正義二街１６４號六樓","OBJECTID":285062},"geometry":{"x":173836.38999999966,"y":2541581.0199999996}},{"attributes":{"ID":285069,"DIS_CODE":0,"TOWNNAME":"仁德區","LI":"仁義里","LIN":"34鄰","STREET":"正義二街","SECT":" ","MAREA":" ","LANE":" ","ALLEY":" ","HOUSE_NO":"１０７號二樓","E_COORD97":173678.37,"N_COORD97":2541601.5099999998,"ADDRESS":"正義二街１０７號二樓","OBJECTID":285063},"geometry":{"x":173678.37000000104,"y":2541601.5100000016}},{"attributes":{"ID":285070,"DIS_CODE":0,"TOWNNAME":"仁德區","LI":"仁義里","LIN":"34鄰","STREET":"正義三街","SECT":" ","MAREA":" ","LANE":" ","ALLEY":" ","HOUSE_NO":"１５０號四樓","E_COORD97":173812.26000000001,"N_COORD97":2541622.7599999998,"ADDRESS":"正義三街１５０號四樓","OBJECTID":285064},"geometry":{"x":173812.26000000164,"y":2541622.7600000016}},{"attributes":{"ID":285071,"DIS_CODE":0,"TOWNNAME":"仁德區","LI":"仁義里","LIN":"34鄰","STREET":"正義二街","SECT":" ","MAREA":" ","LANE":" ","ALLEY":" ","HOUSE_NO":"１０３號五樓","E_COORD97":173660.20999999999,"N_COORD97":2541599.5099999998,"ADDRESS":"正義二街１０３號五樓","OBJECTID":285065},"geometry":{"x":173660.21000000183,"y":2541599.5099999998}},{"attributes":{"ID":285072,"DIS_CODE":0,"TOWNNAME":"六甲區","LI":"中社里","LIN":"2鄰","STREET":" ","SECT":" ","MAREA":"中社","LANE":" ","ALLEY":" ","HOUSE_NO":"３６號","E_COORD97":181171.75115600001,"N_COORD97":2570901.7442299998,"ADDRESS":"中社３６號","OBJECTID":285066},"geometry":{"x":181171.75115600135,"y":2570901.7442310005}},{"attributes":{"ID":285073,"DIS_CODE":0,"TOWNNAME":"白河區","LI":"外角里","LIN":"2鄰","STREET":" ","SECT":" ","MAREA":"外角","LANE":" ","ALLEY":" ","HOUSE_NO":"１６號","E_COORD97":190638.22857199999,"N_COORD97":2583220.24553,"ADDRESS":"外角１６號","OBJECTID":285067},"geometry":{"x":190638.22857199982,"y":2583220.2455310002}},{"attributes":{"ID":285074,"DIS_CODE":0,"TOWNNAME":"仁德區","LI":"新田里","LIN":"2鄰","STREET":"新田二街","SECT":" ","MAREA":" ","LANE":"１１６巷","ALLEY":" ","HOUSE_NO":"１１號","E_COORD97":174914.018763,"N_COORD97":2539800.1942500002,"ADDRESS":"新田二街１１６巷１１號","OBJECTID":285068},"geometry":{"x":174914.01876300108,"y":2539800.1942540035}},{"attributes":{"ID":285075,"DIS_CODE":0,"TOWNNAME":"安南區","LI":"海西里","LIN":"2鄰","STREET":"海環街","SECT":" ","MAREA":" ","LANE":" ","ALLEY":" ","HOUSE_NO":"４４６號","E_COORD97":166206.374709,"N_COORD97":2549133.8428699998,"ADDRESS":"海環街４４６號","OBJECTID":285069},"geometry":{"x":166206.37470900081,"y":2549133.842867}},{"attributes":{"ID":285076,"DIS_CODE":0,"TOWNNAME":"安南區","LI":"海西里","LIN":"2鄰","STREET":"海環街","SECT":" ","MAREA":" ","LANE":" ","ALLEY":" ","HOUSE_NO":"４４２號","E_COORD97":166203.620543,"N_COORD97":2549125.79954,"ADDRESS":"海環街４４２號","OBJECTID":285070},"geometry":{"x":166203.62054300029,"y":2549125.7995380014}},{"attributes":{"ID":285077,"DIS_CODE":0,"TOWNNAME":"安南區","LI":"海西里","LIN":"2鄰","STREET":"海環街","SECT":" ","MAREA":" ","LANE":" ","ALLEY":" ","HOUSE_NO":"４５２號","E_COORD97":166214.00163000001,"N_COORD97":2549143.7911999999,"ADDRESS":"海環街４５２號","OBJECTID":285071},"geometry":{"x":166214.00162999984,"y":2549143.7911950015}},{"attributes":{"ID":285078,"DIS_CODE":0,"TOWNNAME":"關廟區","LI":"布袋里","LIN":"2鄰","STREET":"長裕街","SECT":" ","MAREA":" ","LANE":" ","ALLEY":" ","HOUSE_NO":"５號","E_COORD97":182769.98999999999,"N_COORD97":2536076.2999999998,"ADDRESS":"長裕街５號","OBJECTID":285072},"geometry":{"x":182769.99000000022,"y":2536076.3000000026}},{"attributes":{"ID":285079,"DIS_CODE":0,"TOWNNAME":"關廟區","LI":"布袋里","LIN":"2鄰","STREET":"南雄南路","SECT":" ","MAREA":" ","LANE":" ","ALLEY":" ","HOUSE_NO":"５８號","E_COORD97":182839.73999999999,"N_COORD97":2536054.2999999998,"ADDRESS":"南雄南路５８號","OBJECTID":285073},"geometry":{"x":182839.74000000209,"y":2536054.3000000007}},{"attributes":{"ID":285080,"DIS_CODE":0,"TOWNNAME":"關廟區","LI":"布袋里","LIN":"2鄰","STREET":"長裕街","SECT":" ","MAREA":" ","LANE":" ","ALLEY":" ","HOUSE_NO":"１６０號","E_COORD97":182248.94,"N_COORD97":2535783.2999999998,"ADDRESS":"長裕街１６０號","OBJECTID":285074},"geometry":{"x":182248.94000000134,"y":2535783.3000000007}},{"attributes":{"ID":285081,"DIS_CODE":0,"TOWNNAME":"安南區","LI":"頂安里","LIN":"2鄰","STREET":"長溪路","SECT":"一段","MAREA":" ","LANE":" ","ALLEY":" ","HOUSE_NO":"４０２之１號","E_COORD97":168607.72119499999,"N_COORD97":2548939.8366299998,"ADDRESS":"長溪路一段４０２之１號","OBJECTID":285075},"geometry":{"x":168607.72119500022,"y":2548939.8366319984}},{"attributes":{"ID":285082,"DIS_CODE":0,"TOWNNAME":"永康區","LI":"二王里","LIN":"12鄰","STREET":"永二街","SECT":" ","MAREA":" ","LANE":"４４７巷","ALLEY":" ","HOUSE_NO":"５５號","E_COORD97":172811.62,"N_COORD97":2546557.48,"ADDRESS":"永二街４４７巷５５號","OBJECTID":285076},"geometry":{"x":172811.62000000197,"y":2546557.4800000042}},{"attributes":{"ID":285083,"DIS_CODE":0,"TOWNNAME":"永康區","LI":"二王里","LIN":"12鄰","STREET":"永二街","SECT":" ","MAREA":" ","LANE":"４４７巷","ALLEY":" ","HOUSE_NO":"６５號","E_COORD97":172839.62,"N_COORD97":2546553.98,"ADDRESS":"永二街４４７巷６５號","OBJECTID":285077},"geometry":{"x":172839.62000000104,"y":2546553.9800000042}},{"attributes":{"ID":285084,"DIS_CODE":0,"TOWNNAME":"永康區","LI":"二王里","LIN":"12鄰","STREET":"永二街","SECT":" ","MAREA":" ","LANE":"４４７巷","ALLEY":" ","HOUSE_NO":"３１號","E_COORD97":172751.76000000001,"N_COORD97":2546561.7999999998,"ADDRESS":"永二街４４７巷３１號","OBJECTID":285078},"geometry":{"x":172751.76000000071,"y":2546561.8000000007}},{"attributes":{"ID":285085,"DIS_CODE":0,"TOWNNAME":"永康區","LI":"三民里","LIN":"12鄰","STREET":"正北一路","SECT":" ","MAREA":" ","LANE":"２７６巷","ALLEY":" ","HOUSE_NO":"２６號","E_COORD97":174268.66,"N_COORD97":2550640.3300000001,"ADDRESS":"正北一路２７６巷２６號","OBJECTID":285079},"geometry":{"x":174268.66000000015,"y":2550640.3300000038}},{"attributes":{"ID":285086,"DIS_CODE":0,"TOWNNAME":"永康區","LI":"安康里","LIN":"12鄰","STREET":"中華路","SECT":" ","MAREA":" ","LANE":"６１９巷","ALLEY":" ","HOUSE_NO":"１３號之１","E_COORD97":171007.45999999999,"N_COORD97":2546071.79,"ADDRESS":"中華路６１９巷１３號之１","OBJECTID":285080},"geometry":{"x":171007.46000000089,"y":2546071.7899999991}},{"attributes":{"ID":285087,"DIS_CODE":0,"TOWNNAME":"永康區","LI":"安康里","LIN":"12鄰","STREET":"中華路","SECT":" ","MAREA":" ","LANE":"６１９巷","ALLEY":" ","HOUSE_NO":"１７號之２","E_COORD97":170998.25,"N_COORD97":2546066.04,"ADDRESS":"中華路６１９巷１７號之２","OBJECTID":285081},"geometry":{"x":170998.25,"y":2546066.0399999991}},{"attributes":{"ID":285088,"DIS_CODE":0,"TOWNNAME":"永康區","LI":"三民里","LIN":"12鄰","STREET":"和平路","SECT":" ","MAREA":" ","LANE":"２５１巷","ALLEY":" ","HOUSE_NO":"１２號","E_COORD97":174713.56,"N_COORD97":2550817.2000000002,"ADDRESS":"和平路２５１巷１２號","OBJECTID":285082},"geometry":{"x":174713.56000000145,"y":2550817.2000000011}},{"attributes":{"ID":285089,"DIS_CODE":0,"TOWNNAME":"永康區","LI":"三民里","LIN":"12鄰","STREET":"和平路","SECT":" ","MAREA":" ","LANE":"２３７巷","ALLEY":" ","HOUSE_NO":"５號","E_COORD97":174718.82999999999,"N_COORD97":2550694.6400000001,"ADDRESS":"和平路２３７巷５號","OBJECTID":285083},"geometry":{"x":174718.83000000007,"y":2550694.6400000006}},{"attributes":{"ID":285090,"DIS_CODE":0,"TOWNNAME":"永康區","LI":"三民里","LIN":"12鄰","STREET":"正北一路","SECT":" ","MAREA":" ","LANE":"２７６巷","ALLEY":" ","HOUSE_NO":"１２號","E_COORD97":174156.31,"N_COORD97":2550637.73,"ADDRESS":"正北一路２７６巷１２號","OBJECTID":285084},"geometry":{"x":174156.31000000052,"y":2550637.7300000042}},{"attributes":{"ID":285091,"DIS_CODE":0,"TOWNNAME":"東區","LI":"崇文里","LIN":"2鄰","STREET":"崇德十五街","SECT":" ","MAREA":" ","LANE":"９２巷","ALLEY":" ","HOUSE_NO":"８號","E_COORD97":171035.70999999999,"N_COORD97":2541157.8900000001,"ADDRESS":"崇德十五街９２巷８號","OBJECTID":285085},"geometry":{"x":171035.70999999996,"y":2541157.8900000025}},{"attributes":{"ID":285092,"DIS_CODE":0,"TOWNNAME":"東區","LI":"崇文里","LIN":"2鄰","STREET":"崇德十五街","SECT":" ","MAREA":" ","LANE":"９２巷","ALLEY":" ","HOUSE_NO":"９號","E_COORD97":171069.88,"N_COORD97":2541178.5600000001,"ADDRESS":"崇德十五街９２巷９號","OBJECTID":285086},"geometry":{"x":171069.87999999989,"y":2541178.5600000005}},{"attributes":{"ID":285093,"DIS_CODE":0,"TOWNNAME":"仁德區","LI":"仁義里","LIN":"34鄰","STREET":"正義三街","SECT":" ","MAREA":" ","LANE":" ","ALLEY":" ","HOUSE_NO":"１４０號六樓","E_COORD97":173790.16,"N_COORD97":2541622.0099999998,"ADDRESS":"正義三街１４０號六樓","OBJECTID":285087},"geometry":{"x":173790.16000000108,"y":2541622.0099999998}},{"attributes":{"ID":285094,"DIS_CODE":0,"TOWNNAME":"仁德區","LI":"仁義里","LIN":"34鄰","STREET":"正義三街","SECT":" ","MAREA":" ","LANE":" ","ALLEY":" ","HOUSE_NO":"１４６號四樓","E_COORD97":173803.29000000001,"N_COORD97":2541622.5099999998,"ADDRESS":"正義三街１４６號四樓","OBJECTID":285088},"geometry":{"x":173803.29000000004,"y":2541622.5099999998}},{"attributes":{"ID":285095,"DIS_CODE":0,"TOWNNAME":"歸仁區","LI":"沙崙里","LIN":"2鄰","STREET":" ","SECT":" ","MAREA":"二甲","LANE":" ","ALLEY":" ","HOUSE_NO":"５５號","E_COORD97":178354.67999999999,"N_COORD97":2539275.8900000001,"ADDRESS":"二甲５５號","OBJECTID":285089},"geometry":{"x":178354.68000000063,"y":2539275.8900000043}},{"attributes":{"ID":285096,"DIS_CODE":0,"TOWNNAME":"東區","LI":"崇明里","LIN":"2鄰","STREET":"大同路","SECT":"二段","MAREA":" ","LANE":"４０３巷","ALLEY":" ","HOUSE_NO":"３３號","E_COORD97":169645.39000000001,"N_COORD97":2541414.3500000001,"ADDRESS":"大同路二段４０３巷３３號","OBJECTID":285090},"geometry":{"x":169645.38999999966,"y":2541414.3500000034}},{"attributes":{"ID":285097,"DIS_CODE":0,"TOWNNAME":"仁德區","LI":"仁義里","LIN":"34鄰","STREET":"正義二街","SECT":" ","MAREA":" ","LANE":" ","ALLEY":" ","HOUSE_NO":"１０５號六樓","E_COORD97":173659.75,"N_COORD97":2541607.2599999998,"ADDRESS":"正義二街１０５號六樓","OBJECTID":285091},"geometry":{"x":173659.75,"y":2541607.2599999998}},{"attributes":{"ID":285098,"DIS_CODE":0,"TOWNNAME":"仁德區","LI":"仁義里","LIN":"34鄰","STREET":"正義三街","SECT":" ","MAREA":" ","LANE":" ","ALLEY":" ","HOUSE_NO":"１３６號六樓","E_COORD97":173774.73000000001,"N_COORD97":2541621.2599999998,"ADDRESS":"正義三街１３６號六樓","OBJECTID":285092},"geometry":{"x":173774.73000000138,"y":2541621.2599999998}},{"attributes":{"ID":285099,"DIS_CODE":0,"TOWNNAME":"仁德區","LI":"仁義里","LIN":"34鄰","STREET":"正義三街","SECT":" ","MAREA":" ","LANE":" ","ALLEY":" ","HOUSE_NO":"１４０號八樓","E_COORD97":173790.16,"N_COORD97":2541622.0099999998,"ADDRESS":"正義三街１４０號八樓","OBJECTID":285093},"geometry":{"x":173790.16000000108,"y":2541622.0099999998}},{"attributes":{"ID":285100,"DIS_CODE":0,"TOWNNAME":"東區","LI":"後甲里","LIN":"34鄰","STREET":"中華東路","SECT":"一段","MAREA":" ","LANE":" ","ALLEY":" ","HOUSE_NO":"１４３號六樓","E_COORD97":171477.89999999999,"N_COORD97":2543547.4100000001,"ADDRESS":"中華東路一段１４３號六樓","OBJECTID":285094},"geometry":{"x":171477.9000000013,"y":2543547.410000002}},{"attributes":{"ID":285101,"DIS_CODE":0,"TOWNNAME":"將軍區","LI":"嘉昌里","LIN":"2鄰","STREET":" ","SECT":" ","MAREA":"北嘉","LANE":" ","ALLEY":" ","HOUSE_NO":"９號","E_COORD97":163837.70000000001,"N_COORD97":2567461.5600000001,"ADDRESS":"北嘉９號","OBJECTID":285095},"geometry":{"x":163837.70000000112,"y":2567461.5600000005}},{"attributes":{"ID":285102,"DIS_CODE":0,"TOWNNAME":"將軍區","LI":"平沙里","LIN":"2鄰","STREET":" ","SECT":" ","MAREA":"平沙","LANE":" ","ALLEY":" ","HOUSE_NO":"１３號","E_COORD97":157401.59,"N_COORD97":2568593.8100000001,"ADDRESS":"平沙１３號","OBJECTID":285096},"geometry":{"x":157401.58999999985,"y":2568593.8100000024}},{"attributes":{"ID":285103,"DIS_CODE":0,"TOWNNAME":"將軍區","LI":"仁和里","LIN":"2鄰","STREET":" ","SECT":" ","MAREA":"仁巷","LANE":" ","ALLEY":" ","HOUSE_NO":"２０號","E_COORD97":164080.81,"N_COORD97":2569350.7599999998,"ADDRESS":"仁巷２０號","OBJECTID":285097},"geometry":{"x":164080.80999999959,"y":2569350.7599999998}},{"attributes":{"ID":285104,"DIS_CODE":0,"TOWNNAME":"永康區","LI":"六合里","LIN":"2鄰","STREET":"中山南路","SECT":" ","MAREA":" ","LANE":" ","ALLEY":" ","HOUSE_NO":"２６號","E_COORD97":170808.08082999999,"N_COORD97":2545829.39934,"ADDRESS":"中山南路２６號","OBJECTID":285098},"geometry":{"x":170808.08083000034,"y":2545829.3993429989}},{"attributes":{"ID":285105,"DIS_CODE":0,"TOWNNAME":"永康區","LI":"六合里","LIN":"2鄰","STREET":"中山南路","SECT":" ","MAREA":" ","LANE":" ","ALLEY":" ","HOUSE_NO":"３２之１號","E_COORD97":170832.02685699999,"N_COORD97":2545847.6026699999,"ADDRESS":"中山南路３２之１號","OBJECTID":285099},"geometry":{"x":170832.02685699984,"y":2545847.602667002}},{"attributes":{"ID":285106,"DIS_CODE":0,"TOWNNAME":"將軍區","LI":"仁和里","LIN":"2鄰","STREET":" ","SECT":" ","MAREA":"仁巷","LANE":" ","ALLEY":" ","HOUSE_NO":"２２之１號","E_COORD97":164136.17999999999,"N_COORD97":2569341.6899999999,"ADDRESS":"仁巷２２之１號","OBJECTID":285100},"geometry":{"x":164136.1799999997,"y":2569341.6900000032}},{"attributes":{"ID":285107,"DIS_CODE":0,"TOWNNAME":"將軍區","LI":"仁和里","LIN":"2鄰","STREET":" ","SECT":" ","MAREA":"仁巷","LANE":" ","ALLEY":" ","HOUSE_NO":"２２號","E_COORD97":164103.89000000001,"N_COORD97":2569343.23,"ADDRESS":"仁巷２２號","OBJECTID":285101},"geometry":{"x":164103.88999999966,"y":2569343.2300000023}},{"attributes":{"ID":285108,"DIS_CODE":0,"TOWNNAME":"安南區","LI":"總頭里","LIN":"2鄰","STREET":"總安街","SECT":"二段","MAREA":" ","LANE":" ","ALLEY":" ","HOUSE_NO":"２４３號之１１","E_COORD97":168530.79789099999,"N_COORD97":2550340.7462399998,"ADDRESS":"總安街二段２４３號之１１","OBJECTID":285102},"geometry":{"x":168530.79789100122,"y":2550340.7462350018}},{"attributes":{"ID":285109,"DIS_CODE":0,"TOWNNAME":"安南區","LI":"總頭里","LIN":"2鄰","STREET":"總安街","SECT":"二段","MAREA":" ","LANE":" ","ALLEY":" ","HOUSE_NO":"２４３號之１０","E_COORD97":168531.00975,"N_COORD97":2550356.8328900002,"ADDRESS":"總安街二段２４３號之１０","OBJECTID":285103},"geometry":{"x":168531.00975000113,"y":2550356.8328900039}},{"attributes":{"ID":285110,"DIS_CODE":0,"TOWNNAME":"安南區","LI":"總頭里","LIN":"2鄰","STREET":"總安街","SECT":"二段","MAREA":" ","LANE":" ","ALLEY":" ","HOUSE_NO":"３６７號","E_COORD97":168297.95559600001,"N_COORD97":2550487.0078199999,"ADDRESS":"總安街二段３６７號","OBJECTID":285104},"geometry":{"x":168297.95559599996,"y":2550487.0078230016}},{"attributes":{"ID":285111,"DIS_CODE":0,"TOWNNAME":"永康區","LI":"二王里","LIN":"12鄰","STREET":"永二街","SECT":" ","MAREA":" ","LANE":"４３１巷","ALLEY":" ","HOUSE_NO":"７號","E_COORD97":172783.64999999999,"N_COORD97":2546626.98,"ADDRESS":"永二街４３１巷７號","OBJECTID":285105},"geometry":{"x":172783.6500000013,"y":2546626.9800000004}},{"attributes":{"ID":285112,"DIS_CODE":0,"TOWNNAME":"永康區","LI":"復華里","LIN":"12鄰","STREET":"國華街","SECT":" ","MAREA":" ","LANE":"９８巷","ALLEY":" ","HOUSE_NO":"１２號","E_COORD97":172864.98000000001,"N_COORD97":2545957.9900000002,"ADDRESS":"國華街９８巷１２號","OBJECTID":285106},"geometry":{"x":172864.98000000045,"y":2545957.9900000021}},{"attributes":{"ID":285113,"DIS_CODE":0,"TOWNNAME":"永康區","LI":"二王里","LIN":"12鄰","STREET":"永二街","SECT":" ","MAREA":" ","LANE":"４４７巷","ALLEY":" ","HOUSE_NO":"７２號","E_COORD97":172827.03,"N_COORD97":2546533.6699999999,"ADDRESS":"永二街４４７巷７２號","OBJECTID":285107},"geometry":{"x":172827.03000000026,"y":2546533.6699999999}},{"attributes":{"ID":285114,"DIS_CODE":0,"TOWNNAME":"安南區","LI":"幸福里","LIN":"12鄰","STREET":"府安路","SECT":"六段","MAREA":" ","LANE":"８６巷","ALLEY":" ","HOUSE_NO":"１３號","E_COORD97":166782.81,"N_COORD97":2546574.8300000001,"ADDRESS":"府安路六段８６巷１３號","OBJECTID":285108},"geometry":{"x":166782.80999999959,"y":2546574.8299999982}},{"attributes":{"ID":285115,"DIS_CODE":0,"TOWNNAME":"安南區","LI":"幸福里","LIN":"12鄰","STREET":"府安路","SECT":"六段","MAREA":" ","LANE":"８６巷","ALLEY":" ","HOUSE_NO":"１７號","E_COORD97":166781.01000000001,"N_COORD97":2546585.79,"ADDRESS":"府安路六段８６巷１７號","OBJECTID":285109},"geometry":{"x":166781.01000000071,"y":2546585.790000001}},{"attributes":{"ID":285116,"DIS_CODE":0,"TOWNNAME":"永康區","LI":"埔園里","LIN":"2鄰","STREET":"永埔街","SECT":" ","MAREA":" ","LANE":" ","ALLEY":" ","HOUSE_NO":"１３８號","E_COORD97":173970.03,"N_COORD97":2547716.4900000002,"ADDRESS":"永埔街１３８號","OBJECTID":285110},"geometry":{"x":173970.03000000026,"y":2547716.4899999984}},{"attributes":{"ID":285117,"DIS_CODE":0,"TOWNNAME":"永康區","LI":"埔園里","LIN":"2鄰","STREET":"聖龍街","SECT":" ","MAREA":" ","LANE":" ","ALLEY":" ","HOUSE_NO":"１６號","E_COORD97":173819.70000000001,"N_COORD97":2547772,"ADDRESS":"聖龍街１６號","OBJECTID":285111},"geometry":{"x":173819.69999999925,"y":2547772.0000000019}},{"attributes":{"ID":285118,"DIS_CODE":0,"TOWNNAME":"安南區","LI":"幸福里","LIN":"12鄰","STREET":"府安路","SECT":"六段","MAREA":" ","LANE":"８６巷","ALLEY":" ","HOUSE_NO":"１９號","E_COORD97":166779.75,"N_COORD97":2546591.6800000002,"ADDRESS":"府安路六段８６巷１９號","OBJECTID":285112},"geometry":{"x":166779.75000000093,"y":2546591.6799999997}},{"attributes":{"ID":285119,"DIS_CODE":0,"TOWNNAME":"安南區","LI":"幸福里","LIN":"12鄰","STREET":"府安路","SECT":"六段","MAREA":" ","LANE":"８６巷","ALLEY":" ","HOUSE_NO":"１號","E_COORD97":166789.92999999999,"N_COORD97":2546542.75,"ADDRESS":"府安路六段８６巷１號","OBJECTID":285113},"geometry":{"x":166789.93000000063,"y":2546542.7500000019}},{"attributes":{"ID":285120,"DIS_CODE":0,"TOWNNAME":"安南區","LI":"幸福里","LIN":"12鄰","STREET":"府安路","SECT":"六段","MAREA":" ","LANE":"８６巷","ALLEY":" ","HOUSE_NO":"２０號","E_COORD97":166799.29999999999,"N_COORD97":2546595.6200000001,"ADDRESS":"府安路六段８６巷２０號","OBJECTID":285114},"geometry":{"x":166799.30000000075,"y":2546595.6200000029}},{"attributes":{"ID":285121,"DIS_CODE":0,"TOWNNAME":"永康區","LI":"崑山里","LIN":"2鄰","STREET":"大灣路","SECT":" ","MAREA":" ","LANE":" ","ALLEY":" ","HOUSE_NO":"８８１號","E_COORD97":173638.17000000001,"N_COORD97":2544401.8700000001,"ADDRESS":"大灣路８８１號","OBJECTID":285115},"geometry":{"x":173638.16999999993,"y":2544401.870000001}},{"attributes":{"ID":285122,"DIS_CODE":0,"TOWNNAME":"安南區","LI":"幸福里","LIN":"12鄰","STREET":"府安路","SECT":"六段","MAREA":" ","LANE":"８６巷","ALLEY":" ","HOUSE_NO":"２１號","E_COORD97":166778.94,"N_COORD97":2546596.8900000001,"ADDRESS":"府安路六段８６巷２１號","OBJECTID":285116},"geometry":{"x":166778.94000000134,"y":2546596.8900000025}},{"attributes":{"ID":285123,"DIS_CODE":0,"TOWNNAME":"安南區","LI":"幸福里","LIN":"12鄰","STREET":"府安路","SECT":"六段","MAREA":" ","LANE":"８６巷","ALLEY":" ","HOUSE_NO":"２３號","E_COORD97":166778.94,"N_COORD97":2546602.46,"ADDRESS":"府安路六段８６巷２３號","OBJECTID":285117},"geometry":{"x":166778.94000000134,"y":2546602.4600000028}},{"attributes":{"ID":285124,"DIS_CODE":0,"TOWNNAME":"安南區","LI":"幸福里","LIN":"12鄰","STREET":"府安路","SECT":"六段","MAREA":" ","LANE":"８６巷","ALLEY":" ","HOUSE_NO":"２４號","E_COORD97":166798.66,"N_COORD97":2546604.0800000001,"ADDRESS":"府安路六段８６巷２４號","OBJECTID":285118},"geometry":{"x":166798.66000000201,"y":2546604.0800000038}},{"attributes":{"ID":285125,"DIS_CODE":0,"TOWNNAME":"永康區","LI":"埔園里","LIN":"2鄰","STREET":"中山路","SECT":" ","MAREA":" ","LANE":" ","ALLEY":" ","HOUSE_NO":"１１２號","E_COORD97":173802.17999999999,"N_COORD97":2547697,"ADDRESS":"中山路１１２號","OBJECTID":285119},"geometry":{"x":173802.1799999997,"y":2547697.0000000019}},{"attributes":{"ID":285126,"DIS_CODE":0,"TOWNNAME":"永康區","LI":"埔園里","LIN":"2鄰","STREET":"中山路","SECT":" ","MAREA":" ","LANE":" ","ALLEY":" ","HOUSE_NO":"１２２號","E_COORD97":173795.63,"N_COORD97":2547724.9900000002,"ADDRESS":"中山路１２２號","OBJECTID":285120},"geometry":{"x":173795.62999999989,"y":2547724.9900000021}},{"attributes":{"ID":285127,"DIS_CODE":0,"TOWNNAME":"永康區","LI":"南灣里","LIN":"2鄰","STREET":"大灣一街","SECT":" ","MAREA":" ","LANE":" ","ALLEY":" ","HOUSE_NO":"１３９號","E_COORD97":174647.09,"N_COORD97":2544638.4900000002,"ADDRESS":"大灣一街１３９號","OBJECTID":285121},"geometry":{"x":174647.08999999985,"y":2544638.4900000021}},{"attributes":{"ID":285128,"DIS_CODE":0,"TOWNNAME":"永康區","LI":"埔園里","LIN":"2鄰","STREET":"永埔街","SECT":" ","MAREA":" ","LANE":" ","ALLEY":" ","HOUSE_NO":"８１號","E_COORD97":173944.51000000001,"N_COORD97":2547716.2400000002,"ADDRESS":"永埔街８１號","OBJECTID":285122},"geometry":{"x":173944.51000000164,"y":2547716.2400000021}},{"attributes":{"ID":285129,"DIS_CODE":0,"TOWNNAME":"佳里區","LI":"六安里","LIN":"2鄰","STREET":"延平路","SECT":" ","MAREA":" ","LANE":" ","ALLEY":" ","HOUSE_NO":"４４２號","E_COORD97":165881.38,"N_COORD97":2562732.2400000002,"ADDRESS":"延平路４４２號","OBJECTID":285123},"geometry":{"x":165881.38000000175,"y":2562732.2400000021}},{"attributes":{"ID":285130,"DIS_CODE":0,"TOWNNAME":"七股區","LI":"西寮里","LIN":"4鄰","STREET":" ","SECT":" ","MAREA":"西寮","LANE":" ","ALLEY":" ","HOUSE_NO":"３８號","E_COORD97":157451.67999999999,"N_COORD97":2563613.71,"ADDRESS":"西寮３８號","OBJECTID":285124},"geometry":{"x":157451.6799999997,"y":2563613.7100000028}},{"attributes":{"ID":285131,"DIS_CODE":0,"TOWNNAME":"佳里區","LI":"六安里","LIN":"2鄰","STREET":"延平路","SECT":" ","MAREA":" ","LANE":" ","ALLEY":" ","HOUSE_NO":"４４６號","E_COORD97":165879.82999999999,"N_COORD97":2562746.2799999998,"ADDRESS":"延平路４４６號","OBJECTID":285125},"geometry":{"x":165879.83000000007,"y":2562746.2799999993}},{"attributes":{"ID":285132,"DIS_CODE":0,"TOWNNAME":"白河區","LI":"詔安里","LIN":"2鄰","STREET":" ","SECT":" ","MAREA":"詔安厝","LANE":" ","ALLEY":" ","HOUSE_NO":"２１之１０號","E_COORD97":189847.54000000001,"N_COORD97":2588066.4199999999,"ADDRESS":"詔安厝２１之１０號","OBJECTID":285126},"geometry":{"x":189847.54000000097,"y":2588066.4200000018}},{"attributes":{"ID":285133,"DIS_CODE":0,"TOWNNAME":"安定區","LI":"南安里","LIN":"2鄰","STREET":" ","SECT":" ","MAREA":"油車","LANE":" ","ALLEY":" ","HOUSE_NO":"１２號","E_COORD97":170733.14000000001,"N_COORD97":2555812.25,"ADDRESS":"油車１２號","OBJECTID":285127},"geometry":{"x":170733.1400000006,"y":2555812.2500000019}},{"attributes":{"ID":285134,"DIS_CODE":0,"TOWNNAME":"安南區","LI":"幸福里","LIN":"12鄰","STREET":"府安路","SECT":"六段","MAREA":" ","LANE":"８６巷","ALLEY":" ","HOUSE_NO":"２５號","E_COORD97":166777.23000000001,"N_COORD97":2546607.9300000002,"ADDRESS":"府安路六段８６巷２５號","OBJECTID":285128},"geometry":{"x":166777.23000000138,"y":2546607.9300000034}},{"attributes":{"ID":285135,"DIS_CODE":0,"TOWNNAME":"安南區","LI":"佃東里","LIN":"12鄰","STREET":"海佃路","SECT":"四段","MAREA":" ","LANE":"３８８巷","ALLEY":" ","HOUSE_NO":"８６號","E_COORD97":165615.47,"N_COORD97":2551720.02,"ADDRESS":"海佃路四段３８８巷８６號","OBJECTID":285129},"geometry":{"x":165615.46999999974,"y":2551720.0200000033}},{"attributes":{"ID":285136,"DIS_CODE":0,"TOWNNAME":"安南區","LI":"佃東里","LIN":"12鄰","STREET":"海佃路","SECT":"四段","MAREA":" ","LANE":"３８８巷","ALLEY":" ","HOUSE_NO":"９０號","E_COORD97":165616.12,"N_COORD97":2551725.1899999999,"ADDRESS":"海佃路四段３８８巷９０號","OBJECTID":285130},"geometry":{"x":165616.12000000104,"y":2551725.1899999976}},{"attributes":{"ID":285137,"DIS_CODE":0,"TOWNNAME":"永康區","LI":"尚頂里","LIN":"12鄰","STREET":"尚頂路","SECT":" ","MAREA":" ","LANE":"５２巷","ALLEY":" ","HOUSE_NO":"２３號","E_COORD97":171289.07000000001,"N_COORD97":2547588.48,"ADDRESS":"尚頂路５２巷２３號","OBJECTID":285131},"geometry":{"x":171289.0700000003,"y":2547588.4800000023}},{"attributes":{"ID":285138,"DIS_CODE":0,"TOWNNAME":"永康區","LI":"尚頂里","LIN":"12鄰","STREET":"尚頂路","SECT":" ","MAREA":" ","LANE":"５２巷","ALLEY":" ","HOUSE_NO":"２５號","E_COORD97":171298.48000000001,"N_COORD97":2547599.0600000001,"ADDRESS":"尚頂路５２巷２５號","OBJECTID":285132},"geometry":{"x":171298.48000000045,"y":2547599.0600000024}},{"attributes":{"ID":285139,"DIS_CODE":0,"TOWNNAME":"永康區","LI":"尚頂里","LIN":"12鄰","STREET":"尚頂路","SECT":" ","MAREA":" ","LANE":"５２巷","ALLEY":" ","HOUSE_NO":"２７號","E_COORD97":171312.73999999999,"N_COORD97":2547591.9500000002,"ADDRESS":"尚頂路５２巷２７號","OBJECTID":285133},"geometry":{"x":171312.74000000115,"y":2547591.9500000011}},{"attributes":{"ID":285140,"DIS_CODE":0,"TOWNNAME":"仁德區","LI":"後壁里","LIN":"12鄰","STREET":"德善路","SECT":" ","MAREA":" ","LANE":"２１２巷","ALLEY":" ","HOUSE_NO":"４１號","E_COORD97":173819.64000000001,"N_COORD97":2538614.7599999998,"ADDRESS":"德善路２１２巷４１號","OBJECTID":285134},"geometry":{"x":173819.64000000153,"y":2538614.7600000035}},{"attributes":{"ID":285141,"DIS_CODE":0,"TOWNNAME":"仁德區","LI":"後壁里","LIN":"12鄰","STREET":"德善路","SECT":" ","MAREA":" ","LANE":"２１２巷","ALLEY":" ","HOUSE_NO":"３９號","E_COORD97":173815.69,"N_COORD97":2538617.0099999998,"ADDRESS":"德善路２１２巷３９號","OBJECTID":285135},"geometry":{"x":173815.69000000134,"y":2538617.0100000016}},{"attributes":{"ID":285142,"DIS_CODE":0,"TOWNNAME":"仁德區","LI":"後壁里","LIN":"12鄰","STREET":"德善路","SECT":" ","MAREA":" ","LANE":"２４０巷","ALLEY":" ","HOUSE_NO":"２號","E_COORD97":173843.26000000001,"N_COORD97":2538650.77,"ADDRESS":"德善路２４０巷２號","OBJECTID":285136},"geometry":{"x":173843.26000000071,"y":2538650.7699999996}},{"attributes":{"ID":285143,"DIS_CODE":0,"TOWNNAME":"官田區","LI":"隆本里","LIN":"12鄰","STREET":"興隆街","SECT":" ","MAREA":" ","LANE":"９６巷","ALLEY":" ","HOUSE_NO":"１３號","E_COORD97":179856.76000000001,"N_COORD97":2566425.3900000001,"ADDRESS":"興隆街９６巷１３號","OBJECTID":285137},"geometry":{"x":179856.75999999978,"y":2566425.3900000006}},{"attributes":{"ID":285144,"DIS_CODE":0,"TOWNNAME":"南區","LI":"國宅里","LIN":"13鄰","STREET":"金華路","SECT":"二段","MAREA":" ","LANE":"３３巷","ALLEY":" ","HOUSE_NO":"６３號","E_COORD97":166866.45000000001,"N_COORD97":2541976.9700000002,"ADDRESS":"金華路二段３３巷６３號","OBJECTID":285138},"geometry":{"x":166866.45000000112,"y":2541976.9700000007}},{"attributes":{"ID":285145,"DIS_CODE":0,"TOWNNAME":"南區","LI":"國宅里","LIN":"13鄰","STREET":"金華路","SECT":"二段","MAREA":" ","LANE":"３３巷","ALLEY":" ","HOUSE_NO":"６４號","E_COORD97":166868.32999999999,"N_COORD97":2541992.3199999998,"ADDRESS":"金華路二段３３巷６４號","OBJECTID":285139},"geometry":{"x":166868.33000000007,"y":2541992.3200000022}},{"attributes":{"ID":285146,"DIS_CODE":0,"TOWNNAME":"永康區","LI":"王行里","LIN":"12鄰","STREET":"王行路","SECT":" ","MAREA":" ","LANE":"８６６巷","ALLEY":" ","HOUSE_NO":"１１號","E_COORD97":175897.92999999999,"N_COORD97":2549970,"ADDRESS":"王行路８６６巷１１號","OBJECTID":285140},"geometry":{"x":175897.93000000063,"y":2549970}},{"attributes":{"ID":285147,"DIS_CODE":0,"TOWNNAME":"永康區","LI":"北灣里","LIN":"12鄰","STREET":"大同街","SECT":" ","MAREA":" ","LANE":"１５０巷","ALLEY":" ","HOUSE_NO":"２號","E_COORD97":174969.57999999999,"N_COORD97":2545600.5800000001,"ADDRESS":"大同街１５０巷２號","OBJECTID":285141},"geometry":{"x":174969.58000000007,"y":2545600.5800000038}},{"attributes":{"ID":285148,"DIS_CODE":0,"TOWNNAME":"永康區","LI":"北灣里","LIN":"12鄰","STREET":"大同街","SECT":" ","MAREA":" ","LANE":"１５０巷","ALLEY":" ","HOUSE_NO":"５號","E_COORD97":174988.88,"N_COORD97":2545597.8599999999,"ADDRESS":"大同街１５０巷５號","OBJECTID":285142},"geometry":{"x":174988.87999999989,"y":2545597.8600000031}},{"attributes":{"ID":285149,"DIS_CODE":0,"TOWNNAME":"永康區","LI":"北灣里","LIN":"12鄰","STREET":"大民街","SECT":" ","MAREA":" ","LANE":"１４８巷","ALLEY":" ","HOUSE_NO":"１３號","E_COORD97":174990.69,"N_COORD97":2545636.7200000002,"ADDRESS":"大民街１４８巷１３號","OBJECTID":285143},"geometry":{"x":174990.69000000041,"y":2545636.7200000007}},{"attributes":{"ID":285150,"DIS_CODE":0,"TOWNNAME":"永康區","LI":"北灣里","LIN":"12鄰","STREET":"大民街","SECT":" ","MAREA":" ","LANE":"１４８巷","ALLEY":" ","HOUSE_NO":"５號","E_COORD97":174970.22,"N_COORD97":2545658.6800000002,"ADDRESS":"大民街１４８巷５號","OBJECTID":285144},"geometry":{"x":174970.2200000016,"y":2545658.6799999997}},{"attributes":{"ID":285151,"DIS_CODE":0,"TOWNNAME":"南區","LI":"國宅里","LIN":"14鄰","STREET":"金華路","SECT":"二段","MAREA":" ","LANE":"３巷","ALLEY":" ","HOUSE_NO":"５３號","E_COORD97":166765.95000000001,"N_COORD97":2541818.7200000002,"ADDRESS":"金華路二段３巷５３號","OBJECTID":285145},"geometry":{"x":166765.95000000019,"y":2541818.7200000007}},{"attributes":{"ID":285152,"DIS_CODE":0,"TOWNNAME":"南區","LI":"國宅里","LIN":"14鄰","STREET":"金華路","SECT":"二段","MAREA":" ","LANE":"３巷","ALLEY":" ","HOUSE_NO":"５５號","E_COORD97":166760.12,"N_COORD97":2541818.7200000002,"ADDRESS":"金華路二段３巷５５號","OBJECTID":285146},"geometry":{"x":166760.12000000104,"y":2541818.7200000007}},{"attributes":{"ID":285153,"DIS_CODE":0,"TOWNNAME":"南區","LI":"國宅里","LIN":"14鄰","STREET":"金華路","SECT":"二段","MAREA":" ","LANE":"３巷","ALLEY":" ","HOUSE_NO":"５７號","E_COORD97":166754.29000000001,"N_COORD97":2541819.4500000002,"ADDRESS":"金華路二段３巷５７號","OBJECTID":285147},"geometry":{"x":166754.29000000097,"y":2541819.4499999993}},{"attributes":{"ID":285154,"DIS_CODE":0,"TOWNNAME":"南區","LI":"國宅里","LIN":"14鄰","STREET":"金華路","SECT":"二段","MAREA":" ","LANE":"３巷","ALLEY":" ","HOUSE_NO":"５９號","E_COORD97":166748.22,"N_COORD97":2541819.9300000002,"ADDRESS":"金華路二段３巷５９號","OBJECTID":285148},"geometry":{"x":166748.21999999974,"y":2541819.9299999997}},{"attributes":{"ID":285155,"DIS_CODE":0,"TOWNNAME":"新市區","LI":"新市里","LIN":"2鄰","STREET":"光華街","SECT":" ","MAREA":" ","LANE":" ","ALLEY":" ","HOUSE_NO":"１６５號","E_COORD97":177813.85000000001,"N_COORD97":2553047.5,"ADDRESS":"光華街１６５號","OBJECTID":285149},"geometry":{"x":177813.85000000149,"y":2553047.5000000019}},{"attributes":{"ID":285156,"DIS_CODE":0,"TOWNNAME":"南區","LI":"國宅里","LIN":"14鄰","STREET":"金華路","SECT":"二段","MAREA":" ","LANE":"３巷","ALLEY":" ","HOUSE_NO":"６１號","E_COORD97":166741.42000000001,"N_COORD97":2541820.4199999999,"ADDRESS":"金華路二段３巷６１號","OBJECTID":285150},"geometry":{"x":166741.42000000086,"y":2541820.4199999999}},{"attributes":{"ID":285157,"DIS_CODE":0,"TOWNNAME":"南區","LI":"國宅里","LIN":"14鄰","STREET":"金華路","SECT":"二段","MAREA":" ","LANE":"３巷","ALLEY":" ","HOUSE_NO":"６２號","E_COORD97":166758.95999999999,"N_COORD97":2541836.4300000002,"ADDRESS":"金華路二段３巷６２號","OBJECTID":285151},"geometry":{"x":166758.95999999903,"y":2541836.4299999997}},{"attributes":{"ID":285158,"DIS_CODE":0,"TOWNNAME":"永康區","LI":"北灣里","LIN":"12鄰","STREET":"大民街","SECT":" ","MAREA":" ","LANE":"１５８巷","ALLEY":" ","HOUSE_NO":"１號","E_COORD97":174951.19,"N_COORD97":2545680.21,"ADDRESS":"大民街１５８巷１號","OBJECTID":285152},"geometry":{"x":174951.19000000134,"y":2545680.2100000009}},{"attributes":{"ID":285159,"DIS_CODE":0,"TOWNNAME":"永康區","LI":"王行里","LIN":"12鄰","STREET":"王行路","SECT":" ","MAREA":" ","LANE":"８６６巷","ALLEY":" ","HOUSE_NO":"９號","E_COORD97":175891.57000000001,"N_COORD97":2549970,"ADDRESS":"王行路８６６巷９號","OBJECTID":285153},"geometry":{"x":175891.5700000003,"y":2549970}},{"attributes":{"ID":285160,"DIS_CODE":0,"TOWNNAME":"永康區","LI":"王行里","LIN":"12鄰","STREET":"王行路","SECT":" ","MAREA":" ","LANE":"８６６巷","ALLEY":" ","HOUSE_NO":"５號","E_COORD97":175880.82999999999,"N_COORD97":2549971.77,"ADDRESS":"王行路８６６巷５號","OBJECTID":285154},"geometry":{"x":175880.83000000101,"y":2549971.7699999996}},{"attributes":{"ID":285161,"DIS_CODE":0,"TOWNNAME":"東區","LI":"東門里","LIN":"12鄰","STREET":"東榮街","SECT":" ","MAREA":" ","LANE":"４４巷","ALLEY":" ","HOUSE_NO":"１１號","E_COORD97":169513.69,"N_COORD97":2543387.4300000002,"ADDRESS":"東榮街４４巷１１號","OBJECTID":285155},"geometry":{"x":169513.69000000041,"y":2543387.4300000016}},{"attributes":{"ID":285162,"DIS_CODE":0,"TOWNNAME":"東區","LI":"東門里","LIN":"12鄰","STREET":"東榮街","SECT":" ","MAREA":" ","LANE":"４４巷","ALLEY":" ","HOUSE_NO":"１５號","E_COORD97":169501.81,"N_COORD97":2543379,"ADDRESS":"東榮街４４巷１５號","OBJECTID":285156},"geometry":{"x":169501.80999999959,"y":2543379}},{"attributes":{"ID":285163,"DIS_CODE":0,"TOWNNAME":"永康區","LI":"甲頂里","LIN":"12鄰","STREET":"中正南路","SECT":" ","MAREA":" ","LANE":"５２巷","ALLEY":" ","HOUSE_NO":"９６號","E_COORD97":170102.66,"N_COORD97":2546770.2200000002,"ADDRESS":"中正南路５２巷９６號","OBJECTID":285157},"geometry":{"x":170102.66000000108,"y":2546770.2200000025}},{"attributes":{"ID":285164,"DIS_CODE":0,"TOWNNAME":"永康區","LI":"埔園里","LIN":"2鄰","STREET":"中山路","SECT":" ","MAREA":" ","LANE":" ","ALLEY":" ","HOUSE_NO":"１３６號","E_COORD97":173787.42000000001,"N_COORD97":2547758,"ADDRESS":"中山路１３６號","OBJECTID":285158},"geometry":{"x":173787.41999999899,"y":2547758.0000000019}},{"attributes":{"ID":285165,"DIS_CODE":0,"TOWNNAME":"中西區","LI":"三民里","LIN":"4鄰","STREET":"忠義路","SECT":"二段","MAREA":" ","LANE":" ","ALLEY":" ","HOUSE_NO":"７６號","E_COORD97":168319.84,"N_COORD97":2543815.5,"ADDRESS":"忠義路二段７６號","OBJECTID":285159},"geometry":{"x":168319.84000000078,"y":2543815.5000000019}},{"attributes":{"ID":285166,"DIS_CODE":0,"TOWNNAME":"中西區","LI":"三民里","LIN":"4鄰","STREET":"忠義路","SECT":"二段","MAREA":" ","LANE":" ","ALLEY":" ","HOUSE_NO":"７８號","E_COORD97":168321.03,"N_COORD97":2543819.4700000002,"ADDRESS":"忠義路二段７８號","OBJECTID":285160},"geometry":{"x":168321.03000000026,"y":2543819.4700000025}},{"attributes":{"ID":285167,"DIS_CODE":0,"TOWNNAME":"中西區","LI":"三民里","LIN":"4鄰","STREET":"忠義路","SECT":"二段","MAREA":" ","LANE":" ","ALLEY":" ","HOUSE_NO":"８０號","E_COORD97":168322.42000000001,"N_COORD97":2543823.4300000002,"ADDRESS":"忠義路二段８０號","OBJECTID":285161},"geometry":{"x":168322.42000000086,"y":2543823.4299999997}},{"attributes":{"ID":285168,"DIS_CODE":0,"TOWNNAME":"中西區","LI":"三民里","LIN":"4鄰","STREET":"忠義路","SECT":"二段","MAREA":" ","LANE":" ","ALLEY":" ","HOUSE_NO":"８２號","E_COORD97":168335.51999999999,"N_COORD97":2543836.1099999999,"ADDRESS":"忠義路二段８２號","OBJECTID":285162},"geometry":{"x":168335.52000000048,"y":2543836.1099999994}},{"attributes":{"ID":285169,"DIS_CODE":0,"TOWNNAME":"中西區","LI":"三民里","LIN":"4鄰","STREET":"民生路","SECT":"一段","MAREA":" ","LANE":" ","ALLEY":" ","HOUSE_NO":"２４號","E_COORD97":168409.59,"N_COORD97":2543748.5299999998,"ADDRESS":"民生路一段２４號","OBJECTID":285163},"geometry":{"x":168409.59000000078,"y":2543748.5299999975}},{"attributes":{"ID":285170,"DIS_CODE":0,"TOWNNAME":"中西區","LI":"萬昌里","LIN":"6鄰","STREET":"民權路","SECT":"一段","MAREA":" ","LANE":" ","ALLEY":" ","HOUSE_NO":"９５號","E_COORD97":168943.95000000001,"N_COORD97":2543418.48,"ADDRESS":"民權路一段９５號","OBJECTID":285164},"geometry":{"x":168943.95000000019,"y":2543418.4800000023}},{"attributes":{"ID":285171,"DIS_CODE":0,"TOWNNAME":"善化區","LI":"文昌里","LIN":"15鄰","STREET":"大信路","SECT":" ","MAREA":" ","LANE":" ","ALLEY":" ","HOUSE_NO":"６３號","E_COORD97":177589.57000000001,"N_COORD97":2558762.25,"ADDRESS":"大信路６３號","OBJECTID":285165},"geometry":{"x":177589.57000000123,"y":2558762.25}},{"attributes":{"ID":285172,"DIS_CODE":0,"TOWNNAME":"官田區","LI":"隆本里","LIN":"20鄰","STREET":"忠義街","SECT":" ","MAREA":" ","LANE":" ","ALLEY":" ","HOUSE_NO":"１３號","E_COORD97":180111.82000000001,"N_COORD97":2566277.7799999998,"ADDRESS":"忠義街１３號","OBJECTID":285166},"geometry":{"x":180111.82000000123,"y":2566277.7800000012}},{"attributes":{"ID":285173,"DIS_CODE":0,"TOWNNAME":"新市區","LI":"潭頂里","LIN":"2鄰","STREET":" ","SECT":" ","MAREA":"潭頂","LANE":" ","ALLEY":" ","HOUSE_NO":"９０之４９號","E_COORD97":181717.98000000001,"N_COORD97":2553498.7999999998,"ADDRESS":"潭頂９０之４９號","OBJECTID":285167},"geometry":{"x":181717.98000000138,"y":2553498.8000000007}},{"attributes":{"ID":285174,"DIS_CODE":0,"TOWNNAME":"新化區","LI":"東榮里","LIN":"12鄰","STREET":"中興路","SECT":" ","MAREA":" ","LANE":"５３４巷","ALLEY":" ","HOUSE_NO":"２號之４","E_COORD97":179969.23999999999,"N_COORD97":2547967.2599999998,"ADDRESS":"中興路５３４巷２號之４","OBJECTID":285168},"geometry":{"x":179969.24000000022,"y":2547967.2599999998}},{"attributes":{"ID":285175,"DIS_CODE":0,"TOWNNAME":"新化區","LI":"東榮里","LIN":"12鄰","STREET":"中興路","SECT":" ","MAREA":" ","LANE":"５３４巷","ALLEY":" ","HOUSE_NO":"１１號","E_COORD97":179948.76000000001,"N_COORD97":2547945.25,"ADDRESS":"中興路５３４巷１１號","OBJECTID":285169},"geometry":{"x":179948.76000000164,"y":2547945.2500000037}},{"attributes":{"ID":285176,"DIS_CODE":0,"TOWNNAME":"新化區","LI":"東榮里","LIN":"12鄰","STREET":"中興路","SECT":" ","MAREA":" ","LANE":"５３４巷","ALLEY":" ","HOUSE_NO":"４４號","E_COORD97":179979.35999999999,"N_COORD97":2548004.25,"ADDRESS":"中興路５３４巷４４號","OBJECTID":285170},"geometry":{"x":179979.36000000127,"y":2548004.2500000019}},{"attributes":{"ID":285177,"DIS_CODE":0,"TOWNNAME":"新化區","LI":"東榮里","LIN":"12鄰","STREET":"中興路","SECT":" ","MAREA":" ","LANE":"５３４巷","ALLEY":" ","HOUSE_NO":"７號","E_COORD97":179939.51000000001,"N_COORD97":2547949.25,"ADDRESS":"中興路５３４巷７號","OBJECTID":285171},"geometry":{"x":179939.50999999978,"y":2547949.2500000019}},{"attributes":{"ID":285178,"DIS_CODE":0,"TOWNNAME":"安南區","LI":"佃東里","LIN":"12鄰","STREET":"海佃路","SECT":"四段","MAREA":" ","LANE":"３８８巷","ALLEY":" ","HOUSE_NO":"１２４號","E_COORD97":165619.34,"N_COORD97":2551821.3700000001,"ADDRESS":"海佃路四段３８８巷１２４號","OBJECTID":285172},"geometry":{"x":165619.34000000078,"y":2551821.3700000029}},{"attributes":{"ID":285179,"DIS_CODE":0,"TOWNNAME":"安南區","LI":"城南里","LIN":"12鄰","STREET":"城西街","SECT":"二段","MAREA":" ","LANE":"３１８巷","ALLEY":" ","HOUSE_NO":"３５號","E_COORD97":159570.47,"N_COORD97":2551094.8100000001,"ADDRESS":"城西街二段３１８巷３５號","OBJECTID":285173},"geometry":{"x":159570.46999999974,"y":2551094.8099999987}},{"attributes":{"ID":285180,"DIS_CODE":0,"TOWNNAME":"仁德區","LI":"後壁里","LIN":"12鄰","STREET":"德南路","SECT":" ","MAREA":" ","LANE":"１９４巷","ALLEY":" ","HOUSE_NO":"３號","E_COORD97":173705.81,"N_COORD97":2538464.02,"ADDRESS":"德南路１９４巷３號","OBJECTID":285174},"geometry":{"x":173705.80999999959,"y":2538464.0200000014}},{"attributes":{"ID":285181,"DIS_CODE":0,"TOWNNAME":"安南區","LI":"\u25A0南里","LIN":"12鄰","STREET":"安昌街","SECT":" ","MAREA":" ","LANE":"２５４巷","ALLEY":" ","HOUSE_NO":"１號","E_COORD97":170144.62,"N_COORD97":2552640.54,"ADDRESS":"安昌街２５４巷１號","OBJECTID":285175},"geometry":{"x":170144.62000000011,"y":2552640.5399999991}},{"attributes":{"ID":285182,"DIS_CODE":0,"TOWNNAME":"安南區","LI":"城南里","LIN":"12鄰","STREET":"城西街","SECT":"二段","MAREA":" ","LANE":"３１８巷","ALLEY":" ","HOUSE_NO":"８０號之８０","E_COORD97":159606.48999999999,"N_COORD97":2551189.5899999999,"ADDRESS":"城西街二段３１８巷８０號之８０","OBJECTID":285176},"geometry":{"x":159606.49000000022,"y":2551189.5899999999}},{"attributes":{"ID":285183,"DIS_CODE":0,"TOWNNAME":"安南區","LI":"淵西里","LIN":"12鄰","STREET":"安中路","SECT":"四段","MAREA":" ","LANE":"２９０巷","ALLEY":" ","HOUSE_NO":"８２號","E_COORD97":164719.73000000001,"N_COORD97":2550241.4500000002,"ADDRESS":"安中路四段２９０巷８２號","OBJECTID":285177},"geometry":{"x":164719.73000000045,"y":2550241.4499999993}},{"attributes":{"ID":285184,"DIS_CODE":0,"TOWNNAME":"下營區","LI":"西連里","LIN":"2鄰","STREET":" ","SECT":" ","MAREA":"連表","LANE":" ","ALLEY":" ","HOUSE_NO":"１１號","E_COORD97":174961.17999999999,"N_COORD97":2567767.1000000001,"ADDRESS":"連表１１號","OBJECTID":285178},"geometry":{"x":174961.1799999997,"y":2567767.1000000015}},{"attributes":{"ID":285185,"DIS_CODE":0,"TOWNNAME":"下營區","LI":"西連里","LIN":"2鄰","STREET":" ","SECT":" ","MAREA":"連表","LANE":" ","ALLEY":" ","HOUSE_NO":"１２號","E_COORD97":174970.14000000001,"N_COORD97":2567773.25,"ADDRESS":"連表１２號","OBJECTID":285179},"geometry":{"x":174970.13999999966,"y":2567773.2500000019}},{"attributes":{"ID":285186,"DIS_CODE":0,"TOWNNAME":"下營區","LI":"西連里","LIN":"2鄰","STREET":" ","SECT":" ","MAREA":"連表","LANE":" ","ALLEY":" ","HOUSE_NO":"１５號","E_COORD97":174994.95000000001,"N_COORD97":2567803.0499999998,"ADDRESS":"連表１５號","OBJECTID":285180},"geometry":{"x":174994.95000000112,"y":2567803.0500000026}},{"attributes":{"ID":285187,"DIS_CODE":0,"TOWNNAME":"下營區","LI":"西連里","LIN":"2鄰","STREET":" ","SECT":" ","MAREA":"連表","LANE":" ","ALLEY":" ","HOUSE_NO":"１３號","E_COORD97":174979.44,"N_COORD97":2567772.8300000001,"ADDRESS":"連表１３號","OBJECTID":285181},"geometry":{"x":174979.44000000041,"y":2567772.8300000019}},{"attributes":{"ID":285188,"DIS_CODE":0,"TOWNNAME":"將軍區","LI":"長榮里","LIN":"2鄰","STREET":" ","SECT":" ","MAREA":"長榮","LANE":" ","ALLEY":" ","HOUSE_NO":"２２號","E_COORD97":163848.12,"N_COORD97":2566394.8799999999,"ADDRESS":"長榮２２號","OBJECTID":285182},"geometry":{"x":163848.12000000104,"y":2566394.8800000008}},{"attributes":{"ID":285189,"DIS_CODE":0,"TOWNNAME":"西港區","LI":"竹林里","LIN":"2鄰","STREET":" ","SECT":" ","MAREA":"大竹林","LANE":" ","ALLEY":" ","HOUSE_NO":"１５號","E_COORD97":166493.64999999999,"N_COORD97":2557932.9399999999,"ADDRESS":"大竹林１５號","OBJECTID":285183},"geometry":{"x":166493.64999999944,"y":2557932.9400000013}},{"attributes":{"ID":285190,"DIS_CODE":0,"TOWNNAME":"安定區","LI":"蘇林里","LIN":"2鄰","STREET":" ","SECT":" ","MAREA":"蘇厝","LANE":" ","ALLEY":" ","HOUSE_NO":"２６號","E_COORD97":173498.67000000001,"N_COORD97":2558555.25,"ADDRESS":"蘇厝２６號","OBJECTID":285184},"geometry":{"x":173498.66999999993,"y":2558555.2500000019}},{"attributes":{"ID":285191,"DIS_CODE":0,"TOWNNAME":"佳里區","LI":"漳洲里","LIN":"2鄰","STREET":" ","SECT":" ","MAREA":"番子寮","LANE":" ","ALLEY":" ","HOUSE_NO":"１７０號之１","E_COORD97":163555.17000000001,"N_COORD97":2564628.6299999999,"ADDRESS":"番子寮１７０號之１","OBJECTID":285185},"geometry":{"x":163555.16999999993,"y":2564628.629999999}},{"attributes":{"ID":285192,"DIS_CODE":0,"TOWNNAME":"佳里區","LI":"漳洲里","LIN":"2鄰","STREET":" ","SECT":" ","MAREA":"番子寮","LANE":" ","ALLEY":" ","HOUSE_NO":"１７１號","E_COORD97":163530.10000000001,"N_COORD97":2564627.9300000002,"ADDRESS":"番子寮１７１號","OBJECTID":285186},"geometry":{"x":163530.10000000149,"y":2564627.9300000034}},{"attributes":{"ID":285193,"DIS_CODE":0,"TOWNNAME":"佳里區","LI":"漳洲里","LIN":"2鄰","STREET":" ","SECT":" ","MAREA":"番子寮","LANE":" ","ALLEY":" ","HOUSE_NO":"１７２號","E_COORD97":163533.17999999999,"N_COORD97":2564606.3900000001,"ADDRESS":"番子寮１７２號","OBJECTID":285187},"geometry":{"x":163533.18000000156,"y":2564606.3900000025}},{"attributes":{"ID":285194,"DIS_CODE":0,"TOWNNAME":"佳里區","LI":"漳洲里","LIN":"2鄰","STREET":" ","SECT":" ","MAREA":"番子寮","LANE":" ","ALLEY":" ","HOUSE_NO":"１７３號之１","E_COORD97":163550.64000000001,"N_COORD97":2564582.23,"ADDRESS":"番子寮１７３號之１","OBJECTID":285188},"geometry":{"x":163550.6400000006,"y":2564582.2299999986}},{"attributes":{"ID":285195,"DIS_CODE":0,"TOWNNAME":"佳里區","LI":"漳洲里","LIN":"2鄰","STREET":" ","SECT":" ","MAREA":"番子寮","LANE":" ","ALLEY":" ","HOUSE_NO":"１７５號","E_COORD97":163621.23000000001,"N_COORD97":2564580.1899999999,"ADDRESS":"番子寮１７５號","OBJECTID":285189},"geometry":{"x":163621.23000000045,"y":2564580.1899999995}},{"attributes":{"ID":285196,"DIS_CODE":0,"TOWNNAME":"東區","LI":"成大里","LIN":"2鄰","STREET":"東寧路","SECT":"西段","MAREA":" ","LANE":" ","ALLEY":" ","HOUSE_NO":"６４號","E_COORD97":169545.64999999999,"N_COORD97":2543692.46,"ADDRESS":"東寧路西段６４號","OBJECTID":285190},"geometry":{"x":169545.6500000013,"y":2543692.4600000009}},{"attributes":{"ID":285197,"DIS_CODE":0,"TOWNNAME":"安南區","LI":"四草里","LIN":"3鄰","STREET":"大眾路","SECT":" ","MAREA":" ","LANE":"３０１巷","ALLEY":" ","HOUSE_NO":"４８０號","E_COORD97":161956.09569099999,"N_COORD97":2545900.24021,"ADDRESS":"大眾路３０１巷４８０號","OBJECTID":285191},"geometry":{"x":161956.09569100197,"y":2545900.240209002}},{"attributes":{"ID":285198,"DIS_CODE":0,"TOWNNAME":"永康區","LI":"北灣里","LIN":"12鄰","STREET":"大同街","SECT":" ","MAREA":" ","LANE":"１５０巷","ALLEY":" ","HOUSE_NO":"３號","E_COORD97":174981.16,"N_COORD97":2545608.6600000001,"ADDRESS":"大同街１５０巷３號","OBJECTID":285192},"geometry":{"x":174981.15999999922,"y":2545608.6600000001}},{"attributes":{"ID":285199,"DIS_CODE":0,"TOWNNAME":"永康區","LI":"西橋里","LIN":"12鄰","STREET":"中華西街","SECT":" ","MAREA":" ","LANE":"１２７巷","ALLEY":" ","HOUSE_NO":"４號之２","E_COORD97":170631.23000000001,"N_COORD97":2546186.79,"ADDRESS":"中華西街１２７巷４號之２","OBJECTID":285193},"geometry":{"x":170631.23000000231,"y":2546186.7899999991}},{"attributes":{"ID":285200,"DIS_CODE":0,"TOWNNAME":"仁德區","LI":"仁德里","LIN":"38鄰","STREET":"文宏路","SECT":" ","MAREA":" ","LANE":" ","ALLEY":" ","HOUSE_NO":"１０２號","E_COORD97":172420.78469100001,"N_COORD97":2541761.9207000001,"ADDRESS":"文宏路１０２號","OBJECTID":285194},"geometry":{"x":172420.78469100129,"y":2541761.9206959996}},{"attributes":{"ID":285201,"DIS_CODE":0,"TOWNNAME":"永康區","LI":"尚頂里","LIN":"12鄰","STREET":"正南一街","SECT":" ","MAREA":" ","LANE":"９２巷","ALLEY":" ","HOUSE_NO":"３３號","E_COORD97":171083.63,"N_COORD97":2547382.8300000001,"ADDRESS":"正南一街９２巷３３號","OBJECTID":285195},"geometry":{"x":171083.62999999989,"y":2547382.8300000019}},{"attributes":{"ID":285202,"DIS_CODE":0,"TOWNNAME":"永康區","LI":"甲頂里","LIN":"12鄰","STREET":"中正南路","SECT":" ","MAREA":" ","LANE":"５２巷","ALLEY":" ","HOUSE_NO":"９６號","E_COORD97":170120.70999999999,"N_COORD97":2546794.6000000001,"ADDRESS":"中正南路５２巷９６號","OBJECTID":285196},"geometry":{"x":170120.71000000183,"y":2546794.6000000015}},{"attributes":{"ID":285203,"DIS_CODE":0,"TOWNNAME":"永康區","LI":"甲頂里","LIN":"12鄰","STREET":"中正南路","SECT":" ","MAREA":" ","LANE":"５２巷","ALLEY":" ","HOUSE_NO":"９６號","E_COORD97":170120.67000000001,"N_COORD97":2546794.6000000001,"ADDRESS":"中正南路５２巷９６號","OBJECTID":285197},"geometry":{"x":170120.66999999993,"y":2546794.6000000015}},{"attributes":{"ID":285204,"DIS_CODE":0,"TOWNNAME":"永康區","LI":"西勢里","LIN":"12鄰","STREET":"廣興街","SECT":" ","MAREA":" ","LANE":"１７０巷","ALLEY":" ","HOUSE_NO":"２０１號","E_COORD97":176414.34,"N_COORD97":2546084.4900000002,"ADDRESS":"廣興街１７０巷２０１號","OBJECTID":285198},"geometry":{"x":176414.34000000078,"y":2546084.4900000002}},{"attributes":{"ID":285205,"DIS_CODE":0,"TOWNNAME":"永康區","LI":"尚頂里","LIN":"12鄰","STREET":"正南一街","SECT":" ","MAREA":" ","LANE":"９２巷","ALLEY":" ","HOUSE_NO":"２８號","E_COORD97":171084.17000000001,"N_COORD97":2547360.73,"ADDRESS":"正南一街９２巷２８號","OBJECTID":285199},"geometry":{"x":171084.17000000086,"y":2547360.7300000023}},{"attributes":{"ID":285206,"DIS_CODE":0,"TOWNNAME":"永康區","LI":"復國里","LIN":"2鄰","STREET":"復國一路","SECT":" ","MAREA":" ","LANE":"２８巷","ALLEY":" ","HOUSE_NO":"３８號","E_COORD97":172814.44,"N_COORD97":2544762.5499999998,"ADDRESS":"復國一路２８巷３８號","OBJECTID":285200},"geometry":{"x":172814.44000000041,"y":2544762.5500000007}}]}