{"displayFieldName":"TOWNNAME","fieldAliases":{"ID":"ID","DIS_CODE":"DIS_CODE","TOWNNAME":"TOWNNAME","LI":"LI","LIN":"LIN","STREET":"STREET","SECT":"SECT","MAREA":"MAREA","LANE":"LANE","ALLEY":"ALLEY","HOUSE_NO":"HOUSE_NO","E_COORD97":"E_COORD97","N_COORD97":"N_COORD97","ADDRESS":"ADDRESS","OBJECTID":"OBJECTID"},"geometryType":"esriGeometryPoint","spatialReference":{"wkid":102443,"latestWkid":3826},"fields":[{"name":"ID","type":"esriFieldTypeDouble","alias":"ID"},{"name":"DIS_CODE","type":"esriFieldTypeInteger","alias":"DIS_CODE"},{"name":"TOWNNAME","type":"esriFieldTypeString","alias":"TOWNNAME","length":8},{"name":"LI","type":"esriFieldTypeString","alias":"LI","length":8},{"name":"LIN","type":"esriFieldTypeString","alias":"LIN","length":12},{"name":"STREET","type":"esriFieldTypeString","alias":"STREET","length":20},{"name":"SECT","type":"esriFieldTypeString","alias":"SECT","length":8},{"name":"MAREA","type":"esriFieldTypeString","alias":"MAREA","length":12},{"name":"LANE","type":"esriFieldTypeString","alias":"LANE","length":10},{"name":"ALLEY","type":"esriFieldTypeString","alias":"ALLEY","length":10},{"name":"HOUSE_NO","type":"esriFieldTypeString","alias":"HOUSE_NO","length":20},{"name":"E_COORD97","type":"esriFieldTypeDouble","alias":"E_COORD97"},{"name":"N_COORD97","type":"esriFieldTypeDouble","alias":"N_COORD97"},{"name":"ADDRESS","type":"esriFieldTypeString","alias":"ADDRESS","length":50},{"name":"OBJECTID","type":"esriFieldTypeOID","alias":"OBJECTID"}],"features":[{"attributes":{"ID":519428,"DIS_CODE":0,"TOWNNAME":"東區","LI":"虎尾里","LIN":"1鄰","STREET":"東門路","SECT":"三段","MAREA":" ","LANE":" ","ALLEY":" ","HOUSE_NO":"２３５號","E_COORD97":171608.72,"N_COORD97":2541922.9100000001,"ADDRESS":"東門路三段２３５號","OBJECTID":519401},"geometry":{"x":171608.7200000016,"y":2541922.9100000039}},{"attributes":{"ID":519429,"DIS_CODE":0,"TOWNNAME":"東區","LI":"虎尾里","LIN":"1鄰","STREET":"東門路","SECT":"三段","MAREA":" ","LANE":" ","ALLEY":" ","HOUSE_NO":"２３７號","E_COORD97":171614.34,"N_COORD97":2541922.02,"ADDRESS":"東門路三段２３７號","OBJECTID":519402},"geometry":{"x":171614.33999999985,"y":2541922.0200000014}},{"attributes":{"ID":519430,"DIS_CODE":0,"TOWNNAME":"東區","LI":"崇文里","LIN":"1鄰","STREET":"崇德十五街","SECT":" ","MAREA":" ","LANE":" ","ALLEY":" ","HOUSE_NO":"５０號","E_COORD97":170968.41,"N_COORD97":2541175.77,"ADDRESS":"崇德十五街５０號","OBJECTID":519403},"geometry":{"x":170968.41000000015,"y":2541175.7699999996}},{"attributes":{"ID":519431,"DIS_CODE":0,"TOWNNAME":"東區","LI":"崇文里","LIN":"1鄰","STREET":"崇德十五街","SECT":" ","MAREA":" ","LANE":" ","ALLEY":" ","HOUSE_NO":"５２號","E_COORD97":170961.45000000001,"N_COORD97":2541162.9399999999,"ADDRESS":"崇德十五街５２號","OBJECTID":519404},"geometry":{"x":170961.45000000019,"y":2541162.9400000013}},{"attributes":{"ID":519432,"DIS_CODE":0,"TOWNNAME":"東區","LI":"崇文里","LIN":"1鄰","STREET":"崇德十五街","SECT":" ","MAREA":" ","LANE":" ","ALLEY":" ","HOUSE_NO":"５４號","E_COORD97":170983.73999999999,"N_COORD97":2541162.3399999999,"ADDRESS":"崇德十五街５４號","OBJECTID":519405},"geometry":{"x":170983.74000000115,"y":2541162.3399999999}},{"attributes":{"ID":519433,"DIS_CODE":0,"TOWNNAME":"東區","LI":"崇文里","LIN":"1鄰","STREET":"崇德十五街","SECT":" ","MAREA":" ","LANE":" ","ALLEY":" ","HOUSE_NO":"５６號","E_COORD97":170975.98000000001,"N_COORD97":2541176.0699999998,"ADDRESS":"崇德十五街５６號","OBJECTID":519406},"geometry":{"x":170975.98000000138,"y":2541176.070000004}},{"attributes":{"ID":519434,"DIS_CODE":0,"TOWNNAME":"東區","LI":"崇文里","LIN":"1鄰","STREET":"崇德十五街","SECT":" ","MAREA":" ","LANE":" ","ALLEY":" ","HOUSE_NO":"５８號","E_COORD97":170980.85999999999,"N_COORD97":2541175.8700000001,"ADDRESS":"崇德十五街５８號","OBJECTID":519407},"geometry":{"x":170980.86000000034,"y":2541175.8700000029}},{"attributes":{"ID":519435,"DIS_CODE":0,"TOWNNAME":"東區","LI":"崇文里","LIN":"1鄰","STREET":"崇德十五街","SECT":" ","MAREA":" ","LANE":" ","ALLEY":" ","HOUSE_NO":"６０號","E_COORD97":170985.23999999999,"N_COORD97":2541176.46,"ADDRESS":"崇德十五街６０號","OBJECTID":519408},"geometry":{"x":170985.24000000209,"y":2541176.4600000009}},{"attributes":{"ID":519436,"DIS_CODE":0,"TOWNNAME":"東區","LI":"崇文里","LIN":"1鄰","STREET":"崇德十五街","SECT":" ","MAREA":" ","LANE":" ","ALLEY":" ","HOUSE_NO":"６２號","E_COORD97":170989.69,"N_COORD97":2541171.0899999999,"ADDRESS":"崇德十五街６２號","OBJECTID":519409},"geometry":{"x":170989.69000000134,"y":2541171.0899999999}},{"attributes":{"ID":519437,"DIS_CODE":0,"TOWNNAME":"東區","LI":"崇文里","LIN":"1鄰","STREET":"崇德十五街","SECT":" ","MAREA":" ","LANE":" ","ALLEY":" ","HOUSE_NO":"６４號","E_COORD97":170994.07000000001,"N_COORD97":2541171.1899999999,"ADDRESS":"崇德十五街６４號","OBJECTID":519410},"geometry":{"x":170994.07000000123,"y":2541171.1900000032}},{"attributes":{"ID":519438,"DIS_CODE":0,"TOWNNAME":"東區","LI":"崇文里","LIN":"1鄰","STREET":"崇德十五街","SECT":" ","MAREA":" ","LANE":" ","ALLEY":" ","HOUSE_NO":"６６號","E_COORD97":170998.54999999999,"N_COORD97":2541170.9900000002,"ADDRESS":"崇德十五街６６號","OBJECTID":519411},"geometry":{"x":170998.55000000075,"y":2541170.9900000021}},{"attributes":{"ID":519439,"DIS_CODE":0,"TOWNNAME":"東區","LI":"崇文里","LIN":"1鄰","STREET":"崇德十五街","SECT":" ","MAREA":" ","LANE":" ","ALLEY":" ","HOUSE_NO":"６８號","E_COORD97":171002.32999999999,"N_COORD97":2541170.9900000002,"ADDRESS":"崇德十五街６８號","OBJECTID":519412},"geometry":{"x":171002.33000000007,"y":2541170.9900000021}},{"attributes":{"ID":519440,"DIS_CODE":0,"TOWNNAME":"東區","LI":"崇文里","LIN":"1鄰","STREET":"崇德十五街","SECT":" ","MAREA":" ","LANE":" ","ALLEY":" ","HOUSE_NO":"７０號","E_COORD97":171006.42000000001,"N_COORD97":2541170.8900000001,"ADDRESS":"崇德十五街７０號","OBJECTID":519413},"geometry":{"x":171006.42000000086,"y":2541170.8900000043}},{"attributes":{"ID":519441,"DIS_CODE":0,"TOWNNAME":"永康區","LI":"網寮里","LIN":"1鄰","STREET":"永二街","SECT":" ","MAREA":" ","LANE":" ","ALLEY":" ","HOUSE_NO":"５７號之３","E_COORD97":173622.62,"N_COORD97":2546655.2599999998,"ADDRESS":"永二街５７號之３","OBJECTID":519414},"geometry":{"x":173622.62000000104,"y":2546655.2599999998}},{"attributes":{"ID":519442,"DIS_CODE":0,"TOWNNAME":"永康區","LI":"埔園里","LIN":"1鄰","STREET":"埔聖街","SECT":" ","MAREA":" ","LANE":" ","ALLEY":" ","HOUSE_NO":"７９號","E_COORD97":174092.32000000001,"N_COORD97":2547643.1400000001,"ADDRESS":"埔聖街７９號","OBJECTID":519415},"geometry":{"x":174092.32000000123,"y":2547643.1400000025}},{"attributes":{"ID":519443,"DIS_CODE":0,"TOWNNAME":"永康區","LI":"烏竹里","LIN":"1鄰","STREET":"烏竹街","SECT":" ","MAREA":" ","LANE":" ","ALLEY":" ","HOUSE_NO":"９８號","E_COORD97":174508.92999999999,"N_COORD97":2549458.6400000001,"ADDRESS":"烏竹街９８號","OBJECTID":519416},"geometry":{"x":174508.9299999997,"y":2549458.6400000043}},{"attributes":{"ID":519444,"DIS_CODE":0,"TOWNNAME":"永康區","LI":"新樹里","LIN":"1鄰","STREET":"富強路","SECT":"二段","MAREA":" ","LANE":" ","ALLEY":" ","HOUSE_NO":"２０３號","E_COORD97":175590.95999999999,"N_COORD97":2547271.3199999998,"ADDRESS":"富強路二段２０３號","OBJECTID":519417},"geometry":{"x":175590.96000000183,"y":2547271.3200000022}},{"attributes":{"ID":519445,"DIS_CODE":0,"TOWNNAME":"永康區","LI":"復華里","LIN":"1鄰","STREET":"復國二路","SECT":" ","MAREA":" ","LANE":" ","ALLEY":" ","HOUSE_NO":"２３６號","E_COORD97":172990.78,"N_COORD97":2545917.2799999998,"ADDRESS":"復國二路２３６號","OBJECTID":519418},"geometry":{"x":172990.78000000119,"y":2545917.2800000012}},{"attributes":{"ID":519446,"DIS_CODE":0,"TOWNNAME":"永康區","LI":"埔園里","LIN":"1鄰","STREET":"埔聖街","SECT":" ","MAREA":" ","LANE":" ","ALLEY":" ","HOUSE_NO":"２７號","E_COORD97":173921.92999999999,"N_COORD97":2547585.5,"ADDRESS":"埔聖街２７號","OBJECTID":519419},"geometry":{"x":173921.93000000063,"y":2547585.5000000019}},{"attributes":{"ID":519447,"DIS_CODE":0,"TOWNNAME":"永康區","LI":"龍潭里","LIN":"1鄰","STREET":"龍國街","SECT":" ","MAREA":" ","LANE":" ","ALLEY":" ","HOUSE_NO":"３２６號","E_COORD97":174646.54000000001,"N_COORD97":2548008.7999999998,"ADDRESS":"龍國街３２６號","OBJECTID":519420},"geometry":{"x":174646.54000000097,"y":2548008.8000000007}},{"attributes":{"ID":519448,"DIS_CODE":0,"TOWNNAME":"永康區","LI":"崑山里","LIN":"1鄰","STREET":"大灣路","SECT":" ","MAREA":" ","LANE":" ","ALLEY":" ","HOUSE_NO":"８０９號","E_COORD97":173753.87,"N_COORD97":2544428.9300000002,"ADDRESS":"大灣路８０９號","OBJECTID":519421},"geometry":{"x":173753.87000000011,"y":2544428.9300000016}},{"attributes":{"ID":519449,"DIS_CODE":0,"TOWNNAME":"東區","LI":"崇善里","LIN":"1鄰","STREET":"仁和路","SECT":" ","MAREA":" ","LANE":" ","ALLEY":" ","HOUSE_NO":"５６號","E_COORD97":171053.95999999999,"N_COORD97":2541969.79,"ADDRESS":"仁和路５６號","OBJECTID":519422},"geometry":{"x":171053.95999999996,"y":2541969.7899999991}},{"attributes":{"ID":519450,"DIS_CODE":0,"TOWNNAME":"東區","LI":"崇善里","LIN":"1鄰","STREET":"仁和路","SECT":" ","MAREA":" ","LANE":" ","ALLEY":" ","HOUSE_NO":"１４號","E_COORD97":171008.51999999999,"N_COORD97":2542261.6499999999,"ADDRESS":"仁和路１４號","OBJECTID":519423},"geometry":{"x":171008.52000000048,"y":2542261.6500000022}},{"attributes":{"ID":519451,"DIS_CODE":0,"TOWNNAME":"東區","LI":"崇善里","LIN":"1鄰","STREET":"仁和路","SECT":" ","MAREA":" ","LANE":" ","ALLEY":" ","HOUSE_NO":"４２號之６","E_COORD97":171040.95999999999,"N_COORD97":2542075.9399999999,"ADDRESS":"仁和路４２號之６","OBJECTID":519424},"geometry":{"x":171040.95999999996,"y":2542075.9400000013}},{"attributes":{"ID":519452,"DIS_CODE":0,"TOWNNAME":"東區","LI":"崇善里","LIN":"1鄰","STREET":"仁和路","SECT":" ","MAREA":" ","LANE":" ","ALLEY":" ","HOUSE_NO":"２６號","E_COORD97":171023.38,"N_COORD97":2542173.0600000001,"ADDRESS":"仁和路２６號","OBJECTID":519425},"geometry":{"x":171023.38000000082,"y":2542173.0599999987}},{"attributes":{"ID":519453,"DIS_CODE":0,"TOWNNAME":"玉井區","LI":"玉田里","LIN":"35鄰","STREET":"大勇街","SECT":" ","MAREA":" ","LANE":" ","ALLEY":" ","HOUSE_NO":"９號","E_COORD97":195654.37,"N_COORD97":2558181.25,"ADDRESS":"大勇街９號","OBJECTID":519426},"geometry":{"x":195654.37000000197,"y":2558181.2500000019}},{"attributes":{"ID":519454,"DIS_CODE":0,"TOWNNAME":"東區","LI":"崇善里","LIN":"1鄰","STREET":"仁和路","SECT":" ","MAREA":" ","LANE":" ","ALLEY":" ","HOUSE_NO":"３６號","E_COORD97":171038.60000000001,"N_COORD97":2542094.1499999999,"ADDRESS":"仁和路３６號","OBJECTID":519427},"geometry":{"x":171038.60000000056,"y":2542094.1500000004}},{"attributes":{"ID":519455,"DIS_CODE":0,"TOWNNAME":"東區","LI":"崇善里","LIN":"1鄰","STREET":"仁和路","SECT":" ","MAREA":" ","LANE":" ","ALLEY":" ","HOUSE_NO":"４０號","E_COORD97":171041.59,"N_COORD97":2542082.1699999999,"ADDRESS":"仁和路４０號","OBJECTID":519428},"geometry":{"x":171041.58999999985,"y":2542082.1699999999}},{"attributes":{"ID":519456,"DIS_CODE":0,"TOWNNAME":"東區","LI":"崇善里","LIN":"1鄰","STREET":"仁和路","SECT":" ","MAREA":" ","LANE":" ","ALLEY":" ","HOUSE_NO":"４２號","E_COORD97":171044.70999999999,"N_COORD97":2542046.9300000002,"ADDRESS":"仁和路４２號","OBJECTID":519429},"geometry":{"x":171044.71000000089,"y":2542046.9299999997}},{"attributes":{"ID":519457,"DIS_CODE":0,"TOWNNAME":"東區","LI":"崇善里","LIN":"1鄰","STREET":"仁和路","SECT":" ","MAREA":" ","LANE":" ","ALLEY":" ","HOUSE_NO":"４２號之１","E_COORD97":171043.76999999999,"N_COORD97":2542050.9900000002,"ADDRESS":"仁和路４２號之１","OBJECTID":519430},"geometry":{"x":171043.77000000142,"y":2542050.9900000002}},{"attributes":{"ID":519458,"DIS_CODE":0,"TOWNNAME":"東區","LI":"崇善里","LIN":"1鄰","STREET":"仁和路","SECT":" ","MAREA":" ","LANE":" ","ALLEY":" ","HOUSE_NO":"４２號之２","E_COORD97":171043.45999999999,"N_COORD97":2542056.29,"ADDRESS":"仁和路４２號之２","OBJECTID":519431},"geometry":{"x":171043.46000000089,"y":2542056.290000001}},{"attributes":{"ID":519459,"DIS_CODE":0,"TOWNNAME":"東區","LI":"崇善里","LIN":"1鄰","STREET":"仁和路","SECT":" ","MAREA":" ","LANE":" ","ALLEY":" ","HOUSE_NO":"４２號之３","E_COORD97":171042.51999999999,"N_COORD97":2542061.2799999998,"ADDRESS":"仁和路４２號之３","OBJECTID":519432},"geometry":{"x":171042.52000000048,"y":2542061.2799999993}},{"attributes":{"ID":519460,"DIS_CODE":0,"TOWNNAME":"東區","LI":"崇善里","LIN":"1鄰","STREET":"仁和路","SECT":" ","MAREA":" ","LANE":" ","ALLEY":" ","HOUSE_NO":"４２號之４","E_COORD97":171042.20999999999,"N_COORD97":2542065.6499999999,"ADDRESS":"仁和路４２號之４","OBJECTID":519433},"geometry":{"x":171042.20999999996,"y":2542065.6500000022}},{"attributes":{"ID":519461,"DIS_CODE":0,"TOWNNAME":"東區","LI":"崇善里","LIN":"1鄰","STREET":"仁和路","SECT":" ","MAREA":" ","LANE":" ","ALLEY":" ","HOUSE_NO":"４２號之５","E_COORD97":171041.59,"N_COORD97":2542071.2599999998,"ADDRESS":"仁和路４２號之５","OBJECTID":519434},"geometry":{"x":171041.58999999985,"y":2542071.2599999998}},{"attributes":{"ID":519462,"DIS_CODE":0,"TOWNNAME":"東區","LI":"崇善里","LIN":"1鄰","STREET":"仁和路","SECT":" ","MAREA":" ","LANE":" ","ALLEY":" ","HOUSE_NO":"５６號之１","E_COORD97":171054.38,"N_COORD97":2541966.4399999999,"ADDRESS":"仁和路５６號之１","OBJECTID":519435},"geometry":{"x":171054.37999999989,"y":2541966.4400000013}},{"attributes":{"ID":519463,"DIS_CODE":0,"TOWNNAME":"東區","LI":"崇善里","LIN":"1鄰","STREET":"仁和路","SECT":" ","MAREA":" ","LANE":" ","ALLEY":" ","HOUSE_NO":"６號","E_COORD97":170992.92000000001,"N_COORD97":2542347.9100000001,"ADDRESS":"仁和路６號","OBJECTID":519436},"geometry":{"x":170992.92000000086,"y":2542347.910000002}},{"attributes":{"ID":519464,"DIS_CODE":0,"TOWNNAME":"東區","LI":"崇信里","LIN":"1鄰","STREET":"東門路","SECT":"二段","MAREA":" ","LANE":" ","ALLEY":" ","HOUSE_NO":"３３６號","E_COORD97":170708.75,"N_COORD97":2542606.52,"ADDRESS":"東門路二段３３６號","OBJECTID":519437},"geometry":{"x":170708.75000000186,"y":2542606.5200000033}},{"attributes":{"ID":519465,"DIS_CODE":0,"TOWNNAME":"東區","LI":"崇信里","LIN":"1鄰","STREET":"東門路","SECT":"二段","MAREA":" ","LANE":" ","ALLEY":" ","HOUSE_NO":"３５８號","E_COORD97":170763.91,"N_COORD97":2542564.6099999999,"ADDRESS":"東門路二段３５８號","OBJECTID":519438},"geometry":{"x":170763.91000000108,"y":2542564.6099999994}},{"attributes":{"ID":519466,"DIS_CODE":0,"TOWNNAME":"東區","LI":"崇信里","LIN":"1鄰","STREET":"東門路","SECT":"二段","MAREA":" ","LANE":" ","ALLEY":" ","HOUSE_NO":"３８８號","E_COORD97":170810.67999999999,"N_COORD97":2542527.52,"ADDRESS":"東門路二段３８８號","OBJECTID":519439},"geometry":{"x":170810.68000000063,"y":2542527.5199999996}},{"attributes":{"ID":519467,"DIS_CODE":0,"TOWNNAME":"新化區","LI":"武安里","LIN":"6鄰","STREET":"信義路","SECT":" ","MAREA":" ","LANE":" ","ALLEY":" ","HOUSE_NO":"２５１號","E_COORD97":179050.23000000001,"N_COORD97":2548306.25,"ADDRESS":"信義路２５１號","OBJECTID":519440},"geometry":{"x":179050.23000000138,"y":2548306.2500000019}},{"attributes":{"ID":519468,"DIS_CODE":0,"TOWNNAME":"新化區","LI":"武安里","LIN":"13鄰","STREET":"健康路","SECT":" ","MAREA":" ","LANE":" ","ALLEY":" ","HOUSE_NO":"３６號","E_COORD97":178908.98000000001,"N_COORD97":2548043.2599999998,"ADDRESS":"健康路３６號","OBJECTID":519441},"geometry":{"x":178908.98000000231,"y":2548043.2600000035}},{"attributes":{"ID":519469,"DIS_CODE":0,"TOWNNAME":"新市區","LI":"港墘里","LIN":"1鄰","STREET":"大同街","SECT":" ","MAREA":" ","LANE":" ","ALLEY":" ","HOUSE_NO":"２３號","E_COORD97":178490.67999999999,"N_COORD97":2553575,"ADDRESS":"大同街２３號","OBJECTID":519442},"geometry":{"x":178490.6799999997,"y":2553575.0000000037}},{"attributes":{"ID":519470,"DIS_CODE":0,"TOWNNAME":"永康區","LI":"新樹里","LIN":"1鄰","STREET":"富強路","SECT":"二段","MAREA":" ","LANE":" ","ALLEY":" ","HOUSE_NO":"１５２號","E_COORD97":175654.88,"N_COORD97":2547150.4100000001,"ADDRESS":"富強路二段１５２號","OBJECTID":519443},"geometry":{"x":175654.88000000082,"y":2547150.4100000001}},{"attributes":{"ID":519471,"DIS_CODE":0,"TOWNNAME":"下營區","LI":"下營里","LIN":"1鄰","STREET":"復興街","SECT":" ","MAREA":" ","LANE":" ","ALLEY":" ","HOUSE_NO":"３２號","E_COORD97":174682.70000000001,"N_COORD97":2570423.77,"ADDRESS":"復興街３２號","OBJECTID":519444},"geometry":{"x":174682.70000000205,"y":2570423.7700000014}},{"attributes":{"ID":519472,"DIS_CODE":0,"TOWNNAME":"下營區","LI":"下營里","LIN":"1鄰","STREET":"復興街","SECT":" ","MAREA":" ","LANE":" ","ALLEY":" ","HOUSE_NO":"３８號","E_COORD97":174668.82000000001,"N_COORD97":2570428.7799999998,"ADDRESS":"復興街３８號","OBJECTID":519445},"geometry":{"x":174668.82000000123,"y":2570428.7799999993}},{"attributes":{"ID":519473,"DIS_CODE":0,"TOWNNAME":"永康區","LI":"\u25A0行里","LIN":"1鄰","STREET":"中正路","SECT":" ","MAREA":" ","LANE":" ","ALLEY":" ","HOUSE_NO":"９９６號","E_COORD97":171896.17000000001,"N_COORD97":2549011,"ADDRESS":"中正路９９６號","OBJECTID":519446},"geometry":{"x":171896.17000000086,"y":2549011}},{"attributes":{"ID":519474,"DIS_CODE":0,"TOWNNAME":"永康區","LI":"六合里","LIN":"1鄰","STREET":"新興街","SECT":" ","MAREA":" ","LANE":" ","ALLEY":" ","HOUSE_NO":"６之１號地下一層之１","E_COORD97":170935.35999999999,"N_COORD97":2545719.7999999998,"ADDRESS":"新興街６之１號地下一層之１","OBJECTID":519447},"geometry":{"x":170935.3600000022,"y":2545719.8000000026}},{"attributes":{"ID":519475,"DIS_CODE":0,"TOWNNAME":"永康區","LI":"中華里","LIN":"1鄰","STREET":"小東路","SECT":" ","MAREA":" ","LANE":" ","ALLEY":" ","HOUSE_NO":"６８９號之８６","E_COORD97":172059.79999999999,"N_COORD97":2544344.3399999999,"ADDRESS":"小東路６８９號之８６","OBJECTID":519448},"geometry":{"x":172059.80000000075,"y":2544344.3400000017}},{"attributes":{"ID":519476,"DIS_CODE":0,"TOWNNAME":"永康區","LI":"中華里","LIN":"1鄰","STREET":"小東路","SECT":" ","MAREA":" ","LANE":" ","ALLEY":" ","HOUSE_NO":"６８９號之９１","E_COORD97":172059.69,"N_COORD97":2544344.3399999999,"ADDRESS":"小東路６８９號之９１","OBJECTID":519449},"geometry":{"x":172059.69000000041,"y":2544344.3400000017}},{"attributes":{"ID":519477,"DIS_CODE":0,"TOWNNAME":"永康區","LI":"中華里","LIN":"1鄰","STREET":"小東路","SECT":" ","MAREA":" ","LANE":" ","ALLEY":" ","HOUSE_NO":"６８９號之１７","E_COORD97":172059.76999999999,"N_COORD97":2544344.3399999999,"ADDRESS":"小東路６８９號之１７","OBJECTID":519450},"geometry":{"x":172059.77000000048,"y":2544344.3400000017}},{"attributes":{"ID":519478,"DIS_CODE":0,"TOWNNAME":"永康區","LI":"中華里","LIN":"1鄰","STREET":"小東路","SECT":" ","MAREA":" ","LANE":" ","ALLEY":" ","HOUSE_NO":"６８９號之３１","E_COORD97":172059.69,"N_COORD97":2544344.3399999999,"ADDRESS":"小東路６８９號之３１","OBJECTID":519451},"geometry":{"x":172059.69000000041,"y":2544344.3400000017}},{"attributes":{"ID":519479,"DIS_CODE":0,"TOWNNAME":"永康區","LI":"中華里","LIN":"1鄰","STREET":"小東路","SECT":" ","MAREA":" ","LANE":" ","ALLEY":" ","HOUSE_NO":"６８９號之４５","E_COORD97":172059.85000000001,"N_COORD97":2544344.3399999999,"ADDRESS":"小東路６８９號之４５","OBJECTID":519452},"geometry":{"x":172059.84999999963,"y":2544344.3400000017}},{"attributes":{"ID":519480,"DIS_CODE":0,"TOWNNAME":"永康區","LI":"中華里","LIN":"1鄰","STREET":"小東路","SECT":" ","MAREA":" ","LANE":" ","ALLEY":" ","HOUSE_NO":"６８９號之３５","E_COORD97":172059.85000000001,"N_COORD97":2544344.3399999999,"ADDRESS":"小東路６８９號之３５","OBJECTID":519453},"geometry":{"x":172059.84999999963,"y":2544344.3400000017}},{"attributes":{"ID":519481,"DIS_CODE":0,"TOWNNAME":"永康區","LI":"中華里","LIN":"1鄰","STREET":"小東路","SECT":" ","MAREA":" ","LANE":" ","ALLEY":" ","HOUSE_NO":"６８９號之１０１","E_COORD97":172060.94,"N_COORD97":2544344.3399999999,"ADDRESS":"小東路６８９號之１０１","OBJECTID":519454},"geometry":{"x":172060.94000000134,"y":2544344.3400000017}},{"attributes":{"ID":519482,"DIS_CODE":0,"TOWNNAME":"永康區","LI":"\u25A0行里","LIN":"1鄰","STREET":"中正北路","SECT":" ","MAREA":" ","LANE":" ","ALLEY":" ","HOUSE_NO":"１０６號","E_COORD97":172287.82000000001,"N_COORD97":2549069.6699999999,"ADDRESS":"中正北路１０６號","OBJECTID":519455},"geometry":{"x":172287.8200000003,"y":2549069.6699999999}},{"attributes":{"ID":519483,"DIS_CODE":0,"TOWNNAME":"永康區","LI":"中華里","LIN":"1鄰","STREET":"小東路","SECT":" ","MAREA":" ","LANE":" ","ALLEY":" ","HOUSE_NO":"６８９號之２１","E_COORD97":172059.69,"N_COORD97":2544344.3399999999,"ADDRESS":"小東路６８９號之２１","OBJECTID":519456},"geometry":{"x":172059.69000000041,"y":2544344.3400000017}},{"attributes":{"ID":519484,"DIS_CODE":0,"TOWNNAME":"永康區","LI":"\u25A0行里","LIN":"1鄰","STREET":"中正路","SECT":" ","MAREA":" ","LANE":" ","ALLEY":" ","HOUSE_NO":"９８８號","E_COORD97":171909.23999999999,"N_COORD97":2548997.25,"ADDRESS":"中正路９８８號","OBJECTID":519457},"geometry":{"x":171909.24000000209,"y":2548997.2500000019}},{"attributes":{"ID":519485,"DIS_CODE":0,"TOWNNAME":"永康區","LI":"中華里","LIN":"1鄰","STREET":"小東路","SECT":" ","MAREA":" ","LANE":" ","ALLEY":" ","HOUSE_NO":"６８９號之９６","E_COORD97":172059.79999999999,"N_COORD97":2544344.3399999999,"ADDRESS":"小東路６８９號之９６","OBJECTID":519458},"geometry":{"x":172059.80000000075,"y":2544344.3400000017}},{"attributes":{"ID":519486,"DIS_CODE":0,"TOWNNAME":"永康區","LI":"中華里","LIN":"1鄰","STREET":"小東路","SECT":" ","MAREA":" ","LANE":" ","ALLEY":" ","HOUSE_NO":"６８９號之２６","E_COORD97":172059.79999999999,"N_COORD97":2544344.3399999999,"ADDRESS":"小東路６８９號之２６","OBJECTID":519459},"geometry":{"x":172059.80000000075,"y":2544344.3400000017}},{"attributes":{"ID":519487,"DIS_CODE":0,"TOWNNAME":"永康區","LI":"中華里","LIN":"1鄰","STREET":"小東路","SECT":" ","MAREA":" ","LANE":" ","ALLEY":" ","HOUSE_NO":"６８９號之１０６","E_COORD97":172061.04999999999,"N_COORD97":2544344.3399999999,"ADDRESS":"小東路６８９號之１０６","OBJECTID":519460},"geometry":{"x":172061.05000000075,"y":2544344.3400000017}},{"attributes":{"ID":519488,"DIS_CODE":0,"TOWNNAME":"永康區","LI":"六合里","LIN":"1鄰","STREET":"新興街","SECT":" ","MAREA":" ","LANE":" ","ALLEY":" ","HOUSE_NO":"２號地下四層","E_COORD97":170912.20000000001,"N_COORD97":2545758.6899999999,"ADDRESS":"新興街２號地下四層","OBJECTID":519461},"geometry":{"x":170912.20000000019,"y":2545758.6900000013}},{"attributes":{"ID":519489,"DIS_CODE":0,"TOWNNAME":"永康區","LI":"中華里","LIN":"1鄰","STREET":"小東路","SECT":" ","MAREA":" ","LANE":" ","ALLEY":" ","HOUSE_NO":"６８９號之４０","E_COORD97":172059.73999999999,"N_COORD97":2544344.3399999999,"ADDRESS":"小東路６８９號之４０","OBJECTID":519462},"geometry":{"x":172059.74000000022,"y":2544344.3400000017}},{"attributes":{"ID":519490,"DIS_CODE":0,"TOWNNAME":"永康區","LI":"中華里","LIN":"1鄰","STREET":"小東路","SECT":" ","MAREA":" ","LANE":" ","ALLEY":" ","HOUSE_NO":"６８９號之８１","E_COORD97":172059.69,"N_COORD97":2544344.3399999999,"ADDRESS":"小東路６８９號之８１","OBJECTID":519463},"geometry":{"x":172059.69000000041,"y":2544344.3400000017}},{"attributes":{"ID":519491,"DIS_CODE":0,"TOWNNAME":"永康區","LI":"中華里","LIN":"1鄰","STREET":"小東路","SECT":" ","MAREA":" ","LANE":" ","ALLEY":" ","HOUSE_NO":"６８９號之１１０","E_COORD97":172060.98999999999,"N_COORD97":2544344.3399999999,"ADDRESS":"小東路６８９號之１１０","OBJECTID":519464},"geometry":{"x":172060.99000000022,"y":2544344.3400000017}},{"attributes":{"ID":519492,"DIS_CODE":0,"TOWNNAME":"安南區","LI":"新順里","LIN":"5鄰","STREET":"培安路","SECT":" ","MAREA":" ","LANE":" ","ALLEY":" ","HOUSE_NO":"１４９號","E_COORD97":169190.78,"N_COORD97":2549419.3500000001,"ADDRESS":"培安路１４９號","OBJECTID":519465},"geometry":{"x":169190.78000000026,"y":2549419.3500000015}},{"attributes":{"ID":519493,"DIS_CODE":0,"TOWNNAME":"安南區","LI":"新順里","LIN":"5鄰","STREET":"頂安街","SECT":" ","MAREA":" ","LANE":" ","ALLEY":" ","HOUSE_NO":"２０２號","E_COORD97":169284.07999999999,"N_COORD97":2549397.4700000002,"ADDRESS":"頂安街２０２號","OBJECTID":519466},"geometry":{"x":169284.07999999914,"y":2549397.4700000007}},{"attributes":{"ID":519494,"DIS_CODE":0,"TOWNNAME":"安南區","LI":"新順里","LIN":"5鄰","STREET":"培安路","SECT":" ","MAREA":" ","LANE":" ","ALLEY":" ","HOUSE_NO":"１４５號","E_COORD97":169194.28,"N_COORD97":2549429.6200000001,"ADDRESS":"培安路１４５號","OBJECTID":519467},"geometry":{"x":169194.28000000026,"y":2549429.6200000029}},{"attributes":{"ID":519495,"DIS_CODE":0,"TOWNNAME":"新化區","LI":"東榮里","LIN":"30鄰","STREET":"護安街","SECT":" ","MAREA":" ","LANE":" ","ALLEY":" ","HOUSE_NO":"４２號","E_COORD97":179228.48000000001,"N_COORD97":2548338.2599999998,"ADDRESS":"護安街４２號","OBJECTID":519468},"geometry":{"x":179228.48000000045,"y":2548338.2600000035}},{"attributes":{"ID":519496,"DIS_CODE":0,"TOWNNAME":"新化區","LI":"協興里","LIN":"15鄰","STREET":"大新路","SECT":" ","MAREA":" ","LANE":" ","ALLEY":" ","HOUSE_NO":"７９號之２","E_COORD97":178082.63,"N_COORD97":2548712.2599999998,"ADDRESS":"大新路７９號之２","OBJECTID":519469},"geometry":{"x":178082.62999999989,"y":2548712.2600000016}},{"attributes":{"ID":519497,"DIS_CODE":0,"TOWNNAME":"新化區","LI":"協興里","LIN":"10鄰","STREET":"正新路","SECT":" ","MAREA":" ","LANE":" ","ALLEY":" ","HOUSE_NO":"３５８號","E_COORD97":178544.82000000001,"N_COORD97":2548873.25,"ADDRESS":"正新路３５８號","OBJECTID":519470},"geometry":{"x":178544.8200000003,"y":2548873.25}},{"attributes":{"ID":519498,"DIS_CODE":0,"TOWNNAME":"安平區","LI":"建平里","LIN":"5鄰","STREET":"慶平路","SECT":" ","MAREA":" ","LANE":" ","ALLEY":" ","HOUSE_NO":"８８號四樓之４","E_COORD97":166131.37,"N_COORD97":2544197.7000000002,"ADDRESS":"慶平路８８號四樓之４","OBJECTID":519471},"geometry":{"x":166131.37000000104,"y":2544197.6999999993}},{"attributes":{"ID":519499,"DIS_CODE":0,"TOWNNAME":"新化區","LI":"武安里","LIN":"13鄰","STREET":"健康路","SECT":" ","MAREA":" ","LANE":" ","ALLEY":" ","HOUSE_NO":"５０號","E_COORD97":178893.07999999999,"N_COORD97":2548063.2599999998,"ADDRESS":"健康路５０號","OBJECTID":519472},"geometry":{"x":178893.08000000101,"y":2548063.2599999998}},{"attributes":{"ID":519500,"DIS_CODE":0,"TOWNNAME":"新化區","LI":"中央里","LIN":"1鄰","STREET":"信義路","SECT":" ","MAREA":" ","LANE":" ","ALLEY":" ","HOUSE_NO":"２４８號","E_COORD97":179057.03,"N_COORD97":2548315.25,"ADDRESS":"信義路２４８號","OBJECTID":519473},"geometry":{"x":179057.03000000026,"y":2548315.2500000019}},{"attributes":{"ID":519501,"DIS_CODE":0,"TOWNNAME":"安平區","LI":"平安里","LIN":"5鄰","STREET":"安平路","SECT":" ","MAREA":" ","LANE":" ","ALLEY":" ","HOUSE_NO":"３１４號","E_COORD97":165718.01999999999,"N_COORD97":2544347.8399999999,"ADDRESS":"安平路３１４號","OBJECTID":519474},"geometry":{"x":165718.02000000048,"y":2544347.8400000017}},{"attributes":{"ID":519502,"DIS_CODE":0,"TOWNNAME":"安平區","LI":"平安里","LIN":"5鄰","STREET":"安平路","SECT":" ","MAREA":" ","LANE":" ","ALLEY":" ","HOUSE_NO":"３１６號","E_COORD97":165718.25,"N_COORD97":2544346.6699999999,"ADDRESS":"安平路３１６號","OBJECTID":519475},"geometry":{"x":165718.25000000093,"y":2544346.6700000018}},{"attributes":{"ID":519503,"DIS_CODE":0,"TOWNNAME":"安平區","LI":"平安里","LIN":"5鄰","STREET":"安平路","SECT":" ","MAREA":" ","LANE":" ","ALLEY":" ","HOUSE_NO":"３１８號","E_COORD97":165718.48999999999,"N_COORD97":2544345.02,"ADDRESS":"安平路３１８號","OBJECTID":519476},"geometry":{"x":165718.49000000115,"y":2544345.0199999996}},{"attributes":{"ID":519504,"DIS_CODE":0,"TOWNNAME":"北區","LI":"成德里","LIN":"35鄰","STREET":"文成二路","SECT":" ","MAREA":" ","LANE":" ","ALLEY":" ","HOUSE_NO":"４８號","E_COORD97":168648.88,"N_COORD97":2546178.5800000001,"ADDRESS":"文成二路４８號","OBJECTID":519477},"geometry":{"x":168648.87999999989,"y":2546178.5800000001}},{"attributes":{"ID":519505,"DIS_CODE":0,"TOWNNAME":"安南區","LI":"砂崙里","LIN":"5鄰","STREET":"青砂街","SECT":"一段","MAREA":" ","LANE":" ","ALLEY":" ","HOUSE_NO":"６４５之１號","E_COORD97":159895.89000000001,"N_COORD97":2552743.6600000001,"ADDRESS":"青砂街一段６４５之１號","OBJECTID":519478},"geometry":{"x":159895.8900000006,"y":2552743.660000002}},{"attributes":{"ID":519506,"DIS_CODE":0,"TOWNNAME":"安南區","LI":"安西里","LIN":"5鄰","STREET":"慈安路","SECT":" ","MAREA":" ","LANE":" ","ALLEY":" ","HOUSE_NO":"１９７號","E_COORD97":168577.610896,"N_COORD97":2548085.4827700001,"ADDRESS":"慈安路１９７號","OBJECTID":519479},"geometry":{"x":168577.61089600157,"y":2548085.4827670027}},{"attributes":{"ID":519507,"DIS_CODE":0,"TOWNNAME":"安南區","LI":"安西里","LIN":"5鄰","STREET":"慈安路","SECT":" ","MAREA":" ","LANE":" ","ALLEY":" ","HOUSE_NO":"１９５號","E_COORD97":168583.75964100001,"N_COORD97":2548085.9060999998,"ADDRESS":"慈安路１９５號","OBJECTID":519480},"geometry":{"x":168583.759641001,"y":2548085.9061000012}},{"attributes":{"ID":519508,"DIS_CODE":0,"TOWNNAME":"安南區","LI":"安西里","LIN":"5鄰","STREET":"慈安路","SECT":" ","MAREA":" ","LANE":" ","ALLEY":" ","HOUSE_NO":"１９３號","E_COORD97":168590.12041199999,"N_COORD97":2548086.7527700001,"ADDRESS":"慈安路１９３號","OBJECTID":519481},"geometry":{"x":168590.12041200045,"y":2548086.7527670022}},{"attributes":{"ID":519509,"DIS_CODE":0,"TOWNNAME":"安南區","LI":"安西里","LIN":"5鄰","STREET":"慈安路","SECT":" ","MAREA":" ","LANE":" ","ALLEY":" ","HOUSE_NO":"１９１號","E_COORD97":168596.05713100001,"N_COORD97":2548087.5994299999,"ADDRESS":"慈安路１９１號","OBJECTID":519482},"geometry":{"x":168596.05713099986,"y":2548087.599433003}},{"attributes":{"ID":519510,"DIS_CODE":0,"TOWNNAME":"新化區","LI":"清水里","LIN":"4鄰","STREET":"民權街","SECT":" ","MAREA":" ","LANE":" ","ALLEY":" ","HOUSE_NO":"１５號","E_COORD97":178745.26000000001,"N_COORD97":2548477.25,"ADDRESS":"民權街１５號","OBJECTID":519483},"geometry":{"x":178745.26000000164,"y":2548477.2499999981}},{"attributes":{"ID":519511,"DIS_CODE":0,"TOWNNAME":"安南區","LI":"安西里","LIN":"5鄰","STREET":"安西二街","SECT":" ","MAREA":" ","LANE":" ","ALLEY":" ","HOUSE_NO":"９８號","E_COORD97":168616.95401799999,"N_COORD97":2548024.9767700001,"ADDRESS":"安西二街９８號","OBJECTID":519484},"geometry":{"x":168616.95401799958,"y":2548024.9767659996}},{"attributes":{"ID":519512,"DIS_CODE":0,"TOWNNAME":"新化區","LI":"武安里","LIN":"13鄰","STREET":"健康路","SECT":" ","MAREA":" ","LANE":" ","ALLEY":" ","HOUSE_NO":"４０號","E_COORD97":178904.88,"N_COORD97":2548049.2599999998,"ADDRESS":"健康路４０號","OBJECTID":519485},"geometry":{"x":178904.87999999989,"y":2548049.2599999998}},{"attributes":{"ID":519513,"DIS_CODE":0,"TOWNNAME":"新化區","LI":"武安里","LIN":"13鄰","STREET":"健康路","SECT":" ","MAREA":" ","LANE":" ","ALLEY":" ","HOUSE_NO":"２７號","E_COORD97":178888.78,"N_COORD97":2548048.2599999998,"ADDRESS":"健康路２７號","OBJECTID":519486},"geometry":{"x":178888.78000000119,"y":2548048.2600000016}},{"attributes":{"ID":519514,"DIS_CODE":0,"TOWNNAME":"新化區","LI":"武安里","LIN":"13鄰","STREET":"健康路","SECT":" ","MAREA":" ","LANE":" ","ALLEY":" ","HOUSE_NO":"２９號","E_COORD97":178886.38,"N_COORD97":2548050.2599999998,"ADDRESS":"健康路２９號","OBJECTID":519487},"geometry":{"x":178886.37999999989,"y":2548050.2600000035}},{"attributes":{"ID":519515,"DIS_CODE":0,"TOWNNAME":"新化區","LI":"武安里","LIN":"14鄰","STREET":"健康路","SECT":" ","MAREA":" ","LANE":" ","ALLEY":" ","HOUSE_NO":"１２６號","E_COORD97":178809.53,"N_COORD97":2548196.2599999998,"ADDRESS":"健康路１２６號","OBJECTID":519488},"geometry":{"x":178809.53000000026,"y":2548196.2600000016}},{"attributes":{"ID":519516,"DIS_CODE":0,"TOWNNAME":"新化區","LI":"太平里","LIN":"17鄰","STREET":"民權街","SECT":" ","MAREA":" ","LANE":" ","ALLEY":" ","HOUSE_NO":"１０８號","E_COORD97":178735.81,"N_COORD97":2548749.25,"ADDRESS":"民權街１０８號","OBJECTID":519489},"geometry":{"x":178735.80999999959,"y":2548749.2500000019}},{"attributes":{"ID":519517,"DIS_CODE":0,"TOWNNAME":"安平區","LI":"育平里","LIN":"35鄰","STREET":"郡平路","SECT":" ","MAREA":" ","LANE":" ","ALLEY":" ","HOUSE_NO":"２７６之１號","E_COORD97":164411.04999999999,"N_COORD97":2543389.3599999999,"ADDRESS":"郡平路２７６之１號","OBJECTID":519490},"geometry":{"x":164411.05000000075,"y":2543389.3599999994}},{"attributes":{"ID":519518,"DIS_CODE":0,"TOWNNAME":"安平區","LI":"育平里","LIN":"35鄰","STREET":"郡平路","SECT":" ","MAREA":" ","LANE":" ","ALLEY":" ","HOUSE_NO":"２７６號","E_COORD97":164396.84,"N_COORD97":2543379.6400000001,"ADDRESS":"郡平路２７６號","OBJECTID":519491},"geometry":{"x":164396.84000000078,"y":2543379.6400000043}},{"attributes":{"ID":519519,"DIS_CODE":0,"TOWNNAME":"歸仁區","LI":"南興里","LIN":"35鄰","STREET":"民生一街","SECT":" ","MAREA":" ","LANE":" ","ALLEY":" ","HOUSE_NO":"３８號","E_COORD97":176383.69,"N_COORD97":2541021.29,"ADDRESS":"民生一街３８號","OBJECTID":519492},"geometry":{"x":176383.69000000134,"y":2541021.290000001}},{"attributes":{"ID":519520,"DIS_CODE":0,"TOWNNAME":"歸仁區","LI":"南興里","LIN":"35鄰","STREET":"民生一街","SECT":" ","MAREA":" ","LANE":" ","ALLEY":" ","HOUSE_NO":"４７號","E_COORD97":176411.48999999999,"N_COORD97":2541038.29,"ADDRESS":"民生一街４７號","OBJECTID":519493},"geometry":{"x":176411.49000000209,"y":2541038.290000001}},{"attributes":{"ID":519521,"DIS_CODE":0,"TOWNNAME":"歸仁區","LI":"後市里","LIN":"35鄰","STREET":"國光街","SECT":" ","MAREA":" ","LANE":" ","ALLEY":" ","HOUSE_NO":"８１號","E_COORD97":177235.19,"N_COORD97":2540953.7400000002,"ADDRESS":"國光街８１號","OBJECTID":519494},"geometry":{"x":177235.19000000041,"y":2540953.7400000002}},{"attributes":{"ID":519522,"DIS_CODE":0,"TOWNNAME":"歸仁區","LI":"南興里","LIN":"35鄰","STREET":"中山路","SECT":"三段","MAREA":" ","LANE":" ","ALLEY":" ","HOUSE_NO":"２７８號","E_COORD97":176317.16,"N_COORD97":2540959.2799999998,"ADDRESS":"中山路三段２７８號","OBJECTID":519495},"geometry":{"x":176317.16000000201,"y":2540959.2799999993}},{"attributes":{"ID":519523,"DIS_CODE":0,"TOWNNAME":"歸仁區","LI":"南興里","LIN":"35鄰","STREET":"民生北街","SECT":" ","MAREA":" ","LANE":" ","ALLEY":" ","HOUSE_NO":"３８號","E_COORD97":176282.39000000001,"N_COORD97":2541049.29,"ADDRESS":"民生北街３８號","OBJECTID":519496},"geometry":{"x":176282.38999999966,"y":2541049.290000001}},{"attributes":{"ID":519524,"DIS_CODE":0,"TOWNNAME":"歸仁區","LI":"南興里","LIN":"35鄰","STREET":"民生一街","SECT":" ","MAREA":" ","LANE":" ","ALLEY":" ","HOUSE_NO":"１１號","E_COORD97":176309.98999999999,"N_COORD97":2541044.29,"ADDRESS":"民生一街１１號","OBJECTID":519497},"geometry":{"x":176309.99000000115,"y":2541044.2899999991}},{"attributes":{"ID":519525,"DIS_CODE":0,"TOWNNAME":"北區","LI":"成德里","LIN":"35鄰","STREET":"文成二路","SECT":" ","MAREA":" ","LANE":" ","ALLEY":" ","HOUSE_NO":"４２號","E_COORD97":168661.57999999999,"N_COORD97":2546178.46,"ADDRESS":"文成二路４２號","OBJECTID":519498},"geometry":{"x":168661.58000000007,"y":2546178.4600000046}},{"attributes":{"ID":519526,"DIS_CODE":0,"TOWNNAME":"新化區","LI":"東榮里","LIN":"31鄰","STREET":"信義路","SECT":" ","MAREA":" ","LANE":" ","ALLEY":" ","HOUSE_NO":"２２３號","E_COORD97":179132.73000000001,"N_COORD97":2548322.25,"ADDRESS":"信義路２２３號","OBJECTID":519499},"geometry":{"x":179132.73000000231,"y":2548322.2500000019}},{"attributes":{"ID":519527,"DIS_CODE":0,"TOWNNAME":"新化區","LI":"武安里","LIN":"13鄰","STREET":"健康路","SECT":" ","MAREA":" ","LANE":" ","ALLEY":" ","HOUSE_NO":"２２號","E_COORD97":178923.67999999999,"N_COORD97":2548026.2599999998,"ADDRESS":"健康路２２號","OBJECTID":519500},"geometry":{"x":178923.68000000156,"y":2548026.2600000035}},{"attributes":{"ID":519528,"DIS_CODE":0,"TOWNNAME":"新化區","LI":"武安里","LIN":"14鄰","STREET":"健康路","SECT":" ","MAREA":" ","LANE":" ","ALLEY":" ","HOUSE_NO":"７６號","E_COORD97":178846.88,"N_COORD97":2548117.2599999998,"ADDRESS":"健康路７６號","OBJECTID":519501},"geometry":{"x":178846.88000000082,"y":2548117.2599999998}},{"attributes":{"ID":519529,"DIS_CODE":0,"TOWNNAME":"北區","LI":"和順里","LIN":"35鄰","STREET":"公園南路","SECT":" ","MAREA":" ","LANE":" ","ALLEY":" ","HOUSE_NO":"３６６號","E_COORD97":168211.42999999999,"N_COORD97":2544862.6600000001,"ADDRESS":"公園南路３６６號","OBJECTID":519502},"geometry":{"x":168211.4299999997,"y":2544862.6600000001}},{"attributes":{"ID":519530,"DIS_CODE":0,"TOWNNAME":"北區","LI":"和順里","LIN":"35鄰","STREET":"公園南路","SECT":" ","MAREA":" ","LANE":" ","ALLEY":" ","HOUSE_NO":"３６８號","E_COORD97":168196.92999999999,"N_COORD97":2544866.3999999999,"ADDRESS":"公園南路３６８號","OBJECTID":519503},"geometry":{"x":168196.93000000063,"y":2544866.4000000041}},{"attributes":{"ID":519531,"DIS_CODE":0,"TOWNNAME":"歸仁區","LI":"後市里","LIN":"35鄰","STREET":"中山八街","SECT":" ","MAREA":" ","LANE":" ","ALLEY":" ","HOUSE_NO":"２８號","E_COORD97":177231.42999999999,"N_COORD97":2540974.7400000002,"ADDRESS":"中山八街２８號","OBJECTID":519504},"geometry":{"x":177231.4299999997,"y":2540974.7399999984}},{"attributes":{"ID":519532,"DIS_CODE":0,"TOWNNAME":"永康區","LI":"龍潭里","LIN":"35鄰","STREET":"龍安街","SECT":" ","MAREA":" ","LANE":" ","ALLEY":" ","HOUSE_NO":"１９１號","E_COORD97":174650.85999999999,"N_COORD97":2548518.9199999999,"ADDRESS":"龍安街１９１號","OBJECTID":519505},"geometry":{"x":174650.86000000034,"y":2548518.9199999999}},{"attributes":{"ID":519533,"DIS_CODE":0,"TOWNNAME":"永康區","LI":"龍潭里","LIN":"35鄰","STREET":"自強路","SECT":" ","MAREA":" ","LANE":" ","ALLEY":" ","HOUSE_NO":"７９８號","E_COORD97":174560.41,"N_COORD97":2548595.54,"ADDRESS":"自強路７９８號","OBJECTID":519506},"geometry":{"x":174560.41000000015,"y":2548595.5399999991}},{"attributes":{"ID":519534,"DIS_CODE":0,"TOWNNAME":"永康區","LI":"龍潭里","LIN":"35鄰","STREET":"自強路","SECT":" ","MAREA":" ","LANE":" ","ALLEY":" ","HOUSE_NO":"８１２號","E_COORD97":174593.13,"N_COORD97":2548621.6200000001,"ADDRESS":"自強路８１２號","OBJECTID":519507},"geometry":{"x":174593.13000000175,"y":2548621.6199999992}},{"attributes":{"ID":519535,"DIS_CODE":0,"TOWNNAME":"永康區","LI":"復華里","LIN":"35鄰","STREET":"復國一路","SECT":" ","MAREA":" ","LANE":" ","ALLEY":" ","HOUSE_NO":"４３１號","E_COORD97":172676.38,"N_COORD97":2546049.1699999999,"ADDRESS":"復國一路４３１號","OBJECTID":519508},"geometry":{"x":172676.38000000082,"y":2546049.1699999999}},{"attributes":{"ID":519536,"DIS_CODE":0,"TOWNNAME":"永康區","LI":"復華里","LIN":"35鄰","STREET":"復國一路","SECT":" ","MAREA":" ","LANE":" ","ALLEY":" ","HOUSE_NO":"４３５號","E_COORD97":172669.88,"N_COORD97":2546056.4199999999,"ADDRESS":"復國一路４３５號","OBJECTID":519509},"geometry":{"x":172669.87999999989,"y":2546056.4200000018}},{"attributes":{"ID":519537,"DIS_CODE":0,"TOWNNAME":"永康區","LI":"\u25A0洲里","LIN":"35鄰","STREET":"洲尾街","SECT":" ","MAREA":" ","LANE":" ","ALLEY":" ","HOUSE_NO":"１８５號","E_COORD97":170889.42000000001,"N_COORD97":2548914.3700000001,"ADDRESS":"洲尾街１８５號","OBJECTID":519510},"geometry":{"x":170889.42000000086,"y":2548914.370000001}},{"attributes":{"ID":519538,"DIS_CODE":0,"TOWNNAME":"新化區","LI":"武安里","LIN":"13鄰","STREET":"健康路","SECT":" ","MAREA":" ","LANE":" ","ALLEY":" ","HOUSE_NO":"４２號","E_COORD97":178902.07999999999,"N_COORD97":2548052.2599999998,"ADDRESS":"健康路４２號","OBJECTID":519511},"geometry":{"x":178902.08000000007,"y":2548052.2599999998}},{"attributes":{"ID":519539,"DIS_CODE":0,"TOWNNAME":"仁德區","LI":"仁德里","LIN":"35鄰","STREET":"文山路","SECT":" ","MAREA":" ","LANE":" ","ALLEY":" ","HOUSE_NO":"７０號","E_COORD97":172832.39999999999,"N_COORD97":2541770.3300000001,"ADDRESS":"文山路７０號","OBJECTID":519512},"geometry":{"x":172832.4000000013,"y":2541770.3300000001}},{"attributes":{"ID":519540,"DIS_CODE":0,"TOWNNAME":"仁德區","LI":"仁德里","LIN":"35鄰","STREET":"裕華三街","SECT":" ","MAREA":" ","LANE":" ","ALLEY":" ","HOUSE_NO":"３０２號","E_COORD97":172702.26000000001,"N_COORD97":2541734.7400000002,"ADDRESS":"裕華三街３０２號","OBJECTID":519513},"geometry":{"x":172702.26000000071,"y":2541734.7400000021}},{"attributes":{"ID":519541,"DIS_CODE":0,"TOWNNAME":"仁德區","LI":"仁德里","LIN":"35鄰","STREET":"文山路","SECT":" ","MAREA":" ","LANE":" ","ALLEY":" ","HOUSE_NO":"１０３號","E_COORD97":172825.35999999999,"N_COORD97":2541747.8300000001,"ADDRESS":"文山路１０３號","OBJECTID":519514},"geometry":{"x":172825.36000000034,"y":2541747.8300000019}},{"attributes":{"ID":519542,"DIS_CODE":0,"TOWNNAME":"仁德區","LI":"仁義里","LIN":"35鄰","STREET":"中正路","SECT":"二段","MAREA":" ","LANE":" ","ALLEY":" ","HOUSE_NO":"６６６號","E_COORD97":173393.04999999999,"N_COORD97":2539852.52,"ADDRESS":"中正路二段６６６號","OBJECTID":519515},"geometry":{"x":173393.04999999981,"y":2539852.5199999996}},{"attributes":{"ID":519543,"DIS_CODE":0,"TOWNNAME":"仁德區","LI":"仁德里","LIN":"35鄰","STREET":"裕華三街","SECT":" ","MAREA":" ","LANE":" ","ALLEY":" ","HOUSE_NO":"３１０號","E_COORD97":172715.42000000001,"N_COORD97":2541730.7400000002,"ADDRESS":"裕華三街３１０號","OBJECTID":519516},"geometry":{"x":172715.41999999993,"y":2541730.7399999984}},{"attributes":{"ID":519544,"DIS_CODE":0,"TOWNNAME":"仁德區","LI":"仁德里","LIN":"35鄰","STREET":"文山路","SECT":" ","MAREA":" ","LANE":" ","ALLEY":" ","HOUSE_NO":"７１號","E_COORD97":172841.35999999999,"N_COORD97":2541680.3300000001,"ADDRESS":"文山路７１號","OBJECTID":519517},"geometry":{"x":172841.36000000127,"y":2541680.3300000019}},{"attributes":{"ID":519545,"DIS_CODE":0,"TOWNNAME":"仁德區","LI":"仁義里","LIN":"35鄰","STREET":"勝利路","SECT":" ","MAREA":" ","LANE":" ","ALLEY":" ","HOUSE_NO":"７４號","E_COORD97":173687.14999999999,"N_COORD97":2539824.7599999998,"ADDRESS":"勝利路７４號","OBJECTID":519518},"geometry":{"x":173687.1500000013,"y":2539824.7599999979}},{"attributes":{"ID":519546,"DIS_CODE":0,"TOWNNAME":"仁德區","LI":"仁德里","LIN":"35鄰","STREET":"文山路","SECT":" ","MAREA":" ","LANE":" ","ALLEY":" ","HOUSE_NO":"５３號","E_COORD97":172852.31,"N_COORD97":2541731.0699999998,"ADDRESS":"文山路５３號","OBJECTID":519519},"geometry":{"x":172852.31000000145,"y":2541731.0700000003}},{"attributes":{"ID":519547,"DIS_CODE":0,"TOWNNAME":"仁德區","LI":"仁德里","LIN":"35鄰","STREET":"文山路","SECT":" ","MAREA":" ","LANE":" ","ALLEY":" ","HOUSE_NO":"２１號","E_COORD97":172872,"N_COORD97":2541745.8300000001,"ADDRESS":"文山路２１號","OBJECTID":519520},"geometry":{"x":172872.00000000093,"y":2541745.8300000001}},{"attributes":{"ID":519548,"DIS_CODE":0,"TOWNNAME":"仁德區","LI":"仁德里","LIN":"35鄰","STREET":"裕華三街","SECT":" ","MAREA":" ","LANE":" ","ALLEY":" ","HOUSE_NO":"２８１號","E_COORD97":172811.41,"N_COORD97":2541790,"ADDRESS":"裕華三街２８１號","OBJECTID":519521},"geometry":{"x":172811.41000000201,"y":2541790.0000000037}},{"attributes":{"ID":519549,"DIS_CODE":0,"TOWNNAME":"仁德區","LI":"仁德里","LIN":"35鄰","STREET":"文山路","SECT":" ","MAREA":" ","LANE":" ","ALLEY":" ","HOUSE_NO":"７５號","E_COORD97":172840.98999999999,"N_COORD97":2541690.0800000001,"ADDRESS":"文山路７５號","OBJECTID":519522},"geometry":{"x":172840.99000000022,"y":2541690.0800000001}},{"attributes":{"ID":519550,"DIS_CODE":0,"TOWNNAME":"仁德區","LI":"仁德里","LIN":"35鄰","STREET":"裕華三街","SECT":" ","MAREA":" ","LANE":" ","ALLEY":" ","HOUSE_NO":"３０８號","E_COORD97":172711.14000000001,"N_COORD97":2541731.9900000002,"ADDRESS":"裕華三街３０８號","OBJECTID":519523},"geometry":{"x":172711.14000000153,"y":2541731.9900000002}},{"attributes":{"ID":519551,"DIS_CODE":0,"TOWNNAME":"仁德區","LI":"仁德里","LIN":"35鄰","STREET":"文山路","SECT":" ","MAREA":" ","LANE":" ","ALLEY":" ","HOUSE_NO":"１６５號","E_COORD97":172741.92000000001,"N_COORD97":2541755.8300000001,"ADDRESS":"文山路１６５號","OBJECTID":519524},"geometry":{"x":172741.92000000086,"y":2541755.8300000001}},{"attributes":{"ID":519552,"DIS_CODE":0,"TOWNNAME":"仁德區","LI":"仁德里","LIN":"35鄰","STREET":"文山路","SECT":" ","MAREA":" ","LANE":" ","ALLEY":" ","HOUSE_NO":"１５９號","E_COORD97":172755.73999999999,"N_COORD97":2541751.5800000001,"ADDRESS":"文山路１５９號","OBJECTID":519525},"geometry":{"x":172755.74000000115,"y":2541751.5800000001}},{"attributes":{"ID":519553,"DIS_CODE":0,"TOWNNAME":"仁德區","LI":"仁德里","LIN":"35鄰","STREET":"裕華三街","SECT":" ","MAREA":" ","LANE":" ","ALLEY":" ","HOUSE_NO":"２６９號","E_COORD97":172781.85000000001,"N_COORD97":2541791.25,"ADDRESS":"裕華三街２６９號","OBJECTID":519526},"geometry":{"x":172781.84999999963,"y":2541791.25}},{"attributes":{"ID":519554,"DIS_CODE":0,"TOWNNAME":"仁德區","LI":"仁德里","LIN":"35鄰","STREET":"文山路","SECT":" ","MAREA":" ","LANE":" ","ALLEY":" ","HOUSE_NO":"８９號","E_COORD97":172841.17000000001,"N_COORD97":2541723.0699999998,"ADDRESS":"文山路８９號","OBJECTID":519527},"geometry":{"x":172841.16999999993,"y":2541723.0700000022}},{"attributes":{"ID":519555,"DIS_CODE":0,"TOWNNAME":"仁德區","LI":"仁德里","LIN":"35鄰","STREET":"文山路","SECT":" ","MAREA":" ","LANE":" ","ALLEY":" ","HOUSE_NO":"１３１號","E_COORD97":172806.95999999999,"N_COORD97":2541706.8199999998,"ADDRESS":"文山路１３１號","OBJECTID":519528},"geometry":{"x":172806.95999999996,"y":2541706.820000004}},{"attributes":{"ID":519556,"DIS_CODE":0,"TOWNNAME":"仁德區","LI":"仁德里","LIN":"35鄰","STREET":"文山路","SECT":" ","MAREA":" ","LANE":" ","ALLEY":" ","HOUSE_NO":"８０號","E_COORD97":172813.20999999999,"N_COORD97":2541770.3300000001,"ADDRESS":"文山路８０號","OBJECTID":519529},"geometry":{"x":172813.21000000089,"y":2541770.3300000001}},{"attributes":{"ID":519557,"DIS_CODE":0,"TOWNNAME":"仁德區","LI":"仁德里","LIN":"35鄰","STREET":"文山路","SECT":" ","MAREA":" ","LANE":" ","ALLEY":" ","HOUSE_NO":"９１號","E_COORD97":172840.89999999999,"N_COORD97":2541727.5699999998,"ADDRESS":"文山路９１號","OBJECTID":519530},"geometry":{"x":172840.9000000013,"y":2541727.5700000003}},{"attributes":{"ID":519558,"DIS_CODE":0,"TOWNNAME":"仁德區","LI":"仁德里","LIN":"35鄰","STREET":"文山路","SECT":" ","MAREA":" ","LANE":" ","ALLEY":" ","HOUSE_NO":"６６號","E_COORD97":172841.35999999999,"N_COORD97":2541770.3300000001,"ADDRESS":"文山路６６號","OBJECTID":519531},"geometry":{"x":172841.36000000127,"y":2541770.3300000001}},{"attributes":{"ID":519559,"DIS_CODE":0,"TOWNNAME":"仁德區","LI":"仁德里","LIN":"35鄰","STREET":"文山路","SECT":" ","MAREA":" ","LANE":" ","ALLEY":" ","HOUSE_NO":"１１３號","E_COORD97":172815.79000000001,"N_COORD97":2541723.8199999998,"ADDRESS":"文山路１１３號","OBJECTID":519532},"geometry":{"x":172815.79000000097,"y":2541723.820000004}},{"attributes":{"ID":519560,"DIS_CODE":0,"TOWNNAME":"仁德區","LI":"仁義里","LIN":"35鄰","STREET":"中正路","SECT":"二段","MAREA":" ","LANE":" ","ALLEY":" ","HOUSE_NO":"６５６號","E_COORD97":173390.85000000001,"N_COORD97":2539828.77,"ADDRESS":"中正路二段６５６號","OBJECTID":519533},"geometry":{"x":173390.84999999963,"y":2539828.7700000014}},{"attributes":{"ID":519561,"DIS_CODE":0,"TOWNNAME":"仁德區","LI":"仁德里","LIN":"35鄰","STREET":"文山路","SECT":" ","MAREA":" ","LANE":" ","ALLEY":" ","HOUSE_NO":"１６９號","E_COORD97":172733.82999999999,"N_COORD97":2541758.3300000001,"ADDRESS":"文山路１６９號","OBJECTID":519534},"geometry":{"x":172733.82999999914,"y":2541758.3300000019}},{"attributes":{"ID":519562,"DIS_CODE":0,"TOWNNAME":"仁德區","LI":"仁德里","LIN":"35鄰","STREET":"文山路","SECT":" ","MAREA":" ","LANE":" ","ALLEY":" ","HOUSE_NO":"１３７號","E_COORD97":172806.88,"N_COORD97":2541719.3199999998,"ADDRESS":"文山路１３７號","OBJECTID":519535},"geometry":{"x":172806.88000000082,"y":2541719.3200000003}},{"attributes":{"ID":519563,"DIS_CODE":0,"TOWNNAME":"仁德區","LI":"仁德里","LIN":"35鄰","STREET":"裕華三街","SECT":" ","MAREA":" ","LANE":" ","ALLEY":" ","HOUSE_NO":"３２５號","E_COORD97":172784.95000000001,"N_COORD97":2541724.2400000002,"ADDRESS":"裕華三街３２５號","OBJECTID":519536},"geometry":{"x":172784.95000000019,"y":2541724.2400000039}},{"attributes":{"ID":519564,"DIS_CODE":0,"TOWNNAME":"仁德區","LI":"仁德里","LIN":"35鄰","STREET":"裕華三街","SECT":" ","MAREA":" ","LANE":" ","ALLEY":" ","HOUSE_NO":"３２８號","E_COORD97":172745.82000000001,"N_COORD97":2541720.2400000002,"ADDRESS":"裕華三街３２８號","OBJECTID":519537},"geometry":{"x":172745.8200000003,"y":2541720.2400000002}},{"attributes":{"ID":519565,"DIS_CODE":0,"TOWNNAME":"仁德區","LI":"仁德里","LIN":"35鄰","STREET":"文山路","SECT":" ","MAREA":" ","LANE":" ","ALLEY":" ","HOUSE_NO":"１４３號","E_COORD97":172806.88,"N_COORD97":2541732.3199999998,"ADDRESS":"文山路１４３號","OBJECTID":519538},"geometry":{"x":172806.88000000082,"y":2541732.3200000003}},{"attributes":{"ID":519566,"DIS_CODE":0,"TOWNNAME":"仁德區","LI":"仁德里","LIN":"35鄰","STREET":"裕華三街","SECT":" ","MAREA":" ","LANE":" ","ALLEY":" ","HOUSE_NO":"２７６號","E_COORD97":172714.39000000001,"N_COORD97":2541740.9900000002,"ADDRESS":"裕華三街２７６號","OBJECTID":519539},"geometry":{"x":172714.39000000153,"y":2541740.9900000021}},{"attributes":{"ID":519567,"DIS_CODE":0,"TOWNNAME":"仁德區","LI":"仁德里","LIN":"35鄰","STREET":"文山路","SECT":" ","MAREA":" ","LANE":" ","ALLEY":" ","HOUSE_NO":"１８７號","E_COORD97":172695.82999999999,"N_COORD97":2541770.8300000001,"ADDRESS":"文山路１８７號","OBJECTID":519540},"geometry":{"x":172695.83000000007,"y":2541770.8300000038}},{"attributes":{"ID":519568,"DIS_CODE":0,"TOWNNAME":"東區","LI":"忠孝里","LIN":"35鄰","STREET":"崇明路","SECT":" ","MAREA":" ","LANE":" ","ALLEY":" ","HOUSE_NO":"４號","E_COORD97":169611.73000000001,"N_COORD97":2542484.6600000001,"ADDRESS":"崇明路４號","OBJECTID":519541},"geometry":{"x":169611.73000000045,"y":2542484.660000002}},{"attributes":{"ID":519569,"DIS_CODE":0,"TOWNNAME":"永康區","LI":"復華里","LIN":"35鄰","STREET":"復華七街","SECT":" ","MAREA":" ","LANE":" ","ALLEY":" ","HOUSE_NO":"４５號","E_COORD97":172666.47,"N_COORD97":2546000.9700000002,"ADDRESS":"復華七街４５號","OBJECTID":519542},"geometry":{"x":172666.4700000016,"y":2546000.9700000007}},{"attributes":{"ID":519570,"DIS_CODE":0,"TOWNNAME":"永康區","LI":"復國里","LIN":"35鄰","STREET":"復國一路","SECT":" ","MAREA":" ","LANE":" ","ALLEY":" ","HOUSE_NO":"１１５號","E_COORD97":172699.22,"N_COORD97":2545037.0699999998,"ADDRESS":"復國一路１１５號","OBJECTID":519543},"geometry":{"x":172699.22000000067,"y":2545037.0700000003}},{"attributes":{"ID":519571,"DIS_CODE":0,"TOWNNAME":"永康區","LI":"復華里","LIN":"35鄰","STREET":"復華七街","SECT":" ","MAREA":" ","LANE":" ","ALLEY":" ","HOUSE_NO":"４７號","E_COORD97":172671.06,"N_COORD97":2546003.2200000002,"ADDRESS":"復華七街４７號","OBJECTID":519544},"geometry":{"x":172671.06000000052,"y":2546003.2199999988}},{"attributes":{"ID":519572,"DIS_CODE":0,"TOWNNAME":"永康區","LI":"復國里","LIN":"35鄰","STREET":"復國一路","SECT":" ","MAREA":" ","LANE":" ","ALLEY":" ","HOUSE_NO":"１１９號","E_COORD97":172700.07000000001,"N_COORD97":2545045.5699999998,"ADDRESS":"復國一路１１９號","OBJECTID":519545},"geometry":{"x":172700.0700000003,"y":2545045.5700000022}},{"attributes":{"ID":519573,"DIS_CODE":0,"TOWNNAME":"永康區","LI":"復華里","LIN":"35鄰","STREET":"復國一路","SECT":" ","MAREA":" ","LANE":" ","ALLEY":" ","HOUSE_NO":"４４１號","E_COORD97":172661.44,"N_COORD97":2546067.1699999999,"ADDRESS":"復國一路４４１號","OBJECTID":519546},"geometry":{"x":172661.44000000134,"y":2546067.1699999981}},{"attributes":{"ID":519574,"DIS_CODE":0,"TOWNNAME":"永康區","LI":"復國里","LIN":"35鄰","STREET":"復國一路","SECT":" ","MAREA":" ","LANE":" ","ALLEY":" ","HOUSE_NO":"１２５號","E_COORD97":172701.10999999999,"N_COORD97":2545058.8300000001,"ADDRESS":"復國一路１２５號","OBJECTID":519547},"geometry":{"x":172701.11000000034,"y":2545058.8300000001}},{"attributes":{"ID":519575,"DIS_CODE":0,"TOWNNAME":"永康區","LI":"復國里","LIN":"35鄰","STREET":"復國一路","SECT":" ","MAREA":" ","LANE":" ","ALLEY":" ","HOUSE_NO":"１０９號","E_COORD97":172697.20000000001,"N_COORD97":2545019.52,"ADDRESS":"復國一路１０９號","OBJECTID":519548},"geometry":{"x":172697.20000000019,"y":2545019.5199999996}},{"attributes":{"ID":519576,"DIS_CODE":0,"TOWNNAME":"仁德區","LI":"成功里","LIN":"35鄰","STREET":"成功一街","SECT":" ","MAREA":" ","LANE":" ","ALLEY":" ","HOUSE_NO":"８３號","E_COORD97":170540.07999999999,"N_COORD97":2540010.27,"ADDRESS":"成功一街８３號","OBJECTID":519549},"geometry":{"x":170540.08000000007,"y":2540010.2699999996}},{"attributes":{"ID":519577,"DIS_CODE":0,"TOWNNAME":"仁德區","LI":"成功里","LIN":"35鄰","STREET":"成功一街","SECT":" ","MAREA":" ","LANE":" ","ALLEY":" ","HOUSE_NO":"７１號","E_COORD97":170541.98000000001,"N_COORD97":2540044.7599999998,"ADDRESS":"成功一街７１號","OBJECTID":519550},"geometry":{"x":170541.98000000138,"y":2540044.7599999998}},{"attributes":{"ID":519578,"DIS_CODE":0,"TOWNNAME":"仁德區","LI":"太子里","LIN":"35鄰","STREET":"太子路","SECT":" ","MAREA":" ","LANE":" ","ALLEY":" ","HOUSE_NO":"４４７號","E_COORD97":174248.31,"N_COORD97":2543493.25,"ADDRESS":"太子路４４７號","OBJECTID":519551},"geometry":{"x":174248.30999999959,"y":2543493.25}},{"attributes":{"ID":519579,"DIS_CODE":0,"TOWNNAME":"仁德區","LI":"成功里","LIN":"35鄰","STREET":"成功一街","SECT":" ","MAREA":" ","LANE":" ","ALLEY":" ","HOUSE_NO":"８１號","E_COORD97":170537.85999999999,"N_COORD97":2540018.52,"ADDRESS":"成功一街８１號","OBJECTID":519552},"geometry":{"x":170537.86000000127,"y":2540018.5199999996}},{"attributes":{"ID":519580,"DIS_CODE":0,"TOWNNAME":"仁德區","LI":"太子里","LIN":"35鄰","STREET":"太子路","SECT":" ","MAREA":" ","LANE":" ","ALLEY":" ","HOUSE_NO":"４５７號","E_COORD97":174225.95000000001,"N_COORD97":2543493.25,"ADDRESS":"太子路４５７號","OBJECTID":519553},"geometry":{"x":174225.95000000019,"y":2543493.25}},{"attributes":{"ID":519581,"DIS_CODE":0,"TOWNNAME":"仁德區","LI":"太子里","LIN":"35鄰","STREET":"太子路","SECT":" ","MAREA":" ","LANE":" ","ALLEY":" ","HOUSE_NO":"４４９號","E_COORD97":174244.10000000001,"N_COORD97":2543493.25,"ADDRESS":"太子路４４９號","OBJECTID":519554},"geometry":{"x":174244.10000000056,"y":2543493.25}},{"attributes":{"ID":519582,"DIS_CODE":0,"TOWNNAME":"仁德區","LI":"成功里","LIN":"35鄰","STREET":"成功一街","SECT":" ","MAREA":" ","LANE":" ","ALLEY":" ","HOUSE_NO":"９１號","E_COORD97":170540.38,"N_COORD97":2539992.52,"ADDRESS":"成功一街９１號","OBJECTID":519555},"geometry":{"x":170540.38000000082,"y":2539992.5200000033}},{"attributes":{"ID":519583,"DIS_CODE":0,"TOWNNAME":"仁德區","LI":"成功里","LIN":"35鄰","STREET":"成功一街","SECT":" ","MAREA":" ","LANE":" ","ALLEY":" ","HOUSE_NO":"７３號","E_COORD97":170537.57000000001,"N_COORD97":2540037.7599999998,"ADDRESS":"成功一街７３號","OBJECTID":519556},"geometry":{"x":170537.57000000123,"y":2540037.7599999998}},{"attributes":{"ID":519584,"DIS_CODE":0,"TOWNNAME":"仁德區","LI":"仁德里","LIN":"35鄰","STREET":"裕華三街","SECT":" ","MAREA":" ","LANE":" ","ALLEY":" ","HOUSE_NO":"３３６號","E_COORD97":172755.89000000001,"N_COORD97":2541707.2400000002,"ADDRESS":"裕華三街３３６號","OBJECTID":519557},"geometry":{"x":172755.8900000006,"y":2541707.2400000039}},{"attributes":{"ID":519585,"DIS_CODE":0,"TOWNNAME":"仁德區","LI":"仁德里","LIN":"35鄰","STREET":"裕華三街","SECT":" ","MAREA":" ","LANE":" ","ALLEY":" ","HOUSE_NO":"３３５號","E_COORD97":172785.35999999999,"N_COORD97":2541702.4900000002,"ADDRESS":"裕華三街３３５號","OBJECTID":519558},"geometry":{"x":172785.36000000127,"y":2541702.4900000021}},{"attributes":{"ID":519586,"DIS_CODE":0,"TOWNNAME":"仁德區","LI":"仁德里","LIN":"35鄰","STREET":"裕華三街","SECT":" ","MAREA":" ","LANE":" ","ALLEY":" ","HOUSE_NO":"３３７號","E_COORD97":172785.29000000001,"N_COORD97":2541698.2400000002,"ADDRESS":"裕華三街３３７號","OBJECTID":519559},"geometry":{"x":172785.29000000097,"y":2541698.2400000021}},{"attributes":{"ID":519587,"DIS_CODE":0,"TOWNNAME":"仁德區","LI":"後壁里","LIN":"35鄰","STREET":"德洋路","SECT":" ","MAREA":" ","LANE":" ","ALLEY":" ","HOUSE_NO":"２０１號","E_COORD97":172498.31,"N_COORD97":2539474.27,"ADDRESS":"德洋路２０１號","OBJECTID":519560},"geometry":{"x":172498.31000000052,"y":2539474.2699999996}},{"attributes":{"ID":519588,"DIS_CODE":0,"TOWNNAME":"仁德區","LI":"後壁里","LIN":"35鄰","STREET":"德洋路","SECT":" ","MAREA":" ","LANE":" ","ALLEY":" ","HOUSE_NO":"１８７號","E_COORD97":172486.78,"N_COORD97":2539447.5099999998,"ADDRESS":"德洋路１８７號","OBJECTID":519561},"geometry":{"x":172486.78000000026,"y":2539447.5100000016}},{"attributes":{"ID":519589,"DIS_CODE":0,"TOWNNAME":"新市區","LI":"新和里","LIN":"35鄰","STREET":"仁愛街","SECT":" ","MAREA":" ","LANE":" ","ALLEY":" ","HOUSE_NO":"２２３號","E_COORD97":177610.59,"N_COORD97":2552873.02,"ADDRESS":"仁愛街２２３號","OBJECTID":519562},"geometry":{"x":177610.58999999892,"y":2552873.0200000014}},{"attributes":{"ID":519590,"DIS_CODE":0,"TOWNNAME":"新市區","LI":"新和里","LIN":"35鄰","STREET":"仁愛街","SECT":" ","MAREA":" ","LANE":" ","ALLEY":" ","HOUSE_NO":"２３９號","E_COORD97":177617.22,"N_COORD97":2552912.2799999998,"ADDRESS":"仁愛街２３９號","OBJECTID":519563},"geometry":{"x":177617.22000000067,"y":2552912.2800000012}},{"attributes":{"ID":519591,"DIS_CODE":0,"TOWNNAME":"新市區","LI":"新和里","LIN":"35鄰","STREET":"仁愛街","SECT":" ","MAREA":" ","LANE":" ","ALLEY":" ","HOUSE_NO":"２３１號","E_COORD97":177613.84,"N_COORD97":2552889.2799999998,"ADDRESS":"仁愛街２３１號","OBJECTID":519564},"geometry":{"x":177613.83999999985,"y":2552889.2799999993}},{"attributes":{"ID":519592,"DIS_CODE":0,"TOWNNAME":"新市區","LI":"新和里","LIN":"35鄰","STREET":"仁愛街","SECT":" ","MAREA":" ","LANE":" ","ALLEY":" ","HOUSE_NO":"２６９號","E_COORD97":177626.28,"N_COORD97":2552968.2799999998,"ADDRESS":"仁愛街２６９號","OBJECTID":519565},"geometry":{"x":177626.28000000026,"y":2552968.2799999993}},{"attributes":{"ID":519593,"DIS_CODE":0,"TOWNNAME":"新市區","LI":"新和里","LIN":"35鄰","STREET":"仁愛街","SECT":" ","MAREA":" ","LANE":" ","ALLEY":" ","HOUSE_NO":"２１９號","E_COORD97":177608.87,"N_COORD97":2552864.7799999998,"ADDRESS":"仁愛街２１９號","OBJECTID":519566},"geometry":{"x":177608.87000000011,"y":2552864.7800000012}},{"attributes":{"ID":519594,"DIS_CODE":0,"TOWNNAME":"新市區","LI":"新和里","LIN":"35鄰","STREET":"仁愛街","SECT":" ","MAREA":" ","LANE":" ","ALLEY":" ","HOUSE_NO":"２２５號","E_COORD97":177611.44,"N_COORD97":2552876.7799999998,"ADDRESS":"仁愛街２２５號","OBJECTID":519567},"geometry":{"x":177611.44000000041,"y":2552876.7799999993}},{"attributes":{"ID":519595,"DIS_CODE":0,"TOWNNAME":"新市區","LI":"新和里","LIN":"35鄰","STREET":"仁愛街","SECT":" ","MAREA":" ","LANE":" ","ALLEY":" ","HOUSE_NO":"２５１號","E_COORD97":177622.98000000001,"N_COORD97":2552932.7799999998,"ADDRESS":"仁愛街２５１號","OBJECTID":519568},"geometry":{"x":177622.98000000138,"y":2552932.7800000012}},{"attributes":{"ID":519596,"DIS_CODE":0,"TOWNNAME":"新市區","LI":"新和里","LIN":"35鄰","STREET":"仁愛街","SECT":" ","MAREA":" ","LANE":" ","ALLEY":" ","HOUSE_NO":"２２７號","E_COORD97":177612.23000000001,"N_COORD97":2552881.2799999998,"ADDRESS":"仁愛街２２７號","OBJECTID":519569},"geometry":{"x":177612.23000000138,"y":2552881.2800000012}},{"attributes":{"ID":519597,"DIS_CODE":0,"TOWNNAME":"新市區","LI":"新和里","LIN":"35鄰","STREET":"仁愛街","SECT":" ","MAREA":" ","LANE":" ","ALLEY":" ","HOUSE_NO":"２５３號","E_COORD97":177623.82999999999,"N_COORD97":2552936.7799999998,"ADDRESS":"仁愛街２５３號","OBJECTID":519570},"geometry":{"x":177623.83000000007,"y":2552936.7799999993}},{"attributes":{"ID":519598,"DIS_CODE":0,"TOWNNAME":"永康區","LI":"埔園里","LIN":"35鄰","STREET":"八德街","SECT":" ","MAREA":" ","LANE":" ","ALLEY":" ","HOUSE_NO":"１５號","E_COORD97":174313.47,"N_COORD97":2548482.29,"ADDRESS":"八德街１５號","OBJECTID":519571},"geometry":{"x":174313.46999999974,"y":2548482.2899999991}},{"attributes":{"ID":519599,"DIS_CODE":0,"TOWNNAME":"永康區","LI":"埔園里","LIN":"35鄰","STREET":"八德街","SECT":" ","MAREA":" ","LANE":" ","ALLEY":" ","HOUSE_NO":"１７號","E_COORD97":174307.17000000001,"N_COORD97":2548485.3799999999,"ADDRESS":"八德街１７號","OBJECTID":519572},"geometry":{"x":174307.16999999993,"y":2548485.379999999}},{"attributes":{"ID":519600,"DIS_CODE":0,"TOWNNAME":"永康區","LI":"埔園里","LIN":"35鄰","STREET":"八德街","SECT":" ","MAREA":" ","LANE":" ","ALLEY":" ","HOUSE_NO":"１９號","E_COORD97":174300.31,"N_COORD97":2548484.04,"ADDRESS":"八德街１９號","OBJECTID":519573},"geometry":{"x":174300.31000000052,"y":2548484.0399999991}},{"attributes":{"ID":519601,"DIS_CODE":0,"TOWNNAME":"永康區","LI":"龍潭里","LIN":"35鄰","STREET":"自強路","SECT":" ","MAREA":" ","LANE":" ","ALLEY":" ","HOUSE_NO":"８０８號","E_COORD97":174586.42999999999,"N_COORD97":2548616.3700000001,"ADDRESS":"自強路８０８號","OBJECTID":519574},"geometry":{"x":174586.43000000063,"y":2548616.370000001}},{"attributes":{"ID":519602,"DIS_CODE":0,"TOWNNAME":"永康區","LI":"龍潭里","LIN":"35鄰","STREET":"自強路","SECT":" ","MAREA":" ","LANE":" ","ALLEY":" ","HOUSE_NO":"７７２號","E_COORD97":174508.82999999999,"N_COORD97":2548551.2999999998,"ADDRESS":"自強路７７２號","OBJECTID":519575},"geometry":{"x":174508.83000000194,"y":2548551.3000000007}},{"attributes":{"ID":519603,"DIS_CODE":0,"TOWNNAME":"永康區","LI":"龍潭里","LIN":"35鄰","STREET":"自強路","SECT":" ","MAREA":" ","LANE":" ","ALLEY":" ","HOUSE_NO":"７８０號","E_COORD97":174522.14000000001,"N_COORD97":2548561.7999999998,"ADDRESS":"自強路７８０號","OBJECTID":519576},"geometry":{"x":174522.1400000006,"y":2548561.8000000007}},{"attributes":{"ID":519604,"DIS_CODE":0,"TOWNNAME":"中西區","LI":"西湖里","LIN":"35鄰","STREET":"頂美一街","SECT":" ","MAREA":" ","LANE":" ","ALLEY":" ","HOUSE_NO":"７７號","E_COORD97":166298.5,"N_COORD97":2544794.29,"ADDRESS":"頂美一街７７號","OBJECTID":519577},"geometry":{"x":166298.50000000093,"y":2544794.2900000028}},{"attributes":{"ID":519605,"DIS_CODE":0,"TOWNNAME":"中西區","LI":"西湖里","LIN":"35鄰","STREET":"頂美一街","SECT":" ","MAREA":" ","LANE":" ","ALLEY":" ","HOUSE_NO":"７９號","E_COORD97":166299.44,"N_COORD97":2544800.98,"ADDRESS":"頂美一街７９號","OBJECTID":519578},"geometry":{"x":166299.44000000041,"y":2544800.9799999986}},{"attributes":{"ID":519606,"DIS_CODE":0,"TOWNNAME":"中西區","LI":"西湖里","LIN":"35鄰","STREET":"頂美一街","SECT":" ","MAREA":" ","LANE":" ","ALLEY":" ","HOUSE_NO":"８１號","E_COORD97":166300.41,"N_COORD97":2544807.5600000001,"ADDRESS":"頂美一街８１號","OBJECTID":519579},"geometry":{"x":166300.41000000108,"y":2544807.5600000042}},{"attributes":{"ID":519607,"DIS_CODE":0,"TOWNNAME":"中西區","LI":"西湖里","LIN":"35鄰","STREET":"頂美一街","SECT":" ","MAREA":" ","LANE":" ","ALLEY":" ","HOUSE_NO":"８３號","E_COORD97":166300.92000000001,"N_COORD97":2544814.3300000001,"ADDRESS":"頂美一街８３號","OBJECTID":519580},"geometry":{"x":166300.91999999993,"y":2544814.3300000001}},{"attributes":{"ID":519608,"DIS_CODE":0,"TOWNNAME":"中西區","LI":"西湖里","LIN":"35鄰","STREET":"頂美一街","SECT":" ","MAREA":" ","LANE":" ","ALLEY":" ","HOUSE_NO":"８５號","E_COORD97":166301.59,"N_COORD97":2544821.1000000001,"ADDRESS":"頂美一街８５號","OBJECTID":519581},"geometry":{"x":166301.58999999985,"y":2544821.1000000015}},{"attributes":{"ID":519609,"DIS_CODE":0,"TOWNNAME":"中西區","LI":"西湖里","LIN":"35鄰","STREET":"頂美一街","SECT":" ","MAREA":" ","LANE":" ","ALLEY":" ","HOUSE_NO":"８７號","E_COORD97":166302.26999999999,"N_COORD97":2544826.9900000002,"ADDRESS":"頂美一街８７號","OBJECTID":519582},"geometry":{"x":166302.27000000142,"y":2544826.9900000002}},{"attributes":{"ID":519610,"DIS_CODE":0,"TOWNNAME":"中西區","LI":"西湖里","LIN":"35鄰","STREET":"頂美一街","SECT":" ","MAREA":" ","LANE":" ","ALLEY":" ","HOUSE_NO":"６９號","E_COORD97":166296.47,"N_COORD97":2544766.0499999998,"ADDRESS":"頂美一街６９號","OBJECTID":519583},"geometry":{"x":166296.47000000067,"y":2544766.0500000007}},{"attributes":{"ID":519611,"DIS_CODE":0,"TOWNNAME":"中西區","LI":"西湖里","LIN":"35鄰","STREET":"頂美一街","SECT":" ","MAREA":" ","LANE":" ","ALLEY":" ","HOUSE_NO":"７１號","E_COORD97":166296.89999999999,"N_COORD97":2544773.25,"ADDRESS":"頂美一街７１號","OBJECTID":519584},"geometry":{"x":166296.90000000037,"y":2544773.2500000019}},{"attributes":{"ID":519612,"DIS_CODE":0,"TOWNNAME":"中西區","LI":"西湖里","LIN":"35鄰","STREET":"頂美一街","SECT":" ","MAREA":" ","LANE":" ","ALLEY":" ","HOUSE_NO":"７５號","E_COORD97":166298.17000000001,"N_COORD97":2544788.0600000001,"ADDRESS":"頂美一街７５號","OBJECTID":519585},"geometry":{"x":166298.17000000179,"y":2544788.0600000024}},{"attributes":{"ID":519613,"DIS_CODE":0,"TOWNNAME":"中西區","LI":"西湖里","LIN":"35鄰","STREET":"頂美一街","SECT":" ","MAREA":" ","LANE":" ","ALLEY":" ","HOUSE_NO":"７３號","E_COORD97":166297.35999999999,"N_COORD97":2544780.9500000002,"ADDRESS":"頂美一街７３號","OBJECTID":519586},"geometry":{"x":166297.3600000022,"y":2544780.9500000011}},{"attributes":{"ID":519614,"DIS_CODE":0,"TOWNNAME":"新化區","LI":"清水里","LIN":"5鄰","STREET":"民治路","SECT":" ","MAREA":" ","LANE":" ","ALLEY":" ","HOUSE_NO":"１８３號","E_COORD97":178664.01000000001,"N_COORD97":2548470.25,"ADDRESS":"民治路１８３號","OBJECTID":519587},"geometry":{"x":178664.01000000071,"y":2548470.25}},{"attributes":{"ID":519615,"DIS_CODE":0,"TOWNNAME":"新市區","LI":"新和里","LIN":"35鄰","STREET":"仁愛街","SECT":" ","MAREA":" ","LANE":" ","ALLEY":" ","HOUSE_NO":"２６５號","E_COORD97":177625.73000000001,"N_COORD97":2552960.7799999998,"ADDRESS":"仁愛街２６５號","OBJECTID":519588},"geometry":{"x":177625.73000000231,"y":2552960.7799999993}},{"attributes":{"ID":519616,"DIS_CODE":0,"TOWNNAME":"新市區","LI":"新和里","LIN":"35鄰","STREET":"仁愛街","SECT":" ","MAREA":" ","LANE":" ","ALLEY":" ","HOUSE_NO":"２６１號","E_COORD97":177625.37,"N_COORD97":2552953.2799999998,"ADDRESS":"仁愛街２６１號","OBJECTID":519589},"geometry":{"x":177625.37000000011,"y":2552953.2800000012}},{"attributes":{"ID":519617,"DIS_CODE":0,"TOWNNAME":"新市區","LI":"新和里","LIN":"35鄰","STREET":"仁愛街","SECT":" ","MAREA":" ","LANE":" ","ALLEY":" ","HOUSE_NO":"２４３號","E_COORD97":177619.42000000001,"N_COORD97":2552915.7799999998,"ADDRESS":"仁愛街２４３號","OBJECTID":519590},"geometry":{"x":177619.42000000086,"y":2552915.7800000012}},{"attributes":{"ID":519618,"DIS_CODE":0,"TOWNNAME":"新市區","LI":"新和里","LIN":"35鄰","STREET":"仁愛街","SECT":" ","MAREA":" ","LANE":" ","ALLEY":" ","HOUSE_NO":"２４７號","E_COORD97":177621.37,"N_COORD97":2552924.2799999998,"ADDRESS":"仁愛街２４７號","OBJECTID":519591},"geometry":{"x":177621.37000000104,"y":2552924.2799999993}},{"attributes":{"ID":519619,"DIS_CODE":0,"TOWNNAME":"新化區","LI":"唪口里","LIN":"4鄰","STREET":"大德路","SECT":" ","MAREA":" ","LANE":" ","ALLEY":" ","HOUSE_NO":"９０號之８","E_COORD97":178138.23999999999,"N_COORD97":2549509.2599999998,"ADDRESS":"大德路９０號之８","OBJECTID":519592},"geometry":{"x":178138.24000000022,"y":2549509.2600000016}},{"attributes":{"ID":519620,"DIS_CODE":0,"TOWNNAME":"永康區","LI":"尚頂里","LIN":"35鄰","STREET":"國聖街","SECT":" ","MAREA":" ","LANE":" ","ALLEY":" ","HOUSE_NO":"８０號","E_COORD97":170408.63,"N_COORD97":2547948.9399999999,"ADDRESS":"國聖街８０號","OBJECTID":519593},"geometry":{"x":170408.62999999989,"y":2547948.9399999995}},{"attributes":{"ID":519621,"DIS_CODE":0,"TOWNNAME":"永康區","LI":"南灣里","LIN":"35鄰","STREET":"南灣街","SECT":" ","MAREA":" ","LANE":" ","ALLEY":" ","HOUSE_NO":"７０號","E_COORD97":174499.81,"N_COORD97":2544942.8700000001,"ADDRESS":"南灣街７０號","OBJECTID":519594},"geometry":{"x":174499.80999999866,"y":2544942.8700000029}},{"attributes":{"ID":519622,"DIS_CODE":0,"TOWNNAME":"永康區","LI":"尚頂里","LIN":"35鄰","STREET":"國聖街","SECT":" ","MAREA":" ","LANE":" ","ALLEY":" ","HOUSE_NO":"７７之９號","E_COORD97":170398.20000000001,"N_COORD97":2548089.0499999998,"ADDRESS":"國聖街７７之９號","OBJECTID":519595},"geometry":{"x":170398.20000000019,"y":2548089.0500000007}},{"attributes":{"ID":519623,"DIS_CODE":0,"TOWNNAME":"永康區","LI":"尚頂里","LIN":"35鄰","STREET":"中正南路","SECT":" ","MAREA":" ","LANE":" ","ALLEY":" ","HOUSE_NO":"４０３號","E_COORD97":170711.79999999999,"N_COORD97":2548005.1000000001,"ADDRESS":"中正南路４０３號","OBJECTID":519596},"geometry":{"x":170711.80000000075,"y":2548005.1000000015}},{"attributes":{"ID":519624,"DIS_CODE":0,"TOWNNAME":"永康區","LI":"南灣里","LIN":"35鄰","STREET":"南灣街","SECT":" ","MAREA":" ","LANE":" ","ALLEY":" ","HOUSE_NO":"６６號","E_COORD97":174512.70999999999,"N_COORD97":2544939.1200000001,"ADDRESS":"南灣街６６號","OBJECTID":519597},"geometry":{"x":174512.70999999996,"y":2544939.120000001}},{"attributes":{"ID":519625,"DIS_CODE":0,"TOWNNAME":"永康區","LI":"南灣里","LIN":"35鄰","STREET":"南灣街","SECT":" ","MAREA":" ","LANE":" ","ALLEY":" ","HOUSE_NO":"８２號","E_COORD97":174477.92000000001,"N_COORD97":2544939.9300000002,"ADDRESS":"南灣街８２號","OBJECTID":519598},"geometry":{"x":174477.92000000086,"y":2544939.9300000034}},{"attributes":{"ID":519626,"DIS_CODE":0,"TOWNNAME":"永康區","LI":"尚頂里","LIN":"35鄰","STREET":"國聖街","SECT":" ","MAREA":" ","LANE":" ","ALLEY":" ","HOUSE_NO":"７７之７號","E_COORD97":170391.98999999999,"N_COORD97":2548072.5499999998,"ADDRESS":"國聖街７７之７號","OBJECTID":519599},"geometry":{"x":170391.99000000209,"y":2548072.5499999989}},{"attributes":{"ID":519627,"DIS_CODE":0,"TOWNNAME":"永康區","LI":"南灣里","LIN":"35鄰","STREET":"大安街","SECT":" ","MAREA":" ","LANE":" ","ALLEY":" ","HOUSE_NO":"７８號","E_COORD97":174511.01000000001,"N_COORD97":2544973.0299999998,"ADDRESS":"大安街７８號","OBJECTID":519600},"geometry":{"x":174511.01000000071,"y":2544973.0300000012}}]}