{"displayFieldName":"TOWNNAME","fieldAliases":{"ID":"ID","DIS_CODE":"DIS_CODE","TOWNNAME":"TOWNNAME","LI":"LI","LIN":"LIN","STREET":"STREET","SECT":"SECT","MAREA":"MAREA","LANE":"LANE","ALLEY":"ALLEY","HOUSE_NO":"HOUSE_NO","E_COORD97":"E_COORD97","N_COORD97":"N_COORD97","ADDRESS":"ADDRESS","OBJECTID":"OBJECTID"},"geometryType":"esriGeometryPoint","spatialReference":{"wkid":102443,"latestWkid":3826},"fields":[{"name":"ID","type":"esriFieldTypeDouble","alias":"ID"},{"name":"DIS_CODE","type":"esriFieldTypeInteger","alias":"DIS_CODE"},{"name":"TOWNNAME","type":"esriFieldTypeString","alias":"TOWNNAME","length":8},{"name":"LI","type":"esriFieldTypeString","alias":"LI","length":8},{"name":"LIN","type":"esriFieldTypeString","alias":"LIN","length":12},{"name":"STREET","type":"esriFieldTypeString","alias":"STREET","length":20},{"name":"SECT","type":"esriFieldTypeString","alias":"SECT","length":8},{"name":"MAREA","type":"esriFieldTypeString","alias":"MAREA","length":12},{"name":"LANE","type":"esriFieldTypeString","alias":"LANE","length":10},{"name":"ALLEY","type":"esriFieldTypeString","alias":"ALLEY","length":10},{"name":"HOUSE_NO","type":"esriFieldTypeString","alias":"HOUSE_NO","length":20},{"name":"E_COORD97","type":"esriFieldTypeDouble","alias":"E_COORD97"},{"name":"N_COORD97","type":"esriFieldTypeDouble","alias":"N_COORD97"},{"name":"ADDRESS","type":"esriFieldTypeString","alias":"ADDRESS","length":50},{"name":"OBJECTID","type":"esriFieldTypeOID","alias":"OBJECTID"}],"features":[{"attributes":{"ID":374011,"DIS_CODE":0,"TOWNNAME":"仁德區","LI":"仁德里","LIN":"10鄰","STREET":"中正路","SECT":"二段","MAREA":" ","LANE":"１２０５巷","ALLEY":" ","HOUSE_NO":"１４號一樓之２","E_COORD97":173203.07000000001,"N_COORD97":2541158.8100000001,"ADDRESS":"中正路二段１２０５巷１４號一樓之２","OBJECTID":374001},"geometry":{"x":173203.0700000003,"y":2541158.8100000024}},{"attributes":{"ID":374012,"DIS_CODE":0,"TOWNNAME":"仁德區","LI":"仁德里","LIN":"10鄰","STREET":"中正路","SECT":"二段","MAREA":" ","LANE":"１２０５巷","ALLEY":" ","HOUSE_NO":"５號二樓之２","E_COORD97":173225.26999999999,"N_COORD97":2541261.8100000001,"ADDRESS":"中正路二段１２０５巷５號二樓之２","OBJECTID":374002},"geometry":{"x":173225.26999999862,"y":2541261.8100000005}},{"attributes":{"ID":374013,"DIS_CODE":0,"TOWNNAME":"仁德區","LI":"仁德里","LIN":"10鄰","STREET":"中正路","SECT":"二段","MAREA":" ","LANE":"１２０５巷","ALLEY":" ","HOUSE_NO":"６號三樓之２","E_COORD97":173212.79999999999,"N_COORD97":2541258.5600000001,"ADDRESS":"中正路二段１２０５巷６號三樓之２","OBJECTID":374003},"geometry":{"x":173212.79999999981,"y":2541258.5600000024}},{"attributes":{"ID":374014,"DIS_CODE":0,"TOWNNAME":"仁德區","LI":"仁德里","LIN":"10鄰","STREET":"中正路","SECT":"二段","MAREA":" ","LANE":"１２０５巷","ALLEY":" ","HOUSE_NO":"４號五樓之１","E_COORD97":173226.78,"N_COORD97":2541243.8100000001,"ADDRESS":"中正路二段１２０５巷４號五樓之１","OBJECTID":374004},"geometry":{"x":173226.78000000119,"y":2541243.8100000024}},{"attributes":{"ID":374015,"DIS_CODE":0,"TOWNNAME":"仁德區","LI":"仁德里","LIN":"10鄰","STREET":"中正路","SECT":"二段","MAREA":" ","LANE":"１２０５巷","ALLEY":" ","HOUSE_NO":"２號七樓之１","E_COORD97":173228.62,"N_COORD97":2541207.5499999998,"ADDRESS":"中正路二段１２０５巷２號七樓之１","OBJECTID":374005},"geometry":{"x":173228.62000000197,"y":2541207.5500000045}},{"attributes":{"ID":374016,"DIS_CODE":0,"TOWNNAME":"仁德區","LI":"仁德里","LIN":"10鄰","STREET":"中正路","SECT":"二段","MAREA":" ","LANE":"１２０５巷","ALLEY":" ","HOUSE_NO":"６號六樓之２","E_COORD97":173212.79999999999,"N_COORD97":2541258.5600000001,"ADDRESS":"中正路二段１２０５巷６號六樓之２","OBJECTID":374006},"geometry":{"x":173212.79999999981,"y":2541258.5600000024}},{"attributes":{"ID":374017,"DIS_CODE":0,"TOWNNAME":"仁德區","LI":"仁德里","LIN":"10鄰","STREET":"中正路","SECT":"二段","MAREA":" ","LANE":"１２０５巷","ALLEY":" ","HOUSE_NO":"１０號三樓之１","E_COORD97":173175.95000000001,"N_COORD97":2541215.9100000001,"ADDRESS":"中正路二段１２０５巷１０號三樓之１","OBJECTID":374007},"geometry":{"x":173175.95000000112,"y":2541215.910000002}},{"attributes":{"ID":374018,"DIS_CODE":0,"TOWNNAME":"東區","LI":"關聖里","LIN":"10鄰","STREET":"裕農路","SECT":" ","MAREA":" ","LANE":"７２６巷","ALLEY":" ","HOUSE_NO":"１９號二樓","E_COORD97":171890.04000000001,"N_COORD97":2543077.1699999999,"ADDRESS":"裕農路７２６巷１９號二樓","OBJECTID":374008},"geometry":{"x":171890.0400000019,"y":2543077.1700000037}},{"attributes":{"ID":374019,"DIS_CODE":0,"TOWNNAME":"仁德區","LI":"仁德里","LIN":"10鄰","STREET":"中正路","SECT":"二段","MAREA":" ","LANE":"１２０５巷","ALLEY":" ","HOUSE_NO":"６號四樓之２","E_COORD97":173212.79999999999,"N_COORD97":2541258.5600000001,"ADDRESS":"中正路二段１２０５巷６號四樓之２","OBJECTID":374009},"geometry":{"x":173212.79999999981,"y":2541258.5600000024}},{"attributes":{"ID":374020,"DIS_CODE":0,"TOWNNAME":"仁德區","LI":"仁德里","LIN":"10鄰","STREET":"中正路","SECT":"二段","MAREA":" ","LANE":"１２０５巷","ALLEY":" ","HOUSE_NO":"５號五樓之１","E_COORD97":173225.13,"N_COORD97":2541261.8100000001,"ADDRESS":"中正路二段１２０５巷５號五樓之１","OBJECTID":374010},"geometry":{"x":173225.13000000082,"y":2541261.8100000005}},{"attributes":{"ID":374021,"DIS_CODE":0,"TOWNNAME":"東區","LI":"龍山里","LIN":"1鄰","STREET":"東門路","SECT":"二段","MAREA":" ","LANE":"３１２巷","ALLEY":" ","HOUSE_NO":"１６號","E_COORD97":170613.37,"N_COORD97":2542633.1499999999,"ADDRESS":"東門路二段３１２巷１６號","OBJECTID":374011},"geometry":{"x":170613.37000000104,"y":2542633.1500000004}},{"attributes":{"ID":374022,"DIS_CODE":0,"TOWNNAME":"東區","LI":"富強里","LIN":"12鄰","STREET":"東門路","SECT":"二段","MAREA":" ","LANE":"３０１巷","ALLEY":" ","HOUSE_NO":"１９１號","E_COORD97":171195.39999999999,"N_COORD97":2542756.5899999999,"ADDRESS":"東門路二段３０１巷１９１號","OBJECTID":374012},"geometry":{"x":171195.40000000037,"y":2542756.5900000017}},{"attributes":{"ID":374023,"DIS_CODE":0,"TOWNNAME":"仁德區","LI":"仁德里","LIN":"10鄰","STREET":"中正路","SECT":"二段","MAREA":" ","LANE":"１２０５巷","ALLEY":" ","HOUSE_NO":"２號六樓之２","E_COORD97":173228.76000000001,"N_COORD97":2541207.5499999998,"ADDRESS":"中正路二段１２０５巷２號六樓之２","OBJECTID":374013},"geometry":{"x":173228.75999999978,"y":2541207.5500000045}},{"attributes":{"ID":374024,"DIS_CODE":0,"TOWNNAME":"仁德區","LI":"仁德里","LIN":"10鄰","STREET":"中正路","SECT":"二段","MAREA":" ","LANE":"１２０５巷","ALLEY":" ","HOUSE_NO":"４號二樓之１","E_COORD97":173226.78,"N_COORD97":2541243.8100000001,"ADDRESS":"中正路二段１２０５巷４號二樓之１","OBJECTID":374014},"geometry":{"x":173226.78000000119,"y":2541243.8100000024}},{"attributes":{"ID":374025,"DIS_CODE":0,"TOWNNAME":"東區","LI":"仁和里","LIN":"10鄰","STREET":"仁和路","SECT":" ","MAREA":" ","LANE":"１３９巷","ALLEY":" ","HOUSE_NO":"１１號三樓","E_COORD97":171599.32999999999,"N_COORD97":2541104.4900000002,"ADDRESS":"仁和路１３９巷１１號三樓","OBJECTID":374015},"geometry":{"x":171599.33000000007,"y":2541104.4900000002}},{"attributes":{"ID":374026,"DIS_CODE":0,"TOWNNAME":"仁德區","LI":"仁德里","LIN":"10鄰","STREET":"中正路","SECT":"二段","MAREA":" ","LANE":"１２０５巷","ALLEY":" ","HOUSE_NO":"４號六樓之１","E_COORD97":173226.78,"N_COORD97":2541243.8100000001,"ADDRESS":"中正路二段１２０５巷４號六樓之１","OBJECTID":374016},"geometry":{"x":173226.78000000119,"y":2541243.8100000024}},{"attributes":{"ID":374027,"DIS_CODE":0,"TOWNNAME":"仁德區","LI":"仁德里","LIN":"10鄰","STREET":"中正路","SECT":"二段","MAREA":" ","LANE":"１２０５巷","ALLEY":" ","HOUSE_NO":"６號二樓之１","E_COORD97":173212.66,"N_COORD97":2541258.5600000001,"ADDRESS":"中正路二段１２０５巷６號二樓之１","OBJECTID":374017},"geometry":{"x":173212.66000000015,"y":2541258.5600000024}},{"attributes":{"ID":374028,"DIS_CODE":0,"TOWNNAME":"仁德區","LI":"仁德里","LIN":"10鄰","STREET":"中正路","SECT":"二段","MAREA":" ","LANE":"１２０５巷","ALLEY":" ","HOUSE_NO":"１６號五樓之３","E_COORD97":173222.06,"N_COORD97":2541183.7999999998,"ADDRESS":"中正路二段１２０５巷１６號五樓之３","OBJECTID":374018},"geometry":{"x":173222.06000000052,"y":2541183.8000000007}},{"attributes":{"ID":374029,"DIS_CODE":0,"TOWNNAME":"仁德區","LI":"仁德里","LIN":"10鄰","STREET":"中正路","SECT":"二段","MAREA":" ","LANE":"１２０５巷","ALLEY":" ","HOUSE_NO":"３號七樓之１","E_COORD97":173227.64999999999,"N_COORD97":2541226.3100000001,"ADDRESS":"中正路二段１２０５巷３號七樓之１","OBJECTID":374019},"geometry":{"x":173227.6500000013,"y":2541226.3100000024}},{"attributes":{"ID":374030,"DIS_CODE":0,"TOWNNAME":"仁德區","LI":"仁德里","LIN":"10鄰","STREET":"中正路","SECT":"二段","MAREA":" ","LANE":"１２０５巷","ALLEY":" ","HOUSE_NO":"１０號七樓之２","E_COORD97":173176.09,"N_COORD97":2541215.9100000001,"ADDRESS":"中正路二段１２０５巷１０號七樓之２","OBJECTID":374020},"geometry":{"x":173176.09000000171,"y":2541215.910000002}},{"attributes":{"ID":374031,"DIS_CODE":0,"TOWNNAME":"仁德區","LI":"仁德里","LIN":"10鄰","STREET":"中正路","SECT":"二段","MAREA":" ","LANE":"１２０５巷","ALLEY":" ","HOUSE_NO":"５號一樓之１","E_COORD97":173225.13,"N_COORD97":2541261.8100000001,"ADDRESS":"中正路二段１２０５巷５號一樓之１","OBJECTID":374021},"geometry":{"x":173225.13000000082,"y":2541261.8100000005}},{"attributes":{"ID":374032,"DIS_CODE":0,"TOWNNAME":"仁德區","LI":"仁德里","LIN":"10鄰","STREET":"中正路","SECT":"二段","MAREA":" ","LANE":"１２０５巷","ALLEY":" ","HOUSE_NO":"１５號三樓之２","E_COORD97":173207.60000000001,"N_COORD97":2541183.5499999998,"ADDRESS":"中正路二段１２０５巷１５號三樓之２","OBJECTID":374022},"geometry":{"x":173207.59999999963,"y":2541183.5500000045}},{"attributes":{"ID":374033,"DIS_CODE":0,"TOWNNAME":"仁德區","LI":"仁德里","LIN":"10鄰","STREET":"中正路","SECT":"二段","MAREA":" ","LANE":"１２０５巷","ALLEY":" ","HOUSE_NO":"１４號七樓之２","E_COORD97":173203.07000000001,"N_COORD97":2541158.8100000001,"ADDRESS":"中正路二段１２０５巷１４號七樓之２","OBJECTID":374023},"geometry":{"x":173203.0700000003,"y":2541158.8100000024}},{"attributes":{"ID":374034,"DIS_CODE":0,"TOWNNAME":"仁德區","LI":"仁德里","LIN":"10鄰","STREET":"中正路","SECT":"二段","MAREA":" ","LANE":"１２０５巷","ALLEY":" ","HOUSE_NO":"６號七樓之１","E_COORD97":173212.66,"N_COORD97":2541258.5600000001,"ADDRESS":"中正路二段１２０５巷６號七樓之１","OBJECTID":374024},"geometry":{"x":173212.66000000015,"y":2541258.5600000024}},{"attributes":{"ID":374035,"DIS_CODE":0,"TOWNNAME":"仁德區","LI":"仁德里","LIN":"10鄰","STREET":"中正路","SECT":"二段","MAREA":" ","LANE":"１２０５巷","ALLEY":" ","HOUSE_NO":"１３號七樓之３","E_COORD97":173183.92000000001,"N_COORD97":2541157.3100000001,"ADDRESS":"中正路二段１２０５巷１３號七樓之３","OBJECTID":374025},"geometry":{"x":173183.91999999993,"y":2541157.3100000005}},{"attributes":{"ID":374036,"DIS_CODE":0,"TOWNNAME":"仁德區","LI":"仁德里","LIN":"10鄰","STREET":"中正路","SECT":"二段","MAREA":" ","LANE":"１２０５巷","ALLEY":" ","HOUSE_NO":"６號五樓之２","E_COORD97":173212.79999999999,"N_COORD97":2541258.5600000001,"ADDRESS":"中正路二段１２０５巷６號五樓之２","OBJECTID":374026},"geometry":{"x":173212.79999999981,"y":2541258.5600000024}},{"attributes":{"ID":374037,"DIS_CODE":0,"TOWNNAME":"仁德區","LI":"仁德里","LIN":"10鄰","STREET":"中正路","SECT":"二段","MAREA":" ","LANE":"１２０５巷","ALLEY":" ","HOUSE_NO":"１６號二樓之１","E_COORD97":173221.95999999999,"N_COORD97":2541183.7999999998,"ADDRESS":"中正路二段１２０５巷１６號二樓之１","OBJECTID":374027},"geometry":{"x":173221.96000000089,"y":2541183.8000000007}},{"attributes":{"ID":374038,"DIS_CODE":0,"TOWNNAME":"仁德區","LI":"仁德里","LIN":"10鄰","STREET":"中正路","SECT":"二段","MAREA":" ","LANE":"１２０５巷","ALLEY":" ","HOUSE_NO":"３號一樓之２","E_COORD97":173227.79000000001,"N_COORD97":2541226.3100000001,"ADDRESS":"中正路二段１２０５巷３號一樓之２","OBJECTID":374028},"geometry":{"x":173227.79000000097,"y":2541226.3100000024}},{"attributes":{"ID":374039,"DIS_CODE":0,"TOWNNAME":"仁德區","LI":"仁德里","LIN":"10鄰","STREET":"中正路","SECT":"二段","MAREA":" ","LANE":"１２０５巷","ALLEY":" ","HOUSE_NO":"１號六樓","E_COORD97":173284.45999999999,"N_COORD97":2541185.77,"ADDRESS":"中正路二段１２０５巷１號六樓","OBJECTID":374029},"geometry":{"x":173284.46000000089,"y":2541185.7700000014}},{"attributes":{"ID":374040,"DIS_CODE":0,"TOWNNAME":"仁德區","LI":"仁德里","LIN":"10鄰","STREET":"中正路","SECT":"二段","MAREA":" ","LANE":"１２０５巷","ALLEY":" ","HOUSE_NO":"２號三樓之１","E_COORD97":173228.62,"N_COORD97":2541207.5499999998,"ADDRESS":"中正路二段１２０５巷２號三樓之１","OBJECTID":374030},"geometry":{"x":173228.62000000197,"y":2541207.5500000045}},{"attributes":{"ID":374041,"DIS_CODE":0,"TOWNNAME":"仁德區","LI":"仁德里","LIN":"10鄰","STREET":"中正路","SECT":"二段","MAREA":" ","LANE":"１２０５巷","ALLEY":" ","HOUSE_NO":"４號三樓之１","E_COORD97":173226.78,"N_COORD97":2541243.8100000001,"ADDRESS":"中正路二段１２０５巷４號三樓之１","OBJECTID":374031},"geometry":{"x":173226.78000000119,"y":2541243.8100000024}},{"attributes":{"ID":374042,"DIS_CODE":0,"TOWNNAME":"中西區","LI":"西賢里","LIN":"10鄰","STREET":"西賢一街","SECT":" ","MAREA":" ","LANE":"１４８巷","ALLEY":" ","HOUSE_NO":"１０號二樓","E_COORD97":165760.73999999999,"N_COORD97":2544710.7799999998,"ADDRESS":"西賢一街１４８巷１０號二樓","OBJECTID":374032},"geometry":{"x":165760.74000000209,"y":2544710.7800000012}},{"attributes":{"ID":374043,"DIS_CODE":0,"TOWNNAME":"中西區","LI":"西賢里","LIN":"10鄰","STREET":"西賢一街","SECT":" ","MAREA":" ","LANE":"１４８巷","ALLEY":" ","HOUSE_NO":"１０號三樓","E_COORD97":165760.73999999999,"N_COORD97":2544710.7799999998,"ADDRESS":"西賢一街１４８巷１０號三樓","OBJECTID":374033},"geometry":{"x":165760.74000000209,"y":2544710.7800000012}},{"attributes":{"ID":374044,"DIS_CODE":0,"TOWNNAME":"中西區","LI":"西賢里","LIN":"10鄰","STREET":"西賢一街","SECT":" ","MAREA":" ","LANE":"１４８巷","ALLEY":" ","HOUSE_NO":"１０號五樓","E_COORD97":165760.73999999999,"N_COORD97":2544710.7799999998,"ADDRESS":"西賢一街１４８巷１０號五樓","OBJECTID":374034},"geometry":{"x":165760.74000000209,"y":2544710.7800000012}},{"attributes":{"ID":374045,"DIS_CODE":0,"TOWNNAME":"中西區","LI":"西賢里","LIN":"10鄰","STREET":"西賢一街","SECT":" ","MAREA":" ","LANE":"１４８巷","ALLEY":" ","HOUSE_NO":"１０號六樓","E_COORD97":165760.73999999999,"N_COORD97":2544710.7799999998,"ADDRESS":"西賢一街１４８巷１０號六樓","OBJECTID":374035},"geometry":{"x":165760.74000000209,"y":2544710.7800000012}},{"attributes":{"ID":374046,"DIS_CODE":0,"TOWNNAME":"中西區","LI":"西賢里","LIN":"10鄰","STREET":"西賢一街","SECT":" ","MAREA":" ","LANE":"１４８巷","ALLEY":" ","HOUSE_NO":"１０號四樓","E_COORD97":165760.73999999999,"N_COORD97":2544710.7799999998,"ADDRESS":"西賢一街１４８巷１０號四樓","OBJECTID":374036},"geometry":{"x":165760.74000000209,"y":2544710.7800000012}},{"attributes":{"ID":374047,"DIS_CODE":0,"TOWNNAME":"中西區","LI":"西賢里","LIN":"10鄰","STREET":"西賢一街","SECT":" ","MAREA":" ","LANE":"１４８巷","ALLEY":" ","HOUSE_NO":"１２號二樓","E_COORD97":165762.26999999999,"N_COORD97":2544719.9300000002,"ADDRESS":"西賢一街１４８巷１２號二樓","OBJECTID":374037},"geometry":{"x":165762.27000000048,"y":2544719.9300000016}},{"attributes":{"ID":374048,"DIS_CODE":0,"TOWNNAME":"中西區","LI":"西賢里","LIN":"10鄰","STREET":"西賢一街","SECT":" ","MAREA":" ","LANE":"１４８巷","ALLEY":" ","HOUSE_NO":"１２號三樓","E_COORD97":165762.26999999999,"N_COORD97":2544719.9300000002,"ADDRESS":"西賢一街１４８巷１２號三樓","OBJECTID":374038},"geometry":{"x":165762.27000000048,"y":2544719.9300000016}},{"attributes":{"ID":374049,"DIS_CODE":0,"TOWNNAME":"中西區","LI":"西賢里","LIN":"10鄰","STREET":"西賢一街","SECT":" ","MAREA":" ","LANE":"１４８巷","ALLEY":" ","HOUSE_NO":"１２號五樓","E_COORD97":165762.26999999999,"N_COORD97":2544719.9300000002,"ADDRESS":"西賢一街１４８巷１２號五樓","OBJECTID":374039},"geometry":{"x":165762.27000000048,"y":2544719.9300000016}},{"attributes":{"ID":374050,"DIS_CODE":0,"TOWNNAME":"中西區","LI":"西賢里","LIN":"10鄰","STREET":"西賢一街","SECT":" ","MAREA":" ","LANE":"１４８巷","ALLEY":" ","HOUSE_NO":"１２號六樓","E_COORD97":165762.26999999999,"N_COORD97":2544719.9300000002,"ADDRESS":"西賢一街１４８巷１２號六樓","OBJECTID":374040},"geometry":{"x":165762.27000000048,"y":2544719.9300000016}},{"attributes":{"ID":374051,"DIS_CODE":0,"TOWNNAME":"中西區","LI":"西賢里","LIN":"10鄰","STREET":"西賢一街","SECT":" ","MAREA":" ","LANE":"１４８巷","ALLEY":" ","HOUSE_NO":"１２號四樓","E_COORD97":165762.26999999999,"N_COORD97":2544719.9300000002,"ADDRESS":"西賢一街１４８巷１２號四樓","OBJECTID":374041},"geometry":{"x":165762.27000000048,"y":2544719.9300000016}},{"attributes":{"ID":374052,"DIS_CODE":0,"TOWNNAME":"中西區","LI":"西賢里","LIN":"10鄰","STREET":"西賢一街","SECT":" ","MAREA":" ","LANE":"１４８巷","ALLEY":" ","HOUSE_NO":"１６號二樓","E_COORD97":165760.44,"N_COORD97":2544736.1000000001,"ADDRESS":"西賢一街１４８巷１６號二樓","OBJECTID":374042},"geometry":{"x":165760.44000000041,"y":2544736.1000000015}},{"attributes":{"ID":374053,"DIS_CODE":0,"TOWNNAME":"東區","LI":"仁和里","LIN":"10鄰","STREET":"仁和路","SECT":" ","MAREA":" ","LANE":"１３９巷","ALLEY":" ","HOUSE_NO":"１１號七樓","E_COORD97":171599.32999999999,"N_COORD97":2541104.4900000002,"ADDRESS":"仁和路１３９巷１１號七樓","OBJECTID":374043},"geometry":{"x":171599.33000000007,"y":2541104.4900000002}},{"attributes":{"ID":374054,"DIS_CODE":0,"TOWNNAME":"東區","LI":"仁和里","LIN":"10鄰","STREET":"仁和路","SECT":" ","MAREA":" ","LANE":"１３９巷","ALLEY":" ","HOUSE_NO":"１１號之１七樓","E_COORD97":171598.10999999999,"N_COORD97":2541121.9300000002,"ADDRESS":"仁和路１３９巷１１號之１七樓","OBJECTID":374044},"geometry":{"x":171598.1099999994,"y":2541121.9299999997}},{"attributes":{"ID":374055,"DIS_CODE":0,"TOWNNAME":"東區","LI":"仁和里","LIN":"10鄰","STREET":"仁和路","SECT":" ","MAREA":" ","LANE":"１３９巷","ALLEY":" ","HOUSE_NO":"１１號之１二樓","E_COORD97":171598.10999999999,"N_COORD97":2541121.9300000002,"ADDRESS":"仁和路１３９巷１１號之１二樓","OBJECTID":374045},"geometry":{"x":171598.1099999994,"y":2541121.9299999997}},{"attributes":{"ID":374056,"DIS_CODE":0,"TOWNNAME":"東區","LI":"仁和里","LIN":"10鄰","STREET":"仁和路","SECT":" ","MAREA":" ","LANE":"１３９巷","ALLEY":" ","HOUSE_NO":"１１號之１八樓","E_COORD97":171598.10999999999,"N_COORD97":2541121.9300000002,"ADDRESS":"仁和路１３９巷１１號之１八樓","OBJECTID":374046},"geometry":{"x":171598.1099999994,"y":2541121.9299999997}},{"attributes":{"ID":374057,"DIS_CODE":0,"TOWNNAME":"北區","LI":"華興里","LIN":"10鄰","STREET":"南園街","SECT":" ","MAREA":" ","LANE":"１０５巷","ALLEY":" ","HOUSE_NO":"９號","E_COORD97":170645.81,"N_COORD97":2545377.6299999999,"ADDRESS":"南園街１０５巷９號","OBJECTID":374047},"geometry":{"x":170645.81000000052,"y":2545377.629999999}},{"attributes":{"ID":374058,"DIS_CODE":0,"TOWNNAME":"東區","LI":"仁和里","LIN":"10鄰","STREET":"仁和路","SECT":" ","MAREA":" ","LANE":"１３９巷","ALLEY":" ","HOUSE_NO":"１１號之１三樓","E_COORD97":171598.10999999999,"N_COORD97":2541121.9300000002,"ADDRESS":"仁和路１３９巷１１號之１三樓","OBJECTID":374048},"geometry":{"x":171598.1099999994,"y":2541121.9299999997}},{"attributes":{"ID":374059,"DIS_CODE":0,"TOWNNAME":"東區","LI":"仁和里","LIN":"10鄰","STREET":"仁和路","SECT":" ","MAREA":" ","LANE":"１３９巷","ALLEY":" ","HOUSE_NO":"１１號之１五樓","E_COORD97":171598.10999999999,"N_COORD97":2541121.9300000002,"ADDRESS":"仁和路１３９巷１１號之１五樓","OBJECTID":374049},"geometry":{"x":171598.1099999994,"y":2541121.9299999997}},{"attributes":{"ID":374060,"DIS_CODE":0,"TOWNNAME":"東區","LI":"仁和里","LIN":"10鄰","STREET":"仁和路","SECT":" ","MAREA":" ","LANE":"１３９巷","ALLEY":" ","HOUSE_NO":"１１號之１六樓","E_COORD97":171598.10999999999,"N_COORD97":2541121.9300000002,"ADDRESS":"仁和路１３９巷１１號之１六樓","OBJECTID":374050},"geometry":{"x":171598.1099999994,"y":2541121.9299999997}},{"attributes":{"ID":374061,"DIS_CODE":0,"TOWNNAME":"東區","LI":"仁和里","LIN":"10鄰","STREET":"仁和路","SECT":" ","MAREA":" ","LANE":"１３９巷","ALLEY":" ","HOUSE_NO":"１１號之１四樓","E_COORD97":171598.10999999999,"N_COORD97":2541121.9300000002,"ADDRESS":"仁和路１３９巷１１號之１四樓","OBJECTID":374051},"geometry":{"x":171598.1099999994,"y":2541121.9299999997}},{"attributes":{"ID":374062,"DIS_CODE":0,"TOWNNAME":"東區","LI":"仁和里","LIN":"10鄰","STREET":"仁和路","SECT":" ","MAREA":" ","LANE":"１３９巷","ALLEY":" ","HOUSE_NO":"１１號之２八樓","E_COORD97":171594.48000000001,"N_COORD97":2541129.4399999999,"ADDRESS":"仁和路１３９巷１１號之２八樓","OBJECTID":374052},"geometry":{"x":171594.48000000138,"y":2541129.4400000013}},{"attributes":{"ID":374063,"DIS_CODE":0,"TOWNNAME":"東區","LI":"仁和里","LIN":"10鄰","STREET":"仁和路","SECT":" ","MAREA":" ","LANE":"１３９巷","ALLEY":" ","HOUSE_NO":"１１號之２三樓","E_COORD97":171594.48000000001,"N_COORD97":2541129.4399999999,"ADDRESS":"仁和路１３９巷１１號之２三樓","OBJECTID":374053},"geometry":{"x":171594.48000000138,"y":2541129.4400000013}},{"attributes":{"ID":374064,"DIS_CODE":0,"TOWNNAME":"東區","LI":"仁和里","LIN":"10鄰","STREET":"仁和路","SECT":" ","MAREA":" ","LANE":"１３９巷","ALLEY":" ","HOUSE_NO":"１１號之２五樓","E_COORD97":171594.48000000001,"N_COORD97":2541129.4399999999,"ADDRESS":"仁和路１３９巷１１號之２五樓","OBJECTID":374054},"geometry":{"x":171594.48000000138,"y":2541129.4400000013}},{"attributes":{"ID":374065,"DIS_CODE":0,"TOWNNAME":"東區","LI":"關聖里","LIN":"10鄰","STREET":"裕農路","SECT":" ","MAREA":" ","LANE":"７２６巷","ALLEY":" ","HOUSE_NO":"１５號五樓","E_COORD97":171890.04000000001,"N_COORD97":2543095.3100000001,"ADDRESS":"裕農路７２６巷１５號五樓","OBJECTID":374055},"geometry":{"x":171890.0400000019,"y":2543095.3100000024}},{"attributes":{"ID":374066,"DIS_CODE":0,"TOWNNAME":"東區","LI":"仁和里","LIN":"10鄰","STREET":"仁和路","SECT":" ","MAREA":" ","LANE":"１３９巷","ALLEY":" ","HOUSE_NO":"１１號之３二樓","E_COORD97":171593.01999999999,"N_COORD97":2541136.71,"ADDRESS":"仁和路１３９巷１１號之３二樓","OBJECTID":374056},"geometry":{"x":171593.02000000142,"y":2541136.7100000028}},{"attributes":{"ID":374067,"DIS_CODE":0,"TOWNNAME":"東區","LI":"仁和里","LIN":"10鄰","STREET":"仁和路","SECT":" ","MAREA":" ","LANE":"１３９巷","ALLEY":" ","HOUSE_NO":"１１號之３八樓","E_COORD97":171593.01999999999,"N_COORD97":2541136.71,"ADDRESS":"仁和路１３９巷１１號之３八樓","OBJECTID":374057},"geometry":{"x":171593.02000000142,"y":2541136.7100000028}},{"attributes":{"ID":374068,"DIS_CODE":0,"TOWNNAME":"東區","LI":"仁和里","LIN":"10鄰","STREET":"仁和路","SECT":" ","MAREA":" ","LANE":"１３９巷","ALLEY":" ","HOUSE_NO":"１１號之３三樓","E_COORD97":171593.01999999999,"N_COORD97":2541136.71,"ADDRESS":"仁和路１３９巷１１號之３三樓","OBJECTID":374058},"geometry":{"x":171593.02000000142,"y":2541136.7100000028}},{"attributes":{"ID":374069,"DIS_CODE":0,"TOWNNAME":"東區","LI":"仁和里","LIN":"10鄰","STREET":"仁和路","SECT":" ","MAREA":" ","LANE":"１３９巷","ALLEY":" ","HOUSE_NO":"１１號之３六樓","E_COORD97":171593.01999999999,"N_COORD97":2541136.71,"ADDRESS":"仁和路１３９巷１１號之３六樓","OBJECTID":374059},"geometry":{"x":171593.02000000142,"y":2541136.7100000028}},{"attributes":{"ID":374070,"DIS_CODE":0,"TOWNNAME":"東區","LI":"仁和里","LIN":"10鄰","STREET":"仁和路","SECT":" ","MAREA":" ","LANE":"１３９巷","ALLEY":" ","HOUSE_NO":"１１號之３四樓","E_COORD97":171593.01999999999,"N_COORD97":2541136.71,"ADDRESS":"仁和路１３９巷１１號之３四樓","OBJECTID":374060},"geometry":{"x":171593.02000000142,"y":2541136.7100000028}},{"attributes":{"ID":374071,"DIS_CODE":0,"TOWNNAME":"東區","LI":"仁和里","LIN":"10鄰","STREET":"仁和路","SECT":" ","MAREA":" ","LANE":"１３９巷","ALLEY":" ","HOUSE_NO":"１１號之４七樓","E_COORD97":171592.04999999999,"N_COORD97":2541142.2799999998,"ADDRESS":"仁和路１３９巷１１號之４七樓","OBJECTID":374061},"geometry":{"x":171592.05000000075,"y":2541142.2799999993}},{"attributes":{"ID":374072,"DIS_CODE":0,"TOWNNAME":"東區","LI":"仁和里","LIN":"10鄰","STREET":"仁和路","SECT":" ","MAREA":" ","LANE":"１３９巷","ALLEY":" ","HOUSE_NO":"１１號之４二樓","E_COORD97":171592.04999999999,"N_COORD97":2541142.2799999998,"ADDRESS":"仁和路１３９巷１１號之４二樓","OBJECTID":374062},"geometry":{"x":171592.05000000075,"y":2541142.2799999993}},{"attributes":{"ID":374073,"DIS_CODE":0,"TOWNNAME":"東區","LI":"仁和里","LIN":"10鄰","STREET":"仁和路","SECT":" ","MAREA":" ","LANE":"１３９巷","ALLEY":" ","HOUSE_NO":"１１號之４三樓","E_COORD97":171592.04999999999,"N_COORD97":2541142.2799999998,"ADDRESS":"仁和路１３９巷１１號之４三樓","OBJECTID":374063},"geometry":{"x":171592.05000000075,"y":2541142.2799999993}},{"attributes":{"ID":374074,"DIS_CODE":0,"TOWNNAME":"東區","LI":"仁和里","LIN":"10鄰","STREET":"仁和路","SECT":" ","MAREA":" ","LANE":"１３９巷","ALLEY":" ","HOUSE_NO":"１１號之４五樓","E_COORD97":171592.04999999999,"N_COORD97":2541142.2799999998,"ADDRESS":"仁和路１３９巷１１號之４五樓","OBJECTID":374064},"geometry":{"x":171592.05000000075,"y":2541142.2799999993}},{"attributes":{"ID":374075,"DIS_CODE":0,"TOWNNAME":"東區","LI":"仁和里","LIN":"10鄰","STREET":"仁和路","SECT":" ","MAREA":" ","LANE":"１３９巷","ALLEY":" ","HOUSE_NO":"１１號之４六樓","E_COORD97":171592.04999999999,"N_COORD97":2541142.2799999998,"ADDRESS":"仁和路１３９巷１１號之４六樓","OBJECTID":374065},"geometry":{"x":171592.05000000075,"y":2541142.2799999993}},{"attributes":{"ID":374076,"DIS_CODE":0,"TOWNNAME":"東區","LI":"仁和里","LIN":"10鄰","STREET":"仁和路","SECT":" ","MAREA":" ","LANE":"１３９巷","ALLEY":" ","HOUSE_NO":"１１號之４四樓","E_COORD97":171592.04999999999,"N_COORD97":2541142.2799999998,"ADDRESS":"仁和路１３９巷１１號之４四樓","OBJECTID":374066},"geometry":{"x":171592.05000000075,"y":2541142.2799999993}},{"attributes":{"ID":374077,"DIS_CODE":0,"TOWNNAME":"東區","LI":"仁和里","LIN":"10鄰","STREET":"仁和路","SECT":" ","MAREA":" ","LANE":"１３９巷","ALLEY":" ","HOUSE_NO":"１１號之５七樓","E_COORD97":171588.42000000001,"N_COORD97":2541154.1400000001,"ADDRESS":"仁和路１３９巷１１號之５七樓","OBJECTID":374067},"geometry":{"x":171588.41999999993,"y":2541154.1400000006}},{"attributes":{"ID":374078,"DIS_CODE":0,"TOWNNAME":"東區","LI":"仁和里","LIN":"10鄰","STREET":"仁和路","SECT":" ","MAREA":" ","LANE":"１３９巷","ALLEY":" ","HOUSE_NO":"１１號之５八樓","E_COORD97":171588.42000000001,"N_COORD97":2541154.1400000001,"ADDRESS":"仁和路１３９巷１１號之５八樓","OBJECTID":374068},"geometry":{"x":171588.41999999993,"y":2541154.1400000006}},{"attributes":{"ID":374079,"DIS_CODE":0,"TOWNNAME":"東區","LI":"仁和里","LIN":"10鄰","STREET":"仁和路","SECT":" ","MAREA":" ","LANE":"１３９巷","ALLEY":" ","HOUSE_NO":"１１號之５三樓","E_COORD97":171588.42000000001,"N_COORD97":2541154.1400000001,"ADDRESS":"仁和路１３９巷１１號之５三樓","OBJECTID":374069},"geometry":{"x":171588.41999999993,"y":2541154.1400000006}},{"attributes":{"ID":374080,"DIS_CODE":0,"TOWNNAME":"東區","LI":"仁和里","LIN":"10鄰","STREET":"仁和路","SECT":" ","MAREA":" ","LANE":"１３９巷","ALLEY":" ","HOUSE_NO":"１１號之５五樓之１","E_COORD97":171588.42000000001,"N_COORD97":2541154.1400000001,"ADDRESS":"仁和路１３９巷１１號之５五樓之１","OBJECTID":374070},"geometry":{"x":171588.41999999993,"y":2541154.1400000006}},{"attributes":{"ID":374081,"DIS_CODE":0,"TOWNNAME":"東區","LI":"仁和里","LIN":"10鄰","STREET":"仁和路","SECT":" ","MAREA":" ","LANE":"１３９巷","ALLEY":" ","HOUSE_NO":"１１號之５六樓之１","E_COORD97":171588.42000000001,"N_COORD97":2541154.1400000001,"ADDRESS":"仁和路１３９巷１１號之５六樓之１","OBJECTID":374071},"geometry":{"x":171588.41999999993,"y":2541154.1400000006}},{"attributes":{"ID":374082,"DIS_CODE":0,"TOWNNAME":"東區","LI":"大學里","LIN":"10鄰","STREET":"大學路","SECT":" ","MAREA":" ","LANE":"２２巷","ALLEY":" ","HOUSE_NO":"１４號三樓","E_COORD97":170157.12,"N_COORD97":2543967.77,"ADDRESS":"大學路２２巷１４號三樓","OBJECTID":374072},"geometry":{"x":170157.12000000197,"y":2543967.7700000033}},{"attributes":{"ID":374083,"DIS_CODE":0,"TOWNNAME":"東區","LI":"仁和里","LIN":"10鄰","STREET":"仁和路","SECT":" ","MAREA":" ","LANE":"１３９巷","ALLEY":" ","HOUSE_NO":"１１號之５四樓之１","E_COORD97":171588.42000000001,"N_COORD97":2541154.1400000001,"ADDRESS":"仁和路１３９巷１１號之５四樓之１","OBJECTID":374073},"geometry":{"x":171588.41999999993,"y":2541154.1400000006}},{"attributes":{"ID":374084,"DIS_CODE":0,"TOWNNAME":"東區","LI":"仁和里","LIN":"10鄰","STREET":"仁和路","SECT":" ","MAREA":" ","LANE":"１３９巷","ALLEY":" ","HOUSE_NO":"１１號五樓","E_COORD97":171599.32999999999,"N_COORD97":2541104.4900000002,"ADDRESS":"仁和路１３９巷１１號五樓","OBJECTID":374074},"geometry":{"x":171599.33000000007,"y":2541104.4900000002}},{"attributes":{"ID":374085,"DIS_CODE":0,"TOWNNAME":"東區","LI":"仁和里","LIN":"10鄰","STREET":"仁和路","SECT":" ","MAREA":" ","LANE":"１３９巷","ALLEY":" ","HOUSE_NO":"１１號六樓","E_COORD97":171599.32999999999,"N_COORD97":2541104.4900000002,"ADDRESS":"仁和路１３９巷１１號六樓","OBJECTID":374075},"geometry":{"x":171599.33000000007,"y":2541104.4900000002}},{"attributes":{"ID":374086,"DIS_CODE":0,"TOWNNAME":"東區","LI":"仁和里","LIN":"10鄰","STREET":"仁和路","SECT":" ","MAREA":" ","LANE":"１３９巷","ALLEY":" ","HOUSE_NO":"１３號七樓","E_COORD97":171603.45000000001,"N_COORD97":2541107.1600000001,"ADDRESS":"仁和路１３９巷１３號七樓","OBJECTID":374076},"geometry":{"x":171603.45000000019,"y":2541107.1600000001}},{"attributes":{"ID":374087,"DIS_CODE":0,"TOWNNAME":"東區","LI":"仁和里","LIN":"10鄰","STREET":"仁和路","SECT":" ","MAREA":" ","LANE":"１３９巷","ALLEY":" ","HOUSE_NO":"１３號八樓","E_COORD97":171603.45000000001,"N_COORD97":2541107.1600000001,"ADDRESS":"仁和路１３９巷１３號八樓","OBJECTID":374077},"geometry":{"x":171603.45000000019,"y":2541107.1600000001}},{"attributes":{"ID":374088,"DIS_CODE":0,"TOWNNAME":"東區","LI":"仁和里","LIN":"10鄰","STREET":"仁和路","SECT":" ","MAREA":" ","LANE":"１３９巷","ALLEY":" ","HOUSE_NO":"１３號六樓","E_COORD97":171603.45000000001,"N_COORD97":2541107.1600000001,"ADDRESS":"仁和路１３９巷１３號六樓","OBJECTID":374078},"geometry":{"x":171603.45000000019,"y":2541107.1600000001}},{"attributes":{"ID":374089,"DIS_CODE":0,"TOWNNAME":"東區","LI":"仁和里","LIN":"10鄰","STREET":"仁和路","SECT":" ","MAREA":" ","LANE":"１３９巷","ALLEY":" ","HOUSE_NO":"１３號四樓","E_COORD97":171603.45000000001,"N_COORD97":2541107.1600000001,"ADDRESS":"仁和路１３９巷１３號四樓","OBJECTID":374079},"geometry":{"x":171603.45000000019,"y":2541107.1600000001}},{"attributes":{"ID":374090,"DIS_CODE":0,"TOWNNAME":"東區","LI":"仁和里","LIN":"10鄰","STREET":"仁和路","SECT":" ","MAREA":" ","LANE":"１３９巷","ALLEY":" ","HOUSE_NO":"１１號之２二樓","E_COORD97":171594.48000000001,"N_COORD97":2541129.4399999999,"ADDRESS":"仁和路１３９巷１１號之２二樓","OBJECTID":374080},"geometry":{"x":171594.48000000138,"y":2541129.4400000013}},{"attributes":{"ID":374091,"DIS_CODE":0,"TOWNNAME":"東區","LI":"仁和里","LIN":"10鄰","STREET":"仁和路","SECT":" ","MAREA":" ","LANE":"１３９巷","ALLEY":" ","HOUSE_NO":"１１號之３七樓","E_COORD97":171593.01999999999,"N_COORD97":2541136.71,"ADDRESS":"仁和路１３９巷１１號之３七樓","OBJECTID":374081},"geometry":{"x":171593.02000000142,"y":2541136.7100000028}},{"attributes":{"ID":374092,"DIS_CODE":0,"TOWNNAME":"東區","LI":"仁和里","LIN":"10鄰","STREET":"仁和路","SECT":" ","MAREA":" ","LANE":"１３９巷","ALLEY":" ","HOUSE_NO":"１１號之５八樓之１","E_COORD97":171588.42000000001,"N_COORD97":2541154.1400000001,"ADDRESS":"仁和路１３９巷１１號之５八樓之１","OBJECTID":374082},"geometry":{"x":171588.41999999993,"y":2541154.1400000006}},{"attributes":{"ID":374093,"DIS_CODE":0,"TOWNNAME":"東區","LI":"仁和里","LIN":"10鄰","STREET":"仁和路","SECT":" ","MAREA":" ","LANE":"１３９巷","ALLEY":" ","HOUSE_NO":"１１號之５二樓","E_COORD97":171588.42000000001,"N_COORD97":2541154.1400000001,"ADDRESS":"仁和路１３９巷１１號之５二樓","OBJECTID":374083},"geometry":{"x":171588.41999999993,"y":2541154.1400000006}},{"attributes":{"ID":374094,"DIS_CODE":0,"TOWNNAME":"東區","LI":"仁和里","LIN":"10鄰","STREET":"仁和路","SECT":" ","MAREA":" ","LANE":"１３９巷","ALLEY":" ","HOUSE_NO":"１１號四樓","E_COORD97":171599.32999999999,"N_COORD97":2541104.4900000002,"ADDRESS":"仁和路１３９巷１１號四樓","OBJECTID":374084},"geometry":{"x":171599.33000000007,"y":2541104.4900000002}},{"attributes":{"ID":374095,"DIS_CODE":0,"TOWNNAME":"東區","LI":"仁和里","LIN":"10鄰","STREET":"仁和路","SECT":" ","MAREA":" ","LANE":"１３９巷","ALLEY":" ","HOUSE_NO":"１１號之２四樓","E_COORD97":171594.48000000001,"N_COORD97":2541129.4399999999,"ADDRESS":"仁和路１３９巷１１號之２四樓","OBJECTID":374085},"geometry":{"x":171594.48000000138,"y":2541129.4400000013}},{"attributes":{"ID":374096,"DIS_CODE":0,"TOWNNAME":"東區","LI":"仁和里","LIN":"10鄰","STREET":"仁和路","SECT":" ","MAREA":" ","LANE":"１３９巷","ALLEY":" ","HOUSE_NO":"１３號五樓","E_COORD97":171603.45000000001,"N_COORD97":2541107.1600000001,"ADDRESS":"仁和路１３９巷１３號五樓","OBJECTID":374086},"geometry":{"x":171603.45000000019,"y":2541107.1600000001}},{"attributes":{"ID":374097,"DIS_CODE":0,"TOWNNAME":"東區","LI":"仁和里","LIN":"10鄰","STREET":"仁和路","SECT":" ","MAREA":" ","LANE":"１３９巷","ALLEY":" ","HOUSE_NO":"１１號之３五樓","E_COORD97":171593.01999999999,"N_COORD97":2541136.71,"ADDRESS":"仁和路１３９巷１１號之３五樓","OBJECTID":374087},"geometry":{"x":171593.02000000142,"y":2541136.7100000028}},{"attributes":{"ID":374098,"DIS_CODE":0,"TOWNNAME":"東區","LI":"仁和里","LIN":"10鄰","STREET":"仁和路","SECT":" ","MAREA":" ","LANE":"１３９巷","ALLEY":" ","HOUSE_NO":"１１號之５五樓","E_COORD97":171588.42000000001,"N_COORD97":2541154.1400000001,"ADDRESS":"仁和路１３９巷１１號之５五樓","OBJECTID":374088},"geometry":{"x":171588.41999999993,"y":2541154.1400000006}},{"attributes":{"ID":374099,"DIS_CODE":0,"TOWNNAME":"東區","LI":"仁和里","LIN":"10鄰","STREET":"仁和路","SECT":" ","MAREA":" ","LANE":"１３９巷","ALLEY":" ","HOUSE_NO":"１１號之５七樓之１","E_COORD97":171588.42000000001,"N_COORD97":2541154.1400000001,"ADDRESS":"仁和路１３９巷１１號之５七樓之１","OBJECTID":374089},"geometry":{"x":171588.41999999993,"y":2541154.1400000006}},{"attributes":{"ID":374100,"DIS_CODE":0,"TOWNNAME":"東區","LI":"仁和里","LIN":"10鄰","STREET":"仁和路","SECT":" ","MAREA":" ","LANE":"１３９巷","ALLEY":" ","HOUSE_NO":"１１號八樓","E_COORD97":171599.32999999999,"N_COORD97":2541104.4900000002,"ADDRESS":"仁和路１３９巷１１號八樓","OBJECTID":374090},"geometry":{"x":171599.33000000007,"y":2541104.4900000002}},{"attributes":{"ID":374101,"DIS_CODE":0,"TOWNNAME":"仁德區","LI":"仁德里","LIN":"10鄰","STREET":"中正路","SECT":"二段","MAREA":" ","LANE":"１２０５巷","ALLEY":" ","HOUSE_NO":"１６號四樓之２","E_COORD97":173222.09,"N_COORD97":2541183.7999999998,"ADDRESS":"中正路二段１２０５巷１６號四樓之２","OBJECTID":374091},"geometry":{"x":173222.09000000078,"y":2541183.8000000007}},{"attributes":{"ID":374102,"DIS_CODE":0,"TOWNNAME":"仁德區","LI":"仁德里","LIN":"10鄰","STREET":"中正路","SECT":"二段","MAREA":" ","LANE":"１２０５巷","ALLEY":" ","HOUSE_NO":"１６號二樓之２","E_COORD97":173222.09,"N_COORD97":2541183.7999999998,"ADDRESS":"中正路二段１２０５巷１６號二樓之２","OBJECTID":374092},"geometry":{"x":173222.09000000078,"y":2541183.8000000007}},{"attributes":{"ID":374103,"DIS_CODE":0,"TOWNNAME":"仁德區","LI":"保安里","LIN":"10鄰","STREET":"中正路","SECT":"一段","MAREA":" ","LANE":"２７３巷","ALLEY":" ","HOUSE_NO":"１號二樓","E_COORD97":171864.04999999999,"N_COORD97":2536033.02,"ADDRESS":"中正路一段２７３巷１號二樓","OBJECTID":374093},"geometry":{"x":171864.04999999981,"y":2536033.0200000014}},{"attributes":{"ID":374104,"DIS_CODE":0,"TOWNNAME":"仁德區","LI":"仁德里","LIN":"10鄰","STREET":"中正路","SECT":"二段","MAREA":" ","LANE":"１２０５巷","ALLEY":" ","HOUSE_NO":"７號二樓之２","E_COORD97":173213.67000000001,"N_COORD97":2541243.0600000001,"ADDRESS":"中正路二段１２０５巷７號二樓之２","OBJECTID":374094},"geometry":{"x":173213.67000000086,"y":2541243.0600000005}},{"attributes":{"ID":374105,"DIS_CODE":0,"TOWNNAME":"仁德區","LI":"仁德里","LIN":"10鄰","STREET":"中正路","SECT":"二段","MAREA":" ","LANE":"１２０５巷","ALLEY":" ","HOUSE_NO":"１０號六樓之１","E_COORD97":173175.95000000001,"N_COORD97":2541215.9100000001,"ADDRESS":"中正路二段１２０５巷１０號六樓之１","OBJECTID":374095},"geometry":{"x":173175.95000000112,"y":2541215.910000002}},{"attributes":{"ID":374106,"DIS_CODE":0,"TOWNNAME":"仁德區","LI":"仁德里","LIN":"10鄰","STREET":"中正路","SECT":"二段","MAREA":" ","LANE":"１２０５巷","ALLEY":" ","HOUSE_NO":"１５號四樓之１","E_COORD97":173207.47,"N_COORD97":2541183.5499999998,"ADDRESS":"中正路二段１２０５巷１５號四樓之１","OBJECTID":374096},"geometry":{"x":173207.47000000067,"y":2541183.5500000045}},{"attributes":{"ID":374107,"DIS_CODE":0,"TOWNNAME":"仁德區","LI":"仁德里","LIN":"10鄰","STREET":"中正路","SECT":"二段","MAREA":" ","LANE":"１２０５巷","ALLEY":" ","HOUSE_NO":"３號三樓之１","E_COORD97":173227.64999999999,"N_COORD97":2541226.3100000001,"ADDRESS":"中正路二段１２０５巷３號三樓之１","OBJECTID":374097},"geometry":{"x":173227.6500000013,"y":2541226.3100000024}},{"attributes":{"ID":374108,"DIS_CODE":0,"TOWNNAME":"仁德區","LI":"仁德里","LIN":"10鄰","STREET":"中正路","SECT":"二段","MAREA":" ","LANE":"１２０５巷","ALLEY":" ","HOUSE_NO":"２號一樓之２","E_COORD97":173228.76000000001,"N_COORD97":2541207.5499999998,"ADDRESS":"中正路二段１２０５巷２號一樓之２","OBJECTID":374098},"geometry":{"x":173228.75999999978,"y":2541207.5500000045}},{"attributes":{"ID":374109,"DIS_CODE":0,"TOWNNAME":"東區","LI":"關聖里","LIN":"10鄰","STREET":"裕農路","SECT":" ","MAREA":" ","LANE":"７２６巷","ALLEY":" ","HOUSE_NO":"１９號五樓","E_COORD97":171890.04000000001,"N_COORD97":2543077.1699999999,"ADDRESS":"裕農路７２６巷１９號五樓","OBJECTID":374099},"geometry":{"x":171890.0400000019,"y":2543077.1700000037}},{"attributes":{"ID":374110,"DIS_CODE":0,"TOWNNAME":"仁德區","LI":"仁德里","LIN":"10鄰","STREET":"中正路","SECT":"二段","MAREA":" ","LANE":"１２０５巷","ALLEY":" ","HOUSE_NO":"６號三樓之１","E_COORD97":173212.66,"N_COORD97":2541258.5600000001,"ADDRESS":"中正路二段１２０５巷６號三樓之１","OBJECTID":374100},"geometry":{"x":173212.66000000015,"y":2541258.5600000024}},{"attributes":{"ID":374111,"DIS_CODE":0,"TOWNNAME":"仁德區","LI":"仁德里","LIN":"10鄰","STREET":"中正路","SECT":"二段","MAREA":" ","LANE":"１２０５巷","ALLEY":" ","HOUSE_NO":"４號五樓之２","E_COORD97":173226.92000000001,"N_COORD97":2541243.8100000001,"ADDRESS":"中正路二段１２０５巷４號五樓之２","OBJECTID":374101},"geometry":{"x":173226.92000000086,"y":2541243.8100000024}},{"attributes":{"ID":374112,"DIS_CODE":0,"TOWNNAME":"東區","LI":"大學里","LIN":"10鄰","STREET":"大學路","SECT":" ","MAREA":" ","LANE":"２２巷","ALLEY":" ","HOUSE_NO":"１４號四樓","E_COORD97":170157.12,"N_COORD97":2543967.77,"ADDRESS":"大學路２２巷１４號四樓","OBJECTID":374102},"geometry":{"x":170157.12000000197,"y":2543967.7700000033}},{"attributes":{"ID":374113,"DIS_CODE":0,"TOWNNAME":"仁德區","LI":"仁德里","LIN":"10鄰","STREET":"中正路","SECT":"二段","MAREA":" ","LANE":"１２０５巷","ALLEY":" ","HOUSE_NO":"４號六樓之２","E_COORD97":173226.92000000001,"N_COORD97":2541243.8100000001,"ADDRESS":"中正路二段１２０５巷４號六樓之２","OBJECTID":374103},"geometry":{"x":173226.92000000086,"y":2541243.8100000024}},{"attributes":{"ID":374114,"DIS_CODE":0,"TOWNNAME":"仁德區","LI":"保安里","LIN":"10鄰","STREET":"中正路","SECT":"一段","MAREA":" ","LANE":"２７３巷","ALLEY":" ","HOUSE_NO":"１號三樓","E_COORD97":171864.04999999999,"N_COORD97":2536033.02,"ADDRESS":"中正路一段２７３巷１號三樓","OBJECTID":374104},"geometry":{"x":171864.04999999981,"y":2536033.0200000014}},{"attributes":{"ID":374115,"DIS_CODE":0,"TOWNNAME":"仁德區","LI":"仁德里","LIN":"10鄰","STREET":"中正路","SECT":"二段","MAREA":" ","LANE":"１２０５巷","ALLEY":" ","HOUSE_NO":"４號四樓之１","E_COORD97":173226.78,"N_COORD97":2541243.8100000001,"ADDRESS":"中正路二段１２０５巷４號四樓之１","OBJECTID":374105},"geometry":{"x":173226.78000000119,"y":2541243.8100000024}},{"attributes":{"ID":374116,"DIS_CODE":0,"TOWNNAME":"仁德區","LI":"保安里","LIN":"10鄰","STREET":"中正路","SECT":"一段","MAREA":" ","LANE":"２７３巷","ALLEY":" ","HOUSE_NO":"３號四樓","E_COORD97":171858.29000000001,"N_COORD97":2536039.52,"ADDRESS":"中正路一段２７３巷３號四樓","OBJECTID":374106},"geometry":{"x":171858.29000000097,"y":2536039.5200000033}},{"attributes":{"ID":374117,"DIS_CODE":0,"TOWNNAME":"永康區","LI":"五王里","LIN":"10鄰","STREET":"中山東路","SECT":" ","MAREA":" ","LANE":"２９２巷","ALLEY":" ","HOUSE_NO":"２９號四樓","E_COORD97":171742.26000000001,"N_COORD97":2545595.6000000001,"ADDRESS":"中山東路２９２巷２９號四樓","OBJECTID":374107},"geometry":{"x":171742.25999999885,"y":2545595.5999999996}},{"attributes":{"ID":374118,"DIS_CODE":0,"TOWNNAME":"中西區","LI":"西賢里","LIN":"10鄰","STREET":"西賢一街","SECT":" ","MAREA":" ","LANE":"１４８巷","ALLEY":" ","HOUSE_NO":"１６號三樓","E_COORD97":165760.44,"N_COORD97":2544736.1000000001,"ADDRESS":"西賢一街１４８巷１６號三樓","OBJECTID":374108},"geometry":{"x":165760.44000000041,"y":2544736.1000000015}},{"attributes":{"ID":374119,"DIS_CODE":0,"TOWNNAME":"中西區","LI":"西賢里","LIN":"10鄰","STREET":"西賢一街","SECT":" ","MAREA":" ","LANE":"１４８巷","ALLEY":" ","HOUSE_NO":"１６號五樓","E_COORD97":165760.44,"N_COORD97":2544736.1000000001,"ADDRESS":"西賢一街１４８巷１６號五樓","OBJECTID":374109},"geometry":{"x":165760.44000000041,"y":2544736.1000000015}},{"attributes":{"ID":374120,"DIS_CODE":0,"TOWNNAME":"中西區","LI":"西賢里","LIN":"10鄰","STREET":"西賢一街","SECT":" ","MAREA":" ","LANE":"１４８巷","ALLEY":" ","HOUSE_NO":"１６號六樓","E_COORD97":165760.44,"N_COORD97":2544736.1000000001,"ADDRESS":"西賢一街１４８巷１６號六樓","OBJECTID":374110},"geometry":{"x":165760.44000000041,"y":2544736.1000000015}},{"attributes":{"ID":374121,"DIS_CODE":0,"TOWNNAME":"中西區","LI":"西賢里","LIN":"10鄰","STREET":"西賢一街","SECT":" ","MAREA":" ","LANE":"１４８巷","ALLEY":" ","HOUSE_NO":"１６號四樓","E_COORD97":165760.44,"N_COORD97":2544736.1000000001,"ADDRESS":"西賢一街１４８巷１６號四樓","OBJECTID":374111},"geometry":{"x":165760.44000000041,"y":2544736.1000000015}},{"attributes":{"ID":374122,"DIS_CODE":0,"TOWNNAME":"中西區","LI":"西賢里","LIN":"10鄰","STREET":"西賢一街","SECT":" ","MAREA":" ","LANE":"１４８巷","ALLEY":" ","HOUSE_NO":"８號二樓","E_COORD97":165760.13,"N_COORD97":2544694.9100000001,"ADDRESS":"西賢一街１４８巷８號二樓","OBJECTID":374112},"geometry":{"x":165760.13000000082,"y":2544694.9100000001}},{"attributes":{"ID":374123,"DIS_CODE":0,"TOWNNAME":"中西區","LI":"西賢里","LIN":"10鄰","STREET":"西賢一街","SECT":" ","MAREA":" ","LANE":"１４８巷","ALLEY":" ","HOUSE_NO":"８號三樓","E_COORD97":165760.13,"N_COORD97":2544694.9100000001,"ADDRESS":"西賢一街１４８巷８號三樓","OBJECTID":374113},"geometry":{"x":165760.13000000082,"y":2544694.9100000001}},{"attributes":{"ID":374124,"DIS_CODE":0,"TOWNNAME":"中西區","LI":"西賢里","LIN":"10鄰","STREET":"西賢一街","SECT":" ","MAREA":" ","LANE":"１４８巷","ALLEY":" ","HOUSE_NO":"８號五樓","E_COORD97":165760.13,"N_COORD97":2544694.9100000001,"ADDRESS":"西賢一街１４８巷８號五樓","OBJECTID":374114},"geometry":{"x":165760.13000000082,"y":2544694.9100000001}},{"attributes":{"ID":374125,"DIS_CODE":0,"TOWNNAME":"中西區","LI":"西賢里","LIN":"10鄰","STREET":"西賢一街","SECT":" ","MAREA":" ","LANE":"１４８巷","ALLEY":" ","HOUSE_NO":"８號六樓","E_COORD97":165760.13,"N_COORD97":2544694.9100000001,"ADDRESS":"西賢一街１４８巷８號六樓","OBJECTID":374115},"geometry":{"x":165760.13000000082,"y":2544694.9100000001}},{"attributes":{"ID":374126,"DIS_CODE":0,"TOWNNAME":"中西區","LI":"西賢里","LIN":"10鄰","STREET":"西賢一街","SECT":" ","MAREA":" ","LANE":"１４８巷","ALLEY":" ","HOUSE_NO":"８號四樓","E_COORD97":165760.13,"N_COORD97":2544694.9100000001,"ADDRESS":"西賢一街１４８巷８號四樓","OBJECTID":374116},"geometry":{"x":165760.13000000082,"y":2544694.9100000001}},{"attributes":{"ID":374127,"DIS_CODE":0,"TOWNNAME":"東區","LI":"莊敬里","LIN":"10鄰","STREET":"東光路","SECT":"二段","MAREA":" ","LANE":"８２巷","ALLEY":" ","HOUSE_NO":"２號七樓之１","E_COORD97":171256.32999999999,"N_COORD97":2544158.0699999998,"ADDRESS":"東光路二段８２巷２號七樓之１","OBJECTID":374117},"geometry":{"x":171256.33000000101,"y":2544158.0700000003}},{"attributes":{"ID":374128,"DIS_CODE":0,"TOWNNAME":"東區","LI":"莊敬里","LIN":"10鄰","STREET":"東光路","SECT":"二段","MAREA":" ","LANE":"８２巷","ALLEY":" ","HOUSE_NO":"２號七樓之２","E_COORD97":171256.32999999999,"N_COORD97":2544158.0699999998,"ADDRESS":"東光路二段８２巷２號七樓之２","OBJECTID":374118},"geometry":{"x":171256.33000000101,"y":2544158.0700000003}},{"attributes":{"ID":374129,"DIS_CODE":0,"TOWNNAME":"東區","LI":"莊敬里","LIN":"10鄰","STREET":"東光路","SECT":"二段","MAREA":" ","LANE":"８２巷","ALLEY":" ","HOUSE_NO":"２號九樓","E_COORD97":171256.32999999999,"N_COORD97":2544158.0699999998,"ADDRESS":"東光路二段８２巷２號九樓","OBJECTID":374119},"geometry":{"x":171256.33000000101,"y":2544158.0700000003}},{"attributes":{"ID":374130,"DIS_CODE":0,"TOWNNAME":"東區","LI":"莊敬里","LIN":"10鄰","STREET":"東光路","SECT":"二段","MAREA":" ","LANE":"８２巷","ALLEY":" ","HOUSE_NO":"２號九樓之１","E_COORD97":171256.32999999999,"N_COORD97":2544158.0699999998,"ADDRESS":"東光路二段８２巷２號九樓之１","OBJECTID":374120},"geometry":{"x":171256.33000000101,"y":2544158.0700000003}},{"attributes":{"ID":374131,"DIS_CODE":0,"TOWNNAME":"東區","LI":"莊敬里","LIN":"10鄰","STREET":"東光路","SECT":"二段","MAREA":" ","LANE":"８２巷","ALLEY":" ","HOUSE_NO":"２號二樓","E_COORD97":171256.32999999999,"N_COORD97":2544158.0699999998,"ADDRESS":"東光路二段８２巷２號二樓","OBJECTID":374121},"geometry":{"x":171256.33000000101,"y":2544158.0700000003}},{"attributes":{"ID":374132,"DIS_CODE":0,"TOWNNAME":"東區","LI":"莊敬里","LIN":"10鄰","STREET":"東光路","SECT":"二段","MAREA":" ","LANE":"８２巷","ALLEY":" ","HOUSE_NO":"２號二樓之１","E_COORD97":171256.32999999999,"N_COORD97":2544158.0699999998,"ADDRESS":"東光路二段８２巷２號二樓之１","OBJECTID":374122},"geometry":{"x":171256.33000000101,"y":2544158.0700000003}},{"attributes":{"ID":374133,"DIS_CODE":0,"TOWNNAME":"東區","LI":"莊敬里","LIN":"10鄰","STREET":"東光路","SECT":"二段","MAREA":" ","LANE":"８２巷","ALLEY":" ","HOUSE_NO":"２號二樓之２","E_COORD97":171256.32999999999,"N_COORD97":2544158.0699999998,"ADDRESS":"東光路二段８２巷２號二樓之２","OBJECTID":374123},"geometry":{"x":171256.33000000101,"y":2544158.0700000003}},{"attributes":{"ID":374134,"DIS_CODE":0,"TOWNNAME":"東區","LI":"莊敬里","LIN":"10鄰","STREET":"東光路","SECT":"二段","MAREA":" ","LANE":"８２巷","ALLEY":" ","HOUSE_NO":"２號八樓","E_COORD97":171256.32999999999,"N_COORD97":2544158.0699999998,"ADDRESS":"東光路二段８２巷２號八樓","OBJECTID":374124},"geometry":{"x":171256.33000000101,"y":2544158.0700000003}},{"attributes":{"ID":374135,"DIS_CODE":0,"TOWNNAME":"東區","LI":"莊敬里","LIN":"10鄰","STREET":"東光路","SECT":"二段","MAREA":" ","LANE":"８２巷","ALLEY":" ","HOUSE_NO":"２號八樓之１","E_COORD97":171256.32999999999,"N_COORD97":2544158.0699999998,"ADDRESS":"東光路二段８２巷２號八樓之１","OBJECTID":374125},"geometry":{"x":171256.33000000101,"y":2544158.0700000003}},{"attributes":{"ID":374136,"DIS_CODE":0,"TOWNNAME":"東區","LI":"莊敬里","LIN":"10鄰","STREET":"東光路","SECT":"二段","MAREA":" ","LANE":"８２巷","ALLEY":" ","HOUSE_NO":"２號八樓之２","E_COORD97":171256.32999999999,"N_COORD97":2544158.0699999998,"ADDRESS":"東光路二段８２巷２號八樓之２","OBJECTID":374126},"geometry":{"x":171256.33000000101,"y":2544158.0700000003}},{"attributes":{"ID":374137,"DIS_CODE":0,"TOWNNAME":"東區","LI":"莊敬里","LIN":"10鄰","STREET":"東光路","SECT":"二段","MAREA":" ","LANE":"８２巷","ALLEY":" ","HOUSE_NO":"２號三樓","E_COORD97":171256.32999999999,"N_COORD97":2544158.0699999998,"ADDRESS":"東光路二段８２巷２號三樓","OBJECTID":374127},"geometry":{"x":171256.33000000101,"y":2544158.0700000003}},{"attributes":{"ID":374138,"DIS_CODE":0,"TOWNNAME":"東區","LI":"莊敬里","LIN":"10鄰","STREET":"東光路","SECT":"二段","MAREA":" ","LANE":"８２巷","ALLEY":" ","HOUSE_NO":"２號三樓之１","E_COORD97":171256.32999999999,"N_COORD97":2544158.0699999998,"ADDRESS":"東光路二段８２巷２號三樓之１","OBJECTID":374128},"geometry":{"x":171256.33000000101,"y":2544158.0700000003}},{"attributes":{"ID":374139,"DIS_CODE":0,"TOWNNAME":"東區","LI":"莊敬里","LIN":"10鄰","STREET":"東光路","SECT":"二段","MAREA":" ","LANE":"８２巷","ALLEY":" ","HOUSE_NO":"２號三樓之２","E_COORD97":171256.32999999999,"N_COORD97":2544158.0699999998,"ADDRESS":"東光路二段８２巷２號三樓之２","OBJECTID":374129},"geometry":{"x":171256.33000000101,"y":2544158.0700000003}},{"attributes":{"ID":374140,"DIS_CODE":0,"TOWNNAME":"東區","LI":"莊敬里","LIN":"10鄰","STREET":"東光路","SECT":"二段","MAREA":" ","LANE":"８２巷","ALLEY":" ","HOUSE_NO":"２號五樓","E_COORD97":171256.32999999999,"N_COORD97":2544158.0699999998,"ADDRESS":"東光路二段８２巷２號五樓","OBJECTID":374130},"geometry":{"x":171256.33000000101,"y":2544158.0700000003}},{"attributes":{"ID":374141,"DIS_CODE":0,"TOWNNAME":"東區","LI":"莊敬里","LIN":"10鄰","STREET":"東光路","SECT":"二段","MAREA":" ","LANE":"８２巷","ALLEY":" ","HOUSE_NO":"２號五樓之１","E_COORD97":171256.32999999999,"N_COORD97":2544158.0699999998,"ADDRESS":"東光路二段８２巷２號五樓之１","OBJECTID":374131},"geometry":{"x":171256.33000000101,"y":2544158.0700000003}},{"attributes":{"ID":374142,"DIS_CODE":0,"TOWNNAME":"東區","LI":"莊敬里","LIN":"10鄰","STREET":"東光路","SECT":"二段","MAREA":" ","LANE":"８２巷","ALLEY":" ","HOUSE_NO":"２號五樓之２","E_COORD97":171256.32999999999,"N_COORD97":2544158.0699999998,"ADDRESS":"東光路二段８２巷２號五樓之２","OBJECTID":374132},"geometry":{"x":171256.33000000101,"y":2544158.0700000003}},{"attributes":{"ID":374143,"DIS_CODE":0,"TOWNNAME":"東區","LI":"關聖里","LIN":"10鄰","STREET":"裕農路","SECT":" ","MAREA":" ","LANE":"７２６巷","ALLEY":" ","HOUSE_NO":"１５號二樓","E_COORD97":171890.04000000001,"N_COORD97":2543095.3100000001,"ADDRESS":"裕農路７２６巷１５號二樓","OBJECTID":374133},"geometry":{"x":171890.0400000019,"y":2543095.3100000024}},{"attributes":{"ID":374144,"DIS_CODE":0,"TOWNNAME":"東區","LI":"關聖里","LIN":"10鄰","STREET":"裕農路","SECT":" ","MAREA":" ","LANE":"７２６巷","ALLEY":" ","HOUSE_NO":"１５號二樓之１","E_COORD97":171890.04000000001,"N_COORD97":2543095.3100000001,"ADDRESS":"裕農路７２６巷１５號二樓之１","OBJECTID":374134},"geometry":{"x":171890.0400000019,"y":2543095.3100000024}},{"attributes":{"ID":374145,"DIS_CODE":0,"TOWNNAME":"東區","LI":"關聖里","LIN":"10鄰","STREET":"裕農路","SECT":" ","MAREA":" ","LANE":"７２６巷","ALLEY":" ","HOUSE_NO":"１５號三樓","E_COORD97":171890.04000000001,"N_COORD97":2543095.3100000001,"ADDRESS":"裕農路７２６巷１５號三樓","OBJECTID":374135},"geometry":{"x":171890.0400000019,"y":2543095.3100000024}},{"attributes":{"ID":374146,"DIS_CODE":0,"TOWNNAME":"東區","LI":"關聖里","LIN":"10鄰","STREET":"裕農路","SECT":" ","MAREA":" ","LANE":"７２６巷","ALLEY":" ","HOUSE_NO":"１５號三樓之１","E_COORD97":171890.04000000001,"N_COORD97":2543095.3100000001,"ADDRESS":"裕農路７２６巷１５號三樓之１","OBJECTID":374136},"geometry":{"x":171890.0400000019,"y":2543095.3100000024}},{"attributes":{"ID":374147,"DIS_CODE":0,"TOWNNAME":"東區","LI":"關聖里","LIN":"10鄰","STREET":"裕農路","SECT":" ","MAREA":" ","LANE":"７２６巷","ALLEY":" ","HOUSE_NO":"１５號五樓之１","E_COORD97":171890.04000000001,"N_COORD97":2543095.3100000001,"ADDRESS":"裕農路７２６巷１５號五樓之１","OBJECTID":374137},"geometry":{"x":171890.0400000019,"y":2543095.3100000024}},{"attributes":{"ID":374148,"DIS_CODE":0,"TOWNNAME":"東區","LI":"關聖里","LIN":"10鄰","STREET":"裕農路","SECT":" ","MAREA":" ","LANE":"７２６巷","ALLEY":" ","HOUSE_NO":"１５號四樓","E_COORD97":171890.04000000001,"N_COORD97":2543095.3100000001,"ADDRESS":"裕農路７２６巷１５號四樓","OBJECTID":374138},"geometry":{"x":171890.0400000019,"y":2543095.3100000024}},{"attributes":{"ID":374149,"DIS_CODE":0,"TOWNNAME":"東區","LI":"關聖里","LIN":"10鄰","STREET":"裕農路","SECT":" ","MAREA":" ","LANE":"７２６巷","ALLEY":" ","HOUSE_NO":"１５號四樓之１","E_COORD97":171890.04000000001,"N_COORD97":2543095.3100000001,"ADDRESS":"裕農路７２６巷１５號四樓之１","OBJECTID":374139},"geometry":{"x":171890.0400000019,"y":2543095.3100000024}},{"attributes":{"ID":374150,"DIS_CODE":0,"TOWNNAME":"東區","LI":"關聖里","LIN":"10鄰","STREET":"裕農路","SECT":" ","MAREA":" ","LANE":"７２６巷","ALLEY":" ","HOUSE_NO":"１７號二樓","E_COORD97":171890.44,"N_COORD97":2543086.2400000002,"ADDRESS":"裕農路７２６巷１７號二樓","OBJECTID":374140},"geometry":{"x":171890.44000000041,"y":2543086.2400000002}},{"attributes":{"ID":374151,"DIS_CODE":0,"TOWNNAME":"東區","LI":"關聖里","LIN":"10鄰","STREET":"裕農路","SECT":" ","MAREA":" ","LANE":"７２６巷","ALLEY":" ","HOUSE_NO":"１７號三樓","E_COORD97":171890.44,"N_COORD97":2543086.2400000002,"ADDRESS":"裕農路７２６巷１７號三樓","OBJECTID":374141},"geometry":{"x":171890.44000000041,"y":2543086.2400000002}},{"attributes":{"ID":374152,"DIS_CODE":0,"TOWNNAME":"東區","LI":"關聖里","LIN":"10鄰","STREET":"裕農路","SECT":" ","MAREA":" ","LANE":"７２６巷","ALLEY":" ","HOUSE_NO":"１７號四樓","E_COORD97":171890.44,"N_COORD97":2543086.2400000002,"ADDRESS":"裕農路７２６巷１７號四樓","OBJECTID":374142},"geometry":{"x":171890.44000000041,"y":2543086.2400000002}},{"attributes":{"ID":374153,"DIS_CODE":0,"TOWNNAME":"東區","LI":"關聖里","LIN":"10鄰","STREET":"裕農路","SECT":" ","MAREA":" ","LANE":"７２６巷","ALLEY":" ","HOUSE_NO":"１７號五樓","E_COORD97":171890.44,"N_COORD97":2543086.2400000002,"ADDRESS":"裕農路７２６巷１７號五樓","OBJECTID":374143},"geometry":{"x":171890.44000000041,"y":2543086.2400000002}},{"attributes":{"ID":374154,"DIS_CODE":0,"TOWNNAME":"東區","LI":"關聖里","LIN":"10鄰","STREET":"裕農路","SECT":" ","MAREA":" ","LANE":"７２６巷","ALLEY":" ","HOUSE_NO":"１９號三樓","E_COORD97":171890.04000000001,"N_COORD97":2543077.1699999999,"ADDRESS":"裕農路７２６巷１９號三樓","OBJECTID":374144},"geometry":{"x":171890.0400000019,"y":2543077.1700000037}},{"attributes":{"ID":374155,"DIS_CODE":0,"TOWNNAME":"中西區","LI":"公正里","LIN":"10鄰","STREET":"西華南街","SECT":" ","MAREA":" ","LANE":"３６巷","ALLEY":" ","HOUSE_NO":"１０號二樓之１","E_COORD97":168982.98000000001,"N_COORD97":2543813.77,"ADDRESS":"西華南街３６巷１０號二樓之１","OBJECTID":374145},"geometry":{"x":168982.98000000045,"y":2543813.7699999996}},{"attributes":{"ID":374156,"DIS_CODE":0,"TOWNNAME":"中西區","LI":"公正里","LIN":"10鄰","STREET":"西華南街","SECT":" ","MAREA":" ","LANE":"３６巷","ALLEY":" ","HOUSE_NO":"１０號二樓之２","E_COORD97":168982.98000000001,"N_COORD97":2543813.77,"ADDRESS":"西華南街３６巷１０號二樓之２","OBJECTID":374146},"geometry":{"x":168982.98000000045,"y":2543813.7699999996}},{"attributes":{"ID":374157,"DIS_CODE":0,"TOWNNAME":"安平區","LI":"平安里","LIN":"9鄰","STREET":"安平路","SECT":" ","MAREA":" ","LANE":"４２６巷","ALLEY":" ","HOUSE_NO":"３６號之４","E_COORD97":165369.47653399999,"N_COORD97":2544410.9850300001,"ADDRESS":"安平路４２６巷３６號之４","OBJECTID":374147},"geometry":{"x":165369.47653399967,"y":2544410.9850280024}},{"attributes":{"ID":374158,"DIS_CODE":0,"TOWNNAME":"中西區","LI":"公正里","LIN":"10鄰","STREET":"西華南街","SECT":" ","MAREA":" ","LANE":"３６巷","ALLEY":" ","HOUSE_NO":"１０號三樓之１","E_COORD97":168982.98000000001,"N_COORD97":2543813.77,"ADDRESS":"西華南街３６巷１０號三樓之１","OBJECTID":374148},"geometry":{"x":168982.98000000045,"y":2543813.7699999996}},{"attributes":{"ID":374159,"DIS_CODE":0,"TOWNNAME":"中西區","LI":"公正里","LIN":"10鄰","STREET":"西華南街","SECT":" ","MAREA":" ","LANE":"３６巷","ALLEY":" ","HOUSE_NO":"１０號三樓之２","E_COORD97":168982.98000000001,"N_COORD97":2543813.77,"ADDRESS":"西華南街３６巷１０號三樓之２","OBJECTID":374149},"geometry":{"x":168982.98000000045,"y":2543813.7699999996}},{"attributes":{"ID":374160,"DIS_CODE":0,"TOWNNAME":"中西區","LI":"公正里","LIN":"10鄰","STREET":"西華南街","SECT":" ","MAREA":" ","LANE":"３６巷","ALLEY":" ","HOUSE_NO":"１０號三樓之３","E_COORD97":168982.98000000001,"N_COORD97":2543813.77,"ADDRESS":"西華南街３６巷１０號三樓之３","OBJECTID":374150},"geometry":{"x":168982.98000000045,"y":2543813.7699999996}},{"attributes":{"ID":374161,"DIS_CODE":0,"TOWNNAME":"中西區","LI":"福安里","LIN":"10鄰","STREET":"永福路","SECT":"二段","MAREA":" ","LANE":"３５巷","ALLEY":" ","HOUSE_NO":"２８號一樓之１","E_COORD97":167947.35999999999,"N_COORD97":2543498.0499999998,"ADDRESS":"永福路二段３５巷２８號一樓之１","OBJECTID":374151},"geometry":{"x":167947.36000000127,"y":2543498.0500000007}},{"attributes":{"ID":374162,"DIS_CODE":0,"TOWNNAME":"中西區","LI":"福安里","LIN":"10鄰","STREET":"永福路","SECT":"二段","MAREA":" ","LANE":"３５巷","ALLEY":" ","HOUSE_NO":"２８號一樓之２","E_COORD97":167954.14999999999,"N_COORD97":2543496.98,"ADDRESS":"永福路二段３５巷２８號一樓之２","OBJECTID":374152},"geometry":{"x":167954.1500000013,"y":2543496.9800000023}},{"attributes":{"ID":374163,"DIS_CODE":0,"TOWNNAME":"中西區","LI":"福安里","LIN":"10鄰","STREET":"永福路","SECT":"二段","MAREA":" ","LANE":"３５巷","ALLEY":" ","HOUSE_NO":"２８號一樓之３","E_COORD97":167946.57000000001,"N_COORD97":2543485.5600000001,"ADDRESS":"永福路二段３５巷２８號一樓之３","OBJECTID":374153},"geometry":{"x":167946.5700000003,"y":2543485.5600000042}},{"attributes":{"ID":374164,"DIS_CODE":0,"TOWNNAME":"中西區","LI":"福安里","LIN":"10鄰","STREET":"永福路","SECT":"二段","MAREA":" ","LANE":"３５巷","ALLEY":" ","HOUSE_NO":"２８號一樓之４","E_COORD97":167956.07000000001,"N_COORD97":2543483.8399999999,"ADDRESS":"永福路二段３５巷２８號一樓之４","OBJECTID":374154},"geometry":{"x":167956.07000000123,"y":2543483.8400000017}},{"attributes":{"ID":374165,"DIS_CODE":0,"TOWNNAME":"中西區","LI":"福安里","LIN":"10鄰","STREET":"永福路","SECT":"二段","MAREA":" ","LANE":"３５巷","ALLEY":" ","HOUSE_NO":"２８號二樓之１","E_COORD97":167947.35999999999,"N_COORD97":2543498.0499999998,"ADDRESS":"永福路二段３５巷２８號二樓之１","OBJECTID":374155},"geometry":{"x":167947.36000000127,"y":2543498.0500000007}},{"attributes":{"ID":374166,"DIS_CODE":0,"TOWNNAME":"中西區","LI":"福安里","LIN":"10鄰","STREET":"永福路","SECT":"二段","MAREA":" ","LANE":"３５巷","ALLEY":" ","HOUSE_NO":"２８號二樓之２","E_COORD97":167954.14999999999,"N_COORD97":2543496.98,"ADDRESS":"永福路二段３５巷２８號二樓之２","OBJECTID":374156},"geometry":{"x":167954.1500000013,"y":2543496.9800000023}},{"attributes":{"ID":374167,"DIS_CODE":0,"TOWNNAME":"中西區","LI":"福安里","LIN":"10鄰","STREET":"永福路","SECT":"二段","MAREA":" ","LANE":"３５巷","ALLEY":" ","HOUSE_NO":"２８號二樓之３","E_COORD97":167946.57000000001,"N_COORD97":2543485.5600000001,"ADDRESS":"永福路二段３５巷２８號二樓之３","OBJECTID":374157},"geometry":{"x":167946.5700000003,"y":2543485.5600000042}},{"attributes":{"ID":374168,"DIS_CODE":0,"TOWNNAME":"中西區","LI":"福安里","LIN":"10鄰","STREET":"永福路","SECT":"二段","MAREA":" ","LANE":"３５巷","ALLEY":" ","HOUSE_NO":"２８號二樓之４","E_COORD97":167956.07000000001,"N_COORD97":2543483.8399999999,"ADDRESS":"永福路二段３５巷２８號二樓之４","OBJECTID":374158},"geometry":{"x":167956.07000000123,"y":2543483.8400000017}},{"attributes":{"ID":374169,"DIS_CODE":0,"TOWNNAME":"中西區","LI":"福安里","LIN":"10鄰","STREET":"永福路","SECT":"二段","MAREA":" ","LANE":"３５巷","ALLEY":" ","HOUSE_NO":"２８號三樓之１","E_COORD97":167947.35999999999,"N_COORD97":2543498.0499999998,"ADDRESS":"永福路二段３５巷２８號三樓之１","OBJECTID":374159},"geometry":{"x":167947.36000000127,"y":2543498.0500000007}},{"attributes":{"ID":374170,"DIS_CODE":0,"TOWNNAME":"中西區","LI":"福安里","LIN":"10鄰","STREET":"永福路","SECT":"二段","MAREA":" ","LANE":"３５巷","ALLEY":" ","HOUSE_NO":"２８號三樓之２","E_COORD97":167954.14999999999,"N_COORD97":2543496.98,"ADDRESS":"永福路二段３５巷２８號三樓之２","OBJECTID":374160},"geometry":{"x":167954.1500000013,"y":2543496.9800000023}},{"attributes":{"ID":374171,"DIS_CODE":0,"TOWNNAME":"中西區","LI":"福安里","LIN":"10鄰","STREET":"永福路","SECT":"二段","MAREA":" ","LANE":"３５巷","ALLEY":" ","HOUSE_NO":"２８號三樓之３","E_COORD97":167946.57000000001,"N_COORD97":2543485.5600000001,"ADDRESS":"永福路二段３５巷２８號三樓之３","OBJECTID":374161},"geometry":{"x":167946.5700000003,"y":2543485.5600000042}},{"attributes":{"ID":374172,"DIS_CODE":0,"TOWNNAME":"中西區","LI":"福安里","LIN":"10鄰","STREET":"永福路","SECT":"二段","MAREA":" ","LANE":"３５巷","ALLEY":" ","HOUSE_NO":"２８號三樓之４","E_COORD97":167956.07000000001,"N_COORD97":2543483.8399999999,"ADDRESS":"永福路二段３５巷２８號三樓之４","OBJECTID":374162},"geometry":{"x":167956.07000000123,"y":2543483.8400000017}},{"attributes":{"ID":374173,"DIS_CODE":0,"TOWNNAME":"中西區","LI":"福安里","LIN":"10鄰","STREET":"永福路","SECT":"二段","MAREA":" ","LANE":"３５巷","ALLEY":" ","HOUSE_NO":"２８號四樓之１","E_COORD97":167947.35999999999,"N_COORD97":2543498.0499999998,"ADDRESS":"永福路二段３５巷２８號四樓之１","OBJECTID":374163},"geometry":{"x":167947.36000000127,"y":2543498.0500000007}},{"attributes":{"ID":374174,"DIS_CODE":0,"TOWNNAME":"中西區","LI":"福安里","LIN":"10鄰","STREET":"永福路","SECT":"二段","MAREA":" ","LANE":"３５巷","ALLEY":" ","HOUSE_NO":"２８號四樓之２","E_COORD97":167954.14999999999,"N_COORD97":2543496.98,"ADDRESS":"永福路二段３５巷２８號四樓之２","OBJECTID":374164},"geometry":{"x":167954.1500000013,"y":2543496.9800000023}},{"attributes":{"ID":374175,"DIS_CODE":0,"TOWNNAME":"中西區","LI":"福安里","LIN":"10鄰","STREET":"永福路","SECT":"二段","MAREA":" ","LANE":"３５巷","ALLEY":" ","HOUSE_NO":"２８號四樓之３","E_COORD97":167946.57000000001,"N_COORD97":2543485.5600000001,"ADDRESS":"永福路二段３５巷２８號四樓之３","OBJECTID":374165},"geometry":{"x":167946.5700000003,"y":2543485.5600000042}},{"attributes":{"ID":374176,"DIS_CODE":0,"TOWNNAME":"中西區","LI":"福安里","LIN":"10鄰","STREET":"永福路","SECT":"二段","MAREA":" ","LANE":"３５巷","ALLEY":" ","HOUSE_NO":"２８號四樓之４","E_COORD97":167956.07000000001,"N_COORD97":2543483.8399999999,"ADDRESS":"永福路二段３５巷２８號四樓之４","OBJECTID":374166},"geometry":{"x":167956.07000000123,"y":2543483.8400000017}},{"attributes":{"ID":374177,"DIS_CODE":0,"TOWNNAME":"中西區","LI":"福安里","LIN":"10鄰","STREET":"永福路","SECT":"二段","MAREA":" ","LANE":"３５巷","ALLEY":" ","HOUSE_NO":"３０號一樓之１","E_COORD97":167960.79000000001,"N_COORD97":2543495.1200000001,"ADDRESS":"永福路二段３５巷３０號一樓之１","OBJECTID":374167},"geometry":{"x":167960.79000000097,"y":2543495.120000001}},{"attributes":{"ID":374178,"DIS_CODE":0,"TOWNNAME":"中西區","LI":"福安里","LIN":"10鄰","STREET":"永福路","SECT":"二段","MAREA":" ","LANE":"３５巷","ALLEY":" ","HOUSE_NO":"３０號一樓之２","E_COORD97":167967.10999999999,"N_COORD97":2543494.0600000001,"ADDRESS":"永福路二段３５巷３０號一樓之２","OBJECTID":374168},"geometry":{"x":167967.1100000022,"y":2543494.0600000005}},{"attributes":{"ID":374179,"DIS_CODE":0,"TOWNNAME":"中西區","LI":"福安里","LIN":"10鄰","STREET":"永福路","SECT":"二段","MAREA":" ","LANE":"３５巷","ALLEY":" ","HOUSE_NO":"３０號二樓之１","E_COORD97":167960.79000000001,"N_COORD97":2543495.1200000001,"ADDRESS":"永福路二段３５巷３０號二樓之１","OBJECTID":374169},"geometry":{"x":167960.79000000097,"y":2543495.120000001}},{"attributes":{"ID":374180,"DIS_CODE":0,"TOWNNAME":"中西區","LI":"福安里","LIN":"10鄰","STREET":"永福路","SECT":"二段","MAREA":" ","LANE":"３５巷","ALLEY":" ","HOUSE_NO":"３０號二樓之２","E_COORD97":167967.10999999999,"N_COORD97":2543494.0600000001,"ADDRESS":"永福路二段３５巷３０號二樓之２","OBJECTID":374170},"geometry":{"x":167967.1100000022,"y":2543494.0600000005}},{"attributes":{"ID":374181,"DIS_CODE":0,"TOWNNAME":"中西區","LI":"福安里","LIN":"10鄰","STREET":"永福路","SECT":"二段","MAREA":" ","LANE":"３５巷","ALLEY":" ","HOUSE_NO":"３０號三樓之１","E_COORD97":167960.79000000001,"N_COORD97":2543495.1200000001,"ADDRESS":"永福路二段３５巷３０號三樓之１","OBJECTID":374171},"geometry":{"x":167960.79000000097,"y":2543495.120000001}},{"attributes":{"ID":374182,"DIS_CODE":0,"TOWNNAME":"中西區","LI":"福安里","LIN":"10鄰","STREET":"永福路","SECT":"二段","MAREA":" ","LANE":"３５巷","ALLEY":" ","HOUSE_NO":"３０號三樓之２","E_COORD97":167967.10999999999,"N_COORD97":2543494.0600000001,"ADDRESS":"永福路二段３５巷３０號三樓之２","OBJECTID":374172},"geometry":{"x":167967.1100000022,"y":2543494.0600000005}},{"attributes":{"ID":374183,"DIS_CODE":0,"TOWNNAME":"中西區","LI":"福安里","LIN":"10鄰","STREET":"永福路","SECT":"二段","MAREA":" ","LANE":"３５巷","ALLEY":" ","HOUSE_NO":"３０號四樓之１","E_COORD97":167960.79000000001,"N_COORD97":2543495.1200000001,"ADDRESS":"永福路二段３５巷３０號四樓之１","OBJECTID":374173},"geometry":{"x":167960.79000000097,"y":2543495.120000001}},{"attributes":{"ID":374184,"DIS_CODE":0,"TOWNNAME":"安南區","LI":"安慶里","LIN":"13鄰","STREET":"怡安路","SECT":"一段","MAREA":" ","LANE":" ","ALLEY":" ","HOUSE_NO":"２９號","E_COORD97":169469.16,"N_COORD97":2548949.0099999998,"ADDRESS":"怡安路一段２９號","OBJECTID":374174},"geometry":{"x":169469.16000000108,"y":2548949.0099999998}},{"attributes":{"ID":374185,"DIS_CODE":0,"TOWNNAME":"中西區","LI":"福安里","LIN":"10鄰","STREET":"永福路","SECT":"二段","MAREA":" ","LANE":"３５巷","ALLEY":" ","HOUSE_NO":"３０號四樓之２","E_COORD97":167967.10999999999,"N_COORD97":2543494.0600000001,"ADDRESS":"永福路二段３５巷３０號四樓之２","OBJECTID":374175},"geometry":{"x":167967.1100000022,"y":2543494.0600000005}},{"attributes":{"ID":374186,"DIS_CODE":0,"TOWNNAME":"中西區","LI":"福安里","LIN":"10鄰","STREET":"永福路","SECT":"二段","MAREA":" ","LANE":"３５巷","ALLEY":" ","HOUSE_NO":"３２號一樓之１","E_COORD97":167974.82000000001,"N_COORD97":2543493.27,"ADDRESS":"永福路二段３５巷３２號一樓之１","OBJECTID":374176},"geometry":{"x":167974.82000000123,"y":2543493.2700000033}},{"attributes":{"ID":374187,"DIS_CODE":0,"TOWNNAME":"中西區","LI":"福安里","LIN":"10鄰","STREET":"永福路","SECT":"二段","MAREA":" ","LANE":"３５巷","ALLEY":" ","HOUSE_NO":"３２號一樓之２","E_COORD97":167983.19,"N_COORD97":2543492.3399999999,"ADDRESS":"永福路二段３５巷３２號一樓之２","OBJECTID":374177},"geometry":{"x":167983.19000000041,"y":2543492.3399999999}},{"attributes":{"ID":374188,"DIS_CODE":0,"TOWNNAME":"中西區","LI":"福安里","LIN":"10鄰","STREET":"永福路","SECT":"二段","MAREA":" ","LANE":"３５巷","ALLEY":" ","HOUSE_NO":"３２號一樓之３","E_COORD97":167975.22,"N_COORD97":2543481.0499999998,"ADDRESS":"永福路二段３５巷３２號一樓之３","OBJECTID":374178},"geometry":{"x":167975.21999999974,"y":2543481.0500000007}},{"attributes":{"ID":374189,"DIS_CODE":0,"TOWNNAME":"中西區","LI":"福安里","LIN":"10鄰","STREET":"永福路","SECT":"二段","MAREA":" ","LANE":"３５巷","ALLEY":" ","HOUSE_NO":"３２號二樓之１","E_COORD97":167974.82000000001,"N_COORD97":2543493.27,"ADDRESS":"永福路二段３５巷３２號二樓之１","OBJECTID":374179},"geometry":{"x":167974.82000000123,"y":2543493.2700000033}},{"attributes":{"ID":374190,"DIS_CODE":0,"TOWNNAME":"中西區","LI":"福安里","LIN":"10鄰","STREET":"永福路","SECT":"二段","MAREA":" ","LANE":"３５巷","ALLEY":" ","HOUSE_NO":"３２號二樓之２","E_COORD97":167983.19,"N_COORD97":2543492.3399999999,"ADDRESS":"永福路二段３５巷３２號二樓之２","OBJECTID":374180},"geometry":{"x":167983.19000000041,"y":2543492.3399999999}},{"attributes":{"ID":374191,"DIS_CODE":0,"TOWNNAME":"中西區","LI":"福安里","LIN":"10鄰","STREET":"永福路","SECT":"二段","MAREA":" ","LANE":"３５巷","ALLEY":" ","HOUSE_NO":"３２號二樓之３","E_COORD97":167975.22,"N_COORD97":2543481.0499999998,"ADDRESS":"永福路二段３５巷３２號二樓之３","OBJECTID":374181},"geometry":{"x":167975.21999999974,"y":2543481.0500000007}},{"attributes":{"ID":374192,"DIS_CODE":0,"TOWNNAME":"中西區","LI":"福安里","LIN":"10鄰","STREET":"永福路","SECT":"二段","MAREA":" ","LANE":"３５巷","ALLEY":" ","HOUSE_NO":"３２號三樓之１","E_COORD97":167974.82000000001,"N_COORD97":2543493.27,"ADDRESS":"永福路二段３５巷３２號三樓之１","OBJECTID":374182},"geometry":{"x":167974.82000000123,"y":2543493.2700000033}},{"attributes":{"ID":374193,"DIS_CODE":0,"TOWNNAME":"中西區","LI":"福安里","LIN":"10鄰","STREET":"永福路","SECT":"二段","MAREA":" ","LANE":"３５巷","ALLEY":" ","HOUSE_NO":"３２號三樓之２","E_COORD97":167983.19,"N_COORD97":2543492.3399999999,"ADDRESS":"永福路二段３５巷３２號三樓之２","OBJECTID":374183},"geometry":{"x":167983.19000000041,"y":2543492.3399999999}},{"attributes":{"ID":374194,"DIS_CODE":0,"TOWNNAME":"中西區","LI":"福安里","LIN":"10鄰","STREET":"永福路","SECT":"二段","MAREA":" ","LANE":"３５巷","ALLEY":" ","HOUSE_NO":"３２號三樓之３","E_COORD97":167975.22,"N_COORD97":2543481.0499999998,"ADDRESS":"永福路二段３５巷３２號三樓之３","OBJECTID":374184},"geometry":{"x":167975.21999999974,"y":2543481.0500000007}},{"attributes":{"ID":374195,"DIS_CODE":0,"TOWNNAME":"中西區","LI":"福安里","LIN":"10鄰","STREET":"永福路","SECT":"二段","MAREA":" ","LANE":"３５巷","ALLEY":" ","HOUSE_NO":"３２號四樓之１","E_COORD97":167974.82000000001,"N_COORD97":2543493.27,"ADDRESS":"永福路二段３５巷３２號四樓之１","OBJECTID":374185},"geometry":{"x":167974.82000000123,"y":2543493.2700000033}},{"attributes":{"ID":374196,"DIS_CODE":0,"TOWNNAME":"中西區","LI":"福安里","LIN":"10鄰","STREET":"永福路","SECT":"二段","MAREA":" ","LANE":"３５巷","ALLEY":" ","HOUSE_NO":"３２號四樓之２","E_COORD97":167983.19,"N_COORD97":2543492.3399999999,"ADDRESS":"永福路二段３５巷３２號四樓之２","OBJECTID":374186},"geometry":{"x":167983.19000000041,"y":2543492.3399999999}},{"attributes":{"ID":374197,"DIS_CODE":0,"TOWNNAME":"東區","LI":"關聖里","LIN":"10鄰","STREET":"裕農路","SECT":" ","MAREA":" ","LANE":"７２６巷","ALLEY":" ","HOUSE_NO":"１９號四樓","E_COORD97":171890.04000000001,"N_COORD97":2543077.1699999999,"ADDRESS":"裕農路７２６巷１９號四樓","OBJECTID":374187},"geometry":{"x":171890.0400000019,"y":2543077.1700000037}},{"attributes":{"ID":374198,"DIS_CODE":0,"TOWNNAME":"東區","LI":"關聖里","LIN":"10鄰","STREET":"裕農路","SECT":" ","MAREA":" ","LANE":"７２６巷","ALLEY":" ","HOUSE_NO":"２１號二樓","E_COORD97":171889.42999999999,"N_COORD97":2543067.5,"ADDRESS":"裕農路７２６巷２１號二樓","OBJECTID":374188},"geometry":{"x":171889.43000000063,"y":2543067.5}},{"attributes":{"ID":374199,"DIS_CODE":0,"TOWNNAME":"東區","LI":"關聖里","LIN":"10鄰","STREET":"裕農路","SECT":" ","MAREA":" ","LANE":"７２６巷","ALLEY":" ","HOUSE_NO":"２１號三樓","E_COORD97":171889.42999999999,"N_COORD97":2543067.5,"ADDRESS":"裕農路７２６巷２１號三樓","OBJECTID":374189},"geometry":{"x":171889.43000000063,"y":2543067.5}},{"attributes":{"ID":374200,"DIS_CODE":0,"TOWNNAME":"東區","LI":"關聖里","LIN":"10鄰","STREET":"裕農路","SECT":" ","MAREA":" ","LANE":"７２６巷","ALLEY":" ","HOUSE_NO":"２１號四樓","E_COORD97":171889.42999999999,"N_COORD97":2543067.5,"ADDRESS":"裕農路７２６巷２１號四樓","OBJECTID":374190},"geometry":{"x":171889.43000000063,"y":2543067.5}},{"attributes":{"ID":374201,"DIS_CODE":0,"TOWNNAME":"東區","LI":"關聖里","LIN":"10鄰","STREET":"裕農路","SECT":" ","MAREA":" ","LANE":"７２６巷","ALLEY":" ","HOUSE_NO":"２１號五樓","E_COORD97":171889.42999999999,"N_COORD97":2543067.5,"ADDRESS":"裕農路７２６巷２１號五樓","OBJECTID":374191},"geometry":{"x":171889.43000000063,"y":2543067.5}},{"attributes":{"ID":374202,"DIS_CODE":0,"TOWNNAME":"東區","LI":"關聖里","LIN":"10鄰","STREET":"裕農路","SECT":" ","MAREA":" ","LANE":"７２６巷","ALLEY":" ","HOUSE_NO":"２３號二樓","E_COORD97":171890.04000000001,"N_COORD97":2543058.0299999998,"ADDRESS":"裕農路７２６巷２３號二樓","OBJECTID":374192},"geometry":{"x":171890.0400000019,"y":2543058.0300000012}},{"attributes":{"ID":374203,"DIS_CODE":0,"TOWNNAME":"關廟區","LI":"松腳里","LIN":"10鄰","STREET":"勝利街","SECT":" ","MAREA":" ","LANE":"３３巷","ALLEY":" ","HOUSE_NO":"１號","E_COORD97":181793.92000000001,"N_COORD97":2539730.2599999998,"ADDRESS":"勝利街３３巷１號","OBJECTID":374193},"geometry":{"x":181793.92000000179,"y":2539730.2600000035}},{"attributes":{"ID":374204,"DIS_CODE":0,"TOWNNAME":"東區","LI":"關聖里","LIN":"10鄰","STREET":"裕農路","SECT":" ","MAREA":" ","LANE":"７２６巷","ALLEY":" ","HOUSE_NO":"２３號三樓","E_COORD97":171890.04000000001,"N_COORD97":2543058.0299999998,"ADDRESS":"裕農路７２６巷２３號三樓","OBJECTID":374194},"geometry":{"x":171890.0400000019,"y":2543058.0300000012}},{"attributes":{"ID":374205,"DIS_CODE":0,"TOWNNAME":"東區","LI":"關聖里","LIN":"10鄰","STREET":"裕農路","SECT":" ","MAREA":" ","LANE":"７２６巷","ALLEY":" ","HOUSE_NO":"２３號四樓","E_COORD97":171890.04000000001,"N_COORD97":2543058.0299999998,"ADDRESS":"裕農路７２６巷２３號四樓","OBJECTID":374195},"geometry":{"x":171890.0400000019,"y":2543058.0300000012}},{"attributes":{"ID":374206,"DIS_CODE":0,"TOWNNAME":"東區","LI":"關聖里","LIN":"10鄰","STREET":"裕農路","SECT":" ","MAREA":" ","LANE":"７２６巷","ALLEY":" ","HOUSE_NO":"２３號五樓","E_COORD97":171890.04000000001,"N_COORD97":2543058.0299999998,"ADDRESS":"裕農路７２６巷２３號五樓","OBJECTID":374196},"geometry":{"x":171890.0400000019,"y":2543058.0300000012}},{"attributes":{"ID":374207,"DIS_CODE":0,"TOWNNAME":"東區","LI":"東光里","LIN":"10鄰","STREET":"東興路","SECT":" ","MAREA":" ","LANE":"１９９巷","ALLEY":" ","HOUSE_NO":"１０號二樓","E_COORD97":170962.84,"N_COORD97":2543875.46,"ADDRESS":"東興路１９９巷１０號二樓","OBJECTID":374197},"geometry":{"x":170962.84000000078,"y":2543875.4600000009}},{"attributes":{"ID":374208,"DIS_CODE":0,"TOWNNAME":"東區","LI":"東光里","LIN":"10鄰","STREET":"東興路","SECT":" ","MAREA":" ","LANE":"１９９巷","ALLEY":" ","HOUSE_NO":"１０號三樓","E_COORD97":170962.84,"N_COORD97":2543875.46,"ADDRESS":"東興路１９９巷１０號三樓","OBJECTID":374198},"geometry":{"x":170962.84000000078,"y":2543875.4600000009}},{"attributes":{"ID":374209,"DIS_CODE":0,"TOWNNAME":"東區","LI":"東光里","LIN":"10鄰","STREET":"東興路","SECT":" ","MAREA":" ","LANE":"１９９巷","ALLEY":" ","HOUSE_NO":"１０號四樓","E_COORD97":170962.84,"N_COORD97":2543875.46,"ADDRESS":"東興路１９９巷１０號四樓","OBJECTID":374199},"geometry":{"x":170962.84000000078,"y":2543875.4600000009}},{"attributes":{"ID":374210,"DIS_CODE":0,"TOWNNAME":"東區","LI":"東光里","LIN":"10鄰","STREET":"東興路","SECT":" ","MAREA":" ","LANE":"１９９巷","ALLEY":" ","HOUSE_NO":"１０號五樓","E_COORD97":170962.84,"N_COORD97":2543875.46,"ADDRESS":"東興路１９９巷１０號五樓","OBJECTID":374200},"geometry":{"x":170962.84000000078,"y":2543875.4600000009}}]}