{"displayFieldName":"TOWNNAME","fieldAliases":{"ID":"ID","DIS_CODE":"DIS_CODE","TOWNNAME":"TOWNNAME","LI":"LI","LIN":"LIN","STREET":"STREET","SECT":"SECT","MAREA":"MAREA","LANE":"LANE","ALLEY":"ALLEY","HOUSE_NO":"HOUSE_NO","E_COORD97":"E_COORD97","N_COORD97":"N_COORD97","ADDRESS":"ADDRESS","OBJECTID":"OBJECTID"},"geometryType":"esriGeometryPoint","spatialReference":{"wkid":102443,"latestWkid":3826},"fields":[{"name":"ID","type":"esriFieldTypeDouble","alias":"ID"},{"name":"DIS_CODE","type":"esriFieldTypeInteger","alias":"DIS_CODE"},{"name":"TOWNNAME","type":"esriFieldTypeString","alias":"TOWNNAME","length":8},{"name":"LI","type":"esriFieldTypeString","alias":"LI","length":8},{"name":"LIN","type":"esriFieldTypeString","alias":"LIN","length":12},{"name":"STREET","type":"esriFieldTypeString","alias":"STREET","length":20},{"name":"SECT","type":"esriFieldTypeString","alias":"SECT","length":8},{"name":"MAREA","type":"esriFieldTypeString","alias":"MAREA","length":12},{"name":"LANE","type":"esriFieldTypeString","alias":"LANE","length":10},{"name":"ALLEY","type":"esriFieldTypeString","alias":"ALLEY","length":10},{"name":"HOUSE_NO","type":"esriFieldTypeString","alias":"HOUSE_NO","length":20},{"name":"E_COORD97","type":"esriFieldTypeDouble","alias":"E_COORD97"},{"name":"N_COORD97","type":"esriFieldTypeDouble","alias":"N_COORD97"},{"name":"ADDRESS","type":"esriFieldTypeString","alias":"ADDRESS","length":50},{"name":"OBJECTID","type":"esriFieldTypeOID","alias":"OBJECTID"}],"features":[{"attributes":{"ID":278807,"DIS_CODE":0,"TOWNNAME":"永康區","LI":"北灣里","LIN":"41鄰","STREET":"信義二街","SECT":" ","MAREA":" ","LANE":" ","ALLEY":" ","HOUSE_NO":"４３號","E_COORD97":175111.78,"N_COORD97":2545744.9199999999,"ADDRESS":"信義二街４３號","OBJECTID":278801},"geometry":{"x":175111.78000000119,"y":2545744.9200000018}},{"attributes":{"ID":278808,"DIS_CODE":0,"TOWNNAME":"新市區","LI":"新和里","LIN":"31鄰","STREET":"光華街","SECT":" ","MAREA":" ","LANE":"２３４巷","ALLEY":" ","HOUSE_NO":"５號","E_COORD97":177854.23000000001,"N_COORD97":2553065,"ADDRESS":"光華街２３４巷５號","OBJECTID":278802},"geometry":{"x":177854.23000000045,"y":2553065}},{"attributes":{"ID":278809,"DIS_CODE":0,"TOWNNAME":"安南區","LI":"砂崙里","LIN":"10鄰","STREET":"青砂街","SECT":"一段","MAREA":" ","LANE":"６９５巷","ALLEY":" ","HOUSE_NO":"１８號","E_COORD97":159846.5,"N_COORD97":2552852.8799999999,"ADDRESS":"青砂街一段６９５巷１８號","OBJECTID":278803},"geometry":{"x":159846.50000000093,"y":2552852.8800000008}},{"attributes":{"ID":278810,"DIS_CODE":0,"TOWNNAME":"安南區","LI":"海南里","LIN":"10鄰","STREET":"府安路","SECT":"七段","MAREA":" ","LANE":"１巷","ALLEY":" ","HOUSE_NO":"２號","E_COORD97":166168.60999999999,"N_COORD97":2546086.3999999999,"ADDRESS":"府安路七段１巷２號","OBJECTID":278804},"geometry":{"x":166168.6100000022,"y":2546086.3999999985}},{"attributes":{"ID":278811,"DIS_CODE":0,"TOWNNAME":"仁德區","LI":"土庫里","LIN":"10鄰","STREET":"土庫路","SECT":" ","MAREA":" ","LANE":"８９巷","ALLEY":" ","HOUSE_NO":"２１號","E_COORD97":174324.04000000001,"N_COORD97":2543265.2400000002,"ADDRESS":"土庫路８９巷２１號","OBJECTID":278805},"geometry":{"x":174324.04000000004,"y":2543265.2400000002}},{"attributes":{"ID":278812,"DIS_CODE":0,"TOWNNAME":"仁德區","LI":"保安里","LIN":"10鄰","STREET":"文賢二街","SECT":" ","MAREA":" ","LANE":"８巷","ALLEY":" ","HOUSE_NO":"５號","E_COORD97":171672.73000000001,"N_COORD97":2536036.3199999998,"ADDRESS":"文賢二街８巷５號","OBJECTID":278806},"geometry":{"x":171672.73000000138,"y":2536036.3200000022}},{"attributes":{"ID":278813,"DIS_CODE":0,"TOWNNAME":"仁德區","LI":"上崙里","LIN":"10鄰","STREET":"德善路","SECT":" ","MAREA":" ","LANE":"３８５巷","ALLEY":" ","HOUSE_NO":"６號","E_COORD97":174032.35999999999,"N_COORD97":2538351.3300000001,"ADDRESS":"德善路３８５巷６號","OBJECTID":278807},"geometry":{"x":174032.3599999994,"y":2538351.3300000019}},{"attributes":{"ID":278814,"DIS_CODE":0,"TOWNNAME":"仁德區","LI":"後壁里","LIN":"10鄰","STREET":"民安路","SECT":"二段","MAREA":" ","LANE":"１８２巷","ALLEY":" ","HOUSE_NO":"４８號","E_COORD97":173707.87,"N_COORD97":2538823.8100000001,"ADDRESS":"民安路二段１８２巷４８號","OBJECTID":278808},"geometry":{"x":173707.87000000011,"y":2538823.8100000005}},{"attributes":{"ID":278815,"DIS_CODE":0,"TOWNNAME":"仁德區","LI":"後壁里","LIN":"10鄰","STREET":"民安路","SECT":"二段","MAREA":" ","LANE":"１８２巷","ALLEY":" ","HOUSE_NO":"５３號","E_COORD97":173723.95999999999,"N_COORD97":2538819.5600000001,"ADDRESS":"民安路二段１８２巷５３號","OBJECTID":278809},"geometry":{"x":173723.95999999996,"y":2538819.5600000005}},{"attributes":{"ID":278816,"DIS_CODE":0,"TOWNNAME":"仁德區","LI":"成功里","LIN":"31鄰","STREET":"成功一街","SECT":" ","MAREA":" ","LANE":"１１巷","ALLEY":" ","HOUSE_NO":"６號","E_COORD97":170567.57000000001,"N_COORD97":2540187.2599999998,"ADDRESS":"成功一街１１巷６號","OBJECTID":278810},"geometry":{"x":170567.5700000003,"y":2540187.2599999998}},{"attributes":{"ID":278817,"DIS_CODE":0,"TOWNNAME":"仁德區","LI":"後壁里","LIN":"31鄰","STREET":"德洋路","SECT":" ","MAREA":" ","LANE":"１８０巷","ALLEY":" ","HOUSE_NO":"５號","E_COORD97":172524.23999999999,"N_COORD97":2539433.2599999998,"ADDRESS":"德洋路１８０巷５號","OBJECTID":278811},"geometry":{"x":172524.24000000022,"y":2539433.2600000016}},{"attributes":{"ID":278818,"DIS_CODE":0,"TOWNNAME":"仁德區","LI":"成功里","LIN":"31鄰","STREET":"成功一街","SECT":" ","MAREA":" ","LANE":"１１巷","ALLEY":" ","HOUSE_NO":"１號","E_COORD97":170560.67999999999,"N_COORD97":2540195.77,"ADDRESS":"成功一街１１巷１號","OBJECTID":278812},"geometry":{"x":170560.6799999997,"y":2540195.7700000014}},{"attributes":{"ID":278819,"DIS_CODE":0,"TOWNNAME":"東區","LI":"圍下里","LIN":"4鄰","STREET":"東榮街","SECT":" ","MAREA":" ","LANE":" ","ALLEY":" ","HOUSE_NO":"３號","E_COORD97":169567.98000000001,"N_COORD97":2543497.9700000002,"ADDRESS":"東榮街３號","OBJECTID":278813},"geometry":{"x":169567.98000000045,"y":2543497.9700000007}},{"attributes":{"ID":278820,"DIS_CODE":0,"TOWNNAME":"仁德區","LI":"後壁里","LIN":"31鄰","STREET":"德洋路","SECT":" ","MAREA":" ","LANE":"１８０巷","ALLEY":" ","HOUSE_NO":"２號","E_COORD97":172545.76000000001,"N_COORD97":2539410.77,"ADDRESS":"德洋路１８０巷２號","OBJECTID":278814},"geometry":{"x":172545.75999999978,"y":2539410.7699999977}},{"attributes":{"ID":278821,"DIS_CODE":0,"TOWNNAME":"新市區","LI":"新和里","LIN":"31鄰","STREET":"光華街","SECT":" ","MAREA":" ","LANE":"２３４巷","ALLEY":" ","HOUSE_NO":"１１號","E_COORD97":177873.37,"N_COORD97":2553064.75,"ADDRESS":"光華街２３４巷１１號","OBJECTID":278815},"geometry":{"x":177873.36999999918,"y":2553064.7500000037}},{"attributes":{"ID":278822,"DIS_CODE":0,"TOWNNAME":"永康區","LI":"埔園里","LIN":"31鄰","STREET":"八德街","SECT":" ","MAREA":" ","LANE":"３２６巷","ALLEY":" ","HOUSE_NO":"１８號","E_COORD97":173635.32999999999,"N_COORD97":2548627.96,"ADDRESS":"八德街３２６巷１８號","OBJECTID":278816},"geometry":{"x":173635.33000000007,"y":2548627.9600000009}},{"attributes":{"ID":278823,"DIS_CODE":0,"TOWNNAME":"永康區","LI":"埔園里","LIN":"31鄰","STREET":"八德街","SECT":" ","MAREA":" ","LANE":"１４０巷","ALLEY":" ","HOUSE_NO":"７８號","E_COORD97":173999.10999999999,"N_COORD97":2548652.75,"ADDRESS":"八德街１４０巷７８號","OBJECTID":278817},"geometry":{"x":173999.11000000127,"y":2548652.75}},{"attributes":{"ID":278824,"DIS_CODE":0,"TOWNNAME":"永康區","LI":"埔園里","LIN":"31鄰","STREET":"八德街","SECT":" ","MAREA":" ","LANE":"１４０巷","ALLEY":" ","HOUSE_NO":"８０號","E_COORD97":174000.88,"N_COORD97":2548659.1899999999,"ADDRESS":"八德街１４０巷８０號","OBJECTID":278818},"geometry":{"x":174000.87999999989,"y":2548659.1899999995}},{"attributes":{"ID":278825,"DIS_CODE":0,"TOWNNAME":"永康區","LI":"埔園里","LIN":"31鄰","STREET":"八德街","SECT":" ","MAREA":" ","LANE":"１４０巷","ALLEY":" ","HOUSE_NO":"８２號","E_COORD97":174000.47,"N_COORD97":2548664.1800000002,"ADDRESS":"八德街１４０巷８２號","OBJECTID":278819},"geometry":{"x":174000.46999999974,"y":2548664.1800000034}},{"attributes":{"ID":278826,"DIS_CODE":0,"TOWNNAME":"永康區","LI":"埔園里","LIN":"31鄰","STREET":"八德街","SECT":" ","MAREA":" ","LANE":"１４０巷","ALLEY":" ","HOUSE_NO":"８６號","E_COORD97":174003.67000000001,"N_COORD97":2548669.71,"ADDRESS":"八德街１４０巷８６號","OBJECTID":278820},"geometry":{"x":174003.67000000086,"y":2548669.7100000028}},{"attributes":{"ID":278827,"DIS_CODE":0,"TOWNNAME":"永康區","LI":"埔園里","LIN":"31鄰","STREET":"八德街","SECT":" ","MAREA":" ","LANE":"１４０巷","ALLEY":" ","HOUSE_NO":"８８號","E_COORD97":174005.09,"N_COORD97":2548675.23,"ADDRESS":"八德街１４０巷８８號","OBJECTID":278821},"geometry":{"x":174005.09000000171,"y":2548675.2300000023}},{"attributes":{"ID":278828,"DIS_CODE":0,"TOWNNAME":"永康區","LI":"埔園里","LIN":"31鄰","STREET":"八德街","SECT":" ","MAREA":" ","LANE":"１４０巷","ALLEY":" ","HOUSE_NO":"９０號","E_COORD97":174005.22,"N_COORD97":2548681.52,"ADDRESS":"八德街１４０巷９０號","OBJECTID":278822},"geometry":{"x":174005.21999999974,"y":2548681.5199999996}},{"attributes":{"ID":278829,"DIS_CODE":0,"TOWNNAME":"永康區","LI":"埔園里","LIN":"31鄰","STREET":"八德街","SECT":" ","MAREA":" ","LANE":"１４０巷","ALLEY":" ","HOUSE_NO":"９２號","E_COORD97":174005.89999999999,"N_COORD97":2548686.7200000002,"ADDRESS":"八德街１４０巷９２號","OBJECTID":278823},"geometry":{"x":174005.9000000013,"y":2548686.7200000025}},{"attributes":{"ID":278830,"DIS_CODE":0,"TOWNNAME":"永康區","LI":"埔園里","LIN":"31鄰","STREET":"永大路","SECT":"三段","MAREA":" ","LANE":"４６９巷","ALLEY":" ","HOUSE_NO":"９３號","E_COORD97":173727.23999999999,"N_COORD97":2548772.3799999999,"ADDRESS":"永大路三段４６９巷９３號","OBJECTID":278824},"geometry":{"x":173727.24000000022,"y":2548772.379999999}},{"attributes":{"ID":278831,"DIS_CODE":0,"TOWNNAME":"永康區","LI":"埔園里","LIN":"31鄰","STREET":"八德街","SECT":" ","MAREA":" ","LANE":"１７０巷","ALLEY":" ","HOUSE_NO":"１號","E_COORD97":173908.20000000001,"N_COORD97":2548576.9199999999,"ADDRESS":"八德街１７０巷１號","OBJECTID":278825},"geometry":{"x":173908.20000000112,"y":2548576.9199999999}},{"attributes":{"ID":278832,"DIS_CODE":0,"TOWNNAME":"永康區","LI":"埔園里","LIN":"31鄰","STREET":"八德街","SECT":" ","MAREA":" ","LANE":"１７０巷","ALLEY":" ","HOUSE_NO":"３號","E_COORD97":173907.57000000001,"N_COORD97":2548583.1600000001,"ADDRESS":"八德街１７０巷３號","OBJECTID":278826},"geometry":{"x":173907.57000000123,"y":2548583.1599999983}},{"attributes":{"ID":278833,"DIS_CODE":0,"TOWNNAME":"永康區","LI":"埔園里","LIN":"31鄰","STREET":"八德街","SECT":" ","MAREA":" ","LANE":"１７０巷","ALLEY":" ","HOUSE_NO":"７號","E_COORD97":173913.17000000001,"N_COORD97":2548628.9900000002,"ADDRESS":"八德街１７０巷７號","OBJECTID":278827},"geometry":{"x":173913.17000000086,"y":2548628.9900000021}},{"attributes":{"ID":278834,"DIS_CODE":0,"TOWNNAME":"永康區","LI":"埔園里","LIN":"31鄰","STREET":"八德街","SECT":" ","MAREA":" ","LANE":"１７０巷","ALLEY":" ","HOUSE_NO":"９號","E_COORD97":173914,"N_COORD97":2548635.2799999998,"ADDRESS":"八德街１７０巷９號","OBJECTID":278828},"geometry":{"x":173914,"y":2548635.2799999993}},{"attributes":{"ID":278835,"DIS_CODE":0,"TOWNNAME":"永康區","LI":"成功里","LIN":"31鄰","STREET":"中華一路","SECT":" ","MAREA":" ","LANE":"３９巷","ALLEY":" ","HOUSE_NO":"９０號","E_COORD97":171880.78,"N_COORD97":2544802.7400000002,"ADDRESS":"中華一路３９巷９０號","OBJECTID":278829},"geometry":{"x":171880.78000000119,"y":2544802.7400000039}},{"attributes":{"ID":278836,"DIS_CODE":0,"TOWNNAME":"永康區","LI":"埔園里","LIN":"31鄰","STREET":"八德街","SECT":" ","MAREA":" ","LANE":"１９６巷","ALLEY":" ","HOUSE_NO":"１８號","E_COORD97":173904.44,"N_COORD97":2548638.0099999998,"ADDRESS":"八德街１９６巷１８號","OBJECTID":278830},"geometry":{"x":173904.44000000041,"y":2548638.0099999979}},{"attributes":{"ID":278837,"DIS_CODE":0,"TOWNNAME":"永康區","LI":"埔園里","LIN":"31鄰","STREET":"八德街","SECT":" ","MAREA":" ","LANE":"１９６巷","ALLEY":" ","HOUSE_NO":"７號","E_COORD97":173880.59,"N_COORD97":2548603.8300000001,"ADDRESS":"八德街１９６巷７號","OBJECTID":278831},"geometry":{"x":173880.58999999985,"y":2548603.8300000019}},{"attributes":{"ID":278838,"DIS_CODE":0,"TOWNNAME":"永康區","LI":"埔園里","LIN":"31鄰","STREET":"八德街","SECT":" ","MAREA":" ","LANE":"３２６巷","ALLEY":" ","HOUSE_NO":"７０號","E_COORD97":173659.67000000001,"N_COORD97":2548762.9700000002,"ADDRESS":"八德街３２６巷７０號","OBJECTID":278832},"geometry":{"x":173659.66999999993,"y":2548762.9700000025}},{"attributes":{"ID":278839,"DIS_CODE":0,"TOWNNAME":"永康區","LI":"成功里","LIN":"31鄰","STREET":"中華一路","SECT":" ","MAREA":" ","LANE":"３９巷","ALLEY":" ","HOUSE_NO":"５０號","E_COORD97":171859.73000000001,"N_COORD97":2544862.2999999998,"ADDRESS":"中華一路３９巷５０號","OBJECTID":278833},"geometry":{"x":171859.73000000045,"y":2544862.3000000007}},{"attributes":{"ID":278840,"DIS_CODE":0,"TOWNNAME":"永康區","LI":"永康里","LIN":"31鄰","STREET":"永大路","SECT":"三段","MAREA":" ","LANE":"７８巷","ALLEY":" ","HOUSE_NO":"２３號","E_COORD97":174277.13,"N_COORD97":2547763.5800000001,"ADDRESS":"永大路三段７８巷２３號","OBJECTID":278834},"geometry":{"x":174277.12999999989,"y":2547763.5800000038}},{"attributes":{"ID":278841,"DIS_CODE":0,"TOWNNAME":"永康區","LI":"南灣里","LIN":"31鄰","STREET":"大灣一街","SECT":" ","MAREA":" ","LANE":"４５巷","ALLEY":" ","HOUSE_NO":"４０號","E_COORD97":174370.76000000001,"N_COORD97":2544833.9900000002,"ADDRESS":"大灣一街４５巷４０號","OBJECTID":278835},"geometry":{"x":174370.76000000071,"y":2544833.9900000002}},{"attributes":{"ID":278842,"DIS_CODE":0,"TOWNNAME":"永康區","LI":"埔園里","LIN":"31鄰","STREET":"八德街","SECT":" ","MAREA":" ","LANE":"１９６巷","ALLEY":" ","HOUSE_NO":"１２號","E_COORD97":173902.92999999999,"N_COORD97":2548622.02,"ADDRESS":"八德街１９６巷１２號","OBJECTID":278836},"geometry":{"x":173902.93000000063,"y":2548622.0200000014}},{"attributes":{"ID":278843,"DIS_CODE":0,"TOWNNAME":"東區","LI":"大同里","LIN":"31鄰","STREET":"大同路","SECT":"一段","MAREA":" ","LANE":"１７５巷","ALLEY":" ","HOUSE_NO":"１３６號","E_COORD97":169397.41,"N_COORD97":2542610.3500000001,"ADDRESS":"大同路一段１７５巷１３６號","OBJECTID":278837},"geometry":{"x":169397.41000000201,"y":2542610.3499999996}},{"attributes":{"ID":278844,"DIS_CODE":0,"TOWNNAME":"東區","LI":"大同里","LIN":"31鄰","STREET":"大同路","SECT":"一段","MAREA":" ","LANE":"１７５巷","ALLEY":" ","HOUSE_NO":"１３８號","E_COORD97":169392.19,"N_COORD97":2542606,"ADDRESS":"大同路一段１７５巷１３８號","OBJECTID":278838},"geometry":{"x":169392.18999999948,"y":2542606}},{"attributes":{"ID":278845,"DIS_CODE":0,"TOWNNAME":"東區","LI":"大同里","LIN":"31鄰","STREET":"大同路","SECT":"一段","MAREA":" ","LANE":"１７５巷","ALLEY":" ","HOUSE_NO":"１４０號","E_COORD97":169386.97,"N_COORD97":2542602.8100000001,"ADDRESS":"大同路一段１７５巷１４０號","OBJECTID":278839},"geometry":{"x":169386.97000000067,"y":2542602.8100000024}},{"attributes":{"ID":278846,"DIS_CODE":0,"TOWNNAME":"東區","LI":"大同里","LIN":"31鄰","STREET":"大同路","SECT":"一段","MAREA":" ","LANE":"１７５巷","ALLEY":" ","HOUSE_NO":"１４２號","E_COORD97":169392.62,"N_COORD97":2542594.2599999998,"ADDRESS":"大同路一段１７５巷１４２號","OBJECTID":278840},"geometry":{"x":169392.62000000104,"y":2542594.2599999998}},{"attributes":{"ID":278847,"DIS_CODE":0,"TOWNNAME":"東區","LI":"大同里","LIN":"31鄰","STREET":"大同路","SECT":"一段","MAREA":" ","LANE":"１７５巷","ALLEY":" ","HOUSE_NO":"１４４號","E_COORD97":169398.42000000001,"N_COORD97":2542596.4300000002,"ADDRESS":"大同路一段１７５巷１４４號","OBJECTID":278841},"geometry":{"x":169398.41999999993,"y":2542596.4299999997}},{"attributes":{"ID":278848,"DIS_CODE":0,"TOWNNAME":"東區","LI":"大同里","LIN":"31鄰","STREET":"大同路","SECT":"一段","MAREA":" ","LANE":"１７５巷","ALLEY":" ","HOUSE_NO":"１４６號","E_COORD97":169404.23000000001,"N_COORD97":2542599.77,"ADDRESS":"大同路一段１７５巷１４６號","OBJECTID":278842},"geometry":{"x":169404.23000000138,"y":2542599.7699999996}},{"attributes":{"ID":278849,"DIS_CODE":0,"TOWNNAME":"東區","LI":"大同里","LIN":"31鄰","STREET":"大同路","SECT":"一段","MAREA":" ","LANE":"１７５巷","ALLEY":" ","HOUSE_NO":"１４８號","E_COORD97":169409.89999999999,"N_COORD97":2542588.1200000001,"ADDRESS":"大同路一段１７５巷１４８號","OBJECTID":278843},"geometry":{"x":169409.9000000013,"y":2542588.1200000029}},{"attributes":{"ID":278850,"DIS_CODE":0,"TOWNNAME":"東區","LI":"大同里","LIN":"31鄰","STREET":"大同路","SECT":"一段","MAREA":" ","LANE":"１７５巷","ALLEY":" ","HOUSE_NO":"１５０號","E_COORD97":169398.73000000001,"N_COORD97":2542584.9300000002,"ADDRESS":"大同路一段１７５巷１５０號","OBJECTID":278844},"geometry":{"x":169398.72999999952,"y":2542584.9300000016}},{"attributes":{"ID":278851,"DIS_CODE":0,"TOWNNAME":"東區","LI":"大同里","LIN":"31鄰","STREET":"大同路","SECT":"一段","MAREA":" ","LANE":"１７５巷","ALLEY":" ","HOUSE_NO":"１５２號","E_COORD97":169395.10000000001,"N_COORD97":2542580.2999999998,"ADDRESS":"大同路一段１７５巷１５２號","OBJECTID":278845},"geometry":{"x":169395.09999999963,"y":2542580.3000000026}},{"attributes":{"ID":278852,"DIS_CODE":0,"TOWNNAME":"東區","LI":"大同里","LIN":"31鄰","STREET":"大同路","SECT":"一段","MAREA":" ","LANE":"１７５巷","ALLEY":" ","HOUSE_NO":"１５４號","E_COORD97":169391.92000000001,"N_COORD97":2542576.73,"ADDRESS":"大同路一段１７５巷１５４號","OBJECTID":278846},"geometry":{"x":169391.92000000179,"y":2542576.7300000023}},{"attributes":{"ID":278853,"DIS_CODE":0,"TOWNNAME":"東區","LI":"大同里","LIN":"31鄰","STREET":"大同路","SECT":"一段","MAREA":" ","LANE":"１７５巷","ALLEY":" ","HOUSE_NO":"１５６號","E_COORD97":169388.44,"N_COORD97":2542574.8300000001,"ADDRESS":"大同路一段１７５巷１５６號","OBJECTID":278847},"geometry":{"x":169388.44000000041,"y":2542574.8300000019}},{"attributes":{"ID":278854,"DIS_CODE":0,"TOWNNAME":"東區","LI":"大同里","LIN":"31鄰","STREET":"大同路","SECT":"一段","MAREA":" ","LANE":"１７５巷","ALLEY":" ","HOUSE_NO":"１６０號","E_COORD97":169380.92000000001,"N_COORD97":2542570.79,"ADDRESS":"大同路一段１７５巷１６０號","OBJECTID":278848},"geometry":{"x":169380.91999999993,"y":2542570.790000001}},{"attributes":{"ID":278855,"DIS_CODE":0,"TOWNNAME":"東區","LI":"大同里","LIN":"31鄰","STREET":"大同路","SECT":"一段","MAREA":" ","LANE":"１７５巷","ALLEY":" ","HOUSE_NO":"１６２號","E_COORD97":169376.88,"N_COORD97":2542567.3100000001,"ADDRESS":"大同路一段１７５巷１６２號","OBJECTID":278849},"geometry":{"x":169376.88000000175,"y":2542567.3100000005}},{"attributes":{"ID":278856,"DIS_CODE":0,"TOWNNAME":"東區","LI":"大同里","LIN":"31鄰","STREET":"大同路","SECT":"一段","MAREA":" ","LANE":"１７５巷","ALLEY":" ","HOUSE_NO":"１６４號","E_COORD97":169369.47,"N_COORD97":2542564.1699999999,"ADDRESS":"大同路一段１７５巷１６４號","OBJECTID":278850},"geometry":{"x":169369.4700000016,"y":2542564.1699999999}},{"attributes":{"ID":278857,"DIS_CODE":0,"TOWNNAME":"東區","LI":"大同里","LIN":"31鄰","STREET":"大同路","SECT":"一段","MAREA":" ","LANE":"１７５巷","ALLEY":" ","HOUSE_NO":"１６８號","E_COORD97":169361.95000000001,"N_COORD97":2542560.1299999999,"ADDRESS":"大同路一段１７５巷１６８號","OBJECTID":278851},"geometry":{"x":169361.95000000112,"y":2542560.129999999}},{"attributes":{"ID":278858,"DIS_CODE":0,"TOWNNAME":"東區","LI":"大同里","LIN":"31鄰","STREET":"大同路","SECT":"一段","MAREA":" ","LANE":"１７５巷","ALLEY":" ","HOUSE_NO":"１７０號","E_COORD97":169359.14999999999,"N_COORD97":2542557.8900000001,"ADDRESS":"大同路一段１７５巷１７０號","OBJECTID":278852},"geometry":{"x":169359.1500000013,"y":2542557.8900000025}},{"attributes":{"ID":278859,"DIS_CODE":0,"TOWNNAME":"東區","LI":"大同里","LIN":"31鄰","STREET":"大同路","SECT":"一段","MAREA":" ","LANE":"１７５巷","ALLEY":" ","HOUSE_NO":"１７２號","E_COORD97":169355.44,"N_COORD97":2542556.4300000002,"ADDRESS":"大同路一段１７５巷１７２號","OBJECTID":278853},"geometry":{"x":169355.44000000134,"y":2542556.4300000034}},{"attributes":{"ID":278860,"DIS_CODE":0,"TOWNNAME":"東區","LI":"大同里","LIN":"31鄰","STREET":"大同路","SECT":"一段","MAREA":" ","LANE":"１７５巷","ALLEY":" ","HOUSE_NO":"１７４號","E_COORD97":169351.95999999999,"N_COORD97":2542547.9199999999,"ADDRESS":"大同路一段１７５巷１７４號","OBJECTID":278854},"geometry":{"x":169351.95999999996,"y":2542547.9200000018}},{"attributes":{"ID":278861,"DIS_CODE":0,"TOWNNAME":"東區","LI":"大同里","LIN":"31鄰","STREET":"大同路","SECT":"一段","MAREA":" ","LANE":"１７５巷","ALLEY":" ","HOUSE_NO":"１７６號","E_COORD97":169350.73000000001,"N_COORD97":2542551.0600000001,"ADDRESS":"大同路一段１７５巷１７６號","OBJECTID":278855},"geometry":{"x":169350.73000000045,"y":2542551.0600000024}},{"attributes":{"ID":278862,"DIS_CODE":0,"TOWNNAME":"東區","LI":"大同里","LIN":"31鄰","STREET":"大同路","SECT":"一段","MAREA":" ","LANE":"１７５巷","ALLEY":" ","HOUSE_NO":"１７８號","E_COORD97":169347.70000000001,"N_COORD97":2542554.0899999999,"ADDRESS":"大同路一段１７５巷１７８號","OBJECTID":278856},"geometry":{"x":169347.70000000019,"y":2542554.0899999999}},{"attributes":{"ID":278863,"DIS_CODE":0,"TOWNNAME":"東區","LI":"大同里","LIN":"31鄰","STREET":"大同路","SECT":"一段","MAREA":" ","LANE":"１７５巷","ALLEY":" ","HOUSE_NO":"１８０號","E_COORD97":169345.45000000001,"N_COORD97":2542556.3300000001,"ADDRESS":"大同路一段１７５巷１８０號","OBJECTID":278857},"geometry":{"x":169345.45000000019,"y":2542556.3300000001}},{"attributes":{"ID":278864,"DIS_CODE":0,"TOWNNAME":"東區","LI":"大同里","LIN":"31鄰","STREET":"大同路","SECT":"一段","MAREA":" ","LANE":"１７５巷","ALLEY":" ","HOUSE_NO":"１８２號","E_COORD97":169342.87,"N_COORD97":2542558.5699999998,"ADDRESS":"大同路一段１７５巷１８２號","OBJECTID":278858},"geometry":{"x":169342.87000000011,"y":2542558.5700000003}},{"attributes":{"ID":278865,"DIS_CODE":0,"TOWNNAME":"中西區","LI":"西湖里","LIN":"31鄰","STREET":"湖美二街","SECT":" ","MAREA":" ","LANE":"１０６巷","ALLEY":" ","HOUSE_NO":"７３號","E_COORD97":166285.39000000001,"N_COORD97":2544854.6400000001,"ADDRESS":"湖美二街１０６巷７３號","OBJECTID":278859},"geometry":{"x":166285.3900000006,"y":2544854.6400000043}},{"attributes":{"ID":278866,"DIS_CODE":0,"TOWNNAME":"中西區","LI":"西湖里","LIN":"31鄰","STREET":"湖美二街","SECT":" ","MAREA":" ","LANE":"１０６巷","ALLEY":" ","HOUSE_NO":"７５號","E_COORD97":166287.29999999999,"N_COORD97":2544854.48,"ADDRESS":"湖美二街１０６巷７５號","OBJECTID":278860},"geometry":{"x":166287.30000000075,"y":2544854.4800000004}},{"attributes":{"ID":278867,"DIS_CODE":0,"TOWNNAME":"中西區","LI":"西湖里","LIN":"31鄰","STREET":"湖美二街","SECT":" ","MAREA":" ","LANE":"１０６巷","ALLEY":" ","HOUSE_NO":"７７號","E_COORD97":166289.51999999999,"N_COORD97":2544854.48,"ADDRESS":"湖美二街１０６巷７７號","OBJECTID":278861},"geometry":{"x":166289.51999999955,"y":2544854.4800000004}},{"attributes":{"ID":278868,"DIS_CODE":0,"TOWNNAME":"中西區","LI":"西湖里","LIN":"31鄰","STREET":"湖美二街","SECT":" ","MAREA":" ","LANE":"１０６巷","ALLEY":" ","HOUSE_NO":"７９號","E_COORD97":166291.73999999999,"N_COORD97":2544854.1699999999,"ADDRESS":"湖美二街１０６巷７９號","OBJECTID":278862},"geometry":{"x":166291.74000000115,"y":2544854.1700000018}},{"attributes":{"ID":278869,"DIS_CODE":0,"TOWNNAME":"中西區","LI":"西湖里","LIN":"31鄰","STREET":"湖美二街","SECT":" ","MAREA":" ","LANE":"１０６巷","ALLEY":" ","HOUSE_NO":"８１號","E_COORD97":166293.95999999999,"N_COORD97":2544853.8500000001,"ADDRESS":"湖美二街１０６巷８１號","OBJECTID":278863},"geometry":{"x":166293.95999999996,"y":2544853.8499999996}},{"attributes":{"ID":278870,"DIS_CODE":0,"TOWNNAME":"中西區","LI":"西湖里","LIN":"31鄰","STREET":"湖美二街","SECT":" ","MAREA":" ","LANE":"１０６巷","ALLEY":" ","HOUSE_NO":"８３號","E_COORD97":166296.35000000001,"N_COORD97":2544853.5299999998,"ADDRESS":"湖美二街１０６巷８３號","OBJECTID":278864},"geometry":{"x":166296.34999999963,"y":2544853.5299999993}},{"attributes":{"ID":278871,"DIS_CODE":0,"TOWNNAME":"中西區","LI":"西湖里","LIN":"31鄰","STREET":"湖美二街","SECT":" ","MAREA":" ","LANE":"１０６巷","ALLEY":" ","HOUSE_NO":"８５號","E_COORD97":166298.89000000001,"N_COORD97":2544853.5299999998,"ADDRESS":"湖美二街１０６巷８５號","OBJECTID":278865},"geometry":{"x":166298.8900000006,"y":2544853.5299999993}},{"attributes":{"ID":278872,"DIS_CODE":0,"TOWNNAME":"安南區","LI":"州北里","LIN":"31鄰","STREET":"安昌街","SECT":" ","MAREA":" ","LANE":"１０３巷","ALLEY":" ","HOUSE_NO":"３８號","E_COORD97":169856.29999999999,"N_COORD97":2552235.8500000001,"ADDRESS":"安昌街１０３巷３８號","OBJECTID":278866},"geometry":{"x":169856.29999999981,"y":2552235.8499999996}},{"attributes":{"ID":278873,"DIS_CODE":0,"TOWNNAME":"東區","LI":"成大里","LIN":"31鄰","STREET":"北門路","SECT":"二段","MAREA":" ","LANE":"１８巷","ALLEY":" ","HOUSE_NO":"１２號","E_COORD97":169347.06,"N_COORD97":2544497.0299999998,"ADDRESS":"北門路二段１８巷１２號","OBJECTID":278867},"geometry":{"x":169347.06000000052,"y":2544497.0299999993}},{"attributes":{"ID":278874,"DIS_CODE":0,"TOWNNAME":"東區","LI":"成大里","LIN":"31鄰","STREET":"北門路","SECT":"二段","MAREA":" ","LANE":"１８巷","ALLEY":" ","HOUSE_NO":"１３號","E_COORD97":169330.35000000001,"N_COORD97":2544497.2000000002,"ADDRESS":"北門路二段１８巷１３號","OBJECTID":278868},"geometry":{"x":169330.34999999963,"y":2544497.2000000011}},{"attributes":{"ID":278875,"DIS_CODE":0,"TOWNNAME":"東區","LI":"成大里","LIN":"31鄰","STREET":"北門路","SECT":"二段","MAREA":" ","LANE":"１８巷","ALLEY":" ","HOUSE_NO":"１５號","E_COORD97":169335.69,"N_COORD97":2544495.48,"ADDRESS":"北門路二段１８巷１５號","OBJECTID":278869},"geometry":{"x":169335.69000000041,"y":2544495.4800000004}},{"attributes":{"ID":278876,"DIS_CODE":0,"TOWNNAME":"東區","LI":"成大里","LIN":"31鄰","STREET":"北門路","SECT":"二段","MAREA":" ","LANE":"１８巷","ALLEY":" ","HOUSE_NO":"１７號","E_COORD97":169339.14000000001,"N_COORD97":2544493.7599999998,"ADDRESS":"北門路二段１８巷１７號","OBJECTID":278870},"geometry":{"x":169339.13999999966,"y":2544493.7600000035}},{"attributes":{"ID":278877,"DIS_CODE":0,"TOWNNAME":"東區","LI":"成大里","LIN":"31鄰","STREET":"北門路","SECT":"二段","MAREA":" ","LANE":"１８巷","ALLEY":" ","HOUSE_NO":"２號","E_COORD97":169323.45999999999,"N_COORD97":2544480.3399999999,"ADDRESS":"北門路二段１８巷２號","OBJECTID":278871},"geometry":{"x":169323.45999999996,"y":2544480.3400000017}},{"attributes":{"ID":278878,"DIS_CODE":0,"TOWNNAME":"東區","LI":"成大里","LIN":"31鄰","STREET":"北門路","SECT":"二段","MAREA":" ","LANE":"１８巷","ALLEY":" ","HOUSE_NO":"３號","E_COORD97":169326.73999999999,"N_COORD97":2544479.48,"ADDRESS":"北門路二段１８巷３號","OBJECTID":278872},"geometry":{"x":169326.74000000022,"y":2544479.4800000023}},{"attributes":{"ID":278879,"DIS_CODE":0,"TOWNNAME":"東區","LI":"成大里","LIN":"31鄰","STREET":"北門路","SECT":"二段","MAREA":" ","LANE":"１８巷","ALLEY":" ","HOUSE_NO":"４號","E_COORD97":169328.29000000001,"N_COORD97":2544485.5,"ADDRESS":"北門路二段１８巷４號","OBJECTID":278873},"geometry":{"x":169328.29000000004,"y":2544485.5000000037}},{"attributes":{"ID":278880,"DIS_CODE":0,"TOWNNAME":"東區","LI":"成大里","LIN":"31鄰","STREET":"北門路","SECT":"二段","MAREA":" ","LANE":"１８巷","ALLEY":" ","HOUSE_NO":"５號","E_COORD97":169324.32000000001,"N_COORD97":2544486.54,"ADDRESS":"北門路二段１８巷５號","OBJECTID":278874},"geometry":{"x":169324.32000000123,"y":2544486.5399999991}},{"attributes":{"ID":278881,"DIS_CODE":0,"TOWNNAME":"東區","LI":"成大里","LIN":"31鄰","STREET":"北門路","SECT":"二段","MAREA":" ","LANE":"１８巷","ALLEY":" ","HOUSE_NO":"６號","E_COORD97":169333.10999999999,"N_COORD97":2544475.3500000001,"ADDRESS":"北門路二段１８巷６號","OBJECTID":278875},"geometry":{"x":169333.11000000034,"y":2544475.3499999996}},{"attributes":{"ID":278882,"DIS_CODE":0,"TOWNNAME":"東區","LI":"成大里","LIN":"31鄰","STREET":"北門路","SECT":"二段","MAREA":" ","LANE":"１８巷","ALLEY":" ","HOUSE_NO":"７號","E_COORD97":169325.19,"N_COORD97":2544489.7999999998,"ADDRESS":"北門路二段１８巷７號","OBJECTID":278876},"geometry":{"x":169325.19000000134,"y":2544489.8000000007}},{"attributes":{"ID":278883,"DIS_CODE":0,"TOWNNAME":"東區","LI":"成大里","LIN":"31鄰","STREET":"北門路","SECT":"二段","MAREA":" ","LANE":"１８巷","ALLEY":" ","HOUSE_NO":"８號","E_COORD97":169345.85999999999,"N_COORD97":2544485.1600000001,"ADDRESS":"北門路二段１８巷８號","OBJECTID":278877},"geometry":{"x":169345.86000000127,"y":2544485.160000002}},{"attributes":{"ID":278884,"DIS_CODE":0,"TOWNNAME":"東區","LI":"成大里","LIN":"31鄰","STREET":"北門路","SECT":"二段","MAREA":" ","LANE":"１８巷","ALLEY":" ","HOUSE_NO":"９號","E_COORD97":169321.22,"N_COORD97":2544493.5899999999,"ADDRESS":"北門路二段１８巷９號","OBJECTID":278878},"geometry":{"x":169321.21999999974,"y":2544493.5899999999}},{"attributes":{"ID":278885,"DIS_CODE":0,"TOWNNAME":"永康區","LI":"東灣里","LIN":"31鄰","STREET":"大灣二街","SECT":" ","MAREA":" ","LANE":"２１巷","ALLEY":" ","HOUSE_NO":"３８號","E_COORD97":174888.23999999999,"N_COORD97":2544615.9900000002,"ADDRESS":"大灣二街２１巷３８號","OBJECTID":278879},"geometry":{"x":174888.24000000115,"y":2544615.9900000021}},{"attributes":{"ID":278886,"DIS_CODE":0,"TOWNNAME":"下營區","LI":"仁里里","LIN":"2鄰","STREET":"公園路","SECT":" ","MAREA":" ","LANE":" ","ALLEY":" ","HOUSE_NO":"１５號","E_COORD97":174267.04000000001,"N_COORD97":2570312.52,"ADDRESS":"公園路１５號","OBJECTID":278880},"geometry":{"x":174267.04000000097,"y":2570312.5200000033}},{"attributes":{"ID":278887,"DIS_CODE":0,"TOWNNAME":"永康區","LI":"成功里","LIN":"31鄰","STREET":"中華一路","SECT":" ","MAREA":" ","LANE":"３９巷","ALLEY":" ","HOUSE_NO":"６２號","E_COORD97":171878.51000000001,"N_COORD97":2544849.7000000002,"ADDRESS":"中華一路３９巷６２號","OBJECTID":278881},"geometry":{"x":171878.51000000071,"y":2544849.7000000011}},{"attributes":{"ID":278888,"DIS_CODE":0,"TOWNNAME":"永康區","LI":"北灣里","LIN":"31鄰","STREET":"大灣六街","SECT":" ","MAREA":" ","LANE":"８０巷","ALLEY":" ","HOUSE_NO":"６３號","E_COORD97":175238.12,"N_COORD97":2545318.5600000001,"ADDRESS":"大灣六街８０巷６３號","OBJECTID":278882},"geometry":{"x":175238.12000000104,"y":2545318.5600000005}},{"attributes":{"ID":278889,"DIS_CODE":0,"TOWNNAME":"永康區","LI":"北灣里","LIN":"31鄰","STREET":"大灣六街","SECT":" ","MAREA":" ","LANE":"８０巷","ALLEY":" ","HOUSE_NO":"５３號","E_COORD97":175218.35999999999,"N_COORD97":2545319.27,"ADDRESS":"大灣六街８０巷５３號","OBJECTID":278883},"geometry":{"x":175218.36000000034,"y":2545319.2699999996}},{"attributes":{"ID":278890,"DIS_CODE":0,"TOWNNAME":"永康區","LI":"永康里","LIN":"31鄰","STREET":"永大路","SECT":"三段","MAREA":" ","LANE":"７８巷","ALLEY":" ","HOUSE_NO":"３０號","E_COORD97":174294.42999999999,"N_COORD97":2547737.2000000002,"ADDRESS":"永大路三段７８巷３０號","OBJECTID":278884},"geometry":{"x":174294.43000000063,"y":2547737.1999999993}},{"attributes":{"ID":278891,"DIS_CODE":0,"TOWNNAME":"永康區","LI":"永康里","LIN":"31鄰","STREET":"永大路","SECT":"三段","MAREA":" ","LANE":"７８巷","ALLEY":" ","HOUSE_NO":"３９號","E_COORD97":174295.01999999999,"N_COORD97":2547756.5,"ADDRESS":"永大路三段７８巷３９號","OBJECTID":278885},"geometry":{"x":174295.02000000142,"y":2547756.5}},{"attributes":{"ID":278892,"DIS_CODE":0,"TOWNNAME":"永康區","LI":"永康里","LIN":"31鄰","STREET":"永大路","SECT":"三段","MAREA":" ","LANE":"７８巷","ALLEY":" ","HOUSE_NO":"１１號","E_COORD97":174255.60999999999,"N_COORD97":2547766.3300000001,"ADDRESS":"永大路三段７８巷１１號","OBJECTID":278886},"geometry":{"x":174255.61000000034,"y":2547766.3300000019}},{"attributes":{"ID":278893,"DIS_CODE":0,"TOWNNAME":"永康區","LI":"埔園里","LIN":"31鄰","STREET":"八德街","SECT":" ","MAREA":" ","LANE":"１９６巷","ALLEY":" ","HOUSE_NO":"８號","E_COORD97":173899.37,"N_COORD97":2548590.27,"ADDRESS":"八德街１９６巷８號","OBJECTID":278887},"geometry":{"x":173899.37000000011,"y":2548590.2700000014}},{"attributes":{"ID":278894,"DIS_CODE":0,"TOWNNAME":"永康區","LI":"埔園里","LIN":"31鄰","STREET":"八德街","SECT":" ","MAREA":" ","LANE":"１９６巷","ALLEY":" ","HOUSE_NO":"１１號","E_COORD97":173885.23999999999,"N_COORD97":2548632.2599999998,"ADDRESS":"八德街１９６巷１１號","OBJECTID":278888},"geometry":{"x":173885.24000000022,"y":2548632.2599999998}},{"attributes":{"ID":278895,"DIS_CODE":0,"TOWNNAME":"永康區","LI":"東灣里","LIN":"31鄰","STREET":"大灣一街","SECT":" ","MAREA":" ","LANE":"１９１巷","ALLEY":" ","HOUSE_NO":"２２號","E_COORD97":174874.98999999999,"N_COORD97":2544660.5,"ADDRESS":"大灣一街１９１巷２２號","OBJECTID":278889},"geometry":{"x":174874.99000000022,"y":2544660.5}},{"attributes":{"ID":278896,"DIS_CODE":0,"TOWNNAME":"永康區","LI":"埔園里","LIN":"31鄰","STREET":"八德街","SECT":" ","MAREA":" ","LANE":"１４０巷","ALLEY":" ","HOUSE_NO":"７１號","E_COORD97":173996.17999999999,"N_COORD97":2548721.27,"ADDRESS":"八德街１４０巷７１號","OBJECTID":278890},"geometry":{"x":173996.18000000063,"y":2548721.2700000033}},{"attributes":{"ID":278897,"DIS_CODE":0,"TOWNNAME":"新市區","LI":"新和里","LIN":"31鄰","STREET":"光華街","SECT":" ","MAREA":" ","LANE":"２３４巷","ALLEY":" ","HOUSE_NO":"３號","E_COORD97":177848.32000000001,"N_COORD97":2553065.25,"ADDRESS":"光華街２３４巷３號","OBJECTID":278891},"geometry":{"x":177848.3200000003,"y":2553065.2500000019}},{"attributes":{"ID":278898,"DIS_CODE":0,"TOWNNAME":"永康區","LI":"東灣里","LIN":"31鄰","STREET":"大灣二街","SECT":" ","MAREA":" ","LANE":"７１巷","ALLEY":" ","HOUSE_NO":"１３號","E_COORD97":174870.78,"N_COORD97":2544698.6699999999,"ADDRESS":"大灣二街７１巷１３號","OBJECTID":278892},"geometry":{"x":174870.78000000119,"y":2544698.6700000018}},{"attributes":{"ID":278899,"DIS_CODE":0,"TOWNNAME":"永康區","LI":"南灣里","LIN":"31鄰","STREET":"大安街","SECT":" ","MAREA":" ","LANE":"２７巷","ALLEY":" ","HOUSE_NO":"１號","E_COORD97":174415.60000000001,"N_COORD97":2544808.8900000001,"ADDRESS":"大安街２７巷１號","OBJECTID":278893},"geometry":{"x":174415.60000000056,"y":2544808.8900000043}},{"attributes":{"ID":278900,"DIS_CODE":0,"TOWNNAME":"永康區","LI":"東灣里","LIN":"31鄰","STREET":"大灣二街","SECT":" ","MAREA":" ","LANE":"７１巷","ALLEY":" ","HOUSE_NO":"１９號","E_COORD97":174855.98000000001,"N_COORD97":2544700.9199999999,"ADDRESS":"大灣二街７１巷１９號","OBJECTID":278894},"geometry":{"x":174855.98000000138,"y":2544700.9200000018}},{"attributes":{"ID":278901,"DIS_CODE":0,"TOWNNAME":"永康區","LI":"東灣里","LIN":"31鄰","STREET":"大灣二街","SECT":" ","MAREA":" ","LANE":"７１巷","ALLEY":" ","HOUSE_NO":"５號","E_COORD97":174889.42999999999,"N_COORD97":2544695.6699999999,"ADDRESS":"大灣二街７１巷５號","OBJECTID":278895},"geometry":{"x":174889.43000000063,"y":2544695.6700000018}},{"attributes":{"ID":278902,"DIS_CODE":0,"TOWNNAME":"永康區","LI":"北灣里","LIN":"31鄰","STREET":"大同街","SECT":" ","MAREA":" ","LANE":"３３巷","ALLEY":" ","HOUSE_NO":"２２號","E_COORD97":175251.26000000001,"N_COORD97":2545337.8100000001,"ADDRESS":"大同街３３巷２２號","OBJECTID":278896},"geometry":{"x":175251.25999999978,"y":2545337.8100000005}},{"attributes":{"ID":278903,"DIS_CODE":0,"TOWNNAME":"永康區","LI":"正強里","LIN":"31鄰","STREET":"自強路","SECT":" ","MAREA":" ","LANE":"２５５巷","ALLEY":" ","HOUSE_NO":"２８號","E_COORD97":173175.03,"N_COORD97":2547620.9900000002,"ADDRESS":"自強路２５５巷２８號","OBJECTID":278897},"geometry":{"x":173175.03000000026,"y":2547620.9900000002}},{"attributes":{"ID":278904,"DIS_CODE":0,"TOWNNAME":"安南區","LI":"州北里","LIN":"31鄰","STREET":"安昌街","SECT":" ","MAREA":" ","LANE":"１０３巷","ALLEY":" ","HOUSE_NO":"４０號","E_COORD97":169851.03,"N_COORD97":2552231.0099999998,"ADDRESS":"安昌街１０３巷４０號","OBJECTID":278898},"geometry":{"x":169851.03000000212,"y":2552231.0099999998}},{"attributes":{"ID":278905,"DIS_CODE":0,"TOWNNAME":"安南區","LI":"州北里","LIN":"31鄰","STREET":"安昌街","SECT":" ","MAREA":" ","LANE":"１０３巷","ALLEY":" ","HOUSE_NO":"５０號","E_COORD97":169831.23999999999,"N_COORD97":2552230.8999999999,"ADDRESS":"安昌街１０３巷５０號","OBJECTID":278899},"geometry":{"x":169831.24000000115,"y":2552230.9000000022}},{"attributes":{"ID":278906,"DIS_CODE":0,"TOWNNAME":"安南區","LI":"州北里","LIN":"31鄰","STREET":"安昌街","SECT":" ","MAREA":" ","LANE":"１０３巷","ALLEY":" ","HOUSE_NO":"４２號","E_COORD97":169847.42999999999,"N_COORD97":2552230.79,"ADDRESS":"安昌街１０３巷４２號","OBJECTID":278900},"geometry":{"x":169847.4299999997,"y":2552230.790000001}},{"attributes":{"ID":278907,"DIS_CODE":0,"TOWNNAME":"安南區","LI":"州北里","LIN":"31鄰","STREET":"安昌街","SECT":" ","MAREA":" ","LANE":"１０３巷","ALLEY":" ","HOUSE_NO":"４６之１號","E_COORD97":169839.92000000001,"N_COORD97":2552230.8999999999,"ADDRESS":"安昌街１０３巷４６之１號","OBJECTID":278901},"geometry":{"x":169839.92000000086,"y":2552230.9000000022}},{"attributes":{"ID":278908,"DIS_CODE":0,"TOWNNAME":"安南區","LI":"州北里","LIN":"31鄰","STREET":"安昌街","SECT":" ","MAREA":" ","LANE":"１０３巷","ALLEY":" ","HOUSE_NO":"４６號","E_COORD97":169843.41,"N_COORD97":2552230.79,"ADDRESS":"安昌街１０３巷４６號","OBJECTID":278902},"geometry":{"x":169843.41000000108,"y":2552230.790000001}},{"attributes":{"ID":278909,"DIS_CODE":0,"TOWNNAME":"安南區","LI":"州北里","LIN":"31鄰","STREET":"安昌街","SECT":" ","MAREA":" ","LANE":"１０３巷","ALLEY":" ","HOUSE_NO":"４８號","E_COORD97":169834.94,"N_COORD97":2552230.79,"ADDRESS":"安昌街１０３巷４８號","OBJECTID":278903},"geometry":{"x":169834.94000000134,"y":2552230.790000001}},{"attributes":{"ID":278910,"DIS_CODE":0,"TOWNNAME":"佳里區","LI":"安西里","LIN":"31鄰","STREET":"光華街","SECT":" ","MAREA":" ","LANE":"１３０巷","ALLEY":" ","HOUSE_NO":"３８號","E_COORD97":165065.13,"N_COORD97":2562922.2400000002,"ADDRESS":"光華街１３０巷３８號","OBJECTID":278904},"geometry":{"x":165065.13000000082,"y":2562922.2400000021}},{"attributes":{"ID":278911,"DIS_CODE":0,"TOWNNAME":"佳里區","LI":"安西里","LIN":"31鄰","STREET":"光華街","SECT":" ","MAREA":" ","LANE":"１３０巷","ALLEY":" ","HOUSE_NO":"４０號","E_COORD97":165065.57000000001,"N_COORD97":2562926.4399999999,"ADDRESS":"光華街１３０巷４０號","OBJECTID":278905},"geometry":{"x":165065.57000000123,"y":2562926.4400000013}},{"attributes":{"ID":278912,"DIS_CODE":0,"TOWNNAME":"佳里區","LI":"安西里","LIN":"31鄰","STREET":"光華街","SECT":" ","MAREA":" ","LANE":"１３０巷","ALLEY":" ","HOUSE_NO":"４２號之１","E_COORD97":165065.23000000001,"N_COORD97":2562935.9500000002,"ADDRESS":"光華街１３０巷４２號之１","OBJECTID":278906},"geometry":{"x":165065.23000000045,"y":2562935.9500000011}},{"attributes":{"ID":278913,"DIS_CODE":0,"TOWNNAME":"佳里區","LI":"安西里","LIN":"31鄰","STREET":"光華街","SECT":" ","MAREA":" ","LANE":"１３０巷","ALLEY":" ","HOUSE_NO":"４２號","E_COORD97":165065.48999999999,"N_COORD97":2562931.0099999998,"ADDRESS":"光華街１３０巷４２號","OBJECTID":278907},"geometry":{"x":165065.49000000022,"y":2562931.0099999998}},{"attributes":{"ID":278914,"DIS_CODE":0,"TOWNNAME":"佳里區","LI":"安西里","LIN":"31鄰","STREET":"安西路","SECT":" ","MAREA":" ","LANE":"３１１巷","ALLEY":" ","HOUSE_NO":"１３號","E_COORD97":165154.06,"N_COORD97":2562979.8100000001,"ADDRESS":"安西路３１１巷１３號","OBJECTID":278908},"geometry":{"x":165154.05999999959,"y":2562979.8100000024}},{"attributes":{"ID":278915,"DIS_CODE":0,"TOWNNAME":"佳里區","LI":"安西里","LIN":"31鄰","STREET":"安西路","SECT":" ","MAREA":" ","LANE":"３１１巷","ALLEY":" ","HOUSE_NO":"１５號","E_COORD97":165158.60000000001,"N_COORD97":2562981.2799999998,"ADDRESS":"安西路３１１巷１５號","OBJECTID":278909},"geometry":{"x":165158.59999999963,"y":2562981.2800000012}},{"attributes":{"ID":278916,"DIS_CODE":0,"TOWNNAME":"仁德區","LI":"仁和里","LIN":"13鄰","STREET":"和愛街","SECT":" ","MAREA":" ","LANE":" ","ALLEY":" ","HOUSE_NO":"１８號一樓之１","E_COORD97":170463.39000000001,"N_COORD97":2539995.3999999999,"ADDRESS":"和愛街１８號一樓之１","OBJECTID":278910},"geometry":{"x":170463.3900000006,"y":2539995.4000000022}},{"attributes":{"ID":278917,"DIS_CODE":0,"TOWNNAME":"佳里區","LI":"安西里","LIN":"31鄰","STREET":"安西路","SECT":" ","MAREA":" ","LANE":"３１１巷","ALLEY":" ","HOUSE_NO":"１７號","E_COORD97":165164.82000000001,"N_COORD97":2562982.9900000002,"ADDRESS":"安西路３１１巷１７號","OBJECTID":278911},"geometry":{"x":165164.8200000003,"y":2562982.9900000002}},{"attributes":{"ID":278918,"DIS_CODE":0,"TOWNNAME":"佳里區","LI":"安西里","LIN":"31鄰","STREET":"安西路","SECT":" ","MAREA":" ","LANE":"３１１巷","ALLEY":" ","HOUSE_NO":"１９號","E_COORD97":165170.17000000001,"N_COORD97":2562984.7200000002,"ADDRESS":"安西路３１１巷１９號","OBJECTID":278912},"geometry":{"x":165170.16999999993,"y":2562984.7200000007}},{"attributes":{"ID":278919,"DIS_CODE":0,"TOWNNAME":"佳里區","LI":"安西里","LIN":"31鄰","STREET":"安西路","SECT":" ","MAREA":" ","LANE":"３１１巷","ALLEY":" ","HOUSE_NO":"１號","E_COORD97":165186.64000000001,"N_COORD97":2562980.3799999999,"ADDRESS":"安西路３１１巷１號","OBJECTID":278913},"geometry":{"x":165186.6400000006,"y":2562980.3800000008}},{"attributes":{"ID":278920,"DIS_CODE":0,"TOWNNAME":"佳里區","LI":"安西里","LIN":"31鄰","STREET":"安西路","SECT":" ","MAREA":" ","LANE":"３１１巷","ALLEY":" ","HOUSE_NO":"２１號","E_COORD97":165186.23000000001,"N_COORD97":2562989.1800000002,"ADDRESS":"安西路３１１巷２１號","OBJECTID":278914},"geometry":{"x":165186.22999999952,"y":2562989.1800000016}},{"attributes":{"ID":278921,"DIS_CODE":0,"TOWNNAME":"佳里區","LI":"安西里","LIN":"31鄰","STREET":"安西路","SECT":" ","MAREA":" ","LANE":"３１１巷","ALLEY":" ","HOUSE_NO":"２３號","E_COORD97":165185.92000000001,"N_COORD97":2562993.8300000001,"ADDRESS":"安西路３１１巷２３號","OBJECTID":278915},"geometry":{"x":165185.91999999993,"y":2562993.8300000001}},{"attributes":{"ID":278922,"DIS_CODE":0,"TOWNNAME":"佳里區","LI":"安西里","LIN":"31鄰","STREET":"安西路","SECT":" ","MAREA":" ","LANE":"３１１巷","ALLEY":" ","HOUSE_NO":"２５號","E_COORD97":165185.01999999999,"N_COORD97":2562998.1600000001,"ADDRESS":"安西路３１１巷２５號","OBJECTID":278916},"geometry":{"x":165185.02000000142,"y":2562998.1600000001}},{"attributes":{"ID":278923,"DIS_CODE":0,"TOWNNAME":"佳里區","LI":"安西里","LIN":"31鄰","STREET":"安西路","SECT":" ","MAREA":" ","LANE":"３１１巷","ALLEY":" ","HOUSE_NO":"９號","E_COORD97":165160.39000000001,"N_COORD97":2562959.25,"ADDRESS":"安西路３１１巷９號","OBJECTID":278917},"geometry":{"x":165160.38999999966,"y":2562959.2500000019}},{"attributes":{"ID":278924,"DIS_CODE":0,"TOWNNAME":"安南區","LI":"州北里","LIN":"31鄰","STREET":"安昌街","SECT":" ","MAREA":" ","LANE":"１０３巷","ALLEY":" ","HOUSE_NO":"５２號","E_COORD97":169826.57999999999,"N_COORD97":2552231.0099999998,"ADDRESS":"安昌街１０３巷５２號","OBJECTID":278918},"geometry":{"x":169826.57999999914,"y":2552231.0099999998}},{"attributes":{"ID":278925,"DIS_CODE":0,"TOWNNAME":"永康區","LI":"崑山里","LIN":"31鄰","STREET":"崑山街","SECT":" ","MAREA":" ","LANE":"９６巷","ALLEY":" ","HOUSE_NO":"７號","E_COORD97":174016.95000000001,"N_COORD97":2544745.8399999999,"ADDRESS":"崑山街９６巷７號","OBJECTID":278919},"geometry":{"x":174016.95000000112,"y":2544745.8399999999}},{"attributes":{"ID":278926,"DIS_CODE":0,"TOWNNAME":"安南區","LI":"州北里","LIN":"31鄰","STREET":"安昌街","SECT":" ","MAREA":" ","LANE":"１０３巷","ALLEY":" ","HOUSE_NO":"５６號","E_COORD97":169822.42000000001,"N_COORD97":2552230.7200000002,"ADDRESS":"安昌街１０３巷５６號","OBJECTID":278920},"geometry":{"x":169822.41999999899,"y":2552230.7200000007}},{"attributes":{"ID":278927,"DIS_CODE":0,"TOWNNAME":"安南區","LI":"州北里","LIN":"31鄰","STREET":"安昌街","SECT":" ","MAREA":" ","LANE":"１１９巷","ALLEY":" ","HOUSE_NO":"３９號","E_COORD97":169839.44,"N_COORD97":2552276.5,"ADDRESS":"安昌街１１９巷３９號","OBJECTID":278921},"geometry":{"x":169839.44000000041,"y":2552276.5000000037}},{"attributes":{"ID":278928,"DIS_CODE":0,"TOWNNAME":"安南區","LI":"州北里","LIN":"31鄰","STREET":"安昌街","SECT":" ","MAREA":" ","LANE":"１１９巷","ALLEY":" ","HOUSE_NO":"３３號","E_COORD97":169843.92999999999,"N_COORD97":2552274.5099999998,"ADDRESS":"安昌街１１９巷３３號","OBJECTID":278922},"geometry":{"x":169843.9299999997,"y":2552274.5099999998}},{"attributes":{"ID":278929,"DIS_CODE":0,"TOWNNAME":"新市區","LI":"新和里","LIN":"31鄰","STREET":"光華街","SECT":" ","MAREA":" ","LANE":"２３４巷","ALLEY":" ","HOUSE_NO":"８號","E_COORD97":177865.73000000001,"N_COORD97":2553056.5,"ADDRESS":"光華街２３４巷８號","OBJECTID":278923},"geometry":{"x":177865.73000000045,"y":2553056.5000000019}},{"attributes":{"ID":278930,"DIS_CODE":0,"TOWNNAME":"安南區","LI":"州北里","LIN":"31鄰","STREET":"安昌街","SECT":" ","MAREA":" ","LANE":"１１９巷","ALLEY":" ","HOUSE_NO":"３５號","E_COORD97":169847.59,"N_COORD97":2552275.1699999999,"ADDRESS":"安昌街１１９巷３５號","OBJECTID":278924},"geometry":{"x":169847.58999999985,"y":2552275.1700000037}},{"attributes":{"ID":278931,"DIS_CODE":0,"TOWNNAME":"安南區","LI":"州北里","LIN":"31鄰","STREET":"安昌街","SECT":" ","MAREA":" ","LANE":"１１９巷","ALLEY":" ","HOUSE_NO":"３３號","E_COORD97":169850.57999999999,"N_COORD97":2552274.8399999999,"ADDRESS":"安昌街１１９巷３３號","OBJECTID":278925},"geometry":{"x":169850.58000000101,"y":2552274.8400000017}},{"attributes":{"ID":278932,"DIS_CODE":0,"TOWNNAME":"安南區","LI":"州北里","LIN":"31鄰","STREET":"安昌街","SECT":" ","MAREA":" ","LANE":"１１９巷","ALLEY":" ","HOUSE_NO":"４１號","E_COORD97":169835.12,"N_COORD97":2552276.5,"ADDRESS":"安昌街１１９巷４１號","OBJECTID":278926},"geometry":{"x":169835.12000000104,"y":2552276.5000000037}},{"attributes":{"ID":278933,"DIS_CODE":0,"TOWNNAME":"安南區","LI":"州北里","LIN":"31鄰","STREET":"安昌街","SECT":" ","MAREA":" ","LANE":"１１９巷","ALLEY":" ","HOUSE_NO":"４３號","E_COORD97":169830.79999999999,"N_COORD97":2552276.3399999999,"ADDRESS":"安昌街１１９巷４３號","OBJECTID":278927},"geometry":{"x":169830.80000000075,"y":2552276.3399999999}},{"attributes":{"ID":278934,"DIS_CODE":0,"TOWNNAME":"安南區","LI":"州北里","LIN":"31鄰","STREET":"安昌街","SECT":" ","MAREA":" ","LANE":"１１９巷","ALLEY":" ","HOUSE_NO":"４７號","E_COORD97":169826.97,"N_COORD97":2552276.5,"ADDRESS":"安昌街１１９巷４７號","OBJECTID":278928},"geometry":{"x":169826.96999999881,"y":2552276.5000000037}},{"attributes":{"ID":278935,"DIS_CODE":0,"TOWNNAME":"安南區","LI":"州北里","LIN":"31鄰","STREET":"安昌街","SECT":" ","MAREA":" ","LANE":"１１９巷","ALLEY":" ","HOUSE_NO":"４５號","E_COORD97":169822.32000000001,"N_COORD97":2552276.3399999999,"ADDRESS":"安昌街１１９巷４５號","OBJECTID":278929},"geometry":{"x":169822.32000000123,"y":2552276.3399999999}},{"attributes":{"ID":278936,"DIS_CODE":0,"TOWNNAME":"安南區","LI":"州北里","LIN":"31鄰","STREET":"安昌街","SECT":" ","MAREA":" ","LANE":"１１９巷","ALLEY":" ","HOUSE_NO":"４０號","E_COORD97":169850.75,"N_COORD97":2552289.7999999998,"ADDRESS":"安昌街１１９巷４０號","OBJECTID":278930},"geometry":{"x":169850.74999999907,"y":2552289.8000000026}},{"attributes":{"ID":278937,"DIS_CODE":0,"TOWNNAME":"安南區","LI":"州北里","LIN":"31鄰","STREET":"安昌街","SECT":" ","MAREA":" ","LANE":"１１９巷","ALLEY":" ","HOUSE_NO":"４２號","E_COORD97":169847.42000000001,"N_COORD97":2552289.7999999998,"ADDRESS":"安昌街１１９巷４２號","OBJECTID":278931},"geometry":{"x":169847.41999999993,"y":2552289.8000000026}},{"attributes":{"ID":278938,"DIS_CODE":0,"TOWNNAME":"中西區","LI":"西湖里","LIN":"31鄰","STREET":"湖美二街","SECT":" ","MAREA":" ","LANE":"１０６巷","ALLEY":" ","HOUSE_NO":"９號","E_COORD97":166171.25,"N_COORD97":2544864.4900000002,"ADDRESS":"湖美二街１０６巷９號","OBJECTID":278932},"geometry":{"x":166171.25000000093,"y":2544864.4900000002}},{"attributes":{"ID":278939,"DIS_CODE":0,"TOWNNAME":"中西區","LI":"西湖里","LIN":"31鄰","STREET":"湖美二街","SECT":" ","MAREA":" ","LANE":"１０６巷","ALLEY":" ","HOUSE_NO":"１１號","E_COORD97":166177.92000000001,"N_COORD97":2544863.8500000001,"ADDRESS":"湖美二街１０６巷１１號","OBJECTID":278933},"geometry":{"x":166177.92000000179,"y":2544863.8500000015}},{"attributes":{"ID":278940,"DIS_CODE":0,"TOWNNAME":"中西區","LI":"西湖里","LIN":"31鄰","STREET":"湖美二街","SECT":" ","MAREA":" ","LANE":"１０６巷","ALLEY":" ","HOUSE_NO":"１３號","E_COORD97":166184.59,"N_COORD97":2544862.5800000001,"ADDRESS":"湖美二街１０６巷１３號","OBJECTID":278934},"geometry":{"x":166184.58999999985,"y":2544862.5800000019}},{"attributes":{"ID":278941,"DIS_CODE":0,"TOWNNAME":"中西區","LI":"西湖里","LIN":"31鄰","STREET":"湖美二街","SECT":" ","MAREA":" ","LANE":"１０６巷","ALLEY":" ","HOUSE_NO":"１７號","E_COORD97":166200.14000000001,"N_COORD97":2544861.6299999999,"ADDRESS":"湖美二街１０６巷１７號","OBJECTID":278935},"geometry":{"x":166200.1400000006,"y":2544861.629999999}},{"attributes":{"ID":278942,"DIS_CODE":0,"TOWNNAME":"中西區","LI":"西湖里","LIN":"31鄰","STREET":"湖美二街","SECT":" ","MAREA":" ","LANE":"１０６巷","ALLEY":" ","HOUSE_NO":"１９號","E_COORD97":166208.39999999999,"N_COORD97":2544861.3100000001,"ADDRESS":"湖美二街１０６巷１９號","OBJECTID":278936},"geometry":{"x":166208.40000000037,"y":2544861.3100000024}},{"attributes":{"ID":278943,"DIS_CODE":0,"TOWNNAME":"永康區","LI":"北灣里","LIN":"31鄰","STREET":"大同街","SECT":" ","MAREA":" ","LANE":"３３巷","ALLEY":" ","HOUSE_NO":"２６號","E_COORD97":175251.51000000001,"N_COORD97":2545332.3100000001,"ADDRESS":"大同街３３巷２６號","OBJECTID":278937},"geometry":{"x":175251.51000000164,"y":2545332.3100000024}},{"attributes":{"ID":278944,"DIS_CODE":0,"TOWNNAME":"永康區","LI":"北灣里","LIN":"31鄰","STREET":"大同街","SECT":" ","MAREA":" ","LANE":"３３巷","ALLEY":" ","HOUSE_NO":"２號","E_COORD97":175251.44,"N_COORD97":2545400.29,"ADDRESS":"大同街３３巷２號","OBJECTID":278938},"geometry":{"x":175251.44000000134,"y":2545400.2899999991}},{"attributes":{"ID":278945,"DIS_CODE":0,"TOWNNAME":"仁德區","LI":"後壁里","LIN":"31鄰","STREET":"德洋路","SECT":" ","MAREA":" ","LANE":"１８０巷","ALLEY":" ","HOUSE_NO":"８號三樓之４","E_COORD97":172561.47,"N_COORD97":2539457.04,"ADDRESS":"德洋路１８０巷８號三樓之４","OBJECTID":278939},"geometry":{"x":172561.4700000016,"y":2539457.040000001}},{"attributes":{"ID":278946,"DIS_CODE":0,"TOWNNAME":"仁德區","LI":"後壁里","LIN":"31鄰","STREET":"德洋路","SECT":" ","MAREA":" ","LANE":"１８０巷","ALLEY":" ","HOUSE_NO":"２８號三樓之４","E_COORD97":172588.35000000001,"N_COORD97":2539547.54,"ADDRESS":"德洋路１８０巷２８號三樓之４","OBJECTID":278940},"geometry":{"x":172588.35000000056,"y":2539547.5399999972}},{"attributes":{"ID":278947,"DIS_CODE":0,"TOWNNAME":"仁德區","LI":"後壁里","LIN":"31鄰","STREET":"德洋路","SECT":" ","MAREA":" ","LANE":"１８０巷","ALLEY":" ","HOUSE_NO":"８號四樓之２","E_COORD97":172561.57999999999,"N_COORD97":2539457.04,"ADDRESS":"德洋路１８０巷８號四樓之２","OBJECTID":278941},"geometry":{"x":172561.58000000101,"y":2539457.040000001}},{"attributes":{"ID":278948,"DIS_CODE":0,"TOWNNAME":"仁德區","LI":"後壁里","LIN":"31鄰","STREET":"德洋路","SECT":" ","MAREA":" ","LANE":"１８０巷","ALLEY":" ","HOUSE_NO":"８號五樓之３","E_COORD97":172561.54000000001,"N_COORD97":2539457.04,"ADDRESS":"德洋路１８０巷８號五樓之３","OBJECTID":278942},"geometry":{"x":172561.54000000097,"y":2539457.040000001}},{"attributes":{"ID":278949,"DIS_CODE":0,"TOWNNAME":"仁德區","LI":"後壁里","LIN":"31鄰","STREET":"德洋路","SECT":" ","MAREA":" ","LANE":"１８０巷","ALLEY":" ","HOUSE_NO":"２８號六樓之５","E_COORD97":172588.48000000001,"N_COORD97":2539547.54,"ADDRESS":"德洋路１８０巷２８號六樓之５","OBJECTID":278943},"geometry":{"x":172588.48000000045,"y":2539547.5399999972}},{"attributes":{"ID":278950,"DIS_CODE":0,"TOWNNAME":"仁德區","LI":"後壁里","LIN":"31鄰","STREET":"德洋路","SECT":" ","MAREA":" ","LANE":"１８０巷","ALLEY":" ","HOUSE_NO":"２８號四樓之４","E_COORD97":172588.35000000001,"N_COORD97":2539547.54,"ADDRESS":"德洋路１８０巷２８號四樓之４","OBJECTID":278944},"geometry":{"x":172588.35000000056,"y":2539547.5399999972}},{"attributes":{"ID":278951,"DIS_CODE":0,"TOWNNAME":"永康區","LI":"復國里","LIN":"31鄰","STREET":"復國一路","SECT":" ","MAREA":" ","LANE":"１７３巷","ALLEY":" ","HOUSE_NO":"２９號","E_COORD97":172598.81,"N_COORD97":2545209.7799999998,"ADDRESS":"復國一路１７３巷２９號","OBJECTID":278945},"geometry":{"x":172598.80999999959,"y":2545209.7800000012}},{"attributes":{"ID":278952,"DIS_CODE":0,"TOWNNAME":"永康區","LI":"復國里","LIN":"31鄰","STREET":"復國一路","SECT":" ","MAREA":" ","LANE":"１５９巷","ALLEY":" ","HOUSE_NO":"１１號","E_COORD97":172674.88,"N_COORD97":2545164.0299999998,"ADDRESS":"復國一路１５９巷１１號","OBJECTID":278946},"geometry":{"x":172674.88000000082,"y":2545164.0300000012}},{"attributes":{"ID":278953,"DIS_CODE":0,"TOWNNAME":"永康區","LI":"崑山里","LIN":"31鄰","STREET":"崑山街","SECT":" ","MAREA":" ","LANE":"９６巷","ALLEY":" ","HOUSE_NO":"１７號","E_COORD97":174036.51000000001,"N_COORD97":2544736.4700000002,"ADDRESS":"崑山街９６巷１７號","OBJECTID":278947},"geometry":{"x":174036.51000000071,"y":2544736.4700000007}},{"attributes":{"ID":278954,"DIS_CODE":0,"TOWNNAME":"永康區","LI":"崑山里","LIN":"31鄰","STREET":"崑山街","SECT":" ","MAREA":" ","LANE":"９６巷","ALLEY":" ","HOUSE_NO":"１９號","E_COORD97":174040.82999999999,"N_COORD97":2544734.9700000002,"ADDRESS":"崑山街９６巷１９號","OBJECTID":278948},"geometry":{"x":174040.82999999914,"y":2544734.9700000025}},{"attributes":{"ID":278955,"DIS_CODE":0,"TOWNNAME":"永康區","LI":"崑山里","LIN":"31鄰","STREET":"崑山街","SECT":" ","MAREA":" ","LANE":"９６巷","ALLEY":" ","HOUSE_NO":"２１號","E_COORD97":174044.72,"N_COORD97":2544733.7200000002,"ADDRESS":"崑山街９６巷２１號","OBJECTID":278949},"geometry":{"x":174044.7200000016,"y":2544733.7200000025}},{"attributes":{"ID":278956,"DIS_CODE":0,"TOWNNAME":"永康區","LI":"崑山里","LIN":"31鄰","STREET":"崑山街","SECT":" ","MAREA":" ","LANE":"９６巷","ALLEY":" ","HOUSE_NO":"２３號","E_COORD97":174048.5,"N_COORD97":2544731.9700000002,"ADDRESS":"崑山街９６巷２３號","OBJECTID":278950},"geometry":{"x":174048.50000000093,"y":2544731.9700000025}},{"attributes":{"ID":278957,"DIS_CODE":0,"TOWNNAME":"永康區","LI":"崑山里","LIN":"31鄰","STREET":"大灣路","SECT":" ","MAREA":" ","LANE":"７９８巷","ALLEY":" ","HOUSE_NO":"５５號","E_COORD97":174072.16,"N_COORD97":2544747.25,"ADDRESS":"大灣路７９８巷５５號","OBJECTID":278951},"geometry":{"x":174072.16000000015,"y":2544747.25}},{"attributes":{"ID":278958,"DIS_CODE":0,"TOWNNAME":"安南區","LI":"四草里","LIN":"1鄰","STREET":"大眾六街","SECT":" ","MAREA":" ","LANE":" ","ALLEY":" ","HOUSE_NO":"５２號","E_COORD97":160553.701638,"N_COORD97":2546510.84577,"ADDRESS":"大眾六街５２號","OBJECTID":278952},"geometry":{"x":160553.70163800009,"y":2546510.8457680009}},{"attributes":{"ID":278959,"DIS_CODE":0,"TOWNNAME":"新營區","LI":"延平里","LIN":"2鄰","STREET":"延平路","SECT":" ","MAREA":" ","LANE":" ","ALLEY":" ","HOUSE_NO":"４０之２號五樓之２","E_COORD97":179768.48000000001,"N_COORD97":2577845.1899999999,"ADDRESS":"延平路４０之２號五樓之２","OBJECTID":278953},"geometry":{"x":179768.48000000138,"y":2577845.1900000013}},{"attributes":{"ID":278960,"DIS_CODE":0,"TOWNNAME":"安平區","LI":"文平里","LIN":"2鄰","STREET":"中華西路","SECT":"二段","MAREA":" ","LANE":" ","ALLEY":" ","HOUSE_NO":"２１號七樓之１","E_COORD97":166588.51000000001,"N_COORD97":2543081.6600000001,"ADDRESS":"中華西路二段２１號七樓之１","OBJECTID":278954},"geometry":{"x":166588.50999999978,"y":2543081.660000002}},{"attributes":{"ID":278961,"DIS_CODE":0,"TOWNNAME":"安平區","LI":"文平里","LIN":"2鄰","STREET":"中華西路","SECT":"二段","MAREA":" ","LANE":" ","ALLEY":" ","HOUSE_NO":"２１號七樓之２","E_COORD97":166588.51000000001,"N_COORD97":2543081.6600000001,"ADDRESS":"中華西路二段２１號七樓之２","OBJECTID":278955},"geometry":{"x":166588.50999999978,"y":2543081.660000002}},{"attributes":{"ID":278962,"DIS_CODE":0,"TOWNNAME":"永康區","LI":"崑山里","LIN":"31鄰","STREET":"崑山街","SECT":" ","MAREA":" ","LANE":"９６巷","ALLEY":" ","HOUSE_NO":"２９號","E_COORD97":174059.78,"N_COORD97":2544728.2200000002,"ADDRESS":"崑山街９６巷２９號","OBJECTID":278956},"geometry":{"x":174059.78000000026,"y":2544728.2200000007}},{"attributes":{"ID":278963,"DIS_CODE":0,"TOWNNAME":"永康區","LI":"崑山里","LIN":"31鄰","STREET":"崑山街","SECT":" ","MAREA":" ","LANE":"９６巷","ALLEY":" ","HOUSE_NO":"９號","E_COORD97":174021.20000000001,"N_COORD97":2544744.5899999999,"ADDRESS":"崑山街９６巷９號","OBJECTID":278957},"geometry":{"x":174021.20000000019,"y":2544744.5899999999}},{"attributes":{"ID":278964,"DIS_CODE":0,"TOWNNAME":"永康區","LI":"大灣里","LIN":"31鄰","STREET":"文賢街","SECT":" ","MAREA":" ","LANE":"６８巷","ALLEY":" ","HOUSE_NO":"１０號","E_COORD97":175351.16,"N_COORD97":2545088.5800000001,"ADDRESS":"文賢街６８巷１０號","OBJECTID":278958},"geometry":{"x":175351.16000000108,"y":2545088.5800000038}},{"attributes":{"ID":278965,"DIS_CODE":0,"TOWNNAME":"永康區","LI":"五王里","LIN":"31鄰","STREET":"五福街","SECT":" ","MAREA":" ","LANE":"９巷","ALLEY":" ","HOUSE_NO":"１１號","E_COORD97":171254.41,"N_COORD97":2545897.75,"ADDRESS":"五福街９巷１１號","OBJECTID":278959},"geometry":{"x":171254.41000000015,"y":2545897.7500000019}},{"attributes":{"ID":278966,"DIS_CODE":0,"TOWNNAME":"永康區","LI":"五王里","LIN":"31鄰","STREET":"五福街","SECT":" ","MAREA":" ","LANE":"９巷","ALLEY":" ","HOUSE_NO":"１３號","E_COORD97":171252.26000000001,"N_COORD97":2545901.5,"ADDRESS":"五福街９巷１３號","OBJECTID":278960},"geometry":{"x":171252.25999999978,"y":2545901.5}},{"attributes":{"ID":278967,"DIS_CODE":0,"TOWNNAME":"新市區","LI":"新和里","LIN":"31鄰","STREET":"光華街","SECT":" ","MAREA":" ","LANE":"２３４巷","ALLEY":" ","HOUSE_NO":"７號","E_COORD97":177860.17000000001,"N_COORD97":2553065,"ADDRESS":"光華街２３４巷７號","OBJECTID":278961},"geometry":{"x":177860.17000000086,"y":2553065}},{"attributes":{"ID":278968,"DIS_CODE":0,"TOWNNAME":"新市區","LI":"新和里","LIN":"31鄰","STREET":"光華街","SECT":" ","MAREA":" ","LANE":"２３４巷","ALLEY":" ","HOUSE_NO":"１７號","E_COORD97":177891.17000000001,"N_COORD97":2553064.25,"ADDRESS":"光華街２３４巷１７號","OBJECTID":278962},"geometry":{"x":177891.16999999993,"y":2553064.25}},{"attributes":{"ID":278969,"DIS_CODE":0,"TOWNNAME":"歸仁區","LI":"沙崙里","LIN":"2鄰","STREET":" ","SECT":" ","MAREA":"二甲","LANE":" ","ALLEY":" ","HOUSE_NO":"７３號一樓","E_COORD97":178390.28,"N_COORD97":2539310.8900000001,"ADDRESS":"二甲７３號一樓","OBJECTID":278963},"geometry":{"x":178390.28000000119,"y":2539310.8900000025}},{"attributes":{"ID":278970,"DIS_CODE":0,"TOWNNAME":"歸仁區","LI":"沙崙里","LIN":"2鄰","STREET":" ","SECT":" ","MAREA":"二甲","LANE":" ","ALLEY":" ","HOUSE_NO":"７３號二樓","E_COORD97":178390.28,"N_COORD97":2539310.8900000001,"ADDRESS":"二甲７３號二樓","OBJECTID":278964},"geometry":{"x":178390.28000000119,"y":2539310.8900000025}},{"attributes":{"ID":278971,"DIS_CODE":0,"TOWNNAME":"歸仁區","LI":"沙崙里","LIN":"2鄰","STREET":" ","SECT":" ","MAREA":"二甲","LANE":" ","ALLEY":" ","HOUSE_NO":"７３號三樓","E_COORD97":178390.28,"N_COORD97":2539310.8900000001,"ADDRESS":"二甲７３號三樓","OBJECTID":278965},"geometry":{"x":178390.28000000119,"y":2539310.8900000025}},{"attributes":{"ID":278972,"DIS_CODE":0,"TOWNNAME":"新市區","LI":"新和里","LIN":"31鄰","STREET":"光華街","SECT":" ","MAREA":" ","LANE":"２３４巷","ALLEY":" ","HOUSE_NO":"１６號","E_COORD97":177890.26000000001,"N_COORD97":2553056.25,"ADDRESS":"光華街２３４巷１６號","OBJECTID":278966},"geometry":{"x":177890.25999999978,"y":2553056.25}},{"attributes":{"ID":278973,"DIS_CODE":0,"TOWNNAME":"永康區","LI":"復國里","LIN":"31鄰","STREET":"復國一路","SECT":" ","MAREA":" ","LANE":"１５９巷","ALLEY":" ","HOUSE_NO":"１０號","E_COORD97":172680.41,"N_COORD97":2545181.21,"ADDRESS":"復國一路１５９巷１０號","OBJECTID":278967},"geometry":{"x":172680.41000000015,"y":2545181.2100000028}},{"attributes":{"ID":278974,"DIS_CODE":0,"TOWNNAME":"永康區","LI":"復國里","LIN":"31鄰","STREET":"復國一路","SECT":" ","MAREA":" ","LANE":"１４１巷","ALLEY":" ","HOUSE_NO":"１０號","E_COORD97":172679.41,"N_COORD97":2545146.7599999998,"ADDRESS":"復國一路１４１巷１０號","OBJECTID":278968},"geometry":{"x":172679.41000000108,"y":2545146.7599999998}},{"attributes":{"ID":278975,"DIS_CODE":0,"TOWNNAME":"永康區","LI":"復國里","LIN":"31鄰","STREET":"復國一路","SECT":" ","MAREA":" ","LANE":"１４１巷","ALLEY":" ","HOUSE_NO":"８號","E_COORD97":172682.23000000001,"N_COORD97":2545146.2599999998,"ADDRESS":"復國一路１４１巷８號","OBJECTID":278969},"geometry":{"x":172682.23000000045,"y":2545146.2599999998}},{"attributes":{"ID":278976,"DIS_CODE":0,"TOWNNAME":"永康區","LI":"復國里","LIN":"31鄰","STREET":"復國一路","SECT":" ","MAREA":" ","LANE":"１４１巷","ALLEY":" ","HOUSE_NO":"５號","E_COORD97":172684.47,"N_COORD97":2545123.1499999999,"ADDRESS":"復國一路１４１巷５號","OBJECTID":278970},"geometry":{"x":172684.46999999974,"y":2545123.1500000022}},{"attributes":{"ID":278977,"DIS_CODE":0,"TOWNNAME":"永康區","LI":"復國里","LIN":"31鄰","STREET":"復國一路","SECT":" ","MAREA":" ","LANE":"１５９巷","ALLEY":" ","HOUSE_NO":"１號","E_COORD97":172694.79000000001,"N_COORD97":2545162.5299999998,"ADDRESS":"復國一路１５９巷１號","OBJECTID":278971},"geometry":{"x":172694.79000000004,"y":2545162.5300000031}},{"attributes":{"ID":278978,"DIS_CODE":0,"TOWNNAME":"永康區","LI":"埔園里","LIN":"31鄰","STREET":"永大路","SECT":"三段","MAREA":" ","LANE":"４６９巷","ALLEY":" ","HOUSE_NO":"１５６號","E_COORD97":173729.67000000001,"N_COORD97":2548801.5899999999,"ADDRESS":"永大路三段４６９巷１５６號","OBJECTID":278972},"geometry":{"x":173729.66999999993,"y":2548801.5900000017}},{"attributes":{"ID":278979,"DIS_CODE":0,"TOWNNAME":"永康區","LI":"埔園里","LIN":"31鄰","STREET":"永大路","SECT":"三段","MAREA":" ","LANE":"４６９巷","ALLEY":" ","HOUSE_NO":"１５０號","E_COORD97":173738.85999999999,"N_COORD97":2548800.0899999999,"ADDRESS":"永大路三段４６９巷１５０號","OBJECTID":278973},"geometry":{"x":173738.86000000034,"y":2548800.0899999999}},{"attributes":{"ID":278980,"DIS_CODE":0,"TOWNNAME":"仁德區","LI":"後壁里","LIN":"31鄰","STREET":"德洋路","SECT":" ","MAREA":" ","LANE":"１８０巷","ALLEY":" ","HOUSE_NO":"１１號","E_COORD97":172535.64000000001,"N_COORD97":2539455.2599999998,"ADDRESS":"德洋路１８０巷１１號","OBJECTID":278974},"geometry":{"x":172535.63999999966,"y":2539455.2599999979}},{"attributes":{"ID":278981,"DIS_CODE":0,"TOWNNAME":"仁德區","LI":"後壁里","LIN":"31鄰","STREET":"德洋路","SECT":" ","MAREA":" ","LANE":"１８０巷","ALLEY":" ","HOUSE_NO":"１９號","E_COORD97":172547.79000000001,"N_COORD97":2539481.77,"ADDRESS":"德洋路１８０巷１９號","OBJECTID":278975},"geometry":{"x":172547.7900000019,"y":2539481.7699999996}},{"attributes":{"ID":278982,"DIS_CODE":0,"TOWNNAME":"仁德區","LI":"後壁里","LIN":"31鄰","STREET":"德洋路","SECT":" ","MAREA":" ","LANE":"１８０巷","ALLEY":" ","HOUSE_NO":"２５號","E_COORD97":172556.45000000001,"N_COORD97":2539501.27,"ADDRESS":"德洋路１８０巷２５號","OBJECTID":278976},"geometry":{"x":172556.45000000019,"y":2539501.2699999996}},{"attributes":{"ID":278983,"DIS_CODE":0,"TOWNNAME":"仁德區","LI":"後壁里","LIN":"31鄰","STREET":"德洋路","SECT":" ","MAREA":" ","LANE":"１８０巷","ALLEY":" ","HOUSE_NO":"６號","E_COORD97":172536.32999999999,"N_COORD97":2539420.5099999998,"ADDRESS":"德洋路１８０巷６號","OBJECTID":278977},"geometry":{"x":172536.33000000101,"y":2539420.5100000016}},{"attributes":{"ID":278984,"DIS_CODE":0,"TOWNNAME":"仁德區","LI":"後壁里","LIN":"31鄰","STREET":"德洋路","SECT":" ","MAREA":" ","LANE":"１８０巷","ALLEY":" ","HOUSE_NO":"２１號","E_COORD97":172549.64000000001,"N_COORD97":2539486.02,"ADDRESS":"德洋路１８０巷２１號","OBJECTID":278978},"geometry":{"x":172549.63999999966,"y":2539486.0199999996}},{"attributes":{"ID":278985,"DIS_CODE":0,"TOWNNAME":"仁德區","LI":"後壁里","LIN":"31鄰","STREET":"德洋路","SECT":" ","MAREA":" ","LANE":"１８０巷","ALLEY":" ","HOUSE_NO":"１６號","E_COORD97":172567.14999999999,"N_COORD97":2539497.77,"ADDRESS":"德洋路１８０巷１６號","OBJECTID":278979},"geometry":{"x":172567.15000000037,"y":2539497.7699999996}},{"attributes":{"ID":278986,"DIS_CODE":0,"TOWNNAME":"仁德區","LI":"後壁里","LIN":"31鄰","STREET":"德洋路","SECT":" ","MAREA":" ","LANE":"１８０巷","ALLEY":" ","HOUSE_NO":"１８號","E_COORD97":172570.17999999999,"N_COORD97":2539504.77,"ADDRESS":"德洋路１８０巷１８號","OBJECTID":278980},"geometry":{"x":172570.18000000156,"y":2539504.7699999996}},{"attributes":{"ID":278987,"DIS_CODE":0,"TOWNNAME":"仁德區","LI":"後壁里","LIN":"31鄰","STREET":"德洋路","SECT":" ","MAREA":" ","LANE":"１８０巷","ALLEY":" ","HOUSE_NO":"２４號","E_COORD97":172579.29999999999,"N_COORD97":2539525.2599999998,"ADDRESS":"德洋路１８０巷２４號","OBJECTID":278981},"geometry":{"x":172579.29999999981,"y":2539525.2599999998}},{"attributes":{"ID":278988,"DIS_CODE":0,"TOWNNAME":"仁德區","LI":"成功里","LIN":"31鄰","STREET":"成功一街","SECT":" ","MAREA":" ","LANE":"１９巷","ALLEY":" ","HOUSE_NO":"４號","E_COORD97":170559.85999999999,"N_COORD97":2540162.2599999998,"ADDRESS":"成功一街１９巷４號","OBJECTID":278982},"geometry":{"x":170559.86000000127,"y":2540162.2600000016}},{"attributes":{"ID":278989,"DIS_CODE":0,"TOWNNAME":"仁德區","LI":"成功里","LIN":"31鄰","STREET":"成功一街","SECT":" ","MAREA":" ","LANE":"１９巷","ALLEY":" ","HOUSE_NO":"６號","E_COORD97":170566.54000000001,"N_COORD97":2540162.2599999998,"ADDRESS":"成功一街１９巷６號","OBJECTID":278983},"geometry":{"x":170566.54000000097,"y":2540162.2600000016}},{"attributes":{"ID":278990,"DIS_CODE":0,"TOWNNAME":"東區","LI":"裕聖里","LIN":"7鄰","STREET":"裕華一街","SECT":" ","MAREA":" ","LANE":" ","ALLEY":" ","HOUSE_NO":"２６號","E_COORD97":172797.32999999999,"N_COORD97":2542179.23,"ADDRESS":"裕華一街２６號","OBJECTID":278984},"geometry":{"x":172797.33000000101,"y":2542179.2300000023}},{"attributes":{"ID":278991,"DIS_CODE":0,"TOWNNAME":"東區","LI":"崇德里","LIN":"7鄰","STREET":"崇德六街","SECT":" ","MAREA":" ","LANE":" ","ALLEY":" ","HOUSE_NO":"７６號","E_COORD97":170831.48999999999,"N_COORD97":2541849.71,"ADDRESS":"崇德六街７６號","OBJECTID":278985},"geometry":{"x":170831.49000000115,"y":2541849.7100000009}},{"attributes":{"ID":278992,"DIS_CODE":0,"TOWNNAME":"仁德區","LI":"成功里","LIN":"31鄰","STREET":"成功一街","SECT":" ","MAREA":" ","LANE":"１９巷","ALLEY":" ","HOUSE_NO":"１號","E_COORD97":170555.51000000001,"N_COORD97":2540176.7599999998,"ADDRESS":"成功一街１９巷１號","OBJECTID":278986},"geometry":{"x":170555.50999999978,"y":2540176.7599999998}},{"attributes":{"ID":278993,"DIS_CODE":0,"TOWNNAME":"仁德區","LI":"成功里","LIN":"31鄰","STREET":"成功一街","SECT":" ","MAREA":" ","LANE":"１９巷","ALLEY":" ","HOUSE_NO":"３號","E_COORD97":170562.04000000001,"N_COORD97":2540176.2599999998,"ADDRESS":"成功一街１９巷３號","OBJECTID":278987},"geometry":{"x":170562.04000000004,"y":2540176.2599999998}},{"attributes":{"ID":278994,"DIS_CODE":0,"TOWNNAME":"仁德區","LI":"後壁里","LIN":"31鄰","STREET":"德洋路","SECT":" ","MAREA":" ","LANE":"１８０巷","ALLEY":" ","HOUSE_NO":"２２號","E_COORD97":172576.19,"N_COORD97":2539518.2599999998,"ADDRESS":"德洋路１８０巷２２號","OBJECTID":278988},"geometry":{"x":172576.19000000134,"y":2539518.2599999998}},{"attributes":{"ID":278995,"DIS_CODE":0,"TOWNNAME":"仁德區","LI":"成功里","LIN":"31鄰","STREET":"成功一街","SECT":" ","MAREA":" ","LANE":"１９巷","ALLEY":" ","HOUSE_NO":"５號","E_COORD97":170569.03,"N_COORD97":2540175.2599999998,"ADDRESS":"成功一街１９巷５號","OBJECTID":278989},"geometry":{"x":170569.03000000026,"y":2540175.2600000016}},{"attributes":{"ID":278996,"DIS_CODE":0,"TOWNNAME":"永康區","LI":"五王里","LIN":"31鄰","STREET":"五福街","SECT":" ","MAREA":" ","LANE":"９巷","ALLEY":" ","HOUSE_NO":"１５號","E_COORD97":171250.17000000001,"N_COORD97":2545905,"ADDRESS":"五福街９巷１５號","OBJECTID":278990},"geometry":{"x":171250.17000000086,"y":2545905}},{"attributes":{"ID":278997,"DIS_CODE":0,"TOWNNAME":"永康區","LI":"五王里","LIN":"31鄰","STREET":"五福街","SECT":" ","MAREA":" ","LANE":"９巷","ALLEY":" ","HOUSE_NO":"９號","E_COORD97":171254.32999999999,"N_COORD97":2545893.6400000001,"ADDRESS":"五福街９巷９號","OBJECTID":278991},"geometry":{"x":171254.33000000101,"y":2545893.6400000025}},{"attributes":{"ID":278998,"DIS_CODE":0,"TOWNNAME":"永康區","LI":"五王里","LIN":"31鄰","STREET":"五福街","SECT":" ","MAREA":" ","LANE":"９巷","ALLEY":" ","HOUSE_NO":"３號","E_COORD97":171261.60000000001,"N_COORD97":2545882.9900000002,"ADDRESS":"五福街９巷３號","OBJECTID":278992},"geometry":{"x":171261.59999999963,"y":2545882.9900000021}},{"attributes":{"ID":278999,"DIS_CODE":0,"TOWNNAME":"永康區","LI":"二王里","LIN":"31鄰","STREET":"中山南路","SECT":" ","MAREA":" ","LANE":"５１０巷","ALLEY":" ","HOUSE_NO":"２８號","E_COORD97":172162.98999999999,"N_COORD97":2546430.3799999999,"ADDRESS":"中山南路５１０巷２８號","OBJECTID":278993},"geometry":{"x":172162.99000000022,"y":2546430.379999999}},{"attributes":{"ID":279000,"DIS_CODE":0,"TOWNNAME":"永康區","LI":"二王里","LIN":"31鄰","STREET":"中山南路","SECT":" ","MAREA":" ","LANE":"５１０巷","ALLEY":" ","HOUSE_NO":"１６號","E_COORD97":172138.89999999999,"N_COORD97":2546447.4700000002,"ADDRESS":"中山南路５１０巷１６號","OBJECTID":278994},"geometry":{"x":172138.9000000013,"y":2546447.4700000025}},{"attributes":{"ID":279001,"DIS_CODE":0,"TOWNNAME":"永康區","LI":"大灣里","LIN":"31鄰","STREET":"民族路","SECT":" ","MAREA":" ","LANE":"１２６巷","ALLEY":" ","HOUSE_NO":"１７號之２","E_COORD97":175366.07000000001,"N_COORD97":2544976.7799999998,"ADDRESS":"民族路１２６巷１７號之２","OBJECTID":278995},"geometry":{"x":175366.0700000003,"y":2544976.7799999993}},{"attributes":{"ID":279002,"DIS_CODE":0,"TOWNNAME":"安南區","LI":"安富里","LIN":"31鄰","STREET":"海佃路","SECT":"一段","MAREA":" ","LANE":"１５８巷","ALLEY":" ","HOUSE_NO":"１１０號","E_COORD97":167479.85000000001,"N_COORD97":2547231.7999999998,"ADDRESS":"海佃路一段１５８巷１１０號","OBJECTID":278996},"geometry":{"x":167479.85000000149,"y":2547231.8000000026}},{"attributes":{"ID":279003,"DIS_CODE":0,"TOWNNAME":"安南區","LI":"安富里","LIN":"31鄰","STREET":"海佃路","SECT":"一段","MAREA":" ","LANE":"１５８巷","ALLEY":" ","HOUSE_NO":"１１２號","E_COORD97":167484.01000000001,"N_COORD97":2547236.27,"ADDRESS":"海佃路一段１５８巷１１２號","OBJECTID":278997},"geometry":{"x":167484.01000000164,"y":2547236.2700000033}},{"attributes":{"ID":279004,"DIS_CODE":0,"TOWNNAME":"安南區","LI":"安富里","LIN":"31鄰","STREET":"海佃路","SECT":"一段","MAREA":" ","LANE":"１５８巷","ALLEY":" ","HOUSE_NO":"６８號","E_COORD97":167324.04000000001,"N_COORD97":2547210.6200000001,"ADDRESS":"海佃路一段１５８巷６８號","OBJECTID":278998},"geometry":{"x":167324.04000000004,"y":2547210.620000001}},{"attributes":{"ID":279005,"DIS_CODE":0,"TOWNNAME":"安南區","LI":"安富里","LIN":"31鄰","STREET":"海佃路","SECT":"一段","MAREA":" ","LANE":"１５８巷","ALLEY":" ","HOUSE_NO":"８２號","E_COORD97":167390.09,"N_COORD97":2547222.6400000001,"ADDRESS":"海佃路一段１５８巷８２號","OBJECTID":278999},"geometry":{"x":167390.08999999985,"y":2547222.6400000025}},{"attributes":{"ID":279006,"DIS_CODE":0,"TOWNNAME":"安南區","LI":"安富里","LIN":"31鄰","STREET":"海佃路","SECT":"一段","MAREA":" ","LANE":"１５８巷","ALLEY":" ","HOUSE_NO":"９２號","E_COORD97":167419.42000000001,"N_COORD97":2547227.0099999998,"ADDRESS":"海佃路一段１５８巷９２號","OBJECTID":279000},"geometry":{"x":167419.42000000086,"y":2547227.0099999998}}]}