{"displayFieldName":"TOWNNAME","fieldAliases":{"ID":"ID","DIS_CODE":"DIS_CODE","TOWNNAME":"TOWNNAME","LI":"LI","LIN":"LIN","STREET":"STREET","SECT":"SECT","MAREA":"MAREA","LANE":"LANE","ALLEY":"ALLEY","HOUSE_NO":"HOUSE_NO","E_COORD97":"E_COORD97","N_COORD97":"N_COORD97","ADDRESS":"ADDRESS","OBJECTID":"OBJECTID"},"geometryType":"esriGeometryPoint","spatialReference":{"wkid":102443,"latestWkid":3826},"fields":[{"name":"ID","type":"esriFieldTypeDouble","alias":"ID"},{"name":"DIS_CODE","type":"esriFieldTypeInteger","alias":"DIS_CODE"},{"name":"TOWNNAME","type":"esriFieldTypeString","alias":"TOWNNAME","length":8},{"name":"LI","type":"esriFieldTypeString","alias":"LI","length":8},{"name":"LIN","type":"esriFieldTypeString","alias":"LIN","length":12},{"name":"STREET","type":"esriFieldTypeString","alias":"STREET","length":20},{"name":"SECT","type":"esriFieldTypeString","alias":"SECT","length":8},{"name":"MAREA","type":"esriFieldTypeString","alias":"MAREA","length":12},{"name":"LANE","type":"esriFieldTypeString","alias":"LANE","length":10},{"name":"ALLEY","type":"esriFieldTypeString","alias":"ALLEY","length":10},{"name":"HOUSE_NO","type":"esriFieldTypeString","alias":"HOUSE_NO","length":20},{"name":"E_COORD97","type":"esriFieldTypeDouble","alias":"E_COORD97"},{"name":"N_COORD97","type":"esriFieldTypeDouble","alias":"N_COORD97"},{"name":"ADDRESS","type":"esriFieldTypeString","alias":"ADDRESS","length":50},{"name":"OBJECTID","type":"esriFieldTypeOID","alias":"OBJECTID"}],"features":[{"attributes":{"ID":502228,"DIS_CODE":0,"TOWNNAME":"新化區","LI":"北勢里","LIN":"7鄰","STREET":"中正路","SECT":" ","MAREA":" ","LANE":" ","ALLEY":" ","HOUSE_NO":"１２１１號三樓之１９","E_COORD97":177943.28,"N_COORD97":2551050.2999999998,"ADDRESS":"中正路１２１１號三樓之１９","OBJECTID":502201},"geometry":{"x":177943.28000000026,"y":2551050.3000000007}},{"attributes":{"ID":502229,"DIS_CODE":0,"TOWNNAME":"新化區","LI":"北勢里","LIN":"7鄰","STREET":"中正路","SECT":" ","MAREA":" ","LANE":" ","ALLEY":" ","HOUSE_NO":"１２１１號六樓之１６","E_COORD97":177943.29999999999,"N_COORD97":2551050.2999999998,"ADDRESS":"中正路１２１１號六樓之１６","OBJECTID":502202},"geometry":{"x":177943.30000000075,"y":2551050.3000000007}},{"attributes":{"ID":502230,"DIS_CODE":0,"TOWNNAME":"新化區","LI":"北勢里","LIN":"7鄰","STREET":"中正路","SECT":" ","MAREA":" ","LANE":" ","ALLEY":" ","HOUSE_NO":"１２１１號五樓之２２","E_COORD97":177943.32999999999,"N_COORD97":2551050.2999999998,"ADDRESS":"中正路１２１１號五樓之２２","OBJECTID":502203},"geometry":{"x":177943.33000000194,"y":2551050.3000000007}},{"attributes":{"ID":502231,"DIS_CODE":0,"TOWNNAME":"新化區","LI":"北勢里","LIN":"7鄰","STREET":"中正路","SECT":" ","MAREA":" ","LANE":" ","ALLEY":" ","HOUSE_NO":"１２１１號八樓之１２","E_COORD97":177943.32999999999,"N_COORD97":2551050.2999999998,"ADDRESS":"中正路１２１１號八樓之１２","OBJECTID":502204},"geometry":{"x":177943.33000000194,"y":2551050.3000000007}},{"attributes":{"ID":502232,"DIS_CODE":0,"TOWNNAME":"新化區","LI":"北勢里","LIN":"7鄰","STREET":"中正路","SECT":" ","MAREA":" ","LANE":" ","ALLEY":" ","HOUSE_NO":"１２１１號二樓之５","E_COORD97":177942.10000000001,"N_COORD97":2551050.2999999998,"ADDRESS":"中正路１２１１號二樓之５","OBJECTID":502205},"geometry":{"x":177942.09999999963,"y":2551050.3000000007}},{"attributes":{"ID":502233,"DIS_CODE":0,"TOWNNAME":"新化區","LI":"北勢里","LIN":"7鄰","STREET":"中正路","SECT":" ","MAREA":" ","LANE":" ","ALLEY":" ","HOUSE_NO":"１２１１號四樓之１","E_COORD97":177941.95000000001,"N_COORD97":2551050.2999999998,"ADDRESS":"中正路１２１１號四樓之１","OBJECTID":502206},"geometry":{"x":177941.95000000019,"y":2551050.3000000007}},{"attributes":{"ID":502234,"DIS_CODE":0,"TOWNNAME":"新化區","LI":"北勢里","LIN":"7鄰","STREET":"中正路","SECT":" ","MAREA":" ","LANE":" ","ALLEY":" ","HOUSE_NO":"１２１１號四樓之１６","E_COORD97":177943.29999999999,"N_COORD97":2551050.2999999998,"ADDRESS":"中正路１２１１號四樓之１６","OBJECTID":502207},"geometry":{"x":177943.30000000075,"y":2551050.3000000007}},{"attributes":{"ID":502235,"DIS_CODE":0,"TOWNNAME":"新化區","LI":"北勢里","LIN":"7鄰","STREET":"中正路","SECT":" ","MAREA":" ","LANE":" ","ALLEY":" ","HOUSE_NO":"１２１１號三樓之１１","E_COORD97":177943.20000000001,"N_COORD97":2551050.2999999998,"ADDRESS":"中正路１２１１號三樓之１１","OBJECTID":502208},"geometry":{"x":177943.20000000112,"y":2551050.3000000007}},{"attributes":{"ID":502236,"DIS_CODE":0,"TOWNNAME":"新化區","LI":"北勢里","LIN":"7鄰","STREET":"中正路","SECT":" ","MAREA":" ","LANE":" ","ALLEY":" ","HOUSE_NO":"１２１１號七樓之２３","E_COORD97":177943.29999999999,"N_COORD97":2551050.2999999998,"ADDRESS":"中正路１２１１號七樓之２３","OBJECTID":502209},"geometry":{"x":177943.30000000075,"y":2551050.3000000007}},{"attributes":{"ID":502237,"DIS_CODE":0,"TOWNNAME":"新化區","LI":"北勢里","LIN":"7鄰","STREET":"中正路","SECT":" ","MAREA":" ","LANE":" ","ALLEY":" ","HOUSE_NO":"１２１１號五樓之１６","E_COORD97":177943.29999999999,"N_COORD97":2551050.2999999998,"ADDRESS":"中正路１２１１號五樓之１６","OBJECTID":502210},"geometry":{"x":177943.30000000075,"y":2551050.3000000007}},{"attributes":{"ID":502238,"DIS_CODE":0,"TOWNNAME":"新化區","LI":"北勢里","LIN":"7鄰","STREET":"中正路","SECT":" ","MAREA":" ","LANE":" ","ALLEY":" ","HOUSE_NO":"１２１１號八樓之２０","E_COORD97":177943.25,"N_COORD97":2551050.2999999998,"ADDRESS":"中正路１２１１號八樓之２０","OBJECTID":502211},"geometry":{"x":177943.25,"y":2551050.3000000007}},{"attributes":{"ID":502239,"DIS_CODE":0,"TOWNNAME":"新化區","LI":"北勢里","LIN":"7鄰","STREET":"中正路","SECT":" ","MAREA":" ","LANE":" ","ALLEY":" ","HOUSE_NO":"１２１１號二樓之１１","E_COORD97":177943.20000000001,"N_COORD97":2551050.2999999998,"ADDRESS":"中正路１２１１號二樓之１１","OBJECTID":502212},"geometry":{"x":177943.20000000112,"y":2551050.3000000007}},{"attributes":{"ID":502240,"DIS_CODE":0,"TOWNNAME":"新化區","LI":"北勢里","LIN":"7鄰","STREET":"中正路","SECT":" ","MAREA":" ","LANE":" ","ALLEY":" ","HOUSE_NO":"１２１１號四樓之２２","E_COORD97":177943.32999999999,"N_COORD97":2551050.2999999998,"ADDRESS":"中正路１２１１號四樓之２２","OBJECTID":502213},"geometry":{"x":177943.33000000194,"y":2551050.3000000007}},{"attributes":{"ID":502241,"DIS_CODE":0,"TOWNNAME":"善化區","LI":"小新里","LIN":"7鄰","STREET":"成功路","SECT":" ","MAREA":" ","LANE":" ","ALLEY":" ","HOUSE_NO":"１５３號","E_COORD97":179764.72,"N_COORD97":2558649.8599999999,"ADDRESS":"成功路１５３號","OBJECTID":502214},"geometry":{"x":179764.72000000067,"y":2558649.8599999994}},{"attributes":{"ID":502242,"DIS_CODE":0,"TOWNNAME":"新化區","LI":"北勢里","LIN":"7鄰","STREET":"金華街","SECT":"一段","MAREA":" ","LANE":" ","ALLEY":" ","HOUSE_NO":"２號四樓之１","E_COORD97":177906.20000000001,"N_COORD97":2550965.2999999998,"ADDRESS":"金華街一段２號四樓之１","OBJECTID":502215},"geometry":{"x":177906.20000000019,"y":2550965.3000000007}},{"attributes":{"ID":502243,"DIS_CODE":0,"TOWNNAME":"新化區","LI":"北勢里","LIN":"7鄰","STREET":"中正路","SECT":" ","MAREA":" ","LANE":" ","ALLEY":" ","HOUSE_NO":"１２１１號七樓之１１","E_COORD97":177943.20000000001,"N_COORD97":2551050.2999999998,"ADDRESS":"中正路１２１１號七樓之１１","OBJECTID":502216},"geometry":{"x":177943.20000000112,"y":2551050.3000000007}},{"attributes":{"ID":502244,"DIS_CODE":0,"TOWNNAME":"新化區","LI":"北勢里","LIN":"7鄰","STREET":"金華街","SECT":"一段","MAREA":" ","LANE":" ","ALLEY":" ","HOUSE_NO":"２號七樓之３","E_COORD97":177906.29999999999,"N_COORD97":2550965.2999999998,"ADDRESS":"金華街一段２號七樓之３","OBJECTID":502217},"geometry":{"x":177906.30000000075,"y":2550965.3000000007}},{"attributes":{"ID":502245,"DIS_CODE":0,"TOWNNAME":"新化區","LI":"北勢里","LIN":"7鄰","STREET":"中正路","SECT":" ","MAREA":" ","LANE":" ","ALLEY":" ","HOUSE_NO":"１２１１號九樓之１３","E_COORD97":177943.29999999999,"N_COORD97":2551050.2999999998,"ADDRESS":"中正路１２１１號九樓之１３","OBJECTID":502218},"geometry":{"x":177943.30000000075,"y":2551050.3000000007}},{"attributes":{"ID":502246,"DIS_CODE":0,"TOWNNAME":"新化區","LI":"北勢里","LIN":"7鄰","STREET":"金華街","SECT":"一段","MAREA":" ","LANE":" ","ALLEY":" ","HOUSE_NO":"１０號五樓之３","E_COORD97":177907.54999999999,"N_COORD97":2550965.2999999998,"ADDRESS":"金華街一段１０號五樓之３","OBJECTID":502219},"geometry":{"x":177907.55000000168,"y":2550965.3000000007}},{"attributes":{"ID":502247,"DIS_CODE":0,"TOWNNAME":"新化區","LI":"北勢里","LIN":"7鄰","STREET":"金華街","SECT":"一段","MAREA":" ","LANE":" ","ALLEY":" ","HOUSE_NO":"１８號二樓之２","E_COORD97":177907.59,"N_COORD97":2550965.2999999998,"ADDRESS":"金華街一段１８號二樓之２","OBJECTID":502220},"geometry":{"x":177907.59000000078,"y":2550965.3000000007}},{"attributes":{"ID":502248,"DIS_CODE":0,"TOWNNAME":"新化區","LI":"北勢里","LIN":"7鄰","STREET":"中正路","SECT":" ","MAREA":" ","LANE":" ","ALLEY":" ","HOUSE_NO":"１２１１號二樓之１９","E_COORD97":177943.28,"N_COORD97":2551050.2999999998,"ADDRESS":"中正路１２１１號二樓之１９","OBJECTID":502221},"geometry":{"x":177943.28000000026,"y":2551050.3000000007}},{"attributes":{"ID":502249,"DIS_CODE":0,"TOWNNAME":"北區","LI":"三德里","LIN":"4鄰","STREET":"裕民街","SECT":" ","MAREA":" ","LANE":" ","ALLEY":" ","HOUSE_NO":"７８號","E_COORD97":168504.39000000001,"N_COORD97":2544507.3199999998,"ADDRESS":"裕民街７８號","OBJECTID":502222},"geometry":{"x":168504.3900000006,"y":2544507.320000004}},{"attributes":{"ID":502250,"DIS_CODE":0,"TOWNNAME":"新化區","LI":"北勢里","LIN":"7鄰","STREET":"金華街","SECT":"一段","MAREA":" ","LANE":" ","ALLEY":" ","HOUSE_NO":"２號五樓之２","E_COORD97":177906.34,"N_COORD97":2550965.2999999998,"ADDRESS":"金華街一段２號五樓之２","OBJECTID":502223},"geometry":{"x":177906.34000000078,"y":2550965.3000000007}},{"attributes":{"ID":502251,"DIS_CODE":0,"TOWNNAME":"新化區","LI":"北勢里","LIN":"7鄰","STREET":"中正路","SECT":" ","MAREA":" ","LANE":" ","ALLEY":" ","HOUSE_NO":"１２１１號五樓之７","E_COORD97":177942.03,"N_COORD97":2551050.2999999998,"ADDRESS":"中正路１２１１號五樓之７","OBJECTID":502224},"geometry":{"x":177942.03000000212,"y":2551050.3000000007}},{"attributes":{"ID":502252,"DIS_CODE":0,"TOWNNAME":"新化區","LI":"北勢里","LIN":"7鄰","STREET":"中正路","SECT":" ","MAREA":" ","LANE":" ","ALLEY":" ","HOUSE_NO":"１２１１號三樓之２６","E_COORD97":177943.29999999999,"N_COORD97":2551050.2999999998,"ADDRESS":"中正路１２１１號三樓之２６","OBJECTID":502225},"geometry":{"x":177943.30000000075,"y":2551050.3000000007}},{"attributes":{"ID":502253,"DIS_CODE":0,"TOWNNAME":"新化區","LI":"北勢里","LIN":"7鄰","STREET":"中正路","SECT":" ","MAREA":" ","LANE":" ","ALLEY":" ","HOUSE_NO":"１２１１號九樓之２０","E_COORD97":177943.25,"N_COORD97":2551050.2999999998,"ADDRESS":"中正路１２１１號九樓之２０","OBJECTID":502226},"geometry":{"x":177943.25,"y":2551050.3000000007}},{"attributes":{"ID":502254,"DIS_CODE":0,"TOWNNAME":"新化區","LI":"北勢里","LIN":"7鄰","STREET":"中正路","SECT":" ","MAREA":" ","LANE":" ","ALLEY":" ","HOUSE_NO":"１２１１號七樓之７","E_COORD97":177942.03,"N_COORD97":2551050.2999999998,"ADDRESS":"中正路１２１１號七樓之７","OBJECTID":502227},"geometry":{"x":177942.03000000212,"y":2551050.3000000007}},{"attributes":{"ID":502255,"DIS_CODE":0,"TOWNNAME":"新化區","LI":"北勢里","LIN":"7鄰","STREET":"中正路","SECT":" ","MAREA":" ","LANE":" ","ALLEY":" ","HOUSE_NO":"１２１１號六樓之７","E_COORD97":177942.03,"N_COORD97":2551050.2999999998,"ADDRESS":"中正路１２１１號六樓之７","OBJECTID":502228},"geometry":{"x":177942.03000000212,"y":2551050.3000000007}},{"attributes":{"ID":502256,"DIS_CODE":0,"TOWNNAME":"新化區","LI":"北勢里","LIN":"7鄰","STREET":"中正路","SECT":" ","MAREA":" ","LANE":" ","ALLEY":" ","HOUSE_NO":"１２１１號四樓之７","E_COORD97":177942.03,"N_COORD97":2551050.2999999998,"ADDRESS":"中正路１２１１號四樓之７","OBJECTID":502229},"geometry":{"x":177942.03000000212,"y":2551050.3000000007}},{"attributes":{"ID":502257,"DIS_CODE":0,"TOWNNAME":"新化區","LI":"北勢里","LIN":"7鄰","STREET":"金華街","SECT":"一段","MAREA":" ","LANE":" ","ALLEY":" ","HOUSE_NO":"２４號六樓之２","E_COORD97":177907.59,"N_COORD97":2550965.2999999998,"ADDRESS":"金華街一段２４號六樓之２","OBJECTID":502230},"geometry":{"x":177907.59000000078,"y":2550965.3000000007}},{"attributes":{"ID":502258,"DIS_CODE":0,"TOWNNAME":"新化區","LI":"北勢里","LIN":"7鄰","STREET":"中正路","SECT":" ","MAREA":" ","LANE":" ","ALLEY":" ","HOUSE_NO":"１２１１號七樓之１９","E_COORD97":177943.28,"N_COORD97":2551050.2999999998,"ADDRESS":"中正路１２１１號七樓之１９","OBJECTID":502231},"geometry":{"x":177943.28000000026,"y":2551050.3000000007}},{"attributes":{"ID":502259,"DIS_CODE":0,"TOWNNAME":"新化區","LI":"北勢里","LIN":"7鄰","STREET":"中正路","SECT":" ","MAREA":" ","LANE":" ","ALLEY":" ","HOUSE_NO":"１２１１號六樓之２３","E_COORD97":177943.29999999999,"N_COORD97":2551050.2999999998,"ADDRESS":"中正路１２１１號六樓之２３","OBJECTID":502232},"geometry":{"x":177943.30000000075,"y":2551050.3000000007}},{"attributes":{"ID":502260,"DIS_CODE":0,"TOWNNAME":"新化區","LI":"北勢里","LIN":"7鄰","STREET":"中正路","SECT":" ","MAREA":" ","LANE":" ","ALLEY":" ","HOUSE_NO":"１２１１號七樓之１３","E_COORD97":177943.29999999999,"N_COORD97":2551050.2999999998,"ADDRESS":"中正路１２１１號七樓之１３","OBJECTID":502233},"geometry":{"x":177943.30000000075,"y":2551050.3000000007}},{"attributes":{"ID":502261,"DIS_CODE":0,"TOWNNAME":"新化區","LI":"北勢里","LIN":"7鄰","STREET":"中正路","SECT":" ","MAREA":" ","LANE":" ","ALLEY":" ","HOUSE_NO":"１２１１號五樓之２６","E_COORD97":177943.29999999999,"N_COORD97":2551050.2999999998,"ADDRESS":"中正路１２１１號五樓之２６","OBJECTID":502234},"geometry":{"x":177943.30000000075,"y":2551050.3000000007}},{"attributes":{"ID":502262,"DIS_CODE":0,"TOWNNAME":"新化區","LI":"北勢里","LIN":"7鄰","STREET":"中正路","SECT":" ","MAREA":" ","LANE":" ","ALLEY":" ","HOUSE_NO":"１２１１號三樓之１８","E_COORD97":177943.35000000001,"N_COORD97":2551050.2999999998,"ADDRESS":"中正路１２１１號三樓之１８","OBJECTID":502235},"geometry":{"x":177943.35000000056,"y":2551050.3000000007}},{"attributes":{"ID":502263,"DIS_CODE":0,"TOWNNAME":"新化區","LI":"北勢里","LIN":"7鄰","STREET":"中正路","SECT":" ","MAREA":" ","LANE":" ","ALLEY":" ","HOUSE_NO":"１２１１號四樓之２","E_COORD97":177942.07999999999,"N_COORD97":2551050.2999999998,"ADDRESS":"中正路１２１１號四樓之２","OBJECTID":502236},"geometry":{"x":177942.08000000101,"y":2551050.3000000007}},{"attributes":{"ID":502264,"DIS_CODE":0,"TOWNNAME":"新化區","LI":"北勢里","LIN":"7鄰","STREET":"中正路","SECT":" ","MAREA":" ","LANE":" ","ALLEY":" ","HOUSE_NO":"１２１１號五樓之２０","E_COORD97":177943.25,"N_COORD97":2551050.2999999998,"ADDRESS":"中正路１２１１號五樓之２０","OBJECTID":502237},"geometry":{"x":177943.25,"y":2551050.3000000007}},{"attributes":{"ID":502265,"DIS_CODE":0,"TOWNNAME":"新化區","LI":"北勢里","LIN":"7鄰","STREET":"中正路","SECT":" ","MAREA":" ","LANE":" ","ALLEY":" ","HOUSE_NO":"１２１１號四樓之８","E_COORD97":177942.10000000001,"N_COORD97":2551050.2999999998,"ADDRESS":"中正路１２１１號四樓之８","OBJECTID":502238},"geometry":{"x":177942.09999999963,"y":2551050.3000000007}},{"attributes":{"ID":502266,"DIS_CODE":0,"TOWNNAME":"新化區","LI":"北勢里","LIN":"7鄰","STREET":"中正路","SECT":" ","MAREA":" ","LANE":" ","ALLEY":" ","HOUSE_NO":"１２１１號四樓之２６","E_COORD97":177943.29999999999,"N_COORD97":2551050.2999999998,"ADDRESS":"中正路１２１１號四樓之２６","OBJECTID":502239},"geometry":{"x":177943.30000000075,"y":2551050.3000000007}},{"attributes":{"ID":502267,"DIS_CODE":0,"TOWNNAME":"新化區","LI":"北勢里","LIN":"7鄰","STREET":"中正路","SECT":" ","MAREA":" ","LANE":" ","ALLEY":" ","HOUSE_NO":"１２１１號五樓之１３","E_COORD97":177943.29999999999,"N_COORD97":2551050.2999999998,"ADDRESS":"中正路１２１１號五樓之１３","OBJECTID":502240},"geometry":{"x":177943.30000000075,"y":2551050.3000000007}},{"attributes":{"ID":502268,"DIS_CODE":0,"TOWNNAME":"新化區","LI":"北勢里","LIN":"7鄰","STREET":"中正路","SECT":" ","MAREA":" ","LANE":" ","ALLEY":" ","HOUSE_NO":"１２１１號四樓之５","E_COORD97":177942.10000000001,"N_COORD97":2551050.2999999998,"ADDRESS":"中正路１２１１號四樓之５","OBJECTID":502241},"geometry":{"x":177942.09999999963,"y":2551050.3000000007}},{"attributes":{"ID":502269,"DIS_CODE":0,"TOWNNAME":"新化區","LI":"北勢里","LIN":"7鄰","STREET":"中正路","SECT":" ","MAREA":" ","LANE":" ","ALLEY":" ","HOUSE_NO":"１２１１號四樓之１７","E_COORD97":177943.28,"N_COORD97":2551050.2999999998,"ADDRESS":"中正路１２１１號四樓之１７","OBJECTID":502242},"geometry":{"x":177943.28000000026,"y":2551050.3000000007}},{"attributes":{"ID":502270,"DIS_CODE":0,"TOWNNAME":"新化區","LI":"北勢里","LIN":"7鄰","STREET":"中正路","SECT":" ","MAREA":" ","LANE":" ","ALLEY":" ","HOUSE_NO":"１２１１號四樓之１８","E_COORD97":177943.35000000001,"N_COORD97":2551050.2999999998,"ADDRESS":"中正路１２１１號四樓之１８","OBJECTID":502243},"geometry":{"x":177943.35000000056,"y":2551050.3000000007}},{"attributes":{"ID":502271,"DIS_CODE":0,"TOWNNAME":"新化區","LI":"北勢里","LIN":"7鄰","STREET":"中正路","SECT":" ","MAREA":" ","LANE":" ","ALLEY":" ","HOUSE_NO":"１２１１號三樓之８","E_COORD97":177942.10000000001,"N_COORD97":2551050.2999999998,"ADDRESS":"中正路１２１１號三樓之８","OBJECTID":502244},"geometry":{"x":177942.09999999963,"y":2551050.3000000007}},{"attributes":{"ID":502272,"DIS_CODE":0,"TOWNNAME":"新化區","LI":"北勢里","LIN":"7鄰","STREET":"中正路","SECT":" ","MAREA":" ","LANE":" ","ALLEY":" ","HOUSE_NO":"１２１１號三樓之２０","E_COORD97":177943.25,"N_COORD97":2551050.2999999998,"ADDRESS":"中正路１２１１號三樓之２０","OBJECTID":502245},"geometry":{"x":177943.25,"y":2551050.3000000007}},{"attributes":{"ID":502273,"DIS_CODE":0,"TOWNNAME":"新化區","LI":"北勢里","LIN":"7鄰","STREET":"中正路","SECT":" ","MAREA":" ","LANE":" ","ALLEY":" ","HOUSE_NO":"１２１１號五樓之２１","E_COORD97":177943.20000000001,"N_COORD97":2551050.2999999998,"ADDRESS":"中正路１２１１號五樓之２１","OBJECTID":502246},"geometry":{"x":177943.20000000112,"y":2551050.3000000007}},{"attributes":{"ID":502274,"DIS_CODE":0,"TOWNNAME":"新化區","LI":"北勢里","LIN":"7鄰","STREET":"中正路","SECT":" ","MAREA":" ","LANE":" ","ALLEY":" ","HOUSE_NO":"１２１１號六樓之２１","E_COORD97":177943.20000000001,"N_COORD97":2551050.2999999998,"ADDRESS":"中正路１２１１號六樓之２１","OBJECTID":502247},"geometry":{"x":177943.20000000112,"y":2551050.3000000007}},{"attributes":{"ID":502275,"DIS_CODE":0,"TOWNNAME":"新化區","LI":"北勢里","LIN":"7鄰","STREET":"中正路","SECT":" ","MAREA":" ","LANE":" ","ALLEY":" ","HOUSE_NO":"１２１１號五樓之２","E_COORD97":177942.07999999999,"N_COORD97":2551050.2999999998,"ADDRESS":"中正路１２１１號五樓之２","OBJECTID":502248},"geometry":{"x":177942.08000000101,"y":2551050.3000000007}},{"attributes":{"ID":502276,"DIS_CODE":0,"TOWNNAME":"新化區","LI":"北勢里","LIN":"7鄰","STREET":"中正路","SECT":" ","MAREA":" ","LANE":" ","ALLEY":" ","HOUSE_NO":"１２１１號四樓之１１","E_COORD97":177943.20000000001,"N_COORD97":2551050.2999999998,"ADDRESS":"中正路１２１１號四樓之１１","OBJECTID":502249},"geometry":{"x":177943.20000000112,"y":2551050.3000000007}},{"attributes":{"ID":502277,"DIS_CODE":0,"TOWNNAME":"新化區","LI":"北勢里","LIN":"7鄰","STREET":"中正路","SECT":" ","MAREA":" ","LANE":" ","ALLEY":" ","HOUSE_NO":"１２１１號三樓之１０","E_COORD97":177943.25,"N_COORD97":2551050.2999999998,"ADDRESS":"中正路１２１１號三樓之１０","OBJECTID":502250},"geometry":{"x":177943.25,"y":2551050.3000000007}},{"attributes":{"ID":502278,"DIS_CODE":0,"TOWNNAME":"新化區","LI":"北勢里","LIN":"7鄰","STREET":"中正路","SECT":" ","MAREA":" ","LANE":" ","ALLEY":" ","HOUSE_NO":"１２１１號六樓之１２","E_COORD97":177943.32999999999,"N_COORD97":2551050.2999999998,"ADDRESS":"中正路１２１１號六樓之１２","OBJECTID":502251},"geometry":{"x":177943.33000000194,"y":2551050.3000000007}},{"attributes":{"ID":502279,"DIS_CODE":0,"TOWNNAME":"新化區","LI":"北勢里","LIN":"7鄰","STREET":"中正路","SECT":" ","MAREA":" ","LANE":" ","ALLEY":" ","HOUSE_NO":"１２１１號九樓之９","E_COORD97":177942.03,"N_COORD97":2551050.2999999998,"ADDRESS":"中正路１２１１號九樓之９","OBJECTID":502252},"geometry":{"x":177942.03000000212,"y":2551050.3000000007}},{"attributes":{"ID":502280,"DIS_CODE":0,"TOWNNAME":"新化區","LI":"北勢里","LIN":"7鄰","STREET":"中正路","SECT":" ","MAREA":" ","LANE":" ","ALLEY":" ","HOUSE_NO":"１２１１號四樓之６","E_COORD97":177942.04999999999,"N_COORD97":2551050.2999999998,"ADDRESS":"中正路１２１１號四樓之６","OBJECTID":502253},"geometry":{"x":177942.05000000075,"y":2551050.3000000007}},{"attributes":{"ID":502281,"DIS_CODE":0,"TOWNNAME":"新化區","LI":"北勢里","LIN":"7鄰","STREET":"中正路","SECT":" ","MAREA":" ","LANE":" ","ALLEY":" ","HOUSE_NO":"１２１１號九樓之２５","E_COORD97":177943.35000000001,"N_COORD97":2551050.2999999998,"ADDRESS":"中正路１２１１號九樓之２５","OBJECTID":502254},"geometry":{"x":177943.35000000056,"y":2551050.3000000007}},{"attributes":{"ID":502282,"DIS_CODE":0,"TOWNNAME":"新化區","LI":"北勢里","LIN":"7鄰","STREET":"中正路","SECT":" ","MAREA":" ","LANE":" ","ALLEY":" ","HOUSE_NO":"１２１１號八樓之２５","E_COORD97":177943.35000000001,"N_COORD97":2551050.2999999998,"ADDRESS":"中正路１２１１號八樓之２５","OBJECTID":502255},"geometry":{"x":177943.35000000056,"y":2551050.3000000007}},{"attributes":{"ID":502283,"DIS_CODE":0,"TOWNNAME":"新化區","LI":"北勢里","LIN":"7鄰","STREET":"中正路","SECT":" ","MAREA":" ","LANE":" ","ALLEY":" ","HOUSE_NO":"１２１１號三樓之２３","E_COORD97":177943.29999999999,"N_COORD97":2551050.2999999998,"ADDRESS":"中正路１２１１號三樓之２３","OBJECTID":502256},"geometry":{"x":177943.30000000075,"y":2551050.3000000007}},{"attributes":{"ID":502284,"DIS_CODE":0,"TOWNNAME":"新化區","LI":"北勢里","LIN":"7鄰","STREET":"中正路","SECT":" ","MAREA":" ","LANE":" ","ALLEY":" ","HOUSE_NO":"１２１１號四樓之１２","E_COORD97":177943.32999999999,"N_COORD97":2551050.2999999998,"ADDRESS":"中正路１２１１號四樓之１２","OBJECTID":502257},"geometry":{"x":177943.33000000194,"y":2551050.3000000007}},{"attributes":{"ID":502285,"DIS_CODE":0,"TOWNNAME":"新化區","LI":"北勢里","LIN":"7鄰","STREET":"中正路","SECT":" ","MAREA":" ","LANE":" ","ALLEY":" ","HOUSE_NO":"１２１１號六樓之１０","E_COORD97":177943.25,"N_COORD97":2551050.2999999998,"ADDRESS":"中正路１２１１號六樓之１０","OBJECTID":502258},"geometry":{"x":177943.25,"y":2551050.3000000007}},{"attributes":{"ID":502286,"DIS_CODE":0,"TOWNNAME":"新化區","LI":"北勢里","LIN":"7鄰","STREET":"中正路","SECT":" ","MAREA":" ","LANE":" ","ALLEY":" ","HOUSE_NO":"１２１１號六樓之９","E_COORD97":177942.03,"N_COORD97":2551050.2999999998,"ADDRESS":"中正路１２１１號六樓之９","OBJECTID":502259},"geometry":{"x":177942.03000000212,"y":2551050.3000000007}},{"attributes":{"ID":502287,"DIS_CODE":0,"TOWNNAME":"新化區","LI":"北勢里","LIN":"7鄰","STREET":"中正路","SECT":" ","MAREA":" ","LANE":" ","ALLEY":" ","HOUSE_NO":"１２１１號四樓之９","E_COORD97":177942.03,"N_COORD97":2551050.2999999998,"ADDRESS":"中正路１２１１號四樓之９","OBJECTID":502260},"geometry":{"x":177942.03000000212,"y":2551050.3000000007}},{"attributes":{"ID":502288,"DIS_CODE":0,"TOWNNAME":"新化區","LI":"北勢里","LIN":"7鄰","STREET":"中正路","SECT":" ","MAREA":" ","LANE":" ","ALLEY":" ","HOUSE_NO":"１２１１號九樓之２３","E_COORD97":177943.29999999999,"N_COORD97":2551050.2999999998,"ADDRESS":"中正路１２１１號九樓之２３","OBJECTID":502261},"geometry":{"x":177943.30000000075,"y":2551050.3000000007}},{"attributes":{"ID":502289,"DIS_CODE":0,"TOWNNAME":"新化區","LI":"北勢里","LIN":"7鄰","STREET":"中正路","SECT":" ","MAREA":" ","LANE":" ","ALLEY":" ","HOUSE_NO":"１２１１號八樓之１８","E_COORD97":177943.35000000001,"N_COORD97":2551050.2999999998,"ADDRESS":"中正路１２１１號八樓之１８","OBJECTID":502262},"geometry":{"x":177943.35000000056,"y":2551050.3000000007}},{"attributes":{"ID":502290,"DIS_CODE":0,"TOWNNAME":"新化區","LI":"北勢里","LIN":"7鄰","STREET":"中正路","SECT":" ","MAREA":" ","LANE":" ","ALLEY":" ","HOUSE_NO":"１２１１號四樓之２５","E_COORD97":177943.35000000001,"N_COORD97":2551050.2999999998,"ADDRESS":"中正路１２１１號四樓之２５","OBJECTID":502263},"geometry":{"x":177943.35000000056,"y":2551050.3000000007}},{"attributes":{"ID":502291,"DIS_CODE":0,"TOWNNAME":"新化區","LI":"北勢里","LIN":"7鄰","STREET":"中正路","SECT":" ","MAREA":" ","LANE":" ","ALLEY":" ","HOUSE_NO":"１２１１號二樓之２２","E_COORD97":177943.32999999999,"N_COORD97":2551050.2999999998,"ADDRESS":"中正路１２１１號二樓之２２","OBJECTID":502264},"geometry":{"x":177943.33000000194,"y":2551050.3000000007}},{"attributes":{"ID":502292,"DIS_CODE":0,"TOWNNAME":"新化區","LI":"北勢里","LIN":"7鄰","STREET":"中正路","SECT":" ","MAREA":" ","LANE":" ","ALLEY":" ","HOUSE_NO":"１２１１號六樓之２２","E_COORD97":177943.32999999999,"N_COORD97":2551050.2999999998,"ADDRESS":"中正路１２１１號六樓之２２","OBJECTID":502265},"geometry":{"x":177943.33000000194,"y":2551050.3000000007}},{"attributes":{"ID":502293,"DIS_CODE":0,"TOWNNAME":"新化區","LI":"北勢里","LIN":"7鄰","STREET":"中正路","SECT":" ","MAREA":" ","LANE":" ","ALLEY":" ","HOUSE_NO":"１２１１號四樓之１５","E_COORD97":177943.35000000001,"N_COORD97":2551050.2999999998,"ADDRESS":"中正路１２１１號四樓之１５","OBJECTID":502266},"geometry":{"x":177943.35000000056,"y":2551050.3000000007}},{"attributes":{"ID":502294,"DIS_CODE":0,"TOWNNAME":"新化區","LI":"北勢里","LIN":"7鄰","STREET":"中正路","SECT":" ","MAREA":" ","LANE":" ","ALLEY":" ","HOUSE_NO":"１２１１號三樓之１２","E_COORD97":177943.32999999999,"N_COORD97":2551050.2999999998,"ADDRESS":"中正路１２１１號三樓之１２","OBJECTID":502267},"geometry":{"x":177943.33000000194,"y":2551050.3000000007}},{"attributes":{"ID":502295,"DIS_CODE":0,"TOWNNAME":"新化區","LI":"北勢里","LIN":"7鄰","STREET":"中正路","SECT":" ","MAREA":" ","LANE":" ","ALLEY":" ","HOUSE_NO":"１２１１號五樓之５","E_COORD97":177942.10000000001,"N_COORD97":2551050.2999999998,"ADDRESS":"中正路１２１１號五樓之５","OBJECTID":502268},"geometry":{"x":177942.09999999963,"y":2551050.3000000007}},{"attributes":{"ID":502296,"DIS_CODE":0,"TOWNNAME":"新化區","LI":"北勢里","LIN":"7鄰","STREET":"中正路","SECT":" ","MAREA":" ","LANE":" ","ALLEY":" ","HOUSE_NO":"１２１１號五樓之２３","E_COORD97":177943.29999999999,"N_COORD97":2551050.2999999998,"ADDRESS":"中正路１２１１號五樓之２３","OBJECTID":502269},"geometry":{"x":177943.30000000075,"y":2551050.3000000007}},{"attributes":{"ID":502297,"DIS_CODE":0,"TOWNNAME":"新化區","LI":"北勢里","LIN":"7鄰","STREET":"中正路","SECT":" ","MAREA":" ","LANE":" ","ALLEY":" ","HOUSE_NO":"１２１１號九樓之６","E_COORD97":177942.04999999999,"N_COORD97":2551050.2999999998,"ADDRESS":"中正路１２１１號九樓之６","OBJECTID":502270},"geometry":{"x":177942.05000000075,"y":2551050.3000000007}},{"attributes":{"ID":502298,"DIS_CODE":0,"TOWNNAME":"新化區","LI":"北勢里","LIN":"7鄰","STREET":"中正路","SECT":" ","MAREA":" ","LANE":" ","ALLEY":" ","HOUSE_NO":"１２１１號四樓之２３","E_COORD97":177943.29999999999,"N_COORD97":2551050.2999999998,"ADDRESS":"中正路１２１１號四樓之２３","OBJECTID":502271},"geometry":{"x":177943.30000000075,"y":2551050.3000000007}},{"attributes":{"ID":502299,"DIS_CODE":0,"TOWNNAME":"新化區","LI":"北勢里","LIN":"7鄰","STREET":"中正路","SECT":" ","MAREA":" ","LANE":" ","ALLEY":" ","HOUSE_NO":"１２１１號五樓之１１","E_COORD97":177943.20000000001,"N_COORD97":2551050.2999999998,"ADDRESS":"中正路１２１１號五樓之１１","OBJECTID":502272},"geometry":{"x":177943.20000000112,"y":2551050.3000000007}},{"attributes":{"ID":502300,"DIS_CODE":0,"TOWNNAME":"新化區","LI":"北勢里","LIN":"7鄰","STREET":"中正路","SECT":" ","MAREA":" ","LANE":" ","ALLEY":" ","HOUSE_NO":"１２１１號二樓之１６","E_COORD97":177943.29999999999,"N_COORD97":2551050.2999999998,"ADDRESS":"中正路１２１１號二樓之１６","OBJECTID":502273},"geometry":{"x":177943.30000000075,"y":2551050.3000000007}},{"attributes":{"ID":502301,"DIS_CODE":0,"TOWNNAME":"新化區","LI":"北勢里","LIN":"7鄰","STREET":"中正路","SECT":" ","MAREA":" ","LANE":" ","ALLEY":" ","HOUSE_NO":"１２１１號六樓之１","E_COORD97":177941.95000000001,"N_COORD97":2551050.2999999998,"ADDRESS":"中正路１２１１號六樓之１","OBJECTID":502274},"geometry":{"x":177941.95000000019,"y":2551050.3000000007}},{"attributes":{"ID":502302,"DIS_CODE":0,"TOWNNAME":"新化區","LI":"北勢里","LIN":"7鄰","STREET":"中正路","SECT":" ","MAREA":" ","LANE":" ","ALLEY":" ","HOUSE_NO":"１２１１號三樓之２２","E_COORD97":177943.32999999999,"N_COORD97":2551050.2999999998,"ADDRESS":"中正路１２１１號三樓之２２","OBJECTID":502275},"geometry":{"x":177943.33000000194,"y":2551050.3000000007}},{"attributes":{"ID":502303,"DIS_CODE":0,"TOWNNAME":"新化區","LI":"北勢里","LIN":"7鄰","STREET":"中正路","SECT":" ","MAREA":" ","LANE":" ","ALLEY":" ","HOUSE_NO":"１２１１號二樓之７","E_COORD97":177942.03,"N_COORD97":2551050.2999999998,"ADDRESS":"中正路１２１１號二樓之７","OBJECTID":502276},"geometry":{"x":177942.03000000212,"y":2551050.3000000007}},{"attributes":{"ID":502304,"DIS_CODE":0,"TOWNNAME":"新化區","LI":"北勢里","LIN":"7鄰","STREET":"中正路","SECT":" ","MAREA":" ","LANE":" ","ALLEY":" ","HOUSE_NO":"１２１１號二樓之２０","E_COORD97":177943.25,"N_COORD97":2551050.2999999998,"ADDRESS":"中正路１２１１號二樓之２０","OBJECTID":502277},"geometry":{"x":177943.25,"y":2551050.3000000007}},{"attributes":{"ID":502305,"DIS_CODE":0,"TOWNNAME":"新化區","LI":"北勢里","LIN":"7鄰","STREET":"中正路","SECT":" ","MAREA":" ","LANE":" ","ALLEY":" ","HOUSE_NO":"１２１１號二樓之９","E_COORD97":177942.03,"N_COORD97":2551050.2999999998,"ADDRESS":"中正路１２１１號二樓之９","OBJECTID":502278},"geometry":{"x":177942.03000000212,"y":2551050.3000000007}},{"attributes":{"ID":502306,"DIS_CODE":0,"TOWNNAME":"新化區","LI":"北勢里","LIN":"7鄰","STREET":"中正路","SECT":" ","MAREA":" ","LANE":" ","ALLEY":" ","HOUSE_NO":"１２１１號五樓之６","E_COORD97":177942.04999999999,"N_COORD97":2551050.2999999998,"ADDRESS":"中正路１２１１號五樓之６","OBJECTID":502279},"geometry":{"x":177942.05000000075,"y":2551050.3000000007}},{"attributes":{"ID":502307,"DIS_CODE":0,"TOWNNAME":"新化區","LI":"北勢里","LIN":"7鄰","STREET":"中正路","SECT":" ","MAREA":" ","LANE":" ","ALLEY":" ","HOUSE_NO":"１２１１號九樓之２７","E_COORD97":177943.28,"N_COORD97":2551050.2999999998,"ADDRESS":"中正路１２１１號九樓之２７","OBJECTID":502280},"geometry":{"x":177943.28000000026,"y":2551050.3000000007}},{"attributes":{"ID":502308,"DIS_CODE":0,"TOWNNAME":"新化區","LI":"北勢里","LIN":"7鄰","STREET":"中正路","SECT":" ","MAREA":" ","LANE":" ","ALLEY":" ","HOUSE_NO":"１２１１號三樓之１","E_COORD97":177941.95000000001,"N_COORD97":2551050.2999999998,"ADDRESS":"中正路１２１１號三樓之１","OBJECTID":502281},"geometry":{"x":177941.95000000019,"y":2551050.3000000007}},{"attributes":{"ID":502309,"DIS_CODE":0,"TOWNNAME":"新化區","LI":"北勢里","LIN":"7鄰","STREET":"中正路","SECT":" ","MAREA":" ","LANE":" ","ALLEY":" ","HOUSE_NO":"１２１１號三樓之７","E_COORD97":177942.03,"N_COORD97":2551050.2999999998,"ADDRESS":"中正路１２１１號三樓之７","OBJECTID":502282},"geometry":{"x":177942.03000000212,"y":2551050.3000000007}},{"attributes":{"ID":502310,"DIS_CODE":0,"TOWNNAME":"新化區","LI":"北勢里","LIN":"7鄰","STREET":"中正路","SECT":" ","MAREA":" ","LANE":" ","ALLEY":" ","HOUSE_NO":"１２１１號五樓之１０","E_COORD97":177943.25,"N_COORD97":2551050.2999999998,"ADDRESS":"中正路１２１１號五樓之１０","OBJECTID":502283},"geometry":{"x":177943.25,"y":2551050.3000000007}},{"attributes":{"ID":502311,"DIS_CODE":0,"TOWNNAME":"新化區","LI":"北勢里","LIN":"7鄰","STREET":"中正路","SECT":" ","MAREA":" ","LANE":" ","ALLEY":" ","HOUSE_NO":"１２１１號五樓之８","E_COORD97":177942.10000000001,"N_COORD97":2551050.2999999998,"ADDRESS":"中正路１２１１號五樓之８","OBJECTID":502284},"geometry":{"x":177942.09999999963,"y":2551050.3000000007}},{"attributes":{"ID":502312,"DIS_CODE":0,"TOWNNAME":"新化區","LI":"北勢里","LIN":"7鄰","STREET":"中正路","SECT":" ","MAREA":" ","LANE":" ","ALLEY":" ","HOUSE_NO":"１２１１號二樓之１７","E_COORD97":177943.28,"N_COORD97":2551050.2999999998,"ADDRESS":"中正路１２１１號二樓之１７","OBJECTID":502285},"geometry":{"x":177943.28000000026,"y":2551050.3000000007}},{"attributes":{"ID":502313,"DIS_CODE":0,"TOWNNAME":"新化區","LI":"北勢里","LIN":"7鄰","STREET":"中正路","SECT":" ","MAREA":" ","LANE":" ","ALLEY":" ","HOUSE_NO":"１２１１號九樓之７","E_COORD97":177942.03,"N_COORD97":2551050.2999999998,"ADDRESS":"中正路１２１１號九樓之７","OBJECTID":502286},"geometry":{"x":177942.03000000212,"y":2551050.3000000007}},{"attributes":{"ID":502314,"DIS_CODE":0,"TOWNNAME":"新化區","LI":"北勢里","LIN":"7鄰","STREET":"中正路","SECT":" ","MAREA":" ","LANE":" ","ALLEY":" ","HOUSE_NO":"１２１１號五樓之１","E_COORD97":177941.95000000001,"N_COORD97":2551050.2999999998,"ADDRESS":"中正路１２１１號五樓之１","OBJECTID":502287},"geometry":{"x":177941.95000000019,"y":2551050.3000000007}},{"attributes":{"ID":502315,"DIS_CODE":0,"TOWNNAME":"北區","LI":"三德里","LIN":"4鄰","STREET":"裕民街","SECT":" ","MAREA":" ","LANE":" ","ALLEY":" ","HOUSE_NO":"８２號","E_COORD97":168510.66,"N_COORD97":2544510.9300000002,"ADDRESS":"裕民街８２號","OBJECTID":502288},"geometry":{"x":168510.65999999922,"y":2544510.9299999997}},{"attributes":{"ID":502316,"DIS_CODE":0,"TOWNNAME":"新化區","LI":"北勢里","LIN":"7鄰","STREET":"中正路","SECT":" ","MAREA":" ","LANE":" ","ALLEY":" ","HOUSE_NO":"１２１１號二樓之２","E_COORD97":177942.07999999999,"N_COORD97":2551050.2999999998,"ADDRESS":"中正路１２１１號二樓之２","OBJECTID":502289},"geometry":{"x":177942.08000000101,"y":2551050.3000000007}},{"attributes":{"ID":502317,"DIS_CODE":0,"TOWNNAME":"新化區","LI":"北勢里","LIN":"7鄰","STREET":"中正路","SECT":" ","MAREA":" ","LANE":" ","ALLEY":" ","HOUSE_NO":"１２１１號四樓之３","E_COORD97":177942.04999999999,"N_COORD97":2551050.2999999998,"ADDRESS":"中正路１２１１號四樓之３","OBJECTID":502290},"geometry":{"x":177942.05000000075,"y":2551050.3000000007}},{"attributes":{"ID":502318,"DIS_CODE":0,"TOWNNAME":"新化區","LI":"北勢里","LIN":"7鄰","STREET":"中正路","SECT":" ","MAREA":" ","LANE":" ","ALLEY":" ","HOUSE_NO":"１２１１號八樓之３","E_COORD97":177942.04999999999,"N_COORD97":2551050.2999999998,"ADDRESS":"中正路１２１１號八樓之３","OBJECTID":502291},"geometry":{"x":177942.05000000075,"y":2551050.3000000007}},{"attributes":{"ID":502319,"DIS_CODE":0,"TOWNNAME":"新化區","LI":"北勢里","LIN":"7鄰","STREET":"中正路","SECT":" ","MAREA":" ","LANE":" ","ALLEY":" ","HOUSE_NO":"１２１１號五樓之２５","E_COORD97":177943.35000000001,"N_COORD97":2551050.2999999998,"ADDRESS":"中正路１２１１號五樓之２５","OBJECTID":502292},"geometry":{"x":177943.35000000056,"y":2551050.3000000007}},{"attributes":{"ID":502320,"DIS_CODE":0,"TOWNNAME":"新化區","LI":"北勢里","LIN":"7鄰","STREET":"中正路","SECT":" ","MAREA":" ","LANE":" ","ALLEY":" ","HOUSE_NO":"１２１１號六樓之１７","E_COORD97":177943.28,"N_COORD97":2551050.2999999998,"ADDRESS":"中正路１２１１號六樓之１７","OBJECTID":502293},"geometry":{"x":177943.28000000026,"y":2551050.3000000007}},{"attributes":{"ID":502321,"DIS_CODE":0,"TOWNNAME":"新化區","LI":"北勢里","LIN":"7鄰","STREET":"中正路","SECT":" ","MAREA":" ","LANE":" ","ALLEY":" ","HOUSE_NO":"１２１１號九樓之３","E_COORD97":177942.04999999999,"N_COORD97":2551050.2999999998,"ADDRESS":"中正路１２１１號九樓之３","OBJECTID":502294},"geometry":{"x":177942.05000000075,"y":2551050.3000000007}},{"attributes":{"ID":502322,"DIS_CODE":0,"TOWNNAME":"新化區","LI":"北勢里","LIN":"7鄰","STREET":"中正路","SECT":" ","MAREA":" ","LANE":" ","ALLEY":" ","HOUSE_NO":"１２１１號二樓之１８","E_COORD97":177943.35000000001,"N_COORD97":2551050.2999999998,"ADDRESS":"中正路１２１１號二樓之１８","OBJECTID":502295},"geometry":{"x":177943.35000000056,"y":2551050.3000000007}},{"attributes":{"ID":502323,"DIS_CODE":0,"TOWNNAME":"新化區","LI":"北勢里","LIN":"7鄰","STREET":"中正路","SECT":" ","MAREA":" ","LANE":" ","ALLEY":" ","HOUSE_NO":"１２１１號八樓之２６","E_COORD97":177943.29999999999,"N_COORD97":2551050.2999999998,"ADDRESS":"中正路１２１１號八樓之２６","OBJECTID":502296},"geometry":{"x":177943.30000000075,"y":2551050.3000000007}},{"attributes":{"ID":502324,"DIS_CODE":0,"TOWNNAME":"新化區","LI":"北勢里","LIN":"7鄰","STREET":"中正路","SECT":" ","MAREA":" ","LANE":" ","ALLEY":" ","HOUSE_NO":"１２１１號三樓之１５","E_COORD97":177943.35000000001,"N_COORD97":2551050.2999999998,"ADDRESS":"中正路１２１１號三樓之１５","OBJECTID":502297},"geometry":{"x":177943.35000000056,"y":2551050.3000000007}},{"attributes":{"ID":502325,"DIS_CODE":0,"TOWNNAME":"新化區","LI":"北勢里","LIN":"7鄰","STREET":"中正路","SECT":" ","MAREA":" ","LANE":" ","ALLEY":" ","HOUSE_NO":"１２１１號五樓之１８","E_COORD97":177943.35000000001,"N_COORD97":2551050.2999999998,"ADDRESS":"中正路１２１１號五樓之１８","OBJECTID":502298},"geometry":{"x":177943.35000000056,"y":2551050.3000000007}},{"attributes":{"ID":502326,"DIS_CODE":0,"TOWNNAME":"新化區","LI":"北勢里","LIN":"7鄰","STREET":"中正路","SECT":" ","MAREA":" ","LANE":" ","ALLEY":" ","HOUSE_NO":"１２１１號八樓之６","E_COORD97":177942.04999999999,"N_COORD97":2551050.2999999998,"ADDRESS":"中正路１２１１號八樓之６","OBJECTID":502299},"geometry":{"x":177942.05000000075,"y":2551050.3000000007}},{"attributes":{"ID":502327,"DIS_CODE":0,"TOWNNAME":"新化區","LI":"北勢里","LIN":"7鄰","STREET":"金華街","SECT":"一段","MAREA":" ","LANE":" ","ALLEY":" ","HOUSE_NO":"２號四樓之３","E_COORD97":177906.29999999999,"N_COORD97":2550965.2999999998,"ADDRESS":"金華街一段２號四樓之３","OBJECTID":502300},"geometry":{"x":177906.30000000075,"y":2550965.3000000007}},{"attributes":{"ID":502328,"DIS_CODE":0,"TOWNNAME":"新化區","LI":"北勢里","LIN":"7鄰","STREET":"金華街","SECT":"一段","MAREA":" ","LANE":" ","ALLEY":" ","HOUSE_NO":"１８號五樓之２","E_COORD97":177907.59,"N_COORD97":2550965.2999999998,"ADDRESS":"金華街一段１８號五樓之２","OBJECTID":502301},"geometry":{"x":177907.59000000078,"y":2550965.3000000007}},{"attributes":{"ID":502329,"DIS_CODE":0,"TOWNNAME":"新化區","LI":"北勢里","LIN":"7鄰","STREET":"中正路","SECT":" ","MAREA":" ","LANE":" ","ALLEY":" ","HOUSE_NO":"１２１１號八樓之１","E_COORD97":177941.95000000001,"N_COORD97":2551050.2999999998,"ADDRESS":"中正路１２１１號八樓之１","OBJECTID":502302},"geometry":{"x":177941.95000000019,"y":2551050.3000000007}},{"attributes":{"ID":502330,"DIS_CODE":0,"TOWNNAME":"新化區","LI":"北勢里","LIN":"7鄰","STREET":"金華街","SECT":"一段","MAREA":" ","LANE":" ","ALLEY":" ","HOUSE_NO":"１８號四樓之１","E_COORD97":177907.45000000001,"N_COORD97":2550965.2999999998,"ADDRESS":"金華街一段１８號四樓之１","OBJECTID":502303},"geometry":{"x":177907.45000000112,"y":2550965.3000000007}},{"attributes":{"ID":502331,"DIS_CODE":0,"TOWNNAME":"新化區","LI":"北勢里","LIN":"7鄰","STREET":"中正路","SECT":" ","MAREA":" ","LANE":" ","ALLEY":" ","HOUSE_NO":"１２１１號九樓之２６","E_COORD97":177943.29999999999,"N_COORD97":2551050.2999999998,"ADDRESS":"中正路１２１１號九樓之２６","OBJECTID":502304},"geometry":{"x":177943.30000000075,"y":2551050.3000000007}},{"attributes":{"ID":502332,"DIS_CODE":0,"TOWNNAME":"新化區","LI":"北勢里","LIN":"7鄰","STREET":"中正路","SECT":" ","MAREA":" ","LANE":" ","ALLEY":" ","HOUSE_NO":"１２１１號二樓之８","E_COORD97":177942.10000000001,"N_COORD97":2551050.2999999998,"ADDRESS":"中正路１２１１號二樓之８","OBJECTID":502305},"geometry":{"x":177942.09999999963,"y":2551050.3000000007}},{"attributes":{"ID":502333,"DIS_CODE":0,"TOWNNAME":"新化區","LI":"北勢里","LIN":"7鄰","STREET":"金華街","SECT":"一段","MAREA":" ","LANE":" ","ALLEY":" ","HOUSE_NO":"２號七樓之１","E_COORD97":177906.20000000001,"N_COORD97":2550965.2999999998,"ADDRESS":"金華街一段２號七樓之１","OBJECTID":502306},"geometry":{"x":177906.20000000019,"y":2550965.3000000007}},{"attributes":{"ID":502334,"DIS_CODE":0,"TOWNNAME":"新化區","LI":"北勢里","LIN":"7鄰","STREET":"中正路","SECT":" ","MAREA":" ","LANE":" ","ALLEY":" ","HOUSE_NO":"１２１１號六樓之１８","E_COORD97":177943.35000000001,"N_COORD97":2551050.2999999998,"ADDRESS":"中正路１２１１號六樓之１８","OBJECTID":502307},"geometry":{"x":177943.35000000056,"y":2551050.3000000007}},{"attributes":{"ID":502335,"DIS_CODE":0,"TOWNNAME":"新化區","LI":"北勢里","LIN":"7鄰","STREET":"金華街","SECT":"一段","MAREA":" ","LANE":" ","ALLEY":" ","HOUSE_NO":"１８號六樓之３","E_COORD97":177907.54999999999,"N_COORD97":2550965.2999999998,"ADDRESS":"金華街一段１８號六樓之３","OBJECTID":502308},"geometry":{"x":177907.55000000168,"y":2550965.3000000007}},{"attributes":{"ID":502336,"DIS_CODE":0,"TOWNNAME":"新化區","LI":"北勢里","LIN":"7鄰","STREET":"中正路","SECT":" ","MAREA":" ","LANE":" ","ALLEY":" ","HOUSE_NO":"１２１１號六樓之２０","E_COORD97":177943.25,"N_COORD97":2551050.2999999998,"ADDRESS":"中正路１２１１號六樓之２０","OBJECTID":502309},"geometry":{"x":177943.25,"y":2551050.3000000007}},{"attributes":{"ID":502337,"DIS_CODE":0,"TOWNNAME":"新化區","LI":"北勢里","LIN":"7鄰","STREET":"中正路","SECT":" ","MAREA":" ","LANE":" ","ALLEY":" ","HOUSE_NO":"１２１１號八樓之１１","E_COORD97":177943.20000000001,"N_COORD97":2551050.2999999998,"ADDRESS":"中正路１２１１號八樓之１１","OBJECTID":502310},"geometry":{"x":177943.20000000112,"y":2551050.3000000007}},{"attributes":{"ID":502338,"DIS_CODE":0,"TOWNNAME":"新化區","LI":"北勢里","LIN":"7鄰","STREET":"中正路","SECT":" ","MAREA":" ","LANE":" ","ALLEY":" ","HOUSE_NO":"１２１１號六樓之２","E_COORD97":177942.07999999999,"N_COORD97":2551050.2999999998,"ADDRESS":"中正路１２１１號六樓之２","OBJECTID":502311},"geometry":{"x":177942.08000000101,"y":2551050.3000000007}},{"attributes":{"ID":502339,"DIS_CODE":0,"TOWNNAME":"新化區","LI":"北勢里","LIN":"7鄰","STREET":"中正路","SECT":" ","MAREA":" ","LANE":" ","ALLEY":" ","HOUSE_NO":"１２１１號二樓之１","E_COORD97":177941.95000000001,"N_COORD97":2551050.2999999998,"ADDRESS":"中正路１２１１號二樓之１","OBJECTID":502312},"geometry":{"x":177941.95000000019,"y":2551050.3000000007}},{"attributes":{"ID":502340,"DIS_CODE":0,"TOWNNAME":"新化區","LI":"北勢里","LIN":"7鄰","STREET":"中正路","SECT":" ","MAREA":" ","LANE":" ","ALLEY":" ","HOUSE_NO":"１２１１號三樓之１６","E_COORD97":177943.29999999999,"N_COORD97":2551050.2999999998,"ADDRESS":"中正路１２１１號三樓之１６","OBJECTID":502313},"geometry":{"x":177943.30000000075,"y":2551050.3000000007}},{"attributes":{"ID":502341,"DIS_CODE":0,"TOWNNAME":"善化區","LI":"小新里","LIN":"7鄰","STREET":"成功路","SECT":" ","MAREA":" ","LANE":" ","ALLEY":" ","HOUSE_NO":"１５５號","E_COORD97":179759.87,"N_COORD97":2558651.3799999999,"ADDRESS":"成功路１５５號","OBJECTID":502314},"geometry":{"x":179759.87000000011,"y":2558651.3800000008}},{"attributes":{"ID":502342,"DIS_CODE":0,"TOWNNAME":"新化區","LI":"北勢里","LIN":"7鄰","STREET":"中正路","SECT":" ","MAREA":" ","LANE":" ","ALLEY":" ","HOUSE_NO":"１２１１號三樓之２１","E_COORD97":177943.20000000001,"N_COORD97":2551050.2999999998,"ADDRESS":"中正路１２１１號三樓之２１","OBJECTID":502315},"geometry":{"x":177943.20000000112,"y":2551050.3000000007}},{"attributes":{"ID":502343,"DIS_CODE":0,"TOWNNAME":"新化區","LI":"北勢里","LIN":"7鄰","STREET":"金華街","SECT":"一段","MAREA":" ","LANE":" ","ALLEY":" ","HOUSE_NO":"２號六樓之１","E_COORD97":177906.20000000001,"N_COORD97":2550965.2999999998,"ADDRESS":"金華街一段２號六樓之１","OBJECTID":502316},"geometry":{"x":177906.20000000019,"y":2550965.3000000007}},{"attributes":{"ID":502344,"DIS_CODE":0,"TOWNNAME":"新化區","LI":"北勢里","LIN":"7鄰","STREET":"中正路","SECT":" ","MAREA":" ","LANE":" ","ALLEY":" ","HOUSE_NO":"１２１１號八樓之１３","E_COORD97":177943.29999999999,"N_COORD97":2551050.2999999998,"ADDRESS":"中正路１２１１號八樓之１３","OBJECTID":502317},"geometry":{"x":177943.30000000075,"y":2551050.3000000007}},{"attributes":{"ID":502345,"DIS_CODE":0,"TOWNNAME":"新化區","LI":"北勢里","LIN":"7鄰","STREET":"金華街","SECT":"一段","MAREA":" ","LANE":" ","ALLEY":" ","HOUSE_NO":"２４號五樓之１","E_COORD97":177907.45000000001,"N_COORD97":2550965.2999999998,"ADDRESS":"金華街一段２４號五樓之１","OBJECTID":502318},"geometry":{"x":177907.45000000112,"y":2550965.3000000007}},{"attributes":{"ID":502346,"DIS_CODE":0,"TOWNNAME":"新化區","LI":"北勢里","LIN":"7鄰","STREET":"中正路","SECT":" ","MAREA":" ","LANE":" ","ALLEY":" ","HOUSE_NO":"１２１１號八樓之１９","E_COORD97":177943.28,"N_COORD97":2551050.2999999998,"ADDRESS":"中正路１２１１號八樓之１９","OBJECTID":502319},"geometry":{"x":177943.28000000026,"y":2551050.3000000007}},{"attributes":{"ID":502347,"DIS_CODE":0,"TOWNNAME":"新化區","LI":"北勢里","LIN":"7鄰","STREET":"中正路","SECT":" ","MAREA":" ","LANE":" ","ALLEY":" ","HOUSE_NO":"１２１１號二樓之３","E_COORD97":177942.04999999999,"N_COORD97":2551050.2999999998,"ADDRESS":"中正路１２１１號二樓之３","OBJECTID":502320},"geometry":{"x":177942.05000000075,"y":2551050.3000000007}},{"attributes":{"ID":502348,"DIS_CODE":0,"TOWNNAME":"新化區","LI":"北勢里","LIN":"7鄰","STREET":"中正路","SECT":" ","MAREA":" ","LANE":" ","ALLEY":" ","HOUSE_NO":"１２１１號五樓之１５","E_COORD97":177943.35000000001,"N_COORD97":2551050.2999999998,"ADDRESS":"中正路１２１１號五樓之１５","OBJECTID":502321},"geometry":{"x":177943.35000000056,"y":2551050.3000000007}},{"attributes":{"ID":502349,"DIS_CODE":0,"TOWNNAME":"新化區","LI":"北勢里","LIN":"7鄰","STREET":"中正路","SECT":" ","MAREA":" ","LANE":" ","ALLEY":" ","HOUSE_NO":"１２１１號三樓之５","E_COORD97":177942.10000000001,"N_COORD97":2551050.2999999998,"ADDRESS":"中正路１２１１號三樓之５","OBJECTID":502322},"geometry":{"x":177942.09999999963,"y":2551050.3000000007}},{"attributes":{"ID":502350,"DIS_CODE":0,"TOWNNAME":"永康區","LI":"復興里","LIN":"7鄰","STREET":"復興路","SECT":" ","MAREA":" ","LANE":" ","ALLEY":" ","HOUSE_NO":"３５３號","E_COORD97":172190.29000000001,"N_COORD97":2544314.3799999999,"ADDRESS":"復興路３５３號","OBJECTID":502323},"geometry":{"x":172190.29000000097,"y":2544314.379999999}},{"attributes":{"ID":502351,"DIS_CODE":0,"TOWNNAME":"新化區","LI":"北勢里","LIN":"7鄰","STREET":"中正路","SECT":" ","MAREA":" ","LANE":" ","ALLEY":" ","HOUSE_NO":"１２１１號八樓之９","E_COORD97":177942.03,"N_COORD97":2551050.2999999998,"ADDRESS":"中正路１２１１號八樓之９","OBJECTID":502324},"geometry":{"x":177942.03000000212,"y":2551050.3000000007}},{"attributes":{"ID":502352,"DIS_CODE":0,"TOWNNAME":"新化區","LI":"北勢里","LIN":"7鄰","STREET":"中正路","SECT":" ","MAREA":" ","LANE":" ","ALLEY":" ","HOUSE_NO":"１２１１號二樓之１３","E_COORD97":177943.29999999999,"N_COORD97":2551050.2999999998,"ADDRESS":"中正路１２１１號二樓之１３","OBJECTID":502325},"geometry":{"x":177943.30000000075,"y":2551050.3000000007}},{"attributes":{"ID":502353,"DIS_CODE":0,"TOWNNAME":"東區","LI":"文聖里","LIN":"20鄰","STREET":"裕信二街","SECT":" ","MAREA":" ","LANE":" ","ALLEY":" ","HOUSE_NO":"９９號","E_COORD97":172818.38,"N_COORD97":2542664.3599999999,"ADDRESS":"裕信二街９９號","OBJECTID":502326},"geometry":{"x":172818.38000000082,"y":2542664.3599999994}},{"attributes":{"ID":502354,"DIS_CODE":0,"TOWNNAME":"新化區","LI":"北勢里","LIN":"7鄰","STREET":"中正路","SECT":" ","MAREA":" ","LANE":" ","ALLEY":" ","HOUSE_NO":"１２１１號六樓之１５","E_COORD97":177943.35000000001,"N_COORD97":2551050.2999999998,"ADDRESS":"中正路１２１１號六樓之１５","OBJECTID":502327},"geometry":{"x":177943.35000000056,"y":2551050.3000000007}},{"attributes":{"ID":502355,"DIS_CODE":0,"TOWNNAME":"新化區","LI":"北勢里","LIN":"7鄰","STREET":"中正路","SECT":" ","MAREA":" ","LANE":" ","ALLEY":" ","HOUSE_NO":"１２１１號二樓之１０","E_COORD97":177943.25,"N_COORD97":2551050.2999999998,"ADDRESS":"中正路１２１１號二樓之１０","OBJECTID":502328},"geometry":{"x":177943.25,"y":2551050.3000000007}},{"attributes":{"ID":502356,"DIS_CODE":0,"TOWNNAME":"新化區","LI":"北勢里","LIN":"7鄰","STREET":"金華街","SECT":"一段","MAREA":" ","LANE":" ","ALLEY":" ","HOUSE_NO":"２４號二樓之２","E_COORD97":177907.59,"N_COORD97":2550965.2999999998,"ADDRESS":"金華街一段２４號二樓之２","OBJECTID":502329},"geometry":{"x":177907.59000000078,"y":2550965.3000000007}},{"attributes":{"ID":502357,"DIS_CODE":0,"TOWNNAME":"新化區","LI":"北勢里","LIN":"7鄰","STREET":"金華街","SECT":"一段","MAREA":" ","LANE":" ","ALLEY":" ","HOUSE_NO":"１８號五樓之３","E_COORD97":177907.54999999999,"N_COORD97":2550965.2999999998,"ADDRESS":"金華街一段１８號五樓之３","OBJECTID":502330},"geometry":{"x":177907.55000000168,"y":2550965.3000000007}},{"attributes":{"ID":502358,"DIS_CODE":0,"TOWNNAME":"新化區","LI":"北勢里","LIN":"7鄰","STREET":"金華街","SECT":"一段","MAREA":" ","LANE":" ","ALLEY":" ","HOUSE_NO":"２４號五樓之２","E_COORD97":177907.59,"N_COORD97":2550965.2999999998,"ADDRESS":"金華街一段２４號五樓之２","OBJECTID":502331},"geometry":{"x":177907.59000000078,"y":2550965.3000000007}},{"attributes":{"ID":502359,"DIS_CODE":0,"TOWNNAME":"新化區","LI":"北勢里","LIN":"7鄰","STREET":"金華街","SECT":"一段","MAREA":" ","LANE":" ","ALLEY":" ","HOUSE_NO":"２４號七樓之３","E_COORD97":177907.54999999999,"N_COORD97":2550965.2999999998,"ADDRESS":"金華街一段２４號七樓之３","OBJECTID":502332},"geometry":{"x":177907.55000000168,"y":2550965.3000000007}},{"attributes":{"ID":502360,"DIS_CODE":0,"TOWNNAME":"新化區","LI":"北勢里","LIN":"7鄰","STREET":"金華街","SECT":"一段","MAREA":" ","LANE":" ","ALLEY":" ","HOUSE_NO":"２號三樓之１","E_COORD97":177906.20000000001,"N_COORD97":2550965.2999999998,"ADDRESS":"金華街一段２號三樓之１","OBJECTID":502333},"geometry":{"x":177906.20000000019,"y":2550965.3000000007}},{"attributes":{"ID":502361,"DIS_CODE":0,"TOWNNAME":"新化區","LI":"北勢里","LIN":"7鄰","STREET":"金華街","SECT":"一段","MAREA":" ","LANE":" ","ALLEY":" ","HOUSE_NO":"２４號三樓之３","E_COORD97":177907.54999999999,"N_COORD97":2550965.2999999998,"ADDRESS":"金華街一段２４號三樓之３","OBJECTID":502334},"geometry":{"x":177907.55000000168,"y":2550965.3000000007}},{"attributes":{"ID":502362,"DIS_CODE":0,"TOWNNAME":"新化區","LI":"北勢里","LIN":"7鄰","STREET":"中正路","SECT":" ","MAREA":" ","LANE":" ","ALLEY":" ","HOUSE_NO":"１２１１號三樓之３","E_COORD97":177942.04999999999,"N_COORD97":2551050.2999999998,"ADDRESS":"中正路１２１１號三樓之３","OBJECTID":502335},"geometry":{"x":177942.05000000075,"y":2551050.3000000007}},{"attributes":{"ID":502363,"DIS_CODE":0,"TOWNNAME":"新化區","LI":"北勢里","LIN":"7鄰","STREET":"中正路","SECT":" ","MAREA":" ","LANE":" ","ALLEY":" ","HOUSE_NO":"１２１１號二樓之１５","E_COORD97":177943.35000000001,"N_COORD97":2551050.2999999998,"ADDRESS":"中正路１２１１號二樓之１５","OBJECTID":502336},"geometry":{"x":177943.35000000056,"y":2551050.3000000007}},{"attributes":{"ID":502364,"DIS_CODE":0,"TOWNNAME":"新化區","LI":"北勢里","LIN":"7鄰","STREET":"中正路","SECT":" ","MAREA":" ","LANE":" ","ALLEY":" ","HOUSE_NO":"１２１１號八樓之１５","E_COORD97":177943.35000000001,"N_COORD97":2551050.2999999998,"ADDRESS":"中正路１２１１號八樓之１５","OBJECTID":502337},"geometry":{"x":177943.35000000056,"y":2551050.3000000007}},{"attributes":{"ID":502365,"DIS_CODE":0,"TOWNNAME":"新化區","LI":"北勢里","LIN":"7鄰","STREET":"金華街","SECT":"一段","MAREA":" ","LANE":" ","ALLEY":" ","HOUSE_NO":"２４號六樓之１","E_COORD97":177907.45000000001,"N_COORD97":2550965.2999999998,"ADDRESS":"金華街一段２４號六樓之１","OBJECTID":502338},"geometry":{"x":177907.45000000112,"y":2550965.3000000007}},{"attributes":{"ID":502366,"DIS_CODE":0,"TOWNNAME":"新化區","LI":"北勢里","LIN":"7鄰","STREET":"金華街","SECT":"一段","MAREA":" ","LANE":" ","ALLEY":" ","HOUSE_NO":"２號三樓之３","E_COORD97":177906.29999999999,"N_COORD97":2550965.2999999998,"ADDRESS":"金華街一段２號三樓之３","OBJECTID":502339},"geometry":{"x":177906.30000000075,"y":2550965.3000000007}},{"attributes":{"ID":502367,"DIS_CODE":0,"TOWNNAME":"新化區","LI":"北勢里","LIN":"7鄰","STREET":"金華街","SECT":"一段","MAREA":" ","LANE":" ","ALLEY":" ","HOUSE_NO":"２４號三樓之２","E_COORD97":177907.59,"N_COORD97":2550965.2999999998,"ADDRESS":"金華街一段２４號三樓之２","OBJECTID":502340},"geometry":{"x":177907.59000000078,"y":2550965.3000000007}},{"attributes":{"ID":502368,"DIS_CODE":0,"TOWNNAME":"新化區","LI":"北勢里","LIN":"7鄰","STREET":"中正路","SECT":" ","MAREA":" ","LANE":" ","ALLEY":" ","HOUSE_NO":"１２１１號八樓之２２","E_COORD97":177943.32999999999,"N_COORD97":2551050.2999999998,"ADDRESS":"中正路１２１１號八樓之２２","OBJECTID":502341},"geometry":{"x":177943.33000000194,"y":2551050.3000000007}},{"attributes":{"ID":502369,"DIS_CODE":0,"TOWNNAME":"新化區","LI":"北勢里","LIN":"7鄰","STREET":"中正路","SECT":" ","MAREA":" ","LANE":" ","ALLEY":" ","HOUSE_NO":"１２１１號八樓之２３","E_COORD97":177943.29999999999,"N_COORD97":2551050.2999999998,"ADDRESS":"中正路１２１１號八樓之２３","OBJECTID":502342},"geometry":{"x":177943.30000000075,"y":2551050.3000000007}},{"attributes":{"ID":502370,"DIS_CODE":0,"TOWNNAME":"新化區","LI":"北勢里","LIN":"7鄰","STREET":"金華街","SECT":"一段","MAREA":" ","LANE":" ","ALLEY":" ","HOUSE_NO":"２號三樓之２","E_COORD97":177906.34,"N_COORD97":2550965.2999999998,"ADDRESS":"金華街一段２號三樓之２","OBJECTID":502343},"geometry":{"x":177906.34000000078,"y":2550965.3000000007}},{"attributes":{"ID":502371,"DIS_CODE":0,"TOWNNAME":"新化區","LI":"北勢里","LIN":"7鄰","STREET":"金華街","SECT":"一段","MAREA":" ","LANE":" ","ALLEY":" ","HOUSE_NO":"２號二樓之１","E_COORD97":177906.20000000001,"N_COORD97":2550965.2999999998,"ADDRESS":"金華街一段２號二樓之１","OBJECTID":502344},"geometry":{"x":177906.20000000019,"y":2550965.3000000007}},{"attributes":{"ID":502372,"DIS_CODE":0,"TOWNNAME":"新化區","LI":"北勢里","LIN":"7鄰","STREET":"中正路","SECT":" ","MAREA":" ","LANE":" ","ALLEY":" ","HOUSE_NO":"１２１１號八樓之１６","E_COORD97":177943.29999999999,"N_COORD97":2551050.2999999998,"ADDRESS":"中正路１２１１號八樓之１６","OBJECTID":502345},"geometry":{"x":177943.30000000075,"y":2551050.3000000007}},{"attributes":{"ID":502373,"DIS_CODE":0,"TOWNNAME":"新化區","LI":"北勢里","LIN":"7鄰","STREET":"中正路","SECT":" ","MAREA":" ","LANE":" ","ALLEY":" ","HOUSE_NO":"１２１１號二樓之２１","E_COORD97":177943.20000000001,"N_COORD97":2551050.2999999998,"ADDRESS":"中正路１２１１號二樓之２１","OBJECTID":502346},"geometry":{"x":177943.20000000112,"y":2551050.3000000007}},{"attributes":{"ID":502374,"DIS_CODE":0,"TOWNNAME":"新化區","LI":"北勢里","LIN":"7鄰","STREET":"中正路","SECT":" ","MAREA":" ","LANE":" ","ALLEY":" ","HOUSE_NO":"１２１１號五樓之１２","E_COORD97":177943.32999999999,"N_COORD97":2551050.2999999998,"ADDRESS":"中正路１２１１號五樓之１２","OBJECTID":502347},"geometry":{"x":177943.33000000194,"y":2551050.3000000007}},{"attributes":{"ID":502375,"DIS_CODE":0,"TOWNNAME":"新化區","LI":"北勢里","LIN":"7鄰","STREET":"金華街","SECT":"一段","MAREA":" ","LANE":" ","ALLEY":" ","HOUSE_NO":"２號五樓之３","E_COORD97":177906.29999999999,"N_COORD97":2550965.2999999998,"ADDRESS":"金華街一段２號五樓之３","OBJECTID":502348},"geometry":{"x":177906.30000000075,"y":2550965.3000000007}},{"attributes":{"ID":502376,"DIS_CODE":0,"TOWNNAME":"新化區","LI":"北勢里","LIN":"7鄰","STREET":"中正路","SECT":" ","MAREA":" ","LANE":" ","ALLEY":" ","HOUSE_NO":"１２１１號三樓之１７","E_COORD97":177943.28,"N_COORD97":2551050.2999999998,"ADDRESS":"中正路１２１１號三樓之１７","OBJECTID":502349},"geometry":{"x":177943.28000000026,"y":2551050.3000000007}},{"attributes":{"ID":502377,"DIS_CODE":0,"TOWNNAME":"新化區","LI":"北勢里","LIN":"7鄰","STREET":"金華街","SECT":"一段","MAREA":" ","LANE":" ","ALLEY":" ","HOUSE_NO":"１０號二樓之１","E_COORD97":177907.45000000001,"N_COORD97":2550965.2999999998,"ADDRESS":"金華街一段１０號二樓之１","OBJECTID":502350},"geometry":{"x":177907.45000000112,"y":2550965.3000000007}},{"attributes":{"ID":502378,"DIS_CODE":0,"TOWNNAME":"新化區","LI":"北勢里","LIN":"7鄰","STREET":"金華街","SECT":"一段","MAREA":" ","LANE":" ","ALLEY":" ","HOUSE_NO":"１８號五樓之１","E_COORD97":177907.45000000001,"N_COORD97":2550965.2999999998,"ADDRESS":"金華街一段１８號五樓之１","OBJECTID":502351},"geometry":{"x":177907.45000000112,"y":2550965.3000000007}},{"attributes":{"ID":502379,"DIS_CODE":0,"TOWNNAME":"新化區","LI":"北勢里","LIN":"7鄰","STREET":"中正路","SECT":" ","MAREA":" ","LANE":" ","ALLEY":" ","HOUSE_NO":"１２１１號八樓之７","E_COORD97":177942.03,"N_COORD97":2551050.2999999998,"ADDRESS":"中正路１２１１號八樓之７","OBJECTID":502352},"geometry":{"x":177942.03000000212,"y":2551050.3000000007}},{"attributes":{"ID":502380,"DIS_CODE":0,"TOWNNAME":"新化區","LI":"北勢里","LIN":"7鄰","STREET":"中正路","SECT":" ","MAREA":" ","LANE":" ","ALLEY":" ","HOUSE_NO":"１２１１號二樓之１２","E_COORD97":177943.32999999999,"N_COORD97":2551050.2999999998,"ADDRESS":"中正路１２１１號二樓之１２","OBJECTID":502353},"geometry":{"x":177943.33000000194,"y":2551050.3000000007}},{"attributes":{"ID":502381,"DIS_CODE":0,"TOWNNAME":"新化區","LI":"北勢里","LIN":"7鄰","STREET":"中正路","SECT":" ","MAREA":" ","LANE":" ","ALLEY":" ","HOUSE_NO":"１２１１號五樓之１９","E_COORD97":177943.28,"N_COORD97":2551050.2999999998,"ADDRESS":"中正路１２１１號五樓之１９","OBJECTID":502354},"geometry":{"x":177943.28000000026,"y":2551050.3000000007}},{"attributes":{"ID":502382,"DIS_CODE":0,"TOWNNAME":"新化區","LI":"北勢里","LIN":"7鄰","STREET":"金華街","SECT":"一段","MAREA":" ","LANE":" ","ALLEY":" ","HOUSE_NO":"２４號四樓之１","E_COORD97":177907.45000000001,"N_COORD97":2550965.2999999998,"ADDRESS":"金華街一段２４號四樓之１","OBJECTID":502355},"geometry":{"x":177907.45000000112,"y":2550965.3000000007}},{"attributes":{"ID":502383,"DIS_CODE":0,"TOWNNAME":"新化區","LI":"北勢里","LIN":"7鄰","STREET":"中正路","SECT":" ","MAREA":" ","LANE":" ","ALLEY":" ","HOUSE_NO":"１２１１號二樓之６","E_COORD97":177942.04999999999,"N_COORD97":2551050.2999999998,"ADDRESS":"中正路１２１１號二樓之６","OBJECTID":502356},"geometry":{"x":177942.05000000075,"y":2551050.3000000007}},{"attributes":{"ID":502384,"DIS_CODE":0,"TOWNNAME":"東區","LI":"龍山里","LIN":"7鄰","STREET":"長榮路","SECT":"一段","MAREA":" ","LANE":" ","ALLEY":" ","HOUSE_NO":"２３６號二樓","E_COORD97":169911.82999999999,"N_COORD97":2542911.2200000002,"ADDRESS":"長榮路一段２３６號二樓","OBJECTID":502357},"geometry":{"x":169911.83000000101,"y":2542911.2199999988}},{"attributes":{"ID":502385,"DIS_CODE":0,"TOWNNAME":"東區","LI":"龍山里","LIN":"7鄰","STREET":"長榮路","SECT":"一段","MAREA":" ","LANE":" ","ALLEY":" ","HOUSE_NO":"２３６號三樓之１","E_COORD97":169911.82999999999,"N_COORD97":2542911.2200000002,"ADDRESS":"長榮路一段２３６號三樓之１","OBJECTID":502358},"geometry":{"x":169911.83000000101,"y":2542911.2199999988}},{"attributes":{"ID":502386,"DIS_CODE":0,"TOWNNAME":"東區","LI":"龍山里","LIN":"7鄰","STREET":"長榮路","SECT":"一段","MAREA":" ","LANE":" ","ALLEY":" ","HOUSE_NO":"２３６號三樓之１０","E_COORD97":169911.82999999999,"N_COORD97":2542911.2200000002,"ADDRESS":"長榮路一段２３６號三樓之１０","OBJECTID":502359},"geometry":{"x":169911.83000000101,"y":2542911.2199999988}},{"attributes":{"ID":502387,"DIS_CODE":0,"TOWNNAME":"東區","LI":"龍山里","LIN":"7鄰","STREET":"長榮路","SECT":"一段","MAREA":" ","LANE":" ","ALLEY":" ","HOUSE_NO":"２３６號三樓之１１","E_COORD97":169911.82999999999,"N_COORD97":2542911.2200000002,"ADDRESS":"長榮路一段２３６號三樓之１１","OBJECTID":502360},"geometry":{"x":169911.83000000101,"y":2542911.2199999988}},{"attributes":{"ID":502388,"DIS_CODE":0,"TOWNNAME":"東區","LI":"龍山里","LIN":"7鄰","STREET":"長榮路","SECT":"一段","MAREA":" ","LANE":" ","ALLEY":" ","HOUSE_NO":"２３６號三樓之１２","E_COORD97":169911.82999999999,"N_COORD97":2542911.2200000002,"ADDRESS":"長榮路一段２３６號三樓之１２","OBJECTID":502361},"geometry":{"x":169911.83000000101,"y":2542911.2199999988}},{"attributes":{"ID":502389,"DIS_CODE":0,"TOWNNAME":"東區","LI":"龍山里","LIN":"7鄰","STREET":"長榮路","SECT":"一段","MAREA":" ","LANE":" ","ALLEY":" ","HOUSE_NO":"２３６號三樓之１３","E_COORD97":169911.82999999999,"N_COORD97":2542911.2200000002,"ADDRESS":"長榮路一段２３６號三樓之１３","OBJECTID":502362},"geometry":{"x":169911.83000000101,"y":2542911.2199999988}},{"attributes":{"ID":502390,"DIS_CODE":0,"TOWNNAME":"東區","LI":"龍山里","LIN":"7鄰","STREET":"長榮路","SECT":"一段","MAREA":" ","LANE":" ","ALLEY":" ","HOUSE_NO":"２３６號三樓之２","E_COORD97":169911.82999999999,"N_COORD97":2542911.2200000002,"ADDRESS":"長榮路一段２３６號三樓之２","OBJECTID":502363},"geometry":{"x":169911.83000000101,"y":2542911.2199999988}},{"attributes":{"ID":502391,"DIS_CODE":0,"TOWNNAME":"東區","LI":"龍山里","LIN":"7鄰","STREET":"長榮路","SECT":"一段","MAREA":" ","LANE":" ","ALLEY":" ","HOUSE_NO":"２３６號三樓之３","E_COORD97":169911.82999999999,"N_COORD97":2542911.2200000002,"ADDRESS":"長榮路一段２３６號三樓之３","OBJECTID":502364},"geometry":{"x":169911.83000000101,"y":2542911.2199999988}},{"attributes":{"ID":502392,"DIS_CODE":0,"TOWNNAME":"東區","LI":"龍山里","LIN":"7鄰","STREET":"長榮路","SECT":"一段","MAREA":" ","LANE":" ","ALLEY":" ","HOUSE_NO":"２３６號三樓之５","E_COORD97":169911.82999999999,"N_COORD97":2542911.2200000002,"ADDRESS":"長榮路一段２３６號三樓之５","OBJECTID":502365},"geometry":{"x":169911.83000000101,"y":2542911.2199999988}},{"attributes":{"ID":502393,"DIS_CODE":0,"TOWNNAME":"東區","LI":"龍山里","LIN":"7鄰","STREET":"長榮路","SECT":"一段","MAREA":" ","LANE":" ","ALLEY":" ","HOUSE_NO":"２３６號三樓之６","E_COORD97":169911.82999999999,"N_COORD97":2542911.2200000002,"ADDRESS":"長榮路一段２３６號三樓之６","OBJECTID":502366},"geometry":{"x":169911.83000000101,"y":2542911.2199999988}},{"attributes":{"ID":502394,"DIS_CODE":0,"TOWNNAME":"東區","LI":"龍山里","LIN":"7鄰","STREET":"長榮路","SECT":"一段","MAREA":" ","LANE":" ","ALLEY":" ","HOUSE_NO":"２３６號三樓之７","E_COORD97":169911.82999999999,"N_COORD97":2542911.2200000002,"ADDRESS":"長榮路一段２３６號三樓之７","OBJECTID":502367},"geometry":{"x":169911.83000000101,"y":2542911.2199999988}},{"attributes":{"ID":502395,"DIS_CODE":0,"TOWNNAME":"東區","LI":"龍山里","LIN":"7鄰","STREET":"長榮路","SECT":"一段","MAREA":" ","LANE":" ","ALLEY":" ","HOUSE_NO":"２３６號三樓之８","E_COORD97":169911.82999999999,"N_COORD97":2542911.2200000002,"ADDRESS":"長榮路一段２３６號三樓之８","OBJECTID":502368},"geometry":{"x":169911.83000000101,"y":2542911.2199999988}},{"attributes":{"ID":502396,"DIS_CODE":0,"TOWNNAME":"東區","LI":"龍山里","LIN":"7鄰","STREET":"長榮路","SECT":"一段","MAREA":" ","LANE":" ","ALLEY":" ","HOUSE_NO":"２３６號三樓之９","E_COORD97":169911.82999999999,"N_COORD97":2542911.2200000002,"ADDRESS":"長榮路一段２３６號三樓之９","OBJECTID":502369},"geometry":{"x":169911.83000000101,"y":2542911.2199999988}},{"attributes":{"ID":502397,"DIS_CODE":0,"TOWNNAME":"東區","LI":"龍山里","LIN":"7鄰","STREET":"長榮路","SECT":"一段","MAREA":" ","LANE":" ","ALLEY":" ","HOUSE_NO":"２３６號四樓之１","E_COORD97":169911.82999999999,"N_COORD97":2542911.2200000002,"ADDRESS":"長榮路一段２３６號四樓之１","OBJECTID":502370},"geometry":{"x":169911.83000000101,"y":2542911.2199999988}},{"attributes":{"ID":502398,"DIS_CODE":0,"TOWNNAME":"東區","LI":"龍山里","LIN":"7鄰","STREET":"長榮路","SECT":"一段","MAREA":" ","LANE":" ","ALLEY":" ","HOUSE_NO":"２３６號四樓之１０","E_COORD97":169911.82999999999,"N_COORD97":2542911.2200000002,"ADDRESS":"長榮路一段２３６號四樓之１０","OBJECTID":502371},"geometry":{"x":169911.83000000101,"y":2542911.2199999988}},{"attributes":{"ID":502399,"DIS_CODE":0,"TOWNNAME":"東區","LI":"龍山里","LIN":"7鄰","STREET":"長榮路","SECT":"一段","MAREA":" ","LANE":" ","ALLEY":" ","HOUSE_NO":"２３６號四樓之１１","E_COORD97":169911.82999999999,"N_COORD97":2542911.2200000002,"ADDRESS":"長榮路一段２３６號四樓之１１","OBJECTID":502372},"geometry":{"x":169911.83000000101,"y":2542911.2199999988}},{"attributes":{"ID":502400,"DIS_CODE":0,"TOWNNAME":"東區","LI":"龍山里","LIN":"7鄰","STREET":"長榮路","SECT":"一段","MAREA":" ","LANE":" ","ALLEY":" ","HOUSE_NO":"２３６號四樓之１２","E_COORD97":169911.82999999999,"N_COORD97":2542911.2200000002,"ADDRESS":"長榮路一段２３６號四樓之１２","OBJECTID":502373},"geometry":{"x":169911.83000000101,"y":2542911.2199999988}},{"attributes":{"ID":502401,"DIS_CODE":0,"TOWNNAME":"東區","LI":"龍山里","LIN":"7鄰","STREET":"長榮路","SECT":"一段","MAREA":" ","LANE":" ","ALLEY":" ","HOUSE_NO":"２３６號四樓之１３","E_COORD97":169911.82999999999,"N_COORD97":2542911.2200000002,"ADDRESS":"長榮路一段２３６號四樓之１３","OBJECTID":502374},"geometry":{"x":169911.83000000101,"y":2542911.2199999988}},{"attributes":{"ID":502402,"DIS_CODE":0,"TOWNNAME":"東區","LI":"龍山里","LIN":"7鄰","STREET":"長榮路","SECT":"一段","MAREA":" ","LANE":" ","ALLEY":" ","HOUSE_NO":"２３６號四樓之２","E_COORD97":169911.82999999999,"N_COORD97":2542911.2200000002,"ADDRESS":"長榮路一段２３６號四樓之２","OBJECTID":502375},"geometry":{"x":169911.83000000101,"y":2542911.2199999988}},{"attributes":{"ID":502403,"DIS_CODE":0,"TOWNNAME":"東區","LI":"龍山里","LIN":"7鄰","STREET":"長榮路","SECT":"一段","MAREA":" ","LANE":" ","ALLEY":" ","HOUSE_NO":"２３６號四樓之３","E_COORD97":169911.82999999999,"N_COORD97":2542911.2200000002,"ADDRESS":"長榮路一段２３６號四樓之３","OBJECTID":502376},"geometry":{"x":169911.83000000101,"y":2542911.2199999988}},{"attributes":{"ID":502404,"DIS_CODE":0,"TOWNNAME":"東區","LI":"龍山里","LIN":"7鄰","STREET":"長榮路","SECT":"一段","MAREA":" ","LANE":" ","ALLEY":" ","HOUSE_NO":"２３６號四樓之５","E_COORD97":169911.82999999999,"N_COORD97":2542911.2200000002,"ADDRESS":"長榮路一段２３６號四樓之５","OBJECTID":502377},"geometry":{"x":169911.83000000101,"y":2542911.2199999988}},{"attributes":{"ID":502405,"DIS_CODE":0,"TOWNNAME":"東區","LI":"龍山里","LIN":"7鄰","STREET":"長榮路","SECT":"一段","MAREA":" ","LANE":" ","ALLEY":" ","HOUSE_NO":"２３６號四樓之６","E_COORD97":169911.82999999999,"N_COORD97":2542911.2200000002,"ADDRESS":"長榮路一段２３６號四樓之６","OBJECTID":502378},"geometry":{"x":169911.83000000101,"y":2542911.2199999988}},{"attributes":{"ID":502406,"DIS_CODE":0,"TOWNNAME":"東區","LI":"龍山里","LIN":"7鄰","STREET":"長榮路","SECT":"一段","MAREA":" ","LANE":" ","ALLEY":" ","HOUSE_NO":"２３６號四樓之７","E_COORD97":169911.82999999999,"N_COORD97":2542911.2200000002,"ADDRESS":"長榮路一段２３６號四樓之７","OBJECTID":502379},"geometry":{"x":169911.83000000101,"y":2542911.2199999988}},{"attributes":{"ID":502407,"DIS_CODE":0,"TOWNNAME":"東區","LI":"龍山里","LIN":"7鄰","STREET":"長榮路","SECT":"一段","MAREA":" ","LANE":" ","ALLEY":" ","HOUSE_NO":"２３６號四樓之８","E_COORD97":169911.82999999999,"N_COORD97":2542911.2200000002,"ADDRESS":"長榮路一段２３６號四樓之８","OBJECTID":502380},"geometry":{"x":169911.83000000101,"y":2542911.2199999988}},{"attributes":{"ID":502408,"DIS_CODE":0,"TOWNNAME":"東區","LI":"龍山里","LIN":"7鄰","STREET":"長榮路","SECT":"一段","MAREA":" ","LANE":" ","ALLEY":" ","HOUSE_NO":"２３６號四樓之９","E_COORD97":169911.82999999999,"N_COORD97":2542911.2200000002,"ADDRESS":"長榮路一段２３６號四樓之９","OBJECTID":502381},"geometry":{"x":169911.83000000101,"y":2542911.2199999988}},{"attributes":{"ID":502409,"DIS_CODE":0,"TOWNNAME":"永康區","LI":"安康里","LIN":"7鄰","STREET":"中山南路","SECT":" ","MAREA":" ","LANE":" ","ALLEY":" ","HOUSE_NO":"１１１號五樓","E_COORD97":170945.59,"N_COORD97":2545927.7599999998,"ADDRESS":"中山南路１１１號五樓","OBJECTID":502382},"geometry":{"x":170945.59000000078,"y":2545927.7600000035}},{"attributes":{"ID":502410,"DIS_CODE":0,"TOWNNAME":"永康區","LI":"安康里","LIN":"7鄰","STREET":"中山南路","SECT":" ","MAREA":" ","LANE":" ","ALLEY":" ","HOUSE_NO":"１１１號二樓","E_COORD97":170945.59,"N_COORD97":2545927.7599999998,"ADDRESS":"中山南路１１１號二樓","OBJECTID":502383},"geometry":{"x":170945.59000000078,"y":2545927.7600000035}},{"attributes":{"ID":502411,"DIS_CODE":0,"TOWNNAME":"永康區","LI":"安康里","LIN":"7鄰","STREET":"中山南路","SECT":" ","MAREA":" ","LANE":" ","ALLEY":" ","HOUSE_NO":"１１７號七樓之３","E_COORD97":170954.14000000001,"N_COORD97":2545954.04,"ADDRESS":"中山南路１１７號七樓之３","OBJECTID":502384},"geometry":{"x":170954.13999999966,"y":2545954.0399999991}},{"attributes":{"ID":502412,"DIS_CODE":0,"TOWNNAME":"永康區","LI":"安康里","LIN":"7鄰","STREET":"中山南路","SECT":" ","MAREA":" ","LANE":" ","ALLEY":" ","HOUSE_NO":"１１１號四樓","E_COORD97":170945.59,"N_COORD97":2545927.7599999998,"ADDRESS":"中山南路１１１號四樓","OBJECTID":502385},"geometry":{"x":170945.59000000078,"y":2545927.7600000035}},{"attributes":{"ID":502413,"DIS_CODE":0,"TOWNNAME":"永康區","LI":"安康里","LIN":"7鄰","STREET":"中山南路","SECT":" ","MAREA":" ","LANE":" ","ALLEY":" ","HOUSE_NO":"１１５號六樓","E_COORD97":170937.26000000001,"N_COORD97":2545957.25,"ADDRESS":"中山南路１１５號六樓","OBJECTID":502386},"geometry":{"x":170937.26000000164,"y":2545957.25}},{"attributes":{"ID":502414,"DIS_CODE":0,"TOWNNAME":"永康區","LI":"安康里","LIN":"7鄰","STREET":"中山南路","SECT":" ","MAREA":" ","LANE":" ","ALLEY":" ","HOUSE_NO":"１１７號四樓之５","E_COORD97":170954.19,"N_COORD97":2545954.04,"ADDRESS":"中山南路１１７號四樓之５","OBJECTID":502387},"geometry":{"x":170954.19000000134,"y":2545954.0399999991}},{"attributes":{"ID":502415,"DIS_CODE":0,"TOWNNAME":"永康區","LI":"安康里","LIN":"7鄰","STREET":"中山南路","SECT":" ","MAREA":" ","LANE":" ","ALLEY":" ","HOUSE_NO":"１１３號四樓之３","E_COORD97":170943.79000000001,"N_COORD97":2545949.29,"ADDRESS":"中山南路１１３號四樓之３","OBJECTID":502388},"geometry":{"x":170943.79000000004,"y":2545949.2899999991}},{"attributes":{"ID":502416,"DIS_CODE":0,"TOWNNAME":"永康區","LI":"安康里","LIN":"7鄰","STREET":"中山南路","SECT":" ","MAREA":" ","LANE":" ","ALLEY":" ","HOUSE_NO":"１１３號六樓之２","E_COORD97":170943.82000000001,"N_COORD97":2545949.29,"ADDRESS":"中山南路１１３號六樓之２","OBJECTID":502389},"geometry":{"x":170943.8200000003,"y":2545949.2899999991}},{"attributes":{"ID":502417,"DIS_CODE":0,"TOWNNAME":"永康區","LI":"安康里","LIN":"7鄰","STREET":"中山南路","SECT":" ","MAREA":" ","LANE":" ","ALLEY":" ","HOUSE_NO":"１１３號五樓之６","E_COORD97":170943.79000000001,"N_COORD97":2545949.29,"ADDRESS":"中山南路１１３號五樓之６","OBJECTID":502390},"geometry":{"x":170943.79000000004,"y":2545949.2899999991}},{"attributes":{"ID":502418,"DIS_CODE":0,"TOWNNAME":"永康區","LI":"安康里","LIN":"7鄰","STREET":"中山南路","SECT":" ","MAREA":" ","LANE":" ","ALLEY":" ","HOUSE_NO":"１１７號四樓之２","E_COORD97":170954.17000000001,"N_COORD97":2545954.04,"ADDRESS":"中山南路１１７號四樓之２","OBJECTID":502391},"geometry":{"x":170954.16999999993,"y":2545954.0399999991}},{"attributes":{"ID":502419,"DIS_CODE":0,"TOWNNAME":"永康區","LI":"安康里","LIN":"7鄰","STREET":"中山南路","SECT":" ","MAREA":" ","LANE":" ","ALLEY":" ","HOUSE_NO":"１１５號七樓之１","E_COORD97":170939.39999999999,"N_COORD97":2545957.29,"ADDRESS":"中山南路１１５號七樓之１","OBJECTID":502392},"geometry":{"x":170939.40000000037,"y":2545957.2900000028}},{"attributes":{"ID":502420,"DIS_CODE":0,"TOWNNAME":"永康區","LI":"安康里","LIN":"7鄰","STREET":"中山南路","SECT":" ","MAREA":" ","LANE":" ","ALLEY":" ","HOUSE_NO":"１１３號七樓之４","E_COORD97":170943.70999999999,"N_COORD97":2545949.29,"ADDRESS":"中山南路１１３號七樓之４","OBJECTID":502393},"geometry":{"x":170943.70999999996,"y":2545949.2899999991}},{"attributes":{"ID":502421,"DIS_CODE":0,"TOWNNAME":"善化區","LI":"小新里","LIN":"7鄰","STREET":"成功路","SECT":" ","MAREA":" ","LANE":" ","ALLEY":" ","HOUSE_NO":"１５７號","E_COORD97":179755.41,"N_COORD97":2558652.9199999999,"ADDRESS":"成功路１５７號","OBJECTID":502394},"geometry":{"x":179755.41000000108,"y":2558652.9199999999}},{"attributes":{"ID":502422,"DIS_CODE":0,"TOWNNAME":"永康區","LI":"安康里","LIN":"7鄰","STREET":"中山南路","SECT":" ","MAREA":" ","LANE":" ","ALLEY":" ","HOUSE_NO":"１１３號二樓","E_COORD97":170941.54999999999,"N_COORD97":2545949.25,"ADDRESS":"中山南路１１３號二樓","OBJECTID":502395},"geometry":{"x":170941.54999999981,"y":2545949.2500000019}},{"attributes":{"ID":502423,"DIS_CODE":0,"TOWNNAME":"永康區","LI":"安康里","LIN":"7鄰","STREET":"中山南路","SECT":" ","MAREA":" ","LANE":" ","ALLEY":" ","HOUSE_NO":"１１３號八樓之２","E_COORD97":170943.82000000001,"N_COORD97":2545949.29,"ADDRESS":"中山南路１１３號八樓之２","OBJECTID":502396},"geometry":{"x":170943.8200000003,"y":2545949.2899999991}},{"attributes":{"ID":502424,"DIS_CODE":0,"TOWNNAME":"永康區","LI":"安康里","LIN":"7鄰","STREET":"中山南路","SECT":" ","MAREA":" ","LANE":" ","ALLEY":" ","HOUSE_NO":"１１５號二樓之１","E_COORD97":170939.39999999999,"N_COORD97":2545957.29,"ADDRESS":"中山南路１１５號二樓之１","OBJECTID":502397},"geometry":{"x":170939.40000000037,"y":2545957.2900000028}},{"attributes":{"ID":502425,"DIS_CODE":0,"TOWNNAME":"永康區","LI":"安康里","LIN":"7鄰","STREET":"中山南路","SECT":" ","MAREA":" ","LANE":" ","ALLEY":" ","HOUSE_NO":"１１３號四樓之５","E_COORD97":170943.84,"N_COORD97":2545949.29,"ADDRESS":"中山南路１１３號四樓之５","OBJECTID":502398},"geometry":{"x":170943.84000000078,"y":2545949.2899999991}},{"attributes":{"ID":502426,"DIS_CODE":0,"TOWNNAME":"永康區","LI":"安康里","LIN":"7鄰","STREET":"中山南路","SECT":" ","MAREA":" ","LANE":" ","ALLEY":" ","HOUSE_NO":"１１５號五樓之２","E_COORD97":170939.53,"N_COORD97":2545957.29,"ADDRESS":"中山南路１１５號五樓之２","OBJECTID":502399},"geometry":{"x":170939.53000000119,"y":2545957.2900000028}},{"attributes":{"ID":502427,"DIS_CODE":0,"TOWNNAME":"永康區","LI":"甲頂里","LIN":"7鄰","STREET":"中華路","SECT":" ","MAREA":" ","LANE":" ","ALLEY":" ","HOUSE_NO":"９０３號四樓","E_COORD97":170198.87,"N_COORD97":2546859.5099999998,"ADDRESS":"中華路９０３號四樓","OBJECTID":502400},"geometry":{"x":170198.87000000011,"y":2546859.5100000016}}]}