{"displayFieldName":"TOWNNAME","fieldAliases":{"ID":"ID","DIS_CODE":"DIS_CODE","TOWNNAME":"TOWNNAME","LI":"LI","LIN":"LIN","STREET":"STREET","SECT":"SECT","MAREA":"MAREA","LANE":"LANE","ALLEY":"ALLEY","HOUSE_NO":"HOUSE_NO","E_COORD97":"E_COORD97","N_COORD97":"N_COORD97","ADDRESS":"ADDRESS","OBJECTID":"OBJECTID"},"geometryType":"esriGeometryPoint","spatialReference":{"wkid":102443,"latestWkid":3826},"fields":[{"name":"ID","type":"esriFieldTypeDouble","alias":"ID"},{"name":"DIS_CODE","type":"esriFieldTypeInteger","alias":"DIS_CODE"},{"name":"TOWNNAME","type":"esriFieldTypeString","alias":"TOWNNAME","length":8},{"name":"LI","type":"esriFieldTypeString","alias":"LI","length":8},{"name":"LIN","type":"esriFieldTypeString","alias":"LIN","length":12},{"name":"STREET","type":"esriFieldTypeString","alias":"STREET","length":20},{"name":"SECT","type":"esriFieldTypeString","alias":"SECT","length":8},{"name":"MAREA","type":"esriFieldTypeString","alias":"MAREA","length":12},{"name":"LANE","type":"esriFieldTypeString","alias":"LANE","length":10},{"name":"ALLEY","type":"esriFieldTypeString","alias":"ALLEY","length":10},{"name":"HOUSE_NO","type":"esriFieldTypeString","alias":"HOUSE_NO","length":20},{"name":"E_COORD97","type":"esriFieldTypeDouble","alias":"E_COORD97"},{"name":"N_COORD97","type":"esriFieldTypeDouble","alias":"N_COORD97"},{"name":"ADDRESS","type":"esriFieldTypeString","alias":"ADDRESS","length":50},{"name":"OBJECTID","type":"esriFieldTypeOID","alias":"OBJECTID"}],"features":[{"attributes":{"ID":383811,"DIS_CODE":0,"TOWNNAME":"南區","LI":"日新里","LIN":"9鄰","STREET":"金華路","SECT":"一段","MAREA":" ","LANE":"５０３巷","ALLEY":" ","HOUSE_NO":"８９號","E_COORD97":166915.04999999999,"N_COORD97":2541563.1499999999,"ADDRESS":"金華路一段５０３巷８９號","OBJECTID":383801},"geometry":{"x":166915.05000000075,"y":2541563.1500000022}},{"attributes":{"ID":383812,"DIS_CODE":0,"TOWNNAME":"歸仁區","LI":"許厝里","LIN":"9鄰","STREET":"仁愛南街","SECT":" ","MAREA":" ","LANE":"５６巷","ALLEY":" ","HOUSE_NO":"１３號","E_COORD97":178239.78,"N_COORD97":2540470.1099999999,"ADDRESS":"仁愛南街５６巷１３號","OBJECTID":383802},"geometry":{"x":178239.78000000026,"y":2540470.1100000013}},{"attributes":{"ID":383813,"DIS_CODE":0,"TOWNNAME":"東區","LI":"莊敬里","LIN":"8鄰","STREET":"東光路","SECT":"二段","MAREA":" ","LANE":"７７巷","ALLEY":" ","HOUSE_NO":"１號","E_COORD97":171184.51000000001,"N_COORD97":2544136.3100000001,"ADDRESS":"東光路二段７７巷１號","OBJECTID":383803},"geometry":{"x":171184.50999999978,"y":2544136.3100000005}},{"attributes":{"ID":383814,"DIS_CODE":0,"TOWNNAME":"東區","LI":"莊敬里","LIN":"8鄰","STREET":"東光路","SECT":"二段","MAREA":" ","LANE":"７７巷","ALLEY":" ","HOUSE_NO":"２０號","E_COORD97":171144.42999999999,"N_COORD97":2544158.5,"ADDRESS":"東光路二段７７巷２０號","OBJECTID":383804},"geometry":{"x":171144.43000000156,"y":2544158.5}},{"attributes":{"ID":383815,"DIS_CODE":0,"TOWNNAME":"東區","LI":"莊敬里","LIN":"8鄰","STREET":"東光路","SECT":"二段","MAREA":" ","LANE":"７７巷","ALLEY":" ","HOUSE_NO":"２１號","E_COORD97":171143.81,"N_COORD97":2544138.4300000002,"ADDRESS":"東光路二段７７巷２１號","OBJECTID":383805},"geometry":{"x":171143.81000000052,"y":2544138.4299999997}},{"attributes":{"ID":383816,"DIS_CODE":0,"TOWNNAME":"東區","LI":"莊敬里","LIN":"8鄰","STREET":"東光路","SECT":"二段","MAREA":" ","LANE":"７７巷","ALLEY":" ","HOUSE_NO":"２２號","E_COORD97":171139.84,"N_COORD97":2544155.8100000001,"ADDRESS":"東光路二段７７巷２２號","OBJECTID":383806},"geometry":{"x":171139.83999999985,"y":2544155.8100000024}},{"attributes":{"ID":383817,"DIS_CODE":0,"TOWNNAME":"東區","LI":"莊敬里","LIN":"8鄰","STREET":"東光路","SECT":"二段","MAREA":" ","LANE":"７７巷","ALLEY":" ","HOUSE_NO":"２３號","E_COORD97":171140.10000000001,"N_COORD97":2544140.1800000002,"ADDRESS":"東光路二段７７巷２３號","OBJECTID":383807},"geometry":{"x":171140.10000000056,"y":2544140.1799999997}},{"attributes":{"ID":383818,"DIS_CODE":0,"TOWNNAME":"東區","LI":"莊敬里","LIN":"8鄰","STREET":"東光路","SECT":"二段","MAREA":" ","LANE":"７７巷","ALLEY":" ","HOUSE_NO":"２４號","E_COORD97":171135.82999999999,"N_COORD97":2544159.0099999998,"ADDRESS":"東光路二段７７巷２４號","OBJECTID":383808},"geometry":{"x":171135.83000000101,"y":2544159.0099999998}},{"attributes":{"ID":383819,"DIS_CODE":0,"TOWNNAME":"六甲區","LI":"二甲里","LIN":"9鄰","STREET":"光復街","SECT":" ","MAREA":" ","LANE":"１４１巷","ALLEY":" ","HOUSE_NO":"３號","E_COORD97":182982.82000000001,"N_COORD97":2569907.77,"ADDRESS":"光復街１４１巷３號","OBJECTID":383809},"geometry":{"x":182982.8200000003,"y":2569907.7700000014}},{"attributes":{"ID":383820,"DIS_CODE":0,"TOWNNAME":"東區","LI":"莊敬里","LIN":"8鄰","STREET":"東光路","SECT":"二段","MAREA":" ","LANE":"７７巷","ALLEY":" ","HOUSE_NO":"２５號","E_COORD97":171136.38,"N_COORD97":2544138.7999999998,"ADDRESS":"東光路二段７７巷２５號","OBJECTID":383810},"geometry":{"x":171136.37999999896,"y":2544138.8000000026}},{"attributes":{"ID":383821,"DIS_CODE":0,"TOWNNAME":"東區","LI":"莊敬里","LIN":"8鄰","STREET":"東光路","SECT":"二段","MAREA":" ","LANE":"７７巷","ALLEY":" ","HOUSE_NO":"２６號","E_COORD97":171131.82999999999,"N_COORD97":2544156.8100000001,"ADDRESS":"東光路二段７７巷２６號","OBJECTID":383811},"geometry":{"x":171131.82999999914,"y":2544156.8100000005}},{"attributes":{"ID":383822,"DIS_CODE":0,"TOWNNAME":"東區","LI":"莊敬里","LIN":"8鄰","STREET":"東光路","SECT":"二段","MAREA":" ","LANE":"７７巷","ALLEY":" ","HOUSE_NO":"２７號","E_COORD97":171132.38,"N_COORD97":2544140.25,"ADDRESS":"東光路二段７７巷２７號","OBJECTID":383812},"geometry":{"x":171132.37999999989,"y":2544140.25}},{"attributes":{"ID":383823,"DIS_CODE":0,"TOWNNAME":"東區","LI":"莊敬里","LIN":"8鄰","STREET":"東光路","SECT":"二段","MAREA":" ","LANE":"７７巷","ALLEY":" ","HOUSE_NO":"２８號","E_COORD97":171127.63,"N_COORD97":2544159.3100000001,"ADDRESS":"東光路二段７７巷２８號","OBJECTID":383813},"geometry":{"x":171127.62999999989,"y":2544159.3100000024}},{"attributes":{"ID":383824,"DIS_CODE":0,"TOWNNAME":"東區","LI":"莊敬里","LIN":"8鄰","STREET":"東光路","SECT":"二段","MAREA":" ","LANE":"７７巷","ALLEY":" ","HOUSE_NO":"２９號","E_COORD97":171128.14999999999,"N_COORD97":2544139.2999999998,"ADDRESS":"東光路二段７７巷２９號","OBJECTID":383814},"geometry":{"x":171128.15000000037,"y":2544139.3000000026}},{"attributes":{"ID":383825,"DIS_CODE":0,"TOWNNAME":"東區","LI":"莊敬里","LIN":"8鄰","STREET":"東光路","SECT":"二段","MAREA":" ","LANE":"７７巷","ALLEY":" ","HOUSE_NO":"２號","E_COORD97":171195.03,"N_COORD97":2544155.5899999999,"ADDRESS":"東光路二段７７巷２號","OBJECTID":383815},"geometry":{"x":171195.03000000026,"y":2544155.5900000036}},{"attributes":{"ID":383826,"DIS_CODE":0,"TOWNNAME":"歸仁區","LI":"看東里","LIN":"9鄰","STREET":"成功路","SECT":"一段","MAREA":" ","LANE":"１０１巷","ALLEY":" ","HOUSE_NO":"２７號","E_COORD97":178705.95999999999,"N_COORD97":2540167.4500000002,"ADDRESS":"成功路一段１０１巷２７號","OBJECTID":383816},"geometry":{"x":178705.95999999996,"y":2540167.4499999993}},{"attributes":{"ID":383827,"DIS_CODE":0,"TOWNNAME":"歸仁區","LI":"許厝里","LIN":"9鄰","STREET":"仁愛南街","SECT":" ","MAREA":" ","LANE":"５６巷","ALLEY":" ","HOUSE_NO":"１５號","E_COORD97":178221.28,"N_COORD97":2540465.1099999999,"ADDRESS":"仁愛南街５６巷１５號","OBJECTID":383817},"geometry":{"x":178221.28000000026,"y":2540465.1099999994}},{"attributes":{"ID":383828,"DIS_CODE":0,"TOWNNAME":"歸仁區","LI":"新厝里","LIN":"9鄰","STREET":"中正三街","SECT":" ","MAREA":" ","LANE":"５６巷","ALLEY":" ","HOUSE_NO":"２３號","E_COORD97":177752.54999999999,"N_COORD97":2540498.27,"ADDRESS":"中正三街５６巷２３號","OBJECTID":383818},"geometry":{"x":177752.54999999981,"y":2540498.2699999996}},{"attributes":{"ID":383829,"DIS_CODE":0,"TOWNNAME":"歸仁區","LI":"看東里","LIN":"9鄰","STREET":"成功路","SECT":"一段","MAREA":" ","LANE":"１０１巷","ALLEY":" ","HOUSE_NO":"８９號","E_COORD97":178736.67999999999,"N_COORD97":2539944.25,"ADDRESS":"成功路一段１０１巷８９號","OBJECTID":383819},"geometry":{"x":178736.6799999997,"y":2539944.2500000019}},{"attributes":{"ID":383830,"DIS_CODE":0,"TOWNNAME":"歸仁區","LI":"南保里","LIN":"9鄰","STREET":"文化十街","SECT":" ","MAREA":" ","LANE":"２８巷","ALLEY":" ","HOUSE_NO":"８９號","E_COORD97":176778.69,"N_COORD97":2541332.3300000001,"ADDRESS":"文化十街２８巷８９號","OBJECTID":383820},"geometry":{"x":176778.69000000134,"y":2541332.3300000001}},{"attributes":{"ID":383831,"DIS_CODE":0,"TOWNNAME":"歸仁區","LI":"文化里","LIN":"9鄰","STREET":"民權一街","SECT":" ","MAREA":" ","LANE":"２５巷","ALLEY":" ","HOUSE_NO":"１號","E_COORD97":177122.14999999999,"N_COORD97":2541380.3199999998,"ADDRESS":"民權一街２５巷１號","OBJECTID":383821},"geometry":{"x":177122.15000000037,"y":2541380.3200000003}},{"attributes":{"ID":383832,"DIS_CODE":0,"TOWNNAME":"歸仁區","LI":"六甲里","LIN":"9鄰","STREET":"凱旋路","SECT":"二段","MAREA":" ","LANE":"２５２巷","ALLEY":" ","HOUSE_NO":"５號","E_COORD97":176937.87,"N_COORD97":2539430.2799999998,"ADDRESS":"凱旋路二段２５２巷５號","OBJECTID":383822},"geometry":{"x":176937.87000000197,"y":2539430.2799999993}},{"attributes":{"ID":383833,"DIS_CODE":0,"TOWNNAME":"歸仁區","LI":"大潭里","LIN":"9鄰","STREET":"長榮路","SECT":"一段","MAREA":" ","LANE":"１１０巷","ALLEY":" ","HOUSE_NO":"２１號","E_COORD97":174873.72,"N_COORD97":2534484.2799999998,"ADDRESS":"長榮路一段１１０巷２１號","OBJECTID":383823},"geometry":{"x":174873.7200000016,"y":2534484.2799999975}},{"attributes":{"ID":383834,"DIS_CODE":0,"TOWNNAME":"歸仁區","LI":"大潭里","LIN":"9鄰","STREET":"長榮路","SECT":"一段","MAREA":" ","LANE":"１７４巷","ALLEY":" ","HOUSE_NO":"１８號","E_COORD97":174970.82000000001,"N_COORD97":2534476.9700000002,"ADDRESS":"長榮路一段１７４巷１８號","OBJECTID":383824},"geometry":{"x":174970.82000000123,"y":2534476.9700000007}},{"attributes":{"ID":383835,"DIS_CODE":0,"TOWNNAME":"東區","LI":"莊敬里","LIN":"13鄰","STREET":"東光路","SECT":"二段","MAREA":" ","LANE":"３６巷","ALLEY":" ","HOUSE_NO":"１５號","E_COORD97":171275.09,"N_COORD97":2544076.2000000002,"ADDRESS":"東光路二段３６巷１５號","OBJECTID":383825},"geometry":{"x":171275.08999999985,"y":2544076.1999999974}},{"attributes":{"ID":383836,"DIS_CODE":0,"TOWNNAME":"東區","LI":"莊敬里","LIN":"13鄰","STREET":"東光路","SECT":"二段","MAREA":" ","LANE":"３６巷","ALLEY":" ","HOUSE_NO":"２７號","E_COORD97":171305.60000000001,"N_COORD97":2544062.3599999999,"ADDRESS":"東光路二段３６巷２７號","OBJECTID":383826},"geometry":{"x":171305.59999999963,"y":2544062.3600000013}},{"attributes":{"ID":383837,"DIS_CODE":0,"TOWNNAME":"東區","LI":"莊敬里","LIN":"13鄰","STREET":"東光路","SECT":"二段","MAREA":" ","LANE":"３６巷","ALLEY":" ","HOUSE_NO":"２９號","E_COORD97":171312.31,"N_COORD97":2544063.0699999998,"ADDRESS":"東光路二段３６巷２９號","OBJECTID":383827},"geometry":{"x":171312.30999999959,"y":2544063.0700000022}},{"attributes":{"ID":383838,"DIS_CODE":0,"TOWNNAME":"東區","LI":"莊敬里","LIN":"13鄰","STREET":"東光路","SECT":"二段","MAREA":" ","LANE":"３６巷","ALLEY":" ","HOUSE_NO":"３號","E_COORD97":171248.54999999999,"N_COORD97":2544068.1800000002,"ADDRESS":"東光路二段３６巷３號","OBJECTID":383828},"geometry":{"x":171248.54999999981,"y":2544068.1800000016}},{"attributes":{"ID":383839,"DIS_CODE":0,"TOWNNAME":"歸仁區","LI":"武東里","LIN":"9鄰","STREET":"武東三街","SECT":" ","MAREA":" ","LANE":"５３巷","ALLEY":" ","HOUSE_NO":"１０號","E_COORD97":175144.59,"N_COORD97":2535219.25,"ADDRESS":"武東三街５３巷１０號","OBJECTID":383829},"geometry":{"x":175144.59000000078,"y":2535219.2500000019}},{"attributes":{"ID":383840,"DIS_CODE":0,"TOWNNAME":"東區","LI":"莊敬里","LIN":"13鄰","STREET":"東光路","SECT":"二段","MAREA":" ","LANE":"５８巷","ALLEY":" ","HOUSE_NO":"７號","E_COORD97":171260.23999999999,"N_COORD97":2544124.02,"ADDRESS":"東光路二段５８巷７號","OBJECTID":383830},"geometry":{"x":171260.24000000115,"y":2544124.0199999996}},{"attributes":{"ID":383841,"DIS_CODE":0,"TOWNNAME":"東區","LI":"莊敬里","LIN":"13鄰","STREET":"東光路","SECT":"二段","MAREA":" ","LANE":"５８巷","ALLEY":" ","HOUSE_NO":"９號","E_COORD97":171262.28,"N_COORD97":2544121.4199999999,"ADDRESS":"東光路二段５８巷９號","OBJECTID":383831},"geometry":{"x":171262.28000000026,"y":2544121.4199999999}},{"attributes":{"ID":383842,"DIS_CODE":0,"TOWNNAME":"東區","LI":"莊敬里","LIN":"15鄰","STREET":"東光路","SECT":"二段","MAREA":" ","LANE":"２５巷","ALLEY":" ","HOUSE_NO":"１０號","E_COORD97":171179.29000000001,"N_COORD97":2544067.0899999999,"ADDRESS":"東光路二段２５巷１０號","OBJECTID":383832},"geometry":{"x":171179.29000000004,"y":2544067.0899999999}},{"attributes":{"ID":383843,"DIS_CODE":0,"TOWNNAME":"歸仁區","LI":"武東里","LIN":"9鄰","STREET":"武東三街","SECT":" ","MAREA":" ","LANE":"２１巷","ALLEY":" ","HOUSE_NO":"２２號","E_COORD97":175205.98999999999,"N_COORD97":2535180.25,"ADDRESS":"武東三街２１巷２２號","OBJECTID":383833},"geometry":{"x":175205.99000000022,"y":2535180.2499999981}},{"attributes":{"ID":383844,"DIS_CODE":0,"TOWNNAME":"歸仁區","LI":"大潭里","LIN":"9鄰","STREET":"長榮路","SECT":"一段","MAREA":" ","LANE":"２００巷","ALLEY":" ","HOUSE_NO":"１０號","E_COORD97":175050.01999999999,"N_COORD97":2534506.9700000002,"ADDRESS":"長榮路一段２００巷１０號","OBJECTID":383834},"geometry":{"x":175050.02000000048,"y":2534506.9700000007}},{"attributes":{"ID":383845,"DIS_CODE":0,"TOWNNAME":"歸仁區","LI":"武東里","LIN":"9鄰","STREET":"武東三街","SECT":" ","MAREA":" ","LANE":"２１巷","ALLEY":" ","HOUSE_NO":"１８號","E_COORD97":175207.09,"N_COORD97":2535197.25,"ADDRESS":"武東三街２１巷１８號","OBJECTID":383835},"geometry":{"x":175207.09000000078,"y":2535197.2499999981}},{"attributes":{"ID":383846,"DIS_CODE":0,"TOWNNAME":"歸仁區","LI":"武東里","LIN":"9鄰","STREET":"武東三街","SECT":" ","MAREA":" ","LANE":"５３巷","ALLEY":" ","HOUSE_NO":"１８號","E_COORD97":175140.39000000001,"N_COORD97":2535198.25,"ADDRESS":"武東三街５３巷１８號","OBJECTID":383836},"geometry":{"x":175140.3900000006,"y":2535198.2500000019}},{"attributes":{"ID":383847,"DIS_CODE":0,"TOWNNAME":"歸仁區","LI":"武東里","LIN":"9鄰","STREET":"武東三街","SECT":" ","MAREA":" ","LANE":"５３巷","ALLEY":" ","HOUSE_NO":"６號","E_COORD97":175139.34,"N_COORD97":2535234.25,"ADDRESS":"武東三街５３巷６號","OBJECTID":383837},"geometry":{"x":175139.34000000078,"y":2535234.25}},{"attributes":{"ID":383848,"DIS_CODE":0,"TOWNNAME":"歸仁區","LI":"武東里","LIN":"9鄰","STREET":"武東三街","SECT":" ","MAREA":" ","LANE":"５３巷","ALLEY":" ","HOUSE_NO":"２８號","E_COORD97":175134.09,"N_COORD97":2535170.25,"ADDRESS":"武東三街５３巷２８號","OBJECTID":383838},"geometry":{"x":175134.09000000171,"y":2535170.2500000037}},{"attributes":{"ID":383849,"DIS_CODE":0,"TOWNNAME":"歸仁區","LI":"文化里","LIN":"9鄰","STREET":"民權一街","SECT":" ","MAREA":" ","LANE":"２５巷","ALLEY":" ","HOUSE_NO":"５號","E_COORD97":177122.25,"N_COORD97":2541389.3300000001,"ADDRESS":"民權一街２５巷５號","OBJECTID":383839},"geometry":{"x":177122.25000000093,"y":2541389.3300000019}},{"attributes":{"ID":383850,"DIS_CODE":0,"TOWNNAME":"南區","LI":"大林里","LIN":"9鄰","STREET":"大林路","SECT":" ","MAREA":" ","LANE":"１３５巷","ALLEY":" ","HOUSE_NO":"２５號","E_COORD97":169100.29999999999,"N_COORD97":2541630.6299999999,"ADDRESS":"大林路１３５巷２５號","OBJECTID":383840},"geometry":{"x":169100.29999999981,"y":2541630.629999999}},{"attributes":{"ID":383851,"DIS_CODE":0,"TOWNNAME":"南區","LI":"大林里","LIN":"9鄰","STREET":"大林路","SECT":" ","MAREA":" ","LANE":"１３５巷","ALLEY":" ","HOUSE_NO":"２６號","E_COORD97":169086.75,"N_COORD97":2541624.5,"ADDRESS":"大林路１３５巷２６號","OBJECTID":383841},"geometry":{"x":169086.75000000093,"y":2541624.5000000019}},{"attributes":{"ID":383852,"DIS_CODE":0,"TOWNNAME":"南區","LI":"大林里","LIN":"9鄰","STREET":"大林路","SECT":" ","MAREA":" ","LANE":"１３５巷","ALLEY":" ","HOUSE_NO":"２７號","E_COORD97":169101.53,"N_COORD97":2541626.8599999999,"ADDRESS":"大林路１３５巷２７號","OBJECTID":383842},"geometry":{"x":169101.52999999933,"y":2541626.8599999994}},{"attributes":{"ID":383853,"DIS_CODE":0,"TOWNNAME":"南區","LI":"大林里","LIN":"9鄰","STREET":"大林路","SECT":" ","MAREA":" ","LANE":"１３５巷","ALLEY":" ","HOUSE_NO":"２８號","E_COORD97":169089.17000000001,"N_COORD97":2541620.79,"ADDRESS":"大林路１３５巷２８號","OBJECTID":383843},"geometry":{"x":169089.17000000086,"y":2541620.7899999972}},{"attributes":{"ID":383854,"DIS_CODE":0,"TOWNNAME":"南區","LI":"大林里","LIN":"9鄰","STREET":"大林路","SECT":" ","MAREA":" ","LANE":"１３５巷","ALLEY":" ","HOUSE_NO":"２９號","E_COORD97":169102.64999999999,"N_COORD97":2541621.5800000001,"ADDRESS":"大林路１３５巷２９號","OBJECTID":383844},"geometry":{"x":169102.65000000224,"y":2541621.5800000019}},{"attributes":{"ID":383855,"DIS_CODE":0,"TOWNNAME":"南區","LI":"大林里","LIN":"9鄰","STREET":"大林路","SECT":" ","MAREA":" ","LANE":"１３５巷","ALLEY":" ","HOUSE_NO":"３０號","E_COORD97":169090.16,"N_COORD97":2541615.8500000001,"ADDRESS":"大林路１３５巷３０號","OBJECTID":383845},"geometry":{"x":169090.16000000015,"y":2541615.8500000015}},{"attributes":{"ID":383856,"DIS_CODE":0,"TOWNNAME":"安南區","LI":"安西里","LIN":"18鄰","STREET":"安通二街","SECT":" ","MAREA":" ","LANE":"９９巷","ALLEY":" ","HOUSE_NO":"５號","E_COORD97":168603.45999999999,"N_COORD97":2547967.6899999999,"ADDRESS":"安通二街９９巷５號","OBJECTID":383846},"geometry":{"x":168603.46000000183,"y":2547967.6899999995}},{"attributes":{"ID":383857,"DIS_CODE":0,"TOWNNAME":"安南區","LI":"安西里","LIN":"18鄰","STREET":"安通二街","SECT":" ","MAREA":" ","LANE":"９９巷","ALLEY":" ","HOUSE_NO":"７號","E_COORD97":168596.78,"N_COORD97":2547967.2200000002,"ADDRESS":"安通二街９９巷７號","OBJECTID":383847},"geometry":{"x":168596.78000000119,"y":2547967.2200000025}},{"attributes":{"ID":383858,"DIS_CODE":0,"TOWNNAME":"南區","LI":"大林里","LIN":"9鄰","STREET":"大林路","SECT":" ","MAREA":" ","LANE":"１３５巷","ALLEY":" ","HOUSE_NO":"３１號","E_COORD97":169103.88,"N_COORD97":2541617.4399999999,"ADDRESS":"大林路１３５巷３１號","OBJECTID":383848},"geometry":{"x":169103.87999999896,"y":2541617.4400000013}},{"attributes":{"ID":383859,"DIS_CODE":0,"TOWNNAME":"南區","LI":"大林里","LIN":"9鄰","STREET":"大林路","SECT":" ","MAREA":" ","LANE":"１３５巷","ALLEY":" ","HOUSE_NO":"３２號","E_COORD97":169091.14999999999,"N_COORD97":2541611.1000000001,"ADDRESS":"大林路１３５巷３２號","OBJECTID":383849},"geometry":{"x":169091.1500000013,"y":2541611.0999999996}},{"attributes":{"ID":383860,"DIS_CODE":0,"TOWNNAME":"南區","LI":"大林里","LIN":"9鄰","STREET":"大林路","SECT":" ","MAREA":" ","LANE":"１３５巷","ALLEY":" ","HOUSE_NO":"３３號","E_COORD97":169110.94,"N_COORD97":2541613.9199999999,"ADDRESS":"大林路１３５巷３３號","OBJECTID":383850},"geometry":{"x":169110.94000000227,"y":2541613.9199999981}},{"attributes":{"ID":383861,"DIS_CODE":0,"TOWNNAME":"南區","LI":"大林里","LIN":"9鄰","STREET":"大林路","SECT":" ","MAREA":" ","LANE":"１３５巷","ALLEY":" ","HOUSE_NO":"３４號","E_COORD97":169092.88,"N_COORD97":2541606.0099999998,"ADDRESS":"大林路１３５巷３４號","OBJECTID":383851},"geometry":{"x":169092.88000000082,"y":2541606.0099999998}},{"attributes":{"ID":383862,"DIS_CODE":0,"TOWNNAME":"南區","LI":"大林里","LIN":"9鄰","STREET":"大林路","SECT":" ","MAREA":" ","LANE":"１３５巷","ALLEY":" ","HOUSE_NO":"３５號","E_COORD97":169111.62,"N_COORD97":2541609.5899999999,"ADDRESS":"大林路１３５巷３５號","OBJECTID":383852},"geometry":{"x":169111.62000000104,"y":2541609.5900000036}},{"attributes":{"ID":383863,"DIS_CODE":0,"TOWNNAME":"南區","LI":"大林里","LIN":"9鄰","STREET":"大林路","SECT":" ","MAREA":" ","LANE":"１３５巷","ALLEY":" ","HOUSE_NO":"３６號","E_COORD97":169093.73999999999,"N_COORD97":2541601.5099999998,"ADDRESS":"大林路１３５巷３６號","OBJECTID":383853},"geometry":{"x":169093.74000000115,"y":2541601.5100000016}},{"attributes":{"ID":383864,"DIS_CODE":0,"TOWNNAME":"南區","LI":"大林里","LIN":"9鄰","STREET":"大林路","SECT":" ","MAREA":" ","LANE":"１３５巷","ALLEY":" ","HOUSE_NO":"３７號","E_COORD97":169111.42999999999,"N_COORD97":2541604.8399999999,"ADDRESS":"大林路１３５巷３７號","OBJECTID":383854},"geometry":{"x":169111.4299999997,"y":2541604.8400000017}},{"attributes":{"ID":383865,"DIS_CODE":0,"TOWNNAME":"南區","LI":"大林里","LIN":"9鄰","STREET":"大林路","SECT":" ","MAREA":" ","LANE":"１３５巷","ALLEY":" ","HOUSE_NO":"３８號","E_COORD97":169095.47,"N_COORD97":2541596.8700000001,"ADDRESS":"大林路１３５巷３８號","OBJECTID":383855},"geometry":{"x":169095.47000000067,"y":2541596.8700000029}},{"attributes":{"ID":383866,"DIS_CODE":0,"TOWNNAME":"南區","LI":"大林里","LIN":"9鄰","STREET":"大林路","SECT":" ","MAREA":" ","LANE":"１３５巷","ALLEY":" ","HOUSE_NO":"３９號","E_COORD97":169109.01999999999,"N_COORD97":2541595.5099999998,"ADDRESS":"大林路１３５巷３９號","OBJECTID":383856},"geometry":{"x":169109.01999999955,"y":2541595.5099999998}},{"attributes":{"ID":383867,"DIS_CODE":0,"TOWNNAME":"南區","LI":"大林里","LIN":"9鄰","STREET":"大林路","SECT":" ","MAREA":" ","LANE":"１３５巷","ALLEY":" ","HOUSE_NO":"４０號","E_COORD97":169096.59,"N_COORD97":2541591.2400000002,"ADDRESS":"大林路１３５巷４０號","OBJECTID":383857},"geometry":{"x":169096.58999999985,"y":2541591.2400000002}},{"attributes":{"ID":383868,"DIS_CODE":0,"TOWNNAME":"南區","LI":"大林里","LIN":"9鄰","STREET":"大林路","SECT":" ","MAREA":" ","LANE":"１３５巷","ALLEY":" ","HOUSE_NO":"４１號","E_COORD97":169111.62,"N_COORD97":2541581,"ADDRESS":"大林路１３５巷４１號","OBJECTID":383858},"geometry":{"x":169111.62000000104,"y":2541581.0000000019}},{"attributes":{"ID":383869,"DIS_CODE":0,"TOWNNAME":"南區","LI":"大林里","LIN":"9鄰","STREET":"大林路","SECT":" ","MAREA":" ","LANE":"１３５巷","ALLEY":" ","HOUSE_NO":"４２號","E_COORD97":169097.82000000001,"N_COORD97":2541586.5499999998,"ADDRESS":"大林路１３５巷４２號","OBJECTID":383859},"geometry":{"x":169097.8200000003,"y":2541586.5500000007}},{"attributes":{"ID":383870,"DIS_CODE":0,"TOWNNAME":"南區","LI":"大林里","LIN":"9鄰","STREET":"大林路","SECT":" ","MAREA":" ","LANE":"１３５巷","ALLEY":" ","HOUSE_NO":"４３號","E_COORD97":169112.79000000001,"N_COORD97":2541574.5600000001,"ADDRESS":"大林路１３５巷４３號","OBJECTID":383860},"geometry":{"x":169112.79000000004,"y":2541574.5600000024}},{"attributes":{"ID":383871,"DIS_CODE":0,"TOWNNAME":"南區","LI":"大林里","LIN":"9鄰","STREET":"大林路","SECT":" ","MAREA":" ","LANE":"１３５巷","ALLEY":" ","HOUSE_NO":"４６號","E_COORD97":169099.06,"N_COORD97":2541581.73,"ADDRESS":"大林路１３５巷４６號","OBJECTID":383861},"geometry":{"x":169099.06000000145,"y":2541581.7300000004}},{"attributes":{"ID":383872,"DIS_CODE":0,"TOWNNAME":"玉井區","LI":"中正里","LIN":"9鄰","STREET":"健康街","SECT":" ","MAREA":" ","LANE":"１５３巷","ALLEY":" ","HOUSE_NO":"５號","E_COORD97":195402.19,"N_COORD97":2558870.2999999998,"ADDRESS":"健康街１５３巷５號","OBJECTID":383862},"geometry":{"x":195402.19000000134,"y":2558870.3000000026}},{"attributes":{"ID":383873,"DIS_CODE":0,"TOWNNAME":"玉井區","LI":"中正里","LIN":"9鄰","STREET":"健康街","SECT":" ","MAREA":" ","LANE":"１５３巷","ALLEY":" ","HOUSE_NO":"７號","E_COORD97":195411.59,"N_COORD97":2558863.2999999998,"ADDRESS":"健康街１５３巷７號","OBJECTID":383863},"geometry":{"x":195411.58999999985,"y":2558863.3000000026}},{"attributes":{"ID":383874,"DIS_CODE":0,"TOWNNAME":"玉井區","LI":"玉田里","LIN":"9鄰","STREET":"中華路","SECT":" ","MAREA":" ","LANE":"８２巷","ALLEY":" ","HOUSE_NO":"６號","E_COORD97":194925.10000000001,"N_COORD97":2558001.2400000002,"ADDRESS":"中華路８２巷６號","OBJECTID":383864},"geometry":{"x":194925.10000000149,"y":2558001.2399999984}},{"attributes":{"ID":383875,"DIS_CODE":0,"TOWNNAME":"中西區","LI":"光賢里","LIN":"9鄰","STREET":"和善街","SECT":" ","MAREA":" ","LANE":"９８巷","ALLEY":" ","HOUSE_NO":"３號","E_COORD97":166953.89000000001,"N_COORD97":2544820.0899999999,"ADDRESS":"和善街９８巷３號","OBJECTID":383865},"geometry":{"x":166953.88999999966,"y":2544820.0900000036}},{"attributes":{"ID":383876,"DIS_CODE":0,"TOWNNAME":"中西區","LI":"光賢里","LIN":"9鄰","STREET":"和善街","SECT":" ","MAREA":" ","LANE":"９８巷","ALLEY":" ","HOUSE_NO":"４號","E_COORD97":166970.82000000001,"N_COORD97":2544811.8300000001,"ADDRESS":"和善街９８巷４號","OBJECTID":383866},"geometry":{"x":166970.82000000123,"y":2544811.8299999982}},{"attributes":{"ID":383877,"DIS_CODE":0,"TOWNNAME":"玉井區","LI":"玉田里","LIN":"9鄰","STREET":"中華路","SECT":" ","MAREA":" ","LANE":"８２巷","ALLEY":" ","HOUSE_NO":"７號","E_COORD97":194925.60000000001,"N_COORD97":2558022.25,"ADDRESS":"中華路８２巷７號","OBJECTID":383867},"geometry":{"x":194925.60000000056,"y":2558022.2500000019}},{"attributes":{"ID":383878,"DIS_CODE":0,"TOWNNAME":"玉井區","LI":"中正里","LIN":"9鄰","STREET":"大埕街","SECT":" ","MAREA":" ","LANE":"１２６巷","ALLEY":" ","HOUSE_NO":"８號","E_COORD97":195398.45000000001,"N_COORD97":2558843.25,"ADDRESS":"大埕街１２６巷８號","OBJECTID":383868},"geometry":{"x":195398.45000000112,"y":2558843.2500000019}},{"attributes":{"ID":383879,"DIS_CODE":0,"TOWNNAME":"玉井區","LI":"中正里","LIN":"9鄰","STREET":"健康街","SECT":" ","MAREA":" ","LANE":"９５巷","ALLEY":" ","HOUSE_NO":"９號","E_COORD97":195497.14000000001,"N_COORD97":2558853.2999999998,"ADDRESS":"健康街９５巷９號","OBJECTID":383869},"geometry":{"x":195497.13999999966,"y":2558853.3000000026}},{"attributes":{"ID":383880,"DIS_CODE":0,"TOWNNAME":"玉井區","LI":"中正里","LIN":"9鄰","STREET":"大埕街","SECT":" ","MAREA":" ","LANE":"１１６巷","ALLEY":" ","HOUSE_NO":"１０號","E_COORD97":195416,"N_COORD97":2558845.25,"ADDRESS":"大埕街１１６巷１０號","OBJECTID":383870},"geometry":{"x":195416.00000000186,"y":2558845.2500000037}},{"attributes":{"ID":383881,"DIS_CODE":0,"TOWNNAME":"玉井區","LI":"玉井里","LIN":"9鄰","STREET":"富強街","SECT":" ","MAREA":" ","LANE":"５９巷","ALLEY":" ","HOUSE_NO":"１７號","E_COORD97":194809.67000000001,"N_COORD97":2558236.25,"ADDRESS":"富強街５９巷１７號","OBJECTID":383871},"geometry":{"x":194809.67000000179,"y":2558236.2500000019}},{"attributes":{"ID":383882,"DIS_CODE":0,"TOWNNAME":"玉井區","LI":"玉井里","LIN":"9鄰","STREET":"富強街","SECT":" ","MAREA":" ","LANE":"５９巷","ALLEY":" ","HOUSE_NO":"１９號","E_COORD97":194808.67000000001,"N_COORD97":2558232.25,"ADDRESS":"富強街５９巷１９號","OBJECTID":383872},"geometry":{"x":194808.67000000086,"y":2558232.2500000019}},{"attributes":{"ID":383883,"DIS_CODE":0,"TOWNNAME":"玉井區","LI":"玉井里","LIN":"9鄰","STREET":"富強街","SECT":" ","MAREA":" ","LANE":"５９巷","ALLEY":" ","HOUSE_NO":"２３號","E_COORD97":194805.95999999999,"N_COORD97":2558224.25,"ADDRESS":"富強街５９巷２３號","OBJECTID":383873},"geometry":{"x":194805.96000000183,"y":2558224.25}},{"attributes":{"ID":383884,"DIS_CODE":0,"TOWNNAME":"玉井區","LI":"中正里","LIN":"9鄰","STREET":"健康街","SECT":" ","MAREA":" ","LANE":"１５３巷","ALLEY":" ","HOUSE_NO":"９號","E_COORD97":195405.98000000001,"N_COORD97":2558856.2999999998,"ADDRESS":"健康街１５３巷９號","OBJECTID":383874},"geometry":{"x":195405.98000000045,"y":2558856.3000000026}},{"attributes":{"ID":383885,"DIS_CODE":0,"TOWNNAME":"玉井區","LI":"玉井里","LIN":"9鄰","STREET":"民生路","SECT":" ","MAREA":" ","LANE":"１１巷","ALLEY":" ","HOUSE_NO":"１４號","E_COORD97":194728.09,"N_COORD97":2558227.29,"ADDRESS":"民生路１１巷１４號","OBJECTID":383875},"geometry":{"x":194728.08999999985,"y":2558227.2900000028}},{"attributes":{"ID":383886,"DIS_CODE":0,"TOWNNAME":"玉井區","LI":"玉井里","LIN":"9鄰","STREET":"中正路","SECT":" ","MAREA":" ","LANE":"５１巷","ALLEY":" ","HOUSE_NO":"９號","E_COORD97":194796.70999999999,"N_COORD97":2558219.25,"ADDRESS":"中正路５１巷９號","OBJECTID":383876},"geometry":{"x":194796.70999999996,"y":2558219.2500000019}},{"attributes":{"ID":383887,"DIS_CODE":0,"TOWNNAME":"玉井區","LI":"玉井里","LIN":"9鄰","STREET":"富強街","SECT":" ","MAREA":" ","LANE":"５９巷","ALLEY":" ","HOUSE_NO":"１５號","E_COORD97":194810.67000000001,"N_COORD97":2558242.25,"ADDRESS":"富強街５９巷１５號","OBJECTID":383877},"geometry":{"x":194810.66999999993,"y":2558242.2500000019}},{"attributes":{"ID":383888,"DIS_CODE":0,"TOWNNAME":"玉井區","LI":"玉井里","LIN":"9鄰","STREET":"中正路","SECT":" ","MAREA":" ","LANE":"５１巷","ALLEY":" ","HOUSE_NO":"３號","E_COORD97":194790.89000000001,"N_COORD97":2558192.2400000002,"ADDRESS":"中正路５１巷３號","OBJECTID":383878},"geometry":{"x":194790.89000000153,"y":2558192.2400000021}},{"attributes":{"ID":383889,"DIS_CODE":0,"TOWNNAME":"玉井區","LI":"玉井里","LIN":"9鄰","STREET":"中正路","SECT":" ","MAREA":" ","LANE":"５１巷","ALLEY":" ","HOUSE_NO":"５號","E_COORD97":194793.10999999999,"N_COORD97":2558202.2400000002,"ADDRESS":"中正路５１巷５號","OBJECTID":383879},"geometry":{"x":194793.11000000034,"y":2558202.2400000021}},{"attributes":{"ID":383890,"DIS_CODE":0,"TOWNNAME":"玉井區","LI":"玉井里","LIN":"9鄰","STREET":"富強街","SECT":" ","MAREA":" ","LANE":"５９巷","ALLEY":" ","HOUSE_NO":"２１號","E_COORD97":194807.07000000001,"N_COORD97":2558227.25,"ADDRESS":"富強街５９巷２１號","OBJECTID":383880},"geometry":{"x":194807.0700000003,"y":2558227.25}},{"attributes":{"ID":383891,"DIS_CODE":0,"TOWNNAME":"玉井區","LI":"玉井里","LIN":"9鄰","STREET":"中正路","SECT":" ","MAREA":" ","LANE":"５１巷","ALLEY":" ","HOUSE_NO":"４號","E_COORD97":194791.60000000001,"N_COORD97":2558196.2400000002,"ADDRESS":"中正路５１巷４號","OBJECTID":383881},"geometry":{"x":194791.60000000056,"y":2558196.2400000021}},{"attributes":{"ID":383892,"DIS_CODE":0,"TOWNNAME":"中西區","LI":"光賢里","LIN":"9鄰","STREET":"和善街","SECT":" ","MAREA":" ","LANE":"９８巷","ALLEY":" ","HOUSE_NO":"５號","E_COORD97":166956.85000000001,"N_COORD97":2544823.8999999999,"ADDRESS":"和善街９８巷５號","OBJECTID":383882},"geometry":{"x":166956.85000000056,"y":2544823.9000000004}},{"attributes":{"ID":383893,"DIS_CODE":0,"TOWNNAME":"中西區","LI":"光賢里","LIN":"9鄰","STREET":"和善街","SECT":" ","MAREA":" ","LANE":"９８巷","ALLEY":" ","HOUSE_NO":"６號","E_COORD97":166974.63,"N_COORD97":2544816.4900000002,"ADDRESS":"和善街９８巷６號","OBJECTID":383883},"geometry":{"x":166974.62999999989,"y":2544816.4900000002}},{"attributes":{"ID":383894,"DIS_CODE":0,"TOWNNAME":"歸仁區","LI":"新厝里","LIN":"9鄰","STREET":"和平南街","SECT":" ","MAREA":" ","LANE":"１１０巷","ALLEY":" ","HOUSE_NO":"１號","E_COORD97":177782.37,"N_COORD97":2540511.27,"ADDRESS":"和平南街１１０巷１號","OBJECTID":383884},"geometry":{"x":177782.37000000104,"y":2540511.2699999996}},{"attributes":{"ID":383895,"DIS_CODE":0,"TOWNNAME":"歸仁區","LI":"新厝里","LIN":"9鄰","STREET":"和平南街","SECT":" ","MAREA":" ","LANE":"１２６巷","ALLEY":" ","HOUSE_NO":"１９號","E_COORD97":177751.97,"N_COORD97":2540467.5,"ADDRESS":"和平南街１２６巷１９號","OBJECTID":383885},"geometry":{"x":177751.96999999881,"y":2540467.4999999981}},{"attributes":{"ID":383896,"DIS_CODE":0,"TOWNNAME":"歸仁區","LI":"歸南里","LIN":"9鄰","STREET":"民生南街","SECT":"二段","MAREA":" ","LANE":"１２１巷","ALLEY":" ","HOUSE_NO":"２０號","E_COORD97":176234.20999999999,"N_COORD97":2540272.25,"ADDRESS":"民生南街二段１２１巷２０號","OBJECTID":383886},"geometry":{"x":176234.21000000089,"y":2540272.25}},{"attributes":{"ID":383897,"DIS_CODE":0,"TOWNNAME":"南區","LI":"文南里","LIN":"9鄰","STREET":"長南街","SECT":" ","MAREA":" ","LANE":"３６巷","ALLEY":" ","HOUSE_NO":"１３號","E_COORD97":166974.38,"N_COORD97":2542676.54,"ADDRESS":"長南街３６巷１３號","OBJECTID":383887},"geometry":{"x":166974.37999999989,"y":2542676.5399999991}},{"attributes":{"ID":383898,"DIS_CODE":0,"TOWNNAME":"南區","LI":"文南里","LIN":"9鄰","STREET":"長南街","SECT":" ","MAREA":" ","LANE":"３６巷","ALLEY":" ","HOUSE_NO":"１５號","E_COORD97":166974.66,"N_COORD97":2542681.1400000001,"ADDRESS":"長南街３６巷１５號","OBJECTID":383888},"geometry":{"x":166974.66000000015,"y":2542681.1399999987}},{"attributes":{"ID":383899,"DIS_CODE":0,"TOWNNAME":"南區","LI":"文南里","LIN":"9鄰","STREET":"長南街","SECT":" ","MAREA":" ","LANE":"３６巷","ALLEY":" ","HOUSE_NO":"１７號","E_COORD97":166974.79999999999,"N_COORD97":2542685.46,"ADDRESS":"長南街３６巷１７號","OBJECTID":383889},"geometry":{"x":166974.79999999981,"y":2542685.4600000009}},{"attributes":{"ID":383900,"DIS_CODE":0,"TOWNNAME":"南區","LI":"文南里","LIN":"9鄰","STREET":"長南街","SECT":" ","MAREA":" ","LANE":"３６巷","ALLEY":" ","HOUSE_NO":"１９號","E_COORD97":166975.5,"N_COORD97":2542689.52,"ADDRESS":"長南街３６巷１９號","OBJECTID":383890},"geometry":{"x":166975.5,"y":2542689.5200000014}},{"attributes":{"ID":383901,"DIS_CODE":0,"TOWNNAME":"南區","LI":"文南里","LIN":"9鄰","STREET":"長南街","SECT":" ","MAREA":" ","LANE":"３６巷","ALLEY":" ","HOUSE_NO":"２１號","E_COORD97":166975.5,"N_COORD97":2542694.1200000001,"ADDRESS":"長南街３６巷２１號","OBJECTID":383891},"geometry":{"x":166975.5,"y":2542694.120000001}},{"attributes":{"ID":383902,"DIS_CODE":0,"TOWNNAME":"南區","LI":"文南里","LIN":"9鄰","STREET":"長南街","SECT":" ","MAREA":" ","LANE":"３６巷","ALLEY":" ","HOUSE_NO":"２３號","E_COORD97":166975.5,"N_COORD97":2542699.4199999999,"ADDRESS":"長南街３６巷２３號","OBJECTID":383892},"geometry":{"x":166975.5,"y":2542699.4200000018}},{"attributes":{"ID":383903,"DIS_CODE":0,"TOWNNAME":"南區","LI":"文南里","LIN":"9鄰","STREET":"長南街","SECT":" ","MAREA":" ","LANE":"３６巷","ALLEY":" ","HOUSE_NO":"３５號","E_COORD97":166977.87,"N_COORD97":2542728.6899999999,"ADDRESS":"長南街３６巷３５號","OBJECTID":383893},"geometry":{"x":166977.87000000011,"y":2542728.6900000013}},{"attributes":{"ID":383904,"DIS_CODE":0,"TOWNNAME":"南區","LI":"文南里","LIN":"9鄰","STREET":"長南街","SECT":" ","MAREA":" ","LANE":"３６巷","ALLEY":" ","HOUSE_NO":"３７號","E_COORD97":166977.73000000001,"N_COORD97":2542732.8700000001,"ADDRESS":"長南街３６巷３７號","OBJECTID":383894},"geometry":{"x":166977.73000000045,"y":2542732.870000001}},{"attributes":{"ID":383905,"DIS_CODE":0,"TOWNNAME":"南區","LI":"文南里","LIN":"9鄰","STREET":"長南街","SECT":" ","MAREA":" ","LANE":"３６巷","ALLEY":" ","HOUSE_NO":"３９號","E_COORD97":166978.42999999999,"N_COORD97":2542737.3300000001,"ADDRESS":"長南街３６巷３９號","OBJECTID":383895},"geometry":{"x":166978.43000000063,"y":2542737.3300000038}},{"attributes":{"ID":383906,"DIS_CODE":0,"TOWNNAME":"南區","LI":"文南里","LIN":"9鄰","STREET":"健康路","SECT":"二段","MAREA":" ","LANE":"２６４巷","ALLEY":" ","HOUSE_NO":"１號","E_COORD97":166963.17000000001,"N_COORD97":2542525.3700000001,"ADDRESS":"健康路二段２６４巷１號","OBJECTID":383896},"geometry":{"x":166963.17000000086,"y":2542525.3700000029}},{"attributes":{"ID":383907,"DIS_CODE":0,"TOWNNAME":"南區","LI":"文南里","LIN":"9鄰","STREET":"健康路","SECT":"二段","MAREA":" ","LANE":"２６４巷","ALLEY":" ","HOUSE_NO":"７號","E_COORD97":166963.79000000001,"N_COORD97":2542536.3599999999,"ADDRESS":"健康路二段２６４巷７號","OBJECTID":383897},"geometry":{"x":166963.7900000019,"y":2542536.3600000031}},{"attributes":{"ID":383908,"DIS_CODE":0,"TOWNNAME":"南區","LI":"文南里","LIN":"9鄰","STREET":"健康路","SECT":"二段","MAREA":" ","LANE":"２６４巷","ALLEY":" ","HOUSE_NO":"９號","E_COORD97":166963.95999999999,"N_COORD97":2542544.1899999999,"ADDRESS":"健康路二段２６４巷９號","OBJECTID":383898},"geometry":{"x":166963.95999999996,"y":2542544.1900000032}},{"attributes":{"ID":383909,"DIS_CODE":0,"TOWNNAME":"南區","LI":"文南里","LIN":"9鄰","STREET":"健康路","SECT":"二段","MAREA":" ","LANE":"２６４巷","ALLEY":" ","HOUSE_NO":"１３號","E_COORD97":166964.95000000001,"N_COORD97":2542555.04,"ADDRESS":"健康路二段２６４巷１３號","OBJECTID":383899},"geometry":{"x":166964.95000000112,"y":2542555.0400000028}},{"attributes":{"ID":383910,"DIS_CODE":0,"TOWNNAME":"南區","LI":"文南里","LIN":"9鄰","STREET":"健康路","SECT":"二段","MAREA":" ","LANE":"２６４巷","ALLEY":" ","HOUSE_NO":"１５號","E_COORD97":166964.85000000001,"N_COORD97":2542560.9100000001,"ADDRESS":"健康路二段２６４巷１５號","OBJECTID":383900},"geometry":{"x":166964.85000000056,"y":2542560.910000002}},{"attributes":{"ID":383911,"DIS_CODE":0,"TOWNNAME":"南區","LI":"文南里","LIN":"9鄰","STREET":"健康路","SECT":"二段","MAREA":" ","LANE":"２６４巷","ALLEY":" ","HOUSE_NO":"１７號","E_COORD97":166965.04000000001,"N_COORD97":2542565.7999999998,"ADDRESS":"健康路二段２６４巷１７號","OBJECTID":383901},"geometry":{"x":166965.04000000004,"y":2542565.8000000026}},{"attributes":{"ID":383912,"DIS_CODE":0,"TOWNNAME":"南區","LI":"文南里","LIN":"9鄰","STREET":"健康路","SECT":"二段","MAREA":" ","LANE":"２６４巷","ALLEY":" ","HOUSE_NO":"１９號","E_COORD97":166965.66,"N_COORD97":2542570.5099999998,"ADDRESS":"健康路二段２６４巷１９號","OBJECTID":383902},"geometry":{"x":166965.66000000015,"y":2542570.5100000016}},{"attributes":{"ID":383913,"DIS_CODE":0,"TOWNNAME":"南區","LI":"文南里","LIN":"9鄰","STREET":"健康路","SECT":"二段","MAREA":" ","LANE":"２６４巷","ALLEY":" ","HOUSE_NO":"２１號","E_COORD97":166966.28,"N_COORD97":2542575.2200000002,"ADDRESS":"健康路二段２６４巷２１號","OBJECTID":383903},"geometry":{"x":166966.28000000119,"y":2542575.2200000007}},{"attributes":{"ID":383914,"DIS_CODE":0,"TOWNNAME":"北區","LI":"正風里","LIN":"9鄰","STREET":"大武街","SECT":" ","MAREA":" ","LANE":"３３７巷","ALLEY":" ","HOUSE_NO":"７號","E_COORD97":169718.75,"N_COORD97":2546422.5800000001,"ADDRESS":"大武街３３７巷７號","OBJECTID":383904},"geometry":{"x":169718.75000000186,"y":2546422.5800000001}},{"attributes":{"ID":383915,"DIS_CODE":0,"TOWNNAME":"北區","LI":"正風里","LIN":"9鄰","STREET":"大武街","SECT":" ","MAREA":" ","LANE":"３３７巷","ALLEY":" ","HOUSE_NO":"９號","E_COORD97":169726.45999999999,"N_COORD97":2546432.5499999998,"ADDRESS":"大武街３３７巷９號","OBJECTID":383905},"geometry":{"x":169726.46000000089,"y":2546432.5500000026}},{"attributes":{"ID":383916,"DIS_CODE":0,"TOWNNAME":"六甲區","LI":"二甲里","LIN":"9鄰","STREET":"光復街","SECT":" ","MAREA":" ","LANE":"１３６巷","ALLEY":" ","HOUSE_NO":"１１號","E_COORD97":183010.23999999999,"N_COORD97":2569998.73,"ADDRESS":"光復街１３６巷１１號","OBJECTID":383906},"geometry":{"x":183010.24000000022,"y":2569998.7300000004}},{"attributes":{"ID":383917,"DIS_CODE":0,"TOWNNAME":"六甲區","LI":"二甲里","LIN":"9鄰","STREET":"光復街","SECT":" ","MAREA":" ","LANE":"１３６巷","ALLEY":" ","HOUSE_NO":"２１號","E_COORD97":183016.92000000001,"N_COORD97":2570026.77,"ADDRESS":"光復街１３６巷２１號","OBJECTID":383907},"geometry":{"x":183016.92000000086,"y":2570026.7700000014}},{"attributes":{"ID":383918,"DIS_CODE":0,"TOWNNAME":"六甲區","LI":"二甲里","LIN":"9鄰","STREET":"光復街","SECT":" ","MAREA":" ","LANE":"１３６巷","ALLEY":" ","HOUSE_NO":"３９號","E_COORD97":183063.76999999999,"N_COORD97":2570056.3399999999,"ADDRESS":"光復街１３６巷３９號","OBJECTID":383908},"geometry":{"x":183063.76999999955,"y":2570056.339999998}},{"attributes":{"ID":383919,"DIS_CODE":0,"TOWNNAME":"六甲區","LI":"二甲里","LIN":"9鄰","STREET":"光復街","SECT":" ","MAREA":" ","LANE":"１３６巷","ALLEY":" ","HOUSE_NO":"５號","E_COORD97":183011.62,"N_COORD97":2569979.9199999999,"ADDRESS":"光復街１３６巷５號","OBJECTID":383909},"geometry":{"x":183011.62000000197,"y":2569979.9199999999}},{"attributes":{"ID":383920,"DIS_CODE":0,"TOWNNAME":"六甲區","LI":"二甲里","LIN":"9鄰","STREET":"光復街","SECT":" ","MAREA":" ","LANE":"１３６巷","ALLEY":" ","HOUSE_NO":"９號","E_COORD97":183009.64999999999,"N_COORD97":2569994.3799999999,"ADDRESS":"光復街１３６巷９號","OBJECTID":383910},"geometry":{"x":183009.65000000037,"y":2569994.3800000027}},{"attributes":{"ID":383921,"DIS_CODE":0,"TOWNNAME":"六甲區","LI":"二甲里","LIN":"9鄰","STREET":"光復街","SECT":" ","MAREA":" ","LANE":"１４１巷","ALLEY":" ","HOUSE_NO":"５號","E_COORD97":182975.14999999999,"N_COORD97":2569886.27,"ADDRESS":"光復街１４１巷５號","OBJECTID":383911},"geometry":{"x":182975.1500000013,"y":2569886.2699999996}},{"attributes":{"ID":383922,"DIS_CODE":0,"TOWNNAME":"六甲區","LI":"甲南里","LIN":"9鄰","STREET":"忠孝街","SECT":" ","MAREA":" ","LANE":"５３巷","ALLEY":" ","HOUSE_NO":"１６號","E_COORD97":183792.38,"N_COORD97":2569687.5899999999,"ADDRESS":"忠孝街５３巷１６號","OBJECTID":383912},"geometry":{"x":183792.37999999989,"y":2569687.5899999999}},{"attributes":{"ID":383923,"DIS_CODE":0,"TOWNNAME":"六甲區","LI":"甲南里","LIN":"9鄰","STREET":"忠孝街","SECT":" ","MAREA":" ","LANE":"５３巷","ALLEY":" ","HOUSE_NO":"１８號","E_COORD97":183800.26000000001,"N_COORD97":2569683.6699999999,"ADDRESS":"忠孝街５３巷１８號","OBJECTID":383913},"geometry":{"x":183800.26000000164,"y":2569683.6699999999}},{"attributes":{"ID":383924,"DIS_CODE":0,"TOWNNAME":"六甲區","LI":"甲南里","LIN":"9鄰","STREET":"忠孝街","SECT":" ","MAREA":" ","LANE":"６７巷","ALLEY":" ","HOUSE_NO":"２號","E_COORD97":183843.64999999999,"N_COORD97":2569656.54,"ADDRESS":"忠孝街６７巷２號","OBJECTID":383914},"geometry":{"x":183843.65000000037,"y":2569656.5399999991}},{"attributes":{"ID":383925,"DIS_CODE":0,"TOWNNAME":"六甲區","LI":"甲南里","LIN":"9鄰","STREET":"忠孝街","SECT":" ","MAREA":" ","LANE":"６７巷","ALLEY":" ","HOUSE_NO":"６號","E_COORD97":183837.39999999999,"N_COORD97":2569662.6899999999,"ADDRESS":"忠孝街６７巷６號","OBJECTID":383915},"geometry":{"x":183837.4000000013,"y":2569662.6899999995}},{"attributes":{"ID":383926,"DIS_CODE":0,"TOWNNAME":"六甲區","LI":"甲南里","LIN":"9鄰","STREET":"忠孝街","SECT":" ","MAREA":" ","LANE":"６７巷","ALLEY":" ","HOUSE_NO":"８號","E_COORD97":183815.76000000001,"N_COORD97":2569675.9399999999,"ADDRESS":"忠孝街６７巷８號","OBJECTID":383916},"geometry":{"x":183815.76000000071,"y":2569675.9400000032}},{"attributes":{"ID":383927,"DIS_CODE":0,"TOWNNAME":"六甲區","LI":"甲東里","LIN":"9鄰","STREET":"曾文街","SECT":" ","MAREA":" ","LANE":"１２１巷","ALLEY":" ","HOUSE_NO":"２１號","E_COORD97":184415.22,"N_COORD97":2570625.6699999999,"ADDRESS":"曾文街１２１巷２１號","OBJECTID":383917},"geometry":{"x":184415.21999999974,"y":2570625.6699999999}},{"attributes":{"ID":383928,"DIS_CODE":0,"TOWNNAME":"六甲區","LI":"甲東里","LIN":"9鄰","STREET":"曾文街","SECT":" ","MAREA":" ","LANE":"１２１巷","ALLEY":" ","HOUSE_NO":"２３號","E_COORD97":184413.23999999999,"N_COORD97":2570639.02,"ADDRESS":"曾文街１２１巷２３號","OBJECTID":383918},"geometry":{"x":184413.24000000115,"y":2570639.0200000014}},{"attributes":{"ID":383929,"DIS_CODE":0,"TOWNNAME":"六甲區","LI":"甲東里","LIN":"9鄰","STREET":"曾文街","SECT":" ","MAREA":" ","LANE":"１２１巷","ALLEY":" ","HOUSE_NO":"４１號","E_COORD97":184278.25,"N_COORD97":2570703.6000000001,"ADDRESS":"曾文街１２１巷４１號","OBJECTID":383919},"geometry":{"x":184278.25,"y":2570703.6000000015}},{"attributes":{"ID":383930,"DIS_CODE":0,"TOWNNAME":"六甲區","LI":"甲東里","LIN":"9鄰","STREET":"曾文街","SECT":" ","MAREA":" ","LANE":"１２１巷","ALLEY":" ","HOUSE_NO":"４３號","E_COORD97":184309.48999999999,"N_COORD97":2570817.0600000001,"ADDRESS":"曾文街１２１巷４３號","OBJECTID":383920},"geometry":{"x":184309.49000000209,"y":2570817.0600000005}},{"attributes":{"ID":383931,"DIS_CODE":0,"TOWNNAME":"六甲區","LI":"甲東里","LIN":"9鄰","STREET":"曾文街","SECT":" ","MAREA":" ","LANE":"１２１巷","ALLEY":" ","HOUSE_NO":"４５號","E_COORD97":184374.29999999999,"N_COORD97":2570835.6200000001,"ADDRESS":"曾文街１２１巷４５號","OBJECTID":383921},"geometry":{"x":184374.29999999981,"y":2570835.6200000048}},{"attributes":{"ID":383932,"DIS_CODE":0,"TOWNNAME":"六甲區","LI":"甲東里","LIN":"9鄰","STREET":"曾文街","SECT":" ","MAREA":" ","LANE":"１２１巷","ALLEY":" ","HOUSE_NO":"５０號","E_COORD97":184236.23999999999,"N_COORD97":2570773.3500000001,"ADDRESS":"曾文街１２１巷５０號","OBJECTID":383922},"geometry":{"x":184236.24000000022,"y":2570773.3499999996}},{"attributes":{"ID":383933,"DIS_CODE":0,"TOWNNAME":"六甲區","LI":"甲東里","LIN":"9鄰","STREET":"曾文街","SECT":" ","MAREA":" ","LANE":"５１巷","ALLEY":" ","HOUSE_NO":"１１號","E_COORD97":184090.22,"N_COORD97":2570334.9100000001,"ADDRESS":"曾文街５１巷１１號","OBJECTID":383923},"geometry":{"x":184090.21999999974,"y":2570334.910000002}},{"attributes":{"ID":383934,"DIS_CODE":0,"TOWNNAME":"六甲區","LI":"甲東里","LIN":"9鄰","STREET":"曾文街","SECT":" ","MAREA":" ","LANE":"５１巷","ALLEY":" ","HOUSE_NO":"３號之１","E_COORD97":184043.26999999999,"N_COORD97":2570268.8399999999,"ADDRESS":"曾文街５１巷３號之１","OBJECTID":383924},"geometry":{"x":184043.26999999955,"y":2570268.8399999999}},{"attributes":{"ID":383935,"DIS_CODE":0,"TOWNNAME":"六甲區","LI":"甲東里","LIN":"9鄰","STREET":"曾文街","SECT":" ","MAREA":" ","LANE":"５１巷","ALLEY":" ","HOUSE_NO":"３號","E_COORD97":184062.38,"N_COORD97":2570279.1699999999,"ADDRESS":"曾文街５１巷３號","OBJECTID":383925},"geometry":{"x":184062.38000000175,"y":2570279.1700000018}},{"attributes":{"ID":383936,"DIS_CODE":0,"TOWNNAME":"六甲區","LI":"甲東里","LIN":"9鄰","STREET":"曾文街","SECT":" ","MAREA":" ","LANE":"５１巷","ALLEY":" ","HOUSE_NO":"８號","E_COORD97":184111.42999999999,"N_COORD97":2570327.3500000001,"ADDRESS":"曾文街５１巷８號","OBJECTID":383926},"geometry":{"x":184111.43000000063,"y":2570327.3500000034}},{"attributes":{"ID":383937,"DIS_CODE":0,"TOWNNAME":"六甲區","LI":"甲東里","LIN":"9鄰","STREET":"曾文街","SECT":" ","MAREA":" ","LANE":"８３巷","ALLEY":" ","HOUSE_NO":"２號","E_COORD97":184201.73999999999,"N_COORD97":2570362.54,"ADDRESS":"曾文街８３巷２號","OBJECTID":383927},"geometry":{"x":184201.74000000115,"y":2570362.5399999991}},{"attributes":{"ID":383938,"DIS_CODE":0,"TOWNNAME":"六甲區","LI":"甲東里","LIN":"9鄰","STREET":"曾文街","SECT":" ","MAREA":" ","LANE":"８３巷","ALLEY":" ","HOUSE_NO":"６號","E_COORD97":184159.73000000001,"N_COORD97":2570363.3999999999,"ADDRESS":"曾文街８３巷６號","OBJECTID":383928},"geometry":{"x":184159.73000000045,"y":2570363.4000000022}},{"attributes":{"ID":383939,"DIS_CODE":0,"TOWNNAME":"新營區","LI":"南興里","LIN":"9鄰","STREET":"和平路","SECT":" ","MAREA":" ","LANE":"１０２巷","ALLEY":" ","HOUSE_NO":"３８之２號","E_COORD97":179303.35999999999,"N_COORD97":2577618.1400000001,"ADDRESS":"和平路１０２巷３８之２號","OBJECTID":383929},"geometry":{"x":179303.36000000127,"y":2577618.1400000006}},{"attributes":{"ID":383940,"DIS_CODE":0,"TOWNNAME":"新營區","LI":"興安里","LIN":"9鄰","STREET":"新進路","SECT":" ","MAREA":" ","LANE":"２８１巷","ALLEY":" ","HOUSE_NO":"１８號","E_COORD97":180014.51000000001,"N_COORD97":2577780.8100000001,"ADDRESS":"新進路２８１巷１８號","OBJECTID":383930},"geometry":{"x":180014.50999999978,"y":2577780.8100000042}},{"attributes":{"ID":383941,"DIS_CODE":0,"TOWNNAME":"新營區","LI":"南興里","LIN":"9鄰","STREET":"和平路","SECT":" ","MAREA":" ","LANE":"１０２巷","ALLEY":" ","HOUSE_NO":"３６之１號","E_COORD97":179307.44,"N_COORD97":2577617.0099999998,"ADDRESS":"和平路１０２巷３６之１號","OBJECTID":383931},"geometry":{"x":179307.44000000227,"y":2577617.0100000016}},{"attributes":{"ID":383942,"DIS_CODE":0,"TOWNNAME":"新營區","LI":"南興里","LIN":"9鄰","STREET":"和平路","SECT":" ","MAREA":" ","LANE":"１０２巷","ALLEY":" ","HOUSE_NO":"３２號","E_COORD97":179314.14999999999,"N_COORD97":2577616.9199999999,"ADDRESS":"和平路１０２巷３２號","OBJECTID":383932},"geometry":{"x":179314.15000000037,"y":2577616.9200000018}},{"attributes":{"ID":383943,"DIS_CODE":0,"TOWNNAME":"新營區","LI":"新東里","LIN":"9鄰","STREET":"東仁街","SECT":" ","MAREA":" ","LANE":"４３巷","ALLEY":" ","HOUSE_NO":"１８號","E_COORD97":181237.42000000001,"N_COORD97":2579658.8700000001,"ADDRESS":"東仁街４３巷１８號","OBJECTID":383933},"geometry":{"x":181237.41999999993,"y":2579658.8699999992}},{"attributes":{"ID":383944,"DIS_CODE":0,"TOWNNAME":"新營區","LI":"新東里","LIN":"9鄰","STREET":"東仁街","SECT":" ","MAREA":" ","LANE":"４３巷","ALLEY":" ","HOUSE_NO":"２５號","E_COORD97":181214.91,"N_COORD97":2579641.25,"ADDRESS":"東仁街４３巷２５號","OBJECTID":383934},"geometry":{"x":181214.91000000108,"y":2579641.25}},{"attributes":{"ID":383945,"DIS_CODE":0,"TOWNNAME":"新營區","LI":"新東里","LIN":"9鄰","STREET":"東仁街","SECT":" ","MAREA":" ","LANE":"４３巷","ALLEY":" ","HOUSE_NO":"２０號","E_COORD97":181232.37,"N_COORD97":2579657.7799999998,"ADDRESS":"東仁街４３巷２０號","OBJECTID":383935},"geometry":{"x":181232.37000000104,"y":2579657.7800000031}},{"attributes":{"ID":383946,"DIS_CODE":0,"TOWNNAME":"新營區","LI":"新東里","LIN":"9鄰","STREET":"東仁街","SECT":" ","MAREA":" ","LANE":"４３巷","ALLEY":" ","HOUSE_NO":"１９號","E_COORD97":181229.14999999999,"N_COORD97":2579640.0699999998,"ADDRESS":"東仁街４３巷１９號","OBJECTID":383936},"geometry":{"x":181229.1500000013,"y":2579640.070000004}},{"attributes":{"ID":383947,"DIS_CODE":0,"TOWNNAME":"新營區","LI":"新東里","LIN":"9鄰","STREET":"東仁街","SECT":" ","MAREA":" ","LANE":"４３巷","ALLEY":" ","HOUSE_NO":"２６號","E_COORD97":181224.20000000001,"N_COORD97":2579658.9300000002,"ADDRESS":"東仁街４３巷２６號","OBJECTID":383937},"geometry":{"x":181224.20000000019,"y":2579658.9300000016}},{"attributes":{"ID":383948,"DIS_CODE":0,"TOWNNAME":"新營區","LI":"新東里","LIN":"9鄰","STREET":"東仁街","SECT":" ","MAREA":" ","LANE":"４３巷","ALLEY":" ","HOUSE_NO":"２７號","E_COORD97":181209.79999999999,"N_COORD97":2579641.27,"ADDRESS":"東仁街４３巷２７號","OBJECTID":383938},"geometry":{"x":181209.80000000168,"y":2579641.2700000033}},{"attributes":{"ID":383949,"DIS_CODE":0,"TOWNNAME":"新營區","LI":"新南里","LIN":"9鄰","STREET":"新北五街","SECT":" ","MAREA":" ","LANE":"１４３巷","ALLEY":" ","HOUSE_NO":"２號","E_COORD97":178550.03,"N_COORD97":2579154.4100000001,"ADDRESS":"新北五街１４３巷２號","OBJECTID":383939},"geometry":{"x":178550.03000000026,"y":2579154.410000002}},{"attributes":{"ID":383950,"DIS_CODE":0,"TOWNNAME":"新營區","LI":"興安里","LIN":"9鄰","STREET":"新進路","SECT":" ","MAREA":" ","LANE":"２８１巷","ALLEY":" ","HOUSE_NO":"２２號","E_COORD97":180017.64000000001,"N_COORD97":2577779.6899999999,"ADDRESS":"新進路２８１巷２２號","OBJECTID":383940},"geometry":{"x":180017.6400000006,"y":2577779.6899999995}},{"attributes":{"ID":383951,"DIS_CODE":0,"TOWNNAME":"新營區","LI":"新南里","LIN":"9鄰","STREET":"新北五街","SECT":" ","MAREA":" ","LANE":"１４３巷","ALLEY":" ","HOUSE_NO":"１號","E_COORD97":178551.91,"N_COORD97":2579134.4500000002,"ADDRESS":"新北五街１４３巷１號","OBJECTID":383941},"geometry":{"x":178551.91000000108,"y":2579134.450000003}},{"attributes":{"ID":383952,"DIS_CODE":0,"TOWNNAME":"新營區","LI":"新東里","LIN":"9鄰","STREET":"東仁街","SECT":" ","MAREA":" ","LANE":"４３巷","ALLEY":" ","HOUSE_NO":"５８號","E_COORD97":181168.94,"N_COORD97":2579664.7200000002,"ADDRESS":"東仁街４３巷５８號","OBJECTID":383942},"geometry":{"x":181168.94000000134,"y":2579664.7200000025}},{"attributes":{"ID":383953,"DIS_CODE":0,"TOWNNAME":"新營區","LI":"新東里","LIN":"9鄰","STREET":"東仁街","SECT":" ","MAREA":" ","LANE":"４３巷","ALLEY":" ","HOUSE_NO":"３８號","E_COORD97":181202.75,"N_COORD97":2579661.2400000002,"ADDRESS":"東仁街４３巷３８號","OBJECTID":383943},"geometry":{"x":181202.75,"y":2579661.2400000002}},{"attributes":{"ID":383954,"DIS_CODE":0,"TOWNNAME":"新營區","LI":"新東里","LIN":"9鄰","STREET":"東仁街","SECT":" ","MAREA":" ","LANE":"４３巷","ALLEY":" ","HOUSE_NO":"２８號","E_COORD97":181220.10999999999,"N_COORD97":2579658.9500000002,"ADDRESS":"東仁街４３巷２８號","OBJECTID":383944},"geometry":{"x":181220.1100000022,"y":2579658.9499999993}},{"attributes":{"ID":383955,"DIS_CODE":0,"TOWNNAME":"新營區","LI":"新東里","LIN":"9鄰","STREET":"東仁街","SECT":" ","MAREA":" ","LANE":"４３巷","ALLEY":" ","HOUSE_NO":"３６號","E_COORD97":181206.82999999999,"N_COORD97":2579660.1200000001,"ADDRESS":"東仁街４３巷３６號","OBJECTID":383945},"geometry":{"x":181206.83000000101,"y":2579660.120000001}},{"attributes":{"ID":383956,"DIS_CODE":0,"TOWNNAME":"新營區","LI":"興業里","LIN":"9鄰","STREET":"中興路","SECT":" ","MAREA":" ","LANE":"１３巷","ALLEY":" ","HOUSE_NO":"１５號","E_COORD97":180208.78,"N_COORD97":2577979.2400000002,"ADDRESS":"中興路１３巷１５號","OBJECTID":383946},"geometry":{"x":180208.78000000119,"y":2577979.2400000002}},{"attributes":{"ID":383957,"DIS_CODE":0,"TOWNNAME":"新營區","LI":"新東里","LIN":"9鄰","STREET":"東仁街","SECT":" ","MAREA":" ","LANE":"４３巷","ALLEY":" ","HOUSE_NO":"５０號","E_COORD97":181182.23000000001,"N_COORD97":2579662.4500000002,"ADDRESS":"東仁街４３巷５０號","OBJECTID":383947},"geometry":{"x":181182.23000000231,"y":2579662.4499999993}},{"attributes":{"ID":383958,"DIS_CODE":0,"TOWNNAME":"新營區","LI":"新北里","LIN":"9鄰","STREET":"長榮路","SECT":"二段","MAREA":" ","LANE":"２９３巷","ALLEY":" ","HOUSE_NO":"７號","E_COORD97":179218.70999999999,"N_COORD97":2579752.5299999998,"ADDRESS":"長榮路二段２９３巷７號","OBJECTID":383948},"geometry":{"x":179218.71000000183,"y":2579752.5300000012}},{"attributes":{"ID":383959,"DIS_CODE":0,"TOWNNAME":"新營區","LI":"新東里","LIN":"9鄰","STREET":"東仁街","SECT":" ","MAREA":" ","LANE":"４３巷","ALLEY":" ","HOUSE_NO":"５２號","E_COORD97":181177.12,"N_COORD97":2579663.5800000001,"ADDRESS":"東仁街４３巷５２號","OBJECTID":383949},"geometry":{"x":181177.12000000011,"y":2579663.5800000038}},{"attributes":{"ID":383960,"DIS_CODE":0,"TOWNNAME":"新營區","LI":"延平里","LIN":"9鄰","STREET":"復興路","SECT":" ","MAREA":" ","LANE":"２９巷","ALLEY":" ","HOUSE_NO":"１４號","E_COORD97":179675.048523,"N_COORD97":2577953.7714999998,"ADDRESS":"復興路２９巷１４號","OBJECTID":383950},"geometry":{"x":179675.04852300137,"y":2577953.7714950014}},{"attributes":{"ID":383961,"DIS_CODE":0,"TOWNNAME":"新營區","LI":"南興里","LIN":"9鄰","STREET":"和平路","SECT":" ","MAREA":" ","LANE":"１０２巷","ALLEY":" ","HOUSE_NO":"１２號","E_COORD97":179374.39999999999,"N_COORD97":2577614.4199999999,"ADDRESS":"和平路１０２巷１２號","OBJECTID":383951},"geometry":{"x":179374.4000000013,"y":2577614.4200000018}},{"attributes":{"ID":383962,"DIS_CODE":0,"TOWNNAME":"新營區","LI":"新東里","LIN":"9鄰","STREET":"東仁街","SECT":" ","MAREA":" ","LANE":"４３巷","ALLEY":" ","HOUSE_NO":"３２號","E_COORD97":181210.92000000001,"N_COORD97":2579660.1000000001,"ADDRESS":"東仁街４３巷３２號","OBJECTID":383952},"geometry":{"x":181210.92000000179,"y":2579660.1000000015}},{"attributes":{"ID":383963,"DIS_CODE":0,"TOWNNAME":"新營區","LI":"新北里","LIN":"9鄰","STREET":"長榮路","SECT":"二段","MAREA":" ","LANE":"２９３巷","ALLEY":" ","HOUSE_NO":"５號","E_COORD97":179217.69,"N_COORD97":2579755.8599999999,"ADDRESS":"長榮路二段２９３巷５號","OBJECTID":383953},"geometry":{"x":179217.69000000227,"y":2579755.8600000031}},{"attributes":{"ID":383964,"DIS_CODE":0,"TOWNNAME":"歸仁區","LI":"七甲里","LIN":"9鄰","STREET":"七甲二街","SECT":" ","MAREA":" ","LANE":"５８巷","ALLEY":" ","HOUSE_NO":"７號","E_COORD97":177715.48999999999,"N_COORD97":2542630.6600000001,"ADDRESS":"七甲二街５８巷７號","OBJECTID":383954},"geometry":{"x":177715.49000000115,"y":2542630.660000002}},{"attributes":{"ID":383965,"DIS_CODE":0,"TOWNNAME":"歸仁區","LI":"七甲里","LIN":"9鄰","STREET":"七甲二街","SECT":" ","MAREA":" ","LANE":"５８巷","ALLEY":" ","HOUSE_NO":"９號","E_COORD97":177713.39000000001,"N_COORD97":2542626.6600000001,"ADDRESS":"七甲二街５８巷９號","OBJECTID":383955},"geometry":{"x":177713.38999999966,"y":2542626.6600000039}},{"attributes":{"ID":383966,"DIS_CODE":0,"TOWNNAME":"歸仁區","LI":"八甲里","LIN":"9鄰","STREET":"中正北路","SECT":"一段","MAREA":" ","LANE":"３９５巷","ALLEY":" ","HOUSE_NO":"１６４號","E_COORD97":176992.88,"N_COORD97":2541887.2799999998,"ADDRESS":"中正北路一段３９５巷１６４號","OBJECTID":383956},"geometry":{"x":176992.87999999989,"y":2541887.2800000012}},{"attributes":{"ID":383967,"DIS_CODE":0,"TOWNNAME":"歸仁區","LI":"八甲里","LIN":"9鄰","STREET":"中正北路","SECT":"一段","MAREA":" ","LANE":"３９５巷","ALLEY":" ","HOUSE_NO":"７５號","E_COORD97":177357.51000000001,"N_COORD97":2541837.25,"ADDRESS":"中正北路一段３９５巷７５號","OBJECTID":383957},"geometry":{"x":177357.51000000071,"y":2541837.2500000019}},{"attributes":{"ID":383968,"DIS_CODE":0,"TOWNNAME":"歸仁區","LI":"八甲里","LIN":"9鄰","STREET":"中正北路","SECT":"一段","MAREA":" ","LANE":"３９５巷","ALLEY":" ","HOUSE_NO":"１６９號","E_COORD97":176932.17999999999,"N_COORD97":2541843.2799999998,"ADDRESS":"中正北路一段３９５巷１６９號","OBJECTID":383958},"geometry":{"x":176932.18000000063,"y":2541843.2800000012}},{"attributes":{"ID":383969,"DIS_CODE":0,"TOWNNAME":"歸仁區","LI":"八甲里","LIN":"9鄰","STREET":"中正北路","SECT":"一段","MAREA":" ","LANE":"３９５巷","ALLEY":" ","HOUSE_NO":"７７號","E_COORD97":177334.91,"N_COORD97":2541826.25,"ADDRESS":"中正北路一段３９５巷７７號","OBJECTID":383959},"geometry":{"x":177334.91000000108,"y":2541826.2500000019}},{"attributes":{"ID":383970,"DIS_CODE":0,"TOWNNAME":"歸仁區","LI":"大潭里","LIN":"9鄰","STREET":"長榮路","SECT":"一段","MAREA":" ","LANE":"３２０巷","ALLEY":" ","HOUSE_NO":"１８號","E_COORD97":175320.82000000001,"N_COORD97":2534453.2799999998,"ADDRESS":"長榮路一段３２０巷１８號","OBJECTID":383960},"geometry":{"x":175320.8200000003,"y":2534453.2799999993}},{"attributes":{"ID":383971,"DIS_CODE":0,"TOWNNAME":"歸仁區","LI":"七甲里","LIN":"9鄰","STREET":"七甲一街","SECT":" ","MAREA":" ","LANE":"９８巷","ALLEY":" ","HOUSE_NO":"６號","E_COORD97":177677.09,"N_COORD97":2542532.6600000001,"ADDRESS":"七甲一街９８巷６號","OBJECTID":383961},"geometry":{"x":177677.09000000078,"y":2542532.660000002}},{"attributes":{"ID":383972,"DIS_CODE":0,"TOWNNAME":"歸仁區","LI":"大廟里","LIN":"9鄰","STREET":"大廟一街","SECT":" ","MAREA":" ","LANE":"２９巷","ALLEY":" ","HOUSE_NO":"１４號","E_COORD97":175891.82000000001,"N_COORD97":2544055.25,"ADDRESS":"大廟一街２９巷１４號","OBJECTID":383962},"geometry":{"x":175891.8200000003,"y":2544055.25}},{"attributes":{"ID":383973,"DIS_CODE":0,"TOWNNAME":"歸仁區","LI":"大潭里","LIN":"9鄰","STREET":"長榮路","SECT":"一段","MAREA":" ","LANE":"３２０巷","ALLEY":" ","HOUSE_NO":"１１號","E_COORD97":175323.01999999999,"N_COORD97":2534489.2799999998,"ADDRESS":"長榮路一段３２０巷１１號","OBJECTID":383963},"geometry":{"x":175323.02000000048,"y":2534489.2800000012}},{"attributes":{"ID":383974,"DIS_CODE":0,"TOWNNAME":"歸仁區","LI":"大潭里","LIN":"9鄰","STREET":"長榮路","SECT":"一段","MAREA":" ","LANE":"３２０巷","ALLEY":" ","HOUSE_NO":"４０號","E_COORD97":175425.12,"N_COORD97":2534379.2799999998,"ADDRESS":"長榮路一段３２０巷４０號","OBJECTID":383964},"geometry":{"x":175425.12000000011,"y":2534379.2800000031}},{"attributes":{"ID":383975,"DIS_CODE":0,"TOWNNAME":"歸仁區","LI":"八甲里","LIN":"9鄰","STREET":"中正北路","SECT":"一段","MAREA":" ","LANE":"３９５巷","ALLEY":" ","HOUSE_NO":"１８０號","E_COORD97":176835.98000000001,"N_COORD97":2541881.2799999998,"ADDRESS":"中正北路一段３９５巷１８０號","OBJECTID":383965},"geometry":{"x":176835.98000000138,"y":2541881.2799999993}},{"attributes":{"ID":383976,"DIS_CODE":0,"TOWNNAME":"歸仁區","LI":"大廟里","LIN":"9鄰","STREET":"大廟一街","SECT":" ","MAREA":" ","LANE":"２９巷","ALLEY":" ","HOUSE_NO":"６號","E_COORD97":175876.26999999999,"N_COORD97":2544065.25,"ADDRESS":"大廟一街２９巷６號","OBJECTID":383966},"geometry":{"x":175876.26999999955,"y":2544065.25}},{"attributes":{"ID":383977,"DIS_CODE":0,"TOWNNAME":"歸仁區","LI":"七甲里","LIN":"9鄰","STREET":"七甲二街","SECT":" ","MAREA":" ","LANE":"５８巷","ALLEY":" ","HOUSE_NO":"３６號","E_COORD97":177700.34,"N_COORD97":2542613.6600000001,"ADDRESS":"七甲二街５８巷３６號","OBJECTID":383967},"geometry":{"x":177700.33999999985,"y":2542613.660000002}},{"attributes":{"ID":383978,"DIS_CODE":0,"TOWNNAME":"歸仁區","LI":"大廟里","LIN":"9鄰","STREET":"大廟一街","SECT":" ","MAREA":" ","LANE":"２９巷","ALLEY":" ","HOUSE_NO":"８號","E_COORD97":175881.37,"N_COORD97":2544063.25,"ADDRESS":"大廟一街２９巷８號","OBJECTID":383968},"geometry":{"x":175881.37000000011,"y":2544063.2500000037}},{"attributes":{"ID":383979,"DIS_CODE":0,"TOWNNAME":"歸仁區","LI":"大廟里","LIN":"9鄰","STREET":"大廟一街","SECT":" ","MAREA":" ","LANE":"２９巷","ALLEY":" ","HOUSE_NO":"２２號","E_COORD97":175908.22,"N_COORD97":2544046.25,"ADDRESS":"大廟一街２９巷２２號","OBJECTID":383969},"geometry":{"x":175908.22000000067,"y":2544046.2500000037}},{"attributes":{"ID":383980,"DIS_CODE":0,"TOWNNAME":"歸仁區","LI":"八甲里","LIN":"9鄰","STREET":"中正北路","SECT":"一段","MAREA":" ","LANE":"３９５巷","ALLEY":" ","HOUSE_NO":"１５１號","E_COORD97":177040.76000000001,"N_COORD97":2541805.25,"ADDRESS":"中正北路一段３９５巷１５１號","OBJECTID":383970},"geometry":{"x":177040.75999999978,"y":2541805.2500000037}},{"attributes":{"ID":383981,"DIS_CODE":0,"TOWNNAME":"歸仁區","LI":"文化里","LIN":"9鄰","STREET":"文化北二街","SECT":" ","MAREA":" ","LANE":"１３６巷","ALLEY":" ","HOUSE_NO":"３號","E_COORD97":177053.06,"N_COORD97":2541389.3399999999,"ADDRESS":"文化北二街１３６巷３號","OBJECTID":383971},"geometry":{"x":177053.06000000052,"y":2541389.3399999999}},{"attributes":{"ID":383982,"DIS_CODE":0,"TOWNNAME":"歸仁區","LI":"八甲里","LIN":"9鄰","STREET":"中正北路","SECT":"一段","MAREA":" ","LANE":"２８０巷","ALLEY":" ","HOUSE_NO":"１６號","E_COORD97":177810.60000000001,"N_COORD97":2541800.6099999999,"ADDRESS":"中正北路一段２８０巷１６號","OBJECTID":383972},"geometry":{"x":177810.60000000056,"y":2541800.6099999994}},{"attributes":{"ID":383983,"DIS_CODE":0,"TOWNNAME":"歸仁區","LI":"大廟里","LIN":"9鄰","STREET":"大廟一街","SECT":" ","MAREA":" ","LANE":"２９巷","ALLEY":" ","HOUSE_NO":"２４號","E_COORD97":175912.32000000001,"N_COORD97":2544044.25,"ADDRESS":"大廟一街２９巷２４號","OBJECTID":383973},"geometry":{"x":175912.3200000003,"y":2544044.2500000019}},{"attributes":{"ID":383984,"DIS_CODE":0,"TOWNNAME":"歸仁區","LI":"大潭里","LIN":"9鄰","STREET":"長榮路","SECT":"一段","MAREA":" ","LANE":"３２０巷","ALLEY":" ","HOUSE_NO":"２０號","E_COORD97":175327.92000000001,"N_COORD97":2534446.2799999998,"ADDRESS":"長榮路一段３２０巷２０號","OBJECTID":383974},"geometry":{"x":175327.91999999993,"y":2534446.2799999993}},{"attributes":{"ID":383985,"DIS_CODE":0,"TOWNNAME":"歸仁區","LI":"七甲里","LIN":"9鄰","STREET":"七甲一街","SECT":" ","MAREA":" ","LANE":"１１６巷","ALLEY":" ","HOUSE_NO":"２號","E_COORD97":177654.14000000001,"N_COORD97":2542606.6600000001,"ADDRESS":"七甲一街１１６巷２號","OBJECTID":383975},"geometry":{"x":177654.14000000153,"y":2542606.660000002}},{"attributes":{"ID":383986,"DIS_CODE":0,"TOWNNAME":"歸仁區","LI":"七甲里","LIN":"9鄰","STREET":"七甲二街","SECT":" ","MAREA":" ","LANE":"５８巷","ALLEY":" ","HOUSE_NO":"１３號","E_COORD97":177720.73999999999,"N_COORD97":2542608.6600000001,"ADDRESS":"七甲二街５８巷１３號","OBJECTID":383976},"geometry":{"x":177720.74000000115,"y":2542608.6600000001}},{"attributes":{"ID":383987,"DIS_CODE":0,"TOWNNAME":"歸仁區","LI":"八甲里","LIN":"9鄰","STREET":"大德路","SECT":" ","MAREA":" ","LANE":"７００巷","ALLEY":" ","HOUSE_NO":"７６號","E_COORD97":176834.51999999999,"N_COORD97":2541840.27,"ADDRESS":"大德路７００巷７６號","OBJECTID":383977},"geometry":{"x":176834.52000000142,"y":2541840.2699999996}},{"attributes":{"ID":383988,"DIS_CODE":0,"TOWNNAME":"歸仁區","LI":"八甲里","LIN":"9鄰","STREET":"大德路","SECT":" ","MAREA":" ","LANE":"７００巷","ALLEY":" ","HOUSE_NO":"７１號","E_COORD97":176811.82000000001,"N_COORD97":2541816.27,"ADDRESS":"大德路７００巷７１號","OBJECTID":383978},"geometry":{"x":176811.82000000123,"y":2541816.2700000014}},{"attributes":{"ID":383989,"DIS_CODE":0,"TOWNNAME":"柳營區","LI":"中埕里","LIN":"9鄰","STREET":"建安街","SECT":" ","MAREA":" ","LANE":"４２巷","ALLEY":" ","HOUSE_NO":"１１號","E_COORD97":179836.57999999999,"N_COORD97":2574943.2599999998,"ADDRESS":"建安街４２巷１１號","OBJECTID":383979},"geometry":{"x":179836.58000000007,"y":2574943.2600000016}},{"attributes":{"ID":383990,"DIS_CODE":0,"TOWNNAME":"柳營區","LI":"中埕里","LIN":"9鄰","STREET":"建安街","SECT":" ","MAREA":" ","LANE":"４２巷","ALLEY":" ","HOUSE_NO":"１３號","E_COORD97":179840.04999999999,"N_COORD97":2574943.2400000002,"ADDRESS":"建安街４２巷１３號","OBJECTID":383980},"geometry":{"x":179840.05000000168,"y":2574943.2400000039}},{"attributes":{"ID":383991,"DIS_CODE":0,"TOWNNAME":"柳營區","LI":"中埕里","LIN":"9鄰","STREET":"建安街","SECT":" ","MAREA":" ","LANE":"４２巷","ALLEY":" ","HOUSE_NO":"１７號","E_COORD97":179850.91,"N_COORD97":2574949.5499999998,"ADDRESS":"建安街４２巷１７號","OBJECTID":383981},"geometry":{"x":179850.91000000015,"y":2574949.5500000026}},{"attributes":{"ID":383992,"DIS_CODE":0,"TOWNNAME":"柳營區","LI":"中埕里","LIN":"9鄰","STREET":"建安街","SECT":" ","MAREA":" ","LANE":"４２巷","ALLEY":" ","HOUSE_NO":"１９號","E_COORD97":179855.56,"N_COORD97":2574950.3199999998,"ADDRESS":"建安街４２巷１９號","OBJECTID":383982},"geometry":{"x":179855.56000000052,"y":2574950.3200000022}},{"attributes":{"ID":383993,"DIS_CODE":0,"TOWNNAME":"柳營區","LI":"中埕里","LIN":"9鄰","STREET":"建安街","SECT":" ","MAREA":" ","LANE":"４２巷","ALLEY":" ","HOUSE_NO":"２５號","E_COORD97":179873.04999999999,"N_COORD97":2574955.1400000001,"ADDRESS":"建安街４２巷２５號","OBJECTID":383983},"geometry":{"x":179873.05000000075,"y":2574955.1400000025}},{"attributes":{"ID":383994,"DIS_CODE":0,"TOWNNAME":"柳營區","LI":"中埕里","LIN":"9鄰","STREET":"建安街","SECT":" ","MAREA":" ","LANE":"４２巷","ALLEY":" ","HOUSE_NO":"２７號","E_COORD97":179877.97,"N_COORD97":2574956.6899999999,"ADDRESS":"建安街４２巷２７號","OBJECTID":383984},"geometry":{"x":179877.97000000067,"y":2574956.6900000013}},{"attributes":{"ID":383995,"DIS_CODE":0,"TOWNNAME":"柳營區","LI":"中埕里","LIN":"9鄰","STREET":"建安街","SECT":" ","MAREA":" ","LANE":"４２巷","ALLEY":" ","HOUSE_NO":"２９號","E_COORD97":179886.32000000001,"N_COORD97":2574955.1600000001,"ADDRESS":"建安街４２巷２９號","OBJECTID":383985},"geometry":{"x":179886.32000000216,"y":2574955.160000002}},{"attributes":{"ID":383996,"DIS_CODE":0,"TOWNNAME":"柳營區","LI":"中埕里","LIN":"9鄰","STREET":"建安街","SECT":" ","MAREA":" ","LANE":"４２巷","ALLEY":" ","HOUSE_NO":"３５號","E_COORD97":179903.64000000001,"N_COORD97":2574969.6400000001,"ADDRESS":"建安街４２巷３５號","OBJECTID":383986},"geometry":{"x":179903.63999999873,"y":2574969.6400000006}},{"attributes":{"ID":383997,"DIS_CODE":0,"TOWNNAME":"柳營區","LI":"中埕里","LIN":"9鄰","STREET":"建安街","SECT":" ","MAREA":" ","LANE":"４２巷","ALLEY":" ","HOUSE_NO":"３７號","E_COORD97":179894.16,"N_COORD97":2574978.4199999999,"ADDRESS":"建安街４２巷３７號","OBJECTID":383987},"geometry":{"x":179894.16000000108,"y":2574978.4199999999}},{"attributes":{"ID":383998,"DIS_CODE":0,"TOWNNAME":"柳營區","LI":"中埕里","LIN":"9鄰","STREET":"建安街","SECT":" ","MAREA":" ","LANE":"４２巷","ALLEY":" ","HOUSE_NO":"３９號","E_COORD97":179908.69,"N_COORD97":2574982.7999999998,"ADDRESS":"建安街４２巷３９號","OBJECTID":383988},"geometry":{"x":179908.69000000041,"y":2574982.8000000007}},{"attributes":{"ID":383999,"DIS_CODE":0,"TOWNNAME":"柳營區","LI":"中埕里","LIN":"9鄰","STREET":"建安街","SECT":" ","MAREA":" ","LANE":"４２巷","ALLEY":" ","HOUSE_NO":"３號","E_COORD97":179822.69,"N_COORD97":2574943.3599999999,"ADDRESS":"建安街４２巷３號","OBJECTID":383989},"geometry":{"x":179822.68999999948,"y":2574943.3599999994}},{"attributes":{"ID":384000,"DIS_CODE":0,"TOWNNAME":"柳營區","LI":"中埕里","LIN":"9鄰","STREET":"建安街","SECT":" ","MAREA":" ","LANE":"４２巷","ALLEY":" ","HOUSE_NO":"４３號","E_COORD97":179919.54000000001,"N_COORD97":2574980.9500000002,"ADDRESS":"建安街４２巷４３號","OBJECTID":383990},"geometry":{"x":179919.54000000004,"y":2574980.9499999993}},{"attributes":{"ID":384001,"DIS_CODE":0,"TOWNNAME":"柳營區","LI":"中埕里","LIN":"9鄰","STREET":"建安街","SECT":" ","MAREA":" ","LANE":"４２巷","ALLEY":" ","HOUSE_NO":"５號","E_COORD97":179826.16,"N_COORD97":2574943.3399999999,"ADDRESS":"建安街４２巷５號","OBJECTID":383991},"geometry":{"x":179826.16000000201,"y":2574943.3400000017}},{"attributes":{"ID":384002,"DIS_CODE":0,"TOWNNAME":"柳營區","LI":"中埕里","LIN":"9鄰","STREET":"建安街","SECT":" ","MAREA":" ","LANE":"４２巷","ALLEY":" ","HOUSE_NO":"７號","E_COORD97":179829.64000000001,"N_COORD97":2574943.3100000001,"ADDRESS":"建安街４２巷７號","OBJECTID":383992},"geometry":{"x":179829.6400000006,"y":2574943.3100000024}},{"attributes":{"ID":384003,"DIS_CODE":0,"TOWNNAME":"柳營區","LI":"中埕里","LIN":"9鄰","STREET":"建安街","SECT":" ","MAREA":" ","LANE":"４２巷","ALLEY":" ","HOUSE_NO":"９號","E_COORD97":179833.10999999999,"N_COORD97":2574943.29,"ADDRESS":"建安街４２巷９號","OBJECTID":383993},"geometry":{"x":179833.11000000034,"y":2574943.2899999991}},{"attributes":{"ID":384004,"DIS_CODE":0,"TOWNNAME":"北區","LI":"玉皇里","LIN":"9鄰","STREET":"佑民街","SECT":" ","MAREA":" ","LANE":"１１５巷","ALLEY":" ","HOUSE_NO":"９號","E_COORD97":168714.20999999999,"N_COORD97":2544538.4900000002,"ADDRESS":"佑民街１１５巷９號","OBJECTID":383994},"geometry":{"x":168714.21000000089,"y":2544538.4900000002}},{"attributes":{"ID":384005,"DIS_CODE":0,"TOWNNAME":"北區","LI":"玉皇里","LIN":"9鄰","STREET":"崇安街","SECT":" ","MAREA":" ","LANE":"７０巷","ALLEY":" ","HOUSE_NO":"１０號","E_COORD97":168733.54000000001,"N_COORD97":2544532.6000000001,"ADDRESS":"崇安街７０巷１０號","OBJECTID":383995},"geometry":{"x":168733.5400000019,"y":2544532.6000000015}},{"attributes":{"ID":384006,"DIS_CODE":0,"TOWNNAME":"北區","LI":"玉皇里","LIN":"9鄰","STREET":"崇安街","SECT":" ","MAREA":" ","LANE":"７０巷","ALLEY":" ","HOUSE_NO":"２號","E_COORD97":168733.37,"N_COORD97":2544550.9900000002,"ADDRESS":"崇安街７０巷２號","OBJECTID":383996},"geometry":{"x":168733.37000000104,"y":2544550.9900000021}},{"attributes":{"ID":384007,"DIS_CODE":0,"TOWNNAME":"北區","LI":"玉皇里","LIN":"9鄰","STREET":"崇安街","SECT":" ","MAREA":" ","LANE":"７０巷","ALLEY":" ","HOUSE_NO":"４號","E_COORD97":168716.23000000001,"N_COORD97":2544547.5800000001,"ADDRESS":"崇安街７０巷４號","OBJECTID":383997},"geometry":{"x":168716.23000000138,"y":2544547.5800000019}},{"attributes":{"ID":384008,"DIS_CODE":0,"TOWNNAME":"北區","LI":"興北里","LIN":"9鄰","STREET":"公園路","SECT":" ","MAREA":" ","LANE":"５１６巷","ALLEY":" ","HOUSE_NO":"１２號","E_COORD97":169104.81,"N_COORD97":2545211.9700000002,"ADDRESS":"公園路５１６巷１２號","OBJECTID":383998},"geometry":{"x":169104.81000000052,"y":2545211.9700000044}},{"attributes":{"ID":384009,"DIS_CODE":0,"TOWNNAME":"北區","LI":"興北里","LIN":"9鄰","STREET":"公園路","SECT":" ","MAREA":" ","LANE":"５１６巷","ALLEY":" ","HOUSE_NO":"２號","E_COORD97":169067.57999999999,"N_COORD97":2545217.5299999998,"ADDRESS":"公園路５１６巷２號","OBJECTID":383999},"geometry":{"x":169067.58000000101,"y":2545217.5300000012}},{"attributes":{"ID":384010,"DIS_CODE":0,"TOWNNAME":"北區","LI":"興北里","LIN":"9鄰","STREET":"公園路","SECT":" ","MAREA":" ","LANE":"５１６巷","ALLEY":" ","HOUSE_NO":"２號之１","E_COORD97":169071.29999999999,"N_COORD97":2545218.5699999998,"ADDRESS":"公園路５１６巷２號之１","OBJECTID":384000},"geometry":{"x":169071.30000000075,"y":2545218.5700000022}}]}