{"displayFieldName":"TOWNNAME","fieldAliases":{"ID":"ID","DIS_CODE":"DIS_CODE","TOWNNAME":"TOWNNAME","LI":"LI","LIN":"LIN","STREET":"STREET","SECT":"SECT","MAREA":"MAREA","LANE":"LANE","ALLEY":"ALLEY","HOUSE_NO":"HOUSE_NO","E_COORD97":"E_COORD97","N_COORD97":"N_COORD97","ADDRESS":"ADDRESS","OBJECTID":"OBJECTID"},"geometryType":"esriGeometryPoint","spatialReference":{"wkid":102443,"latestWkid":3826},"fields":[{"name":"ID","type":"esriFieldTypeDouble","alias":"ID"},{"name":"DIS_CODE","type":"esriFieldTypeInteger","alias":"DIS_CODE"},{"name":"TOWNNAME","type":"esriFieldTypeString","alias":"TOWNNAME","length":8},{"name":"LI","type":"esriFieldTypeString","alias":"LI","length":8},{"name":"LIN","type":"esriFieldTypeString","alias":"LIN","length":12},{"name":"STREET","type":"esriFieldTypeString","alias":"STREET","length":20},{"name":"SECT","type":"esriFieldTypeString","alias":"SECT","length":8},{"name":"MAREA","type":"esriFieldTypeString","alias":"MAREA","length":12},{"name":"LANE","type":"esriFieldTypeString","alias":"LANE","length":10},{"name":"ALLEY","type":"esriFieldTypeString","alias":"ALLEY","length":10},{"name":"HOUSE_NO","type":"esriFieldTypeString","alias":"HOUSE_NO","length":20},{"name":"E_COORD97","type":"esriFieldTypeDouble","alias":"E_COORD97"},{"name":"N_COORD97","type":"esriFieldTypeDouble","alias":"N_COORD97"},{"name":"ADDRESS","type":"esriFieldTypeString","alias":"ADDRESS","length":50},{"name":"OBJECTID","type":"esriFieldTypeOID","alias":"OBJECTID"}],"features":[{"attributes":{"ID":1,"DIS_CODE":0,"TOWNNAME":"東區","LI":"崇成里","LIN":"9鄰","STREET":"崇德十三街","SECT":" ","MAREA":" ","LANE":" ","ALLEY":" ","HOUSE_NO":"３２之１號","E_COORD97":170932.89999999999,"N_COORD97":2541279.02,"ADDRESS":"崇德十三街３２之１號","OBJECTID":1},"geometry":{"x":170932.90000000037,"y":2541279.0200000014}},{"attributes":{"ID":2,"DIS_CODE":0,"TOWNNAME":"安定區","LI":"安定里","LIN":"3鄰","STREET":" ","SECT":" ","MAREA":"安定","LANE":" ","ALLEY":" ","HOUSE_NO":"３之６號","E_COORD97":172705.595592,"N_COORD97":2557975.4648099998,"ADDRESS":"安定３之６號","OBJECTID":2},"geometry":{"x":172705.59559200052,"y":2557975.4648110028}},{"attributes":{"ID":3,"DIS_CODE":0,"TOWNNAME":"中西區","LI":"三合里","LIN":"6鄰","STREET":"民族路","SECT":"三段","MAREA":" ","LANE":"１４８巷","ALLEY":" ","HOUSE_NO":"３２之１號","E_COORD97":167601.60000000001,"N_COORD97":2544446.8500000001,"ADDRESS":"民族路三段１４８巷３２之１號","OBJECTID":3},"geometry":{"x":167601.59999999963,"y":2544446.8500000015}},{"attributes":{"ID":4,"DIS_CODE":0,"TOWNNAME":"鹽水區","LI":"岸內里","LIN":"14鄰","STREET":"蔦松路","SECT":" ","MAREA":" ","LANE":"２巷","ALLEY":" ","HOUSE_NO":"２５號","E_COORD97":175672.14000000001,"N_COORD97":2580388.0699999998,"ADDRESS":"蔦松路２巷２５號","OBJECTID":4},"geometry":{"x":175672.13999999966,"y":2580388.0700000003}},{"attributes":{"ID":5,"DIS_CODE":0,"TOWNNAME":"鹽水區","LI":"岸內里","LIN":"14鄰","STREET":"蔦松路","SECT":" ","MAREA":" ","LANE":" ","ALLEY":" ","HOUSE_NO":"３２號","E_COORD97":175580.73999999999,"N_COORD97":2580399.04,"ADDRESS":"蔦松路３２號","OBJECTID":5},"geometry":{"x":175580.74000000022,"y":2580399.040000001}},{"attributes":{"ID":6,"DIS_CODE":0,"TOWNNAME":"鹽水區","LI":"岸內里","LIN":"14鄰","STREET":"蔦松路","SECT":" ","MAREA":" ","LANE":" ","ALLEY":" ","HOUSE_NO":"３６號","E_COORD97":175580.51999999999,"N_COORD97":2580403.1800000002,"ADDRESS":"蔦松路３６號","OBJECTID":6},"geometry":{"x":175580.52000000048,"y":2580403.1799999997}},{"attributes":{"ID":7,"DIS_CODE":0,"TOWNNAME":"鹽水區","LI":"岸內里","LIN":"14鄰","STREET":"蔦松路","SECT":" ","MAREA":" ","LANE":" ","ALLEY":" ","HOUSE_NO":"４２號","E_COORD97":175579.84,"N_COORD97":2580415.5899999999,"ADDRESS":"蔦松路４２號","OBJECTID":7},"geometry":{"x":175579.84000000171,"y":2580415.589999998}},{"attributes":{"ID":8,"DIS_CODE":0,"TOWNNAME":"鹽水區","LI":"岸內里","LIN":"14鄰","STREET":"蔦松路","SECT":" ","MAREA":" ","LANE":" ","ALLEY":" ","HOUSE_NO":"４６號","E_COORD97":175579.60999999999,"N_COORD97":2580419.73,"ADDRESS":"蔦松路４６號","OBJECTID":8},"geometry":{"x":175579.61000000034,"y":2580419.7300000023}},{"attributes":{"ID":9,"DIS_CODE":0,"TOWNNAME":"鹽水區","LI":"岸內里","LIN":"14鄰","STREET":"蔦松路","SECT":" ","MAREA":" ","LANE":" ","ALLEY":" ","HOUSE_NO":"５２號","E_COORD97":175578.92999999999,"N_COORD97":2580432.1400000001,"ADDRESS":"蔦松路５２號","OBJECTID":9},"geometry":{"x":175578.92999999877,"y":2580432.1400000006}},{"attributes":{"ID":10,"DIS_CODE":0,"TOWNNAME":"鹽水區","LI":"岸內里","LIN":"13鄰","STREET":"蔦松路","SECT":" ","MAREA":" ","LANE":"５６巷","ALLEY":" ","HOUSE_NO":"１號","E_COORD97":175592.39999999999,"N_COORD97":2580448.4900000002,"ADDRESS":"蔦松路５６巷１號","OBJECTID":10},"geometry":{"x":175592.4000000013,"y":2580448.4900000021}},{"attributes":{"ID":11,"DIS_CODE":0,"TOWNNAME":"鹽水區","LI":"岸內里","LIN":"14鄰","STREET":"蔦松路","SECT":" ","MAREA":" ","LANE":"５６巷","ALLEY":" ","HOUSE_NO":"２２號五樓之２","E_COORD97":175632.32000000001,"N_COORD97":2580420.4199999999,"ADDRESS":"蔦松路５６巷２２號五樓之２","OBJECTID":11},"geometry":{"x":175632.3200000003,"y":2580420.4200000037}},{"attributes":{"ID":12,"DIS_CODE":0,"TOWNNAME":"鹽水區","LI":"岸內里","LIN":"14鄰","STREET":"蔦松路","SECT":" ","MAREA":" ","LANE":"５６巷","ALLEY":" ","HOUSE_NO":"２６號四樓之１","E_COORD97":175620.85000000001,"N_COORD97":2580420.8500000001,"ADDRESS":"蔦松路５６巷２６號四樓之１","OBJECTID":12},"geometry":{"x":175620.85000000056,"y":2580420.8500000034}},{"attributes":{"ID":13,"DIS_CODE":0,"TOWNNAME":"鹽水區","LI":"岸內里","LIN":"14鄰","STREET":"蔦松路","SECT":" ","MAREA":" ","LANE":"５６巷","ALLEY":" ","HOUSE_NO":"２６號四樓之２","E_COORD97":175620.85000000001,"N_COORD97":2580420.8500000001,"ADDRESS":"蔦松路５６巷２６號四樓之２","OBJECTID":13},"geometry":{"x":175620.85000000056,"y":2580420.8500000034}},{"attributes":{"ID":14,"DIS_CODE":0,"TOWNNAME":"鹽水區","LI":"岸內里","LIN":"14鄰","STREET":"蔦松路","SECT":" ","MAREA":" ","LANE":"５６巷","ALLEY":" ","HOUSE_NO":"４０號","E_COORD97":175643.41,"N_COORD97":2580403.9700000002,"ADDRESS":"蔦松路５６巷４０號","OBJECTID":14},"geometry":{"x":175643.41000000015,"y":2580403.9700000044}},{"attributes":{"ID":15,"DIS_CODE":0,"TOWNNAME":"安南區","LI":"四草里","LIN":"4鄰","STREET":"大眾路","SECT":" ","MAREA":" ","LANE":" ","ALLEY":" ","HOUSE_NO":"６３２號","E_COORD97":160681.32857000001,"N_COORD97":2546460.3632999999,"ADDRESS":"大眾路６３２號","OBJECTID":15},"geometry":{"x":160681.32857000083,"y":2546460.3632950038}},{"attributes":{"ID":16,"DIS_CODE":0,"TOWNNAME":"安南區","LI":"四草里","LIN":"4鄰","STREET":"大眾路","SECT":" ","MAREA":" ","LANE":" ","ALLEY":" ","HOUSE_NO":"６２１號","E_COORD97":160717.756727,"N_COORD97":2546455.7066299999,"ADDRESS":"大眾路６２１號","OBJECTID":16},"geometry":{"x":160717.7567270007,"y":2546455.7066310029}},{"attributes":{"ID":17,"DIS_CODE":0,"TOWNNAME":"安南區","LI":"安慶里","LIN":"30鄰","STREET":"培安路","SECT":" ","MAREA":" ","LANE":"４０６巷","ALLEY":" ","HOUSE_NO":"６號","E_COORD97":169296.29999999999,"N_COORD97":2548757.3300000001,"ADDRESS":"培安路４０６巷６號","OBJECTID":17},"geometry":{"x":169296.30000000075,"y":2548757.3300000001}},{"attributes":{"ID":18,"DIS_CODE":0,"TOWNNAME":"安南區","LI":"安慶里","LIN":"30鄰","STREET":"培安路","SECT":" ","MAREA":" ","LANE":"３８８巷","ALLEY":" ","HOUSE_NO":"１號","E_COORD97":169286.11916999999,"N_COORD97":2548766.0001599998,"ADDRESS":"培安路３８８巷１號","OBJECTID":18},"geometry":{"x":169286.11917000078,"y":2548766.0001600012}},{"attributes":{"ID":19,"DIS_CODE":0,"TOWNNAME":"安南區","LI":"安慶里","LIN":"30鄰","STREET":"培安路","SECT":" ","MAREA":" ","LANE":"３８８巷","ALLEY":" ","HOUSE_NO":"３號","E_COORD97":169277.43294,"N_COORD97":2548766.4235,"ADDRESS":"培安路３８８巷３號","OBJECTID":19},"geometry":{"x":169277.43294000067,"y":2548766.4234999996}},{"attributes":{"ID":20,"DIS_CODE":0,"TOWNNAME":"安南區","LI":"四草里","LIN":"8鄰","STREET":"北汕尾一路","SECT":" ","MAREA":" ","LANE":"８３巷","ALLEY":" ","HOUSE_NO":"２２０號","E_COORD97":160518.99780099999,"N_COORD97":2545479.26541,"ADDRESS":"北汕尾一路８３巷２２０號","OBJECTID":20},"geometry":{"x":160518.99780100025,"y":2545479.2654049993}},{"attributes":{"ID":21,"DIS_CODE":0,"TOWNNAME":"安南區","LI":"安慶里","LIN":"30鄰","STREET":"培安路","SECT":" ","MAREA":" ","LANE":"３８８巷","ALLEY":" ","HOUSE_NO":"７號","E_COORD97":169260.48418,"N_COORD97":2548766.0001599998,"ADDRESS":"培安路３８８巷７號","OBJECTID":21},"geometry":{"x":169260.48417999968,"y":2548766.0001600012}},{"attributes":{"ID":22,"DIS_CODE":0,"TOWNNAME":"安南區","LI":"安慶里","LIN":"30鄰","STREET":"培安路","SECT":" ","MAREA":" ","LANE":"３８８巷","ALLEY":" ","HOUSE_NO":"８號","E_COORD97":169280.87,"N_COORD97":2548786.3599999999,"ADDRESS":"培安路３８８巷８號","OBJECTID":22},"geometry":{"x":169280.87000000104,"y":2548786.3599999994}},{"attributes":{"ID":23,"DIS_CODE":0,"TOWNNAME":"安南區","LI":"安慶里","LIN":"30鄰","STREET":"培安路","SECT":" ","MAREA":" ","LANE":" ","ALLEY":" ","HOUSE_NO":"４００號","E_COORD97":169313.87276500001,"N_COORD97":2548762.0843400001,"ADDRESS":"培安路４００號","OBJECTID":23},"geometry":{"x":169313.87276499998,"y":2548762.084338}},{"attributes":{"ID":24,"DIS_CODE":0,"TOWNNAME":"安南區","LI":"安慶里","LIN":"30鄰","STREET":"培安路","SECT":" ","MAREA":" ","LANE":" ","ALLEY":" ","HOUSE_NO":"４０２號","E_COORD97":169314.50834299999,"N_COORD97":2548758.0626699999,"ADDRESS":"培安路４０２號","OBJECTID":24},"geometry":{"x":169314.5083430009,"y":2548758.0626740027}},{"attributes":{"ID":25,"DIS_CODE":0,"TOWNNAME":"安南區","LI":"安慶里","LIN":"30鄰","STREET":"培安路","SECT":" ","MAREA":" ","LANE":" ","ALLEY":" ","HOUSE_NO":"４０８號","E_COORD97":169317.05065700001,"N_COORD97":2548746.52685,"ADDRESS":"培安路４０８號","OBJECTID":25},"geometry":{"x":169317.05065700039,"y":2548746.5268459991}},{"attributes":{"ID":26,"DIS_CODE":0,"TOWNNAME":"安南區","LI":"安慶里","LIN":"30鄰","STREET":"培安路","SECT":" ","MAREA":" ","LANE":" ","ALLEY":" ","HOUSE_NO":"４８２號","E_COORD97":169371.07481600001,"N_COORD97":2548602.17026,"ADDRESS":"培安路４８２號","OBJECTID":26},"geometry":{"x":169371.07481599972,"y":2548602.1702580005}},{"attributes":{"ID":27,"DIS_CODE":0,"TOWNNAME":"安南區","LI":"安慶里","LIN":"30鄰","STREET":"培安路","SECT":" ","MAREA":" ","LANE":" ","ALLEY":" ","HOUSE_NO":"４８０號","E_COORD97":169369.59179999999,"N_COORD97":2548608.7319200002,"ADDRESS":"培安路４８０號","OBJECTID":27},"geometry":{"x":169369.59180000052,"y":2548608.7319210004}},{"attributes":{"ID":28,"DIS_CODE":0,"TOWNNAME":"安南區","LI":"安慶里","LIN":"30鄰","STREET":"培安路","SECT":" ","MAREA":" ","LANE":" ","ALLEY":" ","HOUSE_NO":"４７８號","E_COORD97":169367.896924,"N_COORD97":2548614.44692,"ADDRESS":"培安路４７８號","OBJECTID":28},"geometry":{"x":169367.89692400023,"y":2548614.4469179995}},{"attributes":{"ID":29,"DIS_CODE":0,"TOWNNAME":"安南區","LI":"安慶里","LIN":"30鄰","STREET":"培安路","SECT":" ","MAREA":" ","LANE":" ","ALLEY":" ","HOUSE_NO":"４７６號","E_COORD97":169366.41390799999,"N_COORD97":2548620.1619199999,"ADDRESS":"培安路４７６號","OBJECTID":29},"geometry":{"x":169366.4139080001,"y":2548620.1619150024}},{"attributes":{"ID":30,"DIS_CODE":0,"TOWNNAME":"安南區","LI":"安慶里","LIN":"30鄰","STREET":"培安路","SECT":" ","MAREA":" ","LANE":" ","ALLEY":" ","HOUSE_NO":"４７２號","E_COORD97":169365.56646999999,"N_COORD97":2548625.66524,"ADDRESS":"培安路４７２號","OBJECTID":30},"geometry":{"x":169365.56646999996,"y":2548625.6652450003}},{"attributes":{"ID":31,"DIS_CODE":0,"TOWNNAME":"安南區","LI":"安慶里","LIN":"30鄰","STREET":"培安路","SECT":" ","MAREA":" ","LANE":" ","ALLEY":" ","HOUSE_NO":"４６８號","E_COORD97":169363.65973499999,"N_COORD97":2548637.5185699998,"ADDRESS":"培安路４６８號","OBJECTID":31},"geometry":{"x":169363.65973499976,"y":2548637.5185720008}},{"attributes":{"ID":32,"DIS_CODE":0,"TOWNNAME":"安南區","LI":"安慶里","LIN":"30鄰","STREET":"培安路","SECT":" ","MAREA":" ","LANE":" ","ALLEY":" ","HOUSE_NO":"４６６號","E_COORD97":169361.96486000001,"N_COORD97":2548643.6568999998,"ADDRESS":"培安路４６６號","OBJECTID":32},"geometry":{"x":169361.96486000158,"y":2548643.656902004}},{"attributes":{"ID":33,"DIS_CODE":0,"TOWNNAME":"安南區","LI":"安慶里","LIN":"30鄰","STREET":"培安路","SECT":" ","MAREA":" ","LANE":" ","ALLEY":" ","HOUSE_NO":"４６２號","E_COORD97":169360.693703,"N_COORD97":2548649.7952299998,"ADDRESS":"培安路４６２號","OBJECTID":33},"geometry":{"x":169360.69370300043,"y":2548649.7952320017}},{"attributes":{"ID":34,"DIS_CODE":0,"TOWNNAME":"安南區","LI":"安慶里","LIN":"28鄰","STREET":"培安路","SECT":" ","MAREA":" ","LANE":"３５６巷","ALLEY":" ","HOUSE_NO":"２號","E_COORD97":169266.42999999999,"N_COORD97":2548846.9199999999,"ADDRESS":"培安路３５６巷２號","OBJECTID":34},"geometry":{"x":169266.43000000063,"y":2548846.9200000018}},{"attributes":{"ID":35,"DIS_CODE":0,"TOWNNAME":"安南區","LI":"安慶里","LIN":"28鄰","STREET":"培安路","SECT":" ","MAREA":" ","LANE":"３５６巷","ALLEY":" ","HOUSE_NO":"６號","E_COORD97":169262.17905899999,"N_COORD97":2548846.43346,"ADDRESS":"培安路３５６巷６號","OBJECTID":35},"geometry":{"x":169262.17905899975,"y":2548846.4334590025}},{"attributes":{"ID":36,"DIS_CODE":0,"TOWNNAME":"安南區","LI":"安慶里","LIN":"28鄰","STREET":"培安路","SECT":" ","MAREA":" ","LANE":"３５６巷","ALLEY":" ","HOUSE_NO":"８號","E_COORD97":169256.88257300001,"N_COORD97":2548845.7984600002,"ADDRESS":"培安路３５６巷８號","OBJECTID":36},"geometry":{"x":169256.88257300202,"y":2548845.7984600011}},{"attributes":{"ID":37,"DIS_CODE":0,"TOWNNAME":"安南區","LI":"安慶里","LIN":"28鄰","STREET":"培安路","SECT":" ","MAREA":" ","LANE":"３５６巷","ALLEY":" ","HOUSE_NO":"１０號","E_COORD97":169251.37422699999,"N_COORD97":2548845.7984600002,"ADDRESS":"培安路３５６巷１０號","OBJECTID":37},"geometry":{"x":169251.37422700133,"y":2548845.7984600011}},{"attributes":{"ID":38,"DIS_CODE":0,"TOWNNAME":"安南區","LI":"安慶里","LIN":"28鄰","STREET":"培安路","SECT":" ","MAREA":" ","LANE":"３５６巷","ALLEY":" ","HOUSE_NO":"２０號","E_COORD97":169231.24758,"N_COORD97":2548843.8934599999,"ADDRESS":"培安路３５６巷２０號","OBJECTID":38},"geometry":{"x":169231.24758000113,"y":2548843.893461002}},{"attributes":{"ID":39,"DIS_CODE":0,"TOWNNAME":"安南區","LI":"安慶里","LIN":"28鄰","STREET":"培安路","SECT":" ","MAREA":" ","LANE":"３５６巷","ALLEY":" ","HOUSE_NO":"２６號","E_COORD97":169220.86646700001,"N_COORD97":2548843.0467900001,"ADDRESS":"培安路３５６巷２６號","OBJECTID":39},"geometry":{"x":169220.86646700185,"y":2548843.046794001}},{"attributes":{"ID":40,"DIS_CODE":0,"TOWNNAME":"安南區","LI":"安慶里","LIN":"28鄰","STREET":"培安路","SECT":" ","MAREA":" ","LANE":"３５６巷","ALLEY":" ","HOUSE_NO":"２８號","E_COORD97":169215.99369900001,"N_COORD97":2548842.4117999999,"ADDRESS":"培安路３５６巷２８號","OBJECTID":40},"geometry":{"x":169215.99369900022,"y":2548842.4117950015}},{"attributes":{"ID":41,"DIS_CODE":0,"TOWNNAME":"安南區","LI":"安慶里","LIN":"28鄰","STREET":"培安路","SECT":" ","MAREA":" ","LANE":"３５６巷","ALLEY":" ","HOUSE_NO":"３０號","E_COORD97":169211.33279099999,"N_COORD97":2548841.77679,"ADDRESS":"培安路３５６巷３０號","OBJECTID":41},"geometry":{"x":169211.3327910006,"y":2548841.7767950017}},{"attributes":{"ID":42,"DIS_CODE":0,"TOWNNAME":"安南區","LI":"安慶里","LIN":"28鄰","STREET":"培安路","SECT":" ","MAREA":" ","LANE":"３５６巷","ALLEY":" ","HOUSE_NO":"３２號","E_COORD97":169205.400727,"N_COORD97":2548841.1417999999,"ADDRESS":"培安路３５６巷３２號","OBJECTID":42},"geometry":{"x":169205.40072700102,"y":2548841.1417950019}},{"attributes":{"ID":43,"DIS_CODE":0,"TOWNNAME":"安南區","LI":"安慶里","LIN":"28鄰","STREET":"培安路","SECT":" ","MAREA":" ","LANE":"３５６巷","ALLEY":" ","HOUSE_NO":"３６號","E_COORD97":169199.89238100001,"N_COORD97":2548840.7184600001,"ADDRESS":"培安路３５６巷３６號","OBJECTID":43},"geometry":{"x":169199.89238100126,"y":2548840.7184619997}},{"attributes":{"ID":44,"DIS_CODE":0,"TOWNNAME":"安南區","LI":"安慶里","LIN":"30鄰","STREET":"培安路","SECT":" ","MAREA":" ","LANE":"３５６巷","ALLEY":" ","HOUSE_NO":"３９號","E_COORD97":169199.68052200001,"N_COORD97":2548808.86265,"ADDRESS":"培安路３５６巷３９號","OBJECTID":44},"geometry":{"x":169199.68052200135,"y":2548808.8626460042}},{"attributes":{"ID":45,"DIS_CODE":0,"TOWNNAME":"安南區","LI":"安慶里","LIN":"30鄰","STREET":"培安路","SECT":" ","MAREA":" ","LANE":"４０６巷","ALLEY":" ","HOUSE_NO":"１１號","E_COORD97":169272.79000000001,"N_COORD97":2548739.6699999999,"ADDRESS":"培安路４０６巷１１號","OBJECTID":45},"geometry":{"x":169272.79000000097,"y":2548739.6700000018}},{"attributes":{"ID":46,"DIS_CODE":0,"TOWNNAME":"安南區","LI":"安慶里","LIN":"31鄰","STREET":"培安路","SECT":" ","MAREA":" ","LANE":"４０６巷","ALLEY":" ","HOUSE_NO":"１９號","E_COORD97":169239.60000000001,"N_COORD97":2548739.2799999998,"ADDRESS":"培安路４０６巷１９號","OBJECTID":46},"geometry":{"x":169239.60000000149,"y":2548739.2800000012}},{"attributes":{"ID":47,"DIS_CODE":0,"TOWNNAME":"安南區","LI":"安慶里","LIN":"31鄰","STREET":"培安路","SECT":" ","MAREA":" ","LANE":"４０６巷","ALLEY":" ","HOUSE_NO":"２３號","E_COORD97":169225.54000000001,"N_COORD97":2548738.6699999999,"ADDRESS":"培安路４０６巷２３號","OBJECTID":47},"geometry":{"x":169225.54000000097,"y":2548738.6699999999}},{"attributes":{"ID":48,"DIS_CODE":0,"TOWNNAME":"安南區","LI":"安慶里","LIN":"28鄰","STREET":"培安路","SECT":" ","MAREA":" ","LANE":"３４２巷","ALLEY":" ","HOUSE_NO":"３號","E_COORD97":169259,"N_COORD97":2548855.75,"ADDRESS":"培安路３４２巷３號","OBJECTID":48},"geometry":{"x":169259,"y":2548855.75}},{"attributes":{"ID":49,"DIS_CODE":0,"TOWNNAME":"安南區","LI":"安慶里","LIN":"28鄰","STREET":"培安路","SECT":" ","MAREA":" ","LANE":" ","ALLEY":" ","HOUSE_NO":"３４６號","E_COORD97":169282.30570699999,"N_COORD97":2548859.5567899998,"ADDRESS":"培安路３４６號","OBJECTID":49},"geometry":{"x":169282.3057070002,"y":2548859.5567850024}},{"attributes":{"ID":50,"DIS_CODE":0,"TOWNNAME":"安南區","LI":"安慶里","LIN":"28鄰","STREET":"培安路","SECT":" ","MAREA":" ","LANE":" ","ALLEY":" ","HOUSE_NO":"３４８號","E_COORD97":169283.15314499999,"N_COORD97":2548855.32345,"ADDRESS":"培安路３４８號","OBJECTID":50},"geometry":{"x":169283.15314500034,"y":2548855.3234540001}},{"attributes":{"ID":51,"DIS_CODE":0,"TOWNNAME":"安南區","LI":"安慶里","LIN":"28鄰","STREET":"培安路","SECT":" ","MAREA":" ","LANE":" ","ALLEY":" ","HOUSE_NO":"３５０號","E_COORD97":169283.78872300001,"N_COORD97":2548850.6667900002,"ADDRESS":"培安路３５０號","OBJECTID":51},"geometry":{"x":169283.78872300126,"y":2548850.6667899992}},{"attributes":{"ID":52,"DIS_CODE":0,"TOWNNAME":"安南區","LI":"安慶里","LIN":"28鄰","STREET":"培安路","SECT":" ","MAREA":" ","LANE":" ","ALLEY":" ","HOUSE_NO":"３５２號","E_COORD97":169284.00058200001,"N_COORD97":2548846.6451300001,"ADDRESS":"培安路３５２號","OBJECTID":52},"geometry":{"x":169284.00058200117,"y":2548846.6451260038}},{"attributes":{"ID":53,"DIS_CODE":0,"TOWNNAME":"安南區","LI":"安慶里","LIN":"28鄰","STREET":"培安路","SECT":" ","MAREA":" ","LANE":"３４２巷","ALLEY":" ","HOUSE_NO":"９號","E_COORD97":169243.64000000001,"N_COORD97":2548854.2599999998,"ADDRESS":"培安路３４２巷９號","OBJECTID":53},"geometry":{"x":169243.63999999966,"y":2548854.2600000016}},{"attributes":{"ID":54,"DIS_CODE":0,"TOWNNAME":"安南區","LI":"安慶里","LIN":"28鄰","STREET":"培安路","SECT":" ","MAREA":" ","LANE":"３４２巷","ALLEY":" ","HOUSE_NO":"６號","E_COORD97":169257.73001100001,"N_COORD97":2548870.3517800001,"ADDRESS":"培安路３４２巷６號","OBJECTID":54},"geometry":{"x":169257.73001100123,"y":2548870.3517800011}},{"attributes":{"ID":55,"DIS_CODE":0,"TOWNNAME":"安南區","LI":"安慶里","LIN":"28鄰","STREET":"培安路","SECT":" ","MAREA":" ","LANE":"３４２巷","ALLEY":" ","HOUSE_NO":"８號","E_COORD97":169253.06910299999,"N_COORD97":2548869.7167799999,"ADDRESS":"培安路３４２巷８號","OBJECTID":55},"geometry":{"x":169253.06910299975,"y":2548869.7167800013}},{"attributes":{"ID":56,"DIS_CODE":0,"TOWNNAME":"安南區","LI":"安慶里","LIN":"28鄰","STREET":"培安路","SECT":" ","MAREA":" ","LANE":"３４２巷","ALLEY":" ","HOUSE_NO":"１０號","E_COORD97":169248.19633599999,"N_COORD97":2548869.0817800001,"ADDRESS":"培安路３４２巷１０號","OBJECTID":56},"geometry":{"x":169248.19633600023,"y":2548869.0817800015}},{"attributes":{"ID":57,"DIS_CODE":0,"TOWNNAME":"安南區","LI":"四草里","LIN":"8鄰","STREET":"北汕尾一路","SECT":" ","MAREA":" ","LANE":"８３巷","ALLEY":" ","HOUSE_NO":"２４２號","E_COORD97":160519.84496799999,"N_COORD97":2545435.02709,"ADDRESS":"北汕尾一路８３巷２４２號","OBJECTID":57},"geometry":{"x":160519.84496800043,"y":2545435.0270950012}},{"attributes":{"ID":58,"DIS_CODE":0,"TOWNNAME":"安南區","LI":"四草里","LIN":"8鄰","STREET":"北汕尾一路","SECT":" ","MAREA":" ","LANE":"８３巷","ALLEY":" ","HOUSE_NO":"２３２號","E_COORD97":160529.79917300001,"N_COORD97":2545449.84375,"ADDRESS":"北汕尾一路８３巷２３２號","OBJECTID":58},"geometry":{"x":160529.7991730012,"y":2545449.8437540028}},{"attributes":{"ID":59,"DIS_CODE":0,"TOWNNAME":"安南區","LI":"四草里","LIN":"8鄰","STREET":"北汕尾一路","SECT":" ","MAREA":" ","LANE":"８３巷","ALLEY":" ","HOUSE_NO":"２１８號","E_COORD97":160540.50214600001,"N_COORD97":2545474.5104,"ADDRESS":"北汕尾一路８３巷２１８號","OBJECTID":59},"geometry":{"x":160540.50214600191,"y":2545474.5104000028}},{"attributes":{"ID":60,"DIS_CODE":0,"TOWNNAME":"安南區","LI":"四草里","LIN":"8鄰","STREET":"北汕尾一路","SECT":" ","MAREA":" ","LANE":"８３巷","ALLEY":" ","HOUSE_NO":"２１６號","E_COORD97":160554.26860000001,"N_COORD97":2545497.79372,"ADDRESS":"北汕尾一路８３巷２１６號","OBJECTID":60},"geometry":{"x":160554.26860000007,"y":2545497.7937200032}},{"attributes":{"ID":61,"DIS_CODE":0,"TOWNNAME":"安南區","LI":"四草里","LIN":"8鄰","STREET":"北汕尾一路","SECT":" ","MAREA":" ","LANE":"８３巷","ALLEY":" ","HOUSE_NO":"２０８號","E_COORD97":160629.97660299999,"N_COORD97":2545559.0636999998,"ADDRESS":"北汕尾一路８３巷２０８號","OBJECTID":61},"geometry":{"x":160629.97660300042,"y":2545559.0636950023}},{"attributes":{"ID":62,"DIS_CODE":0,"TOWNNAME":"安南區","LI":"四草里","LIN":"8鄰","STREET":"北汕尾一路","SECT":" ","MAREA":" ","LANE":"８３巷","ALLEY":"１３９弄","HOUSE_NO":"５１號","E_COORD97":160794.86386400001,"N_COORD97":2545598.8645000001,"ADDRESS":"北汕尾一路８３巷１３９弄５１號","OBJECTID":62},"geometry":{"x":160794.86386400089,"y":2545598.864498999}},{"attributes":{"ID":63,"DIS_CODE":0,"TOWNNAME":"安南區","LI":"安慶里","LIN":"30鄰","STREET":"培安路","SECT":" ","MAREA":" ","LANE":"３８８巷","ALLEY":" ","HOUSE_NO":"５號","E_COORD97":169268.32298299999,"N_COORD97":2548766.21184,"ADDRESS":"培安路３８８巷５號","OBJECTID":63},"geometry":{"x":169268.32298300043,"y":2548766.2118360009}},{"attributes":{"ID":64,"DIS_CODE":0,"TOWNNAME":"安南區","LI":"安慶里","LIN":"30鄰","STREET":"培安路","SECT":" ","MAREA":" ","LANE":" ","ALLEY":" ","HOUSE_NO":"４１０號","E_COORD97":169318.32181299999,"N_COORD97":2548742.2935199998,"ADDRESS":"培安路４１０號","OBJECTID":64},"geometry":{"x":169318.32181300037,"y":2548742.2935150024}},{"attributes":{"ID":65,"DIS_CODE":0,"TOWNNAME":"安南區","LI":"安慶里","LIN":"30鄰","STREET":"培安路","SECT":" ","MAREA":" ","LANE":" ","ALLEY":" ","HOUSE_NO":"４７０號","E_COORD97":169364.719033,"N_COORD97":2548631.80357,"ADDRESS":"培安路４７０號","OBJECTID":65},"geometry":{"x":169364.71903300099,"y":2548631.8035750035}},{"attributes":{"ID":66,"DIS_CODE":0,"TOWNNAME":"安南區","LI":"安慶里","LIN":"28鄰","STREET":"培安路","SECT":" ","MAREA":" ","LANE":"３５６巷","ALLEY":" ","HOUSE_NO":"１２號","E_COORD97":169246.50146,"N_COORD97":2548844.7401299998,"ADDRESS":"培安路３５６巷１２號","OBJECTID":66},"geometry":{"x":169246.50145999994,"y":2548844.7401270028}},{"attributes":{"ID":67,"DIS_CODE":0,"TOWNNAME":"安南區","LI":"安慶里","LIN":"28鄰","STREET":"培安路","SECT":" ","MAREA":" ","LANE":"３５６巷","ALLEY":" ","HOUSE_NO":"２２號","E_COORD97":169226.37481199999,"N_COORD97":2548843.4701299998,"ADDRESS":"培安路３５６巷２２號","OBJECTID":67},"geometry":{"x":169226.3748119995,"y":2548843.4701269995}},{"attributes":{"ID":68,"DIS_CODE":0,"TOWNNAME":"安南區","LI":"安慶里","LIN":"28鄰","STREET":"培安路","SECT":" ","MAREA":" ","LANE":" ","ALLEY":" ","HOUSE_NO":"３３８號","E_COORD97":169279.763393,"N_COORD97":2548874.3734400002,"ADDRESS":"培安路３３８號","OBJECTID":68},"geometry":{"x":169279.76339299977,"y":2548874.3734440021}},{"attributes":{"ID":69,"DIS_CODE":0,"TOWNNAME":"安南區","LI":"安慶里","LIN":"28鄰","STREET":"培安路","SECT":" ","MAREA":" ","LANE":"３５６巷","ALLEY":" ","HOUSE_NO":"１６號","E_COORD97":169240.99311400001,"N_COORD97":2548844.5284600002,"ADDRESS":"培安路３５６巷１６號","OBJECTID":69},"geometry":{"x":169240.99311400019,"y":2548844.5284600034}},{"attributes":{"ID":70,"DIS_CODE":0,"TOWNNAME":"安南區","LI":"安慶里","LIN":"28鄰","STREET":"培安路","SECT":" ","MAREA":" ","LANE":"３４２巷","ALLEY":" ","HOUSE_NO":"１６號","E_COORD97":169238.23894099999,"N_COORD97":2548869.0817800001,"ADDRESS":"培安路３４２巷１６號","OBJECTID":70},"geometry":{"x":169238.23894099984,"y":2548869.0817800015}},{"attributes":{"ID":71,"DIS_CODE":0,"TOWNNAME":"安南區","LI":"安慶里","LIN":"28鄰","STREET":"培安路","SECT":" ","MAREA":" ","LANE":" ","ALLEY":" ","HOUSE_NO":"３４０號","E_COORD97":169280.18711200001,"N_COORD97":2548869.8226100001,"ADDRESS":"培安路３４０號","OBJECTID":71},"geometry":{"x":169280.18711200077,"y":2548869.8226130027}},{"attributes":{"ID":72,"DIS_CODE":0,"TOWNNAME":"安南區","LI":"安慶里","LIN":"28鄰","STREET":"培安路","SECT":" ","MAREA":" ","LANE":"３４２巷","ALLEY":" ","HOUSE_NO":"１８號","E_COORD97":169233.15431499999,"N_COORD97":2548868.9759499999,"ADDRESS":"培安路３４２巷１８號","OBJECTID":72},"geometry":{"x":169233.15431500133,"y":2548868.9759470001}},{"attributes":{"ID":73,"DIS_CODE":0,"TOWNNAME":"安南區","LI":"安西里","LIN":"2鄰","STREET":"安和路","SECT":"一段","MAREA":" ","LANE":"２１５巷","ALLEY":" ","HOUSE_NO":"２號","E_COORD97":169288.27971800001,"N_COORD97":2547948.9604099998,"ADDRESS":"安和路一段２１５巷２號","OBJECTID":73},"geometry":{"x":169288.27971800044,"y":2547948.9604070019}},{"attributes":{"ID":74,"DIS_CODE":0,"TOWNNAME":"安南區","LI":"安慶里","LIN":"28鄰","STREET":"培安路","SECT":" ","MAREA":" ","LANE":"３４２巷","ALLEY":" ","HOUSE_NO":"２０號","E_COORD97":169228.493407,"N_COORD97":2548868.3409500001,"ADDRESS":"培安路３４２巷２０號","OBJECTID":74},"geometry":{"x":169228.49340700079,"y":2548868.3409470003}},{"attributes":{"ID":75,"DIS_CODE":0,"TOWNNAME":"安南區","LI":"安慶里","LIN":"28鄰","STREET":"培安路","SECT":" ","MAREA":" ","LANE":"３４２巷","ALLEY":" ","HOUSE_NO":"２２號","E_COORD97":169223.40878,"N_COORD97":2548867.9176099999,"ADDRESS":"培安路３４２巷２２號","OBJECTID":75},"geometry":{"x":169223.40878000017,"y":2548867.9176140018}},{"attributes":{"ID":76,"DIS_CODE":0,"TOWNNAME":"安南區","LI":"安慶里","LIN":"28鄰","STREET":"培安路","SECT":" ","MAREA":" ","LANE":"３４２巷","ALLEY":" ","HOUSE_NO":"２６號","E_COORD97":169218.11229399999,"N_COORD97":2548867.2826100001,"ADDRESS":"培安路３４２巷２６號","OBJECTID":76},"geometry":{"x":169218.11229399964,"y":2548867.2826150022}},{"attributes":{"ID":77,"DIS_CODE":0,"TOWNNAME":"安南區","LI":"安慶里","LIN":"28鄰","STREET":"培安路","SECT":" ","MAREA":" ","LANE":"３４２巷","ALLEY":" ","HOUSE_NO":"２８號","E_COORD97":169213.451386,"N_COORD97":2548866.85928,"ADDRESS":"培安路３４２巷２８號","OBJECTID":77},"geometry":{"x":169213.45138600003,"y":2548866.8592819981}},{"attributes":{"ID":78,"DIS_CODE":0,"TOWNNAME":"安南區","LI":"安慶里","LIN":"28鄰","STREET":"培安路","SECT":" ","MAREA":" ","LANE":"３４２巷","ALLEY":" ","HOUSE_NO":"３０號","E_COORD97":169208.366759,"N_COORD97":2548866.6476199999,"ADDRESS":"培安路３４２巷３０號","OBJECTID":78},"geometry":{"x":169208.36675900128,"y":2548866.6476150025}},{"attributes":{"ID":79,"DIS_CODE":0,"TOWNNAME":"安南區","LI":"安慶里","LIN":"28鄰","STREET":"培安路","SECT":" ","MAREA":" ","LANE":"３４２巷","ALLEY":" ","HOUSE_NO":"３２號","E_COORD97":169203.493992,"N_COORD97":2548866.0126100001,"ADDRESS":"培安路３４２巷３２號","OBJECTID":79},"geometry":{"x":169203.49399200175,"y":2548866.012614999}},{"attributes":{"ID":80,"DIS_CODE":0,"TOWNNAME":"安南區","LI":"安慶里","LIN":"28鄰","STREET":"培安路","SECT":" ","MAREA":" ","LANE":"３４２巷","ALLEY":" ","HOUSE_NO":"３６號","E_COORD97":169198.409365,"N_COORD97":2548866.0126100001,"ADDRESS":"培安路３４２巷３６號","OBJECTID":80},"geometry":{"x":169198.4093650002,"y":2548866.012614999}},{"attributes":{"ID":81,"DIS_CODE":0,"TOWNNAME":"安南區","LI":"安慶里","LIN":"28鄰","STREET":"培安路","SECT":" ","MAREA":" ","LANE":"３４２巷","ALLEY":" ","HOUSE_NO":"３８號","E_COORD97":169193.96031699999,"N_COORD97":2548865.8009500001,"ADDRESS":"培安路３４２巷３８號","OBJECTID":81},"geometry":{"x":169193.96031699982,"y":2548865.8009490017}},{"attributes":{"ID":82,"DIS_CODE":0,"TOWNNAME":"安南區","LI":"安慶里","LIN":"28鄰","STREET":"培安路","SECT":" ","MAREA":" ","LANE":"３４２巷","ALLEY":" ","HOUSE_NO":"４０號","E_COORD97":169188.66383,"N_COORD97":2548864.9542800002,"ADDRESS":"培安路３４２巷４０號","OBJECTID":82},"geometry":{"x":169188.66382999998,"y":2548864.954282999}},{"attributes":{"ID":83,"DIS_CODE":0,"TOWNNAME":"安南區","LI":"安慶里","LIN":"28鄰","STREET":"培安路","SECT":" ","MAREA":" ","LANE":"３４２巷","ALLEY":" ","HOUSE_NO":"４２號","E_COORD97":169183.367344,"N_COORD97":2548864.3192799999,"ADDRESS":"培安路３４２巷４２號","OBJECTID":83},"geometry":{"x":169183.36734400131,"y":2548864.3192830049}},{"attributes":{"ID":84,"DIS_CODE":0,"TOWNNAME":"安南區","LI":"安西里","LIN":"7鄰","STREET":"安和路","SECT":"一段","MAREA":" ","LANE":"３２１巷","ALLEY":" ","HOUSE_NO":"５５號之２","E_COORD97":169104.14999999999,"N_COORD97":2548088.6000000001,"ADDRESS":"安和路一段３２１巷５５號之２","OBJECTID":84},"geometry":{"x":169104.15000000037,"y":2548088.6000000015}},{"attributes":{"ID":85,"DIS_CODE":0,"TOWNNAME":"安南區","LI":"安慶里","LIN":"28鄰","STREET":"培安路","SECT":" ","MAREA":" ","LANE":"３３０巷","ALLEY":" ","HOUSE_NO":"１號","E_COORD97":169259.636746,"N_COORD97":2548885.1684400002,"ADDRESS":"培安路３３０巷１號","OBJECTID":85},"geometry":{"x":169259.63674599957,"y":2548885.1684380006}},{"attributes":{"ID":86,"DIS_CODE":0,"TOWNNAME":"安南區","LI":"安西里","LIN":"10鄰","STREET":"安和路","SECT":"一段","MAREA":" ","LANE":" ","ALLEY":" ","HOUSE_NO":"４３７號","E_COORD97":169350.17649799999,"N_COORD97":2548440.87347,"ADDRESS":"安和路一段４３７號","OBJECTID":86},"geometry":{"x":169350.17649800051,"y":2548440.8734740019}},{"attributes":{"ID":87,"DIS_CODE":0,"TOWNNAME":"安南區","LI":"安慶里","LIN":"28鄰","STREET":"培安路","SECT":" ","MAREA":" ","LANE":"３３０巷","ALLEY":" ","HOUSE_NO":"３號","E_COORD97":169253.492822,"N_COORD97":2548884.8509399998,"ADDRESS":"培安路３３０巷３號","OBJECTID":87},"geometry":{"x":169253.49282200076,"y":2548884.8509380016}},{"attributes":{"ID":88,"DIS_CODE":0,"TOWNNAME":"安南區","LI":"安慶里","LIN":"28鄰","STREET":"培安路","SECT":" ","MAREA":" ","LANE":"３３０巷","ALLEY":" ","HOUSE_NO":"５號","E_COORD97":169246.92517900001,"N_COORD97":2548883.5809399998,"ADDRESS":"培安路３３０巷５號","OBJECTID":88},"geometry":{"x":169246.92517900094,"y":2548883.5809390023}},{"attributes":{"ID":89,"DIS_CODE":0,"TOWNNAME":"安南區","LI":"安慶里","LIN":"28鄰","STREET":"培安路","SECT":" ","MAREA":" ","LANE":"３３０巷","ALLEY":" ","HOUSE_NO":"７號","E_COORD97":169241.62869300001,"N_COORD97":2548883.1576100001,"ADDRESS":"培安路３３０巷７號","OBJECTID":89},"geometry":{"x":169241.62869300041,"y":2548883.1576060001}},{"attributes":{"ID":90,"DIS_CODE":0,"TOWNNAME":"安南區","LI":"安西里","LIN":"6鄰","STREET":"安和路","SECT":"一段","MAREA":" ","LANE":"２８５巷","ALLEY":" ","HOUSE_NO":"４８號","E_COORD97":169146.496365,"N_COORD97":2548054.5539500001,"ADDRESS":"安和路一段２８５巷４８號","OBJECTID":90},"geometry":{"x":169146.49636499956,"y":2548054.5539500006}},{"attributes":{"ID":91,"DIS_CODE":0,"TOWNNAME":"安南區","LI":"安西里","LIN":"11鄰","STREET":"安中路","SECT":"一段","MAREA":" ","LANE":" ","ALLEY":" ","HOUSE_NO":"１７號之１","E_COORD97":169193.70999999999,"N_COORD97":2548208.21,"ADDRESS":"安中路一段１７號之１","OBJECTID":91},"geometry":{"x":169193.71000000089,"y":2548208.2100000028}},{"attributes":{"ID":92,"DIS_CODE":0,"TOWNNAME":"安南區","LI":"安西里","LIN":"2鄰","STREET":"安和路","SECT":"一段","MAREA":" ","LANE":"２１５巷","ALLEY":" ","HOUSE_NO":"１１號","E_COORD97":169270.92585299999,"N_COORD97":2547941.3123400002,"ADDRESS":"安和路一段２１５巷１１號","OBJECTID":92},"geometry":{"x":169270.92585300002,"y":2547941.3123440016}},{"attributes":{"ID":93,"DIS_CODE":0,"TOWNNAME":"安南區","LI":"安西里","LIN":"2鄰","STREET":"安和路","SECT":"一段","MAREA":" ","LANE":"２１５巷","ALLEY":" ","HOUSE_NO":"１４號","E_COORD97":169233.80207199999,"N_COORD97":2547953.8287399998,"ADDRESS":"安和路一段２１５巷１４號","OBJECTID":93},"geometry":{"x":169233.80207200069,"y":2547953.828737}},{"attributes":{"ID":94,"DIS_CODE":0,"TOWNNAME":"安南區","LI":"安西里","LIN":"3鄰","STREET":"安和路","SECT":"一段","MAREA":" ","LANE":"２１５巷","ALLEY":" ","HOUSE_NO":"２３號","E_COORD97":169227.04697,"N_COORD97":2547926.9470899999,"ADDRESS":"安和路一段２１５巷２３號","OBJECTID":94},"geometry":{"x":169227.04696999956,"y":2547926.9470850024}},{"attributes":{"ID":95,"DIS_CODE":0,"TOWNNAME":"安南區","LI":"四草里","LIN":"2鄰","STREET":"北汕尾一路","SECT":" ","MAREA":" ","LANE":"５３０巷","ALLEY":" ","HOUSE_NO":"１１８號","E_COORD97":160191.61295899999,"N_COORD97":2546808.96312,"ADDRESS":"北汕尾一路５３０巷１１８號","OBJECTID":95},"geometry":{"x":160191.61295900028,"y":2546808.9631220009}},{"attributes":{"ID":96,"DIS_CODE":0,"TOWNNAME":"安南區","LI":"四草里","LIN":"2鄰","STREET":"北汕尾一路","SECT":" ","MAREA":" ","LANE":"５３０巷","ALLEY":" ","HOUSE_NO":"１１６號","E_COORD97":160192.980889,"N_COORD97":2546805.0409900001,"ADDRESS":"北汕尾一路５３０巷１１６號","OBJECTID":96},"geometry":{"x":160192.98088900093,"y":2546805.040986998}},{"attributes":{"ID":97,"DIS_CODE":0,"TOWNNAME":"安南區","LI":"四草里","LIN":"2鄰","STREET":"北汕尾一路","SECT":" ","MAREA":" ","LANE":"５３０巷","ALLEY":" ","HOUSE_NO":"１１２號","E_COORD97":160187.687317,"N_COORD97":2546798.7881399998,"ADDRESS":"北汕尾一路５３０巷１１２號","OBJECTID":97},"geometry":{"x":160187.68731700163,"y":2546798.7881440017}},{"attributes":{"ID":98,"DIS_CODE":0,"TOWNNAME":"安南區","LI":"四草里","LIN":"2鄰","STREET":"北汕尾一路","SECT":" ","MAREA":" ","LANE":"５３０巷","ALLEY":" ","HOUSE_NO":"１１０號","E_COORD97":160186.84015100001,"N_COORD97":2546789.8981499998,"ADDRESS":"北汕尾一路５３０巷１１０號","OBJECTID":98},"geometry":{"x":160186.84015100077,"y":2546789.8981479984}},{"attributes":{"ID":99,"DIS_CODE":0,"TOWNNAME":"安南區","LI":"四草里","LIN":"2鄰","STREET":"北汕尾一路","SECT":" ","MAREA":" ","LANE":"５３０巷","ALLEY":" ","HOUSE_NO":"１２８號","E_COORD97":160215.220226,"N_COORD97":2546850.0189399999,"ADDRESS":"北汕尾一路５３０巷１２８號","OBJECTID":99},"geometry":{"x":160215.22022600099,"y":2546850.018941002}},{"attributes":{"ID":100,"DIS_CODE":0,"TOWNNAME":"安南區","LI":"四草里","LIN":"9鄰","STREET":"大眾路","SECT":" ","MAREA":" ","LANE":" ","ALLEY":" ","HOUSE_NO":"８０９號","E_COORD97":160339.21671499999,"N_COORD97":2546058.45346,"ADDRESS":"大眾路８０９號","OBJECTID":100},"geometry":{"x":160339.21671500057,"y":2546058.4534650035}},{"attributes":{"ID":101,"DIS_CODE":0,"TOWNNAME":"安南區","LI":"四草里","LIN":"9鄰","STREET":"大眾路","SECT":" ","MAREA":" ","LANE":" ","ALLEY":" ","HOUSE_NO":"８１１號","E_COORD97":160327.568176,"N_COORD97":2546047.0234699999,"ADDRESS":"大眾路８１１號","OBJECTID":101},"geometry":{"x":160327.56817600224,"y":2546047.0234709997}},{"attributes":{"ID":102,"DIS_CODE":0,"TOWNNAME":"安南區","LI":"四草里","LIN":"9鄰","STREET":"大眾路","SECT":" ","MAREA":" ","LANE":" ","ALLEY":" ","HOUSE_NO":"８０６號","E_COORD97":160323.85432700001,"N_COORD97":2546077.6017999998,"ADDRESS":"大眾路８０６號","OBJECTID":102},"geometry":{"x":160323.85432699975,"y":2546077.6017959993}},{"attributes":{"ID":103,"DIS_CODE":0,"TOWNNAME":"安南區","LI":"四草里","LIN":"9鄰","STREET":"大眾路","SECT":" ","MAREA":" ","LANE":" ","ALLEY":" ","HOUSE_NO":"７８２號","E_COORD97":160366.000856,"N_COORD97":2546136.9667699998,"ADDRESS":"大眾路７８２號","OBJECTID":103},"geometry":{"x":160366.000856,"y":2546136.966771001}},{"attributes":{"ID":104,"DIS_CODE":0,"TOWNNAME":"安南區","LI":"四草里","LIN":"9鄰","STREET":"大眾路","SECT":" ","MAREA":" ","LANE":" ","ALLEY":" ","HOUSE_NO":"７８６號","E_COORD97":160358.58815,"N_COORD97":2546127.65344,"ADDRESS":"大眾路７８６號","OBJECTID":104},"geometry":{"x":160358.5881500002,"y":2546127.6534429993}},{"attributes":{"ID":105,"DIS_CODE":0,"TOWNNAME":"安南區","LI":"四草里","LIN":"9鄰","STREET":"大眾路","SECT":" ","MAREA":" ","LANE":" ","ALLEY":" ","HOUSE_NO":"７９０號","E_COORD97":160350.32827699999,"N_COORD97":2546116.43512,"ADDRESS":"大眾路７９０號","OBJECTID":105},"geometry":{"x":160350.32827700209,"y":2546116.4351160023}},{"attributes":{"ID":106,"DIS_CODE":0,"TOWNNAME":"安南區","LI":"四草里","LIN":"9鄰","STREET":"大眾路","SECT":" ","MAREA":" ","LANE":" ","ALLEY":" ","HOUSE_NO":"７９８號","E_COORD97":160342.28018999999,"N_COORD97":2546098.2317900001,"ADDRESS":"大眾路７９８號","OBJECTID":106},"geometry":{"x":160342.28019000031,"y":2546098.2317900006}},{"attributes":{"ID":107,"DIS_CODE":0,"TOWNNAME":"安南區","LI":"四草里","LIN":"9鄰","STREET":"大眾路","SECT":" ","MAREA":" ","LANE":" ","ALLEY":" ","HOUSE_NO":"８００號","E_COORD97":160335.50286499999,"N_COORD97":2546093.2651200001,"ADDRESS":"大眾路８００號","OBJECTID":107},"geometry":{"x":160335.50286500063,"y":2546093.2651199996}},{"attributes":{"ID":108,"DIS_CODE":0,"TOWNNAME":"安南區","LI":"四草里","LIN":"9鄰","STREET":"大眾路","SECT":" ","MAREA":" ","LANE":" ","ALLEY":" ","HOUSE_NO":"８０２號","E_COORD97":160327.878367,"N_COORD97":2546087.5501199998,"ADDRESS":"大眾路８０２號","OBJECTID":108},"geometry":{"x":160327.87836700119,"y":2546087.5501240008}},{"attributes":{"ID":109,"DIS_CODE":0,"TOWNNAME":"安南區","LI":"四草里","LIN":"4鄰","STREET":"大眾路","SECT":" ","MAREA":" ","LANE":" ","ALLEY":" ","HOUSE_NO":"６４９號","E_COORD97":160655.60338700001,"N_COORD97":2546397.3999899998,"ADDRESS":"大眾路６４９號","OBJECTID":109},"geometry":{"x":160655.60338700004,"y":2546397.3999879993}},{"attributes":{"ID":110,"DIS_CODE":0,"TOWNNAME":"安南區","LI":"四草里","LIN":"4鄰","STREET":"大眾路","SECT":" ","MAREA":" ","LANE":" ","ALLEY":" ","HOUSE_NO":"６５３號","E_COORD97":160647.97888899999,"N_COORD97":2546385.54666,"ADDRESS":"大眾路６５３號","OBJECTID":110},"geometry":{"x":160647.97888899967,"y":2546385.5466610044}},{"attributes":{"ID":111,"DIS_CODE":0,"TOWNNAME":"安南區","LI":"四草里","LIN":"4鄰","STREET":"大眾路","SECT":" ","MAREA":" ","LANE":" ","ALLEY":" ","HOUSE_NO":"６６３號","E_COORD97":160623.62285499999,"N_COORD97":2546358.98251,"ADDRESS":"大眾路６６３號","OBJECTID":111},"geometry":{"x":160623.6228550002,"y":2546358.982508}},{"attributes":{"ID":112,"DIS_CODE":0,"TOWNNAME":"安南區","LI":"四草里","LIN":"4鄰","STREET":"大眾路","SECT":" ","MAREA":" ","LANE":" ","ALLEY":" ","HOUSE_NO":"６６１之１號","E_COORD97":160625.74077100001,"N_COORD97":2546367.03333,"ADDRESS":"大眾路６６１之１號","OBJECTID":112},"geometry":{"x":160625.7407710012,"y":2546367.0333300009}},{"attributes":{"ID":113,"DIS_CODE":0,"TOWNNAME":"安南區","LI":"四草里","LIN":"4鄰","STREET":"大眾路","SECT":" ","MAREA":" ","LANE":" ","ALLEY":" ","HOUSE_NO":"６５７號","E_COORD97":160642.89589099999,"N_COORD97":2546375.5983299999,"ADDRESS":"大眾路６５７號","OBJECTID":113},"geometry":{"x":160642.89589099959,"y":2546375.598333003}},{"attributes":{"ID":114,"DIS_CODE":0,"TOWNNAME":"安南區","LI":"四草里","LIN":"10鄰","STREET":"北汕尾二路","SECT":" ","MAREA":" ","LANE":"２４７巷","ALLEY":" ","HOUSE_NO":"２６３號","E_COORD97":159331.64064100001,"N_COORD97":2547486.9919699999,"ADDRESS":"北汕尾二路２４７巷２６３號","OBJECTID":114},"geometry":{"x":159331.64064100012,"y":2547486.9919699989}},{"attributes":{"ID":115,"DIS_CODE":0,"TOWNNAME":"安南區","LI":"四草里","LIN":"10鄰","STREET":"北汕尾二路","SECT":" ","MAREA":" ","LANE":"２４７巷","ALLEY":"１５９弄","HOUSE_NO":"５９號","E_COORD97":159388.28739000001,"N_COORD97":2547253.1528699999,"ADDRESS":"北汕尾二路２４７巷１５９弄５９號","OBJECTID":115},"geometry":{"x":159388.28739000205,"y":2547253.1528699994}},{"attributes":{"ID":116,"DIS_CODE":0,"TOWNNAME":"安南區","LI":"四草里","LIN":"4鄰","STREET":"北汕尾一路","SECT":" ","MAREA":" ","LANE":" ","ALLEY":" ","HOUSE_NO":"２９２號","E_COORD97":160477.13147699999,"N_COORD97":2546257.1175099998,"ADDRESS":"北汕尾一路２９２號","OBJECTID":116},"geometry":{"x":160477.13147700019,"y":2546257.1175080016}},{"attributes":{"ID":117,"DIS_CODE":0,"TOWNNAME":"安南區","LI":"四草里","LIN":"4鄰","STREET":"北汕尾一路","SECT":" ","MAREA":" ","LANE":" ","ALLEY":" ","HOUSE_NO":"２９６號","E_COORD97":160460.77010299999,"N_COORD97":2546270.62671,"ADDRESS":"北汕尾一路２９６號","OBJECTID":117},"geometry":{"x":160460.77010300104,"y":2546270.6267070025}},{"attributes":{"ID":118,"DIS_CODE":0,"TOWNNAME":"安南區","LI":"四草里","LIN":"4鄰","STREET":"大眾路","SECT":" ","MAREA":" ","LANE":" ","ALLEY":" ","HOUSE_NO":"７５０號","E_COORD97":160505.66992300001,"N_COORD97":2546275.7067,"ADDRESS":"大眾路７５０號","OBJECTID":118},"geometry":{"x":160505.66992300097,"y":2546275.7067040019}},{"attributes":{"ID":119,"DIS_CODE":0,"TOWNNAME":"安南區","LI":"安慶里","LIN":"28鄰","STREET":"培安路","SECT":" ","MAREA":" ","LANE":"３５６巷","ALLEY":" ","HOUSE_NO":"１８號","E_COORD97":169235.90848799999,"N_COORD97":2548844.10513,"ADDRESS":"培安路３５６巷１８號","OBJECTID":119},"geometry":{"x":169235.90848800074,"y":2548844.1051269993}},{"attributes":{"ID":120,"DIS_CODE":0,"TOWNNAME":"安南區","LI":"四草里","LIN":"10鄰","STREET":"北汕尾二路","SECT":" ","MAREA":" ","LANE":"２４７巷","ALLEY":"３１３弄","HOUSE_NO":"１１０號","E_COORD97":159151.25416000001,"N_COORD97":2547441.4761600001,"ADDRESS":"北汕尾二路２４７巷３１３弄１１０號","OBJECTID":120},"geometry":{"x":159151.25416000001,"y":2547441.476160001}},{"attributes":{"ID":121,"DIS_CODE":0,"TOWNNAME":"安南區","LI":"四草里","LIN":"3鄰","STREET":"大眾路","SECT":" ","MAREA":" ","LANE":" ","ALLEY":" ","HOUSE_NO":"４９８號","E_COORD97":160929.93348899999,"N_COORD97":2546569.5233,"ADDRESS":"大眾路４９８號","OBJECTID":121},"geometry":{"x":160929.93348900042,"y":2546569.523299003}},{"attributes":{"ID":122,"DIS_CODE":0,"TOWNNAME":"安南區","LI":"四草里","LIN":"10鄰","STREET":"大眾路","SECT":" ","MAREA":" ","LANE":" ","ALLEY":" ","HOUSE_NO":"６４３號","E_COORD97":160672.433323,"N_COORD97":2546415.6033100002,"ADDRESS":"大眾路６４３號","OBJECTID":122},"geometry":{"x":160672.43332300149,"y":2546415.6033110004}},{"attributes":{"ID":123,"DIS_CODE":0,"TOWNNAME":"安南區","LI":"四草里","LIN":"10鄰","STREET":"大眾路","SECT":" ","MAREA":" ","LANE":" ","ALLEY":" ","HOUSE_NO":"６４３號","E_COORD97":160672.433323,"N_COORD97":2546415.6033100002,"ADDRESS":"大眾路６４３號","OBJECTID":123},"geometry":{"x":160672.43332300149,"y":2546415.6033110004}},{"attributes":{"ID":124,"DIS_CODE":0,"TOWNNAME":"安南區","LI":"四草里","LIN":"10鄰","STREET":"大眾路","SECT":" ","MAREA":" ","LANE":" ","ALLEY":" ","HOUSE_NO":"６４１號","E_COORD97":160678.787071,"N_COORD97":2546415.17998,"ADDRESS":"大眾路６４１號","OBJECTID":124},"geometry":{"x":160678.78707100078,"y":2546415.1799780019}},{"attributes":{"ID":125,"DIS_CODE":0,"TOWNNAME":"安南區","LI":"四草里","LIN":"10鄰","STREET":"大眾路","SECT":" ","MAREA":" ","LANE":" ","ALLEY":" ","HOUSE_NO":"６３７號","E_COORD97":160694.03606700001,"N_COORD97":2546414.5449799998,"ADDRESS":"大眾路６３７號","OBJECTID":125},"geometry":{"x":160694.03606700059,"y":2546414.5449780021}},{"attributes":{"ID":126,"DIS_CODE":0,"TOWNNAME":"安南區","LI":"四草里","LIN":"10鄰","STREET":"大眾路","SECT":" ","MAREA":" ","LANE":" ","ALLEY":" ","HOUSE_NO":"６４５號","E_COORD97":160669.04465699999,"N_COORD97":2546409.2533100001,"ADDRESS":"大眾路６４５號","OBJECTID":126},"geometry":{"x":160669.04465700034,"y":2546409.2533150017}},{"attributes":{"ID":127,"DIS_CODE":0,"TOWNNAME":"安南區","LI":"四草里","LIN":"3鄰","STREET":"大眾路","SECT":" ","MAREA":" ","LANE":" ","ALLEY":" ","HOUSE_NO":"３５８號","E_COORD97":161407.40361400001,"N_COORD97":2546718.3698399998,"ADDRESS":"大眾路３５８號","OBJECTID":127},"geometry":{"x":161407.40361400135,"y":2546718.3698379993}},{"attributes":{"ID":128,"DIS_CODE":0,"TOWNNAME":"安南區","LI":"四草里","LIN":"3鄰","STREET":"大眾路","SECT":" ","MAREA":" ","LANE":" ","ALLEY":" ","HOUSE_NO":"３６０號","E_COORD97":161351.248892,"N_COORD97":2546749.56672,"ADDRESS":"大眾路３６０號","OBJECTID":128},"geometry":{"x":161351.24889200181,"y":2546749.5667209998}},{"attributes":{"ID":129,"DIS_CODE":0,"TOWNNAME":"安南區","LI":"四草里","LIN":"3鄰","STREET":"大眾路","SECT":" ","MAREA":" ","LANE":" ","ALLEY":" ","HOUSE_NO":"３６０之６號","E_COORD97":161252.97676699999,"N_COORD97":2546704.6934099998,"ADDRESS":"大眾路３６０之６號","OBJECTID":129},"geometry":{"x":161252.97676699981,"y":2546704.6934119985}},{"attributes":{"ID":130,"DIS_CODE":0,"TOWNNAME":"安南區","LI":"四草里","LIN":"3鄰","STREET":"大眾路","SECT":" ","MAREA":" ","LANE":" ","ALLEY":" ","HOUSE_NO":"３８７之２００號","E_COORD97":161309.01891700001,"N_COORD97":2546555.1674299999,"ADDRESS":"大眾路３８７之２００號","OBJECTID":130},"geometry":{"x":161309.01891700085,"y":2546555.1674340013}},{"attributes":{"ID":131,"DIS_CODE":0,"TOWNNAME":"安南區","LI":"四草里","LIN":"3鄰","STREET":"大眾路","SECT":" ","MAREA":" ","LANE":" ","ALLEY":" ","HOUSE_NO":"３８７之２３６號","E_COORD97":161323.208954,"N_COORD97":2546537.5991099998,"ADDRESS":"大眾路３８７之２３６號","OBJECTID":131},"geometry":{"x":161323.20895399991,"y":2546537.5991099998}},{"attributes":{"ID":132,"DIS_CODE":0,"TOWNNAME":"安南區","LI":"四草里","LIN":"3鄰","STREET":"大眾路","SECT":" ","MAREA":" ","LANE":" ","ALLEY":" ","HOUSE_NO":"３８７之２４６號","E_COORD97":161330.409869,"N_COORD97":2546514.1041199998,"ADDRESS":"大眾路３８７之２４６號","OBJECTID":132},"geometry":{"x":161330.40986900032,"y":2546514.1041230001}},{"attributes":{"ID":133,"DIS_CODE":0,"TOWNNAME":"安南區","LI":"四草里","LIN":"3鄰","STREET":"大眾路","SECT":" ","MAREA":" ","LANE":" ","ALLEY":" ","HOUSE_NO":"４９０號","E_COORD97":160948.904774,"N_COORD97":2546573.9149099998,"ADDRESS":"大眾路４９０號","OBJECTID":133},"geometry":{"x":160948.90477399994,"y":2546573.9149080012}},{"attributes":{"ID":134,"DIS_CODE":0,"TOWNNAME":"安南區","LI":"四草里","LIN":"9鄰","STREET":"北汕尾一路","SECT":" ","MAREA":" ","LANE":"３５１巷","ALLEY":" ","HOUSE_NO":"６６之６號","E_COORD97":160198.48868899999,"N_COORD97":2546240.1467200001,"ADDRESS":"北汕尾一路３５１巷６６之６號","OBJECTID":134},"geometry":{"x":160198.48868899979,"y":2546240.1467240024}},{"attributes":{"ID":135,"DIS_CODE":0,"TOWNNAME":"山上區","LI":"豐德里","LIN":"4鄰","STREET":" ","SECT":" ","MAREA":"隙子口","LANE":" ","ALLEY":" ","HOUSE_NO":"５８號之１","E_COORD97":184429.132037,"N_COORD97":2553489.8369800001,"ADDRESS":"隙子口５８號之１","OBJECTID":135},"geometry":{"x":184429.1320369998,"y":2553489.8369810022}},{"attributes":{"ID":136,"DIS_CODE":0,"TOWNNAME":"山上區","LI":"豐德里","LIN":"4鄰","STREET":" ","SECT":" ","MAREA":"隙子口","LANE":" ","ALLEY":" ","HOUSE_NO":"５８之２號","E_COORD97":184438.66547899999,"N_COORD97":2553462.1086599999,"ADDRESS":"隙子口５８之２號","OBJECTID":136},"geometry":{"x":184438.66547899973,"y":2553462.1086619999}},{"attributes":{"ID":137,"DIS_CODE":0,"TOWNNAME":"山上區","LI":"豐德里","LIN":"4鄰","STREET":" ","SECT":" ","MAREA":"隙子口","LANE":" ","ALLEY":" ","HOUSE_NO":"５８之３號","E_COORD97":184413.24296800001,"N_COORD97":2553445.1753400001,"ADDRESS":"隙子口５８之３號","OBJECTID":137},"geometry":{"x":184413.24296800047,"y":2553445.1753380001}},{"attributes":{"ID":138,"DIS_CODE":0,"TOWNNAME":"山上區","LI":"豐德里","LIN":"1鄰","STREET":" ","SECT":" ","MAREA":"隙子口","LANE":" ","ALLEY":" ","HOUSE_NO":"１號之６","E_COORD97":185271.04267,"N_COORD97":2553187.1530800001,"ADDRESS":"隙子口１號之６","OBJECTID":138},"geometry":{"x":185271.04267000034,"y":2553187.1530840006}},{"attributes":{"ID":139,"DIS_CODE":0,"TOWNNAME":"山上區","LI":"豐德里","LIN":"1鄰","STREET":" ","SECT":" ","MAREA":"隙子口","LANE":" ","ALLEY":" ","HOUSE_NO":"１號之７","E_COORD97":185251.86986000001,"N_COORD97":2553189.6930800001,"ADDRESS":"隙子口１號之７","OBJECTID":139},"geometry":{"x":185251.86986000184,"y":2553189.6930830013}},{"attributes":{"ID":140,"DIS_CODE":0,"TOWNNAME":"山上區","LI":"豐德里","LIN":"1鄰","STREET":" ","SECT":" ","MAREA":"隙子口","LANE":" ","ALLEY":" ","HOUSE_NO":"１號","E_COORD97":185253.670621,"N_COORD97":2553174.45309,"ADDRESS":"隙子口１號","OBJECTID":140},"geometry":{"x":185253.67062100023,"y":2553174.4530909993}},{"attributes":{"ID":141,"DIS_CODE":0,"TOWNNAME":"山上區","LI":"豐德里","LIN":"1鄰","STREET":" ","SECT":" ","MAREA":"隙子口","LANE":" ","ALLEY":" ","HOUSE_NO":"１之３號","E_COORD97":185285.130978,"N_COORD97":2553212.9764,"ADDRESS":"隙子口１之３號","OBJECTID":141},"geometry":{"x":185285.13097800128,"y":2553212.9764040001}},{"attributes":{"ID":142,"DIS_CODE":0,"TOWNNAME":"山上區","LI":"豐德里","LIN":"1鄰","STREET":" ","SECT":" ","MAREA":"隙子口","LANE":" ","ALLEY":" ","HOUSE_NO":"１號之４","E_COORD97":185305.36306,"N_COORD97":2553201.54641,"ADDRESS":"隙子口１號之４","OBJECTID":142},"geometry":{"x":185305.36306000035,"y":2553201.5464100018}},{"attributes":{"ID":143,"DIS_CODE":0,"TOWNNAME":"山上區","LI":"豐德里","LIN":"1鄰","STREET":" ","SECT":" ","MAREA":"隙子口","LANE":" ","ALLEY":" ","HOUSE_NO":"１號之５","E_COORD97":185273.478994,"N_COORD97":2553220.8080699998,"ADDRESS":"隙子口１號之５","OBJECTID":143},"geometry":{"x":185273.47899399884,"y":2553220.8080659993}},{"attributes":{"ID":144,"DIS_CODE":0,"TOWNNAME":"北區","LI":"仁愛里","LIN":"7鄰","STREET":"勝利路","SECT":" ","MAREA":" ","LANE":"１９０巷","ALLEY":" ","HOUSE_NO":"２８號之１","E_COORD97":170053.447614,"N_COORD97":2544961.3005300001,"ADDRESS":"勝利路１９０巷２８號之１","OBJECTID":144},"geometry":{"x":170053.44761400018,"y":2544961.3005270008}},{"attributes":{"ID":145,"DIS_CODE":0,"TOWNNAME":"北區","LI":"大山里","LIN":"11鄰","STREET":"精忠街","SECT":" ","MAREA":" ","LANE":"１１８巷","ALLEY":" ","HOUSE_NO":"７號","E_COORD97":169282.92783299999,"N_COORD97":2545564.38179,"ADDRESS":"精忠街１１８巷７號","OBJECTID":145},"geometry":{"x":169282.92783300113,"y":2545564.3817849997}},{"attributes":{"ID":146,"DIS_CODE":0,"TOWNNAME":"北區","LI":"勝安里","LIN":"1鄰","STREET":"開元路","SECT":" ","MAREA":" ","LANE":" ","ALLEY":" ","HOUSE_NO":"２７號","E_COORD97":169547.86804199999,"N_COORD97":2545127.9782699998,"ADDRESS":"開元路２７號","OBJECTID":146},"geometry":{"x":169547.86804199964,"y":2545127.9782709982}},{"attributes":{"ID":147,"DIS_CODE":0,"TOWNNAME":"北區","LI":"大山里","LIN":"7鄰","STREET":"和緯路","SECT":"一段","MAREA":" ","LANE":" ","ALLEY":" ","HOUSE_NO":"１６９號","E_COORD97":169347.196486,"N_COORD97":2545591.3163899998,"ADDRESS":"和緯路一段１６９號","OBJECTID":147},"geometry":{"x":169347.19648599997,"y":2545591.3163859993}},{"attributes":{"ID":148,"DIS_CODE":0,"TOWNNAME":"北區","LI":"大山里","LIN":"10鄰","STREET":"和緯路","SECT":"一段","MAREA":" ","LANE":" ","ALLEY":" ","HOUSE_NO":"１５７號","E_COORD97":169367.05950999999,"N_COORD97":2545581.7120099999,"ADDRESS":"和緯路一段１５７號","OBJECTID":148},"geometry":{"x":169367.05951000098,"y":2545581.7120100018}},{"attributes":{"ID":149,"DIS_CODE":0,"TOWNNAME":"北區","LI":"大山里","LIN":"10鄰","STREET":"和緯路","SECT":"一段","MAREA":" ","LANE":" ","ALLEY":" ","HOUSE_NO":"１６１號","E_COORD97":169360.06771999999,"N_COORD97":2545585.3103399999,"ADDRESS":"和緯路一段１６１號","OBJECTID":149},"geometry":{"x":169360.0677199997,"y":2545585.3103400003}},{"attributes":{"ID":150,"DIS_CODE":0,"TOWNNAME":"北區","LI":"大山里","LIN":"10鄰","STREET":"和緯路","SECT":"一段","MAREA":" ","LANE":" ","ALLEY":" ","HOUSE_NO":"１６３號","E_COORD97":169356.04214999999,"N_COORD97":2545586.79201,"ADDRESS":"和緯路一段１６３號","OBJECTID":150},"geometry":{"x":169356.04215000011,"y":2545586.79201}},{"attributes":{"ID":151,"DIS_CODE":0,"TOWNNAME":"北區","LI":"大山里","LIN":"10鄰","STREET":"和緯路","SECT":"一段","MAREA":" ","LANE":" ","ALLEY":" ","HOUSE_NO":"１６５號","E_COORD97":169352.86405999999,"N_COORD97":2545587.8503399999,"ADDRESS":"和緯路一段１６５號","OBJECTID":151},"geometry":{"x":169352.86406000052,"y":2545587.8503399994}},{"attributes":{"ID":152,"DIS_CODE":0,"TOWNNAME":"北區","LI":"大山里","LIN":"10鄰","STREET":"和緯路","SECT":"一段","MAREA":" ","LANE":" ","ALLEY":" ","HOUSE_NO":"１６７號","E_COORD97":169350.3216,"N_COORD97":2545589.54367,"ADDRESS":"和緯路一段１６７號","OBJECTID":152},"geometry":{"x":169350.32160000037,"y":2545589.5436700042}},{"attributes":{"ID":153,"DIS_CODE":0,"TOWNNAME":"北區","LI":"大山里","LIN":"4鄰","STREET":"和緯路","SECT":"一段","MAREA":" ","LANE":"１２９巷","ALLEY":" ","HOUSE_NO":"１９號","E_COORD97":169383.00289800001,"N_COORD97":2545568.4564,"ADDRESS":"和緯路一段１２９巷１９號","OBJECTID":153},"geometry":{"x":169383.00289800018,"y":2545568.4563979991}},{"attributes":{"ID":154,"DIS_CODE":0,"TOWNNAME":"北區","LI":"大山里","LIN":"4鄰","STREET":"和緯路","SECT":"一段","MAREA":" ","LANE":"１２９巷","ALLEY":" ","HOUSE_NO":"２７號","E_COORD97":169369.23120099999,"N_COORD97":2545573.4305599998,"ADDRESS":"和緯路一段１２９巷２７號","OBJECTID":154},"geometry":{"x":169369.23120100144,"y":2545573.4305620026}},{"attributes":{"ID":155,"DIS_CODE":0,"TOWNNAME":"北區","LI":"大山里","LIN":"4鄰","STREET":"和緯路","SECT":"一段","MAREA":" ","LANE":"１２９巷","ALLEY":" ","HOUSE_NO":"２９號","E_COORD97":169365.84124499999,"N_COORD97":2545574.7005599998,"ADDRESS":"和緯路一段１２９巷２９號","OBJECTID":155},"geometry":{"x":169365.84124500211,"y":2545574.7005620021}},{"attributes":{"ID":156,"DIS_CODE":0,"TOWNNAME":"北區","LI":"大山里","LIN":"3鄰","STREET":"和緯路","SECT":"一段","MAREA":" ","LANE":" ","ALLEY":" ","HOUSE_NO":"１１３號","E_COORD97":169443.38649100001,"N_COORD97":2545559.77807,"ADDRESS":"和緯路一段１１３號","OBJECTID":156},"geometry":{"x":169443.38649100065,"y":2545559.7780700028}},{"attributes":{"ID":157,"DIS_CODE":0,"TOWNNAME":"北區","LI":"大山里","LIN":"3鄰","STREET":"和緯路","SECT":"一段","MAREA":" ","LANE":" ","ALLEY":" ","HOUSE_NO":"１０３號","E_COORD97":169459.065038,"N_COORD97":2545555.3330700002,"ADDRESS":"和緯路一段１０３號","OBJECTID":157},"geometry":{"x":169459.06503800023,"y":2545555.3330719993}},{"attributes":{"ID":158,"DIS_CODE":0,"TOWNNAME":"北區","LI":"大山里","LIN":"3鄰","STREET":"和緯路","SECT":"一段","MAREA":" ","LANE":" ","ALLEY":" ","HOUSE_NO":"１０１號","E_COORD97":169462.24312200001,"N_COORD97":2545554.6980699999,"ADDRESS":"和緯路一段１０１號","OBJECTID":158},"geometry":{"x":169462.24312200025,"y":2545554.6980719995}},{"attributes":{"ID":159,"DIS_CODE":0,"TOWNNAME":"北區","LI":"大山里","LIN":"3鄰","STREET":"和緯路","SECT":"一段","MAREA":" ","LANE":" ","ALLEY":" ","HOUSE_NO":"１１５號","E_COORD97":169439.99653500001,"N_COORD97":2545560.30724,"ADDRESS":"和緯路一段１１５號","OBJECTID":159},"geometry":{"x":169439.99653500132,"y":2545560.3072360009}},{"attributes":{"ID":160,"DIS_CODE":0,"TOWNNAME":"北區","LI":"大山里","LIN":"3鄰","STREET":"和緯路","SECT":"一段","MAREA":" ","LANE":" ","ALLEY":" ","HOUSE_NO":"１１７號","E_COORD97":169435.54721799999,"N_COORD97":2545559.6722400002,"ADDRESS":"和緯路一段１１７號","OBJECTID":160},"geometry":{"x":169435.54721799958,"y":2545559.6722360011}},{"attributes":{"ID":161,"DIS_CODE":0,"TOWNNAME":"北區","LI":"大山里","LIN":"3鄰","STREET":"和緯路","SECT":"一段","MAREA":" ","LANE":" ","ALLEY":" ","HOUSE_NO":"１２３號","E_COORD97":159054.65403899999,"N_COORD97":2544722.5310200001,"ADDRESS":"和緯路一段１２３號","OBJECTID":161},"geometry":{"x":159054.65403900109,"y":2544722.5310220029}},{"attributes":{"ID":162,"DIS_CODE":0,"TOWNNAME":"北區","LI":"大山里","LIN":"3鄰","STREET":"和緯路","SECT":"一段","MAREA":" ","LANE":" ","ALLEY":" ","HOUSE_NO":"１２３號","E_COORD97":169429.82666699999,"N_COORD97":2545560.30724,"ADDRESS":"和緯路一段１２３號","OBJECTID":162},"geometry":{"x":169429.82666700147,"y":2545560.3072360009}},{"attributes":{"ID":163,"DIS_CODE":0,"TOWNNAME":"北區","LI":"大山里","LIN":"3鄰","STREET":"和緯路","SECT":"一段","MAREA":" ","LANE":" ","ALLEY":" ","HOUSE_NO":"１２５號","E_COORD97":169425.37734899999,"N_COORD97":2545560.0955699999,"ADDRESS":"和緯路一段１２５號","OBJECTID":163},"geometry":{"x":169425.37734900042,"y":2545560.0955689996}},{"attributes":{"ID":164,"DIS_CODE":0,"TOWNNAME":"安南區","LI":"安西里","LIN":"18鄰","STREET":"安通路","SECT":"五段","MAREA":" ","LANE":" ","ALLEY":" ","HOUSE_NO":"８１號之１００","E_COORD97":168440.78734099999,"N_COORD97":2547784.10023,"ADDRESS":"安通路五段８１號之１００","OBJECTID":164},"geometry":{"x":168440.78734099958,"y":2547784.1002290044}},{"attributes":{"ID":165,"DIS_CODE":0,"TOWNNAME":"安南區","LI":"安西里","LIN":"18鄰","STREET":"安通路","SECT":"五段","MAREA":" ","LANE":" ","ALLEY":" ","HOUSE_NO":"８１號之１０２","E_COORD97":168432.52030500001,"N_COORD97":2547783.4652300002,"ADDRESS":"安通路五段８１號之１０２","OBJECTID":165},"geometry":{"x":168432.52030500025,"y":2547783.4652290046}},{"attributes":{"ID":166,"DIS_CODE":0,"TOWNNAME":"安南區","LI":"安西里","LIN":"18鄰","STREET":"安通路","SECT":"五段","MAREA":" ","LANE":" ","ALLEY":" ","HOUSE_NO":"８１之８９號","E_COORD97":168435.27598400001,"N_COORD97":2547830.2435400002,"ADDRESS":"安通路五段８１之８９號","OBJECTID":166},"geometry":{"x":168435.27598400135,"y":2547830.2435369994}},{"attributes":{"ID":167,"DIS_CODE":0,"TOWNNAME":"安南區","LI":"安西里","LIN":"18鄰","STREET":"安通路","SECT":"五段","MAREA":" ","LANE":" ","ALLEY":" ","HOUSE_NO":"８１之９０號","E_COORD97":168430.61252699999,"N_COORD97":2547830.0318700001,"ADDRESS":"安通路五段８１之９０號","OBJECTID":167},"geometry":{"x":168430.61252699979,"y":2547830.0318710022}},{"attributes":{"ID":168,"DIS_CODE":0,"TOWNNAME":"安南區","LI":"安西里","LIN":"18鄰","STREET":"安通路","SECT":"五段","MAREA":" ","LANE":" ","ALLEY":" ","HOUSE_NO":"８１之９１號","E_COORD97":168426.584997,"N_COORD97":2547830.0318700001,"ADDRESS":"安通路五段８１之９１號","OBJECTID":168},"geometry":{"x":168426.5849970011,"y":2547830.0318710022}},{"attributes":{"ID":169,"DIS_CODE":0,"TOWNNAME":"安南區","LI":"安西里","LIN":"18鄰","STREET":"安通路","SECT":"五段","MAREA":" ","LANE":" ","ALLEY":" ","HOUSE_NO":"８１之９２號","E_COORD97":168422.133516,"N_COORD97":2547828.9735400002,"ADDRESS":"安通路五段８１之９２號","OBJECTID":169},"geometry":{"x":168422.13351600058,"y":2547828.9735380039}},{"attributes":{"ID":170,"DIS_CODE":0,"TOWNNAME":"安南區","LI":"安西里","LIN":"18鄰","STREET":"安通路","SECT":"五段","MAREA":" ","LANE":" ","ALLEY":" ","HOUSE_NO":"８１之９３號","E_COORD97":168417.894011,"N_COORD97":2547828.9735400002,"ADDRESS":"安通路五段８１之９３號","OBJECTID":170},"geometry":{"x":168417.89401100017,"y":2547828.9735380039}},{"attributes":{"ID":171,"DIS_CODE":0,"TOWNNAME":"安南區","LI":"安西里","LIN":"18鄰","STREET":"安通路","SECT":"五段","MAREA":" ","LANE":" ","ALLEY":" ","HOUSE_NO":"８１之９４號","E_COORD97":168414.290431,"N_COORD97":2547828.55021,"ADDRESS":"安通路五段８１之９４號","OBJECTID":171},"geometry":{"x":168414.29043100029,"y":2547828.5502049997}},{"attributes":{"ID":172,"DIS_CODE":0,"TOWNNAME":"安南區","LI":"安西里","LIN":"18鄰","STREET":"安通路","SECT":"五段","MAREA":" ","LANE":" ","ALLEY":" ","HOUSE_NO":"８１之９５號","E_COORD97":168410.47487599999,"N_COORD97":2547828.3385399999,"ADDRESS":"安通路五段８１之９５號","OBJECTID":172},"geometry":{"x":168410.47487599868,"y":2547828.3385379985}},{"attributes":{"ID":173,"DIS_CODE":0,"TOWNNAME":"安南區","LI":"安西里","LIN":"18鄰","STREET":"安通路","SECT":"五段","MAREA":" ","LANE":" ","ALLEY":" ","HOUSE_NO":"８１之９６號","E_COORD97":168406.447346,"N_COORD97":2547828.1268699998,"ADDRESS":"安通路五段８１之９６號","OBJECTID":173},"geometry":{"x":168406.447346,"y":2547828.1268720012}},{"attributes":{"ID":174,"DIS_CODE":0,"TOWNNAME":"安南區","LI":"安西里","LIN":"18鄰","STREET":"安通路","SECT":"五段","MAREA":" ","LANE":" ","ALLEY":" ","HOUSE_NO":"８１之９７號","E_COORD97":168402.84376600001,"N_COORD97":2547828.1268699998,"ADDRESS":"安通路五段８１之９７號","OBJECTID":174},"geometry":{"x":168402.84376600105,"y":2547828.1268720012}},{"attributes":{"ID":175,"DIS_CODE":0,"TOWNNAME":"安南區","LI":"安西里","LIN":"18鄰","STREET":"安通路","SECT":"五段","MAREA":" ","LANE":" ","ALLEY":" ","HOUSE_NO":"８１之９８號","E_COORD97":168398.604261,"N_COORD97":2547827.49187,"ADDRESS":"安通路五段８１之９８號","OBJECTID":175},"geometry":{"x":168398.60426099971,"y":2547827.4918720014}},{"attributes":{"ID":176,"DIS_CODE":0,"TOWNNAME":"安南區","LI":"安西里","LIN":"18鄰","STREET":"安通路","SECT":"五段","MAREA":" ","LANE":" ","ALLEY":" ","HOUSE_NO":"８１之９９號","E_COORD97":168393.304879,"N_COORD97":2547826.4335400001,"ADDRESS":"安通路五段８１之９９號","OBJECTID":176},"geometry":{"x":168393.30487900134,"y":2547826.4335389994}},{"attributes":{"ID":177,"DIS_CODE":0,"TOWNNAME":"安南區","LI":"安西里","LIN":"6鄰","STREET":"安和路","SECT":"一段","MAREA":" ","LANE":"２８５巷","ALLEY":" ","HOUSE_NO":"９０之２號","E_COORD97":169000.82602099999,"N_COORD97":2548035.1367600001,"ADDRESS":"安和路一段２８５巷９０之２號","OBJECTID":177},"geometry":{"x":169000.82602099981,"y":2548035.136760002}},{"attributes":{"ID":178,"DIS_CODE":0,"TOWNNAME":"安南區","LI":"安西里","LIN":"6鄰","STREET":"安和路","SECT":"一段","MAREA":" ","LANE":"２８５巷","ALLEY":" ","HOUSE_NO":"９０之３號","E_COORD97":168997.01046600001,"N_COORD97":2548034.71343,"ADDRESS":"安和路一段２８５巷９０之３號","OBJECTID":178},"geometry":{"x":168997.010466001,"y":2548034.7134269997}},{"attributes":{"ID":179,"DIS_CODE":0,"TOWNNAME":"安南區","LI":"鹿耳里","LIN":"8鄰","STREET":"本田路","SECT":"一段","MAREA":" ","LANE":" ","ALLEY":" ","HOUSE_NO":"１５０號","E_COORD97":160824.19713099999,"N_COORD97":2547817.7271400001,"ADDRESS":"本田路一段１５０號","OBJECTID":179},"geometry":{"x":160824.19713100139,"y":2547817.7271439992}},{"attributes":{"ID":180,"DIS_CODE":0,"TOWNNAME":"安南區","LI":"鹿耳里","LIN":"8鄰","STREET":"本田路","SECT":"一段","MAREA":" ","LANE":" ","ALLEY":" ","HOUSE_NO":"１５０之３８號","E_COORD97":160807.875035,"N_COORD97":2547803.75715,"ADDRESS":"本田路一段１５０之３８號","OBJECTID":180},"geometry":{"x":160807.87503500003,"y":2547803.7571520023}},{"attributes":{"ID":181,"DIS_CODE":0,"TOWNNAME":"山上區","LI":"豐德里","LIN":"1鄰","STREET":" ","SECT":" ","MAREA":"隙子口","LANE":" ","ALLEY":" ","HOUSE_NO":"３號","E_COORD97":185256.530654,"N_COORD97":2553137.8347800002,"ADDRESS":"隙子口３號","OBJECTID":181},"geometry":{"x":185256.53065400012,"y":2553137.8347780015}},{"attributes":{"ID":182,"DIS_CODE":0,"TOWNNAME":"安南區","LI":"四草里","LIN":"3鄰","STREET":"大眾路","SECT":" ","MAREA":" ","LANE":" ","ALLEY":" ","HOUSE_NO":"４８８號","E_COORD97":160955.47031400001,"N_COORD97":2546574.9732400002,"ADDRESS":"大眾路４８８號","OBJECTID":182},"geometry":{"x":160955.47031400073,"y":2546574.9732409995}},{"attributes":{"ID":183,"DIS_CODE":0,"TOWNNAME":"山上區","LI":"豐德里","LIN":"4鄰","STREET":" ","SECT":" ","MAREA":"隙子口","LANE":" ","ALLEY":" ","HOUSE_NO":"５８號","E_COORD97":184452.330078,"N_COORD97":2553545.7169499998,"ADDRESS":"隙子口５８號","OBJECTID":183},"geometry":{"x":184452.33007800207,"y":2553545.7169510014}},{"attributes":{"ID":184,"DIS_CODE":0,"TOWNNAME":"安南區","LI":"四草里","LIN":"9鄰","STREET":"北汕尾一路","SECT":" ","MAREA":" ","LANE":"３５１巷","ALLEY":" ","HOUSE_NO":"６６之１２號","E_COORD97":160226.656973,"N_COORD97":2546228.5050599999,"ADDRESS":"北汕尾一路３５１巷６６之１２號","OBJECTID":184},"geometry":{"x":160226.65697300062,"y":2546228.5050630029}},{"attributes":{"ID":185,"DIS_CODE":0,"TOWNNAME":"安南區","LI":"鹿耳里","LIN":"1鄰","STREET":"北汕尾二路","SECT":" ","MAREA":" ","LANE":"８００巷","ALLEY":"９弄","HOUSE_NO":"６５之１號","E_COORD97":160754.24528999999,"N_COORD97":2548657.1966900001,"ADDRESS":"北汕尾二路８００巷９弄６５之１號","OBJECTID":185},"geometry":{"x":160754.24528999999,"y":2548657.1966910008}},{"attributes":{"ID":186,"DIS_CODE":0,"TOWNNAME":"安南區","LI":"鹿耳里","LIN":"3鄰","STREET":"北汕尾二路","SECT":" ","MAREA":" ","LANE":"６６１巷","ALLEY":"２３弄","HOUSE_NO":"１２號","E_COORD97":160389.223864,"N_COORD97":2548569.9900699998,"ADDRESS":"北汕尾二路６６１巷２３弄１２號","OBJECTID":186},"geometry":{"x":160389.22386400122,"y":2548569.9900710005}},{"attributes":{"ID":187,"DIS_CODE":0,"TOWNNAME":"安南區","LI":"鹿耳里","LIN":"4鄰","STREET":"北汕尾二路","SECT":" ","MAREA":" ","LANE":"６６１巷","ALLEY":"２３弄","HOUSE_NO":"５２號","E_COORD97":160274.92585999999,"N_COORD97":2548565.4047400001,"ADDRESS":"北汕尾二路６６１巷２３弄５２號","OBJECTID":187},"geometry":{"x":160274.92585999984,"y":2548565.4047400001}},{"attributes":{"ID":188,"DIS_CODE":0,"TOWNNAME":"安南區","LI":"鹿耳里","LIN":"5鄰","STREET":"北汕尾二路","SECT":" ","MAREA":" ","LANE":"６６１巷","ALLEY":"１９弄","HOUSE_NO":"１０號","E_COORD97":160395.115842,"N_COORD97":2548539.6094900002,"ADDRESS":"北汕尾二路６６１巷１９弄１０號","OBJECTID":188},"geometry":{"x":160395.11584200058,"y":2548539.6094879992}},{"attributes":{"ID":189,"DIS_CODE":0,"TOWNNAME":"安南區","LI":"鹿耳里","LIN":"5鄰","STREET":"北汕尾二路","SECT":" ","MAREA":" ","LANE":"６６１巷","ALLEY":"１９弄","HOUSE_NO":"１２號","E_COORD97":160391.08831200001,"N_COORD97":2548540.0328199998,"ADDRESS":"北汕尾二路６６１巷１９弄１２號","OBJECTID":189},"geometry":{"x":160391.08831200097,"y":2548540.0328210015}},{"attributes":{"ID":190,"DIS_CODE":0,"TOWNNAME":"安南區","LI":"鹿耳里","LIN":"5鄰","STREET":"北汕尾二路","SECT":" ","MAREA":" ","LANE":"６６１巷","ALLEY":"１９弄","HOUSE_NO":"１４號","E_COORD97":160387.48473200001,"N_COORD97":2548539.8211500002,"ADDRESS":"北汕尾二路６６１巷１９弄１４號","OBJECTID":190},"geometry":{"x":160387.48473200202,"y":2548539.8211540002}},{"attributes":{"ID":191,"DIS_CODE":0,"TOWNNAME":"安南區","LI":"鹿耳里","LIN":"5鄰","STREET":"北汕尾二路","SECT":" ","MAREA":" ","LANE":"６６１巷","ALLEY":"１９弄","HOUSE_NO":"１８號","E_COORD97":160378.36979500001,"N_COORD97":2548540.8794900002,"ADDRESS":"北汕尾二路６６１巷１９弄１８號","OBJECTID":191},"geometry":{"x":160378.36979499925,"y":2548540.8794870041}},{"attributes":{"ID":192,"DIS_CODE":0,"TOWNNAME":"安南區","LI":"鹿耳里","LIN":"5鄰","STREET":"北汕尾二路","SECT":" ","MAREA":" ","LANE":"６６１巷","ALLEY":"１９弄","HOUSE_NO":"２０號","E_COORD97":160372.858438,"N_COORD97":2548541.72615,"ADDRESS":"北汕尾二路６６１巷１９弄２０號","OBJECTID":192},"geometry":{"x":160372.85843800101,"y":2548541.7261530012}},{"attributes":{"ID":193,"DIS_CODE":0,"TOWNNAME":"安南區","LI":"鹿耳里","LIN":"5鄰","STREET":"北汕尾二路","SECT":" ","MAREA":" ","LANE":"６６１巷","ALLEY":"１９弄","HOUSE_NO":"２２號","E_COORD97":160366.28720399999,"N_COORD97":2548540.45615,"ADDRESS":"北汕尾二路６６１巷１９弄２２號","OBJECTID":193},"geometry":{"x":160366.2872040011,"y":2548540.456154}},{"attributes":{"ID":194,"DIS_CODE":0,"TOWNNAME":"安南區","LI":"鹿耳里","LIN":"5鄰","STREET":"北汕尾二路","SECT":" ","MAREA":" ","LANE":"６６１巷","ALLEY":"１９弄","HOUSE_NO":"２４號","E_COORD97":160359.29201999999,"N_COORD97":2548539.3978200001,"ADDRESS":"北汕尾二路６６１巷１９弄２４號","OBJECTID":194},"geometry":{"x":160359.29201999959,"y":2548539.3978210017}},{"attributes":{"ID":195,"DIS_CODE":0,"TOWNNAME":"安南區","LI":"四草里","LIN":"10鄰","STREET":"北汕尾一路","SECT":" ","MAREA":" ","LANE":"４３９巷","ALLEY":" ","HOUSE_NO":"８２號","E_COORD97":159853.93373300001,"N_COORD97":2546283.00171,"ADDRESS":"北汕尾一路４３９巷８２號","OBJECTID":195},"geometry":{"x":159853.93373300042,"y":2546283.0017080009}},{"attributes":{"ID":196,"DIS_CODE":0,"TOWNNAME":"安南區","LI":"四草里","LIN":"10鄰","STREET":"北汕尾一路","SECT":" ","MAREA":" ","LANE":"４３９巷","ALLEY":" ","HOUSE_NO":"６８號","E_COORD97":159888.032182,"N_COORD97":2546372.9599899999,"ADDRESS":"北汕尾一路４３９巷６８號","OBJECTID":196},"geometry":{"x":159888.03218199965,"y":2546372.9599930029}},{"attributes":{"ID":197,"DIS_CODE":0,"TOWNNAME":"安南區","LI":"四草里","LIN":"10鄰","STREET":"北汕尾一路","SECT":" ","MAREA":" ","LANE":"４３９巷","ALLEY":" ","HOUSE_NO":"７號","E_COORD97":160030.56793200001,"N_COORD97":2546517.4224100001,"ADDRESS":"北汕尾一路４３９巷７號","OBJECTID":197},"geometry":{"x":160030.56793200132,"y":2546517.4224150032}},{"attributes":{"ID":198,"DIS_CODE":0,"TOWNNAME":"安南區","LI":"四草里","LIN":"10鄰","STREET":"北汕尾一路","SECT":" ","MAREA":" ","LANE":"４３９巷","ALLEY":"９弄","HOUSE_NO":"２之１號","E_COORD97":160016.68808600001,"N_COORD97":2546506.4007700002,"ADDRESS":"北汕尾一路４３９巷９弄２之１號","OBJECTID":198},"geometry":{"x":160016.68808600213,"y":2546506.400770003}},{"attributes":{"ID":199,"DIS_CODE":0,"TOWNNAME":"安南區","LI":"四草里","LIN":"10鄰","STREET":"北汕尾一路","SECT":" ","MAREA":" ","LANE":"４３９巷","ALLEY":" ","HOUSE_NO":"１８之１號","E_COORD97":160009.161987,"N_COORD97":2546542.4899200001,"ADDRESS":"北汕尾一路４３９巷１８之１號","OBJECTID":199},"geometry":{"x":160009.16198700015,"y":2546542.4899170008}},{"attributes":{"ID":200,"DIS_CODE":0,"TOWNNAME":"安南區","LI":"四草里","LIN":"10鄰","STREET":"北汕尾一路","SECT":" ","MAREA":" ","LANE":"４３９巷","ALLEY":"９弄","HOUSE_NO":"７號","E_COORD97":160037.54206199999,"N_COORD97":2546491.9016100001,"ADDRESS":"北汕尾一路４３９巷９弄７號","OBJECTID":200},"geometry":{"x":160037.5420620013,"y":2546491.9016110003}}]}