{"displayFieldName":"TOWNNAME","fieldAliases":{"ID":"ID","DIS_CODE":"DIS_CODE","TOWNNAME":"TOWNNAME","LI":"LI","LIN":"LIN","STREET":"STREET","SECT":"SECT","MAREA":"MAREA","LANE":"LANE","ALLEY":"ALLEY","HOUSE_NO":"HOUSE_NO","E_COORD97":"E_COORD97","N_COORD97":"N_COORD97","ADDRESS":"ADDRESS","OBJECTID":"OBJECTID"},"geometryType":"esriGeometryPoint","spatialReference":{"wkid":102443,"latestWkid":3826},"fields":[{"name":"ID","type":"esriFieldTypeDouble","alias":"ID"},{"name":"DIS_CODE","type":"esriFieldTypeInteger","alias":"DIS_CODE"},{"name":"TOWNNAME","type":"esriFieldTypeString","alias":"TOWNNAME","length":8},{"name":"LI","type":"esriFieldTypeString","alias":"LI","length":8},{"name":"LIN","type":"esriFieldTypeString","alias":"LIN","length":12},{"name":"STREET","type":"esriFieldTypeString","alias":"STREET","length":20},{"name":"SECT","type":"esriFieldTypeString","alias":"SECT","length":8},{"name":"MAREA","type":"esriFieldTypeString","alias":"MAREA","length":12},{"name":"LANE","type":"esriFieldTypeString","alias":"LANE","length":10},{"name":"ALLEY","type":"esriFieldTypeString","alias":"ALLEY","length":10},{"name":"HOUSE_NO","type":"esriFieldTypeString","alias":"HOUSE_NO","length":20},{"name":"E_COORD97","type":"esriFieldTypeDouble","alias":"E_COORD97"},{"name":"N_COORD97","type":"esriFieldTypeDouble","alias":"N_COORD97"},{"name":"ADDRESS","type":"esriFieldTypeString","alias":"ADDRESS","length":50},{"name":"OBJECTID","type":"esriFieldTypeOID","alias":"OBJECTID"}],"features":[{"attributes":{"ID":359811,"DIS_CODE":0,"TOWNNAME":"東區","LI":"路東里","LIN":"8鄰","STREET":"大同路","SECT":"二段","MAREA":" ","LANE":" ","ALLEY":" ","HOUSE_NO":"５１號六樓之１","E_COORD97":169295.47,"N_COORD97":2542277.52,"ADDRESS":"大同路二段５１號六樓之１","OBJECTID":359801},"geometry":{"x":169295.47000000067,"y":2542277.5200000033}},{"attributes":{"ID":359812,"DIS_CODE":0,"TOWNNAME":"東區","LI":"路東里","LIN":"8鄰","STREET":"大同路","SECT":"二段","MAREA":" ","LANE":" ","ALLEY":" ","HOUSE_NO":"５１號四樓","E_COORD97":169295.47,"N_COORD97":2542277.52,"ADDRESS":"大同路二段５１號四樓","OBJECTID":359802},"geometry":{"x":169295.47000000067,"y":2542277.5200000033}},{"attributes":{"ID":359813,"DIS_CODE":0,"TOWNNAME":"東區","LI":"路東里","LIN":"8鄰","STREET":"大同路","SECT":"二段","MAREA":" ","LANE":" ","ALLEY":" ","HOUSE_NO":"５１號四樓之１","E_COORD97":169295.47,"N_COORD97":2542277.52,"ADDRESS":"大同路二段５１號四樓之１","OBJECTID":359803},"geometry":{"x":169295.47000000067,"y":2542277.5200000033}},{"attributes":{"ID":359814,"DIS_CODE":0,"TOWNNAME":"新營區","LI":"大宏里","LIN":"8鄰","STREET":"文昌街","SECT":" ","MAREA":" ","LANE":" ","ALLEY":" ","HOUSE_NO":"１６號四樓之２","E_COORD97":180442.67000000001,"N_COORD97":2578413.4500000002,"ADDRESS":"文昌街１６號四樓之２","OBJECTID":359804},"geometry":{"x":180442.66999999993,"y":2578413.4500000011}},{"attributes":{"ID":359815,"DIS_CODE":0,"TOWNNAME":"南區","LI":"新興里","LIN":"8鄰","STREET":"健康路","SECT":"二段","MAREA":" ","LANE":" ","ALLEY":" ","HOUSE_NO":"５９號三樓","E_COORD97":167566.14000000001,"N_COORD97":2542439.8599999999,"ADDRESS":"健康路二段５９號三樓","OBJECTID":359805},"geometry":{"x":167566.14000000153,"y":2542439.8599999994}},{"attributes":{"ID":359816,"DIS_CODE":0,"TOWNNAME":"永康區","LI":"永康里","LIN":"25鄰","STREET":"埔聖街","SECT":" ","MAREA":" ","LANE":"８７巷","ALLEY":" ","HOUSE_NO":"２５號","E_COORD97":174124.72,"N_COORD97":2547671.2400000002,"ADDRESS":"埔聖街８７巷２５號","OBJECTID":359806},"geometry":{"x":174124.72000000067,"y":2547671.2400000021}},{"attributes":{"ID":359817,"DIS_CODE":0,"TOWNNAME":"永康區","LI":"永康里","LIN":"25鄰","STREET":"埔聖街","SECT":" ","MAREA":" ","LANE":"８７巷","ALLEY":" ","HOUSE_NO":"２７號","E_COORD97":174121.32000000001,"N_COORD97":2547675.98,"ADDRESS":"埔聖街８７巷２７號","OBJECTID":359807},"geometry":{"x":174121.32000000123,"y":2547675.9800000004}},{"attributes":{"ID":359818,"DIS_CODE":0,"TOWNNAME":"永康區","LI":"永康里","LIN":"25鄰","STREET":"埔聖街","SECT":" ","MAREA":" ","LANE":"８７巷","ALLEY":" ","HOUSE_NO":"２９號","E_COORD97":174118.28,"N_COORD97":2547681.5699999998,"ADDRESS":"埔聖街８７巷２９號","OBJECTID":359808},"geometry":{"x":174118.28000000119,"y":2547681.5700000003}},{"attributes":{"ID":359819,"DIS_CODE":0,"TOWNNAME":"永康區","LI":"永康里","LIN":"25鄰","STREET":"埔聖街","SECT":" ","MAREA":" ","LANE":"８７巷","ALLEY":" ","HOUSE_NO":"３１號","E_COORD97":174115.48000000001,"N_COORD97":2547686.9199999999,"ADDRESS":"埔聖街８７巷３１號","OBJECTID":359809},"geometry":{"x":174115.48000000138,"y":2547686.9200000018}},{"attributes":{"ID":359820,"DIS_CODE":0,"TOWNNAME":"永康區","LI":"永康里","LIN":"25鄰","STREET":"埔聖街","SECT":" ","MAREA":" ","LANE":"８７巷","ALLEY":" ","HOUSE_NO":"３３號","E_COORD97":174112.81,"N_COORD97":2547691.4199999999,"ADDRESS":"埔聖街８７巷３３號","OBJECTID":359810},"geometry":{"x":174112.80999999959,"y":2547691.4199999999}},{"attributes":{"ID":359821,"DIS_CODE":0,"TOWNNAME":"永康區","LI":"永康里","LIN":"25鄰","STREET":"埔聖街","SECT":" ","MAREA":" ","LANE":"８７巷","ALLEY":" ","HOUSE_NO":"３５號","E_COORD97":174110.13,"N_COORD97":2547696.8799999999,"ADDRESS":"埔聖街８７巷３５號","OBJECTID":359811},"geometry":{"x":174110.13000000082,"y":2547696.8800000008}},{"attributes":{"ID":359822,"DIS_CODE":0,"TOWNNAME":"永康區","LI":"永康里","LIN":"25鄰","STREET":"埔聖街","SECT":" ","MAREA":" ","LANE":"８７巷","ALLEY":" ","HOUSE_NO":"３７號","E_COORD97":174107.09,"N_COORD97":2547702.23,"ADDRESS":"埔聖街８７巷３７號","OBJECTID":359812},"geometry":{"x":174107.09000000078,"y":2547702.2300000023}},{"attributes":{"ID":359823,"DIS_CODE":0,"TOWNNAME":"永康區","LI":"永康里","LIN":"25鄰","STREET":"埔聖街","SECT":" ","MAREA":" ","LANE":"８７巷","ALLEY":" ","HOUSE_NO":"３９號","E_COORD97":174103.56,"N_COORD97":2547707.46,"ADDRESS":"埔聖街８７巷３９號","OBJECTID":359813},"geometry":{"x":174103.56000000052,"y":2547707.4600000046}},{"attributes":{"ID":359824,"DIS_CODE":0,"TOWNNAME":"南區","LI":"金華里","LIN":"18鄰","STREET":"惠南街","SECT":" ","MAREA":" ","LANE":" ","ALLEY":" ","HOUSE_NO":"８０號","E_COORD97":166769.66,"N_COORD97":2542283.4900000002,"ADDRESS":"惠南街８０號","OBJECTID":359814},"geometry":{"x":166769.65999999922,"y":2542283.4900000021}},{"attributes":{"ID":359825,"DIS_CODE":0,"TOWNNAME":"永康區","LI":"永康里","LIN":"25鄰","STREET":"埔聖街","SECT":" ","MAREA":" ","LANE":"８７巷","ALLEY":" ","HOUSE_NO":"４１號","E_COORD97":174101.25,"N_COORD97":2547712.3199999998,"ADDRESS":"埔聖街８７巷４１號","OBJECTID":359815},"geometry":{"x":174101.25000000093,"y":2547712.3200000022}},{"attributes":{"ID":359826,"DIS_CODE":0,"TOWNNAME":"永康區","LI":"中興里","LIN":"19鄰","STREET":"中山東路","SECT":" ","MAREA":" ","LANE":"３６６巷","ALLEY":" ","HOUSE_NO":"７號","E_COORD97":171860.94,"N_COORD97":2545286.2400000002,"ADDRESS":"中山東路３６６巷７號","OBJECTID":359816},"geometry":{"x":171860.94000000134,"y":2545286.2400000002}},{"attributes":{"ID":359827,"DIS_CODE":0,"TOWNNAME":"永康區","LI":"大橋里","LIN":"19鄰","STREET":"大橋一街","SECT":" ","MAREA":" ","LANE":"１３９巷","ALLEY":" ","HOUSE_NO":"４０號","E_COORD97":170991.13,"N_COORD97":2546614.3399999999,"ADDRESS":"大橋一街１３９巷４０號","OBJECTID":359817},"geometry":{"x":170991.13000000082,"y":2546614.3399999999}},{"attributes":{"ID":359828,"DIS_CODE":0,"TOWNNAME":"永康區","LI":"中興里","LIN":"19鄰","STREET":"中山東路","SECT":" ","MAREA":" ","LANE":"３５０巷","ALLEY":" ","HOUSE_NO":"７號","E_COORD97":171855.51999999999,"N_COORD97":2545345.2400000002,"ADDRESS":"中山東路３５０巷７號","OBJECTID":359818},"geometry":{"x":171855.51999999955,"y":2545345.2400000039}},{"attributes":{"ID":359829,"DIS_CODE":0,"TOWNNAME":"永康區","LI":"大橋里","LIN":"19鄰","STREET":"大橋一街","SECT":" ","MAREA":" ","LANE":"１３９巷","ALLEY":" ","HOUSE_NO":"３４號","E_COORD97":170998.78,"N_COORD97":2546602.8300000001,"ADDRESS":"大橋一街１３９巷３４號","OBJECTID":359819},"geometry":{"x":170998.78000000119,"y":2546602.8300000019}},{"attributes":{"ID":359830,"DIS_CODE":0,"TOWNNAME":"永康區","LI":"勝利里","LIN":"19鄰","STREET":"勝利街","SECT":" ","MAREA":" ","LANE":"１９７巷","ALLEY":" ","HOUSE_NO":"２０號","E_COORD97":171282.85000000001,"N_COORD97":2545138.5,"ADDRESS":"勝利街１９７巷２０號","OBJECTID":359820},"geometry":{"x":171282.85000000056,"y":2545138.5}},{"attributes":{"ID":359831,"DIS_CODE":0,"TOWNNAME":"新市區","LI":"新市里","LIN":"19鄰","STREET":"和平街","SECT":" ","MAREA":" ","LANE":"４５巷","ALLEY":" ","HOUSE_NO":"１９號","E_COORD97":177704.89999999999,"N_COORD97":2553382.25,"ADDRESS":"和平街４５巷１９號","OBJECTID":359821},"geometry":{"x":177704.90000000037,"y":2553382.25}},{"attributes":{"ID":359832,"DIS_CODE":0,"TOWNNAME":"新市區","LI":"新市里","LIN":"19鄰","STREET":"和平街","SECT":" ","MAREA":" ","LANE":"４５巷","ALLEY":" ","HOUSE_NO":"９號","E_COORD97":177697.45000000001,"N_COORD97":2553402.25,"ADDRESS":"和平街４５巷９號","OBJECTID":359822},"geometry":{"x":177697.45000000112,"y":2553402.25}},{"attributes":{"ID":359833,"DIS_CODE":0,"TOWNNAME":"新市區","LI":"新市里","LIN":"19鄰","STREET":"和平街","SECT":" ","MAREA":" ","LANE":"４５巷","ALLEY":" ","HOUSE_NO":"３號","E_COORD97":177693.60000000001,"N_COORD97":2553414,"ADDRESS":"和平街４５巷３號","OBJECTID":359823},"geometry":{"x":177693.60000000056,"y":2553414}},{"attributes":{"ID":359834,"DIS_CODE":0,"TOWNNAME":"南區","LI":"建南里","LIN":"14鄰","STREET":"中華南路","SECT":"二段","MAREA":" ","LANE":"２１１巷","ALLEY":" ","HOUSE_NO":"３號","E_COORD97":166949.01999999999,"N_COORD97":2540179.6800000002,"ADDRESS":"中華南路二段２１１巷３號","OBJECTID":359824},"geometry":{"x":166949.01999999955,"y":2540179.6800000016}},{"attributes":{"ID":359835,"DIS_CODE":0,"TOWNNAME":"南區","LI":"建南里","LIN":"14鄰","STREET":"中華南路","SECT":"二段","MAREA":" ","LANE":"２１１巷","ALLEY":" ","HOUSE_NO":"５號","E_COORD97":166948.57999999999,"N_COORD97":2540175.9700000002,"ADDRESS":"中華南路二段２１１巷５號","OBJECTID":359825},"geometry":{"x":166948.58000000101,"y":2540175.9700000007}},{"attributes":{"ID":359836,"DIS_CODE":0,"TOWNNAME":"下營區","LI":"仁里里","LIN":"8鄰","STREET":"公園路","SECT":" ","MAREA":" ","LANE":" ","ALLEY":" ","HOUSE_NO":"２００號","E_COORD97":173985.73999999999,"N_COORD97":2570279.3799999999,"ADDRESS":"公園路２００號","OBJECTID":359826},"geometry":{"x":173985.74000000209,"y":2570279.3800000008}},{"attributes":{"ID":359837,"DIS_CODE":0,"TOWNNAME":"南區","LI":"金華里","LIN":"5鄰","STREET":"聖南街","SECT":" ","MAREA":" ","LANE":" ","ALLEY":" ","HOUSE_NO":"１７號","E_COORD97":167047.62,"N_COORD97":2542366.8599999999,"ADDRESS":"聖南街１７號","OBJECTID":359827},"geometry":{"x":167047.62000000011,"y":2542366.8600000031}},{"attributes":{"ID":359838,"DIS_CODE":0,"TOWNNAME":"南區","LI":"金華里","LIN":"5鄰","STREET":"聖南街","SECT":" ","MAREA":" ","LANE":" ","ALLEY":" ","HOUSE_NO":"１９號","E_COORD97":167051.32000000001,"N_COORD97":2542355.1200000001,"ADDRESS":"聖南街１９號","OBJECTID":359828},"geometry":{"x":167051.3200000003,"y":2542355.120000001}},{"attributes":{"ID":359839,"DIS_CODE":0,"TOWNNAME":"南區","LI":"金華里","LIN":"5鄰","STREET":"聖南街","SECT":" ","MAREA":" ","LANE":" ","ALLEY":" ","HOUSE_NO":"７３號","E_COORD97":167045.26999999999,"N_COORD97":2542239.6499999999,"ADDRESS":"聖南街７３號","OBJECTID":359829},"geometry":{"x":167045.27000000048,"y":2542239.6500000004}},{"attributes":{"ID":359840,"DIS_CODE":0,"TOWNNAME":"新營區","LI":"大宏里","LIN":"8鄰","STREET":"文昌街","SECT":" ","MAREA":" ","LANE":" ","ALLEY":" ","HOUSE_NO":"１６號五樓之１","E_COORD97":180442.54000000001,"N_COORD97":2578413.4500000002,"ADDRESS":"文昌街１６號五樓之１","OBJECTID":359830},"geometry":{"x":180442.54000000097,"y":2578413.4500000011}},{"attributes":{"ID":359841,"DIS_CODE":0,"TOWNNAME":"南區","LI":"南都里","LIN":"8鄰","STREET":"中華南路","SECT":"二段","MAREA":" ","LANE":" ","ALLEY":" ","HOUSE_NO":"２８５號三樓","E_COORD97":166536.23000000001,"N_COORD97":2540257.4399999999,"ADDRESS":"中華南路二段２８５號三樓","OBJECTID":359831},"geometry":{"x":166536.23000000138,"y":2540257.4400000032}},{"attributes":{"ID":359842,"DIS_CODE":0,"TOWNNAME":"南區","LI":"南都里","LIN":"8鄰","STREET":"中華南路","SECT":"二段","MAREA":" ","LANE":" ","ALLEY":" ","HOUSE_NO":"２８５號五樓","E_COORD97":166536.23000000001,"N_COORD97":2540257.4399999999,"ADDRESS":"中華南路二段２８５號五樓","OBJECTID":359832},"geometry":{"x":166536.23000000138,"y":2540257.4400000032}},{"attributes":{"ID":359843,"DIS_CODE":0,"TOWNNAME":"安南區","LI":"安順里","LIN":"1鄰","STREET":"安和路","SECT":"四段","MAREA":" ","LANE":" ","ALLEY":" ","HOUSE_NO":"１７號","E_COORD97":169943.5,"N_COORD97":2550135.7200000002,"ADDRESS":"安和路四段１７號","OBJECTID":359833},"geometry":{"x":169943.5,"y":2550135.7200000007}},{"attributes":{"ID":359844,"DIS_CODE":0,"TOWNNAME":"南區","LI":"建南里","LIN":"14鄰","STREET":"中華南路","SECT":"二段","MAREA":" ","LANE":"２１１巷","ALLEY":" ","HOUSE_NO":"７號","E_COORD97":166947.92999999999,"N_COORD97":2540171.3799999999,"ADDRESS":"中華南路二段２１１巷７號","OBJECTID":359834},"geometry":{"x":166947.93000000063,"y":2540171.379999999}},{"attributes":{"ID":359845,"DIS_CODE":0,"TOWNNAME":"南區","LI":"建南里","LIN":"14鄰","STREET":"中華南路","SECT":"二段","MAREA":" ","LANE":"２１１巷","ALLEY":" ","HOUSE_NO":"９號","E_COORD97":166948.57999999999,"N_COORD97":2540167,"ADDRESS":"中華南路二段２１１巷９號","OBJECTID":359835},"geometry":{"x":166948.58000000101,"y":2540167.0000000019}},{"attributes":{"ID":359846,"DIS_CODE":0,"TOWNNAME":"新市區","LI":"新市里","LIN":"19鄰","STREET":"和平街","SECT":" ","MAREA":" ","LANE":"４５巷","ALLEY":" ","HOUSE_NO":"１３號","E_COORD97":177701.10000000001,"N_COORD97":2553394.25,"ADDRESS":"和平街４５巷１３號","OBJECTID":359836},"geometry":{"x":177701.09999999963,"y":2553394.2500000019}},{"attributes":{"ID":359847,"DIS_CODE":0,"TOWNNAME":"新市區","LI":"新市里","LIN":"19鄰","STREET":"和平街","SECT":" ","MAREA":" ","LANE":"４５巷","ALLEY":" ","HOUSE_NO":"５號","E_COORD97":177694.85000000001,"N_COORD97":2553410.25,"ADDRESS":"和平街４５巷５號","OBJECTID":359837},"geometry":{"x":177694.84999999963,"y":2553410.2499999981}},{"attributes":{"ID":359848,"DIS_CODE":0,"TOWNNAME":"新市區","LI":"新市里","LIN":"19鄰","STREET":"和平街","SECT":" ","MAREA":" ","LANE":"４５巷","ALLEY":" ","HOUSE_NO":"２１號","E_COORD97":177706.10000000001,"N_COORD97":2553378,"ADDRESS":"和平街４５巷２１號","OBJECTID":359838},"geometry":{"x":177706.10000000056,"y":2553378}},{"attributes":{"ID":359849,"DIS_CODE":0,"TOWNNAME":"學甲區","LI":"中洲里","LIN":"25鄰","STREET":" ","SECT":" ","MAREA":"中洲","LANE":" ","ALLEY":" ","HOUSE_NO":"３２３號","E_COORD97":163804.03,"N_COORD97":2571720.8399999999,"ADDRESS":"中洲３２３號","OBJECTID":359839},"geometry":{"x":163804.03000000026,"y":2571720.8399999999}},{"attributes":{"ID":359850,"DIS_CODE":0,"TOWNNAME":"學甲區","LI":"中洲里","LIN":"25鄰","STREET":" ","SECT":" ","MAREA":"中洲","LANE":" ","ALLEY":" ","HOUSE_NO":"３２４號","E_COORD97":163771.20000000001,"N_COORD97":2571747.7999999998,"ADDRESS":"中洲３２４號","OBJECTID":359840},"geometry":{"x":163771.20000000112,"y":2571747.8000000026}},{"attributes":{"ID":359851,"DIS_CODE":0,"TOWNNAME":"學甲區","LI":"中洲里","LIN":"25鄰","STREET":" ","SECT":" ","MAREA":"中洲","LANE":" ","ALLEY":" ","HOUSE_NO":"３２５號","E_COORD97":163803.51000000001,"N_COORD97":2571738.21,"ADDRESS":"中洲３２５號","OBJECTID":359841},"geometry":{"x":163803.50999999978,"y":2571738.2100000028}},{"attributes":{"ID":359852,"DIS_CODE":0,"TOWNNAME":"新市區","LI":"新市里","LIN":"19鄰","STREET":"和平街","SECT":" ","MAREA":" ","LANE":"４５巷","ALLEY":" ","HOUSE_NO":"１號","E_COORD97":177692.26000000001,"N_COORD97":2553418.25,"ADDRESS":"和平街４５巷１號","OBJECTID":359842},"geometry":{"x":177692.25999999978,"y":2553418.2500000019}},{"attributes":{"ID":359853,"DIS_CODE":0,"TOWNNAME":"永康區","LI":"中興里","LIN":"19鄰","STREET":"中山東路","SECT":" ","MAREA":" ","LANE":"３６６巷","ALLEY":" ","HOUSE_NO":"１７號","E_COORD97":171841.07999999999,"N_COORD97":2545286.0600000001,"ADDRESS":"中山東路３６６巷１７號","OBJECTID":359843},"geometry":{"x":171841.08000000101,"y":2545286.0600000024}},{"attributes":{"ID":359854,"DIS_CODE":0,"TOWNNAME":"永康區","LI":"三合里","LIN":"19鄰","STREET":"南工街","SECT":" ","MAREA":" ","LANE":"２６７巷","ALLEY":" ","HOUSE_NO":"４５號","E_COORD97":171875.79999999999,"N_COORD97":2545822.1099999999,"ADDRESS":"南工街２６７巷４５號","OBJECTID":359844},"geometry":{"x":171875.79999999981,"y":2545822.1099999994}},{"attributes":{"ID":359855,"DIS_CODE":0,"TOWNNAME":"永康區","LI":"中興里","LIN":"19鄰","STREET":"中山東路","SECT":" ","MAREA":" ","LANE":"３６６巷","ALLEY":" ","HOUSE_NO":"３１號","E_COORD97":171806.10000000001,"N_COORD97":2545287,"ADDRESS":"中山東路３６６巷３１號","OBJECTID":359845},"geometry":{"x":171806.10000000149,"y":2545287.0000000019}},{"attributes":{"ID":359856,"DIS_CODE":0,"TOWNNAME":"永康區","LI":"中興里","LIN":"19鄰","STREET":"中山東路","SECT":" ","MAREA":" ","LANE":"３６６巷","ALLEY":" ","HOUSE_NO":"４６號","E_COORD97":171816.42999999999,"N_COORD97":2545302.7999999998,"ADDRESS":"中山東路３６６巷４６號","OBJECTID":359846},"geometry":{"x":171816.43000000063,"y":2545302.8000000026}},{"attributes":{"ID":359857,"DIS_CODE":0,"TOWNNAME":"永康區","LI":"中興里","LIN":"19鄰","STREET":"中山東路","SECT":" ","MAREA":" ","LANE":"３６６巷","ALLEY":" ","HOUSE_NO":"２５號","E_COORD97":171818.20000000001,"N_COORD97":2545287.25,"ADDRESS":"中山東路３６６巷２５號","OBJECTID":359847},"geometry":{"x":171818.20000000112,"y":2545287.2500000037}},{"attributes":{"ID":359858,"DIS_CODE":0,"TOWNNAME":"永康區","LI":"中興里","LIN":"19鄰","STREET":"中山東路","SECT":" ","MAREA":" ","LANE":"３６６巷","ALLEY":" ","HOUSE_NO":"２３號","E_COORD97":171822.29999999999,"N_COORD97":2545287,"ADDRESS":"中山東路３６６巷２３號","OBJECTID":359848},"geometry":{"x":171822.30000000075,"y":2545287.0000000019}},{"attributes":{"ID":359859,"DIS_CODE":0,"TOWNNAME":"永康區","LI":"大橋里","LIN":"19鄰","STREET":"大橋一街","SECT":" ","MAREA":" ","LANE":"１３９巷","ALLEY":" ","HOUSE_NO":"３０號","E_COORD97":171003.73000000001,"N_COORD97":2546595.3300000001,"ADDRESS":"大橋一街１３９巷３０號","OBJECTID":359849},"geometry":{"x":171003.73000000045,"y":2546595.3300000038}},{"attributes":{"ID":359860,"DIS_CODE":0,"TOWNNAME":"安南區","LI":"州北里","LIN":"19鄰","STREET":"安昌街","SECT":" ","MAREA":" ","LANE":"８５巷","ALLEY":" ","HOUSE_NO":"３７號","E_COORD97":169906.60000000001,"N_COORD97":2552307.2000000002,"ADDRESS":"安昌街８５巷３７號","OBJECTID":359850},"geometry":{"x":169906.59999999963,"y":2552307.1999999993}},{"attributes":{"ID":359861,"DIS_CODE":0,"TOWNNAME":"安南區","LI":"州北里","LIN":"19鄰","STREET":"安昌街","SECT":" ","MAREA":" ","LANE":"８５巷","ALLEY":" ","HOUSE_NO":"３９號","E_COORD97":169906.78,"N_COORD97":2552311.1499999999,"ADDRESS":"安昌街８５巷３９號","OBJECTID":359851},"geometry":{"x":169906.77999999933,"y":2552311.1500000022}},{"attributes":{"ID":359862,"DIS_CODE":0,"TOWNNAME":"安南區","LI":"州北里","LIN":"19鄰","STREET":"安昌街","SECT":" ","MAREA":" ","LANE":"８５巷","ALLEY":" ","HOUSE_NO":"３號","E_COORD97":169910.72,"N_COORD97":2552169.0099999998,"ADDRESS":"安昌街８５巷３號","OBJECTID":359852},"geometry":{"x":169910.72000000067,"y":2552169.0100000016}},{"attributes":{"ID":359863,"DIS_CODE":0,"TOWNNAME":"安南區","LI":"州北里","LIN":"19鄰","STREET":"安昌街","SECT":" ","MAREA":" ","LANE":"８５巷","ALLEY":" ","HOUSE_NO":"４１號","E_COORD97":169906.23999999999,"N_COORD97":2552319.9500000002,"ADDRESS":"安昌街８５巷４１號","OBJECTID":359853},"geometry":{"x":169906.24000000115,"y":2552319.950000003}},{"attributes":{"ID":359864,"DIS_CODE":0,"TOWNNAME":"安平區","LI":"文平里","LIN":"25鄰","STREET":"永華二街","SECT":" ","MAREA":" ","LANE":"４１巷","ALLEY":" ","HOUSE_NO":"３１號","E_COORD97":166252.60999999999,"N_COORD97":2542950.73,"ADDRESS":"永華二街４１巷３１號","OBJECTID":359854},"geometry":{"x":166252.61000000034,"y":2542950.7300000004}},{"attributes":{"ID":359865,"DIS_CODE":0,"TOWNNAME":"安平區","LI":"文平里","LIN":"25鄰","STREET":"永華二街","SECT":" ","MAREA":" ","LANE":"４１巷","ALLEY":" ","HOUSE_NO":"３３號","E_COORD97":166245.51000000001,"N_COORD97":2542951.4300000002,"ADDRESS":"永華二街４１巷３３號","OBJECTID":359855},"geometry":{"x":166245.51000000071,"y":2542951.4299999997}},{"attributes":{"ID":359866,"DIS_CODE":0,"TOWNNAME":"安平區","LI":"文平里","LIN":"25鄰","STREET":"建平三街","SECT":" ","MAREA":" ","LANE":"６２巷","ALLEY":" ","HOUSE_NO":"１４號","E_COORD97":166192.07000000001,"N_COORD97":2542943.8700000001,"ADDRESS":"建平三街６２巷１４號","OBJECTID":359856},"geometry":{"x":166192.0700000003,"y":2542943.870000001}},{"attributes":{"ID":359867,"DIS_CODE":0,"TOWNNAME":"安平區","LI":"建平里","LIN":"25鄰","STREET":"建平九街","SECT":" ","MAREA":" ","LANE":"６０巷","ALLEY":" ","HOUSE_NO":"５０號","E_COORD97":166038.60999999999,"N_COORD97":2543642.2599999998,"ADDRESS":"建平九街６０巷５０號","OBJECTID":359857},"geometry":{"x":166038.61000000127,"y":2543642.2599999979}},{"attributes":{"ID":359868,"DIS_CODE":0,"TOWNNAME":"安平區","LI":"建平里","LIN":"25鄰","STREET":"建平九街","SECT":" ","MAREA":" ","LANE":"６０巷","ALLEY":" ","HOUSE_NO":"５０號之１","E_COORD97":166044.04999999999,"N_COORD97":2543641.27,"ADDRESS":"建平九街６０巷５０號之１","OBJECTID":359858},"geometry":{"x":166044.04999999981,"y":2543641.2699999996}},{"attributes":{"ID":359869,"DIS_CODE":0,"TOWNNAME":"安平區","LI":"建平里","LIN":"25鄰","STREET":"建平九街","SECT":" ","MAREA":" ","LANE":"６０巷","ALLEY":" ","HOUSE_NO":"５０號之１０","E_COORD97":166046.51999999999,"N_COORD97":2543626.7000000002,"ADDRESS":"建平九街６０巷５０號之１０","OBJECTID":359859},"geometry":{"x":166046.52000000048,"y":2543626.7000000011}},{"attributes":{"ID":359870,"DIS_CODE":0,"TOWNNAME":"安平區","LI":"建平里","LIN":"25鄰","STREET":"建平九街","SECT":" ","MAREA":" ","LANE":"６０巷","ALLEY":" ","HOUSE_NO":"５０號之１１","E_COORD97":166052.95000000001,"N_COORD97":2543625.96,"ADDRESS":"建平九街６０巷５０號之１１","OBJECTID":359860},"geometry":{"x":166052.95000000112,"y":2543625.9600000028}},{"attributes":{"ID":359871,"DIS_CODE":0,"TOWNNAME":"安平區","LI":"建平里","LIN":"25鄰","STREET":"建平九街","SECT":" ","MAREA":" ","LANE":"６０巷","ALLEY":" ","HOUSE_NO":"５０號之１２","E_COORD97":166059.13,"N_COORD97":2543625.4700000002,"ADDRESS":"建平九街６０巷５０號之１２","OBJECTID":359861},"geometry":{"x":166059.12999999989,"y":2543625.4700000025}},{"attributes":{"ID":359872,"DIS_CODE":0,"TOWNNAME":"安平區","LI":"建平里","LIN":"25鄰","STREET":"建平九街","SECT":" ","MAREA":" ","LANE":"６０巷","ALLEY":" ","HOUSE_NO":"５０號之１３","E_COORD97":166064.07000000001,"N_COORD97":2543624.9700000002,"ADDRESS":"建平九街６０巷５０號之１３","OBJECTID":359862},"geometry":{"x":166064.07000000123,"y":2543624.9700000044}},{"attributes":{"ID":359873,"DIS_CODE":0,"TOWNNAME":"安平區","LI":"建平里","LIN":"25鄰","STREET":"建平九街","SECT":" ","MAREA":" ","LANE":"６０巷","ALLEY":" ","HOUSE_NO":"５０號之１４","E_COORD97":166068.51999999999,"N_COORD97":2543624.23,"ADDRESS":"建平九街６０巷５０號之１４","OBJECTID":359863},"geometry":{"x":166068.52000000048,"y":2543624.2300000023}},{"attributes":{"ID":359874,"DIS_CODE":0,"TOWNNAME":"安南區","LI":"州北里","LIN":"19鄰","STREET":"安昌街","SECT":" ","MAREA":" ","LANE":"８５巷","ALLEY":" ","HOUSE_NO":"４３號","E_COORD97":169906.06,"N_COORD97":2552324.98,"ADDRESS":"安昌街８５巷４３號","OBJECTID":359864},"geometry":{"x":169906.06000000145,"y":2552324.9800000023}},{"attributes":{"ID":359875,"DIS_CODE":0,"TOWNNAME":"安南區","LI":"州北里","LIN":"19鄰","STREET":"安昌街","SECT":" ","MAREA":" ","LANE":"８５巷","ALLEY":" ","HOUSE_NO":"５號","E_COORD97":169909.70999999999,"N_COORD97":2552175.1899999999,"ADDRESS":"安昌街８５巷５號","OBJECTID":359865},"geometry":{"x":169909.70999999996,"y":2552175.1899999995}},{"attributes":{"ID":359876,"DIS_CODE":0,"TOWNNAME":"安南區","LI":"鳳凰里","LIN":"19鄰","STREET":"安中路","SECT":"一段","MAREA":" ","LANE":"７０２巷","ALLEY":" ","HOUSE_NO":"１０７號","E_COORD97":167923.53,"N_COORD97":2549300.3799999999,"ADDRESS":"安中路一段７０２巷１０７號","OBJECTID":359866},"geometry":{"x":167923.53000000212,"y":2549300.3800000008}},{"attributes":{"ID":359877,"DIS_CODE":0,"TOWNNAME":"安南區","LI":"鳳凰里","LIN":"19鄰","STREET":"安中路","SECT":"一段","MAREA":" ","LANE":"７０２巷","ALLEY":" ","HOUSE_NO":"１０８號","E_COORD97":167930,"N_COORD97":2549300.02,"ADDRESS":"安中路一段７０２巷１０８號","OBJECTID":359867},"geometry":{"x":167930,"y":2549300.0200000014}},{"attributes":{"ID":359878,"DIS_CODE":0,"TOWNNAME":"安南區","LI":"鳳凰里","LIN":"19鄰","STREET":"安中路","SECT":"一段","MAREA":" ","LANE":"７０２巷","ALLEY":" ","HOUSE_NO":"１１０號","E_COORD97":167945.89999999999,"N_COORD97":2549299.79,"ADDRESS":"安中路一段７０２巷１１０號","OBJECTID":359868},"geometry":{"x":167945.90000000037,"y":2549299.7899999991}},{"attributes":{"ID":359879,"DIS_CODE":0,"TOWNNAME":"安南區","LI":"鳳凰里","LIN":"19鄰","STREET":"安中路","SECT":"一段","MAREA":" ","LANE":"７０２巷","ALLEY":" ","HOUSE_NO":"１１１號","E_COORD97":167952.14999999999,"N_COORD97":2549298.6099999999,"ADDRESS":"安中路一段７０２巷１１１號","OBJECTID":359869},"geometry":{"x":167952.1500000013,"y":2549298.6100000013}},{"attributes":{"ID":359880,"DIS_CODE":0,"TOWNNAME":"南區","LI":"南都里","LIN":"8鄰","STREET":"中華南路","SECT":"二段","MAREA":" ","LANE":" ","ALLEY":" ","HOUSE_NO":"２８５號四樓","E_COORD97":166536.23000000001,"N_COORD97":2540257.4399999999,"ADDRESS":"中華南路二段２８５號四樓","OBJECTID":359870},"geometry":{"x":166536.23000000138,"y":2540257.4400000032}},{"attributes":{"ID":359881,"DIS_CODE":0,"TOWNNAME":"南區","LI":"南都里","LIN":"8鄰","STREET":"中華南路","SECT":"二段","MAREA":" ","LANE":" ","ALLEY":" ","HOUSE_NO":"２８９號三樓","E_COORD97":166527.17999999999,"N_COORD97":2540256.8799999999,"ADDRESS":"中華南路二段２８９號三樓","OBJECTID":359871},"geometry":{"x":166527.18000000063,"y":2540256.879999999}},{"attributes":{"ID":359882,"DIS_CODE":0,"TOWNNAME":"南區","LI":"南都里","LIN":"8鄰","STREET":"中華南路","SECT":"二段","MAREA":" ","LANE":" ","ALLEY":" ","HOUSE_NO":"２８９號五樓","E_COORD97":166527.17999999999,"N_COORD97":2540256.8799999999,"ADDRESS":"中華南路二段２８９號五樓","OBJECTID":359872},"geometry":{"x":166527.18000000063,"y":2540256.879999999}},{"attributes":{"ID":359883,"DIS_CODE":0,"TOWNNAME":"南區","LI":"南都里","LIN":"8鄰","STREET":"中華南路","SECT":"二段","MAREA":" ","LANE":" ","ALLEY":" ","HOUSE_NO":"２８９號四樓","E_COORD97":166527.17999999999,"N_COORD97":2540256.8799999999,"ADDRESS":"中華南路二段２８９號四樓","OBJECTID":359873},"geometry":{"x":166527.18000000063,"y":2540256.879999999}},{"attributes":{"ID":359884,"DIS_CODE":0,"TOWNNAME":"南區","LI":"南都里","LIN":"8鄰","STREET":"中華南路","SECT":"二段","MAREA":" ","LANE":" ","ALLEY":" ","HOUSE_NO":"２９３號三樓","E_COORD97":166518.13,"N_COORD97":2540257.1600000001,"ADDRESS":"中華南路二段２９３號三樓","OBJECTID":359874},"geometry":{"x":166518.12999999989,"y":2540257.160000002}},{"attributes":{"ID":359885,"DIS_CODE":0,"TOWNNAME":"南區","LI":"南都里","LIN":"8鄰","STREET":"中華南路","SECT":"二段","MAREA":" ","LANE":" ","ALLEY":" ","HOUSE_NO":"２９３號五樓","E_COORD97":166518.13,"N_COORD97":2540257.1600000001,"ADDRESS":"中華南路二段２９３號五樓","OBJECTID":359875},"geometry":{"x":166518.12999999989,"y":2540257.160000002}},{"attributes":{"ID":359886,"DIS_CODE":0,"TOWNNAME":"南區","LI":"南都里","LIN":"8鄰","STREET":"中華南路","SECT":"二段","MAREA":" ","LANE":" ","ALLEY":" ","HOUSE_NO":"２９３號四樓","E_COORD97":166518.13,"N_COORD97":2540257.1600000001,"ADDRESS":"中華南路二段２９３號四樓","OBJECTID":359876},"geometry":{"x":166518.12999999989,"y":2540257.160000002}},{"attributes":{"ID":359887,"DIS_CODE":0,"TOWNNAME":"南區","LI":"南都里","LIN":"8鄰","STREET":"中華南路","SECT":"二段","MAREA":" ","LANE":" ","ALLEY":" ","HOUSE_NO":"２９７號三樓","E_COORD97":166509.92999999999,"N_COORD97":2540257.1600000001,"ADDRESS":"中華南路二段２９７號三樓","OBJECTID":359877},"geometry":{"x":166509.93000000156,"y":2540257.160000002}},{"attributes":{"ID":359888,"DIS_CODE":0,"TOWNNAME":"南區","LI":"南都里","LIN":"8鄰","STREET":"中華南路","SECT":"二段","MAREA":" ","LANE":" ","ALLEY":" ","HOUSE_NO":"２９７號五樓","E_COORD97":166509.92999999999,"N_COORD97":2540257.1600000001,"ADDRESS":"中華南路二段２９７號五樓","OBJECTID":359878},"geometry":{"x":166509.93000000156,"y":2540257.160000002}},{"attributes":{"ID":359889,"DIS_CODE":0,"TOWNNAME":"南區","LI":"南都里","LIN":"8鄰","STREET":"中華南路","SECT":"二段","MAREA":" ","LANE":" ","ALLEY":" ","HOUSE_NO":"２９７號四樓","E_COORD97":166509.92999999999,"N_COORD97":2540257.1600000001,"ADDRESS":"中華南路二段２９７號四樓","OBJECTID":359879},"geometry":{"x":166509.93000000156,"y":2540257.160000002}},{"attributes":{"ID":359890,"DIS_CODE":0,"TOWNNAME":"安南區","LI":"鳳凰里","LIN":"19鄰","STREET":"安中路","SECT":"一段","MAREA":" ","LANE":"７０２巷","ALLEY":" ","HOUSE_NO":"１１５號","E_COORD97":167945.85000000001,"N_COORD97":2549321.4700000002,"ADDRESS":"安中路一段７０２巷１１５號","OBJECTID":359880},"geometry":{"x":167945.84999999963,"y":2549321.4700000025}},{"attributes":{"ID":359891,"DIS_CODE":0,"TOWNNAME":"安南區","LI":"鳳凰里","LIN":"19鄰","STREET":"安中路","SECT":"一段","MAREA":" ","LANE":"７０２巷","ALLEY":" ","HOUSE_NO":"１１６號","E_COORD97":167955.03,"N_COORD97":2549320.6499999999,"ADDRESS":"安中路一段７０２巷１１６號","OBJECTID":359881},"geometry":{"x":167955.03000000026,"y":2549320.6500000022}},{"attributes":{"ID":359892,"DIS_CODE":0,"TOWNNAME":"安南區","LI":"鳳凰里","LIN":"19鄰","STREET":"安中路","SECT":"一段","MAREA":" ","LANE":"７０２巷","ALLEY":" ","HOUSE_NO":"１１７號","E_COORD97":167959.51000000001,"N_COORD97":2549320.4199999999,"ADDRESS":"安中路一段７０２巷１１７號","OBJECTID":359882},"geometry":{"x":167959.51000000071,"y":2549320.4200000037}},{"attributes":{"ID":359893,"DIS_CODE":0,"TOWNNAME":"安南區","LI":"鳳凰里","LIN":"19鄰","STREET":"安中路","SECT":"一段","MAREA":" ","LANE":"７０２巷","ALLEY":" ","HOUSE_NO":"１１８號","E_COORD97":167968.92999999999,"N_COORD97":2549319.4700000002,"ADDRESS":"安中路一段７０２巷１１８號","OBJECTID":359883},"geometry":{"x":167968.9299999997,"y":2549319.4700000007}},{"attributes":{"ID":359894,"DIS_CODE":0,"TOWNNAME":"安南區","LI":"鳳凰里","LIN":"19鄰","STREET":"安中路","SECT":"一段","MAREA":" ","LANE":"７０２巷","ALLEY":" ","HOUSE_NO":"１１９號","E_COORD97":167974.94,"N_COORD97":2549313.8300000001,"ADDRESS":"安中路一段７０２巷１１９號","OBJECTID":359884},"geometry":{"x":167974.94000000041,"y":2549313.8300000001}},{"attributes":{"ID":359895,"DIS_CODE":0,"TOWNNAME":"安南區","LI":"鳳凰里","LIN":"19鄰","STREET":"安中路","SECT":"一段","MAREA":" ","LANE":"７０２巷","ALLEY":" ","HOUSE_NO":"１２０號","E_COORD97":167974.57999999999,"N_COORD97":2549306.8900000001,"ADDRESS":"安中路一段７０２巷１２０號","OBJECTID":359885},"geometry":{"x":167974.58000000101,"y":2549306.8900000006}},{"attributes":{"ID":359896,"DIS_CODE":0,"TOWNNAME":"安南區","LI":"鳳凰里","LIN":"19鄰","STREET":"安中路","SECT":"一段","MAREA":" ","LANE":"７０２巷","ALLEY":" ","HOUSE_NO":"１２１號","E_COORD97":167974.35000000001,"N_COORD97":2549302.1899999999,"ADDRESS":"安中路一段７０２巷１２１號","OBJECTID":359886},"geometry":{"x":167974.34999999963,"y":2549302.1900000013}},{"attributes":{"ID":359897,"DIS_CODE":0,"TOWNNAME":"仁德區","LI":"保安里","LIN":"19鄰","STREET":"文賢路","SECT":"二段","MAREA":" ","LANE":"１５巷","ALLEY":" ","HOUSE_NO":"１８號","E_COORD97":171812.19,"N_COORD97":2535885.3300000001,"ADDRESS":"文賢路二段１５巷１８號","OBJECTID":359887},"geometry":{"x":171812.19000000041,"y":2535885.3300000038}},{"attributes":{"ID":359898,"DIS_CODE":0,"TOWNNAME":"仁德區","LI":"仁義里","LIN":"19鄰","STREET":"中山路","SECT":" ","MAREA":" ","LANE":"２８６巷","ALLEY":" ","HOUSE_NO":"３號","E_COORD97":174048.12,"N_COORD97":2541283.48,"ADDRESS":"中山路２８６巷３號","OBJECTID":359888},"geometry":{"x":174048.12000000104,"y":2541283.4800000023}},{"attributes":{"ID":359899,"DIS_CODE":0,"TOWNNAME":"仁德區","LI":"仁義里","LIN":"19鄰","STREET":"中山路","SECT":" ","MAREA":" ","LANE":"２８６巷","ALLEY":" ","HOUSE_NO":"１號","E_COORD97":174046.66,"N_COORD97":2541274.75,"ADDRESS":"中山路２８６巷１號","OBJECTID":359889},"geometry":{"x":174046.66000000015,"y":2541274.75}},{"attributes":{"ID":359900,"DIS_CODE":0,"TOWNNAME":"東區","LI":"後甲里","LIN":"19鄰","STREET":"建東街","SECT":" ","MAREA":" ","LANE":"２２巷","ALLEY":" ","HOUSE_NO":"１０號","E_COORD97":171834.54000000001,"N_COORD97":2543348.0099999998,"ADDRESS":"建東街２２巷１０號","OBJECTID":359890},"geometry":{"x":171834.54000000097,"y":2543348.0099999998}},{"attributes":{"ID":359901,"DIS_CODE":0,"TOWNNAME":"東區","LI":"後甲里","LIN":"19鄰","STREET":"建東街","SECT":" ","MAREA":" ","LANE":"２２巷","ALLEY":" ","HOUSE_NO":"１１號","E_COORD97":171838.98000000001,"N_COORD97":2543365.9100000001,"ADDRESS":"建東街２２巷１１號","OBJECTID":359891},"geometry":{"x":171838.98000000138,"y":2543365.9100000001}},{"attributes":{"ID":359902,"DIS_CODE":0,"TOWNNAME":"東區","LI":"後甲里","LIN":"19鄰","STREET":"建東街","SECT":" ","MAREA":" ","LANE":"２２巷","ALLEY":" ","HOUSE_NO":"１２號","E_COORD97":171840.63,"N_COORD97":2543347.75,"ADDRESS":"建東街２２巷１２號","OBJECTID":359892},"geometry":{"x":171840.63000000082,"y":2543347.7500000037}},{"attributes":{"ID":359903,"DIS_CODE":0,"TOWNNAME":"東區","LI":"後甲里","LIN":"19鄰","STREET":"建東街","SECT":" ","MAREA":" ","LANE":"２２巷","ALLEY":" ","HOUSE_NO":"１３號","E_COORD97":171843.72,"N_COORD97":2543366.2200000002,"ADDRESS":"建東街２２巷１３號","OBJECTID":359893},"geometry":{"x":171843.71999999974,"y":2543366.2200000025}},{"attributes":{"ID":359904,"DIS_CODE":0,"TOWNNAME":"東區","LI":"後甲里","LIN":"19鄰","STREET":"建東街","SECT":" ","MAREA":" ","LANE":"２２巷","ALLEY":" ","HOUSE_NO":"１４號","E_COORD97":171845.67000000001,"N_COORD97":2543350.3900000001,"ADDRESS":"建東街２２巷１４號","OBJECTID":359894},"geometry":{"x":171845.67000000086,"y":2543350.3900000006}},{"attributes":{"ID":359905,"DIS_CODE":0,"TOWNNAME":"東區","LI":"後甲里","LIN":"19鄰","STREET":"建東街","SECT":" ","MAREA":" ","LANE":"２２巷","ALLEY":" ","HOUSE_NO":"１５號","E_COORD97":171849.72,"N_COORD97":2543367.1699999999,"ADDRESS":"建東街２２巷１５號","OBJECTID":359895},"geometry":{"x":171849.72000000067,"y":2543367.1699999999}},{"attributes":{"ID":359906,"DIS_CODE":0,"TOWNNAME":"東區","LI":"後甲里","LIN":"19鄰","STREET":"建東街","SECT":" ","MAREA":" ","LANE":"２２巷","ALLEY":" ","HOUSE_NO":"１６號","E_COORD97":171851.5,"N_COORD97":2543348.5299999998,"ADDRESS":"建東街２２巷１６號","OBJECTID":359896},"geometry":{"x":171851.50000000093,"y":2543348.5300000031}},{"attributes":{"ID":359907,"DIS_CODE":0,"TOWNNAME":"東區","LI":"後甲里","LIN":"19鄰","STREET":"建東街","SECT":" ","MAREA":" ","LANE":"２２巷","ALLEY":" ","HOUSE_NO":"１７號","E_COORD97":171854.76999999999,"N_COORD97":2543368.4300000002,"ADDRESS":"建東街２２巷１７號","OBJECTID":359897},"geometry":{"x":171854.77000000048,"y":2543368.4299999997}},{"attributes":{"ID":359908,"DIS_CODE":0,"TOWNNAME":"東區","LI":"後甲里","LIN":"19鄰","STREET":"建東街","SECT":" ","MAREA":" ","LANE":"２２巷","ALLEY":" ","HOUSE_NO":"１８號","E_COORD97":171856.79999999999,"N_COORD97":2543350.3900000001,"ADDRESS":"建東街２２巷１８號","OBJECTID":359898},"geometry":{"x":171856.79999999981,"y":2543350.3900000006}},{"attributes":{"ID":359909,"DIS_CODE":0,"TOWNNAME":"東區","LI":"後甲里","LIN":"19鄰","STREET":"建東街","SECT":" ","MAREA":" ","LANE":"２２巷","ALLEY":" ","HOUSE_NO":"１９號","E_COORD97":171859.82000000001,"N_COORD97":2543369.0600000001,"ADDRESS":"建東街２２巷１９號","OBJECTID":359899},"geometry":{"x":171859.82000000123,"y":2543369.0600000005}},{"attributes":{"ID":359910,"DIS_CODE":0,"TOWNNAME":"東區","LI":"後甲里","LIN":"19鄰","STREET":"建東街","SECT":" ","MAREA":" ","LANE":"２２巷","ALLEY":" ","HOUSE_NO":"１號","E_COORD97":171811.88,"N_COORD97":2543362.5099999998,"ADDRESS":"建東街２２巷１號","OBJECTID":359900},"geometry":{"x":171811.88000000082,"y":2543362.5099999998}},{"attributes":{"ID":359911,"DIS_CODE":0,"TOWNNAME":"東區","LI":"大智里","LIN":"19鄰","STREET":"崇善十五街","SECT":" ","MAREA":" ","LANE":"５０巷","ALLEY":" ","HOUSE_NO":"１０號","E_COORD97":171299.92000000001,"N_COORD97":2540590.52,"ADDRESS":"崇善十五街５０巷１０號","OBJECTID":359901},"geometry":{"x":171299.91999999993,"y":2540590.5200000014}},{"attributes":{"ID":359912,"DIS_CODE":0,"TOWNNAME":"南區","LI":"建南里","LIN":" ","STREET":"中華南路","SECT":"二段","MAREA":" ","LANE":"１７７巷","ALLEY":" ","HOUSE_NO":"７５之１號","E_COORD97":167118.23000000001,"N_COORD97":2540056.2000000002,"ADDRESS":"中華南路二段１７７巷７５之１號","OBJECTID":359902},"geometry":{"x":167118.23000000045,"y":2540056.2000000011}},{"attributes":{"ID":359913,"DIS_CODE":0,"TOWNNAME":"南區","LI":"建南里","LIN":" ","STREET":"德興路","SECT":" ","MAREA":" ","LANE":"２７４巷","ALLEY":" ","HOUSE_NO":"６８號","E_COORD97":167057.22,"N_COORD97":2540029.4199999999,"ADDRESS":"德興路２７４巷６８號","OBJECTID":359903},"geometry":{"x":167057.2200000016,"y":2540029.4199999999}},{"attributes":{"ID":359914,"DIS_CODE":0,"TOWNNAME":"東區","LI":"大智里","LIN":"19鄰","STREET":"崇善十五街","SECT":" ","MAREA":" ","LANE":"５０巷","ALLEY":" ","HOUSE_NO":"１１號","E_COORD97":171279.42999999999,"N_COORD97":2540584.6699999999,"ADDRESS":"崇善十五街５０巷１１號","OBJECTID":359904},"geometry":{"x":171279.4299999997,"y":2540584.6699999999}},{"attributes":{"ID":359915,"DIS_CODE":0,"TOWNNAME":"東區","LI":"大智里","LIN":"19鄰","STREET":"崇善十五街","SECT":" ","MAREA":" ","LANE":"５０巷","ALLEY":" ","HOUSE_NO":"１３號","E_COORD97":171278.14999999999,"N_COORD97":2540588.6899999999,"ADDRESS":"崇善十五街５０巷１３號","OBJECTID":359905},"geometry":{"x":171278.1500000013,"y":2540588.6900000013}},{"attributes":{"ID":359916,"DIS_CODE":0,"TOWNNAME":"東區","LI":"大智里","LIN":"19鄰","STREET":"崇善十五街","SECT":" ","MAREA":" ","LANE":"５０巷","ALLEY":" ","HOUSE_NO":"１號","E_COORD97":171286.92999999999,"N_COORD97":2540562.5499999998,"ADDRESS":"崇善十五街５０巷１號","OBJECTID":359906},"geometry":{"x":171286.93000000156,"y":2540562.5500000007}},{"attributes":{"ID":359917,"DIS_CODE":0,"TOWNNAME":"東區","LI":"大智里","LIN":"19鄰","STREET":"崇善十五街","SECT":" ","MAREA":" ","LANE":"５０巷","ALLEY":" ","HOUSE_NO":"２號","E_COORD97":171304.67999999999,"N_COORD97":2540568.21,"ADDRESS":"崇善十五街５０巷２號","OBJECTID":359907},"geometry":{"x":171304.6799999997,"y":2540568.2100000009}},{"attributes":{"ID":359918,"DIS_CODE":0,"TOWNNAME":"東區","LI":"大智里","LIN":"19鄰","STREET":"崇善十五街","SECT":" ","MAREA":" ","LANE":"５０巷","ALLEY":" ","HOUSE_NO":"３號","E_COORD97":171285.10000000001,"N_COORD97":2540566.5699999998,"ADDRESS":"崇善十五街５０巷３號","OBJECTID":359908},"geometry":{"x":171285.09999999963,"y":2540566.5700000022}},{"attributes":{"ID":359919,"DIS_CODE":0,"TOWNNAME":"東區","LI":"大智里","LIN":"19鄰","STREET":"崇善十五街","SECT":" ","MAREA":" ","LANE":"５０巷","ALLEY":" ","HOUSE_NO":"４號","E_COORD97":171303.20999999999,"N_COORD97":2540573.5099999998,"ADDRESS":"崇善十五街５０巷４號","OBJECTID":359909},"geometry":{"x":171303.20999999996,"y":2540573.5100000016}},{"attributes":{"ID":359920,"DIS_CODE":0,"TOWNNAME":"東區","LI":"大智里","LIN":"19鄰","STREET":"崇善十五街","SECT":" ","MAREA":" ","LANE":"５０巷","ALLEY":" ","HOUSE_NO":"５號","E_COORD97":171284.73000000001,"N_COORD97":2540571.3199999998,"ADDRESS":"崇善十五街５０巷５號","OBJECTID":359910},"geometry":{"x":171284.73000000138,"y":2540571.3200000022}},{"attributes":{"ID":359921,"DIS_CODE":0,"TOWNNAME":"學甲區","LI":"新達里","LIN":"25鄰","STREET":" ","SECT":" ","MAREA":"瓦寮","LANE":" ","ALLEY":" ","HOUSE_NO":"２４號之１","E_COORD97":169568.37,"N_COORD97":2570273.2799999998,"ADDRESS":"瓦寮２４號之１","OBJECTID":359911},"geometry":{"x":169568.37000000011,"y":2570273.2800000031}},{"attributes":{"ID":359922,"DIS_CODE":0,"TOWNNAME":"北區","LI":"和順里","LIN":"25鄰","STREET":"西門路","SECT":"三段","MAREA":" ","LANE":"４５巷","ALLEY":" ","HOUSE_NO":"８號","E_COORD97":168222.32000000001,"N_COORD97":2544723.5600000001,"ADDRESS":"西門路三段４５巷８號","OBJECTID":359912},"geometry":{"x":168222.32000000123,"y":2544723.5600000024}},{"attributes":{"ID":359923,"DIS_CODE":0,"TOWNNAME":"東區","LI":"大智里","LIN":"19鄰","STREET":"崇善十五街","SECT":" ","MAREA":" ","LANE":"５０巷","ALLEY":" ","HOUSE_NO":"６號","E_COORD97":171302.10999999999,"N_COORD97":2540579.9100000001,"ADDRESS":"崇善十五街５０巷６號","OBJECTID":359913},"geometry":{"x":171302.11000000127,"y":2540579.9100000001}},{"attributes":{"ID":359924,"DIS_CODE":0,"TOWNNAME":"學甲區","LI":"新達里","LIN":"25鄰","STREET":" ","SECT":" ","MAREA":"瓦寮","LANE":" ","ALLEY":" ","HOUSE_NO":"２６號","E_COORD97":169602.92000000001,"N_COORD97":2570217.6400000001,"ADDRESS":"瓦寮２６號","OBJECTID":359914},"geometry":{"x":169602.92000000086,"y":2570217.6400000006}},{"attributes":{"ID":359925,"DIS_CODE":0,"TOWNNAME":"東區","LI":"大智里","LIN":"19鄰","STREET":"崇善十五街","SECT":" ","MAREA":" ","LANE":"５０巷","ALLEY":" ","HOUSE_NO":"７號","E_COORD97":171282.54000000001,"N_COORD97":2540575.5299999998,"ADDRESS":"崇善十五街５０巷７號","OBJECTID":359915},"geometry":{"x":171282.54000000004,"y":2540575.5300000031}},{"attributes":{"ID":359926,"DIS_CODE":0,"TOWNNAME":"南區","LI":"南都里","LIN":"8鄰","STREET":"中華南路","SECT":"二段","MAREA":" ","LANE":" ","ALLEY":" ","HOUSE_NO":"３０１號三樓","E_COORD97":166500.04000000001,"N_COORD97":2540257.1600000001,"ADDRESS":"中華南路二段３０１號三樓","OBJECTID":359916},"geometry":{"x":166500.04000000097,"y":2540257.160000002}},{"attributes":{"ID":359927,"DIS_CODE":0,"TOWNNAME":"學甲區","LI":"新達里","LIN":"25鄰","STREET":" ","SECT":" ","MAREA":"瓦寮","LANE":" ","ALLEY":" ","HOUSE_NO":"２７號之１２","E_COORD97":169442.5,"N_COORD97":2569861.3599999999,"ADDRESS":"瓦寮２７號之１２","OBJECTID":359917},"geometry":{"x":169442.50000000093,"y":2569861.3599999994}},{"attributes":{"ID":359928,"DIS_CODE":0,"TOWNNAME":"學甲區","LI":"新達里","LIN":"25鄰","STREET":" ","SECT":" ","MAREA":"瓦寮","LANE":" ","ALLEY":" ","HOUSE_NO":"２７號之１","E_COORD97":169801.82000000001,"N_COORD97":2570163.5499999998,"ADDRESS":"瓦寮２７號之１","OBJECTID":359918},"geometry":{"x":169801.82000000123,"y":2570163.5500000007}},{"attributes":{"ID":359929,"DIS_CODE":0,"TOWNNAME":"學甲區","LI":"新達里","LIN":"25鄰","STREET":" ","SECT":" ","MAREA":"瓦寮","LANE":" ","ALLEY":" ","HOUSE_NO":"２７號之２","E_COORD97":169449.60999999999,"N_COORD97":2570018.7799999998,"ADDRESS":"瓦寮２７號之２","OBJECTID":359919},"geometry":{"x":169449.61000000034,"y":2570018.7799999993}},{"attributes":{"ID":359930,"DIS_CODE":0,"TOWNNAME":"學甲區","LI":"新達里","LIN":"25鄰","STREET":" ","SECT":" ","MAREA":"瓦寮","LANE":" ","ALLEY":" ","HOUSE_NO":"２７號之３","E_COORD97":169755.29000000001,"N_COORD97":2570126.6099999999,"ADDRESS":"瓦寮２７號之３","OBJECTID":359920},"geometry":{"x":169755.29000000004,"y":2570126.6100000013}},{"attributes":{"ID":359931,"DIS_CODE":0,"TOWNNAME":"學甲區","LI":"三慶里","LIN":"25鄰","STREET":" ","SECT":" ","MAREA":"新芳","LANE":" ","ALLEY":" ","HOUSE_NO":"２號之１０","E_COORD97":167439.92999999999,"N_COORD97":2575072.3599999999,"ADDRESS":"新芳２號之１０","OBJECTID":359921},"geometry":{"x":167439.9299999997,"y":2575072.3599999994}},{"attributes":{"ID":359932,"DIS_CODE":0,"TOWNNAME":"學甲區","LI":"三慶里","LIN":"25鄰","STREET":" ","SECT":" ","MAREA":"新芳","LANE":" ","ALLEY":" ","HOUSE_NO":"２號之１２","E_COORD97":167459.54999999999,"N_COORD97":2575002.4100000001,"ADDRESS":"新芳２號之１２","OBJECTID":359922},"geometry":{"x":167459.54999999981,"y":2575002.4100000001}},{"attributes":{"ID":359933,"DIS_CODE":0,"TOWNNAME":"學甲區","LI":"三慶里","LIN":"25鄰","STREET":" ","SECT":" ","MAREA":"新芳","LANE":" ","ALLEY":" ","HOUSE_NO":"２號之１６","E_COORD97":167442.94,"N_COORD97":2574968.1000000001,"ADDRESS":"新芳２號之１６","OBJECTID":359923},"geometry":{"x":167442.94000000227,"y":2574968.1000000015}},{"attributes":{"ID":359934,"DIS_CODE":0,"TOWNNAME":"學甲區","LI":"三慶里","LIN":"25鄰","STREET":" ","SECT":" ","MAREA":"新芳","LANE":" ","ALLEY":" ","HOUSE_NO":"２號","E_COORD97":167440.95000000001,"N_COORD97":2575143.1499999999,"ADDRESS":"新芳２號","OBJECTID":359924},"geometry":{"x":167440.95000000205,"y":2575143.1500000004}},{"attributes":{"ID":359935,"DIS_CODE":0,"TOWNNAME":"北區","LI":"文元里","LIN":"25鄰","STREET":"文成路","SECT":" ","MAREA":" ","LANE":"７５０巷","ALLEY":" ","HOUSE_NO":"２００號","E_COORD97":167621.69,"N_COORD97":2546162.02,"ADDRESS":"文成路７５０巷２００號","OBJECTID":359925},"geometry":{"x":167621.69000000041,"y":2546162.0199999996}},{"attributes":{"ID":359936,"DIS_CODE":0,"TOWNNAME":"北區","LI":"成功里","LIN":"25鄰","STREET":"北成路","SECT":" ","MAREA":" ","LANE":"１２８巷","ALLEY":" ","HOUSE_NO":"５９號","E_COORD97":168981.62,"N_COORD97":2546847.8599999999,"ADDRESS":"北成路１２８巷５９號","OBJECTID":359926},"geometry":{"x":168981.62000000011,"y":2546847.8599999994}},{"attributes":{"ID":359937,"DIS_CODE":0,"TOWNNAME":"北區","LI":"成功里","LIN":"25鄰","STREET":"北成路","SECT":" ","MAREA":" ","LANE":"１２８巷","ALLEY":" ","HOUSE_NO":"６１號","E_COORD97":168983.39000000001,"N_COORD97":2546852.3100000001,"ADDRESS":"北成路１２８巷６１號","OBJECTID":359927},"geometry":{"x":168983.39000000153,"y":2546852.3100000005}},{"attributes":{"ID":359938,"DIS_CODE":0,"TOWNNAME":"北區","LI":"成功里","LIN":"25鄰","STREET":"北成路","SECT":" ","MAREA":" ","LANE":"１２８巷","ALLEY":" ","HOUSE_NO":"６３號","E_COORD97":168985.54999999999,"N_COORD97":2546856.3700000001,"ADDRESS":"北成路１２８巷６３號","OBJECTID":359928},"geometry":{"x":168985.54999999981,"y":2546856.370000001}},{"attributes":{"ID":359939,"DIS_CODE":0,"TOWNNAME":"北區","LI":"成功里","LIN":"25鄰","STREET":"北成路","SECT":" ","MAREA":" ","LANE":"１２８巷","ALLEY":" ","HOUSE_NO":"６５號","E_COORD97":168987.84,"N_COORD97":2546861.0699999998,"ADDRESS":"北成路１２８巷６５號","OBJECTID":359929},"geometry":{"x":168987.84000000078,"y":2546861.0700000003}},{"attributes":{"ID":359940,"DIS_CODE":0,"TOWNNAME":"東區","LI":"大智里","LIN":"19鄰","STREET":"崇善十五街","SECT":" ","MAREA":" ","LANE":"５０巷","ALLEY":" ","HOUSE_NO":"８號","E_COORD97":171300.64999999999,"N_COORD97":2540585.0299999998,"ADDRESS":"崇善十五街５０巷８號","OBJECTID":359930},"geometry":{"x":171300.65000000037,"y":2540585.0299999993}},{"attributes":{"ID":359941,"DIS_CODE":0,"TOWNNAME":"東區","LI":"大智里","LIN":"19鄰","STREET":"崇善十五街","SECT":" ","MAREA":" ","LANE":"５０巷","ALLEY":" ","HOUSE_NO":"９號","E_COORD97":171280.89000000001,"N_COORD97":2540579.73,"ADDRESS":"崇善十五街５０巷９號","OBJECTID":359931},"geometry":{"x":171280.8900000006,"y":2540579.7300000023}},{"attributes":{"ID":359942,"DIS_CODE":0,"TOWNNAME":"仁德區","LI":"後壁里","LIN":"19鄰","STREET":"德崙路","SECT":" ","MAREA":" ","LANE":"２１巷","ALLEY":" ","HOUSE_NO":"２３號","E_COORD97":173279.92999999999,"N_COORD97":2538664.77,"ADDRESS":"德崙路２１巷２３號","OBJECTID":359932},"geometry":{"x":173279.9299999997,"y":2538664.7699999996}},{"attributes":{"ID":359943,"DIS_CODE":0,"TOWNNAME":"仁德區","LI":"後壁里","LIN":"19鄰","STREET":"德崙路","SECT":" ","MAREA":" ","LANE":"２１巷","ALLEY":" ","HOUSE_NO":"３９號","E_COORD97":173273.92999999999,"N_COORD97":2538696.7599999998,"ADDRESS":"德崙路２１巷３９號","OBJECTID":359933},"geometry":{"x":173273.93000000063,"y":2538696.7600000016}},{"attributes":{"ID":359944,"DIS_CODE":0,"TOWNNAME":"仁德區","LI":"後壁里","LIN":"19鄰","STREET":"德崙路","SECT":" ","MAREA":" ","LANE":"２１巷","ALLEY":" ","HOUSE_NO":"１３號","E_COORD97":173277.76000000001,"N_COORD97":2538642.02,"ADDRESS":"德崙路２１巷１３號","OBJECTID":359934},"geometry":{"x":173277.75999999978,"y":2538642.0199999996}},{"attributes":{"ID":359945,"DIS_CODE":0,"TOWNNAME":"仁德區","LI":"後壁里","LIN":"19鄰","STREET":"德崙路","SECT":" ","MAREA":" ","LANE":"２１巷","ALLEY":" ","HOUSE_NO":"２５號","E_COORD97":173277.04000000001,"N_COORD97":2538667.77,"ADDRESS":"德崙路２１巷２５號","OBJECTID":359935},"geometry":{"x":173277.04000000097,"y":2538667.7699999996}},{"attributes":{"ID":359946,"DIS_CODE":0,"TOWNNAME":"仁德區","LI":"後壁里","LIN":"19鄰","STREET":"德崙路","SECT":" ","MAREA":" ","LANE":"２１巷","ALLEY":" ","HOUSE_NO":"２１號","E_COORD97":173283.14999999999,"N_COORD97":2538661.77,"ADDRESS":"德崙路２１巷２１號","OBJECTID":359936},"geometry":{"x":173283.1500000013,"y":2538661.7700000033}},{"attributes":{"ID":359947,"DIS_CODE":0,"TOWNNAME":"仁德區","LI":"後壁里","LIN":"19鄰","STREET":"德崙路","SECT":" ","MAREA":" ","LANE":"２１巷","ALLEY":" ","HOUSE_NO":"４１號","E_COORD97":173273.98999999999,"N_COORD97":2538700.5099999998,"ADDRESS":"德崙路２１巷４１號","OBJECTID":359937},"geometry":{"x":173273.99000000115,"y":2538700.5099999998}},{"attributes":{"ID":359948,"DIS_CODE":0,"TOWNNAME":"仁德區","LI":"後壁里","LIN":"19鄰","STREET":"德崙路","SECT":" ","MAREA":" ","LANE":"２１巷","ALLEY":" ","HOUSE_NO":"１１號","E_COORD97":173275.12,"N_COORD97":2538638.77,"ADDRESS":"德崙路２１巷１１號","OBJECTID":359938},"geometry":{"x":173275.12000000104,"y":2538638.7700000014}},{"attributes":{"ID":359949,"DIS_CODE":0,"TOWNNAME":"仁德區","LI":"後壁里","LIN":"19鄰","STREET":"德崙路","SECT":" ","MAREA":" ","LANE":"２１巷","ALLEY":" ","HOUSE_NO":"１７號","E_COORD97":173289.14999999999,"N_COORD97":2538656.52,"ADDRESS":"德崙路２１巷１７號","OBJECTID":359939},"geometry":{"x":173289.15000000037,"y":2538656.5199999977}},{"attributes":{"ID":359950,"DIS_CODE":0,"TOWNNAME":"仁德區","LI":"後壁里","LIN":"19鄰","STREET":"中正路","SECT":"二段","MAREA":" ","LANE":"１８８巷","ALLEY":" ","HOUSE_NO":"８號","E_COORD97":173258.73999999999,"N_COORD97":2538708.27,"ADDRESS":"中正路二段１８８巷８號","OBJECTID":359940},"geometry":{"x":173258.74000000115,"y":2538708.2699999996}},{"attributes":{"ID":359951,"DIS_CODE":0,"TOWNNAME":"安南區","LI":"淵中里","LIN":"19鄰","STREET":"安中路","SECT":"四段","MAREA":" ","LANE":"１９７巷","ALLEY":" ","HOUSE_NO":"３４號","E_COORD97":164730.66,"N_COORD97":2550001.8900000001,"ADDRESS":"安中路四段１９７巷３４號","OBJECTID":359941},"geometry":{"x":164730.66000000108,"y":2550001.8900000006}},{"attributes":{"ID":359952,"DIS_CODE":0,"TOWNNAME":"安南區","LI":"淵中里","LIN":"19鄰","STREET":"安中路","SECT":"四段","MAREA":" ","LANE":"１９７巷","ALLEY":" ","HOUSE_NO":"３６號","E_COORD97":164729.91,"N_COORD97":2549998.4700000002,"ADDRESS":"安中路四段１９７巷３６號","OBJECTID":359942},"geometry":{"x":164729.91000000015,"y":2549998.4700000007}},{"attributes":{"ID":359953,"DIS_CODE":0,"TOWNNAME":"安南區","LI":"淵中里","LIN":"19鄰","STREET":"安中路","SECT":"四段","MAREA":" ","LANE":"１９７巷","ALLEY":" ","HOUSE_NO":"３８號","E_COORD97":164728.73999999999,"N_COORD97":2549994.4700000002,"ADDRESS":"安中路四段１９７巷３８號","OBJECTID":359943},"geometry":{"x":164728.74000000115,"y":2549994.4700000007}},{"attributes":{"ID":359954,"DIS_CODE":0,"TOWNNAME":"中西區","LI":"西賢里","LIN":"19鄰","STREET":"西賢一街","SECT":" ","MAREA":" ","LANE":"１０９巷","ALLEY":" ","HOUSE_NO":"１３號","E_COORD97":165646.10000000001,"N_COORD97":2544731.4100000001,"ADDRESS":"西賢一街１０９巷１３號","OBJECTID":359944},"geometry":{"x":165646.10000000056,"y":2544731.410000002}},{"attributes":{"ID":359955,"DIS_CODE":0,"TOWNNAME":"中西區","LI":"西賢里","LIN":"19鄰","STREET":"西賢一街","SECT":" ","MAREA":" ","LANE":"１０９巷","ALLEY":" ","HOUSE_NO":"１５號","E_COORD97":165642.12,"N_COORD97":2544731.25,"ADDRESS":"西賢一街１０９巷１５號","OBJECTID":359945},"geometry":{"x":165642.12000000011,"y":2544731.2500000037}},{"attributes":{"ID":359956,"DIS_CODE":0,"TOWNNAME":"中西區","LI":"西賢里","LIN":"19鄰","STREET":"西賢一街","SECT":" ","MAREA":" ","LANE":"１０９巷","ALLEY":" ","HOUSE_NO":"１７號","E_COORD97":165637.17999999999,"N_COORD97":2544731.5699999998,"ADDRESS":"西賢一街１０９巷１７號","OBJECTID":359946},"geometry":{"x":165637.18000000063,"y":2544731.5700000003}},{"attributes":{"ID":359957,"DIS_CODE":0,"TOWNNAME":"中西區","LI":"西賢里","LIN":"19鄰","STREET":"西賢一街","SECT":" ","MAREA":" ","LANE":"１０９巷","ALLEY":" ","HOUSE_NO":"１９號","E_COORD97":165633.51999999999,"N_COORD97":2544731.8799999999,"ADDRESS":"西賢一街１０９巷１９號","OBJECTID":359947},"geometry":{"x":165633.51999999955,"y":2544731.879999999}},{"attributes":{"ID":359958,"DIS_CODE":0,"TOWNNAME":"中西區","LI":"西賢里","LIN":"19鄰","STREET":"西賢一街","SECT":" ","MAREA":" ","LANE":"１０９巷","ALLEY":" ","HOUSE_NO":"１號","E_COORD97":165670.64000000001,"N_COORD97":2544730.6099999999,"ADDRESS":"西賢一街１０９巷１號","OBJECTID":359948},"geometry":{"x":165670.63999999966,"y":2544730.6099999994}},{"attributes":{"ID":359959,"DIS_CODE":0,"TOWNNAME":"南區","LI":"南都里","LIN":"8鄰","STREET":"中華南路","SECT":"二段","MAREA":" ","LANE":" ","ALLEY":" ","HOUSE_NO":"３０１號五樓","E_COORD97":166500.04000000001,"N_COORD97":2540257.1600000001,"ADDRESS":"中華南路二段３０１號五樓","OBJECTID":359949},"geometry":{"x":166500.04000000097,"y":2540257.160000002}},{"attributes":{"ID":359960,"DIS_CODE":0,"TOWNNAME":"南區","LI":"南都里","LIN":"8鄰","STREET":"中華南路","SECT":"二段","MAREA":" ","LANE":" ","ALLEY":" ","HOUSE_NO":"３０１號四樓","E_COORD97":166500.04000000001,"N_COORD97":2540257.1600000001,"ADDRESS":"中華南路二段３０１號四樓","OBJECTID":359950},"geometry":{"x":166500.04000000097,"y":2540257.160000002}},{"attributes":{"ID":359961,"DIS_CODE":0,"TOWNNAME":"南區","LI":"南都里","LIN":"8鄰","STREET":"中華南路","SECT":"二段","MAREA":" ","LANE":" ","ALLEY":" ","HOUSE_NO":"３０５號三樓","E_COORD97":166490.98999999999,"N_COORD97":2540257.1600000001,"ADDRESS":"中華南路二段３０５號三樓","OBJECTID":359951},"geometry":{"x":166490.99000000022,"y":2540257.160000002}},{"attributes":{"ID":359962,"DIS_CODE":0,"TOWNNAME":"南區","LI":"南都里","LIN":"8鄰","STREET":"中華南路","SECT":"二段","MAREA":" ","LANE":" ","ALLEY":" ","HOUSE_NO":"３０５號五樓","E_COORD97":166490.98999999999,"N_COORD97":2540257.1600000001,"ADDRESS":"中華南路二段３０５號五樓","OBJECTID":359952},"geometry":{"x":166490.99000000022,"y":2540257.160000002}},{"attributes":{"ID":359963,"DIS_CODE":0,"TOWNNAME":"南區","LI":"南都里","LIN":"8鄰","STREET":"中華南路","SECT":"二段","MAREA":" ","LANE":" ","ALLEY":" ","HOUSE_NO":"３０５號四樓","E_COORD97":166490.98999999999,"N_COORD97":2540257.1600000001,"ADDRESS":"中華南路二段３０５號四樓","OBJECTID":359953},"geometry":{"x":166490.99000000022,"y":2540257.160000002}},{"attributes":{"ID":359964,"DIS_CODE":0,"TOWNNAME":"永康區","LI":"復國里","LIN":"25鄰","STREET":"復華三街","SECT":" ","MAREA":" ","LANE":"９０巷","ALLEY":" ","HOUSE_NO":"１８號十六樓之１","E_COORD97":172640.79999999999,"N_COORD97":2545614.2999999998,"ADDRESS":"復華三街９０巷１８號十六樓之１","OBJECTID":359954},"geometry":{"x":172640.80000000075,"y":2545614.3000000026}},{"attributes":{"ID":359965,"DIS_CODE":0,"TOWNNAME":"永康區","LI":"復國里","LIN":"25鄰","STREET":"復華三街","SECT":" ","MAREA":" ","LANE":"９０巷","ALLEY":" ","HOUSE_NO":"１８號十二樓之２","E_COORD97":172640.92999999999,"N_COORD97":2545614.2999999998,"ADDRESS":"復華三街９０巷１８號十二樓之２","OBJECTID":359955},"geometry":{"x":172640.9299999997,"y":2545614.3000000026}},{"attributes":{"ID":359966,"DIS_CODE":0,"TOWNNAME":"永康區","LI":"復國里","LIN":"25鄰","STREET":"復華三街","SECT":" ","MAREA":" ","LANE":"９０巷","ALLEY":" ","HOUSE_NO":"１８號十樓之１","E_COORD97":172639.54999999999,"N_COORD97":2545614.2999999998,"ADDRESS":"復華三街９０巷１８號十樓之１","OBJECTID":359956},"geometry":{"x":172639.55000000075,"y":2545614.3000000026}},{"attributes":{"ID":359967,"DIS_CODE":0,"TOWNNAME":"永康區","LI":"復國里","LIN":"25鄰","STREET":"復華三街","SECT":" ","MAREA":" ","LANE":"９０巷","ALLEY":" ","HOUSE_NO":"１８號十三樓之３","E_COORD97":172640.89000000001,"N_COORD97":2545614.2999999998,"ADDRESS":"復華三街９０巷１８號十三樓之３","OBJECTID":359957},"geometry":{"x":172640.88999999966,"y":2545614.3000000026}},{"attributes":{"ID":359968,"DIS_CODE":0,"TOWNNAME":"中西區","LI":"西賢里","LIN":"19鄰","STREET":"西賢一街","SECT":" ","MAREA":" ","LANE":"９５巷","ALLEY":" ","HOUSE_NO":"１８號","E_COORD97":165646.57999999999,"N_COORD97":2544717.3999999999,"ADDRESS":"西賢一街９５巷１８號","OBJECTID":359958},"geometry":{"x":165646.58000000101,"y":2544717.4000000022}},{"attributes":{"ID":359969,"DIS_CODE":0,"TOWNNAME":"永康區","LI":"復國里","LIN":"25鄰","STREET":"復華三街","SECT":" ","MAREA":" ","LANE":"９０巷","ALLEY":" ","HOUSE_NO":"１８號十一樓之１","E_COORD97":172640.79999999999,"N_COORD97":2545614.2999999998,"ADDRESS":"復華三街９０巷１８號十一樓之１","OBJECTID":359959},"geometry":{"x":172640.80000000075,"y":2545614.3000000026}},{"attributes":{"ID":359970,"DIS_CODE":0,"TOWNNAME":"永康區","LI":"復國里","LIN":"25鄰","STREET":"復華三街","SECT":" ","MAREA":" ","LANE":"９０巷","ALLEY":" ","HOUSE_NO":"１８號八樓之１","E_COORD97":172639.54999999999,"N_COORD97":2545614.2999999998,"ADDRESS":"復華三街９０巷１８號八樓之１","OBJECTID":359960},"geometry":{"x":172639.55000000075,"y":2545614.3000000026}},{"attributes":{"ID":359971,"DIS_CODE":0,"TOWNNAME":"中西區","LI":"西賢里","LIN":"19鄰","STREET":"西賢一街","SECT":" ","MAREA":" ","LANE":"１０９巷","ALLEY":" ","HOUSE_NO":"２１號","E_COORD97":165629.53,"N_COORD97":2544731.5699999998,"ADDRESS":"西賢一街１０９巷２１號","OBJECTID":359961},"geometry":{"x":165629.53000000026,"y":2544731.5700000003}},{"attributes":{"ID":359972,"DIS_CODE":0,"TOWNNAME":"安南區","LI":"安西里","LIN":"4鄰","STREET":"安和路","SECT":"一段","MAREA":" ","LANE":" ","ALLEY":" ","HOUSE_NO":"２５５號","E_COORD97":169289.01999999999,"N_COORD97":2548016.1800000002,"ADDRESS":"安和路一段２５５號","OBJECTID":359962},"geometry":{"x":169289.01999999862,"y":2548016.1799999997}},{"attributes":{"ID":359973,"DIS_CODE":0,"TOWNNAME":"安南區","LI":"安西里","LIN":"11鄰","STREET":"安中路","SECT":"一段","MAREA":" ","LANE":" ","ALLEY":" ","HOUSE_NO":"５號","E_COORD97":169240.92999999999,"N_COORD97":2548178.6400000001,"ADDRESS":"安中路一段５號","OBJECTID":359963},"geometry":{"x":169240.93000000063,"y":2548178.6400000025}},{"attributes":{"ID":359974,"DIS_CODE":0,"TOWNNAME":"安南區","LI":"安西里","LIN":" ","STREET":"安通路","SECT":"四段","MAREA":" ","LANE":" ","ALLEY":" ","HOUSE_NO":"２號","E_COORD97":169354.10000000001,"N_COORD97":2547783.3100000001,"ADDRESS":"安通路四段２號","OBJECTID":359964},"geometry":{"x":169354.09999999963,"y":2547783.3100000024}},{"attributes":{"ID":359975,"DIS_CODE":0,"TOWNNAME":"安南區","LI":"安西里","LIN":" ","STREET":"安通路","SECT":"四段","MAREA":" ","LANE":" ","ALLEY":" ","HOUSE_NO":"１４號","E_COORD97":169298.98000000001,"N_COORD97":2547764.5699999998,"ADDRESS":"安通路四段１４號","OBJECTID":359965},"geometry":{"x":169298.98000000138,"y":2547764.5700000022}},{"attributes":{"ID":359976,"DIS_CODE":0,"TOWNNAME":"安南區","LI":"安西里","LIN":" ","STREET":"安通路","SECT":"四段","MAREA":" ","LANE":" ","ALLEY":" ","HOUSE_NO":"６０之１號","E_COORD97":169059.95999999999,"N_COORD97":2547731.1899999999,"ADDRESS":"安通路四段６０之１號","OBJECTID":359966},"geometry":{"x":169059.96000000089,"y":2547731.1899999995}},{"attributes":{"ID":359977,"DIS_CODE":0,"TOWNNAME":"安南區","LI":"安東里","LIN":" ","STREET":"安和路","SECT":"一段","MAREA":" ","LANE":" ","ALLEY":" ","HOUSE_NO":"３８８號","E_COORD97":169330.07000000001,"N_COORD97":2548274.9100000001,"ADDRESS":"安和路一段３８８號","OBJECTID":359967},"geometry":{"x":169330.0700000003,"y":2548274.9100000001}},{"attributes":{"ID":359978,"DIS_CODE":0,"TOWNNAME":"安南區","LI":"安東里","LIN":" ","STREET":"安和路","SECT":"一段","MAREA":" ","LANE":" ","ALLEY":" ","HOUSE_NO":"３９２號","E_COORD97":169334.26999999999,"N_COORD97":2548283.5699999998,"ADDRESS":"安和路一段３９２號","OBJECTID":359968},"geometry":{"x":169334.26999999955,"y":2548283.5700000022}},{"attributes":{"ID":359979,"DIS_CODE":0,"TOWNNAME":"安南區","LI":"安東里","LIN":" ","STREET":"安和路","SECT":"二段","MAREA":" ","LANE":" ","ALLEY":" ","HOUSE_NO":"３號","E_COORD97":169461.41,"N_COORD97":2548522.5699999998,"ADDRESS":"安和路二段３號","OBJECTID":359969},"geometry":{"x":169461.41000000015,"y":2548522.5700000003}},{"attributes":{"ID":359980,"DIS_CODE":0,"TOWNNAME":"安南區","LI":"安東里","LIN":" ","STREET":"安和路","SECT":"二段","MAREA":" ","LANE":" ","ALLEY":" ","HOUSE_NO":"９號","E_COORD97":169473.42999999999,"N_COORD97":2548523.6899999999,"ADDRESS":"安和路二段９號","OBJECTID":359970},"geometry":{"x":169473.43000000063,"y":2548523.6899999995}},{"attributes":{"ID":359981,"DIS_CODE":0,"TOWNNAME":"中西區","LI":"西賢里","LIN":"19鄰","STREET":"西賢一街","SECT":" ","MAREA":" ","LANE":"１０９巷","ALLEY":" ","HOUSE_NO":"２３號","E_COORD97":165624.92000000001,"N_COORD97":2544731.7400000002,"ADDRESS":"西賢一街１０９巷２３號","OBJECTID":359971},"geometry":{"x":165624.91999999993,"y":2544731.7400000021}},{"attributes":{"ID":359982,"DIS_CODE":0,"TOWNNAME":"玉井區","LI":"沙田里","LIN":"4鄰","STREET":" ","SECT":" ","MAREA":"沙田","LANE":" ","ALLEY":" ","HOUSE_NO":"３５號之２","E_COORD97":196537.84,"N_COORD97":2556548.29,"ADDRESS":"沙田３５號之２","OBJECTID":359972},"geometry":{"x":196537.84000000078,"y":2556548.2899999991}},{"attributes":{"ID":359983,"DIS_CODE":0,"TOWNNAME":"中西區","LI":"西賢里","LIN":"19鄰","STREET":"西賢一街","SECT":" ","MAREA":" ","LANE":"１０９巷","ALLEY":" ","HOUSE_NO":"２５號","E_COORD97":165620.22,"N_COORD97":2544731.9399999999,"ADDRESS":"西賢一街１０９巷２５號","OBJECTID":359973},"geometry":{"x":165620.22000000067,"y":2544731.9399999995}},{"attributes":{"ID":359984,"DIS_CODE":0,"TOWNNAME":"中西區","LI":"西賢里","LIN":"19鄰","STREET":"西賢一街","SECT":" ","MAREA":" ","LANE":"１０９巷","ALLEY":" ","HOUSE_NO":"２７號","E_COORD97":165616.32000000001,"N_COORD97":2544731.9399999999,"ADDRESS":"西賢一街１０９巷２７號","OBJECTID":359974},"geometry":{"x":165616.32000000123,"y":2544731.9399999995}},{"attributes":{"ID":359985,"DIS_CODE":0,"TOWNNAME":"中西區","LI":"西賢里","LIN":"19鄰","STREET":"西賢一街","SECT":" ","MAREA":" ","LANE":"１０９巷","ALLEY":" ","HOUSE_NO":"２９號","E_COORD97":165611.72,"N_COORD97":2544731.8399999999,"ADDRESS":"西賢一街１０９巷２９號","OBJECTID":359975},"geometry":{"x":165611.72000000067,"y":2544731.8400000017}},{"attributes":{"ID":359986,"DIS_CODE":0,"TOWNNAME":"中西區","LI":"西賢里","LIN":"19鄰","STREET":"西賢一街","SECT":" ","MAREA":" ","LANE":"１０９巷","ALLEY":" ","HOUSE_NO":"３１號","E_COORD97":165607.70999999999,"N_COORD97":2544731.8399999999,"ADDRESS":"西賢一街１０９巷３１號","OBJECTID":359976},"geometry":{"x":165607.70999999996,"y":2544731.8400000017}},{"attributes":{"ID":359987,"DIS_CODE":0,"TOWNNAME":"中西區","LI":"西賢里","LIN":"19鄰","STREET":"西賢一街","SECT":" ","MAREA":" ","LANE":"１０９巷","ALLEY":" ","HOUSE_NO":"３３號","E_COORD97":165603.70999999999,"N_COORD97":2544731.6400000001,"ADDRESS":"西賢一街１０９巷３３號","OBJECTID":359977},"geometry":{"x":165603.71000000089,"y":2544731.6400000006}},{"attributes":{"ID":359988,"DIS_CODE":0,"TOWNNAME":"中西區","LI":"西賢里","LIN":"19鄰","STREET":"西賢一街","SECT":" ","MAREA":" ","LANE":"１０９巷","ALLEY":" ","HOUSE_NO":"３５號","E_COORD97":165599.20999999999,"N_COORD97":2544732.3399999999,"ADDRESS":"西賢一街１０９巷３５號","OBJECTID":359978},"geometry":{"x":165599.20999999996,"y":2544732.3399999999}},{"attributes":{"ID":359989,"DIS_CODE":0,"TOWNNAME":"中西區","LI":"西賢里","LIN":"19鄰","STREET":"西賢一街","SECT":" ","MAREA":" ","LANE":"１０９巷","ALLEY":" ","HOUSE_NO":"３７號","E_COORD97":165594.91,"N_COORD97":2544731.8399999999,"ADDRESS":"西賢一街１０９巷３７號","OBJECTID":359979},"geometry":{"x":165594.90999999922,"y":2544731.8400000017}},{"attributes":{"ID":359990,"DIS_CODE":0,"TOWNNAME":"中西區","LI":"西賢里","LIN":"19鄰","STREET":"西賢一街","SECT":" ","MAREA":" ","LANE":"１０９巷","ALLEY":" ","HOUSE_NO":"３９號","E_COORD97":165590.91,"N_COORD97":2544731.7400000002,"ADDRESS":"西賢一街１０９巷３９號","OBJECTID":359980},"geometry":{"x":165590.91000000015,"y":2544731.7400000021}},{"attributes":{"ID":359991,"DIS_CODE":0,"TOWNNAME":"中西區","LI":"西賢里","LIN":"19鄰","STREET":"西賢一街","SECT":" ","MAREA":" ","LANE":"１０９巷","ALLEY":" ","HOUSE_NO":"３號","E_COORD97":165666.66,"N_COORD97":2544731.25,"ADDRESS":"西賢一街１０９巷３號","OBJECTID":359981},"geometry":{"x":165666.66000000108,"y":2544731.2500000037}},{"attributes":{"ID":359992,"DIS_CODE":0,"TOWNNAME":"中西區","LI":"西賢里","LIN":"19鄰","STREET":"西賢一街","SECT":" ","MAREA":" ","LANE":"１０９巷","ALLEY":" ","HOUSE_NO":"４１號","E_COORD97":165586.10999999999,"N_COORD97":2544731.8399999999,"ADDRESS":"西賢一街１０９巷４１號","OBJECTID":359982},"geometry":{"x":165586.11000000127,"y":2544731.8400000017}},{"attributes":{"ID":359993,"DIS_CODE":0,"TOWNNAME":"中西區","LI":"西賢里","LIN":"19鄰","STREET":"西賢一街","SECT":" ","MAREA":" ","LANE":"１０９巷","ALLEY":" ","HOUSE_NO":"４３號","E_COORD97":165582.98000000001,"N_COORD97":2544731.4300000002,"ADDRESS":"西賢一街１０９巷４３號","OBJECTID":359983},"geometry":{"x":165582.98000000231,"y":2544731.4299999997}},{"attributes":{"ID":359994,"DIS_CODE":0,"TOWNNAME":"中西區","LI":"西賢里","LIN":"19鄰","STREET":"西賢一街","SECT":" ","MAREA":" ","LANE":"１０９巷","ALLEY":" ","HOUSE_NO":"７號","E_COORD97":165658.20999999999,"N_COORD97":2544731.25,"ADDRESS":"西賢一街１０９巷７號","OBJECTID":359984},"geometry":{"x":165658.20999999996,"y":2544731.2500000037}},{"attributes":{"ID":359995,"DIS_CODE":0,"TOWNNAME":"中西區","LI":"西賢里","LIN":"19鄰","STREET":"西賢一街","SECT":" ","MAREA":" ","LANE":"１０９巷","ALLEY":" ","HOUSE_NO":"９號","E_COORD97":165654.54999999999,"N_COORD97":2544731.4100000001,"ADDRESS":"西賢一街１０９巷９號","OBJECTID":359985},"geometry":{"x":165654.54999999981,"y":2544731.410000002}},{"attributes":{"ID":359996,"DIS_CODE":0,"TOWNNAME":"中西區","LI":"西賢里","LIN":"19鄰","STREET":"西賢一街","SECT":" ","MAREA":" ","LANE":"９５巷","ALLEY":" ","HOUSE_NO":"１０號","E_COORD97":165658.69,"N_COORD97":2544716.9300000002,"ADDRESS":"西賢一街９５巷１０號","OBJECTID":359986},"geometry":{"x":165658.69000000041,"y":2544716.9300000016}},{"attributes":{"ID":359997,"DIS_CODE":0,"TOWNNAME":"中西區","LI":"西賢里","LIN":"19鄰","STREET":"西賢一街","SECT":" ","MAREA":" ","LANE":"９５巷","ALLEY":" ","HOUSE_NO":"１２號","E_COORD97":165654.23000000001,"N_COORD97":2544717.0899999999,"ADDRESS":"西賢一街９５巷１２號","OBJECTID":359987},"geometry":{"x":165654.23000000231,"y":2544717.0899999999}},{"attributes":{"ID":359998,"DIS_CODE":0,"TOWNNAME":"中西區","LI":"西賢里","LIN":"19鄰","STREET":"西賢一街","SECT":" ","MAREA":" ","LANE":"９５巷","ALLEY":" ","HOUSE_NO":"１６號","E_COORD97":165650.72,"N_COORD97":2544717.2400000002,"ADDRESS":"西賢一街９５巷１６號","OBJECTID":359988},"geometry":{"x":165650.72000000067,"y":2544717.2400000002}},{"attributes":{"ID":359999,"DIS_CODE":0,"TOWNNAME":"玉井區","LI":"沙田里","LIN":"5鄰","STREET":" ","SECT":" ","MAREA":"沙田","LANE":" ","ALLEY":" ","HOUSE_NO":"５１號之１","E_COORD97":198036.79999999999,"N_COORD97":2557898.29,"ADDRESS":"沙田５１號之１","OBJECTID":359989},"geometry":{"x":198036.80000000075,"y":2557898.2900000028}},{"attributes":{"ID":360000,"DIS_CODE":0,"TOWNNAME":"東區","LI":"崇德里","LIN":"25鄰","STREET":"崇道路","SECT":" ","MAREA":" ","LANE":"１９巷","ALLEY":" ","HOUSE_NO":"８號四樓之１","E_COORD97":170639.54000000001,"N_COORD97":2541450,"ADDRESS":"崇道路１９巷８號四樓之１","OBJECTID":359990},"geometry":{"x":170639.54000000097,"y":2541450}},{"attributes":{"ID":360001,"DIS_CODE":0,"TOWNNAME":"中西區","LI":"西賢里","LIN":"19鄰","STREET":"西賢一街","SECT":" ","MAREA":" ","LANE":"９５巷","ALLEY":" ","HOUSE_NO":"２０號","E_COORD97":165641.48000000001,"N_COORD97":2544717.2400000002,"ADDRESS":"西賢一街９５巷２０號","OBJECTID":359991},"geometry":{"x":165641.48000000045,"y":2544717.2400000002}},{"attributes":{"ID":360002,"DIS_CODE":0,"TOWNNAME":"永康區","LI":"崑山里","LIN":"19鄰","STREET":"大仁街","SECT":" ","MAREA":" ","LANE":"１１巷","ALLEY":" ","HOUSE_NO":"１號","E_COORD97":173795.73999999999,"N_COORD97":2544530.1600000001,"ADDRESS":"大仁街１１巷１號","OBJECTID":359992},"geometry":{"x":173795.73999999929,"y":2544530.160000002}},{"attributes":{"ID":360003,"DIS_CODE":0,"TOWNNAME":"中西區","LI":"萬昌里","LIN":"19鄰","STREET":"青年路","SECT":" ","MAREA":" ","LANE":"１６４巷","ALLEY":" ","HOUSE_NO":"１７號","E_COORD97":168980.45000000001,"N_COORD97":2543538.25,"ADDRESS":"青年路１６４巷１７號","OBJECTID":359993},"geometry":{"x":168980.45000000112,"y":2543538.2500000019}},{"attributes":{"ID":360004,"DIS_CODE":0,"TOWNNAME":"中西區","LI":"萬昌里","LIN":"19鄰","STREET":"青年路","SECT":" ","MAREA":" ","LANE":"１６４巷","ALLEY":" ","HOUSE_NO":"１９號","E_COORD97":168976.78,"N_COORD97":2543538.6600000001,"ADDRESS":"青年路１６４巷１９號","OBJECTID":359994},"geometry":{"x":168976.78000000119,"y":2543538.6600000039}},{"attributes":{"ID":360005,"DIS_CODE":0,"TOWNNAME":"中西區","LI":"萬昌里","LIN":"19鄰","STREET":"青年路","SECT":" ","MAREA":" ","LANE":"１６４巷","ALLEY":" ","HOUSE_NO":"１號","E_COORD97":168996.26999999999,"N_COORD97":2543575.8900000001,"ADDRESS":"青年路１６４巷１號","OBJECTID":359995},"geometry":{"x":168996.27000000048,"y":2543575.8900000025}},{"attributes":{"ID":360006,"DIS_CODE":0,"TOWNNAME":"中西區","LI":"萬昌里","LIN":"19鄰","STREET":"青年路","SECT":" ","MAREA":" ","LANE":"１６４巷","ALLEY":" ","HOUSE_NO":"２１號","E_COORD97":168971.76000000001,"N_COORD97":2543535.4199999999,"ADDRESS":"青年路１６４巷２１號","OBJECTID":359996},"geometry":{"x":168971.75999999978,"y":2543535.4199999999}},{"attributes":{"ID":360007,"DIS_CODE":0,"TOWNNAME":"中西區","LI":"萬昌里","LIN":"19鄰","STREET":"青年路","SECT":" ","MAREA":" ","LANE":"１６４巷","ALLEY":" ","HOUSE_NO":"３號","E_COORD97":168996.17000000001,"N_COORD97":2543573.1800000002,"ADDRESS":"青年路１６４巷３號","OBJECTID":359997},"geometry":{"x":168996.16999999993,"y":2543573.1800000016}},{"attributes":{"ID":360008,"DIS_CODE":0,"TOWNNAME":"中西區","LI":"萬昌里","LIN":"19鄰","STREET":"青年路","SECT":" ","MAREA":" ","LANE":"１６４巷","ALLEY":" ","HOUSE_NO":"５號","E_COORD97":168996.06,"N_COORD97":2543570.77,"ADDRESS":"青年路１６４巷５號","OBJECTID":359998},"geometry":{"x":168996.06000000052,"y":2543570.7699999977}},{"attributes":{"ID":360009,"DIS_CODE":0,"TOWNNAME":"中西區","LI":"萬昌里","LIN":"19鄰","STREET":"青年路","SECT":" ","MAREA":" ","LANE":"１６４巷","ALLEY":" ","HOUSE_NO":"７號","E_COORD97":168995.44,"N_COORD97":2543567.5299999998,"ADDRESS":"青年路１６４巷７號","OBJECTID":359999},"geometry":{"x":168995.44000000041,"y":2543567.5299999993}},{"attributes":{"ID":360010,"DIS_CODE":0,"TOWNNAME":"中西區","LI":"萬昌里","LIN":"19鄰","STREET":"青年路","SECT":" ","MAREA":" ","LANE":"１６４巷","ALLEY":" ","HOUSE_NO":"９號","E_COORD97":168995.44,"N_COORD97":2543564.8199999998,"ADDRESS":"青年路１６４巷９號","OBJECTID":360000},"geometry":{"x":168995.44000000041,"y":2543564.820000004}}]}