{"displayFieldName":"TOWNNAME","fieldAliases":{"ID":"ID","DIS_CODE":"DIS_CODE","TOWNNAME":"TOWNNAME","LI":"LI","LIN":"LIN","STREET":"STREET","SECT":"SECT","MAREA":"MAREA","LANE":"LANE","ALLEY":"ALLEY","HOUSE_NO":"HOUSE_NO","E_COORD97":"E_COORD97","N_COORD97":"N_COORD97","ADDRESS":"ADDRESS","OBJECTID":"OBJECTID"},"geometryType":"esriGeometryPoint","spatialReference":{"wkid":102443,"latestWkid":3826},"fields":[{"name":"ID","type":"esriFieldTypeDouble","alias":"ID"},{"name":"DIS_CODE","type":"esriFieldTypeInteger","alias":"DIS_CODE"},{"name":"TOWNNAME","type":"esriFieldTypeString","alias":"TOWNNAME","length":8},{"name":"LI","type":"esriFieldTypeString","alias":"LI","length":8},{"name":"LIN","type":"esriFieldTypeString","alias":"LIN","length":12},{"name":"STREET","type":"esriFieldTypeString","alias":"STREET","length":20},{"name":"SECT","type":"esriFieldTypeString","alias":"SECT","length":8},{"name":"MAREA","type":"esriFieldTypeString","alias":"MAREA","length":12},{"name":"LANE","type":"esriFieldTypeString","alias":"LANE","length":10},{"name":"ALLEY","type":"esriFieldTypeString","alias":"ALLEY","length":10},{"name":"HOUSE_NO","type":"esriFieldTypeString","alias":"HOUSE_NO","length":20},{"name":"E_COORD97","type":"esriFieldTypeDouble","alias":"E_COORD97"},{"name":"N_COORD97","type":"esriFieldTypeDouble","alias":"N_COORD97"},{"name":"ADDRESS","type":"esriFieldTypeString","alias":"ADDRESS","length":50},{"name":"OBJECTID","type":"esriFieldTypeOID","alias":"OBJECTID"}],"features":[{"attributes":{"ID":612228,"DIS_CODE":0,"TOWNNAME":"新營區","LI":"新北里","LIN":"3鄰","STREET":"三興街","SECT":" ","MAREA":" ","LANE":" ","ALLEY":" ","HOUSE_NO":"７９號之３","E_COORD97":179432.47,"N_COORD97":2579023.98,"ADDRESS":"三興街７９號之３","OBJECTID":612201},"geometry":{"x":179432.47000000067,"y":2579023.9800000042}},{"attributes":{"ID":612229,"DIS_CODE":0,"TOWNNAME":"新營區","LI":"南興里","LIN":"3鄰","STREET":"南昌街","SECT":" ","MAREA":" ","LANE":" ","ALLEY":" ","HOUSE_NO":"３７號","E_COORD97":179569.91,"N_COORD97":2577623.4500000002,"ADDRESS":"南昌街３７號","OBJECTID":612202},"geometry":{"x":179569.91000000015,"y":2577623.4500000011}},{"attributes":{"ID":612230,"DIS_CODE":0,"TOWNNAME":"新營區","LI":"新北里","LIN":"3鄰","STREET":"三興街","SECT":" ","MAREA":" ","LANE":" ","ALLEY":" ","HOUSE_NO":"７９之１８號","E_COORD97":179397.17999999999,"N_COORD97":2579027.48,"ADDRESS":"三興街７９之１８號","OBJECTID":612203},"geometry":{"x":179397.18000000063,"y":2579027.4800000023}},{"attributes":{"ID":612231,"DIS_CODE":0,"TOWNNAME":"新營區","LI":"中營里","LIN":"3鄰","STREET":"中山路","SECT":" ","MAREA":" ","LANE":" ","ALLEY":" ","HOUSE_NO":"５６號之４","E_COORD97":180459.10999999999,"N_COORD97":2578328.0800000001,"ADDRESS":"中山路５６號之４","OBJECTID":612204},"geometry":{"x":180459.11000000127,"y":2578328.0800000019}},{"attributes":{"ID":612232,"DIS_CODE":0,"TOWNNAME":"新營區","LI":"新南里","LIN":"3鄰","STREET":"新北街","SECT":" ","MAREA":" ","LANE":" ","ALLEY":" ","HOUSE_NO":"９９之８號","E_COORD97":178719.54000000001,"N_COORD97":2578761.6200000001,"ADDRESS":"新北街９９之８號","OBJECTID":612205},"geometry":{"x":178719.54000000004,"y":2578761.620000001}},{"attributes":{"ID":612233,"DIS_CODE":0,"TOWNNAME":"新營區","LI":"南興里","LIN":"3鄰","STREET":"南昌街","SECT":" ","MAREA":" ","LANE":" ","ALLEY":" ","HOUSE_NO":"３５之１９號","E_COORD97":179541.98000000001,"N_COORD97":2577630.2999999998,"ADDRESS":"南昌街３５之１９號","OBJECTID":612206},"geometry":{"x":179541.98000000138,"y":2577630.3000000007}},{"attributes":{"ID":612234,"DIS_CODE":0,"TOWNNAME":"新營區","LI":"新北里","LIN":"3鄰","STREET":"三興街","SECT":" ","MAREA":" ","LANE":" ","ALLEY":" ","HOUSE_NO":"８１號之５","E_COORD97":179406.10000000001,"N_COORD97":2579048.4700000002,"ADDRESS":"三興街８１號之５","OBJECTID":612207},"geometry":{"x":179406.10000000056,"y":2579048.4700000025}},{"attributes":{"ID":612235,"DIS_CODE":0,"TOWNNAME":"北區","LI":"永祥里","LIN":"3鄰","STREET":"大武街","SECT":" ","MAREA":" ","LANE":" ","ALLEY":" ","HOUSE_NO":"４７８號","E_COORD97":170059.14000000001,"N_COORD97":2546415.0299999998,"ADDRESS":"大武街４７８號","OBJECTID":612208},"geometry":{"x":170059.13999999966,"y":2546415.0300000012}},{"attributes":{"ID":612236,"DIS_CODE":0,"TOWNNAME":"北區","LI":"永祥里","LIN":"3鄰","STREET":"大武街","SECT":" ","MAREA":" ","LANE":" ","ALLEY":" ","HOUSE_NO":"４８０號","E_COORD97":170063.34,"N_COORD97":2546414.1800000002,"ADDRESS":"大武街４８０號","OBJECTID":612209},"geometry":{"x":170063.33999999985,"y":2546414.1800000016}},{"attributes":{"ID":612237,"DIS_CODE":0,"TOWNNAME":"北區","LI":"永祥里","LIN":"3鄰","STREET":"大武街","SECT":" ","MAREA":" ","LANE":" ","ALLEY":" ","HOUSE_NO":"４８２號","E_COORD97":170068.16,"N_COORD97":2546414.75,"ADDRESS":"大武街４８２號","OBJECTID":612210},"geometry":{"x":170068.16000000015,"y":2546414.75}},{"attributes":{"ID":612238,"DIS_CODE":0,"TOWNNAME":"北區","LI":"永祥里","LIN":"3鄰","STREET":"大武街","SECT":" ","MAREA":" ","LANE":" ","ALLEY":" ","HOUSE_NO":"４８４號","E_COORD97":170073.04999999999,"N_COORD97":2546413.8999999999,"ADDRESS":"大武街４８４號","OBJECTID":612211},"geometry":{"x":170073.05000000075,"y":2546413.9000000004}},{"attributes":{"ID":612239,"DIS_CODE":0,"TOWNNAME":"北區","LI":"永祥里","LIN":"3鄰","STREET":"大武街","SECT":" ","MAREA":" ","LANE":" ","ALLEY":" ","HOUSE_NO":"４８６號","E_COORD97":170077.31,"N_COORD97":2546411.1000000001,"ADDRESS":"大武街４８６號","OBJECTID":612212},"geometry":{"x":170077.31000000052,"y":2546411.1000000015}},{"attributes":{"ID":612240,"DIS_CODE":0,"TOWNNAME":"北區","LI":"永祥里","LIN":"3鄰","STREET":"大武街","SECT":" ","MAREA":" ","LANE":" ","ALLEY":" ","HOUSE_NO":"４８８號","E_COORD97":170083.06,"N_COORD97":2546411.1000000001,"ADDRESS":"大武街４８８號","OBJECTID":612213},"geometry":{"x":170083.06000000052,"y":2546411.1000000015}},{"attributes":{"ID":612241,"DIS_CODE":0,"TOWNNAME":"北區","LI":"永祥里","LIN":"3鄰","STREET":"大武街","SECT":" ","MAREA":" ","LANE":" ","ALLEY":" ","HOUSE_NO":"４９０號","E_COORD97":170087.92000000001,"N_COORD97":2546410.29,"ADDRESS":"大武街４９０號","OBJECTID":612214},"geometry":{"x":170087.91999999993,"y":2546410.2899999991}},{"attributes":{"ID":612242,"DIS_CODE":0,"TOWNNAME":"北區","LI":"永祥里","LIN":"3鄰","STREET":"大武街","SECT":" ","MAREA":" ","LANE":" ","ALLEY":" ","HOUSE_NO":"５２７號","E_COORD97":170061.73999999999,"N_COORD97":2546428.9199999999,"ADDRESS":"大武街５２７號","OBJECTID":612215},"geometry":{"x":170061.74000000115,"y":2546428.9200000018}},{"attributes":{"ID":612243,"DIS_CODE":0,"TOWNNAME":"北區","LI":"永祥里","LIN":"3鄰","STREET":"大武街","SECT":" ","MAREA":" ","LANE":" ","ALLEY":" ","HOUSE_NO":"５２９號","E_COORD97":170065.78,"N_COORD97":2546426.5099999998,"ADDRESS":"大武街５２９號","OBJECTID":612216},"geometry":{"x":170065.78000000026,"y":2546426.5099999998}},{"attributes":{"ID":612244,"DIS_CODE":0,"TOWNNAME":"北區","LI":"永祥里","LIN":"3鄰","STREET":"大武街","SECT":" ","MAREA":" ","LANE":" ","ALLEY":" ","HOUSE_NO":"５３１號","E_COORD97":170069.75,"N_COORD97":2546426.1600000001,"ADDRESS":"大武街５３１號","OBJECTID":612217},"geometry":{"x":170069.75000000093,"y":2546426.1600000001}},{"attributes":{"ID":612245,"DIS_CODE":0,"TOWNNAME":"北區","LI":"永祥里","LIN":"3鄰","STREET":"大武街","SECT":" ","MAREA":" ","LANE":" ","ALLEY":" ","HOUSE_NO":"５３３號","E_COORD97":170074.48999999999,"N_COORD97":2546425.4500000002,"ADDRESS":"大武街５３３號","OBJECTID":612218},"geometry":{"x":170074.49000000022,"y":2546425.4500000011}},{"attributes":{"ID":612246,"DIS_CODE":0,"TOWNNAME":"北區","LI":"永祥里","LIN":"3鄰","STREET":"大武街","SECT":" ","MAREA":" ","LANE":" ","ALLEY":" ","HOUSE_NO":"５３３號之１","E_COORD97":170083.63,"N_COORD97":2546430.9700000002,"ADDRESS":"大武街５３３號之１","OBJECTID":612219},"geometry":{"x":170083.62999999989,"y":2546430.9700000007}},{"attributes":{"ID":612247,"DIS_CODE":0,"TOWNNAME":"北區","LI":"延平里","LIN":"3鄰","STREET":"公園路","SECT":" ","MAREA":" ","LANE":" ","ALLEY":" ","HOUSE_NO":"６８０號","E_COORD97":169054.76999999999,"N_COORD97":2545424.98,"ADDRESS":"公園路６８０號","OBJECTID":612220},"geometry":{"x":169054.76999999955,"y":2545424.9800000042}},{"attributes":{"ID":612248,"DIS_CODE":0,"TOWNNAME":"東區","LI":"小東里","LIN":"13鄰","STREET":"東和路","SECT":" ","MAREA":" ","LANE":" ","ALLEY":" ","HOUSE_NO":"８７號","E_COORD97":170862.07000000001,"N_COORD97":2544311.6099999999,"ADDRESS":"東和路８７號","OBJECTID":612221},"geometry":{"x":170862.0700000003,"y":2544311.6100000013}},{"attributes":{"ID":612249,"DIS_CODE":0,"TOWNNAME":"北區","LI":"延平里","LIN":"3鄰","STREET":"公園路","SECT":" ","MAREA":" ","LANE":" ","ALLEY":" ","HOUSE_NO":"６８０號之１","E_COORD97":169058.56,"N_COORD97":2545423.02,"ADDRESS":"公園路６８０號之１","OBJECTID":612222},"geometry":{"x":169058.56000000052,"y":2545423.0199999996}},{"attributes":{"ID":612250,"DIS_CODE":0,"TOWNNAME":"北區","LI":"延平里","LIN":"3鄰","STREET":"公園路","SECT":" ","MAREA":" ","LANE":" ","ALLEY":" ","HOUSE_NO":"６８０號之２","E_COORD97":169062.91,"N_COORD97":2545420.77,"ADDRESS":"公園路６８０號之２","OBJECTID":612223},"geometry":{"x":169062.91000000015,"y":2545420.7699999996}},{"attributes":{"ID":612251,"DIS_CODE":0,"TOWNNAME":"北區","LI":"延平里","LIN":"3鄰","STREET":"公園路","SECT":" ","MAREA":" ","LANE":" ","ALLEY":" ","HOUSE_NO":"６８０號之３","E_COORD97":169067.82000000001,"N_COORD97":2545419.0899999999,"ADDRESS":"公園路６８０號之３","OBJECTID":612224},"geometry":{"x":169067.82000000123,"y":2545419.0899999999}},{"attributes":{"ID":612252,"DIS_CODE":0,"TOWNNAME":"北區","LI":"延平里","LIN":"3鄰","STREET":"公園路","SECT":" ","MAREA":" ","LANE":" ","ALLEY":" ","HOUSE_NO":"６８２號","E_COORD97":169035.10000000001,"N_COORD97":2545424.7799999998,"ADDRESS":"公園路６８２號","OBJECTID":612225},"geometry":{"x":169035.10000000056,"y":2545424.7799999993}},{"attributes":{"ID":612253,"DIS_CODE":0,"TOWNNAME":"北區","LI":"延平里","LIN":"3鄰","STREET":"公園路","SECT":" ","MAREA":" ","LANE":" ","ALLEY":" ","HOUSE_NO":"６８４號","E_COORD97":169036.78,"N_COORD97":2545428.71,"ADDRESS":"公園路６８４號","OBJECTID":612226},"geometry":{"x":169036.78000000026,"y":2545428.7100000028}},{"attributes":{"ID":612254,"DIS_CODE":0,"TOWNNAME":"北區","LI":"延平里","LIN":"3鄰","STREET":"公園路","SECT":" ","MAREA":" ","LANE":" ","ALLEY":" ","HOUSE_NO":"６８６號","E_COORD97":169037.62,"N_COORD97":2545433.6099999999,"ADDRESS":"公園路６８６號","OBJECTID":612227},"geometry":{"x":169037.62000000011,"y":2545433.6100000013}},{"attributes":{"ID":612255,"DIS_CODE":0,"TOWNNAME":"北區","LI":"延平里","LIN":"3鄰","STREET":"公園路","SECT":" ","MAREA":" ","LANE":" ","ALLEY":" ","HOUSE_NO":"６８８號之１","E_COORD97":169055.01000000001,"N_COORD97":2545430.2599999998,"ADDRESS":"公園路６８８號之１","OBJECTID":612228},"geometry":{"x":169055.00999999978,"y":2545430.2600000016}},{"attributes":{"ID":612256,"DIS_CODE":0,"TOWNNAME":"北區","LI":"延平里","LIN":"3鄰","STREET":"公園路","SECT":" ","MAREA":" ","LANE":" ","ALLEY":" ","HOUSE_NO":"６９０號","E_COORD97":169059.39999999999,"N_COORD97":2545443.3399999999,"ADDRESS":"公園路６９０號","OBJECTID":612229},"geometry":{"x":169059.4000000013,"y":2545443.3400000017}},{"attributes":{"ID":612257,"DIS_CODE":0,"TOWNNAME":"北區","LI":"延平里","LIN":"3鄰","STREET":"公園路","SECT":" ","MAREA":" ","LANE":" ","ALLEY":" ","HOUSE_NO":"６９２號","E_COORD97":169058.14000000001,"N_COORD97":2545446.4300000002,"ADDRESS":"公園路６９２號","OBJECTID":612230},"geometry":{"x":169058.1400000006,"y":2545446.4300000016}},{"attributes":{"ID":612258,"DIS_CODE":0,"TOWNNAME":"北區","LI":"延平里","LIN":"3鄰","STREET":"公園路","SECT":" ","MAREA":" ","LANE":" ","ALLEY":" ","HOUSE_NO":"６９４號","E_COORD97":169050.67000000001,"N_COORD97":2545434.0299999998,"ADDRESS":"公園路６９４號","OBJECTID":612231},"geometry":{"x":169050.66999999993,"y":2545434.0300000012}},{"attributes":{"ID":612259,"DIS_CODE":0,"TOWNNAME":"北區","LI":"延平里","LIN":"3鄰","STREET":"公園路","SECT":" ","MAREA":" ","LANE":" ","ALLEY":" ","HOUSE_NO":"７０４號","E_COORD97":169073.14999999999,"N_COORD97":2545439.6600000001,"ADDRESS":"公園路７０４號","OBJECTID":612232},"geometry":{"x":169073.15000000037,"y":2545439.6600000001}},{"attributes":{"ID":612260,"DIS_CODE":0,"TOWNNAME":"北區","LI":"延平里","LIN":"3鄰","STREET":"公園路","SECT":" ","MAREA":" ","LANE":" ","ALLEY":" ","HOUSE_NO":"７０６號","E_COORD97":169065.29000000001,"N_COORD97":2545444.8799999999,"ADDRESS":"公園路７０６號","OBJECTID":612233},"geometry":{"x":169065.29000000004,"y":2545444.8800000008}},{"attributes":{"ID":612261,"DIS_CODE":0,"TOWNNAME":"北區","LI":"延平里","LIN":"3鄰","STREET":"公園路","SECT":" ","MAREA":" ","LANE":" ","ALLEY":" ","HOUSE_NO":"７０８號","E_COORD97":169067.12,"N_COORD97":2545447.8300000001,"ADDRESS":"公園路７０８號","OBJECTID":612234},"geometry":{"x":169067.12000000104,"y":2545447.8300000001}},{"attributes":{"ID":612262,"DIS_CODE":0,"TOWNNAME":"北區","LI":"延平里","LIN":"3鄰","STREET":"公園路","SECT":" ","MAREA":" ","LANE":" ","ALLEY":" ","HOUSE_NO":"７１０號","E_COORD97":169046.54999999999,"N_COORD97":2545457.25,"ADDRESS":"公園路７１０號","OBJECTID":612235},"geometry":{"x":169046.54999999981,"y":2545457.2500000019}},{"attributes":{"ID":612263,"DIS_CODE":0,"TOWNNAME":"北區","LI":"延平里","LIN":"3鄰","STREET":"公園路","SECT":" ","MAREA":" ","LANE":" ","ALLEY":" ","HOUSE_NO":"７１６號","E_COORD97":169048.85000000001,"N_COORD97":2545470.1499999999,"ADDRESS":"公園路７１６號","OBJECTID":612236},"geometry":{"x":169048.84999999963,"y":2545470.1500000004}},{"attributes":{"ID":612264,"DIS_CODE":0,"TOWNNAME":"北區","LI":"延平里","LIN":"3鄰","STREET":"公園路","SECT":" ","MAREA":" ","LANE":" ","ALLEY":" ","HOUSE_NO":"７２０號","E_COORD97":169068.10000000001,"N_COORD97":2545452.3100000001,"ADDRESS":"公園路７２０號","OBJECTID":612237},"geometry":{"x":169068.09999999963,"y":2545452.3100000005}},{"attributes":{"ID":612265,"DIS_CODE":0,"TOWNNAME":"北區","LI":"延平里","LIN":"3鄰","STREET":"公園路","SECT":" ","MAREA":" ","LANE":" ","ALLEY":" ","HOUSE_NO":"７２０號之１","E_COORD97":169073.57999999999,"N_COORD97":2545451.0299999998,"ADDRESS":"公園路７２０號之１","OBJECTID":612238},"geometry":{"x":169073.58000000007,"y":2545451.0300000012}},{"attributes":{"ID":612266,"DIS_CODE":0,"TOWNNAME":"北區","LI":"延平里","LIN":"3鄰","STREET":"公園路","SECT":" ","MAREA":" ","LANE":" ","ALLEY":" ","HOUSE_NO":"７２２號","E_COORD97":169069.64000000001,"N_COORD97":2545457.7799999998,"ADDRESS":"公園路７２２號","OBJECTID":612239},"geometry":{"x":169069.63999999873,"y":2545457.7799999993}},{"attributes":{"ID":612267,"DIS_CODE":0,"TOWNNAME":"北區","LI":"延平里","LIN":"3鄰","STREET":"公園路","SECT":" ","MAREA":" ","LANE":" ","ALLEY":" ","HOUSE_NO":"７２２號之１","E_COORD97":169078.89999999999,"N_COORD97":2545461.29,"ADDRESS":"公園路７２２號之１","OBJECTID":612240},"geometry":{"x":169078.90000000224,"y":2545461.2899999991}},{"attributes":{"ID":612268,"DIS_CODE":0,"TOWNNAME":"北區","LI":"延平里","LIN":"3鄰","STREET":"公園路","SECT":" ","MAREA":" ","LANE":" ","ALLEY":" ","HOUSE_NO":"７２４號","E_COORD97":169079.88,"N_COORD97":2545467.1699999999,"ADDRESS":"公園路７２４號","OBJECTID":612241},"geometry":{"x":169079.87999999989,"y":2545467.1699999981}},{"attributes":{"ID":612269,"DIS_CODE":0,"TOWNNAME":"北區","LI":"延平里","LIN":"3鄰","STREET":"公園路","SECT":" ","MAREA":" ","LANE":" ","ALLEY":" ","HOUSE_NO":"７２４號之１","E_COORD97":169079.88,"N_COORD97":2545470.96,"ADDRESS":"公園路７２４號之１","OBJECTID":612242},"geometry":{"x":169079.87999999989,"y":2545470.9600000028}},{"attributes":{"ID":612270,"DIS_CODE":0,"TOWNNAME":"北區","LI":"延平里","LIN":"3鄰","STREET":"公園路","SECT":" ","MAREA":" ","LANE":" ","ALLEY":" ","HOUSE_NO":"７２６號","E_COORD97":169079.60000000001,"N_COORD97":2545476.29,"ADDRESS":"公園路７２６號","OBJECTID":612243},"geometry":{"x":169079.59999999963,"y":2545476.290000001}},{"attributes":{"ID":612271,"DIS_CODE":0,"TOWNNAME":"北區","LI":"延平里","LIN":"3鄰","STREET":"公園路","SECT":" ","MAREA":" ","LANE":" ","ALLEY":" ","HOUSE_NO":"７２６號之１","E_COORD97":169079.28,"N_COORD97":2545478.9100000001,"ADDRESS":"公園路７２６號之１","OBJECTID":612244},"geometry":{"x":169079.28000000026,"y":2545478.9100000001}},{"attributes":{"ID":612272,"DIS_CODE":0,"TOWNNAME":"北區","LI":"延平里","LIN":"3鄰","STREET":"公園路","SECT":" ","MAREA":" ","LANE":" ","ALLEY":" ","HOUSE_NO":"７３０號","E_COORD97":169051.23000000001,"N_COORD97":2545474.7799999998,"ADDRESS":"公園路７３０號","OBJECTID":612245},"geometry":{"x":169051.22999999952,"y":2545474.7799999993}},{"attributes":{"ID":612273,"DIS_CODE":0,"TOWNNAME":"北區","LI":"延平里","LIN":"3鄰","STREET":"公園路","SECT":" ","MAREA":" ","LANE":" ","ALLEY":" ","HOUSE_NO":"７３２號","E_COORD97":169051.79000000001,"N_COORD97":2545478.98,"ADDRESS":"公園路７３２號","OBJECTID":612246},"geometry":{"x":169051.79000000004,"y":2545478.9800000004}},{"attributes":{"ID":612274,"DIS_CODE":0,"TOWNNAME":"北區","LI":"延平里","LIN":"3鄰","STREET":"公園路","SECT":" ","MAREA":" ","LANE":" ","ALLEY":" ","HOUSE_NO":"７３４號","E_COORD97":169054.73999999999,"N_COORD97":2545482.6299999999,"ADDRESS":"公園路７３４號","OBJECTID":612247},"geometry":{"x":169054.74000000115,"y":2545482.629999999}},{"attributes":{"ID":612275,"DIS_CODE":0,"TOWNNAME":"北區","LI":"延平里","LIN":"3鄰","STREET":"公園路","SECT":" ","MAREA":" ","LANE":" ","ALLEY":" ","HOUSE_NO":"７３６號","E_COORD97":169054.17999999999,"N_COORD97":2545486.8300000001,"ADDRESS":"公園路７３６號","OBJECTID":612248},"geometry":{"x":169054.17999999877,"y":2545486.8300000038}},{"attributes":{"ID":612276,"DIS_CODE":0,"TOWNNAME":"北區","LI":"延平里","LIN":"3鄰","STREET":"公園路","SECT":" ","MAREA":" ","LANE":" ","ALLEY":" ","HOUSE_NO":"７１２號","E_COORD97":169048.42000000001,"N_COORD97":2545466.9300000002,"ADDRESS":"公園路７１２號","OBJECTID":612249},"geometry":{"x":169048.42000000086,"y":2545466.9300000016}},{"attributes":{"ID":612277,"DIS_CODE":0,"TOWNNAME":"北區","LI":"延平里","LIN":"3鄰","STREET":"公園路","SECT":" ","MAREA":" ","LANE":" ","ALLEY":" ","HOUSE_NO":"７１４號","E_COORD97":169048.45999999999,"N_COORD97":2545462.5800000001,"ADDRESS":"公園路７１４號","OBJECTID":612250},"geometry":{"x":169048.45999999996,"y":2545462.5800000019}},{"attributes":{"ID":612278,"DIS_CODE":0,"TOWNNAME":"北區","LI":"延平里","LIN":"3鄰","STREET":"公園路","SECT":" ","MAREA":" ","LANE":" ","ALLEY":" ","HOUSE_NO":"７３８號","E_COORD97":169056.70000000001,"N_COORD97":2545493.1400000001,"ADDRESS":"公園路７３８號","OBJECTID":612251},"geometry":{"x":169056.70000000112,"y":2545493.1400000025}},{"attributes":{"ID":612279,"DIS_CODE":0,"TOWNNAME":"北區","LI":"延平里","LIN":"3鄰","STREET":"公園路","SECT":" ","MAREA":" ","LANE":" ","ALLEY":" ","HOUSE_NO":"７４０號","E_COORD97":169058.10000000001,"N_COORD97":2545496.79,"ADDRESS":"公園路７４０號","OBJECTID":612252},"geometry":{"x":169058.10000000149,"y":2545496.790000001}},{"attributes":{"ID":612280,"DIS_CODE":0,"TOWNNAME":"北區","LI":"延平里","LIN":"3鄰","STREET":"公園路","SECT":" ","MAREA":" ","LANE":" ","ALLEY":" ","HOUSE_NO":"７４２號","E_COORD97":169058.95000000001,"N_COORD97":2545500.8500000001,"ADDRESS":"公園路７４２號","OBJECTID":612253},"geometry":{"x":169058.95000000019,"y":2545500.8500000015}},{"attributes":{"ID":612281,"DIS_CODE":0,"TOWNNAME":"北區","LI":"延平里","LIN":"3鄰","STREET":"公園路","SECT":" ","MAREA":" ","LANE":" ","ALLEY":" ","HOUSE_NO":"７４４號","E_COORD97":169060.76999999999,"N_COORD97":2545505.9300000002,"ADDRESS":"公園路７４４號","OBJECTID":612254},"geometry":{"x":169060.77000000048,"y":2545505.9300000034}},{"attributes":{"ID":612282,"DIS_CODE":0,"TOWNNAME":"安平區","LI":"億載里","LIN":"3鄰","STREET":"永華十二街","SECT":" ","MAREA":" ","LANE":" ","ALLEY":" ","HOUSE_NO":"２０號之４","E_COORD97":163786.42999999999,"N_COORD97":2543669.6600000001,"ADDRESS":"永華十二街２０號之４","OBJECTID":612255},"geometry":{"x":163786.43000000063,"y":2543669.6600000001}},{"attributes":{"ID":612283,"DIS_CODE":0,"TOWNNAME":"安平區","LI":"金城里","LIN":"3鄰","STREET":"運河路","SECT":" ","MAREA":" ","LANE":" ","ALLEY":" ","HOUSE_NO":"５６號","E_COORD97":163915.28,"N_COORD97":2544265.2400000002,"ADDRESS":"運河路５６號","OBJECTID":612256},"geometry":{"x":163915.28000000026,"y":2544265.2400000021}},{"attributes":{"ID":612284,"DIS_CODE":0,"TOWNNAME":"北區","LI":"五福里","LIN":"3鄰","STREET":"北華街","SECT":" ","MAREA":" ","LANE":" ","ALLEY":" ","HOUSE_NO":"２５２號","E_COORD97":168327.82999999999,"N_COORD97":2544691.29,"ADDRESS":"北華街２５２號","OBJECTID":612257},"geometry":{"x":168327.83000000007,"y":2544691.2899999991}},{"attributes":{"ID":612285,"DIS_CODE":0,"TOWNNAME":"北區","LI":"五福里","LIN":"3鄰","STREET":"北華街","SECT":" ","MAREA":" ","LANE":" ","ALLEY":" ","HOUSE_NO":"２５４號","E_COORD97":168325.22,"N_COORD97":2544693.7799999998,"ADDRESS":"北華街２５４號","OBJECTID":612258},"geometry":{"x":168325.2200000016,"y":2544693.7800000012}},{"attributes":{"ID":612286,"DIS_CODE":0,"TOWNNAME":"北區","LI":"五福里","LIN":"3鄰","STREET":"北華街","SECT":" ","MAREA":" ","LANE":" ","ALLEY":" ","HOUSE_NO":"２５６號","E_COORD97":168319.53,"N_COORD97":2544697.6899999999,"ADDRESS":"北華街２５６號","OBJECTID":612259},"geometry":{"x":168319.53000000026,"y":2544697.6900000013}},{"attributes":{"ID":612287,"DIS_CODE":0,"TOWNNAME":"北區","LI":"五福里","LIN":"3鄰","STREET":"北華街","SECT":" ","MAREA":" ","LANE":" ","ALLEY":" ","HOUSE_NO":"２５８號","E_COORD97":168311.82000000001,"N_COORD97":2544702.2000000002,"ADDRESS":"北華街２５８號","OBJECTID":612260},"geometry":{"x":168311.82000000123,"y":2544702.1999999993}},{"attributes":{"ID":612288,"DIS_CODE":0,"TOWNNAME":"歸仁區","LI":"媽廟里","LIN":"3鄰","STREET":"和順路","SECT":"一段","MAREA":" ","LANE":" ","ALLEY":" ","HOUSE_NO":"１７７號","E_COORD97":176900.44,"N_COORD97":2543638.2799999998,"ADDRESS":"和順路一段１７７號","OBJECTID":612261},"geometry":{"x":176900.44000000134,"y":2543638.2799999975}},{"attributes":{"ID":612289,"DIS_CODE":0,"TOWNNAME":"歸仁區","LI":"媽廟里","LIN":"3鄰","STREET":"和順路","SECT":"一段","MAREA":" ","LANE":" ","ALLEY":" ","HOUSE_NO":"２９５號","E_COORD97":176680.94,"N_COORD97":2543627.2799999998,"ADDRESS":"和順路一段２９５號","OBJECTID":612262},"geometry":{"x":176680.94000000041,"y":2543627.2799999993}},{"attributes":{"ID":612290,"DIS_CODE":0,"TOWNNAME":"歸仁區","LI":"看東里","LIN":"3鄰","STREET":"忠孝南路","SECT":" ","MAREA":" ","LANE":" ","ALLEY":" ","HOUSE_NO":"１６２號","E_COORD97":178541.57000000001,"N_COORD97":2540261.8300000001,"ADDRESS":"忠孝南路１６２號","OBJECTID":612263},"geometry":{"x":178541.5700000003,"y":2540261.8300000001}},{"attributes":{"ID":612291,"DIS_CODE":0,"TOWNNAME":"歸仁區","LI":"歸南里","LIN":"3鄰","STREET":"民權南路","SECT":" ","MAREA":" ","LANE":" ","ALLEY":" ","HOUSE_NO":"２４６號","E_COORD97":176942.39000000001,"N_COORD97":2540234.0299999998,"ADDRESS":"民權南路２４６號","OBJECTID":612264},"geometry":{"x":176942.3900000006,"y":2540234.0300000012}},{"attributes":{"ID":612292,"DIS_CODE":0,"TOWNNAME":"歸仁區","LI":"崙頂里","LIN":"3鄰","STREET":"信義南路","SECT":" ","MAREA":" ","LANE":" ","ALLEY":" ","HOUSE_NO":"２６４號","E_COORD97":178180.39999999999,"N_COORD97":2539952.6800000002,"ADDRESS":"信義南路２６４號","OBJECTID":612265},"geometry":{"x":178180.40000000224,"y":2539952.6799999997}},{"attributes":{"ID":612293,"DIS_CODE":0,"TOWNNAME":"歸仁區","LI":"看東里","LIN":"3鄰","STREET":"忠孝南路","SECT":" ","MAREA":" ","LANE":" ","ALLEY":" ","HOUSE_NO":"１７６號","E_COORD97":178496.47,"N_COORD97":2540259.8300000001,"ADDRESS":"忠孝南路１７６號","OBJECTID":612266},"geometry":{"x":178496.47000000067,"y":2540259.8300000019}},{"attributes":{"ID":612294,"DIS_CODE":0,"TOWNNAME":"歸仁區","LI":"南興里","LIN":"3鄰","STREET":"文化十二街","SECT":" ","MAREA":" ","LANE":" ","ALLEY":" ","HOUSE_NO":"６１號","E_COORD97":176458.29000000001,"N_COORD97":2541315.3300000001,"ADDRESS":"文化十二街６１號","OBJECTID":612267},"geometry":{"x":176458.29000000004,"y":2541315.3300000001}},{"attributes":{"ID":612295,"DIS_CODE":0,"TOWNNAME":"歸仁區","LI":"南保里","LIN":"3鄰","STREET":"民權二街","SECT":" ","MAREA":" ","LANE":" ","ALLEY":" ","HOUSE_NO":"９３號","E_COORD97":176954.98999999999,"N_COORD97":2541462.29,"ADDRESS":"民權二街９３號","OBJECTID":612268},"geometry":{"x":176954.99000000022,"y":2541462.290000001}},{"attributes":{"ID":612296,"DIS_CODE":0,"TOWNNAME":"歸仁區","LI":"南保里","LIN":"3鄰","STREET":"民權二街","SECT":" ","MAREA":" ","LANE":" ","ALLEY":" ","HOUSE_NO":"８３號","E_COORD97":176928.29000000001,"N_COORD97":2541451.29,"ADDRESS":"民權二街８３號","OBJECTID":612269},"geometry":{"x":176928.29000000097,"y":2541451.2899999972}},{"attributes":{"ID":612297,"DIS_CODE":0,"TOWNNAME":"歸仁區","LI":"大潭里","LIN":"3鄰","STREET":"長榮路","SECT":"一段","MAREA":" ","LANE":" ","ALLEY":" ","HOUSE_NO":"３２１之１號","E_COORD97":175359.97,"N_COORD97":2534536.2999999998,"ADDRESS":"長榮路一段３２１之１號","OBJECTID":612270},"geometry":{"x":175359.96999999974,"y":2534536.3000000007}},{"attributes":{"ID":612298,"DIS_CODE":0,"TOWNNAME":"歸仁區","LI":"媽廟里","LIN":"3鄰","STREET":"和順路","SECT":"一段","MAREA":" ","LANE":" ","ALLEY":" ","HOUSE_NO":"２８３號","E_COORD97":176746.64000000001,"N_COORD97":2543642.2799999998,"ADDRESS":"和順路一段２８３號","OBJECTID":612271},"geometry":{"x":176746.63999999966,"y":2543642.2800000012}},{"attributes":{"ID":612299,"DIS_CODE":0,"TOWNNAME":"歸仁區","LI":"新厝里","LIN":"3鄰","STREET":"和平南街","SECT":" ","MAREA":" ","LANE":" ","ALLEY":" ","HOUSE_NO":"４０號","E_COORD97":177811.97,"N_COORD97":2540658.25,"ADDRESS":"和平南街４０號","OBJECTID":612272},"geometry":{"x":177811.97000000067,"y":2540658.25}},{"attributes":{"ID":612300,"DIS_CODE":0,"TOWNNAME":"歸仁區","LI":"新厝里","LIN":"3鄰","STREET":"和平南街","SECT":" ","MAREA":" ","LANE":" ","ALLEY":" ","HOUSE_NO":"３０號","E_COORD97":177816.07000000001,"N_COORD97":2540676.25,"ADDRESS":"和平南街３０號","OBJECTID":612273},"geometry":{"x":177816.0700000003,"y":2540676.2500000037}},{"attributes":{"ID":612301,"DIS_CODE":0,"TOWNNAME":"歸仁區","LI":"辜厝里","LIN":"3鄰","STREET":"中正二街","SECT":" ","MAREA":" ","LANE":" ","ALLEY":" ","HOUSE_NO":"１９號","E_COORD97":177560.66,"N_COORD97":2540714.1099999999,"ADDRESS":"中正二街１９號","OBJECTID":612274},"geometry":{"x":177560.66000000015,"y":2540714.1100000031}},{"attributes":{"ID":612302,"DIS_CODE":0,"TOWNNAME":"歸仁區","LI":"南保里","LIN":"3鄰","STREET":"民權二街","SECT":" ","MAREA":" ","LANE":" ","ALLEY":" ","HOUSE_NO":"７５號","E_COORD97":176953.79000000001,"N_COORD97":2541435.29,"ADDRESS":"民權二街７５號","OBJECTID":612275},"geometry":{"x":176953.79000000097,"y":2541435.290000001}},{"attributes":{"ID":612303,"DIS_CODE":0,"TOWNNAME":"歸仁區","LI":"南興里","LIN":"3鄰","STREET":"大德路","SECT":" ","MAREA":" ","LANE":" ","ALLEY":" ","HOUSE_NO":"８４１號","E_COORD97":176397.67000000001,"N_COORD97":2541541.27,"ADDRESS":"大德路８４１號","OBJECTID":612276},"geometry":{"x":176397.66999999993,"y":2541541.2700000014}},{"attributes":{"ID":612304,"DIS_CODE":0,"TOWNNAME":"玉井區","LI":"玉田里","LIN":"3鄰","STREET":"中正路","SECT":" ","MAREA":" ","LANE":" ","ALLEY":" ","HOUSE_NO":"２４４號","E_COORD97":195116.14999999999,"N_COORD97":2558251.25,"ADDRESS":"中正路２４４號","OBJECTID":612277},"geometry":{"x":195116.1500000013,"y":2558251.25}},{"attributes":{"ID":612305,"DIS_CODE":0,"TOWNNAME":"玉井區","LI":"玉井里","LIN":"3鄰","STREET":"憲政街","SECT":" ","MAREA":" ","LANE":" ","ALLEY":" ","HOUSE_NO":"６４號","E_COORD97":194544.64000000001,"N_COORD97":2558052.8399999999,"ADDRESS":"憲政街６４號","OBJECTID":612278},"geometry":{"x":194544.63999999966,"y":2558052.8400000017}},{"attributes":{"ID":612306,"DIS_CODE":0,"TOWNNAME":"玉井區","LI":"竹圍里","LIN":"3鄰","STREET":"中正路","SECT":" ","MAREA":" ","LANE":" ","ALLEY":" ","HOUSE_NO":"３３２號","E_COORD97":195325.01999999999,"N_COORD97":2558434.3399999999,"ADDRESS":"中正路３３２號","OBJECTID":612279},"geometry":{"x":195325.01999999955,"y":2558434.3400000036}},{"attributes":{"ID":612307,"DIS_CODE":0,"TOWNNAME":"玉井區","LI":"玉田里","LIN":"3鄰","STREET":"民主街","SECT":" ","MAREA":" ","LANE":" ","ALLEY":" ","HOUSE_NO":"１２６號","E_COORD97":195104.98999999999,"N_COORD97":2558169.2799999998,"ADDRESS":"民主街１２６號","OBJECTID":612280},"geometry":{"x":195104.99000000115,"y":2558169.2799999993}},{"attributes":{"ID":612308,"DIS_CODE":0,"TOWNNAME":"玉井區","LI":"中正里","LIN":"3鄰","STREET":"後旦街","SECT":" ","MAREA":" ","LANE":" ","ALLEY":" ","HOUSE_NO":"１３０號","E_COORD97":195374.95999999999,"N_COORD97":2558721.3100000001,"ADDRESS":"後旦街１３０號","OBJECTID":612281},"geometry":{"x":195374.95999999996,"y":2558721.3100000024}},{"attributes":{"ID":612309,"DIS_CODE":0,"TOWNNAME":"玉井區","LI":"竹圍里","LIN":"3鄰","STREET":"仁愛街","SECT":" ","MAREA":" ","LANE":" ","ALLEY":" ","HOUSE_NO":"４５２號","E_COORD97":195409.67000000001,"N_COORD97":2558439.5899999999,"ADDRESS":"仁愛街４５２號","OBJECTID":612282},"geometry":{"x":195409.67000000179,"y":2558439.5900000036}},{"attributes":{"ID":612310,"DIS_CODE":0,"TOWNNAME":"玉井區","LI":"玉田里","LIN":"3鄰","STREET":"民主街","SECT":" ","MAREA":" ","LANE":" ","ALLEY":" ","HOUSE_NO":"１３０號","E_COORD97":195100.07999999999,"N_COORD97":2558188.2799999998,"ADDRESS":"民主街１３０號","OBJECTID":612283},"geometry":{"x":195100.08000000007,"y":2558188.2800000012}},{"attributes":{"ID":612311,"DIS_CODE":0,"TOWNNAME":"玉井區","LI":"竹圍里","LIN":"3鄰","STREET":"中正路","SECT":" ","MAREA":" ","LANE":" ","ALLEY":" ","HOUSE_NO":"３５０號","E_COORD97":195359.45999999999,"N_COORD97":2558471.0699999998,"ADDRESS":"中正路３５０號","OBJECTID":612284},"geometry":{"x":195359.45999999996,"y":2558471.0700000022}},{"attributes":{"ID":612312,"DIS_CODE":0,"TOWNNAME":"玉井區","LI":"竹圍里","LIN":"3鄰","STREET":"仁愛街","SECT":" ","MAREA":" ","LANE":" ","ALLEY":" ","HOUSE_NO":"４８０號","E_COORD97":195457.07000000001,"N_COORD97":2558462.4500000002,"ADDRESS":"仁愛街４８０號","OBJECTID":612285},"geometry":{"x":195457.07000000123,"y":2558462.4499999993}},{"attributes":{"ID":612313,"DIS_CODE":0,"TOWNNAME":"玉井區","LI":"竹圍里","LIN":"3鄰","STREET":"中山路","SECT":" ","MAREA":" ","LANE":" ","ALLEY":" ","HOUSE_NO":"５０４號","E_COORD97":195323.06,"N_COORD97":2558430.0299999998,"ADDRESS":"中山路５０４號","OBJECTID":612286},"geometry":{"x":195323.05999999959,"y":2558430.0300000012}},{"attributes":{"ID":612314,"DIS_CODE":0,"TOWNNAME":"玉井區","LI":"竹圍里","LIN":"3鄰","STREET":"中正路","SECT":" ","MAREA":" ","LANE":" ","ALLEY":" ","HOUSE_NO":"３５８號","E_COORD97":195376.22,"N_COORD97":2558488.1899999999,"ADDRESS":"中正路３５８號","OBJECTID":612287},"geometry":{"x":195376.21999999974,"y":2558488.1899999995}},{"attributes":{"ID":612315,"DIS_CODE":0,"TOWNNAME":"玉井區","LI":"竹圍里","LIN":"3鄰","STREET":"中正路","SECT":" ","MAREA":" ","LANE":" ","ALLEY":" ","HOUSE_NO":"３３６號","E_COORD97":195336.95999999999,"N_COORD97":2558445.6099999999,"ADDRESS":"中正路３３６號","OBJECTID":612288},"geometry":{"x":195336.96000000089,"y":2558445.6100000031}},{"attributes":{"ID":612316,"DIS_CODE":0,"TOWNNAME":"東區","LI":"小東里","LIN":"1鄰","STREET":"小東路","SECT":" ","MAREA":" ","LANE":" ","ALLEY":" ","HOUSE_NO":"１９０號之２","E_COORD97":170824.85000000001,"N_COORD97":2544463.8399999999,"ADDRESS":"小東路１９０號之２","OBJECTID":612289},"geometry":{"x":170824.85000000056,"y":2544463.8400000017}},{"attributes":{"ID":612317,"DIS_CODE":0,"TOWNNAME":"東區","LI":"小東里","LIN":"1鄰","STREET":"小東路","SECT":" ","MAREA":" ","LANE":" ","ALLEY":" ","HOUSE_NO":"１９２號","E_COORD97":170826.56,"N_COORD97":2544457.23,"ADDRESS":"小東路１９２號","OBJECTID":612290},"geometry":{"x":170826.56000000145,"y":2544457.2300000042}},{"attributes":{"ID":612318,"DIS_CODE":0,"TOWNNAME":"東區","LI":"小東里","LIN":"1鄰","STREET":"小東路","SECT":" ","MAREA":" ","LANE":" ","ALLEY":" ","HOUSE_NO":"１９４號","E_COORD97":170831.66,"N_COORD97":2544456.1499999999,"ADDRESS":"小東路１９４號","OBJECTID":612291},"geometry":{"x":170831.66000000108,"y":2544456.1500000004}},{"attributes":{"ID":612319,"DIS_CODE":0,"TOWNNAME":"東區","LI":"小東里","LIN":"1鄰","STREET":"小東路","SECT":" ","MAREA":" ","LANE":" ","ALLEY":" ","HOUSE_NO":"１９６號","E_COORD97":170836.14000000001,"N_COORD97":2544454.4500000002,"ADDRESS":"小東路１９６號","OBJECTID":612292},"geometry":{"x":170836.14000000153,"y":2544454.450000003}},{"attributes":{"ID":612320,"DIS_CODE":0,"TOWNNAME":"玉井區","LI":"竹圍里","LIN":"3鄰","STREET":"仁愛街","SECT":" ","MAREA":" ","LANE":" ","ALLEY":" ","HOUSE_NO":"２９１號","E_COORD97":195371.72,"N_COORD97":2558425.1200000001,"ADDRESS":"仁愛街２９１號","OBJECTID":612293},"geometry":{"x":195371.71999999974,"y":2558425.1200000029}},{"attributes":{"ID":612321,"DIS_CODE":0,"TOWNNAME":"北區","LI":"大豐里","LIN":"3鄰","STREET":"武聖路","SECT":" ","MAREA":" ","LANE":" ","ALLEY":" ","HOUSE_NO":"１０４號","E_COORD97":167079.35000000001,"N_COORD97":2545192.8199999998,"ADDRESS":"武聖路１０４號","OBJECTID":612294},"geometry":{"x":167079.34999999963,"y":2545192.8200000022}},{"attributes":{"ID":612322,"DIS_CODE":0,"TOWNNAME":"北區","LI":"大豐里","LIN":"3鄰","STREET":"武聖路","SECT":" ","MAREA":" ","LANE":" ","ALLEY":" ","HOUSE_NO":"１０８號","E_COORD97":167069.13,"N_COORD97":2545198.1800000002,"ADDRESS":"武聖路１０８號","OBJECTID":612295},"geometry":{"x":167069.12999999989,"y":2545198.1799999997}},{"attributes":{"ID":612323,"DIS_CODE":0,"TOWNNAME":"北區","LI":"大豐里","LIN":"3鄰","STREET":"武聖路","SECT":" ","MAREA":" ","LANE":" ","ALLEY":" ","HOUSE_NO":"３８號","E_COORD97":167212.67000000001,"N_COORD97":2545122.0299999998,"ADDRESS":"武聖路３８號","OBJECTID":612296},"geometry":{"x":167212.67000000086,"y":2545122.0300000031}},{"attributes":{"ID":612324,"DIS_CODE":0,"TOWNNAME":"北區","LI":"大豐里","LIN":"3鄰","STREET":"武聖路","SECT":" ","MAREA":" ","LANE":" ","ALLEY":" ","HOUSE_NO":"４０號","E_COORD97":167209.88,"N_COORD97":2545123.5600000001,"ADDRESS":"武聖路４０號","OBJECTID":612297},"geometry":{"x":167209.87999999989,"y":2545123.5600000024}},{"attributes":{"ID":612325,"DIS_CODE":0,"TOWNNAME":"北區","LI":"大豐里","LIN":"3鄰","STREET":"武聖路","SECT":" ","MAREA":" ","LANE":" ","ALLEY":" ","HOUSE_NO":"４２號","E_COORD97":167206.22,"N_COORD97":2545125.5499999998,"ADDRESS":"武聖路４２號","OBJECTID":612298},"geometry":{"x":167206.21999999881,"y":2545125.5500000007}},{"attributes":{"ID":612326,"DIS_CODE":0,"TOWNNAME":"北區","LI":"大豐里","LIN":"3鄰","STREET":"武聖路","SECT":" ","MAREA":" ","LANE":" ","ALLEY":" ","HOUSE_NO":"４８號","E_COORD97":167193.84,"N_COORD97":2545134.3700000001,"ADDRESS":"武聖路４８號","OBJECTID":612299},"geometry":{"x":167193.84000000171,"y":2545134.370000001}},{"attributes":{"ID":612327,"DIS_CODE":0,"TOWNNAME":"北區","LI":"大豐里","LIN":"3鄰","STREET":"武聖路","SECT":" ","MAREA":" ","LANE":" ","ALLEY":" ","HOUSE_NO":"５８號","E_COORD97":167189.41,"N_COORD97":2545136.1800000002,"ADDRESS":"武聖路５８號","OBJECTID":612300},"geometry":{"x":167189.41000000015,"y":2545136.1800000016}},{"attributes":{"ID":612328,"DIS_CODE":0,"TOWNNAME":"北區","LI":"大豐里","LIN":"3鄰","STREET":"武聖路","SECT":" ","MAREA":" ","LANE":" ","ALLEY":" ","HOUSE_NO":"６０號","E_COORD97":167184.87,"N_COORD97":2545138.2000000002,"ADDRESS":"武聖路６０號","OBJECTID":612301},"geometry":{"x":167184.87000000011,"y":2545138.2000000011}},{"attributes":{"ID":612329,"DIS_CODE":0,"TOWNNAME":"北區","LI":"大豐里","LIN":"3鄰","STREET":"武聖路","SECT":" ","MAREA":" ","LANE":" ","ALLEY":" ","HOUSE_NO":"６２號","E_COORD97":167178.41,"N_COORD97":2545140.4199999999,"ADDRESS":"武聖路６２號","OBJECTID":612302},"geometry":{"x":167178.41000000201,"y":2545140.4200000018}},{"attributes":{"ID":612330,"DIS_CODE":0,"TOWNNAME":"北區","LI":"大豐里","LIN":"3鄰","STREET":"武聖路","SECT":" ","MAREA":" ","LANE":" ","ALLEY":" ","HOUSE_NO":"６４號","E_COORD97":167175.07999999999,"N_COORD97":2545143.1400000001,"ADDRESS":"武聖路６４號","OBJECTID":612303},"geometry":{"x":167175.08000000007,"y":2545143.1400000025}},{"attributes":{"ID":612331,"DIS_CODE":0,"TOWNNAME":"北區","LI":"大豐里","LIN":"3鄰","STREET":"武聖路","SECT":" ","MAREA":" ","LANE":" ","ALLEY":" ","HOUSE_NO":"６６號","E_COORD97":167170.14000000001,"N_COORD97":2545145.7599999998,"ADDRESS":"武聖路６６號","OBJECTID":612304},"geometry":{"x":167170.1400000006,"y":2545145.7600000016}},{"attributes":{"ID":612332,"DIS_CODE":0,"TOWNNAME":"北區","LI":"大豐里","LIN":"3鄰","STREET":"武聖路","SECT":" ","MAREA":" ","LANE":" ","ALLEY":" ","HOUSE_NO":"６８號","E_COORD97":167156.17000000001,"N_COORD97":2545152.96,"ADDRESS":"武聖路６８號","OBJECTID":612305},"geometry":{"x":167156.17000000086,"y":2545152.9600000009}},{"attributes":{"ID":612333,"DIS_CODE":0,"TOWNNAME":"北區","LI":"大豐里","LIN":"3鄰","STREET":"武聖路","SECT":" ","MAREA":" ","LANE":" ","ALLEY":" ","HOUSE_NO":"７０號","E_COORD97":167152.44,"N_COORD97":2545155.0800000001,"ADDRESS":"武聖路７０號","OBJECTID":612306},"geometry":{"x":167152.44000000041,"y":2545155.0800000001}},{"attributes":{"ID":612334,"DIS_CODE":0,"TOWNNAME":"北區","LI":"大豐里","LIN":"3鄰","STREET":"武聖路","SECT":" ","MAREA":" ","LANE":" ","ALLEY":" ","HOUSE_NO":"７２號","E_COORD97":167148.10000000001,"N_COORD97":2545156.8900000001,"ADDRESS":"武聖路７２號","OBJECTID":612307},"geometry":{"x":167148.10000000056,"y":2545156.8900000006}},{"attributes":{"ID":612335,"DIS_CODE":0,"TOWNNAME":"北區","LI":"大豐里","LIN":"3鄰","STREET":"武聖路","SECT":" ","MAREA":" ","LANE":" ","ALLEY":" ","HOUSE_NO":"７４號","E_COORD97":167143.67000000001,"N_COORD97":2545159.4100000001,"ADDRESS":"武聖路７４號","OBJECTID":612308},"geometry":{"x":167143.66999999993,"y":2545159.4100000001}},{"attributes":{"ID":612336,"DIS_CODE":0,"TOWNNAME":"北區","LI":"大豐里","LIN":"3鄰","STREET":"武聖路","SECT":" ","MAREA":" ","LANE":" ","ALLEY":" ","HOUSE_NO":"７６號","E_COORD97":167140.13,"N_COORD97":2545162.4399999999,"ADDRESS":"武聖路７６號","OBJECTID":612309},"geometry":{"x":167140.12999999989,"y":2545162.4399999995}},{"attributes":{"ID":612337,"DIS_CODE":0,"TOWNNAME":"北區","LI":"大豐里","LIN":"3鄰","STREET":"武聖路","SECT":" ","MAREA":" ","LANE":" ","ALLEY":" ","HOUSE_NO":"７８號","E_COORD97":167135.48999999999,"N_COORD97":2545164.46,"ADDRESS":"武聖路７８號","OBJECTID":612310},"geometry":{"x":167135.49000000209,"y":2545164.459999999}},{"attributes":{"ID":612338,"DIS_CODE":0,"TOWNNAME":"東區","LI":"小東里","LIN":"13鄰","STREET":"東和路","SECT":" ","MAREA":" ","LANE":" ","ALLEY":" ","HOUSE_NO":"８１號","E_COORD97":170854.82999999999,"N_COORD97":2544293.0299999998,"ADDRESS":"東和路８１號","OBJECTID":612311},"geometry":{"x":170854.83000000007,"y":2544293.0299999993}},{"attributes":{"ID":612339,"DIS_CODE":0,"TOWNNAME":"東區","LI":"小東里","LIN":"14鄰","STREET":"光明街","SECT":" ","MAREA":" ","LANE":" ","ALLEY":" ","HOUSE_NO":"１１７號","E_COORD97":170912.39999999999,"N_COORD97":2544311.8799999999,"ADDRESS":"光明街１１７號","OBJECTID":612312},"geometry":{"x":170912.40000000037,"y":2544311.8799999971}},{"attributes":{"ID":612340,"DIS_CODE":0,"TOWNNAME":"東區","LI":"小東里","LIN":"6鄰","STREET":"光明街","SECT":" ","MAREA":" ","LANE":" ","ALLEY":" ","HOUSE_NO":"１３號之１","E_COORD97":170895.89999999999,"N_COORD97":2544416.9500000002,"ADDRESS":"光明街１３號之１","OBJECTID":612313},"geometry":{"x":170895.90000000037,"y":2544416.950000003}},{"attributes":{"ID":612341,"DIS_CODE":0,"TOWNNAME":"東區","LI":"小東里","LIN":"6鄰","STREET":"光明街","SECT":" ","MAREA":" ","LANE":" ","ALLEY":" ","HOUSE_NO":"９號","E_COORD97":170892.75,"N_COORD97":2544430.1600000001,"ADDRESS":"光明街９號","OBJECTID":612314},"geometry":{"x":170892.75,"y":2544430.1600000039}},{"attributes":{"ID":612342,"DIS_CODE":0,"TOWNNAME":"東區","LI":"小東里","LIN":"28鄰","STREET":"東安路","SECT":" ","MAREA":" ","LANE":" ","ALLEY":" ","HOUSE_NO":"２９５號","E_COORD97":170768.10000000001,"N_COORD97":2544269.3300000001,"ADDRESS":"東安路２９５號","OBJECTID":612315},"geometry":{"x":170768.09999999963,"y":2544269.3299999982}},{"attributes":{"ID":612343,"DIS_CODE":0,"TOWNNAME":"學甲區","LI":"慈福里","LIN":"3鄰","STREET":"民權路","SECT":" ","MAREA":" ","LANE":" ","ALLEY":" ","HOUSE_NO":"２２號","E_COORD97":166402.23999999999,"N_COORD97":2570140.8599999999,"ADDRESS":"民權路２２號","OBJECTID":612316},"geometry":{"x":166402.24000000115,"y":2570140.8600000031}},{"attributes":{"ID":612344,"DIS_CODE":0,"TOWNNAME":"學甲區","LI":"慈福里","LIN":"3鄰","STREET":"民權路","SECT":" ","MAREA":" ","LANE":" ","ALLEY":" ","HOUSE_NO":"２６號","E_COORD97":166384.09,"N_COORD97":2570137.8500000001,"ADDRESS":"民權路２６號","OBJECTID":612317},"geometry":{"x":166384.09000000078,"y":2570137.8500000015}},{"attributes":{"ID":612345,"DIS_CODE":0,"TOWNNAME":"學甲區","LI":"仁得里","LIN":"3鄰","STREET":"民權路","SECT":" ","MAREA":" ","LANE":" ","ALLEY":" ","HOUSE_NO":"４８號","E_COORD97":166189.42000000001,"N_COORD97":2570133.5899999999,"ADDRESS":"民權路４８號","OBJECTID":612318},"geometry":{"x":166189.41999999993,"y":2570133.5900000017}},{"attributes":{"ID":612346,"DIS_CODE":0,"TOWNNAME":"學甲區","LI":"仁得里","LIN":"3鄰","STREET":"民權路","SECT":" ","MAREA":" ","LANE":" ","ALLEY":" ","HOUSE_NO":"５０號","E_COORD97":166197.03,"N_COORD97":2570163.9700000002,"ADDRESS":"民權路５０號","OBJECTID":612319},"geometry":{"x":166197.03000000026,"y":2570163.9700000007}},{"attributes":{"ID":612347,"DIS_CODE":0,"TOWNNAME":"學甲區","LI":"仁得里","LIN":"3鄰","STREET":"民權路","SECT":" ","MAREA":" ","LANE":" ","ALLEY":" ","HOUSE_NO":"５２號","E_COORD97":166182.66,"N_COORD97":2570164.5600000001,"ADDRESS":"民權路５２號","OBJECTID":612320},"geometry":{"x":166182.66000000015,"y":2570164.5600000024}},{"attributes":{"ID":612348,"DIS_CODE":0,"TOWNNAME":"學甲區","LI":"仁得里","LIN":"3鄰","STREET":"民權路","SECT":" ","MAREA":" ","LANE":" ","ALLEY":" ","HOUSE_NO":"５４號之１","E_COORD97":166177.70999999999,"N_COORD97":2570136.27,"ADDRESS":"民權路５４號之１","OBJECTID":612321},"geometry":{"x":166177.71000000183,"y":2570136.2700000014}},{"attributes":{"ID":612349,"DIS_CODE":0,"TOWNNAME":"學甲區","LI":"仁得里","LIN":"3鄰","STREET":"民權路","SECT":" ","MAREA":" ","LANE":" ","ALLEY":" ","HOUSE_NO":"５４號之２","E_COORD97":166173.09,"N_COORD97":2570136.8999999999,"ADDRESS":"民權路５４號之２","OBJECTID":612322},"geometry":{"x":166173.08999999892,"y":2570136.9000000004}},{"attributes":{"ID":612350,"DIS_CODE":0,"TOWNNAME":"學甲區","LI":"仁得里","LIN":"3鄰","STREET":"民權路","SECT":" ","MAREA":" ","LANE":" ","ALLEY":" ","HOUSE_NO":"５４號之３","E_COORD97":166168.54999999999,"N_COORD97":2570137.9199999999,"ADDRESS":"民權路５４號之３","OBJECTID":612323},"geometry":{"x":166168.55000000075,"y":2570137.9200000018}},{"attributes":{"ID":612351,"DIS_CODE":0,"TOWNNAME":"學甲區","LI":"仁得里","LIN":"3鄰","STREET":"民權路","SECT":" ","MAREA":" ","LANE":" ","ALLEY":" ","HOUSE_NO":"５４號","E_COORD97":166182.67000000001,"N_COORD97":2570135.1400000001,"ADDRESS":"民權路５４號","OBJECTID":612324},"geometry":{"x":166182.66999999993,"y":2570135.1400000006}},{"attributes":{"ID":612352,"DIS_CODE":0,"TOWNNAME":"學甲區","LI":"仁得里","LIN":"3鄰","STREET":"民權路","SECT":" ","MAREA":" ","LANE":" ","ALLEY":" ","HOUSE_NO":"５６號之１","E_COORD97":166156.89000000001,"N_COORD97":2570139.46,"ADDRESS":"民權路５６號之１","OBJECTID":612325},"geometry":{"x":166156.88999999966,"y":2570139.4600000028}},{"attributes":{"ID":612353,"DIS_CODE":0,"TOWNNAME":"學甲區","LI":"仁得里","LIN":"3鄰","STREET":"民權路","SECT":" ","MAREA":" ","LANE":" ","ALLEY":" ","HOUSE_NO":"５６號","E_COORD97":166162.45999999999,"N_COORD97":2570138.1400000001,"ADDRESS":"民權路５６號","OBJECTID":612326},"geometry":{"x":166162.46000000183,"y":2570138.1400000025}},{"attributes":{"ID":612354,"DIS_CODE":0,"TOWNNAME":"學甲區","LI":"仁得里","LIN":"3鄰","STREET":"成功路","SECT":" ","MAREA":" ","LANE":" ","ALLEY":" ","HOUSE_NO":"１２號","E_COORD97":166171.97,"N_COORD97":2570195.4199999999,"ADDRESS":"成功路１２號","OBJECTID":612327},"geometry":{"x":166171.96999999974,"y":2570195.4200000018}},{"attributes":{"ID":612355,"DIS_CODE":0,"TOWNNAME":"東區","LI":"小東里","LIN":"13鄰","STREET":"東和路","SECT":" ","MAREA":" ","LANE":" ","ALLEY":" ","HOUSE_NO":"８３號","E_COORD97":170854.64000000001,"N_COORD97":2544289.5,"ADDRESS":"東和路８３號","OBJECTID":612328},"geometry":{"x":170854.63999999966,"y":2544289.5000000019}},{"attributes":{"ID":612356,"DIS_CODE":0,"TOWNNAME":"東區","LI":"小東里","LIN":"13鄰","STREET":"東和路","SECT":" ","MAREA":" ","LANE":" ","ALLEY":" ","HOUSE_NO":"８５號","E_COORD97":170866.92999999999,"N_COORD97":2544311.7599999998,"ADDRESS":"東和路８５號","OBJECTID":612329},"geometry":{"x":170866.93000000063,"y":2544311.7600000016}},{"attributes":{"ID":612357,"DIS_CODE":0,"TOWNNAME":"東區","LI":"小東里","LIN":"13鄰","STREET":"東和路","SECT":" ","MAREA":" ","LANE":" ","ALLEY":" ","HOUSE_NO":"９３號","E_COORD97":170844.66,"N_COORD97":2544309.73,"ADDRESS":"東和路９３號","OBJECTID":612330},"geometry":{"x":170844.66000000015,"y":2544309.7300000004}},{"attributes":{"ID":612358,"DIS_CODE":0,"TOWNNAME":"東區","LI":"小東里","LIN":"9鄰","STREET":"東安路","SECT":" ","MAREA":" ","LANE":" ","ALLEY":" ","HOUSE_NO":"２５０號","E_COORD97":170822.07000000001,"N_COORD97":2544143.4199999999,"ADDRESS":"東安路２５０號","OBJECTID":612331},"geometry":{"x":170822.07000000216,"y":2544143.4200000037}},{"attributes":{"ID":612359,"DIS_CODE":0,"TOWNNAME":"東區","LI":"小東里","LIN":"28鄰","STREET":"東和路","SECT":" ","MAREA":" ","LANE":" ","ALLEY":" ","HOUSE_NO":"１７１號","E_COORD97":170655.88,"N_COORD97":2544305.7999999998,"ADDRESS":"東和路１７１號","OBJECTID":612332},"geometry":{"x":170655.88000000082,"y":2544305.8000000026}},{"attributes":{"ID":612360,"DIS_CODE":0,"TOWNNAME":"東區","LI":"小東里","LIN":"28鄰","STREET":"東和路","SECT":" ","MAREA":" ","LANE":" ","ALLEY":" ","HOUSE_NO":"１７３號","E_COORD97":170653.89000000001,"N_COORD97":2544307.71,"ADDRESS":"東和路１７３號","OBJECTID":612333},"geometry":{"x":170653.8900000006,"y":2544307.7100000009}},{"attributes":{"ID":612361,"DIS_CODE":0,"TOWNNAME":"東區","LI":"小東里","LIN":"28鄰","STREET":"東和路","SECT":" ","MAREA":" ","LANE":" ","ALLEY":" ","HOUSE_NO":"１７５號","E_COORD97":170650.87,"N_COORD97":2544309.7799999998,"ADDRESS":"東和路１７５號","OBJECTID":612334},"geometry":{"x":170650.87000000104,"y":2544309.7800000031}},{"attributes":{"ID":612362,"DIS_CODE":0,"TOWNNAME":"學甲區","LI":"仁得里","LIN":"3鄰","STREET":"成功路","SECT":" ","MAREA":" ","LANE":" ","ALLEY":" ","HOUSE_NO":"２號之１","E_COORD97":166159.81,"N_COORD97":2570156.6200000001,"ADDRESS":"成功路２號之１","OBJECTID":612335},"geometry":{"x":166159.81000000052,"y":2570156.620000001}},{"attributes":{"ID":612363,"DIS_CODE":0,"TOWNNAME":"學甲區","LI":"仁得里","LIN":"3鄰","STREET":"成功路","SECT":" ","MAREA":" ","LANE":" ","ALLEY":" ","HOUSE_NO":"２號","E_COORD97":166158.69,"N_COORD97":2570152.3399999999,"ADDRESS":"成功路２號","OBJECTID":612336},"geometry":{"x":166158.69000000134,"y":2570152.3400000017}},{"attributes":{"ID":612364,"DIS_CODE":0,"TOWNNAME":"學甲區","LI":"仁得里","LIN":"3鄰","STREET":"成功路","SECT":" ","MAREA":" ","LANE":" ","ALLEY":" ","HOUSE_NO":"６號","E_COORD97":166165.45000000001,"N_COORD97":2570166.9500000002,"ADDRESS":"成功路６號","OBJECTID":612337},"geometry":{"x":166165.45000000019,"y":2570166.950000003}},{"attributes":{"ID":612365,"DIS_CODE":0,"TOWNNAME":"學甲區","LI":"明宜里","LIN":"3鄰","STREET":"和平路","SECT":" ","MAREA":" ","LANE":" ","ALLEY":" ","HOUSE_NO":"２７６號","E_COORD97":166000.63,"N_COORD97":2570396.52,"ADDRESS":"和平路２７６號","OBJECTID":612338},"geometry":{"x":166000.63000000082,"y":2570396.5199999996}},{"attributes":{"ID":612366,"DIS_CODE":0,"TOWNNAME":"學甲區","LI":"明宜里","LIN":"3鄰","STREET":"和平路","SECT":" ","MAREA":" ","LANE":" ","ALLEY":" ","HOUSE_NO":"２８２號之１","E_COORD97":165998.89000000001,"N_COORD97":2570414.6800000002,"ADDRESS":"和平路２８２號之１","OBJECTID":612339},"geometry":{"x":165998.8900000006,"y":2570414.6800000016}},{"attributes":{"ID":612367,"DIS_CODE":0,"TOWNNAME":"學甲區","LI":"明宜里","LIN":"3鄰","STREET":"和平路","SECT":" ","MAREA":" ","LANE":" ","ALLEY":" ","HOUSE_NO":"２８２號","E_COORD97":165998.89999999999,"N_COORD97":2570407.77,"ADDRESS":"和平路２８２號","OBJECTID":612340},"geometry":{"x":165998.9000000013,"y":2570407.7699999996}},{"attributes":{"ID":612368,"DIS_CODE":0,"TOWNNAME":"學甲區","LI":"明宜里","LIN":"3鄰","STREET":"宮西路","SECT":" ","MAREA":" ","LANE":" ","ALLEY":" ","HOUSE_NO":"１１號","E_COORD97":166051.35999999999,"N_COORD97":2570410.46,"ADDRESS":"宮西路１１號","OBJECTID":612341},"geometry":{"x":166051.36000000034,"y":2570410.4600000028}},{"attributes":{"ID":612369,"DIS_CODE":0,"TOWNNAME":"學甲區","LI":"明宜里","LIN":"3鄰","STREET":"宮西路","SECT":" ","MAREA":" ","LANE":" ","ALLEY":" ","HOUSE_NO":"１３號","E_COORD97":166045.84,"N_COORD97":2570411.7799999998,"ADDRESS":"宮西路１３號","OBJECTID":612342},"geometry":{"x":166045.83999999985,"y":2570411.7799999993}},{"attributes":{"ID":612370,"DIS_CODE":0,"TOWNNAME":"學甲區","LI":"明宜里","LIN":"3鄰","STREET":"宮西路","SECT":" ","MAREA":" ","LANE":" ","ALLEY":" ","HOUSE_NO":"１５號","E_COORD97":166033.06,"N_COORD97":2570413.46,"ADDRESS":"宮西路１５號","OBJECTID":612343},"geometry":{"x":166033.06000000052,"y":2570413.4600000028}},{"attributes":{"ID":612371,"DIS_CODE":0,"TOWNNAME":"學甲區","LI":"明宜里","LIN":"3鄰","STREET":"宮西路","SECT":" ","MAREA":" ","LANE":" ","ALLEY":" ","HOUSE_NO":"１號","E_COORD97":166080.01999999999,"N_COORD97":2570407.0899999999,"ADDRESS":"宮西路１號","OBJECTID":612344},"geometry":{"x":166080.01999999862,"y":2570407.0899999999}},{"attributes":{"ID":612372,"DIS_CODE":0,"TOWNNAME":"學甲區","LI":"明宜里","LIN":"3鄰","STREET":"宮西路","SECT":" ","MAREA":" ","LANE":" ","ALLEY":" ","HOUSE_NO":"３號","E_COORD97":166068.32999999999,"N_COORD97":2570406.4100000001,"ADDRESS":"宮西路３號","OBJECTID":612345},"geometry":{"x":166068.32999999914,"y":2570406.410000002}},{"attributes":{"ID":612373,"DIS_CODE":0,"TOWNNAME":"學甲區","LI":"明宜里","LIN":"3鄰","STREET":"宮西路","SECT":" ","MAREA":" ","LANE":" ","ALLEY":" ","HOUSE_NO":"５號","E_COORD97":166063.82000000001,"N_COORD97":2570407.27,"ADDRESS":"宮西路５號","OBJECTID":612346},"geometry":{"x":166063.82000000123,"y":2570407.2700000014}},{"attributes":{"ID":612374,"DIS_CODE":0,"TOWNNAME":"學甲區","LI":"明宜里","LIN":"3鄰","STREET":"宮西路","SECT":" ","MAREA":" ","LANE":" ","ALLEY":" ","HOUSE_NO":"７號","E_COORD97":166059.54000000001,"N_COORD97":2570408.0099999998,"ADDRESS":"宮西路７號","OBJECTID":612347},"geometry":{"x":166059.54000000004,"y":2570408.0100000035}},{"attributes":{"ID":612375,"DIS_CODE":0,"TOWNNAME":"學甲區","LI":"明宜里","LIN":"3鄰","STREET":"宮西路","SECT":" ","MAREA":" ","LANE":" ","ALLEY":" ","HOUSE_NO":"９號","E_COORD97":166055.38,"N_COORD97":2570409.1899999999,"ADDRESS":"宮西路９號","OBJECTID":612348},"geometry":{"x":166055.37999999989,"y":2570409.1899999995}},{"attributes":{"ID":612376,"DIS_CODE":0,"TOWNNAME":"北區","LI":"大豐里","LIN":"3鄰","STREET":"武聖路","SECT":" ","MAREA":" ","LANE":" ","ALLEY":" ","HOUSE_NO":"８４號","E_COORD97":167123.56,"N_COORD97":2545171.23,"ADDRESS":"武聖路８４號","OBJECTID":612349},"geometry":{"x":167123.55999999959,"y":2545171.2300000004}},{"attributes":{"ID":612377,"DIS_CODE":0,"TOWNNAME":"北區","LI":"大豐里","LIN":"3鄰","STREET":"武聖路","SECT":" ","MAREA":" ","LANE":" ","ALLEY":" ","HOUSE_NO":"８６號","E_COORD97":167119.42000000001,"N_COORD97":2545173.75,"ADDRESS":"武聖路８６號","OBJECTID":612350},"geometry":{"x":167119.42000000086,"y":2545173.75}},{"attributes":{"ID":612378,"DIS_CODE":0,"TOWNNAME":"北區","LI":"大豐里","LIN":"3鄰","STREET":"武聖路","SECT":" ","MAREA":" ","LANE":" ","ALLEY":" ","HOUSE_NO":"８８號","E_COORD97":167114.88,"N_COORD97":2545174.25,"ADDRESS":"武聖路８８號","OBJECTID":612351},"geometry":{"x":167114.87999999989,"y":2545174.25}},{"attributes":{"ID":612379,"DIS_CODE":0,"TOWNNAME":"北區","LI":"大豐里","LIN":"3鄰","STREET":"武聖路","SECT":" ","MAREA":" ","LANE":" ","ALLEY":" ","HOUSE_NO":"９０號","E_COORD97":167111.14999999999,"N_COORD97":2545176.5699999998,"ADDRESS":"武聖路９０號","OBJECTID":612352},"geometry":{"x":167111.1500000013,"y":2545176.5699999984}},{"attributes":{"ID":612380,"DIS_CODE":0,"TOWNNAME":"北區","LI":"大豐里","LIN":"3鄰","STREET":"武聖路","SECT":" ","MAREA":" ","LANE":" ","ALLEY":" ","HOUSE_NO":"９２號","E_COORD97":167106.60999999999,"N_COORD97":2545178.3900000001,"ADDRESS":"武聖路９２號","OBJECTID":612353},"geometry":{"x":167106.61000000127,"y":2545178.3900000043}},{"attributes":{"ID":612381,"DIS_CODE":0,"TOWNNAME":"北區","LI":"大豐里","LIN":"3鄰","STREET":"武聖路","SECT":" ","MAREA":" ","LANE":" ","ALLEY":" ","HOUSE_NO":"９４號","E_COORD97":167102.78,"N_COORD97":2545180.5,"ADDRESS":"武聖路９４號","OBJECTID":612354},"geometry":{"x":167102.78000000026,"y":2545180.5000000037}},{"attributes":{"ID":612382,"DIS_CODE":0,"TOWNNAME":"北區","LI":"大豐里","LIN":"3鄰","STREET":"武聖路","SECT":" ","MAREA":" ","LANE":" ","ALLEY":" ","HOUSE_NO":"９６號","E_COORD97":167098.95000000001,"N_COORD97":2545183.1200000001,"ADDRESS":"武聖路９６號","OBJECTID":612355},"geometry":{"x":167098.95000000112,"y":2545183.120000001}},{"attributes":{"ID":612383,"DIS_CODE":0,"TOWNNAME":"北區","LI":"大豐里","LIN":"3鄰","STREET":"武聖路","SECT":" ","MAREA":" ","LANE":" ","ALLEY":" ","HOUSE_NO":"９８號","E_COORD97":167094.48000000001,"N_COORD97":2545186.27,"ADDRESS":"武聖路９８號","OBJECTID":612356},"geometry":{"x":167094.48000000045,"y":2545186.2700000014}},{"attributes":{"ID":612384,"DIS_CODE":0,"TOWNNAME":"北區","LI":"大豐里","LIN":"3鄰","STREET":"武聖路","SECT":" ","MAREA":" ","LANE":" ","ALLEY":" ","HOUSE_NO":"１００號","E_COORD97":167088.42999999999,"N_COORD97":2545189.29,"ADDRESS":"武聖路１００號","OBJECTID":612357},"geometry":{"x":167088.43000000063,"y":2545189.290000001}},{"attributes":{"ID":612385,"DIS_CODE":0,"TOWNNAME":"北區","LI":"大豐里","LIN":"3鄰","STREET":"武聖路","SECT":" ","MAREA":" ","LANE":" ","ALLEY":" ","HOUSE_NO":"４６號","E_COORD97":167198.17999999999,"N_COORD97":2545131.2400000002,"ADDRESS":"武聖路４６號","OBJECTID":612358},"geometry":{"x":167198.18000000156,"y":2545131.2399999984}},{"attributes":{"ID":612386,"DIS_CODE":0,"TOWNNAME":"北區","LI":"興北里","LIN":"3鄰","STREET":"北門路","SECT":"二段","MAREA":" ","LANE":" ","ALLEY":" ","HOUSE_NO":"１２５號","E_COORD97":169274.5,"N_COORD97":2544985.73,"ADDRESS":"北門路二段１２５號","OBJECTID":612359},"geometry":{"x":169274.50000000186,"y":2544985.7300000004}},{"attributes":{"ID":612387,"DIS_CODE":0,"TOWNNAME":"東區","LI":"大同里","LIN":"1鄰","STREET":"東門路","SECT":"一段","MAREA":" ","LANE":" ","ALLEY":" ","HOUSE_NO":"４０號","E_COORD97":169246.17999999999,"N_COORD97":2543190.8300000001,"ADDRESS":"東門路一段４０號","OBJECTID":612360},"geometry":{"x":169246.18000000063,"y":2543190.8300000001}},{"attributes":{"ID":612388,"DIS_CODE":0,"TOWNNAME":"東區","LI":"大同里","LIN":"1鄰","STREET":"東門路","SECT":"一段","MAREA":" ","LANE":" ","ALLEY":" ","HOUSE_NO":"４２號","E_COORD97":169244.48000000001,"N_COORD97":2543184.8100000001,"ADDRESS":"東門路一段４２號","OBJECTID":612361},"geometry":{"x":169244.47999999952,"y":2543184.8100000005}},{"attributes":{"ID":612389,"DIS_CODE":0,"TOWNNAME":"東區","LI":"大同里","LIN":"1鄰","STREET":"東門路","SECT":"一段","MAREA":" ","LANE":" ","ALLEY":" ","HOUSE_NO":"４２號之１","E_COORD97":169255.95999999999,"N_COORD97":2543174.9300000002,"ADDRESS":"東門路一段４２號之１","OBJECTID":612362},"geometry":{"x":169255.95999999903,"y":2543174.9300000016}},{"attributes":{"ID":612390,"DIS_CODE":0,"TOWNNAME":"東區","LI":"大同里","LIN":"1鄰","STREET":"東門路","SECT":"一段","MAREA":" ","LANE":" ","ALLEY":" ","HOUSE_NO":"４６號","E_COORD97":169258.35000000001,"N_COORD97":2543179.9199999999,"ADDRESS":"東門路一段４６號","OBJECTID":612363},"geometry":{"x":169258.35000000056,"y":2543179.9199999999}},{"attributes":{"ID":612391,"DIS_CODE":0,"TOWNNAME":"東區","LI":"大同里","LIN":"1鄰","STREET":"東門路","SECT":"一段","MAREA":" ","LANE":" ","ALLEY":" ","HOUSE_NO":"４８號","E_COORD97":169258.23999999999,"N_COORD97":2543187.0800000001,"ADDRESS":"東門路一段４８號","OBJECTID":612364},"geometry":{"x":169258.24000000115,"y":2543187.0800000019}},{"attributes":{"ID":612392,"DIS_CODE":0,"TOWNNAME":"北區","LI":"和順里","LIN":"2鄰","STREET":"西門路","SECT":"三段","MAREA":" ","LANE":" ","ALLEY":" ","HOUSE_NO":"１０９號","E_COORD97":168342.17000000001,"N_COORD97":2544835.6200000001,"ADDRESS":"西門路三段１０９號","OBJECTID":612365},"geometry":{"x":168342.16999999993,"y":2544835.6200000029}},{"attributes":{"ID":612393,"DIS_CODE":0,"TOWNNAME":"北區","LI":"和順里","LIN":"2鄰","STREET":"西門路","SECT":"三段","MAREA":" ","LANE":" ","ALLEY":" ","HOUSE_NO":"１１５號","E_COORD97":168352.26000000001,"N_COORD97":2544844.0699999998,"ADDRESS":"西門路三段１１５號","OBJECTID":612366},"geometry":{"x":168352.26000000071,"y":2544844.0700000003}},{"attributes":{"ID":612394,"DIS_CODE":0,"TOWNNAME":"北區","LI":"和順里","LIN":"2鄰","STREET":"西門路","SECT":"三段","MAREA":" ","LANE":" ","ALLEY":" ","HOUSE_NO":"１１７號","E_COORD97":168355.51999999999,"N_COORD97":2544846.8399999999,"ADDRESS":"西門路三段１１７號","OBJECTID":612367},"geometry":{"x":168355.52000000048,"y":2544846.8400000017}},{"attributes":{"ID":612395,"DIS_CODE":0,"TOWNNAME":"北區","LI":"和順里","LIN":"2鄰","STREET":"西門路","SECT":"三段","MAREA":" ","LANE":" ","ALLEY":" ","HOUSE_NO":"１１９號","E_COORD97":168361.01999999999,"N_COORD97":2544848.0499999998,"ADDRESS":"西門路三段１１９號","OBJECTID":612368},"geometry":{"x":168361.02000000048,"y":2544848.0500000007}},{"attributes":{"ID":612396,"DIS_CODE":0,"TOWNNAME":"北區","LI":"和順里","LIN":"2鄰","STREET":"西門路","SECT":"三段","MAREA":" ","LANE":" ","ALLEY":" ","HOUSE_NO":"１２１號","E_COORD97":168364.23999999999,"N_COORD97":2544850.5,"ADDRESS":"西門路三段１２１號","OBJECTID":612369},"geometry":{"x":168364.24000000022,"y":2544850.5}},{"attributes":{"ID":612397,"DIS_CODE":0,"TOWNNAME":"北區","LI":"六甲里","LIN":"2鄰","STREET":"西門路","SECT":"四段","MAREA":" ","LANE":" ","ALLEY":" ","HOUSE_NO":"１９２號","E_COORD97":168858.37,"N_COORD97":2545637.5800000001,"ADDRESS":"西門路四段１９２號","OBJECTID":612370},"geometry":{"x":168858.36999999918,"y":2545637.5800000038}},{"attributes":{"ID":612398,"DIS_CODE":0,"TOWNNAME":"北區","LI":"正覺里","LIN":"2鄰","STREET":"西門路","SECT":"四段","MAREA":" ","LANE":" ","ALLEY":" ","HOUSE_NO":"３８２號","E_COORD97":169022.97,"N_COORD97":2546124.21,"ADDRESS":"西門路四段３８２號","OBJECTID":612371},"geometry":{"x":169022.96999999974,"y":2546124.2100000009}},{"attributes":{"ID":612399,"DIS_CODE":0,"TOWNNAME":"北區","LI":"正覺里","LIN":"2鄰","STREET":"西門路","SECT":"四段","MAREA":" ","LANE":" ","ALLEY":" ","HOUSE_NO":"３８４號","E_COORD97":169024.34,"N_COORD97":2546128.6200000001,"ADDRESS":"西門路四段３８４號","OBJECTID":612372},"geometry":{"x":169024.33999999985,"y":2546128.620000001}},{"attributes":{"ID":612400,"DIS_CODE":0,"TOWNNAME":"北區","LI":"正覺里","LIN":"2鄰","STREET":"西門路","SECT":"四段","MAREA":" ","LANE":" ","ALLEY":" ","HOUSE_NO":"３８６號","E_COORD97":169026.59,"N_COORD97":2546132.2400000002,"ADDRESS":"西門路四段３８６號","OBJECTID":612373},"geometry":{"x":169026.59000000078,"y":2546132.2400000021}},{"attributes":{"ID":612401,"DIS_CODE":0,"TOWNNAME":"北區","LI":"正覺里","LIN":"2鄰","STREET":"西門路","SECT":"四段","MAREA":" ","LANE":" ","ALLEY":" ","HOUSE_NO":"３８８號","E_COORD97":169028.35000000001,"N_COORD97":2546137.6200000001,"ADDRESS":"西門路四段３８８號","OBJECTID":612374},"geometry":{"x":169028.35000000056,"y":2546137.6200000029}},{"attributes":{"ID":612402,"DIS_CODE":0,"TOWNNAME":"北區","LI":"正覺里","LIN":"2鄰","STREET":"西門路","SECT":"四段","MAREA":" ","LANE":" ","ALLEY":" ","HOUSE_NO":"３９０號","E_COORD97":169030.51000000001,"N_COORD97":2546140.9500000002,"ADDRESS":"西門路四段３９０號","OBJECTID":612375},"geometry":{"x":169030.51000000071,"y":2546140.9500000011}},{"attributes":{"ID":612403,"DIS_CODE":0,"TOWNNAME":"北區","LI":"正覺里","LIN":"2鄰","STREET":"西門路","SECT":"四段","MAREA":" ","LANE":" ","ALLEY":" ","HOUSE_NO":"３９２號","E_COORD97":169032.07999999999,"N_COORD97":2546145.3900000001,"ADDRESS":"西門路四段３９２號","OBJECTID":612376},"geometry":{"x":169032.08000000101,"y":2546145.3900000025}},{"attributes":{"ID":612404,"DIS_CODE":0,"TOWNNAME":"北區","LI":"正覺里","LIN":"2鄰","STREET":"西門路","SECT":"四段","MAREA":" ","LANE":" ","ALLEY":" ","HOUSE_NO":"３９４號","E_COORD97":169033.85000000001,"N_COORD97":2546150.0899999999,"ADDRESS":"西門路四段３９４號","OBJECTID":612377},"geometry":{"x":169033.84999999963,"y":2546150.0900000017}},{"attributes":{"ID":612405,"DIS_CODE":0,"TOWNNAME":"北區","LI":"正覺里","LIN":"2鄰","STREET":"西門路","SECT":"四段","MAREA":" ","LANE":" ","ALLEY":" ","HOUSE_NO":"３９６號","E_COORD97":169036.10000000001,"N_COORD97":2546153.8100000001,"ADDRESS":"西門路四段３９６號","OBJECTID":612378},"geometry":{"x":169036.10000000149,"y":2546153.8100000005}},{"attributes":{"ID":612406,"DIS_CODE":0,"TOWNNAME":"北區","LI":"正覺里","LIN":"2鄰","STREET":"西門路","SECT":"四段","MAREA":" ","LANE":" ","ALLEY":" ","HOUSE_NO":"３９８號","E_COORD97":169037.66,"N_COORD97":2546157.4300000002,"ADDRESS":"西門路四段３９８號","OBJECTID":612379},"geometry":{"x":169037.66000000015,"y":2546157.4300000016}},{"attributes":{"ID":612407,"DIS_CODE":0,"TOWNNAME":"北區","LI":"正覺里","LIN":"2鄰","STREET":"西門路","SECT":"四段","MAREA":" ","LANE":" ","ALLEY":" ","HOUSE_NO":"４００號","E_COORD97":169039.32999999999,"N_COORD97":2546161.8300000001,"ADDRESS":"西門路四段４００號","OBJECTID":612380},"geometry":{"x":169039.33000000007,"y":2546161.8300000019}},{"attributes":{"ID":612408,"DIS_CODE":0,"TOWNNAME":"北區","LI":"正覺里","LIN":"2鄰","STREET":"西門路","SECT":"四段","MAREA":" ","LANE":" ","ALLEY":" ","HOUSE_NO":"４０２號","E_COORD97":169041.09,"N_COORD97":2546166.5299999998,"ADDRESS":"西門路四段４０２號","OBJECTID":612381},"geometry":{"x":169041.08999999985,"y":2546166.5300000012}},{"attributes":{"ID":612409,"DIS_CODE":0,"TOWNNAME":"東區","LI":"大同里","LIN":"1鄰","STREET":"大同路","SECT":"一段","MAREA":" ","LANE":" ","ALLEY":" ","HOUSE_NO":"３７號","E_COORD97":169166.89000000001,"N_COORD97":2543198.7000000002,"ADDRESS":"大同路一段３７號","OBJECTID":612382},"geometry":{"x":169166.8900000006,"y":2543198.7000000011}},{"attributes":{"ID":612410,"DIS_CODE":0,"TOWNNAME":"東區","LI":"大同里","LIN":"1鄰","STREET":"大同路","SECT":"一段","MAREA":" ","LANE":" ","ALLEY":" ","HOUSE_NO":"３９號","E_COORD97":169164.75,"N_COORD97":2543193.02,"ADDRESS":"大同路一段３９號","OBJECTID":612383},"geometry":{"x":169164.75000000093,"y":2543193.0200000033}},{"attributes":{"ID":612411,"DIS_CODE":0,"TOWNNAME":"北區","LI":"正覺里","LIN":"2鄰","STREET":"西門路","SECT":"四段","MAREA":" ","LANE":" ","ALLEY":" ","HOUSE_NO":"４０４號","E_COORD97":169043.25,"N_COORD97":2546170.3500000001,"ADDRESS":"西門路四段４０４號","OBJECTID":612384},"geometry":{"x":169043.25,"y":2546170.3499999996}},{"attributes":{"ID":612412,"DIS_CODE":0,"TOWNNAME":"北區","LI":"正覺里","LIN":"2鄰","STREET":"西門路","SECT":"四段","MAREA":" ","LANE":" ","ALLEY":" ","HOUSE_NO":"４０６號","E_COORD97":169045.70000000001,"N_COORD97":2546173.77,"ADDRESS":"西門路四段４０６號","OBJECTID":612385},"geometry":{"x":169045.70000000019,"y":2546173.7699999996}},{"attributes":{"ID":612413,"DIS_CODE":0,"TOWNNAME":"北區","LI":"正覺里","LIN":"2鄰","STREET":"西門路","SECT":"四段","MAREA":" ","LANE":" ","ALLEY":" ","HOUSE_NO":"４０８號","E_COORD97":169047.35999999999,"N_COORD97":2546177.6099999999,"ADDRESS":"西門路四段４０８號","OBJECTID":612386},"geometry":{"x":169047.36000000127,"y":2546177.6099999994}},{"attributes":{"ID":612414,"DIS_CODE":0,"TOWNNAME":"北區","LI":"正覺里","LIN":"2鄰","STREET":"西門路","SECT":"四段","MAREA":" ","LANE":" ","ALLEY":" ","HOUSE_NO":"４１０號","E_COORD97":169049.03,"N_COORD97":2546182.8900000001,"ADDRESS":"西門路四段４１０號","OBJECTID":612387},"geometry":{"x":169049.02999999933,"y":2546182.8900000025}},{"attributes":{"ID":612415,"DIS_CODE":0,"TOWNNAME":"北區","LI":"正覺里","LIN":"2鄰","STREET":"西門路","SECT":"四段","MAREA":" ","LANE":" ","ALLEY":" ","HOUSE_NO":"４１２號","E_COORD97":169050.85999999999,"N_COORD97":2546187.1899999999,"ADDRESS":"西門路四段４１２號","OBJECTID":612388},"geometry":{"x":169050.86000000127,"y":2546187.1899999995}},{"attributes":{"ID":612416,"DIS_CODE":0,"TOWNNAME":"北區","LI":"正覺里","LIN":"2鄰","STREET":"西門路","SECT":"四段","MAREA":" ","LANE":" ","ALLEY":" ","HOUSE_NO":"４１６號","E_COORD97":169054.56,"N_COORD97":2546195.1899999999,"ADDRESS":"西門路四段４１６號","OBJECTID":612389},"geometry":{"x":169054.55999999959,"y":2546195.1899999995}},{"attributes":{"ID":612417,"DIS_CODE":0,"TOWNNAME":"北區","LI":"正覺里","LIN":"2鄰","STREET":"西門路","SECT":"四段","MAREA":" ","LANE":" ","ALLEY":" ","HOUSE_NO":"４１８號","E_COORD97":169056.72,"N_COORD97":2546199.02,"ADDRESS":"西門路四段４１８號","OBJECTID":612390},"geometry":{"x":169056.71999999974,"y":2546199.0199999996}},{"attributes":{"ID":612418,"DIS_CODE":0,"TOWNNAME":"北區","LI":"正覺里","LIN":"2鄰","STREET":"西門路","SECT":"四段","MAREA":" ","LANE":" ","ALLEY":" ","HOUSE_NO":"４２０號","E_COORD97":169057.89999999999,"N_COORD97":2546203.7400000002,"ADDRESS":"西門路四段４２０號","OBJECTID":612391},"geometry":{"x":169057.90000000037,"y":2546203.7400000021}},{"attributes":{"ID":612419,"DIS_CODE":0,"TOWNNAME":"北區","LI":"正覺里","LIN":"2鄰","STREET":"西門路","SECT":"四段","MAREA":" ","LANE":" ","ALLEY":" ","HOUSE_NO":"４２２號","E_COORD97":169060.16,"N_COORD97":2546208.0600000001,"ADDRESS":"西門路四段４２２號","OBJECTID":612392},"geometry":{"x":169060.16000000108,"y":2546208.0600000042}},{"attributes":{"ID":612420,"DIS_CODE":0,"TOWNNAME":"北區","LI":"正覺里","LIN":"2鄰","STREET":"西門路","SECT":"四段","MAREA":" ","LANE":" ","ALLEY":" ","HOUSE_NO":"４２４號","E_COORD97":169062.42000000001,"N_COORD97":2546211.21,"ADDRESS":"西門路四段４２４號","OBJECTID":612393},"geometry":{"x":169062.41999999993,"y":2546211.2100000028}},{"attributes":{"ID":612421,"DIS_CODE":0,"TOWNNAME":"北區","LI":"正覺里","LIN":"2鄰","STREET":"西門路","SECT":"四段","MAREA":" ","LANE":" ","ALLEY":" ","HOUSE_NO":"４２６號","E_COORD97":169063.5,"N_COORD97":2546215.4300000002,"ADDRESS":"西門路四段４２６號","OBJECTID":612394},"geometry":{"x":169063.5,"y":2546215.4300000016}},{"attributes":{"ID":612422,"DIS_CODE":0,"TOWNNAME":"北區","LI":"正覺里","LIN":"2鄰","STREET":"西門路","SECT":"四段","MAREA":" ","LANE":" ","ALLEY":" ","HOUSE_NO":"４２８號","E_COORD97":169065.37,"N_COORD97":2546220.8300000001,"ADDRESS":"西門路四段４２８號","OBJECTID":612395},"geometry":{"x":169065.37000000197,"y":2546220.8300000001}},{"attributes":{"ID":612423,"DIS_CODE":0,"TOWNNAME":"北區","LI":"正覺里","LIN":"2鄰","STREET":"西門路","SECT":"四段","MAREA":" ","LANE":" ","ALLEY":" ","HOUSE_NO":"４３２號","E_COORD97":169070.5,"N_COORD97":2546231.8199999998,"ADDRESS":"西門路四段４３２號","OBJECTID":612396},"geometry":{"x":169070.5,"y":2546231.8200000003}},{"attributes":{"ID":612424,"DIS_CODE":0,"TOWNNAME":"北區","LI":"正覺里","LIN":"2鄰","STREET":"西門路","SECT":"四段","MAREA":" ","LANE":" ","ALLEY":" ","HOUSE_NO":"４３４號","E_COORD97":169073.35000000001,"N_COORD97":2546235.75,"ADDRESS":"西門路四段４３４號","OBJECTID":612397},"geometry":{"x":169073.35000000149,"y":2546235.75}},{"attributes":{"ID":612425,"DIS_CODE":0,"TOWNNAME":"北區","LI":"正覺里","LIN":"2鄰","STREET":"西門路","SECT":"四段","MAREA":" ","LANE":" ","ALLEY":" ","HOUSE_NO":"４３６號","E_COORD97":169076.5,"N_COORD97":2546238.7000000002,"ADDRESS":"西門路四段４３６號","OBJECTID":612398},"geometry":{"x":169076.50000000093,"y":2546238.6999999993}},{"attributes":{"ID":612426,"DIS_CODE":0,"TOWNNAME":"北區","LI":"正覺里","LIN":"2鄰","STREET":"西門路","SECT":"四段","MAREA":" ","LANE":" ","ALLEY":" ","HOUSE_NO":"４３８號","E_COORD97":169079.04999999999,"N_COORD97":2546243.02,"ADDRESS":"西門路四段４３８號","OBJECTID":612399},"geometry":{"x":169079.05000000168,"y":2546243.0199999996}},{"attributes":{"ID":612427,"DIS_CODE":0,"TOWNNAME":"北區","LI":"正覺里","LIN":"2鄰","STREET":"西門路","SECT":"四段","MAREA":" ","LANE":" ","ALLEY":" ","HOUSE_NO":"４４０號","E_COORD97":169080.97,"N_COORD97":2546246.1800000002,"ADDRESS":"西門路四段４４０號","OBJECTID":612400},"geometry":{"x":169080.96999999974,"y":2546246.1799999997}}]}