{"displayFieldName":"TOWNNAME","fieldAliases":{"ID":"ID","DIS_CODE":"DIS_CODE","TOWNNAME":"TOWNNAME","LI":"LI","LIN":"LIN","STREET":"STREET","SECT":"SECT","MAREA":"MAREA","LANE":"LANE","ALLEY":"ALLEY","HOUSE_NO":"HOUSE_NO","E_COORD97":"E_COORD97","N_COORD97":"N_COORD97","ADDRESS":"ADDRESS","OBJECTID":"OBJECTID"},"geometryType":"esriGeometryPoint","spatialReference":{"wkid":102443,"latestWkid":3826},"fields":[{"name":"ID","type":"esriFieldTypeDouble","alias":"ID"},{"name":"DIS_CODE","type":"esriFieldTypeInteger","alias":"DIS_CODE"},{"name":"TOWNNAME","type":"esriFieldTypeString","alias":"TOWNNAME","length":8},{"name":"LI","type":"esriFieldTypeString","alias":"LI","length":8},{"name":"LIN","type":"esriFieldTypeString","alias":"LIN","length":12},{"name":"STREET","type":"esriFieldTypeString","alias":"STREET","length":20},{"name":"SECT","type":"esriFieldTypeString","alias":"SECT","length":8},{"name":"MAREA","type":"esriFieldTypeString","alias":"MAREA","length":12},{"name":"LANE","type":"esriFieldTypeString","alias":"LANE","length":10},{"name":"ALLEY","type":"esriFieldTypeString","alias":"ALLEY","length":10},{"name":"HOUSE_NO","type":"esriFieldTypeString","alias":"HOUSE_NO","length":20},{"name":"E_COORD97","type":"esriFieldTypeDouble","alias":"E_COORD97"},{"name":"N_COORD97","type":"esriFieldTypeDouble","alias":"N_COORD97"},{"name":"ADDRESS","type":"esriFieldTypeString","alias":"ADDRESS","length":50},{"name":"OBJECTID","type":"esriFieldTypeOID","alias":"OBJECTID"}],"features":[{"attributes":{"ID":123601,"DIS_CODE":0,"TOWNNAME":"東區","LI":"德高里","LIN":"16鄰","STREET":"崇善路","SECT":" ","MAREA":" ","LANE":"１０８９巷","ALLEY":"１６弄","HOUSE_NO":"１０號","E_COORD97":171590.79000000001,"N_COORD97":2540520.23,"ADDRESS":"崇善路１０８９巷１６弄１０號","OBJECTID":123601},"geometry":{"x":171590.79000000004,"y":2540520.2300000004}},{"attributes":{"ID":123602,"DIS_CODE":0,"TOWNNAME":"東區","LI":"德高里","LIN":"16鄰","STREET":"崇善路","SECT":" ","MAREA":" ","LANE":"１０８９巷","ALLEY":"１６弄","HOUSE_NO":"１２號","E_COORD97":171593.51000000001,"N_COORD97":2540517.6600000001,"ADDRESS":"崇善路１０８９巷１６弄１２號","OBJECTID":123602},"geometry":{"x":171593.51000000071,"y":2540517.6600000039}},{"attributes":{"ID":123603,"DIS_CODE":0,"TOWNNAME":"永康區","LI":"大灣里","LIN":"27鄰","STREET":"大灣六街","SECT":" ","MAREA":" ","LANE":"８０巷","ALLEY":"３６弄","HOUSE_NO":"３號","E_COORD97":175256.26999999999,"N_COORD97":2545267.9500000002,"ADDRESS":"大灣六街８０巷３６弄３號","OBJECTID":123603},"geometry":{"x":175256.27000000142,"y":2545267.950000003}},{"attributes":{"ID":123604,"DIS_CODE":0,"TOWNNAME":"永康區","LI":"二王里","LIN":"12鄰","STREET":"永二街","SECT":" ","MAREA":" ","LANE":"４４７巷","ALLEY":"６８弄","HOUSE_NO":"１０８號","E_COORD97":172790.03,"N_COORD97":2546477.4399999999,"ADDRESS":"永二街４４７巷６８弄１０８號","OBJECTID":123604},"geometry":{"x":172790.03000000026,"y":2546477.4399999995}},{"attributes":{"ID":123605,"DIS_CODE":0,"TOWNNAME":"東區","LI":"德高里","LIN":"16鄰","STREET":"崇善路","SECT":" ","MAREA":" ","LANE":"１０８９巷","ALLEY":"１６弄","HOUSE_NO":"２２號","E_COORD97":171603.38,"N_COORD97":2540499.79,"ADDRESS":"崇善路１０８９巷１６弄２２號","OBJECTID":123605},"geometry":{"x":171603.38000000082,"y":2540499.790000001}},{"attributes":{"ID":123606,"DIS_CODE":0,"TOWNNAME":"永康區","LI":"大灣里","LIN":"20鄰","STREET":"大灣路","SECT":" ","MAREA":" ","LANE":"３５６巷","ALLEY":"１３弄","HOUSE_NO":"１５號","E_COORD97":174747.04000000001,"N_COORD97":2545107,"ADDRESS":"大灣路３５６巷１３弄１５號","OBJECTID":123606},"geometry":{"x":174747.04000000097,"y":2545107.0000000019}},{"attributes":{"ID":123607,"DIS_CODE":0,"TOWNNAME":"永康區","LI":"中興里","LIN":"10鄰","STREET":"忠孝路","SECT":" ","MAREA":" ","LANE":"２３９巷","ALLEY":"２０弄","HOUSE_NO":"６號","E_COORD97":172036.04999999999,"N_COORD97":2545077,"ADDRESS":"忠孝路２３９巷２０弄６號","OBJECTID":123607},"geometry":{"x":172036.05000000075,"y":2545077}},{"attributes":{"ID":123608,"DIS_CODE":0,"TOWNNAME":"永康區","LI":"大橋里","LIN":"16鄰","STREET":"大橋一街","SECT":" ","MAREA":" ","LANE":"１０３巷","ALLEY":"６２弄","HOUSE_NO":"７號","E_COORD97":170964.97,"N_COORD97":2546581.0099999998,"ADDRESS":"大橋一街１０３巷６２弄７號","OBJECTID":123608},"geometry":{"x":170964.97000000067,"y":2546581.0100000016}},{"attributes":{"ID":123609,"DIS_CODE":0,"TOWNNAME":"永康區","LI":"大橋里","LIN":"16鄰","STREET":"大橋一街","SECT":" ","MAREA":" ","LANE":"１０３巷","ALLEY":"６２弄","HOUSE_NO":"９號","E_COORD97":170968.51999999999,"N_COORD97":2546583.5099999998,"ADDRESS":"大橋一街１０３巷６２弄９號","OBJECTID":123609},"geometry":{"x":170968.51999999955,"y":2546583.5099999979}},{"attributes":{"ID":123610,"DIS_CODE":0,"TOWNNAME":"永康區","LI":"大橋里","LIN":"16鄰","STREET":"大橋一街","SECT":" ","MAREA":" ","LANE":"１０３巷","ALLEY":"６２弄","HOUSE_NO":"１１號","E_COORD97":170973.39999999999,"N_COORD97":2546585.7599999998,"ADDRESS":"大橋一街１０３巷６２弄１１號","OBJECTID":123610},"geometry":{"x":170973.40000000037,"y":2546585.7600000016}},{"attributes":{"ID":123611,"DIS_CODE":0,"TOWNNAME":"永康區","LI":"三合里","LIN":"24鄰","STREET":"南工街","SECT":" ","MAREA":" ","LANE":"３１１巷","ALLEY":"４３弄","HOUSE_NO":"１號","E_COORD97":171845.42000000001,"N_COORD97":2545896.5,"ADDRESS":"南工街３１１巷４３弄１號","OBJECTID":123611},"geometry":{"x":171845.42000000086,"y":2545896.5000000019}},{"attributes":{"ID":123612,"DIS_CODE":0,"TOWNNAME":"永康區","LI":"五王里","LIN":"16鄰","STREET":"成功路","SECT":" ","MAREA":" ","LANE":"１７２巷","ALLEY":"６２弄","HOUSE_NO":"１７號","E_COORD97":171627.70999999999,"N_COORD97":2545756.4500000002,"ADDRESS":"成功路１７２巷６２弄１７號","OBJECTID":123612},"geometry":{"x":171627.71000000183,"y":2545756.450000003}},{"attributes":{"ID":123613,"DIS_CODE":0,"TOWNNAME":"永康區","LI":"五王里","LIN":"16鄰","STREET":"成功路","SECT":" ","MAREA":" ","LANE":"１７２巷","ALLEY":"７６弄","HOUSE_NO":"６號","E_COORD97":171593.78,"N_COORD97":2545775.7599999998,"ADDRESS":"成功路１７２巷７６弄６號","OBJECTID":123613},"geometry":{"x":171593.78000000119,"y":2545775.7600000016}},{"attributes":{"ID":123614,"DIS_CODE":0,"TOWNNAME":"永康區","LI":"五王里","LIN":"16鄰","STREET":"成功路","SECT":" ","MAREA":" ","LANE":"１７２巷","ALLEY":"６２弄","HOUSE_NO":"２７號","E_COORD97":171649.60000000001,"N_COORD97":2545761.4500000002,"ADDRESS":"成功路１７２巷６２弄２７號","OBJECTID":123614},"geometry":{"x":171649.59999999963,"y":2545761.4499999993}},{"attributes":{"ID":123615,"DIS_CODE":0,"TOWNNAME":"永康區","LI":"五王里","LIN":"16鄰","STREET":"成功路","SECT":" ","MAREA":" ","LANE":"１７２巷","ALLEY":"６２弄","HOUSE_NO":"３３號","E_COORD97":171662.41,"N_COORD97":2545764.9500000002,"ADDRESS":"成功路１７２巷６２弄３３號","OBJECTID":123615},"geometry":{"x":171662.41000000108,"y":2545764.9499999993}},{"attributes":{"ID":123616,"DIS_CODE":0,"TOWNNAME":"永康區","LI":"五王里","LIN":"16鄰","STREET":"成功路","SECT":" ","MAREA":" ","LANE":"１７２巷","ALLEY":"６２弄","HOUSE_NO":"１９號","E_COORD97":171632.56,"N_COORD97":2545757.2000000002,"ADDRESS":"成功路１７２巷６２弄１９號","OBJECTID":123616},"geometry":{"x":171632.55999999959,"y":2545757.1999999993}},{"attributes":{"ID":123617,"DIS_CODE":0,"TOWNNAME":"永康區","LI":"大灣里","LIN":"13鄰","STREET":"大灣路","SECT":" ","MAREA":" ","LANE":"２１５巷","ALLEY":"２４弄","HOUSE_NO":"３號","E_COORD97":175059.17999999999,"N_COORD97":2545278.2400000002,"ADDRESS":"大灣路２１５巷２４弄３號","OBJECTID":123617},"geometry":{"x":175059.18000000063,"y":2545278.2400000021}},{"attributes":{"ID":123618,"DIS_CODE":0,"TOWNNAME":"永康區","LI":"三合里","LIN":"9鄰","STREET":"南工街","SECT":" ","MAREA":" ","LANE":"２４７巷","ALLEY":"３５弄","HOUSE_NO":"７５號","E_COORD97":172030.28,"N_COORD97":2545699.5,"ADDRESS":"南工街２４７巷３５弄７５號","OBJECTID":123618},"geometry":{"x":172030.28000000026,"y":2545699.5000000019}},{"attributes":{"ID":123619,"DIS_CODE":0,"TOWNNAME":"永康區","LI":"埔園里","LIN":"31鄰","STREET":"中山路","SECT":" ","MAREA":" ","LANE":" ","ALLEY":" ","HOUSE_NO":"５２２號","E_COORD97":173529.19,"N_COORD97":2548691.75,"ADDRESS":"中山路５２２號","OBJECTID":123619},"geometry":{"x":173529.19000000134,"y":2548691.7500000019}},{"attributes":{"ID":123620,"DIS_CODE":0,"TOWNNAME":"永康區","LI":"南灣里","LIN":"31鄰","STREET":"大安街","SECT":" ","MAREA":" ","LANE":" ","ALLEY":" ","HOUSE_NO":"２５號","E_COORD97":174425.73000000001,"N_COORD97":2544802.1499999999,"ADDRESS":"大安街２５號","OBJECTID":123620},"geometry":{"x":174425.73000000138,"y":2544802.1500000004}},{"attributes":{"ID":123621,"DIS_CODE":0,"TOWNNAME":"永康區","LI":"三合里","LIN":"9鄰","STREET":"南工街","SECT":" ","MAREA":" ","LANE":"２４７巷","ALLEY":"３５弄","HOUSE_NO":"６８號","E_COORD97":172027.44,"N_COORD97":2545732.2400000002,"ADDRESS":"南工街２４７巷３５弄６８號","OBJECTID":123621},"geometry":{"x":172027.44000000134,"y":2545732.2400000021}},{"attributes":{"ID":123622,"DIS_CODE":0,"TOWNNAME":"永康區","LI":"埔園里","LIN":"31鄰","STREET":"中山路","SECT":" ","MAREA":" ","LANE":" ","ALLEY":" ","HOUSE_NO":"４９６號","E_COORD97":173563.85000000001,"N_COORD97":2548630.25,"ADDRESS":"中山路４９６號","OBJECTID":123622},"geometry":{"x":173563.8499999987,"y":2548630.2500000037}},{"attributes":{"ID":123623,"DIS_CODE":0,"TOWNNAME":"永康區","LI":"五王里","LIN":"16鄰","STREET":"成功路","SECT":" ","MAREA":" ","LANE":"１７２巷","ALLEY":"６２弄","HOUSE_NO":"１號","E_COORD97":171590.95999999999,"N_COORD97":2545747.9500000002,"ADDRESS":"成功路１７２巷６２弄１號","OBJECTID":123623},"geometry":{"x":171590.96000000089,"y":2545747.9499999993}},{"attributes":{"ID":123624,"DIS_CODE":0,"TOWNNAME":"永康區","LI":"三合里","LIN":"9鄰","STREET":"南工街","SECT":" ","MAREA":" ","LANE":"２４７巷","ALLEY":"３５弄","HOUSE_NO":"５１號","E_COORD97":172000,"N_COORD97":2545734.4900000002,"ADDRESS":"南工街２４７巷３５弄５１號","OBJECTID":123624},"geometry":{"x":172000,"y":2545734.4900000021}},{"attributes":{"ID":123625,"DIS_CODE":0,"TOWNNAME":"永康區","LI":"東灣里","LIN":"31鄰","STREET":"大灣二街","SECT":" ","MAREA":" ","LANE":" ","ALLEY":" ","HOUSE_NO":"５７號","E_COORD97":174858.01000000001,"N_COORD97":2544728.6400000001,"ADDRESS":"大灣二街５７號","OBJECTID":123625},"geometry":{"x":174858.00999999885,"y":2544728.6400000006}},{"attributes":{"ID":123626,"DIS_CODE":0,"TOWNNAME":"永康區","LI":"埔園里","LIN":"31鄰","STREET":"中山路","SECT":" ","MAREA":" ","LANE":" ","ALLEY":" ","HOUSE_NO":"５０６號","E_COORD97":173551.82000000001,"N_COORD97":2548667.4900000002,"ADDRESS":"中山路５０６號","OBJECTID":123626},"geometry":{"x":173551.82000000123,"y":2548667.4900000021}},{"attributes":{"ID":123627,"DIS_CODE":0,"TOWNNAME":"永康區","LI":"東灣里","LIN":"31鄰","STREET":"大灣一街","SECT":" ","MAREA":" ","LANE":" ","ALLEY":" ","HOUSE_NO":"１７１號","E_COORD97":174795.60999999999,"N_COORD97":2544594.9900000002,"ADDRESS":"大灣一街１７１號","OBJECTID":123627},"geometry":{"x":174795.61000000127,"y":2544594.9900000021}},{"attributes":{"ID":123628,"DIS_CODE":0,"TOWNNAME":"永康區","LI":"南灣里","LIN":"31鄰","STREET":"大灣一街","SECT":" ","MAREA":" ","LANE":" ","ALLEY":" ","HOUSE_NO":"６７號","E_COORD97":174371.04000000001,"N_COORD97":2544795,"ADDRESS":"大灣一街６７號","OBJECTID":123628},"geometry":{"x":174371.04000000004,"y":2544795.0000000019}},{"attributes":{"ID":123629,"DIS_CODE":0,"TOWNNAME":"永康區","LI":"埔園里","LIN":"31鄰","STREET":"永大路","SECT":"三段","MAREA":" ","LANE":" ","ALLEY":" ","HOUSE_NO":"４６７號","E_COORD97":174022.01999999999,"N_COORD97":2548730.5299999998,"ADDRESS":"永大路三段４６７號","OBJECTID":123629},"geometry":{"x":174022.01999999862,"y":2548730.5300000012}},{"attributes":{"ID":123630,"DIS_CODE":0,"TOWNNAME":"後壁區","LI":"土溝里","LIN":"4鄰","STREET":" ","SECT":" ","MAREA":"土溝","LANE":" ","ALLEY":" ","HOUSE_NO":"３４號之１０","E_COORD97":187317.09,"N_COORD97":2585695.8900000001,"ADDRESS":"土溝３４號之１０","OBJECTID":123630},"geometry":{"x":187317.08999999985,"y":2585695.8900000006}},{"attributes":{"ID":123631,"DIS_CODE":0,"TOWNNAME":"後壁區","LI":"土溝里","LIN":"4鄰","STREET":" ","SECT":" ","MAREA":"土溝","LANE":" ","ALLEY":" ","HOUSE_NO":"３４號之１２","E_COORD97":187308.84,"N_COORD97":2585643.21,"ADDRESS":"土溝３４號之１２","OBJECTID":123631},"geometry":{"x":187308.84000000171,"y":2585643.2100000009}},{"attributes":{"ID":123632,"DIS_CODE":0,"TOWNNAME":"後壁區","LI":"土溝里","LIN":"4鄰","STREET":" ","SECT":" ","MAREA":"土溝","LANE":" ","ALLEY":" ","HOUSE_NO":"３４號之１３","E_COORD97":187299.26999999999,"N_COORD97":2585659.3500000001,"ADDRESS":"土溝３４號之１３","OBJECTID":123632},"geometry":{"x":187299.27000000048,"y":2585659.3500000015}},{"attributes":{"ID":123633,"DIS_CODE":0,"TOWNNAME":"後壁區","LI":"土溝里","LIN":"4鄰","STREET":" ","SECT":" ","MAREA":"土溝","LANE":" ","ALLEY":" ","HOUSE_NO":"３５號之２","E_COORD97":187175.76999999999,"N_COORD97":2585705.2999999998,"ADDRESS":"土溝３５號之２","OBJECTID":123633},"geometry":{"x":187175.77000000048,"y":2585705.3000000026}},{"attributes":{"ID":123634,"DIS_CODE":0,"TOWNNAME":"後壁區","LI":"土溝里","LIN":"4鄰","STREET":" ","SECT":" ","MAREA":"土溝","LANE":" ","ALLEY":" ","HOUSE_NO":"３５號之４","E_COORD97":187154.98999999999,"N_COORD97":2585688.0099999998,"ADDRESS":"土溝３５號之４","OBJECTID":123634},"geometry":{"x":187154.99000000022,"y":2585688.0099999998}},{"attributes":{"ID":123635,"DIS_CODE":0,"TOWNNAME":"後壁區","LI":"土溝里","LIN":"4鄰","STREET":" ","SECT":" ","MAREA":"土溝","LANE":" ","ALLEY":" ","HOUSE_NO":"３５號之５","E_COORD97":187150.98000000001,"N_COORD97":2585688.73,"ADDRESS":"土溝３５號之５","OBJECTID":123635},"geometry":{"x":187150.98000000231,"y":2585688.7300000023}},{"attributes":{"ID":123636,"DIS_CODE":0,"TOWNNAME":"後壁區","LI":"土溝里","LIN":"4鄰","STREET":" ","SECT":" ","MAREA":"土溝","LANE":" ","ALLEY":" ","HOUSE_NO":"３６號之１","E_COORD97":187115.13,"N_COORD97":2585697.73,"ADDRESS":"土溝３６號之１","OBJECTID":123636},"geometry":{"x":187115.12999999989,"y":2585697.7300000042}},{"attributes":{"ID":123637,"DIS_CODE":0,"TOWNNAME":"後壁區","LI":"土溝里","LIN":"4鄰","STREET":" ","SECT":" ","MAREA":"土溝","LANE":" ","ALLEY":" ","HOUSE_NO":"３６號","E_COORD97":187091.25,"N_COORD97":2585703.1800000002,"ADDRESS":"土溝３６號","OBJECTID":123637},"geometry":{"x":187091.25000000093,"y":2585703.1799999997}},{"attributes":{"ID":123638,"DIS_CODE":0,"TOWNNAME":"後壁區","LI":"土溝里","LIN":"4鄰","STREET":" ","SECT":" ","MAREA":"土溝","LANE":" ","ALLEY":" ","HOUSE_NO":"３７號","E_COORD97":187071.81,"N_COORD97":2585651.8799999999,"ADDRESS":"土溝３７號","OBJECTID":123638},"geometry":{"x":187071.81000000052,"y":2585651.8800000008}},{"attributes":{"ID":123639,"DIS_CODE":0,"TOWNNAME":"後壁區","LI":"土溝里","LIN":"4鄰","STREET":" ","SECT":" ","MAREA":"土溝","LANE":" ","ALLEY":" ","HOUSE_NO":"３８號","E_COORD97":187048.89999999999,"N_COORD97":2585681.3300000001,"ADDRESS":"土溝３８號","OBJECTID":123639},"geometry":{"x":187048.90000000037,"y":2585681.3300000019}},{"attributes":{"ID":123640,"DIS_CODE":0,"TOWNNAME":"後壁區","LI":"土溝里","LIN":"4鄰","STREET":" ","SECT":" ","MAREA":"土溝","LANE":" ","ALLEY":" ","HOUSE_NO":"３９號","E_COORD97":187015.47,"N_COORD97":2585707.8900000001,"ADDRESS":"土溝３９號","OBJECTID":123640},"geometry":{"x":187015.46999999974,"y":2585707.8900000025}},{"attributes":{"ID":123641,"DIS_CODE":0,"TOWNNAME":"後壁區","LI":"土溝里","LIN":"4鄰","STREET":" ","SECT":" ","MAREA":"土溝","LANE":" ","ALLEY":" ","HOUSE_NO":"４０號之１０","E_COORD97":186973.73999999999,"N_COORD97":2585676.54,"ADDRESS":"土溝４０號之１０","OBJECTID":123641},"geometry":{"x":186973.74000000022,"y":2585676.5399999991}},{"attributes":{"ID":123642,"DIS_CODE":0,"TOWNNAME":"後壁區","LI":"土溝里","LIN":"4鄰","STREET":" ","SECT":" ","MAREA":"土溝","LANE":" ","ALLEY":" ","HOUSE_NO":"４０號之３","E_COORD97":187002.23000000001,"N_COORD97":2585677.7599999998,"ADDRESS":"土溝４０號之３","OBJECTID":123642},"geometry":{"x":187002.23000000138,"y":2585677.7600000016}},{"attributes":{"ID":123643,"DIS_CODE":0,"TOWNNAME":"後壁區","LI":"土溝里","LIN":"4鄰","STREET":" ","SECT":" ","MAREA":"土溝","LANE":" ","ALLEY":" ","HOUSE_NO":"４０號之６","E_COORD97":186989.78,"N_COORD97":2585677.02,"ADDRESS":"土溝４０號之６","OBJECTID":123643},"geometry":{"x":186989.78000000119,"y":2585677.0199999996}},{"attributes":{"ID":123644,"DIS_CODE":0,"TOWNNAME":"後壁區","LI":"土溝里","LIN":"4鄰","STREET":" ","SECT":" ","MAREA":"土溝","LANE":" ","ALLEY":" ","HOUSE_NO":"４０號之７","E_COORD97":186986.03,"N_COORD97":2585677.1499999999,"ADDRESS":"土溝４０號之７","OBJECTID":123644},"geometry":{"x":186986.03000000212,"y":2585677.1500000004}},{"attributes":{"ID":123645,"DIS_CODE":0,"TOWNNAME":"永康區","LI":"神洲里","LIN":"16鄰","STREET":"忠孝路","SECT":" ","MAREA":" ","LANE":"７６巷","ALLEY":"４９弄","HOUSE_NO":"１號","E_COORD97":172269.70999999999,"N_COORD97":2544961.7200000002,"ADDRESS":"忠孝路７６巷４９弄１號","OBJECTID":123645},"geometry":{"x":172269.70999999996,"y":2544961.7200000007}},{"attributes":{"ID":123646,"DIS_CODE":0,"TOWNNAME":"永康區","LI":"神洲里","LIN":"16鄰","STREET":"忠孝路","SECT":" ","MAREA":" ","LANE":"７６巷","ALLEY":"４９弄","HOUSE_NO":"５號","E_COORD97":172253.32000000001,"N_COORD97":2544962.4700000002,"ADDRESS":"忠孝路７６巷４９弄５號","OBJECTID":123646},"geometry":{"x":172253.32000000123,"y":2544962.4700000025}},{"attributes":{"ID":123647,"DIS_CODE":0,"TOWNNAME":"中西區","LI":"天后里","LIN":"24鄰","STREET":"郡緯街","SECT":" ","MAREA":" ","LANE":" ","ALLEY":" ","HOUSE_NO":"６號四樓之６","E_COORD97":168205.07999999999,"N_COORD97":2544297.52,"ADDRESS":"郡緯街６號四樓之６","OBJECTID":123647},"geometry":{"x":168205.08000000101,"y":2544297.5199999996}},{"attributes":{"ID":123648,"DIS_CODE":0,"TOWNNAME":"後壁區","LI":"土溝里","LIN":"4鄰","STREET":" ","SECT":" ","MAREA":"土溝","LANE":" ","ALLEY":" ","HOUSE_NO":"４０號之８","E_COORD97":186981.92999999999,"N_COORD97":2585676.8799999999,"ADDRESS":"土溝４０號之８","OBJECTID":123648},"geometry":{"x":186981.9299999997,"y":2585676.879999999}},{"attributes":{"ID":123649,"DIS_CODE":0,"TOWNNAME":"後壁區","LI":"土溝里","LIN":"4鄰","STREET":" ","SECT":" ","MAREA":"土溝","LANE":" ","ALLEY":" ","HOUSE_NO":"４０號","E_COORD97":187019.91,"N_COORD97":2585682.4900000002,"ADDRESS":"土溝４０號","OBJECTID":123649},"geometry":{"x":187019.91000000015,"y":2585682.4900000021}},{"attributes":{"ID":123650,"DIS_CODE":0,"TOWNNAME":"後壁區","LI":"土溝里","LIN":"1鄰","STREET":" ","SECT":" ","MAREA":"土溝","LANE":" ","ALLEY":" ","HOUSE_NO":"３號","E_COORD97":186659.01999999999,"N_COORD97":2585917.8799999999,"ADDRESS":"土溝３號","OBJECTID":123650},"geometry":{"x":186659.01999999955,"y":2585917.879999999}},{"attributes":{"ID":123651,"DIS_CODE":0,"TOWNNAME":"後壁區","LI":"土溝里","LIN":"1鄰","STREET":" ","SECT":" ","MAREA":"土溝","LANE":" ","ALLEY":" ","HOUSE_NO":"４號之５","E_COORD97":186673.73999999999,"N_COORD97":2585855.04,"ADDRESS":"土溝４號之５","OBJECTID":123651},"geometry":{"x":186673.74000000022,"y":2585855.040000001}},{"attributes":{"ID":123652,"DIS_CODE":0,"TOWNNAME":"後壁區","LI":"土溝里","LIN":"1鄰","STREET":" ","SECT":" ","MAREA":"土溝","LANE":" ","ALLEY":" ","HOUSE_NO":"４號","E_COORD97":186668.32999999999,"N_COORD97":2585891.1200000001,"ADDRESS":"土溝４號","OBJECTID":123652},"geometry":{"x":186668.33000000194,"y":2585891.120000001}},{"attributes":{"ID":123653,"DIS_CODE":0,"TOWNNAME":"後壁區","LI":"土溝里","LIN":"6鄰","STREET":" ","SECT":" ","MAREA":"土溝","LANE":" ","ALLEY":" ","HOUSE_NO":"４８號之１","E_COORD97":187088.22,"N_COORD97":2585138.7400000002,"ADDRESS":"土溝４８號之１","OBJECTID":123653},"geometry":{"x":187088.22000000067,"y":2585138.7400000021}},{"attributes":{"ID":123654,"DIS_CODE":0,"TOWNNAME":"後壁區","LI":"土溝里","LIN":"6鄰","STREET":" ","SECT":" ","MAREA":"土溝","LANE":" ","ALLEY":" ","HOUSE_NO":"４８號之２０","E_COORD97":186975.26000000001,"N_COORD97":2585234.1499999999,"ADDRESS":"土溝４８號之２０","OBJECTID":123654},"geometry":{"x":186975.25999999885,"y":2585234.1500000022}},{"attributes":{"ID":123655,"DIS_CODE":0,"TOWNNAME":"後壁區","LI":"土溝里","LIN":"6鄰","STREET":" ","SECT":" ","MAREA":"土溝","LANE":" ","ALLEY":" ","HOUSE_NO":"４８號","E_COORD97":187135.98999999999,"N_COORD97":2585147.7999999998,"ADDRESS":"土溝４８號","OBJECTID":123655},"geometry":{"x":187135.99000000115,"y":2585147.8000000007}},{"attributes":{"ID":123656,"DIS_CODE":0,"TOWNNAME":"後壁區","LI":"土溝里","LIN":"6鄰","STREET":" ","SECT":" ","MAREA":"土溝","LANE":" ","ALLEY":" ","HOUSE_NO":"４９號之１１","E_COORD97":187192.98999999999,"N_COORD97":2585277.6099999999,"ADDRESS":"土溝４９號之１１","OBJECTID":123656},"geometry":{"x":187192.99000000209,"y":2585277.6100000013}},{"attributes":{"ID":123657,"DIS_CODE":0,"TOWNNAME":"後壁區","LI":"土溝里","LIN":"6鄰","STREET":" ","SECT":" ","MAREA":"土溝","LANE":" ","ALLEY":" ","HOUSE_NO":"４９號之１５","E_COORD97":187236.64999999999,"N_COORD97":2585273.7999999998,"ADDRESS":"土溝４９號之１５","OBJECTID":123657},"geometry":{"x":187236.6500000013,"y":2585273.8000000045}},{"attributes":{"ID":123658,"DIS_CODE":0,"TOWNNAME":"後壁區","LI":"土溝里","LIN":"6鄰","STREET":" ","SECT":" ","MAREA":"土溝","LANE":" ","ALLEY":" ","HOUSE_NO":"４９號之１","E_COORD97":187135.91,"N_COORD97":2585172.25,"ADDRESS":"土溝４９號之１","OBJECTID":123658},"geometry":{"x":187135.91000000201,"y":2585172.2500000019}},{"attributes":{"ID":123659,"DIS_CODE":0,"TOWNNAME":"後壁區","LI":"土溝里","LIN":"6鄰","STREET":" ","SECT":" ","MAREA":"土溝","LANE":" ","ALLEY":" ","HOUSE_NO":"４９號之２","E_COORD97":187160.76000000001,"N_COORD97":2585185.8999999999,"ADDRESS":"土溝４９號之２","OBJECTID":123659},"geometry":{"x":187160.76000000071,"y":2585185.9000000022}},{"attributes":{"ID":123660,"DIS_CODE":0,"TOWNNAME":"後壁區","LI":"土溝里","LIN":"6鄰","STREET":" ","SECT":" ","MAREA":"土溝","LANE":" ","ALLEY":" ","HOUSE_NO":"４９號之３","E_COORD97":187187.91,"N_COORD97":2585187.3999999999,"ADDRESS":"土溝４９號之３","OBJECTID":123660},"geometry":{"x":187187.91000000015,"y":2585187.4000000004}},{"attributes":{"ID":123661,"DIS_CODE":0,"TOWNNAME":"後壁區","LI":"土溝里","LIN":"6鄰","STREET":" ","SECT":" ","MAREA":"土溝","LANE":" ","ALLEY":" ","HOUSE_NO":"４９號之４","E_COORD97":187216.44,"N_COORD97":2585177.8799999999,"ADDRESS":"土溝４９號之４","OBJECTID":123661},"geometry":{"x":187216.44000000041,"y":2585177.8800000008}},{"attributes":{"ID":123662,"DIS_CODE":0,"TOWNNAME":"後壁區","LI":"土溝里","LIN":"6鄰","STREET":" ","SECT":" ","MAREA":"土溝","LANE":" ","ALLEY":" ","HOUSE_NO":"４９號之８","E_COORD97":187200.54000000001,"N_COORD97":2585232.5499999998,"ADDRESS":"土溝４９號之８","OBJECTID":123662},"geometry":{"x":187200.54000000004,"y":2585232.5500000026}},{"attributes":{"ID":123663,"DIS_CODE":0,"TOWNNAME":"後壁區","LI":"土溝里","LIN":"6鄰","STREET":" ","SECT":" ","MAREA":"土溝","LANE":" ","ALLEY":" ","HOUSE_NO":"４９號","E_COORD97":187130.60000000001,"N_COORD97":2585188.96,"ADDRESS":"土溝４９號","OBJECTID":123663},"geometry":{"x":187130.60000000149,"y":2585188.9600000028}},{"attributes":{"ID":123664,"DIS_CODE":0,"TOWNNAME":"後壁區","LI":"長安里","LIN":"4鄰","STREET":" ","SECT":" ","MAREA":"中寮","LANE":" ","ALLEY":" ","HOUSE_NO":"５２號之１","E_COORD97":184315.45999999999,"N_COORD97":2581276.27,"ADDRESS":"中寮５２號之１","OBJECTID":123664},"geometry":{"x":184315.45999999996,"y":2581276.2700000014}},{"attributes":{"ID":123665,"DIS_CODE":0,"TOWNNAME":"後壁區","LI":"長安里","LIN":"4鄰","STREET":" ","SECT":" ","MAREA":"中寮","LANE":" ","ALLEY":" ","HOUSE_NO":"５２號","E_COORD97":184314.60000000001,"N_COORD97":2581281.1099999999,"ADDRESS":"中寮５２號","OBJECTID":123665},"geometry":{"x":184314.59999999963,"y":2581281.1100000013}},{"attributes":{"ID":123666,"DIS_CODE":0,"TOWNNAME":"後壁區","LI":"長安里","LIN":"4鄰","STREET":" ","SECT":" ","MAREA":"中寮","LANE":" ","ALLEY":" ","HOUSE_NO":"５３號之１","E_COORD97":184332.98999999999,"N_COORD97":2581295.8300000001,"ADDRESS":"中寮５３號之１","OBJECTID":123666},"geometry":{"x":184332.99000000022,"y":2581295.8300000038}},{"attributes":{"ID":123667,"DIS_CODE":0,"TOWNNAME":"後壁區","LI":"長安里","LIN":"4鄰","STREET":" ","SECT":" ","MAREA":"中寮","LANE":" ","ALLEY":" ","HOUSE_NO":"５３號","E_COORD97":184335.09,"N_COORD97":2581287.0600000001,"ADDRESS":"中寮５３號","OBJECTID":123667},"geometry":{"x":184335.08999999985,"y":2581287.0600000005}},{"attributes":{"ID":123668,"DIS_CODE":0,"TOWNNAME":"後壁區","LI":"長安里","LIN":"4鄰","STREET":" ","SECT":" ","MAREA":"中寮","LANE":" ","ALLEY":" ","HOUSE_NO":"５４號之１","E_COORD97":184329.59,"N_COORD97":2581264.6000000001,"ADDRESS":"中寮５４號之１","OBJECTID":123668},"geometry":{"x":184329.58999999985,"y":2581264.6000000015}},{"attributes":{"ID":123669,"DIS_CODE":0,"TOWNNAME":"後壁區","LI":"長安里","LIN":"4鄰","STREET":" ","SECT":" ","MAREA":"中寮","LANE":" ","ALLEY":" ","HOUSE_NO":"５４號之２","E_COORD97":184344.45000000001,"N_COORD97":2581267.0899999999,"ADDRESS":"中寮５４號之２","OBJECTID":123669},"geometry":{"x":184344.45000000019,"y":2581267.0900000017}},{"attributes":{"ID":123670,"DIS_CODE":0,"TOWNNAME":"後壁區","LI":"長安里","LIN":"4鄰","STREET":" ","SECT":" ","MAREA":"中寮","LANE":" ","ALLEY":" ","HOUSE_NO":"５４號","E_COORD97":184350.34,"N_COORD97":2581267.8500000001,"ADDRESS":"中寮５４號","OBJECTID":123670},"geometry":{"x":184350.33999999985,"y":2581267.8499999996}},{"attributes":{"ID":123671,"DIS_CODE":0,"TOWNNAME":"後壁區","LI":"長安里","LIN":"4鄰","STREET":" ","SECT":" ","MAREA":"中寮","LANE":" ","ALLEY":" ","HOUSE_NO":"５５號之１","E_COORD97":184363.64999999999,"N_COORD97":2581276.3300000001,"ADDRESS":"中寮５５號之１","OBJECTID":123671},"geometry":{"x":184363.65000000037,"y":2581276.3300000019}},{"attributes":{"ID":123672,"DIS_CODE":0,"TOWNNAME":"後壁區","LI":"長安里","LIN":"4鄰","STREET":" ","SECT":" ","MAREA":"中寮","LANE":" ","ALLEY":" ","HOUSE_NO":"５５號","E_COORD97":184355.66,"N_COORD97":2581290.7400000002,"ADDRESS":"中寮５５號","OBJECTID":123672},"geometry":{"x":184355.66000000201,"y":2581290.7400000021}},{"attributes":{"ID":123673,"DIS_CODE":0,"TOWNNAME":"後壁區","LI":"長安里","LIN":"4鄰","STREET":" ","SECT":" ","MAREA":"中寮","LANE":" ","ALLEY":" ","HOUSE_NO":"５６號","E_COORD97":184359.92999999999,"N_COORD97":2581236.6699999999,"ADDRESS":"中寮５６號","OBJECTID":123673},"geometry":{"x":184359.9299999997,"y":2581236.6700000018}},{"attributes":{"ID":123674,"DIS_CODE":0,"TOWNNAME":"後壁區","LI":"長安里","LIN":"4鄰","STREET":" ","SECT":" ","MAREA":"中寮","LANE":" ","ALLEY":" ","HOUSE_NO":"５７號之４","E_COORD97":184359.01000000001,"N_COORD97":2581208.5299999998,"ADDRESS":"中寮５７號之４","OBJECTID":123674},"geometry":{"x":184359.00999999978,"y":2581208.5299999993}},{"attributes":{"ID":123675,"DIS_CODE":0,"TOWNNAME":"後壁區","LI":"長安里","LIN":"4鄰","STREET":" ","SECT":" ","MAREA":"中寮","LANE":" ","ALLEY":" ","HOUSE_NO":"５７號","E_COORD97":184366.16,"N_COORD97":2581212.9900000002,"ADDRESS":"中寮５７號","OBJECTID":123675},"geometry":{"x":184366.16000000108,"y":2581212.9900000002}},{"attributes":{"ID":123676,"DIS_CODE":0,"TOWNNAME":"後壁區","LI":"長安里","LIN":"4鄰","STREET":" ","SECT":" ","MAREA":"中寮","LANE":" ","ALLEY":" ","HOUSE_NO":"５８號","E_COORD97":184336.78,"N_COORD97":2581213.3799999999,"ADDRESS":"中寮５８號","OBJECTID":123676},"geometry":{"x":184336.78000000119,"y":2581213.3800000008}},{"attributes":{"ID":123677,"DIS_CODE":0,"TOWNNAME":"後壁區","LI":"長安里","LIN":"4鄰","STREET":" ","SECT":" ","MAREA":"中寮","LANE":" ","ALLEY":" ","HOUSE_NO":"５９號","E_COORD97":184327.98999999999,"N_COORD97":2581226.4199999999,"ADDRESS":"中寮５９號","OBJECTID":123677},"geometry":{"x":184327.98999999929,"y":2581226.4199999999}},{"attributes":{"ID":123678,"DIS_CODE":0,"TOWNNAME":"後壁區","LI":"長安里","LIN":"4鄰","STREET":" ","SECT":" ","MAREA":"中寮","LANE":" ","ALLEY":" ","HOUSE_NO":"６０號","E_COORD97":184328.28,"N_COORD97":2581198.21,"ADDRESS":"中寮６０號","OBJECTID":123678},"geometry":{"x":184328.28000000119,"y":2581198.2100000009}},{"attributes":{"ID":123679,"DIS_CODE":0,"TOWNNAME":"後壁區","LI":"長安里","LIN":"6鄰","STREET":" ","SECT":" ","MAREA":"中寮","LANE":" ","ALLEY":" ","HOUSE_NO":"７６號之３","E_COORD97":184332.82000000001,"N_COORD97":2581180.04,"ADDRESS":"中寮７６號之３","OBJECTID":123679},"geometry":{"x":184332.82000000216,"y":2581180.0399999991}},{"attributes":{"ID":123680,"DIS_CODE":0,"TOWNNAME":"後壁區","LI":"長安里","LIN":"6鄰","STREET":" ","SECT":" ","MAREA":"中寮","LANE":" ","ALLEY":" ","HOUSE_NO":"７６號","E_COORD97":184292.78,"N_COORD97":2581158.2400000002,"ADDRESS":"中寮７６號","OBJECTID":123680},"geometry":{"x":184292.78000000119,"y":2581158.2400000021}},{"attributes":{"ID":123681,"DIS_CODE":0,"TOWNNAME":"西港區","LI":"慶安里","LIN":"31鄰","STREET":"新興街","SECT":" ","MAREA":" ","LANE":" ","ALLEY":" ","HOUSE_NO":"８號之１５４","E_COORD97":168283.79000000001,"N_COORD97":2557689.3199999998,"ADDRESS":"新興街８號之１５４","OBJECTID":123681},"geometry":{"x":168283.79000000004,"y":2557689.3200000022}},{"attributes":{"ID":123682,"DIS_CODE":0,"TOWNNAME":"西港區","LI":"慶安里","LIN":"31鄰","STREET":"新興街","SECT":" ","MAREA":" ","LANE":" ","ALLEY":" ","HOUSE_NO":"８號之１５５","E_COORD97":168279.76000000001,"N_COORD97":2557689.1000000001,"ADDRESS":"新興街８號之１５５","OBJECTID":123682},"geometry":{"x":168279.76000000071,"y":2557689.0999999996}},{"attributes":{"ID":123683,"DIS_CODE":0,"TOWNNAME":"永康區","LI":"崑山里","LIN":"16鄰","STREET":"大灣路","SECT":" ","MAREA":" ","LANE":"９４２巷","ALLEY":"７１弄","HOUSE_NO":"４９號","E_COORD97":173596.22,"N_COORD97":2544540.25,"ADDRESS":"大灣路９４２巷７１弄４９號","OBJECTID":123683},"geometry":{"x":173596.22000000067,"y":2544540.25}},{"attributes":{"ID":123684,"DIS_CODE":0,"TOWNNAME":"後壁區","LI":"後壁里","LIN":"4鄰","STREET":" ","SECT":" ","MAREA":"後壁","LANE":" ","ALLEY":" ","HOUSE_NO":"８０號之１０","E_COORD97":184650.29999999999,"N_COORD97":2585186.79,"ADDRESS":"後壁８０號之１０","OBJECTID":123684},"geometry":{"x":184650.29999999981,"y":2585186.7899999991}},{"attributes":{"ID":123685,"DIS_CODE":0,"TOWNNAME":"永康區","LI":"崑山里","LIN":"16鄰","STREET":"大灣路","SECT":" ","MAREA":" ","LANE":"９４２巷","ALLEY":"７１弄","HOUSE_NO":"６７號","E_COORD97":173583.39000000001,"N_COORD97":2544529.4900000002,"ADDRESS":"大灣路９４２巷７１弄６７號","OBJECTID":123685},"geometry":{"x":173583.38999999966,"y":2544529.4899999984}},{"attributes":{"ID":123686,"DIS_CODE":0,"TOWNNAME":"永康區","LI":"崑山里","LIN":"16鄰","STREET":"大灣路","SECT":" ","MAREA":" ","LANE":"９４２巷","ALLEY":"７１弄","HOUSE_NO":"５７號","E_COORD97":173586.04999999999,"N_COORD97":2544507.2400000002,"ADDRESS":"大灣路９４２巷７１弄５７號","OBJECTID":123686},"geometry":{"x":173586.04999999981,"y":2544507.2400000002}},{"attributes":{"ID":123687,"DIS_CODE":0,"TOWNNAME":"永康區","LI":"神洲里","LIN":"16鄰","STREET":"忠孝路","SECT":" ","MAREA":" ","LANE":"７６巷","ALLEY":"４９弄","HOUSE_NO":"１３號","E_COORD97":172222.09,"N_COORD97":2544963.5,"ADDRESS":"忠孝路７６巷４９弄１３號","OBJECTID":123687},"geometry":{"x":172222.09000000078,"y":2544963.5000000037}},{"attributes":{"ID":123688,"DIS_CODE":0,"TOWNNAME":"永康區","LI":"崑山里","LIN":"16鄰","STREET":"大灣路","SECT":" ","MAREA":" ","LANE":"９４２巷","ALLEY":"７１弄","HOUSE_NO":"４１號","E_COORD97":173605.51999999999,"N_COORD97":2544567.5,"ADDRESS":"大灣路９４２巷７１弄４１號","OBJECTID":123688},"geometry":{"x":173605.52000000048,"y":2544567.5000000019}},{"attributes":{"ID":123689,"DIS_CODE":0,"TOWNNAME":"西港區","LI":"慶安里","LIN":"31鄰","STREET":"新興街","SECT":" ","MAREA":" ","LANE":" ","ALLEY":" ","HOUSE_NO":"８號之１５６","E_COORD97":168275.85999999999,"N_COORD97":2557688.0600000001,"ADDRESS":"新興街８號之１５６","OBJECTID":123689},"geometry":{"x":168275.86000000127,"y":2557688.0600000024}},{"attributes":{"ID":123690,"DIS_CODE":0,"TOWNNAME":"永康區","LI":"三合里","LIN":"24鄰","STREET":"南工街","SECT":" ","MAREA":" ","LANE":"２６７巷","ALLEY":"１４弄","HOUSE_NO":"６號","E_COORD97":171850.29999999999,"N_COORD97":2545915.4199999999,"ADDRESS":"南工街２６７巷１４弄６號","OBJECTID":123690},"geometry":{"x":171850.29999999981,"y":2545915.4199999999}},{"attributes":{"ID":123691,"DIS_CODE":0,"TOWNNAME":"永康區","LI":"二王里","LIN":"37鄰","STREET":"中山南路","SECT":" ","MAREA":" ","LANE":"４９０巷","ALLEY":"１２弄","HOUSE_NO":"１９號","E_COORD97":172224.97,"N_COORD97":2546325.02,"ADDRESS":"中山南路４９０巷１２弄１９號","OBJECTID":123691},"geometry":{"x":172224.96999999974,"y":2546325.0199999996}},{"attributes":{"ID":123692,"DIS_CODE":0,"TOWNNAME":"永康區","LI":"中興里","LIN":"20鄰","STREET":"中華路","SECT":" ","MAREA":" ","LANE":"２１６巷","ALLEY":"３５弄","HOUSE_NO":"１４號","E_COORD97":171874.39000000001,"N_COORD97":2545198.25,"ADDRESS":"中華路２１６巷３５弄１４號","OBJECTID":123692},"geometry":{"x":171874.3900000006,"y":2545198.25}},{"attributes":{"ID":123693,"DIS_CODE":0,"TOWNNAME":"永康區","LI":"大橋里","LIN":"8鄰","STREET":"大橋三街","SECT":" ","MAREA":" ","LANE":"１９９巷","ALLEY":"４２弄","HOUSE_NO":"１號","E_COORD97":170899.64999999999,"N_COORD97":2546852.25,"ADDRESS":"大橋三街１９９巷４２弄１號","OBJECTID":123693},"geometry":{"x":170899.65000000224,"y":2546852.25}},{"attributes":{"ID":123694,"DIS_CODE":0,"TOWNNAME":"後壁區","LI":"長安里","LIN":"6鄰","STREET":" ","SECT":" ","MAREA":"中寮","LANE":" ","ALLEY":" ","HOUSE_NO":"７７號","E_COORD97":184285.97,"N_COORD97":2581158.6600000001,"ADDRESS":"中寮７７號","OBJECTID":123694},"geometry":{"x":184285.97000000067,"y":2581158.660000002}},{"attributes":{"ID":123695,"DIS_CODE":0,"TOWNNAME":"永康區","LI":"五王里","LIN":"7鄰","STREET":"中華二路","SECT":" ","MAREA":" ","LANE":"２０６巷","ALLEY":"６８弄","HOUSE_NO":"３２號","E_COORD97":171669.87,"N_COORD97":2545660.04,"ADDRESS":"中華二路２０６巷６８弄３２號","OBJECTID":123695},"geometry":{"x":171669.87000000104,"y":2545660.0399999991}},{"attributes":{"ID":123696,"DIS_CODE":0,"TOWNNAME":"安南區","LI":"頂安里","LIN":"16鄰","STREET":"安中路","SECT":"一段","MAREA":" ","LANE":"２２０巷","ALLEY":"５５弄","HOUSE_NO":"１０號","E_COORD97":168678.06,"N_COORD97":2548702.75,"ADDRESS":"安中路一段２２０巷５５弄１０號","OBJECTID":123696},"geometry":{"x":168678.05999999959,"y":2548702.7500000019}},{"attributes":{"ID":123697,"DIS_CODE":0,"TOWNNAME":"西港區","LI":"慶安里","LIN":"31鄰","STREET":"新興街","SECT":" ","MAREA":" ","LANE":" ","ALLEY":" ","HOUSE_NO":"８號之１５７","E_COORD97":168272.17000000001,"N_COORD97":2557687.1000000001,"ADDRESS":"新興街８號之１５７","OBJECTID":123697},"geometry":{"x":168272.17000000086,"y":2557687.1000000015}},{"attributes":{"ID":123698,"DIS_CODE":0,"TOWNNAME":"西港區","LI":"慶安里","LIN":"31鄰","STREET":"新興街","SECT":" ","MAREA":" ","LANE":" ","ALLEY":" ","HOUSE_NO":"８號之１５８","E_COORD97":168255.17999999999,"N_COORD97":2557676.5800000001,"ADDRESS":"新興街８號之１５８","OBJECTID":123698},"geometry":{"x":168255.1799999997,"y":2557676.5799999982}},{"attributes":{"ID":123699,"DIS_CODE":0,"TOWNNAME":"後壁區","LI":"長安里","LIN":"6鄰","STREET":" ","SECT":" ","MAREA":"中寮","LANE":" ","ALLEY":" ","HOUSE_NO":"７９號","E_COORD97":184281.62,"N_COORD97":2581157.0699999998,"ADDRESS":"中寮７９號","OBJECTID":123699},"geometry":{"x":184281.62000000104,"y":2581157.0700000022}},{"attributes":{"ID":123700,"DIS_CODE":0,"TOWNNAME":"後壁區","LI":"長安里","LIN":"6鄰","STREET":" ","SECT":" ","MAREA":"中寮","LANE":" ","ALLEY":" ","HOUSE_NO":"８０號","E_COORD97":184277.45000000001,"N_COORD97":2581155.25,"ADDRESS":"中寮８０號","OBJECTID":123700},"geometry":{"x":184277.45000000205,"y":2581155.2500000019}},{"attributes":{"ID":123701,"DIS_CODE":0,"TOWNNAME":"後壁區","LI":"長安里","LIN":"6鄰","STREET":" ","SECT":" ","MAREA":"中寮","LANE":" ","ALLEY":" ","HOUSE_NO":"８３號","E_COORD97":184270.06,"N_COORD97":2581148.6299999999,"ADDRESS":"中寮８３號","OBJECTID":123701},"geometry":{"x":184270.06000000052,"y":2581148.629999999}},{"attributes":{"ID":123702,"DIS_CODE":0,"TOWNNAME":"後壁區","LI":"長安里","LIN":"6鄰","STREET":" ","SECT":" ","MAREA":"中寮","LANE":" ","ALLEY":" ","HOUSE_NO":"８６號","E_COORD97":184275.64000000001,"N_COORD97":2581142.3700000001,"ADDRESS":"中寮８６號","OBJECTID":123702},"geometry":{"x":184275.64000000153,"y":2581142.3700000029}},{"attributes":{"ID":123703,"DIS_CODE":0,"TOWNNAME":"後壁區","LI":"長安里","LIN":"6鄰","STREET":" ","SECT":" ","MAREA":"中寮","LANE":" ","ALLEY":" ","HOUSE_NO":"８７號之１","E_COORD97":184259.94,"N_COORD97":2581142.21,"ADDRESS":"中寮８７號之１","OBJECTID":123703},"geometry":{"x":184259.94000000134,"y":2581142.2100000028}},{"attributes":{"ID":123704,"DIS_CODE":0,"TOWNNAME":"後壁區","LI":"長安里","LIN":"6鄰","STREET":" ","SECT":" ","MAREA":"中寮","LANE":" ","ALLEY":" ","HOUSE_NO":"８７號之２","E_COORD97":184255.73999999999,"N_COORD97":2581142.52,"ADDRESS":"中寮８７號之２","OBJECTID":123704},"geometry":{"x":184255.74000000115,"y":2581142.5200000014}},{"attributes":{"ID":123705,"DIS_CODE":0,"TOWNNAME":"後壁區","LI":"新嘉里","LIN":"4鄰","STREET":" ","SECT":" ","MAREA":"白沙屯","LANE":" ","ALLEY":" ","HOUSE_NO":"４４號","E_COORD97":179579.73999999999,"N_COORD97":2585814.25,"ADDRESS":"白沙屯４４號","OBJECTID":123705},"geometry":{"x":179579.73999999929,"y":2585814.25}},{"attributes":{"ID":123706,"DIS_CODE":0,"TOWNNAME":"後壁區","LI":"嘉苳里","LIN":"14鄰","STREET":" ","SECT":" ","MAREA":"本協","LANE":" ","ALLEY":" ","HOUSE_NO":"６４號","E_COORD97":186891.16,"N_COORD97":2583588.96,"ADDRESS":"本協６４號","OBJECTID":123706},"geometry":{"x":186891.16000000015,"y":2583588.9600000028}},{"attributes":{"ID":123707,"DIS_CODE":0,"TOWNNAME":"後壁區","LI":"新嘉里","LIN":"13鄰","STREET":" ","SECT":" ","MAREA":"白沙屯","LANE":" ","ALLEY":" ","HOUSE_NO":"１３６號","E_COORD97":179689.72,"N_COORD97":2585427.7000000002,"ADDRESS":"白沙屯１３６號","OBJECTID":123707},"geometry":{"x":179689.7200000016,"y":2585427.6999999993}},{"attributes":{"ID":123708,"DIS_CODE":0,"TOWNNAME":"後壁區","LI":"新嘉里","LIN":"17鄰","STREET":" ","SECT":" ","MAREA":"白沙屯","LANE":" ","ALLEY":" ","HOUSE_NO":"１８５號","E_COORD97":179548.32999999999,"N_COORD97":2585693.21,"ADDRESS":"白沙屯１８５號","OBJECTID":123708},"geometry":{"x":179548.33000000007,"y":2585693.2100000028}},{"attributes":{"ID":123709,"DIS_CODE":0,"TOWNNAME":"後壁區","LI":"新嘉里","LIN":"17鄰","STREET":" ","SECT":" ","MAREA":"白沙屯","LANE":" ","ALLEY":" ","HOUSE_NO":"１８６號之１","E_COORD97":179540.95999999999,"N_COORD97":2585708,"ADDRESS":"白沙屯１８６號之１","OBJECTID":123709},"geometry":{"x":179540.96000000089,"y":2585708}},{"attributes":{"ID":123710,"DIS_CODE":0,"TOWNNAME":"後壁區","LI":"新嘉里","LIN":"17鄰","STREET":" ","SECT":" ","MAREA":"白沙屯","LANE":" ","ALLEY":" ","HOUSE_NO":"１８６號","E_COORD97":179567.63,"N_COORD97":2585703.7799999998,"ADDRESS":"白沙屯１８６號","OBJECTID":123710},"geometry":{"x":179567.62999999989,"y":2585703.7800000012}},{"attributes":{"ID":123711,"DIS_CODE":0,"TOWNNAME":"後壁區","LI":"新嘉里","LIN":"17鄰","STREET":" ","SECT":" ","MAREA":"白沙屯","LANE":" ","ALLEY":" ","HOUSE_NO":"１８７號","E_COORD97":179572.57999999999,"N_COORD97":2585718.2799999998,"ADDRESS":"白沙屯１８７號","OBJECTID":123711},"geometry":{"x":179572.58000000101,"y":2585718.2799999993}},{"attributes":{"ID":123712,"DIS_CODE":0,"TOWNNAME":"後壁區","LI":"新嘉里","LIN":"17鄰","STREET":" ","SECT":" ","MAREA":"白沙屯","LANE":" ","ALLEY":" ","HOUSE_NO":"１８８號","E_COORD97":179578.82999999999,"N_COORD97":2585701.0499999998,"ADDRESS":"白沙屯１８８號","OBJECTID":123712},"geometry":{"x":179578.83000000007,"y":2585701.0500000007}},{"attributes":{"ID":123713,"DIS_CODE":0,"TOWNNAME":"後壁區","LI":"新嘉里","LIN":"1鄰","STREET":" ","SECT":" ","MAREA":"白沙屯","LANE":" ","ALLEY":" ","HOUSE_NO":"１號之１３","E_COORD97":180201.01999999999,"N_COORD97":2586001.0600000001,"ADDRESS":"白沙屯１號之１３","OBJECTID":123713},"geometry":{"x":180201.02000000142,"y":2586001.0600000024}},{"attributes":{"ID":123714,"DIS_CODE":0,"TOWNNAME":"後壁區","LI":"新嘉里","LIN":"1鄰","STREET":" ","SECT":" ","MAREA":"白沙屯","LANE":" ","ALLEY":" ","HOUSE_NO":"１號之１４","E_COORD97":180228.12,"N_COORD97":2586008.3999999999,"ADDRESS":"白沙屯１號之１４","OBJECTID":123714},"geometry":{"x":180228.12000000197,"y":2586008.4000000041}},{"attributes":{"ID":123715,"DIS_CODE":0,"TOWNNAME":"後壁區","LI":"新嘉里","LIN":"1鄰","STREET":" ","SECT":" ","MAREA":"白沙屯","LANE":" ","ALLEY":" ","HOUSE_NO":"１號之１５","E_COORD97":180250.95999999999,"N_COORD97":2586006.1499999999,"ADDRESS":"白沙屯１號之１５","OBJECTID":123715},"geometry":{"x":180250.95999999903,"y":2586006.1500000004}},{"attributes":{"ID":123716,"DIS_CODE":0,"TOWNNAME":"後壁區","LI":"新嘉里","LIN":"19鄰","STREET":" ","SECT":" ","MAREA":"白沙屯","LANE":" ","ALLEY":" ","HOUSE_NO":"２１０號之６","E_COORD97":179392.04000000001,"N_COORD97":2585805.21,"ADDRESS":"白沙屯２１０號之６","OBJECTID":123716},"geometry":{"x":179392.04000000004,"y":2585805.2100000009}},{"attributes":{"ID":123717,"DIS_CODE":0,"TOWNNAME":"後壁區","LI":"新嘉里","LIN":"19鄰","STREET":" ","SECT":" ","MAREA":"白沙屯","LANE":" ","ALLEY":" ","HOUSE_NO":"２１０號之７","E_COORD97":179339.32999999999,"N_COORD97":2585842.6800000002,"ADDRESS":"白沙屯２１０號之７","OBJECTID":123717},"geometry":{"x":179339.33000000007,"y":2585842.6799999997}},{"attributes":{"ID":123718,"DIS_CODE":0,"TOWNNAME":"後壁區","LI":"新嘉里","LIN":"19鄰","STREET":" ","SECT":" ","MAREA":"白沙屯","LANE":" ","ALLEY":" ","HOUSE_NO":"２１０號","E_COORD97":179475.73000000001,"N_COORD97":2585785.5699999998,"ADDRESS":"白沙屯２１０號","OBJECTID":123718},"geometry":{"x":179475.73000000138,"y":2585785.5700000003}},{"attributes":{"ID":123719,"DIS_CODE":0,"TOWNNAME":"東區","LI":"中西里","LIN":"31鄰","STREET":"林森路","SECT":"二段","MAREA":" ","LANE":" ","ALLEY":" ","HOUSE_NO":"１２７號之７","E_COORD97":170413.5,"N_COORD97":2543423.71,"ADDRESS":"林森路二段１２７號之７","OBJECTID":123719},"geometry":{"x":170413.5,"y":2543423.7100000046}},{"attributes":{"ID":123720,"DIS_CODE":0,"TOWNNAME":"安南區","LI":"頂安里","LIN":"16鄰","STREET":"安中路","SECT":"一段","MAREA":" ","LANE":"２２０巷","ALLEY":"５５弄","HOUSE_NO":"１２號","E_COORD97":168672.01999999999,"N_COORD97":2548705.1000000001,"ADDRESS":"安中路一段２２０巷５５弄１２號","OBJECTID":123720},"geometry":{"x":168672.01999999862,"y":2548705.0999999978}},{"attributes":{"ID":123721,"DIS_CODE":0,"TOWNNAME":"安南區","LI":"頂安里","LIN":"16鄰","STREET":"安中路","SECT":"一段","MAREA":" ","LANE":"２２０巷","ALLEY":"５５弄","HOUSE_NO":"１號","E_COORD97":168672.69,"N_COORD97":2548671.5499999998,"ADDRESS":"安中路一段２２０巷５５弄１號","OBJECTID":123721},"geometry":{"x":168672.69000000134,"y":2548671.5500000007}},{"attributes":{"ID":123722,"DIS_CODE":0,"TOWNNAME":"安南區","LI":"頂安里","LIN":"16鄰","STREET":"安中路","SECT":"一段","MAREA":" ","LANE":"２２０巷","ALLEY":"５５弄","HOUSE_NO":"２號","E_COORD97":168690.82999999999,"N_COORD97":2548688.6600000001,"ADDRESS":"安中路一段２２０巷５５弄２號","OBJECTID":123722},"geometry":{"x":168690.83000000194,"y":2548688.6600000039}},{"attributes":{"ID":123723,"DIS_CODE":0,"TOWNNAME":"安南區","LI":"頂安里","LIN":"16鄰","STREET":"安中路","SECT":"一段","MAREA":" ","LANE":"２２０巷","ALLEY":"５５弄","HOUSE_NO":"３號","E_COORD97":168667.98999999999,"N_COORD97":2548673.8999999999,"ADDRESS":"安中路一段２２０巷５５弄３號","OBJECTID":123723},"geometry":{"x":168667.99000000209,"y":2548673.9000000022}},{"attributes":{"ID":123724,"DIS_CODE":0,"TOWNNAME":"安南區","LI":"頂安里","LIN":"16鄰","STREET":"安中路","SECT":"一段","MAREA":" ","LANE":"２２０巷","ALLEY":"５５弄","HOUSE_NO":"４號","E_COORD97":168688.14000000001,"N_COORD97":2548692.3500000001,"ADDRESS":"安中路一段２２０巷５５弄４號","OBJECTID":123724},"geometry":{"x":168688.13999999966,"y":2548692.3499999996}},{"attributes":{"ID":123725,"DIS_CODE":0,"TOWNNAME":"永康區","LI":"大橋里","LIN":"8鄰","STREET":"大橋三街","SECT":" ","MAREA":" ","LANE":"１９９巷","ALLEY":"４２弄","HOUSE_NO":"２號","E_COORD97":170889.82999999999,"N_COORD97":2546846.3999999999,"ADDRESS":"大橋三街１９９巷４２弄２號","OBJECTID":123725},"geometry":{"x":170889.83000000101,"y":2546846.4000000022}},{"attributes":{"ID":123726,"DIS_CODE":0,"TOWNNAME":"安南區","LI":"頂安里","LIN":"16鄰","STREET":"安中路","SECT":"一段","MAREA":" ","LANE":"２２０巷","ALLEY":"５５弄","HOUSE_NO":"５號","E_COORD97":168662.95000000001,"N_COORD97":2548677.9199999999,"ADDRESS":"安中路一段２２０巷５５弄５號","OBJECTID":123726},"geometry":{"x":168662.94999999925,"y":2548677.9200000018}},{"attributes":{"ID":123727,"DIS_CODE":0,"TOWNNAME":"安南區","LI":"頂安里","LIN":"16鄰","STREET":"安中路","SECT":"一段","MAREA":" ","LANE":"２２０巷","ALLEY":"５５弄","HOUSE_NO":"６號","E_COORD97":168685.79000000001,"N_COORD97":2548696.3700000001,"ADDRESS":"安中路一段２２０巷５５弄６號","OBJECTID":123727},"geometry":{"x":168685.79000000004,"y":2548696.3700000029}},{"attributes":{"ID":123728,"DIS_CODE":0,"TOWNNAME":"安南區","LI":"頂安里","LIN":"16鄰","STREET":"安中路","SECT":"一段","MAREA":" ","LANE":"２２０巷","ALLEY":"５５弄","HOUSE_NO":"８號","E_COORD97":168682.09,"N_COORD97":2548698.7200000002,"ADDRESS":"安中路一段２２０巷５５弄８號","OBJECTID":123728},"geometry":{"x":168682.09000000171,"y":2548698.7200000044}},{"attributes":{"ID":123729,"DIS_CODE":0,"TOWNNAME":"永康區","LI":"三合里","LIN":"24鄰","STREET":"南工街","SECT":" ","MAREA":" ","LANE":"３１１巷","ALLEY":"４３弄","HOUSE_NO":"１４號","E_COORD97":171837.12,"N_COORD97":2545898.4399999999,"ADDRESS":"南工街３１１巷４３弄１４號","OBJECTID":123729},"geometry":{"x":171837.12000000104,"y":2545898.4399999995}},{"attributes":{"ID":123730,"DIS_CODE":0,"TOWNNAME":"中西區","LI":"天后里","LIN":"24鄰","STREET":"郡緯街","SECT":" ","MAREA":" ","LANE":" ","ALLEY":" ","HOUSE_NO":"６號四樓之７","E_COORD97":168205.07999999999,"N_COORD97":2544297.52,"ADDRESS":"郡緯街６號四樓之７","OBJECTID":123730},"geometry":{"x":168205.08000000101,"y":2544297.5199999996}},{"attributes":{"ID":123731,"DIS_CODE":0,"TOWNNAME":"後壁區","LI":"新嘉里","LIN":"21鄰","STREET":" ","SECT":" ","MAREA":"白沙屯","LANE":" ","ALLEY":" ","HOUSE_NO":"２２１號","E_COORD97":179458.45999999999,"N_COORD97":2585615.04,"ADDRESS":"白沙屯２２１號","OBJECTID":123731},"geometry":{"x":179458.46000000089,"y":2585615.0399999991}},{"attributes":{"ID":123732,"DIS_CODE":0,"TOWNNAME":"關廟區","LI":"五甲里","LIN":"15鄰","STREET":"東興一街","SECT":" ","MAREA":" ","LANE":" ","ALLEY":" ","HOUSE_NO":"８８號","E_COORD97":181279.07000000001,"N_COORD97":2539439.25,"ADDRESS":"東興一街８８號","OBJECTID":123732},"geometry":{"x":181279.0700000003,"y":2539439.2500000019}},{"attributes":{"ID":123733,"DIS_CODE":0,"TOWNNAME":"後壁區","LI":"新嘉里","LIN":"21鄰","STREET":" ","SECT":" ","MAREA":"白沙屯","LANE":" ","ALLEY":" ","HOUSE_NO":"２２５號之１","E_COORD97":179428.79999999999,"N_COORD97":2585626.1299999999,"ADDRESS":"白沙屯２２５號之１","OBJECTID":123733},"geometry":{"x":179428.80000000075,"y":2585626.1300000008}},{"attributes":{"ID":123734,"DIS_CODE":0,"TOWNNAME":"後壁區","LI":"新嘉里","LIN":"21鄰","STREET":" ","SECT":" ","MAREA":"白沙屯","LANE":" ","ALLEY":" ","HOUSE_NO":"２２５號","E_COORD97":179412.20999999999,"N_COORD97":2585608.4199999999,"ADDRESS":"白沙屯２２５號","OBJECTID":123734},"geometry":{"x":179412.21000000089,"y":2585608.4200000018}},{"attributes":{"ID":123735,"DIS_CODE":0,"TOWNNAME":"後壁區","LI":"新嘉里","LIN":"21鄰","STREET":" ","SECT":" ","MAREA":"白沙屯","LANE":" ","ALLEY":" ","HOUSE_NO":"２２７號","E_COORD97":179449.92999999999,"N_COORD97":2585579.6200000001,"ADDRESS":"白沙屯２２７號","OBJECTID":123735},"geometry":{"x":179449.93000000063,"y":2585579.620000001}},{"attributes":{"ID":123736,"DIS_CODE":0,"TOWNNAME":"後壁區","LI":"新嘉里","LIN":"4鄰","STREET":" ","SECT":" ","MAREA":"白沙屯","LANE":" ","ALLEY":" ","HOUSE_NO":"３６號","E_COORD97":179623.69,"N_COORD97":2585725.9100000001,"ADDRESS":"白沙屯３６號","OBJECTID":123736},"geometry":{"x":179623.69000000041,"y":2585725.9100000001}},{"attributes":{"ID":123737,"DIS_CODE":0,"TOWNNAME":"後壁區","LI":"新嘉里","LIN":"4鄰","STREET":" ","SECT":" ","MAREA":"白沙屯","LANE":" ","ALLEY":" ","HOUSE_NO":"３７號","E_COORD97":179615.53,"N_COORD97":2585728.3300000001,"ADDRESS":"白沙屯３７號","OBJECTID":123737},"geometry":{"x":179615.53000000119,"y":2585728.3300000019}},{"attributes":{"ID":123738,"DIS_CODE":0,"TOWNNAME":"後壁區","LI":"新嘉里","LIN":"4鄰","STREET":" ","SECT":" ","MAREA":"白沙屯","LANE":" ","ALLEY":" ","HOUSE_NO":"４０號之２","E_COORD97":179574.14999999999,"N_COORD97":2585765.3500000001,"ADDRESS":"白沙屯４０號之２","OBJECTID":123738},"geometry":{"x":179574.1500000013,"y":2585765.3500000015}},{"attributes":{"ID":123739,"DIS_CODE":0,"TOWNNAME":"後壁區","LI":"新嘉里","LIN":"4鄰","STREET":" ","SECT":" ","MAREA":"白沙屯","LANE":" ","ALLEY":" ","HOUSE_NO":"４０號","E_COORD97":179582.98999999999,"N_COORD97":2585750.7200000002,"ADDRESS":"白沙屯４０號","OBJECTID":123739},"geometry":{"x":179582.99000000022,"y":2585750.7200000007}},{"attributes":{"ID":123740,"DIS_CODE":0,"TOWNNAME":"後壁區","LI":"新嘉里","LIN":"4鄰","STREET":" ","SECT":" ","MAREA":"白沙屯","LANE":" ","ALLEY":" ","HOUSE_NO":"４１號","E_COORD97":179582.92000000001,"N_COORD97":2585758.2400000002,"ADDRESS":"白沙屯４１號","OBJECTID":123740},"geometry":{"x":179582.91999999993,"y":2585758.2399999984}},{"attributes":{"ID":123741,"DIS_CODE":0,"TOWNNAME":"後壁區","LI":"新嘉里","LIN":"4鄰","STREET":" ","SECT":" ","MAREA":"白沙屯","LANE":" ","ALLEY":" ","HOUSE_NO":"４５號之１","E_COORD97":179609.45999999999,"N_COORD97":2585822.29,"ADDRESS":"白沙屯４５號之１","OBJECTID":123741},"geometry":{"x":179609.45999999996,"y":2585822.290000001}},{"attributes":{"ID":123742,"DIS_CODE":0,"TOWNNAME":"後壁區","LI":"新嘉里","LIN":"4鄰","STREET":" ","SECT":" ","MAREA":"白沙屯","LANE":" ","ALLEY":" ","HOUSE_NO":"４５號","E_COORD97":179605.95999999999,"N_COORD97":2585826.79,"ADDRESS":"白沙屯４５號","OBJECTID":123742},"geometry":{"x":179605.96000000089,"y":2585826.7899999991}},{"attributes":{"ID":123743,"DIS_CODE":0,"TOWNNAME":"後壁區","LI":"新嘉里","LIN":"4鄰","STREET":" ","SECT":" ","MAREA":"白沙屯","LANE":" ","ALLEY":" ","HOUSE_NO":"４６號","E_COORD97":179592.39000000001,"N_COORD97":2585810.77,"ADDRESS":"白沙屯４６號","OBJECTID":123743},"geometry":{"x":179592.3900000006,"y":2585810.7699999996}},{"attributes":{"ID":123744,"DIS_CODE":0,"TOWNNAME":"後壁區","LI":"新嘉里","LIN":"4鄰","STREET":" ","SECT":" ","MAREA":"白沙屯","LANE":" ","ALLEY":" ","HOUSE_NO":"４８號","E_COORD97":179601.54000000001,"N_COORD97":2585786.5,"ADDRESS":"白沙屯４８號","OBJECTID":123744},"geometry":{"x":179601.54000000097,"y":2585786.5}},{"attributes":{"ID":123745,"DIS_CODE":0,"TOWNNAME":"後壁區","LI":"新嘉里","LIN":"1鄰","STREET":" ","SECT":" ","MAREA":"白沙屯","LANE":" ","ALLEY":" ","HOUSE_NO":"５號","E_COORD97":179952.57999999999,"N_COORD97":2585858.5699999998,"ADDRESS":"白沙屯５號","OBJECTID":123745},"geometry":{"x":179952.58000000101,"y":2585858.5700000022}},{"attributes":{"ID":123746,"DIS_CODE":0,"TOWNNAME":"後壁區","LI":"新嘉里","LIN":"1鄰","STREET":" ","SECT":" ","MAREA":"白沙屯","LANE":" ","ALLEY":" ","HOUSE_NO":"２號","E_COORD97":179950.54999999999,"N_COORD97":2585907.48,"ADDRESS":"白沙屯２號","OBJECTID":123746},"geometry":{"x":179950.55000000075,"y":2585907.4800000023}},{"attributes":{"ID":123747,"DIS_CODE":0,"TOWNNAME":"後壁區","LI":"新嘉里","LIN":"1鄰","STREET":" ","SECT":" ","MAREA":"白沙屯","LANE":" ","ALLEY":" ","HOUSE_NO":"３號之１","E_COORD97":179928.26999999999,"N_COORD97":2585921.29,"ADDRESS":"白沙屯３號之１","OBJECTID":123747},"geometry":{"x":179928.27000000142,"y":2585921.290000001}},{"attributes":{"ID":123748,"DIS_CODE":0,"TOWNNAME":"後壁區","LI":"新嘉里","LIN":"1鄰","STREET":" ","SECT":" ","MAREA":"白沙屯","LANE":" ","ALLEY":" ","HOUSE_NO":"３號之２","E_COORD97":179929.28,"N_COORD97":2585876.7400000002,"ADDRESS":"白沙屯３號之２","OBJECTID":123748},"geometry":{"x":179929.28000000119,"y":2585876.7400000002}},{"attributes":{"ID":123749,"DIS_CODE":0,"TOWNNAME":"後壁區","LI":"新嘉里","LIN":"1鄰","STREET":" ","SECT":" ","MAREA":"白沙屯","LANE":" ","ALLEY":" ","HOUSE_NO":"３號之６","E_COORD97":179911.16,"N_COORD97":2585865.3700000001,"ADDRESS":"白沙屯３號之６","OBJECTID":123749},"geometry":{"x":179911.16000000108,"y":2585865.370000001}},{"attributes":{"ID":123750,"DIS_CODE":0,"TOWNNAME":"後壁區","LI":"新嘉里","LIN":"8鄰","STREET":" ","SECT":" ","MAREA":"白沙屯","LANE":" ","ALLEY":" ","HOUSE_NO":"８１號","E_COORD97":179611.01000000001,"N_COORD97":2585689.02,"ADDRESS":"白沙屯８１號","OBJECTID":123750},"geometry":{"x":179611.00999999978,"y":2585689.0200000014}},{"attributes":{"ID":123751,"DIS_CODE":0,"TOWNNAME":"永康區","LI":"中興里","LIN":"6鄰","STREET":"中華一路","SECT":" ","MAREA":" ","LANE":"５８巷","ALLEY":"６弄","HOUSE_NO":"７號","E_COORD97":171885.42999999999,"N_COORD97":2545035.6400000001,"ADDRESS":"中華一路５８巷６弄７號","OBJECTID":123751},"geometry":{"x":171885.43000000063,"y":2545035.6400000025}},{"attributes":{"ID":123752,"DIS_CODE":0,"TOWNNAME":"永康區","LI":"中興里","LIN":"6鄰","STREET":"中華一路","SECT":" ","MAREA":" ","LANE":"５８巷","ALLEY":"６弄","HOUSE_NO":"２６號","E_COORD97":171925.16,"N_COORD97":2545025.2400000002,"ADDRESS":"中華一路５８巷６弄２６號","OBJECTID":123752},"geometry":{"x":171925.16000000108,"y":2545025.2400000002}},{"attributes":{"ID":123753,"DIS_CODE":0,"TOWNNAME":"永康區","LI":"三合里","LIN":"9鄰","STREET":"南工街","SECT":" ","MAREA":" ","LANE":"２４７巷","ALLEY":"３５弄","HOUSE_NO":"５６號","E_COORD97":171998.20999999999,"N_COORD97":2545758.7400000002,"ADDRESS":"南工街２４７巷３５弄５６號","OBJECTID":123753},"geometry":{"x":171998.20999999996,"y":2545758.7400000039}},{"attributes":{"ID":123754,"DIS_CODE":0,"TOWNNAME":"後壁區","LI":"後壁里","LIN":"4鄰","STREET":" ","SECT":" ","MAREA":"後壁","LANE":" ","ALLEY":" ","HOUSE_NO":"７８號之１","E_COORD97":184655.38,"N_COORD97":2585006,"ADDRESS":"後壁７８號之１","OBJECTID":123754},"geometry":{"x":184655.37999999989,"y":2585006}},{"attributes":{"ID":123755,"DIS_CODE":0,"TOWNNAME":"東區","LI":"中西里","LIN":"31鄰","STREET":"林森路","SECT":"二段","MAREA":" ","LANE":" ","ALLEY":" ","HOUSE_NO":"１２７號之８","E_COORD97":170413.5,"N_COORD97":2543423.71,"ADDRESS":"林森路二段１２７號之８","OBJECTID":123755},"geometry":{"x":170413.5,"y":2543423.7100000046}},{"attributes":{"ID":123756,"DIS_CODE":0,"TOWNNAME":"東區","LI":"中西里","LIN":"31鄰","STREET":"林森路","SECT":"二段","MAREA":" ","LANE":" ","ALLEY":" ","HOUSE_NO":"１２７號之９","E_COORD97":170413.5,"N_COORD97":2543423.71,"ADDRESS":"林森路二段１２７號之９","OBJECTID":123756},"geometry":{"x":170413.5,"y":2543423.7100000046}},{"attributes":{"ID":123757,"DIS_CODE":0,"TOWNNAME":"永康區","LI":"三合里","LIN":"9鄰","STREET":"南工街","SECT":" ","MAREA":" ","LANE":"２４７巷","ALLEY":"３５弄","HOUSE_NO":"６７號","E_COORD97":172026.87,"N_COORD97":2545736.7400000002,"ADDRESS":"南工街２４７巷３５弄６７號","OBJECTID":123757},"geometry":{"x":172026.87000000197,"y":2545736.7400000002}},{"attributes":{"ID":123758,"DIS_CODE":0,"TOWNNAME":"仁德區","LI":"成功里","LIN":"16鄰","STREET":"全福路","SECT":" ","MAREA":" ","LANE":"７５巷","ALLEY":"１３弄","HOUSE_NO":"２８號","E_COORD97":170957.42999999999,"N_COORD97":2539368.75,"ADDRESS":"全福路７５巷１３弄２８號","OBJECTID":123758},"geometry":{"x":170957.4299999997,"y":2539368.7500000019}},{"attributes":{"ID":123759,"DIS_CODE":0,"TOWNNAME":"仁德區","LI":"成功里","LIN":"16鄰","STREET":"全福路","SECT":" ","MAREA":" ","LANE":"７５巷","ALLEY":"１３弄","HOUSE_NO":"２７號","E_COORD97":170957.82000000001,"N_COORD97":2539352.2400000002,"ADDRESS":"全福路７５巷１３弄２７號","OBJECTID":123759},"geometry":{"x":170957.82000000123,"y":2539352.2400000021}},{"attributes":{"ID":123760,"DIS_CODE":0,"TOWNNAME":"仁德區","LI":"成功里","LIN":"16鄰","STREET":"全福路","SECT":" ","MAREA":" ","LANE":"７５巷","ALLEY":"１３弄","HOUSE_NO":"１７號","E_COORD97":170978.04999999999,"N_COORD97":2539350.2400000002,"ADDRESS":"全福路７５巷１３弄１７號","OBJECTID":123760},"geometry":{"x":170978.05000000075,"y":2539350.2400000002}},{"attributes":{"ID":123761,"DIS_CODE":0,"TOWNNAME":"仁德區","LI":"成功里","LIN":"16鄰","STREET":"全福路","SECT":" ","MAREA":" ","LANE":"７５巷","ALLEY":"１３弄","HOUSE_NO":"３９號","E_COORD97":170932.12,"N_COORD97":2539354.7400000002,"ADDRESS":"全福路７５巷１３弄３９號","OBJECTID":123761},"geometry":{"x":170932.12000000104,"y":2539354.7400000021}},{"attributes":{"ID":123762,"DIS_CODE":0,"TOWNNAME":"仁德區","LI":"成功里","LIN":"16鄰","STREET":"全福路","SECT":" ","MAREA":" ","LANE":"７５巷","ALLEY":"１３弄","HOUSE_NO":"２１號","E_COORD97":170970.04999999999,"N_COORD97":2539350.9900000002,"ADDRESS":"全福路７５巷１３弄２１號","OBJECTID":123762},"geometry":{"x":170970.04999999981,"y":2539350.9900000002}},{"attributes":{"ID":123763,"DIS_CODE":0,"TOWNNAME":"仁德區","LI":"成功里","LIN":"16鄰","STREET":"全福路","SECT":" ","MAREA":" ","LANE":"７５巷","ALLEY":"１３弄","HOUSE_NO":"３１號","E_COORD97":170949.23000000001,"N_COORD97":2539352.7400000002,"ADDRESS":"全福路７５巷１３弄３１號","OBJECTID":123763},"geometry":{"x":170949.23000000045,"y":2539352.7400000002}},{"attributes":{"ID":123764,"DIS_CODE":0,"TOWNNAME":"東區","LI":"中西里","LIN":"31鄰","STREET":"林森路","SECT":"二段","MAREA":" ","LANE":" ","ALLEY":" ","HOUSE_NO":"１２７號之１０","E_COORD97":170413.5,"N_COORD97":2543423.71,"ADDRESS":"林森路二段１２７號之１０","OBJECTID":123764},"geometry":{"x":170413.5,"y":2543423.7100000046}},{"attributes":{"ID":123765,"DIS_CODE":0,"TOWNNAME":"仁德區","LI":"成功里","LIN":"16鄰","STREET":"全福路","SECT":" ","MAREA":" ","LANE":"７５巷","ALLEY":"１３弄","HOUSE_NO":"４１號","E_COORD97":170927.95999999999,"N_COORD97":2539354.9900000002,"ADDRESS":"全福路７５巷１３弄４１號","OBJECTID":123765},"geometry":{"x":170927.96000000089,"y":2539354.9900000002}},{"attributes":{"ID":123766,"DIS_CODE":0,"TOWNNAME":"仁德區","LI":"成功里","LIN":"16鄰","STREET":"全福路","SECT":" ","MAREA":" ","LANE":"７５巷","ALLEY":"１３弄","HOUSE_NO":"４９號","E_COORD97":170910.17000000001,"N_COORD97":2539356.4900000002,"ADDRESS":"全福路７５巷１３弄４９號","OBJECTID":123766},"geometry":{"x":170910.16999999993,"y":2539356.4900000021}},{"attributes":{"ID":123767,"DIS_CODE":0,"TOWNNAME":"永康區","LI":"中興里","LIN":"20鄰","STREET":"中華路","SECT":" ","MAREA":" ","LANE":"２１６巷","ALLEY":"３５弄","HOUSE_NO":"２７號","E_COORD97":171901.32999999999,"N_COORD97":2545212.7400000002,"ADDRESS":"中華路２１６巷３５弄２７號","OBJECTID":123767},"geometry":{"x":171901.33000000007,"y":2545212.7399999984}},{"attributes":{"ID":123768,"DIS_CODE":0,"TOWNNAME":"東區","LI":"中西里","LIN":"31鄰","STREET":"林森路","SECT":"二段","MAREA":" ","LANE":" ","ALLEY":" ","HOUSE_NO":"１２７號之１１","E_COORD97":170413.5,"N_COORD97":2543423.71,"ADDRESS":"林森路二段１２７號之１１","OBJECTID":123768},"geometry":{"x":170413.5,"y":2543423.7100000046}},{"attributes":{"ID":123769,"DIS_CODE":0,"TOWNNAME":"永康區","LI":"永康里","LIN":"31鄰","STREET":"龍中街","SECT":" ","MAREA":" ","LANE":" ","ALLEY":" ","HOUSE_NO":"９１號","E_COORD97":174369.12,"N_COORD97":2547805.3300000001,"ADDRESS":"龍中街９１號","OBJECTID":123769},"geometry":{"x":174369.12000000011,"y":2547805.3300000001}},{"attributes":{"ID":123770,"DIS_CODE":0,"TOWNNAME":"永康區","LI":"\u25A0行里","LIN":"31鄰","STREET":"中正北路","SECT":" ","MAREA":" ","LANE":" ","ALLEY":" ","HOUSE_NO":"３號","E_COORD97":171848.23000000001,"N_COORD97":2549079.8300000001,"ADDRESS":"中正北路３號","OBJECTID":123770},"geometry":{"x":171848.23000000045,"y":2549079.8300000001}},{"attributes":{"ID":123771,"DIS_CODE":0,"TOWNNAME":"永康區","LI":"大橋里","LIN":"10鄰","STREET":"大橋二街","SECT":" ","MAREA":" ","LANE":"２３９巷","ALLEY":"２１弄","HOUSE_NO":"８號","E_COORD97":171060.04999999999,"N_COORD97":2546845.9100000001,"ADDRESS":"大橋二街２３９巷２１弄８號","OBJECTID":123771},"geometry":{"x":171060.04999999981,"y":2546845.9100000039}},{"attributes":{"ID":123772,"DIS_CODE":0,"TOWNNAME":"仁德區","LI":"後壁里","LIN":"26鄰","STREET":"中正路","SECT":"二段","MAREA":" ","LANE":" ","ALLEY":" ","HOUSE_NO":"３１７號","E_COORD97":173246.88,"N_COORD97":2539133.52,"ADDRESS":"中正路二段３１７號","OBJECTID":123772},"geometry":{"x":173246.87999999896,"y":2539133.5199999996}},{"attributes":{"ID":123773,"DIS_CODE":0,"TOWNNAME":"仁德區","LI":"大甲里","LIN":"4鄰","STREET":"行大街","SECT":" ","MAREA":" ","LANE":" ","ALLEY":" ","HOUSE_NO":"２７３之３號","E_COORD97":169771.67999999999,"N_COORD97":2535134.5499999998,"ADDRESS":"行大街２７３之３號","OBJECTID":123773},"geometry":{"x":169771.68000000063,"y":2535134.5500000007}},{"attributes":{"ID":123774,"DIS_CODE":0,"TOWNNAME":"西港區","LI":"西港里","LIN":"31鄰","STREET":" ","SECT":" ","MAREA":"堀子頭","LANE":" ","ALLEY":" ","HOUSE_NO":"９１號","E_COORD97":168542.42999999999,"N_COORD97":2557461.2599999998,"ADDRESS":"堀子頭９１號","OBJECTID":123774},"geometry":{"x":168542.43000000156,"y":2557461.2599999998}},{"attributes":{"ID":123775,"DIS_CODE":0,"TOWNNAME":"後壁區","LI":"新嘉里","LIN":"8鄰","STREET":" ","SECT":" ","MAREA":"白沙屯","LANE":" ","ALLEY":" ","HOUSE_NO":"８２號","E_COORD97":179620.10000000001,"N_COORD97":2585650.2599999998,"ADDRESS":"白沙屯８２號","OBJECTID":123775},"geometry":{"x":179620.09999999963,"y":2585650.2600000016}},{"attributes":{"ID":123776,"DIS_CODE":0,"TOWNNAME":"後壁區","LI":"新嘉里","LIN":"1鄰","STREET":" ","SECT":" ","MAREA":"白沙屯","LANE":" ","ALLEY":" ","HOUSE_NO":"５號之１","E_COORD97":179924.60000000001,"N_COORD97":2585845.0600000001,"ADDRESS":"白沙屯５號之１","OBJECTID":123776},"geometry":{"x":179924.60000000056,"y":2585845.0600000024}},{"attributes":{"ID":123777,"DIS_CODE":0,"TOWNNAME":"後壁區","LI":"竹新里","LIN":"6鄰","STREET":" ","SECT":" ","MAREA":"竹圍後","LANE":" ","ALLEY":" ","HOUSE_NO":"５１號之１","E_COORD97":178327.85999999999,"N_COORD97":2582355.8500000001,"ADDRESS":"竹圍後５１號之１","OBJECTID":123777},"geometry":{"x":178327.86000000034,"y":2582355.8499999996}},{"attributes":{"ID":123778,"DIS_CODE":0,"TOWNNAME":"後壁區","LI":"竹新里","LIN":"6鄰","STREET":" ","SECT":" ","MAREA":"竹圍後","LANE":" ","ALLEY":" ","HOUSE_NO":"５１號之２","E_COORD97":178301.91,"N_COORD97":2582352.1800000002,"ADDRESS":"竹圍後５１號之２","OBJECTID":123778},"geometry":{"x":178301.91000000015,"y":2582352.1800000016}},{"attributes":{"ID":123779,"DIS_CODE":0,"TOWNNAME":"後壁區","LI":"竹新里","LIN":"6鄰","STREET":" ","SECT":" ","MAREA":"竹圍後","LANE":" ","ALLEY":" ","HOUSE_NO":"５１號之３","E_COORD97":178307.25,"N_COORD97":2582355.8599999999,"ADDRESS":"竹圍後５１號之３","OBJECTID":123779},"geometry":{"x":178307.25000000093,"y":2582355.8599999994}},{"attributes":{"ID":123780,"DIS_CODE":0,"TOWNNAME":"後壁區","LI":"竹新里","LIN":"4鄰","STREET":" ","SECT":" ","MAREA":"竹圍後","LANE":" ","ALLEY":" ","HOUSE_NO":"６９號之１","E_COORD97":178537.78,"N_COORD97":2582361.9500000002,"ADDRESS":"竹圍後６９號之１","OBJECTID":123780},"geometry":{"x":178537.78000000119,"y":2582361.9499999974}},{"attributes":{"ID":123781,"DIS_CODE":0,"TOWNNAME":"後壁區","LI":"竹新里","LIN":"4鄰","STREET":" ","SECT":" ","MAREA":"竹圍後","LANE":" ","ALLEY":" ","HOUSE_NO":"６９號之２","E_COORD97":178539.54000000001,"N_COORD97":2582318.8199999998,"ADDRESS":"竹圍後６９號之２","OBJECTID":123781},"geometry":{"x":178539.54000000004,"y":2582318.8200000003}},{"attributes":{"ID":123782,"DIS_CODE":0,"TOWNNAME":"西港區","LI":"西港里","LIN":"31鄰","STREET":" ","SECT":" ","MAREA":"堀子頭","LANE":" ","ALLEY":" ","HOUSE_NO":"８３號之９","E_COORD97":168537.26000000001,"N_COORD97":2557404.46,"ADDRESS":"堀子頭８３號之９","OBJECTID":123782},"geometry":{"x":168537.26000000071,"y":2557404.4600000028}},{"attributes":{"ID":123783,"DIS_CODE":0,"TOWNNAME":"永康區","LI":"中興里","LIN":"16鄰","STREET":"中華二路","SECT":" ","MAREA":" ","LANE":"１２７巷","ALLEY":"２弄","HOUSE_NO":"２６號","E_COORD97":171967.04000000001,"N_COORD97":2545399.75,"ADDRESS":"中華二路１２７巷２弄２６號","OBJECTID":123783},"geometry":{"x":171967.04000000097,"y":2545399.7500000019}},{"attributes":{"ID":123784,"DIS_CODE":0,"TOWNNAME":"西港區","LI":"西港里","LIN":"31鄰","STREET":" ","SECT":" ","MAREA":"堀子頭","LANE":" ","ALLEY":" ","HOUSE_NO":"８５之１５號","E_COORD97":168647.51000000001,"N_COORD97":2556916.8100000001,"ADDRESS":"堀子頭８５之１５號","OBJECTID":123784},"geometry":{"x":168647.51000000071,"y":2556916.8100000024}},{"attributes":{"ID":123785,"DIS_CODE":0,"TOWNNAME":"仁德區","LI":"成功里","LIN":"16鄰","STREET":"全福路","SECT":" ","MAREA":" ","LANE":"７５巷","ALLEY":"１３弄","HOUSE_NO":"３３號","E_COORD97":170945.12,"N_COORD97":2539353.4900000002,"ADDRESS":"全福路７５巷１３弄３３號","OBJECTID":123785},"geometry":{"x":170945.11999999918,"y":2539353.4900000021}},{"attributes":{"ID":123786,"DIS_CODE":0,"TOWNNAME":"仁德區","LI":"成功里","LIN":"16鄰","STREET":"全福路","SECT":" ","MAREA":" ","LANE":"７５巷","ALLEY":"１３弄","HOUSE_NO":"２號","E_COORD97":171012.39999999999,"N_COORD97":2539363.5,"ADDRESS":"全福路７５巷１３弄２號","OBJECTID":123786},"geometry":{"x":171012.40000000037,"y":2539363.5000000019}},{"attributes":{"ID":123787,"DIS_CODE":0,"TOWNNAME":"永康區","LI":"中興里","LIN":"6鄰","STREET":"中華一路","SECT":" ","MAREA":" ","LANE":"５８巷","ALLEY":"６弄","HOUSE_NO":"２２號","E_COORD97":171919.22,"N_COORD97":2545024.4900000002,"ADDRESS":"中華一路５８巷６弄２２號","OBJECTID":123787},"geometry":{"x":171919.22000000067,"y":2545024.4899999984}},{"attributes":{"ID":123788,"DIS_CODE":0,"TOWNNAME":"東區","LI":"崇誨里","LIN":"31鄰","STREET":"林森路","SECT":"二段","MAREA":" ","LANE":" ","ALLEY":" ","HOUSE_NO":"２１８號之１０","E_COORD97":170504.48999999999,"N_COORD97":2543416.8799999999,"ADDRESS":"林森路二段２１８號之１０","OBJECTID":123788},"geometry":{"x":170504.49000000115,"y":2543416.8799999971}},{"attributes":{"ID":123789,"DIS_CODE":0,"TOWNNAME":"西港區","LI":"西港里","LIN":"31鄰","STREET":" ","SECT":" ","MAREA":"堀子頭","LANE":" ","ALLEY":" ","HOUSE_NO":"８５號之１","E_COORD97":168537.14999999999,"N_COORD97":2557174.8500000001,"ADDRESS":"堀子頭８５號之１","OBJECTID":123789},"geometry":{"x":168537.1500000013,"y":2557174.8499999996}},{"attributes":{"ID":123790,"DIS_CODE":0,"TOWNNAME":"西港區","LI":"西港里","LIN":"31鄰","STREET":" ","SECT":" ","MAREA":"堀子頭","LANE":" ","ALLEY":" ","HOUSE_NO":"８５號之６","E_COORD97":168579.67000000001,"N_COORD97":2557282.3100000001,"ADDRESS":"堀子頭８５號之６","OBJECTID":123790},"geometry":{"x":168579.66999999993,"y":2557282.3099999987}},{"attributes":{"ID":123791,"DIS_CODE":0,"TOWNNAME":"西港區","LI":"西港里","LIN":"31鄰","STREET":" ","SECT":" ","MAREA":"堀子頭","LANE":" ","ALLEY":" ","HOUSE_NO":"８５號","E_COORD97":168596.78,"N_COORD97":2557167.77,"ADDRESS":"堀子頭８５號","OBJECTID":123791},"geometry":{"x":168596.78000000119,"y":2557167.7700000014}},{"attributes":{"ID":123792,"DIS_CODE":0,"TOWNNAME":"西港區","LI":"西港里","LIN":"31鄰","STREET":" ","SECT":" ","MAREA":"堀子頭","LANE":" ","ALLEY":" ","HOUSE_NO":"８９號","E_COORD97":168523.63,"N_COORD97":2557460.8700000001,"ADDRESS":"堀子頭８９號","OBJECTID":123792},"geometry":{"x":168523.62999999989,"y":2557460.870000001}},{"attributes":{"ID":123793,"DIS_CODE":0,"TOWNNAME":"東區","LI":"崇誨里","LIN":"31鄰","STREET":"林森路","SECT":"二段","MAREA":" ","LANE":" ","ALLEY":" ","HOUSE_NO":"２２０號","E_COORD97":170518.01000000001,"N_COORD97":2543412.73,"ADDRESS":"林森路二段２２０號","OBJECTID":123793},"geometry":{"x":170518.00999999978,"y":2543412.7299999986}},{"attributes":{"ID":123794,"DIS_CODE":0,"TOWNNAME":"西港區","LI":"西港里","LIN":"31鄰","STREET":" ","SECT":" ","MAREA":"堀子頭","LANE":" ","ALLEY":" ","HOUSE_NO":"９０號之１０","E_COORD97":168560.12,"N_COORD97":2557450.9300000002,"ADDRESS":"堀子頭９０號之１０","OBJECTID":123794},"geometry":{"x":168560.12000000197,"y":2557450.9300000016}},{"attributes":{"ID":123795,"DIS_CODE":0,"TOWNNAME":"西港區","LI":"西港里","LIN":"31鄰","STREET":" ","SECT":" ","MAREA":"堀子頭","LANE":" ","ALLEY":" ","HOUSE_NO":"９０號之１１","E_COORD97":168563.79999999999,"N_COORD97":2557451.1400000001,"ADDRESS":"堀子頭９０號之１１","OBJECTID":123795},"geometry":{"x":168563.80000000168,"y":2557451.1400000025}},{"attributes":{"ID":123796,"DIS_CODE":0,"TOWNNAME":"東區","LI":"崇誨里","LIN":"31鄰","STREET":"林森路","SECT":"二段","MAREA":" ","LANE":" ","ALLEY":" ","HOUSE_NO":"２２２號","E_COORD97":170520.72,"N_COORD97":2543420,"ADDRESS":"林森路二段２２２號","OBJECTID":123796},"geometry":{"x":170520.72000000067,"y":2543420}},{"attributes":{"ID":123797,"DIS_CODE":0,"TOWNNAME":"永康區","LI":"大灣里","LIN":"30鄰","STREET":"民族路","SECT":" ","MAREA":" ","LANE":"１２６巷","ALLEY":"８０弄","HOUSE_NO":"３號","E_COORD97":175425.78,"N_COORD97":2544946.46,"ADDRESS":"民族路１２６巷８０弄３號","OBJECTID":123797},"geometry":{"x":175425.78000000026,"y":2544946.4600000009}},{"attributes":{"ID":123798,"DIS_CODE":0,"TOWNNAME":"永康區","LI":"二王里","LIN":"37鄰","STREET":"中山南路","SECT":" ","MAREA":" ","LANE":"４９０巷","ALLEY":"１２弄","HOUSE_NO":"３３號","E_COORD97":172250.75,"N_COORD97":2546324.6699999999,"ADDRESS":"中山南路４９０巷１２弄３３號","OBJECTID":123798},"geometry":{"x":172250.75,"y":2546324.6699999999}},{"attributes":{"ID":123799,"DIS_CODE":0,"TOWNNAME":"仁德區","LI":"成功里","LIN":"16鄰","STREET":"全福路","SECT":" ","MAREA":" ","LANE":"７５巷","ALLEY":"１３弄","HOUSE_NO":"２２號","E_COORD97":170971.64000000001,"N_COORD97":2539366.5,"ADDRESS":"全福路７５巷１３弄２２號","OBJECTID":123799},"geometry":{"x":170971.63999999873,"y":2539366.5000000019}},{"attributes":{"ID":123800,"DIS_CODE":0,"TOWNNAME":"仁德區","LI":"後壁里","LIN":"16鄰","STREET":"德善路","SECT":" ","MAREA":" ","LANE":"３２巷","ALLEY":"１７弄","HOUSE_NO":"９號","E_COORD97":173334.10000000001,"N_COORD97":2538869.27,"ADDRESS":"德善路３２巷１７弄９號","OBJECTID":123800},"geometry":{"x":173334.10000000056,"y":2538869.2700000014}}]}