{"displayFieldName":"TOWNNAME","fieldAliases":{"ID":"ID","DIS_CODE":"DIS_CODE","TOWNNAME":"TOWNNAME","LI":"LI","LIN":"LIN","STREET":"STREET","SECT":"SECT","MAREA":"MAREA","LANE":"LANE","ALLEY":"ALLEY","HOUSE_NO":"HOUSE_NO","E_COORD97":"E_COORD97","N_COORD97":"N_COORD97","ADDRESS":"ADDRESS","OBJECTID":"OBJECTID"},"geometryType":"esriGeometryPoint","spatialReference":{"wkid":102443,"latestWkid":3826},"fields":[{"name":"ID","type":"esriFieldTypeDouble","alias":"ID"},{"name":"DIS_CODE","type":"esriFieldTypeInteger","alias":"DIS_CODE"},{"name":"TOWNNAME","type":"esriFieldTypeString","alias":"TOWNNAME","length":8},{"name":"LI","type":"esriFieldTypeString","alias":"LI","length":8},{"name":"LIN","type":"esriFieldTypeString","alias":"LIN","length":12},{"name":"STREET","type":"esriFieldTypeString","alias":"STREET","length":20},{"name":"SECT","type":"esriFieldTypeString","alias":"SECT","length":8},{"name":"MAREA","type":"esriFieldTypeString","alias":"MAREA","length":12},{"name":"LANE","type":"esriFieldTypeString","alias":"LANE","length":10},{"name":"ALLEY","type":"esriFieldTypeString","alias":"ALLEY","length":10},{"name":"HOUSE_NO","type":"esriFieldTypeString","alias":"HOUSE_NO","length":20},{"name":"E_COORD97","type":"esriFieldTypeDouble","alias":"E_COORD97"},{"name":"N_COORD97","type":"esriFieldTypeDouble","alias":"N_COORD97"},{"name":"ADDRESS","type":"esriFieldTypeString","alias":"ADDRESS","length":50},{"name":"OBJECTID","type":"esriFieldTypeOID","alias":"OBJECTID"}],"features":[{"attributes":{"ID":146601,"DIS_CODE":0,"TOWNNAME":"歸仁區","LI":"文化里","LIN":"3鄰","STREET":"國光街","SECT":" ","MAREA":" ","LANE":"１４３巷","ALLEY":"２２弄","HOUSE_NO":"２號","E_COORD97":177301.98000000001,"N_COORD97":2541221.3300000001,"ADDRESS":"國光街１４３巷２２弄２號","OBJECTID":146601},"geometry":{"x":177301.98000000138,"y":2541221.3300000001}},{"attributes":{"ID":146602,"DIS_CODE":0,"TOWNNAME":"歸仁區","LI":"歸仁里","LIN":"3鄰","STREET":"文化街","SECT":"一段","MAREA":" ","LANE":"１７５巷","ALLEY":"１２弄","HOUSE_NO":"２號","E_COORD97":177751.84,"N_COORD97":2541053.0499999998,"ADDRESS":"文化街一段１７５巷１２弄２號","OBJECTID":146602},"geometry":{"x":177751.84000000078,"y":2541053.0500000007}},{"attributes":{"ID":146603,"DIS_CODE":0,"TOWNNAME":"歸仁區","LI":"文化里","LIN":"3鄰","STREET":"國光街","SECT":" ","MAREA":" ","LANE":"１４３巷","ALLEY":"２２弄","HOUSE_NO":"５號","E_COORD97":177217.07000000001,"N_COORD97":2541514.25,"ADDRESS":"國光街１４３巷２２弄５號","OBJECTID":146603},"geometry":{"x":177217.07000000123,"y":2541514.2500000019}},{"attributes":{"ID":146604,"DIS_CODE":0,"TOWNNAME":"歸仁區","LI":"後市里","LIN":"3鄰","STREET":"民族南街","SECT":" ","MAREA":" ","LANE":"１８巷","ALLEY":"７７弄","HOUSE_NO":"９號","E_COORD97":177246.54000000001,"N_COORD97":2540716.5499999998,"ADDRESS":"民族南街１８巷７７弄９號","OBJECTID":146604},"geometry":{"x":177246.54000000004,"y":2540716.5500000026}},{"attributes":{"ID":146605,"DIS_CODE":0,"TOWNNAME":"關廟區","LI":"松腳里","LIN":"3鄰","STREET":"中山路","SECT":"一段","MAREA":" ","LANE":"８９巷","ALLEY":"６１弄","HOUSE_NO":"６號","E_COORD97":181956.66,"N_COORD97":2539792.2799999998,"ADDRESS":"中山路一段８９巷６１弄６號","OBJECTID":146605},"geometry":{"x":181956.66000000015,"y":2539792.2799999993}},{"attributes":{"ID":146606,"DIS_CODE":0,"TOWNNAME":"關廟區","LI":"松腳里","LIN":"3鄰","STREET":"松平街","SECT":" ","MAREA":" ","LANE":"５６巷","ALLEY":"７弄","HOUSE_NO":"１８號","E_COORD97":181971.87,"N_COORD97":2539778.25,"ADDRESS":"松平街５６巷７弄１８號","OBJECTID":146606},"geometry":{"x":181971.87000000011,"y":2539778.2500000019}},{"attributes":{"ID":146607,"DIS_CODE":0,"TOWNNAME":"關廟區","LI":"埤頭里","LIN":"3鄰","STREET":"保東路","SECT":" ","MAREA":" ","LANE":"３巷","ALLEY":"５６弄","HOUSE_NO":"２３號","E_COORD97":178979.17000000001,"N_COORD97":2543900.25,"ADDRESS":"保東路３巷５６弄２３號","OBJECTID":146607},"geometry":{"x":178979.16999999993,"y":2543900.2499999981}},{"attributes":{"ID":146608,"DIS_CODE":0,"TOWNNAME":"關廟區","LI":"松腳里","LIN":"3鄰","STREET":"松平街","SECT":" ","MAREA":" ","LANE":"５６巷","ALLEY":"７弄","HOUSE_NO":"１１號","E_COORD97":181974.17000000001,"N_COORD97":2539767.25,"ADDRESS":"松平街５６巷７弄１１號","OBJECTID":146608},"geometry":{"x":181974.17000000086,"y":2539767.25}},{"attributes":{"ID":146609,"DIS_CODE":0,"TOWNNAME":"關廟區","LI":"松腳里","LIN":"3鄰","STREET":"松平街","SECT":" ","MAREA":" ","LANE":"５６巷","ALLEY":"７弄","HOUSE_NO":"３號","E_COORD97":181999.42000000001,"N_COORD97":2539765.25,"ADDRESS":"松平街５６巷７弄３號","OBJECTID":146609},"geometry":{"x":181999.42000000086,"y":2539765.2500000019}},{"attributes":{"ID":146610,"DIS_CODE":0,"TOWNNAME":"關廟區","LI":"松腳里","LIN":"3鄰","STREET":"松平街","SECT":" ","MAREA":" ","LANE":"５６巷","ALLEY":"７弄","HOUSE_NO":"１０號","E_COORD97":181999.97,"N_COORD97":2539777.25,"ADDRESS":"松平街５６巷７弄１０號","OBJECTID":146610},"geometry":{"x":181999.96999999974,"y":2539777.25}},{"attributes":{"ID":146611,"DIS_CODE":0,"TOWNNAME":"關廟區","LI":"松腳里","LIN":"3鄰","STREET":"松平街","SECT":" ","MAREA":" ","LANE":"５６巷","ALLEY":"７弄","HOUSE_NO":"１６號","E_COORD97":181984.57000000001,"N_COORD97":2539779.25,"ADDRESS":"松平街５６巷７弄１６號","OBJECTID":146611},"geometry":{"x":181984.5700000003,"y":2539779.2500000019}},{"attributes":{"ID":146612,"DIS_CODE":0,"TOWNNAME":"白河區","LI":"關嶺里","LIN":"4鄰","STREET":" ","SECT":" ","MAREA":"關子嶺","LANE":" ","ALLEY":" ","HOUSE_NO":"８２之３號","E_COORD97":198908.09,"N_COORD97":2581316.8100000001,"ADDRESS":"關子嶺８２之３號","OBJECTID":146612},"geometry":{"x":198908.09000000078,"y":2581316.8100000042}},{"attributes":{"ID":146613,"DIS_CODE":0,"TOWNNAME":"白河區","LI":"關嶺里","LIN":"14鄰","STREET":" ","SECT":" ","MAREA":"關子嶺","LANE":" ","ALLEY":" ","HOUSE_NO":"８號","E_COORD97":200238.34,"N_COORD97":2582199.7400000002,"ADDRESS":"關子嶺８號","OBJECTID":146613},"geometry":{"x":200238.34000000078,"y":2582199.7400000021}},{"attributes":{"ID":146614,"DIS_CODE":0,"TOWNNAME":"白河區","LI":"關嶺里","LIN":"15鄰","STREET":" ","SECT":" ","MAREA":"關子嶺","LANE":" ","ALLEY":" ","HOUSE_NO":"８６之３號","E_COORD97":198910.03,"N_COORD97":2582152.1600000001,"ADDRESS":"關子嶺８６之３號","OBJECTID":146614},"geometry":{"x":198910.03000000119,"y":2582152.160000002}},{"attributes":{"ID":146615,"DIS_CODE":0,"TOWNNAME":"西港區","LI":"慶安里","LIN":"36鄰","STREET":"中山路","SECT":" ","MAREA":" ","LANE":" ","ALLEY":" ","HOUSE_NO":"３３號","E_COORD97":168467.32999999999,"N_COORD97":2557145.4700000002,"ADDRESS":"中山路３３號","OBJECTID":146615},"geometry":{"x":168467.33000000101,"y":2557145.4700000007}},{"attributes":{"ID":146616,"DIS_CODE":0,"TOWNNAME":"西港區","LI":"慶安里","LIN":"20鄰","STREET":"中山路","SECT":" ","MAREA":" ","LANE":" ","ALLEY":" ","HOUSE_NO":"３０９號","E_COORD97":168373.44,"N_COORD97":2558005.6899999999,"ADDRESS":"中山路３０９號","OBJECTID":146616},"geometry":{"x":168373.44000000227,"y":2558005.6900000013}},{"attributes":{"ID":146617,"DIS_CODE":0,"TOWNNAME":"西港區","LI":"慶安里","LIN":"20鄰","STREET":"中山路","SECT":" ","MAREA":" ","LANE":" ","ALLEY":" ","HOUSE_NO":"３１１號","E_COORD97":168372.82999999999,"N_COORD97":2558010.3199999998,"ADDRESS":"中山路３１１號","OBJECTID":146617},"geometry":{"x":168372.83000000101,"y":2558010.3200000003}},{"attributes":{"ID":146618,"DIS_CODE":0,"TOWNNAME":"西港區","LI":"慶安里","LIN":"20鄰","STREET":"中山路","SECT":" ","MAREA":" ","LANE":" ","ALLEY":" ","HOUSE_NO":"３１３號","E_COORD97":168371.94,"N_COORD97":2558014.6600000001,"ADDRESS":"中山路３１３號","OBJECTID":146618},"geometry":{"x":168371.94000000134,"y":2558014.6600000001}},{"attributes":{"ID":146619,"DIS_CODE":0,"TOWNNAME":"仁德區","LI":"太子里","LIN":"27鄰","STREET":"太子路","SECT":" ","MAREA":" ","LANE":" ","ALLEY":" ","HOUSE_NO":"６９７號","E_COORD97":173345.472496,"N_COORD97":2543510.61736,"ADDRESS":"太子路６９７號","OBJECTID":146619},"geometry":{"x":173345.47249600012,"y":2543510.617364997}},{"attributes":{"ID":146620,"DIS_CODE":0,"TOWNNAME":"西港區","LI":"西港里","LIN":"10鄰","STREET":"中山路","SECT":" ","MAREA":" ","LANE":" ","ALLEY":" ","HOUSE_NO":"３１８號","E_COORD97":168421.04999999999,"N_COORD97":2557942.4100000001,"ADDRESS":"中山路３１８號","OBJECTID":146620},"geometry":{"x":168421.04999999981,"y":2557942.4100000039}},{"attributes":{"ID":146621,"DIS_CODE":0,"TOWNNAME":"西港區","LI":"西港里","LIN":"10鄰","STREET":"中山路","SECT":" ","MAREA":" ","LANE":" ","ALLEY":" ","HOUSE_NO":"３２２號","E_COORD97":168417.38,"N_COORD97":2557949.3199999998,"ADDRESS":"中山路３２２號","OBJECTID":146621},"geometry":{"x":168417.38000000175,"y":2557949.3200000003}},{"attributes":{"ID":146622,"DIS_CODE":0,"TOWNNAME":"關廟區","LI":"埤頭里","LIN":"3鄰","STREET":"保東路","SECT":" ","MAREA":" ","LANE":"８５巷","ALLEY":"１６弄","HOUSE_NO":"３１號","E_COORD97":178909.97,"N_COORD97":2543892.2999999998,"ADDRESS":"保東路８５巷１６弄３１號","OBJECTID":146622},"geometry":{"x":178909.9700000016,"y":2543892.3000000026}},{"attributes":{"ID":146623,"DIS_CODE":0,"TOWNNAME":"關廟區","LI":"布袋里","LIN":"3鄰","STREET":"長文街","SECT":" ","MAREA":" ","LANE":"１６８巷","ALLEY":"２８弄","HOUSE_NO":"１２號","E_COORD97":182704.23999999999,"N_COORD97":2535475.2999999998,"ADDRESS":"長文街１６８巷２８弄１２號","OBJECTID":146623},"geometry":{"x":182704.24000000115,"y":2535475.3000000007}},{"attributes":{"ID":146624,"DIS_CODE":0,"TOWNNAME":"關廟區","LI":"埤頭里","LIN":"3鄰","STREET":"保東路","SECT":" ","MAREA":" ","LANE":"８５巷","ALLEY":"１６弄","HOUSE_NO":"５０號","E_COORD97":178923.76999999999,"N_COORD97":2543869.2999999998,"ADDRESS":"保東路８５巷１６弄５０號","OBJECTID":146624},"geometry":{"x":178923.76999999955,"y":2543869.3000000007}},{"attributes":{"ID":146625,"DIS_CODE":0,"TOWNNAME":"關廟區","LI":"埤頭里","LIN":"3鄰","STREET":"保東路","SECT":" ","MAREA":" ","LANE":"８５巷","ALLEY":"１６弄","HOUSE_NO":"３７號","E_COORD97":178924.17000000001,"N_COORD97":2543892.2999999998,"ADDRESS":"保東路８５巷１６弄３７號","OBJECTID":146625},"geometry":{"x":178924.17000000086,"y":2543892.3000000026}},{"attributes":{"ID":146626,"DIS_CODE":0,"TOWNNAME":"關廟區","LI":"布袋里","LIN":"3鄰","STREET":"長文街","SECT":" ","MAREA":" ","LANE":"１６８巷","ALLEY":"２８弄","HOUSE_NO":"１０號","E_COORD97":182705.73999999999,"N_COORD97":2535469.2999999998,"ADDRESS":"長文街１６８巷２８弄１０號","OBJECTID":146626},"geometry":{"x":182705.74000000209,"y":2535469.3000000045}},{"attributes":{"ID":146627,"DIS_CODE":0,"TOWNNAME":"關廟區","LI":"松腳里","LIN":"3鄰","STREET":"中山路","SECT":"一段","MAREA":" ","LANE":"８９巷","ALLEY":"６１弄","HOUSE_NO":"８號","E_COORD97":181950.45999999999,"N_COORD97":2539813.2799999998,"ADDRESS":"中山路一段８９巷６１弄８號","OBJECTID":146627},"geometry":{"x":181950.46000000089,"y":2539813.2799999993}},{"attributes":{"ID":146628,"DIS_CODE":0,"TOWNNAME":"北區","LI":"新勝里","LIN":"3鄰","STREET":"開元路","SECT":" ","MAREA":" ","LANE":"３３３巷","ALLEY":"１２弄","HOUSE_NO":"１０號","E_COORD97":170202.66,"N_COORD97":2545514.4199999999,"ADDRESS":"開元路３３３巷１２弄１０號","OBJECTID":146628},"geometry":{"x":170202.66000000201,"y":2545514.4200000018}},{"attributes":{"ID":146629,"DIS_CODE":0,"TOWNNAME":"北區","LI":"新勝里","LIN":"3鄰","STREET":"開元路","SECT":" ","MAREA":" ","LANE":"３３３巷","ALLEY":"１２弄","HOUSE_NO":"１１號","E_COORD97":170186.91,"N_COORD97":2545513.3799999999,"ADDRESS":"開元路３３３巷１２弄１１號","OBJECTID":146629},"geometry":{"x":170186.91000000015,"y":2545513.3800000008}},{"attributes":{"ID":146630,"DIS_CODE":0,"TOWNNAME":"北區","LI":"新勝里","LIN":"3鄰","STREET":"開元路","SECT":" ","MAREA":" ","LANE":"３３３巷","ALLEY":"１２弄","HOUSE_NO":"１２號","E_COORD97":170207.79999999999,"N_COORD97":2545520.5800000001,"ADDRESS":"開元路３３３巷１２弄１２號","OBJECTID":146630},"geometry":{"x":170207.79999999981,"y":2545520.5800000019}},{"attributes":{"ID":146631,"DIS_CODE":0,"TOWNNAME":"北區","LI":"新勝里","LIN":"3鄰","STREET":"開元路","SECT":" ","MAREA":" ","LANE":"３３３巷","ALLEY":"１２弄","HOUSE_NO":"１３號","E_COORD97":170189.98999999999,"N_COORD97":2545516.2200000002,"ADDRESS":"開元路３３３巷１２弄１３號","OBJECTID":146631},"geometry":{"x":170189.99000000022,"y":2545516.2200000025}},{"attributes":{"ID":146632,"DIS_CODE":0,"TOWNNAME":"北區","LI":"新勝里","LIN":"3鄰","STREET":"開元路","SECT":" ","MAREA":" ","LANE":"３３３巷","ALLEY":"１２弄","HOUSE_NO":"１４號","E_COORD97":170212.94,"N_COORD97":2545526.73,"ADDRESS":"開元路３３３巷１２弄１４號","OBJECTID":146632},"geometry":{"x":170212.94000000134,"y":2545526.7300000023}},{"attributes":{"ID":146633,"DIS_CODE":0,"TOWNNAME":"北區","LI":"新勝里","LIN":"3鄰","STREET":"開元路","SECT":" ","MAREA":" ","LANE":"３３３巷","ALLEY":"１２弄","HOUSE_NO":"１５號","E_COORD97":170192.60000000001,"N_COORD97":2545519.3199999998,"ADDRESS":"開元路３３３巷１２弄１５號","OBJECTID":146633},"geometry":{"x":170192.60000000056,"y":2545519.3200000003}},{"attributes":{"ID":146634,"DIS_CODE":0,"TOWNNAME":"北區","LI":"新勝里","LIN":"3鄰","STREET":"開元路","SECT":" ","MAREA":" ","LANE":"３３３巷","ALLEY":"１２弄","HOUSE_NO":"１７號","E_COORD97":170194.57999999999,"N_COORD97":2545522.4700000002,"ADDRESS":"開元路３３３巷１２弄１７號","OBJECTID":146634},"geometry":{"x":170194.58000000194,"y":2545522.4700000007}},{"attributes":{"ID":146635,"DIS_CODE":0,"TOWNNAME":"北區","LI":"新勝里","LIN":"3鄰","STREET":"開元路","SECT":" ","MAREA":" ","LANE":"３３３巷","ALLEY":"１２弄","HOUSE_NO":"１９號","E_COORD97":170197.17999999999,"N_COORD97":2545525.79,"ADDRESS":"開元路３３３巷１２弄１９號","OBJECTID":146635},"geometry":{"x":170197.18000000063,"y":2545525.7899999991}},{"attributes":{"ID":146636,"DIS_CODE":0,"TOWNNAME":"北區","LI":"新勝里","LIN":"3鄰","STREET":"開元路","SECT":" ","MAREA":" ","LANE":"３３３巷","ALLEY":"１２弄","HOUSE_NO":"１號","E_COORD97":170173.47,"N_COORD97":2545494.7999999998,"ADDRESS":"開元路３３３巷１２弄１號","OBJECTID":146636},"geometry":{"x":170173.47000000067,"y":2545494.8000000026}},{"attributes":{"ID":146637,"DIS_CODE":0,"TOWNNAME":"西港區","LI":"西港里","LIN":"10鄰","STREET":"中山路","SECT":" ","MAREA":" ","LANE":" ","ALLEY":" ","HOUSE_NO":"３２４號","E_COORD97":168416.60000000001,"N_COORD97":2557953.4100000001,"ADDRESS":"中山路３２４號","OBJECTID":146637},"geometry":{"x":168416.59999999963,"y":2557953.410000002}},{"attributes":{"ID":146638,"DIS_CODE":0,"TOWNNAME":"西港區","LI":"西港里","LIN":"10鄰","STREET":"中山路","SECT":" ","MAREA":" ","LANE":" ","ALLEY":" ","HOUSE_NO":"３２６號","E_COORD97":168416.07000000001,"N_COORD97":2557957.1400000001,"ADDRESS":"中山路３２６號","OBJECTID":146638},"geometry":{"x":168416.0700000003,"y":2557957.1400000006}},{"attributes":{"ID":146639,"DIS_CODE":0,"TOWNNAME":"西港區","LI":"慶安里","LIN":"10鄰","STREET":"中山路","SECT":" ","MAREA":" ","LANE":" ","ALLEY":" ","HOUSE_NO":"３３５號之１","E_COORD97":168356.14000000001,"N_COORD97":2558081.1200000001,"ADDRESS":"中山路３３５號之１","OBJECTID":146639},"geometry":{"x":168356.14000000153,"y":2558081.1200000048}},{"attributes":{"ID":146640,"DIS_CODE":0,"TOWNNAME":"西港區","LI":"慶安里","LIN":"10鄰","STREET":"中山路","SECT":" ","MAREA":" ","LANE":" ","ALLEY":" ","HOUSE_NO":"３３７號","E_COORD97":168361.09448999999,"N_COORD97":2558092.8531900002,"ADDRESS":"中山路３３７號","OBJECTID":146640},"geometry":{"x":168361.09449000005,"y":2558092.8531880025}},{"attributes":{"ID":146641,"DIS_CODE":0,"TOWNNAME":"西港區","LI":"西港里","LIN":"10鄰","STREET":"中山路","SECT":" ","MAREA":" ","LANE":" ","ALLEY":" ","HOUSE_NO":"３４４號","E_COORD97":168415.37,"N_COORD97":2557993.73,"ADDRESS":"中山路３４４號","OBJECTID":146641},"geometry":{"x":168415.37000000011,"y":2557993.7300000004}},{"attributes":{"ID":146642,"DIS_CODE":0,"TOWNNAME":"西港區","LI":"西港里","LIN":"10鄰","STREET":"中山路","SECT":" ","MAREA":" ","LANE":" ","ALLEY":" ","HOUSE_NO":"３４６號","E_COORD97":168407.35000000001,"N_COORD97":2558008.4900000002,"ADDRESS":"中山路３４６號","OBJECTID":146642},"geometry":{"x":168407.35000000056,"y":2558008.4900000002}},{"attributes":{"ID":146643,"DIS_CODE":0,"TOWNNAME":"西港區","LI":"慶安里","LIN":"10鄰","STREET":"中山路","SECT":" ","MAREA":" ","LANE":" ","ALLEY":" ","HOUSE_NO":"３４７號","E_COORD97":168332.89999999999,"N_COORD97":2558129.5,"ADDRESS":"中山路３４７號","OBJECTID":146643},"geometry":{"x":168332.90000000037,"y":2558129.5000000019}},{"attributes":{"ID":146644,"DIS_CODE":0,"TOWNNAME":"西港區","LI":"西港里","LIN":"10鄰","STREET":"中山路","SECT":" ","MAREA":" ","LANE":" ","ALLEY":" ","HOUSE_NO":"３４８號","E_COORD97":168406.34,"N_COORD97":2558013.4100000001,"ADDRESS":"中山路３４８號","OBJECTID":146644},"geometry":{"x":168406.34000000078,"y":2558013.4100000001}},{"attributes":{"ID":146645,"DIS_CODE":0,"TOWNNAME":"西港區","LI":"慶安里","LIN":"10鄰","STREET":"中山路","SECT":" ","MAREA":" ","LANE":" ","ALLEY":" ","HOUSE_NO":"３４９號","E_COORD97":168361.38,"N_COORD97":2558138.1499999999,"ADDRESS":"中山路３４９號","OBJECTID":146645},"geometry":{"x":168361.37999999896,"y":2558138.1500000022}},{"attributes":{"ID":146646,"DIS_CODE":0,"TOWNNAME":"西港區","LI":"慶安里","LIN":"7鄰","STREET":"中山路","SECT":" ","MAREA":" ","LANE":" ","ALLEY":" ","HOUSE_NO":"３７５號","E_COORD97":168339.89999999999,"N_COORD97":2558220.7000000002,"ADDRESS":"中山路３７５號","OBJECTID":146646},"geometry":{"x":168339.90000000224,"y":2558220.6999999993}},{"attributes":{"ID":146647,"DIS_CODE":0,"TOWNNAME":"西港區","LI":"慶安里","LIN":"6鄰","STREET":"中山路","SECT":" ","MAREA":" ","LANE":" ","ALLEY":" ","HOUSE_NO":"３９５號","E_COORD97":168280.89999999999,"N_COORD97":2558393.8300000001,"ADDRESS":"中山路３９５號","OBJECTID":146647},"geometry":{"x":168280.9000000013,"y":2558393.8300000038}},{"attributes":{"ID":146648,"DIS_CODE":0,"TOWNNAME":"西港區","LI":"慶安里","LIN":"6鄰","STREET":"中山路","SECT":" ","MAREA":" ","LANE":" ","ALLEY":" ","HOUSE_NO":"３９９號","E_COORD97":168293.79000000001,"N_COORD97":2558390.8599999999,"ADDRESS":"中山路３９９號","OBJECTID":146648},"geometry":{"x":168293.79000000004,"y":2558390.8600000013}},{"attributes":{"ID":146649,"DIS_CODE":0,"TOWNNAME":"南區","LI":"金華里","LIN":"30鄰","STREET":"新孝路","SECT":" ","MAREA":" ","LANE":" ","ALLEY":" ","HOUSE_NO":"１２８號","E_COORD97":166574.67000000001,"N_COORD97":2542075.25,"ADDRESS":"新孝路１２８號","OBJECTID":146649},"geometry":{"x":166574.67000000086,"y":2542075.25}},{"attributes":{"ID":146650,"DIS_CODE":0,"TOWNNAME":"南區","LI":"金華里","LIN":"30鄰","STREET":"新孝路","SECT":" ","MAREA":" ","LANE":" ","ALLEY":" ","HOUSE_NO":"１３０號","E_COORD97":166570.20000000001,"N_COORD97":2542074.75,"ADDRESS":"新孝路１３０號","OBJECTID":146650},"geometry":{"x":166570.20000000112,"y":2542074.7500000019}},{"attributes":{"ID":146651,"DIS_CODE":0,"TOWNNAME":"南區","LI":"金華里","LIN":"30鄰","STREET":"新孝路","SECT":" ","MAREA":" ","LANE":" ","ALLEY":" ","HOUSE_NO":"１３２號","E_COORD97":166565.23999999999,"N_COORD97":2542074.0099999998,"ADDRESS":"新孝路１３２號","OBJECTID":146651},"geometry":{"x":166565.24000000022,"y":2542074.0099999998}},{"attributes":{"ID":146652,"DIS_CODE":0,"TOWNNAME":"北區","LI":"新勝里","LIN":"3鄰","STREET":"開元路","SECT":" ","MAREA":" ","LANE":"３３３巷","ALLEY":"１２弄","HOUSE_NO":"２１號","E_COORD97":170199.54999999999,"N_COORD97":2545529.1800000002,"ADDRESS":"開元路３３３巷１２弄２１號","OBJECTID":146652},"geometry":{"x":170199.55000000168,"y":2545529.1800000016}},{"attributes":{"ID":146653,"DIS_CODE":0,"TOWNNAME":"南區","LI":"金華里","LIN":"30鄰","STREET":"新孝路","SECT":" ","MAREA":" ","LANE":" ","ALLEY":" ","HOUSE_NO":"１３６號","E_COORD97":166562.01999999999,"N_COORD97":2542073.5699999998,"ADDRESS":"新孝路１３６號","OBJECTID":146653},"geometry":{"x":166562.02000000048,"y":2542073.5700000003}},{"attributes":{"ID":146654,"DIS_CODE":0,"TOWNNAME":"南區","LI":"金華里","LIN":"30鄰","STREET":"新孝路","SECT":" ","MAREA":" ","LANE":" ","ALLEY":" ","HOUSE_NO":"１３８號","E_COORD97":166557.26000000001,"N_COORD97":2542074.3700000001,"ADDRESS":"新孝路１３８號","OBJECTID":146654},"geometry":{"x":166557.26000000071,"y":2542074.3700000029}},{"attributes":{"ID":146655,"DIS_CODE":0,"TOWNNAME":"北區","LI":"新勝里","LIN":"3鄰","STREET":"開元路","SECT":" ","MAREA":" ","LANE":"３３３巷","ALLEY":"１２弄","HOUSE_NO":"２３號","E_COORD97":170201.85000000001,"N_COORD97":2545532.52,"ADDRESS":"開元路３３３巷１２弄２３號","OBJECTID":146655},"geometry":{"x":170201.84999999963,"y":2545532.5200000033}},{"attributes":{"ID":146656,"DIS_CODE":0,"TOWNNAME":"白河區","LI":"關嶺里","LIN":"15鄰","STREET":" ","SECT":" ","MAREA":"關子嶺","LANE":" ","ALLEY":" ","HOUSE_NO":"８７之１號","E_COORD97":198868.42000000001,"N_COORD97":2581997.6800000002,"ADDRESS":"關子嶺８７之１號","OBJECTID":146656},"geometry":{"x":198868.42000000086,"y":2581997.6799999997}},{"attributes":{"ID":146657,"DIS_CODE":0,"TOWNNAME":"白河區","LI":"關嶺里","LIN":"15鄰","STREET":" ","SECT":" ","MAREA":"關子嶺","LANE":" ","ALLEY":" ","HOUSE_NO":"８７之２號","E_COORD97":198853.92000000001,"N_COORD97":2581990.77,"ADDRESS":"關子嶺８７之２號","OBJECTID":146657},"geometry":{"x":198853.91999999993,"y":2581990.7700000033}},{"attributes":{"ID":146658,"DIS_CODE":0,"TOWNNAME":"北區","LI":"新勝里","LIN":"3鄰","STREET":"開元路","SECT":" ","MAREA":" ","LANE":"３３３巷","ALLEY":"１２弄","HOUSE_NO":"２５號","E_COORD97":170204.06,"N_COORD97":2545535.52,"ADDRESS":"開元路３３３巷１２弄２５號","OBJECTID":146658},"geometry":{"x":170204.05999999959,"y":2545535.5199999977}},{"attributes":{"ID":146659,"DIS_CODE":0,"TOWNNAME":"北區","LI":"新勝里","LIN":"3鄰","STREET":"開元路","SECT":" ","MAREA":" ","LANE":"３３３巷","ALLEY":"１２弄","HOUSE_NO":"２７號","E_COORD97":170206.59,"N_COORD97":2545538.75,"ADDRESS":"開元路３３３巷１２弄２７號","OBJECTID":146659},"geometry":{"x":170206.59000000078,"y":2545538.7500000019}},{"attributes":{"ID":146660,"DIS_CODE":0,"TOWNNAME":"白河區","LI":"關嶺里","LIN":"15鄰","STREET":" ","SECT":" ","MAREA":"關子嶺","LANE":" ","ALLEY":" ","HOUSE_NO":"８７之３號","E_COORD97":198831.32000000001,"N_COORD97":2581973.7200000002,"ADDRESS":"關子嶺８７之３號","OBJECTID":146660},"geometry":{"x":198831.3200000003,"y":2581973.7200000007}},{"attributes":{"ID":146661,"DIS_CODE":0,"TOWNNAME":"北區","LI":"新勝里","LIN":"3鄰","STREET":"開元路","SECT":" ","MAREA":" ","LANE":"３３３巷","ALLEY":"１２弄","HOUSE_NO":"２９號","E_COORD97":170209.20999999999,"N_COORD97":2545542.25,"ADDRESS":"開元路３３３巷１２弄２９號","OBJECTID":146661},"geometry":{"x":170209.21000000089,"y":2545542.2500000019}},{"attributes":{"ID":146662,"DIS_CODE":0,"TOWNNAME":"北區","LI":"新勝里","LIN":"3鄰","STREET":"開元路","SECT":" ","MAREA":" ","LANE":"３３３巷","ALLEY":"１２弄","HOUSE_NO":"２號","E_COORD97":170182.97,"N_COORD97":2545489.6099999999,"ADDRESS":"開元路３３３巷１２弄２號","OBJECTID":146662},"geometry":{"x":170182.96999999881,"y":2545489.6099999994}},{"attributes":{"ID":146663,"DIS_CODE":0,"TOWNNAME":"白河區","LI":"關嶺里","LIN":"15鄰","STREET":" ","SECT":" ","MAREA":"關子嶺","LANE":" ","ALLEY":" ","HOUSE_NO":"８７之４號","E_COORD97":198815.47,"N_COORD97":2581964.8700000001,"ADDRESS":"關子嶺８７之４號","OBJECTID":146663},"geometry":{"x":198815.47000000067,"y":2581964.8700000029}},{"attributes":{"ID":146664,"DIS_CODE":0,"TOWNNAME":"白河區","LI":"關嶺里","LIN":"15鄰","STREET":" ","SECT":" ","MAREA":"關子嶺","LANE":" ","ALLEY":" ","HOUSE_NO":"８７之５號","E_COORD97":198812.29000000001,"N_COORD97":2581983.96,"ADDRESS":"關子嶺８７之５號","OBJECTID":146664},"geometry":{"x":198812.29000000004,"y":2581983.959999999}},{"attributes":{"ID":146665,"DIS_CODE":0,"TOWNNAME":"北區","LI":"新勝里","LIN":"3鄰","STREET":"開元路","SECT":" ","MAREA":" ","LANE":"３３３巷","ALLEY":"１２弄","HOUSE_NO":"３１號","E_COORD97":170211.64999999999,"N_COORD97":2545545.0899999999,"ADDRESS":"開元路３３３巷１２弄３１號","OBJECTID":146665},"geometry":{"x":170211.6500000013,"y":2545545.0899999999}},{"attributes":{"ID":146666,"DIS_CODE":0,"TOWNNAME":"白河區","LI":"關嶺里","LIN":"15鄰","STREET":" ","SECT":" ","MAREA":"關子嶺","LANE":" ","ALLEY":" ","HOUSE_NO":"８７之６號","E_COORD97":198835.67999999999,"N_COORD97":2581993.04,"ADDRESS":"關子嶺８７之６號","OBJECTID":146666},"geometry":{"x":198835.68000000063,"y":2581993.040000001}},{"attributes":{"ID":146667,"DIS_CODE":0,"TOWNNAME":"白河區","LI":"關嶺里","LIN":"15鄰","STREET":" ","SECT":" ","MAREA":"關子嶺","LANE":" ","ALLEY":" ","HOUSE_NO":"８７號","E_COORD97":198924.76000000001,"N_COORD97":2582032.02,"ADDRESS":"關子嶺８７號","OBJECTID":146667},"geometry":{"x":198924.76000000164,"y":2582032.0199999996}},{"attributes":{"ID":146668,"DIS_CODE":0,"TOWNNAME":"白河區","LI":"關嶺里","LIN":"15鄰","STREET":" ","SECT":" ","MAREA":"關子嶺","LANE":" ","ALLEY":" ","HOUSE_NO":"８８之１號","E_COORD97":198837.47,"N_COORD97":2582016.73,"ADDRESS":"關子嶺８８之１號","OBJECTID":146668},"geometry":{"x":198837.47000000067,"y":2582016.7300000023}},{"attributes":{"ID":146669,"DIS_CODE":0,"TOWNNAME":"白河區","LI":"關嶺里","LIN":"15鄰","STREET":" ","SECT":" ","MAREA":"關子嶺","LANE":" ","ALLEY":" ","HOUSE_NO":"８８號","E_COORD97":198874.34,"N_COORD97":2582014.4100000001,"ADDRESS":"關子嶺８８號","OBJECTID":146669},"geometry":{"x":198874.33999999985,"y":2582014.4100000039}},{"attributes":{"ID":146670,"DIS_CODE":0,"TOWNNAME":"白河區","LI":"關嶺里","LIN":"15鄰","STREET":" ","SECT":" ","MAREA":"關子嶺","LANE":" ","ALLEY":" ","HOUSE_NO":"８９號","E_COORD97":198856.51999999999,"N_COORD97":2582003.7799999998,"ADDRESS":"關子嶺８９號","OBJECTID":146670},"geometry":{"x":198856.51999999862,"y":2582003.7799999975}},{"attributes":{"ID":146671,"DIS_CODE":0,"TOWNNAME":"白河區","LI":"關嶺里","LIN":"15鄰","STREET":" ","SECT":" ","MAREA":"關子嶺","LANE":" ","ALLEY":" ","HOUSE_NO":"９０號","E_COORD97":198862.59,"N_COORD97":2582024.5,"ADDRESS":"關子嶺９０號","OBJECTID":146671},"geometry":{"x":198862.58999999985,"y":2582024.5000000019}},{"attributes":{"ID":146672,"DIS_CODE":0,"TOWNNAME":"白河區","LI":"關嶺里","LIN":"15鄰","STREET":" ","SECT":" ","MAREA":"關子嶺","LANE":" ","ALLEY":" ","HOUSE_NO":"９１之２號","E_COORD97":198721.95000000001,"N_COORD97":2581992.2200000002,"ADDRESS":"關子嶺９１之２號","OBJECTID":146672},"geometry":{"x":198721.95000000019,"y":2581992.2200000044}},{"attributes":{"ID":146673,"DIS_CODE":0,"TOWNNAME":"北區","LI":"新勝里","LIN":"3鄰","STREET":"開元路","SECT":" ","MAREA":" ","LANE":"３３３巷","ALLEY":"１２弄","HOUSE_NO":"３號","E_COORD97":170176.23999999999,"N_COORD97":2545498.5099999998,"ADDRESS":"開元路３３３巷１２弄３號","OBJECTID":146673},"geometry":{"x":170176.24000000022,"y":2545498.5099999979}},{"attributes":{"ID":146674,"DIS_CODE":0,"TOWNNAME":"白河區","LI":"關嶺里","LIN":"15鄰","STREET":" ","SECT":" ","MAREA":"關子嶺","LANE":" ","ALLEY":" ","HOUSE_NO":"９２之１號","E_COORD97":198650.66,"N_COORD97":2581763.6699999999,"ADDRESS":"關子嶺９２之１號","OBJECTID":146674},"geometry":{"x":198650.66000000015,"y":2581763.6699999999}},{"attributes":{"ID":146675,"DIS_CODE":0,"TOWNNAME":"北區","LI":"新勝里","LIN":"3鄰","STREET":"開元路","SECT":" ","MAREA":" ","LANE":"３３３巷","ALLEY":"１２弄","HOUSE_NO":"５號","E_COORD97":170179,"N_COORD97":2545501.5899999999,"ADDRESS":"開元路３３３巷１２弄５號","OBJECTID":146675},"geometry":{"x":170179,"y":2545501.5900000036}},{"attributes":{"ID":146676,"DIS_CODE":0,"TOWNNAME":"北區","LI":"新勝里","LIN":"3鄰","STREET":"開元路","SECT":" ","MAREA":" ","LANE":"３３３巷","ALLEY":"１２弄","HOUSE_NO":"６號","E_COORD97":170192.54999999999,"N_COORD97":2545501.9500000002,"ADDRESS":"開元路３３３巷１２弄６號","OBJECTID":146676},"geometry":{"x":170192.54999999981,"y":2545501.950000003}},{"attributes":{"ID":146677,"DIS_CODE":0,"TOWNNAME":"白河區","LI":"關嶺里","LIN":"15鄰","STREET":" ","SECT":" ","MAREA":"關子嶺","LANE":" ","ALLEY":" ","HOUSE_NO":"９２號","E_COORD97":198700.82999999999,"N_COORD97":2581941.4300000002,"ADDRESS":"關子嶺９２號","OBJECTID":146677},"geometry":{"x":198700.83000000194,"y":2581941.4299999997}},{"attributes":{"ID":146678,"DIS_CODE":0,"TOWNNAME":"北區","LI":"新勝里","LIN":"3鄰","STREET":"開元路","SECT":" ","MAREA":" ","LANE":"３３３巷","ALLEY":"１２弄","HOUSE_NO":"７號","E_COORD97":170181.37,"N_COORD97":2545505.6099999999,"ADDRESS":"開元路３３３巷１２弄７號","OBJECTID":146678},"geometry":{"x":170181.37000000104,"y":2545505.6100000013}},{"attributes":{"ID":146679,"DIS_CODE":0,"TOWNNAME":"白河區","LI":"關嶺里","LIN":"15鄰","STREET":" ","SECT":" ","MAREA":"關子嶺","LANE":" ","ALLEY":" ","HOUSE_NO":"９３之１號","E_COORD97":198336.04000000001,"N_COORD97":2582242.21,"ADDRESS":"關子嶺９３之１號","OBJECTID":146679},"geometry":{"x":198336.04000000004,"y":2582242.2100000009}},{"attributes":{"ID":146680,"DIS_CODE":0,"TOWNNAME":"白河區","LI":"關嶺里","LIN":"1鄰","STREET":" ","SECT":" ","MAREA":"關子嶺","LANE":" ","ALLEY":" ","HOUSE_NO":"８之１０號","E_COORD97":199448.82999999999,"N_COORD97":2582019.1899999999,"ADDRESS":"關子嶺８之１０號","OBJECTID":146680},"geometry":{"x":199448.83000000101,"y":2582019.1900000013}},{"attributes":{"ID":146681,"DIS_CODE":0,"TOWNNAME":"白河區","LI":"蓮潭里","LIN":" ","STREET":" ","SECT":" ","MAREA":"三角潭","LANE":" ","ALLEY":" ","HOUSE_NO":"８號","E_COORD97":190062.29000000001,"N_COORD97":2589656.1000000001,"ADDRESS":"三角潭８號","OBJECTID":146681},"geometry":{"x":190062.28999999911,"y":2589656.0999999996}},{"attributes":{"ID":146682,"DIS_CODE":0,"TOWNNAME":"白河區","LI":"外角里","LIN":"9鄰","STREET":" ","SECT":" ","MAREA":"庄內","LANE":" ","ALLEY":" ","HOUSE_NO":"８號","E_COORD97":191081.14000000001,"N_COORD97":2583368.6699999999,"ADDRESS":"庄內８號","OBJECTID":146682},"geometry":{"x":191081.13999999966,"y":2583368.6700000018}},{"attributes":{"ID":146683,"DIS_CODE":0,"TOWNNAME":"新營區","LI":"新北里","LIN":"30鄰","STREET":"新北六街","SECT":" ","MAREA":" ","LANE":" ","ALLEY":" ","HOUSE_NO":"７８號","E_COORD97":178819.66,"N_COORD97":2579032.3999999999,"ADDRESS":"新北六街７８號","OBJECTID":146683},"geometry":{"x":178819.66000000108,"y":2579032.4000000022}},{"attributes":{"ID":146684,"DIS_CODE":0,"TOWNNAME":"北區","LI":"新勝里","LIN":"3鄰","STREET":"開元路","SECT":" ","MAREA":" ","LANE":"３３３巷","ALLEY":"１２弄","HOUSE_NO":"８號","E_COORD97":170198,"N_COORD97":2545508.4199999999,"ADDRESS":"開元路３３３巷１２弄８號","OBJECTID":146684},"geometry":{"x":170198,"y":2545508.4199999999}},{"attributes":{"ID":146685,"DIS_CODE":0,"TOWNNAME":"新營區","LI":"新北里","LIN":"30鄰","STREET":"新北六街","SECT":" ","MAREA":" ","LANE":" ","ALLEY":" ","HOUSE_NO":"８號","E_COORD97":178693.64000000001,"N_COORD97":2579028.5600000001,"ADDRESS":"新北六街８號","OBJECTID":146685},"geometry":{"x":178693.6400000006,"y":2579028.5600000005}},{"attributes":{"ID":146686,"DIS_CODE":0,"TOWNNAME":"新營區","LI":"民生里","LIN":"30鄰","STREET":"民治路","SECT":" ","MAREA":" ","LANE":" ","ALLEY":" ","HOUSE_NO":"２５３號","E_COORD97":178746.79999999999,"N_COORD97":2578290.7599999998,"ADDRESS":"民治路２５３號","OBJECTID":146686},"geometry":{"x":178746.80000000168,"y":2578290.7599999998}},{"attributes":{"ID":146687,"DIS_CODE":0,"TOWNNAME":"麻豆區","LI":"海埔里","LIN":"7鄰","STREET":" ","SECT":" ","MAREA":"海埔","LANE":" ","ALLEY":" ","HOUSE_NO":"２６號","E_COORD97":169474.29000000001,"N_COORD97":2566862.6099999999,"ADDRESS":"海埔２６號","OBJECTID":146687},"geometry":{"x":169474.2900000019,"y":2566862.6099999994}},{"attributes":{"ID":146688,"DIS_CODE":0,"TOWNNAME":"北區","LI":"新勝里","LIN":"3鄰","STREET":"開元路","SECT":" ","MAREA":" ","LANE":"３３３巷","ALLEY":"１２弄","HOUSE_NO":"９號","E_COORD97":170184.07000000001,"N_COORD97":2545510.2200000002,"ADDRESS":"開元路３３３巷１２弄９號","OBJECTID":146688},"geometry":{"x":170184.0700000003,"y":2545510.2200000007}},{"attributes":{"ID":146689,"DIS_CODE":0,"TOWNNAME":"新營區","LI":"新南里","LIN":"30鄰","STREET":"明清三街","SECT":" ","MAREA":" ","LANE":" ","ALLEY":" ","HOUSE_NO":"５０號","E_COORD97":178235.01999999999,"N_COORD97":2578910.0699999998,"ADDRESS":"明清三街５０號","OBJECTID":146689},"geometry":{"x":178235.02000000048,"y":2578910.0700000003}},{"attributes":{"ID":146690,"DIS_CODE":0,"TOWNNAME":"新營區","LI":"新南里","LIN":"30鄰","STREET":"明清三街","SECT":" ","MAREA":" ","LANE":" ","ALLEY":" ","HOUSE_NO":"２８２號","E_COORD97":178135.76999999999,"N_COORD97":2578845.23,"ADDRESS":"明清三街２８２號","OBJECTID":146690},"geometry":{"x":178135.76999999955,"y":2578845.2300000004}},{"attributes":{"ID":146691,"DIS_CODE":0,"TOWNNAME":"白河區","LI":"虎山里","LIN":"4鄰","STREET":" ","SECT":" ","MAREA":"檨子林","LANE":" ","ALLEY":" ","HOUSE_NO":"３５之１號","E_COORD97":193079.60999999999,"N_COORD97":2581767.8799999999,"ADDRESS":"檨子林３５之１號","OBJECTID":146691},"geometry":{"x":193079.6100000022,"y":2581767.879999999}},{"attributes":{"ID":146692,"DIS_CODE":0,"TOWNNAME":"白河區","LI":"大林里","LIN":"4鄰","STREET":" ","SECT":" ","MAREA":"檨子林","LANE":" ","ALLEY":" ","HOUSE_NO":"３６之１號","E_COORD97":193064.82000000001,"N_COORD97":2581741.3900000001,"ADDRESS":"檨子林３６之１號","OBJECTID":146692},"geometry":{"x":193064.82000000123,"y":2581741.3900000025}},{"attributes":{"ID":146693,"DIS_CODE":0,"TOWNNAME":"北區","LI":"新勝里","LIN":"3鄰","STREET":"開元路","SECT":" ","MAREA":" ","LANE":"３３３巷","ALLEY":"８弄","HOUSE_NO":"１０號","E_COORD97":170217.13,"N_COORD97":2545503.0299999998,"ADDRESS":"開元路３３３巷８弄１０號","OBJECTID":146693},"geometry":{"x":170217.12999999989,"y":2545503.0300000012}},{"attributes":{"ID":146694,"DIS_CODE":0,"TOWNNAME":"白河區","LI":"大林里","LIN":"4鄰","STREET":" ","SECT":" ","MAREA":"檨子林","LANE":" ","ALLEY":" ","HOUSE_NO":"３６之２號","E_COORD97":193055.56,"N_COORD97":2581739.3700000001,"ADDRESS":"檨子林３６之２號","OBJECTID":146694},"geometry":{"x":193055.56000000145,"y":2581739.370000001}},{"attributes":{"ID":146695,"DIS_CODE":0,"TOWNNAME":"北區","LI":"新勝里","LIN":"3鄰","STREET":"開元路","SECT":" ","MAREA":" ","LANE":"３３３巷","ALLEY":"８弄","HOUSE_NO":"１１號","E_COORD97":170213.56,"N_COORD97":2545516.0600000001,"ADDRESS":"開元路３３３巷８弄１１號","OBJECTID":146695},"geometry":{"x":170213.56000000052,"y":2545516.0600000042}},{"attributes":{"ID":146696,"DIS_CODE":0,"TOWNNAME":"北區","LI":"新勝里","LIN":"3鄰","STREET":"開元路","SECT":" ","MAREA":" ","LANE":"３３３巷","ALLEY":"８弄","HOUSE_NO":"１２號","E_COORD97":170222.26999999999,"N_COORD97":2545509.6600000001,"ADDRESS":"開元路３３３巷８弄１２號","OBJECTID":146696},"geometry":{"x":170222.27000000048,"y":2545509.660000002}},{"attributes":{"ID":146697,"DIS_CODE":0,"TOWNNAME":"北區","LI":"新勝里","LIN":"3鄰","STREET":"開元路","SECT":" ","MAREA":" ","LANE":"３３３巷","ALLEY":"８弄","HOUSE_NO":"１３號","E_COORD97":170218.14999999999,"N_COORD97":2545522.1600000001,"ADDRESS":"開元路３３３巷８弄１３號","OBJECTID":146697},"geometry":{"x":170218.15000000224,"y":2545522.160000002}},{"attributes":{"ID":146698,"DIS_CODE":0,"TOWNNAME":"北區","LI":"新勝里","LIN":"3鄰","STREET":"開元路","SECT":" ","MAREA":" ","LANE":"３３３巷","ALLEY":"８弄","HOUSE_NO":"１４號","E_COORD97":170227.16,"N_COORD97":2545515.5800000001,"ADDRESS":"開元路３３３巷８弄１４號","OBJECTID":146698},"geometry":{"x":170227.16000000015,"y":2545515.5800000038}},{"attributes":{"ID":146699,"DIS_CODE":0,"TOWNNAME":"北區","LI":"新勝里","LIN":"3鄰","STREET":"開元路","SECT":" ","MAREA":" ","LANE":"３３３巷","ALLEY":"８弄","HOUSE_NO":"１５號","E_COORD97":170223.39000000001,"N_COORD97":2545527.46,"ADDRESS":"開元路３３３巷８弄１５號","OBJECTID":146699},"geometry":{"x":170223.38999999966,"y":2545527.4600000046}},{"attributes":{"ID":146700,"DIS_CODE":0,"TOWNNAME":"北區","LI":"新勝里","LIN":"3鄰","STREET":"開元路","SECT":" ","MAREA":" ","LANE":"３３３巷","ALLEY":"８弄","HOUSE_NO":"１號","E_COORD97":170189.45999999999,"N_COORD97":2545484.9300000002,"ADDRESS":"開元路３３３巷８弄１號","OBJECTID":146700},"geometry":{"x":170189.45999999996,"y":2545484.9299999997}},{"attributes":{"ID":146701,"DIS_CODE":0,"TOWNNAME":"北區","LI":"新勝里","LIN":"3鄰","STREET":"開元路","SECT":" ","MAREA":" ","LANE":"３３３巷","ALLEY":"８弄","HOUSE_NO":"２號","E_COORD97":170196.89999999999,"N_COORD97":2545477.9900000002,"ADDRESS":"開元路３３３巷８弄２號","OBJECTID":146701},"geometry":{"x":170196.90000000037,"y":2545477.9900000002}},{"attributes":{"ID":146702,"DIS_CODE":0,"TOWNNAME":"北區","LI":"新勝里","LIN":"3鄰","STREET":"開元路","SECT":" ","MAREA":" ","LANE":"３３３巷","ALLEY":"８弄","HOUSE_NO":"３號","E_COORD97":170193.25,"N_COORD97":2545490.7000000002,"ADDRESS":"開元路３３３巷８弄３號","OBJECTID":146702},"geometry":{"x":170193.25000000186,"y":2545490.7000000011}},{"attributes":{"ID":146703,"DIS_CODE":0,"TOWNNAME":"北區","LI":"新勝里","LIN":"3鄰","STREET":"開元路","SECT":" ","MAREA":" ","LANE":"３３３巷","ALLEY":"８弄","HOUSE_NO":"４號","E_COORD97":170201.88,"N_COORD97":2545484.1400000001,"ADDRESS":"開元路３３３巷８弄４號","OBJECTID":146703},"geometry":{"x":170201.87999999989,"y":2545484.1400000006}},{"attributes":{"ID":146704,"DIS_CODE":0,"TOWNNAME":"北區","LI":"新勝里","LIN":"3鄰","STREET":"開元路","SECT":" ","MAREA":" ","LANE":"３３３巷","ALLEY":"８弄","HOUSE_NO":"５號","E_COORD97":170199.34,"N_COORD97":2545497.3399999999,"ADDRESS":"開元路３３３巷８弄５號","OBJECTID":146704},"geometry":{"x":170199.34000000171,"y":2545497.3400000017}},{"attributes":{"ID":146705,"DIS_CODE":0,"TOWNNAME":"北區","LI":"新勝里","LIN":"3鄰","STREET":"開元路","SECT":" ","MAREA":" ","LANE":"３３３巷","ALLEY":"８弄","HOUSE_NO":"６號","E_COORD97":170206.62,"N_COORD97":2545490.6400000001,"ADDRESS":"開元路３３３巷８弄６號","OBJECTID":146705},"geometry":{"x":170206.62000000104,"y":2545490.6400000006}},{"attributes":{"ID":146706,"DIS_CODE":0,"TOWNNAME":"北區","LI":"新勝里","LIN":"3鄰","STREET":"開元路","SECT":" ","MAREA":" ","LANE":"３３３巷","ALLEY":"８弄","HOUSE_NO":"７號","E_COORD97":170203.37,"N_COORD97":2545503.8999999999,"ADDRESS":"開元路３３３巷８弄７號","OBJECTID":146706},"geometry":{"x":170203.37000000104,"y":2545503.9000000022}},{"attributes":{"ID":146707,"DIS_CODE":0,"TOWNNAME":"新營區","LI":"新北里","LIN":"30鄰","STREET":"金華路","SECT":"二段","MAREA":" ","LANE":" ","ALLEY":" ","HOUSE_NO":"６６號","E_COORD97":178818.26000000001,"N_COORD97":2578958.21,"ADDRESS":"金華路二段６６號","OBJECTID":146707},"geometry":{"x":178818.26000000071,"y":2578958.2100000046}},{"attributes":{"ID":146708,"DIS_CODE":0,"TOWNNAME":"白河區","LI":"大林里","LIN":"4鄰","STREET":" ","SECT":" ","MAREA":"檨子林","LANE":" ","ALLEY":" ","HOUSE_NO":"３８號","E_COORD97":193052.64000000001,"N_COORD97":2581781.9700000002,"ADDRESS":"檨子林３８號","OBJECTID":146708},"geometry":{"x":193052.63999999966,"y":2581781.9700000025}},{"attributes":{"ID":146709,"DIS_CODE":0,"TOWNNAME":"白河區","LI":"大林里","LIN":"1鄰","STREET":" ","SECT":" ","MAREA":"檨子林","LANE":" ","ALLEY":" ","HOUSE_NO":"２號","E_COORD97":192636.66,"N_COORD97":2581391.5,"ADDRESS":"檨子林２號","OBJECTID":146709},"geometry":{"x":192636.66000000201,"y":2581391.5}},{"attributes":{"ID":146710,"DIS_CODE":0,"TOWNNAME":"白河區","LI":"大林里","LIN":"1鄰","STREET":" ","SECT":" ","MAREA":"檨子林","LANE":" ","ALLEY":" ","HOUSE_NO":"３之１號","E_COORD97":192668.57000000001,"N_COORD97":2581392.8100000001,"ADDRESS":"檨子林３之１號","OBJECTID":146710},"geometry":{"x":192668.57000000123,"y":2581392.8100000024}},{"attributes":{"ID":146711,"DIS_CODE":0,"TOWNNAME":"白河區","LI":"大林里","LIN":"1鄰","STREET":" ","SECT":" ","MAREA":"檨子林","LANE":" ","ALLEY":" ","HOUSE_NO":"３號","E_COORD97":192655.07000000001,"N_COORD97":2581418.0600000001,"ADDRESS":"檨子林３號","OBJECTID":146711},"geometry":{"x":192655.07000000123,"y":2581418.0600000024}},{"attributes":{"ID":146712,"DIS_CODE":0,"TOWNNAME":"白河區","LI":"大林里","LIN":"1鄰","STREET":" ","SECT":" ","MAREA":"檨子林","LANE":" ","ALLEY":" ","HOUSE_NO":"４之１號","E_COORD97":192733.41,"N_COORD97":2581540.0800000001,"ADDRESS":"檨子林４之１號","OBJECTID":146712},"geometry":{"x":192733.41000000201,"y":2581540.0800000001}},{"attributes":{"ID":146713,"DIS_CODE":0,"TOWNNAME":"白河區","LI":"大林里","LIN":"1鄰","STREET":" ","SECT":" ","MAREA":"檨子林","LANE":" ","ALLEY":" ","HOUSE_NO":"４之２號","E_COORD97":192632.17000000001,"N_COORD97":2581454.2200000002,"ADDRESS":"檨子林４之２號","OBJECTID":146713},"geometry":{"x":192632.16999999993,"y":2581454.2200000025}},{"attributes":{"ID":146714,"DIS_CODE":0,"TOWNNAME":"白河區","LI":"大林里","LIN":"5鄰","STREET":" ","SECT":" ","MAREA":"檨子林","LANE":" ","ALLEY":" ","HOUSE_NO":"５３之１號","E_COORD97":192898.54999999999,"N_COORD97":2581825.71,"ADDRESS":"檨子林５３之１號","OBJECTID":146714},"geometry":{"x":192898.55000000075,"y":2581825.7100000009}},{"attributes":{"ID":146715,"DIS_CODE":0,"TOWNNAME":"白河區","LI":"大林里","LIN":"1鄰","STREET":" ","SECT":" ","MAREA":"檨子林","LANE":" ","ALLEY":" ","HOUSE_NO":"５之１號","E_COORD97":192753.87,"N_COORD97":2581547.5099999998,"ADDRESS":"檨子林５之１號","OBJECTID":146715},"geometry":{"x":192753.87000000197,"y":2581547.5099999998}},{"attributes":{"ID":146716,"DIS_CODE":0,"TOWNNAME":"白河區","LI":"大林里","LIN":"1鄰","STREET":" ","SECT":" ","MAREA":"檨子林","LANE":" ","ALLEY":" ","HOUSE_NO":"５號之１","E_COORD97":192753.87,"N_COORD97":2581547.5099999998,"ADDRESS":"檨子林５號之１","OBJECTID":146716},"geometry":{"x":192753.87000000197,"y":2581547.5099999998}},{"attributes":{"ID":146717,"DIS_CODE":0,"TOWNNAME":"白河區","LI":"大林里","LIN":"1鄰","STREET":" ","SECT":" ","MAREA":"檨子林","LANE":" ","ALLEY":" ","HOUSE_NO":"５之６號","E_COORD97":192720.81,"N_COORD97":2581608.7999999998,"ADDRESS":"檨子林５之６號","OBJECTID":146717},"geometry":{"x":192720.80999999959,"y":2581608.8000000045}},{"attributes":{"ID":146718,"DIS_CODE":0,"TOWNNAME":"白河區","LI":"大林里","LIN":"1鄰","STREET":" ","SECT":" ","MAREA":"檨子林","LANE":" ","ALLEY":" ","HOUSE_NO":"５號","E_COORD97":192806.91,"N_COORD97":2581495.7000000002,"ADDRESS":"檨子林５號","OBJECTID":146718},"geometry":{"x":192806.91000000108,"y":2581495.6999999974}},{"attributes":{"ID":146719,"DIS_CODE":0,"TOWNNAME":"歸仁區","LI":"南興里","LIN":"30鄰","STREET":"保興街","SECT":" ","MAREA":" ","LANE":" ","ALLEY":" ","HOUSE_NO":"８１號","E_COORD97":176495.82000000001,"N_COORD97":2541107.25,"ADDRESS":"保興街８１號","OBJECTID":146719},"geometry":{"x":176495.82000000216,"y":2541107.2500000019}},{"attributes":{"ID":146720,"DIS_CODE":0,"TOWNNAME":"北區","LI":"新勝里","LIN":"3鄰","STREET":"開元路","SECT":" ","MAREA":" ","LANE":"３３３巷","ALLEY":"８弄","HOUSE_NO":"８號","E_COORD97":170212.14999999999,"N_COORD97":2545496.71,"ADDRESS":"開元路３３３巷８弄８號","OBJECTID":146720},"geometry":{"x":170212.1500000013,"y":2545496.7100000028}},{"attributes":{"ID":146721,"DIS_CODE":0,"TOWNNAME":"北區","LI":"新勝里","LIN":"3鄰","STREET":"開元路","SECT":" ","MAREA":" ","LANE":"３３３巷","ALLEY":"８弄","HOUSE_NO":"９號","E_COORD97":170208.19,"N_COORD97":2545509.5899999999,"ADDRESS":"開元路３３３巷８弄９號","OBJECTID":146721},"geometry":{"x":170208.19000000134,"y":2545509.5900000017}},{"attributes":{"ID":146722,"DIS_CODE":0,"TOWNNAME":"歸仁區","LI":"南興里","LIN":"30鄰","STREET":"保興街","SECT":" ","MAREA":" ","LANE":" ","ALLEY":" ","HOUSE_NO":"６１號","E_COORD97":176493.51999999999,"N_COORD97":2541067.25,"ADDRESS":"保興街６１號","OBJECTID":146722},"geometry":{"x":176493.51999999955,"y":2541067.2500000019}},{"attributes":{"ID":146723,"DIS_CODE":0,"TOWNNAME":"白河區","LI":"大林里","LIN":"1鄰","STREET":" ","SECT":" ","MAREA":"檨子林","LANE":" ","ALLEY":" ","HOUSE_NO":"９之１７號","E_COORD97":192618.10999999999,"N_COORD97":2581752.9300000002,"ADDRESS":"檨子林９之１７號","OBJECTID":146723},"geometry":{"x":192618.11000000034,"y":2581752.9300000016}},{"attributes":{"ID":146724,"DIS_CODE":0,"TOWNNAME":"歸仁區","LI":"南興里","LIN":"30鄰","STREET":"保興一街","SECT":" ","MAREA":" ","LANE":" ","ALLEY":" ","HOUSE_NO":"３７號","E_COORD97":176444.57000000001,"N_COORD97":2541071.25,"ADDRESS":"保興一街３７號","OBJECTID":146724},"geometry":{"x":176444.5700000003,"y":2541071.25}},{"attributes":{"ID":146725,"DIS_CODE":0,"TOWNNAME":"歸仁區","LI":"許厝里","LIN":"30鄰","STREET":"大智街","SECT":" ","MAREA":" ","LANE":" ","ALLEY":" ","HOUSE_NO":"２號","E_COORD97":177918.51999999999,"N_COORD97":2540684.5299999998,"ADDRESS":"大智街２號","OBJECTID":146725},"geometry":{"x":177918.51999999955,"y":2540684.5300000012}},{"attributes":{"ID":146726,"DIS_CODE":0,"TOWNNAME":"白河區","LI":"大林里","LIN":"1鄰","STREET":" ","SECT":" ","MAREA":"檨子林","LANE":" ","ALLEY":" ","HOUSE_NO":"９之５號","E_COORD97":192753.5,"N_COORD97":2582097.6099999999,"ADDRESS":"檨子林９之５號","OBJECTID":146726},"geometry":{"x":192753.50000000093,"y":2582097.6100000013}},{"attributes":{"ID":146727,"DIS_CODE":0,"TOWNNAME":"歸仁區","LI":"崙頂里","LIN":"30鄰","STREET":"凱旋路","SECT":"二段","MAREA":" ","LANE":" ","ALLEY":" ","HOUSE_NO":"５７號","E_COORD97":177319.13,"N_COORD97":2539401.25,"ADDRESS":"凱旋路二段５７號","OBJECTID":146727},"geometry":{"x":177319.13000000082,"y":2539401.2499999981}},{"attributes":{"ID":146728,"DIS_CODE":0,"TOWNNAME":"永康區","LI":"正強里","LIN":"3鄰","STREET":"中正路","SECT":" ","MAREA":" ","LANE":"１巷","ALLEY":"４２弄","HOUSE_NO":"３號","E_COORD97":173623.95000000001,"N_COORD97":2547613.3399999999,"ADDRESS":"中正路１巷４２弄３號","OBJECTID":146728},"geometry":{"x":173623.95000000112,"y":2547613.3400000017}},{"attributes":{"ID":146729,"DIS_CODE":0,"TOWNNAME":"北區","LI":"文元里","LIN":"3鄰","STREET":"文賢三街","SECT":" ","MAREA":" ","LANE":"３３７巷","ALLEY":"６９弄","HOUSE_NO":"１號","E_COORD97":167639.20999999999,"N_COORD97":2546292.5099999998,"ADDRESS":"文賢三街３３７巷６９弄１號","OBJECTID":146729},"geometry":{"x":167639.21000000089,"y":2546292.5100000016}},{"attributes":{"ID":146730,"DIS_CODE":0,"TOWNNAME":"北區","LI":"文元里","LIN":"3鄰","STREET":"文賢三街","SECT":" ","MAREA":" ","LANE":"３３７巷","ALLEY":"６９弄","HOUSE_NO":"１０號","E_COORD97":167633.5,"N_COORD97":2546273.9399999999,"ADDRESS":"文賢三街３３７巷６９弄１０號","OBJECTID":146730},"geometry":{"x":167633.50000000186,"y":2546273.9399999995}},{"attributes":{"ID":146731,"DIS_CODE":0,"TOWNNAME":"白河區","LI":"昇安里","LIN":" ","STREET":" ","SECT":" ","MAREA":"三間厝","LANE":" ","ALLEY":" ","HOUSE_NO":"１１之４號","E_COORD97":191497.81,"N_COORD97":2584735.02,"ADDRESS":"三間厝１１之４號","OBJECTID":146731},"geometry":{"x":191497.81000000052,"y":2584735.0199999996}},{"attributes":{"ID":146732,"DIS_CODE":0,"TOWNNAME":"白河區","LI":"昇安里","LIN":" ","STREET":" ","SECT":" ","MAREA":"三間厝","LANE":" ","ALLEY":" ","HOUSE_NO":"１２０號","E_COORD97":192701.22,"N_COORD97":2584444.5800000001,"ADDRESS":"三間厝１２０號","OBJECTID":146732},"geometry":{"x":192701.21999999974,"y":2584444.5800000019}},{"attributes":{"ID":146733,"DIS_CODE":0,"TOWNNAME":"白河區","LI":"昇安里","LIN":" ","STREET":" ","SECT":" ","MAREA":"三間厝","LANE":" ","ALLEY":" ","HOUSE_NO":"１２７之６號","E_COORD97":191204.51000000001,"N_COORD97":2584645.9199999999,"ADDRESS":"三間厝１２７之６號","OBJECTID":146733},"geometry":{"x":191204.50999999978,"y":2584645.9200000018}},{"attributes":{"ID":146734,"DIS_CODE":0,"TOWNNAME":"北區","LI":"文元里","LIN":"3鄰","STREET":"文賢三街","SECT":" ","MAREA":" ","LANE":"３３７巷","ALLEY":"６９弄","HOUSE_NO":"２號","E_COORD97":167630.79999999999,"N_COORD97":2546290.29,"ADDRESS":"文賢三街３３７巷６９弄２號","OBJECTID":146734},"geometry":{"x":167630.79999999981,"y":2546290.290000001}},{"attributes":{"ID":146735,"DIS_CODE":0,"TOWNNAME":"歸仁區","LI":"崙頂里","LIN":"30鄰","STREET":"凱旋路","SECT":"二段","MAREA":" ","LANE":" ","ALLEY":" ","HOUSE_NO":"１１號","E_COORD97":177424.63,"N_COORD97":2539383.25,"ADDRESS":"凱旋路二段１１號","OBJECTID":146735},"geometry":{"x":177424.63000000082,"y":2539383.25}},{"attributes":{"ID":146736,"DIS_CODE":0,"TOWNNAME":"白河區","LI":"昇安里","LIN":" ","STREET":" ","SECT":" ","MAREA":"三間厝","LANE":" ","ALLEY":" ","HOUSE_NO":"１７０號","E_COORD97":191214.14000000001,"N_COORD97":2584676.8199999998,"ADDRESS":"三間厝１７０號","OBJECTID":146736},"geometry":{"x":191214.14000000153,"y":2584676.8200000022}},{"attributes":{"ID":146737,"DIS_CODE":0,"TOWNNAME":"白河區","LI":"昇安里","LIN":" ","STREET":" ","SECT":" ","MAREA":"三間厝","LANE":" ","ALLEY":" ","HOUSE_NO":"１９號","E_COORD97":191551.39999999999,"N_COORD97":2584757.0499999998,"ADDRESS":"三間厝１９號","OBJECTID":146737},"geometry":{"x":191551.40000000037,"y":2584757.0500000026}},{"attributes":{"ID":146738,"DIS_CODE":0,"TOWNNAME":"白河區","LI":"昇安里","LIN":" ","STREET":" ","SECT":" ","MAREA":"三間厝","LANE":" ","ALLEY":" ","HOUSE_NO":"２６０號","E_COORD97":191600.44,"N_COORD97":2585608.9199999999,"ADDRESS":"三間厝２６０號","OBJECTID":146738},"geometry":{"x":191600.44000000041,"y":2585608.9200000018}},{"attributes":{"ID":146739,"DIS_CODE":0,"TOWNNAME":"白河區","LI":"昇安里","LIN":" ","STREET":" ","SECT":" ","MAREA":"三間厝","LANE":" ","ALLEY":" ","HOUSE_NO":"２６號","E_COORD97":191652.67999999999,"N_COORD97":2584723.4100000001,"ADDRESS":"三間厝２６號","OBJECTID":146739},"geometry":{"x":191652.6799999997,"y":2584723.410000002}},{"attributes":{"ID":146740,"DIS_CODE":0,"TOWNNAME":"白河區","LI":"昇安里","LIN":" ","STREET":" ","SECT":" ","MAREA":"三間厝","LANE":" ","ALLEY":" ","HOUSE_NO":"３０之９號","E_COORD97":191543.98999999999,"N_COORD97":2584790.8300000001,"ADDRESS":"三間厝３０之９號","OBJECTID":146740},"geometry":{"x":191543.99000000022,"y":2584790.8300000001}},{"attributes":{"ID":146741,"DIS_CODE":0,"TOWNNAME":"白河區","LI":"昇安里","LIN":" ","STREET":" ","SECT":" ","MAREA":"三間厝","LANE":" ","ALLEY":" ","HOUSE_NO":"３１５號","E_COORD97":191739.69,"N_COORD97":2585939.2999999998,"ADDRESS":"三間厝３１５號","OBJECTID":146741},"geometry":{"x":191739.69000000041,"y":2585939.3000000026}},{"attributes":{"ID":146742,"DIS_CODE":0,"TOWNNAME":"白河區","LI":"昇安里","LIN":" ","STREET":" ","SECT":" ","MAREA":"三間厝","LANE":" ","ALLEY":" ","HOUSE_NO":"３５號","E_COORD97":191658.01000000001,"N_COORD97":2584785.4500000002,"ADDRESS":"三間厝３５號","OBJECTID":146742},"geometry":{"x":191658.01000000071,"y":2584785.4499999993}},{"attributes":{"ID":146743,"DIS_CODE":0,"TOWNNAME":"白河區","LI":"昇安里","LIN":" ","STREET":" ","SECT":" ","MAREA":"三間厝","LANE":" ","ALLEY":" ","HOUSE_NO":"３６號","E_COORD97":191645.32000000001,"N_COORD97":2584781.3799999999,"ADDRESS":"三間厝３６號","OBJECTID":146743},"geometry":{"x":191645.3200000003,"y":2584781.3800000008}},{"attributes":{"ID":146744,"DIS_CODE":0,"TOWNNAME":"白河區","LI":"昇安里","LIN":" ","STREET":" ","SECT":" ","MAREA":"三間厝","LANE":" ","ALLEY":" ","HOUSE_NO":"３９號","E_COORD97":191692.37,"N_COORD97":2584773.1699999999,"ADDRESS":"三間厝３９號","OBJECTID":146744},"geometry":{"x":191692.37000000011,"y":2584773.1700000018}},{"attributes":{"ID":146745,"DIS_CODE":0,"TOWNNAME":"白河區","LI":"昇安里","LIN":" ","STREET":" ","SECT":" ","MAREA":"三間厝","LANE":" ","ALLEY":" ","HOUSE_NO":"４５６號","E_COORD97":192290.70999999999,"N_COORD97":2584934.2200000002,"ADDRESS":"三間厝４５６號","OBJECTID":146745},"geometry":{"x":192290.71000000089,"y":2584934.2200000007}},{"attributes":{"ID":146746,"DIS_CODE":0,"TOWNNAME":"白河區","LI":"昇安里","LIN":" ","STREET":" ","SECT":" ","MAREA":"三間厝","LANE":" ","ALLEY":" ","HOUSE_NO":"５２之１號","E_COORD97":191720.07999999999,"N_COORD97":2584502.5899999999,"ADDRESS":"三間厝５２之１號","OBJECTID":146746},"geometry":{"x":191720.08000000194,"y":2584502.5900000017}},{"attributes":{"ID":146747,"DIS_CODE":0,"TOWNNAME":"白河區","LI":"昇安里","LIN":" ","STREET":" ","SECT":" ","MAREA":"三間厝","LANE":" ","ALLEY":" ","HOUSE_NO":"５５號","E_COORD97":191829.45999999999,"N_COORD97":2584785.0299999998,"ADDRESS":"三間厝５５號","OBJECTID":146747},"geometry":{"x":191829.46000000089,"y":2584785.0299999993}},{"attributes":{"ID":146748,"DIS_CODE":0,"TOWNNAME":"歸仁區","LI":"六甲里","LIN":"30鄰","STREET":"六甲二街","SECT":" ","MAREA":" ","LANE":" ","ALLEY":" ","HOUSE_NO":"５號","E_COORD97":175764.72,"N_COORD97":2539251.25,"ADDRESS":"六甲二街５號","OBJECTID":146748},"geometry":{"x":175764.71999999974,"y":2539251.25}},{"attributes":{"ID":146749,"DIS_CODE":0,"TOWNNAME":"白河區","LI":"昇安里","LIN":" ","STREET":" ","SECT":" ","MAREA":"三間厝","LANE":" ","ALLEY":" ","HOUSE_NO":"６５號","E_COORD97":191916.89000000001,"N_COORD97":2584716.23,"ADDRESS":"三間厝６５號","OBJECTID":146749},"geometry":{"x":191916.88999999966,"y":2584716.2300000004}},{"attributes":{"ID":146750,"DIS_CODE":0,"TOWNNAME":"白河區","LI":"昇安里","LIN":" ","STREET":" ","SECT":" ","MAREA":"三間厝","LANE":" ","ALLEY":" ","HOUSE_NO":"７４號","E_COORD97":191980.13,"N_COORD97":2584744.8199999998,"ADDRESS":"三間厝７４號","OBJECTID":146750},"geometry":{"x":191980.12999999989,"y":2584744.8200000022}},{"attributes":{"ID":146751,"DIS_CODE":0,"TOWNNAME":"白河區","LI":"昇安里","LIN":" ","STREET":" ","SECT":" ","MAREA":"三間厝","LANE":" ","ALLEY":" ","HOUSE_NO":"８１號","E_COORD97":192010.03,"N_COORD97":2584711.75,"ADDRESS":"三間厝８１號","OBJECTID":146751},"geometry":{"x":192010.03000000026,"y":2584711.7500000019}},{"attributes":{"ID":146752,"DIS_CODE":0,"TOWNNAME":"白河區","LI":"昇安里","LIN":" ","STREET":" ","SECT":" ","MAREA":"三間厝","LANE":" ","ALLEY":" ","HOUSE_NO":"８４號","E_COORD97":192030.41,"N_COORD97":2584716.8599999999,"ADDRESS":"三間厝８４號","OBJECTID":146752},"geometry":{"x":192030.41000000108,"y":2584716.8600000013}},{"attributes":{"ID":146753,"DIS_CODE":0,"TOWNNAME":"白河區","LI":"昇安里","LIN":" ","STREET":" ","SECT":" ","MAREA":"三間厝","LANE":" ","ALLEY":" ","HOUSE_NO":"８８號","E_COORD97":192064.64999999999,"N_COORD97":2584672.48,"ADDRESS":"三間厝８８號","OBJECTID":146753},"geometry":{"x":192064.6500000013,"y":2584672.4800000023}},{"attributes":{"ID":146754,"DIS_CODE":0,"TOWNNAME":"白河區","LI":"昇安里","LIN":" ","STREET":" ","SECT":" ","MAREA":"三間厝","LANE":" ","ALLEY":" ","HOUSE_NO":"８之１３號","E_COORD97":191346.82000000001,"N_COORD97":2584700.8199999998,"ADDRESS":"三間厝８之１３號","OBJECTID":146754},"geometry":{"x":191346.8200000003,"y":2584700.8200000022}},{"attributes":{"ID":146755,"DIS_CODE":0,"TOWNNAME":"白河區","LI":"昇安里","LIN":" ","STREET":" ","SECT":" ","MAREA":"三間厝","LANE":" ","ALLEY":" ","HOUSE_NO":"８之８號","E_COORD97":191367.54999999999,"N_COORD97":2584708.25,"ADDRESS":"三間厝８之８號","OBJECTID":146755},"geometry":{"x":191367.55000000075,"y":2584708.2500000019}},{"attributes":{"ID":146756,"DIS_CODE":0,"TOWNNAME":"白河區","LI":"秀祐里","LIN":" ","STREET":" ","SECT":" ","MAREA":"下秀祐","LANE":" ","ALLEY":" ","HOUSE_NO":"１２之６號","E_COORD97":188605.51999999999,"N_COORD97":2582895.5099999998,"ADDRESS":"下秀祐１２之６號","OBJECTID":146756},"geometry":{"x":188605.51999999955,"y":2582895.5100000016}},{"attributes":{"ID":146757,"DIS_CODE":0,"TOWNNAME":"白河區","LI":"秀祐里","LIN":" ","STREET":" ","SECT":" ","MAREA":"下秀祐","LANE":" ","ALLEY":" ","HOUSE_NO":"２２號","E_COORD97":188563.14000000001,"N_COORD97":2582776.3199999998,"ADDRESS":"下秀祐２２號","OBJECTID":146757},"geometry":{"x":188563.1400000006,"y":2582776.3200000003}},{"attributes":{"ID":146758,"DIS_CODE":0,"TOWNNAME":"白河區","LI":"秀祐里","LIN":" ","STREET":" ","SECT":" ","MAREA":"下秀祐","LANE":" ","ALLEY":" ","HOUSE_NO":"２３號","E_COORD97":188499.51999999999,"N_COORD97":2582729.52,"ADDRESS":"下秀祐２３號","OBJECTID":146758},"geometry":{"x":188499.52000000048,"y":2582729.5200000014}},{"attributes":{"ID":146759,"DIS_CODE":0,"TOWNNAME":"白河區","LI":"秀祐里","LIN":" ","STREET":" ","SECT":" ","MAREA":"下秀祐","LANE":" ","ALLEY":" ","HOUSE_NO":"４３號","E_COORD97":187958.94,"N_COORD97":2582349.5600000001,"ADDRESS":"下秀祐４３號","OBJECTID":146759},"geometry":{"x":187958.94000000041,"y":2582349.5600000024}},{"attributes":{"ID":146760,"DIS_CODE":0,"TOWNNAME":"白河區","LI":"秀祐里","LIN":" ","STREET":" ","SECT":" ","MAREA":"下秀祐","LANE":" ","ALLEY":" ","HOUSE_NO":"４４號","E_COORD97":187958.45000000001,"N_COORD97":2582355.79,"ADDRESS":"下秀祐４４號","OBJECTID":146760},"geometry":{"x":187958.45000000112,"y":2582355.7899999991}},{"attributes":{"ID":146761,"DIS_CODE":0,"TOWNNAME":"白河區","LI":"秀祐里","LIN":" ","STREET":" ","SECT":" ","MAREA":"下秀祐","LANE":" ","ALLEY":" ","HOUSE_NO":"６８號","E_COORD97":187926.25,"N_COORD97":2582730.96,"ADDRESS":"下秀祐６８號","OBJECTID":146761},"geometry":{"x":187926.25,"y":2582730.9600000028}},{"attributes":{"ID":146762,"DIS_CODE":0,"TOWNNAME":"白河區","LI":"秀祐里","LIN":" ","STREET":" ","SECT":" ","MAREA":"下秀祐","LANE":" ","ALLEY":" ","HOUSE_NO":"７之２號","E_COORD97":188707.54000000001,"N_COORD97":2582989.7799999998,"ADDRESS":"下秀祐７之２號","OBJECTID":146762},"geometry":{"x":188707.54000000004,"y":2582989.7799999993}},{"attributes":{"ID":146763,"DIS_CODE":0,"TOWNNAME":"白河區","LI":"大竹里","LIN":" ","STREET":" ","SECT":" ","MAREA":"大排竹","LANE":" ","ALLEY":" ","HOUSE_NO":"９４之１號","E_COORD97":189742.60999999999,"N_COORD97":2585256.6800000002,"ADDRESS":"大排竹９４之１號","OBJECTID":146763},"geometry":{"x":189742.61000000127,"y":2585256.6800000034}},{"attributes":{"ID":146764,"DIS_CODE":0,"TOWNNAME":"白河區","LI":"大竹里","LIN":" ","STREET":" ","SECT":" ","MAREA":"大排竹","LANE":" ","ALLEY":" ","HOUSE_NO":"１０１之４號","E_COORD97":189594.45000000001,"N_COORD97":2585326.0299999998,"ADDRESS":"大排竹１０１之４號","OBJECTID":146764},"geometry":{"x":189594.45000000019,"y":2585326.0300000012}},{"attributes":{"ID":146765,"DIS_CODE":0,"TOWNNAME":"白河區","LI":"大竹里","LIN":" ","STREET":" ","SECT":" ","MAREA":"大排竹","LANE":" ","ALLEY":" ","HOUSE_NO":"１０３之４號","E_COORD97":189841.53,"N_COORD97":2585127.3999999999,"ADDRESS":"大排竹１０３之４號","OBJECTID":146765},"geometry":{"x":189841.53000000026,"y":2585127.4000000022}},{"attributes":{"ID":146766,"DIS_CODE":0,"TOWNNAME":"白河區","LI":"大竹里","LIN":" ","STREET":" ","SECT":" ","MAREA":"大排竹","LANE":" ","ALLEY":" ","HOUSE_NO":"１０５號","E_COORD97":189831.95000000001,"N_COORD97":2585147.9399999999,"ADDRESS":"大排竹１０５號","OBJECTID":146766},"geometry":{"x":189831.95000000019,"y":2585147.9399999995}},{"attributes":{"ID":146767,"DIS_CODE":0,"TOWNNAME":"白河區","LI":"大竹里","LIN":" ","STREET":" ","SECT":" ","MAREA":"大排竹","LANE":" ","ALLEY":" ","HOUSE_NO":"１０之６號","E_COORD97":190053.92999999999,"N_COORD97":2585450.54,"ADDRESS":"大排竹１０之６號","OBJECTID":146767},"geometry":{"x":190053.9299999997,"y":2585450.540000001}},{"attributes":{"ID":146768,"DIS_CODE":0,"TOWNNAME":"白河區","LI":"大竹里","LIN":" ","STREET":" ","SECT":" ","MAREA":"大排竹","LANE":" ","ALLEY":" ","HOUSE_NO":"１１８之１號","E_COORD97":189757.42999999999,"N_COORD97":2585105.8100000001,"ADDRESS":"大排竹１１８之１號","OBJECTID":146768},"geometry":{"x":189757.4299999997,"y":2585105.8100000005}},{"attributes":{"ID":146769,"DIS_CODE":0,"TOWNNAME":"白河區","LI":"大竹里","LIN":" ","STREET":" ","SECT":" ","MAREA":"大排竹","LANE":" ","ALLEY":" ","HOUSE_NO":"１１９之９號","E_COORD97":189811.85000000001,"N_COORD97":2585081.8799999999,"ADDRESS":"大排竹１１９之９號","OBJECTID":146769},"geometry":{"x":189811.84999999963,"y":2585081.8800000008}},{"attributes":{"ID":146770,"DIS_CODE":0,"TOWNNAME":"白河區","LI":"大竹里","LIN":" ","STREET":" ","SECT":" ","MAREA":"大排竹","LANE":" ","ALLEY":" ","HOUSE_NO":"１２０之２３號","E_COORD97":189976.07999999999,"N_COORD97":2584968.2799999998,"ADDRESS":"大排竹１２０之２３號","OBJECTID":146770},"geometry":{"x":189976.08000000101,"y":2584968.2800000012}},{"attributes":{"ID":146771,"DIS_CODE":0,"TOWNNAME":"白河區","LI":"大竹里","LIN":" ","STREET":" ","SECT":" ","MAREA":"大排竹","LANE":" ","ALLEY":" ","HOUSE_NO":"１２０之２５號","E_COORD97":189968.54999999999,"N_COORD97":2585007.0899999999,"ADDRESS":"大排竹１２０之２５號","OBJECTID":146771},"geometry":{"x":189968.54999999981,"y":2585007.0900000017}},{"attributes":{"ID":146772,"DIS_CODE":0,"TOWNNAME":"白河區","LI":"大竹里","LIN":" ","STREET":" ","SECT":" ","MAREA":"大排竹","LANE":" ","ALLEY":" ","HOUSE_NO":"１２０之７號","E_COORD97":189900.39999999999,"N_COORD97":2584135.7999999998,"ADDRESS":"大排竹１２０之７號","OBJECTID":146772},"geometry":{"x":189900.40000000037,"y":2584135.8000000026}},{"attributes":{"ID":146773,"DIS_CODE":0,"TOWNNAME":"白河區","LI":"大竹里","LIN":" ","STREET":" ","SECT":" ","MAREA":"大排竹","LANE":" ","ALLEY":" ","HOUSE_NO":"１２１之５號","E_COORD97":189826.35000000001,"N_COORD97":2585055.73,"ADDRESS":"大排竹１２１之５號","OBJECTID":146773},"geometry":{"x":189826.35000000056,"y":2585055.7300000004}},{"attributes":{"ID":146774,"DIS_CODE":0,"TOWNNAME":"白河區","LI":"大竹里","LIN":" ","STREET":" ","SECT":" ","MAREA":"大排竹","LANE":" ","ALLEY":" ","HOUSE_NO":"１２之１號","E_COORD97":189851.98999999999,"N_COORD97":2585165.1000000001,"ADDRESS":"大排竹１２之１號","OBJECTID":146774},"geometry":{"x":189851.99000000022,"y":2585165.0999999996}},{"attributes":{"ID":146775,"DIS_CODE":0,"TOWNNAME":"白河區","LI":"大竹里","LIN":" ","STREET":" ","SECT":" ","MAREA":"大排竹","LANE":" ","ALLEY":" ","HOUSE_NO":"１３７號","E_COORD97":189656.75,"N_COORD97":2585153.6499999999,"ADDRESS":"大排竹１３７號","OBJECTID":146775},"geometry":{"x":189656.75,"y":2585153.6500000022}},{"attributes":{"ID":146776,"DIS_CODE":0,"TOWNNAME":"白河區","LI":"大竹里","LIN":" ","STREET":" ","SECT":" ","MAREA":"大排竹","LANE":" ","ALLEY":" ","HOUSE_NO":"１４３號","E_COORD97":189704.60999999999,"N_COORD97":2585190.7799999998,"ADDRESS":"大排竹１４３號","OBJECTID":146776},"geometry":{"x":189704.6100000022,"y":2585190.7799999975}},{"attributes":{"ID":146777,"DIS_CODE":0,"TOWNNAME":"白河區","LI":"大竹里","LIN":" ","STREET":" ","SECT":" ","MAREA":"大排竹","LANE":" ","ALLEY":" ","HOUSE_NO":"１５０之１號","E_COORD97":189738.54000000001,"N_COORD97":2585198.3999999999,"ADDRESS":"大排竹１５０之１號","OBJECTID":146777},"geometry":{"x":189738.5400000019,"y":2585198.4000000022}},{"attributes":{"ID":146778,"DIS_CODE":0,"TOWNNAME":"白河區","LI":"昇安里","LIN":"7鄰","STREET":" ","SECT":" ","MAREA":"三間厝","LANE":" ","ALLEY":" ","HOUSE_NO":"９４之１號","E_COORD97":192139.20000000001,"N_COORD97":2584754.0699999998,"ADDRESS":"三間厝９４之１號","OBJECTID":146778},"geometry":{"x":192139.20000000019,"y":2584754.0700000022}},{"attributes":{"ID":146779,"DIS_CODE":0,"TOWNNAME":"白河區","LI":"昇安里","LIN":"1鄰","STREET":" ","SECT":" ","MAREA":"三間厝","LANE":" ","ALLEY":" ","HOUSE_NO":"８之４１號","E_COORD97":191446.66,"N_COORD97":2584742.4199999999,"ADDRESS":"三間厝８之４１號","OBJECTID":146779},"geometry":{"x":191446.66000000201,"y":2584742.4199999999}},{"attributes":{"ID":146780,"DIS_CODE":0,"TOWNNAME":"白河區","LI":"大竹里","LIN":" ","STREET":" ","SECT":" ","MAREA":"大排竹","LANE":" ","ALLEY":" ","HOUSE_NO":"１５２號","E_COORD97":189729.94,"N_COORD97":2585217.9100000001,"ADDRESS":"大排竹１５２號","OBJECTID":146780},"geometry":{"x":189729.94000000134,"y":2585217.9099999983}},{"attributes":{"ID":146781,"DIS_CODE":0,"TOWNNAME":"白河區","LI":"大竹里","LIN":" ","STREET":" ","SECT":" ","MAREA":"大排竹","LANE":" ","ALLEY":" ","HOUSE_NO":"１５６之１號","E_COORD97":189708.78,"N_COORD97":2585243.52,"ADDRESS":"大排竹１５６之１號","OBJECTID":146781},"geometry":{"x":189708.78000000119,"y":2585243.5199999996}},{"attributes":{"ID":146782,"DIS_CODE":0,"TOWNNAME":"白河區","LI":"大竹里","LIN":" ","STREET":" ","SECT":" ","MAREA":"大排竹","LANE":" ","ALLEY":" ","HOUSE_NO":"１５６之２號","E_COORD97":189703.60000000001,"N_COORD97":2585245.2799999998,"ADDRESS":"大排竹１５６之２號","OBJECTID":146782},"geometry":{"x":189703.59999999963,"y":2585245.2800000031}},{"attributes":{"ID":146783,"DIS_CODE":0,"TOWNNAME":"北區","LI":"文元里","LIN":"3鄰","STREET":"文賢三街","SECT":" ","MAREA":" ","LANE":"３３７巷","ALLEY":"６９弄","HOUSE_NO":"３號","E_COORD97":167640.32999999999,"N_COORD97":2546287.4300000002,"ADDRESS":"文賢三街３３７巷６９弄３號","OBJECTID":146783},"geometry":{"x":167640.33000000101,"y":2546287.4300000016}},{"attributes":{"ID":146784,"DIS_CODE":0,"TOWNNAME":"白河區","LI":"大竹里","LIN":" ","STREET":" ","SECT":" ","MAREA":"大排竹","LANE":" ","ALLEY":" ","HOUSE_NO":"１６６號","E_COORD97":189643.13,"N_COORD97":2585210.7999999998,"ADDRESS":"大排竹１６６號","OBJECTID":146784},"geometry":{"x":189643.13000000082,"y":2585210.8000000026}},{"attributes":{"ID":146785,"DIS_CODE":0,"TOWNNAME":"白河區","LI":"大竹里","LIN":" ","STREET":" ","SECT":" ","MAREA":"大排竹","LANE":" ","ALLEY":" ","HOUSE_NO":"１７３號","E_COORD97":189623.32999999999,"N_COORD97":2585281.0800000001,"ADDRESS":"大排竹１７３號","OBJECTID":146785},"geometry":{"x":189623.33000000101,"y":2585281.0799999982}},{"attributes":{"ID":146786,"DIS_CODE":0,"TOWNNAME":"白河區","LI":"大竹里","LIN":" ","STREET":" ","SECT":" ","MAREA":"大排竹","LANE":" ","ALLEY":" ","HOUSE_NO":"１７７之１號","E_COORD97":189564.73000000001,"N_COORD97":2585295.23,"ADDRESS":"大排竹１７７之１號","OBJECTID":146786},"geometry":{"x":189564.72999999952,"y":2585295.2300000023}},{"attributes":{"ID":146787,"DIS_CODE":0,"TOWNNAME":"白河區","LI":"大竹里","LIN":" ","STREET":" ","SECT":" ","MAREA":"大排竹","LANE":" ","ALLEY":" ","HOUSE_NO":"１８７之２號","E_COORD97":189548.82999999999,"N_COORD97":2585206.8599999999,"ADDRESS":"大排竹１８７之２號","OBJECTID":146787},"geometry":{"x":189548.83000000101,"y":2585206.8599999994}},{"attributes":{"ID":146788,"DIS_CODE":0,"TOWNNAME":"新營區","LI":"民榮里","LIN":"30鄰","STREET":"太子路","SECT":" ","MAREA":" ","LANE":" ","ALLEY":" ","HOUSE_NO":"７８號","E_COORD97":178179.60999999999,"N_COORD97":2578028.8100000001,"ADDRESS":"太子路７８號","OBJECTID":146788},"geometry":{"x":178179.61000000127,"y":2578028.8100000024}},{"attributes":{"ID":146789,"DIS_CODE":0,"TOWNNAME":"東山區","LI":"東原里","LIN":"30鄰","STREET":" ","SECT":" ","MAREA":"班芝花坑","LANE":" ","ALLEY":" ","HOUSE_NO":"３號之１","E_COORD97":192523.10999999999,"N_COORD97":2574992.1899999999,"ADDRESS":"班芝花坑３號之１","OBJECTID":146789},"geometry":{"x":192523.11000000034,"y":2574992.1899999995}},{"attributes":{"ID":146790,"DIS_CODE":0,"TOWNNAME":"東山區","LI":"東原里","LIN":"30鄰","STREET":" ","SECT":" ","MAREA":"班芝花坑","LANE":" ","ALLEY":" ","HOUSE_NO":"３號之２","E_COORD97":192504.06,"N_COORD97":2575021.1600000001,"ADDRESS":"班芝花坑３號之２","OBJECTID":146790},"geometry":{"x":192504.05999999959,"y":2575021.1600000001}},{"attributes":{"ID":146791,"DIS_CODE":0,"TOWNNAME":"東山區","LI":"東原里","LIN":"30鄰","STREET":" ","SECT":" ","MAREA":"班芝花坑","LANE":" ","ALLEY":" ","HOUSE_NO":"３號之４","E_COORD97":192497,"N_COORD97":2574991.46,"ADDRESS":"班芝花坑３號之４","OBJECTID":146791},"geometry":{"x":192497.00000000186,"y":2574991.4600000028}},{"attributes":{"ID":146792,"DIS_CODE":0,"TOWNNAME":"新營區","LI":"大宏里","LIN":"30鄰","STREET":"開元路","SECT":" ","MAREA":" ","LANE":" ","ALLEY":" ","HOUSE_NO":"２９號","E_COORD97":180817.26999999999,"N_COORD97":2578593.2400000002,"ADDRESS":"開元路２９號","OBJECTID":146792},"geometry":{"x":180817.27000000048,"y":2578593.2400000002}},{"attributes":{"ID":146793,"DIS_CODE":0,"TOWNNAME":"東山區","LI":"東原里","LIN":"30鄰","STREET":" ","SECT":" ","MAREA":"班芝花坑","LANE":" ","ALLEY":" ","HOUSE_NO":"３號之５","E_COORD97":192499.39000000001,"N_COORD97":2574934.4399999999,"ADDRESS":"班芝花坑３號之５","OBJECTID":146793},"geometry":{"x":192499.3900000006,"y":2574934.4400000032}},{"attributes":{"ID":146794,"DIS_CODE":0,"TOWNNAME":"東山區","LI":"東原里","LIN":"30鄰","STREET":" ","SECT":" ","MAREA":"班芝花坑","LANE":" ","ALLEY":" ","HOUSE_NO":"３號之６","E_COORD97":192541.70999999999,"N_COORD97":2575026.5699999998,"ADDRESS":"班芝花坑３號之６","OBJECTID":146794},"geometry":{"x":192541.71000000089,"y":2575026.5700000022}},{"attributes":{"ID":146795,"DIS_CODE":0,"TOWNNAME":"東山區","LI":"東原里","LIN":"30鄰","STREET":" ","SECT":" ","MAREA":"班芝花坑","LANE":" ","ALLEY":" ","HOUSE_NO":"３號之７","E_COORD97":192442.70000000001,"N_COORD97":2574807.3599999999,"ADDRESS":"班芝花坑３號之７","OBJECTID":146795},"geometry":{"x":192442.70000000019,"y":2574807.3600000013}},{"attributes":{"ID":146796,"DIS_CODE":0,"TOWNNAME":"東山區","LI":"東原里","LIN":"30鄰","STREET":" ","SECT":" ","MAREA":"班芝花坑","LANE":" ","ALLEY":" ","HOUSE_NO":"３號之８","E_COORD97":192594.97,"N_COORD97":2575015.5099999998,"ADDRESS":"班芝花坑３號之８","OBJECTID":146796},"geometry":{"x":192594.96999999974,"y":2575015.5100000035}},{"attributes":{"ID":146797,"DIS_CODE":0,"TOWNNAME":"東山區","LI":"東原里","LIN":"30鄰","STREET":" ","SECT":" ","MAREA":"班芝花坑","LANE":" ","ALLEY":" ","HOUSE_NO":"３號","E_COORD97":192582.67999999999,"N_COORD97":2575147.3300000001,"ADDRESS":"班芝花坑３號","OBJECTID":146797},"geometry":{"x":192582.6799999997,"y":2575147.3300000019}},{"attributes":{"ID":146798,"DIS_CODE":0,"TOWNNAME":"東山區","LI":"東原里","LIN":"30鄰","STREET":" ","SECT":" ","MAREA":"班芝花坑","LANE":" ","ALLEY":" ","HOUSE_NO":"５號之１","E_COORD97":192588.95000000001,"N_COORD97":2575220.8900000001,"ADDRESS":"班芝花坑５號之１","OBJECTID":146798},"geometry":{"x":192588.95000000205,"y":2575220.8900000025}},{"attributes":{"ID":146799,"DIS_CODE":0,"TOWNNAME":"東山區","LI":"東原里","LIN":"30鄰","STREET":" ","SECT":" ","MAREA":"班芝花坑","LANE":" ","ALLEY":" ","HOUSE_NO":"５號之２","E_COORD97":192562.17000000001,"N_COORD97":2575184.2599999998,"ADDRESS":"班芝花坑５號之２","OBJECTID":146799},"geometry":{"x":192562.17000000086,"y":2575184.2600000016}},{"attributes":{"ID":146800,"DIS_CODE":0,"TOWNNAME":"東山區","LI":"東原里","LIN":"30鄰","STREET":" ","SECT":" ","MAREA":"班芝花坑","LANE":" ","ALLEY":" ","HOUSE_NO":"５號之３","E_COORD97":192616.60999999999,"N_COORD97":2575216.6099999999,"ADDRESS":"班芝花坑５號之３","OBJECTID":146800},"geometry":{"x":192616.61000000034,"y":2575216.6099999994}}]}