{"displayFieldName":"TOWNNAME","fieldAliases":{"ID":"ID","DIS_CODE":"DIS_CODE","TOWNNAME":"TOWNNAME","LI":"LI","LIN":"LIN","STREET":"STREET","SECT":"SECT","MAREA":"MAREA","LANE":"LANE","ALLEY":"ALLEY","HOUSE_NO":"HOUSE_NO","E_COORD97":"E_COORD97","N_COORD97":"N_COORD97","ADDRESS":"ADDRESS","OBJECTID":"OBJECTID"},"geometryType":"esriGeometryPoint","spatialReference":{"wkid":102443,"latestWkid":3826},"fields":[{"name":"ID","type":"esriFieldTypeDouble","alias":"ID"},{"name":"DIS_CODE","type":"esriFieldTypeInteger","alias":"DIS_CODE"},{"name":"TOWNNAME","type":"esriFieldTypeString","alias":"TOWNNAME","length":8},{"name":"LI","type":"esriFieldTypeString","alias":"LI","length":8},{"name":"LIN","type":"esriFieldTypeString","alias":"LIN","length":12},{"name":"STREET","type":"esriFieldTypeString","alias":"STREET","length":20},{"name":"SECT","type":"esriFieldTypeString","alias":"SECT","length":8},{"name":"MAREA","type":"esriFieldTypeString","alias":"MAREA","length":12},{"name":"LANE","type":"esriFieldTypeString","alias":"LANE","length":10},{"name":"ALLEY","type":"esriFieldTypeString","alias":"ALLEY","length":10},{"name":"HOUSE_NO","type":"esriFieldTypeString","alias":"HOUSE_NO","length":20},{"name":"E_COORD97","type":"esriFieldTypeDouble","alias":"E_COORD97"},{"name":"N_COORD97","type":"esriFieldTypeDouble","alias":"N_COORD97"},{"name":"ADDRESS","type":"esriFieldTypeString","alias":"ADDRESS","length":50},{"name":"OBJECTID","type":"esriFieldTypeOID","alias":"OBJECTID"}],"features":[{"attributes":{"ID":284607,"DIS_CODE":0,"TOWNNAME":"東區","LI":"大學里","LIN":"19鄰","STREET":"東寧路","SECT":" ","MAREA":" ","LANE":"９３巷","ALLEY":" ","HOUSE_NO":"３７號","E_COORD97":170332.06,"N_COORD97":2543674.1499999999,"ADDRESS":"東寧路９３巷３７號","OBJECTID":284601},"geometry":{"x":170332.06000000052,"y":2543674.1499999985}},{"attributes":{"ID":284608,"DIS_CODE":0,"TOWNNAME":"東區","LI":"大學里","LIN":"19鄰","STREET":"東寧路","SECT":" ","MAREA":" ","LANE":"９３巷","ALLEY":" ","HOUSE_NO":"３９號","E_COORD97":170327.28,"N_COORD97":2543674.23,"ADDRESS":"東寧路９３巷３９號","OBJECTID":284602},"geometry":{"x":170327.28000000212,"y":2543674.2300000023}},{"attributes":{"ID":284609,"DIS_CODE":0,"TOWNNAME":"東區","LI":"大學里","LIN":"19鄰","STREET":"東寧路","SECT":" ","MAREA":" ","LANE":"９３巷","ALLEY":" ","HOUSE_NO":"４３號","E_COORD97":170308.70000000001,"N_COORD97":2543674,"ADDRESS":"東寧路９３巷４３號","OBJECTID":284603},"geometry":{"x":170308.70000000019,"y":2543674}},{"attributes":{"ID":284610,"DIS_CODE":0,"TOWNNAME":"東區","LI":"中西里","LIN":"19鄰","STREET":"長榮路","SECT":"二段","MAREA":" ","LANE":"３２巷","ALLEY":" ","HOUSE_NO":"９１號","E_COORD97":170086.79999999999,"N_COORD97":2543207.8300000001,"ADDRESS":"長榮路二段３２巷９１號","OBJECTID":284604},"geometry":{"x":170086.79999999981,"y":2543207.8300000001}},{"attributes":{"ID":284611,"DIS_CODE":0,"TOWNNAME":"東區","LI":"大學里","LIN":"19鄰","STREET":"東寧路","SECT":" ","MAREA":" ","LANE":"９３巷","ALLEY":" ","HOUSE_NO":"１２號","E_COORD97":170395.59,"N_COORD97":2543592.77,"ADDRESS":"東寧路９３巷１２號","OBJECTID":284605},"geometry":{"x":170395.58999999985,"y":2543592.7700000014}},{"attributes":{"ID":284612,"DIS_CODE":0,"TOWNNAME":"東區","LI":"圍下里","LIN":"19鄰","STREET":"慶東街","SECT":" ","MAREA":" ","LANE":"１２７巷","ALLEY":" ","HOUSE_NO":"１４號","E_COORD97":169594.54999999999,"N_COORD97":2543394.54,"ADDRESS":"慶東街１２７巷１４號","OBJECTID":284606},"geometry":{"x":169594.55000000075,"y":2543394.5399999991}},{"attributes":{"ID":284613,"DIS_CODE":0,"TOWNNAME":"東區","LI":"圍下里","LIN":"19鄰","STREET":"慶東街","SECT":" ","MAREA":" ","LANE":"１２７巷","ALLEY":" ","HOUSE_NO":"１６號","E_COORD97":169603.75,"N_COORD97":2543411.0099999998,"ADDRESS":"慶東街１２７巷１６號","OBJECTID":284607},"geometry":{"x":169603.75000000093,"y":2543411.0100000016}},{"attributes":{"ID":284614,"DIS_CODE":0,"TOWNNAME":"東區","LI":"圍下里","LIN":"19鄰","STREET":"慶東街","SECT":" ","MAREA":" ","LANE":"１２７巷","ALLEY":" ","HOUSE_NO":"１８號","E_COORD97":169597.41,"N_COORD97":2543410.0600000001,"ADDRESS":"慶東街１２７巷１８號","OBJECTID":284608},"geometry":{"x":169597.41000000201,"y":2543410.0600000005}},{"attributes":{"ID":284615,"DIS_CODE":0,"TOWNNAME":"東區","LI":"圍下里","LIN":"19鄰","STREET":"慶東街","SECT":" ","MAREA":" ","LANE":"１２７巷","ALLEY":" ","HOUSE_NO":"１號","E_COORD97":169645.98000000001,"N_COORD97":2543384.7400000002,"ADDRESS":"慶東街１２７巷１號","OBJECTID":284609},"geometry":{"x":169645.98000000045,"y":2543384.7400000002}},{"attributes":{"ID":284616,"DIS_CODE":0,"TOWNNAME":"東區","LI":"裕農里","LIN":"2鄰","STREET":"裕豐街","SECT":" ","MAREA":" ","LANE":" ","ALLEY":" ","HOUSE_NO":"１３２號","E_COORD97":170768.03,"N_COORD97":2542997.9399999999,"ADDRESS":"裕豐街１３２號","OBJECTID":284610},"geometry":{"x":170768.03000000212,"y":2542997.9400000013}},{"attributes":{"ID":284617,"DIS_CODE":0,"TOWNNAME":"大內區","LI":"石城里","LIN":"2鄰","STREET":" ","SECT":" ","MAREA":"石子瀨","LANE":" ","ALLEY":" ","HOUSE_NO":"１３號","E_COORD97":184355.42000000001,"N_COORD97":2557841.25,"ADDRESS":"石子瀨１３號","OBJECTID":284611},"geometry":{"x":184355.42000000179,"y":2557841.25}},{"attributes":{"ID":284618,"DIS_CODE":0,"TOWNNAME":"東區","LI":"圍下里","LIN":"19鄰","STREET":"慶東街","SECT":" ","MAREA":" ","LANE":"１２７巷","ALLEY":" ","HOUSE_NO":"２號","E_COORD97":169633.76000000001,"N_COORD97":2543402.3999999999,"ADDRESS":"慶東街１２７巷２號","OBJECTID":284612},"geometry":{"x":169633.76000000071,"y":2543402.4000000022}},{"attributes":{"ID":284619,"DIS_CODE":0,"TOWNNAME":"東區","LI":"龍山里","LIN":"2鄰","STREET":"崇仁街","SECT":" ","MAREA":" ","LANE":" ","ALLEY":" ","HOUSE_NO":"１９號","E_COORD97":170340.70000000001,"N_COORD97":2542768.0499999998,"ADDRESS":"崇仁街１９號","OBJECTID":284613},"geometry":{"x":170340.70000000019,"y":2542768.0500000026}},{"attributes":{"ID":284620,"DIS_CODE":0,"TOWNNAME":"麻豆區","LI":"北勢里","LIN":"2鄰","STREET":" ","SECT":" ","MAREA":"加輦邦","LANE":" ","ALLEY":" ","HOUSE_NO":"２０號之１","E_COORD97":173400.85999999999,"N_COORD97":2566354.7999999998,"ADDRESS":"加輦邦２０號之１","OBJECTID":284614},"geometry":{"x":173400.86000000127,"y":2566354.8000000007}},{"attributes":{"ID":284621,"DIS_CODE":0,"TOWNNAME":"大內區","LI":"石湖里","LIN":"2鄰","STREET":" ","SECT":" ","MAREA":"石子瀨","LANE":" ","ALLEY":" ","HOUSE_NO":"２５２號","E_COORD97":184031.17000000001,"N_COORD97":2558350.25,"ADDRESS":"石子瀨２５２號","OBJECTID":284615},"geometry":{"x":184031.16999999993,"y":2558350.2500000037}},{"attributes":{"ID":284622,"DIS_CODE":0,"TOWNNAME":"大內區","LI":"環湖里","LIN":"2鄰","STREET":" ","SECT":" ","MAREA":"環湖","LANE":" ","ALLEY":" ","HOUSE_NO":"１８號之１","E_COORD97":190580.28,"N_COORD97":2560013.2999999998,"ADDRESS":"環湖１８號之１","OBJECTID":284616},"geometry":{"x":190580.28000000119,"y":2560013.3000000026}},{"attributes":{"ID":284623,"DIS_CODE":0,"TOWNNAME":"大內區","LI":"石城里","LIN":"2鄰","STREET":" ","SECT":" ","MAREA":"石子瀨","LANE":" ","ALLEY":" ","HOUSE_NO":"１３號之２","E_COORD97":184368.29000000001,"N_COORD97":2557816.2999999998,"ADDRESS":"石子瀨１３號之２","OBJECTID":284617},"geometry":{"x":184368.2900000019,"y":2557816.3000000026}},{"attributes":{"ID":284624,"DIS_CODE":0,"TOWNNAME":"大內區","LI":"石湖里","LIN":"2鄰","STREET":" ","SECT":" ","MAREA":"石子瀨","LANE":" ","ALLEY":" ","HOUSE_NO":"２４８號","E_COORD97":184009.26999999999,"N_COORD97":2558376.25,"ADDRESS":"石子瀨２４８號","OBJECTID":284618},"geometry":{"x":184009.27000000048,"y":2558376.25}},{"attributes":{"ID":284625,"DIS_CODE":0,"TOWNNAME":"大內區","LI":"環湖里","LIN":"2鄰","STREET":" ","SECT":" ","MAREA":"環湖","LANE":" ","ALLEY":" ","HOUSE_NO":"１６號","E_COORD97":190711.64000000001,"N_COORD97":2560038.25,"ADDRESS":"環湖１６號","OBJECTID":284619},"geometry":{"x":190711.63999999966,"y":2560038.25}},{"attributes":{"ID":284626,"DIS_CODE":0,"TOWNNAME":"東區","LI":"圍下里","LIN":"19鄰","STREET":"慶東街","SECT":" ","MAREA":" ","LANE":"１２７巷","ALLEY":" ","HOUSE_NO":"４號","E_COORD97":169629.69,"N_COORD97":2543402,"ADDRESS":"慶東街１２７巷４號","OBJECTID":284620},"geometry":{"x":169629.69000000227,"y":2543402.0000000019}},{"attributes":{"ID":284627,"DIS_CODE":0,"TOWNNAME":"東區","LI":"圍下里","LIN":"19鄰","STREET":"慶東街","SECT":" ","MAREA":" ","LANE":"１２７巷","ALLEY":" ","HOUSE_NO":"５號","E_COORD97":169627.85000000001,"N_COORD97":2543385.27,"ADDRESS":"慶東街１２７巷５號","OBJECTID":284621},"geometry":{"x":169627.85000000149,"y":2543385.2700000014}},{"attributes":{"ID":284628,"DIS_CODE":0,"TOWNNAME":"大內區","LI":"內郭里","LIN":"2鄰","STREET":" ","SECT":" ","MAREA":"內庄","LANE":" ","ALLEY":" ","HOUSE_NO":"１６１號","E_COORD97":184881.78,"N_COORD97":2557336.25,"ADDRESS":"內庄１６１號","OBJECTID":284622},"geometry":{"x":184881.78000000026,"y":2557336.25}},{"attributes":{"ID":284629,"DIS_CODE":0,"TOWNNAME":"大內區","LI":"環湖里","LIN":"2鄰","STREET":" ","SECT":" ","MAREA":"環湖","LANE":" ","ALLEY":" ","HOUSE_NO":"２０號之２","E_COORD97":190641.70999999999,"N_COORD97":2559992.2999999998,"ADDRESS":"環湖２０號之２","OBJECTID":284623},"geometry":{"x":190641.71000000089,"y":2559992.3000000026}},{"attributes":{"ID":284630,"DIS_CODE":0,"TOWNNAME":"中西區","LI":"仙草里","LIN":"5鄰","STREET":"永福路","SECT":"一段","MAREA":" ","LANE":"６１巷","ALLEY":" ","HOUSE_NO":"４６號","E_COORD97":167923.19,"N_COORD97":2542638.3500000001,"ADDRESS":"永福路一段６１巷４６號","OBJECTID":284624},"geometry":{"x":167923.19000000134,"y":2542638.3500000034}},{"attributes":{"ID":284631,"DIS_CODE":0,"TOWNNAME":"麻豆區","LI":"\u25A0江里","LIN":"2鄰","STREET":"信義路","SECT":" ","MAREA":" ","LANE":" ","ALLEY":" ","HOUSE_NO":"９號之４","E_COORD97":173221.03,"N_COORD97":2564664.5,"ADDRESS":"信義路９號之４","OBJECTID":284625},"geometry":{"x":173221.03000000212,"y":2564664.5}},{"attributes":{"ID":284632,"DIS_CODE":0,"TOWNNAME":"中西區","LI":"仙草里","LIN":"5鄰","STREET":"永福路","SECT":"一段","MAREA":" ","LANE":"６１巷","ALLEY":" ","HOUSE_NO":"４８號","E_COORD97":167919.54000000001,"N_COORD97":2542643.3900000001,"ADDRESS":"永福路一段６１巷４８號","OBJECTID":284626},"geometry":{"x":167919.54000000004,"y":2542643.3900000025}},{"attributes":{"ID":284633,"DIS_CODE":0,"TOWNNAME":"中西區","LI":"仙草里","LIN":"5鄰","STREET":"永福路","SECT":"一段","MAREA":" ","LANE":"６１巷","ALLEY":" ","HOUSE_NO":"５０號","E_COORD97":167917.01999999999,"N_COORD97":2542646.6400000001,"ADDRESS":"永福路一段６１巷５０號","OBJECTID":284627},"geometry":{"x":167917.01999999955,"y":2542646.6400000006}},{"attributes":{"ID":284634,"DIS_CODE":0,"TOWNNAME":"中西區","LI":"仙草里","LIN":"7鄰","STREET":"永福路","SECT":"一段","MAREA":" ","LANE":"６１巷","ALLEY":" ","HOUSE_NO":"４４號","E_COORD97":167926.70999999999,"N_COORD97":2542663.21,"ADDRESS":"永福路一段６１巷４４號","OBJECTID":284628},"geometry":{"x":167926.70999999996,"y":2542663.2100000009}},{"attributes":{"ID":284635,"DIS_CODE":0,"TOWNNAME":"安南區","LI":"溪心里","LIN":"19鄰","STREET":"海中街","SECT":" ","MAREA":" ","LANE":"７７４巷","ALLEY":" ","HOUSE_NO":"７２之１號","E_COORD97":166045.57000000001,"N_COORD97":2549869.8599999999,"ADDRESS":"海中街７７４巷７２之１號","OBJECTID":284629},"geometry":{"x":166045.57000000123,"y":2549869.8600000013}},{"attributes":{"ID":284636,"DIS_CODE":0,"TOWNNAME":"大內區","LI":"環湖里","LIN":"2鄰","STREET":" ","SECT":" ","MAREA":"環湖","LANE":" ","ALLEY":" ","HOUSE_NO":"２０號之３","E_COORD97":190650.07000000001,"N_COORD97":2560007.2999999998,"ADDRESS":"環湖２０號之３","OBJECTID":284630},"geometry":{"x":190650.0700000003,"y":2560007.3000000007}},{"attributes":{"ID":284637,"DIS_CODE":0,"TOWNNAME":"麻豆區","LI":"北勢里","LIN":"2鄰","STREET":" ","SECT":" ","MAREA":"加輦邦","LANE":" ","ALLEY":" ","HOUSE_NO":"２０號","E_COORD97":173383.10000000001,"N_COORD97":2566354.1099999999,"ADDRESS":"加輦邦２０號","OBJECTID":284631},"geometry":{"x":173383.10000000056,"y":2566354.1099999994}},{"attributes":{"ID":284638,"DIS_CODE":0,"TOWNNAME":"安南區","LI":"大安里","LIN":"19鄰","STREET":"義安街","SECT":" ","MAREA":" ","LANE":"２１２巷","ALLEY":" ","HOUSE_NO":"２號","E_COORD97":167641.45000000001,"N_COORD97":2548325.7400000002,"ADDRESS":"義安街２１２巷２號","OBJECTID":284632},"geometry":{"x":167641.45000000112,"y":2548325.7400000021}},{"attributes":{"ID":284639,"DIS_CODE":0,"TOWNNAME":"大內區","LI":"環湖里","LIN":"2鄰","STREET":" ","SECT":" ","MAREA":"環湖","LANE":" ","ALLEY":" ","HOUSE_NO":"１５號","E_COORD97":190690.64000000001,"N_COORD97":2560036.25,"ADDRESS":"環湖１５號","OBJECTID":284633},"geometry":{"x":190690.6400000006,"y":2560036.2500000019}},{"attributes":{"ID":284640,"DIS_CODE":0,"TOWNNAME":"永康區","LI":"\u25A0行里","LIN":"2鄰","STREET":"中正路","SECT":" ","MAREA":" ","LANE":" ","ALLEY":" ","HOUSE_NO":"９６８號","E_COORD97":171946.14000000001,"N_COORD97":2548958.7400000002,"ADDRESS":"中正路９６８號","OBJECTID":284634},"geometry":{"x":171946.13999999966,"y":2548958.7400000002}},{"attributes":{"ID":284641,"DIS_CODE":0,"TOWNNAME":"安南區","LI":"大安里","LIN":"19鄰","STREET":"義安街","SECT":" ","MAREA":" ","LANE":"２１２巷","ALLEY":" ","HOUSE_NO":"９號","E_COORD97":167669.26000000001,"N_COORD97":2548332.23,"ADDRESS":"義安街２１２巷９號","OBJECTID":284635},"geometry":{"x":167669.26000000071,"y":2548332.2300000042}},{"attributes":{"ID":284642,"DIS_CODE":0,"TOWNNAME":"安南區","LI":"大安里","LIN":"19鄰","STREET":"義安街","SECT":" ","MAREA":" ","LANE":"２２６巷","ALLEY":" ","HOUSE_NO":"８號","E_COORD97":167675.23999999999,"N_COORD97":2548344.1800000002,"ADDRESS":"義安街２２６巷８號","OBJECTID":284636},"geometry":{"x":167675.24000000115,"y":2548344.1799999997}},{"attributes":{"ID":284643,"DIS_CODE":0,"TOWNNAME":"中西區","LI":"公正里","LIN":"6鄰","STREET":"西華南街","SECT":" ","MAREA":" ","LANE":" ","ALLEY":" ","HOUSE_NO":"８７號","E_COORD97":168969.20999999999,"N_COORD97":2543959.54,"ADDRESS":"西華南街８７號","OBJECTID":284637},"geometry":{"x":168969.20999999996,"y":2543959.540000001}},{"attributes":{"ID":284644,"DIS_CODE":0,"TOWNNAME":"安南區","LI":"大安里","LIN":"19鄰","STREET":"義安街","SECT":" ","MAREA":" ","LANE":"２２６巷","ALLEY":" ","HOUSE_NO":"２３號","E_COORD97":167731.39999999999,"N_COORD97":2548333.79,"ADDRESS":"義安街２２６巷２３號","OBJECTID":284638},"geometry":{"x":167731.4000000013,"y":2548333.7900000028}},{"attributes":{"ID":284645,"DIS_CODE":0,"TOWNNAME":"中西區","LI":"大南里","LIN":"6鄰","STREET":"忠義路","SECT":"一段","MAREA":" ","LANE":"２４巷","ALLEY":" ","HOUSE_NO":"２號","E_COORD97":168187.38,"N_COORD97":2542881.6099999999,"ADDRESS":"忠義路一段２４巷２號","OBJECTID":284639},"geometry":{"x":168187.38000000082,"y":2542881.6100000013}},{"attributes":{"ID":284646,"DIS_CODE":0,"TOWNNAME":"中西區","LI":"永華里","LIN":"19鄰","STREET":"中正路","SECT":" ","MAREA":" ","LANE":"２１巷","ALLEY":" ","HOUSE_NO":"１５號","E_COORD97":168312.73999999999,"N_COORD97":2543546.0899999999,"ADDRESS":"中正路２１巷１５號","OBJECTID":284640},"geometry":{"x":168312.74000000115,"y":2543546.0900000017}},{"attributes":{"ID":284647,"DIS_CODE":0,"TOWNNAME":"中西區","LI":"永華里","LIN":"19鄰","STREET":"中正路","SECT":" ","MAREA":" ","LANE":"２１巷","ALLEY":" ","HOUSE_NO":"１９號","E_COORD97":168308.22,"N_COORD97":2543535.6200000001,"ADDRESS":"中正路２１巷１９號","OBJECTID":284641},"geometry":{"x":168308.2200000016,"y":2543535.620000001}},{"attributes":{"ID":284648,"DIS_CODE":0,"TOWNNAME":"中西區","LI":"永華里","LIN":"19鄰","STREET":"中正路","SECT":" ","MAREA":" ","LANE":"２１巷","ALLEY":" ","HOUSE_NO":"１號","E_COORD97":168316.34,"N_COORD97":2543595.52,"ADDRESS":"中正路２１巷１號","OBJECTID":284642},"geometry":{"x":168316.34000000078,"y":2543595.5199999996}},{"attributes":{"ID":284649,"DIS_CODE":0,"TOWNNAME":"中西區","LI":"永華里","LIN":"19鄰","STREET":"中正路","SECT":" ","MAREA":" ","LANE":"２１巷","ALLEY":" ","HOUSE_NO":"２１號","E_COORD97":168312.41,"N_COORD97":2543534.3599999999,"ADDRESS":"中正路２１巷２１號","OBJECTID":284643},"geometry":{"x":168312.41000000201,"y":2543534.3600000013}},{"attributes":{"ID":284650,"DIS_CODE":0,"TOWNNAME":"中西區","LI":"大涼里","LIN":"19鄰","STREET":"中華西路","SECT":"二段","MAREA":" ","LANE":"２００巷","ALLEY":" ","HOUSE_NO":"３５號","E_COORD97":166679.39999999999,"N_COORD97":2544089.2999999998,"ADDRESS":"中華西路二段２００巷３５號","OBJECTID":284644},"geometry":{"x":166679.40000000037,"y":2544089.3000000007}},{"attributes":{"ID":284651,"DIS_CODE":0,"TOWNNAME":"中西區","LI":"大涼里","LIN":"19鄰","STREET":"中華西路","SECT":"二段","MAREA":" ","LANE":"２００巷","ALLEY":" ","HOUSE_NO":"３７號","E_COORD97":166682.51000000001,"N_COORD97":2544092.6499999999,"ADDRESS":"中華西路二段２００巷３７號","OBJECTID":284645},"geometry":{"x":166682.51000000071,"y":2544092.6500000022}},{"attributes":{"ID":284652,"DIS_CODE":0,"TOWNNAME":"中西區","LI":"大涼里","LIN":"19鄰","STREET":"中華西路","SECT":"二段","MAREA":" ","LANE":"２００巷","ALLEY":" ","HOUSE_NO":"３９號","E_COORD97":166687.76999999999,"N_COORD97":2544091.9300000002,"ADDRESS":"中華西路二段２００巷３９號","OBJECTID":284646},"geometry":{"x":166687.77000000048,"y":2544091.9299999997}},{"attributes":{"ID":284653,"DIS_CODE":0,"TOWNNAME":"永康區","LI":"尚頂里","LIN":"2鄰","STREET":"中正南路","SECT":" ","MAREA":" ","LANE":"３４４巷","ALLEY":" ","HOUSE_NO":"１７號","E_COORD97":171084.48999999999,"N_COORD97":2547882.2400000002,"ADDRESS":"中正南路３４４巷１７號","OBJECTID":284647},"geometry":{"x":171084.49000000022,"y":2547882.2400000021}},{"attributes":{"ID":284654,"DIS_CODE":0,"TOWNNAME":"中西區","LI":"公正里","LIN":"6鄰","STREET":"西華南街","SECT":" ","MAREA":" ","LANE":" ","ALLEY":" ","HOUSE_NO":"８９號","E_COORD97":168973.38,"N_COORD97":2543962.1099999999,"ADDRESS":"西華南街８９號","OBJECTID":284648},"geometry":{"x":168973.38000000175,"y":2543962.1100000031}},{"attributes":{"ID":284655,"DIS_CODE":0,"TOWNNAME":"麻豆區","LI":"北勢里","LIN":"2鄰","STREET":" ","SECT":" ","MAREA":"加輦邦","LANE":" ","ALLEY":" ","HOUSE_NO":"２３號之３","E_COORD97":173471.82999999999,"N_COORD97":2566461.1899999999,"ADDRESS":"加輦邦２３號之３","OBJECTID":284649},"geometry":{"x":173471.83000000101,"y":2566461.1900000013}},{"attributes":{"ID":284656,"DIS_CODE":0,"TOWNNAME":"大內區","LI":"頭社里","LIN":"2鄰","STREET":" ","SECT":" ","MAREA":"頭社","LANE":" ","ALLEY":" ","HOUSE_NO":"２８號之１１","E_COORD97":187057.32999999999,"N_COORD97":2560502.2999999998,"ADDRESS":"頭社２８號之１１","OBJECTID":284650},"geometry":{"x":187057.33000000101,"y":2560502.3000000007}},{"attributes":{"ID":284657,"DIS_CODE":0,"TOWNNAME":"大內區","LI":"頭社里","LIN":"2鄰","STREET":" ","SECT":" ","MAREA":"頭社","LANE":" ","ALLEY":" ","HOUSE_NO":"２９號","E_COORD97":187112.04000000001,"N_COORD97":2560379.25,"ADDRESS":"頭社２９號","OBJECTID":284651},"geometry":{"x":187112.04000000004,"y":2560379.2500000019}},{"attributes":{"ID":284658,"DIS_CODE":0,"TOWNNAME":"大內區","LI":"頭社里","LIN":"2鄰","STREET":" ","SECT":" ","MAREA":"頭社","LANE":" ","ALLEY":" ","HOUSE_NO":"２５號","E_COORD97":187062.23999999999,"N_COORD97":2560355.25,"ADDRESS":"頭社２５號","OBJECTID":284652},"geometry":{"x":187062.24000000022,"y":2560355.2500000019}},{"attributes":{"ID":284659,"DIS_CODE":0,"TOWNNAME":"大內區","LI":"石林里","LIN":"2鄰","STREET":" ","SECT":" ","MAREA":"石子瀨","LANE":" ","ALLEY":" ","HOUSE_NO":"１４２號","E_COORD97":184053.57000000001,"N_COORD97":2558084.25,"ADDRESS":"石子瀨１４２號","OBJECTID":284653},"geometry":{"x":184053.57000000123,"y":2558084.25}},{"attributes":{"ID":284660,"DIS_CODE":0,"TOWNNAME":"大內區","LI":"頭社里","LIN":"2鄰","STREET":" ","SECT":" ","MAREA":"頭社","LANE":" ","ALLEY":" ","HOUSE_NO":"２１號","E_COORD97":187062.23999999999,"N_COORD97":2560324.25,"ADDRESS":"頭社２１號","OBJECTID":284654},"geometry":{"x":187062.24000000022,"y":2560324.2500000019}},{"attributes":{"ID":284661,"DIS_CODE":0,"TOWNNAME":"大內區","LI":"頭社里","LIN":"2鄰","STREET":" ","SECT":" ","MAREA":"頭社","LANE":" ","ALLEY":" ","HOUSE_NO":"２９號之１","E_COORD97":187097.07999999999,"N_COORD97":2560373.2999999998,"ADDRESS":"頭社２９號之１","OBJECTID":284655},"geometry":{"x":187097.08000000007,"y":2560373.3000000007}},{"attributes":{"ID":284662,"DIS_CODE":0,"TOWNNAME":"大內區","LI":"頭社里","LIN":"2鄰","STREET":" ","SECT":" ","MAREA":"頭社","LANE":" ","ALLEY":" ","HOUSE_NO":"２４號","E_COORD97":187076.04000000001,"N_COORD97":2560360.25,"ADDRESS":"頭社２４號","OBJECTID":284656},"geometry":{"x":187076.04000000097,"y":2560360.25}},{"attributes":{"ID":284663,"DIS_CODE":0,"TOWNNAME":"大內區","LI":"頭社里","LIN":"2鄰","STREET":" ","SECT":" ","MAREA":"頭社","LANE":" ","ALLEY":" ","HOUSE_NO":"２８之１２號","E_COORD97":187058.79000000001,"N_COORD97":2560495.2999999998,"ADDRESS":"頭社２８之１２號","OBJECTID":284657},"geometry":{"x":187058.79000000097,"y":2560495.3000000007}},{"attributes":{"ID":284664,"DIS_CODE":0,"TOWNNAME":"大內區","LI":"石林里","LIN":"2鄰","STREET":" ","SECT":" ","MAREA":"石子瀨","LANE":" ","ALLEY":" ","HOUSE_NO":"１４３號","E_COORD97":184073.57000000001,"N_COORD97":2558095.25,"ADDRESS":"石子瀨１４３號","OBJECTID":284658},"geometry":{"x":184073.57000000123,"y":2558095.25}},{"attributes":{"ID":284665,"DIS_CODE":0,"TOWNNAME":"大內區","LI":"石林里","LIN":"2鄰","STREET":" ","SECT":" ","MAREA":"石子瀨","LANE":" ","ALLEY":" ","HOUSE_NO":"１４１號","E_COORD97":184028.67000000001,"N_COORD97":2558097.25,"ADDRESS":"石子瀨１４１號","OBJECTID":284659},"geometry":{"x":184028.67000000086,"y":2558097.2500000019}},{"attributes":{"ID":284666,"DIS_CODE":0,"TOWNNAME":"麻豆區","LI":"\u25A0江里","LIN":"2鄰","STREET":"信義路","SECT":" ","MAREA":" ","LANE":" ","ALLEY":" ","HOUSE_NO":"９號之５","E_COORD97":173213.38,"N_COORD97":2564665.3700000001,"ADDRESS":"信義路９號之５","OBJECTID":284660},"geometry":{"x":173213.38000000082,"y":2564665.370000001}},{"attributes":{"ID":284667,"DIS_CODE":0,"TOWNNAME":"中西區","LI":"小西里","LIN":"8鄰","STREET":"西門路","SECT":"一段","MAREA":" ","LANE":"６７６巷","ALLEY":" ","HOUSE_NO":"２１號","E_COORD97":167791.28,"N_COORD97":2543327.5099999998,"ADDRESS":"西門路一段６７６巷２１號","OBJECTID":284661},"geometry":{"x":167791.28000000212,"y":2543327.5099999998}},{"attributes":{"ID":284668,"DIS_CODE":0,"TOWNNAME":"中西區","LI":"小西里","LIN":"8鄰","STREET":"西門路","SECT":"一段","MAREA":" ","LANE":"６７６巷","ALLEY":" ","HOUSE_NO":"３號","E_COORD97":167767.22,"N_COORD97":2543310.6400000001,"ADDRESS":"西門路一段６７６巷３號","OBJECTID":284662},"geometry":{"x":167767.21999999974,"y":2543310.6400000006}},{"attributes":{"ID":284669,"DIS_CODE":0,"TOWNNAME":"東區","LI":"崇明里","LIN":"19鄰","STREET":"中華東路","SECT":"三段","MAREA":" ","LANE":"３５７巷","ALLEY":" ","HOUSE_NO":"２０號","E_COORD97":170373.51000000001,"N_COORD97":2541525.1499999999,"ADDRESS":"中華東路三段３５７巷２０號","OBJECTID":284663},"geometry":{"x":170373.51000000071,"y":2541525.1500000041}},{"attributes":{"ID":284670,"DIS_CODE":0,"TOWNNAME":"東區","LI":"崇明里","LIN":"19鄰","STREET":"中華東路","SECT":"三段","MAREA":" ","LANE":"３５７巷","ALLEY":" ","HOUSE_NO":"２１號","E_COORD97":170325.67000000001,"N_COORD97":2541582.48,"ADDRESS":"中華東路三段３５７巷２１號","OBJECTID":284664},"geometry":{"x":170325.66999999993,"y":2541582.4800000004}},{"attributes":{"ID":284671,"DIS_CODE":0,"TOWNNAME":"東區","LI":"崇明里","LIN":"19鄰","STREET":"中華東路","SECT":"三段","MAREA":" ","LANE":"３５７巷","ALLEY":" ","HOUSE_NO":"２２號","E_COORD97":170378.03,"N_COORD97":2541522.04,"ADDRESS":"中華東路三段３５７巷２２號","OBJECTID":284665},"geometry":{"x":170378.02999999933,"y":2541522.040000001}},{"attributes":{"ID":284672,"DIS_CODE":0,"TOWNNAME":"東區","LI":"崇明里","LIN":"19鄰","STREET":"中華東路","SECT":"三段","MAREA":" ","LANE":"３５７巷","ALLEY":" ","HOUSE_NO":"２３號","E_COORD97":170330.04999999999,"N_COORD97":2541582.0600000001,"ADDRESS":"中華東路三段３５７巷２３號","OBJECTID":284666},"geometry":{"x":170330.05000000168,"y":2541582.0600000005}},{"attributes":{"ID":284673,"DIS_CODE":0,"TOWNNAME":"東區","LI":"崇明里","LIN":"19鄰","STREET":"中華東路","SECT":"三段","MAREA":" ","LANE":"３５７巷","ALLEY":" ","HOUSE_NO":"２４號","E_COORD97":170382.69,"N_COORD97":2541517.6699999999,"ADDRESS":"中華東路三段３５７巷２４號","OBJECTID":284667},"geometry":{"x":170382.69000000134,"y":2541517.6700000037}},{"attributes":{"ID":284674,"DIS_CODE":0,"TOWNNAME":"東區","LI":"崇明里","LIN":"19鄰","STREET":"中華東路","SECT":"三段","MAREA":" ","LANE":"３５７巷","ALLEY":" ","HOUSE_NO":"２５號","E_COORD97":170333.29999999999,"N_COORD97":2541583.4700000002,"ADDRESS":"中華東路三段３５７巷２５號","OBJECTID":284668},"geometry":{"x":170333.29999999981,"y":2541583.4700000007}},{"attributes":{"ID":284675,"DIS_CODE":0,"TOWNNAME":"東區","LI":"崇明里","LIN":"19鄰","STREET":"中華東路","SECT":"三段","MAREA":" ","LANE":"３５７巷","ALLEY":" ","HOUSE_NO":"２７號","E_COORD97":170337.82000000001,"N_COORD97":2541583.1800000002,"ADDRESS":"中華東路三段３５７巷２７號","OBJECTID":284669},"geometry":{"x":170337.82000000123,"y":2541583.1800000016}},{"attributes":{"ID":284676,"DIS_CODE":0,"TOWNNAME":"東區","LI":"崇明里","LIN":"19鄰","STREET":"中華東路","SECT":"三段","MAREA":" ","LANE":"３５７巷","ALLEY":" ","HOUSE_NO":"２９號","E_COORD97":170341.48999999999,"N_COORD97":2541585.2999999998,"ADDRESS":"中華東路三段３５７巷２９號","OBJECTID":284670},"geometry":{"x":170341.49000000115,"y":2541585.3000000045}},{"attributes":{"ID":284677,"DIS_CODE":0,"TOWNNAME":"東區","LI":"崇明里","LIN":"19鄰","STREET":"中華東路","SECT":"三段","MAREA":" ","LANE":"３５７巷","ALLEY":" ","HOUSE_NO":"２號","E_COORD97":170341.72,"N_COORD97":2541555,"ADDRESS":"中華東路三段３５７巷２號","OBJECTID":284671},"geometry":{"x":170341.71999999974,"y":2541555}},{"attributes":{"ID":284678,"DIS_CODE":0,"TOWNNAME":"佳里區","LI":"安西里","LIN":"56鄰","STREET":"佳安中街","SECT":" ","MAREA":" ","LANE":" ","ALLEY":" ","HOUSE_NO":"１９號","E_COORD97":163916.26000000001,"N_COORD97":2562280.6099999999,"ADDRESS":"佳安中街１９號","OBJECTID":284672},"geometry":{"x":163916.26000000071,"y":2562280.6100000013}},{"attributes":{"ID":284679,"DIS_CODE":0,"TOWNNAME":"永康區","LI":"\u25A0洲里","LIN":"19鄰","STREET":"\u25A0行路","SECT":" ","MAREA":" ","LANE":"２５巷","ALLEY":" ","HOUSE_NO":"１７號","E_COORD97":171648.45000000001,"N_COORD97":2549064.2599999998,"ADDRESS":"\u25A0行路２５巷１７號","OBJECTID":284673},"geometry":{"x":171648.45000000112,"y":2549064.2600000016}},{"attributes":{"ID":284680,"DIS_CODE":0,"TOWNNAME":"永康區","LI":"西灣里","LIN":"19鄰","STREET":"大安街","SECT":" ","MAREA":" ","LANE":"３３３巷","ALLEY":" ","HOUSE_NO":"２３號","E_COORD97":174544.45000000001,"N_COORD97":2545741.6099999999,"ADDRESS":"大安街３３３巷２３號","OBJECTID":284674},"geometry":{"x":174544.45000000112,"y":2545741.6099999975}},{"attributes":{"ID":284681,"DIS_CODE":0,"TOWNNAME":"新營區","LI":"新北里","LIN":"19鄰","STREET":"民生路","SECT":" ","MAREA":" ","LANE":"２０８巷","ALLEY":" ","HOUSE_NO":"２９號","E_COORD97":179131.82999999999,"N_COORD97":2579067.4500000002,"ADDRESS":"民生路２０８巷２９號","OBJECTID":284675},"geometry":{"x":179131.83000000101,"y":2579067.4500000011}},{"attributes":{"ID":284682,"DIS_CODE":0,"TOWNNAME":"新營區","LI":"新北里","LIN":"19鄰","STREET":"民生路","SECT":" ","MAREA":" ","LANE":"２２６巷","ALLEY":" ","HOUSE_NO":"２８號","E_COORD97":179111.41,"N_COORD97":2579076.3999999999,"ADDRESS":"民生路２２６巷２８號","OBJECTID":284676},"geometry":{"x":179111.41000000108,"y":2579076.4000000022}},{"attributes":{"ID":284683,"DIS_CODE":0,"TOWNNAME":"中西區","LI":"小西里","LIN":"13鄰","STREET":"府前路","SECT":"一段","MAREA":" ","LANE":"３５９巷","ALLEY":" ","HOUSE_NO":"１０號","E_COORD97":167883.67999999999,"N_COORD97":2543342.1200000001,"ADDRESS":"府前路一段３５９巷１０號","OBJECTID":284677},"geometry":{"x":167883.68000000063,"y":2543342.120000001}},{"attributes":{"ID":284684,"DIS_CODE":0,"TOWNNAME":"仁德區","LI":"仁德里","LIN":"38鄰","STREET":"文宏路","SECT":" ","MAREA":" ","LANE":" ","ALLEY":" ","HOUSE_NO":"９８號","E_COORD97":172417.607299,"N_COORD97":2541753.6656999998,"ADDRESS":"文宏路９８號","OBJECTID":284678},"geometry":{"x":172417.60729900002,"y":2541753.6657000016}},{"attributes":{"ID":284685,"DIS_CODE":0,"TOWNNAME":"中西區","LI":"小西里","LIN":"13鄰","STREET":"府前路","SECT":"一段","MAREA":" ","LANE":"３５９巷","ALLEY":" ","HOUSE_NO":"２號","E_COORD97":167879.01000000001,"N_COORD97":2543373.1499999999,"ADDRESS":"府前路一段３５９巷２號","OBJECTID":284679},"geometry":{"x":167879.01000000164,"y":2543373.1500000022}},{"attributes":{"ID":284686,"DIS_CODE":0,"TOWNNAME":"安平區","LI":"建平里","LIN":"19鄰","STREET":"怡平路","SECT":" ","MAREA":" ","LANE":"１４０巷","ALLEY":" ","HOUSE_NO":"２９號","E_COORD97":165878.97,"N_COORD97":2543872.5499999998,"ADDRESS":"怡平路１４０巷２９號","OBJECTID":284680},"geometry":{"x":165878.9700000016,"y":2543872.5500000026}},{"attributes":{"ID":284687,"DIS_CODE":0,"TOWNNAME":"安平區","LI":"華平里","LIN":"19鄰","STREET":"永華八街","SECT":" ","MAREA":" ","LANE":"１９３巷","ALLEY":" ","HOUSE_NO":"３之１號","E_COORD97":165123.51999999999,"N_COORD97":2543708.6499999999,"ADDRESS":"永華八街１９３巷３之１號","OBJECTID":284681},"geometry":{"x":165123.51999999955,"y":2543708.6500000022}},{"attributes":{"ID":284688,"DIS_CODE":0,"TOWNNAME":"麻豆區","LI":"\u25A0江里","LIN":"2鄰","STREET":"信義路","SECT":" ","MAREA":" ","LANE":" ","ALLEY":" ","HOUSE_NO":"９號之２","E_COORD97":173233.64000000001,"N_COORD97":2564662.9399999999,"ADDRESS":"信義路９號之２","OBJECTID":284682},"geometry":{"x":173233.6400000006,"y":2564662.9400000013}},{"attributes":{"ID":284689,"DIS_CODE":0,"TOWNNAME":"麻豆區","LI":"\u25A0江里","LIN":"2鄰","STREET":"信義路","SECT":" ","MAREA":" ","LANE":" ","ALLEY":" ","HOUSE_NO":"９號之３","E_COORD97":173227.32999999999,"N_COORD97":2564663.9500000002,"ADDRESS":"信義路９號之３","OBJECTID":284683},"geometry":{"x":173227.33000000194,"y":2564663.9499999993}},{"attributes":{"ID":284690,"DIS_CODE":0,"TOWNNAME":"安平區","LI":"華平里","LIN":"19鄰","STREET":"永華八街","SECT":" ","MAREA":" ","LANE":"１９３巷","ALLEY":" ","HOUSE_NO":"３之３號","E_COORD97":165127.39000000001,"N_COORD97":2543723.0099999998,"ADDRESS":"永華八街１９３巷３之３號","OBJECTID":284684},"geometry":{"x":165127.3900000006,"y":2543723.0100000016}},{"attributes":{"ID":284691,"DIS_CODE":0,"TOWNNAME":"安平區","LI":"華平里","LIN":"19鄰","STREET":"永華八街","SECT":" ","MAREA":" ","LANE":"１９３巷","ALLEY":" ","HOUSE_NO":"３號之４","E_COORD97":165116.47,"N_COORD97":2543724.3900000001,"ADDRESS":"永華八街１９３巷３號之４","OBJECTID":284685},"geometry":{"x":165116.47000000067,"y":2543724.3900000025}},{"attributes":{"ID":284692,"DIS_CODE":0,"TOWNNAME":"安平區","LI":"華平里","LIN":"19鄰","STREET":"建平八街","SECT":" ","MAREA":" ","LANE":"４５０巷","ALLEY":" ","HOUSE_NO":"２６號","E_COORD97":165110.39000000001,"N_COORD97":2543716.1099999999,"ADDRESS":"建平八街４５０巷２６號","OBJECTID":284686},"geometry":{"x":165110.3900000006,"y":2543716.1099999994}},{"attributes":{"ID":284693,"DIS_CODE":0,"TOWNNAME":"安平區","LI":"華平里","LIN":"19鄰","STREET":"建平八街","SECT":" ","MAREA":" ","LANE":"４５０巷","ALLEY":" ","HOUSE_NO":"２８號","E_COORD97":165111.35999999999,"N_COORD97":2543721.6299999999,"ADDRESS":"建平八街４５０巷２８號","OBJECTID":284687},"geometry":{"x":165111.36000000127,"y":2543721.6300000008}},{"attributes":{"ID":284694,"DIS_CODE":0,"TOWNNAME":"安平區","LI":"華平里","LIN":"19鄰","STREET":"建平八街","SECT":" ","MAREA":" ","LANE":"４５０巷","ALLEY":" ","HOUSE_NO":"３０號","E_COORD97":165111.64000000001,"N_COORD97":2543726.8700000001,"ADDRESS":"建平八街４５０巷３０號","OBJECTID":284688},"geometry":{"x":165111.6400000006,"y":2543726.870000001}},{"attributes":{"ID":284695,"DIS_CODE":0,"TOWNNAME":"南區","LI":"文南里","LIN":"19鄰","STREET":"南功街","SECT":" ","MAREA":" ","LANE":"８５巷","ALLEY":" ","HOUSE_NO":"２號","E_COORD97":166500.67999999999,"N_COORD97":2542841.0800000001,"ADDRESS":"南功街８５巷２號","OBJECTID":284689},"geometry":{"x":166500.6799999997,"y":2542841.0800000019}},{"attributes":{"ID":284696,"DIS_CODE":0,"TOWNNAME":"南區","LI":"文南里","LIN":"19鄰","STREET":"南功街","SECT":" ","MAREA":" ","LANE":"８５巷","ALLEY":" ","HOUSE_NO":"１０號","E_COORD97":166480.06,"N_COORD97":2542844.1099999999,"ADDRESS":"南功街８５巷１０號","OBJECTID":284690},"geometry":{"x":166480.06000000145,"y":2542844.1100000013}},{"attributes":{"ID":284697,"DIS_CODE":0,"TOWNNAME":"南區","LI":"文南里","LIN":"19鄰","STREET":"南功街","SECT":" ","MAREA":" ","LANE":"８５巷","ALLEY":" ","HOUSE_NO":"６號","E_COORD97":166493.51999999999,"N_COORD97":2542842.3799999999,"ADDRESS":"南功街８５巷６號","OBJECTID":284691},"geometry":{"x":166493.51999999955,"y":2542842.3800000008}},{"attributes":{"ID":284698,"DIS_CODE":0,"TOWNNAME":"麻豆區","LI":"安正里","LIN":"2鄰","STREET":" ","SECT":" ","MAREA":"前班","LANE":" ","ALLEY":" ","HOUSE_NO":"１７號","E_COORD97":171627.84,"N_COORD97":2563425.8700000001,"ADDRESS":"前班１７號","OBJECTID":284692},"geometry":{"x":171627.83999999985,"y":2563425.8700000048}},{"attributes":{"ID":284699,"DIS_CODE":0,"TOWNNAME":"麻豆區","LI":"安正里","LIN":"2鄰","STREET":" ","SECT":" ","MAREA":"前班","LANE":" ","ALLEY":" ","HOUSE_NO":"１８號之１","E_COORD97":171644.23999999999,"N_COORD97":2563445.8799999999,"ADDRESS":"前班１８號之１","OBJECTID":284693},"geometry":{"x":171644.24000000022,"y":2563445.879999999}},{"attributes":{"ID":284700,"DIS_CODE":0,"TOWNNAME":"麻豆區","LI":"\u25A0江里","LIN":"2鄰","STREET":"信義路","SECT":" ","MAREA":" ","LANE":" ","ALLEY":" ","HOUSE_NO":"９號之６","E_COORD97":173207.94,"N_COORD97":2564666.27,"ADDRESS":"信義路９號之６","OBJECTID":284694},"geometry":{"x":173207.94000000041,"y":2564666.2700000014}},{"attributes":{"ID":284701,"DIS_CODE":0,"TOWNNAME":"麻豆區","LI":"安正里","LIN":"2鄰","STREET":" ","SECT":" ","MAREA":"前班","LANE":" ","ALLEY":" ","HOUSE_NO":"１８號之２","E_COORD97":171644.32000000001,"N_COORD97":2563451.2000000002,"ADDRESS":"前班１８號之２","OBJECTID":284695},"geometry":{"x":171644.32000000216,"y":2563451.1999999993}},{"attributes":{"ID":284702,"DIS_CODE":0,"TOWNNAME":"麻豆區","LI":"安正里","LIN":"2鄰","STREET":" ","SECT":" ","MAREA":"前班","LANE":" ","ALLEY":" ","HOUSE_NO":"１８號","E_COORD97":171642.45000000001,"N_COORD97":2563436.3100000001,"ADDRESS":"前班１８號","OBJECTID":284696},"geometry":{"x":171642.45000000019,"y":2563436.3100000024}},{"attributes":{"ID":284703,"DIS_CODE":0,"TOWNNAME":"麻豆區","LI":"安正里","LIN":"2鄰","STREET":" ","SECT":" ","MAREA":"前班","LANE":" ","ALLEY":" ","HOUSE_NO":"１９號之１","E_COORD97":171692.23999999999,"N_COORD97":2563429.6400000001,"ADDRESS":"前班１９號之１","OBJECTID":284697},"geometry":{"x":171692.24000000209,"y":2563429.6400000006}},{"attributes":{"ID":284704,"DIS_CODE":0,"TOWNNAME":"麻豆區","LI":"安正里","LIN":"2鄰","STREET":" ","SECT":" ","MAREA":"前班","LANE":" ","ALLEY":" ","HOUSE_NO":"１９號之５","E_COORD97":171735.01000000001,"N_COORD97":2563407.8599999999,"ADDRESS":"前班１９號之５","OBJECTID":284698},"geometry":{"x":171735.00999999978,"y":2563407.8600000013}},{"attributes":{"ID":284705,"DIS_CODE":0,"TOWNNAME":"麻豆區","LI":"安正里","LIN":"2鄰","STREET":" ","SECT":" ","MAREA":"前班","LANE":" ","ALLEY":" ","HOUSE_NO":"２０號之１","E_COORD97":171682.45000000001,"N_COORD97":2563547.7400000002,"ADDRESS":"前班２０號之１","OBJECTID":284699},"geometry":{"x":171682.45000000112,"y":2563547.7400000002}},{"attributes":{"ID":284706,"DIS_CODE":0,"TOWNNAME":"麻豆區","LI":"安正里","LIN":"2鄰","STREET":" ","SECT":" ","MAREA":"前班","LANE":" ","ALLEY":" ","HOUSE_NO":"２０號","E_COORD97":171677.60999999999,"N_COORD97":2563510.7999999998,"ADDRESS":"前班２０號","OBJECTID":284700},"geometry":{"x":171677.61000000034,"y":2563510.8000000045}},{"attributes":{"ID":284707,"DIS_CODE":0,"TOWNNAME":"麻豆區","LI":"安正里","LIN":"2鄰","STREET":" ","SECT":" ","MAREA":"前班","LANE":" ","ALLEY":" ","HOUSE_NO":"２１號之１","E_COORD97":171703.17000000001,"N_COORD97":2563516.2999999998,"ADDRESS":"前班２１號之１","OBJECTID":284701},"geometry":{"x":171703.17000000086,"y":2563516.3000000007}},{"attributes":{"ID":284708,"DIS_CODE":0,"TOWNNAME":"南區","LI":"文南里","LIN":"19鄰","STREET":"南功街","SECT":" ","MAREA":" ","LANE":"８５巷","ALLEY":" ","HOUSE_NO":"８號","E_COORD97":166487.01000000001,"N_COORD97":2542843.25,"ADDRESS":"南功街８５巷８號","OBJECTID":284702},"geometry":{"x":166487.00999999978,"y":2542843.2500000019}},{"attributes":{"ID":284709,"DIS_CODE":0,"TOWNNAME":"南區","LI":"文南里","LIN":"19鄰","STREET":"南功街","SECT":" ","MAREA":" ","LANE":"８５巷","ALLEY":" ","HOUSE_NO":"１２號","E_COORD97":166472.91,"N_COORD97":2542844.77,"ADDRESS":"南功街８５巷１２號","OBJECTID":284703},"geometry":{"x":166472.91000000015,"y":2542844.7699999996}},{"attributes":{"ID":284710,"DIS_CODE":0,"TOWNNAME":"永康區","LI":"\u25A0行里","LIN":"2鄰","STREET":"中正路","SECT":" ","MAREA":" ","LANE":" ","ALLEY":" ","HOUSE_NO":"９４４號","E_COORD97":171976.64000000001,"N_COORD97":2548926.7000000002,"ADDRESS":"中正路９４４號","OBJECTID":284704},"geometry":{"x":171976.63999999966,"y":2548926.6999999993}},{"attributes":{"ID":284711,"DIS_CODE":0,"TOWNNAME":"南區","LI":"文南里","LIN":"19鄰","STREET":"南功街","SECT":" ","MAREA":" ","LANE":"８５巷","ALLEY":" ","HOUSE_NO":"１６號","E_COORD97":166467.70000000001,"N_COORD97":2542845.2000000002,"ADDRESS":"南功街８５巷１６號","OBJECTID":284705},"geometry":{"x":166467.69999999925,"y":2542845.1999999993}},{"attributes":{"ID":284712,"DIS_CODE":0,"TOWNNAME":"東區","LI":"成大里","LIN":"29鄰","STREET":"大學路","SECT":"西段","MAREA":" ","LANE":" ","ALLEY":" ","HOUSE_NO":"１１號","E_COORD97":169815.95000000001,"N_COORD97":2544076.1899999999,"ADDRESS":"大學路西段１１號","OBJECTID":284706},"geometry":{"x":169815.95000000112,"y":2544076.1899999995}},{"attributes":{"ID":284713,"DIS_CODE":0,"TOWNNAME":"東區","LI":"成大里","LIN":"29鄰","STREET":"大學路","SECT":"西段","MAREA":" ","LANE":" ","ALLEY":" ","HOUSE_NO":"１３號","E_COORD97":169811.06,"N_COORD97":2544076.7999999998,"ADDRESS":"大學路西段１３號","OBJECTID":284707},"geometry":{"x":169811.06000000145,"y":2544076.8000000007}},{"attributes":{"ID":284714,"DIS_CODE":0,"TOWNNAME":"東區","LI":"成大里","LIN":"29鄰","STREET":"大學路","SECT":"西段","MAREA":" ","LANE":" ","ALLEY":" ","HOUSE_NO":"１５號","E_COORD97":169803.57000000001,"N_COORD97":2544077.25,"ADDRESS":"大學路西段１５號","OBJECTID":284708},"geometry":{"x":169803.57000000123,"y":2544077.2500000019}},{"attributes":{"ID":284715,"DIS_CODE":0,"TOWNNAME":"東區","LI":"成大里","LIN":"29鄰","STREET":"大學路","SECT":"西段","MAREA":" ","LANE":" ","ALLEY":" ","HOUSE_NO":"１７號","E_COORD97":169798.53,"N_COORD97":2544079.3900000001,"ADDRESS":"大學路西段１７號","OBJECTID":284709},"geometry":{"x":169798.53000000119,"y":2544079.3900000006}},{"attributes":{"ID":284716,"DIS_CODE":0,"TOWNNAME":"東區","LI":"成大里","LIN":"29鄰","STREET":"大學路","SECT":"西段","MAREA":" ","LANE":" ","ALLEY":" ","HOUSE_NO":"１９號","E_COORD97":169794.54999999999,"N_COORD97":2544080.3100000001,"ADDRESS":"大學路西段１９號","OBJECTID":284710},"geometry":{"x":169794.55000000075,"y":2544080.3100000042}},{"attributes":{"ID":284717,"DIS_CODE":0,"TOWNNAME":"東區","LI":"成大里","LIN":"29鄰","STREET":"大學路","SECT":"西段","MAREA":" ","LANE":" ","ALLEY":" ","HOUSE_NO":"３９號","E_COORD97":169764.28,"N_COORD97":2544085.3500000001,"ADDRESS":"大學路西段３９號","OBJECTID":284711},"geometry":{"x":169764.28000000026,"y":2544085.3499999996}},{"attributes":{"ID":284718,"DIS_CODE":0,"TOWNNAME":"南區","LI":"文南里","LIN":"19鄰","STREET":"南功街","SECT":" ","MAREA":" ","LANE":"８５巷","ALLEY":" ","HOUSE_NO":"１８號","E_COORD97":166461.41,"N_COORD97":2542845.6299999999,"ADDRESS":"南功街８５巷１８號","OBJECTID":284712},"geometry":{"x":166461.41000000108,"y":2542845.6299999971}},{"attributes":{"ID":284719,"DIS_CODE":0,"TOWNNAME":"中西區","LI":"仙草里","LIN":"14鄰","STREET":"府緯街","SECT":" ","MAREA":" ","LANE":"７２巷","ALLEY":" ","HOUSE_NO":"１０號","E_COORD97":167801.85999999999,"N_COORD97":2542763.79,"ADDRESS":"府緯街７２巷１０號","OBJECTID":284713},"geometry":{"x":167801.86000000034,"y":2542763.790000001}},{"attributes":{"ID":284720,"DIS_CODE":0,"TOWNNAME":"中西區","LI":"仙草里","LIN":"14鄰","STREET":"府緯街","SECT":" ","MAREA":" ","LANE":"７２巷","ALLEY":" ","HOUSE_NO":"１２號","E_COORD97":167801.17000000001,"N_COORD97":2542767.7799999998,"ADDRESS":"府緯街７２巷１２號","OBJECTID":284714},"geometry":{"x":167801.16999999993,"y":2542767.7800000012}},{"attributes":{"ID":284721,"DIS_CODE":0,"TOWNNAME":"中西區","LI":"仙草里","LIN":"14鄰","STREET":"府緯街","SECT":" ","MAREA":" ","LANE":"７２巷","ALLEY":" ","HOUSE_NO":"１４號","E_COORD97":167800.47,"N_COORD97":2542772.6299999999,"ADDRESS":"府緯街７２巷１４號","OBJECTID":284715},"geometry":{"x":167800.46999999974,"y":2542772.6300000008}},{"attributes":{"ID":284722,"DIS_CODE":0,"TOWNNAME":"中西區","LI":"仙草里","LIN":"14鄰","STREET":"府緯街","SECT":" ","MAREA":" ","LANE":"７２巷","ALLEY":" ","HOUSE_NO":"１號","E_COORD97":167783.12,"N_COORD97":2542765.0800000001,"ADDRESS":"府緯街７２巷１號","OBJECTID":284716},"geometry":{"x":167783.12000000011,"y":2542765.0800000001}},{"attributes":{"ID":284723,"DIS_CODE":0,"TOWNNAME":"歸仁區","LI":"崙頂里","LIN":"19鄰","STREET":"大成路","SECT":" ","MAREA":" ","LANE":"１６１巷","ALLEY":" ","HOUSE_NO":"２８號","E_COORD97":177831.73000000001,"N_COORD97":2540238.98,"ADDRESS":"大成路１６１巷２８號","OBJECTID":284717},"geometry":{"x":177831.73000000045,"y":2540238.9800000023}},{"attributes":{"ID":284724,"DIS_CODE":0,"TOWNNAME":"南區","LI":"金華里","LIN":"19鄰","STREET":"惠南街","SECT":" ","MAREA":" ","LANE":"９８巷","ALLEY":" ","HOUSE_NO":"３號","E_COORD97":166778.82999999999,"N_COORD97":2542344.3799999999,"ADDRESS":"惠南街９８巷３號","OBJECTID":284718},"geometry":{"x":166778.83000000194,"y":2542344.379999999}},{"attributes":{"ID":284725,"DIS_CODE":0,"TOWNNAME":"南區","LI":"金華里","LIN":"19鄰","STREET":"惠南街","SECT":" ","MAREA":" ","LANE":"８４巷","ALLEY":" ","HOUSE_NO":"１１號","E_COORD97":166788.04000000001,"N_COORD97":2542312.0099999998,"ADDRESS":"惠南街８４巷１１號","OBJECTID":284719},"geometry":{"x":166788.04000000097,"y":2542312.0100000035}},{"attributes":{"ID":284726,"DIS_CODE":0,"TOWNNAME":"麻豆區","LI":"安正里","LIN":"2鄰","STREET":" ","SECT":" ","MAREA":"前班","LANE":" ","ALLEY":" ","HOUSE_NO":"３６號之１","E_COORD97":171648.20999999999,"N_COORD97":2563064.8599999999,"ADDRESS":"前班３６號之１","OBJECTID":284720},"geometry":{"x":171648.21000000089,"y":2563064.8600000031}},{"attributes":{"ID":284727,"DIS_CODE":0,"TOWNNAME":"麻豆區","LI":"安正里","LIN":"2鄰","STREET":" ","SECT":" ","MAREA":"前班","LANE":" ","ALLEY":" ","HOUSE_NO":"３６號之２０","E_COORD97":171537.73999999999,"N_COORD97":2563111.3300000001,"ADDRESS":"前班３６號之２０","OBJECTID":284721},"geometry":{"x":171537.73999999929,"y":2563111.3300000019}},{"attributes":{"ID":284728,"DIS_CODE":0,"TOWNNAME":"南區","LI":"金華里","LIN":"19鄰","STREET":"惠南街","SECT":" ","MAREA":" ","LANE":"８４巷","ALLEY":" ","HOUSE_NO":"１３號","E_COORD97":166793.39999999999,"N_COORD97":2542311.77,"ADDRESS":"惠南街８４巷１３號","OBJECTID":284722},"geometry":{"x":166793.40000000037,"y":2542311.7699999996}},{"attributes":{"ID":284729,"DIS_CODE":0,"TOWNNAME":"南區","LI":"金華里","LIN":"19鄰","STREET":"惠南街","SECT":" ","MAREA":" ","LANE":"８４巷","ALLEY":" ","HOUSE_NO":"１３號之１","E_COORD97":166797.06,"N_COORD97":2542312.25,"ADDRESS":"惠南街８４巷１３號之１","OBJECTID":284723},"geometry":{"x":166797.06000000145,"y":2542312.25}},{"attributes":{"ID":284730,"DIS_CODE":0,"TOWNNAME":"東區","LI":"成大里","LIN":"29鄰","STREET":"大學路","SECT":"西段","MAREA":" ","LANE":" ","ALLEY":" ","HOUSE_NO":"３號","E_COORD97":169824.35999999999,"N_COORD97":2544074.6600000001,"ADDRESS":"大學路西段３號","OBJECTID":284724},"geometry":{"x":169824.36000000034,"y":2544074.660000002}},{"attributes":{"ID":284731,"DIS_CODE":0,"TOWNNAME":"麻豆區","LI":"安正里","LIN":"2鄰","STREET":" ","SECT":" ","MAREA":"前班","LANE":" ","ALLEY":" ","HOUSE_NO":"３６號之２","E_COORD97":171722.32000000001,"N_COORD97":2562825.7200000002,"ADDRESS":"前班３６號之２","OBJECTID":284725},"geometry":{"x":171722.32000000216,"y":2562825.7200000007}},{"attributes":{"ID":284732,"DIS_CODE":0,"TOWNNAME":"麻豆區","LI":"安正里","LIN":"2鄰","STREET":" ","SECT":" ","MAREA":"前班","LANE":" ","ALLEY":" ","HOUSE_NO":"３６號","E_COORD97":171752.26000000001,"N_COORD97":2563163.23,"ADDRESS":"前班３６號","OBJECTID":284726},"geometry":{"x":171752.25999999978,"y":2563163.2300000023}},{"attributes":{"ID":284733,"DIS_CODE":0,"TOWNNAME":"南區","LI":"金華里","LIN":"19鄰","STREET":"惠南街","SECT":" ","MAREA":" ","LANE":"８４巷","ALLEY":" ","HOUSE_NO":"１５號","E_COORD97":166800.72,"N_COORD97":2542312.73,"ADDRESS":"惠南街８４巷１５號","OBJECTID":284727},"geometry":{"x":166800.71999999974,"y":2542312.7300000004}},{"attributes":{"ID":284734,"DIS_CODE":0,"TOWNNAME":"永康區","LI":"新樹里","LIN":"2鄰","STREET":"富強路","SECT":"二段","MAREA":" ","LANE":" ","ALLEY":" ","HOUSE_NO":"３１０號","E_COORD97":175626.19,"N_COORD97":2547513.1099999999,"ADDRESS":"富強路二段３１０號","OBJECTID":284728},"geometry":{"x":175626.19000000134,"y":2547513.1100000013}},{"attributes":{"ID":284735,"DIS_CODE":0,"TOWNNAME":"永康區","LI":"新樹里","LIN":"2鄰","STREET":"富強路","SECT":"二段","MAREA":" ","LANE":" ","ALLEY":" ","HOUSE_NO":"３１８號","E_COORD97":175608.23999999999,"N_COORD97":2547523.8599999999,"ADDRESS":"富強路二段３１８號","OBJECTID":284729},"geometry":{"x":175608.24000000115,"y":2547523.8600000013}},{"attributes":{"ID":284736,"DIS_CODE":0,"TOWNNAME":"南區","LI":"金華里","LIN":"19鄰","STREET":"惠南街","SECT":" ","MAREA":" ","LANE":"８４巷","ALLEY":" ","HOUSE_NO":"１７號","E_COORD97":166805.60000000001,"N_COORD97":2542314.2000000002,"ADDRESS":"惠南街８４巷１７號","OBJECTID":284730},"geometry":{"x":166805.60000000056,"y":2542314.2000000011}},{"attributes":{"ID":284737,"DIS_CODE":0,"TOWNNAME":"中西區","LI":"福安里","LIN":"1鄰","STREET":"府前路","SECT":"一段","MAREA":" ","LANE":"３０４巷","ALLEY":" ","HOUSE_NO":"１７號","E_COORD97":167876.10000000001,"N_COORD97":2543497.27,"ADDRESS":"府前路一段３０４巷１７號","OBJECTID":284731},"geometry":{"x":167876.09999999963,"y":2543497.2700000014}},{"attributes":{"ID":284738,"DIS_CODE":0,"TOWNNAME":"中西區","LI":"福安里","LIN":"1鄰","STREET":"府前路","SECT":"一段","MAREA":" ","LANE":"３０４巷","ALLEY":" ","HOUSE_NO":"１９號","E_COORD97":167876.5,"N_COORD97":2543501.6499999999,"ADDRESS":"府前路一段３０４巷１９號","OBJECTID":284732},"geometry":{"x":167876.50000000093,"y":2543501.6500000041}},{"attributes":{"ID":284739,"DIS_CODE":0,"TOWNNAME":"中西區","LI":"福安里","LIN":"1鄰","STREET":"府前路","SECT":"一段","MAREA":" ","LANE":"３０４巷","ALLEY":" ","HOUSE_NO":"２１號","E_COORD97":167876.5,"N_COORD97":2543506.8300000001,"ADDRESS":"府前路一段３０４巷２１號","OBJECTID":284733},"geometry":{"x":167876.50000000093,"y":2543506.8300000038}},{"attributes":{"ID":284740,"DIS_CODE":0,"TOWNNAME":"中西區","LI":"福安里","LIN":"1鄰","STREET":"府前路","SECT":"一段","MAREA":" ","LANE":"３０４巷","ALLEY":" ","HOUSE_NO":"２３號","E_COORD97":167877.03,"N_COORD97":2543511.48,"ADDRESS":"府前路一段３０４巷２３號","OBJECTID":284734},"geometry":{"x":167877.03000000026,"y":2543511.4800000004}},{"attributes":{"ID":284741,"DIS_CODE":0,"TOWNNAME":"永康區","LI":"網寮里","LIN":"2鄰","STREET":"永二街","SECT":" ","MAREA":" ","LANE":" ","ALLEY":" ","HOUSE_NO":"１３７號","E_COORD97":173359.07999999999,"N_COORD97":2546391.79,"ADDRESS":"永二街１３７號","OBJECTID":284735},"geometry":{"x":173359.08000000007,"y":2546391.790000001}},{"attributes":{"ID":284742,"DIS_CODE":0,"TOWNNAME":"永康區","LI":"網寮里","LIN":"2鄰","STREET":"永二街","SECT":" ","MAREA":" ","LANE":" ","ALLEY":" ","HOUSE_NO":"１３３號","E_COORD97":173527.91,"N_COORD97":2546460.27,"ADDRESS":"永二街１３３號","OBJECTID":284736},"geometry":{"x":173527.91000000015,"y":2546460.2700000014}},{"attributes":{"ID":284743,"DIS_CODE":0,"TOWNNAME":"中西區","LI":"福安里","LIN":"1鄰","STREET":"府前路","SECT":"一段","MAREA":" ","LANE":"３０４巷","ALLEY":" ","HOUSE_NO":"２５號","E_COORD97":167877.16,"N_COORD97":2543515.3300000001,"ADDRESS":"府前路一段３０４巷２５號","OBJECTID":284737},"geometry":{"x":167877.16000000108,"y":2543515.3300000001}},{"attributes":{"ID":284744,"DIS_CODE":0,"TOWNNAME":"永康區","LI":"網寮里","LIN":"2鄰","STREET":"永二街","SECT":" ","MAREA":" ","LANE":" ","ALLEY":" ","HOUSE_NO":"１３５號","E_COORD97":173523.81,"N_COORD97":2546452.5299999998,"ADDRESS":"永二街１３５號","OBJECTID":284738},"geometry":{"x":173523.81000000052,"y":2546452.5300000012}},{"attributes":{"ID":284745,"DIS_CODE":0,"TOWNNAME":"歸仁區","LI":"新厝里","LIN":"19鄰","STREET":"大成六街","SECT":" ","MAREA":" ","LANE":"１６巷","ALLEY":" ","HOUSE_NO":"３號","E_COORD97":177607.44,"N_COORD97":2540331.1800000002,"ADDRESS":"大成六街１６巷３號","OBJECTID":284739},"geometry":{"x":177607.44000000134,"y":2540331.1800000016}},{"attributes":{"ID":284746,"DIS_CODE":0,"TOWNNAME":"永康區","LI":"新樹里","LIN":"2鄰","STREET":"富強路","SECT":"二段","MAREA":" ","LANE":" ","ALLEY":" ","HOUSE_NO":"３２４號","E_COORD97":175608.76000000001,"N_COORD97":2547542.6099999999,"ADDRESS":"富強路二段３２４號","OBJECTID":284740},"geometry":{"x":175608.75999999978,"y":2547542.6100000013}},{"attributes":{"ID":284747,"DIS_CODE":0,"TOWNNAME":"中西區","LI":"公正里","LIN":"6鄰","STREET":"中山路","SECT":" ","MAREA":" ","LANE":" ","ALLEY":" ","HOUSE_NO":"１０２號","E_COORD97":168897.32000000001,"N_COORD97":2543927.9900000002,"ADDRESS":"中山路１０２號","OBJECTID":284741},"geometry":{"x":168897.3200000003,"y":2543927.9900000002}},{"attributes":{"ID":284748,"DIS_CODE":0,"TOWNNAME":"新營區","LI":"民生里","LIN":"19鄰","STREET":"進修街","SECT":" ","MAREA":" ","LANE":"２９巷","ALLEY":" ","HOUSE_NO":"１７號","E_COORD97":178932.44,"N_COORD97":2578455.98,"ADDRESS":"進修街２９巷１７號","OBJECTID":284742},"geometry":{"x":178932.44000000041,"y":2578455.9800000004}},{"attributes":{"ID":284749,"DIS_CODE":0,"TOWNNAME":"中西區","LI":"公正里","LIN":"6鄰","STREET":"中山路","SECT":" ","MAREA":" ","LANE":" ","ALLEY":" ","HOUSE_NO":"１０４號","E_COORD97":168900.85000000001,"N_COORD97":2543929.9199999999,"ADDRESS":"中山路１０４號","OBJECTID":284743},"geometry":{"x":168900.85000000056,"y":2543929.9200000037}},{"attributes":{"ID":284750,"DIS_CODE":0,"TOWNNAME":"新營區","LI":"忠政里","LIN":"19鄰","STREET":"長榮路","SECT":"二段","MAREA":" ","LANE":"２５巷","ALLEY":" ","HOUSE_NO":"２８號","E_COORD97":179983.07999999999,"N_COORD97":2579773.2799999998,"ADDRESS":"長榮路二段２５巷２８號","OBJECTID":284744},"geometry":{"x":179983.08000000101,"y":2579773.2800000031}},{"attributes":{"ID":284751,"DIS_CODE":0,"TOWNNAME":"中西區","LI":"福安里","LIN":"4鄰","STREET":"府前路","SECT":"一段","MAREA":" ","LANE":"３０４巷","ALLEY":" ","HOUSE_NO":"８號","E_COORD97":167876.72,"N_COORD97":2543463.8900000001,"ADDRESS":"府前路一段３０４巷８號","OBJECTID":284745},"geometry":{"x":167876.72000000067,"y":2543463.8900000025}},{"attributes":{"ID":284752,"DIS_CODE":0,"TOWNNAME":"中西區","LI":"公正里","LIN":"6鄰","STREET":"中山路","SECT":" ","MAREA":" ","LANE":" ","ALLEY":" ","HOUSE_NO":"１０６號","E_COORD97":168903.73999999999,"N_COORD97":2543931.3599999999,"ADDRESS":"中山路１０６號","OBJECTID":284746},"geometry":{"x":168903.74000000115,"y":2543931.3599999994}},{"attributes":{"ID":284753,"DIS_CODE":0,"TOWNNAME":"中西區","LI":"公正里","LIN":"3鄰","STREET":"民族路","SECT":"二段","MAREA":" ","LANE":" ","ALLEY":" ","HOUSE_NO":"１４號","E_COORD97":169138.56,"N_COORD97":2543902.3199999998,"ADDRESS":"民族路二段１４號","OBJECTID":284747},"geometry":{"x":169138.56000000052,"y":2543902.3200000003}},{"attributes":{"ID":284754,"DIS_CODE":0,"TOWNNAME":"中西區","LI":"公正里","LIN":"3鄰","STREET":"民族路","SECT":"二段","MAREA":" ","LANE":" ","ALLEY":" ","HOUSE_NO":"１６號","E_COORD97":169134.10999999999,"N_COORD97":2543901.9199999999,"ADDRESS":"民族路二段１６號","OBJECTID":284748},"geometry":{"x":169134.11000000127,"y":2543901.9199999999}},{"attributes":{"ID":284755,"DIS_CODE":0,"TOWNNAME":"仁德區","LI":"仁義里","LIN":"44鄰","STREET":"中正路","SECT":"二段","MAREA":" ","LANE":"１０３４巷","ALLEY":" ","HOUSE_NO":"３９號","E_COORD97":173497.78,"N_COORD97":2540897.8300000001,"ADDRESS":"中正路二段１０３４巷３９號","OBJECTID":284749},"geometry":{"x":173497.78000000119,"y":2540897.8300000019}},{"attributes":{"ID":284756,"DIS_CODE":0,"TOWNNAME":"佳里區","LI":"六安里","LIN":"10鄰","STREET":" ","SECT":" ","MAREA":"六安","LANE":" ","ALLEY":" ","HOUSE_NO":"７１號之６","E_COORD97":165957.82000000001,"N_COORD97":2563078.3399999999,"ADDRESS":"六安７１號之６","OBJECTID":284750},"geometry":{"x":165957.8200000003,"y":2563078.3399999999}},{"attributes":{"ID":284757,"DIS_CODE":0,"TOWNNAME":"佳里區","LI":"六安里","LIN":"10鄰","STREET":" ","SECT":" ","MAREA":"六安","LANE":" ","ALLEY":" ","HOUSE_NO":"７１號之７","E_COORD97":165962.22,"N_COORD97":2563078.6200000001,"ADDRESS":"六安７１號之７","OBJECTID":284751},"geometry":{"x":165962.22000000067,"y":2563078.6200000048}},{"attributes":{"ID":284758,"DIS_CODE":0,"TOWNNAME":"佳里區","LI":"六安里","LIN":"10鄰","STREET":" ","SECT":" ","MAREA":"六安","LANE":" ","ALLEY":" ","HOUSE_NO":"７１號之８","E_COORD97":165966.14000000001,"N_COORD97":2563078.27,"ADDRESS":"六安７１號之８","OBJECTID":284752},"geometry":{"x":165966.1400000006,"y":2563078.2699999996}},{"attributes":{"ID":284759,"DIS_CODE":0,"TOWNNAME":"佳里區","LI":"六安里","LIN":"10鄰","STREET":" ","SECT":" ","MAREA":"六安","LANE":" ","ALLEY":" ","HOUSE_NO":"７１號之９","E_COORD97":165970.37,"N_COORD97":2563078.6299999999,"ADDRESS":"六安７１號之９","OBJECTID":284753},"geometry":{"x":165970.37000000104,"y":2563078.629999999}},{"attributes":{"ID":284760,"DIS_CODE":0,"TOWNNAME":"佳里區","LI":"六安里","LIN":"10鄰","STREET":" ","SECT":" ","MAREA":"六安","LANE":" ","ALLEY":" ","HOUSE_NO":"７１號","E_COORD97":165935.09,"N_COORD97":2563074.7400000002,"ADDRESS":"六安７１號","OBJECTID":284754},"geometry":{"x":165935.08999999985,"y":2563074.7400000021}},{"attributes":{"ID":284761,"DIS_CODE":0,"TOWNNAME":"佳里區","LI":"六安里","LIN":"10鄰","STREET":" ","SECT":" ","MAREA":"六安","LANE":" ","ALLEY":" ","HOUSE_NO":"７８號之１","E_COORD97":165975.95999999999,"N_COORD97":2563213.7200000002,"ADDRESS":"六安７８號之１","OBJECTID":284755},"geometry":{"x":165975.96000000183,"y":2563213.7200000025}},{"attributes":{"ID":284762,"DIS_CODE":0,"TOWNNAME":"永康區","LI":"網寮里","LIN":"2鄰","STREET":"永二街","SECT":" ","MAREA":" ","LANE":" ","ALLEY":" ","HOUSE_NO":"１２９號","E_COORD97":173543.59,"N_COORD97":2546460.4399999999,"ADDRESS":"永二街１２９號","OBJECTID":284756},"geometry":{"x":173543.58999999985,"y":2546460.4399999995}},{"attributes":{"ID":284763,"DIS_CODE":0,"TOWNNAME":"永康區","LI":"網寮里","LIN":"2鄰","STREET":"永二街","SECT":" ","MAREA":" ","LANE":" ","ALLEY":" ","HOUSE_NO":"１２１號","E_COORD97":173547.82999999999,"N_COORD97":2546506.6899999999,"ADDRESS":"永二街１２１號","OBJECTID":284757},"geometry":{"x":173547.83000000101,"y":2546506.6899999995}},{"attributes":{"ID":284764,"DIS_CODE":0,"TOWNNAME":"仁德區","LI":"土庫里","LIN":"2鄰","STREET":"太乙十街","SECT":" ","MAREA":" ","LANE":" ","ALLEY":" ","HOUSE_NO":"６號","E_COORD97":173264.29999999999,"N_COORD97":2542576.2599999998,"ADDRESS":"太乙十街６號","OBJECTID":284758},"geometry":{"x":173264.29999999888,"y":2542576.2599999998}},{"attributes":{"ID":284765,"DIS_CODE":0,"TOWNNAME":"仁德區","LI":"土庫里","LIN":"2鄰","STREET":"太乙路","SECT":" ","MAREA":" ","LANE":" ","ALLEY":" ","HOUSE_NO":"２２號","E_COORD97":173672.62,"N_COORD97":2542496.0099999998,"ADDRESS":"太乙路２２號","OBJECTID":284759},"geometry":{"x":173672.62000000011,"y":2542496.0100000016}},{"attributes":{"ID":284766,"DIS_CODE":0,"TOWNNAME":"仁德區","LI":"仁義里","LIN":"44鄰","STREET":"中正路","SECT":"二段","MAREA":" ","LANE":"１０３４巷","ALLEY":" ","HOUSE_NO":"７號","E_COORD97":173427.26999999999,"N_COORD97":2540898.25,"ADDRESS":"中正路二段１０３４巷７號","OBJECTID":284760},"geometry":{"x":173427.27000000048,"y":2540898.2500000019}},{"attributes":{"ID":284767,"DIS_CODE":0,"TOWNNAME":"仁德區","LI":"成功里","LIN":"44鄰","STREET":"文賢路","SECT":"一段","MAREA":" ","LANE":"９３巷","ALLEY":" ","HOUSE_NO":"９號","E_COORD97":170337.10000000001,"N_COORD97":2538181.5699999998,"ADDRESS":"文賢路一段９３巷９號","OBJECTID":284761},"geometry":{"x":170337.10000000056,"y":2538181.5700000003}},{"attributes":{"ID":284768,"DIS_CODE":0,"TOWNNAME":"歸仁區","LI":"六甲里","LIN":"44鄰","STREET":"民生十二街","SECT":" ","MAREA":" ","LANE":"１１５巷","ALLEY":" ","HOUSE_NO":"１９號","E_COORD97":175793.35000000001,"N_COORD97":2539404.7999999998,"ADDRESS":"民生十二街１１５巷１９號","OBJECTID":284762},"geometry":{"x":175793.35000000056,"y":2539404.8000000007}},{"attributes":{"ID":284769,"DIS_CODE":0,"TOWNNAME":"佳里區","LI":"六安里","LIN":"10鄰","STREET":" ","SECT":" ","MAREA":"六安","LANE":" ","ALLEY":" ","HOUSE_NO":"８６號","E_COORD97":165994.25,"N_COORD97":2563230.6400000001,"ADDRESS":"六安８６號","OBJECTID":284763},"geometry":{"x":165994.25000000186,"y":2563230.6400000043}},{"attributes":{"ID":284770,"DIS_CODE":0,"TOWNNAME":"仁德區","LI":"仁義里","LIN":"44鄰","STREET":"中正路","SECT":"二段","MAREA":" ","LANE":"１０３４巷","ALLEY":" ","HOUSE_NO":"３號","E_COORD97":173418.45999999999,"N_COORD97":2540896,"ADDRESS":"中正路二段１０３４巷３號","OBJECTID":284764},"geometry":{"x":173418.46000000089,"y":2540896.0000000019}},{"attributes":{"ID":284771,"DIS_CODE":0,"TOWNNAME":"仁德區","LI":"中洲里","LIN":"2鄰","STREET":" ","SECT":" ","MAREA":"中洲","LANE":" ","ALLEY":" ","HOUSE_NO":"１２號之１０","E_COORD97":173321.89999999999,"N_COORD97":2534331.5499999998,"ADDRESS":"中洲１２號之１０","OBJECTID":284765},"geometry":{"x":173321.89999999944,"y":2534331.5500000045}},{"attributes":{"ID":284772,"DIS_CODE":0,"TOWNNAME":"仁德區","LI":"仁義里","LIN":"44鄰","STREET":"中正路","SECT":"二段","MAREA":" ","LANE":"１０３４巷","ALLEY":" ","HOUSE_NO":"５號","E_COORD97":173422.78,"N_COORD97":2540897,"ADDRESS":"中正路二段１０３４巷５號","OBJECTID":284766},"geometry":{"x":173422.78000000212,"y":2540897}},{"attributes":{"ID":284773,"DIS_CODE":0,"TOWNNAME":"仁德區","LI":"仁義里","LIN":"44鄰","STREET":"中正路","SECT":"二段","MAREA":" ","LANE":"１０３４巷","ALLEY":" ","HOUSE_NO":"１３號","E_COORD97":173440.85999999999,"N_COORD97":2540903.75,"ADDRESS":"中正路二段１０３４巷１３號","OBJECTID":284767},"geometry":{"x":173440.8600000022,"y":2540903.7500000019}},{"attributes":{"ID":284774,"DIS_CODE":0,"TOWNNAME":"仁德區","LI":"仁愛里","LIN":"2鄰","STREET":" ","SECT":" ","MAREA":"仁愛","LANE":" ","ALLEY":" ","HOUSE_NO":"２５號","E_COORD97":170345.06849999999,"N_COORD97":2540149.7079400001,"ADDRESS":"仁愛２５號","OBJECTID":284768},"geometry":{"x":170345.06850000005,"y":2540149.7079440039}},{"attributes":{"ID":284775,"DIS_CODE":0,"TOWNNAME":"仁德區","LI":"仁愛里","LIN":"2鄰","STREET":" ","SECT":" ","MAREA":"仁愛","LANE":" ","ALLEY":" ","HOUSE_NO":"２６號","E_COORD97":170345.06849999999,"N_COORD97":2540146.42711,"ADDRESS":"仁愛２６號","OBJECTID":284769},"geometry":{"x":170345.06850000005,"y":2540146.4271130022}},{"attributes":{"ID":284776,"DIS_CODE":0,"TOWNNAME":"仁德區","LI":"中洲里","LIN":"2鄰","STREET":" ","SECT":" ","MAREA":"中洲","LANE":" ","ALLEY":" ","HOUSE_NO":"１０號之１","E_COORD97":173359.76999999999,"N_COORD97":2534325.0499999998,"ADDRESS":"中洲１０號之１","OBJECTID":284770},"geometry":{"x":173359.77000000048,"y":2534325.0500000045}},{"attributes":{"ID":284777,"DIS_CODE":0,"TOWNNAME":"仁德區","LI":"中生里","LIN":"2鄰","STREET":" ","SECT":" ","MAREA":"中洲","LANE":" ","ALLEY":" ","HOUSE_NO":"８７號","E_COORD97":173054.32000000001,"N_COORD97":2534251.2400000002,"ADDRESS":"中洲８７號","OBJECTID":284771},"geometry":{"x":173054.3200000003,"y":2534251.2400000002}},{"attributes":{"ID":284778,"DIS_CODE":0,"TOWNNAME":"仁德區","LI":"中生里","LIN":"2鄰","STREET":" ","SECT":" ","MAREA":"中洲","LANE":" ","ALLEY":" ","HOUSE_NO":"８０號","E_COORD97":173102.26000000001,"N_COORD97":2534330.5,"ADDRESS":"中洲８０號","OBJECTID":284772},"geometry":{"x":173102.26000000071,"y":2534330.5}},{"attributes":{"ID":284779,"DIS_CODE":0,"TOWNNAME":"仁德區","LI":"中生里","LIN":"2鄰","STREET":" ","SECT":" ","MAREA":"中洲","LANE":" ","ALLEY":" ","HOUSE_NO":"７８號之６","E_COORD97":173084.72,"N_COORD97":2534365.04,"ADDRESS":"中洲７８號之６","OBJECTID":284773},"geometry":{"x":173084.71999999974,"y":2534365.040000001}},{"attributes":{"ID":284780,"DIS_CODE":0,"TOWNNAME":"仁德區","LI":"中生里","LIN":"2鄰","STREET":" ","SECT":" ","MAREA":"中洲","LANE":" ","ALLEY":" ","HOUSE_NO":"７７號之１","E_COORD97":173124.32999999999,"N_COORD97":2534386.04,"ADDRESS":"中洲７７號之１","OBJECTID":284774},"geometry":{"x":173124.33000000101,"y":2534386.0399999991}},{"attributes":{"ID":284781,"DIS_CODE":0,"TOWNNAME":"仁德區","LI":"中生里","LIN":"2鄰","STREET":" ","SECT":" ","MAREA":"中洲","LANE":" ","ALLEY":" ","HOUSE_NO":"７８號","E_COORD97":173098.67999999999,"N_COORD97":2534376.9900000002,"ADDRESS":"中洲７８號","OBJECTID":284775},"geometry":{"x":173098.6799999997,"y":2534376.9900000021}},{"attributes":{"ID":284782,"DIS_CODE":0,"TOWNNAME":"仁德區","LI":"中生里","LIN":"2鄰","STREET":" ","SECT":" ","MAREA":"中洲","LANE":" ","ALLEY":" ","HOUSE_NO":"８６之６號","E_COORD97":173070.12,"N_COORD97":2534254.29,"ADDRESS":"中洲８６之６號","OBJECTID":284776},"geometry":{"x":173070.12000000104,"y":2534254.290000001}},{"attributes":{"ID":284783,"DIS_CODE":0,"TOWNNAME":"仁德區","LI":"中生里","LIN":"2鄰","STREET":" ","SECT":" ","MAREA":"中洲","LANE":" ","ALLEY":" ","HOUSE_NO":"７８號之７","E_COORD97":173083.23999999999,"N_COORD97":2534370.04,"ADDRESS":"中洲７８號之７","OBJECTID":284777},"geometry":{"x":173083.24000000022,"y":2534370.0399999991}},{"attributes":{"ID":284784,"DIS_CODE":0,"TOWNNAME":"仁德區","LI":"土庫里","LIN":"2鄰","STREET":"太乙路","SECT":" ","MAREA":" ","LANE":" ","ALLEY":" ","HOUSE_NO":"２０號","E_COORD97":173689.07999999999,"N_COORD97":2542491.5099999998,"ADDRESS":"太乙路２０號","OBJECTID":284778},"geometry":{"x":173689.08000000101,"y":2542491.5100000035}},{"attributes":{"ID":284785,"DIS_CODE":0,"TOWNNAME":"新營區","LI":"大宏里","LIN":"10鄰","STREET":"民治路","SECT":" ","MAREA":" ","LANE":" ","ALLEY":" ","HOUSE_NO":"２７號之６","E_COORD97":180203.58966999999,"N_COORD97":2578865.2686800002,"ADDRESS":"民治路２７號之６","OBJECTID":284779},"geometry":{"x":180203.58967000153,"y":2578865.2686800025}},{"attributes":{"ID":284786,"DIS_CODE":0,"TOWNNAME":"永康區","LI":"龍潭里","LIN":"44鄰","STREET":"中山北路","SECT":" ","MAREA":" ","LANE":"２６４巷","ALLEY":" ","HOUSE_NO":"２２０號","E_COORD97":174708.42999999999,"N_COORD97":2547080.8300000001,"ADDRESS":"中山北路２６４巷２２０號","OBJECTID":284780},"geometry":{"x":174708.43000000063,"y":2547080.8300000019}},{"attributes":{"ID":284787,"DIS_CODE":0,"TOWNNAME":"中西區","LI":"五妃里","LIN":"4鄰","STREET":"南門路","SECT":" ","MAREA":" ","LANE":"２３７巷","ALLEY":" ","HOUSE_NO":"７號","E_COORD97":168482.42999999999,"N_COORD97":2542643.1800000002,"ADDRESS":"南門路２３７巷７號","OBJECTID":284781},"geometry":{"x":168482.4299999997,"y":2542643.1800000016}},{"attributes":{"ID":284788,"DIS_CODE":0,"TOWNNAME":"中西區","LI":"郡王里","LIN":"7鄰","STREET":"大埔街","SECT":" ","MAREA":" ","LANE":"８９巷","ALLEY":" ","HOUSE_NO":"５號","E_COORD97":168794.20000000001,"N_COORD97":2543057.1000000001,"ADDRESS":"大埔街８９巷５號","OBJECTID":284782},"geometry":{"x":168794.20000000112,"y":2543057.1000000034}},{"attributes":{"ID":284789,"DIS_CODE":0,"TOWNNAME":"仁德區","LI":"仁義里","LIN":"44鄰","STREET":"中正路","SECT":"二段","MAREA":" ","LANE":"１０３４巷","ALLEY":" ","HOUSE_NO":"１號","E_COORD97":173414.07999999999,"N_COORD97":2540895,"ADDRESS":"中正路二段１０３４巷１號","OBJECTID":284783},"geometry":{"x":173414.08000000101,"y":2540895.0000000037}},{"attributes":{"ID":284790,"DIS_CODE":0,"TOWNNAME":"仁德區","LI":"仁義里","LIN":"44鄰","STREET":"仁義路","SECT":" ","MAREA":" ","LANE":"７０巷","ALLEY":" ","HOUSE_NO":"８號","E_COORD97":173544.25,"N_COORD97":2540913.0099999998,"ADDRESS":"仁義路７０巷８號","OBJECTID":284784},"geometry":{"x":173544.25,"y":2540913.0100000016}},{"attributes":{"ID":284791,"DIS_CODE":0,"TOWNNAME":"仁德區","LI":"仁德里","LIN":"2鄰","STREET":"中正路","SECT":"二段","MAREA":" ","LANE":"６７９巷","ALLEY":" ","HOUSE_NO":"１號","E_COORD97":173401.37,"N_COORD97":2540062.77,"ADDRESS":"中正路二段６７９巷１號","OBJECTID":284785},"geometry":{"x":173401.37000000011,"y":2540062.7700000014}},{"attributes":{"ID":284792,"DIS_CODE":0,"TOWNNAME":"仁德區","LI":"大甲里","LIN":"2鄰","STREET":"行大一街","SECT":" ","MAREA":" ","LANE":" ","ALLEY":" ","HOUSE_NO":"１８７號","E_COORD97":169934.95000000001,"N_COORD97":2534974.4900000002,"ADDRESS":"行大一街１８７號","OBJECTID":284786},"geometry":{"x":169934.95000000112,"y":2534974.4900000002}},{"attributes":{"ID":284793,"DIS_CODE":0,"TOWNNAME":"白河區","LI":"白河里","LIN":"2鄰","STREET":"八德街","SECT":" ","MAREA":" ","LANE":" ","ALLEY":" ","HOUSE_NO":"８４號","E_COORD97":190192.19,"N_COORD97":2582908.4900000002,"ADDRESS":"八德街８４號","OBJECTID":284787},"geometry":{"x":190192.18999999948,"y":2582908.4900000002}},{"attributes":{"ID":284794,"DIS_CODE":0,"TOWNNAME":"永康區","LI":"龍潭里","LIN":"44鄰","STREET":"永平街","SECT":" ","MAREA":" ","LANE":"２９８巷","ALLEY":" ","HOUSE_NO":"１５之１１號","E_COORD97":174677.48999999999,"N_COORD97":2547138.7999999998,"ADDRESS":"永平街２９８巷１５之１１號","OBJECTID":284788},"geometry":{"x":174677.49000000209,"y":2547138.8000000045}},{"attributes":{"ID":284795,"DIS_CODE":0,"TOWNNAME":"永康區","LI":"龍潭里","LIN":"44鄰","STREET":"永平街","SECT":" ","MAREA":" ","LANE":"２９８巷","ALLEY":" ","HOUSE_NO":"１５之８號","E_COORD97":174676.23999999999,"N_COORD97":2547138.7999999998,"ADDRESS":"永平街２９８巷１５之８號","OBJECTID":284789},"geometry":{"x":174676.24000000115,"y":2547138.8000000045}},{"attributes":{"ID":284796,"DIS_CODE":0,"TOWNNAME":"中西區","LI":"小西里","LIN":"14鄰","STREET":"府前路","SECT":"一段","MAREA":" ","LANE":"３５９巷","ALLEY":" ","HOUSE_NO":"２６號","E_COORD97":167907.01000000001,"N_COORD97":2543370.2400000002,"ADDRESS":"府前路一段３５９巷２６號","OBJECTID":284790},"geometry":{"x":167907.01000000071,"y":2543370.2400000002}},{"attributes":{"ID":284797,"DIS_CODE":0,"TOWNNAME":"永康區","LI":"龍潭里","LIN":"44鄰","STREET":"永平街","SECT":" ","MAREA":" ","LANE":"２９８巷","ALLEY":" ","HOUSE_NO":"１５之１７號","E_COORD97":174677.48999999999,"N_COORD97":2547138.7999999998,"ADDRESS":"永平街２９８巷１５之１７號","OBJECTID":284791},"geometry":{"x":174677.49000000209,"y":2547138.8000000045}},{"attributes":{"ID":284798,"DIS_CODE":0,"TOWNNAME":"中西區","LI":"小西里","LIN":"14鄰","STREET":"府前路","SECT":"一段","MAREA":" ","LANE":"３５９巷","ALLEY":" ","HOUSE_NO":"１２號","E_COORD97":167895.45999999999,"N_COORD97":2543362.7400000002,"ADDRESS":"府前路一段３５９巷１２號","OBJECTID":284792},"geometry":{"x":167895.46000000089,"y":2543362.7400000021}},{"attributes":{"ID":284799,"DIS_CODE":0,"TOWNNAME":"中西區","LI":"仙草里","LIN":"7鄰","STREET":"永福路","SECT":"一段","MAREA":" ","LANE":"６１巷","ALLEY":" ","HOUSE_NO":"３０號","E_COORD97":167943.09,"N_COORD97":2542646.3999999999,"ADDRESS":"永福路一段６１巷３０號","OBJECTID":284793},"geometry":{"x":167943.09000000171,"y":2542646.4000000022}},{"attributes":{"ID":284800,"DIS_CODE":0,"TOWNNAME":"中西區","LI":"法華里","LIN":"6鄰","STREET":"健康路","SECT":"一段","MAREA":" ","LANE":"５０巷","ALLEY":" ","HOUSE_NO":"２號之１","E_COORD97":169059.51000000001,"N_COORD97":2542465.02,"ADDRESS":"健康路一段５０巷２號之１","OBJECTID":284794},"geometry":{"x":169059.51000000071,"y":2542465.0200000014}},{"attributes":{"ID":284801,"DIS_CODE":0,"TOWNNAME":"永康區","LI":"正強里","LIN":"44鄰","STREET":"中正路","SECT":" ","MAREA":" ","LANE":"２５６巷","ALLEY":" ","HOUSE_NO":"５號之２７","E_COORD97":173155.17000000001,"N_COORD97":2547982.8799999999,"ADDRESS":"中正路２５６巷５號之２７","OBJECTID":284795},"geometry":{"x":173155.16999999899,"y":2547982.879999999}},{"attributes":{"ID":284802,"DIS_CODE":0,"TOWNNAME":"永康區","LI":"龍潭里","LIN":"44鄰","STREET":"永平街","SECT":" ","MAREA":" ","LANE":"２９８巷","ALLEY":" ","HOUSE_NO":"１３之２號","E_COORD97":174660.92999999999,"N_COORD97":2547136.4399999999,"ADDRESS":"永平街２９８巷１３之２號","OBJECTID":284796},"geometry":{"x":174660.93000000063,"y":2547136.4400000032}},{"attributes":{"ID":284803,"DIS_CODE":0,"TOWNNAME":"中西區","LI":"公正里","LIN":"3鄰","STREET":"民族路","SECT":"二段","MAREA":" ","LANE":" ","ALLEY":" ","HOUSE_NO":"１８號","E_COORD97":169130.06,"N_COORD97":2543901.9199999999,"ADDRESS":"民族路二段１８號","OBJECTID":284797},"geometry":{"x":169130.06000000052,"y":2543901.9199999999}},{"attributes":{"ID":284804,"DIS_CODE":0,"TOWNNAME":"仁德區","LI":"成功里","LIN":"44鄰","STREET":"文賢路","SECT":"一段","MAREA":" ","LANE":"８１巷","ALLEY":" ","HOUSE_NO":"１１號","E_COORD97":170280.22,"N_COORD97":2538212.8199999998,"ADDRESS":"文賢路一段８１巷１１號","OBJECTID":284798},"geometry":{"x":170280.22000000067,"y":2538212.8200000022}},{"attributes":{"ID":284805,"DIS_CODE":0,"TOWNNAME":"新市區","LI":"新和里","LIN":"44鄰","STREET":"富林路","SECT":" ","MAREA":" ","LANE":" ","ALLEY":" ","HOUSE_NO":"２９９號","E_COORD97":177297.98999999999,"N_COORD97":2553296.04,"ADDRESS":"富林路２９９號","OBJECTID":284799},"geometry":{"x":177297.99000000022,"y":2553296.040000001}},{"attributes":{"ID":284806,"DIS_CODE":0,"TOWNNAME":"中西區","LI":"五妃里","LIN":"1鄰","STREET":"南門路","SECT":" ","MAREA":" ","LANE":"２５９巷","ALLEY":" ","HOUSE_NO":"２號","E_COORD97":168400.59,"N_COORD97":2542485.5499999998,"ADDRESS":"南門路２５９巷２號","OBJECTID":284800},"geometry":{"x":168400.58999999892,"y":2542485.5500000045}}]}