{"displayFieldName":"TOWNNAME","fieldAliases":{"ID":"ID","DIS_CODE":"DIS_CODE","TOWNNAME":"TOWNNAME","LI":"LI","LIN":"LIN","STREET":"STREET","SECT":"SECT","MAREA":"MAREA","LANE":"LANE","ALLEY":"ALLEY","HOUSE_NO":"HOUSE_NO","E_COORD97":"E_COORD97","N_COORD97":"N_COORD97","ADDRESS":"ADDRESS","OBJECTID":"OBJECTID"},"geometryType":"esriGeometryPoint","spatialReference":{"wkid":102443,"latestWkid":3826},"fields":[{"name":"ID","type":"esriFieldTypeDouble","alias":"ID"},{"name":"DIS_CODE","type":"esriFieldTypeInteger","alias":"DIS_CODE"},{"name":"TOWNNAME","type":"esriFieldTypeString","alias":"TOWNNAME","length":8},{"name":"LI","type":"esriFieldTypeString","alias":"LI","length":8},{"name":"LIN","type":"esriFieldTypeString","alias":"LIN","length":12},{"name":"STREET","type":"esriFieldTypeString","alias":"STREET","length":20},{"name":"SECT","type":"esriFieldTypeString","alias":"SECT","length":8},{"name":"MAREA","type":"esriFieldTypeString","alias":"MAREA","length":12},{"name":"LANE","type":"esriFieldTypeString","alias":"LANE","length":10},{"name":"ALLEY","type":"esriFieldTypeString","alias":"ALLEY","length":10},{"name":"HOUSE_NO","type":"esriFieldTypeString","alias":"HOUSE_NO","length":20},{"name":"E_COORD97","type":"esriFieldTypeDouble","alias":"E_COORD97"},{"name":"N_COORD97","type":"esriFieldTypeDouble","alias":"N_COORD97"},{"name":"ADDRESS","type":"esriFieldTypeString","alias":"ADDRESS","length":50},{"name":"OBJECTID","type":"esriFieldTypeOID","alias":"OBJECTID"}],"features":[{"attributes":{"ID":173602,"DIS_CODE":0,"TOWNNAME":"歸仁區","LI":"後市里","LIN":"32鄰","STREET":"民族北街","SECT":" ","MAREA":" ","LANE":"３１巷","ALLEY":"１０弄","HOUSE_NO":"１號","E_COORD97":177382.17999999999,"N_COORD97":2540934.75,"ADDRESS":"民族北街３１巷１０弄１號","OBJECTID":173601},"geometry":{"x":177382.1799999997,"y":2540934.7500000019}},{"attributes":{"ID":173603,"DIS_CODE":0,"TOWNNAME":"歸仁區","LI":"後市里","LIN":"46鄰","STREET":"文化街","SECT":"二段","MAREA":" ","LANE":"１２１巷","ALLEY":"１２弄","HOUSE_NO":"３號","E_COORD97":177178.48999999999,"N_COORD97":2541133.7599999998,"ADDRESS":"文化街二段１２１巷１２弄３號","OBJECTID":173602},"geometry":{"x":177178.49000000115,"y":2541133.7600000035}},{"attributes":{"ID":173604,"DIS_CODE":0,"TOWNNAME":"北區","LI":"仁愛里","LIN":"10鄰","STREET":"長榮路","SECT":"四段","MAREA":" ","LANE":" ","ALLEY":" ","HOUSE_NO":"７９號","E_COORD97":170290.94,"N_COORD97":2545008.5,"ADDRESS":"長榮路四段７９號","OBJECTID":173603},"geometry":{"x":170290.94000000134,"y":2545008.5000000019}},{"attributes":{"ID":173605,"DIS_CODE":0,"TOWNNAME":"北區","LI":"仁愛里","LIN":"10鄰","STREET":"長榮路","SECT":"四段","MAREA":" ","LANE":" ","ALLEY":" ","HOUSE_NO":"６３號","E_COORD97":170291.82000000001,"N_COORD97":2544971.6099999999,"ADDRESS":"長榮路四段６３號","OBJECTID":173604},"geometry":{"x":170291.82000000123,"y":2544971.6099999994}},{"attributes":{"ID":173606,"DIS_CODE":0,"TOWNNAME":"北區","LI":"仁愛里","LIN":"10鄰","STREET":"長榮路","SECT":"四段","MAREA":" ","LANE":" ","ALLEY":" ","HOUSE_NO":"６５號","E_COORD97":170292.72,"N_COORD97":2544974.71,"ADDRESS":"長榮路四段６５號","OBJECTID":173605},"geometry":{"x":170292.71999999974,"y":2544974.7100000028}},{"attributes":{"ID":173607,"DIS_CODE":0,"TOWNNAME":"北區","LI":"仁愛里","LIN":"10鄰","STREET":"長榮路","SECT":"四段","MAREA":" ","LANE":" ","ALLEY":" ","HOUSE_NO":"６９號","E_COORD97":170292.64000000001,"N_COORD97":2544982.0699999998,"ADDRESS":"長榮路四段６９號","OBJECTID":173606},"geometry":{"x":170292.6400000006,"y":2544982.0700000003}},{"attributes":{"ID":173608,"DIS_CODE":0,"TOWNNAME":"南區","LI":"新生里","LIN":"10鄰","STREET":"大同路","SECT":"二段","MAREA":" ","LANE":" ","ALLEY":" ","HOUSE_NO":"１４８號","E_COORD97":169296.82000000001,"N_COORD97":2542120.7000000002,"ADDRESS":"大同路二段１４８號","OBJECTID":173607},"geometry":{"x":169296.82000000123,"y":2542120.7000000011}},{"attributes":{"ID":173609,"DIS_CODE":0,"TOWNNAME":"南區","LI":"新生里","LIN":"10鄰","STREET":"大同路","SECT":"二段","MAREA":" ","LANE":" ","ALLEY":" ","HOUSE_NO":"１３８號","E_COORD97":169300.94,"N_COORD97":2542147.79,"ADDRESS":"大同路二段１３８號","OBJECTID":173608},"geometry":{"x":169300.94000000134,"y":2542147.790000001}},{"attributes":{"ID":173610,"DIS_CODE":0,"TOWNNAME":"學甲區","LI":"平和里","LIN":"10鄰","STREET":" ","SECT":" ","MAREA":"學甲寮","LANE":" ","ALLEY":" ","HOUSE_NO":"８５號之１","E_COORD97":169628.14999999999,"N_COORD97":2573349.9199999999,"ADDRESS":"學甲寮８５號之１","OBJECTID":173609},"geometry":{"x":169628.15000000224,"y":2573349.9199999999}},{"attributes":{"ID":173611,"DIS_CODE":0,"TOWNNAME":"歸仁區","LI":"南保里","LIN":"59鄰","STREET":"中山路","SECT":"三段","MAREA":" ","LANE":"８１巷","ALLEY":"２３弄","HOUSE_NO":"９８號","E_COORD97":176871.14000000001,"N_COORD97":2540782.0299999998,"ADDRESS":"中山路三段８１巷２３弄９８號","OBJECTID":173610},"geometry":{"x":176871.14000000153,"y":2540782.0300000031}},{"attributes":{"ID":173612,"DIS_CODE":0,"TOWNNAME":"北區","LI":"重興里","LIN":"10鄰","STREET":"東豐路","SECT":" ","MAREA":" ","LANE":" ","ALLEY":" ","HOUSE_NO":"４９３號","E_COORD97":170840.79000000001,"N_COORD97":2544696.7000000002,"ADDRESS":"東豐路４９３號","OBJECTID":173611},"geometry":{"x":170840.79000000097,"y":2544696.700000003}},{"attributes":{"ID":173613,"DIS_CODE":0,"TOWNNAME":"北區","LI":"重興里","LIN":"10鄰","STREET":"東豐路","SECT":" ","MAREA":" ","LANE":" ","ALLEY":" ","HOUSE_NO":"４９５號","E_COORD97":170842.56,"N_COORD97":2544693.0699999998,"ADDRESS":"東豐路４９５號","OBJECTID":173612},"geometry":{"x":170842.55999999959,"y":2544693.0700000022}},{"attributes":{"ID":173614,"DIS_CODE":0,"TOWNNAME":"歸仁區","LI":"六甲里","LIN":"20鄰","STREET":"中正南路","SECT":"一段","MAREA":" ","LANE":"７３０巷","ALLEY":"２弄","HOUSE_NO":"５號","E_COORD97":176463.118605,"N_COORD97":2539736.5372000001,"ADDRESS":"中正南路一段７３０巷２弄５號","OBJECTID":173613},"geometry":{"x":176463.11860499997,"y":2539736.537202999}},{"attributes":{"ID":173615,"DIS_CODE":0,"TOWNNAME":"歸仁區","LI":"南保里","LIN":"59鄰","STREET":"中山路","SECT":"三段","MAREA":" ","LANE":"８１巷","ALLEY":"２３弄","HOUSE_NO":"８０號","E_COORD97":176858.84,"N_COORD97":2540783.0299999998,"ADDRESS":"中山路三段８１巷２３弄８０號","OBJECTID":173614},"geometry":{"x":176858.84000000078,"y":2540783.0300000012}},{"attributes":{"ID":173616,"DIS_CODE":0,"TOWNNAME":"歸仁區","LI":"南保里","LIN":"59鄰","STREET":"中山路","SECT":"三段","MAREA":" ","LANE":"８１巷","ALLEY":"２３弄","HOUSE_NO":"２８號","E_COORD97":176809.64000000001,"N_COORD97":2540783.0299999998,"ADDRESS":"中山路三段８１巷２３弄２８號","OBJECTID":173615},"geometry":{"x":176809.63999999966,"y":2540783.0300000012}},{"attributes":{"ID":173617,"DIS_CODE":0,"TOWNNAME":"歸仁區","LI":"南保里","LIN":"59鄰","STREET":"中山路","SECT":"三段","MAREA":" ","LANE":"８１巷","ALLEY":"２３弄","HOUSE_NO":"１４號","E_COORD97":176795.23999999999,"N_COORD97":2540775.0299999998,"ADDRESS":"中山路三段８１巷２３弄１４號","OBJECTID":173616},"geometry":{"x":176795.24000000115,"y":2540775.0299999993}},{"attributes":{"ID":173618,"DIS_CODE":0,"TOWNNAME":"歸仁區","LI":"南保里","LIN":"59鄰","STREET":"中山路","SECT":"三段","MAREA":" ","LANE":"８１巷","ALLEY":"２３弄","HOUSE_NO":"２號","E_COORD97":176795.09,"N_COORD97":2540798.0299999998,"ADDRESS":"中山路三段８１巷２３弄２號","OBJECTID":173617},"geometry":{"x":176795.08999999985,"y":2540798.0299999993}},{"attributes":{"ID":173619,"DIS_CODE":0,"TOWNNAME":"麻豆區","LI":"中興里","LIN":"10鄰","STREET":"和平路","SECT":" ","MAREA":" ","LANE":" ","ALLEY":" ","HOUSE_NO":"３號之１","E_COORD97":173044.60999999999,"N_COORD97":2564376.48,"ADDRESS":"和平路３號之１","OBJECTID":173618},"geometry":{"x":173044.61000000127,"y":2564376.4800000004}},{"attributes":{"ID":173620,"DIS_CODE":0,"TOWNNAME":"歸仁區","LI":"南保里","LIN":"59鄰","STREET":"中山路","SECT":"三段","MAREA":" ","LANE":"８１巷","ALLEY":"２３弄","HOUSE_NO":"２４號","E_COORD97":176809.64000000001,"N_COORD97":2540793.0299999998,"ADDRESS":"中山路三段８１巷２３弄２４號","OBJECTID":173619},"geometry":{"x":176809.63999999966,"y":2540793.0300000012}},{"attributes":{"ID":173621,"DIS_CODE":0,"TOWNNAME":"歸仁區","LI":"六甲里","LIN":"20鄰","STREET":"中正南路","SECT":"一段","MAREA":" ","LANE":"７３０巷","ALLEY":"２弄","HOUSE_NO":"１號","E_COORD97":176455.70324500001,"N_COORD97":2539727.2238699999,"ADDRESS":"中正南路一段７３０巷２弄１號","OBJECTID":173620},"geometry":{"x":176455.70324500091,"y":2539727.223873999}},{"attributes":{"ID":173622,"DIS_CODE":0,"TOWNNAME":"歸仁區","LI":"西埔里","LIN":"4鄰","STREET":"保大路","SECT":"二段","MAREA":" ","LANE":"１２２巷","ALLEY":"２３弄","HOUSE_NO":"９號","E_COORD97":177019.12,"N_COORD97":2544202.2799999998,"ADDRESS":"保大路二段１２２巷２３弄９號","OBJECTID":173621},"geometry":{"x":177019.12000000197,"y":2544202.2800000012}},{"attributes":{"ID":173623,"DIS_CODE":0,"TOWNNAME":"歸仁區","LI":"南保里","LIN":"59鄰","STREET":"中山路","SECT":"三段","MAREA":" ","LANE":"８１巷","ALLEY":"２３弄","HOUSE_NO":"９２號","E_COORD97":176855.64000000001,"N_COORD97":2540757.0299999998,"ADDRESS":"中山路三段８１巷２３弄９２號","OBJECTID":173622},"geometry":{"x":176855.63999999873,"y":2540757.0299999993}},{"attributes":{"ID":173624,"DIS_CODE":0,"TOWNNAME":"歸仁區","LI":"南保里","LIN":"59鄰","STREET":"中山路","SECT":"三段","MAREA":" ","LANE":"８１巷","ALLEY":"２３弄","HOUSE_NO":"８２號","E_COORD97":176857.84,"N_COORD97":2540779.0299999998,"ADDRESS":"中山路三段８１巷２３弄８２號","OBJECTID":173623},"geometry":{"x":176857.83999999985,"y":2540779.0300000012}},{"attributes":{"ID":173625,"DIS_CODE":0,"TOWNNAME":"歸仁區","LI":"南保里","LIN":"59鄰","STREET":"中山路","SECT":"三段","MAREA":" ","LANE":"８１巷","ALLEY":"２３弄","HOUSE_NO":"７８號","E_COORD97":176858.84,"N_COORD97":2540788.0299999998,"ADDRESS":"中山路三段８１巷２３弄７８號","OBJECTID":173624},"geometry":{"x":176858.84000000078,"y":2540788.0299999993}},{"attributes":{"ID":173626,"DIS_CODE":0,"TOWNNAME":"新營區","LI":"姑爺里","LIN":"10鄰","STREET":" ","SECT":" ","MAREA":"挖仔","LANE":" ","ALLEY":" ","HOUSE_NO":"３５之１６號","E_COORD97":173947.06,"N_COORD97":2575334.5099999998,"ADDRESS":"挖仔３５之１６號","OBJECTID":173625},"geometry":{"x":173947.05999999959,"y":2575334.5100000016}},{"attributes":{"ID":173627,"DIS_CODE":0,"TOWNNAME":"北區","LI":"重興里","LIN":"10鄰","STREET":"東豐路","SECT":" ","MAREA":" ","LANE":" ","ALLEY":" ","HOUSE_NO":"４９９號","E_COORD97":170846.47,"N_COORD97":2544685.27,"ADDRESS":"東豐路４９９號","OBJECTID":173626},"geometry":{"x":170846.47000000067,"y":2544685.2699999996}},{"attributes":{"ID":173628,"DIS_CODE":0,"TOWNNAME":"歸仁區","LI":"六甲里","LIN":"38鄰","STREET":"六甲八街","SECT":" ","MAREA":" ","LANE":"１４９巷","ALLEY":"５０弄","HOUSE_NO":"４２號","E_COORD97":175246.39999999999,"N_COORD97":2539851.73,"ADDRESS":"六甲八街１４９巷５０弄４２號","OBJECTID":173627},"geometry":{"x":175246.4000000013,"y":2539851.7300000004}},{"attributes":{"ID":173629,"DIS_CODE":0,"TOWNNAME":"新營區","LI":"姑爺里","LIN":"10鄰","STREET":" ","SECT":" ","MAREA":"挖仔","LANE":" ","ALLEY":" ","HOUSE_NO":"３６之７號","E_COORD97":173945.69,"N_COORD97":2575310.1400000001,"ADDRESS":"挖仔３６之７號","OBJECTID":173628},"geometry":{"x":173945.69000000227,"y":2575310.1399999987}},{"attributes":{"ID":173630,"DIS_CODE":0,"TOWNNAME":"新營區","LI":"太南里","LIN":"10鄰","STREET":" ","SECT":" ","MAREA":"太子宮","LANE":" ","ALLEY":" ","HOUSE_NO":"２４７號","E_COORD97":176044.31,"N_COORD97":2576847.6899999999,"ADDRESS":"太子宮２４７號","OBJECTID":173629},"geometry":{"x":176044.31000000145,"y":2576847.6899999995}},{"attributes":{"ID":173631,"DIS_CODE":0,"TOWNNAME":"歸仁區","LI":"六甲里","LIN":"38鄰","STREET":"六甲八街","SECT":" ","MAREA":" ","LANE":"１４９巷","ALLEY":"５０弄","HOUSE_NO":"２７號","E_COORD97":175231.89999999999,"N_COORD97":2539814.73,"ADDRESS":"六甲八街１４９巷５０弄２７號","OBJECTID":173630},"geometry":{"x":175231.90000000037,"y":2539814.7300000004}},{"attributes":{"ID":173632,"DIS_CODE":0,"TOWNNAME":"歸仁區","LI":"沙崙里","LIN":"10鄰","STREET":" ","SECT":" ","MAREA":"沙崙","LANE":" ","ALLEY":" ","HOUSE_NO":"４１３號","E_COORD97":180472.28,"N_COORD97":2537922.25,"ADDRESS":"沙崙４１３號","OBJECTID":173631},"geometry":{"x":180472.28000000026,"y":2537922.25}},{"attributes":{"ID":173633,"DIS_CODE":0,"TOWNNAME":"歸仁區","LI":"沙崙里","LIN":"10鄰","STREET":" ","SECT":" ","MAREA":"沙崙","LANE":" ","ALLEY":" ","HOUSE_NO":"４００號","E_COORD97":180437.72,"N_COORD97":2537876.04,"ADDRESS":"沙崙４００號","OBJECTID":173632},"geometry":{"x":180437.72000000067,"y":2537876.0399999972}},{"attributes":{"ID":173634,"DIS_CODE":0,"TOWNNAME":"歸仁區","LI":"沙崙里","LIN":"10鄰","STREET":" ","SECT":" ","MAREA":"沙崙","LANE":" ","ALLEY":" ","HOUSE_NO":"４８３號","E_COORD97":180428.57999999999,"N_COORD97":2536901.25,"ADDRESS":"沙崙４８３號","OBJECTID":173633},"geometry":{"x":180428.58000000101,"y":2536901.25}},{"attributes":{"ID":173635,"DIS_CODE":0,"TOWNNAME":"歸仁區","LI":"南保里","LIN":"59鄰","STREET":"中山路","SECT":"三段","MAREA":" ","LANE":"８１巷","ALLEY":"２３弄","HOUSE_NO":"７０號","E_COORD97":176838.23999999999,"N_COORD97":2540767.0299999998,"ADDRESS":"中山路三段８１巷２３弄７０號","OBJECTID":173634},"geometry":{"x":176838.24000000022,"y":2540767.0299999993}},{"attributes":{"ID":173636,"DIS_CODE":0,"TOWNNAME":"歸仁區","LI":"六甲里","LIN":"38鄰","STREET":"六甲八街","SECT":" ","MAREA":" ","LANE":"１４９巷","ALLEY":"５０弄","HOUSE_NO":"３６號","E_COORD97":175254.67913199999,"N_COORD97":2539825.5166099998,"ADDRESS":"六甲八街１４９巷５０弄３６號","OBJECTID":173635},"geometry":{"x":175254.67913200054,"y":2539825.5166050028}},{"attributes":{"ID":173637,"DIS_CODE":0,"TOWNNAME":"南區","LI":"大林里","LIN":"8鄰","STREET":"大林路","SECT":" ","MAREA":" ","LANE":"１１１巷","ALLEY":"２４弄","HOUSE_NO":"１１號","E_COORD97":169134,"N_COORD97":2541626.9700000002,"ADDRESS":"大林路１１１巷２４弄１１號","OBJECTID":173636},"geometry":{"x":169134.00000000093,"y":2541626.9700000007}},{"attributes":{"ID":173638,"DIS_CODE":0,"TOWNNAME":"南區","LI":"大林里","LIN":"8鄰","STREET":"大林路","SECT":" ","MAREA":" ","LANE":"１１１巷","ALLEY":"２４弄","HOUSE_NO":"１３號","E_COORD97":169129.62,"N_COORD97":2541626.8700000001,"ADDRESS":"大林路１１１巷２４弄１３號","OBJECTID":173637},"geometry":{"x":169129.61999999918,"y":2541626.8700000029}},{"attributes":{"ID":173639,"DIS_CODE":0,"TOWNNAME":"南區","LI":"大林里","LIN":"8鄰","STREET":"大林路","SECT":" ","MAREA":" ","LANE":"１１１巷","ALLEY":"２４弄","HOUSE_NO":"１５號","E_COORD97":169125.17999999999,"N_COORD97":2541626.6699999999,"ADDRESS":"大林路１１１巷２４弄１５號","OBJECTID":173638},"geometry":{"x":169125.1799999997,"y":2541626.6700000018}},{"attributes":{"ID":173640,"DIS_CODE":0,"TOWNNAME":"南區","LI":"大林里","LIN":"8鄰","STREET":"大林路","SECT":" ","MAREA":" ","LANE":"１１１巷","ALLEY":"２４弄","HOUSE_NO":"１７號","E_COORD97":169120.20999999999,"N_COORD97":2541626.8199999998,"ADDRESS":"大林路１１１巷２４弄１７號","OBJECTID":173639},"geometry":{"x":169120.20999999996,"y":2541626.8200000022}},{"attributes":{"ID":173641,"DIS_CODE":0,"TOWNNAME":"南區","LI":"大林里","LIN":"8鄰","STREET":"大林路","SECT":" ","MAREA":" ","LANE":"１１１巷","ALLEY":"２４弄","HOUSE_NO":"１９號","E_COORD97":169115.63,"N_COORD97":2541626.9700000002,"ADDRESS":"大林路１１１巷２４弄１９號","OBJECTID":173640},"geometry":{"x":169115.62999999989,"y":2541626.9700000007}},{"attributes":{"ID":173642,"DIS_CODE":0,"TOWNNAME":"南區","LI":"大林里","LIN":"8鄰","STREET":"大林路","SECT":" ","MAREA":" ","LANE":"１１１巷","ALLEY":"２４弄","HOUSE_NO":"１號","E_COORD97":169160.91,"N_COORD97":2541629.0099999998,"ADDRESS":"大林路１１１巷２４弄１號","OBJECTID":173641},"geometry":{"x":169160.91000000015,"y":2541629.0099999998}},{"attributes":{"ID":173643,"DIS_CODE":0,"TOWNNAME":"南區","LI":"大林里","LIN":"8鄰","STREET":"大林路","SECT":" ","MAREA":" ","LANE":"１１１巷","ALLEY":"２４弄","HOUSE_NO":"３號","E_COORD97":169154.38,"N_COORD97":2541630.7000000002,"ADDRESS":"大林路１１１巷２４弄３號","OBJECTID":173642},"geometry":{"x":169154.37999999989,"y":2541630.6999999993}},{"attributes":{"ID":173644,"DIS_CODE":0,"TOWNNAME":"南區","LI":"大林里","LIN":"8鄰","STREET":"大林路","SECT":" ","MAREA":" ","LANE":"１１１巷","ALLEY":"２４弄","HOUSE_NO":"５號","E_COORD97":169148.64999999999,"N_COORD97":2541625.9700000002,"ADDRESS":"大林路１１１巷２４弄５號","OBJECTID":173643},"geometry":{"x":169148.6500000013,"y":2541625.9700000025}},{"attributes":{"ID":173645,"DIS_CODE":0,"TOWNNAME":"南區","LI":"大林里","LIN":"8鄰","STREET":"大林路","SECT":" ","MAREA":" ","LANE":"１１１巷","ALLEY":"２４弄","HOUSE_NO":"７號","E_COORD97":169143.42000000001,"N_COORD97":2541626.0699999998,"ADDRESS":"大林路１１１巷２４弄７號","OBJECTID":173644},"geometry":{"x":169143.42000000086,"y":2541626.0700000003}},{"attributes":{"ID":173646,"DIS_CODE":0,"TOWNNAME":"南區","LI":"大林里","LIN":"8鄰","STREET":"大林路","SECT":" ","MAREA":" ","LANE":"１１１巷","ALLEY":"２４弄","HOUSE_NO":"９號","E_COORD97":169139.09,"N_COORD97":2541626.8700000001,"ADDRESS":"大林路１１１巷２４弄９號","OBJECTID":173645},"geometry":{"x":169139.08999999985,"y":2541626.8700000029}},{"attributes":{"ID":173647,"DIS_CODE":0,"TOWNNAME":"南區","LI":"大林里","LIN":"19鄰","STREET":"大林路","SECT":" ","MAREA":" ","LANE":"１１１巷","ALLEY":"３弄","HOUSE_NO":"１０號","E_COORD97":169175.98999999999,"N_COORD97":2541731.7000000002,"ADDRESS":"大林路１１１巷３弄１０號","OBJECTID":173646},"geometry":{"x":169175.99000000022,"y":2541731.7000000011}},{"attributes":{"ID":173648,"DIS_CODE":0,"TOWNNAME":"南區","LI":"大林里","LIN":"19鄰","STREET":"大林路","SECT":" ","MAREA":" ","LANE":"１１１巷","ALLEY":"３弄","HOUSE_NO":"１１號","E_COORD97":169199.37,"N_COORD97":2541758.3700000001,"ADDRESS":"大林路１１１巷３弄１１號","OBJECTID":173647},"geometry":{"x":169199.37000000104,"y":2541758.3700000029}},{"attributes":{"ID":173649,"DIS_CODE":0,"TOWNNAME":"南區","LI":"大林里","LIN":"19鄰","STREET":"大林路","SECT":" ","MAREA":" ","LANE":"１１１巷","ALLEY":"３弄","HOUSE_NO":"１２號","E_COORD97":169180.72,"N_COORD97":2541732.5600000001,"ADDRESS":"大林路１１１巷３弄１２號","OBJECTID":173648},"geometry":{"x":169180.71999999974,"y":2541732.5600000042}},{"attributes":{"ID":173650,"DIS_CODE":0,"TOWNNAME":"南區","LI":"大林里","LIN":"19鄰","STREET":"大林路","SECT":" ","MAREA":" ","LANE":"１１１巷","ALLEY":"３弄","HOUSE_NO":"１３號","E_COORD97":169206.25,"N_COORD97":2541759.23,"ADDRESS":"大林路１１１巷３弄１３號","OBJECTID":173649},"geometry":{"x":169206.25,"y":2541759.2300000023}},{"attributes":{"ID":173651,"DIS_CODE":0,"TOWNNAME":"南區","LI":"大林里","LIN":"19鄰","STREET":"大林路","SECT":" ","MAREA":" ","LANE":"１１１巷","ALLEY":"３弄","HOUSE_NO":"１４號","E_COORD97":169184.59,"N_COORD97":2541733.4199999999,"ADDRESS":"大林路１１１巷３弄１４號","OBJECTID":173650},"geometry":{"x":169184.59000000078,"y":2541733.4200000018}},{"attributes":{"ID":173652,"DIS_CODE":0,"TOWNNAME":"南區","LI":"大林里","LIN":"19鄰","STREET":"大林路","SECT":" ","MAREA":" ","LANE":"１１１巷","ALLEY":"３弄","HOUSE_NO":"１６號","E_COORD97":169188.32000000001,"N_COORD97":2541734.2799999998,"ADDRESS":"大林路１１１巷３弄１６號","OBJECTID":173651},"geometry":{"x":169188.32000000123,"y":2541734.2800000012}},{"attributes":{"ID":173653,"DIS_CODE":0,"TOWNNAME":"南區","LI":"大林里","LIN":"19鄰","STREET":"大林路","SECT":" ","MAREA":" ","LANE":"１１１巷","ALLEY":"３弄","HOUSE_NO":"１８號","E_COORD97":169193.48999999999,"N_COORD97":2541735.1400000001,"ADDRESS":"大林路１１１巷３弄１８號","OBJECTID":173652},"geometry":{"x":169193.49000000209,"y":2541735.1400000006}},{"attributes":{"ID":173654,"DIS_CODE":0,"TOWNNAME":"歸仁區","LI":"沙崙里","LIN":"10鄰","STREET":" ","SECT":" ","MAREA":"沙崙","LANE":" ","ALLEY":" ","HOUSE_NO":"５０１號","E_COORD97":180503.48000000001,"N_COORD97":2536452.25,"ADDRESS":"沙崙５０１號","OBJECTID":173653},"geometry":{"x":180503.48000000045,"y":2536452.2500000019}},{"attributes":{"ID":173655,"DIS_CODE":0,"TOWNNAME":"南區","LI":"大林里","LIN":"19鄰","STREET":"大林路","SECT":" ","MAREA":" ","LANE":"１１１巷","ALLEY":"３弄","HOUSE_NO":"１號","E_COORD97":169155.91,"N_COORD97":2541750.2000000002,"ADDRESS":"大林路１１１巷３弄１號","OBJECTID":173654},"geometry":{"x":169155.91000000015,"y":2541750.1999999993}},{"attributes":{"ID":173656,"DIS_CODE":0,"TOWNNAME":"南區","LI":"大林里","LIN":"19鄰","STREET":"大林路","SECT":" ","MAREA":" ","LANE":"１１１巷","ALLEY":"３弄","HOUSE_NO":"２０號","E_COORD97":169198.79000000001,"N_COORD97":2541735.8500000001,"ADDRESS":"大林路１１１巷３弄２０號","OBJECTID":173655},"geometry":{"x":169198.79000000097,"y":2541735.8499999996}},{"attributes":{"ID":173657,"DIS_CODE":0,"TOWNNAME":"北區","LI":"成德里","LIN":"15鄰","STREET":"文成路","SECT":" ","MAREA":" ","LANE":" ","ALLEY":" ","HOUSE_NO":"８２號","E_COORD97":168771.39000000001,"N_COORD97":2545902.0800000001,"ADDRESS":"文成路８２號","OBJECTID":173656},"geometry":{"x":168771.39000000153,"y":2545902.0800000038}},{"attributes":{"ID":173658,"DIS_CODE":0,"TOWNNAME":"北區","LI":"成德里","LIN":"15鄰","STREET":"文成路","SECT":" ","MAREA":" ","LANE":" ","ALLEY":" ","HOUSE_NO":"８６號","E_COORD97":168767.07000000001,"N_COORD97":2545903.3500000001,"ADDRESS":"文成路８６號","OBJECTID":173657},"geometry":{"x":168767.0700000003,"y":2545903.3500000034}},{"attributes":{"ID":173659,"DIS_CODE":0,"TOWNNAME":"北區","LI":"文元里","LIN":"15鄰","STREET":"文賢一路","SECT":" ","MAREA":" ","LANE":" ","ALLEY":" ","HOUSE_NO":"２７３號","E_COORD97":167520.07999999999,"N_COORD97":2545646.98,"ADDRESS":"文賢一路２７３號","OBJECTID":173658},"geometry":{"x":167520.08000000101,"y":2545646.9800000023}},{"attributes":{"ID":173660,"DIS_CODE":0,"TOWNNAME":"南區","LI":"大林里","LIN":"19鄰","STREET":"大林路","SECT":" ","MAREA":" ","LANE":"１１１巷","ALLEY":"９弄","HOUSE_NO":"１１號","E_COORD97":169193.42999999999,"N_COORD97":2541705.8300000001,"ADDRESS":"大林路１１１巷９弄１１號","OBJECTID":173659},"geometry":{"x":169193.43000000063,"y":2541705.8300000001}},{"attributes":{"ID":173661,"DIS_CODE":0,"TOWNNAME":"歸仁區","LI":"沙崙里","LIN":"10鄰","STREET":" ","SECT":" ","MAREA":"沙崙","LANE":" ","ALLEY":" ","HOUSE_NO":"４０５號","E_COORD97":180459.78,"N_COORD97":2537885.25,"ADDRESS":"沙崙４０５號","OBJECTID":173660},"geometry":{"x":180459.78000000119,"y":2537885.25}},{"attributes":{"ID":173662,"DIS_CODE":0,"TOWNNAME":"玉井區","LI":"層林里","LIN":"10鄰","STREET":" ","SECT":" ","MAREA":"層林","LANE":" ","ALLEY":" ","HOUSE_NO":"１１３之５號","E_COORD97":191575.01000000001,"N_COORD97":2552910.29,"ADDRESS":"層林１１３之５號","OBJECTID":173661},"geometry":{"x":191575.01000000071,"y":2552910.2899999991}},{"attributes":{"ID":173663,"DIS_CODE":0,"TOWNNAME":"歸仁區","LI":"沙崙里","LIN":"10鄰","STREET":" ","SECT":" ","MAREA":"沙崙","LANE":" ","ALLEY":" ","HOUSE_NO":"５２８號","E_COORD97":180406.57999999999,"N_COORD97":2537683.25,"ADDRESS":"沙崙５２８號","OBJECTID":173662},"geometry":{"x":180406.58000000101,"y":2537683.2500000019}},{"attributes":{"ID":173664,"DIS_CODE":0,"TOWNNAME":"南區","LI":"大林里","LIN":"19鄰","STREET":"大林路","SECT":" ","MAREA":" ","LANE":"１１１巷","ALLEY":"９弄","HOUSE_NO":"１３號","E_COORD97":169197.60000000001,"N_COORD97":2541706.77,"ADDRESS":"大林路１１１巷９弄１３號","OBJECTID":173663},"geometry":{"x":169197.60000000056,"y":2541706.7700000014}},{"attributes":{"ID":173665,"DIS_CODE":0,"TOWNNAME":"麻豆區","LI":"安業里","LIN":"10鄰","STREET":" ","SECT":" ","MAREA":"安業","LANE":" ","ALLEY":" ","HOUSE_NO":"１８２號","E_COORD97":172604.48999999999,"N_COORD97":2561967.3599999999,"ADDRESS":"安業１８２號","OBJECTID":173664},"geometry":{"x":172604.49000000115,"y":2561967.3600000013}},{"attributes":{"ID":173666,"DIS_CODE":0,"TOWNNAME":"南區","LI":"大林里","LIN":"19鄰","STREET":"大林路","SECT":" ","MAREA":" ","LANE":"１１１巷","ALLEY":"９弄","HOUSE_NO":"１５號","E_COORD97":169201.66,"N_COORD97":2541707.5,"ADDRESS":"大林路１１１巷９弄１５號","OBJECTID":173665},"geometry":{"x":169201.66000000015,"y":2541707.5}},{"attributes":{"ID":173667,"DIS_CODE":0,"TOWNNAME":"麻豆區","LI":"安業里","LIN":"10鄰","STREET":" ","SECT":" ","MAREA":"安業","LANE":" ","ALLEY":" ","HOUSE_NO":"１８３號","E_COORD97":172590.82000000001,"N_COORD97":2561954.25,"ADDRESS":"安業１８３號","OBJECTID":173666},"geometry":{"x":172590.82000000123,"y":2561954.2500000037}},{"attributes":{"ID":173668,"DIS_CODE":0,"TOWNNAME":"麻豆區","LI":"安業里","LIN":"10鄰","STREET":" ","SECT":" ","MAREA":"安業","LANE":" ","ALLEY":" ","HOUSE_NO":"１８０號","E_COORD97":172575.64000000001,"N_COORD97":2561950.2999999998,"ADDRESS":"安業１８０號","OBJECTID":173667},"geometry":{"x":172575.6400000006,"y":2561950.3000000007}},{"attributes":{"ID":173669,"DIS_CODE":0,"TOWNNAME":"麻豆區","LI":"安業里","LIN":"10鄰","STREET":" ","SECT":" ","MAREA":"安業","LANE":" ","ALLEY":" ","HOUSE_NO":"１９０號","E_COORD97":172588.37,"N_COORD97":2561878.8500000001,"ADDRESS":"安業１９０號","OBJECTID":173668},"geometry":{"x":172588.37000000104,"y":2561878.8500000034}},{"attributes":{"ID":173670,"DIS_CODE":0,"TOWNNAME":"麻豆區","LI":"安業里","LIN":"10鄰","STREET":" ","SECT":" ","MAREA":"安業","LANE":" ","ALLEY":" ","HOUSE_NO":"１９１號","E_COORD97":172576.28,"N_COORD97":2561883.5800000001,"ADDRESS":"安業１９１號","OBJECTID":173669},"geometry":{"x":172576.28000000026,"y":2561883.5800000001}},{"attributes":{"ID":173671,"DIS_CODE":0,"TOWNNAME":"柳營區","LI":"大農里","LIN":"10鄰","STREET":" ","SECT":" ","MAREA":"農場","LANE":" ","ALLEY":" ","HOUSE_NO":"１６號之７","E_COORD97":183316.25,"N_COORD97":2575943.0099999998,"ADDRESS":"農場１６號之７","OBJECTID":173670},"geometry":{"x":183316.25000000093,"y":2575943.0099999998}},{"attributes":{"ID":173672,"DIS_CODE":0,"TOWNNAME":"柳營區","LI":"大農里","LIN":"10鄰","STREET":" ","SECT":" ","MAREA":"農場","LANE":" ","ALLEY":" ","HOUSE_NO":"１７號之２","E_COORD97":183296.14000000001,"N_COORD97":2575910.5299999998,"ADDRESS":"農場１７號之２","OBJECTID":173671},"geometry":{"x":183296.1400000006,"y":2575910.5300000012}},{"attributes":{"ID":173673,"DIS_CODE":0,"TOWNNAME":"柳營區","LI":"大農里","LIN":"10鄰","STREET":" ","SECT":" ","MAREA":"農場","LANE":" ","ALLEY":" ","HOUSE_NO":"１７號之３","E_COORD97":183284.60999999999,"N_COORD97":2575910.73,"ADDRESS":"農場１７號之３","OBJECTID":173672},"geometry":{"x":183284.61000000034,"y":2575910.7300000023}},{"attributes":{"ID":173674,"DIS_CODE":0,"TOWNNAME":"南區","LI":"大林里","LIN":"19鄰","STREET":"大林路","SECT":" ","MAREA":" ","LANE":"１１１巷","ALLEY":"９弄","HOUSE_NO":"１７號","E_COORD97":169206.82000000001,"N_COORD97":2541708.6499999999,"ADDRESS":"大林路１１１巷９弄１７號","OBJECTID":173673},"geometry":{"x":169206.82000000123,"y":2541708.6500000022}},{"attributes":{"ID":173675,"DIS_CODE":0,"TOWNNAME":"南區","LI":"大林里","LIN":"19鄰","STREET":"大林路","SECT":" ","MAREA":" ","LANE":"１１１巷","ALLEY":"９弄","HOUSE_NO":"１９號","E_COORD97":169212.42000000001,"N_COORD97":2541709.9399999999,"ADDRESS":"大林路１１１巷９弄１９號","OBJECTID":173674},"geometry":{"x":169212.42000000086,"y":2541709.9400000013}},{"attributes":{"ID":173676,"DIS_CODE":0,"TOWNNAME":"南區","LI":"大林里","LIN":"19鄰","STREET":"大林路","SECT":" ","MAREA":" ","LANE":"１１１巷","ALLEY":"９弄","HOUSE_NO":"１號","E_COORD97":169166.09,"N_COORD97":2541700.9100000001,"ADDRESS":"大林路１１１巷９弄１號","OBJECTID":173675},"geometry":{"x":169166.08999999985,"y":2541700.910000002}},{"attributes":{"ID":173677,"DIS_CODE":0,"TOWNNAME":"南區","LI":"田寮里","LIN":"19鄰","STREET":"西門路","SECT":"一段","MAREA":" ","LANE":"２２３巷","ALLEY":"１０弄","HOUSE_NO":"１０號","E_COORD97":167700.48999999999,"N_COORD97":2541843.8599999999,"ADDRESS":"西門路一段２２３巷１０弄１０號","OBJECTID":173676},"geometry":{"x":167700.49000000115,"y":2541843.8599999994}},{"attributes":{"ID":173678,"DIS_CODE":0,"TOWNNAME":"南區","LI":"田寮里","LIN":"19鄰","STREET":"西門路","SECT":"一段","MAREA":" ","LANE":"２２３巷","ALLEY":"１０弄","HOUSE_NO":"１１號","E_COORD97":167645.88,"N_COORD97":2541843.48,"ADDRESS":"西門路一段２２３巷１０弄１１號","OBJECTID":173677},"geometry":{"x":167645.87999999989,"y":2541843.4800000004}},{"attributes":{"ID":173679,"DIS_CODE":0,"TOWNNAME":"南區","LI":"田寮里","LIN":"19鄰","STREET":"西門路","SECT":"一段","MAREA":" ","LANE":"２２３巷","ALLEY":"１０弄","HOUSE_NO":"１２號","E_COORD97":167692.92000000001,"N_COORD97":2541843.9900000002,"ADDRESS":"西門路一段２２３巷１０弄１２號","OBJECTID":173678},"geometry":{"x":167692.91999999993,"y":2541843.9900000002}},{"attributes":{"ID":173680,"DIS_CODE":0,"TOWNNAME":"南區","LI":"田寮里","LIN":"19鄰","STREET":"西門路","SECT":"一段","MAREA":" ","LANE":"２２３巷","ALLEY":"１０弄","HOUSE_NO":"１３號","E_COORD97":167653.82999999999,"N_COORD97":2541842.8399999999,"ADDRESS":"西門路一段２２３巷１０弄１３號","OBJECTID":173679},"geometry":{"x":167653.83000000101,"y":2541842.8400000017}},{"attributes":{"ID":173681,"DIS_CODE":0,"TOWNNAME":"東區","LI":"崇文里","LIN":"24鄰","STREET":"崇德二十一街","SECT":" ","MAREA":" ","LANE":" ","ALLEY":" ","HOUSE_NO":"１０８號","E_COORD97":171091.57999999999,"N_COORD97":2540849.3300000001,"ADDRESS":"崇德二十一街１０８號","OBJECTID":173680},"geometry":{"x":171091.58000000101,"y":2540849.3300000019}},{"attributes":{"ID":173682,"DIS_CODE":0,"TOWNNAME":"東區","LI":"崇文里","LIN":"24鄰","STREET":"崇德二十一街","SECT":" ","MAREA":" ","LANE":" ","ALLEY":" ","HOUSE_NO":"１１０號","E_COORD97":171095.85999999999,"N_COORD97":2540849.1299999999,"ADDRESS":"崇德二十一街１１０號","OBJECTID":173681},"geometry":{"x":171095.86000000034,"y":2540849.1300000027}},{"attributes":{"ID":173683,"DIS_CODE":0,"TOWNNAME":"南區","LI":"田寮里","LIN":"19鄰","STREET":"西門路","SECT":"一段","MAREA":" ","LANE":"２２３巷","ALLEY":"１０弄","HOUSE_NO":"１４號","E_COORD97":167685.10000000001,"N_COORD97":2541843.3500000001,"ADDRESS":"西門路一段２２３巷１０弄１４號","OBJECTID":173682},"geometry":{"x":167685.10000000149,"y":2541843.3499999996}},{"attributes":{"ID":173684,"DIS_CODE":0,"TOWNNAME":"南區","LI":"田寮里","LIN":"19鄰","STREET":"西門路","SECT":"一段","MAREA":" ","LANE":"２２３巷","ALLEY":"１０弄","HOUSE_NO":"３號","E_COORD97":167654.25,"N_COORD97":2541826.0099999998,"ADDRESS":"西門路一段２２３巷１０弄３號","OBJECTID":173683},"geometry":{"x":167654.25000000093,"y":2541826.0099999998}},{"attributes":{"ID":173685,"DIS_CODE":0,"TOWNNAME":"南區","LI":"田寮里","LIN":"19鄰","STREET":"西門路","SECT":"一段","MAREA":" ","LANE":"２２３巷","ALLEY":"１０弄","HOUSE_NO":"４號","E_COORD97":167685.42999999999,"N_COORD97":2541825.0299999998,"ADDRESS":"西門路一段２２３巷１０弄４號","OBJECTID":173684},"geometry":{"x":167685.4299999997,"y":2541825.0299999993}},{"attributes":{"ID":173686,"DIS_CODE":0,"TOWNNAME":"麻豆區","LI":"中興里","LIN":"10鄰","STREET":"和平路","SECT":" ","MAREA":" ","LANE":" ","ALLEY":" ","HOUSE_NO":"３號之４","E_COORD97":173042.66,"N_COORD97":2564352.7200000002,"ADDRESS":"和平路３號之４","OBJECTID":173685},"geometry":{"x":173042.66000000108,"y":2564352.7200000025}},{"attributes":{"ID":173687,"DIS_CODE":0,"TOWNNAME":"南區","LI":"金華里","LIN":"10鄰","STREET":"尊南街","SECT":" ","MAREA":" ","LANE":" ","ALLEY":" ","HOUSE_NO":"２４４號","E_COORD97":166859.01000000001,"N_COORD97":2542299.2000000002,"ADDRESS":"尊南街２４４號","OBJECTID":173686},"geometry":{"x":166859.01000000071,"y":2542299.1999999993}},{"attributes":{"ID":173688,"DIS_CODE":0,"TOWNNAME":"南區","LI":"金華里","LIN":"10鄰","STREET":"尊南街","SECT":" ","MAREA":" ","LANE":" ","ALLEY":" ","HOUSE_NO":"２４６號","E_COORD97":166858.48999999999,"N_COORD97":2542302.3599999999,"ADDRESS":"尊南街２４６號","OBJECTID":173687},"geometry":{"x":166858.49000000022,"y":2542302.3600000031}},{"attributes":{"ID":173689,"DIS_CODE":0,"TOWNNAME":"南區","LI":"金華里","LIN":"10鄰","STREET":"聖南街","SECT":" ","MAREA":" ","LANE":" ","ALLEY":" ","HOUSE_NO":"１０１號","E_COORD97":166915.07999999999,"N_COORD97":2542239.0099999998,"ADDRESS":"聖南街１０１號","OBJECTID":173688},"geometry":{"x":166915.08000000101,"y":2542239.0099999998}},{"attributes":{"ID":173690,"DIS_CODE":0,"TOWNNAME":"南區","LI":"田寮里","LIN":"19鄰","STREET":"西門路","SECT":"一段","MAREA":" ","LANE":"２２３巷","ALLEY":"１０弄","HOUSE_NO":"５號","E_COORD97":167646.20999999999,"N_COORD97":2541825.3500000001,"ADDRESS":"西門路一段２２３巷１０弄５號","OBJECTID":173689},"geometry":{"x":167646.21000000089,"y":2541825.3500000015}},{"attributes":{"ID":173691,"DIS_CODE":0,"TOWNNAME":"南區","LI":"田寮里","LIN":"19鄰","STREET":"西門路","SECT":"一段","MAREA":" ","LANE":"２２３巷","ALLEY":"１０弄","HOUSE_NO":"６號","E_COORD97":167692.32000000001,"N_COORD97":2541825.3500000001,"ADDRESS":"西門路一段２２３巷１０弄６號","OBJECTID":173690},"geometry":{"x":167692.3200000003,"y":2541825.3500000015}},{"attributes":{"ID":173692,"DIS_CODE":0,"TOWNNAME":"南區","LI":"田寮里","LIN":"19鄰","STREET":"西門路","SECT":"一段","MAREA":" ","LANE":"２２３巷","ALLEY":"１０弄","HOUSE_NO":"７號","E_COORD97":167638.88,"N_COORD97":2541827.7799999998,"ADDRESS":"西門路一段２２３巷１０弄７號","OBJECTID":173691},"geometry":{"x":167638.87999999989,"y":2541827.7799999993}},{"attributes":{"ID":173693,"DIS_CODE":0,"TOWNNAME":"東山區","LI":"大客里","LIN":"10鄰","STREET":" ","SECT":" ","MAREA":"大庄","LANE":" ","ALLEY":" ","HOUSE_NO":"８０號","E_COORD97":189923.48000000001,"N_COORD97":2579004.3300000001,"ADDRESS":"大庄８０號","OBJECTID":173692},"geometry":{"x":189923.48000000045,"y":2579004.3300000019}},{"attributes":{"ID":173694,"DIS_CODE":0,"TOWNNAME":"東山區","LI":"大客里","LIN":"10鄰","STREET":" ","SECT":" ","MAREA":"大庄","LANE":" ","ALLEY":" ","HOUSE_NO":"８１號","E_COORD97":189902.75,"N_COORD97":2578938.02,"ADDRESS":"大庄８１號","OBJECTID":173693},"geometry":{"x":189902.75,"y":2578938.0200000033}},{"attributes":{"ID":173695,"DIS_CODE":0,"TOWNNAME":"南區","LI":"田寮里","LIN":"19鄰","STREET":"西門路","SECT":"一段","MAREA":" ","LANE":"２２３巷","ALLEY":"１０弄","HOUSE_NO":"８號","E_COORD97":167700.35999999999,"N_COORD97":2541825.3500000001,"ADDRESS":"西門路一段２２３巷１０弄８號","OBJECTID":173694},"geometry":{"x":167700.36000000034,"y":2541825.3500000015}},{"attributes":{"ID":173696,"DIS_CODE":0,"TOWNNAME":"南區","LI":"田寮里","LIN":"19鄰","STREET":"西門路","SECT":"一段","MAREA":" ","LANE":"２２３巷","ALLEY":"１０弄","HOUSE_NO":"９號","E_COORD97":167638.81,"N_COORD97":2541843.3500000001,"ADDRESS":"西門路一段２２３巷１０弄９號","OBJECTID":173695},"geometry":{"x":167638.80999999959,"y":2541843.3499999996}},{"attributes":{"ID":173697,"DIS_CODE":0,"TOWNNAME":"南區","LI":"田寮里","LIN":"21鄰","STREET":"西門路","SECT":"一段","MAREA":" ","LANE":"２７９巷","ALLEY":"１６弄","HOUSE_NO":"１０號","E_COORD97":167649.42000000001,"N_COORD97":2541995.6400000001,"ADDRESS":"西門路一段２７９巷１６弄１０號","OBJECTID":173696},"geometry":{"x":167649.42000000086,"y":2541995.6400000006}},{"attributes":{"ID":173698,"DIS_CODE":0,"TOWNNAME":"南區","LI":"田寮里","LIN":"22鄰","STREET":"西門路","SECT":"一段","MAREA":" ","LANE":"２７９巷","ALLEY":"１６弄","HOUSE_NO":"１１號","E_COORD97":167618.20999999999,"N_COORD97":2542012.3500000001,"ADDRESS":"西門路一段２７９巷１６弄１１號","OBJECTID":173697},"geometry":{"x":167618.20999999996,"y":2542012.3500000015}},{"attributes":{"ID":173699,"DIS_CODE":0,"TOWNNAME":"玉井區","LI":"玉田里","LIN":"24鄰","STREET":"中華路","SECT":" ","MAREA":" ","LANE":"１９２巷","ALLEY":"８弄","HOUSE_NO":"４號","E_COORD97":195142.76000000001,"N_COORD97":2557816.25,"ADDRESS":"中華路１９２巷８弄４號","OBJECTID":173698},"geometry":{"x":195142.76000000164,"y":2557816.2500000019}},{"attributes":{"ID":173700,"DIS_CODE":0,"TOWNNAME":"玉井區","LI":"玉田里","LIN":"26鄰","STREET":"中山路","SECT":" ","MAREA":" ","LANE":"３巷","ALLEY":"２９弄","HOUSE_NO":"２３號","E_COORD97":194837.35000000001,"N_COORD97":2557762.2400000002,"ADDRESS":"中山路３巷２９弄２３號","OBJECTID":173699},"geometry":{"x":194837.35000000056,"y":2557762.2400000021}},{"attributes":{"ID":173701,"DIS_CODE":0,"TOWNNAME":"南區","LI":"金華里","LIN":"10鄰","STREET":"聖南街","SECT":" ","MAREA":" ","LANE":" ","ALLEY":" ","HOUSE_NO":"１０３號","E_COORD97":166906.42000000001,"N_COORD97":2542241.1800000002,"ADDRESS":"聖南街１０３號","OBJECTID":173700},"geometry":{"x":166906.41999999993,"y":2542241.1799999997}},{"attributes":{"ID":173702,"DIS_CODE":0,"TOWNNAME":"新營區","LI":"三仙里","LIN":"10鄰","STREET":"三興街","SECT":" ","MAREA":" ","LANE":" ","ALLEY":" ","HOUSE_NO":"１６號","E_COORD97":179495.63,"N_COORD97":2578156.4900000002,"ADDRESS":"三興街１６號","OBJECTID":173701},"geometry":{"x":179495.63000000082,"y":2578156.4900000021}},{"attributes":{"ID":173703,"DIS_CODE":0,"TOWNNAME":"北區","LI":"長德里","LIN":"10鄰","STREET":"長北街","SECT":" ","MAREA":" ","LANE":" ","ALLEY":" ","HOUSE_NO":"１７８號","E_COORD97":168539.20999999999,"N_COORD97":2544922.48,"ADDRESS":"長北街１７８號","OBJECTID":173702},"geometry":{"x":168539.21000000089,"y":2544922.4800000004}},{"attributes":{"ID":173704,"DIS_CODE":0,"TOWNNAME":"玉井區","LI":"玉田里","LIN":"26鄰","STREET":"中山路","SECT":" ","MAREA":" ","LANE":"３巷","ALLEY":"２９弄","HOUSE_NO":"３號","E_COORD97":194846.89999999999,"N_COORD97":2557772.2400000002,"ADDRESS":"中山路３巷２９弄３號","OBJECTID":173703},"geometry":{"x":194846.90000000037,"y":2557772.2400000021}},{"attributes":{"ID":173705,"DIS_CODE":0,"TOWNNAME":"玉井區","LI":"玉田里","LIN":"26鄰","STREET":"中山路","SECT":" ","MAREA":" ","LANE":"３巷","ALLEY":"２９弄","HOUSE_NO":"９號","E_COORD97":194848.60000000001,"N_COORD97":2557761.2400000002,"ADDRESS":"中山路３巷２９弄９號","OBJECTID":173704},"geometry":{"x":194848.59999999963,"y":2557761.2400000021}},{"attributes":{"ID":173706,"DIS_CODE":0,"TOWNNAME":"玉井區","LI":"玉田里","LIN":"26鄰","STREET":"中山路","SECT":" ","MAREA":" ","LANE":"３巷","ALLEY":"２９弄","HOUSE_NO":"７號","E_COORD97":194848.10999999999,"N_COORD97":2557765.2400000002,"ADDRESS":"中山路３巷２９弄７號","OBJECTID":173705},"geometry":{"x":194848.11000000127,"y":2557765.2400000021}},{"attributes":{"ID":173707,"DIS_CODE":0,"TOWNNAME":"玉井區","LI":"玉田里","LIN":"26鄰","STREET":"中山路","SECT":" ","MAREA":" ","LANE":"３巷","ALLEY":"２９弄","HOUSE_NO":"５號","E_COORD97":194847.39999999999,"N_COORD97":2557768.23,"ADDRESS":"中山路３巷２９弄５號","OBJECTID":173706},"geometry":{"x":194847.39999999944,"y":2557768.2300000023}},{"attributes":{"ID":173708,"DIS_CODE":0,"TOWNNAME":"玉井區","LI":"玉田里","LIN":"26鄰","STREET":"中山路","SECT":" ","MAREA":" ","LANE":"３巷","ALLEY":"２９弄","HOUSE_NO":"１５號","E_COORD97":194851.45999999999,"N_COORD97":2557750.2400000002,"ADDRESS":"中山路３巷２９弄１５號","OBJECTID":173707},"geometry":{"x":194851.45999999996,"y":2557750.2399999984}},{"attributes":{"ID":173709,"DIS_CODE":0,"TOWNNAME":"玉井區","LI":"玉田里","LIN":"26鄰","STREET":"中山路","SECT":" ","MAREA":" ","LANE":"３巷","ALLEY":"２９弄","HOUSE_NO":"１３號","E_COORD97":194850.85000000001,"N_COORD97":2557753.2400000002,"ADDRESS":"中山路３巷２９弄１３號","OBJECTID":173708},"geometry":{"x":194850.85000000056,"y":2557753.2400000002}},{"attributes":{"ID":173710,"DIS_CODE":0,"TOWNNAME":"玉井區","LI":"玉田里","LIN":"26鄰","STREET":"中山路","SECT":" ","MAREA":" ","LANE":"３巷","ALLEY":"２９弄","HOUSE_NO":"１９號","E_COORD97":194861.04999999999,"N_COORD97":2557736.25,"ADDRESS":"中山路３巷２９弄１９號","OBJECTID":173709},"geometry":{"x":194861.04999999888,"y":2557736.25}},{"attributes":{"ID":173711,"DIS_CODE":0,"TOWNNAME":"歸仁區","LI":"七甲里","LIN":"20鄰","STREET":"南潭三街","SECT":" ","MAREA":" ","LANE":"１６５巷","ALLEY":"７弄","HOUSE_NO":"７號","E_COORD97":176458.81,"N_COORD97":2543298.0299999998,"ADDRESS":"南潭三街１６５巷７弄７號","OBJECTID":173710},"geometry":{"x":176458.80999999959,"y":2543298.0300000031}},{"attributes":{"ID":173712,"DIS_CODE":0,"TOWNNAME":"玉井區","LI":"玉田里","LIN":"26鄰","STREET":"中山路","SECT":" ","MAREA":" ","LANE":"３巷","ALLEY":"２２弄","HOUSE_NO":"５號","E_COORD97":194941.60000000001,"N_COORD97":2557790.2400000002,"ADDRESS":"中山路３巷２２弄５號","OBJECTID":173711},"geometry":{"x":194941.59999999963,"y":2557790.2400000002}},{"attributes":{"ID":173713,"DIS_CODE":0,"TOWNNAME":"玉井區","LI":"玉田里","LIN":"26鄰","STREET":"中山路","SECT":" ","MAREA":" ","LANE":"３巷","ALLEY":"２９弄","HOUSE_NO":"１７號","E_COORD97":194851.35000000001,"N_COORD97":2557743.25,"ADDRESS":"中山路３巷２９弄１７號","OBJECTID":173712},"geometry":{"x":194851.34999999963,"y":2557743.2499999981}},{"attributes":{"ID":173714,"DIS_CODE":0,"TOWNNAME":"玉井區","LI":"玉田里","LIN":"26鄰","STREET":"中山路","SECT":" ","MAREA":" ","LANE":"３巷","ALLEY":"２９弄","HOUSE_NO":"２７號","E_COORD97":194836.04999999999,"N_COORD97":2557768.23,"ADDRESS":"中山路３巷２９弄２７號","OBJECTID":173713},"geometry":{"x":194836.05000000075,"y":2557768.2300000023}},{"attributes":{"ID":173715,"DIS_CODE":0,"TOWNNAME":"北區","LI":"長德里","LIN":"10鄰","STREET":"長北街","SECT":" ","MAREA":" ","LANE":" ","ALLEY":" ","HOUSE_NO":"１８０號","E_COORD97":168532.98000000001,"N_COORD97":2544934.2400000002,"ADDRESS":"長北街１８０號","OBJECTID":173714},"geometry":{"x":168532.98000000138,"y":2544934.2400000002}},{"attributes":{"ID":173716,"DIS_CODE":0,"TOWNNAME":"北區","LI":"長德里","LIN":"10鄰","STREET":"長北街","SECT":" ","MAREA":" ","LANE":" ","ALLEY":" ","HOUSE_NO":"１８８號","E_COORD97":168533.32000000001,"N_COORD97":2544939.0899999999,"ADDRESS":"長北街１８８號","OBJECTID":173715},"geometry":{"x":168533.3200000003,"y":2544939.0900000036}},{"attributes":{"ID":173717,"DIS_CODE":0,"TOWNNAME":"北區","LI":"長德里","LIN":"10鄰","STREET":"長北街","SECT":" ","MAREA":" ","LANE":" ","ALLEY":" ","HOUSE_NO":"１９０號","E_COORD97":168534.01999999999,"N_COORD97":2544943.2400000002,"ADDRESS":"長北街１９０號","OBJECTID":173716},"geometry":{"x":168534.01999999955,"y":2544943.2400000021}},{"attributes":{"ID":173718,"DIS_CODE":0,"TOWNNAME":"北區","LI":"長德里","LIN":"10鄰","STREET":"長北街","SECT":" ","MAREA":" ","LANE":" ","ALLEY":" ","HOUSE_NO":"１９２號","E_COORD97":168528.47,"N_COORD97":2544950.5099999998,"ADDRESS":"長北街１９２號","OBJECTID":173717},"geometry":{"x":168528.4700000016,"y":2544950.5100000016}},{"attributes":{"ID":173719,"DIS_CODE":0,"TOWNNAME":"北區","LI":"長德里","LIN":"10鄰","STREET":"長北街","SECT":" ","MAREA":" ","LANE":" ","ALLEY":" ","HOUSE_NO":"１５６號","E_COORD97":168507.67999999999,"N_COORD97":2544884.7599999998,"ADDRESS":"長北街１５６號","OBJECTID":173718},"geometry":{"x":168507.6799999997,"y":2544884.7600000016}},{"attributes":{"ID":173720,"DIS_CODE":0,"TOWNNAME":"北區","LI":"長德里","LIN":"10鄰","STREET":"長北街","SECT":" ","MAREA":" ","LANE":" ","ALLEY":" ","HOUSE_NO":"１６０號","E_COORD97":168511.84,"N_COORD97":2544891.3399999999,"ADDRESS":"長北街１６０號","OBJECTID":173719},"geometry":{"x":168511.83999999985,"y":2544891.3400000017}},{"attributes":{"ID":173721,"DIS_CODE":0,"TOWNNAME":"東區","LI":"龍山里","LIN":"18鄰","STREET":"府連路","SECT":" ","MAREA":" ","LANE":" ","ALLEY":" ","HOUSE_NO":"４５１之２號","E_COORD97":169744.54999999999,"N_COORD97":2543013.21,"ADDRESS":"府連路４５１之２號","OBJECTID":173720},"geometry":{"x":169744.54999999981,"y":2543013.209999999}},{"attributes":{"ID":173722,"DIS_CODE":0,"TOWNNAME":"玉井區","LI":"玉田里","LIN":"26鄰","STREET":"中山路","SECT":" ","MAREA":" ","LANE":"３巷","ALLEY":"２９弄","HOUSE_NO":"１號","E_COORD97":194846.60000000001,"N_COORD97":2557777.2400000002,"ADDRESS":"中山路３巷２９弄１號","OBJECTID":173721},"geometry":{"x":194846.59999999963,"y":2557777.2400000002}},{"attributes":{"ID":173723,"DIS_CODE":0,"TOWNNAME":"東區","LI":"崇文里","LIN":"13鄰","STREET":"崇德十九街","SECT":" ","MAREA":" ","LANE":" ","ALLEY":" ","HOUSE_NO":"８７號","E_COORD97":171035.16,"N_COORD97":2540989.0600000001,"ADDRESS":"崇德十九街８７號","OBJECTID":173722},"geometry":{"x":171035.16000000108,"y":2540989.0600000005}},{"attributes":{"ID":173724,"DIS_CODE":0,"TOWNNAME":"東山區","LI":"大客里","LIN":"10鄰","STREET":" ","SECT":" ","MAREA":"大庄","LANE":" ","ALLEY":" ","HOUSE_NO":"５９號","E_COORD97":189862.23999999999,"N_COORD97":2578956.2799999998,"ADDRESS":"大庄５９號","OBJECTID":173723},"geometry":{"x":189862.24000000022,"y":2578956.2800000031}},{"attributes":{"ID":173725,"DIS_CODE":0,"TOWNNAME":"東山區","LI":"大客里","LIN":"10鄰","STREET":" ","SECT":" ","MAREA":"大庄","LANE":" ","ALLEY":" ","HOUSE_NO":"５８號","E_COORD97":189847.63,"N_COORD97":2578955.1099999999,"ADDRESS":"大庄５８號","OBJECTID":173724},"geometry":{"x":189847.62999999989,"y":2578955.1100000013}},{"attributes":{"ID":173726,"DIS_CODE":0,"TOWNNAME":"玉井區","LI":"玉田里","LIN":"26鄰","STREET":"中山路","SECT":" ","MAREA":" ","LANE":"３巷","ALLEY":"２２弄","HOUSE_NO":"６號","E_COORD97":194944.39999999999,"N_COORD97":2557791.2400000002,"ADDRESS":"中山路３巷２２弄６號","OBJECTID":173725},"geometry":{"x":194944.4000000013,"y":2557791.2400000039}},{"attributes":{"ID":173727,"DIS_CODE":0,"TOWNNAME":"玉井區","LI":"玉田里","LIN":"26鄰","STREET":"中山路","SECT":" ","MAREA":" ","LANE":"３巷","ALLEY":"２２弄","HOUSE_NO":"１號","E_COORD97":194925.39999999999,"N_COORD97":2557788.2400000002,"ADDRESS":"中山路３巷２２弄１號","OBJECTID":173726},"geometry":{"x":194925.39999999944,"y":2557788.2400000021}},{"attributes":{"ID":173728,"DIS_CODE":0,"TOWNNAME":"玉井區","LI":"玉田里","LIN":"26鄰","STREET":"中山路","SECT":" ","MAREA":" ","LANE":"３巷","ALLEY":"２２弄","HOUSE_NO":"３號","E_COORD97":194934.01000000001,"N_COORD97":2557789.2400000002,"ADDRESS":"中山路３巷２２弄３號","OBJECTID":173727},"geometry":{"x":194934.00999999978,"y":2557789.2400000021}},{"attributes":{"ID":173729,"DIS_CODE":0,"TOWNNAME":"北區","LI":"長德里","LIN":"10鄰","STREET":"長北街","SECT":" ","MAREA":" ","LANE":" ","ALLEY":" ","HOUSE_NO":"１６２號","E_COORD97":168514.26999999999,"N_COORD97":2544898.6000000001,"ADDRESS":"長北街１６２號","OBJECTID":173728},"geometry":{"x":168514.26999999955,"y":2544898.6000000015}},{"attributes":{"ID":173730,"DIS_CODE":0,"TOWNNAME":"歸仁區","LI":"七甲里","LIN":"18鄰","STREET":"南潭三街","SECT":" ","MAREA":" ","LANE":"１６２巷","ALLEY":"７弄","HOUSE_NO":"２號","E_COORD97":176436.51000000001,"N_COORD97":2543141.02,"ADDRESS":"南潭三街１６２巷７弄２號","OBJECTID":173729},"geometry":{"x":176436.51000000071,"y":2543141.0199999996}},{"attributes":{"ID":173731,"DIS_CODE":0,"TOWNNAME":"歸仁區","LI":"歸南里","LIN":"24鄰","STREET":"民生八街","SECT":" ","MAREA":" ","LANE":"２１巷","ALLEY":"１弄","HOUSE_NO":"７號","E_COORD97":176134.41,"N_COORD97":2540309.25,"ADDRESS":"民生八街２１巷１弄７號","OBJECTID":173730},"geometry":{"x":176134.41000000108,"y":2540309.25}},{"attributes":{"ID":173732,"DIS_CODE":0,"TOWNNAME":"歸仁區","LI":"歸南里","LIN":"18鄰","STREET":"民生八街","SECT":" ","MAREA":" ","LANE":"２８巷","ALLEY":"２弄","HOUSE_NO":"１０號","E_COORD97":176137.06,"N_COORD97":2540374.25,"ADDRESS":"民生八街２８巷２弄１０號","OBJECTID":173731},"geometry":{"x":176137.05999999959,"y":2540374.2499999981}},{"attributes":{"ID":173733,"DIS_CODE":0,"TOWNNAME":"歸仁區","LI":"媽廟里","LIN":"7鄰","STREET":"中正北路","SECT":"三段","MAREA":" ","LANE":"２０５巷","ALLEY":"２３弄","HOUSE_NO":"５號","E_COORD97":177505.70999999999,"N_COORD97":2543863.7200000002,"ADDRESS":"中正北路三段２０５巷２３弄５號","OBJECTID":173732},"geometry":{"x":177505.71000000089,"y":2543863.7200000007}},{"attributes":{"ID":173734,"DIS_CODE":0,"TOWNNAME":"南區","LI":"文南里","LIN":"4鄰","STREET":"金華路","SECT":"二段","MAREA":" ","LANE":"２８９巷","ALLEY":"５弄","HOUSE_NO":"２４號","E_COORD97":167060.82999999999,"N_COORD97":2542707.4300000002,"ADDRESS":"金華路二段２８９巷５弄２４號","OBJECTID":173733},"geometry":{"x":167060.83000000101,"y":2542707.4299999997}},{"attributes":{"ID":173735,"DIS_CODE":0,"TOWNNAME":"南區","LI":"文南里","LIN":"4鄰","STREET":"金華路","SECT":"二段","MAREA":" ","LANE":"２８９巷","ALLEY":"５弄","HOUSE_NO":"２６號","E_COORD97":167060.64000000001,"N_COORD97":2542703.0600000001,"ADDRESS":"金華路二段２８９巷５弄２６號","OBJECTID":173734},"geometry":{"x":167060.63999999966,"y":2542703.0600000024}},{"attributes":{"ID":173736,"DIS_CODE":0,"TOWNNAME":"南區","LI":"文南里","LIN":"4鄰","STREET":"金華路","SECT":"二段","MAREA":" ","LANE":"２８９巷","ALLEY":"５弄","HOUSE_NO":"２８號","E_COORD97":167060.06,"N_COORD97":2542698.3100000001,"ADDRESS":"金華路二段２８９巷５弄２８號","OBJECTID":173735},"geometry":{"x":167060.06000000052,"y":2542698.3100000024}},{"attributes":{"ID":173737,"DIS_CODE":0,"TOWNNAME":"南區","LI":"文南里","LIN":"4鄰","STREET":"金華路","SECT":"二段","MAREA":" ","LANE":"２８９巷","ALLEY":"５弄","HOUSE_NO":"３２號","E_COORD97":167059.88,"N_COORD97":2542689.5699999998,"ADDRESS":"金華路二段２８９巷５弄３２號","OBJECTID":173736},"geometry":{"x":167059.88000000082,"y":2542689.5700000022}},{"attributes":{"ID":173738,"DIS_CODE":0,"TOWNNAME":"南區","LI":"文南里","LIN":"4鄰","STREET":"金華路","SECT":"二段","MAREA":" ","LANE":"２８９巷","ALLEY":"５弄","HOUSE_NO":"３４號","E_COORD97":167058.73000000001,"N_COORD97":2542684.6299999999,"ADDRESS":"金華路二段２８９巷５弄３４號","OBJECTID":173737},"geometry":{"x":167058.73000000045,"y":2542684.6300000008}},{"attributes":{"ID":173739,"DIS_CODE":0,"TOWNNAME":"南區","LI":"文南里","LIN":"4鄰","STREET":"金華路","SECT":"二段","MAREA":" ","LANE":"２８９巷","ALLEY":"５弄","HOUSE_NO":"３６號","E_COORD97":167058.17000000001,"N_COORD97":2542680.0600000001,"ADDRESS":"金華路二段２８９巷５弄３６號","OBJECTID":173738},"geometry":{"x":167058.17000000086,"y":2542680.0600000024}},{"attributes":{"ID":173740,"DIS_CODE":0,"TOWNNAME":"南區","LI":"文南里","LIN":"4鄰","STREET":"金華路","SECT":"二段","MAREA":" ","LANE":"２８９巷","ALLEY":"５弄","HOUSE_NO":"３８號","E_COORD97":167057.59,"N_COORD97":2542669.9900000002,"ADDRESS":"金華路二段２８９巷５弄３８號","OBJECTID":173739},"geometry":{"x":167057.58999999985,"y":2542669.9900000021}},{"attributes":{"ID":173741,"DIS_CODE":0,"TOWNNAME":"南區","LI":"文南里","LIN":"4鄰","STREET":"金華路","SECT":"二段","MAREA":" ","LANE":"２８９巷","ALLEY":"５弄","HOUSE_NO":"４０號","E_COORD97":167057.59,"N_COORD97":2542666.3900000001,"ADDRESS":"金華路二段２８９巷５弄４０號","OBJECTID":173740},"geometry":{"x":167057.58999999985,"y":2542666.3900000025}},{"attributes":{"ID":173742,"DIS_CODE":0,"TOWNNAME":"南區","LI":"文南里","LIN":"4鄰","STREET":"金華路","SECT":"二段","MAREA":" ","LANE":"２８９巷","ALLEY":"５弄","HOUSE_NO":"４２號","E_COORD97":167057.22,"N_COORD97":2542662.0099999998,"ADDRESS":"金華路二段２８９巷５弄４２號","OBJECTID":173741},"geometry":{"x":167057.2200000016,"y":2542662.0100000016}},{"attributes":{"ID":173743,"DIS_CODE":0,"TOWNNAME":"南區","LI":"文南里","LIN":"4鄰","STREET":"金華路","SECT":"二段","MAREA":" ","LANE":"２８９巷","ALLEY":"５弄","HOUSE_NO":"５０號","E_COORD97":167055.88,"N_COORD97":2542643.3900000001,"ADDRESS":"金華路二段２８９巷５弄５０號","OBJECTID":173742},"geometry":{"x":167055.87999999989,"y":2542643.3900000025}},{"attributes":{"ID":173744,"DIS_CODE":0,"TOWNNAME":"安平區","LI":"石門里","LIN":"10鄰","STREET":"安北路","SECT":" ","MAREA":" ","LANE":"３１巷","ALLEY":" ","HOUSE_NO":"１號","E_COORD97":164601.14000000001,"N_COORD97":2544524.0299999998,"ADDRESS":"安北路３１巷１號","OBJECTID":173743},"geometry":{"x":164601.13999999873,"y":2544524.0299999993}},{"attributes":{"ID":173745,"DIS_CODE":0,"TOWNNAME":"善化區","LI":"文昌里","LIN":"15鄰","STREET":"永福路","SECT":" ","MAREA":" ","LANE":" ","ALLEY":" ","HOUSE_NO":"２１號六樓","E_COORD97":177619.32000000001,"N_COORD97":2558884.75,"ADDRESS":"永福路２１號六樓","OBJECTID":173744},"geometry":{"x":177619.3200000003,"y":2558884.75}},{"attributes":{"ID":173746,"DIS_CODE":0,"TOWNNAME":"善化區","LI":"文昌里","LIN":"15鄰","STREET":"永福路","SECT":" ","MAREA":" ","LANE":" ","ALLEY":" ","HOUSE_NO":"１３號四樓","E_COORD97":177616.12,"N_COORD97":2558898.25,"ADDRESS":"永福路１３號四樓","OBJECTID":173745},"geometry":{"x":177616.12000000104,"y":2558898.25}},{"attributes":{"ID":173747,"DIS_CODE":0,"TOWNNAME":"善化區","LI":"文昌里","LIN":"15鄰","STREET":"永福路","SECT":" ","MAREA":" ","LANE":" ","ALLEY":" ","HOUSE_NO":"２１號四樓","E_COORD97":177619.32000000001,"N_COORD97":2558884.75,"ADDRESS":"永福路２１號四樓","OBJECTID":173746},"geometry":{"x":177619.3200000003,"y":2558884.75}},{"attributes":{"ID":173748,"DIS_CODE":0,"TOWNNAME":"西港區","LI":"營西里","LIN":"11鄰","STREET":" ","SECT":" ","MAREA":"後營","LANE":" ","ALLEY":" ","HOUSE_NO":"９０號","E_COORD97":169686.04999999999,"N_COORD97":2560497.5899999999,"ADDRESS":"後營９０號","OBJECTID":173747},"geometry":{"x":169686.05000000075,"y":2560497.5900000036}},{"attributes":{"ID":173749,"DIS_CODE":0,"TOWNNAME":"善化區","LI":"文昌里","LIN":"15鄰","STREET":"大信路","SECT":" ","MAREA":" ","LANE":" ","ALLEY":" ","HOUSE_NO":"７３號八樓","E_COORD97":177617.62,"N_COORD97":2558761.5,"ADDRESS":"大信路７３號八樓","OBJECTID":173748},"geometry":{"x":177617.62000000197,"y":2558761.5}},{"attributes":{"ID":173750,"DIS_CODE":0,"TOWNNAME":"善化區","LI":"文昌里","LIN":"15鄰","STREET":"大信路","SECT":" ","MAREA":" ","LANE":" ","ALLEY":" ","HOUSE_NO":"６７號八樓之２","E_COORD97":177598.59,"N_COORD97":2558743.52,"ADDRESS":"大信路６７號八樓之２","OBJECTID":173749},"geometry":{"x":177598.58999999985,"y":2558743.5199999996}},{"attributes":{"ID":173751,"DIS_CODE":0,"TOWNNAME":"善化區","LI":"文昌里","LIN":"15鄰","STREET":"大信路","SECT":" ","MAREA":" ","LANE":" ","ALLEY":" ","HOUSE_NO":"６７號十三樓之１","E_COORD97":177599.04000000001,"N_COORD97":2558743.52,"ADDRESS":"大信路６７號十三樓之１","OBJECTID":173750},"geometry":{"x":177599.04000000004,"y":2558743.5199999996}},{"attributes":{"ID":173752,"DIS_CODE":0,"TOWNNAME":"善化區","LI":"文昌里","LIN":"15鄰","STREET":"永福路","SECT":" ","MAREA":" ","LANE":" ","ALLEY":" ","HOUSE_NO":"２３號八樓","E_COORD97":177613.85999999999,"N_COORD97":2558882.5,"ADDRESS":"永福路２３號八樓","OBJECTID":173751},"geometry":{"x":177613.86000000034,"y":2558882.5000000019}},{"attributes":{"ID":173753,"DIS_CODE":0,"TOWNNAME":"善化區","LI":"文昌里","LIN":"15鄰","STREET":"大信路","SECT":" ","MAREA":" ","LANE":" ","ALLEY":" ","HOUSE_NO":"６１號八樓","E_COORD97":177589.53,"N_COORD97":2558766.25,"ADDRESS":"大信路６１號八樓","OBJECTID":173752},"geometry":{"x":177589.53000000212,"y":2558766.25}},{"attributes":{"ID":173754,"DIS_CODE":0,"TOWNNAME":"麻豆區","LI":"港尾里","LIN":"10鄰","STREET":" ","SECT":" ","MAREA":"港子尾","LANE":" ","ALLEY":" ","HOUSE_NO":"６１號","E_COORD97":168411.66,"N_COORD97":2567013.1400000001,"ADDRESS":"港子尾６１號","OBJECTID":173753},"geometry":{"x":168411.66000000015,"y":2567013.1400000006}},{"attributes":{"ID":173755,"DIS_CODE":0,"TOWNNAME":"南區","LI":"文南里","LIN":" ","STREET":"金華路","SECT":"二段","MAREA":" ","LANE":"２８９巷","ALLEY":"５弄","HOUSE_NO":"４６號","E_COORD97":167057.22,"N_COORD97":2542657.0699999998,"ADDRESS":"金華路二段２８９巷５弄４６號","OBJECTID":173754},"geometry":{"x":167057.2200000016,"y":2542657.0700000003}},{"attributes":{"ID":173756,"DIS_CODE":0,"TOWNNAME":"北區","LI":"正風里","LIN":"4鄰","STREET":"公園路","SECT":" ","MAREA":" ","LANE":"９１８巷","ALLEY":"１１弄","HOUSE_NO":"１０號","E_COORD97":169470.67999999999,"N_COORD97":2546154.6099999999,"ADDRESS":"公園路９１８巷１１弄１０號","OBJECTID":173755},"geometry":{"x":169470.6799999997,"y":2546154.6099999994}},{"attributes":{"ID":173757,"DIS_CODE":0,"TOWNNAME":"北區","LI":"正風里","LIN":"4鄰","STREET":"公園路","SECT":" ","MAREA":" ","LANE":"９１８巷","ALLEY":"１１弄","HOUSE_NO":"１４號","E_COORD97":169483.26999999999,"N_COORD97":2546166.3900000001,"ADDRESS":"公園路９１８巷１１弄１４號","OBJECTID":173756},"geometry":{"x":169483.26999999955,"y":2546166.3900000025}},{"attributes":{"ID":173758,"DIS_CODE":0,"TOWNNAME":"北區","LI":"正風里","LIN":"4鄰","STREET":"公園路","SECT":" ","MAREA":" ","LANE":"９１８巷","ALLEY":"１１弄","HOUSE_NO":"１６號","E_COORD97":169481.57999999999,"N_COORD97":2546159.3100000001,"ADDRESS":"公園路９１８巷１１弄１６號","OBJECTID":173757},"geometry":{"x":169481.58000000101,"y":2546159.3100000024}},{"attributes":{"ID":173759,"DIS_CODE":0,"TOWNNAME":"北區","LI":"正風里","LIN":"4鄰","STREET":"公園路","SECT":" ","MAREA":" ","LANE":"９１８巷","ALLEY":"１１弄","HOUSE_NO":"１８號","E_COORD97":169479.35999999999,"N_COORD97":2546153.7200000002,"ADDRESS":"公園路９１８巷１１弄１８號","OBJECTID":173758},"geometry":{"x":169479.36000000127,"y":2546153.7200000025}},{"attributes":{"ID":173760,"DIS_CODE":0,"TOWNNAME":"北區","LI":"正風里","LIN":"4鄰","STREET":"公園路","SECT":" ","MAREA":" ","LANE":"９１８巷","ALLEY":"１１弄","HOUSE_NO":"２號","E_COORD97":169458.98000000001,"N_COORD97":2546159.3900000001,"ADDRESS":"公園路９１８巷１１弄２號","OBJECTID":173759},"geometry":{"x":169458.98000000138,"y":2546159.3900000025}},{"attributes":{"ID":173761,"DIS_CODE":0,"TOWNNAME":"北區","LI":"正風里","LIN":"4鄰","STREET":"公園路","SECT":" ","MAREA":" ","LANE":"９１８巷","ALLEY":"１１弄","HOUSE_NO":"４號","E_COORD97":169462.70000000001,"N_COORD97":2546157.9700000002,"ADDRESS":"公園路９１８巷１１弄４號","OBJECTID":173760},"geometry":{"x":169462.70000000019,"y":2546157.9700000044}},{"attributes":{"ID":173762,"DIS_CODE":0,"TOWNNAME":"北區","LI":"正風里","LIN":"4鄰","STREET":"公園路","SECT":" ","MAREA":" ","LANE":"９１８巷","ALLEY":"１１弄","HOUSE_NO":"６號","E_COORD97":169463.85999999999,"N_COORD97":2546157.27,"ADDRESS":"公園路９１８巷１１弄６號","OBJECTID":173761},"geometry":{"x":169463.8599999994,"y":2546157.2699999996}},{"attributes":{"ID":173763,"DIS_CODE":0,"TOWNNAME":"北區","LI":"正風里","LIN":"4鄰","STREET":"公園路","SECT":" ","MAREA":" ","LANE":"９１８巷","ALLEY":"１１弄","HOUSE_NO":"８號","E_COORD97":169467.22,"N_COORD97":2546155.5800000001,"ADDRESS":"公園路９１８巷１１弄８號","OBJECTID":173762},"geometry":{"x":169467.21999999974,"y":2546155.5800000001}},{"attributes":{"ID":173764,"DIS_CODE":0,"TOWNNAME":"北區","LI":"正風里","LIN":"4鄰","STREET":"公園路","SECT":" ","MAREA":" ","LANE":"９３４巷","ALLEY":"２９弄","HOUSE_NO":"２號","E_COORD97":169478.35999999999,"N_COORD97":2546203.71,"ADDRESS":"公園路９３４巷２９弄２號","OBJECTID":173763},"geometry":{"x":169478.36000000127,"y":2546203.7100000046}},{"attributes":{"ID":173765,"DIS_CODE":0,"TOWNNAME":"北區","LI":"正風里","LIN":"4鄰","STREET":"公園路","SECT":" ","MAREA":" ","LANE":"９３４巷","ALLEY":"２９弄","HOUSE_NO":"６號","E_COORD97":169494.32999999999,"N_COORD97":2546215.3799999999,"ADDRESS":"公園路９３４巷２９弄６號","OBJECTID":173764},"geometry":{"x":169494.32999999914,"y":2546215.3800000008}},{"attributes":{"ID":173766,"DIS_CODE":0,"TOWNNAME":"北區","LI":"正覺里","LIN":"19鄰","STREET":"公園路","SECT":" ","MAREA":" ","LANE":"６８１巷","ALLEY":"１８弄","HOUSE_NO":"１２號","E_COORD97":169432.67999999999,"N_COORD97":2546384.7799999998,"ADDRESS":"公園路６８１巷１８弄１２號","OBJECTID":173765},"geometry":{"x":169432.68000000063,"y":2546384.7800000031}},{"attributes":{"ID":173767,"DIS_CODE":0,"TOWNNAME":"北區","LI":"正覺里","LIN":"19鄰","STREET":"公園路","SECT":" ","MAREA":" ","LANE":"６８１巷","ALLEY":"１８弄","HOUSE_NO":"１４號","E_COORD97":169434.92999999999,"N_COORD97":2546389.3100000001,"ADDRESS":"公園路６８１巷１８弄１４號","OBJECTID":173766},"geometry":{"x":169434.9299999997,"y":2546389.3100000042}},{"attributes":{"ID":173768,"DIS_CODE":0,"TOWNNAME":"善化區","LI":"文昌里","LIN":"15鄰","STREET":"永福路","SECT":" ","MAREA":" ","LANE":" ","ALLEY":" ","HOUSE_NO":"３１號四樓","E_COORD97":177589.42000000001,"N_COORD97":2558888.75,"ADDRESS":"永福路３１號四樓","OBJECTID":173767},"geometry":{"x":177589.41999999993,"y":2558888.75}},{"attributes":{"ID":173769,"DIS_CODE":0,"TOWNNAME":"善化區","LI":"文昌里","LIN":"15鄰","STREET":"大信路","SECT":" ","MAREA":" ","LANE":" ","ALLEY":" ","HOUSE_NO":"６１號十二樓","E_COORD97":177590.03,"N_COORD97":2558766.25,"ADDRESS":"大信路６１號十二樓","OBJECTID":173768},"geometry":{"x":177590.03000000119,"y":2558766.25}},{"attributes":{"ID":173770,"DIS_CODE":0,"TOWNNAME":"善化區","LI":"文昌里","LIN":"15鄰","STREET":"永福路","SECT":" ","MAREA":" ","LANE":" ","ALLEY":" ","HOUSE_NO":"３５號四樓","E_COORD97":177580.22,"N_COORD97":2558885.9900000002,"ADDRESS":"永福路３５號四樓","OBJECTID":173769},"geometry":{"x":177580.21999999974,"y":2558885.9900000021}},{"attributes":{"ID":173771,"DIS_CODE":0,"TOWNNAME":"北區","LI":"正覺里","LIN":"19鄰","STREET":"公園路","SECT":" ","MAREA":" ","LANE":"６８１巷","ALLEY":"１８弄","HOUSE_NO":"１６號","E_COORD97":169436.09,"N_COORD97":2546394.54,"ADDRESS":"公園路６８１巷１８弄１６號","OBJECTID":173770},"geometry":{"x":169436.08999999985,"y":2546394.540000001}},{"attributes":{"ID":173772,"DIS_CODE":0,"TOWNNAME":"北區","LI":"正覺里","LIN":"19鄰","STREET":"公園路","SECT":" ","MAREA":" ","LANE":"６８１巷","ALLEY":"１８弄","HOUSE_NO":"１８號","E_COORD97":169413.17000000001,"N_COORD97":2546371.3799999999,"ADDRESS":"公園路６８１巷１８弄１８號","OBJECTID":173771},"geometry":{"x":169413.16999999993,"y":2546371.3800000008}},{"attributes":{"ID":173773,"DIS_CODE":0,"TOWNNAME":"北區","LI":"正覺里","LIN":"19鄰","STREET":"公園路","SECT":" ","MAREA":" ","LANE":"６８１巷","ALLEY":"１８弄","HOUSE_NO":"１號","E_COORD97":169438.42000000001,"N_COORD97":2546398.5299999998,"ADDRESS":"公園路６８１巷１８弄１號","OBJECTID":173772},"geometry":{"x":169438.42000000086,"y":2546398.5299999993}},{"attributes":{"ID":173774,"DIS_CODE":0,"TOWNNAME":"北區","LI":"正覺里","LIN":"19鄰","STREET":"公園路","SECT":" ","MAREA":" ","LANE":"６８１巷","ALLEY":"１８弄","HOUSE_NO":"２０號","E_COORD97":169439.17000000001,"N_COORD97":2546401.5299999998,"ADDRESS":"公園路６８１巷１８弄２０號","OBJECTID":173773},"geometry":{"x":169439.16999999993,"y":2546401.5300000012}},{"attributes":{"ID":173775,"DIS_CODE":0,"TOWNNAME":"北區","LI":"正覺里","LIN":"25鄰","STREET":"公園路","SECT":" ","MAREA":" ","LANE":"７６９巷","ALLEY":"３０弄","HOUSE_NO":"１０號","E_COORD97":169524.81,"N_COORD97":2546514.0099999998,"ADDRESS":"公園路７６９巷３０弄１０號","OBJECTID":173774},"geometry":{"x":169524.81000000052,"y":2546514.0100000016}},{"attributes":{"ID":173776,"DIS_CODE":0,"TOWNNAME":"北區","LI":"正覺里","LIN":"25鄰","STREET":"公園路","SECT":" ","MAREA":" ","LANE":"７６９巷","ALLEY":"３０弄","HOUSE_NO":"１１號","E_COORD97":169515.78,"N_COORD97":2546501.2200000002,"ADDRESS":"公園路７６９巷３０弄１１號","OBJECTID":173775},"geometry":{"x":169515.78000000119,"y":2546501.2200000007}},{"attributes":{"ID":173777,"DIS_CODE":0,"TOWNNAME":"北區","LI":"正覺里","LIN":"25鄰","STREET":"公園路","SECT":" ","MAREA":" ","LANE":"７６９巷","ALLEY":"３０弄","HOUSE_NO":"１２號","E_COORD97":169520.67999999999,"N_COORD97":2546515.1299999999,"ADDRESS":"公園路７６９巷３０弄１２號","OBJECTID":173776},"geometry":{"x":169520.68000000063,"y":2546515.1300000008}},{"attributes":{"ID":173778,"DIS_CODE":0,"TOWNNAME":"安平區","LI":"平安里","LIN":"20鄰","STREET":"民權路","SECT":"四段","MAREA":" ","LANE":"６７９巷","ALLEY":"２弄","HOUSE_NO":"２號","E_COORD97":164887.79999999999,"N_COORD97":2544607.2200000002,"ADDRESS":"民權路四段６７９巷２弄２號","OBJECTID":173777},"geometry":{"x":164887.79999999981,"y":2544607.2200000025}},{"attributes":{"ID":173779,"DIS_CODE":0,"TOWNNAME":"安平區","LI":"海頭里","LIN":"13鄰","STREET":"安北路","SECT":" ","MAREA":" ","LANE":"１２１巷","ALLEY":"１６弄","HOUSE_NO":"９號","E_COORD97":164149.11294799999,"N_COORD97":2544759.6615499998,"ADDRESS":"安北路１２１巷１６弄９號","OBJECTID":173778},"geometry":{"x":164149.1129479995,"y":2544759.6615480017}},{"attributes":{"ID":173780,"DIS_CODE":0,"TOWNNAME":"安平區","LI":"港仔里","LIN":"17鄰","STREET":"運河路","SECT":" ","MAREA":" ","LANE":"１３巷","ALLEY":"３１弄","HOUSE_NO":"１號","E_COORD97":164167.64999999999,"N_COORD97":2544493.2599999998,"ADDRESS":"運河路１３巷３１弄１號","OBJECTID":173779},"geometry":{"x":164167.65000000037,"y":2544493.2599999979}},{"attributes":{"ID":173781,"DIS_CODE":0,"TOWNNAME":"六甲區","LI":"六甲里","LIN":"4鄰","STREET":"民權街","SECT":" ","MAREA":" ","LANE":"２７巷","ALLEY":"１弄","HOUSE_NO":"２號","E_COORD97":183473.85999999999,"N_COORD97":2569595.7799999998,"ADDRESS":"民權街２７巷１弄２號","OBJECTID":173780},"geometry":{"x":183473.86000000034,"y":2569595.7800000012}},{"attributes":{"ID":173782,"DIS_CODE":0,"TOWNNAME":"六甲區","LI":"甲東里","LIN":"4鄰","STREET":"忠孝街","SECT":" ","MAREA":" ","LANE":"２１７巷","ALLEY":"１４弄","HOUSE_NO":"２號","E_COORD97":183955.42999999999,"N_COORD97":2570085.1800000002,"ADDRESS":"忠孝街２１７巷１４弄２號","OBJECTID":173781},"geometry":{"x":183955.43000000063,"y":2570085.1800000016}},{"attributes":{"ID":173783,"DIS_CODE":0,"TOWNNAME":"六甲區","LI":"甲東里","LIN":"4鄰","STREET":"忠孝街","SECT":" ","MAREA":" ","LANE":"２１７巷","ALLEY":"１４弄","HOUSE_NO":"４號","E_COORD97":183940.85999999999,"N_COORD97":2570095.8900000001,"ADDRESS":"忠孝街２１７巷１４弄４號","OBJECTID":173782},"geometry":{"x":183940.8600000022,"y":2570095.8900000025}},{"attributes":{"ID":173784,"DIS_CODE":0,"TOWNNAME":"六甲區","LI":"甲東里","LIN":"4鄰","STREET":"忠孝街","SECT":" ","MAREA":" ","LANE":"２１７巷","ALLEY":"２弄","HOUSE_NO":"１號","E_COORD97":183995.37,"N_COORD97":2570112.8799999999,"ADDRESS":"忠孝街２１７巷２弄１號","OBJECTID":173783},"geometry":{"x":183995.37000000104,"y":2570112.8800000027}},{"attributes":{"ID":173785,"DIS_CODE":0,"TOWNNAME":"六甲區","LI":"甲東里","LIN":"5鄰","STREET":"忠孝街","SECT":" ","MAREA":" ","LANE":"２１７巷","ALLEY":"１４弄","HOUSE_NO":"１號","E_COORD97":183932.79000000001,"N_COORD97":2570065.25,"ADDRESS":"忠孝街２１７巷１４弄１號","OBJECTID":173784},"geometry":{"x":183932.79000000097,"y":2570065.2500000019}},{"attributes":{"ID":173786,"DIS_CODE":0,"TOWNNAME":"六甲區","LI":"二甲里","LIN":"24鄰","STREET":"信義街","SECT":" ","MAREA":" ","LANE":"３１８巷","ALLEY":"１４弄","HOUSE_NO":"１０號","E_COORD97":183398.14999999999,"N_COORD97":2569933.46,"ADDRESS":"信義街３１８巷１４弄１０號","OBJECTID":173785},"geometry":{"x":183398.15000000224,"y":2569933.4600000009}},{"attributes":{"ID":173787,"DIS_CODE":0,"TOWNNAME":"六甲區","LI":"二甲里","LIN":"24鄰","STREET":"信義街","SECT":" ","MAREA":" ","LANE":"３１８巷","ALLEY":"１４弄","HOUSE_NO":"２號","E_COORD97":183415.10999999999,"N_COORD97":2569927.8900000001,"ADDRESS":"信義街３１８巷１４弄２號","OBJECTID":173786},"geometry":{"x":183415.11000000034,"y":2569927.8899999987}},{"attributes":{"ID":173788,"DIS_CODE":0,"TOWNNAME":"六甲區","LI":"二甲里","LIN":"24鄰","STREET":"信義街","SECT":" ","MAREA":" ","LANE":"３１８巷","ALLEY":"１４弄","HOUSE_NO":"４號","E_COORD97":183410.91,"N_COORD97":2569929.1400000001,"ADDRESS":"信義街３１８巷１４弄４號","OBJECTID":173787},"geometry":{"x":183410.91000000015,"y":2569929.1400000006}},{"attributes":{"ID":173789,"DIS_CODE":0,"TOWNNAME":"六甲區","LI":"二甲里","LIN":"24鄰","STREET":"信義街","SECT":" ","MAREA":" ","LANE":"３１８巷","ALLEY":"１４弄","HOUSE_NO":"６號","E_COORD97":183406.67000000001,"N_COORD97":2569930.5899999999,"ADDRESS":"信義街３１８巷１４弄６號","OBJECTID":173788},"geometry":{"x":183406.67000000086,"y":2569930.5900000017}},{"attributes":{"ID":173790,"DIS_CODE":0,"TOWNNAME":"六甲區","LI":"二甲里","LIN":"24鄰","STREET":"信義街","SECT":" ","MAREA":" ","LANE":"３１８巷","ALLEY":"１４弄","HOUSE_NO":"８號","E_COORD97":183403.14000000001,"N_COORD97":2569931.7599999998,"ADDRESS":"信義街３１８巷１４弄８號","OBJECTID":173789},"geometry":{"x":183403.1400000006,"y":2569931.7600000035}},{"attributes":{"ID":173791,"DIS_CODE":0,"TOWNNAME":"六甲區","LI":"二甲里","LIN":"26鄰","STREET":"建工街","SECT":" ","MAREA":" ","LANE":"５９巷","ALLEY":"２弄","HOUSE_NO":"３號","E_COORD97":183173.09,"N_COORD97":2569431.6400000001,"ADDRESS":"建工街５９巷２弄３號","OBJECTID":173790},"geometry":{"x":183173.09000000078,"y":2569431.6400000043}},{"attributes":{"ID":173792,"DIS_CODE":0,"TOWNNAME":"六甲區","LI":"二甲里","LIN":"26鄰","STREET":"建工街","SECT":" ","MAREA":" ","LANE":"５９巷","ALLEY":"２弄","HOUSE_NO":"５號","E_COORD97":183176.67999999999,"N_COORD97":2569430.2000000002,"ADDRESS":"建工街５９巷２弄５號","OBJECTID":173791},"geometry":{"x":183176.6799999997,"y":2569430.2000000011}},{"attributes":{"ID":173793,"DIS_CODE":0,"TOWNNAME":"六甲區","LI":"二甲里","LIN":"26鄰","STREET":"建工街","SECT":" ","MAREA":" ","LANE":"５９巷","ALLEY":"２弄","HOUSE_NO":"７號","E_COORD97":183180.38,"N_COORD97":2569428.8599999999,"ADDRESS":"建工街５９巷２弄７號","OBJECTID":173792},"geometry":{"x":183180.37999999989,"y":2569428.8600000031}},{"attributes":{"ID":173794,"DIS_CODE":0,"TOWNNAME":"六甲區","LI":"二甲里","LIN":"26鄰","STREET":"建工街","SECT":" ","MAREA":" ","LANE":"５９巷","ALLEY":"２弄","HOUSE_NO":"９號","E_COORD97":183184.82000000001,"N_COORD97":2569427.7400000002,"ADDRESS":"建工街５９巷２弄９號","OBJECTID":173793},"geometry":{"x":183184.8200000003,"y":2569427.7400000021}},{"attributes":{"ID":173795,"DIS_CODE":0,"TOWNNAME":"新營區","LI":"南紙里","LIN":"26鄰","STREET":"建業路","SECT":" ","MAREA":" ","LANE":"２２７巷","ALLEY":"２４弄","HOUSE_NO":"１８號","E_COORD97":178000.31,"N_COORD97":2577341.9500000002,"ADDRESS":"建業路２２７巷２４弄１８號","OBJECTID":173794},"geometry":{"x":178000.30999999959,"y":2577341.9500000011}},{"attributes":{"ID":173796,"DIS_CODE":0,"TOWNNAME":"歸仁區","LI":"媽廟里","LIN":"27鄰","STREET":"保大路","SECT":"一段","MAREA":" ","LANE":"１５２巷","ALLEY":"９０弄","HOUSE_NO":"６號","E_COORD97":177608.31557800001,"N_COORD97":2544569.2428299999,"ADDRESS":"保大路一段１５２巷９０弄６號","OBJECTID":173795},"geometry":{"x":177608.31557800062,"y":2544569.2428280022}},{"attributes":{"ID":173797,"DIS_CODE":0,"TOWNNAME":"善化區","LI":"文昌里","LIN":"15鄰","STREET":"大信路","SECT":" ","MAREA":" ","LANE":" ","ALLEY":" ","HOUSE_NO":"６５號十樓","E_COORD97":177596.48999999999,"N_COORD97":2558748,"ADDRESS":"大信路６５號十樓","OBJECTID":173796},"geometry":{"x":177596.49000000209,"y":2558748}},{"attributes":{"ID":173798,"DIS_CODE":0,"TOWNNAME":"南區","LI":"喜東里","LIN":"10鄰","STREET":"明興路","SECT":" ","MAREA":" ","LANE":" ","ALLEY":" ","HOUSE_NO":"５５７號之１","E_COORD97":166211.35000000001,"N_COORD97":2538350.7999999998,"ADDRESS":"明興路５５７號之１","OBJECTID":173797},"geometry":{"x":166211.34999999963,"y":2538350.8000000045}},{"attributes":{"ID":173799,"DIS_CODE":0,"TOWNNAME":"西港區","LI":"慶安里","LIN":"14鄰","STREET":"進學街","SECT":" ","MAREA":" ","LANE":" ","ALLEY":" ","HOUSE_NO":"９９號","E_COORD97":167982.60999999999,"N_COORD97":2558016.7000000002,"ADDRESS":"進學街９９號","OBJECTID":173798},"geometry":{"x":167982.61000000127,"y":2558016.6999999993}},{"attributes":{"ID":173800,"DIS_CODE":0,"TOWNNAME":"南區","LI":"廣州里","LIN":"10鄰","STREET":"夏林路","SECT":" ","MAREA":" ","LANE":" ","ALLEY":" ","HOUSE_NO":"４號","E_COORD97":167405.85999999999,"N_COORD97":2542876.2400000002,"ADDRESS":"夏林路４號","OBJECTID":173799},"geometry":{"x":167405.86000000034,"y":2542876.2400000002}},{"attributes":{"ID":173801,"DIS_CODE":0,"TOWNNAME":"安平區","LI":"西門里","LIN":"10鄰","STREET":"國勝路","SECT":" ","MAREA":" ","LANE":" ","ALLEY":" ","HOUSE_NO":"１０７號","E_COORD97":163978.48000000001,"N_COORD97":2544788.1299999999,"ADDRESS":"國勝路１０７號","OBJECTID":173800},"geometry":{"x":163978.48000000138,"y":2544788.129999999}}]}