{"displayFieldName":"TOWNNAME","fieldAliases":{"ID":"ID","DIS_CODE":"DIS_CODE","TOWNNAME":"TOWNNAME","LI":"LI","LIN":"LIN","STREET":"STREET","SECT":"SECT","MAREA":"MAREA","LANE":"LANE","ALLEY":"ALLEY","HOUSE_NO":"HOUSE_NO","E_COORD97":"E_COORD97","N_COORD97":"N_COORD97","ADDRESS":"ADDRESS","OBJECTID":"OBJECTID"},"geometryType":"esriGeometryPoint","spatialReference":{"wkid":102443,"latestWkid":3826},"fields":[{"name":"ID","type":"esriFieldTypeDouble","alias":"ID"},{"name":"DIS_CODE","type":"esriFieldTypeInteger","alias":"DIS_CODE"},{"name":"TOWNNAME","type":"esriFieldTypeString","alias":"TOWNNAME","length":8},{"name":"LI","type":"esriFieldTypeString","alias":"LI","length":8},{"name":"LIN","type":"esriFieldTypeString","alias":"LIN","length":12},{"name":"STREET","type":"esriFieldTypeString","alias":"STREET","length":20},{"name":"SECT","type":"esriFieldTypeString","alias":"SECT","length":8},{"name":"MAREA","type":"esriFieldTypeString","alias":"MAREA","length":12},{"name":"LANE","type":"esriFieldTypeString","alias":"LANE","length":10},{"name":"ALLEY","type":"esriFieldTypeString","alias":"ALLEY","length":10},{"name":"HOUSE_NO","type":"esriFieldTypeString","alias":"HOUSE_NO","length":20},{"name":"E_COORD97","type":"esriFieldTypeDouble","alias":"E_COORD97"},{"name":"N_COORD97","type":"esriFieldTypeDouble","alias":"N_COORD97"},{"name":"ADDRESS","type":"esriFieldTypeString","alias":"ADDRESS","length":50},{"name":"OBJECTID","type":"esriFieldTypeOID","alias":"OBJECTID"}],"features":[{"attributes":{"ID":599028,"DIS_CODE":0,"TOWNNAME":"東區","LI":"自強里","LIN":"27鄰","STREET":"中華東路","SECT":"二段","MAREA":" ","LANE":" ","ALLEY":" ","HOUSE_NO":"１６７號十一樓之２０","E_COORD97":171382.85000000001,"N_COORD97":2542838.9700000002,"ADDRESS":"中華東路二段１６７號十一樓之２０","OBJECTID":599001},"geometry":{"x":171382.85000000056,"y":2542838.9700000025}},{"attributes":{"ID":599029,"DIS_CODE":0,"TOWNNAME":"東區","LI":"自強里","LIN":"27鄰","STREET":"中華東路","SECT":"二段","MAREA":" ","LANE":" ","ALLEY":" ","HOUSE_NO":"１６７號十一樓之２１","E_COORD97":171382.85000000001,"N_COORD97":2542838.9700000002,"ADDRESS":"中華東路二段１６７號十一樓之２１","OBJECTID":599002},"geometry":{"x":171382.85000000056,"y":2542838.9700000025}},{"attributes":{"ID":599030,"DIS_CODE":0,"TOWNNAME":"東區","LI":"自強里","LIN":"27鄰","STREET":"中華東路","SECT":"二段","MAREA":" ","LANE":" ","ALLEY":" ","HOUSE_NO":"１６７號十一樓之２２","E_COORD97":171382.85000000001,"N_COORD97":2542838.9700000002,"ADDRESS":"中華東路二段１６７號十一樓之２２","OBJECTID":599003},"geometry":{"x":171382.85000000056,"y":2542838.9700000025}},{"attributes":{"ID":599031,"DIS_CODE":0,"TOWNNAME":"東區","LI":"自強里","LIN":"27鄰","STREET":"中華東路","SECT":"二段","MAREA":" ","LANE":" ","ALLEY":" ","HOUSE_NO":"１６７號四樓之１","E_COORD97":171382.85000000001,"N_COORD97":2542838.9700000002,"ADDRESS":"中華東路二段１６７號四樓之１","OBJECTID":599004},"geometry":{"x":171382.85000000056,"y":2542838.9700000025}},{"attributes":{"ID":599032,"DIS_CODE":0,"TOWNNAME":"永康區","LI":"復國里","LIN":"7鄰","STREET":"復國一路","SECT":" ","MAREA":" ","LANE":" ","ALLEY":" ","HOUSE_NO":"２４０號","E_COORD97":172770.79999999999,"N_COORD97":2545291.2799999998,"ADDRESS":"復國一路２４０號","OBJECTID":599005},"geometry":{"x":172770.79999999981,"y":2545291.2800000012}},{"attributes":{"ID":599033,"DIS_CODE":0,"TOWNNAME":"永康區","LI":"崑山里","LIN":"1鄰","STREET":"大灣路","SECT":" ","MAREA":" ","LANE":" ","ALLEY":" ","HOUSE_NO":"７９９號","E_COORD97":173781.70999999999,"N_COORD97":2544434.1800000002,"ADDRESS":"大灣路７９９號","OBJECTID":599006},"geometry":{"x":173781.70999999996,"y":2544434.1800000016}},{"attributes":{"ID":599034,"DIS_CODE":0,"TOWNNAME":"永康區","LI":"勝利里","LIN":"33鄰","STREET":"中華路","SECT":" ","MAREA":" ","LANE":" ","ALLEY":" ","HOUSE_NO":"１號之１２５","E_COORD97":171503.26000000001,"N_COORD97":2544353.0499999998,"ADDRESS":"中華路１號之１２５","OBJECTID":599007},"geometry":{"x":171503.25999999885,"y":2544353.0500000007}},{"attributes":{"ID":599035,"DIS_CODE":0,"TOWNNAME":"東區","LI":"自強里","LIN":"27鄰","STREET":"中華東路","SECT":"二段","MAREA":" ","LANE":" ","ALLEY":" ","HOUSE_NO":"１６７號四樓之２","E_COORD97":171382.85000000001,"N_COORD97":2542838.9700000002,"ADDRESS":"中華東路二段１６７號四樓之２","OBJECTID":599008},"geometry":{"x":171382.85000000056,"y":2542838.9700000025}},{"attributes":{"ID":599036,"DIS_CODE":0,"TOWNNAME":"東區","LI":"自強里","LIN":"27鄰","STREET":"中華東路","SECT":"二段","MAREA":" ","LANE":" ","ALLEY":" ","HOUSE_NO":"１６７號四樓之３","E_COORD97":171382.85000000001,"N_COORD97":2542838.9700000002,"ADDRESS":"中華東路二段１６７號四樓之３","OBJECTID":599009},"geometry":{"x":171382.85000000056,"y":2542838.9700000025}},{"attributes":{"ID":599037,"DIS_CODE":0,"TOWNNAME":"東區","LI":"自強里","LIN":"27鄰","STREET":"中華東路","SECT":"二段","MAREA":" ","LANE":" ","ALLEY":" ","HOUSE_NO":"１６７號四樓之５","E_COORD97":171382.85000000001,"N_COORD97":2542838.9700000002,"ADDRESS":"中華東路二段１６７號四樓之５","OBJECTID":599010},"geometry":{"x":171382.85000000056,"y":2542838.9700000025}},{"attributes":{"ID":599038,"DIS_CODE":0,"TOWNNAME":"東區","LI":"自強里","LIN":"27鄰","STREET":"中華東路","SECT":"二段","MAREA":" ","LANE":" ","ALLEY":" ","HOUSE_NO":"１６７號四樓之６","E_COORD97":171382.85000000001,"N_COORD97":2542838.9700000002,"ADDRESS":"中華東路二段１６７號四樓之６","OBJECTID":599011},"geometry":{"x":171382.85000000056,"y":2542838.9700000025}},{"attributes":{"ID":599039,"DIS_CODE":0,"TOWNNAME":"東區","LI":"自強里","LIN":"27鄰","STREET":"中華東路","SECT":"二段","MAREA":" ","LANE":" ","ALLEY":" ","HOUSE_NO":"１６７號四樓之７","E_COORD97":171382.85000000001,"N_COORD97":2542838.9700000002,"ADDRESS":"中華東路二段１６７號四樓之７","OBJECTID":599012},"geometry":{"x":171382.85000000056,"y":2542838.9700000025}},{"attributes":{"ID":599040,"DIS_CODE":0,"TOWNNAME":"東區","LI":"自強里","LIN":"27鄰","STREET":"中華東路","SECT":"二段","MAREA":" ","LANE":" ","ALLEY":" ","HOUSE_NO":"１６７號四樓之８","E_COORD97":171382.85000000001,"N_COORD97":2542838.9700000002,"ADDRESS":"中華東路二段１６７號四樓之８","OBJECTID":599013},"geometry":{"x":171382.85000000056,"y":2542838.9700000025}},{"attributes":{"ID":599041,"DIS_CODE":0,"TOWNNAME":"東區","LI":"自強里","LIN":"27鄰","STREET":"中華東路","SECT":"二段","MAREA":" ","LANE":" ","ALLEY":" ","HOUSE_NO":"１６７號四樓之９","E_COORD97":171382.85000000001,"N_COORD97":2542838.9700000002,"ADDRESS":"中華東路二段１６７號四樓之９","OBJECTID":599014},"geometry":{"x":171382.85000000056,"y":2542838.9700000025}},{"attributes":{"ID":599042,"DIS_CODE":0,"TOWNNAME":"東區","LI":"自強里","LIN":"27鄰","STREET":"中華東路","SECT":"二段","MAREA":" ","LANE":" ","ALLEY":" ","HOUSE_NO":"１６７號四樓之１０","E_COORD97":171382.85000000001,"N_COORD97":2542838.9700000002,"ADDRESS":"中華東路二段１６７號四樓之１０","OBJECTID":599015},"geometry":{"x":171382.85000000056,"y":2542838.9700000025}},{"attributes":{"ID":599043,"DIS_CODE":0,"TOWNNAME":"東區","LI":"自強里","LIN":"27鄰","STREET":"中華東路","SECT":"二段","MAREA":" ","LANE":" ","ALLEY":" ","HOUSE_NO":"１６７號四樓之１１","E_COORD97":171382.85000000001,"N_COORD97":2542838.9700000002,"ADDRESS":"中華東路二段１６７號四樓之１１","OBJECTID":599016},"geometry":{"x":171382.85000000056,"y":2542838.9700000025}},{"attributes":{"ID":599044,"DIS_CODE":0,"TOWNNAME":"東區","LI":"自強里","LIN":"27鄰","STREET":"中華東路","SECT":"二段","MAREA":" ","LANE":" ","ALLEY":" ","HOUSE_NO":"１６７號四樓之１２","E_COORD97":171382.85000000001,"N_COORD97":2542838.9700000002,"ADDRESS":"中華東路二段１６７號四樓之１２","OBJECTID":599017},"geometry":{"x":171382.85000000056,"y":2542838.9700000025}},{"attributes":{"ID":599045,"DIS_CODE":0,"TOWNNAME":"東區","LI":"自強里","LIN":"27鄰","STREET":"中華東路","SECT":"二段","MAREA":" ","LANE":" ","ALLEY":" ","HOUSE_NO":"１６７號四樓之１３","E_COORD97":171382.85000000001,"N_COORD97":2542838.9700000002,"ADDRESS":"中華東路二段１６７號四樓之１３","OBJECTID":599018},"geometry":{"x":171382.85000000056,"y":2542838.9700000025}},{"attributes":{"ID":599046,"DIS_CODE":0,"TOWNNAME":"東區","LI":"自強里","LIN":"27鄰","STREET":"中華東路","SECT":"二段","MAREA":" ","LANE":" ","ALLEY":" ","HOUSE_NO":"１６７號四樓之１５","E_COORD97":171382.85000000001,"N_COORD97":2542838.9700000002,"ADDRESS":"中華東路二段１６７號四樓之１５","OBJECTID":599019},"geometry":{"x":171382.85000000056,"y":2542838.9700000025}},{"attributes":{"ID":599047,"DIS_CODE":0,"TOWNNAME":"永康區","LI":"復國里","LIN":"17鄰","STREET":"國華街","SECT":" ","MAREA":" ","LANE":" ","ALLEY":" ","HOUSE_NO":"４２號","E_COORD97":172849.22,"N_COORD97":2545668.7999999998,"ADDRESS":"國華街４２號","OBJECTID":599020},"geometry":{"x":172849.21999999974,"y":2545668.8000000026}},{"attributes":{"ID":599048,"DIS_CODE":0,"TOWNNAME":"永康區","LI":"復國里","LIN":"17鄰","STREET":"國華街","SECT":" ","MAREA":" ","LANE":" ","ALLEY":" ","HOUSE_NO":"３０號","E_COORD97":172845.88,"N_COORD97":2545641.2799999998,"ADDRESS":"國華街３０號","OBJECTID":599021},"geometry":{"x":172845.88000000082,"y":2545641.2799999993}},{"attributes":{"ID":599049,"DIS_CODE":0,"TOWNNAME":"永康區","LI":"崑山里","LIN":"1鄰","STREET":"大灣路","SECT":" ","MAREA":" ","LANE":" ","ALLEY":" ","HOUSE_NO":"８１１號","E_COORD97":173743.67000000001,"N_COORD97":2544426.6800000002,"ADDRESS":"大灣路８１１號","OBJECTID":599022},"geometry":{"x":173743.67000000086,"y":2544426.6800000016}},{"attributes":{"ID":599050,"DIS_CODE":0,"TOWNNAME":"東區","LI":"自強里","LIN":"27鄰","STREET":"中華東路","SECT":"二段","MAREA":" ","LANE":" ","ALLEY":" ","HOUSE_NO":"１６７號四樓之１６","E_COORD97":171382.85000000001,"N_COORD97":2542838.9700000002,"ADDRESS":"中華東路二段１６７號四樓之１６","OBJECTID":599023},"geometry":{"x":171382.85000000056,"y":2542838.9700000025}},{"attributes":{"ID":599051,"DIS_CODE":0,"TOWNNAME":"東區","LI":"自強里","LIN":"27鄰","STREET":"中華東路","SECT":"二段","MAREA":" ","LANE":" ","ALLEY":" ","HOUSE_NO":"１６７號四樓之１７","E_COORD97":171382.85000000001,"N_COORD97":2542838.9700000002,"ADDRESS":"中華東路二段１６７號四樓之１７","OBJECTID":599024},"geometry":{"x":171382.85000000056,"y":2542838.9700000025}},{"attributes":{"ID":599052,"DIS_CODE":0,"TOWNNAME":"永康區","LI":"埔園里","LIN":"35鄰","STREET":"八德街","SECT":" ","MAREA":" ","LANE":" ","ALLEY":" ","HOUSE_NO":"１１號","E_COORD97":174327.14999999999,"N_COORD97":2548485.4399999999,"ADDRESS":"八德街１１號","OBJECTID":599025},"geometry":{"x":174327.14999999944,"y":2548485.4399999995}},{"attributes":{"ID":599053,"DIS_CODE":0,"TOWNNAME":"永康區","LI":"復國里","LIN":"27鄰","STREET":"復華三街","SECT":" ","MAREA":" ","LANE":" ","ALLEY":" ","HOUSE_NO":"６８號五樓之４","E_COORD97":172699.03,"N_COORD97":2545576.0499999998,"ADDRESS":"復華三街６８號五樓之４","OBJECTID":599026},"geometry":{"x":172699.03000000119,"y":2545576.0500000007}},{"attributes":{"ID":599054,"DIS_CODE":0,"TOWNNAME":"東區","LI":"自強里","LIN":"27鄰","STREET":"中華東路","SECT":"二段","MAREA":" ","LANE":" ","ALLEY":" ","HOUSE_NO":"１６７號四樓之１８","E_COORD97":171382.85000000001,"N_COORD97":2542838.9700000002,"ADDRESS":"中華東路二段１６７號四樓之１８","OBJECTID":599027},"geometry":{"x":171382.85000000056,"y":2542838.9700000025}},{"attributes":{"ID":599055,"DIS_CODE":0,"TOWNNAME":"東區","LI":"自強里","LIN":"27鄰","STREET":"中華東路","SECT":"二段","MAREA":" ","LANE":" ","ALLEY":" ","HOUSE_NO":"１６７號四樓之１９","E_COORD97":171382.85000000001,"N_COORD97":2542838.9700000002,"ADDRESS":"中華東路二段１６７號四樓之１９","OBJECTID":599028},"geometry":{"x":171382.85000000056,"y":2542838.9700000025}},{"attributes":{"ID":599056,"DIS_CODE":0,"TOWNNAME":"東區","LI":"自強里","LIN":"27鄰","STREET":"中華東路","SECT":"二段","MAREA":" ","LANE":" ","ALLEY":" ","HOUSE_NO":"１６７號四樓之２０","E_COORD97":171382.85000000001,"N_COORD97":2542838.9700000002,"ADDRESS":"中華東路二段１６７號四樓之２０","OBJECTID":599029},"geometry":{"x":171382.85000000056,"y":2542838.9700000025}},{"attributes":{"ID":599057,"DIS_CODE":0,"TOWNNAME":"東區","LI":"自強里","LIN":"27鄰","STREET":"中華東路","SECT":"二段","MAREA":" ","LANE":" ","ALLEY":" ","HOUSE_NO":"１６７號四樓之２１","E_COORD97":171382.85000000001,"N_COORD97":2542838.9700000002,"ADDRESS":"中華東路二段１６７號四樓之２１","OBJECTID":599030},"geometry":{"x":171382.85000000056,"y":2542838.9700000025}},{"attributes":{"ID":599058,"DIS_CODE":0,"TOWNNAME":"東區","LI":"自強里","LIN":"27鄰","STREET":"中華東路","SECT":"二段","MAREA":" ","LANE":" ","ALLEY":" ","HOUSE_NO":"１６７號四樓之２２","E_COORD97":171382.85000000001,"N_COORD97":2542838.9700000002,"ADDRESS":"中華東路二段１６７號四樓之２２","OBJECTID":599031},"geometry":{"x":171382.85000000056,"y":2542838.9700000025}},{"attributes":{"ID":599059,"DIS_CODE":0,"TOWNNAME":"東區","LI":"自強里","LIN":"27鄰","STREET":"中華東路","SECT":"二段","MAREA":" ","LANE":" ","ALLEY":" ","HOUSE_NO":"１６７號十樓之１","E_COORD97":171382.85000000001,"N_COORD97":2542838.9700000002,"ADDRESS":"中華東路二段１６７號十樓之１","OBJECTID":599032},"geometry":{"x":171382.85000000056,"y":2542838.9700000025}},{"attributes":{"ID":599060,"DIS_CODE":0,"TOWNNAME":"東區","LI":"自強里","LIN":"27鄰","STREET":"中華東路","SECT":"二段","MAREA":" ","LANE":" ","ALLEY":" ","HOUSE_NO":"１６７號十樓之２","E_COORD97":171382.85000000001,"N_COORD97":2542838.9700000002,"ADDRESS":"中華東路二段１６７號十樓之２","OBJECTID":599033},"geometry":{"x":171382.85000000056,"y":2542838.9700000025}},{"attributes":{"ID":599061,"DIS_CODE":0,"TOWNNAME":"東區","LI":"自強里","LIN":"27鄰","STREET":"中華東路","SECT":"二段","MAREA":" ","LANE":" ","ALLEY":" ","HOUSE_NO":"１６７號十樓之３","E_COORD97":171382.85000000001,"N_COORD97":2542838.9700000002,"ADDRESS":"中華東路二段１６７號十樓之３","OBJECTID":599034},"geometry":{"x":171382.85000000056,"y":2542838.9700000025}},{"attributes":{"ID":599062,"DIS_CODE":0,"TOWNNAME":"東區","LI":"自強里","LIN":"27鄰","STREET":"中華東路","SECT":"二段","MAREA":" ","LANE":" ","ALLEY":" ","HOUSE_NO":"１６７號十樓之５","E_COORD97":171382.85000000001,"N_COORD97":2542838.9700000002,"ADDRESS":"中華東路二段１６７號十樓之５","OBJECTID":599035},"geometry":{"x":171382.85000000056,"y":2542838.9700000025}},{"attributes":{"ID":599063,"DIS_CODE":0,"TOWNNAME":"東區","LI":"自強里","LIN":"27鄰","STREET":"中華東路","SECT":"二段","MAREA":" ","LANE":" ","ALLEY":" ","HOUSE_NO":"１６７號十樓之６","E_COORD97":171382.85000000001,"N_COORD97":2542838.9700000002,"ADDRESS":"中華東路二段１６７號十樓之６","OBJECTID":599036},"geometry":{"x":171382.85000000056,"y":2542838.9700000025}},{"attributes":{"ID":599064,"DIS_CODE":0,"TOWNNAME":"永康區","LI":"埔園里","LIN":"18鄰","STREET":"龍埔街","SECT":" ","MAREA":" ","LANE":" ","ALLEY":" ","HOUSE_NO":"５０５號","E_COORD97":173374.23000000001,"N_COORD97":2548380.25,"ADDRESS":"龍埔街５０５號","OBJECTID":599037},"geometry":{"x":173374.23000000138,"y":2548380.2500000019}},{"attributes":{"ID":599065,"DIS_CODE":0,"TOWNNAME":"永康區","LI":"復國里","LIN":"7鄰","STREET":"復國一路","SECT":" ","MAREA":" ","LANE":" ","ALLEY":" ","HOUSE_NO":"２７４號","E_COORD97":172748.29000000001,"N_COORD97":2545402.3799999999,"ADDRESS":"復國一路２７４號","OBJECTID":599038},"geometry":{"x":172748.29000000097,"y":2545402.379999999}},{"attributes":{"ID":599066,"DIS_CODE":0,"TOWNNAME":"永康區","LI":"復國里","LIN":"7鄰","STREET":"復國一路","SECT":" ","MAREA":" ","LANE":" ","ALLEY":" ","HOUSE_NO":"１５２號","E_COORD97":172723.51999999999,"N_COORD97":2545089.0299999998,"ADDRESS":"復國一路１５２號","OBJECTID":599039},"geometry":{"x":172723.51999999862,"y":2545089.0300000012}},{"attributes":{"ID":599067,"DIS_CODE":0,"TOWNNAME":"永康區","LI":"勝利里","LIN":"15鄰","STREET":"勝利街","SECT":" ","MAREA":" ","LANE":" ","ALLEY":" ","HOUSE_NO":"９９號","E_COORD97":171345.26000000001,"N_COORD97":2544873.7599999998,"ADDRESS":"勝利街９９號","OBJECTID":599040},"geometry":{"x":171345.25999999978,"y":2544873.7600000016}},{"attributes":{"ID":599068,"DIS_CODE":0,"TOWNNAME":"永康區","LI":"勝利里","LIN":"33鄰","STREET":"中華路","SECT":" ","MAREA":" ","LANE":" ","ALLEY":" ","HOUSE_NO":"１號之１４９","E_COORD97":171503.19,"N_COORD97":2544353.0499999998,"ADDRESS":"中華路１號之１４９","OBJECTID":599041},"geometry":{"x":171503.19000000134,"y":2544353.0500000007}},{"attributes":{"ID":599069,"DIS_CODE":0,"TOWNNAME":"東區","LI":"自強里","LIN":"27鄰","STREET":"中華東路","SECT":"二段","MAREA":" ","LANE":" ","ALLEY":" ","HOUSE_NO":"１６７號十樓之７","E_COORD97":171382.85000000001,"N_COORD97":2542838.9700000002,"ADDRESS":"中華東路二段１６７號十樓之７","OBJECTID":599042},"geometry":{"x":171382.85000000056,"y":2542838.9700000025}},{"attributes":{"ID":599070,"DIS_CODE":0,"TOWNNAME":"東區","LI":"自強里","LIN":"27鄰","STREET":"中華東路","SECT":"二段","MAREA":" ","LANE":" ","ALLEY":" ","HOUSE_NO":"１６７號十樓之８","E_COORD97":171382.85000000001,"N_COORD97":2542838.9700000002,"ADDRESS":"中華東路二段１６７號十樓之８","OBJECTID":599043},"geometry":{"x":171382.85000000056,"y":2542838.9700000025}},{"attributes":{"ID":599071,"DIS_CODE":0,"TOWNNAME":"東區","LI":"自強里","LIN":"27鄰","STREET":"中華東路","SECT":"二段","MAREA":" ","LANE":" ","ALLEY":" ","HOUSE_NO":"１６７號十樓之９","E_COORD97":171382.85000000001,"N_COORD97":2542838.9700000002,"ADDRESS":"中華東路二段１６７號十樓之９","OBJECTID":599044},"geometry":{"x":171382.85000000056,"y":2542838.9700000025}},{"attributes":{"ID":599072,"DIS_CODE":0,"TOWNNAME":"東區","LI":"自強里","LIN":"27鄰","STREET":"中華東路","SECT":"二段","MAREA":" ","LANE":" ","ALLEY":" ","HOUSE_NO":"１６７號十樓之１０","E_COORD97":171382.85000000001,"N_COORD97":2542838.9700000002,"ADDRESS":"中華東路二段１６７號十樓之１０","OBJECTID":599045},"geometry":{"x":171382.85000000056,"y":2542838.9700000025}},{"attributes":{"ID":599073,"DIS_CODE":0,"TOWNNAME":"東區","LI":"自強里","LIN":"27鄰","STREET":"中華東路","SECT":"二段","MAREA":" ","LANE":" ","ALLEY":" ","HOUSE_NO":"１６７號十樓之１１","E_COORD97":171382.85000000001,"N_COORD97":2542838.9700000002,"ADDRESS":"中華東路二段１６７號十樓之１１","OBJECTID":599046},"geometry":{"x":171382.85000000056,"y":2542838.9700000025}},{"attributes":{"ID":599074,"DIS_CODE":0,"TOWNNAME":"東區","LI":"自強里","LIN":"27鄰","STREET":"中華東路","SECT":"二段","MAREA":" ","LANE":" ","ALLEY":" ","HOUSE_NO":"１６７號十樓之１２","E_COORD97":171382.85000000001,"N_COORD97":2542838.9700000002,"ADDRESS":"中華東路二段１６７號十樓之１２","OBJECTID":599047},"geometry":{"x":171382.85000000056,"y":2542838.9700000025}},{"attributes":{"ID":599075,"DIS_CODE":0,"TOWNNAME":"東區","LI":"自強里","LIN":"27鄰","STREET":"中華東路","SECT":"二段","MAREA":" ","LANE":" ","ALLEY":" ","HOUSE_NO":"１６７號十樓之１３","E_COORD97":171382.85000000001,"N_COORD97":2542838.9700000002,"ADDRESS":"中華東路二段１６７號十樓之１３","OBJECTID":599048},"geometry":{"x":171382.85000000056,"y":2542838.9700000025}},{"attributes":{"ID":599076,"DIS_CODE":0,"TOWNNAME":"東區","LI":"自強里","LIN":"27鄰","STREET":"中華東路","SECT":"二段","MAREA":" ","LANE":" ","ALLEY":" ","HOUSE_NO":"１６７號十樓之１５","E_COORD97":171382.85000000001,"N_COORD97":2542838.9700000002,"ADDRESS":"中華東路二段１６７號十樓之１５","OBJECTID":599049},"geometry":{"x":171382.85000000056,"y":2542838.9700000025}},{"attributes":{"ID":599077,"DIS_CODE":0,"TOWNNAME":"東區","LI":"自強里","LIN":"27鄰","STREET":"中華東路","SECT":"二段","MAREA":" ","LANE":" ","ALLEY":" ","HOUSE_NO":"１６７號十樓之１６","E_COORD97":171382.85000000001,"N_COORD97":2542838.9700000002,"ADDRESS":"中華東路二段１６７號十樓之１６","OBJECTID":599050},"geometry":{"x":171382.85000000056,"y":2542838.9700000025}},{"attributes":{"ID":599078,"DIS_CODE":0,"TOWNNAME":"東區","LI":"自強里","LIN":"27鄰","STREET":"中華東路","SECT":"二段","MAREA":" ","LANE":" ","ALLEY":" ","HOUSE_NO":"１６７號十樓之１７","E_COORD97":171382.85000000001,"N_COORD97":2542838.9700000002,"ADDRESS":"中華東路二段１６７號十樓之１７","OBJECTID":599051},"geometry":{"x":171382.85000000056,"y":2542838.9700000025}},{"attributes":{"ID":599079,"DIS_CODE":0,"TOWNNAME":"東區","LI":"自強里","LIN":"27鄰","STREET":"中華東路","SECT":"二段","MAREA":" ","LANE":" ","ALLEY":" ","HOUSE_NO":"１６７號十樓之１８","E_COORD97":171382.85000000001,"N_COORD97":2542838.9700000002,"ADDRESS":"中華東路二段１６７號十樓之１８","OBJECTID":599052},"geometry":{"x":171382.85000000056,"y":2542838.9700000025}},{"attributes":{"ID":599080,"DIS_CODE":0,"TOWNNAME":"東區","LI":"自強里","LIN":"27鄰","STREET":"中華東路","SECT":"二段","MAREA":" ","LANE":" ","ALLEY":" ","HOUSE_NO":"１６７號十樓之１９","E_COORD97":171382.85000000001,"N_COORD97":2542838.9700000002,"ADDRESS":"中華東路二段１６７號十樓之１９","OBJECTID":599053},"geometry":{"x":171382.85000000056,"y":2542838.9700000025}},{"attributes":{"ID":599081,"DIS_CODE":0,"TOWNNAME":"東區","LI":"自強里","LIN":"27鄰","STREET":"中華東路","SECT":"二段","MAREA":" ","LANE":" ","ALLEY":" ","HOUSE_NO":"１６７號十樓之２０","E_COORD97":171382.85000000001,"N_COORD97":2542838.9700000002,"ADDRESS":"中華東路二段１６７號十樓之２０","OBJECTID":599054},"geometry":{"x":171382.85000000056,"y":2542838.9700000025}},{"attributes":{"ID":599082,"DIS_CODE":0,"TOWNNAME":"東區","LI":"自強里","LIN":"27鄰","STREET":"中華東路","SECT":"二段","MAREA":" ","LANE":" ","ALLEY":" ","HOUSE_NO":"１６７號十樓之２１","E_COORD97":171382.85000000001,"N_COORD97":2542838.9700000002,"ADDRESS":"中華東路二段１６７號十樓之２１","OBJECTID":599055},"geometry":{"x":171382.85000000056,"y":2542838.9700000025}},{"attributes":{"ID":599083,"DIS_CODE":0,"TOWNNAME":"東區","LI":"自強里","LIN":"27鄰","STREET":"中華東路","SECT":"二段","MAREA":" ","LANE":" ","ALLEY":" ","HOUSE_NO":"１６７號十樓之２２","E_COORD97":171382.85000000001,"N_COORD97":2542838.9700000002,"ADDRESS":"中華東路二段１６７號十樓之２２","OBJECTID":599056},"geometry":{"x":171382.85000000056,"y":2542838.9700000025}},{"attributes":{"ID":599084,"DIS_CODE":0,"TOWNNAME":"東區","LI":"自強里","LIN":"27鄰","STREET":"中華東路","SECT":"二段","MAREA":" ","LANE":" ","ALLEY":" ","HOUSE_NO":"１６７號九樓之１","E_COORD97":171382.85000000001,"N_COORD97":2542838.9700000002,"ADDRESS":"中華東路二段１６７號九樓之１","OBJECTID":599057},"geometry":{"x":171382.85000000056,"y":2542838.9700000025}},{"attributes":{"ID":599085,"DIS_CODE":0,"TOWNNAME":"東區","LI":"自強里","LIN":"27鄰","STREET":"中華東路","SECT":"二段","MAREA":" ","LANE":" ","ALLEY":" ","HOUSE_NO":"１６７號九樓之２","E_COORD97":171382.85000000001,"N_COORD97":2542838.9700000002,"ADDRESS":"中華東路二段１６７號九樓之２","OBJECTID":599058},"geometry":{"x":171382.85000000056,"y":2542838.9700000025}},{"attributes":{"ID":599086,"DIS_CODE":0,"TOWNNAME":"東區","LI":"自強里","LIN":"27鄰","STREET":"中華東路","SECT":"二段","MAREA":" ","LANE":" ","ALLEY":" ","HOUSE_NO":"１６７號九樓之３","E_COORD97":171382.85000000001,"N_COORD97":2542838.9700000002,"ADDRESS":"中華東路二段１６７號九樓之３","OBJECTID":599059},"geometry":{"x":171382.85000000056,"y":2542838.9700000025}},{"attributes":{"ID":599087,"DIS_CODE":0,"TOWNNAME":"東區","LI":"自強里","LIN":"27鄰","STREET":"中華東路","SECT":"二段","MAREA":" ","LANE":" ","ALLEY":" ","HOUSE_NO":"１６７號九樓之５","E_COORD97":171382.85000000001,"N_COORD97":2542838.9700000002,"ADDRESS":"中華東路二段１６７號九樓之５","OBJECTID":599060},"geometry":{"x":171382.85000000056,"y":2542838.9700000025}},{"attributes":{"ID":599088,"DIS_CODE":0,"TOWNNAME":"東區","LI":"自強里","LIN":"27鄰","STREET":"中華東路","SECT":"二段","MAREA":" ","LANE":" ","ALLEY":" ","HOUSE_NO":"１６７號九樓之６","E_COORD97":171382.85000000001,"N_COORD97":2542838.9700000002,"ADDRESS":"中華東路二段１６７號九樓之６","OBJECTID":599061},"geometry":{"x":171382.85000000056,"y":2542838.9700000025}},{"attributes":{"ID":599089,"DIS_CODE":0,"TOWNNAME":"東區","LI":"自強里","LIN":"27鄰","STREET":"中華東路","SECT":"二段","MAREA":" ","LANE":" ","ALLEY":" ","HOUSE_NO":"１６７號九樓之７","E_COORD97":171382.85000000001,"N_COORD97":2542838.9700000002,"ADDRESS":"中華東路二段１６７號九樓之７","OBJECTID":599062},"geometry":{"x":171382.85000000056,"y":2542838.9700000025}},{"attributes":{"ID":599090,"DIS_CODE":0,"TOWNNAME":"東區","LI":"自強里","LIN":"27鄰","STREET":"中華東路","SECT":"二段","MAREA":" ","LANE":" ","ALLEY":" ","HOUSE_NO":"１６７號九樓之８","E_COORD97":171382.85000000001,"N_COORD97":2542838.9700000002,"ADDRESS":"中華東路二段１６７號九樓之８","OBJECTID":599063},"geometry":{"x":171382.85000000056,"y":2542838.9700000025}},{"attributes":{"ID":599091,"DIS_CODE":0,"TOWNNAME":"東區","LI":"自強里","LIN":"27鄰","STREET":"中華東路","SECT":"二段","MAREA":" ","LANE":" ","ALLEY":" ","HOUSE_NO":"１６７號九樓之９","E_COORD97":171382.85000000001,"N_COORD97":2542838.9700000002,"ADDRESS":"中華東路二段１６７號九樓之９","OBJECTID":599064},"geometry":{"x":171382.85000000056,"y":2542838.9700000025}},{"attributes":{"ID":599092,"DIS_CODE":0,"TOWNNAME":"東區","LI":"自強里","LIN":"27鄰","STREET":"中華東路","SECT":"二段","MAREA":" ","LANE":" ","ALLEY":" ","HOUSE_NO":"１６７號九樓之１０","E_COORD97":171382.85000000001,"N_COORD97":2542838.9700000002,"ADDRESS":"中華東路二段１６７號九樓之１０","OBJECTID":599065},"geometry":{"x":171382.85000000056,"y":2542838.9700000025}},{"attributes":{"ID":599093,"DIS_CODE":0,"TOWNNAME":"東區","LI":"自強里","LIN":"27鄰","STREET":"中華東路","SECT":"二段","MAREA":" ","LANE":" ","ALLEY":" ","HOUSE_NO":"１６７號九樓之１１","E_COORD97":171382.85000000001,"N_COORD97":2542838.9700000002,"ADDRESS":"中華東路二段１６７號九樓之１１","OBJECTID":599066},"geometry":{"x":171382.85000000056,"y":2542838.9700000025}},{"attributes":{"ID":599094,"DIS_CODE":0,"TOWNNAME":"東區","LI":"自強里","LIN":"27鄰","STREET":"中華東路","SECT":"二段","MAREA":" ","LANE":" ","ALLEY":" ","HOUSE_NO":"１６７號九樓之１２","E_COORD97":171382.85000000001,"N_COORD97":2542838.9700000002,"ADDRESS":"中華東路二段１６７號九樓之１２","OBJECTID":599067},"geometry":{"x":171382.85000000056,"y":2542838.9700000025}},{"attributes":{"ID":599095,"DIS_CODE":0,"TOWNNAME":"東區","LI":"自強里","LIN":"27鄰","STREET":"中華東路","SECT":"二段","MAREA":" ","LANE":" ","ALLEY":" ","HOUSE_NO":"１６７號九樓之１３","E_COORD97":171382.85000000001,"N_COORD97":2542838.9700000002,"ADDRESS":"中華東路二段１６７號九樓之１３","OBJECTID":599068},"geometry":{"x":171382.85000000056,"y":2542838.9700000025}},{"attributes":{"ID":599096,"DIS_CODE":0,"TOWNNAME":"東區","LI":"自強里","LIN":"27鄰","STREET":"中華東路","SECT":"二段","MAREA":" ","LANE":" ","ALLEY":" ","HOUSE_NO":"１６７號九樓之１５","E_COORD97":171382.85000000001,"N_COORD97":2542838.9700000002,"ADDRESS":"中華東路二段１６７號九樓之１５","OBJECTID":599069},"geometry":{"x":171382.85000000056,"y":2542838.9700000025}},{"attributes":{"ID":599097,"DIS_CODE":0,"TOWNNAME":"東區","LI":"自強里","LIN":"27鄰","STREET":"中華東路","SECT":"二段","MAREA":" ","LANE":" ","ALLEY":" ","HOUSE_NO":"１６７號九樓之１６","E_COORD97":171382.85000000001,"N_COORD97":2542838.9700000002,"ADDRESS":"中華東路二段１６７號九樓之１６","OBJECTID":599070},"geometry":{"x":171382.85000000056,"y":2542838.9700000025}},{"attributes":{"ID":599098,"DIS_CODE":0,"TOWNNAME":"東區","LI":"自強里","LIN":"27鄰","STREET":"中華東路","SECT":"二段","MAREA":" ","LANE":" ","ALLEY":" ","HOUSE_NO":"１６７號九樓之１７","E_COORD97":171382.85000000001,"N_COORD97":2542838.9700000002,"ADDRESS":"中華東路二段１６７號九樓之１７","OBJECTID":599071},"geometry":{"x":171382.85000000056,"y":2542838.9700000025}},{"attributes":{"ID":599099,"DIS_CODE":0,"TOWNNAME":"東區","LI":"自強里","LIN":"27鄰","STREET":"中華東路","SECT":"二段","MAREA":" ","LANE":" ","ALLEY":" ","HOUSE_NO":"１６７號九樓之１８","E_COORD97":171382.85000000001,"N_COORD97":2542838.9700000002,"ADDRESS":"中華東路二段１６７號九樓之１８","OBJECTID":599072},"geometry":{"x":171382.85000000056,"y":2542838.9700000025}},{"attributes":{"ID":599100,"DIS_CODE":0,"TOWNNAME":"東區","LI":"自強里","LIN":"27鄰","STREET":"中華東路","SECT":"二段","MAREA":" ","LANE":" ","ALLEY":" ","HOUSE_NO":"１６７號九樓之１９","E_COORD97":171382.85000000001,"N_COORD97":2542838.9700000002,"ADDRESS":"中華東路二段１６７號九樓之１９","OBJECTID":599073},"geometry":{"x":171382.85000000056,"y":2542838.9700000025}},{"attributes":{"ID":599101,"DIS_CODE":0,"TOWNNAME":"東區","LI":"自強里","LIN":"27鄰","STREET":"中華東路","SECT":"二段","MAREA":" ","LANE":" ","ALLEY":" ","HOUSE_NO":"１６７號九樓之２０","E_COORD97":171382.85000000001,"N_COORD97":2542838.9700000002,"ADDRESS":"中華東路二段１６７號九樓之２０","OBJECTID":599074},"geometry":{"x":171382.85000000056,"y":2542838.9700000025}},{"attributes":{"ID":599102,"DIS_CODE":0,"TOWNNAME":"東區","LI":"自強里","LIN":"27鄰","STREET":"中華東路","SECT":"二段","MAREA":" ","LANE":" ","ALLEY":" ","HOUSE_NO":"１６７號九樓之２１","E_COORD97":171382.85000000001,"N_COORD97":2542838.9700000002,"ADDRESS":"中華東路二段１６７號九樓之２１","OBJECTID":599075},"geometry":{"x":171382.85000000056,"y":2542838.9700000025}},{"attributes":{"ID":599103,"DIS_CODE":0,"TOWNNAME":"永康區","LI":"復國里","LIN":"27鄰","STREET":"復華三街","SECT":" ","MAREA":" ","LANE":" ","ALLEY":" ","HOUSE_NO":"６８號十八樓之３","E_COORD97":172700.35000000001,"N_COORD97":2545576.0499999998,"ADDRESS":"復華三街６８號十八樓之３","OBJECTID":599076},"geometry":{"x":172700.34999999963,"y":2545576.0500000007}},{"attributes":{"ID":599104,"DIS_CODE":0,"TOWNNAME":"東區","LI":"自強里","LIN":"27鄰","STREET":"中華東路","SECT":"二段","MAREA":" ","LANE":" ","ALLEY":" ","HOUSE_NO":"１６７號九樓之２２","E_COORD97":171382.85000000001,"N_COORD97":2542838.9700000002,"ADDRESS":"中華東路二段１６７號九樓之２２","OBJECTID":599077},"geometry":{"x":171382.85000000056,"y":2542838.9700000025}},{"attributes":{"ID":599105,"DIS_CODE":0,"TOWNNAME":"東區","LI":"自強里","LIN":"27鄰","STREET":"中華東路","SECT":"二段","MAREA":" ","LANE":" ","ALLEY":" ","HOUSE_NO":"１６９號二樓之１","E_COORD97":171368.17000000001,"N_COORD97":2542826.5,"ADDRESS":"中華東路二段１６９號二樓之１","OBJECTID":599078},"geometry":{"x":171368.16999999993,"y":2542826.5}},{"attributes":{"ID":599106,"DIS_CODE":0,"TOWNNAME":"東區","LI":"自強里","LIN":"27鄰","STREET":"中華東路","SECT":"二段","MAREA":" ","LANE":" ","ALLEY":" ","HOUSE_NO":"１６９號二樓之２","E_COORD97":171368.17000000001,"N_COORD97":2542826.5,"ADDRESS":"中華東路二段１６９號二樓之２","OBJECTID":599079},"geometry":{"x":171368.16999999993,"y":2542826.5}},{"attributes":{"ID":599107,"DIS_CODE":0,"TOWNNAME":"東區","LI":"自強里","LIN":"27鄰","STREET":"中華東路","SECT":"二段","MAREA":" ","LANE":" ","ALLEY":" ","HOUSE_NO":"１６９號二樓之３","E_COORD97":171368.17000000001,"N_COORD97":2542826.5,"ADDRESS":"中華東路二段１６９號二樓之３","OBJECTID":599080},"geometry":{"x":171368.16999999993,"y":2542826.5}},{"attributes":{"ID":599108,"DIS_CODE":0,"TOWNNAME":"東區","LI":"自強里","LIN":"27鄰","STREET":"中華東路","SECT":"二段","MAREA":" ","LANE":" ","ALLEY":" ","HOUSE_NO":"１６９號二樓之５","E_COORD97":171368.17000000001,"N_COORD97":2542826.5,"ADDRESS":"中華東路二段１６９號二樓之５","OBJECTID":599081},"geometry":{"x":171368.16999999993,"y":2542826.5}},{"attributes":{"ID":599109,"DIS_CODE":0,"TOWNNAME":"東區","LI":"自強里","LIN":"27鄰","STREET":"中華東路","SECT":"二段","MAREA":" ","LANE":" ","ALLEY":" ","HOUSE_NO":"１６９號二樓之６","E_COORD97":171368.17000000001,"N_COORD97":2542826.5,"ADDRESS":"中華東路二段１６９號二樓之６","OBJECTID":599082},"geometry":{"x":171368.16999999993,"y":2542826.5}},{"attributes":{"ID":599110,"DIS_CODE":0,"TOWNNAME":"東區","LI":"自強里","LIN":"27鄰","STREET":"中華東路","SECT":"二段","MAREA":" ","LANE":" ","ALLEY":" ","HOUSE_NO":"１６９號二樓之７","E_COORD97":171368.17000000001,"N_COORD97":2542826.5,"ADDRESS":"中華東路二段１６９號二樓之７","OBJECTID":599083},"geometry":{"x":171368.16999999993,"y":2542826.5}},{"attributes":{"ID":599111,"DIS_CODE":0,"TOWNNAME":"東區","LI":"自強里","LIN":"27鄰","STREET":"中華東路","SECT":"二段","MAREA":" ","LANE":" ","ALLEY":" ","HOUSE_NO":"１６９號二樓之８","E_COORD97":171368.17000000001,"N_COORD97":2542826.5,"ADDRESS":"中華東路二段１６９號二樓之８","OBJECTID":599084},"geometry":{"x":171368.16999999993,"y":2542826.5}},{"attributes":{"ID":599112,"DIS_CODE":0,"TOWNNAME":"東區","LI":"自強里","LIN":"27鄰","STREET":"中華東路","SECT":"二段","MAREA":" ","LANE":" ","ALLEY":" ","HOUSE_NO":"１６９號二樓之９","E_COORD97":171368.17000000001,"N_COORD97":2542826.5,"ADDRESS":"中華東路二段１６９號二樓之９","OBJECTID":599085},"geometry":{"x":171368.16999999993,"y":2542826.5}},{"attributes":{"ID":599113,"DIS_CODE":0,"TOWNNAME":"東區","LI":"自強里","LIN":"27鄰","STREET":"中華東路","SECT":"二段","MAREA":" ","LANE":" ","ALLEY":" ","HOUSE_NO":"１６９號二樓之１０","E_COORD97":171368.17000000001,"N_COORD97":2542826.5,"ADDRESS":"中華東路二段１６９號二樓之１０","OBJECTID":599086},"geometry":{"x":171368.16999999993,"y":2542826.5}},{"attributes":{"ID":599114,"DIS_CODE":0,"TOWNNAME":"東區","LI":"自強里","LIN":"27鄰","STREET":"中華東路","SECT":"二段","MAREA":" ","LANE":" ","ALLEY":" ","HOUSE_NO":"１６９號二樓之１１","E_COORD97":171368.17000000001,"N_COORD97":2542826.5,"ADDRESS":"中華東路二段１６９號二樓之１１","OBJECTID":599087},"geometry":{"x":171368.16999999993,"y":2542826.5}},{"attributes":{"ID":599115,"DIS_CODE":0,"TOWNNAME":"東區","LI":"自強里","LIN":"27鄰","STREET":"中華東路","SECT":"二段","MAREA":" ","LANE":" ","ALLEY":" ","HOUSE_NO":"１６９號二樓之１２","E_COORD97":171368.17000000001,"N_COORD97":2542826.5,"ADDRESS":"中華東路二段１６９號二樓之１２","OBJECTID":599088},"geometry":{"x":171368.16999999993,"y":2542826.5}},{"attributes":{"ID":599116,"DIS_CODE":0,"TOWNNAME":"東區","LI":"自強里","LIN":"27鄰","STREET":"中華東路","SECT":"二段","MAREA":" ","LANE":" ","ALLEY":" ","HOUSE_NO":"１６９號二樓之１３","E_COORD97":171368.17000000001,"N_COORD97":2542826.5,"ADDRESS":"中華東路二段１６９號二樓之１３","OBJECTID":599089},"geometry":{"x":171368.16999999993,"y":2542826.5}},{"attributes":{"ID":599117,"DIS_CODE":0,"TOWNNAME":"東區","LI":"自強里","LIN":"27鄰","STREET":"中華東路","SECT":"二段","MAREA":" ","LANE":" ","ALLEY":" ","HOUSE_NO":"１６９號二樓之１５","E_COORD97":171368.17000000001,"N_COORD97":2542826.5,"ADDRESS":"中華東路二段１６９號二樓之１５","OBJECTID":599090},"geometry":{"x":171368.16999999993,"y":2542826.5}},{"attributes":{"ID":599118,"DIS_CODE":0,"TOWNNAME":"東區","LI":"自強里","LIN":"27鄰","STREET":"中華東路","SECT":"二段","MAREA":" ","LANE":" ","ALLEY":" ","HOUSE_NO":"１６９號二樓之１６","E_COORD97":171368.17000000001,"N_COORD97":2542826.5,"ADDRESS":"中華東路二段１６９號二樓之１６","OBJECTID":599091},"geometry":{"x":171368.16999999993,"y":2542826.5}},{"attributes":{"ID":599119,"DIS_CODE":0,"TOWNNAME":"東區","LI":"自強里","LIN":"27鄰","STREET":"中華東路","SECT":"二段","MAREA":" ","LANE":" ","ALLEY":" ","HOUSE_NO":"１６９號二樓之１７","E_COORD97":171368.17000000001,"N_COORD97":2542826.5,"ADDRESS":"中華東路二段１６９號二樓之１７","OBJECTID":599092},"geometry":{"x":171368.16999999993,"y":2542826.5}},{"attributes":{"ID":599120,"DIS_CODE":0,"TOWNNAME":"東區","LI":"自強里","LIN":"27鄰","STREET":"中華東路","SECT":"二段","MAREA":" ","LANE":" ","ALLEY":" ","HOUSE_NO":"１６９號二樓之１８","E_COORD97":171368.17000000001,"N_COORD97":2542826.5,"ADDRESS":"中華東路二段１６９號二樓之１８","OBJECTID":599093},"geometry":{"x":171368.16999999993,"y":2542826.5}},{"attributes":{"ID":599121,"DIS_CODE":0,"TOWNNAME":"永康區","LI":"復國里","LIN":"27鄰","STREET":"復華三街","SECT":" ","MAREA":" ","LANE":" ","ALLEY":" ","HOUSE_NO":"６８號十六樓之２","E_COORD97":172700.39000000001,"N_COORD97":2545576.0499999998,"ADDRESS":"復華三街６８號十六樓之２","OBJECTID":599094},"geometry":{"x":172700.38999999966,"y":2545576.0500000007}},{"attributes":{"ID":599122,"DIS_CODE":0,"TOWNNAME":"東區","LI":"自強里","LIN":"27鄰","STREET":"中華東路","SECT":"二段","MAREA":" ","LANE":" ","ALLEY":" ","HOUSE_NO":"１６９號二樓之１９","E_COORD97":171368.17000000001,"N_COORD97":2542826.5,"ADDRESS":"中華東路二段１６９號二樓之１９","OBJECTID":599095},"geometry":{"x":171368.16999999993,"y":2542826.5}},{"attributes":{"ID":599123,"DIS_CODE":0,"TOWNNAME":"東區","LI":"自強里","LIN":"27鄰","STREET":"中華東路","SECT":"二段","MAREA":" ","LANE":" ","ALLEY":" ","HOUSE_NO":"１６９號二樓之２０","E_COORD97":171368.17000000001,"N_COORD97":2542826.5,"ADDRESS":"中華東路二段１６９號二樓之２０","OBJECTID":599096},"geometry":{"x":171368.16999999993,"y":2542826.5}},{"attributes":{"ID":599124,"DIS_CODE":0,"TOWNNAME":"東區","LI":"自強里","LIN":"27鄰","STREET":"中華東路","SECT":"二段","MAREA":" ","LANE":" ","ALLEY":" ","HOUSE_NO":"１６９號二樓之２１","E_COORD97":171368.17000000001,"N_COORD97":2542826.5,"ADDRESS":"中華東路二段１６９號二樓之２１","OBJECTID":599097},"geometry":{"x":171368.16999999993,"y":2542826.5}},{"attributes":{"ID":599125,"DIS_CODE":0,"TOWNNAME":"東區","LI":"自強里","LIN":"27鄰","STREET":"中華東路","SECT":"二段","MAREA":" ","LANE":" ","ALLEY":" ","HOUSE_NO":"１６９號三樓之１","E_COORD97":171368.17000000001,"N_COORD97":2542826.5,"ADDRESS":"中華東路二段１６９號三樓之１","OBJECTID":599098},"geometry":{"x":171368.16999999993,"y":2542826.5}},{"attributes":{"ID":599126,"DIS_CODE":0,"TOWNNAME":"東區","LI":"自強里","LIN":"27鄰","STREET":"中華東路","SECT":"二段","MAREA":" ","LANE":" ","ALLEY":" ","HOUSE_NO":"１６９號三樓之２","E_COORD97":171368.17000000001,"N_COORD97":2542826.5,"ADDRESS":"中華東路二段１６９號三樓之２","OBJECTID":599099},"geometry":{"x":171368.16999999993,"y":2542826.5}},{"attributes":{"ID":599127,"DIS_CODE":0,"TOWNNAME":"東區","LI":"自強里","LIN":"27鄰","STREET":"中華東路","SECT":"二段","MAREA":" ","LANE":" ","ALLEY":" ","HOUSE_NO":"１６９號三樓之３","E_COORD97":171368.17000000001,"N_COORD97":2542826.5,"ADDRESS":"中華東路二段１６９號三樓之３","OBJECTID":599100},"geometry":{"x":171368.16999999993,"y":2542826.5}},{"attributes":{"ID":599128,"DIS_CODE":0,"TOWNNAME":"東區","LI":"自強里","LIN":"27鄰","STREET":"中華東路","SECT":"二段","MAREA":" ","LANE":" ","ALLEY":" ","HOUSE_NO":"１６９號三樓之５","E_COORD97":171368.17000000001,"N_COORD97":2542826.5,"ADDRESS":"中華東路二段１６９號三樓之５","OBJECTID":599101},"geometry":{"x":171368.16999999993,"y":2542826.5}},{"attributes":{"ID":599129,"DIS_CODE":0,"TOWNNAME":"東區","LI":"自強里","LIN":"27鄰","STREET":"中華東路","SECT":"二段","MAREA":" ","LANE":" ","ALLEY":" ","HOUSE_NO":"１６９號三樓之６","E_COORD97":171368.17000000001,"N_COORD97":2542826.5,"ADDRESS":"中華東路二段１６９號三樓之６","OBJECTID":599102},"geometry":{"x":171368.16999999993,"y":2542826.5}},{"attributes":{"ID":599130,"DIS_CODE":0,"TOWNNAME":"東區","LI":"自強里","LIN":"27鄰","STREET":"中華東路","SECT":"二段","MAREA":" ","LANE":" ","ALLEY":" ","HOUSE_NO":"１６９號三樓之７","E_COORD97":171368.17000000001,"N_COORD97":2542826.5,"ADDRESS":"中華東路二段１６９號三樓之７","OBJECTID":599103},"geometry":{"x":171368.16999999993,"y":2542826.5}},{"attributes":{"ID":599131,"DIS_CODE":0,"TOWNNAME":"東區","LI":"自強里","LIN":"27鄰","STREET":"中華東路","SECT":"二段","MAREA":" ","LANE":" ","ALLEY":" ","HOUSE_NO":"１６９號三樓之８","E_COORD97":171368.17000000001,"N_COORD97":2542826.5,"ADDRESS":"中華東路二段１６９號三樓之８","OBJECTID":599104},"geometry":{"x":171368.16999999993,"y":2542826.5}},{"attributes":{"ID":599132,"DIS_CODE":0,"TOWNNAME":"東區","LI":"自強里","LIN":"27鄰","STREET":"中華東路","SECT":"二段","MAREA":" ","LANE":" ","ALLEY":" ","HOUSE_NO":"１６９號三樓之９","E_COORD97":171368.17000000001,"N_COORD97":2542826.5,"ADDRESS":"中華東路二段１６９號三樓之９","OBJECTID":599105},"geometry":{"x":171368.16999999993,"y":2542826.5}},{"attributes":{"ID":599133,"DIS_CODE":0,"TOWNNAME":"東區","LI":"自強里","LIN":"27鄰","STREET":"中華東路","SECT":"二段","MAREA":" ","LANE":" ","ALLEY":" ","HOUSE_NO":"１６９號三樓之１０","E_COORD97":171368.17000000001,"N_COORD97":2542826.5,"ADDRESS":"中華東路二段１６９號三樓之１０","OBJECTID":599106},"geometry":{"x":171368.16999999993,"y":2542826.5}},{"attributes":{"ID":599134,"DIS_CODE":0,"TOWNNAME":"東區","LI":"自強里","LIN":"27鄰","STREET":"中華東路","SECT":"二段","MAREA":" ","LANE":" ","ALLEY":" ","HOUSE_NO":"１６９號三樓之１１","E_COORD97":171368.17000000001,"N_COORD97":2542826.5,"ADDRESS":"中華東路二段１６９號三樓之１１","OBJECTID":599107},"geometry":{"x":171368.16999999993,"y":2542826.5}},{"attributes":{"ID":599135,"DIS_CODE":0,"TOWNNAME":"東區","LI":"自強里","LIN":"27鄰","STREET":"中華東路","SECT":"二段","MAREA":" ","LANE":" ","ALLEY":" ","HOUSE_NO":"１６９號三樓之１２","E_COORD97":171368.17000000001,"N_COORD97":2542826.5,"ADDRESS":"中華東路二段１６９號三樓之１２","OBJECTID":599108},"geometry":{"x":171368.16999999993,"y":2542826.5}},{"attributes":{"ID":599136,"DIS_CODE":0,"TOWNNAME":"東區","LI":"自強里","LIN":"27鄰","STREET":"中華東路","SECT":"二段","MAREA":" ","LANE":" ","ALLEY":" ","HOUSE_NO":"１６９號三樓之１３","E_COORD97":171368.17000000001,"N_COORD97":2542826.5,"ADDRESS":"中華東路二段１６９號三樓之１３","OBJECTID":599109},"geometry":{"x":171368.16999999993,"y":2542826.5}},{"attributes":{"ID":599137,"DIS_CODE":0,"TOWNNAME":"東區","LI":"自強里","LIN":"27鄰","STREET":"中華東路","SECT":"二段","MAREA":" ","LANE":" ","ALLEY":" ","HOUSE_NO":"１６９號三樓之１５","E_COORD97":171368.17000000001,"N_COORD97":2542826.5,"ADDRESS":"中華東路二段１６９號三樓之１５","OBJECTID":599110},"geometry":{"x":171368.16999999993,"y":2542826.5}},{"attributes":{"ID":599138,"DIS_CODE":0,"TOWNNAME":"東區","LI":"自強里","LIN":"27鄰","STREET":"中華東路","SECT":"二段","MAREA":" ","LANE":" ","ALLEY":" ","HOUSE_NO":"１６９號三樓之１６","E_COORD97":171368.17000000001,"N_COORD97":2542826.5,"ADDRESS":"中華東路二段１６９號三樓之１６","OBJECTID":599111},"geometry":{"x":171368.16999999993,"y":2542826.5}},{"attributes":{"ID":599139,"DIS_CODE":0,"TOWNNAME":"東區","LI":"自強里","LIN":"27鄰","STREET":"中華東路","SECT":"二段","MAREA":" ","LANE":" ","ALLEY":" ","HOUSE_NO":"１６９號三樓之１７","E_COORD97":171368.17000000001,"N_COORD97":2542826.5,"ADDRESS":"中華東路二段１６９號三樓之１７","OBJECTID":599112},"geometry":{"x":171368.16999999993,"y":2542826.5}},{"attributes":{"ID":599140,"DIS_CODE":0,"TOWNNAME":"東區","LI":"自強里","LIN":"27鄰","STREET":"中華東路","SECT":"二段","MAREA":" ","LANE":" ","ALLEY":" ","HOUSE_NO":"１６９號三樓之１８","E_COORD97":171368.17000000001,"N_COORD97":2542826.5,"ADDRESS":"中華東路二段１６９號三樓之１８","OBJECTID":599113},"geometry":{"x":171368.16999999993,"y":2542826.5}},{"attributes":{"ID":599141,"DIS_CODE":0,"TOWNNAME":"東區","LI":"自強里","LIN":"27鄰","STREET":"中華東路","SECT":"二段","MAREA":" ","LANE":" ","ALLEY":" ","HOUSE_NO":"１６９號三樓之１９","E_COORD97":171368.17000000001,"N_COORD97":2542826.5,"ADDRESS":"中華東路二段１６９號三樓之１９","OBJECTID":599114},"geometry":{"x":171368.16999999993,"y":2542826.5}},{"attributes":{"ID":599142,"DIS_CODE":0,"TOWNNAME":"東區","LI":"自強里","LIN":"27鄰","STREET":"中華東路","SECT":"二段","MAREA":" ","LANE":" ","ALLEY":" ","HOUSE_NO":"１６９號三樓之２０","E_COORD97":171368.17000000001,"N_COORD97":2542826.5,"ADDRESS":"中華東路二段１６９號三樓之２０","OBJECTID":599115},"geometry":{"x":171368.16999999993,"y":2542826.5}},{"attributes":{"ID":599143,"DIS_CODE":0,"TOWNNAME":"東區","LI":"自強里","LIN":"27鄰","STREET":"中華東路","SECT":"二段","MAREA":" ","LANE":" ","ALLEY":" ","HOUSE_NO":"１６９號三樓之２１","E_COORD97":171368.17000000001,"N_COORD97":2542826.5,"ADDRESS":"中華東路二段１６９號三樓之２１","OBJECTID":599116},"geometry":{"x":171368.16999999993,"y":2542826.5}},{"attributes":{"ID":599144,"DIS_CODE":0,"TOWNNAME":"東區","LI":"自強里","LIN":"27鄰","STREET":"中華東路","SECT":"二段","MAREA":" ","LANE":" ","ALLEY":" ","HOUSE_NO":"１６９號四樓之１","E_COORD97":171368.17000000001,"N_COORD97":2542826.5,"ADDRESS":"中華東路二段１６９號四樓之１","OBJECTID":599117},"geometry":{"x":171368.16999999993,"y":2542826.5}},{"attributes":{"ID":599145,"DIS_CODE":0,"TOWNNAME":"東區","LI":"自強里","LIN":"27鄰","STREET":"中華東路","SECT":"二段","MAREA":" ","LANE":" ","ALLEY":" ","HOUSE_NO":"１６９號四樓之２","E_COORD97":171368.17000000001,"N_COORD97":2542826.5,"ADDRESS":"中華東路二段１６９號四樓之２","OBJECTID":599118},"geometry":{"x":171368.16999999993,"y":2542826.5}},{"attributes":{"ID":599146,"DIS_CODE":0,"TOWNNAME":"東區","LI":"自強里","LIN":"27鄰","STREET":"中華東路","SECT":"二段","MAREA":" ","LANE":" ","ALLEY":" ","HOUSE_NO":"１６９號四樓之３","E_COORD97":171368.17000000001,"N_COORD97":2542826.5,"ADDRESS":"中華東路二段１６９號四樓之３","OBJECTID":599119},"geometry":{"x":171368.16999999993,"y":2542826.5}},{"attributes":{"ID":599147,"DIS_CODE":0,"TOWNNAME":"東區","LI":"自強里","LIN":"27鄰","STREET":"中華東路","SECT":"二段","MAREA":" ","LANE":" ","ALLEY":" ","HOUSE_NO":"１６９號四樓之５","E_COORD97":171368.17000000001,"N_COORD97":2542826.5,"ADDRESS":"中華東路二段１６９號四樓之５","OBJECTID":599120},"geometry":{"x":171368.16999999993,"y":2542826.5}},{"attributes":{"ID":599148,"DIS_CODE":0,"TOWNNAME":"東區","LI":"自強里","LIN":"27鄰","STREET":"中華東路","SECT":"二段","MAREA":" ","LANE":" ","ALLEY":" ","HOUSE_NO":"１６９號四樓之６","E_COORD97":171368.17000000001,"N_COORD97":2542826.5,"ADDRESS":"中華東路二段１６９號四樓之６","OBJECTID":599121},"geometry":{"x":171368.16999999993,"y":2542826.5}},{"attributes":{"ID":599149,"DIS_CODE":0,"TOWNNAME":"東區","LI":"自強里","LIN":"27鄰","STREET":"中華東路","SECT":"二段","MAREA":" ","LANE":" ","ALLEY":" ","HOUSE_NO":"１６９號四樓之７","E_COORD97":171368.17000000001,"N_COORD97":2542826.5,"ADDRESS":"中華東路二段１６９號四樓之７","OBJECTID":599122},"geometry":{"x":171368.16999999993,"y":2542826.5}},{"attributes":{"ID":599150,"DIS_CODE":0,"TOWNNAME":"東區","LI":"自強里","LIN":"27鄰","STREET":"中華東路","SECT":"二段","MAREA":" ","LANE":" ","ALLEY":" ","HOUSE_NO":"１６９號四樓之８","E_COORD97":171368.17000000001,"N_COORD97":2542826.5,"ADDRESS":"中華東路二段１６９號四樓之８","OBJECTID":599123},"geometry":{"x":171368.16999999993,"y":2542826.5}},{"attributes":{"ID":599151,"DIS_CODE":0,"TOWNNAME":"東區","LI":"自強里","LIN":"27鄰","STREET":"中華東路","SECT":"二段","MAREA":" ","LANE":" ","ALLEY":" ","HOUSE_NO":"１６９號四樓之９","E_COORD97":171368.17000000001,"N_COORD97":2542826.5,"ADDRESS":"中華東路二段１６９號四樓之９","OBJECTID":599124},"geometry":{"x":171368.16999999993,"y":2542826.5}},{"attributes":{"ID":599152,"DIS_CODE":0,"TOWNNAME":"東區","LI":"自強里","LIN":"27鄰","STREET":"中華東路","SECT":"二段","MAREA":" ","LANE":" ","ALLEY":" ","HOUSE_NO":"１６９號四樓之１０","E_COORD97":171368.17000000001,"N_COORD97":2542826.5,"ADDRESS":"中華東路二段１６９號四樓之１０","OBJECTID":599125},"geometry":{"x":171368.16999999993,"y":2542826.5}},{"attributes":{"ID":599153,"DIS_CODE":0,"TOWNNAME":"東區","LI":"自強里","LIN":"27鄰","STREET":"中華東路","SECT":"二段","MAREA":" ","LANE":" ","ALLEY":" ","HOUSE_NO":"１６９號四樓之１１","E_COORD97":171368.17000000001,"N_COORD97":2542826.5,"ADDRESS":"中華東路二段１６９號四樓之１１","OBJECTID":599126},"geometry":{"x":171368.16999999993,"y":2542826.5}},{"attributes":{"ID":599154,"DIS_CODE":0,"TOWNNAME":"東區","LI":"自強里","LIN":"27鄰","STREET":"中華東路","SECT":"二段","MAREA":" ","LANE":" ","ALLEY":" ","HOUSE_NO":"１６９號四樓之１２","E_COORD97":171368.17000000001,"N_COORD97":2542826.5,"ADDRESS":"中華東路二段１６９號四樓之１２","OBJECTID":599127},"geometry":{"x":171368.16999999993,"y":2542826.5}},{"attributes":{"ID":599155,"DIS_CODE":0,"TOWNNAME":"東區","LI":"自強里","LIN":"27鄰","STREET":"中華東路","SECT":"二段","MAREA":" ","LANE":" ","ALLEY":" ","HOUSE_NO":"１６９號四樓之１３","E_COORD97":171368.17000000001,"N_COORD97":2542826.5,"ADDRESS":"中華東路二段１６９號四樓之１３","OBJECTID":599128},"geometry":{"x":171368.16999999993,"y":2542826.5}},{"attributes":{"ID":599156,"DIS_CODE":0,"TOWNNAME":"東區","LI":"自強里","LIN":"27鄰","STREET":"中華東路","SECT":"二段","MAREA":" ","LANE":" ","ALLEY":" ","HOUSE_NO":"１６９號四樓之１５","E_COORD97":171368.17000000001,"N_COORD97":2542826.5,"ADDRESS":"中華東路二段１６９號四樓之１５","OBJECTID":599129},"geometry":{"x":171368.16999999993,"y":2542826.5}},{"attributes":{"ID":599157,"DIS_CODE":0,"TOWNNAME":"東區","LI":"自強里","LIN":"27鄰","STREET":"中華東路","SECT":"二段","MAREA":" ","LANE":" ","ALLEY":" ","HOUSE_NO":"１６９號四樓之１６","E_COORD97":171368.17000000001,"N_COORD97":2542826.5,"ADDRESS":"中華東路二段１６９號四樓之１６","OBJECTID":599130},"geometry":{"x":171368.16999999993,"y":2542826.5}},{"attributes":{"ID":599158,"DIS_CODE":0,"TOWNNAME":"東區","LI":"自強里","LIN":"27鄰","STREET":"中華東路","SECT":"二段","MAREA":" ","LANE":" ","ALLEY":" ","HOUSE_NO":"１６９號四樓之１７","E_COORD97":171368.17000000001,"N_COORD97":2542826.5,"ADDRESS":"中華東路二段１６９號四樓之１７","OBJECTID":599131},"geometry":{"x":171368.16999999993,"y":2542826.5}},{"attributes":{"ID":599159,"DIS_CODE":0,"TOWNNAME":"東區","LI":"自強里","LIN":"27鄰","STREET":"中華東路","SECT":"二段","MAREA":" ","LANE":" ","ALLEY":" ","HOUSE_NO":"１６９號四樓之１８","E_COORD97":171368.17000000001,"N_COORD97":2542826.5,"ADDRESS":"中華東路二段１６９號四樓之１８","OBJECTID":599132},"geometry":{"x":171368.16999999993,"y":2542826.5}},{"attributes":{"ID":599160,"DIS_CODE":0,"TOWNNAME":"東區","LI":"自強里","LIN":"27鄰","STREET":"中華東路","SECT":"二段","MAREA":" ","LANE":" ","ALLEY":" ","HOUSE_NO":"１６９號四樓之１９","E_COORD97":171368.17000000001,"N_COORD97":2542826.5,"ADDRESS":"中華東路二段１６９號四樓之１９","OBJECTID":599133},"geometry":{"x":171368.16999999993,"y":2542826.5}},{"attributes":{"ID":599161,"DIS_CODE":0,"TOWNNAME":"東區","LI":"自強里","LIN":"27鄰","STREET":"中華東路","SECT":"二段","MAREA":" ","LANE":" ","ALLEY":" ","HOUSE_NO":"１６９號四樓之２０","E_COORD97":171368.17000000001,"N_COORD97":2542826.5,"ADDRESS":"中華東路二段１６９號四樓之２０","OBJECTID":599134},"geometry":{"x":171368.16999999993,"y":2542826.5}},{"attributes":{"ID":599162,"DIS_CODE":0,"TOWNNAME":"東區","LI":"自強里","LIN":"27鄰","STREET":"中華東路","SECT":"二段","MAREA":" ","LANE":" ","ALLEY":" ","HOUSE_NO":"１６９號四樓之２１","E_COORD97":171368.17000000001,"N_COORD97":2542826.5,"ADDRESS":"中華東路二段１６９號四樓之２１","OBJECTID":599135},"geometry":{"x":171368.16999999993,"y":2542826.5}},{"attributes":{"ID":599163,"DIS_CODE":0,"TOWNNAME":"東區","LI":"自強里","LIN":"27鄰","STREET":"中華東路","SECT":"二段","MAREA":" ","LANE":" ","ALLEY":" ","HOUSE_NO":"１６９號五樓之１","E_COORD97":171368.17000000001,"N_COORD97":2542826.5,"ADDRESS":"中華東路二段１６９號五樓之１","OBJECTID":599136},"geometry":{"x":171368.16999999993,"y":2542826.5}},{"attributes":{"ID":599164,"DIS_CODE":0,"TOWNNAME":"東區","LI":"自強里","LIN":"27鄰","STREET":"中華東路","SECT":"二段","MAREA":" ","LANE":" ","ALLEY":" ","HOUSE_NO":"１６９號五樓之２","E_COORD97":171368.17000000001,"N_COORD97":2542826.5,"ADDRESS":"中華東路二段１６９號五樓之２","OBJECTID":599137},"geometry":{"x":171368.16999999993,"y":2542826.5}},{"attributes":{"ID":599165,"DIS_CODE":0,"TOWNNAME":"東區","LI":"自強里","LIN":"27鄰","STREET":"中華東路","SECT":"二段","MAREA":" ","LANE":" ","ALLEY":" ","HOUSE_NO":"１６９號五樓之３","E_COORD97":171368.17000000001,"N_COORD97":2542826.5,"ADDRESS":"中華東路二段１６９號五樓之３","OBJECTID":599138},"geometry":{"x":171368.16999999993,"y":2542826.5}},{"attributes":{"ID":599166,"DIS_CODE":0,"TOWNNAME":"東區","LI":"自強里","LIN":"27鄰","STREET":"中華東路","SECT":"二段","MAREA":" ","LANE":" ","ALLEY":" ","HOUSE_NO":"１６９號五樓之５","E_COORD97":171368.17000000001,"N_COORD97":2542826.5,"ADDRESS":"中華東路二段１６９號五樓之５","OBJECTID":599139},"geometry":{"x":171368.16999999993,"y":2542826.5}},{"attributes":{"ID":599167,"DIS_CODE":0,"TOWNNAME":"東區","LI":"自強里","LIN":"27鄰","STREET":"中華東路","SECT":"二段","MAREA":" ","LANE":" ","ALLEY":" ","HOUSE_NO":"１６９號五樓之６","E_COORD97":171368.17000000001,"N_COORD97":2542826.5,"ADDRESS":"中華東路二段１６９號五樓之６","OBJECTID":599140},"geometry":{"x":171368.16999999993,"y":2542826.5}},{"attributes":{"ID":599168,"DIS_CODE":0,"TOWNNAME":"東區","LI":"自強里","LIN":"27鄰","STREET":"中華東路","SECT":"二段","MAREA":" ","LANE":" ","ALLEY":" ","HOUSE_NO":"１６９號五樓之７","E_COORD97":171368.17000000001,"N_COORD97":2542826.5,"ADDRESS":"中華東路二段１６９號五樓之７","OBJECTID":599141},"geometry":{"x":171368.16999999993,"y":2542826.5}},{"attributes":{"ID":599169,"DIS_CODE":0,"TOWNNAME":"東區","LI":"自強里","LIN":"27鄰","STREET":"中華東路","SECT":"二段","MAREA":" ","LANE":" ","ALLEY":" ","HOUSE_NO":"１６９號五樓之８","E_COORD97":171368.17000000001,"N_COORD97":2542826.5,"ADDRESS":"中華東路二段１６９號五樓之８","OBJECTID":599142},"geometry":{"x":171368.16999999993,"y":2542826.5}},{"attributes":{"ID":599170,"DIS_CODE":0,"TOWNNAME":"東區","LI":"自強里","LIN":"27鄰","STREET":"中華東路","SECT":"二段","MAREA":" ","LANE":" ","ALLEY":" ","HOUSE_NO":"１６９號五樓之９","E_COORD97":171368.17000000001,"N_COORD97":2542826.5,"ADDRESS":"中華東路二段１６９號五樓之９","OBJECTID":599143},"geometry":{"x":171368.16999999993,"y":2542826.5}},{"attributes":{"ID":599171,"DIS_CODE":0,"TOWNNAME":"東區","LI":"自強里","LIN":"27鄰","STREET":"中華東路","SECT":"二段","MAREA":" ","LANE":" ","ALLEY":" ","HOUSE_NO":"１６９號五樓之１０","E_COORD97":171368.17000000001,"N_COORD97":2542826.5,"ADDRESS":"中華東路二段１６９號五樓之１０","OBJECTID":599144},"geometry":{"x":171368.16999999993,"y":2542826.5}},{"attributes":{"ID":599172,"DIS_CODE":0,"TOWNNAME":"東區","LI":"自強里","LIN":"27鄰","STREET":"中華東路","SECT":"二段","MAREA":" ","LANE":" ","ALLEY":" ","HOUSE_NO":"１６９號五樓之１１","E_COORD97":171368.17000000001,"N_COORD97":2542826.5,"ADDRESS":"中華東路二段１６９號五樓之１１","OBJECTID":599145},"geometry":{"x":171368.16999999993,"y":2542826.5}},{"attributes":{"ID":599173,"DIS_CODE":0,"TOWNNAME":"東區","LI":"自強里","LIN":"27鄰","STREET":"中華東路","SECT":"二段","MAREA":" ","LANE":" ","ALLEY":" ","HOUSE_NO":"１６９號五樓之１２","E_COORD97":171368.17000000001,"N_COORD97":2542826.5,"ADDRESS":"中華東路二段１６９號五樓之１２","OBJECTID":599146},"geometry":{"x":171368.16999999993,"y":2542826.5}},{"attributes":{"ID":599174,"DIS_CODE":0,"TOWNNAME":"東區","LI":"自強里","LIN":"27鄰","STREET":"中華東路","SECT":"二段","MAREA":" ","LANE":" ","ALLEY":" ","HOUSE_NO":"１６９號五樓之１３","E_COORD97":171368.17000000001,"N_COORD97":2542826.5,"ADDRESS":"中華東路二段１６９號五樓之１３","OBJECTID":599147},"geometry":{"x":171368.16999999993,"y":2542826.5}},{"attributes":{"ID":599175,"DIS_CODE":0,"TOWNNAME":"東區","LI":"自強里","LIN":"27鄰","STREET":"中華東路","SECT":"二段","MAREA":" ","LANE":" ","ALLEY":" ","HOUSE_NO":"１６９號五樓之１５","E_COORD97":171368.17000000001,"N_COORD97":2542826.5,"ADDRESS":"中華東路二段１６９號五樓之１５","OBJECTID":599148},"geometry":{"x":171368.16999999993,"y":2542826.5}},{"attributes":{"ID":599176,"DIS_CODE":0,"TOWNNAME":"東區","LI":"自強里","LIN":"27鄰","STREET":"中華東路","SECT":"二段","MAREA":" ","LANE":" ","ALLEY":" ","HOUSE_NO":"１６９號五樓之１６","E_COORD97":171368.17000000001,"N_COORD97":2542826.5,"ADDRESS":"中華東路二段１６９號五樓之１６","OBJECTID":599149},"geometry":{"x":171368.16999999993,"y":2542826.5}},{"attributes":{"ID":599177,"DIS_CODE":0,"TOWNNAME":"永康區","LI":"南灣里","LIN":"30鄰","STREET":"大安街","SECT":" ","MAREA":" ","LANE":" ","ALLEY":" ","HOUSE_NO":"５５號","E_COORD97":174441.29000000001,"N_COORD97":2544884.5699999998,"ADDRESS":"大安街５５號","OBJECTID":599150},"geometry":{"x":174441.2900000019,"y":2544884.5700000003}},{"attributes":{"ID":599178,"DIS_CODE":0,"TOWNNAME":"東區","LI":"自強里","LIN":"27鄰","STREET":"中華東路","SECT":"二段","MAREA":" ","LANE":" ","ALLEY":" ","HOUSE_NO":"１６９號五樓之１７","E_COORD97":171368.17000000001,"N_COORD97":2542826.5,"ADDRESS":"中華東路二段１６９號五樓之１７","OBJECTID":599151},"geometry":{"x":171368.16999999993,"y":2542826.5}},{"attributes":{"ID":599179,"DIS_CODE":0,"TOWNNAME":"東區","LI":"自強里","LIN":"27鄰","STREET":"中華東路","SECT":"二段","MAREA":" ","LANE":" ","ALLEY":" ","HOUSE_NO":"１６９號五樓之１８","E_COORD97":171368.17000000001,"N_COORD97":2542826.5,"ADDRESS":"中華東路二段１６９號五樓之１８","OBJECTID":599152},"geometry":{"x":171368.16999999993,"y":2542826.5}},{"attributes":{"ID":599180,"DIS_CODE":0,"TOWNNAME":"東區","LI":"自強里","LIN":"27鄰","STREET":"中華東路","SECT":"二段","MAREA":" ","LANE":" ","ALLEY":" ","HOUSE_NO":"１６９號五樓之１９","E_COORD97":171368.17000000001,"N_COORD97":2542826.5,"ADDRESS":"中華東路二段１６９號五樓之１９","OBJECTID":599153},"geometry":{"x":171368.16999999993,"y":2542826.5}},{"attributes":{"ID":599181,"DIS_CODE":0,"TOWNNAME":"東區","LI":"自強里","LIN":"27鄰","STREET":"中華東路","SECT":"二段","MAREA":" ","LANE":" ","ALLEY":" ","HOUSE_NO":"１６９號五樓之２０","E_COORD97":171368.17000000001,"N_COORD97":2542826.5,"ADDRESS":"中華東路二段１６９號五樓之２０","OBJECTID":599154},"geometry":{"x":171368.16999999993,"y":2542826.5}},{"attributes":{"ID":599182,"DIS_CODE":0,"TOWNNAME":"東區","LI":"自強里","LIN":"27鄰","STREET":"中華東路","SECT":"二段","MAREA":" ","LANE":" ","ALLEY":" ","HOUSE_NO":"１６９號五樓之２１","E_COORD97":171368.17000000001,"N_COORD97":2542826.5,"ADDRESS":"中華東路二段１６９號五樓之２１","OBJECTID":599155},"geometry":{"x":171368.16999999993,"y":2542826.5}},{"attributes":{"ID":599183,"DIS_CODE":0,"TOWNNAME":"東區","LI":"自強里","LIN":"27鄰","STREET":"中華東路","SECT":"二段","MAREA":" ","LANE":" ","ALLEY":" ","HOUSE_NO":"１６９號六樓之１","E_COORD97":171368.17000000001,"N_COORD97":2542826.5,"ADDRESS":"中華東路二段１６９號六樓之１","OBJECTID":599156},"geometry":{"x":171368.16999999993,"y":2542826.5}},{"attributes":{"ID":599184,"DIS_CODE":0,"TOWNNAME":"東區","LI":"自強里","LIN":"27鄰","STREET":"中華東路","SECT":"二段","MAREA":" ","LANE":" ","ALLEY":" ","HOUSE_NO":"１６９號六樓之２","E_COORD97":171368.17000000001,"N_COORD97":2542826.5,"ADDRESS":"中華東路二段１６９號六樓之２","OBJECTID":599157},"geometry":{"x":171368.16999999993,"y":2542826.5}},{"attributes":{"ID":599185,"DIS_CODE":0,"TOWNNAME":"東區","LI":"自強里","LIN":"27鄰","STREET":"中華東路","SECT":"二段","MAREA":" ","LANE":" ","ALLEY":" ","HOUSE_NO":"１６９號六樓之３","E_COORD97":171368.17000000001,"N_COORD97":2542826.5,"ADDRESS":"中華東路二段１６９號六樓之３","OBJECTID":599158},"geometry":{"x":171368.16999999993,"y":2542826.5}},{"attributes":{"ID":599186,"DIS_CODE":0,"TOWNNAME":"東區","LI":"自強里","LIN":"27鄰","STREET":"中華東路","SECT":"二段","MAREA":" ","LANE":" ","ALLEY":" ","HOUSE_NO":"１６９號六樓之５","E_COORD97":171368.17000000001,"N_COORD97":2542826.5,"ADDRESS":"中華東路二段１６９號六樓之５","OBJECTID":599159},"geometry":{"x":171368.16999999993,"y":2542826.5}},{"attributes":{"ID":599187,"DIS_CODE":0,"TOWNNAME":"東區","LI":"自強里","LIN":"27鄰","STREET":"中華東路","SECT":"二段","MAREA":" ","LANE":" ","ALLEY":" ","HOUSE_NO":"１６９號六樓之６","E_COORD97":171368.17000000001,"N_COORD97":2542826.5,"ADDRESS":"中華東路二段１６９號六樓之６","OBJECTID":599160},"geometry":{"x":171368.16999999993,"y":2542826.5}},{"attributes":{"ID":599188,"DIS_CODE":0,"TOWNNAME":"東區","LI":"自強里","LIN":"27鄰","STREET":"中華東路","SECT":"二段","MAREA":" ","LANE":" ","ALLEY":" ","HOUSE_NO":"１６９號六樓之７","E_COORD97":171368.17000000001,"N_COORD97":2542826.5,"ADDRESS":"中華東路二段１６９號六樓之７","OBJECTID":599161},"geometry":{"x":171368.16999999993,"y":2542826.5}},{"attributes":{"ID":599189,"DIS_CODE":0,"TOWNNAME":"東區","LI":"自強里","LIN":"27鄰","STREET":"中華東路","SECT":"二段","MAREA":" ","LANE":" ","ALLEY":" ","HOUSE_NO":"１６９號六樓之８","E_COORD97":171368.17000000001,"N_COORD97":2542826.5,"ADDRESS":"中華東路二段１６９號六樓之８","OBJECTID":599162},"geometry":{"x":171368.16999999993,"y":2542826.5}},{"attributes":{"ID":599190,"DIS_CODE":0,"TOWNNAME":"東區","LI":"自強里","LIN":"27鄰","STREET":"中華東路","SECT":"二段","MAREA":" ","LANE":" ","ALLEY":" ","HOUSE_NO":"１６９號六樓之９","E_COORD97":171368.17000000001,"N_COORD97":2542826.5,"ADDRESS":"中華東路二段１６９號六樓之９","OBJECTID":599163},"geometry":{"x":171368.16999999993,"y":2542826.5}},{"attributes":{"ID":599191,"DIS_CODE":0,"TOWNNAME":"東區","LI":"自強里","LIN":"27鄰","STREET":"中華東路","SECT":"二段","MAREA":" ","LANE":" ","ALLEY":" ","HOUSE_NO":"１６９號六樓之１０","E_COORD97":171368.17000000001,"N_COORD97":2542826.5,"ADDRESS":"中華東路二段１６９號六樓之１０","OBJECTID":599164},"geometry":{"x":171368.16999999993,"y":2542826.5}},{"attributes":{"ID":599192,"DIS_CODE":0,"TOWNNAME":"東區","LI":"自強里","LIN":"27鄰","STREET":"中華東路","SECT":"二段","MAREA":" ","LANE":" ","ALLEY":" ","HOUSE_NO":"１６９號六樓之１１","E_COORD97":171368.17000000001,"N_COORD97":2542826.5,"ADDRESS":"中華東路二段１６９號六樓之１１","OBJECTID":599165},"geometry":{"x":171368.16999999993,"y":2542826.5}},{"attributes":{"ID":599193,"DIS_CODE":0,"TOWNNAME":"東區","LI":"自強里","LIN":"27鄰","STREET":"中華東路","SECT":"二段","MAREA":" ","LANE":" ","ALLEY":" ","HOUSE_NO":"１６９號六樓之１２","E_COORD97":171368.17000000001,"N_COORD97":2542826.5,"ADDRESS":"中華東路二段１６９號六樓之１２","OBJECTID":599166},"geometry":{"x":171368.16999999993,"y":2542826.5}},{"attributes":{"ID":599194,"DIS_CODE":0,"TOWNNAME":"東區","LI":"自強里","LIN":"27鄰","STREET":"中華東路","SECT":"二段","MAREA":" ","LANE":" ","ALLEY":" ","HOUSE_NO":"１６９號六樓之１３","E_COORD97":171368.17000000001,"N_COORD97":2542826.5,"ADDRESS":"中華東路二段１６９號六樓之１３","OBJECTID":599167},"geometry":{"x":171368.16999999993,"y":2542826.5}},{"attributes":{"ID":599195,"DIS_CODE":0,"TOWNNAME":"東區","LI":"自強里","LIN":"27鄰","STREET":"中華東路","SECT":"二段","MAREA":" ","LANE":" ","ALLEY":" ","HOUSE_NO":"１６９號六樓之１５","E_COORD97":171368.17000000001,"N_COORD97":2542826.5,"ADDRESS":"中華東路二段１６９號六樓之１５","OBJECTID":599168},"geometry":{"x":171368.16999999993,"y":2542826.5}},{"attributes":{"ID":599196,"DIS_CODE":0,"TOWNNAME":"東區","LI":"自強里","LIN":"27鄰","STREET":"中華東路","SECT":"二段","MAREA":" ","LANE":" ","ALLEY":" ","HOUSE_NO":"１６９號六樓之１６","E_COORD97":171368.17000000001,"N_COORD97":2542826.5,"ADDRESS":"中華東路二段１６９號六樓之１６","OBJECTID":599169},"geometry":{"x":171368.16999999993,"y":2542826.5}},{"attributes":{"ID":599197,"DIS_CODE":0,"TOWNNAME":"東區","LI":"自強里","LIN":"27鄰","STREET":"中華東路","SECT":"二段","MAREA":" ","LANE":" ","ALLEY":" ","HOUSE_NO":"１６９號六樓之１７","E_COORD97":171368.17000000001,"N_COORD97":2542826.5,"ADDRESS":"中華東路二段１６９號六樓之１７","OBJECTID":599170},"geometry":{"x":171368.16999999993,"y":2542826.5}},{"attributes":{"ID":599198,"DIS_CODE":0,"TOWNNAME":"東區","LI":"自強里","LIN":"27鄰","STREET":"中華東路","SECT":"二段","MAREA":" ","LANE":" ","ALLEY":" ","HOUSE_NO":"１６９號六樓之１８","E_COORD97":171368.17000000001,"N_COORD97":2542826.5,"ADDRESS":"中華東路二段１６９號六樓之１８","OBJECTID":599171},"geometry":{"x":171368.16999999993,"y":2542826.5}},{"attributes":{"ID":599199,"DIS_CODE":0,"TOWNNAME":"東區","LI":"自強里","LIN":"27鄰","STREET":"中華東路","SECT":"二段","MAREA":" ","LANE":" ","ALLEY":" ","HOUSE_NO":"１６９號六樓之１９","E_COORD97":171368.17000000001,"N_COORD97":2542826.5,"ADDRESS":"中華東路二段１６９號六樓之１９","OBJECTID":599172},"geometry":{"x":171368.16999999993,"y":2542826.5}},{"attributes":{"ID":599200,"DIS_CODE":0,"TOWNNAME":"東區","LI":"自強里","LIN":"27鄰","STREET":"中華東路","SECT":"二段","MAREA":" ","LANE":" ","ALLEY":" ","HOUSE_NO":"１６９號六樓之２０","E_COORD97":171368.17000000001,"N_COORD97":2542826.5,"ADDRESS":"中華東路二段１６９號六樓之２０","OBJECTID":599173},"geometry":{"x":171368.16999999993,"y":2542826.5}},{"attributes":{"ID":599201,"DIS_CODE":0,"TOWNNAME":"東區","LI":"自強里","LIN":"27鄰","STREET":"中華東路","SECT":"二段","MAREA":" ","LANE":" ","ALLEY":" ","HOUSE_NO":"１６９號六樓之２１","E_COORD97":171368.17000000001,"N_COORD97":2542826.5,"ADDRESS":"中華東路二段１６９號六樓之２１","OBJECTID":599174},"geometry":{"x":171368.16999999993,"y":2542826.5}},{"attributes":{"ID":599202,"DIS_CODE":0,"TOWNNAME":"東區","LI":"自強里","LIN":"27鄰","STREET":"中華東路","SECT":"二段","MAREA":" ","LANE":" ","ALLEY":" ","HOUSE_NO":"１６９號七樓之１","E_COORD97":171368.17000000001,"N_COORD97":2542826.5,"ADDRESS":"中華東路二段１６９號七樓之１","OBJECTID":599175},"geometry":{"x":171368.16999999993,"y":2542826.5}},{"attributes":{"ID":599203,"DIS_CODE":0,"TOWNNAME":"東區","LI":"自強里","LIN":"27鄰","STREET":"中華東路","SECT":"二段","MAREA":" ","LANE":" ","ALLEY":" ","HOUSE_NO":"１６９號七樓之２","E_COORD97":171368.17000000001,"N_COORD97":2542826.5,"ADDRESS":"中華東路二段１６９號七樓之２","OBJECTID":599176},"geometry":{"x":171368.16999999993,"y":2542826.5}},{"attributes":{"ID":599204,"DIS_CODE":0,"TOWNNAME":"東區","LI":"自強里","LIN":"27鄰","STREET":"中華東路","SECT":"二段","MAREA":" ","LANE":" ","ALLEY":" ","HOUSE_NO":"１６９號七樓之３","E_COORD97":171368.17000000001,"N_COORD97":2542826.5,"ADDRESS":"中華東路二段１６９號七樓之３","OBJECTID":599177},"geometry":{"x":171368.16999999993,"y":2542826.5}},{"attributes":{"ID":599205,"DIS_CODE":0,"TOWNNAME":"東區","LI":"自強里","LIN":"27鄰","STREET":"中華東路","SECT":"二段","MAREA":" ","LANE":" ","ALLEY":" ","HOUSE_NO":"１６９號七樓之５","E_COORD97":171368.17000000001,"N_COORD97":2542826.5,"ADDRESS":"中華東路二段１６９號七樓之５","OBJECTID":599178},"geometry":{"x":171368.16999999993,"y":2542826.5}},{"attributes":{"ID":599206,"DIS_CODE":0,"TOWNNAME":"東區","LI":"自強里","LIN":"27鄰","STREET":"中華東路","SECT":"二段","MAREA":" ","LANE":" ","ALLEY":" ","HOUSE_NO":"１６９號七樓之６","E_COORD97":171368.17000000001,"N_COORD97":2542826.5,"ADDRESS":"中華東路二段１６９號七樓之６","OBJECTID":599179},"geometry":{"x":171368.16999999993,"y":2542826.5}},{"attributes":{"ID":599207,"DIS_CODE":0,"TOWNNAME":"東區","LI":"自強里","LIN":"27鄰","STREET":"中華東路","SECT":"二段","MAREA":" ","LANE":" ","ALLEY":" ","HOUSE_NO":"１６９號七樓之７","E_COORD97":171368.17000000001,"N_COORD97":2542826.5,"ADDRESS":"中華東路二段１６９號七樓之７","OBJECTID":599180},"geometry":{"x":171368.16999999993,"y":2542826.5}},{"attributes":{"ID":599208,"DIS_CODE":0,"TOWNNAME":"東區","LI":"自強里","LIN":"27鄰","STREET":"中華東路","SECT":"二段","MAREA":" ","LANE":" ","ALLEY":" ","HOUSE_NO":"１６９號七樓之８","E_COORD97":171368.17000000001,"N_COORD97":2542826.5,"ADDRESS":"中華東路二段１６９號七樓之８","OBJECTID":599181},"geometry":{"x":171368.16999999993,"y":2542826.5}},{"attributes":{"ID":599209,"DIS_CODE":0,"TOWNNAME":"東區","LI":"自強里","LIN":"27鄰","STREET":"中華東路","SECT":"二段","MAREA":" ","LANE":" ","ALLEY":" ","HOUSE_NO":"１６９號七樓之９","E_COORD97":171368.17000000001,"N_COORD97":2542826.5,"ADDRESS":"中華東路二段１６９號七樓之９","OBJECTID":599182},"geometry":{"x":171368.16999999993,"y":2542826.5}},{"attributes":{"ID":599210,"DIS_CODE":0,"TOWNNAME":"東區","LI":"自強里","LIN":"27鄰","STREET":"中華東路","SECT":"二段","MAREA":" ","LANE":" ","ALLEY":" ","HOUSE_NO":"１６９號七樓之１０","E_COORD97":171368.17000000001,"N_COORD97":2542826.5,"ADDRESS":"中華東路二段１６９號七樓之１０","OBJECTID":599183},"geometry":{"x":171368.16999999993,"y":2542826.5}},{"attributes":{"ID":599211,"DIS_CODE":0,"TOWNNAME":"東區","LI":"自強里","LIN":"27鄰","STREET":"中華東路","SECT":"二段","MAREA":" ","LANE":" ","ALLEY":" ","HOUSE_NO":"１６９號七樓之１１","E_COORD97":171368.17000000001,"N_COORD97":2542826.5,"ADDRESS":"中華東路二段１６９號七樓之１１","OBJECTID":599184},"geometry":{"x":171368.16999999993,"y":2542826.5}},{"attributes":{"ID":599212,"DIS_CODE":0,"TOWNNAME":"永康區","LI":"復國里","LIN":"27鄰","STREET":"復華三街","SECT":" ","MAREA":" ","LANE":" ","ALLEY":" ","HOUSE_NO":"６６號十三樓之１","E_COORD97":172711.79000000001,"N_COORD97":2545600.7999999998,"ADDRESS":"復華三街６６號十三樓之１","OBJECTID":599185},"geometry":{"x":172711.79000000004,"y":2545600.8000000026}},{"attributes":{"ID":599213,"DIS_CODE":0,"TOWNNAME":"東區","LI":"自強里","LIN":"27鄰","STREET":"中華東路","SECT":"二段","MAREA":" ","LANE":" ","ALLEY":" ","HOUSE_NO":"１６９號七樓之１２","E_COORD97":171368.17000000001,"N_COORD97":2542826.5,"ADDRESS":"中華東路二段１６９號七樓之１２","OBJECTID":599186},"geometry":{"x":171368.16999999993,"y":2542826.5}},{"attributes":{"ID":599214,"DIS_CODE":0,"TOWNNAME":"東區","LI":"自強里","LIN":"27鄰","STREET":"中華東路","SECT":"二段","MAREA":" ","LANE":" ","ALLEY":" ","HOUSE_NO":"１６９號七樓之１３","E_COORD97":171368.17000000001,"N_COORD97":2542826.5,"ADDRESS":"中華東路二段１６９號七樓之１３","OBJECTID":599187},"geometry":{"x":171368.16999999993,"y":2542826.5}},{"attributes":{"ID":599215,"DIS_CODE":0,"TOWNNAME":"東區","LI":"自強里","LIN":"27鄰","STREET":"中華東路","SECT":"二段","MAREA":" ","LANE":" ","ALLEY":" ","HOUSE_NO":"１６９號七樓之１５","E_COORD97":171368.17000000001,"N_COORD97":2542826.5,"ADDRESS":"中華東路二段１６９號七樓之１５","OBJECTID":599188},"geometry":{"x":171368.16999999993,"y":2542826.5}},{"attributes":{"ID":599216,"DIS_CODE":0,"TOWNNAME":"東區","LI":"自強里","LIN":"27鄰","STREET":"中華東路","SECT":"二段","MAREA":" ","LANE":" ","ALLEY":" ","HOUSE_NO":"１６９號七樓之１６","E_COORD97":171368.17000000001,"N_COORD97":2542826.5,"ADDRESS":"中華東路二段１６９號七樓之１６","OBJECTID":599189},"geometry":{"x":171368.16999999993,"y":2542826.5}},{"attributes":{"ID":599217,"DIS_CODE":0,"TOWNNAME":"東區","LI":"自強里","LIN":"27鄰","STREET":"中華東路","SECT":"二段","MAREA":" ","LANE":" ","ALLEY":" ","HOUSE_NO":"１６９號七樓之１７","E_COORD97":171368.17000000001,"N_COORD97":2542826.5,"ADDRESS":"中華東路二段１６９號七樓之１７","OBJECTID":599190},"geometry":{"x":171368.16999999993,"y":2542826.5}},{"attributes":{"ID":599218,"DIS_CODE":0,"TOWNNAME":"東區","LI":"自強里","LIN":"27鄰","STREET":"中華東路","SECT":"二段","MAREA":" ","LANE":" ","ALLEY":" ","HOUSE_NO":"１６９號七樓之１８","E_COORD97":171368.17000000001,"N_COORD97":2542826.5,"ADDRESS":"中華東路二段１６９號七樓之１８","OBJECTID":599191},"geometry":{"x":171368.16999999993,"y":2542826.5}},{"attributes":{"ID":599219,"DIS_CODE":0,"TOWNNAME":"東區","LI":"自強里","LIN":"27鄰","STREET":"中華東路","SECT":"二段","MAREA":" ","LANE":" ","ALLEY":" ","HOUSE_NO":"１６９號七樓之１９","E_COORD97":171368.17000000001,"N_COORD97":2542826.5,"ADDRESS":"中華東路二段１６９號七樓之１９","OBJECTID":599192},"geometry":{"x":171368.16999999993,"y":2542826.5}},{"attributes":{"ID":599220,"DIS_CODE":0,"TOWNNAME":"東區","LI":"自強里","LIN":"27鄰","STREET":"中華東路","SECT":"二段","MAREA":" ","LANE":" ","ALLEY":" ","HOUSE_NO":"１６９號七樓之２０","E_COORD97":171368.17000000001,"N_COORD97":2542826.5,"ADDRESS":"中華東路二段１６９號七樓之２０","OBJECTID":599193},"geometry":{"x":171368.16999999993,"y":2542826.5}},{"attributes":{"ID":599221,"DIS_CODE":0,"TOWNNAME":"東區","LI":"自強里","LIN":"27鄰","STREET":"中華東路","SECT":"二段","MAREA":" ","LANE":" ","ALLEY":" ","HOUSE_NO":"１６９號七樓之２１","E_COORD97":171368.17000000001,"N_COORD97":2542826.5,"ADDRESS":"中華東路二段１６９號七樓之２１","OBJECTID":599194},"geometry":{"x":171368.16999999993,"y":2542826.5}},{"attributes":{"ID":599222,"DIS_CODE":0,"TOWNNAME":"東區","LI":"自強里","LIN":"27鄰","STREET":"中華東路","SECT":"二段","MAREA":" ","LANE":" ","ALLEY":" ","HOUSE_NO":"１６９號八樓之１","E_COORD97":171368.17000000001,"N_COORD97":2542826.5,"ADDRESS":"中華東路二段１６９號八樓之１","OBJECTID":599195},"geometry":{"x":171368.16999999993,"y":2542826.5}},{"attributes":{"ID":599223,"DIS_CODE":0,"TOWNNAME":"東區","LI":"自強里","LIN":"27鄰","STREET":"中華東路","SECT":"二段","MAREA":" ","LANE":" ","ALLEY":" ","HOUSE_NO":"１６９號八樓之２","E_COORD97":171368.17000000001,"N_COORD97":2542826.5,"ADDRESS":"中華東路二段１６９號八樓之２","OBJECTID":599196},"geometry":{"x":171368.16999999993,"y":2542826.5}},{"attributes":{"ID":599224,"DIS_CODE":0,"TOWNNAME":"東區","LI":"自強里","LIN":"27鄰","STREET":"中華東路","SECT":"二段","MAREA":" ","LANE":" ","ALLEY":" ","HOUSE_NO":"１６９號八樓之３","E_COORD97":171368.17000000001,"N_COORD97":2542826.5,"ADDRESS":"中華東路二段１６９號八樓之３","OBJECTID":599197},"geometry":{"x":171368.16999999993,"y":2542826.5}},{"attributes":{"ID":599225,"DIS_CODE":0,"TOWNNAME":"東區","LI":"自強里","LIN":"27鄰","STREET":"中華東路","SECT":"二段","MAREA":" ","LANE":" ","ALLEY":" ","HOUSE_NO":"１６９號八樓之５","E_COORD97":171368.17000000001,"N_COORD97":2542826.5,"ADDRESS":"中華東路二段１６９號八樓之５","OBJECTID":599198},"geometry":{"x":171368.16999999993,"y":2542826.5}},{"attributes":{"ID":599226,"DIS_CODE":0,"TOWNNAME":"東區","LI":"自強里","LIN":"27鄰","STREET":"中華東路","SECT":"二段","MAREA":" ","LANE":" ","ALLEY":" ","HOUSE_NO":"１６９號八樓之６","E_COORD97":171368.17000000001,"N_COORD97":2542826.5,"ADDRESS":"中華東路二段１６９號八樓之６","OBJECTID":599199},"geometry":{"x":171368.16999999993,"y":2542826.5}},{"attributes":{"ID":599227,"DIS_CODE":0,"TOWNNAME":"東區","LI":"自強里","LIN":"27鄰","STREET":"中華東路","SECT":"二段","MAREA":" ","LANE":" ","ALLEY":" ","HOUSE_NO":"１６９號八樓之７","E_COORD97":171368.17000000001,"N_COORD97":2542826.5,"ADDRESS":"中華東路二段１６９號八樓之７","OBJECTID":599200},"geometry":{"x":171368.16999999993,"y":2542826.5}}]}