{"displayFieldName":"TOWNNAME","fieldAliases":{"ID":"ID","DIS_CODE":"DIS_CODE","TOWNNAME":"TOWNNAME","LI":"LI","LIN":"LIN","STREET":"STREET","SECT":"SECT","MAREA":"MAREA","LANE":"LANE","ALLEY":"ALLEY","HOUSE_NO":"HOUSE_NO","E_COORD97":"E_COORD97","N_COORD97":"N_COORD97","ADDRESS":"ADDRESS","OBJECTID":"OBJECTID"},"geometryType":"esriGeometryPoint","spatialReference":{"wkid":102443,"latestWkid":3826},"fields":[{"name":"ID","type":"esriFieldTypeDouble","alias":"ID"},{"name":"DIS_CODE","type":"esriFieldTypeInteger","alias":"DIS_CODE"},{"name":"TOWNNAME","type":"esriFieldTypeString","alias":"TOWNNAME","length":8},{"name":"LI","type":"esriFieldTypeString","alias":"LI","length":8},{"name":"LIN","type":"esriFieldTypeString","alias":"LIN","length":12},{"name":"STREET","type":"esriFieldTypeString","alias":"STREET","length":20},{"name":"SECT","type":"esriFieldTypeString","alias":"SECT","length":8},{"name":"MAREA","type":"esriFieldTypeString","alias":"MAREA","length":12},{"name":"LANE","type":"esriFieldTypeString","alias":"LANE","length":10},{"name":"ALLEY","type":"esriFieldTypeString","alias":"ALLEY","length":10},{"name":"HOUSE_NO","type":"esriFieldTypeString","alias":"HOUSE_NO","length":20},{"name":"E_COORD97","type":"esriFieldTypeDouble","alias":"E_COORD97"},{"name":"N_COORD97","type":"esriFieldTypeDouble","alias":"N_COORD97"},{"name":"ADDRESS","type":"esriFieldTypeString","alias":"ADDRESS","length":50},{"name":"OBJECTID","type":"esriFieldTypeOID","alias":"OBJECTID"}],"features":[{"attributes":{"ID":598628,"DIS_CODE":0,"TOWNNAME":"南區","LI":"文南里","LIN":"27鄰","STREET":"健康路","SECT":"二段","MAREA":" ","LANE":" ","ALLEY":" ","HOUSE_NO":"４９９號六樓之３","E_COORD97":166295.82000000001,"N_COORD97":2542544.2999999998,"ADDRESS":"健康路二段４９９號六樓之３","OBJECTID":598601},"geometry":{"x":166295.82000000216,"y":2542544.3000000007}},{"attributes":{"ID":598629,"DIS_CODE":0,"TOWNNAME":"南區","LI":"文南里","LIN":"27鄰","STREET":"健康路","SECT":"二段","MAREA":" ","LANE":" ","ALLEY":" ","HOUSE_NO":"４９９號六樓之４","E_COORD97":166295.82000000001,"N_COORD97":2542544.2999999998,"ADDRESS":"健康路二段４９９號六樓之４","OBJECTID":598602},"geometry":{"x":166295.82000000216,"y":2542544.3000000007}},{"attributes":{"ID":598630,"DIS_CODE":0,"TOWNNAME":"南區","LI":"文南里","LIN":"27鄰","STREET":"健康路","SECT":"二段","MAREA":" ","LANE":" ","ALLEY":" ","HOUSE_NO":"４９９號六樓之５","E_COORD97":166295.82000000001,"N_COORD97":2542544.2999999998,"ADDRESS":"健康路二段４９９號六樓之５","OBJECTID":598603},"geometry":{"x":166295.82000000216,"y":2542544.3000000007}},{"attributes":{"ID":598631,"DIS_CODE":0,"TOWNNAME":"南區","LI":"文南里","LIN":"27鄰","STREET":"健康路","SECT":"二段","MAREA":" ","LANE":" ","ALLEY":" ","HOUSE_NO":"４９９號六樓之６","E_COORD97":166295.82000000001,"N_COORD97":2542544.2999999998,"ADDRESS":"健康路二段４９９號六樓之６","OBJECTID":598604},"geometry":{"x":166295.82000000216,"y":2542544.3000000007}},{"attributes":{"ID":598632,"DIS_CODE":0,"TOWNNAME":"南區","LI":"文南里","LIN":"27鄰","STREET":"健康路","SECT":"二段","MAREA":" ","LANE":" ","ALLEY":" ","HOUSE_NO":"４９９號六樓之７","E_COORD97":166295.82000000001,"N_COORD97":2542544.2999999998,"ADDRESS":"健康路二段４９９號六樓之７","OBJECTID":598605},"geometry":{"x":166295.82000000216,"y":2542544.3000000007}},{"attributes":{"ID":598633,"DIS_CODE":0,"TOWNNAME":"南區","LI":"文南里","LIN":"27鄰","STREET":"健康路","SECT":"二段","MAREA":" ","LANE":" ","ALLEY":" ","HOUSE_NO":"４９９號六樓之８","E_COORD97":166295.82000000001,"N_COORD97":2542544.2999999998,"ADDRESS":"健康路二段４９９號六樓之８","OBJECTID":598606},"geometry":{"x":166295.82000000216,"y":2542544.3000000007}},{"attributes":{"ID":598634,"DIS_CODE":0,"TOWNNAME":"南區","LI":"文南里","LIN":"27鄰","STREET":"健康路","SECT":"二段","MAREA":" ","LANE":" ","ALLEY":" ","HOUSE_NO":"４９９號六樓之９","E_COORD97":166295.82000000001,"N_COORD97":2542544.2999999998,"ADDRESS":"健康路二段４９９號六樓之９","OBJECTID":598607},"geometry":{"x":166295.82000000216,"y":2542544.3000000007}},{"attributes":{"ID":598635,"DIS_CODE":0,"TOWNNAME":"永康區","LI":"勝利里","LIN":"20鄰","STREET":"勝華街","SECT":" ","MAREA":" ","LANE":" ","ALLEY":" ","HOUSE_NO":"１１０號","E_COORD97":171292.51000000001,"N_COORD97":2545221.5,"ADDRESS":"勝華街１１０號","OBJECTID":598608},"geometry":{"x":171292.50999999978,"y":2545221.5000000019}},{"attributes":{"ID":598636,"DIS_CODE":0,"TOWNNAME":"永康區","LI":"崑山里","LIN":"1鄰","STREET":"大灣路","SECT":" ","MAREA":" ","LANE":" ","ALLEY":" ","HOUSE_NO":"７１１號之１","E_COORD97":173924.13,"N_COORD97":2544462.7799999998,"ADDRESS":"大灣路７１１號之１","OBJECTID":598609},"geometry":{"x":173924.13000000082,"y":2544462.7800000012}},{"attributes":{"ID":598637,"DIS_CODE":0,"TOWNNAME":"永康區","LI":"崑山里","LIN":"19鄰","STREET":"大灣路","SECT":" ","MAREA":" ","LANE":" ","ALLEY":" ","HOUSE_NO":"８４０號","E_COORD97":173887.20000000001,"N_COORD97":2544481.3399999999,"ADDRESS":"大灣路８４０號","OBJECTID":598610},"geometry":{"x":173887.20000000019,"y":2544481.3399999999}},{"attributes":{"ID":598638,"DIS_CODE":0,"TOWNNAME":"永康區","LI":"崑山里","LIN":"19鄰","STREET":"大灣路","SECT":" ","MAREA":" ","LANE":" ","ALLEY":" ","HOUSE_NO":"８３６號","E_COORD97":173903.89999999999,"N_COORD97":2544485.1800000002,"ADDRESS":"大灣路８３６號","OBJECTID":598611},"geometry":{"x":173903.9000000013,"y":2544485.1800000016}},{"attributes":{"ID":598639,"DIS_CODE":0,"TOWNNAME":"永康區","LI":"崑山里","LIN":"37鄰","STREET":"大仁街","SECT":" ","MAREA":" ","LANE":" ","ALLEY":" ","HOUSE_NO":"１７０號","E_COORD97":173921.12,"N_COORD97":2545004.3799999999,"ADDRESS":"大仁街１７０號","OBJECTID":598612},"geometry":{"x":173921.12000000104,"y":2545004.3800000008}},{"attributes":{"ID":598640,"DIS_CODE":0,"TOWNNAME":"永康區","LI":"復國里","LIN":"11鄰","STREET":"復國二路","SECT":" ","MAREA":" ","LANE":" ","ALLEY":" ","HOUSE_NO":"８９號","E_COORD97":172851.32999999999,"N_COORD97":2545435.73,"ADDRESS":"復國二路８９號","OBJECTID":598613},"geometry":{"x":172851.33000000101,"y":2545435.7300000004}},{"attributes":{"ID":598641,"DIS_CODE":0,"TOWNNAME":"南區","LI":"文南里","LIN":"27鄰","STREET":"健康路","SECT":"二段","MAREA":" ","LANE":" ","ALLEY":" ","HOUSE_NO":"４９９號四樓之１","E_COORD97":166295.82000000001,"N_COORD97":2542544.2999999998,"ADDRESS":"健康路二段４９９號四樓之１","OBJECTID":598614},"geometry":{"x":166295.82000000216,"y":2542544.3000000007}},{"attributes":{"ID":598642,"DIS_CODE":0,"TOWNNAME":"南區","LI":"文南里","LIN":"27鄰","STREET":"健康路","SECT":"二段","MAREA":" ","LANE":" ","ALLEY":" ","HOUSE_NO":"４９９號四樓之１０","E_COORD97":166295.82000000001,"N_COORD97":2542544.2999999998,"ADDRESS":"健康路二段４９９號四樓之１０","OBJECTID":598615},"geometry":{"x":166295.82000000216,"y":2542544.3000000007}},{"attributes":{"ID":598643,"DIS_CODE":0,"TOWNNAME":"南區","LI":"文南里","LIN":"27鄰","STREET":"健康路","SECT":"二段","MAREA":" ","LANE":" ","ALLEY":" ","HOUSE_NO":"４９９號四樓之１１","E_COORD97":166295.82000000001,"N_COORD97":2542544.2999999998,"ADDRESS":"健康路二段４９９號四樓之１１","OBJECTID":598616},"geometry":{"x":166295.82000000216,"y":2542544.3000000007}},{"attributes":{"ID":598644,"DIS_CODE":0,"TOWNNAME":"南區","LI":"文南里","LIN":"27鄰","STREET":"健康路","SECT":"二段","MAREA":" ","LANE":" ","ALLEY":" ","HOUSE_NO":"４９９號四樓之１２","E_COORD97":166295.82000000001,"N_COORD97":2542544.2999999998,"ADDRESS":"健康路二段４９９號四樓之１２","OBJECTID":598617},"geometry":{"x":166295.82000000216,"y":2542544.3000000007}},{"attributes":{"ID":598645,"DIS_CODE":0,"TOWNNAME":"南區","LI":"文南里","LIN":"27鄰","STREET":"健康路","SECT":"二段","MAREA":" ","LANE":" ","ALLEY":" ","HOUSE_NO":"４９９號四樓之１３","E_COORD97":166295.82000000001,"N_COORD97":2542544.2999999998,"ADDRESS":"健康路二段４９９號四樓之１３","OBJECTID":598618},"geometry":{"x":166295.82000000216,"y":2542544.3000000007}},{"attributes":{"ID":598646,"DIS_CODE":0,"TOWNNAME":"南區","LI":"文南里","LIN":"27鄰","STREET":"健康路","SECT":"二段","MAREA":" ","LANE":" ","ALLEY":" ","HOUSE_NO":"４９９號四樓之２","E_COORD97":166295.82000000001,"N_COORD97":2542544.2999999998,"ADDRESS":"健康路二段４９９號四樓之２","OBJECTID":598619},"geometry":{"x":166295.82000000216,"y":2542544.3000000007}},{"attributes":{"ID":598647,"DIS_CODE":0,"TOWNNAME":"南區","LI":"文南里","LIN":"27鄰","STREET":"健康路","SECT":"二段","MAREA":" ","LANE":" ","ALLEY":" ","HOUSE_NO":"４９９號四樓之３","E_COORD97":166295.82000000001,"N_COORD97":2542544.2999999998,"ADDRESS":"健康路二段４９９號四樓之３","OBJECTID":598620},"geometry":{"x":166295.82000000216,"y":2542544.3000000007}},{"attributes":{"ID":598648,"DIS_CODE":0,"TOWNNAME":"南區","LI":"文南里","LIN":"27鄰","STREET":"健康路","SECT":"二段","MAREA":" ","LANE":" ","ALLEY":" ","HOUSE_NO":"４９９號四樓之４","E_COORD97":166295.82000000001,"N_COORD97":2542544.2999999998,"ADDRESS":"健康路二段４９９號四樓之４","OBJECTID":598621},"geometry":{"x":166295.82000000216,"y":2542544.3000000007}},{"attributes":{"ID":598649,"DIS_CODE":0,"TOWNNAME":"南區","LI":"文南里","LIN":"27鄰","STREET":"健康路","SECT":"二段","MAREA":" ","LANE":" ","ALLEY":" ","HOUSE_NO":"４９９號四樓之５","E_COORD97":166295.82000000001,"N_COORD97":2542544.2999999998,"ADDRESS":"健康路二段４９９號四樓之５","OBJECTID":598622},"geometry":{"x":166295.82000000216,"y":2542544.3000000007}},{"attributes":{"ID":598650,"DIS_CODE":0,"TOWNNAME":"南區","LI":"文南里","LIN":"27鄰","STREET":"健康路","SECT":"二段","MAREA":" ","LANE":" ","ALLEY":" ","HOUSE_NO":"４９９號四樓之６","E_COORD97":166295.82000000001,"N_COORD97":2542544.2999999998,"ADDRESS":"健康路二段４９９號四樓之６","OBJECTID":598623},"geometry":{"x":166295.82000000216,"y":2542544.3000000007}},{"attributes":{"ID":598651,"DIS_CODE":0,"TOWNNAME":"南區","LI":"文南里","LIN":"27鄰","STREET":"健康路","SECT":"二段","MAREA":" ","LANE":" ","ALLEY":" ","HOUSE_NO":"４９９號四樓之７","E_COORD97":166295.82000000001,"N_COORD97":2542544.2999999998,"ADDRESS":"健康路二段４９９號四樓之７","OBJECTID":598624},"geometry":{"x":166295.82000000216,"y":2542544.3000000007}},{"attributes":{"ID":598652,"DIS_CODE":0,"TOWNNAME":"永康區","LI":"崑山里","LIN":"36鄰","STREET":"大仁街","SECT":" ","MAREA":" ","LANE":" ","ALLEY":" ","HOUSE_NO":"１８９號","E_COORD97":173905.53,"N_COORD97":2545035.4900000002,"ADDRESS":"大仁街１８９號","OBJECTID":598625},"geometry":{"x":173905.53000000026,"y":2545035.4900000021}},{"attributes":{"ID":598653,"DIS_CODE":0,"TOWNNAME":"東區","LI":"大智里","LIN":"25鄰","STREET":"文東街","SECT":" ","MAREA":" ","LANE":" ","ALLEY":" ","HOUSE_NO":"８０號","E_COORD97":171429.5,"N_COORD97":2540193.1699999999,"ADDRESS":"文東街８０號","OBJECTID":598626},"geometry":{"x":171429.50000000093,"y":2540193.1700000018}},{"attributes":{"ID":598654,"DIS_CODE":0,"TOWNNAME":"永康區","LI":"勝利里","LIN":"24鄰","STREET":"勝利街","SECT":" ","MAREA":" ","LANE":" ","ALLEY":" ","HOUSE_NO":"１１０號","E_COORD97":171364.31,"N_COORD97":2544844.8100000001,"ADDRESS":"勝利街１１０號","OBJECTID":598627},"geometry":{"x":171364.31000000052,"y":2544844.8100000024}},{"attributes":{"ID":598655,"DIS_CODE":0,"TOWNNAME":"永康區","LI":"復國里","LIN":"8鄰","STREET":"復國二路","SECT":" ","MAREA":" ","LANE":" ","ALLEY":" ","HOUSE_NO":"７８號之３","E_COORD97":172845.42000000001,"N_COORD97":2545167.7999999998,"ADDRESS":"復國二路７８號之３","OBJECTID":598628},"geometry":{"x":172845.42000000086,"y":2545167.8000000007}},{"attributes":{"ID":598656,"DIS_CODE":0,"TOWNNAME":"永康區","LI":"復國里","LIN":"8鄰","STREET":"復國二路","SECT":" ","MAREA":" ","LANE":" ","ALLEY":" ","HOUSE_NO":"７８號之５","E_COORD97":172846.01999999999,"N_COORD97":2545172.0499999998,"ADDRESS":"復國二路７８號之５","OBJECTID":598629},"geometry":{"x":172846.02000000048,"y":2545172.0500000026}},{"attributes":{"ID":598657,"DIS_CODE":0,"TOWNNAME":"永康區","LI":"勝利里","LIN":"33鄰","STREET":"中華路","SECT":" ","MAREA":" ","LANE":" ","ALLEY":" ","HOUSE_NO":"１號之６８","E_COORD97":171502.01000000001,"N_COORD97":2544353.0499999998,"ADDRESS":"中華路１號之６８","OBJECTID":598630},"geometry":{"x":171502.01000000071,"y":2544353.0500000007}},{"attributes":{"ID":598658,"DIS_CODE":0,"TOWNNAME":"永康區","LI":"復國里","LIN":"19鄰","STREET":"國華街","SECT":" ","MAREA":" ","LANE":" ","ALLEY":" ","HOUSE_NO":"４３號","E_COORD97":172836.19,"N_COORD97":2545724.6299999999,"ADDRESS":"國華街４３號","OBJECTID":598631},"geometry":{"x":172836.19000000041,"y":2545724.6300000008}},{"attributes":{"ID":598659,"DIS_CODE":0,"TOWNNAME":"南區","LI":"文南里","LIN":"27鄰","STREET":"健康路","SECT":"二段","MAREA":" ","LANE":" ","ALLEY":" ","HOUSE_NO":"４９９號四樓之８","E_COORD97":166295.82000000001,"N_COORD97":2542544.2999999998,"ADDRESS":"健康路二段４９９號四樓之８","OBJECTID":598632},"geometry":{"x":166295.82000000216,"y":2542544.3000000007}},{"attributes":{"ID":598660,"DIS_CODE":0,"TOWNNAME":"南區","LI":"文南里","LIN":"27鄰","STREET":"健康路","SECT":"二段","MAREA":" ","LANE":" ","ALLEY":" ","HOUSE_NO":"４９９號四樓之９","E_COORD97":166295.82000000001,"N_COORD97":2542544.2999999998,"ADDRESS":"健康路二段４９９號四樓之９","OBJECTID":598633},"geometry":{"x":166295.82000000216,"y":2542544.3000000007}},{"attributes":{"ID":598661,"DIS_CODE":0,"TOWNNAME":"南區","LI":"文南里","LIN":"27鄰","STREET":"健康路","SECT":"二段","MAREA":" ","LANE":" ","ALLEY":" ","HOUSE_NO":"４９９號七樓之２","E_COORD97":166295.82000000001,"N_COORD97":2542544.2999999998,"ADDRESS":"健康路二段４９９號七樓之２","OBJECTID":598634},"geometry":{"x":166295.82000000216,"y":2542544.3000000007}},{"attributes":{"ID":598662,"DIS_CODE":0,"TOWNNAME":"南區","LI":"文南里","LIN":"27鄰","STREET":"健康路","SECT":"二段","MAREA":" ","LANE":" ","ALLEY":" ","HOUSE_NO":"４９９號七樓之３","E_COORD97":166295.82000000001,"N_COORD97":2542544.2999999998,"ADDRESS":"健康路二段４９９號七樓之３","OBJECTID":598635},"geometry":{"x":166295.82000000216,"y":2542544.3000000007}},{"attributes":{"ID":598663,"DIS_CODE":0,"TOWNNAME":"南區","LI":"文南里","LIN":"27鄰","STREET":"健康路","SECT":"二段","MAREA":" ","LANE":" ","ALLEY":" ","HOUSE_NO":"４９９號七樓之４","E_COORD97":166295.82000000001,"N_COORD97":2542544.2999999998,"ADDRESS":"健康路二段４９９號七樓之４","OBJECTID":598636},"geometry":{"x":166295.82000000216,"y":2542544.3000000007}},{"attributes":{"ID":598664,"DIS_CODE":0,"TOWNNAME":"南區","LI":"文南里","LIN":"27鄰","STREET":"健康路","SECT":"二段","MAREA":" ","LANE":" ","ALLEY":" ","HOUSE_NO":"４９９號七樓之５","E_COORD97":166295.82000000001,"N_COORD97":2542544.2999999998,"ADDRESS":"健康路二段４９９號七樓之５","OBJECTID":598637},"geometry":{"x":166295.82000000216,"y":2542544.3000000007}},{"attributes":{"ID":598665,"DIS_CODE":0,"TOWNNAME":"南區","LI":"文南里","LIN":"27鄰","STREET":"健康路","SECT":"二段","MAREA":" ","LANE":" ","ALLEY":" ","HOUSE_NO":"４９９號七樓之６","E_COORD97":166295.82000000001,"N_COORD97":2542544.2999999998,"ADDRESS":"健康路二段４９９號七樓之６","OBJECTID":598638},"geometry":{"x":166295.82000000216,"y":2542544.3000000007}},{"attributes":{"ID":598666,"DIS_CODE":0,"TOWNNAME":"南區","LI":"文南里","LIN":"27鄰","STREET":"健康路","SECT":"二段","MAREA":" ","LANE":" ","ALLEY":" ","HOUSE_NO":"４９９號七樓之７","E_COORD97":166295.82000000001,"N_COORD97":2542544.2999999998,"ADDRESS":"健康路二段４９９號七樓之７","OBJECTID":598639},"geometry":{"x":166295.82000000216,"y":2542544.3000000007}},{"attributes":{"ID":598667,"DIS_CODE":0,"TOWNNAME":"南區","LI":"文南里","LIN":"27鄰","STREET":"健康路","SECT":"二段","MAREA":" ","LANE":" ","ALLEY":" ","HOUSE_NO":"４９９號七樓之８","E_COORD97":166295.82000000001,"N_COORD97":2542544.2999999998,"ADDRESS":"健康路二段４９９號七樓之８","OBJECTID":598640},"geometry":{"x":166295.82000000216,"y":2542544.3000000007}},{"attributes":{"ID":598668,"DIS_CODE":0,"TOWNNAME":"南區","LI":"文南里","LIN":"27鄰","STREET":"健康路","SECT":"二段","MAREA":" ","LANE":" ","ALLEY":" ","HOUSE_NO":"４９９號七樓之９","E_COORD97":166295.82000000001,"N_COORD97":2542544.2999999998,"ADDRESS":"健康路二段４９９號七樓之９","OBJECTID":598641},"geometry":{"x":166295.82000000216,"y":2542544.3000000007}},{"attributes":{"ID":598669,"DIS_CODE":0,"TOWNNAME":"南區","LI":"文南里","LIN":"27鄰","STREET":"健康路","SECT":"二段","MAREA":" ","LANE":" ","ALLEY":" ","HOUSE_NO":"４９９號三樓之１","E_COORD97":166295.82000000001,"N_COORD97":2542544.2999999998,"ADDRESS":"健康路二段４９９號三樓之１","OBJECTID":598642},"geometry":{"x":166295.82000000216,"y":2542544.3000000007}},{"attributes":{"ID":598670,"DIS_CODE":0,"TOWNNAME":"南區","LI":"文南里","LIN":"27鄰","STREET":"健康路","SECT":"二段","MAREA":" ","LANE":" ","ALLEY":" ","HOUSE_NO":"４９９號三樓之２","E_COORD97":166295.82000000001,"N_COORD97":2542544.2999999998,"ADDRESS":"健康路二段４９９號三樓之２","OBJECTID":598643},"geometry":{"x":166295.82000000216,"y":2542544.3000000007}},{"attributes":{"ID":598671,"DIS_CODE":0,"TOWNNAME":"南區","LI":"文南里","LIN":"27鄰","STREET":"健康路","SECT":"二段","MAREA":" ","LANE":" ","ALLEY":" ","HOUSE_NO":"４９９號五樓之１","E_COORD97":166295.82000000001,"N_COORD97":2542544.2999999998,"ADDRESS":"健康路二段４９９號五樓之１","OBJECTID":598644},"geometry":{"x":166295.82000000216,"y":2542544.3000000007}},{"attributes":{"ID":598672,"DIS_CODE":0,"TOWNNAME":"南區","LI":"文南里","LIN":"27鄰","STREET":"健康路","SECT":"二段","MAREA":" ","LANE":" ","ALLEY":" ","HOUSE_NO":"４９９號五樓之１０","E_COORD97":166295.82000000001,"N_COORD97":2542544.2999999998,"ADDRESS":"健康路二段４９９號五樓之１０","OBJECTID":598645},"geometry":{"x":166295.82000000216,"y":2542544.3000000007}},{"attributes":{"ID":598673,"DIS_CODE":0,"TOWNNAME":"南區","LI":"文南里","LIN":"27鄰","STREET":"健康路","SECT":"二段","MAREA":" ","LANE":" ","ALLEY":" ","HOUSE_NO":"４９９號五樓之１１","E_COORD97":166295.82000000001,"N_COORD97":2542544.2999999998,"ADDRESS":"健康路二段４９９號五樓之１１","OBJECTID":598646},"geometry":{"x":166295.82000000216,"y":2542544.3000000007}},{"attributes":{"ID":598674,"DIS_CODE":0,"TOWNNAME":"南區","LI":"文南里","LIN":"27鄰","STREET":"健康路","SECT":"二段","MAREA":" ","LANE":" ","ALLEY":" ","HOUSE_NO":"４９９號五樓之１２","E_COORD97":166295.82000000001,"N_COORD97":2542544.2999999998,"ADDRESS":"健康路二段４９９號五樓之１２","OBJECTID":598647},"geometry":{"x":166295.82000000216,"y":2542544.3000000007}},{"attributes":{"ID":598675,"DIS_CODE":0,"TOWNNAME":"南區","LI":"文南里","LIN":"27鄰","STREET":"健康路","SECT":"二段","MAREA":" ","LANE":" ","ALLEY":" ","HOUSE_NO":"４９９號五樓之１３","E_COORD97":166295.82000000001,"N_COORD97":2542544.2999999998,"ADDRESS":"健康路二段４９９號五樓之１３","OBJECTID":598648},"geometry":{"x":166295.82000000216,"y":2542544.3000000007}},{"attributes":{"ID":598676,"DIS_CODE":0,"TOWNNAME":"南區","LI":"文南里","LIN":"27鄰","STREET":"健康路","SECT":"二段","MAREA":" ","LANE":" ","ALLEY":" ","HOUSE_NO":"４９９號五樓之２","E_COORD97":166295.82000000001,"N_COORD97":2542544.2999999998,"ADDRESS":"健康路二段４９９號五樓之２","OBJECTID":598649},"geometry":{"x":166295.82000000216,"y":2542544.3000000007}},{"attributes":{"ID":598677,"DIS_CODE":0,"TOWNNAME":"南區","LI":"文南里","LIN":"27鄰","STREET":"健康路","SECT":"二段","MAREA":" ","LANE":" ","ALLEY":" ","HOUSE_NO":"４９９號五樓之３","E_COORD97":166295.82000000001,"N_COORD97":2542544.2999999998,"ADDRESS":"健康路二段４９９號五樓之３","OBJECTID":598650},"geometry":{"x":166295.82000000216,"y":2542544.3000000007}},{"attributes":{"ID":598678,"DIS_CODE":0,"TOWNNAME":"南區","LI":"文南里","LIN":"27鄰","STREET":"健康路","SECT":"二段","MAREA":" ","LANE":" ","ALLEY":" ","HOUSE_NO":"４９９號五樓之４","E_COORD97":166295.82000000001,"N_COORD97":2542544.2999999998,"ADDRESS":"健康路二段４９９號五樓之４","OBJECTID":598651},"geometry":{"x":166295.82000000216,"y":2542544.3000000007}},{"attributes":{"ID":598679,"DIS_CODE":0,"TOWNNAME":"南區","LI":"文南里","LIN":"27鄰","STREET":"健康路","SECT":"二段","MAREA":" ","LANE":" ","ALLEY":" ","HOUSE_NO":"４９９號五樓之５","E_COORD97":166295.82000000001,"N_COORD97":2542544.2999999998,"ADDRESS":"健康路二段４９９號五樓之５","OBJECTID":598652},"geometry":{"x":166295.82000000216,"y":2542544.3000000007}},{"attributes":{"ID":598680,"DIS_CODE":0,"TOWNNAME":"南區","LI":"文南里","LIN":"27鄰","STREET":"健康路","SECT":"二段","MAREA":" ","LANE":" ","ALLEY":" ","HOUSE_NO":"４９９號五樓之６","E_COORD97":166295.82000000001,"N_COORD97":2542544.2999999998,"ADDRESS":"健康路二段４９９號五樓之６","OBJECTID":598653},"geometry":{"x":166295.82000000216,"y":2542544.3000000007}},{"attributes":{"ID":598681,"DIS_CODE":0,"TOWNNAME":"南區","LI":"文南里","LIN":"27鄰","STREET":"健康路","SECT":"二段","MAREA":" ","LANE":" ","ALLEY":" ","HOUSE_NO":"４９９號五樓之７","E_COORD97":166295.82000000001,"N_COORD97":2542544.2999999998,"ADDRESS":"健康路二段４９９號五樓之７","OBJECTID":598654},"geometry":{"x":166295.82000000216,"y":2542544.3000000007}},{"attributes":{"ID":598682,"DIS_CODE":0,"TOWNNAME":"南區","LI":"文南里","LIN":"27鄰","STREET":"健康路","SECT":"二段","MAREA":" ","LANE":" ","ALLEY":" ","HOUSE_NO":"４９９號五樓之８","E_COORD97":166295.82000000001,"N_COORD97":2542544.2999999998,"ADDRESS":"健康路二段４９９號五樓之８","OBJECTID":598655},"geometry":{"x":166295.82000000216,"y":2542544.3000000007}},{"attributes":{"ID":598683,"DIS_CODE":0,"TOWNNAME":"南區","LI":"文南里","LIN":"27鄰","STREET":"健康路","SECT":"二段","MAREA":" ","LANE":" ","ALLEY":" ","HOUSE_NO":"４９９號五樓之９","E_COORD97":166295.82000000001,"N_COORD97":2542544.2999999998,"ADDRESS":"健康路二段４９９號五樓之９","OBJECTID":598656},"geometry":{"x":166295.82000000216,"y":2542544.3000000007}},{"attributes":{"ID":598684,"DIS_CODE":0,"TOWNNAME":"南區","LI":"文南里","LIN":"27鄰","STREET":"健康路","SECT":"二段","MAREA":" ","LANE":" ","ALLEY":" ","HOUSE_NO":"４９９號六樓之１","E_COORD97":166295.82000000001,"N_COORD97":2542544.2999999998,"ADDRESS":"健康路二段４９９號六樓之１","OBJECTID":598657},"geometry":{"x":166295.82000000216,"y":2542544.3000000007}},{"attributes":{"ID":598685,"DIS_CODE":0,"TOWNNAME":"南區","LI":"文南里","LIN":"27鄰","STREET":"健康路","SECT":"二段","MAREA":" ","LANE":" ","ALLEY":" ","HOUSE_NO":"４９９號六樓之１０","E_COORD97":166295.82000000001,"N_COORD97":2542544.2999999998,"ADDRESS":"健康路二段４９９號六樓之１０","OBJECTID":598658},"geometry":{"x":166295.82000000216,"y":2542544.3000000007}},{"attributes":{"ID":598686,"DIS_CODE":0,"TOWNNAME":"南區","LI":"文南里","LIN":"27鄰","STREET":"健康路","SECT":"二段","MAREA":" ","LANE":" ","ALLEY":" ","HOUSE_NO":"４９９號六樓之１１","E_COORD97":166295.82000000001,"N_COORD97":2542544.2999999998,"ADDRESS":"健康路二段４９９號六樓之１１","OBJECTID":598659},"geometry":{"x":166295.82000000216,"y":2542544.3000000007}},{"attributes":{"ID":598687,"DIS_CODE":0,"TOWNNAME":"南區","LI":"文南里","LIN":"27鄰","STREET":"健康路","SECT":"二段","MAREA":" ","LANE":" ","ALLEY":" ","HOUSE_NO":"４９９號六樓之１２","E_COORD97":166295.82000000001,"N_COORD97":2542544.2999999998,"ADDRESS":"健康路二段４９９號六樓之１２","OBJECTID":598660},"geometry":{"x":166295.82000000216,"y":2542544.3000000007}},{"attributes":{"ID":598688,"DIS_CODE":0,"TOWNNAME":"南區","LI":"文南里","LIN":"27鄰","STREET":"健康路","SECT":"二段","MAREA":" ","LANE":" ","ALLEY":" ","HOUSE_NO":"５０１號之３二樓之１","E_COORD97":166276.01999999999,"N_COORD97":2542529.54,"ADDRESS":"健康路二段５０１號之３二樓之１","OBJECTID":598661},"geometry":{"x":166276.01999999955,"y":2542529.540000001}},{"attributes":{"ID":598689,"DIS_CODE":0,"TOWNNAME":"南區","LI":"文南里","LIN":"27鄰","STREET":"健康路","SECT":"二段","MAREA":" ","LANE":" ","ALLEY":" ","HOUSE_NO":"５０１號之３二樓之２","E_COORD97":166276.01999999999,"N_COORD97":2542529.54,"ADDRESS":"健康路二段５０１號之３二樓之２","OBJECTID":598662},"geometry":{"x":166276.01999999955,"y":2542529.540000001}},{"attributes":{"ID":598690,"DIS_CODE":0,"TOWNNAME":"南區","LI":"文南里","LIN":"27鄰","STREET":"健康路","SECT":"二段","MAREA":" ","LANE":" ","ALLEY":" ","HOUSE_NO":"５０１號之３三樓之１","E_COORD97":166276.01999999999,"N_COORD97":2542529.54,"ADDRESS":"健康路二段５０１號之３三樓之１","OBJECTID":598663},"geometry":{"x":166276.01999999955,"y":2542529.540000001}},{"attributes":{"ID":598691,"DIS_CODE":0,"TOWNNAME":"南區","LI":"文南里","LIN":"27鄰","STREET":"健康路","SECT":"二段","MAREA":" ","LANE":" ","ALLEY":" ","HOUSE_NO":"５０１號之３三樓之２","E_COORD97":166276.01999999999,"N_COORD97":2542529.54,"ADDRESS":"健康路二段５０１號之３三樓之２","OBJECTID":598664},"geometry":{"x":166276.01999999955,"y":2542529.540000001}},{"attributes":{"ID":598692,"DIS_CODE":0,"TOWNNAME":"南區","LI":"文南里","LIN":"27鄰","STREET":"健康路","SECT":"二段","MAREA":" ","LANE":" ","ALLEY":" ","HOUSE_NO":"５０１號之３五樓之１","E_COORD97":166276.01999999999,"N_COORD97":2542529.54,"ADDRESS":"健康路二段５０１號之３五樓之１","OBJECTID":598665},"geometry":{"x":166276.01999999955,"y":2542529.540000001}},{"attributes":{"ID":598693,"DIS_CODE":0,"TOWNNAME":"南區","LI":"文南里","LIN":"27鄰","STREET":"健康路","SECT":"二段","MAREA":" ","LANE":" ","ALLEY":" ","HOUSE_NO":"５０１號之３五樓之２","E_COORD97":166276.01999999999,"N_COORD97":2542529.54,"ADDRESS":"健康路二段５０１號之３五樓之２","OBJECTID":598666},"geometry":{"x":166276.01999999955,"y":2542529.540000001}},{"attributes":{"ID":598694,"DIS_CODE":0,"TOWNNAME":"南區","LI":"文南里","LIN":"27鄰","STREET":"健康路","SECT":"二段","MAREA":" ","LANE":" ","ALLEY":" ","HOUSE_NO":"５０１號之３六樓之１","E_COORD97":166276.01999999999,"N_COORD97":2542529.54,"ADDRESS":"健康路二段５０１號之３六樓之１","OBJECTID":598667},"geometry":{"x":166276.01999999955,"y":2542529.540000001}},{"attributes":{"ID":598695,"DIS_CODE":0,"TOWNNAME":"南區","LI":"文南里","LIN":"27鄰","STREET":"健康路","SECT":"二段","MAREA":" ","LANE":" ","ALLEY":" ","HOUSE_NO":"５０１號之３六樓之２","E_COORD97":166276.01999999999,"N_COORD97":2542529.54,"ADDRESS":"健康路二段５０１號之３六樓之２","OBJECTID":598668},"geometry":{"x":166276.01999999955,"y":2542529.540000001}},{"attributes":{"ID":598696,"DIS_CODE":0,"TOWNNAME":"南區","LI":"文南里","LIN":"27鄰","STREET":"健康路","SECT":"二段","MAREA":" ","LANE":" ","ALLEY":" ","HOUSE_NO":"５０１號之３四樓之１","E_COORD97":166276.01999999999,"N_COORD97":2542529.54,"ADDRESS":"健康路二段５０１號之３四樓之１","OBJECTID":598669},"geometry":{"x":166276.01999999955,"y":2542529.540000001}},{"attributes":{"ID":598697,"DIS_CODE":0,"TOWNNAME":"南區","LI":"文南里","LIN":"27鄰","STREET":"健康路","SECT":"二段","MAREA":" ","LANE":" ","ALLEY":" ","HOUSE_NO":"５０１號之３四樓之２","E_COORD97":166276.01999999999,"N_COORD97":2542529.54,"ADDRESS":"健康路二段５０１號之３四樓之２","OBJECTID":598670},"geometry":{"x":166276.01999999955,"y":2542529.540000001}},{"attributes":{"ID":598698,"DIS_CODE":0,"TOWNNAME":"安平區","LI":"建平里","LIN":"27鄰","STREET":"永華五街","SECT":" ","MAREA":" ","LANE":" ","ALLEY":" ","HOUSE_NO":"９１號五樓之１２","E_COORD97":165874.98000000001,"N_COORD97":2543677.2200000002,"ADDRESS":"永華五街９１號五樓之１２","OBJECTID":598671},"geometry":{"x":165874.98000000138,"y":2543677.2200000007}},{"attributes":{"ID":598699,"DIS_CODE":0,"TOWNNAME":"安平區","LI":"建平里","LIN":"27鄰","STREET":"永華五街","SECT":" ","MAREA":" ","LANE":" ","ALLEY":" ","HOUSE_NO":"９１號五樓之１９","E_COORD97":165874.98000000001,"N_COORD97":2543677.2200000002,"ADDRESS":"永華五街９１號五樓之１９","OBJECTID":598672},"geometry":{"x":165874.98000000138,"y":2543677.2200000007}},{"attributes":{"ID":598700,"DIS_CODE":0,"TOWNNAME":"安平區","LI":"建平里","LIN":"27鄰","STREET":"永華五街","SECT":" ","MAREA":" ","LANE":" ","ALLEY":" ","HOUSE_NO":"９１號三樓之１０","E_COORD97":165874.98000000001,"N_COORD97":2543677.2200000002,"ADDRESS":"永華五街９１號三樓之１０","OBJECTID":598673},"geometry":{"x":165874.98000000138,"y":2543677.2200000007}},{"attributes":{"ID":598701,"DIS_CODE":0,"TOWNNAME":"安平區","LI":"建平里","LIN":"27鄰","STREET":"永華五街","SECT":" ","MAREA":" ","LANE":" ","ALLEY":" ","HOUSE_NO":"９１號五樓之２","E_COORD97":165874.98000000001,"N_COORD97":2543677.2200000002,"ADDRESS":"永華五街９１號五樓之２","OBJECTID":598674},"geometry":{"x":165874.98000000138,"y":2543677.2200000007}},{"attributes":{"ID":598702,"DIS_CODE":0,"TOWNNAME":"安平區","LI":"建平里","LIN":"27鄰","STREET":"永華五街","SECT":" ","MAREA":" ","LANE":" ","ALLEY":" ","HOUSE_NO":"９１號三樓之２","E_COORD97":165874.98000000001,"N_COORD97":2543677.2200000002,"ADDRESS":"永華五街９１號三樓之２","OBJECTID":598675},"geometry":{"x":165874.98000000138,"y":2543677.2200000007}},{"attributes":{"ID":598703,"DIS_CODE":0,"TOWNNAME":"歸仁區","LI":"辜厝里","LIN":"27鄰","STREET":"大順三街","SECT":" ","MAREA":" ","LANE":" ","ALLEY":" ","HOUSE_NO":"１５號四樓之３","E_COORD97":177377.48000000001,"N_COORD97":2540558.1600000001,"ADDRESS":"大順三街１５號四樓之３","OBJECTID":598676},"geometry":{"x":177377.48000000045,"y":2540558.1599999983}},{"attributes":{"ID":598704,"DIS_CODE":0,"TOWNNAME":"歸仁區","LI":"辜厝里","LIN":"27鄰","STREET":"大順三街","SECT":" ","MAREA":" ","LANE":" ","ALLEY":" ","HOUSE_NO":"１５號三樓之２","E_COORD97":177377.48000000001,"N_COORD97":2540558.1600000001,"ADDRESS":"大順三街１５號三樓之２","OBJECTID":598677},"geometry":{"x":177377.48000000045,"y":2540558.1599999983}},{"attributes":{"ID":598705,"DIS_CODE":0,"TOWNNAME":"歸仁區","LI":"辜厝里","LIN":"27鄰","STREET":"大順三街","SECT":" ","MAREA":" ","LANE":" ","ALLEY":" ","HOUSE_NO":"１５號五樓之１","E_COORD97":177377.45999999999,"N_COORD97":2540558.1600000001,"ADDRESS":"大順三街１５號五樓之１","OBJECTID":598678},"geometry":{"x":177377.45999999996,"y":2540558.1599999983}},{"attributes":{"ID":598706,"DIS_CODE":0,"TOWNNAME":"永康區","LI":"崑山里","LIN":"32鄰","STREET":"國光三街","SECT":" ","MAREA":" ","LANE":" ","ALLEY":" ","HOUSE_NO":"２５號","E_COORD97":174079.23999999999,"N_COORD97":2544873.46,"ADDRESS":"國光三街２５號","OBJECTID":598679},"geometry":{"x":174079.24000000115,"y":2544873.4600000028}},{"attributes":{"ID":598707,"DIS_CODE":0,"TOWNNAME":"永康區","LI":"復國里","LIN":"7鄰","STREET":"復國一路","SECT":" ","MAREA":" ","LANE":" ","ALLEY":" ","HOUSE_NO":"２１８號","E_COORD97":172737.38,"N_COORD97":2545231.77,"ADDRESS":"復國一路２１８號","OBJECTID":598680},"geometry":{"x":172737.38000000082,"y":2545231.7699999996}},{"attributes":{"ID":598708,"DIS_CODE":0,"TOWNNAME":"歸仁區","LI":"辜厝里","LIN":"27鄰","STREET":"大順三街","SECT":" ","MAREA":" ","LANE":" ","ALLEY":" ","HOUSE_NO":"１５號二樓之１","E_COORD97":177377.45999999999,"N_COORD97":2540558.1600000001,"ADDRESS":"大順三街１５號二樓之１","OBJECTID":598681},"geometry":{"x":177377.45999999996,"y":2540558.1599999983}},{"attributes":{"ID":598709,"DIS_CODE":0,"TOWNNAME":"歸仁區","LI":"辜厝里","LIN":"27鄰","STREET":"大順三街","SECT":" ","MAREA":" ","LANE":" ","ALLEY":" ","HOUSE_NO":"１５號三樓之３","E_COORD97":177377.48000000001,"N_COORD97":2540558.1600000001,"ADDRESS":"大順三街１５號三樓之３","OBJECTID":598682},"geometry":{"x":177377.48000000045,"y":2540558.1599999983}},{"attributes":{"ID":598710,"DIS_CODE":0,"TOWNNAME":"歸仁區","LI":"辜厝里","LIN":"27鄰","STREET":"大順三街","SECT":" ","MAREA":" ","LANE":" ","ALLEY":" ","HOUSE_NO":"１５號五樓之３","E_COORD97":177377.48000000001,"N_COORD97":2540558.1600000001,"ADDRESS":"大順三街１５號五樓之３","OBJECTID":598683},"geometry":{"x":177377.48000000045,"y":2540558.1599999983}},{"attributes":{"ID":598711,"DIS_CODE":0,"TOWNNAME":"新營區","LI":"新南里","LIN":"27鄰","STREET":"隋唐街","SECT":" ","MAREA":" ","LANE":" ","ALLEY":" ","HOUSE_NO":"３９５號四樓之２","E_COORD97":177925.57000000001,"N_COORD97":2578597.1400000001,"ADDRESS":"隋唐街３９５號四樓之２","OBJECTID":598684},"geometry":{"x":177925.57000000123,"y":2578597.1400000025}},{"attributes":{"ID":598712,"DIS_CODE":0,"TOWNNAME":"新營區","LI":"三仙里","LIN":"27鄰","STREET":"健康路","SECT":" ","MAREA":" ","LANE":" ","ALLEY":" ","HOUSE_NO":"１０７號十三樓","E_COORD97":179640.87,"N_COORD97":2579182.4199999999,"ADDRESS":"健康路１０７號十三樓","OBJECTID":598685},"geometry":{"x":179640.87000000011,"y":2579182.4199999999}},{"attributes":{"ID":598713,"DIS_CODE":0,"TOWNNAME":"新營區","LI":"三仙里","LIN":"27鄰","STREET":"健康路","SECT":" ","MAREA":" ","LANE":" ","ALLEY":" ","HOUSE_NO":"１０７號四樓","E_COORD97":179643.37,"N_COORD97":2579182.4300000002,"ADDRESS":"健康路１０７號四樓","OBJECTID":598686},"geometry":{"x":179643.37000000197,"y":2579182.4299999978}},{"attributes":{"ID":598714,"DIS_CODE":0,"TOWNNAME":"新營區","LI":"新南里","LIN":"27鄰","STREET":"隋唐街","SECT":" ","MAREA":" ","LANE":" ","ALLEY":" ","HOUSE_NO":"３９５號六樓之１","E_COORD97":177925.44,"N_COORD97":2578597.1400000001,"ADDRESS":"隋唐街３９５號六樓之１","OBJECTID":598687},"geometry":{"x":177925.44000000041,"y":2578597.1400000025}},{"attributes":{"ID":598715,"DIS_CODE":0,"TOWNNAME":"新營區","LI":"新南里","LIN":"27鄰","STREET":"隋唐街","SECT":" ","MAREA":" ","LANE":" ","ALLEY":" ","HOUSE_NO":"３９５號六樓之６","E_COORD97":177925.54000000001,"N_COORD97":2578597.1400000001,"ADDRESS":"隋唐街３９５號六樓之６","OBJECTID":598688},"geometry":{"x":177925.54000000097,"y":2578597.1400000025}},{"attributes":{"ID":598716,"DIS_CODE":0,"TOWNNAME":"新營區","LI":"新南里","LIN":"27鄰","STREET":"隋唐街","SECT":" ","MAREA":" ","LANE":" ","ALLEY":" ","HOUSE_NO":"３９５號六樓之７","E_COORD97":177925.51000000001,"N_COORD97":2578597.1400000001,"ADDRESS":"隋唐街３９５號六樓之７","OBJECTID":598689},"geometry":{"x":177925.51000000071,"y":2578597.1400000025}},{"attributes":{"ID":598717,"DIS_CODE":0,"TOWNNAME":"新營區","LI":"三仙里","LIN":"27鄰","STREET":"健康路","SECT":" ","MAREA":" ","LANE":" ","ALLEY":" ","HOUSE_NO":"１０３號四樓","E_COORD97":179643.37,"N_COORD97":2579182.4300000002,"ADDRESS":"健康路１０３號四樓","OBJECTID":598690},"geometry":{"x":179643.37000000197,"y":2579182.4299999978}},{"attributes":{"ID":598718,"DIS_CODE":0,"TOWNNAME":"新營區","LI":"三仙里","LIN":"27鄰","STREET":"健康路","SECT":" ","MAREA":" ","LANE":" ","ALLEY":" ","HOUSE_NO":"１０７號八樓","E_COORD97":179643.37,"N_COORD97":2579182.4300000002,"ADDRESS":"健康路１０７號八樓","OBJECTID":598691},"geometry":{"x":179643.37000000197,"y":2579182.4299999978}},{"attributes":{"ID":598719,"DIS_CODE":0,"TOWNNAME":"新營區","LI":"新南里","LIN":"27鄰","STREET":"隋唐街","SECT":" ","MAREA":" ","LANE":" ","ALLEY":" ","HOUSE_NO":"３９５號四樓之１","E_COORD97":177925.44,"N_COORD97":2578597.1400000001,"ADDRESS":"隋唐街３９５號四樓之１","OBJECTID":598692},"geometry":{"x":177925.44000000041,"y":2578597.1400000025}},{"attributes":{"ID":598720,"DIS_CODE":0,"TOWNNAME":"永康區","LI":"烏竹里","LIN":"19鄰","STREET":"自強路","SECT":" ","MAREA":" ","LANE":" ","ALLEY":" ","HOUSE_NO":"７５３號","E_COORD97":174442.39000000001,"N_COORD97":2548539.2999999998,"ADDRESS":"自強路７５３號","OBJECTID":598693},"geometry":{"x":174442.3900000006,"y":2548539.3000000026}},{"attributes":{"ID":598721,"DIS_CODE":0,"TOWNNAME":"新營區","LI":"三仙里","LIN":"27鄰","STREET":"健康路","SECT":" ","MAREA":" ","LANE":" ","ALLEY":" ","HOUSE_NO":"１０３號七樓","E_COORD97":179643.37,"N_COORD97":2579182.4300000002,"ADDRESS":"健康路１０３號七樓","OBJECTID":598694},"geometry":{"x":179643.37000000197,"y":2579182.4299999978}},{"attributes":{"ID":598722,"DIS_CODE":0,"TOWNNAME":"新營區","LI":"三仙里","LIN":"27鄰","STREET":"健康路","SECT":" ","MAREA":" ","LANE":" ","ALLEY":" ","HOUSE_NO":"１０１號十四樓","E_COORD97":179640.87,"N_COORD97":2579182.4199999999,"ADDRESS":"健康路１０１號十四樓","OBJECTID":598695},"geometry":{"x":179640.87000000011,"y":2579182.4199999999}},{"attributes":{"ID":598723,"DIS_CODE":0,"TOWNNAME":"新營區","LI":"三仙里","LIN":"27鄰","STREET":"健康路","SECT":" ","MAREA":" ","LANE":" ","ALLEY":" ","HOUSE_NO":"１０３號九樓","E_COORD97":179643.37,"N_COORD97":2579182.4300000002,"ADDRESS":"健康路１０３號九樓","OBJECTID":598696},"geometry":{"x":179643.37000000197,"y":2579182.4299999978}},{"attributes":{"ID":598724,"DIS_CODE":0,"TOWNNAME":"新營區","LI":"三仙里","LIN":"27鄰","STREET":"健康路","SECT":" ","MAREA":" ","LANE":" ","ALLEY":" ","HOUSE_NO":"１０１號六樓","E_COORD97":179643.37,"N_COORD97":2579182.4300000002,"ADDRESS":"健康路１０１號六樓","OBJECTID":598697},"geometry":{"x":179643.37000000197,"y":2579182.4299999978}},{"attributes":{"ID":598725,"DIS_CODE":0,"TOWNNAME":"新營區","LI":"三仙里","LIN":"27鄰","STREET":"健康路","SECT":" ","MAREA":" ","LANE":" ","ALLEY":" ","HOUSE_NO":"１０９號地下室一樓之","E_COORD97":179640.87,"N_COORD97":2579182.4199999999,"ADDRESS":"健康路１０９號地下室一樓之２","OBJECTID":598698},"geometry":{"x":179640.87000000011,"y":2579182.4199999999}},{"attributes":{"ID":598726,"DIS_CODE":0,"TOWNNAME":"新營區","LI":"三仙里","LIN":"27鄰","STREET":"健康路","SECT":" ","MAREA":" ","LANE":" ","ALLEY":" ","HOUSE_NO":"１０７號十二樓","E_COORD97":179640.87,"N_COORD97":2579182.4199999999,"ADDRESS":"健康路１０７號十二樓","OBJECTID":598699},"geometry":{"x":179640.87000000011,"y":2579182.4199999999}},{"attributes":{"ID":598727,"DIS_CODE":0,"TOWNNAME":"新營區","LI":"三仙里","LIN":"27鄰","STREET":"健康路","SECT":" ","MAREA":" ","LANE":" ","ALLEY":" ","HOUSE_NO":"１０７號五樓","E_COORD97":179643.37,"N_COORD97":2579182.4300000002,"ADDRESS":"健康路１０７號五樓","OBJECTID":598700},"geometry":{"x":179643.37000000197,"y":2579182.4299999978}},{"attributes":{"ID":598728,"DIS_CODE":0,"TOWNNAME":"新營區","LI":"三仙里","LIN":"27鄰","STREET":"健康路","SECT":" ","MAREA":" ","LANE":" ","ALLEY":" ","HOUSE_NO":"１０１號四樓","E_COORD97":179643.37,"N_COORD97":2579182.4300000002,"ADDRESS":"健康路１０１號四樓","OBJECTID":598701},"geometry":{"x":179643.37000000197,"y":2579182.4299999978}},{"attributes":{"ID":598729,"DIS_CODE":0,"TOWNNAME":"新營區","LI":"三仙里","LIN":"27鄰","STREET":"健康路","SECT":" ","MAREA":" ","LANE":" ","ALLEY":" ","HOUSE_NO":"１０３號十一樓","E_COORD97":179640.87,"N_COORD97":2579182.4199999999,"ADDRESS":"健康路１０３號十一樓","OBJECTID":598702},"geometry":{"x":179640.87000000011,"y":2579182.4199999999}},{"attributes":{"ID":598730,"DIS_CODE":0,"TOWNNAME":"新營區","LI":"三仙里","LIN":"27鄰","STREET":"健康路","SECT":" ","MAREA":" ","LANE":" ","ALLEY":" ","HOUSE_NO":"１０９號地下室一樓之","E_COORD97":179640.87,"N_COORD97":2579182.4199999999,"ADDRESS":"健康路１０９號地下室一樓之１","OBJECTID":598703},"geometry":{"x":179640.87000000011,"y":2579182.4199999999}},{"attributes":{"ID":598731,"DIS_CODE":0,"TOWNNAME":"新營區","LI":"三仙里","LIN":"27鄰","STREET":"健康路","SECT":" ","MAREA":" ","LANE":" ","ALLEY":" ","HOUSE_NO":"１０３號十三樓","E_COORD97":179640.87,"N_COORD97":2579182.4199999999,"ADDRESS":"健康路１０３號十三樓","OBJECTID":598704},"geometry":{"x":179640.87000000011,"y":2579182.4199999999}},{"attributes":{"ID":598732,"DIS_CODE":0,"TOWNNAME":"新營區","LI":"新南里","LIN":"27鄰","STREET":"隋唐街","SECT":" ","MAREA":" ","LANE":" ","ALLEY":" ","HOUSE_NO":"３９５號四樓之８","E_COORD97":177925.57999999999,"N_COORD97":2578597.1400000001,"ADDRESS":"隋唐街３９５號四樓之８","OBJECTID":598705},"geometry":{"x":177925.58000000007,"y":2578597.1400000025}},{"attributes":{"ID":598733,"DIS_CODE":0,"TOWNNAME":"新營區","LI":"新南里","LIN":"27鄰","STREET":"隋唐街","SECT":" ","MAREA":" ","LANE":" ","ALLEY":" ","HOUSE_NO":"３９５號四樓之７","E_COORD97":177925.51000000001,"N_COORD97":2578597.1400000001,"ADDRESS":"隋唐街３９５號四樓之７","OBJECTID":598706},"geometry":{"x":177925.51000000071,"y":2578597.1400000025}},{"attributes":{"ID":598734,"DIS_CODE":0,"TOWNNAME":"新營區","LI":"三仙里","LIN":"27鄰","STREET":"健康路","SECT":" ","MAREA":" ","LANE":" ","ALLEY":" ","HOUSE_NO":"１０１號十三樓","E_COORD97":179640.87,"N_COORD97":2579182.4199999999,"ADDRESS":"健康路１０１號十三樓","OBJECTID":598707},"geometry":{"x":179640.87000000011,"y":2579182.4199999999}},{"attributes":{"ID":598735,"DIS_CODE":0,"TOWNNAME":"新營區","LI":"三仙里","LIN":"27鄰","STREET":"健康路","SECT":" ","MAREA":" ","LANE":" ","ALLEY":" ","HOUSE_NO":"１０１號三樓","E_COORD97":179643.37,"N_COORD97":2579182.4300000002,"ADDRESS":"健康路１０１號三樓","OBJECTID":598708},"geometry":{"x":179643.37000000197,"y":2579182.4299999978}},{"attributes":{"ID":598736,"DIS_CODE":0,"TOWNNAME":"新營區","LI":"三仙里","LIN":"27鄰","STREET":"健康路","SECT":" ","MAREA":" ","LANE":" ","ALLEY":" ","HOUSE_NO":"１０３號六樓","E_COORD97":179643.37,"N_COORD97":2579182.4300000002,"ADDRESS":"健康路１０３號六樓","OBJECTID":598709},"geometry":{"x":179643.37000000197,"y":2579182.4299999978}},{"attributes":{"ID":598737,"DIS_CODE":0,"TOWNNAME":"新營區","LI":"三仙里","LIN":"27鄰","STREET":"健康路","SECT":" ","MAREA":" ","LANE":" ","ALLEY":" ","HOUSE_NO":"１０１號十樓","E_COORD97":179643.37,"N_COORD97":2579182.4300000002,"ADDRESS":"健康路１０１號十樓","OBJECTID":598710},"geometry":{"x":179643.37000000197,"y":2579182.4299999978}},{"attributes":{"ID":598738,"DIS_CODE":0,"TOWNNAME":"新營區","LI":"三仙里","LIN":"27鄰","STREET":"健康路","SECT":" ","MAREA":" ","LANE":" ","ALLEY":" ","HOUSE_NO":"１０１號十一樓","E_COORD97":179640.87,"N_COORD97":2579182.4199999999,"ADDRESS":"健康路１０１號十一樓","OBJECTID":598711},"geometry":{"x":179640.87000000011,"y":2579182.4199999999}},{"attributes":{"ID":598739,"DIS_CODE":0,"TOWNNAME":"新營區","LI":"三仙里","LIN":"27鄰","STREET":"健康路","SECT":" ","MAREA":" ","LANE":" ","ALLEY":" ","HOUSE_NO":"１０１號七樓","E_COORD97":179643.37,"N_COORD97":2579182.4300000002,"ADDRESS":"健康路１０１號七樓","OBJECTID":598712},"geometry":{"x":179643.37000000197,"y":2579182.4299999978}},{"attributes":{"ID":598740,"DIS_CODE":0,"TOWNNAME":"新營區","LI":"三仙里","LIN":"27鄰","STREET":"健康路","SECT":" ","MAREA":" ","LANE":" ","ALLEY":" ","HOUSE_NO":"１０１號九樓","E_COORD97":179643.37,"N_COORD97":2579182.4300000002,"ADDRESS":"健康路１０１號九樓","OBJECTID":598713},"geometry":{"x":179643.37000000197,"y":2579182.4299999978}},{"attributes":{"ID":598741,"DIS_CODE":0,"TOWNNAME":"新營區","LI":"三仙里","LIN":"27鄰","STREET":"健康路","SECT":" ","MAREA":" ","LANE":" ","ALLEY":" ","HOUSE_NO":"１０１號十二樓","E_COORD97":179640.87,"N_COORD97":2579182.4199999999,"ADDRESS":"健康路１０１號十二樓","OBJECTID":598714},"geometry":{"x":179640.87000000011,"y":2579182.4199999999}},{"attributes":{"ID":598742,"DIS_CODE":0,"TOWNNAME":"永康區","LI":"勝利里","LIN":"20鄰","STREET":"勝華街","SECT":" ","MAREA":" ","LANE":" ","ALLEY":" ","HOUSE_NO":"１３２號","E_COORD97":171244.51000000001,"N_COORD97":2545220,"ADDRESS":"勝華街１３２號","OBJECTID":598715},"geometry":{"x":171244.51000000071,"y":2545220}},{"attributes":{"ID":598743,"DIS_CODE":0,"TOWNNAME":"永康區","LI":"勝利里","LIN":"26鄰","STREET":"勝利街","SECT":" ","MAREA":" ","LANE":" ","ALLEY":" ","HOUSE_NO":"７８號","E_COORD97":171353.13,"N_COORD97":2544720.4700000002,"ADDRESS":"勝利街７８號","OBJECTID":598716},"geometry":{"x":171353.12999999989,"y":2544720.4700000025}},{"attributes":{"ID":598744,"DIS_CODE":0,"TOWNNAME":"永康區","LI":"復國里","LIN":"13鄰","STREET":"復國二路","SECT":" ","MAREA":" ","LANE":" ","ALLEY":" ","HOUSE_NO":"１０３號","E_COORD97":172863.54000000001,"N_COORD97":2545506.9700000002,"ADDRESS":"復國二路１０３號","OBJECTID":598717},"geometry":{"x":172863.54000000097,"y":2545506.9700000044}},{"attributes":{"ID":598745,"DIS_CODE":0,"TOWNNAME":"永康區","LI":"崑山里","LIN":"37鄰","STREET":"大仁街","SECT":" ","MAREA":" ","LANE":" ","ALLEY":" ","HOUSE_NO":"１４６號","E_COORD97":173909.84,"N_COORD97":2544955.29,"ADDRESS":"大仁街１４６號","OBJECTID":598718},"geometry":{"x":173909.83999999985,"y":2544955.290000001}},{"attributes":{"ID":598746,"DIS_CODE":0,"TOWNNAME":"新營區","LI":"三仙里","LIN":"27鄰","STREET":"健康路","SECT":" ","MAREA":" ","LANE":" ","ALLEY":" ","HOUSE_NO":"１０１號八樓之２","E_COORD97":179640.87,"N_COORD97":2579182.4199999999,"ADDRESS":"健康路１０１號八樓之２","OBJECTID":598719},"geometry":{"x":179640.87000000011,"y":2579182.4199999999}},{"attributes":{"ID":598747,"DIS_CODE":0,"TOWNNAME":"新營區","LI":"新南里","LIN":"27鄰","STREET":"隋唐街","SECT":" ","MAREA":" ","LANE":" ","ALLEY":" ","HOUSE_NO":"３９５號六樓之２","E_COORD97":177925.57000000001,"N_COORD97":2578597.1400000001,"ADDRESS":"隋唐街３９５號六樓之２","OBJECTID":598720},"geometry":{"x":177925.57000000123,"y":2578597.1400000025}},{"attributes":{"ID":598748,"DIS_CODE":0,"TOWNNAME":"新營區","LI":"民生里","LIN":"27鄰","STREET":"進修街","SECT":" ","MAREA":" ","LANE":" ","ALLEY":" ","HOUSE_NO":"４９號三樓之６","E_COORD97":178965.32999999999,"N_COORD97":2578550.0299999998,"ADDRESS":"進修街４９號三樓之６","OBJECTID":598721},"geometry":{"x":178965.32999999914,"y":2578550.0299999993}},{"attributes":{"ID":598749,"DIS_CODE":0,"TOWNNAME":"新營區","LI":"新東里","LIN":"27鄰","STREET":"東興路","SECT":" ","MAREA":" ","LANE":" ","ALLEY":" ","HOUSE_NO":"２０７號五樓","E_COORD97":180748.70999999999,"N_COORD97":2579537.1299999999,"ADDRESS":"東興路２０７號五樓","OBJECTID":598722},"geometry":{"x":180748.70999999996,"y":2579537.1300000008}},{"attributes":{"ID":598750,"DIS_CODE":0,"TOWNNAME":"新營區","LI":"大宏里","LIN":"27鄰","STREET":"開元路","SECT":" ","MAREA":" ","LANE":" ","ALLEY":" ","HOUSE_NO":"６１之１７號二樓","E_COORD97":180901.23999999999,"N_COORD97":2578823.27,"ADDRESS":"開元路６１之１７號二樓","OBJECTID":598723},"geometry":{"x":180901.24000000115,"y":2578823.2699999996}},{"attributes":{"ID":598751,"DIS_CODE":0,"TOWNNAME":"新營區","LI":"民生里","LIN":"27鄰","STREET":"進修街","SECT":" ","MAREA":" ","LANE":" ","ALLEY":" ","HOUSE_NO":"４９號三樓之１","E_COORD97":178965.22,"N_COORD97":2578550.0299999998,"ADDRESS":"進修街４９號三樓之１","OBJECTID":598724},"geometry":{"x":178965.21999999974,"y":2578550.0299999993}},{"attributes":{"ID":598752,"DIS_CODE":0,"TOWNNAME":"新營區","LI":"大宏里","LIN":"27鄰","STREET":"開元路","SECT":" ","MAREA":" ","LANE":" ","ALLEY":" ","HOUSE_NO":"６１之１７號十二樓","E_COORD97":180902.48999999999,"N_COORD97":2578823.27,"ADDRESS":"開元路６１之１７號十二樓","OBJECTID":598725},"geometry":{"x":180902.49000000115,"y":2578823.2699999996}},{"attributes":{"ID":598753,"DIS_CODE":0,"TOWNNAME":"永康區","LI":"復國里","LIN":"13鄰","STREET":"復國二路","SECT":" ","MAREA":" ","LANE":" ","ALLEY":" ","HOUSE_NO":"１２４號","E_COORD97":172874.95999999999,"N_COORD97":2545504.7799999998,"ADDRESS":"復國二路１２４號","OBJECTID":598726},"geometry":{"x":172874.95999999996,"y":2545504.7800000012}},{"attributes":{"ID":598754,"DIS_CODE":0,"TOWNNAME":"永康區","LI":"崑山里","LIN":"34鄰","STREET":"大仁街","SECT":" ","MAREA":" ","LANE":" ","ALLEY":" ","HOUSE_NO":"１２９號","E_COORD97":173856.09,"N_COORD97":2544869.5600000001,"ADDRESS":"大仁街１２９號","OBJECTID":598727},"geometry":{"x":173856.09000000078,"y":2544869.5600000024}},{"attributes":{"ID":598755,"DIS_CODE":0,"TOWNNAME":"永康區","LI":"復國里","LIN":"17鄰","STREET":"國華街","SECT":" ","MAREA":" ","LANE":" ","ALLEY":" ","HOUSE_NO":"２０號","E_COORD97":172842.88,"N_COORD97":2545619.54,"ADDRESS":"國華街２０號","OBJECTID":598728},"geometry":{"x":172842.87999999989,"y":2545619.5399999991}},{"attributes":{"ID":598756,"DIS_CODE":0,"TOWNNAME":"永康區","LI":"勝利里","LIN":"33鄰","STREET":"中華路","SECT":" ","MAREA":" ","LANE":" ","ALLEY":" ","HOUSE_NO":"１號之９７","E_COORD97":171501.94,"N_COORD97":2544353.0499999998,"ADDRESS":"中華路１號之９７","OBJECTID":598729},"geometry":{"x":171501.94000000134,"y":2544353.0500000007}},{"attributes":{"ID":598757,"DIS_CODE":0,"TOWNNAME":"永康區","LI":"勝利里","LIN":"33鄰","STREET":"中華路","SECT":" ","MAREA":" ","LANE":" ","ALLEY":" ","HOUSE_NO":"１號之４６","E_COORD97":171501.95999999999,"N_COORD97":2544353.0499999998,"ADDRESS":"中華路１號之４６","OBJECTID":598730},"geometry":{"x":171501.95999999996,"y":2544353.0500000007}},{"attributes":{"ID":598758,"DIS_CODE":0,"TOWNNAME":"永康區","LI":"復國里","LIN":"9鄰","STREET":"復國二路","SECT":" ","MAREA":" ","LANE":" ","ALLEY":" ","HOUSE_NO":"９８號","E_COORD97":172856.39000000001,"N_COORD97":2545265.5299999998,"ADDRESS":"復國二路９８號","OBJECTID":598731},"geometry":{"x":172856.38999999966,"y":2545265.5300000012}},{"attributes":{"ID":598759,"DIS_CODE":0,"TOWNNAME":"永康區","LI":"復國里","LIN":"4鄰","STREET":"復國一路","SECT":" ","MAREA":" ","LANE":" ","ALLEY":" ","HOUSE_NO":"８８號","E_COORD97":172719.23999999999,"N_COORD97":2544913.21,"ADDRESS":"復國一路８８號","OBJECTID":598732},"geometry":{"x":172719.24000000022,"y":2544913.2100000028}},{"attributes":{"ID":598760,"DIS_CODE":0,"TOWNNAME":"永康區","LI":"崑山里","LIN":"38鄰","STREET":"國光三街","SECT":" ","MAREA":" ","LANE":" ","ALLEY":" ","HOUSE_NO":"４８號","E_COORD97":173993.79000000001,"N_COORD97":2544927.3300000001,"ADDRESS":"國光三街４８號","OBJECTID":598733},"geometry":{"x":173993.7900000019,"y":2544927.3300000038}},{"attributes":{"ID":598761,"DIS_CODE":0,"TOWNNAME":"永康區","LI":"復國里","LIN":"17鄰","STREET":"國華街","SECT":" ","MAREA":" ","LANE":" ","ALLEY":" ","HOUSE_NO":"１４號","E_COORD97":172841.16,"N_COORD97":2545604.0600000001,"ADDRESS":"國華街１４號","OBJECTID":598734},"geometry":{"x":172841.16000000015,"y":2545604.0599999987}},{"attributes":{"ID":598762,"DIS_CODE":0,"TOWNNAME":"永康區","LI":"勝利里","LIN":"33鄰","STREET":"中華路","SECT":" ","MAREA":" ","LANE":" ","ALLEY":" ","HOUSE_NO":"１號之７６","E_COORD97":171501.95999999999,"N_COORD97":2544353.0499999998,"ADDRESS":"中華路１號之７６","OBJECTID":598735},"geometry":{"x":171501.95999999996,"y":2544353.0500000007}},{"attributes":{"ID":598763,"DIS_CODE":0,"TOWNNAME":"永康區","LI":"勝利里","LIN":"33鄰","STREET":"中華路","SECT":" ","MAREA":" ","LANE":" ","ALLEY":" ","HOUSE_NO":"１號之５９","E_COORD97":171501.94,"N_COORD97":2544353.0499999998,"ADDRESS":"中華路１號之５９","OBJECTID":598736},"geometry":{"x":171501.94000000134,"y":2544353.0500000007}},{"attributes":{"ID":598764,"DIS_CODE":0,"TOWNNAME":"永康區","LI":"崑山里","LIN":"19鄰","STREET":"大灣路","SECT":" ","MAREA":" ","LANE":" ","ALLEY":" ","HOUSE_NO":"８２６號之４","E_COORD97":173944.84,"N_COORD97":2544520.1699999999,"ADDRESS":"大灣路８２６號之４","OBJECTID":598737},"geometry":{"x":173944.83999999985,"y":2544520.1699999999}},{"attributes":{"ID":598765,"DIS_CODE":0,"TOWNNAME":"永康區","LI":"崑山里","LIN":"19鄰","STREET":"大灣路","SECT":" ","MAREA":" ","LANE":" ","ALLEY":" ","HOUSE_NO":"８１８號","E_COORD97":173968.73000000001,"N_COORD97":2544498.5800000001,"ADDRESS":"大灣路８１８號","OBJECTID":598738},"geometry":{"x":173968.73000000045,"y":2544498.5800000038}},{"attributes":{"ID":598766,"DIS_CODE":0,"TOWNNAME":"永康區","LI":"崑山里","LIN":"2鄰","STREET":"大灣路","SECT":" ","MAREA":" ","LANE":" ","ALLEY":" ","HOUSE_NO":"８５９號","E_COORD97":173680.76999999999,"N_COORD97":2544410.1699999999,"ADDRESS":"大灣路８５９號","OBJECTID":598739},"geometry":{"x":173680.76999999955,"y":2544410.1700000018}},{"attributes":{"ID":598767,"DIS_CODE":0,"TOWNNAME":"永康區","LI":"勝利里","LIN":"20鄰","STREET":"勝學路","SECT":" ","MAREA":" ","LANE":" ","ALLEY":" ","HOUSE_NO":"２７１號","E_COORD97":171182.14999999999,"N_COORD97":2545317,"ADDRESS":"勝學路２７１號","OBJECTID":598740},"geometry":{"x":171182.15000000037,"y":2545317.0000000019}},{"attributes":{"ID":598768,"DIS_CODE":0,"TOWNNAME":"永康區","LI":"崑山里","LIN":"40鄰","STREET":"國光五街","SECT":" ","MAREA":" ","LANE":" ","ALLEY":" ","HOUSE_NO":"１之１號","E_COORD97":174216.23000000001,"N_COORD97":2545041.7999999998,"ADDRESS":"國光五街１之１號","OBJECTID":598741},"geometry":{"x":174216.23000000045,"y":2545041.8000000026}},{"attributes":{"ID":598769,"DIS_CODE":0,"TOWNNAME":"永康區","LI":"埔園里","LIN":"30鄰","STREET":"龍埔街","SECT":" ","MAREA":" ","LANE":" ","ALLEY":" ","HOUSE_NO":"４７８號","E_COORD97":173822.89999999999,"N_COORD97":2548356.7400000002,"ADDRESS":"龍埔街４７８號","OBJECTID":598742},"geometry":{"x":173822.9000000013,"y":2548356.7400000021}},{"attributes":{"ID":598770,"DIS_CODE":0,"TOWNNAME":"永康區","LI":"勝利里","LIN":"21鄰","STREET":"勝華街","SECT":" ","MAREA":" ","LANE":" ","ALLEY":" ","HOUSE_NO":"４７號","E_COORD97":171401.69,"N_COORD97":2545200.5099999998,"ADDRESS":"勝華街４７號","OBJECTID":598743},"geometry":{"x":171401.69000000134,"y":2545200.5100000035}},{"attributes":{"ID":598771,"DIS_CODE":0,"TOWNNAME":"永康區","LI":"勝利里","LIN":"23鄰","STREET":"勝利街","SECT":" ","MAREA":" ","LANE":" ","ALLEY":" ","HOUSE_NO":"１１８號之１","E_COORD97":171360.87,"N_COORD97":2544895.5499999998,"ADDRESS":"勝利街１１８號之１","OBJECTID":598744},"geometry":{"x":171360.87000000104,"y":2544895.5500000007}},{"attributes":{"ID":598772,"DIS_CODE":0,"TOWNNAME":"南區","LI":"廣州里","LIN":"27鄰","STREET":"福吉路","SECT":" ","MAREA":" ","LANE":" ","ALLEY":" ","HOUSE_NO":"１０號二樓之１","E_COORD97":167412.60999999999,"N_COORD97":2542660.2400000002,"ADDRESS":"福吉路１０號二樓之１","OBJECTID":598745},"geometry":{"x":167412.61000000034,"y":2542660.2400000021}},{"attributes":{"ID":598773,"DIS_CODE":0,"TOWNNAME":"永康區","LI":"崑山里","LIN":"41鄰","STREET":"國光五街","SECT":" ","MAREA":" ","LANE":" ","ALLEY":" ","HOUSE_NO":"２７號","E_COORD97":174084.47,"N_COORD97":2545095.3799999999,"ADDRESS":"國光五街２７號","OBJECTID":598746},"geometry":{"x":174084.47000000067,"y":2545095.3800000027}},{"attributes":{"ID":598774,"DIS_CODE":0,"TOWNNAME":"永康區","LI":"勝利里","LIN":"41鄰","STREET":"中華路","SECT":" ","MAREA":" ","LANE":" ","ALLEY":" ","HOUSE_NO":"１９７號","E_COORD97":171596.04000000001,"N_COORD97":2545002.5,"ADDRESS":"中華路１９７號","OBJECTID":598747},"geometry":{"x":171596.04000000004,"y":2545002.5}},{"attributes":{"ID":598775,"DIS_CODE":0,"TOWNNAME":"永康區","LI":"復國里","LIN":"17鄰","STREET":"國華街","SECT":" ","MAREA":" ","LANE":" ","ALLEY":" ","HOUSE_NO":"４０號","E_COORD97":172848.82999999999,"N_COORD97":2545664.7999999998,"ADDRESS":"國華街４０號","OBJECTID":598748},"geometry":{"x":172848.83000000007,"y":2545664.8000000026}},{"attributes":{"ID":598776,"DIS_CODE":0,"TOWNNAME":"永康區","LI":"埔園里","LIN":"30鄰","STREET":"龍埔街","SECT":" ","MAREA":" ","LANE":" ","ALLEY":" ","HOUSE_NO":"４８６號","E_COORD97":173744.76000000001,"N_COORD97":2548383.75,"ADDRESS":"龍埔街４８６號","OBJECTID":598749},"geometry":{"x":173744.76000000071,"y":2548383.7500000019}},{"attributes":{"ID":598777,"DIS_CODE":0,"TOWNNAME":"永康區","LI":"崑山里","LIN":"2鄰","STREET":"大灣路","SECT":" ","MAREA":" ","LANE":" ","ALLEY":" ","HOUSE_NO":"８８９號","E_COORD97":173622.23000000001,"N_COORD97":2544398.6200000001,"ADDRESS":"大灣路８８９號","OBJECTID":598750},"geometry":{"x":173622.23000000138,"y":2544398.6200000029}},{"attributes":{"ID":598778,"DIS_CODE":0,"TOWNNAME":"永康區","LI":"勝利里","LIN":"33鄰","STREET":"中華路","SECT":" ","MAREA":" ","LANE":" ","ALLEY":" ","HOUSE_NO":"１號之１１７","E_COORD97":171503.19,"N_COORD97":2544353.0499999998,"ADDRESS":"中華路１號之１１７","OBJECTID":598751},"geometry":{"x":171503.19000000134,"y":2544353.0500000007}},{"attributes":{"ID":598779,"DIS_CODE":0,"TOWNNAME":"永康區","LI":"埔園里","LIN":"30鄰","STREET":"龍埔街","SECT":" ","MAREA":" ","LANE":" ","ALLEY":" ","HOUSE_NO":"４７６號","E_COORD97":173827.32000000001,"N_COORD97":2548356.2400000002,"ADDRESS":"龍埔街４７６號","OBJECTID":598752},"geometry":{"x":173827.3200000003,"y":2548356.2400000021}},{"attributes":{"ID":598780,"DIS_CODE":0,"TOWNNAME":"永康區","LI":"崑山里","LIN":"30鄰","STREET":"國光二街","SECT":" ","MAREA":" ","LANE":" ","ALLEY":" ","HOUSE_NO":"６０號","E_COORD97":173913.04000000001,"N_COORD97":2544726.6899999999,"ADDRESS":"國光二街６０號","OBJECTID":598753},"geometry":{"x":173913.04000000097,"y":2544726.6899999995}},{"attributes":{"ID":598781,"DIS_CODE":0,"TOWNNAME":"永康區","LI":"復國里","LIN":"19鄰","STREET":"國華街","SECT":" ","MAREA":" ","LANE":" ","ALLEY":" ","HOUSE_NO":"４５號","E_COORD97":172836.54999999999,"N_COORD97":2545728.8799999999,"ADDRESS":"國華街４５號","OBJECTID":598754},"geometry":{"x":172836.54999999981,"y":2545728.879999999}},{"attributes":{"ID":598782,"DIS_CODE":0,"TOWNNAME":"永康區","LI":"崑山里","LIN":"19鄰","STREET":"崑山街","SECT":" ","MAREA":" ","LANE":" ","ALLEY":" ","HOUSE_NO":"１６號","E_COORD97":173949.67000000001,"N_COORD97":2544569.6400000001,"ADDRESS":"崑山街１６號","OBJECTID":598755},"geometry":{"x":173949.66999999993,"y":2544569.6399999987}},{"attributes":{"ID":598783,"DIS_CODE":0,"TOWNNAME":"永康區","LI":"埔園里","LIN":"36鄰","STREET":"龍埔街","SECT":" ","MAREA":" ","LANE":" ","ALLEY":" ","HOUSE_NO":"２３５號","E_COORD97":174261.82000000001,"N_COORD97":2548280.1699999999,"ADDRESS":"龍埔街２３５號","OBJECTID":598756},"geometry":{"x":174261.82000000123,"y":2548280.1699999999}},{"attributes":{"ID":598784,"DIS_CODE":0,"TOWNNAME":"永康區","LI":"復國里","LIN":"7鄰","STREET":"復國一路","SECT":" ","MAREA":" ","LANE":" ","ALLEY":" ","HOUSE_NO":"２２６號","E_COORD97":172751.64999999999,"N_COORD97":2545246.77,"ADDRESS":"復國一路２２６號","OBJECTID":598757},"geometry":{"x":172751.65000000037,"y":2545246.7700000014}},{"attributes":{"ID":598785,"DIS_CODE":0,"TOWNNAME":"永康區","LI":"勝利里","LIN":"36鄰","STREET":"勝學路","SECT":" ","MAREA":" ","LANE":" ","ALLEY":" ","HOUSE_NO":"６８號","E_COORD97":171162.26000000001,"N_COORD97":2544761.5099999998,"ADDRESS":"勝學路６８號","OBJECTID":598758},"geometry":{"x":171162.25999999978,"y":2544761.5099999998}},{"attributes":{"ID":598786,"DIS_CODE":0,"TOWNNAME":"永康區","LI":"勝利里","LIN":"5鄰","STREET":"勝學路","SECT":" ","MAREA":" ","LANE":" ","ALLEY":" ","HOUSE_NO":"６３號","E_COORD97":171141.29999999999,"N_COORD97":2544744,"ADDRESS":"勝學路６３號","OBJECTID":598759},"geometry":{"x":171141.29999999981,"y":2544744.0000000019}},{"attributes":{"ID":598787,"DIS_CODE":0,"TOWNNAME":"永康區","LI":"崑山里","LIN":"7鄰","STREET":"大灣路","SECT":" ","MAREA":" ","LANE":" ","ALLEY":" ","HOUSE_NO":"８９５號","E_COORD97":173607.10000000001,"N_COORD97":2544396.0099999998,"ADDRESS":"大灣路８９５號","OBJECTID":598760},"geometry":{"x":173607.10000000056,"y":2544396.0099999998}},{"attributes":{"ID":598788,"DIS_CODE":0,"TOWNNAME":"永康區","LI":"崑山里","LIN":"1鄰","STREET":"大灣路","SECT":" ","MAREA":" ","LANE":" ","ALLEY":" ","HOUSE_NO":"７２１號","E_COORD97":173917.85999999999,"N_COORD97":2544461.98,"ADDRESS":"大灣路７２１號","OBJECTID":598761},"geometry":{"x":173917.86000000127,"y":2544461.9799999986}},{"attributes":{"ID":598789,"DIS_CODE":0,"TOWNNAME":"永康區","LI":"崑山里","LIN":"33鄰","STREET":"大仁街","SECT":" ","MAREA":" ","LANE":" ","ALLEY":" ","HOUSE_NO":"１２０號","E_COORD97":173874.56,"N_COORD97":2544869.6400000001,"ADDRESS":"大仁街１２０號","OBJECTID":598762},"geometry":{"x":173874.56000000052,"y":2544869.6400000025}},{"attributes":{"ID":598790,"DIS_CODE":0,"TOWNNAME":"永康區","LI":"復國里","LIN":"3鄰","STREET":"復國一路","SECT":" ","MAREA":" ","LANE":" ","ALLEY":" ","HOUSE_NO":"１２號","E_COORD97":172726.17000000001,"N_COORD97":2544717.77,"ADDRESS":"復國一路１２號","OBJECTID":598763},"geometry":{"x":172726.16999999993,"y":2544717.7700000014}},{"attributes":{"ID":598791,"DIS_CODE":0,"TOWNNAME":"永康區","LI":"復華里","LIN":"14鄰","STREET":"復華六街","SECT":" ","MAREA":" ","LANE":" ","ALLEY":" ","HOUSE_NO":"１２號","E_COORD97":172917.34,"N_COORD97":2545849.6099999999,"ADDRESS":"復華六街１２號","OBJECTID":598764},"geometry":{"x":172917.34000000078,"y":2545849.6099999994}},{"attributes":{"ID":598792,"DIS_CODE":0,"TOWNNAME":"永康區","LI":"崑山里","LIN":"1鄰","STREET":"大灣路","SECT":" ","MAREA":" ","LANE":" ","ALLEY":" ","HOUSE_NO":"８０１號","E_COORD97":173776.92999999999,"N_COORD97":2544433.1800000002,"ADDRESS":"大灣路８０１號","OBJECTID":598765},"geometry":{"x":173776.9299999997,"y":2544433.1800000034}},{"attributes":{"ID":598793,"DIS_CODE":0,"TOWNNAME":"永康區","LI":"勝利里","LIN":"20鄰","STREET":"勝華街","SECT":" ","MAREA":" ","LANE":" ","ALLEY":" ","HOUSE_NO":"７９號","E_COORD97":171292.03,"N_COORD97":2545205.7599999998,"ADDRESS":"勝華街７９號","OBJECTID":598766},"geometry":{"x":171292.03000000119,"y":2545205.7600000035}},{"attributes":{"ID":598794,"DIS_CODE":0,"TOWNNAME":"永康區","LI":"勝利里","LIN":"15鄰","STREET":"勝利街","SECT":" ","MAREA":" ","LANE":" ","ALLEY":" ","HOUSE_NO":"９７號","E_COORD97":171345.42000000001,"N_COORD97":2544869.7599999998,"ADDRESS":"勝利街９７號","OBJECTID":598767},"geometry":{"x":171345.42000000086,"y":2544869.7600000035}},{"attributes":{"ID":598795,"DIS_CODE":0,"TOWNNAME":"永康區","LI":"勝利里","LIN":"33鄰","STREET":"中華路","SECT":" ","MAREA":" ","LANE":" ","ALLEY":" ","HOUSE_NO":"１號之５４","E_COORD97":171501.88,"N_COORD97":2544353.0499999998,"ADDRESS":"中華路１號之５４","OBJECTID":598768},"geometry":{"x":171501.87999999989,"y":2544353.0500000007}},{"attributes":{"ID":598796,"DIS_CODE":0,"TOWNNAME":"永康區","LI":"復國里","LIN":"9鄰","STREET":"復國二路","SECT":" ","MAREA":" ","LANE":" ","ALLEY":" ","HOUSE_NO":"９４號","E_COORD97":172855.03,"N_COORD97":2545254.27,"ADDRESS":"復國二路９４號","OBJECTID":598769},"geometry":{"x":172855.03000000119,"y":2545254.2700000014}},{"attributes":{"ID":598797,"DIS_CODE":0,"TOWNNAME":"東區","LI":"自強里","LIN":"27鄰","STREET":"中華東路","SECT":"二段","MAREA":" ","LANE":" ","ALLEY":" ","HOUSE_NO":"１６７號五樓之２１","E_COORD97":171382.85000000001,"N_COORD97":2542838.9700000002,"ADDRESS":"中華東路二段１６７號五樓之２１","OBJECTID":598770},"geometry":{"x":171382.85000000056,"y":2542838.9700000025}},{"attributes":{"ID":598798,"DIS_CODE":0,"TOWNNAME":"永康區","LI":"埔園里","LIN":"18鄰","STREET":"龍埔街","SECT":" ","MAREA":" ","LANE":" ","ALLEY":" ","HOUSE_NO":"５１５號","E_COORD97":173352.26000000001,"N_COORD97":2548382.25,"ADDRESS":"龍埔街５１５號","OBJECTID":598771},"geometry":{"x":173352.25999999978,"y":2548382.25}},{"attributes":{"ID":598799,"DIS_CODE":0,"TOWNNAME":"永康區","LI":"勝利里","LIN":"26鄰","STREET":"中華路","SECT":" ","MAREA":" ","LANE":" ","ALLEY":" ","HOUSE_NO":"１０３號","E_COORD97":171562.04000000001,"N_COORD97":2544691.75,"ADDRESS":"中華路１０３號","OBJECTID":598772},"geometry":{"x":171562.04000000004,"y":2544691.7500000019}},{"attributes":{"ID":598800,"DIS_CODE":0,"TOWNNAME":"永康區","LI":"復國里","LIN":"7鄰","STREET":"復國一路","SECT":" ","MAREA":" ","LANE":" ","ALLEY":" ","HOUSE_NO":"２２４號","E_COORD97":172755.89999999999,"N_COORD97":2545246.52,"ADDRESS":"復國一路２２４號","OBJECTID":598773},"geometry":{"x":172755.90000000224,"y":2545246.5199999996}},{"attributes":{"ID":598801,"DIS_CODE":0,"TOWNNAME":"永康區","LI":"勝利里","LIN":"33鄰","STREET":"中華路","SECT":" ","MAREA":" ","LANE":" ","ALLEY":" ","HOUSE_NO":"１號之１０１","E_COORD97":171503.10999999999,"N_COORD97":2544353.0499999998,"ADDRESS":"中華路１號之１０１","OBJECTID":598774},"geometry":{"x":171503.11000000034,"y":2544353.0500000007}},{"attributes":{"ID":598802,"DIS_CODE":0,"TOWNNAME":"永康區","LI":"崑山里","LIN":"19鄰","STREET":"大灣路","SECT":" ","MAREA":" ","LANE":" ","ALLEY":" ","HOUSE_NO":"８１４號","E_COORD97":173979.39999999999,"N_COORD97":2544501.8900000001,"ADDRESS":"大灣路８１４號","OBJECTID":598775},"geometry":{"x":173979.40000000037,"y":2544501.8900000025}},{"attributes":{"ID":598803,"DIS_CODE":0,"TOWNNAME":"永康區","LI":"崑山里","LIN":"37鄰","STREET":"國光三街","SECT":" ","MAREA":" ","LANE":" ","ALLEY":" ","HOUSE_NO":"６６號","E_COORD97":173922.79999999999,"N_COORD97":2544948.2799999998,"ADDRESS":"國光三街６６號","OBJECTID":598776},"geometry":{"x":173922.80000000075,"y":2544948.2800000012}},{"attributes":{"ID":598804,"DIS_CODE":0,"TOWNNAME":"永康區","LI":"復國里","LIN":"11鄰","STREET":"復國二路","SECT":" ","MAREA":" ","LANE":" ","ALLEY":" ","HOUSE_NO":"１０１號","E_COORD97":172855.98000000001,"N_COORD97":2545474.46,"ADDRESS":"復國二路１０１號","OBJECTID":598777},"geometry":{"x":172855.98000000138,"y":2545474.4600000028}},{"attributes":{"ID":598805,"DIS_CODE":0,"TOWNNAME":"東區","LI":"自強里","LIN":"27鄰","STREET":"中華東路","SECT":"二段","MAREA":" ","LANE":" ","ALLEY":" ","HOUSE_NO":"１６７號五樓之２２","E_COORD97":171382.85000000001,"N_COORD97":2542838.9700000002,"ADDRESS":"中華東路二段１６７號五樓之２２","OBJECTID":598778},"geometry":{"x":171382.85000000056,"y":2542838.9700000025}},{"attributes":{"ID":598806,"DIS_CODE":0,"TOWNNAME":"東區","LI":"自強里","LIN":"27鄰","STREET":"中華東路","SECT":"二段","MAREA":" ","LANE":" ","ALLEY":" ","HOUSE_NO":"１６７號十三樓之１","E_COORD97":171382.85000000001,"N_COORD97":2542838.9700000002,"ADDRESS":"中華東路二段１６７號十三樓之１","OBJECTID":598779},"geometry":{"x":171382.85000000056,"y":2542838.9700000025}},{"attributes":{"ID":598807,"DIS_CODE":0,"TOWNNAME":"東區","LI":"自強里","LIN":"27鄰","STREET":"中華東路","SECT":"二段","MAREA":" ","LANE":" ","ALLEY":" ","HOUSE_NO":"１６７號十三樓之２","E_COORD97":171382.85000000001,"N_COORD97":2542838.9700000002,"ADDRESS":"中華東路二段１６７號十三樓之２","OBJECTID":598780},"geometry":{"x":171382.85000000056,"y":2542838.9700000025}},{"attributes":{"ID":598808,"DIS_CODE":0,"TOWNNAME":"東區","LI":"自強里","LIN":"27鄰","STREET":"中華東路","SECT":"二段","MAREA":" ","LANE":" ","ALLEY":" ","HOUSE_NO":"１６７號十三樓之３","E_COORD97":171382.85000000001,"N_COORD97":2542838.9700000002,"ADDRESS":"中華東路二段１６７號十三樓之３","OBJECTID":598781},"geometry":{"x":171382.85000000056,"y":2542838.9700000025}},{"attributes":{"ID":598809,"DIS_CODE":0,"TOWNNAME":"東區","LI":"自強里","LIN":"27鄰","STREET":"中華東路","SECT":"二段","MAREA":" ","LANE":" ","ALLEY":" ","HOUSE_NO":"１６７號十三樓之５","E_COORD97":171382.85000000001,"N_COORD97":2542838.9700000002,"ADDRESS":"中華東路二段１６７號十三樓之５","OBJECTID":598782},"geometry":{"x":171382.85000000056,"y":2542838.9700000025}},{"attributes":{"ID":598810,"DIS_CODE":0,"TOWNNAME":"東區","LI":"自強里","LIN":"27鄰","STREET":"中華東路","SECT":"二段","MAREA":" ","LANE":" ","ALLEY":" ","HOUSE_NO":"１６７號十三樓之６","E_COORD97":171382.85000000001,"N_COORD97":2542838.9700000002,"ADDRESS":"中華東路二段１６７號十三樓之６","OBJECTID":598783},"geometry":{"x":171382.85000000056,"y":2542838.9700000025}},{"attributes":{"ID":598811,"DIS_CODE":0,"TOWNNAME":"東區","LI":"自強里","LIN":"27鄰","STREET":"中華東路","SECT":"二段","MAREA":" ","LANE":" ","ALLEY":" ","HOUSE_NO":"１６７號十三樓之７","E_COORD97":171382.85000000001,"N_COORD97":2542838.9700000002,"ADDRESS":"中華東路二段１６７號十三樓之７","OBJECTID":598784},"geometry":{"x":171382.85000000056,"y":2542838.9700000025}},{"attributes":{"ID":598812,"DIS_CODE":0,"TOWNNAME":"東區","LI":"自強里","LIN":"27鄰","STREET":"中華東路","SECT":"二段","MAREA":" ","LANE":" ","ALLEY":" ","HOUSE_NO":"１６７號十三樓之８","E_COORD97":171382.85000000001,"N_COORD97":2542838.9700000002,"ADDRESS":"中華東路二段１６７號十三樓之８","OBJECTID":598785},"geometry":{"x":171382.85000000056,"y":2542838.9700000025}},{"attributes":{"ID":598813,"DIS_CODE":0,"TOWNNAME":"東區","LI":"自強里","LIN":"27鄰","STREET":"中華東路","SECT":"二段","MAREA":" ","LANE":" ","ALLEY":" ","HOUSE_NO":"１６７號十三樓之９","E_COORD97":171382.85000000001,"N_COORD97":2542838.9700000002,"ADDRESS":"中華東路二段１６７號十三樓之９","OBJECTID":598786},"geometry":{"x":171382.85000000056,"y":2542838.9700000025}},{"attributes":{"ID":598814,"DIS_CODE":0,"TOWNNAME":"永康區","LI":"勝利里","LIN":"20鄰","STREET":"勝學路","SECT":" ","MAREA":" ","LANE":" ","ALLEY":" ","HOUSE_NO":"２６３號","E_COORD97":171180.64999999999,"N_COORD97":2545295.5099999998,"ADDRESS":"勝學路２６３號","OBJECTID":598787},"geometry":{"x":171180.65000000037,"y":2545295.5100000035}},{"attributes":{"ID":598815,"DIS_CODE":0,"TOWNNAME":"永康區","LI":"崑山里","LIN":"39鄰","STREET":"崑山街","SECT":" ","MAREA":" ","LANE":" ","ALLEY":" ","HOUSE_NO":"１８０號","E_COORD97":174070.97,"N_COORD97":2544954.5499999998,"ADDRESS":"崑山街１８０號","OBJECTID":598788},"geometry":{"x":174070.96999999974,"y":2544954.5500000026}},{"attributes":{"ID":598816,"DIS_CODE":0,"TOWNNAME":"永康區","LI":"復國里","LIN":"7鄰","STREET":"復國一路","SECT":" ","MAREA":" ","LANE":" ","ALLEY":" ","HOUSE_NO":"１３８號","E_COORD97":172728.01999999999,"N_COORD97":2545047.27,"ADDRESS":"復國一路１３８號","OBJECTID":598789},"geometry":{"x":172728.01999999955,"y":2545047.2700000014}},{"attributes":{"ID":598817,"DIS_CODE":0,"TOWNNAME":"東區","LI":"自強里","LIN":"27鄰","STREET":"中華東路","SECT":"二段","MAREA":" ","LANE":" ","ALLEY":" ","HOUSE_NO":"１６７號十三樓之１０","E_COORD97":171382.85000000001,"N_COORD97":2542838.9700000002,"ADDRESS":"中華東路二段１６７號十三樓之１０","OBJECTID":598790},"geometry":{"x":171382.85000000056,"y":2542838.9700000025}},{"attributes":{"ID":598818,"DIS_CODE":0,"TOWNNAME":"東區","LI":"自強里","LIN":"27鄰","STREET":"中華東路","SECT":"二段","MAREA":" ","LANE":" ","ALLEY":" ","HOUSE_NO":"１６７號十三樓之１１","E_COORD97":171382.85000000001,"N_COORD97":2542838.9700000002,"ADDRESS":"中華東路二段１６７號十三樓之１１","OBJECTID":598791},"geometry":{"x":171382.85000000056,"y":2542838.9700000025}},{"attributes":{"ID":598819,"DIS_CODE":0,"TOWNNAME":"東區","LI":"自強里","LIN":"27鄰","STREET":"中華東路","SECT":"二段","MAREA":" ","LANE":" ","ALLEY":" ","HOUSE_NO":"１６７號七樓之１","E_COORD97":171382.85000000001,"N_COORD97":2542838.9700000002,"ADDRESS":"中華東路二段１６７號七樓之１","OBJECTID":598792},"geometry":{"x":171382.85000000056,"y":2542838.9700000025}},{"attributes":{"ID":598820,"DIS_CODE":0,"TOWNNAME":"東區","LI":"自強里","LIN":"27鄰","STREET":"中華東路","SECT":"二段","MAREA":" ","LANE":" ","ALLEY":" ","HOUSE_NO":"１６７號十四樓之１","E_COORD97":171382.85000000001,"N_COORD97":2542838.9700000002,"ADDRESS":"中華東路二段１６７號十四樓之１","OBJECTID":598793},"geometry":{"x":171382.85000000056,"y":2542838.9700000025}},{"attributes":{"ID":598821,"DIS_CODE":0,"TOWNNAME":"東區","LI":"自強里","LIN":"27鄰","STREET":"中華東路","SECT":"二段","MAREA":" ","LANE":" ","ALLEY":" ","HOUSE_NO":"１６７號十四樓之２","E_COORD97":171382.85000000001,"N_COORD97":2542838.9700000002,"ADDRESS":"中華東路二段１６７號十四樓之２","OBJECTID":598794},"geometry":{"x":171382.85000000056,"y":2542838.9700000025}},{"attributes":{"ID":598822,"DIS_CODE":0,"TOWNNAME":"永康區","LI":"勝利里","LIN":"33鄰","STREET":"中華路","SECT":" ","MAREA":" ","LANE":" ","ALLEY":" ","HOUSE_NO":"１號之４８","E_COORD97":171502.01000000001,"N_COORD97":2544353.0499999998,"ADDRESS":"中華路１號之４８","OBJECTID":598795},"geometry":{"x":171502.01000000071,"y":2544353.0500000007}},{"attributes":{"ID":598823,"DIS_CODE":0,"TOWNNAME":"東區","LI":"自強里","LIN":"27鄰","STREET":"中華東路","SECT":"二段","MAREA":" ","LANE":" ","ALLEY":" ","HOUSE_NO":"１６７號十四樓之３","E_COORD97":171382.85000000001,"N_COORD97":2542838.9700000002,"ADDRESS":"中華東路二段１６７號十四樓之３","OBJECTID":598796},"geometry":{"x":171382.85000000056,"y":2542838.9700000025}},{"attributes":{"ID":598824,"DIS_CODE":0,"TOWNNAME":"東區","LI":"自強里","LIN":"27鄰","STREET":"中華東路","SECT":"二段","MAREA":" ","LANE":" ","ALLEY":" ","HOUSE_NO":"１６７號十四樓之５","E_COORD97":171382.85000000001,"N_COORD97":2542838.9700000002,"ADDRESS":"中華東路二段１６７號十四樓之５","OBJECTID":598797},"geometry":{"x":171382.85000000056,"y":2542838.9700000025}},{"attributes":{"ID":598825,"DIS_CODE":0,"TOWNNAME":"東區","LI":"自強里","LIN":"27鄰","STREET":"中華東路","SECT":"二段","MAREA":" ","LANE":" ","ALLEY":" ","HOUSE_NO":"１６７號十四樓之６","E_COORD97":171382.85000000001,"N_COORD97":2542838.9700000002,"ADDRESS":"中華東路二段１６７號十四樓之６","OBJECTID":598798},"geometry":{"x":171382.85000000056,"y":2542838.9700000025}},{"attributes":{"ID":598826,"DIS_CODE":0,"TOWNNAME":"東區","LI":"自強里","LIN":"27鄰","STREET":"中華東路","SECT":"二段","MAREA":" ","LANE":" ","ALLEY":" ","HOUSE_NO":"１６７號十四樓之７","E_COORD97":171382.85000000001,"N_COORD97":2542838.9700000002,"ADDRESS":"中華東路二段１６７號十四樓之７","OBJECTID":598799},"geometry":{"x":171382.85000000056,"y":2542838.9700000025}},{"attributes":{"ID":598827,"DIS_CODE":0,"TOWNNAME":"東區","LI":"自強里","LIN":"27鄰","STREET":"中華東路","SECT":"二段","MAREA":" ","LANE":" ","ALLEY":" ","HOUSE_NO":"１６７號十四樓之８","E_COORD97":171382.85000000001,"N_COORD97":2542838.9700000002,"ADDRESS":"中華東路二段１６７號十四樓之８","OBJECTID":598800},"geometry":{"x":171382.85000000056,"y":2542838.9700000025}}]}