{"displayFieldName":"TOWNNAME","fieldAliases":{"ID":"ID","DIS_CODE":"DIS_CODE","TOWNNAME":"TOWNNAME","LI":"LI","LIN":"LIN","STREET":"STREET","SECT":"SECT","MAREA":"MAREA","LANE":"LANE","ALLEY":"ALLEY","HOUSE_NO":"HOUSE_NO","E_COORD97":"E_COORD97","N_COORD97":"N_COORD97","ADDRESS":"ADDRESS","OBJECTID":"OBJECTID"},"geometryType":"esriGeometryPoint","spatialReference":{"wkid":102443,"latestWkid":3826},"fields":[{"name":"ID","type":"esriFieldTypeDouble","alias":"ID"},{"name":"DIS_CODE","type":"esriFieldTypeInteger","alias":"DIS_CODE"},{"name":"TOWNNAME","type":"esriFieldTypeString","alias":"TOWNNAME","length":8},{"name":"LI","type":"esriFieldTypeString","alias":"LI","length":8},{"name":"LIN","type":"esriFieldTypeString","alias":"LIN","length":12},{"name":"STREET","type":"esriFieldTypeString","alias":"STREET","length":20},{"name":"SECT","type":"esriFieldTypeString","alias":"SECT","length":8},{"name":"MAREA","type":"esriFieldTypeString","alias":"MAREA","length":12},{"name":"LANE","type":"esriFieldTypeString","alias":"LANE","length":10},{"name":"ALLEY","type":"esriFieldTypeString","alias":"ALLEY","length":10},{"name":"HOUSE_NO","type":"esriFieldTypeString","alias":"HOUSE_NO","length":20},{"name":"E_COORD97","type":"esriFieldTypeDouble","alias":"E_COORD97"},{"name":"N_COORD97","type":"esriFieldTypeDouble","alias":"N_COORD97"},{"name":"ADDRESS","type":"esriFieldTypeString","alias":"ADDRESS","length":50},{"name":"OBJECTID","type":"esriFieldTypeOID","alias":"OBJECTID"}],"features":[{"attributes":{"ID":626828,"DIS_CODE":0,"TOWNNAME":"永康區","LI":"\u25A0行里","LIN":"42鄰","STREET":"永安二街","SECT":" ","MAREA":" ","LANE":" ","ALLEY":" ","HOUSE_NO":"１號一樓之２","E_COORD97":172490.22,"N_COORD97":2549594.3300000001,"ADDRESS":"永安二街１號一樓之２","OBJECTID":626801},"geometry":{"x":172490.2200000016,"y":2549594.3300000001}},{"attributes":{"ID":626829,"DIS_CODE":0,"TOWNNAME":"永康區","LI":"網寮里","LIN":"26鄰","STREET":"永興路","SECT":" ","MAREA":" ","LANE":" ","ALLEY":" ","HOUSE_NO":"６５號六樓之１","E_COORD97":174047.06,"N_COORD97":2546517.5499999998,"ADDRESS":"永興路６５號六樓之１","OBJECTID":626802},"geometry":{"x":174047.05999999959,"y":2546517.5500000026}},{"attributes":{"ID":626830,"DIS_CODE":0,"TOWNNAME":"永康區","LI":"網寮里","LIN":"26鄰","STREET":"永興路","SECT":" ","MAREA":" ","LANE":" ","ALLEY":" ","HOUSE_NO":"６５號五樓之１","E_COORD97":174047.06,"N_COORD97":2546517.5499999998,"ADDRESS":"永興路６５號五樓之１","OBJECTID":626803},"geometry":{"x":174047.05999999959,"y":2546517.5500000026}},{"attributes":{"ID":626831,"DIS_CODE":0,"TOWNNAME":"永康區","LI":"網寮里","LIN":"26鄰","STREET":"永興路","SECT":" ","MAREA":" ","LANE":" ","ALLEY":" ","HOUSE_NO":"６５號四樓之７","E_COORD97":174047.14000000001,"N_COORD97":2546517.5499999998,"ADDRESS":"永興路６５號四樓之７","OBJECTID":626804},"geometry":{"x":174047.1400000006,"y":2546517.5500000026}},{"attributes":{"ID":626832,"DIS_CODE":0,"TOWNNAME":"永康區","LI":"\u25A0行里","LIN":"1鄰","STREET":"中正北路","SECT":" ","MAREA":" ","LANE":" ","ALLEY":" ","HOUSE_NO":"５４號十樓之７","E_COORD97":172007.92999999999,"N_COORD97":2549058.5800000001,"ADDRESS":"中正北路５４號十樓之７","OBJECTID":626805},"geometry":{"x":172007.93000000063,"y":2549058.5800000038}},{"attributes":{"ID":626833,"DIS_CODE":0,"TOWNNAME":"永康區","LI":"網寮里","LIN":"26鄰","STREET":"永興路","SECT":" ","MAREA":" ","LANE":" ","ALLEY":" ","HOUSE_NO":"６５號四樓之１","E_COORD97":174047.06,"N_COORD97":2546517.5499999998,"ADDRESS":"永興路６５號四樓之１","OBJECTID":626806},"geometry":{"x":174047.05999999959,"y":2546517.5500000026}},{"attributes":{"ID":626834,"DIS_CODE":0,"TOWNNAME":"永康區","LI":"網寮里","LIN":"26鄰","STREET":"永興路","SECT":" ","MAREA":" ","LANE":" ","ALLEY":" ","HOUSE_NO":"６５號六樓之４","E_COORD97":174047.09,"N_COORD97":2546517.5499999998,"ADDRESS":"永興路６５號六樓之４","OBJECTID":626807},"geometry":{"x":174047.08999999985,"y":2546517.5500000026}},{"attributes":{"ID":626835,"DIS_CODE":0,"TOWNNAME":"永康區","LI":"網寮里","LIN":"26鄰","STREET":"永興路","SECT":" ","MAREA":" ","LANE":" ","ALLEY":" ","HOUSE_NO":"６５號八樓之５","E_COORD97":174047.22,"N_COORD97":2546517.5499999998,"ADDRESS":"永興路６５號八樓之５","OBJECTID":626808},"geometry":{"x":174047.22000000067,"y":2546517.5500000026}},{"attributes":{"ID":626836,"DIS_CODE":0,"TOWNNAME":"永康區","LI":"\u25A0行里","LIN":"42鄰","STREET":"永安二街","SECT":" ","MAREA":" ","LANE":" ","ALLEY":" ","HOUSE_NO":"１號三樓之１","E_COORD97":172490.09,"N_COORD97":2549594.3300000001,"ADDRESS":"永安二街１號三樓之１","OBJECTID":626809},"geometry":{"x":172490.09000000078,"y":2549594.3300000001}},{"attributes":{"ID":626837,"DIS_CODE":0,"TOWNNAME":"永康區","LI":"\u25A0行里","LIN":"42鄰","STREET":"永安二街","SECT":" ","MAREA":" ","LANE":" ","ALLEY":" ","HOUSE_NO":"１號六樓之２","E_COORD97":172490.22,"N_COORD97":2549594.3300000001,"ADDRESS":"永安二街１號六樓之２","OBJECTID":626810},"geometry":{"x":172490.2200000016,"y":2549594.3300000001}},{"attributes":{"ID":626838,"DIS_CODE":0,"TOWNNAME":"永康區","LI":"網寮里","LIN":"26鄰","STREET":"永興路","SECT":" ","MAREA":" ","LANE":" ","ALLEY":" ","HOUSE_NO":"６５號五樓之４","E_COORD97":174047.09,"N_COORD97":2546517.5499999998,"ADDRESS":"永興路６５號五樓之４","OBJECTID":626811},"geometry":{"x":174047.08999999985,"y":2546517.5500000026}},{"attributes":{"ID":626839,"DIS_CODE":0,"TOWNNAME":"永康區","LI":"網寮里","LIN":"26鄰","STREET":"永興路","SECT":" ","MAREA":" ","LANE":" ","ALLEY":" ","HOUSE_NO":"６５號七樓之３","E_COORD97":174047.16,"N_COORD97":2546517.5499999998,"ADDRESS":"永興路６５號七樓之３","OBJECTID":626812},"geometry":{"x":174047.16000000201,"y":2546517.5500000026}},{"attributes":{"ID":626840,"DIS_CODE":0,"TOWNNAME":"永康區","LI":"網寮里","LIN":"26鄰","STREET":"永興路","SECT":" ","MAREA":" ","LANE":" ","ALLEY":" ","HOUSE_NO":"６５號四樓之２","E_COORD97":174047.19,"N_COORD97":2546517.5499999998,"ADDRESS":"永興路６５號四樓之２","OBJECTID":626813},"geometry":{"x":174047.18999999948,"y":2546517.5500000026}},{"attributes":{"ID":626841,"DIS_CODE":0,"TOWNNAME":"永康區","LI":"復華里","LIN":"4鄰","STREET":"復國二路","SECT":" ","MAREA":" ","LANE":" ","ALLEY":" ","HOUSE_NO":"２４５號五樓之２","E_COORD97":173019.32999999999,"N_COORD97":2546116.2999999998,"ADDRESS":"復國二路２４５號五樓之２","OBJECTID":626814},"geometry":{"x":173019.33000000101,"y":2546116.3000000026}},{"attributes":{"ID":626842,"DIS_CODE":0,"TOWNNAME":"永康區","LI":"復華里","LIN":"4鄰","STREET":"復國二路","SECT":" ","MAREA":" ","LANE":" ","ALLEY":" ","HOUSE_NO":"２４５號四樓之２","E_COORD97":173019.32999999999,"N_COORD97":2546116.2999999998,"ADDRESS":"復國二路２４５號四樓之２","OBJECTID":626815},"geometry":{"x":173019.33000000101,"y":2546116.3000000026}},{"attributes":{"ID":626843,"DIS_CODE":0,"TOWNNAME":"永康區","LI":"復華里","LIN":"4鄰","STREET":"復國二路","SECT":" ","MAREA":" ","LANE":" ","ALLEY":" ","HOUSE_NO":"２４５號二樓之３","E_COORD97":173019.29000000001,"N_COORD97":2546116.2999999998,"ADDRESS":"復國二路２４５號二樓之３","OBJECTID":626816},"geometry":{"x":173019.29000000097,"y":2546116.3000000026}},{"attributes":{"ID":626844,"DIS_CODE":0,"TOWNNAME":"永康區","LI":"網寮里","LIN":"26鄰","STREET":"永興路","SECT":" ","MAREA":" ","LANE":" ","ALLEY":" ","HOUSE_NO":"９１號七樓之２","E_COORD97":173982.64000000001,"N_COORD97":2546562.8599999999,"ADDRESS":"永興路９１號七樓之２","OBJECTID":626817},"geometry":{"x":173982.6400000006,"y":2546562.8599999994}},{"attributes":{"ID":626845,"DIS_CODE":0,"TOWNNAME":"永康區","LI":"網寮里","LIN":"26鄰","STREET":"永興路","SECT":" ","MAREA":" ","LANE":" ","ALLEY":" ","HOUSE_NO":"９１號五樓之１","E_COORD97":173982.51000000001,"N_COORD97":2546562.8599999999,"ADDRESS":"永興路９１號五樓之１","OBJECTID":626818},"geometry":{"x":173982.51000000071,"y":2546562.8599999994}},{"attributes":{"ID":626846,"DIS_CODE":0,"TOWNNAME":"永康區","LI":"網寮里","LIN":"26鄰","STREET":"永興路","SECT":" ","MAREA":" ","LANE":" ","ALLEY":" ","HOUSE_NO":"６９號十樓之４","E_COORD97":174038.85000000001,"N_COORD97":2546534.2999999998,"ADDRESS":"永興路６９號十樓之４","OBJECTID":626819},"geometry":{"x":174038.85000000056,"y":2546534.3000000007}},{"attributes":{"ID":626847,"DIS_CODE":0,"TOWNNAME":"東區","LI":"東明里","LIN":"4鄰","STREET":"東興路","SECT":" ","MAREA":" ","LANE":" ","ALLEY":" ","HOUSE_NO":"８１號四樓","E_COORD97":170940.10000000001,"N_COORD97":2543592.8999999999,"ADDRESS":"東興路８１號四樓","OBJECTID":626820},"geometry":{"x":170940.10000000056,"y":2543592.9000000022}},{"attributes":{"ID":626848,"DIS_CODE":0,"TOWNNAME":"永康區","LI":"網寮里","LIN":"26鄰","STREET":"永興路","SECT":" ","MAREA":" ","LANE":" ","ALLEY":" ","HOUSE_NO":"９１號九樓之４","E_COORD97":173982.54000000001,"N_COORD97":2546562.8599999999,"ADDRESS":"永興路９１號九樓之４","OBJECTID":626821},"geometry":{"x":173982.54000000097,"y":2546562.8599999994}},{"attributes":{"ID":626849,"DIS_CODE":0,"TOWNNAME":"永康區","LI":"復國里","LIN":"27鄰","STREET":"復華三街","SECT":" ","MAREA":" ","LANE":" ","ALLEY":" ","HOUSE_NO":"６６號十五樓之６","E_COORD97":172711.89000000001,"N_COORD97":2545600.7999999998,"ADDRESS":"復華三街６６號十五樓之６","OBJECTID":626822},"geometry":{"x":172711.88999999966,"y":2545600.8000000026}},{"attributes":{"ID":626850,"DIS_CODE":0,"TOWNNAME":"永康區","LI":"復國里","LIN":"27鄰","STREET":"復華三街","SECT":" ","MAREA":" ","LANE":" ","ALLEY":" ","HOUSE_NO":"６８號十樓之２","E_COORD97":172699.14000000001,"N_COORD97":2545576.0499999998,"ADDRESS":"復華三街６８號十樓之２","OBJECTID":626823},"geometry":{"x":172699.14000000153,"y":2545576.0500000007}},{"attributes":{"ID":626851,"DIS_CODE":0,"TOWNNAME":"永康區","LI":"復國里","LIN":"27鄰","STREET":"復華三街","SECT":" ","MAREA":" ","LANE":" ","ALLEY":" ","HOUSE_NO":"６８號七樓之３","E_COORD97":172699.10000000001,"N_COORD97":2545576.0499999998,"ADDRESS":"復華三街６８號七樓之３","OBJECTID":626824},"geometry":{"x":172699.09999999963,"y":2545576.0500000007}},{"attributes":{"ID":626852,"DIS_CODE":0,"TOWNNAME":"永康區","LI":"復國里","LIN":"27鄰","STREET":"復華三街","SECT":" ","MAREA":" ","LANE":" ","ALLEY":" ","HOUSE_NO":"６８號十九樓之２","E_COORD97":172700.39000000001,"N_COORD97":2545576.0499999998,"ADDRESS":"復華三街６８號十九樓之２","OBJECTID":626825},"geometry":{"x":172700.38999999966,"y":2545576.0500000007}},{"attributes":{"ID":626853,"DIS_CODE":0,"TOWNNAME":"永康區","LI":"復國里","LIN":"26鄰","STREET":"復華三街","SECT":" ","MAREA":" ","LANE":" ","ALLEY":" ","HOUSE_NO":"６２號八樓之４","E_COORD97":172710.48999999999,"N_COORD97":2545562.9700000002,"ADDRESS":"復華三街６２號八樓之４","OBJECTID":626826},"geometry":{"x":172710.49000000022,"y":2545562.9700000007}},{"attributes":{"ID":626854,"DIS_CODE":0,"TOWNNAME":"永康區","LI":"復國里","LIN":"26鄰","STREET":"復華三街","SECT":" ","MAREA":" ","LANE":" ","ALLEY":" ","HOUSE_NO":"６４號九樓之７","E_COORD97":172719.70000000001,"N_COORD97":2545600.2999999998,"ADDRESS":"復華三街６４號九樓之７","OBJECTID":626827},"geometry":{"x":172719.70000000205,"y":2545600.3000000026}},{"attributes":{"ID":626855,"DIS_CODE":0,"TOWNNAME":"永康區","LI":"復國里","LIN":"26鄰","STREET":"復華三街","SECT":" ","MAREA":" ","LANE":" ","ALLEY":" ","HOUSE_NO":"６２號十八樓之５","E_COORD97":172711.87,"N_COORD97":2545562.9700000002,"ADDRESS":"復華三街６２號十八樓之５","OBJECTID":626828},"geometry":{"x":172711.87000000104,"y":2545562.9700000007}},{"attributes":{"ID":626856,"DIS_CODE":0,"TOWNNAME":"永康區","LI":"復國里","LIN":"26鄰","STREET":"復華三街","SECT":" ","MAREA":" ","LANE":" ","ALLEY":" ","HOUSE_NO":"６４號九樓之４","E_COORD97":172719.64999999999,"N_COORD97":2545600.2999999998,"ADDRESS":"復華三街６４號九樓之４","OBJECTID":626829},"geometry":{"x":172719.65000000037,"y":2545600.3000000026}},{"attributes":{"ID":626857,"DIS_CODE":0,"TOWNNAME":"永康區","LI":"復國里","LIN":"27鄰","STREET":"復華三街","SECT":" ","MAREA":" ","LANE":" ","ALLEY":" ","HOUSE_NO":"６８號九樓之１","E_COORD97":172699.01000000001,"N_COORD97":2545576.0499999998,"ADDRESS":"復華三街６８號九樓之１","OBJECTID":626830},"geometry":{"x":172699.01000000071,"y":2545576.0500000007}},{"attributes":{"ID":626858,"DIS_CODE":0,"TOWNNAME":"永康區","LI":"蔦松里","LIN":"2鄰","STREET":"中正北路","SECT":" ","MAREA":" ","LANE":" ","ALLEY":" ","HOUSE_NO":"５３１號八樓之３","E_COORD97":173911.79000000001,"N_COORD97":2549195.7799999998,"ADDRESS":"中正北路５３１號八樓之３","OBJECTID":626831},"geometry":{"x":173911.79000000004,"y":2549195.7800000012}},{"attributes":{"ID":626859,"DIS_CODE":0,"TOWNNAME":"永康區","LI":"蔦松里","LIN":"2鄰","STREET":"中正北路","SECT":" ","MAREA":" ","LANE":" ","ALLEY":" ","HOUSE_NO":"５３３號十樓之２","E_COORD97":173895.23999999999,"N_COORD97":2549210.29,"ADDRESS":"中正北路５３３號十樓之２","OBJECTID":626832},"geometry":{"x":173895.24000000022,"y":2549210.290000001}},{"attributes":{"ID":626860,"DIS_CODE":0,"TOWNNAME":"中西區","LI":"永福里","LIN":"1鄰","STREET":"忠義路","SECT":"二段","MAREA":" ","LANE":" ","ALLEY":" ","HOUSE_NO":"４１號七樓","E_COORD97":168234.89999999999,"N_COORD97":2543514.3700000001,"ADDRESS":"忠義路二段４１號七樓","OBJECTID":626833},"geometry":{"x":168234.9000000013,"y":2543514.3700000048}},{"attributes":{"ID":626861,"DIS_CODE":0,"TOWNNAME":"中西區","LI":"永福里","LIN":"1鄰","STREET":"忠義路","SECT":"二段","MAREA":" ","LANE":" ","ALLEY":" ","HOUSE_NO":"４１號二樓","E_COORD97":168234.89999999999,"N_COORD97":2543514.3700000001,"ADDRESS":"忠義路二段４１號二樓","OBJECTID":626834},"geometry":{"x":168234.9000000013,"y":2543514.3700000048}},{"attributes":{"ID":626862,"DIS_CODE":0,"TOWNNAME":"中西區","LI":"永福里","LIN":"1鄰","STREET":"忠義路","SECT":"二段","MAREA":" ","LANE":" ","ALLEY":" ","HOUSE_NO":"４１號八樓","E_COORD97":168234.89999999999,"N_COORD97":2543514.3700000001,"ADDRESS":"忠義路二段４１號八樓","OBJECTID":626835},"geometry":{"x":168234.9000000013,"y":2543514.3700000048}},{"attributes":{"ID":626863,"DIS_CODE":0,"TOWNNAME":"中西區","LI":"永福里","LIN":"1鄰","STREET":"忠義路","SECT":"二段","MAREA":" ","LANE":" ","ALLEY":" ","HOUSE_NO":"４１號三樓","E_COORD97":168234.89999999999,"N_COORD97":2543514.3700000001,"ADDRESS":"忠義路二段４１號三樓","OBJECTID":626836},"geometry":{"x":168234.9000000013,"y":2543514.3700000048}},{"attributes":{"ID":626864,"DIS_CODE":0,"TOWNNAME":"中西區","LI":"永福里","LIN":"1鄰","STREET":"忠義路","SECT":"二段","MAREA":" ","LANE":" ","ALLEY":" ","HOUSE_NO":"４１號五樓","E_COORD97":168234.89999999999,"N_COORD97":2543514.3700000001,"ADDRESS":"忠義路二段４１號五樓","OBJECTID":626837},"geometry":{"x":168234.9000000013,"y":2543514.3700000048}},{"attributes":{"ID":626865,"DIS_CODE":0,"TOWNNAME":"中西區","LI":"永福里","LIN":"1鄰","STREET":"忠義路","SECT":"二段","MAREA":" ","LANE":" ","ALLEY":" ","HOUSE_NO":"４１號六樓","E_COORD97":168234.89999999999,"N_COORD97":2543514.3700000001,"ADDRESS":"忠義路二段４１號六樓","OBJECTID":626838},"geometry":{"x":168234.9000000013,"y":2543514.3700000048}},{"attributes":{"ID":626866,"DIS_CODE":0,"TOWNNAME":"中西區","LI":"永福里","LIN":"1鄰","STREET":"忠義路","SECT":"二段","MAREA":" ","LANE":" ","ALLEY":" ","HOUSE_NO":"４１號四樓之１","E_COORD97":168234.89999999999,"N_COORD97":2543514.3700000001,"ADDRESS":"忠義路二段４１號四樓之１","OBJECTID":626839},"geometry":{"x":168234.9000000013,"y":2543514.3700000048}},{"attributes":{"ID":626867,"DIS_CODE":0,"TOWNNAME":"中西區","LI":"永福里","LIN":"1鄰","STREET":"忠義路","SECT":"二段","MAREA":" ","LANE":" ","ALLEY":" ","HOUSE_NO":"４１號四樓之２","E_COORD97":168234.89999999999,"N_COORD97":2543514.3700000001,"ADDRESS":"忠義路二段４１號四樓之２","OBJECTID":626840},"geometry":{"x":168234.9000000013,"y":2543514.3700000048}},{"attributes":{"ID":626868,"DIS_CODE":0,"TOWNNAME":"中西區","LI":"永福里","LIN":"1鄰","STREET":"忠義路","SECT":"二段","MAREA":" ","LANE":" ","ALLEY":" ","HOUSE_NO":"４７號一樓","E_COORD97":168239.42000000001,"N_COORD97":2543535.9399999999,"ADDRESS":"忠義路二段４７號一樓","OBJECTID":626841},"geometry":{"x":168239.42000000086,"y":2543535.9400000032}},{"attributes":{"ID":626869,"DIS_CODE":0,"TOWNNAME":"中西區","LI":"永福里","LIN":"1鄰","STREET":"忠義路","SECT":"二段","MAREA":" ","LANE":" ","ALLEY":" ","HOUSE_NO":"４７號七樓","E_COORD97":168239.42000000001,"N_COORD97":2543535.9399999999,"ADDRESS":"忠義路二段４７號七樓","OBJECTID":626842},"geometry":{"x":168239.42000000086,"y":2543535.9400000032}},{"attributes":{"ID":626870,"DIS_CODE":0,"TOWNNAME":"中西區","LI":"永福里","LIN":"1鄰","STREET":"忠義路","SECT":"二段","MAREA":" ","LANE":" ","ALLEY":" ","HOUSE_NO":"４７號九樓","E_COORD97":168239.42000000001,"N_COORD97":2543535.9399999999,"ADDRESS":"忠義路二段４７號九樓","OBJECTID":626843},"geometry":{"x":168239.42000000086,"y":2543535.9400000032}},{"attributes":{"ID":626871,"DIS_CODE":0,"TOWNNAME":"東區","LI":"東明里","LIN":"4鄰","STREET":"東興路","SECT":" ","MAREA":" ","LANE":" ","ALLEY":" ","HOUSE_NO":"８３號七樓","E_COORD97":170936.89999999999,"N_COORD97":2543583.8500000001,"ADDRESS":"東興路８３號七樓","OBJECTID":626844},"geometry":{"x":170936.90000000224,"y":2543583.8499999978}},{"attributes":{"ID":626872,"DIS_CODE":0,"TOWNNAME":"中西區","LI":"法華里","LIN":"17鄰","STREET":"法華街","SECT":" ","MAREA":" ","LANE":" ","ALLEY":" ","HOUSE_NO":"１７６號之３五樓","E_COORD97":168842.44,"N_COORD97":2542526.29,"ADDRESS":"法華街１７６號之３五樓","OBJECTID":626845},"geometry":{"x":168842.44000000041,"y":2542526.2900000028}},{"attributes":{"ID":626873,"DIS_CODE":0,"TOWNNAME":"中西區","LI":"法華里","LIN":"17鄰","STREET":"法華街","SECT":" ","MAREA":" ","LANE":" ","ALLEY":" ","HOUSE_NO":"１７６號之３六樓","E_COORD97":168842.44,"N_COORD97":2542526.29,"ADDRESS":"法華街１７６號之３六樓","OBJECTID":626846},"geometry":{"x":168842.44000000041,"y":2542526.2900000028}},{"attributes":{"ID":626874,"DIS_CODE":0,"TOWNNAME":"中西區","LI":"法華里","LIN":"17鄰","STREET":"法華街","SECT":" ","MAREA":" ","LANE":" ","ALLEY":" ","HOUSE_NO":"１７６號之３四樓","E_COORD97":168842.44,"N_COORD97":2542526.29,"ADDRESS":"法華街１７６號之３四樓","OBJECTID":626847},"geometry":{"x":168842.44000000041,"y":2542526.2900000028}},{"attributes":{"ID":626875,"DIS_CODE":0,"TOWNNAME":"中西區","LI":"法華里","LIN":"17鄰","STREET":"法華街","SECT":" ","MAREA":" ","LANE":" ","ALLEY":" ","HOUSE_NO":"１７６號五樓","E_COORD97":168858.97,"N_COORD97":2542526.6800000002,"ADDRESS":"法華街１７６號五樓","OBJECTID":626848},"geometry":{"x":168858.96999999881,"y":2542526.6799999997}},{"attributes":{"ID":626876,"DIS_CODE":0,"TOWNNAME":"中西區","LI":"法華里","LIN":"17鄰","STREET":"法華街","SECT":" ","MAREA":" ","LANE":" ","ALLEY":" ","HOUSE_NO":"１７６號四樓","E_COORD97":168858.97,"N_COORD97":2542526.6800000002,"ADDRESS":"法華街１７６號四樓","OBJECTID":626849},"geometry":{"x":168858.96999999881,"y":2542526.6799999997}},{"attributes":{"ID":626877,"DIS_CODE":0,"TOWNNAME":"中西區","LI":"法華里","LIN":"17鄰","STREET":"法華街","SECT":" ","MAREA":" ","LANE":" ","ALLEY":" ","HOUSE_NO":"１８０號二樓","E_COORD97":168860.94,"N_COORD97":2542510.5699999998,"ADDRESS":"法華街１８０號二樓","OBJECTID":626850},"geometry":{"x":168860.94000000041,"y":2542510.5700000003}},{"attributes":{"ID":626878,"DIS_CODE":0,"TOWNNAME":"中西區","LI":"法華里","LIN":"17鄰","STREET":"法華街","SECT":" ","MAREA":" ","LANE":" ","ALLEY":" ","HOUSE_NO":"１８０號三樓","E_COORD97":168860.94,"N_COORD97":2542510.5699999998,"ADDRESS":"法華街１８０號三樓","OBJECTID":626851},"geometry":{"x":168860.94000000041,"y":2542510.5700000003}},{"attributes":{"ID":626879,"DIS_CODE":0,"TOWNNAME":"中西區","LI":"法華里","LIN":"17鄰","STREET":"法華街","SECT":" ","MAREA":" ","LANE":" ","ALLEY":" ","HOUSE_NO":"１８０號五樓","E_COORD97":168860.94,"N_COORD97":2542510.5699999998,"ADDRESS":"法華街１８０號五樓","OBJECTID":626852},"geometry":{"x":168860.94000000041,"y":2542510.5700000003}},{"attributes":{"ID":626880,"DIS_CODE":0,"TOWNNAME":"中西區","LI":"法華里","LIN":"17鄰","STREET":"法華街","SECT":" ","MAREA":" ","LANE":" ","ALLEY":" ","HOUSE_NO":"１８０號四樓","E_COORD97":168860.94,"N_COORD97":2542510.5699999998,"ADDRESS":"法華街１８０號四樓","OBJECTID":626853},"geometry":{"x":168860.94000000041,"y":2542510.5700000003}},{"attributes":{"ID":626881,"DIS_CODE":0,"TOWNNAME":"中西區","LI":"法華里","LIN":"17鄰","STREET":"法華街","SECT":" ","MAREA":" ","LANE":" ","ALLEY":" ","HOUSE_NO":"１９０號之１一樓","E_COORD97":168831.81,"N_COORD97":2542483.6099999999,"ADDRESS":"法華街１９０號之１一樓","OBJECTID":626854},"geometry":{"x":168831.81000000052,"y":2542483.6100000031}},{"attributes":{"ID":626882,"DIS_CODE":0,"TOWNNAME":"中西區","LI":"法華里","LIN":"17鄰","STREET":"法華街","SECT":" ","MAREA":" ","LANE":" ","ALLEY":" ","HOUSE_NO":"１９０號之１二樓","E_COORD97":168831.81,"N_COORD97":2542483.6099999999,"ADDRESS":"法華街１９０號之１二樓","OBJECTID":626855},"geometry":{"x":168831.81000000052,"y":2542483.6100000031}},{"attributes":{"ID":626883,"DIS_CODE":0,"TOWNNAME":"中西區","LI":"法華里","LIN":"17鄰","STREET":"法華街","SECT":" ","MAREA":" ","LANE":" ","ALLEY":" ","HOUSE_NO":"１９０號之１三樓","E_COORD97":168831.81,"N_COORD97":2542483.6099999999,"ADDRESS":"法華街１９０號之１三樓","OBJECTID":626856},"geometry":{"x":168831.81000000052,"y":2542483.6100000031}},{"attributes":{"ID":626884,"DIS_CODE":0,"TOWNNAME":"中西區","LI":"法華里","LIN":"17鄰","STREET":"法華街","SECT":" ","MAREA":" ","LANE":" ","ALLEY":" ","HOUSE_NO":"１９０號之１四樓","E_COORD97":168831.81,"N_COORD97":2542483.6099999999,"ADDRESS":"法華街１９０號之１四樓","OBJECTID":626857},"geometry":{"x":168831.81000000052,"y":2542483.6100000031}},{"attributes":{"ID":626885,"DIS_CODE":0,"TOWNNAME":"中西區","LI":"法華里","LIN":"17鄰","STREET":"法華街","SECT":" ","MAREA":" ","LANE":" ","ALLEY":" ","HOUSE_NO":"１９０號之２一樓","E_COORD97":168836.92999999999,"N_COORD97":2542494.0600000001,"ADDRESS":"法華街１９０號之２一樓","OBJECTID":626858},"geometry":{"x":168836.9299999997,"y":2542494.0600000005}},{"attributes":{"ID":626886,"DIS_CODE":0,"TOWNNAME":"中西區","LI":"法華里","LIN":"17鄰","STREET":"法華街","SECT":" ","MAREA":" ","LANE":" ","ALLEY":" ","HOUSE_NO":"１９０號之２二樓","E_COORD97":168836.92999999999,"N_COORD97":2542494.0600000001,"ADDRESS":"法華街１９０號之２二樓","OBJECTID":626859},"geometry":{"x":168836.9299999997,"y":2542494.0600000005}},{"attributes":{"ID":626887,"DIS_CODE":0,"TOWNNAME":"安南區","LI":"溪北里","LIN":"20鄰","STREET":"郡安路","SECT":"四段","MAREA":" ","LANE":" ","ALLEY":" ","HOUSE_NO":"７６號之１０十樓","E_COORD97":169094.82000000001,"N_COORD97":2547587.4900000002,"ADDRESS":"郡安路四段７６號之１０十樓","OBJECTID":626860},"geometry":{"x":169094.82000000123,"y":2547587.4900000002}},{"attributes":{"ID":626888,"DIS_CODE":0,"TOWNNAME":"中西區","LI":"大涼里","LIN":"4鄰","STREET":"府前路","SECT":"二段","MAREA":" ","LANE":" ","ALLEY":" ","HOUSE_NO":"２３０號二樓","E_COORD97":167158.75,"N_COORD97":2543608.3399999999,"ADDRESS":"府前路二段２３０號二樓","OBJECTID":626861},"geometry":{"x":167158.75,"y":2543608.3400000036}},{"attributes":{"ID":626889,"DIS_CODE":0,"TOWNNAME":"安南區","LI":"溪北里","LIN":"24鄰","STREET":"敬安街","SECT":" ","MAREA":" ","LANE":" ","ALLEY":" ","HOUSE_NO":"７號十二樓","E_COORD97":169186.04000000001,"N_COORD97":2547589.5499999998,"ADDRESS":"敬安街７號十二樓","OBJECTID":626862},"geometry":{"x":169186.03999999911,"y":2547589.5500000026}},{"attributes":{"ID":626890,"DIS_CODE":0,"TOWNNAME":"安南區","LI":"溪北里","LIN":"24鄰","STREET":"敬安街","SECT":" ","MAREA":" ","LANE":" ","ALLEY":" ","HOUSE_NO":"５號十二樓","E_COORD97":169175.59,"N_COORD97":2547589.7400000002,"ADDRESS":"敬安街５號十二樓","OBJECTID":626863},"geometry":{"x":169175.59000000078,"y":2547589.7400000039}},{"attributes":{"ID":626891,"DIS_CODE":0,"TOWNNAME":"東區","LI":"東明里","LIN":"4鄰","STREET":"東興路","SECT":" ","MAREA":" ","LANE":" ","ALLEY":" ","HOUSE_NO":"８３號五樓","E_COORD97":170936.89999999999,"N_COORD97":2543583.8500000001,"ADDRESS":"東興路８３號五樓","OBJECTID":626864},"geometry":{"x":170936.90000000224,"y":2543583.8499999978}},{"attributes":{"ID":626892,"DIS_CODE":0,"TOWNNAME":"東區","LI":"東明里","LIN":"4鄰","STREET":"東興路","SECT":" ","MAREA":" ","LANE":" ","ALLEY":" ","HOUSE_NO":"８３號六樓","E_COORD97":170936.89999999999,"N_COORD97":2543583.8500000001,"ADDRESS":"東興路８３號六樓","OBJECTID":626865},"geometry":{"x":170936.90000000224,"y":2543583.8499999978}},{"attributes":{"ID":626893,"DIS_CODE":0,"TOWNNAME":"東區","LI":"東明里","LIN":"4鄰","STREET":"東興路","SECT":" ","MAREA":" ","LANE":" ","ALLEY":" ","HOUSE_NO":"８５號七樓","E_COORD97":170925.04999999999,"N_COORD97":2543585.52,"ADDRESS":"東興路８５號七樓","OBJECTID":626866},"geometry":{"x":170925.05000000168,"y":2543585.5199999996}},{"attributes":{"ID":626894,"DIS_CODE":0,"TOWNNAME":"永康區","LI":"\u25A0洲里","LIN":"39鄰","STREET":"\u25A0洲一街","SECT":" ","MAREA":" ","LANE":" ","ALLEY":" ","HOUSE_NO":"５７號四樓之２","E_COORD97":171614.26999999999,"N_COORD97":2549104.8100000001,"ADDRESS":"\u25A0洲一街５７號四樓之２","OBJECTID":626867},"geometry":{"x":171614.26999999955,"y":2549104.8100000042}},{"attributes":{"ID":626895,"DIS_CODE":0,"TOWNNAME":"永康區","LI":"\u25A0洲里","LIN":"39鄰","STREET":"\u25A0洲一街","SECT":" ","MAREA":" ","LANE":" ","ALLEY":" ","HOUSE_NO":"４９號四樓之１","E_COORD97":171601.89000000001,"N_COORD97":2549090.5499999998,"ADDRESS":"\u25A0洲一街４９號四樓之１","OBJECTID":626868},"geometry":{"x":171601.88999999966,"y":2549090.5500000026}},{"attributes":{"ID":626896,"DIS_CODE":0,"TOWNNAME":"東區","LI":"東明里","LIN":"4鄰","STREET":"東興路","SECT":" ","MAREA":" ","LANE":" ","ALLEY":" ","HOUSE_NO":"８５號五樓","E_COORD97":170925.04999999999,"N_COORD97":2543585.52,"ADDRESS":"東興路８５號五樓","OBJECTID":626869},"geometry":{"x":170925.05000000168,"y":2543585.5199999996}},{"attributes":{"ID":626897,"DIS_CODE":0,"TOWNNAME":"東區","LI":"東明里","LIN":"4鄰","STREET":"東興路","SECT":" ","MAREA":" ","LANE":" ","ALLEY":" ","HOUSE_NO":"８５號四樓","E_COORD97":170925.04999999999,"N_COORD97":2543585.52,"ADDRESS":"東興路８５號四樓","OBJECTID":626870},"geometry":{"x":170925.05000000168,"y":2543585.5199999996}},{"attributes":{"ID":626898,"DIS_CODE":0,"TOWNNAME":"永康區","LI":"大橋里","LIN":"4鄰","STREET":"大橋五街","SECT":" ","MAREA":" ","LANE":" ","ALLEY":" ","HOUSE_NO":"１４１號七樓之３","E_COORD97":170968.84,"N_COORD97":2547008.29,"ADDRESS":"大橋五街１４１號七樓之３","OBJECTID":626871},"geometry":{"x":170968.83999999892,"y":2547008.2900000028}},{"attributes":{"ID":626899,"DIS_CODE":0,"TOWNNAME":"永康區","LI":"大橋里","LIN":"4鄰","STREET":"大橋五街","SECT":" ","MAREA":" ","LANE":" ","ALLEY":" ","HOUSE_NO":"１４１號五樓之３","E_COORD97":170968.84,"N_COORD97":2547008.29,"ADDRESS":"大橋五街１４１號五樓之３","OBJECTID":626872},"geometry":{"x":170968.83999999892,"y":2547008.2900000028}},{"attributes":{"ID":626900,"DIS_CODE":0,"TOWNNAME":"永康區","LI":"大橋里","LIN":"4鄰","STREET":"大橋五街","SECT":" ","MAREA":" ","LANE":" ","ALLEY":" ","HOUSE_NO":"１４３號二樓之５","E_COORD97":170978.84,"N_COORD97":2546989.3599999999,"ADDRESS":"大橋五街１４３號二樓之５","OBJECTID":626873},"geometry":{"x":170978.83999999985,"y":2546989.3600000013}},{"attributes":{"ID":626901,"DIS_CODE":0,"TOWNNAME":"永康區","LI":"大橋里","LIN":"4鄰","STREET":"大橋五街","SECT":" ","MAREA":" ","LANE":" ","ALLEY":" ","HOUSE_NO":"１４３號三樓之１","E_COORD97":170978.67999999999,"N_COORD97":2546989.3599999999,"ADDRESS":"大橋五街１４３號三樓之１","OBJECTID":626874},"geometry":{"x":170978.68000000063,"y":2546989.3600000013}},{"attributes":{"ID":626902,"DIS_CODE":0,"TOWNNAME":"永康區","LI":"大橋里","LIN":"4鄰","STREET":"大橋五街","SECT":" ","MAREA":" ","LANE":" ","ALLEY":" ","HOUSE_NO":"１２１號五樓之１","E_COORD97":170941.81,"N_COORD97":2546963.6299999999,"ADDRESS":"大橋五街１２１號五樓之１","OBJECTID":626875},"geometry":{"x":170941.81000000145,"y":2546963.629999999}},{"attributes":{"ID":626903,"DIS_CODE":0,"TOWNNAME":"東區","LI":"東明里","LIN":"4鄰","STREET":"東興路","SECT":" ","MAREA":" ","LANE":" ","ALLEY":" ","HOUSE_NO":"８７號七樓","E_COORD97":170925.82000000001,"N_COORD97":2543593.4399999999,"ADDRESS":"東興路８７號七樓","OBJECTID":626876},"geometry":{"x":170925.82000000123,"y":2543593.4400000032}},{"attributes":{"ID":626904,"DIS_CODE":0,"TOWNNAME":"東區","LI":"東明里","LIN":"4鄰","STREET":"東興路","SECT":" ","MAREA":" ","LANE":" ","ALLEY":" ","HOUSE_NO":"８７號三樓","E_COORD97":170925.82000000001,"N_COORD97":2543593.4399999999,"ADDRESS":"東興路８７號三樓","OBJECTID":626877},"geometry":{"x":170925.82000000123,"y":2543593.4400000032}},{"attributes":{"ID":626905,"DIS_CODE":0,"TOWNNAME":"永康區","LI":"大橋里","LIN":"4鄰","STREET":"大橋五街","SECT":" ","MAREA":" ","LANE":" ","ALLEY":" ","HOUSE_NO":"１４１號六樓之３","E_COORD97":170968.84,"N_COORD97":2547008.29,"ADDRESS":"大橋五街１４１號六樓之３","OBJECTID":626878},"geometry":{"x":170968.83999999892,"y":2547008.2900000028}},{"attributes":{"ID":626906,"DIS_CODE":0,"TOWNNAME":"永康區","LI":"大橋里","LIN":"4鄰","STREET":"大橋五街","SECT":" ","MAREA":" ","LANE":" ","ALLEY":" ","HOUSE_NO":"１４３號五樓之５","E_COORD97":170978.84,"N_COORD97":2546989.3599999999,"ADDRESS":"大橋五街１４３號五樓之５","OBJECTID":626879},"geometry":{"x":170978.83999999985,"y":2546989.3600000013}},{"attributes":{"ID":626907,"DIS_CODE":0,"TOWNNAME":"永康區","LI":"大橋里","LIN":"4鄰","STREET":"大橋五街","SECT":" ","MAREA":" ","LANE":" ","ALLEY":" ","HOUSE_NO":"１４３號三樓之５","E_COORD97":170978.84,"N_COORD97":2546989.3599999999,"ADDRESS":"大橋五街１４３號三樓之５","OBJECTID":626880},"geometry":{"x":170978.83999999985,"y":2546989.3600000013}},{"attributes":{"ID":626908,"DIS_CODE":0,"TOWNNAME":"永康區","LI":"大橋里","LIN":"4鄰","STREET":"大橋五街","SECT":" ","MAREA":" ","LANE":" ","ALLEY":" ","HOUSE_NO":"１４３號五樓之１","E_COORD97":170978.67999999999,"N_COORD97":2546989.3599999999,"ADDRESS":"大橋五街１４３號五樓之１","OBJECTID":626881},"geometry":{"x":170978.68000000063,"y":2546989.3600000013}},{"attributes":{"ID":626909,"DIS_CODE":0,"TOWNNAME":"東區","LI":"東明里","LIN":"4鄰","STREET":"東興路","SECT":" ","MAREA":" ","LANE":" ","ALLEY":" ","HOUSE_NO":"８７號五樓","E_COORD97":170925.82000000001,"N_COORD97":2543593.4399999999,"ADDRESS":"東興路８７號五樓","OBJECTID":626882},"geometry":{"x":170925.82000000123,"y":2543593.4400000032}},{"attributes":{"ID":626910,"DIS_CODE":0,"TOWNNAME":"仁德區","LI":"仁義里","LIN":"25鄰","STREET":"正義一街","SECT":" ","MAREA":" ","LANE":" ","ALLEY":" ","HOUSE_NO":"３９號三樓","E_COORD97":173419.45000000001,"N_COORD97":2541403.2599999998,"ADDRESS":"正義一街３９號三樓","OBJECTID":626883},"geometry":{"x":173419.45000000019,"y":2541403.2599999998}},{"attributes":{"ID":626911,"DIS_CODE":0,"TOWNNAME":"仁德區","LI":"仁義里","LIN":"34鄰","STREET":"正義二街","SECT":" ","MAREA":" ","LANE":" ","ALLEY":" ","HOUSE_NO":"１５３號五樓","E_COORD97":173807.57999999999,"N_COORD97":2541602.5099999998,"ADDRESS":"正義二街１５３號五樓","OBJECTID":626884},"geometry":{"x":173807.58000000101,"y":2541602.5099999998}},{"attributes":{"ID":626912,"DIS_CODE":0,"TOWNNAME":"東區","LI":"東明里","LIN":"4鄰","STREET":"東興路","SECT":" ","MAREA":" ","LANE":" ","ALLEY":" ","HOUSE_NO":"８７號六樓","E_COORD97":170925.82000000001,"N_COORD97":2543593.4399999999,"ADDRESS":"東興路８７號六樓","OBJECTID":626885},"geometry":{"x":170925.82000000123,"y":2543593.4400000032}},{"attributes":{"ID":626913,"DIS_CODE":0,"TOWNNAME":"東區","LI":"中西里","LIN":"3鄰","STREET":"勝利路","SECT":" ","MAREA":" ","LANE":" ","ALLEY":" ","HOUSE_NO":"８號之６七樓","E_COORD97":169825.64999999999,"N_COORD97":2543122.7000000002,"ADDRESS":"勝利路８號之６七樓","OBJECTID":626886},"geometry":{"x":169825.6500000013,"y":2543122.6999999993}},{"attributes":{"ID":626914,"DIS_CODE":0,"TOWNNAME":"安南區","LI":"溪北里","LIN":"23鄰","STREET":"敬安街","SECT":" ","MAREA":" ","LANE":" ","ALLEY":" ","HOUSE_NO":"１１號三樓之１","E_COORD97":169185.98000000001,"N_COORD97":2547570.1400000001,"ADDRESS":"敬安街１１號三樓之１","OBJECTID":626887},"geometry":{"x":169185.98000000138,"y":2547570.1400000043}},{"attributes":{"ID":626915,"DIS_CODE":0,"TOWNNAME":"東區","LI":"圍下里","LIN":"9鄰","STREET":"東寧路","SECT":"西段","MAREA":" ","LANE":" ","ALLEY":" ","HOUSE_NO":"１５號五樓","E_COORD97":169733.88,"N_COORD97":2543645.8599999999,"ADDRESS":"東寧路西段１５號五樓","OBJECTID":626888},"geometry":{"x":169733.87999999989,"y":2543645.8600000013}},{"attributes":{"ID":626916,"DIS_CODE":0,"TOWNNAME":"東區","LI":"圍下里","LIN":"9鄰","STREET":"東寧路","SECT":"西段","MAREA":" ","LANE":" ","ALLEY":" ","HOUSE_NO":"１７號二樓","E_COORD97":169736.79999999999,"N_COORD97":2543645.8599999999,"ADDRESS":"東寧路西段１７號二樓","OBJECTID":626889},"geometry":{"x":169736.80000000168,"y":2543645.8600000013}},{"attributes":{"ID":626917,"DIS_CODE":0,"TOWNNAME":"東區","LI":"圍下里","LIN":"9鄰","STREET":"東寧路","SECT":"西段","MAREA":" ","LANE":" ","ALLEY":" ","HOUSE_NO":"１７號三樓","E_COORD97":169736.79999999999,"N_COORD97":2543645.8599999999,"ADDRESS":"東寧路西段１７號三樓","OBJECTID":626890},"geometry":{"x":169736.80000000168,"y":2543645.8600000013}},{"attributes":{"ID":626918,"DIS_CODE":0,"TOWNNAME":"東區","LI":"圍下里","LIN":"9鄰","STREET":"東寧路","SECT":"西段","MAREA":" ","LANE":" ","ALLEY":" ","HOUSE_NO":"１７號四樓","E_COORD97":169736.79999999999,"N_COORD97":2543645.8599999999,"ADDRESS":"東寧路西段１７號四樓","OBJECTID":626891},"geometry":{"x":169736.80000000168,"y":2543645.8600000013}},{"attributes":{"ID":626919,"DIS_CODE":0,"TOWNNAME":"東區","LI":"圍下里","LIN":"9鄰","STREET":"東寧路","SECT":"西段","MAREA":" ","LANE":" ","ALLEY":" ","HOUSE_NO":"１７號五樓","E_COORD97":169736.79999999999,"N_COORD97":2543645.8599999999,"ADDRESS":"東寧路西段１７號五樓","OBJECTID":626892},"geometry":{"x":169736.80000000168,"y":2543645.8600000013}},{"attributes":{"ID":626920,"DIS_CODE":0,"TOWNNAME":"東區","LI":"裕農里","LIN":"21鄰","STREET":"裕豐街","SECT":" ","MAREA":" ","LANE":" ","ALLEY":" ","HOUSE_NO":"１７２號四樓","E_COORD97":170776.98999999999,"N_COORD97":2543086.71,"ADDRESS":"裕豐街１７２號四樓","OBJECTID":626893},"geometry":{"x":170776.99000000115,"y":2543086.7100000009}},{"attributes":{"ID":626921,"DIS_CODE":0,"TOWNNAME":"東區","LI":"裕農里","LIN":"21鄰","STREET":"裕豐街","SECT":" ","MAREA":" ","LANE":" ","ALLEY":" ","HOUSE_NO":"１７２號五樓","E_COORD97":170776.98999999999,"N_COORD97":2543086.71,"ADDRESS":"裕豐街１７２號五樓","OBJECTID":626894},"geometry":{"x":170776.99000000115,"y":2543086.7100000009}},{"attributes":{"ID":626922,"DIS_CODE":0,"TOWNNAME":"東區","LI":"東明里","LIN":"3鄰","STREET":"怡東路","SECT":" ","MAREA":" ","LANE":" ","ALLEY":" ","HOUSE_NO":"６０號五樓","E_COORD97":170849.79999999999,"N_COORD97":2543597.0800000001,"ADDRESS":"怡東路６０號五樓","OBJECTID":626895},"geometry":{"x":170849.79999999981,"y":2543597.0800000019}},{"attributes":{"ID":626923,"DIS_CODE":0,"TOWNNAME":"東區","LI":"小東里","LIN":"33鄰","STREET":"東興路","SECT":" ","MAREA":" ","LANE":" ","ALLEY":" ","HOUSE_NO":"２７６號三樓","E_COORD97":171054.35999999999,"N_COORD97":2544001.4700000002,"ADDRESS":"東興路２７６號三樓","OBJECTID":626896},"geometry":{"x":171054.36000000127,"y":2544001.4700000044}},{"attributes":{"ID":626924,"DIS_CODE":0,"TOWNNAME":"東區","LI":"小東里","LIN":"33鄰","STREET":"東興路","SECT":" ","MAREA":" ","LANE":" ","ALLEY":" ","HOUSE_NO":"２７６號三樓之１","E_COORD97":171054.35999999999,"N_COORD97":2544001.4700000002,"ADDRESS":"東興路２７６號三樓之１","OBJECTID":626897},"geometry":{"x":171054.36000000127,"y":2544001.4700000044}},{"attributes":{"ID":626925,"DIS_CODE":0,"TOWNNAME":"東區","LI":"小東里","LIN":"33鄰","STREET":"東興路","SECT":" ","MAREA":" ","LANE":" ","ALLEY":" ","HOUSE_NO":"２７６號五樓","E_COORD97":171054.35999999999,"N_COORD97":2544001.4700000002,"ADDRESS":"東興路２７６號五樓","OBJECTID":626898},"geometry":{"x":171054.36000000127,"y":2544001.4700000044}},{"attributes":{"ID":626926,"DIS_CODE":0,"TOWNNAME":"東區","LI":"小東里","LIN":"33鄰","STREET":"東興路","SECT":" ","MAREA":" ","LANE":" ","ALLEY":" ","HOUSE_NO":"２７６號五樓之１","E_COORD97":171054.35999999999,"N_COORD97":2544001.4700000002,"ADDRESS":"東興路２７６號五樓之１","OBJECTID":626899},"geometry":{"x":171054.36000000127,"y":2544001.4700000044}},{"attributes":{"ID":626927,"DIS_CODE":0,"TOWNNAME":"東區","LI":"新東里","LIN":"23鄰","STREET":"裕豐街","SECT":" ","MAREA":" ","LANE":" ","ALLEY":" ","HOUSE_NO":"１０１號三樓之４","E_COORD97":170742.34,"N_COORD97":2542985.7599999998,"ADDRESS":"裕豐街１０１號三樓之４","OBJECTID":626900},"geometry":{"x":170742.34000000078,"y":2542985.7600000016}},{"attributes":{"ID":626928,"DIS_CODE":0,"TOWNNAME":"東區","LI":"新東里","LIN":"23鄰","STREET":"裕豐街","SECT":" ","MAREA":" ","LANE":" ","ALLEY":" ","HOUSE_NO":"１０１號三樓之７","E_COORD97":170742.34,"N_COORD97":2542985.7599999998,"ADDRESS":"裕豐街１０１號三樓之７","OBJECTID":626901},"geometry":{"x":170742.34000000078,"y":2542985.7600000016}},{"attributes":{"ID":626929,"DIS_CODE":0,"TOWNNAME":"東區","LI":"新東里","LIN":"23鄰","STREET":"裕豐街","SECT":" ","MAREA":" ","LANE":" ","ALLEY":" ","HOUSE_NO":"１０１號三樓之８","E_COORD97":170742.34,"N_COORD97":2542985.7599999998,"ADDRESS":"裕豐街１０１號三樓之８","OBJECTID":626902},"geometry":{"x":170742.34000000078,"y":2542985.7600000016}},{"attributes":{"ID":626930,"DIS_CODE":0,"TOWNNAME":"東區","LI":"新東里","LIN":"23鄰","STREET":"裕豐街","SECT":" ","MAREA":" ","LANE":" ","ALLEY":" ","HOUSE_NO":"１０１號三樓之９","E_COORD97":170742.34,"N_COORD97":2542985.7599999998,"ADDRESS":"裕豐街１０１號三樓之９","OBJECTID":626903},"geometry":{"x":170742.34000000078,"y":2542985.7600000016}},{"attributes":{"ID":626931,"DIS_CODE":0,"TOWNNAME":"東區","LI":"東明里","LIN":"4鄰","STREET":"東興路","SECT":" ","MAREA":" ","LANE":" ","ALLEY":" ","HOUSE_NO":"８７號四樓","E_COORD97":170925.82000000001,"N_COORD97":2543593.4399999999,"ADDRESS":"東興路８７號四樓","OBJECTID":626904},"geometry":{"x":170925.82000000123,"y":2543593.4400000032}},{"attributes":{"ID":626932,"DIS_CODE":0,"TOWNNAME":"東區","LI":"東明里","LIN":"4鄰","STREET":"東興路","SECT":" ","MAREA":" ","LANE":" ","ALLEY":" ","HOUSE_NO":"８９號七樓","E_COORD97":170926.98000000001,"N_COORD97":2543604.04,"ADDRESS":"東興路８９號七樓","OBJECTID":626905},"geometry":{"x":170926.98000000138,"y":2543604.040000001}},{"attributes":{"ID":626933,"DIS_CODE":0,"TOWNNAME":"東區","LI":"東明里","LIN":"4鄰","STREET":"東興路","SECT":" ","MAREA":" ","LANE":" ","ALLEY":" ","HOUSE_NO":"８９號三樓","E_COORD97":170926.98000000001,"N_COORD97":2543604.04,"ADDRESS":"東興路８９號三樓","OBJECTID":626906},"geometry":{"x":170926.98000000138,"y":2543604.040000001}},{"attributes":{"ID":626934,"DIS_CODE":0,"TOWNNAME":"東區","LI":"東明里","LIN":"4鄰","STREET":"東興路","SECT":" ","MAREA":" ","LANE":" ","ALLEY":" ","HOUSE_NO":"８９號四樓","E_COORD97":170926.98000000001,"N_COORD97":2543604.04,"ADDRESS":"東興路８９號四樓","OBJECTID":626907},"geometry":{"x":170926.98000000138,"y":2543604.040000001}},{"attributes":{"ID":626935,"DIS_CODE":0,"TOWNNAME":"東區","LI":"東明里","LIN":"4鄰","STREET":"東興路","SECT":" ","MAREA":" ","LANE":" ","ALLEY":" ","HOUSE_NO":"９１號七樓","E_COORD97":170933.41,"N_COORD97":2543617.96,"ADDRESS":"東興路９１號七樓","OBJECTID":626908},"geometry":{"x":170933.41000000108,"y":2543617.9600000009}},{"attributes":{"ID":626936,"DIS_CODE":0,"TOWNNAME":"東區","LI":"東明里","LIN":"4鄰","STREET":"東興路","SECT":" ","MAREA":" ","LANE":" ","ALLEY":" ","HOUSE_NO":"９１號六樓","E_COORD97":170933.41,"N_COORD97":2543617.96,"ADDRESS":"東興路９１號六樓","OBJECTID":626909},"geometry":{"x":170933.41000000108,"y":2543617.9600000009}},{"attributes":{"ID":626937,"DIS_CODE":0,"TOWNNAME":"東區","LI":"東明里","LIN":"4鄰","STREET":"東興路","SECT":" ","MAREA":" ","LANE":" ","ALLEY":" ","HOUSE_NO":"９１號四樓","E_COORD97":170933.41,"N_COORD97":2543617.96,"ADDRESS":"東興路９１號四樓","OBJECTID":626910},"geometry":{"x":170933.41000000108,"y":2543617.9600000009}},{"attributes":{"ID":626938,"DIS_CODE":0,"TOWNNAME":"東區","LI":"東明里","LIN":"4鄰","STREET":"東興路","SECT":" ","MAREA":" ","LANE":" ","ALLEY":" ","HOUSE_NO":"９３號七樓","E_COORD97":170947.35000000001,"N_COORD97":2543617.6800000002,"ADDRESS":"東興路９３號七樓","OBJECTID":626911},"geometry":{"x":170947.35000000056,"y":2543617.6799999997}},{"attributes":{"ID":626939,"DIS_CODE":0,"TOWNNAME":"東區","LI":"東明里","LIN":"4鄰","STREET":"東興路","SECT":" ","MAREA":" ","LANE":" ","ALLEY":" ","HOUSE_NO":"９３號五樓","E_COORD97":170947.35000000001,"N_COORD97":2543617.6800000002,"ADDRESS":"東興路９３號五樓","OBJECTID":626912},"geometry":{"x":170947.35000000056,"y":2543617.6799999997}},{"attributes":{"ID":626940,"DIS_CODE":0,"TOWNNAME":"東區","LI":"東明里","LIN":"4鄰","STREET":"東興路","SECT":" ","MAREA":" ","LANE":" ","ALLEY":" ","HOUSE_NO":"９３號六樓","E_COORD97":170947.35000000001,"N_COORD97":2543617.6800000002,"ADDRESS":"東興路９３號六樓","OBJECTID":626913},"geometry":{"x":170947.35000000056,"y":2543617.6799999997}},{"attributes":{"ID":626941,"DIS_CODE":0,"TOWNNAME":"東區","LI":"東明里","LIN":"4鄰","STREET":"東興路","SECT":" ","MAREA":" ","LANE":" ","ALLEY":" ","HOUSE_NO":"９５號七樓","E_COORD97":170946.23000000001,"N_COORD97":2543609.1899999999,"ADDRESS":"東興路９５號七樓","OBJECTID":626914},"geometry":{"x":170946.23000000045,"y":2543609.1900000013}},{"attributes":{"ID":626942,"DIS_CODE":0,"TOWNNAME":"東區","LI":"東明里","LIN":"4鄰","STREET":"東興路","SECT":" ","MAREA":" ","LANE":" ","ALLEY":" ","HOUSE_NO":"９５號三樓","E_COORD97":170946.23000000001,"N_COORD97":2543609.1899999999,"ADDRESS":"東興路９５號三樓","OBJECTID":626915},"geometry":{"x":170946.23000000045,"y":2543609.1900000013}},{"attributes":{"ID":626943,"DIS_CODE":0,"TOWNNAME":"東區","LI":"東明里","LIN":"4鄰","STREET":"東興路","SECT":" ","MAREA":" ","LANE":" ","ALLEY":" ","HOUSE_NO":"９５號六樓","E_COORD97":170946.23000000001,"N_COORD97":2543609.1899999999,"ADDRESS":"東興路９５號六樓","OBJECTID":626916},"geometry":{"x":170946.23000000045,"y":2543609.1900000013}},{"attributes":{"ID":626944,"DIS_CODE":0,"TOWNNAME":"東區","LI":"東明里","LIN":"4鄰","STREET":"東興路","SECT":" ","MAREA":" ","LANE":" ","ALLEY":" ","HOUSE_NO":"９５號四樓","E_COORD97":170946.23000000001,"N_COORD97":2543609.1899999999,"ADDRESS":"東興路９５號四樓","OBJECTID":626917},"geometry":{"x":170946.23000000045,"y":2543609.1900000013}},{"attributes":{"ID":626945,"DIS_CODE":0,"TOWNNAME":"東區","LI":"東明里","LIN":"3鄰","STREET":"怡東路","SECT":" ","MAREA":" ","LANE":" ","ALLEY":" ","HOUSE_NO":"６０號二樓","E_COORD97":170849.79999999999,"N_COORD97":2543597.0800000001,"ADDRESS":"怡東路６０號二樓","OBJECTID":626918},"geometry":{"x":170849.79999999981,"y":2543597.0800000019}},{"attributes":{"ID":626946,"DIS_CODE":0,"TOWNNAME":"東區","LI":"東明里","LIN":"6鄰","STREET":"怡東路","SECT":" ","MAREA":" ","LANE":" ","ALLEY":" ","HOUSE_NO":"７８號二樓","E_COORD97":170867.57999999999,"N_COORD97":2543670,"ADDRESS":"怡東路７８號二樓","OBJECTID":626919},"geometry":{"x":170867.58000000194,"y":2543670}},{"attributes":{"ID":626947,"DIS_CODE":0,"TOWNNAME":"東區","LI":"東明里","LIN":"20鄰","STREET":"東安路","SECT":" ","MAREA":" ","LANE":" ","ALLEY":" ","HOUSE_NO":"５０號三樓之８","E_COORD97":170696.03,"N_COORD97":2543616.6800000002,"ADDRESS":"東安路５０號三樓之８","OBJECTID":626920},"geometry":{"x":170696.03000000026,"y":2543616.6800000016}},{"attributes":{"ID":626948,"DIS_CODE":0,"TOWNNAME":"東區","LI":"東明里","LIN":"21鄰","STREET":"東安路","SECT":" ","MAREA":" ","LANE":" ","ALLEY":" ","HOUSE_NO":"５０號七樓之１","E_COORD97":170696.03,"N_COORD97":2543616.6800000002,"ADDRESS":"東安路５０號七樓之１","OBJECTID":626921},"geometry":{"x":170696.03000000026,"y":2543616.6800000016}},{"attributes":{"ID":626949,"DIS_CODE":0,"TOWNNAME":"東區","LI":"東明里","LIN":"21鄰","STREET":"東安路","SECT":" ","MAREA":" ","LANE":" ","ALLEY":" ","HOUSE_NO":"５０號七樓之１４","E_COORD97":170696.03,"N_COORD97":2543616.6800000002,"ADDRESS":"東安路５０號七樓之１４","OBJECTID":626922},"geometry":{"x":170696.03000000026,"y":2543616.6800000016}},{"attributes":{"ID":626950,"DIS_CODE":0,"TOWNNAME":"東區","LI":"東明里","LIN":"21鄰","STREET":"東安路","SECT":" ","MAREA":" ","LANE":" ","ALLEY":" ","HOUSE_NO":"５０號七樓之１５","E_COORD97":170696.03,"N_COORD97":2543616.6800000002,"ADDRESS":"東安路５０號七樓之１５","OBJECTID":626923},"geometry":{"x":170696.03000000026,"y":2543616.6800000016}},{"attributes":{"ID":626951,"DIS_CODE":0,"TOWNNAME":"東區","LI":"東明里","LIN":"21鄰","STREET":"東安路","SECT":" ","MAREA":" ","LANE":" ","ALLEY":" ","HOUSE_NO":"５０號七樓之２","E_COORD97":170696.03,"N_COORD97":2543616.6800000002,"ADDRESS":"東安路５０號七樓之２","OBJECTID":626924},"geometry":{"x":170696.03000000026,"y":2543616.6800000016}},{"attributes":{"ID":626952,"DIS_CODE":0,"TOWNNAME":"東區","LI":"東明里","LIN":"21鄰","STREET":"東安路","SECT":" ","MAREA":" ","LANE":" ","ALLEY":" ","HOUSE_NO":"５０號七樓之５","E_COORD97":170696.03,"N_COORD97":2543616.6800000002,"ADDRESS":"東安路５０號七樓之５","OBJECTID":626925},"geometry":{"x":170696.03000000026,"y":2543616.6800000016}},{"attributes":{"ID":626953,"DIS_CODE":0,"TOWNNAME":"東區","LI":"東明里","LIN":"21鄰","STREET":"東安路","SECT":" ","MAREA":" ","LANE":" ","ALLEY":" ","HOUSE_NO":"５０號七樓之６","E_COORD97":170696.03,"N_COORD97":2543616.6800000002,"ADDRESS":"東安路５０號七樓之６","OBJECTID":626926},"geometry":{"x":170696.03000000026,"y":2543616.6800000016}},{"attributes":{"ID":626954,"DIS_CODE":0,"TOWNNAME":"東區","LI":"東明里","LIN":"21鄰","STREET":"東安路","SECT":" ","MAREA":" ","LANE":" ","ALLEY":" ","HOUSE_NO":"５０號七樓之７","E_COORD97":170696.03,"N_COORD97":2543616.6800000002,"ADDRESS":"東安路５０號七樓之７","OBJECTID":626927},"geometry":{"x":170696.03000000026,"y":2543616.6800000016}},{"attributes":{"ID":626955,"DIS_CODE":0,"TOWNNAME":"東區","LI":"東明里","LIN":"21鄰","STREET":"東安路","SECT":" ","MAREA":" ","LANE":" ","ALLEY":" ","HOUSE_NO":"５０號七樓之８","E_COORD97":170696.03,"N_COORD97":2543616.6800000002,"ADDRESS":"東安路５０號七樓之８","OBJECTID":626928},"geometry":{"x":170696.03000000026,"y":2543616.6800000016}},{"attributes":{"ID":626956,"DIS_CODE":0,"TOWNNAME":"東區","LI":"東明里","LIN":"21鄰","STREET":"東安路","SECT":" ","MAREA":" ","LANE":" ","ALLEY":" ","HOUSE_NO":"５０號七樓之９","E_COORD97":170696.03,"N_COORD97":2543616.6800000002,"ADDRESS":"東安路５０號七樓之９","OBJECTID":626929},"geometry":{"x":170696.03000000026,"y":2543616.6800000016}},{"attributes":{"ID":626957,"DIS_CODE":0,"TOWNNAME":"東區","LI":"東明里","LIN":"21鄰","STREET":"東安路","SECT":" ","MAREA":" ","LANE":" ","ALLEY":" ","HOUSE_NO":"５０號五樓之１","E_COORD97":170696.03,"N_COORD97":2543616.6800000002,"ADDRESS":"東安路５０號五樓之１","OBJECTID":626930},"geometry":{"x":170696.03000000026,"y":2543616.6800000016}},{"attributes":{"ID":626958,"DIS_CODE":0,"TOWNNAME":"東區","LI":"東明里","LIN":"21鄰","STREET":"東安路","SECT":" ","MAREA":" ","LANE":" ","ALLEY":" ","HOUSE_NO":"５０號五樓之１１","E_COORD97":170696.03,"N_COORD97":2543616.6800000002,"ADDRESS":"東安路５０號五樓之１１","OBJECTID":626931},"geometry":{"x":170696.03000000026,"y":2543616.6800000016}},{"attributes":{"ID":626959,"DIS_CODE":0,"TOWNNAME":"東區","LI":"東明里","LIN":"21鄰","STREET":"東安路","SECT":" ","MAREA":" ","LANE":" ","ALLEY":" ","HOUSE_NO":"５０號五樓之２","E_COORD97":170696.03,"N_COORD97":2543616.6800000002,"ADDRESS":"東安路５０號五樓之２","OBJECTID":626932},"geometry":{"x":170696.03000000026,"y":2543616.6800000016}},{"attributes":{"ID":626960,"DIS_CODE":0,"TOWNNAME":"東區","LI":"東明里","LIN":"21鄰","STREET":"東安路","SECT":" ","MAREA":" ","LANE":" ","ALLEY":" ","HOUSE_NO":"５０號五樓之６","E_COORD97":170696.03,"N_COORD97":2543616.6800000002,"ADDRESS":"東安路５０號五樓之６","OBJECTID":626933},"geometry":{"x":170696.03000000026,"y":2543616.6800000016}},{"attributes":{"ID":626961,"DIS_CODE":0,"TOWNNAME":"東區","LI":"東明里","LIN":"21鄰","STREET":"東安路","SECT":" ","MAREA":" ","LANE":" ","ALLEY":" ","HOUSE_NO":"５０號五樓之７","E_COORD97":170696.03,"N_COORD97":2543616.6800000002,"ADDRESS":"東安路５０號五樓之７","OBJECTID":626934},"geometry":{"x":170696.03000000026,"y":2543616.6800000016}},{"attributes":{"ID":626962,"DIS_CODE":0,"TOWNNAME":"東區","LI":"東明里","LIN":"21鄰","STREET":"東安路","SECT":" ","MAREA":" ","LANE":" ","ALLEY":" ","HOUSE_NO":"５０號六樓之１１","E_COORD97":170696.03,"N_COORD97":2543616.6800000002,"ADDRESS":"東安路５０號六樓之１１","OBJECTID":626935},"geometry":{"x":170696.03000000026,"y":2543616.6800000016}},{"attributes":{"ID":626963,"DIS_CODE":0,"TOWNNAME":"東區","LI":"東明里","LIN":"21鄰","STREET":"東安路","SECT":" ","MAREA":" ","LANE":" ","ALLEY":" ","HOUSE_NO":"５０號六樓之１２","E_COORD97":170696.03,"N_COORD97":2543616.6800000002,"ADDRESS":"東安路５０號六樓之１２","OBJECTID":626936},"geometry":{"x":170696.03000000026,"y":2543616.6800000016}},{"attributes":{"ID":626964,"DIS_CODE":0,"TOWNNAME":"永康區","LI":"蔦松里","LIN":"2鄰","STREET":"中正北路","SECT":" ","MAREA":" ","LANE":" ","ALLEY":" ","HOUSE_NO":"５３９號四樓之３","E_COORD97":173923.35999999999,"N_COORD97":2549218.29,"ADDRESS":"中正北路５３９號四樓之３","OBJECTID":626937},"geometry":{"x":173923.36000000034,"y":2549218.2899999991}},{"attributes":{"ID":626965,"DIS_CODE":0,"TOWNNAME":"安南區","LI":"溪北里","LIN":"20鄰","STREET":"郡安路","SECT":"四段","MAREA":" ","LANE":" ","ALLEY":" ","HOUSE_NO":"７６之１４號九樓","E_COORD97":169119.01000000001,"N_COORD97":2547587.6600000001,"ADDRESS":"郡安路四段７６之１４號九樓","OBJECTID":626938},"geometry":{"x":169119.01000000071,"y":2547587.660000002}},{"attributes":{"ID":626966,"DIS_CODE":0,"TOWNNAME":"安南區","LI":"溪北里","LIN":"19鄰","STREET":"郡安路","SECT":"四段","MAREA":" ","LANE":" ","ALLEY":" ","HOUSE_NO":"７６之４號三樓","E_COORD97":169069.14999999999,"N_COORD97":2547575.2200000002,"ADDRESS":"郡安路四段７６之４號三樓","OBJECTID":626939},"geometry":{"x":169069.1500000013,"y":2547575.2200000007}},{"attributes":{"ID":626967,"DIS_CODE":0,"TOWNNAME":"安南區","LI":"溪北里","LIN":"19鄰","STREET":"郡安路","SECT":"四段","MAREA":" ","LANE":" ","ALLEY":" ","HOUSE_NO":"７６之５號三樓","E_COORD97":169067.22,"N_COORD97":2547586.0299999998,"ADDRESS":"郡安路四段７６之５號三樓","OBJECTID":626940},"geometry":{"x":169067.21999999974,"y":2547586.0299999993}},{"attributes":{"ID":626968,"DIS_CODE":0,"TOWNNAME":"東區","LI":"東明里","LIN":"21鄰","STREET":"東安路","SECT":" ","MAREA":" ","LANE":" ","ALLEY":" ","HOUSE_NO":"５０號六樓之２","E_COORD97":170696.03,"N_COORD97":2543616.6800000002,"ADDRESS":"東安路５０號六樓之２","OBJECTID":626941},"geometry":{"x":170696.03000000026,"y":2543616.6800000016}},{"attributes":{"ID":626969,"DIS_CODE":0,"TOWNNAME":"東區","LI":"東明里","LIN":"21鄰","STREET":"東安路","SECT":" ","MAREA":" ","LANE":" ","ALLEY":" ","HOUSE_NO":"５０號六樓之３","E_COORD97":170696.03,"N_COORD97":2543616.6800000002,"ADDRESS":"東安路５０號六樓之３","OBJECTID":626942},"geometry":{"x":170696.03000000026,"y":2543616.6800000016}},{"attributes":{"ID":626970,"DIS_CODE":0,"TOWNNAME":"東區","LI":"東明里","LIN":"21鄰","STREET":"東安路","SECT":" ","MAREA":" ","LANE":" ","ALLEY":" ","HOUSE_NO":"５０號六樓之４","E_COORD97":170696.03,"N_COORD97":2543616.6800000002,"ADDRESS":"東安路５０號六樓之４","OBJECTID":626943},"geometry":{"x":170696.03000000026,"y":2543616.6800000016}},{"attributes":{"ID":626971,"DIS_CODE":0,"TOWNNAME":"東區","LI":"東明里","LIN":"21鄰","STREET":"東安路","SECT":" ","MAREA":" ","LANE":" ","ALLEY":" ","HOUSE_NO":"５０號六樓之５","E_COORD97":170696.03,"N_COORD97":2543616.6800000002,"ADDRESS":"東安路５０號六樓之５","OBJECTID":626944},"geometry":{"x":170696.03000000026,"y":2543616.6800000016}},{"attributes":{"ID":626972,"DIS_CODE":0,"TOWNNAME":"東區","LI":"東明里","LIN":"21鄰","STREET":"東安路","SECT":" ","MAREA":" ","LANE":" ","ALLEY":" ","HOUSE_NO":"５０號六樓之６","E_COORD97":170696.03,"N_COORD97":2543616.6800000002,"ADDRESS":"東安路５０號六樓之６","OBJECTID":626945},"geometry":{"x":170696.03000000026,"y":2543616.6800000016}},{"attributes":{"ID":626973,"DIS_CODE":0,"TOWNNAME":"東區","LI":"東明里","LIN":"4鄰","STREET":"東興路","SECT":" ","MAREA":" ","LANE":" ","ALLEY":" ","HOUSE_NO":"９３號四樓","E_COORD97":170947.35000000001,"N_COORD97":2543617.6800000002,"ADDRESS":"東興路９３號四樓","OBJECTID":626946},"geometry":{"x":170947.35000000056,"y":2543617.6799999997}},{"attributes":{"ID":626974,"DIS_CODE":0,"TOWNNAME":"東區","LI":"東明里","LIN":"21鄰","STREET":"東安路","SECT":" ","MAREA":" ","LANE":" ","ALLEY":" ","HOUSE_NO":"５０號六樓之７","E_COORD97":170696.03,"N_COORD97":2543616.6800000002,"ADDRESS":"東安路５０號六樓之７","OBJECTID":626947},"geometry":{"x":170696.03000000026,"y":2543616.6800000016}},{"attributes":{"ID":626975,"DIS_CODE":0,"TOWNNAME":"東區","LI":"東明里","LIN":"21鄰","STREET":"東安路","SECT":" ","MAREA":" ","LANE":" ","ALLEY":" ","HOUSE_NO":"５０號六樓之８","E_COORD97":170696.03,"N_COORD97":2543616.6800000002,"ADDRESS":"東安路５０號六樓之８","OBJECTID":626948},"geometry":{"x":170696.03000000026,"y":2543616.6800000016}},{"attributes":{"ID":626976,"DIS_CODE":0,"TOWNNAME":"東區","LI":"東明里","LIN":"21鄰","STREET":"東安路","SECT":" ","MAREA":" ","LANE":" ","ALLEY":" ","HOUSE_NO":"５０號四樓之１","E_COORD97":170696.03,"N_COORD97":2543616.6800000002,"ADDRESS":"東安路５０號四樓之１","OBJECTID":626949},"geometry":{"x":170696.03000000026,"y":2543616.6800000016}},{"attributes":{"ID":626977,"DIS_CODE":0,"TOWNNAME":"東區","LI":"東明里","LIN":"21鄰","STREET":"東安路","SECT":" ","MAREA":" ","LANE":" ","ALLEY":" ","HOUSE_NO":"５０號四樓之１２","E_COORD97":170696.03,"N_COORD97":2543616.6800000002,"ADDRESS":"東安路５０號四樓之１２","OBJECTID":626950},"geometry":{"x":170696.03000000026,"y":2543616.6800000016}},{"attributes":{"ID":626978,"DIS_CODE":0,"TOWNNAME":"東區","LI":"東明里","LIN":"21鄰","STREET":"東安路","SECT":" ","MAREA":" ","LANE":" ","ALLEY":" ","HOUSE_NO":"５０號四樓之１３","E_COORD97":170696.03,"N_COORD97":2543616.6800000002,"ADDRESS":"東安路５０號四樓之１３","OBJECTID":626951},"geometry":{"x":170696.03000000026,"y":2543616.6800000016}},{"attributes":{"ID":626979,"DIS_CODE":0,"TOWNNAME":"東區","LI":"東明里","LIN":"21鄰","STREET":"東安路","SECT":" ","MAREA":" ","LANE":" ","ALLEY":" ","HOUSE_NO":"５０號四樓之１４","E_COORD97":170696.03,"N_COORD97":2543616.6800000002,"ADDRESS":"東安路５０號四樓之１４","OBJECTID":626952},"geometry":{"x":170696.03000000026,"y":2543616.6800000016}},{"attributes":{"ID":626980,"DIS_CODE":0,"TOWNNAME":"東區","LI":"東明里","LIN":"21鄰","STREET":"東安路","SECT":" ","MAREA":" ","LANE":" ","ALLEY":" ","HOUSE_NO":"５０號四樓之２","E_COORD97":170696.03,"N_COORD97":2543616.6800000002,"ADDRESS":"東安路５０號四樓之２","OBJECTID":626953},"geometry":{"x":170696.03000000026,"y":2543616.6800000016}},{"attributes":{"ID":626981,"DIS_CODE":0,"TOWNNAME":"東區","LI":"東明里","LIN":"21鄰","STREET":"東安路","SECT":" ","MAREA":" ","LANE":" ","ALLEY":" ","HOUSE_NO":"５０號四樓之５","E_COORD97":170696.03,"N_COORD97":2543616.6800000002,"ADDRESS":"東安路５０號四樓之５","OBJECTID":626954},"geometry":{"x":170696.03000000026,"y":2543616.6800000016}},{"attributes":{"ID":626982,"DIS_CODE":0,"TOWNNAME":"東區","LI":"東明里","LIN":"21鄰","STREET":"東安路","SECT":" ","MAREA":" ","LANE":" ","ALLEY":" ","HOUSE_NO":"５０號四樓之６","E_COORD97":170696.03,"N_COORD97":2543616.6800000002,"ADDRESS":"東安路５０號四樓之６","OBJECTID":626955},"geometry":{"x":170696.03000000026,"y":2543616.6800000016}},{"attributes":{"ID":626983,"DIS_CODE":0,"TOWNNAME":"安南區","LI":"溪北里","LIN":"21鄰","STREET":"郡安路","SECT":"四段","MAREA":" ","LANE":" ","ALLEY":" ","HOUSE_NO":"７６號之１５七樓","E_COORD97":169124.41,"N_COORD97":2547587.6899999999,"ADDRESS":"郡安路四段７６號之１５七樓","OBJECTID":626956},"geometry":{"x":169124.41000000201,"y":2547587.6899999995}},{"attributes":{"ID":626984,"DIS_CODE":0,"TOWNNAME":"安南區","LI":"溪北里","LIN":"21鄰","STREET":"郡安路","SECT":"四段","MAREA":" ","LANE":" ","ALLEY":" ","HOUSE_NO":"７６號之１５九樓","E_COORD97":169124.41,"N_COORD97":2547587.6899999999,"ADDRESS":"郡安路四段７６號之１５九樓","OBJECTID":626957},"geometry":{"x":169124.41000000201,"y":2547587.6899999995}},{"attributes":{"ID":626985,"DIS_CODE":0,"TOWNNAME":"永康區","LI":"復國里","LIN":"26鄰","STREET":"復華三街","SECT":" ","MAREA":" ","LANE":" ","ALLEY":" ","HOUSE_NO":"６２號十四樓之２","E_COORD97":172711.85000000001,"N_COORD97":2545562.9700000002,"ADDRESS":"復華三街６２號十四樓之２","OBJECTID":626958},"geometry":{"x":172711.85000000056,"y":2545562.9700000007}},{"attributes":{"ID":626986,"DIS_CODE":0,"TOWNNAME":"善化區","LI":"文昌里","LIN":"15鄰","STREET":"大信路","SECT":" ","MAREA":" ","LANE":" ","ALLEY":" ","HOUSE_NO":"６９號十一樓之２","E_COORD97":177608.78,"N_COORD97":2558777.77,"ADDRESS":"大信路６９號十一樓之２","OBJECTID":626959},"geometry":{"x":177608.78000000119,"y":2558777.7700000014}},{"attributes":{"ID":626987,"DIS_CODE":0,"TOWNNAME":"永康區","LI":"復國里","LIN":"26鄰","STREET":"復華三街","SECT":" ","MAREA":" ","LANE":" ","ALLEY":" ","HOUSE_NO":"６２號十三樓之３","E_COORD97":172711.81,"N_COORD97":2545562.9700000002,"ADDRESS":"復華三街６２號十三樓之３","OBJECTID":626960},"geometry":{"x":172711.81000000052,"y":2545562.9700000007}},{"attributes":{"ID":626988,"DIS_CODE":0,"TOWNNAME":"永康區","LI":"網寮里","LIN":"26鄰","STREET":"永興路","SECT":" ","MAREA":" ","LANE":" ","ALLEY":" ","HOUSE_NO":"６９號八樓之４","E_COORD97":174038.85000000001,"N_COORD97":2546534.2999999998,"ADDRESS":"永興路６９號八樓之４","OBJECTID":626961},"geometry":{"x":174038.85000000056,"y":2546534.3000000007}},{"attributes":{"ID":626989,"DIS_CODE":0,"TOWNNAME":"永康區","LI":"復國里","LIN":"26鄰","STREET":"復華三街","SECT":" ","MAREA":" ","LANE":" ","ALLEY":" ","HOUSE_NO":"６２號十樓之１","E_COORD97":172710.47,"N_COORD97":2545562.9700000002,"ADDRESS":"復華三街６２號十樓之１","OBJECTID":626962},"geometry":{"x":172710.46999999881,"y":2545562.9700000007}},{"attributes":{"ID":626990,"DIS_CODE":0,"TOWNNAME":"善化區","LI":"文昌里","LIN":"15鄰","STREET":"大信路","SECT":" ","MAREA":" ","LANE":" ","ALLEY":" ","HOUSE_NO":"６７號十樓","E_COORD97":177597.67999999999,"N_COORD97":2558743.5,"ADDRESS":"大信路６７號十樓","OBJECTID":626963},"geometry":{"x":177597.6799999997,"y":2558743.5000000019}},{"attributes":{"ID":626991,"DIS_CODE":0,"TOWNNAME":"善化區","LI":"光文里","LIN":"19鄰","STREET":"民生路","SECT":" ","MAREA":" ","LANE":" ","ALLEY":" ","HOUSE_NO":"２７７號五樓","E_COORD97":178226.07000000001,"N_COORD97":2558885.25,"ADDRESS":"民生路２７７號五樓","OBJECTID":626964},"geometry":{"x":178226.0700000003,"y":2558885.25}},{"attributes":{"ID":626992,"DIS_CODE":0,"TOWNNAME":"善化區","LI":"光文里","LIN":"19鄰","STREET":"民生路","SECT":" ","MAREA":" ","LANE":" ","ALLEY":" ","HOUSE_NO":"２７５號二樓","E_COORD97":178230.63,"N_COORD97":2558899.2599999998,"ADDRESS":"民生路２７５號二樓","OBJECTID":626965},"geometry":{"x":178230.62999999989,"y":2558899.2600000035}},{"attributes":{"ID":626993,"DIS_CODE":0,"TOWNNAME":"永康區","LI":"復國里","LIN":"27鄰","STREET":"復華三街","SECT":" ","MAREA":" ","LANE":" ","ALLEY":" ","HOUSE_NO":"６６號十五樓之７","E_COORD97":172711.85999999999,"N_COORD97":2545600.7999999998,"ADDRESS":"復華三街６６號十五樓之７","OBJECTID":626966},"geometry":{"x":172711.8599999994,"y":2545600.8000000026}},{"attributes":{"ID":626994,"DIS_CODE":0,"TOWNNAME":"永康區","LI":"復國里","LIN":"27鄰","STREET":"復華三街","SECT":" ","MAREA":" ","LANE":" ","ALLEY":" ","HOUSE_NO":"６８號十樓之１","E_COORD97":172699.01000000001,"N_COORD97":2545576.0499999998,"ADDRESS":"復華三街６８號十樓之１","OBJECTID":626967},"geometry":{"x":172699.01000000071,"y":2545576.0500000007}},{"attributes":{"ID":626995,"DIS_CODE":0,"TOWNNAME":"永康區","LI":"復國里","LIN":"27鄰","STREET":"復華三街","SECT":" ","MAREA":" ","LANE":" ","ALLEY":" ","HOUSE_NO":"６６號十樓之１","E_COORD97":172710.54000000001,"N_COORD97":2545600.7999999998,"ADDRESS":"復華三街６６號十樓之１","OBJECTID":626968},"geometry":{"x":172710.5400000019,"y":2545600.8000000026}},{"attributes":{"ID":626996,"DIS_CODE":0,"TOWNNAME":"永康區","LI":"蔦松里","LIN":"2鄰","STREET":"中正北路","SECT":" ","MAREA":" ","LANE":" ","ALLEY":" ","HOUSE_NO":"５３３號十一樓之１","E_COORD97":173896.35999999999,"N_COORD97":2549210.29,"ADDRESS":"中正北路５３３號十一樓之１","OBJECTID":626969},"geometry":{"x":173896.36000000034,"y":2549210.290000001}},{"attributes":{"ID":626997,"DIS_CODE":0,"TOWNNAME":"東區","LI":"東明里","LIN":"4鄰","STREET":"東興路","SECT":" ","MAREA":" ","LANE":" ","ALLEY":" ","HOUSE_NO":"８５號二樓","E_COORD97":170925.04999999999,"N_COORD97":2543585.52,"ADDRESS":"東興路８５號二樓","OBJECTID":626970},"geometry":{"x":170925.05000000168,"y":2543585.5199999996}},{"attributes":{"ID":626998,"DIS_CODE":0,"TOWNNAME":"永康區","LI":"蔦松里","LIN":"2鄰","STREET":"中正北路","SECT":" ","MAREA":" ","LANE":" ","ALLEY":" ","HOUSE_NO":"５３９號八樓之３","E_COORD97":173923.35999999999,"N_COORD97":2549218.29,"ADDRESS":"中正北路５３９號八樓之３","OBJECTID":626971},"geometry":{"x":173923.36000000034,"y":2549218.2899999991}},{"attributes":{"ID":626999,"DIS_CODE":0,"TOWNNAME":"永康區","LI":"網寮里","LIN":"26鄰","STREET":"永興路","SECT":" ","MAREA":" ","LANE":" ","ALLEY":" ","HOUSE_NO":"１０９號四樓之１","E_COORD97":173913.64000000001,"N_COORD97":2546579.6400000001,"ADDRESS":"永興路１０９號四樓之１","OBJECTID":626972},"geometry":{"x":173913.6400000006,"y":2546579.6400000006}},{"attributes":{"ID":627000,"DIS_CODE":0,"TOWNNAME":"永康區","LI":"復國里","LIN":"27鄰","STREET":"復華三街","SECT":" ","MAREA":" ","LANE":" ","ALLEY":" ","HOUSE_NO":"６８號五樓之１","E_COORD97":172699.01000000001,"N_COORD97":2545576.0499999998,"ADDRESS":"復華三街６８號五樓之１","OBJECTID":626973},"geometry":{"x":172699.01000000071,"y":2545576.0500000007}},{"attributes":{"ID":627001,"DIS_CODE":0,"TOWNNAME":"永康區","LI":"復國里","LIN":"27鄰","STREET":"復華三街","SECT":" ","MAREA":" ","LANE":" ","ALLEY":" ","HOUSE_NO":"６８號九樓之６","E_COORD97":172699.10999999999,"N_COORD97":2545576.0499999998,"ADDRESS":"復華三街６８號九樓之６","OBJECTID":626974},"geometry":{"x":172699.11000000127,"y":2545576.0500000007}},{"attributes":{"ID":627002,"DIS_CODE":0,"TOWNNAME":"永康區","LI":"復國里","LIN":"27鄰","STREET":"復華三街","SECT":" ","MAREA":" ","LANE":" ","ALLEY":" ","HOUSE_NO":"６８號十一樓之４","E_COORD97":172700.28,"N_COORD97":2545576.0499999998,"ADDRESS":"復華三街６８號十一樓之４","OBJECTID":626975},"geometry":{"x":172700.28000000026,"y":2545576.0500000007}},{"attributes":{"ID":627003,"DIS_CODE":0,"TOWNNAME":"永康區","LI":"復國里","LIN":"27鄰","STREET":"復華三街","SECT":" ","MAREA":" ","LANE":" ","ALLEY":" ","HOUSE_NO":"６８號十四樓之４","E_COORD97":172700.28,"N_COORD97":2545576.0499999998,"ADDRESS":"復華三街６８號十四樓之４","OBJECTID":626976},"geometry":{"x":172700.28000000026,"y":2545576.0500000007}},{"attributes":{"ID":627004,"DIS_CODE":0,"TOWNNAME":"永康區","LI":"網寮里","LIN":"26鄰","STREET":"永興路","SECT":" ","MAREA":" ","LANE":" ","ALLEY":" ","HOUSE_NO":"１０７號三樓之２","E_COORD97":173910.48000000001,"N_COORD97":2546555.3900000001,"ADDRESS":"永興路１０７號三樓之２","OBJECTID":626977},"geometry":{"x":173910.48000000138,"y":2546555.3900000025}},{"attributes":{"ID":627005,"DIS_CODE":0,"TOWNNAME":"永康區","LI":"網寮里","LIN":"26鄰","STREET":"永興路","SECT":" ","MAREA":" ","LANE":" ","ALLEY":" ","HOUSE_NO":"１０７號十一樓之１","E_COORD97":173911.60000000001,"N_COORD97":2546555.3900000001,"ADDRESS":"永興路１０７號十一樓之１","OBJECTID":626978},"geometry":{"x":173911.60000000056,"y":2546555.3900000025}},{"attributes":{"ID":627006,"DIS_CODE":0,"TOWNNAME":"永康區","LI":"網寮里","LIN":"26鄰","STREET":"永興路","SECT":" ","MAREA":" ","LANE":" ","ALLEY":" ","HOUSE_NO":"１０９號十二樓之２","E_COORD97":173915.01999999999,"N_COORD97":2546579.6400000001,"ADDRESS":"永興路１０９號十二樓之２","OBJECTID":626979},"geometry":{"x":173915.01999999955,"y":2546579.6400000006}},{"attributes":{"ID":627007,"DIS_CODE":0,"TOWNNAME":"永康區","LI":"網寮里","LIN":"26鄰","STREET":"永興路","SECT":" ","MAREA":" ","LANE":" ","ALLEY":" ","HOUSE_NO":"１０７號十二樓之１","E_COORD97":173911.60000000001,"N_COORD97":2546555.3900000001,"ADDRESS":"永興路１０７號十二樓之１","OBJECTID":626980},"geometry":{"x":173911.60000000056,"y":2546555.3900000025}},{"attributes":{"ID":627008,"DIS_CODE":0,"TOWNNAME":"永康區","LI":"網寮里","LIN":"26鄰","STREET":"永興路","SECT":" ","MAREA":" ","LANE":" ","ALLEY":" ","HOUSE_NO":"１０７號四樓之１","E_COORD97":173910.35000000001,"N_COORD97":2546555.3900000001,"ADDRESS":"永興路１０７號四樓之１","OBJECTID":626981},"geometry":{"x":173910.35000000056,"y":2546555.3900000025}},{"attributes":{"ID":627009,"DIS_CODE":0,"TOWNNAME":"永康區","LI":"復國里","LIN":"26鄰","STREET":"復華三街","SECT":" ","MAREA":" ","LANE":" ","ALLEY":" ","HOUSE_NO":"６２號十五樓之１","E_COORD97":172711.72,"N_COORD97":2545562.9700000002,"ADDRESS":"復華三街６２號十五樓之１","OBJECTID":626982},"geometry":{"x":172711.71999999974,"y":2545562.9700000007}},{"attributes":{"ID":627010,"DIS_CODE":0,"TOWNNAME":"永康區","LI":"網寮里","LIN":"26鄰","STREET":"永興路","SECT":" ","MAREA":" ","LANE":" ","ALLEY":" ","HOUSE_NO":"１０７號十三樓之２","E_COORD97":173911.73000000001,"N_COORD97":2546555.3900000001,"ADDRESS":"永興路１０７號十三樓之２","OBJECTID":626983},"geometry":{"x":173911.73000000138,"y":2546555.3900000025}},{"attributes":{"ID":627011,"DIS_CODE":0,"TOWNNAME":"永康區","LI":"網寮里","LIN":"26鄰","STREET":"永興路","SECT":" ","MAREA":" ","LANE":" ","ALLEY":" ","HOUSE_NO":"１０９號十三樓之２","E_COORD97":173915.01999999999,"N_COORD97":2546579.6400000001,"ADDRESS":"永興路１０９號十三樓之２","OBJECTID":626984},"geometry":{"x":173915.01999999955,"y":2546579.6400000006}},{"attributes":{"ID":627012,"DIS_CODE":0,"TOWNNAME":"永康區","LI":"復國里","LIN":"26鄰","STREET":"復華三街","SECT":" ","MAREA":" ","LANE":" ","ALLEY":" ","HOUSE_NO":"６４號五樓之２","E_COORD97":172719.76000000001,"N_COORD97":2545600.2999999998,"ADDRESS":"復華三街６４號五樓之２","OBJECTID":626985},"geometry":{"x":172719.75999999978,"y":2545600.3000000026}},{"attributes":{"ID":627013,"DIS_CODE":0,"TOWNNAME":"永康區","LI":"復國里","LIN":"34鄰","STREET":"復華一街","SECT":" ","MAREA":" ","LANE":" ","ALLEY":" ","HOUSE_NO":"６５號二樓之１","E_COORD97":172536.37,"N_COORD97":2545071.5499999998,"ADDRESS":"復華一街６５號二樓之１","OBJECTID":626986},"geometry":{"x":172536.37000000011,"y":2545071.5500000007}},{"attributes":{"ID":627014,"DIS_CODE":0,"TOWNNAME":"永康區","LI":"復華里","LIN":"7鄰","STREET":"復國二路","SECT":" ","MAREA":" ","LANE":" ","ALLEY":" ","HOUSE_NO":"２１７號二樓","E_COORD97":172999.98000000001,"N_COORD97":2546054.52,"ADDRESS":"復國二路２１７號二樓","OBJECTID":626987},"geometry":{"x":172999.98000000138,"y":2546054.5200000033}},{"attributes":{"ID":627015,"DIS_CODE":0,"TOWNNAME":"永康區","LI":"網寮里","LIN":"26鄰","STREET":"永興路","SECT":" ","MAREA":" ","LANE":" ","ALLEY":" ","HOUSE_NO":"６９號四樓之１","E_COORD97":174038.82000000001,"N_COORD97":2546534.2999999998,"ADDRESS":"永興路６９號四樓之１","OBJECTID":626988},"geometry":{"x":174038.8200000003,"y":2546534.3000000007}},{"attributes":{"ID":627016,"DIS_CODE":0,"TOWNNAME":"永康區","LI":"復國里","LIN":"26鄰","STREET":"復華三街","SECT":" ","MAREA":" ","LANE":" ","ALLEY":" ","HOUSE_NO":"６２號十二樓之４","E_COORD97":172711.73999999999,"N_COORD97":2545562.9700000002,"ADDRESS":"復華三街６２號十二樓之４","OBJECTID":626989},"geometry":{"x":172711.74000000115,"y":2545562.9700000007}},{"attributes":{"ID":627017,"DIS_CODE":0,"TOWNNAME":"永康區","LI":"復國里","LIN":"26鄰","STREET":"復華三街","SECT":" ","MAREA":" ","LANE":" ","ALLEY":" ","HOUSE_NO":"６２號十八樓之２","E_COORD97":172711.85000000001,"N_COORD97":2545562.9700000002,"ADDRESS":"復華三街６２號十八樓之２","OBJECTID":626990},"geometry":{"x":172711.85000000056,"y":2545562.9700000007}},{"attributes":{"ID":627018,"DIS_CODE":0,"TOWNNAME":"永康區","LI":"網寮里","LIN":"26鄰","STREET":"永興路","SECT":" ","MAREA":" ","LANE":" ","ALLEY":" ","HOUSE_NO":"１０９號三樓之１","E_COORD97":173913.64000000001,"N_COORD97":2546579.6400000001,"ADDRESS":"永興路１０９號三樓之１","OBJECTID":626991},"geometry":{"x":173913.6400000006,"y":2546579.6400000006}},{"attributes":{"ID":627019,"DIS_CODE":0,"TOWNNAME":"永康區","LI":"網寮里","LIN":"26鄰","STREET":"永興路","SECT":" ","MAREA":" ","LANE":" ","ALLEY":" ","HOUSE_NO":"１０７號八樓之１","E_COORD97":173910.35000000001,"N_COORD97":2546555.3900000001,"ADDRESS":"永興路１０７號八樓之１","OBJECTID":626992},"geometry":{"x":173910.35000000056,"y":2546555.3900000025}},{"attributes":{"ID":627020,"DIS_CODE":0,"TOWNNAME":"永康區","LI":"網寮里","LIN":"26鄰","STREET":"永興路","SECT":" ","MAREA":" ","LANE":" ","ALLEY":" ","HOUSE_NO":"１０７號八樓之２","E_COORD97":173910.48000000001,"N_COORD97":2546555.3900000001,"ADDRESS":"永興路１０７號八樓之２","OBJECTID":626993},"geometry":{"x":173910.48000000138,"y":2546555.3900000025}},{"attributes":{"ID":627021,"DIS_CODE":0,"TOWNNAME":"永康區","LI":"復國里","LIN":"34鄰","STREET":"復華一街","SECT":" ","MAREA":" ","LANE":" ","ALLEY":" ","HOUSE_NO":"６５號四樓之２","E_COORD97":172536.5,"N_COORD97":2545071.5499999998,"ADDRESS":"復華一街６５號四樓之２","OBJECTID":626994},"geometry":{"x":172536.50000000093,"y":2545071.5500000007}},{"attributes":{"ID":627022,"DIS_CODE":0,"TOWNNAME":"永康區","LI":"網寮里","LIN":"26鄰","STREET":"永興路","SECT":" ","MAREA":" ","LANE":" ","ALLEY":" ","HOUSE_NO":"１０９號七樓之２","E_COORD97":173913.76999999999,"N_COORD97":2546579.6400000001,"ADDRESS":"永興路１０９號七樓之２","OBJECTID":626995},"geometry":{"x":173913.77000000048,"y":2546579.6400000006}},{"attributes":{"ID":627023,"DIS_CODE":0,"TOWNNAME":"永康區","LI":"網寮里","LIN":"26鄰","STREET":"永興路","SECT":" ","MAREA":" ","LANE":" ","ALLEY":" ","HOUSE_NO":"１０９號三樓之２","E_COORD97":173913.76999999999,"N_COORD97":2546579.6400000001,"ADDRESS":"永興路１０９號三樓之２","OBJECTID":626996},"geometry":{"x":173913.77000000048,"y":2546579.6400000006}},{"attributes":{"ID":627024,"DIS_CODE":0,"TOWNNAME":"永康區","LI":"網寮里","LIN":"26鄰","STREET":"永興路","SECT":" ","MAREA":" ","LANE":" ","ALLEY":" ","HOUSE_NO":"１０７號七樓之２","E_COORD97":173910.48000000001,"N_COORD97":2546555.3900000001,"ADDRESS":"永興路１０７號七樓之２","OBJECTID":626997},"geometry":{"x":173910.48000000138,"y":2546555.3900000025}},{"attributes":{"ID":627025,"DIS_CODE":0,"TOWNNAME":"永康區","LI":"復國里","LIN":"34鄰","STREET":"復華一街","SECT":" ","MAREA":" ","LANE":" ","ALLEY":" ","HOUSE_NO":"６５號九樓之２","E_COORD97":172536.5,"N_COORD97":2545071.5499999998,"ADDRESS":"復華一街６５號九樓之２","OBJECTID":626998},"geometry":{"x":172536.50000000093,"y":2545071.5500000007}},{"attributes":{"ID":627026,"DIS_CODE":0,"TOWNNAME":"東區","LI":"東明里","LIN":"8鄰","STREET":"怡東路","SECT":" ","MAREA":" ","LANE":" ","ALLEY":" ","HOUSE_NO":"８４號四樓","E_COORD97":170870.38,"N_COORD97":2543689.6499999999,"ADDRESS":"怡東路８４號四樓","OBJECTID":626999},"geometry":{"x":170870.38000000175,"y":2543689.6500000022}},{"attributes":{"ID":627027,"DIS_CODE":0,"TOWNNAME":"永康區","LI":"復華里","LIN":"7鄰","STREET":"復國二路","SECT":" ","MAREA":" ","LANE":" ","ALLEY":" ","HOUSE_NO":"２１７號六樓之２","E_COORD97":173002.25,"N_COORD97":2546054.54,"ADDRESS":"復國二路２１７號六樓之２","OBJECTID":627000},"geometry":{"x":173002.25000000186,"y":2546054.540000001}}]}