{"displayFieldName":"TOWNNAME","fieldAliases":{"ID":"ID","DIS_CODE":"DIS_CODE","TOWNNAME":"TOWNNAME","LI":"LI","LIN":"LIN","STREET":"STREET","SECT":"SECT","MAREA":"MAREA","LANE":"LANE","ALLEY":"ALLEY","HOUSE_NO":"HOUSE_NO","E_COORD97":"E_COORD97","N_COORD97":"N_COORD97","ADDRESS":"ADDRESS","OBJECTID":"OBJECTID"},"geometryType":"esriGeometryPoint","spatialReference":{"wkid":102443,"latestWkid":3826},"fields":[{"name":"ID","type":"esriFieldTypeDouble","alias":"ID"},{"name":"DIS_CODE","type":"esriFieldTypeInteger","alias":"DIS_CODE"},{"name":"TOWNNAME","type":"esriFieldTypeString","alias":"TOWNNAME","length":8},{"name":"LI","type":"esriFieldTypeString","alias":"LI","length":8},{"name":"LIN","type":"esriFieldTypeString","alias":"LIN","length":12},{"name":"STREET","type":"esriFieldTypeString","alias":"STREET","length":20},{"name":"SECT","type":"esriFieldTypeString","alias":"SECT","length":8},{"name":"MAREA","type":"esriFieldTypeString","alias":"MAREA","length":12},{"name":"LANE","type":"esriFieldTypeString","alias":"LANE","length":10},{"name":"ALLEY","type":"esriFieldTypeString","alias":"ALLEY","length":10},{"name":"HOUSE_NO","type":"esriFieldTypeString","alias":"HOUSE_NO","length":20},{"name":"E_COORD97","type":"esriFieldTypeDouble","alias":"E_COORD97"},{"name":"N_COORD97","type":"esriFieldTypeDouble","alias":"N_COORD97"},{"name":"ADDRESS","type":"esriFieldTypeString","alias":"ADDRESS","length":50},{"name":"OBJECTID","type":"esriFieldTypeOID","alias":"OBJECTID"}],"features":[{"attributes":{"ID":574228,"DIS_CODE":0,"TOWNNAME":"中西區","LI":"三民里","LIN":"23鄰","STREET":"民族路","SECT":"二段","MAREA":" ","LANE":" ","ALLEY":" ","HOUSE_NO":"２４７號","E_COORD97":168453.31,"N_COORD97":2544061.9300000002,"ADDRESS":"民族路二段２４７號","OBJECTID":574201},"geometry":{"x":168453.31000000145,"y":2544061.9300000034}},{"attributes":{"ID":574229,"DIS_CODE":0,"TOWNNAME":"中西區","LI":"三民里","LIN":"23鄰","STREET":"民族路","SECT":"二段","MAREA":" ","LANE":" ","ALLEY":" ","HOUSE_NO":"２４９號","E_COORD97":168441.23000000001,"N_COORD97":2544061.9300000002,"ADDRESS":"民族路二段２４９號","OBJECTID":574202},"geometry":{"x":168441.23000000138,"y":2544061.9300000034}},{"attributes":{"ID":574230,"DIS_CODE":0,"TOWNNAME":"中西區","LI":"三民里","LIN":"23鄰","STREET":"民族路","SECT":"二段","MAREA":" ","LANE":" ","ALLEY":" ","HOUSE_NO":"２４９號之１","E_COORD97":168433.89000000001,"N_COORD97":2544068.5499999998,"ADDRESS":"民族路二段２４９號之１","OBJECTID":574203},"geometry":{"x":168433.88999999966,"y":2544068.5499999989}},{"attributes":{"ID":574231,"DIS_CODE":0,"TOWNNAME":"中西區","LI":"三民里","LIN":"23鄰","STREET":"民族路","SECT":"二段","MAREA":" ","LANE":" ","ALLEY":" ","HOUSE_NO":"２５１號","E_COORD97":168430.57999999999,"N_COORD97":2544070.6800000002,"ADDRESS":"民族路二段２５１號","OBJECTID":574204},"geometry":{"x":168430.58000000101,"y":2544070.6800000016}},{"attributes":{"ID":574232,"DIS_CODE":0,"TOWNNAME":"中西區","LI":"三民里","LIN":"23鄰","STREET":"民族路","SECT":"二段","MAREA":" ","LANE":" ","ALLEY":" ","HOUSE_NO":"２５３號","E_COORD97":168427.5,"N_COORD97":2544073.27,"ADDRESS":"民族路二段２５３號","OBJECTID":574205},"geometry":{"x":168427.50000000093,"y":2544073.2700000014}},{"attributes":{"ID":574233,"DIS_CODE":0,"TOWNNAME":"中西區","LI":"三民里","LIN":"23鄰","STREET":"民族路","SECT":"二段","MAREA":" ","LANE":" ","ALLEY":" ","HOUSE_NO":"２５５號","E_COORD97":168423.23000000001,"N_COORD97":2544075.1800000002,"ADDRESS":"民族路二段２５５號","OBJECTID":574206},"geometry":{"x":168423.23000000138,"y":2544075.1800000016}},{"attributes":{"ID":574234,"DIS_CODE":0,"TOWNNAME":"永康區","LI":"龍潭里","LIN":"23鄰","STREET":"龍中街","SECT":" ","MAREA":" ","LANE":" ","ALLEY":" ","HOUSE_NO":"１５８號","E_COORD97":174410.42000000001,"N_COORD97":2548331.27,"ADDRESS":"龍中街１５８號","OBJECTID":574207},"geometry":{"x":174410.42000000086,"y":2548331.2700000033}},{"attributes":{"ID":574235,"DIS_CODE":0,"TOWNNAME":"中西區","LI":"三民里","LIN":"23鄰","STREET":"民族路","SECT":"二段","MAREA":" ","LANE":" ","ALLEY":" ","HOUSE_NO":"２５７號","E_COORD97":168419.67999999999,"N_COORD97":2544076.3599999999,"ADDRESS":"民族路二段２５７號","OBJECTID":574208},"geometry":{"x":168419.6799999997,"y":2544076.3600000013}},{"attributes":{"ID":574236,"DIS_CODE":0,"TOWNNAME":"永康區","LI":"網寮里","LIN":"14鄰","STREET":"永和街","SECT":" ","MAREA":" ","LANE":" ","ALLEY":" ","HOUSE_NO":"２６８號","E_COORD97":173383.62,"N_COORD97":2546581.6600000001,"ADDRESS":"永和街２６８號","OBJECTID":574209},"geometry":{"x":173383.62000000104,"y":2546581.6600000001}},{"attributes":{"ID":574237,"DIS_CODE":0,"TOWNNAME":"永康區","LI":"復國里","LIN":"19鄰","STREET":"復國一路","SECT":" ","MAREA":" ","LANE":" ","ALLEY":" ","HOUSE_NO":"３５０號","E_COORD97":172770.95000000001,"N_COORD97":2545720.4100000001,"ADDRESS":"復國一路３５０號","OBJECTID":574210},"geometry":{"x":172770.95000000112,"y":2545720.4100000039}},{"attributes":{"ID":574238,"DIS_CODE":0,"TOWNNAME":"永康區","LI":"蔦松里","LIN":"9鄰","STREET":"正北三路","SECT":" ","MAREA":" ","LANE":" ","ALLEY":" ","HOUSE_NO":"９６號","E_COORD97":174497.92000000001,"N_COORD97":2549928.5,"ADDRESS":"正北三路９６號","OBJECTID":574211},"geometry":{"x":174497.92000000179,"y":2549928.5000000019}},{"attributes":{"ID":574239,"DIS_CODE":0,"TOWNNAME":"中西區","LI":"三民里","LIN":"23鄰","STREET":"民族路","SECT":"二段","MAREA":" ","LANE":" ","ALLEY":" ","HOUSE_NO":"２５９號","E_COORD97":168413.04999999999,"N_COORD97":2544076.29,"ADDRESS":"民族路二段２５９號","OBJECTID":574212},"geometry":{"x":168413.05000000075,"y":2544076.290000001}},{"attributes":{"ID":574240,"DIS_CODE":0,"TOWNNAME":"中西區","LI":"三民里","LIN":"23鄰","STREET":"忠義路","SECT":"二段","MAREA":" ","LANE":" ","ALLEY":" ","HOUSE_NO":"１６０號","E_COORD97":168401.45000000001,"N_COORD97":2544056.8900000001,"ADDRESS":"忠義路二段１６０號","OBJECTID":574213},"geometry":{"x":168401.45000000019,"y":2544056.8900000025}},{"attributes":{"ID":574241,"DIS_CODE":0,"TOWNNAME":"中西區","LI":"三民里","LIN":"23鄰","STREET":"忠義路","SECT":"二段","MAREA":" ","LANE":" ","ALLEY":" ","HOUSE_NO":"１６２號","E_COORD97":168401.92000000001,"N_COORD97":2544061.1499999999,"ADDRESS":"忠義路二段１６２號","OBJECTID":574214},"geometry":{"x":168401.92000000179,"y":2544061.1500000041}},{"attributes":{"ID":574242,"DIS_CODE":0,"TOWNNAME":"中西區","LI":"三民里","LIN":"23鄰","STREET":"忠義路","SECT":"二段","MAREA":" ","LANE":" ","ALLEY":" ","HOUSE_NO":"１６４號","E_COORD97":168404.29000000001,"N_COORD97":2544064.46,"ADDRESS":"忠義路二段１６４號","OBJECTID":574215},"geometry":{"x":168404.29000000004,"y":2544064.4600000009}},{"attributes":{"ID":574243,"DIS_CODE":0,"TOWNNAME":"中西區","LI":"三民里","LIN":"23鄰","STREET":"忠義路","SECT":"二段","MAREA":" ","LANE":" ","ALLEY":" ","HOUSE_NO":"１６６號","E_COORD97":168405,"N_COORD97":2544068.25,"ADDRESS":"忠義路二段１６６號","OBJECTID":574216},"geometry":{"x":168405.00000000093,"y":2544068.2500000019}},{"attributes":{"ID":574244,"DIS_CODE":0,"TOWNNAME":"中西區","LI":"三民里","LIN":"23鄰","STREET":"忠義路","SECT":"二段","MAREA":" ","LANE":" ","ALLEY":" ","HOUSE_NO":"１６８號","E_COORD97":168407.37,"N_COORD97":2544072.27,"ADDRESS":"忠義路二段１６８號","OBJECTID":574217},"geometry":{"x":168407.37000000011,"y":2544072.2699999996}},{"attributes":{"ID":574245,"DIS_CODE":0,"TOWNNAME":"中西區","LI":"赤嵌里","LIN":"23鄰","STREET":"成功路","SECT":" ","MAREA":" ","LANE":" ","ALLEY":" ","HOUSE_NO":"２３５號","E_COORD97":168326.10999999999,"N_COORD97":2544363.25,"ADDRESS":"成功路２３５號","OBJECTID":574218},"geometry":{"x":168326.11000000034,"y":2544363.2500000019}},{"attributes":{"ID":574246,"DIS_CODE":0,"TOWNNAME":"中西區","LI":"赤嵌里","LIN":"23鄰","STREET":"赤嵌街","SECT":" ","MAREA":" ","LANE":" ","ALLEY":" ","HOUSE_NO":"２號","E_COORD97":168236.64000000001,"N_COORD97":2544265.0600000001,"ADDRESS":"赤嵌街２號","OBJECTID":574219},"geometry":{"x":168236.63999999966,"y":2544265.0600000042}},{"attributes":{"ID":574247,"DIS_CODE":0,"TOWNNAME":"中西區","LI":"赤嵌里","LIN":"23鄰","STREET":"成功路","SECT":" ","MAREA":" ","LANE":" ","ALLEY":" ","HOUSE_NO":"２１１號","E_COORD97":168476.95999999999,"N_COORD97":2544320.5899999999,"ADDRESS":"成功路２１１號","OBJECTID":574220},"geometry":{"x":168476.96000000089,"y":2544320.5899999999}},{"attributes":{"ID":574248,"DIS_CODE":0,"TOWNNAME":"中西區","LI":"赤嵌里","LIN":"23鄰","STREET":"成功路","SECT":" ","MAREA":" ","LANE":" ","ALLEY":" ","HOUSE_NO":"２１７號","E_COORD97":168424.38,"N_COORD97":2544334.7799999998,"ADDRESS":"成功路２１７號","OBJECTID":574221},"geometry":{"x":168424.38000000082,"y":2544334.7800000012}},{"attributes":{"ID":574249,"DIS_CODE":0,"TOWNNAME":"中西區","LI":"赤嵌里","LIN":"23鄰","STREET":"成功路","SECT":" ","MAREA":" ","LANE":" ","ALLEY":" ","HOUSE_NO":"２１９號","E_COORD97":168409.06,"N_COORD97":2544341.5499999998,"ADDRESS":"成功路２１９號","OBJECTID":574222},"geometry":{"x":168409.06000000145,"y":2544341.5500000026}},{"attributes":{"ID":574250,"DIS_CODE":0,"TOWNNAME":"中西區","LI":"赤嵌里","LIN":"23鄰","STREET":"成功路","SECT":" ","MAREA":" ","LANE":" ","ALLEY":" ","HOUSE_NO":"２２１號","E_COORD97":168403.45999999999,"N_COORD97":2544347.73,"ADDRESS":"成功路２２１號","OBJECTID":574223},"geometry":{"x":168403.46000000183,"y":2544347.7300000004}},{"attributes":{"ID":574251,"DIS_CODE":0,"TOWNNAME":"中西區","LI":"赤嵌里","LIN":"23鄰","STREET":"成功路","SECT":" ","MAREA":" ","LANE":" ","ALLEY":" ","HOUSE_NO":"２２３號","E_COORD97":168398.45000000001,"N_COORD97":2544348.0299999998,"ADDRESS":"成功路２２３號","OBJECTID":574224},"geometry":{"x":168398.45000000019,"y":2544348.0299999993}},{"attributes":{"ID":574252,"DIS_CODE":0,"TOWNNAME":"中西區","LI":"赤嵌里","LIN":"23鄰","STREET":"成功路","SECT":" ","MAREA":" ","LANE":" ","ALLEY":" ","HOUSE_NO":"２２５號","E_COORD97":168392.26999999999,"N_COORD97":2544348.9100000001,"ADDRESS":"成功路２２５號","OBJECTID":574225},"geometry":{"x":168392.26999999862,"y":2544348.9100000001}},{"attributes":{"ID":574253,"DIS_CODE":0,"TOWNNAME":"中西區","LI":"赤嵌里","LIN":"23鄰","STREET":"成功路","SECT":" ","MAREA":" ","LANE":" ","ALLEY":" ","HOUSE_NO":"２３１號","E_COORD97":168376.35999999999,"N_COORD97":2544355.0899999999,"ADDRESS":"成功路２３１號","OBJECTID":574226},"geometry":{"x":168376.36000000127,"y":2544355.0899999999}},{"attributes":{"ID":574254,"DIS_CODE":0,"TOWNNAME":"中西區","LI":"赤嵌里","LIN":"23鄰","STREET":"忠義路","SECT":"二段","MAREA":" ","LANE":" ","ALLEY":" ","HOUSE_NO":"２３７號","E_COORD97":168467.39999999999,"N_COORD97":2544303.3199999998,"ADDRESS":"忠義路二段２３７號","OBJECTID":574227},"geometry":{"x":168467.4000000013,"y":2544303.3200000003}},{"attributes":{"ID":574255,"DIS_CODE":0,"TOWNNAME":"中西區","LI":"赤嵌里","LIN":"23鄰","STREET":"忠義路","SECT":"二段","MAREA":" ","LANE":" ","ALLEY":" ","HOUSE_NO":"２３９號","E_COORD97":168469.22,"N_COORD97":2544306.5,"ADDRESS":"忠義路二段２３９號","OBJECTID":574228},"geometry":{"x":168469.2200000016,"y":2544306.5000000019}},{"attributes":{"ID":574256,"DIS_CODE":0,"TOWNNAME":"中西區","LI":"赤嵌里","LIN":"23鄰","STREET":"忠義路","SECT":"二段","MAREA":" ","LANE":" ","ALLEY":" ","HOUSE_NO":"２４１號","E_COORD97":168472.17999999999,"N_COORD97":2544311.96,"ADDRESS":"忠義路二段２４１號","OBJECTID":574229},"geometry":{"x":168472.1799999997,"y":2544311.9600000009}},{"attributes":{"ID":574257,"DIS_CODE":0,"TOWNNAME":"永康區","LI":"蔦松里","LIN":"7鄰","STREET":"中正北路","SECT":" ","MAREA":" ","LANE":" ","ALLEY":" ","HOUSE_NO":"５６６之２號","E_COORD97":174190.76000000001,"N_COORD97":2549394.54,"ADDRESS":"中正北路５６６之２號","OBJECTID":574230},"geometry":{"x":174190.76000000071,"y":2549394.540000001}},{"attributes":{"ID":574258,"DIS_CODE":0,"TOWNNAME":"永康區","LI":"復國里","LIN":"28鄰","STREET":"復國一路","SECT":" ","MAREA":" ","LANE":" ","ALLEY":" ","HOUSE_NO":"２３１號","E_COORD97":172727.92999999999,"N_COORD97":2545398.7799999998,"ADDRESS":"復國一路２３１號","OBJECTID":574231},"geometry":{"x":172727.93000000063,"y":2545398.7800000012}},{"attributes":{"ID":574259,"DIS_CODE":0,"TOWNNAME":"永康區","LI":"網寮里","LIN":"23鄰","STREET":"文化路","SECT":" ","MAREA":" ","LANE":" ","ALLEY":" ","HOUSE_NO":"１５８號","E_COORD97":173829.56,"N_COORD97":2546217.4100000001,"ADDRESS":"文化路１５８號","OBJECTID":574232},"geometry":{"x":173829.55999999959,"y":2546217.4100000001}},{"attributes":{"ID":574260,"DIS_CODE":0,"TOWNNAME":"永康區","LI":"網寮里","LIN":"23鄰","STREET":"文化路","SECT":" ","MAREA":" ","LANE":" ","ALLEY":" ","HOUSE_NO":"１４２號","E_COORD97":173859.26000000001,"N_COORD97":2546226.9100000001,"ADDRESS":"文化路１４２號","OBJECTID":574233},"geometry":{"x":173859.25999999978,"y":2546226.910000002}},{"attributes":{"ID":574261,"DIS_CODE":0,"TOWNNAME":"永康區","LI":"網寮里","LIN":"23鄰","STREET":"文化路","SECT":" ","MAREA":" ","LANE":" ","ALLEY":" ","HOUSE_NO":"１７２號","E_COORD97":173798.10999999999,"N_COORD97":2546208.1600000001,"ADDRESS":"文化路１７２號","OBJECTID":574234},"geometry":{"x":173798.11000000034,"y":2546208.160000002}},{"attributes":{"ID":574262,"DIS_CODE":0,"TOWNNAME":"永康區","LI":"龍潭里","LIN":"23鄰","STREET":"龍中街","SECT":" ","MAREA":" ","LANE":" ","ALLEY":" ","HOUSE_NO":"１８２號","E_COORD97":174404.45000000001,"N_COORD97":2548397.0699999998,"ADDRESS":"龍中街１８２號","OBJECTID":574235},"geometry":{"x":174404.45000000019,"y":2548397.0700000003}},{"attributes":{"ID":574263,"DIS_CODE":0,"TOWNNAME":"永康區","LI":"龍潭里","LIN":"23鄰","STREET":"龍中街","SECT":" ","MAREA":" ","LANE":" ","ALLEY":" ","HOUSE_NO":"１５０號","E_COORD97":174413.01000000001,"N_COORD97":2548312.7799999998,"ADDRESS":"龍中街１５０號","OBJECTID":574236},"geometry":{"x":174413.01000000071,"y":2548312.7799999993}},{"attributes":{"ID":574264,"DIS_CODE":0,"TOWNNAME":"永康區","LI":"龍潭里","LIN":"23鄰","STREET":"龍中街","SECT":" ","MAREA":" ","LANE":" ","ALLEY":" ","HOUSE_NO":"１６６號","E_COORD97":174408.39999999999,"N_COORD97":2548350.52,"ADDRESS":"龍中街１６６號","OBJECTID":574237},"geometry":{"x":174408.40000000037,"y":2548350.5200000014}},{"attributes":{"ID":574265,"DIS_CODE":0,"TOWNNAME":"永康區","LI":"網寮里","LIN":"23鄰","STREET":"文化路","SECT":" ","MAREA":" ","LANE":" ","ALLEY":" ","HOUSE_NO":"１６０號","E_COORD97":173824.60000000001,"N_COORD97":2546216.4100000001,"ADDRESS":"文化路１６０號","OBJECTID":574238},"geometry":{"x":173824.59999999963,"y":2546216.410000002}},{"attributes":{"ID":574266,"DIS_CODE":0,"TOWNNAME":"永康區","LI":"龍潭里","LIN":"23鄰","STREET":"龍中街","SECT":" ","MAREA":" ","LANE":" ","ALLEY":" ","HOUSE_NO":"１９２號","E_COORD97":174402,"N_COORD97":2548416.8199999998,"ADDRESS":"龍中街１９２號","OBJECTID":574239},"geometry":{"x":174402,"y":2548416.8200000022}},{"attributes":{"ID":574267,"DIS_CODE":0,"TOWNNAME":"永康區","LI":"網寮里","LIN":"23鄰","STREET":"永大一路","SECT":" ","MAREA":" ","LANE":" ","ALLEY":" ","HOUSE_NO":"２１５號","E_COORD97":173771.85999999999,"N_COORD97":2546331.4300000002,"ADDRESS":"永大一路２１５號","OBJECTID":574240},"geometry":{"x":173771.86000000127,"y":2546331.4300000016}},{"attributes":{"ID":574268,"DIS_CODE":0,"TOWNNAME":"永康區","LI":"網寮里","LIN":"23鄰","STREET":"文化路","SECT":" ","MAREA":" ","LANE":" ","ALLEY":" ","HOUSE_NO":"１６４號","E_COORD97":173815.76000000001,"N_COORD97":2546213.6600000001,"ADDRESS":"文化路１６４號","OBJECTID":574241},"geometry":{"x":173815.76000000071,"y":2546213.6600000039}},{"attributes":{"ID":574269,"DIS_CODE":0,"TOWNNAME":"永康區","LI":"龍潭里","LIN":"23鄰","STREET":"龍中街","SECT":" ","MAREA":" ","LANE":" ","ALLEY":" ","HOUSE_NO":"１３８號","E_COORD97":174416.59,"N_COORD97":2548284.5299999998,"ADDRESS":"龍中街１３８號","OBJECTID":574242},"geometry":{"x":174416.58999999985,"y":2548284.5299999993}},{"attributes":{"ID":574270,"DIS_CODE":0,"TOWNNAME":"永康區","LI":"網寮里","LIN":"23鄰","STREET":"文化路","SECT":" ","MAREA":" ","LANE":" ","ALLEY":" ","HOUSE_NO":"１６６號","E_COORD97":173811.85999999999,"N_COORD97":2546211.9100000001,"ADDRESS":"文化路１６６號","OBJECTID":574243},"geometry":{"x":173811.86000000034,"y":2546211.9100000039}},{"attributes":{"ID":574271,"DIS_CODE":0,"TOWNNAME":"永康區","LI":"網寮里","LIN":"23鄰","STREET":"文化路","SECT":" ","MAREA":" ","LANE":" ","ALLEY":" ","HOUSE_NO":"９６號之２","E_COORD97":174003.38,"N_COORD97":2546274.5699999998,"ADDRESS":"文化路９６號之２","OBJECTID":574244},"geometry":{"x":174003.38000000082,"y":2546274.5700000003}},{"attributes":{"ID":574272,"DIS_CODE":0,"TOWNNAME":"永康區","LI":"網寮里","LIN":"23鄰","STREET":"文化路","SECT":" ","MAREA":" ","LANE":" ","ALLEY":" ","HOUSE_NO":"１４０號","E_COORD97":173863.51000000001,"N_COORD97":2546228.1600000001,"ADDRESS":"文化路１４０號","OBJECTID":574245},"geometry":{"x":173863.51000000071,"y":2546228.160000002}},{"attributes":{"ID":574273,"DIS_CODE":0,"TOWNNAME":"永康區","LI":"\u25A0洲里","LIN":"23鄰","STREET":"中正南路","SECT":" ","MAREA":" ","LANE":" ","ALLEY":" ","HOUSE_NO":"６５１號","E_COORD97":171353.29000000001,"N_COORD97":2548655.4900000002,"ADDRESS":"中正南路６５１號","OBJECTID":574246},"geometry":{"x":171353.29000000097,"y":2548655.4900000002}},{"attributes":{"ID":574274,"DIS_CODE":0,"TOWNNAME":"永康區","LI":"龍潭里","LIN":"23鄰","STREET":"自強路","SECT":" ","MAREA":" ","LANE":" ","ALLEY":" ","HOUSE_NO":"７４８號","E_COORD97":174417.5,"N_COORD97":2548476.6299999999,"ADDRESS":"自強路７４８號","OBJECTID":574247},"geometry":{"x":174417.5,"y":2548476.629999999}},{"attributes":{"ID":574275,"DIS_CODE":0,"TOWNNAME":"永康區","LI":"\u25A0洲里","LIN":"23鄰","STREET":"中正南路","SECT":" ","MAREA":" ","LANE":" ","ALLEY":" ","HOUSE_NO":"５７１號","E_COORD97":171173.67000000001,"N_COORD97":2548510.25,"ADDRESS":"中正南路５７１號","OBJECTID":574248},"geometry":{"x":171173.67000000179,"y":2548510.25}},{"attributes":{"ID":574276,"DIS_CODE":0,"TOWNNAME":"永康區","LI":"\u25A0洲里","LIN":"23鄰","STREET":"中正南路","SECT":" ","MAREA":" ","LANE":" ","ALLEY":" ","HOUSE_NO":"５６７號","E_COORD97":171128.57999999999,"N_COORD97":2548446.2400000002,"ADDRESS":"中正南路５６７號","OBJECTID":574249},"geometry":{"x":171128.58000000194,"y":2548446.2400000002}},{"attributes":{"ID":574277,"DIS_CODE":0,"TOWNNAME":"永康區","LI":"龍潭里","LIN":"23鄰","STREET":"自強路","SECT":" ","MAREA":" ","LANE":" ","ALLEY":" ","HOUSE_NO":"７３６號","E_COORD97":174401.25,"N_COORD97":2548464.1299999999,"ADDRESS":"自強路７３６號","OBJECTID":574250},"geometry":{"x":174401.25000000093,"y":2548464.1300000008}},{"attributes":{"ID":574278,"DIS_CODE":0,"TOWNNAME":"永康區","LI":"龍潭里","LIN":"23鄰","STREET":"龍安街","SECT":" ","MAREA":" ","LANE":" ","ALLEY":" ","HOUSE_NO":"１４５號","E_COORD97":174610.16,"N_COORD97":2548415.5899999999,"ADDRESS":"龍安街１４５號","OBJECTID":574251},"geometry":{"x":174610.16000000108,"y":2548415.5900000017}},{"attributes":{"ID":574279,"DIS_CODE":0,"TOWNNAME":"永康區","LI":"\u25A0洲里","LIN":"23鄰","STREET":"中正南路","SECT":" ","MAREA":" ","LANE":" ","ALLEY":" ","HOUSE_NO":"５８７號","E_COORD97":171217.85999999999,"N_COORD97":2548524.8100000001,"ADDRESS":"中正南路５８７號","OBJECTID":574252},"geometry":{"x":171217.86000000034,"y":2548524.8100000005}},{"attributes":{"ID":574280,"DIS_CODE":0,"TOWNNAME":"永康區","LI":"龍潭里","LIN":"23鄰","STREET":"自強路","SECT":" ","MAREA":" ","LANE":" ","ALLEY":" ","HOUSE_NO":"７２８號","E_COORD97":174390.32999999999,"N_COORD97":2548455.1299999999,"ADDRESS":"自強路７２８號","OBJECTID":574253},"geometry":{"x":174390.33000000101,"y":2548455.1300000008}},{"attributes":{"ID":574281,"DIS_CODE":0,"TOWNNAME":"永康區","LI":"龍潭里","LIN":"23鄰","STREET":"自強路","SECT":" ","MAREA":" ","LANE":" ","ALLEY":" ","HOUSE_NO":"７４２號","E_COORD97":174410.82000000001,"N_COORD97":2548471.6299999999,"ADDRESS":"自強路７４２號","OBJECTID":574254},"geometry":{"x":174410.82000000216,"y":2548471.6300000008}},{"attributes":{"ID":574282,"DIS_CODE":0,"TOWNNAME":"永康區","LI":"復國里","LIN":"18鄰","STREET":"復國一路","SECT":" ","MAREA":" ","LANE":" ","ALLEY":" ","HOUSE_NO":"３６８號","E_COORD97":172782.44,"N_COORD97":2545810.9500000002,"ADDRESS":"復國一路３６８號","OBJECTID":574255},"geometry":{"x":172782.44000000041,"y":2545810.9500000011}},{"attributes":{"ID":574283,"DIS_CODE":0,"TOWNNAME":"永康區","LI":"網寮里","LIN":"14鄰","STREET":"永和街","SECT":" ","MAREA":" ","LANE":" ","ALLEY":" ","HOUSE_NO":"２３１號","E_COORD97":173395.14000000001,"N_COORD97":2546554.71,"ADDRESS":"永和街２３１號","OBJECTID":574256},"geometry":{"x":173395.13999999966,"y":2546554.7100000009}},{"attributes":{"ID":574284,"DIS_CODE":0,"TOWNNAME":"永康區","LI":"復華里","LIN":"29鄰","STREET":"復華八街","SECT":" ","MAREA":" ","LANE":" ","ALLEY":" ","HOUSE_NO":"５號","E_COORD97":172655.04999999999,"N_COORD97":2546147.52,"ADDRESS":"復華八街５號","OBJECTID":574257},"geometry":{"x":172655.04999999981,"y":2546147.5200000014}},{"attributes":{"ID":574285,"DIS_CODE":0,"TOWNNAME":"永康區","LI":"\u25A0洲里","LIN":"23鄰","STREET":"中正南路","SECT":" ","MAREA":" ","LANE":" ","ALLEY":" ","HOUSE_NO":"５７９號","E_COORD97":171205.60999999999,"N_COORD97":2548511.3100000001,"ADDRESS":"中正南路５７９號","OBJECTID":574258},"geometry":{"x":171205.61000000127,"y":2548511.3099999987}},{"attributes":{"ID":574286,"DIS_CODE":0,"TOWNNAME":"永康區","LI":"龍潭里","LIN":"23鄰","STREET":"自強路","SECT":" ","MAREA":" ","LANE":" ","ALLEY":" ","HOUSE_NO":"７３２號","E_COORD97":174398.04999999999,"N_COORD97":2548461.6299999999,"ADDRESS":"自強路７３２號","OBJECTID":574259},"geometry":{"x":174398.04999999981,"y":2548461.6300000008}},{"attributes":{"ID":574287,"DIS_CODE":0,"TOWNNAME":"永康區","LI":"\u25A0洲里","LIN":"23鄰","STREET":"中正南路","SECT":" ","MAREA":" ","LANE":" ","ALLEY":" ","HOUSE_NO":"５８９號","E_COORD97":171223.31,"N_COORD97":2548527.7999999998,"ADDRESS":"中正南路５８９號","OBJECTID":574260},"geometry":{"x":171223.31000000052,"y":2548527.8000000007}},{"attributes":{"ID":574288,"DIS_CODE":0,"TOWNNAME":"永康區","LI":"龍潭里","LIN":"23鄰","STREET":"自強路","SECT":" ","MAREA":" ","LANE":" ","ALLEY":" ","HOUSE_NO":"７４６號","E_COORD97":174414.10999999999,"N_COORD97":2548474.3799999999,"ADDRESS":"自強路７４６號","OBJECTID":574261},"geometry":{"x":174414.11000000127,"y":2548474.379999999}},{"attributes":{"ID":574289,"DIS_CODE":0,"TOWNNAME":"永康區","LI":"龍潭里","LIN":"23鄰","STREET":"龍安街","SECT":" ","MAREA":" ","LANE":" ","ALLEY":" ","HOUSE_NO":"１６３號","E_COORD97":174609.26000000001,"N_COORD97":2548451.5699999998,"ADDRESS":"龍安街１６３號","OBJECTID":574262},"geometry":{"x":174609.26000000071,"y":2548451.5700000003}},{"attributes":{"ID":574290,"DIS_CODE":0,"TOWNNAME":"永康區","LI":"蔦松里","LIN":"9鄰","STREET":"正北一路","SECT":" ","MAREA":" ","LANE":" ","ALLEY":" ","HOUSE_NO":"９８號","E_COORD97":174338.23999999999,"N_COORD97":2549786.5,"ADDRESS":"正北一路９８號","OBJECTID":574263},"geometry":{"x":174338.23999999929,"y":2549786.5}},{"attributes":{"ID":574291,"DIS_CODE":0,"TOWNNAME":"永康區","LI":"\u25A0洲里","LIN":"23鄰","STREET":"中正南路","SECT":" ","MAREA":" ","LANE":" ","ALLEY":" ","HOUSE_NO":"５６９之１號","E_COORD97":171140.81,"N_COORD97":2548490.5499999998,"ADDRESS":"中正南路５６９之１號","OBJECTID":574264},"geometry":{"x":171140.81000000052,"y":2548490.5500000026}},{"attributes":{"ID":574292,"DIS_CODE":0,"TOWNNAME":"永康區","LI":"\u25A0洲里","LIN":"23鄰","STREET":"中正南路","SECT":" ","MAREA":" ","LANE":" ","ALLEY":" ","HOUSE_NO":"６３３號","E_COORD97":171285.01999999999,"N_COORD97":2548601.25,"ADDRESS":"中正南路６３３號","OBJECTID":574265},"geometry":{"x":171285.02000000048,"y":2548601.2500000019}},{"attributes":{"ID":574293,"DIS_CODE":0,"TOWNNAME":"永康區","LI":"網寮里","LIN":"3鄰","STREET":"永和街","SECT":" ","MAREA":" ","LANE":" ","ALLEY":" ","HOUSE_NO":"２４６號","E_COORD97":173432.29000000001,"N_COORD97":2546559.4300000002,"ADDRESS":"永和街２４６號","OBJECTID":574266},"geometry":{"x":173432.29000000004,"y":2546559.4299999997}},{"attributes":{"ID":574294,"DIS_CODE":0,"TOWNNAME":"永康區","LI":"復國里","LIN":"18鄰","STREET":"復國一路","SECT":" ","MAREA":" ","LANE":" ","ALLEY":" ","HOUSE_NO":"３３６號","E_COORD97":172770.98999999999,"N_COORD97":2545670.8199999998,"ADDRESS":"復國一路３３６號","OBJECTID":574267},"geometry":{"x":172770.99000000115,"y":2545670.8200000022}},{"attributes":{"ID":574295,"DIS_CODE":0,"TOWNNAME":"永康區","LI":"復國里","LIN":"21鄰","STREET":"復國一路","SECT":" ","MAREA":" ","LANE":" ","ALLEY":" ","HOUSE_NO":"３５７號","E_COORD97":172756.12,"N_COORD97":2545834.0299999998,"ADDRESS":"復國一路３５７號","OBJECTID":574268},"geometry":{"x":172756.12000000104,"y":2545834.0300000031}},{"attributes":{"ID":574296,"DIS_CODE":0,"TOWNNAME":"永康區","LI":"正強里","LIN":"23鄰","STREET":"自強路","SECT":" ","MAREA":" ","LANE":" ","ALLEY":" ","HOUSE_NO":"２９３號","E_COORD97":173373.41,"N_COORD97":2547679.9399999999,"ADDRESS":"自強路２９３號","OBJECTID":574269},"geometry":{"x":173373.41000000015,"y":2547679.9400000013}},{"attributes":{"ID":574297,"DIS_CODE":0,"TOWNNAME":"東區","LI":"崇文里","LIN":"23鄰","STREET":"崇德二十一街","SECT":" ","MAREA":" ","LANE":" ","ALLEY":" ","HOUSE_NO":"６０號","E_COORD97":170961.44,"N_COORD97":2540850.2599999998,"ADDRESS":"崇德二十一街６０號","OBJECTID":574270},"geometry":{"x":170961.44000000041,"y":2540850.2600000016}},{"attributes":{"ID":574298,"DIS_CODE":0,"TOWNNAME":"東區","LI":"崇文里","LIN":"23鄰","STREET":"崇德二十一街","SECT":" ","MAREA":" ","LANE":" ","ALLEY":" ","HOUSE_NO":"６０號地下一層","E_COORD97":170961.44,"N_COORD97":2540850.2599999998,"ADDRESS":"崇德二十一街６０號地下一層","OBJECTID":574271},"geometry":{"x":170961.44000000041,"y":2540850.2600000016}},{"attributes":{"ID":574299,"DIS_CODE":0,"TOWNNAME":"東區","LI":"崇文里","LIN":"23鄰","STREET":"崇德二十一街","SECT":" ","MAREA":" ","LANE":" ","ALLEY":" ","HOUSE_NO":"６２號","E_COORD97":170961.82999999999,"N_COORD97":2540837.23,"ADDRESS":"崇德二十一街６２號","OBJECTID":574272},"geometry":{"x":170961.83000000007,"y":2540837.2300000023}},{"attributes":{"ID":574300,"DIS_CODE":0,"TOWNNAME":"東區","LI":"崇文里","LIN":"23鄰","STREET":"崇德二十一街","SECT":" ","MAREA":" ","LANE":" ","ALLEY":" ","HOUSE_NO":"６４號","E_COORD97":170960.44,"N_COORD97":2540822.3100000001,"ADDRESS":"崇德二十一街６４號","OBJECTID":574273},"geometry":{"x":170960.44000000227,"y":2540822.3100000042}},{"attributes":{"ID":574301,"DIS_CODE":0,"TOWNNAME":"東區","LI":"崇成里","LIN":"23鄰","STREET":"崇明路","SECT":" ","MAREA":" ","LANE":" ","ALLEY":" ","HOUSE_NO":"６０５號","E_COORD97":170620.57999999999,"N_COORD97":2540851.5600000001,"ADDRESS":"崇明路６０５號","OBJECTID":574274},"geometry":{"x":170620.58000000101,"y":2540851.5600000024}},{"attributes":{"ID":574302,"DIS_CODE":0,"TOWNNAME":"東區","LI":"崇成里","LIN":"23鄰","STREET":"崇明路","SECT":" ","MAREA":" ","LANE":" ","ALLEY":" ","HOUSE_NO":"６０７號","E_COORD97":170623.54000000001,"N_COORD97":2540831.2599999998,"ADDRESS":"崇明路６０７號","OBJECTID":574275},"geometry":{"x":170623.53999999911,"y":2540831.2599999998}},{"attributes":{"ID":574303,"DIS_CODE":0,"TOWNNAME":"東區","LI":"崇成里","LIN":"23鄰","STREET":"崇明二十三街","SECT":" ","MAREA":" ","LANE":" ","ALLEY":" ","HOUSE_NO":"２號","E_COORD97":170633.81,"N_COORD97":2540849.9100000001,"ADDRESS":"崇明二十三街２號","OBJECTID":574276},"geometry":{"x":170633.81000000052,"y":2540849.910000002}},{"attributes":{"ID":574304,"DIS_CODE":0,"TOWNNAME":"東區","LI":"崇成里","LIN":"23鄰","STREET":"崇明二十三街","SECT":" ","MAREA":" ","LANE":" ","ALLEY":" ","HOUSE_NO":"４號","E_COORD97":170641.45999999999,"N_COORD97":2540849.9100000001,"ADDRESS":"崇明二十三街４號","OBJECTID":574277},"geometry":{"x":170641.46000000089,"y":2540849.910000002}},{"attributes":{"ID":574305,"DIS_CODE":0,"TOWNNAME":"東區","LI":"崇成里","LIN":"23鄰","STREET":"崇明二十三街","SECT":" ","MAREA":" ","LANE":" ","ALLEY":" ","HOUSE_NO":"６號","E_COORD97":170649.73000000001,"N_COORD97":2540849.9100000001,"ADDRESS":"崇明二十三街６號","OBJECTID":574278},"geometry":{"x":170649.73000000045,"y":2540849.910000002}},{"attributes":{"ID":574306,"DIS_CODE":0,"TOWNNAME":"東區","LI":"崇成里","LIN":"23鄰","STREET":"崇明二十三街","SECT":" ","MAREA":" ","LANE":" ","ALLEY":" ","HOUSE_NO":"８號","E_COORD97":170658,"N_COORD97":2540849.7400000002,"ADDRESS":"崇明二十三街８號","OBJECTID":574279},"geometry":{"x":170658.00000000093,"y":2540849.7400000021}},{"attributes":{"ID":574307,"DIS_CODE":0,"TOWNNAME":"永康區","LI":"蔦松里","LIN":"9鄰","STREET":"正北一路","SECT":" ","MAREA":" ","LANE":" ","ALLEY":" ","HOUSE_NO":"８６號","E_COORD97":174399.19,"N_COORD97":2549713.48,"ADDRESS":"正北一路８６號","OBJECTID":574280},"geometry":{"x":174399.19000000041,"y":2549713.4800000004}},{"attributes":{"ID":574308,"DIS_CODE":0,"TOWNNAME":"永康區","LI":"東灣里","LIN":"23鄰","STREET":"大灣二街","SECT":" ","MAREA":" ","LANE":" ","ALLEY":" ","HOUSE_NO":"４２號","E_COORD97":174890.75,"N_COORD97":2544741.5299999998,"ADDRESS":"大灣二街４２號","OBJECTID":574281},"geometry":{"x":174890.75000000186,"y":2544741.5299999993}},{"attributes":{"ID":574309,"DIS_CODE":0,"TOWNNAME":"永康區","LI":"復國里","LIN":"23鄰","STREET":"復國一路","SECT":" ","MAREA":" ","LANE":" ","ALLEY":" ","HOUSE_NO":"３３９號","E_COORD97":172749.29000000001,"N_COORD97":2545696.48,"ADDRESS":"復國一路３３９號","OBJECTID":574282},"geometry":{"x":172749.28999999911,"y":2545696.4800000042}},{"attributes":{"ID":574310,"DIS_CODE":0,"TOWNNAME":"永康區","LI":"龍潭里","LIN":"23鄰","STREET":"龍中街","SECT":" ","MAREA":" ","LANE":" ","ALLEY":" ","HOUSE_NO":"１７２號","E_COORD97":174406.12,"N_COORD97":2548364.77,"ADDRESS":"龍中街１７２號","OBJECTID":574283},"geometry":{"x":174406.12000000011,"y":2548364.7699999977}},{"attributes":{"ID":574311,"DIS_CODE":0,"TOWNNAME":"永康區","LI":"龍潭里","LIN":"23鄰","STREET":"龍中街","SECT":" ","MAREA":" ","LANE":" ","ALLEY":" ","HOUSE_NO":"１４４號","E_COORD97":174414.67000000001,"N_COORD97":2548298.5299999998,"ADDRESS":"龍中街１４４號","OBJECTID":574284},"geometry":{"x":174414.66999999899,"y":2548298.5300000031}},{"attributes":{"ID":574312,"DIS_CODE":0,"TOWNNAME":"永康區","LI":"龍潭里","LIN":"23鄰","STREET":"龍安街","SECT":" ","MAREA":" ","LANE":" ","ALLEY":" ","HOUSE_NO":"１２９號","E_COORD97":174605.87,"N_COORD97":2548382.8399999999,"ADDRESS":"龍安街１２９號","OBJECTID":574285},"geometry":{"x":174605.87000000104,"y":2548382.8400000017}},{"attributes":{"ID":574313,"DIS_CODE":0,"TOWNNAME":"永康區","LI":"龍潭里","LIN":"23鄰","STREET":"龍中街","SECT":" ","MAREA":" ","LANE":" ","ALLEY":" ","HOUSE_NO":"１８６號","E_COORD97":174403.95999999999,"N_COORD97":2548402.0699999998,"ADDRESS":"龍中街１８６號","OBJECTID":574286},"geometry":{"x":174403.95999999996,"y":2548402.0700000022}},{"attributes":{"ID":574314,"DIS_CODE":0,"TOWNNAME":"永康區","LI":"復華里","LIN":"40鄰","STREET":"復華七街","SECT":" ","MAREA":" ","LANE":" ","ALLEY":" ","HOUSE_NO":"１０號","E_COORD97":172587.85000000001,"N_COORD97":2545957.6400000001,"ADDRESS":"復華七街１０號","OBJECTID":574287},"geometry":{"x":172587.85000000056,"y":2545957.6400000025}},{"attributes":{"ID":574315,"DIS_CODE":0,"TOWNNAME":"永康區","LI":"復華里","LIN":"23鄰","STREET":"復國一路","SECT":" ","MAREA":" ","LANE":" ","ALLEY":" ","HOUSE_NO":"４５２號","E_COORD97":172687.41,"N_COORD97":2546067.46,"ADDRESS":"復國一路４５２號","OBJECTID":574288},"geometry":{"x":172687.41000000015,"y":2546067.4600000028}},{"attributes":{"ID":574316,"DIS_CODE":0,"TOWNNAME":"永康區","LI":"龍潭里","LIN":"23鄰","STREET":"龍中街","SECT":" ","MAREA":" ","LANE":" ","ALLEY":" ","HOUSE_NO":"１９６號","E_COORD97":174401.29000000001,"N_COORD97":2548421.8199999998,"ADDRESS":"龍中街１９６號","OBJECTID":574289},"geometry":{"x":174401.29000000097,"y":2548421.8200000003}},{"attributes":{"ID":574317,"DIS_CODE":0,"TOWNNAME":"永康區","LI":"網寮里","LIN":"23鄰","STREET":"永大一路","SECT":" ","MAREA":" ","LANE":" ","ALLEY":" ","HOUSE_NO":"１８５號","E_COORD97":173837.12,"N_COORD97":2546351.7999999998,"ADDRESS":"永大一路１８５號","OBJECTID":574290},"geometry":{"x":173837.11999999918,"y":2546351.8000000007}},{"attributes":{"ID":574318,"DIS_CODE":0,"TOWNNAME":"永康區","LI":"復華里","LIN":"23鄰","STREET":"復華八街","SECT":" ","MAREA":" ","LANE":" ","ALLEY":" ","HOUSE_NO":"２４號","E_COORD97":172694.88,"N_COORD97":2546174.77,"ADDRESS":"復華八街２４號","OBJECTID":574291},"geometry":{"x":172694.88000000082,"y":2546174.7700000033}},{"attributes":{"ID":574319,"DIS_CODE":0,"TOWNNAME":"永康區","LI":"復華里","LIN":"23鄰","STREET":"復華八街","SECT":" ","MAREA":" ","LANE":" ","ALLEY":" ","HOUSE_NO":"１４號","E_COORD97":172680.47,"N_COORD97":2546140.7400000002,"ADDRESS":"復華八街１４號","OBJECTID":574292},"geometry":{"x":172680.47000000067,"y":2546140.7400000002}},{"attributes":{"ID":574320,"DIS_CODE":0,"TOWNNAME":"永康區","LI":"復華里","LIN":"23鄰","STREET":"復華七街","SECT":" ","MAREA":" ","LANE":" ","ALLEY":" ","HOUSE_NO":"５９號","E_COORD97":172731.20000000001,"N_COORD97":2546055.52,"ADDRESS":"復華七街５９號","OBJECTID":574293},"geometry":{"x":172731.20000000019,"y":2546055.5200000014}},{"attributes":{"ID":574321,"DIS_CODE":0,"TOWNNAME":"永康區","LI":"復華里","LIN":"23鄰","STREET":"復華七街","SECT":" ","MAREA":" ","LANE":" ","ALLEY":" ","HOUSE_NO":"５５號","E_COORD97":172724.10999999999,"N_COORD97":2546048.77,"ADDRESS":"復華七街５５號","OBJECTID":574294},"geometry":{"x":172724.11000000127,"y":2546048.7699999996}},{"attributes":{"ID":574322,"DIS_CODE":0,"TOWNNAME":"永康區","LI":"網寮里","LIN":"23鄰","STREET":"永大一路","SECT":" ","MAREA":" ","LANE":" ","ALLEY":" ","HOUSE_NO":"２１７號","E_COORD97":173767.78,"N_COORD97":2546328.9300000002,"ADDRESS":"永大一路２１７號","OBJECTID":574295},"geometry":{"x":173767.78000000026,"y":2546328.9299999997}},{"attributes":{"ID":574323,"DIS_CODE":0,"TOWNNAME":"永康區","LI":"網寮里","LIN":"23鄰","STREET":"永華路","SECT":" ","MAREA":" ","LANE":" ","ALLEY":" ","HOUSE_NO":"３６９號","E_COORD97":173917.41,"N_COORD97":2546308.5,"ADDRESS":"永華路３６９號","OBJECTID":574296},"geometry":{"x":173917.41000000108,"y":2546308.5}},{"attributes":{"ID":574324,"DIS_CODE":0,"TOWNNAME":"東區","LI":"崇信里","LIN":"23鄰","STREET":"崇善一街","SECT":" ","MAREA":" ","LANE":" ","ALLEY":" ","HOUSE_NO":"６６號","E_COORD97":170804.41,"N_COORD97":2542259.6899999999,"ADDRESS":"崇善一街６６號","OBJECTID":574297},"geometry":{"x":170804.41000000201,"y":2542259.6900000013}},{"attributes":{"ID":574325,"DIS_CODE":0,"TOWNNAME":"東區","LI":"崇信里","LIN":"23鄰","STREET":"崇善一街","SECT":" ","MAREA":" ","LANE":" ","ALLEY":" ","HOUSE_NO":"６８號","E_COORD97":170810.10000000001,"N_COORD97":2542265.6699999999,"ADDRESS":"崇善一街６８號","OBJECTID":574298},"geometry":{"x":170810.10000000056,"y":2542265.6699999999}},{"attributes":{"ID":574326,"DIS_CODE":0,"TOWNNAME":"東區","LI":"崇信里","LIN":"23鄰","STREET":"崇善一街","SECT":" ","MAREA":" ","LANE":" ","ALLEY":" ","HOUSE_NO":"７０號","E_COORD97":170814.34,"N_COORD97":2542270.48,"ADDRESS":"崇善一街７０號","OBJECTID":574299},"geometry":{"x":170814.33999999985,"y":2542270.4800000004}},{"attributes":{"ID":574327,"DIS_CODE":0,"TOWNNAME":"東區","LI":"崇信里","LIN":"23鄰","STREET":"崇善一街","SECT":" ","MAREA":" ","LANE":" ","ALLEY":" ","HOUSE_NO":"７２號","E_COORD97":170818.85999999999,"N_COORD97":2542276.1699999999,"ADDRESS":"崇善一街７２號","OBJECTID":574300},"geometry":{"x":170818.86000000127,"y":2542276.1699999999}},{"attributes":{"ID":574328,"DIS_CODE":0,"TOWNNAME":"東區","LI":"崇信里","LIN":"23鄰","STREET":"崇善一街","SECT":" ","MAREA":" ","LANE":" ","ALLEY":" ","HOUSE_NO":"７４號","E_COORD97":170823.39000000001,"N_COORD97":2542281.2799999998,"ADDRESS":"崇善一街７４號","OBJECTID":574301},"geometry":{"x":170823.3900000006,"y":2542281.2799999993}},{"attributes":{"ID":574329,"DIS_CODE":0,"TOWNNAME":"東區","LI":"崇信里","LIN":"23鄰","STREET":"崇善一街","SECT":" ","MAREA":" ","LANE":" ","ALLEY":" ","HOUSE_NO":"７６號","E_COORD97":170828.06,"N_COORD97":2542286.5299999998,"ADDRESS":"崇善一街７６號","OBJECTID":574302},"geometry":{"x":170828.05999999866,"y":2542286.5299999993}},{"attributes":{"ID":574330,"DIS_CODE":0,"TOWNNAME":"永康區","LI":"網寮里","LIN":"20鄰","STREET":"文化路","SECT":" ","MAREA":" ","LANE":" ","ALLEY":" ","HOUSE_NO":"３２５號","E_COORD97":173419.5,"N_COORD97":2546153.0699999998,"ADDRESS":"文化路３２５號","OBJECTID":574303},"geometry":{"x":173419.50000000093,"y":2546153.0699999984}},{"attributes":{"ID":574331,"DIS_CODE":0,"TOWNNAME":"永康區","LI":"復華里","LIN":"33鄰","STREET":"復華十街","SECT":" ","MAREA":" ","LANE":" ","ALLEY":" ","HOUSE_NO":"１３號","E_COORD97":172525.97,"N_COORD97":2546188.04,"ADDRESS":"復華十街１３號","OBJECTID":574304},"geometry":{"x":172525.97000000067,"y":2546188.0399999991}},{"attributes":{"ID":574332,"DIS_CODE":0,"TOWNNAME":"佳里區","LI":"建南里","LIN":"23鄰","STREET":"祥和二街","SECT":" ","MAREA":" ","LANE":" ","ALLEY":" ","HOUSE_NO":"２１７號","E_COORD97":165582.35000000001,"N_COORD97":2561125.2999999998,"ADDRESS":"祥和二街２１７號","OBJECTID":574305},"geometry":{"x":165582.34999999963,"y":2561125.3000000026}},{"attributes":{"ID":574333,"DIS_CODE":0,"TOWNNAME":"永康區","LI":"復華里","LIN":"16鄰","STREET":"復華七街","SECT":" ","MAREA":" ","LANE":" ","ALLEY":" ","HOUSE_NO":"５６號","E_COORD97":172748.92999999999,"N_COORD97":2546049.6699999999,"ADDRESS":"復華七街５６號","OBJECTID":574306},"geometry":{"x":172748.93000000063,"y":2546049.6699999999}},{"attributes":{"ID":574334,"DIS_CODE":0,"TOWNNAME":"歸仁區","LI":"辜厝里","LIN":"23鄰","STREET":"大順街","SECT":" ","MAREA":" ","LANE":" ","ALLEY":" ","HOUSE_NO":"４３號","E_COORD97":177409.17999999999,"N_COORD97":2540586.1499999999,"ADDRESS":"大順街４３號","OBJECTID":574307},"geometry":{"x":177409.1799999997,"y":2540586.1500000022}},{"attributes":{"ID":574335,"DIS_CODE":0,"TOWNNAME":"安平區","LI":"國平里","LIN":"23鄰","STREET":"永華八街","SECT":" ","MAREA":" ","LANE":" ","ALLEY":" ","HOUSE_NO":"２號","E_COORD97":165112.78,"N_COORD97":2543312.8700000001,"ADDRESS":"永華八街２號","OBJECTID":574308},"geometry":{"x":165112.77999999933,"y":2543312.870000001}},{"attributes":{"ID":574336,"DIS_CODE":0,"TOWNNAME":"安平區","LI":"國平里","LIN":"23鄰","STREET":"郡平路","SECT":" ","MAREA":" ","LANE":" ","ALLEY":" ","HOUSE_NO":"５２號","E_COORD97":165126.10999999999,"N_COORD97":2543283.98,"ADDRESS":"郡平路５２號","OBJECTID":574309},"geometry":{"x":165126.11000000127,"y":2543283.9800000023}},{"attributes":{"ID":574337,"DIS_CODE":0,"TOWNNAME":"安平區","LI":"國平里","LIN":"23鄰","STREET":"郡平路","SECT":" ","MAREA":" ","LANE":" ","ALLEY":" ","HOUSE_NO":"５６號","E_COORD97":165111.19,"N_COORD97":2543283.6600000001,"ADDRESS":"郡平路５６號","OBJECTID":574310},"geometry":{"x":165111.19000000041,"y":2543283.6600000001}},{"attributes":{"ID":574338,"DIS_CODE":0,"TOWNNAME":"新營區","LI":"民生里","LIN":"23鄰","STREET":"公園路","SECT":"一段","MAREA":" ","LANE":" ","ALLEY":" ","HOUSE_NO":"１６號","E_COORD97":179217.81,"N_COORD97":2578454.6099999999,"ADDRESS":"公園路一段１６號","OBJECTID":574311},"geometry":{"x":179217.81000000052,"y":2578454.6099999994}},{"attributes":{"ID":574339,"DIS_CODE":0,"TOWNNAME":"新營區","LI":"民權里","LIN":"23鄰","STREET":"民治路","SECT":" ","MAREA":" ","LANE":" ","ALLEY":" ","HOUSE_NO":"６１號之１","E_COORD97":179619.62,"N_COORD97":2578827.0800000001,"ADDRESS":"民治路６１號之１","OBJECTID":574312},"geometry":{"x":179619.62000000197,"y":2578827.0800000019}},{"attributes":{"ID":574340,"DIS_CODE":0,"TOWNNAME":"新營區","LI":"民權里","LIN":"23鄰","STREET":"民權路","SECT":" ","MAREA":" ","LANE":" ","ALLEY":" ","HOUSE_NO":"１１６號之３","E_COORD97":179632.81,"N_COORD97":2578739.54,"ADDRESS":"民權路１１６號之３","OBJECTID":574313},"geometry":{"x":179632.80999999959,"y":2578739.5399999991}},{"attributes":{"ID":574341,"DIS_CODE":0,"TOWNNAME":"新營區","LI":"大宏里","LIN":"23鄰","STREET":"民治路","SECT":" ","MAREA":" ","LANE":" ","ALLEY":" ","HOUSE_NO":"１號之１９","E_COORD97":180621.92999999999,"N_COORD97":2578794.6600000001,"ADDRESS":"民治路１號之１９","OBJECTID":574314},"geometry":{"x":180621.9299999997,"y":2578794.6600000001}},{"attributes":{"ID":574342,"DIS_CODE":0,"TOWNNAME":"新營區","LI":"南紙里","LIN":"23鄰","STREET":"南紙街","SECT":" ","MAREA":" ","LANE":" ","ALLEY":" ","HOUSE_NO":"１１９之２號","E_COORD97":177816.44,"N_COORD97":2577465.8399999999,"ADDRESS":"南紙街１１９之２號","OBJECTID":574315},"geometry":{"x":177816.44000000134,"y":2577465.8400000017}},{"attributes":{"ID":574343,"DIS_CODE":0,"TOWNNAME":"安平區","LI":"文平里","LIN":"23鄰","STREET":"健康一街","SECT":" ","MAREA":" ","LANE":" ","ALLEY":" ","HOUSE_NO":"７８號","E_COORD97":165964.91,"N_COORD97":2542870.2000000002,"ADDRESS":"健康一街７８號","OBJECTID":574316},"geometry":{"x":165964.91000000108,"y":2542870.2000000011}},{"attributes":{"ID":574344,"DIS_CODE":0,"TOWNNAME":"安平區","LI":"文平里","LIN":"23鄰","STREET":"健康一街","SECT":" ","MAREA":" ","LANE":" ","ALLEY":" ","HOUSE_NO":"８０號","E_COORD97":165965.10999999999,"N_COORD97":2542874.5899999999,"ADDRESS":"健康一街８０號","OBJECTID":574317},"geometry":{"x":165965.1100000022,"y":2542874.5900000017}},{"attributes":{"ID":574345,"DIS_CODE":0,"TOWNNAME":"安平區","LI":"文平里","LIN":"23鄰","STREET":"健康一街","SECT":" ","MAREA":" ","LANE":" ","ALLEY":" ","HOUSE_NO":"８２號","E_COORD97":165965.60999999999,"N_COORD97":2542879.2799999998,"ADDRESS":"健康一街８２號","OBJECTID":574318},"geometry":{"x":165965.61000000127,"y":2542879.2800000031}},{"attributes":{"ID":574346,"DIS_CODE":0,"TOWNNAME":"安平區","LI":"文平里","LIN":"23鄰","STREET":"健康一街","SECT":" ","MAREA":" ","LANE":" ","ALLEY":" ","HOUSE_NO":"８４號","E_COORD97":165966.10999999999,"N_COORD97":2542883.9700000002,"ADDRESS":"健康一街８４號","OBJECTID":574319},"geometry":{"x":165966.11000000034,"y":2542883.9700000025}},{"attributes":{"ID":574347,"DIS_CODE":0,"TOWNNAME":"永康區","LI":"網寮里","LIN":"3鄰","STREET":"永和街","SECT":" ","MAREA":" ","LANE":" ","ALLEY":" ","HOUSE_NO":"２０７號","E_COORD97":173448.01000000001,"N_COORD97":2546528.2799999998,"ADDRESS":"永和街２０７號","OBJECTID":574320},"geometry":{"x":173448.01000000071,"y":2546528.2800000012}},{"attributes":{"ID":574348,"DIS_CODE":0,"TOWNNAME":"安平區","LI":"華平里","LIN":"23鄰","STREET":"建平八街","SECT":" ","MAREA":" ","LANE":" ","ALLEY":" ","HOUSE_NO":"４３８號","E_COORD97":165174.10000000001,"N_COORD97":2543599.96,"ADDRESS":"建平八街４３８號","OBJECTID":574321},"geometry":{"x":165174.09999999963,"y":2543599.9600000028}},{"attributes":{"ID":574349,"DIS_CODE":0,"TOWNNAME":"永康區","LI":"復華里","LIN":"40鄰","STREET":"復華七街","SECT":" ","MAREA":" ","LANE":" ","ALLEY":" ","HOUSE_NO":"２６號","E_COORD97":172629.26999999999,"N_COORD97":2545964.5099999998,"ADDRESS":"復華七街２６號","OBJECTID":574322},"geometry":{"x":172629.27000000048,"y":2545964.5100000016}},{"attributes":{"ID":574350,"DIS_CODE":0,"TOWNNAME":"永康區","LI":"蔦松里","LIN":"8鄰","STREET":"中正北路","SECT":" ","MAREA":" ","LANE":" ","ALLEY":" ","HOUSE_NO":"４３３號","E_COORD97":173603.67000000001,"N_COORD97":2549150.8799999999,"ADDRESS":"中正北路４３３號","OBJECTID":574323},"geometry":{"x":173603.66999999993,"y":2549150.8800000008}},{"attributes":{"ID":574351,"DIS_CODE":0,"TOWNNAME":"安平區","LI":"華平里","LIN":"23鄰","STREET":"建平八街","SECT":" ","MAREA":" ","LANE":" ","ALLEY":" ","HOUSE_NO":"３９４號","E_COORD97":165278.48000000001,"N_COORD97":2543585.79,"ADDRESS":"建平八街３９４號","OBJECTID":574324},"geometry":{"x":165278.48000000138,"y":2543585.7899999991}},{"attributes":{"ID":574352,"DIS_CODE":0,"TOWNNAME":"安平區","LI":"建平里","LIN":"23鄰","STREET":"平通路","SECT":" ","MAREA":" ","LANE":" ","ALLEY":" ","HOUSE_NO":"４９號","E_COORD97":166077.32999999999,"N_COORD97":2543656.1600000001,"ADDRESS":"平通路４９號","OBJECTID":574325},"geometry":{"x":166077.33000000101,"y":2543656.1600000001}},{"attributes":{"ID":574353,"DIS_CODE":0,"TOWNNAME":"歸仁區","LI":"看西里","LIN":"23鄰","STREET":"成功三街","SECT":" ","MAREA":" ","LANE":" ","ALLEY":" ","HOUSE_NO":"１０３號","E_COORD97":178523.01000000001,"N_COORD97":2539865.3599999999,"ADDRESS":"成功三街１０３號","OBJECTID":574326},"geometry":{"x":178523.00999999885,"y":2539865.3600000013}},{"attributes":{"ID":574354,"DIS_CODE":0,"TOWNNAME":"歸仁區","LI":"看西里","LIN":"23鄰","STREET":"成功三街","SECT":" ","MAREA":" ","LANE":" ","ALLEY":" ","HOUSE_NO":"１８５號","E_COORD97":178507.41,"N_COORD97":2539824.3599999999,"ADDRESS":"成功三街１８５號","OBJECTID":574327},"geometry":{"x":178507.41000000108,"y":2539824.3600000013}},{"attributes":{"ID":574355,"DIS_CODE":0,"TOWNNAME":"楠西區","LI":"楠西里","LIN":"23鄰","STREET":"茄拔路","SECT":" ","MAREA":" ","LANE":" ","ALLEY":" ","HOUSE_NO":"６５號","E_COORD97":197122.29000000001,"N_COORD97":2563843.2799999998,"ADDRESS":"茄拔路６５號","OBJECTID":574328},"geometry":{"x":197122.29000000004,"y":2563843.2800000012}},{"attributes":{"ID":574356,"DIS_CODE":0,"TOWNNAME":"楠西區","LI":"楠西里","LIN":"23鄰","STREET":"茄拔路","SECT":" ","MAREA":" ","LANE":" ","ALLEY":" ","HOUSE_NO":"６３號","E_COORD97":197127.29000000001,"N_COORD97":2563844.2799999998,"ADDRESS":"茄拔路６３號","OBJECTID":574329},"geometry":{"x":197127.29000000004,"y":2563844.2799999993}},{"attributes":{"ID":574357,"DIS_CODE":0,"TOWNNAME":"新營區","LI":"南興里","LIN":"23鄰","STREET":"南昌街","SECT":" ","MAREA":" ","LANE":" ","ALLEY":" ","HOUSE_NO":"１０５號","E_COORD97":179335.91,"N_COORD97":2577646.7200000002,"ADDRESS":"南昌街１０５號","OBJECTID":574330},"geometry":{"x":179335.91000000015,"y":2577646.7200000025}},{"attributes":{"ID":574358,"DIS_CODE":0,"TOWNNAME":"新營區","LI":"三仙里","LIN":"23鄰","STREET":"民治路","SECT":" ","MAREA":" ","LANE":" ","ALLEY":" ","HOUSE_NO":"７８號之５","E_COORD97":179548.45999999999,"N_COORD97":2578881.6800000002,"ADDRESS":"民治路７８號之５","OBJECTID":574331},"geometry":{"x":179548.45999999996,"y":2578881.6799999997}},{"attributes":{"ID":574359,"DIS_CODE":0,"TOWNNAME":"新營區","LI":"三仙里","LIN":"23鄰","STREET":"育德一街","SECT":" ","MAREA":" ","LANE":" ","ALLEY":" ","HOUSE_NO":"２３號","E_COORD97":179546.41,"N_COORD97":2578924.8199999998,"ADDRESS":"育德一街２３號","OBJECTID":574332},"geometry":{"x":179546.41000000201,"y":2578924.8200000003}},{"attributes":{"ID":574360,"DIS_CODE":0,"TOWNNAME":"新營區","LI":"民權里","LIN":"23鄰","STREET":"民治路","SECT":" ","MAREA":" ","LANE":" ","ALLEY":" ","HOUSE_NO":"４９號之４","E_COORD97":179723.04000000001,"N_COORD97":2578832.1299999999,"ADDRESS":"民治路４９號之４","OBJECTID":574333},"geometry":{"x":179723.04000000004,"y":2578832.1300000008}},{"attributes":{"ID":574361,"DIS_CODE":0,"TOWNNAME":"安平區","LI":"建平里","LIN":"23鄰","STREET":"平通路","SECT":" ","MAREA":" ","LANE":" ","ALLEY":" ","HOUSE_NO":"７９之１號","E_COORD97":165997.81,"N_COORD97":2543671.3799999999,"ADDRESS":"平通路７９之１號","OBJECTID":574334},"geometry":{"x":165997.80999999959,"y":2543671.3800000027}},{"attributes":{"ID":574362,"DIS_CODE":0,"TOWNNAME":"安平區","LI":"建平里","LIN":"23鄰","STREET":"平通路","SECT":" ","MAREA":" ","LANE":" ","ALLEY":" ","HOUSE_NO":"５５號","E_COORD97":166064.13,"N_COORD97":2543658.1899999999,"ADDRESS":"平通路５５號","OBJECTID":574335},"geometry":{"x":166064.12999999989,"y":2543658.1899999995}},{"attributes":{"ID":574363,"DIS_CODE":0,"TOWNNAME":"安平區","LI":"建平里","LIN":"23鄰","STREET":"平通路","SECT":" ","MAREA":" ","LANE":" ","ALLEY":" ","HOUSE_NO":"５７號","E_COORD97":166060.06,"N_COORD97":2543658.6000000001,"ADDRESS":"平通路５７號","OBJECTID":574336},"geometry":{"x":166060.06000000052,"y":2543658.6000000015}},{"attributes":{"ID":574364,"DIS_CODE":0,"TOWNNAME":"安平區","LI":"建平里","LIN":"23鄰","STREET":"永華三街","SECT":" ","MAREA":" ","LANE":" ","ALLEY":" ","HOUSE_NO":"７７號","E_COORD97":166086.56,"N_COORD97":2543628.8100000001,"ADDRESS":"永華三街７７號","OBJECTID":574337},"geometry":{"x":166086.55999999866,"y":2543628.8100000005}},{"attributes":{"ID":574365,"DIS_CODE":0,"TOWNNAME":"安平區","LI":"建平里","LIN":"23鄰","STREET":"永華三街","SECT":" ","MAREA":" ","LANE":" ","ALLEY":" ","HOUSE_NO":"７９號","E_COORD97":166087.31,"N_COORD97":2543634.2400000002,"ADDRESS":"永華三街７９號","OBJECTID":574338},"geometry":{"x":166087.31000000052,"y":2543634.2400000021}},{"attributes":{"ID":574366,"DIS_CODE":0,"TOWNNAME":"安平區","LI":"建平里","LIN":"23鄰","STREET":"永華三街","SECT":" ","MAREA":" ","LANE":" ","ALLEY":" ","HOUSE_NO":"８１號","E_COORD97":166088.29999999999,"N_COORD97":2543637.9500000002,"ADDRESS":"永華三街８１號","OBJECTID":574339},"geometry":{"x":166088.29999999981,"y":2543637.9500000011}},{"attributes":{"ID":574367,"DIS_CODE":0,"TOWNNAME":"永康區","LI":"復華里","LIN":"39鄰","STREET":"復華七街","SECT":" ","MAREA":" ","LANE":" ","ALLEY":" ","HOUSE_NO":"３６號","E_COORD97":172671.95999999999,"N_COORD97":2545985.27,"ADDRESS":"復華七街３６號","OBJECTID":574340},"geometry":{"x":172671.96000000183,"y":2545985.2700000014}},{"attributes":{"ID":574368,"DIS_CODE":0,"TOWNNAME":"永康區","LI":"復國里","LIN":"35鄰","STREET":"復國一路","SECT":" ","MAREA":" ","LANE":" ","ALLEY":" ","HOUSE_NO":"８３號","E_COORD97":172692.23000000001,"N_COORD97":2544959.2799999998,"ADDRESS":"復國一路８３號","OBJECTID":574341},"geometry":{"x":172692.23000000045,"y":2544959.2799999993}},{"attributes":{"ID":574369,"DIS_CODE":0,"TOWNNAME":"安平區","LI":"建平里","LIN":"23鄰","STREET":"永華三街","SECT":" ","MAREA":" ","LANE":" ","ALLEY":" ","HOUSE_NO":"８３號","E_COORD97":166088.29999999999,"N_COORD97":2543642.3900000001,"ADDRESS":"永華三街８３號","OBJECTID":574342},"geometry":{"x":166088.29999999981,"y":2543642.3900000043}},{"attributes":{"ID":574370,"DIS_CODE":0,"TOWNNAME":"安平區","LI":"文平里","LIN":"23鄰","STREET":"建平一街","SECT":" ","MAREA":" ","LANE":" ","ALLEY":" ","HOUSE_NO":"４０號","E_COORD97":165979.39000000001,"N_COORD97":2542748.2400000002,"ADDRESS":"建平一街４０號","OBJECTID":574343},"geometry":{"x":165979.39000000153,"y":2542748.2400000039}},{"attributes":{"ID":574371,"DIS_CODE":0,"TOWNNAME":"安平區","LI":"文平里","LIN":"23鄰","STREET":"建平一街","SECT":" ","MAREA":" ","LANE":" ","ALLEY":" ","HOUSE_NO":"４２號","E_COORD97":165975.39000000001,"N_COORD97":2542747.9399999999,"ADDRESS":"建平一街４２號","OBJECTID":574344},"geometry":{"x":165975.38999999966,"y":2542747.9399999995}},{"attributes":{"ID":574372,"DIS_CODE":0,"TOWNNAME":"安平區","LI":"文平里","LIN":"23鄰","STREET":"建平一街","SECT":" ","MAREA":" ","LANE":" ","ALLEY":" ","HOUSE_NO":"４２號之１","E_COORD97":165971.10000000001,"N_COORD97":2542748.7400000002,"ADDRESS":"建平一街４２號之１","OBJECTID":574345},"geometry":{"x":165971.0999999987,"y":2542748.7400000021}},{"attributes":{"ID":574373,"DIS_CODE":0,"TOWNNAME":"安平區","LI":"文平里","LIN":"23鄰","STREET":"建平一街","SECT":" ","MAREA":" ","LANE":" ","ALLEY":" ","HOUSE_NO":"４６號","E_COORD97":165966.60000000001,"N_COORD97":2542749.3399999999,"ADDRESS":"建平一街４６號","OBJECTID":574346},"geometry":{"x":165966.60000000056,"y":2542749.3399999999}},{"attributes":{"ID":574374,"DIS_CODE":0,"TOWNNAME":"安平區","LI":"文平里","LIN":"23鄰","STREET":"建平一街","SECT":" ","MAREA":" ","LANE":" ","ALLEY":" ","HOUSE_NO":"４８號","E_COORD97":165961.60999999999,"N_COORD97":2542749.7400000002,"ADDRESS":"建平一街４８號","OBJECTID":574347},"geometry":{"x":165961.6099999994,"y":2542749.7400000021}},{"attributes":{"ID":574375,"DIS_CODE":0,"TOWNNAME":"安平區","LI":"文平里","LIN":"23鄰","STREET":"建平一街","SECT":" ","MAREA":" ","LANE":" ","ALLEY":" ","HOUSE_NO":"５０號","E_COORD97":165956.70999999999,"N_COORD97":2542750.4399999999,"ADDRESS":"建平一街５０號","OBJECTID":574348},"geometry":{"x":165956.70999999996,"y":2542750.4400000013}},{"attributes":{"ID":574376,"DIS_CODE":0,"TOWNNAME":"安平區","LI":"文平里","LIN":"23鄰","STREET":"建平一街","SECT":" ","MAREA":" ","LANE":" ","ALLEY":" ","HOUSE_NO":"５２號","E_COORD97":165951.82000000001,"N_COORD97":2542751.23,"ADDRESS":"建平一街５２號","OBJECTID":574349},"geometry":{"x":165951.82000000216,"y":2542751.2300000004}},{"attributes":{"ID":574377,"DIS_CODE":0,"TOWNNAME":"歸仁區","LI":"文化里","LIN":"23鄰","STREET":"大德路","SECT":" ","MAREA":" ","LANE":" ","ALLEY":" ","HOUSE_NO":"２６１號","E_COORD97":177107.81,"N_COORD97":2541521.6699999999,"ADDRESS":"大德路２６１號","OBJECTID":574350},"geometry":{"x":177107.81000000052,"y":2541521.6700000018}},{"attributes":{"ID":574378,"DIS_CODE":0,"TOWNNAME":"歸仁區","LI":"新厝里","LIN":"23鄰","STREET":"大成六街","SECT":" ","MAREA":" ","LANE":" ","ALLEY":" ","HOUSE_NO":"８１號","E_COORD97":177617.54000000001,"N_COORD97":2540190.1800000002,"ADDRESS":"大成六街８１號","OBJECTID":574351},"geometry":{"x":177617.54000000004,"y":2540190.1799999997}},{"attributes":{"ID":574379,"DIS_CODE":0,"TOWNNAME":"歸仁區","LI":"歸南里","LIN":"23鄰","STREET":"民生八街","SECT":" ","MAREA":" ","LANE":" ","ALLEY":" ","HOUSE_NO":"３４號","E_COORD97":176101.81,"N_COORD97":2540349.25,"ADDRESS":"民生八街３４號","OBJECTID":574352},"geometry":{"x":176101.81000000145,"y":2540349.25}},{"attributes":{"ID":574380,"DIS_CODE":0,"TOWNNAME":"新營區","LI":"民權里","LIN":"23鄰","STREET":"民權路","SECT":" ","MAREA":" ","LANE":" ","ALLEY":" ","HOUSE_NO":"１１４號","E_COORD97":179633.57000000001,"N_COORD97":2578721.75,"ADDRESS":"民權路１１４號","OBJECTID":574353},"geometry":{"x":179633.57000000216,"y":2578721.75}},{"attributes":{"ID":574381,"DIS_CODE":0,"TOWNNAME":"新營區","LI":"民生里","LIN":"23鄰","STREET":"公園路","SECT":"一段","MAREA":" ","LANE":" ","ALLEY":" ","HOUSE_NO":"６號","E_COORD97":179256.53,"N_COORD97":2578467.71,"ADDRESS":"公園路一段６號","OBJECTID":574354},"geometry":{"x":179256.53000000119,"y":2578467.7100000028}},{"attributes":{"ID":574382,"DIS_CODE":0,"TOWNNAME":"新營區","LI":"王公里","LIN":"23鄰","STREET":"樂仁街","SECT":" ","MAREA":" ","LANE":" ","ALLEY":" ","HOUSE_NO":"３２號","E_COORD97":180533.45000000001,"N_COORD97":2579138.3300000001,"ADDRESS":"樂仁街３２號","OBJECTID":574355},"geometry":{"x":180533.45000000112,"y":2579138.3300000001}},{"attributes":{"ID":574383,"DIS_CODE":0,"TOWNNAME":"新營區","LI":"民權里","LIN":"23鄰","STREET":"民權路","SECT":" ","MAREA":" ","LANE":" ","ALLEY":" ","HOUSE_NO":"１１８號之２","E_COORD97":179627.87,"N_COORD97":2578766.1400000001,"ADDRESS":"民權路１１８號之２","OBJECTID":574356},"geometry":{"x":179627.87000000011,"y":2578766.1400000025}},{"attributes":{"ID":574384,"DIS_CODE":0,"TOWNNAME":"新營區","LI":"南興里","LIN":"23鄰","STREET":"南昌街","SECT":" ","MAREA":" ","LANE":" ","ALLEY":" ","HOUSE_NO":"８１號","E_COORD97":179388.94,"N_COORD97":2577645.3500000001,"ADDRESS":"南昌街８１號","OBJECTID":574357},"geometry":{"x":179388.94000000227,"y":2577645.3500000015}},{"attributes":{"ID":574385,"DIS_CODE":0,"TOWNNAME":"新營區","LI":"民權里","LIN":"23鄰","STREET":"民治路","SECT":" ","MAREA":" ","LANE":" ","ALLEY":" ","HOUSE_NO":"５７號","E_COORD97":179645.12,"N_COORD97":2578829.1200000001,"ADDRESS":"民治路５７號","OBJECTID":574358},"geometry":{"x":179645.12000000104,"y":2578829.120000001}},{"attributes":{"ID":574386,"DIS_CODE":0,"TOWNNAME":"新營區","LI":"民權里","LIN":"23鄰","STREET":"民治路","SECT":" ","MAREA":" ","LANE":" ","ALLEY":" ","HOUSE_NO":"５５號之３","E_COORD97":179655.53,"N_COORD97":2578829.1299999999,"ADDRESS":"民治路５５號之３","OBJECTID":574359},"geometry":{"x":179655.53000000026,"y":2578829.1300000008}},{"attributes":{"ID":574387,"DIS_CODE":0,"TOWNNAME":"新營區","LI":"民生里","LIN":"23鄰","STREET":"民生路","SECT":" ","MAREA":" ","LANE":" ","ALLEY":" ","HOUSE_NO":"６９號","E_COORD97":179220.03,"N_COORD97":2578490.04,"ADDRESS":"民生路６９號","OBJECTID":574360},"geometry":{"x":179220.03000000026,"y":2578490.040000001}},{"attributes":{"ID":574388,"DIS_CODE":0,"TOWNNAME":"新營區","LI":"南興里","LIN":"23鄰","STREET":"南昌街","SECT":" ","MAREA":" ","LANE":" ","ALLEY":" ","HOUSE_NO":"８９號","E_COORD97":179370.51999999999,"N_COORD97":2577645.4399999999,"ADDRESS":"南昌街８９號","OBJECTID":574361},"geometry":{"x":179370.52000000142,"y":2577645.4399999995}},{"attributes":{"ID":574389,"DIS_CODE":0,"TOWNNAME":"歸仁區","LI":"大廟里","LIN":"23鄰","STREET":"大廟一街","SECT":" ","MAREA":" ","LANE":" ","ALLEY":" ","HOUSE_NO":"９４號","E_COORD97":175720.37,"N_COORD97":2543931.25,"ADDRESS":"大廟一街９４號","OBJECTID":574362},"geometry":{"x":175720.37000000011,"y":2543931.2500000037}},{"attributes":{"ID":574390,"DIS_CODE":0,"TOWNNAME":"歸仁區","LI":"八甲里","LIN":"23鄰","STREET":"大德路","SECT":" ","MAREA":" ","LANE":" ","ALLEY":" ","HOUSE_NO":"１０２號","E_COORD97":178159.69,"N_COORD97":2541337.25,"ADDRESS":"大德路１０２號","OBJECTID":574363},"geometry":{"x":178159.68999999948,"y":2541337.2500000037}},{"attributes":{"ID":574391,"DIS_CODE":0,"TOWNNAME":"歸仁區","LI":"八甲里","LIN":"23鄰","STREET":"大德路","SECT":" ","MAREA":" ","LANE":" ","ALLEY":" ","HOUSE_NO":"１１２號","E_COORD97":178123.69,"N_COORD97":2541320.25,"ADDRESS":"大德路１１２號","OBJECTID":574364},"geometry":{"x":178123.69000000041,"y":2541320.2499999981}},{"attributes":{"ID":574392,"DIS_CODE":0,"TOWNNAME":"歸仁區","LI":"後市里","LIN":"23鄰","STREET":"大通路","SECT":" ","MAREA":" ","LANE":" ","ALLEY":" ","HOUSE_NO":"１５２號","E_COORD97":177480.10000000001,"N_COORD97":2540927.25,"ADDRESS":"大通路１５２號","OBJECTID":574365},"geometry":{"x":177480.10000000056,"y":2540927.2500000037}},{"attributes":{"ID":574393,"DIS_CODE":0,"TOWNNAME":"安平區","LI":"育平里","LIN":"23鄰","STREET":"育平路","SECT":" ","MAREA":" ","LANE":" ","ALLEY":" ","HOUSE_NO":"１９８號","E_COORD97":164603.67000000001,"N_COORD97":2543373.9900000002,"ADDRESS":"育平路１９８號","OBJECTID":574366},"geometry":{"x":164603.67000000086,"y":2543373.9900000021}},{"attributes":{"ID":574394,"DIS_CODE":0,"TOWNNAME":"安平區","LI":"育平里","LIN":"23鄰","STREET":"育平四街","SECT":" ","MAREA":" ","LANE":" ","ALLEY":" ","HOUSE_NO":"４１號","E_COORD97":164755.62,"N_COORD97":2543371.8300000001,"ADDRESS":"育平四街４１號","OBJECTID":574367},"geometry":{"x":164755.62000000011,"y":2543371.8300000019}},{"attributes":{"ID":574395,"DIS_CODE":0,"TOWNNAME":"永康區","LI":"復華里","LIN":"40鄰","STREET":"復華七街","SECT":" ","MAREA":" ","LANE":" ","ALLEY":" ","HOUSE_NO":"２０號","E_COORD97":172616.67000000001,"N_COORD97":2545962.6400000001,"ADDRESS":"復華七街２０號","OBJECTID":574368},"geometry":{"x":172616.67000000086,"y":2545962.6400000006}},{"attributes":{"ID":574396,"DIS_CODE":0,"TOWNNAME":"永康區","LI":"復國里","LIN":"28鄰","STREET":"復國一路","SECT":" ","MAREA":" ","LANE":" ","ALLEY":" ","HOUSE_NO":"１７５號","E_COORD97":172712.85000000001,"N_COORD97":2545218.9199999999,"ADDRESS":"復國一路１７５號","OBJECTID":574369},"geometry":{"x":172712.8499999987,"y":2545218.9200000018}},{"attributes":{"ID":574397,"DIS_CODE":0,"TOWNNAME":"安平區","LI":"育平里","LIN":"23鄰","STREET":"育平四街","SECT":" ","MAREA":" ","LANE":" ","ALLEY":" ","HOUSE_NO":"４３號","E_COORD97":164750.14999999999,"N_COORD97":2543372.7000000002,"ADDRESS":"育平四街４３號","OBJECTID":574370},"geometry":{"x":164750.1500000013,"y":2543372.7000000011}},{"attributes":{"ID":574398,"DIS_CODE":0,"TOWNNAME":"安平區","LI":"育平里","LIN":"23鄰","STREET":"育平四街","SECT":" ","MAREA":" ","LANE":" ","ALLEY":" ","HOUSE_NO":"４５號","E_COORD97":164743.82000000001,"N_COORD97":2543373.27,"ADDRESS":"育平四街４５號","OBJECTID":574371},"geometry":{"x":164743.82000000123,"y":2543373.2699999996}},{"attributes":{"ID":574399,"DIS_CODE":0,"TOWNNAME":"安平區","LI":"育平里","LIN":"23鄰","STREET":"育平四街","SECT":" ","MAREA":" ","LANE":" ","ALLEY":" ","HOUSE_NO":"４７號","E_COORD97":164737.63,"N_COORD97":2543374.4199999999,"ADDRESS":"育平四街４７號","OBJECTID":574372},"geometry":{"x":164737.63000000082,"y":2543374.4200000018}},{"attributes":{"ID":574400,"DIS_CODE":0,"TOWNNAME":"安平區","LI":"育平里","LIN":"23鄰","STREET":"育平四街","SECT":" ","MAREA":" ","LANE":" ","ALLEY":" ","HOUSE_NO":"４９號","E_COORD97":164732.16,"N_COORD97":2543375.4300000002,"ADDRESS":"育平四街４９號","OBJECTID":574373},"geometry":{"x":164732.16000000201,"y":2543375.4299999997}},{"attributes":{"ID":574401,"DIS_CODE":0,"TOWNNAME":"安平區","LI":"育平里","LIN":"23鄰","STREET":"育平四街","SECT":" ","MAREA":" ","LANE":" ","ALLEY":" ","HOUSE_NO":"５１號","E_COORD97":164726.10999999999,"N_COORD97":2543376.5800000001,"ADDRESS":"育平四街５１號","OBJECTID":574374},"geometry":{"x":164726.11000000127,"y":2543376.5800000019}},{"attributes":{"ID":574402,"DIS_CODE":0,"TOWNNAME":"安平區","LI":"育平里","LIN":"23鄰","STREET":"育平四街","SECT":" ","MAREA":" ","LANE":" ","ALLEY":" ","HOUSE_NO":"５３號","E_COORD97":164720.64000000001,"N_COORD97":2543377.4399999999,"ADDRESS":"育平四街５３號","OBJECTID":574375},"geometry":{"x":164720.6400000006,"y":2543377.4400000013}},{"attributes":{"ID":574403,"DIS_CODE":0,"TOWNNAME":"安平區","LI":"育平里","LIN":"23鄰","STREET":"育平四街","SECT":" ","MAREA":" ","LANE":" ","ALLEY":" ","HOUSE_NO":"５５號","E_COORD97":164711.51999999999,"N_COORD97":2543378.02,"ADDRESS":"育平四街５５號","OBJECTID":574376},"geometry":{"x":164711.51999999955,"y":2543378.0199999996}},{"attributes":{"ID":574404,"DIS_CODE":0,"TOWNNAME":"安平區","LI":"育平里","LIN":"23鄰","STREET":"育平四街","SECT":" ","MAREA":" ","LANE":" ","ALLEY":" ","HOUSE_NO":"５７號","E_COORD97":164707.06,"N_COORD97":2543378.7400000002,"ADDRESS":"育平四街５７號","OBJECTID":574377},"geometry":{"x":164707.06000000052,"y":2543378.7400000039}},{"attributes":{"ID":574405,"DIS_CODE":0,"TOWNNAME":"安平區","LI":"育平里","LIN":"23鄰","STREET":"育平四街","SECT":" ","MAREA":" ","LANE":" ","ALLEY":" ","HOUSE_NO":"５９號","E_COORD97":164703.32000000001,"N_COORD97":2543379.3100000001,"ADDRESS":"育平四街５９號","OBJECTID":574378},"geometry":{"x":164703.3200000003,"y":2543379.3100000024}},{"attributes":{"ID":574406,"DIS_CODE":0,"TOWNNAME":"安平區","LI":"育平里","LIN":"23鄰","STREET":"育平四街","SECT":" ","MAREA":" ","LANE":" ","ALLEY":" ","HOUSE_NO":"６１號","E_COORD97":164699.14999999999,"N_COORD97":2543380.0299999998,"ADDRESS":"育平四街６１號","OBJECTID":574379},"geometry":{"x":164699.1500000013,"y":2543380.0300000012}},{"attributes":{"ID":574407,"DIS_CODE":0,"TOWNNAME":"安平區","LI":"育平里","LIN":"23鄰","STREET":"育平四街","SECT":" ","MAREA":" ","LANE":" ","ALLEY":" ","HOUSE_NO":"６３號","E_COORD97":164695.10999999999,"N_COORD97":2543380.75,"ADDRESS":"育平四街６３號","OBJECTID":574380},"geometry":{"x":164695.11000000034,"y":2543380.75}},{"attributes":{"ID":574408,"DIS_CODE":0,"TOWNNAME":"安平區","LI":"育平里","LIN":"23鄰","STREET":"育平四街","SECT":" ","MAREA":" ","LANE":" ","ALLEY":" ","HOUSE_NO":"６５號","E_COORD97":164690.64999999999,"N_COORD97":2543381.3199999998,"ADDRESS":"育平四街６５號","OBJECTID":574381},"geometry":{"x":164690.6500000013,"y":2543381.3200000003}},{"attributes":{"ID":574409,"DIS_CODE":0,"TOWNNAME":"安平區","LI":"育平里","LIN":"23鄰","STREET":"育平四街","SECT":" ","MAREA":" ","LANE":" ","ALLEY":" ","HOUSE_NO":"６７號","E_COORD97":164686.19,"N_COORD97":2543382.1899999999,"ADDRESS":"育平四街６７號","OBJECTID":574382},"geometry":{"x":164686.19000000041,"y":2543382.1900000013}},{"attributes":{"ID":574410,"DIS_CODE":0,"TOWNNAME":"安平區","LI":"育平里","LIN":"23鄰","STREET":"育平路","SECT":" ","MAREA":" ","LANE":" ","ALLEY":" ","HOUSE_NO":"２００號","E_COORD97":164604.97,"N_COORD97":2543379.46,"ADDRESS":"育平路２００號","OBJECTID":574383},"geometry":{"x":164604.97000000067,"y":2543379.4600000028}},{"attributes":{"ID":574411,"DIS_CODE":0,"TOWNNAME":"安平區","LI":"育平里","LIN":"23鄰","STREET":"郡平路","SECT":" ","MAREA":" ","LANE":" ","ALLEY":" ","HOUSE_NO":"１５２號","E_COORD97":164754.54999999999,"N_COORD97":2543329.0899999999,"ADDRESS":"郡平路１５２號","OBJECTID":574384},"geometry":{"x":164754.55000000168,"y":2543329.0900000017}},{"attributes":{"ID":574412,"DIS_CODE":0,"TOWNNAME":"安平區","LI":"育平里","LIN":"23鄰","STREET":"郡平路","SECT":" ","MAREA":" ","LANE":" ","ALLEY":" ","HOUSE_NO":"１５４號","E_COORD97":164748.92999999999,"N_COORD97":2543327.7999999998,"ADDRESS":"郡平路１５４號","OBJECTID":574385},"geometry":{"x":164748.93000000063,"y":2543327.7999999989}},{"attributes":{"ID":574413,"DIS_CODE":0,"TOWNNAME":"安平區","LI":"育平里","LIN":"23鄰","STREET":"郡平路","SECT":" ","MAREA":" ","LANE":" ","ALLEY":" ","HOUSE_NO":"１５６號","E_COORD97":164742.89000000001,"N_COORD97":2543328.23,"ADDRESS":"郡平路１５６號","OBJECTID":574386},"geometry":{"x":164742.88999999966,"y":2543328.2300000042}},{"attributes":{"ID":574414,"DIS_CODE":0,"TOWNNAME":"安平區","LI":"育平里","LIN":"23鄰","STREET":"郡平路","SECT":" ","MAREA":" ","LANE":" ","ALLEY":" ","HOUSE_NO":"１５８號","E_COORD97":164737.26999999999,"N_COORD97":2543328.9500000002,"ADDRESS":"郡平路１５８號","OBJECTID":574387},"geometry":{"x":164737.26999999955,"y":2543328.950000003}},{"attributes":{"ID":574415,"DIS_CODE":0,"TOWNNAME":"安平區","LI":"育平里","LIN":"23鄰","STREET":"郡平路","SECT":" ","MAREA":" ","LANE":" ","ALLEY":" ","HOUSE_NO":"１６０號","E_COORD97":164731.07999999999,"N_COORD97":2543329.8100000001,"ADDRESS":"郡平路１６０號","OBJECTID":574388},"geometry":{"x":164731.08000000101,"y":2543329.8100000005}},{"attributes":{"ID":574416,"DIS_CODE":0,"TOWNNAME":"安平區","LI":"育平里","LIN":"23鄰","STREET":"郡平路","SECT":" ","MAREA":" ","LANE":" ","ALLEY":" ","HOUSE_NO":"１６２號","E_COORD97":164726.19,"N_COORD97":2543330.8199999998,"ADDRESS":"郡平路１６２號","OBJECTID":574389},"geometry":{"x":164726.19000000134,"y":2543330.820000004}},{"attributes":{"ID":574417,"DIS_CODE":0,"TOWNNAME":"安平區","LI":"育平里","LIN":"23鄰","STREET":"郡平路","SECT":" ","MAREA":" ","LANE":" ","ALLEY":" ","HOUSE_NO":"１６４號","E_COORD97":164721.01000000001,"N_COORD97":2543331.3900000001,"ADDRESS":"郡平路１６４號","OBJECTID":574390},"geometry":{"x":164721.01000000164,"y":2543331.3900000025}},{"attributes":{"ID":574418,"DIS_CODE":0,"TOWNNAME":"安平區","LI":"育平里","LIN":"23鄰","STREET":"郡平路","SECT":" ","MAREA":" ","LANE":" ","ALLEY":" ","HOUSE_NO":"１６６號","E_COORD97":164714.82000000001,"N_COORD97":2543332.54,"ADDRESS":"郡平路１６６號","OBJECTID":574391},"geometry":{"x":164714.82000000123,"y":2543332.540000001}},{"attributes":{"ID":574419,"DIS_CODE":0,"TOWNNAME":"安平區","LI":"育平里","LIN":"23鄰","STREET":"郡平路","SECT":" ","MAREA":" ","LANE":" ","ALLEY":" ","HOUSE_NO":"１６８號","E_COORD97":164703.16,"N_COORD97":2543335.1299999999,"ADDRESS":"郡平路１６８號","OBJECTID":574392},"geometry":{"x":164703.16000000015,"y":2543335.1300000008}},{"attributes":{"ID":574420,"DIS_CODE":0,"TOWNNAME":"安平區","LI":"育平里","LIN":"23鄰","STREET":"郡平路","SECT":" ","MAREA":" ","LANE":" ","ALLEY":" ","HOUSE_NO":"１７０號","E_COORD97":164697.69,"N_COORD97":2543335.5600000001,"ADDRESS":"郡平路１７０號","OBJECTID":574393},"geometry":{"x":164697.69000000041,"y":2543335.5600000005}},{"attributes":{"ID":574421,"DIS_CODE":0,"TOWNNAME":"安平區","LI":"育平里","LIN":"23鄰","STREET":"郡平路","SECT":" ","MAREA":" ","LANE":" ","ALLEY":" ","HOUSE_NO":"１７２號","E_COORD97":164692.79999999999,"N_COORD97":2543335.71,"ADDRESS":"郡平路１７２號","OBJECTID":574394},"geometry":{"x":164692.79999999981,"y":2543335.7100000046}},{"attributes":{"ID":574422,"DIS_CODE":0,"TOWNNAME":"安平區","LI":"育平里","LIN":"23鄰","STREET":"郡平路","SECT":" ","MAREA":" ","LANE":" ","ALLEY":" ","HOUSE_NO":"１７４號","E_COORD97":164687.76000000001,"N_COORD97":2543336.2799999998,"ADDRESS":"郡平路１７４號","OBJECTID":574395},"geometry":{"x":164687.76000000071,"y":2543336.2799999993}},{"attributes":{"ID":574423,"DIS_CODE":0,"TOWNNAME":"安平區","LI":"育平里","LIN":"23鄰","STREET":"郡平路","SECT":" ","MAREA":" ","LANE":" ","ALLEY":" ","HOUSE_NO":"１７６號","E_COORD97":164682.72,"N_COORD97":2543337,"ADDRESS":"郡平路１７６號","OBJECTID":574396},"geometry":{"x":164682.72000000067,"y":2543337.0000000019}},{"attributes":{"ID":574424,"DIS_CODE":0,"TOWNNAME":"安平區","LI":"育平里","LIN":"23鄰","STREET":"郡平路","SECT":" ","MAREA":" ","LANE":" ","ALLEY":" ","HOUSE_NO":"１７８號","E_COORD97":164678.10999999999,"N_COORD97":2543337.7200000002,"ADDRESS":"郡平路１７８號","OBJECTID":574397},"geometry":{"x":164678.11000000034,"y":2543337.7200000007}},{"attributes":{"ID":574425,"DIS_CODE":0,"TOWNNAME":"永康區","LI":"網寮里","LIN":"15鄰","STREET":"永和街","SECT":" ","MAREA":" ","LANE":" ","ALLEY":" ","HOUSE_NO":"２８８號","E_COORD97":173298.26999999999,"N_COORD97":2546609.2400000002,"ADDRESS":"永和街２８８號","OBJECTID":574398},"geometry":{"x":173298.27000000142,"y":2546609.2400000002}},{"attributes":{"ID":574426,"DIS_CODE":0,"TOWNNAME":"永康區","LI":"復國里","LIN":"15鄰","STREET":"復國二路","SECT":" ","MAREA":" ","LANE":" ","ALLEY":" ","HOUSE_NO":"１３７號","E_COORD97":172892.73999999999,"N_COORD97":2545641.27,"ADDRESS":"復國二路１３７號","OBJECTID":574399},"geometry":{"x":172892.74000000115,"y":2545641.2699999996}},{"attributes":{"ID":574427,"DIS_CODE":0,"TOWNNAME":"永康區","LI":"蔦松里","LIN":"1鄰","STREET":"中正北路","SECT":" ","MAREA":" ","LANE":" ","ALLEY":" ","HOUSE_NO":"４７３號","E_COORD97":173723.42999999999,"N_COORD97":2549155.4900000002,"ADDRESS":"中正北路４７３號","OBJECTID":574400},"geometry":{"x":173723.43000000063,"y":2549155.4900000021}}]}