{"displayFieldName":"TOWNNAME","fieldAliases":{"ID":"ID","DIS_CODE":"DIS_CODE","TOWNNAME":"TOWNNAME","LI":"LI","LIN":"LIN","STREET":"STREET","SECT":"SECT","MAREA":"MAREA","LANE":"LANE","ALLEY":"ALLEY","HOUSE_NO":"HOUSE_NO","E_COORD97":"E_COORD97","N_COORD97":"N_COORD97","ADDRESS":"ADDRESS","OBJECTID":"OBJECTID"},"geometryType":"esriGeometryPoint","spatialReference":{"wkid":102443,"latestWkid":3826},"fields":[{"name":"ID","type":"esriFieldTypeDouble","alias":"ID"},{"name":"DIS_CODE","type":"esriFieldTypeInteger","alias":"DIS_CODE"},{"name":"TOWNNAME","type":"esriFieldTypeString","alias":"TOWNNAME","length":8},{"name":"LI","type":"esriFieldTypeString","alias":"LI","length":8},{"name":"LIN","type":"esriFieldTypeString","alias":"LIN","length":12},{"name":"STREET","type":"esriFieldTypeString","alias":"STREET","length":20},{"name":"SECT","type":"esriFieldTypeString","alias":"SECT","length":8},{"name":"MAREA","type":"esriFieldTypeString","alias":"MAREA","length":12},{"name":"LANE","type":"esriFieldTypeString","alias":"LANE","length":10},{"name":"ALLEY","type":"esriFieldTypeString","alias":"ALLEY","length":10},{"name":"HOUSE_NO","type":"esriFieldTypeString","alias":"HOUSE_NO","length":20},{"name":"E_COORD97","type":"esriFieldTypeDouble","alias":"E_COORD97"},{"name":"N_COORD97","type":"esriFieldTypeDouble","alias":"N_COORD97"},{"name":"ADDRESS","type":"esriFieldTypeString","alias":"ADDRESS","length":50},{"name":"OBJECTID","type":"esriFieldTypeOID","alias":"OBJECTID"}],"features":[{"attributes":{"ID":210002,"DIS_CODE":0,"TOWNNAME":"安定區","LI":"安加里","LIN":"2鄰","STREET":" ","SECT":" ","MAREA":"安定","LANE":" ","ALLEY":" ","HOUSE_NO":"１６２之１號","E_COORD97":171972.63918900001,"N_COORD97":2557624.1927,"ADDRESS":"安定１６２之１號","OBJECTID":210001},"geometry":{"x":171972.63918899931,"y":2557624.1927000023}},{"attributes":{"ID":210003,"DIS_CODE":0,"TOWNNAME":"安定區","LI":"六嘉里","LIN":"2鄰","STREET":" ","SECT":" ","MAREA":"六塊寮","LANE":" ","ALLEY":" ","HOUSE_NO":"１２之１１號","E_COORD97":170108.87,"N_COORD97":2553542.2999999998,"ADDRESS":"六塊寮１２之１１號","OBJECTID":210002},"geometry":{"x":170108.87000000011,"y":2553542.3000000007}},{"attributes":{"ID":210004,"DIS_CODE":0,"TOWNNAME":"歸仁區","LI":"沙崙里","LIN":"9鄰","STREET":" ","SECT":" ","MAREA":"沙崙","LANE":" ","ALLEY":" ","HOUSE_NO":"１９１號","E_COORD97":178325.07999999999,"N_COORD97":2536944.25,"ADDRESS":"沙崙１９１號","OBJECTID":210003},"geometry":{"x":178325.08000000101,"y":2536944.2500000019}},{"attributes":{"ID":210005,"DIS_CODE":0,"TOWNNAME":"安定區","LI":"中榮里","LIN":"2鄰","STREET":" ","SECT":" ","MAREA":"許中營","LANE":" ","ALLEY":" ","HOUSE_NO":"２３之５號","E_COORD97":172573.73999999999,"N_COORD97":2554777.2999999998,"ADDRESS":"許中營２３之５號","OBJECTID":210004},"geometry":{"x":172573.74000000209,"y":2554777.3000000045}},{"attributes":{"ID":210006,"DIS_CODE":0,"TOWNNAME":"安定區","LI":"蘇厝里","LIN":"2鄰","STREET":" ","SECT":" ","MAREA":"蘇厝","LANE":" ","ALLEY":" ","HOUSE_NO":"２９３之１１１號","E_COORD97":173353.72,"N_COORD97":2558360.2999999998,"ADDRESS":"蘇厝２９３之１１１號","OBJECTID":210005},"geometry":{"x":173353.72000000067,"y":2558360.3000000007}},{"attributes":{"ID":210007,"DIS_CODE":0,"TOWNNAME":"永康區","LI":"西灣里","LIN":"46鄰","STREET":"永華路","SECT":" ","MAREA":" ","LANE":"２０１巷","ALLEY":"３２弄","HOUSE_NO":"３４號","E_COORD97":174025.51000000001,"N_COORD97":2545699.5800000001,"ADDRESS":"永華路２０１巷３２弄３４號","OBJECTID":210006},"geometry":{"x":174025.50999999978,"y":2545699.5800000019}},{"attributes":{"ID":210008,"DIS_CODE":0,"TOWNNAME":"永康區","LI":"西灣里","LIN":"46鄰","STREET":"永華路","SECT":" ","MAREA":" ","LANE":"２０１巷","ALLEY":"３２弄","HOUSE_NO":"６６號","E_COORD97":173962.04000000001,"N_COORD97":2545716.3199999998,"ADDRESS":"永華路２０１巷３２弄６６號","OBJECTID":210007},"geometry":{"x":173962.04000000097,"y":2545716.3200000003}},{"attributes":{"ID":210009,"DIS_CODE":0,"TOWNNAME":"永康區","LI":"西灣里","LIN":"46鄰","STREET":"永華路","SECT":" ","MAREA":" ","LANE":"２０１巷","ALLEY":"３２弄","HOUSE_NO":"７２號","E_COORD97":173944.60000000001,"N_COORD97":2545731.1400000001,"ADDRESS":"永華路２０１巷３２弄７２號","OBJECTID":210008},"geometry":{"x":173944.59999999963,"y":2545731.1400000006}},{"attributes":{"ID":210010,"DIS_CODE":0,"TOWNNAME":"永康區","LI":"西灣里","LIN":"46鄰","STREET":"永華路","SECT":" ","MAREA":" ","LANE":"２０１巷","ALLEY":"３２弄","HOUSE_NO":"５４號","E_COORD97":173988.64999999999,"N_COORD97":2545703.0699999998,"ADDRESS":"永華路２０１巷３２弄５４號","OBJECTID":210009},"geometry":{"x":173988.6500000013,"y":2545703.0700000022}},{"attributes":{"ID":210011,"DIS_CODE":0,"TOWNNAME":"永康區","LI":"西灣里","LIN":"46鄰","STREET":"永華路","SECT":" ","MAREA":" ","LANE":"２０１巷","ALLEY":"３２弄","HOUSE_NO":"４６號","E_COORD97":174001.20999999999,"N_COORD97":2545692.8300000001,"ADDRESS":"永華路２０１巷３２弄４６號","OBJECTID":210010},"geometry":{"x":174001.21000000089,"y":2545692.8300000001}},{"attributes":{"ID":210012,"DIS_CODE":0,"TOWNNAME":"永康區","LI":"西灣里","LIN":"46鄰","STREET":"永華路","SECT":" ","MAREA":" ","LANE":"２０１巷","ALLEY":"３２弄","HOUSE_NO":"２６號","E_COORD97":174042.19,"N_COORD97":2545703.3300000001,"ADDRESS":"永華路２０１巷３２弄２６號","OBJECTID":210011},"geometry":{"x":174042.19000000227,"y":2545703.3300000001}},{"attributes":{"ID":210013,"DIS_CODE":0,"TOWNNAME":"永康區","LI":"西灣里","LIN":"46鄰","STREET":"永華路","SECT":" ","MAREA":" ","LANE":"２０１巷","ALLEY":"３２弄","HOUSE_NO":"４８號","E_COORD97":173997.51000000001,"N_COORD97":2545691.8300000001,"ADDRESS":"永華路２０１巷３２弄４８號","OBJECTID":210012},"geometry":{"x":173997.51000000071,"y":2545691.8300000019}},{"attributes":{"ID":210014,"DIS_CODE":0,"TOWNNAME":"永康區","LI":"西灣里","LIN":"46鄰","STREET":"永華路","SECT":" ","MAREA":" ","LANE":"２０１巷","ALLEY":"３２弄","HOUSE_NO":"６２號","E_COORD97":173970.89999999999,"N_COORD97":2545712.0699999998,"ADDRESS":"永華路２０１巷３２弄６２號","OBJECTID":210013},"geometry":{"x":173970.90000000037,"y":2545712.0700000003}},{"attributes":{"ID":210015,"DIS_CODE":0,"TOWNNAME":"永康區","LI":"西灣里","LIN":"46鄰","STREET":"永華路","SECT":" ","MAREA":" ","LANE":"２０１巷","ALLEY":"３２弄","HOUSE_NO":"７８號","E_COORD97":173940.81,"N_COORD97":2545744.1400000001,"ADDRESS":"永華路２０１巷３２弄７８號","OBJECTID":210014},"geometry":{"x":173940.81000000052,"y":2545744.1400000025}},{"attributes":{"ID":210016,"DIS_CODE":0,"TOWNNAME":"永康區","LI":"西灣里","LIN":"46鄰","STREET":"永華路","SECT":" ","MAREA":" ","LANE":"２０１巷","ALLEY":"３２弄","HOUSE_NO":"６８號","E_COORD97":173956.84,"N_COORD97":2545721.3199999998,"ADDRESS":"永華路２０１巷３２弄６８號","OBJECTID":210015},"geometry":{"x":173956.83999999985,"y":2545721.3200000022}},{"attributes":{"ID":210017,"DIS_CODE":0,"TOWNNAME":"永康區","LI":"西灣里","LIN":"46鄰","STREET":"永華路","SECT":" ","MAREA":" ","LANE":"２０１巷","ALLEY":"３２弄","HOUSE_NO":"８０號","E_COORD97":173939.60000000001,"N_COORD97":2545748.1400000001,"ADDRESS":"永華路２０１巷３２弄８０號","OBJECTID":210016},"geometry":{"x":173939.59999999963,"y":2545748.1400000006}},{"attributes":{"ID":210018,"DIS_CODE":0,"TOWNNAME":"永康區","LI":"西灣里","LIN":"46鄰","STREET":"永華路","SECT":" ","MAREA":" ","LANE":"２０１巷","ALLEY":"３２弄","HOUSE_NO":"７０號","E_COORD97":173945.70000000001,"N_COORD97":2545727.3999999999,"ADDRESS":"永華路２０１巷３２弄７０號","OBJECTID":210017},"geometry":{"x":173945.70000000112,"y":2545727.4000000041}},{"attributes":{"ID":210019,"DIS_CODE":0,"TOWNNAME":"永康區","LI":"西灣里","LIN":"46鄰","STREET":"永華路","SECT":" ","MAREA":" ","LANE":"２０１巷","ALLEY":"３２弄","HOUSE_NO":"３８號","E_COORD97":174017.26000000001,"N_COORD97":2545697.5800000001,"ADDRESS":"永華路２０１巷３２弄３８號","OBJECTID":210018},"geometry":{"x":174017.26000000164,"y":2545697.5800000001}},{"attributes":{"ID":210020,"DIS_CODE":0,"TOWNNAME":"永康區","LI":"西灣里","LIN":"46鄰","STREET":"永華路","SECT":" ","MAREA":" ","LANE":"２０１巷","ALLEY":"３２弄","HOUSE_NO":"８２號","E_COORD97":173930.92999999999,"N_COORD97":2545744.9300000002,"ADDRESS":"永華路２０１巷３２弄８２號","OBJECTID":210019},"geometry":{"x":173930.9299999997,"y":2545744.9300000016}},{"attributes":{"ID":210021,"DIS_CODE":0,"TOWNNAME":"永康區","LI":"西灣里","LIN":"46鄰","STREET":"永華路","SECT":" ","MAREA":" ","LANE":"２０１巷","ALLEY":"３２弄","HOUSE_NO":"６０號","E_COORD97":173975.54000000001,"N_COORD97":2545709.5699999998,"ADDRESS":"永華路２０１巷３２弄６０號","OBJECTID":210020},"geometry":{"x":173975.54000000097,"y":2545709.5700000022}},{"attributes":{"ID":210022,"DIS_CODE":0,"TOWNNAME":"永康區","LI":"西灣里","LIN":"46鄰","STREET":"永華路","SECT":" ","MAREA":" ","LANE":"２０１巷","ALLEY":"３２弄","HOUSE_NO":"９０號","E_COORD97":173936.42999999999,"N_COORD97":2545726.6899999999,"ADDRESS":"永華路２０１巷３２弄９０號","OBJECTID":210021},"geometry":{"x":173936.43000000156,"y":2545726.6899999995}},{"attributes":{"ID":210023,"DIS_CODE":0,"TOWNNAME":"永康區","LI":"西灣里","LIN":"46鄰","STREET":"永華路","SECT":" ","MAREA":" ","LANE":"２０１巷","ALLEY":"３２弄","HOUSE_NO":"７４號","E_COORD97":173943.38,"N_COORD97":2545735.6400000001,"ADDRESS":"永華路２０１巷３２弄７４號","OBJECTID":210022},"geometry":{"x":173943.37999999989,"y":2545735.6400000006}},{"attributes":{"ID":210024,"DIS_CODE":0,"TOWNNAME":"仁德區","LI":"仁義里","LIN":"46鄰","STREET":"仁義路","SECT":" ","MAREA":" ","LANE":"９８巷","ALLEY":"２７弄","HOUSE_NO":"４號","E_COORD97":173643.60000000001,"N_COORD97":2540870.5299999998,"ADDRESS":"仁義路９８巷２７弄４號","OBJECTID":210023},"geometry":{"x":173643.60000000149,"y":2540870.5300000031}},{"attributes":{"ID":210025,"DIS_CODE":0,"TOWNNAME":"仁德區","LI":"仁義里","LIN":"46鄰","STREET":"仁義路","SECT":" ","MAREA":" ","LANE":"９８巷","ALLEY":"１３弄","HOUSE_NO":"９號","E_COORD97":173659.95999999999,"N_COORD97":2540929.54,"ADDRESS":"仁義路９８巷１３弄９號","OBJECTID":210024},"geometry":{"x":173659.95999999996,"y":2540929.5399999991}},{"attributes":{"ID":210026,"DIS_CODE":0,"TOWNNAME":"仁德區","LI":"仁義里","LIN":"46鄰","STREET":"仁義路","SECT":" ","MAREA":" ","LANE":"９８巷","ALLEY":"１３弄","HOUSE_NO":"４號","E_COORD97":173649.67999999999,"N_COORD97":2540910.5299999998,"ADDRESS":"仁義路９８巷１３弄４號","OBJECTID":210025},"geometry":{"x":173649.6799999997,"y":2540910.5299999993}},{"attributes":{"ID":210027,"DIS_CODE":0,"TOWNNAME":"仁德區","LI":"仁義里","LIN":"46鄰","STREET":"仁義路","SECT":" ","MAREA":" ","LANE":"９８巷","ALLEY":"１３弄","HOUSE_NO":"６號","E_COORD97":173655.04000000001,"N_COORD97":2540910.2799999998,"ADDRESS":"仁義路９８巷１３弄６號","OBJECTID":210026},"geometry":{"x":173655.04000000097,"y":2540910.2800000012}},{"attributes":{"ID":210028,"DIS_CODE":0,"TOWNNAME":"仁德區","LI":"太子里","LIN":"46鄰","STREET":"太子一街","SECT":" ","MAREA":" ","LANE":"４３巷","ALLEY":"１０弄","HOUSE_NO":"６號","E_COORD97":174771.87,"N_COORD97":2543311.1299999999,"ADDRESS":"太子一街４３巷１０弄６號","OBJECTID":210027},"geometry":{"x":174771.87000000104,"y":2543311.1300000008}},{"attributes":{"ID":210029,"DIS_CODE":0,"TOWNNAME":"新市區","LI":"新和里","LIN":"46鄰","STREET":"和平街","SECT":" ","MAREA":" ","LANE":"２０８巷","ALLEY":"１３弄","HOUSE_NO":"３號","E_COORD97":177340.78,"N_COORD97":2553275,"ADDRESS":"和平街２０８巷１３弄３號","OBJECTID":210028},"geometry":{"x":177340.78000000119,"y":2553275}},{"attributes":{"ID":210030,"DIS_CODE":0,"TOWNNAME":"仁德區","LI":"仁義里","LIN":"46鄰","STREET":"仁義路","SECT":" ","MAREA":" ","LANE":"９８巷","ALLEY":"１３弄","HOUSE_NO":"１０號","E_COORD97":173666.22,"N_COORD97":2540909.5299999998,"ADDRESS":"仁義路９８巷１３弄１０號","OBJECTID":210029},"geometry":{"x":173666.21999999974,"y":2540909.5299999993}},{"attributes":{"ID":210031,"DIS_CODE":0,"TOWNNAME":"仁德區","LI":"太子里","LIN":"46鄰","STREET":"太子一街","SECT":" ","MAREA":" ","LANE":"４３巷","ALLEY":"１０弄","HOUSE_NO":"５號","E_COORD97":174798.79000000001,"N_COORD97":2543287.0800000001,"ADDRESS":"太子一街４３巷１０弄５號","OBJECTID":210030},"geometry":{"x":174798.78999999911,"y":2543287.0800000001}},{"attributes":{"ID":210032,"DIS_CODE":0,"TOWNNAME":"仁德區","LI":"太子里","LIN":"46鄰","STREET":"太子一街","SECT":" ","MAREA":" ","LANE":"２７巷","ALLEY":"１６弄","HOUSE_NO":"２號","E_COORD97":174854.95000000001,"N_COORD97":2543321.0099999998,"ADDRESS":"太子一街２７巷１６弄２號","OBJECTID":210031},"geometry":{"x":174854.95000000019,"y":2543321.0099999998}},{"attributes":{"ID":210033,"DIS_CODE":0,"TOWNNAME":"仁德區","LI":"太子里","LIN":"46鄰","STREET":"太子一街","SECT":" ","MAREA":" ","LANE":"４３巷","ALLEY":"１０弄","HOUSE_NO":"３號","E_COORD97":174795.26000000001,"N_COORD97":2543289.3300000001,"ADDRESS":"太子一街４３巷１０弄３號","OBJECTID":210032},"geometry":{"x":174795.25999999978,"y":2543289.3300000001}},{"attributes":{"ID":210034,"DIS_CODE":0,"TOWNNAME":"安定區","LI":"大同里","LIN":"2鄰","STREET":" ","SECT":" ","MAREA":"大同","LANE":" ","ALLEY":" ","HOUSE_NO":"２３號","E_COORD97":170507.07000000001,"N_COORD97":2553902.25,"ADDRESS":"大同２３號","OBJECTID":210033},"geometry":{"x":170507.07000000123,"y":2553902.2500000037}},{"attributes":{"ID":210035,"DIS_CODE":0,"TOWNNAME":"安定區","LI":"中沙里","LIN":"2鄰","STREET":" ","SECT":" ","MAREA":"中崙","LANE":" ","ALLEY":" ","HOUSE_NO":"８７號之６","E_COORD97":168924.60000000001,"N_COORD97":2553275.2999999998,"ADDRESS":"中崙８７號之６","OBJECTID":210034},"geometry":{"x":168924.60000000056,"y":2553275.3000000045}},{"attributes":{"ID":210036,"DIS_CODE":0,"TOWNNAME":"安定區","LI":"大同里","LIN":"2鄰","STREET":" ","SECT":" ","MAREA":"大同","LANE":" ","ALLEY":" ","HOUSE_NO":"２１號","E_COORD97":170483.17000000001,"N_COORD97":2553885.25,"ADDRESS":"大同２１號","OBJECTID":210035},"geometry":{"x":170483.16999999993,"y":2553885.2500000037}},{"attributes":{"ID":210037,"DIS_CODE":0,"TOWNNAME":"安定區","LI":"港尾里","LIN":"2鄰","STREET":" ","SECT":" ","MAREA":"下洲子","LANE":" ","ALLEY":" ","HOUSE_NO":"１７之８號","E_COORD97":172381.69,"N_COORD97":2556670.29,"ADDRESS":"下洲子１７之８號","OBJECTID":210036},"geometry":{"x":172381.69000000134,"y":2556670.2899999991}},{"attributes":{"ID":210038,"DIS_CODE":0,"TOWNNAME":"安定區","LI":"大同里","LIN":"2鄰","STREET":" ","SECT":" ","MAREA":"大同","LANE":" ","ALLEY":" ","HOUSE_NO":"１５號","E_COORD97":170511.17000000001,"N_COORD97":2553872.25,"ADDRESS":"大同１５號","OBJECTID":210037},"geometry":{"x":170511.17000000086,"y":2553872.2500000019}},{"attributes":{"ID":210039,"DIS_CODE":0,"TOWNNAME":"安定區","LI":"大同里","LIN":"2鄰","STREET":" ","SECT":" ","MAREA":"大同","LANE":" ","ALLEY":" ","HOUSE_NO":"２２號","E_COORD97":170492.17000000001,"N_COORD97":2553898.25,"ADDRESS":"大同２２號","OBJECTID":210038},"geometry":{"x":170492.17000000179,"y":2553898.25}},{"attributes":{"ID":210040,"DIS_CODE":0,"TOWNNAME":"安定區","LI":"港尾里","LIN":"2鄰","STREET":" ","SECT":" ","MAREA":"下洲子","LANE":" ","ALLEY":" ","HOUSE_NO":"１７之１７號","E_COORD97":172388.64000000001,"N_COORD97":2556637.2999999998,"ADDRESS":"下洲子１７之１７號","OBJECTID":210039},"geometry":{"x":172388.63999999966,"y":2556637.3000000007}},{"attributes":{"ID":210041,"DIS_CODE":0,"TOWNNAME":"安定區","LI":"大同里","LIN":"2鄰","STREET":" ","SECT":" ","MAREA":"大同","LANE":" ","ALLEY":" ","HOUSE_NO":"１６號","E_COORD97":170503.536831,"N_COORD97":2553866.7313600001,"ADDRESS":"大同１６號","OBJECTID":210040},"geometry":{"x":170503.53683100082,"y":2553866.731364999}},{"attributes":{"ID":210042,"DIS_CODE":0,"TOWNNAME":"安定區","LI":"港口里","LIN":"2鄰","STREET":" ","SECT":" ","MAREA":"港口","LANE":" ","ALLEY":" ","HOUSE_NO":"２５１號之６","E_COORD97":171736.92999999999,"N_COORD97":2554840.2999999998,"ADDRESS":"港口２５１號之６","OBJECTID":210041},"geometry":{"x":171736.9299999997,"y":2554840.3000000007}},{"attributes":{"ID":210043,"DIS_CODE":0,"TOWNNAME":"仁德區","LI":"太子里","LIN":"46鄰","STREET":"太子一街","SECT":" ","MAREA":" ","LANE":"４３巷","ALLEY":"１０弄","HOUSE_NO":"１２號","E_COORD97":174774.23000000001,"N_COORD97":2543298.6299999999,"ADDRESS":"太子一街４３巷１０弄１２號","OBJECTID":210042},"geometry":{"x":174774.23000000231,"y":2543298.629999999}},{"attributes":{"ID":210044,"DIS_CODE":0,"TOWNNAME":"仁德區","LI":"成功里","LIN":"46鄰","STREET":"文賢路","SECT":"一段","MAREA":" ","LANE":"８１巷","ALLEY":"５９弄","HOUSE_NO":"７號","E_COORD97":170255.26999999999,"N_COORD97":2538277.8199999998,"ADDRESS":"文賢路一段８１巷５９弄７號","OBJECTID":210043},"geometry":{"x":170255.26999999862,"y":2538277.8200000003}},{"attributes":{"ID":210045,"DIS_CODE":0,"TOWNNAME":"仁德區","LI":"成功里","LIN":"46鄰","STREET":"文賢路","SECT":"一段","MAREA":" ","LANE":"８１巷","ALLEY":"５９弄","HOUSE_NO":"６號","E_COORD97":170260.34,"N_COORD97":2538300.3199999998,"ADDRESS":"文賢路一段８１巷５９弄６號","OBJECTID":210044},"geometry":{"x":170260.34000000171,"y":2538300.3200000022}},{"attributes":{"ID":210046,"DIS_CODE":0,"TOWNNAME":"仁德區","LI":"成功里","LIN":"46鄰","STREET":"文賢路","SECT":"一段","MAREA":" ","LANE":"８１巷","ALLEY":"５９弄","HOUSE_NO":"１１號","E_COORD97":170251.72,"N_COORD97":2538284.8199999998,"ADDRESS":"文賢路一段８１巷５９弄１１號","OBJECTID":210045},"geometry":{"x":170251.71999999974,"y":2538284.8200000003}},{"attributes":{"ID":210047,"DIS_CODE":0,"TOWNNAME":"歸仁區","LI":"後市里","LIN":"46鄰","STREET":"文化街","SECT":"二段","MAREA":" ","LANE":"１２１巷","ALLEY":"７弄","HOUSE_NO":"１２號","E_COORD97":177204.19,"N_COORD97":2541127.7599999998,"ADDRESS":"文化街二段１２１巷７弄１２號","OBJECTID":210046},"geometry":{"x":177204.19000000134,"y":2541127.7600000016}},{"attributes":{"ID":210048,"DIS_CODE":0,"TOWNNAME":"歸仁區","LI":"後市里","LIN":"46鄰","STREET":"文化街","SECT":"二段","MAREA":" ","LANE":"１２１巷","ALLEY":"７弄","HOUSE_NO":"２號","E_COORD97":177189.54000000001,"N_COORD97":2541130.7599999998,"ADDRESS":"文化街二段１２１巷７弄２號","OBJECTID":210047},"geometry":{"x":177189.54000000097,"y":2541130.7600000016}},{"attributes":{"ID":210049,"DIS_CODE":0,"TOWNNAME":"歸仁區","LI":"南保里","LIN":"46鄰","STREET":"民權十街","SECT":" ","MAREA":" ","LANE":"６３巷","ALLEY":"１７弄","HOUSE_NO":"１０號","E_COORD97":176789.95999999999,"N_COORD97":2540659.2999999998,"ADDRESS":"民權十街６３巷１７弄１０號","OBJECTID":210048},"geometry":{"x":176789.96000000089,"y":2540659.3000000007}},{"attributes":{"ID":210050,"DIS_CODE":0,"TOWNNAME":"南區","LI":"大成里","LIN":"7鄰","STREET":"健康路","SECT":"一段","MAREA":" ","LANE":"３９１巷","ALLEY":"２３弄","HOUSE_NO":"８號","E_COORD97":167949.03,"N_COORD97":2542318.8900000001,"ADDRESS":"健康路一段３９１巷２３弄８號","OBJECTID":210049},"geometry":{"x":167949.03000000212,"y":2542318.8900000006}},{"attributes":{"ID":210051,"DIS_CODE":0,"TOWNNAME":"永康區","LI":"成功里","LIN":"43鄰","STREET":"忠孝路","SECT":" ","MAREA":" ","LANE":"２３９巷","ALLEY":"９弄","HOUSE_NO":"４９號","E_COORD97":171939.23000000001,"N_COORD97":2544969.8599999999,"ADDRESS":"忠孝路２３９巷９弄４９號","OBJECTID":210050},"geometry":{"x":171939.23000000045,"y":2544969.8599999994}},{"attributes":{"ID":210052,"DIS_CODE":0,"TOWNNAME":"永康區","LI":"成功里","LIN":"43鄰","STREET":"忠孝路","SECT":" ","MAREA":" ","LANE":"２３９巷","ALLEY":"９弄","HOUSE_NO":"４３號","E_COORD97":171952.51999999999,"N_COORD97":2544970.8300000001,"ADDRESS":"忠孝路２３９巷９弄４３號","OBJECTID":210051},"geometry":{"x":171952.52000000048,"y":2544970.8300000001}},{"attributes":{"ID":210053,"DIS_CODE":0,"TOWNNAME":"永康區","LI":"成功里","LIN":"43鄰","STREET":"忠孝路","SECT":" ","MAREA":" ","LANE":"２３９巷","ALLEY":"９弄","HOUSE_NO":"４１號","E_COORD97":171957.48999999999,"N_COORD97":2544971.4199999999,"ADDRESS":"忠孝路２３９巷９弄４１號","OBJECTID":210052},"geometry":{"x":171957.49000000022,"y":2544971.4200000018}},{"attributes":{"ID":210054,"DIS_CODE":0,"TOWNNAME":"永康區","LI":"成功里","LIN":"43鄰","STREET":"忠孝路","SECT":" ","MAREA":" ","LANE":"２３９巷","ALLEY":"９弄","HOUSE_NO":"５５號","E_COORD97":171917.87,"N_COORD97":2544967.8199999998,"ADDRESS":"忠孝路２３９巷９弄５５號","OBJECTID":210053},"geometry":{"x":171917.87000000011,"y":2544967.8200000003}},{"attributes":{"ID":210055,"DIS_CODE":0,"TOWNNAME":"永康區","LI":"成功里","LIN":"43鄰","STREET":"忠孝路","SECT":" ","MAREA":" ","LANE":"２３９巷","ALLEY":"９弄","HOUSE_NO":"５３號","E_COORD97":171930,"N_COORD97":2544969.3599999999,"ADDRESS":"忠孝路２３９巷９弄５３號","OBJECTID":210054},"geometry":{"x":171930.00000000093,"y":2544969.3599999994}},{"attributes":{"ID":210056,"DIS_CODE":0,"TOWNNAME":"仁德區","LI":"仁德里","LIN":"43鄰","STREET":"中山路","SECT":" ","MAREA":" ","LANE":"９１０巷","ALLEY":"２２弄","HOUSE_NO":"７號","E_COORD97":172031.45000000001,"N_COORD97":2541796.4900000002,"ADDRESS":"中山路９１０巷２２弄７號","OBJECTID":210055},"geometry":{"x":172031.45000000205,"y":2541796.4900000002}},{"attributes":{"ID":210057,"DIS_CODE":0,"TOWNNAME":"鹽水區","LI":"橋南里","LIN":"15鄰","STREET":"月津路","SECT":" ","MAREA":" ","LANE":" ","ALLEY":" ","HOUSE_NO":"６號","E_COORD97":174997.82000000001,"N_COORD97":2579534.46,"ADDRESS":"月津路６號","OBJECTID":210056},"geometry":{"x":174997.82000000123,"y":2579534.4600000028}},{"attributes":{"ID":210058,"DIS_CODE":0,"TOWNNAME":"關廟區","LI":"山西里","LIN":"15鄰","STREET":"忠孝街","SECT":" ","MAREA":" ","LANE":" ","ALLEY":" ","HOUSE_NO":"１４１號","E_COORD97":181059.44,"N_COORD97":2540430.25,"ADDRESS":"忠孝街１４１號","OBJECTID":210057},"geometry":{"x":181059.44000000134,"y":2540430.2500000019}},{"attributes":{"ID":210059,"DIS_CODE":0,"TOWNNAME":"關廟區","LI":"五甲里","LIN":"15鄰","STREET":"東興一街","SECT":" ","MAREA":" ","LANE":" ","ALLEY":" ","HOUSE_NO":"６６號","E_COORD97":181265.17000000001,"N_COORD97":2539474.25,"ADDRESS":"東興一街６６號","OBJECTID":210058},"geometry":{"x":181265.17000000086,"y":2539474.2500000019}},{"attributes":{"ID":210060,"DIS_CODE":0,"TOWNNAME":"關廟區","LI":"香洋里","LIN":"15鄰","STREET":"中央路","SECT":" ","MAREA":" ","LANE":" ","ALLEY":" ","HOUSE_NO":"１５２號","E_COORD97":181401.35999999999,"N_COORD97":2540020.3199999998,"ADDRESS":"中央路１５２號","OBJECTID":210059},"geometry":{"x":181401.3599999994,"y":2540020.3200000003}},{"attributes":{"ID":210061,"DIS_CODE":0,"TOWNNAME":"關廟區","LI":"松腳里","LIN":"15鄰","STREET":"和平路","SECT":" ","MAREA":" ","LANE":" ","ALLEY":" ","HOUSE_NO":"１６９號","E_COORD97":181685.54000000001,"N_COORD97":2539729.25,"ADDRESS":"和平路１６９號","OBJECTID":210060},"geometry":{"x":181685.54000000097,"y":2539729.25}},{"attributes":{"ID":210062,"DIS_CODE":0,"TOWNNAME":"關廟區","LI":"山西里","LIN":"15鄰","STREET":"忠孝街","SECT":" ","MAREA":" ","LANE":" ","ALLEY":" ","HOUSE_NO":"１４３號","E_COORD97":181061.73999999999,"N_COORD97":2540433.25,"ADDRESS":"忠孝街１４３號","OBJECTID":210061},"geometry":{"x":181061.74000000115,"y":2540433.2500000019}},{"attributes":{"ID":210063,"DIS_CODE":0,"TOWNNAME":"關廟區","LI":"山西里","LIN":"15鄰","STREET":"忠孝街","SECT":" ","MAREA":" ","LANE":" ","ALLEY":" ","HOUSE_NO":"１３９號","E_COORD97":181057.94,"N_COORD97":2540426.25,"ADDRESS":"忠孝街１３９號","OBJECTID":210062},"geometry":{"x":181057.94000000041,"y":2540426.2500000019}},{"attributes":{"ID":210064,"DIS_CODE":0,"TOWNNAME":"關廟區","LI":"五甲里","LIN":"15鄰","STREET":"東興一街","SECT":" ","MAREA":" ","LANE":" ","ALLEY":" ","HOUSE_NO":"７８號","E_COORD97":181272.87,"N_COORD97":2539455.25,"ADDRESS":"東興一街７８號","OBJECTID":210063},"geometry":{"x":181272.87000000104,"y":2539455.25}},{"attributes":{"ID":210065,"DIS_CODE":0,"TOWNNAME":"關廟區","LI":"松腳里","LIN":"15鄰","STREET":"民權街","SECT":" ","MAREA":" ","LANE":" ","ALLEY":" ","HOUSE_NO":"１２號","E_COORD97":181660.04000000001,"N_COORD97":2539722.29,"ADDRESS":"民權街１２號","OBJECTID":210064},"geometry":{"x":181660.04000000097,"y":2539722.2900000028}},{"attributes":{"ID":210066,"DIS_CODE":0,"TOWNNAME":"關廟區","LI":"五甲里","LIN":"15鄰","STREET":"東興二街","SECT":" ","MAREA":" ","LANE":" ","ALLEY":" ","HOUSE_NO":"６２號","E_COORD97":181313.57000000001,"N_COORD97":2539499.25,"ADDRESS":"東興二街６２號","OBJECTID":210065},"geometry":{"x":181313.57000000216,"y":2539499.25}},{"attributes":{"ID":210067,"DIS_CODE":0,"TOWNNAME":"仁德區","LI":"仁德里","LIN":"43鄰","STREET":"中山路","SECT":" ","MAREA":" ","LANE":"９１０巷","ALLEY":"２２弄","HOUSE_NO":"１３號","E_COORD97":172047.45999999999,"N_COORD97":2541798.9900000002,"ADDRESS":"中山路９１０巷２２弄１３號","OBJECTID":210066},"geometry":{"x":172047.45999999996,"y":2541798.9900000002}},{"attributes":{"ID":210068,"DIS_CODE":0,"TOWNNAME":"關廟區","LI":"山西里","LIN":"9鄰","STREET":"文衡路","SECT":" ","MAREA":" ","LANE":" ","ALLEY":" ","HOUSE_NO":"２０７號","E_COORD97":180892.44,"N_COORD97":2540721.3300000001,"ADDRESS":"文衡路２０７號","OBJECTID":210067},"geometry":{"x":180892.44000000227,"y":2540721.3300000019}},{"attributes":{"ID":210069,"DIS_CODE":0,"TOWNNAME":"仁德區","LI":"仁德里","LIN":"43鄰","STREET":"中山路","SECT":" ","MAREA":" ","LANE":"９１０巷","ALLEY":"１１弄","HOUSE_NO":"１４號","E_COORD97":171977.35000000001,"N_COORD97":2541763.5,"ADDRESS":"中山路９１０巷１１弄１４號","OBJECTID":210068},"geometry":{"x":171977.35000000149,"y":2541763.5000000019}},{"attributes":{"ID":210070,"DIS_CODE":0,"TOWNNAME":"仁德區","LI":"成功里","LIN":"43鄰","STREET":"虎山一街","SECT":" ","MAREA":" ","LANE":"９巷","ALLEY":"１弄","HOUSE_NO":"１１號","E_COORD97":170957.85000000001,"N_COORD97":2538010.2599999998,"ADDRESS":"虎山一街９巷１弄１１號","OBJECTID":210069},"geometry":{"x":170957.84999999963,"y":2538010.2599999998}},{"attributes":{"ID":210071,"DIS_CODE":0,"TOWNNAME":"仁德區","LI":"仁德里","LIN":"43鄰","STREET":"中山路","SECT":" ","MAREA":" ","LANE":"９１０巷","ALLEY":"２２弄","HOUSE_NO":"１８號","E_COORD97":172058.70000000001,"N_COORD97":2541792,"ADDRESS":"中山路９１０巷２２弄１８號","OBJECTID":210070},"geometry":{"x":172058.70000000112,"y":2541792}},{"attributes":{"ID":210072,"DIS_CODE":0,"TOWNNAME":"仁德區","LI":"仁義里","LIN":"43鄰","STREET":"中正路","SECT":"二段","MAREA":" ","LANE":"１０３４巷","ALLEY":"２２弄","HOUSE_NO":"９號","E_COORD97":173503.23000000001,"N_COORD97":2540859.0299999998,"ADDRESS":"中正路二段１０３４巷２２弄９號","OBJECTID":210071},"geometry":{"x":173503.23000000138,"y":2540859.0299999993}},{"attributes":{"ID":210073,"DIS_CODE":0,"TOWNNAME":"仁德區","LI":"仁義里","LIN":"43鄰","STREET":"中正路","SECT":"二段","MAREA":" ","LANE":"１０３４巷","ALLEY":"２２弄","HOUSE_NO":"２７號","E_COORD97":173469.48999999999,"N_COORD97":2540841.6699999999,"ADDRESS":"中正路二段１０３４巷２２弄２７號","OBJECTID":210072},"geometry":{"x":173469.49000000115,"y":2540841.6699999999}},{"attributes":{"ID":210074,"DIS_CODE":0,"TOWNNAME":"仁德區","LI":"仁德里","LIN":"43鄰","STREET":"中山路","SECT":" ","MAREA":" ","LANE":"９１０巷","ALLEY":"１３弄","HOUSE_NO":"６號","E_COORD97":171994.60000000001,"N_COORD97":2541790.5,"ADDRESS":"中山路９１０巷１３弄６號","OBJECTID":210073},"geometry":{"x":171994.60000000056,"y":2541790.5000000019}},{"attributes":{"ID":210075,"DIS_CODE":0,"TOWNNAME":"仁德區","LI":"仁德里","LIN":"43鄰","STREET":"中山路","SECT":" ","MAREA":" ","LANE":"９１０巷","ALLEY":"２０弄","HOUSE_NO":"１９號","E_COORD97":172071.70000000001,"N_COORD97":2541737.9900000002,"ADDRESS":"中山路９１０巷２０弄１９號","OBJECTID":210074},"geometry":{"x":172071.70000000019,"y":2541737.9900000002}},{"attributes":{"ID":210076,"DIS_CODE":0,"TOWNNAME":"永康區","LI":"崑山里","LIN":"43鄰","STREET":"大灣路","SECT":" ","MAREA":" ","LANE":"９４２巷","ALLEY":"３７１弄","HOUSE_NO":"６８號","E_COORD97":173687.10000000001,"N_COORD97":2545270.9100000001,"ADDRESS":"大灣路９４２巷３７１弄６８號","OBJECTID":210075},"geometry":{"x":173687.09999999963,"y":2545270.910000002}},{"attributes":{"ID":210077,"DIS_CODE":0,"TOWNNAME":"永康區","LI":"西灣里","LIN":"43鄰","STREET":"大灣路","SECT":" ","MAREA":" ","LANE":"９４２巷","ALLEY":"３８８弄","HOUSE_NO":"２４號","E_COORD97":174023.07999999999,"N_COORD97":2545453.0600000001,"ADDRESS":"大灣路９４２巷３８８弄２４號","OBJECTID":210076},"geometry":{"x":174023.08000000101,"y":2545453.0600000024}},{"attributes":{"ID":210078,"DIS_CODE":0,"TOWNNAME":"永康區","LI":"西灣里","LIN":"43鄰","STREET":"大灣路","SECT":" ","MAREA":" ","LANE":"９４２巷","ALLEY":"３７４弄","HOUSE_NO":"４３號","E_COORD97":174039.35999999999,"N_COORD97":2545408.0499999998,"ADDRESS":"大灣路９４２巷３７４弄４３號","OBJECTID":210077},"geometry":{"x":174039.3600000022,"y":2545408.0500000045}},{"attributes":{"ID":210079,"DIS_CODE":0,"TOWNNAME":"永康區","LI":"崑山里","LIN":"43鄰","STREET":"大灣路","SECT":" ","MAREA":" ","LANE":"９４２巷","ALLEY":"３７１弄","HOUSE_NO":"３號","E_COORD97":173818.35999999999,"N_COORD97":2545158.8300000001,"ADDRESS":"大灣路９４２巷３７１弄３號","OBJECTID":210078},"geometry":{"x":173818.36000000034,"y":2545158.8300000019}},{"attributes":{"ID":210080,"DIS_CODE":0,"TOWNNAME":"永康區","LI":"崑山里","LIN":"43鄰","STREET":"大灣路","SECT":" ","MAREA":" ","LANE":"９４２巷","ALLEY":"３７１弄","HOUSE_NO":"２７號","E_COORD97":173789.39000000001,"N_COORD97":2545183.1899999999,"ADDRESS":"大灣路９４２巷３７１弄２７號","OBJECTID":210079},"geometry":{"x":173789.3900000006,"y":2545183.1900000013}},{"attributes":{"ID":210081,"DIS_CODE":0,"TOWNNAME":"永康區","LI":"崑山里","LIN":"43鄰","STREET":"大灣路","SECT":" ","MAREA":" ","LANE":"９４２巷","ALLEY":"３７１弄","HOUSE_NO":"１６號","E_COORD97":173800.51999999999,"N_COORD97":2545214.8999999999,"ADDRESS":"大灣路９４２巷３７１弄１６號","OBJECTID":210080},"geometry":{"x":173800.52000000048,"y":2545214.9000000004}},{"attributes":{"ID":210082,"DIS_CODE":0,"TOWNNAME":"永康區","LI":"崑山里","LIN":"43鄰","STREET":"大灣路","SECT":" ","MAREA":" ","LANE":"９４２巷","ALLEY":"３７１弄","HOUSE_NO":"２３６號","E_COORD97":173052.47,"N_COORD97":2545467.6299999999,"ADDRESS":"大灣路９４２巷３７１弄２３６號","OBJECTID":210081},"geometry":{"x":173052.46999999974,"y":2545467.6300000008}},{"attributes":{"ID":210083,"DIS_CODE":0,"TOWNNAME":"永康區","LI":"南灣里","LIN":"43鄰","STREET":"大灣路","SECT":" ","MAREA":" ","LANE":"５３７巷","ALLEY":"１４弄","HOUSE_NO":"３號","E_COORD97":174472.48999999999,"N_COORD97":2544475.5,"ADDRESS":"大灣路５３７巷１４弄３號","OBJECTID":210082},"geometry":{"x":174472.49000000115,"y":2544475.5000000019}},{"attributes":{"ID":210084,"DIS_CODE":0,"TOWNNAME":"永康區","LI":"南灣里","LIN":"43鄰","STREET":"南興路","SECT":" ","MAREA":" ","LANE":"１１２巷","ALLEY":"１０弄","HOUSE_NO":"５號","E_COORD97":174410.23999999999,"N_COORD97":2544446.54,"ADDRESS":"南興路１１２巷１０弄５號","OBJECTID":210083},"geometry":{"x":174410.24000000115,"y":2544446.5399999991}},{"attributes":{"ID":210085,"DIS_CODE":0,"TOWNNAME":"白河區","LI":"庄內里","LIN":"4鄰","STREET":"新興路","SECT":" ","MAREA":" ","LANE":" ","ALLEY":" ","HOUSE_NO":"３２８號","E_COORD97":190873.42999999999,"N_COORD97":2583415.3500000001,"ADDRESS":"新興路３２８號","OBJECTID":210084},"geometry":{"x":190873.43000000063,"y":2583415.3500000015}},{"attributes":{"ID":210086,"DIS_CODE":0,"TOWNNAME":"白河區","LI":"庄內里","LIN":"4鄰","STREET":"新興路","SECT":" ","MAREA":" ","LANE":" ","ALLEY":" ","HOUSE_NO":"３３０號","E_COORD97":190869.01999999999,"N_COORD97":2583416.04,"ADDRESS":"新興路３３０號","OBJECTID":210085},"geometry":{"x":190869.02000000142,"y":2583416.0400000028}},{"attributes":{"ID":210087,"DIS_CODE":0,"TOWNNAME":"白河區","LI":"庄內里","LIN":"4鄰","STREET":"新興路","SECT":" ","MAREA":" ","LANE":" ","ALLEY":" ","HOUSE_NO":"３３２號","E_COORD97":190865,"N_COORD97":2583416.8500000001,"ADDRESS":"新興路３３２號","OBJECTID":210086},"geometry":{"x":190865.00000000093,"y":2583416.8499999996}},{"attributes":{"ID":210088,"DIS_CODE":0,"TOWNNAME":"白河區","LI":"庄內里","LIN":"4鄰","STREET":"新興路","SECT":" ","MAREA":" ","LANE":" ","ALLEY":" ","HOUSE_NO":"３３４號","E_COORD97":190860.45000000001,"N_COORD97":2583417.8300000001,"ADDRESS":"新興路３３４號","OBJECTID":210087},"geometry":{"x":190860.45000000112,"y":2583417.8300000001}},{"attributes":{"ID":210089,"DIS_CODE":0,"TOWNNAME":"白河區","LI":"庄內里","LIN":"4鄰","STREET":"新興路","SECT":" ","MAREA":" ","LANE":" ","ALLEY":" ","HOUSE_NO":"３３６號","E_COORD97":190856.37,"N_COORD97":2583418.0299999998,"ADDRESS":"新興路３３６號","OBJECTID":210088},"geometry":{"x":190856.37000000011,"y":2583418.0299999993}},{"attributes":{"ID":210090,"DIS_CODE":0,"TOWNNAME":"白河區","LI":"庄內里","LIN":"4鄰","STREET":"新興路","SECT":" ","MAREA":" ","LANE":" ","ALLEY":" ","HOUSE_NO":"３６２號","E_COORD97":190815.04999999999,"N_COORD97":2583423.6600000001,"ADDRESS":"新興路３６２號","OBJECTID":210089},"geometry":{"x":190815.05000000075,"y":2583423.660000002}},{"attributes":{"ID":210091,"DIS_CODE":0,"TOWNNAME":"白河區","LI":"庄內里","LIN":"4鄰","STREET":"新興路","SECT":" ","MAREA":" ","LANE":" ","ALLEY":" ","HOUSE_NO":"３６４號","E_COORD97":190810.82999999999,"N_COORD97":2583424.4399999999,"ADDRESS":"新興路３６４號","OBJECTID":210090},"geometry":{"x":190810.83000000007,"y":2583424.4400000013}},{"attributes":{"ID":210092,"DIS_CODE":0,"TOWNNAME":"白河區","LI":"外角里","LIN":"8鄰","STREET":"新興路","SECT":" ","MAREA":" ","LANE":" ","ALLEY":" ","HOUSE_NO":"４３９之１號","E_COORD97":190630.60999999999,"N_COORD97":2583420.9199999999,"ADDRESS":"新興路４３９之１號","OBJECTID":210091},"geometry":{"x":190630.61000000127,"y":2583420.9200000037}},{"attributes":{"ID":210093,"DIS_CODE":0,"TOWNNAME":"白河區","LI":"外角里","LIN":"9鄰","STREET":"新興路","SECT":" ","MAREA":" ","LANE":" ","ALLEY":" ","HOUSE_NO":"３２５號","E_COORD97":190868.10999999999,"N_COORD97":2583387.96,"ADDRESS":"新興路３２５號","OBJECTID":210092},"geometry":{"x":190868.11000000127,"y":2583387.9600000046}},{"attributes":{"ID":210094,"DIS_CODE":0,"TOWNNAME":"白河區","LI":"外角里","LIN":"9鄰","STREET":"新興路","SECT":" ","MAREA":" ","LANE":" ","ALLEY":" ","HOUSE_NO":"３２７號","E_COORD97":190863.32000000001,"N_COORD97":2583388.98,"ADDRESS":"新興路３２７號","OBJECTID":210093},"geometry":{"x":190863.32000000123,"y":2583388.9800000004}},{"attributes":{"ID":210095,"DIS_CODE":0,"TOWNNAME":"白河區","LI":"外角里","LIN":"9鄰","STREET":"新興路","SECT":" ","MAREA":" ","LANE":" ","ALLEY":" ","HOUSE_NO":"３２９號","E_COORD97":190858.51999999999,"N_COORD97":2583390.0099999998,"ADDRESS":"新興路３２９號","OBJECTID":210094},"geometry":{"x":190858.51999999955,"y":2583390.0100000016}},{"attributes":{"ID":210096,"DIS_CODE":0,"TOWNNAME":"白河區","LI":"外角里","LIN":"9鄰","STREET":"新興路","SECT":" ","MAREA":" ","LANE":" ","ALLEY":" ","HOUSE_NO":"３３１號","E_COORD97":190853.72,"N_COORD97":2583391.0299999998,"ADDRESS":"新興路３３１號","OBJECTID":210095},"geometry":{"x":190853.71999999974,"y":2583391.0299999993}},{"attributes":{"ID":210097,"DIS_CODE":0,"TOWNNAME":"白河區","LI":"外角里","LIN":"9鄰","STREET":"新興路","SECT":" ","MAREA":" ","LANE":" ","ALLEY":" ","HOUSE_NO":"３３３號","E_COORD97":190848.92000000001,"N_COORD97":2583392.0499999998,"ADDRESS":"新興路３３３號","OBJECTID":210096},"geometry":{"x":190848.91999999993,"y":2583392.0500000026}},{"attributes":{"ID":210098,"DIS_CODE":0,"TOWNNAME":"安定區","LI":"大同里","LIN":"2鄰","STREET":" ","SECT":" ","MAREA":"大同","LANE":" ","ALLEY":" ","HOUSE_NO":"１９號","E_COORD97":170466.47,"N_COORD97":2553865.25,"ADDRESS":"大同１９號","OBJECTID":210097},"geometry":{"x":170466.47000000067,"y":2553865.2500000019}},{"attributes":{"ID":210099,"DIS_CODE":0,"TOWNNAME":"北區","LI":"小康里","LIN":"9鄰","STREET":"大武街","SECT":" ","MAREA":" ","LANE":" ","ALLEY":" ","HOUSE_NO":"２４６號","E_COORD97":169679.07999999999,"N_COORD97":2546198.1899999999,"ADDRESS":"大武街２４６號","OBJECTID":210098},"geometry":{"x":169679.07999999914,"y":2546198.1899999995}},{"attributes":{"ID":210100,"DIS_CODE":0,"TOWNNAME":"永康區","LI":"南灣里","LIN":"43鄰","STREET":"大灣路","SECT":" ","MAREA":" ","LANE":"５３７巷","ALLEY":"１４弄","HOUSE_NO":"１１號","E_COORD97":174457.45999999999,"N_COORD97":2544471.5,"ADDRESS":"大灣路５３７巷１４弄１１號","OBJECTID":210099},"geometry":{"x":174457.46000000089,"y":2544471.5}},{"attributes":{"ID":210101,"DIS_CODE":0,"TOWNNAME":"永康區","LI":"南灣里","LIN":"43鄰","STREET":"大灣路","SECT":" ","MAREA":" ","LANE":"５３７巷","ALLEY":"１４弄","HOUSE_NO":"９號","E_COORD97":174460.31,"N_COORD97":2544472.5,"ADDRESS":"大灣路５３７巷１４弄９號","OBJECTID":210100},"geometry":{"x":174460.30999999959,"y":2544472.5000000019}},{"attributes":{"ID":210102,"DIS_CODE":0,"TOWNNAME":"永康區","LI":"南灣里","LIN":"43鄰","STREET":"大灣路","SECT":" ","MAREA":" ","LANE":"５３７巷","ALLEY":"１４弄","HOUSE_NO":"４號","E_COORD97":174463.63,"N_COORD97":2544491.4900000002,"ADDRESS":"大灣路５３７巷１４弄４號","OBJECTID":210101},"geometry":{"x":174463.62999999989,"y":2544491.4900000002}},{"attributes":{"ID":210103,"DIS_CODE":0,"TOWNNAME":"永康區","LI":"南灣里","LIN":"43鄰","STREET":"大灣路","SECT":" ","MAREA":" ","LANE":"５３７巷","ALLEY":"１４弄","HOUSE_NO":"１５號","E_COORD97":174448.75,"N_COORD97":2544469.25,"ADDRESS":"大灣路５３７巷１４弄１５號","OBJECTID":210102},"geometry":{"x":174448.75000000093,"y":2544469.25}},{"attributes":{"ID":210104,"DIS_CODE":0,"TOWNNAME":"永康區","LI":"西灣里","LIN":"43鄰","STREET":"大灣路","SECT":" ","MAREA":" ","LANE":"９４２巷","ALLEY":"３７４弄","HOUSE_NO":"２１號","E_COORD97":174011.01999999999,"N_COORD97":2545443.3599999999,"ADDRESS":"大灣路９４２巷３７４弄２１號","OBJECTID":210103},"geometry":{"x":174011.02000000048,"y":2545443.3600000013}},{"attributes":{"ID":210105,"DIS_CODE":0,"TOWNNAME":"永康區","LI":"西灣里","LIN":"43鄰","STREET":"大灣路","SECT":" ","MAREA":" ","LANE":"９４２巷","ALLEY":"３８８弄","HOUSE_NO":"１６號","E_COORD97":174007.60999999999,"N_COORD97":2545458.5600000001,"ADDRESS":"大灣路９４２巷３８８弄１６號","OBJECTID":210104},"geometry":{"x":174007.61000000127,"y":2545458.5600000042}},{"attributes":{"ID":210106,"DIS_CODE":0,"TOWNNAME":"永康區","LI":"西灣里","LIN":"43鄰","STREET":"大灣路","SECT":" ","MAREA":" ","LANE":"９４２巷","ALLEY":"３７４弄","HOUSE_NO":"１３號","E_COORD97":173996.29000000001,"N_COORD97":2545424.0499999998,"ADDRESS":"大灣路９４２巷３７４弄１３號","OBJECTID":210105},"geometry":{"x":173996.29000000004,"y":2545424.0500000007}},{"attributes":{"ID":210107,"DIS_CODE":0,"TOWNNAME":"安南區","LI":"總頭里","LIN":"7鄰","STREET":"長溪路","SECT":"二段","MAREA":" ","LANE":"５９８巷","ALLEY":" ","HOUSE_NO":"６０號","E_COORD97":168420.68002500001,"N_COORD97":2550739.2613599999,"ADDRESS":"長溪路二段５９８巷６０號","OBJECTID":210106},"geometry":{"x":168420.68002500106,"y":2550739.2613619994}},{"attributes":{"ID":210108,"DIS_CODE":0,"TOWNNAME":"永康區","LI":"西灣里","LIN":"43鄰","STREET":"大灣路","SECT":" ","MAREA":" ","LANE":"９４２巷","ALLEY":"３７４弄","HOUSE_NO":"１１號","E_COORD97":173992.23999999999,"N_COORD97":2545425.5499999998,"ADDRESS":"大灣路９４２巷３７４弄１１號","OBJECTID":210107},"geometry":{"x":173992.24000000022,"y":2545425.5500000026}},{"attributes":{"ID":210109,"DIS_CODE":0,"TOWNNAME":"永康區","LI":"成功里","LIN":"43鄰","STREET":"忠孝路","SECT":" ","MAREA":" ","LANE":"２３９巷","ALLEY":"９弄","HOUSE_NO":"４５號","E_COORD97":171947.06,"N_COORD97":2544970.6099999999,"ADDRESS":"忠孝路２３９巷９弄４５號","OBJECTID":210108},"geometry":{"x":171947.06000000145,"y":2544970.6099999994}},{"attributes":{"ID":210110,"DIS_CODE":0,"TOWNNAME":"永康區","LI":"西灣里","LIN":"43鄰","STREET":"大灣路","SECT":" ","MAREA":" ","LANE":"９４２巷","ALLEY":"３８８弄","HOUSE_NO":"２號之１","E_COORD97":173972.17999999999,"N_COORD97":2545470.8999999999,"ADDRESS":"大灣路９４２巷３８８弄２號之１","OBJECTID":210109},"geometry":{"x":173972.18000000063,"y":2545470.9000000022}},{"attributes":{"ID":210111,"DIS_CODE":0,"TOWNNAME":"永康區","LI":"西灣里","LIN":"43鄰","STREET":"大灣路","SECT":" ","MAREA":" ","LANE":"９４２巷","ALLEY":"３８８弄","HOUSE_NO":"２３號","E_COORD97":174028.51999999999,"N_COORD97":2545486.2599999998,"ADDRESS":"大灣路９４２巷３８８弄２３號","OBJECTID":210110},"geometry":{"x":174028.51999999955,"y":2545486.2599999998}},{"attributes":{"ID":210112,"DIS_CODE":0,"TOWNNAME":"永康區","LI":"西灣里","LIN":"43鄰","STREET":"大灣路","SECT":" ","MAREA":" ","LANE":"９４２巷","ALLEY":"３７４弄","HOUSE_NO":"３５號","E_COORD97":174023.62,"N_COORD97":2545413.2999999998,"ADDRESS":"大灣路９４２巷３７４弄３５號","OBJECTID":210111},"geometry":{"x":174023.61999999918,"y":2545413.3000000045}},{"attributes":{"ID":210113,"DIS_CODE":0,"TOWNNAME":"永康區","LI":"西灣里","LIN":"43鄰","STREET":"大灣路","SECT":" ","MAREA":" ","LANE":"９４２巷","ALLEY":"３８８弄","HOUSE_NO":"３１號","E_COORD97":174045.82999999999,"N_COORD97":2545467.2799999998,"ADDRESS":"大灣路９４２巷３８８弄３１號","OBJECTID":210112},"geometry":{"x":174045.83000000007,"y":2545467.2800000012}},{"attributes":{"ID":210114,"DIS_CODE":0,"TOWNNAME":"永康區","LI":"西灣里","LIN":"43鄰","STREET":"永華路","SECT":" ","MAREA":" ","LANE":"１５９巷","ALLEY":"１１弄","HOUSE_NO":"３號","E_COORD97":174067.91,"N_COORD97":2545500.21,"ADDRESS":"永華路１５９巷１１弄３號","OBJECTID":210113},"geometry":{"x":174067.91000000108,"y":2545500.2100000028}},{"attributes":{"ID":210115,"DIS_CODE":0,"TOWNNAME":"白河區","LI":"外角里","LIN":"9鄰","STREET":"新興路","SECT":" ","MAREA":" ","LANE":" ","ALLEY":" ","HOUSE_NO":"３３５號","E_COORD97":190844.13,"N_COORD97":2583393.0699999998,"ADDRESS":"新興路３３５號","OBJECTID":210114},"geometry":{"x":190844.12999999989,"y":2583393.070000004}},{"attributes":{"ID":210116,"DIS_CODE":0,"TOWNNAME":"白河區","LI":"外角里","LIN":"9鄰","STREET":"新興路","SECT":" ","MAREA":" ","LANE":" ","ALLEY":" ","HOUSE_NO":"３３７號","E_COORD97":190839.32999999999,"N_COORD97":2583394.0899999999,"ADDRESS":"新興路３３７號","OBJECTID":210115},"geometry":{"x":190839.33000000101,"y":2583394.0900000017}},{"attributes":{"ID":210117,"DIS_CODE":0,"TOWNNAME":"白河區","LI":"外角里","LIN":"9鄰","STREET":"新興路","SECT":" ","MAREA":" ","LANE":" ","ALLEY":" ","HOUSE_NO":"３４３號","E_COORD97":190825.73000000001,"N_COORD97":2583383.3300000001,"ADDRESS":"新興路３４３號","OBJECTID":210116},"geometry":{"x":190825.73000000045,"y":2583383.3300000001}},{"attributes":{"ID":210118,"DIS_CODE":0,"TOWNNAME":"白河區","LI":"外角里","LIN":"9鄰","STREET":"新興路","SECT":" ","MAREA":" ","LANE":" ","ALLEY":" ","HOUSE_NO":"３４５號","E_COORD97":190823.32000000001,"N_COORD97":2583398.5899999999,"ADDRESS":"新興路３４５號","OBJECTID":210117},"geometry":{"x":190823.3200000003,"y":2583398.5899999999}},{"attributes":{"ID":210119,"DIS_CODE":0,"TOWNNAME":"永康區","LI":"崑山里","LIN":"43鄰","STREET":"大灣路","SECT":" ","MAREA":" ","LANE":"９４２巷","ALLEY":"３７１弄","HOUSE_NO":"９２號","E_COORD97":173480.32000000001,"N_COORD97":2545343.1699999999,"ADDRESS":"大灣路９４２巷３７１弄９２號","OBJECTID":210118},"geometry":{"x":173480.32000000123,"y":2545343.1700000018}},{"attributes":{"ID":210120,"DIS_CODE":0,"TOWNNAME":"永康區","LI":"龍潭里","LIN":"43鄰","STREET":"國民路","SECT":" ","MAREA":" ","LANE":"２３１巷","ALLEY":"１弄","HOUSE_NO":"１６號","E_COORD97":174546.01000000001,"N_COORD97":2547039.1499999999,"ADDRESS":"國民路２３１巷１弄１６號","OBJECTID":210119},"geometry":{"x":174546.00999999978,"y":2547039.1500000022}},{"attributes":{"ID":210121,"DIS_CODE":0,"TOWNNAME":"永康區","LI":"龍潭里","LIN":"43鄰","STREET":"國民路","SECT":" ","MAREA":" ","LANE":"２３１巷","ALLEY":"１弄","HOUSE_NO":"１號","E_COORD97":174529.88,"N_COORD97":2547026.02,"ADDRESS":"國民路２３１巷１弄１號","OBJECTID":210120},"geometry":{"x":174529.87999999989,"y":2547026.0199999996}},{"attributes":{"ID":210122,"DIS_CODE":0,"TOWNNAME":"仁德區","LI":"仁義里","LIN":"43鄰","STREET":"中正路","SECT":"二段","MAREA":" ","LANE":"１０３４巷","ALLEY":"２２弄","HOUSE_NO":"３號","E_COORD97":173473.47,"N_COORD97":2540856.6699999999,"ADDRESS":"中正路二段１０３４巷２２弄３號","OBJECTID":210121},"geometry":{"x":173473.4700000016,"y":2540856.6700000037}},{"attributes":{"ID":210123,"DIS_CODE":0,"TOWNNAME":"東山區","LI":"大客里","LIN":"9鄰","STREET":" ","SECT":" ","MAREA":"大庄","LANE":" ","ALLEY":" ","HOUSE_NO":"６５號","E_COORD97":189772.39000000001,"N_COORD97":2578995.4100000001,"ADDRESS":"大庄６５號","OBJECTID":210122},"geometry":{"x":189772.38999999966,"y":2578995.4100000001}},{"attributes":{"ID":210124,"DIS_CODE":0,"TOWNNAME":"仁德區","LI":"仁義里","LIN":"43鄰","STREET":"中正路","SECT":"二段","MAREA":" ","LANE":"１０３４巷","ALLEY":"２２弄","HOUSE_NO":"５號","E_COORD97":173473.12,"N_COORD97":2540852.6699999999,"ADDRESS":"中正路二段１０３４巷２２弄５號","OBJECTID":210123},"geometry":{"x":173473.12000000104,"y":2540852.6699999999}},{"attributes":{"ID":210125,"DIS_CODE":0,"TOWNNAME":"仁德區","LI":"仁德里","LIN":"43鄰","STREET":"中山路","SECT":" ","MAREA":" ","LANE":"９１０巷","ALLEY":"２２弄","HOUSE_NO":"３號","E_COORD97":172021.81,"N_COORD97":2541794.7400000002,"ADDRESS":"中山路９１０巷２２弄３號","OBJECTID":210124},"geometry":{"x":172021.81000000052,"y":2541794.7400000002}},{"attributes":{"ID":210126,"DIS_CODE":0,"TOWNNAME":"西港區","LI":"慶安里","LIN":"25鄰","STREET":"新興街","SECT":" ","MAREA":" ","LANE":" ","ALLEY":" ","HOUSE_NO":"１６號","E_COORD97":168211.57000000001,"N_COORD97":2557856.52,"ADDRESS":"新興街１６號","OBJECTID":210125},"geometry":{"x":168211.57000000216,"y":2557856.5200000033}},{"attributes":{"ID":210127,"DIS_CODE":0,"TOWNNAME":"西港區","LI":"慶安里","LIN":"26鄰","STREET":"新興街","SECT":" ","MAREA":" ","LANE":" ","ALLEY":" ","HOUSE_NO":"１０號之１","E_COORD97":168234.42000000001,"N_COORD97":2557759.9500000002,"ADDRESS":"新興街１０號之１","OBJECTID":210126},"geometry":{"x":168234.42000000086,"y":2557759.9499999993}},{"attributes":{"ID":210128,"DIS_CODE":0,"TOWNNAME":"西港區","LI":"慶安里","LIN":"8鄰","STREET":"新興街","SECT":" ","MAREA":" ","LANE":" ","ALLEY":" ","HOUSE_NO":"１１１號","E_COORD97":168184.39000000001,"N_COORD97":2558204.3399999999,"ADDRESS":"新興街１１１號","OBJECTID":210127},"geometry":{"x":168184.38999999966,"y":2558204.3400000017}},{"attributes":{"ID":210129,"DIS_CODE":0,"TOWNNAME":"西港區","LI":"慶安里","LIN":"8鄰","STREET":"新興街","SECT":" ","MAREA":" ","LANE":" ","ALLEY":" ","HOUSE_NO":"１１３號之１","E_COORD97":168185.20000000001,"N_COORD97":2558214.0600000001,"ADDRESS":"新興街１１３號之１","OBJECTID":210128},"geometry":{"x":168185.20000000112,"y":2558214.0600000024}},{"attributes":{"ID":210130,"DIS_CODE":0,"TOWNNAME":"西港區","LI":"慶安里","LIN":"8鄰","STREET":"新興街","SECT":" ","MAREA":" ","LANE":" ","ALLEY":" ","HOUSE_NO":"１１３號之２","E_COORD97":168184.95999999999,"N_COORD97":2558217.7000000002,"ADDRESS":"新興街１１３號之２","OBJECTID":210129},"geometry":{"x":168184.96000000089,"y":2558217.700000003}},{"attributes":{"ID":210131,"DIS_CODE":0,"TOWNNAME":"鹽水區","LI":"大莊里","LIN":"9鄰","STREET":" ","SECT":" ","MAREA":"大莊","LANE":" ","ALLEY":" ","HOUSE_NO":"１號","E_COORD97":172634.29000000001,"N_COORD97":2577014.21,"ADDRESS":"大莊１號","OBJECTID":210130},"geometry":{"x":172634.29000000097,"y":2577014.2100000009}},{"attributes":{"ID":210132,"DIS_CODE":0,"TOWNNAME":"仁德區","LI":"仁德里","LIN":"43鄰","STREET":"中山路","SECT":" ","MAREA":" ","LANE":"９１０巷","ALLEY":"２０弄","HOUSE_NO":"１７號","E_COORD97":172069.82000000001,"N_COORD97":2541742.4900000002,"ADDRESS":"中山路９１０巷２０弄１７號","OBJECTID":210131},"geometry":{"x":172069.82000000216,"y":2541742.4900000002}},{"attributes":{"ID":210133,"DIS_CODE":0,"TOWNNAME":"仁德區","LI":"仁德里","LIN":"43鄰","STREET":"中山路","SECT":" ","MAREA":" ","LANE":"９１０巷","ALLEY":"２２弄","HOUSE_NO":"２之１號","E_COORD97":172023.94,"N_COORD97":2541785.7999999998,"ADDRESS":"中山路９１０巷２２弄２之１號","OBJECTID":210132},"geometry":{"x":172023.94000000134,"y":2541785.8000000026}},{"attributes":{"ID":210134,"DIS_CODE":0,"TOWNNAME":"仁德區","LI":"仁德里","LIN":"43鄰","STREET":"中山路","SECT":" ","MAREA":" ","LANE":"９１０巷","ALLEY":"２２弄","HOUSE_NO":"１５號","E_COORD97":172052.35000000001,"N_COORD97":2541799.4900000002,"ADDRESS":"中山路９１０巷２２弄１５號","OBJECTID":210133},"geometry":{"x":172052.35000000056,"y":2541799.4900000002}},{"attributes":{"ID":210135,"DIS_CODE":0,"TOWNNAME":"仁德區","LI":"仁德里","LIN":"43鄰","STREET":"中山路","SECT":" ","MAREA":" ","LANE":"９１０巷","ALLEY":"２０弄","HOUSE_NO":"１５號","E_COORD97":172067.59,"N_COORD97":2541747.5,"ADDRESS":"中山路９１０巷２０弄１５號","OBJECTID":210134},"geometry":{"x":172067.59000000078,"y":2541747.5000000019}},{"attributes":{"ID":210136,"DIS_CODE":0,"TOWNNAME":"仁德區","LI":"仁德里","LIN":"43鄰","STREET":"中山路","SECT":" ","MAREA":" ","LANE":"９１０巷","ALLEY":"２２弄","HOUSE_NO":"９號","E_COORD97":172036.54000000001,"N_COORD97":2541797.4900000002,"ADDRESS":"中山路９１０巷２２弄９號","OBJECTID":210135},"geometry":{"x":172036.54000000097,"y":2541797.4900000021}},{"attributes":{"ID":210137,"DIS_CODE":0,"TOWNNAME":"仁德區","LI":"仁義里","LIN":"43鄰","STREET":"中正路","SECT":"二段","MAREA":" ","LANE":"１０３４巷","ALLEY":"２２弄","HOUSE_NO":"２９號","E_COORD97":173465.04999999999,"N_COORD97":2540842.1699999999,"ADDRESS":"中正路二段１０３４巷２２弄２９號","OBJECTID":210136},"geometry":{"x":173465.05000000075,"y":2540842.1699999999}},{"attributes":{"ID":210138,"DIS_CODE":0,"TOWNNAME":"仁德區","LI":"仁義里","LIN":"43鄰","STREET":"中正路","SECT":"二段","MAREA":" ","LANE":"１０３４巷","ALLEY":"２２弄","HOUSE_NO":"１號","E_COORD97":173473.78,"N_COORD97":2540860.6699999999,"ADDRESS":"中正路二段１０３４巷２２弄１號","OBJECTID":210137},"geometry":{"x":173473.78000000119,"y":2540860.6700000018}},{"attributes":{"ID":210139,"DIS_CODE":0,"TOWNNAME":"仁德區","LI":"仁義里","LIN":"43鄰","STREET":"中正路","SECT":"二段","MAREA":" ","LANE":"１０３４巷","ALLEY":"２２弄","HOUSE_NO":"１１號","E_COORD97":173504.07000000001,"N_COORD97":2540850.0299999998,"ADDRESS":"中正路二段１０３４巷２２弄１１號","OBJECTID":210138},"geometry":{"x":173504.07000000123,"y":2540850.0300000031}},{"attributes":{"ID":210140,"DIS_CODE":0,"TOWNNAME":"下營區","LI":"開化里","LIN":"2鄰","STREET":" ","SECT":" ","MAREA":"中營","LANE":" ","ALLEY":" ","HOUSE_NO":"６７號","E_COORD97":175614.29000000001,"N_COORD97":2568151.0099999998,"ADDRESS":"中營６７號","OBJECTID":210139},"geometry":{"x":175614.2900000019,"y":2568151.0100000016}},{"attributes":{"ID":210141,"DIS_CODE":0,"TOWNNAME":"永康區","LI":"龍潭里","LIN":"43鄰","STREET":"國民路","SECT":" ","MAREA":" ","LANE":"２３１巷","ALLEY":"１弄","HOUSE_NO":"２號","E_COORD97":174546.04000000001,"N_COORD97":2547007.1400000001,"ADDRESS":"國民路２３１巷１弄２號","OBJECTID":210140},"geometry":{"x":174546.04000000004,"y":2547007.1400000006}},{"attributes":{"ID":210142,"DIS_CODE":0,"TOWNNAME":"永康區","LI":"龍潭里","LIN":"43鄰","STREET":"國民路","SECT":" ","MAREA":" ","LANE":"２３１巷","ALLEY":"１弄","HOUSE_NO":"５號","E_COORD97":174529.53,"N_COORD97":2547038.02,"ADDRESS":"國民路２３１巷１弄５號","OBJECTID":210141},"geometry":{"x":174529.52999999933,"y":2547038.0200000014}},{"attributes":{"ID":210143,"DIS_CODE":0,"TOWNNAME":"永康區","LI":"龍潭里","LIN":"43鄰","STREET":"國民路","SECT":" ","MAREA":" ","LANE":"２３１巷","ALLEY":"１弄","HOUSE_NO":"３號","E_COORD97":174529.72,"N_COORD97":2547031.77,"ADDRESS":"國民路２３１巷１弄３號","OBJECTID":210142},"geometry":{"x":174529.72000000067,"y":2547031.7699999996}},{"attributes":{"ID":210144,"DIS_CODE":0,"TOWNNAME":"永康區","LI":"\u25A0行里","LIN":"43鄰","STREET":"中正南路","SECT":" ","MAREA":" ","LANE":"４９０巷","ALLEY":"６２弄","HOUSE_NO":"１號","E_COORD97":171620.91,"N_COORD97":2548076.8399999999,"ADDRESS":"中正南路４９０巷６２弄１號","OBJECTID":210143},"geometry":{"x":171620.91000000015,"y":2548076.8400000036}},{"attributes":{"ID":210145,"DIS_CODE":0,"TOWNNAME":"仁德區","LI":"仁義里","LIN":"43鄰","STREET":"中正路","SECT":"二段","MAREA":" ","LANE":"１０３４巷","ALLEY":"２２弄","HOUSE_NO":"２３號","E_COORD97":173477.92999999999,"N_COORD97":2540841.4199999999,"ADDRESS":"中正路二段１０３４巷２２弄２３號","OBJECTID":210144},"geometry":{"x":173477.9299999997,"y":2540841.4200000018}},{"attributes":{"ID":210146,"DIS_CODE":0,"TOWNNAME":"仁德區","LI":"仁德里","LIN":"43鄰","STREET":"中山路","SECT":" ","MAREA":" ","LANE":"９１０巷","ALLEY":"２２弄","HOUSE_NO":"１６號","E_COORD97":172052.34,"N_COORD97":2541790.75,"ADDRESS":"中山路９１０巷２２弄１６號","OBJECTID":210145},"geometry":{"x":172052.34000000078,"y":2541790.75}},{"attributes":{"ID":210147,"DIS_CODE":0,"TOWNNAME":"仁德區","LI":"仁德里","LIN":"43鄰","STREET":"中山路","SECT":" ","MAREA":" ","LANE":"９１０巷","ALLEY":"２２弄","HOUSE_NO":"１１號","E_COORD97":172042.89999999999,"N_COORD97":2541798.2400000002,"ADDRESS":"中山路９１０巷２２弄１１號","OBJECTID":210146},"geometry":{"x":172042.9000000013,"y":2541798.2400000002}},{"attributes":{"ID":210148,"DIS_CODE":0,"TOWNNAME":"仁德區","LI":"仁德里","LIN":"43鄰","STREET":"中山路","SECT":" ","MAREA":" ","LANE":"９１０巷","ALLEY":"２２弄","HOUSE_NO":"８號","E_COORD97":172031.75,"N_COORD97":2541787.5,"ADDRESS":"中山路９１０巷２２弄８號","OBJECTID":210147},"geometry":{"x":172031.75,"y":2541787.5000000019}},{"attributes":{"ID":210149,"DIS_CODE":0,"TOWNNAME":"仁德區","LI":"仁德里","LIN":"43鄰","STREET":"中山路","SECT":" ","MAREA":" ","LANE":"９１０巷","ALLEY":"２２弄","HOUSE_NO":"１號","E_COORD97":172016.32000000001,"N_COORD97":2541794,"ADDRESS":"中山路９１０巷２２弄１號","OBJECTID":210148},"geometry":{"x":172016.3200000003,"y":2541794.0000000019}},{"attributes":{"ID":210150,"DIS_CODE":0,"TOWNNAME":"仁德區","LI":"仁德里","LIN":"43鄰","STREET":"中山路","SECT":" ","MAREA":" ","LANE":"９１０巷","ALLEY":"１１弄","HOUSE_NO":"２號","E_COORD97":172005.17999999999,"N_COORD97":2541768.75,"ADDRESS":"中山路９１０巷１１弄２號","OBJECTID":210149},"geometry":{"x":172005.1799999997,"y":2541768.7500000019}},{"attributes":{"ID":210151,"DIS_CODE":0,"TOWNNAME":"永康區","LI":"二王里","LIN":"43鄰","STREET":"中山南路","SECT":" ","MAREA":" ","LANE":"３１６巷","ALLEY":"８２弄","HOUSE_NO":"８號","E_COORD97":172166.25,"N_COORD97":2546095.0699999998,"ADDRESS":"中山南路３１６巷８２弄８號","OBJECTID":210150},"geometry":{"x":172166.25,"y":2546095.0700000003}},{"attributes":{"ID":210152,"DIS_CODE":0,"TOWNNAME":"仁德區","LI":"成功里","LIN":"43鄰","STREET":"虎山一街","SECT":" ","MAREA":" ","LANE":"９巷","ALLEY":"１弄","HOUSE_NO":"７號","E_COORD97":170969.85000000001,"N_COORD97":2538007.7599999998,"ADDRESS":"虎山一街９巷１弄７號","OBJECTID":210151},"geometry":{"x":170969.84999999963,"y":2538007.7600000035}},{"attributes":{"ID":210153,"DIS_CODE":0,"TOWNNAME":"仁德區","LI":"後壁里","LIN":"43鄰","STREET":"德崙路","SECT":" ","MAREA":" ","LANE":"２１巷","ALLEY":"１０弄","HOUSE_NO":"１０號","E_COORD97":173309.72,"N_COORD97":2538636.3999999999,"ADDRESS":"德崙路２１巷１０弄１０號","OBJECTID":210152},"geometry":{"x":173309.72000000067,"y":2538636.4000000004}},{"attributes":{"ID":210154,"DIS_CODE":0,"TOWNNAME":"永康區","LI":"南灣里","LIN":"43鄰","STREET":"大灣路","SECT":" ","MAREA":" ","LANE":"５３７巷","ALLEY":"１４弄","HOUSE_NO":"７號","E_COORD97":174464.35999999999,"N_COORD97":2544473.5,"ADDRESS":"大灣路５３７巷１４弄７號","OBJECTID":210153},"geometry":{"x":174464.36000000034,"y":2544473.5}},{"attributes":{"ID":210155,"DIS_CODE":0,"TOWNNAME":"永康區","LI":"成功里","LIN":"43鄰","STREET":"忠孝路","SECT":" ","MAREA":" ","LANE":"２３９巷","ALLEY":"９弄","HOUSE_NO":"４７號","E_COORD97":171942.69,"N_COORD97":2544970.3599999999,"ADDRESS":"忠孝路２３９巷９弄４７號","OBJECTID":210154},"geometry":{"x":171942.69000000134,"y":2544970.3600000031}},{"attributes":{"ID":210156,"DIS_CODE":0,"TOWNNAME":"永康區","LI":"西灣里","LIN":"43鄰","STREET":"大灣路","SECT":" ","MAREA":" ","LANE":"９４２巷","ALLEY":"３７４弄","HOUSE_NO":"３３號","E_COORD97":174020.44,"N_COORD97":2545414.7999999998,"ADDRESS":"大灣路９４２巷３７４弄３３號","OBJECTID":210155},"geometry":{"x":174020.44000000134,"y":2545414.8000000007}},{"attributes":{"ID":210157,"DIS_CODE":0,"TOWNNAME":"永康區","LI":"西灣里","LIN":"43鄰","STREET":"大灣路","SECT":" ","MAREA":" ","LANE":"９４２巷","ALLEY":"３７４弄","HOUSE_NO":"３９號","E_COORD97":174030.76999999999,"N_COORD97":2545410.7999999998,"ADDRESS":"大灣路９４２巷３７４弄３９號","OBJECTID":210156},"geometry":{"x":174030.77000000048,"y":2545410.8000000026}},{"attributes":{"ID":210158,"DIS_CODE":0,"TOWNNAME":"永康區","LI":"西灣里","LIN":"43鄰","STREET":"大灣路","SECT":" ","MAREA":" ","LANE":"９４２巷","ALLEY":"３７４弄","HOUSE_NO":"５號","E_COORD97":173974.39999999999,"N_COORD97":2545433.71,"ADDRESS":"大灣路９４２巷３７４弄５號","OBJECTID":210157},"geometry":{"x":173974.40000000037,"y":2545433.7100000009}},{"attributes":{"ID":210159,"DIS_CODE":0,"TOWNNAME":"西港區","LI":"慶安里","LIN":"8鄰","STREET":"新興街","SECT":" ","MAREA":" ","LANE":" ","ALLEY":" ","HOUSE_NO":"１１３號之３","E_COORD97":168184.94,"N_COORD97":2558221.71,"ADDRESS":"新興街１１３號之３","OBJECTID":210158},"geometry":{"x":168184.94000000041,"y":2558221.7100000009}},{"attributes":{"ID":210160,"DIS_CODE":0,"TOWNNAME":"永康區","LI":"烏竹里","LIN":"5鄰","STREET":"烏竹街","SECT":" ","MAREA":" ","LANE":" ","ALLEY":" ","HOUSE_NO":"１９號","E_COORD97":174455.92999999999,"N_COORD97":2549261.2799999998,"ADDRESS":"烏竹街１９號","OBJECTID":210159},"geometry":{"x":174455.93000000063,"y":2549261.2800000012}},{"attributes":{"ID":210161,"DIS_CODE":0,"TOWNNAME":"永康區","LI":"埔園里","LIN":"38鄰","STREET":"龍中街","SECT":" ","MAREA":" ","LANE":" ","ALLEY":" ","HOUSE_NO":"３５５號","E_COORD97":174411.89999999999,"N_COORD97":2547923.9399999999,"ADDRESS":"龍中街３５５號","OBJECTID":210160},"geometry":{"x":174411.89999999944,"y":2547923.9400000013}},{"attributes":{"ID":210162,"DIS_CODE":0,"TOWNNAME":"永康區","LI":"烏竹里","LIN":"18鄰","STREET":"龍中街","SECT":" ","MAREA":" ","LANE":" ","ALLEY":" ","HOUSE_NO":"２３２號","E_COORD97":174375.28,"N_COORD97":2548568.7400000002,"ADDRESS":"龍中街２３２號","OBJECTID":210161},"geometry":{"x":174375.27999999933,"y":2548568.7400000002}},{"attributes":{"ID":210163,"DIS_CODE":0,"TOWNNAME":"永康區","LI":"埔園里","LIN":"24鄰","STREET":"中正路","SECT":" ","MAREA":" ","LANE":" ","ALLEY":" ","HOUSE_NO":"１４０號","E_COORD97":173492.17000000001,"N_COORD97":2547897.5,"ADDRESS":"中正路１４０號","OBJECTID":210162},"geometry":{"x":173492.16999999993,"y":2547897.5000000019}},{"attributes":{"ID":210164,"DIS_CODE":0,"TOWNNAME":"永康區","LI":"西灣里","LIN":"43鄰","STREET":"大灣路","SECT":" ","MAREA":" ","LANE":"９４２巷","ALLEY":"３７４弄","HOUSE_NO":"２５號","E_COORD97":174006.41,"N_COORD97":2545419.2999999998,"ADDRESS":"大灣路９４２巷３７４弄２５號","OBJECTID":210163},"geometry":{"x":174006.40999999922,"y":2545419.3000000007}},{"attributes":{"ID":210165,"DIS_CODE":0,"TOWNNAME":"永康區","LI":"西灣里","LIN":"43鄰","STREET":"大灣路","SECT":" ","MAREA":" ","LANE":"９４２巷","ALLEY":"３８８弄","HOUSE_NO":"３０號","E_COORD97":174036.69,"N_COORD97":2545446.8900000001,"ADDRESS":"大灣路９４２巷３８８弄３０號","OBJECTID":210164},"geometry":{"x":174036.69000000041,"y":2545446.8900000025}},{"attributes":{"ID":210166,"DIS_CODE":0,"TOWNNAME":"永康區","LI":"西灣里","LIN":"43鄰","STREET":"大灣路","SECT":" ","MAREA":" ","LANE":"９４２巷","ALLEY":"３８８弄","HOUSE_NO":"２８號","E_COORD97":174030.73999999999,"N_COORD97":2545450.3100000001,"ADDRESS":"大灣路９４２巷３８８弄２８號","OBJECTID":210165},"geometry":{"x":174030.74000000022,"y":2545450.3100000042}},{"attributes":{"ID":210167,"DIS_CODE":0,"TOWNNAME":"永康區","LI":"南灣里","LIN":"43鄰","STREET":"南興路","SECT":" ","MAREA":" ","LANE":"１１２巷","ALLEY":"１０弄","HOUSE_NO":"１２號","E_COORD97":174415.89000000001,"N_COORD97":2544412.9199999999,"ADDRESS":"南興路１１２巷１０弄１２號","OBJECTID":210166},"geometry":{"x":174415.88999999966,"y":2544412.9199999999}},{"attributes":{"ID":210168,"DIS_CODE":0,"TOWNNAME":"永康區","LI":"南灣里","LIN":"43鄰","STREET":"南興路","SECT":" ","MAREA":" ","LANE":"１１２巷","ALLEY":"１０弄","HOUSE_NO":"１６號","E_COORD97":174423.57000000001,"N_COORD97":2544415.4199999999,"ADDRESS":"南興路１１２巷１０弄１６號","OBJECTID":210167},"geometry":{"x":174423.5700000003,"y":2544415.4200000018}},{"attributes":{"ID":210169,"DIS_CODE":0,"TOWNNAME":"北區","LI":"華興里","LIN":"9鄰","STREET":"林森路","SECT":"三段","MAREA":" ","LANE":" ","ALLEY":" ","HOUSE_NO":"２２２號","E_COORD97":170536.42000000001,"N_COORD97":2545198.4900000002,"ADDRESS":"林森路三段２２２號","OBJECTID":210168},"geometry":{"x":170536.42000000086,"y":2545198.4900000021}},{"attributes":{"ID":210170,"DIS_CODE":0,"TOWNNAME":"北區","LI":"華興里","LIN":"9鄰","STREET":"南園街","SECT":" ","MAREA":" ","LANE":" ","ALLEY":" ","HOUSE_NO":"１６４號","E_COORD97":170613.26000000001,"N_COORD97":2545175.6899999999,"ADDRESS":"南園街１６４號","OBJECTID":210169},"geometry":{"x":170613.25999999885,"y":2545175.6900000013}},{"attributes":{"ID":210171,"DIS_CODE":0,"TOWNNAME":"北區","LI":"華興里","LIN":"9鄰","STREET":"南園街","SECT":" ","MAREA":" ","LANE":" ","ALLEY":" ","HOUSE_NO":"１６６號","E_COORD97":170610.73000000001,"N_COORD97":2545172.6099999999,"ADDRESS":"南園街１６６號","OBJECTID":210170},"geometry":{"x":170610.73000000045,"y":2545172.6100000013}},{"attributes":{"ID":210172,"DIS_CODE":0,"TOWNNAME":"北區","LI":"華興里","LIN":"9鄰","STREET":"南園街","SECT":" ","MAREA":" ","LANE":" ","ALLEY":" ","HOUSE_NO":"１６８號","E_COORD97":170608.51999999999,"N_COORD97":2545169.1400000001,"ADDRESS":"南園街１６８號","OBJECTID":210171},"geometry":{"x":170608.52000000048,"y":2545169.1400000006}},{"attributes":{"ID":210173,"DIS_CODE":0,"TOWNNAME":"永康區","LI":"南灣里","LIN":"43鄰","STREET":"南興路","SECT":" ","MAREA":" ","LANE":"１１２巷","ALLEY":"１０弄","HOUSE_NO":"１５號","E_COORD97":174438.97,"N_COORD97":2544437.1000000001,"ADDRESS":"南興路１１２巷１０弄１５號","OBJECTID":210172},"geometry":{"x":174438.96999999974,"y":2544437.1000000015}},{"attributes":{"ID":210174,"DIS_CODE":0,"TOWNNAME":"永康區","LI":"南灣里","LIN":"43鄰","STREET":"南興路","SECT":" ","MAREA":" ","LANE":"１１２巷","ALLEY":"１０弄","HOUSE_NO":"７號","E_COORD97":174422.32000000001,"N_COORD97":2544429.8999999999,"ADDRESS":"南興路１１２巷１０弄７號","OBJECTID":210173},"geometry":{"x":174422.3200000003,"y":2544429.9000000022}},{"attributes":{"ID":210175,"DIS_CODE":0,"TOWNNAME":"永康區","LI":"南灣里","LIN":"43鄰","STREET":"南興路","SECT":" ","MAREA":" ","LANE":"１１２巷","ALLEY":"１０弄","HOUSE_NO":"１號","E_COORD97":174408.72,"N_COORD97":2544456.4100000001,"ADDRESS":"南興路１１２巷１０弄１號","OBJECTID":210174},"geometry":{"x":174408.71999999974,"y":2544456.410000002}},{"attributes":{"ID":210176,"DIS_CODE":0,"TOWNNAME":"永康區","LI":"南灣里","LIN":"43鄰","STREET":"南興路","SECT":" ","MAREA":" ","LANE":"１１２巷","ALLEY":"１０弄","HOUSE_NO":"３號","E_COORD97":174409.60999999999,"N_COORD97":2544451.3599999999,"ADDRESS":"南興路１１２巷１０弄３號","OBJECTID":210175},"geometry":{"x":174409.61000000127,"y":2544451.3599999994}},{"attributes":{"ID":210177,"DIS_CODE":0,"TOWNNAME":"永康區","LI":"南灣里","LIN":"43鄰","STREET":"南興路","SECT":" ","MAREA":" ","LANE":"１１２巷","ALLEY":"１０弄","HOUSE_NO":"１１號","E_COORD97":174431.10999999999,"N_COORD97":2544432.6499999999,"ADDRESS":"南興路１１２巷１０弄１１號","OBJECTID":210176},"geometry":{"x":174431.11000000127,"y":2544432.6500000004}},{"attributes":{"ID":210178,"DIS_CODE":0,"TOWNNAME":"永康區","LI":"西灣里","LIN":"43鄰","STREET":"永華路","SECT":" ","MAREA":" ","LANE":"１５９巷","ALLEY":"１１弄","HOUSE_NO":"２號","E_COORD97":174047.57999999999,"N_COORD97":2545514.48,"ADDRESS":"永華路１５９巷１１弄２號","OBJECTID":210177},"geometry":{"x":174047.57999999914,"y":2545514.4800000023}},{"attributes":{"ID":210179,"DIS_CODE":0,"TOWNNAME":"永康區","LI":"西灣里","LIN":"43鄰","STREET":"永華路","SECT":" ","MAREA":" ","LANE":"１５９巷","ALLEY":"１１弄","HOUSE_NO":"１號","E_COORD97":174067.67999999999,"N_COORD97":2545504.46,"ADDRESS":"永華路１５９巷１１弄１號","OBJECTID":210178},"geometry":{"x":174067.68000000063,"y":2545504.4600000028}},{"attributes":{"ID":210180,"DIS_CODE":0,"TOWNNAME":"仁德區","LI":"後壁里","LIN":"43鄰","STREET":"德崙路","SECT":" ","MAREA":" ","LANE":"２１巷","ALLEY":"１０弄","HOUSE_NO":"１６號四樓之３","E_COORD97":173323.81,"N_COORD97":2538618.2200000002,"ADDRESS":"德崙路２１巷１０弄１６號四樓之３","OBJECTID":210179},"geometry":{"x":173323.81000000052,"y":2538618.2200000007}},{"attributes":{"ID":210181,"DIS_CODE":0,"TOWNNAME":"仁德區","LI":"後壁里","LIN":"43鄰","STREET":"德崙路","SECT":" ","MAREA":" ","LANE":"２１巷","ALLEY":"１０弄","HOUSE_NO":"１６號十三樓之１","E_COORD97":173324.95999999999,"N_COORD97":2538618.2200000002,"ADDRESS":"德崙路２１巷１０弄１６號十三樓之１","OBJECTID":210180},"geometry":{"x":173324.96000000089,"y":2538618.2200000007}},{"attributes":{"ID":210182,"DIS_CODE":0,"TOWNNAME":"北區","LI":"華興里","LIN":"9鄰","STREET":"開南街","SECT":" ","MAREA":" ","LANE":" ","ALLEY":" ","HOUSE_NO":"１２３號","E_COORD97":170591.85000000001,"N_COORD97":2545159.5800000001,"ADDRESS":"開南街１２３號","OBJECTID":210181},"geometry":{"x":170591.84999999963,"y":2545159.5800000038}},{"attributes":{"ID":210183,"DIS_CODE":0,"TOWNNAME":"六甲區","LI":"龜港里","LIN":"9鄰","STREET":" ","SECT":" ","MAREA":"龜子港","LANE":"２８１巷","ALLEY":"９０弄","HOUSE_NO":"１１號","E_COORD97":179318.35999999999,"N_COORD97":2572306.6499999999,"ADDRESS":"龜子港２８１巷９０弄１１號","OBJECTID":210182},"geometry":{"x":179318.36000000127,"y":2572306.6500000022}},{"attributes":{"ID":210184,"DIS_CODE":0,"TOWNNAME":"六甲區","LI":"龜港里","LIN":"9鄰","STREET":" ","SECT":" ","MAREA":"龜子港","LANE":"２８１巷","ALLEY":"９０弄","HOUSE_NO":"１２號","E_COORD97":179317.69,"N_COORD97":2572328.2000000002,"ADDRESS":"龜子港２８１巷９０弄１２號","OBJECTID":210183},"geometry":{"x":179317.69000000227,"y":2572328.1999999974}},{"attributes":{"ID":210185,"DIS_CODE":0,"TOWNNAME":"六甲區","LI":"龜港里","LIN":"9鄰","STREET":" ","SECT":" ","MAREA":"龜子港","LANE":"２８１巷","ALLEY":"９０弄","HOUSE_NO":"１６號","E_COORD97":179317.23999999999,"N_COORD97":2572345.1800000002,"ADDRESS":"龜子港２８１巷９０弄１６號","OBJECTID":210184},"geometry":{"x":179317.24000000115,"y":2572345.1799999997}},{"attributes":{"ID":210186,"DIS_CODE":0,"TOWNNAME":"六甲區","LI":"龜港里","LIN":"9鄰","STREET":" ","SECT":" ","MAREA":"龜子港","LANE":"２８１巷","ALLEY":" ","HOUSE_NO":"１０４之１號","E_COORD97":179536.64000000001,"N_COORD97":2572465.3700000001,"ADDRESS":"龜子港２８１巷１０４之１號","OBJECTID":210185},"geometry":{"x":179536.6400000006,"y":2572465.3700000029}},{"attributes":{"ID":210187,"DIS_CODE":0,"TOWNNAME":"東山區","LI":"三榮里","LIN":"9鄰","STREET":" ","SECT":" ","MAREA":"木柵","LANE":" ","ALLEY":" ","HOUSE_NO":"４０號","E_COORD97":187471.25,"N_COORD97":2579693.9300000002,"ADDRESS":"木柵４０號","OBJECTID":210186},"geometry":{"x":187471.25000000093,"y":2579693.9299999997}},{"attributes":{"ID":210188,"DIS_CODE":0,"TOWNNAME":"六甲區","LI":"龜港里","LIN":"9鄰","STREET":" ","SECT":" ","MAREA":"龜子港","LANE":"２８１巷","ALLEY":" ","HOUSE_NO":"９２號","E_COORD97":179337.37,"N_COORD97":2572283.1899999999,"ADDRESS":"龜子港２８１巷９２號","OBJECTID":210187},"geometry":{"x":179337.37000000011,"y":2572283.1899999995}},{"attributes":{"ID":210189,"DIS_CODE":0,"TOWNNAME":"六甲區","LI":"龜港里","LIN":"9鄰","STREET":" ","SECT":" ","MAREA":"龜子港","LANE":"２８１巷","ALLEY":" ","HOUSE_NO":"９８號","E_COORD97":179338.20000000001,"N_COORD97":2572246.27,"ADDRESS":"龜子港２８１巷９８號","OBJECTID":210188},"geometry":{"x":179338.20000000112,"y":2572246.2699999996}},{"attributes":{"ID":210190,"DIS_CODE":0,"TOWNNAME":"六甲區","LI":"龜港里","LIN":"9鄰","STREET":" ","SECT":" ","MAREA":"龜子港","LANE":"２８１巷","ALLEY":"９０弄","HOUSE_NO":"２０號","E_COORD97":179295.17999999999,"N_COORD97":2572355.1200000001,"ADDRESS":"龜子港２８１巷９０弄２０號","OBJECTID":210189},"geometry":{"x":179295.18000000063,"y":2572355.1200000029}},{"attributes":{"ID":210191,"DIS_CODE":0,"TOWNNAME":"安定區","LI":"六嘉里","LIN":"2鄰","STREET":" ","SECT":" ","MAREA":"六塊寮","LANE":" ","ALLEY":" ","HOUSE_NO":"１９號之１","E_COORD97":170102.04999999999,"N_COORD97":2553489.2999999998,"ADDRESS":"六塊寮１９號之１","OBJECTID":210190},"geometry":{"x":170102.05000000075,"y":2553489.3000000026}},{"attributes":{"ID":210192,"DIS_CODE":0,"TOWNNAME":"安定區","LI":"港口里","LIN":"2鄰","STREET":" ","SECT":" ","MAREA":"港口","LANE":" ","ALLEY":" ","HOUSE_NO":"２５０之１２號","E_COORD97":171634.84010199999,"N_COORD97":2554749.8893400002,"ADDRESS":"港口２５０之１２號","OBJECTID":210191},"geometry":{"x":171634.84010200016,"y":2554749.8893370032}},{"attributes":{"ID":210193,"DIS_CODE":0,"TOWNNAME":"安定區","LI":"港尾里","LIN":"2鄰","STREET":" ","SECT":" ","MAREA":"下洲子","LANE":" ","ALLEY":" ","HOUSE_NO":"１７之３號","E_COORD97":172353.09,"N_COORD97":2556645.2999999998,"ADDRESS":"下洲子１７之３號","OBJECTID":210192},"geometry":{"x":172353.08999999985,"y":2556645.3000000045}},{"attributes":{"ID":210194,"DIS_CODE":0,"TOWNNAME":"安定區","LI":"六嘉里","LIN":"2鄰","STREET":" ","SECT":" ","MAREA":"六塊寮","LANE":" ","ALLEY":" ","HOUSE_NO":"１９號之３","E_COORD97":170094.64999999999,"N_COORD97":2553484.2999999998,"ADDRESS":"六塊寮１９號之３","OBJECTID":210193},"geometry":{"x":170094.6500000013,"y":2553484.3000000007}},{"attributes":{"ID":210195,"DIS_CODE":0,"TOWNNAME":"安定區","LI":"港尾里","LIN":"2鄰","STREET":" ","SECT":" ","MAREA":"下洲子","LANE":" ","ALLEY":" ","HOUSE_NO":"１１號之２","E_COORD97":172526.95999999999,"N_COORD97":2556707.2999999998,"ADDRESS":"下洲子１１號之２","OBJECTID":210194},"geometry":{"x":172526.95999999996,"y":2556707.3000000026}},{"attributes":{"ID":210196,"DIS_CODE":0,"TOWNNAME":"安定區","LI":"港尾里","LIN":"2鄰","STREET":" ","SECT":" ","MAREA":"下洲子","LANE":" ","ALLEY":" ","HOUSE_NO":"１４號之１","E_COORD97":172425.82999999999,"N_COORD97":2556680.2999999998,"ADDRESS":"下洲子１４號之１","OBJECTID":210195},"geometry":{"x":172425.83000000101,"y":2556680.3000000026}},{"attributes":{"ID":210197,"DIS_CODE":0,"TOWNNAME":"安定區","LI":"大同里","LIN":"2鄰","STREET":" ","SECT":" ","MAREA":"大同","LANE":" ","ALLEY":" ","HOUSE_NO":"２４號","E_COORD97":170516.97,"N_COORD97":2553909.25,"ADDRESS":"大同２４號","OBJECTID":210196},"geometry":{"x":170516.9700000016,"y":2553909.2500000019}},{"attributes":{"ID":210198,"DIS_CODE":0,"TOWNNAME":"安定區","LI":"六嘉里","LIN":"2鄰","STREET":" ","SECT":" ","MAREA":"六塊寮","LANE":" ","ALLEY":" ","HOUSE_NO":"１９之２號","E_COORD97":170098.92000000001,"N_COORD97":2553486.2999999998,"ADDRESS":"六塊寮１９之２號","OBJECTID":210197},"geometry":{"x":170098.92000000179,"y":2553486.3000000026}},{"attributes":{"ID":210199,"DIS_CODE":0,"TOWNNAME":"安定區","LI":"大同里","LIN":"2鄰","STREET":" ","SECT":" ","MAREA":"大同","LANE":" ","ALLEY":" ","HOUSE_NO":"１５之１號","E_COORD97":170518.76999999999,"N_COORD97":2553877.2999999998,"ADDRESS":"大同１５之１號","OBJECTID":210198},"geometry":{"x":170518.77000000048,"y":2553877.3000000007}},{"attributes":{"ID":210200,"DIS_CODE":0,"TOWNNAME":"安定區","LI":"中榮里","LIN":"2鄰","STREET":" ","SECT":" ","MAREA":"許中營","LANE":" ","ALLEY":" ","HOUSE_NO":"２１之１０號","E_COORD97":172508.29000000001,"N_COORD97":2554890.2999999998,"ADDRESS":"許中營２１之１０號","OBJECTID":210199},"geometry":{"x":172508.29000000004,"y":2554890.3000000026}},{"attributes":{"ID":210201,"DIS_CODE":0,"TOWNNAME":"仁德區","LI":"後壁里","LIN":"43鄰","STREET":"德崙路","SECT":" ","MAREA":" ","LANE":"２１巷","ALLEY":"１０弄","HOUSE_NO":"１８號九樓之１","E_COORD97":173335.95000000001,"N_COORD97":2538610.7200000002,"ADDRESS":"德崙路２１巷１０弄１８號九樓之１","OBJECTID":210200},"geometry":{"x":173335.95000000019,"y":2538610.7200000025}}]}