{"displayFieldName":"TOWNNAME","fieldAliases":{"ID":"ID","DIS_CODE":"DIS_CODE","TOWNNAME":"TOWNNAME","LI":"LI","LIN":"LIN","STREET":"STREET","SECT":"SECT","MAREA":"MAREA","LANE":"LANE","ALLEY":"ALLEY","HOUSE_NO":"HOUSE_NO","E_COORD97":"E_COORD97","N_COORD97":"N_COORD97","ADDRESS":"ADDRESS","OBJECTID":"OBJECTID"},"geometryType":"esriGeometryPoint","spatialReference":{"wkid":102443,"latestWkid":3826},"fields":[{"name":"ID","type":"esriFieldTypeDouble","alias":"ID"},{"name":"DIS_CODE","type":"esriFieldTypeInteger","alias":"DIS_CODE"},{"name":"TOWNNAME","type":"esriFieldTypeString","alias":"TOWNNAME","length":8},{"name":"LI","type":"esriFieldTypeString","alias":"LI","length":8},{"name":"LIN","type":"esriFieldTypeString","alias":"LIN","length":12},{"name":"STREET","type":"esriFieldTypeString","alias":"STREET","length":20},{"name":"SECT","type":"esriFieldTypeString","alias":"SECT","length":8},{"name":"MAREA","type":"esriFieldTypeString","alias":"MAREA","length":12},{"name":"LANE","type":"esriFieldTypeString","alias":"LANE","length":10},{"name":"ALLEY","type":"esriFieldTypeString","alias":"ALLEY","length":10},{"name":"HOUSE_NO","type":"esriFieldTypeString","alias":"HOUSE_NO","length":20},{"name":"E_COORD97","type":"esriFieldTypeDouble","alias":"E_COORD97"},{"name":"N_COORD97","type":"esriFieldTypeDouble","alias":"N_COORD97"},{"name":"ADDRESS","type":"esriFieldTypeString","alias":"ADDRESS","length":50},{"name":"OBJECTID","type":"esriFieldTypeOID","alias":"OBJECTID"}],"features":[{"attributes":{"ID":617228,"DIS_CODE":0,"TOWNNAME":"東區","LI":"圍下里","LIN":"2鄰","STREET":"青年路","SECT":" ","MAREA":" ","LANE":" ","ALLEY":" ","HOUSE_NO":"３９０號","E_COORD97":169623.82999999999,"N_COORD97":2543520.0600000001,"ADDRESS":"青年路３９０號","OBJECTID":617201},"geometry":{"x":169623.83000000101,"y":2543520.0600000024}},{"attributes":{"ID":617229,"DIS_CODE":0,"TOWNNAME":"東區","LI":"圍下里","LIN":"2鄰","STREET":"青年路","SECT":" ","MAREA":" ","LANE":" ","ALLEY":" ","HOUSE_NO":"３９２號","E_COORD97":169627.22,"N_COORD97":2543519.5800000001,"ADDRESS":"青年路３９２號","OBJECTID":617202},"geometry":{"x":169627.22000000067,"y":2543519.5800000019}},{"attributes":{"ID":617230,"DIS_CODE":0,"TOWNNAME":"東區","LI":"圍下里","LIN":"2鄰","STREET":"青年路","SECT":" ","MAREA":" ","LANE":" ","ALLEY":" ","HOUSE_NO":"３９４號","E_COORD97":169631.35999999999,"N_COORD97":2543519.9199999999,"ADDRESS":"青年路３９４號","OBJECTID":617203},"geometry":{"x":169631.36000000034,"y":2543519.9200000018}},{"attributes":{"ID":617231,"DIS_CODE":0,"TOWNNAME":"東區","LI":"圍下里","LIN":"2鄰","STREET":"青年路","SECT":" ","MAREA":" ","LANE":" ","ALLEY":" ","HOUSE_NO":"４２８號","E_COORD97":169705.17000000001,"N_COORD97":2543489.4100000001,"ADDRESS":"青年路４２８號","OBJECTID":617204},"geometry":{"x":169705.16999999993,"y":2543489.4100000039}},{"attributes":{"ID":617232,"DIS_CODE":0,"TOWNNAME":"東區","LI":"圍下里","LIN":"2鄰","STREET":"青年路","SECT":" ","MAREA":" ","LANE":" ","ALLEY":" ","HOUSE_NO":"４３０號","E_COORD97":169703.84,"N_COORD97":2543514.1299999999,"ADDRESS":"青年路４３０號","OBJECTID":617205},"geometry":{"x":169703.83999999985,"y":2543514.1300000008}},{"attributes":{"ID":617233,"DIS_CODE":0,"TOWNNAME":"東區","LI":"圍下里","LIN":"2鄰","STREET":"青年路","SECT":" ","MAREA":" ","LANE":" ","ALLEY":" ","HOUSE_NO":"４５０號","E_COORD97":169769.60000000001,"N_COORD97":2543509.4199999999,"ADDRESS":"青年路４５０號","OBJECTID":617206},"geometry":{"x":169769.59999999963,"y":2543509.4200000037}},{"attributes":{"ID":617234,"DIS_CODE":0,"TOWNNAME":"東區","LI":"圍下里","LIN":"2鄰","STREET":"青年路","SECT":" ","MAREA":" ","LANE":" ","ALLEY":" ","HOUSE_NO":"４５２號","E_COORD97":169772.69,"N_COORD97":2543509.4199999999,"ADDRESS":"青年路４５２號","OBJECTID":617207},"geometry":{"x":169772.69000000134,"y":2543509.4200000037}},{"attributes":{"ID":617235,"DIS_CODE":0,"TOWNNAME":"東區","LI":"圍下里","LIN":"2鄰","STREET":"青年路","SECT":" ","MAREA":" ","LANE":" ","ALLEY":" ","HOUSE_NO":"４５６號","E_COORD97":169782.38,"N_COORD97":2543509.1499999999,"ADDRESS":"青年路４５６號","OBJECTID":617208},"geometry":{"x":169782.38000000082,"y":2543509.1500000022}},{"attributes":{"ID":617236,"DIS_CODE":0,"TOWNNAME":"東區","LI":"圍下里","LIN":"2鄰","STREET":"勝利路","SECT":" ","MAREA":" ","LANE":" ","ALLEY":" ","HOUSE_NO":"７１號","E_COORD97":169792.47,"N_COORD97":2543494.6400000001,"ADDRESS":"勝利路７１號","OBJECTID":617209},"geometry":{"x":169792.46999999974,"y":2543494.6400000006}},{"attributes":{"ID":617237,"DIS_CODE":0,"TOWNNAME":"東區","LI":"圍下里","LIN":"2鄰","STREET":"勝利路","SECT":" ","MAREA":" ","LANE":" ","ALLEY":" ","HOUSE_NO":"７５號","E_COORD97":169790.73000000001,"N_COORD97":2543506.46,"ADDRESS":"勝利路７５號","OBJECTID":617210},"geometry":{"x":169790.73000000138,"y":2543506.4600000009}},{"attributes":{"ID":617238,"DIS_CODE":0,"TOWNNAME":"東區","LI":"圍下里","LIN":"2鄰","STREET":"青年路","SECT":" ","MAREA":" ","LANE":" ","ALLEY":" ","HOUSE_NO":"３９６號","E_COORD97":169635.94,"N_COORD97":2543519.6499999999,"ADDRESS":"青年路３９６號","OBJECTID":617211},"geometry":{"x":169635.94000000041,"y":2543519.6500000022}},{"attributes":{"ID":617239,"DIS_CODE":0,"TOWNNAME":"東區","LI":"南聖里","LIN":"2鄰","STREET":"富農街","SECT":"二段","MAREA":" ","LANE":" ","ALLEY":" ","HOUSE_NO":"１５６號","E_COORD97":171634.91,"N_COORD97":2543195.2799999998,"ADDRESS":"富農街二段１５６號","OBJECTID":617212},"geometry":{"x":171634.91000000201,"y":2543195.2800000012}},{"attributes":{"ID":617240,"DIS_CODE":0,"TOWNNAME":"東區","LI":"自強里","LIN":"2鄰","STREET":"富農街","SECT":"一段","MAREA":" ","LANE":" ","ALLEY":" ","HOUSE_NO":"１１７號","E_COORD97":171516.56,"N_COORD97":2542442.5099999998,"ADDRESS":"富農街一段１１７號","OBJECTID":617213},"geometry":{"x":171516.56000000052,"y":2542442.5099999998}},{"attributes":{"ID":617241,"DIS_CODE":0,"TOWNNAME":"東區","LI":"圍下里","LIN":"2鄰","STREET":"青年路","SECT":" ","MAREA":" ","LANE":" ","ALLEY":" ","HOUSE_NO":"３７６號","E_COORD97":169596.84,"N_COORD97":2543522.8799999999,"ADDRESS":"青年路３７６號","OBJECTID":617214},"geometry":{"x":169596.83999999985,"y":2543522.8800000008}},{"attributes":{"ID":617242,"DIS_CODE":0,"TOWNNAME":"東區","LI":"圍下里","LIN":"2鄰","STREET":"青年路","SECT":" ","MAREA":" ","LANE":" ","ALLEY":" ","HOUSE_NO":"３８０號","E_COORD97":169604.04000000001,"N_COORD97":2543522.1099999999,"ADDRESS":"青年路３８０號","OBJECTID":617215},"geometry":{"x":169604.04000000004,"y":2543522.1100000013}},{"attributes":{"ID":617243,"DIS_CODE":0,"TOWNNAME":"東區","LI":"圍下里","LIN":"2鄰","STREET":"青年路","SECT":" ","MAREA":" ","LANE":" ","ALLEY":" ","HOUSE_NO":"４０４號","E_COORD97":169656.12,"N_COORD97":2543518.04,"ADDRESS":"青年路４０４號","OBJECTID":617216},"geometry":{"x":169656.12000000011,"y":2543518.0400000028}},{"attributes":{"ID":617244,"DIS_CODE":0,"TOWNNAME":"東區","LI":"圍下里","LIN":"2鄰","STREET":"青年路","SECT":" ","MAREA":" ","LANE":" ","ALLEY":" ","HOUSE_NO":"３６８號","E_COORD97":169578.85000000001,"N_COORD97":2543524.6800000002,"ADDRESS":"青年路３６８號","OBJECTID":617217},"geometry":{"x":169578.85000000056,"y":2543524.6800000016}},{"attributes":{"ID":617245,"DIS_CODE":0,"TOWNNAME":"東區","LI":"圍下里","LIN":"2鄰","STREET":"青年路","SECT":" ","MAREA":" ","LANE":" ","ALLEY":" ","HOUSE_NO":"４４８號","E_COORD97":169745.78,"N_COORD97":2543498.2599999998,"ADDRESS":"青年路４４８號","OBJECTID":617218},"geometry":{"x":169745.78000000212,"y":2543498.2600000016}},{"attributes":{"ID":617246,"DIS_CODE":0,"TOWNNAME":"東區","LI":"圍下里","LIN":"2鄰","STREET":"青年路","SECT":" ","MAREA":" ","LANE":" ","ALLEY":" ","HOUSE_NO":"４５４號","E_COORD97":169777.67000000001,"N_COORD97":2543509.1499999999,"ADDRESS":"青年路４５４號","OBJECTID":617219},"geometry":{"x":169777.66999999993,"y":2543509.1500000022}},{"attributes":{"ID":617247,"DIS_CODE":0,"TOWNNAME":"東區","LI":"自強里","LIN":"2鄰","STREET":"富農街","SECT":"一段","MAREA":" ","LANE":" ","ALLEY":" ","HOUSE_NO":"１０９號","E_COORD97":171512.54000000001,"N_COORD97":2542425.0299999998,"ADDRESS":"富農街一段１０９號","OBJECTID":617220},"geometry":{"x":171512.54000000097,"y":2542425.0299999993}},{"attributes":{"ID":617248,"DIS_CODE":0,"TOWNNAME":"東區","LI":"自強里","LIN":"2鄰","STREET":"富農街","SECT":"一段","MAREA":" ","LANE":" ","ALLEY":" ","HOUSE_NO":"１１１號","E_COORD97":171512.54000000001,"N_COORD97":2542428.8999999999,"ADDRESS":"富農街一段１１１號","OBJECTID":617221},"geometry":{"x":171512.54000000097,"y":2542428.9000000022}},{"attributes":{"ID":617249,"DIS_CODE":0,"TOWNNAME":"東區","LI":"自強里","LIN":"2鄰","STREET":"富農街","SECT":"一段","MAREA":" ","LANE":" ","ALLEY":" ","HOUSE_NO":"１２１號","E_COORD97":171520.72,"N_COORD97":2542452.6800000002,"ADDRESS":"富農街一段１２１號","OBJECTID":617222},"geometry":{"x":171520.72000000067,"y":2542452.6799999997}},{"attributes":{"ID":617250,"DIS_CODE":0,"TOWNNAME":"東區","LI":"自強里","LIN":"2鄰","STREET":"富農街","SECT":"一段","MAREA":" ","LANE":" ","ALLEY":" ","HOUSE_NO":"１２９號","E_COORD97":171525.17000000001,"N_COORD97":2542471.3500000001,"ADDRESS":"富農街一段１２９號","OBJECTID":617223},"geometry":{"x":171525.17000000086,"y":2542471.3499999996}},{"attributes":{"ID":617251,"DIS_CODE":0,"TOWNNAME":"東區","LI":"圍下里","LIN":"2鄰","STREET":"青年路","SECT":" ","MAREA":" ","LANE":" ","ALLEY":" ","HOUSE_NO":"４１６號","E_COORD97":169680.42999999999,"N_COORD97":2543515.2000000002,"ADDRESS":"青年路４１６號","OBJECTID":617224},"geometry":{"x":169680.43000000063,"y":2543515.2000000011}},{"attributes":{"ID":617252,"DIS_CODE":0,"TOWNNAME":"東區","LI":"後甲里","LIN":"2鄰","STREET":"裕農路","SECT":" ","MAREA":" ","LANE":" ","ALLEY":" ","HOUSE_NO":"７１５號","E_COORD97":171876.41,"N_COORD97":2543266.1699999999,"ADDRESS":"裕農路７１５號","OBJECTID":617225},"geometry":{"x":171876.41000000108,"y":2543266.1699999999}},{"attributes":{"ID":617253,"DIS_CODE":0,"TOWNNAME":"東區","LI":"圍下里","LIN":"2鄰","STREET":"青年路","SECT":" ","MAREA":" ","LANE":" ","ALLEY":" ","HOUSE_NO":"４３２號之４","E_COORD97":169712.59,"N_COORD97":2543514.5299999998,"ADDRESS":"青年路４３２號之４","OBJECTID":617226},"geometry":{"x":169712.58999999985,"y":2543514.5299999975}},{"attributes":{"ID":617254,"DIS_CODE":0,"TOWNNAME":"永康區","LI":"尚頂里","LIN":"2鄰","STREET":"中正二街","SECT":" ","MAREA":" ","LANE":" ","ALLEY":" ","HOUSE_NO":"１２６號","E_COORD97":171204.04999999999,"N_COORD97":2547597.6800000002,"ADDRESS":"中正二街１２６號","OBJECTID":617227},"geometry":{"x":171204.04999999981,"y":2547597.6800000016}},{"attributes":{"ID":617255,"DIS_CODE":0,"TOWNNAME":"東區","LI":"和平里","LIN":"2鄰","STREET":"文化路","SECT":" ","MAREA":" ","LANE":" ","ALLEY":" ","HOUSE_NO":"９９號","E_COORD97":171286.35000000001,"N_COORD97":2541969.29,"ADDRESS":"文化路９９號","OBJECTID":617228},"geometry":{"x":171286.35000000056,"y":2541969.2899999991}},{"attributes":{"ID":617256,"DIS_CODE":0,"TOWNNAME":"永康區","LI":"大灣里","LIN":"2鄰","STREET":"中灣一街","SECT":" ","MAREA":" ","LANE":" ","ALLEY":" ","HOUSE_NO":"３５號","E_COORD97":174758.51000000001,"N_COORD97":2545589.1600000001,"ADDRESS":"中灣一街３５號","OBJECTID":617229},"geometry":{"x":174758.51000000071,"y":2545589.1600000001}},{"attributes":{"ID":617257,"DIS_CODE":0,"TOWNNAME":"永康區","LI":"東橋里","LIN":"2鄰","STREET":"大橋一街","SECT":" ","MAREA":" ","LANE":" ","ALLEY":" ","HOUSE_NO":"３２０號","E_COORD97":171300.67999999999,"N_COORD97":2546673.4900000002,"ADDRESS":"大橋一街３２０號","OBJECTID":617230},"geometry":{"x":171300.68000000063,"y":2546673.4900000021}},{"attributes":{"ID":617258,"DIS_CODE":0,"TOWNNAME":"永康區","LI":"尚頂里","LIN":"2鄰","STREET":"中正二街","SECT":" ","MAREA":" ","LANE":" ","ALLEY":" ","HOUSE_NO":"１６１號","E_COORD97":171322.37,"N_COORD97":2547699.9900000002,"ADDRESS":"中正二街１６１號","OBJECTID":617231},"geometry":{"x":171322.37000000104,"y":2547699.9900000039}},{"attributes":{"ID":617259,"DIS_CODE":0,"TOWNNAME":"永康區","LI":"尚頂里","LIN":"2鄰","STREET":"中正二街","SECT":" ","MAREA":" ","LANE":" ","ALLEY":" ","HOUSE_NO":"１６３號","E_COORD97":171329.04000000001,"N_COORD97":2547707.2400000002,"ADDRESS":"中正二街１６３號","OBJECTID":617232},"geometry":{"x":171329.04000000097,"y":2547707.2400000002}},{"attributes":{"ID":617260,"DIS_CODE":0,"TOWNNAME":"永康區","LI":"尚頂里","LIN":"2鄰","STREET":"中正二街","SECT":" ","MAREA":" ","LANE":" ","ALLEY":" ","HOUSE_NO":"１５５號","E_COORD97":171270.70999999999,"N_COORD97":2547667.5,"ADDRESS":"中正二街１５５號","OBJECTID":617233},"geometry":{"x":171270.71000000089,"y":2547667.5}},{"attributes":{"ID":617261,"DIS_CODE":0,"TOWNNAME":"安南區","LI":"溪頂里","LIN":"2鄰","STREET":"府安路","SECT":"四段","MAREA":" ","LANE":" ","ALLEY":" ","HOUSE_NO":"１００號","E_COORD97":169076.60000000001,"N_COORD97":2547275.6499999999,"ADDRESS":"府安路四段１００號","OBJECTID":617234},"geometry":{"x":169076.59999999963,"y":2547275.6500000022}},{"attributes":{"ID":617262,"DIS_CODE":0,"TOWNNAME":"安南區","LI":"溪頂里","LIN":"2鄰","STREET":"府安路","SECT":"四段","MAREA":" ","LANE":" ","ALLEY":" ","HOUSE_NO":"１０１號","E_COORD97":169072.06,"N_COORD97":2547275.52,"ADDRESS":"府安路四段１０１號","OBJECTID":617235},"geometry":{"x":169072.06000000145,"y":2547275.5200000014}},{"attributes":{"ID":617263,"DIS_CODE":0,"TOWNNAME":"安南區","LI":"溪頂里","LIN":"2鄰","STREET":"府安路","SECT":"四段","MAREA":" ","LANE":" ","ALLEY":" ","HOUSE_NO":"１０２號","E_COORD97":169068.67999999999,"N_COORD97":2547274.7400000002,"ADDRESS":"府安路四段１０２號","OBJECTID":617236},"geometry":{"x":169068.68000000063,"y":2547274.7400000021}},{"attributes":{"ID":617264,"DIS_CODE":0,"TOWNNAME":"安南區","LI":"溪頂里","LIN":"2鄰","STREET":"府安路","SECT":"四段","MAREA":" ","LANE":" ","ALLEY":" ","HOUSE_NO":"１０４號","E_COORD97":169060.48999999999,"N_COORD97":2547274.6099999999,"ADDRESS":"府安路四段１０４號","OBJECTID":617237},"geometry":{"x":169060.49000000022,"y":2547274.6100000013}},{"attributes":{"ID":617265,"DIS_CODE":0,"TOWNNAME":"安南區","LI":"溪頂里","LIN":"2鄰","STREET":"府安路","SECT":"四段","MAREA":" ","LANE":" ","ALLEY":" ","HOUSE_NO":"１０６號","E_COORD97":169052.42999999999,"N_COORD97":2547273.96,"ADDRESS":"府安路四段１０６號","OBJECTID":617238},"geometry":{"x":169052.4299999997,"y":2547273.9600000028}},{"attributes":{"ID":617266,"DIS_CODE":0,"TOWNNAME":"安南區","LI":"溪頂里","LIN":"2鄰","STREET":"府安路","SECT":"四段","MAREA":" ","LANE":" ","ALLEY":" ","HOUSE_NO":"１０７號","E_COORD97":169048.53,"N_COORD97":2547273.96,"ADDRESS":"府安路四段１０７號","OBJECTID":617239},"geometry":{"x":169048.53000000026,"y":2547273.9600000028}},{"attributes":{"ID":617267,"DIS_CODE":0,"TOWNNAME":"安南區","LI":"溪頂里","LIN":"2鄰","STREET":"府安路","SECT":"四段","MAREA":" ","LANE":" ","ALLEY":" ","HOUSE_NO":"１０８號","E_COORD97":169044.63,"N_COORD97":2547273.96,"ADDRESS":"府安路四段１０８號","OBJECTID":617240},"geometry":{"x":169044.63000000175,"y":2547273.9600000028}},{"attributes":{"ID":617268,"DIS_CODE":0,"TOWNNAME":"安南區","LI":"溪頂里","LIN":"2鄰","STREET":"府安路","SECT":"四段","MAREA":" ","LANE":" ","ALLEY":" ","HOUSE_NO":"９３號","E_COORD97":169106.26999999999,"N_COORD97":2547278.3900000001,"ADDRESS":"府安路四段９３號","OBJECTID":617241},"geometry":{"x":169106.27000000048,"y":2547278.3900000025}},{"attributes":{"ID":617269,"DIS_CODE":0,"TOWNNAME":"安南區","LI":"溪頂里","LIN":"2鄰","STREET":"府安路","SECT":"四段","MAREA":" ","LANE":" ","ALLEY":" ","HOUSE_NO":"９４號","E_COORD97":169102.37,"N_COORD97":2547277.7400000002,"ADDRESS":"府安路四段９４號","OBJECTID":617242},"geometry":{"x":169102.37000000011,"y":2547277.7400000039}},{"attributes":{"ID":617270,"DIS_CODE":0,"TOWNNAME":"安南區","LI":"溪頂里","LIN":"2鄰","STREET":"府安路","SECT":"四段","MAREA":" ","LANE":" ","ALLEY":" ","HOUSE_NO":"９５號","E_COORD97":169098.60000000001,"N_COORD97":2547278,"ADDRESS":"府安路四段９５號","OBJECTID":617243},"geometry":{"x":169098.59999999963,"y":2547278}},{"attributes":{"ID":617271,"DIS_CODE":0,"TOWNNAME":"安南區","LI":"溪頂里","LIN":"2鄰","STREET":"府安路","SECT":"四段","MAREA":" ","LANE":" ","ALLEY":" ","HOUSE_NO":"９８號","E_COORD97":169084.53,"N_COORD97":2547276.1699999999,"ADDRESS":"府安路四段９８號","OBJECTID":617244},"geometry":{"x":169084.53000000026,"y":2547276.1699999999}},{"attributes":{"ID":617272,"DIS_CODE":0,"TOWNNAME":"安南區","LI":"溪頂里","LIN":"2鄰","STREET":"府安路","SECT":"四段","MAREA":" ","LANE":" ","ALLEY":" ","HOUSE_NO":"９９號","E_COORD97":169080.63,"N_COORD97":2547275.6499999999,"ADDRESS":"府安路四段９９號","OBJECTID":617245},"geometry":{"x":169080.63000000082,"y":2547275.6500000022}},{"attributes":{"ID":617273,"DIS_CODE":0,"TOWNNAME":"麻豆區","LI":"\u25A0江里","LIN":"2鄰","STREET":"信義路","SECT":" ","MAREA":" ","LANE":" ","ALLEY":" ","HOUSE_NO":"１１號之１","E_COORD97":173265.41,"N_COORD97":2564629.5299999998,"ADDRESS":"信義路１１號之１","OBJECTID":617246},"geometry":{"x":173265.41000000015,"y":2564629.5299999993}},{"attributes":{"ID":617274,"DIS_CODE":0,"TOWNNAME":"麻豆區","LI":"\u25A0江里","LIN":"2鄰","STREET":"信義路","SECT":" ","MAREA":" ","LANE":" ","ALLEY":" ","HOUSE_NO":"１１號之２","E_COORD97":173269.39999999999,"N_COORD97":2564637.46,"ADDRESS":"信義路１１號之２","OBJECTID":617247},"geometry":{"x":173269.40000000224,"y":2564637.4600000009}},{"attributes":{"ID":617275,"DIS_CODE":0,"TOWNNAME":"麻豆區","LI":"\u25A0江里","LIN":"2鄰","STREET":"信義路","SECT":" ","MAREA":" ","LANE":" ","ALLEY":" ","HOUSE_NO":"１１號之４０","E_COORD97":173283.31,"N_COORD97":2564644.3999999999,"ADDRESS":"信義路１１號之４０","OBJECTID":617248},"geometry":{"x":173283.31000000052,"y":2564644.4000000004}},{"attributes":{"ID":617276,"DIS_CODE":0,"TOWNNAME":"麻豆區","LI":"\u25A0江里","LIN":"2鄰","STREET":"信義路","SECT":" ","MAREA":" ","LANE":" ","ALLEY":" ","HOUSE_NO":"１１號之４１","E_COORD97":173283.73999999999,"N_COORD97":2564652.29,"ADDRESS":"信義路１１號之４１","OBJECTID":617249},"geometry":{"x":173283.74000000022,"y":2564652.290000001}},{"attributes":{"ID":617277,"DIS_CODE":0,"TOWNNAME":"麻豆區","LI":"\u25A0江里","LIN":"2鄰","STREET":"信義路","SECT":" ","MAREA":" ","LANE":" ","ALLEY":" ","HOUSE_NO":"１１號之４２","E_COORD97":173283.95000000001,"N_COORD97":2564658.2000000002,"ADDRESS":"信義路１１號之４２","OBJECTID":617250},"geometry":{"x":173283.95000000019,"y":2564658.1999999993}},{"attributes":{"ID":617278,"DIS_CODE":0,"TOWNNAME":"麻豆區","LI":"\u25A0江里","LIN":"2鄰","STREET":"信義路","SECT":" ","MAREA":" ","LANE":" ","ALLEY":" ","HOUSE_NO":"１１號之４３","E_COORD97":173284.95999999999,"N_COORD97":2564664.6899999999,"ADDRESS":"信義路１１號之４３","OBJECTID":617251},"geometry":{"x":173284.95999999996,"y":2564664.6900000013}},{"attributes":{"ID":617279,"DIS_CODE":0,"TOWNNAME":"麻豆區","LI":"\u25A0江里","LIN":"2鄰","STREET":"信義路","SECT":" ","MAREA":" ","LANE":" ","ALLEY":" ","HOUSE_NO":"１１號之４４","E_COORD97":173284.04999999999,"N_COORD97":2564671.1400000001,"ADDRESS":"信義路１１號之４４","OBJECTID":617252},"geometry":{"x":173284.04999999981,"y":2564671.1399999987}},{"attributes":{"ID":617280,"DIS_CODE":0,"TOWNNAME":"麻豆區","LI":"\u25A0江里","LIN":"2鄰","STREET":"信義路","SECT":" ","MAREA":" ","LANE":" ","ALLEY":" ","HOUSE_NO":"１１號之４５","E_COORD97":173284.39999999999,"N_COORD97":2564677.6200000001,"ADDRESS":"信義路１１號之４５","OBJECTID":617253},"geometry":{"x":173284.40000000037,"y":2564677.620000001}},{"attributes":{"ID":617281,"DIS_CODE":0,"TOWNNAME":"麻豆區","LI":"\u25A0江里","LIN":"2鄰","STREET":"信義路","SECT":" ","MAREA":" ","LANE":" ","ALLEY":" ","HOUSE_NO":"１１號之４６","E_COORD97":173284.69,"N_COORD97":2564683.9199999999,"ADDRESS":"信義路１１號之４６","OBJECTID":617254},"geometry":{"x":173284.69000000134,"y":2564683.9200000018}},{"attributes":{"ID":617282,"DIS_CODE":0,"TOWNNAME":"麻豆區","LI":"\u25A0江里","LIN":"2鄰","STREET":"信義路","SECT":" ","MAREA":" ","LANE":" ","ALLEY":" ","HOUSE_NO":"１１號之４７","E_COORD97":173285.19,"N_COORD97":2564689.71,"ADDRESS":"信義路１１號之４７","OBJECTID":617255},"geometry":{"x":173285.19000000134,"y":2564689.7100000028}},{"attributes":{"ID":617283,"DIS_CODE":0,"TOWNNAME":"麻豆區","LI":"\u25A0江里","LIN":"2鄰","STREET":"信義路","SECT":" ","MAREA":" ","LANE":" ","ALLEY":" ","HOUSE_NO":"１１號之４８","E_COORD97":173285.59,"N_COORD97":2564696.0800000001,"ADDRESS":"信義路１１號之４８","OBJECTID":617256},"geometry":{"x":173285.58999999985,"y":2564696.0800000019}},{"attributes":{"ID":617284,"DIS_CODE":0,"TOWNNAME":"麻豆區","LI":"\u25A0江里","LIN":"2鄰","STREET":"信義路","SECT":" ","MAREA":" ","LANE":" ","ALLEY":" ","HOUSE_NO":"１１號之４９","E_COORD97":173289.23000000001,"N_COORD97":2564709.1899999999,"ADDRESS":"信義路１１號之４９","OBJECTID":617257},"geometry":{"x":173289.22999999952,"y":2564709.1899999995}},{"attributes":{"ID":617285,"DIS_CODE":0,"TOWNNAME":"麻豆區","LI":"\u25A0江里","LIN":"2鄰","STREET":"信義路","SECT":" ","MAREA":" ","LANE":" ","ALLEY":" ","HOUSE_NO":"１１號之５０","E_COORD97":173293.57999999999,"N_COORD97":2564709.1600000001,"ADDRESS":"信義路１１號之５０","OBJECTID":617258},"geometry":{"x":173293.58000000101,"y":2564709.160000002}},{"attributes":{"ID":617286,"DIS_CODE":0,"TOWNNAME":"麻豆區","LI":"\u25A0江里","LIN":"2鄰","STREET":"信義路","SECT":" ","MAREA":" ","LANE":" ","ALLEY":" ","HOUSE_NO":"１１號之５１","E_COORD97":173298.54999999999,"N_COORD97":2564708.7999999998,"ADDRESS":"信義路１１號之５１","OBJECTID":617259},"geometry":{"x":173298.55000000075,"y":2564708.8000000026}},{"attributes":{"ID":617287,"DIS_CODE":0,"TOWNNAME":"麻豆區","LI":"\u25A0江里","LIN":"2鄰","STREET":"信義路","SECT":" ","MAREA":" ","LANE":" ","ALLEY":" ","HOUSE_NO":"１１號之５２","E_COORD97":173303.17000000001,"N_COORD97":2564708.2400000002,"ADDRESS":"信義路１１號之５２","OBJECTID":617260},"geometry":{"x":173303.17000000086,"y":2564708.2400000021}},{"attributes":{"ID":617288,"DIS_CODE":0,"TOWNNAME":"麻豆區","LI":"\u25A0江里","LIN":"2鄰","STREET":"信義路","SECT":" ","MAREA":" ","LANE":" ","ALLEY":" ","HOUSE_NO":"１１號之５３","E_COORD97":173307.76999999999,"N_COORD97":2564707.8500000001,"ADDRESS":"信義路１１號之５３","OBJECTID":617261},"geometry":{"x":173307.76999999955,"y":2564707.8500000015}},{"attributes":{"ID":617289,"DIS_CODE":0,"TOWNNAME":"麻豆區","LI":"\u25A0江里","LIN":"2鄰","STREET":"信義路","SECT":" ","MAREA":" ","LANE":" ","ALLEY":" ","HOUSE_NO":"１１號","E_COORD97":173271.85999999999,"N_COORD97":2564647.21,"ADDRESS":"信義路１１號","OBJECTID":617262},"geometry":{"x":173271.86000000127,"y":2564647.209999999}},{"attributes":{"ID":617290,"DIS_CODE":0,"TOWNNAME":"麻豆區","LI":"巷口里","LIN":"2鄰","STREET":"信義路","SECT":" ","MAREA":" ","LANE":" ","ALLEY":" ","HOUSE_NO":"１號之１０","E_COORD97":173091.39999999999,"N_COORD97":2564660.5099999998,"ADDRESS":"信義路１號之１０","OBJECTID":617263},"geometry":{"x":173091.40000000224,"y":2564660.5099999998}},{"attributes":{"ID":617291,"DIS_CODE":0,"TOWNNAME":"麻豆區","LI":"巷口里","LIN":"2鄰","STREET":"信義路","SECT":" ","MAREA":" ","LANE":" ","ALLEY":" ","HOUSE_NO":"１號之１１","E_COORD97":173091.42999999999,"N_COORD97":2564666.7599999998,"ADDRESS":"信義路１號之１１","OBJECTID":617264},"geometry":{"x":173091.4299999997,"y":2564666.7600000016}},{"attributes":{"ID":617292,"DIS_CODE":0,"TOWNNAME":"麻豆區","LI":"巷口里","LIN":"2鄰","STREET":"信義路","SECT":" ","MAREA":" ","LANE":" ","ALLEY":" ","HOUSE_NO":"１號之１２","E_COORD97":173109.66,"N_COORD97":2564648.5899999999,"ADDRESS":"信義路１號之１２","OBJECTID":617265},"geometry":{"x":173109.65999999922,"y":2564648.5900000017}},{"attributes":{"ID":617293,"DIS_CODE":0,"TOWNNAME":"麻豆區","LI":"巷口里","LIN":"2鄰","STREET":"信義路","SECT":" ","MAREA":" ","LANE":" ","ALLEY":" ","HOUSE_NO":"１號之１３","E_COORD97":173109.48000000001,"N_COORD97":2564654.5299999998,"ADDRESS":"信義路１號之１３","OBJECTID":617266},"geometry":{"x":173109.48000000045,"y":2564654.5300000012}},{"attributes":{"ID":617294,"DIS_CODE":0,"TOWNNAME":"麻豆區","LI":"巷口里","LIN":"2鄰","STREET":"信義路","SECT":" ","MAREA":" ","LANE":" ","ALLEY":" ","HOUSE_NO":"１號之１４","E_COORD97":173109.47,"N_COORD97":2564660.7400000002,"ADDRESS":"信義路１號之１４","OBJECTID":617267},"geometry":{"x":173109.47000000067,"y":2564660.7400000021}},{"attributes":{"ID":617295,"DIS_CODE":0,"TOWNNAME":"麻豆區","LI":"巷口里","LIN":"2鄰","STREET":"信義路","SECT":" ","MAREA":" ","LANE":" ","ALLEY":" ","HOUSE_NO":"１號之１５","E_COORD97":173109.34,"N_COORD97":2564666.3799999999,"ADDRESS":"信義路１號之１５","OBJECTID":617268},"geometry":{"x":173109.33999999985,"y":2564666.379999999}},{"attributes":{"ID":617296,"DIS_CODE":0,"TOWNNAME":"麻豆區","LI":"巷口里","LIN":"2鄰","STREET":"信義路","SECT":" ","MAREA":" ","LANE":" ","ALLEY":" ","HOUSE_NO":"１號之１７","E_COORD97":173077.87,"N_COORD97":2564628.3300000001,"ADDRESS":"信義路１號之１７","OBJECTID":617269},"geometry":{"x":173077.87000000197,"y":2564628.3300000001}},{"attributes":{"ID":617297,"DIS_CODE":0,"TOWNNAME":"麻豆區","LI":"巷口里","LIN":"2鄰","STREET":"信義路","SECT":" ","MAREA":" ","LANE":" ","ALLEY":" ","HOUSE_NO":"１號之１","E_COORD97":173089.41,"N_COORD97":2564634.9700000002,"ADDRESS":"信義路１號之１","OBJECTID":617270},"geometry":{"x":173089.41000000201,"y":2564634.9700000007}},{"attributes":{"ID":617298,"DIS_CODE":0,"TOWNNAME":"麻豆區","LI":"巷口里","LIN":"2鄰","STREET":"信義路","SECT":" ","MAREA":" ","LANE":" ","ALLEY":" ","HOUSE_NO":"１號之２５","E_COORD97":173133.73000000001,"N_COORD97":2564636.4100000001,"ADDRESS":"信義路１號之２５","OBJECTID":617271},"geometry":{"x":173133.73000000138,"y":2564636.410000002}},{"attributes":{"ID":617299,"DIS_CODE":0,"TOWNNAME":"麻豆區","LI":"巷口里","LIN":"2鄰","STREET":"信義路","SECT":" ","MAREA":" ","LANE":" ","ALLEY":" ","HOUSE_NO":"１號之２","E_COORD97":173093.98000000001,"N_COORD97":2564634.7999999998,"ADDRESS":"信義路１號之２","OBJECTID":617272},"geometry":{"x":173093.98000000045,"y":2564634.8000000026}},{"attributes":{"ID":617300,"DIS_CODE":0,"TOWNNAME":"麻豆區","LI":"巷口里","LIN":"2鄰","STREET":"信義路","SECT":" ","MAREA":" ","LANE":" ","ALLEY":" ","HOUSE_NO":"１號之３","E_COORD97":173097.98999999999,"N_COORD97":2564634.8599999999,"ADDRESS":"信義路１號之３","OBJECTID":617273},"geometry":{"x":173097.99000000115,"y":2564634.8600000031}},{"attributes":{"ID":617301,"DIS_CODE":0,"TOWNNAME":"麻豆區","LI":"巷口里","LIN":"2鄰","STREET":"信義路","SECT":" ","MAREA":" ","LANE":" ","ALLEY":" ","HOUSE_NO":"１號之４","E_COORD97":173109.32000000001,"N_COORD97":2564635.7599999998,"ADDRESS":"信義路１號之４","OBJECTID":617274},"geometry":{"x":173109.32000000123,"y":2564635.7600000035}},{"attributes":{"ID":617302,"DIS_CODE":0,"TOWNNAME":"麻豆區","LI":"巷口里","LIN":"2鄰","STREET":"信義路","SECT":" ","MAREA":" ","LANE":" ","ALLEY":" ","HOUSE_NO":"１號之５","E_COORD97":173113.73000000001,"N_COORD97":2564635.71,"ADDRESS":"信義路１號之５","OBJECTID":617275},"geometry":{"x":173113.73000000138,"y":2564635.7100000009}},{"attributes":{"ID":617303,"DIS_CODE":0,"TOWNNAME":"麻豆區","LI":"巷口里","LIN":"2鄰","STREET":"信義路","SECT":" ","MAREA":" ","LANE":" ","ALLEY":" ","HOUSE_NO":"１號之６","E_COORD97":173118.04999999999,"N_COORD97":2564635.8100000001,"ADDRESS":"信義路１號之６","OBJECTID":617276},"geometry":{"x":173118.04999999981,"y":2564635.8100000005}},{"attributes":{"ID":617304,"DIS_CODE":0,"TOWNNAME":"麻豆區","LI":"巷口里","LIN":"2鄰","STREET":"信義路","SECT":" ","MAREA":" ","LANE":" ","ALLEY":" ","HOUSE_NO":"１號之７","E_COORD97":173122.37,"N_COORD97":2564635.7599999998,"ADDRESS":"信義路１號之７","OBJECTID":617277},"geometry":{"x":173122.37000000104,"y":2564635.7600000035}},{"attributes":{"ID":617305,"DIS_CODE":0,"TOWNNAME":"麻豆區","LI":"巷口里","LIN":"2鄰","STREET":"信義路","SECT":" ","MAREA":" ","LANE":" ","ALLEY":" ","HOUSE_NO":"１號之８","E_COORD97":173091.41,"N_COORD97":2564648.8900000001,"ADDRESS":"信義路１號之８","OBJECTID":617278},"geometry":{"x":173091.41000000108,"y":2564648.8900000006}},{"attributes":{"ID":617306,"DIS_CODE":0,"TOWNNAME":"麻豆區","LI":"巷口里","LIN":"2鄰","STREET":"信義路","SECT":" ","MAREA":" ","LANE":" ","ALLEY":" ","HOUSE_NO":"１號之９","E_COORD97":173091.70000000001,"N_COORD97":2564654.3199999998,"ADDRESS":"信義路１號之９","OBJECTID":617279},"geometry":{"x":173091.70000000112,"y":2564654.3200000022}},{"attributes":{"ID":617307,"DIS_CODE":0,"TOWNNAME":"麻豆區","LI":"巷口里","LIN":"2鄰","STREET":"信義路","SECT":" ","MAREA":" ","LANE":" ","ALLEY":" ","HOUSE_NO":"３號之１","E_COORD97":173146.14000000001,"N_COORD97":2564633.7799999998,"ADDRESS":"信義路３號之１","OBJECTID":617280},"geometry":{"x":173146.13999999966,"y":2564633.7799999993}},{"attributes":{"ID":617308,"DIS_CODE":0,"TOWNNAME":"東區","LI":"自強里","LIN":"31鄰","STREET":"中華東路","SECT":"二段","MAREA":" ","LANE":" ","ALLEY":" ","HOUSE_NO":"１９９號","E_COORD97":171298.85000000001,"N_COORD97":2542742.0899999999,"ADDRESS":"中華東路二段１９９號","OBJECTID":617281},"geometry":{"x":171298.84999999963,"y":2542742.0900000036}},{"attributes":{"ID":617309,"DIS_CODE":0,"TOWNNAME":"東區","LI":"自強里","LIN":"31鄰","STREET":"中華東路","SECT":"二段","MAREA":" ","LANE":" ","ALLEY":" ","HOUSE_NO":"２０１號","E_COORD97":171299.76999999999,"N_COORD97":2542725.27,"ADDRESS":"中華東路二段２０１號","OBJECTID":617282},"geometry":{"x":171299.77000000142,"y":2542725.2699999996}},{"attributes":{"ID":617310,"DIS_CODE":0,"TOWNNAME":"東區","LI":"自強里","LIN":"31鄰","STREET":"中華東路","SECT":"二段","MAREA":" ","LANE":" ","ALLEY":" ","HOUSE_NO":"２０１號之１","E_COORD97":171301.14000000001,"N_COORD97":2542721.1200000001,"ADDRESS":"中華東路二段２０１號之１","OBJECTID":617283},"geometry":{"x":171301.1400000006,"y":2542721.120000001}},{"attributes":{"ID":617311,"DIS_CODE":0,"TOWNNAME":"東區","LI":"成大里","LIN":"31鄰","STREET":"北門路","SECT":"二段","MAREA":" ","LANE":" ","ALLEY":" ","HOUSE_NO":"１０號","E_COORD97":169268.14000000001,"N_COORD97":2544241.8100000001,"ADDRESS":"北門路二段１０號","OBJECTID":617284},"geometry":{"x":169268.14000000153,"y":2544241.8100000005}},{"attributes":{"ID":617312,"DIS_CODE":0,"TOWNNAME":"東區","LI":"成大里","LIN":"31鄰","STREET":"北門路","SECT":"二段","MAREA":" ","LANE":" ","ALLEY":" ","HOUSE_NO":"１２號","E_COORD97":169258.76999999999,"N_COORD97":2544246.1099999999,"ADDRESS":"北門路二段１２號","OBJECTID":617285},"geometry":{"x":169258.77000000048,"y":2544246.1099999994}},{"attributes":{"ID":617313,"DIS_CODE":0,"TOWNNAME":"東區","LI":"成大里","LIN":"31鄰","STREET":"北門路","SECT":"二段","MAREA":" ","LANE":" ","ALLEY":" ","HOUSE_NO":"１４號","E_COORD97":169266.12,"N_COORD97":2544279.7400000002,"ADDRESS":"北門路二段１４號","OBJECTID":617286},"geometry":{"x":169266.12000000104,"y":2544279.7400000002}},{"attributes":{"ID":617314,"DIS_CODE":0,"TOWNNAME":"東區","LI":"成大里","LIN":"31鄰","STREET":"北門路","SECT":"二段","MAREA":" ","LANE":" ","ALLEY":" ","HOUSE_NO":"１６號","E_COORD97":169293.64000000001,"N_COORD97":2544403.3900000001,"ADDRESS":"北門路二段１６號","OBJECTID":617287},"geometry":{"x":169293.64000000153,"y":2544403.3900000025}},{"attributes":{"ID":617315,"DIS_CODE":0,"TOWNNAME":"麻豆區","LI":"巷口里","LIN":"2鄰","STREET":"信義路","SECT":" ","MAREA":" ","LANE":" ","ALLEY":" ","HOUSE_NO":"３號之２","E_COORD97":173149.67000000001,"N_COORD97":2564633.71,"ADDRESS":"信義路３號之２","OBJECTID":617288},"geometry":{"x":173149.66999999993,"y":2564633.709999999}},{"attributes":{"ID":617316,"DIS_CODE":0,"TOWNNAME":"麻豆區","LI":"巷口里","LIN":"2鄰","STREET":"信義路","SECT":" ","MAREA":" ","LANE":" ","ALLEY":" ","HOUSE_NO":"３號之３","E_COORD97":173153.60000000001,"N_COORD97":2564633.7400000002,"ADDRESS":"信義路３號之３","OBJECTID":617289},"geometry":{"x":173153.5999999987,"y":2564633.7400000021}},{"attributes":{"ID":617317,"DIS_CODE":0,"TOWNNAME":"麻豆區","LI":"巷口里","LIN":"2鄰","STREET":"信義路","SECT":" ","MAREA":" ","LANE":" ","ALLEY":" ","HOUSE_NO":"３號","E_COORD97":173142.16,"N_COORD97":2564633.7000000002,"ADDRESS":"信義路３號","OBJECTID":617290},"geometry":{"x":173142.16000000108,"y":2564633.7000000011}},{"attributes":{"ID":617318,"DIS_CODE":0,"TOWNNAME":"麻豆區","LI":"\u25A0江里","LIN":"2鄰","STREET":"信義路","SECT":" ","MAREA":" ","LANE":" ","ALLEY":" ","HOUSE_NO":"５號之３","E_COORD97":173214.92999999999,"N_COORD97":2564629.8199999998,"ADDRESS":"信義路５號之３","OBJECTID":617291},"geometry":{"x":173214.93000000063,"y":2564629.8200000022}},{"attributes":{"ID":617319,"DIS_CODE":0,"TOWNNAME":"麻豆區","LI":"\u25A0江里","LIN":"2鄰","STREET":"信義路","SECT":" ","MAREA":" ","LANE":" ","ALLEY":" ","HOUSE_NO":"５號之４","E_COORD97":173219.54999999999,"N_COORD97":2564629.77,"ADDRESS":"信義路５號之４","OBJECTID":617292},"geometry":{"x":173219.54999999981,"y":2564629.7700000014}},{"attributes":{"ID":617320,"DIS_CODE":0,"TOWNNAME":"麻豆區","LI":"\u25A0江里","LIN":"2鄰","STREET":"信義路","SECT":" ","MAREA":" ","LANE":" ","ALLEY":" ","HOUSE_NO":"５號之５","E_COORD97":173208.67999999999,"N_COORD97":2564629.9199999999,"ADDRESS":"信義路５號之５","OBJECTID":617293},"geometry":{"x":173208.6799999997,"y":2564629.9199999999}},{"attributes":{"ID":617321,"DIS_CODE":0,"TOWNNAME":"麻豆區","LI":"\u25A0江里","LIN":"2鄰","STREET":"信義路","SECT":" ","MAREA":" ","LANE":" ","ALLEY":" ","HOUSE_NO":"５號之６","E_COORD97":173224.17000000001,"N_COORD97":2564629.7200000002,"ADDRESS":"信義路５號之６","OBJECTID":617294},"geometry":{"x":173224.16999999993,"y":2564629.7200000007}},{"attributes":{"ID":617322,"DIS_CODE":0,"TOWNNAME":"麻豆區","LI":"\u25A0江里","LIN":"2鄰","STREET":"信義路","SECT":" ","MAREA":" ","LANE":" ","ALLEY":" ","HOUSE_NO":"５號之７","E_COORD97":173228.79000000001,"N_COORD97":2564629.6699999999,"ADDRESS":"信義路５號之７","OBJECTID":617295},"geometry":{"x":173228.79000000004,"y":2564629.6700000037}},{"attributes":{"ID":617323,"DIS_CODE":0,"TOWNNAME":"麻豆區","LI":"\u25A0江里","LIN":"2鄰","STREET":"信義路","SECT":" ","MAREA":" ","LANE":" ","ALLEY":" ","HOUSE_NO":"５號之８","E_COORD97":173233.42000000001,"N_COORD97":2564629.6099999999,"ADDRESS":"信義路５號之８","OBJECTID":617296},"geometry":{"x":173233.42000000086,"y":2564629.6100000031}},{"attributes":{"ID":617324,"DIS_CODE":0,"TOWNNAME":"麻豆區","LI":"\u25A0江里","LIN":"2鄰","STREET":"信義路","SECT":" ","MAREA":" ","LANE":" ","ALLEY":" ","HOUSE_NO":"５號之９","E_COORD97":173248.60999999999,"N_COORD97":2564629.3700000001,"ADDRESS":"信義路５號之９","OBJECTID":617297},"geometry":{"x":173248.61000000034,"y":2564629.3699999992}},{"attributes":{"ID":617325,"DIS_CODE":0,"TOWNNAME":"麻豆區","LI":"\u25A0江里","LIN":"2鄰","STREET":"信義路","SECT":" ","MAREA":" ","LANE":" ","ALLEY":" ","HOUSE_NO":"５號","E_COORD97":173238.67000000001,"N_COORD97":2564629.27,"ADDRESS":"信義路５號","OBJECTID":617298},"geometry":{"x":173238.67000000086,"y":2564629.2700000014}},{"attributes":{"ID":617326,"DIS_CODE":0,"TOWNNAME":"麻豆區","LI":"\u25A0江里","LIN":"2鄰","STREET":"信義路","SECT":" ","MAREA":" ","LANE":" ","ALLEY":" ","HOUSE_NO":"７號之１","E_COORD97":173243.59,"N_COORD97":2564642.8999999999,"ADDRESS":"信義路７號之１","OBJECTID":617299},"geometry":{"x":173243.58999999985,"y":2564642.9000000022}},{"attributes":{"ID":617327,"DIS_CODE":0,"TOWNNAME":"麻豆區","LI":"\u25A0江里","LIN":"2鄰","STREET":"信義路","SECT":" ","MAREA":" ","LANE":" ","ALLEY":" ","HOUSE_NO":"７號","E_COORD97":173243.95000000001,"N_COORD97":2564647.1200000001,"ADDRESS":"信義路７號","OBJECTID":617300},"geometry":{"x":173243.95000000112,"y":2564647.120000001}},{"attributes":{"ID":617328,"DIS_CODE":0,"TOWNNAME":"麻豆區","LI":"\u25A0江里","LIN":"2鄰","STREET":"信義路","SECT":" ","MAREA":" ","LANE":" ","ALLEY":" ","HOUSE_NO":"９號之１０","E_COORD97":173227.23999999999,"N_COORD97":2564676.0800000001,"ADDRESS":"信義路９號之１０","OBJECTID":617301},"geometry":{"x":173227.24000000022,"y":2564676.0800000019}},{"attributes":{"ID":617329,"DIS_CODE":0,"TOWNNAME":"麻豆區","LI":"\u25A0江里","LIN":"2鄰","STREET":"信義路","SECT":" ","MAREA":" ","LANE":" ","ALLEY":" ","HOUSE_NO":"９號之１１","E_COORD97":173233.69,"N_COORD97":2564675.1000000001,"ADDRESS":"信義路９號之１１","OBJECTID":617302},"geometry":{"x":173233.69000000227,"y":2564675.1000000015}},{"attributes":{"ID":617330,"DIS_CODE":0,"TOWNNAME":"麻豆區","LI":"\u25A0江里","LIN":"2鄰","STREET":"信義路","SECT":" ","MAREA":" ","LANE":" ","ALLEY":" ","HOUSE_NO":"９號之１２","E_COORD97":173239.82000000001,"N_COORD97":2564674.1899999999,"ADDRESS":"信義路９號之１２","OBJECTID":617303},"geometry":{"x":173239.82000000123,"y":2564674.1900000013}},{"attributes":{"ID":617331,"DIS_CODE":0,"TOWNNAME":"麻豆區","LI":"\u25A0江里","LIN":"2鄰","STREET":"信義路","SECT":" ","MAREA":" ","LANE":" ","ALLEY":" ","HOUSE_NO":"９號之１３","E_COORD97":173245.85999999999,"N_COORD97":2564673.3199999998,"ADDRESS":"信義路９號之１３","OBJECTID":617304},"geometry":{"x":173245.8599999994,"y":2564673.320000004}},{"attributes":{"ID":617332,"DIS_CODE":0,"TOWNNAME":"麻豆區","LI":"\u25A0江里","LIN":"2鄰","STREET":"信義路","SECT":" ","MAREA":" ","LANE":" ","ALLEY":" ","HOUSE_NO":"９號之１４","E_COORD97":173252.06,"N_COORD97":2564672.48,"ADDRESS":"信義路９號之１４","OBJECTID":617305},"geometry":{"x":173252.05999999959,"y":2564672.4800000042}},{"attributes":{"ID":617333,"DIS_CODE":0,"TOWNNAME":"麻豆區","LI":"\u25A0江里","LIN":"2鄰","STREET":"信義路","SECT":" ","MAREA":" ","LANE":" ","ALLEY":" ","HOUSE_NO":"９號之１５","E_COORD97":173267.14999999999,"N_COORD97":2564670.8199999998,"ADDRESS":"信義路９號之１５","OBJECTID":617306},"geometry":{"x":173267.15000000037,"y":2564670.8200000022}},{"attributes":{"ID":617334,"DIS_CODE":0,"TOWNNAME":"麻豆區","LI":"\u25A0江里","LIN":"2鄰","STREET":"信義路","SECT":" ","MAREA":" ","LANE":" ","ALLEY":" ","HOUSE_NO":"９號之１６","E_COORD97":173266.20000000001,"N_COORD97":2564656.8599999999,"ADDRESS":"信義路９號之１６","OBJECTID":617307},"geometry":{"x":173266.20000000112,"y":2564656.8599999994}},{"attributes":{"ID":617335,"DIS_CODE":0,"TOWNNAME":"麻豆區","LI":"\u25A0江里","LIN":"2鄰","STREET":"信義路","SECT":" ","MAREA":" ","LANE":" ","ALLEY":" ","HOUSE_NO":"９號之１","E_COORD97":173240.19,"N_COORD97":2564662.0899999999,"ADDRESS":"信義路９號之１","OBJECTID":617308},"geometry":{"x":173240.19000000041,"y":2564662.0900000017}},{"attributes":{"ID":617336,"DIS_CODE":0,"TOWNNAME":"佳里區","LI":"六安里","LIN":"5鄰","STREET":"六安街","SECT":" ","MAREA":" ","LANE":" ","ALLEY":" ","HOUSE_NO":"７５號","E_COORD97":166129.12,"N_COORD97":2563047.3100000001,"ADDRESS":"六安街７５號","OBJECTID":617309},"geometry":{"x":166129.11999999918,"y":2563047.3100000024}},{"attributes":{"ID":617337,"DIS_CODE":0,"TOWNNAME":"東區","LI":"成大里","LIN":"29鄰","STREET":"大學路","SECT":"西段","MAREA":" ","LANE":" ","ALLEY":" ","HOUSE_NO":"３３號","E_COORD97":169776.04999999999,"N_COORD97":2544083.3599999999,"ADDRESS":"大學路西段３３號","OBJECTID":617310},"geometry":{"x":169776.05000000075,"y":2544083.3600000013}},{"attributes":{"ID":617338,"DIS_CODE":0,"TOWNNAME":"麻豆區","LI":"\u25A0江里","LIN":"2鄰","STREET":"信義路","SECT":" ","MAREA":" ","LANE":" ","ALLEY":" ","HOUSE_NO":"９號之７","E_COORD97":173208.29000000001,"N_COORD97":2564678.27,"ADDRESS":"信義路９號之７","OBJECTID":617311},"geometry":{"x":173208.29000000004,"y":2564678.2699999996}},{"attributes":{"ID":617339,"DIS_CODE":0,"TOWNNAME":"麻豆區","LI":"\u25A0江里","LIN":"2鄰","STREET":"信義路","SECT":" ","MAREA":" ","LANE":" ","ALLEY":" ","HOUSE_NO":"９號之８","E_COORD97":173214.70999999999,"N_COORD97":2564677.25,"ADDRESS":"信義路９號之８","OBJECTID":617312},"geometry":{"x":173214.71000000089,"y":2564677.2500000019}},{"attributes":{"ID":617340,"DIS_CODE":0,"TOWNNAME":"麻豆區","LI":"\u25A0江里","LIN":"2鄰","STREET":"信義路","SECT":" ","MAREA":" ","LANE":" ","ALLEY":" ","HOUSE_NO":"９號之９","E_COORD97":173221.10000000001,"N_COORD97":2564676.7000000002,"ADDRESS":"信義路９號之９","OBJECTID":617313},"geometry":{"x":173221.09999999963,"y":2564676.7000000011}},{"attributes":{"ID":617341,"DIS_CODE":0,"TOWNNAME":"麻豆區","LI":"\u25A0江里","LIN":"2鄰","STREET":"信義路","SECT":" ","MAREA":" ","LANE":" ","ALLEY":" ","HOUSE_NO":"９號","E_COORD97":173249.34,"N_COORD97":2564661.4300000002,"ADDRESS":"信義路９號","OBJECTID":617314},"geometry":{"x":173249.34000000078,"y":2564661.4299999978}},{"attributes":{"ID":617342,"DIS_CODE":0,"TOWNNAME":"東區","LI":"成大里","LIN":"29鄰","STREET":"大學路","SECT":"西段","MAREA":" ","LANE":" ","ALLEY":" ","HOUSE_NO":"４１號","E_COORD97":169758.47,"N_COORD97":2544085.5,"ADDRESS":"大學路西段４１號","OBJECTID":617315},"geometry":{"x":169758.46999999974,"y":2544085.5000000037}},{"attributes":{"ID":617343,"DIS_CODE":0,"TOWNNAME":"東區","LI":"成大里","LIN":"29鄰","STREET":"大學路","SECT":"西段","MAREA":" ","LANE":" ","ALLEY":" ","HOUSE_NO":"４７號","E_COORD97":169753.73000000001,"N_COORD97":2544086.7200000002,"ADDRESS":"大學路西段４７號","OBJECTID":617316},"geometry":{"x":169753.73000000138,"y":2544086.7200000007}},{"attributes":{"ID":617344,"DIS_CODE":0,"TOWNNAME":"永康區","LI":"新樹里","LIN":"2鄰","STREET":"富強路","SECT":"二段","MAREA":" ","LANE":" ","ALLEY":" ","HOUSE_NO":"２９９號","E_COORD97":175589.29000000001,"N_COORD97":2547498.3900000001,"ADDRESS":"富強路二段２９９號","OBJECTID":617317},"geometry":{"x":175589.29000000097,"y":2547498.3900000025}},{"attributes":{"ID":617345,"DIS_CODE":0,"TOWNNAME":"仁德區","LI":"大甲里","LIN":"2鄰","STREET":"行大一街","SECT":" ","MAREA":" ","LANE":" ","ALLEY":" ","HOUSE_NO":"８６號","E_COORD97":169995.07000000001,"N_COORD97":2535004.7400000002,"ADDRESS":"行大一街８６號","OBJECTID":617318},"geometry":{"x":169995.07000000123,"y":2535004.7400000021}},{"attributes":{"ID":617346,"DIS_CODE":0,"TOWNNAME":"仁德區","LI":"土庫里","LIN":"2鄰","STREET":"太乙路","SECT":" ","MAREA":" ","LANE":" ","ALLEY":" ","HOUSE_NO":"２號","E_COORD97":173854.47,"N_COORD97":2542490.5099999998,"ADDRESS":"太乙路２號","OBJECTID":617319},"geometry":{"x":173854.46999999974,"y":2542490.5099999998}},{"attributes":{"ID":617347,"DIS_CODE":0,"TOWNNAME":"仁德區","LI":"大甲里","LIN":"2鄰","STREET":"行大一街","SECT":" ","MAREA":" ","LANE":" ","ALLEY":" ","HOUSE_NO":"２４３號","E_COORD97":169779.17999999999,"N_COORD97":2535019,"ADDRESS":"行大一街２４３號","OBJECTID":617320},"geometry":{"x":169779.1799999997,"y":2535019}},{"attributes":{"ID":617348,"DIS_CODE":0,"TOWNNAME":"仁德區","LI":"土庫里","LIN":"2鄰","STREET":"大順路","SECT":" ","MAREA":" ","LANE":" ","ALLEY":" ","HOUSE_NO":"３０號","E_COORD97":173678.32999999999,"N_COORD97":2542985.6200000001,"ADDRESS":"大順路３０號","OBJECTID":617321},"geometry":{"x":173678.33000000101,"y":2542985.620000001}},{"attributes":{"ID":617349,"DIS_CODE":0,"TOWNNAME":"仁德區","LI":"大甲里","LIN":"2鄰","STREET":"行大一街","SECT":" ","MAREA":" ","LANE":" ","ALLEY":" ","HOUSE_NO":"９０號","E_COORD97":169987.04000000001,"N_COORD97":2535000.4900000002,"ADDRESS":"行大一街９０號","OBJECTID":617322},"geometry":{"x":169987.04000000097,"y":2535000.4900000021}},{"attributes":{"ID":617350,"DIS_CODE":0,"TOWNNAME":"仁德區","LI":"大甲里","LIN":"2鄰","STREET":"行大一街","SECT":" ","MAREA":" ","LANE":" ","ALLEY":" ","HOUSE_NO":"１９３號","E_COORD97":169923.32000000001,"N_COORD97":2534977.9900000002,"ADDRESS":"行大一街１９３號","OBJECTID":617323},"geometry":{"x":169923.3200000003,"y":2534977.9900000002}},{"attributes":{"ID":617351,"DIS_CODE":0,"TOWNNAME":"仁德區","LI":"土庫里","LIN":"2鄰","STREET":"太乙路","SECT":" ","MAREA":" ","LANE":" ","ALLEY":" ","HOUSE_NO":"４６號","E_COORD97":173421.32000000001,"N_COORD97":2542551.75,"ADDRESS":"太乙路４６號","OBJECTID":617324},"geometry":{"x":173421.32000000123,"y":2542551.7500000019}},{"attributes":{"ID":617352,"DIS_CODE":0,"TOWNNAME":"仁德區","LI":"土庫里","LIN":"2鄰","STREET":"太乙八街","SECT":" ","MAREA":" ","LANE":" ","ALLEY":" ","HOUSE_NO":"１４號","E_COORD97":173512.45000000001,"N_COORD97":2542611.7599999998,"ADDRESS":"太乙八街１４號","OBJECTID":617325},"geometry":{"x":173512.45000000019,"y":2542611.7600000035}},{"attributes":{"ID":617353,"DIS_CODE":0,"TOWNNAME":"仁德區","LI":"土庫里","LIN":"2鄰","STREET":"中正路","SECT":"三段","MAREA":" ","LANE":" ","ALLEY":" ","HOUSE_NO":"４３８號","E_COORD97":174071.73999999999,"N_COORD97":2542913.5299999998,"ADDRESS":"中正路三段４３８號","OBJECTID":617326},"geometry":{"x":174071.74000000022,"y":2542913.5299999993}},{"attributes":{"ID":617354,"DIS_CODE":0,"TOWNNAME":"仁德區","LI":"土庫里","LIN":"2鄰","STREET":"太乙路","SECT":" ","MAREA":" ","LANE":" ","ALLEY":" ","HOUSE_NO":"３４號","E_COORD97":173530.12,"N_COORD97":2542533.75,"ADDRESS":"太乙路３４號","OBJECTID":617327},"geometry":{"x":173530.12000000011,"y":2542533.75}},{"attributes":{"ID":617355,"DIS_CODE":0,"TOWNNAME":"仁德區","LI":"一甲里","LIN":"2鄰","STREET":"中正路","SECT":"三段","MAREA":" ","LANE":" ","ALLEY":" ","HOUSE_NO":"３１１號","E_COORD97":173714.79000000001,"N_COORD97":2542245.52,"ADDRESS":"中正路三段３１１號","OBJECTID":617328},"geometry":{"x":173714.79000000097,"y":2542245.5199999996}},{"attributes":{"ID":617356,"DIS_CODE":0,"TOWNNAME":"仁德區","LI":"大甲里","LIN":"2鄰","STREET":"行大一街","SECT":" ","MAREA":" ","LANE":" ","ALLEY":" ","HOUSE_NO":"１８１號","E_COORD97":169946.45000000001,"N_COORD97":2534970.9900000002,"ADDRESS":"行大一街１８１號","OBJECTID":617329},"geometry":{"x":169946.45000000205,"y":2534970.9900000002}},{"attributes":{"ID":617357,"DIS_CODE":0,"TOWNNAME":"仁德區","LI":"一甲里","LIN":"2鄰","STREET":"中正路","SECT":"三段","MAREA":" ","LANE":" ","ALLEY":" ","HOUSE_NO":"１５９號","E_COORD97":173461.20000000001,"N_COORD97":2541810.77,"ADDRESS":"中正路三段１５９號","OBJECTID":617330},"geometry":{"x":173461.20000000112,"y":2541810.7699999996}},{"attributes":{"ID":617358,"DIS_CODE":0,"TOWNNAME":"仁德區","LI":"土庫里","LIN":"2鄰","STREET":"大順路","SECT":" ","MAREA":" ","LANE":" ","ALLEY":" ","HOUSE_NO":"３２號","E_COORD97":173669.63,"N_COORD97":2542985.3599999999,"ADDRESS":"大順路３２號","OBJECTID":617331},"geometry":{"x":173669.63000000082,"y":2542985.3600000013}},{"attributes":{"ID":617359,"DIS_CODE":0,"TOWNNAME":"仁德區","LI":"土庫里","LIN":"2鄰","STREET":"中正路","SECT":"三段","MAREA":" ","LANE":" ","ALLEY":" ","HOUSE_NO":"５０７號之１","E_COORD97":173990.04999999999,"N_COORD97":2542981.04,"ADDRESS":"中正路三段５０７號之１","OBJECTID":617332},"geometry":{"x":173990.05000000168,"y":2542981.0399999991}},{"attributes":{"ID":617360,"DIS_CODE":0,"TOWNNAME":"仁德區","LI":"土庫里","LIN":"2鄰","STREET":"太乙路","SECT":" ","MAREA":" ","LANE":" ","ALLEY":" ","HOUSE_NO":"２４號","E_COORD97":173649.95999999999,"N_COORD97":2542491.7599999998,"ADDRESS":"太乙路２４號","OBJECTID":617333},"geometry":{"x":173649.96000000183,"y":2542491.7599999998}},{"attributes":{"ID":617361,"DIS_CODE":0,"TOWNNAME":"仁德區","LI":"土庫里","LIN":"2鄰","STREET":"太乙路","SECT":" ","MAREA":" ","LANE":" ","ALLEY":" ","HOUSE_NO":"５０號","E_COORD97":173385.76000000001,"N_COORD97":2542558.25,"ADDRESS":"太乙路５０號","OBJECTID":617334},"geometry":{"x":173385.76000000071,"y":2542558.2500000019}},{"attributes":{"ID":617362,"DIS_CODE":0,"TOWNNAME":"仁德區","LI":"土庫里","LIN":"2鄰","STREET":"太乙路","SECT":" ","MAREA":" ","LANE":" ","ALLEY":" ","HOUSE_NO":"３６號","E_COORD97":173501.76000000001,"N_COORD97":2542517.5099999998,"ADDRESS":"太乙路３６號","OBJECTID":617335},"geometry":{"x":173501.75999999978,"y":2542517.5099999998}},{"attributes":{"ID":617363,"DIS_CODE":0,"TOWNNAME":"仁德區","LI":"大甲里","LIN":"2鄰","STREET":"行大一街","SECT":" ","MAREA":" ","LANE":" ","ALLEY":" ","HOUSE_NO":"２８３號","E_COORD97":169713.32000000001,"N_COORD97":2534995.7400000002,"ADDRESS":"行大一街２８３號","OBJECTID":617336},"geometry":{"x":169713.32000000216,"y":2534995.7400000021}},{"attributes":{"ID":617364,"DIS_CODE":0,"TOWNNAME":"仁德區","LI":"大甲里","LIN":"2鄰","STREET":"行大一街","SECT":" ","MAREA":" ","LANE":" ","ALLEY":" ","HOUSE_NO":"２１３號","E_COORD97":169873.35000000001,"N_COORD97":2534993.4900000002,"ADDRESS":"行大一街２１３號","OBJECTID":617337},"geometry":{"x":169873.34999999963,"y":2534993.4900000021}},{"attributes":{"ID":617365,"DIS_CODE":0,"TOWNNAME":"仁德區","LI":"大甲里","LIN":"2鄰","STREET":"行大一街","SECT":" ","MAREA":" ","LANE":" ","ALLEY":" ","HOUSE_NO":"２７７號","E_COORD97":169729.85999999999,"N_COORD97":2535000.7400000002,"ADDRESS":"行大一街２７７號","OBJECTID":617338},"geometry":{"x":169729.86000000034,"y":2535000.7400000002}},{"attributes":{"ID":617366,"DIS_CODE":0,"TOWNNAME":"仁德區","LI":"土庫里","LIN":"2鄰","STREET":"大順路","SECT":" ","MAREA":" ","LANE":" ","ALLEY":" ","HOUSE_NO":"５２號","E_COORD97":173369.14000000001,"N_COORD97":2543004.25,"ADDRESS":"大順路５２號","OBJECTID":617339},"geometry":{"x":173369.1400000006,"y":2543004.25}},{"attributes":{"ID":617367,"DIS_CODE":0,"TOWNNAME":"仁德區","LI":"大甲里","LIN":"2鄰","STREET":"行大一街","SECT":" ","MAREA":" ","LANE":" ","ALLEY":" ","HOUSE_NO":"１８５號","E_COORD97":169938.82000000001,"N_COORD97":2534972.9900000002,"ADDRESS":"行大一街１８５號","OBJECTID":617340},"geometry":{"x":169938.82000000216,"y":2534972.9900000021}},{"attributes":{"ID":617368,"DIS_CODE":0,"TOWNNAME":"仁德區","LI":"大甲里","LIN":"2鄰","STREET":"行大一街","SECT":" ","MAREA":" ","LANE":" ","ALLEY":" ","HOUSE_NO":"２７１號","E_COORD97":169749.13,"N_COORD97":2534999.4900000002,"ADDRESS":"行大一街２７１號","OBJECTID":617341},"geometry":{"x":169749.12999999989,"y":2534999.4900000039}},{"attributes":{"ID":617369,"DIS_CODE":0,"TOWNNAME":"仁德區","LI":"土庫里","LIN":"2鄰","STREET":"大順路","SECT":" ","MAREA":" ","LANE":" ","ALLEY":" ","HOUSE_NO":"２６號","E_COORD97":173704.88,"N_COORD97":2542985.6200000001,"ADDRESS":"大順路２６號","OBJECTID":617342},"geometry":{"x":173704.88000000082,"y":2542985.620000001}},{"attributes":{"ID":617370,"DIS_CODE":0,"TOWNNAME":"仁德區","LI":"土庫里","LIN":"2鄰","STREET":"中正路","SECT":"三段","MAREA":" ","LANE":" ","ALLEY":" ","HOUSE_NO":"４３６號","E_COORD97":174059.42999999999,"N_COORD97":2542900.0299999998,"ADDRESS":"中正路三段４３６號","OBJECTID":617343},"geometry":{"x":174059.4299999997,"y":2542900.0299999993}},{"attributes":{"ID":617371,"DIS_CODE":0,"TOWNNAME":"仁德區","LI":"土庫里","LIN":"2鄰","STREET":"大順路","SECT":" ","MAREA":" ","LANE":" ","ALLEY":" ","HOUSE_NO":"５８號","E_COORD97":173345.14999999999,"N_COORD97":2542991.75,"ADDRESS":"大順路５８號","OBJECTID":617344},"geometry":{"x":173345.15000000037,"y":2542991.7500000037}},{"attributes":{"ID":617372,"DIS_CODE":0,"TOWNNAME":"仁德區","LI":"仁義里","LIN":"2鄰","STREET":"仁義路","SECT":" ","MAREA":" ","LANE":" ","ALLEY":" ","HOUSE_NO":"２２７號","E_COORD97":173992.64000000001,"N_COORD97":2541014.5099999998,"ADDRESS":"仁義路２２７號","OBJECTID":617345},"geometry":{"x":173992.64000000153,"y":2541014.5100000016}},{"attributes":{"ID":617373,"DIS_CODE":0,"TOWNNAME":"仁德區","LI":"一甲里","LIN":"2鄰","STREET":"中正路","SECT":"三段","MAREA":" ","LANE":" ","ALLEY":" ","HOUSE_NO":"３０３號","E_COORD97":173705.76000000001,"N_COORD97":2542232.27,"ADDRESS":"中正路三段３０３號","OBJECTID":617346},"geometry":{"x":173705.76000000071,"y":2542232.2700000014}},{"attributes":{"ID":617374,"DIS_CODE":0,"TOWNNAME":"仁德區","LI":"大甲里","LIN":"2鄰","STREET":"行大一街","SECT":" ","MAREA":" ","LANE":" ","ALLEY":" ","HOUSE_NO":"１２０號","E_COORD97":169926.45999999999,"N_COORD97":2534991.9900000002,"ADDRESS":"行大一街１２０號","OBJECTID":617347},"geometry":{"x":169926.46000000089,"y":2534991.9900000002}},{"attributes":{"ID":617375,"DIS_CODE":0,"TOWNNAME":"仁德區","LI":"仁義里","LIN":"2鄰","STREET":"仁義路","SECT":" ","MAREA":" ","LANE":" ","ALLEY":" ","HOUSE_NO":"２２２之１號","E_COORD97":174063.22,"N_COORD97":2541120.29,"ADDRESS":"仁義路２２２之１號","OBJECTID":617348},"geometry":{"x":174063.21999999881,"y":2541120.290000001}},{"attributes":{"ID":617376,"DIS_CODE":0,"TOWNNAME":"仁德區","LI":"仁義里","LIN":"2鄰","STREET":"義林二街","SECT":" ","MAREA":" ","LANE":" ","ALLEY":" ","HOUSE_NO":"６９號","E_COORD97":174099.73000000001,"N_COORD97":2541156.52,"ADDRESS":"義林二街６９號","OBJECTID":617349},"geometry":{"x":174099.73000000231,"y":2541156.5200000014}},{"attributes":{"ID":617377,"DIS_CODE":0,"TOWNNAME":"仁德區","LI":"仁義里","LIN":"2鄰","STREET":"仁義路","SECT":" ","MAREA":" ","LANE":" ","ALLEY":" ","HOUSE_NO":"２３１號","E_COORD97":174007.48000000001,"N_COORD97":2541011.2599999998,"ADDRESS":"仁義路２３１號","OBJECTID":617350},"geometry":{"x":174007.48000000045,"y":2541011.2599999998}},{"attributes":{"ID":617378,"DIS_CODE":0,"TOWNNAME":"仁德區","LI":"仁義里","LIN":"2鄰","STREET":"仁義三街","SECT":" ","MAREA":" ","LANE":" ","ALLEY":" ","HOUSE_NO":"２６７號","E_COORD97":173978.20999999999,"N_COORD97":2541071.2599999998,"ADDRESS":"仁義三街２６７號","OBJECTID":617351},"geometry":{"x":173978.20999999996,"y":2541071.2599999998}},{"attributes":{"ID":617379,"DIS_CODE":0,"TOWNNAME":"仁德區","LI":"太子里","LIN":"2鄰","STREET":"太子路","SECT":" ","MAREA":" ","LANE":" ","ALLEY":" ","HOUSE_NO":"２０４號","E_COORD97":174260.23999999999,"N_COORD97":2543513.5099999998,"ADDRESS":"太子路２０４號","OBJECTID":617352},"geometry":{"x":174260.23999999929,"y":2543513.5100000016}},{"attributes":{"ID":617380,"DIS_CODE":0,"TOWNNAME":"白河區","LI":"白河里","LIN":"2鄰","STREET":"八德街","SECT":" ","MAREA":" ","LANE":" ","ALLEY":" ","HOUSE_NO":"７８號","E_COORD97":190182.95000000001,"N_COORD97":2582902.52,"ADDRESS":"八德街７８號","OBJECTID":617353},"geometry":{"x":190182.95000000019,"y":2582902.5200000014}},{"attributes":{"ID":617381,"DIS_CODE":0,"TOWNNAME":"仁德區","LI":"仁義里","LIN":"2鄰","STREET":"仁義三街","SECT":" ","MAREA":" ","LANE":" ","ALLEY":" ","HOUSE_NO":"２６５號","E_COORD97":173977.89000000001,"N_COORD97":2541075.5099999998,"ADDRESS":"仁義三街２６５號","OBJECTID":617354},"geometry":{"x":173977.8900000006,"y":2541075.5100000016}},{"attributes":{"ID":617382,"DIS_CODE":0,"TOWNNAME":"仁德區","LI":"仁義里","LIN":"2鄰","STREET":"仁義三街","SECT":" ","MAREA":" ","LANE":" ","ALLEY":" ","HOUSE_NO":"２５７號","E_COORD97":173975.87,"N_COORD97":2541091.5099999998,"ADDRESS":"仁義三街２５７號","OBJECTID":617355},"geometry":{"x":173975.87000000011,"y":2541091.5100000035}},{"attributes":{"ID":617383,"DIS_CODE":0,"TOWNNAME":"仁德區","LI":"仁義里","LIN":"2鄰","STREET":"仁義三街","SECT":" ","MAREA":" ","LANE":" ","ALLEY":" ","HOUSE_NO":"２６１號","E_COORD97":173977,"N_COORD97":2541083.5099999998,"ADDRESS":"仁義三街２６１號","OBJECTID":617356},"geometry":{"x":173977.00000000186,"y":2541083.5099999998}},{"attributes":{"ID":617384,"DIS_CODE":0,"TOWNNAME":"仁德區","LI":"太子里","LIN":"2鄰","STREET":"太子路","SECT":" ","MAREA":" ","LANE":" ","ALLEY":" ","HOUSE_NO":"２００號","E_COORD97":174270.23000000001,"N_COORD97":2543518.7599999998,"ADDRESS":"太子路２００號","OBJECTID":617357},"geometry":{"x":174270.23000000045,"y":2543518.7600000016}},{"attributes":{"ID":617385,"DIS_CODE":0,"TOWNNAME":"仁德區","LI":"太子里","LIN":"2鄰","STREET":"太子路","SECT":" ","MAREA":" ","LANE":" ","ALLEY":" ","HOUSE_NO":"２０２號","E_COORD97":174264.51999999999,"N_COORD97":2543518.0099999998,"ADDRESS":"太子路２０２號","OBJECTID":617358},"geometry":{"x":174264.52000000142,"y":2543518.0099999998}},{"attributes":{"ID":617386,"DIS_CODE":0,"TOWNNAME":"白河區","LI":"白河里","LIN":"2鄰","STREET":"八德街","SECT":" ","MAREA":" ","LANE":" ","ALLEY":" ","HOUSE_NO":"８０號","E_COORD97":190186.03,"N_COORD97":2582904.5099999998,"ADDRESS":"八德街８０號","OBJECTID":617359},"geometry":{"x":190186.03000000026,"y":2582904.5099999998}},{"attributes":{"ID":617387,"DIS_CODE":0,"TOWNNAME":"白河區","LI":"白河里","LIN":"2鄰","STREET":"八德街","SECT":" ","MAREA":" ","LANE":" ","ALLEY":" ","HOUSE_NO":"８２號","E_COORD97":190189.10999999999,"N_COORD97":2582906.5,"ADDRESS":"八德街８２號","OBJECTID":617360},"geometry":{"x":190189.11000000034,"y":2582906.5000000019}},{"attributes":{"ID":617388,"DIS_CODE":0,"TOWNNAME":"東區","LI":"德高里","LIN":"2鄰","STREET":"仁和路","SECT":" ","MAREA":" ","LANE":" ","ALLEY":" ","HOUSE_NO":"１４３號之５","E_COORD97":171560.37,"N_COORD97":2541012.0299999998,"ADDRESS":"仁和路１４３號之５","OBJECTID":617361},"geometry":{"x":171560.37000000011,"y":2541012.0299999993}},{"attributes":{"ID":617389,"DIS_CODE":0,"TOWNNAME":"東區","LI":"德高里","LIN":"2鄰","STREET":"仁和路","SECT":" ","MAREA":" ","LANE":" ","ALLEY":" ","HOUSE_NO":"１４３號之７","E_COORD97":171564.63,"N_COORD97":2541003.9500000002,"ADDRESS":"仁和路１４３號之７","OBJECTID":617362},"geometry":{"x":171564.62999999989,"y":2541003.9500000011}},{"attributes":{"ID":617390,"DIS_CODE":0,"TOWNNAME":"東區","LI":"德高里","LIN":"2鄰","STREET":"仁和路","SECT":" ","MAREA":" ","LANE":" ","ALLEY":" ","HOUSE_NO":"１４３號之８","E_COORD97":171567.04000000001,"N_COORD97":2541000.6899999999,"ADDRESS":"仁和路１４３號之８","OBJECTID":617363},"geometry":{"x":171567.04000000004,"y":2541000.6899999995}},{"attributes":{"ID":617391,"DIS_CODE":0,"TOWNNAME":"東區","LI":"德高里","LIN":"2鄰","STREET":"仁和路","SECT":" ","MAREA":" ","LANE":" ","ALLEY":" ","HOUSE_NO":"１４３號之９","E_COORD97":171567.75,"N_COORD97":2540997.1499999999,"ADDRESS":"仁和路１４３號之９","OBJECTID":617364},"geometry":{"x":171567.75,"y":2540997.1500000022}},{"attributes":{"ID":617392,"DIS_CODE":0,"TOWNNAME":"東區","LI":"德高里","LIN":"2鄰","STREET":"仁和路","SECT":" ","MAREA":" ","LANE":" ","ALLEY":" ","HOUSE_NO":"１４３號之６","E_COORD97":171562.07999999999,"N_COORD97":2541007.9199999999,"ADDRESS":"仁和路１４３號之６","OBJECTID":617365},"geometry":{"x":171562.08000000007,"y":2541007.9200000018}},{"attributes":{"ID":617393,"DIS_CODE":0,"TOWNNAME":"東區","LI":"東光里","LIN":"2鄰","STREET":"東光路","SECT":"一段","MAREA":" ","LANE":" ","ALLEY":" ","HOUSE_NO":"３３號","E_COORD97":171118.17000000001,"N_COORD97":2543432.5,"ADDRESS":"東光路一段３３號","OBJECTID":617366},"geometry":{"x":171118.17000000086,"y":2543432.5000000019}},{"attributes":{"ID":617394,"DIS_CODE":0,"TOWNNAME":"東區","LI":"東光里","LIN":"2鄰","STREET":"東光路","SECT":"一段","MAREA":" ","LANE":" ","ALLEY":" ","HOUSE_NO":"３５號","E_COORD97":171113.98000000001,"N_COORD97":2543429.7999999998,"ADDRESS":"東光路一段３５號","OBJECTID":617367},"geometry":{"x":171113.98000000045,"y":2543429.8000000045}},{"attributes":{"ID":617395,"DIS_CODE":0,"TOWNNAME":"東區","LI":"東光里","LIN":"2鄰","STREET":"東光路","SECT":"一段","MAREA":" ","LANE":" ","ALLEY":" ","HOUSE_NO":"３７號","E_COORD97":171110.06,"N_COORD97":2543432.1000000001,"ADDRESS":"東光路一段３７號","OBJECTID":617368},"geometry":{"x":171110.06000000052,"y":2543432.0999999996}},{"attributes":{"ID":617396,"DIS_CODE":0,"TOWNNAME":"東區","LI":"自強里","LIN":"2鄰","STREET":"富農街","SECT":"一段","MAREA":" ","LANE":" ","ALLEY":" ","HOUSE_NO":"１０１號","E_COORD97":171509.94,"N_COORD97":2542415.4500000002,"ADDRESS":"富農街一段１０１號","OBJECTID":617369},"geometry":{"x":171509.94000000134,"y":2542415.4499999993}},{"attributes":{"ID":617397,"DIS_CODE":0,"TOWNNAME":"東區","LI":"自強里","LIN":"2鄰","STREET":"富農街","SECT":"一段","MAREA":" ","LANE":" ","ALLEY":" ","HOUSE_NO":"１０３號","E_COORD97":171511.23000000001,"N_COORD97":2542419.4700000002,"ADDRESS":"富農街一段１０３號","OBJECTID":617370},"geometry":{"x":171511.23000000138,"y":2542419.4700000025}},{"attributes":{"ID":617398,"DIS_CODE":0,"TOWNNAME":"東區","LI":"自強里","LIN":"2鄰","STREET":"富農街","SECT":"一段","MAREA":" ","LANE":" ","ALLEY":" ","HOUSE_NO":"９５號","E_COORD97":171504.63,"N_COORD97":2542395.9700000002,"ADDRESS":"富農街一段９５號","OBJECTID":617371},"geometry":{"x":171504.63000000082,"y":2542395.9700000025}},{"attributes":{"ID":617399,"DIS_CODE":0,"TOWNNAME":"東區","LI":"自強里","LIN":"2鄰","STREET":"富農街","SECT":"一段","MAREA":" ","LANE":" ","ALLEY":" ","HOUSE_NO":"９７號","E_COORD97":171506.5,"N_COORD97":2542404.2799999998,"ADDRESS":"富農街一段９７號","OBJECTID":617372},"geometry":{"x":171506.5,"y":2542404.2799999975}},{"attributes":{"ID":617400,"DIS_CODE":0,"TOWNNAME":"東區","LI":"自強里","LIN":"2鄰","STREET":"富農街","SECT":"一段","MAREA":" ","LANE":" ","ALLEY":" ","HOUSE_NO":"９９號","E_COORD97":171508.51000000001,"N_COORD97":2542410.1499999999,"ADDRESS":"富農街一段９９號","OBJECTID":617373},"geometry":{"x":171508.51000000164,"y":2542410.1500000022}},{"attributes":{"ID":617401,"DIS_CODE":0,"TOWNNAME":"東區","LI":"南聖里","LIN":"2鄰","STREET":"富農街","SECT":"二段","MAREA":" ","LANE":" ","ALLEY":" ","HOUSE_NO":"１３４號","E_COORD97":171639.85999999999,"N_COORD97":2543160.0099999998,"ADDRESS":"富農街二段１３４號","OBJECTID":617374},"geometry":{"x":171639.86000000034,"y":2543160.0100000016}},{"attributes":{"ID":617402,"DIS_CODE":0,"TOWNNAME":"東區","LI":"南聖里","LIN":"2鄰","STREET":"富農街","SECT":"二段","MAREA":" ","LANE":" ","ALLEY":" ","HOUSE_NO":"１３４號之１","E_COORD97":171639.20000000001,"N_COORD97":2543164.54,"ADDRESS":"富農街二段１３４號之１","OBJECTID":617375},"geometry":{"x":171639.20000000019,"y":2543164.5399999991}},{"attributes":{"ID":617403,"DIS_CODE":0,"TOWNNAME":"東區","LI":"龍山里","LIN":"2鄰","STREET":"崇仁街","SECT":" ","MAREA":" ","LANE":" ","ALLEY":" ","HOUSE_NO":"５５號","E_COORD97":170398.17999999999,"N_COORD97":2542725.73,"ADDRESS":"崇仁街５５號","OBJECTID":617376},"geometry":{"x":170398.1799999997,"y":2542725.7300000023}},{"attributes":{"ID":617404,"DIS_CODE":0,"TOWNNAME":"東區","LI":"龍山里","LIN":"2鄰","STREET":"崇仁街","SECT":" ","MAREA":" ","LANE":" ","ALLEY":" ","HOUSE_NO":"５７號","E_COORD97":170404.23000000001,"N_COORD97":2542721.1899999999,"ADDRESS":"崇仁街５７號","OBJECTID":617377},"geometry":{"x":170404.23000000231,"y":2542721.1900000013}},{"attributes":{"ID":617405,"DIS_CODE":0,"TOWNNAME":"東區","LI":"龍山里","LIN":"2鄰","STREET":"崇仁街","SECT":" ","MAREA":" ","LANE":" ","ALLEY":" ","HOUSE_NO":"６１號","E_COORD97":170415.07000000001,"N_COORD97":2542713.7599999998,"ADDRESS":"崇仁街６１號","OBJECTID":617378},"geometry":{"x":170415.06999999937,"y":2542713.7600000035}},{"attributes":{"ID":617406,"DIS_CODE":0,"TOWNNAME":"東區","LI":"龍山里","LIN":"2鄰","STREET":"崇仁街","SECT":" ","MAREA":" ","LANE":" ","ALLEY":" ","HOUSE_NO":"６３號","E_COORD97":170419.60999999999,"N_COORD97":2542709.98,"ADDRESS":"崇仁街６３號","OBJECTID":617379},"geometry":{"x":170419.61000000034,"y":2542709.9800000023}},{"attributes":{"ID":617407,"DIS_CODE":0,"TOWNNAME":"東區","LI":"龍山里","LIN":"2鄰","STREET":"崇仁街","SECT":" ","MAREA":" ","LANE":" ","ALLEY":" ","HOUSE_NO":"６５號","E_COORD97":170423.64000000001,"N_COORD97":2542705.9500000002,"ADDRESS":"崇仁街６５號","OBJECTID":617380},"geometry":{"x":170423.63999999966,"y":2542705.9500000011}},{"attributes":{"ID":617408,"DIS_CODE":0,"TOWNNAME":"東區","LI":"龍山里","LIN":"2鄰","STREET":"崇仁街","SECT":" ","MAREA":" ","LANE":" ","ALLEY":" ","HOUSE_NO":"６７號","E_COORD97":170428.67000000001,"N_COORD97":2542702.1200000001,"ADDRESS":"崇仁街６７號","OBJECTID":617381},"geometry":{"x":170428.66999999993,"y":2542702.1199999992}},{"attributes":{"ID":617409,"DIS_CODE":0,"TOWNNAME":"東區","LI":"龍山里","LIN":"2鄰","STREET":"崇仁街","SECT":" ","MAREA":" ","LANE":" ","ALLEY":" ","HOUSE_NO":"６９號","E_COORD97":170435.42000000001,"N_COORD97":2542698.96,"ADDRESS":"崇仁街６９號","OBJECTID":617382},"geometry":{"x":170435.41999999993,"y":2542698.9600000009}},{"attributes":{"ID":617410,"DIS_CODE":0,"TOWNNAME":"東區","LI":"龍山里","LIN":"2鄰","STREET":"崇仁街","SECT":" ","MAREA":" ","LANE":" ","ALLEY":" ","HOUSE_NO":"７１號","E_COORD97":170440.51000000001,"N_COORD97":2542695.6499999999,"ADDRESS":"崇仁街７１號","OBJECTID":617383},"geometry":{"x":170440.51000000164,"y":2542695.6500000022}},{"attributes":{"ID":617411,"DIS_CODE":0,"TOWNNAME":"東區","LI":"龍山里","LIN":"2鄰","STREET":"崇仁街","SECT":" ","MAREA":" ","LANE":" ","ALLEY":" ","HOUSE_NO":"７３號","E_COORD97":170444.76999999999,"N_COORD97":2542689.8799999999,"ADDRESS":"崇仁街７３號","OBJECTID":617384},"geometry":{"x":170444.76999999955,"y":2542689.879999999}},{"attributes":{"ID":617412,"DIS_CODE":0,"TOWNNAME":"東區","LI":"龍山里","LIN":"2鄰","STREET":"崇仁街","SECT":" ","MAREA":" ","LANE":" ","ALLEY":" ","HOUSE_NO":"５９號","E_COORD97":170407.25,"N_COORD97":2542716.9100000001,"ADDRESS":"崇仁街５９號","OBJECTID":617385},"geometry":{"x":170407.25000000093,"y":2542716.910000002}},{"attributes":{"ID":617413,"DIS_CODE":0,"TOWNNAME":"東區","LI":"自強里","LIN":"2鄰","STREET":"富農街","SECT":"一段","MAREA":" ","LANE":" ","ALLEY":" ","HOUSE_NO":"１１５號","E_COORD97":171516.13,"N_COORD97":2542438.3500000001,"ADDRESS":"富農街一段１１５號","OBJECTID":617386},"geometry":{"x":171516.12999999896,"y":2542438.3500000034}},{"attributes":{"ID":617414,"DIS_CODE":0,"TOWNNAME":"東區","LI":"富強里","LIN":"2鄰","STREET":"裕農路","SECT":" ","MAREA":" ","LANE":" ","ALLEY":" ","HOUSE_NO":"４５６號","E_COORD97":171306.85000000001,"N_COORD97":2543178.9700000002,"ADDRESS":"裕農路４５６號","OBJECTID":617387},"geometry":{"x":171306.84999999963,"y":2543178.9700000025}},{"attributes":{"ID":617415,"DIS_CODE":0,"TOWNNAME":"安南區","LI":"安和里","LIN":"2鄰","STREET":"府安路","SECT":"三段","MAREA":" ","LANE":" ","ALLEY":" ","HOUSE_NO":"３１２之１號","E_COORD97":169835.63,"N_COORD97":2547642.9700000002,"ADDRESS":"府安路三段３１２之１號","OBJECTID":617388},"geometry":{"x":169835.62999999989,"y":2547642.9700000025}},{"attributes":{"ID":617416,"DIS_CODE":0,"TOWNNAME":"安南區","LI":"安和里","LIN":"2鄰","STREET":"府安路","SECT":"三段","MAREA":" ","LANE":" ","ALLEY":" ","HOUSE_NO":"３１２之２號","E_COORD97":169832.79000000001,"N_COORD97":2547638.4100000001,"ADDRESS":"府安路三段３１２之２號","OBJECTID":617389},"geometry":{"x":169832.79000000097,"y":2547638.4100000001}},{"attributes":{"ID":617417,"DIS_CODE":0,"TOWNNAME":"安南區","LI":"安和里","LIN":"2鄰","STREET":"府安路","SECT":"三段","MAREA":" ","LANE":" ","ALLEY":" ","HOUSE_NO":"３１２之３號","E_COORD97":169829.09,"N_COORD97":2547632.8300000001,"ADDRESS":"府安路三段３１２之３號","OBJECTID":617390},"geometry":{"x":169829.08999999985,"y":2547632.8300000038}},{"attributes":{"ID":617418,"DIS_CODE":0,"TOWNNAME":"白河區","LI":"外角里","LIN":"2鄰","STREET":"三民路","SECT":" ","MAREA":" ","LANE":" ","ALLEY":" ","HOUSE_NO":"２３５號","E_COORD97":190700.03,"N_COORD97":2583276.8900000001,"ADDRESS":"三民路２３５號","OBJECTID":617391},"geometry":{"x":190700.03000000212,"y":2583276.8900000025}},{"attributes":{"ID":617419,"DIS_CODE":0,"TOWNNAME":"白河區","LI":"外角里","LIN":"2鄰","STREET":"三民路","SECT":" ","MAREA":" ","LANE":" ","ALLEY":" ","HOUSE_NO":"２５１號","E_COORD97":190657.09,"N_COORD97":2583268.3100000001,"ADDRESS":"三民路２５１號","OBJECTID":617392},"geometry":{"x":190657.09000000078,"y":2583268.3100000005}},{"attributes":{"ID":617420,"DIS_CODE":0,"TOWNNAME":"白河區","LI":"外角里","LIN":"2鄰","STREET":"三民路","SECT":" ","MAREA":" ","LANE":" ","ALLEY":" ","HOUSE_NO":"２５３號","E_COORD97":190652.32000000001,"N_COORD97":2583267.4399999999,"ADDRESS":"三民路２５３號","OBJECTID":617393},"geometry":{"x":190652.32000000216,"y":2583267.4399999995}},{"attributes":{"ID":617421,"DIS_CODE":0,"TOWNNAME":"白河區","LI":"外角里","LIN":"2鄰","STREET":"三民路","SECT":" ","MAREA":" ","LANE":" ","ALLEY":" ","HOUSE_NO":"２５５號","E_COORD97":190645.70999999999,"N_COORD97":2583265.04,"ADDRESS":"三民路２５５號","OBJECTID":617394},"geometry":{"x":190645.70999999996,"y":2583265.0399999991}},{"attributes":{"ID":617422,"DIS_CODE":0,"TOWNNAME":"白河區","LI":"外角里","LIN":"2鄰","STREET":"三民路","SECT":" ","MAREA":" ","LANE":" ","ALLEY":" ","HOUSE_NO":"２５７號","E_COORD97":190640.06,"N_COORD97":2583263.5699999998,"ADDRESS":"三民路２５７號","OBJECTID":617395},"geometry":{"x":190640.06000000052,"y":2583263.5700000003}},{"attributes":{"ID":617423,"DIS_CODE":0,"TOWNNAME":"永康區","LI":"\u25A0洲里","LIN":"2鄰","STREET":"\u25A0行路","SECT":" ","MAREA":" ","LANE":" ","ALLEY":" ","HOUSE_NO":"２號","E_COORD97":171818.57999999999,"N_COORD97":2549130.75,"ADDRESS":"\u25A0行路２號","OBJECTID":617396},"geometry":{"x":171818.58000000194,"y":2549130.75}},{"attributes":{"ID":617424,"DIS_CODE":0,"TOWNNAME":"永康區","LI":"三民里","LIN":"2鄰","STREET":"三民街","SECT":" ","MAREA":" ","LANE":" ","ALLEY":" ","HOUSE_NO":"１１６號","E_COORD97":172858.29000000001,"N_COORD97":2550335.0299999998,"ADDRESS":"三民街１１６號","OBJECTID":617397},"geometry":{"x":172858.29000000097,"y":2550335.0299999993}},{"attributes":{"ID":617425,"DIS_CODE":0,"TOWNNAME":"永康區","LI":"永康里","LIN":"2鄰","STREET":"中山北路","SECT":" ","MAREA":" ","LANE":" ","ALLEY":" ","HOUSE_NO":"４５號","E_COORD97":173975.14999999999,"N_COORD97":2547385.0800000001,"ADDRESS":"中山北路４５號","OBJECTID":617398},"geometry":{"x":173975.1500000013,"y":2547385.0800000019}},{"attributes":{"ID":617426,"DIS_CODE":0,"TOWNNAME":"安南區","LI":"\u25A0南里","LIN":"2鄰","STREET":"安昌街","SECT":" ","MAREA":" ","LANE":" ","ALLEY":" ","HOUSE_NO":"１５３號","E_COORD97":170059.20999999999,"N_COORD97":2552412.3900000001,"ADDRESS":"安昌街１５３號","OBJECTID":617399},"geometry":{"x":170059.20999999996,"y":2552412.3900000006}},{"attributes":{"ID":617427,"DIS_CODE":0,"TOWNNAME":"安南區","LI":"\u25A0南里","LIN":"2鄰","STREET":"安昌街","SECT":" ","MAREA":" ","LANE":" ","ALLEY":" ","HOUSE_NO":"１５５號","E_COORD97":170060.10000000001,"N_COORD97":2552416.6400000001,"ADDRESS":"安昌街１５５號","OBJECTID":617400},"geometry":{"x":170060.10000000149,"y":2552416.6400000025}}]}