{"displayFieldName":"TOWNNAME","fieldAliases":{"ID":"ID","DIS_CODE":"DIS_CODE","TOWNNAME":"TOWNNAME","LI":"LI","LIN":"LIN","STREET":"STREET","SECT":"SECT","MAREA":"MAREA","LANE":"LANE","ALLEY":"ALLEY","HOUSE_NO":"HOUSE_NO","E_COORD97":"E_COORD97","N_COORD97":"N_COORD97","ADDRESS":"ADDRESS","OBJECTID":"OBJECTID"},"geometryType":"esriGeometryPoint","spatialReference":{"wkid":102443,"latestWkid":3826},"fields":[{"name":"ID","type":"esriFieldTypeDouble","alias":"ID"},{"name":"DIS_CODE","type":"esriFieldTypeInteger","alias":"DIS_CODE"},{"name":"TOWNNAME","type":"esriFieldTypeString","alias":"TOWNNAME","length":8},{"name":"LI","type":"esriFieldTypeString","alias":"LI","length":8},{"name":"LIN","type":"esriFieldTypeString","alias":"LIN","length":12},{"name":"STREET","type":"esriFieldTypeString","alias":"STREET","length":20},{"name":"SECT","type":"esriFieldTypeString","alias":"SECT","length":8},{"name":"MAREA","type":"esriFieldTypeString","alias":"MAREA","length":12},{"name":"LANE","type":"esriFieldTypeString","alias":"LANE","length":10},{"name":"ALLEY","type":"esriFieldTypeString","alias":"ALLEY","length":10},{"name":"HOUSE_NO","type":"esriFieldTypeString","alias":"HOUSE_NO","length":20},{"name":"E_COORD97","type":"esriFieldTypeDouble","alias":"E_COORD97"},{"name":"N_COORD97","type":"esriFieldTypeDouble","alias":"N_COORD97"},{"name":"ADDRESS","type":"esriFieldTypeString","alias":"ADDRESS","length":50},{"name":"OBJECTID","type":"esriFieldTypeOID","alias":"OBJECTID"}],"features":[{"attributes":{"ID":263005,"DIS_CODE":0,"TOWNNAME":"安南區","LI":"淵中里","LIN":"13鄰","STREET":"安中路","SECT":"四段","MAREA":" ","LANE":"１６８巷","ALLEY":" ","HOUSE_NO":"１４號","E_COORD97":164872.31,"N_COORD97":2550092.4700000002,"ADDRESS":"安中路四段１６８巷１４號","OBJECTID":263001},"geometry":{"x":164872.30999999959,"y":2550092.4700000007}},{"attributes":{"ID":263006,"DIS_CODE":0,"TOWNNAME":"安南區","LI":"淵中里","LIN":"13鄰","STREET":"安中路","SECT":"四段","MAREA":" ","LANE":"１６８巷","ALLEY":" ","HOUSE_NO":"１６號","E_COORD97":164872.51000000001,"N_COORD97":2550098.1299999999,"ADDRESS":"安中路四段１６８巷１６號","OBJECTID":263002},"geometry":{"x":164872.51000000071,"y":2550098.1300000008}},{"attributes":{"ID":263007,"DIS_CODE":0,"TOWNNAME":"安南區","LI":"淵中里","LIN":"13鄰","STREET":"安中路","SECT":"四段","MAREA":" ","LANE":"１６８巷","ALLEY":" ","HOUSE_NO":"１８號","E_COORD97":164870.07999999999,"N_COORD97":2550101.3700000001,"ADDRESS":"安中路四段１６８巷１８號","OBJECTID":263003},"geometry":{"x":164870.08000000101,"y":2550101.370000001}},{"attributes":{"ID":263008,"DIS_CODE":0,"TOWNNAME":"安南區","LI":"淵中里","LIN":"13鄰","STREET":"安中路","SECT":"四段","MAREA":" ","LANE":"１６８巷","ALLEY":" ","HOUSE_NO":"２０號","E_COORD97":164867.45999999999,"N_COORD97":2550104.7000000002,"ADDRESS":"安中路四段１６８巷２０號","OBJECTID":263004},"geometry":{"x":164867.46000000089,"y":2550104.700000003}},{"attributes":{"ID":263009,"DIS_CODE":0,"TOWNNAME":"安南區","LI":"淵中里","LIN":"13鄰","STREET":"安中路","SECT":"四段","MAREA":" ","LANE":"１６８巷","ALLEY":" ","HOUSE_NO":"２２號","E_COORD97":164863.67999999999,"N_COORD97":2550109.48,"ADDRESS":"安中路四段１６８巷２２號","OBJECTID":263005},"geometry":{"x":164863.67999999877,"y":2550109.4800000004}},{"attributes":{"ID":263010,"DIS_CODE":0,"TOWNNAME":"安南區","LI":"淵中里","LIN":"13鄰","STREET":"安中路","SECT":"四段","MAREA":" ","LANE":"１６８巷","ALLEY":" ","HOUSE_NO":"２４號","E_COORD97":164859.89000000001,"N_COORD97":2550115.3300000001,"ADDRESS":"安中路四段１６８巷２４號","OBJECTID":263006},"geometry":{"x":164859.88999999966,"y":2550115.3300000019}},{"attributes":{"ID":263011,"DIS_CODE":0,"TOWNNAME":"安南區","LI":"淵中里","LIN":"13鄰","STREET":"安中路","SECT":"四段","MAREA":" ","LANE":"１６８巷","ALLEY":" ","HOUSE_NO":"２號","E_COORD97":164887.23000000001,"N_COORD97":2550067.8599999999,"ADDRESS":"安中路四段１６８巷２號","OBJECTID":263007},"geometry":{"x":164887.23000000045,"y":2550067.8600000013}},{"attributes":{"ID":263012,"DIS_CODE":0,"TOWNNAME":"安南區","LI":"淵中里","LIN":"13鄰","STREET":"安中路","SECT":"四段","MAREA":" ","LANE":"１６８巷","ALLEY":" ","HOUSE_NO":"４號","E_COORD97":164884.92999999999,"N_COORD97":2550071.2599999998,"ADDRESS":"安中路四段１６８巷４號","OBJECTID":263008},"geometry":{"x":164884.93000000063,"y":2550071.2600000016}},{"attributes":{"ID":263013,"DIS_CODE":0,"TOWNNAME":"安南區","LI":"淵中里","LIN":"13鄰","STREET":"安中路","SECT":"四段","MAREA":" ","LANE":"１６８巷","ALLEY":" ","HOUSE_NO":"６號","E_COORD97":164882.51999999999,"N_COORD97":2550075.46,"ADDRESS":"安中路四段１６８巷６號","OBJECTID":263009},"geometry":{"x":164882.51999999955,"y":2550075.4600000028}},{"attributes":{"ID":263014,"DIS_CODE":0,"TOWNNAME":"安南區","LI":"淵中里","LIN":"13鄰","STREET":"安中路","SECT":"四段","MAREA":" ","LANE":"１６８巷","ALLEY":" ","HOUSE_NO":"８號","E_COORD97":164880.72,"N_COORD97":2550078.3700000001,"ADDRESS":"安中路四段１６８巷８號","OBJECTID":263010},"geometry":{"x":164880.72000000067,"y":2550078.3700000029}},{"attributes":{"ID":263015,"DIS_CODE":0,"TOWNNAME":"永康區","LI":"正強里","LIN":"13鄰","STREET":"自強路","SECT":" ","MAREA":" ","LANE":"１８８巷","ALLEY":" ","HOUSE_NO":"１５號","E_COORD97":173213.29000000001,"N_COORD97":2547470.75,"ADDRESS":"自強路１８８巷１５號","OBJECTID":263011},"geometry":{"x":173213.29000000004,"y":2547470.7500000037}},{"attributes":{"ID":263016,"DIS_CODE":0,"TOWNNAME":"永康區","LI":"正強里","LIN":"13鄰","STREET":"自強路","SECT":" ","MAREA":" ","LANE":"１８８巷","ALLEY":" ","HOUSE_NO":"１７號","E_COORD97":173215.88,"N_COORD97":2547437.2400000002,"ADDRESS":"自強路１８８巷１７號","OBJECTID":263012},"geometry":{"x":173215.87999999989,"y":2547437.2400000039}},{"attributes":{"ID":263017,"DIS_CODE":0,"TOWNNAME":"永康區","LI":"成功里","LIN":"13鄰","STREET":"忠孝路","SECT":" ","MAREA":" ","LANE":"２０７巷","ALLEY":" ","HOUSE_NO":"５１號","E_COORD97":171939.87,"N_COORD97":2544911.1499999999,"ADDRESS":"忠孝路２０７巷５１號","OBJECTID":263013},"geometry":{"x":171939.87000000011,"y":2544911.1500000004}},{"attributes":{"ID":263018,"DIS_CODE":0,"TOWNNAME":"安南區","LI":"安東里","LIN":"13鄰","STREET":"安和路","SECT":"一段","MAREA":" ","LANE":"２２０巷","ALLEY":" ","HOUSE_NO":"９６號","E_COORD97":169550.29999999999,"N_COORD97":2548057.1299999999,"ADDRESS":"安和路一段２２０巷９６號","OBJECTID":263014},"geometry":{"x":169550.30000000168,"y":2548057.1300000008}},{"attributes":{"ID":263019,"DIS_CODE":0,"TOWNNAME":"安南區","LI":"安東里","LIN":"13鄰","STREET":"安和路","SECT":"一段","MAREA":" ","LANE":"２２０巷","ALLEY":" ","HOUSE_NO":"１４２號","E_COORD97":169681.67000000001,"N_COORD97":2548086.6299999999,"ADDRESS":"安和路一段２２０巷１４２號","OBJECTID":263015},"geometry":{"x":169681.66999999899,"y":2548086.629999999}},{"attributes":{"ID":263020,"DIS_CODE":0,"TOWNNAME":"安南區","LI":"安東里","LIN":"13鄰","STREET":"安和路","SECT":"一段","MAREA":" ","LANE":"２２０巷","ALLEY":" ","HOUSE_NO":"６２號","E_COORD97":169489.73000000001,"N_COORD97":2548003.73,"ADDRESS":"安和路一段２２０巷６２號","OBJECTID":263016},"geometry":{"x":169489.73000000045,"y":2548003.7300000042}},{"attributes":{"ID":263021,"DIS_CODE":0,"TOWNNAME":"安南區","LI":"安東里","LIN":"13鄰","STREET":"安和路","SECT":"一段","MAREA":" ","LANE":"２２０巷","ALLEY":" ","HOUSE_NO":"６４號","E_COORD97":169493.78,"N_COORD97":2548006.52,"ADDRESS":"安和路一段２２０巷６４號","OBJECTID":263017},"geometry":{"x":169493.78000000119,"y":2548006.5199999996}},{"attributes":{"ID":263022,"DIS_CODE":0,"TOWNNAME":"安南區","LI":"州北里","LIN":"13鄰","STREET":"安和路","SECT":"五段","MAREA":" ","LANE":"８１巷","ALLEY":" ","HOUSE_NO":"８號","E_COORD97":169885.84,"N_COORD97":2551686.6400000001,"ADDRESS":"安和路五段８１巷８號","OBJECTID":263018},"geometry":{"x":169885.84000000078,"y":2551686.6400000025}},{"attributes":{"ID":263023,"DIS_CODE":0,"TOWNNAME":"安南區","LI":"安西里","LIN":"13鄰","STREET":"安和路","SECT":"一段","MAREA":" ","LANE":"１５９巷","ALLEY":" ","HOUSE_NO":"１０號","E_COORD97":169327.82000000001,"N_COORD97":2547818.5299999998,"ADDRESS":"安和路一段１５９巷１０號","OBJECTID":263019},"geometry":{"x":169327.8200000003,"y":2547818.5300000012}},{"attributes":{"ID":263024,"DIS_CODE":0,"TOWNNAME":"安南區","LI":"安西里","LIN":"13鄰","STREET":"安和路","SECT":"一段","MAREA":" ","LANE":"１５９巷","ALLEY":" ","HOUSE_NO":"１１號","E_COORD97":169335.26000000001,"N_COORD97":2547797.4300000002,"ADDRESS":"安和路一段１５９巷１１號","OBJECTID":263020},"geometry":{"x":169335.26000000164,"y":2547797.4299999997}},{"attributes":{"ID":263025,"DIS_CODE":0,"TOWNNAME":"安南區","LI":"安西里","LIN":"13鄰","STREET":"安和路","SECT":"一段","MAREA":" ","LANE":"１５９巷","ALLEY":" ","HOUSE_NO":"１９號","E_COORD97":169317.26000000001,"N_COORD97":2547789.6099999999,"ADDRESS":"安和路一段１５９巷１９號","OBJECTID":263021},"geometry":{"x":169317.26000000071,"y":2547789.6100000031}},{"attributes":{"ID":263026,"DIS_CODE":0,"TOWNNAME":"安南區","LI":"安西里","LIN":"13鄰","STREET":"安和路","SECT":"一段","MAREA":" ","LANE":"１５９巷","ALLEY":" ","HOUSE_NO":"３０號","E_COORD97":169285.17000000001,"N_COORD97":2547799.3799999999,"ADDRESS":"安和路一段１５９巷３０號","OBJECTID":263022},"geometry":{"x":169285.17000000179,"y":2547799.379999999}},{"attributes":{"ID":263027,"DIS_CODE":0,"TOWNNAME":"安南區","LI":"安西里","LIN":"13鄰","STREET":"安和路","SECT":"一段","MAREA":" ","LANE":"１５９巷","ALLEY":" ","HOUSE_NO":"５０號","E_COORD97":169251.89999999999,"N_COORD97":2547820.4900000002,"ADDRESS":"安和路一段１５９巷５０號","OBJECTID":263023},"geometry":{"x":169251.90000000224,"y":2547820.4900000002}},{"attributes":{"ID":263028,"DIS_CODE":0,"TOWNNAME":"安南區","LI":"安西里","LIN":"13鄰","STREET":"安和路","SECT":"一段","MAREA":" ","LANE":"１５９巷","ALLEY":" ","HOUSE_NO":"５６號","E_COORD97":169244.07000000001,"N_COORD97":2547829.0899999999,"ADDRESS":"安和路一段１５９巷５６號","OBJECTID":263024},"geometry":{"x":169244.07000000123,"y":2547829.0900000017}},{"attributes":{"ID":263029,"DIS_CODE":0,"TOWNNAME":"安南區","LI":"安西里","LIN":"13鄰","STREET":"安和路","SECT":"一段","MAREA":" ","LANE":"１５９巷","ALLEY":" ","HOUSE_NO":"５８號","E_COORD97":169240.94,"N_COORD97":2547831.8199999998,"ADDRESS":"安和路一段１５９巷５８號","OBJECTID":263025},"geometry":{"x":169240.94000000041,"y":2547831.8200000003}},{"attributes":{"ID":263030,"DIS_CODE":0,"TOWNNAME":"安南區","LI":"安西里","LIN":"13鄰","STREET":"安和路","SECT":"一段","MAREA":" ","LANE":"１５９巷","ALLEY":" ","HOUSE_NO":"６０號","E_COORD97":169238.20000000001,"N_COORD97":2547836.5099999998,"ADDRESS":"安和路一段１５９巷６０號","OBJECTID":263026},"geometry":{"x":169238.20000000112,"y":2547836.5099999998}},{"attributes":{"ID":263031,"DIS_CODE":0,"TOWNNAME":"安南區","LI":"安西里","LIN":"13鄰","STREET":"安和路","SECT":"一段","MAREA":" ","LANE":"１５９巷","ALLEY":" ","HOUSE_NO":"６２號","E_COORD97":169234.67999999999,"N_COORD97":2547838.4700000002,"ADDRESS":"安和路一段１５９巷６２號","OBJECTID":263027},"geometry":{"x":169234.68000000063,"y":2547838.4700000007}},{"attributes":{"ID":263032,"DIS_CODE":0,"TOWNNAME":"東區","LI":"關聖里","LIN":"22鄰","STREET":"裕和三街","SECT":" ","MAREA":" ","LANE":" ","ALLEY":" ","HOUSE_NO":"５３號","E_COORD97":172678.91,"N_COORD97":2542923.0600000001,"ADDRESS":"裕和三街５３號","OBJECTID":263028},"geometry":{"x":172678.91000000015,"y":2542923.0600000024}},{"attributes":{"ID":263033,"DIS_CODE":0,"TOWNNAME":"安南區","LI":"安西里","LIN":"13鄰","STREET":"安和路","SECT":"一段","MAREA":" ","LANE":"１５９巷","ALLEY":" ","HOUSE_NO":"６３號","E_COORD97":169215.23000000001,"N_COORD97":2547825.96,"ADDRESS":"安和路一段１５９巷６３號","OBJECTID":263029},"geometry":{"x":169215.23000000045,"y":2547825.9600000046}},{"attributes":{"ID":263034,"DIS_CODE":0,"TOWNNAME":"安南區","LI":"安西里","LIN":"13鄰","STREET":"安和路","SECT":"一段","MAREA":" ","LANE":"１５９巷","ALLEY":" ","HOUSE_NO":"６５號","E_COORD97":169212.48999999999,"N_COORD97":2547829.0899999999,"ADDRESS":"安和路一段１５９巷６５號","OBJECTID":263030},"geometry":{"x":169212.49000000115,"y":2547829.0900000017}},{"attributes":{"ID":263035,"DIS_CODE":0,"TOWNNAME":"安南區","LI":"安西里","LIN":"13鄰","STREET":"安和路","SECT":"一段","MAREA":" ","LANE":"１５９巷","ALLEY":" ","HOUSE_NO":"６７號","E_COORD97":169208.97,"N_COORD97":2547832.21,"ADDRESS":"安和路一段１５９巷６７號","OBJECTID":263031},"geometry":{"x":169208.97000000067,"y":2547832.2100000028}},{"attributes":{"ID":263036,"DIS_CODE":0,"TOWNNAME":"安南區","LI":"安西里","LIN":"13鄰","STREET":"安和路","SECT":"一段","MAREA":" ","LANE":"１５９巷","ALLEY":" ","HOUSE_NO":"６８號","E_COORD97":169227.64000000001,"N_COORD97":2547848.5699999998,"ADDRESS":"安和路一段１５９巷６８號","OBJECTID":263032},"geometry":{"x":169227.6400000006,"y":2547848.570000004}},{"attributes":{"ID":263037,"DIS_CODE":0,"TOWNNAME":"安南區","LI":"安西里","LIN":"13鄰","STREET":"安和路","SECT":"一段","MAREA":" ","LANE":"１５９巷","ALLEY":" ","HOUSE_NO":"６９號","E_COORD97":169206.62,"N_COORD97":2547834.9500000002,"ADDRESS":"安和路一段１５９巷６９號","OBJECTID":263033},"geometry":{"x":169206.62000000104,"y":2547834.9500000011}},{"attributes":{"ID":263038,"DIS_CODE":0,"TOWNNAME":"安南區","LI":"安和里","LIN":"13鄰","STREET":"安和路","SECT":"一段","MAREA":" ","LANE":"９６巷","ALLEY":" ","HOUSE_NO":"６號","E_COORD97":169545.35000000001,"N_COORD97":2547598.6899999999,"ADDRESS":"安和路一段９６巷６號","OBJECTID":263034},"geometry":{"x":169545.35000000056,"y":2547598.6899999995}},{"attributes":{"ID":263039,"DIS_CODE":0,"TOWNNAME":"安南區","LI":"安和里","LIN":"13鄰","STREET":"安和路","SECT":"一段","MAREA":" ","LANE":"９６巷","ALLEY":" ","HOUSE_NO":"８號","E_COORD97":169547.14999999999,"N_COORD97":2547602.8900000001,"ADDRESS":"安和路一段９６巷８號","OBJECTID":263035},"geometry":{"x":169547.1500000013,"y":2547602.8900000025}},{"attributes":{"ID":263040,"DIS_CODE":0,"TOWNNAME":"安南區","LI":"溪墘里","LIN":"13鄰","STREET":"海佃路","SECT":"一段","MAREA":" ","LANE":"３２０巷","ALLEY":" ","HOUSE_NO":"１０號","E_COORD97":167156.79999999999,"N_COORD97":2547469.8300000001,"ADDRESS":"海佃路一段３２０巷１０號","OBJECTID":263036},"geometry":{"x":167156.80000000168,"y":2547469.8300000001}},{"attributes":{"ID":263041,"DIS_CODE":0,"TOWNNAME":"安南區","LI":"溪墘里","LIN":"13鄰","STREET":"海佃路","SECT":"一段","MAREA":" ","LANE":"３２０巷","ALLEY":" ","HOUSE_NO":"１８號","E_COORD97":167182.67000000001,"N_COORD97":2547475.6400000001,"ADDRESS":"海佃路一段３２０巷１８號","OBJECTID":263037},"geometry":{"x":167182.66999999993,"y":2547475.6400000025}},{"attributes":{"ID":263042,"DIS_CODE":0,"TOWNNAME":"安南區","LI":"溪墘里","LIN":"13鄰","STREET":"海佃路","SECT":"一段","MAREA":" ","LANE":"３２０巷","ALLEY":" ","HOUSE_NO":"２０號","E_COORD97":167188.57999999999,"N_COORD97":2547476.6200000001,"ADDRESS":"海佃路一段３２０巷２０號","OBJECTID":263038},"geometry":{"x":167188.58000000007,"y":2547476.6200000029}},{"attributes":{"ID":263043,"DIS_CODE":0,"TOWNNAME":"安南區","LI":"溪墘里","LIN":"13鄰","STREET":"海佃路","SECT":"一段","MAREA":" ","LANE":"３２０巷","ALLEY":" ","HOUSE_NO":"２２號","E_COORD97":167195.09,"N_COORD97":2547477.6600000001,"ADDRESS":"海佃路一段３２０巷２２號","OBJECTID":263039},"geometry":{"x":167195.08999999985,"y":2547477.6600000001}},{"attributes":{"ID":263044,"DIS_CODE":0,"TOWNNAME":"安南區","LI":"溪墘里","LIN":"13鄰","STREET":"海佃路","SECT":"一段","MAREA":" ","LANE":"３２０巷","ALLEY":" ","HOUSE_NO":"２４號","E_COORD97":167202.23000000001,"N_COORD97":2547479.0299999998,"ADDRESS":"海佃路一段３２０巷２４號","OBJECTID":263040},"geometry":{"x":167202.23000000138,"y":2547479.0300000012}},{"attributes":{"ID":263045,"DIS_CODE":0,"TOWNNAME":"安南區","LI":"溪墘里","LIN":"13鄰","STREET":"海佃路","SECT":"一段","MAREA":" ","LANE":"３２０巷","ALLEY":" ","HOUSE_NO":"２６號","E_COORD97":167208.73999999999,"N_COORD97":2547481.0499999998,"ADDRESS":"海佃路一段３２０巷２６號","OBJECTID":263041},"geometry":{"x":167208.74000000115,"y":2547481.0500000026}},{"attributes":{"ID":263046,"DIS_CODE":0,"TOWNNAME":"安南區","LI":"溪墘里","LIN":"13鄰","STREET":"海佃路","SECT":"一段","MAREA":" ","LANE":"３２０巷","ALLEY":" ","HOUSE_NO":"２８號","E_COORD97":167215.53,"N_COORD97":2547482.23,"ADDRESS":"海佃路一段３２０巷２８號","OBJECTID":263042},"geometry":{"x":167215.53000000119,"y":2547482.2300000023}},{"attributes":{"ID":263047,"DIS_CODE":0,"TOWNNAME":"安南區","LI":"溪墘里","LIN":"13鄰","STREET":"海佃路","SECT":"一段","MAREA":" ","LANE":"３２０巷","ALLEY":" ","HOUSE_NO":"３０號","E_COORD97":167221.39999999999,"N_COORD97":2547483.1699999999,"ADDRESS":"海佃路一段３２０巷３０號","OBJECTID":263043},"geometry":{"x":167221.4000000013,"y":2547483.1699999999}},{"attributes":{"ID":263048,"DIS_CODE":0,"TOWNNAME":"仁德區","LI":"仁義里","LIN":"34鄰","STREET":"正義二街","SECT":" ","MAREA":" ","LANE":" ","ALLEY":" ","HOUSE_NO":"５５號","E_COORD97":173534.73000000001,"N_COORD97":2541571.52,"ADDRESS":"正義二街５５號","OBJECTID":263044},"geometry":{"x":173534.73000000045,"y":2541571.5199999996}},{"attributes":{"ID":263049,"DIS_CODE":0,"TOWNNAME":"仁德區","LI":"仁義里","LIN":"34鄰","STREET":"正義三街","SECT":" ","MAREA":" ","LANE":" ","ALLEY":" ","HOUSE_NO":"１２０號","E_COORD97":173690.76000000001,"N_COORD97":2541613.7599999998,"ADDRESS":"正義三街１２０號","OBJECTID":263045},"geometry":{"x":173690.76000000071,"y":2541613.7599999998}},{"attributes":{"ID":263050,"DIS_CODE":0,"TOWNNAME":"安南區","LI":"溪墘里","LIN":"13鄰","STREET":"海佃路","SECT":"一段","MAREA":" ","LANE":"３２０巷","ALLEY":" ","HOUSE_NO":"３２號","E_COORD97":167226.42000000001,"N_COORD97":2547484.79,"ADDRESS":"海佃路一段３２０巷３２號","OBJECTID":263046},"geometry":{"x":167226.41999999993,"y":2547484.7899999991}},{"attributes":{"ID":263051,"DIS_CODE":0,"TOWNNAME":"安南區","LI":"溪墘里","LIN":"13鄰","STREET":"海佃路","SECT":"一段","MAREA":" ","LANE":"３２０巷","ALLEY":" ","HOUSE_NO":"３４號","E_COORD97":167233.88,"N_COORD97":2547487.9900000002,"ADDRESS":"海佃路一段３２０巷３４號","OBJECTID":263047},"geometry":{"x":167233.87999999989,"y":2547487.9900000002}},{"attributes":{"ID":263052,"DIS_CODE":0,"TOWNNAME":"安南區","LI":"溪墘里","LIN":"13鄰","STREET":"海佃路","SECT":"一段","MAREA":" ","LANE":"３２０巷","ALLEY":" ","HOUSE_NO":"３６號","E_COORD97":167240.26999999999,"N_COORD97":2547488.2999999998,"ADDRESS":"海佃路一段３２０巷３６號","OBJECTID":263048},"geometry":{"x":167240.27000000048,"y":2547488.3000000026}},{"attributes":{"ID":263053,"DIS_CODE":0,"TOWNNAME":"安南區","LI":"溪墘里","LIN":"13鄰","STREET":"海佃路","SECT":"一段","MAREA":" ","LANE":"３２０巷","ALLEY":" ","HOUSE_NO":"３８號","E_COORD97":167246.51999999999,"N_COORD97":2547490.8399999999,"ADDRESS":"海佃路一段３２０巷３８號","OBJECTID":263049},"geometry":{"x":167246.52000000142,"y":2547490.8400000017}},{"attributes":{"ID":263054,"DIS_CODE":0,"TOWNNAME":"安南區","LI":"溪墘里","LIN":"13鄰","STREET":"海佃路","SECT":"一段","MAREA":" ","LANE":"３２０巷","ALLEY":" ","HOUSE_NO":"４０號","E_COORD97":167253.62,"N_COORD97":2547491.9300000002,"ADDRESS":"海佃路一段３２０巷４０號","OBJECTID":263050},"geometry":{"x":167253.62000000104,"y":2547491.9299999997}},{"attributes":{"ID":263055,"DIS_CODE":0,"TOWNNAME":"北區","LI":"振興里","LIN":"13鄰","STREET":"開元路","SECT":" ","MAREA":" ","LANE":"２１２巷","ALLEY":" ","HOUSE_NO":"５４號","E_COORD97":170282.53,"N_COORD97":2545182.5600000001,"ADDRESS":"開元路２１２巷５４號","OBJECTID":263051},"geometry":{"x":170282.53000000026,"y":2545182.5600000005}},{"attributes":{"ID":263056,"DIS_CODE":0,"TOWNNAME":"柳營區","LI":"八翁里","LIN":"13鄰","STREET":"中山西路","SECT":"三段","MAREA":" ","LANE":"４９０巷","ALLEY":" ","HOUSE_NO":"１號","E_COORD97":178756.70999999999,"N_COORD97":2575055.0499999998,"ADDRESS":"中山西路三段４９０巷１號","OBJECTID":263052},"geometry":{"x":178756.71000000089,"y":2575055.0500000026}},{"attributes":{"ID":263057,"DIS_CODE":0,"TOWNNAME":"柳營區","LI":"八翁里","LIN":"13鄰","STREET":"中山西路","SECT":"三段","MAREA":" ","LANE":"４９０巷","ALLEY":" ","HOUSE_NO":"２１號","E_COORD97":178741.54000000001,"N_COORD97":2575071.6499999999,"ADDRESS":"中山西路三段４９０巷２１號","OBJECTID":263053},"geometry":{"x":178741.54000000004,"y":2575071.6500000004}},{"attributes":{"ID":263058,"DIS_CODE":0,"TOWNNAME":"山上區","LI":"明和里","LIN":"22鄰","STREET":" ","SECT":" ","MAREA":"北勢洲","LANE":" ","ALLEY":" ","HOUSE_NO":"２５之６號","E_COORD97":182037.453645,"N_COORD97":2556800.5706199999,"ADDRESS":"北勢洲２５之６號","OBJECTID":263054},"geometry":{"x":182037.45364500117,"y":2556800.5706200004}},{"attributes":{"ID":263059,"DIS_CODE":0,"TOWNNAME":"安南區","LI":"海東里","LIN":"22鄰","STREET":"同安路","SECT":" ","MAREA":" ","LANE":"８３巷","ALLEY":" ","HOUSE_NO":"２６號","E_COORD97":166894.836545,"N_COORD97":2549001.7404299998,"ADDRESS":"同安路８３巷２６號","OBJECTID":263055},"geometry":{"x":166894.83654500078,"y":2549001.7404270004}},{"attributes":{"ID":263060,"DIS_CODE":0,"TOWNNAME":"安南區","LI":"海東里","LIN":"22鄰","STREET":"同安路","SECT":" ","MAREA":" ","LANE":"８３巷","ALLEY":" ","HOUSE_NO":"２８號","E_COORD97":166890.57472800001,"N_COORD97":2548991.8450199999,"ADDRESS":"同安路８３巷２８號","OBJECTID":263056},"geometry":{"x":166890.57472800091,"y":2548991.8450160008}},{"attributes":{"ID":263061,"DIS_CODE":0,"TOWNNAME":"六甲區","LI":"中社里","LIN":"3鄰","STREET":" ","SECT":" ","MAREA":"中社","LANE":" ","ALLEY":" ","HOUSE_NO":"９１號","E_COORD97":181122.48000000001,"N_COORD97":2570826.29,"ADDRESS":"中社９１號","OBJECTID":263057},"geometry":{"x":181122.48000000045,"y":2570826.290000001}},{"attributes":{"ID":263062,"DIS_CODE":0,"TOWNNAME":"柳營區","LI":"八翁里","LIN":"13鄰","STREET":"中山西路","SECT":"三段","MAREA":" ","LANE":"４９０巷","ALLEY":" ","HOUSE_NO":"２３號","E_COORD97":178736.98000000001,"N_COORD97":2575071.73,"ADDRESS":"中山西路三段４９０巷２３號","OBJECTID":263058},"geometry":{"x":178736.98000000045,"y":2575071.7300000004}},{"attributes":{"ID":263063,"DIS_CODE":0,"TOWNNAME":"北區","LI":"國姓里","LIN":"13鄰","STREET":"西門路","SECT":"四段","MAREA":" ","LANE":"７０巷","ALLEY":" ","HOUSE_NO":"１０號","E_COORD97":168702.51000000001,"N_COORD97":2545285.7000000002,"ADDRESS":"西門路四段７０巷１０號","OBJECTID":263059},"geometry":{"x":168702.50999999978,"y":2545285.6999999993}},{"attributes":{"ID":263064,"DIS_CODE":0,"TOWNNAME":"北區","LI":"國姓里","LIN":"13鄰","STREET":"西門路","SECT":"四段","MAREA":" ","LANE":"７０巷","ALLEY":" ","HOUSE_NO":"１１號","E_COORD97":168730.92000000001,"N_COORD97":2545284.2400000002,"ADDRESS":"西門路四段７０巷１１號","OBJECTID":263060},"geometry":{"x":168730.92000000179,"y":2545284.2400000039}},{"attributes":{"ID":263065,"DIS_CODE":0,"TOWNNAME":"北區","LI":"國姓里","LIN":"13鄰","STREET":"西門路","SECT":"四段","MAREA":" ","LANE":"７０巷","ALLEY":" ","HOUSE_NO":"１２號","E_COORD97":168704.17999999999,"N_COORD97":2545282.3700000001,"ADDRESS":"西門路四段７０巷１２號","OBJECTID":263061},"geometry":{"x":168704.18000000063,"y":2545282.370000001}},{"attributes":{"ID":263066,"DIS_CODE":0,"TOWNNAME":"北區","LI":"國姓里","LIN":"13鄰","STREET":"西門路","SECT":"四段","MAREA":" ","LANE":"７０巷","ALLEY":" ","HOUSE_NO":"８號","E_COORD97":168700.34,"N_COORD97":2545289.9900000002,"ADDRESS":"西門路四段７０巷８號","OBJECTID":263062},"geometry":{"x":168700.33999999985,"y":2545289.9900000021}},{"attributes":{"ID":263067,"DIS_CODE":0,"TOWNNAME":"南區","LI":"大林里","LIN":"13鄰","STREET":"國民路","SECT":" ","MAREA":" ","LANE":"５１１巷","ALLEY":" ","HOUSE_NO":"２８號之２","E_COORD97":168608.70999999999,"N_COORD97":2541417.9900000002,"ADDRESS":"國民路５１１巷２８號之２","OBJECTID":263063},"geometry":{"x":168608.71000000089,"y":2541417.9900000021}},{"attributes":{"ID":263068,"DIS_CODE":0,"TOWNNAME":"南區","LI":"興農里","LIN":"13鄰","STREET":"明興路","SECT":" ","MAREA":" ","LANE":"１０５５巷","ALLEY":" ","HOUSE_NO":"１０號","E_COORD97":166352.39999999999,"N_COORD97":2536819.25,"ADDRESS":"明興路１０５５巷１０號","OBJECTID":263064},"geometry":{"x":166352.40000000037,"y":2536819.2500000019}},{"attributes":{"ID":263069,"DIS_CODE":0,"TOWNNAME":"南區","LI":"興農里","LIN":"13鄰","STREET":"明興路","SECT":" ","MAREA":" ","LANE":"１０５５巷","ALLEY":" ","HOUSE_NO":"１１號","E_COORD97":166334.89000000001,"N_COORD97":2536837.0600000001,"ADDRESS":"明興路１０５５巷１１號","OBJECTID":263065},"geometry":{"x":166334.88999999966,"y":2536837.0600000042}},{"attributes":{"ID":263070,"DIS_CODE":0,"TOWNNAME":"南區","LI":"興農里","LIN":"13鄰","STREET":"明興路","SECT":" ","MAREA":" ","LANE":"１０５５巷","ALLEY":" ","HOUSE_NO":"１２號","E_COORD97":166355.85999999999,"N_COORD97":2536822.9900000002,"ADDRESS":"明興路１０５５巷１２號","OBJECTID":263066},"geometry":{"x":166355.86000000034,"y":2536822.9900000002}},{"attributes":{"ID":263071,"DIS_CODE":0,"TOWNNAME":"南區","LI":"興農里","LIN":"13鄰","STREET":"明興路","SECT":" ","MAREA":" ","LANE":"１０５５巷","ALLEY":" ","HOUSE_NO":"１３號","E_COORD97":166339.10000000001,"N_COORD97":2536840.3399999999,"ADDRESS":"明興路１０５５巷１３號","OBJECTID":263067},"geometry":{"x":166339.10000000149,"y":2536840.3399999999}},{"attributes":{"ID":263072,"DIS_CODE":0,"TOWNNAME":"仁德區","LI":"仁義里","LIN":"34鄰","STREET":"正義二街","SECT":" ","MAREA":" ","LANE":" ","ALLEY":" ","HOUSE_NO":"１０７號","E_COORD97":173675.87,"N_COORD97":2541601.5099999998,"ADDRESS":"正義二街１０７號","OBJECTID":263068},"geometry":{"x":173675.87000000011,"y":2541601.5100000016}},{"attributes":{"ID":263073,"DIS_CODE":0,"TOWNNAME":"仁德區","LI":"仁德里","LIN":"34鄰","STREET":"中山路","SECT":" ","MAREA":" ","LANE":" ","ALLEY":" ","HOUSE_NO":"７５０號","E_COORD97":172701.67999999999,"N_COORD97":2541528.7400000002,"ADDRESS":"中山路７５０號","OBJECTID":263069},"geometry":{"x":172701.6799999997,"y":2541528.7400000021}},{"attributes":{"ID":263074,"DIS_CODE":0,"TOWNNAME":"仁德區","LI":"仁德里","LIN":"22鄰","STREET":"文善街","SECT":" ","MAREA":" ","LANE":" ","ALLEY":" ","HOUSE_NO":"１２６號五樓","E_COORD97":172349.95000000001,"N_COORD97":2541468.8300000001,"ADDRESS":"文善街１２６號五樓","OBJECTID":263070},"geometry":{"x":172349.95000000019,"y":2541468.8300000001}},{"attributes":{"ID":263075,"DIS_CODE":0,"TOWNNAME":"南區","LI":"興農里","LIN":"13鄰","STREET":"明興路","SECT":" ","MAREA":" ","LANE":"１０５５巷","ALLEY":" ","HOUSE_NO":"１９號","E_COORD97":166354.32000000001,"N_COORD97":2536857.1699999999,"ADDRESS":"明興路１０５５巷１９號","OBJECTID":263071},"geometry":{"x":166354.32000000123,"y":2536857.1700000018}},{"attributes":{"ID":263076,"DIS_CODE":0,"TOWNNAME":"東區","LI":"崇成里","LIN":"22鄰","STREET":"崇德路","SECT":" ","MAREA":" ","LANE":" ","ALLEY":" ","HOUSE_NO":"６７４號","E_COORD97":170776.01000000001,"N_COORD97":2540898.0899999999,"ADDRESS":"崇德路６７４號","OBJECTID":263072},"geometry":{"x":170776.00999999885,"y":2540898.0900000017}},{"attributes":{"ID":263077,"DIS_CODE":0,"TOWNNAME":"南區","LI":"興農里","LIN":"13鄰","STREET":"明興路","SECT":" ","MAREA":" ","LANE":"１０５５巷","ALLEY":" ","HOUSE_NO":"１號","E_COORD97":166318.48999999999,"N_COORD97":2536819.5299999998,"ADDRESS":"明興路１０５５巷１號","OBJECTID":263073},"geometry":{"x":166318.49000000209,"y":2536819.5300000012}},{"attributes":{"ID":263078,"DIS_CODE":0,"TOWNNAME":"永康區","LI":"正強里","LIN":"22鄰","STREET":"自強路","SECT":" ","MAREA":" ","LANE":" ","ALLEY":" ","HOUSE_NO":"３２９號","E_COORD97":173465.09,"N_COORD97":2547749.54,"ADDRESS":"自強路３２９號","OBJECTID":263074},"geometry":{"x":173465.08999999985,"y":2547749.540000001}},{"attributes":{"ID":263079,"DIS_CODE":0,"TOWNNAME":"南區","LI":"興農里","LIN":"13鄰","STREET":"明興路","SECT":" ","MAREA":" ","LANE":"１０５５巷","ALLEY":" ","HOUSE_NO":"２０號","E_COORD97":166369.98999999999,"N_COORD97":2536837.3900000001,"ADDRESS":"明興路１０５５巷２０號","OBJECTID":263075},"geometry":{"x":166369.99000000115,"y":2536837.3900000006}},{"attributes":{"ID":263080,"DIS_CODE":0,"TOWNNAME":"南區","LI":"興農里","LIN":"13鄰","STREET":"明興路","SECT":" ","MAREA":" ","LANE":"１０５５巷","ALLEY":" ","HOUSE_NO":"２１號","E_COORD97":166359.47,"N_COORD97":2536862.3199999998,"ADDRESS":"明興路１０５５巷２１號","OBJECTID":263076},"geometry":{"x":166359.47000000067,"y":2536862.3200000022}},{"attributes":{"ID":263081,"DIS_CODE":0,"TOWNNAME":"南區","LI":"興農里","LIN":"13鄰","STREET":"明興路","SECT":" ","MAREA":" ","LANE":"１０５５巷","ALLEY":" ","HOUSE_NO":"２２號","E_COORD97":166373.73999999999,"N_COORD97":2536840.27,"ADDRESS":"明興路１０５５巷２２號","OBJECTID":263077},"geometry":{"x":166373.74000000022,"y":2536840.2699999996}},{"attributes":{"ID":263082,"DIS_CODE":0,"TOWNNAME":"歸仁區","LI":"文化里","LIN":"13鄰","STREET":"大德路","SECT":" ","MAREA":" ","LANE":"１９３巷","ALLEY":" ","HOUSE_NO":"３３號","E_COORD97":177396.72,"N_COORD97":2541483.3199999998,"ADDRESS":"大德路１９３巷３３號","OBJECTID":263078},"geometry":{"x":177396.72000000067,"y":2541483.3200000022}},{"attributes":{"ID":263083,"DIS_CODE":0,"TOWNNAME":"永康區","LI":"\u25A0行里","LIN":"22鄰","STREET":"正南五街","SECT":" ","MAREA":" ","LANE":" ","ALLEY":" ","HOUSE_NO":"４８０號","E_COORD97":171645.12,"N_COORD97":2548730.75,"ADDRESS":"正南五街４８０號","OBJECTID":263079},"geometry":{"x":171645.12000000011,"y":2548730.75}},{"attributes":{"ID":263084,"DIS_CODE":0,"TOWNNAME":"永康區","LI":"龍潭里","LIN":"22鄰","STREET":"龍橋街","SECT":" ","MAREA":" ","LANE":" ","ALLEY":" ","HOUSE_NO":"７２號","E_COORD97":174719,"N_COORD97":2548494.5099999998,"ADDRESS":"龍橋街７２號","OBJECTID":263080},"geometry":{"x":174719,"y":2548494.5099999998}},{"attributes":{"ID":263085,"DIS_CODE":0,"TOWNNAME":"永康區","LI":"\u25A0洲里","LIN":"22鄰","STREET":"中正南路","SECT":" ","MAREA":" ","LANE":" ","ALLEY":" ","HOUSE_NO":"７０７之１號","E_COORD97":171519.26999999999,"N_COORD97":2548845.04,"ADDRESS":"中正南路７０７之１號","OBJECTID":263081},"geometry":{"x":171519.26999999955,"y":2548845.040000001}},{"attributes":{"ID":263086,"DIS_CODE":0,"TOWNNAME":"永康區","LI":"\u25A0洲里","LIN":"22鄰","STREET":"中正南路","SECT":" ","MAREA":" ","LANE":" ","ALLEY":" ","HOUSE_NO":"７０７之６號","E_COORD97":171493.54000000001,"N_COORD97":2548860.54,"ADDRESS":"中正南路７０７之６號","OBJECTID":263082},"geometry":{"x":171493.54000000097,"y":2548860.5399999991}},{"attributes":{"ID":263087,"DIS_CODE":0,"TOWNNAME":"永康區","LI":"\u25A0行里","LIN":"22鄰","STREET":"正南五街","SECT":" ","MAREA":" ","LANE":" ","ALLEY":" ","HOUSE_NO":"４９２號","E_COORD97":171624.10000000001,"N_COORD97":2548741.2400000002,"ADDRESS":"正南五街４９２號","OBJECTID":263083},"geometry":{"x":171624.09999999963,"y":2548741.2400000002}},{"attributes":{"ID":263088,"DIS_CODE":0,"TOWNNAME":"永康區","LI":"\u25A0洲里","LIN":"22鄰","STREET":"中正南路","SECT":" ","MAREA":" ","LANE":" ","ALLEY":" ","HOUSE_NO":"７１３之１號","E_COORD97":171485.92000000001,"N_COORD97":2548887.6400000001,"ADDRESS":"中正南路７１３之１號","OBJECTID":263084},"geometry":{"x":171485.92000000086,"y":2548887.6400000006}},{"attributes":{"ID":263089,"DIS_CODE":0,"TOWNNAME":"白河區","LI":"永安里","LIN":" ","STREET":"中正路","SECT":" ","MAREA":" ","LANE":" ","ALLEY":" ","HOUSE_NO":"２１７號","E_COORD97":189613.56,"N_COORD97":2583049.7200000002,"ADDRESS":"中正路２１７號","OBJECTID":263085},"geometry":{"x":189613.55999999959,"y":2583049.7200000007}},{"attributes":{"ID":263090,"DIS_CODE":0,"TOWNNAME":"白河區","LI":"白河里","LIN":" ","STREET":"中正路","SECT":" ","MAREA":" ","LANE":" ","ALLEY":" ","HOUSE_NO":"３４號","E_COORD97":190241.04999999999,"N_COORD97":2583107.52,"ADDRESS":"中正路３４號","OBJECTID":263086},"geometry":{"x":190241.04999999981,"y":2583107.5199999996}},{"attributes":{"ID":263091,"DIS_CODE":0,"TOWNNAME":"白河區","LI":"白河里","LIN":" ","STREET":"中正路","SECT":" ","MAREA":" ","LANE":" ","ALLEY":" ","HOUSE_NO":"４２號","E_COORD97":190220.32999999999,"N_COORD97":2583112.3799999999,"ADDRESS":"中正路４２號","OBJECTID":263087},"geometry":{"x":190220.33000000101,"y":2583112.3800000008}},{"attributes":{"ID":263092,"DIS_CODE":0,"TOWNNAME":"白河區","LI":"永安里","LIN":" ","STREET":"中正路","SECT":" ","MAREA":" ","LANE":" ","ALLEY":" ","HOUSE_NO":"４８之１號","E_COORD97":190166.54999999999,"N_COORD97":2583127.8199999998,"ADDRESS":"中正路４８之１號","OBJECTID":263088},"geometry":{"x":190166.54999999981,"y":2583127.8200000022}},{"attributes":{"ID":263093,"DIS_CODE":0,"TOWNNAME":"麻豆區","LI":"東角里","LIN":"13鄰","STREET":"民生路","SECT":" ","MAREA":" ","LANE":"２５巷","ALLEY":" ","HOUSE_NO":"１號","E_COORD97":173683.97,"N_COORD97":2564696.4300000002,"ADDRESS":"民生路２５巷１號","OBJECTID":263089},"geometry":{"x":173683.97000000067,"y":2564696.4300000016}},{"attributes":{"ID":263094,"DIS_CODE":0,"TOWNNAME":"北區","LI":"正風里","LIN":"13鄰","STREET":"公園路","SECT":" ","MAREA":" ","LANE":"８９２巷","ALLEY":" ","HOUSE_NO":"２２號","E_COORD97":169388.88,"N_COORD97":2546018.3700000001,"ADDRESS":"公園路８９２巷２２號","OBJECTID":263090},"geometry":{"x":169388.88000000175,"y":2546018.370000001}},{"attributes":{"ID":263095,"DIS_CODE":0,"TOWNNAME":"永康區","LI":"崑山里","LIN":"48鄰","STREET":"國光六街","SECT":" ","MAREA":" ","LANE":" ","ALLEY":" ","HOUSE_NO":"５１號","E_COORD97":174174.73000000001,"N_COORD97":2545283.7799999998,"ADDRESS":"國光六街５１號","OBJECTID":263091},"geometry":{"x":174174.73000000138,"y":2545283.7800000012}},{"attributes":{"ID":263096,"DIS_CODE":0,"TOWNNAME":"北區","LI":"正風里","LIN":"13鄰","STREET":"公園路","SECT":" ","MAREA":" ","LANE":"８９２巷","ALLEY":" ","HOUSE_NO":"２４號","E_COORD97":169396.17999999999,"N_COORD97":2546012.21,"ADDRESS":"公園路８９２巷２４號","OBJECTID":263092},"geometry":{"x":169396.1799999997,"y":2546012.2100000028}},{"attributes":{"ID":263097,"DIS_CODE":0,"TOWNNAME":"北區","LI":"正風里","LIN":"13鄰","STREET":"長榮路","SECT":"五段","MAREA":" ","LANE":"４５２巷","ALLEY":" ","HOUSE_NO":"１１號","E_COORD97":169393.85999999999,"N_COORD97":2546006.1499999999,"ADDRESS":"長榮路五段４５２巷１１號","OBJECTID":263093},"geometry":{"x":169393.86000000034,"y":2546006.1500000004}},{"attributes":{"ID":263098,"DIS_CODE":0,"TOWNNAME":"北區","LI":"正風里","LIN":"13鄰","STREET":"長榮路","SECT":"五段","MAREA":" ","LANE":"４５２巷","ALLEY":" ","HOUSE_NO":"１２號","E_COORD97":169450.45999999999,"N_COORD97":2546031.1899999999,"ADDRESS":"長榮路五段４５２巷１２號","OBJECTID":263094},"geometry":{"x":169450.45999999996,"y":2546031.1900000013}},{"attributes":{"ID":263099,"DIS_CODE":0,"TOWNNAME":"永康區","LI":"龍潭里","LIN":"22鄰","STREET":"龍橋街","SECT":" ","MAREA":" ","LANE":"１３０巷","ALLEY":" ","HOUSE_NO":"３４號","E_COORD97":174723.01000000001,"N_COORD97":2548668.0899999999,"ADDRESS":"龍橋街１３０巷３４號","OBJECTID":263095},"geometry":{"x":174723.01000000071,"y":2548668.089999998}},{"attributes":{"ID":263100,"DIS_CODE":0,"TOWNNAME":"白河區","LI":"永安里","LIN":" ","STREET":"中正路","SECT":" ","MAREA":" ","LANE":" ","ALLEY":" ","HOUSE_NO":"５１號","E_COORD97":190055.57000000001,"N_COORD97":2583122.98,"ADDRESS":"中正路５１號","OBJECTID":263096},"geometry":{"x":190055.56999999937,"y":2583122.9800000023}},{"attributes":{"ID":263101,"DIS_CODE":0,"TOWNNAME":"白河區","LI":"秀祐里","LIN":" ","STREET":"中正路","SECT":" ","MAREA":" ","LANE":" ","ALLEY":" ","HOUSE_NO":"７０９號","E_COORD97":188717.28,"N_COORD97":2582960.1800000002,"ADDRESS":"中正路７０９號","OBJECTID":263097},"geometry":{"x":188717.28000000119,"y":2582960.1799999997}},{"attributes":{"ID":263102,"DIS_CODE":0,"TOWNNAME":"北區","LI":"正覺里","LIN":"13鄰","STREET":"北安路","SECT":"一段","MAREA":" ","LANE":"５６巷","ALLEY":" ","HOUSE_NO":"２９號","E_COORD97":169226.03,"N_COORD97":2546341.9300000002,"ADDRESS":"北安路一段５６巷２９號","OBJECTID":263098},"geometry":{"x":169226.03000000119,"y":2546341.9299999997}},{"attributes":{"ID":263103,"DIS_CODE":0,"TOWNNAME":"北區","LI":"正覺里","LIN":"13鄰","STREET":"北安路","SECT":"一段","MAREA":" ","LANE":"６８巷","ALLEY":" ","HOUSE_NO":"２３號","E_COORD97":169193.85999999999,"N_COORD97":2546338.3500000001,"ADDRESS":"北安路一段６８巷２３號","OBJECTID":263099},"geometry":{"x":169193.86000000034,"y":2546338.3500000015}},{"attributes":{"ID":263104,"DIS_CODE":0,"TOWNNAME":"北區","LI":"正風里","LIN":"13鄰","STREET":"長榮路","SECT":"五段","MAREA":" ","LANE":"４５２巷","ALLEY":" ","HOUSE_NO":"１６號","E_COORD97":169462.79000000001,"N_COORD97":2546046.29,"ADDRESS":"長榮路五段４５２巷１６號","OBJECTID":263100},"geometry":{"x":169462.79000000097,"y":2546046.290000001}},{"attributes":{"ID":263105,"DIS_CODE":0,"TOWNNAME":"新營區","LI":"南紙里","LIN":"13鄰","STREET":"太子路","SECT":" ","MAREA":" ","LANE":"２３８巷","ALLEY":" ","HOUSE_NO":"４６號","E_COORD97":177772.34,"N_COORD97":2577986.4900000002,"ADDRESS":"太子路２３８巷４６號","OBJECTID":263101},"geometry":{"x":177772.34000000078,"y":2577986.4900000021}},{"attributes":{"ID":263106,"DIS_CODE":0,"TOWNNAME":"新營區","LI":"興業里","LIN":"13鄰","STREET":"中興路","SECT":" ","MAREA":" ","LANE":"１３巷","ALLEY":" ","HOUSE_NO":"２６之３號","E_COORD97":180256.26000000001,"N_COORD97":2577960.25,"ADDRESS":"中興路１３巷２６之３號","OBJECTID":263102},"geometry":{"x":180256.26000000071,"y":2577960.2500000037}},{"attributes":{"ID":263107,"DIS_CODE":0,"TOWNNAME":"新營區","LI":"南紙里","LIN":"13鄰","STREET":"太子路","SECT":" ","MAREA":" ","LANE":"２３８巷","ALLEY":" ","HOUSE_NO":"３０號","E_COORD97":177791.5,"N_COORD97":2577926.6000000001,"ADDRESS":"太子路２３８巷３０號","OBJECTID":263103},"geometry":{"x":177791.50000000093,"y":2577926.5999999996}},{"attributes":{"ID":263108,"DIS_CODE":0,"TOWNNAME":"新營區","LI":"忠政里","LIN":"13鄰","STREET":"中正路","SECT":" ","MAREA":" ","LANE":"１０７巷","ALLEY":" ","HOUSE_NO":"４２之１號","E_COORD97":179918.26999999999,"N_COORD97":2579690.52,"ADDRESS":"中正路１０７巷４２之１號","OBJECTID":263104},"geometry":{"x":179918.27000000048,"y":2579690.5200000033}},{"attributes":{"ID":263109,"DIS_CODE":0,"TOWNNAME":"新營區","LI":"忠政里","LIN":"13鄰","STREET":"中正路","SECT":" ","MAREA":" ","LANE":"１０７巷","ALLEY":" ","HOUSE_NO":"６１號","E_COORD97":179860.81,"N_COORD97":2579668.6499999999,"ADDRESS":"中正路１０７巷６１號","OBJECTID":263105},"geometry":{"x":179860.81000000052,"y":2579668.6500000004}},{"attributes":{"ID":263110,"DIS_CODE":0,"TOWNNAME":"東區","LI":"崇學里","LIN":"22鄰","STREET":"榮譽街","SECT":" ","MAREA":" ","LANE":" ","ALLEY":" ","HOUSE_NO":"２７０號","E_COORD97":170158.5,"N_COORD97":2541951.79,"ADDRESS":"榮譽街２７０號","OBJECTID":263106},"geometry":{"x":170158.50000000093,"y":2541951.7899999991}},{"attributes":{"ID":263111,"DIS_CODE":0,"TOWNNAME":"東區","LI":"崇學里","LIN":"22鄰","STREET":"榮譽街","SECT":" ","MAREA":" ","LANE":" ","ALLEY":" ","HOUSE_NO":"２７２號","E_COORD97":170161.73999999999,"N_COORD97":2541954.8999999999,"ADDRESS":"榮譽街２７２號","OBJECTID":263107},"geometry":{"x":170161.74000000115,"y":2541954.9000000022}},{"attributes":{"ID":263112,"DIS_CODE":0,"TOWNNAME":"東區","LI":"崇學里","LIN":"22鄰","STREET":"榮譽街","SECT":" ","MAREA":" ","LANE":" ","ALLEY":" ","HOUSE_NO":"２６２號","E_COORD97":170145.42999999999,"N_COORD97":2541937.77,"ADDRESS":"榮譽街２６２號","OBJECTID":263108},"geometry":{"x":170145.4299999997,"y":2541937.7700000014}},{"attributes":{"ID":263113,"DIS_CODE":0,"TOWNNAME":"東區","LI":"崇學里","LIN":"22鄰","STREET":"榮譽街","SECT":" ","MAREA":" ","LANE":" ","ALLEY":" ","HOUSE_NO":"２６４號","E_COORD97":170148.19,"N_COORD97":2541941.2400000002,"ADDRESS":"榮譽街２６４號","OBJECTID":263109},"geometry":{"x":170148.19000000041,"y":2541941.2400000039}},{"attributes":{"ID":263114,"DIS_CODE":0,"TOWNNAME":"東區","LI":"崇學里","LIN":"22鄰","STREET":"榮譽街","SECT":" ","MAREA":" ","LANE":" ","ALLEY":" ","HOUSE_NO":"２６６號","E_COORD97":170151.54999999999,"N_COORD97":2541944.8399999999,"ADDRESS":"榮譽街２６６號","OBJECTID":263110},"geometry":{"x":170151.54999999981,"y":2541944.8400000017}},{"attributes":{"ID":263115,"DIS_CODE":0,"TOWNNAME":"東區","LI":"崇學里","LIN":"22鄰","STREET":"榮譽街","SECT":" ","MAREA":" ","LANE":" ","ALLEY":" ","HOUSE_NO":"２６８號","E_COORD97":170154.19,"N_COORD97":2541948.3100000001,"ADDRESS":"榮譽街２６８號","OBJECTID":263111},"geometry":{"x":170154.19000000134,"y":2541948.3100000024}},{"attributes":{"ID":263116,"DIS_CODE":0,"TOWNNAME":"白河區","LI":"永安里","LIN":"22鄰","STREET":"西安街","SECT":" ","MAREA":" ","LANE":" ","ALLEY":" ","HOUSE_NO":"７３號","E_COORD97":189738.10999999999,"N_COORD97":2582795.3500000001,"ADDRESS":"西安街７３號","OBJECTID":263112},"geometry":{"x":189738.11000000034,"y":2582795.3500000015}},{"attributes":{"ID":263117,"DIS_CODE":0,"TOWNNAME":"白河區","LI":"永安里","LIN":"22鄰","STREET":"西安街","SECT":" ","MAREA":" ","LANE":" ","ALLEY":" ","HOUSE_NO":"７５號","E_COORD97":189732.57999999999,"N_COORD97":2582798.6800000002,"ADDRESS":"西安街７５號","OBJECTID":263113},"geometry":{"x":189732.58000000007,"y":2582798.6800000034}},{"attributes":{"ID":263118,"DIS_CODE":0,"TOWNNAME":"歸仁區","LI":"大廟里","LIN":"13鄰","STREET":"大廟六街","SECT":" ","MAREA":" ","LANE":"１１０巷","ALLEY":" ","HOUSE_NO":"１０號","E_COORD97":176195.37,"N_COORD97":2544237.25,"ADDRESS":"大廟六街１１０巷１０號","OBJECTID":263114},"geometry":{"x":176195.37000000197,"y":2544237.2500000019}},{"attributes":{"ID":263119,"DIS_CODE":0,"TOWNNAME":"歸仁區","LI":"七甲里","LIN":"13鄰","STREET":"南丁路","SECT":" ","MAREA":" ","LANE":"３５９巷","ALLEY":" ","HOUSE_NO":"２３６號","E_COORD97":175534.09,"N_COORD97":2542598.25,"ADDRESS":"南丁路３５９巷２３６號","OBJECTID":263115},"geometry":{"x":175534.09000000171,"y":2542598.25}},{"attributes":{"ID":263120,"DIS_CODE":0,"TOWNNAME":"歸仁區","LI":"七甲里","LIN":"13鄰","STREET":"南丁路","SECT":" ","MAREA":" ","LANE":"３５９巷","ALLEY":" ","HOUSE_NO":"１１８號","E_COORD97":175787.10999999999,"N_COORD97":2542595.25,"ADDRESS":"南丁路３５９巷１１８號","OBJECTID":263116},"geometry":{"x":175787.1100000022,"y":2542595.2500000037}},{"attributes":{"ID":263121,"DIS_CODE":0,"TOWNNAME":"歸仁區","LI":"七甲里","LIN":"13鄰","STREET":"南丁路","SECT":" ","MAREA":" ","LANE":"４３７巷","ALLEY":" ","HOUSE_NO":"５７號","E_COORD97":175919.34,"N_COORD97":2542783.25,"ADDRESS":"南丁路４３７巷５７號","OBJECTID":263117},"geometry":{"x":175919.34000000078,"y":2542783.2500000019}},{"attributes":{"ID":263122,"DIS_CODE":0,"TOWNNAME":"歸仁區","LI":"大廟里","LIN":"13鄰","STREET":"大廟六街","SECT":" ","MAREA":" ","LANE":"１１０巷","ALLEY":" ","HOUSE_NO":"６號","E_COORD97":176189.01999999999,"N_COORD97":2544244.25,"ADDRESS":"大廟六街１１０巷６號","OBJECTID":263118},"geometry":{"x":176189.02000000048,"y":2544244.2500000019}},{"attributes":{"ID":263123,"DIS_CODE":0,"TOWNNAME":"永康區","LI":"龍潭里","LIN":"22鄰","STREET":"龍橋街","SECT":" ","MAREA":" ","LANE":" ","ALLEY":" ","HOUSE_NO":"７６號","E_COORD97":174712.72,"N_COORD97":2548504.2599999998,"ADDRESS":"龍橋街７６號","OBJECTID":263119},"geometry":{"x":174712.7200000016,"y":2548504.2600000035}},{"attributes":{"ID":263124,"DIS_CODE":0,"TOWNNAME":"永康區","LI":"\u25A0行里","LIN":"22鄰","STREET":"正南五街","SECT":" ","MAREA":" ","LANE":" ","ALLEY":" ","HOUSE_NO":"４７２號","E_COORD97":171650.69,"N_COORD97":2548716,"ADDRESS":"正南五街４７２號","OBJECTID":263120},"geometry":{"x":171650.69000000134,"y":2548716}},{"attributes":{"ID":263125,"DIS_CODE":0,"TOWNNAME":"東區","LI":"崇學里","LIN":"22鄰","STREET":"榮譽街","SECT":" ","MAREA":" ","LANE":" ","ALLEY":" ","HOUSE_NO":"２５１號","E_COORD97":170127.85000000001,"N_COORD97":2541960.6200000001,"ADDRESS":"榮譽街２５１號","OBJECTID":263121},"geometry":{"x":170127.85000000149,"y":2541960.6200000029}},{"attributes":{"ID":263126,"DIS_CODE":0,"TOWNNAME":"東區","LI":"崇學里","LIN":"22鄰","STREET":"榮譽街","SECT":" ","MAREA":" ","LANE":" ","ALLEY":" ","HOUSE_NO":"２５３號","E_COORD97":170130.75,"N_COORD97":2541963.52,"ADDRESS":"榮譽街２５３號","OBJECTID":263122},"geometry":{"x":170130.75000000093,"y":2541963.5200000014}},{"attributes":{"ID":263127,"DIS_CODE":0,"TOWNNAME":"歸仁區","LI":"大廟里","LIN":"13鄰","STREET":"大廟六街","SECT":" ","MAREA":" ","LANE":"１１０巷","ALLEY":" ","HOUSE_NO":"１８號","E_COORD97":176207.67000000001,"N_COORD97":2544224.25,"ADDRESS":"大廟六街１１０巷１８號","OBJECTID":263123},"geometry":{"x":176207.66999999993,"y":2544224.2500000019}},{"attributes":{"ID":263128,"DIS_CODE":0,"TOWNNAME":"歸仁區","LI":"七甲里","LIN":"13鄰","STREET":"南丁路","SECT":" ","MAREA":" ","LANE":"４３７巷","ALLEY":" ","HOUSE_NO":"１５６號","E_COORD97":175593.69,"N_COORD97":2542820.25,"ADDRESS":"南丁路４３７巷１５６號","OBJECTID":263124},"geometry":{"x":175593.69000000134,"y":2542820.2500000019}},{"attributes":{"ID":263129,"DIS_CODE":0,"TOWNNAME":"歸仁區","LI":"大廟里","LIN":"13鄰","STREET":"大廟六街","SECT":" ","MAREA":" ","LANE":"１１０巷","ALLEY":" ","HOUSE_NO":"１２號","E_COORD97":176197.47,"N_COORD97":2544234.25,"ADDRESS":"大廟六街１１０巷１２號","OBJECTID":263125},"geometry":{"x":176197.46999999881,"y":2544234.2500000019}},{"attributes":{"ID":263130,"DIS_CODE":0,"TOWNNAME":"歸仁區","LI":"七甲里","LIN":"13鄰","STREET":"南丁路","SECT":" ","MAREA":" ","LANE":"４３７巷","ALLEY":" ","HOUSE_NO":"１３８號","E_COORD97":175646.89000000001,"N_COORD97":2542794.25,"ADDRESS":"南丁路４３７巷１３８號","OBJECTID":263126},"geometry":{"x":175646.88999999966,"y":2542794.25}},{"attributes":{"ID":263131,"DIS_CODE":0,"TOWNNAME":"歸仁區","LI":"七甲里","LIN":"13鄰","STREET":"南丁路","SECT":" ","MAREA":" ","LANE":"５７１巷","ALLEY":" ","HOUSE_NO":"３５號","E_COORD97":175949.23999999999,"N_COORD97":2543032.25,"ADDRESS":"南丁路５７１巷３５號","OBJECTID":263127},"geometry":{"x":175949.24000000115,"y":2543032.25}},{"attributes":{"ID":263132,"DIS_CODE":0,"TOWNNAME":"柳營區","LI":"士林里","LIN":"13鄰","STREET":"柳營路","SECT":"一段","MAREA":" ","LANE":"７５７巷","ALLEY":" ","HOUSE_NO":"２０號","E_COORD97":179624.97,"N_COORD97":2575000.8300000001,"ADDRESS":"柳營路一段７５７巷２０號","OBJECTID":263128},"geometry":{"x":179624.96999999974,"y":2575000.8300000019}},{"attributes":{"ID":263133,"DIS_CODE":0,"TOWNNAME":"柳營區","LI":"士林里","LIN":"13鄰","STREET":"柳營路","SECT":"一段","MAREA":" ","LANE":"７５７巷","ALLEY":" ","HOUSE_NO":"２２號","E_COORD97":179615.57000000001,"N_COORD97":2575002.23,"ADDRESS":"柳營路一段７５７巷２２號","OBJECTID":263129},"geometry":{"x":179615.57000000123,"y":2575002.2300000023}},{"attributes":{"ID":263134,"DIS_CODE":0,"TOWNNAME":"柳營區","LI":"士林里","LIN":"13鄰","STREET":"柳營路","SECT":"一段","MAREA":" ","LANE":"７５７巷","ALLEY":" ","HOUSE_NO":"２６號","E_COORD97":179600.76999999999,"N_COORD97":2575003.8700000001,"ADDRESS":"柳營路一段７５７巷２６號","OBJECTID":263130},"geometry":{"x":179600.76999999955,"y":2575003.8699999992}},{"attributes":{"ID":263135,"DIS_CODE":0,"TOWNNAME":"柳營區","LI":"士林里","LIN":"13鄰","STREET":"柳營路","SECT":"一段","MAREA":" ","LANE":"７５７巷","ALLEY":" ","HOUSE_NO":"２８號","E_COORD97":179588.70999999999,"N_COORD97":2575005.7400000002,"ADDRESS":"柳營路一段７５７巷２８號","OBJECTID":263131},"geometry":{"x":179588.71000000089,"y":2575005.7400000021}},{"attributes":{"ID":263136,"DIS_CODE":0,"TOWNNAME":"北區","LI":"興北里","LIN":"13鄰","STREET":"公園路","SECT":" ","MAREA":" ","LANE":"６２４巷","ALLEY":" ","HOUSE_NO":"１２３號","E_COORD97":169342.29999999999,"N_COORD97":2545321.0699999998,"ADDRESS":"公園路６２４巷１２３號","OBJECTID":263132},"geometry":{"x":169342.30000000075,"y":2545321.0700000003}},{"attributes":{"ID":263137,"DIS_CODE":0,"TOWNNAME":"北區","LI":"興北里","LIN":"13鄰","STREET":"公園路","SECT":" ","MAREA":" ","LANE":"６２４巷","ALLEY":" ","HOUSE_NO":"３５號","E_COORD97":169135.51000000001,"N_COORD97":2545312.9199999999,"ADDRESS":"公園路６２４巷３５號","OBJECTID":263133},"geometry":{"x":169135.51000000071,"y":2545312.9200000037}},{"attributes":{"ID":263138,"DIS_CODE":0,"TOWNNAME":"北區","LI":"興北里","LIN":"13鄰","STREET":"公園路","SECT":" ","MAREA":" ","LANE":"６２４巷","ALLEY":" ","HOUSE_NO":"３７號","E_COORD97":169140.35999999999,"N_COORD97":2545311.3300000001,"ADDRESS":"公園路６２４巷３７號","OBJECTID":263134},"geometry":{"x":169140.36000000127,"y":2545311.3300000019}},{"attributes":{"ID":263139,"DIS_CODE":0,"TOWNNAME":"歸仁區","LI":"六甲里","LIN":"13鄰","STREET":"六甲路","SECT":" ","MAREA":" ","LANE":"２５７巷","ALLEY":" ","HOUSE_NO":"５號","E_COORD97":175916.76000000001,"N_COORD97":2539171.25,"ADDRESS":"六甲路２５７巷５號","OBJECTID":263135},"geometry":{"x":175916.76000000071,"y":2539171.2500000019}},{"attributes":{"ID":263140,"DIS_CODE":0,"TOWNNAME":"歸仁區","LI":"八甲里","LIN":"13鄰","STREET":"大明二街","SECT":" ","MAREA":" ","LANE":"３０巷","ALLEY":" ","HOUSE_NO":"２７號","E_COORD97":177932.98000000001,"N_COORD97":2542053.25,"ADDRESS":"大明二街３０巷２７號","OBJECTID":263136},"geometry":{"x":177932.98000000138,"y":2542053.2500000019}},{"attributes":{"ID":263141,"DIS_CODE":0,"TOWNNAME":"北區","LI":"華興里","LIN":"13鄰","STREET":"南園街","SECT":" ","MAREA":" ","LANE":"１０９巷","ALLEY":" ","HOUSE_NO":"１０號","E_COORD97":170660.45000000001,"N_COORD97":2545339.29,"ADDRESS":"南園街１０９巷１０號","OBJECTID":263137},"geometry":{"x":170660.45000000112,"y":2545339.2899999991}},{"attributes":{"ID":263142,"DIS_CODE":0,"TOWNNAME":"北區","LI":"華興里","LIN":"13鄰","STREET":"南園街","SECT":" ","MAREA":" ","LANE":"１０９巷","ALLEY":" ","HOUSE_NO":"１１號","E_COORD97":170690.29000000001,"N_COORD97":2545360.3799999999,"ADDRESS":"南園街１０９巷１１號","OBJECTID":263138},"geometry":{"x":170690.29000000097,"y":2545360.3800000008}},{"attributes":{"ID":263143,"DIS_CODE":0,"TOWNNAME":"歸仁區","LI":"許厝里","LIN":"22鄰","STREET":"大仁街","SECT":" ","MAREA":" ","LANE":" ","ALLEY":" ","HOUSE_NO":"１０２之１號","E_COORD97":178144.07000000001,"N_COORD97":2540971.1200000001,"ADDRESS":"大仁街１０２之１號","OBJECTID":263139},"geometry":{"x":178144.07000000123,"y":2540971.1200000029}},{"attributes":{"ID":263144,"DIS_CODE":0,"TOWNNAME":"歸仁區","LI":"歸仁里","LIN":"22鄰","STREET":"文化街","SECT":"一段","MAREA":" ","LANE":" ","ALLEY":" ","HOUSE_NO":"７０號","E_COORD97":178067.76999999999,"N_COORD97":2541178.2599999998,"ADDRESS":"文化街一段７０號","OBJECTID":263140},"geometry":{"x":178067.76999999955,"y":2541178.2600000016}},{"attributes":{"ID":263145,"DIS_CODE":0,"TOWNNAME":"北區","LI":"華興里","LIN":"13鄰","STREET":"南園街","SECT":" ","MAREA":" ","LANE":"１０９巷","ALLEY":" ","HOUSE_NO":"１２號","E_COORD97":170664.73000000001,"N_COORD97":2545341.79,"ADDRESS":"南園街１０９巷１２號","OBJECTID":263141},"geometry":{"x":170664.73000000045,"y":2545341.790000001}},{"attributes":{"ID":263146,"DIS_CODE":0,"TOWNNAME":"北區","LI":"華興里","LIN":"13鄰","STREET":"南園街","SECT":" ","MAREA":" ","LANE":"１０９巷","ALLEY":" ","HOUSE_NO":"１３號","E_COORD97":170694.5,"N_COORD97":2545361.8399999999,"ADDRESS":"南園街１０９巷１３號","OBJECTID":263142},"geometry":{"x":170694.5,"y":2545361.8400000017}},{"attributes":{"ID":263147,"DIS_CODE":0,"TOWNNAME":"北區","LI":"華興里","LIN":"13鄰","STREET":"南園街","SECT":" ","MAREA":" ","LANE":"１０９巷","ALLEY":" ","HOUSE_NO":"１４號","E_COORD97":170669.42000000001,"N_COORD97":2545340.7400000002,"ADDRESS":"南園街１０９巷１４號","OBJECTID":263143},"geometry":{"x":170669.41999999993,"y":2545340.7400000002}},{"attributes":{"ID":263148,"DIS_CODE":0,"TOWNNAME":"北區","LI":"華興里","LIN":"13鄰","STREET":"南園街","SECT":" ","MAREA":" ","LANE":"１０９巷","ALLEY":" ","HOUSE_NO":"１５號","E_COORD97":170699.19,"N_COORD97":2545363.1299999999,"ADDRESS":"南園街１０９巷１５號","OBJECTID":263144},"geometry":{"x":170699.18999999948,"y":2545363.1300000008}},{"attributes":{"ID":263149,"DIS_CODE":0,"TOWNNAME":"北區","LI":"華興里","LIN":"13鄰","STREET":"南園街","SECT":" ","MAREA":" ","LANE":"１０９巷","ALLEY":" ","HOUSE_NO":"１６號","E_COORD97":170673.32000000001,"N_COORD97":2545342.4500000002,"ADDRESS":"南園街１０９巷１６號","OBJECTID":263145},"geometry":{"x":170673.32000000123,"y":2545342.4499999974}},{"attributes":{"ID":263150,"DIS_CODE":0,"TOWNNAME":"北區","LI":"華興里","LIN":"13鄰","STREET":"南園街","SECT":" ","MAREA":" ","LANE":"１０９巷","ALLEY":" ","HOUSE_NO":"３１號","E_COORD97":170734.03,"N_COORD97":2545372.1800000002,"ADDRESS":"南園街１０９巷３１號","OBJECTID":263146},"geometry":{"x":170734.02999999933,"y":2545372.1800000034}},{"attributes":{"ID":263151,"DIS_CODE":0,"TOWNNAME":"關廟區","LI":"南花里","LIN":"13鄰","STREET":"花園一街","SECT":" ","MAREA":" ","LANE":"２０２巷","ALLEY":" ","HOUSE_NO":"８號","E_COORD97":181649.69,"N_COORD97":2540182.25,"ADDRESS":"花園一街２０２巷８號","OBJECTID":263147},"geometry":{"x":181649.69000000041,"y":2540182.2500000019}},{"attributes":{"ID":263152,"DIS_CODE":0,"TOWNNAME":"關廟區","LI":"東勢里","LIN":"13鄰","STREET":"東榮街","SECT":" ","MAREA":" ","LANE":"１０５巷","ALLEY":" ","HOUSE_NO":"１號","E_COORD97":182153.53,"N_COORD97":2539392.1099999999,"ADDRESS":"東榮街１０５巷１號","OBJECTID":263148},"geometry":{"x":182153.53000000119,"y":2539392.1100000013}},{"attributes":{"ID":263153,"DIS_CODE":0,"TOWNNAME":"關廟區","LI":"北花里","LIN":"13鄰","STREET":"中正路","SECT":" ","MAREA":" ","LANE":"２６５巷","ALLEY":" ","HOUSE_NO":"１１３號","E_COORD97":183203.07999999999,"N_COORD97":2540669.73,"ADDRESS":"中正路２６５巷１１３號","OBJECTID":263149},"geometry":{"x":183203.08000000007,"y":2540669.7300000004}},{"attributes":{"ID":263154,"DIS_CODE":0,"TOWNNAME":"北區","LI":"開元里","LIN":"13鄰","STREET":"北園街","SECT":" ","MAREA":" ","LANE":"８７巷","ALLEY":" ","HOUSE_NO":"２８號","E_COORD97":170170.88,"N_COORD97":2545973.2400000002,"ADDRESS":"北園街８７巷２８號","OBJECTID":263150},"geometry":{"x":170170.88000000082,"y":2545973.2400000021}},{"attributes":{"ID":263155,"DIS_CODE":0,"TOWNNAME":"北區","LI":"開元里","LIN":"13鄰","STREET":"北園街","SECT":" ","MAREA":" ","LANE":"８７巷","ALLEY":" ","HOUSE_NO":"２８號之１","E_COORD97":170170.95999999999,"N_COORD97":2545969.7599999998,"ADDRESS":"北園街８７巷２８號之１","OBJECTID":263151},"geometry":{"x":170170.95999999996,"y":2545969.7600000016}},{"attributes":{"ID":263156,"DIS_CODE":0,"TOWNNAME":"北區","LI":"開元里","LIN":"13鄰","STREET":"北園街","SECT":" ","MAREA":" ","LANE":"８７巷","ALLEY":" ","HOUSE_NO":"３０號","E_COORD97":170172.5,"N_COORD97":2545979.8100000001,"ADDRESS":"北園街８７巷３０號","OBJECTID":263152},"geometry":{"x":170172.5,"y":2545979.8100000024}},{"attributes":{"ID":263157,"DIS_CODE":0,"TOWNNAME":"北區","LI":"開元里","LIN":"13鄰","STREET":"北園街","SECT":" ","MAREA":" ","LANE":"８７巷","ALLEY":" ","HOUSE_NO":"３２號","E_COORD97":170171.04999999999,"N_COORD97":2545984.4199999999,"ADDRESS":"北園街８７巷３２號","OBJECTID":263153},"geometry":{"x":170171.05000000075,"y":2545984.4200000037}},{"attributes":{"ID":263158,"DIS_CODE":0,"TOWNNAME":"北區","LI":"開元里","LIN":"13鄰","STREET":"北園街","SECT":" ","MAREA":" ","LANE":"８７巷","ALLEY":" ","HOUSE_NO":"３４號","E_COORD97":170170.72,"N_COORD97":2545989.0299999998,"ADDRESS":"北園街８７巷３４號","OBJECTID":263154},"geometry":{"x":170170.71999999974,"y":2545989.0299999993}},{"attributes":{"ID":263159,"DIS_CODE":0,"TOWNNAME":"北區","LI":"開元里","LIN":"13鄰","STREET":"北園街","SECT":" ","MAREA":" ","LANE":"８７巷","ALLEY":" ","HOUSE_NO":"３８號","E_COORD97":170171.85999999999,"N_COORD97":2545998.0299999998,"ADDRESS":"北園街８７巷３８號","OBJECTID":263155},"geometry":{"x":170171.86000000034,"y":2545998.0300000012}},{"attributes":{"ID":263160,"DIS_CODE":0,"TOWNNAME":"北區","LI":"開元里","LIN":"13鄰","STREET":"北園街","SECT":" ","MAREA":" ","LANE":"８７巷","ALLEY":" ","HOUSE_NO":"４０號","E_COORD97":170171.53,"N_COORD97":2546002.0699999998,"ADDRESS":"北園街８７巷４０號","OBJECTID":263156},"geometry":{"x":170171.53000000119,"y":2546002.0700000022}},{"attributes":{"ID":263161,"DIS_CODE":0,"TOWNNAME":"北區","LI":"開元里","LIN":"13鄰","STREET":"北園街","SECT":" ","MAREA":" ","LANE":"８７巷","ALLEY":" ","HOUSE_NO":"４２號","E_COORD97":170170.89000000001,"N_COORD97":2546006.7599999998,"ADDRESS":"北園街８７巷４２號","OBJECTID":263157},"geometry":{"x":170170.88999999966,"y":2546006.7600000016}},{"attributes":{"ID":263162,"DIS_CODE":0,"TOWNNAME":"北區","LI":"開元里","LIN":"13鄰","STREET":"北園街","SECT":" ","MAREA":" ","LANE":"８７巷","ALLEY":" ","HOUSE_NO":"４４號","E_COORD97":170171.04999999999,"N_COORD97":2546011.8900000001,"ADDRESS":"北園街８７巷４４號","OBJECTID":263158},"geometry":{"x":170171.05000000075,"y":2546011.8900000006}},{"attributes":{"ID":263163,"DIS_CODE":0,"TOWNNAME":"北區","LI":"開元里","LIN":"13鄰","STREET":"北園街","SECT":" ","MAREA":" ","LANE":"８７巷","ALLEY":" ","HOUSE_NO":"４６號","E_COORD97":170171.13,"N_COORD97":2546016.0899999999,"ADDRESS":"北園街８７巷４６號","OBJECTID":263159},"geometry":{"x":170171.12999999989,"y":2546016.0899999999}},{"attributes":{"ID":263164,"DIS_CODE":0,"TOWNNAME":"北區","LI":"開元里","LIN":"13鄰","STREET":"北園街","SECT":" ","MAREA":" ","LANE":"８７巷","ALLEY":" ","HOUSE_NO":"４８號","E_COORD97":170171.53,"N_COORD97":2546019.9700000002,"ADDRESS":"北園街８７巷４８號","OBJECTID":263160},"geometry":{"x":170171.53000000119,"y":2546019.9700000025}},{"attributes":{"ID":263165,"DIS_CODE":0,"TOWNNAME":"北區","LI":"文成里","LIN":"13鄰","STREET":"海安路","SECT":"三段","MAREA":" ","LANE":"３５７巷","ALLEY":" ","HOUSE_NO":"３０號","E_COORD97":167854.35000000001,"N_COORD97":2545479.3100000001,"ADDRESS":"海安路三段３５７巷３０號","OBJECTID":263161},"geometry":{"x":167854.34999999963,"y":2545479.3100000005}},{"attributes":{"ID":263166,"DIS_CODE":0,"TOWNNAME":"北區","LI":"正風里","LIN":"13鄰","STREET":"長榮路","SECT":"五段","MAREA":" ","LANE":"４５２巷","ALLEY":" ","HOUSE_NO":"１６之１號","E_COORD97":169464.22,"N_COORD97":2546051.9199999999,"ADDRESS":"長榮路五段４５２巷１６之１號","OBJECTID":263162},"geometry":{"x":169464.2200000016,"y":2546051.9199999981}},{"attributes":{"ID":263167,"DIS_CODE":0,"TOWNNAME":"安平區","LI":"海頭里","LIN":"13鄰","STREET":"安北路","SECT":" ","MAREA":" ","LANE":"１３１巷","ALLEY":" ","HOUSE_NO":"５號","E_COORD97":164141.78,"N_COORD97":2544768,"ADDRESS":"安北路１３１巷５號","OBJECTID":263163},"geometry":{"x":164141.78000000119,"y":2544768.0000000019}},{"attributes":{"ID":263168,"DIS_CODE":0,"TOWNNAME":"安平區","LI":"海頭里","LIN":"13鄰","STREET":"安北路","SECT":" ","MAREA":" ","LANE":"１３１巷","ALLEY":" ","HOUSE_NO":"７號","E_COORD97":164131.42000000001,"N_COORD97":2544771.1400000001,"ADDRESS":"安北路１３１巷７號","OBJECTID":263164},"geometry":{"x":164131.41999999993,"y":2544771.1400000025}},{"attributes":{"ID":263169,"DIS_CODE":0,"TOWNNAME":"安平區","LI":"華平里","LIN":"22鄰","STREET":"建平八街","SECT":" ","MAREA":" ","LANE":" ","ALLEY":" ","HOUSE_NO":"４２１號","E_COORD97":165227.29999999999,"N_COORD97":2543577.5800000001,"ADDRESS":"建平八街４２１號","OBJECTID":263165},"geometry":{"x":165227.29999999981,"y":2543577.5800000019}},{"attributes":{"ID":263170,"DIS_CODE":0,"TOWNNAME":"安平區","LI":"海頭里","LIN":"13鄰","STREET":"安北路","SECT":" ","MAREA":" ","LANE":"１３１巷","ALLEY":" ","HOUSE_NO":"７號之１","E_COORD97":164125.89000000001,"N_COORD97":2544769.3999999999,"ADDRESS":"安北路１３１巷７號之１","OBJECTID":263166},"geometry":{"x":164125.88999999966,"y":2544769.4000000022}},{"attributes":{"ID":263171,"DIS_CODE":0,"TOWNNAME":"安平區","LI":"海頭里","LIN":"13鄰","STREET":"安北路","SECT":" ","MAREA":" ","LANE":"１３１巷","ALLEY":" ","HOUSE_NO":"１２號","E_COORD97":164144.09,"N_COORD97":2544779.8900000001,"ADDRESS":"安北路１３１巷１２號","OBJECTID":263167},"geometry":{"x":164144.09000000171,"y":2544779.8900000025}},{"attributes":{"ID":263172,"DIS_CODE":0,"TOWNNAME":"安平區","LI":"海頭里","LIN":"13鄰","STREET":"安北路","SECT":" ","MAREA":" ","LANE":"１３１巷","ALLEY":" ","HOUSE_NO":"１４號","E_COORD97":164134.14999999999,"N_COORD97":2544782.0600000001,"ADDRESS":"安北路１３１巷１４號","OBJECTID":263168},"geometry":{"x":164134.15000000224,"y":2544782.0600000024}},{"attributes":{"ID":263173,"DIS_CODE":0,"TOWNNAME":"安平區","LI":"海頭里","LIN":"13鄰","STREET":"安北路","SECT":" ","MAREA":" ","LANE":"１３１巷","ALLEY":" ","HOUSE_NO":"２號","E_COORD97":164142.19,"N_COORD97":2544829.0099999998,"ADDRESS":"安北路１３１巷２號","OBJECTID":263169},"geometry":{"x":164142.18999999948,"y":2544829.0100000016}},{"attributes":{"ID":263174,"DIS_CODE":0,"TOWNNAME":"安平區","LI":"海頭里","LIN":"13鄰","STREET":"安北路","SECT":" ","MAREA":" ","LANE":"１３１巷","ALLEY":" ","HOUSE_NO":"４號","E_COORD97":164103.26000000001,"N_COORD97":2544816.8900000001,"ADDRESS":"安北路１３１巷４號","OBJECTID":263170},"geometry":{"x":164103.25999999978,"y":2544816.8900000025}},{"attributes":{"ID":263175,"DIS_CODE":0,"TOWNNAME":"安平區","LI":"海頭里","LIN":"13鄰","STREET":"安北路","SECT":" ","MAREA":" ","LANE":"１３１巷","ALLEY":" ","HOUSE_NO":"４號之１","E_COORD97":164140.01999999999,"N_COORD97":2544808.3799999999,"ADDRESS":"安北路１３１巷４號之１","OBJECTID":263171},"geometry":{"x":164140.01999999955,"y":2544808.3800000008}},{"attributes":{"ID":263176,"DIS_CODE":0,"TOWNNAME":"安平區","LI":"海頭里","LIN":"13鄰","STREET":"安北路","SECT":" ","MAREA":" ","LANE":"１３１巷","ALLEY":" ","HOUSE_NO":"４號之２","E_COORD97":164142.26000000001,"N_COORD97":2544804.1099999999,"ADDRESS":"安北路１３１巷４號之２","OBJECTID":263172},"geometry":{"x":164142.25999999978,"y":2544804.1100000013}},{"attributes":{"ID":263177,"DIS_CODE":0,"TOWNNAME":"安平區","LI":"海頭里","LIN":"13鄰","STREET":"安北路","SECT":" ","MAREA":" ","LANE":"１３１巷","ALLEY":" ","HOUSE_NO":"６號","E_COORD97":164130.42999999999,"N_COORD97":2544808.1699999999,"ADDRESS":"安北路１３１巷６號","OBJECTID":263173},"geometry":{"x":164130.43000000063,"y":2544808.1699999999}},{"attributes":{"ID":263178,"DIS_CODE":0,"TOWNNAME":"安平區","LI":"海頭里","LIN":"13鄰","STREET":"安北路","SECT":" ","MAREA":" ","LANE":"１３１巷","ALLEY":" ","HOUSE_NO":"８號","E_COORD97":164120.89999999999,"N_COORD97":2544809,"ADDRESS":"安北路１３１巷８號","OBJECTID":263174},"geometry":{"x":164120.9000000013,"y":2544809.0000000019}},{"attributes":{"ID":263179,"DIS_CODE":0,"TOWNNAME":"北區","LI":"重興里","LIN":"22鄰","STREET":" ","SECT":" ","MAREA":"自治","LANE":" ","ALLEY":" ","HOUSE_NO":"３２號","E_COORD97":170746.79999999999,"N_COORD97":2544948.8999999999,"ADDRESS":"自治３２號","OBJECTID":263175},"geometry":{"x":170746.79999999981,"y":2544948.9000000022}},{"attributes":{"ID":263180,"DIS_CODE":0,"TOWNNAME":"北區","LI":"重興里","LIN":"22鄰","STREET":" ","SECT":" ","MAREA":"自治","LANE":" ","ALLEY":" ","HOUSE_NO":"４７號","E_COORD97":170750.28,"N_COORD97":2544937.0699999998,"ADDRESS":"自治４７號","OBJECTID":263176},"geometry":{"x":170750.28000000026,"y":2544937.0700000022}},{"attributes":{"ID":263181,"DIS_CODE":0,"TOWNNAME":"北區","LI":"重興里","LIN":"22鄰","STREET":" ","SECT":" ","MAREA":"自治","LANE":" ","ALLEY":" ","HOUSE_NO":"６４號","E_COORD97":170761.85000000001,"N_COORD97":2544908.3300000001,"ADDRESS":"自治６４號","OBJECTID":263177},"geometry":{"x":170761.85000000149,"y":2544908.3300000019}},{"attributes":{"ID":263182,"DIS_CODE":0,"TOWNNAME":"安平區","LI":"海頭里","LIN":"13鄰","STREET":"安北路","SECT":" ","MAREA":" ","LANE":"１３１巷","ALLEY":" ","HOUSE_NO":"８號之２","E_COORD97":164118.23999999999,"N_COORD97":2544811.1699999999,"ADDRESS":"安北路１３１巷８號之２","OBJECTID":263178},"geometry":{"x":164118.24000000115,"y":2544811.1700000018}},{"attributes":{"ID":263183,"DIS_CODE":0,"TOWNNAME":"南區","LI":"松安里","LIN":"13鄰","STREET":"灣裡路","SECT":" ","MAREA":" ","LANE":"２８２巷","ALLEY":" ","HOUSE_NO":"１２２號之１","E_COORD97":166020.47,"N_COORD97":2536094.46,"ADDRESS":"灣裡路２８２巷１２２號之１","OBJECTID":263179},"geometry":{"x":166020.47000000067,"y":2536094.4600000009}},{"attributes":{"ID":263184,"DIS_CODE":0,"TOWNNAME":"安平區","LI":"建平里","LIN":"22鄰","STREET":"永華三街","SECT":" ","MAREA":" ","LANE":" ","ALLEY":" ","HOUSE_NO":"７８號","E_COORD97":166108.67999999999,"N_COORD97":2543628.9300000002,"ADDRESS":"永華三街７８號","OBJECTID":263180},"geometry":{"x":166108.68000000063,"y":2543628.9300000016}},{"attributes":{"ID":263185,"DIS_CODE":0,"TOWNNAME":"南區","LI":"松安里","LIN":"13鄰","STREET":"灣裡路","SECT":" ","MAREA":" ","LANE":"２８２巷","ALLEY":" ","HOUSE_NO":"１２６號","E_COORD97":166012.56,"N_COORD97":2536064.7999999998,"ADDRESS":"灣裡路２８２巷１２６號","OBJECTID":263181},"geometry":{"x":166012.56000000052,"y":2536064.8000000007}},{"attributes":{"ID":263186,"DIS_CODE":0,"TOWNNAME":"南區","LI":"松安里","LIN":"13鄰","STREET":"灣裡路","SECT":" ","MAREA":" ","LANE":"２８２巷","ALLEY":" ","HOUSE_NO":"１３２號","E_COORD97":165998.64000000001,"N_COORD97":2536046.8300000001,"ADDRESS":"灣裡路２８２巷１３２號","OBJECTID":263182},"geometry":{"x":165998.6400000006,"y":2536046.8300000001}},{"attributes":{"ID":263187,"DIS_CODE":0,"TOWNNAME":"南區","LI":"松安里","LIN":"13鄰","STREET":"灣裡路","SECT":" ","MAREA":" ","LANE":"２８２巷","ALLEY":" ","HOUSE_NO":"１３４號","E_COORD97":166003.79999999999,"N_COORD97":2536041.3599999999,"ADDRESS":"灣裡路２８２巷１３４號","OBJECTID":263183},"geometry":{"x":166003.79999999888,"y":2536041.3600000013}},{"attributes":{"ID":263188,"DIS_CODE":0,"TOWNNAME":"南區","LI":"松安里","LIN":"13鄰","STREET":"灣裡路","SECT":" ","MAREA":" ","LANE":"４４０巷","ALLEY":" ","HOUSE_NO":"４６號","E_COORD97":166051.39999999999,"N_COORD97":2536082.2200000002,"ADDRESS":"灣裡路４４０巷４６號","OBJECTID":263184},"geometry":{"x":166051.40000000224,"y":2536082.2200000007}},{"attributes":{"ID":263189,"DIS_CODE":0,"TOWNNAME":"南區","LI":"松安里","LIN":"13鄰","STREET":"灣裡路","SECT":" ","MAREA":" ","LANE":"４４０巷","ALLEY":" ","HOUSE_NO":"４８號","E_COORD97":166044.23000000001,"N_COORD97":2536090.8100000001,"ADDRESS":"灣裡路４４０巷４８號","OBJECTID":263185},"geometry":{"x":166044.23000000138,"y":2536090.8100000024}},{"attributes":{"ID":263190,"DIS_CODE":0,"TOWNNAME":"南區","LI":"松安里","LIN":"13鄰","STREET":"灣裡路","SECT":" ","MAREA":" ","LANE":"４４０巷","ALLEY":" ","HOUSE_NO":"５０號","E_COORD97":166029.37,"N_COORD97":2536080.1000000001,"ADDRESS":"灣裡路４４０巷５０號","OBJECTID":263186},"geometry":{"x":166029.37000000104,"y":2536080.1000000015}},{"attributes":{"ID":263191,"DIS_CODE":0,"TOWNNAME":"南區","LI":"松安里","LIN":"13鄰","STREET":"灣裡路","SECT":" ","MAREA":" ","LANE":"４４８巷","ALLEY":" ","HOUSE_NO":"１４號","E_COORD97":166078.59,"N_COORD97":2536053.9199999999,"ADDRESS":"灣裡路４４８巷１４號","OBJECTID":263187},"geometry":{"x":166078.59000000078,"y":2536053.9200000037}},{"attributes":{"ID":263192,"DIS_CODE":0,"TOWNNAME":"南區","LI":"松安里","LIN":"13鄰","STREET":"灣裡路","SECT":" ","MAREA":" ","LANE":"４４８巷","ALLEY":" ","HOUSE_NO":"１５號","E_COORD97":166069.37,"N_COORD97":2536051.0800000001,"ADDRESS":"灣裡路４４８巷１５號","OBJECTID":263188},"geometry":{"x":166069.37000000011,"y":2536051.0800000019}},{"attributes":{"ID":263193,"DIS_CODE":0,"TOWNNAME":"新營區","LI":"埤寮里","LIN":"13鄰","STREET":"中正路","SECT":" ","MAREA":" ","LANE":"４３９巷","ALLEY":" ","HOUSE_NO":"２之１號","E_COORD97":179912.45000000001,"N_COORD97":2580359.5,"ADDRESS":"中正路４３９巷２之１號","OBJECTID":263189},"geometry":{"x":179912.45000000205,"y":2580359.5000000019}},{"attributes":{"ID":263194,"DIS_CODE":0,"TOWNNAME":"新營區","LI":"南紙里","LIN":"13鄰","STREET":"太子路","SECT":" ","MAREA":" ","LANE":"２３８巷","ALLEY":" ","HOUSE_NO":"５７號","E_COORD97":177761.98999999999,"N_COORD97":2577973.25,"ADDRESS":"太子路２３８巷５７號","OBJECTID":263190},"geometry":{"x":177761.99000000022,"y":2577973.25}},{"attributes":{"ID":263195,"DIS_CODE":0,"TOWNNAME":"新營區","LI":"忠政里","LIN":"13鄰","STREET":"中正路","SECT":" ","MAREA":" ","LANE":"１０７巷","ALLEY":" ","HOUSE_NO":"６４號","E_COORD97":179850.67999999999,"N_COORD97":2579686.4100000001,"ADDRESS":"中正路１０７巷６４號","OBJECTID":263191},"geometry":{"x":179850.6799999997,"y":2579686.410000002}},{"attributes":{"ID":263196,"DIS_CODE":0,"TOWNNAME":"新營區","LI":"忠政里","LIN":"13鄰","STREET":"中正路","SECT":" ","MAREA":" ","LANE":"１０７巷","ALLEY":" ","HOUSE_NO":"４８號","E_COORD97":179905.98999999999,"N_COORD97":2579690.5800000001,"ADDRESS":"中正路１０７巷４８號","OBJECTID":263192},"geometry":{"x":179905.99000000115,"y":2579690.5800000038}},{"attributes":{"ID":263197,"DIS_CODE":0,"TOWNNAME":"新營區","LI":"忠政里","LIN":"13鄰","STREET":"中正路","SECT":" ","MAREA":" ","LANE":"１１５巷","ALLEY":" ","HOUSE_NO":"２３號","E_COORD97":179951.89000000001,"N_COORD97":2579667.1099999999,"ADDRESS":"中正路１１５巷２３號","OBJECTID":263193},"geometry":{"x":179951.8900000006,"y":2579667.1100000013}},{"attributes":{"ID":263198,"DIS_CODE":0,"TOWNNAME":"新營區","LI":"南紙里","LIN":"13鄰","STREET":"太子路","SECT":" ","MAREA":" ","LANE":"２３８巷","ALLEY":" ","HOUSE_NO":"６３號","E_COORD97":177757.95000000001,"N_COORD97":2577985.4500000002,"ADDRESS":"太子路２３８巷６３號","OBJECTID":263194},"geometry":{"x":177757.95000000112,"y":2577985.450000003}},{"attributes":{"ID":263199,"DIS_CODE":0,"TOWNNAME":"關廟區","LI":"山西里","LIN":"13鄰","STREET":"文衡路","SECT":" ","MAREA":" ","LANE":"１３３巷","ALLEY":" ","HOUSE_NO":"２２號","E_COORD97":180850.63,"N_COORD97":2540578.0099999998,"ADDRESS":"文衡路１３３巷２２號","OBJECTID":263195},"geometry":{"x":180850.63000000082,"y":2540578.0099999998}},{"attributes":{"ID":263200,"DIS_CODE":0,"TOWNNAME":"關廟區","LI":"深坑里","LIN":"13鄰","STREET":"南雄路","SECT":"一段","MAREA":" ","LANE":"９８巷","ALLEY":" ","HOUSE_NO":"２０６號","E_COORD97":182997.42000000001,"N_COORD97":2537057.2999999998,"ADDRESS":"南雄路一段９８巷２０６號","OBJECTID":263196},"geometry":{"x":182997.41999999899,"y":2537057.3000000026}},{"attributes":{"ID":263201,"DIS_CODE":0,"TOWNNAME":"歸仁區","LI":"西埔里","LIN":"15鄰","STREET":"保吉路","SECT":" ","MAREA":" ","LANE":" ","ALLEY":" ","HOUSE_NO":"４１１號","E_COORD97":176723.38866,"N_COORD97":2545216.43089,"ADDRESS":"保吉路４１１號","OBJECTID":263197},"geometry":{"x":176723.38865999877,"y":2545216.4308909997}},{"attributes":{"ID":263202,"DIS_CODE":0,"TOWNNAME":"關廟區","LI":"五甲里","LIN":"13鄰","STREET":"光復街","SECT":" ","MAREA":" ","LANE":"６３巷","ALLEY":" ","HOUSE_NO":"１０號","E_COORD97":181472.64000000001,"N_COORD97":2539302.2799999998,"ADDRESS":"光復街６３巷１０號","OBJECTID":263198},"geometry":{"x":181472.63999999966,"y":2539302.2800000031}},{"attributes":{"ID":263203,"DIS_CODE":0,"TOWNNAME":"關廟區","LI":"五甲里","LIN":"13鄰","STREET":"光復街","SECT":" ","MAREA":" ","LANE":"６３巷","ALLEY":" ","HOUSE_NO":"３８號","E_COORD97":181425.04000000001,"N_COORD97":2539321.2799999998,"ADDRESS":"光復街６３巷３８號","OBJECTID":263199},"geometry":{"x":181425.04000000004,"y":2539321.2799999993}},{"attributes":{"ID":263204,"DIS_CODE":0,"TOWNNAME":"關廟區","LI":"五甲里","LIN":"13鄰","STREET":"光復街","SECT":" ","MAREA":" ","LANE":"９１巷","ALLEY":" ","HOUSE_NO":"３８號","E_COORD97":181446.14000000001,"N_COORD97":2539374.2799999998,"ADDRESS":"光復街９１巷３８號","OBJECTID":263200},"geometry":{"x":181446.13999999966,"y":2539374.2800000012}}]}