{"displayFieldName":"TOWNNAME","fieldAliases":{"ID":"ID","DIS_CODE":"DIS_CODE","TOWNNAME":"TOWNNAME","LI":"LI","LIN":"LIN","STREET":"STREET","SECT":"SECT","MAREA":"MAREA","LANE":"LANE","ALLEY":"ALLEY","HOUSE_NO":"HOUSE_NO","E_COORD97":"E_COORD97","N_COORD97":"N_COORD97","ADDRESS":"ADDRESS","OBJECTID":"OBJECTID"},"geometryType":"esriGeometryPoint","spatialReference":{"wkid":102443,"latestWkid":3826},"fields":[{"name":"ID","type":"esriFieldTypeDouble","alias":"ID"},{"name":"DIS_CODE","type":"esriFieldTypeInteger","alias":"DIS_CODE"},{"name":"TOWNNAME","type":"esriFieldTypeString","alias":"TOWNNAME","length":8},{"name":"LI","type":"esriFieldTypeString","alias":"LI","length":8},{"name":"LIN","type":"esriFieldTypeString","alias":"LIN","length":12},{"name":"STREET","type":"esriFieldTypeString","alias":"STREET","length":20},{"name":"SECT","type":"esriFieldTypeString","alias":"SECT","length":8},{"name":"MAREA","type":"esriFieldTypeString","alias":"MAREA","length":12},{"name":"LANE","type":"esriFieldTypeString","alias":"LANE","length":10},{"name":"ALLEY","type":"esriFieldTypeString","alias":"ALLEY","length":10},{"name":"HOUSE_NO","type":"esriFieldTypeString","alias":"HOUSE_NO","length":20},{"name":"E_COORD97","type":"esriFieldTypeDouble","alias":"E_COORD97"},{"name":"N_COORD97","type":"esriFieldTypeDouble","alias":"N_COORD97"},{"name":"ADDRESS","type":"esriFieldTypeString","alias":"ADDRESS","length":50},{"name":"OBJECTID","type":"esriFieldTypeOID","alias":"OBJECTID"}],"features":[{"attributes":{"ID":609628,"DIS_CODE":0,"TOWNNAME":"白河區","LI":"白河里","LIN":"3鄰","STREET":"十全街","SECT":" ","MAREA":" ","LANE":" ","ALLEY":" ","HOUSE_NO":"１４號","E_COORD97":190297.75,"N_COORD97":2582707.48,"ADDRESS":"十全街１４號","OBJECTID":609601},"geometry":{"x":190297.75,"y":2582707.4800000004}},{"attributes":{"ID":609629,"DIS_CODE":0,"TOWNNAME":"白河區","LI":"白河里","LIN":"3鄰","STREET":"十全街","SECT":" ","MAREA":" ","LANE":" ","ALLEY":" ","HOUSE_NO":"１６號","E_COORD97":190296.62,"N_COORD97":2582703.6800000002,"ADDRESS":"十全街１６號","OBJECTID":609602},"geometry":{"x":190296.62000000104,"y":2582703.6800000034}},{"attributes":{"ID":609630,"DIS_CODE":0,"TOWNNAME":"白河區","LI":"白河里","LIN":"3鄰","STREET":"十全街","SECT":" ","MAREA":" ","LANE":" ","ALLEY":" ","HOUSE_NO":"１７號","E_COORD97":190314.13,"N_COORD97":2582698.9700000002,"ADDRESS":"十全街１７號","OBJECTID":609603},"geometry":{"x":190314.13000000175,"y":2582698.9699999988}},{"attributes":{"ID":609631,"DIS_CODE":0,"TOWNNAME":"白河區","LI":"白河里","LIN":"3鄰","STREET":"十全街","SECT":" ","MAREA":" ","LANE":" ","ALLEY":" ","HOUSE_NO":"１８號","E_COORD97":190295.26000000001,"N_COORD97":2582699.3799999999,"ADDRESS":"十全街１８號","OBJECTID":609604},"geometry":{"x":190295.26000000071,"y":2582699.3800000008}},{"attributes":{"ID":609632,"DIS_CODE":0,"TOWNNAME":"白河區","LI":"白河里","LIN":"3鄰","STREET":"十全街","SECT":" ","MAREA":" ","LANE":" ","ALLEY":" ","HOUSE_NO":"１９號","E_COORD97":190313.67000000001,"N_COORD97":2582694.9399999999,"ADDRESS":"十全街１９號","OBJECTID":609605},"geometry":{"x":190313.66999999993,"y":2582694.9400000032}},{"attributes":{"ID":609633,"DIS_CODE":0,"TOWNNAME":"白河區","LI":"白河里","LIN":"3鄰","STREET":"十全街","SECT":" ","MAREA":" ","LANE":" ","ALLEY":" ","HOUSE_NO":"１之４號","E_COORD97":190335.03,"N_COORD97":2582699.8900000001,"ADDRESS":"十全街１之４號","OBJECTID":609606},"geometry":{"x":190335.03000000026,"y":2582699.8900000043}},{"attributes":{"ID":609634,"DIS_CODE":0,"TOWNNAME":"白河區","LI":"白河里","LIN":"3鄰","STREET":"十全街","SECT":" ","MAREA":" ","LANE":" ","ALLEY":" ","HOUSE_NO":"１之５號","E_COORD97":190334.84,"N_COORD97":2582695.96,"ADDRESS":"十全街１之５號","OBJECTID":609607},"geometry":{"x":190334.84000000171,"y":2582695.959999999}},{"attributes":{"ID":609635,"DIS_CODE":0,"TOWNNAME":"白河區","LI":"白河里","LIN":"3鄰","STREET":"十全街","SECT":" ","MAREA":" ","LANE":" ","ALLEY":" ","HOUSE_NO":"１之６號","E_COORD97":190334.92000000001,"N_COORD97":2582691.75,"ADDRESS":"十全街１之６號","OBJECTID":609608},"geometry":{"x":190334.92000000086,"y":2582691.75}},{"attributes":{"ID":609636,"DIS_CODE":0,"TOWNNAME":"白河區","LI":"白河里","LIN":"3鄰","STREET":"十全街","SECT":" ","MAREA":" ","LANE":" ","ALLEY":" ","HOUSE_NO":"１之７號","E_COORD97":190335.01999999999,"N_COORD97":2582687.9199999999,"ADDRESS":"十全街１之７號","OBJECTID":609609},"geometry":{"x":190335.02000000142,"y":2582687.9199999999}},{"attributes":{"ID":609637,"DIS_CODE":0,"TOWNNAME":"白河區","LI":"白河里","LIN":"3鄰","STREET":"十全街","SECT":" ","MAREA":" ","LANE":" ","ALLEY":" ","HOUSE_NO":"１之８號","E_COORD97":190334.92000000001,"N_COORD97":2582683.5800000001,"ADDRESS":"十全街１之８號","OBJECTID":609610},"geometry":{"x":190334.92000000086,"y":2582683.5800000001}},{"attributes":{"ID":609638,"DIS_CODE":0,"TOWNNAME":"白河區","LI":"白河里","LIN":"3鄰","STREET":"十全街","SECT":" ","MAREA":" ","LANE":" ","ALLEY":" ","HOUSE_NO":"２０號","E_COORD97":190294.26000000001,"N_COORD97":2582691.7000000002,"ADDRESS":"十全街２０號","OBJECTID":609611},"geometry":{"x":190294.25999999978,"y":2582691.6999999993}},{"attributes":{"ID":609639,"DIS_CODE":0,"TOWNNAME":"白河區","LI":"白河里","LIN":"3鄰","STREET":"十全街","SECT":" ","MAREA":" ","LANE":" ","ALLEY":" ","HOUSE_NO":"２１號","E_COORD97":190312.67999999999,"N_COORD97":2582690.6200000001,"ADDRESS":"十全街２１號","OBJECTID":609612},"geometry":{"x":190312.68000000063,"y":2582690.620000001}},{"attributes":{"ID":609640,"DIS_CODE":0,"TOWNNAME":"白河區","LI":"白河里","LIN":"3鄰","STREET":"十全街","SECT":" ","MAREA":" ","LANE":" ","ALLEY":" ","HOUSE_NO":"２３號","E_COORD97":190311.95999999999,"N_COORD97":2582686.7400000002,"ADDRESS":"十全街２３號","OBJECTID":609613},"geometry":{"x":190311.96000000183,"y":2582686.7400000039}},{"attributes":{"ID":609641,"DIS_CODE":0,"TOWNNAME":"白河區","LI":"白河里","LIN":"3鄰","STREET":"十全街","SECT":" ","MAREA":" ","LANE":" ","ALLEY":" ","HOUSE_NO":"２９號","E_COORD97":190296.03,"N_COORD97":2582671.23,"ADDRESS":"十全街２９號","OBJECTID":609614},"geometry":{"x":190296.03000000026,"y":2582671.2300000023}},{"attributes":{"ID":609642,"DIS_CODE":0,"TOWNNAME":"白河區","LI":"白河里","LIN":"3鄰","STREET":"十全街","SECT":" ","MAREA":" ","LANE":" ","ALLEY":" ","HOUSE_NO":"３１號","E_COORD97":190290.85999999999,"N_COORD97":2582672.5499999998,"ADDRESS":"十全街３１號","OBJECTID":609615},"geometry":{"x":190290.86000000034,"y":2582672.5500000026}},{"attributes":{"ID":609643,"DIS_CODE":0,"TOWNNAME":"白河區","LI":"白河里","LIN":"3鄰","STREET":"十全街","SECT":" ","MAREA":" ","LANE":" ","ALLEY":" ","HOUSE_NO":"３３號","E_COORD97":190285.20999999999,"N_COORD97":2582673.8799999999,"ADDRESS":"十全街３３號","OBJECTID":609616},"geometry":{"x":190285.21000000089,"y":2582673.879999999}},{"attributes":{"ID":609644,"DIS_CODE":0,"TOWNNAME":"白河區","LI":"白河里","LIN":"3鄰","STREET":"十全街","SECT":" ","MAREA":" ","LANE":" ","ALLEY":" ","HOUSE_NO":"３５號","E_COORD97":190279.42000000001,"N_COORD97":2582675.27,"ADDRESS":"十全街３５號","OBJECTID":609617},"geometry":{"x":190279.41999999993,"y":2582675.2699999996}},{"attributes":{"ID":609645,"DIS_CODE":0,"TOWNNAME":"白河區","LI":"白河里","LIN":"3鄰","STREET":"十全街","SECT":" ","MAREA":" ","LANE":" ","ALLEY":" ","HOUSE_NO":"３９號","E_COORD97":190268.10999999999,"N_COORD97":2582677.3300000001,"ADDRESS":"十全街３９號","OBJECTID":609618},"geometry":{"x":190268.11000000127,"y":2582677.3300000019}},{"attributes":{"ID":609646,"DIS_CODE":0,"TOWNNAME":"白河區","LI":"白河里","LIN":"3鄰","STREET":"十全街","SECT":" ","MAREA":" ","LANE":" ","ALLEY":" ","HOUSE_NO":"４１號","E_COORD97":190263.06,"N_COORD97":2582678.2000000002,"ADDRESS":"十全街４１號","OBJECTID":609619},"geometry":{"x":190263.05999999959,"y":2582678.1999999993}},{"attributes":{"ID":609647,"DIS_CODE":0,"TOWNNAME":"白河區","LI":"白河里","LIN":"3鄰","STREET":"十全街","SECT":" ","MAREA":" ","LANE":" ","ALLEY":" ","HOUSE_NO":"４３號","E_COORD97":190252.22,"N_COORD97":2582672.96,"ADDRESS":"十全街４３號","OBJECTID":609620},"geometry":{"x":190252.21999999974,"y":2582672.9600000028}},{"attributes":{"ID":609648,"DIS_CODE":0,"TOWNNAME":"白河區","LI":"白河里","LIN":"3鄰","STREET":"十全街","SECT":" ","MAREA":" ","LANE":" ","ALLEY":" ","HOUSE_NO":"４５號","E_COORD97":190245.42000000001,"N_COORD97":2582674.6099999999,"ADDRESS":"十全街４５號","OBJECTID":609621},"geometry":{"x":190245.41999999993,"y":2582674.6100000013}},{"attributes":{"ID":609649,"DIS_CODE":0,"TOWNNAME":"白河區","LI":"白河里","LIN":"3鄰","STREET":"十全街","SECT":" ","MAREA":" ","LANE":" ","ALLEY":" ","HOUSE_NO":"４７號","E_COORD97":190255,"N_COORD97":2582656.75,"ADDRESS":"十全街４７號","OBJECTID":609622},"geometry":{"x":190255.00000000093,"y":2582656.7500000019}},{"attributes":{"ID":609650,"DIS_CODE":0,"TOWNNAME":"白河區","LI":"白河里","LIN":"3鄰","STREET":"十全街","SECT":" ","MAREA":" ","LANE":" ","ALLEY":" ","HOUSE_NO":"４９號","E_COORD97":190249.06,"N_COORD97":2582657.1299999999,"ADDRESS":"十全街４９號","OBJECTID":609623},"geometry":{"x":190249.06000000052,"y":2582657.1300000008}},{"attributes":{"ID":609651,"DIS_CODE":0,"TOWNNAME":"白河區","LI":"白河里","LIN":"3鄰","STREET":"十全街","SECT":" ","MAREA":" ","LANE":" ","ALLEY":" ","HOUSE_NO":"５１號","E_COORD97":190243.44,"N_COORD97":2582657.7000000002,"ADDRESS":"十全街５１號","OBJECTID":609624},"geometry":{"x":190243.44000000134,"y":2582657.6999999993}},{"attributes":{"ID":609652,"DIS_CODE":0,"TOWNNAME":"白河區","LI":"白河里","LIN":"3鄰","STREET":"十全街","SECT":" ","MAREA":" ","LANE":" ","ALLEY":" ","HOUSE_NO":"５３號","E_COORD97":190236.97,"N_COORD97":2582658.2999999998,"ADDRESS":"十全街５３號","OBJECTID":609625},"geometry":{"x":190236.96999999974,"y":2582658.3000000007}},{"attributes":{"ID":609653,"DIS_CODE":0,"TOWNNAME":"白河區","LI":"白河里","LIN":"3鄰","STREET":"十全街","SECT":" ","MAREA":" ","LANE":" ","ALLEY":" ","HOUSE_NO":"８５號","E_COORD97":190203.62,"N_COORD97":2582694.1699999999,"ADDRESS":"十全街８５號","OBJECTID":609626},"geometry":{"x":190203.62000000011,"y":2582694.1700000018}},{"attributes":{"ID":609654,"DIS_CODE":0,"TOWNNAME":"白河區","LI":"白河里","LIN":"3鄰","STREET":"十全街","SECT":" ","MAREA":" ","LANE":" ","ALLEY":" ","HOUSE_NO":"８６號","E_COORD97":190186.53,"N_COORD97":2582715.4900000002,"ADDRESS":"十全街８６號","OBJECTID":609627},"geometry":{"x":190186.53000000212,"y":2582715.4900000039}},{"attributes":{"ID":609655,"DIS_CODE":0,"TOWNNAME":"白河區","LI":"白河里","LIN":"3鄰","STREET":"十全街","SECT":" ","MAREA":" ","LANE":" ","ALLEY":" ","HOUSE_NO":"８７號","E_COORD97":190191.59,"N_COORD97":2582694.8399999999,"ADDRESS":"十全街８７號","OBJECTID":609628},"geometry":{"x":190191.58999999985,"y":2582694.8399999999}},{"attributes":{"ID":609656,"DIS_CODE":0,"TOWNNAME":"白河區","LI":"白河里","LIN":"3鄰","STREET":"十全街","SECT":" ","MAREA":" ","LANE":" ","ALLEY":" ","HOUSE_NO":"８８號","E_COORD97":190191.04000000001,"N_COORD97":2582714.9500000002,"ADDRESS":"十全街８８號","OBJECTID":609629},"geometry":{"x":190191.04000000004,"y":2582714.950000003}},{"attributes":{"ID":609657,"DIS_CODE":0,"TOWNNAME":"白河區","LI":"白河里","LIN":"3鄰","STREET":"十全街","SECT":" ","MAREA":" ","LANE":" ","ALLEY":" ","HOUSE_NO":"８９號","E_COORD97":190185.85999999999,"N_COORD97":2582695.5600000001,"ADDRESS":"十全街８９號","OBJECTID":609630},"geometry":{"x":190185.8599999994,"y":2582695.5600000024}},{"attributes":{"ID":609658,"DIS_CODE":0,"TOWNNAME":"白河區","LI":"白河里","LIN":"3鄰","STREET":"十全街","SECT":" ","MAREA":" ","LANE":" ","ALLEY":" ","HOUSE_NO":"９０號","E_COORD97":190195.59,"N_COORD97":2582713.6800000002,"ADDRESS":"十全街９０號","OBJECTID":609631},"geometry":{"x":190195.58999999985,"y":2582713.6800000034}},{"attributes":{"ID":609659,"DIS_CODE":0,"TOWNNAME":"白河區","LI":"秀祐里","LIN":"3鄰","STREET":"三民路","SECT":" ","MAREA":" ","LANE":" ","ALLEY":" ","HOUSE_NO":"９２６之３號","E_COORD97":188334.42000000001,"N_COORD97":2584184.9900000002,"ADDRESS":"三民路９２６之３號","OBJECTID":609632},"geometry":{"x":188334.42000000086,"y":2584184.9900000021}},{"attributes":{"ID":609660,"DIS_CODE":0,"TOWNNAME":"白河區","LI":"秀祐里","LIN":"3鄰","STREET":"三民路","SECT":" ","MAREA":" ","LANE":" ","ALLEY":" ","HOUSE_NO":"９２６號","E_COORD97":188087.41,"N_COORD97":2584121.2200000002,"ADDRESS":"三民路９２６號","OBJECTID":609633},"geometry":{"x":188087.41000000108,"y":2584121.2199999988}},{"attributes":{"ID":609661,"DIS_CODE":0,"TOWNNAME":"永康區","LI":"\u25A0洲里","LIN":"3鄰","STREET":"\u25A0洲二街","SECT":" ","MAREA":" ","LANE":" ","ALLEY":" ","HOUSE_NO":"１１６號","E_COORD97":171599.64000000001,"N_COORD97":2549267.7599999998,"ADDRESS":"\u25A0洲二街１１６號","OBJECTID":609634},"geometry":{"x":171599.6400000006,"y":2549267.7600000016}},{"attributes":{"ID":609662,"DIS_CODE":0,"TOWNNAME":"永康區","LI":"\u25A0洲里","LIN":"3鄰","STREET":"\u25A0洲二街","SECT":" ","MAREA":" ","LANE":" ","ALLEY":" ","HOUSE_NO":"２００號","E_COORD97":171745.31,"N_COORD97":2549405.5,"ADDRESS":"\u25A0洲二街２００號","OBJECTID":609635},"geometry":{"x":171745.31000000145,"y":2549405.5000000019}},{"attributes":{"ID":609663,"DIS_CODE":0,"TOWNNAME":"永康區","LI":"\u25A0洲里","LIN":"3鄰","STREET":"\u25A0洲二街","SECT":" ","MAREA":" ","LANE":" ","ALLEY":" ","HOUSE_NO":"１０８號","E_COORD97":171590.48999999999,"N_COORD97":2549258.5099999998,"ADDRESS":"\u25A0洲二街１０８號","OBJECTID":609636},"geometry":{"x":171590.49000000209,"y":2549258.5099999979}},{"attributes":{"ID":609664,"DIS_CODE":0,"TOWNNAME":"永康區","LI":"\u25A0洲里","LIN":"3鄰","STREET":"\u25A0行路","SECT":" ","MAREA":" ","LANE":" ","ALLEY":" ","HOUSE_NO":"３２號","E_COORD97":171682.57000000001,"N_COORD97":2549180.3900000001,"ADDRESS":"\u25A0行路３２號","OBJECTID":609637},"geometry":{"x":171682.5700000003,"y":2549180.3900000025}},{"attributes":{"ID":609665,"DIS_CODE":0,"TOWNNAME":"永康區","LI":"\u25A0洲里","LIN":"3鄰","STREET":"\u25A0行路","SECT":" ","MAREA":" ","LANE":" ","ALLEY":" ","HOUSE_NO":"４０號","E_COORD97":171666.48999999999,"N_COORD97":2549190.1400000001,"ADDRESS":"\u25A0行路４０號","OBJECTID":609638},"geometry":{"x":171666.49000000022,"y":2549190.1400000006}},{"attributes":{"ID":609666,"DIS_CODE":0,"TOWNNAME":"永康區","LI":"\u25A0洲里","LIN":"3鄰","STREET":"\u25A0行路","SECT":" ","MAREA":" ","LANE":" ","ALLEY":" ","HOUSE_NO":"３０號","E_COORD97":171686.38,"N_COORD97":2549177.8900000001,"ADDRESS":"\u25A0行路３０號","OBJECTID":609639},"geometry":{"x":171686.38000000082,"y":2549177.8900000006}},{"attributes":{"ID":609667,"DIS_CODE":0,"TOWNNAME":"永康區","LI":"\u25A0洲里","LIN":"3鄰","STREET":"\u25A0行路","SECT":" ","MAREA":" ","LANE":" ","ALLEY":" ","HOUSE_NO":"４４號","E_COORD97":171659.51999999999,"N_COORD97":2549194.3900000001,"ADDRESS":"\u25A0行路４４號","OBJECTID":609640},"geometry":{"x":171659.52000000048,"y":2549194.3900000006}},{"attributes":{"ID":609668,"DIS_CODE":0,"TOWNNAME":"永康區","LI":"\u25A0洲里","LIN":"3鄰","STREET":"\u25A0洲二街","SECT":" ","MAREA":" ","LANE":" ","ALLEY":" ","HOUSE_NO":"１９８號","E_COORD97":171741.28,"N_COORD97":2549402.29,"ADDRESS":"\u25A0洲二街１９８號","OBJECTID":609641},"geometry":{"x":171741.28000000119,"y":2549402.290000001}},{"attributes":{"ID":609669,"DIS_CODE":0,"TOWNNAME":"永康區","LI":"\u25A0洲里","LIN":"3鄰","STREET":"\u25A0行路","SECT":" ","MAREA":" ","LANE":" ","ALLEY":" ","HOUSE_NO":"６４號","E_COORD97":171613.59,"N_COORD97":2549233.48,"ADDRESS":"\u25A0行路６４號","OBJECTID":609642},"geometry":{"x":171613.59000000078,"y":2549233.4800000023}},{"attributes":{"ID":609670,"DIS_CODE":0,"TOWNNAME":"永康區","LI":"\u25A0洲里","LIN":"3鄰","STREET":"\u25A0洲二街","SECT":" ","MAREA":" ","LANE":" ","ALLEY":" ","HOUSE_NO":"２０６之２號","E_COORD97":171761.78,"N_COORD97":2549417.6400000001,"ADDRESS":"\u25A0洲二街２０６之２號","OBJECTID":609643},"geometry":{"x":171761.78000000119,"y":2549417.6400000006}},{"attributes":{"ID":609671,"DIS_CODE":0,"TOWNNAME":"永康區","LI":"\u25A0洲里","LIN":"3鄰","STREET":"\u25A0洲二街","SECT":" ","MAREA":" ","LANE":" ","ALLEY":" ","HOUSE_NO":"２１０之１號","E_COORD97":171780.25,"N_COORD97":2549433.1400000001,"ADDRESS":"\u25A0洲二街２１０之１號","OBJECTID":609644},"geometry":{"x":171780.25000000093,"y":2549433.1400000025}},{"attributes":{"ID":609672,"DIS_CODE":0,"TOWNNAME":"永康區","LI":"\u25A0洲里","LIN":"3鄰","STREET":"\u25A0行路","SECT":" ","MAREA":" ","LANE":" ","ALLEY":" ","HOUSE_NO":"６６號","E_COORD97":171608.03,"N_COORD97":2549229.23,"ADDRESS":"\u25A0行路６６號","OBJECTID":609645},"geometry":{"x":171608.03000000026,"y":2549229.2300000004}},{"attributes":{"ID":609673,"DIS_CODE":0,"TOWNNAME":"永康區","LI":"\u25A0洲里","LIN":"3鄰","STREET":"\u25A0洲二街","SECT":" ","MAREA":" ","LANE":" ","ALLEY":" ","HOUSE_NO":"２１０之７號","E_COORD97":171784.53,"N_COORD97":2549437.3900000001,"ADDRESS":"\u25A0洲二街２１０之７號","OBJECTID":609646},"geometry":{"x":171784.53000000026,"y":2549437.3900000025}},{"attributes":{"ID":609674,"DIS_CODE":0,"TOWNNAME":"永康區","LI":"\u25A0洲里","LIN":"3鄰","STREET":"\u25A0洲二街","SECT":" ","MAREA":" ","LANE":" ","ALLEY":" ","HOUSE_NO":"１９６號","E_COORD97":171737.51999999999,"N_COORD97":2549398.54,"ADDRESS":"\u25A0洲二街１９６號","OBJECTID":609647},"geometry":{"x":171737.52000000048,"y":2549398.5399999991}},{"attributes":{"ID":609675,"DIS_CODE":0,"TOWNNAME":"永康區","LI":"\u25A0洲里","LIN":"3鄰","STREET":"\u25A0行路","SECT":" ","MAREA":" ","LANE":" ","ALLEY":" ","HOUSE_NO":"５４號","E_COORD97":171637.28,"N_COORD97":2549209.3999999999,"ADDRESS":"\u25A0行路５４號","OBJECTID":609648},"geometry":{"x":171637.28000000026,"y":2549209.4000000041}},{"attributes":{"ID":609676,"DIS_CODE":0,"TOWNNAME":"永康區","LI":"\u25A0洲里","LIN":"3鄰","STREET":"\u25A0行路","SECT":" ","MAREA":" ","LANE":" ","ALLEY":" ","HOUSE_NO":"６２號","E_COORD97":171617.22,"N_COORD97":2549232.23,"ADDRESS":"\u25A0行路６２號","OBJECTID":609649},"geometry":{"x":171617.2200000016,"y":2549232.2300000023}},{"attributes":{"ID":609677,"DIS_CODE":0,"TOWNNAME":"永康區","LI":"\u25A0洲里","LIN":"3鄰","STREET":"\u25A0行路","SECT":" ","MAREA":" ","LANE":" ","ALLEY":" ","HOUSE_NO":"５６號","E_COORD97":171632.42999999999,"N_COORD97":2549221.8999999999,"ADDRESS":"\u25A0行路５６號","OBJECTID":609650},"geometry":{"x":171632.4299999997,"y":2549221.9000000004}},{"attributes":{"ID":609678,"DIS_CODE":0,"TOWNNAME":"永康區","LI":"\u25A0洲里","LIN":"3鄰","STREET":"\u25A0行路","SECT":" ","MAREA":" ","LANE":" ","ALLEY":" ","HOUSE_NO":"４８號","E_COORD97":171650.84,"N_COORD97":2549200.8900000001,"ADDRESS":"\u25A0行路４８號","OBJECTID":609651},"geometry":{"x":171650.84000000078,"y":2549200.8900000025}},{"attributes":{"ID":609679,"DIS_CODE":0,"TOWNNAME":"永康區","LI":"\u25A0洲里","LIN":"3鄰","STREET":"\u25A0行路","SECT":" ","MAREA":" ","LANE":" ","ALLEY":" ","HOUSE_NO":"７２號","E_COORD97":171597.78,"N_COORD97":2549235.98,"ADDRESS":"\u25A0行路７２號","OBJECTID":609652},"geometry":{"x":171597.78000000119,"y":2549235.9800000042}},{"attributes":{"ID":609680,"DIS_CODE":0,"TOWNNAME":"永康區","LI":"\u25A0洲里","LIN":"3鄰","STREET":"\u25A0行路","SECT":" ","MAREA":" ","LANE":" ","ALLEY":" ","HOUSE_NO":"３８號","E_COORD97":171671.76999999999,"N_COORD97":2549186.8900000001,"ADDRESS":"\u25A0行路３８號","OBJECTID":609653},"geometry":{"x":171671.76999999955,"y":2549186.8900000025}},{"attributes":{"ID":609681,"DIS_CODE":0,"TOWNNAME":"永康區","LI":"\u25A0洲里","LIN":"3鄰","STREET":"\u25A0行路","SECT":" ","MAREA":" ","LANE":" ","ALLEY":" ","HOUSE_NO":"６８號","E_COORD97":171604.23000000001,"N_COORD97":2549231.73,"ADDRESS":"\u25A0行路６８號","OBJECTID":609654},"geometry":{"x":171604.23000000231,"y":2549231.7300000023}},{"attributes":{"ID":609682,"DIS_CODE":0,"TOWNNAME":"永康區","LI":"三民里","LIN":"3鄰","STREET":"三民街","SECT":" ","MAREA":" ","LANE":" ","ALLEY":" ","HOUSE_NO":"９６號","E_COORD97":172903.20999999999,"N_COORD97":2550324.0299999998,"ADDRESS":"三民街９６號","OBJECTID":609655},"geometry":{"x":172903.21000000089,"y":2550324.0300000012}},{"attributes":{"ID":609683,"DIS_CODE":0,"TOWNNAME":"永康區","LI":"\u25A0洲里","LIN":"3鄰","STREET":"\u25A0洲二街","SECT":" ","MAREA":" ","LANE":" ","ALLEY":" ","HOUSE_NO":"２０８之１號","E_COORD97":171771.45999999999,"N_COORD97":2549425.3900000001,"ADDRESS":"\u25A0洲二街２０８之１號","OBJECTID":609656},"geometry":{"x":171771.45999999996,"y":2549425.3900000006}},{"attributes":{"ID":609684,"DIS_CODE":0,"TOWNNAME":"永康區","LI":"甲頂里","LIN":"3鄰","STREET":"中正南路","SECT":" ","MAREA":" ","LANE":" ","ALLEY":" ","HOUSE_NO":"１６２號","E_COORD97":169769.48999999999,"N_COORD97":2547007.9900000002,"ADDRESS":"中正南路１６２號","OBJECTID":609657},"geometry":{"x":169769.49000000022,"y":2547007.9900000039}},{"attributes":{"ID":609685,"DIS_CODE":0,"TOWNNAME":"永康區","LI":"\u25A0洲里","LIN":"3鄰","STREET":"\u25A0洲二街","SECT":" ","MAREA":" ","LANE":" ","ALLEY":" ","HOUSE_NO":"２０６之５號","E_COORD97":171767.09,"N_COORD97":2549421.6400000001,"ADDRESS":"\u25A0洲二街２０６之５號","OBJECTID":609658},"geometry":{"x":171767.08999999985,"y":2549421.6400000043}},{"attributes":{"ID":609686,"DIS_CODE":0,"TOWNNAME":"永康區","LI":"中華里","LIN":"3鄰","STREET":"小東路","SECT":" ","MAREA":" ","LANE":" ","ALLEY":" ","HOUSE_NO":"６７３號","E_COORD97":172004.56,"N_COORD97":2544341.1699999999,"ADDRESS":"小東路６７３號","OBJECTID":609659},"geometry":{"x":172004.56000000145,"y":2544341.1699999999}},{"attributes":{"ID":609687,"DIS_CODE":0,"TOWNNAME":"安南區","LI":"學東里","LIN":"3鄰","STREET":"公學路","SECT":"七段","MAREA":" ","LANE":" ","ALLEY":" ","HOUSE_NO":"７６號","E_COORD97":161837.94,"N_COORD97":2553402.1899999999,"ADDRESS":"公學路七段７６號","OBJECTID":609660},"geometry":{"x":161837.94000000041,"y":2553402.1899999995}},{"attributes":{"ID":609688,"DIS_CODE":0,"TOWNNAME":"永康區","LI":"\u25A0洲里","LIN":"3鄰","STREET":"\u25A0洲二街","SECT":" ","MAREA":" ","LANE":" ","ALLEY":" ","HOUSE_NO":"２０８之７號","E_COORD97":171775.66,"N_COORD97":2549429.3900000001,"ADDRESS":"\u25A0洲二街２０８之７號","OBJECTID":609661},"geometry":{"x":171775.66000000201,"y":2549429.3900000006}},{"attributes":{"ID":609689,"DIS_CODE":0,"TOWNNAME":"安南區","LI":"學東里","LIN":"3鄰","STREET":"公學路","SECT":"七段","MAREA":" ","LANE":" ","ALLEY":" ","HOUSE_NO":"３０號","E_COORD97":161957.64000000001,"N_COORD97":2553360.1699999999,"ADDRESS":"公學路七段３０號","OBJECTID":609662},"geometry":{"x":161957.63999999966,"y":2553360.1700000037}},{"attributes":{"ID":609690,"DIS_CODE":0,"TOWNNAME":"安南區","LI":"學東里","LIN":"3鄰","STREET":"公學路","SECT":"七段","MAREA":" ","LANE":" ","ALLEY":" ","HOUSE_NO":"３０號之２","E_COORD97":161965.23000000001,"N_COORD97":2553365.8700000001,"ADDRESS":"公學路七段３０號之２","OBJECTID":609663},"geometry":{"x":161965.23000000045,"y":2553365.870000001}},{"attributes":{"ID":609691,"DIS_CODE":0,"TOWNNAME":"安南區","LI":"學東里","LIN":"3鄰","STREET":"公學路","SECT":"七段","MAREA":" ","LANE":" ","ALLEY":" ","HOUSE_NO":"３２號","E_COORD97":161948.75,"N_COORD97":2553361.8100000001,"ADDRESS":"公學路七段３２號","OBJECTID":609664},"geometry":{"x":161948.75,"y":2553361.8100000005}},{"attributes":{"ID":609692,"DIS_CODE":0,"TOWNNAME":"安南區","LI":"學東里","LIN":"3鄰","STREET":"公學路","SECT":"七段","MAREA":" ","LANE":" ","ALLEY":" ","HOUSE_NO":"５０號","E_COORD97":161920.10999999999,"N_COORD97":2553378.5699999998,"ADDRESS":"公學路七段５０號","OBJECTID":609665},"geometry":{"x":161920.11000000034,"y":2553378.5700000022}},{"attributes":{"ID":609693,"DIS_CODE":0,"TOWNNAME":"安南區","LI":"學東里","LIN":"3鄰","STREET":"公學路","SECT":"七段","MAREA":" ","LANE":" ","ALLEY":" ","HOUSE_NO":"５２號","E_COORD97":161921.42000000001,"N_COORD97":2553394.5099999998,"ADDRESS":"公學路七段５２號","OBJECTID":609666},"geometry":{"x":161921.42000000086,"y":2553394.5099999998}},{"attributes":{"ID":609694,"DIS_CODE":0,"TOWNNAME":"安南區","LI":"學東里","LIN":"3鄰","STREET":"公學路","SECT":"七段","MAREA":" ","LANE":" ","ALLEY":" ","HOUSE_NO":"５４號","E_COORD97":161923.45000000001,"N_COORD97":2553426.4300000002,"ADDRESS":"公學路七段５４號","OBJECTID":609667},"geometry":{"x":161923.45000000112,"y":2553426.4300000016}},{"attributes":{"ID":609695,"DIS_CODE":0,"TOWNNAME":"安南區","LI":"學東里","LIN":"3鄰","STREET":"公學路","SECT":"七段","MAREA":" ","LANE":" ","ALLEY":" ","HOUSE_NO":"５８號","E_COORD97":161898.69,"N_COORD97":2553381.4100000001,"ADDRESS":"公學路七段５８號","OBJECTID":609668},"geometry":{"x":161898.69000000134,"y":2553381.4100000001}},{"attributes":{"ID":609696,"DIS_CODE":0,"TOWNNAME":"安南區","LI":"學東里","LIN":"3鄰","STREET":"公學路","SECT":"七段","MAREA":" ","LANE":" ","ALLEY":" ","HOUSE_NO":"６０號","E_COORD97":161884.67999999999,"N_COORD97":2553411.0899999999,"ADDRESS":"公學路七段６０號","OBJECTID":609669},"geometry":{"x":161884.6799999997,"y":2553411.0899999999}},{"attributes":{"ID":609697,"DIS_CODE":0,"TOWNNAME":"安南區","LI":"學東里","LIN":"3鄰","STREET":"公學路","SECT":"七段","MAREA":" ","LANE":" ","ALLEY":" ","HOUSE_NO":"６６號","E_COORD97":161875.94,"N_COORD97":2553409.1800000002,"ADDRESS":"公學路七段６６號","OBJECTID":609670},"geometry":{"x":161875.94000000227,"y":2553409.1799999997}},{"attributes":{"ID":609698,"DIS_CODE":0,"TOWNNAME":"中西區","LI":"民權里","LIN":"12鄰","STREET":"康樂街","SECT":" ","MAREA":" ","LANE":" ","ALLEY":" ","HOUSE_NO":"２２６號","E_COORD97":167604.07000000001,"N_COORD97":2544281.2999999998,"ADDRESS":"康樂街２２６號","OBJECTID":609671},"geometry":{"x":167604.0700000003,"y":2544281.3000000026}},{"attributes":{"ID":609699,"DIS_CODE":0,"TOWNNAME":"中西區","LI":"民權里","LIN":"12鄰","STREET":"康樂街","SECT":" ","MAREA":" ","LANE":" ","ALLEY":" ","HOUSE_NO":"２２８號","E_COORD97":167605.04000000001,"N_COORD97":2544285.5800000001,"ADDRESS":"康樂街２２８號","OBJECTID":609672},"geometry":{"x":167605.04000000097,"y":2544285.5800000019}},{"attributes":{"ID":609700,"DIS_CODE":0,"TOWNNAME":"中西區","LI":"民權里","LIN":"12鄰","STREET":"康樂街","SECT":" ","MAREA":" ","LANE":" ","ALLEY":" ","HOUSE_NO":"２３０號","E_COORD97":167604.69,"N_COORD97":2544289.6899999999,"ADDRESS":"康樂街２３０號","OBJECTID":609673},"geometry":{"x":167604.69000000134,"y":2544289.6899999995}},{"attributes":{"ID":609701,"DIS_CODE":0,"TOWNNAME":"中西區","LI":"民權里","LIN":"12鄰","STREET":"康樂街","SECT":" ","MAREA":" ","LANE":" ","ALLEY":" ","HOUSE_NO":"２３２號","E_COORD97":167611.25,"N_COORD97":2544296.8700000001,"ADDRESS":"康樂街２３２號","OBJECTID":609674},"geometry":{"x":167611.25,"y":2544296.870000001}},{"attributes":{"ID":609702,"DIS_CODE":0,"TOWNNAME":"中西區","LI":"民權里","LIN":"12鄰","STREET":"康樂街","SECT":" ","MAREA":" ","LANE":" ","ALLEY":" ","HOUSE_NO":"２３４號","E_COORD97":167611.17999999999,"N_COORD97":2544300.52,"ADDRESS":"康樂街２３４號","OBJECTID":609675},"geometry":{"x":167611.1799999997,"y":2544300.5199999996}},{"attributes":{"ID":609703,"DIS_CODE":0,"TOWNNAME":"中西區","LI":"民權里","LIN":"12鄰","STREET":"康樂街","SECT":" ","MAREA":" ","LANE":" ","ALLEY":" ","HOUSE_NO":"２３６號","E_COORD97":167613.72,"N_COORD97":2544303.5,"ADDRESS":"康樂街２３６號","OBJECTID":609676},"geometry":{"x":167613.72000000067,"y":2544303.5000000019}},{"attributes":{"ID":609704,"DIS_CODE":0,"TOWNNAME":"中西區","LI":"民權里","LIN":"12鄰","STREET":"康樂街","SECT":" ","MAREA":" ","LANE":" ","ALLEY":" ","HOUSE_NO":"２３８號","E_COORD97":167614.98999999999,"N_COORD97":2544306.9500000002,"ADDRESS":"康樂街２３８號","OBJECTID":609677},"geometry":{"x":167614.99000000022,"y":2544306.9499999993}},{"attributes":{"ID":609705,"DIS_CODE":0,"TOWNNAME":"中西區","LI":"民權里","LIN":"12鄰","STREET":"康樂街","SECT":" ","MAREA":" ","LANE":" ","ALLEY":" ","HOUSE_NO":"３０９號","E_COORD97":167630.07999999999,"N_COORD97":2544300.8399999999,"ADDRESS":"康樂街３０９號","OBJECTID":609678},"geometry":{"x":167630.08000000101,"y":2544300.8400000017}},{"attributes":{"ID":609706,"DIS_CODE":0,"TOWNNAME":"中西區","LI":"民權里","LIN":"12鄰","STREET":"康樂街","SECT":" ","MAREA":" ","LANE":" ","ALLEY":" ","HOUSE_NO":"３１１號","E_COORD97":167587.07000000001,"N_COORD97":2544290.9300000002,"ADDRESS":"康樂街３１１號","OBJECTID":609679},"geometry":{"x":167587.0700000003,"y":2544290.9299999997}},{"attributes":{"ID":609707,"DIS_CODE":0,"TOWNNAME":"中西區","LI":"民權里","LIN":"12鄰","STREET":"康樂街","SECT":" ","MAREA":" ","LANE":" ","ALLEY":" ","HOUSE_NO":"３１３號","E_COORD97":167588.76999999999,"N_COORD97":2544290.3700000001,"ADDRESS":"康樂街３１３號","OBJECTID":609680},"geometry":{"x":167588.76999999862,"y":2544290.370000001}},{"attributes":{"ID":609708,"DIS_CODE":0,"TOWNNAME":"中西區","LI":"民權里","LIN":"12鄰","STREET":"康樂街","SECT":" ","MAREA":" ","LANE":" ","ALLEY":" ","HOUSE_NO":"３１７號","E_COORD97":167591.10000000001,"N_COORD97":2544301.4500000002,"ADDRESS":"康樂街３１７號","OBJECTID":609681},"geometry":{"x":167591.09999999963,"y":2544301.4499999993}},{"attributes":{"ID":609709,"DIS_CODE":0,"TOWNNAME":"安南區","LI":"學東里","LIN":"3鄰","STREET":"公學路","SECT":"七段","MAREA":" ","LANE":" ","ALLEY":" ","HOUSE_NO":"７０號","E_COORD97":161866.10999999999,"N_COORD97":2553405.6299999999,"ADDRESS":"公學路七段７０號","OBJECTID":609682},"geometry":{"x":161866.1100000022,"y":2553405.629999999}},{"attributes":{"ID":609710,"DIS_CODE":0,"TOWNNAME":"安南區","LI":"學東里","LIN":"3鄰","STREET":"公學路","SECT":"七段","MAREA":" ","LANE":" ","ALLEY":" ","HOUSE_NO":"７２號","E_COORD97":161848.35999999999,"N_COORD97":2553407.27,"ADDRESS":"公學路七段７２號","OBJECTID":609683},"geometry":{"x":161848.36000000034,"y":2553407.2700000014}},{"attributes":{"ID":609711,"DIS_CODE":0,"TOWNNAME":"安南區","LI":"學東里","LIN":"3鄰","STREET":"公學路","SECT":"七段","MAREA":" ","LANE":" ","ALLEY":" ","HOUSE_NO":"７８號","E_COORD97":161833.16,"N_COORD97":2553403.9300000002,"ADDRESS":"公學路七段７８號","OBJECTID":609684},"geometry":{"x":161833.16000000015,"y":2553403.9299999997}},{"attributes":{"ID":609712,"DIS_CODE":0,"TOWNNAME":"安南區","LI":"學東里","LIN":"3鄰","STREET":"公學路","SECT":"七段","MAREA":" ","LANE":" ","ALLEY":" ","HOUSE_NO":"８０號","E_COORD97":161829.45999999999,"N_COORD97":2553405.0099999998,"ADDRESS":"公學路七段８０號","OBJECTID":609685},"geometry":{"x":161829.46000000183,"y":2553405.0100000035}},{"attributes":{"ID":609713,"DIS_CODE":0,"TOWNNAME":"安南區","LI":"學東里","LIN":"3鄰","STREET":"公學路","SECT":"七段","MAREA":" ","LANE":" ","ALLEY":" ","HOUSE_NO":"８６號","E_COORD97":161816.14999999999,"N_COORD97":2553410.8799999999,"ADDRESS":"公學路七段８６號","OBJECTID":609686},"geometry":{"x":161816.15000000037,"y":2553410.879999999}},{"attributes":{"ID":609714,"DIS_CODE":0,"TOWNNAME":"安南區","LI":"學東里","LIN":"3鄰","STREET":"公學路","SECT":"七段","MAREA":" ","LANE":" ","ALLEY":" ","HOUSE_NO":"８８號","E_COORD97":161812.67000000001,"N_COORD97":2553411.3100000001,"ADDRESS":"公學路七段８８號","OBJECTID":609687},"geometry":{"x":161812.67000000179,"y":2553411.3100000024}},{"attributes":{"ID":609715,"DIS_CODE":0,"TOWNNAME":"安南區","LI":"學東里","LIN":"3鄰","STREET":"公學路","SECT":"七段","MAREA":" ","LANE":" ","ALLEY":" ","HOUSE_NO":"８８號之１","E_COORD97":161807.67000000001,"N_COORD97":2553413.48,"ADDRESS":"公學路七段８８號之１","OBJECTID":609688},"geometry":{"x":161807.67000000179,"y":2553413.4800000023}},{"attributes":{"ID":609716,"DIS_CODE":0,"TOWNNAME":"安南區","LI":"學東里","LIN":"3鄰","STREET":"公學路","SECT":"七段","MAREA":" ","LANE":" ","ALLEY":" ","HOUSE_NO":"８８號之２","E_COORD97":161804.41,"N_COORD97":2553414.79,"ADDRESS":"公學路七段８８號之２","OBJECTID":609689},"geometry":{"x":161804.41000000015,"y":2553414.7899999991}},{"attributes":{"ID":609717,"DIS_CODE":0,"TOWNNAME":"安南區","LI":"學東里","LIN":"3鄰","STREET":"公學路","SECT":"七段","MAREA":" ","LANE":" ","ALLEY":" ","HOUSE_NO":"８８號之３","E_COORD97":161798.76000000001,"N_COORD97":2553415.4399999999,"ADDRESS":"公學路七段８８號之３","OBJECTID":609690},"geometry":{"x":161798.76000000071,"y":2553415.4400000032}},{"attributes":{"ID":609718,"DIS_CODE":0,"TOWNNAME":"安南區","LI":"學東里","LIN":"3鄰","STREET":"公學路","SECT":"七段","MAREA":" ","LANE":" ","ALLEY":" ","HOUSE_NO":"９０號","E_COORD97":161795.53,"N_COORD97":2553426.4399999999,"ADDRESS":"公學路七段９０號","OBJECTID":609691},"geometry":{"x":161795.53000000119,"y":2553426.4400000013}},{"attributes":{"ID":609719,"DIS_CODE":0,"TOWNNAME":"安南區","LI":"學東里","LIN":"3鄰","STREET":"公學路","SECT":"七段","MAREA":" ","LANE":" ","ALLEY":" ","HOUSE_NO":"９２號","E_COORD97":161780.82999999999,"N_COORD97":2553430.2400000002,"ADDRESS":"公學路七段９２號","OBJECTID":609692},"geometry":{"x":161780.83000000007,"y":2553430.2400000002}},{"attributes":{"ID":609720,"DIS_CODE":0,"TOWNNAME":"安南區","LI":"學東里","LIN":"3鄰","STREET":"公學路","SECT":"七段","MAREA":" ","LANE":" ","ALLEY":" ","HOUSE_NO":"９２號之１","E_COORD97":161776.75,"N_COORD97":2553429.1400000001,"ADDRESS":"公學路七段９２號之１","OBJECTID":609693},"geometry":{"x":161776.75000000186,"y":2553429.1400000025}},{"attributes":{"ID":609721,"DIS_CODE":0,"TOWNNAME":"安南區","LI":"學東里","LIN":"3鄰","STREET":"公學路","SECT":"七段","MAREA":" ","LANE":" ","ALLEY":" ","HOUSE_NO":"１００號","E_COORD97":161764.79000000001,"N_COORD97":2553434.8399999999,"ADDRESS":"公學路七段１００號","OBJECTID":609694},"geometry":{"x":161764.79000000097,"y":2553434.8400000017}},{"attributes":{"ID":609722,"DIS_CODE":0,"TOWNNAME":"安南區","LI":"學東里","LIN":"3鄰","STREET":"公學路","SECT":"七段","MAREA":" ","LANE":" ","ALLEY":" ","HOUSE_NO":"１０２號","E_COORD97":161794.29000000001,"N_COORD97":2553491.27,"ADDRESS":"公學路七段１０２號","OBJECTID":609695},"geometry":{"x":161794.29000000004,"y":2553491.2700000033}},{"attributes":{"ID":609723,"DIS_CODE":0,"TOWNNAME":"安南區","LI":"學東里","LIN":"3鄰","STREET":"公學路","SECT":"七段","MAREA":" ","LANE":" ","ALLEY":" ","HOUSE_NO":"１０６號","E_COORD97":161777.14999999999,"N_COORD97":2553486.8999999999,"ADDRESS":"公學路七段１０６號","OBJECTID":609696},"geometry":{"x":161777.15000000037,"y":2553486.9000000004}},{"attributes":{"ID":609724,"DIS_CODE":0,"TOWNNAME":"安南區","LI":"學東里","LIN":"3鄰","STREET":"公學路","SECT":"七段","MAREA":" ","LANE":" ","ALLEY":" ","HOUSE_NO":"１１２號","E_COORD97":161757.62,"N_COORD97":2553440.2599999998,"ADDRESS":"公學路七段１１２號","OBJECTID":609697},"geometry":{"x":161757.62000000104,"y":2553440.2599999998}},{"attributes":{"ID":609725,"DIS_CODE":0,"TOWNNAME":"安南區","LI":"顯宮里","LIN":"3鄰","STREET":"安中路","SECT":"五段","MAREA":" ","LANE":" ","ALLEY":" ","HOUSE_NO":"２６５號","E_COORD97":162801.23999999999,"N_COORD97":2550860.3199999998,"ADDRESS":"安中路五段２６５號","OBJECTID":609698},"geometry":{"x":162801.24000000115,"y":2550860.3200000003}},{"attributes":{"ID":609726,"DIS_CODE":0,"TOWNNAME":"善化區","LI":"坐駕里","LIN":"3鄰","STREET":"中正路","SECT":" ","MAREA":" ","LANE":" ","ALLEY":" ","HOUSE_NO":"４７６號之４","E_COORD97":177694.89000000001,"N_COORD97":2559061.77,"ADDRESS":"中正路４７６號之４","OBJECTID":609699},"geometry":{"x":177694.89000000153,"y":2559061.7700000033}},{"attributes":{"ID":609727,"DIS_CODE":0,"TOWNNAME":"中西區","LI":"民權里","LIN":"10鄰","STREET":"民權路","SECT":"三段","MAREA":" ","LANE":" ","ALLEY":" ","HOUSE_NO":"１２４號","E_COORD97":167641.12,"N_COORD97":2544195.6899999999,"ADDRESS":"民權路三段１２４號","OBJECTID":609700},"geometry":{"x":167641.12000000011,"y":2544195.6900000013}},{"attributes":{"ID":609728,"DIS_CODE":0,"TOWNNAME":"中西區","LI":"民權里","LIN":"10鄰","STREET":"民權路","SECT":"三段","MAREA":" ","LANE":" ","ALLEY":" ","HOUSE_NO":"１２６號","E_COORD97":167636.64000000001,"N_COORD97":2544197.2400000002,"ADDRESS":"民權路三段１２６號","OBJECTID":609701},"geometry":{"x":167636.63999999966,"y":2544197.2400000021}},{"attributes":{"ID":609729,"DIS_CODE":0,"TOWNNAME":"中西區","LI":"民權里","LIN":"10鄰","STREET":"民權路","SECT":"三段","MAREA":" ","LANE":" ","ALLEY":" ","HOUSE_NO":"１２８號","E_COORD97":167633.10999999999,"N_COORD97":2544202.3199999998,"ADDRESS":"民權路三段１２８號","OBJECTID":609702},"geometry":{"x":167633.1100000022,"y":2544202.320000004}},{"attributes":{"ID":609730,"DIS_CODE":0,"TOWNNAME":"中西區","LI":"民權里","LIN":"10鄰","STREET":"民權路","SECT":"三段","MAREA":" ","LANE":" ","ALLEY":" ","HOUSE_NO":"１３０號","E_COORD97":167624.79000000001,"N_COORD97":2544208.3799999999,"ADDRESS":"民權路三段１３０號","OBJECTID":609703},"geometry":{"x":167624.7900000019,"y":2544208.3800000008}},{"attributes":{"ID":609731,"DIS_CODE":0,"TOWNNAME":"中西區","LI":"民權里","LIN":"10鄰","STREET":"民權路","SECT":"三段","MAREA":" ","LANE":" ","ALLEY":" ","HOUSE_NO":"１３２號","E_COORD97":167620.07999999999,"N_COORD97":2544209.6699999999,"ADDRESS":"民權路三段１３２號","OBJECTID":609704},"geometry":{"x":167620.08000000101,"y":2544209.6700000037}},{"attributes":{"ID":609732,"DIS_CODE":0,"TOWNNAME":"中西區","LI":"民權里","LIN":"10鄰","STREET":"民權路","SECT":"三段","MAREA":" ","LANE":" ","ALLEY":" ","HOUSE_NO":"１３６號","E_COORD97":167615.5,"N_COORD97":2544211.5099999998,"ADDRESS":"民權路三段１３６號","OBJECTID":609705},"geometry":{"x":167615.50000000093,"y":2544211.5100000016}},{"attributes":{"ID":609733,"DIS_CODE":0,"TOWNNAME":"中西區","LI":"民權里","LIN":"10鄰","STREET":"民權路","SECT":"三段","MAREA":" ","LANE":" ","ALLEY":" ","HOUSE_NO":"１３８號","E_COORD97":167613.13,"N_COORD97":2544205.6899999999,"ADDRESS":"民權路三段１３８號","OBJECTID":609706},"geometry":{"x":167613.12999999989,"y":2544205.6900000032}},{"attributes":{"ID":609734,"DIS_CODE":0,"TOWNNAME":"中西區","LI":"民權里","LIN":"10鄰","STREET":"民權路","SECT":"三段","MAREA":" ","LANE":" ","ALLEY":" ","HOUSE_NO":"１４０號","E_COORD97":167609.12,"N_COORD97":2544207.6299999999,"ADDRESS":"民權路三段１４０號","OBJECTID":609707},"geometry":{"x":167609.12000000197,"y":2544207.629999999}},{"attributes":{"ID":609735,"DIS_CODE":0,"TOWNNAME":"中西區","LI":"民權里","LIN":"10鄰","STREET":"民權路","SECT":"三段","MAREA":" ","LANE":" ","ALLEY":" ","HOUSE_NO":"１４２號","E_COORD97":167611.82999999999,"N_COORD97":2544214.3300000001,"ADDRESS":"民權路三段１４２號","OBJECTID":609708},"geometry":{"x":167611.83000000101,"y":2544214.3300000001}},{"attributes":{"ID":609736,"DIS_CODE":0,"TOWNNAME":"中西區","LI":"民權里","LIN":"10鄰","STREET":"民權路","SECT":"三段","MAREA":" ","LANE":" ","ALLEY":" ","HOUSE_NO":"１４４號","E_COORD97":167607.59,"N_COORD97":2544213.9700000002,"ADDRESS":"民權路三段１４４號","OBJECTID":609709},"geometry":{"x":167607.59000000078,"y":2544213.9700000007}},{"attributes":{"ID":609737,"DIS_CODE":0,"TOWNNAME":"中西區","LI":"民權里","LIN":"10鄰","STREET":"民權路","SECT":"三段","MAREA":" ","LANE":" ","ALLEY":" ","HOUSE_NO":"１４６號","E_COORD97":167601.88,"N_COORD97":2544215.3100000001,"ADDRESS":"民權路三段１４６號","OBJECTID":609710},"geometry":{"x":167601.87999999989,"y":2544215.3100000005}},{"attributes":{"ID":609738,"DIS_CODE":0,"TOWNNAME":"中西區","LI":"民權里","LIN":"10鄰","STREET":"民權路","SECT":"三段","MAREA":" ","LANE":" ","ALLEY":" ","HOUSE_NO":"１４８號","E_COORD97":167597.85999999999,"N_COORD97":2544217.0699999998,"ADDRESS":"民權路三段１４８號","OBJECTID":609711},"geometry":{"x":167597.86000000127,"y":2544217.0699999984}},{"attributes":{"ID":609739,"DIS_CODE":0,"TOWNNAME":"善化區","LI":"東關里","LIN":"3鄰","STREET":"中山路","SECT":" ","MAREA":" ","LANE":" ","ALLEY":" ","HOUSE_NO":"４０８號","E_COORD97":177434.87,"N_COORD97":2559118.25,"ADDRESS":"中山路４０８號","OBJECTID":609712},"geometry":{"x":177434.87000000104,"y":2559118.25}},{"attributes":{"ID":609740,"DIS_CODE":0,"TOWNNAME":"善化區","LI":"坐駕里","LIN":"3鄰","STREET":"中正路","SECT":" ","MAREA":" ","LANE":" ","ALLEY":" ","HOUSE_NO":"４７４之１號","E_COORD97":177699.39000000001,"N_COORD97":2559030.5,"ADDRESS":"中正路４７４之１號","OBJECTID":609713},"geometry":{"x":177699.38999999966,"y":2559030.5000000019}},{"attributes":{"ID":609741,"DIS_CODE":0,"TOWNNAME":"善化區","LI":"東關里","LIN":"3鄰","STREET":"中山路","SECT":" ","MAREA":" ","LANE":" ","ALLEY":" ","HOUSE_NO":"４０６號","E_COORD97":177439.03,"N_COORD97":2559117.75,"ADDRESS":"中山路４０６號","OBJECTID":609714},"geometry":{"x":177439.03000000119,"y":2559117.7500000019}},{"attributes":{"ID":609742,"DIS_CODE":0,"TOWNNAME":"中西區","LI":"民權里","LIN":"14鄰","STREET":"神農街","SECT":" ","MAREA":" ","LANE":" ","ALLEY":" ","HOUSE_NO":"１１４號","E_COORD97":167560.38,"N_COORD97":2544277.6800000002,"ADDRESS":"神農街１１４號","OBJECTID":609715},"geometry":{"x":167560.38000000082,"y":2544277.6800000016}},{"attributes":{"ID":609743,"DIS_CODE":0,"TOWNNAME":"中西區","LI":"民權里","LIN":"11鄰","STREET":"民權路","SECT":"三段","MAREA":" ","LANE":" ","ALLEY":" ","HOUSE_NO":"１８２號之２","E_COORD97":167528.25,"N_COORD97":2544254.25,"ADDRESS":"民權路三段１８２號之２","OBJECTID":609716},"geometry":{"x":167528.25,"y":2544254.2500000019}},{"attributes":{"ID":609744,"DIS_CODE":0,"TOWNNAME":"中西區","LI":"民權里","LIN":"11鄰","STREET":"民權路","SECT":"三段","MAREA":" ","LANE":" ","ALLEY":" ","HOUSE_NO":"１８２號之３","E_COORD97":167539.26000000001,"N_COORD97":2544265.73,"ADDRESS":"民權路三段１８２號之３","OBJECTID":609717},"geometry":{"x":167539.25999999978,"y":2544265.7300000004}},{"attributes":{"ID":609745,"DIS_CODE":0,"TOWNNAME":"中西區","LI":"民權里","LIN":"11鄰","STREET":"民權路","SECT":"三段","MAREA":" ","LANE":" ","ALLEY":" ","HOUSE_NO":"１８２號之４","E_COORD97":167533.76000000001,"N_COORD97":2544266.1499999999,"ADDRESS":"民權路三段１８２號之４","OBJECTID":609718},"geometry":{"x":167533.76000000071,"y":2544266.1500000004}},{"attributes":{"ID":609746,"DIS_CODE":0,"TOWNNAME":"中西區","LI":"民權里","LIN":"11鄰","STREET":"民權路","SECT":"三段","MAREA":" ","LANE":" ","ALLEY":" ","HOUSE_NO":"１８４號","E_COORD97":167522.32000000001,"N_COORD97":2544255.8700000001,"ADDRESS":"民權路三段１８４號","OBJECTID":609719},"geometry":{"x":167522.32000000123,"y":2544255.870000001}},{"attributes":{"ID":609747,"DIS_CODE":0,"TOWNNAME":"中西區","LI":"民權里","LIN":"11鄰","STREET":"民權路","SECT":"三段","MAREA":" ","LANE":" ","ALLEY":" ","HOUSE_NO":"１８４號之１","E_COORD97":167524.09,"N_COORD97":2544257.21,"ADDRESS":"民權路三段１８４號之１","OBJECTID":609720},"geometry":{"x":167524.08999999985,"y":2544257.2100000009}},{"attributes":{"ID":609748,"DIS_CODE":0,"TOWNNAME":"中西區","LI":"民權里","LIN":"11鄰","STREET":"民權路","SECT":"三段","MAREA":" ","LANE":" ","ALLEY":" ","HOUSE_NO":"１８４號之２","E_COORD97":167524.16,"N_COORD97":2544259.54,"ADDRESS":"民權路三段１８４號之２","OBJECTID":609721},"geometry":{"x":167524.16000000201,"y":2544259.5399999991}},{"attributes":{"ID":609749,"DIS_CODE":0,"TOWNNAME":"中西區","LI":"民權里","LIN":"11鄰","STREET":"民權路","SECT":"三段","MAREA":" ","LANE":" ","ALLEY":" ","HOUSE_NO":"１８４號之３","E_COORD97":167525.64000000001,"N_COORD97":2544262.5699999998,"ADDRESS":"民權路三段１８４號之３","OBJECTID":609722},"geometry":{"x":167525.6400000006,"y":2544262.5700000022}},{"attributes":{"ID":609750,"DIS_CODE":0,"TOWNNAME":"中西區","LI":"民權里","LIN":"11鄰","STREET":"民權路","SECT":"三段","MAREA":" ","LANE":" ","ALLEY":" ","HOUSE_NO":"１８４號之４","E_COORD97":167527.04999999999,"N_COORD97":2544265.8900000001,"ADDRESS":"民權路三段１８４號之４","OBJECTID":609723},"geometry":{"x":167527.05000000075,"y":2544265.8900000006}},{"attributes":{"ID":609751,"DIS_CODE":0,"TOWNNAME":"中西區","LI":"民權里","LIN":"11鄰","STREET":"民權路","SECT":"三段","MAREA":" ","LANE":" ","ALLEY":" ","HOUSE_NO":"１８６號","E_COORD97":167507.623166,"N_COORD97":2544242.7111800001,"ADDRESS":"民權路三段１８６號","OBJECTID":609724},"geometry":{"x":167507.6231660014,"y":2544242.7111830041}},{"attributes":{"ID":609752,"DIS_CODE":0,"TOWNNAME":"中西區","LI":"民權里","LIN":"11鄰","STREET":"民權路","SECT":"三段","MAREA":" ","LANE":" ","ALLEY":" ","HOUSE_NO":"１８８號","E_COORD97":167502.32996500001,"N_COORD97":2544244.6161799999,"ADDRESS":"民權路三段１８８號","OBJECTID":609725},"geometry":{"x":167502.3299650019,"y":2544244.6161819976}},{"attributes":{"ID":609753,"DIS_CODE":0,"TOWNNAME":"中西區","LI":"民權里","LIN":"11鄰","STREET":"民權路","SECT":"三段","MAREA":" ","LANE":" ","ALLEY":" ","HOUSE_NO":"１９２號","E_COORD97":167496.04000000001,"N_COORD97":2544275.6200000001,"ADDRESS":"民權路三段１９２號","OBJECTID":609726},"geometry":{"x":167496.0400000019,"y":2544275.6200000048}},{"attributes":{"ID":609754,"DIS_CODE":0,"TOWNNAME":"中西區","LI":"民權里","LIN":"11鄰","STREET":"民權路","SECT":"三段","MAREA":" ","LANE":" ","ALLEY":" ","HOUSE_NO":"１９４之１號","E_COORD97":167560.42999999999,"N_COORD97":2544090.5099999998,"ADDRESS":"民權路三段１９４之１號","OBJECTID":609727},"geometry":{"x":167560.4299999997,"y":2544090.5099999998}},{"attributes":{"ID":609755,"DIS_CODE":0,"TOWNNAME":"中西區","LI":"民權里","LIN":"11鄰","STREET":"民權路","SECT":"三段","MAREA":" ","LANE":" ","ALLEY":" ","HOUSE_NO":"１９４之２號","E_COORD97":167497.48999999999,"N_COORD97":2544280.2999999998,"ADDRESS":"民權路三段１９４之２號","OBJECTID":609728},"geometry":{"x":167497.49000000022,"y":2544280.3000000007}},{"attributes":{"ID":609756,"DIS_CODE":0,"TOWNNAME":"中西區","LI":"民權里","LIN":"11鄰","STREET":"民權路","SECT":"三段","MAREA":" ","LANE":" ","ALLEY":" ","HOUSE_NO":"１９４之３號","E_COORD97":167500.88,"N_COORD97":2544285.9399999999,"ADDRESS":"民權路三段１９４之３號","OBJECTID":609729},"geometry":{"x":167500.88000000082,"y":2544285.9400000013}},{"attributes":{"ID":609757,"DIS_CODE":0,"TOWNNAME":"中西區","LI":"民權里","LIN":"11鄰","STREET":"民權路","SECT":"三段","MAREA":" ","LANE":" ","ALLEY":" ","HOUSE_NO":"１９４號","E_COORD97":167492.13,"N_COORD97":2544259.5299999998,"ADDRESS":"民權路三段１９４號","OBJECTID":609730},"geometry":{"x":167492.13000000082,"y":2544259.5299999993}},{"attributes":{"ID":609758,"DIS_CODE":0,"TOWNNAME":"善化區","LI":"東關里","LIN":"3鄰","STREET":"中山路","SECT":" ","MAREA":" ","LANE":" ","ALLEY":" ","HOUSE_NO":"４１４號","E_COORD97":177421.32000000001,"N_COORD97":2559118.75,"ADDRESS":"中山路４１４號","OBJECTID":609731},"geometry":{"x":177421.31999999937,"y":2559118.75}},{"attributes":{"ID":609759,"DIS_CODE":0,"TOWNNAME":"善化區","LI":"南關里","LIN":"3鄰","STREET":"自由路","SECT":" ","MAREA":" ","LANE":" ","ALLEY":" ","HOUSE_NO":"１０８號","E_COORD97":177135.94,"N_COORD97":2558875.75,"ADDRESS":"自由路１０８號","OBJECTID":609732},"geometry":{"x":177135.94000000227,"y":2558875.7500000037}},{"attributes":{"ID":609760,"DIS_CODE":0,"TOWNNAME":"善化區","LI":"東關里","LIN":"3鄰","STREET":"中山路","SECT":" ","MAREA":" ","LANE":" ","ALLEY":" ","HOUSE_NO":"４１０號","E_COORD97":177430.07000000001,"N_COORD97":2559118.5,"ADDRESS":"中山路４１０號","OBJECTID":609733},"geometry":{"x":177430.07000000123,"y":2559118.5000000019}},{"attributes":{"ID":609761,"DIS_CODE":0,"TOWNNAME":"善化區","LI":"南關里","LIN":"3鄰","STREET":"自由路","SECT":" ","MAREA":" ","LANE":" ","ALLEY":" ","HOUSE_NO":"９２號","E_COORD97":177163.42999999999,"N_COORD97":2558881.25,"ADDRESS":"自由路９２號","OBJECTID":609734},"geometry":{"x":177163.4299999997,"y":2558881.25}},{"attributes":{"ID":609762,"DIS_CODE":0,"TOWNNAME":"善化區","LI":"坐駕里","LIN":"3鄰","STREET":"中興路","SECT":" ","MAREA":" ","LANE":" ","ALLEY":" ","HOUSE_NO":"１２號","E_COORD97":177766.32999999999,"N_COORD97":2559009.25,"ADDRESS":"中興路１２號","OBJECTID":609735},"geometry":{"x":177766.33000000007,"y":2559009.2500000019}},{"attributes":{"ID":609763,"DIS_CODE":0,"TOWNNAME":"善化區","LI":"西關里","LIN":"3鄰","STREET":"中興路","SECT":" ","MAREA":" ","LANE":" ","ALLEY":" ","HOUSE_NO":"１９０號","E_COORD97":177168.20000000001,"N_COORD97":2559069.25,"ADDRESS":"中興路１９０號","OBJECTID":609736},"geometry":{"x":177168.20000000112,"y":2559069.2500000037}},{"attributes":{"ID":609764,"DIS_CODE":0,"TOWNNAME":"善化區","LI":"北關里","LIN":"3鄰","STREET":"文正路","SECT":" ","MAREA":" ","LANE":" ","ALLEY":" ","HOUSE_NO":"８號之１","E_COORD97":177057.84,"N_COORD97":2559252.0299999998,"ADDRESS":"文正路８號之１","OBJECTID":609737},"geometry":{"x":177057.83999999985,"y":2559252.0299999993}},{"attributes":{"ID":609765,"DIS_CODE":0,"TOWNNAME":"中西區","LI":"民權里","LIN":"11鄰","STREET":"民權路","SECT":"三段","MAREA":" ","LANE":" ","ALLEY":" ","HOUSE_NO":"１９４號底層","E_COORD97":167492.13,"N_COORD97":2544259.5299999998,"ADDRESS":"民權路三段１９４號底層","OBJECTID":609738},"geometry":{"x":167492.13000000082,"y":2544259.5299999993}},{"attributes":{"ID":609766,"DIS_CODE":0,"TOWNNAME":"中西區","LI":"民權里","LIN":"11鄰","STREET":"民權路","SECT":"三段","MAREA":" ","LANE":" ","ALLEY":" ","HOUSE_NO":"１９６號","E_COORD97":167474.45000000001,"N_COORD97":2544256.6400000001,"ADDRESS":"民權路三段１９６號","OBJECTID":609739},"geometry":{"x":167474.45000000019,"y":2544256.6400000006}},{"attributes":{"ID":609767,"DIS_CODE":0,"TOWNNAME":"善化區","LI":"坐駕里","LIN":"3鄰","STREET":"中山路","SECT":" ","MAREA":" ","LANE":" ","ALLEY":" ","HOUSE_NO":"３３５之３號","E_COORD97":177744.37,"N_COORD97":2559039.27,"ADDRESS":"中山路３３５之３號","OBJECTID":609740},"geometry":{"x":177744.37000000011,"y":2559039.2700000014}},{"attributes":{"ID":609768,"DIS_CODE":0,"TOWNNAME":"善化區","LI":"坐駕里","LIN":"3鄰","STREET":"中山路","SECT":" ","MAREA":" ","LANE":" ","ALLEY":" ","HOUSE_NO":"３３５號之１","E_COORD97":177746.31,"N_COORD97":2559048.52,"ADDRESS":"中山路３３５號之１","OBJECTID":609741},"geometry":{"x":177746.31000000145,"y":2559048.5199999996}},{"attributes":{"ID":609769,"DIS_CODE":0,"TOWNNAME":"善化區","LI":"坐駕里","LIN":"3鄰","STREET":"中山路","SECT":" ","MAREA":" ","LANE":" ","ALLEY":" ","HOUSE_NO":"３４３號","E_COORD97":177724.45000000001,"N_COORD97":2559076.5,"ADDRESS":"中山路３４３號","OBJECTID":609742},"geometry":{"x":177724.45000000112,"y":2559076.5}},{"attributes":{"ID":609770,"DIS_CODE":0,"TOWNNAME":"中西區","LI":"西賢里","LIN":"29鄰","STREET":"西賢五街","SECT":" ","MAREA":" ","LANE":" ","ALLEY":" ","HOUSE_NO":"６７號","E_COORD97":165205.98000000001,"N_COORD97":2544717.3100000001,"ADDRESS":"西賢五街６７號","OBJECTID":609743},"geometry":{"x":165205.98000000045,"y":2544717.3100000005}},{"attributes":{"ID":609771,"DIS_CODE":0,"TOWNNAME":"中西區","LI":"民權里","LIN":"11鄰","STREET":"民權路","SECT":"三段","MAREA":" ","LANE":" ","ALLEY":" ","HOUSE_NO":"１９６號之１","E_COORD97":167477.76999999999,"N_COORD97":2544255.0899999999,"ADDRESS":"民權路三段１９６號之１","OBJECTID":609744},"geometry":{"x":167477.77000000048,"y":2544255.0900000017}},{"attributes":{"ID":609772,"DIS_CODE":0,"TOWNNAME":"中西區","LI":"民權里","LIN":"11鄰","STREET":"民權路","SECT":"三段","MAREA":" ","LANE":" ","ALLEY":" ","HOUSE_NO":"１９６號之２","E_COORD97":167478.82999999999,"N_COORD97":2544265.0299999998,"ADDRESS":"民權路三段１９６號之２","OBJECTID":609745},"geometry":{"x":167478.83000000194,"y":2544265.0300000012}},{"attributes":{"ID":609773,"DIS_CODE":0,"TOWNNAME":"中西區","LI":"民權里","LIN":"11鄰","STREET":"民權路","SECT":"三段","MAREA":" ","LANE":" ","ALLEY":" ","HOUSE_NO":"１９６號之３","E_COORD97":167474.95000000001,"N_COORD97":2544270.5299999998,"ADDRESS":"民權路三段１９６號之３","OBJECTID":609746},"geometry":{"x":167474.95000000112,"y":2544270.5299999993}},{"attributes":{"ID":609774,"DIS_CODE":0,"TOWNNAME":"中西區","LI":"民權里","LIN":"14鄰","STREET":"神農街","SECT":" ","MAREA":" ","LANE":" ","ALLEY":" ","HOUSE_NO":"１１０號","E_COORD97":167569.56,"N_COORD97":2544273.6600000001,"ADDRESS":"神農街１１０號","OBJECTID":609747},"geometry":{"x":167569.55999999959,"y":2544273.6600000001}},{"attributes":{"ID":609775,"DIS_CODE":0,"TOWNNAME":"中西區","LI":"民權里","LIN":"11鄰","STREET":"民權路","SECT":"三段","MAREA":" ","LANE":" ","ALLEY":" ","HOUSE_NO":"１９８號","E_COORD97":167471.28,"N_COORD97":2544256.8500000001,"ADDRESS":"民權路三段１９８號","OBJECTID":609748},"geometry":{"x":167471.28000000119,"y":2544256.8500000015}},{"attributes":{"ID":609776,"DIS_CODE":0,"TOWNNAME":"中西區","LI":"民權里","LIN":"11鄰","STREET":"民權路","SECT":"三段","MAREA":" ","LANE":" ","ALLEY":" ","HOUSE_NO":"２００號","E_COORD97":167467.89000000001,"N_COORD97":2544258.6099999999,"ADDRESS":"民權路三段２００號","OBJECTID":609749},"geometry":{"x":167467.89000000153,"y":2544258.6099999994}},{"attributes":{"ID":609777,"DIS_CODE":0,"TOWNNAME":"中西區","LI":"民權里","LIN":"11鄰","STREET":"民權路","SECT":"三段","MAREA":" ","LANE":" ","ALLEY":" ","HOUSE_NO":"２０２號","E_COORD97":167462.57000000001,"N_COORD97":2544259.25,"ADDRESS":"民權路三段２０２號","OBJECTID":609750},"geometry":{"x":167462.57000000123,"y":2544259.25}},{"attributes":{"ID":609778,"DIS_CODE":0,"TOWNNAME":"中西區","LI":"民權里","LIN":"11鄰","STREET":"民權路","SECT":"三段","MAREA":" ","LANE":" ","ALLEY":" ","HOUSE_NO":"２０４號","E_COORD97":167459.60000000001,"N_COORD97":2544260.5099999998,"ADDRESS":"民權路三段２０４號","OBJECTID":609751},"geometry":{"x":167459.60000000149,"y":2544260.5099999998}},{"attributes":{"ID":609779,"DIS_CODE":0,"TOWNNAME":"中西區","LI":"民權里","LIN":"11鄰","STREET":"民權路","SECT":"三段","MAREA":" ","LANE":" ","ALLEY":" ","HOUSE_NO":"２０６號","E_COORD97":167456.35000000001,"N_COORD97":2544261.6400000001,"ADDRESS":"民權路三段２０６號","OBJECTID":609752},"geometry":{"x":167456.35000000056,"y":2544261.6400000025}},{"attributes":{"ID":609780,"DIS_CODE":0,"TOWNNAME":"中西區","LI":"民權里","LIN":"11鄰","STREET":"民權路","SECT":"三段","MAREA":" ","LANE":" ","ALLEY":" ","HOUSE_NO":"２０８號","E_COORD97":167453.35000000001,"N_COORD97":2544262.77,"ADDRESS":"民權路三段２０８號","OBJECTID":609753},"geometry":{"x":167453.35000000056,"y":2544262.7700000033}},{"attributes":{"ID":609781,"DIS_CODE":0,"TOWNNAME":"中西區","LI":"民權里","LIN":"11鄰","STREET":"民權路","SECT":"三段","MAREA":" ","LANE":" ","ALLEY":" ","HOUSE_NO":"２１０號","E_COORD97":167450.73999999999,"N_COORD97":2544264.3199999998,"ADDRESS":"民權路三段２１０號","OBJECTID":609754},"geometry":{"x":167450.74000000209,"y":2544264.3200000022}},{"attributes":{"ID":609782,"DIS_CODE":0,"TOWNNAME":"善化區","LI":"坐駕里","LIN":"3鄰","STREET":"中正路","SECT":" ","MAREA":" ","LANE":" ","ALLEY":" ","HOUSE_NO":"４７６號之２","E_COORD97":177695.14000000001,"N_COORD97":2559051.27,"ADDRESS":"中正路４７６號之２","OBJECTID":609755},"geometry":{"x":177695.1400000006,"y":2559051.2699999977}},{"attributes":{"ID":609783,"DIS_CODE":0,"TOWNNAME":"善化區","LI":"坐駕里","LIN":"3鄰","STREET":"中正路","SECT":" ","MAREA":" ","LANE":" ","ALLEY":" ","HOUSE_NO":"４７２號","E_COORD97":177696.37,"N_COORD97":2559020.5,"ADDRESS":"中正路４７２號","OBJECTID":609756},"geometry":{"x":177696.37000000011,"y":2559020.5000000019}},{"attributes":{"ID":609784,"DIS_CODE":0,"TOWNNAME":"善化區","LI":"北關里","LIN":"3鄰","STREET":"三民路","SECT":" ","MAREA":" ","LANE":" ","ALLEY":" ","HOUSE_NO":"８９之１號","E_COORD97":177122.56,"N_COORD97":2559216.52,"ADDRESS":"三民路８９之１號","OBJECTID":609757},"geometry":{"x":177122.56000000052,"y":2559216.5200000014}},{"attributes":{"ID":609785,"DIS_CODE":0,"TOWNNAME":"中西區","LI":"民權里","LIN":"14鄰","STREET":"忠孝街","SECT":" ","MAREA":" ","LANE":" ","ALLEY":" ","HOUSE_NO":"１號","E_COORD97":167574.529221,"N_COORD97":2544280.1761599998,"ADDRESS":"忠孝街１號","OBJECTID":609758},"geometry":{"x":167574.52922100108,"y":2544280.176163001}},{"attributes":{"ID":609786,"DIS_CODE":0,"TOWNNAME":"善化區","LI":"坐駕里","LIN":"3鄰","STREET":"中山路","SECT":" ","MAREA":" ","LANE":" ","ALLEY":" ","HOUSE_NO":"３３５號之５","E_COORD97":177743.47,"N_COORD97":2559035.52,"ADDRESS":"中山路３３５號之５","OBJECTID":609759},"geometry":{"x":177743.46999999881,"y":2559035.5199999996}},{"attributes":{"ID":609787,"DIS_CODE":0,"TOWNNAME":"永康區","LI":"龍潭里","LIN":"3鄰","STREET":"龍安街","SECT":" ","MAREA":" ","LANE":" ","ALLEY":" ","HOUSE_NO":"３６號","E_COORD97":174587.95999999999,"N_COORD97":2548116.0299999998,"ADDRESS":"龍安街３６號","OBJECTID":609760},"geometry":{"x":174587.96000000089,"y":2548116.0300000012}},{"attributes":{"ID":609788,"DIS_CODE":0,"TOWNNAME":"永康區","LI":"蔦松里","LIN":"3鄰","STREET":"中正北路","SECT":" ","MAREA":" ","LANE":" ","ALLEY":" ","HOUSE_NO":"６３１號","E_COORD97":174055.01999999999,"N_COORD97":2549324.1499999999,"ADDRESS":"中正北路６３１號","OBJECTID":609761},"geometry":{"x":174055.02000000048,"y":2549324.1500000022}},{"attributes":{"ID":609789,"DIS_CODE":0,"TOWNNAME":"永康區","LI":"蔦松里","LIN":"3鄰","STREET":"中正北路","SECT":" ","MAREA":" ","LANE":" ","ALLEY":" ","HOUSE_NO":"６０７號","E_COORD97":173975.79000000001,"N_COORD97":2549269.4900000002,"ADDRESS":"中正北路６０７號","OBJECTID":609762},"geometry":{"x":173975.79000000097,"y":2549269.4900000039}},{"attributes":{"ID":609790,"DIS_CODE":0,"TOWNNAME":"永康區","LI":"蔦松里","LIN":"3鄰","STREET":"中正北路","SECT":" ","MAREA":" ","LANE":" ","ALLEY":" ","HOUSE_NO":"６０９號","E_COORD97":173979.04000000001,"N_COORD97":2549275.2400000002,"ADDRESS":"中正北路６０９號","OBJECTID":609763},"geometry":{"x":173979.04000000097,"y":2549275.2400000021}},{"attributes":{"ID":609791,"DIS_CODE":0,"TOWNNAME":"永康區","LI":"龍潭里","LIN":"3鄰","STREET":"龍安街","SECT":" ","MAREA":" ","LANE":" ","ALLEY":" ","HOUSE_NO":"３０號","E_COORD97":174585.63,"N_COORD97":2548102.04,"ADDRESS":"龍安街３０號","OBJECTID":609764},"geometry":{"x":174585.62999999989,"y":2548102.040000001}},{"attributes":{"ID":609792,"DIS_CODE":0,"TOWNNAME":"永康區","LI":"龍潭里","LIN":"3鄰","STREET":"龍國街","SECT":" ","MAREA":" ","LANE":" ","ALLEY":" ","HOUSE_NO":"２５９號","E_COORD97":174552.66,"N_COORD97":2548039.3500000001,"ADDRESS":"龍國街２５９號","OBJECTID":609765},"geometry":{"x":174552.66000000108,"y":2548039.3500000034}},{"attributes":{"ID":609793,"DIS_CODE":0,"TOWNNAME":"永康區","LI":"龍潭里","LIN":"3鄰","STREET":"龍國街","SECT":" ","MAREA":" ","LANE":" ","ALLEY":" ","HOUSE_NO":"２３７號","E_COORD97":174510,"N_COORD97":2548049.75,"ADDRESS":"龍國街２３７號","OBJECTID":609766},"geometry":{"x":174510.00000000093,"y":2548049.75}},{"attributes":{"ID":609794,"DIS_CODE":0,"TOWNNAME":"永康區","LI":"新樹里","LIN":"3鄰","STREET":"中山北路","SECT":" ","MAREA":" ","LANE":" ","ALLEY":" ","HOUSE_NO":"７６０號","E_COORD97":176286.32000000001,"N_COORD97":2547954.9900000002,"ADDRESS":"中山北路７６０號","OBJECTID":609767},"geometry":{"x":176286.32000000123,"y":2547954.9900000021}},{"attributes":{"ID":609795,"DIS_CODE":0,"TOWNNAME":"永康區","LI":"新樹里","LIN":"3鄰","STREET":"富強路","SECT":"二段","MAREA":" ","LANE":" ","ALLEY":" ","HOUSE_NO":"３２３號","E_COORD97":175562.94,"N_COORD97":2547556.0600000001,"ADDRESS":"富強路二段３２３號","OBJECTID":609768},"geometry":{"x":175562.94000000134,"y":2547556.0600000005}},{"attributes":{"ID":609796,"DIS_CODE":0,"TOWNNAME":"永康區","LI":"\u25A0行里","LIN":"3鄰","STREET":"中正七街","SECT":" ","MAREA":" ","LANE":" ","ALLEY":" ","HOUSE_NO":"１５號","E_COORD97":172073.85999999999,"N_COORD97":2548890.77,"ADDRESS":"中正七街１５號","OBJECTID":609769},"geometry":{"x":172073.86000000034,"y":2548890.7700000033}},{"attributes":{"ID":609797,"DIS_CODE":0,"TOWNNAME":"永康區","LI":"新樹里","LIN":"3鄰","STREET":"中山北路","SECT":" ","MAREA":" ","LANE":" ","ALLEY":" ","HOUSE_NO":"６５２號","E_COORD97":175964.04999999999,"N_COORD97":2547879.98,"ADDRESS":"中山北路６５２號","OBJECTID":609770},"geometry":{"x":175964.04999999981,"y":2547879.9800000042}},{"attributes":{"ID":609798,"DIS_CODE":0,"TOWNNAME":"永康區","LI":"網寮里","LIN":"3鄰","STREET":"永二街","SECT":" ","MAREA":" ","LANE":" ","ALLEY":" ","HOUSE_NO":"６６號","E_COORD97":173586.67999999999,"N_COORD97":2546618.25,"ADDRESS":"永二街６６號","OBJECTID":609771},"geometry":{"x":173586.6799999997,"y":2546618.25}},{"attributes":{"ID":609799,"DIS_CODE":0,"TOWNNAME":"永康區","LI":"新樹里","LIN":"3鄰","STREET":"中山北路","SECT":" ","MAREA":" ","LANE":" ","ALLEY":" ","HOUSE_NO":"６１０號","E_COORD97":175804.44,"N_COORD97":2547825.6499999999,"ADDRESS":"中山北路６１０號","OBJECTID":609772},"geometry":{"x":175804.44000000041,"y":2547825.6500000022}},{"attributes":{"ID":609800,"DIS_CODE":0,"TOWNNAME":"東區","LI":"中西里","LIN":"3鄰","STREET":"東門路","SECT":"一段","MAREA":" ","LANE":" ","ALLEY":" ","HOUSE_NO":"２４３號","E_COORD97":169779.70999999999,"N_COORD97":2543094.1800000002,"ADDRESS":"東門路一段２４３號","OBJECTID":609773},"geometry":{"x":169779.70999999996,"y":2543094.1800000016}},{"attributes":{"ID":609801,"DIS_CODE":0,"TOWNNAME":"東區","LI":"中西里","LIN":"3鄰","STREET":"東門路","SECT":"一段","MAREA":" ","LANE":" ","ALLEY":" ","HOUSE_NO":"２４７號","E_COORD97":169794.47,"N_COORD97":2543088.5800000001,"ADDRESS":"東門路一段２４７號","OBJECTID":609774},"geometry":{"x":169794.46999999974,"y":2543088.5800000019}},{"attributes":{"ID":609802,"DIS_CODE":0,"TOWNNAME":"東區","LI":"中西里","LIN":"3鄰","STREET":"東門路","SECT":"一段","MAREA":" ","LANE":" ","ALLEY":" ","HOUSE_NO":"２４９號","E_COORD97":169798.47,"N_COORD97":2543086.9300000002,"ADDRESS":"東門路一段２４９號","OBJECTID":609775},"geometry":{"x":169798.47000000067,"y":2543086.9300000016}},{"attributes":{"ID":609803,"DIS_CODE":0,"TOWNNAME":"東區","LI":"中西里","LIN":"3鄰","STREET":"東門路","SECT":"一段","MAREA":" ","LANE":" ","ALLEY":" ","HOUSE_NO":"２５５號","E_COORD97":169817.89999999999,"N_COORD97":2543080.02,"ADDRESS":"東門路一段２５５號","OBJECTID":609776},"geometry":{"x":169817.89999999944,"y":2543080.0199999996}},{"attributes":{"ID":609804,"DIS_CODE":0,"TOWNNAME":"東區","LI":"中西里","LIN":"3鄰","STREET":"東門路","SECT":"一段","MAREA":" ","LANE":" ","ALLEY":" ","HOUSE_NO":"２６１號","E_COORD97":169828.32000000001,"N_COORD97":2543074.6699999999,"ADDRESS":"東門路一段２６１號","OBJECTID":609777},"geometry":{"x":169828.3200000003,"y":2543074.6700000018}},{"attributes":{"ID":609805,"DIS_CODE":0,"TOWNNAME":"東區","LI":"中西里","LIN":"3鄰","STREET":"東門路","SECT":"一段","MAREA":" ","LANE":" ","ALLEY":" ","HOUSE_NO":"２６３號","E_COORD97":169831.34,"N_COORD97":2543073.02,"ADDRESS":"東門路一段２６３號","OBJECTID":609778},"geometry":{"x":169831.33999999892,"y":2543073.0199999996}},{"attributes":{"ID":609806,"DIS_CODE":0,"TOWNNAME":"東區","LI":"東安里","LIN":"3鄰","STREET":"東門路","SECT":"二段","MAREA":" ","LANE":" ","ALLEY":" ","HOUSE_NO":"２５號","E_COORD97":169979.79999999999,"N_COORD97":2543003.9399999999,"ADDRESS":"東門路二段２５號","OBJECTID":609779},"geometry":{"x":169979.80000000075,"y":2543003.9400000013}},{"attributes":{"ID":609807,"DIS_CODE":0,"TOWNNAME":"東區","LI":"東安里","LIN":"3鄰","STREET":"東門路","SECT":"二段","MAREA":" ","LANE":" ","ALLEY":" ","HOUSE_NO":"２９號","E_COORD97":169988.66,"N_COORD97":2543001.21,"ADDRESS":"東門路二段２９號","OBJECTID":609780},"geometry":{"x":169988.66000000015,"y":2543001.2100000028}},{"attributes":{"ID":609808,"DIS_CODE":0,"TOWNNAME":"東區","LI":"東安里","LIN":"3鄰","STREET":"東門路","SECT":"二段","MAREA":" ","LANE":" ","ALLEY":" ","HOUSE_NO":"３１號","E_COORD97":169992.81,"N_COORD97":2542999.79,"ADDRESS":"東門路二段３１號","OBJECTID":609781},"geometry":{"x":169992.81000000052,"y":2542999.7899999991}},{"attributes":{"ID":609809,"DIS_CODE":0,"TOWNNAME":"東區","LI":"東安里","LIN":"3鄰","STREET":"東門路","SECT":"二段","MAREA":" ","LANE":" ","ALLEY":" ","HOUSE_NO":"３５號","E_COORD97":170003.70999999999,"N_COORD97":2542996.5899999999,"ADDRESS":"東門路二段３５號","OBJECTID":609782},"geometry":{"x":170003.71000000183,"y":2542996.5900000017}},{"attributes":{"ID":609810,"DIS_CODE":0,"TOWNNAME":"東區","LI":"東安里","LIN":"3鄰","STREET":"東門路","SECT":"二段","MAREA":" ","LANE":" ","ALLEY":" ","HOUSE_NO":"３７號","E_COORD97":170010.69,"N_COORD97":2542994.2400000002,"ADDRESS":"東門路二段３７號","OBJECTID":609783},"geometry":{"x":170010.69000000041,"y":2542994.2400000002}},{"attributes":{"ID":609811,"DIS_CODE":0,"TOWNNAME":"東區","LI":"自強里","LIN":"3鄰","STREET":"東門路","SECT":"三段","MAREA":" ","LANE":" ","ALLEY":" ","HOUSE_NO":"４３號","E_COORD97":171154.41,"N_COORD97":2542286.79,"ADDRESS":"東門路三段４３號","OBJECTID":609784},"geometry":{"x":171154.41000000015,"y":2542286.790000001}},{"attributes":{"ID":609812,"DIS_CODE":0,"TOWNNAME":"東區","LI":"自強里","LIN":"3鄰","STREET":"東門路","SECT":"三段","MAREA":" ","LANE":" ","ALLEY":" ","HOUSE_NO":"４７號","E_COORD97":171160.39000000001,"N_COORD97":2542281.8700000001,"ADDRESS":"東門路三段４７號","OBJECTID":609785},"geometry":{"x":171160.3900000006,"y":2542281.8700000029}},{"attributes":{"ID":609813,"DIS_CODE":0,"TOWNNAME":"東區","LI":"自強里","LIN":"3鄰","STREET":"東門路","SECT":"三段","MAREA":" ","LANE":" ","ALLEY":" ","HOUSE_NO":"４９號","E_COORD97":171164.03,"N_COORD97":2542279.29,"ADDRESS":"東門路三段４９號","OBJECTID":609786},"geometry":{"x":171164.03000000026,"y":2542279.290000001}},{"attributes":{"ID":609814,"DIS_CODE":0,"TOWNNAME":"東區","LI":"富強里","LIN":"3鄰","STREET":"中華東路","SECT":"二段","MAREA":" ","LANE":" ","ALLEY":" ","HOUSE_NO":"２號","E_COORD97":171395.10999999999,"N_COORD97":2543164.2000000002,"ADDRESS":"中華東路二段２號","OBJECTID":609787},"geometry":{"x":171395.11000000127,"y":2543164.1999999974}},{"attributes":{"ID":609815,"DIS_CODE":0,"TOWNNAME":"東區","LI":"富強里","LIN":"3鄰","STREET":"中華東路","SECT":"二段","MAREA":" ","LANE":" ","ALLEY":" ","HOUSE_NO":"３６號之２","E_COORD97":171385.07000000001,"N_COORD97":2543055.71,"ADDRESS":"中華東路二段３６號之２","OBJECTID":609788},"geometry":{"x":171385.07000000123,"y":2543055.7100000028}},{"attributes":{"ID":609816,"DIS_CODE":0,"TOWNNAME":"東區","LI":"富強里","LIN":"3鄰","STREET":"中華東路","SECT":"二段","MAREA":" ","LANE":" ","ALLEY":" ","HOUSE_NO":"４６號","E_COORD97":171380.29000000001,"N_COORD97":2543021.4300000002,"ADDRESS":"中華東路二段４６號","OBJECTID":609789},"geometry":{"x":171380.29000000097,"y":2543021.4300000016}},{"attributes":{"ID":609817,"DIS_CODE":0,"TOWNNAME":"東區","LI":"富強里","LIN":"3鄰","STREET":"中華東路","SECT":"二段","MAREA":" ","LANE":" ","ALLEY":" ","HOUSE_NO":"８號","E_COORD97":171394.89000000001,"N_COORD97":2543143.1200000001,"ADDRESS":"中華東路二段８號","OBJECTID":609790},"geometry":{"x":171394.88999999966,"y":2543143.1200000048}},{"attributes":{"ID":609818,"DIS_CODE":0,"TOWNNAME":"永康區","LI":"北灣里","LIN":"3鄰","STREET":"文賢街","SECT":" ","MAREA":" ","LANE":" ","ALLEY":" ","HOUSE_NO":"１７２號","E_COORD97":175379.76000000001,"N_COORD97":2545649.71,"ADDRESS":"文賢街１７２號","OBJECTID":609791},"geometry":{"x":175379.75999999978,"y":2545649.7100000009}},{"attributes":{"ID":609819,"DIS_CODE":0,"TOWNNAME":"東區","LI":"崇文里","LIN":"3鄰","STREET":"崇德十六街","SECT":" ","MAREA":" ","LANE":" ","ALLEY":" ","HOUSE_NO":"３９號","E_COORD97":170925.31,"N_COORD97":2541142.7000000002,"ADDRESS":"崇德十六街３９號","OBJECTID":609792},"geometry":{"x":170925.31000000052,"y":2541142.6999999993}},{"attributes":{"ID":609820,"DIS_CODE":0,"TOWNNAME":"東區","LI":"崇文里","LIN":"3鄰","STREET":"崇德十六街","SECT":" ","MAREA":" ","LANE":" ","ALLEY":" ","HOUSE_NO":"３號","E_COORD97":170825.41,"N_COORD97":2541146.6200000001,"ADDRESS":"崇德十六街３號","OBJECTID":609793},"geometry":{"x":170825.41000000108,"y":2541146.6200000029}},{"attributes":{"ID":609821,"DIS_CODE":0,"TOWNNAME":"東區","LI":"崇文里","LIN":"3鄰","STREET":"崇德十六街","SECT":" ","MAREA":" ","LANE":" ","ALLEY":" ","HOUSE_NO":"４１號","E_COORD97":170938.41,"N_COORD97":2541143.1499999999,"ADDRESS":"崇德十六街４１號","OBJECTID":609794},"geometry":{"x":170938.41000000108,"y":2541143.1500000022}},{"attributes":{"ID":609822,"DIS_CODE":0,"TOWNNAME":"東區","LI":"崇文里","LIN":"3鄰","STREET":"崇德十六街","SECT":" ","MAREA":" ","LANE":" ","ALLEY":" ","HOUSE_NO":"４３號","E_COORD97":170942.67999999999,"N_COORD97":2541143.1499999999,"ADDRESS":"崇德十六街４３號","OBJECTID":609795},"geometry":{"x":170942.68000000156,"y":2541143.1500000022}},{"attributes":{"ID":609823,"DIS_CODE":0,"TOWNNAME":"東區","LI":"崇文里","LIN":"3鄰","STREET":"崇德十六街","SECT":" ","MAREA":" ","LANE":" ","ALLEY":" ","HOUSE_NO":"４５號","E_COORD97":170947.54000000001,"N_COORD97":2541143.29,"ADDRESS":"崇德十六街４５號","OBJECTID":609796},"geometry":{"x":170947.5400000019,"y":2541143.290000001}},{"attributes":{"ID":609824,"DIS_CODE":0,"TOWNNAME":"東區","LI":"崇文里","LIN":"3鄰","STREET":"崇德十六街","SECT":" ","MAREA":" ","LANE":" ","ALLEY":" ","HOUSE_NO":"４７號","E_COORD97":170951.95999999999,"N_COORD97":2541143.1499999999,"ADDRESS":"崇德十六街４７號","OBJECTID":609797},"geometry":{"x":170951.96000000089,"y":2541143.1500000022}},{"attributes":{"ID":609825,"DIS_CODE":0,"TOWNNAME":"東區","LI":"崇文里","LIN":"3鄰","STREET":"崇德十六街","SECT":" ","MAREA":" ","LANE":" ","ALLEY":" ","HOUSE_NO":"４９號","E_COORD97":170956.67000000001,"N_COORD97":2541143.1499999999,"ADDRESS":"崇德十六街４９號","OBJECTID":609798},"geometry":{"x":170956.67000000179,"y":2541143.1500000022}},{"attributes":{"ID":609826,"DIS_CODE":0,"TOWNNAME":"東區","LI":"崇文里","LIN":"3鄰","STREET":"崇德十六街","SECT":" ","MAREA":" ","LANE":" ","ALLEY":" ","HOUSE_NO":"６７號","E_COORD97":170994.70000000001,"N_COORD97":2541147.3500000001,"ADDRESS":"崇德十六街６７號","OBJECTID":609799},"geometry":{"x":170994.70000000112,"y":2541147.3500000015}},{"attributes":{"ID":609827,"DIS_CODE":0,"TOWNNAME":"東區","LI":"崇文里","LIN":"3鄰","STREET":"崇德十六街","SECT":" ","MAREA":" ","LANE":" ","ALLEY":" ","HOUSE_NO":"６９號","E_COORD97":170999.87,"N_COORD97":2541147.3500000001,"ADDRESS":"崇德十六街６９號","OBJECTID":609800},"geometry":{"x":170999.87000000104,"y":2541147.3500000015}}]}