{"displayFieldName":"TOWNNAME","fieldAliases":{"ID":"ID","DIS_CODE":"DIS_CODE","TOWNNAME":"TOWNNAME","LI":"LI","LIN":"LIN","STREET":"STREET","SECT":"SECT","MAREA":"MAREA","LANE":"LANE","ALLEY":"ALLEY","HOUSE_NO":"HOUSE_NO","E_COORD97":"E_COORD97","N_COORD97":"N_COORD97","ADDRESS":"ADDRESS","OBJECTID":"OBJECTID"},"geometryType":"esriGeometryPoint","spatialReference":{"wkid":102443,"latestWkid":3826},"fields":[{"name":"ID","type":"esriFieldTypeDouble","alias":"ID"},{"name":"DIS_CODE","type":"esriFieldTypeInteger","alias":"DIS_CODE"},{"name":"TOWNNAME","type":"esriFieldTypeString","alias":"TOWNNAME","length":8},{"name":"LI","type":"esriFieldTypeString","alias":"LI","length":8},{"name":"LIN","type":"esriFieldTypeString","alias":"LIN","length":12},{"name":"STREET","type":"esriFieldTypeString","alias":"STREET","length":20},{"name":"SECT","type":"esriFieldTypeString","alias":"SECT","length":8},{"name":"MAREA","type":"esriFieldTypeString","alias":"MAREA","length":12},{"name":"LANE","type":"esriFieldTypeString","alias":"LANE","length":10},{"name":"ALLEY","type":"esriFieldTypeString","alias":"ALLEY","length":10},{"name":"HOUSE_NO","type":"esriFieldTypeString","alias":"HOUSE_NO","length":20},{"name":"E_COORD97","type":"esriFieldTypeDouble","alias":"E_COORD97"},{"name":"N_COORD97","type":"esriFieldTypeDouble","alias":"N_COORD97"},{"name":"ADDRESS","type":"esriFieldTypeString","alias":"ADDRESS","length":50},{"name":"OBJECTID","type":"esriFieldTypeOID","alias":"OBJECTID"}],"features":[{"attributes":{"ID":449226,"DIS_CODE":0,"TOWNNAME":"南區","LI":"大林里","LIN":"18鄰","STREET":"大同路","SECT":"二段","MAREA":" ","LANE":"４０６巷","ALLEY":" ","HOUSE_NO":"１３號","E_COORD97":169374.57999999999,"N_COORD97":2541671.0499999998,"ADDRESS":"大同路二段４０６巷１３號","OBJECTID":449201},"geometry":{"x":169374.58000000101,"y":2541671.0500000007}},{"attributes":{"ID":449227,"DIS_CODE":0,"TOWNNAME":"南區","LI":"大林里","LIN":"18鄰","STREET":"大同路","SECT":"二段","MAREA":" ","LANE":"４０６巷","ALLEY":" ","HOUSE_NO":"１５號之１","E_COORD97":169364.72,"N_COORD97":2541668.1800000002,"ADDRESS":"大同路二段４０６巷１５號之１","OBJECTID":449202},"geometry":{"x":169364.72000000067,"y":2541668.1799999997}},{"attributes":{"ID":449228,"DIS_CODE":0,"TOWNNAME":"南區","LI":"大林里","LIN":"18鄰","STREET":"大同路","SECT":"二段","MAREA":" ","LANE":"４０６巷","ALLEY":" ","HOUSE_NO":"１７號","E_COORD97":169348.69,"N_COORD97":2541665.9900000002,"ADDRESS":"大同路二段４０６巷１７號","OBJECTID":449203},"geometry":{"x":169348.69000000134,"y":2541665.9900000021}},{"attributes":{"ID":449229,"DIS_CODE":0,"TOWNNAME":"南區","LI":"大林里","LIN":"18鄰","STREET":"大同路","SECT":"二段","MAREA":" ","LANE":"４０６巷","ALLEY":" ","HOUSE_NO":"１９號","E_COORD97":169338.82999999999,"N_COORD97":2541663.6699999999,"ADDRESS":"大同路二段４０６巷１９號","OBJECTID":449204},"geometry":{"x":169338.83000000101,"y":2541663.6700000018}},{"attributes":{"ID":449230,"DIS_CODE":0,"TOWNNAME":"南區","LI":"大林里","LIN":"18鄰","STREET":"大同路","SECT":"二段","MAREA":" ","LANE":"４０６巷","ALLEY":" ","HOUSE_NO":"２１號","E_COORD97":169314.54999999999,"N_COORD97":2541659.8399999999,"ADDRESS":"大同路二段４０６巷２１號","OBJECTID":449205},"geometry":{"x":169314.54999999888,"y":2541659.8400000017}},{"attributes":{"ID":449231,"DIS_CODE":0,"TOWNNAME":"南區","LI":"大林里","LIN":"18鄰","STREET":"大同路","SECT":"二段","MAREA":" ","LANE":"４０６巷","ALLEY":" ","HOUSE_NO":"２３號","E_COORD97":169304.14000000001,"N_COORD97":2541657.2400000002,"ADDRESS":"大同路二段４０６巷２３號","OBJECTID":449206},"geometry":{"x":169304.1400000006,"y":2541657.2400000021}},{"attributes":{"ID":449232,"DIS_CODE":0,"TOWNNAME":"南區","LI":"大林里","LIN":"18鄰","STREET":"大同路","SECT":"二段","MAREA":" ","LANE":"４０６巷","ALLEY":" ","HOUSE_NO":"２５號","E_COORD97":169291.82000000001,"N_COORD97":2541655.6000000001,"ADDRESS":"大同路二段４０６巷２５號","OBJECTID":449207},"geometry":{"x":169291.82000000123,"y":2541655.5999999996}},{"attributes":{"ID":449233,"DIS_CODE":0,"TOWNNAME":"南區","LI":"大林里","LIN":"18鄰","STREET":"大同路","SECT":"二段","MAREA":" ","LANE":"４０６巷","ALLEY":" ","HOUSE_NO":"２７號","E_COORD97":169284.69,"N_COORD97":2541655.1899999999,"ADDRESS":"大同路二段４０６巷２７號","OBJECTID":449208},"geometry":{"x":169284.69000000041,"y":2541655.1899999995}},{"attributes":{"ID":449234,"DIS_CODE":0,"TOWNNAME":"南區","LI":"大林里","LIN":"18鄰","STREET":"大同路","SECT":"二段","MAREA":" ","LANE":"４０６巷","ALLEY":" ","HOUSE_NO":"２９號","E_COORD97":169272.92000000001,"N_COORD97":2541652.4500000002,"ADDRESS":"大同路二段４０６巷２９號","OBJECTID":449209},"geometry":{"x":169272.91999999993,"y":2541652.4499999993}},{"attributes":{"ID":449235,"DIS_CODE":0,"TOWNNAME":"南區","LI":"大林里","LIN":"18鄰","STREET":"大同路","SECT":"二段","MAREA":" ","LANE":"４０６巷","ALLEY":" ","HOUSE_NO":"３１號","E_COORD97":169263.73999999999,"N_COORD97":2541651.2200000002,"ADDRESS":"大同路二段４０６巷３１號","OBJECTID":449210},"geometry":{"x":169263.74000000115,"y":2541651.2200000025}},{"attributes":{"ID":449236,"DIS_CODE":0,"TOWNNAME":"南區","LI":"大林里","LIN":"18鄰","STREET":"大同路","SECT":"二段","MAREA":" ","LANE":"４０６巷","ALLEY":" ","HOUSE_NO":"３３號","E_COORD97":169253.35000000001,"N_COORD97":2541648.1099999999,"ADDRESS":"大同路二段４０６巷３３號","OBJECTID":449211},"geometry":{"x":169253.35000000056,"y":2541648.1099999994}},{"attributes":{"ID":449237,"DIS_CODE":0,"TOWNNAME":"南區","LI":"大林里","LIN":"18鄰","STREET":"大同路","SECT":"二段","MAREA":" ","LANE":"４０６巷","ALLEY":" ","HOUSE_NO":"３５號","E_COORD97":169245.14000000001,"N_COORD97":2541646.2000000002,"ADDRESS":"大同路二段４０６巷３５號","OBJECTID":449212},"geometry":{"x":169245.1400000006,"y":2541646.2000000011}},{"attributes":{"ID":449238,"DIS_CODE":0,"TOWNNAME":"楠西區","LI":"東勢里","LIN":"18鄰","STREET":"東勢路","SECT":" ","MAREA":" ","LANE":"２６巷","ALLEY":" ","HOUSE_NO":"４０號","E_COORD97":197695.57000000001,"N_COORD97":2564141.29,"ADDRESS":"東勢路２６巷４０號","OBJECTID":449213},"geometry":{"x":197695.5700000003,"y":2564141.290000001}},{"attributes":{"ID":449239,"DIS_CODE":0,"TOWNNAME":"楠西區","LI":"東勢里","LIN":"18鄰","STREET":"東勢路","SECT":" ","MAREA":" ","LANE":"２６巷","ALLEY":" ","HOUSE_NO":"３０號","E_COORD97":197695.26999999999,"N_COORD97":2564126.29,"ADDRESS":"東勢路２６巷３０號","OBJECTID":449214},"geometry":{"x":197695.26999999955,"y":2564126.2900000028}},{"attributes":{"ID":449240,"DIS_CODE":0,"TOWNNAME":"楠西區","LI":"東勢里","LIN":"18鄰","STREET":"東勢路","SECT":" ","MAREA":" ","LANE":"２６巷","ALLEY":" ","HOUSE_NO":"３２號","E_COORD97":197695.47,"N_COORD97":2564130.29,"ADDRESS":"東勢路２６巷３２號","OBJECTID":449215},"geometry":{"x":197695.46999999974,"y":2564130.290000001}},{"attributes":{"ID":449241,"DIS_CODE":0,"TOWNNAME":"楠西區","LI":"東勢里","LIN":"18鄰","STREET":"東勢路","SECT":" ","MAREA":" ","LANE":"２６巷","ALLEY":" ","HOUSE_NO":"４２號","E_COORD97":197695.47,"N_COORD97":2564145.29,"ADDRESS":"東勢路２６巷４２號","OBJECTID":449216},"geometry":{"x":197695.46999999974,"y":2564145.2899999991}},{"attributes":{"ID":449242,"DIS_CODE":0,"TOWNNAME":"柳營區","LI":"東昇里","LIN":"18鄰","STREET":"十美街","SECT":" ","MAREA":" ","LANE":"２０８巷","ALLEY":" ","HOUSE_NO":"３０號","E_COORD97":180456.14000000001,"N_COORD97":2575616.46,"ADDRESS":"十美街２０８巷３０號","OBJECTID":449217},"geometry":{"x":180456.13999999966,"y":2575616.4600000009}},{"attributes":{"ID":449243,"DIS_CODE":0,"TOWNNAME":"柳營區","LI":"東昇里","LIN":"18鄰","STREET":"十美街","SECT":" ","MAREA":" ","LANE":"２０８巷","ALLEY":" ","HOUSE_NO":"３２號","E_COORD97":180456.19,"N_COORD97":2575621.1600000001,"ADDRESS":"十美街２０８巷３２號","OBJECTID":449218},"geometry":{"x":180456.19000000041,"y":2575621.1600000001}},{"attributes":{"ID":449244,"DIS_CODE":0,"TOWNNAME":"柳營區","LI":"東昇里","LIN":"18鄰","STREET":"十美街","SECT":" ","MAREA":" ","LANE":"２０８巷","ALLEY":" ","HOUSE_NO":"３６號","E_COORD97":180456.23999999999,"N_COORD97":2575625.8500000001,"ADDRESS":"十美街２０８巷３６號","OBJECTID":449219},"geometry":{"x":180456.24000000209,"y":2575625.8499999996}},{"attributes":{"ID":449245,"DIS_CODE":0,"TOWNNAME":"柳營區","LI":"東昇里","LIN":"18鄰","STREET":"十美街","SECT":" ","MAREA":" ","LANE":"２０８巷","ALLEY":" ","HOUSE_NO":"３８號","E_COORD97":180456.29999999999,"N_COORD97":2575630.5499999998,"ADDRESS":"十美街２０８巷３８號","OBJECTID":449220},"geometry":{"x":180456.29999999981,"y":2575630.5500000026}},{"attributes":{"ID":449246,"DIS_CODE":0,"TOWNNAME":"柳營區","LI":"東昇里","LIN":"18鄰","STREET":"十美街","SECT":" ","MAREA":" ","LANE":"２０８巷","ALLEY":" ","HOUSE_NO":"４２號","E_COORD97":180456.35000000001,"N_COORD97":2575635.25,"ADDRESS":"十美街２０８巷４２號","OBJECTID":449221},"geometry":{"x":180456.34999999963,"y":2575635.2500000019}},{"attributes":{"ID":449247,"DIS_CODE":0,"TOWNNAME":"柳營區","LI":"東昇里","LIN":"18鄰","STREET":"十美街","SECT":" ","MAREA":" ","LANE":"２０８巷","ALLEY":" ","HOUSE_NO":"６號","E_COORD97":180456.34,"N_COORD97":2575570.3599999999,"ADDRESS":"十美街２０８巷６號","OBJECTID":449222},"geometry":{"x":180456.33999999985,"y":2575570.3599999994}},{"attributes":{"ID":449248,"DIS_CODE":0,"TOWNNAME":"柳營區","LI":"東昇里","LIN":"18鄰","STREET":"十美街","SECT":" ","MAREA":" ","LANE":"２０８巷","ALLEY":" ","HOUSE_NO":"８號","E_COORD97":180456.35000000001,"N_COORD97":2575574.9399999999,"ADDRESS":"十美街２０８巷８號","OBJECTID":449223},"geometry":{"x":180456.34999999963,"y":2575574.9400000032}},{"attributes":{"ID":449249,"DIS_CODE":0,"TOWNNAME":"新營區","LI":"民生里","LIN":"18鄰","STREET":"民治路","SECT":" ","MAREA":" ","LANE":"１８３巷","ALLEY":" ","HOUSE_NO":"６８號之１","E_COORD97":178903.38,"N_COORD97":2578348.75,"ADDRESS":"民治路１８３巷６８號之１","OBJECTID":449224},"geometry":{"x":178903.37999999989,"y":2578348.75}},{"attributes":{"ID":449250,"DIS_CODE":0,"TOWNNAME":"南區","LI":"大恩里","LIN":"18鄰","STREET":"國民路","SECT":" ","MAREA":" ","LANE":"１６５巷","ALLEY":" ","HOUSE_NO":"５１號","E_COORD97":169162.04999999999,"N_COORD97":2540749.3399999999,"ADDRESS":"國民路１６５巷５１號","OBJECTID":449225},"geometry":{"x":169162.05000000168,"y":2540749.3399999999}},{"attributes":{"ID":449251,"DIS_CODE":0,"TOWNNAME":"南區","LI":"大恩里","LIN":"18鄰","STREET":"國民路","SECT":" ","MAREA":" ","LANE":"１６５巷","ALLEY":" ","HOUSE_NO":"５３號","E_COORD97":169160.32999999999,"N_COORD97":2540745.1600000001,"ADDRESS":"國民路１６５巷５３號","OBJECTID":449226},"geometry":{"x":169160.32999999914,"y":2540745.160000002}},{"attributes":{"ID":449252,"DIS_CODE":0,"TOWNNAME":"南區","LI":"大恩里","LIN":"18鄰","STREET":"國民路","SECT":" ","MAREA":" ","LANE":"１６５巷","ALLEY":" ","HOUSE_NO":"５５號","E_COORD97":169160.01000000001,"N_COORD97":2540740.4399999999,"ADDRESS":"國民路１６５巷５５號","OBJECTID":449227},"geometry":{"x":169160.00999999978,"y":2540740.4400000013}},{"attributes":{"ID":449253,"DIS_CODE":0,"TOWNNAME":"安平區","LI":"華平里","LIN":"18鄰","STREET":"建平八街","SECT":" ","MAREA":" ","LANE":"４５０巷","ALLEY":" ","HOUSE_NO":"６號","E_COORD97":165101.53,"N_COORD97":2543642.5600000001,"ADDRESS":"建平八街４５０巷６號","OBJECTID":449228},"geometry":{"x":165101.53000000119,"y":2543642.5600000024}},{"attributes":{"ID":449254,"DIS_CODE":0,"TOWNNAME":"安平區","LI":"華平里","LIN":"18鄰","STREET":"建平八街","SECT":" ","MAREA":" ","LANE":"４５０巷","ALLEY":" ","HOUSE_NO":"８號","E_COORD97":165101.39000000001,"N_COORD97":2543646.8399999999,"ADDRESS":"建平八街４５０巷８號","OBJECTID":449229},"geometry":{"x":165101.39000000153,"y":2543646.8400000017}},{"attributes":{"ID":449255,"DIS_CODE":0,"TOWNNAME":"安平區","LI":"怡平里","LIN":"18鄰","STREET":"文平路","SECT":" ","MAREA":" ","LANE":"４６１巷","ALLEY":" ","HOUSE_NO":"４２號","E_COORD97":165703.01000000001,"N_COORD97":2543893.1800000002,"ADDRESS":"文平路４６１巷４２號","OBJECTID":449230},"geometry":{"x":165703.01000000071,"y":2543893.1799999997}},{"attributes":{"ID":449256,"DIS_CODE":0,"TOWNNAME":"安平區","LI":"怡平里","LIN":"18鄰","STREET":"文平路","SECT":" ","MAREA":" ","LANE":"４６１巷","ALLEY":" ","HOUSE_NO":"６１號","E_COORD97":165682.81413799999,"N_COORD97":2543877.1885199999,"ADDRESS":"文平路４６１巷６１號","OBJECTID":449231},"geometry":{"x":165682.81413800083,"y":2543877.1885230038}},{"attributes":{"ID":449257,"DIS_CODE":0,"TOWNNAME":"安平區","LI":"怡平里","LIN":"18鄰","STREET":"文平路","SECT":" ","MAREA":" ","LANE":"４６１巷","ALLEY":" ","HOUSE_NO":"６７號","E_COORD97":165658.85999999999,"N_COORD97":2543879.7599999998,"ADDRESS":"文平路４６１巷６７號","OBJECTID":449232},"geometry":{"x":165658.86000000127,"y":2543879.7600000035}},{"attributes":{"ID":449258,"DIS_CODE":0,"TOWNNAME":"安平區","LI":"怡平里","LIN":"18鄰","STREET":"文平路","SECT":" ","MAREA":" ","LANE":"４６１巷","ALLEY":" ","HOUSE_NO":"２３號","E_COORD97":165752.89999999999,"N_COORD97":2543865.7999999998,"ADDRESS":"文平路４６１巷２３號","OBJECTID":449233},"geometry":{"x":165752.90000000224,"y":2543865.8000000007}},{"attributes":{"ID":449259,"DIS_CODE":0,"TOWNNAME":"南區","LI":"省躬里","LIN":"18鄰","STREET":"灣裡路","SECT":" ","MAREA":" ","LANE":"８８巷","ALLEY":" ","HOUSE_NO":"５６號","E_COORD97":165813.54999999999,"N_COORD97":2536771.3100000001,"ADDRESS":"灣裡路８８巷５６號","OBJECTID":449234},"geometry":{"x":165813.54999999981,"y":2536771.3100000024}},{"attributes":{"ID":449260,"DIS_CODE":0,"TOWNNAME":"南區","LI":"省躬里","LIN":"18鄰","STREET":"灣裡路","SECT":" ","MAREA":" ","LANE":"８８巷","ALLEY":" ","HOUSE_NO":"５８號","E_COORD97":165836.14999999999,"N_COORD97":2536777.29,"ADDRESS":"灣裡路８８巷５８號","OBJECTID":449235},"geometry":{"x":165836.15000000224,"y":2536777.290000001}},{"attributes":{"ID":449261,"DIS_CODE":0,"TOWNNAME":"南區","LI":"省躬里","LIN":"18鄰","STREET":"灣裡路","SECT":" ","MAREA":" ","LANE":"８８巷","ALLEY":" ","HOUSE_NO":"２６號","E_COORD97":165831.51999999999,"N_COORD97":2536857.1800000002,"ADDRESS":"灣裡路８８巷２６號","OBJECTID":449236},"geometry":{"x":165831.52000000048,"y":2536857.1799999997}},{"attributes":{"ID":449262,"DIS_CODE":0,"TOWNNAME":"南區","LI":"省躬里","LIN":"18鄰","STREET":"灣裡路","SECT":" ","MAREA":" ","LANE":"８８巷","ALLEY":" ","HOUSE_NO":"２８號","E_COORD97":165833.16,"N_COORD97":2536853.6499999999,"ADDRESS":"灣裡路８８巷２８號","OBJECTID":449237},"geometry":{"x":165833.16000000108,"y":2536853.6500000022}},{"attributes":{"ID":449263,"DIS_CODE":0,"TOWNNAME":"南區","LI":"省躬里","LIN":"18鄰","STREET":"灣裡路","SECT":" ","MAREA":" ","LANE":"８８巷","ALLEY":" ","HOUSE_NO":"３０號","E_COORD97":165833.97,"N_COORD97":2536849.2999999998,"ADDRESS":"灣裡路８８巷３０號","OBJECTID":449238},"geometry":{"x":165833.97000000067,"y":2536849.3000000026}},{"attributes":{"ID":449264,"DIS_CODE":0,"TOWNNAME":"南區","LI":"省躬里","LIN":"18鄰","STREET":"灣裡路","SECT":" ","MAREA":" ","LANE":"８８巷","ALLEY":" ","HOUSE_NO":"３２號","E_COORD97":165834.25,"N_COORD97":2536846.2999999998,"ADDRESS":"灣裡路８８巷３２號","OBJECTID":449239},"geometry":{"x":165834.25,"y":2536846.3000000026}},{"attributes":{"ID":449265,"DIS_CODE":0,"TOWNNAME":"南區","LI":"省躬里","LIN":"18鄰","STREET":"灣裡路","SECT":" ","MAREA":" ","LANE":"８８巷","ALLEY":" ","HOUSE_NO":"３４號","E_COORD97":165835.60999999999,"N_COORD97":2536841.6800000002,"ADDRESS":"灣裡路８８巷３４號","OBJECTID":449240},"geometry":{"x":165835.61000000034,"y":2536841.6799999978}},{"attributes":{"ID":449266,"DIS_CODE":0,"TOWNNAME":"永康區","LI":"五王里","LIN":"18鄰","STREET":"成功路","SECT":" ","MAREA":" ","LANE":"１８８巷","ALLEY":" ","HOUSE_NO":"２號四樓之７","E_COORD97":171440.94,"N_COORD97":2545664.04,"ADDRESS":"成功路１８８巷２號四樓之７","OBJECTID":449241},"geometry":{"x":171440.94000000041,"y":2545664.0400000028}},{"attributes":{"ID":449267,"DIS_CODE":0,"TOWNNAME":"永康區","LI":"五王里","LIN":"18鄰","STREET":"成功路","SECT":" ","MAREA":" ","LANE":"１８８巷","ALLEY":" ","HOUSE_NO":"２號六樓之９","E_COORD97":171440.95000000001,"N_COORD97":2545664.04,"ADDRESS":"成功路１８８巷２號六樓之９","OBJECTID":449242},"geometry":{"x":171440.95000000019,"y":2545664.0400000028}},{"attributes":{"ID":449268,"DIS_CODE":0,"TOWNNAME":"佳里區","LI":"鎮山里","LIN":"20鄰","STREET":"鎮山街","SECT":" ","MAREA":" ","LANE":"１６０巷","ALLEY":" ","HOUSE_NO":"３７號","E_COORD97":166177.35000000001,"N_COORD97":2560949.5,"ADDRESS":"鎮山街１６０巷３７號","OBJECTID":449243},"geometry":{"x":166177.34999999963,"y":2560949.5000000019}},{"attributes":{"ID":449269,"DIS_CODE":0,"TOWNNAME":"佳里區","LI":"鎮山里","LIN":"20鄰","STREET":"鎮山街","SECT":" ","MAREA":" ","LANE":"１６０巷","ALLEY":" ","HOUSE_NO":"３９號","E_COORD97":166173.07999999999,"N_COORD97":2560947.9500000002,"ADDRESS":"鎮山街１６０巷３９號","OBJECTID":449244},"geometry":{"x":166173.08000000007,"y":2560947.9499999993}},{"attributes":{"ID":449270,"DIS_CODE":0,"TOWNNAME":"東區","LI":"小東里","LIN":"18鄰","STREET":"東和路","SECT":" ","MAREA":" ","LANE":"５７巷","ALLEY":" ","HOUSE_NO":"８號五樓","E_COORD97":170976.20000000001,"N_COORD97":2544269.6600000001,"ADDRESS":"東和路５７巷８號五樓","OBJECTID":449245},"geometry":{"x":170976.20000000019,"y":2544269.6600000001}},{"attributes":{"ID":449271,"DIS_CODE":0,"TOWNNAME":"東區","LI":"大德里","LIN":"18鄰","STREET":"立德十一路","SECT":" ","MAREA":" ","LANE":"５５巷","ALLEY":" ","HOUSE_NO":"２４號二樓","E_COORD97":169498.73999999999,"N_COORD97":2542164.0800000001,"ADDRESS":"立德十一路５５巷２４號二樓","OBJECTID":449246},"geometry":{"x":169498.74000000115,"y":2542164.0800000019}},{"attributes":{"ID":449272,"DIS_CODE":0,"TOWNNAME":"東區","LI":"大德里","LIN":"18鄰","STREET":"立德十一路","SECT":" ","MAREA":" ","LANE":"５５巷","ALLEY":" ","HOUSE_NO":"２４號四樓","E_COORD97":169498.73999999999,"N_COORD97":2542164.0800000001,"ADDRESS":"立德十一路５５巷２４號四樓","OBJECTID":449247},"geometry":{"x":169498.74000000115,"y":2542164.0800000019}},{"attributes":{"ID":449273,"DIS_CODE":0,"TOWNNAME":"東區","LI":"大德里","LIN":"18鄰","STREET":"立德十一路","SECT":" ","MAREA":" ","LANE":"５５巷","ALLEY":" ","HOUSE_NO":"２６號二樓","E_COORD97":169507.64999999999,"N_COORD97":2542165.3500000001,"ADDRESS":"立德十一路５５巷２６號二樓","OBJECTID":449248},"geometry":{"x":169507.65000000037,"y":2542165.3499999996}},{"attributes":{"ID":449274,"DIS_CODE":0,"TOWNNAME":"東區","LI":"大德里","LIN":"18鄰","STREET":"立德十一路","SECT":" ","MAREA":" ","LANE":"５５巷","ALLEY":" ","HOUSE_NO":"２６號二樓之１","E_COORD97":169507.64999999999,"N_COORD97":2542165.3500000001,"ADDRESS":"立德十一路５５巷２６號二樓之１","OBJECTID":449249},"geometry":{"x":169507.65000000037,"y":2542165.3499999996}},{"attributes":{"ID":449275,"DIS_CODE":0,"TOWNNAME":"東區","LI":"大德里","LIN":"18鄰","STREET":"立德十一路","SECT":" ","MAREA":" ","LANE":"５５巷","ALLEY":" ","HOUSE_NO":"２６號三樓之１","E_COORD97":169507.64999999999,"N_COORD97":2542165.3500000001,"ADDRESS":"立德十一路５５巷２６號三樓之１","OBJECTID":449250},"geometry":{"x":169507.65000000037,"y":2542165.3499999996}},{"attributes":{"ID":449276,"DIS_CODE":0,"TOWNNAME":"東區","LI":"大德里","LIN":"18鄰","STREET":"立德十一路","SECT":" ","MAREA":" ","LANE":"５５巷","ALLEY":" ","HOUSE_NO":"２６號五樓","E_COORD97":169507.64999999999,"N_COORD97":2542165.3500000001,"ADDRESS":"立德十一路５５巷２６號五樓","OBJECTID":449251},"geometry":{"x":169507.65000000037,"y":2542165.3499999996}},{"attributes":{"ID":449277,"DIS_CODE":0,"TOWNNAME":"東區","LI":"大德里","LIN":"18鄰","STREET":"立德十一路","SECT":" ","MAREA":" ","LANE":"５５巷","ALLEY":" ","HOUSE_NO":"２６號四樓","E_COORD97":169507.64999999999,"N_COORD97":2542165.3500000001,"ADDRESS":"立德十一路５５巷２６號四樓","OBJECTID":449252},"geometry":{"x":169507.65000000037,"y":2542165.3499999996}},{"attributes":{"ID":449278,"DIS_CODE":0,"TOWNNAME":"東區","LI":"大德里","LIN":"18鄰","STREET":"立德十一路","SECT":" ","MAREA":" ","LANE":"５５巷","ALLEY":" ","HOUSE_NO":"２８號三樓","E_COORD97":169513.06,"N_COORD97":2542171.3900000001,"ADDRESS":"立德十一路５５巷２８號三樓","OBJECTID":449253},"geometry":{"x":169513.06000000052,"y":2542171.3900000025}},{"attributes":{"ID":449279,"DIS_CODE":0,"TOWNNAME":"東區","LI":"大德里","LIN":"18鄰","STREET":"立德十一路","SECT":" ","MAREA":" ","LANE":"５５巷","ALLEY":" ","HOUSE_NO":"３０號二樓","E_COORD97":169518.79000000001,"N_COORD97":2542173.2999999998,"ADDRESS":"立德十一路５５巷３０號二樓","OBJECTID":449254},"geometry":{"x":169518.79000000097,"y":2542173.3000000026}},{"attributes":{"ID":449280,"DIS_CODE":0,"TOWNNAME":"東區","LI":"大德里","LIN":"18鄰","STREET":"立德十一路","SECT":" ","MAREA":" ","LANE":"５５巷","ALLEY":" ","HOUSE_NO":"３０號五樓","E_COORD97":169518.79000000001,"N_COORD97":2542173.2999999998,"ADDRESS":"立德十一路５５巷３０號五樓","OBJECTID":449255},"geometry":{"x":169518.79000000097,"y":2542173.3000000026}},{"attributes":{"ID":449281,"DIS_CODE":0,"TOWNNAME":"東區","LI":"大德里","LIN":"18鄰","STREET":"立德十一路","SECT":" ","MAREA":" ","LANE":"５５巷","ALLEY":" ","HOUSE_NO":"３４號二樓","E_COORD97":169519.42999999999,"N_COORD97":2542181.25,"ADDRESS":"立德十一路５５巷３４號二樓","OBJECTID":449256},"geometry":{"x":169519.43000000063,"y":2542181.25}},{"attributes":{"ID":449282,"DIS_CODE":0,"TOWNNAME":"東區","LI":"大德里","LIN":"18鄰","STREET":"立德十一路","SECT":" ","MAREA":" ","LANE":"５５巷","ALLEY":" ","HOUSE_NO":"３４號三樓","E_COORD97":169519.42999999999,"N_COORD97":2542181.25,"ADDRESS":"立德十一路５５巷３４號三樓","OBJECTID":449257},"geometry":{"x":169519.43000000063,"y":2542181.25}},{"attributes":{"ID":449283,"DIS_CODE":0,"TOWNNAME":"東區","LI":"大德里","LIN":"18鄰","STREET":"立德十一路","SECT":" ","MAREA":" ","LANE":"５５巷","ALLEY":" ","HOUSE_NO":"２４號三樓","E_COORD97":169498.73999999999,"N_COORD97":2542164.0800000001,"ADDRESS":"立德十一路５５巷２４號三樓","OBJECTID":449258},"geometry":{"x":169498.74000000115,"y":2542164.0800000019}},{"attributes":{"ID":449284,"DIS_CODE":0,"TOWNNAME":"東區","LI":"大德里","LIN":"18鄰","STREET":"立德十一路","SECT":" ","MAREA":" ","LANE":"５５巷","ALLEY":" ","HOUSE_NO":"２４號五樓","E_COORD97":169498.73999999999,"N_COORD97":2542164.0800000001,"ADDRESS":"立德十一路５５巷２４號五樓","OBJECTID":449259},"geometry":{"x":169498.74000000115,"y":2542164.0800000019}},{"attributes":{"ID":449285,"DIS_CODE":0,"TOWNNAME":"東區","LI":"大德里","LIN":"18鄰","STREET":"立德十一路","SECT":" ","MAREA":" ","LANE":"５５巷","ALLEY":" ","HOUSE_NO":"２６號三樓","E_COORD97":169507.64999999999,"N_COORD97":2542165.3500000001,"ADDRESS":"立德十一路５５巷２６號三樓","OBJECTID":449260},"geometry":{"x":169507.65000000037,"y":2542165.3499999996}},{"attributes":{"ID":449286,"DIS_CODE":0,"TOWNNAME":"東區","LI":"大德里","LIN":"18鄰","STREET":"立德十一路","SECT":" ","MAREA":" ","LANE":"５５巷","ALLEY":" ","HOUSE_NO":"２６號四樓之１","E_COORD97":169507.64999999999,"N_COORD97":2542165.3500000001,"ADDRESS":"立德十一路５５巷２６號四樓之１","OBJECTID":449261},"geometry":{"x":169507.65000000037,"y":2542165.3499999996}},{"attributes":{"ID":449287,"DIS_CODE":0,"TOWNNAME":"東區","LI":"大德里","LIN":"18鄰","STREET":"立德十一路","SECT":" ","MAREA":" ","LANE":"５５巷","ALLEY":" ","HOUSE_NO":"２６號五樓之１","E_COORD97":169507.64999999999,"N_COORD97":2542165.3500000001,"ADDRESS":"立德十一路５５巷２６號五樓之１","OBJECTID":449262},"geometry":{"x":169507.65000000037,"y":2542165.3499999996}},{"attributes":{"ID":449288,"DIS_CODE":0,"TOWNNAME":"東區","LI":"大德里","LIN":"18鄰","STREET":"立德十一路","SECT":" ","MAREA":" ","LANE":"５５巷","ALLEY":" ","HOUSE_NO":"２８號二樓","E_COORD97":169513.06,"N_COORD97":2542171.3900000001,"ADDRESS":"立德十一路５５巷２８號二樓","OBJECTID":449263},"geometry":{"x":169513.06000000052,"y":2542171.3900000025}},{"attributes":{"ID":449289,"DIS_CODE":0,"TOWNNAME":"東區","LI":"大德里","LIN":"18鄰","STREET":"立德十一路","SECT":" ","MAREA":" ","LANE":"５５巷","ALLEY":" ","HOUSE_NO":"２８號五樓","E_COORD97":169513.06,"N_COORD97":2542171.3900000001,"ADDRESS":"立德十一路５５巷２８號五樓","OBJECTID":449264},"geometry":{"x":169513.06000000052,"y":2542171.3900000025}},{"attributes":{"ID":449290,"DIS_CODE":0,"TOWNNAME":"東區","LI":"大德里","LIN":"18鄰","STREET":"立德十一路","SECT":" ","MAREA":" ","LANE":"５５巷","ALLEY":" ","HOUSE_NO":"３０號三樓","E_COORD97":169518.79000000001,"N_COORD97":2542173.2999999998,"ADDRESS":"立德十一路５５巷３０號三樓","OBJECTID":449265},"geometry":{"x":169518.79000000097,"y":2542173.3000000026}},{"attributes":{"ID":449291,"DIS_CODE":0,"TOWNNAME":"東區","LI":"大德里","LIN":"18鄰","STREET":"立德十一路","SECT":" ","MAREA":" ","LANE":"５５巷","ALLEY":" ","HOUSE_NO":"３０號四樓","E_COORD97":169518.79000000001,"N_COORD97":2542173.2999999998,"ADDRESS":"立德十一路５５巷３０號四樓","OBJECTID":449266},"geometry":{"x":169518.79000000097,"y":2542173.3000000026}},{"attributes":{"ID":449292,"DIS_CODE":0,"TOWNNAME":"東區","LI":"大德里","LIN":"18鄰","STREET":"立德十一路","SECT":" ","MAREA":" ","LANE":"５５巷","ALLEY":" ","HOUSE_NO":"３２號三樓","E_COORD97":169523.57000000001,"N_COORD97":2542171.71,"ADDRESS":"立德十一路５５巷３２號三樓","OBJECTID":449267},"geometry":{"x":169523.57000000216,"y":2542171.7100000009}},{"attributes":{"ID":449293,"DIS_CODE":0,"TOWNNAME":"東區","LI":"大德里","LIN":"18鄰","STREET":"立德十一路","SECT":" ","MAREA":" ","LANE":"５５巷","ALLEY":" ","HOUSE_NO":"３２號四樓","E_COORD97":169523.57000000001,"N_COORD97":2542171.71,"ADDRESS":"立德十一路５５巷３２號四樓","OBJECTID":449268},"geometry":{"x":169523.57000000216,"y":2542171.7100000009}},{"attributes":{"ID":449294,"DIS_CODE":0,"TOWNNAME":"東區","LI":"大德里","LIN":"18鄰","STREET":"立德十一路","SECT":" ","MAREA":" ","LANE":"５５巷","ALLEY":" ","HOUSE_NO":"３４號四樓","E_COORD97":169519.42999999999,"N_COORD97":2542181.25,"ADDRESS":"立德十一路５５巷３４號四樓","OBJECTID":449269},"geometry":{"x":169519.43000000063,"y":2542181.25}},{"attributes":{"ID":449295,"DIS_CODE":0,"TOWNNAME":"東區","LI":"大德里","LIN":"18鄰","STREET":"立德十一路","SECT":" ","MAREA":" ","LANE":"５５巷","ALLEY":" ","HOUSE_NO":"３４號五樓","E_COORD97":169519.42999999999,"N_COORD97":2542181.25,"ADDRESS":"立德十一路５５巷３４號五樓","OBJECTID":449270},"geometry":{"x":169519.43000000063,"y":2542181.25}},{"attributes":{"ID":449296,"DIS_CODE":0,"TOWNNAME":"東區","LI":"小東里","LIN":"18鄰","STREET":"東和路","SECT":" ","MAREA":" ","LANE":"５７巷","ALLEY":" ","HOUSE_NO":"１０號七樓","E_COORD97":170967.26000000001,"N_COORD97":2544271.54,"ADDRESS":"東和路５７巷１０號七樓","OBJECTID":449271},"geometry":{"x":170967.25999999978,"y":2544271.540000001}},{"attributes":{"ID":449297,"DIS_CODE":0,"TOWNNAME":"東區","LI":"小東里","LIN":"18鄰","STREET":"東和路","SECT":" ","MAREA":" ","LANE":"５７巷","ALLEY":" ","HOUSE_NO":"１０號二樓","E_COORD97":170967.26000000001,"N_COORD97":2544271.54,"ADDRESS":"東和路５７巷１０號二樓","OBJECTID":449272},"geometry":{"x":170967.25999999978,"y":2544271.540000001}},{"attributes":{"ID":449298,"DIS_CODE":0,"TOWNNAME":"東區","LI":"小東里","LIN":"18鄰","STREET":"東和路","SECT":" ","MAREA":" ","LANE":"５７巷","ALLEY":" ","HOUSE_NO":"１０號三樓","E_COORD97":170967.26000000001,"N_COORD97":2544271.54,"ADDRESS":"東和路５７巷１０號三樓","OBJECTID":449273},"geometry":{"x":170967.25999999978,"y":2544271.540000001}},{"attributes":{"ID":449299,"DIS_CODE":0,"TOWNNAME":"東區","LI":"小東里","LIN":"18鄰","STREET":"東和路","SECT":" ","MAREA":" ","LANE":"５７巷","ALLEY":" ","HOUSE_NO":"１０號六樓","E_COORD97":170967.26000000001,"N_COORD97":2544271.54,"ADDRESS":"東和路５７巷１０號六樓","OBJECTID":449274},"geometry":{"x":170967.25999999978,"y":2544271.540000001}},{"attributes":{"ID":449300,"DIS_CODE":0,"TOWNNAME":"東區","LI":"小東里","LIN":"18鄰","STREET":"東和路","SECT":" ","MAREA":" ","LANE":"５７巷","ALLEY":" ","HOUSE_NO":"１０號四樓","E_COORD97":170967.26000000001,"N_COORD97":2544271.54,"ADDRESS":"東和路５７巷１０號四樓","OBJECTID":449275},"geometry":{"x":170967.25999999978,"y":2544271.540000001}},{"attributes":{"ID":449301,"DIS_CODE":0,"TOWNNAME":"東區","LI":"小東里","LIN":"18鄰","STREET":"東和路","SECT":" ","MAREA":" ","LANE":"５７巷","ALLEY":" ","HOUSE_NO":"８號三樓","E_COORD97":170976.20000000001,"N_COORD97":2544269.6600000001,"ADDRESS":"東和路５７巷８號三樓","OBJECTID":449276},"geometry":{"x":170976.20000000019,"y":2544269.6600000001}},{"attributes":{"ID":449302,"DIS_CODE":0,"TOWNNAME":"東區","LI":"小東里","LIN":"18鄰","STREET":"東和路","SECT":" ","MAREA":" ","LANE":"５７巷","ALLEY":" ","HOUSE_NO":"８號六樓","E_COORD97":170976.20000000001,"N_COORD97":2544269.6600000001,"ADDRESS":"東和路５７巷８號六樓","OBJECTID":449277},"geometry":{"x":170976.20000000019,"y":2544269.6600000001}},{"attributes":{"ID":449303,"DIS_CODE":0,"TOWNNAME":"東區","LI":"小東里","LIN":"18鄰","STREET":"東和路","SECT":" ","MAREA":" ","LANE":"５７巷","ALLEY":" ","HOUSE_NO":"８號四樓","E_COORD97":170976.20000000001,"N_COORD97":2544269.6600000001,"ADDRESS":"東和路５７巷８號四樓","OBJECTID":449278},"geometry":{"x":170976.20000000019,"y":2544269.6600000001}},{"attributes":{"ID":449304,"DIS_CODE":0,"TOWNNAME":"東區","LI":"小東里","LIN":"18鄰","STREET":"東和路","SECT":" ","MAREA":" ","LANE":"５７巷","ALLEY":" ","HOUSE_NO":"１０號五樓","E_COORD97":170967.26000000001,"N_COORD97":2544271.54,"ADDRESS":"東和路５７巷１０號五樓","OBJECTID":449279},"geometry":{"x":170967.25999999978,"y":2544271.540000001}},{"attributes":{"ID":449305,"DIS_CODE":0,"TOWNNAME":"東區","LI":"小東里","LIN":"18鄰","STREET":"東和路","SECT":" ","MAREA":" ","LANE":"５７巷","ALLEY":" ","HOUSE_NO":"８號二樓","E_COORD97":170976.20000000001,"N_COORD97":2544269.6600000001,"ADDRESS":"東和路５７巷８號二樓","OBJECTID":449280},"geometry":{"x":170976.20000000019,"y":2544269.6600000001}},{"attributes":{"ID":449306,"DIS_CODE":0,"TOWNNAME":"東區","LI":"小東里","LIN":"18鄰","STREET":"東和路","SECT":" ","MAREA":" ","LANE":"５７巷","ALLEY":" ","HOUSE_NO":"８號七樓","E_COORD97":170976.20000000001,"N_COORD97":2544269.6600000001,"ADDRESS":"東和路５７巷８號七樓","OBJECTID":449281},"geometry":{"x":170976.20000000019,"y":2544269.6600000001}},{"attributes":{"ID":449307,"DIS_CODE":0,"TOWNNAME":"中西區","LI":"光賢里","LIN":"18鄰","STREET":"武聖路","SECT":" ","MAREA":" ","LANE":"１９７巷","ALLEY":" ","HOUSE_NO":"１６號三樓之２","E_COORD97":166892,"N_COORD97":2545193.3100000001,"ADDRESS":"武聖路１９７巷１６號三樓之２","OBJECTID":449282},"geometry":{"x":166892,"y":2545193.3100000024}},{"attributes":{"ID":449308,"DIS_CODE":0,"TOWNNAME":"中西區","LI":"開山里","LIN":"18鄰","STREET":"大同路","SECT":"一段","MAREA":" ","LANE":"７０巷","ALLEY":" ","HOUSE_NO":"３號五樓","E_COORD97":169114.32999999999,"N_COORD97":2543033.8900000001,"ADDRESS":"大同路一段７０巷３號五樓","OBJECTID":449283},"geometry":{"x":169114.33000000007,"y":2543033.8900000025}},{"attributes":{"ID":449309,"DIS_CODE":0,"TOWNNAME":"中西區","LI":"開山里","LIN":"18鄰","STREET":"大同路","SECT":"一段","MAREA":" ","LANE":"７０巷","ALLEY":" ","HOUSE_NO":"１號一樓","E_COORD97":169113.07000000001,"N_COORD97":2543044.6800000002,"ADDRESS":"大同路一段７０巷１號一樓","OBJECTID":449284},"geometry":{"x":169113.0700000003,"y":2543044.6799999997}},{"attributes":{"ID":449310,"DIS_CODE":0,"TOWNNAME":"中西區","LI":"開山里","LIN":"18鄰","STREET":"大同路","SECT":"一段","MAREA":" ","LANE":"７０巷","ALLEY":" ","HOUSE_NO":"１號二樓","E_COORD97":169113.07000000001,"N_COORD97":2543044.6800000002,"ADDRESS":"大同路一段７０巷１號二樓","OBJECTID":449285},"geometry":{"x":169113.0700000003,"y":2543044.6799999997}},{"attributes":{"ID":449311,"DIS_CODE":0,"TOWNNAME":"中西區","LI":"開山里","LIN":"18鄰","STREET":"大同路","SECT":"一段","MAREA":" ","LANE":"７０巷","ALLEY":" ","HOUSE_NO":"１號三樓","E_COORD97":169113.07000000001,"N_COORD97":2543044.6800000002,"ADDRESS":"大同路一段７０巷１號三樓","OBJECTID":449286},"geometry":{"x":169113.0700000003,"y":2543044.6799999997}},{"attributes":{"ID":449312,"DIS_CODE":0,"TOWNNAME":"中西區","LI":"開山里","LIN":"18鄰","STREET":"大同路","SECT":"一段","MAREA":" ","LANE":"７０巷","ALLEY":" ","HOUSE_NO":"１號五樓","E_COORD97":169113.07000000001,"N_COORD97":2543044.6800000002,"ADDRESS":"大同路一段７０巷１號五樓","OBJECTID":449287},"geometry":{"x":169113.0700000003,"y":2543044.6799999997}},{"attributes":{"ID":449313,"DIS_CODE":0,"TOWNNAME":"中西區","LI":"開山里","LIN":"18鄰","STREET":"大同路","SECT":"一段","MAREA":" ","LANE":"７０巷","ALLEY":" ","HOUSE_NO":"１號四樓","E_COORD97":169113.07000000001,"N_COORD97":2543044.6800000002,"ADDRESS":"大同路一段７０巷１號四樓","OBJECTID":449288},"geometry":{"x":169113.0700000003,"y":2543044.6799999997}},{"attributes":{"ID":449314,"DIS_CODE":0,"TOWNNAME":"中西區","LI":"開山里","LIN":"18鄰","STREET":"大同路","SECT":"一段","MAREA":" ","LANE":"７０巷","ALLEY":" ","HOUSE_NO":"３號一樓","E_COORD97":169114.32999999999,"N_COORD97":2543033.8900000001,"ADDRESS":"大同路一段７０巷３號一樓","OBJECTID":449289},"geometry":{"x":169114.33000000007,"y":2543033.8900000025}},{"attributes":{"ID":449315,"DIS_CODE":0,"TOWNNAME":"中西區","LI":"開山里","LIN":"18鄰","STREET":"大同路","SECT":"一段","MAREA":" ","LANE":"７０巷","ALLEY":" ","HOUSE_NO":"３號二樓","E_COORD97":169114.32999999999,"N_COORD97":2543033.8900000001,"ADDRESS":"大同路一段７０巷３號二樓","OBJECTID":449290},"geometry":{"x":169114.33000000007,"y":2543033.8900000025}},{"attributes":{"ID":449316,"DIS_CODE":0,"TOWNNAME":"中西區","LI":"開山里","LIN":"18鄰","STREET":"大同路","SECT":"一段","MAREA":" ","LANE":"７０巷","ALLEY":" ","HOUSE_NO":"３號三樓","E_COORD97":169114.32999999999,"N_COORD97":2543033.8900000001,"ADDRESS":"大同路一段７０巷３號三樓","OBJECTID":449291},"geometry":{"x":169114.33000000007,"y":2543033.8900000025}},{"attributes":{"ID":449317,"DIS_CODE":0,"TOWNNAME":"中西區","LI":"開山里","LIN":"18鄰","STREET":"大同路","SECT":"一段","MAREA":" ","LANE":"７０巷","ALLEY":" ","HOUSE_NO":"３號四樓","E_COORD97":169114.32999999999,"N_COORD97":2543033.8900000001,"ADDRESS":"大同路一段７０巷３號四樓","OBJECTID":449292},"geometry":{"x":169114.33000000007,"y":2543033.8900000025}},{"attributes":{"ID":449318,"DIS_CODE":0,"TOWNNAME":"中西區","LI":"開山里","LIN":"18鄰","STREET":"大同路","SECT":"一段","MAREA":" ","LANE":"７０巷","ALLEY":" ","HOUSE_NO":"５號一樓","E_COORD97":169115.23000000001,"N_COORD97":2543026.3399999999,"ADDRESS":"大同路一段７０巷５號一樓","OBJECTID":449293},"geometry":{"x":169115.23000000045,"y":2543026.3400000017}},{"attributes":{"ID":449319,"DIS_CODE":0,"TOWNNAME":"中西區","LI":"開山里","LIN":"18鄰","STREET":"大同路","SECT":"一段","MAREA":" ","LANE":"７０巷","ALLEY":" ","HOUSE_NO":"５號二樓","E_COORD97":169115.23000000001,"N_COORD97":2543026.3399999999,"ADDRESS":"大同路一段７０巷５號二樓","OBJECTID":449294},"geometry":{"x":169115.23000000045,"y":2543026.3400000017}},{"attributes":{"ID":449320,"DIS_CODE":0,"TOWNNAME":"中西區","LI":"開山里","LIN":"18鄰","STREET":"大同路","SECT":"一段","MAREA":" ","LANE":"７０巷","ALLEY":" ","HOUSE_NO":"５號三樓","E_COORD97":169115.23000000001,"N_COORD97":2543026.3399999999,"ADDRESS":"大同路一段７０巷５號三樓","OBJECTID":449295},"geometry":{"x":169115.23000000045,"y":2543026.3400000017}},{"attributes":{"ID":449321,"DIS_CODE":0,"TOWNNAME":"中西區","LI":"開山里","LIN":"18鄰","STREET":"大同路","SECT":"一段","MAREA":" ","LANE":"７０巷","ALLEY":" ","HOUSE_NO":"５號五樓","E_COORD97":169115.23000000001,"N_COORD97":2543026.3399999999,"ADDRESS":"大同路一段７０巷５號五樓","OBJECTID":449296},"geometry":{"x":169115.23000000045,"y":2543026.3400000017}},{"attributes":{"ID":449322,"DIS_CODE":0,"TOWNNAME":"中西區","LI":"開山里","LIN":"18鄰","STREET":"大同路","SECT":"一段","MAREA":" ","LANE":"７０巷","ALLEY":" ","HOUSE_NO":"５號四樓","E_COORD97":169115.23000000001,"N_COORD97":2543026.3399999999,"ADDRESS":"大同路一段７０巷５號四樓","OBJECTID":449297},"geometry":{"x":169115.23000000045,"y":2543026.3400000017}},{"attributes":{"ID":449323,"DIS_CODE":0,"TOWNNAME":"永康區","LI":"五王里","LIN":"18鄰","STREET":"成功路","SECT":" ","MAREA":" ","LANE":"１８８巷","ALLEY":" ","HOUSE_NO":"２４號三樓","E_COORD97":171497.85999999999,"N_COORD97":2545704.02,"ADDRESS":"成功路１８８巷２４號三樓","OBJECTID":449298},"geometry":{"x":171497.86000000034,"y":2545704.0199999996}},{"attributes":{"ID":449324,"DIS_CODE":0,"TOWNNAME":"永康區","LI":"復華里","LIN":"18鄰","STREET":"國華街","SECT":" ","MAREA":" ","LANE":"１０２巷","ALLEY":" ","HOUSE_NO":"５７號五樓之２","E_COORD97":172849.67999999999,"N_COORD97":2546104.52,"ADDRESS":"國華街１０２巷５７號五樓之２","OBJECTID":449299},"geometry":{"x":172849.67999999877,"y":2546104.5199999996}},{"attributes":{"ID":449325,"DIS_CODE":0,"TOWNNAME":"永康區","LI":"復華里","LIN":"18鄰","STREET":"國華街","SECT":" ","MAREA":" ","LANE":"１０２巷","ALLEY":" ","HOUSE_NO":"６１號五樓之３","E_COORD97":172855.85000000001,"N_COORD97":2546125.0099999998,"ADDRESS":"國華街１０２巷６１號五樓之３","OBJECTID":449300},"geometry":{"x":172855.85000000056,"y":2546125.0099999998}},{"attributes":{"ID":449326,"DIS_CODE":0,"TOWNNAME":"永康區","LI":"復華里","LIN":"18鄰","STREET":"國華街","SECT":" ","MAREA":" ","LANE":"１０２巷","ALLEY":" ","HOUSE_NO":"５３號九樓之２","E_COORD97":172864.17999999999,"N_COORD97":2546091.7599999998,"ADDRESS":"國華街１０２巷５３號九樓之２","OBJECTID":449301},"geometry":{"x":172864.18000000063,"y":2546091.7600000016}},{"attributes":{"ID":449327,"DIS_CODE":0,"TOWNNAME":"永康區","LI":"復華里","LIN":"18鄰","STREET":"國華街","SECT":" ","MAREA":" ","LANE":"１０２巷","ALLEY":" ","HOUSE_NO":"５３號三樓之２","E_COORD97":172864.17999999999,"N_COORD97":2546091.7599999998,"ADDRESS":"國華街１０２巷５３號三樓之２","OBJECTID":449302},"geometry":{"x":172864.18000000063,"y":2546091.7600000016}},{"attributes":{"ID":449328,"DIS_CODE":0,"TOWNNAME":"永康區","LI":"復華里","LIN":"18鄰","STREET":"國華街","SECT":" ","MAREA":" ","LANE":"１０２巷","ALLEY":" ","HOUSE_NO":"５５號二樓之２","E_COORD97":172858.23000000001,"N_COORD97":2546097.77,"ADDRESS":"國華街１０２巷５５號二樓之２","OBJECTID":449303},"geometry":{"x":172858.23000000045,"y":2546097.7700000014}},{"attributes":{"ID":449329,"DIS_CODE":0,"TOWNNAME":"永康區","LI":"復華里","LIN":"18鄰","STREET":"國華街","SECT":" ","MAREA":" ","LANE":"１０２巷","ALLEY":" ","HOUSE_NO":"５３號八樓之２","E_COORD97":172864.17999999999,"N_COORD97":2546091.7599999998,"ADDRESS":"國華街１０２巷５３號八樓之２","OBJECTID":449304},"geometry":{"x":172864.18000000063,"y":2546091.7600000016}},{"attributes":{"ID":449330,"DIS_CODE":0,"TOWNNAME":"永康區","LI":"復華里","LIN":"18鄰","STREET":"國華街","SECT":" ","MAREA":" ","LANE":"１０２巷","ALLEY":" ","HOUSE_NO":"６１號八樓之２","E_COORD97":172855.89000000001,"N_COORD97":2546125.0099999998,"ADDRESS":"國華街１０２巷６１號八樓之２","OBJECTID":449305},"geometry":{"x":172855.8900000006,"y":2546125.0099999998}},{"attributes":{"ID":449331,"DIS_CODE":0,"TOWNNAME":"安南區","LI":"溪北里","LIN":"18鄰","STREET":"惠安街","SECT":" ","MAREA":" ","LANE":"２４巷","ALLEY":" ","HOUSE_NO":"１０號七樓","E_COORD97":169120.39000000001,"N_COORD97":2547489.3900000001,"ADDRESS":"惠安街２４巷１０號七樓","OBJECTID":449306},"geometry":{"x":169120.38999999966,"y":2547489.3900000006}},{"attributes":{"ID":449332,"DIS_CODE":0,"TOWNNAME":"安南區","LI":"溪北里","LIN":"18鄰","STREET":"惠安街","SECT":" ","MAREA":" ","LANE":"２４巷","ALLEY":" ","HOUSE_NO":"１０號九樓","E_COORD97":169120.39000000001,"N_COORD97":2547489.3900000001,"ADDRESS":"惠安街２４巷１０號九樓","OBJECTID":449307},"geometry":{"x":169120.38999999966,"y":2547489.3900000006}},{"attributes":{"ID":449333,"DIS_CODE":0,"TOWNNAME":"安南區","LI":"溪北里","LIN":"18鄰","STREET":"惠安街","SECT":" ","MAREA":" ","LANE":"２４巷","ALLEY":" ","HOUSE_NO":"１０號二樓","E_COORD97":169120.39000000001,"N_COORD97":2547489.3900000001,"ADDRESS":"惠安街２４巷１０號二樓","OBJECTID":449308},"geometry":{"x":169120.38999999966,"y":2547489.3900000006}},{"attributes":{"ID":449334,"DIS_CODE":0,"TOWNNAME":"安南區","LI":"溪北里","LIN":"18鄰","STREET":"惠安街","SECT":" ","MAREA":" ","LANE":"２４巷","ALLEY":" ","HOUSE_NO":"１０號八樓","E_COORD97":169120.39000000001,"N_COORD97":2547489.3900000001,"ADDRESS":"惠安街２４巷１０號八樓","OBJECTID":449309},"geometry":{"x":169120.38999999966,"y":2547489.3900000006}},{"attributes":{"ID":449335,"DIS_CODE":0,"TOWNNAME":"安南區","LI":"溪北里","LIN":"18鄰","STREET":"惠安街","SECT":" ","MAREA":" ","LANE":"２４巷","ALLEY":" ","HOUSE_NO":"１０號三樓","E_COORD97":169120.39000000001,"N_COORD97":2547489.3900000001,"ADDRESS":"惠安街２４巷１０號三樓","OBJECTID":449310},"geometry":{"x":169120.38999999966,"y":2547489.3900000006}},{"attributes":{"ID":449336,"DIS_CODE":0,"TOWNNAME":"安南區","LI":"溪北里","LIN":"18鄰","STREET":"惠安街","SECT":" ","MAREA":" ","LANE":"２４巷","ALLEY":" ","HOUSE_NO":"１０號五樓","E_COORD97":169120.39000000001,"N_COORD97":2547489.3900000001,"ADDRESS":"惠安街２４巷１０號五樓","OBJECTID":449311},"geometry":{"x":169120.38999999966,"y":2547489.3900000006}},{"attributes":{"ID":449337,"DIS_CODE":0,"TOWNNAME":"安南區","LI":"溪北里","LIN":"18鄰","STREET":"惠安街","SECT":" ","MAREA":" ","LANE":"２４巷","ALLEY":" ","HOUSE_NO":"１０號六樓","E_COORD97":169120.39000000001,"N_COORD97":2547489.3900000001,"ADDRESS":"惠安街２４巷１０號六樓","OBJECTID":449312},"geometry":{"x":169120.38999999966,"y":2547489.3900000006}},{"attributes":{"ID":449338,"DIS_CODE":0,"TOWNNAME":"安南區","LI":"溪北里","LIN":"18鄰","STREET":"惠安街","SECT":" ","MAREA":" ","LANE":"２４巷","ALLEY":" ","HOUSE_NO":"１０號四樓","E_COORD97":169120.39000000001,"N_COORD97":2547489.3900000001,"ADDRESS":"惠安街２４巷１０號四樓","OBJECTID":449313},"geometry":{"x":169120.38999999966,"y":2547489.3900000006}},{"attributes":{"ID":449339,"DIS_CODE":0,"TOWNNAME":"安南區","LI":"溪北里","LIN":"18鄰","STREET":"惠安街","SECT":" ","MAREA":" ","LANE":"２４巷","ALLEY":" ","HOUSE_NO":"１２號七樓","E_COORD97":169127.89999999999,"N_COORD97":2547489.3900000001,"ADDRESS":"惠安街２４巷１２號七樓","OBJECTID":449314},"geometry":{"x":169127.90000000037,"y":2547489.3900000006}},{"attributes":{"ID":449340,"DIS_CODE":0,"TOWNNAME":"安南區","LI":"溪北里","LIN":"18鄰","STREET":"惠安街","SECT":" ","MAREA":" ","LANE":"２４巷","ALLEY":" ","HOUSE_NO":"１２號九樓","E_COORD97":169127.89999999999,"N_COORD97":2547489.3900000001,"ADDRESS":"惠安街２４巷１２號九樓","OBJECTID":449315},"geometry":{"x":169127.90000000037,"y":2547489.3900000006}},{"attributes":{"ID":449341,"DIS_CODE":0,"TOWNNAME":"安南區","LI":"溪北里","LIN":"18鄰","STREET":"惠安街","SECT":" ","MAREA":" ","LANE":"２４巷","ALLEY":" ","HOUSE_NO":"１２號二樓","E_COORD97":169127.89999999999,"N_COORD97":2547489.3900000001,"ADDRESS":"惠安街２４巷１２號二樓","OBJECTID":449316},"geometry":{"x":169127.90000000037,"y":2547489.3900000006}},{"attributes":{"ID":449342,"DIS_CODE":0,"TOWNNAME":"安南區","LI":"溪北里","LIN":"18鄰","STREET":"惠安街","SECT":" ","MAREA":" ","LANE":"２４巷","ALLEY":" ","HOUSE_NO":"１２號八樓","E_COORD97":169127.89999999999,"N_COORD97":2547489.3900000001,"ADDRESS":"惠安街２４巷１２號八樓","OBJECTID":449317},"geometry":{"x":169127.90000000037,"y":2547489.3900000006}},{"attributes":{"ID":449343,"DIS_CODE":0,"TOWNNAME":"安南區","LI":"溪北里","LIN":"18鄰","STREET":"惠安街","SECT":" ","MAREA":" ","LANE":"２４巷","ALLEY":" ","HOUSE_NO":"１２號三樓","E_COORD97":169127.89999999999,"N_COORD97":2547489.3900000001,"ADDRESS":"惠安街２４巷１２號三樓","OBJECTID":449318},"geometry":{"x":169127.90000000037,"y":2547489.3900000006}},{"attributes":{"ID":449344,"DIS_CODE":0,"TOWNNAME":"安南區","LI":"溪北里","LIN":"18鄰","STREET":"惠安街","SECT":" ","MAREA":" ","LANE":"２４巷","ALLEY":" ","HOUSE_NO":"１２號五樓","E_COORD97":169127.89999999999,"N_COORD97":2547489.3900000001,"ADDRESS":"惠安街２４巷１２號五樓","OBJECTID":449319},"geometry":{"x":169127.90000000037,"y":2547489.3900000006}},{"attributes":{"ID":449345,"DIS_CODE":0,"TOWNNAME":"安南區","LI":"溪北里","LIN":"18鄰","STREET":"惠安街","SECT":" ","MAREA":" ","LANE":"２４巷","ALLEY":" ","HOUSE_NO":"１２號六樓","E_COORD97":169127.89999999999,"N_COORD97":2547489.3900000001,"ADDRESS":"惠安街２４巷１２號六樓","OBJECTID":449320},"geometry":{"x":169127.90000000037,"y":2547489.3900000006}},{"attributes":{"ID":449346,"DIS_CODE":0,"TOWNNAME":"安南區","LI":"溪北里","LIN":"18鄰","STREET":"惠安街","SECT":" ","MAREA":" ","LANE":"２４巷","ALLEY":" ","HOUSE_NO":"１２號四樓","E_COORD97":169127.89999999999,"N_COORD97":2547489.3900000001,"ADDRESS":"惠安街２４巷１２號四樓","OBJECTID":449321},"geometry":{"x":169127.90000000037,"y":2547489.3900000006}},{"attributes":{"ID":449347,"DIS_CODE":0,"TOWNNAME":"安南區","LI":"溪北里","LIN":"18鄰","STREET":"惠安街","SECT":" ","MAREA":" ","LANE":"２４巷","ALLEY":" ","HOUSE_NO":"１４號二樓","E_COORD97":169130.62,"N_COORD97":2547501.4199999999,"ADDRESS":"惠安街２４巷１４號二樓","OBJECTID":449322},"geometry":{"x":169130.62000000011,"y":2547501.4200000018}},{"attributes":{"ID":449348,"DIS_CODE":0,"TOWNNAME":"將軍區","LI":"廣山里","LIN":"13鄰","STREET":" ","SECT":" ","MAREA":"廣山","LANE":" ","ALLEY":" ","HOUSE_NO":"１３５號","E_COORD97":159526.88696800001,"N_COORD97":2569164.3287200001,"ADDRESS":"廣山１３５號","OBJECTID":449323},"geometry":{"x":159526.88696800079,"y":2569164.3287170008}},{"attributes":{"ID":449349,"DIS_CODE":0,"TOWNNAME":"安南區","LI":"溪北里","LIN":"18鄰","STREET":"惠安街","SECT":" ","MAREA":" ","LANE":"２４巷","ALLEY":" ","HOUSE_NO":"１４號八樓","E_COORD97":169130.62,"N_COORD97":2547501.4199999999,"ADDRESS":"惠安街２４巷１４號八樓","OBJECTID":449324},"geometry":{"x":169130.62000000011,"y":2547501.4200000018}},{"attributes":{"ID":449350,"DIS_CODE":0,"TOWNNAME":"安南區","LI":"溪北里","LIN":"18鄰","STREET":"惠安街","SECT":" ","MAREA":" ","LANE":"２４巷","ALLEY":" ","HOUSE_NO":"１４號六樓","E_COORD97":169130.62,"N_COORD97":2547501.4199999999,"ADDRESS":"惠安街２４巷１４號六樓","OBJECTID":449325},"geometry":{"x":169130.62000000011,"y":2547501.4200000018}},{"attributes":{"ID":449351,"DIS_CODE":0,"TOWNNAME":"安南區","LI":"溪北里","LIN":"18鄰","STREET":"惠安街","SECT":" ","MAREA":" ","LANE":"２４巷","ALLEY":" ","HOUSE_NO":"１４號四樓","E_COORD97":169130.62,"N_COORD97":2547501.4199999999,"ADDRESS":"惠安街２４巷１４號四樓","OBJECTID":449326},"geometry":{"x":169130.62000000011,"y":2547501.4200000018}},{"attributes":{"ID":449352,"DIS_CODE":0,"TOWNNAME":"安南區","LI":"溪北里","LIN":"18鄰","STREET":"惠安街","SECT":" ","MAREA":" ","LANE":"２４巷","ALLEY":" ","HOUSE_NO":"１６號二樓","E_COORD97":169130.62,"N_COORD97":2547507.2400000002,"ADDRESS":"惠安街２４巷１６號二樓","OBJECTID":449327},"geometry":{"x":169130.62000000011,"y":2547507.2400000002}},{"attributes":{"ID":449353,"DIS_CODE":0,"TOWNNAME":"安南區","LI":"溪北里","LIN":"18鄰","STREET":"惠安街","SECT":" ","MAREA":" ","LANE":"２４巷","ALLEY":" ","HOUSE_NO":"１６號八樓","E_COORD97":169130.62,"N_COORD97":2547507.2400000002,"ADDRESS":"惠安街２４巷１６號八樓","OBJECTID":449328},"geometry":{"x":169130.62000000011,"y":2547507.2400000002}},{"attributes":{"ID":449354,"DIS_CODE":0,"TOWNNAME":"安南區","LI":"溪北里","LIN":"18鄰","STREET":"惠安街","SECT":" ","MAREA":" ","LANE":"２４巷","ALLEY":" ","HOUSE_NO":"１６號六樓","E_COORD97":169130.62,"N_COORD97":2547507.2400000002,"ADDRESS":"惠安街２４巷１６號六樓","OBJECTID":449329},"geometry":{"x":169130.62000000011,"y":2547507.2400000002}},{"attributes":{"ID":449355,"DIS_CODE":0,"TOWNNAME":"安南區","LI":"溪北里","LIN":"18鄰","STREET":"惠安街","SECT":" ","MAREA":" ","LANE":"２４巷","ALLEY":" ","HOUSE_NO":"１６號四樓","E_COORD97":169130.62,"N_COORD97":2547507.2400000002,"ADDRESS":"惠安街２４巷１６號四樓","OBJECTID":449330},"geometry":{"x":169130.62000000011,"y":2547507.2400000002}},{"attributes":{"ID":449356,"DIS_CODE":0,"TOWNNAME":"安南區","LI":"溪北里","LIN":"18鄰","STREET":"惠安街","SECT":" ","MAREA":" ","LANE":"２４巷","ALLEY":" ","HOUSE_NO":"１８號九樓","E_COORD97":169130.10000000001,"N_COORD97":2547512.7999999998,"ADDRESS":"惠安街２４巷１８號九樓","OBJECTID":449331},"geometry":{"x":169130.10000000056,"y":2547512.8000000026}},{"attributes":{"ID":449357,"DIS_CODE":0,"TOWNNAME":"安南區","LI":"溪北里","LIN":"18鄰","STREET":"惠安街","SECT":" ","MAREA":" ","LANE":"２４巷","ALLEY":" ","HOUSE_NO":"１８號三樓","E_COORD97":169130.10000000001,"N_COORD97":2547512.7999999998,"ADDRESS":"惠安街２４巷１８號三樓","OBJECTID":449332},"geometry":{"x":169130.10000000056,"y":2547512.8000000026}},{"attributes":{"ID":449358,"DIS_CODE":0,"TOWNNAME":"安南區","LI":"溪北里","LIN":"18鄰","STREET":"惠安街","SECT":" ","MAREA":" ","LANE":"２４巷","ALLEY":" ","HOUSE_NO":"１８號五樓","E_COORD97":169130.10000000001,"N_COORD97":2547512.7999999998,"ADDRESS":"惠安街２４巷１８號五樓","OBJECTID":449333},"geometry":{"x":169130.10000000056,"y":2547512.8000000026}},{"attributes":{"ID":449359,"DIS_CODE":0,"TOWNNAME":"安南區","LI":"溪北里","LIN":"18鄰","STREET":"惠安街","SECT":" ","MAREA":" ","LANE":"２４巷","ALLEY":" ","HOUSE_NO":"２０號七樓","E_COORD97":169129.67000000001,"N_COORD97":2547519.5099999998,"ADDRESS":"惠安街２４巷２０號七樓","OBJECTID":449334},"geometry":{"x":169129.67000000086,"y":2547519.5100000035}},{"attributes":{"ID":449360,"DIS_CODE":0,"TOWNNAME":"安南區","LI":"溪北里","LIN":"18鄰","STREET":"惠安街","SECT":" ","MAREA":" ","LANE":"２４巷","ALLEY":" ","HOUSE_NO":"２０號九樓","E_COORD97":169129.67000000001,"N_COORD97":2547519.5099999998,"ADDRESS":"惠安街２４巷２０號九樓","OBJECTID":449335},"geometry":{"x":169129.67000000086,"y":2547519.5100000035}},{"attributes":{"ID":449361,"DIS_CODE":0,"TOWNNAME":"安南區","LI":"溪北里","LIN":"18鄰","STREET":"惠安街","SECT":" ","MAREA":" ","LANE":"２４巷","ALLEY":" ","HOUSE_NO":"２０號三樓","E_COORD97":169129.67000000001,"N_COORD97":2547519.5099999998,"ADDRESS":"惠安街２４巷２０號三樓","OBJECTID":449336},"geometry":{"x":169129.67000000086,"y":2547519.5100000035}},{"attributes":{"ID":449362,"DIS_CODE":0,"TOWNNAME":"安南區","LI":"溪北里","LIN":"18鄰","STREET":"惠安街","SECT":" ","MAREA":" ","LANE":"２４巷","ALLEY":" ","HOUSE_NO":"２０號五樓","E_COORD97":169129.67000000001,"N_COORD97":2547519.5099999998,"ADDRESS":"惠安街２４巷２０號五樓","OBJECTID":449337},"geometry":{"x":169129.67000000086,"y":2547519.5100000035}},{"attributes":{"ID":449363,"DIS_CODE":0,"TOWNNAME":"安南區","LI":"溪北里","LIN":"18鄰","STREET":"惠安街","SECT":" ","MAREA":" ","LANE":"２４巷","ALLEY":" ","HOUSE_NO":"２２號七樓","E_COORD97":169125.91,"N_COORD97":2547525.98,"ADDRESS":"惠安街２４巷２２號七樓","OBJECTID":449338},"geometry":{"x":169125.91000000015,"y":2547525.9800000004}},{"attributes":{"ID":449364,"DIS_CODE":0,"TOWNNAME":"安南區","LI":"溪北里","LIN":"18鄰","STREET":"惠安街","SECT":" ","MAREA":" ","LANE":"２４巷","ALLEY":" ","HOUSE_NO":"２２號三樓","E_COORD97":169125.91,"N_COORD97":2547525.98,"ADDRESS":"惠安街２４巷２２號三樓","OBJECTID":449339},"geometry":{"x":169125.91000000015,"y":2547525.9800000004}},{"attributes":{"ID":449365,"DIS_CODE":0,"TOWNNAME":"安南區","LI":"溪北里","LIN":"18鄰","STREET":"惠安街","SECT":" ","MAREA":" ","LANE":"２４巷","ALLEY":" ","HOUSE_NO":"２２號五樓","E_COORD97":169125.91,"N_COORD97":2547525.98,"ADDRESS":"惠安街２４巷２２號五樓","OBJECTID":449340},"geometry":{"x":169125.91000000015,"y":2547525.9800000004}},{"attributes":{"ID":449366,"DIS_CODE":0,"TOWNNAME":"安南區","LI":"溪北里","LIN":"18鄰","STREET":"惠安街","SECT":" ","MAREA":" ","LANE":"２４巷","ALLEY":" ","HOUSE_NO":"２４號七樓","E_COORD97":169124.95000000001,"N_COORD97":2547531.9500000002,"ADDRESS":"惠安街２４巷２４號七樓","OBJECTID":449341},"geometry":{"x":169124.95000000112,"y":2547531.9499999993}},{"attributes":{"ID":449367,"DIS_CODE":0,"TOWNNAME":"安南區","LI":"溪北里","LIN":"18鄰","STREET":"惠安街","SECT":" ","MAREA":" ","LANE":"２４巷","ALLEY":" ","HOUSE_NO":"２４號三樓","E_COORD97":169124.95000000001,"N_COORD97":2547531.9500000002,"ADDRESS":"惠安街２４巷２４號三樓","OBJECTID":449342},"geometry":{"x":169124.95000000112,"y":2547531.9499999993}},{"attributes":{"ID":449368,"DIS_CODE":0,"TOWNNAME":"安南區","LI":"溪北里","LIN":"18鄰","STREET":"惠安街","SECT":" ","MAREA":" ","LANE":"２４巷","ALLEY":" ","HOUSE_NO":"２４號五樓","E_COORD97":169124.95000000001,"N_COORD97":2547531.9500000002,"ADDRESS":"惠安街２４巷２４號五樓","OBJECTID":449343},"geometry":{"x":169124.95000000112,"y":2547531.9499999993}},{"attributes":{"ID":449369,"DIS_CODE":0,"TOWNNAME":"安南區","LI":"溪北里","LIN":"18鄰","STREET":"惠安街","SECT":" ","MAREA":" ","LANE":"２４巷","ALLEY":" ","HOUSE_NO":"６號七樓","E_COORD97":169103.16,"N_COORD97":2547488.6200000001,"ADDRESS":"惠安街２４巷６號七樓","OBJECTID":449344},"geometry":{"x":169103.16000000108,"y":2547488.620000001}},{"attributes":{"ID":449370,"DIS_CODE":0,"TOWNNAME":"安南區","LI":"溪北里","LIN":"18鄰","STREET":"惠安街","SECT":" ","MAREA":" ","LANE":"２４巷","ALLEY":" ","HOUSE_NO":"６號九樓","E_COORD97":169103.16,"N_COORD97":2547488.6200000001,"ADDRESS":"惠安街２４巷６號九樓","OBJECTID":449345},"geometry":{"x":169103.16000000108,"y":2547488.620000001}},{"attributes":{"ID":449371,"DIS_CODE":0,"TOWNNAME":"安南區","LI":"溪北里","LIN":"18鄰","STREET":"惠安街","SECT":" ","MAREA":" ","LANE":"２４巷","ALLEY":" ","HOUSE_NO":"６號三樓","E_COORD97":169103.16,"N_COORD97":2547488.6200000001,"ADDRESS":"惠安街２４巷６號三樓","OBJECTID":449346},"geometry":{"x":169103.16000000108,"y":2547488.620000001}},{"attributes":{"ID":449372,"DIS_CODE":0,"TOWNNAME":"安南區","LI":"溪北里","LIN":"18鄰","STREET":"惠安街","SECT":" ","MAREA":" ","LANE":"２４巷","ALLEY":" ","HOUSE_NO":"６號五樓","E_COORD97":169103.16,"N_COORD97":2547488.6200000001,"ADDRESS":"惠安街２４巷６號五樓","OBJECTID":449347},"geometry":{"x":169103.16000000108,"y":2547488.620000001}},{"attributes":{"ID":449373,"DIS_CODE":0,"TOWNNAME":"安南區","LI":"溪北里","LIN":"18鄰","STREET":"惠安街","SECT":" ","MAREA":" ","LANE":"２４巷","ALLEY":" ","HOUSE_NO":"８號七樓","E_COORD97":169111.70999999999,"N_COORD97":2547489.1299999999,"ADDRESS":"惠安街２４巷８號七樓","OBJECTID":449348},"geometry":{"x":169111.70999999996,"y":2547489.129999999}},{"attributes":{"ID":449374,"DIS_CODE":0,"TOWNNAME":"南區","LI":"永寧里","LIN":"18鄰","STREET":"灣裡路","SECT":" ","MAREA":" ","LANE":"２３５巷","ALLEY":" ","HOUSE_NO":"５號","E_COORD97":166132.82000000001,"N_COORD97":2536502.4700000002,"ADDRESS":"灣裡路２３５巷５號","OBJECTID":449349},"geometry":{"x":166132.8200000003,"y":2536502.4700000025}},{"attributes":{"ID":449375,"DIS_CODE":0,"TOWNNAME":"安南區","LI":"溪北里","LIN":"18鄰","STREET":"惠安街","SECT":" ","MAREA":" ","LANE":"２４巷","ALLEY":" ","HOUSE_NO":"８號九樓","E_COORD97":169111.70999999999,"N_COORD97":2547489.1299999999,"ADDRESS":"惠安街２４巷８號九樓","OBJECTID":449350},"geometry":{"x":169111.70999999996,"y":2547489.129999999}},{"attributes":{"ID":449376,"DIS_CODE":0,"TOWNNAME":"安南區","LI":"溪北里","LIN":"18鄰","STREET":"惠安街","SECT":" ","MAREA":" ","LANE":"２４巷","ALLEY":" ","HOUSE_NO":"８號三樓","E_COORD97":169111.70999999999,"N_COORD97":2547489.1299999999,"ADDRESS":"惠安街２４巷８號三樓","OBJECTID":449351},"geometry":{"x":169111.70999999996,"y":2547489.129999999}},{"attributes":{"ID":449377,"DIS_CODE":0,"TOWNNAME":"安南區","LI":"溪北里","LIN":"18鄰","STREET":"惠安街","SECT":" ","MAREA":" ","LANE":"２４巷","ALLEY":" ","HOUSE_NO":"８號五樓","E_COORD97":169111.70999999999,"N_COORD97":2547489.1299999999,"ADDRESS":"惠安街２４巷８號五樓","OBJECTID":449352},"geometry":{"x":169111.70999999996,"y":2547489.129999999}},{"attributes":{"ID":449378,"DIS_CODE":0,"TOWNNAME":"永康區","LI":"五王里","LIN":"18鄰","STREET":"成功路","SECT":" ","MAREA":" ","LANE":"１８８巷","ALLEY":" ","HOUSE_NO":"２號七樓之１","E_COORD97":171440.85999999999,"N_COORD97":2545664.04,"ADDRESS":"成功路１８８巷２號七樓之１","OBJECTID":449353},"geometry":{"x":171440.86000000127,"y":2545664.0400000028}},{"attributes":{"ID":449379,"DIS_CODE":0,"TOWNNAME":"永康區","LI":"五王里","LIN":"18鄰","STREET":"成功路","SECT":" ","MAREA":" ","LANE":"１８８巷","ALLEY":" ","HOUSE_NO":"２號四樓之８","E_COORD97":171441.01000000001,"N_COORD97":2545664.04,"ADDRESS":"成功路１８８巷２號四樓之８","OBJECTID":449354},"geometry":{"x":171441.01000000071,"y":2545664.0400000028}},{"attributes":{"ID":449380,"DIS_CODE":0,"TOWNNAME":"永康區","LI":"五王里","LIN":"18鄰","STREET":"成功路","SECT":" ","MAREA":" ","LANE":"１８８巷","ALLEY":" ","HOUSE_NO":"２號四樓之６","E_COORD97":171440.97,"N_COORD97":2545664.04,"ADDRESS":"成功路１８８巷２號四樓之６","OBJECTID":449355},"geometry":{"x":171440.9700000016,"y":2545664.0400000028}},{"attributes":{"ID":449381,"DIS_CODE":0,"TOWNNAME":"永康區","LI":"五王里","LIN":"18鄰","STREET":"成功路","SECT":" ","MAREA":" ","LANE":"１８８巷","ALLEY":" ","HOUSE_NO":"２２號三樓","E_COORD97":171490.92000000001,"N_COORD97":2545699.52,"ADDRESS":"成功路１８８巷２２號三樓","OBJECTID":449356},"geometry":{"x":171490.92000000086,"y":2545699.5200000014}},{"attributes":{"ID":449382,"DIS_CODE":0,"TOWNNAME":"永康區","LI":"五王里","LIN":"18鄰","STREET":"成功路","SECT":" ","MAREA":" ","LANE":"１８８巷","ALLEY":" ","HOUSE_NO":"２號六樓之２","E_COORD97":171441,"N_COORD97":2545664.04,"ADDRESS":"成功路１８８巷２號六樓之２","OBJECTID":449357},"geometry":{"x":171441.00000000186,"y":2545664.0400000028}},{"attributes":{"ID":449383,"DIS_CODE":0,"TOWNNAME":"永康區","LI":"五王里","LIN":"18鄰","STREET":"成功路","SECT":" ","MAREA":" ","LANE":"１８８巷","ALLEY":" ","HOUSE_NO":"２號五樓之６","E_COORD97":171440.97,"N_COORD97":2545664.04,"ADDRESS":"成功路１８８巷２號五樓之６","OBJECTID":449358},"geometry":{"x":171440.9700000016,"y":2545664.0400000028}},{"attributes":{"ID":449384,"DIS_CODE":0,"TOWNNAME":"永康區","LI":"五王里","LIN":"18鄰","STREET":"成功路","SECT":" ","MAREA":" ","LANE":"１８８巷","ALLEY":" ","HOUSE_NO":"２號七樓之７","E_COORD97":171440.94,"N_COORD97":2545664.04,"ADDRESS":"成功路１８８巷２號七樓之７","OBJECTID":449359},"geometry":{"x":171440.94000000041,"y":2545664.0400000028}},{"attributes":{"ID":449385,"DIS_CODE":0,"TOWNNAME":"永康區","LI":"五王里","LIN":"18鄰","STREET":"成功路","SECT":" ","MAREA":" ","LANE":"１８８巷","ALLEY":" ","HOUSE_NO":"２號七樓之２","E_COORD97":171441,"N_COORD97":2545664.04,"ADDRESS":"成功路１８８巷２號七樓之２","OBJECTID":449360},"geometry":{"x":171441.00000000186,"y":2545664.0400000028}},{"attributes":{"ID":449386,"DIS_CODE":0,"TOWNNAME":"永康區","LI":"復華里","LIN":"18鄰","STREET":"國華街","SECT":" ","MAREA":" ","LANE":"１０２巷","ALLEY":" ","HOUSE_NO":"５７號六樓之２","E_COORD97":172849.67999999999,"N_COORD97":2546104.52,"ADDRESS":"國華街１０２巷５７號六樓之２","OBJECTID":449361},"geometry":{"x":172849.67999999877,"y":2546104.5199999996}},{"attributes":{"ID":449387,"DIS_CODE":0,"TOWNNAME":"永康區","LI":"復華里","LIN":"18鄰","STREET":"國華街","SECT":" ","MAREA":" ","LANE":"１０２巷","ALLEY":" ","HOUSE_NO":"６１號三樓之２","E_COORD97":172855.89000000001,"N_COORD97":2546125.0099999998,"ADDRESS":"國華街１０２巷６１號三樓之２","OBJECTID":449362},"geometry":{"x":172855.8900000006,"y":2546125.0099999998}},{"attributes":{"ID":449388,"DIS_CODE":0,"TOWNNAME":"永康區","LI":"復華里","LIN":"18鄰","STREET":"國華街","SECT":" ","MAREA":" ","LANE":"１０２巷","ALLEY":" ","HOUSE_NO":"５７號二樓之２","E_COORD97":172849.67999999999,"N_COORD97":2546104.52,"ADDRESS":"國華街１０２巷５７號二樓之２","OBJECTID":449363},"geometry":{"x":172849.67999999877,"y":2546104.5199999996}},{"attributes":{"ID":449389,"DIS_CODE":0,"TOWNNAME":"永康區","LI":"復華里","LIN":"18鄰","STREET":"國華街","SECT":" ","MAREA":" ","LANE":"１０２巷","ALLEY":" ","HOUSE_NO":"５７號十樓之１","E_COORD97":172849.54999999999,"N_COORD97":2546104.52,"ADDRESS":"國華街１０２巷５７號十樓之１","OBJECTID":449364},"geometry":{"x":172849.55000000075,"y":2546104.5199999996}},{"attributes":{"ID":449390,"DIS_CODE":0,"TOWNNAME":"永康區","LI":"復華里","LIN":"18鄰","STREET":"國華街","SECT":" ","MAREA":" ","LANE":"１０２巷","ALLEY":" ","HOUSE_NO":"５７號九樓之２","E_COORD97":172849.67999999999,"N_COORD97":2546104.52,"ADDRESS":"國華街１０２巷５７號九樓之２","OBJECTID":449365},"geometry":{"x":172849.67999999877,"y":2546104.5199999996}},{"attributes":{"ID":449391,"DIS_CODE":0,"TOWNNAME":"永康區","LI":"復華里","LIN":"18鄰","STREET":"國華街","SECT":" ","MAREA":" ","LANE":"１０２巷","ALLEY":" ","HOUSE_NO":"５９號十樓之３","E_COORD97":172842.51000000001,"N_COORD97":2546109.02,"ADDRESS":"國華街１０２巷５９號十樓之３","OBJECTID":449366},"geometry":{"x":172842.51000000164,"y":2546109.0200000014}},{"attributes":{"ID":449392,"DIS_CODE":0,"TOWNNAME":"永康區","LI":"復華里","LIN":"18鄰","STREET":"國華街","SECT":" ","MAREA":" ","LANE":"１０２巷","ALLEY":" ","HOUSE_NO":"５９號十樓之１","E_COORD97":172842.41,"N_COORD97":2546109.02,"ADDRESS":"國華街１０２巷５９號十樓之１","OBJECTID":449367},"geometry":{"x":172842.41000000108,"y":2546109.0200000014}},{"attributes":{"ID":449393,"DIS_CODE":0,"TOWNNAME":"永康區","LI":"復華里","LIN":"18鄰","STREET":"國華街","SECT":" ","MAREA":" ","LANE":"１０２巷","ALLEY":" ","HOUSE_NO":"５９號七樓之２","E_COORD97":172842.54000000001,"N_COORD97":2546109.02,"ADDRESS":"國華街１０２巷５９號七樓之２","OBJECTID":449368},"geometry":{"x":172842.53999999911,"y":2546109.0200000014}},{"attributes":{"ID":449394,"DIS_CODE":0,"TOWNNAME":"永康區","LI":"復華里","LIN":"18鄰","STREET":"國華街","SECT":" ","MAREA":" ","LANE":"１０２巷","ALLEY":" ","HOUSE_NO":"６１號五樓之２","E_COORD97":172855.89000000001,"N_COORD97":2546125.0099999998,"ADDRESS":"國華街１０２巷６１號五樓之２","OBJECTID":449369},"geometry":{"x":172855.8900000006,"y":2546125.0099999998}},{"attributes":{"ID":449395,"DIS_CODE":0,"TOWNNAME":"永康區","LI":"復華里","LIN":"18鄰","STREET":"國華街","SECT":" ","MAREA":" ","LANE":"１０２巷","ALLEY":" ","HOUSE_NO":"６１號四樓之３","E_COORD97":172855.85000000001,"N_COORD97":2546125.0099999998,"ADDRESS":"國華街１０２巷６１號四樓之３","OBJECTID":449370},"geometry":{"x":172855.85000000056,"y":2546125.0099999998}},{"attributes":{"ID":449396,"DIS_CODE":0,"TOWNNAME":"永康區","LI":"復華里","LIN":"18鄰","STREET":"國華街","SECT":" ","MAREA":" ","LANE":"１０２巷","ALLEY":" ","HOUSE_NO":"５９號三樓之２","E_COORD97":172842.54000000001,"N_COORD97":2546109.02,"ADDRESS":"國華街１０２巷５９號三樓之２","OBJECTID":449371},"geometry":{"x":172842.53999999911,"y":2546109.0200000014}},{"attributes":{"ID":449397,"DIS_CODE":0,"TOWNNAME":"永康區","LI":"復華里","LIN":"18鄰","STREET":"國華街","SECT":" ","MAREA":" ","LANE":"１０２巷","ALLEY":" ","HOUSE_NO":"６１號九樓之３","E_COORD97":172855.85000000001,"N_COORD97":2546125.0099999998,"ADDRESS":"國華街１０２巷６１號九樓之３","OBJECTID":449372},"geometry":{"x":172855.85000000056,"y":2546125.0099999998}},{"attributes":{"ID":449398,"DIS_CODE":0,"TOWNNAME":"永康區","LI":"復華里","LIN":"18鄰","STREET":"國華街","SECT":" ","MAREA":" ","LANE":"１０２巷","ALLEY":" ","HOUSE_NO":"６１號三樓之１","E_COORD97":172855.75,"N_COORD97":2546125.0099999998,"ADDRESS":"國華街１０２巷６１號三樓之１","OBJECTID":449373},"geometry":{"x":172855.75,"y":2546125.0099999998}},{"attributes":{"ID":449399,"DIS_CODE":0,"TOWNNAME":"永康區","LI":"復華里","LIN":"18鄰","STREET":"國華街","SECT":" ","MAREA":" ","LANE":"１０２巷","ALLEY":" ","HOUSE_NO":"５９號八樓之２","E_COORD97":172842.54000000001,"N_COORD97":2546109.02,"ADDRESS":"國華街１０２巷５９號八樓之２","OBJECTID":449374},"geometry":{"x":172842.53999999911,"y":2546109.0200000014}},{"attributes":{"ID":449400,"DIS_CODE":0,"TOWNNAME":"永康區","LI":"復華里","LIN":"18鄰","STREET":"國華街","SECT":" ","MAREA":" ","LANE":"１０２巷","ALLEY":" ","HOUSE_NO":"５９號四樓之１","E_COORD97":172842.41,"N_COORD97":2546109.02,"ADDRESS":"國華街１０２巷５９號四樓之１","OBJECTID":449375},"geometry":{"x":172842.41000000108,"y":2546109.0200000014}},{"attributes":{"ID":449401,"DIS_CODE":0,"TOWNNAME":"永康區","LI":"復華里","LIN":"18鄰","STREET":"國華街","SECT":" ","MAREA":" ","LANE":"１０２巷","ALLEY":" ","HOUSE_NO":"５７號四樓之１","E_COORD97":172849.54999999999,"N_COORD97":2546104.52,"ADDRESS":"國華街１０２巷５７號四樓之１","OBJECTID":449376},"geometry":{"x":172849.55000000075,"y":2546104.5199999996}},{"attributes":{"ID":449402,"DIS_CODE":0,"TOWNNAME":"永康區","LI":"復華里","LIN":"18鄰","STREET":"國華街","SECT":" ","MAREA":" ","LANE":"１０２巷","ALLEY":" ","HOUSE_NO":"５７號五樓之１","E_COORD97":172849.54999999999,"N_COORD97":2546104.52,"ADDRESS":"國華街１０２巷５７號五樓之１","OBJECTID":449377},"geometry":{"x":172849.55000000075,"y":2546104.5199999996}},{"attributes":{"ID":449403,"DIS_CODE":0,"TOWNNAME":"中西區","LI":"藥王里","LIN":"18鄰","STREET":"民權路","SECT":"三段","MAREA":" ","LANE":"４００巷","ALLEY":" ","HOUSE_NO":"３１號七樓","E_COORD97":166924.23999999999,"N_COORD97":2544482.6699999999,"ADDRESS":"民權路三段４００巷３１號七樓","OBJECTID":449378},"geometry":{"x":166924.24000000115,"y":2544482.6699999999}},{"attributes":{"ID":449404,"DIS_CODE":0,"TOWNNAME":"東區","LI":"小東里","LIN":"18鄰","STREET":"東和路","SECT":" ","MAREA":" ","LANE":"５７巷","ALLEY":" ","HOUSE_NO":"１６號五樓","E_COORD97":170944.37,"N_COORD97":2544269.3399999999,"ADDRESS":"東和路５７巷１６號五樓","OBJECTID":449379},"geometry":{"x":170944.37000000104,"y":2544269.3400000036}},{"attributes":{"ID":449405,"DIS_CODE":0,"TOWNNAME":"中西區","LI":"藥王里","LIN":"18鄰","STREET":"民權路","SECT":"三段","MAREA":" ","LANE":"４００巷","ALLEY":" ","HOUSE_NO":"３１號九樓","E_COORD97":166924.23999999999,"N_COORD97":2544482.6699999999,"ADDRESS":"民權路三段４００巷３１號九樓","OBJECTID":449380},"geometry":{"x":166924.24000000115,"y":2544482.6699999999}},{"attributes":{"ID":449406,"DIS_CODE":0,"TOWNNAME":"中西區","LI":"藥王里","LIN":"18鄰","STREET":"民權路","SECT":"三段","MAREA":" ","LANE":"４００巷","ALLEY":" ","HOUSE_NO":"３１號二樓","E_COORD97":166924.23999999999,"N_COORD97":2544482.6699999999,"ADDRESS":"民權路三段４００巷３１號二樓","OBJECTID":449381},"geometry":{"x":166924.24000000115,"y":2544482.6699999999}},{"attributes":{"ID":449407,"DIS_CODE":0,"TOWNNAME":"中西區","LI":"藥王里","LIN":"18鄰","STREET":"民權路","SECT":"三段","MAREA":" ","LANE":"４００巷","ALLEY":" ","HOUSE_NO":"３１號八樓","E_COORD97":166924.23999999999,"N_COORD97":2544482.6699999999,"ADDRESS":"民權路三段４００巷３１號八樓","OBJECTID":449382},"geometry":{"x":166924.24000000115,"y":2544482.6699999999}},{"attributes":{"ID":449408,"DIS_CODE":0,"TOWNNAME":"中西區","LI":"藥王里","LIN":"18鄰","STREET":"民權路","SECT":"三段","MAREA":" ","LANE":"４００巷","ALLEY":" ","HOUSE_NO":"３１號十樓","E_COORD97":166924.23999999999,"N_COORD97":2544482.6699999999,"ADDRESS":"民權路三段４００巷３１號十樓","OBJECTID":449383},"geometry":{"x":166924.24000000115,"y":2544482.6699999999}},{"attributes":{"ID":449409,"DIS_CODE":0,"TOWNNAME":"中西區","LI":"藥王里","LIN":"18鄰","STREET":"民權路","SECT":"三段","MAREA":" ","LANE":"４００巷","ALLEY":" ","HOUSE_NO":"３１號三樓","E_COORD97":166924.23999999999,"N_COORD97":2544482.6699999999,"ADDRESS":"民權路三段４００巷３１號三樓","OBJECTID":449384},"geometry":{"x":166924.24000000115,"y":2544482.6699999999}},{"attributes":{"ID":449410,"DIS_CODE":0,"TOWNNAME":"中西區","LI":"藥王里","LIN":"18鄰","STREET":"民權路","SECT":"三段","MAREA":" ","LANE":"４００巷","ALLEY":" ","HOUSE_NO":"３１號五樓","E_COORD97":166924.23999999999,"N_COORD97":2544482.6699999999,"ADDRESS":"民權路三段４００巷３１號五樓","OBJECTID":449385},"geometry":{"x":166924.24000000115,"y":2544482.6699999999}},{"attributes":{"ID":449411,"DIS_CODE":0,"TOWNNAME":"中西區","LI":"藥王里","LIN":"18鄰","STREET":"民權路","SECT":"三段","MAREA":" ","LANE":"４００巷","ALLEY":" ","HOUSE_NO":"３１號六樓","E_COORD97":166924.23999999999,"N_COORD97":2544482.6699999999,"ADDRESS":"民權路三段４００巷３１號六樓","OBJECTID":449386},"geometry":{"x":166924.24000000115,"y":2544482.6699999999}},{"attributes":{"ID":449412,"DIS_CODE":0,"TOWNNAME":"中西區","LI":"藥王里","LIN":"18鄰","STREET":"民權路","SECT":"三段","MAREA":" ","LANE":"４００巷","ALLEY":" ","HOUSE_NO":"３１號四樓","E_COORD97":166924.23999999999,"N_COORD97":2544482.6699999999,"ADDRESS":"民權路三段４００巷３１號四樓","OBJECTID":449387},"geometry":{"x":166924.24000000115,"y":2544482.6699999999}},{"attributes":{"ID":449413,"DIS_CODE":0,"TOWNNAME":"中西區","LI":"藥王里","LIN":"18鄰","STREET":"民權路","SECT":"三段","MAREA":" ","LANE":"４００巷","ALLEY":" ","HOUSE_NO":"３３號七樓","E_COORD97":166925.29000000001,"N_COORD97":2544492.3999999999,"ADDRESS":"民權路三段４００巷３３號七樓","OBJECTID":449388},"geometry":{"x":166925.29000000097,"y":2544492.4000000004}},{"attributes":{"ID":449414,"DIS_CODE":0,"TOWNNAME":"中西區","LI":"藥王里","LIN":"18鄰","STREET":"民權路","SECT":"三段","MAREA":" ","LANE":"４００巷","ALLEY":" ","HOUSE_NO":"３３號九樓","E_COORD97":166925.29000000001,"N_COORD97":2544492.3999999999,"ADDRESS":"民權路三段４００巷３３號九樓","OBJECTID":449389},"geometry":{"x":166925.29000000097,"y":2544492.4000000004}},{"attributes":{"ID":449415,"DIS_CODE":0,"TOWNNAME":"中西區","LI":"藥王里","LIN":"18鄰","STREET":"民權路","SECT":"三段","MAREA":" ","LANE":"４００巷","ALLEY":" ","HOUSE_NO":"３３號二樓","E_COORD97":166925.29000000001,"N_COORD97":2544492.3999999999,"ADDRESS":"民權路三段４００巷３３號二樓","OBJECTID":449390},"geometry":{"x":166925.29000000097,"y":2544492.4000000004}},{"attributes":{"ID":449416,"DIS_CODE":0,"TOWNNAME":"中西區","LI":"藥王里","LIN":"18鄰","STREET":"民權路","SECT":"三段","MAREA":" ","LANE":"４００巷","ALLEY":" ","HOUSE_NO":"３３號八樓","E_COORD97":166925.29000000001,"N_COORD97":2544492.3999999999,"ADDRESS":"民權路三段４００巷３３號八樓","OBJECTID":449391},"geometry":{"x":166925.29000000097,"y":2544492.4000000004}},{"attributes":{"ID":449417,"DIS_CODE":0,"TOWNNAME":"中西區","LI":"藥王里","LIN":"18鄰","STREET":"民權路","SECT":"三段","MAREA":" ","LANE":"４００巷","ALLEY":" ","HOUSE_NO":"３３號十樓","E_COORD97":166925.29000000001,"N_COORD97":2544492.3999999999,"ADDRESS":"民權路三段４００巷３３號十樓","OBJECTID":449392},"geometry":{"x":166925.29000000097,"y":2544492.4000000004}},{"attributes":{"ID":449418,"DIS_CODE":0,"TOWNNAME":"中西區","LI":"藥王里","LIN":"18鄰","STREET":"民權路","SECT":"三段","MAREA":" ","LANE":"４００巷","ALLEY":" ","HOUSE_NO":"３３號三樓","E_COORD97":166925.29000000001,"N_COORD97":2544492.3999999999,"ADDRESS":"民權路三段４００巷３３號三樓","OBJECTID":449393},"geometry":{"x":166925.29000000097,"y":2544492.4000000004}},{"attributes":{"ID":449419,"DIS_CODE":0,"TOWNNAME":"中西區","LI":"藥王里","LIN":"18鄰","STREET":"民權路","SECT":"三段","MAREA":" ","LANE":"４００巷","ALLEY":" ","HOUSE_NO":"３３號五樓","E_COORD97":166925.29000000001,"N_COORD97":2544492.3999999999,"ADDRESS":"民權路三段４００巷３３號五樓","OBJECTID":449394},"geometry":{"x":166925.29000000097,"y":2544492.4000000004}},{"attributes":{"ID":449420,"DIS_CODE":0,"TOWNNAME":"中西區","LI":"藥王里","LIN":"18鄰","STREET":"民權路","SECT":"三段","MAREA":" ","LANE":"４００巷","ALLEY":" ","HOUSE_NO":"３３號六樓","E_COORD97":166925.29000000001,"N_COORD97":2544492.3999999999,"ADDRESS":"民權路三段４００巷３３號六樓","OBJECTID":449395},"geometry":{"x":166925.29000000097,"y":2544492.4000000004}},{"attributes":{"ID":449421,"DIS_CODE":0,"TOWNNAME":"中西區","LI":"藥王里","LIN":"18鄰","STREET":"民權路","SECT":"三段","MAREA":" ","LANE":"４００巷","ALLEY":" ","HOUSE_NO":"３３號四樓","E_COORD97":166925.29000000001,"N_COORD97":2544492.3999999999,"ADDRESS":"民權路三段４００巷３３號四樓","OBJECTID":449396},"geometry":{"x":166925.29000000097,"y":2544492.4000000004}},{"attributes":{"ID":449422,"DIS_CODE":0,"TOWNNAME":"中西區","LI":"藥王里","LIN":"18鄰","STREET":"民權路","SECT":"三段","MAREA":" ","LANE":"４００巷","ALLEY":" ","HOUSE_NO":"２９號七樓","E_COORD97":166919.5,"N_COORD97":2544460.25,"ADDRESS":"民權路三段４００巷２９號七樓","OBJECTID":449397},"geometry":{"x":166919.5,"y":2544460.2500000019}},{"attributes":{"ID":449423,"DIS_CODE":0,"TOWNNAME":"中西區","LI":"藥王里","LIN":"18鄰","STREET":"民權路","SECT":"三段","MAREA":" ","LANE":"４００巷","ALLEY":" ","HOUSE_NO":"２９號九樓","E_COORD97":166919.5,"N_COORD97":2544460.25,"ADDRESS":"民權路三段４００巷２９號九樓","OBJECTID":449398},"geometry":{"x":166919.5,"y":2544460.2500000019}},{"attributes":{"ID":449424,"DIS_CODE":0,"TOWNNAME":"中西區","LI":"藥王里","LIN":"18鄰","STREET":"民權路","SECT":"三段","MAREA":" ","LANE":"４００巷","ALLEY":" ","HOUSE_NO":"２９號八樓","E_COORD97":166919.5,"N_COORD97":2544460.25,"ADDRESS":"民權路三段４００巷２９號八樓","OBJECTID":449399},"geometry":{"x":166919.5,"y":2544460.2500000019}},{"attributes":{"ID":449425,"DIS_CODE":0,"TOWNNAME":"中西區","LI":"藥王里","LIN":"18鄰","STREET":"民權路","SECT":"三段","MAREA":" ","LANE":"４００巷","ALLEY":" ","HOUSE_NO":"２９號十樓","E_COORD97":166919.5,"N_COORD97":2544460.25,"ADDRESS":"民權路三段４００巷２９號十樓","OBJECTID":449400},"geometry":{"x":166919.5,"y":2544460.2500000019}}]}