{"displayFieldName":"TOWNNAME","fieldAliases":{"ID":"ID","DIS_CODE":"DIS_CODE","TOWNNAME":"TOWNNAME","LI":"LI","LIN":"LIN","STREET":"STREET","SECT":"SECT","MAREA":"MAREA","LANE":"LANE","ALLEY":"ALLEY","HOUSE_NO":"HOUSE_NO","E_COORD97":"E_COORD97","N_COORD97":"N_COORD97","ADDRESS":"ADDRESS","OBJECTID":"OBJECTID"},"geometryType":"esriGeometryPoint","spatialReference":{"wkid":102443,"latestWkid":3826},"fields":[{"name":"ID","type":"esriFieldTypeDouble","alias":"ID"},{"name":"DIS_CODE","type":"esriFieldTypeInteger","alias":"DIS_CODE"},{"name":"TOWNNAME","type":"esriFieldTypeString","alias":"TOWNNAME","length":8},{"name":"LI","type":"esriFieldTypeString","alias":"LI","length":8},{"name":"LIN","type":"esriFieldTypeString","alias":"LIN","length":12},{"name":"STREET","type":"esriFieldTypeString","alias":"STREET","length":20},{"name":"SECT","type":"esriFieldTypeString","alias":"SECT","length":8},{"name":"MAREA","type":"esriFieldTypeString","alias":"MAREA","length":12},{"name":"LANE","type":"esriFieldTypeString","alias":"LANE","length":10},{"name":"ALLEY","type":"esriFieldTypeString","alias":"ALLEY","length":10},{"name":"HOUSE_NO","type":"esriFieldTypeString","alias":"HOUSE_NO","length":20},{"name":"E_COORD97","type":"esriFieldTypeDouble","alias":"E_COORD97"},{"name":"N_COORD97","type":"esriFieldTypeDouble","alias":"N_COORD97"},{"name":"ADDRESS","type":"esriFieldTypeString","alias":"ADDRESS","length":50},{"name":"OBJECTID","type":"esriFieldTypeOID","alias":"OBJECTID"}],"features":[{"attributes":{"ID":486826,"DIS_CODE":0,"TOWNNAME":"安平區","LI":"華平里","LIN":"32鄰","STREET":"怡平路","SECT":" ","MAREA":" ","LANE":" ","ALLEY":" ","HOUSE_NO":"４７９號","E_COORD97":165208,"N_COORD97":2543843.5800000001,"ADDRESS":"怡平路４７９號","OBJECTID":486801},"geometry":{"x":165208.00000000093,"y":2543843.5800000001}},{"attributes":{"ID":486827,"DIS_CODE":0,"TOWNNAME":"安平區","LI":"華平里","LIN":"32鄰","STREET":"怡平路","SECT":" ","MAREA":" ","LANE":" ","ALLEY":" ","HOUSE_NO":"４８１號","E_COORD97":165203.51999999999,"N_COORD97":2543843.5800000001,"ADDRESS":"怡平路４８１號","OBJECTID":486802},"geometry":{"x":165203.51999999955,"y":2543843.5800000001}},{"attributes":{"ID":486828,"DIS_CODE":0,"TOWNNAME":"安平區","LI":"華平里","LIN":"32鄰","STREET":"怡平路","SECT":" ","MAREA":" ","LANE":" ","ALLEY":" ","HOUSE_NO":"４８３號","E_COORD97":165199.04999999999,"N_COORD97":2543845.3900000001,"ADDRESS":"怡平路４８３號","OBJECTID":486803},"geometry":{"x":165199.05000000075,"y":2543845.3900000006}},{"attributes":{"ID":486829,"DIS_CODE":0,"TOWNNAME":"安平區","LI":"華平里","LIN":"32鄰","STREET":"怡平路","SECT":" ","MAREA":" ","LANE":" ","ALLEY":" ","HOUSE_NO":"４８５號","E_COORD97":165194.73999999999,"N_COORD97":2543845.7200000002,"ADDRESS":"怡平路４８５號","OBJECTID":486804},"geometry":{"x":165194.74000000115,"y":2543845.7200000007}},{"attributes":{"ID":486830,"DIS_CODE":0,"TOWNNAME":"安平區","LI":"華平里","LIN":"32鄰","STREET":"怡平路","SECT":" ","MAREA":" ","LANE":" ","ALLEY":" ","HOUSE_NO":"４８７號","E_COORD97":165190.10999999999,"N_COORD97":2543845.8799999999,"ADDRESS":"怡平路４８７號","OBJECTID":486805},"geometry":{"x":165190.11000000034,"y":2543845.8800000008}},{"attributes":{"ID":486831,"DIS_CODE":0,"TOWNNAME":"安平區","LI":"華平里","LIN":"32鄰","STREET":"怡平路","SECT":" ","MAREA":" ","LANE":" ","ALLEY":" ","HOUSE_NO":"４８９號","E_COORD97":165185.63,"N_COORD97":2543846.3799999999,"ADDRESS":"怡平路４８９號","OBJECTID":486806},"geometry":{"x":165185.62999999989,"y":2543846.379999999}},{"attributes":{"ID":486832,"DIS_CODE":0,"TOWNNAME":"安平區","LI":"華平里","LIN":"32鄰","STREET":"怡平路","SECT":" ","MAREA":" ","LANE":" ","ALLEY":" ","HOUSE_NO":"４９１號","E_COORD97":165180.82999999999,"N_COORD97":2543845.8799999999,"ADDRESS":"怡平路４９１號","OBJECTID":486807},"geometry":{"x":165180.83000000101,"y":2543845.8800000008}},{"attributes":{"ID":486833,"DIS_CODE":0,"TOWNNAME":"北區","LI":"成德里","LIN":"32鄰","STREET":"文成二路","SECT":" ","MAREA":" ","LANE":" ","ALLEY":" ","HOUSE_NO":"１２號","E_COORD97":168770.72,"N_COORD97":2546172.8500000001,"ADDRESS":"文成二路１２號","OBJECTID":486808},"geometry":{"x":168770.71999999974,"y":2546172.8499999996}},{"attributes":{"ID":486834,"DIS_CODE":0,"TOWNNAME":"北區","LI":"成德里","LIN":"32鄰","STREET":"文成二路","SECT":" ","MAREA":" ","LANE":" ","ALLEY":" ","HOUSE_NO":"１６號","E_COORD97":168764.12,"N_COORD97":2546173.1000000001,"ADDRESS":"文成二路１６號","OBJECTID":486809},"geometry":{"x":168764.12000000104,"y":2546173.1000000015}},{"attributes":{"ID":486835,"DIS_CODE":0,"TOWNNAME":"北區","LI":"成德里","LIN":"32鄰","STREET":"文成二路","SECT":" ","MAREA":" ","LANE":" ","ALLEY":" ","HOUSE_NO":"２０號","E_COORD97":168751.88,"N_COORD97":2546173.8100000001,"ADDRESS":"文成二路２０號","OBJECTID":486810},"geometry":{"x":168751.88000000082,"y":2546173.8100000024}},{"attributes":{"ID":486836,"DIS_CODE":0,"TOWNNAME":"北區","LI":"成德里","LIN":"32鄰","STREET":"文成二路","SECT":" ","MAREA":" ","LANE":" ","ALLEY":" ","HOUSE_NO":"２２號","E_COORD97":168745.04999999999,"N_COORD97":2546173.96,"ADDRESS":"文成二路２２號","OBJECTID":486811},"geometry":{"x":168745.05000000168,"y":2546173.9600000009}},{"attributes":{"ID":486837,"DIS_CODE":0,"TOWNNAME":"北區","LI":"成德里","LIN":"32鄰","STREET":"文成二路","SECT":" ","MAREA":" ","LANE":" ","ALLEY":" ","HOUSE_NO":"２６號","E_COORD97":168738.85999999999,"N_COORD97":2546174.4399999999,"ADDRESS":"文成二路２６號","OBJECTID":486812},"geometry":{"x":168738.86000000127,"y":2546174.4400000013}},{"attributes":{"ID":486838,"DIS_CODE":0,"TOWNNAME":"北區","LI":"成德里","LIN":"32鄰","STREET":"文成二路","SECT":" ","MAREA":" ","LANE":" ","ALLEY":" ","HOUSE_NO":"２８號","E_COORD97":168732.98999999999,"N_COORD97":2546174.9199999999,"ADDRESS":"文成二路２８號","OBJECTID":486813},"geometry":{"x":168732.99000000115,"y":2546174.9200000018}},{"attributes":{"ID":486839,"DIS_CODE":0,"TOWNNAME":"北區","LI":"成德里","LIN":"32鄰","STREET":"文成二路","SECT":" ","MAREA":" ","LANE":" ","ALLEY":" ","HOUSE_NO":"３０號","E_COORD97":168716.37,"N_COORD97":2546174.3700000001,"ADDRESS":"文成二路３０號","OBJECTID":486814},"geometry":{"x":168716.37000000104,"y":2546174.370000001}},{"attributes":{"ID":486840,"DIS_CODE":0,"TOWNNAME":"北區","LI":"成德里","LIN":"32鄰","STREET":"文成二路","SECT":" ","MAREA":" ","LANE":" ","ALLEY":" ","HOUSE_NO":"３２號","E_COORD97":168707.98999999999,"N_COORD97":2546174.6299999999,"ADDRESS":"文成二路３２號","OBJECTID":486815},"geometry":{"x":168707.99000000022,"y":2546174.629999999}},{"attributes":{"ID":486841,"DIS_CODE":0,"TOWNNAME":"北區","LI":"成德里","LIN":"32鄰","STREET":"文成二路","SECT":" ","MAREA":" ","LANE":" ","ALLEY":" ","HOUSE_NO":"３６號","E_COORD97":168701.70999999999,"N_COORD97":2546175.1600000001,"ADDRESS":"文成二路３６號","OBJECTID":486816},"geometry":{"x":168701.71000000183,"y":2546175.1600000001}},{"attributes":{"ID":486842,"DIS_CODE":0,"TOWNNAME":"北區","LI":"成德里","LIN":"32鄰","STREET":"文成二路","SECT":" ","MAREA":" ","LANE":" ","ALLEY":" ","HOUSE_NO":"１３號","E_COORD97":168758.41,"N_COORD97":2546149.29,"ADDRESS":"文成二路１３號","OBJECTID":486817},"geometry":{"x":168758.41000000108,"y":2546149.2899999991}},{"attributes":{"ID":486843,"DIS_CODE":0,"TOWNNAME":"北區","LI":"成德里","LIN":"32鄰","STREET":"文成二路","SECT":" ","MAREA":" ","LANE":" ","ALLEY":" ","HOUSE_NO":"１５號","E_COORD97":168754.10000000001,"N_COORD97":2546149.9900000002,"ADDRESS":"文成二路１５號","OBJECTID":486818},"geometry":{"x":168754.09999999963,"y":2546149.9900000002}},{"attributes":{"ID":486844,"DIS_CODE":0,"TOWNNAME":"北區","LI":"成德里","LIN":"32鄰","STREET":"文成二路","SECT":" ","MAREA":" ","LANE":" ","ALLEY":" ","HOUSE_NO":"１７號","E_COORD97":168749.81,"N_COORD97":2546150.3100000001,"ADDRESS":"文成二路１７號","OBJECTID":486819},"geometry":{"x":168749.81000000145,"y":2546150.3100000005}},{"attributes":{"ID":486845,"DIS_CODE":0,"TOWNNAME":"北區","LI":"成德里","LIN":"32鄰","STREET":"文成二路","SECT":" ","MAREA":" ","LANE":" ","ALLEY":" ","HOUSE_NO":"１９號","E_COORD97":168745.69,"N_COORD97":2546150.6299999999,"ADDRESS":"文成二路１９號","OBJECTID":486820},"geometry":{"x":168745.69000000041,"y":2546150.629999999}},{"attributes":{"ID":486846,"DIS_CODE":0,"TOWNNAME":"安平區","LI":"平通里","LIN":"8鄰","STREET":"健康三街","SECT":" ","MAREA":" ","LANE":"５９２巷","ALLEY":" ","HOUSE_NO":"５１號","E_COORD97":164964.38,"N_COORD97":2544203.6699999999,"ADDRESS":"健康三街５９２巷５１號","OBJECTID":486821},"geometry":{"x":164964.38000000175,"y":2544203.6700000018}},{"attributes":{"ID":486847,"DIS_CODE":0,"TOWNNAME":"北區","LI":"成德里","LIN":"32鄰","STREET":"文成二路","SECT":" ","MAREA":" ","LANE":" ","ALLEY":" ","HOUSE_NO":"２１號","E_COORD97":168741.39999999999,"N_COORD97":2546151.2599999998,"ADDRESS":"文成二路２１號","OBJECTID":486822},"geometry":{"x":168741.40000000037,"y":2546151.2599999979}},{"attributes":{"ID":486848,"DIS_CODE":0,"TOWNNAME":"北區","LI":"成德里","LIN":"32鄰","STREET":"文成二路","SECT":" ","MAREA":" ","LANE":" ","ALLEY":" ","HOUSE_NO":"２３號","E_COORD97":168736.95000000001,"N_COORD97":2546152.0600000001,"ADDRESS":"文成二路２３號","OBJECTID":486823},"geometry":{"x":168736.95000000019,"y":2546152.0600000005}},{"attributes":{"ID":486849,"DIS_CODE":0,"TOWNNAME":"北區","LI":"成德里","LIN":"32鄰","STREET":"文成二路","SECT":" ","MAREA":" ","LANE":" ","ALLEY":" ","HOUSE_NO":"２５號","E_COORD97":168732.35000000001,"N_COORD97":2546152.3700000001,"ADDRESS":"文成二路２５號","OBJECTID":486824},"geometry":{"x":168732.34999999963,"y":2546152.3700000029}},{"attributes":{"ID":486850,"DIS_CODE":0,"TOWNNAME":"北區","LI":"成德里","LIN":"32鄰","STREET":"文成二路","SECT":" ","MAREA":" ","LANE":" ","ALLEY":" ","HOUSE_NO":"２７號","E_COORD97":168726.95000000001,"N_COORD97":2546152.5299999998,"ADDRESS":"文成二路２７號","OBJECTID":486825},"geometry":{"x":168726.95000000019,"y":2546152.5300000031}},{"attributes":{"ID":486851,"DIS_CODE":0,"TOWNNAME":"北區","LI":"成德里","LIN":"32鄰","STREET":"文成二路","SECT":" ","MAREA":" ","LANE":" ","ALLEY":" ","HOUSE_NO":"３１號","E_COORD97":168718.70000000001,"N_COORD97":2546153.7999999998,"ADDRESS":"文成二路３１號","OBJECTID":486826},"geometry":{"x":168718.70000000019,"y":2546153.8000000026}},{"attributes":{"ID":486852,"DIS_CODE":0,"TOWNNAME":"北區","LI":"成德里","LIN":"32鄰","STREET":"文成二路","SECT":" ","MAREA":" ","LANE":" ","ALLEY":" ","HOUSE_NO":"３３號","E_COORD97":168714.41,"N_COORD97":2546153.96,"ADDRESS":"文成二路３３號","OBJECTID":486827},"geometry":{"x":168714.41000000108,"y":2546153.9600000009}},{"attributes":{"ID":486853,"DIS_CODE":0,"TOWNNAME":"北區","LI":"成德里","LIN":"32鄰","STREET":"文成二路","SECT":" ","MAREA":" ","LANE":" ","ALLEY":" ","HOUSE_NO":"３５號","E_COORD97":168709.81,"N_COORD97":2546153.96,"ADDRESS":"文成二路３５號","OBJECTID":486828},"geometry":{"x":168709.81000000052,"y":2546153.9600000009}},{"attributes":{"ID":486854,"DIS_CODE":0,"TOWNNAME":"北區","LI":"成德里","LIN":"32鄰","STREET":"育北街","SECT":" ","MAREA":" ","LANE":" ","ALLEY":" ","HOUSE_NO":"１號","E_COORD97":168782.39999999999,"N_COORD97":2546190.8199999998,"ADDRESS":"育北街１號","OBJECTID":486829},"geometry":{"x":168782.4000000013,"y":2546190.8200000003}},{"attributes":{"ID":486855,"DIS_CODE":0,"TOWNNAME":"北區","LI":"成德里","LIN":"32鄰","STREET":"育北街","SECT":" ","MAREA":" ","LANE":" ","ALLEY":" ","HOUSE_NO":"３號","E_COORD97":168787.16,"N_COORD97":2546201.9300000002,"ADDRESS":"育北街３號","OBJECTID":486830},"geometry":{"x":168787.16000000201,"y":2546201.9300000016}},{"attributes":{"ID":486856,"DIS_CODE":0,"TOWNNAME":"北區","LI":"成德里","LIN":"32鄰","STREET":"育北街","SECT":" ","MAREA":" ","LANE":" ","ALLEY":" ","HOUSE_NO":"５號","E_COORD97":168775.73000000001,"N_COORD97":2546207.8799999999,"ADDRESS":"育北街５號","OBJECTID":486831},"geometry":{"x":168775.73000000138,"y":2546207.8800000008}},{"attributes":{"ID":486857,"DIS_CODE":0,"TOWNNAME":"北區","LI":"成德里","LIN":"32鄰","STREET":"育北街","SECT":" ","MAREA":" ","LANE":" ","ALLEY":" ","HOUSE_NO":"７號","E_COORD97":168769.54000000001,"N_COORD97":2546211.2200000002,"ADDRESS":"育北街７號","OBJECTID":486832},"geometry":{"x":168769.54000000097,"y":2546211.2200000025}},{"attributes":{"ID":486858,"DIS_CODE":0,"TOWNNAME":"北區","LI":"成德里","LIN":"32鄰","STREET":"育北街","SECT":" ","MAREA":" ","LANE":" ","ALLEY":" ","HOUSE_NO":"９號","E_COORD97":168763.35000000001,"N_COORD97":2546214.5499999998,"ADDRESS":"育北街９號","OBJECTID":486833},"geometry":{"x":168763.35000000056,"y":2546214.5500000007}},{"attributes":{"ID":486859,"DIS_CODE":0,"TOWNNAME":"北區","LI":"成德里","LIN":"32鄰","STREET":"育北街","SECT":" ","MAREA":" ","LANE":" ","ALLEY":" ","HOUSE_NO":"１１號","E_COORD97":168756.84,"N_COORD97":2546217.4100000001,"ADDRESS":"育北街１１號","OBJECTID":486834},"geometry":{"x":168756.84000000078,"y":2546217.4100000001}},{"attributes":{"ID":486860,"DIS_CODE":0,"TOWNNAME":"北區","LI":"成德里","LIN":"32鄰","STREET":"育北街","SECT":" ","MAREA":" ","LANE":" ","ALLEY":" ","HOUSE_NO":"１３號","E_COORD97":168764.45999999999,"N_COORD97":2546236.2999999998,"ADDRESS":"育北街１３號","OBJECTID":486835},"geometry":{"x":168764.46000000183,"y":2546236.3000000007}},{"attributes":{"ID":486861,"DIS_CODE":0,"TOWNNAME":"北區","LI":"成德里","LIN":"32鄰","STREET":"育北街","SECT":" ","MAREA":" ","LANE":" ","ALLEY":" ","HOUSE_NO":"１５號","E_COORD97":168771.13,"N_COORD97":2546233.4399999999,"ADDRESS":"育北街１５號","OBJECTID":486836},"geometry":{"x":168771.12999999989,"y":2546233.4399999995}},{"attributes":{"ID":486862,"DIS_CODE":0,"TOWNNAME":"北區","LI":"成德里","LIN":"32鄰","STREET":"育北街","SECT":" ","MAREA":" ","LANE":" ","ALLEY":" ","HOUSE_NO":"１７號","E_COORD97":168777.79000000001,"N_COORD97":2546230.27,"ADDRESS":"育北街１７號","OBJECTID":486837},"geometry":{"x":168777.79000000097,"y":2546230.2700000014}},{"attributes":{"ID":486863,"DIS_CODE":0,"TOWNNAME":"北區","LI":"成德里","LIN":"32鄰","STREET":"育北街","SECT":" ","MAREA":" ","LANE":" ","ALLEY":" ","HOUSE_NO":"１９號","E_COORD97":168783.82999999999,"N_COORD97":2546227.25,"ADDRESS":"育北街１９號","OBJECTID":486838},"geometry":{"x":168783.83000000007,"y":2546227.2500000019}},{"attributes":{"ID":486864,"DIS_CODE":0,"TOWNNAME":"北區","LI":"成德里","LIN":"32鄰","STREET":"育北街","SECT":" ","MAREA":" ","LANE":" ","ALLEY":" ","HOUSE_NO":"２１號","E_COORD97":168790.32999999999,"N_COORD97":2546223.9199999999,"ADDRESS":"育北街２１號","OBJECTID":486839},"geometry":{"x":168790.33000000007,"y":2546223.9199999999}},{"attributes":{"ID":486865,"DIS_CODE":0,"TOWNNAME":"北區","LI":"成德里","LIN":"32鄰","STREET":"育北街","SECT":" ","MAREA":" ","LANE":" ","ALLEY":" ","HOUSE_NO":"２３號","E_COORD97":168796.53,"N_COORD97":2546221.0600000001,"ADDRESS":"育北街２３號","OBJECTID":486840},"geometry":{"x":168796.53000000212,"y":2546221.0600000005}},{"attributes":{"ID":486866,"DIS_CODE":0,"TOWNNAME":"永康區","LI":"北灣里","LIN":"32鄰","STREET":"大同街","SECT":" ","MAREA":" ","LANE":" ","ALLEY":" ","HOUSE_NO":"６３號四樓之５","E_COORD97":175159.70999999999,"N_COORD97":2545424.0099999998,"ADDRESS":"大同街６３號四樓之５","OBJECTID":486841},"geometry":{"x":175159.70999999996,"y":2545424.0099999979}},{"attributes":{"ID":486867,"DIS_CODE":0,"TOWNNAME":"永康區","LI":"北灣里","LIN":"32鄰","STREET":"大同街","SECT":" ","MAREA":" ","LANE":" ","ALLEY":" ","HOUSE_NO":"６９號四樓之９","E_COORD97":175148.04000000001,"N_COORD97":2545427.5699999998,"ADDRESS":"大同街６９號四樓之９","OBJECTID":486842},"geometry":{"x":175148.0400000019,"y":2545427.570000004}},{"attributes":{"ID":486868,"DIS_CODE":0,"TOWNNAME":"永康區","LI":"北灣里","LIN":"32鄰","STREET":"大同街","SECT":" ","MAREA":" ","LANE":" ","ALLEY":" ","HOUSE_NO":"６３號二樓之１","E_COORD97":175159.56,"N_COORD97":2545424.0099999998,"ADDRESS":"大同街６３號二樓之１","OBJECTID":486843},"geometry":{"x":175159.56000000052,"y":2545424.0099999979}},{"attributes":{"ID":486869,"DIS_CODE":0,"TOWNNAME":"永康區","LI":"北灣里","LIN":"32鄰","STREET":"大同街","SECT":" ","MAREA":" ","LANE":" ","ALLEY":" ","HOUSE_NO":"６９號七樓之３","E_COORD97":175148.06,"N_COORD97":2545427.5699999998,"ADDRESS":"大同街６９號七樓之３","OBJECTID":486844},"geometry":{"x":175148.06000000052,"y":2545427.570000004}},{"attributes":{"ID":486870,"DIS_CODE":0,"TOWNNAME":"永康區","LI":"北灣里","LIN":"32鄰","STREET":"大同街","SECT":" ","MAREA":" ","LANE":" ","ALLEY":" ","HOUSE_NO":"６３號六樓之２","E_COORD97":175159.69,"N_COORD97":2545424.0099999998,"ADDRESS":"大同街６３號六樓之２","OBJECTID":486845},"geometry":{"x":175159.69000000134,"y":2545424.0099999979}},{"attributes":{"ID":486871,"DIS_CODE":0,"TOWNNAME":"永康區","LI":"北灣里","LIN":"32鄰","STREET":"大同街","SECT":" ","MAREA":" ","LANE":" ","ALLEY":" ","HOUSE_NO":"６９號五樓之５","E_COORD97":175148.10999999999,"N_COORD97":2545427.5699999998,"ADDRESS":"大同街６９號五樓之５","OBJECTID":486846},"geometry":{"x":175148.11000000127,"y":2545427.570000004}},{"attributes":{"ID":486872,"DIS_CODE":0,"TOWNNAME":"永康區","LI":"北灣里","LIN":"32鄰","STREET":"大同街","SECT":" ","MAREA":" ","LANE":" ","ALLEY":" ","HOUSE_NO":"６９號三樓之２","E_COORD97":175148.09,"N_COORD97":2545427.5699999998,"ADDRESS":"大同街６９號三樓之２","OBJECTID":486847},"geometry":{"x":175148.09000000078,"y":2545427.570000004}},{"attributes":{"ID":486873,"DIS_CODE":0,"TOWNNAME":"永康區","LI":"北灣里","LIN":"32鄰","STREET":"大同街","SECT":" ","MAREA":" ","LANE":" ","ALLEY":" ","HOUSE_NO":"６９號六樓之７","E_COORD97":175148.04000000001,"N_COORD97":2545427.5699999998,"ADDRESS":"大同街６９號六樓之７","OBJECTID":486848},"geometry":{"x":175148.0400000019,"y":2545427.570000004}},{"attributes":{"ID":486874,"DIS_CODE":0,"TOWNNAME":"永康區","LI":"北灣里","LIN":"32鄰","STREET":"大同街","SECT":" ","MAREA":" ","LANE":" ","ALLEY":" ","HOUSE_NO":"６３號二樓之２","E_COORD97":175159.69,"N_COORD97":2545424.0099999998,"ADDRESS":"大同街６３號二樓之２","OBJECTID":486849},"geometry":{"x":175159.69000000134,"y":2545424.0099999979}},{"attributes":{"ID":486875,"DIS_CODE":0,"TOWNNAME":"永康區","LI":"北灣里","LIN":"32鄰","STREET":"大同街","SECT":" ","MAREA":" ","LANE":" ","ALLEY":" ","HOUSE_NO":"６３號三樓之１","E_COORD97":175159.56,"N_COORD97":2545424.0099999998,"ADDRESS":"大同街６３號三樓之１","OBJECTID":486850},"geometry":{"x":175159.56000000052,"y":2545424.0099999979}},{"attributes":{"ID":486876,"DIS_CODE":0,"TOWNNAME":"永康區","LI":"北灣里","LIN":"32鄰","STREET":"大同街","SECT":" ","MAREA":" ","LANE":" ","ALLEY":" ","HOUSE_NO":"６９號五樓之８","E_COORD97":175148.10999999999,"N_COORD97":2545427.5699999998,"ADDRESS":"大同街６９號五樓之８","OBJECTID":486851},"geometry":{"x":175148.11000000127,"y":2545427.570000004}},{"attributes":{"ID":486877,"DIS_CODE":0,"TOWNNAME":"永康區","LI":"北灣里","LIN":"32鄰","STREET":"大同街","SECT":" ","MAREA":" ","LANE":" ","ALLEY":" ","HOUSE_NO":"６９號六樓之８","E_COORD97":175148.10999999999,"N_COORD97":2545427.5699999998,"ADDRESS":"大同街６９號六樓之８","OBJECTID":486852},"geometry":{"x":175148.11000000127,"y":2545427.570000004}},{"attributes":{"ID":486878,"DIS_CODE":0,"TOWNNAME":"永康區","LI":"北灣里","LIN":"32鄰","STREET":"大同街","SECT":" ","MAREA":" ","LANE":" ","ALLEY":" ","HOUSE_NO":"６３號七樓之１","E_COORD97":175159.56,"N_COORD97":2545424.0099999998,"ADDRESS":"大同街６３號七樓之１","OBJECTID":486853},"geometry":{"x":175159.56000000052,"y":2545424.0099999979}},{"attributes":{"ID":486879,"DIS_CODE":0,"TOWNNAME":"永康區","LI":"北灣里","LIN":"32鄰","STREET":"大同街","SECT":" ","MAREA":" ","LANE":" ","ALLEY":" ","HOUSE_NO":"６９號七樓之１","E_COORD97":175147.95999999999,"N_COORD97":2545427.5699999998,"ADDRESS":"大同街６９號七樓之１","OBJECTID":486854},"geometry":{"x":175147.95999999996,"y":2545427.570000004}},{"attributes":{"ID":486880,"DIS_CODE":0,"TOWNNAME":"永康區","LI":"正強里","LIN":"32鄰","STREET":"四維街","SECT":" ","MAREA":" ","LANE":" ","ALLEY":" ","HOUSE_NO":"３７號四樓之４","E_COORD97":173407.72,"N_COORD97":2548034.8799999999,"ADDRESS":"四維街３７號四樓之４","OBJECTID":486855},"geometry":{"x":173407.72000000067,"y":2548034.8800000027}},{"attributes":{"ID":486881,"DIS_CODE":0,"TOWNNAME":"永康區","LI":"北灣里","LIN":"32鄰","STREET":"大同街","SECT":" ","MAREA":" ","LANE":" ","ALLEY":" ","HOUSE_NO":"６９號七樓之２","E_COORD97":175148.09,"N_COORD97":2545427.5699999998,"ADDRESS":"大同街６９號七樓之２","OBJECTID":486856},"geometry":{"x":175148.09000000078,"y":2545427.570000004}},{"attributes":{"ID":486882,"DIS_CODE":0,"TOWNNAME":"永康區","LI":"北灣里","LIN":"32鄰","STREET":"大同街","SECT":" ","MAREA":" ","LANE":" ","ALLEY":" ","HOUSE_NO":"６３號三樓之２","E_COORD97":175159.69,"N_COORD97":2545424.0099999998,"ADDRESS":"大同街６３號三樓之２","OBJECTID":486857},"geometry":{"x":175159.69000000134,"y":2545424.0099999979}},{"attributes":{"ID":486883,"DIS_CODE":0,"TOWNNAME":"永康區","LI":"北灣里","LIN":"32鄰","STREET":"大同街","SECT":" ","MAREA":" ","LANE":" ","ALLEY":" ","HOUSE_NO":"６９號七樓之５","E_COORD97":175148.10999999999,"N_COORD97":2545427.5699999998,"ADDRESS":"大同街６９號七樓之５","OBJECTID":486858},"geometry":{"x":175148.11000000127,"y":2545427.570000004}},{"attributes":{"ID":486884,"DIS_CODE":0,"TOWNNAME":"永康區","LI":"北灣里","LIN":"32鄰","STREET":"大同街","SECT":" ","MAREA":" ","LANE":" ","ALLEY":" ","HOUSE_NO":"６９號六樓之５","E_COORD97":175148.10999999999,"N_COORD97":2545427.5699999998,"ADDRESS":"大同街６９號六樓之５","OBJECTID":486859},"geometry":{"x":175148.11000000127,"y":2545427.570000004}},{"attributes":{"ID":486885,"DIS_CODE":0,"TOWNNAME":"永康區","LI":"北灣里","LIN":"32鄰","STREET":"大同街","SECT":" ","MAREA":" ","LANE":" ","ALLEY":" ","HOUSE_NO":"６９號六樓之１","E_COORD97":175147.95999999999,"N_COORD97":2545427.5699999998,"ADDRESS":"大同街６９號六樓之１","OBJECTID":486860},"geometry":{"x":175147.95999999996,"y":2545427.570000004}},{"attributes":{"ID":486886,"DIS_CODE":0,"TOWNNAME":"永康區","LI":"北灣里","LIN":"32鄰","STREET":"大同街","SECT":" ","MAREA":" ","LANE":" ","ALLEY":" ","HOUSE_NO":"６９號五樓之１","E_COORD97":175147.95999999999,"N_COORD97":2545427.5699999998,"ADDRESS":"大同街６９號五樓之１","OBJECTID":486861},"geometry":{"x":175147.95999999996,"y":2545427.570000004}},{"attributes":{"ID":486887,"DIS_CODE":0,"TOWNNAME":"永康區","LI":"北灣里","LIN":"32鄰","STREET":"大同街","SECT":" ","MAREA":" ","LANE":" ","ALLEY":" ","HOUSE_NO":"６９號二樓之２","E_COORD97":175148.09,"N_COORD97":2545427.5699999998,"ADDRESS":"大同街６９號二樓之２","OBJECTID":486862},"geometry":{"x":175148.09000000078,"y":2545427.570000004}},{"attributes":{"ID":486888,"DIS_CODE":0,"TOWNNAME":"永康區","LI":"北灣里","LIN":"32鄰","STREET":"大同街","SECT":" ","MAREA":" ","LANE":" ","ALLEY":" ","HOUSE_NO":"６９號二樓之１","E_COORD97":175147.95999999999,"N_COORD97":2545427.5699999998,"ADDRESS":"大同街６９號二樓之１","OBJECTID":486863},"geometry":{"x":175147.95999999996,"y":2545427.570000004}},{"attributes":{"ID":486889,"DIS_CODE":0,"TOWNNAME":"永康區","LI":"北灣里","LIN":"32鄰","STREET":"大同街","SECT":" ","MAREA":" ","LANE":" ","ALLEY":" ","HOUSE_NO":"６９號四樓之５","E_COORD97":175148.10999999999,"N_COORD97":2545427.5699999998,"ADDRESS":"大同街６９號四樓之５","OBJECTID":486864},"geometry":{"x":175148.11000000127,"y":2545427.570000004}},{"attributes":{"ID":486890,"DIS_CODE":0,"TOWNNAME":"永康區","LI":"北灣里","LIN":"32鄰","STREET":"大同街","SECT":" ","MAREA":" ","LANE":" ","ALLEY":" ","HOUSE_NO":"６３號五樓之３","E_COORD97":175159.66,"N_COORD97":2545424.0099999998,"ADDRESS":"大同街６３號五樓之３","OBJECTID":486865},"geometry":{"x":175159.66000000108,"y":2545424.0099999979}},{"attributes":{"ID":486891,"DIS_CODE":0,"TOWNNAME":"永康區","LI":"北灣里","LIN":"32鄰","STREET":"大同街","SECT":" ","MAREA":" ","LANE":" ","ALLEY":" ","HOUSE_NO":"６９號五樓之２","E_COORD97":175148.09,"N_COORD97":2545427.5699999998,"ADDRESS":"大同街６９號五樓之２","OBJECTID":486866},"geometry":{"x":175148.09000000078,"y":2545427.570000004}},{"attributes":{"ID":486892,"DIS_CODE":0,"TOWNNAME":"永康區","LI":"北灣里","LIN":"32鄰","STREET":"大同街","SECT":" ","MAREA":" ","LANE":" ","ALLEY":" ","HOUSE_NO":"６９號六樓之２","E_COORD97":175148.09,"N_COORD97":2545427.5699999998,"ADDRESS":"大同街６９號六樓之２","OBJECTID":486867},"geometry":{"x":175148.09000000078,"y":2545427.570000004}},{"attributes":{"ID":486893,"DIS_CODE":0,"TOWNNAME":"永康區","LI":"北灣里","LIN":"32鄰","STREET":"大同街","SECT":" ","MAREA":" ","LANE":" ","ALLEY":" ","HOUSE_NO":"６３號六樓之５","E_COORD97":175159.70999999999,"N_COORD97":2545424.0099999998,"ADDRESS":"大同街６３號六樓之５","OBJECTID":486868},"geometry":{"x":175159.70999999996,"y":2545424.0099999979}},{"attributes":{"ID":486894,"DIS_CODE":0,"TOWNNAME":"東區","LI":"東光里","LIN":"32鄰","STREET":"東平路","SECT":" ","MAREA":" ","LANE":" ","ALLEY":" ","HOUSE_NO":"１１１號三樓之９","E_COORD97":171116.63,"N_COORD97":2543951.3399999999,"ADDRESS":"東平路１１１號三樓之９","OBJECTID":486869},"geometry":{"x":171116.63000000082,"y":2543951.3400000017}},{"attributes":{"ID":486895,"DIS_CODE":0,"TOWNNAME":"東區","LI":"東光里","LIN":"32鄰","STREET":"東平路","SECT":" ","MAREA":" ","LANE":" ","ALLEY":" ","HOUSE_NO":"１１１號七樓","E_COORD97":171116.63,"N_COORD97":2543951.3399999999,"ADDRESS":"東平路１１１號七樓","OBJECTID":486870},"geometry":{"x":171116.63000000082,"y":2543951.3400000017}},{"attributes":{"ID":486896,"DIS_CODE":0,"TOWNNAME":"東區","LI":"東光里","LIN":"32鄰","STREET":"東平路","SECT":" ","MAREA":" ","LANE":" ","ALLEY":" ","HOUSE_NO":"１１１號七樓之１","E_COORD97":171116.63,"N_COORD97":2543951.3399999999,"ADDRESS":"東平路１１１號七樓之１","OBJECTID":486871},"geometry":{"x":171116.63000000082,"y":2543951.3400000017}},{"attributes":{"ID":486897,"DIS_CODE":0,"TOWNNAME":"歸仁區","LI":"南保里","LIN":"36鄰","STREET":"民權六街","SECT":" ","MAREA":" ","LANE":" ","ALLEY":" ","HOUSE_NO":"１３７號","E_COORD97":176697.04000000001,"N_COORD97":2541081.29,"ADDRESS":"民權六街１３７號","OBJECTID":486872},"geometry":{"x":176697.04000000004,"y":2541081.2899999991}},{"attributes":{"ID":486898,"DIS_CODE":0,"TOWNNAME":"歸仁區","LI":"八甲里","LIN":"18鄰","STREET":"忠孝北路","SECT":" ","MAREA":" ","LANE":" ","ALLEY":" ","HOUSE_NO":"２８０號","E_COORD97":177950.23000000001,"N_COORD97":2541451.25,"ADDRESS":"忠孝北路２８０號","OBJECTID":486873},"geometry":{"x":177950.23000000138,"y":2541451.25}},{"attributes":{"ID":486899,"DIS_CODE":0,"TOWNNAME":"歸仁區","LI":"八甲里","LIN":"20鄰","STREET":"大仁三街","SECT":" ","MAREA":" ","LANE":" ","ALLEY":" ","HOUSE_NO":"５０號","E_COORD97":178379.19,"N_COORD97":2541353.25,"ADDRESS":"大仁三街５０號","OBJECTID":486874},"geometry":{"x":178379.19000000134,"y":2541353.25}},{"attributes":{"ID":486900,"DIS_CODE":0,"TOWNNAME":"東區","LI":"東光里","LIN":"32鄰","STREET":"東平路","SECT":" ","MAREA":" ","LANE":" ","ALLEY":" ","HOUSE_NO":"１１１號七樓之２","E_COORD97":171116.63,"N_COORD97":2543951.3399999999,"ADDRESS":"東平路１１１號七樓之２","OBJECTID":486875},"geometry":{"x":171116.63000000082,"y":2543951.3400000017}},{"attributes":{"ID":486901,"DIS_CODE":0,"TOWNNAME":"東區","LI":"東光里","LIN":"32鄰","STREET":"東平路","SECT":" ","MAREA":" ","LANE":" ","ALLEY":" ","HOUSE_NO":"１１１號七樓之３","E_COORD97":171116.63,"N_COORD97":2543951.3399999999,"ADDRESS":"東平路１１１號七樓之３","OBJECTID":486876},"geometry":{"x":171116.63000000082,"y":2543951.3400000017}},{"attributes":{"ID":486902,"DIS_CODE":0,"TOWNNAME":"東區","LI":"東光里","LIN":"32鄰","STREET":"東平路","SECT":" ","MAREA":" ","LANE":" ","ALLEY":" ","HOUSE_NO":"１１１號七樓之４","E_COORD97":171116.63,"N_COORD97":2543951.3399999999,"ADDRESS":"東平路１１１號七樓之４","OBJECTID":486877},"geometry":{"x":171116.63000000082,"y":2543951.3400000017}},{"attributes":{"ID":486903,"DIS_CODE":0,"TOWNNAME":"東區","LI":"東光里","LIN":"32鄰","STREET":"東平路","SECT":" ","MAREA":" ","LANE":" ","ALLEY":" ","HOUSE_NO":"１１１號七樓之５","E_COORD97":171116.63,"N_COORD97":2543951.3399999999,"ADDRESS":"東平路１１１號七樓之５","OBJECTID":486878},"geometry":{"x":171116.63000000082,"y":2543951.3400000017}},{"attributes":{"ID":486904,"DIS_CODE":0,"TOWNNAME":"東區","LI":"東光里","LIN":"32鄰","STREET":"東平路","SECT":" ","MAREA":" ","LANE":" ","ALLEY":" ","HOUSE_NO":"１１１號七樓之６","E_COORD97":171116.63,"N_COORD97":2543951.3399999999,"ADDRESS":"東平路１１１號七樓之６","OBJECTID":486879},"geometry":{"x":171116.63000000082,"y":2543951.3400000017}},{"attributes":{"ID":486905,"DIS_CODE":0,"TOWNNAME":"東區","LI":"東光里","LIN":"32鄰","STREET":"東平路","SECT":" ","MAREA":" ","LANE":" ","ALLEY":" ","HOUSE_NO":"１１１號七樓之７","E_COORD97":171116.63,"N_COORD97":2543951.3399999999,"ADDRESS":"東平路１１１號七樓之７","OBJECTID":486880},"geometry":{"x":171116.63000000082,"y":2543951.3400000017}},{"attributes":{"ID":486906,"DIS_CODE":0,"TOWNNAME":"東區","LI":"東光里","LIN":"32鄰","STREET":"東平路","SECT":" ","MAREA":" ","LANE":" ","ALLEY":" ","HOUSE_NO":"１１１號七樓之８","E_COORD97":171116.63,"N_COORD97":2543951.3399999999,"ADDRESS":"東平路１１１號七樓之８","OBJECTID":486881},"geometry":{"x":171116.63000000082,"y":2543951.3400000017}},{"attributes":{"ID":486907,"DIS_CODE":0,"TOWNNAME":"東區","LI":"東光里","LIN":"32鄰","STREET":"東平路","SECT":" ","MAREA":" ","LANE":" ","ALLEY":" ","HOUSE_NO":"１１１號二樓","E_COORD97":171116.63,"N_COORD97":2543951.3399999999,"ADDRESS":"東平路１１１號二樓","OBJECTID":486882},"geometry":{"x":171116.63000000082,"y":2543951.3400000017}},{"attributes":{"ID":486908,"DIS_CODE":0,"TOWNNAME":"東區","LI":"東光里","LIN":"32鄰","STREET":"東平路","SECT":" ","MAREA":" ","LANE":" ","ALLEY":" ","HOUSE_NO":"１１１號二樓之１","E_COORD97":171116.63,"N_COORD97":2543951.3399999999,"ADDRESS":"東平路１１１號二樓之１","OBJECTID":486883},"geometry":{"x":171116.63000000082,"y":2543951.3400000017}},{"attributes":{"ID":486909,"DIS_CODE":0,"TOWNNAME":"東區","LI":"東光里","LIN":"32鄰","STREET":"東平路","SECT":" ","MAREA":" ","LANE":" ","ALLEY":" ","HOUSE_NO":"１１１號二樓之２","E_COORD97":171116.63,"N_COORD97":2543951.3399999999,"ADDRESS":"東平路１１１號二樓之２","OBJECTID":486884},"geometry":{"x":171116.63000000082,"y":2543951.3400000017}},{"attributes":{"ID":486910,"DIS_CODE":0,"TOWNNAME":"東區","LI":"東光里","LIN":"32鄰","STREET":"東平路","SECT":" ","MAREA":" ","LANE":" ","ALLEY":" ","HOUSE_NO":"１１１號二樓之３","E_COORD97":171116.63,"N_COORD97":2543951.3399999999,"ADDRESS":"東平路１１１號二樓之３","OBJECTID":486885},"geometry":{"x":171116.63000000082,"y":2543951.3400000017}},{"attributes":{"ID":486911,"DIS_CODE":0,"TOWNNAME":"東區","LI":"東光里","LIN":"32鄰","STREET":"東平路","SECT":" ","MAREA":" ","LANE":" ","ALLEY":" ","HOUSE_NO":"１１１號二樓之４","E_COORD97":171116.63,"N_COORD97":2543951.3399999999,"ADDRESS":"東平路１１１號二樓之４","OBJECTID":486886},"geometry":{"x":171116.63000000082,"y":2543951.3400000017}},{"attributes":{"ID":486912,"DIS_CODE":0,"TOWNNAME":"東區","LI":"東光里","LIN":"32鄰","STREET":"東平路","SECT":" ","MAREA":" ","LANE":" ","ALLEY":" ","HOUSE_NO":"１１１號二樓之５","E_COORD97":171116.63,"N_COORD97":2543951.3399999999,"ADDRESS":"東平路１１１號二樓之５","OBJECTID":486887},"geometry":{"x":171116.63000000082,"y":2543951.3400000017}},{"attributes":{"ID":486913,"DIS_CODE":0,"TOWNNAME":"東區","LI":"東光里","LIN":"32鄰","STREET":"東平路","SECT":" ","MAREA":" ","LANE":" ","ALLEY":" ","HOUSE_NO":"１１１號二樓之６","E_COORD97":171116.63,"N_COORD97":2543951.3399999999,"ADDRESS":"東平路１１１號二樓之６","OBJECTID":486888},"geometry":{"x":171116.63000000082,"y":2543951.3400000017}},{"attributes":{"ID":486914,"DIS_CODE":0,"TOWNNAME":"東區","LI":"東光里","LIN":"32鄰","STREET":"東平路","SECT":" ","MAREA":" ","LANE":" ","ALLEY":" ","HOUSE_NO":"１１１號二樓之７","E_COORD97":171116.63,"N_COORD97":2543951.3399999999,"ADDRESS":"東平路１１１號二樓之７","OBJECTID":486889},"geometry":{"x":171116.63000000082,"y":2543951.3400000017}},{"attributes":{"ID":486915,"DIS_CODE":0,"TOWNNAME":"東區","LI":"東光里","LIN":"32鄰","STREET":"東平路","SECT":" ","MAREA":" ","LANE":" ","ALLEY":" ","HOUSE_NO":"１１１號二樓之８","E_COORD97":171116.63,"N_COORD97":2543951.3399999999,"ADDRESS":"東平路１１１號二樓之８","OBJECTID":486890},"geometry":{"x":171116.63000000082,"y":2543951.3400000017}},{"attributes":{"ID":486916,"DIS_CODE":0,"TOWNNAME":"東區","LI":"東光里","LIN":"32鄰","STREET":"東平路","SECT":" ","MAREA":" ","LANE":" ","ALLEY":" ","HOUSE_NO":"１１１號二樓之９","E_COORD97":171116.63,"N_COORD97":2543951.3399999999,"ADDRESS":"東平路１１１號二樓之９","OBJECTID":486891},"geometry":{"x":171116.63000000082,"y":2543951.3400000017}},{"attributes":{"ID":486917,"DIS_CODE":0,"TOWNNAME":"東區","LI":"東光里","LIN":"32鄰","STREET":"東平路","SECT":" ","MAREA":" ","LANE":" ","ALLEY":" ","HOUSE_NO":"１１１號三樓","E_COORD97":171116.63,"N_COORD97":2543951.3399999999,"ADDRESS":"東平路１１１號三樓","OBJECTID":486892},"geometry":{"x":171116.63000000082,"y":2543951.3400000017}},{"attributes":{"ID":486918,"DIS_CODE":0,"TOWNNAME":"東區","LI":"東光里","LIN":"32鄰","STREET":"東平路","SECT":" ","MAREA":" ","LANE":" ","ALLEY":" ","HOUSE_NO":"１１１號三樓之１","E_COORD97":171116.63,"N_COORD97":2543951.3399999999,"ADDRESS":"東平路１１１號三樓之１","OBJECTID":486893},"geometry":{"x":171116.63000000082,"y":2543951.3400000017}},{"attributes":{"ID":486919,"DIS_CODE":0,"TOWNNAME":"東區","LI":"東光里","LIN":"32鄰","STREET":"東平路","SECT":" ","MAREA":" ","LANE":" ","ALLEY":" ","HOUSE_NO":"１１１號三樓之１０","E_COORD97":171116.63,"N_COORD97":2543951.3399999999,"ADDRESS":"東平路１１１號三樓之１０","OBJECTID":486894},"geometry":{"x":171116.63000000082,"y":2543951.3400000017}},{"attributes":{"ID":486920,"DIS_CODE":0,"TOWNNAME":"東區","LI":"東光里","LIN":"32鄰","STREET":"東平路","SECT":" ","MAREA":" ","LANE":" ","ALLEY":" ","HOUSE_NO":"１１１號三樓之１１","E_COORD97":171116.63,"N_COORD97":2543951.3399999999,"ADDRESS":"東平路１１１號三樓之１１","OBJECTID":486895},"geometry":{"x":171116.63000000082,"y":2543951.3400000017}},{"attributes":{"ID":486921,"DIS_CODE":0,"TOWNNAME":"東區","LI":"東光里","LIN":"32鄰","STREET":"東平路","SECT":" ","MAREA":" ","LANE":" ","ALLEY":" ","HOUSE_NO":"１１１號三樓之２","E_COORD97":171116.63,"N_COORD97":2543951.3399999999,"ADDRESS":"東平路１１１號三樓之２","OBJECTID":486896},"geometry":{"x":171116.63000000082,"y":2543951.3400000017}},{"attributes":{"ID":486922,"DIS_CODE":0,"TOWNNAME":"東區","LI":"東光里","LIN":"32鄰","STREET":"東平路","SECT":" ","MAREA":" ","LANE":" ","ALLEY":" ","HOUSE_NO":"１１１號三樓之３","E_COORD97":171116.63,"N_COORD97":2543951.3399999999,"ADDRESS":"東平路１１１號三樓之３","OBJECTID":486897},"geometry":{"x":171116.63000000082,"y":2543951.3400000017}},{"attributes":{"ID":486923,"DIS_CODE":0,"TOWNNAME":"東區","LI":"東光里","LIN":"32鄰","STREET":"東平路","SECT":" ","MAREA":" ","LANE":" ","ALLEY":" ","HOUSE_NO":"１１１號三樓之４","E_COORD97":171116.63,"N_COORD97":2543951.3399999999,"ADDRESS":"東平路１１１號三樓之４","OBJECTID":486898},"geometry":{"x":171116.63000000082,"y":2543951.3400000017}},{"attributes":{"ID":486924,"DIS_CODE":0,"TOWNNAME":"東區","LI":"東光里","LIN":"32鄰","STREET":"東平路","SECT":" ","MAREA":" ","LANE":" ","ALLEY":" ","HOUSE_NO":"１１１號三樓之５","E_COORD97":171116.63,"N_COORD97":2543951.3399999999,"ADDRESS":"東平路１１１號三樓之５","OBJECTID":486899},"geometry":{"x":171116.63000000082,"y":2543951.3400000017}},{"attributes":{"ID":486925,"DIS_CODE":0,"TOWNNAME":"東區","LI":"東光里","LIN":"32鄰","STREET":"東平路","SECT":" ","MAREA":" ","LANE":" ","ALLEY":" ","HOUSE_NO":"１１１號三樓之６","E_COORD97":171116.63,"N_COORD97":2543951.3399999999,"ADDRESS":"東平路１１１號三樓之６","OBJECTID":486900},"geometry":{"x":171116.63000000082,"y":2543951.3400000017}},{"attributes":{"ID":486926,"DIS_CODE":0,"TOWNNAME":"東區","LI":"東光里","LIN":"32鄰","STREET":"東平路","SECT":" ","MAREA":" ","LANE":" ","ALLEY":" ","HOUSE_NO":"１１１號三樓之７","E_COORD97":171116.63,"N_COORD97":2543951.3399999999,"ADDRESS":"東平路１１１號三樓之７","OBJECTID":486901},"geometry":{"x":171116.63000000082,"y":2543951.3400000017}},{"attributes":{"ID":486927,"DIS_CODE":0,"TOWNNAME":"東區","LI":"東光里","LIN":"32鄰","STREET":"東平路","SECT":" ","MAREA":" ","LANE":" ","ALLEY":" ","HOUSE_NO":"１１１號三樓之８","E_COORD97":171116.63,"N_COORD97":2543951.3399999999,"ADDRESS":"東平路１１１號三樓之８","OBJECTID":486902},"geometry":{"x":171116.63000000082,"y":2543951.3400000017}},{"attributes":{"ID":486928,"DIS_CODE":0,"TOWNNAME":"歸仁區","LI":"南興里","LIN":"2鄰","STREET":"文化十二街","SECT":" ","MAREA":" ","LANE":" ","ALLEY":" ","HOUSE_NO":"６２號","E_COORD97":176469.39000000001,"N_COORD97":2541291.3300000001,"ADDRESS":"文化十二街６２號","OBJECTID":486903},"geometry":{"x":176469.39000000153,"y":2541291.3300000001}},{"attributes":{"ID":486929,"DIS_CODE":0,"TOWNNAME":"東區","LI":"東光里","LIN":"32鄰","STREET":"東平路","SECT":" ","MAREA":" ","LANE":" ","ALLEY":" ","HOUSE_NO":"１１１號五樓","E_COORD97":171116.63,"N_COORD97":2543951.3399999999,"ADDRESS":"東平路１１１號五樓","OBJECTID":486904},"geometry":{"x":171116.63000000082,"y":2543951.3400000017}},{"attributes":{"ID":486930,"DIS_CODE":0,"TOWNNAME":"東區","LI":"東光里","LIN":"32鄰","STREET":"東平路","SECT":" ","MAREA":" ","LANE":" ","ALLEY":" ","HOUSE_NO":"１１１號五樓之１","E_COORD97":171116.63,"N_COORD97":2543951.3399999999,"ADDRESS":"東平路１１１號五樓之１","OBJECTID":486905},"geometry":{"x":171116.63000000082,"y":2543951.3400000017}},{"attributes":{"ID":486931,"DIS_CODE":0,"TOWNNAME":"安平區","LI":"石門里","LIN":"18鄰","STREET":"\u25A0忠街","SECT":" ","MAREA":" ","LANE":" ","ALLEY":" ","HOUSE_NO":"７號之５","E_COORD97":164365.72,"N_COORD97":2544564.0600000001,"ADDRESS":"\u25A0忠街７號之５","OBJECTID":486906},"geometry":{"x":164365.72000000067,"y":2544564.0600000024}},{"attributes":{"ID":486932,"DIS_CODE":0,"TOWNNAME":"東區","LI":"東光里","LIN":"32鄰","STREET":"東平路","SECT":" ","MAREA":" ","LANE":" ","ALLEY":" ","HOUSE_NO":"１１１號五樓之１０","E_COORD97":171116.63,"N_COORD97":2543951.3399999999,"ADDRESS":"東平路１１１號五樓之１０","OBJECTID":486907},"geometry":{"x":171116.63000000082,"y":2543951.3400000017}},{"attributes":{"ID":486933,"DIS_CODE":0,"TOWNNAME":"東區","LI":"東光里","LIN":"32鄰","STREET":"東平路","SECT":" ","MAREA":" ","LANE":" ","ALLEY":" ","HOUSE_NO":"１１１號五樓之１１","E_COORD97":171116.63,"N_COORD97":2543951.3399999999,"ADDRESS":"東平路１１１號五樓之１１","OBJECTID":486908},"geometry":{"x":171116.63000000082,"y":2543951.3400000017}},{"attributes":{"ID":486934,"DIS_CODE":0,"TOWNNAME":"東區","LI":"東光里","LIN":"32鄰","STREET":"東平路","SECT":" ","MAREA":" ","LANE":" ","ALLEY":" ","HOUSE_NO":"１１１號五樓之２","E_COORD97":171116.63,"N_COORD97":2543951.3399999999,"ADDRESS":"東平路１１１號五樓之２","OBJECTID":486909},"geometry":{"x":171116.63000000082,"y":2543951.3400000017}},{"attributes":{"ID":486935,"DIS_CODE":0,"TOWNNAME":"東區","LI":"東光里","LIN":"32鄰","STREET":"東平路","SECT":" ","MAREA":" ","LANE":" ","ALLEY":" ","HOUSE_NO":"１１１號五樓之３","E_COORD97":171116.63,"N_COORD97":2543951.3399999999,"ADDRESS":"東平路１１１號五樓之３","OBJECTID":486910},"geometry":{"x":171116.63000000082,"y":2543951.3400000017}},{"attributes":{"ID":486936,"DIS_CODE":0,"TOWNNAME":"東區","LI":"東光里","LIN":"32鄰","STREET":"東平路","SECT":" ","MAREA":" ","LANE":" ","ALLEY":" ","HOUSE_NO":"１１１號五樓之４","E_COORD97":171116.63,"N_COORD97":2543951.3399999999,"ADDRESS":"東平路１１１號五樓之４","OBJECTID":486911},"geometry":{"x":171116.63000000082,"y":2543951.3400000017}},{"attributes":{"ID":486937,"DIS_CODE":0,"TOWNNAME":"東區","LI":"東光里","LIN":"32鄰","STREET":"東平路","SECT":" ","MAREA":" ","LANE":" ","ALLEY":" ","HOUSE_NO":"１１１號五樓之５","E_COORD97":171116.63,"N_COORD97":2543951.3399999999,"ADDRESS":"東平路１１１號五樓之５","OBJECTID":486912},"geometry":{"x":171116.63000000082,"y":2543951.3400000017}},{"attributes":{"ID":486938,"DIS_CODE":0,"TOWNNAME":"東區","LI":"東光里","LIN":"32鄰","STREET":"東平路","SECT":" ","MAREA":" ","LANE":" ","ALLEY":" ","HOUSE_NO":"１１１號五樓之６","E_COORD97":171116.63,"N_COORD97":2543951.3399999999,"ADDRESS":"東平路１１１號五樓之６","OBJECTID":486913},"geometry":{"x":171116.63000000082,"y":2543951.3400000017}},{"attributes":{"ID":486939,"DIS_CODE":0,"TOWNNAME":"東區","LI":"東光里","LIN":"32鄰","STREET":"東平路","SECT":" ","MAREA":" ","LANE":" ","ALLEY":" ","HOUSE_NO":"１１１號五樓之７","E_COORD97":171116.63,"N_COORD97":2543951.3399999999,"ADDRESS":"東平路１１１號五樓之７","OBJECTID":486914},"geometry":{"x":171116.63000000082,"y":2543951.3400000017}},{"attributes":{"ID":486940,"DIS_CODE":0,"TOWNNAME":"東區","LI":"東光里","LIN":"32鄰","STREET":"東平路","SECT":" ","MAREA":" ","LANE":" ","ALLEY":" ","HOUSE_NO":"１１１號五樓之８","E_COORD97":171116.63,"N_COORD97":2543951.3399999999,"ADDRESS":"東平路１１１號五樓之８","OBJECTID":486915},"geometry":{"x":171116.63000000082,"y":2543951.3400000017}},{"attributes":{"ID":486941,"DIS_CODE":0,"TOWNNAME":"東區","LI":"東光里","LIN":"32鄰","STREET":"東平路","SECT":" ","MAREA":" ","LANE":" ","ALLEY":" ","HOUSE_NO":"１１１號五樓之９","E_COORD97":171116.63,"N_COORD97":2543951.3399999999,"ADDRESS":"東平路１１１號五樓之９","OBJECTID":486916},"geometry":{"x":171116.63000000082,"y":2543951.3400000017}},{"attributes":{"ID":486942,"DIS_CODE":0,"TOWNNAME":"東區","LI":"東光里","LIN":"32鄰","STREET":"東平路","SECT":" ","MAREA":" ","LANE":" ","ALLEY":" ","HOUSE_NO":"１１１號六樓","E_COORD97":171116.63,"N_COORD97":2543951.3399999999,"ADDRESS":"東平路１１１號六樓","OBJECTID":486917},"geometry":{"x":171116.63000000082,"y":2543951.3400000017}},{"attributes":{"ID":486943,"DIS_CODE":0,"TOWNNAME":"永康區","LI":"正強里","LIN":"32鄰","STREET":"四維街","SECT":" ","MAREA":" ","LANE":" ","ALLEY":" ","HOUSE_NO":"４３號三樓之４","E_COORD97":173405.41,"N_COORD97":2548041.5499999998,"ADDRESS":"四維街４３號三樓之４","OBJECTID":486918},"geometry":{"x":173405.41000000108,"y":2548041.5500000007}},{"attributes":{"ID":486944,"DIS_CODE":0,"TOWNNAME":"東區","LI":"東光里","LIN":"32鄰","STREET":"東平路","SECT":" ","MAREA":" ","LANE":" ","ALLEY":" ","HOUSE_NO":"１１１號六樓之１","E_COORD97":171116.63,"N_COORD97":2543951.3399999999,"ADDRESS":"東平路１１１號六樓之１","OBJECTID":486919},"geometry":{"x":171116.63000000082,"y":2543951.3400000017}},{"attributes":{"ID":486945,"DIS_CODE":0,"TOWNNAME":"東區","LI":"東光里","LIN":"32鄰","STREET":"東平路","SECT":" ","MAREA":" ","LANE":" ","ALLEY":" ","HOUSE_NO":"１１１號六樓之１０","E_COORD97":171116.63,"N_COORD97":2543951.3399999999,"ADDRESS":"東平路１１１號六樓之１０","OBJECTID":486920},"geometry":{"x":171116.63000000082,"y":2543951.3400000017}},{"attributes":{"ID":486946,"DIS_CODE":0,"TOWNNAME":"東區","LI":"東光里","LIN":"32鄰","STREET":"東平路","SECT":" ","MAREA":" ","LANE":" ","ALLEY":" ","HOUSE_NO":"１１１號六樓之２","E_COORD97":171116.63,"N_COORD97":2543951.3399999999,"ADDRESS":"東平路１１１號六樓之２","OBJECTID":486921},"geometry":{"x":171116.63000000082,"y":2543951.3400000017}},{"attributes":{"ID":486947,"DIS_CODE":0,"TOWNNAME":"東區","LI":"東光里","LIN":"32鄰","STREET":"東平路","SECT":" ","MAREA":" ","LANE":" ","ALLEY":" ","HOUSE_NO":"１１１號六樓之３","E_COORD97":171116.63,"N_COORD97":2543951.3399999999,"ADDRESS":"東平路１１１號六樓之３","OBJECTID":486922},"geometry":{"x":171116.63000000082,"y":2543951.3400000017}},{"attributes":{"ID":486948,"DIS_CODE":0,"TOWNNAME":"新營區","LI":"太北里","LIN":"6鄰","STREET":" ","SECT":" ","MAREA":"太子宮","LANE":" ","ALLEY":" ","HOUSE_NO":"４８號之１","E_COORD97":175836.35000000001,"N_COORD97":2577150.0099999998,"ADDRESS":"太子宮４８號之１","OBJECTID":486923},"geometry":{"x":175836.34999999963,"y":2577150.0099999998}},{"attributes":{"ID":486949,"DIS_CODE":0,"TOWNNAME":"東區","LI":"東光里","LIN":"32鄰","STREET":"東平路","SECT":" ","MAREA":" ","LANE":" ","ALLEY":" ","HOUSE_NO":"１１１號六樓之４","E_COORD97":171116.63,"N_COORD97":2543951.3399999999,"ADDRESS":"東平路１１１號六樓之４","OBJECTID":486924},"geometry":{"x":171116.63000000082,"y":2543951.3400000017}},{"attributes":{"ID":486950,"DIS_CODE":0,"TOWNNAME":"東區","LI":"東光里","LIN":"32鄰","STREET":"東平路","SECT":" ","MAREA":" ","LANE":" ","ALLEY":" ","HOUSE_NO":"１１１號六樓之５","E_COORD97":171116.63,"N_COORD97":2543951.3399999999,"ADDRESS":"東平路１１１號六樓之５","OBJECTID":486925},"geometry":{"x":171116.63000000082,"y":2543951.3400000017}},{"attributes":{"ID":486951,"DIS_CODE":0,"TOWNNAME":"東區","LI":"東光里","LIN":"32鄰","STREET":"東平路","SECT":" ","MAREA":" ","LANE":" ","ALLEY":" ","HOUSE_NO":"１１１號六樓之６","E_COORD97":171116.63,"N_COORD97":2543951.3399999999,"ADDRESS":"東平路１１１號六樓之６","OBJECTID":486926},"geometry":{"x":171116.63000000082,"y":2543951.3400000017}},{"attributes":{"ID":486952,"DIS_CODE":0,"TOWNNAME":"東區","LI":"東光里","LIN":"32鄰","STREET":"東平路","SECT":" ","MAREA":" ","LANE":" ","ALLEY":" ","HOUSE_NO":"１１１號六樓之７","E_COORD97":171116.63,"N_COORD97":2543951.3399999999,"ADDRESS":"東平路１１１號六樓之７","OBJECTID":486927},"geometry":{"x":171116.63000000082,"y":2543951.3400000017}},{"attributes":{"ID":486953,"DIS_CODE":0,"TOWNNAME":"東區","LI":"東光里","LIN":"32鄰","STREET":"東平路","SECT":" ","MAREA":" ","LANE":" ","ALLEY":" ","HOUSE_NO":"１１１號六樓之８","E_COORD97":171116.63,"N_COORD97":2543951.3399999999,"ADDRESS":"東平路１１１號六樓之８","OBJECTID":486928},"geometry":{"x":171116.63000000082,"y":2543951.3400000017}},{"attributes":{"ID":486954,"DIS_CODE":0,"TOWNNAME":"東區","LI":"東光里","LIN":"32鄰","STREET":"東平路","SECT":" ","MAREA":" ","LANE":" ","ALLEY":" ","HOUSE_NO":"１１１號六樓之９","E_COORD97":171116.63,"N_COORD97":2543951.3399999999,"ADDRESS":"東平路１１１號六樓之９","OBJECTID":486929},"geometry":{"x":171116.63000000082,"y":2543951.3400000017}},{"attributes":{"ID":486955,"DIS_CODE":0,"TOWNNAME":"東區","LI":"東光里","LIN":"32鄰","STREET":"東平路","SECT":" ","MAREA":" ","LANE":" ","ALLEY":" ","HOUSE_NO":"１１１號四樓","E_COORD97":171116.63,"N_COORD97":2543951.3399999999,"ADDRESS":"東平路１１１號四樓","OBJECTID":486930},"geometry":{"x":171116.63000000082,"y":2543951.3400000017}},{"attributes":{"ID":486956,"DIS_CODE":0,"TOWNNAME":"東區","LI":"東光里","LIN":"32鄰","STREET":"東平路","SECT":" ","MAREA":" ","LANE":" ","ALLEY":" ","HOUSE_NO":"１１１號四樓之１","E_COORD97":171116.63,"N_COORD97":2543951.3399999999,"ADDRESS":"東平路１１１號四樓之１","OBJECTID":486931},"geometry":{"x":171116.63000000082,"y":2543951.3400000017}},{"attributes":{"ID":486957,"DIS_CODE":0,"TOWNNAME":"東區","LI":"東光里","LIN":"32鄰","STREET":"東平路","SECT":" ","MAREA":" ","LANE":" ","ALLEY":" ","HOUSE_NO":"１１１號四樓之１０","E_COORD97":171116.63,"N_COORD97":2543951.3399999999,"ADDRESS":"東平路１１１號四樓之１０","OBJECTID":486932},"geometry":{"x":171116.63000000082,"y":2543951.3400000017}},{"attributes":{"ID":486958,"DIS_CODE":0,"TOWNNAME":"東區","LI":"東光里","LIN":"32鄰","STREET":"東平路","SECT":" ","MAREA":" ","LANE":" ","ALLEY":" ","HOUSE_NO":"１１１號四樓之１１","E_COORD97":171116.63,"N_COORD97":2543951.3399999999,"ADDRESS":"東平路１１１號四樓之１１","OBJECTID":486933},"geometry":{"x":171116.63000000082,"y":2543951.3400000017}},{"attributes":{"ID":486959,"DIS_CODE":0,"TOWNNAME":"東區","LI":"東光里","LIN":"32鄰","STREET":"東平路","SECT":" ","MAREA":" ","LANE":" ","ALLEY":" ","HOUSE_NO":"１１１號四樓之１２","E_COORD97":171116.63,"N_COORD97":2543951.3399999999,"ADDRESS":"東平路１１１號四樓之１２","OBJECTID":486934},"geometry":{"x":171116.63000000082,"y":2543951.3400000017}},{"attributes":{"ID":486960,"DIS_CODE":0,"TOWNNAME":"東區","LI":"東光里","LIN":"32鄰","STREET":"東平路","SECT":" ","MAREA":" ","LANE":" ","ALLEY":" ","HOUSE_NO":"１１１號四樓之２","E_COORD97":171116.63,"N_COORD97":2543951.3399999999,"ADDRESS":"東平路１１１號四樓之２","OBJECTID":486935},"geometry":{"x":171116.63000000082,"y":2543951.3400000017}},{"attributes":{"ID":486961,"DIS_CODE":0,"TOWNNAME":"東區","LI":"東光里","LIN":"32鄰","STREET":"東平路","SECT":" ","MAREA":" ","LANE":" ","ALLEY":" ","HOUSE_NO":"１１１號四樓之３","E_COORD97":171116.63,"N_COORD97":2543951.3399999999,"ADDRESS":"東平路１１１號四樓之３","OBJECTID":486936},"geometry":{"x":171116.63000000082,"y":2543951.3400000017}},{"attributes":{"ID":486962,"DIS_CODE":0,"TOWNNAME":"安南區","LI":"安西里","LIN":"18鄰","STREET":"安通二街","SECT":" ","MAREA":" ","LANE":" ","ALLEY":" ","HOUSE_NO":"２１號","E_COORD97":168631.72085000001,"N_COORD97":2547827.6754700001,"ADDRESS":"安通二街２１號","OBJECTID":486937},"geometry":{"x":168631.72084999923,"y":2547827.6754720006}},{"attributes":{"ID":486963,"DIS_CODE":0,"TOWNNAME":"永康區","LI":"正強里","LIN":"32鄰","STREET":"四維街","SECT":" ","MAREA":" ","LANE":" ","ALLEY":" ","HOUSE_NO":"４３號三樓之１","E_COORD97":173405.39000000001,"N_COORD97":2548041.5499999998,"ADDRESS":"四維街４３號三樓之１","OBJECTID":486938},"geometry":{"x":173405.38999999966,"y":2548041.5500000007}},{"attributes":{"ID":486964,"DIS_CODE":0,"TOWNNAME":"東區","LI":"東光里","LIN":"32鄰","STREET":"東平路","SECT":" ","MAREA":" ","LANE":" ","ALLEY":" ","HOUSE_NO":"１１１號四樓之４","E_COORD97":171116.63,"N_COORD97":2543951.3399999999,"ADDRESS":"東平路１１１號四樓之４","OBJECTID":486939},"geometry":{"x":171116.63000000082,"y":2543951.3400000017}},{"attributes":{"ID":486965,"DIS_CODE":0,"TOWNNAME":"東區","LI":"東光里","LIN":"32鄰","STREET":"東平路","SECT":" ","MAREA":" ","LANE":" ","ALLEY":" ","HOUSE_NO":"１１１號四樓之５","E_COORD97":171116.63,"N_COORD97":2543951.3399999999,"ADDRESS":"東平路１１１號四樓之５","OBJECTID":486940},"geometry":{"x":171116.63000000082,"y":2543951.3400000017}},{"attributes":{"ID":486966,"DIS_CODE":0,"TOWNNAME":"東區","LI":"東光里","LIN":"32鄰","STREET":"東平路","SECT":" ","MAREA":" ","LANE":" ","ALLEY":" ","HOUSE_NO":"１１１號四樓之６","E_COORD97":171116.63,"N_COORD97":2543951.3399999999,"ADDRESS":"東平路１１１號四樓之６","OBJECTID":486941},"geometry":{"x":171116.63000000082,"y":2543951.3400000017}},{"attributes":{"ID":486967,"DIS_CODE":0,"TOWNNAME":"東區","LI":"東光里","LIN":"32鄰","STREET":"東平路","SECT":" ","MAREA":" ","LANE":" ","ALLEY":" ","HOUSE_NO":"１１１號四樓之７","E_COORD97":171116.63,"N_COORD97":2543951.3399999999,"ADDRESS":"東平路１１１號四樓之７","OBJECTID":486942},"geometry":{"x":171116.63000000082,"y":2543951.3400000017}},{"attributes":{"ID":486968,"DIS_CODE":0,"TOWNNAME":"東區","LI":"東光里","LIN":"32鄰","STREET":"東平路","SECT":" ","MAREA":" ","LANE":" ","ALLEY":" ","HOUSE_NO":"１１１號四樓之８","E_COORD97":171116.63,"N_COORD97":2543951.3399999999,"ADDRESS":"東平路１１１號四樓之８","OBJECTID":486943},"geometry":{"x":171116.63000000082,"y":2543951.3400000017}},{"attributes":{"ID":486969,"DIS_CODE":0,"TOWNNAME":"東區","LI":"東光里","LIN":"32鄰","STREET":"東平路","SECT":" ","MAREA":" ","LANE":" ","ALLEY":" ","HOUSE_NO":"１１１號四樓之９","E_COORD97":171116.63,"N_COORD97":2543951.3399999999,"ADDRESS":"東平路１１１號四樓之９","OBJECTID":486944},"geometry":{"x":171116.63000000082,"y":2543951.3400000017}},{"attributes":{"ID":486970,"DIS_CODE":0,"TOWNNAME":"永康區","LI":"六合里","LIN":"32鄰","STREET":"中華二路","SECT":" ","MAREA":" ","LANE":" ","ALLEY":" ","HOUSE_NO":"３５７號二樓之１","E_COORD97":171295.88,"N_COORD97":2545395.8500000001,"ADDRESS":"中華二路３５７號二樓之１","OBJECTID":486945},"geometry":{"x":171295.88000000175,"y":2545395.8500000015}},{"attributes":{"ID":486971,"DIS_CODE":0,"TOWNNAME":"永康區","LI":"六合里","LIN":"32鄰","STREET":"中華二路","SECT":" ","MAREA":" ","LANE":" ","ALLEY":" ","HOUSE_NO":"３５７號二樓之２","E_COORD97":171295.88,"N_COORD97":2545395.8500000001,"ADDRESS":"中華二路３５７號二樓之２","OBJECTID":486946},"geometry":{"x":171295.88000000175,"y":2545395.8500000015}},{"attributes":{"ID":486972,"DIS_CODE":0,"TOWNNAME":"永康區","LI":"六合里","LIN":"32鄰","STREET":"中華二路","SECT":" ","MAREA":" ","LANE":" ","ALLEY":" ","HOUSE_NO":"３５７號二樓之３","E_COORD97":171295.88,"N_COORD97":2545395.8500000001,"ADDRESS":"中華二路３５７號二樓之３","OBJECTID":486947},"geometry":{"x":171295.88000000175,"y":2545395.8500000015}},{"attributes":{"ID":486973,"DIS_CODE":0,"TOWNNAME":"永康區","LI":"六合里","LIN":"32鄰","STREET":"中華二路","SECT":" ","MAREA":" ","LANE":" ","ALLEY":" ","HOUSE_NO":"３５７號二樓之５","E_COORD97":171295.88,"N_COORD97":2545395.8500000001,"ADDRESS":"中華二路３５７號二樓之５","OBJECTID":486948},"geometry":{"x":171295.88000000175,"y":2545395.8500000015}},{"attributes":{"ID":486974,"DIS_CODE":0,"TOWNNAME":"永康區","LI":"六合里","LIN":"32鄰","STREET":"中華二路","SECT":" ","MAREA":" ","LANE":" ","ALLEY":" ","HOUSE_NO":"３５７號二樓之６","E_COORD97":171295.88,"N_COORD97":2545395.8500000001,"ADDRESS":"中華二路３５７號二樓之６","OBJECTID":486949},"geometry":{"x":171295.88000000175,"y":2545395.8500000015}},{"attributes":{"ID":486975,"DIS_CODE":0,"TOWNNAME":"永康區","LI":"六合里","LIN":"32鄰","STREET":"中華二路","SECT":" ","MAREA":" ","LANE":" ","ALLEY":" ","HOUSE_NO":"３５７號二樓之７","E_COORD97":171295.88,"N_COORD97":2545395.8500000001,"ADDRESS":"中華二路３５７號二樓之７","OBJECTID":486950},"geometry":{"x":171295.88000000175,"y":2545395.8500000015}},{"attributes":{"ID":486976,"DIS_CODE":0,"TOWNNAME":"永康區","LI":"六合里","LIN":"32鄰","STREET":"中華二路","SECT":" ","MAREA":" ","LANE":" ","ALLEY":" ","HOUSE_NO":"３５７號二樓之８","E_COORD97":171295.88,"N_COORD97":2545395.8500000001,"ADDRESS":"中華二路３５７號二樓之８","OBJECTID":486951},"geometry":{"x":171295.88000000175,"y":2545395.8500000015}},{"attributes":{"ID":486977,"DIS_CODE":0,"TOWNNAME":"永康區","LI":"六合里","LIN":"32鄰","STREET":"中華二路","SECT":" ","MAREA":" ","LANE":" ","ALLEY":" ","HOUSE_NO":"３５７號二樓之９","E_COORD97":171295.88,"N_COORD97":2545395.8500000001,"ADDRESS":"中華二路３５７號二樓之９","OBJECTID":486952},"geometry":{"x":171295.88000000175,"y":2545395.8500000015}},{"attributes":{"ID":486978,"DIS_CODE":0,"TOWNNAME":"永康區","LI":"六合里","LIN":"32鄰","STREET":"中華二路","SECT":" ","MAREA":" ","LANE":" ","ALLEY":" ","HOUSE_NO":"３５７號二樓之１０","E_COORD97":171295.88,"N_COORD97":2545395.8500000001,"ADDRESS":"中華二路３５７號二樓之１０","OBJECTID":486953},"geometry":{"x":171295.88000000175,"y":2545395.8500000015}},{"attributes":{"ID":486979,"DIS_CODE":0,"TOWNNAME":"永康區","LI":"六合里","LIN":"32鄰","STREET":"中華二路","SECT":" ","MAREA":" ","LANE":" ","ALLEY":" ","HOUSE_NO":"３５７號二樓之１１","E_COORD97":171295.88,"N_COORD97":2545395.8500000001,"ADDRESS":"中華二路３５７號二樓之１１","OBJECTID":486954},"geometry":{"x":171295.88000000175,"y":2545395.8500000015}},{"attributes":{"ID":486980,"DIS_CODE":0,"TOWNNAME":"永康區","LI":"六合里","LIN":"32鄰","STREET":"中華二路","SECT":" ","MAREA":" ","LANE":" ","ALLEY":" ","HOUSE_NO":"３５７號三樓之１","E_COORD97":171295.88,"N_COORD97":2545395.8500000001,"ADDRESS":"中華二路３５７號三樓之１","OBJECTID":486955},"geometry":{"x":171295.88000000175,"y":2545395.8500000015}},{"attributes":{"ID":486981,"DIS_CODE":0,"TOWNNAME":"永康區","LI":"六合里","LIN":"32鄰","STREET":"中華二路","SECT":" ","MAREA":" ","LANE":" ","ALLEY":" ","HOUSE_NO":"３５７號三樓之２","E_COORD97":171295.88,"N_COORD97":2545395.8500000001,"ADDRESS":"中華二路３５７號三樓之２","OBJECTID":486956},"geometry":{"x":171295.88000000175,"y":2545395.8500000015}},{"attributes":{"ID":486982,"DIS_CODE":0,"TOWNNAME":"永康區","LI":"六合里","LIN":"32鄰","STREET":"中華二路","SECT":" ","MAREA":" ","LANE":" ","ALLEY":" ","HOUSE_NO":"３５７號三樓之３","E_COORD97":171295.88,"N_COORD97":2545395.8500000001,"ADDRESS":"中華二路３５７號三樓之３","OBJECTID":486957},"geometry":{"x":171295.88000000175,"y":2545395.8500000015}},{"attributes":{"ID":486983,"DIS_CODE":0,"TOWNNAME":"永康區","LI":"六合里","LIN":"32鄰","STREET":"中華二路","SECT":" ","MAREA":" ","LANE":" ","ALLEY":" ","HOUSE_NO":"３５７號三樓之５","E_COORD97":171295.88,"N_COORD97":2545395.8500000001,"ADDRESS":"中華二路３５７號三樓之５","OBJECTID":486958},"geometry":{"x":171295.88000000175,"y":2545395.8500000015}},{"attributes":{"ID":486984,"DIS_CODE":0,"TOWNNAME":"永康區","LI":"六合里","LIN":"32鄰","STREET":"中華二路","SECT":" ","MAREA":" ","LANE":" ","ALLEY":" ","HOUSE_NO":"３５７號三樓之６","E_COORD97":171295.88,"N_COORD97":2545395.8500000001,"ADDRESS":"中華二路３５７號三樓之６","OBJECTID":486959},"geometry":{"x":171295.88000000175,"y":2545395.8500000015}},{"attributes":{"ID":486985,"DIS_CODE":0,"TOWNNAME":"永康區","LI":"六合里","LIN":"32鄰","STREET":"中華二路","SECT":" ","MAREA":" ","LANE":" ","ALLEY":" ","HOUSE_NO":"３５７號三樓之７","E_COORD97":171295.88,"N_COORD97":2545395.8500000001,"ADDRESS":"中華二路３５７號三樓之７","OBJECTID":486960},"geometry":{"x":171295.88000000175,"y":2545395.8500000015}},{"attributes":{"ID":486986,"DIS_CODE":0,"TOWNNAME":"永康區","LI":"六合里","LIN":"32鄰","STREET":"中華二路","SECT":" ","MAREA":" ","LANE":" ","ALLEY":" ","HOUSE_NO":"３５７號三樓之８","E_COORD97":171295.88,"N_COORD97":2545395.8500000001,"ADDRESS":"中華二路３５７號三樓之８","OBJECTID":486961},"geometry":{"x":171295.88000000175,"y":2545395.8500000015}},{"attributes":{"ID":486987,"DIS_CODE":0,"TOWNNAME":"永康區","LI":"六合里","LIN":"32鄰","STREET":"中華二路","SECT":" ","MAREA":" ","LANE":" ","ALLEY":" ","HOUSE_NO":"３５７號三樓之９","E_COORD97":171295.88,"N_COORD97":2545395.8500000001,"ADDRESS":"中華二路３５７號三樓之９","OBJECTID":486962},"geometry":{"x":171295.88000000175,"y":2545395.8500000015}},{"attributes":{"ID":486988,"DIS_CODE":0,"TOWNNAME":"永康區","LI":"六合里","LIN":"32鄰","STREET":"中華二路","SECT":" ","MAREA":" ","LANE":" ","ALLEY":" ","HOUSE_NO":"３５７號三樓之１０","E_COORD97":171295.88,"N_COORD97":2545395.8500000001,"ADDRESS":"中華二路３５７號三樓之１０","OBJECTID":486963},"geometry":{"x":171295.88000000175,"y":2545395.8500000015}},{"attributes":{"ID":486989,"DIS_CODE":0,"TOWNNAME":"永康區","LI":"六合里","LIN":"32鄰","STREET":"中華二路","SECT":" ","MAREA":" ","LANE":" ","ALLEY":" ","HOUSE_NO":"３５７號三樓之１１","E_COORD97":171295.88,"N_COORD97":2545395.8500000001,"ADDRESS":"中華二路３５７號三樓之１１","OBJECTID":486964},"geometry":{"x":171295.88000000175,"y":2545395.8500000015}},{"attributes":{"ID":486990,"DIS_CODE":0,"TOWNNAME":"永康區","LI":"六合里","LIN":"32鄰","STREET":"中華二路","SECT":" ","MAREA":" ","LANE":" ","ALLEY":" ","HOUSE_NO":"３５７號四樓之１","E_COORD97":171295.88,"N_COORD97":2545395.8500000001,"ADDRESS":"中華二路３５７號四樓之１","OBJECTID":486965},"geometry":{"x":171295.88000000175,"y":2545395.8500000015}},{"attributes":{"ID":486991,"DIS_CODE":0,"TOWNNAME":"永康區","LI":"六合里","LIN":"32鄰","STREET":"中華二路","SECT":" ","MAREA":" ","LANE":" ","ALLEY":" ","HOUSE_NO":"３５７號四樓之２","E_COORD97":171295.88,"N_COORD97":2545395.8500000001,"ADDRESS":"中華二路３５７號四樓之２","OBJECTID":486966},"geometry":{"x":171295.88000000175,"y":2545395.8500000015}},{"attributes":{"ID":486992,"DIS_CODE":0,"TOWNNAME":"永康區","LI":"六合里","LIN":"32鄰","STREET":"中華二路","SECT":" ","MAREA":" ","LANE":" ","ALLEY":" ","HOUSE_NO":"３５７號四樓之３","E_COORD97":171295.88,"N_COORD97":2545395.8500000001,"ADDRESS":"中華二路３５７號四樓之３","OBJECTID":486967},"geometry":{"x":171295.88000000175,"y":2545395.8500000015}},{"attributes":{"ID":486993,"DIS_CODE":0,"TOWNNAME":"永康區","LI":"六合里","LIN":"32鄰","STREET":"中華二路","SECT":" ","MAREA":" ","LANE":" ","ALLEY":" ","HOUSE_NO":"３５７號四樓之５","E_COORD97":171295.88,"N_COORD97":2545395.8500000001,"ADDRESS":"中華二路３５７號四樓之５","OBJECTID":486968},"geometry":{"x":171295.88000000175,"y":2545395.8500000015}},{"attributes":{"ID":486994,"DIS_CODE":0,"TOWNNAME":"永康區","LI":"六合里","LIN":"32鄰","STREET":"中華二路","SECT":" ","MAREA":" ","LANE":" ","ALLEY":" ","HOUSE_NO":"３５７號四樓之６","E_COORD97":171295.88,"N_COORD97":2545395.8500000001,"ADDRESS":"中華二路３５７號四樓之６","OBJECTID":486969},"geometry":{"x":171295.88000000175,"y":2545395.8500000015}},{"attributes":{"ID":486995,"DIS_CODE":0,"TOWNNAME":"永康區","LI":"六合里","LIN":"32鄰","STREET":"中華二路","SECT":" ","MAREA":" ","LANE":" ","ALLEY":" ","HOUSE_NO":"３５７號四樓之７","E_COORD97":171295.88,"N_COORD97":2545395.8500000001,"ADDRESS":"中華二路３５７號四樓之７","OBJECTID":486970},"geometry":{"x":171295.88000000175,"y":2545395.8500000015}},{"attributes":{"ID":486996,"DIS_CODE":0,"TOWNNAME":"永康區","LI":"六合里","LIN":"32鄰","STREET":"中華二路","SECT":" ","MAREA":" ","LANE":" ","ALLEY":" ","HOUSE_NO":"３５７號四樓之８","E_COORD97":171295.88,"N_COORD97":2545395.8500000001,"ADDRESS":"中華二路３５７號四樓之８","OBJECTID":486971},"geometry":{"x":171295.88000000175,"y":2545395.8500000015}},{"attributes":{"ID":486997,"DIS_CODE":0,"TOWNNAME":"永康區","LI":"六合里","LIN":"32鄰","STREET":"中華二路","SECT":" ","MAREA":" ","LANE":" ","ALLEY":" ","HOUSE_NO":"３５７號四樓之９","E_COORD97":171295.88,"N_COORD97":2545395.8500000001,"ADDRESS":"中華二路３５７號四樓之９","OBJECTID":486972},"geometry":{"x":171295.88000000175,"y":2545395.8500000015}},{"attributes":{"ID":486998,"DIS_CODE":0,"TOWNNAME":"永康區","LI":"六合里","LIN":"32鄰","STREET":"中華二路","SECT":" ","MAREA":" ","LANE":" ","ALLEY":" ","HOUSE_NO":"３５７號四樓之１０","E_COORD97":171295.88,"N_COORD97":2545395.8500000001,"ADDRESS":"中華二路３５７號四樓之１０","OBJECTID":486973},"geometry":{"x":171295.88000000175,"y":2545395.8500000015}},{"attributes":{"ID":486999,"DIS_CODE":0,"TOWNNAME":"永康區","LI":"六合里","LIN":"32鄰","STREET":"中華二路","SECT":" ","MAREA":" ","LANE":" ","ALLEY":" ","HOUSE_NO":"３５７號四樓之１１","E_COORD97":171295.88,"N_COORD97":2545395.8500000001,"ADDRESS":"中華二路３５７號四樓之１１","OBJECTID":486974},"geometry":{"x":171295.88000000175,"y":2545395.8500000015}},{"attributes":{"ID":487000,"DIS_CODE":0,"TOWNNAME":"永康區","LI":"六合里","LIN":"32鄰","STREET":"中華二路","SECT":" ","MAREA":" ","LANE":" ","ALLEY":" ","HOUSE_NO":"３５７號五樓之１","E_COORD97":171295.88,"N_COORD97":2545395.8500000001,"ADDRESS":"中華二路３５７號五樓之１","OBJECTID":486975},"geometry":{"x":171295.88000000175,"y":2545395.8500000015}},{"attributes":{"ID":487001,"DIS_CODE":0,"TOWNNAME":"永康區","LI":"六合里","LIN":"32鄰","STREET":"中華二路","SECT":" ","MAREA":" ","LANE":" ","ALLEY":" ","HOUSE_NO":"３５７號五樓之２","E_COORD97":171295.88,"N_COORD97":2545395.8500000001,"ADDRESS":"中華二路３５７號五樓之２","OBJECTID":486976},"geometry":{"x":171295.88000000175,"y":2545395.8500000015}},{"attributes":{"ID":487002,"DIS_CODE":0,"TOWNNAME":"永康區","LI":"六合里","LIN":"32鄰","STREET":"中華二路","SECT":" ","MAREA":" ","LANE":" ","ALLEY":" ","HOUSE_NO":"３５７號五樓之３","E_COORD97":171295.88,"N_COORD97":2545395.8500000001,"ADDRESS":"中華二路３５７號五樓之３","OBJECTID":486977},"geometry":{"x":171295.88000000175,"y":2545395.8500000015}},{"attributes":{"ID":487003,"DIS_CODE":0,"TOWNNAME":"永康區","LI":"六合里","LIN":"32鄰","STREET":"中華二路","SECT":" ","MAREA":" ","LANE":" ","ALLEY":" ","HOUSE_NO":"３５７號五樓之５","E_COORD97":171295.88,"N_COORD97":2545395.8500000001,"ADDRESS":"中華二路３５７號五樓之５","OBJECTID":486978},"geometry":{"x":171295.88000000175,"y":2545395.8500000015}},{"attributes":{"ID":487004,"DIS_CODE":0,"TOWNNAME":"永康區","LI":"六合里","LIN":"32鄰","STREET":"中華二路","SECT":" ","MAREA":" ","LANE":" ","ALLEY":" ","HOUSE_NO":"３５７號五樓之６","E_COORD97":171295.88,"N_COORD97":2545395.8500000001,"ADDRESS":"中華二路３５７號五樓之６","OBJECTID":486979},"geometry":{"x":171295.88000000175,"y":2545395.8500000015}},{"attributes":{"ID":487005,"DIS_CODE":0,"TOWNNAME":"永康區","LI":"六合里","LIN":"32鄰","STREET":"中華二路","SECT":" ","MAREA":" ","LANE":" ","ALLEY":" ","HOUSE_NO":"３５７號五樓之７","E_COORD97":171295.88,"N_COORD97":2545395.8500000001,"ADDRESS":"中華二路３５７號五樓之７","OBJECTID":486980},"geometry":{"x":171295.88000000175,"y":2545395.8500000015}},{"attributes":{"ID":487006,"DIS_CODE":0,"TOWNNAME":"永康區","LI":"六合里","LIN":"32鄰","STREET":"中華二路","SECT":" ","MAREA":" ","LANE":" ","ALLEY":" ","HOUSE_NO":"３５７號五樓之８","E_COORD97":171295.88,"N_COORD97":2545395.8500000001,"ADDRESS":"中華二路３５７號五樓之８","OBJECTID":486981},"geometry":{"x":171295.88000000175,"y":2545395.8500000015}},{"attributes":{"ID":487007,"DIS_CODE":0,"TOWNNAME":"永康區","LI":"六合里","LIN":"32鄰","STREET":"中華二路","SECT":" ","MAREA":" ","LANE":" ","ALLEY":" ","HOUSE_NO":"３５７號五樓之９","E_COORD97":171295.88,"N_COORD97":2545395.8500000001,"ADDRESS":"中華二路３５７號五樓之９","OBJECTID":486982},"geometry":{"x":171295.88000000175,"y":2545395.8500000015}},{"attributes":{"ID":487008,"DIS_CODE":0,"TOWNNAME":"永康區","LI":"六合里","LIN":"32鄰","STREET":"中華二路","SECT":" ","MAREA":" ","LANE":" ","ALLEY":" ","HOUSE_NO":"３５７號五樓之１０","E_COORD97":171295.88,"N_COORD97":2545395.8500000001,"ADDRESS":"中華二路３５７號五樓之１０","OBJECTID":486983},"geometry":{"x":171295.88000000175,"y":2545395.8500000015}},{"attributes":{"ID":487009,"DIS_CODE":0,"TOWNNAME":"永康區","LI":"六合里","LIN":"32鄰","STREET":"中華二路","SECT":" ","MAREA":" ","LANE":" ","ALLEY":" ","HOUSE_NO":"３５７號五樓之１１","E_COORD97":171295.88,"N_COORD97":2545395.8500000001,"ADDRESS":"中華二路３５７號五樓之１１","OBJECTID":486984},"geometry":{"x":171295.88000000175,"y":2545395.8500000015}},{"attributes":{"ID":487010,"DIS_CODE":0,"TOWNNAME":"永康區","LI":"六合里","LIN":"32鄰","STREET":"中華二路","SECT":" ","MAREA":" ","LANE":" ","ALLEY":" ","HOUSE_NO":"３５７號六樓之１","E_COORD97":171295.88,"N_COORD97":2545395.8500000001,"ADDRESS":"中華二路３５７號六樓之１","OBJECTID":486985},"geometry":{"x":171295.88000000175,"y":2545395.8500000015}},{"attributes":{"ID":487011,"DIS_CODE":0,"TOWNNAME":"永康區","LI":"六合里","LIN":"32鄰","STREET":"中華二路","SECT":" ","MAREA":" ","LANE":" ","ALLEY":" ","HOUSE_NO":"３５７號六樓之２","E_COORD97":171295.88,"N_COORD97":2545395.8500000001,"ADDRESS":"中華二路３５７號六樓之２","OBJECTID":486986},"geometry":{"x":171295.88000000175,"y":2545395.8500000015}},{"attributes":{"ID":487012,"DIS_CODE":0,"TOWNNAME":"永康區","LI":"六合里","LIN":"32鄰","STREET":"中華二路","SECT":" ","MAREA":" ","LANE":" ","ALLEY":" ","HOUSE_NO":"３５７號六樓之３","E_COORD97":171295.88,"N_COORD97":2545395.8500000001,"ADDRESS":"中華二路３５７號六樓之３","OBJECTID":486987},"geometry":{"x":171295.88000000175,"y":2545395.8500000015}},{"attributes":{"ID":487013,"DIS_CODE":0,"TOWNNAME":"永康區","LI":"六合里","LIN":"32鄰","STREET":"中華二路","SECT":" ","MAREA":" ","LANE":" ","ALLEY":" ","HOUSE_NO":"３５７號六樓之５","E_COORD97":171295.88,"N_COORD97":2545395.8500000001,"ADDRESS":"中華二路３５７號六樓之５","OBJECTID":486988},"geometry":{"x":171295.88000000175,"y":2545395.8500000015}},{"attributes":{"ID":487014,"DIS_CODE":0,"TOWNNAME":"永康區","LI":"六合里","LIN":"32鄰","STREET":"中華二路","SECT":" ","MAREA":" ","LANE":" ","ALLEY":" ","HOUSE_NO":"３５７號六樓之６","E_COORD97":171295.88,"N_COORD97":2545395.8500000001,"ADDRESS":"中華二路３５７號六樓之６","OBJECTID":486989},"geometry":{"x":171295.88000000175,"y":2545395.8500000015}},{"attributes":{"ID":487015,"DIS_CODE":0,"TOWNNAME":"永康區","LI":"六合里","LIN":"32鄰","STREET":"中華二路","SECT":" ","MAREA":" ","LANE":" ","ALLEY":" ","HOUSE_NO":"３５７號六樓之７","E_COORD97":171295.88,"N_COORD97":2545395.8500000001,"ADDRESS":"中華二路３５７號六樓之７","OBJECTID":486990},"geometry":{"x":171295.88000000175,"y":2545395.8500000015}},{"attributes":{"ID":487016,"DIS_CODE":0,"TOWNNAME":"永康區","LI":"六合里","LIN":"32鄰","STREET":"中華二路","SECT":" ","MAREA":" ","LANE":" ","ALLEY":" ","HOUSE_NO":"３５７號六樓之８","E_COORD97":171295.88,"N_COORD97":2545395.8500000001,"ADDRESS":"中華二路３５７號六樓之８","OBJECTID":486991},"geometry":{"x":171295.88000000175,"y":2545395.8500000015}},{"attributes":{"ID":487017,"DIS_CODE":0,"TOWNNAME":"永康區","LI":"六合里","LIN":"32鄰","STREET":"中華二路","SECT":" ","MAREA":" ","LANE":" ","ALLEY":" ","HOUSE_NO":"３５７號六樓之９","E_COORD97":171295.88,"N_COORD97":2545395.8500000001,"ADDRESS":"中華二路３５７號六樓之９","OBJECTID":486992},"geometry":{"x":171295.88000000175,"y":2545395.8500000015}},{"attributes":{"ID":487018,"DIS_CODE":0,"TOWNNAME":"永康區","LI":"六合里","LIN":"32鄰","STREET":"中華二路","SECT":" ","MAREA":" ","LANE":" ","ALLEY":" ","HOUSE_NO":"３５７號六樓之１０","E_COORD97":171295.88,"N_COORD97":2545395.8500000001,"ADDRESS":"中華二路３５７號六樓之１０","OBJECTID":486993},"geometry":{"x":171295.88000000175,"y":2545395.8500000015}},{"attributes":{"ID":487019,"DIS_CODE":0,"TOWNNAME":"永康區","LI":"六合里","LIN":"32鄰","STREET":"中華二路","SECT":" ","MAREA":" ","LANE":" ","ALLEY":" ","HOUSE_NO":"３５７號六樓之１１","E_COORD97":171295.88,"N_COORD97":2545395.8500000001,"ADDRESS":"中華二路３５７號六樓之１１","OBJECTID":486994},"geometry":{"x":171295.88000000175,"y":2545395.8500000015}},{"attributes":{"ID":487020,"DIS_CODE":0,"TOWNNAME":"永康區","LI":"六合里","LIN":"32鄰","STREET":"中華二路","SECT":" ","MAREA":" ","LANE":" ","ALLEY":" ","HOUSE_NO":"３５７號七樓之１","E_COORD97":171295.88,"N_COORD97":2545395.8500000001,"ADDRESS":"中華二路３５７號七樓之１","OBJECTID":486995},"geometry":{"x":171295.88000000175,"y":2545395.8500000015}},{"attributes":{"ID":487021,"DIS_CODE":0,"TOWNNAME":"永康區","LI":"六合里","LIN":"32鄰","STREET":"中華二路","SECT":" ","MAREA":" ","LANE":" ","ALLEY":" ","HOUSE_NO":"３５７號七樓之２","E_COORD97":171295.88,"N_COORD97":2545395.8500000001,"ADDRESS":"中華二路３５７號七樓之２","OBJECTID":486996},"geometry":{"x":171295.88000000175,"y":2545395.8500000015}},{"attributes":{"ID":487022,"DIS_CODE":0,"TOWNNAME":"永康區","LI":"六合里","LIN":"32鄰","STREET":"中華二路","SECT":" ","MAREA":" ","LANE":" ","ALLEY":" ","HOUSE_NO":"３５７號七樓之３","E_COORD97":171295.88,"N_COORD97":2545395.8500000001,"ADDRESS":"中華二路３５７號七樓之３","OBJECTID":486997},"geometry":{"x":171295.88000000175,"y":2545395.8500000015}},{"attributes":{"ID":487023,"DIS_CODE":0,"TOWNNAME":"永康區","LI":"六合里","LIN":"32鄰","STREET":"中華二路","SECT":" ","MAREA":" ","LANE":" ","ALLEY":" ","HOUSE_NO":"３５７號七樓之５","E_COORD97":171295.88,"N_COORD97":2545395.8500000001,"ADDRESS":"中華二路３５７號七樓之５","OBJECTID":486998},"geometry":{"x":171295.88000000175,"y":2545395.8500000015}},{"attributes":{"ID":487024,"DIS_CODE":0,"TOWNNAME":"永康區","LI":"六合里","LIN":"32鄰","STREET":"中華二路","SECT":" ","MAREA":" ","LANE":" ","ALLEY":" ","HOUSE_NO":"３５７號七樓之６","E_COORD97":171295.88,"N_COORD97":2545395.8500000001,"ADDRESS":"中華二路３５７號七樓之６","OBJECTID":486999},"geometry":{"x":171295.88000000175,"y":2545395.8500000015}},{"attributes":{"ID":487025,"DIS_CODE":0,"TOWNNAME":"永康區","LI":"六合里","LIN":"32鄰","STREET":"中華二路","SECT":" ","MAREA":" ","LANE":" ","ALLEY":" ","HOUSE_NO":"３５７號七樓之７","E_COORD97":171295.88,"N_COORD97":2545395.8500000001,"ADDRESS":"中華二路３５７號七樓之７","OBJECTID":487000},"geometry":{"x":171295.88000000175,"y":2545395.8500000015}}]}