{"displayFieldName":"TOWNNAME","fieldAliases":{"ID":"ID","DIS_CODE":"DIS_CODE","TOWNNAME":"TOWNNAME","LI":"LI","LIN":"LIN","STREET":"STREET","SECT":"SECT","MAREA":"MAREA","LANE":"LANE","ALLEY":"ALLEY","HOUSE_NO":"HOUSE_NO","E_COORD97":"E_COORD97","N_COORD97":"N_COORD97","ADDRESS":"ADDRESS","OBJECTID":"OBJECTID"},"geometryType":"esriGeometryPoint","spatialReference":{"wkid":102443,"latestWkid":3826},"fields":[{"name":"ID","type":"esriFieldTypeDouble","alias":"ID"},{"name":"DIS_CODE","type":"esriFieldTypeInteger","alias":"DIS_CODE"},{"name":"TOWNNAME","type":"esriFieldTypeString","alias":"TOWNNAME","length":8},{"name":"LI","type":"esriFieldTypeString","alias":"LI","length":8},{"name":"LIN","type":"esriFieldTypeString","alias":"LIN","length":12},{"name":"STREET","type":"esriFieldTypeString","alias":"STREET","length":20},{"name":"SECT","type":"esriFieldTypeString","alias":"SECT","length":8},{"name":"MAREA","type":"esriFieldTypeString","alias":"MAREA","length":12},{"name":"LANE","type":"esriFieldTypeString","alias":"LANE","length":10},{"name":"ALLEY","type":"esriFieldTypeString","alias":"ALLEY","length":10},{"name":"HOUSE_NO","type":"esriFieldTypeString","alias":"HOUSE_NO","length":20},{"name":"E_COORD97","type":"esriFieldTypeDouble","alias":"E_COORD97"},{"name":"N_COORD97","type":"esriFieldTypeDouble","alias":"N_COORD97"},{"name":"ADDRESS","type":"esriFieldTypeString","alias":"ADDRESS","length":50},{"name":"OBJECTID","type":"esriFieldTypeOID","alias":"OBJECTID"}],"features":[{"attributes":{"ID":456426,"DIS_CODE":0,"TOWNNAME":"永康區","LI":"正強里","LIN":"42鄰","STREET":"中正路","SECT":" ","MAREA":" ","LANE":"２５６巷","ALLEY":" ","HOUSE_NO":"１號之４６","E_COORD97":173178.16,"N_COORD97":2547946.8999999999,"ADDRESS":"中正路２５６巷１號之４６","OBJECTID":456401},"geometry":{"x":173178.16000000108,"y":2547946.9000000004}},{"attributes":{"ID":456427,"DIS_CODE":0,"TOWNNAME":"永康區","LI":"正強里","LIN":"42鄰","STREET":"中正路","SECT":" ","MAREA":" ","LANE":"２５６巷","ALLEY":" ","HOUSE_NO":"１號之７","E_COORD97":173176.89000000001,"N_COORD97":2547946.8999999999,"ADDRESS":"中正路２５６巷１號之７","OBJECTID":456402},"geometry":{"x":173176.88999999966,"y":2547946.9000000004}},{"attributes":{"ID":456428,"DIS_CODE":0,"TOWNNAME":"永康區","LI":"西灣里","LIN":"42鄰","STREET":"大灣路","SECT":" ","MAREA":" ","LANE":"９４２巷","ALLEY":" ","HOUSE_NO":"４９９號四樓之２","E_COORD97":173959.34,"N_COORD97":2545486.4399999999,"ADDRESS":"大灣路９４２巷４９９號四樓之２","OBJECTID":456403},"geometry":{"x":173959.34000000171,"y":2545486.4400000013}},{"attributes":{"ID":456429,"DIS_CODE":0,"TOWNNAME":"永康區","LI":"西灣里","LIN":"42鄰","STREET":"大灣路","SECT":" ","MAREA":" ","LANE":"９４２巷","ALLEY":" ","HOUSE_NO":"４９９號二樓之２","E_COORD97":173959.34,"N_COORD97":2545486.4399999999,"ADDRESS":"大灣路９４２巷４９９號二樓之２","OBJECTID":456404},"geometry":{"x":173959.34000000171,"y":2545486.4400000013}},{"attributes":{"ID":456430,"DIS_CODE":0,"TOWNNAME":"永康區","LI":"西灣里","LIN":"42鄰","STREET":"大灣路","SECT":" ","MAREA":" ","LANE":"９４２巷","ALLEY":" ","HOUSE_NO":"４９９號五樓之３","E_COORD97":173959.31,"N_COORD97":2545486.4399999999,"ADDRESS":"大灣路９４２巷４９９號五樓之３","OBJECTID":456405},"geometry":{"x":173959.31000000052,"y":2545486.4400000013}},{"attributes":{"ID":456431,"DIS_CODE":0,"TOWNNAME":"永康區","LI":"西灣里","LIN":"42鄰","STREET":"大灣路","SECT":" ","MAREA":" ","LANE":"９４２巷","ALLEY":" ","HOUSE_NO":"４９９號三樓之３","E_COORD97":173959.31,"N_COORD97":2545486.4399999999,"ADDRESS":"大灣路９４２巷４９９號三樓之３","OBJECTID":456406},"geometry":{"x":173959.31000000052,"y":2545486.4400000013}},{"attributes":{"ID":456432,"DIS_CODE":0,"TOWNNAME":"永康區","LI":"西灣里","LIN":"42鄰","STREET":"大灣路","SECT":" ","MAREA":" ","LANE":"９４２巷","ALLEY":" ","HOUSE_NO":"４９９號三樓之５","E_COORD97":173959.35999999999,"N_COORD97":2545486.4399999999,"ADDRESS":"大灣路９４２巷４９９號三樓之５","OBJECTID":456407},"geometry":{"x":173959.36000000034,"y":2545486.4400000013}},{"attributes":{"ID":456433,"DIS_CODE":0,"TOWNNAME":"歸仁區","LI":"大廟里","LIN":"4鄰","STREET":"和順路","SECT":"二段","MAREA":" ","LANE":"４１巷","ALLEY":" ","HOUSE_NO":"３０號","E_COORD97":176513.73999999999,"N_COORD97":2543507.2799999998,"ADDRESS":"和順路二段４１巷３０號","OBJECTID":456408},"geometry":{"x":176513.74000000115,"y":2543507.2800000012}},{"attributes":{"ID":456434,"DIS_CODE":0,"TOWNNAME":"仁德區","LI":"太子里","LIN":"42鄰","STREET":"太子路","SECT":" ","MAREA":" ","LANE":"２８巷","ALLEY":" ","HOUSE_NO":"２０號","E_COORD97":175350.94,"N_COORD97":2543667.75,"ADDRESS":"太子路２８巷２０號","OBJECTID":456409},"geometry":{"x":175350.94000000227,"y":2543667.7500000019}},{"attributes":{"ID":456435,"DIS_CODE":0,"TOWNNAME":"仁德區","LI":"太子里","LIN":"42鄰","STREET":"太子路","SECT":" ","MAREA":" ","LANE":"２８巷","ALLEY":" ","HOUSE_NO":"９號","E_COORD97":175327.14999999999,"N_COORD97":2543634.2599999998,"ADDRESS":"太子路２８巷９號","OBJECTID":456410},"geometry":{"x":175327.15000000037,"y":2543634.2599999998}},{"attributes":{"ID":456436,"DIS_CODE":0,"TOWNNAME":"仁德區","LI":"太子里","LIN":"42鄰","STREET":"太子路","SECT":" ","MAREA":" ","LANE":"２８巷","ALLEY":" ","HOUSE_NO":"２５號","E_COORD97":175296.64000000001,"N_COORD97":2543674,"ADDRESS":"太子路２８巷２５號","OBJECTID":456411},"geometry":{"x":175296.6400000006,"y":2543674}},{"attributes":{"ID":456437,"DIS_CODE":0,"TOWNNAME":"新市區","LI":"新和里","LIN":"42鄰","STREET":"勝利街","SECT":" ","MAREA":" ","LANE":"１２巷","ALLEY":" ","HOUSE_NO":"１５號","E_COORD97":177371.89999999999,"N_COORD97":2553002.5099999998,"ADDRESS":"勝利街１２巷１５號","OBJECTID":456412},"geometry":{"x":177371.90000000224,"y":2553002.5100000016}},{"attributes":{"ID":456438,"DIS_CODE":0,"TOWNNAME":"新市區","LI":"新和里","LIN":"42鄰","STREET":"信義街","SECT":" ","MAREA":" ","LANE":"１０６巷","ALLEY":" ","HOUSE_NO":"２０號","E_COORD97":177335.23999999999,"N_COORD97":2553007.02,"ADDRESS":"信義街１０６巷２０號","OBJECTID":456413},"geometry":{"x":177335.24000000022,"y":2553007.0199999996}},{"attributes":{"ID":456439,"DIS_CODE":0,"TOWNNAME":"永康區","LI":"五王里","LIN":"42鄰","STREET":"中山東路","SECT":" ","MAREA":" ","LANE":"２０巷","ALLEY":" ","HOUSE_NO":"５號","E_COORD97":171644.64999999999,"N_COORD97":2546107,"ADDRESS":"中山東路２０巷５號","OBJECTID":456414},"geometry":{"x":171644.65000000037,"y":2546107.0000000019}},{"attributes":{"ID":456440,"DIS_CODE":0,"TOWNNAME":"仁德區","LI":"太子里","LIN":"42鄰","STREET":"太子路","SECT":" ","MAREA":" ","LANE":"２８巷","ALLEY":" ","HOUSE_NO":"２７號","E_COORD97":175290.39999999999,"N_COORD97":2543664.5,"ADDRESS":"太子路２８巷２７號","OBJECTID":456415},"geometry":{"x":175290.4000000013,"y":2543664.5}},{"attributes":{"ID":456441,"DIS_CODE":0,"TOWNNAME":"永康區","LI":"五王里","LIN":"42鄰","STREET":"中山東路","SECT":" ","MAREA":" ","LANE":"２０巷","ALLEY":" ","HOUSE_NO":"８號","E_COORD97":171638.01000000001,"N_COORD97":2546123,"ADDRESS":"中山東路２０巷８號","OBJECTID":456416},"geometry":{"x":171638.01000000071,"y":2546123.0000000037}},{"attributes":{"ID":456442,"DIS_CODE":0,"TOWNNAME":"永康區","LI":"崑山里","LIN":"42鄰","STREET":"大仁街","SECT":" ","MAREA":" ","LANE":"２１７巷","ALLEY":" ","HOUSE_NO":"１６號","E_COORD97":173906.45000000001,"N_COORD97":2545119.4900000002,"ADDRESS":"大仁街２１７巷１６號","OBJECTID":456417},"geometry":{"x":173906.45000000112,"y":2545119.4899999984}},{"attributes":{"ID":456443,"DIS_CODE":0,"TOWNNAME":"永康區","LI":"永康里","LIN":"42鄰","STREET":"永大二路","SECT":" ","MAREA":" ","LANE":"１０８巷","ALLEY":" ","HOUSE_NO":"１３號","E_COORD97":174100.70000000001,"N_COORD97":2546573.7400000002,"ADDRESS":"永大二路１０８巷１３號","OBJECTID":456418},"geometry":{"x":174100.70000000019,"y":2546573.7400000021}},{"attributes":{"ID":456444,"DIS_CODE":0,"TOWNNAME":"永康區","LI":"永康里","LIN":"42鄰","STREET":"永大二路","SECT":" ","MAREA":" ","LANE":"１０８巷","ALLEY":" ","HOUSE_NO":"９號","E_COORD97":174096.42999999999,"N_COORD97":2546565.3300000001,"ADDRESS":"永大二路１０８巷９號","OBJECTID":456419},"geometry":{"x":174096.43000000063,"y":2546565.3300000019}},{"attributes":{"ID":456445,"DIS_CODE":0,"TOWNNAME":"永康區","LI":"龍潭里","LIN":"42鄰","STREET":"永平街","SECT":" ","MAREA":" ","LANE":"７５９巷","ALLEY":" ","HOUSE_NO":"２８號","E_COORD97":174588.98000000001,"N_COORD97":2547087.2400000002,"ADDRESS":"永平街７５９巷２８號","OBJECTID":456420},"geometry":{"x":174588.98000000045,"y":2547087.2400000002}},{"attributes":{"ID":456446,"DIS_CODE":0,"TOWNNAME":"永康區","LI":"崑山里","LIN":"42鄰","STREET":"大仁街","SECT":" ","MAREA":" ","LANE":"２１７巷","ALLEY":" ","HOUSE_NO":"１８號","E_COORD97":173903.09,"N_COORD97":2545120.4900000002,"ADDRESS":"大仁街２１７巷１８號","OBJECTID":456421},"geometry":{"x":173903.08999999985,"y":2545120.4900000021}},{"attributes":{"ID":456447,"DIS_CODE":0,"TOWNNAME":"永康區","LI":"崑山里","LIN":"42鄰","STREET":"大仁街","SECT":" ","MAREA":" ","LANE":"２１７巷","ALLEY":" ","HOUSE_NO":"３號","E_COORD97":173920.62,"N_COORD97":2545096.5,"ADDRESS":"大仁街２１７巷３號","OBJECTID":456422},"geometry":{"x":173920.62000000104,"y":2545096.5000000019}},{"attributes":{"ID":456448,"DIS_CODE":0,"TOWNNAME":"永康區","LI":"崑山里","LIN":"42鄰","STREET":"大仁街","SECT":" ","MAREA":" ","LANE":"２１７巷","ALLEY":" ","HOUSE_NO":"２１號","E_COORD97":173890.39000000001,"N_COORD97":2545107,"ADDRESS":"大仁街２１７巷２１號","OBJECTID":456423},"geometry":{"x":173890.38999999966,"y":2545107.0000000019}},{"attributes":{"ID":456449,"DIS_CODE":0,"TOWNNAME":"仁德區","LI":"太子里","LIN":"42鄰","STREET":"太子路","SECT":" ","MAREA":" ","LANE":"２８巷","ALLEY":" ","HOUSE_NO":"９之１號","E_COORD97":175331.70718,"N_COORD97":2543644.0800600001,"ADDRESS":"太子路２８巷９之１號","OBJECTID":456424},"geometry":{"x":175331.70717999991,"y":2543644.0800610017}},{"attributes":{"ID":456450,"DIS_CODE":0,"TOWNNAME":"永康區","LI":"崑山里","LIN":"42鄰","STREET":"大仁街","SECT":" ","MAREA":" ","LANE":"２１７巷","ALLEY":" ","HOUSE_NO":"４１號","E_COORD97":173851.98999999999,"N_COORD97":2545122.1600000001,"ADDRESS":"大仁街２１７巷４１號","OBJECTID":456425},"geometry":{"x":173851.99000000115,"y":2545122.160000002}},{"attributes":{"ID":456451,"DIS_CODE":0,"TOWNNAME":"永康區","LI":"崑山里","LIN":"42鄰","STREET":"大仁街","SECT":" ","MAREA":" ","LANE":"２１７巷","ALLEY":" ","HOUSE_NO":"１０號","E_COORD97":173916.82000000001,"N_COORD97":2545115.9900000002,"ADDRESS":"大仁街２１７巷１０號","OBJECTID":456426},"geometry":{"x":173916.8200000003,"y":2545115.9899999984}},{"attributes":{"ID":456452,"DIS_CODE":0,"TOWNNAME":"永康區","LI":"崑山里","LIN":"42鄰","STREET":"大仁街","SECT":" ","MAREA":" ","LANE":"２１７巷","ALLEY":" ","HOUSE_NO":"２０號","E_COORD97":173899.53,"N_COORD97":2545121.7400000002,"ADDRESS":"大仁街２１７巷２０號","OBJECTID":456427},"geometry":{"x":173899.53000000119,"y":2545121.7400000021}},{"attributes":{"ID":456453,"DIS_CODE":0,"TOWNNAME":"永康區","LI":"崑山里","LIN":"42鄰","STREET":"大仁街","SECT":" ","MAREA":" ","LANE":"１９９巷","ALLEY":" ","HOUSE_NO":"３０號","E_COORD97":173858.10000000001,"N_COORD97":2545080.0499999998,"ADDRESS":"大仁街１９９巷３０號","OBJECTID":456428},"geometry":{"x":173858.09999999963,"y":2545080.0500000026}},{"attributes":{"ID":456454,"DIS_CODE":0,"TOWNNAME":"永康區","LI":"崑山里","LIN":"42鄰","STREET":"大仁街","SECT":" ","MAREA":" ","LANE":"２１７巷","ALLEY":" ","HOUSE_NO":"２２號","E_COORD97":173895.82000000001,"N_COORD97":2545122.9900000002,"ADDRESS":"大仁街２１７巷２２號","OBJECTID":456429},"geometry":{"x":173895.82000000123,"y":2545122.9900000039}},{"attributes":{"ID":456455,"DIS_CODE":0,"TOWNNAME":"永康區","LI":"崑山里","LIN":"42鄰","STREET":"大仁街","SECT":" ","MAREA":" ","LANE":"２１７巷","ALLEY":" ","HOUSE_NO":"１７號","E_COORD97":173897.04000000001,"N_COORD97":2545104.75,"ADDRESS":"大仁街２１７巷１７號","OBJECTID":456430},"geometry":{"x":173897.0400000019,"y":2545104.7500000019}},{"attributes":{"ID":456456,"DIS_CODE":0,"TOWNNAME":"永康區","LI":"崑山里","LIN":"42鄰","STREET":"大仁街","SECT":" ","MAREA":" ","LANE":"２１７巷","ALLEY":" ","HOUSE_NO":"１號","E_COORD97":173924.20000000001,"N_COORD97":2545095.5,"ADDRESS":"大仁街２１７巷１號","OBJECTID":456431},"geometry":{"x":173924.20000000019,"y":2545095.5000000037}},{"attributes":{"ID":456457,"DIS_CODE":0,"TOWNNAME":"永康區","LI":"崑山里","LIN":"42鄰","STREET":"大仁街","SECT":" ","MAREA":" ","LANE":"２１７巷","ALLEY":" ","HOUSE_NO":"４號","E_COORD97":173925.95000000001,"N_COORD97":2545112.4900000002,"ADDRESS":"大仁街２１７巷４號","OBJECTID":456432},"geometry":{"x":173925.95000000019,"y":2545112.4900000002}},{"attributes":{"ID":456458,"DIS_CODE":0,"TOWNNAME":"永康區","LI":"崑山里","LIN":"42鄰","STREET":"大仁街","SECT":" ","MAREA":" ","LANE":"２１７巷","ALLEY":" ","HOUSE_NO":"３２號","E_COORD97":173864.82999999999,"N_COORD97":2545131.8700000001,"ADDRESS":"大仁街２１７巷３２號","OBJECTID":456433},"geometry":{"x":173864.83000000101,"y":2545131.8700000029}},{"attributes":{"ID":456459,"DIS_CODE":0,"TOWNNAME":"永康區","LI":"崑山里","LIN":"42鄰","STREET":"大仁街","SECT":" ","MAREA":" ","LANE":"２１７巷","ALLEY":" ","HOUSE_NO":"１４號","E_COORD97":173909.89000000001,"N_COORD97":2545118.4900000002,"ADDRESS":"大仁街２１７巷１４號","OBJECTID":456434},"geometry":{"x":173909.8900000006,"y":2545118.4900000002}},{"attributes":{"ID":456460,"DIS_CODE":0,"TOWNNAME":"永康區","LI":"崑山里","LIN":"42鄰","STREET":"大仁街","SECT":" ","MAREA":" ","LANE":"２１７巷","ALLEY":" ","HOUSE_NO":"４３號","E_COORD97":173846.54000000001,"N_COORD97":2545124.1600000001,"ADDRESS":"大仁街２１７巷４３號","OBJECTID":456435},"geometry":{"x":173846.54000000097,"y":2545124.1600000001}},{"attributes":{"ID":456461,"DIS_CODE":0,"TOWNNAME":"永康區","LI":"崑山里","LIN":"42鄰","STREET":"大仁街","SECT":" ","MAREA":" ","LANE":"１９９巷","ALLEY":" ","HOUSE_NO":"１０號","E_COORD97":173899.60000000001,"N_COORD97":2545064.75,"ADDRESS":"大仁街１９９巷１０號","OBJECTID":456436},"geometry":{"x":173899.60000000149,"y":2545064.7500000019}},{"attributes":{"ID":456462,"DIS_CODE":0,"TOWNNAME":"永康區","LI":"崑山里","LIN":"42鄰","STREET":"大仁街","SECT":" ","MAREA":" ","LANE":"２１７巷","ALLEY":" ","HOUSE_NO":"７號","E_COORD97":173913.39999999999,"N_COORD97":2545099,"ADDRESS":"大仁街２１７巷７號","OBJECTID":456437},"geometry":{"x":173913.40000000037,"y":2545099.0000000037}},{"attributes":{"ID":456463,"DIS_CODE":0,"TOWNNAME":"仁德區","LI":"後壁里","LIN":"42鄰","STREET":"中正路","SECT":"二段","MAREA":" ","LANE":"１０６巷","ALLEY":" ","HOUSE_NO":"３７號","E_COORD97":173303.66,"N_COORD97":2538487.02,"ADDRESS":"中正路二段１０６巷３７號","OBJECTID":456438},"geometry":{"x":173303.66000000108,"y":2538487.0200000033}},{"attributes":{"ID":456464,"DIS_CODE":0,"TOWNNAME":"仁德區","LI":"後壁里","LIN":"42鄰","STREET":"中正路","SECT":"二段","MAREA":" ","LANE":"１０６巷","ALLEY":" ","HOUSE_NO":"３１號","E_COORD97":173287.59,"N_COORD97":2538501.02,"ADDRESS":"中正路二段１０６巷３１號","OBJECTID":456439},"geometry":{"x":173287.58999999985,"y":2538501.0200000014}},{"attributes":{"ID":456465,"DIS_CODE":0,"TOWNNAME":"永康區","LI":"\u25A0行里","LIN":"42鄰","STREET":"永安二街","SECT":" ","MAREA":" ","LANE":"５８巷","ALLEY":" ","HOUSE_NO":"３０號","E_COORD97":172391,"N_COORD97":2549671.9500000002,"ADDRESS":"永安二街５８巷３０號","OBJECTID":456440},"geometry":{"x":172391.00000000093,"y":2549671.9499999974}},{"attributes":{"ID":456466,"DIS_CODE":0,"TOWNNAME":"永康區","LI":"\u25A0行里","LIN":"42鄰","STREET":"永安二街","SECT":" ","MAREA":" ","LANE":"５８巷","ALLEY":" ","HOUSE_NO":"３２號","E_COORD97":172396.85999999999,"N_COORD97":2549677.54,"ADDRESS":"永安二街５８巷３２號","OBJECTID":456441},"geometry":{"x":172396.86000000127,"y":2549677.5399999991}},{"attributes":{"ID":456467,"DIS_CODE":0,"TOWNNAME":"永康區","LI":"\u25A0行里","LIN":"42鄰","STREET":"永安二街","SECT":" ","MAREA":" ","LANE":"５８巷","ALLEY":" ","HOUSE_NO":"３６號","E_COORD97":172391.10999999999,"N_COORD97":2549680.77,"ADDRESS":"永安二街５８巷３６號","OBJECTID":456442},"geometry":{"x":172391.11000000034,"y":2549680.7700000014}},{"attributes":{"ID":456468,"DIS_CODE":0,"TOWNNAME":"永康區","LI":"\u25A0行里","LIN":"42鄰","STREET":"永安二街","SECT":" ","MAREA":" ","LANE":"５８巷","ALLEY":" ","HOUSE_NO":"３８號","E_COORD97":172390.95999999999,"N_COORD97":2549684.77,"ADDRESS":"永安二街５８巷３８號","OBJECTID":456443},"geometry":{"x":172390.96000000089,"y":2549684.7700000014}},{"attributes":{"ID":456469,"DIS_CODE":0,"TOWNNAME":"永康區","LI":"\u25A0行里","LIN":"42鄰","STREET":"永安二街","SECT":" ","MAREA":" ","LANE":"５８巷","ALLEY":" ","HOUSE_NO":"４０號","E_COORD97":172387,"N_COORD97":2549688.5499999998,"ADDRESS":"永安二街５８巷４０號","OBJECTID":456444},"geometry":{"x":172387.00000000093,"y":2549688.5500000007}},{"attributes":{"ID":456470,"DIS_CODE":0,"TOWNNAME":"永康區","LI":"\u25A0行里","LIN":"42鄰","STREET":"永安二街","SECT":" ","MAREA":" ","LANE":"５８巷","ALLEY":" ","HOUSE_NO":"４２號","E_COORD97":172385.62,"N_COORD97":2549691.8500000001,"ADDRESS":"永安二街５８巷４２號","OBJECTID":456445},"geometry":{"x":172385.62000000011,"y":2549691.8500000015}},{"attributes":{"ID":456471,"DIS_CODE":0,"TOWNNAME":"歸仁區","LI":"八甲里","LIN":"20鄰","STREET":"大仁三街","SECT":" ","MAREA":" ","LANE":"２３巷","ALLEY":" ","HOUSE_NO":"１０號","E_COORD97":178308.14000000001,"N_COORD97":2541349.25,"ADDRESS":"大仁三街２３巷１０號","OBJECTID":456446},"geometry":{"x":178308.13999999966,"y":2541349.25}},{"attributes":{"ID":456472,"DIS_CODE":0,"TOWNNAME":"永康區","LI":"永康里","LIN":"42鄰","STREET":"永信路","SECT":" ","MAREA":" ","LANE":"５８巷","ALLEY":" ","HOUSE_NO":"１２號三樓","E_COORD97":174186.45999999999,"N_COORD97":2546499,"ADDRESS":"永信路５８巷１２號三樓","OBJECTID":456447},"geometry":{"x":174186.46000000089,"y":2546498.9999999981}},{"attributes":{"ID":456473,"DIS_CODE":0,"TOWNNAME":"永康區","LI":"龍潭里","LIN":"42鄰","STREET":"永平街","SECT":" ","MAREA":" ","LANE":"７５９巷","ALLEY":" ","HOUSE_NO":"１８號四樓","E_COORD97":174612.48000000001,"N_COORD97":2547081.5,"ADDRESS":"永平街７５９巷１８號四樓","OBJECTID":456448},"geometry":{"x":174612.48000000045,"y":2547081.5}},{"attributes":{"ID":456474,"DIS_CODE":0,"TOWNNAME":"永康區","LI":"龍潭里","LIN":"42鄰","STREET":"永平街","SECT":" ","MAREA":" ","LANE":"７５９巷","ALLEY":" ","HOUSE_NO":"２０號五樓","E_COORD97":174607.57999999999,"N_COORD97":2547081.25,"ADDRESS":"永平街７５９巷２０號五樓","OBJECTID":456449},"geometry":{"x":174607.58000000101,"y":2547081.2500000019}},{"attributes":{"ID":456475,"DIS_CODE":0,"TOWNNAME":"永康區","LI":"西灣里","LIN":"42鄰","STREET":"大灣路","SECT":" ","MAREA":" ","LANE":"９４２巷","ALLEY":" ","HOUSE_NO":"４９９號四樓之３","E_COORD97":173959.31,"N_COORD97":2545486.4399999999,"ADDRESS":"大灣路９４２巷４９９號四樓之３","OBJECTID":456450},"geometry":{"x":173959.31000000052,"y":2545486.4400000013}},{"attributes":{"ID":456476,"DIS_CODE":0,"TOWNNAME":"永康區","LI":"永康里","LIN":"42鄰","STREET":"永信路","SECT":" ","MAREA":" ","LANE":"５８巷","ALLEY":" ","HOUSE_NO":"１２號四樓","E_COORD97":174186.45999999999,"N_COORD97":2546499,"ADDRESS":"永信路５８巷１２號四樓","OBJECTID":456451},"geometry":{"x":174186.46000000089,"y":2546498.9999999981}},{"attributes":{"ID":456477,"DIS_CODE":0,"TOWNNAME":"玉井區","LI":"玉田里","LIN":"42鄰","STREET":"仁愛街","SECT":" ","MAREA":" ","LANE":"１８０巷","ALLEY":" ","HOUSE_NO":"６號二樓之１","E_COORD97":195452.42000000001,"N_COORD97":2557875.29,"ADDRESS":"仁愛街１８０巷６號二樓之１","OBJECTID":456452},"geometry":{"x":195452.42000000086,"y":2557875.290000001}},{"attributes":{"ID":456478,"DIS_CODE":0,"TOWNNAME":"永康區","LI":"西灣里","LIN":"42鄰","STREET":"大灣路","SECT":" ","MAREA":" ","LANE":"９４２巷","ALLEY":" ","HOUSE_NO":"４９９號三樓之２","E_COORD97":173959.34,"N_COORD97":2545486.4399999999,"ADDRESS":"大灣路９４２巷４９９號三樓之２","OBJECTID":456453},"geometry":{"x":173959.34000000171,"y":2545486.4400000013}},{"attributes":{"ID":456479,"DIS_CODE":0,"TOWNNAME":"永康區","LI":"西灣里","LIN":"42鄰","STREET":"大灣路","SECT":" ","MAREA":" ","LANE":"９４２巷","ALLEY":" ","HOUSE_NO":"４９９號二樓之５","E_COORD97":173959.35999999999,"N_COORD97":2545486.4399999999,"ADDRESS":"大灣路９４２巷４９９號二樓之５","OBJECTID":456454},"geometry":{"x":173959.36000000034,"y":2545486.4400000013}},{"attributes":{"ID":456480,"DIS_CODE":0,"TOWNNAME":"永康區","LI":"西灣里","LIN":"42鄰","STREET":"大灣路","SECT":" ","MAREA":" ","LANE":"９４２巷","ALLEY":" ","HOUSE_NO":"４９９號二樓之１","E_COORD97":173959.20999999999,"N_COORD97":2545486.4399999999,"ADDRESS":"大灣路９４２巷４９９號二樓之１","OBJECTID":456455},"geometry":{"x":173959.21000000089,"y":2545486.4400000013}},{"attributes":{"ID":456481,"DIS_CODE":0,"TOWNNAME":"永康區","LI":"正強里","LIN":"46鄰","STREET":"中正路","SECT":" ","MAREA":" ","LANE":"２５６巷","ALLEY":" ","HOUSE_NO":"９號之５１","E_COORD97":173207.06,"N_COORD97":2547991.8799999999,"ADDRESS":"中正路２５６巷９號之５１","OBJECTID":456456},"geometry":{"x":173207.06000000052,"y":2547991.8800000008}},{"attributes":{"ID":456482,"DIS_CODE":0,"TOWNNAME":"永康區","LI":"西灣里","LIN":"42鄰","STREET":"大灣路","SECT":" ","MAREA":" ","LANE":"９４２巷","ALLEY":" ","HOUSE_NO":"４９９號四樓之１","E_COORD97":173959.20999999999,"N_COORD97":2545486.4399999999,"ADDRESS":"大灣路９４２巷４９９號四樓之１","OBJECTID":456457},"geometry":{"x":173959.21000000089,"y":2545486.4400000013}},{"attributes":{"ID":456483,"DIS_CODE":0,"TOWNNAME":"永康區","LI":"西灣里","LIN":"42鄰","STREET":"大灣路","SECT":" ","MAREA":" ","LANE":"９４２巷","ALLEY":" ","HOUSE_NO":"４９９號五樓之２","E_COORD97":173959.34,"N_COORD97":2545486.4399999999,"ADDRESS":"大灣路９４２巷４９９號五樓之２","OBJECTID":456458},"geometry":{"x":173959.34000000171,"y":2545486.4400000013}},{"attributes":{"ID":456484,"DIS_CODE":0,"TOWNNAME":"玉井區","LI":"玉田里","LIN":"42鄰","STREET":"仁愛街","SECT":" ","MAREA":" ","LANE":"１８０巷","ALLEY":" ","HOUSE_NO":"６號二樓之７","E_COORD97":195452.5,"N_COORD97":2557875.29,"ADDRESS":"仁愛街１８０巷６號二樓之７","OBJECTID":456459},"geometry":{"x":195452.5,"y":2557875.290000001}},{"attributes":{"ID":456485,"DIS_CODE":0,"TOWNNAME":"玉井區","LI":"玉田里","LIN":"42鄰","STREET":"仁愛街","SECT":" ","MAREA":" ","LANE":"１８０巷","ALLEY":" ","HOUSE_NO":"６號五樓之１","E_COORD97":195452.42000000001,"N_COORD97":2557875.29,"ADDRESS":"仁愛街１８０巷６號五樓之１","OBJECTID":456460},"geometry":{"x":195452.42000000086,"y":2557875.290000001}},{"attributes":{"ID":456486,"DIS_CODE":0,"TOWNNAME":"玉井區","LI":"玉田里","LIN":"42鄰","STREET":"仁愛街","SECT":" ","MAREA":" ","LANE":"１８０巷","ALLEY":" ","HOUSE_NO":"６號四樓之７","E_COORD97":195452.5,"N_COORD97":2557875.29,"ADDRESS":"仁愛街１８０巷６號四樓之７","OBJECTID":456461},"geometry":{"x":195452.5,"y":2557875.290000001}},{"attributes":{"ID":456487,"DIS_CODE":0,"TOWNNAME":"玉井區","LI":"玉田里","LIN":"42鄰","STREET":"仁愛街","SECT":" ","MAREA":" ","LANE":"１８０巷","ALLEY":" ","HOUSE_NO":"６號六樓之５","E_COORD97":195452.57000000001,"N_COORD97":2557875.29,"ADDRESS":"仁愛街１８０巷６號六樓之５","OBJECTID":456462},"geometry":{"x":195452.5700000003,"y":2557875.290000001}},{"attributes":{"ID":456488,"DIS_CODE":0,"TOWNNAME":"玉井區","LI":"玉田里","LIN":"42鄰","STREET":"仁愛街","SECT":" ","MAREA":" ","LANE":"１８０巷","ALLEY":" ","HOUSE_NO":"６號四樓之１","E_COORD97":195452.42000000001,"N_COORD97":2557875.29,"ADDRESS":"仁愛街１８０巷６號四樓之１","OBJECTID":456463},"geometry":{"x":195452.42000000086,"y":2557875.290000001}},{"attributes":{"ID":456489,"DIS_CODE":0,"TOWNNAME":"玉井區","LI":"玉田里","LIN":"42鄰","STREET":"仁愛街","SECT":" ","MAREA":" ","LANE":"１８０巷","ALLEY":" ","HOUSE_NO":"６號五樓之７","E_COORD97":195452.5,"N_COORD97":2557875.29,"ADDRESS":"仁愛街１８０巷６號五樓之７","OBJECTID":456464},"geometry":{"x":195452.5,"y":2557875.290000001}},{"attributes":{"ID":456490,"DIS_CODE":0,"TOWNNAME":"佳里區","LI":"安西里","LIN":"46鄰","STREET":"文化路","SECT":" ","MAREA":" ","LANE":"６４１巷","ALLEY":" ","HOUSE_NO":"７號","E_COORD97":164553.70999999999,"N_COORD97":2562525.3500000001,"ADDRESS":"文化路６４１巷７號","OBJECTID":456465},"geometry":{"x":164553.71000000183,"y":2562525.3499999996}},{"attributes":{"ID":456491,"DIS_CODE":0,"TOWNNAME":"玉井區","LI":"玉田里","LIN":"42鄰","STREET":"仁愛街","SECT":" ","MAREA":" ","LANE":"１８０巷","ALLEY":" ","HOUSE_NO":"６號四樓之３","E_COORD97":195452.51999999999,"N_COORD97":2557875.29,"ADDRESS":"仁愛街１８０巷６號四樓之３","OBJECTID":456466},"geometry":{"x":195452.51999999955,"y":2557875.290000001}},{"attributes":{"ID":456492,"DIS_CODE":0,"TOWNNAME":"玉井區","LI":"玉田里","LIN":"42鄰","STREET":"仁愛街","SECT":" ","MAREA":" ","LANE":"１８０巷","ALLEY":" ","HOUSE_NO":"６號三樓之６","E_COORD97":195452.51999999999,"N_COORD97":2557875.29,"ADDRESS":"仁愛街１８０巷６號三樓之６","OBJECTID":456467},"geometry":{"x":195452.51999999955,"y":2557875.290000001}},{"attributes":{"ID":456493,"DIS_CODE":0,"TOWNNAME":"玉井區","LI":"玉田里","LIN":"42鄰","STREET":"仁愛街","SECT":" ","MAREA":" ","LANE":"１８０巷","ALLEY":" ","HOUSE_NO":"６號二樓之５","E_COORD97":195452.57000000001,"N_COORD97":2557875.29,"ADDRESS":"仁愛街１８０巷６號二樓之５","OBJECTID":456468},"geometry":{"x":195452.5700000003,"y":2557875.290000001}},{"attributes":{"ID":456494,"DIS_CODE":0,"TOWNNAME":"玉井區","LI":"玉田里","LIN":"42鄰","STREET":"仁愛街","SECT":" ","MAREA":" ","LANE":"１８０巷","ALLEY":" ","HOUSE_NO":"６號三樓之３","E_COORD97":195452.51999999999,"N_COORD97":2557875.29,"ADDRESS":"仁愛街１８０巷６號三樓之３","OBJECTID":456469},"geometry":{"x":195452.51999999955,"y":2557875.290000001}},{"attributes":{"ID":456495,"DIS_CODE":0,"TOWNNAME":"玉井區","LI":"玉田里","LIN":"42鄰","STREET":"仁愛街","SECT":" ","MAREA":" ","LANE":"１８０巷","ALLEY":" ","HOUSE_NO":"６號四樓之５","E_COORD97":195452.57000000001,"N_COORD97":2557875.29,"ADDRESS":"仁愛街１８０巷６號四樓之５","OBJECTID":456470},"geometry":{"x":195452.5700000003,"y":2557875.290000001}},{"attributes":{"ID":456496,"DIS_CODE":0,"TOWNNAME":"歸仁區","LI":"七甲里","LIN":"1鄰","STREET":"七甲五街","SECT":" ","MAREA":" ","LANE":"９１巷","ALLEY":" ","HOUSE_NO":"１０號","E_COORD97":177167.85000000001,"N_COORD97":2542567.9300000002,"ADDRESS":"七甲五街９１巷１０號","OBJECTID":456471},"geometry":{"x":177167.85000000149,"y":2542567.9300000016}},{"attributes":{"ID":456497,"DIS_CODE":0,"TOWNNAME":"玉井區","LI":"玉田里","LIN":"42鄰","STREET":"仁愛街","SECT":" ","MAREA":" ","LANE":"１８０巷","ALLEY":" ","HOUSE_NO":"６號二樓之６","E_COORD97":195452.51999999999,"N_COORD97":2557875.29,"ADDRESS":"仁愛街１８０巷６號二樓之６","OBJECTID":456472},"geometry":{"x":195452.51999999955,"y":2557875.290000001}},{"attributes":{"ID":456498,"DIS_CODE":0,"TOWNNAME":"佳里區","LI":"安西里","LIN":"41鄰","STREET":"同心街","SECT":" ","MAREA":" ","LANE":"９９巷","ALLEY":" ","HOUSE_NO":"３號","E_COORD97":164849.19,"N_COORD97":2562295.6299999999,"ADDRESS":"同心街９９巷３號","OBJECTID":456473},"geometry":{"x":164849.19000000227,"y":2562295.629999999}},{"attributes":{"ID":456499,"DIS_CODE":0,"TOWNNAME":"玉井區","LI":"玉田里","LIN":"42鄰","STREET":"仁愛街","SECT":" ","MAREA":" ","LANE":"１８０巷","ALLEY":" ","HOUSE_NO":"６號五樓之２","E_COORD97":195452.54999999999,"N_COORD97":2557875.29,"ADDRESS":"仁愛街１８０巷６號五樓之２","OBJECTID":456474},"geometry":{"x":195452.54999999981,"y":2557875.290000001}},{"attributes":{"ID":456500,"DIS_CODE":0,"TOWNNAME":"玉井區","LI":"玉田里","LIN":"42鄰","STREET":"仁愛街","SECT":" ","MAREA":" ","LANE":"１８０巷","ALLEY":" ","HOUSE_NO":"６號四樓之６","E_COORD97":195452.51999999999,"N_COORD97":2557875.29,"ADDRESS":"仁愛街１８０巷６號四樓之６","OBJECTID":456475},"geometry":{"x":195452.51999999955,"y":2557875.290000001}},{"attributes":{"ID":456501,"DIS_CODE":0,"TOWNNAME":"玉井區","LI":"玉田里","LIN":"42鄰","STREET":"仁愛街","SECT":" ","MAREA":" ","LANE":"１８０巷","ALLEY":" ","HOUSE_NO":"６號四樓之２","E_COORD97":195452.54999999999,"N_COORD97":2557875.29,"ADDRESS":"仁愛街１８０巷６號四樓之２","OBJECTID":456476},"geometry":{"x":195452.54999999981,"y":2557875.290000001}},{"attributes":{"ID":456502,"DIS_CODE":0,"TOWNNAME":"玉井區","LI":"玉田里","LIN":"42鄰","STREET":"仁愛街","SECT":" ","MAREA":" ","LANE":"１８０巷","ALLEY":" ","HOUSE_NO":"６號六樓之７","E_COORD97":195452.5,"N_COORD97":2557875.29,"ADDRESS":"仁愛街１８０巷６號六樓之７","OBJECTID":456477},"geometry":{"x":195452.5,"y":2557875.290000001}},{"attributes":{"ID":456503,"DIS_CODE":0,"TOWNNAME":"玉井區","LI":"玉田里","LIN":"42鄰","STREET":"仁愛街","SECT":" ","MAREA":" ","LANE":"１８０巷","ALLEY":" ","HOUSE_NO":"６號五樓之５","E_COORD97":195452.57000000001,"N_COORD97":2557875.29,"ADDRESS":"仁愛街１８０巷６號五樓之５","OBJECTID":456478},"geometry":{"x":195452.5700000003,"y":2557875.290000001}},{"attributes":{"ID":456504,"DIS_CODE":0,"TOWNNAME":"玉井區","LI":"玉田里","LIN":"42鄰","STREET":"仁愛街","SECT":" ","MAREA":" ","LANE":"１８０巷","ALLEY":" ","HOUSE_NO":"６號五樓之３","E_COORD97":195452.51999999999,"N_COORD97":2557875.29,"ADDRESS":"仁愛街１８０巷６號五樓之３","OBJECTID":456479},"geometry":{"x":195452.51999999955,"y":2557875.290000001}},{"attributes":{"ID":456505,"DIS_CODE":0,"TOWNNAME":"玉井區","LI":"玉田里","LIN":"42鄰","STREET":"仁愛街","SECT":" ","MAREA":" ","LANE":"１８０巷","ALLEY":" ","HOUSE_NO":"６號三樓之１","E_COORD97":195452.42000000001,"N_COORD97":2557875.29,"ADDRESS":"仁愛街１８０巷６號三樓之１","OBJECTID":456480},"geometry":{"x":195452.42000000086,"y":2557875.290000001}},{"attributes":{"ID":456506,"DIS_CODE":0,"TOWNNAME":"玉井區","LI":"玉田里","LIN":"42鄰","STREET":"仁愛街","SECT":" ","MAREA":" ","LANE":"１８０巷","ALLEY":" ","HOUSE_NO":"６號三樓之７","E_COORD97":195452.5,"N_COORD97":2557875.29,"ADDRESS":"仁愛街１８０巷６號三樓之７","OBJECTID":456481},"geometry":{"x":195452.5,"y":2557875.290000001}},{"attributes":{"ID":456507,"DIS_CODE":0,"TOWNNAME":"玉井區","LI":"玉田里","LIN":"42鄰","STREET":"仁愛街","SECT":" ","MAREA":" ","LANE":"１８０巷","ALLEY":" ","HOUSE_NO":"６號五樓之６","E_COORD97":195452.51999999999,"N_COORD97":2557875.29,"ADDRESS":"仁愛街１８０巷６號五樓之６","OBJECTID":456482},"geometry":{"x":195452.51999999955,"y":2557875.290000001}},{"attributes":{"ID":456508,"DIS_CODE":0,"TOWNNAME":"玉井區","LI":"玉田里","LIN":"42鄰","STREET":"仁愛街","SECT":" ","MAREA":" ","LANE":"１８０巷","ALLEY":" ","HOUSE_NO":"６號二樓之２","E_COORD97":195452.54999999999,"N_COORD97":2557875.29,"ADDRESS":"仁愛街１８０巷６號二樓之２","OBJECTID":456483},"geometry":{"x":195452.54999999981,"y":2557875.290000001}},{"attributes":{"ID":456509,"DIS_CODE":0,"TOWNNAME":"中西區","LI":"藥王里","LIN":"8鄰","STREET":"大新街","SECT":" ","MAREA":" ","LANE":"７巷","ALLEY":" ","HOUSE_NO":"２０號","E_COORD97":167068.91,"N_COORD97":2544357.6899999999,"ADDRESS":"大新街７巷２０號","OBJECTID":456484},"geometry":{"x":167068.91000000108,"y":2544357.6899999995}},{"attributes":{"ID":456510,"DIS_CODE":0,"TOWNNAME":"玉井區","LI":"玉田里","LIN":"42鄰","STREET":"仁愛街","SECT":" ","MAREA":" ","LANE":"１８０巷","ALLEY":" ","HOUSE_NO":"６號六樓之２","E_COORD97":195452.54999999999,"N_COORD97":2557875.29,"ADDRESS":"仁愛街１８０巷６號六樓之２","OBJECTID":456485},"geometry":{"x":195452.54999999981,"y":2557875.290000001}},{"attributes":{"ID":456511,"DIS_CODE":0,"TOWNNAME":"玉井區","LI":"玉田里","LIN":"42鄰","STREET":"仁愛街","SECT":" ","MAREA":" ","LANE":"１８０巷","ALLEY":" ","HOUSE_NO":"６號三樓之５","E_COORD97":195452.57000000001,"N_COORD97":2557875.29,"ADDRESS":"仁愛街１８０巷６號三樓之５","OBJECTID":456486},"geometry":{"x":195452.5700000003,"y":2557875.290000001}},{"attributes":{"ID":456512,"DIS_CODE":0,"TOWNNAME":"下營區","LI":"宅內里","LIN":"19鄰","STREET":"宅內街","SECT":" ","MAREA":" ","LANE":" ","ALLEY":" ","HOUSE_NO":"９號","E_COORD97":174347.04000000001,"N_COORD97":2570772.8900000001,"ADDRESS":"宅內街９號","OBJECTID":456487},"geometry":{"x":174347.04000000097,"y":2570772.8900000025}},{"attributes":{"ID":456513,"DIS_CODE":0,"TOWNNAME":"玉井區","LI":"玉田里","LIN":"42鄰","STREET":"仁愛街","SECT":" ","MAREA":" ","LANE":"１８０巷","ALLEY":" ","HOUSE_NO":"６號六樓之６","E_COORD97":195452.51999999999,"N_COORD97":2557875.29,"ADDRESS":"仁愛街１８０巷６號六樓之６","OBJECTID":456488},"geometry":{"x":195452.51999999955,"y":2557875.290000001}},{"attributes":{"ID":456514,"DIS_CODE":0,"TOWNNAME":"玉井區","LI":"玉田里","LIN":"42鄰","STREET":"仁愛街","SECT":" ","MAREA":" ","LANE":"１８０巷","ALLEY":" ","HOUSE_NO":"６號三樓之２","E_COORD97":195452.54999999999,"N_COORD97":2557875.29,"ADDRESS":"仁愛街１８０巷６號三樓之２","OBJECTID":456489},"geometry":{"x":195452.54999999981,"y":2557875.290000001}},{"attributes":{"ID":456515,"DIS_CODE":0,"TOWNNAME":"永康區","LI":"正強里","LIN":"42鄰","STREET":"中正路","SECT":" ","MAREA":" ","LANE":"２５６巷","ALLEY":" ","HOUSE_NO":"１號之１９","E_COORD97":173178.14000000001,"N_COORD97":2547946.8999999999,"ADDRESS":"中正路２５６巷１號之１９","OBJECTID":456490},"geometry":{"x":173178.13999999966,"y":2547946.9000000004}},{"attributes":{"ID":456516,"DIS_CODE":0,"TOWNNAME":"永康區","LI":"正強里","LIN":"42鄰","STREET":"中正路","SECT":" ","MAREA":" ","LANE":"２５６巷","ALLEY":" ","HOUSE_NO":"１號之３５","E_COORD97":173178.20999999999,"N_COORD97":2547946.8999999999,"ADDRESS":"中正路２５６巷１號之３５","OBJECTID":456491},"geometry":{"x":173178.20999999996,"y":2547946.9000000004}},{"attributes":{"ID":456517,"DIS_CODE":0,"TOWNNAME":"永康區","LI":"正強里","LIN":"42鄰","STREET":"中正路","SECT":" ","MAREA":" ","LANE":"２５６巷","ALLEY":" ","HOUSE_NO":"１號之３０","E_COORD97":173178.10999999999,"N_COORD97":2547946.8999999999,"ADDRESS":"中正路２５６巷１號之３０","OBJECTID":456492},"geometry":{"x":173178.1100000022,"y":2547946.9000000004}},{"attributes":{"ID":456518,"DIS_CODE":0,"TOWNNAME":"永康區","LI":"正強里","LIN":"42鄰","STREET":"中正路","SECT":" ","MAREA":" ","LANE":"２５６巷","ALLEY":" ","HOUSE_NO":"１號之３７","E_COORD97":173178.14000000001,"N_COORD97":2547946.8999999999,"ADDRESS":"中正路２５６巷１號之３７","OBJECTID":456493},"geometry":{"x":173178.13999999966,"y":2547946.9000000004}},{"attributes":{"ID":456519,"DIS_CODE":0,"TOWNNAME":"永康區","LI":"正強里","LIN":"42鄰","STREET":"中正路","SECT":" ","MAREA":" ","LANE":"２５６巷","ALLEY":" ","HOUSE_NO":"１號之３３","E_COORD97":173178.16,"N_COORD97":2547946.8999999999,"ADDRESS":"中正路２５６巷１號之３３","OBJECTID":456494},"geometry":{"x":173178.16000000108,"y":2547946.9000000004}},{"attributes":{"ID":456520,"DIS_CODE":0,"TOWNNAME":"永康區","LI":"正強里","LIN":"42鄰","STREET":"中正路","SECT":" ","MAREA":" ","LANE":"２５６巷","ALLEY":" ","HOUSE_NO":"１號之４８","E_COORD97":173178.20999999999,"N_COORD97":2547946.8999999999,"ADDRESS":"中正路２５６巷１號之４８","OBJECTID":456495},"geometry":{"x":173178.20999999996,"y":2547946.9000000004}},{"attributes":{"ID":456521,"DIS_CODE":0,"TOWNNAME":"永康區","LI":"正強里","LIN":"42鄰","STREET":"中正路","SECT":" ","MAREA":" ","LANE":"２５６巷","ALLEY":" ","HOUSE_NO":"１號之４１","E_COORD97":173178.06,"N_COORD97":2547946.8999999999,"ADDRESS":"中正路２５６巷１號之４１","OBJECTID":456496},"geometry":{"x":173178.06000000052,"y":2547946.9000000004}},{"attributes":{"ID":456522,"DIS_CODE":0,"TOWNNAME":"永康區","LI":"正強里","LIN":"42鄰","STREET":"中正路","SECT":" ","MAREA":" ","LANE":"２５６巷","ALLEY":" ","HOUSE_NO":"１號之２","E_COORD97":173176.94,"N_COORD97":2547946.8999999999,"ADDRESS":"中正路２５６巷１號之２","OBJECTID":456497},"geometry":{"x":173176.94000000041,"y":2547946.9000000004}},{"attributes":{"ID":456523,"DIS_CODE":0,"TOWNNAME":"歸仁區","LI":"六甲里","LIN":"42鄰","STREET":"民生十二街","SECT":" ","MAREA":" ","LANE":"５９巷","ALLEY":" ","HOUSE_NO":"３６號","E_COORD97":175907.70000000001,"N_COORD97":2539345.7999999998,"ADDRESS":"民生十二街５９巷３６號","OBJECTID":456498},"geometry":{"x":175907.70000000019,"y":2539345.8000000026}},{"attributes":{"ID":456524,"DIS_CODE":0,"TOWNNAME":"歸仁區","LI":"六甲里","LIN":"42鄰","STREET":"民生十二街","SECT":" ","MAREA":" ","LANE":"５９巷","ALLEY":" ","HOUSE_NO":"４３號","E_COORD97":175925.09,"N_COORD97":2539330.29,"ADDRESS":"民生十二街５９巷４３號","OBJECTID":456499},"geometry":{"x":175925.08999999985,"y":2539330.290000001}},{"attributes":{"ID":456525,"DIS_CODE":0,"TOWNNAME":"歸仁區","LI":"六甲里","LIN":"42鄰","STREET":"民生十二街","SECT":" ","MAREA":" ","LANE":"７１巷","ALLEY":" ","HOUSE_NO":"９號","E_COORD97":175873.04999999999,"N_COORD97":2539444.7999999998,"ADDRESS":"民生十二街７１巷９號","OBJECTID":456500},"geometry":{"x":175873.04999999981,"y":2539444.8000000007}},{"attributes":{"ID":456526,"DIS_CODE":0,"TOWNNAME":"歸仁區","LI":"六甲里","LIN":"42鄰","STREET":"民生十二街","SECT":" ","MAREA":" ","LANE":"５９巷","ALLEY":" ","HOUSE_NO":"４７號","E_COORD97":175926.09,"N_COORD97":2539317.29,"ADDRESS":"民生十二街５９巷４７號","OBJECTID":456501},"geometry":{"x":175926.09000000078,"y":2539317.2899999991}},{"attributes":{"ID":456527,"DIS_CODE":0,"TOWNNAME":"歸仁區","LI":"六甲里","LIN":"42鄰","STREET":"民生十二街","SECT":" ","MAREA":" ","LANE":"７１巷","ALLEY":" ","HOUSE_NO":"２９號","E_COORD97":175878.20000000001,"N_COORD97":2539392.7999999998,"ADDRESS":"民生十二街７１巷２９號","OBJECTID":456502},"geometry":{"x":175878.20000000112,"y":2539392.8000000026}},{"attributes":{"ID":456528,"DIS_CODE":0,"TOWNNAME":"歸仁區","LI":"六甲里","LIN":"42鄰","STREET":"民生十二街","SECT":" ","MAREA":" ","LANE":"７１巷","ALLEY":" ","HOUSE_NO":"１１號","E_COORD97":175874.29999999999,"N_COORD97":2539439.7999999998,"ADDRESS":"民生十二街７１巷１１號","OBJECTID":456503},"geometry":{"x":175874.29999999981,"y":2539439.8000000026}},{"attributes":{"ID":456529,"DIS_CODE":0,"TOWNNAME":"歸仁區","LI":"辜厝里","LIN":"46鄰","STREET":"中正八街","SECT":" ","MAREA":" ","LANE":"１１巷","ALLEY":" ","HOUSE_NO":"９號","E_COORD97":177124.29000000001,"N_COORD97":2540262.9500000002,"ADDRESS":"中正八街１１巷９號","OBJECTID":456504},"geometry":{"x":177124.29000000004,"y":2540262.9499999993}},{"attributes":{"ID":456530,"DIS_CODE":0,"TOWNNAME":"歸仁區","LI":"後市里","LIN":"46鄰","STREET":"文化街","SECT":"二段","MAREA":" ","LANE":"１２１巷","ALLEY":" ","HOUSE_NO":"１４號","E_COORD97":177177.98999999999,"N_COORD97":2541114.7599999998,"ADDRESS":"文化街二段１２１巷１４號","OBJECTID":456505},"geometry":{"x":177177.99000000115,"y":2541114.7600000016}},{"attributes":{"ID":456531,"DIS_CODE":0,"TOWNNAME":"歸仁區","LI":"南保里","LIN":"46鄰","STREET":"民權十街","SECT":" ","MAREA":" ","LANE":"６３巷","ALLEY":" ","HOUSE_NO":"２３號","E_COORD97":176778.91,"N_COORD97":2540631.2999999998,"ADDRESS":"民權十街６３巷２３號","OBJECTID":456506},"geometry":{"x":176778.91000000108,"y":2540631.3000000007}},{"attributes":{"ID":456532,"DIS_CODE":0,"TOWNNAME":"歸仁區","LI":"後市里","LIN":"46鄰","STREET":"文化街","SECT":"二段","MAREA":" ","LANE":"１３９巷","ALLEY":" ","HOUSE_NO":"７號","E_COORD97":177155.14000000001,"N_COORD97":2541115.7599999998,"ADDRESS":"文化街二段１３９巷７號","OBJECTID":456507},"geometry":{"x":177155.13999999966,"y":2541115.7599999998}},{"attributes":{"ID":456533,"DIS_CODE":0,"TOWNNAME":"歸仁區","LI":"南保里","LIN":"46鄰","STREET":"民權十街","SECT":" ","MAREA":" ","LANE":"６３巷","ALLEY":" ","HOUSE_NO":"１９號","E_COORD97":176778.91,"N_COORD97":2540640.2999999998,"ADDRESS":"民權十街６３巷１９號","OBJECTID":456508},"geometry":{"x":176778.91000000108,"y":2540640.3000000026}},{"attributes":{"ID":456534,"DIS_CODE":0,"TOWNNAME":"歸仁區","LI":"後市里","LIN":"46鄰","STREET":"文化街","SECT":"二段","MAREA":" ","LANE":"１２１巷","ALLEY":" ","HOUSE_NO":"１３號","E_COORD97":177189.19,"N_COORD97":2541106.7599999998,"ADDRESS":"文化街二段１２１巷１３號","OBJECTID":456509},"geometry":{"x":177189.19000000134,"y":2541106.7600000035}},{"attributes":{"ID":456535,"DIS_CODE":0,"TOWNNAME":"仁德區","LI":"仁義里","LIN":"46鄰","STREET":"仁義路","SECT":" ","MAREA":" ","LANE":"９８巷","ALLEY":" ","HOUSE_NO":"３３號","E_COORD97":173627.17000000001,"N_COORD97":2540856.52,"ADDRESS":"仁義路９８巷３３號","OBJECTID":456510},"geometry":{"x":173627.17000000086,"y":2540856.5199999996}},{"attributes":{"ID":456536,"DIS_CODE":0,"TOWNNAME":"仁德區","LI":"太子里","LIN":"46鄰","STREET":"太子一街","SECT":" ","MAREA":" ","LANE":"２７巷","ALLEY":" ","HOUSE_NO":"８號","E_COORD97":174834.82000000001,"N_COORD97":2543339.5099999998,"ADDRESS":"太子一街２７巷８號","OBJECTID":456511},"geometry":{"x":174834.82000000123,"y":2543339.5100000016}},{"attributes":{"ID":456537,"DIS_CODE":0,"TOWNNAME":"仁德區","LI":"仁義里","LIN":"46鄰","STREET":"仁義路","SECT":" ","MAREA":" ","LANE":"９８巷","ALLEY":" ","HOUSE_NO":"１９號","E_COORD97":173629.89000000001,"N_COORD97":2540900.2599999998,"ADDRESS":"仁義路９８巷１９號","OBJECTID":456512},"geometry":{"x":173629.89000000153,"y":2540900.2600000016}},{"attributes":{"ID":456538,"DIS_CODE":0,"TOWNNAME":"仁德區","LI":"仁義里","LIN":"46鄰","STREET":"仁義路","SECT":" ","MAREA":" ","LANE":"９８巷","ALLEY":" ","HOUSE_NO":"９號","E_COORD97":173629.10000000001,"N_COORD97":2540924.77,"ADDRESS":"仁義路９８巷９號","OBJECTID":456513},"geometry":{"x":173629.10000000056,"y":2540924.7700000014}},{"attributes":{"ID":456539,"DIS_CODE":0,"TOWNNAME":"仁德區","LI":"仁義里","LIN":"46鄰","STREET":"仁義路","SECT":" ","MAREA":" ","LANE":"１２６巷","ALLEY":" ","HOUSE_NO":"４號","E_COORD97":173683.56,"N_COORD97":2540938.6499999999,"ADDRESS":"仁義路１２６巷４號","OBJECTID":456514},"geometry":{"x":173683.56000000052,"y":2540938.6500000041}},{"attributes":{"ID":456540,"DIS_CODE":0,"TOWNNAME":"仁德區","LI":"仁義里","LIN":"46鄰","STREET":"仁義路","SECT":" ","MAREA":" ","LANE":"１２６巷","ALLEY":" ","HOUSE_NO":"３４號","E_COORD97":173677.94,"N_COORD97":2540866.8900000001,"ADDRESS":"仁義路１２６巷３４號","OBJECTID":456515},"geometry":{"x":173677.94000000134,"y":2540866.8900000025}},{"attributes":{"ID":456541,"DIS_CODE":0,"TOWNNAME":"仁德區","LI":"仁義里","LIN":"46鄰","STREET":"仁義路","SECT":" ","MAREA":" ","LANE":"１２６巷","ALLEY":" ","HOUSE_NO":"６０號","E_COORD97":173679.25,"N_COORD97":2540789.7599999998,"ADDRESS":"仁義路１２６巷６０號","OBJECTID":456516},"geometry":{"x":173679.25000000093,"y":2540789.7599999998}},{"attributes":{"ID":456542,"DIS_CODE":0,"TOWNNAME":"東區","LI":"崇文里","LIN":"40鄰","STREET":"生產路","SECT":" ","MAREA":" ","LANE":" ","ALLEY":" ","HOUSE_NO":"２７７號八樓","E_COORD97":170920.14000000001,"N_COORD97":2540618.3100000001,"ADDRESS":"生產路２７７號八樓","OBJECTID":456517},"geometry":{"x":170920.13999999966,"y":2540618.3100000005}},{"attributes":{"ID":456543,"DIS_CODE":0,"TOWNNAME":"仁德區","LI":"仁義里","LIN":"46鄰","STREET":"仁義路","SECT":" ","MAREA":" ","LANE":"１２６巷","ALLEY":" ","HOUSE_NO":"８號","E_COORD97":173683.04999999999,"N_COORD97":2540930.3999999999,"ADDRESS":"仁義路１２６巷８號","OBJECTID":456518},"geometry":{"x":173683.04999999888,"y":2540930.4000000022}},{"attributes":{"ID":456544,"DIS_CODE":0,"TOWNNAME":"仁德區","LI":"仁義里","LIN":"46鄰","STREET":"仁義路","SECT":" ","MAREA":" ","LANE":"１２６巷","ALLEY":" ","HOUSE_NO":"３０號","E_COORD97":173678.39000000001,"N_COORD97":2540875.8900000001,"ADDRESS":"仁義路１２６巷３０號","OBJECTID":456519},"geometry":{"x":173678.38999999966,"y":2540875.8900000043}},{"attributes":{"ID":456545,"DIS_CODE":0,"TOWNNAME":"歸仁區","LI":"南保里","LIN":"46鄰","STREET":"大順街","SECT":" ","MAREA":" ","LANE":"２００巷","ALLEY":" ","HOUSE_NO":"５號","E_COORD97":176845.26999999999,"N_COORD97":2540651.04,"ADDRESS":"大順街２００巷５號","OBJECTID":456520},"geometry":{"x":176845.27000000048,"y":2540651.040000001}},{"attributes":{"ID":456546,"DIS_CODE":0,"TOWNNAME":"永康區","LI":"正強里","LIN":"46鄰","STREET":"中正路","SECT":" ","MAREA":" ","LANE":"２５６巷","ALLEY":" ","HOUSE_NO":"９號之４０","E_COORD97":173207.10999999999,"N_COORD97":2547991.8799999999,"ADDRESS":"中正路２５６巷９號之４０","OBJECTID":456521},"geometry":{"x":173207.11000000127,"y":2547991.8800000008}},{"attributes":{"ID":456547,"DIS_CODE":0,"TOWNNAME":"永康區","LI":"正強里","LIN":"46鄰","STREET":"中正路","SECT":" ","MAREA":" ","LANE":"２５６巷","ALLEY":" ","HOUSE_NO":"９號之３５","E_COORD97":173207.20999999999,"N_COORD97":2547991.8799999999,"ADDRESS":"中正路２５６巷９號之３５","OBJECTID":456522},"geometry":{"x":173207.20999999996,"y":2547991.8800000008}},{"attributes":{"ID":456548,"DIS_CODE":0,"TOWNNAME":"永康區","LI":"正強里","LIN":"46鄰","STREET":"中正路","SECT":" ","MAREA":" ","LANE":"２５６巷","ALLEY":" ","HOUSE_NO":"９號之３９","E_COORD97":173207.14000000001,"N_COORD97":2547991.8799999999,"ADDRESS":"中正路２５６巷９號之３９","OBJECTID":456523},"geometry":{"x":173207.13999999966,"y":2547991.8800000008}},{"attributes":{"ID":456549,"DIS_CODE":0,"TOWNNAME":"永康區","LI":"正強里","LIN":"46鄰","STREET":"中正路","SECT":" ","MAREA":" ","LANE":"２５６巷","ALLEY":" ","HOUSE_NO":"９號之４８","E_COORD97":173207.20999999999,"N_COORD97":2547991.8799999999,"ADDRESS":"中正路２５６巷９號之４８","OBJECTID":456524},"geometry":{"x":173207.20999999996,"y":2547991.8800000008}},{"attributes":{"ID":456550,"DIS_CODE":0,"TOWNNAME":"永康區","LI":"正強里","LIN":"46鄰","STREET":"中正路","SECT":" ","MAREA":" ","LANE":"２５６巷","ALLEY":" ","HOUSE_NO":"９號之５６","E_COORD97":173207.16,"N_COORD97":2547991.8799999999,"ADDRESS":"中正路２５６巷９號之５６","OBJECTID":456525},"geometry":{"x":173207.16000000108,"y":2547991.8800000008}},{"attributes":{"ID":456551,"DIS_CODE":0,"TOWNNAME":"永康區","LI":"正強里","LIN":"46鄰","STREET":"中正路","SECT":" ","MAREA":" ","LANE":"２５６巷","ALLEY":" ","HOUSE_NO":"９號之５４","E_COORD97":173207.07999999999,"N_COORD97":2547991.8799999999,"ADDRESS":"中正路２５６巷９號之５４","OBJECTID":456526},"geometry":{"x":173207.08000000101,"y":2547991.8800000008}},{"attributes":{"ID":456552,"DIS_CODE":0,"TOWNNAME":"永康區","LI":"正強里","LIN":"46鄰","STREET":"中正路","SECT":" ","MAREA":" ","LANE":"２５６巷","ALLEY":" ","HOUSE_NO":"９號之５８","E_COORD97":173207.20999999999,"N_COORD97":2547991.8799999999,"ADDRESS":"中正路２５６巷９號之５８","OBJECTID":456527},"geometry":{"x":173207.20999999996,"y":2547991.8800000008}},{"attributes":{"ID":456553,"DIS_CODE":0,"TOWNNAME":"永康區","LI":"正強里","LIN":"46鄰","STREET":"中正路","SECT":" ","MAREA":" ","LANE":"２５６巷","ALLEY":" ","HOUSE_NO":"９號之４３","E_COORD97":173207.16,"N_COORD97":2547991.8799999999,"ADDRESS":"中正路２５６巷９號之４３","OBJECTID":456528},"geometry":{"x":173207.16000000108,"y":2547991.8800000008}},{"attributes":{"ID":456554,"DIS_CODE":0,"TOWNNAME":"永康區","LI":"正強里","LIN":"46鄰","STREET":"中正路","SECT":" ","MAREA":" ","LANE":"２５６巷","ALLEY":" ","HOUSE_NO":"９號之２６","E_COORD97":173207.16,"N_COORD97":2547991.8799999999,"ADDRESS":"中正路２５６巷９號之２６","OBJECTID":456529},"geometry":{"x":173207.16000000108,"y":2547991.8800000008}},{"attributes":{"ID":456555,"DIS_CODE":0,"TOWNNAME":"永康區","LI":"正強里","LIN":"46鄰","STREET":"中正路","SECT":" ","MAREA":" ","LANE":"２５６巷","ALLEY":" ","HOUSE_NO":"９號之３４","E_COORD97":173207.07999999999,"N_COORD97":2547991.8799999999,"ADDRESS":"中正路２５６巷９號之３４","OBJECTID":456530},"geometry":{"x":173207.08000000101,"y":2547991.8800000008}},{"attributes":{"ID":456556,"DIS_CODE":0,"TOWNNAME":"永康區","LI":"正強里","LIN":"46鄰","STREET":"中正路","SECT":" ","MAREA":" ","LANE":"２５６巷","ALLEY":" ","HOUSE_NO":"９號之５２","E_COORD97":173207.19,"N_COORD97":2547991.8799999999,"ADDRESS":"中正路２５６巷９號之５２","OBJECTID":456531},"geometry":{"x":173207.19000000134,"y":2547991.8800000008}},{"attributes":{"ID":456557,"DIS_CODE":0,"TOWNNAME":"永康區","LI":"正強里","LIN":"46鄰","STREET":"中正路","SECT":" ","MAREA":" ","LANE":"２５６巷","ALLEY":" ","HOUSE_NO":"９號之５９","E_COORD97":173207.14000000001,"N_COORD97":2547991.8799999999,"ADDRESS":"中正路２５６巷９號之５９","OBJECTID":456532},"geometry":{"x":173207.13999999966,"y":2547991.8800000008}},{"attributes":{"ID":456558,"DIS_CODE":0,"TOWNNAME":"新市區","LI":"新和里","LIN":"46鄰","STREET":"和平街","SECT":" ","MAREA":" ","LANE":"２０８巷","ALLEY":" ","HOUSE_NO":"６之３號","E_COORD97":177361.73000000001,"N_COORD97":2553280.7999999998,"ADDRESS":"和平街２０８巷６之３號","OBJECTID":456533},"geometry":{"x":177361.73000000138,"y":2553280.8000000007}},{"attributes":{"ID":456559,"DIS_CODE":0,"TOWNNAME":"永康區","LI":"西灣里","LIN":"46鄰","STREET":"永華路","SECT":" ","MAREA":" ","LANE":"２３３巷","ALLEY":" ","HOUSE_NO":"１３號","E_COORD97":174015.42000000001,"N_COORD97":2545713.75,"ADDRESS":"永華路２３３巷１３號","OBJECTID":456534},"geometry":{"x":174015.42000000086,"y":2545713.75}},{"attributes":{"ID":456560,"DIS_CODE":0,"TOWNNAME":"永康區","LI":"西灣里","LIN":"46鄰","STREET":"永華路","SECT":" ","MAREA":" ","LANE":"２３３巷","ALLEY":" ","HOUSE_NO":"４７號","E_COORD97":173968.10999999999,"N_COORD97":2545771.2400000002,"ADDRESS":"永華路２３３巷４７號","OBJECTID":456535},"geometry":{"x":173968.1100000022,"y":2545771.2400000002}},{"attributes":{"ID":456561,"DIS_CODE":0,"TOWNNAME":"永康區","LI":"正強里","LIN":"46鄰","STREET":"中正路","SECT":" ","MAREA":" ","LANE":"２５６巷","ALLEY":" ","HOUSE_NO":"９號之２４","E_COORD97":173207.07999999999,"N_COORD97":2547991.8799999999,"ADDRESS":"中正路２５６巷９號之２４","OBJECTID":456536},"geometry":{"x":173207.08000000101,"y":2547991.8800000008}},{"attributes":{"ID":456562,"DIS_CODE":0,"TOWNNAME":"永康區","LI":"西灣里","LIN":"46鄰","STREET":"永華路","SECT":" ","MAREA":" ","LANE":"２３３巷","ALLEY":" ","HOUSE_NO":"２９號","E_COORD97":173974.44,"N_COORD97":2545731.2400000002,"ADDRESS":"永華路２３３巷２９號","OBJECTID":456537},"geometry":{"x":173974.44000000227,"y":2545731.2400000002}},{"attributes":{"ID":456563,"DIS_CODE":0,"TOWNNAME":"永康區","LI":"正強里","LIN":"46鄰","STREET":"中正路","SECT":" ","MAREA":" ","LANE":"２５６巷","ALLEY":" ","HOUSE_NO":"９號之１９","E_COORD97":173207.14000000001,"N_COORD97":2547991.8799999999,"ADDRESS":"中正路２５６巷９號之１９","OBJECTID":456538},"geometry":{"x":173207.13999999966,"y":2547991.8800000008}},{"attributes":{"ID":456564,"DIS_CODE":0,"TOWNNAME":"永康區","LI":"正強里","LIN":"46鄰","STREET":"中正路","SECT":" ","MAREA":" ","LANE":"２５６巷","ALLEY":" ","HOUSE_NO":"９號之３３","E_COORD97":173207.16,"N_COORD97":2547991.8799999999,"ADDRESS":"中正路２５６巷９號之３３","OBJECTID":456539},"geometry":{"x":173207.16000000108,"y":2547991.8800000008}},{"attributes":{"ID":456565,"DIS_CODE":0,"TOWNNAME":"佳里區","LI":"安西里","LIN":"46鄰","STREET":"文化路","SECT":" ","MAREA":" ","LANE":"５９１巷","ALLEY":" ","HOUSE_NO":"１４號","E_COORD97":164656.73999999999,"N_COORD97":2562518.0899999999,"ADDRESS":"文化路５９１巷１４號","OBJECTID":456540},"geometry":{"x":164656.74000000022,"y":2562518.0900000036}},{"attributes":{"ID":456566,"DIS_CODE":0,"TOWNNAME":"佳里區","LI":"安西里","LIN":"46鄰","STREET":"文化路","SECT":" ","MAREA":" ","LANE":"５９１巷","ALLEY":" ","HOUSE_NO":"１６號","E_COORD97":164657.66,"N_COORD97":2562514.6000000001,"ADDRESS":"文化路５９１巷１６號","OBJECTID":456541},"geometry":{"x":164657.66000000201,"y":2562514.6000000015}},{"attributes":{"ID":456567,"DIS_CODE":0,"TOWNNAME":"佳里區","LI":"安西里","LIN":"46鄰","STREET":"文化路","SECT":" ","MAREA":" ","LANE":"５９１巷","ALLEY":" ","HOUSE_NO":"１８號","E_COORD97":164657.70999999999,"N_COORD97":2562509.8500000001,"ADDRESS":"文化路５９１巷１８號","OBJECTID":456542},"geometry":{"x":164657.71000000089,"y":2562509.8500000015}},{"attributes":{"ID":456568,"DIS_CODE":0,"TOWNNAME":"佳里區","LI":"安西里","LIN":"46鄰","STREET":"文化路","SECT":" ","MAREA":" ","LANE":"５９１巷","ALLEY":" ","HOUSE_NO":"２０號","E_COORD97":164657.73000000001,"N_COORD97":2562506.1200000001,"ADDRESS":"文化路５９１巷２０號","OBJECTID":456543},"geometry":{"x":164657.73000000138,"y":2562506.1200000029}},{"attributes":{"ID":456569,"DIS_CODE":0,"TOWNNAME":"佳里區","LI":"安西里","LIN":"46鄰","STREET":"文化路","SECT":" ","MAREA":" ","LANE":"５９１巷","ALLEY":" ","HOUSE_NO":"２２號","E_COORD97":164658.22,"N_COORD97":2562502.4500000002,"ADDRESS":"文化路５９１巷２２號","OBJECTID":456544},"geometry":{"x":164658.21999999974,"y":2562502.4500000011}},{"attributes":{"ID":456570,"DIS_CODE":0,"TOWNNAME":"佳里區","LI":"安西里","LIN":"46鄰","STREET":"文化路","SECT":" ","MAREA":" ","LANE":"５９１巷","ALLEY":" ","HOUSE_NO":"２４號","E_COORD97":164658.41,"N_COORD97":2562498.3100000001,"ADDRESS":"文化路５９１巷２４號","OBJECTID":456545},"geometry":{"x":164658.41000000108,"y":2562498.3100000024}},{"attributes":{"ID":456571,"DIS_CODE":0,"TOWNNAME":"佳里區","LI":"安西里","LIN":"46鄰","STREET":"文化路","SECT":" ","MAREA":" ","LANE":"５９１巷","ALLEY":" ","HOUSE_NO":"２６號","E_COORD97":164658.59,"N_COORD97":2562494.2599999998,"ADDRESS":"文化路５９１巷２６號","OBJECTID":456546},"geometry":{"x":164658.58999999985,"y":2562494.2600000016}},{"attributes":{"ID":456572,"DIS_CODE":0,"TOWNNAME":"佳里區","LI":"安西里","LIN":"46鄰","STREET":"文化路","SECT":" ","MAREA":" ","LANE":"５９１巷","ALLEY":" ","HOUSE_NO":"２號","E_COORD97":164655.13,"N_COORD97":2562542.2200000002,"ADDRESS":"文化路５９１巷２號","OBJECTID":456547},"geometry":{"x":164655.12999999989,"y":2562542.2200000025}},{"attributes":{"ID":456573,"DIS_CODE":0,"TOWNNAME":"佳里區","LI":"安西里","LIN":"46鄰","STREET":"文化路","SECT":" ","MAREA":" ","LANE":"５９１巷","ALLEY":" ","HOUSE_NO":"４號","E_COORD97":164655.39000000001,"N_COORD97":2562538.1000000001,"ADDRESS":"文化路５９１巷４號","OBJECTID":456548},"geometry":{"x":164655.38999999873,"y":2562538.1000000034}},{"attributes":{"ID":456574,"DIS_CODE":0,"TOWNNAME":"佳里區","LI":"安西里","LIN":"46鄰","STREET":"文化路","SECT":" ","MAREA":" ","LANE":"５９１巷","ALLEY":" ","HOUSE_NO":"６號","E_COORD97":164655.59,"N_COORD97":2562534.6899999999,"ADDRESS":"文化路５９１巷６號","OBJECTID":456549},"geometry":{"x":164655.58999999985,"y":2562534.6900000013}},{"attributes":{"ID":456575,"DIS_CODE":0,"TOWNNAME":"佳里區","LI":"安西里","LIN":"46鄰","STREET":"文化路","SECT":" ","MAREA":" ","LANE":"５９１巷","ALLEY":" ","HOUSE_NO":"８號","E_COORD97":164655.98999999999,"N_COORD97":2562530.5299999998,"ADDRESS":"文化路５９１巷８號","OBJECTID":456550},"geometry":{"x":164655.99000000115,"y":2562530.5299999993}},{"attributes":{"ID":456576,"DIS_CODE":0,"TOWNNAME":"佳里區","LI":"安西里","LIN":"46鄰","STREET":"文化路","SECT":" ","MAREA":" ","LANE":"６０７巷","ALLEY":" ","HOUSE_NO":"１０號","E_COORD97":164622.07999999999,"N_COORD97":2562511.3599999999,"ADDRESS":"文化路６０７巷１０號","OBJECTID":456551},"geometry":{"x":164622.08000000007,"y":2562511.3599999994}},{"attributes":{"ID":456577,"DIS_CODE":0,"TOWNNAME":"佳里區","LI":"安西里","LIN":"46鄰","STREET":"文化路","SECT":" ","MAREA":" ","LANE":"６０７巷","ALLEY":" ","HOUSE_NO":"１１號","E_COORD97":164633.26000000001,"N_COORD97":2562508.46,"ADDRESS":"文化路６０７巷１１號","OBJECTID":456552},"geometry":{"x":164633.26000000071,"y":2562508.4600000009}},{"attributes":{"ID":456578,"DIS_CODE":0,"TOWNNAME":"佳里區","LI":"安西里","LIN":"46鄰","STREET":"文化路","SECT":" ","MAREA":" ","LANE":"６０７巷","ALLEY":" ","HOUSE_NO":"１２號","E_COORD97":164622.10999999999,"N_COORD97":2562505.3300000001,"ADDRESS":"文化路６０７巷１２號","OBJECTID":456553},"geometry":{"x":164622.11000000034,"y":2562505.3300000001}},{"attributes":{"ID":456579,"DIS_CODE":0,"TOWNNAME":"佳里區","LI":"安西里","LIN":"46鄰","STREET":"文化路","SECT":" ","MAREA":" ","LANE":"６０７巷","ALLEY":" ","HOUSE_NO":"１３號","E_COORD97":164633.26999999999,"N_COORD97":2562502.3300000001,"ADDRESS":"文化路６０７巷１３號","OBJECTID":456554},"geometry":{"x":164633.27000000048,"y":2562502.3300000001}},{"attributes":{"ID":456580,"DIS_CODE":0,"TOWNNAME":"佳里區","LI":"安西里","LIN":"46鄰","STREET":"文化路","SECT":" ","MAREA":" ","LANE":"６０７巷","ALLEY":" ","HOUSE_NO":"１４號","E_COORD97":164622.17000000001,"N_COORD97":2562498.7599999998,"ADDRESS":"文化路６０７巷１４號","OBJECTID":456555},"geometry":{"x":164622.17000000086,"y":2562498.7599999998}},{"attributes":{"ID":456581,"DIS_CODE":0,"TOWNNAME":"佳里區","LI":"安西里","LIN":"46鄰","STREET":"文化路","SECT":" ","MAREA":" ","LANE":"６０７巷","ALLEY":" ","HOUSE_NO":"１５號","E_COORD97":164632.91,"N_COORD97":2562496.27,"ADDRESS":"文化路６０７巷１５號","OBJECTID":456556},"geometry":{"x":164632.91000000108,"y":2562496.2700000033}},{"attributes":{"ID":456582,"DIS_CODE":0,"TOWNNAME":"佳里區","LI":"安西里","LIN":"46鄰","STREET":"文化路","SECT":" ","MAREA":" ","LANE":"６０７巷","ALLEY":" ","HOUSE_NO":"１６號","E_COORD97":164621.79000000001,"N_COORD97":2562492.6699999999,"ADDRESS":"文化路６０７巷１６號","OBJECTID":456557},"geometry":{"x":164621.79000000097,"y":2562492.6699999999}},{"attributes":{"ID":456583,"DIS_CODE":0,"TOWNNAME":"佳里區","LI":"安西里","LIN":"46鄰","STREET":"文化路","SECT":" ","MAREA":" ","LANE":"６０７巷","ALLEY":" ","HOUSE_NO":"１７號","E_COORD97":164636.01000000001,"N_COORD97":2562484.0600000001,"ADDRESS":"文化路６０７巷１７號","OBJECTID":456558},"geometry":{"x":164636.00999999978,"y":2562484.0600000005}},{"attributes":{"ID":456584,"DIS_CODE":0,"TOWNNAME":"佳里區","LI":"安西里","LIN":"46鄰","STREET":"文化路","SECT":" ","MAREA":" ","LANE":"６０７巷","ALLEY":" ","HOUSE_NO":"１８號","E_COORD97":164621.66,"N_COORD97":2562485.4399999999,"ADDRESS":"文化路６０７巷１８號","OBJECTID":456559},"geometry":{"x":164621.66000000015,"y":2562485.4400000013}},{"attributes":{"ID":456585,"DIS_CODE":0,"TOWNNAME":"佳里區","LI":"安西里","LIN":"46鄰","STREET":"文化路","SECT":" ","MAREA":" ","LANE":"６０７巷","ALLEY":" ","HOUSE_NO":"１號","E_COORD97":164632.45000000001,"N_COORD97":2562540.2400000002,"ADDRESS":"文化路６０７巷１號","OBJECTID":456560},"geometry":{"x":164632.45000000112,"y":2562540.2400000002}},{"attributes":{"ID":456586,"DIS_CODE":0,"TOWNNAME":"佳里區","LI":"安西里","LIN":"46鄰","STREET":"文化路","SECT":" ","MAREA":" ","LANE":"６０７巷","ALLEY":" ","HOUSE_NO":"２號","E_COORD97":164622.51999999999,"N_COORD97":2562538.1299999999,"ADDRESS":"文化路６０７巷２號","OBJECTID":456561},"geometry":{"x":164622.52000000048,"y":2562538.1300000008}},{"attributes":{"ID":456587,"DIS_CODE":0,"TOWNNAME":"佳里區","LI":"安西里","LIN":"46鄰","STREET":"文化路","SECT":" ","MAREA":" ","LANE":"６０７巷","ALLEY":" ","HOUSE_NO":"３號","E_COORD97":164634.07000000001,"N_COORD97":2562533.8799999999,"ADDRESS":"文化路６０７巷３號","OBJECTID":456562},"geometry":{"x":164634.0700000003,"y":2562533.879999999}},{"attributes":{"ID":456588,"DIS_CODE":0,"TOWNNAME":"佳里區","LI":"安西里","LIN":"46鄰","STREET":"文化路","SECT":" ","MAREA":" ","LANE":"６０７巷","ALLEY":" ","HOUSE_NO":"４號","E_COORD97":164622.20999999999,"N_COORD97":2562530.0800000001,"ADDRESS":"文化路６０７巷４號","OBJECTID":456563},"geometry":{"x":164622.21000000089,"y":2562530.0800000019}},{"attributes":{"ID":456589,"DIS_CODE":0,"TOWNNAME":"佳里區","LI":"安西里","LIN":"46鄰","STREET":"文化路","SECT":" ","MAREA":" ","LANE":"６０７巷","ALLEY":" ","HOUSE_NO":"５號","E_COORD97":164633.32999999999,"N_COORD97":2562527.1000000001,"ADDRESS":"文化路６０７巷５號","OBJECTID":456564},"geometry":{"x":164633.33000000101,"y":2562527.0999999996}},{"attributes":{"ID":456590,"DIS_CODE":0,"TOWNNAME":"佳里區","LI":"安西里","LIN":"46鄰","STREET":"文化路","SECT":" ","MAREA":" ","LANE":"６０７巷","ALLEY":" ","HOUSE_NO":"６號","E_COORD97":164621.98000000001,"N_COORD97":2562523.8999999999,"ADDRESS":"文化路６０７巷６號","OBJECTID":456565},"geometry":{"x":164621.98000000138,"y":2562523.9000000022}},{"attributes":{"ID":456591,"DIS_CODE":0,"TOWNNAME":"佳里區","LI":"安西里","LIN":"46鄰","STREET":"文化路","SECT":" ","MAREA":" ","LANE":"６０７巷","ALLEY":" ","HOUSE_NO":"７號","E_COORD97":164632.42999999999,"N_COORD97":2562520.3900000001,"ADDRESS":"文化路６０７巷７號","OBJECTID":456566},"geometry":{"x":164632.4299999997,"y":2562520.3900000043}},{"attributes":{"ID":456592,"DIS_CODE":0,"TOWNNAME":"佳里區","LI":"安西里","LIN":"46鄰","STREET":"文化路","SECT":" ","MAREA":" ","LANE":"６０７巷","ALLEY":" ","HOUSE_NO":"８號","E_COORD97":164621.79999999999,"N_COORD97":2562518.2599999998,"ADDRESS":"文化路６０７巷８號","OBJECTID":456567},"geometry":{"x":164621.79999999981,"y":2562518.2600000016}},{"attributes":{"ID":456593,"DIS_CODE":0,"TOWNNAME":"佳里區","LI":"安西里","LIN":"46鄰","STREET":"文化路","SECT":" ","MAREA":" ","LANE":"６０７巷","ALLEY":" ","HOUSE_NO":"９號","E_COORD97":164633,"N_COORD97":2562515.1299999999,"ADDRESS":"文化路６０７巷９號","OBJECTID":456568},"geometry":{"x":164633.00000000186,"y":2562515.129999999}},{"attributes":{"ID":456594,"DIS_CODE":0,"TOWNNAME":"佳里區","LI":"安西里","LIN":"46鄰","STREET":"文化路","SECT":" ","MAREA":" ","LANE":"６４１巷","ALLEY":" ","HOUSE_NO":"１１號","E_COORD97":164553.12,"N_COORD97":2562517.6200000001,"ADDRESS":"文化路６４１巷１１號","OBJECTID":456569},"geometry":{"x":164553.12000000104,"y":2562517.620000001}},{"attributes":{"ID":456595,"DIS_CODE":0,"TOWNNAME":"佳里區","LI":"安西里","LIN":"46鄰","STREET":"文化路","SECT":" ","MAREA":" ","LANE":"６４１巷","ALLEY":" ","HOUSE_NO":"１３號","E_COORD97":164553.20000000001,"N_COORD97":2562513.4399999999,"ADDRESS":"文化路６４１巷１３號","OBJECTID":456570},"geometry":{"x":164553.20000000019,"y":2562513.4400000013}},{"attributes":{"ID":456596,"DIS_CODE":0,"TOWNNAME":"佳里區","LI":"安西里","LIN":"46鄰","STREET":"文化路","SECT":" ","MAREA":" ","LANE":"６４１巷","ALLEY":" ","HOUSE_NO":"１５號","E_COORD97":164553.64999999999,"N_COORD97":2562509.6400000001,"ADDRESS":"文化路６４１巷１５號","OBJECTID":456571},"geometry":{"x":164553.65000000037,"y":2562509.6400000025}},{"attributes":{"ID":456597,"DIS_CODE":0,"TOWNNAME":"佳里區","LI":"安西里","LIN":"46鄰","STREET":"文化路","SECT":" ","MAREA":" ","LANE":"６４１巷","ALLEY":" ","HOUSE_NO":"１７號","E_COORD97":164555.37,"N_COORD97":2562505.1099999999,"ADDRESS":"文化路６４１巷１７號","OBJECTID":456572},"geometry":{"x":164555.37000000011,"y":2562505.1100000013}},{"attributes":{"ID":456598,"DIS_CODE":0,"TOWNNAME":"佳里區","LI":"安西里","LIN":"46鄰","STREET":"文化路","SECT":" ","MAREA":" ","LANE":"６４１巷","ALLEY":" ","HOUSE_NO":"１９號","E_COORD97":164555.31,"N_COORD97":2562499.6600000001,"ADDRESS":"文化路６４１巷１９號","OBJECTID":456573},"geometry":{"x":164555.30999999959,"y":2562499.6600000001}},{"attributes":{"ID":456599,"DIS_CODE":0,"TOWNNAME":"永康區","LI":"正強里","LIN":"46鄰","STREET":"中正路","SECT":" ","MAREA":" ","LANE":"２５６巷","ALLEY":" ","HOUSE_NO":"９號之３","E_COORD97":173205.91,"N_COORD97":2547991.8799999999,"ADDRESS":"中正路２５６巷９號之３","OBJECTID":456574},"geometry":{"x":173205.91000000015,"y":2547991.8800000008}},{"attributes":{"ID":456600,"DIS_CODE":0,"TOWNNAME":"永康區","LI":"正強里","LIN":"46鄰","STREET":"中正路","SECT":" ","MAREA":" ","LANE":"２５６巷","ALLEY":" ","HOUSE_NO":"９號之２２","E_COORD97":173207.19,"N_COORD97":2547991.8799999999,"ADDRESS":"中正路２５６巷９號之２２","OBJECTID":456575},"geometry":{"x":173207.19000000134,"y":2547991.8800000008}},{"attributes":{"ID":456601,"DIS_CODE":0,"TOWNNAME":"永康區","LI":"正強里","LIN":"46鄰","STREET":"中正路","SECT":" ","MAREA":" ","LANE":"２５６巷","ALLEY":" ","HOUSE_NO":"９號之６","E_COORD97":173205.91,"N_COORD97":2547991.8799999999,"ADDRESS":"中正路２５６巷９號之６","OBJECTID":456576},"geometry":{"x":173205.91000000015,"y":2547991.8800000008}},{"attributes":{"ID":456602,"DIS_CODE":0,"TOWNNAME":"永康區","LI":"正強里","LIN":"46鄰","STREET":"中正路","SECT":" ","MAREA":" ","LANE":"２５６巷","ALLEY":" ","HOUSE_NO":"９號之１３","E_COORD97":173207.16,"N_COORD97":2547991.8799999999,"ADDRESS":"中正路２５６巷９號之１３","OBJECTID":456577},"geometry":{"x":173207.16000000108,"y":2547991.8800000008}},{"attributes":{"ID":456603,"DIS_CODE":0,"TOWNNAME":"永康區","LI":"正強里","LIN":"46鄰","STREET":"中正路","SECT":" ","MAREA":" ","LANE":"２５６巷","ALLEY":" ","HOUSE_NO":"９號之３０","E_COORD97":173207.10999999999,"N_COORD97":2547991.8799999999,"ADDRESS":"中正路２５６巷９號之３０","OBJECTID":456578},"geometry":{"x":173207.11000000127,"y":2547991.8800000008}},{"attributes":{"ID":456604,"DIS_CODE":0,"TOWNNAME":"永康區","LI":"正強里","LIN":"46鄰","STREET":"中正路","SECT":" ","MAREA":" ","LANE":"２５６巷","ALLEY":" ","HOUSE_NO":"９號之２５","E_COORD97":173207.20999999999,"N_COORD97":2547991.8799999999,"ADDRESS":"中正路２５６巷９號之２５","OBJECTID":456579},"geometry":{"x":173207.20999999996,"y":2547991.8800000008}},{"attributes":{"ID":456605,"DIS_CODE":0,"TOWNNAME":"永康區","LI":"正強里","LIN":"46鄰","STREET":"中正路","SECT":" ","MAREA":" ","LANE":"２５６巷","ALLEY":" ","HOUSE_NO":"９號之１７","E_COORD97":173207.14000000001,"N_COORD97":2547991.8799999999,"ADDRESS":"中正路２５６巷９號之１７","OBJECTID":456580},"geometry":{"x":173207.13999999966,"y":2547991.8800000008}},{"attributes":{"ID":456606,"DIS_CODE":0,"TOWNNAME":"永康區","LI":"正強里","LIN":"46鄰","STREET":"中正路","SECT":" ","MAREA":" ","LANE":"２５６巷","ALLEY":" ","HOUSE_NO":"９號之２８","E_COORD97":173207.20999999999,"N_COORD97":2547991.8799999999,"ADDRESS":"中正路２５６巷９號之２８","OBJECTID":456581},"geometry":{"x":173207.20999999996,"y":2547991.8800000008}},{"attributes":{"ID":456607,"DIS_CODE":0,"TOWNNAME":"永康區","LI":"正強里","LIN":"46鄰","STREET":"中正路","SECT":" ","MAREA":" ","LANE":"２５６巷","ALLEY":" ","HOUSE_NO":"９號之３２","E_COORD97":173207.19,"N_COORD97":2547991.8799999999,"ADDRESS":"中正路２５６巷９號之３２","OBJECTID":456582},"geometry":{"x":173207.19000000134,"y":2547991.8800000008}},{"attributes":{"ID":456608,"DIS_CODE":0,"TOWNNAME":"仁德區","LI":"太子里","LIN":"46鄰","STREET":"太子一街","SECT":" ","MAREA":" ","LANE":"４３巷","ALLEY":" ","HOUSE_NO":"３２號","E_COORD97":174830.64000000001,"N_COORD97":2543294,"ADDRESS":"太子一街４３巷３２號","OBJECTID":456583},"geometry":{"x":174830.6400000006,"y":2543294}},{"attributes":{"ID":456609,"DIS_CODE":0,"TOWNNAME":"仁德區","LI":"太子里","LIN":"46鄰","STREET":"太子一街","SECT":" ","MAREA":" ","LANE":"４３巷","ALLEY":" ","HOUSE_NO":"１２號","E_COORD97":174793.42000000001,"N_COORD97":2543316.7599999998,"ADDRESS":"太子一街４３巷１２號","OBJECTID":456584},"geometry":{"x":174793.42000000086,"y":2543316.7599999998}},{"attributes":{"ID":456610,"DIS_CODE":0,"TOWNNAME":"仁德區","LI":"仁義里","LIN":"46鄰","STREET":"仁義路","SECT":" ","MAREA":" ","LANE":"９８巷","ALLEY":" ","HOUSE_NO":"４５號","E_COORD97":173625.39999999999,"N_COORD97":2540821.52,"ADDRESS":"仁義路９８巷４５號","OBJECTID":456585},"geometry":{"x":173625.40000000224,"y":2540821.5199999996}},{"attributes":{"ID":456611,"DIS_CODE":0,"TOWNNAME":"永康區","LI":"二王里","LIN":"46鄰","STREET":"南工街","SECT":" ","MAREA":" ","LANE":"２１２巷","ALLEY":" ","HOUSE_NO":"６號","E_COORD97":172070.82000000001,"N_COORD97":2545947.2400000002,"ADDRESS":"南工街２１２巷６號","OBJECTID":456586},"geometry":{"x":172070.8200000003,"y":2545947.2400000002}},{"attributes":{"ID":456612,"DIS_CODE":0,"TOWNNAME":"北區","LI":"成德里","LIN":"19鄰","STREET":"育成路","SECT":" ","MAREA":" ","LANE":" ","ALLEY":" ","HOUSE_NO":"６號","E_COORD97":169017.16,"N_COORD97":2546309.8999999999,"ADDRESS":"育成路６號","OBJECTID":456587},"geometry":{"x":169017.16000000015,"y":2546309.9000000004}},{"attributes":{"ID":456613,"DIS_CODE":0,"TOWNNAME":"永康區","LI":"崑山里","LIN":"46鄰","STREET":"國光五街","SECT":" ","MAREA":" ","LANE":"２２巷","ALLEY":" ","HOUSE_NO":"５３號","E_COORD97":174246.47,"N_COORD97":2545217.4100000001,"ADDRESS":"國光五街２２巷５３號","OBJECTID":456588},"geometry":{"x":174246.4700000016,"y":2545217.4100000001}},{"attributes":{"ID":456614,"DIS_CODE":0,"TOWNNAME":"仁德區","LI":"太子里","LIN":"46鄰","STREET":"太子一街","SECT":" ","MAREA":" ","LANE":"４３巷","ALLEY":" ","HOUSE_NO":"４４號","E_COORD97":174862.60999999999,"N_COORD97":2543274,"ADDRESS":"太子一街４３巷４４號","OBJECTID":456589},"geometry":{"x":174862.61000000034,"y":2543274}},{"attributes":{"ID":456615,"DIS_CODE":0,"TOWNNAME":"永康區","LI":"二王里","LIN":"46鄰","STREET":"南工街","SECT":" ","MAREA":" ","LANE":"２１２巷","ALLEY":" ","HOUSE_NO":"５號之１","E_COORD97":172081.88,"N_COORD97":2545963.2400000002,"ADDRESS":"南工街２１２巷５號之１","OBJECTID":456590},"geometry":{"x":172081.87999999989,"y":2545963.2400000021}},{"attributes":{"ID":456616,"DIS_CODE":0,"TOWNNAME":"永康區","LI":"崑山里","LIN":"46鄰","STREET":"崑山街","SECT":" ","MAREA":" ","LANE":"２５８巷","ALLEY":" ","HOUSE_NO":"３０號","E_COORD97":174195.5,"N_COORD97":2545112.71,"ADDRESS":"崑山街２５８巷３０號","OBJECTID":456591},"geometry":{"x":174195.49999999907,"y":2545112.7100000028}},{"attributes":{"ID":456617,"DIS_CODE":0,"TOWNNAME":"永康區","LI":"崑山里","LIN":"46鄰","STREET":"永華路","SECT":" ","MAREA":" ","LANE":"３２巷","ALLEY":" ","HOUSE_NO":"２６號","E_COORD97":174160.56,"N_COORD97":2545183.4199999999,"ADDRESS":"永華路３２巷２６號","OBJECTID":456592},"geometry":{"x":174160.55999999959,"y":2545183.4199999999}},{"attributes":{"ID":456618,"DIS_CODE":0,"TOWNNAME":"永康區","LI":"崑山里","LIN":"46鄰","STREET":"國光五街","SECT":" ","MAREA":" ","LANE":"２２巷","ALLEY":" ","HOUSE_NO":"３號","E_COORD97":174202.19,"N_COORD97":2545091.27,"ADDRESS":"國光五街２２巷３號","OBJECTID":456593},"geometry":{"x":174202.19000000134,"y":2545091.2700000014}},{"attributes":{"ID":456619,"DIS_CODE":0,"TOWNNAME":"永康區","LI":"崑山里","LIN":"46鄰","STREET":"永華路","SECT":" ","MAREA":" ","LANE":"３２巷","ALLEY":" ","HOUSE_NO":"２４號","E_COORD97":174155.48999999999,"N_COORD97":2545183.1800000002,"ADDRESS":"永華路３２巷２４號","OBJECTID":456594},"geometry":{"x":174155.49000000115,"y":2545183.1800000016}},{"attributes":{"ID":456620,"DIS_CODE":0,"TOWNNAME":"永康區","LI":"崑山里","LIN":"46鄰","STREET":"崑山街","SECT":" ","MAREA":" ","LANE":"２５８巷","ALLEY":" ","HOUSE_NO":"１６號","E_COORD97":174172.17000000001,"N_COORD97":2545123.1400000001,"ADDRESS":"崑山街２５８巷１６號","OBJECTID":456595},"geometry":{"x":174172.16999999993,"y":2545123.1400000025}},{"attributes":{"ID":456621,"DIS_CODE":0,"TOWNNAME":"永康區","LI":"崑山里","LIN":"46鄰","STREET":"國光五街","SECT":" ","MAREA":" ","LANE":"２２巷","ALLEY":" ","HOUSE_NO":"５９號","E_COORD97":174251.20999999999,"N_COORD97":2545231.4100000001,"ADDRESS":"國光五街２２巷５９號","OBJECTID":456596},"geometry":{"x":174251.20999999996,"y":2545231.4100000001}},{"attributes":{"ID":456622,"DIS_CODE":0,"TOWNNAME":"永康區","LI":"崑山里","LIN":"46鄰","STREET":"崑山街","SECT":" ","MAREA":" ","LANE":"２５８巷","ALLEY":" ","HOUSE_NO":"３６號","E_COORD97":174209.70000000001,"N_COORD97":2545107.1800000002,"ADDRESS":"崑山街２５８巷３６號","OBJECTID":456597},"geometry":{"x":174209.70000000205,"y":2545107.1799999997}},{"attributes":{"ID":456623,"DIS_CODE":0,"TOWNNAME":"永康區","LI":"崑山里","LIN":"46鄰","STREET":"崑山街","SECT":" ","MAREA":" ","LANE":"２５８巷","ALLEY":" ","HOUSE_NO":"４號","E_COORD97":174145.95000000001,"N_COORD97":2545131.1400000001,"ADDRESS":"崑山街２５８巷４號","OBJECTID":456598},"geometry":{"x":174145.95000000112,"y":2545131.1400000006}},{"attributes":{"ID":456624,"DIS_CODE":0,"TOWNNAME":"永康區","LI":"崑山里","LIN":"46鄰","STREET":"崑山街","SECT":" ","MAREA":" ","LANE":"２５８巷","ALLEY":" ","HOUSE_NO":"１９號","E_COORD97":174188.10000000001,"N_COORD97":2545135.5800000001,"ADDRESS":"崑山街２５８巷１９號","OBJECTID":456599},"geometry":{"x":174188.10000000056,"y":2545135.5799999982}},{"attributes":{"ID":456625,"DIS_CODE":0,"TOWNNAME":"永康區","LI":"崑山里","LIN":"46鄰","STREET":"崑山街","SECT":" ","MAREA":" ","LANE":"２５８巷","ALLEY":" ","HOUSE_NO":"１１號","E_COORD97":174168.98999999999,"N_COORD97":2545142.5800000001,"ADDRESS":"崑山街２５８巷１１號","OBJECTID":456600},"geometry":{"x":174168.99000000115,"y":2545142.5800000038}}]}