{"displayFieldName":"TOWNNAME","fieldAliases":{"ID":"ID","DIS_CODE":"DIS_CODE","TOWNNAME":"TOWNNAME","LI":"LI","LIN":"LIN","STREET":"STREET","SECT":"SECT","MAREA":"MAREA","LANE":"LANE","ALLEY":"ALLEY","HOUSE_NO":"HOUSE_NO","E_COORD97":"E_COORD97","N_COORD97":"N_COORD97","ADDRESS":"ADDRESS","OBJECTID":"OBJECTID"},"geometryType":"esriGeometryPoint","spatialReference":{"wkid":102443,"latestWkid":3826},"fields":[{"name":"ID","type":"esriFieldTypeDouble","alias":"ID"},{"name":"DIS_CODE","type":"esriFieldTypeInteger","alias":"DIS_CODE"},{"name":"TOWNNAME","type":"esriFieldTypeString","alias":"TOWNNAME","length":8},{"name":"LI","type":"esriFieldTypeString","alias":"LI","length":8},{"name":"LIN","type":"esriFieldTypeString","alias":"LIN","length":12},{"name":"STREET","type":"esriFieldTypeString","alias":"STREET","length":20},{"name":"SECT","type":"esriFieldTypeString","alias":"SECT","length":8},{"name":"MAREA","type":"esriFieldTypeString","alias":"MAREA","length":12},{"name":"LANE","type":"esriFieldTypeString","alias":"LANE","length":10},{"name":"ALLEY","type":"esriFieldTypeString","alias":"ALLEY","length":10},{"name":"HOUSE_NO","type":"esriFieldTypeString","alias":"HOUSE_NO","length":20},{"name":"E_COORD97","type":"esriFieldTypeDouble","alias":"E_COORD97"},{"name":"N_COORD97","type":"esriFieldTypeDouble","alias":"N_COORD97"},{"name":"ADDRESS","type":"esriFieldTypeString","alias":"ADDRESS","length":50},{"name":"OBJECTID","type":"esriFieldTypeOID","alias":"OBJECTID"}],"features":[{"attributes":{"ID":46201,"DIS_CODE":0,"TOWNNAME":"永康區","LI":"大橋里","LIN":"15鄰","STREET":"大橋一街","SECT":" ","MAREA":" ","LANE":"７３巷","ALLEY":"４０弄","HOUSE_NO":"６號","E_COORD97":170899.17999999999,"N_COORD97":2546525,"ADDRESS":"大橋一街７３巷４０弄６號","OBJECTID":46201},"geometry":{"x":170899.18000000063,"y":2546525}},{"attributes":{"ID":46202,"DIS_CODE":0,"TOWNNAME":"永康區","LI":"大橋里","LIN":"15鄰","STREET":"大橋一街","SECT":" ","MAREA":" ","LANE":"７３巷","ALLEY":"４０弄","HOUSE_NO":"７號","E_COORD97":170890,"N_COORD97":2546536,"ADDRESS":"大橋一街７３巷４０弄７號","OBJECTID":46202},"geometry":{"x":170890.00000000186,"y":2546536}},{"attributes":{"ID":46203,"DIS_CODE":0,"TOWNNAME":"永康區","LI":"三合里","LIN":"15鄰","STREET":"南工街","SECT":" ","MAREA":" ","LANE":"２４７巷","ALLEY":"２３弄","HOUSE_NO":"２號","E_COORD97":171994.23999999999,"N_COORD97":2545877.1000000001,"ADDRESS":"南工街２４７巷２３弄２號","OBJECTID":46203},"geometry":{"x":171994.24000000115,"y":2545877.0999999996}},{"attributes":{"ID":46204,"DIS_CODE":0,"TOWNNAME":"永康區","LI":"三合里","LIN":"15鄰","STREET":"南工街","SECT":" ","MAREA":" ","LANE":"２４７巷","ALLEY":"２３弄","HOUSE_NO":"４號","E_COORD97":171998.19,"N_COORD97":2545876.3500000001,"ADDRESS":"南工街２４７巷２３弄４號","OBJECTID":46204},"geometry":{"x":171998.19000000134,"y":2545876.3500000015}},{"attributes":{"ID":46205,"DIS_CODE":0,"TOWNNAME":"永康區","LI":"二王里","LIN":"15鄰","STREET":"忠孝路","SECT":" ","MAREA":" ","LANE":"４５０巷","ALLEY":"１１弄","HOUSE_NO":"４號","E_COORD97":172535.84,"N_COORD97":2546644.73,"ADDRESS":"忠孝路４５０巷１１弄４號","OBJECTID":46205},"geometry":{"x":172535.84000000078,"y":2546644.7300000023}},{"attributes":{"ID":46206,"DIS_CODE":0,"TOWNNAME":"下營區","LI":"賀建里","LIN":"15鄰","STREET":" ","SECT":" ","MAREA":"洲子","LANE":" ","ALLEY":" ","HOUSE_NO":"５５號之８","E_COORD97":177168.82999999999,"N_COORD97":2571898.3700000001,"ADDRESS":"洲子５５號之８","OBJECTID":46206},"geometry":{"x":177168.83000000101,"y":2571898.3699999992}},{"attributes":{"ID":46207,"DIS_CODE":0,"TOWNNAME":"下營區","LI":"賀建里","LIN":"15鄰","STREET":" ","SECT":" ","MAREA":"洲子","LANE":" ","ALLEY":" ","HOUSE_NO":"５５號","E_COORD97":177138.03,"N_COORD97":2571802.8300000001,"ADDRESS":"洲子５５號","OBJECTID":46207},"geometry":{"x":177138.03000000026,"y":2571802.8300000038}},{"attributes":{"ID":46208,"DIS_CODE":0,"TOWNNAME":"下營區","LI":"賀建里","LIN":"15鄰","STREET":" ","SECT":" ","MAREA":"洲子","LANE":" ","ALLEY":" ","HOUSE_NO":"５６號","E_COORD97":177205.95999999999,"N_COORD97":2571933.3500000001,"ADDRESS":"洲子５６號","OBJECTID":46208},"geometry":{"x":177205.95999999996,"y":2571933.3499999996}},{"attributes":{"ID":46209,"DIS_CODE":0,"TOWNNAME":"下營區","LI":"賀建里","LIN":"15鄰","STREET":" ","SECT":" ","MAREA":"洲子","LANE":" ","ALLEY":" ","HOUSE_NO":"５７號之８","E_COORD97":176786.64999999999,"N_COORD97":2571714.8700000001,"ADDRESS":"洲子５７號之８","OBJECTID":46209},"geometry":{"x":176786.65000000037,"y":2571714.870000001}},{"attributes":{"ID":46210,"DIS_CODE":0,"TOWNNAME":"下營區","LI":"賀建里","LIN":"15鄰","STREET":" ","SECT":" ","MAREA":"洲子","LANE":" ","ALLEY":" ","HOUSE_NO":"５８號之６","E_COORD97":176892.32999999999,"N_COORD97":2571531.6800000002,"ADDRESS":"洲子５８號之６","OBJECTID":46210},"geometry":{"x":176892.33000000194,"y":2571531.6799999997}},{"attributes":{"ID":46211,"DIS_CODE":0,"TOWNNAME":"永康區","LI":"勝利里","LIN":"15鄰","STREET":"勝利街","SECT":" ","MAREA":" ","LANE":"９５巷","ALLEY":"９弄","HOUSE_NO":"２３號","E_COORD97":171263.59,"N_COORD97":2544806.75,"ADDRESS":"勝利街９５巷９弄２３號","OBJECTID":46211},"geometry":{"x":171263.58999999985,"y":2544806.7500000019}},{"attributes":{"ID":46212,"DIS_CODE":0,"TOWNNAME":"下營區","LI":"賀建里","LIN":"15鄰","STREET":" ","SECT":" ","MAREA":"洲子","LANE":" ","ALLEY":" ","HOUSE_NO":"５８號","E_COORD97":176747.5,"N_COORD97":2571582.9500000002,"ADDRESS":"洲子５８號","OBJECTID":46212},"geometry":{"x":176747.50000000093,"y":2571582.9499999993}},{"attributes":{"ID":46213,"DIS_CODE":0,"TOWNNAME":"永康區","LI":"大橋里","LIN":"15鄰","STREET":"大橋一街","SECT":" ","MAREA":" ","LANE":"１０３巷","ALLEY":"４１弄","HOUSE_NO":"３號","E_COORD97":170951.76999999999,"N_COORD97":2546501.2999999998,"ADDRESS":"大橋一街１０３巷４１弄３號","OBJECTID":46213},"geometry":{"x":170951.76999999955,"y":2546501.3000000045}},{"attributes":{"ID":46214,"DIS_CODE":0,"TOWNNAME":"永康區","LI":"二王里","LIN":"15鄰","STREET":"忠孝路","SECT":" ","MAREA":" ","LANE":"４５０巷","ALLEY":"１１弄","HOUSE_NO":"３號","E_COORD97":172525.35999999999,"N_COORD97":2546643.02,"ADDRESS":"忠孝路４５０巷１１弄３號","OBJECTID":46214},"geometry":{"x":172525.3599999994,"y":2546643.0199999996}},{"attributes":{"ID":46215,"DIS_CODE":0,"TOWNNAME":"安南區","LI":"幸福里","LIN":"15鄰","STREET":"府安路","SECT":"六段","MAREA":" ","LANE":"４５巷","ALLEY":"４３弄","HOUSE_NO":"１０號","E_COORD97":166886.10999999999,"N_COORD97":2546773.3300000001,"ADDRESS":"府安路六段４５巷４３弄１０號","OBJECTID":46215},"geometry":{"x":166886.11000000127,"y":2546773.3300000019}},{"attributes":{"ID":46216,"DIS_CODE":0,"TOWNNAME":"安南區","LI":"幸福里","LIN":"15鄰","STREET":"府安路","SECT":"六段","MAREA":" ","LANE":"４５巷","ALLEY":"４３弄","HOUSE_NO":"２號","E_COORD97":166914.67000000001,"N_COORD97":2546779.0699999998,"ADDRESS":"府安路六段４５巷４３弄２號","OBJECTID":46216},"geometry":{"x":166914.66999999993,"y":2546779.0700000003}},{"attributes":{"ID":46217,"DIS_CODE":0,"TOWNNAME":"下營區","LI":"賀建里","LIN":"15鄰","STREET":" ","SECT":" ","MAREA":"洲子","LANE":" ","ALLEY":" ","HOUSE_NO":"５９號","E_COORD97":177444.26999999999,"N_COORD97":2571586.8500000001,"ADDRESS":"洲子５９號","OBJECTID":46217},"geometry":{"x":177444.26999999955,"y":2571586.8500000015}},{"attributes":{"ID":46218,"DIS_CODE":0,"TOWNNAME":"安南區","LI":"幸福里","LIN":"15鄰","STREET":"府安路","SECT":"六段","MAREA":" ","LANE":"４５巷","ALLEY":"４３弄","HOUSE_NO":"８號","E_COORD97":166894.14999999999,"N_COORD97":2546773.8900000001,"ADDRESS":"府安路六段４５巷４３弄８號","OBJECTID":46218},"geometry":{"x":166894.1500000013,"y":2546773.8900000006}},{"attributes":{"ID":46219,"DIS_CODE":0,"TOWNNAME":"北區","LI":"和順里","LIN":"17鄰","STREET":"海安路","SECT":"三段","MAREA":" ","LANE":" ","ALLEY":" ","HOUSE_NO":"１４２號","E_COORD97":168020.07999999999,"N_COORD97":2545023.0800000001,"ADDRESS":"海安路三段１４２號","OBJECTID":46219},"geometry":{"x":168020.08000000101,"y":2545023.0800000001}},{"attributes":{"ID":46220,"DIS_CODE":0,"TOWNNAME":"安南區","LI":"幸福里","LIN":"15鄰","STREET":"府安路","SECT":"六段","MAREA":" ","LANE":"４５巷","ALLEY":"５７弄","HOUSE_NO":"１０號","E_COORD97":166879.73999999999,"N_COORD97":2546808.8199999998,"ADDRESS":"府安路六段４５巷５７弄１０號","OBJECTID":46220},"geometry":{"x":166879.74000000115,"y":2546808.8200000003}},{"attributes":{"ID":46221,"DIS_CODE":0,"TOWNNAME":"安南區","LI":"幸福里","LIN":"15鄰","STREET":"府安路","SECT":"六段","MAREA":" ","LANE":"４５巷","ALLEY":"５７弄","HOUSE_NO":"１號","E_COORD97":166913.78,"N_COORD97":2546788.8300000001,"ADDRESS":"府安路六段４５巷５７弄１號","OBJECTID":46221},"geometry":{"x":166913.78000000119,"y":2546788.8300000038}},{"attributes":{"ID":46222,"DIS_CODE":0,"TOWNNAME":"安南區","LI":"幸福里","LIN":"15鄰","STREET":"府安路","SECT":"六段","MAREA":" ","LANE":"４５巷","ALLEY":"５７弄","HOUSE_NO":"２號","E_COORD97":166909.45000000001,"N_COORD97":2546813.73,"ADDRESS":"府安路六段４５巷５７弄２號","OBJECTID":46222},"geometry":{"x":166909.45000000019,"y":2546813.7300000023}},{"attributes":{"ID":46223,"DIS_CODE":0,"TOWNNAME":"安南區","LI":"幸福里","LIN":"15鄰","STREET":"府安路","SECT":"六段","MAREA":" ","LANE":"４５巷","ALLEY":"５７弄","HOUSE_NO":"３號","E_COORD97":166905.92000000001,"N_COORD97":2546787.7400000002,"ADDRESS":"府安路六段４５巷５７弄３號","OBJECTID":46223},"geometry":{"x":166905.92000000086,"y":2546787.7400000002}},{"attributes":{"ID":46224,"DIS_CODE":0,"TOWNNAME":"安南區","LI":"幸福里","LIN":"15鄰","STREET":"府安路","SECT":"六段","MAREA":" ","LANE":"４５巷","ALLEY":"５７弄","HOUSE_NO":"５號","E_COORD97":166899.14999999999,"N_COORD97":2546786.21,"ADDRESS":"府安路六段４５巷５７弄５號","OBJECTID":46224},"geometry":{"x":166899.1500000013,"y":2546786.2100000009}},{"attributes":{"ID":46225,"DIS_CODE":0,"TOWNNAME":"下營區","LI":"賀建里","LIN":"15鄰","STREET":" ","SECT":" ","MAREA":"洲子","LANE":" ","ALLEY":" ","HOUSE_NO":"６０號","E_COORD97":176772.59,"N_COORD97":2571292.3799999999,"ADDRESS":"洲子６０號","OBJECTID":46225},"geometry":{"x":176772.58999999985,"y":2571292.379999999}},{"attributes":{"ID":46226,"DIS_CODE":0,"TOWNNAME":"下營區","LI":"賀建里","LIN":"15鄰","STREET":" ","SECT":" ","MAREA":"洲子","LANE":" ","ALLEY":" ","HOUSE_NO":"６１號","E_COORD97":176613.64000000001,"N_COORD97":2571254.9100000001,"ADDRESS":"洲子６１號","OBJECTID":46226},"geometry":{"x":176613.6400000006,"y":2571254.9100000001}},{"attributes":{"ID":46227,"DIS_CODE":0,"TOWNNAME":"下營區","LI":"賀建里","LIN":"15鄰","STREET":" ","SECT":" ","MAREA":"洲子","LANE":" ","ALLEY":" ","HOUSE_NO":"６２號","E_COORD97":176571.98000000001,"N_COORD97":2571245.0699999998,"ADDRESS":"洲子６２號","OBJECTID":46227},"geometry":{"x":176571.98000000138,"y":2571245.0700000003}},{"attributes":{"ID":46228,"DIS_CODE":0,"TOWNNAME":"永康區","LI":"中興里","LIN":"17鄰","STREET":"中華路","SECT":" ","MAREA":" ","LANE":" ","ALLEY":" ","HOUSE_NO":"２４０號四樓","E_COORD97":171639.39999999999,"N_COORD97":2545114.5,"ADDRESS":"中華路２４０號四樓","OBJECTID":46228},"geometry":{"x":171639.4000000013,"y":2545114.5}},{"attributes":{"ID":46229,"DIS_CODE":0,"TOWNNAME":"善化區","LI":"坐駕里","LIN":"17鄰","STREET":"文化路","SECT":" ","MAREA":" ","LANE":" ","ALLEY":" ","HOUSE_NO":"６號七樓之５","E_COORD97":177970.09,"N_COORD97":2558361.29,"ADDRESS":"文化路６號七樓之５","OBJECTID":46229},"geometry":{"x":177970.09000000171,"y":2558361.2899999991}},{"attributes":{"ID":46230,"DIS_CODE":0,"TOWNNAME":"下營區","LI":"賀建里","LIN":"15鄰","STREET":" ","SECT":" ","MAREA":"洲子","LANE":" ","ALLEY":" ","HOUSE_NO":"６６號","E_COORD97":176520.91,"N_COORD97":2571567.0800000001,"ADDRESS":"洲子６６號","OBJECTID":46230},"geometry":{"x":176520.91000000108,"y":2571567.0799999982}},{"attributes":{"ID":46231,"DIS_CODE":0,"TOWNNAME":"下營區","LI":"紅厝里","LIN":"15鄰","STREET":" ","SECT":" ","MAREA":"紅毛厝","LANE":" ","ALLEY":" ","HOUSE_NO":"１０６號之１","E_COORD97":175031.95000000001,"N_COORD97":2571534.9199999999,"ADDRESS":"紅毛厝１０６號之１","OBJECTID":46231},"geometry":{"x":175031.95000000205,"y":2571534.9200000018}},{"attributes":{"ID":46232,"DIS_CODE":0,"TOWNNAME":"下營區","LI":"紅厝里","LIN":"15鄰","STREET":" ","SECT":" ","MAREA":"紅毛厝","LANE":" ","ALLEY":" ","HOUSE_NO":"１０７號之１","E_COORD97":175035.92999999999,"N_COORD97":2571514.73,"ADDRESS":"紅毛厝１０７號之１","OBJECTID":46232},"geometry":{"x":175035.9299999997,"y":2571514.7300000004}},{"attributes":{"ID":46233,"DIS_CODE":0,"TOWNNAME":"下營區","LI":"紅厝里","LIN":"15鄰","STREET":" ","SECT":" ","MAREA":"紅毛厝","LANE":" ","ALLEY":" ","HOUSE_NO":"１０７號之３","E_COORD97":175028.56,"N_COORD97":2571485.5,"ADDRESS":"紅毛厝１０７號之３","OBJECTID":46233},"geometry":{"x":175028.55999999959,"y":2571485.5}},{"attributes":{"ID":46234,"DIS_CODE":0,"TOWNNAME":"下營區","LI":"紅厝里","LIN":"15鄰","STREET":" ","SECT":" ","MAREA":"紅毛厝","LANE":" ","ALLEY":" ","HOUSE_NO":"１０７號","E_COORD97":175000.35000000001,"N_COORD97":2571499.02,"ADDRESS":"紅毛厝１０７號","OBJECTID":46234},"geometry":{"x":175000.35000000056,"y":2571499.0199999977}},{"attributes":{"ID":46235,"DIS_CODE":0,"TOWNNAME":"下營區","LI":"紅厝里","LIN":"15鄰","STREET":" ","SECT":" ","MAREA":"紅毛厝","LANE":" ","ALLEY":" ","HOUSE_NO":"１０８號","E_COORD97":175000.23000000001,"N_COORD97":2571475.3100000001,"ADDRESS":"紅毛厝１０８號","OBJECTID":46235},"geometry":{"x":175000.23000000138,"y":2571475.3100000024}},{"attributes":{"ID":46236,"DIS_CODE":0,"TOWNNAME":"下營區","LI":"紅厝里","LIN":"15鄰","STREET":" ","SECT":" ","MAREA":"紅毛厝","LANE":" ","ALLEY":" ","HOUSE_NO":"１１３號","E_COORD97":175026.07999999999,"N_COORD97":2571436.1000000001,"ADDRESS":"紅毛厝１１３號","OBJECTID":46236},"geometry":{"x":175026.08000000101,"y":2571436.0999999996}},{"attributes":{"ID":46237,"DIS_CODE":0,"TOWNNAME":"下營區","LI":"紅厝里","LIN":"15鄰","STREET":" ","SECT":" ","MAREA":"紅毛厝","LANE":" ","ALLEY":" ","HOUSE_NO":"１１４號","E_COORD97":175053.95000000001,"N_COORD97":2571445.0299999998,"ADDRESS":"紅毛厝１１４號","OBJECTID":46237},"geometry":{"x":175053.95000000205,"y":2571445.0300000012}},{"attributes":{"ID":46238,"DIS_CODE":0,"TOWNNAME":"將軍區","LI":"玉山里","LIN":"15鄰","STREET":" ","SECT":" ","MAREA":"玉山","LANE":" ","ALLEY":" ","HOUSE_NO":"１２３號","E_COORD97":159913.56,"N_COORD97":2568339.52,"ADDRESS":"玉山１２３號","OBJECTID":46238},"geometry":{"x":159913.56000000052,"y":2568339.5200000033}},{"attributes":{"ID":46239,"DIS_CODE":0,"TOWNNAME":"將軍區","LI":"玉山里","LIN":"15鄰","STREET":" ","SECT":" ","MAREA":"玉山","LANE":" ","ALLEY":" ","HOUSE_NO":"１２４號","E_COORD97":159899.39000000001,"N_COORD97":2568332.2000000002,"ADDRESS":"玉山１２４號","OBJECTID":46239},"geometry":{"x":159899.3900000006,"y":2568332.2000000011}},{"attributes":{"ID":46240,"DIS_CODE":0,"TOWNNAME":"將軍區","LI":"玉山里","LIN":"15鄰","STREET":" ","SECT":" ","MAREA":"玉山","LANE":" ","ALLEY":" ","HOUSE_NO":"１２５號","E_COORD97":159939.92999999999,"N_COORD97":2568323.4300000002,"ADDRESS":"玉山１２５號","OBJECTID":46240},"geometry":{"x":159939.93000000063,"y":2568323.4300000034}},{"attributes":{"ID":46241,"DIS_CODE":0,"TOWNNAME":"將軍區","LI":"玉山里","LIN":"15鄰","STREET":" ","SECT":" ","MAREA":"玉山","LANE":" ","ALLEY":" ","HOUSE_NO":"１２６之１號","E_COORD97":159985.57999999999,"N_COORD97":2568312.4100000001,"ADDRESS":"玉山１２６之１號","OBJECTID":46241},"geometry":{"x":159985.58000000007,"y":2568312.4100000001}},{"attributes":{"ID":46242,"DIS_CODE":0,"TOWNNAME":"將軍區","LI":"玉山里","LIN":"15鄰","STREET":" ","SECT":" ","MAREA":"玉山","LANE":" ","ALLEY":" ","HOUSE_NO":"１２６之２號","E_COORD97":160010.91,"N_COORD97":2568370.1000000001,"ADDRESS":"玉山１２６之２號","OBJECTID":46242},"geometry":{"x":160010.91000000015,"y":2568370.1000000015}},{"attributes":{"ID":46243,"DIS_CODE":0,"TOWNNAME":"將軍區","LI":"玉山里","LIN":"15鄰","STREET":" ","SECT":" ","MAREA":"玉山","LANE":" ","ALLEY":" ","HOUSE_NO":"１２６之３號","E_COORD97":160017.75,"N_COORD97":2568350.54,"ADDRESS":"玉山１２６之３號","OBJECTID":46243},"geometry":{"x":160017.75000000093,"y":2568350.540000001}},{"attributes":{"ID":46244,"DIS_CODE":0,"TOWNNAME":"將軍區","LI":"玉山里","LIN":"15鄰","STREET":" ","SECT":" ","MAREA":"玉山","LANE":" ","ALLEY":" ","HOUSE_NO":"１２６號","E_COORD97":159952.82999999999,"N_COORD97":2568295.6899999999,"ADDRESS":"玉山１２６號","OBJECTID":46244},"geometry":{"x":159952.83000000101,"y":2568295.6900000013}},{"attributes":{"ID":46245,"DIS_CODE":0,"TOWNNAME":"將軍區","LI":"玉山里","LIN":"15鄰","STREET":" ","SECT":" ","MAREA":"玉山","LANE":" ","ALLEY":" ","HOUSE_NO":"１２７之６號","E_COORD97":159990.54999999999,"N_COORD97":2568253.8799999999,"ADDRESS":"玉山１２７之６號","OBJECTID":46245},"geometry":{"x":159990.54999999981,"y":2568253.879999999}},{"attributes":{"ID":46246,"DIS_CODE":0,"TOWNNAME":"將軍區","LI":"玉山里","LIN":"15鄰","STREET":" ","SECT":" ","MAREA":"玉山","LANE":" ","ALLEY":" ","HOUSE_NO":"１２８之１號","E_COORD97":159953.82999999999,"N_COORD97":2568235.02,"ADDRESS":"玉山１２８之１號","OBJECTID":46246},"geometry":{"x":159953.83000000194,"y":2568235.0200000014}},{"attributes":{"ID":46247,"DIS_CODE":0,"TOWNNAME":"將軍區","LI":"玉山里","LIN":"15鄰","STREET":" ","SECT":" ","MAREA":"玉山","LANE":" ","ALLEY":" ","HOUSE_NO":"１２８之２號","E_COORD97":159980.06,"N_COORD97":2568204.96,"ADDRESS":"玉山１２８之２號","OBJECTID":46247},"geometry":{"x":159980.05999999959,"y":2568204.9600000009}},{"attributes":{"ID":46248,"DIS_CODE":0,"TOWNNAME":"將軍區","LI":"玉山里","LIN":"15鄰","STREET":" ","SECT":" ","MAREA":"玉山","LANE":" ","ALLEY":" ","HOUSE_NO":"１２８號","E_COORD97":159933,"N_COORD97":2568269.6699999999,"ADDRESS":"玉山１２８號","OBJECTID":46248},"geometry":{"x":159933.00000000093,"y":2568269.6699999999}},{"attributes":{"ID":46249,"DIS_CODE":0,"TOWNNAME":"將軍區","LI":"玉山里","LIN":"15鄰","STREET":" ","SECT":" ","MAREA":"玉山","LANE":" ","ALLEY":" ","HOUSE_NO":"１２９號","E_COORD97":159936.23999999999,"N_COORD97":2568288.6800000002,"ADDRESS":"玉山１２９號","OBJECTID":46249},"geometry":{"x":159936.24000000115,"y":2568288.6800000016}},{"attributes":{"ID":46250,"DIS_CODE":0,"TOWNNAME":"善化區","LI":"坐駕里","LIN":"17鄰","STREET":"文化路","SECT":" ","MAREA":" ","LANE":" ","ALLEY":" ","HOUSE_NO":"６號八樓之１","E_COORD97":177970.09,"N_COORD97":2558361.29,"ADDRESS":"文化路６號八樓之１","OBJECTID":46250},"geometry":{"x":177970.09000000171,"y":2558361.2899999991}},{"attributes":{"ID":46251,"DIS_CODE":0,"TOWNNAME":"善化區","LI":"坐駕里","LIN":"17鄰","STREET":"文化路","SECT":" ","MAREA":" ","LANE":" ","ALLEY":" ","HOUSE_NO":"６號八樓之２","E_COORD97":177970.09,"N_COORD97":2558361.29,"ADDRESS":"文化路６號八樓之２","OBJECTID":46251},"geometry":{"x":177970.09000000171,"y":2558361.2899999991}},{"attributes":{"ID":46252,"DIS_CODE":0,"TOWNNAME":"善化區","LI":"坐駕里","LIN":"17鄰","STREET":"文化路","SECT":" ","MAREA":" ","LANE":" ","ALLEY":" ","HOUSE_NO":"６號八樓之３","E_COORD97":177970.09,"N_COORD97":2558361.29,"ADDRESS":"文化路６號八樓之３","OBJECTID":46252},"geometry":{"x":177970.09000000171,"y":2558361.2899999991}},{"attributes":{"ID":46253,"DIS_CODE":0,"TOWNNAME":"將軍區","LI":"玉山里","LIN":"15鄰","STREET":" ","SECT":" ","MAREA":"玉山","LANE":" ","ALLEY":" ","HOUSE_NO":"１３０之１號","E_COORD97":159922.41,"N_COORD97":2568269.52,"ADDRESS":"玉山１３０之１號","OBJECTID":46253},"geometry":{"x":159922.41000000015,"y":2568269.5200000014}},{"attributes":{"ID":46254,"DIS_CODE":0,"TOWNNAME":"將軍區","LI":"玉山里","LIN":"15鄰","STREET":" ","SECT":" ","MAREA":"玉山","LANE":" ","ALLEY":" ","HOUSE_NO":"１３０號","E_COORD97":159930.82999999999,"N_COORD97":2568347.6400000001,"ADDRESS":"玉山１３０號","OBJECTID":46254},"geometry":{"x":159930.83000000101,"y":2568347.6400000025}},{"attributes":{"ID":46255,"DIS_CODE":0,"TOWNNAME":"將軍區","LI":"玉山里","LIN":"15鄰","STREET":" ","SECT":" ","MAREA":"玉山","LANE":" ","ALLEY":" ","HOUSE_NO":"１３１號","E_COORD97":159911.14000000001,"N_COORD97":2568303.29,"ADDRESS":"玉山１３１號","OBJECTID":46255},"geometry":{"x":159911.1400000006,"y":2568303.2900000028}},{"attributes":{"ID":46256,"DIS_CODE":0,"TOWNNAME":"將軍區","LI":"苓和里","LIN":"15鄰","STREET":" ","SECT":" ","MAREA":"忠寮","LANE":" ","ALLEY":" ","HOUSE_NO":"２６之１號","E_COORD97":164254.72,"N_COORD97":2569150.6299999999,"ADDRESS":"忠寮２６之１號","OBJECTID":46256},"geometry":{"x":164254.71999999974,"y":2569150.629999999}},{"attributes":{"ID":46257,"DIS_CODE":0,"TOWNNAME":"將軍區","LI":"苓和里","LIN":"15鄰","STREET":" ","SECT":" ","MAREA":"忠寮","LANE":" ","ALLEY":" ","HOUSE_NO":"２６號","E_COORD97":164215.70999999999,"N_COORD97":2569142.79,"ADDRESS":"忠寮２６號","OBJECTID":46257},"geometry":{"x":164215.70999999996,"y":2569142.7899999991}},{"attributes":{"ID":46258,"DIS_CODE":0,"TOWNNAME":"將軍區","LI":"苓和里","LIN":"15鄰","STREET":" ","SECT":" ","MAREA":"忠寮","LANE":" ","ALLEY":" ","HOUSE_NO":"３０之１號","E_COORD97":164153.42000000001,"N_COORD97":2569107.5800000001,"ADDRESS":"忠寮３０之１號","OBJECTID":46258},"geometry":{"x":164153.41999999993,"y":2569107.5800000001}},{"attributes":{"ID":46259,"DIS_CODE":0,"TOWNNAME":"將軍區","LI":"忠興里","LIN":"15鄰","STREET":" ","SECT":" ","MAREA":"忠興","LANE":" ","ALLEY":" ","HOUSE_NO":"１４５之１號","E_COORD97":163576.20000000001,"N_COORD97":2567257.0299999998,"ADDRESS":"忠興１４５之１號","OBJECTID":46259},"geometry":{"x":163576.20000000112,"y":2567257.0299999993}},{"attributes":{"ID":46260,"DIS_CODE":0,"TOWNNAME":"將軍區","LI":"忠興里","LIN":"15鄰","STREET":" ","SECT":" ","MAREA":"忠興","LANE":" ","ALLEY":" ","HOUSE_NO":"１４５號","E_COORD97":163595.54000000001,"N_COORD97":2567259.0699999998,"ADDRESS":"忠興１４５號","OBJECTID":46260},"geometry":{"x":163595.54000000097,"y":2567259.0700000022}},{"attributes":{"ID":46261,"DIS_CODE":0,"TOWNNAME":"將軍區","LI":"忠興里","LIN":"15鄰","STREET":" ","SECT":" ","MAREA":"忠興","LANE":" ","ALLEY":" ","HOUSE_NO":"１４８號","E_COORD97":163620.60000000001,"N_COORD97":2567276.0499999998,"ADDRESS":"忠興１４７號","OBJECTID":46261},"geometry":{"x":163620.60000000056,"y":2567276.0500000045}},{"attributes":{"ID":46262,"DIS_CODE":0,"TOWNNAME":"將軍區","LI":"忠興里","LIN":"15鄰","STREET":" ","SECT":" ","MAREA":"忠興","LANE":" ","ALLEY":" ","HOUSE_NO":"１４９之１號","E_COORD97":163629.48000000001,"N_COORD97":2567232.1400000001,"ADDRESS":"忠興１４９之１號","OBJECTID":46262},"geometry":{"x":163629.48000000045,"y":2567232.1400000025}},{"attributes":{"ID":46263,"DIS_CODE":0,"TOWNNAME":"將軍區","LI":"忠興里","LIN":"15鄰","STREET":" ","SECT":" ","MAREA":"忠興","LANE":" ","ALLEY":" ","HOUSE_NO":"１４９之２號","E_COORD97":163632.13,"N_COORD97":2567225.6499999999,"ADDRESS":"忠興１４９之２號","OBJECTID":46263},"geometry":{"x":163632.13000000082,"y":2567225.6500000022}},{"attributes":{"ID":46264,"DIS_CODE":0,"TOWNNAME":"將軍區","LI":"忠興里","LIN":"15鄰","STREET":" ","SECT":" ","MAREA":"忠興","LANE":" ","ALLEY":" ","HOUSE_NO":"１５０之１號","E_COORD97":163606.31,"N_COORD97":2567164.1299999999,"ADDRESS":"忠興１５０之１號","OBJECTID":46264},"geometry":{"x":163606.30999999959,"y":2567164.129999999}},{"attributes":{"ID":46265,"DIS_CODE":0,"TOWNNAME":"將軍區","LI":"忠興里","LIN":"15鄰","STREET":" ","SECT":" ","MAREA":"忠興","LANE":" ","ALLEY":" ","HOUSE_NO":"１５０之２號","E_COORD97":163618.64000000001,"N_COORD97":2567161.48,"ADDRESS":"忠興１５０之２號","OBJECTID":46265},"geometry":{"x":163618.6400000006,"y":2567161.4800000023}},{"attributes":{"ID":46266,"DIS_CODE":0,"TOWNNAME":"將軍區","LI":"忠興里","LIN":"15鄰","STREET":" ","SECT":" ","MAREA":"忠興","LANE":" ","ALLEY":" ","HOUSE_NO":"１５０之３號","E_COORD97":163640.01000000001,"N_COORD97":2567154.6299999999,"ADDRESS":"忠興１５０之３號","OBJECTID":46266},"geometry":{"x":163640.01000000071,"y":2567154.6299999971}},{"attributes":{"ID":46267,"DIS_CODE":0,"TOWNNAME":"將軍區","LI":"忠興里","LIN":"15鄰","STREET":" ","SECT":" ","MAREA":"忠興","LANE":" ","ALLEY":" ","HOUSE_NO":"１５０之４號","E_COORD97":163639.29999999999,"N_COORD97":2567158.7599999998,"ADDRESS":"忠興１５０之４號","OBJECTID":46267},"geometry":{"x":163639.30000000075,"y":2567158.7600000016}},{"attributes":{"ID":46268,"DIS_CODE":0,"TOWNNAME":"將軍區","LI":"忠興里","LIN":"15鄰","STREET":" ","SECT":" ","MAREA":"忠興","LANE":" ","ALLEY":" ","HOUSE_NO":"１５０之５號","E_COORD97":163638.81,"N_COORD97":2567163.1699999999,"ADDRESS":"忠興１５０之５號","OBJECTID":46268},"geometry":{"x":163638.81000000145,"y":2567163.1700000018}},{"attributes":{"ID":46269,"DIS_CODE":0,"TOWNNAME":"將軍區","LI":"忠興里","LIN":"15鄰","STREET":" ","SECT":" ","MAREA":"忠興","LANE":" ","ALLEY":" ","HOUSE_NO":"１５０之６號","E_COORD97":163637.66,"N_COORD97":2567167,"ADDRESS":"忠興１５０之６號","OBJECTID":46269},"geometry":{"x":163637.66000000108,"y":2567167.0000000037}},{"attributes":{"ID":46270,"DIS_CODE":0,"TOWNNAME":"將軍區","LI":"忠興里","LIN":"15鄰","STREET":" ","SECT":" ","MAREA":"忠興","LANE":" ","ALLEY":" ","HOUSE_NO":"１５０之７號","E_COORD97":163637.39000000001,"N_COORD97":2567171.0499999998,"ADDRESS":"忠興１５０之７號","OBJECTID":46270},"geometry":{"x":163637.3900000006,"y":2567171.0500000045}},{"attributes":{"ID":46271,"DIS_CODE":0,"TOWNNAME":"將軍區","LI":"忠興里","LIN":"15鄰","STREET":" ","SECT":" ","MAREA":"忠興","LANE":" ","ALLEY":" ","HOUSE_NO":"１５０之８號","E_COORD97":163636.54000000001,"N_COORD97":2567175.0699999998,"ADDRESS":"忠興１５０之８號","OBJECTID":46271},"geometry":{"x":163636.54000000097,"y":2567175.0700000022}},{"attributes":{"ID":46272,"DIS_CODE":0,"TOWNNAME":"將軍區","LI":"忠興里","LIN":"15鄰","STREET":" ","SECT":" ","MAREA":"忠興","LANE":" ","ALLEY":" ","HOUSE_NO":"１５０號","E_COORD97":163638.92000000001,"N_COORD97":2567206.1000000001,"ADDRESS":"忠興１５０號","OBJECTID":46272},"geometry":{"x":163638.92000000086,"y":2567206.0999999996}},{"attributes":{"ID":46273,"DIS_CODE":0,"TOWNNAME":"將軍區","LI":"忠興里","LIN":"15鄰","STREET":" ","SECT":" ","MAREA":"忠興","LANE":" ","ALLEY":" ","HOUSE_NO":"１５１之１０號","E_COORD97":163701.63,"N_COORD97":2567196.4700000002,"ADDRESS":"忠興１５１之１０號","OBJECTID":46273},"geometry":{"x":163701.63000000082,"y":2567196.4700000025}},{"attributes":{"ID":46274,"DIS_CODE":0,"TOWNNAME":"將軍區","LI":"忠興里","LIN":"15鄰","STREET":" ","SECT":" ","MAREA":"忠興","LANE":" ","ALLEY":" ","HOUSE_NO":"１５１之１１號","E_COORD97":163700.85000000001,"N_COORD97":2567202.3999999999,"ADDRESS":"忠興１５１之１１號","OBJECTID":46274},"geometry":{"x":163700.84999999963,"y":2567202.4000000022}},{"attributes":{"ID":46275,"DIS_CODE":0,"TOWNNAME":"將軍區","LI":"忠興里","LIN":"15鄰","STREET":" ","SECT":" ","MAREA":"忠興","LANE":" ","ALLEY":" ","HOUSE_NO":"１５１之１２號","E_COORD97":163700.07999999999,"N_COORD97":2567208.3300000001,"ADDRESS":"忠興１５１之１２號","OBJECTID":46275},"geometry":{"x":163700.08000000007,"y":2567208.3300000001}},{"attributes":{"ID":46276,"DIS_CODE":0,"TOWNNAME":"將軍區","LI":"忠興里","LIN":"15鄰","STREET":" ","SECT":" ","MAREA":"忠興","LANE":" ","ALLEY":" ","HOUSE_NO":"１５１之１３號","E_COORD97":163699.29999999999,"N_COORD97":2567214.2599999998,"ADDRESS":"忠興１５１之１３號","OBJECTID":46276},"geometry":{"x":163699.30000000075,"y":2567214.2599999998}},{"attributes":{"ID":46277,"DIS_CODE":0,"TOWNNAME":"將軍區","LI":"忠興里","LIN":"15鄰","STREET":" ","SECT":" ","MAREA":"忠興","LANE":" ","ALLEY":" ","HOUSE_NO":"１５１之１４號","E_COORD97":163697.57000000001,"N_COORD97":2567219.6600000001,"ADDRESS":"忠興１５１之１４號","OBJECTID":46277},"geometry":{"x":163697.57000000123,"y":2567219.6600000001}},{"attributes":{"ID":46278,"DIS_CODE":0,"TOWNNAME":"將軍區","LI":"忠興里","LIN":"15鄰","STREET":" ","SECT":" ","MAREA":"忠興","LANE":" ","ALLEY":" ","HOUSE_NO":"１５１之１５號","E_COORD97":163692.652775,"N_COORD97":2567212.7639100002,"ADDRESS":"忠興１５１之１５號","OBJECTID":46278},"geometry":{"x":163692.65277499985,"y":2567212.7639120016}},{"attributes":{"ID":46279,"DIS_CODE":0,"TOWNNAME":"將軍區","LI":"忠興里","LIN":"15鄰","STREET":" ","SECT":" ","MAREA":"忠興","LANE":" ","ALLEY":" ","HOUSE_NO":"１５１之１６號","E_COORD97":163694.44,"N_COORD97":2567202.5099999998,"ADDRESS":"忠興１５１之１６號","OBJECTID":46279},"geometry":{"x":163694.44000000041,"y":2567202.5099999998}},{"attributes":{"ID":46280,"DIS_CODE":0,"TOWNNAME":"將軍區","LI":"忠興里","LIN":"15鄰","STREET":" ","SECT":" ","MAREA":"忠興","LANE":" ","ALLEY":" ","HOUSE_NO":"１５１之１７號","E_COORD97":163687.04000000001,"N_COORD97":2567201.8799999999,"ADDRESS":"忠興１５１之１７號","OBJECTID":46280},"geometry":{"x":163687.0400000019,"y":2567201.8800000008}},{"attributes":{"ID":46281,"DIS_CODE":0,"TOWNNAME":"將軍區","LI":"忠興里","LIN":"15鄰","STREET":" ","SECT":" ","MAREA":"忠興","LANE":" ","ALLEY":" ","HOUSE_NO":"１５１之１８號","E_COORD97":163680.35000000001,"N_COORD97":2567200.7400000002,"ADDRESS":"忠興１５１之１８號","OBJECTID":46281},"geometry":{"x":163680.34999999963,"y":2567200.7400000021}},{"attributes":{"ID":46282,"DIS_CODE":0,"TOWNNAME":"將軍區","LI":"忠興里","LIN":"15鄰","STREET":" ","SECT":" ","MAREA":"忠興","LANE":" ","ALLEY":" ","HOUSE_NO":"１５１之１９號","E_COORD97":163690.07000000001,"N_COORD97":2567181.75,"ADDRESS":"忠興１５１之１９號","OBJECTID":46282},"geometry":{"x":163690.0700000003,"y":2567181.75}},{"attributes":{"ID":46283,"DIS_CODE":0,"TOWNNAME":"將軍區","LI":"忠興里","LIN":"15鄰","STREET":" ","SECT":" ","MAREA":"忠興","LANE":" ","ALLEY":" ","HOUSE_NO":"１５１之２０號","E_COORD97":163699.95000000001,"N_COORD97":2567185.71,"ADDRESS":"忠興１５１之２０號","OBJECTID":46283},"geometry":{"x":163699.95000000112,"y":2567185.7100000009}},{"attributes":{"ID":46284,"DIS_CODE":0,"TOWNNAME":"將軍區","LI":"忠興里","LIN":"15鄰","STREET":" ","SECT":" ","MAREA":"忠興","LANE":" ","ALLEY":" ","HOUSE_NO":"１５１之２１號","E_COORD97":163700.69,"N_COORD97":2567180.54,"ADDRESS":"忠興１５１之２１號","OBJECTID":46284},"geometry":{"x":163700.69000000134,"y":2567180.540000001}},{"attributes":{"ID":46285,"DIS_CODE":0,"TOWNNAME":"將軍區","LI":"忠興里","LIN":"15鄰","STREET":" ","SECT":" ","MAREA":"忠興","LANE":" ","ALLEY":" ","HOUSE_NO":"１５１之２２號","E_COORD97":163701.42000000001,"N_COORD97":2567175.3700000001,"ADDRESS":"忠興１５１之２２號","OBJECTID":46285},"geometry":{"x":163701.42000000086,"y":2567175.370000001}},{"attributes":{"ID":46286,"DIS_CODE":0,"TOWNNAME":"將軍區","LI":"忠興里","LIN":"15鄰","STREET":" ","SECT":" ","MAREA":"忠興","LANE":" ","ALLEY":" ","HOUSE_NO":"１５１之２３號","E_COORD97":163702.16,"N_COORD97":2567170.2000000002,"ADDRESS":"忠興１５１之２３號","OBJECTID":46286},"geometry":{"x":163702.16000000108,"y":2567170.1999999993}},{"attributes":{"ID":46287,"DIS_CODE":0,"TOWNNAME":"將軍區","LI":"忠興里","LIN":"15鄰","STREET":" ","SECT":" ","MAREA":"忠興","LANE":" ","ALLEY":" ","HOUSE_NO":"１５１之２４號","E_COORD97":163702.89000000001,"N_COORD97":2567165.0299999998,"ADDRESS":"忠興１５１之２４號","OBJECTID":46287},"geometry":{"x":163702.89000000153,"y":2567165.0299999993}},{"attributes":{"ID":46288,"DIS_CODE":0,"TOWNNAME":"將軍區","LI":"忠興里","LIN":"15鄰","STREET":" ","SECT":" ","MAREA":"忠興","LANE":" ","ALLEY":" ","HOUSE_NO":"１５１之２５號","E_COORD97":163703.62,"N_COORD97":2567159.8599999999,"ADDRESS":"忠興１５１之２５號","OBJECTID":46288},"geometry":{"x":163703.62000000104,"y":2567159.8599999994}},{"attributes":{"ID":46289,"DIS_CODE":0,"TOWNNAME":"將軍區","LI":"忠興里","LIN":"15鄰","STREET":" ","SECT":" ","MAREA":"忠興","LANE":" ","ALLEY":" ","HOUSE_NO":"１５１之２６號","E_COORD97":163696.91,"N_COORD97":2567169.5600000001,"ADDRESS":"忠興１５１之２６號","OBJECTID":46289},"geometry":{"x":163696.91000000108,"y":2567169.5600000005}},{"attributes":{"ID":46290,"DIS_CODE":0,"TOWNNAME":"將軍區","LI":"忠興里","LIN":"15鄰","STREET":" ","SECT":" ","MAREA":"忠興","LANE":" ","ALLEY":" ","HOUSE_NO":"１５１之２７號","E_COORD97":163692.09,"N_COORD97":2567169.6699999999,"ADDRESS":"忠興１５１之２７號","OBJECTID":46290},"geometry":{"x":163692.09000000078,"y":2567169.6700000018}},{"attributes":{"ID":46291,"DIS_CODE":0,"TOWNNAME":"將軍區","LI":"忠興里","LIN":"15鄰","STREET":" ","SECT":" ","MAREA":"忠興","LANE":" ","ALLEY":" ","HOUSE_NO":"１５１之２８號","E_COORD97":163688.41,"N_COORD97":2567169.3900000001,"ADDRESS":"忠興１５１之２８號","OBJECTID":46291},"geometry":{"x":163688.41000000108,"y":2567169.3900000025}},{"attributes":{"ID":46292,"DIS_CODE":0,"TOWNNAME":"將軍區","LI":"忠興里","LIN":"15鄰","STREET":" ","SECT":" ","MAREA":"忠興","LANE":" ","ALLEY":" ","HOUSE_NO":"１５１之２９號","E_COORD97":163683.78,"N_COORD97":2567169.1899999999,"ADDRESS":"忠興１５１之２９號","OBJECTID":46292},"geometry":{"x":163683.78000000212,"y":2567169.1900000013}},{"attributes":{"ID":46293,"DIS_CODE":0,"TOWNNAME":"將軍區","LI":"長沙里","LIN":"15鄰","STREET":" ","SECT":" ","MAREA":"長沙","LANE":" ","ALLEY":" ","HOUSE_NO":"１３０之１２號","E_COORD97":158331.42000000001,"N_COORD97":2568830.8199999998,"ADDRESS":"長沙１３０之１２號","OBJECTID":46293},"geometry":{"x":158331.42000000086,"y":2568830.8200000022}},{"attributes":{"ID":46294,"DIS_CODE":0,"TOWNNAME":"將軍區","LI":"長沙里","LIN":"15鄰","STREET":" ","SECT":" ","MAREA":"長沙","LANE":" ","ALLEY":" ","HOUSE_NO":"１３０之１６號","E_COORD97":158489.73999999999,"N_COORD97":2568737,"ADDRESS":"長沙１３０之１６號","OBJECTID":46294},"geometry":{"x":158489.74000000022,"y":2568737.0000000019}},{"attributes":{"ID":46295,"DIS_CODE":0,"TOWNNAME":"將軍區","LI":"長沙里","LIN":"15鄰","STREET":" ","SECT":" ","MAREA":"長沙","LANE":" ","ALLEY":" ","HOUSE_NO":"１３０之２號","E_COORD97":158408.32999999999,"N_COORD97":2568696.0499999998,"ADDRESS":"長沙１３０之２號","OBJECTID":46295},"geometry":{"x":158408.33000000101,"y":2568696.0500000007}},{"attributes":{"ID":46296,"DIS_CODE":0,"TOWNNAME":"將軍區","LI":"長沙里","LIN":"15鄰","STREET":" ","SECT":" ","MAREA":"長沙","LANE":" ","ALLEY":" ","HOUSE_NO":"１３０之３號","E_COORD97":158397.20999999999,"N_COORD97":2568697.77,"ADDRESS":"長沙１３０之３號","OBJECTID":46296},"geometry":{"x":158397.21000000089,"y":2568697.7700000014}},{"attributes":{"ID":46297,"DIS_CODE":0,"TOWNNAME":"將軍區","LI":"長沙里","LIN":"15鄰","STREET":" ","SECT":" ","MAREA":"長沙","LANE":" ","ALLEY":" ","HOUSE_NO":"１３０之４號","E_COORD97":158352,"N_COORD97":2568721.71,"ADDRESS":"長沙１３０之４號","OBJECTID":46297},"geometry":{"x":158352,"y":2568721.7100000009}},{"attributes":{"ID":46298,"DIS_CODE":0,"TOWNNAME":"將軍區","LI":"長沙里","LIN":"15鄰","STREET":" ","SECT":" ","MAREA":"長沙","LANE":" ","ALLEY":" ","HOUSE_NO":"１３０之５號","E_COORD97":158347.64999999999,"N_COORD97":2568721.7000000002,"ADDRESS":"長沙１３０之５號","OBJECTID":46298},"geometry":{"x":158347.65000000037,"y":2568721.7000000011}},{"attributes":{"ID":46299,"DIS_CODE":0,"TOWNNAME":"將軍區","LI":"長沙里","LIN":"15鄰","STREET":" ","SECT":" ","MAREA":"長沙","LANE":" ","ALLEY":" ","HOUSE_NO":"１３０之６號","E_COORD97":158342.76000000001,"N_COORD97":2568721.71,"ADDRESS":"長沙１３０之６號","OBJECTID":46299},"geometry":{"x":158342.75999999978,"y":2568721.7100000009}},{"attributes":{"ID":46300,"DIS_CODE":0,"TOWNNAME":"將軍區","LI":"長沙里","LIN":"15鄰","STREET":" ","SECT":" ","MAREA":"長沙","LANE":" ","ALLEY":" ","HOUSE_NO":"１３０之７號","E_COORD97":158433.97,"N_COORD97":2568697.4500000002,"ADDRESS":"長沙１３０之７號","OBJECTID":46300},"geometry":{"x":158433.97000000067,"y":2568697.4499999993}},{"attributes":{"ID":46301,"DIS_CODE":0,"TOWNNAME":"將軍區","LI":"長沙里","LIN":"15鄰","STREET":" ","SECT":" ","MAREA":"長沙","LANE":" ","ALLEY":" ","HOUSE_NO":"１３１之１０號","E_COORD97":158553.51000000001,"N_COORD97":2568710.5299999998,"ADDRESS":"長沙１３１之１０號","OBJECTID":46301},"geometry":{"x":158553.50999999978,"y":2568710.5299999993}},{"attributes":{"ID":46302,"DIS_CODE":0,"TOWNNAME":"將軍區","LI":"長沙里","LIN":"15鄰","STREET":" ","SECT":" ","MAREA":"長沙","LANE":" ","ALLEY":" ","HOUSE_NO":"１３１之１１號","E_COORD97":158558.34,"N_COORD97":2568710.54,"ADDRESS":"長沙１３１之１１號","OBJECTID":46302},"geometry":{"x":158558.33999999892,"y":2568710.5399999991}},{"attributes":{"ID":46303,"DIS_CODE":0,"TOWNNAME":"將軍區","LI":"長沙里","LIN":"15鄰","STREET":" ","SECT":" ","MAREA":"長沙","LANE":" ","ALLEY":" ","HOUSE_NO":"１３１之１２號","E_COORD97":158562.56,"N_COORD97":2568710.8599999999,"ADDRESS":"長沙１３１之１２號","OBJECTID":46303},"geometry":{"x":158562.56000000052,"y":2568710.8600000013}},{"attributes":{"ID":46304,"DIS_CODE":0,"TOWNNAME":"將軍區","LI":"長沙里","LIN":"15鄰","STREET":" ","SECT":" ","MAREA":"長沙","LANE":" ","ALLEY":" ","HOUSE_NO":"１３１之１３號","E_COORD97":158503.07999999999,"N_COORD97":2568692.0600000001,"ADDRESS":"長沙１３１之１３號","OBJECTID":46304},"geometry":{"x":158503.08000000101,"y":2568692.0600000005}},{"attributes":{"ID":46305,"DIS_CODE":0,"TOWNNAME":"將軍區","LI":"長沙里","LIN":"15鄰","STREET":" ","SECT":" ","MAREA":"長沙","LANE":" ","ALLEY":" ","HOUSE_NO":"１３１之１號","E_COORD97":158515.07000000001,"N_COORD97":2568696.1299999999,"ADDRESS":"長沙１３１之１號","OBJECTID":46305},"geometry":{"x":158515.07000000216,"y":2568696.129999999}},{"attributes":{"ID":46306,"DIS_CODE":0,"TOWNNAME":"將軍區","LI":"長沙里","LIN":"15鄰","STREET":" ","SECT":" ","MAREA":"長沙","LANE":" ","ALLEY":" ","HOUSE_NO":"１３１之２號","E_COORD97":158489.85000000001,"N_COORD97":2568708.0099999998,"ADDRESS":"長沙１３１之２號","OBJECTID":46306},"geometry":{"x":158489.84999999963,"y":2568708.0099999998}},{"attributes":{"ID":46307,"DIS_CODE":0,"TOWNNAME":"將軍區","LI":"長沙里","LIN":"15鄰","STREET":" ","SECT":" ","MAREA":"長沙","LANE":" ","ALLEY":" ","HOUSE_NO":"１３１之３號","E_COORD97":158510.25,"N_COORD97":2568738.3900000001,"ADDRESS":"長沙１３１之３號","OBJECTID":46307},"geometry":{"x":158510.25000000093,"y":2568738.3900000025}},{"attributes":{"ID":46308,"DIS_CODE":0,"TOWNNAME":"將軍區","LI":"長沙里","LIN":"15鄰","STREET":" ","SECT":" ","MAREA":"長沙","LANE":" ","ALLEY":" ","HOUSE_NO":"１３１之４號","E_COORD97":158504.76999999999,"N_COORD97":2568737.9500000002,"ADDRESS":"長沙１３１之４號","OBJECTID":46308},"geometry":{"x":158504.77000000048,"y":2568737.9500000011}},{"attributes":{"ID":46309,"DIS_CODE":0,"TOWNNAME":"安定區","LI":"新吉里","LIN":"15鄰","STREET":" ","SECT":" ","MAREA":"新吉","LANE":" ","ALLEY":" ","HOUSE_NO":"１４６號之２","E_COORD97":169057.43924199999,"N_COORD97":2554331.1127300002,"ADDRESS":"新吉１４６號之２","OBJECTID":46309},"geometry":{"x":169057.43924199976,"y":2554331.1127259992}},{"attributes":{"ID":46310,"DIS_CODE":0,"TOWNNAME":"安定區","LI":"新吉里","LIN":"15鄰","STREET":" ","SECT":" ","MAREA":"新吉","LANE":" ","ALLEY":" ","HOUSE_NO":"２４４號","E_COORD97":169071.62,"N_COORD97":2554060.25,"ADDRESS":"新吉２４４號","OBJECTID":46310},"geometry":{"x":169071.62000000011,"y":2554060.25}},{"attributes":{"ID":46311,"DIS_CODE":0,"TOWNNAME":"安定區","LI":"管寮里","LIN":"15鄰","STREET":" ","SECT":" ","MAREA":"管寮","LANE":" ","ALLEY":" ","HOUSE_NO":"１３６之３號","E_COORD97":169935.79000000001,"N_COORD97":2556199.2999999998,"ADDRESS":"管寮１３６之３號","OBJECTID":46311},"geometry":{"x":169935.79000000097,"y":2556199.3000000026}},{"attributes":{"ID":46312,"DIS_CODE":0,"TOWNNAME":"安定區","LI":"海寮里","LIN":"15鄰","STREET":" ","SECT":" ","MAREA":"海寮","LANE":" ","ALLEY":" ","HOUSE_NO":"１４６之１號","E_COORD97":169168.17999999999,"N_COORD97":2555395.2999999998,"ADDRESS":"海寮１４６號之１","OBJECTID":46312},"geometry":{"x":169168.18000000063,"y":2555395.3000000026}},{"attributes":{"ID":46313,"DIS_CODE":0,"TOWNNAME":"安定區","LI":"海寮里","LIN":"15鄰","STREET":" ","SECT":" ","MAREA":"海寮","LANE":" ","ALLEY":" ","HOUSE_NO":"１４６號之３","E_COORD97":169118.67999999999,"N_COORD97":2555379.2999999998,"ADDRESS":"海寮１４６號之３","OBJECTID":46313},"geometry":{"x":169118.68000000156,"y":2555379.3000000007}},{"attributes":{"ID":46314,"DIS_CODE":0,"TOWNNAME":"安定區","LI":"管寮里","LIN":"15鄰","STREET":" ","SECT":" ","MAREA":"管寮","LANE":" ","ALLEY":" ","HOUSE_NO":"１３６之４號","E_COORD97":169939.69,"N_COORD97":2556200.2999999998,"ADDRESS":"管寮１３６之４號","OBJECTID":46314},"geometry":{"x":169939.69000000041,"y":2556200.3000000007}},{"attributes":{"ID":46315,"DIS_CODE":0,"TOWNNAME":"安定區","LI":"蘇厝里","LIN":"15鄰","STREET":" ","SECT":" ","MAREA":"蘇厝","LANE":" ","ALLEY":" ","HOUSE_NO":"４３０之６號","E_COORD97":173143.22,"N_COORD97":2558704.2999999998,"ADDRESS":"蘇厝４３０之６號","OBJECTID":46315},"geometry":{"x":173143.22000000067,"y":2558704.3000000026}},{"attributes":{"ID":46316,"DIS_CODE":0,"TOWNNAME":"安定區","LI":"管寮里","LIN":"15鄰","STREET":" ","SECT":" ","MAREA":"管寮","LANE":" ","ALLEY":" ","HOUSE_NO":"１３４號之３","E_COORD97":169950.62,"N_COORD97":2556329.2999999998,"ADDRESS":"管寮１３４號之３","OBJECTID":46316},"geometry":{"x":169950.62000000104,"y":2556329.3000000007}},{"attributes":{"ID":46317,"DIS_CODE":0,"TOWNNAME":"安定區","LI":"港南里","LIN":"15鄰","STREET":" ","SECT":" ","MAREA":"港口","LANE":" ","ALLEY":" ","HOUSE_NO":"１２７號","E_COORD97":171488.09,"N_COORD97":2554402.25,"ADDRESS":"港口１２７號","OBJECTID":46317},"geometry":{"x":171488.09000000078,"y":2554402.25}},{"attributes":{"ID":46318,"DIS_CODE":0,"TOWNNAME":"安定區","LI":"管寮里","LIN":"15鄰","STREET":" ","SECT":" ","MAREA":"管寮","LANE":" ","ALLEY":" ","HOUSE_NO":"１３４號之４","E_COORD97":169948.75,"N_COORD97":2556333.2999999998,"ADDRESS":"管寮１３４號之４","OBJECTID":46318},"geometry":{"x":169948.75,"y":2556333.2999999989}},{"attributes":{"ID":46319,"DIS_CODE":0,"TOWNNAME":"安定區","LI":"海寮里","LIN":"15鄰","STREET":" ","SECT":" ","MAREA":"海寮","LANE":" ","ALLEY":" ","HOUSE_NO":"１４６號之４","E_COORD97":169113.20000000001,"N_COORD97":2555376.2999999998,"ADDRESS":"海寮１４６號之４","OBJECTID":46319},"geometry":{"x":169113.20000000019,"y":2555376.3000000007}},{"attributes":{"ID":46320,"DIS_CODE":0,"TOWNNAME":"安定區","LI":"海寮里","LIN":"15鄰","STREET":" ","SECT":" ","MAREA":"海寮","LANE":" ","ALLEY":" ","HOUSE_NO":"１５０號","E_COORD97":169154.04000000001,"N_COORD97":2555481.25,"ADDRESS":"海寮１５０號","OBJECTID":46320},"geometry":{"x":169154.04000000097,"y":2555481.25}},{"attributes":{"ID":46321,"DIS_CODE":0,"TOWNNAME":"安定區","LI":"安加里","LIN":"15鄰","STREET":" ","SECT":" ","MAREA":"安定","LANE":" ","ALLEY":" ","HOUSE_NO":"２７３號","E_COORD97":171591.92000000001,"N_COORD97":2557567.3199999998,"ADDRESS":"安定２７３號","OBJECTID":46321},"geometry":{"x":171591.91999999993,"y":2557567.3200000022}},{"attributes":{"ID":46322,"DIS_CODE":0,"TOWNNAME":"安定區","LI":"海寮里","LIN":"15鄰","STREET":" ","SECT":" ","MAREA":"海寮","LANE":" ","ALLEY":" ","HOUSE_NO":"１４３之１３號","E_COORD97":169135.69,"N_COORD97":2555424.2999999998,"ADDRESS":"海寮１４３之１３號","OBJECTID":46322},"geometry":{"x":169135.69000000041,"y":2555424.3000000007}},{"attributes":{"ID":46323,"DIS_CODE":0,"TOWNNAME":"安定區","LI":"海寮里","LIN":"15鄰","STREET":" ","SECT":" ","MAREA":"海寮","LANE":" ","ALLEY":" ","HOUSE_NO":"１４３之１０號","E_COORD97":169121.69,"N_COORD97":2555423.2999999998,"ADDRESS":"海寮１４３之１０號","OBJECTID":46323},"geometry":{"x":169121.69000000134,"y":2555423.3000000007}},{"attributes":{"ID":46324,"DIS_CODE":0,"TOWNNAME":"安定區","LI":"蘇林里","LIN":"15鄰","STREET":" ","SECT":" ","MAREA":"蘇厝","LANE":" ","ALLEY":" ","HOUSE_NO":"１６８號","E_COORD97":173415.62,"N_COORD97":2558827.25,"ADDRESS":"蘇厝１６８號","OBJECTID":46324},"geometry":{"x":173415.62000000104,"y":2558827.25}},{"attributes":{"ID":46325,"DIS_CODE":0,"TOWNNAME":"安定區","LI":"蘇林里","LIN":"15鄰","STREET":" ","SECT":" ","MAREA":"蘇厝","LANE":" ","ALLEY":" ","HOUSE_NO":"１７２號之３","E_COORD97":173392.45000000001,"N_COORD97":2558944.2999999998,"ADDRESS":"蘇厝１７２號之３","OBJECTID":46325},"geometry":{"x":173392.45000000019,"y":2558944.3000000045}},{"attributes":{"ID":46326,"DIS_CODE":0,"TOWNNAME":"安定區","LI":"海寮里","LIN":"15鄰","STREET":" ","SECT":" ","MAREA":"海寮","LANE":" ","ALLEY":" ","HOUSE_NO":"１５１號","E_COORD97":169170.84,"N_COORD97":2555486.25,"ADDRESS":"海寮１５１號","OBJECTID":46326},"geometry":{"x":169170.84000000078,"y":2555486.2500000019}},{"attributes":{"ID":46327,"DIS_CODE":0,"TOWNNAME":"安定區","LI":"蘇林里","LIN":"15鄰","STREET":" ","SECT":" ","MAREA":"蘇厝","LANE":" ","ALLEY":" ","HOUSE_NO":"１６９之１號","E_COORD97":173400.12,"N_COORD97":2558859.2999999998,"ADDRESS":"蘇厝１６９之１號","OBJECTID":46327},"geometry":{"x":173400.12000000104,"y":2558859.3000000045}},{"attributes":{"ID":46328,"DIS_CODE":0,"TOWNNAME":"安定區","LI":"蘇厝里","LIN":"15鄰","STREET":" ","SECT":" ","MAREA":"蘇厝","LANE":" ","ALLEY":" ","HOUSE_NO":"４２４之４號","E_COORD97":173130.82000000001,"N_COORD97":2558701.2999999998,"ADDRESS":"蘇厝４２４之４號","OBJECTID":46328},"geometry":{"x":173130.82000000216,"y":2558701.3000000026}},{"attributes":{"ID":46329,"DIS_CODE":0,"TOWNNAME":"安定區","LI":"蘇厝里","LIN":"15鄰","STREET":" ","SECT":" ","MAREA":"蘇厝","LANE":" ","ALLEY":" ","HOUSE_NO":"４３０之８號","E_COORD97":173143.82000000001,"N_COORD97":2558696.2999999998,"ADDRESS":"蘇厝４３０之８號","OBJECTID":46329},"geometry":{"x":173143.8200000003,"y":2558696.2999999989}},{"attributes":{"ID":46330,"DIS_CODE":0,"TOWNNAME":"安定區","LI":"新吉里","LIN":"15鄰","STREET":" ","SECT":" ","MAREA":"新吉","LANE":" ","ALLEY":" ","HOUSE_NO":"１４６之９號","E_COORD97":169065.32000000001,"N_COORD97":2554189.2999999998,"ADDRESS":"新吉１４６之９號","OBJECTID":46330},"geometry":{"x":169065.3200000003,"y":2554189.3000000007}},{"attributes":{"ID":46331,"DIS_CODE":0,"TOWNNAME":"安定區","LI":"蘇林里","LIN":"15鄰","STREET":" ","SECT":" ","MAREA":"蘇厝","LANE":" ","ALLEY":" ","HOUSE_NO":"１７２號之４","E_COORD97":173401.67999999999,"N_COORD97":2558945.2999999998,"ADDRESS":"蘇厝１７２號之４","OBJECTID":46331},"geometry":{"x":173401.6799999997,"y":2558945.3000000026}},{"attributes":{"ID":46332,"DIS_CODE":0,"TOWNNAME":"安定區","LI":"蘇厝里","LIN":"15鄰","STREET":" ","SECT":" ","MAREA":"蘇厝","LANE":" ","ALLEY":" ","HOUSE_NO":"４３０之２號","E_COORD97":173180.82000000001,"N_COORD97":2558712.2999999998,"ADDRESS":"蘇厝４３０之２號","OBJECTID":46332},"geometry":{"x":173180.82000000123,"y":2558712.3000000007}},{"attributes":{"ID":46333,"DIS_CODE":0,"TOWNNAME":"安定區","LI":"新吉里","LIN":"15鄰","STREET":" ","SECT":" ","MAREA":"新吉","LANE":" ","ALLEY":" ","HOUSE_NO":"２４６號","E_COORD97":169063.72,"N_COORD97":2554059.25,"ADDRESS":"新吉２４６號","OBJECTID":46333},"geometry":{"x":169063.71999999974,"y":2554059.2500000019}},{"attributes":{"ID":46334,"DIS_CODE":0,"TOWNNAME":"安定區","LI":"蘇林里","LIN":"15鄰","STREET":" ","SECT":" ","MAREA":"蘇厝","LANE":" ","ALLEY":" ","HOUSE_NO":"１６７號","E_COORD97":173409.62,"N_COORD97":2558807.25,"ADDRESS":"蘇厝１６７號","OBJECTID":46334},"geometry":{"x":173409.62000000011,"y":2558807.25}},{"attributes":{"ID":46335,"DIS_CODE":0,"TOWNNAME":"安定區","LI":"海寮里","LIN":"15鄰","STREET":" ","SECT":" ","MAREA":"海寮","LANE":" ","ALLEY":" ","HOUSE_NO":"１４６之２號","E_COORD97":169123.94,"N_COORD97":2555379.2999999998,"ADDRESS":"海寮１４６之２號","OBJECTID":46335},"geometry":{"x":169123.94000000041,"y":2555379.3000000007}},{"attributes":{"ID":46336,"DIS_CODE":0,"TOWNNAME":"安定區","LI":"海寮里","LIN":"15鄰","STREET":" ","SECT":" ","MAREA":"海寮","LANE":" ","ALLEY":" ","HOUSE_NO":"１４８號","E_COORD97":169194.94,"N_COORD97":2555416.25,"ADDRESS":"海寮１４８號","OBJECTID":46336},"geometry":{"x":169194.94000000041,"y":2555416.25}},{"attributes":{"ID":46337,"DIS_CODE":0,"TOWNNAME":"安定區","LI":"管寮里","LIN":"15鄰","STREET":" ","SECT":" ","MAREA":"管寮","LANE":" ","ALLEY":" ","HOUSE_NO":"１３６號之６","E_COORD97":169939.03,"N_COORD97":2556223.2999999998,"ADDRESS":"管寮１３６號之６","OBJECTID":46337},"geometry":{"x":169939.03000000212,"y":2556223.3000000007}},{"attributes":{"ID":46338,"DIS_CODE":0,"TOWNNAME":"安定區","LI":"安加里","LIN":"15鄰","STREET":" ","SECT":" ","MAREA":"安定","LANE":" ","ALLEY":" ","HOUSE_NO":"２７２之２號","E_COORD97":171601.01999999999,"N_COORD97":2557576.3199999998,"ADDRESS":"安定２７２之２號","OBJECTID":46338},"geometry":{"x":171601.01999999955,"y":2557576.3200000003}},{"attributes":{"ID":46339,"DIS_CODE":0,"TOWNNAME":"安定區","LI":"管寮里","LIN":"15鄰","STREET":" ","SECT":" ","MAREA":"管寮","LANE":" ","ALLEY":" ","HOUSE_NO":"１３４號之５","E_COORD97":169947.78,"N_COORD97":2556337.2999999998,"ADDRESS":"管寮１３４號之５","OBJECTID":46339},"geometry":{"x":169947.78000000119,"y":2556337.3000000026}},{"attributes":{"ID":46340,"DIS_CODE":0,"TOWNNAME":"安定區","LI":"蘇林里","LIN":"15鄰","STREET":" ","SECT":" ","MAREA":"蘇厝","LANE":" ","ALLEY":" ","HOUSE_NO":"１７２號之１","E_COORD97":173409.14999999999,"N_COORD97":2558946.2999999998,"ADDRESS":"蘇厝１７２號之１","OBJECTID":46340},"geometry":{"x":173409.1500000013,"y":2558946.3000000007}},{"attributes":{"ID":46341,"DIS_CODE":0,"TOWNNAME":"新營區","LI":"民權里","LIN":"17鄰","STREET":"文化街","SECT":" ","MAREA":" ","LANE":" ","ALLEY":" ","HOUSE_NO":"１號","E_COORD97":179833.13,"N_COORD97":2577976.5800000001,"ADDRESS":"文化街１號","OBJECTID":46341},"geometry":{"x":179833.13000000082,"y":2577976.5800000019}},{"attributes":{"ID":46342,"DIS_CODE":0,"TOWNNAME":"安定區","LI":"海寮里","LIN":"15鄰","STREET":" ","SECT":" ","MAREA":"海寮","LANE":" ","ALLEY":" ","HOUSE_NO":"１５１之３號","E_COORD97":169195.54000000001,"N_COORD97":2555485.2999999998,"ADDRESS":"海寮１５１之３號","OBJECTID":46342},"geometry":{"x":169195.54000000004,"y":2555485.3000000007}},{"attributes":{"ID":46343,"DIS_CODE":0,"TOWNNAME":"安定區","LI":"新吉里","LIN":"15鄰","STREET":" ","SECT":" ","MAREA":"新吉","LANE":" ","ALLEY":" ","HOUSE_NO":"２４３號","E_COORD97":169075.62,"N_COORD97":2554060.25,"ADDRESS":"新吉２４３號","OBJECTID":46343},"geometry":{"x":169075.62000000104,"y":2554060.25}},{"attributes":{"ID":46344,"DIS_CODE":0,"TOWNNAME":"安定區","LI":"蘇林里","LIN":"15鄰","STREET":" ","SECT":" ","MAREA":"蘇厝","LANE":" ","ALLEY":" ","HOUSE_NO":"１７２號","E_COORD97":173393.01999999999,"N_COORD97":2558931.25,"ADDRESS":"蘇厝１７２號","OBJECTID":46344},"geometry":{"x":173393.01999999955,"y":2558931.2500000019}},{"attributes":{"ID":46345,"DIS_CODE":0,"TOWNNAME":"安定區","LI":"管寮里","LIN":"15鄰","STREET":" ","SECT":" ","MAREA":"管寮","LANE":" ","ALLEY":" ","HOUSE_NO":"１３６號之２","E_COORD97":169930.85999999999,"N_COORD97":2556199.2999999998,"ADDRESS":"管寮１３６號之２","OBJECTID":46345},"geometry":{"x":169930.86000000127,"y":2556199.3000000026}},{"attributes":{"ID":46346,"DIS_CODE":0,"TOWNNAME":"安定區","LI":"海寮里","LIN":"15鄰","STREET":" ","SECT":" ","MAREA":"海寮","LANE":" ","ALLEY":" ","HOUSE_NO":"１５１號之１","E_COORD97":169194.48000000001,"N_COORD97":2555471.29,"ADDRESS":"海寮１５１號之１","OBJECTID":46346},"geometry":{"x":169194.48000000138,"y":2555471.290000001}},{"attributes":{"ID":46347,"DIS_CODE":0,"TOWNNAME":"安定區","LI":"新吉里","LIN":"15鄰","STREET":" ","SECT":" ","MAREA":"新吉","LANE":" ","ALLEY":" ","HOUSE_NO":"１５０號","E_COORD97":169063.12,"N_COORD97":2554114.25,"ADDRESS":"新吉１５０號","OBJECTID":46347},"geometry":{"x":169063.12000000011,"y":2554114.25}},{"attributes":{"ID":46348,"DIS_CODE":0,"TOWNNAME":"安定區","LI":"新吉里","LIN":"15鄰","STREET":" ","SECT":" ","MAREA":"新吉","LANE":" ","ALLEY":" ","HOUSE_NO":"１４８號","E_COORD97":169070.62,"N_COORD97":2554114.25,"ADDRESS":"新吉１４８號","OBJECTID":46348},"geometry":{"x":169070.62000000104,"y":2554114.25}},{"attributes":{"ID":46349,"DIS_CODE":0,"TOWNNAME":"安定區","LI":"安加里","LIN":"15鄰","STREET":" ","SECT":" ","MAREA":"安定","LANE":" ","ALLEY":" ","HOUSE_NO":"２７２之５號","E_COORD97":171562.10151400001,"N_COORD97":2557604.7955999998,"ADDRESS":"安定２７２之５號","OBJECTID":46349},"geometry":{"x":171562.10151400138,"y":2557604.7955980003}},{"attributes":{"ID":46350,"DIS_CODE":0,"TOWNNAME":"安定區","LI":"管寮里","LIN":"15鄰","STREET":" ","SECT":" ","MAREA":"管寮","LANE":" ","ALLEY":" ","HOUSE_NO":"１４１之１號","E_COORD97":169881.51000000001,"N_COORD97":2556216.3199999998,"ADDRESS":"管寮１４１之１號","OBJECTID":46350},"geometry":{"x":169881.51000000071,"y":2556216.3200000003}},{"attributes":{"ID":46351,"DIS_CODE":0,"TOWNNAME":"安定區","LI":"蘇厝里","LIN":"15鄰","STREET":" ","SECT":" ","MAREA":"蘇厝","LANE":" ","ALLEY":" ","HOUSE_NO":"４２９之１號","E_COORD97":173173.55848899999,"N_COORD97":2558725.8525100001,"ADDRESS":"蘇厝４２９之１號","OBJECTID":46351},"geometry":{"x":173173.55848900042,"y":2558725.8525109999}},{"attributes":{"ID":46352,"DIS_CODE":0,"TOWNNAME":"新市區","LI":"大營里","LIN":"15鄰","STREET":" ","SECT":" ","MAREA":"大營","LANE":" ","ALLEY":" ","HOUSE_NO":"２９５之１２號","E_COORD97":179080.35000000001,"N_COORD97":2555415.7999999998,"ADDRESS":"大營２９５之１２號","OBJECTID":46352},"geometry":{"x":179080.35000000056,"y":2555415.8000000026}},{"attributes":{"ID":46353,"DIS_CODE":0,"TOWNNAME":"新市區","LI":"大社里","LIN":"15鄰","STREET":" ","SECT":" ","MAREA":"大社","LANE":" ","ALLEY":" ","HOUSE_NO":"５９５之１８號","E_COORD97":179530.17000000001,"N_COORD97":2554209,"ADDRESS":"大社５９５之１８號","OBJECTID":46353},"geometry":{"x":179530.16999999993,"y":2554209.0000000037}},{"attributes":{"ID":46354,"DIS_CODE":0,"TOWNNAME":"新市區","LI":"大營里","LIN":"15鄰","STREET":" ","SECT":" ","MAREA":"大營","LANE":" ","ALLEY":" ","HOUSE_NO":"２９２之１號","E_COORD97":178884.45999999999,"N_COORD97":2555359.2999999998,"ADDRESS":"大營２９２之１號","OBJECTID":46354},"geometry":{"x":178884.45999999996,"y":2555359.3000000007}},{"attributes":{"ID":46355,"DIS_CODE":0,"TOWNNAME":"安定區","LI":"港口里","LIN":"15鄰","STREET":" ","SECT":" ","MAREA":"港口","LANE":" ","ALLEY":" ","HOUSE_NO":"３００之３號","E_COORD97":171300.150949,"N_COORD97":2554753.7870499999,"ADDRESS":"港口３００之３號","OBJECTID":46355},"geometry":{"x":171300.15094900038,"y":2554753.7870510034}},{"attributes":{"ID":46356,"DIS_CODE":0,"TOWNNAME":"安定區","LI":"港口里","LIN":"15鄰","STREET":" ","SECT":" ","MAREA":"港口","LANE":" ","ALLEY":" ","HOUSE_NO":"３４９之２號","E_COORD97":171221.080862,"N_COORD97":2554724.0153299998,"ADDRESS":"港口３４９之２號","OBJECTID":46356},"geometry":{"x":171221.08086200152,"y":2554724.0153250005}},{"attributes":{"ID":46357,"DIS_CODE":0,"TOWNNAME":"安定區","LI":"港口里","LIN":"15鄰","STREET":" ","SECT":" ","MAREA":"港口","LANE":" ","ALLEY":" ","HOUSE_NO":"３４９之３號","E_COORD97":171215.67882900001,"N_COORD97":2554720.7874099999,"ADDRESS":"港口３４９之３號","OBJECTID":46357},"geometry":{"x":171215.67882900033,"y":2554720.7874100022}},{"attributes":{"ID":46358,"DIS_CODE":0,"TOWNNAME":"安定區","LI":"港口里","LIN":"15鄰","STREET":" ","SECT":" ","MAREA":"港口","LANE":" ","ALLEY":" ","HOUSE_NO":"３４９之５號","E_COORD97":171205.828064,"N_COORD97":2554731.84699,"ADDRESS":"港口３４９之５號","OBJECTID":46358},"geometry":{"x":171205.82806400023,"y":2554731.8469870016}},{"attributes":{"ID":46359,"DIS_CODE":0,"TOWNNAME":"新市區","LI":"社內里","LIN":"15鄰","STREET":" ","SECT":" ","MAREA":"社內","LANE":" ","ALLEY":" ","HOUSE_NO":"１６０之２１號","E_COORD97":176379.39000000001,"N_COORD97":2553341.0499999998,"ADDRESS":"社內１６０之２１號","OBJECTID":46359},"geometry":{"x":176379.39000000153,"y":2553341.0500000007}},{"attributes":{"ID":46360,"DIS_CODE":0,"TOWNNAME":"新市區","LI":"大營里","LIN":"15鄰","STREET":" ","SECT":" ","MAREA":"大營","LANE":" ","ALLEY":" ","HOUSE_NO":"２８４之１６號","E_COORD97":179009.73000000001,"N_COORD97":2555458.5499999998,"ADDRESS":"大營２８４之１６號","OBJECTID":46360},"geometry":{"x":179009.73000000045,"y":2555458.5500000026}},{"attributes":{"ID":46361,"DIS_CODE":0,"TOWNNAME":"新市區","LI":"大營里","LIN":"15鄰","STREET":" ","SECT":" ","MAREA":"大營","LANE":" ","ALLEY":" ","HOUSE_NO":"２８８號","E_COORD97":178912.98999999999,"N_COORD97":2555495,"ADDRESS":"大營２８８號","OBJECTID":46361},"geometry":{"x":178912.99000000022,"y":2555495.0000000019}},{"attributes":{"ID":46362,"DIS_CODE":0,"TOWNNAME":"新市區","LI":"大營里","LIN":"15鄰","STREET":" ","SECT":" ","MAREA":"大營","LANE":" ","ALLEY":" ","HOUSE_NO":"２９４號","E_COORD97":179076.76999999999,"N_COORD97":2555359,"ADDRESS":"大營２９４號","OBJECTID":46362},"geometry":{"x":179076.76999999955,"y":2555359.0000000019}},{"attributes":{"ID":46363,"DIS_CODE":0,"TOWNNAME":"新市區","LI":"大營里","LIN":"15鄰","STREET":" ","SECT":" ","MAREA":"大營","LANE":" ","ALLEY":" ","HOUSE_NO":"２７６之１號","E_COORD97":179118.81,"N_COORD97":2555479.7999999998,"ADDRESS":"大營２７６之１號","OBJECTID":46363},"geometry":{"x":179118.80999999959,"y":2555479.8000000026}},{"attributes":{"ID":46364,"DIS_CODE":0,"TOWNNAME":"將軍區","LI":"長沙里","LIN":"15鄰","STREET":" ","SECT":" ","MAREA":"長沙","LANE":" ","ALLEY":" ","HOUSE_NO":"１４４號","E_COORD97":158437.03,"N_COORD97":2568659.5499999998,"ADDRESS":"長沙１４４號","OBJECTID":46364},"geometry":{"x":158437.03000000026,"y":2568659.5500000026}},{"attributes":{"ID":46365,"DIS_CODE":0,"TOWNNAME":"將軍區","LI":"長沙里","LIN":"15鄰","STREET":" ","SECT":" ","MAREA":"長沙","LANE":" ","ALLEY":" ","HOUSE_NO":"１４６之１２號","E_COORD97":158255.23000000001,"N_COORD97":2568079.2200000002,"ADDRESS":"長沙１４６之１２號","OBJECTID":46365},"geometry":{"x":158255.23000000138,"y":2568079.2200000025}},{"attributes":{"ID":46366,"DIS_CODE":0,"TOWNNAME":"東山區","LI":"東原里","LIN":"15鄰","STREET":" ","SECT":" ","MAREA":"瓦厝子","LANE":" ","ALLEY":" ","HOUSE_NO":"６號之３","E_COORD97":193639.54000000001,"N_COORD97":2574274.2200000002,"ADDRESS":"瓦厝子６號之３","OBJECTID":46366},"geometry":{"x":193639.54000000097,"y":2574274.2200000007}},{"attributes":{"ID":46367,"DIS_CODE":0,"TOWNNAME":"將軍區","LI":"長沙里","LIN":"15鄰","STREET":" ","SECT":" ","MAREA":"長沙","LANE":" ","ALLEY":" ","HOUSE_NO":"１４６之１６號","E_COORD97":158722.75,"N_COORD97":2568179.5699999998,"ADDRESS":"長沙１４６之１６號","OBJECTID":46367},"geometry":{"x":158722.75000000093,"y":2568179.5700000003}},{"attributes":{"ID":46368,"DIS_CODE":0,"TOWNNAME":"將軍區","LI":"長沙里","LIN":"15鄰","STREET":" ","SECT":" ","MAREA":"長沙","LANE":" ","ALLEY":" ","HOUSE_NO":"１４８號","E_COORD97":158513.57000000001,"N_COORD97":2568593.3599999999,"ADDRESS":"長沙１４８號","OBJECTID":46368},"geometry":{"x":158513.57000000123,"y":2568593.3599999994}},{"attributes":{"ID":46369,"DIS_CODE":0,"TOWNNAME":"將軍區","LI":"長沙里","LIN":"15鄰","STREET":" ","SECT":" ","MAREA":"長沙","LANE":" ","ALLEY":" ","HOUSE_NO":"１５０號","E_COORD97":158519.10999999999,"N_COORD97":2568575.25,"ADDRESS":"長沙１５０號","OBJECTID":46369},"geometry":{"x":158519.11000000034,"y":2568575.25}},{"attributes":{"ID":46370,"DIS_CODE":0,"TOWNNAME":"將軍區","LI":"長沙里","LIN":"15鄰","STREET":" ","SECT":" ","MAREA":"長沙","LANE":" ","ALLEY":" ","HOUSE_NO":"１５５號","E_COORD97":158422.17999999999,"N_COORD97":2568874.1600000001,"ADDRESS":"長沙１５５號","OBJECTID":46370},"geometry":{"x":158422.18000000156,"y":2568874.1600000001}},{"attributes":{"ID":46371,"DIS_CODE":0,"TOWNNAME":"將軍區","LI":"長沙里","LIN":"15鄰","STREET":" ","SECT":" ","MAREA":"長沙","LANE":" ","ALLEY":" ","HOUSE_NO":"１５６號","E_COORD97":158280.51999999999,"N_COORD97":2568737.1400000001,"ADDRESS":"長沙１５６號","OBJECTID":46371},"geometry":{"x":158280.52000000142,"y":2568737.1400000025}},{"attributes":{"ID":46372,"DIS_CODE":0,"TOWNNAME":"六甲區","LI":"中社里","LIN":"15鄰","STREET":" ","SECT":" ","MAREA":"港子頭","LANE":" ","ALLEY":" ","HOUSE_NO":"４８號","E_COORD97":180578.12,"N_COORD97":2571287.8599999999,"ADDRESS":"港子頭４８號","OBJECTID":46372},"geometry":{"x":180578.12000000104,"y":2571287.8600000013}},{"attributes":{"ID":46373,"DIS_CODE":0,"TOWNNAME":"六甲區","LI":"中社里","LIN":"15鄰","STREET":" ","SECT":" ","MAREA":"港子頭","LANE":" ","ALLEY":" ","HOUSE_NO":"４９號","E_COORD97":180570.10000000001,"N_COORD97":2571167.98,"ADDRESS":"港子頭４９號","OBJECTID":46373},"geometry":{"x":180570.10000000149,"y":2571167.9799999986}},{"attributes":{"ID":46374,"DIS_CODE":0,"TOWNNAME":"六甲區","LI":"中社里","LIN":"15鄰","STREET":" ","SECT":" ","MAREA":"港子頭","LANE":" ","ALLEY":" ","HOUSE_NO":"５０號","E_COORD97":180567.82000000001,"N_COORD97":2571161.3300000001,"ADDRESS":"港子頭５０號","OBJECTID":46374},"geometry":{"x":180567.82000000123,"y":2571161.3300000001}},{"attributes":{"ID":46375,"DIS_CODE":0,"TOWNNAME":"六甲區","LI":"中社里","LIN":"15鄰","STREET":" ","SECT":" ","MAREA":"港子頭","LANE":" ","ALLEY":" ","HOUSE_NO":"５１號","E_COORD97":180564.72,"N_COORD97":2571154.6400000001,"ADDRESS":"港子頭５１號","OBJECTID":46375},"geometry":{"x":180564.72000000067,"y":2571154.6400000025}},{"attributes":{"ID":46376,"DIS_CODE":0,"TOWNNAME":"六甲區","LI":"中社里","LIN":"15鄰","STREET":" ","SECT":" ","MAREA":"港子頭","LANE":" ","ALLEY":" ","HOUSE_NO":"５２號","E_COORD97":180562.26999999999,"N_COORD97":2571148.1699999999,"ADDRESS":"港子頭５２號","OBJECTID":46376},"geometry":{"x":180562.27000000142,"y":2571148.1699999999}},{"attributes":{"ID":46377,"DIS_CODE":0,"TOWNNAME":"六甲區","LI":"中社里","LIN":"15鄰","STREET":" ","SECT":" ","MAREA":"港子頭","LANE":" ","ALLEY":" ","HOUSE_NO":"５３號","E_COORD97":180559.87,"N_COORD97":2571141.3999999999,"ADDRESS":"港子頭５３號","OBJECTID":46377},"geometry":{"x":180559.87000000011,"y":2571141.3999999985}},{"attributes":{"ID":46378,"DIS_CODE":0,"TOWNNAME":"六甲區","LI":"中社里","LIN":"15鄰","STREET":" ","SECT":" ","MAREA":"港子頭","LANE":" ","ALLEY":" ","HOUSE_NO":"５４號","E_COORD97":180556.98999999999,"N_COORD97":2571135.3999999999,"ADDRESS":"港子頭５４號","OBJECTID":46378},"geometry":{"x":180556.99000000115,"y":2571135.4000000022}},{"attributes":{"ID":46379,"DIS_CODE":0,"TOWNNAME":"六甲區","LI":"中社里","LIN":"15鄰","STREET":" ","SECT":" ","MAREA":"港子頭","LANE":" ","ALLEY":" ","HOUSE_NO":"５５號","E_COORD97":180567.92999999999,"N_COORD97":2571131.48,"ADDRESS":"港子頭５５號","OBJECTID":46379},"geometry":{"x":180567.92999999877,"y":2571131.4800000023}},{"attributes":{"ID":46380,"DIS_CODE":0,"TOWNNAME":"六甲區","LI":"中社里","LIN":"15鄰","STREET":" ","SECT":" ","MAREA":"港子頭","LANE":" ","ALLEY":" ","HOUSE_NO":"５６號","E_COORD97":180570.16,"N_COORD97":2571138.5099999998,"ADDRESS":"港子頭５６號","OBJECTID":46380},"geometry":{"x":180570.16000000015,"y":2571138.5099999998}},{"attributes":{"ID":46381,"DIS_CODE":0,"TOWNNAME":"六甲區","LI":"中社里","LIN":"15鄰","STREET":" ","SECT":" ","MAREA":"港子頭","LANE":" ","ALLEY":" ","HOUSE_NO":"５７號","E_COORD97":180573.17000000001,"N_COORD97":2571145.2200000002,"ADDRESS":"港子頭５７號","OBJECTID":46381},"geometry":{"x":180573.16999999993,"y":2571145.2200000007}},{"attributes":{"ID":46382,"DIS_CODE":0,"TOWNNAME":"六甲區","LI":"中社里","LIN":"15鄰","STREET":" ","SECT":" ","MAREA":"港子頭","LANE":" ","ALLEY":" ","HOUSE_NO":"５８號","E_COORD97":180575.67999999999,"N_COORD97":2571151.7200000002,"ADDRESS":"港子頭５８號","OBJECTID":46382},"geometry":{"x":180575.6799999997,"y":2571151.7200000007}},{"attributes":{"ID":46383,"DIS_CODE":0,"TOWNNAME":"六甲區","LI":"中社里","LIN":"15鄰","STREET":" ","SECT":" ","MAREA":"港子頭","LANE":" ","ALLEY":" ","HOUSE_NO":"５９號","E_COORD97":180577.75,"N_COORD97":2571157.6499999999,"ADDRESS":"港子頭５９號","OBJECTID":46383},"geometry":{"x":180577.75,"y":2571157.6500000022}},{"attributes":{"ID":46384,"DIS_CODE":0,"TOWNNAME":"六甲區","LI":"中社里","LIN":"15鄰","STREET":" ","SECT":" ","MAREA":"港子頭","LANE":" ","ALLEY":" ","HOUSE_NO":"６０號","E_COORD97":180579.64999999999,"N_COORD97":2571164.1099999999,"ADDRESS":"港子頭６０號","OBJECTID":46384},"geometry":{"x":180579.6500000013,"y":2571164.1100000013}},{"attributes":{"ID":46385,"DIS_CODE":0,"TOWNNAME":"六甲區","LI":"中社里","LIN":"15鄰","STREET":" ","SECT":" ","MAREA":"港子頭","LANE":" ","ALLEY":" ","HOUSE_NO":"６１號之１","E_COORD97":180592.10999999999,"N_COORD97":2571136.73,"ADDRESS":"港子頭６１號之１","OBJECTID":46385},"geometry":{"x":180592.11000000034,"y":2571136.7300000023}},{"attributes":{"ID":46386,"DIS_CODE":0,"TOWNNAME":"六甲區","LI":"中社里","LIN":"15鄰","STREET":" ","SECT":" ","MAREA":"港子頭","LANE":" ","ALLEY":" ","HOUSE_NO":"６１之６號","E_COORD97":180605.10000000001,"N_COORD97":2571148.8700000001,"ADDRESS":"港子頭６１之６號","OBJECTID":46386},"geometry":{"x":180605.09999999963,"y":2571148.870000001}},{"attributes":{"ID":46387,"DIS_CODE":0,"TOWNNAME":"柳營區","LI":"光福里","LIN":"15鄰","STREET":" ","SECT":" ","MAREA":"柳營","LANE":" ","ALLEY":" ","HOUSE_NO":"２７２號之７","E_COORD97":179788,"N_COORD97":2575333.9500000002,"ADDRESS":"柳營２７２號之７","OBJECTID":46387},"geometry":{"x":179788.00000000186,"y":2575333.950000003}},{"attributes":{"ID":46388,"DIS_CODE":0,"TOWNNAME":"柳營區","LI":"光福里","LIN":"15鄰","STREET":" ","SECT":" ","MAREA":"柳營","LANE":" ","ALLEY":" ","HOUSE_NO":"２７２之８號","E_COORD97":179787.03,"N_COORD97":2575337.3799999999,"ADDRESS":"柳營２７２之８號","OBJECTID":46388},"geometry":{"x":179787.03000000119,"y":2575337.3800000027}},{"attributes":{"ID":46389,"DIS_CODE":0,"TOWNNAME":"柳營區","LI":"光福里","LIN":"15鄰","STREET":" ","SECT":" ","MAREA":"柳營","LANE":" ","ALLEY":" ","HOUSE_NO":"２７２號之８","E_COORD97":179787.03,"N_COORD97":2575337.3799999999,"ADDRESS":"柳營２７２號之８","OBJECTID":46389},"geometry":{"x":179787.03000000119,"y":2575337.3800000027}},{"attributes":{"ID":46390,"DIS_CODE":0,"TOWNNAME":"柳營區","LI":"光福里","LIN":"15鄰","STREET":" ","SECT":" ","MAREA":"柳營","LANE":" ","ALLEY":" ","HOUSE_NO":"２７２號","E_COORD97":179798.29999999999,"N_COORD97":2575328.0499999998,"ADDRESS":"柳營２７２號","OBJECTID":46390},"geometry":{"x":179798.30000000075,"y":2575328.0500000045}},{"attributes":{"ID":46391,"DIS_CODE":0,"TOWNNAME":"柳營區","LI":"東昇里","LIN":"15鄰","STREET":" ","SECT":" ","MAREA":"柳營","LANE":" ","ALLEY":" ","HOUSE_NO":"４９５之１號","E_COORD97":180414.76000000001,"N_COORD97":2575302.7799999998,"ADDRESS":"柳營４９５之１號","OBJECTID":46391},"geometry":{"x":180414.75999999978,"y":2575302.7800000012}},{"attributes":{"ID":46392,"DIS_CODE":0,"TOWNNAME":"柳營區","LI":"東昇里","LIN":"15鄰","STREET":" ","SECT":" ","MAREA":"柳營","LANE":" ","ALLEY":" ","HOUSE_NO":"４９５之３號","E_COORD97":180411.54000000001,"N_COORD97":2575285.9900000002,"ADDRESS":"柳營４９５之３號","OBJECTID":46392},"geometry":{"x":180411.53999999911,"y":2575285.9900000002}},{"attributes":{"ID":46393,"DIS_CODE":0,"TOWNNAME":"柳營區","LI":"東昇里","LIN":"15鄰","STREET":" ","SECT":" ","MAREA":"柳營","LANE":" ","ALLEY":" ","HOUSE_NO":"４９６之２０號","E_COORD97":180385.03,"N_COORD97":2575052.0099999998,"ADDRESS":"柳營４９６之２０號","OBJECTID":46393},"geometry":{"x":180385.03000000119,"y":2575052.0099999998}},{"attributes":{"ID":46394,"DIS_CODE":0,"TOWNNAME":"安南區","LI":"幸福里","LIN":"15鄰","STREET":"府安路","SECT":"六段","MAREA":" ","LANE":"４５巷","ALLEY":"５７弄","HOUSE_NO":"６號","E_COORD97":166894.39999999999,"N_COORD97":2546812.6499999999,"ADDRESS":"府安路六段４５巷５７弄６號","OBJECTID":46394},"geometry":{"x":166894.4000000013,"y":2546812.6500000004}},{"attributes":{"ID":46395,"DIS_CODE":0,"TOWNNAME":"安南區","LI":"幸福里","LIN":"15鄰","STREET":"府安路","SECT":"六段","MAREA":" ","LANE":"４５巷","ALLEY":"５７弄","HOUSE_NO":"７號","E_COORD97":166891.67000000001,"N_COORD97":2546785.71,"ADDRESS":"府安路六段４５巷５７弄７號","OBJECTID":46395},"geometry":{"x":166891.67000000086,"y":2546785.7100000009}},{"attributes":{"ID":46396,"DIS_CODE":0,"TOWNNAME":"安南區","LI":"幸福里","LIN":"15鄰","STREET":"府安路","SECT":"六段","MAREA":" ","LANE":"４５巷","ALLEY":"５７弄","HOUSE_NO":"８號","E_COORD97":166887.76999999999,"N_COORD97":2546810.21,"ADDRESS":"府安路六段４５巷５７弄８號","OBJECTID":46396},"geometry":{"x":166887.77000000048,"y":2546810.2100000009}},{"attributes":{"ID":46397,"DIS_CODE":0,"TOWNNAME":"安南區","LI":"幸福里","LIN":"15鄰","STREET":"府安路","SECT":"六段","MAREA":" ","LANE":"４５巷","ALLEY":"７１弄","HOUSE_NO":"１０號","E_COORD97":166873.26999999999,"N_COORD97":2546843.9900000002,"ADDRESS":"府安路六段４５巷７１弄１０號","OBJECTID":46397},"geometry":{"x":166873.26999999955,"y":2546843.9900000002}},{"attributes":{"ID":46398,"DIS_CODE":0,"TOWNNAME":"安南區","LI":"幸福里","LIN":"15鄰","STREET":"府安路","SECT":"六段","MAREA":" ","LANE":"４５巷","ALLEY":"７１弄","HOUSE_NO":"１號","E_COORD97":166906.26999999999,"N_COORD97":2546825.5499999998,"ADDRESS":"府安路六段４５巷７１弄１號","OBJECTID":46398},"geometry":{"x":166906.27000000048,"y":2546825.5500000026}},{"attributes":{"ID":46399,"DIS_CODE":0,"TOWNNAME":"安南區","LI":"幸福里","LIN":"15鄰","STREET":"府安路","SECT":"六段","MAREA":" ","LANE":"４５巷","ALLEY":"７１弄","HOUSE_NO":"２號","E_COORD97":166901.73999999999,"N_COORD97":2546850.1000000001,"ADDRESS":"府安路六段４５巷７１弄２號","OBJECTID":46399},"geometry":{"x":166901.74000000115,"y":2546850.0999999996}},{"attributes":{"ID":46400,"DIS_CODE":0,"TOWNNAME":"安南區","LI":"幸福里","LIN":"15鄰","STREET":"府安路","SECT":"六段","MAREA":" ","LANE":"４５巷","ALLEY":"７１弄","HOUSE_NO":"３號","E_COORD97":166899.17000000001,"N_COORD97":2546824.27,"ADDRESS":"府安路六段４５巷７１弄３號","OBJECTID":46400},"geometry":{"x":166899.16999999993,"y":2546824.2699999996}}]}