{"displayFieldName":"TOWNNAME","fieldAliases":{"ID":"ID","DIS_CODE":"DIS_CODE","TOWNNAME":"TOWNNAME","LI":"LI","LIN":"LIN","STREET":"STREET","SECT":"SECT","MAREA":"MAREA","LANE":"LANE","ALLEY":"ALLEY","HOUSE_NO":"HOUSE_NO","E_COORD97":"E_COORD97","N_COORD97":"N_COORD97","ADDRESS":"ADDRESS","OBJECTID":"OBJECTID"},"geometryType":"esriGeometryPoint","spatialReference":{"wkid":102443,"latestWkid":3826},"fields":[{"name":"ID","type":"esriFieldTypeDouble","alias":"ID"},{"name":"DIS_CODE","type":"esriFieldTypeInteger","alias":"DIS_CODE"},{"name":"TOWNNAME","type":"esriFieldTypeString","alias":"TOWNNAME","length":8},{"name":"LI","type":"esriFieldTypeString","alias":"LI","length":8},{"name":"LIN","type":"esriFieldTypeString","alias":"LIN","length":12},{"name":"STREET","type":"esriFieldTypeString","alias":"STREET","length":20},{"name":"SECT","type":"esriFieldTypeString","alias":"SECT","length":8},{"name":"MAREA","type":"esriFieldTypeString","alias":"MAREA","length":12},{"name":"LANE","type":"esriFieldTypeString","alias":"LANE","length":10},{"name":"ALLEY","type":"esriFieldTypeString","alias":"ALLEY","length":10},{"name":"HOUSE_NO","type":"esriFieldTypeString","alias":"HOUSE_NO","length":20},{"name":"E_COORD97","type":"esriFieldTypeDouble","alias":"E_COORD97"},{"name":"N_COORD97","type":"esriFieldTypeDouble","alias":"N_COORD97"},{"name":"ADDRESS","type":"esriFieldTypeString","alias":"ADDRESS","length":50},{"name":"OBJECTID","type":"esriFieldTypeOID","alias":"OBJECTID"}],"features":[{"attributes":{"ID":644828,"DIS_CODE":0,"TOWNNAME":"安平區","LI":"建平里","LIN":"8鄰","STREET":"府前路","SECT":"二段","MAREA":" ","LANE":" ","ALLEY":" ","HOUSE_NO":"５５０號","E_COORD97":166494.41995499999,"N_COORD97":2543753.1519200001,"ADDRESS":"府前路二段５５０號","OBJECTID":644801},"geometry":{"x":166494.41995499935,"y":2543753.1519239992}},{"attributes":{"ID":644829,"DIS_CODE":0,"TOWNNAME":"安平區","LI":"建平里","LIN":"7鄰","STREET":"府前四街","SECT":" ","MAREA":" ","LANE":" ","ALLEY":" ","HOUSE_NO":"３７號","E_COORD97":166433.91,"N_COORD97":2543907.3900000001,"ADDRESS":"府前四街３７號","OBJECTID":644802},"geometry":{"x":166433.91000000015,"y":2543907.3900000025}},{"attributes":{"ID":644830,"DIS_CODE":0,"TOWNNAME":"安平區","LI":"建平里","LIN":"7鄰","STREET":"府前路","SECT":"二段","MAREA":" ","LANE":" ","ALLEY":" ","HOUSE_NO":"６３０號","E_COORD97":166304.06,"N_COORD97":2543791.02,"ADDRESS":"府前路二段６３０號","OBJECTID":644803},"geometry":{"x":166304.06000000052,"y":2543791.0200000014}},{"attributes":{"ID":644831,"DIS_CODE":0,"TOWNNAME":"安平區","LI":"建平里","LIN":"21鄰","STREET":"怡平路","SECT":" ","MAREA":" ","LANE":" ","ALLEY":" ","HOUSE_NO":"１１７號","E_COORD97":165899.84,"N_COORD97":2543744.04,"ADDRESS":"怡平路１１７號","OBJECTID":644804},"geometry":{"x":165899.83999999985,"y":2543744.0399999991}},{"attributes":{"ID":644832,"DIS_CODE":0,"TOWNNAME":"安平區","LI":"建平里","LIN":"21鄰","STREET":"怡平路","SECT":" ","MAREA":" ","LANE":" ","ALLEY":" ","HOUSE_NO":"１１９號","E_COORD97":165894.91,"N_COORD97":2543744.3599999999,"ADDRESS":"怡平路１１９號","OBJECTID":644805},"geometry":{"x":165894.91000000015,"y":2543744.3600000013}},{"attributes":{"ID":644833,"DIS_CODE":0,"TOWNNAME":"安平區","LI":"建平里","LIN":"21鄰","STREET":"怡平路","SECT":" ","MAREA":" ","LANE":" ","ALLEY":" ","HOUSE_NO":"１２１號","E_COORD97":165889.20000000001,"N_COORD97":2543745.1499999999,"ADDRESS":"怡平路１２１號","OBJECTID":644806},"geometry":{"x":165889.20000000019,"y":2543745.1500000004}},{"attributes":{"ID":644834,"DIS_CODE":0,"TOWNNAME":"安平區","LI":"建平里","LIN":"17鄰","STREET":"建平十一街","SECT":" ","MAREA":" ","LANE":" ","ALLEY":" ","HOUSE_NO":"１５６號","E_COORD97":166011.48999999999,"N_COORD97":2543946.4199999999,"ADDRESS":"建平十一街１５６號","OBJECTID":644807},"geometry":{"x":166011.49000000209,"y":2543946.4199999999}},{"attributes":{"ID":644835,"DIS_CODE":0,"TOWNNAME":"安平區","LI":"建平里","LIN":"17鄰","STREET":"建平十一街","SECT":" ","MAREA":" ","LANE":" ","ALLEY":" ","HOUSE_NO":"２３０號","E_COORD97":165869.39000000001,"N_COORD97":2543973.2000000002,"ADDRESS":"建平十一街２３０號","OBJECTID":644808},"geometry":{"x":165869.3900000006,"y":2543973.1999999993}},{"attributes":{"ID":644836,"DIS_CODE":0,"TOWNNAME":"安平區","LI":"建平里","LIN":"17鄰","STREET":"建平十一街","SECT":" ","MAREA":" ","LANE":" ","ALLEY":" ","HOUSE_NO":"２２８號","E_COORD97":165873.20000000001,"N_COORD97":2543972.3999999999,"ADDRESS":"建平十一街２２８號","OBJECTID":644809},"geometry":{"x":165873.20000000112,"y":2543972.4000000022}},{"attributes":{"ID":644837,"DIS_CODE":0,"TOWNNAME":"安平區","LI":"建平里","LIN":"17鄰","STREET":"建平十一街","SECT":" ","MAREA":" ","LANE":" ","ALLEY":" ","HOUSE_NO":"２１８號","E_COORD97":165890.67000000001,"N_COORD97":2543969.23,"ADDRESS":"建平十一街２１８號","OBJECTID":644810},"geometry":{"x":165890.66999999993,"y":2543969.2300000023}},{"attributes":{"ID":644838,"DIS_CODE":0,"TOWNNAME":"安平區","LI":"建平里","LIN":"17鄰","STREET":"建平十一街","SECT":" ","MAREA":" ","LANE":" ","ALLEY":" ","HOUSE_NO":"２２０號","E_COORD97":165885.75,"N_COORD97":2543969.8500000001,"ADDRESS":"建平十一街２２０號","OBJECTID":644811},"geometry":{"x":165885.75000000186,"y":2543969.8499999996}},{"attributes":{"ID":644839,"DIS_CODE":0,"TOWNNAME":"安平區","LI":"建平里","LIN":"28鄰","STREET":"建平九街","SECT":" ","MAREA":" ","LANE":" ","ALLEY":" ","HOUSE_NO":"７２號","E_COORD97":165973.87,"N_COORD97":2543542.5099999998,"ADDRESS":"建平九街７２號","OBJECTID":644812},"geometry":{"x":165973.87000000104,"y":2543542.5100000035}},{"attributes":{"ID":644840,"DIS_CODE":0,"TOWNNAME":"安平區","LI":"建平里","LIN":"4鄰","STREET":"建平十七街","SECT":" ","MAREA":" ","LANE":" ","ALLEY":" ","HOUSE_NO":"７５號","E_COORD97":166061.23999999999,"N_COORD97":2544234.2000000002,"ADDRESS":"建平十七街７５號","OBJECTID":644813},"geometry":{"x":166061.24000000115,"y":2544234.1999999993}},{"attributes":{"ID":644841,"DIS_CODE":0,"TOWNNAME":"安平區","LI":"億載里","LIN":"4鄰","STREET":"安億路","SECT":" ","MAREA":" ","LANE":" ","ALLEY":" ","HOUSE_NO":"２７０號","E_COORD97":163831.48999999999,"N_COORD97":2543848.4100000001,"ADDRESS":"安億路２７０號","OBJECTID":644814},"geometry":{"x":163831.49000000209,"y":2543848.4100000001}},{"attributes":{"ID":644842,"DIS_CODE":0,"TOWNNAME":"安平區","LI":"億載里","LIN":"4鄰","STREET":"安億路","SECT":" ","MAREA":" ","LANE":" ","ALLEY":" ","HOUSE_NO":"２７２號","E_COORD97":163838.59,"N_COORD97":2543849.5899999999,"ADDRESS":"安億路２７２號","OBJECTID":644815},"geometry":{"x":163838.58999999985,"y":2543849.5899999999}},{"attributes":{"ID":644843,"DIS_CODE":0,"TOWNNAME":"安平區","LI":"億載里","LIN":"4鄰","STREET":"安億路","SECT":" ","MAREA":" ","LANE":" ","ALLEY":" ","HOUSE_NO":"１１０號","E_COORD97":163593.20999999999,"N_COORD97":2543591.3300000001,"ADDRESS":"安億路１１０號","OBJECTID":644816},"geometry":{"x":163593.21000000089,"y":2543591.3299999982}},{"attributes":{"ID":644844,"DIS_CODE":0,"TOWNNAME":"安平區","LI":"億載里","LIN":"4鄰","STREET":"安億路","SECT":" ","MAREA":" ","LANE":" ","ALLEY":" ","HOUSE_NO":"１１２號","E_COORD97":163593.34,"N_COORD97":2543598.21,"ADDRESS":"安億路１１２號","OBJECTID":644817},"geometry":{"x":163593.34000000078,"y":2543598.2100000028}},{"attributes":{"ID":644845,"DIS_CODE":0,"TOWNNAME":"安平區","LI":"億載里","LIN":"4鄰","STREET":"安億路","SECT":" ","MAREA":" ","LANE":" ","ALLEY":" ","HOUSE_NO":"１１６號","E_COORD97":163592.14999999999,"N_COORD97":2543604.9500000002,"ADDRESS":"安億路１１６號","OBJECTID":644818},"geometry":{"x":163592.1500000013,"y":2543604.9500000011}},{"attributes":{"ID":644846,"DIS_CODE":0,"TOWNNAME":"安平區","LI":"億載里","LIN":"4鄰","STREET":"安億路","SECT":" ","MAREA":" ","LANE":" ","ALLEY":" ","HOUSE_NO":"１１８號","E_COORD97":163592.28,"N_COORD97":2543611.4399999999,"ADDRESS":"安億路１１８號","OBJECTID":644819},"geometry":{"x":163592.28000000212,"y":2543611.4400000013}},{"attributes":{"ID":644847,"DIS_CODE":0,"TOWNNAME":"安平區","LI":"億載里","LIN":"4鄰","STREET":"安億路","SECT":" ","MAREA":" ","LANE":" ","ALLEY":" ","HOUSE_NO":"２７６號","E_COORD97":163845.01999999999,"N_COORD97":2543851.04,"ADDRESS":"安億路２７６號","OBJECTID":644820},"geometry":{"x":163845.02000000048,"y":2543851.040000001}},{"attributes":{"ID":644848,"DIS_CODE":0,"TOWNNAME":"安平區","LI":"億載里","LIN":"4鄰","STREET":"安億路","SECT":" ","MAREA":" ","LANE":" ","ALLEY":" ","HOUSE_NO":"２７８號","E_COORD97":163848.95999999999,"N_COORD97":2543852.7000000002,"ADDRESS":"安億路２７８號","OBJECTID":644821},"geometry":{"x":163848.96000000089,"y":2543852.700000003}},{"attributes":{"ID":644849,"DIS_CODE":0,"TOWNNAME":"安平區","LI":"平安里","LIN":"13鄰","STREET":"安平路","SECT":" ","MAREA":" ","LANE":" ","ALLEY":" ","HOUSE_NO":"５４０號","E_COORD97":165017.45000000001,"N_COORD97":2544361.1800000002,"ADDRESS":"安平路５４０號","OBJECTID":644822},"geometry":{"x":165017.45000000112,"y":2544361.1799999997}},{"attributes":{"ID":644850,"DIS_CODE":0,"TOWNNAME":"安平區","LI":"平安里","LIN":"13鄰","STREET":"安平路","SECT":" ","MAREA":" ","LANE":" ","ALLEY":" ","HOUSE_NO":"５４６號","E_COORD97":165001.54000000001,"N_COORD97":2544364.5499999998,"ADDRESS":"安平路５４６號","OBJECTID":644823},"geometry":{"x":165001.54000000004,"y":2544364.5500000026}},{"attributes":{"ID":644851,"DIS_CODE":0,"TOWNNAME":"鹽水區","LI":"三生里","LIN":"4鄰","STREET":"朝琴路","SECT":" ","MAREA":" ","LANE":" ","ALLEY":" ","HOUSE_NO":"１５號","E_COORD97":175153.73000000001,"N_COORD97":2580010.21,"ADDRESS":"朝琴路１５號","OBJECTID":644824},"geometry":{"x":175153.73000000045,"y":2580010.2100000028}},{"attributes":{"ID":644852,"DIS_CODE":0,"TOWNNAME":"安平區","LI":"平通里","LIN":"32鄰","STREET":"育平六街","SECT":" ","MAREA":" ","LANE":" ","ALLEY":" ","HOUSE_NO":"４１號","E_COORD97":164482.51999999999,"N_COORD97":2543689.73,"ADDRESS":"育平六街４１號","OBJECTID":644825},"geometry":{"x":164482.51999999955,"y":2543689.7300000004}},{"attributes":{"ID":644853,"DIS_CODE":0,"TOWNNAME":"安平區","LI":"平通里","LIN":"32鄰","STREET":"育平六街","SECT":" ","MAREA":" ","LANE":" ","ALLEY":" ","HOUSE_NO":"４３號","E_COORD97":164477.44,"N_COORD97":2543691,"ADDRESS":"育平六街４３號","OBJECTID":644826},"geometry":{"x":164477.44000000041,"y":2543691}},{"attributes":{"ID":644854,"DIS_CODE":0,"TOWNNAME":"安平區","LI":"平通里","LIN":"32鄰","STREET":"育平六街","SECT":" ","MAREA":" ","LANE":" ","ALLEY":" ","HOUSE_NO":"４５號","E_COORD97":164473.14999999999,"N_COORD97":2543690.21,"ADDRESS":"育平六街４５號","OBJECTID":644827},"geometry":{"x":164473.15000000224,"y":2543690.2100000009}},{"attributes":{"ID":644855,"DIS_CODE":0,"TOWNNAME":"安平區","LI":"平通里","LIN":"32鄰","STREET":"育平六街","SECT":" ","MAREA":" ","LANE":" ","ALLEY":" ","HOUSE_NO":"４５之１６號","E_COORD97":164394.97,"N_COORD97":2543692.21,"ADDRESS":"育平六街４５之１６號","OBJECTID":644828},"geometry":{"x":164394.96999999974,"y":2543692.2100000028}},{"attributes":{"ID":644856,"DIS_CODE":0,"TOWNNAME":"安平區","LI":"國平里","LIN":"8鄰","STREET":"建平三街","SECT":" ","MAREA":" ","LANE":" ","ALLEY":" ","HOUSE_NO":"１４９號","E_COORD97":165576.32000000001,"N_COORD97":2542935.0299999998,"ADDRESS":"建平三街１４９號","OBJECTID":644829},"geometry":{"x":165576.3200000003,"y":2542935.0300000031}},{"attributes":{"ID":644857,"DIS_CODE":0,"TOWNNAME":"安平區","LI":"文平里","LIN":"24鄰","STREET":"建平三街","SECT":" ","MAREA":" ","LANE":" ","ALLEY":" ","HOUSE_NO":"１０號","E_COORD97":166300.04999999999,"N_COORD97":2542869.7400000002,"ADDRESS":"建平三街１０號","OBJECTID":644830},"geometry":{"x":166300.04999999981,"y":2542869.7400000002}},{"attributes":{"ID":644858,"DIS_CODE":0,"TOWNNAME":"安平區","LI":"文平里","LIN":"7鄰","STREET":"建平六街","SECT":" ","MAREA":" ","LANE":" ","ALLEY":" ","HOUSE_NO":"１０６號","E_COORD97":166232.19,"N_COORD97":2543124,"ADDRESS":"建平六街１０６號","OBJECTID":644831},"geometry":{"x":166232.19000000041,"y":2543124.0000000019}},{"attributes":{"ID":644859,"DIS_CODE":0,"TOWNNAME":"安平區","LI":"國平里","LIN":"13鄰","STREET":"建平一街","SECT":" ","MAREA":" ","LANE":" ","ALLEY":" ","HOUSE_NO":"２３７號","E_COORD97":165493.76000000001,"N_COORD97":2542786.3399999999,"ADDRESS":"建平一街２３７號","OBJECTID":644832},"geometry":{"x":165493.75999999978,"y":2542786.3399999999}},{"attributes":{"ID":644860,"DIS_CODE":0,"TOWNNAME":"安平區","LI":"億載里","LIN":"4鄰","STREET":"安億路","SECT":" ","MAREA":" ","LANE":" ","ALLEY":" ","HOUSE_NO":"２３８號","E_COORD97":163744.29999999999,"N_COORD97":2543825.3900000001,"ADDRESS":"安億路２３８號","OBJECTID":644833},"geometry":{"x":163744.30000000168,"y":2543825.3899999987}},{"attributes":{"ID":644861,"DIS_CODE":0,"TOWNNAME":"安平區","LI":"億載里","LIN":"4鄰","STREET":"安億路","SECT":" ","MAREA":" ","LANE":" ","ALLEY":" ","HOUSE_NO":"２３６號","E_COORD97":163737.73000000001,"N_COORD97":2543824.96,"ADDRESS":"安億路２３６號","OBJECTID":644834},"geometry":{"x":163737.73000000138,"y":2543824.9600000009}},{"attributes":{"ID":644862,"DIS_CODE":0,"TOWNNAME":"安平區","LI":"億載里","LIN":"15鄰","STREET":"光州路","SECT":" ","MAREA":" ","LANE":" ","ALLEY":" ","HOUSE_NO":"６６號","E_COORD97":163955.06,"N_COORD97":2543157.6899999999,"ADDRESS":"光州路６６號","OBJECTID":644835},"geometry":{"x":163955.05999999959,"y":2543157.6899999976}},{"attributes":{"ID":644863,"DIS_CODE":0,"TOWNNAME":"安平區","LI":"育平里","LIN":"4鄰","STREET":"健康路","SECT":"三段","MAREA":" ","LANE":" ","ALLEY":" ","HOUSE_NO":"６９６號","E_COORD97":164789.67000000001,"N_COORD97":2543420.98,"ADDRESS":"健康路三段６９６號","OBJECTID":644836},"geometry":{"x":164789.67000000086,"y":2543420.9800000004}},{"attributes":{"ID":644864,"DIS_CODE":0,"TOWNNAME":"安平區","LI":"育平里","LIN":"39鄰","STREET":"育平一街","SECT":" ","MAREA":" ","LANE":" ","ALLEY":" ","HOUSE_NO":"６０號","E_COORD97":164406.78,"N_COORD97":2542957.1000000001,"ADDRESS":"育平一街６０號","OBJECTID":644837},"geometry":{"x":164406.78000000119,"y":2542957.0999999996}},{"attributes":{"ID":644865,"DIS_CODE":0,"TOWNNAME":"安平區","LI":"平通里","LIN":"18鄰","STREET":"永華路","SECT":"二段","MAREA":" ","LANE":" ","ALLEY":" ","HOUSE_NO":"８５２號","E_COORD97":164725.82999999999,"N_COORD97":2543639.9300000002,"ADDRESS":"永華路二段８５２號","OBJECTID":644838},"geometry":{"x":164725.83000000194,"y":2543639.9299999997}},{"attributes":{"ID":644866,"DIS_CODE":0,"TOWNNAME":"安平區","LI":"平通里","LIN":"18鄰","STREET":"永華路","SECT":"二段","MAREA":" ","LANE":" ","ALLEY":" ","HOUSE_NO":"８５０號","E_COORD97":164719.79000000001,"N_COORD97":2543612.3100000001,"ADDRESS":"永華路二段８５０號","OBJECTID":644839},"geometry":{"x":164719.79000000097,"y":2543612.3099999987}},{"attributes":{"ID":644867,"DIS_CODE":0,"TOWNNAME":"安平區","LI":"文平里","LIN":"25鄰","STREET":"永華二街","SECT":" ","MAREA":" ","LANE":" ","ALLEY":" ","HOUSE_NO":"３９號","E_COORD97":166338.29999999999,"N_COORD97":2542940.4399999999,"ADDRESS":"永華二街３９號","OBJECTID":644840},"geometry":{"x":166338.30000000075,"y":2542940.4400000013}},{"attributes":{"ID":644868,"DIS_CODE":0,"TOWNNAME":"安平區","LI":"平通里","LIN":"32鄰","STREET":"永華十街","SECT":" ","MAREA":" ","LANE":" ","ALLEY":" ","HOUSE_NO":"４９號","E_COORD97":164534.89999999999,"N_COORD97":2543734.1899999999,"ADDRESS":"永華十街４９號","OBJECTID":644841},"geometry":{"x":164534.9000000013,"y":2543734.1900000032}},{"attributes":{"ID":644869,"DIS_CODE":0,"TOWNNAME":"安平區","LI":"平通里","LIN":"32鄰","STREET":"永華十街","SECT":" ","MAREA":" ","LANE":" ","ALLEY":" ","HOUSE_NO":"５１號","E_COORD97":164535.06,"N_COORD97":2543738.6200000001,"ADDRESS":"永華十街５１號","OBJECTID":644842},"geometry":{"x":164535.05999999959,"y":2543738.620000001}},{"attributes":{"ID":644870,"DIS_CODE":0,"TOWNNAME":"安平區","LI":"華平里","LIN":"32鄰","STREET":"育平九街","SECT":" ","MAREA":" ","LANE":" ","ALLEY":" ","HOUSE_NO":"５７號之５","E_COORD97":165205.45999999999,"N_COORD97":2543965.23,"ADDRESS":"育平九街５７號之５","OBJECTID":644843},"geometry":{"x":165205.45999999996,"y":2543965.2300000004}},{"attributes":{"ID":644871,"DIS_CODE":0,"TOWNNAME":"安平區","LI":"億載里","LIN":"4鄰","STREET":"安億路","SECT":" ","MAREA":" ","LANE":" ","ALLEY":" ","HOUSE_NO":"１５１號","E_COORD97":163571.92000000001,"N_COORD97":2543748.9900000002,"ADDRESS":"安億路１５１號","OBJECTID":644844},"geometry":{"x":163571.91999999993,"y":2543748.9900000002}},{"attributes":{"ID":644872,"DIS_CODE":0,"TOWNNAME":"南區","LI":"文南里","LIN":"26鄰","STREET":"南功街","SECT":" ","MAREA":" ","LANE":" ","ALLEY":" ","HOUSE_NO":"７５號","E_COORD97":166461.59,"N_COORD97":2542802.9700000002,"ADDRESS":"南功街７５號","OBJECTID":644845},"geometry":{"x":166461.59000000078,"y":2542802.9700000007}},{"attributes":{"ID":644873,"DIS_CODE":0,"TOWNNAME":"安平區","LI":"育平里","LIN":"32鄰","STREET":"育平二街","SECT":" ","MAREA":" ","LANE":" ","ALLEY":" ","HOUSE_NO":"１４２號","E_COORD97":164653.45999999999,"N_COORD97":2542967.9700000002,"ADDRESS":"育平二街１４２號","OBJECTID":644846},"geometry":{"x":164653.45999999996,"y":2542967.9700000025}},{"attributes":{"ID":644874,"DIS_CODE":0,"TOWNNAME":"安平區","LI":"育平里","LIN":"32鄰","STREET":"育平二街","SECT":" ","MAREA":" ","LANE":" ","ALLEY":" ","HOUSE_NO":"１３８號","E_COORD97":164661.95000000001,"N_COORD97":2542966.7599999998,"ADDRESS":"育平二街１３８號","OBJECTID":644847},"geometry":{"x":164661.95000000019,"y":2542966.7599999998}},{"attributes":{"ID":644875,"DIS_CODE":0,"TOWNNAME":"安平區","LI":"育平里","LIN":"32鄰","STREET":"府平路","SECT":" ","MAREA":" ","LANE":" ","ALLEY":" ","HOUSE_NO":"２３９號","E_COORD97":164683.82000000001,"N_COORD97":2543077.8300000001,"ADDRESS":"府平路２３９號","OBJECTID":644848},"geometry":{"x":164683.82000000216,"y":2543077.8300000019}},{"attributes":{"ID":644876,"DIS_CODE":0,"TOWNNAME":"安平區","LI":"育平里","LIN":"32鄰","STREET":"府平路","SECT":" ","MAREA":" ","LANE":" ","ALLEY":" ","HOUSE_NO":"２４１號","E_COORD97":164678.26000000001,"N_COORD97":2543078.4700000002,"ADDRESS":"府平路２４１號","OBJECTID":644849},"geometry":{"x":164678.25999999978,"y":2543078.4700000007}},{"attributes":{"ID":644877,"DIS_CODE":0,"TOWNNAME":"安平區","LI":"育平里","LIN":"32鄰","STREET":"府平路","SECT":" ","MAREA":" ","LANE":" ","ALLEY":" ","HOUSE_NO":"２４３號","E_COORD97":164673.60000000001,"N_COORD97":2543082.5499999998,"ADDRESS":"府平路２４３號","OBJECTID":644850},"geometry":{"x":164673.59999999963,"y":2543082.5500000026}},{"attributes":{"ID":644878,"DIS_CODE":0,"TOWNNAME":"南區","LI":"永寧里","LIN":"19鄰","STREET":"灣裡路","SECT":" ","MAREA":" ","LANE":" ","ALLEY":" ","HOUSE_NO":"２４５號","E_COORD97":166111.98999999999,"N_COORD97":2536451.0099999998,"ADDRESS":"灣裡路２４５號","OBJECTID":644851},"geometry":{"x":166111.99000000115,"y":2536451.0100000016}},{"attributes":{"ID":644879,"DIS_CODE":0,"TOWNNAME":"南區","LI":"永寧里","LIN":"19鄰","STREET":"灣裡路","SECT":" ","MAREA":" ","LANE":" ","ALLEY":" ","HOUSE_NO":"２４７號","E_COORD97":166114.17999999999,"N_COORD97":2536444.3100000001,"ADDRESS":"灣裡路２４７號","OBJECTID":644852},"geometry":{"x":166114.1799999997,"y":2536444.3100000005}},{"attributes":{"ID":644880,"DIS_CODE":0,"TOWNNAME":"南區","LI":"永寧里","LIN":"19鄰","STREET":"灣裡路","SECT":" ","MAREA":" ","LANE":" ","ALLEY":" ","HOUSE_NO":"２４９號","E_COORD97":166117.92000000001,"N_COORD97":2536435.3700000001,"ADDRESS":"灣裡路２４９號","OBJECTID":644853},"geometry":{"x":166117.91999999993,"y":2536435.3700000048}},{"attributes":{"ID":644881,"DIS_CODE":0,"TOWNNAME":"南區","LI":"永寧里","LIN":"19鄰","STREET":"灣裡路","SECT":" ","MAREA":" ","LANE":" ","ALLEY":" ","HOUSE_NO":"２５１號","E_COORD97":166115.45000000001,"N_COORD97":2536439.02,"ADDRESS":"灣裡路２５１號","OBJECTID":644854},"geometry":{"x":166115.45000000112,"y":2536439.0199999996}},{"attributes":{"ID":644882,"DIS_CODE":0,"TOWNNAME":"南區","LI":"永寧里","LIN":"19鄰","STREET":"灣裡路","SECT":" ","MAREA":" ","LANE":" ","ALLEY":" ","HOUSE_NO":"２５３號","E_COORD97":166120.84,"N_COORD97":2536429.5800000001,"ADDRESS":"灣裡路２５３號","OBJECTID":644855},"geometry":{"x":166120.84000000078,"y":2536429.5800000038}},{"attributes":{"ID":644883,"DIS_CODE":0,"TOWNNAME":"南區","LI":"永寧里","LIN":"19鄰","STREET":"灣裡路","SECT":" ","MAREA":" ","LANE":" ","ALLEY":" ","HOUSE_NO":"２５３號之１","E_COORD97":166123.03,"N_COORD97":2536433.5499999998,"ADDRESS":"灣裡路２５３號之１","OBJECTID":644856},"geometry":{"x":166123.03000000026,"y":2536433.5500000045}},{"attributes":{"ID":644884,"DIS_CODE":0,"TOWNNAME":"南區","LI":"永寧里","LIN":"19鄰","STREET":"灣裡路","SECT":" ","MAREA":" ","LANE":" ","ALLEY":" ","HOUSE_NO":"２５５號","E_COORD97":166123.85000000001,"N_COORD97":2536425.5699999998,"ADDRESS":"灣裡路２５５號","OBJECTID":644857},"geometry":{"x":166123.85000000149,"y":2536425.5700000003}},{"attributes":{"ID":644885,"DIS_CODE":0,"TOWNNAME":"南區","LI":"永寧里","LIN":"19鄰","STREET":"灣裡路","SECT":" ","MAREA":" ","LANE":" ","ALLEY":" ","HOUSE_NO":"２５７號","E_COORD97":166125.31,"N_COORD97":2536420.9199999999,"ADDRESS":"灣裡路２５７號","OBJECTID":644858},"geometry":{"x":166125.30999999959,"y":2536420.9200000018}},{"attributes":{"ID":644886,"DIS_CODE":0,"TOWNNAME":"南區","LI":"永寧里","LIN":"19鄰","STREET":"灣裡路","SECT":" ","MAREA":" ","LANE":" ","ALLEY":" ","HOUSE_NO":"２５９號","E_COORD97":166126.13,"N_COORD97":2536416.9100000001,"ADDRESS":"灣裡路２５９號","OBJECTID":644859},"geometry":{"x":166126.13000000082,"y":2536416.9100000039}},{"attributes":{"ID":644887,"DIS_CODE":0,"TOWNNAME":"南區","LI":"永寧里","LIN":"19鄰","STREET":"灣裡路","SECT":" ","MAREA":" ","LANE":" ","ALLEY":" ","HOUSE_NO":"２６１號","E_COORD97":166127.04000000001,"N_COORD97":2536412.8999999999,"ADDRESS":"灣裡路２６１號","OBJECTID":644860},"geometry":{"x":166127.04000000097,"y":2536412.9000000004}},{"attributes":{"ID":644888,"DIS_CODE":0,"TOWNNAME":"南區","LI":"永寧里","LIN":"21鄰","STREET":"灣裡路","SECT":" ","MAREA":" ","LANE":" ","ALLEY":" ","HOUSE_NO":"２８５號","E_COORD97":166124.97,"N_COORD97":2536338.7200000002,"ADDRESS":"灣裡路２８５號","OBJECTID":644861},"geometry":{"x":166124.97000000067,"y":2536338.7200000025}},{"attributes":{"ID":644889,"DIS_CODE":0,"TOWNNAME":"南區","LI":"永寧里","LIN":"21鄰","STREET":"灣裡路","SECT":" ","MAREA":" ","LANE":" ","ALLEY":" ","HOUSE_NO":"２８７號","E_COORD97":166125.35000000001,"N_COORD97":2536335.9900000002,"ADDRESS":"灣裡路２８７號","OBJECTID":644862},"geometry":{"x":166125.3499999987,"y":2536335.9900000021}},{"attributes":{"ID":644890,"DIS_CODE":0,"TOWNNAME":"南區","LI":"永寧里","LIN":"21鄰","STREET":"灣裡路","SECT":" ","MAREA":" ","LANE":" ","ALLEY":" ","HOUSE_NO":"２８９號","E_COORD97":166125.72,"N_COORD97":2536330.4300000002,"ADDRESS":"灣裡路２８９號","OBJECTID":644863},"geometry":{"x":166125.71999999974,"y":2536330.4299999997}},{"attributes":{"ID":644891,"DIS_CODE":0,"TOWNNAME":"南區","LI":"永寧里","LIN":"21鄰","STREET":"灣裡路","SECT":" ","MAREA":" ","LANE":" ","ALLEY":" ","HOUSE_NO":"２９１號","E_COORD97":166126.17999999999,"N_COORD97":2536326.5,"ADDRESS":"灣裡路２９１號","OBJECTID":644864},"geometry":{"x":166126.1799999997,"y":2536326.5}},{"attributes":{"ID":644892,"DIS_CODE":0,"TOWNNAME":"南區","LI":"永寧里","LIN":"21鄰","STREET":"灣裡路","SECT":" ","MAREA":" ","LANE":" ","ALLEY":" ","HOUSE_NO":"２９３號","E_COORD97":166125.26999999999,"N_COORD97":2536318.4100000001,"ADDRESS":"灣裡路２９３號","OBJECTID":644865},"geometry":{"x":166125.26999999955,"y":2536318.4100000001}},{"attributes":{"ID":644893,"DIS_CODE":0,"TOWNNAME":"南區","LI":"永寧里","LIN":"21鄰","STREET":"灣裡路","SECT":" ","MAREA":" ","LANE":" ","ALLEY":" ","HOUSE_NO":"２９５號","E_COORD97":166125.88,"N_COORD97":2536313.6800000002,"ADDRESS":"灣裡路２９５號","OBJECTID":644866},"geometry":{"x":166125.88000000082,"y":2536313.6800000016}},{"attributes":{"ID":644894,"DIS_CODE":0,"TOWNNAME":"南區","LI":"文南里","LIN":"26鄰","STREET":"中華西路","SECT":"一段","MAREA":" ","LANE":" ","ALLEY":" ","HOUSE_NO":"２６１號","E_COORD97":166550.59,"N_COORD97":2542796.1099999999,"ADDRESS":"中華西路一段２６１號","OBJECTID":644867},"geometry":{"x":166550.58999999985,"y":2542796.1100000013}},{"attributes":{"ID":644895,"DIS_CODE":0,"TOWNNAME":"南區","LI":"文南里","LIN":"26鄰","STREET":"中華西路","SECT":"一段","MAREA":" ","LANE":" ","ALLEY":" ","HOUSE_NO":"２６５號","E_COORD97":166554.25,"N_COORD97":2542811.3900000001,"ADDRESS":"中華西路一段２６５號","OBJECTID":644868},"geometry":{"x":166554.25000000093,"y":2542811.3900000006}},{"attributes":{"ID":644896,"DIS_CODE":0,"TOWNNAME":"南區","LI":"文南里","LIN":"26鄰","STREET":"仁南四街","SECT":" ","MAREA":" ","LANE":" ","ALLEY":" ","HOUSE_NO":"１０號","E_COORD97":166504.98000000001,"N_COORD97":2542776.1099999999,"ADDRESS":"仁南四街１０號","OBJECTID":644869},"geometry":{"x":166504.98000000045,"y":2542776.1100000013}},{"attributes":{"ID":644897,"DIS_CODE":0,"TOWNNAME":"南區","LI":"文南里","LIN":"26鄰","STREET":"仁南四街","SECT":" ","MAREA":" ","LANE":" ","ALLEY":" ","HOUSE_NO":"１２號","E_COORD97":166500.85000000001,"N_COORD97":2542775.6800000002,"ADDRESS":"仁南四街１２號","OBJECTID":644870},"geometry":{"x":166500.85000000056,"y":2542775.6800000016}},{"attributes":{"ID":644898,"DIS_CODE":0,"TOWNNAME":"南區","LI":"文南里","LIN":"26鄰","STREET":"仁南四街","SECT":" ","MAREA":" ","LANE":" ","ALLEY":" ","HOUSE_NO":"１４號","E_COORD97":166496.07000000001,"N_COORD97":2542775.4700000002,"ADDRESS":"仁南四街１４號","OBJECTID":644871},"geometry":{"x":166496.07000000123,"y":2542775.4700000025}},{"attributes":{"ID":644899,"DIS_CODE":0,"TOWNNAME":"南區","LI":"文南里","LIN":"25鄰","STREET":"中華西路","SECT":"一段","MAREA":" ","LANE":" ","ALLEY":" ","HOUSE_NO":"３３４號","E_COORD97":166599.69,"N_COORD97":2542797.3999999999,"ADDRESS":"中華西路一段３３４號","OBJECTID":644872},"geometry":{"x":166599.69000000041,"y":2542797.4000000004}},{"attributes":{"ID":644900,"DIS_CODE":0,"TOWNNAME":"南區","LI":"文南里","LIN":"25鄰","STREET":"中華西路","SECT":"一段","MAREA":" ","LANE":" ","ALLEY":" ","HOUSE_NO":"３３６號","E_COORD97":166600.82999999999,"N_COORD97":2542802.5699999998,"ADDRESS":"中華西路一段３３６號","OBJECTID":644873},"geometry":{"x":166600.83000000194,"y":2542802.5700000003}},{"attributes":{"ID":644901,"DIS_CODE":0,"TOWNNAME":"南區","LI":"文南里","LIN":"25鄰","STREET":"中華西路","SECT":"一段","MAREA":" ","LANE":" ","ALLEY":" ","HOUSE_NO":"３３８號","E_COORD97":166601.41,"N_COORD97":2542806.98,"ADDRESS":"中華西路一段３３８號","OBJECTID":644874},"geometry":{"x":166601.41000000015,"y":2542806.9800000004}},{"attributes":{"ID":644902,"DIS_CODE":0,"TOWNNAME":"南區","LI":"文南里","LIN":"25鄰","STREET":"中華西路","SECT":"一段","MAREA":" ","LANE":" ","ALLEY":" ","HOUSE_NO":"４２０號","E_COORD97":166604.85999999999,"N_COORD97":2542828.0299999998,"ADDRESS":"中華西路一段４２０號","OBJECTID":644875},"geometry":{"x":166604.86000000127,"y":2542828.0300000012}},{"attributes":{"ID":644903,"DIS_CODE":0,"TOWNNAME":"南區","LI":"文南里","LIN":"25鄰","STREET":"中華西路","SECT":"一段","MAREA":" ","LANE":" ","ALLEY":" ","HOUSE_NO":"４２２號","E_COORD97":166607.69,"N_COORD97":2542850.7999999998,"ADDRESS":"中華西路一段４２２號","OBJECTID":644876},"geometry":{"x":166607.69000000134,"y":2542850.8000000026}},{"attributes":{"ID":644904,"DIS_CODE":0,"TOWNNAME":"南區","LI":"文南里","LIN":"25鄰","STREET":"中華西路","SECT":"一段","MAREA":" ","LANE":" ","ALLEY":" ","HOUSE_NO":"４２４號","E_COORD97":166608.60999999999,"N_COORD97":2542859.1000000001,"ADDRESS":"中華西路一段４２４號","OBJECTID":644877},"geometry":{"x":166608.61000000034,"y":2542859.0999999996}},{"attributes":{"ID":644905,"DIS_CODE":0,"TOWNNAME":"南區","LI":"文南里","LIN":"25鄰","STREET":"智南街","SECT":" ","MAREA":" ","LANE":" ","ALLEY":" ","HOUSE_NO":"１０號","E_COORD97":166635.34,"N_COORD97":2542790.7000000002,"ADDRESS":"智南街１０號","OBJECTID":644878},"geometry":{"x":166635.33999999985,"y":2542790.6999999993}},{"attributes":{"ID":644906,"DIS_CODE":0,"TOWNNAME":"南區","LI":"文南里","LIN":"26鄰","STREET":"仁南四街","SECT":" ","MAREA":" ","LANE":" ","ALLEY":" ","HOUSE_NO":"２號","E_COORD97":166549.92999999999,"N_COORD97":2542774.6499999999,"ADDRESS":"仁南四街２號","OBJECTID":644879},"geometry":{"x":166549.9299999997,"y":2542774.6500000004}},{"attributes":{"ID":644907,"DIS_CODE":0,"TOWNNAME":"南區","LI":"文華里","LIN":"4鄰","STREET":"金華路","SECT":"二段","MAREA":" ","LANE":" ","ALLEY":" ","HOUSE_NO":"３７５號","E_COORD97":167133.22,"N_COORD97":2542995.5800000001,"ADDRESS":"金華路二段３７５號","OBJECTID":644880},"geometry":{"x":167133.21999999974,"y":2542995.5800000001}},{"attributes":{"ID":644908,"DIS_CODE":0,"TOWNNAME":"南區","LI":"文華里","LIN":"4鄰","STREET":"金華路","SECT":"二段","MAREA":" ","LANE":" ","ALLEY":" ","HOUSE_NO":"３７７號","E_COORD97":167133.04000000001,"N_COORD97":2542999.7999999998,"ADDRESS":"金華路二段３７７號","OBJECTID":644881},"geometry":{"x":167133.04000000004,"y":2542999.8000000026}},{"attributes":{"ID":644909,"DIS_CODE":0,"TOWNNAME":"南區","LI":"文華里","LIN":"4鄰","STREET":"金華路","SECT":"二段","MAREA":" ","LANE":" ","ALLEY":" ","HOUSE_NO":"３７９號","E_COORD97":167133.13,"N_COORD97":2543005,"ADDRESS":"金華路二段３７９號","OBJECTID":644882},"geometry":{"x":167133.13000000082,"y":2543005.0000000019}},{"attributes":{"ID":644910,"DIS_CODE":0,"TOWNNAME":"南區","LI":"文華里","LIN":"4鄰","STREET":"金華路","SECT":"二段","MAREA":" ","LANE":" ","ALLEY":" ","HOUSE_NO":"３８１號","E_COORD97":167133.75,"N_COORD97":2543008.5899999999,"ADDRESS":"金華路二段３８１號","OBJECTID":644883},"geometry":{"x":167133.75000000093,"y":2543008.5899999999}},{"attributes":{"ID":644911,"DIS_CODE":0,"TOWNNAME":"南區","LI":"文華里","LIN":"4鄰","STREET":"金華路","SECT":"二段","MAREA":" ","LANE":" ","ALLEY":" ","HOUSE_NO":"３８３號","E_COORD97":167133.66,"N_COORD97":2543012.8999999999,"ADDRESS":"金華路二段３８３號","OBJECTID":644884},"geometry":{"x":167133.66000000015,"y":2543012.9000000022}},{"attributes":{"ID":644912,"DIS_CODE":0,"TOWNNAME":"南區","LI":"文華里","LIN":"21鄰","STREET":"文南二街","SECT":" ","MAREA":" ","LANE":" ","ALLEY":" ","HOUSE_NO":"１８號","E_COORD97":166911.54999999999,"N_COORD97":2542976.75,"ADDRESS":"文南二街１８號","OBJECTID":644885},"geometry":{"x":166911.55000000075,"y":2542976.75}},{"attributes":{"ID":644913,"DIS_CODE":0,"TOWNNAME":"南區","LI":"文華里","LIN":"21鄰","STREET":"文南二街","SECT":" ","MAREA":" ","LANE":" ","ALLEY":" ","HOUSE_NO":"２０號","E_COORD97":166907.69,"N_COORD97":2542973.6099999999,"ADDRESS":"文南二街２０號","OBJECTID":644886},"geometry":{"x":166907.69000000134,"y":2542973.6099999994}},{"attributes":{"ID":644914,"DIS_CODE":0,"TOWNNAME":"南區","LI":"文華里","LIN":"21鄰","STREET":"文南二街","SECT":" ","MAREA":" ","LANE":" ","ALLEY":" ","HOUSE_NO":"２２號","E_COORD97":166904.19,"N_COORD97":2542969.8500000001,"ADDRESS":"文南二街２２號","OBJECTID":644887},"geometry":{"x":166904.19000000134,"y":2542969.8499999996}},{"attributes":{"ID":644915,"DIS_CODE":0,"TOWNNAME":"南區","LI":"文華里","LIN":"21鄰","STREET":"文南二街","SECT":" ","MAREA":" ","LANE":" ","ALLEY":" ","HOUSE_NO":"２４號","E_COORD97":166900.23999999999,"N_COORD97":2542966.5299999998,"ADDRESS":"文南二街２４號","OBJECTID":644888},"geometry":{"x":166900.24000000115,"y":2542966.5300000012}},{"attributes":{"ID":644916,"DIS_CODE":0,"TOWNNAME":"南區","LI":"文華里","LIN":"21鄰","STREET":"文南二街","SECT":" ","MAREA":" ","LANE":" ","ALLEY":" ","HOUSE_NO":"２８號","E_COORD97":166890.37,"N_COORD97":2542961.3300000001,"ADDRESS":"文南二街２８號","OBJECTID":644889},"geometry":{"x":166890.37000000197,"y":2542961.3300000019}},{"attributes":{"ID":644917,"DIS_CODE":0,"TOWNNAME":"南區","LI":"文華里","LIN":"21鄰","STREET":"文南二街","SECT":" ","MAREA":" ","LANE":" ","ALLEY":" ","HOUSE_NO":"２號","E_COORD97":166944.81,"N_COORD97":2543003.5299999998,"ADDRESS":"文南二街２號","OBJECTID":644890},"geometry":{"x":166944.81000000052,"y":2543003.5300000012}},{"attributes":{"ID":644918,"DIS_CODE":0,"TOWNNAME":"南區","LI":"文華里","LIN":"21鄰","STREET":"文南二街","SECT":" ","MAREA":" ","LANE":" ","ALLEY":" ","HOUSE_NO":"３０號","E_COORD97":166886.51000000001,"N_COORD97":2542958.3700000001,"ADDRESS":"文南二街３０號","OBJECTID":644891},"geometry":{"x":166886.51000000071,"y":2542958.3700000048}},{"attributes":{"ID":644919,"DIS_CODE":0,"TOWNNAME":"南區","LI":"文華里","LIN":"21鄰","STREET":"文南二街","SECT":" ","MAREA":" ","LANE":" ","ALLEY":" ","HOUSE_NO":"３２號","E_COORD97":166882.82999999999,"N_COORD97":2542954.3300000001,"ADDRESS":"文南二街３２號","OBJECTID":644892},"geometry":{"x":166882.83000000101,"y":2542954.3300000038}},{"attributes":{"ID":644920,"DIS_CODE":0,"TOWNNAME":"南區","LI":"文華里","LIN":"21鄰","STREET":"文南二街","SECT":" ","MAREA":" ","LANE":" ","ALLEY":" ","HOUSE_NO":"４號","E_COORD97":166940.67999999999,"N_COORD97":2542999.4900000002,"ADDRESS":"文南二街４號","OBJECTID":644893},"geometry":{"x":166940.68000000063,"y":2542999.4900000002}},{"attributes":{"ID":644921,"DIS_CODE":0,"TOWNNAME":"南區","LI":"文華里","LIN":"5鄰","STREET":"敬南街","SECT":" ","MAREA":" ","LANE":" ","ALLEY":" ","HOUSE_NO":"１１號","E_COORD97":166803.66,"N_COORD97":2543041.3300000001,"ADDRESS":"敬南街１１號","OBJECTID":644894},"geometry":{"x":166803.66000000201,"y":2543041.3300000001}},{"attributes":{"ID":644922,"DIS_CODE":0,"TOWNNAME":"南區","LI":"文華里","LIN":"5鄰","STREET":"敬南街","SECT":" ","MAREA":" ","LANE":" ","ALLEY":" ","HOUSE_NO":"１３號","E_COORD97":166807.29999999999,"N_COORD97":2543037.1499999999,"ADDRESS":"敬南街１３號","OBJECTID":644895},"geometry":{"x":166807.29999999981,"y":2543037.1500000041}},{"attributes":{"ID":644923,"DIS_CODE":0,"TOWNNAME":"南區","LI":"文華里","LIN":"5鄰","STREET":"敬南街","SECT":" ","MAREA":" ","LANE":" ","ALLEY":" ","HOUSE_NO":"１５號","E_COORD97":166812.12,"N_COORD97":2543031.5899999999,"ADDRESS":"敬南街１５號","OBJECTID":644896},"geometry":{"x":166812.12000000011,"y":2543031.5900000017}},{"attributes":{"ID":644924,"DIS_CODE":0,"TOWNNAME":"南區","LI":"竹溪里","LIN":"7鄰","STREET":"健康路","SECT":"一段","MAREA":" ","LANE":" ","ALLEY":" ","HOUSE_NO":"１８１號","E_COORD97":168780.16,"N_COORD97":2542417.4399999999,"ADDRESS":"健康路一段１８１號","OBJECTID":644897},"geometry":{"x":168780.15999999922,"y":2542417.4400000013}},{"attributes":{"ID":644925,"DIS_CODE":0,"TOWNNAME":"南區","LI":"竹溪里","LIN":"7鄰","STREET":"健康路","SECT":"一段","MAREA":" ","LANE":" ","ALLEY":" ","HOUSE_NO":"１８３號","E_COORD97":168774.92000000001,"N_COORD97":2542416.6200000001,"ADDRESS":"健康路一段１８３號","OBJECTID":644898},"geometry":{"x":168774.92000000179,"y":2542416.620000001}},{"attributes":{"ID":644926,"DIS_CODE":0,"TOWNNAME":"南區","LI":"竹溪里","LIN":"7鄰","STREET":"健康路","SECT":"一段","MAREA":" ","LANE":" ","ALLEY":" ","HOUSE_NO":"１８５號","E_COORD97":168753.88,"N_COORD97":2542412.1800000002,"ADDRESS":"健康路一段１８５號","OBJECTID":644899},"geometry":{"x":168753.88000000082,"y":2542412.1800000034}},{"attributes":{"ID":644927,"DIS_CODE":0,"TOWNNAME":"南區","LI":"竹溪里","LIN":"7鄰","STREET":"健康路","SECT":"一段","MAREA":" ","LANE":" ","ALLEY":" ","HOUSE_NO":"１９３號","E_COORD97":168746.82000000001,"N_COORD97":2542414.4199999999,"ADDRESS":"健康路一段１９３號","OBJECTID":644900},"geometry":{"x":168746.8200000003,"y":2542414.4200000037}},{"attributes":{"ID":644928,"DIS_CODE":0,"TOWNNAME":"南區","LI":"府南里","LIN":"27鄰","STREET":"大成路","SECT":"二段","MAREA":" ","LANE":" ","ALLEY":" ","HOUSE_NO":"１４１號","E_COORD97":167321.32999999999,"N_COORD97":2541724.0699999998,"ADDRESS":"大成路二段１４１號","OBJECTID":644901},"geometry":{"x":167321.33000000101,"y":2541724.0700000003}},{"attributes":{"ID":644929,"DIS_CODE":0,"TOWNNAME":"南區","LI":"松安里","LIN":"8鄰","STREET":"灣裡路","SECT":" ","MAREA":" ","LANE":" ","ALLEY":" ","HOUSE_NO":"２９６號","E_COORD97":166109.76999999999,"N_COORD97":2536379.27,"ADDRESS":"灣裡路２９６號","OBJECTID":644902},"geometry":{"x":166109.77000000048,"y":2536379.2699999996}},{"attributes":{"ID":644930,"DIS_CODE":0,"TOWNNAME":"南區","LI":"松安里","LIN":"8鄰","STREET":"灣裡路","SECT":" ","MAREA":" ","LANE":" ","ALLEY":" ","HOUSE_NO":"２９８號","E_COORD97":166109.29000000001,"N_COORD97":2536376.3900000001,"ADDRESS":"灣裡路２９８號","OBJECTID":644903},"geometry":{"x":166109.2900000019,"y":2536376.3900000006}},{"attributes":{"ID":644931,"DIS_CODE":0,"TOWNNAME":"鹽水區","LI":"三生里","LIN":"6鄰","STREET":"清泉路","SECT":" ","MAREA":" ","LANE":" ","ALLEY":" ","HOUSE_NO":"３３號","E_COORD97":175217.82999999999,"N_COORD97":2580093.96,"ADDRESS":"清泉路３３號","OBJECTID":644904},"geometry":{"x":175217.83000000101,"y":2580093.9600000028}},{"attributes":{"ID":644932,"DIS_CODE":0,"TOWNNAME":"鹽水區","LI":"三生里","LIN":"6鄰","STREET":"清泉路","SECT":" ","MAREA":" ","LANE":" ","ALLEY":" ","HOUSE_NO":"３５號之１","E_COORD97":175215.38,"N_COORD97":2580101.6699999999,"ADDRESS":"清泉路３５號之１","OBJECTID":644905},"geometry":{"x":175215.38000000082,"y":2580101.6700000018}},{"attributes":{"ID":644933,"DIS_CODE":0,"TOWNNAME":"鹽水區","LI":"三生里","LIN":"6鄰","STREET":"清泉路","SECT":" ","MAREA":" ","LANE":" ","ALLEY":" ","HOUSE_NO":"３５號之２","E_COORD97":175214.13,"N_COORD97":2580104.6499999999,"ADDRESS":"清泉路３５號之２","OBJECTID":644906},"geometry":{"x":175214.13000000082,"y":2580104.6500000022}},{"attributes":{"ID":644934,"DIS_CODE":0,"TOWNNAME":"鹽水區","LI":"三生里","LIN":"6鄰","STREET":"清泉路","SECT":" ","MAREA":" ","LANE":" ","ALLEY":" ","HOUSE_NO":"３５號之３","E_COORD97":175212.84,"N_COORD97":2580108.6600000001,"ADDRESS":"清泉路３５號之３","OBJECTID":644907},"geometry":{"x":175212.83999999985,"y":2580108.660000002}},{"attributes":{"ID":644935,"DIS_CODE":0,"TOWNNAME":"鹽水區","LI":"三生里","LIN":"6鄰","STREET":"清泉路","SECT":" ","MAREA":" ","LANE":" ","ALLEY":" ","HOUSE_NO":"３５號","E_COORD97":175216.70000000001,"N_COORD97":2580098,"ADDRESS":"清泉路３５號","OBJECTID":644908},"geometry":{"x":175216.70000000205,"y":2580098.0000000037}},{"attributes":{"ID":644936,"DIS_CODE":0,"TOWNNAME":"鹽水區","LI":"水秀里","LIN":"14鄰","STREET":"清泉路","SECT":" ","MAREA":" ","LANE":" ","ALLEY":" ","HOUSE_NO":"３６號","E_COORD97":175243.01999999999,"N_COORD97":2580104.75,"ADDRESS":"清泉路３６號","OBJECTID":644909},"geometry":{"x":175243.02000000048,"y":2580104.75}},{"attributes":{"ID":644937,"DIS_CODE":0,"TOWNNAME":"鹽水區","LI":"水秀里","LIN":"14鄰","STREET":"清泉路","SECT":" ","MAREA":" ","LANE":" ","ALLEY":" ","HOUSE_NO":"３８號","E_COORD97":175240.26000000001,"N_COORD97":2580109.2799999998,"ADDRESS":"清泉路３８號","OBJECTID":644910},"geometry":{"x":175240.26000000071,"y":2580109.2800000012}},{"attributes":{"ID":644938,"DIS_CODE":0,"TOWNNAME":"鹽水區","LI":"水秀里","LIN":"14鄰","STREET":"清泉路","SECT":" ","MAREA":" ","LANE":" ","ALLEY":" ","HOUSE_NO":"４０號","E_COORD97":175238.16,"N_COORD97":2580113.3300000001,"ADDRESS":"清泉路４０號","OBJECTID":644911},"geometry":{"x":175238.16000000015,"y":2580113.3300000019}},{"attributes":{"ID":644939,"DIS_CODE":0,"TOWNNAME":"鹽水區","LI":"三生里","LIN":"4鄰","STREET":"朝琴路","SECT":" ","MAREA":" ","LANE":" ","ALLEY":" ","HOUSE_NO":"１１號","E_COORD97":175140.63,"N_COORD97":2580014.2200000002,"ADDRESS":"朝琴路１１號","OBJECTID":644912},"geometry":{"x":175140.63000000175,"y":2580014.2200000007}},{"attributes":{"ID":644940,"DIS_CODE":0,"TOWNNAME":"鹽水區","LI":"水秀里","LIN":"8鄰","STREET":"朝琴路","SECT":" ","MAREA":" ","LANE":" ","ALLEY":" ","HOUSE_NO":"１００號","E_COORD97":175376.92000000001,"N_COORD97":2580105.1699999999,"ADDRESS":"朝琴路１００號","OBJECTID":644913},"geometry":{"x":175376.91999999993,"y":2580105.1699999999}},{"attributes":{"ID":644941,"DIS_CODE":0,"TOWNNAME":"鹽水區","LI":"三生里","LIN":"4鄰","STREET":"朝琴路","SECT":" ","MAREA":" ","LANE":" ","ALLEY":" ","HOUSE_NO":"１３號","E_COORD97":175144.62,"N_COORD97":2580014.25,"ADDRESS":"朝琴路１３號","OBJECTID":644914},"geometry":{"x":175144.62000000104,"y":2580014.25}},{"attributes":{"ID":644942,"DIS_CODE":0,"TOWNNAME":"鹽水區","LI":"三生里","LIN":"4鄰","STREET":"朝琴路","SECT":" ","MAREA":" ","LANE":" ","ALLEY":" ","HOUSE_NO":"１７號","E_COORD97":175157.54000000001,"N_COORD97":2580011.0099999998,"ADDRESS":"朝琴路１７號","OBJECTID":644915},"geometry":{"x":175157.54000000004,"y":2580011.0100000016}},{"attributes":{"ID":644943,"DIS_CODE":0,"TOWNNAME":"鹽水區","LI":"三生里","LIN":"4鄰","STREET":"朝琴路","SECT":" ","MAREA":" ","LANE":" ","ALLEY":" ","HOUSE_NO":"１９號","E_COORD97":175161.69,"N_COORD97":2580011.9700000002,"ADDRESS":"朝琴路１９號","OBJECTID":644916},"geometry":{"x":175161.69000000134,"y":2580011.9700000025}},{"attributes":{"ID":644944,"DIS_CODE":0,"TOWNNAME":"鹽水區","LI":"三生里","LIN":"4鄰","STREET":"朝琴路","SECT":" ","MAREA":" ","LANE":" ","ALLEY":" ","HOUSE_NO":"２１號","E_COORD97":175165.73999999999,"N_COORD97":2580013.7200000002,"ADDRESS":"朝琴路２１號","OBJECTID":644917},"geometry":{"x":175165.74000000115,"y":2580013.7200000025}},{"attributes":{"ID":644945,"DIS_CODE":0,"TOWNNAME":"鹽水區","LI":"三生里","LIN":"4鄰","STREET":"朝琴路","SECT":" ","MAREA":" ","LANE":" ","ALLEY":" ","HOUSE_NO":"３號之１","E_COORD97":175126.16,"N_COORD97":2580013.9300000002,"ADDRESS":"朝琴路３號之１","OBJECTID":644918},"geometry":{"x":175126.16000000108,"y":2580013.9300000016}},{"attributes":{"ID":644946,"DIS_CODE":0,"TOWNNAME":"鹽水區","LI":"三生里","LIN":"4鄰","STREET":"朝琴路","SECT":" ","MAREA":" ","LANE":" ","ALLEY":" ","HOUSE_NO":"３號","E_COORD97":175120.48999999999,"N_COORD97":2580013.9700000002,"ADDRESS":"朝琴路３號","OBJECTID":644919},"geometry":{"x":175120.49000000115,"y":2580013.9700000044}},{"attributes":{"ID":644947,"DIS_CODE":0,"TOWNNAME":"鹽水區","LI":"福得里","LIN":"4鄰","STREET":"朝琴路","SECT":" ","MAREA":" ","LANE":" ","ALLEY":" ","HOUSE_NO":"４０號","E_COORD97":175244.04000000001,"N_COORD97":2580019.3500000001,"ADDRESS":"朝琴路４０號","OBJECTID":644920},"geometry":{"x":175244.04000000004,"y":2580019.3499999996}},{"attributes":{"ID":644948,"DIS_CODE":0,"TOWNNAME":"鹽水區","LI":"福得里","LIN":"4鄰","STREET":"朝琴路","SECT":" ","MAREA":" ","LANE":" ","ALLEY":" ","HOUSE_NO":"４２號","E_COORD97":175248.03,"N_COORD97":2580021.7000000002,"ADDRESS":"朝琴路４２號","OBJECTID":644921},"geometry":{"x":175248.03000000026,"y":2580021.7000000011}},{"attributes":{"ID":644949,"DIS_CODE":0,"TOWNNAME":"鹽水區","LI":"福得里","LIN":"4鄰","STREET":"朝琴路","SECT":" ","MAREA":" ","LANE":" ","ALLEY":" ","HOUSE_NO":"４４號","E_COORD97":175251.67999999999,"N_COORD97":2580024.2799999998,"ADDRESS":"朝琴路４４號","OBJECTID":644922},"geometry":{"x":175251.6799999997,"y":2580024.2800000031}},{"attributes":{"ID":644950,"DIS_CODE":0,"TOWNNAME":"鹽水區","LI":"福得里","LIN":"4鄰","STREET":"朝琴路","SECT":" ","MAREA":" ","LANE":" ","ALLEY":" ","HOUSE_NO":"４６號","E_COORD97":175256.03,"N_COORD97":2580026.6600000001,"ADDRESS":"朝琴路４６號","OBJECTID":644923},"geometry":{"x":175256.03000000119,"y":2580026.660000002}},{"attributes":{"ID":644951,"DIS_CODE":0,"TOWNNAME":"鹽水區","LI":"三生里","LIN":"4鄰","STREET":"朝琴路","SECT":" ","MAREA":" ","LANE":" ","ALLEY":" ","HOUSE_NO":"７號","E_COORD97":175134.04000000001,"N_COORD97":2580014.0699999998,"ADDRESS":"朝琴路７號","OBJECTID":644924},"geometry":{"x":175134.04000000004,"y":2580014.0700000022}},{"attributes":{"ID":644952,"DIS_CODE":0,"TOWNNAME":"鹽水區","LI":"水秀里","LIN":"13鄰","STREET":"朝琴路","SECT":" ","MAREA":" ","LANE":" ","ALLEY":" ","HOUSE_NO":"６５號","E_COORD97":175264.91,"N_COORD97":2580067.0299999998,"ADDRESS":"朝琴路６５號","OBJECTID":644925},"geometry":{"x":175264.91000000108,"y":2580067.0300000012}},{"attributes":{"ID":644953,"DIS_CODE":0,"TOWNNAME":"鹽水區","LI":"水秀里","LIN":"13鄰","STREET":"朝琴路","SECT":" ","MAREA":" ","LANE":" ","ALLEY":" ","HOUSE_NO":"６７號","E_COORD97":175269.60999999999,"N_COORD97":2580069.1299999999,"ADDRESS":"朝琴路６７號","OBJECTID":644926},"geometry":{"x":175269.61000000034,"y":2580069.1300000008}},{"attributes":{"ID":644954,"DIS_CODE":0,"TOWNNAME":"鹽水區","LI":"水秀里","LIN":"13鄰","STREET":"朝琴路","SECT":" ","MAREA":" ","LANE":" ","ALLEY":" ","HOUSE_NO":"６９號","E_COORD97":175274.48999999999,"N_COORD97":2580071,"ADDRESS":"朝琴路６９號","OBJECTID":644927},"geometry":{"x":175274.49000000115,"y":2580071.0000000037}},{"attributes":{"ID":644955,"DIS_CODE":0,"TOWNNAME":"鹽水區","LI":"水秀里","LIN":"13鄰","STREET":"朝琴路","SECT":" ","MAREA":" ","LANE":" ","ALLEY":" ","HOUSE_NO":"７１號","E_COORD97":175278.06,"N_COORD97":2580075.75,"ADDRESS":"朝琴路７１號","OBJECTID":644928},"geometry":{"x":175278.06000000145,"y":2580075.7500000037}},{"attributes":{"ID":644956,"DIS_CODE":0,"TOWNNAME":"鹽水區","LI":"三生里","LIN":"4鄰","STREET":"朝琴路","SECT":" ","MAREA":" ","LANE":" ","ALLEY":" ","HOUSE_NO":"９號","E_COORD97":175137.17000000001,"N_COORD97":2580014.1600000001,"ADDRESS":"朝琴路９號","OBJECTID":644929},"geometry":{"x":175137.17000000086,"y":2580014.1600000001}},{"attributes":{"ID":644957,"DIS_CODE":0,"TOWNNAME":"鹽水區","LI":"橋南里","LIN":"8鄰","STREET":"新太路","SECT":" ","MAREA":" ","LANE":" ","ALLEY":" ","HOUSE_NO":"２０號","E_COORD97":175512.41,"N_COORD97":2578646.9700000002,"ADDRESS":"新太路２０號","OBJECTID":644930},"geometry":{"x":175512.41000000108,"y":2578646.9700000007}},{"attributes":{"ID":644958,"DIS_CODE":0,"TOWNNAME":"鹽水區","LI":"橋南里","LIN":"8鄰","STREET":"新太路","SECT":" ","MAREA":" ","LANE":" ","ALLEY":" ","HOUSE_NO":"２２之１號","E_COORD97":175514.29000000001,"N_COORD97":2578638.0899999999,"ADDRESS":"新太路２２之１號","OBJECTID":644931},"geometry":{"x":175514.2900000019,"y":2578638.0899999999}},{"attributes":{"ID":644959,"DIS_CODE":0,"TOWNNAME":"鹽水區","LI":"橋南里","LIN":"8鄰","STREET":"新太路","SECT":" ","MAREA":" ","LANE":" ","ALLEY":" ","HOUSE_NO":"２２之２號","E_COORD97":175515.23000000001,"N_COORD97":2578633.6400000001,"ADDRESS":"新太路２２之２號","OBJECTID":644932},"geometry":{"x":175515.23000000138,"y":2578633.6400000025}},{"attributes":{"ID":644960,"DIS_CODE":0,"TOWNNAME":"鹽水區","LI":"橋南里","LIN":"8鄰","STREET":"新太路","SECT":" ","MAREA":" ","LANE":" ","ALLEY":" ","HOUSE_NO":"２２號","E_COORD97":175513.35000000001,"N_COORD97":2578642.5299999998,"ADDRESS":"新太路２２號","OBJECTID":644933},"geometry":{"x":175513.35000000149,"y":2578642.5300000031}},{"attributes":{"ID":644961,"DIS_CODE":0,"TOWNNAME":"鹽水區","LI":"橋南里","LIN":"4鄰","STREET":"橋南街","SECT":" ","MAREA":" ","LANE":" ","ALLEY":" ","HOUSE_NO":"８７號","E_COORD97":175158.13,"N_COORD97":2579372.6899999999,"ADDRESS":"橋南街８７號","OBJECTID":644934},"geometry":{"x":175158.13000000082,"y":2579372.6899999995}},{"attributes":{"ID":644962,"DIS_CODE":0,"TOWNNAME":"鹽水區","LI":"橋南里","LIN":"4鄰","STREET":"橋南街","SECT":" ","MAREA":" ","LANE":" ","ALLEY":" ","HOUSE_NO":"９１號","E_COORD97":175162.29000000001,"N_COORD97":2579364.3199999998,"ADDRESS":"橋南街９１號","OBJECTID":644935},"geometry":{"x":175162.29000000097,"y":2579364.3200000022}},{"attributes":{"ID":644963,"DIS_CODE":0,"TOWNNAME":"鹽水區","LI":"橋南里","LIN":"13鄰","STREET":"橋南街","SECT":" ","MAREA":" ","LANE":" ","ALLEY":" ","HOUSE_NO":"１０號","E_COORD97":175086.89999999999,"N_COORD97":2579551.4700000002,"ADDRESS":"橋南街１０號","OBJECTID":644936},"geometry":{"x":175086.9000000013,"y":2579551.4700000007}},{"attributes":{"ID":644964,"DIS_CODE":0,"TOWNNAME":"鹽水區","LI":"橋南里","LIN":"13鄰","STREET":"橋南街","SECT":" ","MAREA":" ","LANE":" ","ALLEY":" ","HOUSE_NO":"１２號","E_COORD97":175090.39000000001,"N_COORD97":2579549.27,"ADDRESS":"橋南街１２號","OBJECTID":644937},"geometry":{"x":175090.38999999966,"y":2579549.2699999996}},{"attributes":{"ID":644965,"DIS_CODE":0,"TOWNNAME":"鹽水區","LI":"橋南里","LIN":"13鄰","STREET":"橋南街","SECT":" ","MAREA":" ","LANE":" ","ALLEY":" ","HOUSE_NO":"１４號","E_COORD97":175106.79000000001,"N_COORD97":2579544.7400000002,"ADDRESS":"橋南街１４號","OBJECTID":644938},"geometry":{"x":175106.79000000004,"y":2579544.7400000021}},{"attributes":{"ID":644966,"DIS_CODE":0,"TOWNNAME":"鹽水區","LI":"岸內里","LIN":"11鄰","STREET":"朝琴路","SECT":" ","MAREA":" ","LANE":" ","ALLEY":" ","HOUSE_NO":"２４３號","E_COORD97":175809.81,"N_COORD97":2580471.4399999999,"ADDRESS":"朝琴路２４３號","OBJECTID":644939},"geometry":{"x":175809.80999999959,"y":2580471.4400000013}},{"attributes":{"ID":644967,"DIS_CODE":0,"TOWNNAME":"鹽水區","LI":"橋南里","LIN":"13鄰","STREET":"橋南街","SECT":" ","MAREA":" ","LANE":" ","ALLEY":" ","HOUSE_NO":"１６號","E_COORD97":175107.04999999999,"N_COORD97":2579540.0099999998,"ADDRESS":"橋南街１６號","OBJECTID":644940},"geometry":{"x":175107.05000000168,"y":2579540.0099999998}},{"attributes":{"ID":644968,"DIS_CODE":0,"TOWNNAME":"鹽水區","LI":"橋南里","LIN":"13鄰","STREET":"橋南街","SECT":" ","MAREA":" ","LANE":" ","ALLEY":" ","HOUSE_NO":"１８號","E_COORD97":175107.31,"N_COORD97":2579535.2799999998,"ADDRESS":"橋南街１８號","OBJECTID":644941},"geometry":{"x":175107.31000000052,"y":2579535.2799999993}},{"attributes":{"ID":644969,"DIS_CODE":0,"TOWNNAME":"鹽水區","LI":"橋南里","LIN":"13鄰","STREET":"橋南街","SECT":" ","MAREA":" ","LANE":" ","ALLEY":" ","HOUSE_NO":"２０號","E_COORD97":175094.07000000001,"N_COORD97":2579530.8999999999,"ADDRESS":"橋南街２０號","OBJECTID":644942},"geometry":{"x":175094.07000000123,"y":2579530.9000000022}},{"attributes":{"ID":644970,"DIS_CODE":0,"TOWNNAME":"鹽水區","LI":"橋南里","LIN":"13鄰","STREET":"橋南街","SECT":" ","MAREA":" ","LANE":" ","ALLEY":" ","HOUSE_NO":"２４號","E_COORD97":175107.35000000001,"N_COORD97":2579521.2799999998,"ADDRESS":"橋南街２４號","OBJECTID":644943},"geometry":{"x":175107.35000000056,"y":2579521.2799999993}},{"attributes":{"ID":644971,"DIS_CODE":0,"TOWNNAME":"鹽水區","LI":"橋南里","LIN":"13鄰","STREET":"橋南街","SECT":" ","MAREA":" ","LANE":" ","ALLEY":" ","HOUSE_NO":"２６號","E_COORD97":175107.44,"N_COORD97":2579516.54,"ADDRESS":"橋南街２６號","OBJECTID":644944},"geometry":{"x":175107.44000000134,"y":2579516.5399999991}},{"attributes":{"ID":644972,"DIS_CODE":0,"TOWNNAME":"鹽水區","LI":"水正里","LIN":"13鄰","STREET":"橋南街","SECT":" ","MAREA":" ","LANE":" ","ALLEY":" ","HOUSE_NO":"２號","E_COORD97":175044.14999999999,"N_COORD97":2579580.4500000002,"ADDRESS":"橋南街２號","OBJECTID":644945},"geometry":{"x":175044.15000000037,"y":2579580.4499999993}},{"attributes":{"ID":644973,"DIS_CODE":0,"TOWNNAME":"鹽水區","LI":"橋南里","LIN":"13鄰","STREET":"橋南街","SECT":" ","MAREA":" ","LANE":" ","ALLEY":" ","HOUSE_NO":"３０號","E_COORD97":175107.62,"N_COORD97":2579507.0600000001,"ADDRESS":"橋南街３０號","OBJECTID":644946},"geometry":{"x":175107.62000000104,"y":2579507.0600000005}},{"attributes":{"ID":644974,"DIS_CODE":0,"TOWNNAME":"鹽水區","LI":"橋南里","LIN":"4鄰","STREET":"橋南街","SECT":" ","MAREA":" ","LANE":" ","ALLEY":" ","HOUSE_NO":"６３號","E_COORD97":175145.37,"N_COORD97":2579422.8799999999,"ADDRESS":"橋南街６３號","OBJECTID":644947},"geometry":{"x":175145.37000000011,"y":2579422.8800000027}},{"attributes":{"ID":644975,"DIS_CODE":0,"TOWNNAME":"鹽水區","LI":"橋南里","LIN":"4鄰","STREET":"橋南街","SECT":" ","MAREA":" ","LANE":" ","ALLEY":" ","HOUSE_NO":"６５號","E_COORD97":175147.01999999999,"N_COORD97":2579417.4199999999,"ADDRESS":"橋南街６５號","OBJECTID":644948},"geometry":{"x":175147.01999999955,"y":2579417.4200000018}},{"attributes":{"ID":644976,"DIS_CODE":0,"TOWNNAME":"鹽水區","LI":"橋南里","LIN":"4鄰","STREET":"橋南街","SECT":" ","MAREA":" ","LANE":" ","ALLEY":" ","HOUSE_NO":"６７號","E_COORD97":175147.97,"N_COORD97":2579413.6699999999,"ADDRESS":"橋南街６７號","OBJECTID":644949},"geometry":{"x":175147.96999999974,"y":2579413.6699999999}},{"attributes":{"ID":644977,"DIS_CODE":0,"TOWNNAME":"鹽水區","LI":"橋南里","LIN":"4鄰","STREET":"橋南街","SECT":" ","MAREA":" ","LANE":" ","ALLEY":" ","HOUSE_NO":"６９號","E_COORD97":175149.10999999999,"N_COORD97":2579409.98,"ADDRESS":"橋南街６９號","OBJECTID":644950},"geometry":{"x":175149.11000000034,"y":2579409.9799999986}},{"attributes":{"ID":644978,"DIS_CODE":0,"TOWNNAME":"鹽水區","LI":"橋南里","LIN":"4鄰","STREET":"橋南街","SECT":" ","MAREA":" ","LANE":" ","ALLEY":" ","HOUSE_NO":"７１號","E_COORD97":175149.88,"N_COORD97":2579405.9399999999,"ADDRESS":"橋南街７１號","OBJECTID":644951},"geometry":{"x":175149.87999999989,"y":2579405.9399999976}},{"attributes":{"ID":644979,"DIS_CODE":0,"TOWNNAME":"鹽水區","LI":"橋南里","LIN":"4鄰","STREET":"橋南街","SECT":" ","MAREA":" ","LANE":" ","ALLEY":" ","HOUSE_NO":"８３號","E_COORD97":175159.48000000001,"N_COORD97":2579383.2799999998,"ADDRESS":"橋南街８３號","OBJECTID":644952},"geometry":{"x":175159.48000000138,"y":2579383.2800000031}},{"attributes":{"ID":644980,"DIS_CODE":0,"TOWNNAME":"鹽水區","LI":"橋南里","LIN":"4鄰","STREET":"橋南街","SECT":" ","MAREA":" ","LANE":" ","ALLEY":" ","HOUSE_NO":"８５號","E_COORD97":175159.57000000001,"N_COORD97":2579377.23,"ADDRESS":"橋南街８５號","OBJECTID":644953},"geometry":{"x":175159.5700000003,"y":2579377.2300000004}},{"attributes":{"ID":644981,"DIS_CODE":0,"TOWNNAME":"鹽水區","LI":"中境里","LIN":" ","STREET":"三福路","SECT":" ","MAREA":" ","LANE":" ","ALLEY":" ","HOUSE_NO":"１１０號","E_COORD97":174742.45999999999,"N_COORD97":2580141.1699999999,"ADDRESS":"三福路１１０號","OBJECTID":644954},"geometry":{"x":174742.46000000089,"y":2580141.1700000018}},{"attributes":{"ID":644982,"DIS_CODE":0,"TOWNNAME":"鹽水區","LI":"中境里","LIN":" ","STREET":"三福路","SECT":" ","MAREA":" ","LANE":" ","ALLEY":" ","HOUSE_NO":"１１９之５號","E_COORD97":174647.48999999999,"N_COORD97":2580214.1400000001,"ADDRESS":"三福路１１９之５號","OBJECTID":644955},"geometry":{"x":174647.49000000115,"y":2580214.1400000025}},{"attributes":{"ID":644983,"DIS_CODE":0,"TOWNNAME":"鹽水區","LI":"中境里","LIN":" ","STREET":"三福路","SECT":" ","MAREA":" ","LANE":" ","ALLEY":" ","HOUSE_NO":"１３０號","E_COORD97":174681.94,"N_COORD97":2580348.6899999999,"ADDRESS":"三福路１３０號","OBJECTID":644956},"geometry":{"x":174681.94000000134,"y":2580348.6899999995}},{"attributes":{"ID":644984,"DIS_CODE":0,"TOWNNAME":"鹽水區","LI":"武廟里","LIN":" ","STREET":"三福路","SECT":" ","MAREA":" ","LANE":" ","ALLEY":" ","HOUSE_NO":"３８號","E_COORD97":175028.45000000001,"N_COORD97":2580022.3100000001,"ADDRESS":"三福路３８號","OBJECTID":644957},"geometry":{"x":175028.45000000205,"y":2580022.3100000024}},{"attributes":{"ID":644985,"DIS_CODE":0,"TOWNNAME":"鹽水區","LI":"武廟里","LIN":" ","STREET":"三福路","SECT":" ","MAREA":" ","LANE":" ","ALLEY":" ","HOUSE_NO":"４０號","E_COORD97":175023.67999999999,"N_COORD97":2580022.2200000002,"ADDRESS":"三福路４０號","OBJECTID":644958},"geometry":{"x":175023.68000000063,"y":2580022.2200000007}},{"attributes":{"ID":644986,"DIS_CODE":0,"TOWNNAME":"鹽水區","LI":"武廟里","LIN":" ","STREET":"三福路","SECT":" ","MAREA":" ","LANE":" ","ALLEY":" ","HOUSE_NO":"５６號","E_COORD97":174986.17999999999,"N_COORD97":2580025.1699999999,"ADDRESS":"三福路５６號","OBJECTID":644959},"geometry":{"x":174986.18000000063,"y":2580025.1699999999}},{"attributes":{"ID":644987,"DIS_CODE":0,"TOWNNAME":"安平區","LI":"平安里","LIN":"4鄰","STREET":"安平路","SECT":" ","MAREA":" ","LANE":" ","ALLEY":" ","HOUSE_NO":"１３４號","E_COORD97":166251.66,"N_COORD97":2544341.8300000001,"ADDRESS":"安平路１３４號","OBJECTID":644960},"geometry":{"x":166251.66000000108,"y":2544341.8300000019}},{"attributes":{"ID":644988,"DIS_CODE":0,"TOWNNAME":"安平區","LI":"漁光里","LIN":"4鄰","STREET":"漁光路","SECT":" ","MAREA":" ","LANE":" ","ALLEY":" ","HOUSE_NO":"１１４號","E_COORD97":163482.04000000001,"N_COORD97":2542536.5600000001,"ADDRESS":"漁光路１１４號","OBJECTID":644961},"geometry":{"x":163482.04000000097,"y":2542536.5600000024}},{"attributes":{"ID":644989,"DIS_CODE":0,"TOWNNAME":"鹽水區","LI":"岸內里","LIN":" ","STREET":"和平路","SECT":" ","MAREA":" ","LANE":" ","ALLEY":" ","HOUSE_NO":"１８３號","E_COORD97":175394.82000000001,"N_COORD97":2580557.9900000002,"ADDRESS":"和平路１８３號","OBJECTID":644962},"geometry":{"x":175394.8200000003,"y":2580557.9900000002}},{"attributes":{"ID":644990,"DIS_CODE":0,"TOWNNAME":"安平區","LI":"金城里","LIN":"4鄰","STREET":"湖內一街","SECT":" ","MAREA":" ","LANE":" ","ALLEY":" ","HOUSE_NO":"６０號","E_COORD97":163749.39999999999,"N_COORD97":2544305.5299999998,"ADDRESS":"湖內一街６０號","OBJECTID":644963},"geometry":{"x":163749.4000000013,"y":2544305.5300000012}},{"attributes":{"ID":644991,"DIS_CODE":0,"TOWNNAME":"安平區","LI":"金城里","LIN":"4鄰","STREET":"湖內一街","SECT":" ","MAREA":" ","LANE":" ","ALLEY":" ","HOUSE_NO":"６２號","E_COORD97":163747.98000000001,"N_COORD97":2544309.98,"ADDRESS":"湖內一街６２號","OBJECTID":644964},"geometry":{"x":163747.98000000045,"y":2544309.9800000023}},{"attributes":{"ID":644992,"DIS_CODE":0,"TOWNNAME":"安平區","LI":"金城里","LIN":"4鄰","STREET":"湖內一街","SECT":" ","MAREA":" ","LANE":" ","ALLEY":" ","HOUSE_NO":"６４號","E_COORD97":163747.17000000001,"N_COORD97":2544314.2400000002,"ADDRESS":"湖內一街６４號","OBJECTID":644965},"geometry":{"x":163747.17000000086,"y":2544314.2399999984}},{"attributes":{"ID":644993,"DIS_CODE":0,"TOWNNAME":"安平區","LI":"金城里","LIN":"4鄰","STREET":"湖內一街","SECT":" ","MAREA":" ","LANE":" ","ALLEY":" ","HOUSE_NO":"６６號","E_COORD97":163745.95000000001,"N_COORD97":2544318.4900000002,"ADDRESS":"湖內一街６６號","OBJECTID":644966},"geometry":{"x":163745.95000000112,"y":2544318.4900000002}},{"attributes":{"ID":644994,"DIS_CODE":0,"TOWNNAME":"安平區","LI":"建平里","LIN":" ","STREET":"建平十二街","SECT":" ","MAREA":" ","LANE":" ","ALLEY":" ","HOUSE_NO":"６３號","E_COORD97":166106.5,"N_COORD97":2543964.3799999999,"ADDRESS":"建平十二街６３號","OBJECTID":644967},"geometry":{"x":166106.50000000093,"y":2543964.3800000008}},{"attributes":{"ID":644995,"DIS_CODE":0,"TOWNNAME":"安平區","LI":"文平里","LIN":"21鄰","STREET":"建平路","SECT":" ","MAREA":" ","LANE":" ","ALLEY":" ","HOUSE_NO":"５號","E_COORD97":166010.92999999999,"N_COORD97":2542663.02,"ADDRESS":"建平路５號","OBJECTID":644968},"geometry":{"x":166010.9299999997,"y":2542663.0199999996}},{"attributes":{"ID":644996,"DIS_CODE":0,"TOWNNAME":"鹽水區","LI":"中境里","LIN":" ","STREET":"中山路","SECT":" ","MAREA":" ","LANE":" ","ALLEY":" ","HOUSE_NO":"１號","E_COORD97":175085.17999999999,"N_COORD97":2579907.0600000001,"ADDRESS":"中山路１號","OBJECTID":644969},"geometry":{"x":175085.1799999997,"y":2579907.0600000005}},{"attributes":{"ID":644997,"DIS_CODE":0,"TOWNNAME":"鹽水區","LI":"中境里","LIN":" ","STREET":"中山路","SECT":" ","MAREA":" ","LANE":" ","ALLEY":" ","HOUSE_NO":"２６號","E_COORD97":174963.51999999999,"N_COORD97":2579931.5499999998,"ADDRESS":"中山路２６號","OBJECTID":644970},"geometry":{"x":174963.52000000048,"y":2579931.5500000007}},{"attributes":{"ID":644998,"DIS_CODE":0,"TOWNNAME":"鹽水區","LI":"水正里","LIN":" ","STREET":"中山路","SECT":" ","MAREA":" ","LANE":" ","ALLEY":" ","HOUSE_NO":"２之１號","E_COORD97":175147.16,"N_COORD97":2579888.1099999999,"ADDRESS":"中山路２之１號","OBJECTID":644971},"geometry":{"x":175147.16000000015,"y":2579888.1099999994}},{"attributes":{"ID":644999,"DIS_CODE":0,"TOWNNAME":"鹽水區","LI":"三生里","LIN":" ","STREET":"民生街","SECT":" ","MAREA":" ","LANE":" ","ALLEY":" ","HOUSE_NO":"１５號","E_COORD97":175109.54000000001,"N_COORD97":2580100.3700000001,"ADDRESS":"民生街１５號","OBJECTID":644972},"geometry":{"x":175109.54000000097,"y":2580100.3700000029}},{"attributes":{"ID":645000,"DIS_CODE":0,"TOWNNAME":"鹽水區","LI":"三生里","LIN":" ","STREET":"民生街","SECT":" ","MAREA":" ","LANE":" ","ALLEY":" ","HOUSE_NO":"１號","E_COORD97":175111.91,"N_COORD97":2580013.6299999999,"ADDRESS":"民生街１號","OBJECTID":644973},"geometry":{"x":175111.91000000201,"y":2580013.629999999}},{"attributes":{"ID":645001,"DIS_CODE":0,"TOWNNAME":"鹽水區","LI":"武廟里","LIN":" ","STREET":"民生街","SECT":" ","MAREA":" ","LANE":" ","ALLEY":" ","HOUSE_NO":"２８之２號","E_COORD97":175086.5,"N_COORD97":2580151.8599999999,"ADDRESS":"民生街２８之２號","OBJECTID":644974},"geometry":{"x":175086.5,"y":2580151.8599999994}},{"attributes":{"ID":645002,"DIS_CODE":0,"TOWNNAME":"鹽水區","LI":"三生里","LIN":" ","STREET":"民生街","SECT":" ","MAREA":" ","LANE":" ","ALLEY":" ","HOUSE_NO":"３號","E_COORD97":175113.14999999999,"N_COORD97":2580021.9300000002,"ADDRESS":"民生街３號","OBJECTID":644975},"geometry":{"x":175113.15000000037,"y":2580021.9299999997}},{"attributes":{"ID":645003,"DIS_CODE":0,"TOWNNAME":"鹽水區","LI":"武廟里","LIN":" ","STREET":"民生街","SECT":" ","MAREA":" ","LANE":" ","ALLEY":" ","HOUSE_NO":"４９號","E_COORD97":175078.67999999999,"N_COORD97":2580270.3900000001,"ADDRESS":"民生街４９號","OBJECTID":644976},"geometry":{"x":175078.6799999997,"y":2580270.3900000025}},{"attributes":{"ID":645004,"DIS_CODE":0,"TOWNNAME":"鹽水區","LI":"三生里","LIN":" ","STREET":"民生街","SECT":" ","MAREA":" ","LANE":" ","ALLEY":" ","HOUSE_NO":"６號","E_COORD97":175112.17000000001,"N_COORD97":2580037.77,"ADDRESS":"民生街６號","OBJECTID":644977},"geometry":{"x":175112.17000000086,"y":2580037.7699999977}},{"attributes":{"ID":645005,"DIS_CODE":0,"TOWNNAME":"鹽水區","LI":"橋南里","LIN":" ","STREET":"行昌路","SECT":" ","MAREA":" ","LANE":" ","ALLEY":" ","HOUSE_NO":"３７號","E_COORD97":175169.09,"N_COORD97":2579396.4700000002,"ADDRESS":"行昌路３７號","OBJECTID":644978},"geometry":{"x":175169.08999999985,"y":2579396.4700000007}},{"attributes":{"ID":645006,"DIS_CODE":0,"TOWNNAME":"鹽水區","LI":"橋南里","LIN":" ","STREET":"行昌路","SECT":" ","MAREA":" ","LANE":" ","ALLEY":" ","HOUSE_NO":"３號","E_COORD97":174970.69,"N_COORD97":2579308.2799999998,"ADDRESS":"行昌路３號","OBJECTID":644979},"geometry":{"x":174970.69000000041,"y":2579308.2799999993}},{"attributes":{"ID":645007,"DIS_CODE":0,"TOWNNAME":"鹽水區","LI":"橋南里","LIN":" ","STREET":"行昌路","SECT":" ","MAREA":" ","LANE":" ","ALLEY":" ","HOUSE_NO":"７８號","E_COORD97":175214.17999999999,"N_COORD97":2579438.8399999999,"ADDRESS":"行昌路７８號","OBJECTID":644980},"geometry":{"x":175214.1799999997,"y":2579438.8400000017}},{"attributes":{"ID":645008,"DIS_CODE":0,"TOWNNAME":"鹽水區","LI":"橋南里","LIN":" ","STREET":"忠孝路","SECT":" ","MAREA":" ","LANE":" ","ALLEY":" ","HOUSE_NO":"１０９號","E_COORD97":175652.04999999999,"N_COORD97":2578887.54,"ADDRESS":"忠孝路１０９號","OBJECTID":644981},"geometry":{"x":175652.05000000075,"y":2578887.540000001}},{"attributes":{"ID":645009,"DIS_CODE":0,"TOWNNAME":"鹽水區","LI":"橋南里","LIN":" ","STREET":"忠孝路","SECT":" ","MAREA":" ","LANE":" ","ALLEY":" ","HOUSE_NO":"１１５號","E_COORD97":175637.73999999999,"N_COORD97":2578889.29,"ADDRESS":"忠孝路１１５號","OBJECTID":644982},"geometry":{"x":175637.74000000022,"y":2578889.290000001}},{"attributes":{"ID":645010,"DIS_CODE":0,"TOWNNAME":"鹽水區","LI":"橋南里","LIN":" ","STREET":"忠孝路","SECT":" ","MAREA":" ","LANE":" ","ALLEY":" ","HOUSE_NO":"１３６號","E_COORD97":175374.54999999999,"N_COORD97":2578959.3599999999,"ADDRESS":"忠孝路１３６號","OBJECTID":644983},"geometry":{"x":175374.54999999981,"y":2578959.3600000013}},{"attributes":{"ID":645011,"DIS_CODE":0,"TOWNNAME":"鹽水區","LI":"橋南里","LIN":" ","STREET":"忠孝路","SECT":" ","MAREA":" ","LANE":" ","ALLEY":" ","HOUSE_NO":"１６１號","E_COORD97":175505.95000000001,"N_COORD97":2578906.9100000001,"ADDRESS":"忠孝路１６１號","OBJECTID":644984},"geometry":{"x":175505.95000000019,"y":2578906.910000002}},{"attributes":{"ID":645012,"DIS_CODE":0,"TOWNNAME":"鹽水區","LI":"橋南里","LIN":" ","STREET":"忠孝路","SECT":" ","MAREA":" ","LANE":" ","ALLEY":" ","HOUSE_NO":"２０１號","E_COORD97":175492.92000000001,"N_COORD97":2578908.6899999999,"ADDRESS":"忠孝路２０１號","OBJECTID":644985},"geometry":{"x":175492.92000000179,"y":2578908.6899999995}},{"attributes":{"ID":645013,"DIS_CODE":0,"TOWNNAME":"鹽水區","LI":"橋南里","LIN":" ","STREET":"忠孝路","SECT":" ","MAREA":" ","LANE":" ","ALLEY":" ","HOUSE_NO":"２１１號","E_COORD97":175358.59,"N_COORD97":2578913.7400000002,"ADDRESS":"忠孝路２１１號","OBJECTID":644986},"geometry":{"x":175358.59000000078,"y":2578913.7400000021}},{"attributes":{"ID":645014,"DIS_CODE":0,"TOWNNAME":"鹽水區","LI":"橋南里","LIN":" ","STREET":"忠孝路","SECT":" ","MAREA":" ","LANE":" ","ALLEY":" ","HOUSE_NO":"２１３號","E_COORD97":175344.31,"N_COORD97":2578914.2999999998,"ADDRESS":"忠孝路２１３號","OBJECTID":644987},"geometry":{"x":175344.31000000052,"y":2578914.3000000026}},{"attributes":{"ID":645015,"DIS_CODE":0,"TOWNNAME":"鹽水區","LI":"橋南里","LIN":" ","STREET":"忠孝路","SECT":" ","MAREA":" ","LANE":" ","ALLEY":" ","HOUSE_NO":"４５號","E_COORD97":175885.35999999999,"N_COORD97":2578846.3599999999,"ADDRESS":"忠孝路４５號","OBJECTID":644988},"geometry":{"x":175885.3600000022,"y":2578846.3599999994}},{"attributes":{"ID":645016,"DIS_CODE":0,"TOWNNAME":"鹽水區","LI":"橋南里","LIN":" ","STREET":"忠孝路","SECT":" ","MAREA":" ","LANE":" ","ALLEY":" ","HOUSE_NO":"５０號","E_COORD97":175880.81,"N_COORD97":2578925.9300000002,"ADDRESS":"忠孝路５０號","OBJECTID":644989},"geometry":{"x":175880.80999999959,"y":2578925.9300000016}},{"attributes":{"ID":645017,"DIS_CODE":0,"TOWNNAME":"鹽水區","LI":"橋南里","LIN":" ","STREET":"忠孝路","SECT":" ","MAREA":" ","LANE":" ","ALLEY":" ","HOUSE_NO":"７３號","E_COORD97":175774.04000000001,"N_COORD97":2578800.7999999998,"ADDRESS":"忠孝路７３號","OBJECTID":644990},"geometry":{"x":175774.04000000097,"y":2578800.8000000007}},{"attributes":{"ID":645018,"DIS_CODE":0,"TOWNNAME":"鹽水區","LI":"水秀里","LIN":" ","STREET":"忠義路","SECT":" ","MAREA":" ","LANE":" ","ALLEY":" ","HOUSE_NO":"７號","E_COORD97":175257.34,"N_COORD97":2580137.7599999998,"ADDRESS":"忠義路７號","OBJECTID":644991},"geometry":{"x":175257.33999999985,"y":2580137.7600000016}},{"attributes":{"ID":645019,"DIS_CODE":0,"TOWNNAME":"鹽水區","LI":"中境里","LIN":" ","STREET":"武廟路","SECT":" ","MAREA":" ","LANE":" ","ALLEY":" ","HOUSE_NO":"２３之１號","E_COORD97":174867.38,"N_COORD97":2579985.5800000001,"ADDRESS":"武廟路２３之１號","OBJECTID":644992},"geometry":{"x":174867.37999999989,"y":2579985.5800000038}},{"attributes":{"ID":645020,"DIS_CODE":0,"TOWNNAME":"鹽水區","LI":"中境里","LIN":" ","STREET":"武廟路","SECT":" ","MAREA":" ","LANE":" ","ALLEY":" ","HOUSE_NO":"５之１號","E_COORD97":174783.69,"N_COORD97":2579964.23,"ADDRESS":"武廟路５之１號","OBJECTID":644993},"geometry":{"x":174783.69000000134,"y":2579964.2300000004}},{"attributes":{"ID":645021,"DIS_CODE":0,"TOWNNAME":"鹽水區","LI":"武廟里","LIN":" ","STREET":"武廟路","SECT":" ","MAREA":" ","LANE":" ","ALLEY":" ","HOUSE_NO":"７８之１號","E_COORD97":174966.48999999999,"N_COORD97":2580198.1600000001,"ADDRESS":"武廟路７８之１號","OBJECTID":644994},"geometry":{"x":174966.49000000022,"y":2580198.1600000001}},{"attributes":{"ID":645022,"DIS_CODE":0,"TOWNNAME":"鹽水區","LI":"橋南里","LIN":" ","STREET":"南太路","SECT":" ","MAREA":" ","LANE":" ","ALLEY":" ","HOUSE_NO":"２２號","E_COORD97":175409.79000000001,"N_COORD97":2578851.3300000001,"ADDRESS":"南太路２２號","OBJECTID":644995},"geometry":{"x":175409.79000000097,"y":2578851.3300000038}},{"attributes":{"ID":645023,"DIS_CODE":0,"TOWNNAME":"鹽水區","LI":"橋南里","LIN":" ","STREET":"南太路","SECT":" ","MAREA":" ","LANE":" ","ALLEY":" ","HOUSE_NO":"２８之２號","E_COORD97":175476.94,"N_COORD97":2578719.23,"ADDRESS":"南太路２８之２號","OBJECTID":644996},"geometry":{"x":175476.94000000134,"y":2578719.2300000004}},{"attributes":{"ID":645024,"DIS_CODE":0,"TOWNNAME":"鹽水區","LI":"橋南里","LIN":" ","STREET":"南門路","SECT":" ","MAREA":" ","LANE":" ","ALLEY":" ","HOUSE_NO":"１７號","E_COORD97":175053.95999999999,"N_COORD97":2579469.02,"ADDRESS":"南門路１７號","OBJECTID":644997},"geometry":{"x":175053.96000000089,"y":2579469.0199999996}},{"attributes":{"ID":645025,"DIS_CODE":0,"TOWNNAME":"鹽水區","LI":"橋南里","LIN":" ","STREET":"南門路","SECT":" ","MAREA":" ","LANE":" ","ALLEY":" ","HOUSE_NO":"１８３之１號","E_COORD97":175377.42000000001,"N_COORD97":2579039.8999999999,"ADDRESS":"南門路１８３之１號","OBJECTID":644998},"geometry":{"x":175377.41999999993,"y":2579039.9000000004}},{"attributes":{"ID":645026,"DIS_CODE":0,"TOWNNAME":"鹽水區","LI":"橋南里","LIN":" ","STREET":"南門路","SECT":" ","MAREA":" ","LANE":" ","ALLEY":" ","HOUSE_NO":"１８３號","E_COORD97":175380.20000000001,"N_COORD97":2579029.54,"ADDRESS":"南門路１８３號","OBJECTID":644999},"geometry":{"x":175380.20000000112,"y":2579029.540000001}},{"attributes":{"ID":645027,"DIS_CODE":0,"TOWNNAME":"鹽水區","LI":"橋南里","LIN":" ","STREET":"南門路","SECT":" ","MAREA":" ","LANE":" ","ALLEY":" ","HOUSE_NO":"１８８號","E_COORD97":175373.57000000001,"N_COORD97":2578997.4300000002,"ADDRESS":"南門路１８８號","OBJECTID":645000},"geometry":{"x":175373.57000000216,"y":2578997.4300000016}}]}